{"displayFieldName":"TOWNNAME","fieldAliases":{"ID":"ID","DIS_CODE":"DIS_CODE","TOWNNAME":"TOWNNAME","LI":"LI","LIN":"LIN","STREET":"STREET","SECT":"SECT","MAREA":"MAREA","LANE":"LANE","ALLEY":"ALLEY","HOUSE_NO":"HOUSE_NO","E_COORD97":"E_COORD97","N_COORD97":"N_COORD97","ADDRESS":"ADDRESS","OBJECTID":"OBJECTID"},"geometryType":"esriGeometryPoint","spatialReference":{"wkid":102443,"latestWkid":3826},"fields":[{"name":"ID","type":"esriFieldTypeDouble","alias":"ID"},{"name":"DIS_CODE","type":"esriFieldTypeInteger","alias":"DIS_CODE"},{"name":"TOWNNAME","type":"esriFieldTypeString","alias":"TOWNNAME","length":8},{"name":"LI","type":"esriFieldTypeString","alias":"LI","length":8},{"name":"LIN","type":"esriFieldTypeString","alias":"LIN","length":12},{"name":"STREET","type":"esriFieldTypeString","alias":"STREET","length":20},{"name":"SECT","type":"esriFieldTypeString","alias":"SECT","length":8},{"name":"MAREA","type":"esriFieldTypeString","alias":"MAREA","length":12},{"name":"LANE","type":"esriFieldTypeString","alias":"LANE","length":10},{"name":"ALLEY","type":"esriFieldTypeString","alias":"ALLEY","length":10},{"name":"HOUSE_NO","type":"esriFieldTypeString","alias":"HOUSE_NO","length":20},{"name":"E_COORD97","type":"esriFieldTypeDouble","alias":"E_COORD97"},{"name":"N_COORD97","type":"esriFieldTypeDouble","alias":"N_COORD97"},{"name":"ADDRESS","type":"esriFieldTypeString","alias":"ADDRESS","length":50},{"name":"OBJECTID","type":"esriFieldTypeOID","alias":"OBJECTID"}],"features":[{"attributes":{"ID":660428,"DIS_CODE":0,"TOWNNAME":"東山區","LI":"東山里","LIN":"23鄰","STREET":" ","SECT":" ","MAREA":"東山","LANE":" ","ALLEY":" ","HOUSE_NO":"３０４號之１０","E_COORD97":188877.28482500001,"N_COORD97":2580417.52104,"ADDRESS":"東山３０４號之１０","OBJECTID":660401},"geometry":{"x":188877.28482500091,"y":2580417.5210400037}},{"attributes":{"ID":660429,"DIS_CODE":0,"TOWNNAME":"山上區","LI":"玉\u25A0里","LIN":"7鄰","STREET":" ","SECT":" ","MAREA":"牛稠埔","LANE":" ","ALLEY":" ","HOUSE_NO":"６號","E_COORD97":185741.97229999999,"N_COORD97":2554663.0618400001,"ADDRESS":"牛稠埔６號","OBJECTID":660402},"geometry":{"x":185741.97230000049,"y":2554663.0618390013}},{"attributes":{"ID":660430,"DIS_CODE":0,"TOWNNAME":"山上區","LI":"玉\u25A0里","LIN":"7鄰","STREET":" ","SECT":" ","MAREA":"牛稠埔","LANE":" ","ALLEY":" ","HOUSE_NO":"７號之１","E_COORD97":185766.76135399999,"N_COORD97":2554677.13766,"ADDRESS":"牛稠埔７號之１","OBJECTID":660403},"geometry":{"x":185766.76135400031,"y":2554677.1376640014}},{"attributes":{"ID":660431,"DIS_CODE":0,"TOWNNAME":"山上區","LI":"玉\u25A0里","LIN":"7鄰","STREET":" ","SECT":" ","MAREA":"牛稠埔","LANE":" ","ALLEY":" ","HOUSE_NO":"８號之１","E_COORD97":185763.58327,"N_COORD97":2554719.78847,"ADDRESS":"牛稠埔８號之１","OBJECTID":660404},"geometry":{"x":185763.58327000123,"y":2554719.7884749994}},{"attributes":{"ID":660432,"DIS_CODE":0,"TOWNNAME":"山上區","LI":"玉\u25A0里","LIN":"7鄰","STREET":" ","SECT":" ","MAREA":"牛稠埔","LANE":" ","ALLEY":" ","HOUSE_NO":"９之１號","E_COORD97":185722.19579299999,"N_COORD97":2554776.4009600002,"ADDRESS":"牛稠埔９之１號","OBJECTID":660405},"geometry":{"x":185722.19579300098,"y":2554776.400959}},{"attributes":{"ID":660433,"DIS_CODE":0,"TOWNNAME":"永康區","LI":"六合里","LIN":"29鄰","STREET":"中華二路","SECT":" ","MAREA":" ","LANE":"２６６巷","ALLEY":" ","HOUSE_NO":"２１號","E_COORD97":171345.89606,"N_COORD97":2545488.3213599999,"ADDRESS":"中華二路２６６巷２１號","OBJECTID":660406},"geometry":{"x":171345.89606000111,"y":2545488.321357999}},{"attributes":{"ID":660434,"DIS_CODE":0,"TOWNNAME":"安南區","LI":"南興里","LIN":"3鄰","STREET":"安興街","SECT":" ","MAREA":" ","LANE":"４３５巷","ALLEY":" ","HOUSE_NO":"２號之３","E_COORD97":163512.53487800001,"N_COORD97":2552290.68462,"ADDRESS":"安興街４３５巷２號之３","OBJECTID":660407},"geometry":{"x":163512.53487800155,"y":2552290.6846150029}},{"attributes":{"ID":660435,"DIS_CODE":0,"TOWNNAME":"東區","LI":"成大里","LIN":"21鄰","STREET":"育樂街","SECT":" ","MAREA":" ","LANE":" ","ALLEY":" ","HOUSE_NO":"３５號之１１","E_COORD97":169754.817885,"N_COORD97":2543970.9191399999,"ADDRESS":"育樂街３５號之１１","OBJECTID":660408},"geometry":{"x":169754.81788500026,"y":2543970.9191430025}},{"attributes":{"ID":660436,"DIS_CODE":0,"TOWNNAME":"東區","LI":"成大里","LIN":"21鄰","STREET":"育樂街","SECT":" ","MAREA":" ","LANE":" ","ALLEY":" ","HOUSE_NO":"３５號之１２","E_COORD97":169754.182264,"N_COORD97":2543968.3791399999,"ADDRESS":"育樂街３５號之１２","OBJECTID":660409},"geometry":{"x":169754.18226400018,"y":2543968.379143998}},{"attributes":{"ID":660437,"DIS_CODE":0,"TOWNNAME":"東區","LI":"成大里","LIN":"21鄰","STREET":"育樂街","SECT":" ","MAREA":" ","LANE":" ","ALLEY":" ","HOUSE_NO":"３５號之１３","E_COORD97":169753.54664300001,"N_COORD97":2543965.4158100002,"ADDRESS":"育樂街３５號之１３","OBJECTID":660410},"geometry":{"x":169753.54664299916,"y":2543965.4158120006}},{"attributes":{"ID":660438,"DIS_CODE":0,"TOWNNAME":"東區","LI":"成大里","LIN":"21鄰","STREET":"育樂街","SECT":" ","MAREA":" ","LANE":" ","ALLEY":" ","HOUSE_NO":"３５號之１４","E_COORD97":169753.54664300001,"N_COORD97":2543961.3941500001,"ADDRESS":"育樂街３５號之１４","OBJECTID":660411},"geometry":{"x":169753.54664299916,"y":2543961.3941479996}},{"attributes":{"ID":660439,"DIS_CODE":0,"TOWNNAME":"東區","LI":"成大里","LIN":"21鄰","STREET":"育樂街","SECT":" ","MAREA":" ","LANE":" ","ALLEY":" ","HOUSE_NO":"３５號之１５","E_COORD97":169752.69914800001,"N_COORD97":2543955.4674800001,"ADDRESS":"育樂街３５號之１５","OBJECTID":660412},"geometry":{"x":169752.69914800115,"y":2543955.4674840048}},{"attributes":{"ID":660440,"DIS_CODE":0,"TOWNNAME":"東區","LI":"成大里","LIN":"21鄰","STREET":"育樂街","SECT":" ","MAREA":" ","LANE":" ","ALLEY":" ","HOUSE_NO":"３５號之２５","E_COORD97":169740.1986,"N_COORD97":2543955.8908199999,"ADDRESS":"育樂街３５號之２５","OBJECTID":660413},"geometry":{"x":169740.19859999977,"y":2543955.8908170033}},{"attributes":{"ID":660441,"DIS_CODE":0,"TOWNNAME":"東山區","LI":"東山里","LIN":"26鄰","STREET":" ","SECT":" ","MAREA":"東山","LANE":" ","ALLEY":" ","HOUSE_NO":"４５８號","E_COORD97":188700.640289,"N_COORD97":2580342.3265,"ADDRESS":"東山４５８號","OBJECTID":660414},"geometry":{"x":188700.64028900117,"y":2580342.3264980018}},{"attributes":{"ID":660442,"DIS_CODE":0,"TOWNNAME":"東區","LI":"成大里","LIN":"21鄰","STREET":"育樂街","SECT":" ","MAREA":" ","LANE":" ","ALLEY":" ","HOUSE_NO":"３５號之２７","E_COORD97":169739.13923199999,"N_COORD97":2543949.1174900001,"ADDRESS":"育樂街３５號之２７","OBJECTID":660415},"geometry":{"x":169739.13923200034,"y":2543949.1174880005}},{"attributes":{"ID":660443,"DIS_CODE":0,"TOWNNAME":"新市區","LI":"大社里","LIN":"32鄰","STREET":" ","SECT":" ","MAREA":"大社","LANE":" ","ALLEY":" ","HOUSE_NO":"２８５之１７號","E_COORD97":180633.18350499999,"N_COORD97":2554546.4131499999,"ADDRESS":"大社２８５之１７號","OBJECTID":660416},"geometry":{"x":180633.18350500055,"y":2554546.4131520018}},{"attributes":{"ID":660444,"DIS_CODE":0,"TOWNNAME":"安南區","LI":"南興里","LIN":"4鄰","STREET":"安興街","SECT":" ","MAREA":" ","LANE":" ","ALLEY":" ","HOUSE_NO":"３９８號","E_COORD97":163672.16449900001,"N_COORD97":2552362.1250300002,"ADDRESS":"安興街３９８號","OBJECTID":660417},"geometry":{"x":163672.16449900065,"y":2552362.1250290014}},{"attributes":{"ID":660445,"DIS_CODE":0,"TOWNNAME":"新市區","LI":"大社里","LIN":"32鄰","STREET":" ","SECT":" ","MAREA":"大社","LANE":" ","ALLEY":" ","HOUSE_NO":"２８５之１６號","E_COORD97":180635.513783,"N_COORD97":2554546.2014899999,"ADDRESS":"大社２８５之１６號","OBJECTID":660418},"geometry":{"x":180635.51378300041,"y":2554546.2014850006}},{"attributes":{"ID":660446,"DIS_CODE":0,"TOWNNAME":"永康區","LI":"安康里","LIN":"6鄰","STREET":"中華路","SECT":" ","MAREA":" ","LANE":"７２７巷","ALLEY":" ","HOUSE_NO":"１號","E_COORD97":170821.95246,"N_COORD97":2546403.35586,"ADDRESS":"中華路７２７巷１號","OBJECTID":660419},"geometry":{"x":170821.95246000122,"y":2546403.3558639996}},{"attributes":{"ID":660447,"DIS_CODE":0,"TOWNNAME":"新市區","LI":"大社里","LIN":"32鄰","STREET":" ","SECT":" ","MAREA":"大社","LANE":" ","ALLEY":" ","HOUSE_NO":"２８５之１５號","E_COORD97":180638.05590400001,"N_COORD97":2554544.7198200002,"ADDRESS":"大社２８５之１５號","OBJECTID":660420},"geometry":{"x":180638.05590400007,"y":2554544.7198190037}},{"attributes":{"ID":660448,"DIS_CODE":0,"TOWNNAME":"新市區","LI":"大社里","LIN":"32鄰","STREET":" ","SECT":" ","MAREA":"大社","LANE":" ","ALLEY":" ","HOUSE_NO":"２８５之１３號","E_COORD97":180641.02171299999,"N_COORD97":2554543.2381500001,"ADDRESS":"大社２８５之１３號","OBJECTID":660421},"geometry":{"x":180641.02171300072,"y":2554543.2381530013}},{"attributes":{"ID":660449,"DIS_CODE":0,"TOWNNAME":"新市區","LI":"大社里","LIN":"32鄰","STREET":" ","SECT":" ","MAREA":"大社","LANE":" ","ALLEY":" ","HOUSE_NO":"２８５之１２號","E_COORD97":180643.140147,"N_COORD97":2554541.9681500001,"ADDRESS":"大社２８５之１２號","OBJECTID":660422},"geometry":{"x":180643.14014699962,"y":2554541.968154002}},{"attributes":{"ID":660450,"DIS_CODE":0,"TOWNNAME":"東區","LI":"成大里","LIN":"21鄰","STREET":"育樂街","SECT":" ","MAREA":" ","LANE":" ","ALLEY":" ","HOUSE_NO":"３５號之３１","E_COORD97":169766.25906499999,"N_COORD97":2543965.4158100002,"ADDRESS":"育樂街３５號之３１","OBJECTID":660423},"geometry":{"x":169766.25906500127,"y":2543965.4158120006}},{"attributes":{"ID":660451,"DIS_CODE":0,"TOWNNAME":"新市區","LI":"大社里","LIN":"32鄰","STREET":" ","SECT":" ","MAREA":"大社","LANE":" ","ALLEY":" ","HOUSE_NO":"２８５之１１號","E_COORD97":180646.10595600001,"N_COORD97":2554540.48649,"ADDRESS":"大社２８５之１１號","OBJECTID":660424},"geometry":{"x":180646.10595600214,"y":2554540.4864880014}},{"attributes":{"ID":660452,"DIS_CODE":0,"TOWNNAME":"安南區","LI":"南興里","LIN":"8鄰","STREET":"安興街","SECT":" ","MAREA":" ","LANE":"６２４巷","ALLEY":" ","HOUSE_NO":"１１號","E_COORD97":163503.14188400001,"N_COORD97":2552445.2041500001,"ADDRESS":"安興街６２４巷１１號","OBJECTID":660425},"geometry":{"x":163503.14188400097,"y":2552445.2041510046}},{"attributes":{"ID":660453,"DIS_CODE":0,"TOWNNAME":"永康區","LI":"安康里","LIN":"6鄰","STREET":"中華路","SECT":" ","MAREA":" ","LANE":"７２７巷","ALLEY":"１３弄","HOUSE_NO":"３號","E_COORD97":170803.93659999999,"N_COORD97":2546374.78088,"ADDRESS":"中華路７２７巷１３弄３號","OBJECTID":660426},"geometry":{"x":170803.93659999873,"y":2546374.7808790002}},{"attributes":{"ID":660454,"DIS_CODE":0,"TOWNNAME":"東區","LI":"成大里","LIN":"21鄰","STREET":"育樂街","SECT":" ","MAREA":" ","LANE":" ","ALLEY":" ","HOUSE_NO":"３５號之３２","E_COORD97":169770.70841299999,"N_COORD97":2543964.5691499999,"ADDRESS":"育樂街３５號之３２","OBJECTID":660427},"geometry":{"x":169770.70841300208,"y":2543964.5691459998}},{"attributes":{"ID":660455,"DIS_CODE":0,"TOWNNAME":"東區","LI":"成大里","LIN":"21鄰","STREET":"育樂街","SECT":" ","MAREA":" ","LANE":" ","ALLEY":" ","HOUSE_NO":"３５號之３３","E_COORD97":169774.31026599999,"N_COORD97":2543964.3574799998,"ADDRESS":"育樂街３５號之３３","OBJECTID":660428},"geometry":{"x":169774.31026600115,"y":2543964.3574790023}},{"attributes":{"ID":660456,"DIS_CODE":0,"TOWNNAME":"東區","LI":"成大里","LIN":"21鄰","STREET":"育樂街","SECT":" ","MAREA":" ","LANE":" ","ALLEY":" ","HOUSE_NO":"３５號之３４","E_COORD97":169778.75961400001,"N_COORD97":2543963.0874800002,"ADDRESS":"育樂街３５號之３４","OBJECTID":660429},"geometry":{"x":169778.75961400196,"y":2543963.087480003}},{"attributes":{"ID":660457,"DIS_CODE":0,"TOWNNAME":"東區","LI":"成大里","LIN":"21鄰","STREET":"育樂街","SECT":" ","MAREA":" ","LANE":" ","ALLEY":" ","HOUSE_NO":"４９號","E_COORD97":169709.68878699999,"N_COORD97":2543995.68413,"ADDRESS":"育樂街４９號","OBJECTID":660430},"geometry":{"x":169709.68878700025,"y":2543995.6841289997}},{"attributes":{"ID":660458,"DIS_CODE":0,"TOWNNAME":"安南區","LI":"南興里","LIN":"8鄰","STREET":"安興街","SECT":" ","MAREA":" ","LANE":" ","ALLEY":" ","HOUSE_NO":"６７１號","E_COORD97":163405.80012699999,"N_COORD97":2552635.8098800001,"ADDRESS":"安興街６７１號","OBJECTID":660431},"geometry":{"x":163405.80012699962,"y":2552635.8098809998}},{"attributes":{"ID":660459,"DIS_CODE":0,"TOWNNAME":"東山區","LI":"東山里","LIN":"23鄰","STREET":" ","SECT":" ","MAREA":"東山","LANE":" ","ALLEY":" ","HOUSE_NO":"３０７號","E_COORD97":188884.54120899999,"N_COORD97":2580336.39983,"ADDRESS":"東山３０７號","OBJECTID":660432},"geometry":{"x":188884.54120900016,"y":2580336.3998340014}},{"attributes":{"ID":660460,"DIS_CODE":0,"TOWNNAME":"東山區","LI":"東山里","LIN":"23鄰","STREET":" ","SECT":" ","MAREA":"東山","LANE":" ","ALLEY":" ","HOUSE_NO":"３０５號","E_COORD97":188907.84662500001,"N_COORD97":2580337.2464999999,"ADDRESS":"東山３０５號","OBJECTID":660433},"geometry":{"x":188907.8466250021,"y":2580337.2464999985}},{"attributes":{"ID":660461,"DIS_CODE":0,"TOWNNAME":"安南區","LI":"南興里","LIN":"10鄰","STREET":"安興街","SECT":" ","MAREA":" ","LANE":"６４６巷","ALLEY":" ","HOUSE_NO":"８７號","E_COORD97":163654.774469,"N_COORD97":2552563.6315899999,"ADDRESS":"安興街６４６巷８７號","OBJECTID":660434},"geometry":{"x":163654.77446900029,"y":2552563.6315870043}},{"attributes":{"ID":660462,"DIS_CODE":0,"TOWNNAME":"新市區","LI":"大社里","LIN":"32鄰","STREET":" ","SECT":" ","MAREA":"大社","LANE":" ","ALLEY":" ","HOUSE_NO":"２８５之１８號","E_COORD97":180621.10842800001,"N_COORD97":2554546.8364800001,"ADDRESS":"大社２８５之１８號","OBJECTID":660435},"geometry":{"x":180621.10842800047,"y":2554546.8364850003}},{"attributes":{"ID":660463,"DIS_CODE":0,"TOWNNAME":"官田區","LI":"二鎮里","LIN":"15鄰","STREET":" ","SECT":" ","MAREA":"角秀","LANE":" ","ALLEY":" ","HOUSE_NO":"１１號之９","E_COORD97":181548.22256699999,"N_COORD97":2568207.8228799999,"ADDRESS":"角秀１１號之９","OBJECTID":660436},"geometry":{"x":181548.22256700043,"y":2568207.8228800017}},{"attributes":{"ID":660464,"DIS_CODE":0,"TOWNNAME":"官田區","LI":"二鎮里","LIN":"15鄰","STREET":" ","SECT":" ","MAREA":"角秀","LANE":" ","ALLEY":" ","HOUSE_NO":"１１號之３","E_COORD97":181553.60329500001,"N_COORD97":2568206.1938999998,"ADDRESS":"角秀１１號之３","OBJECTID":660437},"geometry":{"x":181553.6032950012,"y":2568206.1939029992}},{"attributes":{"ID":660465,"DIS_CODE":0,"TOWNNAME":"新市區","LI":"大社里","LIN":"32鄰","STREET":" ","SECT":" ","MAREA":"大社","LANE":" ","ALLEY":" ","HOUSE_NO":"２８５之２６號","E_COORD97":180586.577945,"N_COORD97":2554550.5406499999,"ADDRESS":"大社２８５之２６號","OBJECTID":660438},"geometry":{"x":180586.57794500049,"y":2554550.5406490024}},{"attributes":{"ID":660466,"DIS_CODE":0,"TOWNNAME":"新市區","LI":"大社里","LIN":"32鄰","STREET":" ","SECT":" ","MAREA":"大社","LANE":" ","ALLEY":" ","HOUSE_NO":"２８５之２１號","E_COORD97":180602.889891,"N_COORD97":2554547.7889800002,"ADDRESS":"大社２８５之２１號","OBJECTID":660439},"geometry":{"x":180602.88989100233,"y":2554547.7889840025}},{"attributes":{"ID":660467,"DIS_CODE":0,"TOWNNAME":"安南區","LI":"南興里","LIN":"10鄰","STREET":"安興街","SECT":" ","MAREA":" ","LANE":"６４６巷","ALLEY":" ","HOUSE_NO":"６８號","E_COORD97":163673.43694099999,"N_COORD97":2552577.3899099999,"ADDRESS":"安興街６４６巷６８號","OBJECTID":660440},"geometry":{"x":163673.43694100063,"y":2552577.3899130002}},{"attributes":{"ID":660468,"DIS_CODE":0,"TOWNNAME":"官田區","LI":"二鎮里","LIN":"15鄰","STREET":" ","SECT":" ","MAREA":"角秀","LANE":" ","ALLEY":" ","HOUSE_NO":"１１號之１９","E_COORD97":181542.67878700001,"N_COORD97":2568184.6913999999,"ADDRESS":"角秀１１號之１９","OBJECTID":660441},"geometry":{"x":181542.67878700048,"y":2568184.6913970001}},{"attributes":{"ID":660469,"DIS_CODE":0,"TOWNNAME":"新市區","LI":"大社里","LIN":"32鄰","STREET":" ","SECT":" ","MAREA":"大社","LANE":" ","ALLEY":" ","HOUSE_NO":"２８５之２３號","E_COORD97":180592.29771799999,"N_COORD97":2554547.3656500001,"ADDRESS":"大社２８５之２３號","OBJECTID":660442},"geometry":{"x":180592.2977180006,"y":2554547.365651004}},{"attributes":{"ID":660470,"DIS_CODE":0,"TOWNNAME":"東區","LI":"成大里","LIN":"18鄰","STREET":"前鋒路","SECT":" ","MAREA":" ","LANE":" ","ALLEY":" ","HOUSE_NO":"１４５號","E_COORD97":169339.75730500001,"N_COORD97":2543995.3666300001,"ADDRESS":"前鋒路１４５號","OBJECTID":660443},"geometry":{"x":169339.75730500091,"y":2543995.3666290008}},{"attributes":{"ID":660471,"DIS_CODE":0,"TOWNNAME":"新市區","LI":"大社里","LIN":"32鄰","STREET":" ","SECT":" ","MAREA":"大社","LANE":" ","ALLEY":" ","HOUSE_NO":"２８５之２５號","E_COORD97":180587.849006,"N_COORD97":2554548.42398,"ADDRESS":"大社２８５之２５號","OBJECTID":660444},"geometry":{"x":180587.84900600184,"y":2554548.4239840023}},{"attributes":{"ID":660472,"DIS_CODE":0,"TOWNNAME":"東區","LI":"成大里","LIN":"18鄰","STREET":"前鋒路","SECT":" ","MAREA":" ","LANE":" ","ALLEY":" ","HOUSE_NO":"１４９號","E_COORD97":169345.90164299999,"N_COORD97":2544024.5766099999,"ADDRESS":"前鋒路１４９號","OBJECTID":660445},"geometry":{"x":169345.90164300054,"y":2544024.5766139999}},{"attributes":{"ID":660473,"DIS_CODE":0,"TOWNNAME":"新市區","LI":"大社里","LIN":"32鄰","STREET":" ","SECT":" ","MAREA":"大社","LANE":" ","ALLEY":" ","HOUSE_NO":"２８５之２２號","E_COORD97":180596.958274,"N_COORD97":2554546.7306499998,"ADDRESS":"大社２８５之２２號","OBJECTID":660446},"geometry":{"x":180596.95827400126,"y":2554546.7306510042}},{"attributes":{"ID":660474,"DIS_CODE":0,"TOWNNAME":"新市區","LI":"大社里","LIN":"32鄰","STREET":" ","SECT":" ","MAREA":"大社","LANE":" ","ALLEY":" ","HOUSE_NO":"２８５之１９號","E_COORD97":180614.75312400001,"N_COORD97":2554547.5773200002,"ADDRESS":"大社２８５之１９號","OBJECTID":660447},"geometry":{"x":180614.7531240005,"y":2554547.5773179997}},{"attributes":{"ID":660475,"DIS_CODE":0,"TOWNNAME":"新市區","LI":"大社里","LIN":"32鄰","STREET":" ","SECT":" ","MAREA":"大社","LANE":" ","ALLEY":" ","HOUSE_NO":"２８５之２０號","E_COORD97":180607.55044699999,"N_COORD97":2554548.0006499998,"ADDRESS":"大社２８５之２０號","OBJECTID":660448},"geometry":{"x":180607.55044700019,"y":2554548.0006510038}},{"attributes":{"ID":660476,"DIS_CODE":0,"TOWNNAME":"東區","LI":"成大里","LIN":"18鄰","STREET":"前鋒路","SECT":" ","MAREA":" ","LANE":"１５４巷","ALLEY":" ","HOUSE_NO":"２１號","E_COORD97":169393.14947800001,"N_COORD97":2544072.6249199999,"ADDRESS":"前鋒路１５４巷２１號","OBJECTID":660449},"geometry":{"x":169393.14947800152,"y":2544072.6249209996}},{"attributes":{"ID":660477,"DIS_CODE":0,"TOWNNAME":"官田區","LI":"二鎮里","LIN":"14鄰","STREET":" ","SECT":" ","MAREA":"程泰","LANE":" ","ALLEY":" ","HOUSE_NO":"１２０號","E_COORD97":181706.12418399999,"N_COORD97":2566905.72114,"ADDRESS":"程泰１２０號","OBJECTID":660450},"geometry":{"x":181706.12418400031,"y":2566905.7211410031}},{"attributes":{"ID":660478,"DIS_CODE":0,"TOWNNAME":"官田區","LI":"大崎里","LIN":"11鄰","STREET":" ","SECT":" ","MAREA":"大井","LANE":" ","ALLEY":" ","HOUSE_NO":"１號之２","E_COORD97":188926.56254799999,"N_COORD97":2565743.7276300001,"ADDRESS":"大井１號之２","OBJECTID":660451},"geometry":{"x":188926.56254800037,"y":2565743.7276280019}},{"attributes":{"ID":660479,"DIS_CODE":0,"TOWNNAME":"山上區","LI":"新莊里","LIN":"5鄰","STREET":" ","SECT":" ","MAREA":"新庄","LANE":" ","ALLEY":" ","HOUSE_NO":"５８號之１０","E_COORD97":184589.132323,"N_COORD97":2555022.19141,"ADDRESS":"新庄５８號之１０","OBJECTID":660452},"geometry":{"x":184589.13232299965,"y":2555022.1914080027}},{"attributes":{"ID":660480,"DIS_CODE":0,"TOWNNAME":"新營區","LI":"民榮里","LIN":"17鄰","STREET":"新榮二街","SECT":" ","MAREA":" ","LANE":" ","ALLEY":" ","HOUSE_NO":"２６號","E_COORD97":178528.93293499999,"N_COORD97":2577791.69019,"ADDRESS":"新榮二街２６號","OBJECTID":660453},"geometry":{"x":178528.9329350004,"y":2577791.6901940014}},{"attributes":{"ID":660481,"DIS_CODE":0,"TOWNNAME":"安南區","LI":"南興里","LIN":"7鄰","STREET":"安興街","SECT":" ","MAREA":" ","LANE":" ","ALLEY":" ","HOUSE_NO":"４２８號","E_COORD97":163582.65470300001,"N_COORD97":2552377.9626199999,"ADDRESS":"安興街４２８號","OBJECTID":660454},"geometry":{"x":163582.65470300056,"y":2552377.9626180008}},{"attributes":{"ID":660482,"DIS_CODE":0,"TOWNNAME":"安南區","LI":"南興里","LIN":"10鄰","STREET":"安興街","SECT":" ","MAREA":" ","LANE":"６３２巷","ALLEY":" ","HOUSE_NO":"８３號之３","E_COORD97":163733.698313,"N_COORD97":2552473.1067300001,"ADDRESS":"安興街６３２巷８３號之３","OBJECTID":660455},"geometry":{"x":163733.69831300061,"y":2552473.1067330018}},{"attributes":{"ID":660483,"DIS_CODE":0,"TOWNNAME":"六甲區","LI":"六甲里","LIN":"20鄰","STREET":"建國街","SECT":" ","MAREA":" ","LANE":"９９巷","ALLEY":" ","HOUSE_NO":"８號","E_COORD97":183737.60509200001,"N_COORD97":2570193.27036,"ADDRESS":"建國街９９巷８號","OBJECTID":660456},"geometry":{"x":183737.60509200115,"y":2570193.2703590021}},{"attributes":{"ID":660484,"DIS_CODE":0,"TOWNNAME":"安南區","LI":"南興里","LIN":"10鄰","STREET":"安興街","SECT":" ","MAREA":" ","LANE":"６３２巷","ALLEY":" ","HOUSE_NO":"８３號之２","E_COORD97":163732.85094400001,"N_COORD97":2552468.2384000001,"ADDRESS":"安興街６３２巷８３號之２","OBJECTID":660457},"geometry":{"x":163732.85094399936,"y":2552468.2384030037}},{"attributes":{"ID":660485,"DIS_CODE":0,"TOWNNAME":"安南區","LI":"南興里","LIN":"10鄰","STREET":"安興街","SECT":" ","MAREA":" ","LANE":"６３２巷","ALLEY":" ","HOUSE_NO":"８３號之４","E_COORD97":163733.27462899999,"N_COORD97":2552472.6834,"ADDRESS":"安興街６３２巷８３號之４","OBJECTID":660458},"geometry":{"x":163733.27462899964,"y":2552472.6834000032}},{"attributes":{"ID":660486,"DIS_CODE":0,"TOWNNAME":"安南區","LI":"南興里","LIN":"10鄰","STREET":"安興街","SECT":" ","MAREA":" ","LANE":"６３２巷","ALLEY":" ","HOUSE_NO":"８３號之５","E_COORD97":163735.393052,"N_COORD97":2552482.63173,"ADDRESS":"安興街６３２巷８３號之５","OBJECTID":660459},"geometry":{"x":163735.39305199962,"y":2552482.6317280047}},{"attributes":{"ID":660487,"DIS_CODE":0,"TOWNNAME":"安南區","LI":"南興里","LIN":"10鄰","STREET":"安興街","SECT":" ","MAREA":" ","LANE":"６３２巷","ALLEY":" ","HOUSE_NO":"８３號之６","E_COORD97":163734.545683,"N_COORD97":2552482.2083999999,"ADDRESS":"安興街６３２巷８３號之６","OBJECTID":660460},"geometry":{"x":163734.54568300117,"y":2552482.2083950005}},{"attributes":{"ID":660488,"DIS_CODE":0,"TOWNNAME":"安南區","LI":"南興里","LIN":"10鄰","STREET":"安興街","SECT":" ","MAREA":" ","LANE":"６３２巷","ALLEY":" ","HOUSE_NO":"４６號之１","E_COORD97":163633.073187,"N_COORD97":2552448.9767499999,"ADDRESS":"安興街６３２巷４６號之１","OBJECTID":660461},"geometry":{"x":163633.07318700105,"y":2552448.9767460003}},{"attributes":{"ID":660489,"DIS_CODE":0,"TOWNNAME":"安南區","LI":"南興里","LIN":"10鄰","STREET":"安興街","SECT":" ","MAREA":" ","LANE":"６４６巷","ALLEY":" ","HOUSE_NO":"８７之１號","E_COORD97":163644.93635999999,"N_COORD97":2552563.38252,"ADDRESS":"安興街６４６巷８７之１號","OBJECTID":660462},"geometry":{"x":163644.93636000063,"y":2552563.3825180046}},{"attributes":{"ID":660490,"DIS_CODE":0,"TOWNNAME":"安南區","LI":"南興里","LIN":"10鄰","STREET":"安興街","SECT":" ","MAREA":" ","LANE":"６４６巷","ALLEY":" ","HOUSE_NO":"５９３之１００號","E_COORD97":163262.56088,"N_COORD97":2552355.8434600001,"ADDRESS":"安興街６４６巷５９３之１００號","OBJECTID":660463},"geometry":{"x":163262.5608800007,"y":2552355.8434629999}},{"attributes":{"ID":660491,"DIS_CODE":0,"TOWNNAME":"官田區","LI":"大崎里","LIN":"1鄰","STREET":" ","SECT":" ","MAREA":"大崎","LANE":" ","ALLEY":" ","HOUSE_NO":"１１號","E_COORD97":185586.692557,"N_COORD97":2565586.67105,"ADDRESS":"大崎１１號","OBJECTID":660464},"geometry":{"x":185586.69255699962,"y":2565586.6710470002}},{"attributes":{"ID":660492,"DIS_CODE":0,"TOWNNAME":"安南區","LI":"南興里","LIN":"1鄰","STREET":"北汕尾三路","SECT":" ","MAREA":" ","LANE":" ","ALLEY":" ","HOUSE_NO":"７０１號","E_COORD97":162240.633282,"N_COORD97":2551295.0765399998,"ADDRESS":"北汕尾三路７０１號","OBJECTID":660465},"geometry":{"x":162240.63328200113,"y":2551295.0765359979}},{"attributes":{"ID":660493,"DIS_CODE":0,"TOWNNAME":"安南區","LI":"南興里","LIN":"1鄰","STREET":"北汕尾三路","SECT":" ","MAREA":" ","LANE":" ","ALLEY":" ","HOUSE_NO":"７０１號之１","E_COORD97":162249.10697699999,"N_COORD97":2551320.47652,"ADDRESS":"北汕尾三路７０１號之１","OBJECTID":660466},"geometry":{"x":162249.10697700083,"y":2551320.4765220042}},{"attributes":{"ID":660494,"DIS_CODE":0,"TOWNNAME":"安南區","LI":"南興里","LIN":"10鄰","STREET":"公學路","SECT":"五段","MAREA":" ","LANE":"６９７巷","ALLEY":"１０２弄","HOUSE_NO":"４５號之１","E_COORD97":163798.52207899999,"N_COORD97":2552595.8733299999,"ADDRESS":"公學路五段６９７巷１０２弄４５號之１","OBJECTID":660467},"geometry":{"x":163798.52207900025,"y":2552595.8733339999}},{"attributes":{"ID":660495,"DIS_CODE":0,"TOWNNAME":"安南區","LI":"南興里","LIN":"10鄰","STREET":"公學路","SECT":"五段","MAREA":" ","LANE":"６９７巷","ALLEY":" ","HOUSE_NO":"７６號之１","E_COORD97":163820.341843,"N_COORD97":2552618.9449900002,"ADDRESS":"公學路五段６９７巷７６號之１","OBJECTID":660468},"geometry":{"x":163820.34184300154,"y":2552618.9449880011}},{"attributes":{"ID":660496,"DIS_CODE":0,"TOWNNAME":"安南區","LI":"南興里","LIN":"10鄰","STREET":"公學路","SECT":"五段","MAREA":" ","LANE":"６９７巷","ALLEY":" ","HOUSE_NO":"７６號","E_COORD97":163821.82474000001,"N_COORD97":2552628.8933199998,"ADDRESS":"公學路五段６９７巷７６號","OBJECTID":660469},"geometry":{"x":163821.82474000007,"y":2552628.8933160026}},{"attributes":{"ID":660497,"DIS_CODE":0,"TOWNNAME":"安南區","LI":"南興里","LIN":"12鄰","STREET":"公學路","SECT":"五段","MAREA":" ","LANE":"５２７巷","ALLEY":" ","HOUSE_NO":"３０號","E_COORD97":163923.08539299999,"N_COORD97":2552572.3783499999,"ADDRESS":"公學路五段５２７巷３０號","OBJECTID":660470},"geometry":{"x":163923.08539300039,"y":2552572.3783459999}},{"attributes":{"ID":660498,"DIS_CODE":0,"TOWNNAME":"安南區","LI":"南興里","LIN":"12鄰","STREET":"公學路","SECT":"五段","MAREA":" ","LANE":" ","ALLEY":" ","HOUSE_NO":"６７８之１號","E_COORD97":163959.734123,"N_COORD97":2552831.35237,"ADDRESS":"公學路五段６７８之１號","OBJECTID":660471},"geometry":{"x":163959.73412300088,"y":2552831.3523729984}},{"attributes":{"ID":660499,"DIS_CODE":0,"TOWNNAME":"安南區","LI":"南興里","LIN":"12鄰","STREET":"公學路","SECT":"五段","MAREA":" ","LANE":" ","ALLEY":" ","HOUSE_NO":"６７８之１號","E_COORD97":163959.734123,"N_COORD97":2552831.35237,"ADDRESS":"公學路五段６７８之１號","OBJECTID":660472},"geometry":{"x":163959.73412300088,"y":2552831.3523729984}},{"attributes":{"ID":660500,"DIS_CODE":0,"TOWNNAME":"安南區","LI":"海東里","LIN":"21鄰","STREET":"海東五街","SECT":" ","MAREA":" ","LANE":" ","ALLEY":" ","HOUSE_NO":"１８號","E_COORD97":166889.49058300001,"N_COORD97":2548042.8915400002,"ADDRESS":"海東五街１８號","OBJECTID":660473},"geometry":{"x":166889.49058299977,"y":2548042.8915430028}},{"attributes":{"ID":660501,"DIS_CODE":0,"TOWNNAME":"安南區","LI":"海東里","LIN":"21鄰","STREET":"海東五街","SECT":" ","MAREA":" ","LANE":" ","ALLEY":" ","HOUSE_NO":"２０號","E_COORD97":166885.042071,"N_COORD97":2548042.4682100001,"ADDRESS":"海東五街２０號","OBJECTID":660474},"geometry":{"x":166885.04207100067,"y":2548042.4682100043}},{"attributes":{"ID":660502,"DIS_CODE":0,"TOWNNAME":"安南區","LI":"南興里","LIN":"11鄰","STREET":"公學路","SECT":"五段","MAREA":" ","LANE":"６９７巷","ALLEY":" ","HOUSE_NO":"３６號","E_COORD97":163849.999775,"N_COORD97":2552768.9107400002,"ADDRESS":"公學路五段６９７巷３６號","OBJECTID":660475},"geometry":{"x":163849.99977500085,"y":2552768.9107399993}},{"attributes":{"ID":660503,"DIS_CODE":0,"TOWNNAME":"安南區","LI":"海東里","LIN":"21鄰","STREET":"海東五街","SECT":" ","MAREA":" ","LANE":" ","ALLEY":" ","HOUSE_NO":"２２號","E_COORD97":166880.805394,"N_COORD97":2548041.1982100001,"ADDRESS":"海東五街２２號","OBJECTID":660476},"geometry":{"x":166880.80539400224,"y":2548041.1982100047}},{"attributes":{"ID":660504,"DIS_CODE":0,"TOWNNAME":"安南區","LI":"海東里","LIN":"21鄰","STREET":"海東五街","SECT":" ","MAREA":" ","LANE":" ","ALLEY":" ","HOUSE_NO":"２６號","E_COORD97":166875.50954699999,"N_COORD97":2548040.5632099998,"ADDRESS":"海東五街２６號","OBJECTID":660477},"geometry":{"x":166875.50954700075,"y":2548040.5632109996}},{"attributes":{"ID":660505,"DIS_CODE":0,"TOWNNAME":"安南區","LI":"海東里","LIN":"21鄰","STREET":"海東五街","SECT":" ","MAREA":" ","LANE":" ","ALLEY":" ","HOUSE_NO":"２８號","E_COORD97":166871.061036,"N_COORD97":2548039.92821,"ADDRESS":"海東五街２８號","OBJECTID":660478},"geometry":{"x":166871.06103600003,"y":2548039.9282109998}},{"attributes":{"ID":660506,"DIS_CODE":0,"TOWNNAME":"安南區","LI":"南興里","LIN":"8鄰","STREET":"安興街","SECT":" ","MAREA":" ","LANE":"６４６巷","ALLEY":" ","HOUSE_NO":"１７之５號","E_COORD97":163506.60329200001,"N_COORD97":2552534.49003,"ADDRESS":"安興街６４６巷１７之５號","OBJECTID":660479},"geometry":{"x":163506.60329200141,"y":2552534.4900340028}},{"attributes":{"ID":660507,"DIS_CODE":0,"TOWNNAME":"安南區","LI":"海東里","LIN":"21鄰","STREET":"海東五街","SECT":" ","MAREA":" ","LANE":" ","ALLEY":" ","HOUSE_NO":"３０號","E_COORD97":166866.82435800001,"N_COORD97":2548038.9757099999,"ADDRESS":"海東五街３０號","OBJECTID":660480},"geometry":{"x":166866.82435800042,"y":2548038.9757120013}},{"attributes":{"ID":660508,"DIS_CODE":0,"TOWNNAME":"安南區","LI":"海東里","LIN":"21鄰","STREET":"海東五街","SECT":" ","MAREA":" ","LANE":" ","ALLEY":" ","HOUSE_NO":"３２號","E_COORD97":166862.587681,"N_COORD97":2548037.91738,"ADDRESS":"海東五街３２號","OBJECTID":660481},"geometry":{"x":166862.58768100012,"y":2548037.9173789993}},{"attributes":{"ID":660509,"DIS_CODE":0,"TOWNNAME":"安南區","LI":"海東里","LIN":"21鄰","STREET":"海東五街","SECT":" ","MAREA":" ","LANE":" ","ALLEY":" ","HOUSE_NO":"３６號","E_COORD97":166858.351004,"N_COORD97":2548037.4940499999,"ADDRESS":"海東五街３６號","OBJECTID":660482},"geometry":{"x":166858.35100400075,"y":2548037.4940460008}},{"attributes":{"ID":660510,"DIS_CODE":0,"TOWNNAME":"安南區","LI":"海東里","LIN":"21鄰","STREET":"海東五街","SECT":" ","MAREA":" ","LANE":" ","ALLEY":" ","HOUSE_NO":"３８號","E_COORD97":166853.478825,"N_COORD97":2548037.0707100001,"ADDRESS":"海東五街３８號","OBJECTID":660483},"geometry":{"x":166853.47882500011,"y":2548037.0707130022}},{"attributes":{"ID":660511,"DIS_CODE":0,"TOWNNAME":"安南區","LI":"海東里","LIN":"21鄰","STREET":"海東五街","SECT":" ","MAREA":" ","LANE":" ","ALLEY":" ","HOUSE_NO":"４０號","E_COORD97":166849.66581499999,"N_COORD97":2548036.8590500001,"ADDRESS":"海東五街４０號","OBJECTID":660484},"geometry":{"x":166849.66581500135,"y":2548036.859046001}},{"attributes":{"ID":660512,"DIS_CODE":0,"TOWNNAME":"安南區","LI":"海東里","LIN":"21鄰","STREET":"海東五街","SECT":" ","MAREA":" ","LANE":" ","ALLEY":" ","HOUSE_NO":"４２號","E_COORD97":166846.27647300001,"N_COORD97":2548035.8007100001,"ADDRESS":"海東五街４２號","OBJECTID":660485},"geometry":{"x":166846.27647300065,"y":2548035.800712999}},{"attributes":{"ID":660513,"DIS_CODE":0,"TOWNNAME":"善化區","LI":"光文里","LIN":"3鄰","STREET":" ","SECT":" ","MAREA":"北子店","LANE":" ","ALLEY":" ","HOUSE_NO":"１４８號","E_COORD97":179448.49191899999,"N_COORD97":2559641.9026799998,"ADDRESS":"北子店１４８號","OBJECTID":660486},"geometry":{"x":179448.49191900156,"y":2559641.9026820008}},{"attributes":{"ID":660514,"DIS_CODE":0,"TOWNNAME":"善化區","LI":"光文里","LIN":"3鄰","STREET":" ","SECT":" ","MAREA":"北子店","LANE":" ","ALLEY":" ","HOUSE_NO":"１４６號","E_COORD97":179452.09378900001,"N_COORD97":2559643.2785100001,"ADDRESS":"北子店１４６號","OBJECTID":660487},"geometry":{"x":179452.09378900006,"y":2559643.2785140034}},{"attributes":{"ID":660515,"DIS_CODE":0,"TOWNNAME":"善化區","LI":"光文里","LIN":"3鄰","STREET":" ","SECT":" ","MAREA":"北子店","LANE":" ","ALLEY":" ","HOUSE_NO":"１４２號","E_COORD97":179458.45003000001,"N_COORD97":2559642.85518,"ADDRESS":"北子店１４２號","OBJECTID":660488},"geometry":{"x":179458.45003000088,"y":2559642.8551810049}},{"attributes":{"ID":660516,"DIS_CODE":0,"TOWNNAME":"善化區","LI":"光文里","LIN":"3鄰","STREET":" ","SECT":" ","MAREA":"北子店","LANE":" ","ALLEY":" ","HOUSE_NO":"１４４號","E_COORD97":179455.27191000001,"N_COORD97":2559643.4901800002,"ADDRESS":"北子店１４４號","OBJECTID":660489},"geometry":{"x":179455.27191000152,"y":2559643.490180999}},{"attributes":{"ID":660517,"DIS_CODE":0,"TOWNNAME":"善化區","LI":"文正里","LIN":"8鄰","STREET":"文正路","SECT":" ","MAREA":" ","LANE":" ","ALLEY":" ","HOUSE_NO":"５１號","E_COORD97":177020.849629,"N_COORD97":2559274.3047000002,"ADDRESS":"文正路５１號","OBJECTID":660490},"geometry":{"x":177020.84962900076,"y":2559274.3047020026}},{"attributes":{"ID":660518,"DIS_CODE":0,"TOWNNAME":"善化區","LI":"文正里","LIN":"10鄰","STREET":"文正路","SECT":" ","MAREA":" ","LANE":"７９巷","ALLEY":" ","HOUSE_NO":"３８號","E_COORD97":177012.16191900001,"N_COORD97":2559429.45628,"ADDRESS":"文正路７９巷３８號","OBJECTID":660491},"geometry":{"x":177012.16191899963,"y":2559429.4562849998}},{"attributes":{"ID":660519,"DIS_CODE":0,"TOWNNAME":"善化區","LI":"文正里","LIN":"10鄰","STREET":"文正路","SECT":" ","MAREA":" ","LANE":"７９巷","ALLEY":" ","HOUSE_NO":"４６號","E_COORD97":176988.005848,"N_COORD97":2559390.93297,"ADDRESS":"文正路７９巷４６號","OBJECTID":660492},"geometry":{"x":176988.00584799983,"y":2559390.932971999}},{"attributes":{"ID":660520,"DIS_CODE":0,"TOWNNAME":"善化區","LI":"文正里","LIN":"12鄰","STREET":"文正路","SECT":" ","MAREA":" ","LANE":" ","ALLEY":" ","HOUSE_NO":"３號","E_COORD97":176864.470852,"N_COORD97":2559280.6546999998,"ADDRESS":"文正路３號","OBJECTID":660493},"geometry":{"x":176864.47085199971,"y":2559280.6546980031}},{"attributes":{"ID":660521,"DIS_CODE":0,"TOWNNAME":"善化區","LI":"文正里","LIN":"12鄰","STREET":"文正路","SECT":" ","MAREA":" ","LANE":" ","ALLEY":" ","HOUSE_NO":"７之１號","E_COORD97":176895.40757400001,"N_COORD97":2559295.0480200001,"ADDRESS":"文正路７之１號","OBJECTID":660494},"geometry":{"x":176895.40757399891,"y":2559295.0480240025}},{"attributes":{"ID":660522,"DIS_CODE":0,"TOWNNAME":"善化區","LI":"光文里","LIN":"2鄰","STREET":" ","SECT":" ","MAREA":"北子店","LANE":" ","ALLEY":" ","HOUSE_NO":"８５號之１","E_COORD97":179541.46380999999,"N_COORD97":2559670.6936599999,"ADDRESS":"北子店８５號之１","OBJECTID":660495},"geometry":{"x":179541.4638100015,"y":2559670.6936600003}},{"attributes":{"ID":660523,"DIS_CODE":0,"TOWNNAME":"善化區","LI":"文正里","LIN":"13鄰","STREET":"中山路","SECT":" ","MAREA":" ","LANE":" ","ALLEY":" ","HOUSE_NO":"５６０號之３０","E_COORD97":176544.53033000001,"N_COORD97":2559426.4929499999,"ADDRESS":"中山路５６０號之３０","OBJECTID":660496},"geometry":{"x":176544.53033000138,"y":2559426.4929499999}},{"attributes":{"ID":660524,"DIS_CODE":0,"TOWNNAME":"善化區","LI":"光文里","LIN":"2鄰","STREET":" ","SECT":" ","MAREA":"北子店","LANE":" ","ALLEY":" ","HOUSE_NO":"８５號","E_COORD97":179539.345072,"N_COORD97":2559676.6137199998,"ADDRESS":"北子店８５號","OBJECTID":660497},"geometry":{"x":179539.34507200122,"y":2559676.6137170028}},{"attributes":{"ID":660525,"DIS_CODE":0,"TOWNNAME":"善化區","LI":"文正里","LIN":"13鄰","STREET":"中","SECT":" ","MAREA":" ","LANE":" ","ALLEY":" ","HOUSE_NO":"５６０之１０號","E_COORD97":176782.98488599999,"N_COORD97":2559400.6803600001,"ADDRESS":"中５６０之１０號","OBJECTID":660498},"geometry":{"x":176782.98488600086,"y":2559400.6803630032}},{"attributes":{"ID":660526,"DIS_CODE":0,"TOWNNAME":"善化區","LI":"光文里","LIN":"7鄰","STREET":"光文路","SECT":" ","MAREA":" ","LANE":"２７巷","ALLEY":" ","HOUSE_NO":"３號之１","E_COORD97":178919.18778000001,"N_COORD97":2559471.5088200001,"ADDRESS":"光文路２７巷３號之１","OBJECTID":660499},"geometry":{"x":178919.18778000027,"y":2559471.5088200029}},{"attributes":{"ID":660527,"DIS_CODE":0,"TOWNNAME":"善化區","LI":"文正里","LIN":"13鄰","STREET":"中","SECT":" ","MAREA":" ","LANE":" ","ALLEY":" ","HOUSE_NO":"５６８號","E_COORD97":176770.962012,"N_COORD97":2559234.2889899998,"ADDRESS":"中５６８號","OBJECTID":660500},"geometry":{"x":176770.96201200038,"y":2559234.2889940031}},{"attributes":{"ID":660528,"DIS_CODE":0,"TOWNNAME":"善化區","LI":"文正里","LIN":"13鄰","STREET":"陽明路","SECT":" ","MAREA":" ","LANE":"１４２巷","ALLEY":" ","HOUSE_NO":"５１號","E_COORD97":176763.86445200001,"N_COORD97":2559590.9290200002,"ADDRESS":"陽明路１４２巷５１號","OBJECTID":660501},"geometry":{"x":176763.86445200164,"y":2559590.9290190022}},{"attributes":{"ID":660529,"DIS_CODE":0,"TOWNNAME":"東區","LI":"和平里","LIN":"7鄰","STREET":"東門路","SECT":"三段","MAREA":" ","LANE":"２２６巷","ALLEY":"９７弄","HOUSE_NO":"４１號","E_COORD97":171494.82199999999,"N_COORD97":2541765.9575,"ADDRESS":"東門路三段２２６巷９７弄４１號","OBJECTID":660502},"geometry":{"x":171494.82200000063,"y":2541765.9574970044}},{"attributes":{"ID":660530,"DIS_CODE":0,"TOWNNAME":"新營區","LI":"忠政里","LIN":"30鄰","STREET":"府西路","SECT":" ","MAREA":" ","LANE":"３３巷","ALLEY":"１３弄","HOUSE_NO":"２號","E_COORD97":179764.89924699999,"N_COORD97":2578950.3971500001,"ADDRESS":"府西路３３巷１３弄２號","OBJECTID":660503},"geometry":{"x":179764.89924699999,"y":2578950.3971519992}},{"attributes":{"ID":660531,"DIS_CODE":0,"TOWNNAME":"東區","LI":"和平里","LIN":"6鄰","STREET":"自由路","SECT":"二段","MAREA":" ","LANE":"１２５巷","ALLEY":"６０弄","HOUSE_NO":"１號","E_COORD97":171678.86236599999,"N_COORD97":2541564.8861799999,"ADDRESS":"自由路二段１２５巷６０弄１號","OBJECTID":660504},"geometry":{"x":171678.86236600205,"y":2541564.8861810025}},{"attributes":{"ID":660532,"DIS_CODE":0,"TOWNNAME":"東區","LI":"和平里","LIN":"6鄰","STREET":"自由路","SECT":"二段","MAREA":" ","LANE":"１２５巷","ALLEY":"６０弄","HOUSE_NO":"２９號","E_COORD97":171674.30708100001,"N_COORD97":2541634.9478099998,"ADDRESS":"自由路二段１２５巷６０弄２９號","OBJECTID":660505},"geometry":{"x":171674.30708100088,"y":2541634.9478099998}},{"attributes":{"ID":660533,"DIS_CODE":0,"TOWNNAME":"新營區","LI":"忠政里","LIN":"30鄰","STREET":"府西路","SECT":" ","MAREA":" ","LANE":"３３巷","ALLEY":"１３弄","HOUSE_NO":"３號","E_COORD97":179776.129005,"N_COORD97":2578942.3538199998,"ADDRESS":"府西路３３巷１３弄３號","OBJECTID":660506},"geometry":{"x":179776.129005,"y":2578942.3538230006}},{"attributes":{"ID":660534,"DIS_CODE":0,"TOWNNAME":"東區","LI":"和平里","LIN":"6鄰","STREET":"自由路","SECT":"二段","MAREA":" ","LANE":"１２５巷","ALLEY":"６０弄","HOUSE_NO":"２７號","E_COORD97":171675.154576,"N_COORD97":2541630.0794799998,"ADDRESS":"自由路二段１２５巷６０弄２７號","OBJECTID":660507},"geometry":{"x":171675.15457599983,"y":2541630.0794800017}},{"attributes":{"ID":660535,"DIS_CODE":0,"TOWNNAME":"東區","LI":"和平里","LIN":"6鄰","STREET":"自由路","SECT":"二段","MAREA":" ","LANE":"１２５巷","ALLEY":"６０弄","HOUSE_NO":"３號","E_COORD97":171678.968303,"N_COORD97":2541570.3895100001,"ADDRESS":"自由路二段１２５巷６０弄３號","OBJECTID":660508},"geometry":{"x":171678.96830299962,"y":2541570.3895120025}},{"attributes":{"ID":660536,"DIS_CODE":0,"TOWNNAME":"新營區","LI":"忠政里","LIN":"30鄰","STREET":"府西路","SECT":" ","MAREA":" ","LANE":"３３巷","ALLEY":" ","HOUSE_NO":"１４號","E_COORD97":179765.323011,"N_COORD97":2578977.9138000002,"ADDRESS":"府西路３３巷１４號","OBJECTID":660509},"geometry":{"x":179765.32301100064,"y":2578977.9138040002}},{"attributes":{"ID":660537,"DIS_CODE":0,"TOWNNAME":"東區","LI":"和平里","LIN":"6鄰","STREET":"自由路","SECT":"二段","MAREA":" ","LANE":"１２５巷","ALLEY":"６０弄","HOUSE_NO":"５號","E_COORD97":171678.33268200001,"N_COORD97":2541575.0461800001,"ADDRESS":"自由路二段１２５巷６０弄５號","OBJECTID":660510},"geometry":{"x":171678.33268200234,"y":2541575.0461759996}},{"attributes":{"ID":660538,"DIS_CODE":0,"TOWNNAME":"東區","LI":"和平里","LIN":"6鄰","STREET":"自由路","SECT":"二段","MAREA":" ","LANE":"１２５巷","ALLEY":"６０弄","HOUSE_NO":"７號","E_COORD97":171677.90893400001,"N_COORD97":2541580.0203399998,"ADDRESS":"自由路二段１２５巷６０弄７號","OBJECTID":660511},"geometry":{"x":171677.90893400088,"y":2541580.0203400031}},{"attributes":{"ID":660539,"DIS_CODE":0,"TOWNNAME":"新營區","LI":"忠政里","LIN":"30鄰","STREET":"府西路","SECT":" ","MAREA":" ","LANE":"３３巷","ALLEY":" ","HOUSE_NO":"１６號","E_COORD97":179756.84772300001,"N_COORD97":2578977.2788,"ADDRESS":"府西路３３巷１６號","OBJECTID":660512},"geometry":{"x":179756.84772300068,"y":2578977.2788040005}},{"attributes":{"ID":660540,"DIS_CODE":0,"TOWNNAME":"東區","LI":"和平里","LIN":"6鄰","STREET":"自由路","SECT":"二段","MAREA":" ","LANE":"１２５巷","ALLEY":"６０弄","HOUSE_NO":"９號","E_COORD97":171677.90893400001,"N_COORD97":2541584.78284,"ADDRESS":"自由路二段１２５巷６０弄９號","OBJECTID":660513},"geometry":{"x":171677.90893400088,"y":2541584.7828369997}},{"attributes":{"ID":660541,"DIS_CODE":0,"TOWNNAME":"東區","LI":"和平里","LIN":"6鄰","STREET":"自由路","SECT":"二段","MAREA":" ","LANE":"１２５巷","ALLEY":"６０弄","HOUSE_NO":"２５號","E_COORD97":171674.62489199999,"N_COORD97":2541624.89365,"ADDRESS":"自由路二段１２５巷６０弄２５號","OBJECTID":660514},"geometry":{"x":171674.62489200011,"y":2541624.8936490025}},{"attributes":{"ID":660542,"DIS_CODE":0,"TOWNNAME":"東區","LI":"和平里","LIN":"6鄰","STREET":"自由路","SECT":"二段","MAREA":" ","LANE":"１２５巷","ALLEY":"６０弄","HOUSE_NO":"２３號","E_COORD97":171675.26051299999,"N_COORD97":2541620.23698,"ADDRESS":"自由路二段１２５巷６０弄２３號","OBJECTID":660515},"geometry":{"x":171675.26051300019,"y":2541620.2369850017}},{"attributes":{"ID":660543,"DIS_CODE":0,"TOWNNAME":"東區","LI":"和平里","LIN":"6鄰","STREET":"自由路","SECT":"二段","MAREA":" ","LANE":"１２５巷","ALLEY":"６０弄","HOUSE_NO":"２１號","E_COORD97":171676.002071,"N_COORD97":2541615.4744899999,"ADDRESS":"自由路二段１２５巷６０弄２１號","OBJECTID":660516},"geometry":{"x":171676.00207100064,"y":2541615.4744879995}},{"attributes":{"ID":660544,"DIS_CODE":0,"TOWNNAME":"東區","LI":"和平里","LIN":"6鄰","STREET":"自由路","SECT":"二段","MAREA":" ","LANE":"１２５巷","ALLEY":"６０弄","HOUSE_NO":"１１號","E_COORD97":171677.591124,"N_COORD97":2541590.0745000001,"ADDRESS":"自由路二段１２５巷６０弄１１號","OBJECTID":660517},"geometry":{"x":171677.59112400189,"y":2541590.0745010003}},{"attributes":{"ID":660545,"DIS_CODE":0,"TOWNNAME":"東區","LI":"和平里","LIN":"6鄰","STREET":"自由路","SECT":"二段","MAREA":" ","LANE":"１２５巷","ALLEY":"６０弄","HOUSE_NO":"１３號","E_COORD97":171677.591124,"N_COORD97":2541595.0486699999,"ADDRESS":"自由路二段１２５巷６０弄１３號","OBJECTID":660518},"geometry":{"x":171677.59112400189,"y":2541595.0486650039}},{"attributes":{"ID":660546,"DIS_CODE":0,"TOWNNAME":"東區","LI":"和平里","LIN":"6鄰","STREET":"自由路","SECT":"二段","MAREA":" ","LANE":"１２５巷","ALLEY":"６０弄","HOUSE_NO":"１５號","E_COORD97":171677.167376,"N_COORD97":2541600.34033,"ADDRESS":"自由路二段１２５巷６０弄１５號","OBJECTID":660519},"geometry":{"x":171677.16737600043,"y":2541600.3403289989}},{"attributes":{"ID":660547,"DIS_CODE":0,"TOWNNAME":"新營區","LI":"忠政里","LIN":"30鄰","STREET":"府西路","SECT":" ","MAREA":" ","LANE":"３３巷","ALLEY":" ","HOUSE_NO":"１８號","E_COORD97":179748.796198,"N_COORD97":2578979.1838000002,"ADDRESS":"府西路３３巷１８號","OBJECTID":660520},"geometry":{"x":179748.79619800113,"y":2578979.1838029996}},{"attributes":{"ID":660548,"DIS_CODE":0,"TOWNNAME":"東區","LI":"和平里","LIN":"6鄰","STREET":"自由路","SECT":"二段","MAREA":" ","LANE":"１２５巷","ALLEY":"６０弄","HOUSE_NO":"１７號","E_COORD97":171676.743629,"N_COORD97":2541605.5261599999,"ADDRESS":"自由路二段１２５巷６０弄１７號","OBJECTID":660521},"geometry":{"x":171676.74362900108,"y":2541605.5261600036}},{"attributes":{"ID":660549,"DIS_CODE":0,"TOWNNAME":"東區","LI":"和平里","LIN":"6鄰","STREET":"自由路","SECT":"二段","MAREA":" ","LANE":"１２５巷","ALLEY":"６０弄","HOUSE_NO":"１９號","E_COORD97":171676.531755,"N_COORD97":2541610.1828200002,"ADDRESS":"自由路二段１２５巷６０弄１９號","OBJECTID":660522},"geometry":{"x":171676.53175500035,"y":2541610.1828240044}},{"attributes":{"ID":660550,"DIS_CODE":0,"TOWNNAME":"新營區","LI":"忠政里","LIN":"30鄰","STREET":"府西路","SECT":" ","MAREA":" ","LANE":"３３巷","ALLEY":" ","HOUSE_NO":"１９號","E_COORD97":179758.75466199999,"N_COORD97":2578965.8488099999,"ADDRESS":"府西路３３巷１９號","OBJECTID":660523},"geometry":{"x":179758.75466199964,"y":2578965.8488100022}},{"attributes":{"ID":660551,"DIS_CODE":0,"TOWNNAME":"東區","LI":"和平里","LIN":"6鄰","STREET":"自由路","SECT":"二段","MAREA":" ","LANE":"１２５巷","ALLEY":"５６弄","HOUSE_NO":"１號","E_COORD97":171696.38325099999,"N_COORD97":2541545.5016600001,"ADDRESS":"自由路二段１２５巷５６弄１號","OBJECTID":660524},"geometry":{"x":171696.3832510002,"y":2541545.5016580019}},{"attributes":{"ID":660552,"DIS_CODE":0,"TOWNNAME":"東區","LI":"和平里","LIN":"6鄰","STREET":"自由路","SECT":"二段","MAREA":" ","LANE":"１２５巷","ALLEY":"５６弄","HOUSE_NO":"３號","E_COORD97":171696.59512400001,"N_COORD97":2541549.5233200002,"ADDRESS":"自由路二段１２５巷５６弄３號","OBJECTID":660525},"geometry":{"x":171696.59512399975,"y":2541549.5233230032}},{"attributes":{"ID":660553,"DIS_CODE":0,"TOWNNAME":"東區","LI":"和平里","LIN":"6鄰","STREET":"自由路","SECT":"二段","MAREA":" ","LANE":"１２５巷","ALLEY":"５６弄","HOUSE_NO":"５號","E_COORD97":171695.95950299999,"N_COORD97":2541554.1799900001,"ADDRESS":"自由路二段１２５巷５６弄５號","OBJECTID":660526},"geometry":{"x":171695.95950299967,"y":2541554.179987004}},{"attributes":{"ID":660554,"DIS_CODE":0,"TOWNNAME":"東區","LI":"和平里","LIN":"6鄰","STREET":"自由路","SECT":"二段","MAREA":" ","LANE":"１２５巷","ALLEY":"５６弄","HOUSE_NO":"７號","E_COORD97":171695.112008,"N_COORD97":2541557.9899800001,"ADDRESS":"自由路二段１２５巷５６弄７號","OBJECTID":660527},"geometry":{"x":171695.11200800072,"y":2541557.9899850022}},{"attributes":{"ID":660555,"DIS_CODE":0,"TOWNNAME":"東區","LI":"和平里","LIN":"6鄰","STREET":"自由路","SECT":"二段","MAREA":" ","LANE":"１２５巷","ALLEY":"５６弄","HOUSE_NO":"９號","E_COORD97":171694.476387,"N_COORD97":2541561.37665,"ADDRESS":"自由路二段１２５巷５６弄９號","OBJECTID":660528},"geometry":{"x":171694.47638700064,"y":2541561.3766499981}},{"attributes":{"ID":660556,"DIS_CODE":0,"TOWNNAME":"東區","LI":"和平里","LIN":"6鄰","STREET":"自由路","SECT":"二段","MAREA":" ","LANE":"１２５巷","ALLEY":"５６弄","HOUSE_NO":"１１號","E_COORD97":171693.41701899999,"N_COORD97":2541566.0333099999,"ADDRESS":"自由路二段１２５巷５６弄１１號","OBJECTID":660529},"geometry":{"x":171693.41701900121,"y":2541566.033313999}},{"attributes":{"ID":660557,"DIS_CODE":0,"TOWNNAME":"東區","LI":"和平里","LIN":"6鄰","STREET":"自由路","SECT":"二段","MAREA":" ","LANE":"１２５巷","ALLEY":"５６弄","HOUSE_NO":"１３號","E_COORD97":171695.95950299999,"N_COORD97":2541570.4783100002,"ADDRESS":"自由路二段１２５巷５６弄１３號","OBJECTID":660530},"geometry":{"x":171695.95950299967,"y":2541570.4783110004}},{"attributes":{"ID":660558,"DIS_CODE":0,"TOWNNAME":"東區","LI":"和平里","LIN":"6鄰","STREET":"自由路","SECT":"二段","MAREA":" ","LANE":"１２５巷","ALLEY":"５６弄","HOUSE_NO":"１５號","E_COORD97":171694.26451400001,"N_COORD97":2541574.0766400001,"ADDRESS":"自由路二段１２５巷５６弄１５號","OBJECTID":660531},"geometry":{"x":171694.26451400202,"y":2541574.0766430013}},{"attributes":{"ID":660559,"DIS_CODE":0,"TOWNNAME":"東區","LI":"和平里","LIN":"6鄰","STREET":"自由路","SECT":"二段","MAREA":" ","LANE":"１２５巷","ALLEY":"５６弄","HOUSE_NO":"１７號","E_COORD97":171696.38325099999,"N_COORD97":2541578.3099699998,"ADDRESS":"自由路二段１２５巷５６弄１７號","OBJECTID":660532},"geometry":{"x":171696.3832510002,"y":2541578.3099739999}},{"attributes":{"ID":660560,"DIS_CODE":0,"TOWNNAME":"東區","LI":"和平里","LIN":"6鄰","STREET":"自由路","SECT":"二段","MAREA":" ","LANE":"１２５巷","ALLEY":"５６弄","HOUSE_NO":"１９號","E_COORD97":171696.17137699999,"N_COORD97":2541582.33164,"ADDRESS":"自由路二段１２５巷５６弄１９號","OBJECTID":660533},"geometry":{"x":171696.17137699947,"y":2541582.3316380009}},{"attributes":{"ID":660561,"DIS_CODE":0,"TOWNNAME":"東區","LI":"和平里","LIN":"6鄰","STREET":"自由路","SECT":"二段","MAREA":" ","LANE":"１２５巷","ALLEY":"５６弄","HOUSE_NO":"２１號","E_COORD97":171694.688261,"N_COORD97":2541586.14164,"ADDRESS":"自由路二段１２５巷５６弄２１號","OBJECTID":660534},"geometry":{"x":171694.68826100137,"y":2541586.1416359991}},{"attributes":{"ID":660562,"DIS_CODE":0,"TOWNNAME":"東區","LI":"和平里","LIN":"6鄰","STREET":"自由路","SECT":"二段","MAREA":" ","LANE":"１２５巷","ALLEY":"５６弄","HOUSE_NO":"２３號","E_COORD97":171697.01887199999,"N_COORD97":2541589.3166399999,"ADDRESS":"自由路二段１２５巷５６弄２３號","OBJECTID":660535},"geometry":{"x":171697.01887200028,"y":2541589.3166349996}},{"attributes":{"ID":660563,"DIS_CODE":0,"TOWNNAME":"東區","LI":"和平里","LIN":"6鄰","STREET":"自由路","SECT":"二段","MAREA":" ","LANE":"１２５巷","ALLEY":"５６弄","HOUSE_NO":"２５號","E_COORD97":171693.84076600001,"N_COORD97":2541593.1266299998,"ADDRESS":"自由路二段１２５巷５６弄２５號","OBJECTID":660536},"geometry":{"x":171693.84076600056,"y":2541593.1266330034}},{"attributes":{"ID":660564,"DIS_CODE":0,"TOWNNAME":"東區","LI":"和平里","LIN":"6鄰","STREET":"自由路","SECT":"二段","MAREA":" ","LANE":"１２５巷","ALLEY":"５６弄","HOUSE_NO":"２７號","E_COORD97":171693.20514500001,"N_COORD97":2541596.9366299999,"ADDRESS":"自由路二段１２５巷５６弄２７號","OBJECTID":660537},"geometry":{"x":171693.20514500048,"y":2541596.9366310015}},{"attributes":{"ID":660565,"DIS_CODE":0,"TOWNNAME":"東區","LI":"和平里","LIN":"6鄰","STREET":"自由路","SECT":"二段","MAREA":" ","LANE":"１２５巷","ALLEY":"５６弄","HOUSE_NO":"２９號","E_COORD97":171694.05264000001,"N_COORD97":2541600.5349599998,"ADDRESS":"自由路二段１２５巷５６弄２９號","OBJECTID":660538},"geometry":{"x":171694.05264000129,"y":2541600.5349620003}},{"attributes":{"ID":660566,"DIS_CODE":0,"TOWNNAME":"東區","LI":"和平里","LIN":"6鄰","STREET":"自由路","SECT":"二段","MAREA":" ","LANE":"１２５巷","ALLEY":"５６弄","HOUSE_NO":"３１號","E_COORD97":171694.05264000001,"N_COORD97":2541600.5349599998,"ADDRESS":"自由路二段１２５巷５６弄３１號","OBJECTID":660539},"geometry":{"x":171694.05264000129,"y":2541600.5349620003}},{"attributes":{"ID":660567,"DIS_CODE":0,"TOWNNAME":"東區","LI":"和平里","LIN":"6鄰","STREET":"自由路","SECT":"二段","MAREA":" ","LANE":"１２５巷","ALLEY":"５６弄","HOUSE_NO":"３３號","E_COORD97":171693.20514500001,"N_COORD97":2541604.55663,"ADDRESS":"自由路二段１２５巷５６弄３３號","OBJECTID":660540},"geometry":{"x":171693.20514500048,"y":2541604.5566260014}},{"attributes":{"ID":660568,"DIS_CODE":0,"TOWNNAME":"東區","LI":"和平里","LIN":"6鄰","STREET":"自由路","SECT":"二段","MAREA":" ","LANE":"１２５巷","ALLEY":"５６弄","HOUSE_NO":"３５號","E_COORD97":171692.78139799999,"N_COORD97":2541609.42496,"ADDRESS":"自由路二段１２５巷５６弄３５號","OBJECTID":660541},"geometry":{"x":171692.78139800113,"y":2541609.4249569979}},{"attributes":{"ID":660569,"DIS_CODE":0,"TOWNNAME":"東區","LI":"和平里","LIN":"6鄰","STREET":"自由路","SECT":"二段","MAREA":" ","LANE":"１２５巷","ALLEY":"５６弄","HOUSE_NO":"３７號","E_COORD97":171692.56952399999,"N_COORD97":2541613.6582900002,"ADDRESS":"自由路二段１２５巷５６弄３７號","OBJECTID":660542},"geometry":{"x":171692.5695240004,"y":2541613.6582880002}},{"attributes":{"ID":660570,"DIS_CODE":0,"TOWNNAME":"東區","LI":"和平里","LIN":"6鄰","STREET":"自由路","SECT":"二段","MAREA":" ","LANE":"１２５巷","ALLEY":"５６弄","HOUSE_NO":"３９號","E_COORD97":171692.35764999999,"N_COORD97":2541617.2566200001,"ADDRESS":"自由路二段１２５巷５６弄３９號","OBJECTID":660543},"geometry":{"x":171692.35764999967,"y":2541617.2566200029}},{"attributes":{"ID":660571,"DIS_CODE":0,"TOWNNAME":"東區","LI":"和平里","LIN":"6鄰","STREET":"自由路","SECT":"二段","MAREA":" ","LANE":"１２５巷","ALLEY":" ","HOUSE_NO":"２８號","E_COORD97":171750.83479200001,"N_COORD97":2541543.8083299999,"ADDRESS":"自由路二段１２５巷２８號","OBJECTID":660544},"geometry":{"x":171750.83479200024,"y":2541543.8083260041}},{"attributes":{"ID":660572,"DIS_CODE":0,"TOWNNAME":"東區","LI":"和平里","LIN":"6鄰","STREET":"自由路","SECT":"二段","MAREA":" ","LANE":"１２５巷","ALLEY":" ","HOUSE_NO":"３０號","E_COORD97":171747.02106500001,"N_COORD97":2541544.23166,"ADDRESS":"自由路二段１２５巷３０號","OBJECTID":660545},"geometry":{"x":171747.02106499951,"y":2541544.2316590026}},{"attributes":{"ID":660573,"DIS_CODE":0,"TOWNNAME":"東區","LI":"和平里","LIN":"6鄰","STREET":"自由路","SECT":"二段","MAREA":" ","LANE":"１２５巷","ALLEY":" ","HOUSE_NO":"３２號","E_COORD97":171743.20733899999,"N_COORD97":2541545.28999,"ADDRESS":"自由路二段１２５巷３２號","OBJECTID":660546},"geometry":{"x":171743.20733900089,"y":2541545.2899920009}},{"attributes":{"ID":660574,"DIS_CODE":0,"TOWNNAME":"東區","LI":"和平里","LIN":"6鄰","STREET":"自由路","SECT":"二段","MAREA":" ","LANE":"１２５巷","ALLEY":" ","HOUSE_NO":"３６號","E_COORD97":171739.18173800001,"N_COORD97":2541545.0783299999,"ADDRESS":"自由路二段１２５巷３６號","OBJECTID":660547},"geometry":{"x":171739.18173800036,"y":2541545.0783249997}},{"attributes":{"ID":660575,"DIS_CODE":0,"TOWNNAME":"東區","LI":"和平里","LIN":"6鄰","STREET":"自由路","SECT":"二段","MAREA":" ","LANE":"１２５巷","ALLEY":" ","HOUSE_NO":"３６號","E_COORD97":171739.18173800001,"N_COORD97":2541545.0783299999,"ADDRESS":"自由路二段１２５巷３６號","OBJECTID":660548},"geometry":{"x":171739.18173800036,"y":2541545.0783249997}},{"attributes":{"ID":660576,"DIS_CODE":0,"TOWNNAME":"東區","LI":"和平里","LIN":"6鄰","STREET":"自由路","SECT":"二段","MAREA":" ","LANE":"１２５巷","ALLEY":" ","HOUSE_NO":"３８號","E_COORD97":171735.36801199999,"N_COORD97":2541545.9249900002,"ADDRESS":"自由路二段１２５巷３８號","OBJECTID":660549},"geometry":{"x":171735.36801199988,"y":2541545.9249910004}},{"attributes":{"ID":660577,"DIS_CODE":0,"TOWNNAME":"東區","LI":"和平里","LIN":"6鄰","STREET":"自由路","SECT":"二段","MAREA":" ","LANE":"１２５巷","ALLEY":" ","HOUSE_NO":"４０號","E_COORD97":171731.55428499999,"N_COORD97":2541545.9249900002,"ADDRESS":"自由路二段１２５巷４０號","OBJECTID":660550},"geometry":{"x":171731.55428500194,"y":2541545.9249910004}},{"attributes":{"ID":660578,"DIS_CODE":0,"TOWNNAME":"東區","LI":"和平里","LIN":"6鄰","STREET":"自由路","SECT":"二段","MAREA":" ","LANE":"１２５巷","ALLEY":" ","HOUSE_NO":"４２號","E_COORD97":171728.16430599999,"N_COORD97":2541545.7133200001,"ADDRESS":"自由路二段１２５巷４２號","OBJECTID":660551},"geometry":{"x":171728.16430599988,"y":2541545.7133249994}},{"attributes":{"ID":660579,"DIS_CODE":0,"TOWNNAME":"東區","LI":"和平里","LIN":"6鄰","STREET":"自由路","SECT":"二段","MAREA":" ","LANE":"１２５巷","ALLEY":" ","HOUSE_NO":"４６號","E_COORD97":171728.16430599999,"N_COORD97":2541545.7133200001,"ADDRESS":"自由路二段１２５巷４６號","OBJECTID":660552},"geometry":{"x":171728.16430599988,"y":2541545.7133249994}},{"attributes":{"ID":660580,"DIS_CODE":0,"TOWNNAME":"東區","LI":"和平里","LIN":"6鄰","STREET":"自由路","SECT":"二段","MAREA":" ","LANE":"１２５巷","ALLEY":" ","HOUSE_NO":"４６號","E_COORD97":171728.16430599999,"N_COORD97":2541545.7133200001,"ADDRESS":"自由路二段１２５巷４６號","OBJECTID":660553},"geometry":{"x":171728.16430599988,"y":2541545.7133249994}},{"attributes":{"ID":660581,"DIS_CODE":0,"TOWNNAME":"東區","LI":"和平里","LIN":"6鄰","STREET":"自由路","SECT":"二段","MAREA":" ","LANE":"１２５巷","ALLEY":" ","HOUSE_NO":"４６號","E_COORD97":171724.35057899999,"N_COORD97":2541545.9249900002,"ADDRESS":"自由路二段１２５巷４６號","OBJECTID":660554},"geometry":{"x":171724.35057900008,"y":2541545.9249910004}},{"attributes":{"ID":660582,"DIS_CODE":0,"TOWNNAME":"新營區","LI":"忠政里","LIN":"30鄰","STREET":"府西路","SECT":" ","MAREA":" ","LANE":"３３巷","ALLEY":" ","HOUSE_NO":"２０號","E_COORD97":179740.109027,"N_COORD97":2578980.5596400001,"ADDRESS":"府西路３３巷２０號","OBJECTID":660555},"geometry":{"x":179740.10902700014,"y":2578980.5596360005}},{"attributes":{"ID":660583,"DIS_CODE":0,"TOWNNAME":"東區","LI":"和平里","LIN":"6鄰","STREET":"自由路","SECT":"二段","MAREA":" ","LANE":"１２５巷","ALLEY":" ","HOUSE_NO":"５０號","E_COORD97":171719.26561,"N_COORD97":2541545.9249900002,"ADDRESS":"自由路二段１２５巷５０號","OBJECTID":660556},"geometry":{"x":171719.26561000198,"y":2541545.9249910004}},{"attributes":{"ID":660584,"DIS_CODE":0,"TOWNNAME":"東區","LI":"和平里","LIN":"6鄰","STREET":"自由路","SECT":"二段","MAREA":" ","LANE":"１２５巷","ALLEY":" ","HOUSE_NO":"５２號","E_COORD97":171716.087505,"N_COORD97":2541546.7716600001,"ADDRESS":"自由路二段１２５巷５２號","OBJECTID":660557},"geometry":{"x":171716.08750500064,"y":2541546.7716580015}},{"attributes":{"ID":660585,"DIS_CODE":0,"TOWNNAME":"東區","LI":"和平里","LIN":"6鄰","STREET":"自由路","SECT":"二段","MAREA":" ","LANE":"１２５巷","ALLEY":"５６弄","HOUSE_NO":"２號","E_COORD97":171714.371105,"N_COORD97":2541563.8964800001,"ADDRESS":"自由路二段１２５巷５６弄２號","OBJECTID":660558},"geometry":{"x":171714.37110500038,"y":2541563.8964840025}},{"attributes":{"ID":660586,"DIS_CODE":0,"TOWNNAME":"東區","LI":"和平里","LIN":"6鄰","STREET":"自由路","SECT":"二段","MAREA":" ","LANE":"１２５巷","ALLEY":"５６弄","HOUSE_NO":"６號","E_COORD97":171717.76465200001,"N_COORD97":2541564.9559300002,"ADDRESS":"自由路二段１２５巷５６弄６號","OBJECTID":660559},"geometry":{"x":171717.76465199981,"y":2541564.9559310004}},{"attributes":{"ID":660587,"DIS_CODE":0,"TOWNNAME":"東區","LI":"和平里","LIN":"6鄰","STREET":"自由路","SECT":"二段","MAREA":" ","LANE":"１２５巷","ALLEY":"５６弄","HOUSE_NO":"８號","E_COORD97":171721.79449,"N_COORD97":2541564.7440399998,"ADDRESS":"自由路二段１２５巷５６弄８號","OBJECTID":660560},"geometry":{"x":171721.79449000023,"y":2541564.7440420017}},{"attributes":{"ID":660588,"DIS_CODE":0,"TOWNNAME":"東區","LI":"和平里","LIN":"6鄰","STREET":"自由路","SECT":"二段","MAREA":" ","LANE":"１２５巷","ALLEY":"５６弄","HOUSE_NO":"１０號","E_COORD97":171725.82432799999,"N_COORD97":2541565.1678200001,"ADDRESS":"自由路二段１２５巷５６弄１０號","OBJECTID":660561},"geometry":{"x":171725.82432800066,"y":2541565.1678199992}},{"attributes":{"ID":660589,"DIS_CODE":0,"TOWNNAME":"東區","LI":"和平里","LIN":"6鄰","STREET":"自由路","SECT":"二段","MAREA":" ","LANE":"１２５巷","ALLEY":"５６弄","HOUSE_NO":"１２號","E_COORD97":171729.854166,"N_COORD97":2541564.9559300002,"ADDRESS":"自由路二段１２５巷５６弄１２號","OBJECTID":660562},"geometry":{"x":171729.85416600015,"y":2541564.9559310004}},{"attributes":{"ID":660590,"DIS_CODE":0,"TOWNNAME":"東區","LI":"和平里","LIN":"6鄰","STREET":"自由路","SECT":"二段","MAREA":" ","LANE":"１２５巷","ALLEY":"５６弄","HOUSE_NO":"１６號","E_COORD97":171733.88400399999,"N_COORD97":2541566.0153800002,"ADDRESS":"自由路二段１２５巷５６弄１６號","OBJECTID":660563},"geometry":{"x":171733.88400400057,"y":2541566.0153780002}},{"attributes":{"ID":660591,"DIS_CODE":0,"TOWNNAME":"東區","LI":"和平里","LIN":"6鄰","STREET":"自由路","SECT":"二段","MAREA":" ","LANE":"１２５巷","ALLEY":"５６弄","HOUSE_NO":"１８號","E_COORD97":171734.73238999999,"N_COORD97":2541578.5168499998,"ADDRESS":"自由路二段１２５巷５６弄１８號","OBJECTID":660564},"geometry":{"x":171734.73239000048,"y":2541578.516850004}},{"attributes":{"ID":660592,"DIS_CODE":0,"TOWNNAME":"東區","LI":"和平里","LIN":"6鄰","STREET":"自由路","SECT":"二段","MAREA":" ","LANE":"１２５巷","ALLEY":"５６弄","HOUSE_NO":"２０號","E_COORD97":171729.64206899999,"N_COORD97":2541577.88118,"ADDRESS":"自由路二段１２５巷５６弄２０號","OBJECTID":660565},"geometry":{"x":171729.64206900075,"y":2541577.8811820019}},{"attributes":{"ID":660593,"DIS_CODE":0,"TOWNNAME":"新營區","LI":"忠政里","LIN":"30鄰","STREET":"府西路","SECT":" ","MAREA":" ","LANE":"３３巷","ALLEY":" ","HOUSE_NO":"１５號","E_COORD97":179765.95865799999,"N_COORD97":2578966.5896399999,"ADDRESS":"府西路３３巷１５號","OBJECTID":660566},"geometry":{"x":179765.95865800139,"y":2578966.5896430016}},{"attributes":{"ID":660594,"DIS_CODE":0,"TOWNNAME":"東區","LI":"和平里","LIN":"6鄰","STREET":"自由路","SECT":"二段","MAREA":" ","LANE":"１２５巷","ALLEY":"５６弄","HOUSE_NO":"２２號","E_COORD97":171725.82432799999,"N_COORD97":2541578.3049599999,"ADDRESS":"自由路二段１２５巷５６弄２２號","OBJECTID":660567},"geometry":{"x":171725.82432800066,"y":2541578.3049609996}},{"attributes":{"ID":660595,"DIS_CODE":0,"TOWNNAME":"東區","LI":"和平里","LIN":"6鄰","STREET":"自由路","SECT":"二段","MAREA":" ","LANE":"１２５巷","ALLEY":"５６弄","HOUSE_NO":"２６號","E_COORD97":171722.00658700001,"N_COORD97":2541578.7287400002,"ADDRESS":"自由路二段１２５巷５６弄２６號","OBJECTID":660568},"geometry":{"x":171722.00658700056,"y":2541578.7287390027}},{"attributes":{"ID":660596,"DIS_CODE":0,"TOWNNAME":"東區","LI":"和平里","LIN":"6鄰","STREET":"自由路","SECT":"二段","MAREA":" ","LANE":"１２５巷","ALLEY":"５６弄","HOUSE_NO":"２８號","E_COORD97":171717.76465200001,"N_COORD97":2541578.9406300001,"ADDRESS":"自由路二段１２５巷５６弄２８號","OBJECTID":660569},"geometry":{"x":171717.76465199981,"y":2541578.9406289998}},{"attributes":{"ID":660597,"DIS_CODE":0,"TOWNNAME":"新營區","LI":"忠政里","LIN":"30鄰","STREET":"府西路","SECT":" ","MAREA":" ","LANE":"３３巷","ALLEY":" ","HOUSE_NO":"２１號","E_COORD97":179754.51701800001,"N_COORD97":2578964.8963100002,"ADDRESS":"府西路３３巷２１號","OBJECTID":660570},"geometry":{"x":179754.51701799873,"y":2578964.896311}},{"attributes":{"ID":660598,"DIS_CODE":0,"TOWNNAME":"東區","LI":"和平里","LIN":"6鄰","STREET":"自由路","SECT":"二段","MAREA":" ","LANE":"１２５巷","ALLEY":"５６弄","HOUSE_NO":"３０號","E_COORD97":171713.31062100001,"N_COORD97":2541578.0930699999,"ADDRESS":"自由路二段１２５巷５６弄３０號","OBJECTID":660571},"geometry":{"x":171713.31062100176,"y":2541578.0930710007}},{"attributes":{"ID":660599,"DIS_CODE":0,"TOWNNAME":"東區","LI":"和平里","LIN":"6鄰","STREET":"自由路","SECT":"二段","MAREA":" ","LANE":"１２５巷","ALLEY":"５６弄","HOUSE_NO":"３２號","E_COORD97":171712.67433099999,"N_COORD97":2541598.8582299999,"ADDRESS":"自由路二段１２５巷５６弄３２號","OBJECTID":660572},"geometry":{"x":171712.67433100007,"y":2541598.8582290001}},{"attributes":{"ID":660600,"DIS_CODE":0,"TOWNNAME":"東區","LI":"和平里","LIN":"6鄰","STREET":"自由路","SECT":"二段","MAREA":" ","LANE":"１２５巷","ALLEY":"５６弄","HOUSE_NO":"３６號","E_COORD97":171715.64368499999,"N_COORD97":2541599.2820100002,"ADDRESS":"自由路二段１２５巷５６弄３６號","OBJECTID":660573},"geometry":{"x":171715.64368500002,"y":2541599.2820070032}},{"attributes":{"ID":660601,"DIS_CODE":0,"TOWNNAME":"東區","LI":"和平里","LIN":"6鄰","STREET":"自由路","SECT":"二段","MAREA":" ","LANE":"１２５巷","ALLEY":"５６弄","HOUSE_NO":"３８號","E_COORD97":171720.09771599999,"N_COORD97":2541599.70579,"ADDRESS":"自由路二段１２５巷５６弄３８號","OBJECTID":660574},"geometry":{"x":171720.09771600086,"y":2541599.7057859991}},{"attributes":{"ID":660602,"DIS_CODE":0,"TOWNNAME":"東區","LI":"和平里","LIN":"6鄰","STREET":"自由路","SECT":"二段","MAREA":" ","LANE":"１２５巷","ALLEY":"５６弄","HOUSE_NO":"４０號","E_COORD97":171723.915457,"N_COORD97":2541599.91768,"ADDRESS":"自由路二段１２５巷５６弄４０號","OBJECTID":660575},"geometry":{"x":171723.91545700096,"y":2541599.9176749997}},{"attributes":{"ID":660603,"DIS_CODE":0,"TOWNNAME":"東區","LI":"和平里","LIN":"6鄰","STREET":"自由路","SECT":"二段","MAREA":" ","LANE":"１２５巷","ALLEY":"５６弄","HOUSE_NO":"４２號","E_COORD97":171727.30900499999,"N_COORD97":2541599.4939000001,"ADDRESS":"自由路二段１２５巷５６弄４２號","OBJECTID":660576},"geometry":{"x":171727.3090049997,"y":2541599.4938970003}},{"attributes":{"ID":660604,"DIS_CODE":0,"TOWNNAME":"東區","LI":"和平里","LIN":"6鄰","STREET":"自由路","SECT":"二段","MAREA":" ","LANE":"１２５巷","ALLEY":"５６弄","HOUSE_NO":"４６號","E_COORD97":171732.61142299999,"N_COORD97":2541599.70579,"ADDRESS":"自由路二段１２５巷５６弄４６號","OBJECTID":660577},"geometry":{"x":171732.61142299976,"y":2541599.7057859991}},{"attributes":{"ID":660605,"DIS_CODE":0,"TOWNNAME":"東區","LI":"和平里","LIN":"6鄰","STREET":"自由路","SECT":"二段","MAREA":" ","LANE":"１２５巷","ALLEY":"５６弄","HOUSE_NO":"４６號","E_COORD97":171732.61142299999,"N_COORD97":2541599.70579,"ADDRESS":"自由路二段１２５巷５６弄４６號","OBJECTID":660578},"geometry":{"x":171732.61142299976,"y":2541599.7057859991}},{"attributes":{"ID":660606,"DIS_CODE":0,"TOWNNAME":"東區","LI":"和平里","LIN":"6鄰","STREET":"自由路","SECT":"二段","MAREA":" ","LANE":"１２５巷","ALLEY":"５６弄","HOUSE_NO":"５０號","E_COORD97":171733.45981,"N_COORD97":2541610.9359200001,"ADDRESS":"自由路二段１２５巷５６弄５０號","OBJECTID":660579},"geometry":{"x":171733.45981000084,"y":2541610.9359220006}},{"attributes":{"ID":660607,"DIS_CODE":0,"TOWNNAME":"東區","LI":"和平里","LIN":"6鄰","STREET":"自由路","SECT":"二段","MAREA":" ","LANE":"１２５巷","ALLEY":"５６弄","HOUSE_NO":"５２號","E_COORD97":171728.15739199999,"N_COORD97":2541611.14781,"ADDRESS":"自由路二段１２５巷５６弄５２號","OBJECTID":660580},"geometry":{"x":171728.15739200078,"y":2541611.1478110012}},{"attributes":{"ID":660608,"DIS_CODE":0,"TOWNNAME":"東區","LI":"和平里","LIN":"6鄰","STREET":"自由路","SECT":"二段","MAREA":" ","LANE":"１２５巷","ALLEY":"５６弄","HOUSE_NO":"５６號","E_COORD97":171724.12755400001,"N_COORD97":2541611.14781,"ADDRESS":"自由路二段１２５巷５６弄５６號","OBJECTID":660581},"geometry":{"x":171724.12755400036,"y":2541611.1478110012}},{"attributes":{"ID":660609,"DIS_CODE":0,"TOWNNAME":"東區","LI":"和平里","LIN":"6鄰","STREET":"自由路","SECT":"二段","MAREA":" ","LANE":"１２５巷","ALLEY":"５６弄","HOUSE_NO":"５８號","E_COORD97":171720.52191000001,"N_COORD97":2541610.7240300002,"ADDRESS":"自由路二段１２５巷５６弄５８號","OBJECTID":660582},"geometry":{"x":171720.52191000059,"y":2541610.7240330018}},{"attributes":{"ID":660610,"DIS_CODE":0,"TOWNNAME":"東區","LI":"和平里","LIN":"6鄰","STREET":"自由路","SECT":"二段","MAREA":" ","LANE":"１２５巷","ALLEY":"５６弄","HOUSE_NO":"６０號","E_COORD97":171717.12836199999,"N_COORD97":2541611.14781,"ADDRESS":"自由路二段１２５巷５６弄６０號","OBJECTID":660583},"geometry":{"x":171717.12836200185,"y":2541611.1478110012}},{"attributes":{"ID":660611,"DIS_CODE":0,"TOWNNAME":"東區","LI":"和平里","LIN":"6鄰","STREET":"自由路","SECT":"二段","MAREA":" ","LANE":"１２５巷","ALLEY":"５６弄","HOUSE_NO":"６２號","E_COORD97":171713.098524,"N_COORD97":2541610.5121399998,"ADDRESS":"自由路二段１２５巷５６弄６２號","OBJECTID":660584},"geometry":{"x":171713.09852399863,"y":2541610.5121430047}},{"attributes":{"ID":660612,"DIS_CODE":0,"TOWNNAME":"東區","LI":"和平里","LIN":"6鄰","STREET":"自由路","SECT":"二段","MAREA":" ","LANE":"１２５巷","ALLEY":"２６弄","HOUSE_NO":"１號","E_COORD97":171745.76142,"N_COORD97":2541560.5062500001,"ADDRESS":"自由路二段１２５巷２６弄１號","OBJECTID":660585},"geometry":{"x":171745.76142000221,"y":2541560.5062550027}},{"attributes":{"ID":660613,"DIS_CODE":0,"TOWNNAME":"東區","LI":"和平里","LIN":"6鄰","STREET":"自由路","SECT":"二段","MAREA":" ","LANE":"１２５巷","ALLEY":"２６弄","HOUSE_NO":"３號","E_COORD97":171744.70093699999,"N_COORD97":2541566.0153800002,"ADDRESS":"自由路二段１２５巷２６弄３號","OBJECTID":660586},"geometry":{"x":171744.7009370001,"y":2541566.0153780002}},{"attributes":{"ID":660614,"DIS_CODE":0,"TOWNNAME":"東區","LI":"和平里","LIN":"6鄰","STREET":"自由路","SECT":"二段","MAREA":" ","LANE":"１２５巷","ALLEY":"２６弄","HOUSE_NO":"５號","E_COORD97":171744.70093699999,"N_COORD97":2541570.6769400002,"ADDRESS":"自由路二段１２５巷２６弄５號","OBJECTID":660587},"geometry":{"x":171744.7009370001,"y":2541570.6769440006}},{"attributes":{"ID":660615,"DIS_CODE":0,"TOWNNAME":"新營區","LI":"忠政里","LIN":"30鄰","STREET":"府西路","SECT":" ","MAREA":" ","LANE":"３３巷","ALLEY":"２７弄","HOUSE_NO":"２號之１","E_COORD97":179726.336683,"N_COORD97":2578946.2696500001,"ADDRESS":"府西路３３巷２７弄２號之１","OBJECTID":660588},"geometry":{"x":179726.33668300044,"y":2578946.269654002}},{"attributes":{"ID":660616,"DIS_CODE":0,"TOWNNAME":"東區","LI":"和平里","LIN":"6鄰","STREET":"自由路","SECT":"二段","MAREA":" ","LANE":"１２５巷","ALLEY":"２６弄","HOUSE_NO":"７號","E_COORD97":171744.06464600001,"N_COORD97":2541573.8552799998,"ADDRESS":"自由路二段１２５巷２６弄７號","OBJECTID":660589},"geometry":{"x":171744.06464600004,"y":2541573.8552840017}},{"attributes":{"ID":660617,"DIS_CODE":0,"TOWNNAME":"東區","LI":"和平里","LIN":"6鄰","STREET":"自由路","SECT":"二段","MAREA":" ","LANE":"１２５巷","ALLEY":"２６弄","HOUSE_NO":"９號","E_COORD97":171742.36787300001,"N_COORD97":2541578.5168499998,"ADDRESS":"自由路二段１２５巷２６弄９號","OBJECTID":660590},"geometry":{"x":171742.36787299998,"y":2541578.516850004}},{"attributes":{"ID":660618,"DIS_CODE":0,"TOWNNAME":"東區","LI":"和平里","LIN":"6鄰","STREET":"自由路","SECT":"二段","MAREA":" ","LANE":"１２５巷","ALLEY":"２６弄","HOUSE_NO":"１１號","E_COORD97":171743.640453,"N_COORD97":2541582.9665299999,"ADDRESS":"自由路二段１２５巷２６弄１１號","OBJECTID":660591},"geometry":{"x":171743.64045299869,"y":2541582.9665270019}},{"attributes":{"ID":660619,"DIS_CODE":0,"TOWNNAME":"東區","LI":"和平里","LIN":"6鄰","STREET":"自由路","SECT":"二段","MAREA":" ","LANE":"１２５巷","ALLEY":"２６弄","HOUSE_NO":"１３號","E_COORD97":171742.57996900001,"N_COORD97":2541586.7805300001,"ADDRESS":"自由路二段１２５巷２６弄１３號","OBJECTID":660592},"geometry":{"x":171742.57996900007,"y":2541586.7805349994}},{"attributes":{"ID":660620,"DIS_CODE":0,"TOWNNAME":"新營區","LI":"忠政里","LIN":"30鄰","STREET":"府西路","SECT":" ","MAREA":" ","LANE":" ","ALLEY":" ","HOUSE_NO":"５７號之１","E_COORD97":179787.35876199999,"N_COORD97":2579067.4487600001,"ADDRESS":"府西路５７號之１","OBJECTID":660593},"geometry":{"x":179787.35876200069,"y":2579067.4487560019}},{"attributes":{"ID":660621,"DIS_CODE":0,"TOWNNAME":"東區","LI":"和平里","LIN":"6鄰","STREET":"自由路","SECT":"二段","MAREA":" ","LANE":"１２５巷","ALLEY":"２６弄","HOUSE_NO":"１５號","E_COORD97":171743.00416300001,"N_COORD97":2541591.2302100002,"ADDRESS":"自由路二段１２５巷２６弄１５號","OBJECTID":660594},"geometry":{"x":171743.00416300073,"y":2541591.2302120011}},{"attributes":{"ID":660622,"DIS_CODE":0,"TOWNNAME":"東區","LI":"和平里","LIN":"6鄰","STREET":"自由路","SECT":"二段","MAREA":" ","LANE":"１２５巷","ALLEY":"２６弄","HOUSE_NO":"１７號","E_COORD97":171741.73158200001,"N_COORD97":2541596.31556,"ADDRESS":"自由路二段１２５巷２６弄１７號","OBJECTID":660595},"geometry":{"x":171741.73158199899,"y":2541596.3155560009}},{"attributes":{"ID":660623,"DIS_CODE":0,"TOWNNAME":"東區","LI":"和平里","LIN":"6鄰","STREET":"自由路","SECT":"二段","MAREA":" ","LANE":"１２５巷","ALLEY":"２６弄","HOUSE_NO":"１９號","E_COORD97":171741.09529200001,"N_COORD97":2541601.4008999998,"ADDRESS":"自由路二段１２５巷２６弄１９號","OBJECTID":660596},"geometry":{"x":171741.09529200103,"y":2541601.4009010047}},{"attributes":{"ID":660624,"DIS_CODE":0,"TOWNNAME":"東區","LI":"和平里","LIN":"6鄰","STREET":"自由路","SECT":"二段","MAREA":" ","LANE":"１２５巷","ALLEY":"２６弄","HOUSE_NO":"２１號","E_COORD97":171740.671099,"N_COORD97":2541605.6386899999,"ADDRESS":"自由路二段１２５巷２６弄２１號","OBJECTID":660597},"geometry":{"x":171740.67109899968,"y":2541605.6386879981}},{"attributes":{"ID":660625,"DIS_CODE":0,"TOWNNAME":"東區","LI":"和平里","LIN":"6鄰","STREET":"自由路","SECT":"二段","MAREA":" ","LANE":"１２５巷","ALLEY":"２６弄","HOUSE_NO":"２３號","E_COORD97":171741.09529200001,"N_COORD97":2541610.5121399998,"ADDRESS":"自由路二段１２５巷２６弄２３號","OBJECTID":660598},"geometry":{"x":171741.09529200103,"y":2541610.5121430047}},{"attributes":{"ID":660626,"DIS_CODE":0,"TOWNNAME":"東區","LI":"和平里","LIN":"6鄰","STREET":"自由路","SECT":"二段","MAREA":" ","LANE":"１２５巷","ALLEY":"２６弄","HOUSE_NO":"２５號","E_COORD97":171739.398518,"N_COORD97":2541616.0212699999,"ADDRESS":"自由路二段１２５巷２６弄２５號","OBJECTID":660599},"geometry":{"x":171739.39851800073,"y":2541616.0212670006}},{"attributes":{"ID":660627,"DIS_CODE":0,"TOWNNAME":"東區","LI":"和平里","LIN":"6鄰","STREET":"自由路","SECT":"二段","MAREA":" ","LANE":"１２５巷","ALLEY":"２６弄","HOUSE_NO":"２７號","E_COORD97":171740.88319600001,"N_COORD97":2541620.0471600001,"ADDRESS":"自由路二段１２５巷２６弄２７號","OBJECTID":660600},"geometry":{"x":171740.88319600001,"y":2541620.0471650008}}]}