{"displayFieldName":"TOWNNAME","fieldAliases":{"ID":"ID","DIS_CODE":"DIS_CODE","TOWNNAME":"TOWNNAME","LI":"LI","LIN":"LIN","STREET":"STREET","SECT":"SECT","MAREA":"MAREA","LANE":"LANE","ALLEY":"ALLEY","HOUSE_NO":"HOUSE_NO","E_COORD97":"E_COORD97","N_COORD97":"N_COORD97","ADDRESS":"ADDRESS","OBJECTID":"OBJECTID"},"geometryType":"esriGeometryPoint","spatialReference":{"wkid":102443,"latestWkid":3826},"fields":[{"name":"ID","type":"esriFieldTypeDouble","alias":"ID"},{"name":"DIS_CODE","type":"esriFieldTypeInteger","alias":"DIS_CODE"},{"name":"TOWNNAME","type":"esriFieldTypeString","alias":"TOWNNAME","length":8},{"name":"LI","type":"esriFieldTypeString","alias":"LI","length":8},{"name":"LIN","type":"esriFieldTypeString","alias":"LIN","length":12},{"name":"STREET","type":"esriFieldTypeString","alias":"STREET","length":20},{"name":"SECT","type":"esriFieldTypeString","alias":"SECT","length":8},{"name":"MAREA","type":"esriFieldTypeString","alias":"MAREA","length":12},{"name":"LANE","type":"esriFieldTypeString","alias":"LANE","length":10},{"name":"ALLEY","type":"esriFieldTypeString","alias":"ALLEY","length":10},{"name":"HOUSE_NO","type":"esriFieldTypeString","alias":"HOUSE_NO","length":20},{"name":"E_COORD97","type":"esriFieldTypeDouble","alias":"E_COORD97"},{"name":"N_COORD97","type":"esriFieldTypeDouble","alias":"N_COORD97"},{"name":"ADDRESS","type":"esriFieldTypeString","alias":"ADDRESS","length":50},{"name":"OBJECTID","type":"esriFieldTypeOID","alias":"OBJECTID"}],"features":[{"attributes":{"ID":551628,"DIS_CODE":0,"TOWNNAME":"新化區","LI":"太平里","LIN":"10鄰","STREET":"中正路","SECT":" ","MAREA":" ","LANE":" ","ALLEY":" ","HOUSE_NO":"８６５號","E_COORD97":178595.20999999999,"N_COORD97":2549540.25,"ADDRESS":"中正路８６５號","OBJECTID":551601},"geometry":{"x":178595.21000000089,"y":2549540.2500000019}},{"attributes":{"ID":551629,"DIS_CODE":0,"TOWNNAME":"新化區","LI":"護國里","LIN":"10鄰","STREET":"中山路","SECT":" ","MAREA":" ","LANE":" ","ALLEY":" ","HOUSE_NO":"９８號之３５","E_COORD97":179470.97,"N_COORD97":2549067.2599999998,"ADDRESS":"中山路９８號之３５","OBJECTID":551602},"geometry":{"x":179470.9700000016,"y":2549067.2600000035}},{"attributes":{"ID":551630,"DIS_CODE":0,"TOWNNAME":"新化區","LI":"太平里","LIN":"10鄰","STREET":"中正路","SECT":" ","MAREA":" ","LANE":" ","ALLEY":" ","HOUSE_NO":"８６７號","E_COORD97":178592.10999999999,"N_COORD97":2549547.25,"ADDRESS":"中正路８６７號","OBJECTID":551603},"geometry":{"x":178592.11000000034,"y":2549547.25}},{"attributes":{"ID":551631,"DIS_CODE":0,"TOWNNAME":"新化區","LI":"護國里","LIN":"10鄰","STREET":"中山路","SECT":" ","MAREA":" ","LANE":" ","ALLEY":" ","HOUSE_NO":"１００號之２０","E_COORD97":179492.10000000001,"N_COORD97":2549149.2599999998,"ADDRESS":"中山路１００號之２０","OBJECTID":551604},"geometry":{"x":179492.10000000149,"y":2549149.2600000016}},{"attributes":{"ID":551632,"DIS_CODE":0,"TOWNNAME":"新化區","LI":"太平里","LIN":"10鄰","STREET":"中正路","SECT":" ","MAREA":" ","LANE":" ","ALLEY":" ","HOUSE_NO":"８６３號","E_COORD97":178597.10999999999,"N_COORD97":2549537.25,"ADDRESS":"中正路８６３號","OBJECTID":551605},"geometry":{"x":178597.11000000034,"y":2549537.25}},{"attributes":{"ID":551633,"DIS_CODE":0,"TOWNNAME":"新化區","LI":"太平里","LIN":"10鄰","STREET":"中正路","SECT":" ","MAREA":" ","LANE":" ","ALLEY":" ","HOUSE_NO":"７５９號","E_COORD97":178706.60999999999,"N_COORD97":2549275.2400000002,"ADDRESS":"中正路７５９號","OBJECTID":551606},"geometry":{"x":178706.61000000127,"y":2549275.2400000021}},{"attributes":{"ID":551634,"DIS_CODE":0,"TOWNNAME":"新化區","LI":"護國里","LIN":"10鄰","STREET":"中山路","SECT":" ","MAREA":" ","LANE":" ","ALLEY":" ","HOUSE_NO":"１００號之３５","E_COORD97":179455.22,"N_COORD97":2549203.2599999998,"ADDRESS":"中山路１００號之３５","OBJECTID":551607},"geometry":{"x":179455.21999999974,"y":2549203.2600000016}},{"attributes":{"ID":551635,"DIS_CODE":0,"TOWNNAME":"新化區","LI":"武安里","LIN":"10鄰","STREET":"和平街","SECT":" ","MAREA":" ","LANE":" ","ALLEY":" ","HOUSE_NO":"１５５號之３","E_COORD97":178898.47,"N_COORD97":2548224.2599999998,"ADDRESS":"和平街１５５號之３","OBJECTID":551608},"geometry":{"x":178898.47000000067,"y":2548224.2600000016}},{"attributes":{"ID":551636,"DIS_CODE":0,"TOWNNAME":"新化區","LI":"武安里","LIN":"10鄰","STREET":"和平街","SECT":" ","MAREA":" ","LANE":" ","ALLEY":" ","HOUSE_NO":"１３１號之９","E_COORD97":178889.76999999999,"N_COORD97":2548153.2599999998,"ADDRESS":"和平街１３１號之９","OBJECTID":551609},"geometry":{"x":178889.77000000048,"y":2548153.2600000016}},{"attributes":{"ID":551637,"DIS_CODE":0,"TOWNNAME":"仁德區","LI":"土庫里","LIN":"1鄰","STREET":"太乙十二街","SECT":" ","MAREA":" ","LANE":" ","ALLEY":" ","HOUSE_NO":"３４號","E_COORD97":173172.73000000001,"N_COORD97":2542763.25,"ADDRESS":"太乙十二街３４號","OBJECTID":551610},"geometry":{"x":173172.73000000138,"y":2542763.25}},{"attributes":{"ID":551638,"DIS_CODE":0,"TOWNNAME":"新化區","LI":"太平里","LIN":"10鄰","STREET":"大德路","SECT":" ","MAREA":" ","LANE":" ","ALLEY":" ","HOUSE_NO":"５號","E_COORD97":178637.73000000001,"N_COORD97":2549393.25,"ADDRESS":"大德路５號","OBJECTID":551611},"geometry":{"x":178637.73000000231,"y":2549393.2500000019}},{"attributes":{"ID":551639,"DIS_CODE":0,"TOWNNAME":"新化區","LI":"武安里","LIN":"10鄰","STREET":"和平街","SECT":" ","MAREA":" ","LANE":" ","ALLEY":" ","HOUSE_NO":"１３１號之４","E_COORD97":178910.95999999999,"N_COORD97":2548132.2599999998,"ADDRESS":"和平街１３１號之４","OBJECTID":551612},"geometry":{"x":178910.96000000089,"y":2548132.2600000016}},{"attributes":{"ID":551640,"DIS_CODE":0,"TOWNNAME":"新化區","LI":"協興里","LIN":"10鄰","STREET":"正新路","SECT":" ","MAREA":" ","LANE":" ","ALLEY":" ","HOUSE_NO":"３４９號","E_COORD97":178528.51999999999,"N_COORD97":2548844.25,"ADDRESS":"正新路３４９號","OBJECTID":551613},"geometry":{"x":178528.52000000048,"y":2548844.2500000019}},{"attributes":{"ID":551641,"DIS_CODE":0,"TOWNNAME":"新化區","LI":"豐榮里","LIN":"10鄰","STREET":"信義路","SECT":" ","MAREA":" ","LANE":" ","ALLEY":" ","HOUSE_NO":"４６６號","E_COORD97":178518.23000000001,"N_COORD97":2548285.25,"ADDRESS":"信義路４６６號","OBJECTID":551614},"geometry":{"x":178518.23000000045,"y":2548285.2500000019}},{"attributes":{"ID":551642,"DIS_CODE":0,"TOWNNAME":"新化區","LI":"太平里","LIN":"10鄰","STREET":"中正路","SECT":" ","MAREA":" ","LANE":" ","ALLEY":" ","HOUSE_NO":"８５５號","E_COORD97":178605.81,"N_COORD97":2549517.25,"ADDRESS":"中正路８５５號","OBJECTID":551615},"geometry":{"x":178605.81000000052,"y":2549517.25}},{"attributes":{"ID":551643,"DIS_CODE":0,"TOWNNAME":"新化區","LI":"太平里","LIN":"10鄰","STREET":"中正路","SECT":" ","MAREA":" ","LANE":" ","ALLEY":" ","HOUSE_NO":"８５５號之１０","E_COORD97":178573.10000000001,"N_COORD97":2549526.2599999998,"ADDRESS":"中正路８５５號之１０","OBJECTID":551616},"geometry":{"x":178573.0999999987,"y":2549526.2600000016}},{"attributes":{"ID":551644,"DIS_CODE":0,"TOWNNAME":"新化區","LI":"太平里","LIN":"10鄰","STREET":"中正路","SECT":" ","MAREA":" ","LANE":" ","ALLEY":" ","HOUSE_NO":"８９９號","E_COORD97":178535.01000000001,"N_COORD97":2549662.25,"ADDRESS":"中正路８９９號","OBJECTID":551617},"geometry":{"x":178535.01000000164,"y":2549662.2500000019}},{"attributes":{"ID":551645,"DIS_CODE":0,"TOWNNAME":"新化區","LI":"協興里","LIN":"10鄰","STREET":"正新路","SECT":" ","MAREA":" ","LANE":" ","ALLEY":" ","HOUSE_NO":"３５５號","E_COORD97":178526.01999999999,"N_COORD97":2548857.25,"ADDRESS":"正新路３５５號","OBJECTID":551618},"geometry":{"x":178526.01999999955,"y":2548857.2500000037}},{"attributes":{"ID":551646,"DIS_CODE":0,"TOWNNAME":"新化區","LI":"太平里","LIN":"10鄰","STREET":"中正路","SECT":" ","MAREA":" ","LANE":" ","ALLEY":" ","HOUSE_NO":"８７１號","E_COORD97":178565.41,"N_COORD97":2549588.25,"ADDRESS":"中正路８７１號","OBJECTID":551619},"geometry":{"x":178565.41000000108,"y":2549588.25}},{"attributes":{"ID":551647,"DIS_CODE":0,"TOWNNAME":"新化區","LI":"協興里","LIN":"10鄰","STREET":"正新路","SECT":" ","MAREA":" ","LANE":" ","ALLEY":" ","HOUSE_NO":"３０５號","E_COORD97":178546.82000000001,"N_COORD97":2548739.25,"ADDRESS":"正新路３０５號","OBJECTID":551620},"geometry":{"x":178546.8200000003,"y":2548739.2500000019}},{"attributes":{"ID":551648,"DIS_CODE":0,"TOWNNAME":"新化區","LI":"協興里","LIN":"10鄰","STREET":"正新路","SECT":" ","MAREA":" ","LANE":" ","ALLEY":" ","HOUSE_NO":"３２２號","E_COORD97":178568.72,"N_COORD97":2548816.25,"ADDRESS":"正新路３２２號","OBJECTID":551621},"geometry":{"x":178568.71999999974,"y":2548816.25}},{"attributes":{"ID":551649,"DIS_CODE":0,"TOWNNAME":"新化區","LI":"協興里","LIN":"10鄰","STREET":"正新路","SECT":" ","MAREA":" ","LANE":" ","ALLEY":" ","HOUSE_NO":"３４３號","E_COORD97":178529.92000000001,"N_COORD97":2548831.25,"ADDRESS":"正新路３４３號","OBJECTID":551622},"geometry":{"x":178529.91999999993,"y":2548831.2500000019}},{"attributes":{"ID":551650,"DIS_CODE":0,"TOWNNAME":"新化區","LI":"協興里","LIN":"10鄰","STREET":"正新路","SECT":" ","MAREA":" ","LANE":" ","ALLEY":" ","HOUSE_NO":"３２９號","E_COORD97":178536.42000000001,"N_COORD97":2548796.25,"ADDRESS":"正新路３２９號","OBJECTID":551623},"geometry":{"x":178536.42000000086,"y":2548796.2500000037}},{"attributes":{"ID":551651,"DIS_CODE":0,"TOWNNAME":"新化區","LI":"協興里","LIN":"10鄰","STREET":"正新路","SECT":" ","MAREA":" ","LANE":" ","ALLEY":" ","HOUSE_NO":"３２８號","E_COORD97":178578.01999999999,"N_COORD97":2548818.25,"ADDRESS":"正新路３２８號","OBJECTID":551624},"geometry":{"x":178578.01999999955,"y":2548818.25}},{"attributes":{"ID":551652,"DIS_CODE":0,"TOWNNAME":"新化區","LI":"協興里","LIN":"10鄰","STREET":"正新路","SECT":" ","MAREA":" ","LANE":" ","ALLEY":" ","HOUSE_NO":"３５２號","E_COORD97":178548.62,"N_COORD97":2548858.25,"ADDRESS":"正新路３５２號","OBJECTID":551625},"geometry":{"x":178548.62000000104,"y":2548858.2500000019}},{"attributes":{"ID":551653,"DIS_CODE":0,"TOWNNAME":"新化區","LI":"協興里","LIN":"10鄰","STREET":"正新路","SECT":" ","MAREA":" ","LANE":" ","ALLEY":" ","HOUSE_NO":"３３１號","E_COORD97":178535.92000000001,"N_COORD97":2548801.25,"ADDRESS":"正新路３３１號","OBJECTID":551626},"geometry":{"x":178535.92000000086,"y":2548801.2500000019}},{"attributes":{"ID":551654,"DIS_CODE":0,"TOWNNAME":"新化區","LI":"協興里","LIN":"10鄰","STREET":"正新路","SECT":" ","MAREA":" ","LANE":" ","ALLEY":" ","HOUSE_NO":"３２５號","E_COORD97":178538.22,"N_COORD97":2548788.25,"ADDRESS":"正新路３２５號","OBJECTID":551627},"geometry":{"x":178538.21999999974,"y":2548788.25}},{"attributes":{"ID":551655,"DIS_CODE":0,"TOWNNAME":"新化區","LI":"協興里","LIN":"10鄰","STREET":"正新路","SECT":" ","MAREA":" ","LANE":" ","ALLEY":" ","HOUSE_NO":"３１９號","E_COORD97":178540.01999999999,"N_COORD97":2548775.25,"ADDRESS":"正新路３１９號","OBJECTID":551628},"geometry":{"x":178540.02000000048,"y":2548775.25}},{"attributes":{"ID":551656,"DIS_CODE":0,"TOWNNAME":"新化區","LI":"協興里","LIN":"10鄰","STREET":"正新路","SECT":" ","MAREA":" ","LANE":" ","ALLEY":" ","HOUSE_NO":"３４６號","E_COORD97":178556.82000000001,"N_COORD97":2548847.25,"ADDRESS":"正新路３４６號","OBJECTID":551629},"geometry":{"x":178556.8200000003,"y":2548847.2500000037}},{"attributes":{"ID":551657,"DIS_CODE":0,"TOWNNAME":"新化區","LI":"協興里","LIN":"10鄰","STREET":"正新路","SECT":" ","MAREA":" ","LANE":" ","ALLEY":" ","HOUSE_NO":"３５１號","E_COORD97":178528.22,"N_COORD97":2548848.25,"ADDRESS":"正新路３５１號","OBJECTID":551630},"geometry":{"x":178528.21999999974,"y":2548848.2500000019}},{"attributes":{"ID":551658,"DIS_CODE":0,"TOWNNAME":"新化區","LI":"豐榮里","LIN":"10鄰","STREET":"信義路","SECT":" ","MAREA":" ","LANE":" ","ALLEY":" ","HOUSE_NO":"４７６號","E_COORD97":178478.13,"N_COORD97":2548283.25,"ADDRESS":"信義路４７６號","OBJECTID":551631},"geometry":{"x":178478.12999999989,"y":2548283.25}},{"attributes":{"ID":551659,"DIS_CODE":0,"TOWNNAME":"新化區","LI":"協興里","LIN":"10鄰","STREET":"正新路","SECT":" ","MAREA":" ","LANE":" ","ALLEY":" ","HOUSE_NO":"３２３號","E_COORD97":178539.12,"N_COORD97":2548783.25,"ADDRESS":"正新路３２３號","OBJECTID":551632},"geometry":{"x":178539.12000000011,"y":2548783.2500000019}},{"attributes":{"ID":551660,"DIS_CODE":0,"TOWNNAME":"新化區","LI":"協興里","LIN":"10鄰","STREET":"正新路","SECT":" ","MAREA":" ","LANE":" ","ALLEY":" ","HOUSE_NO":"３４８號","E_COORD97":178555.92000000001,"N_COORD97":2548851.25,"ADDRESS":"正新路３４８號","OBJECTID":551633},"geometry":{"x":178555.91999999993,"y":2548851.2500000019}},{"attributes":{"ID":551661,"DIS_CODE":0,"TOWNNAME":"新化區","LI":"太平里","LIN":"10鄰","STREET":"中正路","SECT":" ","MAREA":" ","LANE":" ","ALLEY":" ","HOUSE_NO":"８５５號之８","E_COORD97":178574.97,"N_COORD97":2549522.2599999998,"ADDRESS":"中正路８５５號之８","OBJECTID":551634},"geometry":{"x":178574.97000000067,"y":2549522.2600000016}},{"attributes":{"ID":551662,"DIS_CODE":0,"TOWNNAME":"新化區","LI":"太平里","LIN":"10鄰","STREET":"中正路","SECT":" ","MAREA":" ","LANE":" ","ALLEY":" ","HOUSE_NO":"９０３號","E_COORD97":178528.20999999999,"N_COORD97":2549675.25,"ADDRESS":"中正路９０３號","OBJECTID":551635},"geometry":{"x":178528.20999999996,"y":2549675.2500000019}},{"attributes":{"ID":551663,"DIS_CODE":0,"TOWNNAME":"仁德區","LI":"仁義里","LIN":"17鄰","STREET":"義林八街","SECT":" ","MAREA":" ","LANE":" ","ALLEY":" ","HOUSE_NO":"１２３號","E_COORD97":174187.66,"N_COORD97":2541273.27,"ADDRESS":"義林八街１２３號","OBJECTID":551636},"geometry":{"x":174187.66000000015,"y":2541273.2700000014}},{"attributes":{"ID":551664,"DIS_CODE":0,"TOWNNAME":"新化區","LI":"太平里","LIN":"10鄰","STREET":"中正路","SECT":" ","MAREA":" ","LANE":" ","ALLEY":" ","HOUSE_NO":"７１１號之２","E_COORD97":178736.85999999999,"N_COORD97":2549187.2599999998,"ADDRESS":"中正路７１１號之２","OBJECTID":551637},"geometry":{"x":178736.86000000127,"y":2549187.2600000016}},{"attributes":{"ID":551665,"DIS_CODE":0,"TOWNNAME":"新化區","LI":"太平里","LIN":"10鄰","STREET":"中正路","SECT":" ","MAREA":" ","LANE":" ","ALLEY":" ","HOUSE_NO":"７５７號","E_COORD97":178693.06,"N_COORD97":2549283.9500000002,"ADDRESS":"中正路７５７號","OBJECTID":551638},"geometry":{"x":178693.05999999959,"y":2549283.9500000011}},{"attributes":{"ID":551666,"DIS_CODE":0,"TOWNNAME":"新化區","LI":"協興里","LIN":"10鄰","STREET":"正新路","SECT":" ","MAREA":" ","LANE":" ","ALLEY":" ","HOUSE_NO":"３２０號","E_COORD97":178552.57000000001,"N_COORD97":2548816.98,"ADDRESS":"正新路３２０號","OBJECTID":551639},"geometry":{"x":178552.57000000123,"y":2548816.9800000023}},{"attributes":{"ID":551667,"DIS_CODE":0,"TOWNNAME":"新化區","LI":"協興里","LIN":"10鄰","STREET":"正新路","SECT":" ","MAREA":" ","LANE":" ","ALLEY":" ","HOUSE_NO":"３１８號","E_COORD97":178554.03,"N_COORD97":2548811.27,"ADDRESS":"正新路３１８號","OBJECTID":551640},"geometry":{"x":178554.03000000212,"y":2548811.2699999996}},{"attributes":{"ID":551668,"DIS_CODE":0,"TOWNNAME":"新化區","LI":"協興里","LIN":"10鄰","STREET":"正新路","SECT":" ","MAREA":" ","LANE":" ","ALLEY":" ","HOUSE_NO":"３１６號","E_COORD97":178554.89000000001,"N_COORD97":2548806.04,"ADDRESS":"正新路３１６號","OBJECTID":551641},"geometry":{"x":178554.8900000006,"y":2548806.0399999991}},{"attributes":{"ID":551669,"DIS_CODE":0,"TOWNNAME":"新化區","LI":"協興里","LIN":"10鄰","STREET":"正新路","SECT":" ","MAREA":" ","LANE":" ","ALLEY":" ","HOUSE_NO":"３１２號","E_COORD97":178556.14999999999,"N_COORD97":2548799.8799999999,"ADDRESS":"正新路３１２號","OBJECTID":551642},"geometry":{"x":178556.15000000037,"y":2548799.879999999}},{"attributes":{"ID":551670,"DIS_CODE":0,"TOWNNAME":"新化區","LI":"豐榮里","LIN":"10鄰","STREET":"信義路","SECT":" ","MAREA":" ","LANE":" ","ALLEY":" ","HOUSE_NO":"４６２號","E_COORD97":178518.06,"N_COORD97":2548289.9300000002,"ADDRESS":"信義路４６２號","OBJECTID":551643},"geometry":{"x":178518.06000000052,"y":2548289.9300000016}},{"attributes":{"ID":551671,"DIS_CODE":0,"TOWNNAME":"玉井區","LI":"玉田里","LIN":"10鄰","STREET":"神農街","SECT":" ","MAREA":" ","LANE":" ","ALLEY":" ","HOUSE_NO":"２８號","E_COORD97":194882.98999999999,"N_COORD97":2557954.8199999998,"ADDRESS":"神農街２８號","OBJECTID":551644},"geometry":{"x":194882.99000000115,"y":2557954.8200000022}},{"attributes":{"ID":551672,"DIS_CODE":0,"TOWNNAME":"安平區","LI":"國平里","LIN":"10鄰","STREET":"華平路","SECT":" ","MAREA":" ","LANE":" ","ALLEY":" ","HOUSE_NO":"６２號","E_COORD97":165353.20999999999,"N_COORD97":2542847.1600000001,"ADDRESS":"華平路６２號","OBJECTID":551645},"geometry":{"x":165353.20999999996,"y":2542847.160000002}},{"attributes":{"ID":551673,"DIS_CODE":0,"TOWNNAME":"新營區","LI":"中營里","LIN":"10鄰","STREET":"工業街","SECT":" ","MAREA":" ","LANE":" ","ALLEY":" ","HOUSE_NO":"１０之１號","E_COORD97":180955.32000000001,"N_COORD97":2578535.2799999998,"ADDRESS":"工業街１０之１號","OBJECTID":551646},"geometry":{"x":180955.3200000003,"y":2578535.2799999993}},{"attributes":{"ID":551674,"DIS_CODE":0,"TOWNNAME":"永康區","LI":"南灣里","LIN":"10鄰","STREET":"永大路","SECT":"一段","MAREA":" ","LANE":" ","ALLEY":" ","HOUSE_NO":"１３２號","E_COORD97":173979.84,"N_COORD97":2544086.5299999998,"ADDRESS":"永大路一段１３２號","OBJECTID":551647},"geometry":{"x":173979.84000000078,"y":2544086.5299999993}},{"attributes":{"ID":551675,"DIS_CODE":0,"TOWNNAME":"七股區","LI":"頂山里","LIN":"10鄰","STREET":"中山路","SECT":" ","MAREA":" ","LANE":" ","ALLEY":" ","HOUSE_NO":"１０號","E_COORD97":181842.95999999999,"N_COORD97":2539507.8799999999,"ADDRESS":"中山路１０號","OBJECTID":551648},"geometry":{"x":181842.96000000183,"y":2539507.8800000027}},{"attributes":{"ID":551676,"DIS_CODE":0,"TOWNNAME":"歸仁區","LI":"大廟里","LIN":"10鄰","STREET":"大廟一街","SECT":" ","MAREA":" ","LANE":" ","ALLEY":" ","HOUSE_NO":"３號","E_COORD97":175892,"N_COORD97":2544140.8199999998,"ADDRESS":"大廟一街３號","OBJECTID":551649},"geometry":{"x":175892,"y":2544140.8199999984}},{"attributes":{"ID":551677,"DIS_CODE":0,"TOWNNAME":"歸仁區","LI":"崙頂里","LIN":"10鄰","STREET":"成功路","SECT":"二段","MAREA":" ","LANE":" ","ALLEY":" ","HOUSE_NO":"１２２號","E_COORD97":178019.57000000001,"N_COORD97":2539788.27,"ADDRESS":"成功路二段１２２號","OBJECTID":551650},"geometry":{"x":178019.5700000003,"y":2539788.2700000014}},{"attributes":{"ID":551678,"DIS_CODE":0,"TOWNNAME":"歸仁區","LI":"崙頂里","LIN":"10鄰","STREET":"成功路","SECT":"二段","MAREA":" ","LANE":" ","ALLEY":" ","HOUSE_NO":"１４６號","E_COORD97":178003.45999999999,"N_COORD97":2539810.2799999998,"ADDRESS":"成功路二段１４６號","OBJECTID":551651},"geometry":{"x":178003.46000000089,"y":2539810.2799999993}},{"attributes":{"ID":551679,"DIS_CODE":0,"TOWNNAME":"東區","LI":"德高里","LIN":"10鄰","STREET":"自由路","SECT":"一段","MAREA":" ","LANE":" ","ALLEY":" ","HOUSE_NO":"１５號","E_COORD97":171368.31,"N_COORD97":2540824.21,"ADDRESS":"自由路一段１５號","OBJECTID":551652},"geometry":{"x":171368.30999999959,"y":2540824.2100000028}},{"attributes":{"ID":551680,"DIS_CODE":0,"TOWNNAME":"東區","LI":"德高里","LIN":"10鄰","STREET":"自由路","SECT":"一段","MAREA":" ","LANE":" ","ALLEY":" ","HOUSE_NO":"１７號","E_COORD97":171372.34,"N_COORD97":2540826.54,"ADDRESS":"自由路一段１７號","OBJECTID":551653},"geometry":{"x":171372.34000000171,"y":2540826.540000001}},{"attributes":{"ID":551681,"DIS_CODE":0,"TOWNNAME":"東區","LI":"德高里","LIN":"10鄰","STREET":"自由路","SECT":"一段","MAREA":" ","LANE":" ","ALLEY":" ","HOUSE_NO":"１９號","E_COORD97":171375.29999999999,"N_COORD97":2540828.2400000002,"ADDRESS":"自由路一段１９號","OBJECTID":551654},"geometry":{"x":171375.29999999981,"y":2540828.2400000002}},{"attributes":{"ID":551682,"DIS_CODE":0,"TOWNNAME":"東區","LI":"德高里","LIN":"10鄰","STREET":"自由路","SECT":"一段","MAREA":" ","LANE":" ","ALLEY":" ","HOUSE_NO":"２１號","E_COORD97":171379.95999999999,"N_COORD97":2540830.9900000002,"ADDRESS":"自由路一段２１號","OBJECTID":551655},"geometry":{"x":171379.95999999996,"y":2540830.9900000039}},{"attributes":{"ID":551683,"DIS_CODE":0,"TOWNNAME":"東區","LI":"德高里","LIN":"10鄰","STREET":"自由路","SECT":"一段","MAREA":" ","LANE":" ","ALLEY":" ","HOUSE_NO":"２５號","E_COORD97":171387.59,"N_COORD97":2540834.3700000001,"ADDRESS":"自由路一段２５號","OBJECTID":551656},"geometry":{"x":171387.59000000171,"y":2540834.370000001}},{"attributes":{"ID":551684,"DIS_CODE":0,"TOWNNAME":"東區","LI":"德高里","LIN":"10鄰","STREET":"自由路","SECT":"一段","MAREA":" ","LANE":" ","ALLEY":" ","HOUSE_NO":"５１號","E_COORD97":171412.79999999999,"N_COORD97":2540845.7999999998,"ADDRESS":"自由路一段５１號","OBJECTID":551657},"geometry":{"x":171412.79999999981,"y":2540845.8000000007}},{"attributes":{"ID":551685,"DIS_CODE":0,"TOWNNAME":"東區","LI":"德高里","LIN":"10鄰","STREET":"自由路","SECT":"一段","MAREA":" ","LANE":" ","ALLEY":" ","HOUSE_NO":"５３號","E_COORD97":171429.12,"N_COORD97":2540858.0800000001,"ADDRESS":"自由路一段５３號","OBJECTID":551658},"geometry":{"x":171429.12000000104,"y":2540858.0800000019}},{"attributes":{"ID":551686,"DIS_CODE":0,"TOWNNAME":"東區","LI":"德高里","LIN":"10鄰","STREET":"自由路","SECT":"一段","MAREA":" ","LANE":" ","ALLEY":" ","HOUSE_NO":"５８號","E_COORD97":171450.09,"N_COORD97":2540824.21,"ADDRESS":"自由路一段５８號","OBJECTID":551659},"geometry":{"x":171450.08999999985,"y":2540824.2100000028}},{"attributes":{"ID":551687,"DIS_CODE":0,"TOWNNAME":"東區","LI":"德高里","LIN":"10鄰","STREET":"自由路","SECT":"一段","MAREA":" ","LANE":" ","ALLEY":" ","HOUSE_NO":"５２號","E_COORD97":171430.37,"N_COORD97":2540820.8599999999,"ADDRESS":"自由路一段５２號","OBJECTID":551660},"geometry":{"x":171430.37000000104,"y":2540820.8600000031}},{"attributes":{"ID":551688,"DIS_CODE":0,"TOWNNAME":"東區","LI":"德高里","LIN":"10鄰","STREET":"自由路","SECT":"一段","MAREA":" ","LANE":" ","ALLEY":" ","HOUSE_NO":"５０號","E_COORD97":171434.17999999999,"N_COORD97":2540823.6099999999,"ADDRESS":"自由路一段５０號","OBJECTID":551661},"geometry":{"x":171434.1799999997,"y":2540823.6100000013}},{"attributes":{"ID":551689,"DIS_CODE":0,"TOWNNAME":"東區","LI":"德高里","LIN":"10鄰","STREET":"自由路","SECT":"一段","MAREA":" ","LANE":" ","ALLEY":" ","HOUSE_NO":"５６號","E_COORD97":171437.78,"N_COORD97":2540814.7200000002,"ADDRESS":"自由路一段５６號","OBJECTID":551662},"geometry":{"x":171437.78000000119,"y":2540814.7200000007}},{"attributes":{"ID":551690,"DIS_CODE":0,"TOWNNAME":"東區","LI":"德高里","LIN":"10鄰","STREET":"自由路","SECT":"一段","MAREA":" ","LANE":" ","ALLEY":" ","HOUSE_NO":"６０號","E_COORD97":171441.81,"N_COORD97":2540837.3700000001,"ADDRESS":"自由路一段６０號","OBJECTID":551663},"geometry":{"x":171441.81000000145,"y":2540837.3700000029}},{"attributes":{"ID":551691,"DIS_CODE":0,"TOWNNAME":"東區","LI":"德高里","LIN":"10鄰","STREET":"自由路","SECT":"一段","MAREA":" ","LANE":" ","ALLEY":" ","HOUSE_NO":"６２號","E_COORD97":171451.56,"N_COORD97":2540848.7999999998,"ADDRESS":"自由路一段６２號","OBJECTID":551664},"geometry":{"x":171451.55999999959,"y":2540848.8000000007}},{"attributes":{"ID":551692,"DIS_CODE":0,"TOWNNAME":"歸仁區","LI":"歸仁里","LIN":"10鄰","STREET":"大通路","SECT":" ","MAREA":" ","LANE":" ","ALLEY":" ","HOUSE_NO":"３０號","E_COORD97":177855.97,"N_COORD97":2540882.9100000001,"ADDRESS":"大通路３０號","OBJECTID":551665},"geometry":{"x":177855.97000000067,"y":2540882.910000002}},{"attributes":{"ID":551693,"DIS_CODE":0,"TOWNNAME":"歸仁區","LI":"大廟里","LIN":"10鄰","STREET":"大廟一街","SECT":" ","MAREA":" ","LANE":" ","ALLEY":" ","HOUSE_NO":"１５號","E_COORD97":175877.07999999999,"N_COORD97":2544119.0600000001,"ADDRESS":"大廟一街１５號","OBJECTID":551666},"geometry":{"x":175877.08000000101,"y":2544119.0599999987}},{"attributes":{"ID":551694,"DIS_CODE":0,"TOWNNAME":"玉井區","LI":"竹圍里","LIN":"10鄰","STREET":"\u25A0吧哖東路","SECT":" ","MAREA":" ","LANE":" ","ALLEY":" ","HOUSE_NO":"３３２號","E_COORD97":196273.64000000001,"N_COORD97":2558922.04,"ADDRESS":"\u25A0吧哖東路３３２號","OBJECTID":551667},"geometry":{"x":196273.63999999966,"y":2558922.040000001}},{"attributes":{"ID":551695,"DIS_CODE":0,"TOWNNAME":"關廟區","LI":"香洋里","LIN":"10鄰","STREET":"仁愛路","SECT":" ","MAREA":" ","LANE":" ","ALLEY":" ","HOUSE_NO":"５５號","E_COORD97":181283.94,"N_COORD97":2540155.2799999998,"ADDRESS":"仁愛路５５號","OBJECTID":551668},"geometry":{"x":181283.93999999948,"y":2540155.2799999993}},{"attributes":{"ID":551696,"DIS_CODE":0,"TOWNNAME":"東區","LI":"崇德里","LIN":"10鄰","STREET":"崇德九街","SECT":" ","MAREA":" ","LANE":" ","ALLEY":" ","HOUSE_NO":"３８號","E_COORD97":170892.28,"N_COORD97":2541552.9100000001,"ADDRESS":"崇德九街３８號","OBJECTID":551669},"geometry":{"x":170892.28000000119,"y":2541552.9100000001}},{"attributes":{"ID":551697,"DIS_CODE":0,"TOWNNAME":"東區","LI":"崇德里","LIN":"10鄰","STREET":"崇德九街","SECT":" ","MAREA":" ","LANE":" ","ALLEY":" ","HOUSE_NO":"３９號","E_COORD97":170880.76000000001,"N_COORD97":2541577.48,"ADDRESS":"崇德九街３９號","OBJECTID":551670},"geometry":{"x":170880.75999999978,"y":2541577.4800000023}},{"attributes":{"ID":551698,"DIS_CODE":0,"TOWNNAME":"東區","LI":"崇德里","LIN":"10鄰","STREET":"崇德九街","SECT":" ","MAREA":" ","LANE":" ","ALLEY":" ","HOUSE_NO":"４０號","E_COORD97":170896.59,"N_COORD97":2541550.7599999998,"ADDRESS":"崇德九街４０號","OBJECTID":551671},"geometry":{"x":170896.59000000078,"y":2541550.7600000035}},{"attributes":{"ID":551699,"DIS_CODE":0,"TOWNNAME":"東區","LI":"崇德里","LIN":"10鄰","STREET":"崇德九街","SECT":" ","MAREA":" ","LANE":" ","ALLEY":" ","HOUSE_NO":"４２號","E_COORD97":170900.56,"N_COORD97":2541553.5899999999,"ADDRESS":"崇德九街４２號","OBJECTID":551672},"geometry":{"x":170900.55999999959,"y":2541553.5899999999}},{"attributes":{"ID":551700,"DIS_CODE":0,"TOWNNAME":"東區","LI":"崇德里","LIN":"10鄰","STREET":"崇德九街","SECT":" ","MAREA":" ","LANE":" ","ALLEY":" ","HOUSE_NO":"４４號","E_COORD97":170904.19,"N_COORD97":2541551.5499999998,"ADDRESS":"崇德九街４４號","OBJECTID":551673},"geometry":{"x":170904.19000000041,"y":2541551.5500000007}},{"attributes":{"ID":551701,"DIS_CODE":0,"TOWNNAME":"南區","LI":"日新里","LIN":"10鄰","STREET":"新興路","SECT":" ","MAREA":" ","LANE":" ","ALLEY":" ","HOUSE_NO":"４３１號","E_COORD97":166953.79999999999,"N_COORD97":2541748.7000000002,"ADDRESS":"新興路４３１號","OBJECTID":551674},"geometry":{"x":166953.80000000075,"y":2541748.7000000011}},{"attributes":{"ID":551702,"DIS_CODE":0,"TOWNNAME":"南區","LI":"日新里","LIN":"10鄰","STREET":"新興路","SECT":" ","MAREA":" ","LANE":" ","ALLEY":" ","HOUSE_NO":"４１９號","E_COORD97":166990.04999999999,"N_COORD97":2541750.48,"ADDRESS":"新興路４１９號","OBJECTID":551675},"geometry":{"x":166990.04999999981,"y":2541750.4800000023}},{"attributes":{"ID":551703,"DIS_CODE":0,"TOWNNAME":"南區","LI":"日新里","LIN":"10鄰","STREET":"新興路","SECT":" ","MAREA":" ","LANE":" ","ALLEY":" ","HOUSE_NO":"４２１號","E_COORD97":166982.92999999999,"N_COORD97":2541751.54,"ADDRESS":"新興路４２１號","OBJECTID":551676},"geometry":{"x":166982.93000000063,"y":2541751.5400000028}},{"attributes":{"ID":551704,"DIS_CODE":0,"TOWNNAME":"南區","LI":"日新里","LIN":"10鄰","STREET":"新興路","SECT":" ","MAREA":" ","LANE":" ","ALLEY":" ","HOUSE_NO":"４２３號","E_COORD97":166977.54000000001,"N_COORD97":2541751.1200000001,"ADDRESS":"新興路４２３號","OBJECTID":551677},"geometry":{"x":166977.54000000097,"y":2541751.1200000029}},{"attributes":{"ID":551705,"DIS_CODE":0,"TOWNNAME":"南區","LI":"日新里","LIN":"10鄰","STREET":"新興路","SECT":" ","MAREA":" ","LANE":" ","ALLEY":" ","HOUSE_NO":"４２５號","E_COORD97":166971.29000000001,"N_COORD97":2541750.2000000002,"ADDRESS":"新興路４２５號","OBJECTID":551678},"geometry":{"x":166971.29000000097,"y":2541750.1999999993}},{"attributes":{"ID":551706,"DIS_CODE":0,"TOWNNAME":"南區","LI":"日新里","LIN":"10鄰","STREET":"新興路","SECT":" ","MAREA":" ","LANE":" ","ALLEY":" ","HOUSE_NO":"４２７號","E_COORD97":166965.32999999999,"N_COORD97":2541748.7799999998,"ADDRESS":"新興路４２７號","OBJECTID":551679},"geometry":{"x":166965.33000000101,"y":2541748.7799999993}},{"attributes":{"ID":551707,"DIS_CODE":0,"TOWNNAME":"南區","LI":"日新里","LIN":"10鄰","STREET":"新興路","SECT":" ","MAREA":" ","LANE":" ","ALLEY":" ","HOUSE_NO":"４２９號","E_COORD97":166958.98999999999,"N_COORD97":2541748.6299999999,"ADDRESS":"新興路４２９號","OBJECTID":551680},"geometry":{"x":166958.99000000022,"y":2541748.6300000008}},{"attributes":{"ID":551708,"DIS_CODE":0,"TOWNNAME":"南區","LI":"日新里","LIN":"10鄰","STREET":"新興路","SECT":" ","MAREA":" ","LANE":" ","ALLEY":" ","HOUSE_NO":"４３３號","E_COORD97":166947.35000000001,"N_COORD97":2541747.0699999998,"ADDRESS":"新興路４３３號","OBJECTID":551681},"geometry":{"x":166947.34999999963,"y":2541747.0700000022}},{"attributes":{"ID":551709,"DIS_CODE":0,"TOWNNAME":"南區","LI":"日新里","LIN":"10鄰","STREET":"新興路","SECT":" ","MAREA":" ","LANE":" ","ALLEY":" ","HOUSE_NO":"４３５號","E_COORD97":166942.66,"N_COORD97":2541746.7200000002,"ADDRESS":"新興路４３５號","OBJECTID":551682},"geometry":{"x":166942.66000000201,"y":2541746.7200000025}},{"attributes":{"ID":551710,"DIS_CODE":0,"TOWNNAME":"南區","LI":"日新里","LIN":"10鄰","STREET":"新興路","SECT":" ","MAREA":" ","LANE":" ","ALLEY":" ","HOUSE_NO":"４３７號","E_COORD97":166936.26999999999,"N_COORD97":2541746.3599999999,"ADDRESS":"新興路４３７號","OBJECTID":551683},"geometry":{"x":166936.27000000142,"y":2541746.3600000031}},{"attributes":{"ID":551711,"DIS_CODE":0,"TOWNNAME":"東區","LI":"崇德里","LIN":"10鄰","STREET":"崇德九街","SECT":" ","MAREA":" ","LANE":" ","ALLEY":" ","HOUSE_NO":"４５號","E_COORD97":170893.12,"N_COORD97":2541579.8500000001,"ADDRESS":"崇德九街４５號","OBJECTID":551684},"geometry":{"x":170893.12000000104,"y":2541579.8499999996}},{"attributes":{"ID":551712,"DIS_CODE":0,"TOWNNAME":"南區","LI":"日新里","LIN":"10鄰","STREET":"新興路","SECT":" ","MAREA":" ","LANE":" ","ALLEY":" ","HOUSE_NO":"４４１號","E_COORD97":166919.29000000001,"N_COORD97":2541743.6400000001,"ADDRESS":"新興路４４１號","OBJECTID":551685},"geometry":{"x":166919.29000000004,"y":2541743.6400000025}},{"attributes":{"ID":551713,"DIS_CODE":0,"TOWNNAME":"南區","LI":"日新里","LIN":"10鄰","STREET":"新興路","SECT":" ","MAREA":" ","LANE":" ","ALLEY":" ","HOUSE_NO":"４４３號","E_COORD97":166913.76999999999,"N_COORD97":2541743.46,"ADDRESS":"新興路４４３號","OBJECTID":551686},"geometry":{"x":166913.76999999955,"y":2541743.4600000009}},{"attributes":{"ID":551714,"DIS_CODE":0,"TOWNNAME":"南區","LI":"日新里","LIN":"10鄰","STREET":"新興路","SECT":" ","MAREA":" ","LANE":" ","ALLEY":" ","HOUSE_NO":"４４５號","E_COORD97":166907.41,"N_COORD97":2541741.8700000001,"ADDRESS":"新興路４４５號","OBJECTID":551687},"geometry":{"x":166907.41000000108,"y":2541741.8700000029}},{"attributes":{"ID":551715,"DIS_CODE":0,"TOWNNAME":"南區","LI":"日新里","LIN":"10鄰","STREET":"新興路","SECT":" ","MAREA":" ","LANE":" ","ALLEY":" ","HOUSE_NO":"４４７號","E_COORD97":166901.92000000001,"N_COORD97":2541741.1000000001,"ADDRESS":"新興路４４７號","OBJECTID":551688},"geometry":{"x":166901.92000000086,"y":2541741.0999999996}},{"attributes":{"ID":551716,"DIS_CODE":0,"TOWNNAME":"南區","LI":"日新里","LIN":"10鄰","STREET":"新興路","SECT":" ","MAREA":" ","LANE":" ","ALLEY":" ","HOUSE_NO":"４４９號","E_COORD97":166895.82999999999,"N_COORD97":2541740.6099999999,"ADDRESS":"新興路４４９號","OBJECTID":551689},"geometry":{"x":166895.83000000101,"y":2541740.6099999994}},{"attributes":{"ID":551717,"DIS_CODE":0,"TOWNNAME":"南區","LI":"日新里","LIN":"10鄰","STREET":"新興路","SECT":" ","MAREA":" ","LANE":" ","ALLEY":" ","HOUSE_NO":"４５１號","E_COORD97":166889.25,"N_COORD97":2541739.8799999999,"ADDRESS":"新興路４５１號","OBJECTID":551690},"geometry":{"x":166889.24999999907,"y":2541739.8800000008}},{"attributes":{"ID":551718,"DIS_CODE":0,"TOWNNAME":"南區","LI":"日新里","LIN":"10鄰","STREET":"新興路","SECT":" ","MAREA":" ","LANE":" ","ALLEY":" ","HOUSE_NO":"４５３號","E_COORD97":166883.97,"N_COORD97":2541739.5600000001,"ADDRESS":"新興路４５３號","OBJECTID":551691},"geometry":{"x":166883.96999999974,"y":2541739.5600000024}},{"attributes":{"ID":551719,"DIS_CODE":0,"TOWNNAME":"南區","LI":"日新里","LIN":"10鄰","STREET":"新興路","SECT":" ","MAREA":" ","LANE":" ","ALLEY":" ","HOUSE_NO":"４５５號","E_COORD97":166877.39000000001,"N_COORD97":2541739.8799999999,"ADDRESS":"新興路４５５號","OBJECTID":551692},"geometry":{"x":166877.38999999966,"y":2541739.8800000008}},{"attributes":{"ID":551720,"DIS_CODE":0,"TOWNNAME":"南區","LI":"日新里","LIN":"10鄰","STREET":"新興路","SECT":" ","MAREA":" ","LANE":" ","ALLEY":" ","HOUSE_NO":"４５７號","E_COORD97":166871.95000000001,"N_COORD97":2541738.1800000002,"ADDRESS":"新興路４５７號","OBJECTID":551693},"geometry":{"x":166871.95000000112,"y":2541738.1800000016}},{"attributes":{"ID":551721,"DIS_CODE":0,"TOWNNAME":"南區","LI":"日新里","LIN":"10鄰","STREET":"新興路","SECT":" ","MAREA":" ","LANE":" ","ALLEY":" ","HOUSE_NO":"４５９號","E_COORD97":166865.29000000001,"N_COORD97":2541738.5,"ADDRESS":"新興路４５９號","OBJECTID":551694},"geometry":{"x":166865.28999999911,"y":2541738.5}},{"attributes":{"ID":551722,"DIS_CODE":0,"TOWNNAME":"南區","LI":"日新里","LIN":"10鄰","STREET":"新興路","SECT":" ","MAREA":" ","LANE":" ","ALLEY":" ","HOUSE_NO":"４６３號","E_COORD97":166851.64999999999,"N_COORD97":2541739.0699999998,"ADDRESS":"新興路４６３號","OBJECTID":551695},"geometry":{"x":166851.6500000013,"y":2541739.070000004}},{"attributes":{"ID":551723,"DIS_CODE":0,"TOWNNAME":"南區","LI":"日新里","LIN":"10鄰","STREET":"新興路","SECT":" ","MAREA":" ","LANE":" ","ALLEY":" ","HOUSE_NO":"４６５號","E_COORD97":166846.84,"N_COORD97":2541738.7799999998,"ADDRESS":"新興路４６５號","OBJECTID":551696},"geometry":{"x":166846.84000000078,"y":2541738.7799999993}},{"attributes":{"ID":551724,"DIS_CODE":0,"TOWNNAME":"南區","LI":"日新里","LIN":"10鄰","STREET":"新興路","SECT":" ","MAREA":" ","LANE":" ","ALLEY":" ","HOUSE_NO":"４６７號","E_COORD97":166842.48000000001,"N_COORD97":2541738.3900000001,"ADDRESS":"新興路４６７號","OBJECTID":551697},"geometry":{"x":166842.48000000231,"y":2541738.3900000025}},{"attributes":{"ID":551725,"DIS_CODE":0,"TOWNNAME":"南區","LI":"日新里","LIN":"10鄰","STREET":"新興路","SECT":" ","MAREA":" ","LANE":" ","ALLEY":" ","HOUSE_NO":"４６９號","E_COORD97":166838.10999999999,"N_COORD97":2541737.0299999998,"ADDRESS":"新興路４６９號","OBJECTID":551698},"geometry":{"x":166838.1100000022,"y":2541737.0299999993}},{"attributes":{"ID":551726,"DIS_CODE":0,"TOWNNAME":"南區","LI":"日新里","LIN":"10鄰","STREET":"新興路","SECT":" ","MAREA":" ","LANE":" ","ALLEY":" ","HOUSE_NO":"４７１號","E_COORD97":166833.94,"N_COORD97":2541737.71,"ADDRESS":"新興路４７１號","OBJECTID":551699},"geometry":{"x":166833.94000000041,"y":2541737.7100000009}},{"attributes":{"ID":551727,"DIS_CODE":0,"TOWNNAME":"中西區","LI":"水仙里","LIN":"10鄰","STREET":"仁愛街","SECT":" ","MAREA":" ","LANE":" ","ALLEY":" ","HOUSE_NO":"５５號","E_COORD97":167774.19,"N_COORD97":2544105.4199999999,"ADDRESS":"仁愛街５５號","OBJECTID":551700},"geometry":{"x":167774.19000000134,"y":2544105.4199999999}},{"attributes":{"ID":551728,"DIS_CODE":0,"TOWNNAME":"東區","LI":"崇德里","LIN":"10鄰","STREET":"崇德九街","SECT":" ","MAREA":" ","LANE":" ","ALLEY":" ","HOUSE_NO":"４７號","E_COORD97":170897.62,"N_COORD97":2541578.5800000001,"ADDRESS":"崇德九街４７號","OBJECTID":551701},"geometry":{"x":170897.62000000011,"y":2541578.5800000001}},{"attributes":{"ID":551729,"DIS_CODE":0,"TOWNNAME":"東區","LI":"崇德里","LIN":"10鄰","STREET":"崇德九街","SECT":" ","MAREA":" ","LANE":" ","ALLEY":" ","HOUSE_NO":"４９號","E_COORD97":170902.23999999999,"N_COORD97":2541576.96,"ADDRESS":"崇德九街４９號","OBJECTID":551702},"geometry":{"x":170902.24000000209,"y":2541576.9600000009}},{"attributes":{"ID":551730,"DIS_CODE":0,"TOWNNAME":"中西區","LI":"水仙里","LIN":"10鄰","STREET":"仁愛街","SECT":" ","MAREA":" ","LANE":" ","ALLEY":" ","HOUSE_NO":"５７號","E_COORD97":167779.06,"N_COORD97":2544108.48,"ADDRESS":"仁愛街５７號","OBJECTID":551703},"geometry":{"x":167779.06000000052,"y":2544108.4800000004}},{"attributes":{"ID":551731,"DIS_CODE":0,"TOWNNAME":"中西區","LI":"水仙里","LIN":"10鄰","STREET":"仁愛街","SECT":" ","MAREA":" ","LANE":" ","ALLEY":" ","HOUSE_NO":"５９號","E_COORD97":167781.84,"N_COORD97":2544112.9300000002,"ADDRESS":"仁愛街５９號","OBJECTID":551704},"geometry":{"x":167781.83999999892,"y":2544112.9300000016}},{"attributes":{"ID":551732,"DIS_CODE":0,"TOWNNAME":"中西區","LI":"水仙里","LIN":"10鄰","STREET":"民權路","SECT":"三段","MAREA":" ","LANE":" ","ALLEY":" ","HOUSE_NO":"５９號","E_COORD97":167783.51000000001,"N_COORD97":2544118.7799999998,"ADDRESS":"民權路三段５９號","OBJECTID":551705},"geometry":{"x":167783.50999999978,"y":2544118.7799999993}},{"attributes":{"ID":551733,"DIS_CODE":0,"TOWNNAME":"中西區","LI":"水仙里","LIN":"10鄰","STREET":"民權路","SECT":"三段","MAREA":" ","LANE":" ","ALLEY":" ","HOUSE_NO":"６１號","E_COORD97":167780.17000000001,"N_COORD97":2544122.3900000001,"ADDRESS":"民權路三段６１號","OBJECTID":551706},"geometry":{"x":167780.17000000086,"y":2544122.3900000006}},{"attributes":{"ID":551734,"DIS_CODE":0,"TOWNNAME":"中西區","LI":"水仙里","LIN":"10鄰","STREET":"民權路","SECT":"三段","MAREA":" ","LANE":" ","ALLEY":" ","HOUSE_NO":"６３號","E_COORD97":167775.01999999999,"N_COORD97":2544123.5099999998,"ADDRESS":"民權路三段６３號","OBJECTID":551707},"geometry":{"x":167775.01999999955,"y":2544123.5100000016}},{"attributes":{"ID":551735,"DIS_CODE":0,"TOWNNAME":"中西區","LI":"水仙里","LIN":"10鄰","STREET":"民權路","SECT":"三段","MAREA":" ","LANE":" ","ALLEY":" ","HOUSE_NO":"６５號","E_COORD97":167770.70999999999,"N_COORD97":2544125.3100000001,"ADDRESS":"民權路三段６５號","OBJECTID":551708},"geometry":{"x":167770.70999999996,"y":2544125.3100000024}},{"attributes":{"ID":551736,"DIS_CODE":0,"TOWNNAME":"中西區","LI":"水仙里","LIN":"10鄰","STREET":"民權路","SECT":"三段","MAREA":" ","LANE":" ","ALLEY":" ","HOUSE_NO":"６９號","E_COORD97":167760.54999999999,"N_COORD97":2544126.29,"ADDRESS":"民權路三段６９號","OBJECTID":551709},"geometry":{"x":167760.55000000075,"y":2544126.2899999972}},{"attributes":{"ID":551737,"DIS_CODE":0,"TOWNNAME":"中西區","LI":"水仙里","LIN":"10鄰","STREET":"民權路","SECT":"三段","MAREA":" ","LANE":" ","ALLEY":" ","HOUSE_NO":"７１號","E_COORD97":167756.09,"N_COORD97":2544127.8199999998,"ADDRESS":"民權路三段７１號","OBJECTID":551710},"geometry":{"x":167756.08999999985,"y":2544127.8200000022}},{"attributes":{"ID":551738,"DIS_CODE":0,"TOWNNAME":"中西區","LI":"水仙里","LIN":"10鄰","STREET":"民權路","SECT":"三段","MAREA":" ","LANE":" ","ALLEY":" ","HOUSE_NO":"７３號","E_COORD97":167752.04999999999,"N_COORD97":2544129.3500000001,"ADDRESS":"民權路三段７３號","OBJECTID":551711},"geometry":{"x":167752.05000000075,"y":2544129.3499999996}},{"attributes":{"ID":551739,"DIS_CODE":0,"TOWNNAME":"中西區","LI":"水仙里","LIN":"10鄰","STREET":"民權路","SECT":"三段","MAREA":" ","LANE":" ","ALLEY":" ","HOUSE_NO":"７５號","E_COORD97":167747.73999999999,"N_COORD97":2544131.71,"ADDRESS":"民權路三段７５號","OBJECTID":551712},"geometry":{"x":167747.74000000115,"y":2544131.7100000009}},{"attributes":{"ID":551740,"DIS_CODE":0,"TOWNNAME":"中西區","LI":"水仙里","LIN":"10鄰","STREET":"民權路","SECT":"三段","MAREA":" ","LANE":" ","ALLEY":" ","HOUSE_NO":"７７號","E_COORD97":167744.67999999999,"N_COORD97":2544133.6600000001,"ADDRESS":"民權路三段７７號","OBJECTID":551713},"geometry":{"x":167744.68000000063,"y":2544133.6600000001}},{"attributes":{"ID":551741,"DIS_CODE":0,"TOWNNAME":"中西區","LI":"水仙里","LIN":"10鄰","STREET":"民權路","SECT":"三段","MAREA":" ","LANE":" ","ALLEY":" ","HOUSE_NO":"７９號","E_COORD97":167740.35999999999,"N_COORD97":2544135.1899999999,"ADDRESS":"民權路三段７９號","OBJECTID":551714},"geometry":{"x":167740.36000000127,"y":2544135.1900000013}},{"attributes":{"ID":551742,"DIS_CODE":0,"TOWNNAME":"中西區","LI":"水仙里","LIN":"10鄰","STREET":"民權路","SECT":"三段","MAREA":" ","LANE":" ","ALLEY":" ","HOUSE_NO":"８１號","E_COORD97":167736.32999999999,"N_COORD97":2544137,"ADDRESS":"民權路三段８１號","OBJECTID":551715},"geometry":{"x":167736.33000000007,"y":2544137.0000000019}},{"attributes":{"ID":551743,"DIS_CODE":0,"TOWNNAME":"中西區","LI":"水仙里","LIN":"10鄰","STREET":"民權路","SECT":"三段","MAREA":" ","LANE":" ","ALLEY":" ","HOUSE_NO":"８３號","E_COORD97":167731.04000000001,"N_COORD97":2544138.1099999999,"ADDRESS":"民權路三段８３號","OBJECTID":551716},"geometry":{"x":167731.04000000004,"y":2544138.1100000031}},{"attributes":{"ID":551744,"DIS_CODE":0,"TOWNNAME":"中西區","LI":"水仙里","LIN":"10鄰","STREET":"民權路","SECT":"三段","MAREA":" ","LANE":" ","ALLEY":" ","HOUSE_NO":"８５號","E_COORD97":167726.57999999999,"N_COORD97":2544141.1699999999,"ADDRESS":"民權路三段８５號","OBJECTID":551717},"geometry":{"x":167726.58000000101,"y":2544141.1699999999}},{"attributes":{"ID":551745,"DIS_CODE":0,"TOWNNAME":"中西區","LI":"水仙里","LIN":"10鄰","STREET":"民權路","SECT":"三段","MAREA":" ","LANE":" ","ALLEY":" ","HOUSE_NO":"８７號","E_COORD97":167722.54999999999,"N_COORD97":2544144.5099999998,"ADDRESS":"民權路三段８７號","OBJECTID":551718},"geometry":{"x":167722.54999999981,"y":2544144.5099999998}},{"attributes":{"ID":551746,"DIS_CODE":0,"TOWNNAME":"東區","LI":"崇德里","LIN":"10鄰","STREET":"崇德九街","SECT":" ","MAREA":" ","LANE":" ","ALLEY":" ","HOUSE_NO":"５７號","E_COORD97":170922.31,"N_COORD97":2541581.96,"ADDRESS":"崇德九街５７號","OBJECTID":551719},"geometry":{"x":170922.30999999959,"y":2541581.9600000028}},{"attributes":{"ID":551747,"DIS_CODE":0,"TOWNNAME":"中西區","LI":"民生里","LIN":"10鄰","STREET":"大勇街","SECT":" ","MAREA":" ","LANE":" ","ALLEY":" ","HOUSE_NO":"９０號之１","E_COORD97":167174.84,"N_COORD97":2543381.2000000002,"ADDRESS":"大勇街９０號之１","OBJECTID":551720},"geometry":{"x":167174.83999999985,"y":2543381.200000003}},{"attributes":{"ID":551748,"DIS_CODE":0,"TOWNNAME":"中西區","LI":"民生里","LIN":"10鄰","STREET":"金華路","SECT":"三段","MAREA":" ","LANE":" ","ALLEY":" ","HOUSE_NO":"６７號","E_COORD97":167190.79999999999,"N_COORD97":2543380.75,"ADDRESS":"金華路三段６７號","OBJECTID":551721},"geometry":{"x":167190.80000000075,"y":2543380.75}},{"attributes":{"ID":551749,"DIS_CODE":0,"TOWNNAME":"中西區","LI":"民生里","LIN":"10鄰","STREET":"南華街","SECT":" ","MAREA":" ","LANE":" ","ALLEY":" ","HOUSE_NO":"５２號","E_COORD97":167110.34,"N_COORD97":2543412.8399999999,"ADDRESS":"南華街５２號","OBJECTID":551722},"geometry":{"x":167110.33999999985,"y":2543412.8400000017}},{"attributes":{"ID":551750,"DIS_CODE":0,"TOWNNAME":"中西區","LI":"民生里","LIN":"10鄰","STREET":"南華街","SECT":" ","MAREA":" ","LANE":" ","ALLEY":" ","HOUSE_NO":"５４號","E_COORD97":167110.57000000001,"N_COORD97":2543416.4900000002,"ADDRESS":"南華街５４號","OBJECTID":551723},"geometry":{"x":167110.5700000003,"y":2543416.4900000002}},{"attributes":{"ID":551751,"DIS_CODE":0,"TOWNNAME":"中西區","LI":"民生里","LIN":"10鄰","STREET":"南華街","SECT":" ","MAREA":" ","LANE":" ","ALLEY":" ","HOUSE_NO":"５６號","E_COORD97":167111.48000000001,"N_COORD97":2543420.3599999999,"ADDRESS":"南華街５６號","OBJECTID":551724},"geometry":{"x":167111.48000000045,"y":2543420.3599999994}},{"attributes":{"ID":551752,"DIS_CODE":0,"TOWNNAME":"中西區","LI":"民生里","LIN":"10鄰","STREET":"南華街","SECT":" ","MAREA":" ","LANE":" ","ALLEY":" ","HOUSE_NO":"５８號","E_COORD97":167112.85000000001,"N_COORD97":2543423.54,"ADDRESS":"南華街５８號","OBJECTID":551725},"geometry":{"x":167112.85000000056,"y":2543423.540000001}},{"attributes":{"ID":551753,"DIS_CODE":0,"TOWNNAME":"中西區","LI":"民生里","LIN":"10鄰","STREET":"大勇街","SECT":" ","MAREA":" ","LANE":" ","ALLEY":" ","HOUSE_NO":"１００號","E_COORD97":167157.29000000001,"N_COORD97":2543383.25,"ADDRESS":"大勇街１００號","OBJECTID":551726},"geometry":{"x":167157.29000000097,"y":2543383.2500000019}},{"attributes":{"ID":551754,"DIS_CODE":0,"TOWNNAME":"麻豆區","LI":"東角里","LIN":"10鄰","STREET":"國中街","SECT":" ","MAREA":" ","LANE":" ","ALLEY":" ","HOUSE_NO":"６號","E_COORD97":173968.45999999999,"N_COORD97":2564778.29,"ADDRESS":"國中街６號","OBJECTID":551727},"geometry":{"x":173968.45999999996,"y":2564778.290000001}},{"attributes":{"ID":551755,"DIS_CODE":0,"TOWNNAME":"中西區","LI":"民生里","LIN":"10鄰","STREET":"大勇街","SECT":" ","MAREA":" ","LANE":" ","ALLEY":" ","HOUSE_NO":"１０２號","E_COORD97":167153.42000000001,"N_COORD97":2543383.71,"ADDRESS":"大勇街１０２號","OBJECTID":551728},"geometry":{"x":167153.42000000086,"y":2543383.7100000028}},{"attributes":{"ID":551756,"DIS_CODE":0,"TOWNNAME":"中西區","LI":"民生里","LIN":"10鄰","STREET":"大勇街","SECT":" ","MAREA":" ","LANE":" ","ALLEY":" ","HOUSE_NO":"１０４號","E_COORD97":167149.76999999999,"N_COORD97":2543383.9300000002,"ADDRESS":"大勇街１０４號","OBJECTID":551729},"geometry":{"x":167149.77000000142,"y":2543383.9300000016}},{"attributes":{"ID":551757,"DIS_CODE":0,"TOWNNAME":"中西區","LI":"民生里","LIN":"10鄰","STREET":"大勇街","SECT":" ","MAREA":" ","LANE":" ","ALLEY":" ","HOUSE_NO":"１０６號","E_COORD97":167146.35000000001,"N_COORD97":2543384.3900000001,"ADDRESS":"大勇街１０６號","OBJECTID":551730},"geometry":{"x":167146.35000000056,"y":2543384.3900000006}},{"attributes":{"ID":551758,"DIS_CODE":0,"TOWNNAME":"中西區","LI":"民生里","LIN":"10鄰","STREET":"大勇街","SECT":" ","MAREA":" ","LANE":" ","ALLEY":" ","HOUSE_NO":"１０８號","E_COORD97":167142.70000000001,"N_COORD97":2543384.6200000001,"ADDRESS":"大勇街１０８號","OBJECTID":551731},"geometry":{"x":167142.70000000112,"y":2543384.6200000029}},{"attributes":{"ID":551759,"DIS_CODE":0,"TOWNNAME":"中西區","LI":"民生里","LIN":"10鄰","STREET":"大勇街","SECT":" ","MAREA":" ","LANE":" ","ALLEY":" ","HOUSE_NO":"１１０號","E_COORD97":167139.06,"N_COORD97":2543384.3900000001,"ADDRESS":"大勇街１１０號","OBJECTID":551732},"geometry":{"x":167139.05999999959,"y":2543384.3900000006}},{"attributes":{"ID":551760,"DIS_CODE":0,"TOWNNAME":"中西區","LI":"民生里","LIN":"10鄰","STREET":"大勇街","SECT":" ","MAREA":" ","LANE":" ","ALLEY":" ","HOUSE_NO":"１１２號","E_COORD97":167135.64000000001,"N_COORD97":2543385.2999999998,"ADDRESS":"大勇街１１２號","OBJECTID":551733},"geometry":{"x":167135.64000000153,"y":2543385.3000000007}},{"attributes":{"ID":551761,"DIS_CODE":0,"TOWNNAME":"中西區","LI":"民生里","LIN":"10鄰","STREET":"大勇街","SECT":" ","MAREA":" ","LANE":" ","ALLEY":" ","HOUSE_NO":"１１４號","E_COORD97":167131.76000000001,"N_COORD97":2543385.2999999998,"ADDRESS":"大勇街１１４號","OBJECTID":551734},"geometry":{"x":167131.76000000071,"y":2543385.3000000007}},{"attributes":{"ID":551762,"DIS_CODE":0,"TOWNNAME":"中西區","LI":"民生里","LIN":"10鄰","STREET":"大勇街","SECT":" ","MAREA":" ","LANE":" ","ALLEY":" ","HOUSE_NO":"１１６號","E_COORD97":167126.06,"N_COORD97":2543385.98,"ADDRESS":"大勇街１１６號","OBJECTID":551735},"geometry":{"x":167126.06000000052,"y":2543385.9800000004}},{"attributes":{"ID":551763,"DIS_CODE":0,"TOWNNAME":"中西區","LI":"民生里","LIN":"10鄰","STREET":"大勇街","SECT":" ","MAREA":" ","LANE":" ","ALLEY":" ","HOUSE_NO":"１２２號","E_COORD97":167113.53,"N_COORD97":2543388.4900000002,"ADDRESS":"大勇街１２２號","OBJECTID":551736},"geometry":{"x":167113.53000000119,"y":2543388.4900000021}},{"attributes":{"ID":551764,"DIS_CODE":0,"TOWNNAME":"中西區","LI":"民生里","LIN":"10鄰","STREET":"大勇街","SECT":" ","MAREA":" ","LANE":" ","ALLEY":" ","HOUSE_NO":"９４號","E_COORD97":167169.14000000001,"N_COORD97":2543382.1099999999,"ADDRESS":"大勇街９４號","OBJECTID":551737},"geometry":{"x":167169.13999999966,"y":2543382.1100000031}},{"attributes":{"ID":551765,"DIS_CODE":0,"TOWNNAME":"中西區","LI":"民生里","LIN":"10鄰","STREET":"大勇街","SECT":" ","MAREA":" ","LANE":" ","ALLEY":" ","HOUSE_NO":"９６號","E_COORD97":167165.04000000001,"N_COORD97":2543382.7999999998,"ADDRESS":"大勇街９６號","OBJECTID":551738},"geometry":{"x":167165.04000000004,"y":2543382.8000000026}},{"attributes":{"ID":551766,"DIS_CODE":0,"TOWNNAME":"中西區","LI":"民生里","LIN":"10鄰","STREET":"大勇街","SECT":" ","MAREA":" ","LANE":" ","ALLEY":" ","HOUSE_NO":"９８號","E_COORD97":167161.39000000001,"N_COORD97":2543383.02,"ADDRESS":"大勇街９８號","OBJECTID":551739},"geometry":{"x":167161.3900000006,"y":2543383.0200000033}},{"attributes":{"ID":551767,"DIS_CODE":0,"TOWNNAME":"中西區","LI":"民生里","LIN":"10鄰","STREET":"南華街","SECT":" ","MAREA":" ","LANE":" ","ALLEY":" ","HOUSE_NO":"４６號","E_COORD97":167103.95999999999,"N_COORD97":2543394.6299999999,"ADDRESS":"南華街４６號","OBJECTID":551740},"geometry":{"x":167103.96000000089,"y":2543394.629999999}},{"attributes":{"ID":551768,"DIS_CODE":0,"TOWNNAME":"中西區","LI":"民生里","LIN":"10鄰","STREET":"南華街","SECT":" ","MAREA":" ","LANE":" ","ALLEY":" ","HOUSE_NO":"４８號","E_COORD97":167104.64000000001,"N_COORD97":2543399.6400000001,"ADDRESS":"南華街４８號","OBJECTID":551741},"geometry":{"x":167104.63999999966,"y":2543399.6400000006}},{"attributes":{"ID":551769,"DIS_CODE":0,"TOWNNAME":"中西區","LI":"民生里","LIN":"10鄰","STREET":"南華街","SECT":" ","MAREA":" ","LANE":" ","ALLEY":" ","HOUSE_NO":"５０號","E_COORD97":167105.32000000001,"N_COORD97":2543404.6499999999,"ADDRESS":"南華街５０號","OBJECTID":551742},"geometry":{"x":167105.32000000123,"y":2543404.6500000022}},{"attributes":{"ID":551770,"DIS_CODE":0,"TOWNNAME":"中西區","LI":"水仙里","LIN":"10鄰","STREET":"和平街","SECT":" ","MAREA":" ","LANE":" ","ALLEY":" ","HOUSE_NO":"２４號","E_COORD97":167758.60000000001,"N_COORD97":2544106.2599999998,"ADDRESS":"和平街２４號","OBJECTID":551743},"geometry":{"x":167758.60000000056,"y":2544106.2599999998}},{"attributes":{"ID":551771,"DIS_CODE":0,"TOWNNAME":"中西區","LI":"水仙里","LIN":"10鄰","STREET":"和平街","SECT":" ","MAREA":" ","LANE":" ","ALLEY":" ","HOUSE_NO":"２６號","E_COORD97":167755.12,"N_COORD97":2544107.6499999999,"ADDRESS":"和平街２６號","OBJECTID":551744},"geometry":{"x":167755.12000000104,"y":2544107.6500000004}},{"attributes":{"ID":551772,"DIS_CODE":0,"TOWNNAME":"中西區","LI":"水仙里","LIN":"10鄰","STREET":"和平街","SECT":" ","MAREA":" ","LANE":" ","ALLEY":" ","HOUSE_NO":"２８號","E_COORD97":167751.5,"N_COORD97":2544111.54,"ADDRESS":"和平街２８號","OBJECTID":551745},"geometry":{"x":167751.5,"y":2544111.540000001}},{"attributes":{"ID":551773,"DIS_CODE":0,"TOWNNAME":"中西區","LI":"水仙里","LIN":"10鄰","STREET":"和平街","SECT":" ","MAREA":" ","LANE":" ","ALLEY":" ","HOUSE_NO":"３０號","E_COORD97":167747.32000000001,"N_COORD97":2544112.3799999999,"ADDRESS":"和平街３０號","OBJECTID":551746},"geometry":{"x":167747.32000000123,"y":2544112.3800000027}},{"attributes":{"ID":551774,"DIS_CODE":0,"TOWNNAME":"中西區","LI":"水仙里","LIN":"10鄰","STREET":"和平街","SECT":" ","MAREA":" ","LANE":" ","ALLEY":" ","HOUSE_NO":"３２號","E_COORD97":167742.87,"N_COORD97":2544113.0699999998,"ADDRESS":"和平街３２號","OBJECTID":551747},"geometry":{"x":167742.87000000011,"y":2544113.0700000022}},{"attributes":{"ID":551775,"DIS_CODE":0,"TOWNNAME":"中西區","LI":"水仙里","LIN":"10鄰","STREET":"和平街","SECT":" ","MAREA":" ","LANE":" ","ALLEY":" ","HOUSE_NO":"３４號","E_COORD97":167738,"N_COORD97":2544113.77,"ADDRESS":"和平街３４號","OBJECTID":551748},"geometry":{"x":167738,"y":2544113.7700000014}},{"attributes":{"ID":551776,"DIS_CODE":0,"TOWNNAME":"中西區","LI":"水仙里","LIN":"10鄰","STREET":"和平街","SECT":" ","MAREA":" ","LANE":" ","ALLEY":" ","HOUSE_NO":"３６號","E_COORD97":167733.12,"N_COORD97":2544115.1600000001,"ADDRESS":"和平街３６號","OBJECTID":551749},"geometry":{"x":167733.12000000104,"y":2544115.160000002}},{"attributes":{"ID":551777,"DIS_CODE":0,"TOWNNAME":"中西區","LI":"水仙里","LIN":"10鄰","STREET":"和平街","SECT":" ","MAREA":" ","LANE":" ","ALLEY":" ","HOUSE_NO":"３８號","E_COORD97":167728.10999999999,"N_COORD97":2544115.7200000002,"ADDRESS":"和平街３８號","OBJECTID":551750},"geometry":{"x":167728.1100000022,"y":2544115.7200000025}},{"attributes":{"ID":551778,"DIS_CODE":0,"TOWNNAME":"中西區","LI":"元安里","LIN":"10鄰","STREET":"國華街","SECT":"二段","MAREA":" ","LANE":" ","ALLEY":" ","HOUSE_NO":"１００號","E_COORD97":167641.19,"N_COORD97":2543384.9700000002,"ADDRESS":"國華街二段１００號","OBJECTID":551751},"geometry":{"x":167641.19000000227,"y":2543384.9700000025}},{"attributes":{"ID":551779,"DIS_CODE":0,"TOWNNAME":"中西區","LI":"元安里","LIN":"10鄰","STREET":"國華街","SECT":"二段","MAREA":" ","LANE":" ","ALLEY":" ","HOUSE_NO":"８６號","E_COORD97":167635.94,"N_COORD97":2543343.3700000001,"ADDRESS":"國華街二段８６號","OBJECTID":551752},"geometry":{"x":167635.94000000041,"y":2543343.370000001}},{"attributes":{"ID":551780,"DIS_CODE":0,"TOWNNAME":"中西區","LI":"元安里","LIN":"10鄰","STREET":"國華街","SECT":"二段","MAREA":" ","LANE":" ","ALLEY":" ","HOUSE_NO":"８８號","E_COORD97":167635.82000000001,"N_COORD97":2543349.4700000002,"ADDRESS":"國華街二段８８號","OBJECTID":551753},"geometry":{"x":167635.82000000123,"y":2543349.4700000007}},{"attributes":{"ID":551781,"DIS_CODE":0,"TOWNNAME":"仁德區","LI":"仁義里","LIN":"53鄰","STREET":"仁義三街","SECT":" ","MAREA":" ","LANE":" ","ALLEY":" ","HOUSE_NO":"６０號","E_COORD97":173442.53,"N_COORD97":2541125.52,"ADDRESS":"仁義三街６０號","OBJECTID":551754},"geometry":{"x":173442.53000000026,"y":2541125.5200000014}},{"attributes":{"ID":551782,"DIS_CODE":0,"TOWNNAME":"中西區","LI":"元安里","LIN":"10鄰","STREET":"西門路","SECT":"一段","MAREA":" ","LANE":" ","ALLEY":" ","HOUSE_NO":"７４９號","E_COORD97":167707.57000000001,"N_COORD97":2543350.4100000001,"ADDRESS":"西門路一段７４９號","OBJECTID":551755},"geometry":{"x":167707.5700000003,"y":2543350.4100000039}},{"attributes":{"ID":551783,"DIS_CODE":0,"TOWNNAME":"中西區","LI":"元安里","LIN":"10鄰","STREET":"西門路","SECT":"一段","MAREA":" ","LANE":" ","ALLEY":" ","HOUSE_NO":"７５１號","E_COORD97":167707.84,"N_COORD97":2543361.3799999999,"ADDRESS":"西門路一段７５１號","OBJECTID":551756},"geometry":{"x":167707.84000000078,"y":2543361.379999999}},{"attributes":{"ID":551784,"DIS_CODE":0,"TOWNNAME":"中西區","LI":"元安里","LIN":"10鄰","STREET":"西門路","SECT":"一段","MAREA":" ","LANE":" ","ALLEY":" ","HOUSE_NO":"７５３號","E_COORD97":167707.54000000001,"N_COORD97":2543365.2000000002,"ADDRESS":"西門路一段７５３號","OBJECTID":551757},"geometry":{"x":167707.54000000004,"y":2543365.2000000011}},{"attributes":{"ID":551785,"DIS_CODE":0,"TOWNNAME":"中西區","LI":"元安里","LIN":"10鄰","STREET":"西門路","SECT":"一段","MAREA":" ","LANE":" ","ALLEY":" ","HOUSE_NO":"７５５號","E_COORD97":167709.35000000001,"N_COORD97":2543370.4300000002,"ADDRESS":"西門路一段７５５號","OBJECTID":551758},"geometry":{"x":167709.35000000056,"y":2543370.4300000016}},{"attributes":{"ID":551786,"DIS_CODE":0,"TOWNNAME":"中西區","LI":"元安里","LIN":"10鄰","STREET":"西門路","SECT":"一段","MAREA":" ","LANE":" ","ALLEY":" ","HOUSE_NO":"７５７號","E_COORD97":167710.76000000001,"N_COORD97":2543374.5499999998,"ADDRESS":"西門路一段７５７號","OBJECTID":551759},"geometry":{"x":167710.75999999978,"y":2543374.5500000026}},{"attributes":{"ID":551787,"DIS_CODE":0,"TOWNNAME":"中西區","LI":"元安里","LIN":"10鄰","STREET":"西門路","SECT":"一段","MAREA":" ","LANE":" ","ALLEY":" ","HOUSE_NO":"７５９號","E_COORD97":167711.56,"N_COORD97":2543379.1800000002,"ADDRESS":"西門路一段７５９號","OBJECTID":551760},"geometry":{"x":167711.55999999959,"y":2543379.1800000016}},{"attributes":{"ID":551788,"DIS_CODE":0,"TOWNNAME":"東區","LI":"崇德里","LIN":"10鄰","STREET":"崇德八街","SECT":" ","MAREA":" ","LANE":" ","ALLEY":" ","HOUSE_NO":"２６號","E_COORD97":170856.94,"N_COORD97":2541609.8300000001,"ADDRESS":"崇德八街２６號","OBJECTID":551761},"geometry":{"x":170856.94000000227,"y":2541609.8300000019}},{"attributes":{"ID":551789,"DIS_CODE":0,"TOWNNAME":"仁德區","LI":"土庫里","LIN":"18鄰","STREET":"土庫一街","SECT":" ","MAREA":" ","LANE":" ","ALLEY":" ","HOUSE_NO":"３０號","E_COORD97":174497.64999999999,"N_COORD97":2543099.75,"ADDRESS":"土庫一街３０號","OBJECTID":551762},"geometry":{"x":174497.65000000037,"y":2543099.75}},{"attributes":{"ID":551790,"DIS_CODE":0,"TOWNNAME":"仁德區","LI":"仁義里","LIN":"19鄰","STREET":"中山路","SECT":" ","MAREA":" ","LANE":" ","ALLEY":" ","HOUSE_NO":"３１０號","E_COORD97":173974.67999999999,"N_COORD97":2541263,"ADDRESS":"中山路３１０號","OBJECTID":551763},"geometry":{"x":173974.6799999997,"y":2541263}},{"attributes":{"ID":551791,"DIS_CODE":0,"TOWNNAME":"仁德區","LI":"仁義里","LIN":"44鄰","STREET":"仁義路","SECT":" ","MAREA":" ","LANE":" ","ALLEY":" ","HOUSE_NO":"２０號","E_COORD97":173440.64000000001,"N_COORD97":2540938.52,"ADDRESS":"仁義路２０號","OBJECTID":551764},"geometry":{"x":173440.6400000006,"y":2540938.5200000033}},{"attributes":{"ID":551792,"DIS_CODE":0,"TOWNNAME":"東區","LI":"崇德里","LIN":"10鄰","STREET":"崇德八街","SECT":" ","MAREA":" ","LANE":" ","ALLEY":" ","HOUSE_NO":"４２號","E_COORD97":170891.10000000001,"N_COORD97":2541609.4700000002,"ADDRESS":"崇德八街４２號","OBJECTID":551765},"geometry":{"x":170891.10000000056,"y":2541609.4700000025}},{"attributes":{"ID":551793,"DIS_CODE":0,"TOWNNAME":"仁德區","LI":"仁義里","LIN":"26鄰","STREET":"中正路","SECT":"三段","MAREA":" ","LANE":" ","ALLEY":" ","HOUSE_NO":"１６號","E_COORD97":173301.85000000001,"N_COORD97":2541388.77,"ADDRESS":"中正路三段１６號","OBJECTID":551766},"geometry":{"x":173301.85000000056,"y":2541388.7700000014}},{"attributes":{"ID":551794,"DIS_CODE":0,"TOWNNAME":"東區","LI":"崇德里","LIN":"10鄰","STREET":"崇德八街","SECT":" ","MAREA":" ","LANE":" ","ALLEY":" ","HOUSE_NO":"４４號","E_COORD97":170895.04999999999,"N_COORD97":2541606.6000000001,"ADDRESS":"崇德八街４４號","OBJECTID":551767},"geometry":{"x":170895.05000000075,"y":2541606.6000000015}},{"attributes":{"ID":551795,"DIS_CODE":0,"TOWNNAME":"仁德區","LI":"仁義里","LIN":"26鄰","STREET":"中正路","SECT":"三段","MAREA":" ","LANE":" ","ALLEY":" ","HOUSE_NO":"６號","E_COORD97":173290.70999999999,"N_COORD97":2541366.2799999998,"ADDRESS":"中正路三段６號","OBJECTID":551768},"geometry":{"x":173290.71000000183,"y":2541366.2799999993}},{"attributes":{"ID":551796,"DIS_CODE":0,"TOWNNAME":"仁德區","LI":"仁義里","LIN":"34鄰","STREET":"正義三街","SECT":" ","MAREA":" ","LANE":" ","ALLEY":" ","HOUSE_NO":"１４２之１號","E_COORD97":173798.92000000001,"N_COORD97":2541622.29,"ADDRESS":"正義三街１４２之１號","OBJECTID":551769},"geometry":{"x":173798.91999999993,"y":2541622.290000001}},{"attributes":{"ID":551797,"DIS_CODE":0,"TOWNNAME":"新化區","LI":"太平里","LIN":"10鄰","STREET":"中正路","SECT":" ","MAREA":" ","LANE":" ","ALLEY":" ","HOUSE_NO":"７２９號之１","E_COORD97":178702.14000000001,"N_COORD97":2549225.2599999998,"ADDRESS":"中正路７２９號之１","OBJECTID":551770},"geometry":{"x":178702.1400000006,"y":2549225.2599999998}},{"attributes":{"ID":551798,"DIS_CODE":0,"TOWNNAME":"新化區","LI":"太平里","LIN":"10鄰","STREET":"中正路","SECT":" ","MAREA":" ","LANE":" ","ALLEY":" ","HOUSE_NO":"８３１號","E_COORD97":178640.31,"N_COORD97":2549432.25,"ADDRESS":"中正路８３１號","OBJECTID":551771},"geometry":{"x":178640.31000000052,"y":2549432.25}},{"attributes":{"ID":551799,"DIS_CODE":0,"TOWNNAME":"仁德區","LI":"仁義里","LIN":"9鄰","STREET":"仁義三街","SECT":" ","MAREA":" ","LANE":" ","ALLEY":" ","HOUSE_NO":"１２１號","E_COORD97":173653.20999999999,"N_COORD97":2541136.27,"ADDRESS":"仁義三街１２１號","OBJECTID":551772},"geometry":{"x":173653.20999999996,"y":2541136.2699999996}},{"attributes":{"ID":551800,"DIS_CODE":0,"TOWNNAME":"新化區","LI":"太平里","LIN":"10鄰","STREET":"中正路","SECT":" ","MAREA":" ","LANE":" ","ALLEY":" ","HOUSE_NO":"７７９號","E_COORD97":178678.81,"N_COORD97":2549336.25,"ADDRESS":"中正路７７９號","OBJECTID":551773},"geometry":{"x":178678.81000000052,"y":2549336.2500000019}},{"attributes":{"ID":551801,"DIS_CODE":0,"TOWNNAME":"新化區","LI":"太平里","LIN":"10鄰","STREET":"中正路","SECT":" ","MAREA":" ","LANE":" ","ALLEY":" ","HOUSE_NO":"８４５號","E_COORD97":178630.01000000001,"N_COORD97":2549459.25,"ADDRESS":"中正路８４５號","OBJECTID":551774},"geometry":{"x":178630.01000000164,"y":2549459.25}},{"attributes":{"ID":551802,"DIS_CODE":0,"TOWNNAME":"新化區","LI":"太平里","LIN":"10鄰","STREET":"中正路","SECT":" ","MAREA":" ","LANE":" ","ALLEY":" ","HOUSE_NO":"８３７號","E_COORD97":178635.91,"N_COORD97":2549443.25,"ADDRESS":"中正路８３７號","OBJECTID":551775},"geometry":{"x":178635.91000000015,"y":2549443.25}},{"attributes":{"ID":551803,"DIS_CODE":0,"TOWNNAME":"新化區","LI":"太平里","LIN":"10鄰","STREET":"中正路","SECT":" ","MAREA":" ","LANE":" ","ALLEY":" ","HOUSE_NO":"７１５號","E_COORD97":178753.31,"N_COORD97":2549201.25,"ADDRESS":"中正路７１５號","OBJECTID":551776},"geometry":{"x":178753.31000000052,"y":2549201.2500000019}},{"attributes":{"ID":551804,"DIS_CODE":0,"TOWNNAME":"新化區","LI":"豐榮里","LIN":"10鄰","STREET":"信義路","SECT":" ","MAREA":" ","LANE":" ","ALLEY":" ","HOUSE_NO":"４７４號","E_COORD97":178491.42999999999,"N_COORD97":2548282.25,"ADDRESS":"信義路４７４號","OBJECTID":551777},"geometry":{"x":178491.43000000156,"y":2548282.2500000019}},{"attributes":{"ID":551805,"DIS_CODE":0,"TOWNNAME":"安南區","LI":"安順里","LIN":"10鄰","STREET":"開安五街","SECT":" ","MAREA":" ","LANE":" ","ALLEY":" ","HOUSE_NO":"６號","E_COORD97":170603.03,"N_COORD97":2549970.6299999999,"ADDRESS":"開安五街６號","OBJECTID":551778},"geometry":{"x":170603.03000000026,"y":2549970.6300000008}},{"attributes":{"ID":551806,"DIS_CODE":0,"TOWNNAME":"新化區","LI":"豐榮里","LIN":"10鄰","STREET":"信義路","SECT":" ","MAREA":" ","LANE":" ","ALLEY":" ","HOUSE_NO":"４８０號之１","E_COORD97":178467.66,"N_COORD97":2548326.2599999998,"ADDRESS":"信義路４８０號之１","OBJECTID":551779},"geometry":{"x":178467.66000000015,"y":2548326.2600000016}},{"attributes":{"ID":551807,"DIS_CODE":0,"TOWNNAME":"新化區","LI":"太平里","LIN":"10鄰","STREET":"大德路","SECT":" ","MAREA":" ","LANE":" ","ALLEY":" ","HOUSE_NO":"１１號","E_COORD97":178615.28,"N_COORD97":2549390.25,"ADDRESS":"大德路１１號","OBJECTID":551780},"geometry":{"x":178615.28000000119,"y":2549390.2500000019}},{"attributes":{"ID":551808,"DIS_CODE":0,"TOWNNAME":"新化區","LI":"豐榮里","LIN":"10鄰","STREET":"信義路","SECT":" ","MAREA":" ","LANE":" ","ALLEY":" ","HOUSE_NO":"４９４號","E_COORD97":178371.03,"N_COORD97":2548320.2400000002,"ADDRESS":"信義路４９４號","OBJECTID":551781},"geometry":{"x":178371.03000000212,"y":2548320.2400000002}},{"attributes":{"ID":551809,"DIS_CODE":0,"TOWNNAME":"新化區","LI":"豐榮里","LIN":"10鄰","STREET":"信義路","SECT":" ","MAREA":" ","LANE":" ","ALLEY":" ","HOUSE_NO":"４９０號","E_COORD97":178379.82999999999,"N_COORD97":2548303.25,"ADDRESS":"信義路４９０號","OBJECTID":551782},"geometry":{"x":178379.83000000007,"y":2548303.25}},{"attributes":{"ID":551810,"DIS_CODE":0,"TOWNNAME":"安南區","LI":"溪心里","LIN":"10鄰","STREET":"仁安八街","SECT":" ","MAREA":" ","LANE":" ","ALLEY":" ","HOUSE_NO":"３６號","E_COORD97":166223.92999999999,"N_COORD97":2549860.3500000001,"ADDRESS":"仁安八街３６號","OBJECTID":551783},"geometry":{"x":166223.93000000063,"y":2549860.3500000015}},{"attributes":{"ID":551811,"DIS_CODE":0,"TOWNNAME":"安南區","LI":"溪心里","LIN":"10鄰","STREET":"仁安八街","SECT":" ","MAREA":" ","LANE":" ","ALLEY":" ","HOUSE_NO":"３８號","E_COORD97":166226.42999999999,"N_COORD97":2549862.8399999999,"ADDRESS":"仁安八街３８號","OBJECTID":551784},"geometry":{"x":166226.4299999997,"y":2549862.8399999999}},{"attributes":{"ID":551812,"DIS_CODE":0,"TOWNNAME":"安南區","LI":"溪心里","LIN":"10鄰","STREET":"仁安八街","SECT":" ","MAREA":" ","LANE":" ","ALLEY":" ","HOUSE_NO":"４０號","E_COORD97":166227.92000000001,"N_COORD97":2549867.3300000001,"ADDRESS":"仁安八街４０號","OBJECTID":551785},"geometry":{"x":166227.91999999993,"y":2549867.3300000038}},{"attributes":{"ID":551813,"DIS_CODE":0,"TOWNNAME":"安南區","LI":"溪心里","LIN":"10鄰","STREET":"海佃路","SECT":"三段","MAREA":" ","LANE":" ","ALLEY":" ","HOUSE_NO":"４９號","E_COORD97":166252.79999999999,"N_COORD97":2549862.9399999999,"ADDRESS":"海佃路三段４９號","OBJECTID":551786},"geometry":{"x":166252.79999999981,"y":2549862.9400000013}},{"attributes":{"ID":551814,"DIS_CODE":0,"TOWNNAME":"安南區","LI":"溪心里","LIN":"10鄰","STREET":"海佃路","SECT":"三段","MAREA":" ","LANE":" ","ALLEY":" ","HOUSE_NO":"５１號","E_COORD97":166249.39999999999,"N_COORD97":2549865.2400000002,"ADDRESS":"海佃路三段５１號","OBJECTID":551787},"geometry":{"x":166249.40000000037,"y":2549865.2400000021}},{"attributes":{"ID":551815,"DIS_CODE":0,"TOWNNAME":"安南區","LI":"安順里","LIN":"10鄰","STREET":"開安六街","SECT":" ","MAREA":" ","LANE":" ","ALLEY":" ","HOUSE_NO":"３０號","E_COORD97":170739.56,"N_COORD97":2549992.3900000001,"ADDRESS":"開安六街３０號","OBJECTID":551788},"geometry":{"x":170739.55999999959,"y":2549992.3900000006}},{"attributes":{"ID":551816,"DIS_CODE":0,"TOWNNAME":"安南區","LI":"溪心里","LIN":"10鄰","STREET":"海佃路","SECT":"三段","MAREA":" ","LANE":" ","ALLEY":" ","HOUSE_NO":"５３號","E_COORD97":166246.89999999999,"N_COORD97":2549868.3300000001,"ADDRESS":"海佃路三段５３號","OBJECTID":551789},"geometry":{"x":166246.9000000013,"y":2549868.3300000019}},{"attributes":{"ID":551817,"DIS_CODE":0,"TOWNNAME":"安南區","LI":"溪心里","LIN":"10鄰","STREET":"海佃路","SECT":"三段","MAREA":" ","LANE":" ","ALLEY":" ","HOUSE_NO":"５５號","E_COORD97":166243.10999999999,"N_COORD97":2549871.1299999999,"ADDRESS":"海佃路三段５５號","OBJECTID":551790},"geometry":{"x":166243.1100000022,"y":2549871.1300000008}},{"attributes":{"ID":551818,"DIS_CODE":0,"TOWNNAME":"安南區","LI":"溪心里","LIN":"10鄰","STREET":"海佃路","SECT":"三段","MAREA":" ","LANE":" ","ALLEY":" ","HOUSE_NO":"５７號","E_COORD97":166239.31,"N_COORD97":2549874.1099999999,"ADDRESS":"海佃路三段５７號","OBJECTID":551791},"geometry":{"x":166239.31000000145,"y":2549874.1099999994}},{"attributes":{"ID":551819,"DIS_CODE":0,"TOWNNAME":"安南區","LI":"溪心里","LIN":"10鄰","STREET":"海佃路","SECT":"三段","MAREA":" ","LANE":" ","ALLEY":" ","HOUSE_NO":"５９號","E_COORD97":166235.92000000001,"N_COORD97":2549876.52,"ADDRESS":"海佃路三段５９號","OBJECTID":551792},"geometry":{"x":166235.92000000086,"y":2549876.5200000014}},{"attributes":{"ID":551820,"DIS_CODE":0,"TOWNNAME":"安南區","LI":"溪心里","LIN":"10鄰","STREET":"海佃路","SECT":"三段","MAREA":" ","LANE":" ","ALLEY":" ","HOUSE_NO":"６１號","E_COORD97":166233.01999999999,"N_COORD97":2549880.4100000001,"ADDRESS":"海佃路三段６１號","OBJECTID":551793},"geometry":{"x":166233.02000000048,"y":2549880.4100000039}},{"attributes":{"ID":551821,"DIS_CODE":0,"TOWNNAME":"安南區","LI":"安順里","LIN":"10鄰","STREET":"開安五街","SECT":" ","MAREA":" ","LANE":" ","ALLEY":" ","HOUSE_NO":"１０號","E_COORD97":170628.89999999999,"N_COORD97":2549958.5299999998,"ADDRESS":"開安五街１０號","OBJECTID":551794},"geometry":{"x":170628.9000000013,"y":2549958.5299999993}},{"attributes":{"ID":551822,"DIS_CODE":0,"TOWNNAME":"安南區","LI":"安順里","LIN":"10鄰","STREET":"開安五街","SECT":" ","MAREA":" ","LANE":" ","ALLEY":" ","HOUSE_NO":"１１號","E_COORD97":170692.20999999999,"N_COORD97":2549977.6499999999,"ADDRESS":"開安五街１１號","OBJECTID":551795},"geometry":{"x":170692.21000000089,"y":2549977.6500000022}},{"attributes":{"ID":551823,"DIS_CODE":0,"TOWNNAME":"安南區","LI":"安順里","LIN":"10鄰","STREET":"開安五街","SECT":" ","MAREA":" ","LANE":" ","ALLEY":" ","HOUSE_NO":"１２號","E_COORD97":170641.56,"N_COORD97":2549945.77,"ADDRESS":"開安五街１２號","OBJECTID":551796},"geometry":{"x":170641.55999999866,"y":2549945.7700000014}},{"attributes":{"ID":551824,"DIS_CODE":0,"TOWNNAME":"安南區","LI":"安順里","LIN":"10鄰","STREET":"開安五街","SECT":" ","MAREA":" ","LANE":" ","ALLEY":" ","HOUSE_NO":"１３號","E_COORD97":170709.28,"N_COORD97":2549966.1099999999,"ADDRESS":"開安五街１３號","OBJECTID":551797},"geometry":{"x":170709.28000000119,"y":2549966.1100000031}},{"attributes":{"ID":551825,"DIS_CODE":0,"TOWNNAME":"安南區","LI":"安順里","LIN":"10鄰","STREET":"開安五街","SECT":" ","MAREA":" ","LANE":" ","ALLEY":" ","HOUSE_NO":"１４號","E_COORD97":170654.78,"N_COORD97":2549937.52,"ADDRESS":"開安五街１４號","OBJECTID":551798},"geometry":{"x":170654.78000000119,"y":2549937.5200000014}},{"attributes":{"ID":551826,"DIS_CODE":0,"TOWNNAME":"安南區","LI":"安順里","LIN":"10鄰","STREET":"開安五街","SECT":" ","MAREA":" ","LANE":" ","ALLEY":" ","HOUSE_NO":"１５號","E_COORD97":170725.79999999999,"N_COORD97":2549956.7599999998,"ADDRESS":"開安五街１５號","OBJECTID":551799},"geometry":{"x":170725.80000000075,"y":2549956.7600000016}},{"attributes":{"ID":551827,"DIS_CODE":0,"TOWNNAME":"安南區","LI":"安順里","LIN":"10鄰","STREET":"開安五街","SECT":" ","MAREA":" ","LANE":" ","ALLEY":" ","HOUSE_NO":"１６號","E_COORD97":170666.34,"N_COORD97":2549936.9100000001,"ADDRESS":"開安五街１６號","OBJECTID":551800},"geometry":{"x":170666.33999999985,"y":2549936.9100000001}}]}