{"displayFieldName":"TOWNNAME","fieldAliases":{"ID":"ID","DIS_CODE":"DIS_CODE","TOWNNAME":"TOWNNAME","LI":"LI","LIN":"LIN","STREET":"STREET","SECT":"SECT","MAREA":"MAREA","LANE":"LANE","ALLEY":"ALLEY","HOUSE_NO":"HOUSE_NO","E_COORD97":"E_COORD97","N_COORD97":"N_COORD97","ADDRESS":"ADDRESS","OBJECTID":"OBJECTID"},"geometryType":"esriGeometryPoint","spatialReference":{"wkid":102443,"latestWkid":3826},"fields":[{"name":"ID","type":"esriFieldTypeDouble","alias":"ID"},{"name":"DIS_CODE","type":"esriFieldTypeInteger","alias":"DIS_CODE"},{"name":"TOWNNAME","type":"esriFieldTypeString","alias":"TOWNNAME","length":8},{"name":"LI","type":"esriFieldTypeString","alias":"LI","length":8},{"name":"LIN","type":"esriFieldTypeString","alias":"LIN","length":12},{"name":"STREET","type":"esriFieldTypeString","alias":"STREET","length":20},{"name":"SECT","type":"esriFieldTypeString","alias":"SECT","length":8},{"name":"MAREA","type":"esriFieldTypeString","alias":"MAREA","length":12},{"name":"LANE","type":"esriFieldTypeString","alias":"LANE","length":10},{"name":"ALLEY","type":"esriFieldTypeString","alias":"ALLEY","length":10},{"name":"HOUSE_NO","type":"esriFieldTypeString","alias":"HOUSE_NO","length":20},{"name":"E_COORD97","type":"esriFieldTypeDouble","alias":"E_COORD97"},{"name":"N_COORD97","type":"esriFieldTypeDouble","alias":"N_COORD97"},{"name":"ADDRESS","type":"esriFieldTypeString","alias":"ADDRESS","length":50},{"name":"OBJECTID","type":"esriFieldTypeOID","alias":"OBJECTID"}],"features":[{"attributes":{"ID":82601,"DIS_CODE":0,"TOWNNAME":"中西區","LI":"光賢里","LIN":"12鄰","STREET":"中華西路","SECT":"二段","MAREA":" ","LANE":"５５０巷","ALLEY":"３０弄","HOUSE_NO":"５號","E_COORD97":166741.09,"N_COORD97":2544722.9700000002,"ADDRESS":"中華西路二段５５０巷３０弄５號","OBJECTID":82601},"geometry":{"x":166741.09000000171,"y":2544722.9700000007}},{"attributes":{"ID":82602,"DIS_CODE":0,"TOWNNAME":"中西區","LI":"光賢里","LIN":"12鄰","STREET":"中華西路","SECT":"二段","MAREA":" ","LANE":"５５０巷","ALLEY":"３０弄","HOUSE_NO":"７號","E_COORD97":166741,"N_COORD97":2544718.75,"ADDRESS":"中華西路二段５５０巷３０弄７號","OBJECTID":82602},"geometry":{"x":166741.00000000093,"y":2544718.7500000019}},{"attributes":{"ID":82603,"DIS_CODE":0,"TOWNNAME":"中西區","LI":"光賢里","LIN":"12鄰","STREET":"中華西路","SECT":"二段","MAREA":" ","LANE":"５５０巷","ALLEY":"３０弄","HOUSE_NO":"９號","E_COORD97":166739,"N_COORD97":2544708.54,"ADDRESS":"中華西路二段５５０巷３０弄９號","OBJECTID":82603},"geometry":{"x":166739.00000000093,"y":2544708.540000001}},{"attributes":{"ID":82604,"DIS_CODE":0,"TOWNNAME":"中西區","LI":"光賢里","LIN":"12鄰","STREET":"和善街","SECT":" ","MAREA":" ","LANE":"１２５巷","ALLEY":"３７弄","HOUSE_NO":"１０號","E_COORD97":166811.89999999999,"N_COORD97":2544740.04,"ADDRESS":"和善街１２５巷３７弄１０號","OBJECTID":82604},"geometry":{"x":166811.90000000037,"y":2544740.040000001}},{"attributes":{"ID":82605,"DIS_CODE":0,"TOWNNAME":"中西區","LI":"光賢里","LIN":"12鄰","STREET":"和善街","SECT":" ","MAREA":" ","LANE":"１２５巷","ALLEY":"３７弄","HOUSE_NO":"１２號","E_COORD97":166805.04000000001,"N_COORD97":2544740.04,"ADDRESS":"和善街１２５巷３７弄１２號","OBJECTID":82605},"geometry":{"x":166805.04000000097,"y":2544740.040000001}},{"attributes":{"ID":82606,"DIS_CODE":0,"TOWNNAME":"中西區","LI":"光賢里","LIN":"12鄰","STREET":"和善街","SECT":" ","MAREA":" ","LANE":"１２５巷","ALLEY":"３７弄","HOUSE_NO":"１６號","E_COORD97":166800.47,"N_COORD97":2544739.7799999998,"ADDRESS":"和善街１２５巷３７弄１６號","OBJECTID":82606},"geometry":{"x":166800.46999999974,"y":2544739.7799999993}},{"attributes":{"ID":82607,"DIS_CODE":0,"TOWNNAME":"中西區","LI":"光賢里","LIN":"12鄰","STREET":"和善街","SECT":" ","MAREA":" ","LANE":"１２５巷","ALLEY":"３７弄","HOUSE_NO":"１８號","E_COORD97":166795.89999999999,"N_COORD97":2544740.04,"ADDRESS":"和善街１２５巷３７弄１８號","OBJECTID":82607},"geometry":{"x":166795.9000000013,"y":2544740.040000001}},{"attributes":{"ID":82608,"DIS_CODE":0,"TOWNNAME":"中西區","LI":"光賢里","LIN":"12鄰","STREET":"和善街","SECT":" ","MAREA":" ","LANE":"１２５巷","ALLEY":"３７弄","HOUSE_NO":"２０號","E_COORD97":166791.07000000001,"N_COORD97":2544740.04,"ADDRESS":"和善街１２５巷３７弄２０號","OBJECTID":82608},"geometry":{"x":166791.07000000123,"y":2544740.040000001}},{"attributes":{"ID":82609,"DIS_CODE":0,"TOWNNAME":"中西區","LI":"光賢里","LIN":"12鄰","STREET":"和善街","SECT":" ","MAREA":" ","LANE":"１２５巷","ALLEY":"３７弄","HOUSE_NO":"２２號","E_COORD97":166786.25,"N_COORD97":2544740.04,"ADDRESS":"和善街１２５巷３７弄２２號","OBJECTID":82609},"geometry":{"x":166786.25000000093,"y":2544740.040000001}},{"attributes":{"ID":82610,"DIS_CODE":0,"TOWNNAME":"中西區","LI":"光賢里","LIN":"12鄰","STREET":"和善街","SECT":" ","MAREA":" ","LANE":"１２５巷","ALLEY":"３７弄","HOUSE_NO":"２６號","E_COORD97":166781.42000000001,"N_COORD97":2544740.29,"ADDRESS":"和善街１２５巷３７弄２６號","OBJECTID":82610},"geometry":{"x":166781.42000000179,"y":2544740.2900000028}},{"attributes":{"ID":82611,"DIS_CODE":0,"TOWNNAME":"西港區","LI":"西港里","LIN":"30鄰","STREET":" ","SECT":" ","MAREA":"堀子頭","LANE":" ","ALLEY":" ","HOUSE_NO":"８４號","E_COORD97":168700.01000000001,"N_COORD97":2557510.04,"ADDRESS":"堀子頭８４號","OBJECTID":82611},"geometry":{"x":168700.01000000071,"y":2557510.0400000028}},{"attributes":{"ID":82612,"DIS_CODE":0,"TOWNNAME":"善化區","LI":"光文里","LIN":"30鄰","STREET":" ","SECT":" ","MAREA":"北子店","LANE":" ","ALLEY":" ","HOUSE_NO":"５０１號之２７","E_COORD97":179157.5,"N_COORD97":2559828.27,"ADDRESS":"北子店５０１號之２７","OBJECTID":82612},"geometry":{"x":179157.50000000186,"y":2559828.2700000014}},{"attributes":{"ID":82613,"DIS_CODE":0,"TOWNNAME":"善化區","LI":"光文里","LIN":"30鄰","STREET":" ","SECT":" ","MAREA":"北子店","LANE":" ","ALLEY":" ","HOUSE_NO":"５０９號","E_COORD97":179276,"N_COORD97":2559839,"ADDRESS":"北子店５０９號","OBJECTID":82613},"geometry":{"x":179275.99999999907,"y":2559839}},{"attributes":{"ID":82614,"DIS_CODE":0,"TOWNNAME":"善化區","LI":"光文里","LIN":"30鄰","STREET":" ","SECT":" ","MAREA":"北子店","LANE":" ","ALLEY":" ","HOUSE_NO":"５０１號之１７","E_COORD97":179159.25,"N_COORD97":2559785.02,"ADDRESS":"北子店５０１號之１７","OBJECTID":82614},"geometry":{"x":179159.25000000186,"y":2559785.0199999996}},{"attributes":{"ID":82615,"DIS_CODE":0,"TOWNNAME":"善化區","LI":"光文里","LIN":"30鄰","STREET":" ","SECT":" ","MAREA":"北子店","LANE":" ","ALLEY":" ","HOUSE_NO":"５０１號之３０","E_COORD97":179157.10000000001,"N_COORD97":2559840.77,"ADDRESS":"北子店５０１號之３０","OBJECTID":82615},"geometry":{"x":179157.10000000056,"y":2559840.7699999996}},{"attributes":{"ID":82616,"DIS_CODE":0,"TOWNNAME":"善化區","LI":"光文里","LIN":"30鄰","STREET":" ","SECT":" ","MAREA":"北子店","LANE":" ","ALLEY":" ","HOUSE_NO":"５０１號之２０","E_COORD97":179158.73999999999,"N_COORD97":2559798.02,"ADDRESS":"北子店５０１號之２０","OBJECTID":82616},"geometry":{"x":179158.74000000022,"y":2559798.0199999996}},{"attributes":{"ID":82617,"DIS_CODE":0,"TOWNNAME":"善化區","LI":"光文里","LIN":"30鄰","STREET":" ","SECT":" ","MAREA":"北子店","LANE":" ","ALLEY":" ","HOUSE_NO":"４９９號之１１","E_COORD97":179169.5,"N_COORD97":2559759.27,"ADDRESS":"北子店４９９號之１１","OBJECTID":82617},"geometry":{"x":179169.50000000093,"y":2559759.2699999996}},{"attributes":{"ID":82618,"DIS_CODE":0,"TOWNNAME":"善化區","LI":"光文里","LIN":"30鄰","STREET":" ","SECT":" ","MAREA":"北子店","LANE":" ","ALLEY":" ","HOUSE_NO":"５０５號","E_COORD97":179264.14999999999,"N_COORD97":2559821.75,"ADDRESS":"北子店５０５號","OBJECTID":82618},"geometry":{"x":179264.1500000013,"y":2559821.7500000037}},{"attributes":{"ID":82619,"DIS_CODE":0,"TOWNNAME":"善化區","LI":"光文里","LIN":"30鄰","STREET":" ","SECT":" ","MAREA":"北子店","LANE":" ","ALLEY":" ","HOUSE_NO":"４９７號","E_COORD97":179237.57999999999,"N_COORD97":2559758.5,"ADDRESS":"北子店４９７號","OBJECTID":82619},"geometry":{"x":179237.58000000007,"y":2559758.5}},{"attributes":{"ID":82620,"DIS_CODE":0,"TOWNNAME":"善化區","LI":"光文里","LIN":"30鄰","STREET":" ","SECT":" ","MAREA":"北子店","LANE":" ","ALLEY":" ","HOUSE_NO":"５２９號","E_COORD97":179294.88,"N_COORD97":2559878,"ADDRESS":"北子店５２９號","OBJECTID":82620},"geometry":{"x":179294.87999999989,"y":2559878.0000000019}},{"attributes":{"ID":82621,"DIS_CODE":0,"TOWNNAME":"善化區","LI":"光文里","LIN":"30鄰","STREET":" ","SECT":" ","MAREA":"北子店","LANE":" ","ALLEY":" ","HOUSE_NO":"４９９號之５","E_COORD97":179206.70999999999,"N_COORD97":2559762.02,"ADDRESS":"北子店４９９號之５","OBJECTID":82621},"geometry":{"x":179206.70999999903,"y":2559762.0200000033}},{"attributes":{"ID":82622,"DIS_CODE":0,"TOWNNAME":"中西區","LI":"光賢里","LIN":"12鄰","STREET":"和善街","SECT":" ","MAREA":" ","LANE":"１２５巷","ALLEY":"３７弄","HOUSE_NO":"２８號","E_COORD97":166776.85000000001,"N_COORD97":2544740.29,"ADDRESS":"和善街１２５巷３７弄２８號","OBJECTID":82622},"geometry":{"x":166776.85000000056,"y":2544740.2900000028}},{"attributes":{"ID":82623,"DIS_CODE":0,"TOWNNAME":"中西區","LI":"光賢里","LIN":"12鄰","STREET":"和善街","SECT":" ","MAREA":" ","LANE":"１２５巷","ALLEY":"３７弄","HOUSE_NO":"３０號","E_COORD97":166767.70999999999,"N_COORD97":2544740.29,"ADDRESS":"和善街１２５巷３７弄３０號","OBJECTID":82623},"geometry":{"x":166767.71000000089,"y":2544740.2900000028}},{"attributes":{"ID":82624,"DIS_CODE":0,"TOWNNAME":"中西區","LI":"光賢里","LIN":"12鄰","STREET":"和善街","SECT":" ","MAREA":" ","LANE":"１２５巷","ALLEY":"３７弄","HOUSE_NO":"３２號","E_COORD97":166762.88,"N_COORD97":2544740.29,"ADDRESS":"和善街１２５巷３７弄３２號","OBJECTID":82624},"geometry":{"x":166762.88000000175,"y":2544740.2900000028}},{"attributes":{"ID":82625,"DIS_CODE":0,"TOWNNAME":"中西區","LI":"光賢里","LIN":"12鄰","STREET":"和善街","SECT":" ","MAREA":" ","LANE":"１２５巷","ALLEY":"３７弄","HOUSE_NO":"３６號","E_COORD97":166757.85000000001,"N_COORD97":2544740.4100000001,"ADDRESS":"和善街１２５巷３７弄３６號","OBJECTID":82625},"geometry":{"x":166757.85000000149,"y":2544740.4100000039}},{"attributes":{"ID":82626,"DIS_CODE":0,"TOWNNAME":"中西區","LI":"光賢里","LIN":"12鄰","STREET":"和善街","SECT":" ","MAREA":" ","LANE":"１２５巷","ALLEY":"３７弄","HOUSE_NO":"３８號","E_COORD97":166819.26999999999,"N_COORD97":2544724.7999999998,"ADDRESS":"和善街１２５巷３７弄３８號","OBJECTID":82626},"geometry":{"x":166819.27000000142,"y":2544724.8000000045}},{"attributes":{"ID":82627,"DIS_CODE":0,"TOWNNAME":"善化區","LI":"光文里","LIN":"30鄰","STREET":" ","SECT":" ","MAREA":"北子店","LANE":" ","ALLEY":" ","HOUSE_NO":"５１３號","E_COORD97":179280.54000000001,"N_COORD97":2559848,"ADDRESS":"北子店５１３號","OBJECTID":82627},"geometry":{"x":179280.54000000004,"y":2559848.0000000019}},{"attributes":{"ID":82628,"DIS_CODE":0,"TOWNNAME":"善化區","LI":"光文里","LIN":"30鄰","STREET":" ","SECT":" ","MAREA":"北子店","LANE":" ","ALLEY":" ","HOUSE_NO":"５０１號之１２","E_COORD97":179183.06,"N_COORD97":2559773.52,"ADDRESS":"北子店５０１號之１２","OBJECTID":82628},"geometry":{"x":179183.05999999959,"y":2559773.5200000014}},{"attributes":{"ID":82629,"DIS_CODE":0,"TOWNNAME":"善化區","LI":"光文里","LIN":"30鄰","STREET":" ","SECT":" ","MAREA":"北子店","LANE":" ","ALLEY":" ","HOUSE_NO":"４９９號之１０","E_COORD97":179179.20000000001,"N_COORD97":2559759.77,"ADDRESS":"北子店４９９號之１０","OBJECTID":82629},"geometry":{"x":179179.20000000019,"y":2559759.7699999996}},{"attributes":{"ID":82630,"DIS_CODE":0,"TOWNNAME":"善化區","LI":"光文里","LIN":"30鄰","STREET":" ","SECT":" ","MAREA":"北子店","LANE":" ","ALLEY":" ","HOUSE_NO":"５０１號之２３","E_COORD97":179158.19,"N_COORD97":2559811.02,"ADDRESS":"北子店５０１號之２３","OBJECTID":82630},"geometry":{"x":179158.18999999948,"y":2559811.0199999996}},{"attributes":{"ID":82631,"DIS_CODE":0,"TOWNNAME":"中西區","LI":"光賢里","LIN":"12鄰","STREET":"和善街","SECT":" ","MAREA":" ","LANE":"１２５巷","ALLEY":"３７弄","HOUSE_NO":"４０號","E_COORD97":166814.70000000001,"N_COORD97":2544725.0499999998,"ADDRESS":"和善街１２５巷３７弄４０號","OBJECTID":82631},"geometry":{"x":166814.70000000019,"y":2544725.0500000007}},{"attributes":{"ID":82632,"DIS_CODE":0,"TOWNNAME":"南區","LI":"日新里","LIN":" ","STREET":"鹽埕路","SECT":" ","MAREA":" ","LANE":" ","ALLEY":" ","HOUSE_NO":"２５３號","E_COORD97":166916.17999999999,"N_COORD97":2541234.77,"ADDRESS":"鹽埕路２５３號","OBJECTID":82632},"geometry":{"x":166916.1799999997,"y":2541234.7699999996}},{"attributes":{"ID":82633,"DIS_CODE":0,"TOWNNAME":"南區","LI":"日新里","LIN":" ","STREET":"鹽埕路","SECT":" ","MAREA":" ","LANE":" ","ALLEY":" ","HOUSE_NO":"２５４號","E_COORD97":166944.62,"N_COORD97":2541183.73,"ADDRESS":"鹽埕路２５４號","OBJECTID":82633},"geometry":{"x":166944.62000000197,"y":2541183.7300000004}},{"attributes":{"ID":82634,"DIS_CODE":0,"TOWNNAME":"中西區","LI":"光賢里","LIN":"12鄰","STREET":"和善街","SECT":" ","MAREA":" ","LANE":"１２５巷","ALLEY":"３７弄","HOUSE_NO":"４２號","E_COORD97":166809.87,"N_COORD97":2544725.0499999998,"ADDRESS":"和善街１２５巷３７弄４２號","OBJECTID":82634},"geometry":{"x":166809.87000000011,"y":2544725.0500000007}},{"attributes":{"ID":82635,"DIS_CODE":0,"TOWNNAME":"中西區","LI":"光賢里","LIN":"12鄰","STREET":"和善街","SECT":" ","MAREA":" ","LANE":"１２５巷","ALLEY":"３７弄","HOUSE_NO":"４６號","E_COORD97":166805.04000000001,"N_COORD97":2544725.0499999998,"ADDRESS":"和善街１２５巷３７弄４６號","OBJECTID":82635},"geometry":{"x":166805.04000000097,"y":2544725.0500000007}},{"attributes":{"ID":82636,"DIS_CODE":0,"TOWNNAME":"中西區","LI":"光賢里","LIN":"12鄰","STREET":"和善街","SECT":" ","MAREA":" ","LANE":"１２５巷","ALLEY":"３７弄","HOUSE_NO":"４８號","E_COORD97":166800.47,"N_COORD97":2544724.7999999998,"ADDRESS":"和善街１２５巷３７弄４８號","OBJECTID":82636},"geometry":{"x":166800.46999999974,"y":2544724.8000000045}},{"attributes":{"ID":82637,"DIS_CODE":0,"TOWNNAME":"中西區","LI":"光賢里","LIN":"12鄰","STREET":"和善街","SECT":" ","MAREA":" ","LANE":"１２５巷","ALLEY":"３７弄","HOUSE_NO":"５０號","E_COORD97":166795.64999999999,"N_COORD97":2544724.7999999998,"ADDRESS":"和善街１２５巷３７弄５０號","OBJECTID":82637},"geometry":{"x":166795.6500000013,"y":2544724.8000000045}},{"attributes":{"ID":82638,"DIS_CODE":0,"TOWNNAME":"中西區","LI":"光賢里","LIN":"12鄰","STREET":"和善街","SECT":" ","MAREA":" ","LANE":"１２５巷","ALLEY":"３７弄","HOUSE_NO":"５２號","E_COORD97":166791.07000000001,"N_COORD97":2544724.7999999998,"ADDRESS":"和善街１２５巷３７弄５２號","OBJECTID":82638},"geometry":{"x":166791.07000000123,"y":2544724.8000000045}},{"attributes":{"ID":82639,"DIS_CODE":0,"TOWNNAME":"中西區","LI":"光賢里","LIN":"12鄰","STREET":"和善街","SECT":" ","MAREA":" ","LANE":"１２５巷","ALLEY":"３７弄","HOUSE_NO":"５６號","E_COORD97":166786.25,"N_COORD97":2544725.0499999998,"ADDRESS":"和善街１２５巷３７弄５６號","OBJECTID":82639},"geometry":{"x":166786.25000000093,"y":2544725.0500000007}},{"attributes":{"ID":82640,"DIS_CODE":0,"TOWNNAME":"中西區","LI":"光賢里","LIN":"12鄰","STREET":"和善街","SECT":" ","MAREA":" ","LANE":"１２５巷","ALLEY":"３７弄","HOUSE_NO":"５８號","E_COORD97":166781.67999999999,"N_COORD97":2544724.7999999998,"ADDRESS":"和善街１２５巷３７弄５８號","OBJECTID":82640},"geometry":{"x":166781.68000000063,"y":2544724.8000000045}},{"attributes":{"ID":82641,"DIS_CODE":0,"TOWNNAME":"南區","LI":"日新里","LIN":" ","STREET":"鹽埕路","SECT":" ","MAREA":" ","LANE":" ","ALLEY":" ","HOUSE_NO":"２５６號","E_COORD97":166938.82000000001,"N_COORD97":2541184.5800000001,"ADDRESS":"鹽埕路２５６號","OBJECTID":82641},"geometry":{"x":166938.82000000123,"y":2541184.5800000001}},{"attributes":{"ID":82642,"DIS_CODE":0,"TOWNNAME":"南區","LI":"日新里","LIN":" ","STREET":"鹽埕路","SECT":" ","MAREA":" ","LANE":" ","ALLEY":" ","HOUSE_NO":"２５７號","E_COORD97":166918.89000000001,"N_COORD97":2541241.5499999998,"ADDRESS":"鹽埕路２５７號","OBJECTID":82642},"geometry":{"x":166918.8900000006,"y":2541241.5500000026}},{"attributes":{"ID":82643,"DIS_CODE":0,"TOWNNAME":"南區","LI":"日新里","LIN":" ","STREET":"鹽埕路","SECT":" ","MAREA":" ","LANE":" ","ALLEY":" ","HOUSE_NO":"２５９號","E_COORD97":166921.97,"N_COORD97":2541244.54,"ADDRESS":"鹽埕路２５９號","OBJECTID":82643},"geometry":{"x":166921.97000000067,"y":2541244.540000001}},{"attributes":{"ID":82644,"DIS_CODE":0,"TOWNNAME":"南區","LI":"日新里","LIN":" ","STREET":"鹽埕路","SECT":" ","MAREA":" ","LANE":" ","ALLEY":" ","HOUSE_NO":"２６０號","E_COORD97":166915.67999999999,"N_COORD97":2541185.3900000001,"ADDRESS":"鹽埕路２６０號","OBJECTID":82644},"geometry":{"x":166915.68000000063,"y":2541185.3900000025}},{"attributes":{"ID":82645,"DIS_CODE":0,"TOWNNAME":"中西區","LI":"光賢里","LIN":"12鄰","STREET":"和善街","SECT":" ","MAREA":" ","LANE":"１２５巷","ALLEY":"３７弄","HOUSE_NO":"６０號","E_COORD97":166776.85000000001,"N_COORD97":2544725.0499999998,"ADDRESS":"和善街１２５巷３７弄６０號","OBJECTID":82645},"geometry":{"x":166776.85000000056,"y":2544725.0500000007}},{"attributes":{"ID":82646,"DIS_CODE":0,"TOWNNAME":"善化區","LI":"溪美里","LIN":"22鄰","STREET":" ","SECT":" ","MAREA":"溪尾","LANE":" ","ALLEY":" ","HOUSE_NO":"６１７號","E_COORD97":177072.48000000001,"N_COORD97":2561066.77,"ADDRESS":"溪尾６１７號","OBJECTID":82646},"geometry":{"x":177072.48000000045,"y":2561066.7700000014}},{"attributes":{"ID":82647,"DIS_CODE":0,"TOWNNAME":"中西區","LI":"光賢里","LIN":"12鄰","STREET":"和善街","SECT":" ","MAREA":" ","LANE":"１２５巷","ALLEY":"３７弄","HOUSE_NO":"６２號","E_COORD97":166772.28,"N_COORD97":2544725.2999999998,"ADDRESS":"和善街１２５巷３７弄６２號","OBJECTID":82647},"geometry":{"x":166772.28000000026,"y":2544725.3000000026}},{"attributes":{"ID":82648,"DIS_CODE":0,"TOWNNAME":"中西區","LI":"光賢里","LIN":"12鄰","STREET":"和善街","SECT":" ","MAREA":" ","LANE":"１２５巷","ALLEY":"３７弄","HOUSE_NO":"６６號","E_COORD97":166767.45000000001,"N_COORD97":2544725.0499999998,"ADDRESS":"和善街１２５巷３７弄６６號","OBJECTID":82648},"geometry":{"x":166767.45000000019,"y":2544725.0500000007}},{"attributes":{"ID":82649,"DIS_CODE":0,"TOWNNAME":"南區","LI":"日新里","LIN":" ","STREET":"鹽埕路","SECT":" ","MAREA":" ","LANE":" ","ALLEY":" ","HOUSE_NO":"２６１號","E_COORD97":166922.95999999999,"N_COORD97":2541247.9700000002,"ADDRESS":"鹽埕路２６１號","OBJECTID":82649},"geometry":{"x":166922.95999999996,"y":2541247.9700000007}},{"attributes":{"ID":82650,"DIS_CODE":0,"TOWNNAME":"安南區","LI":"州北里","LIN":"15鄰","STREET":"安和路","SECT":"五段","MAREA":" ","LANE":" ","ALLEY":" ","HOUSE_NO":"１９５號","E_COORD97":169808.72,"N_COORD97":2551885.1499999999,"ADDRESS":"安和路五段１９５號","OBJECTID":82650},"geometry":{"x":169808.72000000067,"y":2551885.1500000004}},{"attributes":{"ID":82651,"DIS_CODE":0,"TOWNNAME":"安南區","LI":"州北里","LIN":"15鄰","STREET":"安和路","SECT":"五段","MAREA":" ","LANE":" ","ALLEY":" ","HOUSE_NO":"１９７號","E_COORD97":169802.78,"N_COORD97":2551886.6099999999,"ADDRESS":"安和路五段１９７號","OBJECTID":82651},"geometry":{"x":169802.78000000026,"y":2551886.6100000013}},{"attributes":{"ID":82652,"DIS_CODE":0,"TOWNNAME":"大內區","LI":"二溪里","LIN":"15鄰","STREET":" ","SECT":" ","MAREA":"其子瓦","LANE":" ","ALLEY":" ","HOUSE_NO":"５５號","E_COORD97":190655.22,"N_COORD97":2557984.25,"ADDRESS":"其子瓦５５號","OBJECTID":82652},"geometry":{"x":190655.21999999974,"y":2557984.2500000037}},{"attributes":{"ID":82653,"DIS_CODE":0,"TOWNNAME":"大內區","LI":"內江里","LIN":"15鄰","STREET":" ","SECT":" ","MAREA":"蒙正","LANE":" ","ALLEY":" ","HOUSE_NO":"３５號之２","E_COORD97":185842.20999999999,"N_COORD97":2556199.2999999998,"ADDRESS":"蒙正３５號之２","OBJECTID":82653},"geometry":{"x":185842.21000000089,"y":2556199.3000000026}},{"attributes":{"ID":82654,"DIS_CODE":0,"TOWNNAME":"大內區","LI":"二溪里","LIN":"15鄰","STREET":" ","SECT":" ","MAREA":"其子瓦","LANE":" ","ALLEY":" ","HOUSE_NO":"５０號","E_COORD97":190582.72,"N_COORD97":2557890.25,"ADDRESS":"其子瓦５０號","OBJECTID":82654},"geometry":{"x":190582.71999999974,"y":2557890.2500000019}},{"attributes":{"ID":82655,"DIS_CODE":0,"TOWNNAME":"大內區","LI":"內江里","LIN":"15鄰","STREET":" ","SECT":" ","MAREA":"蒙正","LANE":" ","ALLEY":" ","HOUSE_NO":"４０號","E_COORD97":185755.64000000001,"N_COORD97":2556198.25,"ADDRESS":"蒙正４０號","OBJECTID":82655},"geometry":{"x":185755.64000000153,"y":2556198.2500000019}},{"attributes":{"ID":82656,"DIS_CODE":0,"TOWNNAME":"大內區","LI":"二溪里","LIN":"15鄰","STREET":" ","SECT":" ","MAREA":"其子瓦","LANE":" ","ALLEY":" ","HOUSE_NO":"５３之６號","E_COORD97":191029.34,"N_COORD97":2557665.3500000001,"ADDRESS":"其子瓦５３之６號","OBJECTID":82656},"geometry":{"x":191029.33999999985,"y":2557665.3500000015}},{"attributes":{"ID":82657,"DIS_CODE":0,"TOWNNAME":"鹽水區","LI":"田寮里","LIN":"4鄰","STREET":" ","SECT":" ","MAREA":"田寮","LANE":" ","ALLEY":" ","HOUSE_NO":"４６號","E_COORD97":171056.76999999999,"N_COORD97":2575195.2799999998,"ADDRESS":"田寮４６號","OBJECTID":82657},"geometry":{"x":171056.76999999955,"y":2575195.2799999993}},{"attributes":{"ID":82658,"DIS_CODE":0,"TOWNNAME":"善化區","LI":"光文里","LIN":"30鄰","STREET":" ","SECT":" ","MAREA":"北子店","LANE":" ","ALLEY":" ","HOUSE_NO":"５０１號之７","E_COORD97":179211.42000000001,"N_COORD97":2559775.77,"ADDRESS":"北子店５０１號之７","OBJECTID":82658},"geometry":{"x":179211.41999999993,"y":2559775.7699999996}},{"attributes":{"ID":82659,"DIS_CODE":0,"TOWNNAME":"中西區","LI":"光賢里","LIN":"12鄰","STREET":"和善街","SECT":" ","MAREA":" ","LANE":"１２５巷","ALLEY":"３７弄","HOUSE_NO":"６８號","E_COORD97":166762.63,"N_COORD97":2544725.0499999998,"ADDRESS":"和善街１２５巷３７弄６８號","OBJECTID":82659},"geometry":{"x":166762.62999999989,"y":2544725.0500000007}},{"attributes":{"ID":82660,"DIS_CODE":0,"TOWNNAME":"善化區","LI":"光文里","LIN":"30鄰","STREET":" ","SECT":" ","MAREA":"北子店","LANE":" ","ALLEY":" ","HOUSE_NO":"５０１號之１３","E_COORD97":179177.26999999999,"N_COORD97":2559773.02,"ADDRESS":"北子店５０１號之１３","OBJECTID":82660},"geometry":{"x":179177.27000000142,"y":2559773.0200000014}},{"attributes":{"ID":82661,"DIS_CODE":0,"TOWNNAME":"善化區","LI":"光文里","LIN":"30鄰","STREET":" ","SECT":" ","MAREA":"北子店","LANE":" ","ALLEY":" ","HOUSE_NO":"４９９號之７","E_COORD97":179195.60999999999,"N_COORD97":2559761.27,"ADDRESS":"北子店４９９號之７","OBJECTID":82661},"geometry":{"x":179195.61000000034,"y":2559761.2700000014}},{"attributes":{"ID":82662,"DIS_CODE":0,"TOWNNAME":"善化區","LI":"光文里","LIN":"30鄰","STREET":" ","SECT":" ","MAREA":"北子店","LANE":" ","ALLEY":" ","HOUSE_NO":"５２７之２號","E_COORD97":179214.47,"N_COORD97":2559913.27,"ADDRESS":"北子店５２７之２號","OBJECTID":82662},"geometry":{"x":179214.46999999974,"y":2559913.2700000014}},{"attributes":{"ID":82663,"DIS_CODE":0,"TOWNNAME":"中西區","LI":"光賢里","LIN":"12鄰","STREET":"和善街","SECT":" ","MAREA":" ","LANE":"１２５巷","ALLEY":"３７弄","HOUSE_NO":"６號","E_COORD97":166819.26999999999,"N_COORD97":2544740.04,"ADDRESS":"和善街１２５巷３７弄６號","OBJECTID":82663},"geometry":{"x":166819.27000000142,"y":2544740.040000001}},{"attributes":{"ID":82664,"DIS_CODE":0,"TOWNNAME":"中西區","LI":"光賢里","LIN":"12鄰","STREET":"和善街","SECT":" ","MAREA":" ","LANE":"１２５巷","ALLEY":"３７弄","HOUSE_NO":"７０號","E_COORD97":166758.04999999999,"N_COORD97":2544725.0499999998,"ADDRESS":"和善街１２５巷３７弄７０號","OBJECTID":82664},"geometry":{"x":166758.04999999981,"y":2544725.0500000007}},{"attributes":{"ID":82665,"DIS_CODE":0,"TOWNNAME":"善化區","LI":"光文里","LIN":"30鄰","STREET":" ","SECT":" ","MAREA":"北子店","LANE":" ","ALLEY":" ","HOUSE_NO":"５８１號","E_COORD97":179345.92000000001,"N_COORD97":2559983,"ADDRESS":"北子店５８１號","OBJECTID":82665},"geometry":{"x":179345.91999999993,"y":2559983.0000000037}},{"attributes":{"ID":82666,"DIS_CODE":0,"TOWNNAME":"善化區","LI":"光文里","LIN":"30鄰","STREET":" ","SECT":" ","MAREA":"北子店","LANE":" ","ALLEY":" ","HOUSE_NO":"５０１號之２２","E_COORD97":179158.39000000001,"N_COORD97":2559806.52,"ADDRESS":"北子店５０１號之２２","OBJECTID":82666},"geometry":{"x":179158.3900000006,"y":2559806.5200000014}},{"attributes":{"ID":82667,"DIS_CODE":0,"TOWNNAME":"善化區","LI":"光文里","LIN":"30鄰","STREET":" ","SECT":" ","MAREA":"北子店","LANE":" ","ALLEY":" ","HOUSE_NO":"５０１號之１６","E_COORD97":179159.92000000001,"N_COORD97":2559771.77,"ADDRESS":"北子店５０１號之１６","OBJECTID":82667},"geometry":{"x":179159.92000000086,"y":2559771.7700000014}},{"attributes":{"ID":82668,"DIS_CODE":0,"TOWNNAME":"善化區","LI":"光文里","LIN":"30鄰","STREET":" ","SECT":" ","MAREA":"北子店","LANE":" ","ALLEY":" ","HOUSE_NO":"５０１號之２１","E_COORD97":179158.54999999999,"N_COORD97":2559802.27,"ADDRESS":"北子店５０１號之２１","OBJECTID":82668},"geometry":{"x":179158.55000000168,"y":2559802.2700000014}},{"attributes":{"ID":82669,"DIS_CODE":0,"TOWNNAME":"善化區","LI":"光文里","LIN":"30鄰","STREET":" ","SECT":" ","MAREA":"北子店","LANE":" ","ALLEY":" ","HOUSE_NO":"５０１號之２","E_COORD97":179235,"N_COORD97":2559778.02,"ADDRESS":"北子店５０１號之２","OBJECTID":82669},"geometry":{"x":179235,"y":2559778.0199999996}},{"attributes":{"ID":82670,"DIS_CODE":0,"TOWNNAME":"善化區","LI":"光文里","LIN":"30鄰","STREET":" ","SECT":" ","MAREA":"北子店","LANE":" ","ALLEY":" ","HOUSE_NO":"５１５號","E_COORD97":179282.32999999999,"N_COORD97":2559852,"ADDRESS":"北子店５１５號","OBJECTID":82670},"geometry":{"x":179282.32999999914,"y":2559852.0000000019}},{"attributes":{"ID":82671,"DIS_CODE":0,"TOWNNAME":"東區","LI":"東聖里","LIN":"12鄰","STREET":"中華東路","SECT":"二段","MAREA":" ","LANE":"１３３巷","ALLEY":"１７弄","HOUSE_NO":"２４號","E_COORD97":171465.42999999999,"N_COORD97":2542931.3399999999,"ADDRESS":"中華東路二段１３３巷１７弄２４號","OBJECTID":82671},"geometry":{"x":171465.43000000063,"y":2542931.3400000017}},{"attributes":{"ID":82672,"DIS_CODE":0,"TOWNNAME":"善化區","LI":"光文里","LIN":"30鄰","STREET":" ","SECT":" ","MAREA":"北子店","LANE":" ","ALLEY":" ","HOUSE_NO":"５１９號","E_COORD97":179285.91,"N_COORD97":2559859.25,"ADDRESS":"北子店５１９號","OBJECTID":82672},"geometry":{"x":179285.91000000108,"y":2559859.2500000037}},{"attributes":{"ID":82673,"DIS_CODE":0,"TOWNNAME":"善化區","LI":"光文里","LIN":"30鄰","STREET":" ","SECT":" ","MAREA":"北子店","LANE":" ","ALLEY":" ","HOUSE_NO":"５２１號","E_COORD97":179287.67000000001,"N_COORD97":2559862.75,"ADDRESS":"北子店５２１號","OBJECTID":82673},"geometry":{"x":179287.66999999993,"y":2559862.7500000019}},{"attributes":{"ID":82674,"DIS_CODE":0,"TOWNNAME":"東區","LI":"東聖里","LIN":"12鄰","STREET":"中華東路","SECT":"二段","MAREA":" ","LANE":"１３３巷","ALLEY":"１７弄","HOUSE_NO":"３０號","E_COORD97":171488.88,"N_COORD97":2542931.3399999999,"ADDRESS":"中華東路二段１３３巷１７弄３０號","OBJECTID":82674},"geometry":{"x":171488.87999999989,"y":2542931.3400000017}},{"attributes":{"ID":82675,"DIS_CODE":0,"TOWNNAME":"善化區","LI":"光文里","LIN":"30鄰","STREET":" ","SECT":" ","MAREA":"北子店","LANE":" ","ALLEY":" ","HOUSE_NO":"５２５號","E_COORD97":179291.41,"N_COORD97":2559871,"ADDRESS":"北子店５２５號","OBJECTID":82675},"geometry":{"x":179291.41000000015,"y":2559871.0000000037}},{"attributes":{"ID":82676,"DIS_CODE":0,"TOWNNAME":"善化區","LI":"光文里","LIN":"30鄰","STREET":" ","SECT":" ","MAREA":"北子店","LANE":" ","ALLEY":" ","HOUSE_NO":"５２３號","E_COORD97":179289.81,"N_COORD97":2559867.25,"ADDRESS":"北子店５２３號","OBJECTID":82676},"geometry":{"x":179289.80999999959,"y":2559867.2500000019}},{"attributes":{"ID":82677,"DIS_CODE":0,"TOWNNAME":"善化區","LI":"光文里","LIN":"30鄰","STREET":" ","SECT":" ","MAREA":"北子店","LANE":" ","ALLEY":" ","HOUSE_NO":"５３９號","E_COORD97":179304.56,"N_COORD97":2559897.5,"ADDRESS":"北子店５３９號","OBJECTID":82677},"geometry":{"x":179304.56000000052,"y":2559897.5}},{"attributes":{"ID":82678,"DIS_CODE":0,"TOWNNAME":"善化區","LI":"光文里","LIN":"30鄰","STREET":" ","SECT":" ","MAREA":"北子店","LANE":" ","ALLEY":" ","HOUSE_NO":"５６１號","E_COORD97":179325.32000000001,"N_COORD97":2559941.5,"ADDRESS":"北子店５６１號","OBJECTID":82678},"geometry":{"x":179325.32000000123,"y":2559941.5}},{"attributes":{"ID":82679,"DIS_CODE":0,"TOWNNAME":"善化區","LI":"光文里","LIN":"30鄰","STREET":" ","SECT":" ","MAREA":"北子店","LANE":" ","ALLEY":" ","HOUSE_NO":"５０５號之２","E_COORD97":179275.04000000001,"N_COORD97":2559832.77,"ADDRESS":"北子店５０５號之２","OBJECTID":82679},"geometry":{"x":179275.04000000004,"y":2559832.7700000014}},{"attributes":{"ID":82680,"DIS_CODE":0,"TOWNNAME":"善化區","LI":"溪美里","LIN":"30鄰","STREET":" ","SECT":" ","MAREA":"溪尾","LANE":" ","ALLEY":" ","HOUSE_NO":"５５０之１號","E_COORD97":177026.63,"N_COORD97":2561120.52,"ADDRESS":"溪尾５５０之１號","OBJECTID":82680},"geometry":{"x":177026.62999999989,"y":2561120.5199999996}},{"attributes":{"ID":82681,"DIS_CODE":0,"TOWNNAME":"善化區","LI":"溪美里","LIN":"22鄰","STREET":" ","SECT":" ","MAREA":"溪尾","LANE":" ","ALLEY":" ","HOUSE_NO":"１９０號","E_COORD97":176889.73000000001,"N_COORD97":2561164.7599999998,"ADDRESS":"溪尾１９０號","OBJECTID":82681},"geometry":{"x":176889.73000000045,"y":2561164.7600000016}},{"attributes":{"ID":82682,"DIS_CODE":0,"TOWNNAME":"善化區","LI":"溪美里","LIN":"22鄰","STREET":" ","SECT":" ","MAREA":"溪尾","LANE":" ","ALLEY":" ","HOUSE_NO":"５５０號","E_COORD97":177026.79000000001,"N_COORD97":2561100.52,"ADDRESS":"溪尾５５０號","OBJECTID":82682},"geometry":{"x":177026.79000000097,"y":2561100.5199999996}},{"attributes":{"ID":82683,"DIS_CODE":0,"TOWNNAME":"善化區","LI":"溪美里","LIN":"22鄰","STREET":" ","SECT":" ","MAREA":"溪尾","LANE":" ","ALLEY":" ","HOUSE_NO":"５９１號","E_COORD97":177048.45999999999,"N_COORD97":2561173.77,"ADDRESS":"溪尾５９１號","OBJECTID":82683},"geometry":{"x":177048.45999999996,"y":2561173.7700000033}},{"attributes":{"ID":82684,"DIS_CODE":0,"TOWNNAME":"善化區","LI":"溪美里","LIN":"22鄰","STREET":" ","SECT":" ","MAREA":"溪尾","LANE":" ","ALLEY":" ","HOUSE_NO":"３３３號","E_COORD97":176989.07000000001,"N_COORD97":2561138.77,"ADDRESS":"溪尾３３３號","OBJECTID":82684},"geometry":{"x":176989.06999999937,"y":2561138.7699999996}},{"attributes":{"ID":82685,"DIS_CODE":0,"TOWNNAME":"永康區","LI":"二王里","LIN":"12鄰","STREET":"永二街","SECT":" ","MAREA":" ","LANE":"４４７巷","ALLEY":"６８弄","HOUSE_NO":"９０號","E_COORD97":172821.07999999999,"N_COORD97":2546479.4399999999,"ADDRESS":"永二街４４７巷６８弄９０號","OBJECTID":82685},"geometry":{"x":172821.08000000101,"y":2546479.4400000013}},{"attributes":{"ID":82686,"DIS_CODE":0,"TOWNNAME":"善化區","LI":"溪美里","LIN":"30鄰","STREET":" ","SECT":" ","MAREA":"溪尾","LANE":" ","ALLEY":" ","HOUSE_NO":"５９５之１號","E_COORD97":177146.37,"N_COORD97":2561176.77,"ADDRESS":"溪尾５９５之１號","OBJECTID":82686},"geometry":{"x":177146.37000000197,"y":2561176.7699999996}},{"attributes":{"ID":82687,"DIS_CODE":0,"TOWNNAME":"善化區","LI":"溪美里","LIN":"22鄰","STREET":" ","SECT":" ","MAREA":"溪尾","LANE":" ","ALLEY":" ","HOUSE_NO":"３３１號","E_COORD97":177003.45999999999,"N_COORD97":2561140.02,"ADDRESS":"溪尾３３１號","OBJECTID":82687},"geometry":{"x":177003.46000000089,"y":2561140.0199999996}},{"attributes":{"ID":82688,"DIS_CODE":0,"TOWNNAME":"善化區","LI":"溪美里","LIN":"22鄰","STREET":" ","SECT":" ","MAREA":"溪尾","LANE":" ","ALLEY":" ","HOUSE_NO":"５７９號","E_COORD97":177042.66,"N_COORD97":2561202.02,"ADDRESS":"溪尾５７９號","OBJECTID":82688},"geometry":{"x":177042.66000000201,"y":2561202.0199999996}},{"attributes":{"ID":82689,"DIS_CODE":0,"TOWNNAME":"永康區","LI":"二王里","LIN":"12鄰","STREET":"永二街","SECT":" ","MAREA":" ","LANE":"４４７巷","ALLEY":"６８弄","HOUSE_NO":"１１０號","E_COORD97":172785.59,"N_COORD97":2546477.1899999999,"ADDRESS":"永二街４４７巷６８弄１１０號","OBJECTID":82689},"geometry":{"x":172785.58999999985,"y":2546477.1900000032}},{"attributes":{"ID":82690,"DIS_CODE":0,"TOWNNAME":"永康區","LI":"二王里","LIN":"12鄰","STREET":"永二街","SECT":" ","MAREA":" ","LANE":"４４７巷","ALLEY":"６８弄","HOUSE_NO":"５８號","E_COORD97":172786.07000000001,"N_COORD97":2546507.4300000002,"ADDRESS":"永二街４４７巷６８弄５８號","OBJECTID":82690},"geometry":{"x":172786.0700000003,"y":2546507.4300000016}},{"attributes":{"ID":82691,"DIS_CODE":0,"TOWNNAME":"善化區","LI":"溪美里","LIN":"22鄰","STREET":" ","SECT":" ","MAREA":"溪尾","LANE":" ","ALLEY":" ","HOUSE_NO":"３４２號","E_COORD97":176975.51999999999,"N_COORD97":2561118.27,"ADDRESS":"溪尾３４２號","OBJECTID":82691},"geometry":{"x":176975.52000000048,"y":2561118.2699999996}},{"attributes":{"ID":82692,"DIS_CODE":0,"TOWNNAME":"永康區","LI":"二王里","LIN":"12鄰","STREET":"永二街","SECT":" ","MAREA":" ","LANE":"４４７巷","ALLEY":"６８弄","HOUSE_NO":"８２號","E_COORD97":172808.89999999999,"N_COORD97":2546501.5800000001,"ADDRESS":"永二街４４７巷６８弄８２號","OBJECTID":82692},"geometry":{"x":172808.9000000013,"y":2546501.5800000001}},{"attributes":{"ID":82693,"DIS_CODE":0,"TOWNNAME":"善化區","LI":"溪美里","LIN":"22鄰","STREET":" ","SECT":" ","MAREA":"溪尾","LANE":" ","ALLEY":" ","HOUSE_NO":"５５２號","E_COORD97":177023.98000000001,"N_COORD97":2561091.77,"ADDRESS":"溪尾５５２號","OBJECTID":82693},"geometry":{"x":177023.98000000138,"y":2561091.7699999996}},{"attributes":{"ID":82694,"DIS_CODE":0,"TOWNNAME":"善化區","LI":"溪美里","LIN":"22鄰","STREET":" ","SECT":" ","MAREA":"溪尾","LANE":" ","ALLEY":" ","HOUSE_NO":"５９６號","E_COORD97":177050.03,"N_COORD97":2560987.52,"ADDRESS":"溪尾５９６號","OBJECTID":82694},"geometry":{"x":177050.03000000026,"y":2560987.5199999996}},{"attributes":{"ID":82695,"DIS_CODE":0,"TOWNNAME":"善化區","LI":"溪美里","LIN":"22鄰","STREET":" ","SECT":" ","MAREA":"溪尾","LANE":" ","ALLEY":" ","HOUSE_NO":"３４０號","E_COORD97":177011.14000000001,"N_COORD97":2561114.02,"ADDRESS":"溪尾３４０號","OBJECTID":82695},"geometry":{"x":177011.13999999966,"y":2561114.0199999996}},{"attributes":{"ID":82696,"DIS_CODE":0,"TOWNNAME":"永康區","LI":"二王里","LIN":"12鄰","STREET":"永二街","SECT":" ","MAREA":" ","LANE":"４４７巷","ALLEY":"６８弄","HOUSE_NO":"９６號","E_COORD97":172811.29999999999,"N_COORD97":2546478.9399999999,"ADDRESS":"永二街４４７巷６８弄９６號","OBJECTID":82696},"geometry":{"x":172811.29999999981,"y":2546478.9400000032}},{"attributes":{"ID":82697,"DIS_CODE":0,"TOWNNAME":"永康區","LI":"二王里","LIN":"12鄰","STREET":"永二街","SECT":" ","MAREA":" ","LANE":"４４７巷","ALLEY":"６８弄","HOUSE_NO":"７８號","E_COORD97":172800.35999999999,"N_COORD97":2546501.0800000001,"ADDRESS":"永二街４４７巷６８弄７８號","OBJECTID":82697},"geometry":{"x":172800.36000000127,"y":2546501.0800000001}},{"attributes":{"ID":82698,"DIS_CODE":0,"TOWNNAME":"永康區","LI":"二王里","LIN":"12鄰","STREET":"永二街","SECT":" ","MAREA":" ","LANE":"４４７巷","ALLEY":"６８弄","HOUSE_NO":"９８號","E_COORD97":172806.69,"N_COORD97":2546478.4300000002,"ADDRESS":"永二街４４７巷６８弄９８號","OBJECTID":82698},"geometry":{"x":172806.69000000134,"y":2546478.4299999997}},{"attributes":{"ID":82699,"DIS_CODE":0,"TOWNNAME":"永康區","LI":"二王里","LIN":"12鄰","STREET":"永二街","SECT":" ","MAREA":" ","LANE":"４４７巷","ALLEY":"６８弄","HOUSE_NO":"１１８號","E_COORD97":172784.85999999999,"N_COORD97":2546470.8399999999,"ADDRESS":"永二街４４７巷６８弄１１８號","OBJECTID":82699},"geometry":{"x":172784.8600000022,"y":2546470.8400000017}},{"attributes":{"ID":82700,"DIS_CODE":0,"TOWNNAME":"永康區","LI":"二王里","LIN":"12鄰","STREET":"永二街","SECT":" ","MAREA":" ","LANE":"４４７巷","ALLEY":"６８弄","HOUSE_NO":"１０２號","E_COORD97":172799.04000000001,"N_COORD97":2546477.9399999999,"ADDRESS":"永二街４４７巷６８弄１０２號","OBJECTID":82700},"geometry":{"x":172799.04000000097,"y":2546477.9399999995}},{"attributes":{"ID":82701,"DIS_CODE":0,"TOWNNAME":"永康區","LI":"大灣里","LIN":"12鄰","STREET":"民族路","SECT":" ","MAREA":" ","LANE":"３９６巷","ALLEY":"１６弄","HOUSE_NO":"２０號","E_COORD97":174848.32000000001,"N_COORD97":2545413.6099999999,"ADDRESS":"民族路３９６巷１６弄２０號","OBJECTID":82701},"geometry":{"x":174848.32000000123,"y":2545413.6100000013}},{"attributes":{"ID":82702,"DIS_CODE":0,"TOWNNAME":"永康區","LI":"二王里","LIN":"12鄰","STREET":"永二街","SECT":" ","MAREA":" ","LANE":"４４７巷","ALLEY":"６８弄","HOUSE_NO":"５２號","E_COORD97":172794.70999999999,"N_COORD97":2546507.6899999999,"ADDRESS":"永二街４４７巷６８弄５２號","OBJECTID":82702},"geometry":{"x":172794.71000000089,"y":2546507.6900000032}},{"attributes":{"ID":82703,"DIS_CODE":0,"TOWNNAME":"永康區","LI":"五王里","LIN":"12鄰","STREET":"中山東路","SECT":" ","MAREA":" ","LANE":"２１８巷","ALLEY":"２８弄","HOUSE_NO":"１２號","E_COORD97":171705.34,"N_COORD97":2545755.9900000002,"ADDRESS":"中山東路２１８巷２８弄１２號","OBJECTID":82703},"geometry":{"x":171705.34000000078,"y":2545755.9900000002}},{"attributes":{"ID":82704,"DIS_CODE":0,"TOWNNAME":"永康區","LI":"王行里","LIN":"12鄰","STREET":"王行路","SECT":" ","MAREA":" ","LANE":"８６６巷","ALLEY":"１５弄","HOUSE_NO":"１０號","E_COORD97":175949.57000000001,"N_COORD97":2549962.2200000002,"ADDRESS":"王行路８６６巷１５弄１０號","OBJECTID":82704},"geometry":{"x":175949.5700000003,"y":2549962.2200000007}},{"attributes":{"ID":82705,"DIS_CODE":0,"TOWNNAME":"永康區","LI":"王行里","LIN":"12鄰","STREET":"王行路","SECT":" ","MAREA":" ","LANE":"８６６巷","ALLEY":"１５弄","HOUSE_NO":"８號","E_COORD97":175947.14999999999,"N_COORD97":2549957.4700000002,"ADDRESS":"王行路８６６巷１５弄８號","OBJECTID":82705},"geometry":{"x":175947.15000000037,"y":2549957.4700000007}},{"attributes":{"ID":82706,"DIS_CODE":0,"TOWNNAME":"永康區","LI":"五王里","LIN":"12鄰","STREET":"中山東路","SECT":" ","MAREA":" ","LANE":"２１８巷","ALLEY":"２８弄","HOUSE_NO":"２８號","E_COORD97":171701.04000000001,"N_COORD97":2545783.5,"ADDRESS":"中山東路２１８巷２８弄２８號","OBJECTID":82706},"geometry":{"x":171701.04000000004,"y":2545783.5}},{"attributes":{"ID":82707,"DIS_CODE":0,"TOWNNAME":"永康區","LI":"王行里","LIN":"12鄰","STREET":"王行路","SECT":" ","MAREA":" ","LANE":"８６６巷","ALLEY":"７弄","HOUSE_NO":"１６號","E_COORD97":175897.35999999999,"N_COORD97":2550002.0699999998,"ADDRESS":"王行路８６６巷７弄１６號","OBJECTID":82707},"geometry":{"x":175897.36000000127,"y":2550002.0700000022}},{"attributes":{"ID":82708,"DIS_CODE":0,"TOWNNAME":"永康區","LI":"王行里","LIN":"12鄰","STREET":"王行路","SECT":" ","MAREA":" ","LANE":"８６６巷","ALLEY":"７弄","HOUSE_NO":"１２號","E_COORD97":175897.03,"N_COORD97":2549997.3199999998,"ADDRESS":"王行路８６６巷７弄１２號","OBJECTID":82708},"geometry":{"x":175897.03000000026,"y":2549997.3200000022}},{"attributes":{"ID":82709,"DIS_CODE":0,"TOWNNAME":"永康區","LI":"王行里","LIN":"12鄰","STREET":"王行路","SECT":" ","MAREA":" ","LANE":"８６６巷","ALLEY":"７弄","HOUSE_NO":"１０號","E_COORD97":175896.59,"N_COORD97":2549993.3199999998,"ADDRESS":"王行路８６６巷７弄１０號","OBJECTID":82709},"geometry":{"x":175896.58999999985,"y":2549993.3200000022}},{"attributes":{"ID":82710,"DIS_CODE":0,"TOWNNAME":"永康區","LI":"五王里","LIN":"12鄰","STREET":"中山東路","SECT":" ","MAREA":" ","LANE":"２１８巷","ALLEY":"２８弄","HOUSE_NO":"３０號","E_COORD97":171700.14000000001,"N_COORD97":2545788,"ADDRESS":"中山東路２１８巷２８弄３０號","OBJECTID":82710},"geometry":{"x":171700.13999999966,"y":2545788.0000000019}},{"attributes":{"ID":82711,"DIS_CODE":0,"TOWNNAME":"永康區","LI":"王行里","LIN":"12鄰","STREET":"王行路","SECT":" ","MAREA":" ","LANE":"８６６巷","ALLEY":"７弄","HOUSE_NO":"３號","E_COORD97":175885.73000000001,"N_COORD97":2549986.98,"ADDRESS":"王行路８６６巷７弄３號","OBJECTID":82711},"geometry":{"x":175885.73000000045,"y":2549986.9800000004}},{"attributes":{"ID":82712,"DIS_CODE":0,"TOWNNAME":"永康區","LI":"中華里","LIN":"15鄰","STREET":"華興街","SECT":" ","MAREA":" ","LANE":" ","ALLEY":" ","HOUSE_NO":"９７號底二層之２２","E_COORD97":171792.98000000001,"N_COORD97":2544563.1299999999,"ADDRESS":"華興街９７號底二層之２２","OBJECTID":82712},"geometry":{"x":171792.98000000138,"y":2544563.129999999}},{"attributes":{"ID":82713,"DIS_CODE":0,"TOWNNAME":"善化區","LI":"溪美里","LIN":"22鄰","STREET":" ","SECT":" ","MAREA":"溪尾","LANE":" ","ALLEY":" ","HOUSE_NO":"５６０號","E_COORD97":177038.59,"N_COORD97":2561062.77,"ADDRESS":"溪尾５６０號","OBJECTID":82713},"geometry":{"x":177038.58999999985,"y":2561062.7700000014}},{"attributes":{"ID":82714,"DIS_CODE":0,"TOWNNAME":"善化區","LI":"溪美里","LIN":"22鄰","STREET":" ","SECT":" ","MAREA":"溪尾","LANE":" ","ALLEY":" ","HOUSE_NO":"５６１號","E_COORD97":177031.42999999999,"N_COORD97":2561260.77,"ADDRESS":"溪尾５６１號","OBJECTID":82714},"geometry":{"x":177031.4299999997,"y":2561260.7699999996}},{"attributes":{"ID":82715,"DIS_CODE":0,"TOWNNAME":"善化區","LI":"溪美里","LIN":"22鄰","STREET":" ","SECT":" ","MAREA":"溪尾","LANE":" ","ALLEY":" ","HOUSE_NO":"５８３號","E_COORD97":177048.76000000001,"N_COORD97":2561194.52,"ADDRESS":"溪尾５８３號","OBJECTID":82715},"geometry":{"x":177048.76000000071,"y":2561194.5199999996}},{"attributes":{"ID":82716,"DIS_CODE":0,"TOWNNAME":"善化區","LI":"溪美里","LIN":"22鄰","STREET":" ","SECT":" ","MAREA":"溪尾","LANE":" ","ALLEY":" ","HOUSE_NO":"３３４號","E_COORD97":176985.16,"N_COORD97":2561137.52,"ADDRESS":"溪尾３３４號","OBJECTID":82716},"geometry":{"x":176985.16000000108,"y":2561137.5199999996}},{"attributes":{"ID":82717,"DIS_CODE":0,"TOWNNAME":"善化區","LI":"溪美里","LIN":"22鄰","STREET":" ","SECT":" ","MAREA":"溪尾","LANE":" ","ALLEY":" ","HOUSE_NO":"６２７號","E_COORD97":177071.13,"N_COORD97":2561034.02,"ADDRESS":"溪尾６２７號","OBJECTID":82717},"geometry":{"x":177071.12999999989,"y":2561034.0200000014}},{"attributes":{"ID":82718,"DIS_CODE":0,"TOWNNAME":"善化區","LI":"溪美里","LIN":"22鄰","STREET":" ","SECT":" ","MAREA":"溪尾","LANE":" ","ALLEY":" ","HOUSE_NO":"３３５號","E_COORD97":176980.37,"N_COORD97":2561137.02,"ADDRESS":"溪尾３３５號","OBJECTID":82718},"geometry":{"x":176980.37000000104,"y":2561137.0199999996}},{"attributes":{"ID":82719,"DIS_CODE":0,"TOWNNAME":"永康區","LI":"王行里","LIN":"12鄰","STREET":"王行路","SECT":" ","MAREA":" ","LANE":"８６６巷","ALLEY":"２９弄","HOUSE_NO":"３２號","E_COORD97":176007.06,"N_COORD97":2549931.25,"ADDRESS":"王行路８６６巷２９弄３２號","OBJECTID":82719},"geometry":{"x":176007.06000000145,"y":2549931.25}},{"attributes":{"ID":82720,"DIS_CODE":0,"TOWNNAME":"永康區","LI":"王行里","LIN":"12鄰","STREET":"王行路","SECT":" ","MAREA":" ","LANE":"８６６巷","ALLEY":"２９弄","HOUSE_NO":"４６號","E_COORD97":176016.92999999999,"N_COORD97":2549980.2400000002,"ADDRESS":"王行路８６６巷２９弄４６號","OBJECTID":82720},"geometry":{"x":176016.93000000063,"y":2549980.2400000021}},{"attributes":{"ID":82721,"DIS_CODE":0,"TOWNNAME":"永康區","LI":"王行里","LIN":"12鄰","STREET":"王行路","SECT":" ","MAREA":" ","LANE":"８６６巷","ALLEY":"２９弄","HOUSE_NO":"１５１號","E_COORD97":176006.82999999999,"N_COORD97":2550298.7400000002,"ADDRESS":"王行路８６６巷２９弄１５１號","OBJECTID":82721},"geometry":{"x":176006.83000000007,"y":2550298.7400000021}},{"attributes":{"ID":82722,"DIS_CODE":0,"TOWNNAME":"永康區","LI":"王行里","LIN":"12鄰","STREET":"王行路","SECT":" ","MAREA":" ","LANE":"８６６巷","ALLEY":"２９弄","HOUSE_NO":"２６號","E_COORD97":176016.14999999999,"N_COORD97":2549911.2400000002,"ADDRESS":"王行路８６６巷２９弄２６號","OBJECTID":82722},"geometry":{"x":176016.1500000013,"y":2549911.2400000002}},{"attributes":{"ID":82723,"DIS_CODE":0,"TOWNNAME":"永康區","LI":"勝利里","LIN":"12鄰","STREET":"勝利街","SECT":" ","MAREA":" ","LANE":"２２巷","ALLEY":"４５弄","HOUSE_NO":"２２號","E_COORD97":171238.17000000001,"N_COORD97":2544731,"ADDRESS":"勝利街２２巷４５弄２２號","OBJECTID":82723},"geometry":{"x":171238.17000000086,"y":2544731.0000000019}},{"attributes":{"ID":82724,"DIS_CODE":0,"TOWNNAME":"永康區","LI":"勝利里","LIN":"12鄰","STREET":"勝利街","SECT":" ","MAREA":" ","LANE":"２２巷","ALLEY":"４５弄","HOUSE_NO":"２１號","E_COORD97":171223.79000000001,"N_COORD97":2544707.75,"ADDRESS":"勝利街２２巷４５弄２１號","OBJECTID":82724},"geometry":{"x":171223.7900000019,"y":2544707.7500000019}},{"attributes":{"ID":82725,"DIS_CODE":0,"TOWNNAME":"永康區","LI":"崑山里","LIN":"12鄰","STREET":"大灣路","SECT":" ","MAREA":" ","LANE":"１０２０巷","ALLEY":"３６弄","HOUSE_NO":"２２號","E_COORD97":173321.04000000001,"N_COORD97":2544596.3599999999,"ADDRESS":"大灣路１０２０巷３６弄２２號","OBJECTID":82725},"geometry":{"x":173321.04000000097,"y":2544596.3599999994}},{"attributes":{"ID":82726,"DIS_CODE":0,"TOWNNAME":"永康區","LI":"崑山里","LIN":"12鄰","STREET":"大灣路","SECT":" ","MAREA":" ","LANE":"１０２０巷","ALLEY":"１２弄","HOUSE_NO":"１２號","E_COORD97":173404.67000000001,"N_COORD97":2544552.1099999999,"ADDRESS":"大灣路１０２０巷１２弄１２號","OBJECTID":82726},"geometry":{"x":173404.67000000086,"y":2544552.1100000013}},{"attributes":{"ID":82727,"DIS_CODE":0,"TOWNNAME":"永康區","LI":"勝利里","LIN":"12鄰","STREET":"勝利街","SECT":" ","MAREA":" ","LANE":"２２巷","ALLEY":"４５弄","HOUSE_NO":"２７號","E_COORD97":171224.87,"N_COORD97":2544720,"ADDRESS":"勝利街２２巷４５弄２７號","OBJECTID":82727},"geometry":{"x":171224.86999999918,"y":2544720.0000000019}},{"attributes":{"ID":82728,"DIS_CODE":0,"TOWNNAME":"永康區","LI":"崑山里","LIN":"12鄰","STREET":"大灣路","SECT":" ","MAREA":" ","LANE":"１０２０巷","ALLEY":"３６弄","HOUSE_NO":"７號","E_COORD97":173334.92000000001,"N_COORD97":2544546.6600000001,"ADDRESS":"大灣路１０２０巷３６弄７號","OBJECTID":82728},"geometry":{"x":173334.92000000179,"y":2544546.660000002}},{"attributes":{"ID":82729,"DIS_CODE":0,"TOWNNAME":"永康區","LI":"勝利里","LIN":"12鄰","STREET":"勝利街","SECT":" ","MAREA":" ","LANE":"２２巷","ALLEY":"４５弄","HOUSE_NO":"７３號","E_COORD97":171239.54999999999,"N_COORD97":2544808.75,"ADDRESS":"勝利街２２巷４５弄７３號","OBJECTID":82729},"geometry":{"x":171239.54999999981,"y":2544808.75}},{"attributes":{"ID":82730,"DIS_CODE":0,"TOWNNAME":"永康區","LI":"崑山里","LIN":"12鄰","STREET":"大灣路","SECT":" ","MAREA":" ","LANE":"１０２０巷","ALLEY":"３６弄","HOUSE_NO":"４號","E_COORD97":173347.13,"N_COORD97":2544569.0600000001,"ADDRESS":"大灣路１０２０巷３６弄４號","OBJECTID":82730},"geometry":{"x":173347.13000000175,"y":2544569.0600000005}},{"attributes":{"ID":82731,"DIS_CODE":0,"TOWNNAME":"永康區","LI":"崑山里","LIN":"12鄰","STREET":"大灣路","SECT":" ","MAREA":" ","LANE":"１０２０巷","ALLEY":"３６弄","HOUSE_NO":"１號","E_COORD97":173332.62,"N_COORD97":2544513.3999999999,"ADDRESS":"大灣路１０２０巷３６弄１號","OBJECTID":82731},"geometry":{"x":173332.62000000104,"y":2544513.4000000041}},{"attributes":{"ID":82732,"DIS_CODE":0,"TOWNNAME":"善化區","LI":"溪美里","LIN":"22鄰","STREET":" ","SECT":" ","MAREA":"溪尾","LANE":" ","ALLEY":" ","HOUSE_NO":"５９３號","E_COORD97":177049.87,"N_COORD97":2561169.52,"ADDRESS":"溪尾５９３號","OBJECTID":82732},"geometry":{"x":177049.87000000104,"y":2561169.5200000014}},{"attributes":{"ID":82733,"DIS_CODE":0,"TOWNNAME":"善化區","LI":"溪美里","LIN":"22鄰","STREET":" ","SECT":" ","MAREA":"溪尾","LANE":" ","ALLEY":" ","HOUSE_NO":"３３８號","E_COORD97":177009.14999999999,"N_COORD97":2561118.77,"ADDRESS":"溪尾３３８號","OBJECTID":82733},"geometry":{"x":177009.15000000224,"y":2561118.7699999996}},{"attributes":{"ID":82734,"DIS_CODE":0,"TOWNNAME":"安南區","LI":"安富里","LIN":"12鄰","STREET":"安富街","SECT":" ","MAREA":" ","LANE":"２５１巷","ALLEY":"２８弄","HOUSE_NO":"１３號","E_COORD97":167487.47,"N_COORD97":2547347.3300000001,"ADDRESS":"安富街２５１巷２８弄１３號","OBJECTID":82734},"geometry":{"x":167487.46999999974,"y":2547347.3300000001}},{"attributes":{"ID":82735,"DIS_CODE":0,"TOWNNAME":"善化區","LI":"溪美里","LIN":"22鄰","STREET":" ","SECT":" ","MAREA":"溪尾","LANE":" ","ALLEY":" ","HOUSE_NO":"３５０號","E_COORD97":176939.42999999999,"N_COORD97":2561117.52,"ADDRESS":"溪尾３５０號","OBJECTID":82735},"geometry":{"x":176939.43000000063,"y":2561117.5199999996}},{"attributes":{"ID":82736,"DIS_CODE":0,"TOWNNAME":"安南區","LI":"安富里","LIN":"12鄰","STREET":"安富街","SECT":" ","MAREA":" ","LANE":"２５１巷","ALLEY":"２８弄","HOUSE_NO":"１４號","E_COORD97":167484.16,"N_COORD97":2547367.1499999999,"ADDRESS":"安富街２５１巷２８弄１４號","OBJECTID":82736},"geometry":{"x":167484.16000000108,"y":2547367.1500000022}},{"attributes":{"ID":82737,"DIS_CODE":0,"TOWNNAME":"安南區","LI":"安富里","LIN":"12鄰","STREET":"安富街","SECT":" ","MAREA":" ","LANE":"２５１巷","ALLEY":"２８弄","HOUSE_NO":"１６號","E_COORD97":167475.73999999999,"N_COORD97":2547364.4500000002,"ADDRESS":"安富街２５１巷２８弄１６號","OBJECTID":82737},"geometry":{"x":167475.74000000022,"y":2547364.4500000011}},{"attributes":{"ID":82738,"DIS_CODE":0,"TOWNNAME":"仁德區","LI":"太子里","LIN":"15鄰","STREET":"太子北路","SECT":" ","MAREA":" ","LANE":" ","ALLEY":" ","HOUSE_NO":"１０２號","E_COORD97":174112.87,"N_COORD97":2543703.25,"ADDRESS":"太子北路１０２號","OBJECTID":82738},"geometry":{"x":174112.87000000011,"y":2543703.25}},{"attributes":{"ID":82739,"DIS_CODE":0,"TOWNNAME":"仁德區","LI":"太子里","LIN":"15鄰","STREET":"太子北路","SECT":" ","MAREA":" ","LANE":" ","ALLEY":" ","HOUSE_NO":"１１８號","E_COORD97":174079.64999999999,"N_COORD97":2543678.25,"ADDRESS":"太子北路１１８號","OBJECTID":82739},"geometry":{"x":174079.64999999944,"y":2543678.2500000019}},{"attributes":{"ID":82740,"DIS_CODE":0,"TOWNNAME":"善化區","LI":"溪美里","LIN":"30鄰","STREET":" ","SECT":" ","MAREA":"溪尾","LANE":" ","ALLEY":" ","HOUSE_NO":"５７５之１號","E_COORD97":177108.23999999999,"N_COORD97":2561221.77,"ADDRESS":"溪尾５７５之１號","OBJECTID":82740},"geometry":{"x":177108.24000000209,"y":2561221.7700000014}},{"attributes":{"ID":82741,"DIS_CODE":0,"TOWNNAME":"仁德區","LI":"仁德里","LIN":"15鄰","STREET":"中山路","SECT":" ","MAREA":" ","LANE":" ","ALLEY":" ","HOUSE_NO":"６５１號","E_COORD97":173195.92999999999,"N_COORD97":2541332.25,"ADDRESS":"中山路６５１號","OBJECTID":82741},"geometry":{"x":173195.93000000063,"y":2541332.2500000019}},{"attributes":{"ID":82742,"DIS_CODE":0,"TOWNNAME":"善化區","LI":"溪美里","LIN":"30鄰","STREET":" ","SECT":" ","MAREA":"溪尾","LANE":" ","ALLEY":" ","HOUSE_NO":"５９５之２號","E_COORD97":177138.62,"N_COORD97":2561175.52,"ADDRESS":"溪尾５９５之２號","OBJECTID":82742},"geometry":{"x":177138.62000000104,"y":2561175.5200000033}},{"attributes":{"ID":82743,"DIS_CODE":0,"TOWNNAME":"仁德區","LI":"仁義里","LIN":"15鄰","STREET":"義林路","SECT":" ","MAREA":" ","LANE":" ","ALLEY":" ","HOUSE_NO":"２２４號","E_COORD97":174587.39000000001,"N_COORD97":2541311.2599999998,"ADDRESS":"義林路２２４號","OBJECTID":82743},"geometry":{"x":174587.38999999966,"y":2541311.2600000016}},{"attributes":{"ID":82744,"DIS_CODE":0,"TOWNNAME":"善化區","LI":"溪美里","LIN":"22鄰","STREET":" ","SECT":" ","MAREA":"溪尾","LANE":" ","ALLEY":" ","HOUSE_NO":"３４８號","E_COORD97":176955.54000000001,"N_COORD97":2561084.52,"ADDRESS":"溪尾３４８號","OBJECTID":82744},"geometry":{"x":176955.54000000097,"y":2561084.5200000014}},{"attributes":{"ID":82745,"DIS_CODE":0,"TOWNNAME":"善化區","LI":"溪美里","LIN":"22鄰","STREET":" ","SECT":" ","MAREA":"溪尾","LANE":" ","ALLEY":" ","HOUSE_NO":"３３２號","E_COORD97":176998.75,"N_COORD97":2561139.27,"ADDRESS":"溪尾３３２號","OBJECTID":82745},"geometry":{"x":176998.75,"y":2561139.2699999996}},{"attributes":{"ID":82746,"DIS_CODE":0,"TOWNNAME":"仁德區","LI":"仁義里","LIN":"15鄰","STREET":"林頂街","SECT":" ","MAREA":" ","LANE":" ","ALLEY":" ","HOUSE_NO":"１１０號","E_COORD97":174583.44,"N_COORD97":2541343.5,"ADDRESS":"林頂街１１０號","OBJECTID":82746},"geometry":{"x":174583.44000000134,"y":2541343.5000000019}},{"attributes":{"ID":82747,"DIS_CODE":0,"TOWNNAME":"仁德區","LI":"中洲里","LIN":"15鄰","STREET":" ","SECT":" ","MAREA":"中洲","LANE":" ","ALLEY":" ","HOUSE_NO":"３７４號","E_COORD97":173432.91,"N_COORD97":2534176.9900000002,"ADDRESS":"中洲３７４號","OBJECTID":82747},"geometry":{"x":173432.91000000015,"y":2534176.9900000021}},{"attributes":{"ID":82748,"DIS_CODE":0,"TOWNNAME":"安南區","LI":"安富里","LIN":"12鄰","STREET":"安富街","SECT":" ","MAREA":" ","LANE":"２５１巷","ALLEY":"２８弄","HOUSE_NO":"１７號","E_COORD97":167471.23000000001,"N_COORD97":2547344.0299999998,"ADDRESS":"安富街２５１巷２８弄１７號","OBJECTID":82748},"geometry":{"x":167471.23000000045,"y":2547344.0300000012}},{"attributes":{"ID":82749,"DIS_CODE":0,"TOWNNAME":"安南區","LI":"安富里","LIN":"12鄰","STREET":"安富街","SECT":" ","MAREA":" ","LANE":"２５１巷","ALLEY":"２８弄","HOUSE_NO":"１９號","E_COORD97":167466.10999999999,"N_COORD97":2547342.5299999998,"ADDRESS":"安富街２５１巷２８弄１９號","OBJECTID":82749},"geometry":{"x":167466.11000000127,"y":2547342.5300000031}},{"attributes":{"ID":82750,"DIS_CODE":0,"TOWNNAME":"仁德區","LI":"中洲里","LIN":"15鄰","STREET":" ","SECT":" ","MAREA":"中洲","LANE":" ","ALLEY":" ","HOUSE_NO":"３７０號","E_COORD97":173389.38,"N_COORD97":2534204,"ADDRESS":"中洲３７０號","OBJECTID":82750},"geometry":{"x":173389.38000000175,"y":2534204.0000000019}},{"attributes":{"ID":82751,"DIS_CODE":0,"TOWNNAME":"善化區","LI":"光文里","LIN":"30鄰","STREET":" ","SECT":" ","MAREA":"北子店","LANE":" ","ALLEY":" ","HOUSE_NO":"５０１號之１９","E_COORD97":179158.89000000001,"N_COORD97":2559793.77,"ADDRESS":"北子店５０１號之１９","OBJECTID":82751},"geometry":{"x":179158.88999999966,"y":2559793.7699999977}},{"attributes":{"ID":82752,"DIS_CODE":0,"TOWNNAME":"善化區","LI":"光文里","LIN":"30鄰","STREET":" ","SECT":" ","MAREA":"北子店","LANE":" ","ALLEY":" ","HOUSE_NO":"５０１號之３３","E_COORD97":179156.53,"N_COORD97":2559854.27,"ADDRESS":"北子店５０１號之３３","OBJECTID":82752},"geometry":{"x":179156.53000000119,"y":2559854.2699999996}},{"attributes":{"ID":82753,"DIS_CODE":0,"TOWNNAME":"善化區","LI":"光文里","LIN":"30鄰","STREET":" ","SECT":" ","MAREA":"北子店","LANE":" ","ALLEY":" ","HOUSE_NO":"５０１號","E_COORD97":179247.06,"N_COORD97":2559779.25,"ADDRESS":"北子店５０１號","OBJECTID":82753},"geometry":{"x":179247.06000000052,"y":2559779.2500000019}},{"attributes":{"ID":82754,"DIS_CODE":0,"TOWNNAME":"安南區","LI":"安富里","LIN":"12鄰","STREET":"安富街","SECT":" ","MAREA":" ","LANE":"２５１巷","ALLEY":"２８弄","HOUSE_NO":"１號","E_COORD97":167521.45000000001,"N_COORD97":2547354.54,"ADDRESS":"安富街２５１巷２８弄１號","OBJECTID":82754},"geometry":{"x":167521.45000000019,"y":2547354.5399999991}},{"attributes":{"ID":82755,"DIS_CODE":0,"TOWNNAME":"善化區","LI":"光文里","LIN":"30鄰","STREET":" ","SECT":" ","MAREA":"北子店","LANE":" ","ALLEY":" ","HOUSE_NO":"５０１號之３１","E_COORD97":179156.78,"N_COORD97":2559845.52,"ADDRESS":"北子店５０１號之３１","OBJECTID":82755},"geometry":{"x":179156.78000000026,"y":2559845.5199999996}},{"attributes":{"ID":82756,"DIS_CODE":0,"TOWNNAME":"善化區","LI":"光文里","LIN":"30鄰","STREET":" ","SECT":" ","MAREA":"北子店","LANE":" ","ALLEY":" ","HOUSE_NO":"５１１號","E_COORD97":179278.67000000001,"N_COORD97":2559844.25,"ADDRESS":"北子店５１１號","OBJECTID":82756},"geometry":{"x":179278.67000000086,"y":2559844.25}},{"attributes":{"ID":82757,"DIS_CODE":0,"TOWNNAME":"善化區","LI":"光文里","LIN":"30鄰","STREET":" ","SECT":" ","MAREA":"北子店","LANE":" ","ALLEY":" ","HOUSE_NO":"５７１號","E_COORD97":179335.31,"N_COORD97":2559962.25,"ADDRESS":"北子店５７１號","OBJECTID":82757},"geometry":{"x":179335.31000000052,"y":2559962.2500000019}},{"attributes":{"ID":82758,"DIS_CODE":0,"TOWNNAME":"善化區","LI":"光文里","LIN":"30鄰","STREET":" ","SECT":" ","MAREA":"北子店","LANE":" ","ALLEY":" ","HOUSE_NO":"５４９號","E_COORD97":179313.47,"N_COORD97":2559917,"ADDRESS":"北子店５４９號","OBJECTID":82758},"geometry":{"x":179313.47000000067,"y":2559917}},{"attributes":{"ID":82759,"DIS_CODE":0,"TOWNNAME":"善化區","LI":"光文里","LIN":"30鄰","STREET":" ","SECT":" ","MAREA":"北子店","LANE":" ","ALLEY":" ","HOUSE_NO":"５８７號","E_COORD97":179352.28,"N_COORD97":2559996.75,"ADDRESS":"北子店５８７號","OBJECTID":82759},"geometry":{"x":179352.28000000026,"y":2559996.75}},{"attributes":{"ID":82760,"DIS_CODE":0,"TOWNNAME":"安南區","LI":"安富里","LIN":"12鄰","STREET":"安富街","SECT":" ","MAREA":" ","LANE":"２５１巷","ALLEY":"２８弄","HOUSE_NO":"２１號","E_COORD97":167460.70000000001,"N_COORD97":2547341.9300000002,"ADDRESS":"安富街２５１巷２８弄２１號","OBJECTID":82760},"geometry":{"x":167460.70000000019,"y":2547341.9299999997}},{"attributes":{"ID":82761,"DIS_CODE":0,"TOWNNAME":"善化區","LI":"光文里","LIN":"30鄰","STREET":" ","SECT":" ","MAREA":"北子店","LANE":" ","ALLEY":" ","HOUSE_NO":"５７９號","E_COORD97":179343.67999999999,"N_COORD97":2559978.5,"ADDRESS":"北子店５７９號","OBJECTID":82761},"geometry":{"x":179343.6799999997,"y":2559978.5}},{"attributes":{"ID":82762,"DIS_CODE":0,"TOWNNAME":"善化區","LI":"光文里","LIN":"30鄰","STREET":" ","SECT":" ","MAREA":"北子店","LANE":" ","ALLEY":" ","HOUSE_NO":"４９９號之６","E_COORD97":179201.20000000001,"N_COORD97":2559761.77,"ADDRESS":"北子店４９９號之６","OBJECTID":82762},"geometry":{"x":179201.20000000112,"y":2559761.7700000014}},{"attributes":{"ID":82763,"DIS_CODE":0,"TOWNNAME":"善化區","LI":"光文里","LIN":"30鄰","STREET":" ","SECT":" ","MAREA":"北子店","LANE":" ","ALLEY":" ","HOUSE_NO":"５０１號之１","E_COORD97":179241.06,"N_COORD97":2559778.27,"ADDRESS":"北子店５０１號之１","OBJECTID":82763},"geometry":{"x":179241.05999999959,"y":2559778.2700000014}},{"attributes":{"ID":82764,"DIS_CODE":0,"TOWNNAME":"善化區","LI":"光文里","LIN":"30鄰","STREET":" ","SECT":" ","MAREA":"北子店","LANE":" ","ALLEY":" ","HOUSE_NO":"５０１號之６","E_COORD97":179217.22,"N_COORD97":2559776.27,"ADDRESS":"北子店５０１號之６","OBJECTID":82764},"geometry":{"x":179217.22000000067,"y":2559776.2699999996}},{"attributes":{"ID":82765,"DIS_CODE":0,"TOWNNAME":"善化區","LI":"光文里","LIN":"30鄰","STREET":" ","SECT":" ","MAREA":"北子店","LANE":" ","ALLEY":" ","HOUSE_NO":"５５５號","E_COORD97":179319.17000000001,"N_COORD97":2559928.75,"ADDRESS":"北子店５５５號","OBJECTID":82765},"geometry":{"x":179319.17000000086,"y":2559928.75}},{"attributes":{"ID":82766,"DIS_CODE":0,"TOWNNAME":"善化區","LI":"光文里","LIN":"30鄰","STREET":" ","SECT":" ","MAREA":"北子店","LANE":" ","ALLEY":" ","HOUSE_NO":"５５１號","E_COORD97":179315.42999999999,"N_COORD97":2559920.75,"ADDRESS":"北子店５５１號","OBJECTID":82766},"geometry":{"x":179315.43000000063,"y":2559920.7500000019}},{"attributes":{"ID":82767,"DIS_CODE":0,"TOWNNAME":"善化區","LI":"光文里","LIN":"30鄰","STREET":" ","SECT":" ","MAREA":"北子店","LANE":" ","ALLEY":" ","HOUSE_NO":"５６７號","E_COORD97":179331.12,"N_COORD97":2559953.5,"ADDRESS":"北子店５６７號","OBJECTID":82767},"geometry":{"x":179331.12000000011,"y":2559953.5000000019}},{"attributes":{"ID":82768,"DIS_CODE":0,"TOWNNAME":"善化區","LI":"光文里","LIN":"30鄰","STREET":" ","SECT":" ","MAREA":"北子店","LANE":" ","ALLEY":" ","HOUSE_NO":"４９９號","E_COORD97":179237.25,"N_COORD97":2559764.25,"ADDRESS":"北子店４９９號","OBJECTID":82768},"geometry":{"x":179237.25000000186,"y":2559764.2500000037}},{"attributes":{"ID":82769,"DIS_CODE":0,"TOWNNAME":"安南區","LI":"安富里","LIN":"12鄰","STREET":"安富街","SECT":" ","MAREA":" ","LANE":"２５１巷","ALLEY":"２８弄","HOUSE_NO":"２２號","E_COORD97":167455.59,"N_COORD97":2547362.04,"ADDRESS":"安富街２５１巷２８弄２２號","OBJECTID":82769},"geometry":{"x":167455.59000000078,"y":2547362.0399999991}},{"attributes":{"ID":82770,"DIS_CODE":0,"TOWNNAME":"安南區","LI":"安富里","LIN":"12鄰","STREET":"安富街","SECT":" ","MAREA":" ","LANE":"２５１巷","ALLEY":"２８弄","HOUSE_NO":"２５號","E_COORD97":167425.03,"N_COORD97":2547332.8999999999,"ADDRESS":"安富街２５１巷２８弄２５號","OBJECTID":82770},"geometry":{"x":167425.02999999933,"y":2547332.9000000004}},{"attributes":{"ID":82771,"DIS_CODE":0,"TOWNNAME":"安南區","LI":"安富里","LIN":"12鄰","STREET":"安富街","SECT":" ","MAREA":" ","LANE":"２５１巷","ALLEY":"２８弄","HOUSE_NO":"２７號","E_COORD97":167418.85999999999,"N_COORD97":2547334.27,"ADDRESS":"安富街２５１巷２８弄２７號","OBJECTID":82771},"geometry":{"x":167418.86000000034,"y":2547334.2700000033}},{"attributes":{"ID":82772,"DIS_CODE":0,"TOWNNAME":"安南區","LI":"安富里","LIN":"12鄰","STREET":"安富街","SECT":" ","MAREA":" ","LANE":"２５１巷","ALLEY":"２８弄","HOUSE_NO":"２９號","E_COORD97":167413.38,"N_COORD97":2547331.0800000001,"ADDRESS":"安富街２５１巷２８弄２９號","OBJECTID":82772},"geometry":{"x":167413.37999999989,"y":2547331.0800000019}},{"attributes":{"ID":82773,"DIS_CODE":0,"TOWNNAME":"安南區","LI":"安富里","LIN":"12鄰","STREET":"安富街","SECT":" ","MAREA":" ","LANE":"２５１巷","ALLEY":"２８弄","HOUSE_NO":"２號","E_COORD97":167516.94,"N_COORD97":2547371.6499999999,"ADDRESS":"安富街２５１巷２８弄２號","OBJECTID":82773},"geometry":{"x":167516.94000000041,"y":2547371.6500000004}},{"attributes":{"ID":82774,"DIS_CODE":0,"TOWNNAME":"安南區","LI":"安富里","LIN":"12鄰","STREET":"安富街","SECT":" ","MAREA":" ","LANE":"２５１巷","ALLEY":"２８弄","HOUSE_NO":"３２號","E_COORD97":167412.01000000001,"N_COORD97":2547353.27,"ADDRESS":"安富街２５１巷２８弄３２號","OBJECTID":82774},"geometry":{"x":167412.01000000071,"y":2547353.2699999996}},{"attributes":{"ID":82775,"DIS_CODE":0,"TOWNNAME":"安南區","LI":"安富里","LIN":"12鄰","STREET":"安富街","SECT":" ","MAREA":" ","LANE":"２５１巷","ALLEY":"２８弄","HOUSE_NO":"３３號","E_COORD97":167401.95000000001,"N_COORD97":2547328.3399999999,"ADDRESS":"安富街２５１巷２８弄３３號","OBJECTID":82775},"geometry":{"x":167401.95000000205,"y":2547328.3400000017}},{"attributes":{"ID":82776,"DIS_CODE":0,"TOWNNAME":"仁德區","LI":"太子里","LIN":"15鄰","STREET":"太子北路","SECT":" ","MAREA":" ","LANE":" ","ALLEY":" ","HOUSE_NO":"１３６號","E_COORD97":174032.76000000001,"N_COORD97":2543686,"ADDRESS":"太子北路１３６號","OBJECTID":82776},"geometry":{"x":174032.76000000071,"y":2543686.0000000019}},{"attributes":{"ID":82777,"DIS_CODE":0,"TOWNNAME":"仁德區","LI":"仁義里","LIN":"15鄰","STREET":"義林路","SECT":" ","MAREA":" ","LANE":" ","ALLEY":" ","HOUSE_NO":"２４８號","E_COORD97":174582.07999999999,"N_COORD97":2541416.2599999998,"ADDRESS":"義林路２４８號","OBJECTID":82777},"geometry":{"x":174582.08000000101,"y":2541416.2600000016}},{"attributes":{"ID":82778,"DIS_CODE":0,"TOWNNAME":"安南區","LI":"安富里","LIN":"12鄰","STREET":"安富街","SECT":" ","MAREA":" ","LANE":"２５１巷","ALLEY":"２８弄","HOUSE_NO":"３４號","E_COORD97":167403.09,"N_COORD97":2547352.1299999999,"ADDRESS":"安富街２５１巷２８弄３４號","OBJECTID":82778},"geometry":{"x":167403.08999999985,"y":2547352.1300000008}},{"attributes":{"ID":82779,"DIS_CODE":0,"TOWNNAME":"安南區","LI":"安富里","LIN":"12鄰","STREET":"安富街","SECT":" ","MAREA":" ","LANE":"２５１巷","ALLEY":"２８弄","HOUSE_NO":"３６號","E_COORD97":167397.38,"N_COORD97":2547350.3100000001,"ADDRESS":"安富街２５１巷２８弄３６號","OBJECTID":82779},"geometry":{"x":167397.38000000082,"y":2547350.3100000024}},{"attributes":{"ID":82780,"DIS_CODE":0,"TOWNNAME":"安南區","LI":"安富里","LIN":"12鄰","STREET":"安富街","SECT":" ","MAREA":" ","LANE":"２５１巷","ALLEY":"２８弄","HOUSE_NO":"３９號","E_COORD97":167379.10000000001,"N_COORD97":2547325.6000000001,"ADDRESS":"安富街２５１巷２８弄３９號","OBJECTID":82780},"geometry":{"x":167379.09999999963,"y":2547325.6000000034}},{"attributes":{"ID":82781,"DIS_CODE":0,"TOWNNAME":"安南區","LI":"安富里","LIN":"12鄰","STREET":"安富街","SECT":" ","MAREA":" ","LANE":"２５１巷","ALLEY":"２８弄","HOUSE_NO":"３號","E_COORD97":167516.04000000001,"N_COORD97":2547353.3399999999,"ADDRESS":"安富街２５１巷２８弄３號","OBJECTID":82781},"geometry":{"x":167516.04000000004,"y":2547353.3399999999}},{"attributes":{"ID":82782,"DIS_CODE":0,"TOWNNAME":"南區","LI":"日新里","LIN":" ","STREET":"鹽埕路","SECT":" ","MAREA":" ","LANE":" ","ALLEY":" ","HOUSE_NO":"２６２號","E_COORD97":166920.48000000001,"N_COORD97":2541193.6200000001,"ADDRESS":"鹽埕路２６２號","OBJECTID":82782},"geometry":{"x":166920.48000000231,"y":2541193.6200000048}},{"attributes":{"ID":82783,"DIS_CODE":0,"TOWNNAME":"南區","LI":"日新里","LIN":" ","STREET":"鹽埕路","SECT":" ","MAREA":" ","LANE":" ","ALLEY":" ","HOUSE_NO":"２６３號","E_COORD97":166924.67999999999,"N_COORD97":2541251.5,"ADDRESS":"鹽埕路２６３號","OBJECTID":82783},"geometry":{"x":166924.6799999997,"y":2541251.5000000019}},{"attributes":{"ID":82784,"DIS_CODE":0,"TOWNNAME":"安南區","LI":"安富里","LIN":"12鄰","STREET":"安富街","SECT":" ","MAREA":" ","LANE":"２５１巷","ALLEY":"２８弄","HOUSE_NO":"４１號","E_COORD97":167374.29999999999,"N_COORD97":2547323.77,"ADDRESS":"安富街２５１巷２８弄４１號","OBJECTID":82784},"geometry":{"x":167374.30000000075,"y":2547323.7699999996}},{"attributes":{"ID":82785,"DIS_CODE":0,"TOWNNAME":"南區","LI":"日新里","LIN":" ","STREET":"鹽埕路","SECT":" ","MAREA":" ","LANE":" ","ALLEY":" ","HOUSE_NO":"２６４號","E_COORD97":166921.59,"N_COORD97":2541197.79,"ADDRESS":"鹽埕路２６４號","OBJECTID":82785},"geometry":{"x":166921.59000000078,"y":2541197.790000001}},{"attributes":{"ID":82786,"DIS_CODE":0,"TOWNNAME":"南區","LI":"日新里","LIN":" ","STREET":"鹽埕路","SECT":" ","MAREA":" ","LANE":" ","ALLEY":" ","HOUSE_NO":"２６５號","E_COORD97":166925.5,"N_COORD97":2541257.0499999998,"ADDRESS":"鹽埕路２６５號","OBJECTID":82786},"geometry":{"x":166925.50000000093,"y":2541257.0500000007}},{"attributes":{"ID":82787,"DIS_CODE":0,"TOWNNAME":"南區","LI":"日新里","LIN":" ","STREET":"鹽埕路","SECT":" ","MAREA":" ","LANE":" ","ALLEY":" ","HOUSE_NO":"２６７號","E_COORD97":166927.03,"N_COORD97":2541262.1099999999,"ADDRESS":"鹽埕路２６７號","OBJECTID":82787},"geometry":{"x":166927.03000000119,"y":2541262.1099999994}},{"attributes":{"ID":82788,"DIS_CODE":0,"TOWNNAME":"南區","LI":"日新里","LIN":" ","STREET":"鹽埕路","SECT":" ","MAREA":" ","LANE":" ","ALLEY":" ","HOUSE_NO":"２６９號","E_COORD97":166929.03,"N_COORD97":2541266.9900000002,"ADDRESS":"鹽埕路２６９號","OBJECTID":82788},"geometry":{"x":166929.03000000119,"y":2541266.9900000002}},{"attributes":{"ID":82789,"DIS_CODE":0,"TOWNNAME":"南區","LI":"日新里","LIN":" ","STREET":"鹽埕路","SECT":" ","MAREA":" ","LANE":" ","ALLEY":" ","HOUSE_NO":"２７１號","E_COORD97":166929.12,"N_COORD97":2541272.3199999998,"ADDRESS":"鹽埕路２７１號","OBJECTID":82789},"geometry":{"x":166929.12000000011,"y":2541272.3200000003}},{"attributes":{"ID":82790,"DIS_CODE":0,"TOWNNAME":"南區","LI":"日新里","LIN":" ","STREET":"鹽埕路","SECT":" ","MAREA":" ","LANE":" ","ALLEY":" ","HOUSE_NO":"２７２號","E_COORD97":166928.60000000001,"N_COORD97":2541213.1200000001,"ADDRESS":"鹽埕路２７２號","OBJECTID":82790},"geometry":{"x":166928.59999999963,"y":2541213.120000001}},{"attributes":{"ID":82791,"DIS_CODE":0,"TOWNNAME":"南區","LI":"日新里","LIN":" ","STREET":"鹽埕路","SECT":" ","MAREA":" ","LANE":" ","ALLEY":" ","HOUSE_NO":"２７４號","E_COORD97":166930.64999999999,"N_COORD97":2541218.1499999999,"ADDRESS":"鹽埕路２７４號","OBJECTID":82791},"geometry":{"x":166930.65000000037,"y":2541218.1500000004}},{"attributes":{"ID":82792,"DIS_CODE":0,"TOWNNAME":"安南區","LI":"安富里","LIN":"12鄰","STREET":"安富街","SECT":" ","MAREA":" ","LANE":"２５１巷","ALLEY":"２８弄","HOUSE_NO":"４４號","E_COORD97":167369.04000000001,"N_COORD97":2547344.6000000001,"ADDRESS":"安富街２５１巷２８弄４４號","OBJECTID":82792},"geometry":{"x":167369.04000000097,"y":2547344.5999999996}},{"attributes":{"ID":82793,"DIS_CODE":0,"TOWNNAME":"安南區","LI":"安富里","LIN":"12鄰","STREET":"安富街","SECT":" ","MAREA":" ","LANE":"２５１巷","ALLEY":"２８弄","HOUSE_NO":"４９號","E_COORD97":167353.5,"N_COORD97":2547321.04,"ADDRESS":"安富街２５１巷２８弄４９號","OBJECTID":82793},"geometry":{"x":167353.5,"y":2547321.0399999991}},{"attributes":{"ID":82794,"DIS_CODE":0,"TOWNNAME":"安南區","LI":"安富里","LIN":"12鄰","STREET":"安富街","SECT":" ","MAREA":" ","LANE":"２５１巷","ALLEY":"２８弄","HOUSE_NO":"４號","E_COORD97":167511.23000000001,"N_COORD97":2547372.8500000001,"ADDRESS":"安富街２５１巷２８弄４號","OBJECTID":82794},"geometry":{"x":167511.23000000138,"y":2547372.8500000015}},{"attributes":{"ID":82795,"DIS_CODE":0,"TOWNNAME":"安南區","LI":"安富里","LIN":"12鄰","STREET":"安富街","SECT":" ","MAREA":" ","LANE":"２５１巷","ALLEY":"２８弄","HOUSE_NO":"５１號","E_COORD97":167348.92999999999,"N_COORD97":2547318.5299999998,"ADDRESS":"安富街２５１巷２８弄５１號","OBJECTID":82795},"geometry":{"x":167348.93000000156,"y":2547318.5299999975}},{"attributes":{"ID":82796,"DIS_CODE":0,"TOWNNAME":"安南區","LI":"安富里","LIN":"12鄰","STREET":"安富街","SECT":" ","MAREA":" ","LANE":"２５１巷","ALLEY":"２８弄","HOUSE_NO":"５３號","E_COORD97":167343.44,"N_COORD97":2547318.98,"ADDRESS":"安富街２５１巷２８弄５３號","OBJECTID":82796},"geometry":{"x":167343.44000000134,"y":2547318.9800000004}},{"attributes":{"ID":82797,"DIS_CODE":0,"TOWNNAME":"安南區","LI":"安富里","LIN":"12鄰","STREET":"安富街","SECT":" ","MAREA":" ","LANE":"２５１巷","ALLEY":"２８弄","HOUSE_NO":"５４號","E_COORD97":167344.13,"N_COORD97":2547340.4900000002,"ADDRESS":"安富街２５１巷２８弄５４號","OBJECTID":82797},"geometry":{"x":167344.12999999989,"y":2547340.4900000039}},{"attributes":{"ID":82798,"DIS_CODE":0,"TOWNNAME":"安南區","LI":"安富里","LIN":"12鄰","STREET":"安富街","SECT":" ","MAREA":" ","LANE":"２５１巷","ALLEY":"２８弄","HOUSE_NO":"５６號","E_COORD97":167339.79000000001,"N_COORD97":2547339.1299999999,"ADDRESS":"安富街２５１巷２８弄５６號","OBJECTID":82798},"geometry":{"x":167339.79000000004,"y":2547339.1300000008}},{"attributes":{"ID":82799,"DIS_CODE":0,"TOWNNAME":"安南區","LI":"安富里","LIN":"12鄰","STREET":"安富街","SECT":" ","MAREA":" ","LANE":"２５１巷","ALLEY":"２８弄","HOUSE_NO":"６號","E_COORD97":167504.91,"N_COORD97":2547368.6499999999,"ADDRESS":"安富街２５１巷２８弄６號","OBJECTID":82799},"geometry":{"x":167504.91000000015,"y":2547368.6500000004}},{"attributes":{"ID":82800,"DIS_CODE":0,"TOWNNAME":"南區","LI":"日新里","LIN":" ","STREET":"鹽埕路","SECT":" ","MAREA":" ","LANE":" ","ALLEY":" ","HOUSE_NO":"２７５號","E_COORD97":166933.29000000001,"N_COORD97":2541281.2200000002,"ADDRESS":"鹽埕路２７５號","OBJECTID":82800},"geometry":{"x":166933.2900000019,"y":2541281.2200000025}}]}