{"displayFieldName":"TOWNNAME","fieldAliases":{"ID":"ID","DIS_CODE":"DIS_CODE","TOWNNAME":"TOWNNAME","LI":"LI","LIN":"LIN","STREET":"STREET","SECT":"SECT","MAREA":"MAREA","LANE":"LANE","ALLEY":"ALLEY","HOUSE_NO":"HOUSE_NO","E_COORD97":"E_COORD97","N_COORD97":"N_COORD97","ADDRESS":"ADDRESS","OBJECTID":"OBJECTID"},"geometryType":"esriGeometryPoint","spatialReference":{"wkid":102443,"latestWkid":3826},"fields":[{"name":"ID","type":"esriFieldTypeDouble","alias":"ID"},{"name":"DIS_CODE","type":"esriFieldTypeInteger","alias":"DIS_CODE"},{"name":"TOWNNAME","type":"esriFieldTypeString","alias":"TOWNNAME","length":8},{"name":"LI","type":"esriFieldTypeString","alias":"LI","length":8},{"name":"LIN","type":"esriFieldTypeString","alias":"LIN","length":12},{"name":"STREET","type":"esriFieldTypeString","alias":"STREET","length":20},{"name":"SECT","type":"esriFieldTypeString","alias":"SECT","length":8},{"name":"MAREA","type":"esriFieldTypeString","alias":"MAREA","length":12},{"name":"LANE","type":"esriFieldTypeString","alias":"LANE","length":10},{"name":"ALLEY","type":"esriFieldTypeString","alias":"ALLEY","length":10},{"name":"HOUSE_NO","type":"esriFieldTypeString","alias":"HOUSE_NO","length":20},{"name":"E_COORD97","type":"esriFieldTypeDouble","alias":"E_COORD97"},{"name":"N_COORD97","type":"esriFieldTypeDouble","alias":"N_COORD97"},{"name":"ADDRESS","type":"esriFieldTypeString","alias":"ADDRESS","length":50},{"name":"OBJECTID","type":"esriFieldTypeOID","alias":"OBJECTID"}],"features":[{"attributes":{"ID":649428,"DIS_CODE":0,"TOWNNAME":"關廟區","LI":"東勢里","LIN":"10鄰","STREET":"東榮街","SECT":" ","MAREA":" ","LANE":"２９巷","ALLEY":" ","HOUSE_NO":"１１號","E_COORD97":182001.186105,"N_COORD97":2539391.3374299998,"ADDRESS":"東榮街２９巷１１號","OBJECTID":649401},"geometry":{"x":182001.18610499986,"y":2539391.3374339994}},{"attributes":{"ID":649429,"DIS_CODE":0,"TOWNNAME":"六甲區","LI":"二甲里","LIN":"24鄰","STREET":"中山路","SECT":" ","MAREA":" ","LANE":" ","ALLEY":" ","HOUSE_NO":"１０１之１號","E_COORD97":183407.26113299999,"N_COORD97":2570000.2946500001,"ADDRESS":"中山路１０１之１號","OBJECTID":649402},"geometry":{"x":183407.26113300119,"y":2570000.2946480028}},{"attributes":{"ID":649430,"DIS_CODE":0,"TOWNNAME":"中西區","LI":"普濟里","LIN":"6鄰","STREET":"海安路","SECT":"二段","MAREA":" ","LANE":"３０２巷","ALLEY":" ","HOUSE_NO":"９號","E_COORD97":167825.59703400001,"N_COORD97":2544348.8333100001,"ADDRESS":"海安路二段３０２巷９號","OBJECTID":649403},"geometry":{"x":167825.59703400079,"y":2544348.8333149999}},{"attributes":{"ID":649431,"DIS_CODE":0,"TOWNNAME":"仁德區","LI":"成功里","LIN":"39鄰","STREET":"文賢路","SECT":"一段","MAREA":" ","LANE":" ","ALLEY":" ","HOUSE_NO":"６６號","E_COORD97":170199.06075999999,"N_COORD97":2538168.50177,"ADDRESS":"文賢路一段６６號","OBJECTID":649404},"geometry":{"x":170199.06075999979,"y":2538168.5017680023}},{"attributes":{"ID":649432,"DIS_CODE":0,"TOWNNAME":"仁德區","LI":"成功里","LIN":"39鄰","STREET":"文賢路","SECT":"一段","MAREA":" ","LANE":" ","ALLEY":" ","HOUSE_NO":"６６之１號","E_COORD97":170191.43581699999,"N_COORD97":2538177.8150999998,"ADDRESS":"文賢路一段６６之１號","OBJECTID":649405},"geometry":{"x":170191.43581700046,"y":2538177.8150970023}},{"attributes":{"ID":649433,"DIS_CODE":0,"TOWNNAME":"仁德區","LI":"成功里","LIN":"39鄰","STREET":"文賢路","SECT":"一段","MAREA":" ","LANE":" ","ALLEY":" ","HOUSE_NO":"６６之２號","E_COORD97":170188.36465900001,"N_COORD97":2538184.2709300001,"ADDRESS":"文賢路一段６６之２號","OBJECTID":649406},"geometry":{"x":170188.36465900019,"y":2538184.2709260024}},{"attributes":{"ID":649434,"DIS_CODE":0,"TOWNNAME":"仁德區","LI":"成功里","LIN":"39鄰","STREET":"文賢路","SECT":"一段","MAREA":" ","LANE":" ","ALLEY":" ","HOUSE_NO":"６６之３號","E_COORD97":170184.340383,"N_COORD97":2538191.8909200002,"ADDRESS":"文賢路一段６６之３號","OBJECTID":649407},"geometry":{"x":170184.3403830016,"y":2538191.8909220025}},{"attributes":{"ID":649435,"DIS_CODE":0,"TOWNNAME":"後壁區","LI":"新東里","LIN":"9鄰","STREET":" ","SECT":" ","MAREA":"新港東","LANE":" ","ALLEY":" ","HOUSE_NO":"１００號之８０","E_COORD97":182475.66472999999,"N_COORD97":2582000.67282,"ADDRESS":"新港東１００號之８０","OBJECTID":649408},"geometry":{"x":182475.66473000124,"y":2582000.6728200018}},{"attributes":{"ID":649436,"DIS_CODE":0,"TOWNNAME":"後壁區","LI":"新東里","LIN":"14鄰","STREET":" ","SECT":" ","MAREA":"新港東","LANE":" ","ALLEY":" ","HOUSE_NO":"１４８號之１６","E_COORD97":181332.87592399999,"N_COORD97":2582746.5857500001,"ADDRESS":"新港東１４８號之１６","OBJECTID":649409},"geometry":{"x":181332.87592400052,"y":2582746.5857549999}},{"attributes":{"ID":649437,"DIS_CODE":0,"TOWNNAME":"白河區","LI":"仙草里","LIN":"7鄰","STREET":" ","SECT":" ","MAREA":"仙草","LANE":" ","ALLEY":" ","HOUSE_NO":"８９之２號","E_COORD97":197277.141218,"N_COORD97":2582317.2575099999,"ADDRESS":"仙草８９之２號","OBJECTID":649410},"geometry":{"x":197277.14121799916,"y":2582317.257509999}},{"attributes":{"ID":649438,"DIS_CODE":0,"TOWNNAME":"白河區","LI":"仙草里","LIN":"7鄰","STREET":" ","SECT":" ","MAREA":"仙草","LANE":" ","ALLEY":" ","HOUSE_NO":"９０之８號","E_COORD97":197331.67186900001,"N_COORD97":2582236.2225600001,"ADDRESS":"仙草９０之８號","OBJECTID":649411},"geometry":{"x":197331.67186900135,"y":2582236.222564999}},{"attributes":{"ID":649439,"DIS_CODE":0,"TOWNNAME":"白河區","LI":"仙草里","LIN":"7鄰","STREET":" ","SECT":" ","MAREA":"仙草","LANE":" ","ALLEY":" ","HOUSE_NO":"９０之５號","E_COORD97":197230.78069399999,"N_COORD97":2582227.4093499999,"ADDRESS":"仙草９０之５號","OBJECTID":649412},"geometry":{"x":197230.78069400229,"y":2582227.4093540013}},{"attributes":{"ID":649440,"DIS_CODE":0,"TOWNNAME":"白河區","LI":"仙草里","LIN":"7鄰","STREET":" ","SECT":" ","MAREA":"仙草","LANE":" ","ALLEY":" ","HOUSE_NO":"９０之６號","E_COORD97":197208.010847,"N_COORD97":2582240.63851,"ADDRESS":"仙草９０之６號","OBJECTID":649413},"geometry":{"x":197208.01084700041,"y":2582240.6385140009}},{"attributes":{"ID":649441,"DIS_CODE":0,"TOWNNAME":"新營區","LI":"忠政里","LIN":"31鄰","STREET":"府西路","SECT":" ","MAREA":" ","LANE":"４７巷","ALLEY":" ","HOUSE_NO":"２６號","E_COORD97":179728.66738699999,"N_COORD97":2579040.7787700002,"ADDRESS":"府西路４７巷２６號","OBJECTID":649414},"geometry":{"x":179728.66738700029,"y":2579040.7787700016}},{"attributes":{"ID":649442,"DIS_CODE":0,"TOWNNAME":"後壁區","LI":"新東里","LIN":"1鄰","STREET":" ","SECT":" ","MAREA":"新港東","LANE":" ","ALLEY":" ","HOUSE_NO":"２之１０號","E_COORD97":181248.47931600001,"N_COORD97":2581985.3439699998,"ADDRESS":"新港東２之１０號","OBJECTID":649415},"geometry":{"x":181248.4793159999,"y":2581985.3439730033}},{"attributes":{"ID":649443,"DIS_CODE":0,"TOWNNAME":"新營區","LI":"忠政里","LIN":"31鄰","STREET":"府西路","SECT":" ","MAREA":" ","LANE":" ","ALLEY":" ","HOUSE_NO":"２５號","E_COORD97":179814.055922,"N_COORD97":2578953.0429799999,"ADDRESS":"府西路２５號","OBJECTID":649416},"geometry":{"x":179814.0559220016,"y":2578953.0429839976}},{"attributes":{"ID":649444,"DIS_CODE":0,"TOWNNAME":"安南區","LI":"佃東里","LIN":"1鄰","STREET":"海佃路","SECT":"四段","MAREA":" ","LANE":"３８８巷","ALLEY":"６弄","HOUSE_NO":"４９號","E_COORD97":165775.14056999999,"N_COORD97":2551561.5159300002,"ADDRESS":"海佃路四段３８８巷６弄４９號","OBJECTID":649417},"geometry":{"x":165775.14057000075,"y":2551561.5159249995}},{"attributes":{"ID":649445,"DIS_CODE":0,"TOWNNAME":"安平區","LI":"石門里","LIN":"17鄰","STREET":"平生路","SECT":" ","MAREA":" ","LANE":" ","ALLEY":" ","HOUSE_NO":"４２號之１","E_COORD97":164339.92094000001,"N_COORD97":2544605.68884,"ADDRESS":"平生路４２號之１","OBJECTID":649418},"geometry":{"x":164339.92094000056,"y":2544605.6888400018}},{"attributes":{"ID":649446,"DIS_CODE":0,"TOWNNAME":"安平區","LI":"石門里","LIN":"17鄰","STREET":"平生路","SECT":" ","MAREA":" ","LANE":" ","ALLEY":" ","HOUSE_NO":"４２號之２","E_COORD97":164343.73527999999,"N_COORD97":2544603.9955000002,"ADDRESS":"平生路４２號之２","OBJECTID":649419},"geometry":{"x":164343.73527999967,"y":2544603.9955000002}},{"attributes":{"ID":649447,"DIS_CODE":0,"TOWNNAME":"安平區","LI":"石門里","LIN":"17鄰","STREET":"平生路","SECT":" ","MAREA":" ","LANE":" ","ALLEY":" ","HOUSE_NO":"４２號之３","E_COORD97":164346.91389,"N_COORD97":2544603.1488399999,"ADDRESS":"平生路４２號之３","OBJECTID":649420},"geometry":{"x":164346.91389000136,"y":2544603.148839999}},{"attributes":{"ID":649448,"DIS_CODE":0,"TOWNNAME":"安南區","LI":"佃東里","LIN":"6鄰","STREET":"公學路","SECT":"四段","MAREA":" ","LANE":"１２２巷","ALLEY":"２７２弄","HOUSE_NO":"１６０號之１５","E_COORD97":165998.94239800001,"N_COORD97":2552586.1937099998,"ADDRESS":"公學路四段１２２巷２７２弄１６０號之１５","OBJECTID":649421},"geometry":{"x":165998.94239800051,"y":2552586.1937050018}},{"attributes":{"ID":649449,"DIS_CODE":0,"TOWNNAME":"安平區","LI":"石門里","LIN":"17鄰","STREET":"平生路","SECT":" ","MAREA":" ","LANE":" ","ALLEY":" ","HOUSE_NO":"４２號之４","E_COORD97":164349.8806,"N_COORD97":2544602.30217,"ADDRESS":"平生路４２號之４","OBJECTID":649422},"geometry":{"x":164349.8805999998,"y":2544602.302170001}},{"attributes":{"ID":649450,"DIS_CODE":0,"TOWNNAME":"後壁區","LI":"新嘉里","LIN":"13鄰","STREET":" ","SECT":" ","MAREA":"白沙屯","LANE":" ","ALLEY":" ","HOUSE_NO":"１３０號之５","E_COORD97":179804.62810999999,"N_COORD97":2585418.62836,"ADDRESS":"白沙屯１３０號之５","OBJECTID":649423},"geometry":{"x":179804.62810999993,"y":2585418.6283599995}},{"attributes":{"ID":649451,"DIS_CODE":0,"TOWNNAME":"後壁區","LI":"新嘉里","LIN":"13鄰","STREET":" ","SECT":" ","MAREA":"白沙屯","LANE":" ","ALLEY":" ","HOUSE_NO":"１３０號之９","E_COORD97":179890.463842,"N_COORD97":2585170.6080900002,"ADDRESS":"白沙屯１３０號之９","OBJECTID":649424},"geometry":{"x":179890.46384199988,"y":2585170.6080869995}},{"attributes":{"ID":649452,"DIS_CODE":0,"TOWNNAME":"安平區","LI":"石門里","LIN":"10鄰","STREET":"安北路","SECT":" ","MAREA":" ","LANE":" ","ALLEY":" ","HOUSE_NO":"３３號之３五樓之３","E_COORD97":164589.12419,"N_COORD97":2544556.1588599999,"ADDRESS":"安北路３３號之３五樓之３","OBJECTID":649425},"geometry":{"x":164589.12419000082,"y":2544556.1588600017}},{"attributes":{"ID":649453,"DIS_CODE":0,"TOWNNAME":"安平區","LI":"石門里","LIN":"16鄰","STREET":"安北路","SECT":" ","MAREA":" ","LANE":"８６巷","ALLEY":" ","HOUSE_NO":"１０號之１","E_COORD97":164491.646736,"N_COORD97":2544724.8571100002,"ADDRESS":"安北路８６巷１０號之１","OBJECTID":649426},"geometry":{"x":164491.64673600066,"y":2544724.857108999}},{"attributes":{"ID":649454,"DIS_CODE":0,"TOWNNAME":"安南區","LI":"佃東里","LIN":"6鄰","STREET":"公學路","SECT":"四段","MAREA":" ","LANE":"１２２巷","ALLEY":"２７２弄","HOUSE_NO":"１６０號","E_COORD97":165997.24853300001,"N_COORD97":2552583.6537100002,"ADDRESS":"公學路四段１２２巷２７２弄１６０號","OBJECTID":649427},"geometry":{"x":165997.24853300117,"y":2552583.6537059993}},{"attributes":{"ID":649455,"DIS_CODE":0,"TOWNNAME":"安平區","LI":"石門里","LIN":"16鄰","STREET":"安北路","SECT":" ","MAREA":" ","LANE":"８６巷","ALLEY":" ","HOUSE_NO":"１０號之２","E_COORD97":164491.646736,"N_COORD97":2544724.8571100002,"ADDRESS":"安北路８６巷１０號之２","OBJECTID":649428},"geometry":{"x":164491.64673600066,"y":2544724.857108999}},{"attributes":{"ID":649456,"DIS_CODE":0,"TOWNNAME":"安平區","LI":"石門里","LIN":"16鄰","STREET":"安北路","SECT":" ","MAREA":" ","LANE":"８６巷","ALLEY":" ","HOUSE_NO":"１０號之３","E_COORD97":164491.646736,"N_COORD97":2544724.8571100002,"ADDRESS":"安北路８６巷１０號之３","OBJECTID":649429},"geometry":{"x":164491.64673600066,"y":2544724.857108999}},{"attributes":{"ID":649457,"DIS_CODE":0,"TOWNNAME":"安平區","LI":"石門里","LIN":"16鄰","STREET":"安北路","SECT":" ","MAREA":" ","LANE":"８６巷","ALLEY":" ","HOUSE_NO":"１０號之４","E_COORD97":164491.646736,"N_COORD97":2544724.8571100002,"ADDRESS":"安北路８６巷１０號之４","OBJECTID":649430},"geometry":{"x":164491.64673600066,"y":2544724.857108999}},{"attributes":{"ID":649458,"DIS_CODE":0,"TOWNNAME":"安南區","LI":"佃東里","LIN":"6鄰","STREET":"公學路","SECT":"四段","MAREA":" ","LANE":"１２２巷","ALLEY":"２７２弄","HOUSE_NO":"１６０之１６號","E_COORD97":166011.64637999999,"N_COORD97":2552597.2003700002,"ADDRESS":"公學路四段１２２巷２７２弄１６０之１６號","OBJECTID":649431},"geometry":{"x":166011.64637999982,"y":2552597.2003660016}},{"attributes":{"ID":649459,"DIS_CODE":0,"TOWNNAME":"後壁區","LI":"新嘉里","LIN":"13鄰","STREET":" ","SECT":" ","MAREA":"白沙屯","LANE":" ","ALLEY":" ","HOUSE_NO":"１５３號之２２","E_COORD97":179564.065676,"N_COORD97":2585227.7580599999,"ADDRESS":"白沙屯１５３號之２２","OBJECTID":649432},"geometry":{"x":179564.06567599997,"y":2585227.758055998}},{"attributes":{"ID":649460,"DIS_CODE":0,"TOWNNAME":"安平區","LI":"石門里","LIN":"16鄰","STREET":"安北路","SECT":" ","MAREA":" ","LANE":"８６巷","ALLEY":" ","HOUSE_NO":"１２號之１","E_COORD97":164486.13714000001,"N_COORD97":2544736.2870999998,"ADDRESS":"安北路８６巷１２號之１","OBJECTID":649433},"geometry":{"x":164486.13714000024,"y":2544736.287103001}},{"attributes":{"ID":649461,"DIS_CODE":0,"TOWNNAME":"安平區","LI":"石門里","LIN":"16鄰","STREET":"安北路","SECT":" ","MAREA":" ","LANE":"８６巷","ALLEY":" ","HOUSE_NO":"１２號之２","E_COORD97":164486.13714000001,"N_COORD97":2544736.2870999998,"ADDRESS":"安北路８６巷１２號之２","OBJECTID":649434},"geometry":{"x":164486.13714000024,"y":2544736.287103001}},{"attributes":{"ID":649462,"DIS_CODE":0,"TOWNNAME":"安平區","LI":"石門里","LIN":"16鄰","STREET":"安北路","SECT":" ","MAREA":" ","LANE":"８６巷","ALLEY":" ","HOUSE_NO":"１２號之４","E_COORD97":164486.13714000001,"N_COORD97":2544736.2870999998,"ADDRESS":"安北路８６巷１２號之４","OBJECTID":649435},"geometry":{"x":164486.13714000024,"y":2544736.287103001}},{"attributes":{"ID":649463,"DIS_CODE":0,"TOWNNAME":"安南區","LI":"佃東里","LIN":"6鄰","STREET":"公學路","SECT":"四段","MAREA":" ","LANE":"１２２巷","ALLEY":"２７２弄","HOUSE_NO":"１６０之１３號","E_COORD97":166011.85811299999,"N_COORD97":2552605.6670300001,"ADDRESS":"公學路四段１２２巷２７２弄１６０之１３號","OBJECTID":649436},"geometry":{"x":166011.85811300017,"y":2552605.6670280024}},{"attributes":{"ID":649464,"DIS_CODE":0,"TOWNNAME":"安平區","LI":"石門里","LIN":"16鄰","STREET":"安北路","SECT":" ","MAREA":" ","LANE":"８６巷","ALLEY":" ","HOUSE_NO":"１４號之１","E_COORD97":164490.16338300001,"N_COORD97":2544742.2137699998,"ADDRESS":"安北路８６巷１４號之１","OBJECTID":649437},"geometry":{"x":164490.16338300053,"y":2544742.2137660012}},{"attributes":{"ID":649465,"DIS_CODE":0,"TOWNNAME":"安平區","LI":"石門里","LIN":"16鄰","STREET":"安北路","SECT":" ","MAREA":" ","LANE":"８６巷","ALLEY":" ","HOUSE_NO":"１４號之２","E_COORD97":164490.16338300001,"N_COORD97":2544742.2137699998,"ADDRESS":"安北路８６巷１４號之２","OBJECTID":649438},"geometry":{"x":164490.16338300053,"y":2544742.2137660012}},{"attributes":{"ID":649466,"DIS_CODE":0,"TOWNNAME":"安平區","LI":"石門里","LIN":"16鄰","STREET":"安北路","SECT":" ","MAREA":" ","LANE":"８６巷","ALLEY":" ","HOUSE_NO":"１４號之３","E_COORD97":164490.16338300001,"N_COORD97":2544742.2137699998,"ADDRESS":"安北路８６巷１４號之３","OBJECTID":649439},"geometry":{"x":164490.16338300053,"y":2544742.2137660012}},{"attributes":{"ID":649467,"DIS_CODE":0,"TOWNNAME":"安平區","LI":"石門里","LIN":"16鄰","STREET":"安北路","SECT":" ","MAREA":" ","LANE":"８６巷","ALLEY":" ","HOUSE_NO":"１４號之４","E_COORD97":164490.16338300001,"N_COORD97":2544742.2137699998,"ADDRESS":"安北路８６巷１４號之４","OBJECTID":649440},"geometry":{"x":164490.16338300053,"y":2544742.2137660012}},{"attributes":{"ID":649468,"DIS_CODE":0,"TOWNNAME":"安平區","LI":"石門里","LIN":"16鄰","STREET":"安北路","SECT":" ","MAREA":" ","LANE":"８６巷","ALLEY":" ","HOUSE_NO":"１６號之２","E_COORD97":164503.08974200001,"N_COORD97":2544735.8637700002,"ADDRESS":"安北路８６巷１６號之２","OBJECTID":649441},"geometry":{"x":164503.08974200021,"y":2544735.8637690041}},{"attributes":{"ID":649469,"DIS_CODE":0,"TOWNNAME":"安平區","LI":"石門里","LIN":"16鄰","STREET":"安北路","SECT":" ","MAREA":" ","LANE":"８６巷","ALLEY":" ","HOUSE_NO":"１６號之３","E_COORD97":164503.08974200001,"N_COORD97":2544735.8637700002,"ADDRESS":"安北路８６巷１６號之３","OBJECTID":649442},"geometry":{"x":164503.08974200021,"y":2544735.8637690041}},{"attributes":{"ID":649470,"DIS_CODE":0,"TOWNNAME":"安南區","LI":"佃東里","LIN":"14鄰","STREET":"公學路","SECT":"三段","MAREA":" ","LANE":"３６０巷","ALLEY":" ","HOUSE_NO":"８０號","E_COORD97":166329.24594699999,"N_COORD97":2552221.49223,"ADDRESS":"公學路三段３６０巷８０號","OBJECTID":649443},"geometry":{"x":166329.24594700057,"y":2552221.4922350012}},{"attributes":{"ID":649471,"DIS_CODE":0,"TOWNNAME":"安南區","LI":"佃東里","LIN":"6鄰","STREET":"公學路","SECT":"四段","MAREA":" ","LANE":"１２２巷","ALLEY":"２７２弄","HOUSE_NO":"３１號","E_COORD97":166329.24594699999,"N_COORD97":2552221.49223,"ADDRESS":"公學路四段１２２巷２７２弄３１號","OBJECTID":649444},"geometry":{"x":166329.24594700057,"y":2552221.4922350012}},{"attributes":{"ID":649472,"DIS_CODE":0,"TOWNNAME":"六甲區","LI":"二甲里","LIN":"21鄰","STREET":"中山路","SECT":" ","MAREA":" ","LANE":"２０９巷","ALLEY":" ","HOUSE_NO":"５７號","E_COORD97":183130.27522499999,"N_COORD97":2569970.2098699999,"ADDRESS":"中山路２０９巷５７號","OBJECTID":649445},"geometry":{"x":183130.27522500139,"y":2569970.2098719999}},{"attributes":{"ID":649473,"DIS_CODE":0,"TOWNNAME":"安南區","LI":"佃東里","LIN":"6鄰","STREET":"公學路","SECT":"四段","MAREA":" ","LANE":"１２２巷","ALLEY":"２７２弄","HOUSE_NO":"２１６號","E_COORD97":166016.09277399999,"N_COORD97":2552613.4986899998,"ADDRESS":"公學路四段１２２巷２７２弄２１６號","OBJECTID":649446},"geometry":{"x":166016.09277400002,"y":2552613.4986900035}},{"attributes":{"ID":649474,"DIS_CODE":0,"TOWNNAME":"安南區","LI":"佃東里","LIN":"1鄰","STREET":"海佃路","SECT":"四段","MAREA":" ","LANE":"３８８巷","ALLEY":"２弄","HOUSE_NO":"１６之６０號","E_COORD97":165842.04821199999,"N_COORD97":2551420.7576700002,"ADDRESS":"海佃路四段３８８巷２弄１６之６０號","OBJECTID":649447},"geometry":{"x":165842.04821200017,"y":2551420.7576680016}},{"attributes":{"ID":649475,"DIS_CODE":0,"TOWNNAME":"安南區","LI":"佃東里","LIN":"1鄰","STREET":"海佃路","SECT":"四段","MAREA":" ","LANE":"３８８巷","ALLEY":"２弄","HOUSE_NO":"１６之６１號","E_COORD97":165847.97673699999,"N_COORD97":2551419.6993399998,"ADDRESS":"海佃路四段３８８巷２弄１６之６１號","OBJECTID":649448},"geometry":{"x":165847.97673700098,"y":2551419.6993349995}},{"attributes":{"ID":649476,"DIS_CODE":0,"TOWNNAME":"安南區","LI":"佃東里","LIN":"16鄰","STREET":"海佃路","SECT":"四段","MAREA":" ","LANE":"３８８巷","ALLEY":"１３４弄","HOUSE_NO":"１１６之７０號","E_COORD97":165936.269417,"N_COORD97":2551679.2025299999,"ADDRESS":"海佃路四段３８８巷１３４弄１１６之７０號","OBJECTID":649449},"geometry":{"x":165936.26941700093,"y":2551679.2025280036}},{"attributes":{"ID":649477,"DIS_CODE":0,"TOWNNAME":"安南區","LI":"佃東里","LIN":"1鄰","STREET":"海佃路","SECT":"四段","MAREA":" ","LANE":"３８８巷","ALLEY":"２弄","HOUSE_NO":"１５８號","E_COORD97":165913.402248,"N_COORD97":2551373.34436,"ADDRESS":"海佃路四段３８８巷２弄１５８號","OBJECTID":649450},"geometry":{"x":165913.40224800073,"y":2551373.3443600032}},{"attributes":{"ID":649478,"DIS_CODE":0,"TOWNNAME":"後壁區","LI":"新嘉里","LIN":"15鄰","STREET":" ","SECT":" ","MAREA":"白沙屯","LANE":" ","ALLEY":" ","HOUSE_NO":"１６０號之２６","E_COORD97":179373.81998500001,"N_COORD97":2584587.2877000002,"ADDRESS":"白沙屯１６０號之２６","OBJECTID":649451},"geometry":{"x":179373.81998500135,"y":2584587.2876980044}},{"attributes":{"ID":649479,"DIS_CODE":0,"TOWNNAME":"安南區","LI":"佃東里","LIN":"13鄰","STREET":"公學路","SECT":"四段","MAREA":" ","LANE":"１２２巷","ALLEY":"４８弄","HOUSE_NO":"３０之１號","E_COORD97":165682.82496200001,"N_COORD97":2552172.5972600002,"ADDRESS":"公學路四段１２２巷４８弄３０之１號","OBJECTID":649452},"geometry":{"x":165682.82496200036,"y":2552172.5972619988}},{"attributes":{"ID":649480,"DIS_CODE":0,"TOWNNAME":"安南區","LI":"佃東里","LIN":"1鄰","STREET":"海佃路","SECT":"四段","MAREA":" ","LANE":"３８８巷","ALLEY":"２弄","HOUSE_NO":"２２６號","E_COORD97":166036.41914700001,"N_COORD97":2551365.5126999998,"ADDRESS":"海佃路四段３８８巷２弄２２６號","OBJECTID":649453},"geometry":{"x":166036.41914699972,"y":2551365.5126980022}},{"attributes":{"ID":649481,"DIS_CODE":0,"TOWNNAME":"白河區","LI":"外角里","LIN":"7鄰","STREET":"三民路","SECT":" ","MAREA":" ","LANE":" ","ALLEY":" ","HOUSE_NO":"２５６號","E_COORD97":190725.64453300001,"N_COORD97":2583296.1723099998,"ADDRESS":"三民路２５６號","OBJECTID":649454},"geometry":{"x":190725.64453300089,"y":2583296.1723120008}},{"attributes":{"ID":649482,"DIS_CODE":0,"TOWNNAME":"安南區","LI":"佃東里","LIN":"18鄰","STREET":"公學路","SECT":"四段","MAREA":" ","LANE":"２巷","ALLEY":" ","HOUSE_NO":"１１３之１號","E_COORD97":166040.44206999999,"N_COORD97":2552434.2171200002,"ADDRESS":"公學路四段２巷１１３之１號","OBJECTID":649455},"geometry":{"x":166040.44207000174,"y":2552434.2171200011}},{"attributes":{"ID":649483,"DIS_CODE":0,"TOWNNAME":"後壁區","LI":"新嘉里","LIN":"1鄰","STREET":" ","SECT":" ","MAREA":"白沙屯","LANE":" ","ALLEY":" ","HOUSE_NO":"１號之７５","E_COORD97":180184.837883,"N_COORD97":2584863.30088,"ADDRESS":"白沙屯１號之７５","OBJECTID":649456},"geometry":{"x":180184.83788300026,"y":2584863.3008820005}},{"attributes":{"ID":649484,"DIS_CODE":0,"TOWNNAME":"安平區","LI":"育平里","LIN":"36鄰","STREET":"平豐路","SECT":" ","MAREA":" ","LANE":" ","ALLEY":" ","HOUSE_NO":"２１０號七樓之１","E_COORD97":164324.02788400001,"N_COORD97":2543336.95952,"ADDRESS":"平豐路２１０號七樓之１","OBJECTID":649457},"geometry":{"x":164324.02788399998,"y":2543336.959525004}},{"attributes":{"ID":649485,"DIS_CODE":0,"TOWNNAME":"安平區","LI":"育平里","LIN":"36鄰","STREET":"平豐路","SECT":" ","MAREA":" ","LANE":" ","ALLEY":" ","HOUSE_NO":"２１０號七樓之２","E_COORD97":164324.02788400001,"N_COORD97":2543336.95952,"ADDRESS":"平豐路２１０號七樓之２","OBJECTID":649458},"geometry":{"x":164324.02788399998,"y":2543336.959525004}},{"attributes":{"ID":649486,"DIS_CODE":0,"TOWNNAME":"安平區","LI":"育平里","LIN":"36鄰","STREET":"平豐路","SECT":" ","MAREA":" ","LANE":" ","ALLEY":" ","HOUSE_NO":"２１０號七樓之３","E_COORD97":164324.02788400001,"N_COORD97":2543336.95952,"ADDRESS":"平豐路２１０號七樓之３","OBJECTID":649459},"geometry":{"x":164324.02788399998,"y":2543336.959525004}},{"attributes":{"ID":649487,"DIS_CODE":0,"TOWNNAME":"安平區","LI":"育平里","LIN":"36鄰","STREET":"平豐路","SECT":" ","MAREA":" ","LANE":" ","ALLEY":" ","HOUSE_NO":"２１０號七樓之４","E_COORD97":164324.02788400001,"N_COORD97":2543336.95952,"ADDRESS":"平豐路２１０號七樓之４","OBJECTID":649460},"geometry":{"x":164324.02788399998,"y":2543336.959525004}},{"attributes":{"ID":649488,"DIS_CODE":0,"TOWNNAME":"安平區","LI":"育平里","LIN":"36鄰","STREET":"平豐路","SECT":" ","MAREA":" ","LANE":" ","ALLEY":" ","HOUSE_NO":"２１０號七樓之５","E_COORD97":164324.02788400001,"N_COORD97":2543336.95952,"ADDRESS":"平豐路２１０號七樓之５","OBJECTID":649461},"geometry":{"x":164324.02788399998,"y":2543336.959525004}},{"attributes":{"ID":649489,"DIS_CODE":0,"TOWNNAME":"新營區","LI":"忠政里","LIN":"32鄰","STREET":"民治路","SECT":" ","MAREA":" ","LANE":" ","ALLEY":" ","HOUSE_NO":"５０之１號","E_COORD97":179775.70524000001,"N_COORD97":2578861.9205299998,"ADDRESS":"民治路５０之１號","OBJECTID":649462},"geometry":{"x":179775.7052400019,"y":2578861.9205330033}},{"attributes":{"ID":649490,"DIS_CODE":0,"TOWNNAME":"白河區","LI":"外角里","LIN":"8鄰","STREET":" ","SECT":" ","MAREA":"客庄內","LANE":" ","ALLEY":" ","HOUSE_NO":"７號","E_COORD97":190729.67095999999,"N_COORD97":2583415.6051599998,"ADDRESS":"客庄內７號","OBJECTID":649463},"geometry":{"x":190729.67096000072,"y":2583415.6051599998}},{"attributes":{"ID":649491,"DIS_CODE":0,"TOWNNAME":"後壁區","LI":"新嘉里","LIN":"21鄰","STREET":" ","SECT":" ","MAREA":"白沙屯","LANE":" ","ALLEY":" ","HOUSE_NO":"２２７號之１","E_COORD97":179452.95724399999,"N_COORD97":2585583.3111200002,"ADDRESS":"白沙屯２２７號之１","OBJECTID":649464},"geometry":{"x":179452.9572440004,"y":2585583.3111189995}},{"attributes":{"ID":649492,"DIS_CODE":0,"TOWNNAME":"新營區","LI":"忠政里","LIN":"32鄰","STREET":"民治路","SECT":" ","MAREA":" ","LANE":" ","ALLEY":" ","HOUSE_NO":"５０之２號","E_COORD97":179772.527007,"N_COORD97":2578862.1321999999,"ADDRESS":"民治路５０之２號","OBJECTID":649465},"geometry":{"x":179772.52700700052,"y":2578862.1321999989}},{"attributes":{"ID":649493,"DIS_CODE":0,"TOWNNAME":"安平區","LI":"育平里","LIN":"36鄰","STREET":"平豐路","SECT":" ","MAREA":" ","LANE":" ","ALLEY":" ","HOUSE_NO":"２１０號之２","E_COORD97":164323.392162,"N_COORD97":2543336.74786,"ADDRESS":"平豐路２１０號之２","OBJECTID":649466},"geometry":{"x":164323.39216200076,"y":2543336.7478580028}},{"attributes":{"ID":649494,"DIS_CODE":0,"TOWNNAME":"安平區","LI":"育平里","LIN":"36鄰","STREET":"平豐路","SECT":" ","MAREA":" ","LANE":" ","ALLEY":" ","HOUSE_NO":"２１０號之３","E_COORD97":164323.392162,"N_COORD97":2543336.74786,"ADDRESS":"平豐路２１０號之３","OBJECTID":649467},"geometry":{"x":164323.39216200076,"y":2543336.7478580028}},{"attributes":{"ID":649495,"DIS_CODE":0,"TOWNNAME":"安平區","LI":"育平里","LIN":"1鄰","STREET":"永華路","SECT":"二段","MAREA":" ","LANE":" ","ALLEY":" ","HOUSE_NO":"８１９號之１","E_COORD97":164755.47160300001,"N_COORD97":2543515.3944299999,"ADDRESS":"永華路二段８１９號之１","OBJECTID":649468},"geometry":{"x":164755.47160299961,"y":2543515.3944279999}},{"attributes":{"ID":649496,"DIS_CODE":0,"TOWNNAME":"六甲區","LI":"龜港里","LIN":"5鄰","STREET":" ","SECT":" ","MAREA":"龜子港","LANE":"３１巷","ALLEY":" ","HOUSE_NO":"３號","E_COORD97":179779.11029000001,"N_COORD97":2571733.8961299998,"ADDRESS":"龜子港３１巷３號","OBJECTID":649469},"geometry":{"x":179779.11028999928,"y":2571733.8961340003}},{"attributes":{"ID":649497,"DIS_CODE":0,"TOWNNAME":"東山區","LI":"東中里","LIN":"17鄰","STREET":"達雲路","SECT":"一段","MAREA":" ","LANE":" ","ALLEY":" ","HOUSE_NO":"３６之１號","E_COORD97":189044.45678899999,"N_COORD97":2580032.0384300002,"ADDRESS":"達雲路一段３６之１號","OBJECTID":649470},"geometry":{"x":189044.45678900089,"y":2580032.038431}},{"attributes":{"ID":649498,"DIS_CODE":0,"TOWNNAME":"安南區","LI":"\u25A0南里","LIN":"9鄰","STREET":"安昌街","SECT":" ","MAREA":" ","LANE":"２４２巷","ALLEY":" ","HOUSE_NO":"１７號","E_COORD97":170183.64172799999,"N_COORD97":2552608.6754999999,"ADDRESS":"安昌街２４２巷１７號","OBJECTID":649471},"geometry":{"x":170183.64172799978,"y":2552608.6754950024}},{"attributes":{"ID":649499,"DIS_CODE":0,"TOWNNAME":"新營區","LI":"忠政里","LIN":"33鄰","STREET":"中正路","SECT":" ","MAREA":" ","LANE":"３７巷","ALLEY":" ","HOUSE_NO":"１８０之２號","E_COORD97":179909.44431399999,"N_COORD97":2579160.0297400001,"ADDRESS":"中正路３７巷１８０之２號","OBJECTID":649472},"geometry":{"x":179909.44431400113,"y":2579160.0297390018}},{"attributes":{"ID":649500,"DIS_CODE":0,"TOWNNAME":"新營區","LI":"王公里","LIN":"16鄰","STREET":"大仁街","SECT":" ","MAREA":" ","LANE":" ","ALLEY":" ","HOUSE_NO":"２２號","E_COORD97":180233.19016,"N_COORD97":2579369.20628,"ADDRESS":"大仁街２２號","OBJECTID":649473},"geometry":{"x":180233.1901600007,"y":2579369.2062840015}},{"attributes":{"ID":649501,"DIS_CODE":0,"TOWNNAME":"新營區","LI":"忠政里","LIN":"33鄰","STREET":"中正路","SECT":" ","MAREA":" ","LANE":"３７巷","ALLEY":" ","HOUSE_NO":"１８０之３號","E_COORD97":179905.41855199999,"N_COORD97":2579160.2414099998,"ADDRESS":"中正路３７巷１８０之３號","OBJECTID":649474},"geometry":{"x":179905.41855200008,"y":2579160.241404999}},{"attributes":{"ID":649502,"DIS_CODE":0,"TOWNNAME":"新營區","LI":"王公里","LIN":"16鄰","STREET":"大仁街","SECT":" ","MAREA":" ","LANE":" ","ALLEY":" ","HOUSE_NO":"２６號","E_COORD97":180242.72169899999,"N_COORD97":2579368.99462,"ADDRESS":"大仁街２６號","OBJECTID":649475},"geometry":{"x":180242.7216989994,"y":2579368.9946170002}},{"attributes":{"ID":649503,"DIS_CODE":0,"TOWNNAME":"後壁區","LI":"新東里","LIN":"11鄰","STREET":" ","SECT":" ","MAREA":"新港東","LANE":" ","ALLEY":" ","HOUSE_NO":"１２２號之８","E_COORD97":181581.201649,"N_COORD97":2582150.1565100001,"ADDRESS":"新港東１２２號之８","OBJECTID":649476},"geometry":{"x":181581.20164900087,"y":2582150.1565060019}},{"attributes":{"ID":649504,"DIS_CODE":0,"TOWNNAME":"新營區","LI":"王公里","LIN":"16鄰","STREET":"大仁街","SECT":" ","MAREA":" ","LANE":" ","ALLEY":" ","HOUSE_NO":"２８號","E_COORD97":180247.381563,"N_COORD97":2579368.99462,"ADDRESS":"大仁街２８號","OBJECTID":649477},"geometry":{"x":180247.38156300224,"y":2579368.9946170002}},{"attributes":{"ID":649505,"DIS_CODE":0,"TOWNNAME":"安平區","LI":"育平里","LIN":"32鄰","STREET":"育平路","SECT":" ","MAREA":" ","LANE":" ","ALLEY":" ","HOUSE_NO":"５２號","E_COORD97":164565.14919699999,"N_COORD97":2543067.2317499998,"ADDRESS":"育平路５２號","OBJECTID":649478},"geometry":{"x":164565.14919700008,"y":2543067.2317529991}},{"attributes":{"ID":649506,"DIS_CODE":0,"TOWNNAME":"新營區","LI":"王公里","LIN":"16鄰","STREET":"大仁街","SECT":" ","MAREA":" ","LANE":" ","ALLEY":" ","HOUSE_NO":"３號","E_COORD97":180180.87260199999,"N_COORD97":2579380.00128,"ADDRESS":"大仁街３號","OBJECTID":649479},"geometry":{"x":180180.8726019999,"y":2579380.001278}},{"attributes":{"ID":649507,"DIS_CODE":0,"TOWNNAME":"新營區","LI":"王公里","LIN":"16鄰","STREET":"大仁街","SECT":" ","MAREA":" ","LANE":" ","ALLEY":" ","HOUSE_NO":"７號","E_COORD97":180191.88682499999,"N_COORD97":2579382.75294,"ADDRESS":"大仁街７號","OBJECTID":649480},"geometry":{"x":180191.88682499994,"y":2579382.7529430017}},{"attributes":{"ID":649508,"DIS_CODE":0,"TOWNNAME":"新營區","LI":"王公里","LIN":"16鄰","STREET":"大仁街","SECT":" ","MAREA":" ","LANE":" ","ALLEY":" ","HOUSE_NO":"９號","E_COORD97":180195.69944,"N_COORD97":2579383.1762799998,"ADDRESS":"大仁街９號","OBJECTID":649481},"geometry":{"x":180195.69944000151,"y":2579383.1762760002}},{"attributes":{"ID":649509,"DIS_CODE":0,"TOWNNAME":"新營區","LI":"王公里","LIN":"16鄰","STREET":"大仁街","SECT":" ","MAREA":" ","LANE":" ","ALLEY":" ","HOUSE_NO":"１３號","E_COORD97":180203.96010699999,"N_COORD97":2579381.48294,"ADDRESS":"大仁街１３號","OBJECTID":649482},"geometry":{"x":180203.96010700054,"y":2579381.4829440024}},{"attributes":{"ID":649510,"DIS_CODE":0,"TOWNNAME":"新營區","LI":"王公里","LIN":"16鄰","STREET":"大仁街","SECT":" ","MAREA":" ","LANE":" ","ALLEY":" ","HOUSE_NO":"１５號","E_COORD97":180208.61997100001,"N_COORD97":2579381.9062800002,"ADDRESS":"大仁街１５號","OBJECTID":649483},"geometry":{"x":180208.61997100059,"y":2579381.9062770009}},{"attributes":{"ID":649511,"DIS_CODE":0,"TOWNNAME":"新營區","LI":"王公里","LIN":"16鄰","STREET":"大仁街","SECT":" ","MAREA":" ","LANE":" ","ALLEY":" ","HOUSE_NO":"１７號","E_COORD97":180213.27983399999,"N_COORD97":2579381.9062800002,"ADDRESS":"大仁街１７號","OBJECTID":649484},"geometry":{"x":180213.27983400133,"y":2579381.9062770009}},{"attributes":{"ID":649512,"DIS_CODE":0,"TOWNNAME":"安南區","LI":"\u25A0南里","LIN":"26鄰","STREET":"長和路","SECT":"二段","MAREA":" ","LANE":"１２巷","ALLEY":"２９９弄","HOUSE_NO":"５６之１號","E_COORD97":170216.87892300001,"N_COORD97":2552302.17447,"ADDRESS":"長和路二段１２巷２９９弄５６之１號","OBJECTID":649485},"geometry":{"x":170216.87892300077,"y":2552302.1744740009}},{"attributes":{"ID":649513,"DIS_CODE":0,"TOWNNAME":"新營區","LI":"王公里","LIN":"16鄰","STREET":"大仁街","SECT":" ","MAREA":" ","LANE":" ","ALLEY":" ","HOUSE_NO":"１９號","E_COORD97":180217.09245,"N_COORD97":2579382.1179399998,"ADDRESS":"大仁街１９號","OBJECTID":649486},"geometry":{"x":180217.09245000128,"y":2579382.1179430019}},{"attributes":{"ID":649514,"DIS_CODE":0,"TOWNNAME":"新營區","LI":"王公里","LIN":"16鄰","STREET":"大仁街","SECT":" ","MAREA":" ","LANE":" ","ALLEY":" ","HOUSE_NO":"１８號","E_COORD97":180214.97433,"N_COORD97":2579367.5129499999,"ADDRESS":"大仁街１８號","OBJECTID":649487},"geometry":{"x":180214.97433000151,"y":2579367.5129509997}},{"attributes":{"ID":649515,"DIS_CODE":0,"TOWNNAME":"新營區","LI":"王公里","LIN":"16鄰","STREET":"大仁街","SECT":" ","MAREA":" ","LANE":" ","ALLEY":" ","HOUSE_NO":"２５號","E_COORD97":180230.64841600001,"N_COORD97":2579381.6946100001,"ADDRESS":"大仁街２５號","OBJECTID":649488},"geometry":{"x":180230.64841600042,"y":2579381.6946099997}},{"attributes":{"ID":649516,"DIS_CODE":0,"TOWNNAME":"新營區","LI":"王公里","LIN":"16鄰","STREET":"大仁街","SECT":" ","MAREA":" ","LANE":" ","ALLEY":" ","HOUSE_NO":"３３號","E_COORD97":180240.179955,"N_COORD97":2579382.8587799999,"ADDRESS":"大仁街３３號","OBJECTID":649489},"geometry":{"x":180240.17995500006,"y":2579382.8587760031}},{"attributes":{"ID":649517,"DIS_CODE":0,"TOWNNAME":"新營區","LI":"王公里","LIN":"16鄰","STREET":"大仁街","SECT":" ","MAREA":" ","LANE":" ","ALLEY":" ","HOUSE_NO":"３５號","E_COORD97":180246.534315,"N_COORD97":2579383.0704399999,"ADDRESS":"大仁街３５號","OBJECTID":649490},"geometry":{"x":180246.53431499936,"y":2579383.0704430044}},{"attributes":{"ID":649518,"DIS_CODE":0,"TOWNNAME":"新營區","LI":"王公里","LIN":"16鄰","STREET":"大仁街","SECT":" ","MAREA":" ","LANE":" ","ALLEY":" ","HOUSE_NO":"３９號","E_COORD97":180262.84383699999,"N_COORD97":2579383.28211,"ADDRESS":"大仁街３９號","OBJECTID":649491},"geometry":{"x":180262.84383700043,"y":2579383.2821090017}},{"attributes":{"ID":649519,"DIS_CODE":0,"TOWNNAME":"新營區","LI":"王公里","LIN":"16鄰","STREET":"大仁街","SECT":" ","MAREA":" ","LANE":" ","ALLEY":" ","HOUSE_NO":"４１號","E_COORD97":180267.5037,"N_COORD97":2579383.7054400002,"ADDRESS":"大仁街４１號","OBJECTID":649492},"geometry":{"x":180267.50370000023,"y":2579383.7054420002}},{"attributes":{"ID":649520,"DIS_CODE":0,"TOWNNAME":"新營區","LI":"王公里","LIN":"16鄰","STREET":"大仁街","SECT":" ","MAREA":" ","LANE":" ","ALLEY":" ","HOUSE_NO":"４３號","E_COORD97":180275.97618,"N_COORD97":2579383.7054400002,"ADDRESS":"大仁街４３號","OBJECTID":649493},"geometry":{"x":180275.97618000023,"y":2579383.7054420002}},{"attributes":{"ID":649521,"DIS_CODE":0,"TOWNNAME":"白河區","LI":"汴頭里","LIN":"7鄰","STREET":" ","SECT":" ","MAREA":"五汴頭","LANE":" ","ALLEY":" ","HOUSE_NO":"２０之８號","E_COORD97":194304.322575,"N_COORD97":2585315.4866399998,"ADDRESS":"五汴頭２０之８號","OBJECTID":649494},"geometry":{"x":194304.32257500011,"y":2585315.4866439998}},{"attributes":{"ID":649522,"DIS_CODE":0,"TOWNNAME":"新營區","LI":"王公里","LIN":"16鄰","STREET":"大仁街","SECT":" ","MAREA":" ","LANE":" ","ALLEY":" ","HOUSE_NO":"４５號","E_COORD97":180279.788795,"N_COORD97":2579383.9171099998,"ADDRESS":"大仁街４５號","OBJECTID":649495},"geometry":{"x":180279.78879500087,"y":2579383.9171090014}},{"attributes":{"ID":649523,"DIS_CODE":0,"TOWNNAME":"新化區","LI":"豐榮里","LIN":"7鄰","STREET":"大智路","SECT":" ","MAREA":" ","LANE":" ","ALLEY":" ","HOUSE_NO":"２２０號（網室）","E_COORD97":177930.65601999999,"N_COORD97":2548020.0121399998,"ADDRESS":"大智路２２０號","OBJECTID":649496},"geometry":{"x":177930.65602000058,"y":2548020.0121400002}},{"attributes":{"ID":649524,"DIS_CODE":0,"TOWNNAME":"新營區","LI":"王公里","LIN":"16鄰","STREET":"大仁街","SECT":" ","MAREA":" ","LANE":" ","ALLEY":" ","HOUSE_NO":"４９號之２","E_COORD97":180292.28570199999,"N_COORD97":2579402.3321000002,"ADDRESS":"大仁街４９號之２","OBJECTID":649497},"geometry":{"x":180292.28570200037,"y":2579402.3320990019}},{"attributes":{"ID":649525,"DIS_CODE":0,"TOWNNAME":"新營區","LI":"王公里","LIN":"16鄰","STREET":"大仁街","SECT":" ","MAREA":" ","LANE":" ","ALLEY":" ","HOUSE_NO":"４９號之３","E_COORD97":180296.945565,"N_COORD97":2579402.7554299999,"ADDRESS":"大仁街４９號之３","OBJECTID":649498},"geometry":{"x":180296.94556500111,"y":2579402.7554320004}},{"attributes":{"ID":649526,"DIS_CODE":0,"TOWNNAME":"後壁區","LI":"新東里","LIN":"9鄰","STREET":" ","SECT":" ","MAREA":"新港東","LANE":" ","ALLEY":" ","HOUSE_NO":"１００號之２３","E_COORD97":181666.984425,"N_COORD97":2582339.8097399999,"ADDRESS":"新港東１００號之２３","OBJECTID":649499},"geometry":{"x":181666.98442500085,"y":2582339.8097369988}},{"attributes":{"ID":649527,"DIS_CODE":0,"TOWNNAME":"新營區","LI":"王公里","LIN":"16鄰","STREET":"大仁街","SECT":" ","MAREA":" ","LANE":" ","ALLEY":" ","HOUSE_NO":"４３之２號","E_COORD97":180276.18799199999,"N_COORD97":2579408.8937599999,"ADDRESS":"大仁街４３之２號","OBJECTID":649500},"geometry":{"x":180276.18799199909,"y":2579408.8937620018}},{"attributes":{"ID":649528,"DIS_CODE":0,"TOWNNAME":"安平區","LI":"育平里","LIN":"32鄰","STREET":"育平路","SECT":" ","MAREA":" ","LANE":" ","ALLEY":" ","HOUSE_NO":"６８號","E_COORD97":164585.916134,"N_COORD97":2543084.80008,"ADDRESS":"育平路６８號","OBJECTID":649501},"geometry":{"x":164585.91613399982,"y":2543084.8000760041}},{"attributes":{"ID":649529,"DIS_CODE":0,"TOWNNAME":"新營區","LI":"王公里","LIN":"16鄰","STREET":"大仁街","SECT":" ","MAREA":" ","LANE":" ","ALLEY":" ","HOUSE_NO":"４１號之１","E_COORD97":180264.538333,"N_COORD97":2579401.4854299999,"ADDRESS":"大仁街４１號之１","OBJECTID":649502},"geometry":{"x":180264.53833299968,"y":2579401.4854330011}},{"attributes":{"ID":649530,"DIS_CODE":0,"TOWNNAME":"白河區","LI":"汴頭里","LIN":"3鄰","STREET":" ","SECT":" ","MAREA":"林子內","LANE":" ","ALLEY":" ","HOUSE_NO":"２８之３號","E_COORD97":195108.78316699999,"N_COORD97":2585015.6609700001,"ADDRESS":"林子內２８之３號","OBJECTID":649503},"geometry":{"x":195108.78316699993,"y":2585015.6609729994}},{"attributes":{"ID":649531,"DIS_CODE":0,"TOWNNAME":"安南區","LI":"\u25A0南里","LIN":"26鄰","STREET":"長和路","SECT":"二段","MAREA":" ","LANE":"１２巷","ALLEY":"２９９弄","HOUSE_NO":"５６號","E_COORD97":170220.78494499999,"N_COORD97":2552301.9830100001,"ADDRESS":"長和路二段１２巷２９９弄５６號","OBJECTID":649504},"geometry":{"x":170220.78494500089,"y":2552301.9830109999}},{"attributes":{"ID":649532,"DIS_CODE":0,"TOWNNAME":"安南區","LI":"\u25A0南里","LIN":"26鄰","STREET":"長和路","SECT":"二段","MAREA":" ","LANE":"１２巷","ALLEY":"２９９弄","HOUSE_NO":"５８號","E_COORD97":170213.388274,"N_COORD97":2552302.6992500001,"ADDRESS":"長和路二段１２巷２９９弄５８號","OBJECTID":649505},"geometry":{"x":170213.38827400189,"y":2552302.6992500033}},{"attributes":{"ID":649533,"DIS_CODE":0,"TOWNNAME":"新營區","LI":"忠政里","LIN":"29鄰","STREET":"中正路","SECT":" ","MAREA":" ","LANE":"３９巷","ALLEY":" ","HOUSE_NO":"１７５號","E_COORD97":179718.07327600001,"N_COORD97":2579266.5393699999,"ADDRESS":"中正路３９巷１７５號","OBJECTID":649506},"geometry":{"x":179718.0732760001,"y":2579266.5393650047}},{"attributes":{"ID":649534,"DIS_CODE":0,"TOWNNAME":"六甲區","LI":"菁埔里","LIN":"6鄰","STREET":" ","SECT":" ","MAREA":"菁埔","LANE":" ","ALLEY":" ","HOUSE_NO":"２００號","E_COORD97":178677.02826200001,"N_COORD97":2570171.0549400002,"ADDRESS":"菁埔２００號","OBJECTID":649507},"geometry":{"x":178677.0282619996,"y":2570171.0549390018}},{"attributes":{"ID":649535,"DIS_CODE":0,"TOWNNAME":"新營區","LI":"王公里","LIN":"16鄰","STREET":"大仁街","SECT":" ","MAREA":" ","LANE":" ","ALLEY":" ","HOUSE_NO":"３４號","E_COORD97":180265.36225000001,"N_COORD97":2579370.1291800002,"ADDRESS":"大仁街３４號","OBJECTID":649508},"geometry":{"x":180265.36225000117,"y":2579370.1291809976}},{"attributes":{"ID":649536,"DIS_CODE":0,"TOWNNAME":"安南區","LI":"\u25A0南里","LIN":"26鄰","STREET":"長和路","SECT":"二段","MAREA":" ","LANE":"１２巷","ALLEY":"２９９弄","HOUSE_NO":"６０號","E_COORD97":170209.099892,"N_COORD97":2552303.6652700002,"ADDRESS":"長和路二段１２巷２９９弄６０號","OBJECTID":649509},"geometry":{"x":170209.09989200067,"y":2552303.6652700026}},{"attributes":{"ID":649537,"DIS_CODE":0,"TOWNNAME":"新營區","LI":"王公里","LIN":"16鄰","STREET":"大仁街","SECT":" ","MAREA":" ","LANE":" ","ALLEY":" ","HOUSE_NO":"３６號","E_COORD97":180270.76345500001,"N_COORD97":2579370.1291800002,"ADDRESS":"大仁街３６號","OBJECTID":649510},"geometry":{"x":180270.76345500071,"y":2579370.1291809976}},{"attributes":{"ID":649538,"DIS_CODE":0,"TOWNNAME":"安南區","LI":"\u25A0南里","LIN":"26鄰","STREET":"長和路","SECT":"二段","MAREA":" ","LANE":"１２巷","ALLEY":"２９９弄","HOUSE_NO":"６２號","E_COORD97":170204.22330000001,"N_COORD97":2552303.1553000002,"ADDRESS":"長和路二段１２巷２９９弄６２號","OBJECTID":649511},"geometry":{"x":170204.22329999972,"y":2552303.1552959979}},{"attributes":{"ID":649539,"DIS_CODE":0,"TOWNNAME":"新營區","LI":"王公里","LIN":"16鄰","STREET":"大仁街","SECT":" ","MAREA":" ","LANE":" ","ALLEY":" ","HOUSE_NO":"３８號","E_COORD97":180274.89378899999,"N_COORD97":2579370.0233499999,"ADDRESS":"大仁街３８號","OBJECTID":649512},"geometry":{"x":180274.89378900081,"y":2579370.0233480018}},{"attributes":{"ID":649540,"DIS_CODE":0,"TOWNNAME":"新營區","LI":"王公里","LIN":"16鄰","STREET":"大仁街","SECT":" ","MAREA":" ","LANE":" ","ALLEY":" ","HOUSE_NO":"４０號","E_COORD97":180278.176875,"N_COORD97":2579370.1291800002,"ADDRESS":"大仁街４０號","OBJECTID":649513},"geometry":{"x":180278.17687500175,"y":2579370.1291809976}},{"attributes":{"ID":649541,"DIS_CODE":0,"TOWNNAME":"新營區","LI":"王公里","LIN":"16鄰","STREET":"大仁街","SECT":" ","MAREA":" ","LANE":" ","ALLEY":" ","HOUSE_NO":"４２號","E_COORD97":180282.62492599999,"N_COORD97":2579370.1291800002,"ADDRESS":"大仁街４２號","OBJECTID":649514},"geometry":{"x":180282.62492600083,"y":2579370.1291809976}},{"attributes":{"ID":649542,"DIS_CODE":0,"TOWNNAME":"新營區","LI":"王公里","LIN":"16鄰","STREET":"大仁街","SECT":" ","MAREA":" ","LANE":" ","ALLEY":" ","HOUSE_NO":"２號","E_COORD97":180173.01222800001,"N_COORD97":2579366.8483500001,"ADDRESS":"大仁街２號","OBJECTID":649515},"geometry":{"x":180173.01222800184,"y":2579366.8483500015}},{"attributes":{"ID":649543,"DIS_CODE":0,"TOWNNAME":"新營區","LI":"王公里","LIN":"16鄰","STREET":"大仁街","SECT":" ","MAREA":" ","LANE":" ","ALLEY":" ","HOUSE_NO":"１０號","E_COORD97":180196.311545,"N_COORD97":2579367.5891800001,"ADDRESS":"大仁街１０號","OBJECTID":649516},"geometry":{"x":180196.31154500134,"y":2579367.5891820043}},{"attributes":{"ID":649544,"DIS_CODE":0,"TOWNNAME":"新營區","LI":"王公里","LIN":"16鄰","STREET":"大仁街","SECT":" ","MAREA":" ","LANE":" ","ALLEY":" ","HOUSE_NO":"１２號","E_COORD97":180200.547785,"N_COORD97":2579367.69502,"ADDRESS":"大仁街１２號","OBJECTID":649517},"geometry":{"x":180200.54778500088,"y":2579367.6950159986}},{"attributes":{"ID":649545,"DIS_CODE":0,"TOWNNAME":"新營區","LI":"王公里","LIN":"16鄰","STREET":"大仁街","SECT":" ","MAREA":" ","LANE":" ","ALLEY":" ","HOUSE_NO":"２１號","E_COORD97":180228.50696599999,"N_COORD97":2579368.8591800001,"ADDRESS":"大仁街２１號","OBJECTID":649518},"geometry":{"x":180228.50696600135,"y":2579368.859182002}},{"attributes":{"ID":649546,"DIS_CODE":0,"TOWNNAME":"六甲區","LI":"菁埔里","LIN":"6鄰","STREET":" ","SECT":" ","MAREA":"菁埔","LANE":" ","ALLEY":" ","HOUSE_NO":"２０８號","E_COORD97":178535.28895799999,"N_COORD97":2570185.8716000002,"ADDRESS":"菁埔２０８號","OBJECTID":649519},"geometry":{"x":178535.28895800002,"y":2570185.8715979997}},{"attributes":{"ID":649547,"DIS_CODE":0,"TOWNNAME":"後壁區","LI":"新東里","LIN":"14鄰","STREET":" ","SECT":" ","MAREA":"新港東","LANE":" ","ALLEY":" ","HOUSE_NO":"１４８號之２５","E_COORD97":181462.16480999999,"N_COORD97":2582413.6813599998,"ADDRESS":"新港東１４８號之２５","OBJECTID":649520},"geometry":{"x":181462.16481000092,"y":2582413.6813640017}},{"attributes":{"ID":649548,"DIS_CODE":0,"TOWNNAME":"新營區","LI":"忠政里","LIN":"27鄰","STREET":"中正路","SECT":" ","MAREA":" ","LANE":"３９巷","ALLEY":" ","HOUSE_NO":"１０５號","E_COORD97":179900.33337800001,"N_COORD97":2579332.5793300001,"ADDRESS":"中正路３９巷１０５號","OBJECTID":649521},"geometry":{"x":179900.33337800112,"y":2579332.5793290026}},{"attributes":{"ID":649549,"DIS_CODE":0,"TOWNNAME":"新營區","LI":"忠政里","LIN":"27鄰","STREET":"中正路","SECT":" ","MAREA":" ","LANE":"３９巷","ALLEY":" ","HOUSE_NO":"１１１號","E_COORD97":179882.53527200001,"N_COORD97":2579328.5576599999,"ADDRESS":"中正路３９巷１１１號","OBJECTID":649522},"geometry":{"x":179882.53527200129,"y":2579328.5576640014}},{"attributes":{"ID":649550,"DIS_CODE":0,"TOWNNAME":"後壁區","LI":"烏樹里","LIN":"13鄰","STREET":" ","SECT":" ","MAREA":"烏樹林","LANE":" ","ALLEY":" ","HOUSE_NO":"３８６號（農業設施不","E_COORD97":187037.37930900001,"N_COORD97":2582569.6011800002,"ADDRESS":"烏樹林３８６號（農業設施不得作為設籍使用）","OBJECTID":649523},"geometry":{"x":187037.37930900045,"y":2582569.6011770032}},{"attributes":{"ID":649551,"DIS_CODE":0,"TOWNNAME":"後壁區","LI":"新東里","LIN":"14鄰","STREET":" ","SECT":" ","MAREA":"新港東","LANE":" ","ALLEY":" ","HOUSE_NO":"１４８號之３５","E_COORD97":180797.507155,"N_COORD97":2582638.0479100002,"ADDRESS":"新港東１４８號之３５","OBJECTID":649524},"geometry":{"x":180797.50715500023,"y":2582638.0479100011}},{"attributes":{"ID":649552,"DIS_CODE":0,"TOWNNAME":"安平區","LI":"育平里","LIN":"32鄰","STREET":"育平路","SECT":" ","MAREA":" ","LANE":" ","ALLEY":" ","HOUSE_NO":"５２號三樓之１","E_COORD97":164564.93728899999,"N_COORD97":2543066.8084200001,"ADDRESS":"育平路５２號三樓之１","OBJECTID":649525},"geometry":{"x":164564.93728900049,"y":2543066.8084190004}},{"attributes":{"ID":649553,"DIS_CODE":0,"TOWNNAME":"安平區","LI":"育平里","LIN":"32鄰","STREET":"育平路","SECT":" ","MAREA":" ","LANE":" ","ALLEY":" ","HOUSE_NO":"５２號三樓之２","E_COORD97":164564.93728899999,"N_COORD97":2543066.8084200001,"ADDRESS":"育平路５２號三樓之２","OBJECTID":649526},"geometry":{"x":164564.93728900049,"y":2543066.8084190004}},{"attributes":{"ID":649554,"DIS_CODE":0,"TOWNNAME":"安平區","LI":"育平里","LIN":"32鄰","STREET":"育平路","SECT":" ","MAREA":" ","LANE":" ","ALLEY":" ","HOUSE_NO":"５２號三樓之３","E_COORD97":164564.93728899999,"N_COORD97":2543066.8084200001,"ADDRESS":"育平路５２號三樓之３","OBJECTID":649527},"geometry":{"x":164564.93728900049,"y":2543066.8084190004}},{"attributes":{"ID":649555,"DIS_CODE":0,"TOWNNAME":"安平區","LI":"育平里","LIN":"32鄰","STREET":"育平路","SECT":" ","MAREA":" ","LANE":" ","ALLEY":" ","HOUSE_NO":"５２號三樓之５","E_COORD97":164564.93728899999,"N_COORD97":2543066.8084200001,"ADDRESS":"育平路５２號三樓之５","OBJECTID":649528},"geometry":{"x":164564.93728900049,"y":2543066.8084190004}},{"attributes":{"ID":649556,"DIS_CODE":0,"TOWNNAME":"七股區","LI":"大埕里","LIN":"3鄰","STREET":" ","SECT":" ","MAREA":"大埕","LANE":" ","ALLEY":" ","HOUSE_NO":"８１號","E_COORD97":162942.62022899999,"N_COORD97":2561056.6092599998,"ADDRESS":"大埕８１號","OBJECTID":649529},"geometry":{"x":162942.62022900116,"y":2561056.6092620008}},{"attributes":{"ID":649557,"DIS_CODE":0,"TOWNNAME":"安平區","LI":"育平里","LIN":"32鄰","STREET":"育平路","SECT":" ","MAREA":" ","LANE":" ","ALLEY":" ","HOUSE_NO":"５２號三樓之６","E_COORD97":164564.93728899999,"N_COORD97":2543066.8084200001,"ADDRESS":"育平路５２號三樓之６","OBJECTID":649530},"geometry":{"x":164564.93728900049,"y":2543066.8084190004}},{"attributes":{"ID":649558,"DIS_CODE":0,"TOWNNAME":"安平區","LI":"育平里","LIN":"32鄰","STREET":"育平路","SECT":" ","MAREA":" ","LANE":" ","ALLEY":" ","HOUSE_NO":"５２號三樓之７","E_COORD97":164564.93728899999,"N_COORD97":2543066.8084200001,"ADDRESS":"育平路５２號三樓之７","OBJECTID":649531},"geometry":{"x":164564.93728900049,"y":2543066.8084190004}},{"attributes":{"ID":649559,"DIS_CODE":0,"TOWNNAME":"安平區","LI":"育平里","LIN":"32鄰","STREET":"育平路","SECT":" ","MAREA":" ","LANE":" ","ALLEY":" ","HOUSE_NO":"５２號三樓之８","E_COORD97":164564.93728899999,"N_COORD97":2543066.8084200001,"ADDRESS":"育平路５２號三樓之８","OBJECTID":649532},"geometry":{"x":164564.93728900049,"y":2543066.8084190004}},{"attributes":{"ID":649560,"DIS_CODE":0,"TOWNNAME":"安平區","LI":"育平里","LIN":"32鄰","STREET":"育平路","SECT":" ","MAREA":" ","LANE":" ","ALLEY":" ","HOUSE_NO":"５２號四樓之１","E_COORD97":164564.93728899999,"N_COORD97":2543066.8084200001,"ADDRESS":"育平路５２號四樓之１","OBJECTID":649533},"geometry":{"x":164564.93728900049,"y":2543066.8084190004}},{"attributes":{"ID":649561,"DIS_CODE":0,"TOWNNAME":"安平區","LI":"育平里","LIN":"32鄰","STREET":"育平路","SECT":" ","MAREA":" ","LANE":" ","ALLEY":" ","HOUSE_NO":"５２號四樓之２","E_COORD97":164564.93728899999,"N_COORD97":2543066.8084200001,"ADDRESS":"育平路５２號四樓之２","OBJECTID":649534},"geometry":{"x":164564.93728900049,"y":2543066.8084190004}},{"attributes":{"ID":649562,"DIS_CODE":0,"TOWNNAME":"安平區","LI":"育平里","LIN":"32鄰","STREET":"育平路","SECT":" ","MAREA":" ","LANE":" ","ALLEY":" ","HOUSE_NO":"５２號四樓之３","E_COORD97":164564.93728899999,"N_COORD97":2543066.8084200001,"ADDRESS":"育平路５２號四樓之３","OBJECTID":649535},"geometry":{"x":164564.93728900049,"y":2543066.8084190004}},{"attributes":{"ID":649563,"DIS_CODE":0,"TOWNNAME":"安平區","LI":"育平里","LIN":"32鄰","STREET":"育平路","SECT":" ","MAREA":" ","LANE":" ","ALLEY":" ","HOUSE_NO":"５２號四樓之５","E_COORD97":164564.93728899999,"N_COORD97":2543066.8084200001,"ADDRESS":"育平路５２號四樓之５","OBJECTID":649536},"geometry":{"x":164564.93728900049,"y":2543066.8084190004}},{"attributes":{"ID":649564,"DIS_CODE":0,"TOWNNAME":"安平區","LI":"育平里","LIN":"32鄰","STREET":"育平路","SECT":" ","MAREA":" ","LANE":" ","ALLEY":" ","HOUSE_NO":"５２號四樓之６","E_COORD97":164564.93728899999,"N_COORD97":2543066.8084200001,"ADDRESS":"育平路５２號四樓之６","OBJECTID":649537},"geometry":{"x":164564.93728900049,"y":2543066.8084190004}},{"attributes":{"ID":649565,"DIS_CODE":0,"TOWNNAME":"安平區","LI":"育平里","LIN":"32鄰","STREET":"育平路","SECT":" ","MAREA":" ","LANE":" ","ALLEY":" ","HOUSE_NO":"５２號四樓之７","E_COORD97":164564.93728899999,"N_COORD97":2543066.8084200001,"ADDRESS":"育平路５２號四樓之７","OBJECTID":649538},"geometry":{"x":164564.93728900049,"y":2543066.8084190004}},{"attributes":{"ID":649566,"DIS_CODE":0,"TOWNNAME":"安平區","LI":"育平里","LIN":"32鄰","STREET":"育平路","SECT":" ","MAREA":" ","LANE":" ","ALLEY":" ","HOUSE_NO":"５２號四樓之８","E_COORD97":164564.93728899999,"N_COORD97":2543066.8084200001,"ADDRESS":"育平路５２號四樓之８","OBJECTID":649539},"geometry":{"x":164564.93728900049,"y":2543066.8084190004}},{"attributes":{"ID":649567,"DIS_CODE":0,"TOWNNAME":"安平區","LI":"育平里","LIN":"32鄰","STREET":"育平路","SECT":" ","MAREA":" ","LANE":" ","ALLEY":" ","HOUSE_NO":"５２號五樓之２","E_COORD97":164564.93728899999,"N_COORD97":2543066.8084200001,"ADDRESS":"育平路５２號五樓之２","OBJECTID":649540},"geometry":{"x":164564.93728900049,"y":2543066.8084190004}},{"attributes":{"ID":649568,"DIS_CODE":0,"TOWNNAME":"安平區","LI":"育平里","LIN":"32鄰","STREET":"育平路","SECT":" ","MAREA":" ","LANE":" ","ALLEY":" ","HOUSE_NO":"５２號五樓之３","E_COORD97":164564.93728899999,"N_COORD97":2543066.8084200001,"ADDRESS":"育平路５２號五樓之３","OBJECTID":649541},"geometry":{"x":164564.93728900049,"y":2543066.8084190004}},{"attributes":{"ID":649569,"DIS_CODE":0,"TOWNNAME":"安平區","LI":"育平里","LIN":"32鄰","STREET":"育平路","SECT":" ","MAREA":" ","LANE":" ","ALLEY":" ","HOUSE_NO":"５２號五樓之５","E_COORD97":164564.93728899999,"N_COORD97":2543066.8084200001,"ADDRESS":"育平路５２號五樓之５","OBJECTID":649542},"geometry":{"x":164564.93728900049,"y":2543066.8084190004}},{"attributes":{"ID":649570,"DIS_CODE":0,"TOWNNAME":"安平區","LI":"育平里","LIN":"32鄰","STREET":"育平路","SECT":" ","MAREA":" ","LANE":" ","ALLEY":" ","HOUSE_NO":"５２號五樓之６","E_COORD97":164564.93728899999,"N_COORD97":2543066.8084200001,"ADDRESS":"育平路５２號五樓之６","OBJECTID":649543},"geometry":{"x":164564.93728900049,"y":2543066.8084190004}},{"attributes":{"ID":649571,"DIS_CODE":0,"TOWNNAME":"安平區","LI":"育平里","LIN":"32鄰","STREET":"育平路","SECT":" ","MAREA":" ","LANE":" ","ALLEY":" ","HOUSE_NO":"５２號五樓之７","E_COORD97":164564.93728899999,"N_COORD97":2543066.8084200001,"ADDRESS":"育平路５２號五樓之７","OBJECTID":649544},"geometry":{"x":164564.93728900049,"y":2543066.8084190004}},{"attributes":{"ID":649572,"DIS_CODE":0,"TOWNNAME":"安平區","LI":"育平里","LIN":"32鄰","STREET":"育平路","SECT":" ","MAREA":" ","LANE":" ","ALLEY":" ","HOUSE_NO":"５２號五樓之８","E_COORD97":164564.93728899999,"N_COORD97":2543066.8084200001,"ADDRESS":"育平路５２號五樓之８","OBJECTID":649545},"geometry":{"x":164564.93728900049,"y":2543066.8084190004}},{"attributes":{"ID":649573,"DIS_CODE":0,"TOWNNAME":"安平區","LI":"育平里","LIN":"32鄰","STREET":"育平路","SECT":" ","MAREA":" ","LANE":" ","ALLEY":" ","HOUSE_NO":"５２號六樓之１","E_COORD97":164564.93728899999,"N_COORD97":2543066.8084200001,"ADDRESS":"育平路５２號六樓之１","OBJECTID":649546},"geometry":{"x":164564.93728900049,"y":2543066.8084190004}},{"attributes":{"ID":649574,"DIS_CODE":0,"TOWNNAME":"安平區","LI":"育平里","LIN":"32鄰","STREET":"育平路","SECT":" ","MAREA":" ","LANE":" ","ALLEY":" ","HOUSE_NO":"５２號六樓之２","E_COORD97":164564.93728899999,"N_COORD97":2543066.8084200001,"ADDRESS":"育平路５２號六樓之２","OBJECTID":649547},"geometry":{"x":164564.93728900049,"y":2543066.8084190004}},{"attributes":{"ID":649575,"DIS_CODE":0,"TOWNNAME":"安平區","LI":"育平里","LIN":"32鄰","STREET":"育平路","SECT":" ","MAREA":" ","LANE":" ","ALLEY":" ","HOUSE_NO":"５２號六樓之３","E_COORD97":164564.93728899999,"N_COORD97":2543066.8084200001,"ADDRESS":"育平路５２號六樓之３","OBJECTID":649548},"geometry":{"x":164564.93728900049,"y":2543066.8084190004}},{"attributes":{"ID":649576,"DIS_CODE":0,"TOWNNAME":"安平區","LI":"育平里","LIN":"32鄰","STREET":"育平路","SECT":" ","MAREA":" ","LANE":" ","ALLEY":" ","HOUSE_NO":"５２號六樓之５","E_COORD97":164564.93728899999,"N_COORD97":2543066.8084200001,"ADDRESS":"育平路５２號六樓之５","OBJECTID":649549},"geometry":{"x":164564.93728900049,"y":2543066.8084190004}},{"attributes":{"ID":649577,"DIS_CODE":0,"TOWNNAME":"安平區","LI":"育平里","LIN":"32鄰","STREET":"育平路","SECT":" ","MAREA":" ","LANE":" ","ALLEY":" ","HOUSE_NO":"５２號六樓之６","E_COORD97":164564.93728899999,"N_COORD97":2543066.8084200001,"ADDRESS":"育平路５２號六樓之６","OBJECTID":649550},"geometry":{"x":164564.93728900049,"y":2543066.8084190004}},{"attributes":{"ID":649578,"DIS_CODE":0,"TOWNNAME":"安平區","LI":"育平里","LIN":"32鄰","STREET":"育平路","SECT":" ","MAREA":" ","LANE":" ","ALLEY":" ","HOUSE_NO":"５２號六樓之７","E_COORD97":164564.93728899999,"N_COORD97":2543066.8084200001,"ADDRESS":"育平路５２號六樓之７","OBJECTID":649551},"geometry":{"x":164564.93728900049,"y":2543066.8084190004}},{"attributes":{"ID":649579,"DIS_CODE":0,"TOWNNAME":"安平區","LI":"育平里","LIN":"32鄰","STREET":"育平路","SECT":" ","MAREA":" ","LANE":" ","ALLEY":" ","HOUSE_NO":"５２號六樓之８","E_COORD97":164564.93728899999,"N_COORD97":2543066.8084200001,"ADDRESS":"育平路５２號六樓之８","OBJECTID":649552},"geometry":{"x":164564.93728900049,"y":2543066.8084190004}},{"attributes":{"ID":649580,"DIS_CODE":0,"TOWNNAME":"安平區","LI":"育平里","LIN":"32鄰","STREET":"育平路","SECT":" ","MAREA":" ","LANE":" ","ALLEY":" ","HOUSE_NO":"５２號七樓之１","E_COORD97":164564.93728899999,"N_COORD97":2543066.8084200001,"ADDRESS":"育平路５２號七樓之１","OBJECTID":649553},"geometry":{"x":164564.93728900049,"y":2543066.8084190004}},{"attributes":{"ID":649581,"DIS_CODE":0,"TOWNNAME":"安平區","LI":"育平里","LIN":"32鄰","STREET":"育平路","SECT":" ","MAREA":" ","LANE":" ","ALLEY":" ","HOUSE_NO":"５２號七樓之２","E_COORD97":164564.93728899999,"N_COORD97":2543066.8084200001,"ADDRESS":"育平路５２號七樓之２","OBJECTID":649554},"geometry":{"x":164564.93728900049,"y":2543066.8084190004}},{"attributes":{"ID":649582,"DIS_CODE":0,"TOWNNAME":"安平區","LI":"育平里","LIN":"32鄰","STREET":"育平路","SECT":" ","MAREA":" ","LANE":" ","ALLEY":" ","HOUSE_NO":"５２號七樓之３","E_COORD97":164564.93728899999,"N_COORD97":2543066.8084200001,"ADDRESS":"育平路５２號七樓之３","OBJECTID":649555},"geometry":{"x":164564.93728900049,"y":2543066.8084190004}},{"attributes":{"ID":649583,"DIS_CODE":0,"TOWNNAME":"安平區","LI":"育平里","LIN":"32鄰","STREET":"育平路","SECT":" ","MAREA":" ","LANE":" ","ALLEY":" ","HOUSE_NO":"５２號七樓之５","E_COORD97":164564.93728899999,"N_COORD97":2543066.8084200001,"ADDRESS":"育平路５２號七樓之５","OBJECTID":649556},"geometry":{"x":164564.93728900049,"y":2543066.8084190004}},{"attributes":{"ID":649584,"DIS_CODE":0,"TOWNNAME":"安平區","LI":"育平里","LIN":"32鄰","STREET":"育平路","SECT":" ","MAREA":" ","LANE":" ","ALLEY":" ","HOUSE_NO":"５２號七樓之６","E_COORD97":164564.93728899999,"N_COORD97":2543066.8084200001,"ADDRESS":"育平路５２號七樓之６","OBJECTID":649557},"geometry":{"x":164564.93728900049,"y":2543066.8084190004}},{"attributes":{"ID":649585,"DIS_CODE":0,"TOWNNAME":"安平區","LI":"育平里","LIN":"32鄰","STREET":"育平路","SECT":" ","MAREA":" ","LANE":" ","ALLEY":" ","HOUSE_NO":"５２號七樓之７","E_COORD97":164564.93728899999,"N_COORD97":2543066.8084200001,"ADDRESS":"育平路５２號七樓之７","OBJECTID":649558},"geometry":{"x":164564.93728900049,"y":2543066.8084190004}},{"attributes":{"ID":649586,"DIS_CODE":0,"TOWNNAME":"安平區","LI":"育平里","LIN":"32鄰","STREET":"育平路","SECT":" ","MAREA":" ","LANE":" ","ALLEY":" ","HOUSE_NO":"５２號七樓之８","E_COORD97":164564.93728899999,"N_COORD97":2543066.8084200001,"ADDRESS":"育平路５２號七樓之８","OBJECTID":649559},"geometry":{"x":164564.93728900049,"y":2543066.8084190004}},{"attributes":{"ID":649587,"DIS_CODE":0,"TOWNNAME":"白河區","LI":"草店里","LIN":"9鄰","STREET":" ","SECT":" ","MAREA":"草店","LANE":" ","ALLEY":" ","HOUSE_NO":"１００之２號","E_COORD97":191104.03049199999,"N_COORD97":2588131.0549900001,"ADDRESS":"草店１００之２號","OBJECTID":649560},"geometry":{"x":191104.03049200214,"y":2588131.0549950022}},{"attributes":{"ID":649588,"DIS_CODE":0,"TOWNNAME":"安平區","LI":"育平里","LIN":"32鄰","STREET":"育平路","SECT":" ","MAREA":" ","LANE":" ","ALLEY":" ","HOUSE_NO":"５２號八樓之１","E_COORD97":164564.30156699999,"N_COORD97":2543066.38509,"ADDRESS":"育平路５２號八樓之１","OBJECTID":649561},"geometry":{"x":164564.30156700127,"y":2543066.3850860018}},{"attributes":{"ID":649589,"DIS_CODE":0,"TOWNNAME":"安平區","LI":"育平里","LIN":"32鄰","STREET":"育平路","SECT":" ","MAREA":" ","LANE":" ","ALLEY":" ","HOUSE_NO":"５２號八樓之２","E_COORD97":164564.30156699999,"N_COORD97":2543066.38509,"ADDRESS":"育平路５２號八樓之２","OBJECTID":649562},"geometry":{"x":164564.30156700127,"y":2543066.3850860018}},{"attributes":{"ID":649590,"DIS_CODE":0,"TOWNNAME":"安平區","LI":"育平里","LIN":"32鄰","STREET":"育平路","SECT":" ","MAREA":" ","LANE":" ","ALLEY":" ","HOUSE_NO":"５２號八樓之３","E_COORD97":164564.30156699999,"N_COORD97":2543066.38509,"ADDRESS":"育平路５２號八樓之３","OBJECTID":649563},"geometry":{"x":164564.30156700127,"y":2543066.3850860018}},{"attributes":{"ID":649591,"DIS_CODE":0,"TOWNNAME":"安平區","LI":"育平里","LIN":"32鄰","STREET":"育平路","SECT":" ","MAREA":" ","LANE":" ","ALLEY":" ","HOUSE_NO":"５２號八樓之５","E_COORD97":164564.30156699999,"N_COORD97":2543066.38509,"ADDRESS":"育平路５２號八樓之５","OBJECTID":649564},"geometry":{"x":164564.30156700127,"y":2543066.3850860018}},{"attributes":{"ID":649592,"DIS_CODE":0,"TOWNNAME":"安平區","LI":"育平里","LIN":"32鄰","STREET":"育平路","SECT":" ","MAREA":" ","LANE":" ","ALLEY":" ","HOUSE_NO":"５２號八樓之６","E_COORD97":164564.30156699999,"N_COORD97":2543066.38509,"ADDRESS":"育平路５２號八樓之６","OBJECTID":649565},"geometry":{"x":164564.30156700127,"y":2543066.3850860018}},{"attributes":{"ID":649593,"DIS_CODE":0,"TOWNNAME":"安平區","LI":"育平里","LIN":"32鄰","STREET":"育平路","SECT":" ","MAREA":" ","LANE":" ","ALLEY":" ","HOUSE_NO":"５２號八樓之７","E_COORD97":164564.30156699999,"N_COORD97":2543066.38509,"ADDRESS":"育平路５２號八樓之７","OBJECTID":649566},"geometry":{"x":164564.30156700127,"y":2543066.3850860018}},{"attributes":{"ID":649594,"DIS_CODE":0,"TOWNNAME":"安平區","LI":"育平里","LIN":"32鄰","STREET":"育平路","SECT":" ","MAREA":" ","LANE":" ","ALLEY":" ","HOUSE_NO":"５２號八樓之８","E_COORD97":164564.30156699999,"N_COORD97":2543066.38509,"ADDRESS":"育平路５２號八樓之８","OBJECTID":649567},"geometry":{"x":164564.30156700127,"y":2543066.3850860018}},{"attributes":{"ID":649595,"DIS_CODE":0,"TOWNNAME":"安平區","LI":"育平里","LIN":"32鄰","STREET":"育平路","SECT":" ","MAREA":" ","LANE":" ","ALLEY":" ","HOUSE_NO":"５２號九樓之１","E_COORD97":164564.30156699999,"N_COORD97":2543066.38509,"ADDRESS":"育平路５２號九樓之１","OBJECTID":649568},"geometry":{"x":164564.30156700127,"y":2543066.3850860018}},{"attributes":{"ID":649596,"DIS_CODE":0,"TOWNNAME":"安平區","LI":"育平里","LIN":"32鄰","STREET":"育平路","SECT":" ","MAREA":" ","LANE":" ","ALLEY":" ","HOUSE_NO":"５２號九樓之２","E_COORD97":164564.30156699999,"N_COORD97":2543066.38509,"ADDRESS":"育平路５２號九樓之２","OBJECTID":649569},"geometry":{"x":164564.30156700127,"y":2543066.3850860018}},{"attributes":{"ID":649597,"DIS_CODE":0,"TOWNNAME":"安平區","LI":"育平里","LIN":"32鄰","STREET":"育平路","SECT":" ","MAREA":" ","LANE":" ","ALLEY":" ","HOUSE_NO":"５２號九樓之３","E_COORD97":164564.30156699999,"N_COORD97":2543066.38509,"ADDRESS":"育平路５２號九樓之３","OBJECTID":649570},"geometry":{"x":164564.30156700127,"y":2543066.3850860018}},{"attributes":{"ID":649598,"DIS_CODE":0,"TOWNNAME":"安平區","LI":"育平里","LIN":"32鄰","STREET":"育平路","SECT":" ","MAREA":" ","LANE":" ","ALLEY":" ","HOUSE_NO":"５２號九樓之５","E_COORD97":164564.30156699999,"N_COORD97":2543066.38509,"ADDRESS":"育平路５２號九樓之５","OBJECTID":649571},"geometry":{"x":164564.30156700127,"y":2543066.3850860018}},{"attributes":{"ID":649599,"DIS_CODE":0,"TOWNNAME":"安平區","LI":"育平里","LIN":"32鄰","STREET":"育平路","SECT":" ","MAREA":" ","LANE":" ","ALLEY":" ","HOUSE_NO":"５２號九樓之６","E_COORD97":164564.30156699999,"N_COORD97":2543066.38509,"ADDRESS":"育平路５２號九樓之６","OBJECTID":649572},"geometry":{"x":164564.30156700127,"y":2543066.3850860018}},{"attributes":{"ID":649600,"DIS_CODE":0,"TOWNNAME":"仁德區","LI":"仁義里","LIN":"1鄰","STREET":"中山路","SECT":" ","MAREA":" ","LANE":" ","ALLEY":" ","HOUSE_NO":"１１５號","E_COORD97":174732.80837799999,"N_COORD97":2541130.5681699999,"ADDRESS":"中山路１１５號","OBJECTID":649573},"geometry":{"x":174732.80837800168,"y":2541130.5681720003}},{"attributes":{"ID":649601,"DIS_CODE":0,"TOWNNAME":"安平區","LI":"育平里","LIN":"32鄰","STREET":"育平路","SECT":" ","MAREA":" ","LANE":" ","ALLEY":" ","HOUSE_NO":"５２號九樓之７","E_COORD97":164564.30156699999,"N_COORD97":2543066.38509,"ADDRESS":"育平路５２號九樓之７","OBJECTID":649574},"geometry":{"x":164564.30156700127,"y":2543066.3850860018}},{"attributes":{"ID":649602,"DIS_CODE":0,"TOWNNAME":"安平區","LI":"育平里","LIN":"32鄰","STREET":"育平路","SECT":" ","MAREA":" ","LANE":" ","ALLEY":" ","HOUSE_NO":"５２號九樓之８","E_COORD97":164564.30156699999,"N_COORD97":2543066.38509,"ADDRESS":"育平路５２號九樓之８","OBJECTID":649575},"geometry":{"x":164564.30156700127,"y":2543066.3850860018}},{"attributes":{"ID":649603,"DIS_CODE":0,"TOWNNAME":"中西區","LI":"水仙里","LIN":"7鄰","STREET":"和平街","SECT":" ","MAREA":" ","LANE":" ","ALLEY":" ","HOUSE_NO":"１２號","E_COORD97":167801.867883,"N_COORD97":2544094.4099699999,"ADDRESS":"和平街１２號","OBJECTID":649576},"geometry":{"x":167801.86788300052,"y":2544094.4099680018}},{"attributes":{"ID":649604,"DIS_CODE":0,"TOWNNAME":"安平區","LI":"育平里","LIN":"32鄰","STREET":"育平路","SECT":" ","MAREA":" ","LANE":" ","ALLEY":" ","HOUSE_NO":"５２號十樓之１","E_COORD97":164564.30156699999,"N_COORD97":2543066.38509,"ADDRESS":"育平路５２號十樓之１","OBJECTID":649577},"geometry":{"x":164564.30156700127,"y":2543066.3850860018}},{"attributes":{"ID":649605,"DIS_CODE":0,"TOWNNAME":"安平區","LI":"育平里","LIN":"32鄰","STREET":"育平路","SECT":" ","MAREA":" ","LANE":" ","ALLEY":" ","HOUSE_NO":"５２號十樓之２","E_COORD97":164564.30156699999,"N_COORD97":2543066.38509,"ADDRESS":"育平路５２號十樓之２","OBJECTID":649578},"geometry":{"x":164564.30156700127,"y":2543066.3850860018}},{"attributes":{"ID":649606,"DIS_CODE":0,"TOWNNAME":"安平區","LI":"育平里","LIN":"32鄰","STREET":"育平路","SECT":" ","MAREA":" ","LANE":" ","ALLEY":" ","HOUSE_NO":"５２號十樓之３","E_COORD97":164564.30156699999,"N_COORD97":2543066.38509,"ADDRESS":"育平路５２號十樓之３","OBJECTID":649579},"geometry":{"x":164564.30156700127,"y":2543066.3850860018}},{"attributes":{"ID":649607,"DIS_CODE":0,"TOWNNAME":"安平區","LI":"育平里","LIN":"32鄰","STREET":"育平路","SECT":" ","MAREA":" ","LANE":" ","ALLEY":" ","HOUSE_NO":"５２號十樓之５","E_COORD97":164564.30156699999,"N_COORD97":2543066.38509,"ADDRESS":"育平路５２號十樓之５","OBJECTID":649580},"geometry":{"x":164564.30156700127,"y":2543066.3850860018}},{"attributes":{"ID":649608,"DIS_CODE":0,"TOWNNAME":"安平區","LI":"育平里","LIN":"32鄰","STREET":"育平路","SECT":" ","MAREA":" ","LANE":" ","ALLEY":" ","HOUSE_NO":"５２號十樓之６","E_COORD97":164564.30156699999,"N_COORD97":2543066.38509,"ADDRESS":"育平路５２號十樓之６","OBJECTID":649581},"geometry":{"x":164564.30156700127,"y":2543066.3850860018}},{"attributes":{"ID":649609,"DIS_CODE":0,"TOWNNAME":"安平區","LI":"育平里","LIN":"32鄰","STREET":"育平路","SECT":" ","MAREA":" ","LANE":" ","ALLEY":" ","HOUSE_NO":"５２號十樓之７","E_COORD97":164564.30156699999,"N_COORD97":2543066.38509,"ADDRESS":"育平路５２號十樓之７","OBJECTID":649582},"geometry":{"x":164564.30156700127,"y":2543066.3850860018}},{"attributes":{"ID":649610,"DIS_CODE":0,"TOWNNAME":"安平區","LI":"育平里","LIN":"32鄰","STREET":"育平路","SECT":" ","MAREA":" ","LANE":" ","ALLEY":" ","HOUSE_NO":"５２號十樓之８","E_COORD97":164564.30156699999,"N_COORD97":2543066.38509,"ADDRESS":"育平路５２號十樓之８","OBJECTID":649583},"geometry":{"x":164564.30156700127,"y":2543066.3850860018}},{"attributes":{"ID":649611,"DIS_CODE":0,"TOWNNAME":"安平區","LI":"育平里","LIN":"32鄰","STREET":"育平路","SECT":" ","MAREA":" ","LANE":" ","ALLEY":" ","HOUSE_NO":"５２號十一樓之１","E_COORD97":164564.30156699999,"N_COORD97":2543066.38509,"ADDRESS":"育平路５２號十一樓之１","OBJECTID":649584},"geometry":{"x":164564.30156700127,"y":2543066.3850860018}},{"attributes":{"ID":649612,"DIS_CODE":0,"TOWNNAME":"安平區","LI":"育平里","LIN":"32鄰","STREET":"育平路","SECT":" ","MAREA":" ","LANE":" ","ALLEY":" ","HOUSE_NO":"５２號十一樓之２","E_COORD97":164564.30156699999,"N_COORD97":2543066.38509,"ADDRESS":"育平路５２號十一樓之２","OBJECTID":649585},"geometry":{"x":164564.30156700127,"y":2543066.3850860018}},{"attributes":{"ID":649613,"DIS_CODE":0,"TOWNNAME":"安平區","LI":"育平里","LIN":"32鄰","STREET":"育平路","SECT":" ","MAREA":" ","LANE":" ","ALLEY":" ","HOUSE_NO":"５２號十一樓之３","E_COORD97":164564.30156699999,"N_COORD97":2543066.38509,"ADDRESS":"育平路５２號十一樓之３","OBJECTID":649586},"geometry":{"x":164564.30156700127,"y":2543066.3850860018}},{"attributes":{"ID":649614,"DIS_CODE":0,"TOWNNAME":"安平區","LI":"育平里","LIN":"32鄰","STREET":"育平路","SECT":" ","MAREA":" ","LANE":" ","ALLEY":" ","HOUSE_NO":"５２號十一樓之５","E_COORD97":164564.30156699999,"N_COORD97":2543066.38509,"ADDRESS":"育平路５２號十一樓之５","OBJECTID":649587},"geometry":{"x":164564.30156700127,"y":2543066.3850860018}},{"attributes":{"ID":649615,"DIS_CODE":0,"TOWNNAME":"安平區","LI":"育平里","LIN":"32鄰","STREET":"育平路","SECT":" ","MAREA":" ","LANE":" ","ALLEY":" ","HOUSE_NO":"５２號十一樓之６","E_COORD97":164564.30156699999,"N_COORD97":2543066.38509,"ADDRESS":"育平路５２號十一樓之６","OBJECTID":649588},"geometry":{"x":164564.30156700127,"y":2543066.3850860018}},{"attributes":{"ID":649616,"DIS_CODE":0,"TOWNNAME":"安平區","LI":"育平里","LIN":"32鄰","STREET":"育平路","SECT":" ","MAREA":" ","LANE":" ","ALLEY":" ","HOUSE_NO":"５２號十一樓之７","E_COORD97":164564.30156699999,"N_COORD97":2543066.38509,"ADDRESS":"育平路５２號十一樓之７","OBJECTID":649589},"geometry":{"x":164564.30156700127,"y":2543066.3850860018}},{"attributes":{"ID":649617,"DIS_CODE":0,"TOWNNAME":"安平區","LI":"育平里","LIN":"32鄰","STREET":"育平路","SECT":" ","MAREA":" ","LANE":" ","ALLEY":" ","HOUSE_NO":"５２號十一樓之８","E_COORD97":164564.30156699999,"N_COORD97":2543066.38509,"ADDRESS":"育平路５２號十一樓之８","OBJECTID":649590},"geometry":{"x":164564.30156700127,"y":2543066.3850860018}},{"attributes":{"ID":649618,"DIS_CODE":0,"TOWNNAME":"安平區","LI":"育平里","LIN":"32鄰","STREET":"育平路","SECT":" ","MAREA":" ","LANE":" ","ALLEY":" ","HOUSE_NO":"５２號十二樓之１","E_COORD97":164564.30156699999,"N_COORD97":2543066.38509,"ADDRESS":"育平路５２號十二樓之１","OBJECTID":649591},"geometry":{"x":164564.30156700127,"y":2543066.3850860018}},{"attributes":{"ID":649619,"DIS_CODE":0,"TOWNNAME":"安平區","LI":"育平里","LIN":"32鄰","STREET":"育平路","SECT":" ","MAREA":" ","LANE":" ","ALLEY":" ","HOUSE_NO":"５２號十二樓之２","E_COORD97":164564.30156699999,"N_COORD97":2543066.38509,"ADDRESS":"育平路５２號十二樓之２","OBJECTID":649592},"geometry":{"x":164564.30156700127,"y":2543066.3850860018}},{"attributes":{"ID":649620,"DIS_CODE":0,"TOWNNAME":"安平區","LI":"育平里","LIN":"32鄰","STREET":"育平路","SECT":" ","MAREA":" ","LANE":" ","ALLEY":" ","HOUSE_NO":"５２號十二樓之３","E_COORD97":164564.30156699999,"N_COORD97":2543066.38509,"ADDRESS":"育平路５２號十二樓之３","OBJECTID":649593},"geometry":{"x":164564.30156700127,"y":2543066.3850860018}},{"attributes":{"ID":649621,"DIS_CODE":0,"TOWNNAME":"安平區","LI":"育平里","LIN":"32鄰","STREET":"育平路","SECT":" ","MAREA":" ","LANE":" ","ALLEY":" ","HOUSE_NO":"５２號十二樓之５","E_COORD97":164564.30156699999,"N_COORD97":2543066.38509,"ADDRESS":"育平路５２號十二樓之５","OBJECTID":649594},"geometry":{"x":164564.30156700127,"y":2543066.3850860018}},{"attributes":{"ID":649622,"DIS_CODE":0,"TOWNNAME":"安平區","LI":"育平里","LIN":"32鄰","STREET":"育平路","SECT":" ","MAREA":" ","LANE":" ","ALLEY":" ","HOUSE_NO":"５２號十二樓之６","E_COORD97":164564.30156699999,"N_COORD97":2543066.38509,"ADDRESS":"育平路５２號十二樓之６","OBJECTID":649595},"geometry":{"x":164564.30156700127,"y":2543066.3850860018}},{"attributes":{"ID":649623,"DIS_CODE":0,"TOWNNAME":"安平區","LI":"育平里","LIN":"32鄰","STREET":"育平路","SECT":" ","MAREA":" ","LANE":" ","ALLEY":" ","HOUSE_NO":"５２號十二樓之７","E_COORD97":164564.30156699999,"N_COORD97":2543066.38509,"ADDRESS":"育平路５２號十二樓之７","OBJECTID":649596},"geometry":{"x":164564.30156700127,"y":2543066.3850860018}},{"attributes":{"ID":649624,"DIS_CODE":0,"TOWNNAME":"安平區","LI":"育平里","LIN":"32鄰","STREET":"育平路","SECT":" ","MAREA":" ","LANE":" ","ALLEY":" ","HOUSE_NO":"５２號十二樓之８","E_COORD97":164564.30156699999,"N_COORD97":2543066.38509,"ADDRESS":"育平路５２號十二樓之８","OBJECTID":649597},"geometry":{"x":164564.30156700127,"y":2543066.3850860018}},{"attributes":{"ID":649625,"DIS_CODE":0,"TOWNNAME":"安平區","LI":"育平里","LIN":"32鄰","STREET":"育平路","SECT":" ","MAREA":" ","LANE":" ","ALLEY":" ","HOUSE_NO":"５２號十三樓之１","E_COORD97":164564.30156699999,"N_COORD97":2543066.38509,"ADDRESS":"育平路５２號十三樓之１","OBJECTID":649598},"geometry":{"x":164564.30156700127,"y":2543066.3850860018}},{"attributes":{"ID":649626,"DIS_CODE":0,"TOWNNAME":"安平區","LI":"育平里","LIN":"32鄰","STREET":"育平路","SECT":" ","MAREA":" ","LANE":" ","ALLEY":" ","HOUSE_NO":"５２號十三樓之２","E_COORD97":164564.30156699999,"N_COORD97":2543066.38509,"ADDRESS":"育平路５２號十三樓之２","OBJECTID":649599},"geometry":{"x":164564.30156700127,"y":2543066.3850860018}},{"attributes":{"ID":649627,"DIS_CODE":0,"TOWNNAME":"安平區","LI":"育平里","LIN":"32鄰","STREET":"育平路","SECT":" ","MAREA":" ","LANE":" ","ALLEY":" ","HOUSE_NO":"５２號十三樓之３","E_COORD97":164564.30156699999,"N_COORD97":2543066.38509,"ADDRESS":"育平路５２號十三樓之３","OBJECTID":649600},"geometry":{"x":164564.30156700127,"y":2543066.3850860018}}]}