{"displayFieldName":"TOWNNAME","fieldAliases":{"ID":"ID","DIS_CODE":"DIS_CODE","TOWNNAME":"TOWNNAME","LI":"LI","LIN":"LIN","STREET":"STREET","SECT":"SECT","MAREA":"MAREA","LANE":"LANE","ALLEY":"ALLEY","HOUSE_NO":"HOUSE_NO","E_COORD97":"E_COORD97","N_COORD97":"N_COORD97","ADDRESS":"ADDRESS","OBJECTID":"OBJECTID"},"geometryType":"esriGeometryPoint","spatialReference":{"wkid":102443,"latestWkid":3826},"fields":[{"name":"ID","type":"esriFieldTypeDouble","alias":"ID"},{"name":"DIS_CODE","type":"esriFieldTypeInteger","alias":"DIS_CODE"},{"name":"TOWNNAME","type":"esriFieldTypeString","alias":"TOWNNAME","length":8},{"name":"LI","type":"esriFieldTypeString","alias":"LI","length":8},{"name":"LIN","type":"esriFieldTypeString","alias":"LIN","length":12},{"name":"STREET","type":"esriFieldTypeString","alias":"STREET","length":20},{"name":"SECT","type":"esriFieldTypeString","alias":"SECT","length":8},{"name":"MAREA","type":"esriFieldTypeString","alias":"MAREA","length":12},{"name":"LANE","type":"esriFieldTypeString","alias":"LANE","length":10},{"name":"ALLEY","type":"esriFieldTypeString","alias":"ALLEY","length":10},{"name":"HOUSE_NO","type":"esriFieldTypeString","alias":"HOUSE_NO","length":20},{"name":"E_COORD97","type":"esriFieldTypeDouble","alias":"E_COORD97"},{"name":"N_COORD97","type":"esriFieldTypeDouble","alias":"N_COORD97"},{"name":"ADDRESS","type":"esriFieldTypeString","alias":"ADDRESS","length":50},{"name":"OBJECTID","type":"esriFieldTypeOID","alias":"OBJECTID"}],"features":[{"attributes":{"ID":452026,"DIS_CODE":0,"TOWNNAME":"中西區","LI":"西賢里","LIN":"20鄰","STREET":"西賢一街","SECT":" ","MAREA":" ","LANE":"１８７巷","ALLEY":" ","HOUSE_NO":"２６號","E_COORD97":165653.60000000001,"N_COORD97":2544980.8799999999,"ADDRESS":"西賢一街１８７巷２６號","OBJECTID":452001},"geometry":{"x":165653.59999999963,"y":2544980.8800000008}},{"attributes":{"ID":452027,"DIS_CODE":0,"TOWNNAME":"中西區","LI":"西賢里","LIN":"20鄰","STREET":"西賢一街","SECT":" ","MAREA":" ","LANE":"１８７巷","ALLEY":" ","HOUSE_NO":"２８號","E_COORD97":165648.10999999999,"N_COORD97":2544981.4300000002,"ADDRESS":"西賢一街１８７巷２８號","OBJECTID":452002},"geometry":{"x":165648.1100000022,"y":2544981.4300000016}},{"attributes":{"ID":452028,"DIS_CODE":0,"TOWNNAME":"中西區","LI":"西賢里","LIN":"20鄰","STREET":"西賢一街","SECT":" ","MAREA":" ","LANE":"１８７巷","ALLEY":" ","HOUSE_NO":"２號","E_COORD97":165681.45999999999,"N_COORD97":2544959.6400000001,"ADDRESS":"西賢一街１８７巷２號","OBJECTID":452003},"geometry":{"x":165681.46000000089,"y":2544959.6400000043}},{"attributes":{"ID":452029,"DIS_CODE":0,"TOWNNAME":"中西區","LI":"西賢里","LIN":"20鄰","STREET":"西賢一街","SECT":" ","MAREA":" ","LANE":"１８７巷","ALLEY":" ","HOUSE_NO":"３０號","E_COORD97":165644.26999999999,"N_COORD97":2544981.29,"ADDRESS":"西賢一街１８７巷３０號","OBJECTID":452004},"geometry":{"x":165644.26999999955,"y":2544981.290000001}},{"attributes":{"ID":452030,"DIS_CODE":0,"TOWNNAME":"中西區","LI":"西賢里","LIN":"20鄰","STREET":"西賢一街","SECT":" ","MAREA":" ","LANE":"１８７巷","ALLEY":" ","HOUSE_NO":"３２號","E_COORD97":165641.39000000001,"N_COORD97":2544981.1499999999,"ADDRESS":"西賢一街１８７巷３２號","OBJECTID":452005},"geometry":{"x":165641.38999999966,"y":2544981.1500000022}},{"attributes":{"ID":452031,"DIS_CODE":0,"TOWNNAME":"中西區","LI":"西賢里","LIN":"20鄰","STREET":"西賢一街","SECT":" ","MAREA":" ","LANE":"１８７巷","ALLEY":" ","HOUSE_NO":"３６號","E_COORD97":165635.76999999999,"N_COORD97":2544980.8799999999,"ADDRESS":"西賢一街１８７巷３６號","OBJECTID":452006},"geometry":{"x":165635.76999999955,"y":2544980.8800000008}},{"attributes":{"ID":452032,"DIS_CODE":0,"TOWNNAME":"中西區","LI":"西賢里","LIN":"20鄰","STREET":"西賢一街","SECT":" ","MAREA":" ","LANE":"１８７巷","ALLEY":" ","HOUSE_NO":"６８號","E_COORD97":165589.32000000001,"N_COORD97":2544962.1800000002,"ADDRESS":"西賢一街１８７巷６８號","OBJECTID":452007},"geometry":{"x":165589.32000000123,"y":2544962.1800000016}},{"attributes":{"ID":452033,"DIS_CODE":0,"TOWNNAME":"中西區","LI":"西賢里","LIN":"20鄰","STREET":"西賢一街","SECT":" ","MAREA":" ","LANE":"１８７巷","ALLEY":" ","HOUSE_NO":"６號","E_COORD97":165677.62,"N_COORD97":2544959.9100000001,"ADDRESS":"西賢一街１８７巷６號","OBJECTID":452008},"geometry":{"x":165677.62000000011,"y":2544959.9100000001}},{"attributes":{"ID":452034,"DIS_CODE":0,"TOWNNAME":"中西區","LI":"西賢里","LIN":"20鄰","STREET":"西賢一街","SECT":" ","MAREA":" ","LANE":"１８７巷","ALLEY":" ","HOUSE_NO":"７０號","E_COORD97":165584.88,"N_COORD97":2544962.5499999998,"ADDRESS":"西賢一街１８７巷７０號","OBJECTID":452009},"geometry":{"x":165584.88000000175,"y":2544962.5500000007}},{"attributes":{"ID":452035,"DIS_CODE":0,"TOWNNAME":"中西區","LI":"西賢里","LIN":"20鄰","STREET":"西賢一街","SECT":" ","MAREA":" ","LANE":"１８７巷","ALLEY":" ","HOUSE_NO":"７２號","E_COORD97":165580.82000000001,"N_COORD97":2544963.1000000001,"ADDRESS":"西賢一街１８７巷７２號","OBJECTID":452010},"geometry":{"x":165580.82000000123,"y":2544963.1000000015}},{"attributes":{"ID":452036,"DIS_CODE":0,"TOWNNAME":"中西區","LI":"西賢里","LIN":"20鄰","STREET":"西賢一街","SECT":" ","MAREA":" ","LANE":"１８７巷","ALLEY":" ","HOUSE_NO":"７６號","E_COORD97":165577.12,"N_COORD97":2544963.29,"ADDRESS":"西賢一街１８７巷７６號","OBJECTID":452011},"geometry":{"x":165577.12000000104,"y":2544963.2899999991}},{"attributes":{"ID":452037,"DIS_CODE":0,"TOWNNAME":"中西區","LI":"西賢里","LIN":"20鄰","STREET":"西賢一街","SECT":" ","MAREA":" ","LANE":"１８７巷","ALLEY":" ","HOUSE_NO":"７８號","E_COORD97":165572.32000000001,"N_COORD97":2544963.8399999999,"ADDRESS":"西賢一街１８７巷７８號","OBJECTID":452012},"geometry":{"x":165572.32000000123,"y":2544963.8399999999}},{"attributes":{"ID":452038,"DIS_CODE":0,"TOWNNAME":"中西區","LI":"西賢里","LIN":"20鄰","STREET":"西賢一街","SECT":" ","MAREA":" ","LANE":"１８７巷","ALLEY":" ","HOUSE_NO":"８０號","E_COORD97":165568.06,"N_COORD97":2544963.8399999999,"ADDRESS":"西賢一街１８７巷８０號","OBJECTID":452013},"geometry":{"x":165568.06000000145,"y":2544963.8399999999}},{"attributes":{"ID":452039,"DIS_CODE":0,"TOWNNAME":"中西區","LI":"西賢里","LIN":"20鄰","STREET":"西賢一街","SECT":" ","MAREA":" ","LANE":"１８７巷","ALLEY":" ","HOUSE_NO":"８號","E_COORD97":165673.09,"N_COORD97":2544960.0499999998,"ADDRESS":"西賢一街１８７巷８號","OBJECTID":452014},"geometry":{"x":165673.09000000171,"y":2544960.0500000007}},{"attributes":{"ID":452040,"DIS_CODE":0,"TOWNNAME":"安南區","LI":"溪東里","LIN":"20鄰","STREET":"郡安路","SECT":"五段","MAREA":" ","LANE":"３１巷","ALLEY":" ","HOUSE_NO":"１１號","E_COORD97":168243.98999999999,"N_COORD97":2547587.1600000001,"ADDRESS":"郡安路五段３１巷１１號","OBJECTID":452015},"geometry":{"x":168243.98999999929,"y":2547587.160000002}},{"attributes":{"ID":452041,"DIS_CODE":0,"TOWNNAME":"安南區","LI":"溪東里","LIN":"20鄰","STREET":"郡安路","SECT":"五段","MAREA":" ","LANE":"３１巷","ALLEY":" ","HOUSE_NO":"１３號","E_COORD97":168250.17999999999,"N_COORD97":2547588.5600000001,"ADDRESS":"郡安路五段３１巷１３號","OBJECTID":452016},"geometry":{"x":168250.1799999997,"y":2547588.5600000024}},{"attributes":{"ID":452042,"DIS_CODE":0,"TOWNNAME":"安南區","LI":"溪東里","LIN":"20鄰","STREET":"郡安路","SECT":"五段","MAREA":" ","LANE":"３１巷","ALLEY":" ","HOUSE_NO":"１５號","E_COORD97":168254.73000000001,"N_COORD97":2547589.2599999998,"ADDRESS":"郡安路五段３１巷１５號","OBJECTID":452017},"geometry":{"x":168254.73000000231,"y":2547589.2600000016}},{"attributes":{"ID":452043,"DIS_CODE":0,"TOWNNAME":"中西區","LI":"建國里","LIN":"20鄰","STREET":"新美街","SECT":" ","MAREA":" ","LANE":"５０巷","ALLEY":" ","HOUSE_NO":"３７號","E_COORD97":168086.26000000001,"N_COORD97":2543956.6899999999,"ADDRESS":"新美街５０巷３７號","OBJECTID":452018},"geometry":{"x":168086.26000000071,"y":2543956.6899999995}},{"attributes":{"ID":452044,"DIS_CODE":0,"TOWNNAME":"中西區","LI":"建國里","LIN":"20鄰","STREET":"新美街","SECT":" ","MAREA":" ","LANE":"５０巷","ALLEY":" ","HOUSE_NO":"３９號","E_COORD97":168080.54000000001,"N_COORD97":2543948.7200000002,"ADDRESS":"新美街５０巷３９號","OBJECTID":452019},"geometry":{"x":168080.54000000004,"y":2543948.7199999988}},{"attributes":{"ID":452045,"DIS_CODE":0,"TOWNNAME":"中西區","LI":"建國里","LIN":"20鄰","STREET":"新美街","SECT":" ","MAREA":" ","LANE":"５０巷","ALLEY":" ","HOUSE_NO":"４１號","E_COORD97":168087.17000000001,"N_COORD97":2543947.2200000002,"ADDRESS":"新美街５０巷４１號","OBJECTID":452020},"geometry":{"x":168087.17000000086,"y":2543947.2200000007}},{"attributes":{"ID":452046,"DIS_CODE":0,"TOWNNAME":"中西區","LI":"建國里","LIN":"20鄰","STREET":"新美街","SECT":" ","MAREA":" ","LANE":"５０巷","ALLEY":" ","HOUSE_NO":"４３號","E_COORD97":168085.85999999999,"N_COORD97":2543938.8599999999,"ADDRESS":"新美街５０巷４３號","OBJECTID":452021},"geometry":{"x":168085.8600000022,"y":2543938.8599999994}},{"attributes":{"ID":452047,"DIS_CODE":0,"TOWNNAME":"中西區","LI":"公正里","LIN":"20鄰","STREET":"中山路","SECT":" ","MAREA":" ","LANE":"８２巷","ALLEY":" ","HOUSE_NO":"１０號","E_COORD97":168756.67000000001,"N_COORD97":2543802.1400000001,"ADDRESS":"中山路８２巷１０號","OBJECTID":452022},"geometry":{"x":168756.67000000086,"y":2543802.1400000006}},{"attributes":{"ID":452048,"DIS_CODE":0,"TOWNNAME":"中西區","LI":"公正里","LIN":"20鄰","STREET":"中山路","SECT":" ","MAREA":" ","LANE":"８２巷","ALLEY":" ","HOUSE_NO":"１２號","E_COORD97":168759.41,"N_COORD97":2543798.9199999999,"ADDRESS":"中山路８２巷１２號","OBJECTID":452023},"geometry":{"x":168759.41000000015,"y":2543798.9200000018}},{"attributes":{"ID":452049,"DIS_CODE":0,"TOWNNAME":"中西區","LI":"公正里","LIN":"20鄰","STREET":"中山路","SECT":" ","MAREA":" ","LANE":"８２巷","ALLEY":" ","HOUSE_NO":"１４號","E_COORD97":168768.60999999999,"N_COORD97":2543795.6899999999,"ADDRESS":"中山路８２巷１４號","OBJECTID":452024},"geometry":{"x":168768.61000000034,"y":2543795.6900000013}},{"attributes":{"ID":452050,"DIS_CODE":0,"TOWNNAME":"中西區","LI":"公正里","LIN":"20鄰","STREET":"中山路","SECT":" ","MAREA":" ","LANE":"８２巷","ALLEY":" ","HOUSE_NO":"１６號","E_COORD97":168759.09,"N_COORD97":2543789.1600000001,"ADDRESS":"中山路８２巷１６號","OBJECTID":452025},"geometry":{"x":168759.09000000078,"y":2543789.1599999983}},{"attributes":{"ID":452051,"DIS_CODE":0,"TOWNNAME":"中西區","LI":"公正里","LIN":"20鄰","STREET":"中山路","SECT":" ","MAREA":" ","LANE":"８２巷","ALLEY":" ","HOUSE_NO":"１８號","E_COORD97":168760.85999999999,"N_COORD97":2543784.9700000002,"ADDRESS":"中山路８２巷１８號","OBJECTID":452026},"geometry":{"x":168760.86000000127,"y":2543784.9700000025}},{"attributes":{"ID":452052,"DIS_CODE":0,"TOWNNAME":"中西區","LI":"公正里","LIN":"20鄰","STREET":"中山路","SECT":" ","MAREA":" ","LANE":"８２巷","ALLEY":" ","HOUSE_NO":"２號","E_COORD97":168744.07000000001,"N_COORD97":2543814.5600000001,"ADDRESS":"中山路８２巷２號","OBJECTID":452027},"geometry":{"x":168744.07000000123,"y":2543814.5600000024}},{"attributes":{"ID":452053,"DIS_CODE":0,"TOWNNAME":"中西區","LI":"公正里","LIN":"20鄰","STREET":"中山路","SECT":" ","MAREA":" ","LANE":"８２巷","ALLEY":" ","HOUSE_NO":"６之１號","E_COORD97":168750.69,"N_COORD97":2543809.7200000002,"ADDRESS":"中山路８２巷６之１號","OBJECTID":452028},"geometry":{"x":168750.69000000041,"y":2543809.7199999988}},{"attributes":{"ID":452054,"DIS_CODE":0,"TOWNNAME":"中西區","LI":"公正里","LIN":"20鄰","STREET":"中山路","SECT":" ","MAREA":" ","LANE":"８２巷","ALLEY":" ","HOUSE_NO":"６號","E_COORD97":168747.45999999999,"N_COORD97":2543812.1400000001,"ADDRESS":"中山路８２巷６號","OBJECTID":452029},"geometry":{"x":168747.46000000183,"y":2543812.1400000006}},{"attributes":{"ID":452055,"DIS_CODE":0,"TOWNNAME":"中西區","LI":"公正里","LIN":"20鄰","STREET":"中山路","SECT":" ","MAREA":" ","LANE":"８２巷","ALLEY":" ","HOUSE_NO":"８號","E_COORD97":168755.20999999999,"N_COORD97":2543806.3399999999,"ADDRESS":"中山路８２巷８號","OBJECTID":452030},"geometry":{"x":168755.20999999996,"y":2543806.3400000017}},{"attributes":{"ID":452056,"DIS_CODE":0,"TOWNNAME":"白河區","LI":"永安里","LIN":"20鄰","STREET":"中正路","SECT":" ","MAREA":" ","LANE":"１２４巷","ALLEY":" ","HOUSE_NO":"２之２號","E_COORD97":189857.14000000001,"N_COORD97":2583147.0299999998,"ADDRESS":"中正路１２４巷２之２號","OBJECTID":452031},"geometry":{"x":189857.13999999966,"y":2583147.0299999993}},{"attributes":{"ID":452057,"DIS_CODE":0,"TOWNNAME":"白河區","LI":"永安里","LIN":"20鄰","STREET":"中正路","SECT":" ","MAREA":" ","LANE":"１２４巷","ALLEY":" ","HOUSE_NO":"２之３號","E_COORD97":189857.76999999999,"N_COORD97":2583143.6600000001,"ADDRESS":"中正路１２４巷２之３號","OBJECTID":452032},"geometry":{"x":189857.76999999955,"y":2583143.6600000001}},{"attributes":{"ID":452058,"DIS_CODE":0,"TOWNNAME":"白河區","LI":"永安里","LIN":"20鄰","STREET":"中正路","SECT":" ","MAREA":" ","LANE":"１２４巷","ALLEY":" ","HOUSE_NO":"２號","E_COORD97":189855.73999999999,"N_COORD97":2583159.9900000002,"ADDRESS":"中正路１２４巷２號","OBJECTID":452033},"geometry":{"x":189855.74000000022,"y":2583159.9900000021}},{"attributes":{"ID":452059,"DIS_CODE":0,"TOWNNAME":"白河區","LI":"永安里","LIN":"20鄰","STREET":"中正路","SECT":" ","MAREA":" ","LANE":"１２４巷","ALLEY":" ","HOUSE_NO":"３０號","E_COORD97":189863.87,"N_COORD97":2583200.4900000002,"ADDRESS":"中正路１２４巷３０號","OBJECTID":452034},"geometry":{"x":189863.87000000104,"y":2583200.4900000039}},{"attributes":{"ID":452060,"DIS_CODE":0,"TOWNNAME":"白河區","LI":"永安里","LIN":"20鄰","STREET":"中正路","SECT":" ","MAREA":" ","LANE":"１２４巷","ALLEY":" ","HOUSE_NO":"３１號","E_COORD97":189861.34,"N_COORD97":2583215.0899999999,"ADDRESS":"中正路１２４巷３１號","OBJECTID":452035},"geometry":{"x":189861.33999999985,"y":2583215.0899999999}},{"attributes":{"ID":452061,"DIS_CODE":0,"TOWNNAME":"白河區","LI":"永安里","LIN":"20鄰","STREET":"中正路","SECT":" ","MAREA":" ","LANE":"１２４巷","ALLEY":" ","HOUSE_NO":"３２號","E_COORD97":189867.69,"N_COORD97":2583202.0099999998,"ADDRESS":"中正路１２４巷３２號","OBJECTID":452036},"geometry":{"x":189867.69000000041,"y":2583202.0099999998}},{"attributes":{"ID":452062,"DIS_CODE":0,"TOWNNAME":"白河區","LI":"永安里","LIN":"20鄰","STREET":"中正路","SECT":" ","MAREA":" ","LANE":"１２４巷","ALLEY":" ","HOUSE_NO":"３３號","E_COORD97":189865.26999999999,"N_COORD97":2583216.7000000002,"ADDRESS":"中正路１２４巷３３號","OBJECTID":452037},"geometry":{"x":189865.26999999862,"y":2583216.6999999993}},{"attributes":{"ID":452063,"DIS_CODE":0,"TOWNNAME":"白河區","LI":"永安里","LIN":"20鄰","STREET":"中正路","SECT":" ","MAREA":" ","LANE":"１２４巷","ALLEY":" ","HOUSE_NO":"３４號","E_COORD97":189871.76000000001,"N_COORD97":2583203.5899999999,"ADDRESS":"中正路１２４巷３４號","OBJECTID":452038},"geometry":{"x":189871.75999999978,"y":2583203.5900000017}},{"attributes":{"ID":452064,"DIS_CODE":0,"TOWNNAME":"白河區","LI":"永安里","LIN":"20鄰","STREET":"中正路","SECT":" ","MAREA":" ","LANE":"１２４巷","ALLEY":" ","HOUSE_NO":"３５號","E_COORD97":189868.72,"N_COORD97":2583218.1099999999,"ADDRESS":"中正路１２４巷３５號","OBJECTID":452039},"geometry":{"x":189868.71999999974,"y":2583218.1099999994}},{"attributes":{"ID":452065,"DIS_CODE":0,"TOWNNAME":"白河區","LI":"永安里","LIN":"20鄰","STREET":"中正路","SECT":" ","MAREA":" ","LANE":"１２４巷","ALLEY":" ","HOUSE_NO":"３６號","E_COORD97":189875.56,"N_COORD97":2583205.04,"ADDRESS":"中正路１２４巷３６號","OBJECTID":452040},"geometry":{"x":189875.56000000052,"y":2583205.0399999991}},{"attributes":{"ID":452066,"DIS_CODE":0,"TOWNNAME":"白河區","LI":"永安里","LIN":"20鄰","STREET":"中正路","SECT":" ","MAREA":" ","LANE":"１２４巷","ALLEY":" ","HOUSE_NO":"３７號","E_COORD97":189872.67000000001,"N_COORD97":2583219.54,"ADDRESS":"中正路１２４巷３７號","OBJECTID":452041},"geometry":{"x":189872.66999999993,"y":2583219.540000001}},{"attributes":{"ID":452067,"DIS_CODE":0,"TOWNNAME":"白河區","LI":"永安里","LIN":"20鄰","STREET":"中正路","SECT":" ","MAREA":" ","LANE":"１２４巷","ALLEY":" ","HOUSE_NO":"３８號","E_COORD97":189879.01999999999,"N_COORD97":2583206.9199999999,"ADDRESS":"中正路１２４巷３８號","OBJECTID":452042},"geometry":{"x":189879.02000000142,"y":2583206.9199999999}},{"attributes":{"ID":452068,"DIS_CODE":0,"TOWNNAME":"白河區","LI":"永安里","LIN":"20鄰","STREET":"中正路","SECT":" ","MAREA":" ","LANE":"１２４巷","ALLEY":" ","HOUSE_NO":"３９號","E_COORD97":189876.51999999999,"N_COORD97":2583221.5600000001,"ADDRESS":"中正路１２４巷３９號","OBJECTID":452043},"geometry":{"x":189876.51999999955,"y":2583221.5600000024}},{"attributes":{"ID":452069,"DIS_CODE":0,"TOWNNAME":"白河區","LI":"永安里","LIN":"20鄰","STREET":"中正路","SECT":" ","MAREA":" ","LANE":"１２４巷","ALLEY":" ","HOUSE_NO":"３號","E_COORD97":189857.12,"N_COORD97":2583179.0299999998,"ADDRESS":"中正路１２４巷３號","OBJECTID":452044},"geometry":{"x":189857.12000000104,"y":2583179.0300000031}},{"attributes":{"ID":452070,"DIS_CODE":0,"TOWNNAME":"白河區","LI":"永安里","LIN":"20鄰","STREET":"中正路","SECT":" ","MAREA":" ","LANE":"１２４巷","ALLEY":" ","HOUSE_NO":"４０號","E_COORD97":189883.13,"N_COORD97":2583208.27,"ADDRESS":"中正路１２４巷４０號","OBJECTID":452045},"geometry":{"x":189883.12999999989,"y":2583208.2700000014}},{"attributes":{"ID":452071,"DIS_CODE":0,"TOWNNAME":"白河區","LI":"永安里","LIN":"20鄰","STREET":"中正路","SECT":" ","MAREA":" ","LANE":"１２４巷","ALLEY":" ","HOUSE_NO":"４１號","E_COORD97":189881.03,"N_COORD97":2583223.3300000001,"ADDRESS":"中正路１２４巷４１號","OBJECTID":452046},"geometry":{"x":189881.03000000026,"y":2583223.3300000019}},{"attributes":{"ID":452072,"DIS_CODE":0,"TOWNNAME":"白河區","LI":"永安里","LIN":"20鄰","STREET":"中正路","SECT":" ","MAREA":" ","LANE":"１２４巷","ALLEY":" ","HOUSE_NO":"４３號","E_COORD97":189884.84,"N_COORD97":2583224.9399999999,"ADDRESS":"中正路１２４巷４３號","OBJECTID":452047},"geometry":{"x":189884.83999999985,"y":2583224.9400000013}},{"attributes":{"ID":452073,"DIS_CODE":0,"TOWNNAME":"白河區","LI":"永安里","LIN":"20鄰","STREET":"中正路","SECT":" ","MAREA":" ","LANE":"１２４巷","ALLEY":" ","HOUSE_NO":"５號","E_COORD97":189860.89999999999,"N_COORD97":2583180.5899999999,"ADDRESS":"中正路１２４巷５號","OBJECTID":452048},"geometry":{"x":189860.9000000013,"y":2583180.5900000017}},{"attributes":{"ID":452074,"DIS_CODE":0,"TOWNNAME":"白河區","LI":"永安里","LIN":"20鄰","STREET":"中正路","SECT":" ","MAREA":" ","LANE":"１２４巷","ALLEY":" ","HOUSE_NO":"６號","E_COORD97":189854.92000000001,"N_COORD97":2583163.9700000002,"ADDRESS":"中正路１２４巷６號","OBJECTID":452049},"geometry":{"x":189854.92000000086,"y":2583163.9700000025}},{"attributes":{"ID":452075,"DIS_CODE":0,"TOWNNAME":"白河區","LI":"永安里","LIN":"20鄰","STREET":"中正路","SECT":" ","MAREA":" ","LANE":"１２４巷","ALLEY":" ","HOUSE_NO":"７號","E_COORD97":189864.62,"N_COORD97":2583182.6899999999,"ADDRESS":"中正路１２４巷７號","OBJECTID":452050},"geometry":{"x":189864.62000000011,"y":2583182.6900000013}},{"attributes":{"ID":452076,"DIS_CODE":0,"TOWNNAME":"東區","LI":"莊敬里","LIN":"1鄰","STREET":"東和路","SECT":" ","MAREA":" ","LANE":" ","ALLEY":" ","HOUSE_NO":"２號","E_COORD97":171062.81,"N_COORD97":2544361.4199999999,"ADDRESS":"東和路２號","OBJECTID":452051},"geometry":{"x":171062.81000000052,"y":2544361.4200000018}},{"attributes":{"ID":452077,"DIS_CODE":0,"TOWNNAME":"白河區","LI":"永安里","LIN":"20鄰","STREET":"中正路","SECT":" ","MAREA":" ","LANE":"１２４巷","ALLEY":" ","HOUSE_NO":"８號","E_COORD97":189867.95000000001,"N_COORD97":2583167.3399999999,"ADDRESS":"中正路１２４巷８號","OBJECTID":452052},"geometry":{"x":189867.95000000019,"y":2583167.3400000036}},{"attributes":{"ID":452078,"DIS_CODE":0,"TOWNNAME":"白河區","LI":"永安里","LIN":"20鄰","STREET":"中正路","SECT":" ","MAREA":" ","LANE":"１２４巷","ALLEY":" ","HOUSE_NO":"９號","E_COORD97":189868.51999999999,"N_COORD97":2583183.9399999999,"ADDRESS":"中正路１２４巷９號","OBJECTID":452053},"geometry":{"x":189868.51999999955,"y":2583183.9400000013}},{"attributes":{"ID":452079,"DIS_CODE":0,"TOWNNAME":"安南區","LI":"海東里","LIN":"20鄰","STREET":"海佃路","SECT":"二段","MAREA":" ","LANE":"２２５巷","ALLEY":" ","HOUSE_NO":"６號","E_COORD97":166799.54000000001,"N_COORD97":2548437.6000000001,"ADDRESS":"海佃路二段２２５巷６號","OBJECTID":452054},"geometry":{"x":166799.54000000097,"y":2548437.6000000034}},{"attributes":{"ID":452080,"DIS_CODE":0,"TOWNNAME":"安南區","LI":"梅花里","LIN":"20鄰","STREET":"安中路","SECT":"一段","MAREA":" ","LANE":"７５７巷","ALLEY":" ","HOUSE_NO":"１號","E_COORD97":167434.47,"N_COORD97":2549307.7400000002,"ADDRESS":"安中路一段７５７巷１號","OBJECTID":452055},"geometry":{"x":167434.46999999974,"y":2549307.7400000002}},{"attributes":{"ID":452081,"DIS_CODE":0,"TOWNNAME":"安南區","LI":"梅花里","LIN":"20鄰","STREET":"安中路","SECT":"一段","MAREA":" ","LANE":"７５７巷","ALLEY":" ","HOUSE_NO":"４５號","E_COORD97":167378.94,"N_COORD97":2549220.2400000002,"ADDRESS":"安中路一段７５７巷４５號","OBJECTID":452056},"geometry":{"x":167378.94000000134,"y":2549220.2400000039}},{"attributes":{"ID":452082,"DIS_CODE":0,"TOWNNAME":"安南區","LI":"梅花里","LIN":"20鄰","STREET":"安中路","SECT":"一段","MAREA":" ","LANE":"７５７巷","ALLEY":" ","HOUSE_NO":"５０號","E_COORD97":167343.76000000001,"N_COORD97":2549216.5499999998,"ADDRESS":"安中路一段７５７巷５０號","OBJECTID":452057},"geometry":{"x":167343.76000000071,"y":2549216.5500000026}},{"attributes":{"ID":452083,"DIS_CODE":0,"TOWNNAME":"安南區","LI":"梅花里","LIN":"20鄰","STREET":"安中路","SECT":"一段","MAREA":" ","LANE":"７５７巷","ALLEY":" ","HOUSE_NO":"５０號之１","E_COORD97":167342.91,"N_COORD97":2549222.0800000001,"ADDRESS":"安中路一段７５７巷５０號之１","OBJECTID":452058},"geometry":{"x":167342.91000000108,"y":2549222.0800000019}},{"attributes":{"ID":452084,"DIS_CODE":0,"TOWNNAME":"安南區","LI":"溪墘里","LIN":"20鄰","STREET":"海佃路","SECT":"一段","MAREA":" ","LANE":"４００巷","ALLEY":" ","HOUSE_NO":"４３號","E_COORD97":167193.79999999999,"N_COORD97":2547702.77,"ADDRESS":"海佃路一段４００巷４３號","OBJECTID":452059},"geometry":{"x":167193.79999999981,"y":2547702.7699999996}},{"attributes":{"ID":452085,"DIS_CODE":0,"TOWNNAME":"永康區","LI":"崑山里","LIN":"20鄰","STREET":"崑山街","SECT":" ","MAREA":" ","LANE":"５巷","ALLEY":" ","HOUSE_NO":"２６號","E_COORD97":173861.32999999999,"N_COORD97":2544527.8599999999,"ADDRESS":"崑山街５巷２６號","OBJECTID":452060},"geometry":{"x":173861.33000000194,"y":2544527.8600000013}},{"attributes":{"ID":452086,"DIS_CODE":0,"TOWNNAME":"永康區","LI":"崑山里","LIN":"20鄰","STREET":"崑山街","SECT":" ","MAREA":" ","LANE":"２１巷","ALLEY":" ","HOUSE_NO":"３０號","E_COORD97":173847.5,"N_COORD97":2544589.3799999999,"ADDRESS":"崑山街２１巷３０號","OBJECTID":452061},"geometry":{"x":173847.5,"y":2544589.379999999}},{"attributes":{"ID":452087,"DIS_CODE":0,"TOWNNAME":"安南區","LI":"幸福里","LIN":"20鄰","STREET":"海佃路","SECT":"一段","MAREA":" ","LANE":"９５巷","ALLEY":" ","HOUSE_NO":"２３之１號","E_COORD97":167085.39000000001,"N_COORD97":2546926.0699999998,"ADDRESS":"海佃路一段９５巷２３之１號","OBJECTID":452062},"geometry":{"x":167085.3900000006,"y":2546926.0699999984}},{"attributes":{"ID":452088,"DIS_CODE":0,"TOWNNAME":"安南區","LI":"幸福里","LIN":"20鄰","STREET":"海佃路","SECT":"一段","MAREA":" ","LANE":"９５巷","ALLEY":" ","HOUSE_NO":"２３之２號","E_COORD97":167085.39000000001,"N_COORD97":2546922.8999999999,"ADDRESS":"海佃路一段９５巷２３之２號","OBJECTID":452063},"geometry":{"x":167085.3900000006,"y":2546922.9000000004}},{"attributes":{"ID":452089,"DIS_CODE":0,"TOWNNAME":"安南區","LI":"幸福里","LIN":"20鄰","STREET":"海佃路","SECT":"一段","MAREA":" ","LANE":"９５巷","ALLEY":" ","HOUSE_NO":"２３之３號","E_COORD97":167084.92000000001,"N_COORD97":2546919.7200000002,"ADDRESS":"海佃路一段９５巷２３之３號","OBJECTID":452064},"geometry":{"x":167084.92000000086,"y":2546919.7200000025}},{"attributes":{"ID":452090,"DIS_CODE":0,"TOWNNAME":"安南區","LI":"幸福里","LIN":"20鄰","STREET":"海佃路","SECT":"一段","MAREA":" ","LANE":"９５巷","ALLEY":" ","HOUSE_NO":"２３之５號","E_COORD97":167084.60000000001,"N_COORD97":2546917.8199999998,"ADDRESS":"海佃路一段９５巷２３之５號","OBJECTID":452065},"geometry":{"x":167084.59999999963,"y":2546917.820000004}},{"attributes":{"ID":452091,"DIS_CODE":0,"TOWNNAME":"安南區","LI":"幸福里","LIN":"20鄰","STREET":"海佃路","SECT":"一段","MAREA":" ","LANE":"９５巷","ALLEY":" ","HOUSE_NO":"２３號","E_COORD97":167083.48999999999,"N_COORD97":2546928.9300000002,"ADDRESS":"海佃路一段９５巷２３號","OBJECTID":452066},"geometry":{"x":167083.49000000115,"y":2546928.9299999997}},{"attributes":{"ID":452092,"DIS_CODE":0,"TOWNNAME":"安南區","LI":"幸福里","LIN":"20鄰","STREET":"海佃路","SECT":"一段","MAREA":" ","LANE":"９５巷","ALLEY":" ","HOUSE_NO":"２３之６號","E_COORD97":167084.44,"N_COORD97":2546915.1200000001,"ADDRESS":"海佃路一段９５巷２３之６號","OBJECTID":452067},"geometry":{"x":167084.44000000041,"y":2546915.120000001}},{"attributes":{"ID":452093,"DIS_CODE":0,"TOWNNAME":"安南區","LI":"幸福里","LIN":"20鄰","STREET":"海佃路","SECT":"一段","MAREA":" ","LANE":"９５巷","ALLEY":" ","HOUSE_NO":"２３之７號","E_COORD97":167084.60000000001,"N_COORD97":2546911.1499999999,"ADDRESS":"海佃路一段９５巷２３之７號","OBJECTID":452068},"geometry":{"x":167084.59999999963,"y":2546911.1500000004}},{"attributes":{"ID":452094,"DIS_CODE":0,"TOWNNAME":"安南區","LI":"幸福里","LIN":"20鄰","STREET":"海佃路","SECT":"一段","MAREA":" ","LANE":"９５巷","ALLEY":" ","HOUSE_NO":"２３之８號","E_COORD97":167085.39000000001,"N_COORD97":2546907.02,"ADDRESS":"海佃路一段９５巷２３之８號","OBJECTID":452069},"geometry":{"x":167085.3900000006,"y":2546907.0200000014}},{"attributes":{"ID":452095,"DIS_CODE":0,"TOWNNAME":"安南區","LI":"幸福里","LIN":"20鄰","STREET":"海佃路","SECT":"一段","MAREA":" ","LANE":"９５巷","ALLEY":" ","HOUSE_NO":"２３之９號","E_COORD97":167085.87,"N_COORD97":2546902.8900000001,"ADDRESS":"海佃路一段９５巷２３之９號","OBJECTID":452070},"geometry":{"x":167085.87000000104,"y":2546902.8900000006}},{"attributes":{"ID":452096,"DIS_CODE":0,"TOWNNAME":"佳里區","LI":"安西里","LIN":"26鄰","STREET":"佳北路","SECT":" ","MAREA":" ","LANE":"３８２巷","ALLEY":" ","HOUSE_NO":"１號","E_COORD97":165226.57000000001,"N_COORD97":2563438.4300000002,"ADDRESS":"佳北路３８２巷１號","OBJECTID":452071},"geometry":{"x":165226.57000000123,"y":2563438.4300000016}},{"attributes":{"ID":452097,"DIS_CODE":0,"TOWNNAME":"安南區","LI":"幸福里","LIN":"20鄰","STREET":"海佃路","SECT":"一段","MAREA":" ","LANE":"９５巷","ALLEY":" ","HOUSE_NO":"２３之１０號","E_COORD97":167086.82000000001,"N_COORD97":2546898.9300000002,"ADDRESS":"海佃路一段９５巷２３之１０號","OBJECTID":452072},"geometry":{"x":167086.8200000003,"y":2546898.9299999997}},{"attributes":{"ID":452098,"DIS_CODE":0,"TOWNNAME":"安南區","LI":"幸福里","LIN":"20鄰","STREET":"海佃路","SECT":"一段","MAREA":" ","LANE":"９５巷","ALLEY":" ","HOUSE_NO":"２３之１１號","E_COORD97":167087.78,"N_COORD97":2546894.7999999998,"ADDRESS":"海佃路一段９５巷２３之１１號","OBJECTID":452073},"geometry":{"x":167087.78000000212,"y":2546894.8000000045}},{"attributes":{"ID":452099,"DIS_CODE":0,"TOWNNAME":"仁德區","LI":"太子里","LIN":"20鄰","STREET":"長興四街","SECT":" ","MAREA":" ","LANE":"６８巷","ALLEY":" ","HOUSE_NO":"８號","E_COORD97":173932.92999999999,"N_COORD97":2543612.7599999998,"ADDRESS":"長興四街６８巷８號","OBJECTID":452074},"geometry":{"x":173932.92999999877,"y":2543612.7600000016}},{"attributes":{"ID":452100,"DIS_CODE":0,"TOWNNAME":"安南區","LI":"幸福里","LIN":"20鄰","STREET":"海佃路","SECT":"一段","MAREA":" ","LANE":"９５巷","ALLEY":" ","HOUSE_NO":"２３之１２號","E_COORD97":167088.25,"N_COORD97":2546890.5099999998,"ADDRESS":"海佃路一段９５巷２３之１２號","OBJECTID":452075},"geometry":{"x":167088.25000000093,"y":2546890.5099999998}},{"attributes":{"ID":452101,"DIS_CODE":0,"TOWNNAME":"安南區","LI":"幸福里","LIN":"20鄰","STREET":"海佃路","SECT":"一段","MAREA":" ","LANE":"９５巷","ALLEY":" ","HOUSE_NO":"２３之１３號","E_COORD97":167088.25,"N_COORD97":2546887.3399999999,"ADDRESS":"海佃路一段９５巷２３之１３號","OBJECTID":452076},"geometry":{"x":167088.25000000093,"y":2546887.3400000017}},{"attributes":{"ID":452102,"DIS_CODE":0,"TOWNNAME":"安南區","LI":"幸福里","LIN":"20鄰","STREET":"海佃路","SECT":"一段","MAREA":" ","LANE":"９５巷","ALLEY":" ","HOUSE_NO":"２５號","E_COORD97":167074.09,"N_COORD97":2546922.9399999999,"ADDRESS":"海佃路一段９５巷２５號","OBJECTID":452077},"geometry":{"x":167074.09000000078,"y":2546922.9400000032}},{"attributes":{"ID":452103,"DIS_CODE":0,"TOWNNAME":"安南區","LI":"幸福里","LIN":"20鄰","STREET":"海佃路","SECT":"一段","MAREA":" ","LANE":"９５巷","ALLEY":" ","HOUSE_NO":"２５之１號","E_COORD97":167074.09,"N_COORD97":2546920.2799999998,"ADDRESS":"海佃路一段９５巷２５之１號","OBJECTID":452078},"geometry":{"x":167074.09000000078,"y":2546920.2800000031}},{"attributes":{"ID":452104,"DIS_CODE":0,"TOWNNAME":"安南區","LI":"幸福里","LIN":"20鄰","STREET":"海佃路","SECT":"一段","MAREA":" ","LANE":"９５巷","ALLEY":" ","HOUSE_NO":"２５之２號","E_COORD97":167073.84,"N_COORD97":2546917.23,"ADDRESS":"海佃路一段９５巷２５之２號","OBJECTID":452079},"geometry":{"x":167073.84000000078,"y":2546917.2300000004}},{"attributes":{"ID":452105,"DIS_CODE":0,"TOWNNAME":"安南區","LI":"幸福里","LIN":"20鄰","STREET":"海佃路","SECT":"一段","MAREA":" ","LANE":"９５巷","ALLEY":" ","HOUSE_NO":"２５之３號","E_COORD97":167073.84,"N_COORD97":2546914.1800000002,"ADDRESS":"海佃路一段９５巷２５之３號","OBJECTID":452080},"geometry":{"x":167073.84000000078,"y":2546914.1799999997}},{"attributes":{"ID":452106,"DIS_CODE":0,"TOWNNAME":"官田區","LI":"隆本里","LIN":"20鄰","STREET":"忠孝街","SECT":" ","MAREA":" ","LANE":"７８巷","ALLEY":" ","HOUSE_NO":"９號","E_COORD97":180063.22,"N_COORD97":2566259.8599999999,"ADDRESS":"忠孝街７８巷９號","OBJECTID":452081},"geometry":{"x":180063.22000000067,"y":2566259.8600000013}},{"attributes":{"ID":452107,"DIS_CODE":0,"TOWNNAME":"安南區","LI":"幸福里","LIN":"20鄰","STREET":"海佃路","SECT":"一段","MAREA":" ","LANE":"９５巷","ALLEY":" ","HOUSE_NO":"２５之５號","E_COORD97":167074.22,"N_COORD97":2546910.75,"ADDRESS":"海佃路一段９５巷２５之５號","OBJECTID":452082},"geometry":{"x":167074.22000000067,"y":2546910.75}},{"attributes":{"ID":452108,"DIS_CODE":0,"TOWNNAME":"安南區","LI":"幸福里","LIN":"20鄰","STREET":"海佃路","SECT":"一段","MAREA":" ","LANE":"９５巷","ALLEY":" ","HOUSE_NO":"２５之６號","E_COORD97":167074.22,"N_COORD97":2546908.21,"ADDRESS":"海佃路一段９５巷２５之６號","OBJECTID":452083},"geometry":{"x":167074.22000000067,"y":2546908.2100000009}},{"attributes":{"ID":452109,"DIS_CODE":0,"TOWNNAME":"安南區","LI":"幸福里","LIN":"20鄰","STREET":"海佃路","SECT":"一段","MAREA":" ","LANE":"９５巷","ALLEY":" ","HOUSE_NO":"２５之７號","E_COORD97":167074.22,"N_COORD97":2546905.1600000001,"ADDRESS":"海佃路一段９５巷２５之７號","OBJECTID":452084},"geometry":{"x":167074.22000000067,"y":2546905.1600000039}},{"attributes":{"ID":452110,"DIS_CODE":0,"TOWNNAME":"安南區","LI":"幸福里","LIN":"20鄰","STREET":"海佃路","SECT":"一段","MAREA":" ","LANE":"９５巷","ALLEY":" ","HOUSE_NO":"２５之８號","E_COORD97":167074.47,"N_COORD97":2546902.2400000002,"ADDRESS":"海佃路一段９５巷２５之８號","OBJECTID":452085},"geometry":{"x":167074.47000000067,"y":2546902.2400000021}},{"attributes":{"ID":452111,"DIS_CODE":0,"TOWNNAME":"安南區","LI":"幸福里","LIN":"20鄰","STREET":"海佃路","SECT":"一段","MAREA":" ","LANE":"９５巷","ALLEY":" ","HOUSE_NO":"２５之９號","E_COORD97":167074.73000000001,"N_COORD97":2546898.9399999999,"ADDRESS":"海佃路一段９５巷２５之９號","OBJECTID":452086},"geometry":{"x":167074.73000000231,"y":2546898.9399999976}},{"attributes":{"ID":452112,"DIS_CODE":0,"TOWNNAME":"安南區","LI":"幸福里","LIN":"20鄰","STREET":"海佃路","SECT":"一段","MAREA":" ","LANE":"９５巷","ALLEY":" ","HOUSE_NO":"２５之１０號","E_COORD97":167075.48999999999,"N_COORD97":2546896.02,"ADDRESS":"海佃路一段９５巷２５之１０號","OBJECTID":452087},"geometry":{"x":167075.49000000022,"y":2546896.0200000014}},{"attributes":{"ID":452113,"DIS_CODE":0,"TOWNNAME":"安南區","LI":"幸福里","LIN":"20鄰","STREET":"海佃路","SECT":"一段","MAREA":" ","LANE":"９５巷","ALLEY":" ","HOUSE_NO":"２５之１１號","E_COORD97":167075.23000000001,"N_COORD97":2546893.1000000001,"ADDRESS":"海佃路一段９５巷２５之１１號","OBJECTID":452088},"geometry":{"x":167075.23000000138,"y":2546893.1000000015}},{"attributes":{"ID":452114,"DIS_CODE":0,"TOWNNAME":"安南區","LI":"幸福里","LIN":"20鄰","STREET":"海佃路","SECT":"一段","MAREA":" ","LANE":"９５巷","ALLEY":" ","HOUSE_NO":"２５之１３號","E_COORD97":167076.25,"N_COORD97":2546886.3700000001,"ADDRESS":"海佃路一段９５巷２５之１３號","OBJECTID":452089},"geometry":{"x":167076.25000000093,"y":2546886.370000001}},{"attributes":{"ID":452115,"DIS_CODE":0,"TOWNNAME":"安南區","LI":"幸福里","LIN":"20鄰","STREET":"海佃路","SECT":"一段","MAREA":" ","LANE":"９５巷","ALLEY":" ","HOUSE_NO":"２號","E_COORD97":167146.85999999999,"N_COORD97":2546959.77,"ADDRESS":"海佃路一段９５巷２號","OBJECTID":452090},"geometry":{"x":167146.86000000127,"y":2546959.7699999996}},{"attributes":{"ID":452116,"DIS_CODE":0,"TOWNNAME":"安南區","LI":"新順里","LIN":"20鄰","STREET":"慶安路","SECT":" ","MAREA":" ","LANE":"１１５巷","ALLEY":" ","HOUSE_NO":"２號","E_COORD97":169419.92000000001,"N_COORD97":2549272.1800000002,"ADDRESS":"慶安路１１５巷２號","OBJECTID":452091},"geometry":{"x":169419.91999999993,"y":2549272.1800000016}},{"attributes":{"ID":452117,"DIS_CODE":0,"TOWNNAME":"安南區","LI":"新順里","LIN":"20鄰","STREET":"慶安路","SECT":" ","MAREA":" ","LANE":"１１５巷","ALLEY":" ","HOUSE_NO":"６號","E_COORD97":169414.92000000001,"N_COORD97":2549271.8100000001,"ADDRESS":"慶安路１１５巷６號","OBJECTID":452092},"geometry":{"x":169414.91999999993,"y":2549271.8100000024}},{"attributes":{"ID":452118,"DIS_CODE":0,"TOWNNAME":"安南區","LI":"新順里","LIN":"20鄰","STREET":"慶安路","SECT":" ","MAREA":" ","LANE":"１１５巷","ALLEY":" ","HOUSE_NO":"７２號","E_COORD97":169299.39000000001,"N_COORD97":2549272.3300000001,"ADDRESS":"慶安路１１５巷７２號","OBJECTID":452093},"geometry":{"x":169299.3900000006,"y":2549272.3300000001}},{"attributes":{"ID":452119,"DIS_CODE":0,"TOWNNAME":"安南區","LI":"新順里","LIN":"20鄰","STREET":"慶安路","SECT":" ","MAREA":" ","LANE":"１１５巷","ALLEY":" ","HOUSE_NO":"７６號","E_COORD97":169295.20000000001,"N_COORD97":2549272.2000000002,"ADDRESS":"慶安路１１５巷７６號","OBJECTID":452094},"geometry":{"x":169295.20000000019,"y":2549272.1999999993}},{"attributes":{"ID":452120,"DIS_CODE":0,"TOWNNAME":"安南區","LI":"新順里","LIN":"20鄰","STREET":"慶安路","SECT":" ","MAREA":" ","LANE":"１１５巷","ALLEY":" ","HOUSE_NO":"７８號","E_COORD97":169290.63,"N_COORD97":2549272.0699999998,"ADDRESS":"慶安路１１５巷７８號","OBJECTID":452095},"geometry":{"x":169290.63000000082,"y":2549272.0700000003}},{"attributes":{"ID":452121,"DIS_CODE":0,"TOWNNAME":"安南區","LI":"新順里","LIN":"20鄰","STREET":"慶安路","SECT":" ","MAREA":" ","LANE":"１１５巷","ALLEY":" ","HOUSE_NO":"７５號","E_COORD97":169234.37,"N_COORD97":2549255.4399999999,"ADDRESS":"慶安路１１５巷７５號","OBJECTID":452096},"geometry":{"x":169234.37000000011,"y":2549255.4400000032}},{"attributes":{"ID":452122,"DIS_CODE":0,"TOWNNAME":"安南區","LI":"新順里","LIN":"20鄰","STREET":"慶安路","SECT":" ","MAREA":" ","LANE":"１１５巷","ALLEY":" ","HOUSE_NO":"８０號","E_COORD97":169285.67000000001,"N_COORD97":2549272.0699999998,"ADDRESS":"慶安路１１５巷８０號","OBJECTID":452097},"geometry":{"x":169285.67000000086,"y":2549272.0700000003}},{"attributes":{"ID":452123,"DIS_CODE":0,"TOWNNAME":"安南區","LI":"新順里","LIN":"20鄰","STREET":"慶安路","SECT":" ","MAREA":" ","LANE":"１１５巷","ALLEY":" ","HOUSE_NO":"８２號","E_COORD97":169280.98000000001,"N_COORD97":2549272.0699999998,"ADDRESS":"慶安路１１５巷８２號","OBJECTID":452098},"geometry":{"x":169280.98000000138,"y":2549272.0700000003}},{"attributes":{"ID":452124,"DIS_CODE":0,"TOWNNAME":"仁德區","LI":"後壁里","LIN":"20鄰","STREET":"中正路","SECT":"二段","MAREA":" ","LANE":"１０６巷","ALLEY":" ","HOUSE_NO":"１９號","E_COORD97":173241.35000000001,"N_COORD97":2538494.2000000002,"ADDRESS":"中正路二段１０６巷１９號","OBJECTID":452099},"geometry":{"x":173241.34999999963,"y":2538494.1999999993}},{"attributes":{"ID":452125,"DIS_CODE":0,"TOWNNAME":"仁德區","LI":"成功里","LIN":"20鄰","STREET":"保生路","SECT":" ","MAREA":" ","LANE":"６９巷","ALLEY":" ","HOUSE_NO":"１８號","E_COORD97":170681.89999999999,"N_COORD97":2539745.4900000002,"ADDRESS":"保生路６９巷１８號","OBJECTID":452100},"geometry":{"x":170681.90000000037,"y":2539745.4900000002}},{"attributes":{"ID":452126,"DIS_CODE":0,"TOWNNAME":"仁德區","LI":"成功里","LIN":"20鄰","STREET":"保生路","SECT":" ","MAREA":" ","LANE":"６９巷","ALLEY":" ","HOUSE_NO":"２２號","E_COORD97":170679.78,"N_COORD97":2539736.9900000002,"ADDRESS":"保生路６９巷２２號","OBJECTID":452101},"geometry":{"x":170679.77999999933,"y":2539736.9900000021}},{"attributes":{"ID":452127,"DIS_CODE":0,"TOWNNAME":"仁德區","LI":"後壁里","LIN":"20鄰","STREET":"中正路","SECT":"二段","MAREA":" ","LANE":"１０６巷","ALLEY":" ","HOUSE_NO":"７號","E_COORD97":173211.79000000001,"N_COORD97":2538492.7000000002,"ADDRESS":"中正路二段１０６巷７號","OBJECTID":452102},"geometry":{"x":173211.79000000004,"y":2538492.7000000011}},{"attributes":{"ID":452128,"DIS_CODE":0,"TOWNNAME":"仁德區","LI":"成功里","LIN":"20鄰","STREET":"保生路","SECT":" ","MAREA":" ","LANE":"６９巷","ALLEY":" ","HOUSE_NO":"１２號","E_COORD97":170685.37,"N_COORD97":2539757.4900000002,"ADDRESS":"保生路６９巷１２號","OBJECTID":452103},"geometry":{"x":170685.37000000011,"y":2539757.4900000021}},{"attributes":{"ID":452129,"DIS_CODE":0,"TOWNNAME":"永康區","LI":"六合里","LIN":"20鄰","STREET":"中華二路","SECT":" ","MAREA":" ","LANE":"３４０巷","ALLEY":" ","HOUSE_NO":"１７號","E_COORD97":171164.95000000001,"N_COORD97":2545531.2400000002,"ADDRESS":"中華二路３４０巷１７號","OBJECTID":452104},"geometry":{"x":171164.95000000019,"y":2545531.2400000002}},{"attributes":{"ID":452130,"DIS_CODE":0,"TOWNNAME":"永康區","LI":"六合里","LIN":"20鄰","STREET":"中華二路","SECT":" ","MAREA":" ","LANE":"３４０巷","ALLEY":" ","HOUSE_NO":"１９號","E_COORD97":171162.64999999999,"N_COORD97":2545541.4900000002,"ADDRESS":"中華二路３４０巷１９號","OBJECTID":452105},"geometry":{"x":171162.6500000013,"y":2545541.4900000021}},{"attributes":{"ID":452131,"DIS_CODE":0,"TOWNNAME":"仁德區","LI":"大甲里","LIN":"20鄰","STREET":"中正西路","SECT":" ","MAREA":" ","LANE":"４９５巷","ALLEY":" ","HOUSE_NO":"２９號","E_COORD97":169394.28,"N_COORD97":2535361,"ADDRESS":"中正西路４９５巷２９號","OBJECTID":452106},"geometry":{"x":169394.28000000026,"y":2535361}},{"attributes":{"ID":452132,"DIS_CODE":0,"TOWNNAME":"佳里區","LI":"鎮山里","LIN":"20鄰","STREET":"勝利路","SECT":" ","MAREA":" ","LANE":"２６５巷","ALLEY":" ","HOUSE_NO":"１４號","E_COORD97":166141.28,"N_COORD97":2560801.1400000001,"ADDRESS":"勝利路２６５巷１４號","OBJECTID":452107},"geometry":{"x":166141.28000000026,"y":2560801.1400000025}},{"attributes":{"ID":452133,"DIS_CODE":0,"TOWNNAME":"佳里區","LI":"鎮山里","LIN":"20鄰","STREET":"勝利路","SECT":" ","MAREA":" ","LANE":"２６５巷","ALLEY":" ","HOUSE_NO":"１５號","E_COORD97":166144.54000000001,"N_COORD97":2560817.71,"ADDRESS":"勝利路２６５巷１５號","OBJECTID":452108},"geometry":{"x":166144.54000000004,"y":2560817.7100000028}},{"attributes":{"ID":452134,"DIS_CODE":0,"TOWNNAME":"佳里區","LI":"鎮山里","LIN":"20鄰","STREET":"勝利路","SECT":" ","MAREA":" ","LANE":"２６５巷","ALLEY":" ","HOUSE_NO":"１６號","E_COORD97":166145.44,"N_COORD97":2560801.5800000001,"ADDRESS":"勝利路２６５巷１６號","OBJECTID":452109},"geometry":{"x":166145.44000000041,"y":2560801.5800000001}},{"attributes":{"ID":452135,"DIS_CODE":0,"TOWNNAME":"佳里區","LI":"鎮山里","LIN":"20鄰","STREET":"勝利路","SECT":" ","MAREA":" ","LANE":"２６５巷","ALLEY":" ","HOUSE_NO":"１９號","E_COORD97":166157.48000000001,"N_COORD97":2560823.3700000001,"ADDRESS":"勝利路２６５巷１９號","OBJECTID":452110},"geometry":{"x":166157.48000000045,"y":2560823.3700000029}},{"attributes":{"ID":452136,"DIS_CODE":0,"TOWNNAME":"佳里區","LI":"鎮山里","LIN":"20鄰","STREET":"勝利路","SECT":" ","MAREA":" ","LANE":"２６５巷","ALLEY":" ","HOUSE_NO":"２１號","E_COORD97":166162.35999999999,"N_COORD97":2560824.7799999998,"ADDRESS":"勝利路２６５巷２１號","OBJECTID":452111},"geometry":{"x":166162.36000000127,"y":2560824.7800000012}},{"attributes":{"ID":452137,"DIS_CODE":0,"TOWNNAME":"佳里區","LI":"鎮山里","LIN":"20鄰","STREET":"勝利路","SECT":" ","MAREA":" ","LANE":"２６５巷","ALLEY":" ","HOUSE_NO":"２２號","E_COORD97":166158.48000000001,"N_COORD97":2560806.7999999998,"ADDRESS":"勝利路２６５巷２２號","OBJECTID":452112},"geometry":{"x":166158.48000000138,"y":2560806.8000000026}},{"attributes":{"ID":452138,"DIS_CODE":0,"TOWNNAME":"佳里區","LI":"鎮山里","LIN":"20鄰","STREET":"勝利路","SECT":" ","MAREA":" ","LANE":"２６５巷","ALLEY":" ","HOUSE_NO":"２３號","E_COORD97":166167.23000000001,"N_COORD97":2560826.2000000002,"ADDRESS":"勝利路２６５巷２３號","OBJECTID":452113},"geometry":{"x":166167.23000000045,"y":2560826.2000000011}},{"attributes":{"ID":452139,"DIS_CODE":0,"TOWNNAME":"佳里區","LI":"鎮山里","LIN":"20鄰","STREET":"勝利路","SECT":" ","MAREA":" ","LANE":"２６５巷","ALLEY":" ","HOUSE_NO":"２４號","E_COORD97":166162.73000000001,"N_COORD97":2560807.96,"ADDRESS":"勝利路２６５巷２４號","OBJECTID":452114},"geometry":{"x":166162.73000000231,"y":2560807.9600000046}},{"attributes":{"ID":452140,"DIS_CODE":0,"TOWNNAME":"佳里區","LI":"鎮山里","LIN":"20鄰","STREET":"勝利路","SECT":" ","MAREA":" ","LANE":"２６５巷","ALLEY":" ","HOUSE_NO":"２５號","E_COORD97":166172.10999999999,"N_COORD97":2560827.6200000001,"ADDRESS":"勝利路２６５巷２５號","OBJECTID":452115},"geometry":{"x":166172.11000000127,"y":2560827.6200000029}},{"attributes":{"ID":452141,"DIS_CODE":0,"TOWNNAME":"佳里區","LI":"鎮山里","LIN":"20鄰","STREET":"勝利路","SECT":" ","MAREA":" ","LANE":"２６５巷","ALLEY":" ","HOUSE_NO":"２６號","E_COORD97":166167.14000000001,"N_COORD97":2560808.3999999999,"ADDRESS":"勝利路２６５巷２６號","OBJECTID":452116},"geometry":{"x":166167.13999999966,"y":2560808.4000000022}},{"attributes":{"ID":452142,"DIS_CODE":0,"TOWNNAME":"佳里區","LI":"鎮山里","LIN":"20鄰","STREET":"勝利路","SECT":" ","MAREA":" ","LANE":"２６５巷","ALLEY":" ","HOUSE_NO":"２７號","E_COORD97":166177.04000000001,"N_COORD97":2560829.5899999999,"ADDRESS":"勝利路２６５巷２７號","OBJECTID":452117},"geometry":{"x":166177.03999999911,"y":2560829.5900000036}},{"attributes":{"ID":452143,"DIS_CODE":0,"TOWNNAME":"佳里區","LI":"鎮山里","LIN":"20鄰","STREET":"勝利路","SECT":" ","MAREA":" ","LANE":"２６５巷","ALLEY":" ","HOUSE_NO":"２８號","E_COORD97":166171.07000000001,"N_COORD97":2560809.25,"ADDRESS":"勝利路２６５巷２８號","OBJECTID":452118},"geometry":{"x":166171.07000000123,"y":2560809.2500000019}},{"attributes":{"ID":452144,"DIS_CODE":0,"TOWNNAME":"佳里區","LI":"鎮山里","LIN":"20鄰","STREET":"勝利路","SECT":" ","MAREA":" ","LANE":"２６５巷","ALLEY":" ","HOUSE_NO":"２９號","E_COORD97":166181.92000000001,"N_COORD97":2560831.0099999998,"ADDRESS":"勝利路２６５巷２９號","OBJECTID":452119},"geometry":{"x":166181.92000000086,"y":2560831.0100000016}},{"attributes":{"ID":452145,"DIS_CODE":0,"TOWNNAME":"佳里區","LI":"鎮山里","LIN":"20鄰","STREET":"勝利路","SECT":" ","MAREA":" ","LANE":"２６５巷","ALLEY":" ","HOUSE_NO":"３號","E_COORD97":166125.10000000001,"N_COORD97":2560820.8199999998,"ADDRESS":"勝利路２６５巷３號","OBJECTID":452120},"geometry":{"x":166125.09999999963,"y":2560820.8200000003}},{"attributes":{"ID":452146,"DIS_CODE":0,"TOWNNAME":"北區","LI":"賢北里","LIN":"20鄰","STREET":"和緯路","SECT":"五段","MAREA":" ","LANE":"２３４巷","ALLEY":" ","HOUSE_NO":"３７號","E_COORD97":166013.20999999999,"N_COORD97":2545265.5699999998,"ADDRESS":"和緯路五段２３４巷３７號","OBJECTID":452121},"geometry":{"x":166013.21000000183,"y":2545265.5700000022}},{"attributes":{"ID":452147,"DIS_CODE":0,"TOWNNAME":"北區","LI":"賢北里","LIN":"20鄰","STREET":"和緯路","SECT":"五段","MAREA":" ","LANE":"２３４巷","ALLEY":" ","HOUSE_NO":"３９號","E_COORD97":166011.54000000001,"N_COORD97":2545269.3399999999,"ADDRESS":"和緯路五段２３４巷３９號","OBJECTID":452122},"geometry":{"x":166011.54000000097,"y":2545269.3400000036}},{"attributes":{"ID":452148,"DIS_CODE":0,"TOWNNAME":"北區","LI":"賢北里","LIN":"20鄰","STREET":"和緯路","SECT":"五段","MAREA":" ","LANE":"２３４巷","ALLEY":" ","HOUSE_NO":"４１號","E_COORD97":166009.29999999999,"N_COORD97":2545273.6600000001,"ADDRESS":"和緯路五段２３４巷４１號","OBJECTID":452123},"geometry":{"x":166009.30000000075,"y":2545273.6600000001}},{"attributes":{"ID":452149,"DIS_CODE":0,"TOWNNAME":"北區","LI":"賢北里","LIN":"20鄰","STREET":"和緯路","SECT":"五段","MAREA":" ","LANE":"２３４巷","ALLEY":" ","HOUSE_NO":"４３號","E_COORD97":166007.35000000001,"N_COORD97":2545277.98,"ADDRESS":"和緯路五段２３４巷４３號","OBJECTID":452124},"geometry":{"x":166007.35000000056,"y":2545277.9800000004}},{"attributes":{"ID":452150,"DIS_CODE":0,"TOWNNAME":"北區","LI":"賢北里","LIN":"20鄰","STREET":"和緯路","SECT":"五段","MAREA":" ","LANE":"２８４巷","ALLEY":" ","HOUSE_NO":"１０號","E_COORD97":165951.20999999999,"N_COORD97":2545227.7999999998,"ADDRESS":"和緯路五段２８４巷１０號","OBJECTID":452125},"geometry":{"x":165951.21000000089,"y":2545227.8000000026}},{"attributes":{"ID":452151,"DIS_CODE":0,"TOWNNAME":"北區","LI":"賢北里","LIN":"20鄰","STREET":"和緯路","SECT":"五段","MAREA":" ","LANE":"２８４巷","ALLEY":" ","HOUSE_NO":"１２號","E_COORD97":165948.60999999999,"N_COORD97":2545232.04,"ADDRESS":"和緯路五段２８４巷１２號","OBJECTID":452126},"geometry":{"x":165948.61000000127,"y":2545232.0399999991}},{"attributes":{"ID":452152,"DIS_CODE":0,"TOWNNAME":"北區","LI":"賢北里","LIN":"20鄰","STREET":"和緯路","SECT":"五段","MAREA":" ","LANE":"２８４巷","ALLEY":" ","HOUSE_NO":"１４號","E_COORD97":165947.42999999999,"N_COORD97":2545235.8100000001,"ADDRESS":"和緯路五段２８４巷１４號","OBJECTID":452127},"geometry":{"x":165947.43000000063,"y":2545235.8100000005}},{"attributes":{"ID":452153,"DIS_CODE":0,"TOWNNAME":"北區","LI":"賢北里","LIN":"20鄰","STREET":"和緯路","SECT":"五段","MAREA":" ","LANE":"２８４巷","ALLEY":" ","HOUSE_NO":"１６號","E_COORD97":165945.31,"N_COORD97":2545240.75,"ADDRESS":"和緯路五段２８４巷１６號","OBJECTID":452128},"geometry":{"x":165945.30999999959,"y":2545240.7500000019}},{"attributes":{"ID":452154,"DIS_CODE":0,"TOWNNAME":"北區","LI":"賢北里","LIN":"20鄰","STREET":"賢北街","SECT":" ","MAREA":" ","LANE":"２７巷","ALLEY":" ","HOUSE_NO":"１３７號","E_COORD97":165974.48999999999,"N_COORD97":2545261.8100000001,"ADDRESS":"賢北街２７巷１３７號","OBJECTID":452129},"geometry":{"x":165974.49000000115,"y":2545261.8100000024}},{"attributes":{"ID":452155,"DIS_CODE":0,"TOWNNAME":"北區","LI":"賢北里","LIN":"20鄰","STREET":"賢北街","SECT":" ","MAREA":" ","LANE":"２７巷","ALLEY":" ","HOUSE_NO":"１３９號","E_COORD97":165970.23999999999,"N_COORD97":2545260.1600000001,"ADDRESS":"賢北街２７巷１３９號","OBJECTID":452130},"geometry":{"x":165970.24000000022,"y":2545260.1600000001}},{"attributes":{"ID":452156,"DIS_CODE":0,"TOWNNAME":"北區","LI":"賢北里","LIN":"20鄰","STREET":"賢北街","SECT":" ","MAREA":" ","LANE":"２７巷","ALLEY":" ","HOUSE_NO":"１４１號","E_COORD97":165966.23000000001,"N_COORD97":2545258.04,"ADDRESS":"賢北街２７巷１４１號","OBJECTID":452131},"geometry":{"x":165966.23000000138,"y":2545258.040000001}},{"attributes":{"ID":452157,"DIS_CODE":0,"TOWNNAME":"北區","LI":"賢北里","LIN":"20鄰","STREET":"賢北街","SECT":" ","MAREA":" ","LANE":"２７巷","ALLEY":" ","HOUSE_NO":"１４３號","E_COORD97":165962.70000000001,"N_COORD97":2545256.6299999999,"ADDRESS":"賢北街２７巷１４３號","OBJECTID":452132},"geometry":{"x":165962.70000000205,"y":2545256.6300000027}},{"attributes":{"ID":452158,"DIS_CODE":0,"TOWNNAME":"北區","LI":"賢北里","LIN":"20鄰","STREET":"賢北街","SECT":" ","MAREA":" ","LANE":"２７巷","ALLEY":" ","HOUSE_NO":"１４５號","E_COORD97":165958.69,"N_COORD97":2545255.2200000002,"ADDRESS":"賢北街２７巷１４５號","OBJECTID":452133},"geometry":{"x":165958.69000000134,"y":2545255.2200000025}},{"attributes":{"ID":452159,"DIS_CODE":0,"TOWNNAME":"新營區","LI":"新北里","LIN":"20鄰","STREET":"民生路","SECT":" ","MAREA":" ","LANE":"３３０巷","ALLEY":" ","HOUSE_NO":"１７號","E_COORD97":178979.89000000001,"N_COORD97":2579180.0299999998,"ADDRESS":"民生路３３０巷１７號","OBJECTID":452134},"geometry":{"x":178979.89000000153,"y":2579180.0299999993}},{"attributes":{"ID":452160,"DIS_CODE":0,"TOWNNAME":"新營區","LI":"南紙里","LIN":"20鄰","STREET":"南紙街","SECT":" ","MAREA":" ","LANE":"１１７巷","ALLEY":" ","HOUSE_NO":"４１號","E_COORD97":177952.01999999999,"N_COORD97":2577493.9100000001,"ADDRESS":"南紙街１１７巷４１號","OBJECTID":452135},"geometry":{"x":177952.02000000048,"y":2577493.9100000001}},{"attributes":{"ID":452161,"DIS_CODE":0,"TOWNNAME":"新營區","LI":"民榮里","LIN":"20鄰","STREET":"裕民路","SECT":" ","MAREA":" ","LANE":"１６巷","ALLEY":" ","HOUSE_NO":"２９號","E_COORD97":179038.32999999999,"N_COORD97":2577912.8199999998,"ADDRESS":"裕民路１６巷２９號","OBJECTID":452136},"geometry":{"x":179038.33000000194,"y":2577912.820000004}},{"attributes":{"ID":452162,"DIS_CODE":0,"TOWNNAME":"新營區","LI":"南紙里","LIN":"20鄰","STREET":"南紙街","SECT":" ","MAREA":" ","LANE":"１１７巷","ALLEY":" ","HOUSE_NO":"３９號","E_COORD97":177945.89999999999,"N_COORD97":2577493.9399999999,"ADDRESS":"南紙街１１７巷３９號","OBJECTID":452137},"geometry":{"x":177945.90000000037,"y":2577493.9400000032}},{"attributes":{"ID":452163,"DIS_CODE":0,"TOWNNAME":"新營區","LI":"忠政里","LIN":"20鄰","STREET":"府西路","SECT":" ","MAREA":" ","LANE":"２５７巷","ALLEY":" ","HOUSE_NO":"６號","E_COORD97":179779.85000000001,"N_COORD97":2579682.3100000001,"ADDRESS":"府西路２５７巷６號","OBJECTID":452138},"geometry":{"x":179779.84999999963,"y":2579682.3100000005}},{"attributes":{"ID":452164,"DIS_CODE":0,"TOWNNAME":"新營區","LI":"民榮里","LIN":"20鄰","STREET":"裕民路","SECT":" ","MAREA":" ","LANE":"１６巷","ALLEY":" ","HOUSE_NO":"２５號","E_COORD97":179053.67999999999,"N_COORD97":2577913.8599999999,"ADDRESS":"裕民路１６巷２５號","OBJECTID":452139},"geometry":{"x":179053.6799999997,"y":2577913.8599999994}},{"attributes":{"ID":452165,"DIS_CODE":0,"TOWNNAME":"南區","LI":"新興里","LIN":"20鄰","STREET":"新興路","SECT":" ","MAREA":" ","LANE":"２６８巷","ALLEY":" ","HOUSE_NO":"１１號","E_COORD97":167108.14999999999,"N_COORD97":2541853.8100000001,"ADDRESS":"新興路２６８巷１１號","OBJECTID":452140},"geometry":{"x":167108.1500000013,"y":2541853.8100000024}},{"attributes":{"ID":452166,"DIS_CODE":0,"TOWNNAME":"南區","LI":"新興里","LIN":"20鄰","STREET":"新興路","SECT":" ","MAREA":" ","LANE":"２６８巷","ALLEY":" ","HOUSE_NO":"１５號","E_COORD97":167096.51999999999,"N_COORD97":2541847.2000000002,"ADDRESS":"新興路２６８巷１５號","OBJECTID":452141},"geometry":{"x":167096.51999999955,"y":2541847.1999999993}},{"attributes":{"ID":452167,"DIS_CODE":0,"TOWNNAME":"南區","LI":"新興里","LIN":"20鄰","STREET":"新興路","SECT":" ","MAREA":" ","LANE":"２６８巷","ALLEY":" ","HOUSE_NO":"１６號","E_COORD97":167112.16,"N_COORD97":2541876.23,"ADDRESS":"新興路２６８巷１６號","OBJECTID":452142},"geometry":{"x":167112.16000000201,"y":2541876.2300000004}},{"attributes":{"ID":452168,"DIS_CODE":0,"TOWNNAME":"南區","LI":"新興里","LIN":"20鄰","STREET":"新興路","SECT":" ","MAREA":" ","LANE":"２６８巷","ALLEY":" ","HOUSE_NO":"１７號","E_COORD97":167121.78,"N_COORD97":2541882.9399999999,"ADDRESS":"新興路２６８巷１７號","OBJECTID":452143},"geometry":{"x":167121.78000000212,"y":2541882.9400000013}},{"attributes":{"ID":452169,"DIS_CODE":0,"TOWNNAME":"南區","LI":"新興里","LIN":"20鄰","STREET":"新興路","SECT":" ","MAREA":" ","LANE":"２６８巷","ALLEY":" ","HOUSE_NO":"１７號之１","E_COORD97":167118.17999999999,"N_COORD97":2541884.54,"ADDRESS":"新興路２６８巷１７號之１","OBJECTID":452144},"geometry":{"x":167118.1799999997,"y":2541884.540000001}},{"attributes":{"ID":452170,"DIS_CODE":0,"TOWNNAME":"東區","LI":"莊敬里","LIN":"1鄰","STREET":"東和路","SECT":" ","MAREA":" ","LANE":" ","ALLEY":" ","HOUSE_NO":"６號","E_COORD97":171053.32999999999,"N_COORD97":2544359.8900000001,"ADDRESS":"東和路６號","OBJECTID":452145},"geometry":{"x":171053.33000000007,"y":2544359.8900000006}},{"attributes":{"ID":452171,"DIS_CODE":0,"TOWNNAME":"南區","LI":"新興里","LIN":"20鄰","STREET":"新興路","SECT":" ","MAREA":" ","LANE":"２６８巷","ALLEY":" ","HOUSE_NO":"１８號","E_COORD97":167107.95000000001,"N_COORD97":2541873.4300000002,"ADDRESS":"新興路２６８巷１８號","OBJECTID":452146},"geometry":{"x":167107.95000000019,"y":2541873.4299999997}},{"attributes":{"ID":452172,"DIS_CODE":0,"TOWNNAME":"南區","LI":"新興里","LIN":"20鄰","STREET":"新興路","SECT":" ","MAREA":" ","LANE":"２６８巷","ALLEY":" ","HOUSE_NO":"１號","E_COORD97":167129.60000000001,"N_COORD97":2541871.02,"ADDRESS":"新興路２６８巷１號","OBJECTID":452147},"geometry":{"x":167129.60000000056,"y":2541871.0200000033}},{"attributes":{"ID":452173,"DIS_CODE":0,"TOWNNAME":"安平區","LI":"文平里","LIN":"20鄰","STREET":"健康一街","SECT":" ","MAREA":" ","LANE":"５７巷","ALLEY":" ","HOUSE_NO":"５３號","E_COORD97":165783.57999999999,"N_COORD97":2542799.8399999999,"ADDRESS":"健康一街５７巷５３號","OBJECTID":452148},"geometry":{"x":165783.58000000194,"y":2542799.8399999999}},{"attributes":{"ID":452174,"DIS_CODE":0,"TOWNNAME":"安平區","LI":"文平里","LIN":"20鄰","STREET":"健康一街","SECT":" ","MAREA":" ","LANE":"５７巷","ALLEY":" ","HOUSE_NO":"５４號","E_COORD97":165796.64000000001,"N_COORD97":2542827.8799999999,"ADDRESS":"健康一街５７巷５４號","OBJECTID":452149},"geometry":{"x":165796.6400000006,"y":2542827.8800000008}},{"attributes":{"ID":452175,"DIS_CODE":0,"TOWNNAME":"安平區","LI":"平安里","LIN":"7鄰","STREET":"華平路","SECT":" ","MAREA":" ","LANE":" ","ALLEY":" ","HOUSE_NO":"７１９號","E_COORD97":165504.29999999999,"N_COORD97":2544379.54,"ADDRESS":"華平路７１９號","OBJECTID":452150},"geometry":{"x":165504.30000000075,"y":2544379.540000001}},{"attributes":{"ID":452176,"DIS_CODE":0,"TOWNNAME":"安平區","LI":"文平里","LIN":"20鄰","STREET":"健康一街","SECT":" ","MAREA":" ","LANE":"５７巷","ALLEY":" ","HOUSE_NO":"５５號","E_COORD97":165778.89000000001,"N_COORD97":2542800.23,"ADDRESS":"健康一街５７巷５５號","OBJECTID":452151},"geometry":{"x":165778.88999999966,"y":2542800.2300000023}},{"attributes":{"ID":452177,"DIS_CODE":0,"TOWNNAME":"北區","LI":"成德里","LIN":"20鄰","STREET":"文成一路","SECT":" ","MAREA":" ","LANE":"１５８巷","ALLEY":" ","HOUSE_NO":"３２號","E_COORD97":168410.82999999999,"N_COORD97":2546135.0299999998,"ADDRESS":"文成一路１５８巷３２號","OBJECTID":452152},"geometry":{"x":168410.83000000007,"y":2546135.0299999993}},{"attributes":{"ID":452178,"DIS_CODE":0,"TOWNNAME":"北區","LI":"成德里","LIN":"20鄰","STREET":"文成一路","SECT":" ","MAREA":" ","LANE":"１５８巷","ALLEY":" ","HOUSE_NO":"３６號","E_COORD97":168410.82999999999,"N_COORD97":2546141.6400000001,"ADDRESS":"文成一路１５８巷３６號","OBJECTID":452153},"geometry":{"x":168410.83000000007,"y":2546141.6400000006}},{"attributes":{"ID":452179,"DIS_CODE":0,"TOWNNAME":"北區","LI":"成德里","LIN":"20鄰","STREET":"文成一路","SECT":" ","MAREA":" ","LANE":"１５８巷","ALLEY":" ","HOUSE_NO":"３８號","E_COORD97":168410.45000000001,"N_COORD97":2546148.4900000002,"ADDRESS":"文成一路１５８巷３８號","OBJECTID":452154},"geometry":{"x":168410.45000000205,"y":2546148.4900000021}},{"attributes":{"ID":452180,"DIS_CODE":0,"TOWNNAME":"北區","LI":"成德里","LIN":"20鄰","STREET":"文成一路","SECT":" ","MAREA":" ","LANE":"１５８巷","ALLEY":" ","HOUSE_NO":"４０號","E_COORD97":168410.57999999999,"N_COORD97":2546154.8399999999,"ADDRESS":"文成一路１５８巷４０號","OBJECTID":452155},"geometry":{"x":168410.58000000007,"y":2546154.8400000017}},{"attributes":{"ID":452181,"DIS_CODE":0,"TOWNNAME":"北區","LI":"和順里","LIN":"20鄰","STREET":"民德路","SECT":" ","MAREA":" ","LANE":"８５巷","ALLEY":" ","HOUSE_NO":"１４號","E_COORD97":168212.82999999999,"N_COORD97":2545094.7400000002,"ADDRESS":"民德路８５巷１４號","OBJECTID":452156},"geometry":{"x":168212.83000000194,"y":2545094.7400000021}},{"attributes":{"ID":452182,"DIS_CODE":0,"TOWNNAME":"北區","LI":"和順里","LIN":"20鄰","STREET":"民德路","SECT":" ","MAREA":" ","LANE":"８５巷","ALLEY":" ","HOUSE_NO":"１６號","E_COORD97":168208.95000000001,"N_COORD97":2545093.0099999998,"ADDRESS":"民德路８５巷１６號","OBJECTID":452157},"geometry":{"x":168208.95000000112,"y":2545093.0100000016}},{"attributes":{"ID":452183,"DIS_CODE":0,"TOWNNAME":"北區","LI":"和順里","LIN":"20鄰","STREET":"民德路","SECT":" ","MAREA":" ","LANE":"８５巷","ALLEY":" ","HOUSE_NO":"１８號","E_COORD97":168205.48999999999,"N_COORD97":2545091.29,"ADDRESS":"民德路８５巷１８號","OBJECTID":452158},"geometry":{"x":168205.49000000115,"y":2545091.2899999991}},{"attributes":{"ID":452184,"DIS_CODE":0,"TOWNNAME":"北區","LI":"和順里","LIN":"20鄰","STREET":"民德路","SECT":" ","MAREA":" ","LANE":"８５巷","ALLEY":" ","HOUSE_NO":"２０號","E_COORD97":168201.17000000001,"N_COORD97":2545089.9900000002,"ADDRESS":"民德路８５巷２０號","OBJECTID":452159},"geometry":{"x":168201.16999999993,"y":2545089.9900000021}},{"attributes":{"ID":452185,"DIS_CODE":0,"TOWNNAME":"北區","LI":"和順里","LIN":"20鄰","STREET":"民德路","SECT":" ","MAREA":" ","LANE":"８５巷","ALLEY":" ","HOUSE_NO":"２２號","E_COORD97":168197.42999999999,"N_COORD97":2545088.7000000002,"ADDRESS":"民德路８５巷２２號","OBJECTID":452160},"geometry":{"x":168197.4299999997,"y":2545088.6999999993}},{"attributes":{"ID":452186,"DIS_CODE":0,"TOWNNAME":"北區","LI":"和順里","LIN":"20鄰","STREET":"民德路","SECT":" ","MAREA":" ","LANE":"８５巷","ALLEY":" ","HOUSE_NO":"２４號","E_COORD97":168193.26000000001,"N_COORD97":2545087.5499999998,"ADDRESS":"民德路８５巷２４號","OBJECTID":452161},"geometry":{"x":168193.26000000071,"y":2545087.5500000026}},{"attributes":{"ID":452187,"DIS_CODE":0,"TOWNNAME":"北區","LI":"和順里","LIN":"20鄰","STREET":"民德路","SECT":" ","MAREA":" ","LANE":"８５巷","ALLEY":" ","HOUSE_NO":"２６號","E_COORD97":168189.66,"N_COORD97":2545085.9700000002,"ADDRESS":"民德路８５巷２６號","OBJECTID":452162},"geometry":{"x":168189.66000000015,"y":2545085.9700000007}},{"attributes":{"ID":452188,"DIS_CODE":0,"TOWNNAME":"北區","LI":"和順里","LIN":"20鄰","STREET":"民德路","SECT":" ","MAREA":" ","LANE":"８５巷","ALLEY":" ","HOUSE_NO":"２８號","E_COORD97":168185.63,"N_COORD97":2545084.3900000001,"ADDRESS":"民德路８５巷２８號","OBJECTID":452163},"geometry":{"x":168185.63000000082,"y":2545084.3900000025}},{"attributes":{"ID":452189,"DIS_CODE":0,"TOWNNAME":"北區","LI":"和順里","LIN":"20鄰","STREET":"民德路","SECT":" ","MAREA":" ","LANE":"８５巷","ALLEY":" ","HOUSE_NO":"３０號","E_COORD97":168181.73999999999,"N_COORD97":2545082.6600000001,"ADDRESS":"民德路８５巷３０號","OBJECTID":452164},"geometry":{"x":168181.74000000115,"y":2545082.660000002}},{"attributes":{"ID":452190,"DIS_CODE":0,"TOWNNAME":"北區","LI":"和順里","LIN":"20鄰","STREET":"民德路","SECT":" ","MAREA":" ","LANE":"８５巷","ALLEY":" ","HOUSE_NO":"３４號","E_COORD97":168174.39999999999,"N_COORD97":2545078.8500000001,"ADDRESS":"民德路８５巷３４號","OBJECTID":452165},"geometry":{"x":168174.4000000013,"y":2545078.8499999996}},{"attributes":{"ID":452191,"DIS_CODE":0,"TOWNNAME":"北區","LI":"和順里","LIN":"20鄰","STREET":"民德路","SECT":" ","MAREA":" ","LANE":"８５巷","ALLEY":" ","HOUSE_NO":"３６號","E_COORD97":168170.23000000001,"N_COORD97":2545077.5600000001,"ADDRESS":"民德路８５巷３６號","OBJECTID":452166},"geometry":{"x":168170.23000000138,"y":2545077.5600000005}},{"attributes":{"ID":452192,"DIS_CODE":0,"TOWNNAME":"北區","LI":"和順里","LIN":"20鄰","STREET":"民德路","SECT":" ","MAREA":" ","LANE":"８５巷","ALLEY":" ","HOUSE_NO":"３８號","E_COORD97":168165.91,"N_COORD97":2545076.4100000001,"ADDRESS":"民德路８５巷３８號","OBJECTID":452167},"geometry":{"x":168165.91000000015,"y":2545076.410000002}},{"attributes":{"ID":452193,"DIS_CODE":0,"TOWNNAME":"北區","LI":"和順里","LIN":"20鄰","STREET":"民德路","SECT":" ","MAREA":" ","LANE":"８５巷","ALLEY":" ","HOUSE_NO":"４０號","E_COORD97":168161.88,"N_COORD97":2545074.9700000002,"ADDRESS":"民德路８５巷４０號","OBJECTID":452168},"geometry":{"x":168161.88000000082,"y":2545074.9700000007}},{"attributes":{"ID":452194,"DIS_CODE":0,"TOWNNAME":"北區","LI":"和順里","LIN":"20鄰","STREET":"民德路","SECT":" ","MAREA":" ","LANE":"８５巷","ALLEY":" ","HOUSE_NO":"４２號","E_COORD97":168157.98999999999,"N_COORD97":2545073.1000000001,"ADDRESS":"民德路８５巷４２號","OBJECTID":452169},"geometry":{"x":168157.99000000115,"y":2545073.0999999996}},{"attributes":{"ID":452195,"DIS_CODE":0,"TOWNNAME":"北區","LI":"和順里","LIN":"20鄰","STREET":"民德路","SECT":" ","MAREA":" ","LANE":"８５巷","ALLEY":" ","HOUSE_NO":"４４號","E_COORD97":168154.25,"N_COORD97":2545071.52,"ADDRESS":"民德路８５巷４４號","OBJECTID":452170},"geometry":{"x":168154.25000000093,"y":2545071.5200000033}},{"attributes":{"ID":452196,"DIS_CODE":0,"TOWNNAME":"北區","LI":"和順里","LIN":"20鄰","STREET":"民德路","SECT":" ","MAREA":" ","LANE":"８５巷","ALLEY":" ","HOUSE_NO":"４６號","E_COORD97":168149.92999999999,"N_COORD97":2545069.9399999999,"ADDRESS":"民德路８５巷４６號","OBJECTID":452171},"geometry":{"x":168149.9299999997,"y":2545069.9400000013}},{"attributes":{"ID":452197,"DIS_CODE":0,"TOWNNAME":"北區","LI":"和順里","LIN":"20鄰","STREET":"民德路","SECT":" ","MAREA":" ","LANE":"８５巷","ALLEY":" ","HOUSE_NO":"４８號","E_COORD97":168146.04000000001,"N_COORD97":2545068.6400000001,"ADDRESS":"民德路８５巷４８號","OBJECTID":452172},"geometry":{"x":168146.04000000097,"y":2545068.6400000025}},{"attributes":{"ID":452198,"DIS_CODE":0,"TOWNNAME":"北區","LI":"和順里","LIN":"20鄰","STREET":"民德路","SECT":" ","MAREA":" ","LANE":"８５巷","ALLEY":" ","HOUSE_NO":"４號","E_COORD97":168232.54999999999,"N_COORD97":2545102.6499999999,"ADDRESS":"民德路８５巷４號","OBJECTID":452173},"geometry":{"x":168232.54999999981,"y":2545102.6500000022}},{"attributes":{"ID":452199,"DIS_CODE":0,"TOWNNAME":"北區","LI":"和順里","LIN":"20鄰","STREET":"民德路","SECT":" ","MAREA":" ","LANE":"８５巷","ALLEY":" ","HOUSE_NO":"５０號","E_COORD97":168142.29999999999,"N_COORD97":2545067.7799999998,"ADDRESS":"民德路８５巷５０號","OBJECTID":452174},"geometry":{"x":168142.30000000075,"y":2545067.7799999993}},{"attributes":{"ID":452200,"DIS_CODE":0,"TOWNNAME":"北區","LI":"和順里","LIN":"20鄰","STREET":"民德路","SECT":" ","MAREA":" ","LANE":"８５巷","ALLEY":" ","HOUSE_NO":"５２號","E_COORD97":168138.13,"N_COORD97":2545065.9100000001,"ADDRESS":"民德路８５巷５２號","OBJECTID":452175},"geometry":{"x":168138.13000000082,"y":2545065.9100000039}},{"attributes":{"ID":452201,"DIS_CODE":0,"TOWNNAME":"北區","LI":"和順里","LIN":"20鄰","STREET":"民德路","SECT":" ","MAREA":" ","LANE":"８５巷","ALLEY":" ","HOUSE_NO":"５４號","E_COORD97":168134.10000000001,"N_COORD97":2545064.7599999998,"ADDRESS":"民德路８５巷５４號","OBJECTID":452176},"geometry":{"x":168134.09999999963,"y":2545064.7600000016}},{"attributes":{"ID":452202,"DIS_CODE":0,"TOWNNAME":"北區","LI":"和順里","LIN":"20鄰","STREET":"民德路","SECT":" ","MAREA":" ","LANE":"８５巷","ALLEY":" ","HOUSE_NO":"５６號","E_COORD97":168130.35999999999,"N_COORD97":2545063.4700000002,"ADDRESS":"民德路８５巷５６號","OBJECTID":452177},"geometry":{"x":168130.36000000127,"y":2545063.4700000025}},{"attributes":{"ID":452203,"DIS_CODE":0,"TOWNNAME":"北區","LI":"和順里","LIN":"20鄰","STREET":"民德路","SECT":" ","MAREA":" ","LANE":"８５巷","ALLEY":" ","HOUSE_NO":"５８號","E_COORD97":168126.32999999999,"N_COORD97":2545061.6000000001,"ADDRESS":"民德路８５巷５８號","OBJECTID":452178},"geometry":{"x":168126.33000000194,"y":2545061.6000000015}},{"attributes":{"ID":452204,"DIS_CODE":0,"TOWNNAME":"北區","LI":"和順里","LIN":"20鄰","STREET":"民德路","SECT":" ","MAREA":" ","LANE":"８５巷","ALLEY":" ","HOUSE_NO":"６０號","E_COORD97":168122.73000000001,"N_COORD97":2545060.1600000001,"ADDRESS":"民德路８５巷６０號","OBJECTID":452179},"geometry":{"x":168122.73000000138,"y":2545060.1600000001}},{"attributes":{"ID":452205,"DIS_CODE":0,"TOWNNAME":"北區","LI":"和順里","LIN":"20鄰","STREET":"民德路","SECT":" ","MAREA":" ","LANE":"８５巷","ALLEY":" ","HOUSE_NO":"６２號","E_COORD97":168118.26000000001,"N_COORD97":2545058.4300000002,"ADDRESS":"民德路８５巷６２號","OBJECTID":452180},"geometry":{"x":168118.26000000071,"y":2545058.4300000034}},{"attributes":{"ID":452206,"DIS_CODE":0,"TOWNNAME":"北區","LI":"和順里","LIN":"20鄰","STREET":"民德路","SECT":" ","MAREA":" ","LANE":"８５巷","ALLEY":" ","HOUSE_NO":"６４號","E_COORD97":168114.67000000001,"N_COORD97":2545056.71,"ADDRESS":"民德路８５巷６４號","OBJECTID":452181},"geometry":{"x":168114.66999999993,"y":2545056.7100000009}},{"attributes":{"ID":452207,"DIS_CODE":0,"TOWNNAME":"北區","LI":"和順里","LIN":"20鄰","STREET":"民德路","SECT":" ","MAREA":" ","LANE":"８５巷","ALLEY":" ","HOUSE_NO":"６６號","E_COORD97":168110.64000000001,"N_COORD97":2545055.4199999999,"ADDRESS":"民德路８５巷６６號","OBJECTID":452182},"geometry":{"x":168110.6400000006,"y":2545055.4200000037}},{"attributes":{"ID":452208,"DIS_CODE":0,"TOWNNAME":"北區","LI":"和順里","LIN":"20鄰","STREET":"民德路","SECT":" ","MAREA":" ","LANE":"８５巷","ALLEY":" ","HOUSE_NO":"６８號","E_COORD97":168106.89000000001,"N_COORD97":2545054.27,"ADDRESS":"民德路８５巷６８號","OBJECTID":452183},"geometry":{"x":168106.89000000153,"y":2545054.2700000014}},{"attributes":{"ID":452209,"DIS_CODE":0,"TOWNNAME":"北區","LI":"和順里","LIN":"20鄰","STREET":"民德路","SECT":" ","MAREA":" ","LANE":"８５巷","ALLEY":" ","HOUSE_NO":"６號","E_COORD97":168228.38,"N_COORD97":2545101.0600000001,"ADDRESS":"民德路８５巷６號","OBJECTID":452184},"geometry":{"x":168228.38000000082,"y":2545101.0600000005}},{"attributes":{"ID":452210,"DIS_CODE":0,"TOWNNAME":"北區","LI":"和順里","LIN":"20鄰","STREET":"民德路","SECT":" ","MAREA":" ","LANE":"８５巷","ALLEY":" ","HOUSE_NO":"７０號","E_COORD97":168102.42999999999,"N_COORD97":2545052.8300000001,"ADDRESS":"民德路８５巷７０號","OBJECTID":452185},"geometry":{"x":168102.4299999997,"y":2545052.8300000038}},{"attributes":{"ID":452211,"DIS_CODE":0,"TOWNNAME":"北區","LI":"六甲里","LIN":"20鄰","STREET":"西門路","SECT":"四段","MAREA":" ","LANE":"３３０巷","ALLEY":" ","HOUSE_NO":"２８號","E_COORD97":169055.57000000001,"N_COORD97":2545979.96,"ADDRESS":"西門路四段３３０巷２８號","OBJECTID":452186},"geometry":{"x":169055.56999999937,"y":2545979.9600000028}},{"attributes":{"ID":452212,"DIS_CODE":0,"TOWNNAME":"永康區","LI":"勝利里","LIN":"20鄰","STREET":"勝學路","SECT":" ","MAREA":" ","LANE":"２６９巷","ALLEY":" ","HOUSE_NO":"２號五樓之６","E_COORD97":171173.39000000001,"N_COORD97":2545316.0499999998,"ADDRESS":"勝學路２６９巷２號五樓之６","OBJECTID":452187},"geometry":{"x":171173.38999999873,"y":2545316.0500000007}},{"attributes":{"ID":452213,"DIS_CODE":0,"TOWNNAME":"永康區","LI":"勝利里","LIN":"20鄰","STREET":"勝學路","SECT":" ","MAREA":" ","LANE":"２６９巷","ALLEY":" ","HOUSE_NO":"２號三樓之６","E_COORD97":171173.39000000001,"N_COORD97":2545316.0499999998,"ADDRESS":"勝學路２６９巷２號三樓之６","OBJECTID":452188},"geometry":{"x":171173.38999999873,"y":2545316.0500000007}},{"attributes":{"ID":452214,"DIS_CODE":0,"TOWNNAME":"永康區","LI":"勝利里","LIN":"20鄰","STREET":"勝學路","SECT":" ","MAREA":" ","LANE":"２６９巷","ALLEY":" ","HOUSE_NO":"６號七樓之３","E_COORD97":171164.38,"N_COORD97":2545316.29,"ADDRESS":"勝學路２６９巷６號七樓之３","OBJECTID":452189},"geometry":{"x":171164.38000000082,"y":2545316.2899999972}},{"attributes":{"ID":452215,"DIS_CODE":0,"TOWNNAME":"永康區","LI":"勝利里","LIN":"20鄰","STREET":"勝學路","SECT":" ","MAREA":" ","LANE":"２６９巷","ALLEY":" ","HOUSE_NO":"２號六樓之９","E_COORD97":171173.37,"N_COORD97":2545316.0499999998,"ADDRESS":"勝學路２６９巷２號六樓之９","OBJECTID":452190},"geometry":{"x":171173.37000000011,"y":2545316.0500000007}},{"attributes":{"ID":452216,"DIS_CODE":0,"TOWNNAME":"永康區","LI":"勝利里","LIN":"20鄰","STREET":"勝學路","SECT":" ","MAREA":" ","LANE":"２６９巷","ALLEY":" ","HOUSE_NO":"６號七樓之２","E_COORD97":171164.42000000001,"N_COORD97":2545316.29,"ADDRESS":"勝學路２６９巷６號七樓之２","OBJECTID":452191},"geometry":{"x":171164.41999999993,"y":2545316.2899999972}},{"attributes":{"ID":452217,"DIS_CODE":0,"TOWNNAME":"永康區","LI":"勝利里","LIN":"20鄰","STREET":"勝學路","SECT":" ","MAREA":" ","LANE":"２６９巷","ALLEY":" ","HOUSE_NO":"２號六樓之５","E_COORD97":171173.44,"N_COORD97":2545316.0499999998,"ADDRESS":"勝學路２６９巷２號六樓之５","OBJECTID":452192},"geometry":{"x":171173.44000000041,"y":2545316.0500000007}},{"attributes":{"ID":452218,"DIS_CODE":0,"TOWNNAME":"永康區","LI":"勝利里","LIN":"20鄰","STREET":"勝學路","SECT":" ","MAREA":" ","LANE":"２６９巷","ALLEY":" ","HOUSE_NO":"６號四樓之１","E_COORD97":171164.28,"N_COORD97":2545316.29,"ADDRESS":"勝學路２６９巷６號四樓之１","OBJECTID":452193},"geometry":{"x":171164.28000000026,"y":2545316.2899999972}},{"attributes":{"ID":452219,"DIS_CODE":0,"TOWNNAME":"東區","LI":"崇德里","LIN":"20鄰","STREET":"崇明十四街","SECT":" ","MAREA":" ","LANE":"６０巷","ALLEY":" ","HOUSE_NO":"１２號二樓","E_COORD97":170670.23000000001,"N_COORD97":2541602.1800000002,"ADDRESS":"崇明十四街６０巷１２號二樓","OBJECTID":452194},"geometry":{"x":170670.23000000231,"y":2541602.1800000034}},{"attributes":{"ID":452220,"DIS_CODE":0,"TOWNNAME":"東區","LI":"崇德里","LIN":"20鄰","STREET":"崇明十四街","SECT":" ","MAREA":" ","LANE":"６０巷","ALLEY":" ","HOUSE_NO":"１２號二樓之１","E_COORD97":170670.23000000001,"N_COORD97":2541602.1800000002,"ADDRESS":"崇明十四街６０巷１２號二樓之１","OBJECTID":452195},"geometry":{"x":170670.23000000231,"y":2541602.1800000034}},{"attributes":{"ID":452221,"DIS_CODE":0,"TOWNNAME":"東區","LI":"崇德里","LIN":"20鄰","STREET":"崇明十四街","SECT":" ","MAREA":" ","LANE":"６０巷","ALLEY":" ","HOUSE_NO":"１２號二樓之２","E_COORD97":170670.23000000001,"N_COORD97":2541602.1800000002,"ADDRESS":"崇明十四街６０巷１２號二樓之２","OBJECTID":452196},"geometry":{"x":170670.23000000231,"y":2541602.1800000034}},{"attributes":{"ID":452222,"DIS_CODE":0,"TOWNNAME":"東區","LI":"崇德里","LIN":"20鄰","STREET":"崇明十四街","SECT":" ","MAREA":" ","LANE":"６０巷","ALLEY":" ","HOUSE_NO":"１２號二樓之３","E_COORD97":170670.23000000001,"N_COORD97":2541602.1800000002,"ADDRESS":"崇明十四街６０巷１２號二樓之３","OBJECTID":452197},"geometry":{"x":170670.23000000231,"y":2541602.1800000034}},{"attributes":{"ID":452223,"DIS_CODE":0,"TOWNNAME":"東區","LI":"崇德里","LIN":"20鄰","STREET":"崇明十四街","SECT":" ","MAREA":" ","LANE":"６０巷","ALLEY":" ","HOUSE_NO":"１２號二樓之４","E_COORD97":170670.23000000001,"N_COORD97":2541602.1800000002,"ADDRESS":"崇明十四街６０巷１２號二樓之４","OBJECTID":452198},"geometry":{"x":170670.23000000231,"y":2541602.1800000034}},{"attributes":{"ID":452224,"DIS_CODE":0,"TOWNNAME":"東區","LI":"崇德里","LIN":"20鄰","STREET":"崇明十四街","SECT":" ","MAREA":" ","LANE":"６０巷","ALLEY":" ","HOUSE_NO":"１２號二樓之５","E_COORD97":170670.23000000001,"N_COORD97":2541602.1800000002,"ADDRESS":"崇明十四街６０巷１２號二樓之５","OBJECTID":452199},"geometry":{"x":170670.23000000231,"y":2541602.1800000034}},{"attributes":{"ID":452225,"DIS_CODE":0,"TOWNNAME":"東區","LI":"崇德里","LIN":"20鄰","STREET":"崇明十四街","SECT":" ","MAREA":" ","LANE":"６０巷","ALLEY":" ","HOUSE_NO":"１２號二樓之６","E_COORD97":170670.23000000001,"N_COORD97":2541602.1800000002,"ADDRESS":"崇明十四街６０巷１２號二樓之６","OBJECTID":452200},"geometry":{"x":170670.23000000231,"y":2541602.1800000034}}]}