{"displayFieldName":"TOWNNAME","fieldAliases":{"ID":"ID","DIS_CODE":"DIS_CODE","TOWNNAME":"TOWNNAME","LI":"LI","LIN":"LIN","STREET":"STREET","SECT":"SECT","MAREA":"MAREA","LANE":"LANE","ALLEY":"ALLEY","HOUSE_NO":"HOUSE_NO","E_COORD97":"E_COORD97","N_COORD97":"N_COORD97","ADDRESS":"ADDRESS","OBJECTID":"OBJECTID"},"geometryType":"esriGeometryPoint","spatialReference":{"wkid":102443,"latestWkid":3826},"fields":[{"name":"ID","type":"esriFieldTypeDouble","alias":"ID"},{"name":"DIS_CODE","type":"esriFieldTypeInteger","alias":"DIS_CODE"},{"name":"TOWNNAME","type":"esriFieldTypeString","alias":"TOWNNAME","length":8},{"name":"LI","type":"esriFieldTypeString","alias":"LI","length":8},{"name":"LIN","type":"esriFieldTypeString","alias":"LIN","length":12},{"name":"STREET","type":"esriFieldTypeString","alias":"STREET","length":20},{"name":"SECT","type":"esriFieldTypeString","alias":"SECT","length":8},{"name":"MAREA","type":"esriFieldTypeString","alias":"MAREA","length":12},{"name":"LANE","type":"esriFieldTypeString","alias":"LANE","length":10},{"name":"ALLEY","type":"esriFieldTypeString","alias":"ALLEY","length":10},{"name":"HOUSE_NO","type":"esriFieldTypeString","alias":"HOUSE_NO","length":20},{"name":"E_COORD97","type":"esriFieldTypeDouble","alias":"E_COORD97"},{"name":"N_COORD97","type":"esriFieldTypeDouble","alias":"N_COORD97"},{"name":"ADDRESS","type":"esriFieldTypeString","alias":"ADDRESS","length":50},{"name":"OBJECTID","type":"esriFieldTypeOID","alias":"OBJECTID"}],"features":[{"attributes":{"ID":606028,"DIS_CODE":0,"TOWNNAME":"安平區","LI":"怡平里","LIN":"3鄰","STREET":"永華六街","SECT":" ","MAREA":" ","LANE":" ","ALLEY":" ","HOUSE_NO":"２１４號五樓之９","E_COORD97":165681.85000000001,"N_COORD97":2544203.5099999998,"ADDRESS":"永華六街２１４號五樓之９","OBJECTID":606001},"geometry":{"x":165681.85000000056,"y":2544203.5100000035}},{"attributes":{"ID":606029,"DIS_CODE":0,"TOWNNAME":"安平區","LI":"怡平里","LIN":"3鄰","STREET":"永華六街","SECT":" ","MAREA":" ","LANE":" ","ALLEY":" ","HOUSE_NO":"２１４號六樓之１","E_COORD97":165681.85000000001,"N_COORD97":2544203.5099999998,"ADDRESS":"永華六街２１４號六樓之１","OBJECTID":606002},"geometry":{"x":165681.85000000056,"y":2544203.5100000035}},{"attributes":{"ID":606030,"DIS_CODE":0,"TOWNNAME":"安平區","LI":"怡平里","LIN":"3鄰","STREET":"永華六街","SECT":" ","MAREA":" ","LANE":" ","ALLEY":" ","HOUSE_NO":"２１４號六樓之１０","E_COORD97":165681.85000000001,"N_COORD97":2544203.5099999998,"ADDRESS":"永華六街２１４號六樓之１０","OBJECTID":606003},"geometry":{"x":165681.85000000056,"y":2544203.5100000035}},{"attributes":{"ID":606031,"DIS_CODE":0,"TOWNNAME":"安平區","LI":"怡平里","LIN":"3鄰","STREET":"永華六街","SECT":" ","MAREA":" ","LANE":" ","ALLEY":" ","HOUSE_NO":"２１４號六樓之２","E_COORD97":165681.85000000001,"N_COORD97":2544203.5099999998,"ADDRESS":"永華六街２１４號六樓之２","OBJECTID":606004},"geometry":{"x":165681.85000000056,"y":2544203.5100000035}},{"attributes":{"ID":606032,"DIS_CODE":0,"TOWNNAME":"安平區","LI":"怡平里","LIN":"3鄰","STREET":"永華六街","SECT":" ","MAREA":" ","LANE":" ","ALLEY":" ","HOUSE_NO":"２１４號六樓之３","E_COORD97":165681.85000000001,"N_COORD97":2544203.5099999998,"ADDRESS":"永華六街２１４號六樓之３","OBJECTID":606005},"geometry":{"x":165681.85000000056,"y":2544203.5100000035}},{"attributes":{"ID":606033,"DIS_CODE":0,"TOWNNAME":"安平區","LI":"怡平里","LIN":"3鄰","STREET":"永華六街","SECT":" ","MAREA":" ","LANE":" ","ALLEY":" ","HOUSE_NO":"２１４號六樓之４","E_COORD97":165681.85000000001,"N_COORD97":2544203.5099999998,"ADDRESS":"永華六街２１４號六樓之４","OBJECTID":606006},"geometry":{"x":165681.85000000056,"y":2544203.5100000035}},{"attributes":{"ID":606034,"DIS_CODE":0,"TOWNNAME":"安平區","LI":"怡平里","LIN":"3鄰","STREET":"永華六街","SECT":" ","MAREA":" ","LANE":" ","ALLEY":" ","HOUSE_NO":"２１４號六樓之５","E_COORD97":165681.85000000001,"N_COORD97":2544203.5099999998,"ADDRESS":"永華六街２１４號六樓之５","OBJECTID":606007},"geometry":{"x":165681.85000000056,"y":2544203.5100000035}},{"attributes":{"ID":606035,"DIS_CODE":0,"TOWNNAME":"安平區","LI":"怡平里","LIN":"3鄰","STREET":"永華六街","SECT":" ","MAREA":" ","LANE":" ","ALLEY":" ","HOUSE_NO":"２１４號六樓之６","E_COORD97":165681.85000000001,"N_COORD97":2544203.5099999998,"ADDRESS":"永華六街２１４號六樓之６","OBJECTID":606008},"geometry":{"x":165681.85000000056,"y":2544203.5100000035}},{"attributes":{"ID":606036,"DIS_CODE":0,"TOWNNAME":"安平區","LI":"怡平里","LIN":"3鄰","STREET":"永華六街","SECT":" ","MAREA":" ","LANE":" ","ALLEY":" ","HOUSE_NO":"２１４號六樓之７","E_COORD97":165681.85000000001,"N_COORD97":2544203.5099999998,"ADDRESS":"永華六街２１４號六樓之７","OBJECTID":606009},"geometry":{"x":165681.85000000056,"y":2544203.5100000035}},{"attributes":{"ID":606037,"DIS_CODE":0,"TOWNNAME":"安平區","LI":"怡平里","LIN":"3鄰","STREET":"永華六街","SECT":" ","MAREA":" ","LANE":" ","ALLEY":" ","HOUSE_NO":"２１４號六樓之８","E_COORD97":165681.85000000001,"N_COORD97":2544203.5099999998,"ADDRESS":"永華六街２１４號六樓之８","OBJECTID":606010},"geometry":{"x":165681.85000000056,"y":2544203.5100000035}},{"attributes":{"ID":606038,"DIS_CODE":0,"TOWNNAME":"安平區","LI":"怡平里","LIN":"3鄰","STREET":"永華六街","SECT":" ","MAREA":" ","LANE":" ","ALLEY":" ","HOUSE_NO":"２１４號六樓之９","E_COORD97":165681.85000000001,"N_COORD97":2544203.5099999998,"ADDRESS":"永華六街２１４號六樓之９","OBJECTID":606011},"geometry":{"x":165681.85000000056,"y":2544203.5100000035}},{"attributes":{"ID":606039,"DIS_CODE":0,"TOWNNAME":"安平區","LI":"怡平里","LIN":"3鄰","STREET":"永華六街","SECT":" ","MAREA":" ","LANE":" ","ALLEY":" ","HOUSE_NO":"２１４號四樓之１","E_COORD97":165681.85000000001,"N_COORD97":2544203.5099999998,"ADDRESS":"永華六街２１４號四樓之１","OBJECTID":606012},"geometry":{"x":165681.85000000056,"y":2544203.5100000035}},{"attributes":{"ID":606040,"DIS_CODE":0,"TOWNNAME":"安平區","LI":"怡平里","LIN":"3鄰","STREET":"永華六街","SECT":" ","MAREA":" ","LANE":" ","ALLEY":" ","HOUSE_NO":"２１４號四樓之１０","E_COORD97":165681.85000000001,"N_COORD97":2544203.5099999998,"ADDRESS":"永華六街２１４號四樓之１０","OBJECTID":606013},"geometry":{"x":165681.85000000056,"y":2544203.5100000035}},{"attributes":{"ID":606041,"DIS_CODE":0,"TOWNNAME":"安平區","LI":"怡平里","LIN":"3鄰","STREET":"永華六街","SECT":" ","MAREA":" ","LANE":" ","ALLEY":" ","HOUSE_NO":"２１４號四樓之１１","E_COORD97":165681.85000000001,"N_COORD97":2544203.5099999998,"ADDRESS":"永華六街２１４號四樓之１１","OBJECTID":606014},"geometry":{"x":165681.85000000056,"y":2544203.5100000035}},{"attributes":{"ID":606042,"DIS_CODE":0,"TOWNNAME":"安平區","LI":"怡平里","LIN":"3鄰","STREET":"永華六街","SECT":" ","MAREA":" ","LANE":" ","ALLEY":" ","HOUSE_NO":"２１４號四樓之１４","E_COORD97":165681.85000000001,"N_COORD97":2544203.5099999998,"ADDRESS":"永華六街２１４號四樓之１４","OBJECTID":606015},"geometry":{"x":165681.85000000056,"y":2544203.5100000035}},{"attributes":{"ID":606043,"DIS_CODE":0,"TOWNNAME":"安平區","LI":"怡平里","LIN":"3鄰","STREET":"永華六街","SECT":" ","MAREA":" ","LANE":" ","ALLEY":" ","HOUSE_NO":"２１４號四樓之２","E_COORD97":165681.85000000001,"N_COORD97":2544203.5099999998,"ADDRESS":"永華六街２１４號四樓之２","OBJECTID":606016},"geometry":{"x":165681.85000000056,"y":2544203.5100000035}},{"attributes":{"ID":606044,"DIS_CODE":0,"TOWNNAME":"安平區","LI":"怡平里","LIN":"3鄰","STREET":"永華六街","SECT":" ","MAREA":" ","LANE":" ","ALLEY":" ","HOUSE_NO":"２１４號四樓之３","E_COORD97":165681.85000000001,"N_COORD97":2544203.5099999998,"ADDRESS":"永華六街２１４號四樓之３","OBJECTID":606017},"geometry":{"x":165681.85000000056,"y":2544203.5100000035}},{"attributes":{"ID":606045,"DIS_CODE":0,"TOWNNAME":"佳里區","LI":"六安里","LIN":"3鄰","STREET":"佳東路","SECT":" ","MAREA":" ","LANE":" ","ALLEY":" ","HOUSE_NO":"４９７號","E_COORD97":166243.38,"N_COORD97":2562801.1000000001,"ADDRESS":"佳東路４９７號","OBJECTID":606018},"geometry":{"x":166243.37999999989,"y":2562801.0999999996}},{"attributes":{"ID":606046,"DIS_CODE":0,"TOWNNAME":"安平區","LI":"怡平里","LIN":"3鄰","STREET":"永華六街","SECT":" ","MAREA":" ","LANE":" ","ALLEY":" ","HOUSE_NO":"２１４號四樓之５","E_COORD97":165681.85000000001,"N_COORD97":2544203.5099999998,"ADDRESS":"永華六街２１４號四樓之５","OBJECTID":606019},"geometry":{"x":165681.85000000056,"y":2544203.5100000035}},{"attributes":{"ID":606047,"DIS_CODE":0,"TOWNNAME":"安平區","LI":"怡平里","LIN":"3鄰","STREET":"永華六街","SECT":" ","MAREA":" ","LANE":" ","ALLEY":" ","HOUSE_NO":"２１４號四樓之６","E_COORD97":165681.85000000001,"N_COORD97":2544203.5099999998,"ADDRESS":"永華六街２１４號四樓之６","OBJECTID":606020},"geometry":{"x":165681.85000000056,"y":2544203.5100000035}},{"attributes":{"ID":606048,"DIS_CODE":0,"TOWNNAME":"安平區","LI":"怡平里","LIN":"3鄰","STREET":"永華六街","SECT":" ","MAREA":" ","LANE":" ","ALLEY":" ","HOUSE_NO":"２１４號四樓之７","E_COORD97":165681.85000000001,"N_COORD97":2544203.5099999998,"ADDRESS":"永華六街２１４號四樓之７","OBJECTID":606021},"geometry":{"x":165681.85000000056,"y":2544203.5100000035}},{"attributes":{"ID":606049,"DIS_CODE":0,"TOWNNAME":"安平區","LI":"怡平里","LIN":"3鄰","STREET":"永華六街","SECT":" ","MAREA":" ","LANE":" ","ALLEY":" ","HOUSE_NO":"２１４號四樓之８","E_COORD97":165681.85000000001,"N_COORD97":2544203.5099999998,"ADDRESS":"永華六街２１４號四樓之８","OBJECTID":606022},"geometry":{"x":165681.85000000056,"y":2544203.5100000035}},{"attributes":{"ID":606050,"DIS_CODE":0,"TOWNNAME":"安平區","LI":"怡平里","LIN":"3鄰","STREET":"永華六街","SECT":" ","MAREA":" ","LANE":" ","ALLEY":" ","HOUSE_NO":"２１４號四樓之９","E_COORD97":165681.85000000001,"N_COORD97":2544203.5099999998,"ADDRESS":"永華六街２１４號四樓之９","OBJECTID":606023},"geometry":{"x":165681.85000000056,"y":2544203.5100000035}},{"attributes":{"ID":606051,"DIS_CODE":0,"TOWNNAME":"安平區","LI":"怡平里","LIN":"3鄰","STREET":"永華六街","SECT":" ","MAREA":" ","LANE":" ","ALLEY":" ","HOUSE_NO":"２１４號四樓之１２","E_COORD97":165681.85000000001,"N_COORD97":2544203.5099999998,"ADDRESS":"永華六街２１４號四樓之１２","OBJECTID":606024},"geometry":{"x":165681.85000000056,"y":2544203.5100000035}},{"attributes":{"ID":606052,"DIS_CODE":0,"TOWNNAME":"南區","LI":"文南里","LIN":"3鄰","STREET":"金華路","SECT":"二段","MAREA":" ","LANE":" ","ALLEY":" ","HOUSE_NO":"２５１號二樓之１","E_COORD97":167097.53,"N_COORD97":2542677.7200000002,"ADDRESS":"金華路二段２５１號二樓之１","OBJECTID":606025},"geometry":{"x":167097.53000000026,"y":2542677.7200000044}},{"attributes":{"ID":606053,"DIS_CODE":0,"TOWNNAME":"南區","LI":"文南里","LIN":"3鄰","STREET":"金華路","SECT":"二段","MAREA":" ","LANE":" ","ALLEY":" ","HOUSE_NO":"２５１號二樓之２","E_COORD97":167097.53,"N_COORD97":2542677.7200000002,"ADDRESS":"金華路二段２５１號二樓之２","OBJECTID":606026},"geometry":{"x":167097.53000000026,"y":2542677.7200000044}},{"attributes":{"ID":606054,"DIS_CODE":0,"TOWNNAME":"南區","LI":"文南里","LIN":"3鄰","STREET":"金華路","SECT":"二段","MAREA":" ","LANE":" ","ALLEY":" ","HOUSE_NO":"２５１號三樓之１","E_COORD97":167097.53,"N_COORD97":2542677.7200000002,"ADDRESS":"金華路二段２５１號三樓之１","OBJECTID":606027},"geometry":{"x":167097.53000000026,"y":2542677.7200000044}},{"attributes":{"ID":606055,"DIS_CODE":0,"TOWNNAME":"南區","LI":"文南里","LIN":"3鄰","STREET":"金華路","SECT":"二段","MAREA":" ","LANE":" ","ALLEY":" ","HOUSE_NO":"２５１號三樓之２","E_COORD97":167097.53,"N_COORD97":2542677.7200000002,"ADDRESS":"金華路二段２５１號三樓之２","OBJECTID":606028},"geometry":{"x":167097.53000000026,"y":2542677.7200000044}},{"attributes":{"ID":606056,"DIS_CODE":0,"TOWNNAME":"南區","LI":"文南里","LIN":"3鄰","STREET":"金華路","SECT":"二段","MAREA":" ","LANE":" ","ALLEY":" ","HOUSE_NO":"２５１號四樓之１","E_COORD97":167097.53,"N_COORD97":2542677.7200000002,"ADDRESS":"金華路二段２５１號四樓之１","OBJECTID":606029},"geometry":{"x":167097.53000000026,"y":2542677.7200000044}},{"attributes":{"ID":606057,"DIS_CODE":0,"TOWNNAME":"南區","LI":"文南里","LIN":"3鄰","STREET":"金華路","SECT":"二段","MAREA":" ","LANE":" ","ALLEY":" ","HOUSE_NO":"２５１號四樓之２","E_COORD97":167097.53,"N_COORD97":2542677.7200000002,"ADDRESS":"金華路二段２５１號四樓之２","OBJECTID":606030},"geometry":{"x":167097.53000000026,"y":2542677.7200000044}},{"attributes":{"ID":606058,"DIS_CODE":0,"TOWNNAME":"南區","LI":"文南里","LIN":"3鄰","STREET":"金華路","SECT":"二段","MAREA":" ","LANE":" ","ALLEY":" ","HOUSE_NO":"２５１號五樓之１","E_COORD97":167097.53,"N_COORD97":2542677.7200000002,"ADDRESS":"金華路二段２５１號五樓之１","OBJECTID":606031},"geometry":{"x":167097.53000000026,"y":2542677.7200000044}},{"attributes":{"ID":606059,"DIS_CODE":0,"TOWNNAME":"南區","LI":"文南里","LIN":"3鄰","STREET":"金華路","SECT":"二段","MAREA":" ","LANE":" ","ALLEY":" ","HOUSE_NO":"２５１號五樓之２","E_COORD97":167097.53,"N_COORD97":2542677.7200000002,"ADDRESS":"金華路二段２５１號五樓之２","OBJECTID":606032},"geometry":{"x":167097.53000000026,"y":2542677.7200000044}},{"attributes":{"ID":606060,"DIS_CODE":0,"TOWNNAME":"仁德區","LI":"成功里","LIN":"19鄰","STREET":"成功一街","SECT":" ","MAREA":" ","LANE":" ","ALLEY":" ","HOUSE_NO":"１９１號","E_COORD97":170551.62,"N_COORD97":2539757.2599999998,"ADDRESS":"成功一街１９１號","OBJECTID":606033},"geometry":{"x":170551.62000000011,"y":2539757.2600000035}},{"attributes":{"ID":606061,"DIS_CODE":0,"TOWNNAME":"南區","LI":"文南里","LIN":"3鄰","STREET":"金華路","SECT":"二段","MAREA":" ","LANE":" ","ALLEY":" ","HOUSE_NO":"２５１號六樓之１","E_COORD97":167097.53,"N_COORD97":2542677.7200000002,"ADDRESS":"金華路二段２５１號六樓之１","OBJECTID":606034},"geometry":{"x":167097.53000000026,"y":2542677.7200000044}},{"attributes":{"ID":606062,"DIS_CODE":0,"TOWNNAME":"南區","LI":"文南里","LIN":"3鄰","STREET":"金華路","SECT":"二段","MAREA":" ","LANE":" ","ALLEY":" ","HOUSE_NO":"２５１號六樓之２","E_COORD97":167097.53,"N_COORD97":2542677.7200000002,"ADDRESS":"金華路二段２５１號六樓之２","OBJECTID":606035},"geometry":{"x":167097.53000000026,"y":2542677.7200000044}},{"attributes":{"ID":606063,"DIS_CODE":0,"TOWNNAME":"南區","LI":"文南里","LIN":"3鄰","STREET":"金華路","SECT":"二段","MAREA":" ","LANE":" ","ALLEY":" ","HOUSE_NO":"２５１號七樓之１","E_COORD97":167097.53,"N_COORD97":2542677.7200000002,"ADDRESS":"金華路二段２５１號七樓之１","OBJECTID":606036},"geometry":{"x":167097.53000000026,"y":2542677.7200000044}},{"attributes":{"ID":606064,"DIS_CODE":0,"TOWNNAME":"南區","LI":"文南里","LIN":"3鄰","STREET":"金華路","SECT":"二段","MAREA":" ","LANE":" ","ALLEY":" ","HOUSE_NO":"２５１號七樓之２","E_COORD97":167097.53,"N_COORD97":2542677.7200000002,"ADDRESS":"金華路二段２５１號七樓之２","OBJECTID":606037},"geometry":{"x":167097.53000000026,"y":2542677.7200000044}},{"attributes":{"ID":606065,"DIS_CODE":0,"TOWNNAME":"南區","LI":"文南里","LIN":"3鄰","STREET":"金華路","SECT":"二段","MAREA":" ","LANE":" ","ALLEY":" ","HOUSE_NO":"２６７號四樓之２","E_COORD97":167107.25,"N_COORD97":2542717.25,"ADDRESS":"金華路二段２６７號四樓之２","OBJECTID":606038},"geometry":{"x":167107.25,"y":2542717.2500000037}},{"attributes":{"ID":606066,"DIS_CODE":0,"TOWNNAME":"南區","LI":"新生里","LIN":"3鄰","STREET":"大林路","SECT":" ","MAREA":" ","LANE":" ","ALLEY":" ","HOUSE_NO":"１０號八樓之３","E_COORD97":169299.35999999999,"N_COORD97":2541869.8700000001,"ADDRESS":"大林路１０號八樓之３","OBJECTID":606039},"geometry":{"x":169299.36000000034,"y":2541869.8700000048}},{"attributes":{"ID":606067,"DIS_CODE":0,"TOWNNAME":"仁德區","LI":"上崙里","LIN":"24鄰","STREET":"中正路","SECT":"一段","MAREA":" ","LANE":" ","ALLEY":" ","HOUSE_NO":"６５１之１號","E_COORD97":173013.79000000001,"N_COORD97":2537990.29,"ADDRESS":"中正路一段６５１之１號","OBJECTID":606040},"geometry":{"x":173013.7900000019,"y":2537990.290000001}},{"attributes":{"ID":606068,"DIS_CODE":0,"TOWNNAME":"南區","LI":"新生里","LIN":"3鄰","STREET":"大林路","SECT":" ","MAREA":" ","LANE":" ","ALLEY":" ","HOUSE_NO":"１０號一樓之１","E_COORD97":169299.35999999999,"N_COORD97":2541869.8700000001,"ADDRESS":"大林路１０號一樓之１","OBJECTID":606041},"geometry":{"x":169299.36000000034,"y":2541869.8700000048}},{"attributes":{"ID":606069,"DIS_CODE":0,"TOWNNAME":"南區","LI":"新生里","LIN":"3鄰","STREET":"大林路","SECT":" ","MAREA":" ","LANE":" ","ALLEY":" ","HOUSE_NO":"１０號一樓之２","E_COORD97":169299.35999999999,"N_COORD97":2541869.8700000001,"ADDRESS":"大林路１０號一樓之２","OBJECTID":606042},"geometry":{"x":169299.36000000034,"y":2541869.8700000048}},{"attributes":{"ID":606070,"DIS_CODE":0,"TOWNNAME":"南區","LI":"新生里","LIN":"3鄰","STREET":"大林路","SECT":" ","MAREA":" ","LANE":" ","ALLEY":" ","HOUSE_NO":"１０號三樓之１","E_COORD97":169299.35999999999,"N_COORD97":2541869.8700000001,"ADDRESS":"大林路１０號三樓之１","OBJECTID":606043},"geometry":{"x":169299.36000000034,"y":2541869.8700000048}},{"attributes":{"ID":606071,"DIS_CODE":0,"TOWNNAME":"南區","LI":"新生里","LIN":"3鄰","STREET":"大林路","SECT":" ","MAREA":" ","LANE":" ","ALLEY":" ","HOUSE_NO":"１０號三樓之２","E_COORD97":169299.35999999999,"N_COORD97":2541869.8700000001,"ADDRESS":"大林路１０號三樓之２","OBJECTID":606044},"geometry":{"x":169299.36000000034,"y":2541869.8700000048}},{"attributes":{"ID":606072,"DIS_CODE":0,"TOWNNAME":"南區","LI":"新生里","LIN":"3鄰","STREET":"大林路","SECT":" ","MAREA":" ","LANE":" ","ALLEY":" ","HOUSE_NO":"１０號三樓之３","E_COORD97":169299.35999999999,"N_COORD97":2541869.8700000001,"ADDRESS":"大林路１０號三樓之３","OBJECTID":606045},"geometry":{"x":169299.36000000034,"y":2541869.8700000048}},{"attributes":{"ID":606073,"DIS_CODE":0,"TOWNNAME":"南區","LI":"新生里","LIN":"3鄰","STREET":"大林路","SECT":" ","MAREA":" ","LANE":" ","ALLEY":" ","HOUSE_NO":"１０號三樓之５","E_COORD97":169299.35999999999,"N_COORD97":2541869.8700000001,"ADDRESS":"大林路１０號三樓之５","OBJECTID":606046},"geometry":{"x":169299.36000000034,"y":2541869.8700000048}},{"attributes":{"ID":606074,"DIS_CODE":0,"TOWNNAME":"南區","LI":"新生里","LIN":"3鄰","STREET":"大林路","SECT":" ","MAREA":" ","LANE":" ","ALLEY":" ","HOUSE_NO":"１０號二樓之１","E_COORD97":169299.35999999999,"N_COORD97":2541869.8700000001,"ADDRESS":"大林路１０號二樓之１","OBJECTID":606047},"geometry":{"x":169299.36000000034,"y":2541869.8700000048}},{"attributes":{"ID":606075,"DIS_CODE":0,"TOWNNAME":"南區","LI":"新生里","LIN":"3鄰","STREET":"大林路","SECT":" ","MAREA":" ","LANE":" ","ALLEY":" ","HOUSE_NO":"１０號二樓之２","E_COORD97":169299.35999999999,"N_COORD97":2541869.8700000001,"ADDRESS":"大林路１０號二樓之２","OBJECTID":606048},"geometry":{"x":169299.36000000034,"y":2541869.8700000048}},{"attributes":{"ID":606076,"DIS_CODE":0,"TOWNNAME":"南區","LI":"新生里","LIN":"3鄰","STREET":"大林路","SECT":" ","MAREA":" ","LANE":" ","ALLEY":" ","HOUSE_NO":"１０號四樓之１","E_COORD97":169299.35999999999,"N_COORD97":2541869.8700000001,"ADDRESS":"大林路１０號四樓之１","OBJECTID":606049},"geometry":{"x":169299.36000000034,"y":2541869.8700000048}},{"attributes":{"ID":606077,"DIS_CODE":0,"TOWNNAME":"南區","LI":"新生里","LIN":"3鄰","STREET":"大林路","SECT":" ","MAREA":" ","LANE":" ","ALLEY":" ","HOUSE_NO":"１０號四樓之２","E_COORD97":169299.35999999999,"N_COORD97":2541869.8700000001,"ADDRESS":"大林路１０號四樓之２","OBJECTID":606050},"geometry":{"x":169299.36000000034,"y":2541869.8700000048}},{"attributes":{"ID":606078,"DIS_CODE":0,"TOWNNAME":"南區","LI":"新生里","LIN":"3鄰","STREET":"大林路","SECT":" ","MAREA":" ","LANE":" ","ALLEY":" ","HOUSE_NO":"１０號四樓之３","E_COORD97":169299.35999999999,"N_COORD97":2541869.8700000001,"ADDRESS":"大林路１０號四樓之３","OBJECTID":606051},"geometry":{"x":169299.36000000034,"y":2541869.8700000048}},{"attributes":{"ID":606079,"DIS_CODE":0,"TOWNNAME":"南區","LI":"新生里","LIN":"3鄰","STREET":"大林路","SECT":" ","MAREA":" ","LANE":" ","ALLEY":" ","HOUSE_NO":"１０號四樓之５","E_COORD97":169299.35999999999,"N_COORD97":2541869.8700000001,"ADDRESS":"大林路１０號四樓之５","OBJECTID":606052},"geometry":{"x":169299.36000000034,"y":2541869.8700000048}},{"attributes":{"ID":606080,"DIS_CODE":0,"TOWNNAME":"南區","LI":"新生里","LIN":"3鄰","STREET":"大林路","SECT":" ","MAREA":" ","LANE":" ","ALLEY":" ","HOUSE_NO":"１０號五樓之１","E_COORD97":169299.35999999999,"N_COORD97":2541869.8700000001,"ADDRESS":"大林路１０號五樓之１","OBJECTID":606053},"geometry":{"x":169299.36000000034,"y":2541869.8700000048}},{"attributes":{"ID":606081,"DIS_CODE":0,"TOWNNAME":"南區","LI":"新生里","LIN":"3鄰","STREET":"大林路","SECT":" ","MAREA":" ","LANE":" ","ALLEY":" ","HOUSE_NO":"１０號五樓之２","E_COORD97":169299.35999999999,"N_COORD97":2541869.8700000001,"ADDRESS":"大林路１０號五樓之２","OBJECTID":606054},"geometry":{"x":169299.36000000034,"y":2541869.8700000048}},{"attributes":{"ID":606082,"DIS_CODE":0,"TOWNNAME":"南區","LI":"新生里","LIN":"3鄰","STREET":"大林路","SECT":" ","MAREA":" ","LANE":" ","ALLEY":" ","HOUSE_NO":"１０號五樓之３","E_COORD97":169299.35999999999,"N_COORD97":2541869.8700000001,"ADDRESS":"大林路１０號五樓之３","OBJECTID":606055},"geometry":{"x":169299.36000000034,"y":2541869.8700000048}},{"attributes":{"ID":606083,"DIS_CODE":0,"TOWNNAME":"南區","LI":"新生里","LIN":"3鄰","STREET":"大林路","SECT":" ","MAREA":" ","LANE":" ","ALLEY":" ","HOUSE_NO":"１０號五樓之５","E_COORD97":169299.35999999999,"N_COORD97":2541869.8700000001,"ADDRESS":"大林路１０號五樓之５","OBJECTID":606056},"geometry":{"x":169299.36000000034,"y":2541869.8700000048}},{"attributes":{"ID":606084,"DIS_CODE":0,"TOWNNAME":"南區","LI":"新生里","LIN":"3鄰","STREET":"大林路","SECT":" ","MAREA":" ","LANE":" ","ALLEY":" ","HOUSE_NO":"１０號六樓之１","E_COORD97":169299.35999999999,"N_COORD97":2541869.8700000001,"ADDRESS":"大林路１０號六樓之１","OBJECTID":606057},"geometry":{"x":169299.36000000034,"y":2541869.8700000048}},{"attributes":{"ID":606085,"DIS_CODE":0,"TOWNNAME":"南區","LI":"新生里","LIN":"3鄰","STREET":"大林路","SECT":" ","MAREA":" ","LANE":" ","ALLEY":" ","HOUSE_NO":"１０號六樓之２","E_COORD97":169299.35999999999,"N_COORD97":2541869.8700000001,"ADDRESS":"大林路１０號六樓之２","OBJECTID":606058},"geometry":{"x":169299.36000000034,"y":2541869.8700000048}},{"attributes":{"ID":606086,"DIS_CODE":0,"TOWNNAME":"南區","LI":"新生里","LIN":"3鄰","STREET":"大林路","SECT":" ","MAREA":" ","LANE":" ","ALLEY":" ","HOUSE_NO":"１０號六樓之３","E_COORD97":169299.35999999999,"N_COORD97":2541869.8700000001,"ADDRESS":"大林路１０號六樓之３","OBJECTID":606059},"geometry":{"x":169299.36000000034,"y":2541869.8700000048}},{"attributes":{"ID":606087,"DIS_CODE":0,"TOWNNAME":"南區","LI":"新生里","LIN":"3鄰","STREET":"大林路","SECT":" ","MAREA":" ","LANE":" ","ALLEY":" ","HOUSE_NO":"１０號六樓之５","E_COORD97":169299.35999999999,"N_COORD97":2541869.8700000001,"ADDRESS":"大林路１０號六樓之５","OBJECTID":606060},"geometry":{"x":169299.36000000034,"y":2541869.8700000048}},{"attributes":{"ID":606088,"DIS_CODE":0,"TOWNNAME":"南區","LI":"新生里","LIN":"3鄰","STREET":"大林路","SECT":" ","MAREA":" ","LANE":" ","ALLEY":" ","HOUSE_NO":"１０號七樓之１","E_COORD97":169299.35999999999,"N_COORD97":2541869.8700000001,"ADDRESS":"大林路１０號七樓之１","OBJECTID":606061},"geometry":{"x":169299.36000000034,"y":2541869.8700000048}},{"attributes":{"ID":606089,"DIS_CODE":0,"TOWNNAME":"仁德區","LI":"新田里","LIN":"6鄰","STREET":"勝利路","SECT":" ","MAREA":" ","LANE":" ","ALLEY":" ","HOUSE_NO":"２５３號","E_COORD97":174882.89999999999,"N_COORD97":2539423.75,"ADDRESS":"勝利路２５３號","OBJECTID":606062},"geometry":{"x":174882.90000000037,"y":2539423.75}},{"attributes":{"ID":606090,"DIS_CODE":0,"TOWNNAME":"南區","LI":"新生里","LIN":"3鄰","STREET":"大林路","SECT":" ","MAREA":" ","LANE":" ","ALLEY":" ","HOUSE_NO":"１０號七樓之２","E_COORD97":169299.35999999999,"N_COORD97":2541869.8700000001,"ADDRESS":"大林路１０號七樓之２","OBJECTID":606063},"geometry":{"x":169299.36000000034,"y":2541869.8700000048}},{"attributes":{"ID":606091,"DIS_CODE":0,"TOWNNAME":"南區","LI":"新生里","LIN":"3鄰","STREET":"大林路","SECT":" ","MAREA":" ","LANE":" ","ALLEY":" ","HOUSE_NO":"１０號七樓之３","E_COORD97":169299.35999999999,"N_COORD97":2541869.8700000001,"ADDRESS":"大林路１０號七樓之３","OBJECTID":606064},"geometry":{"x":169299.36000000034,"y":2541869.8700000048}},{"attributes":{"ID":606092,"DIS_CODE":0,"TOWNNAME":"南區","LI":"新生里","LIN":"3鄰","STREET":"大林路","SECT":" ","MAREA":" ","LANE":" ","ALLEY":" ","HOUSE_NO":"１０號七樓之５","E_COORD97":169299.35999999999,"N_COORD97":2541869.8700000001,"ADDRESS":"大林路１０號七樓之５","OBJECTID":606065},"geometry":{"x":169299.36000000034,"y":2541869.8700000048}},{"attributes":{"ID":606093,"DIS_CODE":0,"TOWNNAME":"中西區","LI":"保安里","LIN":"3鄰","STREET":"保安路","SECT":" ","MAREA":" ","LANE":" ","ALLEY":" ","HOUSE_NO":"２８號","E_COORD97":167675.57999999999,"N_COORD97":2543432.2599999998,"ADDRESS":"保安路２８號","OBJECTID":606066},"geometry":{"x":167675.58000000194,"y":2543432.2600000035}},{"attributes":{"ID":606094,"DIS_CODE":0,"TOWNNAME":"南區","LI":"新生里","LIN":"3鄰","STREET":"大林路","SECT":" ","MAREA":" ","LANE":" ","ALLEY":" ","HOUSE_NO":"１０號九樓之３","E_COORD97":169299.35999999999,"N_COORD97":2541869.8700000001,"ADDRESS":"大林路１０號九樓之３","OBJECTID":606067},"geometry":{"x":169299.36000000034,"y":2541869.8700000048}},{"attributes":{"ID":606095,"DIS_CODE":0,"TOWNNAME":"中西區","LI":"水仙里","LIN":"3鄰","STREET":"仁愛街","SECT":" ","MAREA":" ","LANE":" ","ALLEY":" ","HOUSE_NO":"９號","E_COORD97":167734.35999999999,"N_COORD97":2543996.3999999999,"ADDRESS":"仁愛街９號","OBJECTID":606068},"geometry":{"x":167734.36000000034,"y":2543996.4000000022}},{"attributes":{"ID":606096,"DIS_CODE":0,"TOWNNAME":"南區","LI":"新生里","LIN":"3鄰","STREET":"大林路","SECT":" ","MAREA":" ","LANE":" ","ALLEY":" ","HOUSE_NO":"１０號九樓之５","E_COORD97":169299.35999999999,"N_COORD97":2541869.8700000001,"ADDRESS":"大林路１０號九樓之５","OBJECTID":606069},"geometry":{"x":169299.36000000034,"y":2541869.8700000048}},{"attributes":{"ID":606097,"DIS_CODE":0,"TOWNNAME":"南區","LI":"新生里","LIN":"3鄰","STREET":"大林路","SECT":" ","MAREA":" ","LANE":" ","ALLEY":" ","HOUSE_NO":"１０號八樓之１","E_COORD97":169299.35999999999,"N_COORD97":2541869.8700000001,"ADDRESS":"大林路１０號八樓之１","OBJECTID":606070},"geometry":{"x":169299.36000000034,"y":2541869.8700000048}},{"attributes":{"ID":606098,"DIS_CODE":0,"TOWNNAME":"南區","LI":"新生里","LIN":"3鄰","STREET":"大林路","SECT":" ","MAREA":" ","LANE":" ","ALLEY":" ","HOUSE_NO":"１０號八樓之２","E_COORD97":169299.35999999999,"N_COORD97":2541869.8700000001,"ADDRESS":"大林路１０號八樓之２","OBJECTID":606071},"geometry":{"x":169299.36000000034,"y":2541869.8700000048}},{"attributes":{"ID":606099,"DIS_CODE":0,"TOWNNAME":"南區","LI":"新生里","LIN":"3鄰","STREET":"大林路","SECT":" ","MAREA":" ","LANE":" ","ALLEY":" ","HOUSE_NO":"１０號八樓之５","E_COORD97":169299.35999999999,"N_COORD97":2541869.8700000001,"ADDRESS":"大林路１０號八樓之５","OBJECTID":606072},"geometry":{"x":169299.36000000034,"y":2541869.8700000048}},{"attributes":{"ID":606100,"DIS_CODE":0,"TOWNNAME":"南區","LI":"新生里","LIN":"3鄰","STREET":"大林路","SECT":" ","MAREA":" ","LANE":" ","ALLEY":" ","HOUSE_NO":"１０號十樓之１","E_COORD97":169299.35999999999,"N_COORD97":2541869.8700000001,"ADDRESS":"大林路１０號十樓之１","OBJECTID":606073},"geometry":{"x":169299.36000000034,"y":2541869.8700000048}},{"attributes":{"ID":606101,"DIS_CODE":0,"TOWNNAME":"南區","LI":"新生里","LIN":"3鄰","STREET":"大林路","SECT":" ","MAREA":" ","LANE":" ","ALLEY":" ","HOUSE_NO":"１０號十樓之２","E_COORD97":169299.35999999999,"N_COORD97":2541869.8700000001,"ADDRESS":"大林路１０號十樓之２","OBJECTID":606074},"geometry":{"x":169299.36000000034,"y":2541869.8700000048}},{"attributes":{"ID":606102,"DIS_CODE":0,"TOWNNAME":"南區","LI":"新生里","LIN":"3鄰","STREET":"大林路","SECT":" ","MAREA":" ","LANE":" ","ALLEY":" ","HOUSE_NO":"１２號一樓之１","E_COORD97":169285.53,"N_COORD97":2541867.02,"ADDRESS":"大林路１２號一樓之１","OBJECTID":606075},"geometry":{"x":169285.53000000119,"y":2541867.0199999996}},{"attributes":{"ID":606103,"DIS_CODE":0,"TOWNNAME":"南區","LI":"新生里","LIN":"3鄰","STREET":"大林路","SECT":" ","MAREA":" ","LANE":" ","ALLEY":" ","HOUSE_NO":"１２號一樓之２","E_COORD97":169285.53,"N_COORD97":2541867.02,"ADDRESS":"大林路１２號一樓之２","OBJECTID":606076},"geometry":{"x":169285.53000000119,"y":2541867.0199999996}},{"attributes":{"ID":606104,"DIS_CODE":0,"TOWNNAME":"南區","LI":"新生里","LIN":"3鄰","STREET":"大林路","SECT":" ","MAREA":" ","LANE":" ","ALLEY":" ","HOUSE_NO":"１２號一樓之３","E_COORD97":169285.53,"N_COORD97":2541867.02,"ADDRESS":"大林路１２號一樓之３","OBJECTID":606077},"geometry":{"x":169285.53000000119,"y":2541867.0199999996}},{"attributes":{"ID":606105,"DIS_CODE":0,"TOWNNAME":"南區","LI":"新生里","LIN":"3鄰","STREET":"大林路","SECT":" ","MAREA":" ","LANE":" ","ALLEY":" ","HOUSE_NO":"１２號一樓之５","E_COORD97":169285.53,"N_COORD97":2541867.02,"ADDRESS":"大林路１２號一樓之５","OBJECTID":606078},"geometry":{"x":169285.53000000119,"y":2541867.0199999996}},{"attributes":{"ID":606106,"DIS_CODE":0,"TOWNNAME":"南區","LI":"新生里","LIN":"3鄰","STREET":"大林路","SECT":" ","MAREA":" ","LANE":" ","ALLEY":" ","HOUSE_NO":"１２號三樓之１","E_COORD97":169285.53,"N_COORD97":2541867.02,"ADDRESS":"大林路１２號三樓之１","OBJECTID":606079},"geometry":{"x":169285.53000000119,"y":2541867.0199999996}},{"attributes":{"ID":606107,"DIS_CODE":0,"TOWNNAME":"南區","LI":"新生里","LIN":"3鄰","STREET":"大林路","SECT":" ","MAREA":" ","LANE":" ","ALLEY":" ","HOUSE_NO":"１２號三樓之２","E_COORD97":169285.53,"N_COORD97":2541867.02,"ADDRESS":"大林路１２號三樓之２","OBJECTID":606080},"geometry":{"x":169285.53000000119,"y":2541867.0199999996}},{"attributes":{"ID":606108,"DIS_CODE":0,"TOWNNAME":"南區","LI":"新生里","LIN":"3鄰","STREET":"大林路","SECT":" ","MAREA":" ","LANE":" ","ALLEY":" ","HOUSE_NO":"１２號二樓之１","E_COORD97":169285.53,"N_COORD97":2541867.02,"ADDRESS":"大林路１２號二樓之１","OBJECTID":606081},"geometry":{"x":169285.53000000119,"y":2541867.0199999996}},{"attributes":{"ID":606109,"DIS_CODE":0,"TOWNNAME":"南區","LI":"新生里","LIN":"3鄰","STREET":"大林路","SECT":" ","MAREA":" ","LANE":" ","ALLEY":" ","HOUSE_NO":"１２號二樓之２","E_COORD97":169285.53,"N_COORD97":2541867.02,"ADDRESS":"大林路１２號二樓之２","OBJECTID":606082},"geometry":{"x":169285.53000000119,"y":2541867.0199999996}},{"attributes":{"ID":606110,"DIS_CODE":0,"TOWNNAME":"南區","LI":"新生里","LIN":"3鄰","STREET":"大林路","SECT":" ","MAREA":" ","LANE":" ","ALLEY":" ","HOUSE_NO":"１２號二樓之３","E_COORD97":169285.53,"N_COORD97":2541867.02,"ADDRESS":"大林路１２號二樓之３","OBJECTID":606083},"geometry":{"x":169285.53000000119,"y":2541867.0199999996}},{"attributes":{"ID":606111,"DIS_CODE":0,"TOWNNAME":"南區","LI":"新生里","LIN":"3鄰","STREET":"大林路","SECT":" ","MAREA":" ","LANE":" ","ALLEY":" ","HOUSE_NO":"１２號二樓之５","E_COORD97":169285.53,"N_COORD97":2541867.02,"ADDRESS":"大林路１２號二樓之５","OBJECTID":606084},"geometry":{"x":169285.53000000119,"y":2541867.0199999996}},{"attributes":{"ID":606112,"DIS_CODE":0,"TOWNNAME":"南區","LI":"新生里","LIN":"3鄰","STREET":"大林路","SECT":" ","MAREA":" ","LANE":" ","ALLEY":" ","HOUSE_NO":"１２號三樓之３","E_COORD97":169285.53,"N_COORD97":2541867.02,"ADDRESS":"大林路１２號三樓之３","OBJECTID":606085},"geometry":{"x":169285.53000000119,"y":2541867.0199999996}},{"attributes":{"ID":606113,"DIS_CODE":0,"TOWNNAME":"南區","LI":"新生里","LIN":"3鄰","STREET":"大林路","SECT":" ","MAREA":" ","LANE":" ","ALLEY":" ","HOUSE_NO":"１２號三樓之５","E_COORD97":169285.53,"N_COORD97":2541867.02,"ADDRESS":"大林路１２號三樓之５","OBJECTID":606086},"geometry":{"x":169285.53000000119,"y":2541867.0199999996}},{"attributes":{"ID":606114,"DIS_CODE":0,"TOWNNAME":"南區","LI":"新生里","LIN":"3鄰","STREET":"大林路","SECT":" ","MAREA":" ","LANE":" ","ALLEY":" ","HOUSE_NO":"１２號四樓之１","E_COORD97":169285.53,"N_COORD97":2541867.02,"ADDRESS":"大林路１２號四樓之１","OBJECTID":606087},"geometry":{"x":169285.53000000119,"y":2541867.0199999996}},{"attributes":{"ID":606115,"DIS_CODE":0,"TOWNNAME":"南區","LI":"新生里","LIN":"3鄰","STREET":"大林路","SECT":" ","MAREA":" ","LANE":" ","ALLEY":" ","HOUSE_NO":"１２號四樓之２","E_COORD97":169285.53,"N_COORD97":2541867.02,"ADDRESS":"大林路１２號四樓之２","OBJECTID":606088},"geometry":{"x":169285.53000000119,"y":2541867.0199999996}},{"attributes":{"ID":606116,"DIS_CODE":0,"TOWNNAME":"南區","LI":"新生里","LIN":"3鄰","STREET":"大林路","SECT":" ","MAREA":" ","LANE":" ","ALLEY":" ","HOUSE_NO":"１２號四樓之３","E_COORD97":169285.53,"N_COORD97":2541867.02,"ADDRESS":"大林路１２號四樓之３","OBJECTID":606089},"geometry":{"x":169285.53000000119,"y":2541867.0199999996}},{"attributes":{"ID":606117,"DIS_CODE":0,"TOWNNAME":"南區","LI":"新生里","LIN":"3鄰","STREET":"大林路","SECT":" ","MAREA":" ","LANE":" ","ALLEY":" ","HOUSE_NO":"１２號四樓之５","E_COORD97":169285.53,"N_COORD97":2541867.02,"ADDRESS":"大林路１２號四樓之５","OBJECTID":606090},"geometry":{"x":169285.53000000119,"y":2541867.0199999996}},{"attributes":{"ID":606118,"DIS_CODE":0,"TOWNNAME":"南區","LI":"新生里","LIN":"3鄰","STREET":"大林路","SECT":" ","MAREA":" ","LANE":" ","ALLEY":" ","HOUSE_NO":"１２號五樓之１","E_COORD97":169285.53,"N_COORD97":2541867.02,"ADDRESS":"大林路１２號五樓之１","OBJECTID":606091},"geometry":{"x":169285.53000000119,"y":2541867.0199999996}},{"attributes":{"ID":606119,"DIS_CODE":0,"TOWNNAME":"南區","LI":"新生里","LIN":"3鄰","STREET":"大林路","SECT":" ","MAREA":" ","LANE":" ","ALLEY":" ","HOUSE_NO":"１２號五樓之２","E_COORD97":169285.53,"N_COORD97":2541867.02,"ADDRESS":"大林路１２號五樓之２","OBJECTID":606092},"geometry":{"x":169285.53000000119,"y":2541867.0199999996}},{"attributes":{"ID":606120,"DIS_CODE":0,"TOWNNAME":"南區","LI":"新生里","LIN":"3鄰","STREET":"大林路","SECT":" ","MAREA":" ","LANE":" ","ALLEY":" ","HOUSE_NO":"１２號五樓之３","E_COORD97":169285.53,"N_COORD97":2541867.02,"ADDRESS":"大林路１２號五樓之３","OBJECTID":606093},"geometry":{"x":169285.53000000119,"y":2541867.0199999996}},{"attributes":{"ID":606121,"DIS_CODE":0,"TOWNNAME":"南區","LI":"新生里","LIN":"3鄰","STREET":"大林路","SECT":" ","MAREA":" ","LANE":" ","ALLEY":" ","HOUSE_NO":"１２號五樓之５","E_COORD97":169285.53,"N_COORD97":2541867.02,"ADDRESS":"大林路１２號五樓之５","OBJECTID":606094},"geometry":{"x":169285.53000000119,"y":2541867.0199999996}},{"attributes":{"ID":606122,"DIS_CODE":0,"TOWNNAME":"南區","LI":"新生里","LIN":"3鄰","STREET":"大林路","SECT":" ","MAREA":" ","LANE":" ","ALLEY":" ","HOUSE_NO":"１２號六樓之１","E_COORD97":169285.53,"N_COORD97":2541867.02,"ADDRESS":"大林路１２號六樓之１","OBJECTID":606095},"geometry":{"x":169285.53000000119,"y":2541867.0199999996}},{"attributes":{"ID":606123,"DIS_CODE":0,"TOWNNAME":"南區","LI":"新生里","LIN":"3鄰","STREET":"大林路","SECT":" ","MAREA":" ","LANE":" ","ALLEY":" ","HOUSE_NO":"１２號六樓之２","E_COORD97":169285.53,"N_COORD97":2541867.02,"ADDRESS":"大林路１２號六樓之２","OBJECTID":606096},"geometry":{"x":169285.53000000119,"y":2541867.0199999996}},{"attributes":{"ID":606124,"DIS_CODE":0,"TOWNNAME":"仁德區","LI":"仁德里","LIN":"14鄰","STREET":"中正路","SECT":"三段","MAREA":" ","LANE":" ","ALLEY":" ","HOUSE_NO":"４１之１號","E_COORD97":173327.17999999999,"N_COORD97":2541499.04,"ADDRESS":"中正路三段４１之１號","OBJECTID":606097},"geometry":{"x":173327.1799999997,"y":2541499.0399999991}},{"attributes":{"ID":606125,"DIS_CODE":0,"TOWNNAME":"南區","LI":"新生里","LIN":"3鄰","STREET":"大林路","SECT":" ","MAREA":" ","LANE":" ","ALLEY":" ","HOUSE_NO":"１２號六樓之３","E_COORD97":169285.53,"N_COORD97":2541867.02,"ADDRESS":"大林路１２號六樓之３","OBJECTID":606098},"geometry":{"x":169285.53000000119,"y":2541867.0199999996}},{"attributes":{"ID":606126,"DIS_CODE":0,"TOWNNAME":"南區","LI":"新生里","LIN":"3鄰","STREET":"大林路","SECT":" ","MAREA":" ","LANE":" ","ALLEY":" ","HOUSE_NO":"１２號六樓之５","E_COORD97":169285.53,"N_COORD97":2541867.02,"ADDRESS":"大林路１２號六樓之５","OBJECTID":606099},"geometry":{"x":169285.53000000119,"y":2541867.0199999996}},{"attributes":{"ID":606127,"DIS_CODE":0,"TOWNNAME":"南區","LI":"新生里","LIN":"3鄰","STREET":"大林路","SECT":" ","MAREA":" ","LANE":" ","ALLEY":" ","HOUSE_NO":"１２號七樓之１","E_COORD97":169285.53,"N_COORD97":2541867.02,"ADDRESS":"大林路１２號七樓之１","OBJECTID":606100},"geometry":{"x":169285.53000000119,"y":2541867.0199999996}},{"attributes":{"ID":606128,"DIS_CODE":0,"TOWNNAME":"南區","LI":"新生里","LIN":"3鄰","STREET":"大林路","SECT":" ","MAREA":" ","LANE":" ","ALLEY":" ","HOUSE_NO":"１２號七樓之２","E_COORD97":169285.53,"N_COORD97":2541867.02,"ADDRESS":"大林路１２號七樓之２","OBJECTID":606101},"geometry":{"x":169285.53000000119,"y":2541867.0199999996}},{"attributes":{"ID":606129,"DIS_CODE":0,"TOWNNAME":"南區","LI":"新生里","LIN":"3鄰","STREET":"大林路","SECT":" ","MAREA":" ","LANE":" ","ALLEY":" ","HOUSE_NO":"１２號七樓之３","E_COORD97":169285.53,"N_COORD97":2541867.02,"ADDRESS":"大林路１２號七樓之３","OBJECTID":606102},"geometry":{"x":169285.53000000119,"y":2541867.0199999996}},{"attributes":{"ID":606130,"DIS_CODE":0,"TOWNNAME":"南區","LI":"新生里","LIN":"3鄰","STREET":"大林路","SECT":" ","MAREA":" ","LANE":" ","ALLEY":" ","HOUSE_NO":"１２號七樓之５","E_COORD97":169285.53,"N_COORD97":2541867.02,"ADDRESS":"大林路１２號七樓之５","OBJECTID":606103},"geometry":{"x":169285.53000000119,"y":2541867.0199999996}},{"attributes":{"ID":606131,"DIS_CODE":0,"TOWNNAME":"南區","LI":"新生里","LIN":"3鄰","STREET":"大林路","SECT":" ","MAREA":" ","LANE":" ","ALLEY":" ","HOUSE_NO":"１２號八樓之５","E_COORD97":169285.53,"N_COORD97":2541867.02,"ADDRESS":"大林路１２號八樓之５","OBJECTID":606104},"geometry":{"x":169285.53000000119,"y":2541867.0199999996}},{"attributes":{"ID":606132,"DIS_CODE":0,"TOWNNAME":"南區","LI":"新生里","LIN":"3鄰","STREET":"大林路","SECT":" ","MAREA":" ","LANE":" ","ALLEY":" ","HOUSE_NO":"１２號九樓之１","E_COORD97":169285.53,"N_COORD97":2541867.02,"ADDRESS":"大林路１２號九樓之１","OBJECTID":606105},"geometry":{"x":169285.53000000119,"y":2541867.0199999996}},{"attributes":{"ID":606133,"DIS_CODE":0,"TOWNNAME":"南區","LI":"新生里","LIN":"3鄰","STREET":"大林路","SECT":" ","MAREA":" ","LANE":" ","ALLEY":" ","HOUSE_NO":"１２號九樓之２","E_COORD97":169285.53,"N_COORD97":2541867.02,"ADDRESS":"大林路１２號九樓之２","OBJECTID":606106},"geometry":{"x":169285.53000000119,"y":2541867.0199999996}},{"attributes":{"ID":606134,"DIS_CODE":0,"TOWNNAME":"南區","LI":"新生里","LIN":"3鄰","STREET":"大林路","SECT":" ","MAREA":" ","LANE":" ","ALLEY":" ","HOUSE_NO":"１２號八樓之１","E_COORD97":169285.53,"N_COORD97":2541867.02,"ADDRESS":"大林路１２號八樓之１","OBJECTID":606107},"geometry":{"x":169285.53000000119,"y":2541867.0199999996}},{"attributes":{"ID":606135,"DIS_CODE":0,"TOWNNAME":"南區","LI":"新生里","LIN":"3鄰","STREET":"大林路","SECT":" ","MAREA":" ","LANE":" ","ALLEY":" ","HOUSE_NO":"１２號八樓之２","E_COORD97":169285.53,"N_COORD97":2541867.02,"ADDRESS":"大林路１２號八樓之２","OBJECTID":606108},"geometry":{"x":169285.53000000119,"y":2541867.0199999996}},{"attributes":{"ID":606136,"DIS_CODE":0,"TOWNNAME":"南區","LI":"新生里","LIN":"3鄰","STREET":"大林路","SECT":" ","MAREA":" ","LANE":" ","ALLEY":" ","HOUSE_NO":"１２號八樓之３","E_COORD97":169285.53,"N_COORD97":2541867.02,"ADDRESS":"大林路１２號八樓之３","OBJECTID":606109},"geometry":{"x":169285.53000000119,"y":2541867.0199999996}},{"attributes":{"ID":606137,"DIS_CODE":0,"TOWNNAME":"南區","LI":"新生里","LIN":"3鄰","STREET":"大林路","SECT":" ","MAREA":" ","LANE":" ","ALLEY":" ","HOUSE_NO":"１２號九樓之３","E_COORD97":169285.53,"N_COORD97":2541867.02,"ADDRESS":"大林路１２號九樓之３","OBJECTID":606110},"geometry":{"x":169285.53000000119,"y":2541867.0199999996}},{"attributes":{"ID":606138,"DIS_CODE":0,"TOWNNAME":"南區","LI":"新生里","LIN":"3鄰","STREET":"大林路","SECT":" ","MAREA":" ","LANE":" ","ALLEY":" ","HOUSE_NO":"１２號九樓之５","E_COORD97":169285.53,"N_COORD97":2541867.02,"ADDRESS":"大林路１２號九樓之５","OBJECTID":606111},"geometry":{"x":169285.53000000119,"y":2541867.0199999996}},{"attributes":{"ID":606139,"DIS_CODE":0,"TOWNNAME":"南區","LI":"新生里","LIN":"3鄰","STREET":"大林路","SECT":" ","MAREA":" ","LANE":" ","ALLEY":" ","HOUSE_NO":"１２號十樓之１","E_COORD97":169285.53,"N_COORD97":2541867.02,"ADDRESS":"大林路１２號十樓之１","OBJECTID":606112},"geometry":{"x":169285.53000000119,"y":2541867.0199999996}},{"attributes":{"ID":606140,"DIS_CODE":0,"TOWNNAME":"南區","LI":"新生里","LIN":"3鄰","STREET":"大林路","SECT":" ","MAREA":" ","LANE":" ","ALLEY":" ","HOUSE_NO":"１２號十樓之３","E_COORD97":169285.53,"N_COORD97":2541867.02,"ADDRESS":"大林路１２號十樓之３","OBJECTID":606113},"geometry":{"x":169285.53000000119,"y":2541867.0199999996}},{"attributes":{"ID":606141,"DIS_CODE":0,"TOWNNAME":"南區","LI":"新生里","LIN":"3鄰","STREET":"大林路","SECT":" ","MAREA":" ","LANE":" ","ALLEY":" ","HOUSE_NO":"１２號十樓之２","E_COORD97":169285.53,"N_COORD97":2541867.02,"ADDRESS":"大林路１２號十樓之２","OBJECTID":606114},"geometry":{"x":169285.53000000119,"y":2541867.0199999996}},{"attributes":{"ID":606142,"DIS_CODE":0,"TOWNNAME":"南區","LI":"新生里","LIN":"3鄰","STREET":"大林路","SECT":" ","MAREA":" ","LANE":" ","ALLEY":" ","HOUSE_NO":"１２號十樓之５","E_COORD97":169285.53,"N_COORD97":2541867.02,"ADDRESS":"大林路１２號十樓之５","OBJECTID":606115},"geometry":{"x":169285.53000000119,"y":2541867.0199999996}},{"attributes":{"ID":606143,"DIS_CODE":0,"TOWNNAME":"仁德區","LI":"成功里","LIN":"14鄰","STREET":"全福路","SECT":" ","MAREA":" ","LANE":" ","ALLEY":" ","HOUSE_NO":"６６號","E_COORD97":170976.26000000001,"N_COORD97":2539302.75,"ADDRESS":"全福路６６號","OBJECTID":606116},"geometry":{"x":170976.26000000164,"y":2539302.75}},{"attributes":{"ID":606144,"DIS_CODE":0,"TOWNNAME":"仁德區","LI":"保安里","LIN":"22鄰","STREET":"文賢路","SECT":"一段","MAREA":" ","LANE":" ","ALLEY":" ","HOUSE_NO":"６８４號","E_COORD97":171232.53,"N_COORD97":2536475.5800000001,"ADDRESS":"文賢路一段６８４號","OBJECTID":606117},"geometry":{"x":171232.53000000212,"y":2536475.5800000001}},{"attributes":{"ID":606145,"DIS_CODE":0,"TOWNNAME":"北區","LI":"五福里","LIN":"3鄰","STREET":"西門路","SECT":"三段","MAREA":" ","LANE":" ","ALLEY":" ","HOUSE_NO":"１３４號七樓之１","E_COORD97":168308.98000000001,"N_COORD97":2544716.5299999998,"ADDRESS":"西門路三段１３４號七樓之１","OBJECTID":606118},"geometry":{"x":168308.98000000138,"y":2544716.5300000012}},{"attributes":{"ID":606146,"DIS_CODE":0,"TOWNNAME":"北區","LI":"五福里","LIN":"3鄰","STREET":"西門路","SECT":"三段","MAREA":" ","LANE":" ","ALLEY":" ","HOUSE_NO":"１３４號七樓之２","E_COORD97":168308.98000000001,"N_COORD97":2544716.5299999998,"ADDRESS":"西門路三段１３４號七樓之２","OBJECTID":606119},"geometry":{"x":168308.98000000138,"y":2544716.5300000012}},{"attributes":{"ID":606147,"DIS_CODE":0,"TOWNNAME":"北區","LI":"五福里","LIN":"3鄰","STREET":"西門路","SECT":"三段","MAREA":" ","LANE":" ","ALLEY":" ","HOUSE_NO":"１３４號七樓之３","E_COORD97":168308.98000000001,"N_COORD97":2544716.5299999998,"ADDRESS":"西門路三段１３４號七樓之３","OBJECTID":606120},"geometry":{"x":168308.98000000138,"y":2544716.5300000012}},{"attributes":{"ID":606148,"DIS_CODE":0,"TOWNNAME":"北區","LI":"五福里","LIN":"3鄰","STREET":"西門路","SECT":"三段","MAREA":" ","LANE":" ","ALLEY":" ","HOUSE_NO":"１３４號七樓之４","E_COORD97":168308.98000000001,"N_COORD97":2544716.5299999998,"ADDRESS":"西門路三段１３４號七樓之４","OBJECTID":606121},"geometry":{"x":168308.98000000138,"y":2544716.5300000012}},{"attributes":{"ID":606149,"DIS_CODE":0,"TOWNNAME":"北區","LI":"五福里","LIN":"3鄰","STREET":"西門路","SECT":"三段","MAREA":" ","LANE":" ","ALLEY":" ","HOUSE_NO":"１３４號七樓之５","E_COORD97":168308.98000000001,"N_COORD97":2544716.5299999998,"ADDRESS":"西門路三段１３４號七樓之５","OBJECTID":606122},"geometry":{"x":168308.98000000138,"y":2544716.5300000012}},{"attributes":{"ID":606150,"DIS_CODE":0,"TOWNNAME":"北區","LI":"五福里","LIN":"3鄰","STREET":"西門路","SECT":"三段","MAREA":" ","LANE":" ","ALLEY":" ","HOUSE_NO":"１３４號七樓之６","E_COORD97":168308.98000000001,"N_COORD97":2544716.5299999998,"ADDRESS":"西門路三段１３４號七樓之６","OBJECTID":606123},"geometry":{"x":168308.98000000138,"y":2544716.5300000012}},{"attributes":{"ID":606151,"DIS_CODE":0,"TOWNNAME":"永康區","LI":"埔園里","LIN":"39鄰","STREET":"埔園街","SECT":" ","MAREA":" ","LANE":" ","ALLEY":" ","HOUSE_NO":"５３號","E_COORD97":173996.22,"N_COORD97":2548020.6099999999,"ADDRESS":"埔園街５３號","OBJECTID":606124},"geometry":{"x":173996.22000000067,"y":2548020.6100000013}},{"attributes":{"ID":606152,"DIS_CODE":0,"TOWNNAME":"北區","LI":"五福里","LIN":"3鄰","STREET":"西門路","SECT":"三段","MAREA":" ","LANE":" ","ALLEY":" ","HOUSE_NO":"１３４號九樓之１","E_COORD97":168308.98000000001,"N_COORD97":2544716.5299999998,"ADDRESS":"西門路三段１３４號九樓之１","OBJECTID":606125},"geometry":{"x":168308.98000000138,"y":2544716.5300000012}},{"attributes":{"ID":606153,"DIS_CODE":0,"TOWNNAME":"北區","LI":"五福里","LIN":"3鄰","STREET":"西門路","SECT":"三段","MAREA":" ","LANE":" ","ALLEY":" ","HOUSE_NO":"１３４號九樓之２","E_COORD97":168308.98000000001,"N_COORD97":2544716.5299999998,"ADDRESS":"西門路三段１３４號九樓之２","OBJECTID":606126},"geometry":{"x":168308.98000000138,"y":2544716.5300000012}},{"attributes":{"ID":606154,"DIS_CODE":0,"TOWNNAME":"北區","LI":"五福里","LIN":"3鄰","STREET":"西門路","SECT":"三段","MAREA":" ","LANE":" ","ALLEY":" ","HOUSE_NO":"１３４號九樓之３","E_COORD97":168308.98000000001,"N_COORD97":2544716.5299999998,"ADDRESS":"西門路三段１３４號九樓之３","OBJECTID":606127},"geometry":{"x":168308.98000000138,"y":2544716.5300000012}},{"attributes":{"ID":606155,"DIS_CODE":0,"TOWNNAME":"北區","LI":"五福里","LIN":"3鄰","STREET":"西門路","SECT":"三段","MAREA":" ","LANE":" ","ALLEY":" ","HOUSE_NO":"１３４號九樓之４","E_COORD97":168308.98000000001,"N_COORD97":2544716.5299999998,"ADDRESS":"西門路三段１３４號九樓之４","OBJECTID":606128},"geometry":{"x":168308.98000000138,"y":2544716.5300000012}},{"attributes":{"ID":606156,"DIS_CODE":0,"TOWNNAME":"北區","LI":"五福里","LIN":"3鄰","STREET":"西門路","SECT":"三段","MAREA":" ","LANE":" ","ALLEY":" ","HOUSE_NO":"１３４號九樓之５","E_COORD97":168308.98000000001,"N_COORD97":2544716.5299999998,"ADDRESS":"西門路三段１３４號九樓之５","OBJECTID":606129},"geometry":{"x":168308.98000000138,"y":2544716.5300000012}},{"attributes":{"ID":606157,"DIS_CODE":0,"TOWNNAME":"北區","LI":"五福里","LIN":"3鄰","STREET":"西門路","SECT":"三段","MAREA":" ","LANE":" ","ALLEY":" ","HOUSE_NO":"１３４號二樓","E_COORD97":168308.98000000001,"N_COORD97":2544716.5299999998,"ADDRESS":"西門路三段１３４號二樓","OBJECTID":606130},"geometry":{"x":168308.98000000138,"y":2544716.5300000012}},{"attributes":{"ID":606158,"DIS_CODE":0,"TOWNNAME":"北區","LI":"五福里","LIN":"3鄰","STREET":"西門路","SECT":"三段","MAREA":" ","LANE":" ","ALLEY":" ","HOUSE_NO":"１３４號八樓之１","E_COORD97":168308.98000000001,"N_COORD97":2544716.5299999998,"ADDRESS":"西門路三段１３４號八樓之１","OBJECTID":606131},"geometry":{"x":168308.98000000138,"y":2544716.5300000012}},{"attributes":{"ID":606159,"DIS_CODE":0,"TOWNNAME":"北區","LI":"五福里","LIN":"3鄰","STREET":"西門路","SECT":"三段","MAREA":" ","LANE":" ","ALLEY":" ","HOUSE_NO":"１３４號八樓之２","E_COORD97":168308.98000000001,"N_COORD97":2544716.5299999998,"ADDRESS":"西門路三段１３４號八樓之２","OBJECTID":606132},"geometry":{"x":168308.98000000138,"y":2544716.5300000012}},{"attributes":{"ID":606160,"DIS_CODE":0,"TOWNNAME":"北區","LI":"五福里","LIN":"3鄰","STREET":"西門路","SECT":"三段","MAREA":" ","LANE":" ","ALLEY":" ","HOUSE_NO":"１３４號八樓之３","E_COORD97":168308.98000000001,"N_COORD97":2544716.5299999998,"ADDRESS":"西門路三段１３４號八樓之３","OBJECTID":606133},"geometry":{"x":168308.98000000138,"y":2544716.5300000012}},{"attributes":{"ID":606161,"DIS_CODE":0,"TOWNNAME":"北區","LI":"五福里","LIN":"3鄰","STREET":"西門路","SECT":"三段","MAREA":" ","LANE":" ","ALLEY":" ","HOUSE_NO":"１３４號八樓之５","E_COORD97":168308.98000000001,"N_COORD97":2544716.5299999998,"ADDRESS":"西門路三段１３４號八樓之５","OBJECTID":606134},"geometry":{"x":168308.98000000138,"y":2544716.5300000012}},{"attributes":{"ID":606162,"DIS_CODE":0,"TOWNNAME":"北區","LI":"五福里","LIN":"3鄰","STREET":"西門路","SECT":"三段","MAREA":" ","LANE":" ","ALLEY":" ","HOUSE_NO":"１３４號八樓之６","E_COORD97":168308.98000000001,"N_COORD97":2544716.5299999998,"ADDRESS":"西門路三段１３４號八樓之６","OBJECTID":606135},"geometry":{"x":168308.98000000138,"y":2544716.5300000012}},{"attributes":{"ID":606163,"DIS_CODE":0,"TOWNNAME":"北區","LI":"五福里","LIN":"3鄰","STREET":"西門路","SECT":"三段","MAREA":" ","LANE":" ","ALLEY":" ","HOUSE_NO":"１３４號十一樓之１","E_COORD97":168308.98000000001,"N_COORD97":2544716.5299999998,"ADDRESS":"西門路三段１３４號十一樓之１","OBJECTID":606136},"geometry":{"x":168308.98000000138,"y":2544716.5300000012}},{"attributes":{"ID":606164,"DIS_CODE":0,"TOWNNAME":"北區","LI":"五福里","LIN":"3鄰","STREET":"西門路","SECT":"三段","MAREA":" ","LANE":" ","ALLEY":" ","HOUSE_NO":"１３４號十一樓之２","E_COORD97":168308.98000000001,"N_COORD97":2544716.5299999998,"ADDRESS":"西門路三段１３４號十一樓之２","OBJECTID":606137},"geometry":{"x":168308.98000000138,"y":2544716.5300000012}},{"attributes":{"ID":606165,"DIS_CODE":0,"TOWNNAME":"北區","LI":"五福里","LIN":"3鄰","STREET":"西門路","SECT":"三段","MAREA":" ","LANE":" ","ALLEY":" ","HOUSE_NO":"１３４號十一樓之３","E_COORD97":168308.98000000001,"N_COORD97":2544716.5299999998,"ADDRESS":"西門路三段１３４號十一樓之３","OBJECTID":606138},"geometry":{"x":168308.98000000138,"y":2544716.5300000012}},{"attributes":{"ID":606166,"DIS_CODE":0,"TOWNNAME":"北區","LI":"五福里","LIN":"3鄰","STREET":"西門路","SECT":"三段","MAREA":" ","LANE":" ","ALLEY":" ","HOUSE_NO":"１３４號十一樓之４","E_COORD97":168308.98000000001,"N_COORD97":2544716.5299999998,"ADDRESS":"西門路三段１３４號十一樓之４","OBJECTID":606139},"geometry":{"x":168308.98000000138,"y":2544716.5300000012}},{"attributes":{"ID":606167,"DIS_CODE":0,"TOWNNAME":"北區","LI":"五福里","LIN":"3鄰","STREET":"西門路","SECT":"三段","MAREA":" ","LANE":" ","ALLEY":" ","HOUSE_NO":"１３４號十一樓之５","E_COORD97":168308.98000000001,"N_COORD97":2544716.5299999998,"ADDRESS":"西門路三段１３４號十一樓之５","OBJECTID":606140},"geometry":{"x":168308.98000000138,"y":2544716.5300000012}},{"attributes":{"ID":606168,"DIS_CODE":0,"TOWNNAME":"北區","LI":"五福里","LIN":"3鄰","STREET":"西門路","SECT":"三段","MAREA":" ","LANE":" ","ALLEY":" ","HOUSE_NO":"１３４號十一樓之６","E_COORD97":168308.98000000001,"N_COORD97":2544716.5299999998,"ADDRESS":"西門路三段１３４號十一樓之６","OBJECTID":606141},"geometry":{"x":168308.98000000138,"y":2544716.5300000012}},{"attributes":{"ID":606169,"DIS_CODE":0,"TOWNNAME":"北區","LI":"五福里","LIN":"3鄰","STREET":"西門路","SECT":"三段","MAREA":" ","LANE":" ","ALLEY":" ","HOUSE_NO":"１３４號十二樓之１","E_COORD97":168308.98000000001,"N_COORD97":2544716.5299999998,"ADDRESS":"西門路三段１３４號十二樓之１","OBJECTID":606142},"geometry":{"x":168308.98000000138,"y":2544716.5300000012}},{"attributes":{"ID":606170,"DIS_CODE":0,"TOWNNAME":"北區","LI":"五福里","LIN":"3鄰","STREET":"西門路","SECT":"三段","MAREA":" ","LANE":" ","ALLEY":" ","HOUSE_NO":"１３４號十二樓之２","E_COORD97":168308.98000000001,"N_COORD97":2544716.5299999998,"ADDRESS":"西門路三段１３４號十二樓之２","OBJECTID":606143},"geometry":{"x":168308.98000000138,"y":2544716.5300000012}},{"attributes":{"ID":606171,"DIS_CODE":0,"TOWNNAME":"北區","LI":"五福里","LIN":"3鄰","STREET":"西門路","SECT":"三段","MAREA":" ","LANE":" ","ALLEY":" ","HOUSE_NO":"１３４號十二樓之３","E_COORD97":168308.98000000001,"N_COORD97":2544716.5299999998,"ADDRESS":"西門路三段１３４號十二樓之３","OBJECTID":606144},"geometry":{"x":168308.98000000138,"y":2544716.5300000012}},{"attributes":{"ID":606172,"DIS_CODE":0,"TOWNNAME":"北區","LI":"五福里","LIN":"3鄰","STREET":"西門路","SECT":"三段","MAREA":" ","LANE":" ","ALLEY":" ","HOUSE_NO":"１３４號十二樓之４","E_COORD97":168308.98000000001,"N_COORD97":2544716.5299999998,"ADDRESS":"西門路三段１３４號十二樓之４","OBJECTID":606145},"geometry":{"x":168308.98000000138,"y":2544716.5300000012}},{"attributes":{"ID":606173,"DIS_CODE":0,"TOWNNAME":"北區","LI":"五福里","LIN":"3鄰","STREET":"西門路","SECT":"三段","MAREA":" ","LANE":" ","ALLEY":" ","HOUSE_NO":"１３４號十二樓之５","E_COORD97":168308.98000000001,"N_COORD97":2544716.5299999998,"ADDRESS":"西門路三段１３４號十二樓之５","OBJECTID":606146},"geometry":{"x":168308.98000000138,"y":2544716.5300000012}},{"attributes":{"ID":606174,"DIS_CODE":0,"TOWNNAME":"北區","LI":"五福里","LIN":"3鄰","STREET":"西門路","SECT":"三段","MAREA":" ","LANE":" ","ALLEY":" ","HOUSE_NO":"１３４號十二樓之６","E_COORD97":168308.98000000001,"N_COORD97":2544716.5299999998,"ADDRESS":"西門路三段１３４號十二樓之６","OBJECTID":606147},"geometry":{"x":168308.98000000138,"y":2544716.5300000012}},{"attributes":{"ID":606175,"DIS_CODE":0,"TOWNNAME":"仁德區","LI":"成功里","LIN":"47鄰","STREET":"文賢路","SECT":"一段","MAREA":" ","LANE":" ","ALLEY":" ","HOUSE_NO":"３１號","E_COORD97":170156.59,"N_COORD97":2538253.0800000001,"ADDRESS":"文賢路一段３１號","OBJECTID":606148},"geometry":{"x":170156.58999999985,"y":2538253.0800000001}},{"attributes":{"ID":606176,"DIS_CODE":0,"TOWNNAME":"仁德區","LI":"成功里","LIN":"14鄰","STREET":"全福路","SECT":" ","MAREA":" ","LANE":" ","ALLEY":" ","HOUSE_NO":"６２號","E_COORD97":170967.92999999999,"N_COORD97":2539303.75,"ADDRESS":"全福路６２號","OBJECTID":606149},"geometry":{"x":170967.9299999997,"y":2539303.7500000019}},{"attributes":{"ID":606177,"DIS_CODE":0,"TOWNNAME":"北區","LI":"五福里","LIN":"3鄰","STREET":"西門路","SECT":"三段","MAREA":" ","LANE":" ","ALLEY":" ","HOUSE_NO":"１３４號十樓之１","E_COORD97":168308.98000000001,"N_COORD97":2544716.5299999998,"ADDRESS":"西門路三段１３４號十樓之１","OBJECTID":606150},"geometry":{"x":168308.98000000138,"y":2544716.5300000012}},{"attributes":{"ID":606178,"DIS_CODE":0,"TOWNNAME":"北區","LI":"五福里","LIN":"3鄰","STREET":"西門路","SECT":"三段","MAREA":" ","LANE":" ","ALLEY":" ","HOUSE_NO":"１３４號十樓之２","E_COORD97":168308.98000000001,"N_COORD97":2544716.5299999998,"ADDRESS":"西門路三段１３４號十樓之２","OBJECTID":606151},"geometry":{"x":168308.98000000138,"y":2544716.5300000012}},{"attributes":{"ID":606179,"DIS_CODE":0,"TOWNNAME":"北區","LI":"五福里","LIN":"3鄰","STREET":"西門路","SECT":"三段","MAREA":" ","LANE":" ","ALLEY":" ","HOUSE_NO":"１３４號十樓之３","E_COORD97":168308.98000000001,"N_COORD97":2544716.5299999998,"ADDRESS":"西門路三段１３４號十樓之３","OBJECTID":606152},"geometry":{"x":168308.98000000138,"y":2544716.5300000012}},{"attributes":{"ID":606180,"DIS_CODE":0,"TOWNNAME":"北區","LI":"五福里","LIN":"3鄰","STREET":"西門路","SECT":"三段","MAREA":" ","LANE":" ","ALLEY":" ","HOUSE_NO":"１３４號十樓之４","E_COORD97":168308.98000000001,"N_COORD97":2544716.5299999998,"ADDRESS":"西門路三段１３４號十樓之４","OBJECTID":606153},"geometry":{"x":168308.98000000138,"y":2544716.5300000012}},{"attributes":{"ID":606181,"DIS_CODE":0,"TOWNNAME":"北區","LI":"五福里","LIN":"3鄰","STREET":"西門路","SECT":"三段","MAREA":" ","LANE":" ","ALLEY":" ","HOUSE_NO":"１３４號十樓之５","E_COORD97":168308.98000000001,"N_COORD97":2544716.5299999998,"ADDRESS":"西門路三段１３４號十樓之５","OBJECTID":606154},"geometry":{"x":168308.98000000138,"y":2544716.5300000012}},{"attributes":{"ID":606182,"DIS_CODE":0,"TOWNNAME":"北區","LI":"五福里","LIN":"3鄰","STREET":"西門路","SECT":"三段","MAREA":" ","LANE":" ","ALLEY":" ","HOUSE_NO":"１３４號十樓之６","E_COORD97":168308.98000000001,"N_COORD97":2544716.5299999998,"ADDRESS":"西門路三段１３４號十樓之６","OBJECTID":606155},"geometry":{"x":168308.98000000138,"y":2544716.5300000012}},{"attributes":{"ID":606183,"DIS_CODE":0,"TOWNNAME":"北區","LI":"五福里","LIN":"3鄰","STREET":"西門路","SECT":"三段","MAREA":" ","LANE":" ","ALLEY":" ","HOUSE_NO":"１３４號三樓","E_COORD97":168308.98000000001,"N_COORD97":2544716.5299999998,"ADDRESS":"西門路三段１３４號三樓","OBJECTID":606156},"geometry":{"x":168308.98000000138,"y":2544716.5300000012}},{"attributes":{"ID":606184,"DIS_CODE":0,"TOWNNAME":"北區","LI":"五福里","LIN":"3鄰","STREET":"西門路","SECT":"三段","MAREA":" ","LANE":" ","ALLEY":" ","HOUSE_NO":"１３４號五樓之１","E_COORD97":168308.98000000001,"N_COORD97":2544716.5299999998,"ADDRESS":"西門路三段１３４號五樓之１","OBJECTID":606157},"geometry":{"x":168308.98000000138,"y":2544716.5300000012}},{"attributes":{"ID":606185,"DIS_CODE":0,"TOWNNAME":"北區","LI":"五福里","LIN":"3鄰","STREET":"西門路","SECT":"三段","MAREA":" ","LANE":" ","ALLEY":" ","HOUSE_NO":"１３４號五樓之２","E_COORD97":168308.98000000001,"N_COORD97":2544716.5299999998,"ADDRESS":"西門路三段１３４號五樓之２","OBJECTID":606158},"geometry":{"x":168308.98000000138,"y":2544716.5300000012}},{"attributes":{"ID":606186,"DIS_CODE":0,"TOWNNAME":"北區","LI":"五福里","LIN":"3鄰","STREET":"西門路","SECT":"三段","MAREA":" ","LANE":" ","ALLEY":" ","HOUSE_NO":"１３４號五樓之３","E_COORD97":168308.98000000001,"N_COORD97":2544716.5299999998,"ADDRESS":"西門路三段１３４號五樓之３","OBJECTID":606159},"geometry":{"x":168308.98000000138,"y":2544716.5300000012}},{"attributes":{"ID":606187,"DIS_CODE":0,"TOWNNAME":"北區","LI":"五福里","LIN":"3鄰","STREET":"西門路","SECT":"三段","MAREA":" ","LANE":" ","ALLEY":" ","HOUSE_NO":"１３４號五樓之４","E_COORD97":168308.98000000001,"N_COORD97":2544716.5299999998,"ADDRESS":"西門路三段１３４號五樓之４","OBJECTID":606160},"geometry":{"x":168308.98000000138,"y":2544716.5300000012}},{"attributes":{"ID":606188,"DIS_CODE":0,"TOWNNAME":"北區","LI":"五福里","LIN":"3鄰","STREET":"西門路","SECT":"三段","MAREA":" ","LANE":" ","ALLEY":" ","HOUSE_NO":"１３４號五樓之５","E_COORD97":168308.98000000001,"N_COORD97":2544716.5299999998,"ADDRESS":"西門路三段１３４號五樓之５","OBJECTID":606161},"geometry":{"x":168308.98000000138,"y":2544716.5300000012}},{"attributes":{"ID":606189,"DIS_CODE":0,"TOWNNAME":"北區","LI":"五福里","LIN":"3鄰","STREET":"西門路","SECT":"三段","MAREA":" ","LANE":" ","ALLEY":" ","HOUSE_NO":"１３４號六樓之４","E_COORD97":168308.98000000001,"N_COORD97":2544716.5299999998,"ADDRESS":"西門路三段１３４號六樓之４","OBJECTID":606162},"geometry":{"x":168308.98000000138,"y":2544716.5300000012}},{"attributes":{"ID":606190,"DIS_CODE":0,"TOWNNAME":"仁德區","LI":"保安里","LIN":"22鄰","STREET":"文賢路","SECT":"一段","MAREA":" ","LANE":" ","ALLEY":" ","HOUSE_NO":"７４８號","E_COORD97":171330.38,"N_COORD97":2536365.3300000001,"ADDRESS":"文賢路一段７４８號","OBJECTID":606163},"geometry":{"x":171330.38000000082,"y":2536365.3300000001}},{"attributes":{"ID":606191,"DIS_CODE":0,"TOWNNAME":"北區","LI":"五福里","LIN":"3鄰","STREET":"西門路","SECT":"三段","MAREA":" ","LANE":" ","ALLEY":" ","HOUSE_NO":"１３４號六樓之５","E_COORD97":168308.98000000001,"N_COORD97":2544716.5299999998,"ADDRESS":"西門路三段１３４號六樓之５","OBJECTID":606164},"geometry":{"x":168308.98000000138,"y":2544716.5300000012}},{"attributes":{"ID":606192,"DIS_CODE":0,"TOWNNAME":"北區","LI":"五福里","LIN":"3鄰","STREET":"西門路","SECT":"三段","MAREA":" ","LANE":" ","ALLEY":" ","HOUSE_NO":"１３４號四樓之１","E_COORD97":168308.98000000001,"N_COORD97":2544716.5299999998,"ADDRESS":"西門路三段１３４號四樓之１","OBJECTID":606165},"geometry":{"x":168308.98000000138,"y":2544716.5300000012}},{"attributes":{"ID":606193,"DIS_CODE":0,"TOWNNAME":"北區","LI":"五福里","LIN":"3鄰","STREET":"西門路","SECT":"三段","MAREA":" ","LANE":" ","ALLEY":" ","HOUSE_NO":"１３４號四樓之２","E_COORD97":168308.98000000001,"N_COORD97":2544716.5299999998,"ADDRESS":"西門路三段１３４號四樓之２","OBJECTID":606166},"geometry":{"x":168308.98000000138,"y":2544716.5300000012}},{"attributes":{"ID":606194,"DIS_CODE":0,"TOWNNAME":"北區","LI":"五福里","LIN":"3鄰","STREET":"西門路","SECT":"三段","MAREA":" ","LANE":" ","ALLEY":" ","HOUSE_NO":"１３４號四樓之３","E_COORD97":168308.98000000001,"N_COORD97":2544716.5299999998,"ADDRESS":"西門路三段１３４號四樓之３","OBJECTID":606167},"geometry":{"x":168308.98000000138,"y":2544716.5300000012}},{"attributes":{"ID":606195,"DIS_CODE":0,"TOWNNAME":"北區","LI":"五福里","LIN":"3鄰","STREET":"西門路","SECT":"三段","MAREA":" ","LANE":" ","ALLEY":" ","HOUSE_NO":"１３４號四樓之６","E_COORD97":168308.98000000001,"N_COORD97":2544716.5299999998,"ADDRESS":"西門路三段１３４號四樓之６","OBJECTID":606168},"geometry":{"x":168308.98000000138,"y":2544716.5300000012}},{"attributes":{"ID":606196,"DIS_CODE":0,"TOWNNAME":"北區","LI":"五福里","LIN":"3鄰","STREET":"西門路","SECT":"三段","MAREA":" ","LANE":" ","ALLEY":" ","HOUSE_NO":"１３４號四樓之５","E_COORD97":168308.98000000001,"N_COORD97":2544716.5299999998,"ADDRESS":"西門路三段１３４號四樓之５","OBJECTID":606169},"geometry":{"x":168308.98000000138,"y":2544716.5300000012}},{"attributes":{"ID":606197,"DIS_CODE":0,"TOWNNAME":"新營區","LI":"民榮里","LIN":"3鄰","STREET":"新進路","SECT":"二段","MAREA":" ","LANE":" ","ALLEY":" ","HOUSE_NO":"４９６號十樓","E_COORD97":178673.54999999999,"N_COORD97":2578064.1000000001,"ADDRESS":"新進路二段４９６號十樓","OBJECTID":606170},"geometry":{"x":178673.54999999981,"y":2578064.1000000015}},{"attributes":{"ID":606198,"DIS_CODE":0,"TOWNNAME":"新營區","LI":"民榮里","LIN":"3鄰","STREET":"新進路","SECT":"二段","MAREA":" ","LANE":" ","ALLEY":" ","HOUSE_NO":"５０２號十樓","E_COORD97":178673.37,"N_COORD97":2578038.6400000001,"ADDRESS":"新進路二段５０２號十樓","OBJECTID":606171},"geometry":{"x":178673.37000000011,"y":2578038.6400000006}},{"attributes":{"ID":606199,"DIS_CODE":0,"TOWNNAME":"新營區","LI":"民榮里","LIN":"3鄰","STREET":"新進路","SECT":"二段","MAREA":" ","LANE":" ","ALLEY":" ","HOUSE_NO":"４９４號十一樓","E_COORD97":178674.79999999999,"N_COORD97":2578064.1000000001,"ADDRESS":"新進路二段４９４號十一樓","OBJECTID":606172},"geometry":{"x":178674.79999999981,"y":2578064.1000000015}},{"attributes":{"ID":606200,"DIS_CODE":0,"TOWNNAME":"新營區","LI":"民榮里","LIN":"3鄰","STREET":"新進路","SECT":"二段","MAREA":" ","LANE":" ","ALLEY":" ","HOUSE_NO":"４９６之２號七樓","E_COORD97":178676.04999999999,"N_COORD97":2578064.1400000001,"ADDRESS":"新進路二段４９６之２號七樓","OBJECTID":606173},"geometry":{"x":178676.05000000075,"y":2578064.1400000025}},{"attributes":{"ID":606201,"DIS_CODE":0,"TOWNNAME":"新營區","LI":"民榮里","LIN":"3鄰","STREET":"新進路","SECT":"二段","MAREA":" ","LANE":" ","ALLEY":" ","HOUSE_NO":"５００之１號六樓","E_COORD97":178675.87,"N_COORD97":2578038.6800000002,"ADDRESS":"新進路二段５００之１號六樓","OBJECTID":606174},"geometry":{"x":178675.87000000104,"y":2578038.6800000016}},{"attributes":{"ID":606202,"DIS_CODE":0,"TOWNNAME":"新營區","LI":"民榮里","LIN":"3鄰","STREET":"新進路","SECT":"二段","MAREA":" ","LANE":" ","ALLEY":" ","HOUSE_NO":"５００之１號十四樓","E_COORD97":178677.12,"N_COORD97":2578038.6800000002,"ADDRESS":"新進路二段５００之１號十四樓","OBJECTID":606175},"geometry":{"x":178677.12000000197,"y":2578038.6800000016}},{"attributes":{"ID":606203,"DIS_CODE":0,"TOWNNAME":"新營區","LI":"民榮里","LIN":"3鄰","STREET":"新進路","SECT":"二段","MAREA":" ","LANE":" ","ALLEY":" ","HOUSE_NO":"５００號十二樓","E_COORD97":178674.62,"N_COORD97":2578038.6400000001,"ADDRESS":"新進路二段５００號十二樓","OBJECTID":606176},"geometry":{"x":178674.62000000011,"y":2578038.6400000006}},{"attributes":{"ID":606204,"DIS_CODE":0,"TOWNNAME":"新營區","LI":"民榮里","LIN":"3鄰","STREET":"新進路","SECT":"二段","MAREA":" ","LANE":" ","ALLEY":" ","HOUSE_NO":"４９６之２號九樓","E_COORD97":178676.04999999999,"N_COORD97":2578064.1400000001,"ADDRESS":"新進路二段４９６之２號九樓","OBJECTID":606177},"geometry":{"x":178676.05000000075,"y":2578064.1400000025}},{"attributes":{"ID":606205,"DIS_CODE":0,"TOWNNAME":"新營區","LI":"民榮里","LIN":"3鄰","STREET":"新進路","SECT":"二段","MAREA":" ","LANE":" ","ALLEY":" ","HOUSE_NO":"４９６之２號十三樓","E_COORD97":178677.29999999999,"N_COORD97":2578064.1400000001,"ADDRESS":"新進路二段４９６之２號十三樓","OBJECTID":606178},"geometry":{"x":178677.30000000168,"y":2578064.1400000025}},{"attributes":{"ID":606206,"DIS_CODE":0,"TOWNNAME":"新營區","LI":"民榮里","LIN":"3鄰","STREET":"新進路","SECT":"二段","MAREA":" ","LANE":" ","ALLEY":" ","HOUSE_NO":"４９６之２號三樓","E_COORD97":178676.04999999999,"N_COORD97":2578064.1400000001,"ADDRESS":"新進路二段４９６之２號三樓","OBJECTID":606179},"geometry":{"x":178676.05000000075,"y":2578064.1400000025}},{"attributes":{"ID":606207,"DIS_CODE":0,"TOWNNAME":"新營區","LI":"民榮里","LIN":"3鄰","STREET":"新進路","SECT":"二段","MAREA":" ","LANE":" ","ALLEY":" ","HOUSE_NO":"４９６之２號十一樓","E_COORD97":178677.29999999999,"N_COORD97":2578064.1400000001,"ADDRESS":"新進路二段４９６之２號十一樓","OBJECTID":606180},"geometry":{"x":178677.30000000168,"y":2578064.1400000025}},{"attributes":{"ID":606208,"DIS_CODE":0,"TOWNNAME":"新營區","LI":"民榮里","LIN":"3鄰","STREET":"新進路","SECT":"二段","MAREA":" ","LANE":" ","ALLEY":" ","HOUSE_NO":"５００之４號六樓","E_COORD97":178675.87,"N_COORD97":2578038.6800000002,"ADDRESS":"新進路二段５００之４號六樓","OBJECTID":606181},"geometry":{"x":178675.87000000104,"y":2578038.6800000016}},{"attributes":{"ID":606209,"DIS_CODE":0,"TOWNNAME":"新營區","LI":"民榮里","LIN":"3鄰","STREET":"新進路","SECT":"二段","MAREA":" ","LANE":" ","ALLEY":" ","HOUSE_NO":"４９６之４號九樓","E_COORD97":178676.04999999999,"N_COORD97":2578064.1400000001,"ADDRESS":"新進路二段４９６之４號九樓","OBJECTID":606182},"geometry":{"x":178676.05000000075,"y":2578064.1400000025}},{"attributes":{"ID":606210,"DIS_CODE":0,"TOWNNAME":"新營區","LI":"民榮里","LIN":"3鄰","STREET":"新進路","SECT":"二段","MAREA":" ","LANE":" ","ALLEY":" ","HOUSE_NO":"５００之４號十三樓","E_COORD97":178677.12,"N_COORD97":2578038.6800000002,"ADDRESS":"新進路二段５００之４號十三樓","OBJECTID":606183},"geometry":{"x":178677.12000000197,"y":2578038.6800000016}},{"attributes":{"ID":606211,"DIS_CODE":0,"TOWNNAME":"新營區","LI":"民榮里","LIN":"3鄰","STREET":"新進路","SECT":"二段","MAREA":" ","LANE":" ","ALLEY":" ","HOUSE_NO":"５００之４號五樓","E_COORD97":178675.87,"N_COORD97":2578038.6800000002,"ADDRESS":"新進路二段５００之４號五樓","OBJECTID":606184},"geometry":{"x":178675.87000000104,"y":2578038.6800000016}},{"attributes":{"ID":606212,"DIS_CODE":0,"TOWNNAME":"北區","LI":"正覺里","LIN":"3鄰","STREET":"西門路","SECT":"四段","MAREA":" ","LANE":" ","ALLEY":" ","HOUSE_NO":"３７４號二樓","E_COORD97":169016.69,"N_COORD97":2546089.8999999999,"ADDRESS":"西門路四段３７４號二樓","OBJECTID":606185},"geometry":{"x":169016.69000000134,"y":2546089.8999999985}},{"attributes":{"ID":606213,"DIS_CODE":0,"TOWNNAME":"北區","LI":"正覺里","LIN":"3鄰","STREET":"西門路","SECT":"四段","MAREA":" ","LANE":" ","ALLEY":" ","HOUSE_NO":"３７４號三樓","E_COORD97":169016.69,"N_COORD97":2546089.8999999999,"ADDRESS":"西門路四段３７４號三樓","OBJECTID":606186},"geometry":{"x":169016.69000000134,"y":2546089.8999999985}},{"attributes":{"ID":606214,"DIS_CODE":0,"TOWNNAME":"北區","LI":"正覺里","LIN":"3鄰","STREET":"西門路","SECT":"四段","MAREA":" ","LANE":" ","ALLEY":" ","HOUSE_NO":"３７４號五樓","E_COORD97":169016.69,"N_COORD97":2546089.8999999999,"ADDRESS":"西門路四段３７４號五樓","OBJECTID":606187},"geometry":{"x":169016.69000000134,"y":2546089.8999999985}},{"attributes":{"ID":606215,"DIS_CODE":0,"TOWNNAME":"北區","LI":"正覺里","LIN":"3鄰","STREET":"西門路","SECT":"四段","MAREA":" ","LANE":" ","ALLEY":" ","HOUSE_NO":"３７４號四樓","E_COORD97":169016.69,"N_COORD97":2546089.8999999999,"ADDRESS":"西門路四段３７４號四樓","OBJECTID":606188},"geometry":{"x":169016.69000000134,"y":2546089.8999999985}},{"attributes":{"ID":606216,"DIS_CODE":0,"TOWNNAME":"安平區","LI":"育平里","LIN":"3鄰","STREET":"永華路","SECT":"二段","MAREA":" ","LANE":" ","ALLEY":" ","HOUSE_NO":"８１９號七樓之１０","E_COORD97":164756.10999999999,"N_COORD97":2543515.4199999999,"ADDRESS":"永華路二段８１９號七樓之１０","OBJECTID":606189},"geometry":{"x":164756.11000000034,"y":2543515.4199999999}},{"attributes":{"ID":606217,"DIS_CODE":0,"TOWNNAME":"安平區","LI":"育平里","LIN":"3鄰","STREET":"永華路","SECT":"二段","MAREA":" ","LANE":" ","ALLEY":" ","HOUSE_NO":"８１９號七樓之１１","E_COORD97":164756.10999999999,"N_COORD97":2543515.4199999999,"ADDRESS":"永華路二段８１９號七樓之１１","OBJECTID":606190},"geometry":{"x":164756.11000000034,"y":2543515.4199999999}},{"attributes":{"ID":606218,"DIS_CODE":0,"TOWNNAME":"仁德區","LI":"後壁里","LIN":"17鄰","STREET":"德南路","SECT":" ","MAREA":" ","LANE":" ","ALLEY":" ","HOUSE_NO":"３號","E_COORD97":173259.20000000001,"N_COORD97":2538813.0099999998,"ADDRESS":"德南路３號","OBJECTID":606191},"geometry":{"x":173259.20000000112,"y":2538813.0100000035}},{"attributes":{"ID":606219,"DIS_CODE":0,"TOWNNAME":"安平區","LI":"育平里","LIN":"3鄰","STREET":"永華路","SECT":"二段","MAREA":" ","LANE":" ","ALLEY":" ","HOUSE_NO":"８１９號七樓之１２","E_COORD97":164756.10999999999,"N_COORD97":2543515.4199999999,"ADDRESS":"永華路二段８１９號七樓之１２","OBJECTID":606192},"geometry":{"x":164756.11000000034,"y":2543515.4199999999}},{"attributes":{"ID":606220,"DIS_CODE":0,"TOWNNAME":"安平區","LI":"育平里","LIN":"3鄰","STREET":"永華路","SECT":"二段","MAREA":" ","LANE":" ","ALLEY":" ","HOUSE_NO":"８１９號七樓之９","E_COORD97":164756.10999999999,"N_COORD97":2543515.4199999999,"ADDRESS":"永華路二段８１９號七樓之９","OBJECTID":606193},"geometry":{"x":164756.11000000034,"y":2543515.4199999999}},{"attributes":{"ID":606221,"DIS_CODE":0,"TOWNNAME":"安平區","LI":"育平里","LIN":"3鄰","STREET":"永華路","SECT":"二段","MAREA":" ","LANE":" ","ALLEY":" ","HOUSE_NO":"８１９號九樓之１０","E_COORD97":164756.10999999999,"N_COORD97":2543515.4199999999,"ADDRESS":"永華路二段８１９號九樓之１０","OBJECTID":606194},"geometry":{"x":164756.11000000034,"y":2543515.4199999999}},{"attributes":{"ID":606222,"DIS_CODE":0,"TOWNNAME":"安平區","LI":"育平里","LIN":"3鄰","STREET":"永華路","SECT":"二段","MAREA":" ","LANE":" ","ALLEY":" ","HOUSE_NO":"８１９號九樓之１１","E_COORD97":164756.10999999999,"N_COORD97":2543515.4199999999,"ADDRESS":"永華路二段８１９號九樓之１１","OBJECTID":606195},"geometry":{"x":164756.11000000034,"y":2543515.4199999999}},{"attributes":{"ID":606223,"DIS_CODE":0,"TOWNNAME":"安平區","LI":"育平里","LIN":"3鄰","STREET":"永華路","SECT":"二段","MAREA":" ","LANE":" ","ALLEY":" ","HOUSE_NO":"８１９號九樓之１２","E_COORD97":164756.10999999999,"N_COORD97":2543515.4199999999,"ADDRESS":"永華路二段８１９號九樓之１２","OBJECTID":606196},"geometry":{"x":164756.11000000034,"y":2543515.4199999999}},{"attributes":{"ID":606224,"DIS_CODE":0,"TOWNNAME":"安平區","LI":"育平里","LIN":"3鄰","STREET":"永華路","SECT":"二段","MAREA":" ","LANE":" ","ALLEY":" ","HOUSE_NO":"８１９號九樓之９","E_COORD97":164756.10999999999,"N_COORD97":2543515.4199999999,"ADDRESS":"永華路二段８１９號九樓之９","OBJECTID":606197},"geometry":{"x":164756.11000000034,"y":2543515.4199999999}},{"attributes":{"ID":606225,"DIS_CODE":0,"TOWNNAME":"安平區","LI":"育平里","LIN":"3鄰","STREET":"永華路","SECT":"二段","MAREA":" ","LANE":" ","ALLEY":" ","HOUSE_NO":"８１９號二十一樓之１","E_COORD97":164756.10999999999,"N_COORD97":2543515.4199999999,"ADDRESS":"永華路二段８１９號二十一樓之１０","OBJECTID":606198},"geometry":{"x":164756.11000000034,"y":2543515.4199999999}},{"attributes":{"ID":606226,"DIS_CODE":0,"TOWNNAME":"安平區","LI":"育平里","LIN":"3鄰","STREET":"永華路","SECT":"二段","MAREA":" ","LANE":" ","ALLEY":" ","HOUSE_NO":"８１９號二十一樓之１","E_COORD97":164756.10999999999,"N_COORD97":2543515.4199999999,"ADDRESS":"永華路二段８１９號二十一樓之１１","OBJECTID":606199},"geometry":{"x":164756.11000000034,"y":2543515.4199999999}},{"attributes":{"ID":606227,"DIS_CODE":0,"TOWNNAME":"安平區","LI":"育平里","LIN":"3鄰","STREET":"永華路","SECT":"二段","MAREA":" ","LANE":" ","ALLEY":" ","HOUSE_NO":"８１９號二十一樓之１","E_COORD97":164756.10999999999,"N_COORD97":2543515.4199999999,"ADDRESS":"永華路二段８１９號二十一樓之１２","OBJECTID":606200},"geometry":{"x":164756.11000000034,"y":2543515.4199999999}}]}