{"displayFieldName":"TOWNNAME","fieldAliases":{"ID":"ID","DIS_CODE":"DIS_CODE","TOWNNAME":"TOWNNAME","LI":"LI","LIN":"LIN","STREET":"STREET","SECT":"SECT","MAREA":"MAREA","LANE":"LANE","ALLEY":"ALLEY","HOUSE_NO":"HOUSE_NO","E_COORD97":"E_COORD97","N_COORD97":"N_COORD97","ADDRESS":"ADDRESS","OBJECTID":"OBJECTID"},"geometryType":"esriGeometryPoint","spatialReference":{"wkid":102443,"latestWkid":3826},"fields":[{"name":"ID","type":"esriFieldTypeDouble","alias":"ID"},{"name":"DIS_CODE","type":"esriFieldTypeInteger","alias":"DIS_CODE"},{"name":"TOWNNAME","type":"esriFieldTypeString","alias":"TOWNNAME","length":8},{"name":"LI","type":"esriFieldTypeString","alias":"LI","length":8},{"name":"LIN","type":"esriFieldTypeString","alias":"LIN","length":12},{"name":"STREET","type":"esriFieldTypeString","alias":"STREET","length":20},{"name":"SECT","type":"esriFieldTypeString","alias":"SECT","length":8},{"name":"MAREA","type":"esriFieldTypeString","alias":"MAREA","length":12},{"name":"LANE","type":"esriFieldTypeString","alias":"LANE","length":10},{"name":"ALLEY","type":"esriFieldTypeString","alias":"ALLEY","length":10},{"name":"HOUSE_NO","type":"esriFieldTypeString","alias":"HOUSE_NO","length":20},{"name":"E_COORD97","type":"esriFieldTypeDouble","alias":"E_COORD97"},{"name":"N_COORD97","type":"esriFieldTypeDouble","alias":"N_COORD97"},{"name":"ADDRESS","type":"esriFieldTypeString","alias":"ADDRESS","length":50},{"name":"OBJECTID","type":"esriFieldTypeOID","alias":"OBJECTID"}],"features":[{"attributes":{"ID":401,"DIS_CODE":0,"TOWNNAME":"安平區","LI":"平安里","LIN":"22鄰","STREET":"安平路","SECT":" ","MAREA":" ","LANE":"４４６巷","ALLEY":"２５弄","HOUSE_NO":"１７號之２","E_COORD97":165244.677727,"N_COORD97":2544417.0028200001,"ADDRESS":"安平路４４６巷２５弄１７號之２","OBJECTID":401},"geometry":{"x":165244.67772700079,"y":2544417.0028159991}},{"attributes":{"ID":402,"DIS_CODE":0,"TOWNNAME":"安平區","LI":"平安里","LIN":"22鄰","STREET":"安平路","SECT":" ","MAREA":" ","LANE":"４４６巷","ALLEY":"２５弄","HOUSE_NO":"１７號之３","E_COORD97":165241.07529899999,"N_COORD97":2544418.2728200001,"ADDRESS":"安平路４４６巷２５弄１７號之３","OBJECTID":402},"geometry":{"x":165241.07529900037,"y":2544418.2728160024}},{"attributes":{"ID":403,"DIS_CODE":0,"TOWNNAME":"安平區","LI":"平安里","LIN":"22鄰","STREET":"安平路","SECT":" ","MAREA":" ","LANE":"４４６巷","ALLEY":"２５弄","HOUSE_NO":"１８號之１","E_COORD97":165229.632293,"N_COORD97":2544437.1111400002,"ADDRESS":"安平路４４６巷２５弄１８號之１","OBJECTID":403},"geometry":{"x":165229.63229300082,"y":2544437.1111390032}},{"attributes":{"ID":404,"DIS_CODE":0,"TOWNNAME":"安平區","LI":"平安里","LIN":"22鄰","STREET":"安平路","SECT":" ","MAREA":" ","LANE":"４４６巷","ALLEY":"２５弄","HOUSE_NO":"１８號之２","E_COORD97":165230.05610799999,"N_COORD97":2544436.68781,"ADDRESS":"安平路４４６巷２５弄１８號之２","OBJECTID":404},"geometry":{"x":165230.05610799976,"y":2544436.6878059991}},{"attributes":{"ID":405,"DIS_CODE":0,"TOWNNAME":"安平區","LI":"平安里","LIN":"22鄰","STREET":"安平路","SECT":" ","MAREA":" ","LANE":"４４６巷","ALLEY":"２５弄","HOUSE_NO":"１８號之３","E_COORD97":165229.632293,"N_COORD97":2544436.8994700001,"ADDRESS":"安平路４４６巷２５弄１８號之３","OBJECTID":405},"geometry":{"x":165229.63229300082,"y":2544436.8994720019}},{"attributes":{"ID":406,"DIS_CODE":0,"TOWNNAME":"安平區","LI":"平安里","LIN":"22鄰","STREET":"安平路","SECT":" ","MAREA":" ","LANE":"４４６巷","ALLEY":"２５弄","HOUSE_NO":"１８號之４","E_COORD97":165229.420385,"N_COORD97":2544436.8994700001,"ADDRESS":"安平路４４６巷２５弄１８號之４","OBJECTID":406},"geometry":{"x":165229.42038500123,"y":2544436.8994720019}},{"attributes":{"ID":407,"DIS_CODE":0,"TOWNNAME":"關廟區","LI":"埤頭里","LIN":"1鄰","STREET":"關新路","SECT":"一段","MAREA":" ","LANE":" ","ALLEY":" ","HOUSE_NO":"６８８號","E_COORD97":179176.13531300001,"N_COORD97":2543545.9816299998,"ADDRESS":"關新路一段６８８號","OBJECTID":407},"geometry":{"x":179176.1353129996,"y":2543545.9816299994}},{"attributes":{"ID":408,"DIS_CODE":0,"TOWNNAME":"安平區","LI":"平安里","LIN":"23鄰","STREET":"安平路","SECT":" ","MAREA":" ","LANE":"４４６巷","ALLEY":"２５弄","HOUSE_NO":"２１號","E_COORD97":165236.20142600001,"N_COORD97":2544419.1194799999,"ADDRESS":"安平路４４６巷２５弄２１號","OBJECTID":408},"geometry":{"x":165236.20142600127,"y":2544419.1194819994}},{"attributes":{"ID":409,"DIS_CODE":0,"TOWNNAME":"安平區","LI":"平安里","LIN":"22鄰","STREET":"安平路","SECT":" ","MAREA":" ","LANE":"４４６巷","ALLEY":"２５弄","HOUSE_NO":"１９號","E_COORD97":165238.53240900001,"N_COORD97":2544419.1194799999,"ADDRESS":"安平路４４６巷２５弄１９號","OBJECTID":409},"geometry":{"x":165238.53240899928,"y":2544419.1194819994}},{"attributes":{"ID":410,"DIS_CODE":0,"TOWNNAME":"新營區","LI":"太北里","LIN":"20鄰","STREET":" ","SECT":" ","MAREA":"太子宮","LANE":" ","ALLEY":" ","HOUSE_NO":"１４２之９８號","E_COORD97":175392.79200399999,"N_COORD97":2576937.4857899998,"ADDRESS":"太子宮１４２之９８號","OBJECTID":410},"geometry":{"x":175392.7920040004,"y":2576937.4857879989}},{"attributes":{"ID":411,"DIS_CODE":0,"TOWNNAME":"安平區","LI":"平安里","LIN":"22鄰","STREET":"安平路","SECT":" ","MAREA":" ","LANE":"４４６巷","ALLEY":"２５弄","HOUSE_NO":"１號之１","E_COORD97":165284.72824900001,"N_COORD97":2544409.1711499998,"ADDRESS":"安平路４４６巷２５弄１號之１","OBJECTID":411},"geometry":{"x":165284.72824900132,"y":2544409.1711540036}},{"attributes":{"ID":412,"DIS_CODE":0,"TOWNNAME":"安平區","LI":"平安里","LIN":"22鄰","STREET":"安平路","SECT":" ","MAREA":" ","LANE":"４４６巷","ALLEY":"２５弄","HOUSE_NO":"１號之２","E_COORD97":165284.092527,"N_COORD97":2544409.1711499998,"ADDRESS":"安平路４４６巷２５弄１號之２","OBJECTID":412},"geometry":{"x":165284.09252700116,"y":2544409.1711540036}},{"attributes":{"ID":413,"DIS_CODE":0,"TOWNNAME":"安平區","LI":"平安里","LIN":"22鄰","STREET":"安平路","SECT":" ","MAREA":" ","LANE":"４４６巷","ALLEY":"２５弄","HOUSE_NO":"１號之３","E_COORD97":165283.244897,"N_COORD97":2544409.59449,"ADDRESS":"安平路４４６巷２５弄１號之３","OBJECTID":413},"geometry":{"x":165283.24489700049,"y":2544409.5944870021}},{"attributes":{"ID":414,"DIS_CODE":0,"TOWNNAME":"安平區","LI":"平安里","LIN":"22鄰","STREET":"安平路","SECT":" ","MAREA":" ","LANE":"４４６巷","ALLEY":"２５弄","HOUSE_NO":"１號之４","E_COORD97":165283.880619,"N_COORD97":2544409.3828199999,"ADDRESS":"安平路４４６巷２５弄１號之４","OBJECTID":414},"geometry":{"x":165283.88061899971,"y":2544409.3828210048}},{"attributes":{"ID":415,"DIS_CODE":0,"TOWNNAME":"安平區","LI":"平安里","LIN":"23鄰","STREET":"安平路","SECT":" ","MAREA":" ","LANE":"４４６巷","ALLEY":"２５弄","HOUSE_NO":"２０號之１","E_COORD97":165225.18223000001,"N_COORD97":2544437.5344699998,"ADDRESS":"安平路４４６巷２５弄２０號之１","OBJECTID":415},"geometry":{"x":165225.18223000038,"y":2544437.5344700031}},{"attributes":{"ID":416,"DIS_CODE":0,"TOWNNAME":"安平區","LI":"平安里","LIN":"23鄰","STREET":"安平路","SECT":" ","MAREA":" ","LANE":"４４６巷","ALLEY":"２５弄","HOUSE_NO":"２０號之３","E_COORD97":165224.3346,"N_COORD97":2544436.8994700001,"ADDRESS":"安平路４４６巷２５弄２０號之３","OBJECTID":416},"geometry":{"x":165224.33459999971,"y":2544436.8994699977}},{"attributes":{"ID":417,"DIS_CODE":0,"TOWNNAME":"安平區","LI":"平安里","LIN":"23鄰","STREET":"安平路","SECT":" ","MAREA":" ","LANE":"４４６巷","ALLEY":"２５弄","HOUSE_NO":"２０號","E_COORD97":165225.45999999999,"N_COORD97":2544437.3700000001,"ADDRESS":"安平路４４６巷２５弄２０號","OBJECTID":417},"geometry":{"x":165225.46000000089,"y":2544437.3700000029}},{"attributes":{"ID":418,"DIS_CODE":0,"TOWNNAME":"安平區","LI":"平安里","LIN":"23鄰","STREET":"安平路","SECT":" ","MAREA":" ","LANE":"４４６巷","ALLEY":"２５弄","HOUSE_NO":"２０號之４","E_COORD97":165224.12269700001,"N_COORD97":2544437.1111400002,"ADDRESS":"安平路４４６巷２５弄２０號之４","OBJECTID":418},"geometry":{"x":165224.12269700132,"y":2544437.1111390032}},{"attributes":{"ID":419,"DIS_CODE":0,"TOWNNAME":"六甲區","LI":"甲東里","LIN":"10鄰","STREET":"曾文街","SECT":" ","MAREA":" ","LANE":"１２１巷","ALLEY":" ","HOUSE_NO":"６號","E_COORD97":184612.751579,"N_COORD97":2570507.40496,"ADDRESS":"曾文街１２１巷６號","OBJECTID":419},"geometry":{"x":184612.75157900061,"y":2570507.404959999}},{"attributes":{"ID":420,"DIS_CODE":0,"TOWNNAME":"安平區","LI":"平安里","LIN":"23鄰","STREET":"安平路","SECT":" ","MAREA":" ","LANE":"４４６巷","ALLEY":"２５弄","HOUSE_NO":"２２號之１","E_COORD97":165219.88454699999,"N_COORD97":2544437.5344699998,"ADDRESS":"安平路４４６巷２５弄２２號之１","OBJECTID":420},"geometry":{"x":165219.88454700075,"y":2544437.5344720017}},{"attributes":{"ID":421,"DIS_CODE":0,"TOWNNAME":"安平區","LI":"平安里","LIN":"23鄰","STREET":"安平路","SECT":" ","MAREA":" ","LANE":"４４６巷","ALLEY":"２５弄","HOUSE_NO":"２２號之２","E_COORD97":165219.24882400001,"N_COORD97":2544437.3228099998,"ADDRESS":"安平路４４６巷２５弄２２號之２","OBJECTID":421},"geometry":{"x":165219.24882400036,"y":2544437.3228060044}},{"attributes":{"ID":422,"DIS_CODE":0,"TOWNNAME":"安平區","LI":"平安里","LIN":"23鄰","STREET":"安平路","SECT":" ","MAREA":" ","LANE":"４４６巷","ALLEY":"２５弄","HOUSE_NO":"２２號之３","E_COORD97":165219.03691699999,"N_COORD97":2544437.5344699998,"ADDRESS":"安平路４４６巷２５弄２２號之３","OBJECTID":422},"geometry":{"x":165219.03691700008,"y":2544437.5344720017}},{"attributes":{"ID":423,"DIS_CODE":0,"TOWNNAME":"安平區","LI":"平安里","LIN":"23鄰","STREET":"安平路","SECT":" ","MAREA":" ","LANE":"４４６巷","ALLEY":"２５弄","HOUSE_NO":"２２號之４","E_COORD97":165218.82500899999,"N_COORD97":2544437.9578,"ADDRESS":"安平路４４６巷２５弄２２號之４","OBJECTID":423},"geometry":{"x":165218.82500900049,"y":2544437.9578050002}},{"attributes":{"ID":424,"DIS_CODE":0,"TOWNNAME":"安平區","LI":"平安里","LIN":"23鄰","STREET":"安平路","SECT":" ","MAREA":" ","LANE":"４４６巷","ALLEY":"２５弄","HOUSE_NO":"２４號之１","E_COORD97":165215.01067399999,"N_COORD97":2544438.1694700001,"ADDRESS":"安平路４４６巷２５弄２４號之１","OBJECTID":424},"geometry":{"x":165215.01067399979,"y":2544438.1694720015}},{"attributes":{"ID":425,"DIS_CODE":0,"TOWNNAME":"安平區","LI":"平安里","LIN":"23鄰","STREET":"安平路","SECT":" ","MAREA":" ","LANE":"４４６巷","ALLEY":"２５弄","HOUSE_NO":"２４號之２","E_COORD97":165214.586859,"N_COORD97":2544438.3811400002,"ADDRESS":"安平路４４６巷２５弄２４號之２","OBJECTID":425},"geometry":{"x":165214.58685900085,"y":2544438.3811380025}},{"attributes":{"ID":426,"DIS_CODE":0,"TOWNNAME":"安平區","LI":"平安里","LIN":"23鄰","STREET":"安平路","SECT":" ","MAREA":" ","LANE":"４４６巷","ALLEY":"２５弄","HOUSE_NO":"２４號之３","E_COORD97":165213.95113599999,"N_COORD97":2544438.3811400002,"ADDRESS":"安平路４４６巷２５弄２４號之３","OBJECTID":426},"geometry":{"x":165213.95113600139,"y":2544438.3811380025}},{"attributes":{"ID":427,"DIS_CODE":0,"TOWNNAME":"安平區","LI":"平安里","LIN":"23鄰","STREET":"安平路","SECT":" ","MAREA":" ","LANE":"４４６巷","ALLEY":"２５弄","HOUSE_NO":"２４號之４","E_COORD97":165214.16304399999,"N_COORD97":2544438.3811400002,"ADDRESS":"安平路４４６巷２５弄２４號之４","OBJECTID":427},"geometry":{"x":165214.16304400098,"y":2544438.3811380025}},{"attributes":{"ID":428,"DIS_CODE":0,"TOWNNAME":"關廟區","LI":"埤頭里","LIN":"1鄰","STREET":"關新路","SECT":"一段","MAREA":" ","LANE":" ","ALLEY":" ","HOUSE_NO":"６９０號","E_COORD97":179175.97,"N_COORD97":2543551.2999999998,"ADDRESS":"關新路一段６９０號","OBJECTID":428},"geometry":{"x":179175.9700000016,"y":2543551.3000000007}},{"attributes":{"ID":429,"DIS_CODE":0,"TOWNNAME":"關廟區","LI":"埤頭里","LIN":"1鄰","STREET":"關新路","SECT":"一段","MAREA":" ","LANE":" ","ALLEY":" ","HOUSE_NO":"６９６號","E_COORD97":179174.76999999999,"N_COORD97":2543559.2999999998,"ADDRESS":"關新路一段６９６號","OBJECTID":429},"geometry":{"x":179174.76999999955,"y":2543559.3000000026}},{"attributes":{"ID":430,"DIS_CODE":0,"TOWNNAME":"安平區","LI":"平安里","LIN":"22鄰","STREET":"安平路","SECT":" ","MAREA":" ","LANE":"４４６巷","ALLEY":"２５弄","HOUSE_NO":"１６號之１","E_COORD97":165235.35379600001,"N_COORD97":2544436.68781,"ADDRESS":"安平路４４６巷２５弄１６號之１","OBJECTID":430},"geometry":{"x":165235.35379600059,"y":2544436.6878059991}},{"attributes":{"ID":431,"DIS_CODE":0,"TOWNNAME":"安平區","LI":"平安里","LIN":"23鄰","STREET":"安平路","SECT":" ","MAREA":" ","LANE":"４４６巷","ALLEY":"２５弄","HOUSE_NO":"２０號之２","E_COORD97":165224.75842,"N_COORD97":2544437.1111300001,"ADDRESS":"安平路４４６巷２５弄２０號之２","OBJECTID":431},"geometry":{"x":165224.75841999985,"y":2544437.1111299992}},{"attributes":{"ID":432,"DIS_CODE":0,"TOWNNAME":"安平區","LI":"平安里","LIN":"22鄰","STREET":"安平路","SECT":" ","MAREA":" ","LANE":"４４６巷","ALLEY":"２５弄","HOUSE_NO":"２號之１","E_COORD97":165287.48304699999,"N_COORD97":2544427.3744800002,"ADDRESS":"安平路４４６巷２５弄２號之１","OBJECTID":432},"geometry":{"x":165287.48304700106,"y":2544427.374478003}},{"attributes":{"ID":433,"DIS_CODE":0,"TOWNNAME":"安平區","LI":"平安里","LIN":"22鄰","STREET":"安平路","SECT":" ","MAREA":" ","LANE":"４４６巷","ALLEY":"２５弄","HOUSE_NO":"２號之２","E_COORD97":165287.27114,"N_COORD97":2544427.3744800002,"ADDRESS":"安平路４４６巷２５弄２號之２","OBJECTID":433},"geometry":{"x":165287.27114000078,"y":2544427.374478003}},{"attributes":{"ID":434,"DIS_CODE":0,"TOWNNAME":"安平區","LI":"平安里","LIN":"22鄰","STREET":"安平路","SECT":" ","MAREA":" ","LANE":"４４６巷","ALLEY":"２５弄","HOUSE_NO":"２號之３","E_COORD97":165286.847324,"N_COORD97":2544427.1628100001,"ADDRESS":"安平路４４６巷２５弄２號之３","OBJECTID":434},"geometry":{"x":165286.84732399974,"y":2544427.1628110018}},{"attributes":{"ID":435,"DIS_CODE":0,"TOWNNAME":"安平區","LI":"平安里","LIN":"22鄰","STREET":"安平路","SECT":" ","MAREA":" ","LANE":"４４６巷","ALLEY":"２５弄","HOUSE_NO":"２號之４","E_COORD97":165287.48304699999,"N_COORD97":2544427.5861399998,"ADDRESS":"安平路４４６巷２５弄２號之４","OBJECTID":435},"geometry":{"x":165287.48304700106,"y":2544427.5861440003}},{"attributes":{"ID":436,"DIS_CODE":0,"TOWNNAME":"安平區","LI":"平安里","LIN":"22鄰","STREET":"安平路","SECT":" ","MAREA":" ","LANE":"４４６巷","ALLEY":"２５弄","HOUSE_NO":"３號之１","E_COORD97":165279.64246900001,"N_COORD97":2544408.9594899998,"ADDRESS":"安平路４４６巷２５弄３號之１","OBJECTID":436},"geometry":{"x":165279.64246900007,"y":2544408.9594880007}},{"attributes":{"ID":437,"DIS_CODE":0,"TOWNNAME":"安平區","LI":"平安里","LIN":"22鄰","STREET":"安平路","SECT":" ","MAREA":" ","LANE":"４４６巷","ALLEY":"２５弄","HOUSE_NO":"３號之２","E_COORD97":165279.64246900001,"N_COORD97":2544409.59449,"ADDRESS":"安平路４４６巷２５弄３號之２","OBJECTID":437},"geometry":{"x":165279.64246900007,"y":2544409.5944870021}},{"attributes":{"ID":438,"DIS_CODE":0,"TOWNNAME":"安平區","LI":"平安里","LIN":"22鄰","STREET":"安平路","SECT":" ","MAREA":" ","LANE":"４４６巷","ALLEY":"２５弄","HOUSE_NO":"３號之３","E_COORD97":165278.79483900001,"N_COORD97":2544409.8061500001,"ADDRESS":"安平路４４６巷２５弄３號之３","OBJECTID":438},"geometry":{"x":165278.79483900126,"y":2544409.8061540034}},{"attributes":{"ID":439,"DIS_CODE":0,"TOWNNAME":"安平區","LI":"平安里","LIN":"22鄰","STREET":"安平路","SECT":" ","MAREA":" ","LANE":"４４６巷","ALLEY":"２５弄","HOUSE_NO":"３號之４","E_COORD97":165279.218654,"N_COORD97":2544409.59449,"ADDRESS":"安平路４４６巷２５弄３號之４","OBJECTID":439},"geometry":{"x":165279.2186540002,"y":2544409.5944870021}},{"attributes":{"ID":440,"DIS_CODE":0,"TOWNNAME":"安平區","LI":"平安里","LIN":"22鄰","STREET":"安平路","SECT":" ","MAREA":" ","LANE":"４４６巷","ALLEY":"２５弄","HOUSE_NO":"４號之２","E_COORD97":165277.73530100001,"N_COORD97":2544429.9144799998,"ADDRESS":"安平路４４６巷２５弄４號之２","OBJECTID":440},"geometry":{"x":165277.735301001,"y":2544429.9144760035}},{"attributes":{"ID":441,"DIS_CODE":0,"TOWNNAME":"安平區","LI":"平安里","LIN":"22鄰","STREET":"安平路","SECT":" ","MAREA":" ","LANE":"４４６巷","ALLEY":"２５弄","HOUSE_NO":"４號之３","E_COORD97":165277.947208,"N_COORD97":2544429.27948,"ADDRESS":"安平路４４６巷２５弄４號之３","OBJECTID":441},"geometry":{"x":165277.94720800128,"y":2544429.2794770021}},{"attributes":{"ID":442,"DIS_CODE":0,"TOWNNAME":"安平區","LI":"平安里","LIN":"22鄰","STREET":"安平路","SECT":" ","MAREA":" ","LANE":"４４６巷","ALLEY":"２５弄","HOUSE_NO":"４號之４","E_COORD97":165277.73530100001,"N_COORD97":2544429.0678099999,"ADDRESS":"安平路４４６巷２５弄４號之４","OBJECTID":442},"geometry":{"x":165277.735301001,"y":2544429.0678100009}},{"attributes":{"ID":443,"DIS_CODE":0,"TOWNNAME":"安平區","LI":"平安里","LIN":"22鄰","STREET":"安平路","SECT":" ","MAREA":" ","LANE":"４４６巷","ALLEY":"２５弄","HOUSE_NO":"５號之１","E_COORD97":165274.132873,"N_COORD97":2544410.4411499999,"ADDRESS":"安平路４４６巷２５弄５號之１","OBJECTID":443},"geometry":{"x":165274.13287299965,"y":2544410.4411530029}},{"attributes":{"ID":444,"DIS_CODE":0,"TOWNNAME":"安平區","LI":"平安里","LIN":"22鄰","STREET":"安平路","SECT":" ","MAREA":" ","LANE":"４４６巷","ALLEY":"２５弄","HOUSE_NO":"５號之２","E_COORD97":165273.70905800001,"N_COORD97":2544410.2294899998,"ADDRESS":"安平路４４６巷２５弄５號之２","OBJECTID":444},"geometry":{"x":165273.70905800071,"y":2544410.2294870019}},{"attributes":{"ID":445,"DIS_CODE":0,"TOWNNAME":"安平區","LI":"平安里","LIN":"22鄰","STREET":"安平路","SECT":" ","MAREA":" ","LANE":"４４６巷","ALLEY":"２５弄","HOUSE_NO":"５號之３","E_COORD97":165273.07333499999,"N_COORD97":2544410.4411499999,"ADDRESS":"安平路４４６巷２５弄５號之３","OBJECTID":445},"geometry":{"x":165273.07333499938,"y":2544410.4411530029}},{"attributes":{"ID":446,"DIS_CODE":0,"TOWNNAME":"安平區","LI":"平安里","LIN":"22鄰","STREET":"安平路","SECT":" ","MAREA":" ","LANE":"４４６巷","ALLEY":"２５弄","HOUSE_NO":"５號之４","E_COORD97":165272.861428,"N_COORD97":2544410.65282,"ADDRESS":"安平路４４６巷２５弄５號之４","OBJECTID":446},"geometry":{"x":165272.86142800003,"y":2544410.6528200004}},{"attributes":{"ID":447,"DIS_CODE":0,"TOWNNAME":"安平區","LI":"平安里","LIN":"22鄰","STREET":"安平路","SECT":" ","MAREA":" ","LANE":"４４６巷","ALLEY":"２５弄","HOUSE_NO":"６號之１","E_COORD97":165270.95426,"N_COORD97":2544431.3961399999,"ADDRESS":"安平路４４６巷２５弄６號之１","OBJECTID":447},"geometry":{"x":165270.95426000096,"y":2544431.3961419985}},{"attributes":{"ID":448,"DIS_CODE":0,"TOWNNAME":"安平區","LI":"平安里","LIN":"22鄰","STREET":"安平路","SECT":" ","MAREA":" ","LANE":"４４６巷","ALLEY":"２５弄","HOUSE_NO":"６號之２","E_COORD97":165270.95426,"N_COORD97":2544430.7611400001,"ADDRESS":"安平路４４６巷２５弄６號之２","OBJECTID":448},"geometry":{"x":165270.95426000096,"y":2544430.7611419987}},{"attributes":{"ID":449,"DIS_CODE":0,"TOWNNAME":"安平區","LI":"平安里","LIN":"22鄰","STREET":"安平路","SECT":" ","MAREA":" ","LANE":"４４６巷","ALLEY":"２５弄","HOUSE_NO":"６號之３","E_COORD97":165270.53044500001,"N_COORD97":2544430.7611400001,"ADDRESS":"安平路４４６巷２５弄６號之３","OBJECTID":449},"geometry":{"x":165270.53044500109,"y":2544430.7611419987}},{"attributes":{"ID":450,"DIS_CODE":0,"TOWNNAME":"安平區","LI":"平安里","LIN":"22鄰","STREET":"安平路","SECT":" ","MAREA":" ","LANE":"４４６巷","ALLEY":"２５弄","HOUSE_NO":"６號之４","E_COORD97":165270.95426,"N_COORD97":2544430.7611400001,"ADDRESS":"安平路４４６巷２５弄６號之４","OBJECTID":450},"geometry":{"x":165270.95426000096,"y":2544430.7611419987}},{"attributes":{"ID":451,"DIS_CODE":0,"TOWNNAME":"安平區","LI":"平安里","LIN":"22鄰","STREET":"安平路","SECT":" ","MAREA":" ","LANE":"４４６巷","ALLEY":"２５弄","HOUSE_NO":"７號之１","E_COORD97":165264.808942,"N_COORD97":2544413.19282,"ADDRESS":"安平路４４６巷２５弄７號之１","OBJECTID":451},"geometry":{"x":165264.80894200131,"y":2544413.1928189993}},{"attributes":{"ID":452,"DIS_CODE":0,"TOWNNAME":"安平區","LI":"平安里","LIN":"22鄰","STREET":"安平路","SECT":" ","MAREA":" ","LANE":"４４６巷","ALLEY":"２５弄","HOUSE_NO":"７號之２","E_COORD97":165264.38512699999,"N_COORD97":2544413.19282,"ADDRESS":"安平路４４６巷２５弄７號之２","OBJECTID":452},"geometry":{"x":165264.38512700051,"y":2544413.1928189993}},{"attributes":{"ID":453,"DIS_CODE":0,"TOWNNAME":"安平區","LI":"平安里","LIN":"22鄰","STREET":"安平路","SECT":" ","MAREA":" ","LANE":"４４６巷","ALLEY":"２５弄","HOUSE_NO":"７號之３","E_COORD97":165263.749404,"N_COORD97":2544413.19282,"ADDRESS":"安平路４４６巷２５弄７號之３","OBJECTID":453},"geometry":{"x":165263.74940400105,"y":2544413.1928189993}},{"attributes":{"ID":454,"DIS_CODE":0,"TOWNNAME":"安平區","LI":"平安里","LIN":"22鄰","STREET":"安平路","SECT":" ","MAREA":" ","LANE":"４４６巷","ALLEY":"２５弄","HOUSE_NO":"７號之４","E_COORD97":165264.17321899999,"N_COORD97":2544413.19282,"ADDRESS":"安平路４４６巷２５弄７號之４","OBJECTID":454},"geometry":{"x":165264.17321900092,"y":2544413.1928189993}},{"attributes":{"ID":455,"DIS_CODE":0,"TOWNNAME":"安平區","LI":"平安里","LIN":"22鄰","STREET":"安平路","SECT":" ","MAREA":" ","LANE":"４４６巷","ALLEY":"２５弄","HOUSE_NO":"７號之４五樓","E_COORD97":165263.749404,"N_COORD97":2544413.19282,"ADDRESS":"安平路４４６巷２５弄７號之４五樓","OBJECTID":455},"geometry":{"x":165263.74940400105,"y":2544413.1928189993}},{"attributes":{"ID":456,"DIS_CODE":0,"TOWNNAME":"仁德區","LI":"一甲里","LIN":"4鄰","STREET":"忠義路","SECT":" ","MAREA":" ","LANE":" ","ALLEY":" ","HOUSE_NO":"２３１號","E_COORD97":173961.18484500001,"N_COORD97":2541834.9497500001,"ADDRESS":"忠義路２３１號","OBJECTID":456},"geometry":{"x":173961.18484499957,"y":2541834.9497540016}},{"attributes":{"ID":457,"DIS_CODE":0,"TOWNNAME":"仁德區","LI":"後壁里","LIN":"12鄰","STREET":"德南路","SECT":" ","MAREA":" ","LANE":"２５１巷","ALLEY":"２９弄","HOUSE_NO":"３２號","E_COORD97":173826.10175100001,"N_COORD97":2538532.5021799998,"ADDRESS":"德南路２５１巷２９弄３２號","OBJECTID":457},"geometry":{"x":173826.10175100062,"y":2538532.5021790005}},{"attributes":{"ID":458,"DIS_CODE":0,"TOWNNAME":"仁德區","LI":"後壁里","LIN":"12鄰","STREET":"德南路","SECT":" ","MAREA":" ","LANE":"２５１巷","ALLEY":"２９弄","HOUSE_NO":"３６號","E_COORD97":173829.49465199999,"N_COORD97":2538537.1588400002,"ADDRESS":"德南路２５１巷２９弄３６號","OBJECTID":458},"geometry":{"x":173829.49465200212,"y":2538537.1588430014}},{"attributes":{"ID":459,"DIS_CODE":0,"TOWNNAME":"仁德區","LI":"後壁里","LIN":"12鄰","STREET":"德南路","SECT":" ","MAREA":" ","LANE":"２５１巷","ALLEY":"２９弄","HOUSE_NO":"３８號","E_COORD97":173832.67549600001,"N_COORD97":2538541.1805099999,"ADDRESS":"德南路２５１巷２９弄３８號","OBJECTID":459},"geometry":{"x":173832.67549599987,"y":2538541.1805079989}},{"attributes":{"ID":460,"DIS_CODE":0,"TOWNNAME":"仁德區","LI":"後壁里","LIN":"12鄰","STREET":"德南路","SECT":" ","MAREA":" ","LANE":"２５１巷","ALLEY":"２９弄","HOUSE_NO":"４０號","E_COORD97":173835.64428499999,"N_COORD97":2538545.4138400001,"ADDRESS":"德南路２５１巷２９弄４０號","OBJECTID":460},"geometry":{"x":173835.64428499993,"y":2538545.4138390012}},{"attributes":{"ID":461,"DIS_CODE":0,"TOWNNAME":"仁德區","LI":"後壁里","LIN":"12鄰","STREET":"德南路","SECT":" ","MAREA":" ","LANE":"２５１巷","ALLEY":"２９弄","HOUSE_NO":"３１號","E_COORD97":173815.074823,"N_COORD97":2538538.8521799999,"ADDRESS":"德南路２５１巷２９弄３１號","OBJECTID":461},"geometry":{"x":173815.07482300047,"y":2538538.8521759994}},{"attributes":{"ID":462,"DIS_CODE":0,"TOWNNAME":"仁德區","LI":"後壁里","LIN":"12鄰","STREET":"德南路","SECT":" ","MAREA":" ","LANE":"２５１巷","ALLEY":"２９弄","HOUSE_NO":"３３號","E_COORD97":173819.10389299999,"N_COORD97":2538543.9321699999,"ADDRESS":"德南路２５１巷２９弄３３號","OBJECTID":462},"geometry":{"x":173819.10389300156,"y":2538543.9321730044}},{"attributes":{"ID":463,"DIS_CODE":0,"TOWNNAME":"仁德區","LI":"後壁里","LIN":"12鄰","STREET":"德南路","SECT":" ","MAREA":" ","LANE":"２５１巷","ALLEY":"２９弄","HOUSE_NO":"３５號","E_COORD97":173822.07268099999,"N_COORD97":2538548.1655000001,"ADDRESS":"德南路２５１巷２９弄３５號","OBJECTID":463},"geometry":{"x":173822.07268100232,"y":2538548.1655040011}},{"attributes":{"ID":464,"DIS_CODE":0,"TOWNNAME":"仁德區","LI":"後壁里","LIN":"12鄰","STREET":"德南路","SECT":" ","MAREA":" ","LANE":"２５１巷","ALLEY":"２９弄","HOUSE_NO":"３７號","E_COORD97":173825.67763799999,"N_COORD97":2538552.1871699998,"ADDRESS":"德南路２５１巷２９弄３７號","OBJECTID":464},"geometry":{"x":173825.67763799988,"y":2538552.1871680021}},{"attributes":{"ID":465,"DIS_CODE":0,"TOWNNAME":"仁德區","LI":"仁和里","LIN":"2鄰","STREET":"和愛街","SECT":" ","MAREA":" ","LANE":" ","ALLEY":" ","HOUSE_NO":"３號八樓之２","E_COORD97":170387.54999999999,"N_COORD97":2540119.5299999998,"ADDRESS":"和愛街３號八樓之２","OBJECTID":465},"geometry":{"x":170387.54999999981,"y":2540119.5299999993}},{"attributes":{"ID":466,"DIS_CODE":0,"TOWNNAME":"仁德區","LI":"仁和里","LIN":"2鄰","STREET":"和愛街","SECT":" ","MAREA":" ","LANE":" ","ALLEY":" ","HOUSE_NO":"３號八樓之３","E_COORD97":170387.54999999999,"N_COORD97":2540119.5299999998,"ADDRESS":"和愛街３號八樓之３","OBJECTID":466},"geometry":{"x":170387.54999999981,"y":2540119.5299999993}},{"attributes":{"ID":467,"DIS_CODE":0,"TOWNNAME":"仁德區","LI":"仁和里","LIN":"2鄰","STREET":"和愛街","SECT":" ","MAREA":" ","LANE":" ","ALLEY":" ","HOUSE_NO":"３號八樓之５","E_COORD97":170387.54999999999,"N_COORD97":2540119.5299999998,"ADDRESS":"和愛街３號八樓之５","OBJECTID":467},"geometry":{"x":170387.54999999981,"y":2540119.5299999993}},{"attributes":{"ID":468,"DIS_CODE":0,"TOWNNAME":"仁德區","LI":"仁和里","LIN":"2鄰","STREET":"和愛街","SECT":" ","MAREA":" ","LANE":" ","ALLEY":" ","HOUSE_NO":"３號九樓之１","E_COORD97":170387.54999999999,"N_COORD97":2540119.5299999998,"ADDRESS":"和愛街３號九樓之１","OBJECTID":468},"geometry":{"x":170387.54999999981,"y":2540119.5299999993}},{"attributes":{"ID":469,"DIS_CODE":0,"TOWNNAME":"仁德區","LI":"仁和里","LIN":"2鄰","STREET":"和愛街","SECT":" ","MAREA":" ","LANE":" ","ALLEY":" ","HOUSE_NO":"３號九樓之３","E_COORD97":170387.54999999999,"N_COORD97":2540119.5299999998,"ADDRESS":"和愛街３號九樓之３","OBJECTID":469},"geometry":{"x":170387.54999999981,"y":2540119.5299999993}},{"attributes":{"ID":470,"DIS_CODE":0,"TOWNNAME":"仁德區","LI":"仁和里","LIN":"2鄰","STREET":"和愛街","SECT":" ","MAREA":" ","LANE":" ","ALLEY":" ","HOUSE_NO":"３號九樓之５","E_COORD97":170387.54999999999,"N_COORD97":2540119.5299999998,"ADDRESS":"和愛街３號九樓之５","OBJECTID":470},"geometry":{"x":170387.54999999981,"y":2540119.5299999993}},{"attributes":{"ID":471,"DIS_CODE":0,"TOWNNAME":"仁德區","LI":"仁和里","LIN":"2鄰","STREET":"和愛街","SECT":" ","MAREA":" ","LANE":" ","ALLEY":" ","HOUSE_NO":"３號十一樓之１","E_COORD97":170387.54999999999,"N_COORD97":2540119.5299999998,"ADDRESS":"和愛街３號十一樓之１","OBJECTID":471},"geometry":{"x":170387.54999999981,"y":2540119.5299999993}},{"attributes":{"ID":472,"DIS_CODE":0,"TOWNNAME":"仁德區","LI":"仁和里","LIN":"2鄰","STREET":"和愛街","SECT":" ","MAREA":" ","LANE":" ","ALLEY":" ","HOUSE_NO":"３號九樓之２","E_COORD97":170387.54999999999,"N_COORD97":2540119.5299999998,"ADDRESS":"和愛街３號九樓之２","OBJECTID":472},"geometry":{"x":170387.54999999981,"y":2540119.5299999993}},{"attributes":{"ID":473,"DIS_CODE":0,"TOWNNAME":"仁德區","LI":"仁和里","LIN":"2鄰","STREET":"和愛街","SECT":" ","MAREA":" ","LANE":" ","ALLEY":" ","HOUSE_NO":"３號十樓之１","E_COORD97":170387.54999999999,"N_COORD97":2540119.5299999998,"ADDRESS":"和愛街３號十樓之１","OBJECTID":473},"geometry":{"x":170387.54999999981,"y":2540119.5299999993}},{"attributes":{"ID":474,"DIS_CODE":0,"TOWNNAME":"仁德區","LI":"仁和里","LIN":"2鄰","STREET":"和愛街","SECT":" ","MAREA":" ","LANE":" ","ALLEY":" ","HOUSE_NO":"３號十樓之２","E_COORD97":170387.54999999999,"N_COORD97":2540119.5299999998,"ADDRESS":"和愛街３號十樓之２","OBJECTID":474},"geometry":{"x":170387.54999999981,"y":2540119.5299999993}},{"attributes":{"ID":475,"DIS_CODE":0,"TOWNNAME":"仁德區","LI":"仁和里","LIN":"2鄰","STREET":"和愛街","SECT":" ","MAREA":" ","LANE":" ","ALLEY":" ","HOUSE_NO":"３號十樓之３","E_COORD97":170387.54999999999,"N_COORD97":2540119.5299999998,"ADDRESS":"和愛街３號十樓之３","OBJECTID":475},"geometry":{"x":170387.54999999981,"y":2540119.5299999993}},{"attributes":{"ID":476,"DIS_CODE":0,"TOWNNAME":"仁德區","LI":"仁和里","LIN":"2鄰","STREET":"和愛街","SECT":" ","MAREA":" ","LANE":" ","ALLEY":" ","HOUSE_NO":"３號十樓之５","E_COORD97":170387.54999999999,"N_COORD97":2540119.5299999998,"ADDRESS":"和愛街３號十樓之５","OBJECTID":476},"geometry":{"x":170387.54999999981,"y":2540119.5299999993}},{"attributes":{"ID":477,"DIS_CODE":0,"TOWNNAME":"仁德區","LI":"仁和里","LIN":"2鄰","STREET":"和愛街","SECT":" ","MAREA":" ","LANE":" ","ALLEY":" ","HOUSE_NO":"３號十一樓之２","E_COORD97":170387.54999999999,"N_COORD97":2540119.5299999998,"ADDRESS":"和愛街３號十一樓之２","OBJECTID":477},"geometry":{"x":170387.54999999981,"y":2540119.5299999993}},{"attributes":{"ID":478,"DIS_CODE":0,"TOWNNAME":"仁德區","LI":"仁愛里","LIN":"8鄰","STREET":" ","SECT":" ","MAREA":"仁愛","LANE":" ","ALLEY":" ","HOUSE_NO":"１４４號","E_COORD97":170297.40902799999,"N_COORD97":2539805.6800000002,"ADDRESS":"仁愛１４４號","OBJECTID":478},"geometry":{"x":170297.40902800113,"y":2539805.6800000016}},{"attributes":{"ID":479,"DIS_CODE":0,"TOWNNAME":"仁德區","LI":"仁愛里","LIN":"8鄰","STREET":" ","SECT":" ","MAREA":"仁愛","LANE":" ","ALLEY":" ","HOUSE_NO":"１４３號","E_COORD97":170301.11648,"N_COORD97":2539805.6800000002,"ADDRESS":"仁愛１４３號","OBJECTID":479},"geometry":{"x":170301.11648000125,"y":2539805.6800000016}},{"attributes":{"ID":480,"DIS_CODE":0,"TOWNNAME":"仁德區","LI":"仁愛里","LIN":"8鄰","STREET":" ","SECT":" ","MAREA":"仁愛","LANE":" ","ALLEY":" ","HOUSE_NO":"１４６號","E_COORD97":170291.371166,"N_COORD97":2539805.6800000002,"ADDRESS":"仁愛１４６號","OBJECTID":480},"geometry":{"x":170291.37116600107,"y":2539805.6800000016}},{"attributes":{"ID":481,"DIS_CODE":0,"TOWNNAME":"仁德區","LI":"仁愛里","LIN":"8鄰","STREET":" ","SECT":" ","MAREA":"仁愛","LANE":" ","ALLEY":" ","HOUSE_NO":"１４８號","E_COORD97":170285.43923300001,"N_COORD97":2539805.6800000002,"ADDRESS":"仁愛１４８號","OBJECTID":481},"geometry":{"x":170285.43923300039,"y":2539805.6800000016}},{"attributes":{"ID":482,"DIS_CODE":0,"TOWNNAME":"仁德區","LI":"仁愛里","LIN":"8鄰","STREET":" ","SECT":" ","MAREA":"仁愛","LANE":" ","ALLEY":" ","HOUSE_NO":"１４９號","E_COORD97":170282.47326599999,"N_COORD97":2539805.6800000002,"ADDRESS":"仁愛１４９號","OBJECTID":482},"geometry":{"x":170282.47326599993,"y":2539805.6800000016}},{"attributes":{"ID":483,"DIS_CODE":0,"TOWNNAME":"仁德區","LI":"仁愛里","LIN":"8鄰","STREET":" ","SECT":" ","MAREA":"仁愛","LANE":" ","ALLEY":" ","HOUSE_NO":"１５０號","E_COORD97":170279.29544399999,"N_COORD97":2539805.6800000002,"ADDRESS":"仁愛１５０號","OBJECTID":483},"geometry":{"x":170279.29544399958,"y":2539805.6800000016}},{"attributes":{"ID":484,"DIS_CODE":0,"TOWNNAME":"仁德區","LI":"仁愛里","LIN":"8鄰","STREET":" ","SECT":" ","MAREA":"仁愛","LANE":" ","ALLEY":" ","HOUSE_NO":"１５１號","E_COORD97":170276.22355,"N_COORD97":2539805.6800000002,"ADDRESS":"仁愛１５１號","OBJECTID":484},"geometry":{"x":170276.22355000116,"y":2539805.6800000016}},{"attributes":{"ID":485,"DIS_CODE":0,"TOWNNAME":"仁德區","LI":"仁愛里","LIN":"8鄰","STREET":" ","SECT":" ","MAREA":"仁愛","LANE":" ","ALLEY":" ","HOUSE_NO":"１５３號","E_COORD97":170270.079761,"N_COORD97":2539805.6800000002,"ADDRESS":"仁愛１５３號","OBJECTID":485},"geometry":{"x":170270.07976100035,"y":2539805.6800000016}},{"attributes":{"ID":486,"DIS_CODE":0,"TOWNNAME":"仁德區","LI":"仁愛里","LIN":"8鄰","STREET":" ","SECT":" ","MAREA":"仁愛","LANE":" ","ALLEY":" ","HOUSE_NO":"１５４號","E_COORD97":170265.31302900001,"N_COORD97":2539805.6800000002,"ADDRESS":"仁愛１５４號","OBJECTID":486},"geometry":{"x":170265.31302900054,"y":2539805.6800000016}},{"attributes":{"ID":487,"DIS_CODE":0,"TOWNNAME":"仁德區","LI":"仁愛里","LIN":"6鄰","STREET":" ","SECT":" ","MAREA":"仁愛","LANE":" ","ALLEY":" ","HOUSE_NO":"９２號","E_COORD97":170348.148247,"N_COORD97":2539805.8799999999,"ADDRESS":"仁愛９２號","OBJECTID":487},"geometry":{"x":170348.14824700076,"y":2539805.879999999}},{"attributes":{"ID":488,"DIS_CODE":0,"TOWNNAME":"仁德區","LI":"仁愛里","LIN":"6鄰","STREET":" ","SECT":" ","MAREA":"仁愛","LANE":" ","ALLEY":" ","HOUSE_NO":"９４號","E_COORD97":170337.97921799999,"N_COORD97":2539805.8799999999,"ADDRESS":"仁愛９４號","OBJECTID":488},"geometry":{"x":170337.97921799961,"y":2539805.879999999}},{"attributes":{"ID":489,"DIS_CODE":0,"TOWNNAME":"仁德區","LI":"仁愛里","LIN":"6鄰","STREET":" ","SECT":" ","MAREA":"仁愛","LANE":" ","ALLEY":" ","HOUSE_NO":"９６號","E_COORD97":170329.716881,"N_COORD97":2539805.8799999999,"ADDRESS":"仁愛９６號","OBJECTID":489},"geometry":{"x":170329.71688100044,"y":2539805.879999999}},{"attributes":{"ID":490,"DIS_CODE":0,"TOWNNAME":"仁德區","LI":"仁愛里","LIN":"6鄰","STREET":" ","SECT":" ","MAREA":"仁愛","LANE":" ","ALLEY":" ","HOUSE_NO":"９７號","E_COORD97":170325.05607600001,"N_COORD97":2539805.8799999999,"ADDRESS":"仁愛９７號","OBJECTID":490},"geometry":{"x":170325.05607600138,"y":2539805.879999999}},{"attributes":{"ID":491,"DIS_CODE":0,"TOWNNAME":"仁德區","LI":"仁愛里","LIN":"6鄰","STREET":" ","SECT":" ","MAREA":"仁愛","LANE":" ","ALLEY":" ","HOUSE_NO":"９８號","E_COORD97":170320.07748899999,"N_COORD97":2539805.8799999999,"ADDRESS":"仁愛９８號","OBJECTID":491},"geometry":{"x":170320.07748900075,"y":2539805.879999999}},{"attributes":{"ID":492,"DIS_CODE":0,"TOWNNAME":"仁德區","LI":"仁愛里","LIN":"7鄰","STREET":" ","SECT":" ","MAREA":"仁愛","LANE":" ","ALLEY":" ","HOUSE_NO":"１３１號","E_COORD97":170265.52488400001,"N_COORD97":2539779.5299999998,"ADDRESS":"仁愛１３１號","OBJECTID":492},"geometry":{"x":170265.52488400135,"y":2539779.5300000012}},{"attributes":{"ID":493,"DIS_CODE":0,"TOWNNAME":"仁德區","LI":"仁愛里","LIN":"7鄰","STREET":" ","SECT":" ","MAREA":"仁愛","LANE":" ","ALLEY":" ","HOUSE_NO":"１４２號","E_COORD97":170301.85797799999,"N_COORD97":2539779.5299999998,"ADDRESS":"仁愛１４２號","OBJECTID":493},"geometry":{"x":170301.85797800031,"y":2539779.5300000012}},{"attributes":{"ID":494,"DIS_CODE":0,"TOWNNAME":"仁德區","LI":"仁愛里","LIN":"7鄰","STREET":" ","SECT":" ","MAREA":"仁愛","LANE":" ","ALLEY":" ","HOUSE_NO":"１４１號","E_COORD97":170297.93866499999,"N_COORD97":2539779.5299999998,"ADDRESS":"仁愛１４１號","OBJECTID":494},"geometry":{"x":170297.93866499979,"y":2539779.5300000012}},{"attributes":{"ID":495,"DIS_CODE":0,"TOWNNAME":"仁德區","LI":"仁愛里","LIN":"7鄰","STREET":" ","SECT":" ","MAREA":"仁愛","LANE":" ","ALLEY":" ","HOUSE_NO":"１４０號","E_COORD97":170295.07862499999,"N_COORD97":2539779.5299999998,"ADDRESS":"仁愛１４０號","OBJECTID":495},"geometry":{"x":170295.07862500101,"y":2539779.5300000012}},{"attributes":{"ID":496,"DIS_CODE":0,"TOWNNAME":"仁德區","LI":"仁愛里","LIN":"7鄰","STREET":" ","SECT":" ","MAREA":"仁愛","LANE":" ","ALLEY":" ","HOUSE_NO":"１３９號","E_COORD97":170291.900803,"N_COORD97":2539779.5299999998,"ADDRESS":"仁愛１３９號","OBJECTID":496},"geometry":{"x":170291.90080299973,"y":2539779.5300000012}},{"attributes":{"ID":497,"DIS_CODE":0,"TOWNNAME":"仁德區","LI":"仁愛里","LIN":"7鄰","STREET":" ","SECT":" ","MAREA":"仁愛","LANE":" ","ALLEY":" ","HOUSE_NO":"１３８號","E_COORD97":170288.72298200001,"N_COORD97":2539779.5299999998,"ADDRESS":"仁愛１３８號","OBJECTID":497},"geometry":{"x":170288.72298200149,"y":2539779.5300000012}},{"attributes":{"ID":498,"DIS_CODE":0,"TOWNNAME":"仁德區","LI":"仁愛里","LIN":"7鄰","STREET":" ","SECT":" ","MAREA":"仁愛","LANE":" ","ALLEY":" ","HOUSE_NO":"１３４號","E_COORD97":170276.85911399999,"N_COORD97":2539779.5299999998,"ADDRESS":"仁愛１３４號","OBJECTID":498},"geometry":{"x":170276.85911400057,"y":2539779.5300000012}},{"attributes":{"ID":499,"DIS_CODE":0,"TOWNNAME":"仁德區","LI":"仁愛里","LIN":"6鄰","STREET":" ","SECT":" ","MAREA":"仁愛","LANE":" ","ALLEY":" ","HOUSE_NO":"１０７號","E_COORD97":170349.843085,"N_COORD97":2539779.5299999998,"ADDRESS":"仁愛１０７號","OBJECTID":499},"geometry":{"x":170349.84308500029,"y":2539779.5300000012}},{"attributes":{"ID":500,"DIS_CODE":0,"TOWNNAME":"仁德區","LI":"仁愛里","LIN":"6鄰","STREET":" ","SECT":" ","MAREA":"仁愛","LANE":" ","ALLEY":" ","HOUSE_NO":"１０６號","E_COORD97":170344.01707900001,"N_COORD97":2539779.5299999998,"ADDRESS":"仁愛１０６號","OBJECTID":500},"geometry":{"x":170344.01707900036,"y":2539779.5300000012}},{"attributes":{"ID":501,"DIS_CODE":0,"TOWNNAME":"仁德區","LI":"仁愛里","LIN":"6鄰","STREET":" ","SECT":" ","MAREA":"仁愛","LANE":" ","ALLEY":" ","HOUSE_NO":"１０３號","E_COORD97":170330.352446,"N_COORD97":2539779.5299999998,"ADDRESS":"仁愛１０３號","OBJECTID":501},"geometry":{"x":170330.35244600195,"y":2539779.5300000012}},{"attributes":{"ID":502,"DIS_CODE":0,"TOWNNAME":"仁德區","LI":"仁愛里","LIN":"6鄰","STREET":" ","SECT":" ","MAREA":"仁愛","LANE":" ","ALLEY":" ","HOUSE_NO":"１００之１號","E_COORD97":170311.92108,"N_COORD97":2539779.5299999998,"ADDRESS":"仁愛１００之１號","OBJECTID":502},"geometry":{"x":170311.92107999977,"y":2539779.5300000012}},{"attributes":{"ID":503,"DIS_CODE":0,"TOWNNAME":"仁德區","LI":"仁愛里","LIN":"6鄰","STREET":" ","SECT":" ","MAREA":"仁愛","LANE":" ","ALLEY":" ","HOUSE_NO":"１１８號","E_COORD97":170313.40406,"N_COORD97":2539769.5099999998,"ADDRESS":"仁愛１１８號","OBJECTID":503},"geometry":{"x":170313.40406000055,"y":2539769.5100000016}},{"attributes":{"ID":504,"DIS_CODE":0,"TOWNNAME":"仁德區","LI":"仁愛里","LIN":"7鄰","STREET":" ","SECT":" ","MAREA":"仁愛","LANE":" ","ALLEY":" ","HOUSE_NO":"１３０號","E_COORD97":170265.78970200001,"N_COORD97":2539769.5099999998,"ADDRESS":"仁愛１３０號","OBJECTID":504},"geometry":{"x":170265.78970200103,"y":2539769.5100000016}},{"attributes":{"ID":505,"DIS_CODE":0,"TOWNNAME":"仁德區","LI":"仁愛里","LIN":"7鄰","STREET":" ","SECT":" ","MAREA":"仁愛","LANE":" ","ALLEY":" ","HOUSE_NO":"１２８號","E_COORD97":170273.681293,"N_COORD97":2539769.5099999998,"ADDRESS":"仁愛１２８號","OBJECTID":505},"geometry":{"x":170273.68129299954,"y":2539769.5100000016}},{"attributes":{"ID":506,"DIS_CODE":0,"TOWNNAME":"仁德區","LI":"仁愛里","LIN":"7鄰","STREET":" ","SECT":" ","MAREA":"仁愛","LANE":" ","ALLEY":" ","HOUSE_NO":"１２６號","E_COORD97":170279.45433499999,"N_COORD97":2539769.5099999998,"ADDRESS":"仁愛１２６號","OBJECTID":506},"geometry":{"x":170279.4543350013,"y":2539769.5100000016}},{"attributes":{"ID":507,"DIS_CODE":0,"TOWNNAME":"仁德區","LI":"仁愛里","LIN":"6鄰","STREET":" ","SECT":" ","MAREA":"仁愛","LANE":" ","ALLEY":" ","HOUSE_NO":"１１５號","E_COORD97":170324.57940300001,"N_COORD97":2539769.5099999998,"ADDRESS":"仁愛１１５號","OBJECTID":507},"geometry":{"x":170324.57940300088,"y":2539769.5100000016}},{"attributes":{"ID":508,"DIS_CODE":0,"TOWNNAME":"仁德區","LI":"仁愛里","LIN":"6鄰","STREET":" ","SECT":" ","MAREA":"仁愛","LANE":" ","ALLEY":" ","HOUSE_NO":"１１６號","E_COORD97":170321.40158100001,"N_COORD97":2539769.5099999998,"ADDRESS":"仁愛１１６號","OBJECTID":508},"geometry":{"x":170321.40158100054,"y":2539769.5100000016}},{"attributes":{"ID":509,"DIS_CODE":0,"TOWNNAME":"仁德區","LI":"仁愛里","LIN":"7鄰","STREET":" ","SECT":" ","MAREA":"仁愛","LANE":" ","ALLEY":" ","HOUSE_NO":"１２１號","E_COORD97":170294.70787899999,"N_COORD97":2539769.5099999998,"ADDRESS":"仁愛１２１號","OBJECTID":509},"geometry":{"x":170294.70787900127,"y":2539769.5100000016}},{"attributes":{"ID":510,"DIS_CODE":0,"TOWNNAME":"仁德區","LI":"仁愛里","LIN":"15鄰","STREET":" ","SECT":" ","MAREA":"仁愛","LANE":" ","ALLEY":" ","HOUSE_NO":"３１１號","E_COORD97":170211.44895200001,"N_COORD97":2539933.1200000001,"ADDRESS":"仁愛３１１號","OBJECTID":510},"geometry":{"x":170211.44895199966,"y":2539933.1200000029}},{"attributes":{"ID":511,"DIS_CODE":0,"TOWNNAME":"仁德區","LI":"仁愛里","LIN":"15鄰","STREET":" ","SECT":" ","MAREA":"仁愛","LANE":" ","ALLEY":" ","HOUSE_NO":"３１４號","E_COORD97":170201.01510399999,"N_COORD97":2539933.1200000001,"ADDRESS":"仁愛３１４號","OBJECTID":511},"geometry":{"x":170201.01510400139,"y":2539933.1200000029}},{"attributes":{"ID":512,"DIS_CODE":0,"TOWNNAME":"仁德區","LI":"仁愛里","LIN":"15鄰","STREET":" ","SECT":" ","MAREA":"仁愛","LANE":" ","ALLEY":" ","HOUSE_NO":"３１３號","E_COORD97":170205.56998199999,"N_COORD97":2539933.1200000001,"ADDRESS":"仁愛３１３號","OBJECTID":512},"geometry":{"x":170205.56998200063,"y":2539933.1200000029}},{"attributes":{"ID":513,"DIS_CODE":0,"TOWNNAME":"仁德區","LI":"仁愛里","LIN":"15鄰","STREET":" ","SECT":" ","MAREA":"仁愛","LANE":" ","ALLEY":" ","HOUSE_NO":"３１２號","E_COORD97":170208.535948,"N_COORD97":2539933.1200000001,"ADDRESS":"仁愛３１２號","OBJECTID":513},"geometry":{"x":170208.53594800085,"y":2539933.1200000029}},{"attributes":{"ID":514,"DIS_CODE":0,"TOWNNAME":"仁德區","LI":"仁愛里","LIN":"15鄰","STREET":" ","SECT":" ","MAREA":"仁愛","LANE":" ","ALLEY":" ","HOUSE_NO":"３０２號","E_COORD97":170241.42640299999,"N_COORD97":2539933.1200000001,"ADDRESS":"仁愛３０２號","OBJECTID":514},"geometry":{"x":170241.42640300002,"y":2539933.1200000029}},{"attributes":{"ID":515,"DIS_CODE":0,"TOWNNAME":"仁德區","LI":"仁愛里","LIN":"15鄰","STREET":" ","SECT":" ","MAREA":"仁愛","LANE":" ","ALLEY":" ","HOUSE_NO":"３０３號","E_COORD97":170236.765598,"N_COORD97":2539933.1200000001,"ADDRESS":"仁愛３０３號","OBJECTID":515},"geometry":{"x":170236.76559800003,"y":2539933.1200000029}},{"attributes":{"ID":516,"DIS_CODE":0,"TOWNNAME":"仁德區","LI":"仁愛里","LIN":"15鄰","STREET":" ","SECT":" ","MAREA":"仁愛","LANE":" ","ALLEY":" ","HOUSE_NO":"３０４號","E_COORD97":170232.952212,"N_COORD97":2539933.1200000001,"ADDRESS":"仁愛３０４號","OBJECTID":516},"geometry":{"x":170232.95221200027,"y":2539933.1200000029}},{"attributes":{"ID":517,"DIS_CODE":0,"TOWNNAME":"仁德區","LI":"仁愛里","LIN":"15鄰","STREET":" ","SECT":" ","MAREA":"仁愛","LANE":" ","ALLEY":" ","HOUSE_NO":"３０５號","E_COORD97":170229.93328100001,"N_COORD97":2539933.1200000001,"ADDRESS":"仁愛３０５號","OBJECTID":517},"geometry":{"x":170229.93328100163,"y":2539933.1200000029}},{"attributes":{"ID":518,"DIS_CODE":0,"TOWNNAME":"仁德區","LI":"仁愛里","LIN":"15鄰","STREET":" ","SECT":" ","MAREA":"仁愛","LANE":" ","ALLEY":" ","HOUSE_NO":"３０８號","E_COORD97":170220.92945299999,"N_COORD97":2539933.1200000001,"ADDRESS":"仁愛３０８號","OBJECTID":518},"geometry":{"x":170220.92945300043,"y":2539933.1200000029}},{"attributes":{"ID":519,"DIS_CODE":0,"TOWNNAME":"仁德區","LI":"仁愛里","LIN":"15鄰","STREET":" ","SECT":" ","MAREA":"仁愛","LANE":" ","ALLEY":" ","HOUSE_NO":"３０９號","E_COORD97":170217.857559,"N_COORD97":2539933.1200000001,"ADDRESS":"仁愛３０９號","OBJECTID":519},"geometry":{"x":170217.85755900014,"y":2539933.1200000029}},{"attributes":{"ID":520,"DIS_CODE":0,"TOWNNAME":"仁德區","LI":"仁愛里","LIN":"15鄰","STREET":" ","SECT":" ","MAREA":"仁愛","LANE":" ","ALLEY":" ","HOUSE_NO":"３１０號","E_COORD97":170214.732701,"N_COORD97":2539933.1200000001,"ADDRESS":"仁愛３１０號","OBJECTID":520},"geometry":{"x":170214.73270100076,"y":2539933.1200000029}},{"attributes":{"ID":521,"DIS_CODE":0,"TOWNNAME":"仁德區","LI":"仁愛里","LIN":"16鄰","STREET":" ","SECT":" ","MAREA":"仁愛","LANE":" ","ALLEY":" ","HOUSE_NO":"３１５號","E_COORD97":170200.53842999999,"N_COORD97":2539958.02,"ADDRESS":"仁愛３１５號","OBJECTID":521},"geometry":{"x":170200.53842999972,"y":2539958.0199999996}},{"attributes":{"ID":522,"DIS_CODE":0,"TOWNNAME":"善化區","LI":"牛庄里","LIN":"2鄰","STREET":" ","SECT":" ","MAREA":"牛庄","LANE":" ","ALLEY":" ","HOUSE_NO":"４７之５號","E_COORD97":180277.80609,"N_COORD97":2559918.6060500001,"ADDRESS":"牛庄４７之５號","OBJECTID":522},"geometry":{"x":180277.80609000009,"y":2559918.6060500015}},{"attributes":{"ID":523,"DIS_CODE":0,"TOWNNAME":"善化區","LI":"牛庄里","LIN":"2鄰","STREET":" ","SECT":" ","MAREA":"牛庄","LANE":" ","ALLEY":" ","HOUSE_NO":"４７之６號","E_COORD97":180282.256161,"N_COORD97":2559930.2477099998,"ADDRESS":"牛庄４７之６號","OBJECTID":523},"geometry":{"x":180282.25616099872,"y":2559930.2477109991}},{"attributes":{"ID":524,"DIS_CODE":0,"TOWNNAME":"善化區","LI":"牛庄里","LIN":"2鄰","STREET":" ","SECT":" ","MAREA":"牛庄","LANE":" ","ALLEY":" ","HOUSE_NO":"４７之７號","E_COORD97":180282.679978,"N_COORD97":2559937.8677099999,"ADDRESS":"牛庄４７之７號","OBJECTID":524},"geometry":{"x":180282.67997800186,"y":2559937.8677060045}},{"attributes":{"ID":525,"DIS_CODE":0,"TOWNNAME":"善化區","LI":"牛庄里","LIN":"2鄰","STREET":" ","SECT":" ","MAREA":"牛庄","LANE":" ","ALLEY":" ","HOUSE_NO":"４７之８號","E_COORD97":180283.52760999999,"N_COORD97":2559943.3710400001,"ADDRESS":"牛庄４７之８號","OBJECTID":525},"geometry":{"x":180283.52761000115,"y":2559943.3710370008}},{"attributes":{"ID":526,"DIS_CODE":0,"TOWNNAME":"善化區","LI":"牛庄里","LIN":"2鄰","STREET":" ","SECT":" ","MAREA":"牛庄","LANE":" ","ALLEY":" ","HOUSE_NO":"４７之９號","E_COORD97":180286.070508,"N_COORD97":2559948.0277,"ADDRESS":"牛庄４７之９號","OBJECTID":526},"geometry":{"x":180286.07050800044,"y":2559948.0277010016}},{"attributes":{"ID":527,"DIS_CODE":0,"TOWNNAME":"善化區","LI":"牛庄里","LIN":"2鄰","STREET":" ","SECT":" ","MAREA":"牛庄","LANE":" ","ALLEY":" ","HOUSE_NO":"４７之１０號","E_COORD97":180288.61340599999,"N_COORD97":2559953.3193600001,"ADDRESS":"牛庄４７之１０號","OBJECTID":527},"geometry":{"x":180288.61340599973,"y":2559953.3193650022}},{"attributes":{"ID":528,"DIS_CODE":0,"TOWNNAME":"仁德區","LI":"保安里","LIN":"19鄰","STREET":"文賢路","SECT":"二段","MAREA":" ","LANE":" ","ALLEY":" ","HOUSE_NO":"１０６號","E_COORD97":172166.61279499999,"N_COORD97":2535456.2031700001,"ADDRESS":"文賢路二段１０６號","OBJECTID":528},"geometry":{"x":172166.61279499996,"y":2535456.203168001}},{"attributes":{"ID":529,"DIS_CODE":0,"TOWNNAME":"仁德區","LI":"保安里","LIN":"19鄰","STREET":"文賢路","SECT":"二段","MAREA":" ","LANE":" ","ALLEY":" ","HOUSE_NO":"１０６之１號","E_COORD97":172143.735579,"N_COORD97":2535427.2048499999,"ADDRESS":"文賢路二段１０６之１號","OBJECTID":529},"geometry":{"x":172143.73557899985,"y":2535427.2048499994}},{"attributes":{"ID":530,"DIS_CODE":0,"TOWNNAME":"東區","LI":"德高里","LIN":"11鄰","STREET":"崇善路","SECT":" ","MAREA":" ","LANE":"９１３巷","ALLEY":" ","HOUSE_NO":"３２號之６","E_COORD97":171451.87203,"N_COORD97":2540790.0001599998,"ADDRESS":"崇善路９１３巷３２號之６","OBJECTID":530},"geometry":{"x":171451.87203000207,"y":2540790.0001599994}},{"attributes":{"ID":531,"DIS_CODE":0,"TOWNNAME":"仁德區","LI":"保安里","LIN":"19鄰","STREET":"文賢路","SECT":"二段","MAREA":" ","LANE":" ","ALLEY":" ","HOUSE_NO":"５５號","E_COORD97":171957.116802,"N_COORD97":2535661.3080600002,"ADDRESS":"文賢路二段５５號","OBJECTID":531},"geometry":{"x":171957.11680200137,"y":2535661.308056999}},{"attributes":{"ID":532,"DIS_CODE":0,"TOWNNAME":"仁德區","LI":"保安里","LIN":"19鄰","STREET":"中正路","SECT":"一段","MAREA":" ","LANE":" ","ALLEY":" ","HOUSE_NO":"３２６號","E_COORD97":171867.30254500001,"N_COORD97":2535996.3762099999,"ADDRESS":"中正路一段３２６號","OBJECTID":532},"geometry":{"x":171867.30254499987,"y":2535996.376209002}},{"attributes":{"ID":533,"DIS_CODE":0,"TOWNNAME":"安南區","LI":"顯宮里","LIN":"8鄰","STREET":"媽祖宮五街","SECT":" ","MAREA":" ","LANE":" ","ALLEY":" ","HOUSE_NO":"１７１號","E_COORD97":160323.44588000001,"N_COORD97":2548937.4002100001,"ADDRESS":"媽祖宮五街１７１號","OBJECTID":533},"geometry":{"x":160323.44588000048,"y":2548937.4002090022}},{"attributes":{"ID":534,"DIS_CODE":0,"TOWNNAME":"安南區","LI":"顯宮里","LIN":"8鄰","STREET":"媽祖宮五街","SECT":" ","MAREA":" ","LANE":" ","ALLEY":" ","HOUSE_NO":"１６５號","E_COORD97":160321.75172100001,"N_COORD97":2548933.1668799999,"ADDRESS":"媽祖宮五街１６５號","OBJECTID":534},"geometry":{"x":160321.75172100123,"y":2548933.1668779999}},{"attributes":{"ID":535,"DIS_CODE":0,"TOWNNAME":"安南區","LI":"顯宮里","LIN":"8鄰","STREET":"媽祖宮五街","SECT":" ","MAREA":" ","LANE":" ","ALLEY":" ","HOUSE_NO":"１６３號","E_COORD97":160320.48110100001,"N_COORD97":2548928.9335500002,"ADDRESS":"媽祖宮五街１６３號","OBJECTID":535},"geometry":{"x":160320.48110100068,"y":2548928.9335470013}},{"attributes":{"ID":536,"DIS_CODE":0,"TOWNNAME":"安南區","LI":"顯宮里","LIN":"9鄰","STREET":"媽祖宮二街","SECT":" ","MAREA":" ","LANE":" ","ALLEY":" ","HOUSE_NO":"１７０號","E_COORD97":160352.24658100001,"N_COORD97":2548761.9286400001,"ADDRESS":"媽祖宮二街１７０號","OBJECTID":536},"geometry":{"x":160352.24658100121,"y":2548761.9286369998}},{"attributes":{"ID":537,"DIS_CODE":0,"TOWNNAME":"安南區","LI":"顯宮里","LIN":"9鄰","STREET":"媽祖宮二街","SECT":" ","MAREA":" ","LANE":"１６８巷","ALLEY":" ","HOUSE_NO":"１６號","E_COORD97":160349.49357200001,"N_COORD97":2548814.2102800002,"ADDRESS":"媽祖宮二街１６８巷１６號","OBJECTID":537},"geometry":{"x":160349.49357200041,"y":2548814.2102750018}},{"attributes":{"ID":538,"DIS_CODE":0,"TOWNNAME":"安南區","LI":"顯宮里","LIN":"9鄰","STREET":"媽祖宮二街","SECT":" ","MAREA":" ","LANE":"１６８巷","ALLEY":" ","HOUSE_NO":"１８號","E_COORD97":160352.88188999999,"N_COORD97":2548819.2902700002,"ADDRESS":"媽祖宮二街１６８巷１８號","OBJECTID":538},"geometry":{"x":160352.88189000078,"y":2548819.2902729996}},{"attributes":{"ID":539,"DIS_CODE":0,"TOWNNAME":"安南區","LI":"顯宮里","LIN":"9鄰","STREET":"媽祖宮二街","SECT":" ","MAREA":" ","LANE":"１６８巷","ALLEY":" ","HOUSE_NO":"１號","E_COORD97":160346.105255,"N_COORD97":2548786.0586199998,"ADDRESS":"媽祖宮二街１６８巷１號","OBJECTID":539},"geometry":{"x":160346.10525500122,"y":2548786.0586239994}},{"attributes":{"ID":540,"DIS_CODE":0,"TOWNNAME":"新營區","LI":"土庫里","LIN":"3鄰","STREET":" ","SECT":" ","MAREA":"土庫","LANE":" ","ALLEY":" ","HOUSE_NO":"２７號之２","E_COORD97":183224.20000000001,"N_COORD97":2579891.2599999998,"ADDRESS":"土庫２７號之２","OBJECTID":540},"geometry":{"x":183224.20000000019,"y":2579891.2599999998}},{"attributes":{"ID":541,"DIS_CODE":0,"TOWNNAME":"仁德區","LI":"仁德里","LIN":"39鄰","STREET":"文宏路","SECT":" ","MAREA":" ","LANE":" ","ALLEY":" ","HOUSE_NO":"１９８號","E_COORD97":172435.40069000001,"N_COORD97":2541871.2945400001,"ADDRESS":"文宏路１９８號","OBJECTID":541},"geometry":{"x":172435.40068999957,"y":2541871.2945399992}},{"attributes":{"ID":542,"DIS_CODE":0,"TOWNNAME":"安南區","LI":"顯宮里","LIN":"8鄰","STREET":"媽祖宮二街","SECT":" ","MAREA":" ","LANE":"１２６巷","ALLEY":" ","HOUSE_NO":"２０１號","E_COORD97":160490.53229999999,"N_COORD97":2549128.1117699998,"ADDRESS":"媽祖宮二街１２６巷２０１號","OBJECTID":542},"geometry":{"x":160490.53230000101,"y":2549128.1117700003}},{"attributes":{"ID":543,"DIS_CODE":0,"TOWNNAME":"仁德區","LI":"仁德里","LIN":"39鄰","STREET":"文宏路","SECT":" ","MAREA":" ","LANE":" ","ALLEY":" ","HOUSE_NO":"２００號","E_COORD97":172436.03616799999,"N_COORD97":2541875.5278699999,"ADDRESS":"文宏路２００號","OBJECTID":543},"geometry":{"x":172436.03616800066,"y":2541875.5278720018}},{"attributes":{"ID":544,"DIS_CODE":0,"TOWNNAME":"仁德區","LI":"仁德里","LIN":"39鄰","STREET":"文宏路","SECT":" ","MAREA":" ","LANE":" ","ALLEY":" ","HOUSE_NO":"２０２號","E_COORD97":172435.82434200001,"N_COORD97":2541880.81953,"ADDRESS":"文宏路２０２號","OBJECTID":544},"geometry":{"x":172435.8243420003,"y":2541880.8195350021}},{"attributes":{"ID":545,"DIS_CODE":0,"TOWNNAME":"仁德區","LI":"仁德里","LIN":"39鄰","STREET":"文宏路","SECT":" ","MAREA":" ","LANE":" ","ALLEY":" ","HOUSE_NO":"２０６號","E_COORD97":172436.67164700001,"N_COORD97":2541883.7828700002,"ADDRESS":"文宏路２０６號","OBJECTID":545},"geometry":{"x":172436.67164700106,"y":2541883.7828670014}},{"attributes":{"ID":546,"DIS_CODE":0,"TOWNNAME":"安南區","LI":"顯宮里","LIN":"8鄰","STREET":"媽祖宮五街","SECT":" ","MAREA":" ","LANE":" ","ALLEY":" ","HOUSE_NO":"１９２號","E_COORD97":160372.68237200001,"N_COORD97":2549015.2935000001,"ADDRESS":"媽祖宮五街１９２號","OBJECTID":546},"geometry":{"x":160372.682372001,"y":2549015.2935000006}},{"attributes":{"ID":547,"DIS_CODE":0,"TOWNNAME":"仁德區","LI":"仁德里","LIN":"39鄰","STREET":"文宏路","SECT":" ","MAREA":" ","LANE":" ","ALLEY":" ","HOUSE_NO":"２０８號","E_COORD97":172437.09529900001,"N_COORD97":2541888.22786,"ADDRESS":"文宏路２０８號","OBJECTID":547},"geometry":{"x":172437.09529900178,"y":2541888.2278649993}},{"attributes":{"ID":548,"DIS_CODE":0,"TOWNNAME":"仁德區","LI":"仁德里","LIN":"39鄰","STREET":"文宏路","SECT":" ","MAREA":" ","LANE":" ","ALLEY":" ","HOUSE_NO":"２１０號","E_COORD97":172437.51895100001,"N_COORD97":2541893.0962,"ADDRESS":"文宏路２１０號","OBJECTID":548},"geometry":{"x":172437.51895099971,"y":2541893.096195003}},{"attributes":{"ID":549,"DIS_CODE":0,"TOWNNAME":"仁德區","LI":"仁德里","LIN":"39鄰","STREET":"文宏路","SECT":" ","MAREA":" ","LANE":" ","ALLEY":" ","HOUSE_NO":"２１２號","E_COORD97":172438.15442899999,"N_COORD97":2541896.69453,"ADDRESS":"文宏路２１２號","OBJECTID":549},"geometry":{"x":172438.1544290008,"y":2541896.6945270002}},{"attributes":{"ID":550,"DIS_CODE":0,"TOWNNAME":"仁德區","LI":"仁德里","LIN":"39鄰","STREET":"文宏路","SECT":" ","MAREA":" ","LANE":" ","ALLEY":" ","HOUSE_NO":"２１６號","E_COORD97":172439.00173399999,"N_COORD97":2541901.5628599999,"ADDRESS":"文宏路２１６號","OBJECTID":550},"geometry":{"x":172439.0017339997,"y":2541901.562857002}},{"attributes":{"ID":551,"DIS_CODE":0,"TOWNNAME":"仁德區","LI":"仁德里","LIN":"39鄰","STREET":"文宏路","SECT":" ","MAREA":" ","LANE":" ","ALLEY":" ","HOUSE_NO":"２１８號","E_COORD97":172451.92312399999,"N_COORD97":2541886.7461999999,"ADDRESS":"文宏路２１８號","OBJECTID":551},"geometry":{"x":172451.92312400136,"y":2541886.7461990025}},{"attributes":{"ID":552,"DIS_CODE":0,"TOWNNAME":"仁德區","LI":"仁德里","LIN":"39鄰","STREET":"文宏路","SECT":" ","MAREA":" ","LANE":" ","ALLEY":" ","HOUSE_NO":"２２０號","E_COORD97":172456.58329800001,"N_COORD97":2541886.1112000002,"ADDRESS":"文宏路２２０號","OBJECTID":552},"geometry":{"x":172456.58329800144,"y":2541886.111198999}},{"attributes":{"ID":553,"DIS_CODE":0,"TOWNNAME":"仁德區","LI":"仁愛里","LIN":"16鄰","STREET":" ","SECT":" ","MAREA":"仁愛","LANE":" ","ALLEY":" ","HOUSE_NO":"３２７號","E_COORD97":170241.15393900001,"N_COORD97":2539958.02,"ADDRESS":"仁愛３２７號","OBJECTID":553},"geometry":{"x":170241.15393900126,"y":2539958.0199999996}},{"attributes":{"ID":554,"DIS_CODE":0,"TOWNNAME":"仁德區","LI":"仁愛里","LIN":"16鄰","STREET":" ","SECT":" ","MAREA":"仁愛","LANE":" ","ALLEY":" ","HOUSE_NO":"３２６號","E_COORD97":170236.59906099999,"N_COORD97":2539958.02,"ADDRESS":"仁愛３２６號","OBJECTID":554},"geometry":{"x":170236.59906099923,"y":2539958.0199999996}},{"attributes":{"ID":555,"DIS_CODE":0,"TOWNNAME":"安南區","LI":"顯宮里","LIN":"9鄰","STREET":"媽祖宮二街","SECT":" ","MAREA":" ","LANE":" ","ALLEY":" ","HOUSE_NO":"１７８號","E_COORD97":160335.19910699999,"N_COORD97":2548754.5203100001,"ADDRESS":"媽祖宮二街１７８號","OBJECTID":555},"geometry":{"x":160335.19910699967,"y":2548754.520308001}},{"attributes":{"ID":556,"DIS_CODE":0,"TOWNNAME":"仁德區","LI":"仁愛里","LIN":"16鄰","STREET":" ","SECT":" ","MAREA":"仁愛","LANE":" ","ALLEY":" ","HOUSE_NO":"３２５號","E_COORD97":170232.52085599999,"N_COORD97":2539958.02,"ADDRESS":"仁愛３２５號","OBJECTID":556},"geometry":{"x":170232.52085600048,"y":2539958.0199999996}},{"attributes":{"ID":557,"DIS_CODE":0,"TOWNNAME":"仁德區","LI":"仁愛里","LIN":"16鄰","STREET":" ","SECT":" ","MAREA":"仁愛","LANE":" ","ALLEY":" ","HOUSE_NO":"３２４號","E_COORD97":170229.55489,"N_COORD97":2539958.02,"ADDRESS":"仁愛３２４號","OBJECTID":557},"geometry":{"x":170229.55489000026,"y":2539958.0199999996}},{"attributes":{"ID":558,"DIS_CODE":0,"TOWNNAME":"安南區","LI":"顯宮里","LIN":"9鄰","STREET":"媽祖宮二街","SECT":" ","MAREA":" ","LANE":" ","ALLEY":" ","HOUSE_NO":"１６６號","E_COORD97":160368.446975,"N_COORD97":2548777.3802999998,"ADDRESS":"媽祖宮二街１６６號","OBJECTID":558},"geometry":{"x":160368.44697499927,"y":2548777.3802950028}},{"attributes":{"ID":559,"DIS_CODE":0,"TOWNNAME":"安南區","LI":"顯宮里","LIN":"9鄰","STREET":"媽祖宮二街","SECT":" ","MAREA":" ","LANE":" ","ALLEY":" ","HOUSE_NO":"１５６號","E_COORD97":160388.98865099999,"N_COORD97":2548790.9269599998,"ADDRESS":"媽祖宮二街１５６號","OBJECTID":559},"geometry":{"x":160388.98865100089,"y":2548790.9269550014}},{"attributes":{"ID":560,"DIS_CODE":0,"TOWNNAME":"仁德區","LI":"仁愛里","LIN":"16鄰","STREET":" ","SECT":" ","MAREA":"仁愛","LANE":" ","ALLEY":" ","HOUSE_NO":"３２１號","E_COORD97":170220.55106200001,"N_COORD97":2539958.02,"ADDRESS":"仁愛３２１號","OBJECTID":560},"geometry":{"x":170220.55106200092,"y":2539958.0199999996}},{"attributes":{"ID":561,"DIS_CODE":0,"TOWNNAME":"安南區","LI":"顯宮里","LIN":"9鄰","STREET":"媽祖宮二街","SECT":" ","MAREA":" ","LANE":" ","ALLEY":" ","HOUSE_NO":"１８８號","E_COORD97":160329.05778100001,"N_COORD97":2548744.3603099999,"ADDRESS":"媽祖宮二街１８８號","OBJECTID":561},"geometry":{"x":160329.05778099969,"y":2548744.3603130002}},{"attributes":{"ID":562,"DIS_CODE":0,"TOWNNAME":"仁德區","LI":"仁愛里","LIN":"16鄰","STREET":" ","SECT":" ","MAREA":"仁愛","LANE":" ","ALLEY":" ","HOUSE_NO":"３２０號","E_COORD97":170217.26731200001,"N_COORD97":2539958.02,"ADDRESS":"仁愛３２０號","OBJECTID":562},"geometry":{"x":170217.26731200051,"y":2539958.0199999996}},{"attributes":{"ID":563,"DIS_CODE":0,"TOWNNAME":"安南區","LI":"顯宮里","LIN":"9鄰","STREET":"媽祖宮二街","SECT":" ","MAREA":" ","LANE":" ","ALLEY":" ","HOUSE_NO":"１９２號","E_COORD97":160300.25708000001,"N_COORD97":2548726.15699,"ADDRESS":"媽祖宮二街１９２號","OBJECTID":563},"geometry":{"x":160300.25707999989,"y":2548726.1569899991}},{"attributes":{"ID":564,"DIS_CODE":0,"TOWNNAME":"安南區","LI":"顯宮里","LIN":"9鄰","STREET":"媽祖宮二街","SECT":" ","MAREA":" ","LANE":" ","ALLEY":" ","HOUSE_NO":"２０２號","E_COORD97":160290.72743599999,"N_COORD97":2548739.4919799999,"ADDRESS":"媽祖宮二街２０２號","OBJECTID":564},"geometry":{"x":160290.72743599955,"y":2548739.4919820018}},{"attributes":{"ID":565,"DIS_CODE":0,"TOWNNAME":"安南區","LI":"顯宮里","LIN":"9鄰","STREET":"媽祖宮二街","SECT":" ","MAREA":" ","LANE":" ","ALLEY":" ","HOUSE_NO":"２０８號","E_COORD97":160273.78584699999,"N_COORD97":2548731.6603199998,"ADDRESS":"媽祖宮二街２０８號","OBJECTID":565},"geometry":{"x":160273.78584700078,"y":2548731.6603200007}},{"attributes":{"ID":566,"DIS_CODE":0,"TOWNNAME":"新營區","LI":"土庫里","LIN":"3鄰","STREET":" ","SECT":" ","MAREA":"土庫","LANE":" ","ALLEY":" ","HOUSE_NO":"２７號之１","E_COORD97":183227.67735400001,"N_COORD97":2579892.4770800001,"ADDRESS":"土庫２７號之１","OBJECTID":566},"geometry":{"x":183227.67735399958,"y":2579892.4770830013}},{"attributes":{"ID":567,"DIS_CODE":0,"TOWNNAME":"安南區","LI":"東和里","LIN":"7鄰","STREET":"長和路","SECT":"一段","MAREA":" ","LANE":"２１７巷","ALLEY":"２５弄","HOUSE_NO":"３１號之１","E_COORD97":171666.79000000001,"N_COORD97":2550416.3599999999,"ADDRESS":"長和路一段２１７巷２５弄３１號之１","OBJECTID":567},"geometry":{"x":171666.79000000097,"y":2550416.3600000013}},{"attributes":{"ID":568,"DIS_CODE":0,"TOWNNAME":"安南區","LI":"東和里","LIN":"7鄰","STREET":"長和路","SECT":"一段","MAREA":" ","LANE":"２１７巷","ALLEY":"２５弄","HOUSE_NO":"８５號","E_COORD97":171610.53521999999,"N_COORD97":2550349.4204799999,"ADDRESS":"長和路一段２１７巷２５弄８５號","OBJECTID":568},"geometry":{"x":171610.53522000089,"y":2550349.4204800036}},{"attributes":{"ID":569,"DIS_CODE":0,"TOWNNAME":"安南區","LI":"東和里","LIN":"7鄰","STREET":"長和路","SECT":"一段","MAREA":" ","LANE":"２２２巷","ALLEY":" ","HOUSE_NO":"４０號","E_COORD97":171873.76000000001,"N_COORD97":2550786.0299999998,"ADDRESS":"長和路一段２２２巷４０號","OBJECTID":569},"geometry":{"x":171873.76000000071,"y":2550786.0299999993}},{"attributes":{"ID":570,"DIS_CODE":0,"TOWNNAME":"安南區","LI":"東和里","LIN":"7鄰","STREET":"長和路","SECT":"一段","MAREA":" ","LANE":"２２２巷","ALLEY":" ","HOUSE_NO":"４６號","E_COORD97":171901.54000000001,"N_COORD97":2550781.27,"ADDRESS":"長和路一段２２２巷４６號","OBJECTID":570},"geometry":{"x":171901.54000000004,"y":2550781.2699999996}},{"attributes":{"ID":571,"DIS_CODE":0,"TOWNNAME":"安南區","LI":"東和里","LIN":"4鄰","STREET":"長和路","SECT":"一段","MAREA":" ","LANE":"８２３巷","ALLEY":" ","HOUSE_NO":"３２１號","E_COORD97":170778.67999999999,"N_COORD97":2550828.9500000002,"ADDRESS":"長和路一段８２３巷３２１號","OBJECTID":571},"geometry":{"x":170778.68000000063,"y":2550828.9500000011}},{"attributes":{"ID":572,"DIS_CODE":0,"TOWNNAME":"安南區","LI":"東和里","LIN":"4鄰","STREET":"長和路","SECT":"一段","MAREA":" ","LANE":"８２３巷","ALLEY":" ","HOUSE_NO":"３７０號","E_COORD97":170755.42000000001,"N_COORD97":2550819.54,"ADDRESS":"長和路一段８２３巷３７０號","OBJECTID":572},"geometry":{"x":170755.42000000086,"y":2550819.5399999991}},{"attributes":{"ID":573,"DIS_CODE":0,"TOWNNAME":"安南區","LI":"東和里","LIN":"4鄰","STREET":"長和路","SECT":"一段","MAREA":" ","LANE":"８２３巷","ALLEY":" ","HOUSE_NO":"３８０號","E_COORD97":170758.82000000001,"N_COORD97":2550801.3900000001,"ADDRESS":"長和路一段８２３巷３８０號","OBJECTID":573},"geometry":{"x":170758.8200000003,"y":2550801.3900000006}},{"attributes":{"ID":574,"DIS_CODE":0,"TOWNNAME":"安南區","LI":"東和里","LIN":"4鄰","STREET":"長和路","SECT":"一段","MAREA":" ","LANE":"８２３巷","ALLEY":" ","HOUSE_NO":"３８５號","E_COORD97":170803.67999999999,"N_COORD97":2550756,"ADDRESS":"長和路一段８２３巷３８５號","OBJECTID":574},"geometry":{"x":170803.68000000156,"y":2550756}},{"attributes":{"ID":575,"DIS_CODE":0,"TOWNNAME":"仁德區","LI":"仁德里","LIN":"39鄰","STREET":"文宏路","SECT":" ","MAREA":" ","LANE":" ","ALLEY":" ","HOUSE_NO":"２２２號","E_COORD97":172460.18434099999,"N_COORD97":2541885.68787,"ADDRESS":"文宏路２２２號","OBJECTID":575},"geometry":{"x":172460.18434100226,"y":2541885.6878660005}},{"attributes":{"ID":576,"DIS_CODE":0,"TOWNNAME":"仁德區","LI":"仁德里","LIN":"39鄰","STREET":"文宏路","SECT":" ","MAREA":" ","LANE":" ","ALLEY":" ","HOUSE_NO":"２２６號","E_COORD97":172463.785385,"N_COORD97":2541885.2645299998,"ADDRESS":"文宏路２２６號","OBJECTID":576},"geometry":{"x":172463.78538499959,"y":2541885.2645330019}},{"attributes":{"ID":577,"DIS_CODE":0,"TOWNNAME":"仁德區","LI":"仁德里","LIN":"39鄰","STREET":"文宏路","SECT":" ","MAREA":" ","LANE":" ","ALLEY":" ","HOUSE_NO":"２２８號","E_COORD97":172468.23373199999,"N_COORD97":2541884.62953,"ADDRESS":"文宏路２２８號","OBJECTID":577},"geometry":{"x":172468.23373199906,"y":2541884.6295330022}},{"attributes":{"ID":578,"DIS_CODE":0,"TOWNNAME":"安南區","LI":"東和里","LIN":"4鄰","STREET":"長和路","SECT":"一段","MAREA":" ","LANE":"８２３巷","ALLEY":" ","HOUSE_NO":"３９１號","E_COORD97":170811.06,"N_COORD97":2550724.2200000002,"ADDRESS":"長和路一段８２３巷３９１號","OBJECTID":578},"geometry":{"x":170811.05999999866,"y":2550724.2200000025}},{"attributes":{"ID":579,"DIS_CODE":0,"TOWNNAME":"安南區","LI":"東和里","LIN":"4鄰","STREET":"長和路","SECT":"一段","MAREA":" ","LANE":"８２３巷","ALLEY":" ","HOUSE_NO":"３９１號之４","E_COORD97":170825.82999999999,"N_COORD97":2550701.2999999998,"ADDRESS":"長和路一段８２３巷３９１號之４","OBJECTID":579},"geometry":{"x":170825.83000000101,"y":2550701.3000000007}},{"attributes":{"ID":580,"DIS_CODE":0,"TOWNNAME":"安南區","LI":"城西里","LIN":"1鄰","STREET":"城西街","SECT":"三段","MAREA":" ","LANE":"５０１巷","ALLEY":"４７３弄","HOUSE_NO":"３５０號","E_COORD97":158021.150498,"N_COORD97":2548844.5948800002,"ADDRESS":"城西街三段５０１巷４７３弄３５０號","OBJECTID":580},"geometry":{"x":158021.1504980009,"y":2548844.594878003}},{"attributes":{"ID":581,"DIS_CODE":0,"TOWNNAME":"安南區","LI":"東和里","LIN":"4鄰","STREET":"長和路","SECT":"一段","MAREA":" ","LANE":"８４５巷","ALLEY":"５６弄","HOUSE_NO":"１６號","E_COORD97":170730.25,"N_COORD97":2551235.9500000002,"ADDRESS":"長和路一段８４５巷５６弄１６號","OBJECTID":581},"geometry":{"x":170730.25,"y":2551235.9500000011}},{"attributes":{"ID":582,"DIS_CODE":0,"TOWNNAME":"安南區","LI":"東和里","LIN":"4鄰","STREET":"長和路","SECT":"一段","MAREA":" ","LANE":"８２３巷","ALLEY":" ","HOUSE_NO":"３９５號","E_COORD97":170815.27594699999,"N_COORD97":2550712.7133800001,"ADDRESS":"長和路一段８２３巷３９５號","OBJECTID":582},"geometry":{"x":170815.2759469999,"y":2550712.7133780029}},{"attributes":{"ID":583,"DIS_CODE":0,"TOWNNAME":"仁德區","LI":"仁愛里","LIN":"10鄰","STREET":" ","SECT":" ","MAREA":"仁愛","LANE":" ","ALLEY":" ","HOUSE_NO":"２０９號","E_COORD97":170296.44803,"N_COORD97":2539966.75,"ADDRESS":"仁愛２０９號","OBJECTID":583},"geometry":{"x":170296.44802999962,"y":2539966.75}},{"attributes":{"ID":584,"DIS_CODE":0,"TOWNNAME":"新營區","LI":"土庫里","LIN":"3鄰","STREET":" ","SECT":" ","MAREA":"土庫","LANE":" ","ALLEY":" ","HOUSE_NO":"２８號之４","E_COORD97":183197.007403,"N_COORD97":2579952.4514799998,"ADDRESS":"土庫２８號之４","OBJECTID":584},"geometry":{"x":183197.00740300119,"y":2579952.4514770005}},{"attributes":{"ID":585,"DIS_CODE":0,"TOWNNAME":"仁德區","LI":"仁愛里","LIN":"10鄰","STREET":" ","SECT":" ","MAREA":"仁愛","LANE":" ","ALLEY":" ","HOUSE_NO":"１９９號","E_COORD97":170330.50369000001,"N_COORD97":2539966.75,"ADDRESS":"仁愛１９９號","OBJECTID":585},"geometry":{"x":170330.50369000062,"y":2539966.75}},{"attributes":{"ID":586,"DIS_CODE":0,"TOWNNAME":"安南區","LI":"東和里","LIN":"6鄰","STREET":"長和路","SECT":"一段","MAREA":" ","LANE":"８２３巷","ALLEY":"３２弄","HOUSE_NO":"１２號","E_COORD97":170875.47,"N_COORD97":2551359.7599999998,"ADDRESS":"長和路一段８２３巷３２弄１２號","OBJECTID":586},"geometry":{"x":170875.47000000067,"y":2551359.7600000016}},{"attributes":{"ID":587,"DIS_CODE":0,"TOWNNAME":"安南區","LI":"城西里","LIN":"6鄰","STREET":"城西街","SECT":"三段","MAREA":" ","LANE":"５０１巷","ALLEY":"１３６弄","HOUSE_NO":"４２號","E_COORD97":157016.15220499999,"N_COORD97":2550556.9502300001,"ADDRESS":"城西街三段５０１巷１３６弄４２號","OBJECTID":587},"geometry":{"x":157016.15220500063,"y":2550556.9502290003}},{"attributes":{"ID":588,"DIS_CODE":0,"TOWNNAME":"安南區","LI":"東和里","LIN":"4鄰","STREET":"長和路","SECT":"一段","MAREA":" ","LANE":"８２３巷","ALLEY":"９８弄","HOUSE_NO":"１０號","E_COORD97":170808.91,"N_COORD97":2551163.3700000001,"ADDRESS":"長和路一段８２３巷９８弄１０號","OBJECTID":588},"geometry":{"x":170808.91000000015,"y":2551163.3700000029}},{"attributes":{"ID":589,"DIS_CODE":0,"TOWNNAME":"安南區","LI":"東和里","LIN":"4鄰","STREET":"長和路","SECT":"一段","MAREA":" ","LANE":"８２３巷","ALLEY":"９８弄","HOUSE_NO":"１６號","E_COORD97":170778.04999999999,"N_COORD97":2551157.4500000002,"ADDRESS":"長和路一段８２３巷９８弄１６號","OBJECTID":589},"geometry":{"x":170778.05000000075,"y":2551157.4500000011}},{"attributes":{"ID":590,"DIS_CODE":0,"TOWNNAME":"仁德區","LI":"仁愛里","LIN":"10鄰","STREET":" ","SECT":" ","MAREA":"仁愛","LANE":" ","ALLEY":" ","HOUSE_NO":"２００號","E_COORD97":170326.001777,"N_COORD97":2539966.75,"ADDRESS":"仁愛２００號","OBJECTID":590},"geometry":{"x":170326.00177699979,"y":2539966.75}},{"attributes":{"ID":591,"DIS_CODE":0,"TOWNNAME":"安南區","LI":"東和里","LIN":"4鄰","STREET":"長和路","SECT":"一段","MAREA":" ","LANE":"８２３巷","ALLEY":"９８弄","HOUSE_NO":"２２號","E_COORD97":170743.32000000001,"N_COORD97":2551152.3399999999,"ADDRESS":"長和路一段８２３巷９８弄２２號","OBJECTID":591},"geometry":{"x":170743.3200000003,"y":2551152.3400000017}},{"attributes":{"ID":592,"DIS_CODE":0,"TOWNNAME":"安南區","LI":"東和里","LIN":"4鄰","STREET":"長和路","SECT":"一段","MAREA":" ","LANE":"８２３巷","ALLEY":"９８弄","HOUSE_NO":"３５號","E_COORD97":170710.01999999999,"N_COORD97":2551122.7400000002,"ADDRESS":"長和路一段８２３巷９８弄３５號","OBJECTID":592},"geometry":{"x":170710.02000000048,"y":2551122.7400000021}},{"attributes":{"ID":593,"DIS_CODE":0,"TOWNNAME":"仁德區","LI":"仁愛里","LIN":"10鄰","STREET":" ","SECT":" ","MAREA":"仁愛","LANE":" ","ALLEY":" ","HOUSE_NO":"２０１號","E_COORD97":170322.876919,"N_COORD97":2539966.75,"ADDRESS":"仁愛２０１號","OBJECTID":593},"geometry":{"x":170322.87691900041,"y":2539966.75}},{"attributes":{"ID":594,"DIS_CODE":0,"TOWNNAME":"安南區","LI":"東和里","LIN":"4鄰","STREET":"長和路","SECT":"一段","MAREA":" ","LANE":"８２３巷","ALLEY":"９８弄","HOUSE_NO":"３６號","E_COORD97":170704.5,"N_COORD97":2551149.8900000001,"ADDRESS":"長和路一段８２３巷９８弄３６號","OBJECTID":594},"geometry":{"x":170704.5,"y":2551149.8900000025}},{"attributes":{"ID":595,"DIS_CODE":0,"TOWNNAME":"仁德區","LI":"仁愛里","LIN":"10鄰","STREET":" ","SECT":" ","MAREA":"仁愛","LANE":" ","ALLEY":" ","HOUSE_NO":"２０２號","E_COORD97":170320.12280700001,"N_COORD97":2539966.75,"ADDRESS":"仁愛２０２號","OBJECTID":595},"geometry":{"x":170320.12280700076,"y":2539966.75}},{"attributes":{"ID":596,"DIS_CODE":0,"TOWNNAME":"仁德區","LI":"仁愛里","LIN":"10鄰","STREET":" ","SECT":" ","MAREA":"仁愛","LANE":" ","ALLEY":" ","HOUSE_NO":"２０４號","E_COORD97":170314.50865500001,"N_COORD97":2539966.75,"ADDRESS":"仁愛２０４號","OBJECTID":596},"geometry":{"x":170314.50865500141,"y":2539966.75}},{"attributes":{"ID":597,"DIS_CODE":0,"TOWNNAME":"安南區","LI":"城西里","LIN":"6鄰","STREET":"城西街","SECT":"三段","MAREA":" ","LANE":"５０１巷","ALLEY":"１３６弄","HOUSE_NO":"３９號","E_COORD97":157029.71018600001,"N_COORD97":2550548.2719000001,"ADDRESS":"城西街三段５０１巷１３６弄３９號","OBJECTID":597},"geometry":{"x":157029.71018600091,"y":2550548.2719000038}},{"attributes":{"ID":598,"DIS_CODE":0,"TOWNNAME":"仁德區","LI":"仁愛里","LIN":"10鄰","STREET":" ","SECT":" ","MAREA":"仁愛","LANE":" ","ALLEY":" ","HOUSE_NO":"２０５號","E_COORD97":170311.59565199999,"N_COORD97":2539966.75,"ADDRESS":"仁愛２０５號","OBJECTID":598},"geometry":{"x":170311.59565200005,"y":2539966.75}},{"attributes":{"ID":599,"DIS_CODE":0,"TOWNNAME":"安南區","LI":"東和里","LIN":"4鄰","STREET":"長和路","SECT":"一段","MAREA":" ","LANE":"８４５巷","ALLEY":"５６弄","HOUSE_NO":"１０號","E_COORD97":170745.37,"N_COORD97":2551252.4900000002,"ADDRESS":"長和路一段８４５巷５６弄１０號","OBJECTID":599},"geometry":{"x":170745.37000000104,"y":2551252.4900000002}},{"attributes":{"ID":600,"DIS_CODE":0,"TOWNNAME":"仁德區","LI":"仁愛里","LIN":"10鄰","STREET":" ","SECT":" ","MAREA":"仁愛","LANE":" ","ALLEY":" ","HOUSE_NO":"２０６號","E_COORD97":170308.576722,"N_COORD97":2539966.75,"ADDRESS":"仁愛２０６號","OBJECTID":600},"geometry":{"x":170308.57672199979,"y":2539966.75}}]}