{"displayFieldName":"TOWNNAME","fieldAliases":{"ID":"ID","DIS_CODE":"DIS_CODE","TOWNNAME":"TOWNNAME","LI":"LI","LIN":"LIN","STREET":"STREET","SECT":"SECT","MAREA":"MAREA","LANE":"LANE","ALLEY":"ALLEY","HOUSE_NO":"HOUSE_NO","E_COORD97":"E_COORD97","N_COORD97":"N_COORD97","ADDRESS":"ADDRESS","OBJECTID":"OBJECTID"},"geometryType":"esriGeometryPoint","spatialReference":{"wkid":102443,"latestWkid":3826},"fields":[{"name":"ID","type":"esriFieldTypeDouble","alias":"ID"},{"name":"DIS_CODE","type":"esriFieldTypeInteger","alias":"DIS_CODE"},{"name":"TOWNNAME","type":"esriFieldTypeString","alias":"TOWNNAME","length":8},{"name":"LI","type":"esriFieldTypeString","alias":"LI","length":8},{"name":"LIN","type":"esriFieldTypeString","alias":"LIN","length":12},{"name":"STREET","type":"esriFieldTypeString","alias":"STREET","length":20},{"name":"SECT","type":"esriFieldTypeString","alias":"SECT","length":8},{"name":"MAREA","type":"esriFieldTypeString","alias":"MAREA","length":12},{"name":"LANE","type":"esriFieldTypeString","alias":"LANE","length":10},{"name":"ALLEY","type":"esriFieldTypeString","alias":"ALLEY","length":10},{"name":"HOUSE_NO","type":"esriFieldTypeString","alias":"HOUSE_NO","length":20},{"name":"E_COORD97","type":"esriFieldTypeDouble","alias":"E_COORD97"},{"name":"N_COORD97","type":"esriFieldTypeDouble","alias":"N_COORD97"},{"name":"ADDRESS","type":"esriFieldTypeString","alias":"ADDRESS","length":50},{"name":"OBJECTID","type":"esriFieldTypeOID","alias":"OBJECTID"}],"features":[{"attributes":{"ID":338210,"DIS_CODE":0,"TOWNNAME":"白河區","LI":"竹門里","LIN":"5鄰","STREET":" ","SECT":" ","MAREA":"竹子門","LANE":" ","ALLEY":" ","HOUSE_NO":"６８號","E_COORD97":193624.47,"N_COORD97":2586310.54,"ADDRESS":"竹子門６８號","OBJECTID":338201},"geometry":{"x":193624.47000000067,"y":2586310.5399999991}},{"attributes":{"ID":338211,"DIS_CODE":0,"TOWNNAME":"南區","LI":"鯤鯓里","LIN":"1鄰","STREET":"鯤鯓路","SECT":" ","MAREA":" ","LANE":"１０１巷","ALLEY":" ","HOUSE_NO":"１３號","E_COORD97":165126.20000000001,"N_COORD97":2539946.6899999999,"ADDRESS":"鯤鯓路１０１巷１３號","OBJECTID":338202},"geometry":{"x":165126.20000000019,"y":2539946.6899999995}},{"attributes":{"ID":338212,"DIS_CODE":0,"TOWNNAME":"南區","LI":"鯤鯓里","LIN":"1鄰","STREET":"鯤鯓路","SECT":" ","MAREA":" ","LANE":"１０１巷","ALLEY":" ","HOUSE_NO":"１５號","E_COORD97":165128.85999999999,"N_COORD97":2539940.8999999999,"ADDRESS":"鯤鯓路１０１巷１５號","OBJECTID":338203},"geometry":{"x":165128.86000000034,"y":2539940.9000000022}},{"attributes":{"ID":338213,"DIS_CODE":0,"TOWNNAME":"南區","LI":"鯤鯓里","LIN":"1鄰","STREET":"鯤鯓路","SECT":" ","MAREA":" ","LANE":"１０１巷","ALLEY":" ","HOUSE_NO":"１７號","E_COORD97":165130.54999999999,"N_COORD97":2539937.3999999999,"ADDRESS":"鯤鯓路１０１巷１７號","OBJECTID":338204},"geometry":{"x":165130.54999999981,"y":2539937.4000000022}},{"attributes":{"ID":338214,"DIS_CODE":0,"TOWNNAME":"南區","LI":"鯤鯓里","LIN":"1鄰","STREET":"鯤鯓路","SECT":" ","MAREA":" ","LANE":"１０１巷","ALLEY":" ","HOUSE_NO":"１９號","E_COORD97":165132.97,"N_COORD97":2539934.5,"ADDRESS":"鯤鯓路１０１巷１９號","OBJECTID":338205},"geometry":{"x":165132.96999999881,"y":2539934.5}},{"attributes":{"ID":338215,"DIS_CODE":0,"TOWNNAME":"南區","LI":"鯤鯓里","LIN":"1鄰","STREET":"鯤鯓路","SECT":" ","MAREA":" ","LANE":"１０１巷","ALLEY":" ","HOUSE_NO":"２１號","E_COORD97":165134.78,"N_COORD97":2539930.5099999998,"ADDRESS":"鯤鯓路１０１巷２１號","OBJECTID":338206},"geometry":{"x":165134.77999999933,"y":2539930.5099999998}},{"attributes":{"ID":338216,"DIS_CODE":0,"TOWNNAME":"南區","LI":"鯤鯓里","LIN":"1鄰","STREET":"鯤鯓路","SECT":" ","MAREA":" ","LANE":"１０１巷","ALLEY":" ","HOUSE_NO":"２３８號","E_COORD97":165191.64000000001,"N_COORD97":2539442.9700000002,"ADDRESS":"鯤鯓路１０１巷２３８號","OBJECTID":338207},"geometry":{"x":165191.6400000006,"y":2539442.9700000025}},{"attributes":{"ID":338217,"DIS_CODE":0,"TOWNNAME":"南區","LI":"鯤鯓里","LIN":"1鄰","STREET":"鯤鯓路","SECT":" ","MAREA":" ","LANE":"１０１巷","ALLEY":" ","HOUSE_NO":"２３號","E_COORD97":165136.82999999999,"N_COORD97":2539926.8500000001,"ADDRESS":"鯤鯓路１０１巷２３號","OBJECTID":338208},"geometry":{"x":165136.83000000101,"y":2539926.8500000015}},{"attributes":{"ID":338218,"DIS_CODE":0,"TOWNNAME":"南區","LI":"鯤鯓里","LIN":"1鄰","STREET":"鯤鯓路","SECT":" ","MAREA":" ","LANE":"１０１巷","ALLEY":" ","HOUSE_NO":"２５號","E_COORD97":165138.76000000001,"N_COORD97":2539923.1099999999,"ADDRESS":"鯤鯓路１０１巷２５號","OBJECTID":338209},"geometry":{"x":165138.76000000071,"y":2539923.1099999994}},{"attributes":{"ID":338219,"DIS_CODE":0,"TOWNNAME":"南區","LI":"鯤鯓里","LIN":"1鄰","STREET":"鯤鯓路","SECT":" ","MAREA":" ","LANE":"１０１巷","ALLEY":" ","HOUSE_NO":"２７號","E_COORD97":165140.94,"N_COORD97":2539919.8500000001,"ADDRESS":"鯤鯓路１０１巷２７號","OBJECTID":338210},"geometry":{"x":165140.94000000134,"y":2539919.8500000015}},{"attributes":{"ID":338220,"DIS_CODE":0,"TOWNNAME":"南區","LI":"鯤鯓里","LIN":"1鄰","STREET":"鯤鯓路","SECT":" ","MAREA":" ","LANE":"１０１巷","ALLEY":" ","HOUSE_NO":"２９號","E_COORD97":165142.87,"N_COORD97":2539915.9900000002,"ADDRESS":"鯤鯓路１０１巷２９號","OBJECTID":338211},"geometry":{"x":165142.87000000104,"y":2539915.9900000021}},{"attributes":{"ID":338221,"DIS_CODE":0,"TOWNNAME":"南區","LI":"鯤鯓里","LIN":"1鄰","STREET":"鯤鯓路","SECT":" ","MAREA":" ","LANE":"１０１巷","ALLEY":" ","HOUSE_NO":"３１號","E_COORD97":165144.67999999999,"N_COORD97":2539912.73,"ADDRESS":"鯤鯓路１０１巷３１號","OBJECTID":338212},"geometry":{"x":165144.6799999997,"y":2539912.7300000004}},{"attributes":{"ID":338222,"DIS_CODE":0,"TOWNNAME":"南區","LI":"鯤鯓里","LIN":"1鄰","STREET":"鯤鯓路","SECT":" ","MAREA":" ","LANE":"１０１巷","ALLEY":" ","HOUSE_NO":"３３號","E_COORD97":165147.10000000001,"N_COORD97":2539908.8700000001,"ADDRESS":"鯤鯓路１０１巷３３號","OBJECTID":338213},"geometry":{"x":165147.09999999963,"y":2539908.870000001}},{"attributes":{"ID":338223,"DIS_CODE":0,"TOWNNAME":"南區","LI":"鯤鯓里","LIN":"1鄰","STREET":"鯤鯓路","SECT":" ","MAREA":" ","LANE":"１０１巷","ALLEY":" ","HOUSE_NO":"３５號","E_COORD97":165149.75,"N_COORD97":2539905.4900000002,"ADDRESS":"鯤鯓路１０１巷３５號","OBJECTID":338214},"geometry":{"x":165149.75,"y":2539905.4900000039}},{"attributes":{"ID":338224,"DIS_CODE":0,"TOWNNAME":"南區","LI":"鯤鯓里","LIN":"1鄰","STREET":"鯤鯓路","SECT":" ","MAREA":" ","LANE":"１０１巷","ALLEY":" ","HOUSE_NO":"３７號","E_COORD97":165151.56,"N_COORD97":2539901.6299999999,"ADDRESS":"鯤鯓路１０１巷３７號","OBJECTID":338215},"geometry":{"x":165151.56000000052,"y":2539901.629999999}},{"attributes":{"ID":338225,"DIS_CODE":0,"TOWNNAME":"南區","LI":"鯤鯓里","LIN":"1鄰","STREET":"鯤鯓路","SECT":" ","MAREA":" ","LANE":"１０１巷","ALLEY":" ","HOUSE_NO":"３號","E_COORD97":165114.12,"N_COORD97":2539967.5600000001,"ADDRESS":"鯤鯓路１０１巷３號","OBJECTID":338216},"geometry":{"x":165114.12000000104,"y":2539967.5600000024}},{"attributes":{"ID":338226,"DIS_CODE":0,"TOWNNAME":"南區","LI":"鯤鯓里","LIN":"1鄰","STREET":"鯤鯓路","SECT":" ","MAREA":" ","LANE":"１０１巷","ALLEY":" ","HOUSE_NO":"５號","E_COORD97":165116.29999999999,"N_COORD97":2539963.8199999998,"ADDRESS":"鯤鯓路１０１巷５號","OBJECTID":338217},"geometry":{"x":165116.30000000075,"y":2539963.8200000003}},{"attributes":{"ID":338227,"DIS_CODE":0,"TOWNNAME":"南區","LI":"鯤鯓里","LIN":"1鄰","STREET":"鯤鯓路","SECT":" ","MAREA":" ","LANE":"１０１巷","ALLEY":" ","HOUSE_NO":"７０１號","E_COORD97":165334.03,"N_COORD97":2539315.71,"ADDRESS":"鯤鯓路１０１巷７０１號","OBJECTID":338218},"geometry":{"x":165334.03000000119,"y":2539315.7100000028}},{"attributes":{"ID":338228,"DIS_CODE":0,"TOWNNAME":"南區","LI":"鯤鯓里","LIN":"1鄰","STREET":"鯤鯓路","SECT":" ","MAREA":" ","LANE":"１０１巷","ALLEY":" ","HOUSE_NO":"７０１號之１","E_COORD97":165402.29999999999,"N_COORD97":2539360.1299999999,"ADDRESS":"鯤鯓路１０１巷７０１號之１","OBJECTID":338219},"geometry":{"x":165402.30000000075,"y":2539360.129999999}},{"attributes":{"ID":338229,"DIS_CODE":0,"TOWNNAME":"南區","LI":"鯤鯓里","LIN":"1鄰","STREET":"鯤鯓路","SECT":" ","MAREA":" ","LANE":"１０１巷","ALLEY":" ","HOUSE_NO":"７號","E_COORD97":165118.23000000001,"N_COORD97":2539960.2000000002,"ADDRESS":"鯤鯓路１０１巷７號","OBJECTID":338220},"geometry":{"x":165118.23000000045,"y":2539960.1999999974}},{"attributes":{"ID":338230,"DIS_CODE":0,"TOWNNAME":"南區","LI":"鯤鯓里","LIN":"1鄰","STREET":"鯤鯓路","SECT":" ","MAREA":" ","LANE":"１０１巷","ALLEY":" ","HOUSE_NO":"９號","E_COORD97":165120.39999999999,"N_COORD97":2539956.3399999999,"ADDRESS":"鯤鯓路１０１巷９號","OBJECTID":338221},"geometry":{"x":165120.40000000037,"y":2539956.3399999999}},{"attributes":{"ID":338231,"DIS_CODE":0,"TOWNNAME":"南區","LI":"大恩里","LIN":"1鄰","STREET":"國民路","SECT":" ","MAREA":" ","LANE":"５０巷","ALLEY":" ","HOUSE_NO":"１號","E_COORD97":169434.5,"N_COORD97":2540913.27,"ADDRESS":"國民路５０巷１號","OBJECTID":338222},"geometry":{"x":169434.50000000093,"y":2540913.2700000014}},{"attributes":{"ID":338232,"DIS_CODE":0,"TOWNNAME":"南區","LI":"大恩里","LIN":"1鄰","STREET":"國民路","SECT":" ","MAREA":" ","LANE":"５０巷","ALLEY":" ","HOUSE_NO":"２１號","E_COORD97":169439.57999999999,"N_COORD97":2540968.4500000002,"ADDRESS":"國民路５０巷２１號","OBJECTID":338223},"geometry":{"x":169439.58000000007,"y":2540968.4499999993}},{"attributes":{"ID":338233,"DIS_CODE":0,"TOWNNAME":"南區","LI":"大恩里","LIN":"1鄰","STREET":"國民路","SECT":" ","MAREA":" ","LANE":"５０巷","ALLEY":" ","HOUSE_NO":"２３號","E_COORD97":169439.81,"N_COORD97":2540972.2000000002,"ADDRESS":"國民路５０巷２３號","OBJECTID":338224},"geometry":{"x":169439.81000000145,"y":2540972.2000000011}},{"attributes":{"ID":338234,"DIS_CODE":0,"TOWNNAME":"南區","LI":"大恩里","LIN":"1鄰","STREET":"國民路","SECT":" ","MAREA":" ","LANE":"５０巷","ALLEY":" ","HOUSE_NO":"２５號","E_COORD97":169440.25,"N_COORD97":2540981.6899999999,"ADDRESS":"國民路５０巷２５號","OBJECTID":338225},"geometry":{"x":169440.25,"y":2540981.6900000013}},{"attributes":{"ID":338235,"DIS_CODE":0,"TOWNNAME":"南區","LI":"大恩里","LIN":"1鄰","STREET":"國民路","SECT":" ","MAREA":" ","LANE":"５０巷","ALLEY":" ","HOUSE_NO":"２７號","E_COORD97":169441.23999999999,"N_COORD97":2540994.27,"ADDRESS":"國民路５０巷２７號","OBJECTID":338226},"geometry":{"x":169441.24000000115,"y":2540994.2700000033}},{"attributes":{"ID":338236,"DIS_CODE":0,"TOWNNAME":"南區","LI":"大恩里","LIN":"1鄰","STREET":"國民路","SECT":" ","MAREA":" ","LANE":"５０巷","ALLEY":" ","HOUSE_NO":"２９號","E_COORD97":169442.01000000001,"N_COORD97":2541002.04,"ADDRESS":"國民路５０巷２９號","OBJECTID":338227},"geometry":{"x":169442.01000000164,"y":2541002.0399999972}},{"attributes":{"ID":338237,"DIS_CODE":0,"TOWNNAME":"南區","LI":"大恩里","LIN":"1鄰","STREET":"國民路","SECT":" ","MAREA":" ","LANE":"５０巷","ALLEY":" ","HOUSE_NO":"３號","E_COORD97":169434.95000000001,"N_COORD97":2540917.3599999999,"ADDRESS":"國民路５０巷３號","OBJECTID":338228},"geometry":{"x":169434.95000000112,"y":2540917.3599999994}},{"attributes":{"ID":338238,"DIS_CODE":0,"TOWNNAME":"南區","LI":"大恩里","LIN":"1鄰","STREET":"國民路","SECT":" ","MAREA":" ","LANE":"５０巷","ALLEY":" ","HOUSE_NO":"５號","E_COORD97":169435.06,"N_COORD97":2540921,"ADDRESS":"國民路５０巷５號","OBJECTID":338229},"geometry":{"x":169435.06000000052,"y":2540921}},{"attributes":{"ID":338239,"DIS_CODE":0,"TOWNNAME":"南區","LI":"大恩里","LIN":"1鄰","STREET":"國民路","SECT":" ","MAREA":" ","LANE":"５０巷","ALLEY":" ","HOUSE_NO":"７號","E_COORD97":169435.39000000001,"N_COORD97":2540925.2999999998,"ADDRESS":"國民路５０巷７號","OBJECTID":338230},"geometry":{"x":169435.38999999966,"y":2540925.3000000026}},{"attributes":{"ID":338240,"DIS_CODE":0,"TOWNNAME":"南區","LI":"大恩里","LIN":"1鄰","STREET":"國民路","SECT":" ","MAREA":" ","LANE":"５０巷","ALLEY":" ","HOUSE_NO":"９號","E_COORD97":169442.45999999999,"N_COORD97":2540929.4900000002,"ADDRESS":"國民路５０巷９號","OBJECTID":338231},"geometry":{"x":169442.45999999903,"y":2540929.4900000021}},{"attributes":{"ID":338241,"DIS_CODE":0,"TOWNNAME":"南區","LI":"大恩里","LIN":"1鄰","STREET":"國民路","SECT":" ","MAREA":" ","LANE":"６０巷","ALLEY":" ","HOUSE_NO":"１０號","E_COORD97":169433.29000000001,"N_COORD97":2540930.27,"ADDRESS":"國民路６０巷１０號","OBJECTID":338232},"geometry":{"x":169433.29000000004,"y":2540930.2700000014}},{"attributes":{"ID":338242,"DIS_CODE":0,"TOWNNAME":"南區","LI":"大恩里","LIN":"1鄰","STREET":"國民路","SECT":" ","MAREA":" ","LANE":"６０巷","ALLEY":" ","HOUSE_NO":"１１號","E_COORD97":169414.39999999999,"N_COORD97":2540945.52,"ADDRESS":"國民路６０巷１１號","OBJECTID":338233},"geometry":{"x":169414.40000000037,"y":2540945.5200000014}},{"attributes":{"ID":338243,"DIS_CODE":0,"TOWNNAME":"南區","LI":"大恩里","LIN":"1鄰","STREET":"國民路","SECT":" ","MAREA":" ","LANE":"６０巷","ALLEY":" ","HOUSE_NO":"２７號","E_COORD97":169419.04000000001,"N_COORD97":2541002.48,"ADDRESS":"國民路６０巷２７號","OBJECTID":338234},"geometry":{"x":169419.04000000097,"y":2541002.4800000004}},{"attributes":{"ID":338244,"DIS_CODE":0,"TOWNNAME":"南區","LI":"大恩里","LIN":"1鄰","STREET":"國民路","SECT":" ","MAREA":" ","LANE":"６０巷","ALLEY":" ","HOUSE_NO":"２９號","E_COORD97":169419.48000000001,"N_COORD97":2541007.5600000001,"ADDRESS":"國民路６０巷２９號","OBJECTID":338235},"geometry":{"x":169419.48000000138,"y":2541007.5600000024}},{"attributes":{"ID":338245,"DIS_CODE":0,"TOWNNAME":"南區","LI":"大恩里","LIN":"1鄰","STREET":"國民路","SECT":" ","MAREA":" ","LANE":"６０巷","ALLEY":" ","HOUSE_NO":"３１號","E_COORD97":169419.59,"N_COORD97":2541012.4100000001,"ADDRESS":"國民路６０巷３１號","OBJECTID":338236},"geometry":{"x":169419.59000000171,"y":2541012.410000002}},{"attributes":{"ID":338246,"DIS_CODE":0,"TOWNNAME":"南區","LI":"大恩里","LIN":"1鄰","STREET":"國民路","SECT":" ","MAREA":" ","LANE":"６０巷","ALLEY":" ","HOUSE_NO":"３３號","E_COORD97":169419.92999999999,"N_COORD97":2541016.8300000001,"ADDRESS":"國民路６０巷３３號","OBJECTID":338237},"geometry":{"x":169419.9299999997,"y":2541016.8300000001}},{"attributes":{"ID":338247,"DIS_CODE":0,"TOWNNAME":"南區","LI":"大恩里","LIN":"1鄰","STREET":"國民路","SECT":" ","MAREA":" ","LANE":"６０巷","ALLEY":" ","HOUSE_NO":"３５號","E_COORD97":169421.14000000001,"N_COORD97":2541022.46,"ADDRESS":"國民路６０巷３５號","OBJECTID":338238},"geometry":{"x":169421.1400000006,"y":2541022.4600000028}},{"attributes":{"ID":338248,"DIS_CODE":0,"TOWNNAME":"南區","LI":"大恩里","LIN":"1鄰","STREET":"國民路","SECT":" ","MAREA":" ","LANE":"６０巷","ALLEY":" ","HOUSE_NO":"９號","E_COORD97":169414.39999999999,"N_COORD97":2540937.79,"ADDRESS":"國民路６０巷９號","OBJECTID":338239},"geometry":{"x":169414.40000000037,"y":2540937.7899999991}},{"attributes":{"ID":338249,"DIS_CODE":0,"TOWNNAME":"南區","LI":"文南里","LIN":"1鄰","STREET":"建南路","SECT":" ","MAREA":" ","LANE":"８９巷","ALLEY":" ","HOUSE_NO":"２號","E_COORD97":167095.64000000001,"N_COORD97":2542817.4900000002,"ADDRESS":"建南路８９巷２號","OBJECTID":338240},"geometry":{"x":167095.6400000006,"y":2542817.4900000039}},{"attributes":{"ID":338250,"DIS_CODE":0,"TOWNNAME":"南區","LI":"文南里","LIN":"1鄰","STREET":"建南路","SECT":" ","MAREA":" ","LANE":"８９巷","ALLEY":" ","HOUSE_NO":"４號","E_COORD97":167095.07999999999,"N_COORD97":2542812.0499999998,"ADDRESS":"建南路８９巷４號","OBJECTID":338241},"geometry":{"x":167095.08000000007,"y":2542812.0500000026}},{"attributes":{"ID":338251,"DIS_CODE":0,"TOWNNAME":"南區","LI":"文南里","LIN":"1鄰","STREET":"建南路","SECT":" ","MAREA":" ","LANE":"８９巷","ALLEY":" ","HOUSE_NO":"６號","E_COORD97":167095.07999999999,"N_COORD97":2542805.9199999999,"ADDRESS":"建南路８９巷６號","OBJECTID":338242},"geometry":{"x":167095.08000000007,"y":2542805.9199999999}},{"attributes":{"ID":338252,"DIS_CODE":0,"TOWNNAME":"南區","LI":"文南里","LIN":"1鄰","STREET":"建南路","SECT":" ","MAREA":" ","LANE":"８９巷","ALLEY":" ","HOUSE_NO":"８號","E_COORD97":167094.23999999999,"N_COORD97":2542800.6200000001,"ADDRESS":"建南路８９巷８號","OBJECTID":338243},"geometry":{"x":167094.24000000022,"y":2542800.6200000048}},{"attributes":{"ID":338253,"DIS_CODE":0,"TOWNNAME":"南區","LI":"文南里","LIN":"1鄰","STREET":"建南路","SECT":" ","MAREA":" ","LANE":"９９巷","ALLEY":" ","HOUSE_NO":"１號","E_COORD97":167085.87,"N_COORD97":2542818.8799999999,"ADDRESS":"建南路９９巷１號","OBJECTID":338244},"geometry":{"x":167085.87000000104,"y":2542818.879999999}},{"attributes":{"ID":338254,"DIS_CODE":0,"TOWNNAME":"南區","LI":"文南里","LIN":"1鄰","STREET":"建南路","SECT":" ","MAREA":" ","LANE":"９９巷","ALLEY":" ","HOUSE_NO":"２號","E_COORD97":167072.48000000001,"N_COORD97":2542814.8199999998,"ADDRESS":"建南路９９巷２號","OBJECTID":338245},"geometry":{"x":167072.48000000045,"y":2542814.8200000003}},{"attributes":{"ID":338255,"DIS_CODE":0,"TOWNNAME":"南區","LI":"文南里","LIN":"1鄰","STREET":"建南路","SECT":" ","MAREA":" ","LANE":"９９巷","ALLEY":" ","HOUSE_NO":"３號","E_COORD97":167085.03,"N_COORD97":2542812.8900000001,"ADDRESS":"建南路９９巷３號","OBJECTID":338246},"geometry":{"x":167085.03000000119,"y":2542812.8900000025}},{"attributes":{"ID":338256,"DIS_CODE":0,"TOWNNAME":"南區","LI":"文南里","LIN":"1鄰","STREET":"建南路","SECT":" ","MAREA":" ","LANE":"９９巷","ALLEY":" ","HOUSE_NO":"５號","E_COORD97":167085.03,"N_COORD97":2542806.7599999998,"ADDRESS":"建南路９９巷５號","OBJECTID":338247},"geometry":{"x":167085.03000000119,"y":2542806.7600000016}},{"attributes":{"ID":338257,"DIS_CODE":0,"TOWNNAME":"南區","LI":"文南里","LIN":"1鄰","STREET":"建南路","SECT":" ","MAREA":" ","LANE":"９９巷","ALLEY":" ","HOUSE_NO":"６號","E_COORD97":167067.04000000001,"N_COORD97":2542803.8100000001,"ADDRESS":"建南路９９巷６號","OBJECTID":338248},"geometry":{"x":167067.03999999911,"y":2542803.8100000024}},{"attributes":{"ID":338258,"DIS_CODE":0,"TOWNNAME":"南區","LI":"文南里","LIN":"1鄰","STREET":"建南路","SECT":" ","MAREA":" ","LANE":"９９巷","ALLEY":" ","HOUSE_NO":"７號","E_COORD97":167084.20000000001,"N_COORD97":2542800.6200000001,"ADDRESS":"建南路９９巷７號","OBJECTID":338249},"geometry":{"x":167084.20000000019,"y":2542800.6200000048}},{"attributes":{"ID":338259,"DIS_CODE":0,"TOWNNAME":"學甲區","LI":"新榮里","LIN":"1鄰","STREET":"博愛街","SECT":" ","MAREA":" ","LANE":"２１巷","ALLEY":" ","HOUSE_NO":"４０號","E_COORD97":166666.42000000001,"N_COORD97":2569744.04,"ADDRESS":"博愛街２１巷４０號","OBJECTID":338250},"geometry":{"x":166666.42000000086,"y":2569744.040000001}},{"attributes":{"ID":338260,"DIS_CODE":0,"TOWNNAME":"學甲區","LI":"新榮里","LIN":"1鄰","STREET":"博愛街","SECT":" ","MAREA":" ","LANE":"２１巷","ALLEY":" ","HOUSE_NO":"４２號","E_COORD97":166666.39999999999,"N_COORD97":2569739.0600000001,"ADDRESS":"博愛街２１巷４２號","OBJECTID":338251},"geometry":{"x":166666.40000000037,"y":2569739.0600000005}},{"attributes":{"ID":338261,"DIS_CODE":0,"TOWNNAME":"學甲區","LI":"新榮里","LIN":"1鄰","STREET":"博愛街","SECT":" ","MAREA":" ","LANE":"２１巷","ALLEY":" ","HOUSE_NO":"４６號","E_COORD97":166666.94,"N_COORD97":2569733.8900000001,"ADDRESS":"博愛街２１巷４６號","OBJECTID":338252},"geometry":{"x":166666.94000000134,"y":2569733.8900000006}},{"attributes":{"ID":338262,"DIS_CODE":0,"TOWNNAME":"學甲區","LI":"新榮里","LIN":"1鄰","STREET":"博愛街","SECT":" ","MAREA":" ","LANE":"２１巷","ALLEY":" ","HOUSE_NO":"４８號","E_COORD97":166667,"N_COORD97":2569727.2200000002,"ADDRESS":"博愛街２１巷４８號","OBJECTID":338253},"geometry":{"x":166667,"y":2569727.2200000025}},{"attributes":{"ID":338263,"DIS_CODE":0,"TOWNNAME":"學甲區","LI":"慈福里","LIN":"1鄰","STREET":"華宗路","SECT":" ","MAREA":" ","LANE":"２９８巷","ALLEY":" ","HOUSE_NO":"１１號","E_COORD97":166401.97,"N_COORD97":2570047.5699999998,"ADDRESS":"華宗路２９８巷１１號","OBJECTID":338254},"geometry":{"x":166401.96999999974,"y":2570047.5700000003}},{"attributes":{"ID":338264,"DIS_CODE":0,"TOWNNAME":"學甲區","LI":"慈福里","LIN":"1鄰","STREET":"華宗路","SECT":" ","MAREA":" ","LANE":"２９８巷","ALLEY":" ","HOUSE_NO":"１３號","E_COORD97":166406.07000000001,"N_COORD97":2570047.7400000002,"ADDRESS":"華宗路２９８巷１３號","OBJECTID":338255},"geometry":{"x":166406.07000000216,"y":2570047.7400000021}},{"attributes":{"ID":338265,"DIS_CODE":0,"TOWNNAME":"學甲區","LI":"慈福里","LIN":"1鄰","STREET":"華宗路","SECT":" ","MAREA":" ","LANE":"２９８巷","ALLEY":" ","HOUSE_NO":"１號","E_COORD97":166379.79000000001,"N_COORD97":2570046.25,"ADDRESS":"華宗路２９８巷１號","OBJECTID":338256},"geometry":{"x":166379.79000000004,"y":2570046.25}},{"attributes":{"ID":338266,"DIS_CODE":0,"TOWNNAME":"學甲區","LI":"慈福里","LIN":"1鄰","STREET":"華宗路","SECT":" ","MAREA":" ","LANE":"２９８巷","ALLEY":" ","HOUSE_NO":"２號","E_COORD97":166373.57999999999,"N_COORD97":2570064.7200000002,"ADDRESS":"華宗路２９８巷２號","OBJECTID":338257},"geometry":{"x":166373.58000000194,"y":2570064.7199999988}},{"attributes":{"ID":338267,"DIS_CODE":0,"TOWNNAME":"學甲區","LI":"慈福里","LIN":"1鄰","STREET":"華宗路","SECT":" ","MAREA":" ","LANE":"２９８巷","ALLEY":" ","HOUSE_NO":"３號","E_COORD97":166385.54999999999,"N_COORD97":2570046.7599999998,"ADDRESS":"華宗路２９８巷３號","OBJECTID":338258},"geometry":{"x":166385.55000000075,"y":2570046.7600000035}},{"attributes":{"ID":338268,"DIS_CODE":0,"TOWNNAME":"學甲區","LI":"慈福里","LIN":"1鄰","STREET":"華宗路","SECT":" ","MAREA":" ","LANE":"２９８巷","ALLEY":" ","HOUSE_NO":"５號","E_COORD97":166390.13,"N_COORD97":2570046.73,"ADDRESS":"華宗路２９８巷５號","OBJECTID":338259},"geometry":{"x":166390.13000000082,"y":2570046.7300000004}},{"attributes":{"ID":338269,"DIS_CODE":0,"TOWNNAME":"學甲區","LI":"慈福里","LIN":"1鄰","STREET":"華宗路","SECT":" ","MAREA":" ","LANE":"２９８巷","ALLEY":" ","HOUSE_NO":"６號","E_COORD97":166384.54999999999,"N_COORD97":2570060.8199999998,"ADDRESS":"華宗路２９８巷６號","OBJECTID":338260},"geometry":{"x":166384.54999999981,"y":2570060.8200000022}},{"attributes":{"ID":338270,"DIS_CODE":0,"TOWNNAME":"學甲區","LI":"慈福里","LIN":"1鄰","STREET":"華宗路","SECT":" ","MAREA":" ","LANE":"２９８巷","ALLEY":" ","HOUSE_NO":"７號","E_COORD97":166394.03,"N_COORD97":2570046.8300000001,"ADDRESS":"華宗路２９８巷７號","OBJECTID":338261},"geometry":{"x":166394.03000000026,"y":2570046.8300000038}},{"attributes":{"ID":338271,"DIS_CODE":0,"TOWNNAME":"學甲區","LI":"慈福里","LIN":"1鄰","STREET":"華宗路","SECT":" ","MAREA":" ","LANE":"２９８巷","ALLEY":" ","HOUSE_NO":"９號","E_COORD97":166398.04000000001,"N_COORD97":2570047.1400000001,"ADDRESS":"華宗路２９８巷９號","OBJECTID":338262},"geometry":{"x":166398.04000000097,"y":2570047.1400000006}},{"attributes":{"ID":338272,"DIS_CODE":0,"TOWNNAME":"學甲區","LI":"新榮里","LIN":"1鄰","STREET":"寶發路","SECT":" ","MAREA":" ","LANE":"２１０巷","ALLEY":" ","HOUSE_NO":"１０號","E_COORD97":166485.29999999999,"N_COORD97":2569687.4100000001,"ADDRESS":"寶發路２１０巷１０號","OBJECTID":338263},"geometry":{"x":166485.29999999888,"y":2569687.410000002}},{"attributes":{"ID":338273,"DIS_CODE":0,"TOWNNAME":"學甲區","LI":"新榮里","LIN":"1鄰","STREET":"寶發路","SECT":" ","MAREA":" ","LANE":"２１０巷","ALLEY":" ","HOUSE_NO":"１２號","E_COORD97":166486.01000000001,"N_COORD97":2569691.3999999999,"ADDRESS":"寶發路２１０巷１２號","OBJECTID":338264},"geometry":{"x":166486.01000000071,"y":2569691.4000000022}},{"attributes":{"ID":338274,"DIS_CODE":0,"TOWNNAME":"學甲區","LI":"新榮里","LIN":"1鄰","STREET":"寶發路","SECT":" ","MAREA":" ","LANE":"２１０巷","ALLEY":" ","HOUSE_NO":"１４號","E_COORD97":166486.60000000001,"N_COORD97":2569695.7400000002,"ADDRESS":"寶發路２１０巷１４號","OBJECTID":338265},"geometry":{"x":166486.60000000149,"y":2569695.7400000021}},{"attributes":{"ID":338275,"DIS_CODE":0,"TOWNNAME":"學甲區","LI":"新榮里","LIN":"1鄰","STREET":"寶發路","SECT":" ","MAREA":" ","LANE":"２１０巷","ALLEY":" ","HOUSE_NO":"１６號","E_COORD97":166487.51999999999,"N_COORD97":2569699.7200000002,"ADDRESS":"寶發路２１０巷１６號","OBJECTID":338266},"geometry":{"x":166487.52000000048,"y":2569699.7200000025}},{"attributes":{"ID":338276,"DIS_CODE":0,"TOWNNAME":"學甲區","LI":"新榮里","LIN":"1鄰","STREET":"寶發路","SECT":" ","MAREA":" ","LANE":"２１０巷","ALLEY":" ","HOUSE_NO":"１８號","E_COORD97":166488.20999999999,"N_COORD97":2569704.3399999999,"ADDRESS":"寶發路２１０巷１８號","OBJECTID":338267},"geometry":{"x":166488.21000000089,"y":2569704.3400000017}},{"attributes":{"ID":338277,"DIS_CODE":0,"TOWNNAME":"學甲區","LI":"新榮里","LIN":"1鄰","STREET":"寶發路","SECT":" ","MAREA":" ","LANE":"２１０巷","ALLEY":" ","HOUSE_NO":"２０號","E_COORD97":166488.51999999999,"N_COORD97":2569708.2200000002,"ADDRESS":"寶發路２１０巷２０號","OBJECTID":338268},"geometry":{"x":166488.51999999955,"y":2569708.2200000007}},{"attributes":{"ID":338278,"DIS_CODE":0,"TOWNNAME":"學甲區","LI":"新榮里","LIN":"1鄰","STREET":"寶發路","SECT":" ","MAREA":" ","LANE":"２１０巷","ALLEY":" ","HOUSE_NO":"２２號","E_COORD97":166489.39999999999,"N_COORD97":2569712.5600000001,"ADDRESS":"寶發路２１０巷２２號","OBJECTID":338269},"geometry":{"x":166489.4000000013,"y":2569712.5600000005}},{"attributes":{"ID":338279,"DIS_CODE":0,"TOWNNAME":"學甲區","LI":"新榮里","LIN":"1鄰","STREET":"寶發路","SECT":" ","MAREA":" ","LANE":"２１０巷","ALLEY":" ","HOUSE_NO":"２４號","E_COORD97":166489.89000000001,"N_COORD97":2569716.6499999999,"ADDRESS":"寶發路２１０巷２４號","OBJECTID":338270},"geometry":{"x":166489.8900000006,"y":2569716.6500000022}},{"attributes":{"ID":338280,"DIS_CODE":0,"TOWNNAME":"學甲區","LI":"新榮里","LIN":"1鄰","STREET":"寶發路","SECT":" ","MAREA":" ","LANE":"２１０巷","ALLEY":" ","HOUSE_NO":"２６號","E_COORD97":166490.82999999999,"N_COORD97":2569720.8199999998,"ADDRESS":"寶發路２１０巷２６號","OBJECTID":338271},"geometry":{"x":166490.83000000101,"y":2569720.8200000003}},{"attributes":{"ID":338281,"DIS_CODE":0,"TOWNNAME":"學甲區","LI":"新榮里","LIN":"1鄰","STREET":"寶發路","SECT":" ","MAREA":" ","LANE":"２１０巷","ALLEY":" ","HOUSE_NO":"２８號","E_COORD97":166492.19,"N_COORD97":2569724.75,"ADDRESS":"寶發路２１０巷２８號","OBJECTID":338272},"geometry":{"x":166492.19000000134,"y":2569724.7499999981}},{"attributes":{"ID":338282,"DIS_CODE":0,"TOWNNAME":"學甲區","LI":"新榮里","LIN":"1鄰","STREET":"寶發路","SECT":" ","MAREA":" ","LANE":"２１０巷","ALLEY":" ","HOUSE_NO":"２號","E_COORD97":166483.70000000001,"N_COORD97":2569670.9199999999,"ADDRESS":"寶發路２１０巷２號","OBJECTID":338273},"geometry":{"x":166483.70000000112,"y":2569670.9200000018}},{"attributes":{"ID":338283,"DIS_CODE":0,"TOWNNAME":"學甲區","LI":"新榮里","LIN":"1鄰","STREET":"寶發路","SECT":" ","MAREA":" ","LANE":"２１０巷","ALLEY":" ","HOUSE_NO":"３０號","E_COORD97":166492.26999999999,"N_COORD97":2569729.3700000001,"ADDRESS":"寶發路２１０巷３０號","OBJECTID":338274},"geometry":{"x":166492.27000000048,"y":2569729.3700000029}},{"attributes":{"ID":338284,"DIS_CODE":0,"TOWNNAME":"學甲區","LI":"新榮里","LIN":"1鄰","STREET":"寶發路","SECT":" ","MAREA":" ","LANE":"２１０巷","ALLEY":" ","HOUSE_NO":"３６號","E_COORD97":166493.89999999999,"N_COORD97":2569736.6000000001,"ADDRESS":"寶發路２１０巷３６號","OBJECTID":338275},"geometry":{"x":166493.9000000013,"y":2569736.6000000015}},{"attributes":{"ID":338285,"DIS_CODE":0,"TOWNNAME":"學甲區","LI":"新榮里","LIN":"1鄰","STREET":"寶發路","SECT":" ","MAREA":" ","LANE":"２１０巷","ALLEY":" ","HOUSE_NO":"４號","E_COORD97":166484.70000000001,"N_COORD97":2569674.9300000002,"ADDRESS":"寶發路２１０巷４號","OBJECTID":338276},"geometry":{"x":166484.70000000205,"y":2569674.9299999997}},{"attributes":{"ID":338286,"DIS_CODE":0,"TOWNNAME":"學甲區","LI":"新榮里","LIN":"1鄰","STREET":"寶發路","SECT":" ","MAREA":" ","LANE":"２１０巷","ALLEY":" ","HOUSE_NO":"６號","E_COORD97":166484.23999999999,"N_COORD97":2569679.3100000001,"ADDRESS":"寶發路２１０巷６號","OBJECTID":338277},"geometry":{"x":166484.24000000022,"y":2569679.3100000024}},{"attributes":{"ID":338287,"DIS_CODE":0,"TOWNNAME":"學甲區","LI":"新榮里","LIN":"1鄰","STREET":"寶發路","SECT":" ","MAREA":" ","LANE":"２１０巷","ALLEY":" ","HOUSE_NO":"８號","E_COORD97":166484.79999999999,"N_COORD97":2569683.0899999999,"ADDRESS":"寶發路２１０巷８號","OBJECTID":338278},"geometry":{"x":166484.79999999981,"y":2569683.0900000017}},{"attributes":{"ID":338288,"DIS_CODE":0,"TOWNNAME":"六甲區","LI":"龍湖里","LIN":"1鄰","STREET":"七甲街","SECT":" ","MAREA":" ","LANE":"２６巷","ALLEY":" ","HOUSE_NO":"８號","E_COORD97":183367.20999999999,"N_COORD97":2569043.3100000001,"ADDRESS":"七甲街２６巷８號","OBJECTID":338279},"geometry":{"x":183367.21000000089,"y":2569043.3100000005}},{"attributes":{"ID":338289,"DIS_CODE":0,"TOWNNAME":"六甲區","LI":"龍湖里","LIN":"1鄰","STREET":"七甲街","SECT":" ","MAREA":" ","LANE":"４０巷","ALLEY":" ","HOUSE_NO":"１２號之１","E_COORD97":183322.62,"N_COORD97":2569037.3399999999,"ADDRESS":"七甲街４０巷１２號之１","OBJECTID":338280},"geometry":{"x":183322.62000000104,"y":2569037.3400000017}},{"attributes":{"ID":338290,"DIS_CODE":0,"TOWNNAME":"六甲區","LI":"龍湖里","LIN":"1鄰","STREET":"七甲街","SECT":" ","MAREA":" ","LANE":"４０巷","ALLEY":" ","HOUSE_NO":"１２號之２","E_COORD97":183326.73999999999,"N_COORD97":2569035.8999999999,"ADDRESS":"七甲街４０巷１２號之２","OBJECTID":338281},"geometry":{"x":183326.74000000115,"y":2569035.8999999985}},{"attributes":{"ID":338291,"DIS_CODE":0,"TOWNNAME":"六甲區","LI":"龍湖里","LIN":"1鄰","STREET":"七甲街","SECT":" ","MAREA":" ","LANE":"４０巷","ALLEY":" ","HOUSE_NO":"１２號","E_COORD97":183302.56,"N_COORD97":2569042.73,"ADDRESS":"七甲街４０巷１２號","OBJECTID":338282},"geometry":{"x":183302.55999999959,"y":2569042.7300000004}},{"attributes":{"ID":338292,"DIS_CODE":0,"TOWNNAME":"六甲區","LI":"龍湖里","LIN":"1鄰","STREET":"七甲街","SECT":" ","MAREA":" ","LANE":"４０巷","ALLEY":" ","HOUSE_NO":"１３之１號","E_COORD97":183267.66,"N_COORD97":2569053.6000000001,"ADDRESS":"七甲街４０巷１３之１號","OBJECTID":338283},"geometry":{"x":183267.66000000108,"y":2569053.5999999996}},{"attributes":{"ID":338293,"DIS_CODE":0,"TOWNNAME":"六甲區","LI":"龍湖里","LIN":"1鄰","STREET":"七甲街","SECT":" ","MAREA":" ","LANE":"４０巷","ALLEY":" ","HOUSE_NO":"１３號之２","E_COORD97":183263.32000000001,"N_COORD97":2569054.2400000002,"ADDRESS":"七甲街４０巷１３號之２","OBJECTID":338284},"geometry":{"x":183263.32000000123,"y":2569054.2400000039}},{"attributes":{"ID":338294,"DIS_CODE":0,"TOWNNAME":"六甲區","LI":"龍湖里","LIN":"1鄰","STREET":"七甲街","SECT":" ","MAREA":" ","LANE":"４０巷","ALLEY":" ","HOUSE_NO":"１３之３號","E_COORD97":183258.98000000001,"N_COORD97":2569055.4900000002,"ADDRESS":"七甲街４０巷１３之３號","OBJECTID":338285},"geometry":{"x":183258.98000000138,"y":2569055.4899999984}},{"attributes":{"ID":338295,"DIS_CODE":0,"TOWNNAME":"六甲區","LI":"龍湖里","LIN":"1鄰","STREET":"七甲街","SECT":" ","MAREA":" ","LANE":"４０巷","ALLEY":" ","HOUSE_NO":"１３號之４","E_COORD97":183254.66,"N_COORD97":2569056.3799999999,"ADDRESS":"七甲街４０巷１３號之４","OBJECTID":338286},"geometry":{"x":183254.66000000015,"y":2569056.3800000008}},{"attributes":{"ID":338296,"DIS_CODE":0,"TOWNNAME":"六甲區","LI":"龍湖里","LIN":"1鄰","STREET":"七甲街","SECT":" ","MAREA":" ","LANE":"４０巷","ALLEY":" ","HOUSE_NO":"１４號","E_COORD97":183303.89000000001,"N_COORD97":2569047.1000000001,"ADDRESS":"七甲街４０巷１４號","OBJECTID":338287},"geometry":{"x":183303.88999999966,"y":2569047.0999999996}},{"attributes":{"ID":338297,"DIS_CODE":0,"TOWNNAME":"六甲區","LI":"龍湖里","LIN":"1鄰","STREET":"七甲街","SECT":" ","MAREA":" ","LANE":"４０巷","ALLEY":" ","HOUSE_NO":"１５號","E_COORD97":183283.48000000001,"N_COORD97":2569054.21,"ADDRESS":"七甲街４０巷１５號","OBJECTID":338288},"geometry":{"x":183283.48000000045,"y":2569054.2100000009}},{"attributes":{"ID":338298,"DIS_CODE":0,"TOWNNAME":"六甲區","LI":"龍湖里","LIN":"1鄰","STREET":"七甲街","SECT":" ","MAREA":" ","LANE":"４０巷","ALLEY":" ","HOUSE_NO":"１６號","E_COORD97":183305.20000000001,"N_COORD97":2569051.1299999999,"ADDRESS":"七甲街４０巷１６號","OBJECTID":338289},"geometry":{"x":183305.20000000112,"y":2569051.1300000008}},{"attributes":{"ID":338299,"DIS_CODE":0,"TOWNNAME":"六甲區","LI":"龍湖里","LIN":"1鄰","STREET":"七甲街","SECT":" ","MAREA":" ","LANE":"４０巷","ALLEY":" ","HOUSE_NO":"１７號","E_COORD97":183284.53,"N_COORD97":2569058.3399999999,"ADDRESS":"七甲街４０巷１７號","OBJECTID":338290},"geometry":{"x":183284.53000000026,"y":2569058.3399999999}},{"attributes":{"ID":338300,"DIS_CODE":0,"TOWNNAME":"六甲區","LI":"龍湖里","LIN":"1鄰","STREET":"七甲街","SECT":" ","MAREA":" ","LANE":"４０巷","ALLEY":" ","HOUSE_NO":"１８號","E_COORD97":183306.31,"N_COORD97":2569055.02,"ADDRESS":"七甲街４０巷１８號","OBJECTID":338291},"geometry":{"x":183306.30999999866,"y":2569055.0200000033}},{"attributes":{"ID":338301,"DIS_CODE":0,"TOWNNAME":"六甲區","LI":"龍湖里","LIN":"1鄰","STREET":"七甲街","SECT":" ","MAREA":" ","LANE":"４０巷","ALLEY":" ","HOUSE_NO":"１９號","E_COORD97":183285.59,"N_COORD97":2569062.4100000001,"ADDRESS":"七甲街４０巷１９號","OBJECTID":338292},"geometry":{"x":183285.58999999985,"y":2569062.4100000001}},{"attributes":{"ID":338302,"DIS_CODE":0,"TOWNNAME":"六甲區","LI":"龍湖里","LIN":"1鄰","STREET":"七甲街","SECT":" ","MAREA":" ","LANE":"４０巷","ALLEY":" ","HOUSE_NO":"２１號","E_COORD97":183286.95999999999,"N_COORD97":2569066.7000000002,"ADDRESS":"七甲街４０巷２１號","OBJECTID":338293},"geometry":{"x":183286.95999999996,"y":2569066.700000003}},{"attributes":{"ID":338303,"DIS_CODE":0,"TOWNNAME":"六甲區","LI":"龍湖里","LIN":"1鄰","STREET":"七甲街","SECT":" ","MAREA":" ","LANE":"４０巷","ALLEY":" ","HOUSE_NO":"２２號","E_COORD97":183308.67000000001,"N_COORD97":2569064.5099999998,"ADDRESS":"七甲街４０巷２２號","OBJECTID":338294},"geometry":{"x":183308.66999999993,"y":2569064.5099999998}},{"attributes":{"ID":338304,"DIS_CODE":0,"TOWNNAME":"六甲區","LI":"龍湖里","LIN":"1鄰","STREET":"七甲街","SECT":" ","MAREA":" ","LANE":"４０巷","ALLEY":" ","HOUSE_NO":"２３號","E_COORD97":183288.32000000001,"N_COORD97":2569070.5800000001,"ADDRESS":"七甲街４０巷２３號","OBJECTID":338295},"geometry":{"x":183288.3200000003,"y":2569070.5800000001}},{"attributes":{"ID":338305,"DIS_CODE":0,"TOWNNAME":"六甲區","LI":"龍湖里","LIN":"1鄰","STREET":"七甲街","SECT":" ","MAREA":" ","LANE":"４０巷","ALLEY":" ","HOUSE_NO":"２５號","E_COORD97":183289.72,"N_COORD97":2569074.8300000001,"ADDRESS":"七甲街４０巷２５號","OBJECTID":338296},"geometry":{"x":183289.71999999974,"y":2569074.8300000019}},{"attributes":{"ID":338306,"DIS_CODE":0,"TOWNNAME":"六甲區","LI":"龍湖里","LIN":"1鄰","STREET":"七甲街","SECT":" ","MAREA":" ","LANE":"４０巷","ALLEY":" ","HOUSE_NO":"２７號","E_COORD97":183290.76999999999,"N_COORD97":2569079.1499999999,"ADDRESS":"七甲街４０巷２７號","OBJECTID":338297},"geometry":{"x":183290.76999999955,"y":2569079.1500000022}},{"attributes":{"ID":338307,"DIS_CODE":0,"TOWNNAME":"六甲區","LI":"龍湖里","LIN":"1鄰","STREET":"七甲街","SECT":" ","MAREA":" ","LANE":"４０巷","ALLEY":" ","HOUSE_NO":"２９號","E_COORD97":183292.20000000001,"N_COORD97":2569083.2400000002,"ADDRESS":"七甲街４０巷２９號","OBJECTID":338298},"geometry":{"x":183292.20000000019,"y":2569083.2400000002}},{"attributes":{"ID":338308,"DIS_CODE":0,"TOWNNAME":"六甲區","LI":"龍湖里","LIN":"1鄰","STREET":"七甲街","SECT":" ","MAREA":" ","LANE":"４０巷","ALLEY":" ","HOUSE_NO":"３１號","E_COORD97":183293.39000000001,"N_COORD97":2569087.2799999998,"ADDRESS":"七甲街４０巷３１號","OBJECTID":338299},"geometry":{"x":183293.38999999966,"y":2569087.2800000012}},{"attributes":{"ID":338309,"DIS_CODE":0,"TOWNNAME":"六甲區","LI":"七甲里","LIN":"1鄰","STREET":"七甲街","SECT":" ","MAREA":" ","LANE":"５１巷","ALLEY":" ","HOUSE_NO":"５１之１號","E_COORD97":183057.56,"N_COORD97":2568646.0899999999,"ADDRESS":"七甲街５１巷５１之１號","OBJECTID":338300},"geometry":{"x":183057.56000000052,"y":2568646.0900000017}},{"attributes":{"ID":338310,"DIS_CODE":0,"TOWNNAME":"六甲區","LI":"七甲里","LIN":"1鄰","STREET":"七甲街","SECT":" ","MAREA":" ","LANE":"５１巷","ALLEY":" ","HOUSE_NO":"５１之２號","E_COORD97":183052.62,"N_COORD97":2568647.4500000002,"ADDRESS":"七甲街５１巷５１之２號","OBJECTID":338301},"geometry":{"x":183052.62000000104,"y":2568647.4499999993}},{"attributes":{"ID":338311,"DIS_CODE":0,"TOWNNAME":"六甲區","LI":"七甲里","LIN":"1鄰","STREET":"七甲街","SECT":" ","MAREA":" ","LANE":"５１巷","ALLEY":" ","HOUSE_NO":"５１號","E_COORD97":183009.67000000001,"N_COORD97":2568662.3700000001,"ADDRESS":"七甲街５１巷５３號","OBJECTID":338302},"geometry":{"x":183009.67000000086,"y":2568662.3700000029}},{"attributes":{"ID":338312,"DIS_CODE":0,"TOWNNAME":"六甲區","LI":"七甲里","LIN":"1鄰","STREET":"七甲街","SECT":" ","MAREA":" ","LANE":"７５巷","ALLEY":" ","HOUSE_NO":"１１號","E_COORD97":183059.53,"N_COORD97":2568915.2400000002,"ADDRESS":"七甲街７５巷１１號","OBJECTID":338303},"geometry":{"x":183059.53000000026,"y":2568915.2400000039}},{"attributes":{"ID":338313,"DIS_CODE":0,"TOWNNAME":"六甲區","LI":"七甲里","LIN":"1鄰","STREET":"七甲街","SECT":" ","MAREA":" ","LANE":"７５巷","ALLEY":" ","HOUSE_NO":"１５號","E_COORD97":183056.45999999999,"N_COORD97":2568902.23,"ADDRESS":"七甲街７５巷１５號","OBJECTID":338304},"geometry":{"x":183056.45999999996,"y":2568902.2300000023}},{"attributes":{"ID":338314,"DIS_CODE":0,"TOWNNAME":"六甲區","LI":"七甲里","LIN":"1鄰","STREET":"七甲街","SECT":" ","MAREA":" ","LANE":"７５巷","ALLEY":" ","HOUSE_NO":"１號","E_COORD97":183050.16,"N_COORD97":2568978.2400000002,"ADDRESS":"七甲街７５巷１號","OBJECTID":338305},"geometry":{"x":183050.16000000015,"y":2568978.2400000002}},{"attributes":{"ID":338315,"DIS_CODE":0,"TOWNNAME":"六甲區","LI":"七甲里","LIN":"1鄰","STREET":"七甲街","SECT":" ","MAREA":" ","LANE":"７５巷","ALLEY":" ","HOUSE_NO":"２號","E_COORD97":183082.32999999999,"N_COORD97":2568970.7000000002,"ADDRESS":"七甲街７５巷２號","OBJECTID":338306},"geometry":{"x":183082.33000000007,"y":2568970.6999999993}},{"attributes":{"ID":338316,"DIS_CODE":0,"TOWNNAME":"六甲區","LI":"七甲里","LIN":"1鄰","STREET":"七甲街","SECT":" ","MAREA":" ","LANE":"７５巷","ALLEY":" ","HOUSE_NO":"３號","E_COORD97":183080.72,"N_COORD97":2568950.1699999999,"ADDRESS":"七甲街７５巷３號","OBJECTID":338307},"geometry":{"x":183080.72000000067,"y":2568950.1700000018}},{"attributes":{"ID":338317,"DIS_CODE":0,"TOWNNAME":"六甲區","LI":"七甲里","LIN":"1鄰","STREET":"七甲街","SECT":" ","MAREA":" ","LANE":"８９巷","ALLEY":" ","HOUSE_NO":"１０號之１","E_COORD97":182996.26999999999,"N_COORD97":2568950.98,"ADDRESS":"七甲街８９巷１０號之１","OBJECTID":338308},"geometry":{"x":182996.26999999955,"y":2568950.9800000042}},{"attributes":{"ID":338318,"DIS_CODE":0,"TOWNNAME":"六甲區","LI":"七甲里","LIN":"1鄰","STREET":"七甲街","SECT":" ","MAREA":" ","LANE":"８９巷","ALLEY":" ","HOUSE_NO":"１０號之３","E_COORD97":182993.66,"N_COORD97":2568942.8700000001,"ADDRESS":"七甲街８９巷１０號之３","OBJECTID":338309},"geometry":{"x":182993.66000000015,"y":2568942.8700000029}},{"attributes":{"ID":338319,"DIS_CODE":0,"TOWNNAME":"六甲區","LI":"七甲里","LIN":"1鄰","STREET":"七甲街","SECT":" ","MAREA":" ","LANE":"８９巷","ALLEY":" ","HOUSE_NO":"１０號之５","E_COORD97":182992.59,"N_COORD97":2568938.79,"ADDRESS":"七甲街８９巷１０號之５","OBJECTID":338310},"geometry":{"x":182992.58999999985,"y":2568938.790000001}},{"attributes":{"ID":338320,"DIS_CODE":0,"TOWNNAME":"六甲區","LI":"七甲里","LIN":"1鄰","STREET":"七甲街","SECT":" ","MAREA":" ","LANE":"８９巷","ALLEY":" ","HOUSE_NO":"１０號","E_COORD97":182997.75,"N_COORD97":2568954.9500000002,"ADDRESS":"七甲街８９巷１０號","OBJECTID":338311},"geometry":{"x":182997.75000000093,"y":2568954.9499999993}},{"attributes":{"ID":338321,"DIS_CODE":0,"TOWNNAME":"六甲區","LI":"七甲里","LIN":"1鄰","STREET":"七甲街","SECT":" ","MAREA":" ","LANE":"８９巷","ALLEY":" ","HOUSE_NO":"１１號","E_COORD97":183029.28,"N_COORD97":2568973.52,"ADDRESS":"七甲街８９巷１１號","OBJECTID":338312},"geometry":{"x":183029.28000000212,"y":2568973.5200000033}},{"attributes":{"ID":338322,"DIS_CODE":0,"TOWNNAME":"六甲區","LI":"七甲里","LIN":"1鄰","STREET":"七甲街","SECT":" ","MAREA":" ","LANE":"８９巷","ALLEY":" ","HOUSE_NO":"１２號之１","E_COORD97":182990.87,"N_COORD97":2568931.1499999999,"ADDRESS":"七甲街８９巷１２號之１","OBJECTID":338313},"geometry":{"x":182990.87000000011,"y":2568931.1500000004}},{"attributes":{"ID":338323,"DIS_CODE":0,"TOWNNAME":"六甲區","LI":"七甲里","LIN":"1鄰","STREET":"七甲街","SECT":" ","MAREA":" ","LANE":"８９巷","ALLEY":" ","HOUSE_NO":"１２號之２","E_COORD97":182990.09,"N_COORD97":2568927.4900000002,"ADDRESS":"七甲街８９巷１２號之２","OBJECTID":338314},"geometry":{"x":182990.09000000078,"y":2568927.4900000021}},{"attributes":{"ID":338324,"DIS_CODE":0,"TOWNNAME":"六甲區","LI":"七甲里","LIN":"1鄰","STREET":"七甲街","SECT":" ","MAREA":" ","LANE":"８９巷","ALLEY":" ","HOUSE_NO":"１２之３號","E_COORD97":182989.20000000001,"N_COORD97":2568923.5299999998,"ADDRESS":"七甲街８９巷１２之３號","OBJECTID":338315},"geometry":{"x":182989.20000000205,"y":2568923.5300000012}},{"attributes":{"ID":338325,"DIS_CODE":0,"TOWNNAME":"六甲區","LI":"七甲里","LIN":"1鄰","STREET":"七甲街","SECT":" ","MAREA":" ","LANE":"８９巷","ALLEY":" ","HOUSE_NO":"１２號","E_COORD97":182991.76999999999,"N_COORD97":2568935.02,"ADDRESS":"七甲街８９巷１２號","OBJECTID":338316},"geometry":{"x":182991.77000000048,"y":2568935.0199999996}},{"attributes":{"ID":338326,"DIS_CODE":0,"TOWNNAME":"六甲區","LI":"七甲里","LIN":"1鄰","STREET":"七甲街","SECT":" ","MAREA":" ","LANE":"８９巷","ALLEY":" ","HOUSE_NO":"１３號","E_COORD97":183028.5,"N_COORD97":2568958.4700000002,"ADDRESS":"七甲街８９巷１３號","OBJECTID":338317},"geometry":{"x":183028.5,"y":2568958.4700000025}},{"attributes":{"ID":338327,"DIS_CODE":0,"TOWNNAME":"六甲區","LI":"七甲里","LIN":"1鄰","STREET":"七甲街","SECT":" ","MAREA":" ","LANE":"８９巷","ALLEY":" ","HOUSE_NO":"１４號之１","E_COORD97":182973.67000000001,"N_COORD97":2568912.2200000002,"ADDRESS":"七甲街８９巷１４號之１","OBJECTID":338318},"geometry":{"x":182973.66999999899,"y":2568912.2200000044}},{"attributes":{"ID":338328,"DIS_CODE":0,"TOWNNAME":"六甲區","LI":"七甲里","LIN":"1鄰","STREET":"七甲街","SECT":" ","MAREA":" ","LANE":"８９巷","ALLEY":" ","HOUSE_NO":"１４號","E_COORD97":182991.32000000001,"N_COORD97":2568906.4500000002,"ADDRESS":"七甲街８９巷１４號","OBJECTID":338319},"geometry":{"x":182991.3200000003,"y":2568906.4500000011}},{"attributes":{"ID":338329,"DIS_CODE":0,"TOWNNAME":"六甲區","LI":"七甲里","LIN":"1鄰","STREET":"七甲街","SECT":" ","MAREA":" ","LANE":"８９巷","ALLEY":" ","HOUSE_NO":"１５號","E_COORD97":183044.38,"N_COORD97":2568959.0600000001,"ADDRESS":"七甲街８９巷１５號","OBJECTID":338320},"geometry":{"x":183044.37999999989,"y":2568959.0600000005}},{"attributes":{"ID":338330,"DIS_CODE":0,"TOWNNAME":"六甲區","LI":"七甲里","LIN":"1鄰","STREET":"七甲街","SECT":" ","MAREA":" ","LANE":"８９巷","ALLEY":" ","HOUSE_NO":"１６號","E_COORD97":182967.17000000001,"N_COORD97":2568888.1099999999,"ADDRESS":"七甲街８９巷１６號","OBJECTID":338321},"geometry":{"x":182967.17000000086,"y":2568888.1100000031}},{"attributes":{"ID":338331,"DIS_CODE":0,"TOWNNAME":"六甲區","LI":"七甲里","LIN":"1鄰","STREET":"七甲街","SECT":" ","MAREA":" ","LANE":"８９巷","ALLEY":" ","HOUSE_NO":"１７號","E_COORD97":183024.69,"N_COORD97":2568941.5600000001,"ADDRESS":"七甲街８９巷１７號","OBJECTID":338322},"geometry":{"x":183024.69000000041,"y":2568941.5600000024}},{"attributes":{"ID":338332,"DIS_CODE":0,"TOWNNAME":"六甲區","LI":"七甲里","LIN":"1鄰","STREET":"七甲街","SECT":" ","MAREA":" ","LANE":"８９巷","ALLEY":" ","HOUSE_NO":"１９之１號","E_COORD97":183022.82000000001,"N_COORD97":2568923.1099999999,"ADDRESS":"七甲街８９巷１９之１號","OBJECTID":338323},"geometry":{"x":183022.82000000123,"y":2568923.1100000013}},{"attributes":{"ID":338333,"DIS_CODE":0,"TOWNNAME":"六甲區","LI":"七甲里","LIN":"1鄰","STREET":"七甲街","SECT":" ","MAREA":" ","LANE":"８９巷","ALLEY":" ","HOUSE_NO":"１９號","E_COORD97":183023.98999999999,"N_COORD97":2568927.4900000002,"ADDRESS":"七甲街８９巷１９號","OBJECTID":338324},"geometry":{"x":183023.99000000022,"y":2568927.4900000021}},{"attributes":{"ID":338334,"DIS_CODE":0,"TOWNNAME":"六甲區","LI":"七甲里","LIN":"1鄰","STREET":"七甲街","SECT":" ","MAREA":" ","LANE":"８９巷","ALLEY":" ","HOUSE_NO":"１號","E_COORD97":183032.47,"N_COORD97":2568990.8399999999,"ADDRESS":"七甲街８９巷１號","OBJECTID":338325},"geometry":{"x":183032.46999999881,"y":2568990.8399999999}},{"attributes":{"ID":338335,"DIS_CODE":0,"TOWNNAME":"六甲區","LI":"七甲里","LIN":"1鄰","STREET":"七甲街","SECT":" ","MAREA":" ","LANE":"８９巷","ALLEY":" ","HOUSE_NO":"２０號","E_COORD97":182975.39999999999,"N_COORD97":2568886.52,"ADDRESS":"七甲街８９巷２０號","OBJECTID":338326},"geometry":{"x":182975.40000000037,"y":2568886.5200000014}},{"attributes":{"ID":338336,"DIS_CODE":0,"TOWNNAME":"六甲區","LI":"七甲里","LIN":"1鄰","STREET":"七甲街","SECT":" ","MAREA":" ","LANE":"８９巷","ALLEY":" ","HOUSE_NO":"２１號","E_COORD97":183019.63,"N_COORD97":2568915.6600000001,"ADDRESS":"七甲街８９巷２１號","OBJECTID":338327},"geometry":{"x":183019.62999999989,"y":2568915.6600000039}},{"attributes":{"ID":338337,"DIS_CODE":0,"TOWNNAME":"六甲區","LI":"七甲里","LIN":"1鄰","STREET":"七甲街","SECT":" ","MAREA":" ","LANE":"８９巷","ALLEY":" ","HOUSE_NO":"２３號","E_COORD97":183011.75,"N_COORD97":2568902.3100000001,"ADDRESS":"七甲街８９巷２３號","OBJECTID":338328},"geometry":{"x":183011.75,"y":2568902.3100000024}},{"attributes":{"ID":338338,"DIS_CODE":0,"TOWNNAME":"六甲區","LI":"七甲里","LIN":"1鄰","STREET":"七甲街","SECT":" ","MAREA":" ","LANE":"８９巷","ALLEY":" ","HOUSE_NO":"２５號","E_COORD97":183007.26999999999,"N_COORD97":2568879.6499999999,"ADDRESS":"七甲街８９巷２５號","OBJECTID":338329},"geometry":{"x":183007.27000000048,"y":2568879.6500000022}},{"attributes":{"ID":338339,"DIS_CODE":0,"TOWNNAME":"六甲區","LI":"七甲里","LIN":"1鄰","STREET":"七甲街","SECT":" ","MAREA":" ","LANE":"８９巷","ALLEY":" ","HOUSE_NO":"２６號","E_COORD97":182978.13,"N_COORD97":2568870.8900000001,"ADDRESS":"七甲街８９巷２６號","OBJECTID":338330},"geometry":{"x":182978.13000000082,"y":2568870.8900000025}},{"attributes":{"ID":338340,"DIS_CODE":0,"TOWNNAME":"六甲區","LI":"七甲里","LIN":"1鄰","STREET":"七甲街","SECT":" ","MAREA":" ","LANE":"８９巷","ALLEY":" ","HOUSE_NO":"２７號","E_COORD97":183003.60999999999,"N_COORD97":2568829.5899999999,"ADDRESS":"七甲街８９巷２７號","OBJECTID":338331},"geometry":{"x":183003.61000000127,"y":2568829.5899999999}},{"attributes":{"ID":338341,"DIS_CODE":0,"TOWNNAME":"六甲區","LI":"七甲里","LIN":"1鄰","STREET":"七甲街","SECT":" ","MAREA":" ","LANE":"８９巷","ALLEY":" ","HOUSE_NO":"２８號","E_COORD97":182977.56,"N_COORD97":2568866.0600000001,"ADDRESS":"七甲街８９巷２８號","OBJECTID":338332},"geometry":{"x":182977.56000000145,"y":2568866.0600000024}},{"attributes":{"ID":338342,"DIS_CODE":0,"TOWNNAME":"六甲區","LI":"七甲里","LIN":"1鄰","STREET":"七甲街","SECT":" ","MAREA":" ","LANE":"８９巷","ALLEY":" ","HOUSE_NO":"２９號","E_COORD97":182992.10999999999,"N_COORD97":2568800.3799999999,"ADDRESS":"七甲街８９巷２９號","OBJECTID":338333},"geometry":{"x":182992.11000000127,"y":2568800.379999999}},{"attributes":{"ID":338343,"DIS_CODE":0,"TOWNNAME":"六甲區","LI":"七甲里","LIN":"1鄰","STREET":"七甲街","SECT":" ","MAREA":" ","LANE":"８９巷","ALLEY":" ","HOUSE_NO":"３０號","E_COORD97":182976.63,"N_COORD97":2568861.3100000001,"ADDRESS":"七甲街８９巷３０號","OBJECTID":338334},"geometry":{"x":182976.62999999989,"y":2568861.3100000024}},{"attributes":{"ID":338344,"DIS_CODE":0,"TOWNNAME":"六甲區","LI":"七甲里","LIN":"1鄰","STREET":"七甲街","SECT":" ","MAREA":" ","LANE":"８９巷","ALLEY":" ","HOUSE_NO":"３１號之２","E_COORD97":182986.41,"N_COORD97":2568774.5499999998,"ADDRESS":"七甲街８９巷３１號之１","OBJECTID":338335},"geometry":{"x":182986.41000000108,"y":2568774.5500000045}},{"attributes":{"ID":338345,"DIS_CODE":0,"TOWNNAME":"六甲區","LI":"七甲里","LIN":"1鄰","STREET":"七甲街","SECT":" ","MAREA":" ","LANE":"８９巷","ALLEY":" ","HOUSE_NO":"３１號之１","E_COORD97":182981.07000000001,"N_COORD97":2568775.4700000002,"ADDRESS":"七甲街８９巷３１號","OBJECTID":338336},"geometry":{"x":182981.0700000003,"y":2568775.4700000025}},{"attributes":{"ID":338346,"DIS_CODE":0,"TOWNNAME":"六甲區","LI":"七甲里","LIN":"1鄰","STREET":"七甲街","SECT":" ","MAREA":" ","LANE":"８９巷","ALLEY":" ","HOUSE_NO":"３２號","E_COORD97":182976.32999999999,"N_COORD97":2568856.1000000001,"ADDRESS":"七甲街８９巷３２號","OBJECTID":338337},"geometry":{"x":182976.33000000194,"y":2568856.0999999996}},{"attributes":{"ID":338347,"DIS_CODE":0,"TOWNNAME":"六甲區","LI":"七甲里","LIN":"1鄰","STREET":"七甲街","SECT":" ","MAREA":" ","LANE":"８９巷","ALLEY":" ","HOUSE_NO":"３３號","E_COORD97":182938.95000000001,"N_COORD97":2568690,"ADDRESS":"七甲街８９巷３３號","OBJECTID":338338},"geometry":{"x":182938.95000000112,"y":2568690.0000000019}},{"attributes":{"ID":338348,"DIS_CODE":0,"TOWNNAME":"鹽水區","LI":"義稠里","LIN":"5鄰","STREET":" ","SECT":" ","MAREA":"義稠","LANE":" ","ALLEY":" ","HOUSE_NO":"６５號之１一樓之１","E_COORD97":174072.51999999999,"N_COORD97":2580624.0600000001,"ADDRESS":"義稠６５號之１一樓之１","OBJECTID":338339},"geometry":{"x":174072.51999999955,"y":2580624.0600000024}},{"attributes":{"ID":338349,"DIS_CODE":0,"TOWNNAME":"鹽水區","LI":"義稠里","LIN":"5鄰","STREET":" ","SECT":" ","MAREA":"義稠","LANE":" ","ALLEY":" ","HOUSE_NO":"６５號之１二樓之１","E_COORD97":174072.51999999999,"N_COORD97":2580624.0600000001,"ADDRESS":"義稠６５號之１二樓之１","OBJECTID":338340},"geometry":{"x":174072.51999999955,"y":2580624.0600000024}},{"attributes":{"ID":338350,"DIS_CODE":0,"TOWNNAME":"鹽水區","LI":"義稠里","LIN":"5鄰","STREET":" ","SECT":" ","MAREA":"義稠","LANE":" ","ALLEY":" ","HOUSE_NO":"６５號之１二樓之２","E_COORD97":174072.51999999999,"N_COORD97":2580624.0600000001,"ADDRESS":"義稠６５號之１二樓之２","OBJECTID":338341},"geometry":{"x":174072.51999999955,"y":2580624.0600000024}},{"attributes":{"ID":338351,"DIS_CODE":0,"TOWNNAME":"鹽水區","LI":"義稠里","LIN":"5鄰","STREET":" ","SECT":" ","MAREA":"義稠","LANE":" ","ALLEY":" ","HOUSE_NO":"６５號之１三樓之１","E_COORD97":174072.51999999999,"N_COORD97":2580624.0600000001,"ADDRESS":"義稠６５號之１三樓之１","OBJECTID":338342},"geometry":{"x":174072.51999999955,"y":2580624.0600000024}},{"attributes":{"ID":338352,"DIS_CODE":0,"TOWNNAME":"鹽水區","LI":"義稠里","LIN":"5鄰","STREET":" ","SECT":" ","MAREA":"義稠","LANE":" ","ALLEY":" ","HOUSE_NO":"６５號之１三樓之２","E_COORD97":174072.51999999999,"N_COORD97":2580624.0600000001,"ADDRESS":"義稠６５號之１三樓之２","OBJECTID":338343},"geometry":{"x":174072.51999999955,"y":2580624.0600000024}},{"attributes":{"ID":338353,"DIS_CODE":0,"TOWNNAME":"將軍區","LI":"西華里","LIN":"3鄰","STREET":" ","SECT":" ","MAREA":"西華","LANE":" ","ALLEY":" ","HOUSE_NO":"５８號","E_COORD97":163776.23000000001,"N_COORD97":2566209.0099999998,"ADDRESS":"西華５８號","OBJECTID":338344},"geometry":{"x":163776.23000000138,"y":2566209.0099999998}},{"attributes":{"ID":338354,"DIS_CODE":0,"TOWNNAME":"六甲區","LI":"七甲里","LIN":"1鄰","STREET":"七甲街","SECT":" ","MAREA":" ","LANE":"８９巷","ALLEY":" ","HOUSE_NO":"７號","E_COORD97":183030.76000000001,"N_COORD97":2568980.7599999998,"ADDRESS":"七甲街８９巷７號","OBJECTID":338345},"geometry":{"x":183030.76000000164,"y":2568980.7599999998}},{"attributes":{"ID":338355,"DIS_CODE":0,"TOWNNAME":"六甲區","LI":"七甲里","LIN":"1鄰","STREET":"七甲街","SECT":" ","MAREA":" ","LANE":"８９巷","ALLEY":" ","HOUSE_NO":"８號","E_COORD97":182996.07999999999,"N_COORD97":2568968.6600000001,"ADDRESS":"七甲街８９巷８號","OBJECTID":338346},"geometry":{"x":182996.08000000007,"y":2568968.6600000001}},{"attributes":{"ID":338356,"DIS_CODE":0,"TOWNNAME":"六甲區","LI":"七甲里","LIN":"1鄰","STREET":"七甲街","SECT":" ","MAREA":" ","LANE":"８９巷","ALLEY":" ","HOUSE_NO":"９號","E_COORD97":183029.92999999999,"N_COORD97":2568977.7200000002,"ADDRESS":"七甲街８９巷９號","OBJECTID":338347},"geometry":{"x":183029.93000000063,"y":2568977.7200000025}},{"attributes":{"ID":338357,"DIS_CODE":0,"TOWNNAME":"南區","LI":"喜東里","LIN":"1鄰","STREET":"明興路","SECT":" ","MAREA":" ","LANE":"３２１巷","ALLEY":" ","HOUSE_NO":"６０號","E_COORD97":166741.37,"N_COORD97":2538814.6099999999,"ADDRESS":"明興路３２１巷６０號","OBJECTID":338348},"geometry":{"x":166741.37000000104,"y":2538814.6099999994}},{"attributes":{"ID":338358,"DIS_CODE":0,"TOWNNAME":"南區","LI":"大恩里","LIN":"1鄰","STREET":"大同路","SECT":"二段","MAREA":" ","LANE":"６４０巷","ALLEY":" ","HOUSE_NO":"２９號","E_COORD97":169443.12,"N_COORD97":2541023.5600000001,"ADDRESS":"大同路二段６４０巷２９號","OBJECTID":338349},"geometry":{"x":169443.12000000011,"y":2541023.5600000005}},{"attributes":{"ID":338359,"DIS_CODE":0,"TOWNNAME":"南區","LI":"新生里","LIN":"1鄰","STREET":"大林路","SECT":" ","MAREA":" ","LANE":"３２巷","ALLEY":" ","HOUSE_NO":"１０１號","E_COORD97":168865.44,"N_COORD97":2541807.9199999999,"ADDRESS":"大林路３２巷１０１號","OBJECTID":338350},"geometry":{"x":168865.44000000134,"y":2541807.9200000018}},{"attributes":{"ID":338360,"DIS_CODE":0,"TOWNNAME":"南區","LI":"明德里","LIN":"1鄰","STREET":"大成路","SECT":"一段","MAREA":" ","LANE":"１６８巷","ALLEY":" ","HOUSE_NO":"２０號","E_COORD97":167879.51000000001,"N_COORD97":2541796.6600000001,"ADDRESS":"大成路一段１６８巷２０號","OBJECTID":338351},"geometry":{"x":167879.51000000071,"y":2541796.660000002}},{"attributes":{"ID":338361,"DIS_CODE":0,"TOWNNAME":"北區","LI":"文元里","LIN":"1鄰","STREET":"文賢路","SECT":" ","MAREA":" ","LANE":"１１２２巷","ALLEY":" ","HOUSE_NO":"１０４號","E_COORD97":167857.59,"N_COORD97":2546476.04,"ADDRESS":"文賢路１１２２巷１０４號","OBJECTID":338352},"geometry":{"x":167857.58999999985,"y":2546476.0399999991}},{"attributes":{"ID":338362,"DIS_CODE":0,"TOWNNAME":"北區","LI":"文元里","LIN":"1鄰","STREET":"文賢路","SECT":" ","MAREA":" ","LANE":"１１２２巷","ALLEY":" ","HOUSE_NO":"１０６號","E_COORD97":167862.01000000001,"N_COORD97":2546479.29,"ADDRESS":"文賢路１１２２巷１０６號","OBJECTID":338353},"geometry":{"x":167862.00999999885,"y":2546479.2900000028}},{"attributes":{"ID":338363,"DIS_CODE":0,"TOWNNAME":"北區","LI":"文元里","LIN":"1鄰","STREET":"文賢三街","SECT":" ","MAREA":" ","LANE":"３５２巷","ALLEY":" ","HOUSE_NO":"１號","E_COORD97":167818.01000000001,"N_COORD97":2546397.8500000001,"ADDRESS":"文賢三街３５２巷１號","OBJECTID":338354},"geometry":{"x":167818.01000000164,"y":2546397.8499999996}},{"attributes":{"ID":338364,"DIS_CODE":0,"TOWNNAME":"北區","LI":"文元里","LIN":"1鄰","STREET":"文賢三街","SECT":" ","MAREA":" ","LANE":"３５２巷","ALLEY":" ","HOUSE_NO":"２號","E_COORD97":167818.39000000001,"N_COORD97":2546392,"ADDRESS":"文賢三街３５２巷２號","OBJECTID":338355},"geometry":{"x":167818.38999999966,"y":2546392.0000000019}},{"attributes":{"ID":338365,"DIS_CODE":0,"TOWNNAME":"北區","LI":"文元里","LIN":"1鄰","STREET":"文賢三街","SECT":" ","MAREA":" ","LANE":"３５２巷","ALLEY":" ","HOUSE_NO":"３號","E_COORD97":167823.20999999999,"N_COORD97":2546398.23,"ADDRESS":"文賢三街３５２巷３號","OBJECTID":338356},"geometry":{"x":167823.20999999996,"y":2546398.2300000004}},{"attributes":{"ID":338366,"DIS_CODE":0,"TOWNNAME":"北區","LI":"文元里","LIN":"1鄰","STREET":"文賢三街","SECT":" ","MAREA":" ","LANE":"３５２巷","ALLEY":" ","HOUSE_NO":"５號","E_COORD97":167828.29000000001,"N_COORD97":2546398.6099999999,"ADDRESS":"文賢三街３５２巷５號","OBJECTID":338357},"geometry":{"x":167828.2900000019,"y":2546398.6099999994}},{"attributes":{"ID":338367,"DIS_CODE":0,"TOWNNAME":"北區","LI":"文元里","LIN":"1鄰","STREET":"文賢三街","SECT":" ","MAREA":" ","LANE":"３５２巷","ALLEY":" ","HOUSE_NO":"６號","E_COORD97":167823.59,"N_COORD97":2546392.3900000001,"ADDRESS":"文賢三街３５２巷６號","OBJECTID":338358},"geometry":{"x":167823.58999999985,"y":2546392.3900000025}},{"attributes":{"ID":338368,"DIS_CODE":0,"TOWNNAME":"北區","LI":"文元里","LIN":"1鄰","STREET":"文賢三街","SECT":" ","MAREA":" ","LANE":"３５２巷","ALLEY":" ","HOUSE_NO":"７號","E_COORD97":167832.73999999999,"N_COORD97":2546398.8599999999,"ADDRESS":"文賢三街３５２巷７號","OBJECTID":338359},"geometry":{"x":167832.74000000115,"y":2546398.8600000013}},{"attributes":{"ID":338369,"DIS_CODE":0,"TOWNNAME":"北區","LI":"文元里","LIN":"1鄰","STREET":"文賢三街","SECT":" ","MAREA":" ","LANE":"３５２巷","ALLEY":" ","HOUSE_NO":"８號","E_COORD97":167828.54999999999,"N_COORD97":2546392.77,"ADDRESS":"文賢三街３５２巷８號","OBJECTID":338360},"geometry":{"x":167828.55000000075,"y":2546392.7700000014}},{"attributes":{"ID":338370,"DIS_CODE":0,"TOWNNAME":"北區","LI":"文元里","LIN":"1鄰","STREET":"文賢三街","SECT":" ","MAREA":" ","LANE":"３５２巷","ALLEY":" ","HOUSE_NO":"１０號","E_COORD97":167833.25,"N_COORD97":2546392.8900000001,"ADDRESS":"文賢三街３５２巷１０號","OBJECTID":338361},"geometry":{"x":167833.25,"y":2546392.8900000025}},{"attributes":{"ID":338371,"DIS_CODE":0,"TOWNNAME":"北區","LI":"文元里","LIN":"1鄰","STREET":"文賢路","SECT":" ","MAREA":" ","LANE":"１１２２巷","ALLEY":" ","HOUSE_NO":"１５３之１號","E_COORD97":167788.26000000001,"N_COORD97":2546429.6699999999,"ADDRESS":"文賢路１１２２巷１５３之１號","OBJECTID":338362},"geometry":{"x":167788.26000000071,"y":2546429.6699999999}},{"attributes":{"ID":338372,"DIS_CODE":0,"TOWNNAME":"北區","LI":"大和里","LIN":"1鄰","STREET":"文賢路","SECT":" ","MAREA":" ","LANE":"６２７巷","ALLEY":" ","HOUSE_NO":"１１號","E_COORD97":167307.25,"N_COORD97":2545967.3700000001,"ADDRESS":"文賢路６２７巷１１號","OBJECTID":338363},"geometry":{"x":167307.25,"y":2545967.370000001}},{"attributes":{"ID":338373,"DIS_CODE":0,"TOWNNAME":"北區","LI":"大和里","LIN":"1鄰","STREET":"文賢路","SECT":" ","MAREA":" ","LANE":"６２７巷","ALLEY":" ","HOUSE_NO":"１６號","E_COORD97":167307,"N_COORD97":2545982.6099999999,"ADDRESS":"文賢路６２７巷１６號","OBJECTID":338364},"geometry":{"x":167307.00000000093,"y":2545982.6100000031}},{"attributes":{"ID":338374,"DIS_CODE":0,"TOWNNAME":"北區","LI":"大和里","LIN":"1鄰","STREET":"文賢路","SECT":" ","MAREA":" ","LANE":"６２７巷","ALLEY":" ","HOUSE_NO":"３號","E_COORD97":167330.23999999999,"N_COORD97":2545968.3799999999,"ADDRESS":"文賢路６２７巷３號","OBJECTID":338365},"geometry":{"x":167330.24000000022,"y":2545968.379999999}},{"attributes":{"ID":338375,"DIS_CODE":0,"TOWNNAME":"北區","LI":"大和里","LIN":"1鄰","STREET":"文賢路","SECT":" ","MAREA":" ","LANE":"６２７巷","ALLEY":" ","HOUSE_NO":"５號","E_COORD97":167324.64999999999,"N_COORD97":2545968.1299999999,"ADDRESS":"文賢路６２７巷５號","OBJECTID":338366},"geometry":{"x":167324.6500000013,"y":2545968.1299999971}},{"attributes":{"ID":338376,"DIS_CODE":0,"TOWNNAME":"北區","LI":"大和里","LIN":"1鄰","STREET":"文賢路","SECT":" ","MAREA":" ","LANE":"６２７巷","ALLEY":" ","HOUSE_NO":"７號","E_COORD97":167319.06,"N_COORD97":2545967.8799999999,"ADDRESS":"文賢路６２７巷７號","OBJECTID":338367},"geometry":{"x":167319.06000000145,"y":2545967.8800000008}},{"attributes":{"ID":338377,"DIS_CODE":0,"TOWNNAME":"北區","LI":"大和里","LIN":"1鄰","STREET":"文賢路","SECT":" ","MAREA":" ","LANE":"６２７巷","ALLEY":" ","HOUSE_NO":"９號","E_COORD97":167313.09,"N_COORD97":2545967.75,"ADDRESS":"文賢路６２７巷９號","OBJECTID":338368},"geometry":{"x":167313.09000000078,"y":2545967.75}},{"attributes":{"ID":338378,"DIS_CODE":0,"TOWNNAME":"北區","LI":"大和里","LIN":"1鄰","STREET":"文賢路","SECT":" ","MAREA":" ","LANE":"６２７巷","ALLEY":" ","HOUSE_NO":"１３號","E_COORD97":167293.16,"N_COORD97":2545967.4900000002,"ADDRESS":"文賢路６２７巷１３號","OBJECTID":338369},"geometry":{"x":167293.16000000015,"y":2545967.4900000039}},{"attributes":{"ID":338379,"DIS_CODE":0,"TOWNNAME":"北區","LI":"大和里","LIN":"1鄰","STREET":"文賢路","SECT":" ","MAREA":" ","LANE":"６２７巷","ALLEY":" ","HOUSE_NO":"１５號","E_COORD97":167288.20000000001,"N_COORD97":2545967.4900000002,"ADDRESS":"文賢路６２７巷１５號","OBJECTID":338370},"geometry":{"x":167288.20000000205,"y":2545967.4900000039}},{"attributes":{"ID":338380,"DIS_CODE":0,"TOWNNAME":"北區","LI":"大和里","LIN":"1鄰","STREET":"文賢路","SECT":" ","MAREA":" ","LANE":"６２７巷","ALLEY":" ","HOUSE_NO":"１７號","E_COORD97":167283.12,"N_COORD97":2545967.4900000002,"ADDRESS":"文賢路６２７巷１７號","OBJECTID":338371},"geometry":{"x":167283.12000000011,"y":2545967.4900000039}},{"attributes":{"ID":338381,"DIS_CODE":0,"TOWNNAME":"北區","LI":"大和里","LIN":"1鄰","STREET":"文賢路","SECT":" ","MAREA":" ","LANE":"６２７巷","ALLEY":" ","HOUSE_NO":"１９號","E_COORD97":167277.92000000001,"N_COORD97":2545967.4900000002,"ADDRESS":"文賢路６２７巷１９號","OBJECTID":338372},"geometry":{"x":167277.91999999899,"y":2545967.4900000039}},{"attributes":{"ID":338382,"DIS_CODE":0,"TOWNNAME":"北區","LI":"大和里","LIN":"1鄰","STREET":"文賢路","SECT":" ","MAREA":" ","LANE":"６２７巷","ALLEY":" ","HOUSE_NO":"６號","E_COORD97":167329.73000000001,"N_COORD97":2545983.2400000002,"ADDRESS":"文賢路６２７巷６號","OBJECTID":338373},"geometry":{"x":167329.73000000138,"y":2545983.2400000021}},{"attributes":{"ID":338383,"DIS_CODE":0,"TOWNNAME":"北區","LI":"大和里","LIN":"1鄰","STREET":"文賢路","SECT":" ","MAREA":" ","LANE":"６２７巷","ALLEY":" ","HOUSE_NO":"８號","E_COORD97":167324.01999999999,"N_COORD97":2545983.1200000001,"ADDRESS":"文賢路６２７巷８號","OBJECTID":338374},"geometry":{"x":167324.01999999955,"y":2545983.120000001}},{"attributes":{"ID":338384,"DIS_CODE":0,"TOWNNAME":"北區","LI":"大和里","LIN":"1鄰","STREET":"文賢路","SECT":" ","MAREA":" ","LANE":"６２７巷","ALLEY":" ","HOUSE_NO":"１０號","E_COORD97":167318.67999999999,"N_COORD97":2545982.9900000002,"ADDRESS":"文賢路６２７巷１０號","OBJECTID":338375},"geometry":{"x":167318.68000000063,"y":2545982.9900000002}},{"attributes":{"ID":338385,"DIS_CODE":0,"TOWNNAME":"北區","LI":"大和里","LIN":"1鄰","STREET":"文賢路","SECT":" ","MAREA":" ","LANE":"６２７巷","ALLEY":" ","HOUSE_NO":"１２號","E_COORD97":167312.97,"N_COORD97":2545982.8599999999,"ADDRESS":"文賢路６２７巷１２號","OBJECTID":338376},"geometry":{"x":167312.96999999881,"y":2545982.8599999994}},{"attributes":{"ID":338386,"DIS_CODE":0,"TOWNNAME":"北區","LI":"大和里","LIN":"1鄰","STREET":"文賢路","SECT":" ","MAREA":" ","LANE":"６２７巷","ALLEY":" ","HOUSE_NO":"１８號","E_COORD97":167292.51999999999,"N_COORD97":2545982.1000000001,"ADDRESS":"文賢路６２７巷１８號","OBJECTID":338377},"geometry":{"x":167292.52000000048,"y":2545982.0999999996}},{"attributes":{"ID":338387,"DIS_CODE":0,"TOWNNAME":"北區","LI":"大和里","LIN":"1鄰","STREET":"文賢路","SECT":" ","MAREA":" ","LANE":"６２７巷","ALLEY":" ","HOUSE_NO":"２０號","E_COORD97":167287.82000000001,"N_COORD97":2545981.9700000002,"ADDRESS":"文賢路６２７巷２０號","OBJECTID":338378},"geometry":{"x":167287.82000000123,"y":2545981.9700000025}},{"attributes":{"ID":338388,"DIS_CODE":0,"TOWNNAME":"北區","LI":"大和里","LIN":"1鄰","STREET":"文賢路","SECT":" ","MAREA":" ","LANE":"６２７巷","ALLEY":" ","HOUSE_NO":"２２號","E_COORD97":167282.23000000001,"N_COORD97":2545981.9700000002,"ADDRESS":"文賢路６２７巷２２號","OBJECTID":338379},"geometry":{"x":167282.23000000138,"y":2545981.9700000025}},{"attributes":{"ID":338389,"DIS_CODE":0,"TOWNNAME":"北區","LI":"大和里","LIN":"1鄰","STREET":"文賢路","SECT":" ","MAREA":" ","LANE":"６２７巷","ALLEY":" ","HOUSE_NO":"２６號","E_COORD97":167276.64999999999,"N_COORD97":2545981.9700000002,"ADDRESS":"文賢路６２７巷２６號","OBJECTID":338380},"geometry":{"x":167276.65000000037,"y":2545981.9700000025}},{"attributes":{"ID":338390,"DIS_CODE":0,"TOWNNAME":"北區","LI":"文元里","LIN":"1鄰","STREET":"北成路","SECT":" ","MAREA":" ","LANE":"４８１巷","ALLEY":" ","HOUSE_NO":"８號","E_COORD97":167820.78,"N_COORD97":2546517.27,"ADDRESS":"北成路４８１巷８號","OBJECTID":338381},"geometry":{"x":167820.78000000119,"y":2546517.2700000033}},{"attributes":{"ID":338391,"DIS_CODE":0,"TOWNNAME":"北區","LI":"文元里","LIN":"1鄰","STREET":"北成路","SECT":" ","MAREA":" ","LANE":"４８１巷","ALLEY":" ","HOUSE_NO":"１０號","E_COORD97":167816.48999999999,"N_COORD97":2546516.6400000001,"ADDRESS":"北成路４８１巷１０號","OBJECTID":338382},"geometry":{"x":167816.49000000022,"y":2546516.6400000025}},{"attributes":{"ID":338392,"DIS_CODE":0,"TOWNNAME":"北區","LI":"文元里","LIN":"1鄰","STREET":"北成路","SECT":" ","MAREA":" ","LANE":"４８１巷","ALLEY":" ","HOUSE_NO":"１２號","E_COORD97":167812.51999999999,"N_COORD97":2546516,"ADDRESS":"北成路４８１巷１２號","OBJECTID":338383},"geometry":{"x":167812.51999999862,"y":2546515.9999999981}},{"attributes":{"ID":338393,"DIS_CODE":0,"TOWNNAME":"北區","LI":"文元里","LIN":"1鄰","STREET":"北成路","SECT":" ","MAREA":" ","LANE":"４８１巷","ALLEY":" ","HOUSE_NO":"１６號","E_COORD97":167813.32000000001,"N_COORD97":2546511.2400000002,"ADDRESS":"北成路４８１巷１６號","OBJECTID":338384},"geometry":{"x":167813.32000000123,"y":2546511.2399999984}},{"attributes":{"ID":338394,"DIS_CODE":0,"TOWNNAME":"北區","LI":"文元里","LIN":"1鄰","STREET":"北成路","SECT":" ","MAREA":" ","LANE":"４８１巷","ALLEY":" ","HOUSE_NO":"１８號","E_COORD97":167817.28,"N_COORD97":2546511.7200000002,"ADDRESS":"北成路４８１巷１８號","OBJECTID":338385},"geometry":{"x":167817.28000000119,"y":2546511.7200000007}},{"attributes":{"ID":338395,"DIS_CODE":0,"TOWNNAME":"北區","LI":"文元里","LIN":"1鄰","STREET":"北成路","SECT":" ","MAREA":" ","LANE":"４８１巷","ALLEY":" ","HOUSE_NO":"２０號","E_COORD97":167821.25,"N_COORD97":2546512.1899999999,"ADDRESS":"北成路４８１巷２０號","OBJECTID":338386},"geometry":{"x":167821.25,"y":2546512.1900000013}},{"attributes":{"ID":338396,"DIS_CODE":0,"TOWNNAME":"北區","LI":"文元里","LIN":"1鄰","STREET":"北成路","SECT":" ","MAREA":" ","LANE":"４８１巷","ALLEY":" ","HOUSE_NO":"２２號","E_COORD97":167825.38,"N_COORD97":2546512.8300000001,"ADDRESS":"北成路４８１巷２２號","OBJECTID":338387},"geometry":{"x":167825.37999999989,"y":2546512.8300000001}},{"attributes":{"ID":338397,"DIS_CODE":0,"TOWNNAME":"鹽水區","LI":"岸內里","LIN":"5鄰","STREET":" ","SECT":" ","MAREA":"岸內","LANE":" ","ALLEY":" ","HOUSE_NO":"５５號","E_COORD97":174819.56,"N_COORD97":2581359.5800000001,"ADDRESS":"岸內５５號","OBJECTID":338388},"geometry":{"x":174819.55999999959,"y":2581359.5800000019}},{"attributes":{"ID":338398,"DIS_CODE":0,"TOWNNAME":"北區","LI":"文元里","LIN":"1鄰","STREET":"北成路","SECT":" ","MAREA":" ","LANE":"４８１巷","ALLEY":" ","HOUSE_NO":"２６號","E_COORD97":167829.19,"N_COORD97":2546512.9900000002,"ADDRESS":"北成路４８１巷２６號","OBJECTID":338389},"geometry":{"x":167829.19000000041,"y":2546512.9900000039}},{"attributes":{"ID":338399,"DIS_CODE":0,"TOWNNAME":"南區","LI":"大成里","LIN":"1鄰","STREET":"健康路","SECT":"一段","MAREA":" ","LANE":"３４７巷","ALLEY":" ","HOUSE_NO":"１５號","E_COORD97":168019.31,"N_COORD97":2542367.75,"ADDRESS":"健康路一段３４７巷１５號","OBJECTID":338390},"geometry":{"x":168019.31000000145,"y":2542367.75}},{"attributes":{"ID":338400,"DIS_CODE":0,"TOWNNAME":"北區","LI":"文元里","LIN":"1鄰","STREET":"文賢路","SECT":" ","MAREA":" ","LANE":"１１２２巷","ALLEY":" ","HOUSE_NO":"１４９號","E_COORD97":167772.57999999999,"N_COORD97":2546419.5099999998,"ADDRESS":"文賢路１１２２巷１４９號","OBJECTID":338391},"geometry":{"x":167772.58000000101,"y":2546419.5099999998}},{"attributes":{"ID":338401,"DIS_CODE":0,"TOWNNAME":"北區","LI":"文元里","LIN":"1鄰","STREET":"文賢路","SECT":" ","MAREA":" ","LANE":"１１２２巷","ALLEY":" ","HOUSE_NO":"１５１號","E_COORD97":167779.76000000001,"N_COORD97":2546423.9399999999,"ADDRESS":"文賢路１１２２巷１５１號","OBJECTID":338392},"geometry":{"x":167779.76000000071,"y":2546423.9399999995}},{"attributes":{"ID":338402,"DIS_CODE":0,"TOWNNAME":"北區","LI":"文元里","LIN":"1鄰","STREET":"文賢路","SECT":" ","MAREA":" ","LANE":"１１２２巷","ALLEY":" ","HOUSE_NO":"１５３號","E_COORD97":167783.56,"N_COORD97":2546426.6800000002,"ADDRESS":"文賢路１１２２巷１５３號","OBJECTID":338393},"geometry":{"x":167783.56000000145,"y":2546426.6800000034}},{"attributes":{"ID":338403,"DIS_CODE":0,"TOWNNAME":"北區","LI":"文元里","LIN":"1鄰","STREET":"文賢路","SECT":" ","MAREA":" ","LANE":"１１２２巷","ALLEY":" ","HOUSE_NO":"１５５號","E_COORD97":167797.17000000001,"N_COORD97":2546434.98,"ADDRESS":"文賢路１１２２巷１５５號","OBJECTID":338394},"geometry":{"x":167797.17000000086,"y":2546434.9800000004}},{"attributes":{"ID":338404,"DIS_CODE":0,"TOWNNAME":"北區","LI":"文元里","LIN":"1鄰","STREET":"文賢路","SECT":" ","MAREA":" ","LANE":"１１２２巷","ALLEY":" ","HOUSE_NO":"１５７號","E_COORD97":167784.60000000001,"N_COORD97":2546463.7400000002,"ADDRESS":"文賢路１１２２巷１５７號","OBJECTID":338395},"geometry":{"x":167784.59999999963,"y":2546463.7399999984}},{"attributes":{"ID":338405,"DIS_CODE":0,"TOWNNAME":"北區","LI":"文元里","LIN":"1鄰","STREET":"文賢路","SECT":" ","MAREA":" ","LANE":"１１２２巷","ALLEY":" ","HOUSE_NO":"１５９號","E_COORD97":167804.32000000001,"N_COORD97":2546446.2200000002,"ADDRESS":"文賢路１１２２巷１５９號","OBJECTID":338396},"geometry":{"x":167804.3200000003,"y":2546446.2200000007}},{"attributes":{"ID":338406,"DIS_CODE":0,"TOWNNAME":"北區","LI":"文元里","LIN":"1鄰","STREET":"文賢路","SECT":" ","MAREA":" ","LANE":"１１２２巷","ALLEY":" ","HOUSE_NO":"１６３號","E_COORD97":167815.34,"N_COORD97":2546459.71,"ADDRESS":"文賢路１１２２巷１６３號","OBJECTID":338397},"geometry":{"x":167815.33999999985,"y":2546459.7100000028}},{"attributes":{"ID":338407,"DIS_CODE":0,"TOWNNAME":"北區","LI":"文元里","LIN":"1鄰","STREET":"文賢路","SECT":" ","MAREA":" ","LANE":"１１２２巷","ALLEY":" ","HOUSE_NO":"１６５號","E_COORD97":167825.10999999999,"N_COORD97":2546463.3100000001,"ADDRESS":"文賢路１１２２巷１６５號","OBJECTID":338398},"geometry":{"x":167825.11000000127,"y":2546463.3100000005}},{"attributes":{"ID":338408,"DIS_CODE":0,"TOWNNAME":"北區","LI":"文元里","LIN":"1鄰","STREET":"文賢路","SECT":" ","MAREA":" ","LANE":"１１２２巷","ALLEY":" ","HOUSE_NO":"１６９號","E_COORD97":167839.45999999999,"N_COORD97":2546473.2599999998,"ADDRESS":"文賢路１１２２巷１６９號","OBJECTID":338399},"geometry":{"x":167839.46000000089,"y":2546473.2599999979}},{"attributes":{"ID":338409,"DIS_CODE":0,"TOWNNAME":"北區","LI":"興北里","LIN":"1鄰","STREET":"北門路","SECT":"二段","MAREA":" ","LANE":"２０２巷","ALLEY":" ","HOUSE_NO":"７號","E_COORD97":169485.98999999999,"N_COORD97":2545135.3999999999,"ADDRESS":"北門路二段２０２巷７號","OBJECTID":338400},"geometry":{"x":169485.99000000022,"y":2545135.4000000022}}]}