{"displayFieldName":"TOWNNAME","fieldAliases":{"ID":"ID","DIS_CODE":"DIS_CODE","TOWNNAME":"TOWNNAME","LI":"LI","LIN":"LIN","STREET":"STREET","SECT":"SECT","MAREA":"MAREA","LANE":"LANE","ALLEY":"ALLEY","HOUSE_NO":"HOUSE_NO","E_COORD97":"E_COORD97","N_COORD97":"N_COORD97","ADDRESS":"ADDRESS","OBJECTID":"OBJECTID"},"geometryType":"esriGeometryPoint","spatialReference":{"wkid":102443,"latestWkid":3826},"fields":[{"name":"ID","type":"esriFieldTypeDouble","alias":"ID"},{"name":"DIS_CODE","type":"esriFieldTypeInteger","alias":"DIS_CODE"},{"name":"TOWNNAME","type":"esriFieldTypeString","alias":"TOWNNAME","length":8},{"name":"LI","type":"esriFieldTypeString","alias":"LI","length":8},{"name":"LIN","type":"esriFieldTypeString","alias":"LIN","length":12},{"name":"STREET","type":"esriFieldTypeString","alias":"STREET","length":20},{"name":"SECT","type":"esriFieldTypeString","alias":"SECT","length":8},{"name":"MAREA","type":"esriFieldTypeString","alias":"MAREA","length":12},{"name":"LANE","type":"esriFieldTypeString","alias":"LANE","length":10},{"name":"ALLEY","type":"esriFieldTypeString","alias":"ALLEY","length":10},{"name":"HOUSE_NO","type":"esriFieldTypeString","alias":"HOUSE_NO","length":20},{"name":"E_COORD97","type":"esriFieldTypeDouble","alias":"E_COORD97"},{"name":"N_COORD97","type":"esriFieldTypeDouble","alias":"N_COORD97"},{"name":"ADDRESS","type":"esriFieldTypeString","alias":"ADDRESS","length":50},{"name":"OBJECTID","type":"esriFieldTypeOID","alias":"OBJECTID"}],"features":[{"attributes":{"ID":38401,"DIS_CODE":0,"TOWNNAME":"東區","LI":"自強里","LIN":"7鄰","STREET":"東門路","SECT":"三段","MAREA":" ","LANE":"３７巷","ALLEY":"５５弄","HOUSE_NO":"１０號","E_COORD97":171186.94,"N_COORD97":2542344.5099999998,"ADDRESS":"東門路三段３７巷５５弄１０號","OBJECTID":38401},"geometry":{"x":171186.94000000041,"y":2542344.5099999998}},{"attributes":{"ID":38402,"DIS_CODE":0,"TOWNNAME":"南區","LI":"文南里","LIN":"14鄰","STREET":"永南三街","SECT":" ","MAREA":" ","LANE":" ","ALLEY":" ","HOUSE_NO":"５１號","E_COORD97":166702.01000000001,"N_COORD97":2542668.7599999998,"ADDRESS":"永南三街５１號","OBJECTID":38402},"geometry":{"x":166702.00999999978,"y":2542668.7599999998}},{"attributes":{"ID":38403,"DIS_CODE":0,"TOWNNAME":"南區","LI":"文南里","LIN":"14鄰","STREET":"永南三街","SECT":" ","MAREA":" ","LANE":" ","ALLEY":" ","HOUSE_NO":"５３號","E_COORD97":166697.62,"N_COORD97":2542669.3300000001,"ADDRESS":"永南三街５３號","OBJECTID":38403},"geometry":{"x":166697.62000000104,"y":2542669.3300000038}},{"attributes":{"ID":38404,"DIS_CODE":0,"TOWNNAME":"南區","LI":"文南里","LIN":"14鄰","STREET":"南豐街","SECT":" ","MAREA":" ","LANE":" ","ALLEY":" ","HOUSE_NO":"２號","E_COORD97":166782.07999999999,"N_COORD97":2542689.3799999999,"ADDRESS":"南豐街２號","OBJECTID":38404},"geometry":{"x":166782.08000000194,"y":2542689.3800000008}},{"attributes":{"ID":38405,"DIS_CODE":0,"TOWNNAME":"南區","LI":"文南里","LIN":"14鄰","STREET":"南豐街","SECT":" ","MAREA":" ","LANE":" ","ALLEY":" ","HOUSE_NO":"１０號","E_COORD97":166783.79000000001,"N_COORD97":2542707.2400000002,"ADDRESS":"南豐街１０號","OBJECTID":38405},"geometry":{"x":166783.79000000004,"y":2542707.2399999984}},{"attributes":{"ID":38406,"DIS_CODE":0,"TOWNNAME":"南區","LI":"文南里","LIN":"14鄰","STREET":"南豐街","SECT":" ","MAREA":" ","LANE":" ","ALLEY":" ","HOUSE_NO":"１２號","E_COORD97":166784.54999999999,"N_COORD97":2542711.9900000002,"ADDRESS":"南豐街１２號","OBJECTID":38406},"geometry":{"x":166784.55000000075,"y":2542711.9900000002}},{"attributes":{"ID":38407,"DIS_CODE":0,"TOWNNAME":"南區","LI":"文南里","LIN":"14鄰","STREET":"南豐街","SECT":" ","MAREA":" ","LANE":" ","ALLEY":" ","HOUSE_NO":"１４號","E_COORD97":166784.35999999999,"N_COORD97":2542717.5,"ADDRESS":"南豐街１４號","OBJECTID":38407},"geometry":{"x":166784.36000000127,"y":2542717.5}},{"attributes":{"ID":38408,"DIS_CODE":0,"TOWNNAME":"新化區","LI":"東榮里","LIN":"32鄰","STREET":"中正路","SECT":" ","MAREA":" ","LANE":" ","ALLEY":" ","HOUSE_NO":"３６８號","E_COORD97":179107.70999999999,"N_COORD97":2548355.25,"ADDRESS":"中正路３６８號","OBJECTID":38408},"geometry":{"x":179107.70999999996,"y":2548355.2499999981}},{"attributes":{"ID":38409,"DIS_CODE":0,"TOWNNAME":"新化區","LI":"豐榮里","LIN":"13鄰","STREET":"正新南路","SECT":" ","MAREA":" ","LANE":" ","ALLEY":" ","HOUSE_NO":"１９２號","E_COORD97":178722.97,"N_COORD97":2547949.25,"ADDRESS":"正新南路１９２號","OBJECTID":38409},"geometry":{"x":178722.96999999974,"y":2547949.2500000019}},{"attributes":{"ID":38410,"DIS_CODE":0,"TOWNNAME":"新化區","LI":"太平里","LIN":"4鄰","STREET":"中正路","SECT":" ","MAREA":" ","LANE":" ","ALLEY":" ","HOUSE_NO":"５７８號","E_COORD97":178894.91,"N_COORD97":2549000.25,"ADDRESS":"中正路５７８號","OBJECTID":38410},"geometry":{"x":178894.91000000015,"y":2549000.2500000019}},{"attributes":{"ID":38411,"DIS_CODE":0,"TOWNNAME":"新化區","LI":"太平里","LIN":"4鄰","STREET":"太平街","SECT":" ","MAREA":" ","LANE":" ","ALLEY":" ","HOUSE_NO":"１４號","E_COORD97":179080.76999999999,"N_COORD97":2548863.25,"ADDRESS":"太平街１４號","OBJECTID":38411},"geometry":{"x":179080.77000000048,"y":2548863.25}},{"attributes":{"ID":38412,"DIS_CODE":0,"TOWNNAME":"新化區","LI":"武安里","LIN":"4鄰","STREET":"中正路","SECT":" ","MAREA":" ","LANE":" ","ALLEY":" ","HOUSE_NO":"３２５號","E_COORD97":179120.81,"N_COORD97":2548171.25,"ADDRESS":"中正路３２５號","OBJECTID":38412},"geometry":{"x":179120.80999999959,"y":2548171.25}},{"attributes":{"ID":38413,"DIS_CODE":0,"TOWNNAME":"新化區","LI":"東榮里","LIN":"20鄰","STREET":"民生路","SECT":" ","MAREA":" ","LANE":" ","ALLEY":" ","HOUSE_NO":"５５號","E_COORD97":179414.45999999999,"N_COORD97":2548404.25,"ADDRESS":"民生路５５號","OBJECTID":38413},"geometry":{"x":179414.46000000089,"y":2548404.2500000019}},{"attributes":{"ID":38414,"DIS_CODE":0,"TOWNNAME":"玉井區","LI":"望明里","LIN":"7鄰","STREET":" ","SECT":" ","MAREA":"望明","LANE":" ","ALLEY":" ","HOUSE_NO":"７８之２號","E_COORD97":194322.64000000001,"N_COORD97":2556140.29,"ADDRESS":"望明７８之２號","OBJECTID":38414},"geometry":{"x":194322.63999999966,"y":2556140.2899999991}},{"attributes":{"ID":38415,"DIS_CODE":0,"TOWNNAME":"玉井區","LI":"望明里","LIN":"7鄰","STREET":" ","SECT":" ","MAREA":"望明","LANE":" ","ALLEY":" ","HOUSE_NO":"７４號","E_COORD97":194262.42999999999,"N_COORD97":2556192.2400000002,"ADDRESS":"望明７４號","OBJECTID":38415},"geometry":{"x":194262.43000000063,"y":2556192.2400000021}},{"attributes":{"ID":38416,"DIS_CODE":0,"TOWNNAME":"玉井區","LI":"望明里","LIN":"7鄰","STREET":" ","SECT":" ","MAREA":"望明","LANE":" ","ALLEY":" ","HOUSE_NO":"８４之２號","E_COORD97":194415.84,"N_COORD97":2556509.29,"ADDRESS":"望明８４之２號","OBJECTID":38416},"geometry":{"x":194415.84000000078,"y":2556509.290000001}},{"attributes":{"ID":38417,"DIS_CODE":0,"TOWNNAME":"玉井區","LI":"三和里","LIN":"7鄰","STREET":" ","SECT":" ","MAREA":"三和","LANE":" ","ALLEY":" ","HOUSE_NO":"７９之５號","E_COORD97":194950.23000000001,"N_COORD97":2555655.2999999998,"ADDRESS":"三和７９之５號","OBJECTID":38417},"geometry":{"x":194950.23000000045,"y":2555655.3000000045}},{"attributes":{"ID":38418,"DIS_CODE":0,"TOWNNAME":"玉井區","LI":"三和里","LIN":"7鄰","STREET":" ","SECT":" ","MAREA":"三和","LANE":" ","ALLEY":" ","HOUSE_NO":"７６號","E_COORD97":194942.14000000001,"N_COORD97":2555560.25,"ADDRESS":"三和７６號","OBJECTID":38418},"geometry":{"x":194942.1400000006,"y":2555560.2500000037}},{"attributes":{"ID":38419,"DIS_CODE":0,"TOWNNAME":"玉井區","LI":"三和里","LIN":"7鄰","STREET":" ","SECT":" ","MAREA":"三和","LANE":" ","ALLEY":" ","HOUSE_NO":"８３號之３","E_COORD97":194976.95999999999,"N_COORD97":2555529.2999999998,"ADDRESS":"三和８３號之３","OBJECTID":38419},"geometry":{"x":194976.95999999996,"y":2555529.3000000007}},{"attributes":{"ID":38420,"DIS_CODE":0,"TOWNNAME":"南區","LI":"田寮里","LIN":"14鄰","STREET":"西門路","SECT":"一段","MAREA":" ","LANE":" ","ALLEY":" ","HOUSE_NO":"３７１號","E_COORD97":167719.14000000001,"N_COORD97":2542152.21,"ADDRESS":"西門路一段３７１號","OBJECTID":38420},"geometry":{"x":167719.1400000006,"y":2542152.2100000046}},{"attributes":{"ID":38421,"DIS_CODE":0,"TOWNNAME":"南區","LI":"田寮里","LIN":"14鄰","STREET":"西門路","SECT":"一段","MAREA":" ","LANE":" ","ALLEY":" ","HOUSE_NO":"３６９號","E_COORD97":167719.23000000001,"N_COORD97":2542147.1299999999,"ADDRESS":"西門路一段３６９號","OBJECTID":38421},"geometry":{"x":167719.23000000138,"y":2542147.1299999971}},{"attributes":{"ID":38422,"DIS_CODE":0,"TOWNNAME":"南區","LI":"田寮里","LIN":"14鄰","STREET":"西門路","SECT":"一段","MAREA":" ","LANE":" ","ALLEY":" ","HOUSE_NO":"３６７號","E_COORD97":167718.44,"N_COORD97":2542141.1299999999,"ADDRESS":"西門路一段３６７號","OBJECTID":38422},"geometry":{"x":167718.44000000041,"y":2542141.1300000008}},{"attributes":{"ID":38423,"DIS_CODE":0,"TOWNNAME":"玉井區","LI":"三和里","LIN":"7鄰","STREET":" ","SECT":" ","MAREA":"三和","LANE":" ","ALLEY":" ","HOUSE_NO":"８０號","E_COORD97":195007.92999999999,"N_COORD97":2555618.2400000002,"ADDRESS":"三和８０號","OBJECTID":38423},"geometry":{"x":195007.93000000063,"y":2555618.2400000021}},{"attributes":{"ID":38424,"DIS_CODE":0,"TOWNNAME":"東區","LI":"自強里","LIN":"7鄰","STREET":"東門路","SECT":"三段","MAREA":" ","LANE":"３７巷","ALLEY":"５５弄","HOUSE_NO":"１１號","E_COORD97":171187.10000000001,"N_COORD97":2542334.0899999999,"ADDRESS":"東門路三段３７巷５５弄１１號","OBJECTID":38424},"geometry":{"x":171187.09999999963,"y":2542334.0899999999}},{"attributes":{"ID":38425,"DIS_CODE":0,"TOWNNAME":"東區","LI":"自強里","LIN":"7鄰","STREET":"東門路","SECT":"三段","MAREA":" ","LANE":"３７巷","ALLEY":"５５弄","HOUSE_NO":"１２號","E_COORD97":171182.04000000001,"N_COORD97":2542344.6699999999,"ADDRESS":"東門路三段３７巷５５弄１２號","OBJECTID":38425},"geometry":{"x":171182.04000000097,"y":2542344.6700000037}},{"attributes":{"ID":38426,"DIS_CODE":0,"TOWNNAME":"東區","LI":"自強里","LIN":"7鄰","STREET":"東門路","SECT":"三段","MAREA":" ","LANE":"３７巷","ALLEY":"５５弄","HOUSE_NO":"１３號","E_COORD97":171181.88,"N_COORD97":2542334.0899999999,"ADDRESS":"東門路三段３７巷５５弄１３號","OBJECTID":38426},"geometry":{"x":171181.87999999989,"y":2542334.0899999999}},{"attributes":{"ID":38427,"DIS_CODE":0,"TOWNNAME":"東區","LI":"自強里","LIN":"7鄰","STREET":"東門路","SECT":"三段","MAREA":" ","LANE":"３７巷","ALLEY":"５５弄","HOUSE_NO":"１４號","E_COORD97":171176.66,"N_COORD97":2542344.8199999998,"ADDRESS":"東門路三段３７巷５５弄１４號","OBJECTID":38427},"geometry":{"x":171176.66000000015,"y":2542344.8200000022}},{"attributes":{"ID":38428,"DIS_CODE":0,"TOWNNAME":"東區","LI":"自強里","LIN":"7鄰","STREET":"東門路","SECT":"三段","MAREA":" ","LANE":"３７巷","ALLEY":"５５弄","HOUSE_NO":"１５號","E_COORD97":171177.14000000001,"N_COORD97":2542334.0899999999,"ADDRESS":"東門路三段３７巷５５弄１５號","OBJECTID":38428},"geometry":{"x":171177.1400000006,"y":2542334.0899999999}},{"attributes":{"ID":38429,"DIS_CODE":0,"TOWNNAME":"東區","LI":"自強里","LIN":"7鄰","STREET":"東門路","SECT":"三段","MAREA":" ","LANE":"３７巷","ALLEY":"５５弄","HOUSE_NO":"１６號","E_COORD97":171171.76000000001,"N_COORD97":2542344.3500000001,"ADDRESS":"東門路三段３７巷５５弄１６號","OBJECTID":38429},"geometry":{"x":171171.76000000071,"y":2542344.3500000015}},{"attributes":{"ID":38430,"DIS_CODE":0,"TOWNNAME":"東區","LI":"自強里","LIN":"7鄰","STREET":"東門路","SECT":"三段","MAREA":" ","LANE":"３７巷","ALLEY":"５５弄","HOUSE_NO":"１７號","E_COORD97":171172.54999999999,"N_COORD97":2542334.2400000002,"ADDRESS":"東門路三段３７巷５５弄１７號","OBJECTID":38430},"geometry":{"x":171172.55000000168,"y":2542334.2399999984}},{"attributes":{"ID":38431,"DIS_CODE":0,"TOWNNAME":"東區","LI":"自強里","LIN":"7鄰","STREET":"東門路","SECT":"三段","MAREA":" ","LANE":"３７巷","ALLEY":"５５弄","HOUSE_NO":"１８號","E_COORD97":171167.48999999999,"N_COORD97":2542344.5099999998,"ADDRESS":"東門路三段３７巷５５弄１８號","OBJECTID":38431},"geometry":{"x":171167.49000000022,"y":2542344.5099999998}},{"attributes":{"ID":38432,"DIS_CODE":0,"TOWNNAME":"東區","LI":"自強里","LIN":"7鄰","STREET":"東門路","SECT":"三段","MAREA":" ","LANE":"３７巷","ALLEY":"５５弄","HOUSE_NO":"１９號","E_COORD97":171167.48999999999,"N_COORD97":2542333.77,"ADDRESS":"東門路三段３７巷５５弄１９號","OBJECTID":38432},"geometry":{"x":171167.49000000022,"y":2542333.7700000033}},{"attributes":{"ID":38433,"DIS_CODE":0,"TOWNNAME":"東區","LI":"自強里","LIN":"7鄰","STREET":"東門路","SECT":"三段","MAREA":" ","LANE":"３７巷","ALLEY":"５５弄","HOUSE_NO":"１號","E_COORD97":171212.09,"N_COORD97":2542334.7200000002,"ADDRESS":"東門路三段３７巷５５弄１號","OBJECTID":38433},"geometry":{"x":171212.09000000078,"y":2542334.7200000007}},{"attributes":{"ID":38434,"DIS_CODE":0,"TOWNNAME":"東區","LI":"自強里","LIN":"7鄰","STREET":"東門路","SECT":"三段","MAREA":" ","LANE":"３７巷","ALLEY":"５５弄","HOUSE_NO":"２０號","E_COORD97":171162.12,"N_COORD97":2542344.5099999998,"ADDRESS":"東門路三段３７巷５５弄２０號","OBJECTID":38434},"geometry":{"x":171162.11999999918,"y":2542344.5099999998}},{"attributes":{"ID":38435,"DIS_CODE":0,"TOWNNAME":"東區","LI":"自強里","LIN":"7鄰","STREET":"東門路","SECT":"三段","MAREA":" ","LANE":"３７巷","ALLEY":"５５弄","HOUSE_NO":"２１號","E_COORD97":171162.28,"N_COORD97":2542333.77,"ADDRESS":"東門路三段３７巷５５弄２１號","OBJECTID":38435},"geometry":{"x":171162.28000000026,"y":2542333.7700000033}},{"attributes":{"ID":38436,"DIS_CODE":0,"TOWNNAME":"東區","LI":"自強里","LIN":"7鄰","STREET":"東門路","SECT":"三段","MAREA":" ","LANE":"３７巷","ALLEY":"５５弄","HOUSE_NO":"２２號","E_COORD97":171157.22,"N_COORD97":2542344.1899999999,"ADDRESS":"東門路三段３７巷５５弄２２號","OBJECTID":38436},"geometry":{"x":171157.21999999974,"y":2542344.1900000032}},{"attributes":{"ID":38437,"DIS_CODE":0,"TOWNNAME":"玉井區","LI":"三和里","LIN":"7鄰","STREET":" ","SECT":" ","MAREA":"三和","LANE":" ","ALLEY":" ","HOUSE_NO":"７９之１號","E_COORD97":194936.23000000001,"N_COORD97":2555654.2999999998,"ADDRESS":"三和７９之１號","OBJECTID":38437},"geometry":{"x":194936.23000000045,"y":2555654.3000000007}},{"attributes":{"ID":38438,"DIS_CODE":0,"TOWNNAME":"玉井區","LI":"三和里","LIN":"7鄰","STREET":" ","SECT":" ","MAREA":"三和","LANE":" ","ALLEY":" ","HOUSE_NO":"８３號","E_COORD97":194970.34,"N_COORD97":2555556.25,"ADDRESS":"三和８３號","OBJECTID":38438},"geometry":{"x":194970.33999999985,"y":2555556.25}},{"attributes":{"ID":38439,"DIS_CODE":0,"TOWNNAME":"玉井區","LI":"三和里","LIN":"7鄰","STREET":" ","SECT":" ","MAREA":"三和","LANE":" ","ALLEY":" ","HOUSE_NO":"８１號","E_COORD97":194967.84,"N_COORD97":2555638.25,"ADDRESS":"三和８１號","OBJECTID":38439},"geometry":{"x":194967.84000000171,"y":2555638.2500000037}},{"attributes":{"ID":38440,"DIS_CODE":0,"TOWNNAME":"玉井區","LI":"三和里","LIN":"7鄰","STREET":" ","SECT":" ","MAREA":"三和","LANE":" ","ALLEY":" ","HOUSE_NO":"８５號","E_COORD97":194988.23000000001,"N_COORD97":2555570.2400000002,"ADDRESS":"三和８５號","OBJECTID":38440},"geometry":{"x":194988.23000000138,"y":2555570.2399999984}},{"attributes":{"ID":38441,"DIS_CODE":0,"TOWNNAME":"玉井區","LI":"三埔里","LIN":"7鄰","STREET":" ","SECT":" ","MAREA":"三埔","LANE":" ","ALLEY":" ","HOUSE_NO":"８６號之２５","E_COORD97":198359.17999999999,"N_COORD97":2554659.29,"ADDRESS":"三埔８６號之２５","OBJECTID":38441},"geometry":{"x":198359.18000000063,"y":2554659.2899999991}},{"attributes":{"ID":38442,"DIS_CODE":0,"TOWNNAME":"玉井區","LI":"三埔里","LIN":"7鄰","STREET":" ","SECT":" ","MAREA":"三埔","LANE":" ","ALLEY":" ","HOUSE_NO":"８３號之２","E_COORD97":198055.10999999999,"N_COORD97":2554772.29,"ADDRESS":"三埔８３號之２","OBJECTID":38442},"geometry":{"x":198055.1100000022,"y":2554772.2900000028}},{"attributes":{"ID":38443,"DIS_CODE":0,"TOWNNAME":"玉井區","LI":"三埔里","LIN":"7鄰","STREET":" ","SECT":" ","MAREA":"三埔","LANE":" ","ALLEY":" ","HOUSE_NO":"７８之１１號","E_COORD97":197597.48000000001,"N_COORD97":2554807.2999999998,"ADDRESS":"三埔７８之１１號","OBJECTID":38443},"geometry":{"x":197597.48000000045,"y":2554807.3000000007}},{"attributes":{"ID":38444,"DIS_CODE":0,"TOWNNAME":"玉井區","LI":"三埔里","LIN":"7鄰","STREET":" ","SECT":" ","MAREA":"三埔","LANE":" ","ALLEY":" ","HOUSE_NO":"８５號","E_COORD97":198053.44,"N_COORD97":2554659.2400000002,"ADDRESS":"三埔８５號","OBJECTID":38444},"geometry":{"x":198053.44000000134,"y":2554659.2400000021}},{"attributes":{"ID":38445,"DIS_CODE":0,"TOWNNAME":"玉井區","LI":"三埔里","LIN":"7鄰","STREET":" ","SECT":" ","MAREA":"三埔","LANE":" ","ALLEY":" ","HOUSE_NO":"７８之１０號","E_COORD97":197758.48000000001,"N_COORD97":2554864.29,"ADDRESS":"三埔７８之１０號","OBJECTID":38445},"geometry":{"x":197758.48000000138,"y":2554864.290000001}},{"attributes":{"ID":38446,"DIS_CODE":0,"TOWNNAME":"東山區","LI":"南溪里","LIN":"7鄰","STREET":" ","SECT":" ","MAREA":"二重溪","LANE":" ","ALLEY":" ","HOUSE_NO":"７２號","E_COORD97":188463.13,"N_COORD97":2574887.3199999998,"ADDRESS":"二重溪７２號","OBJECTID":38446},"geometry":{"x":188463.13000000175,"y":2574887.3200000003}},{"attributes":{"ID":38447,"DIS_CODE":0,"TOWNNAME":"東山區","LI":"南溪里","LIN":"7鄰","STREET":" ","SECT":" ","MAREA":"二重溪","LANE":" ","ALLEY":" ","HOUSE_NO":"７４號","E_COORD97":188480.94,"N_COORD97":2574882.4900000002,"ADDRESS":"二重溪７４號","OBJECTID":38447},"geometry":{"x":188480.94000000134,"y":2574882.4900000002}},{"attributes":{"ID":38448,"DIS_CODE":0,"TOWNNAME":"東山區","LI":"南溪里","LIN":"7鄰","STREET":" ","SECT":" ","MAREA":"二重溪","LANE":" ","ALLEY":" ","HOUSE_NO":"７５號之１","E_COORD97":188452.54999999999,"N_COORD97":2574860.8900000001,"ADDRESS":"二重溪７５號之１","OBJECTID":38448},"geometry":{"x":188452.54999999981,"y":2574860.8899999987}},{"attributes":{"ID":38449,"DIS_CODE":0,"TOWNNAME":"東山區","LI":"南溪里","LIN":"7鄰","STREET":" ","SECT":" ","MAREA":"二重溪","LANE":" ","ALLEY":" ","HOUSE_NO":"７５號","E_COORD97":188465.85000000001,"N_COORD97":2574870.9399999999,"ADDRESS":"二重溪７５號","OBJECTID":38449},"geometry":{"x":188465.84999999963,"y":2574870.9400000013}},{"attributes":{"ID":38450,"DIS_CODE":0,"TOWNNAME":"六甲區","LI":"大丘里","LIN":"7鄰","STREET":" ","SECT":" ","MAREA":"匏子寮","LANE":" ","ALLEY":" ","HOUSE_NO":"２０號","E_COORD97":192044.22,"N_COORD97":2568624.29,"ADDRESS":"匏子寮２０號","OBJECTID":38450},"geometry":{"x":192044.2200000016,"y":2568624.2899999991}},{"attributes":{"ID":38451,"DIS_CODE":0,"TOWNNAME":"六甲區","LI":"大丘里","LIN":"7鄰","STREET":" ","SECT":" ","MAREA":"匏子寮","LANE":" ","ALLEY":" ","HOUSE_NO":"２１號","E_COORD97":192056.35000000001,"N_COORD97":2568640.8900000001,"ADDRESS":"匏子寮２１號","OBJECTID":38451},"geometry":{"x":192056.34999999963,"y":2568640.8900000025}},{"attributes":{"ID":38452,"DIS_CODE":0,"TOWNNAME":"六甲區","LI":"大丘里","LIN":"7鄰","STREET":" ","SECT":" ","MAREA":"匏子寮","LANE":" ","ALLEY":" ","HOUSE_NO":"２２號","E_COORD97":192069.95999999999,"N_COORD97":2568626.27,"ADDRESS":"匏子寮２２號","OBJECTID":38452},"geometry":{"x":192069.96000000183,"y":2568626.2700000014}},{"attributes":{"ID":38453,"DIS_CODE":0,"TOWNNAME":"東區","LI":"自強里","LIN":"7鄰","STREET":"東門路","SECT":"三段","MAREA":" ","LANE":"３７巷","ALLEY":"５５弄","HOUSE_NO":"２３號","E_COORD97":171157.53,"N_COORD97":2542333.2999999998,"ADDRESS":"東門路三段３７巷５５弄２３號","OBJECTID":38453},"geometry":{"x":171157.53000000026,"y":2542333.3000000007}},{"attributes":{"ID":38454,"DIS_CODE":0,"TOWNNAME":"東區","LI":"自強里","LIN":"7鄰","STREET":"東門路","SECT":"三段","MAREA":" ","LANE":"３７巷","ALLEY":"５５弄","HOUSE_NO":"２４號","E_COORD97":171152.79000000001,"N_COORD97":2542344.3500000001,"ADDRESS":"東門路三段３７巷５５弄２４號","OBJECTID":38454},"geometry":{"x":171152.79000000097,"y":2542344.3500000015}},{"attributes":{"ID":38455,"DIS_CODE":0,"TOWNNAME":"東區","LI":"自強里","LIN":"7鄰","STREET":"東門路","SECT":"三段","MAREA":" ","LANE":"３７巷","ALLEY":"５５弄","HOUSE_NO":"２５號","E_COORD97":171152.95000000001,"N_COORD97":2542333.2999999998,"ADDRESS":"東門路三段３７巷５５弄２５號","OBJECTID":38455},"geometry":{"x":171152.95000000019,"y":2542333.3000000007}},{"attributes":{"ID":38456,"DIS_CODE":0,"TOWNNAME":"六甲區","LI":"大丘里","LIN":"7鄰","STREET":" ","SECT":" ","MAREA":"匏子寮","LANE":" ","ALLEY":" ","HOUSE_NO":"２３之１號","E_COORD97":192092.20000000001,"N_COORD97":2568602.2400000002,"ADDRESS":"匏子寮２３之１號","OBJECTID":38456},"geometry":{"x":192092.19999999925,"y":2568602.2400000002}},{"attributes":{"ID":38457,"DIS_CODE":0,"TOWNNAME":"六甲區","LI":"大丘里","LIN":"7鄰","STREET":" ","SECT":" ","MAREA":"匏子寮","LANE":" ","ALLEY":" ","HOUSE_NO":"２３號之１","E_COORD97":192092.20000000001,"N_COORD97":2568602.2400000002,"ADDRESS":"匏子寮２３號之１","OBJECTID":38457},"geometry":{"x":192092.19999999925,"y":2568602.2400000002}},{"attributes":{"ID":38458,"DIS_CODE":0,"TOWNNAME":"六甲區","LI":"大丘里","LIN":"7鄰","STREET":" ","SECT":" ","MAREA":"匏子寮","LANE":" ","ALLEY":" ","HOUSE_NO":"２３號","E_COORD97":192069.73999999999,"N_COORD97":2568607.8900000001,"ADDRESS":"匏子寮２３號","OBJECTID":38458},"geometry":{"x":192069.74000000022,"y":2568607.8900000006}},{"attributes":{"ID":38459,"DIS_CODE":0,"TOWNNAME":"六甲區","LI":"大丘里","LIN":"7鄰","STREET":" ","SECT":" ","MAREA":"匏子寮","LANE":" ","ALLEY":" ","HOUSE_NO":"２４號","E_COORD97":192100.70000000001,"N_COORD97":2568484.7200000002,"ADDRESS":"匏子寮２４號","OBJECTID":38459},"geometry":{"x":192100.70000000205,"y":2568484.7200000007}},{"attributes":{"ID":38460,"DIS_CODE":0,"TOWNNAME":"東區","LI":"自強里","LIN":"7鄰","STREET":"東門路","SECT":"三段","MAREA":" ","LANE":"３７巷","ALLEY":"５５弄","HOUSE_NO":"２６號","E_COORD97":171148.97,"N_COORD97":2542344.3500000001,"ADDRESS":"東門路三段３７巷５５弄２６號","OBJECTID":38460},"geometry":{"x":171148.96999999974,"y":2542344.3500000015}},{"attributes":{"ID":38461,"DIS_CODE":0,"TOWNNAME":"東區","LI":"自強里","LIN":"7鄰","STREET":"東門路","SECT":"三段","MAREA":" ","LANE":"３７巷","ALLEY":"５５弄","HOUSE_NO":"２７號","E_COORD97":171147.25,"N_COORD97":2542333.1400000001,"ADDRESS":"東門路三段３７巷５５弄２７號","OBJECTID":38461},"geometry":{"x":171147.25,"y":2542333.1400000025}},{"attributes":{"ID":38462,"DIS_CODE":0,"TOWNNAME":"東區","LI":"自強里","LIN":"7鄰","STREET":"東門路","SECT":"三段","MAREA":" ","LANE":"３７巷","ALLEY":"５５弄","HOUSE_NO":"２８號","E_COORD97":171141.88,"N_COORD97":2542344.1899999999,"ADDRESS":"東門路三段３７巷５５弄２８號","OBJECTID":38462},"geometry":{"x":171141.88000000082,"y":2542344.1900000032}},{"attributes":{"ID":38463,"DIS_CODE":0,"TOWNNAME":"東區","LI":"自強里","LIN":"7鄰","STREET":"東門路","SECT":"三段","MAREA":" ","LANE":"３７巷","ALLEY":"５５弄","HOUSE_NO":"２號","E_COORD97":171211.92999999999,"N_COORD97":2542344.98,"ADDRESS":"東門路三段３７巷５５弄２號","OBJECTID":38463},"geometry":{"x":171211.9299999997,"y":2542344.9800000004}},{"attributes":{"ID":38464,"DIS_CODE":0,"TOWNNAME":"東區","LI":"自強里","LIN":"7鄰","STREET":"東門路","SECT":"三段","MAREA":" ","LANE":"３７巷","ALLEY":"５５弄","HOUSE_NO":"３號","E_COORD97":171207.5,"N_COORD97":2542334.7200000002,"ADDRESS":"東門路三段３７巷５５弄３號","OBJECTID":38464},"geometry":{"x":171207.50000000093,"y":2542334.7200000007}},{"attributes":{"ID":38465,"DIS_CODE":0,"TOWNNAME":"東區","LI":"自強里","LIN":"7鄰","STREET":"東門路","SECT":"三段","MAREA":" ","LANE":"３７巷","ALLEY":"５５弄","HOUSE_NO":"４號","E_COORD97":171204.34,"N_COORD97":2542344.6699999999,"ADDRESS":"東門路三段３７巷５５弄４號","OBJECTID":38465},"geometry":{"x":171204.33999999985,"y":2542344.6700000037}},{"attributes":{"ID":38466,"DIS_CODE":0,"TOWNNAME":"東區","LI":"自強里","LIN":"7鄰","STREET":"東門路","SECT":"三段","MAREA":" ","LANE":"３７巷","ALLEY":"５５弄","HOUSE_NO":"５號","E_COORD97":171201.17000000001,"N_COORD97":2542334.3999999999,"ADDRESS":"東門路三段３７巷５５弄５號","OBJECTID":38466},"geometry":{"x":171201.17000000086,"y":2542334.4000000022}},{"attributes":{"ID":38467,"DIS_CODE":0,"TOWNNAME":"六甲區","LI":"大丘里","LIN":"7鄰","STREET":" ","SECT":" ","MAREA":"匏子寮","LANE":" ","ALLEY":" ","HOUSE_NO":"２５號","E_COORD97":192093.79999999999,"N_COORD97":2568464.8599999999,"ADDRESS":"匏子寮２５號","OBJECTID":38467},"geometry":{"x":192093.79999999981,"y":2568464.8599999994}},{"attributes":{"ID":38468,"DIS_CODE":0,"TOWNNAME":"六甲區","LI":"菁埔里","LIN":"7鄰","STREET":" ","SECT":" ","MAREA":"菁埔","LANE":" ","ALLEY":" ","HOUSE_NO":"２１６號","E_COORD97":178768.51000000001,"N_COORD97":2570071.4900000002,"ADDRESS":"菁埔２１６號","OBJECTID":38468},"geometry":{"x":178768.50999999978,"y":2570071.4900000002}},{"attributes":{"ID":38469,"DIS_CODE":0,"TOWNNAME":"六甲區","LI":"菁埔里","LIN":"7鄰","STREET":" ","SECT":" ","MAREA":"菁埔","LANE":" ","ALLEY":" ","HOUSE_NO":"２３３號","E_COORD97":178701.34,"N_COORD97":2569797.04,"ADDRESS":"菁埔２３３號","OBJECTID":38469},"geometry":{"x":178701.34000000078,"y":2569797.040000001}},{"attributes":{"ID":38470,"DIS_CODE":0,"TOWNNAME":"六甲區","LI":"菁埔里","LIN":"7鄰","STREET":" ","SECT":" ","MAREA":"菁埔","LANE":" ","ALLEY":" ","HOUSE_NO":"２３５號","E_COORD97":178603.35999999999,"N_COORD97":2569778.9900000002,"ADDRESS":"菁埔２３５號","OBJECTID":38470},"geometry":{"x":178603.36000000127,"y":2569778.9900000021}},{"attributes":{"ID":38471,"DIS_CODE":0,"TOWNNAME":"六甲區","LI":"菁埔里","LIN":"7鄰","STREET":" ","SECT":" ","MAREA":"菁埔","LANE":" ","ALLEY":" ","HOUSE_NO":"２３６號","E_COORD97":178553.70000000001,"N_COORD97":2569819.1699999999,"ADDRESS":"菁埔２３６號","OBJECTID":38471},"geometry":{"x":178553.70000000019,"y":2569819.1699999999}},{"attributes":{"ID":38472,"DIS_CODE":0,"TOWNNAME":"六甲區","LI":"菁埔里","LIN":"7鄰","STREET":" ","SECT":" ","MAREA":"菁埔","LANE":" ","ALLEY":" ","HOUSE_NO":"２３９號","E_COORD97":178410.47,"N_COORD97":2569937.1800000002,"ADDRESS":"菁埔２３９號","OBJECTID":38472},"geometry":{"x":178410.47000000067,"y":2569937.1799999997}},{"attributes":{"ID":38473,"DIS_CODE":0,"TOWNNAME":"六甲區","LI":"菁埔里","LIN":"7鄰","STREET":" ","SECT":" ","MAREA":"菁埔","LANE":" ","ALLEY":" ","HOUSE_NO":"２４８號","E_COORD97":178286.23000000001,"N_COORD97":2570030.8900000001,"ADDRESS":"菁埔２４８號","OBJECTID":38473},"geometry":{"x":178286.23000000045,"y":2570030.8900000025}},{"attributes":{"ID":38474,"DIS_CODE":0,"TOWNNAME":"東區","LI":"自強里","LIN":"7鄰","STREET":"東門路","SECT":"三段","MAREA":" ","LANE":"３７巷","ALLEY":"５５弄","HOUSE_NO":"６號","E_COORD97":171196.75,"N_COORD97":2542344.6699999999,"ADDRESS":"東門路三段３７巷５５弄６號","OBJECTID":38474},"geometry":{"x":171196.74999999907,"y":2542344.6700000037}},{"attributes":{"ID":38475,"DIS_CODE":0,"TOWNNAME":"永康區","LI":"甲頂里","LIN":"7鄰","STREET":"中正南路","SECT":" ","MAREA":" ","LANE":"５２巷","ALLEY":"７１弄","HOUSE_NO":"２２號","E_COORD97":169923.70999999999,"N_COORD97":2546835.9500000002,"ADDRESS":"中正南路５２巷７１弄２２號","OBJECTID":38475},"geometry":{"x":169923.70999999996,"y":2546835.9500000011}},{"attributes":{"ID":38476,"DIS_CODE":0,"TOWNNAME":"永康區","LI":"西勢里","LIN":"7鄰","STREET":"富強路","SECT":"一段","MAREA":" ","LANE":"２７９巷","ALLEY":"１３弄","HOUSE_NO":"８號","E_COORD97":175619.82000000001,"N_COORD97":2546593.0299999998,"ADDRESS":"富強路一段２７９巷１３弄８號","OBJECTID":38476},"geometry":{"x":175619.82000000123,"y":2546593.0299999975}},{"attributes":{"ID":38477,"DIS_CODE":0,"TOWNNAME":"永康區","LI":"甲頂里","LIN":"7鄰","STREET":"中正南路","SECT":" ","MAREA":" ","LANE":"５２巷","ALLEY":"７１弄","HOUSE_NO":"３２號","E_COORD97":169923.07000000001,"N_COORD97":2546858.0099999998,"ADDRESS":"中正南路５２巷７１弄３２號","OBJECTID":38477},"geometry":{"x":169923.0700000003,"y":2546858.0099999998}},{"attributes":{"ID":38478,"DIS_CODE":0,"TOWNNAME":"永康區","LI":"正強里","LIN":"7鄰","STREET":"自強路","SECT":" ","MAREA":" ","LANE":"３３０巷","ALLEY":"２１弄","HOUSE_NO":"４０號","E_COORD97":173511.26000000001,"N_COORD97":2547653.8999999999,"ADDRESS":"自強路３３０巷２１弄４０號","OBJECTID":38478},"geometry":{"x":173511.26000000071,"y":2547653.9000000022}},{"attributes":{"ID":38479,"DIS_CODE":0,"TOWNNAME":"永康區","LI":"崑山里","LIN":"7鄰","STREET":"崑大路","SECT":" ","MAREA":" ","LANE":" ","ALLEY":" ","HOUSE_NO":"２００號","E_COORD97":173539.31,"N_COORD97":2544316.25,"ADDRESS":"崑大路２００號","OBJECTID":38479},"geometry":{"x":173539.31000000052,"y":2544316.25}},{"attributes":{"ID":38480,"DIS_CODE":0,"TOWNNAME":"安南區","LI":"原佃里","LIN":"7鄰","STREET":"本原街","SECT":"一段","MAREA":" ","LANE":"１９５巷","ALLEY":"８５弄","HOUSE_NO":"７之２號","E_COORD97":167514.92999999999,"N_COORD97":2550039.4900000002,"ADDRESS":"本原街一段１９５巷８５弄７之２號","OBJECTID":38480},"geometry":{"x":167514.92999999877,"y":2550039.4900000021}},{"attributes":{"ID":38481,"DIS_CODE":0,"TOWNNAME":"六甲區","LI":"菁埔里","LIN":"7鄰","STREET":" ","SECT":" ","MAREA":"菁埔","LANE":" ","ALLEY":" ","HOUSE_NO":"２４９號","E_COORD97":178289.31,"N_COORD97":2570019.79,"ADDRESS":"菁埔２４９號","OBJECTID":38481},"geometry":{"x":178289.31000000052,"y":2570019.790000001}},{"attributes":{"ID":38482,"DIS_CODE":0,"TOWNNAME":"中西區","LI":"民生里","LIN":"14鄰","STREET":"大仁街","SECT":" ","MAREA":" ","LANE":"１３９巷","ALLEY":" ","HOUSE_NO":"２５號","E_COORD97":167156.79999999999,"N_COORD97":2543446.7400000002,"ADDRESS":"大仁街１３９巷２５號","OBJECTID":38482},"geometry":{"x":167156.80000000168,"y":2543446.7400000039}},{"attributes":{"ID":38483,"DIS_CODE":0,"TOWNNAME":"中西區","LI":"民生里","LIN":"14鄰","STREET":"南華街","SECT":" ","MAREA":" ","LANE":" ","ALLEY":" ","HOUSE_NO":"６６號","E_COORD97":167114.17000000001,"N_COORD97":2543438.6800000002,"ADDRESS":"南華街６６號","OBJECTID":38483},"geometry":{"x":167114.17000000086,"y":2543438.6799999997}},{"attributes":{"ID":38484,"DIS_CODE":0,"TOWNNAME":"六甲區","LI":"王爺里","LIN":"7鄰","STREET":" ","SECT":" ","MAREA":"番子坑","LANE":" ","ALLEY":" ","HOUSE_NO":"１９號","E_COORD97":188601.45999999999,"N_COORD97":2569451.2999999998,"ADDRESS":"番子坑１９號","OBJECTID":38484},"geometry":{"x":188601.45999999903,"y":2569451.3000000026}},{"attributes":{"ID":38485,"DIS_CODE":0,"TOWNNAME":"中西區","LI":"民生里","LIN":"14鄰","STREET":"南華街","SECT":" ","MAREA":" ","LANE":" ","ALLEY":" ","HOUSE_NO":"７０號","E_COORD97":167119.19,"N_COORD97":2543460.0800000001,"ADDRESS":"南華街７０號","OBJECTID":38485},"geometry":{"x":167119.19000000134,"y":2543460.0800000001}},{"attributes":{"ID":38486,"DIS_CODE":0,"TOWNNAME":"中西區","LI":"民生里","LIN":"14鄰","STREET":"金華路","SECT":"三段","MAREA":" ","LANE":" ","ALLEY":" ","HOUSE_NO":"７７號","E_COORD97":167190.29999999999,"N_COORD97":2543421.3799999999,"ADDRESS":"金華路三段７７號","OBJECTID":38486},"geometry":{"x":167190.29999999981,"y":2543421.3800000008}},{"attributes":{"ID":38487,"DIS_CODE":0,"TOWNNAME":"中西區","LI":"民生里","LIN":"14鄰","STREET":"金華路","SECT":"三段","MAREA":" ","LANE":" ","ALLEY":" ","HOUSE_NO":"７７號之１","E_COORD97":167185.51000000001,"N_COORD97":2543422.9700000002,"ADDRESS":"金華路三段７７號之１","OBJECTID":38487},"geometry":{"x":167185.50999999978,"y":2543422.9700000025}},{"attributes":{"ID":38488,"DIS_CODE":0,"TOWNNAME":"安平區","LI":"怡平里","LIN":"14鄰","STREET":"建平十一街","SECT":" ","MAREA":" ","LANE":" ","ALLEY":" ","HOUSE_NO":"３３２之１號","E_COORD97":165532.95000000001,"N_COORD97":2544014.3300000001,"ADDRESS":"建平十一街３３２之１號","OBJECTID":38488},"geometry":{"x":165532.95000000019,"y":2544014.3300000001}},{"attributes":{"ID":38489,"DIS_CODE":0,"TOWNNAME":"安南區","LI":"淵中里","LIN":"7鄰","STREET":"安中路","SECT":"四段","MAREA":" ","LANE":"２９０巷","ALLEY":"２２０弄","HOUSE_NO":"２６號","E_COORD97":164935.89000000001,"N_COORD97":2550170.1400000001,"ADDRESS":"安中路四段２９０巷２２０弄２６號","OBJECTID":38489},"geometry":{"x":164935.8900000006,"y":2550170.1400000006}},{"attributes":{"ID":38490,"DIS_CODE":0,"TOWNNAME":"新化區","LI":"協興里","LIN":"4鄰","STREET":"正新路","SECT":" ","MAREA":" ","LANE":" ","ALLEY":" ","HOUSE_NO":"２３９號","E_COORD97":178548.82000000001,"N_COORD97":2548470.25,"ADDRESS":"正新路２３９號","OBJECTID":38490},"geometry":{"x":178548.82000000216,"y":2548470.25}},{"attributes":{"ID":38491,"DIS_CODE":0,"TOWNNAME":"安南區","LI":"淵中里","LIN":"7鄰","STREET":"安中路","SECT":"四段","MAREA":" ","LANE":"２９０巷","ALLEY":"２２０弄","HOUSE_NO":"２８號","E_COORD97":164932.45999999999,"N_COORD97":2550167.4199999999,"ADDRESS":"安中路四段２９０巷２２０弄２８號","OBJECTID":38491},"geometry":{"x":164932.46000000089,"y":2550167.4199999999}},{"attributes":{"ID":38492,"DIS_CODE":0,"TOWNNAME":"新化區","LI":"東榮里","LIN":"20鄰","STREET":"民生路","SECT":" ","MAREA":" ","LANE":" ","ALLEY":" ","HOUSE_NO":"３３號","E_COORD97":179420.66,"N_COORD97":2548326.25,"ADDRESS":"民生路３３號","OBJECTID":38492},"geometry":{"x":179420.66000000015,"y":2548326.2500000019}},{"attributes":{"ID":38493,"DIS_CODE":0,"TOWNNAME":"安南區","LI":"長安里","LIN":"7鄰","STREET":"長溪路","SECT":"三段","MAREA":" ","LANE":"４０５巷","ALLEY":"４０弄","HOUSE_NO":"３０號","E_COORD97":167494.25,"N_COORD97":2552065.6000000001,"ADDRESS":"長溪路三段４０５巷４０弄３０號","OBJECTID":38493},"geometry":{"x":167494.25,"y":2552065.6000000015}},{"attributes":{"ID":38494,"DIS_CODE":0,"TOWNNAME":"新化區","LI":"東榮里","LIN":"20鄰","STREET":"中興路","SECT":" ","MAREA":" ","LANE":" ","ALLEY":" ","HOUSE_NO":"７３６號","E_COORD97":179424.31,"N_COORD97":2548200.25,"ADDRESS":"中興路７３６號","OBJECTID":38494},"geometry":{"x":179424.30999999866,"y":2548200.2500000019}},{"attributes":{"ID":38495,"DIS_CODE":0,"TOWNNAME":"安南區","LI":"城西里","LIN":"7鄰","STREET":"城西街","SECT":"三段","MAREA":" ","LANE":"５０１巷","ALLEY":"２４８弄","HOUSE_NO":"５６號","E_COORD97":157087.29000000001,"N_COORD97":2549941.5600000001,"ADDRESS":"城西街三段５０１巷２４８弄５６號","OBJECTID":38495},"geometry":{"x":157087.29000000004,"y":2549941.5600000024}},{"attributes":{"ID":38496,"DIS_CODE":0,"TOWNNAME":"新化區","LI":"東榮里","LIN":"34鄰","STREET":"中山路","SECT":" ","MAREA":" ","LANE":" ","ALLEY":" ","HOUSE_NO":"２２７號","E_COORD97":179160.70999999999,"N_COORD97":2548439.25,"ADDRESS":"中山路２２７號","OBJECTID":38496},"geometry":{"x":179160.70999999996,"y":2548439.25}},{"attributes":{"ID":38497,"DIS_CODE":0,"TOWNNAME":"新化區","LI":"協興里","LIN":"4鄰","STREET":"正新路","SECT":" ","MAREA":" ","LANE":" ","ALLEY":" ","HOUSE_NO":"２３７號","E_COORD97":178551.01999999999,"N_COORD97":2548463.25,"ADDRESS":"正新路２３７號","OBJECTID":38497},"geometry":{"x":178551.01999999955,"y":2548463.25}},{"attributes":{"ID":38498,"DIS_CODE":0,"TOWNNAME":"新化區","LI":"協興里","LIN":"16鄰","STREET":"中山路","SECT":" ","MAREA":" ","LANE":" ","ALLEY":" ","HOUSE_NO":"９００號之１","E_COORD97":177203.20999999999,"N_COORD97":2548342.2599999998,"ADDRESS":"中山路９００之１號","OBJECTID":38498},"geometry":{"x":177203.21000000183,"y":2548342.2600000016}},{"attributes":{"ID":38499,"DIS_CODE":0,"TOWNNAME":"新市區","LI":"新和里","LIN":"7鄰","STREET":"富強路","SECT":" ","MAREA":" ","LANE":"５１巷","ALLEY":"２弄","HOUSE_NO":"８號","E_COORD97":177266.20999999999,"N_COORD97":2552379.75,"ADDRESS":"富強路５１巷２弄８號","OBJECTID":38499},"geometry":{"x":177266.21000000089,"y":2552379.7500000037}},{"attributes":{"ID":38500,"DIS_CODE":0,"TOWNNAME":"新化區","LI":"竹林里","LIN":"4鄰","STREET":"民族街","SECT":" ","MAREA":" ","LANE":" ","ALLEY":" ","HOUSE_NO":"１９號","E_COORD97":178890.26000000001,"N_COORD97":2548490.25,"ADDRESS":"民族街１９號","OBJECTID":38500},"geometry":{"x":178890.25999999978,"y":2548490.25}},{"attributes":{"ID":38501,"DIS_CODE":0,"TOWNNAME":"安定區","LI":"海寮里","LIN":"14鄰","STREET":" ","SECT":" ","MAREA":"海寮","LANE":" ","ALLEY":" ","HOUSE_NO":"１３２之１１２號","E_COORD97":168982.73999999999,"N_COORD97":2555405.2999999998,"ADDRESS":"海寮１３２之１１２號","OBJECTID":38501},"geometry":{"x":168982.74000000022,"y":2555405.3000000026}},{"attributes":{"ID":38502,"DIS_CODE":0,"TOWNNAME":"北區","LI":"成功里","LIN":"5鄰","STREET":"北安路","SECT":"一段","MAREA":" ","LANE":"１４２巷","ALLEY":"２５弄","HOUSE_NO":"１２號","E_COORD97":168975.60000000001,"N_COORD97":2546532.5600000001,"ADDRESS":"北安路一段１４２巷２５弄１２號","OBJECTID":38502},"geometry":{"x":168975.60000000056,"y":2546532.5600000005}},{"attributes":{"ID":38503,"DIS_CODE":0,"TOWNNAME":"北區","LI":"成功里","LIN":"5鄰","STREET":"北安路","SECT":"一段","MAREA":" ","LANE":"１４２巷","ALLEY":"２５弄","HOUSE_NO":"２號","E_COORD97":169012.82999999999,"N_COORD97":2546505.6800000002,"ADDRESS":"北安路一段１４２巷２５弄２號","OBJECTID":38503},"geometry":{"x":169012.83000000007,"y":2546505.6800000016}},{"attributes":{"ID":38504,"DIS_CODE":0,"TOWNNAME":"安定區","LI":"海寮里","LIN":"14鄰","STREET":" ","SECT":" ","MAREA":"海寮","LANE":" ","ALLEY":" ","HOUSE_NO":"１３２號之４４","E_COORD97":169012.64999999999,"N_COORD97":2555448.2999999998,"ADDRESS":"海寮１３２號之４４","OBJECTID":38504},"geometry":{"x":169012.65000000037,"y":2555448.3000000007}},{"attributes":{"ID":38505,"DIS_CODE":0,"TOWNNAME":"北區","LI":"成功里","LIN":"5鄰","STREET":"北安路","SECT":"一段","MAREA":" ","LANE":"１４２巷","ALLEY":"２５弄","HOUSE_NO":"４號","E_COORD97":169006.54999999999,"N_COORD97":2546509.2599999998,"ADDRESS":"北安路一段１４２巷２５弄４號","OBJECTID":38505},"geometry":{"x":169006.55000000075,"y":2546509.2599999998}},{"attributes":{"ID":38506,"DIS_CODE":0,"TOWNNAME":"北區","LI":"成功里","LIN":"5鄰","STREET":"北安路","SECT":"一段","MAREA":" ","LANE":"１４２巷","ALLEY":"２５弄","HOUSE_NO":"６號","E_COORD97":168997.57999999999,"N_COORD97":2546515.98,"ADDRESS":"北安路一段１４２巷２５弄６號","OBJECTID":38506},"geometry":{"x":168997.57999999914,"y":2546515.9800000004}},{"attributes":{"ID":38507,"DIS_CODE":0,"TOWNNAME":"北區","LI":"成功里","LIN":"5鄰","STREET":"北安路","SECT":"一段","MAREA":" ","LANE":"１４２巷","ALLEY":"２５弄","HOUSE_NO":"８號","E_COORD97":168990.39999999999,"N_COORD97":2546520.9100000001,"ADDRESS":"北安路一段１４２巷２５弄８號","OBJECTID":38507},"geometry":{"x":168990.40000000037,"y":2546520.910000002}},{"attributes":{"ID":38508,"DIS_CODE":0,"TOWNNAME":"北區","LI":"成功里","LIN":"6鄰","STREET":"北安路","SECT":"一段","MAREA":" ","LANE":"１７６巷","ALLEY":"２１弄","HOUSE_NO":"１０號","E_COORD97":168898.82000000001,"N_COORD97":2546550.4700000002,"ADDRESS":"北安路一段１７６巷２１弄１０號","OBJECTID":38508},"geometry":{"x":168898.82000000123,"y":2546550.4700000007}},{"attributes":{"ID":38509,"DIS_CODE":0,"TOWNNAME":"北區","LI":"成功里","LIN":"6鄰","STREET":"北安路","SECT":"一段","MAREA":" ","LANE":"１７６巷","ALLEY":"２１弄","HOUSE_NO":"１２號","E_COORD97":168895.60999999999,"N_COORD97":2546552.3900000001,"ADDRESS":"北安路一段１７６巷２１弄１２號","OBJECTID":38509},"geometry":{"x":168895.61000000034,"y":2546552.3900000025}},{"attributes":{"ID":38510,"DIS_CODE":0,"TOWNNAME":"北區","LI":"成功里","LIN":"6鄰","STREET":"北安路","SECT":"一段","MAREA":" ","LANE":"１７６巷","ALLEY":"２１弄","HOUSE_NO":"１４號","E_COORD97":168892.09,"N_COORD97":2546554.3100000001,"ADDRESS":"北安路一段１７６巷２１弄１４號","OBJECTID":38510},"geometry":{"x":168892.08999999985,"y":2546554.3100000005}},{"attributes":{"ID":38511,"DIS_CODE":0,"TOWNNAME":"北區","LI":"成功里","LIN":"6鄰","STREET":"北安路","SECT":"一段","MAREA":" ","LANE":"１７６巷","ALLEY":"２１弄","HOUSE_NO":"１６號","E_COORD97":168888.56,"N_COORD97":2546556.5499999998,"ADDRESS":"北安路一段１７６巷２１弄１６號","OBJECTID":38511},"geometry":{"x":168888.55999999959,"y":2546556.5500000007}},{"attributes":{"ID":38512,"DIS_CODE":0,"TOWNNAME":"永康區","LI":"西勢里","LIN":"14鄰","STREET":"西勢路","SECT":" ","MAREA":" ","LANE":" ","ALLEY":" ","HOUSE_NO":"３１號之１","E_COORD97":176193.73999999999,"N_COORD97":2546751.3700000001,"ADDRESS":"西勢路３１號之１","OBJECTID":38512},"geometry":{"x":176193.74000000022,"y":2546751.370000001}},{"attributes":{"ID":38513,"DIS_CODE":0,"TOWNNAME":"中西區","LI":"民生里","LIN":"14鄰","STREET":"南華街","SECT":" ","MAREA":" ","LANE":" ","ALLEY":" ","HOUSE_NO":"６８號","E_COORD97":167116.45000000001,"N_COORD97":2543451.6600000001,"ADDRESS":"南華街６８號","OBJECTID":38513},"geometry":{"x":167116.45000000019,"y":2543451.660000002}},{"attributes":{"ID":38514,"DIS_CODE":0,"TOWNNAME":"安定區","LI":"新吉里","LIN":"14鄰","STREET":" ","SECT":" ","MAREA":"新吉","LANE":" ","ALLEY":" ","HOUSE_NO":"１２５號之９","E_COORD97":169142.34,"N_COORD97":2553880.2999999998,"ADDRESS":"新吉１２５號之９","OBJECTID":38514},"geometry":{"x":169142.34000000078,"y":2553880.3000000026}},{"attributes":{"ID":38515,"DIS_CODE":0,"TOWNNAME":"安定區","LI":"蘇林里","LIN":"14鄰","STREET":" ","SECT":" ","MAREA":"蘇厝","LANE":" ","ALLEY":" ","HOUSE_NO":"１６０號","E_COORD97":173448.72,"N_COORD97":2558887.25,"ADDRESS":"蘇厝１６０號","OBJECTID":38515},"geometry":{"x":173448.72000000067,"y":2558887.2500000019}},{"attributes":{"ID":38516,"DIS_CODE":0,"TOWNNAME":"北區","LI":"成功里","LIN":"6鄰","STREET":"北安路","SECT":"一段","MAREA":" ","LANE":"１７６巷","ALLEY":"２１弄","HOUSE_NO":"１８號","E_COORD97":168885.03,"N_COORD97":2546559.1200000001,"ADDRESS":"北安路一段１７６巷２１弄１８號","OBJECTID":38516},"geometry":{"x":168885.03000000119,"y":2546559.120000001}},{"attributes":{"ID":38517,"DIS_CODE":0,"TOWNNAME":"六甲區","LI":"甲南里","LIN":"18鄰","STREET":"永安街","SECT":" ","MAREA":" ","LANE":" ","ALLEY":" ","HOUSE_NO":"１０號","E_COORD97":183935.70999999999,"N_COORD97":2569868,"ADDRESS":"永安街１０號","OBJECTID":38517},"geometry":{"x":183935.70999999996,"y":2569868}},{"attributes":{"ID":38518,"DIS_CODE":0,"TOWNNAME":"安定區","LI":"海寮里","LIN":"14鄰","STREET":" ","SECT":" ","MAREA":"海寮","LANE":" ","ALLEY":" ","HOUSE_NO":"１３４號","E_COORD97":169088.23999999999,"N_COORD97":2555467.2400000002,"ADDRESS":"海寮１３４號","OBJECTID":38518},"geometry":{"x":169088.23999999929,"y":2555467.2400000002}},{"attributes":{"ID":38519,"DIS_CODE":0,"TOWNNAME":"安定區","LI":"大同里","LIN":"14鄰","STREET":" ","SECT":" ","MAREA":"牛肉寮","LANE":" ","ALLEY":" ","HOUSE_NO":"６６號","E_COORD97":170889.01999999999,"N_COORD97":2552853.25,"ADDRESS":"牛肉寮６６號","OBJECTID":38519},"geometry":{"x":170889.01999999955,"y":2552853.25}},{"attributes":{"ID":38520,"DIS_CODE":0,"TOWNNAME":"安定區","LI":"海寮里","LIN":"14鄰","STREET":" ","SECT":" ","MAREA":"海寮","LANE":" ","ALLEY":" ","HOUSE_NO":"１３４號之２２","E_COORD97":168919.56,"N_COORD97":2555427.2999999998,"ADDRESS":"海寮１３４號之２２","OBJECTID":38520},"geometry":{"x":168919.56000000052,"y":2555427.3000000007}},{"attributes":{"ID":38521,"DIS_CODE":0,"TOWNNAME":"北區","LI":"成功里","LIN":"6鄰","STREET":"北安路","SECT":"一段","MAREA":" ","LANE":"１７６巷","ALLEY":"２１弄","HOUSE_NO":"２０號","E_COORD97":168882.14999999999,"N_COORD97":2546561.04,"ADDRESS":"北安路一段１７６巷２１弄２０號","OBJECTID":38521},"geometry":{"x":168882.14999999944,"y":2546561.0399999991}},{"attributes":{"ID":38522,"DIS_CODE":0,"TOWNNAME":"安定區","LI":"海寮里","LIN":"14鄰","STREET":" ","SECT":" ","MAREA":"海寮","LANE":" ","ALLEY":" ","HOUSE_NO":"１３３之１２號","E_COORD97":169044.21037799999,"N_COORD97":2555371.1067400002,"ADDRESS":"海寮１３３之１２號","OBJECTID":38522},"geometry":{"x":169044.21037800051,"y":2555371.1067410018}},{"attributes":{"ID":38523,"DIS_CODE":0,"TOWNNAME":"安定區","LI":"海寮里","LIN":"14鄰","STREET":" ","SECT":" ","MAREA":"海寮","LANE":" ","ALLEY":" ","HOUSE_NO":"１３２號之７","E_COORD97":169061.76000000001,"N_COORD97":2555421.2999999998,"ADDRESS":"海寮１３２號之７","OBJECTID":38523},"geometry":{"x":169061.75999999978,"y":2555421.2999999989}},{"attributes":{"ID":38524,"DIS_CODE":0,"TOWNNAME":"安定區","LI":"海寮里","LIN":"14鄰","STREET":" ","SECT":" ","MAREA":"海寮","LANE":" ","ALLEY":" ","HOUSE_NO":"１３２號之４","E_COORD97":169059.20000000001,"N_COORD97":2555436.2999999998,"ADDRESS":"海寮１３２號之４","OBJECTID":38524},"geometry":{"x":169059.20000000019,"y":2555436.3000000026}},{"attributes":{"ID":38525,"DIS_CODE":0,"TOWNNAME":"北區","LI":"成功里","LIN":"18鄰","STREET":"北成路","SECT":" ","MAREA":" ","LANE":"１２８巷","ALLEY":"４５弄","HOUSE_NO":"１３號","E_COORD97":168915.13,"N_COORD97":2546814.79,"ADDRESS":"北成路１２８巷４５弄１３號","OBJECTID":38525},"geometry":{"x":168915.12999999989,"y":2546814.7899999972}},{"attributes":{"ID":38526,"DIS_CODE":0,"TOWNNAME":"北區","LI":"成功里","LIN":"18鄰","STREET":"北成路","SECT":" ","MAREA":" ","LANE":"１２８巷","ALLEY":"４５弄","HOUSE_NO":"１５號","E_COORD97":168911.03,"N_COORD97":2546816.8300000001,"ADDRESS":"北成路１２８巷４５弄１５號","OBJECTID":38526},"geometry":{"x":168911.03000000026,"y":2546816.8300000019}},{"attributes":{"ID":38527,"DIS_CODE":0,"TOWNNAME":"安定區","LI":"海寮里","LIN":"14鄰","STREET":" ","SECT":" ","MAREA":"海寮","LANE":" ","ALLEY":" ","HOUSE_NO":"１３７之８號","E_COORD97":169066.84,"N_COORD97":2555687.2999999998,"ADDRESS":"海寮１３７之８號","OBJECTID":38527},"geometry":{"x":169066.83999999892,"y":2555687.3000000026}},{"attributes":{"ID":38528,"DIS_CODE":0,"TOWNNAME":"北區","LI":"成功里","LIN":"18鄰","STREET":"北成路","SECT":" ","MAREA":" ","LANE":"１２８巷","ALLEY":"４５弄","HOUSE_NO":"１７號","E_COORD97":168907.23000000001,"N_COORD97":2546818.8799999999,"ADDRESS":"北成路１２８巷４５弄１７號","OBJECTID":38528},"geometry":{"x":168907.23000000231,"y":2546818.8800000008}},{"attributes":{"ID":38529,"DIS_CODE":0,"TOWNNAME":"北區","LI":"成功里","LIN":"19鄰","STREET":"北成路","SECT":" ","MAREA":" ","LANE":"１２８巷","ALLEY":"４５弄","HOUSE_NO":"１０號","E_COORD97":168936.51000000001,"N_COORD97":2546850.8199999998,"ADDRESS":"北成路１２８巷４５弄１０號","OBJECTID":38529},"geometry":{"x":168936.50999999978,"y":2546850.8200000022}},{"attributes":{"ID":38530,"DIS_CODE":0,"TOWNNAME":"北區","LI":"成功里","LIN":"19鄰","STREET":"北成路","SECT":" ","MAREA":" ","LANE":"１２８巷","ALLEY":"４５弄","HOUSE_NO":"１２號","E_COORD97":168931.23999999999,"N_COORD97":2546854.9100000001,"ADDRESS":"北成路１２８巷４５弄１２號","OBJECTID":38530},"geometry":{"x":168931.24000000115,"y":2546854.9100000001}},{"attributes":{"ID":38531,"DIS_CODE":0,"TOWNNAME":"北區","LI":"成功里","LIN":"19鄰","STREET":"北成路","SECT":" ","MAREA":" ","LANE":"１２８巷","ALLEY":"４５弄","HOUSE_NO":"１４號","E_COORD97":168923.63,"N_COORD97":2546858.7200000002,"ADDRESS":"北成路１２８巷４５弄１４號","OBJECTID":38531},"geometry":{"x":168923.62999999989,"y":2546858.7200000025}},{"attributes":{"ID":38532,"DIS_CODE":0,"TOWNNAME":"北區","LI":"成功里","LIN":"19鄰","STREET":"北成路","SECT":" ","MAREA":" ","LANE":"１２８巷","ALLEY":"４５弄","HOUSE_NO":"１６號","E_COORD97":168912.5,"N_COORD97":2546840.5499999998,"ADDRESS":"北成路１２８巷４５弄１６號","OBJECTID":38532},"geometry":{"x":168912.50000000093,"y":2546840.5500000007}},{"attributes":{"ID":38533,"DIS_CODE":0,"TOWNNAME":"北區","LI":"成功里","LIN":"18鄰","STREET":"北成路","SECT":" ","MAREA":" ","LANE":"１２８巷","ALLEY":"４５弄","HOUSE_NO":"１９號","E_COORD97":168903.42000000001,"N_COORD97":2546820.9300000002,"ADDRESS":"北成路１２８巷４５弄１９號","OBJECTID":38533},"geometry":{"x":168903.41999999993,"y":2546820.9299999997}},{"attributes":{"ID":38534,"DIS_CODE":0,"TOWNNAME":"北區","LI":"成功里","LIN":"18鄰","STREET":"北成路","SECT":" ","MAREA":" ","LANE":"１２８巷","ALLEY":"４５弄","HOUSE_NO":"２１號","E_COORD97":168901.07000000001,"N_COORD97":2546826.7799999998,"ADDRESS":"北成路１２８巷４５弄２１號","OBJECTID":38534},"geometry":{"x":168901.0700000003,"y":2546826.7800000012}},{"attributes":{"ID":38535,"DIS_CODE":0,"TOWNNAME":"北區","LI":"成功里","LIN":"18鄰","STREET":"北成路","SECT":" ","MAREA":" ","LANE":"１２８巷","ALLEY":"４５弄","HOUSE_NO":"２３號","E_COORD97":168896.97,"N_COORD97":2546829.71,"ADDRESS":"北成路１２８巷４５弄２３號","OBJECTID":38535},"geometry":{"x":168896.97000000067,"y":2546829.7100000009}},{"attributes":{"ID":38536,"DIS_CODE":0,"TOWNNAME":"北區","LI":"成功里","LIN":"18鄰","STREET":"北成路","SECT":" ","MAREA":" ","LANE":"１２８巷","ALLEY":"４５弄","HOUSE_NO":"２５號","E_COORD97":168892.87,"N_COORD97":2546832.3399999999,"ADDRESS":"北成路１２８巷４５弄２５號","OBJECTID":38536},"geometry":{"x":168892.87000000104,"y":2546832.3400000036}},{"attributes":{"ID":38537,"DIS_CODE":0,"TOWNNAME":"北區","LI":"成功里","LIN":"18鄰","STREET":"北成路","SECT":" ","MAREA":" ","LANE":"１２８巷","ALLEY":"４５弄","HOUSE_NO":"２７號","E_COORD97":168887.60000000001,"N_COORD97":2546834.6800000002,"ADDRESS":"北成路１２８巷４５弄２７號","OBJECTID":38537},"geometry":{"x":168887.60000000056,"y":2546834.6800000016}},{"attributes":{"ID":38538,"DIS_CODE":0,"TOWNNAME":"六甲區","LI":"王爺里","LIN":"7鄰","STREET":" ","SECT":" ","MAREA":"番子坑","LANE":" ","ALLEY":" ","HOUSE_NO":"２０號","E_COORD97":188561.39999999999,"N_COORD97":2569428.8199999998,"ADDRESS":"番子坑２０號","OBJECTID":38538},"geometry":{"x":188561.40000000037,"y":2569428.8200000003}},{"attributes":{"ID":38539,"DIS_CODE":0,"TOWNNAME":"北區","LI":"成功里","LIN":"19鄰","STREET":"北成路","SECT":" ","MAREA":" ","LANE":"１２８巷","ALLEY":"４５弄","HOUSE_NO":"１８之６號","E_COORD97":168873.84,"N_COORD97":2546866.5800000001,"ADDRESS":"北成路１２８巷４５弄１８之６號","OBJECTID":38539},"geometry":{"x":168873.84000000078,"y":2546866.5800000019}},{"attributes":{"ID":38540,"DIS_CODE":0,"TOWNNAME":"北區","LI":"成功里","LIN":"19鄰","STREET":"北成路","SECT":" ","MAREA":" ","LANE":"１２８巷","ALLEY":"４５弄","HOUSE_NO":"１８號","E_COORD97":168908.69,"N_COORD97":2546846.3999999999,"ADDRESS":"北成路１２８巷４５弄１８號","OBJECTID":38540},"geometry":{"x":168908.69000000041,"y":2546846.4000000022}},{"attributes":{"ID":38541,"DIS_CODE":0,"TOWNNAME":"北區","LI":"成功里","LIN":"19鄰","STREET":"北成路","SECT":" ","MAREA":" ","LANE":"１２８巷","ALLEY":"４５弄","HOUSE_NO":"２０號","E_COORD97":168894.92000000001,"N_COORD97":2546851.96,"ADDRESS":"北成路１２８巷４５弄２０號","OBJECTID":38541},"geometry":{"x":168894.91999999993,"y":2546851.9600000009}},{"attributes":{"ID":38542,"DIS_CODE":0,"TOWNNAME":"北區","LI":"成功里","LIN":"19鄰","STREET":"北成路","SECT":" ","MAREA":" ","LANE":"１２８巷","ALLEY":"４５弄","HOUSE_NO":"２號","E_COORD97":168954.97,"N_COORD97":2546835.6099999999,"ADDRESS":"北成路１２８巷４５弄２號","OBJECTID":38542},"geometry":{"x":168954.96999999974,"y":2546835.6099999994}},{"attributes":{"ID":38543,"DIS_CODE":0,"TOWNNAME":"北區","LI":"成功里","LIN":"19鄰","STREET":"北成路","SECT":" ","MAREA":" ","LANE":"１２８巷","ALLEY":"４５弄","HOUSE_NO":"６號","E_COORD97":168951.73999999999,"N_COORD97":2546843.7999999998,"ADDRESS":"北成路１２８巷４５弄６號","OBJECTID":38543},"geometry":{"x":168951.74000000115,"y":2546843.8000000045}},{"attributes":{"ID":38544,"DIS_CODE":0,"TOWNNAME":"北區","LI":"成功里","LIN":"19鄰","STREET":"北成路","SECT":" ","MAREA":" ","LANE":"１２８巷","ALLEY":"４５弄","HOUSE_NO":"８號","E_COORD97":168945.01000000001,"N_COORD97":2546846.1400000001,"ADDRESS":"北成路１２８巷４５弄８號","OBJECTID":38544},"geometry":{"x":168945.00999999978,"y":2546846.1400000025}},{"attributes":{"ID":38545,"DIS_CODE":0,"TOWNNAME":"六甲區","LI":"王爺里","LIN":"7鄰","STREET":" ","SECT":" ","MAREA":"番子坑","LANE":" ","ALLEY":" ","HOUSE_NO":"２１號","E_COORD97":188541.53,"N_COORD97":2569405.9500000002,"ADDRESS":"番子坑２１號","OBJECTID":38545},"geometry":{"x":188541.53000000026,"y":2569405.9499999993}},{"attributes":{"ID":38546,"DIS_CODE":0,"TOWNNAME":"下營區","LI":"營前里","LIN":"7鄰","STREET":"中山路","SECT":"二段","MAREA":" ","LANE":"１１１巷","ALLEY":"１弄","HOUSE_NO":"１號","E_COORD97":174525.04999999999,"N_COORD97":2570199.5499999998,"ADDRESS":"中山路二段１１１巷１弄１號","OBJECTID":38546},"geometry":{"x":174525.04999999981,"y":2570199.5500000026}},{"attributes":{"ID":38547,"DIS_CODE":0,"TOWNNAME":"下營區","LI":"營前里","LIN":"7鄰","STREET":"中山路","SECT":"二段","MAREA":" ","LANE":"１１１巷","ALLEY":"１弄","HOUSE_NO":"２號","E_COORD97":174523.85000000001,"N_COORD97":2570204.6800000002,"ADDRESS":"中山路二段１１１巷１弄２號","OBJECTID":38547},"geometry":{"x":174523.85000000056,"y":2570204.6800000016}},{"attributes":{"ID":38548,"DIS_CODE":0,"TOWNNAME":"下營區","LI":"營前里","LIN":"7鄰","STREET":"中山路","SECT":"二段","MAREA":" ","LANE":"１１１巷","ALLEY":"１弄","HOUSE_NO":"３號","E_COORD97":174522.60000000001,"N_COORD97":2570208.1899999999,"ADDRESS":"中山路二段１１１巷１弄３號","OBJECTID":38548},"geometry":{"x":174522.59999999963,"y":2570208.1899999995}},{"attributes":{"ID":38549,"DIS_CODE":0,"TOWNNAME":"新營區","LI":"王公里","LIN":"28鄰","STREET":"大公街","SECT":" ","MAREA":" ","LANE":"４６巷","ALLEY":"２弄","HOUSE_NO":"７號","E_COORD97":180190.78,"N_COORD97":2579629.4199999999,"ADDRESS":"大公街４６巷２弄７號","OBJECTID":38549},"geometry":{"x":180190.78000000026,"y":2579629.4199999999}},{"attributes":{"ID":38550,"DIS_CODE":0,"TOWNNAME":"下營區","LI":"營前里","LIN":"7鄰","STREET":"中山路","SECT":"二段","MAREA":" ","LANE":"１１１巷","ALLEY":"１弄","HOUSE_NO":"５號","E_COORD97":174521.69,"N_COORD97":2570212.8999999999,"ADDRESS":"中山路二段１１１巷１弄５號","OBJECTID":38550},"geometry":{"x":174521.69000000041,"y":2570212.9000000022}},{"attributes":{"ID":38551,"DIS_CODE":0,"TOWNNAME":"下營區","LI":"營前里","LIN":"7鄰","STREET":"中山路","SECT":"二段","MAREA":" ","LANE":"１１１巷","ALLEY":"１弄","HOUSE_NO":"６號","E_COORD97":174520.72,"N_COORD97":2570216.9500000002,"ADDRESS":"中山路二段１１１巷１弄６號","OBJECTID":38551},"geometry":{"x":174520.71999999974,"y":2570216.9499999993}},{"attributes":{"ID":38552,"DIS_CODE":0,"TOWNNAME":"下營區","LI":"營前里","LIN":"7鄰","STREET":"中山路","SECT":"二段","MAREA":" ","LANE":"１１１巷","ALLEY":"１弄","HOUSE_NO":"７號","E_COORD97":174519.48000000001,"N_COORD97":2570222.3999999999,"ADDRESS":"中山路二段１１１巷１弄７號","OBJECTID":38552},"geometry":{"x":174519.48000000045,"y":2570222.4000000004}},{"attributes":{"ID":38553,"DIS_CODE":0,"TOWNNAME":"永康區","LI":"永康里","LIN":"7鄰","STREET":"中山南路","SECT":" ","MAREA":" ","LANE":"１１１６巷","ALLEY":"１５弄","HOUSE_NO":"４號","E_COORD97":173930.76999999999,"N_COORD97":2547296.4900000002,"ADDRESS":"中山南路１１１６巷１５弄４號","OBJECTID":38553},"geometry":{"x":173930.77000000048,"y":2547296.4900000039}},{"attributes":{"ID":38554,"DIS_CODE":0,"TOWNNAME":"永康區","LI":"正強里","LIN":"7鄰","STREET":"自強路","SECT":" ","MAREA":" ","LANE":"３３０巷","ALLEY":"２１弄","HOUSE_NO":"１２號","E_COORD97":173471.89000000001,"N_COORD97":2547623.2400000002,"ADDRESS":"自強路３３０巷２１弄１２號","OBJECTID":38554},"geometry":{"x":173471.88999999966,"y":2547623.2399999984}},{"attributes":{"ID":38555,"DIS_CODE":0,"TOWNNAME":"安南區","LI":"州北里","LIN":"7鄰","STREET":"安和路","SECT":"五段","MAREA":" ","LANE":"３３６巷","ALLEY":"３３弄","HOUSE_NO":"１號","E_COORD97":169749.04999999999,"N_COORD97":2552240.0499999998,"ADDRESS":"安和路五段３３６巷３３弄１號","OBJECTID":38555},"geometry":{"x":169749.05000000075,"y":2552240.0500000026}},{"attributes":{"ID":38556,"DIS_CODE":0,"TOWNNAME":"安南區","LI":"州北里","LIN":"7鄰","STREET":"安和路","SECT":"五段","MAREA":" ","LANE":"３３６巷","ALLEY":"３３弄","HOUSE_NO":"３號","E_COORD97":169749.35000000001,"N_COORD97":2552247.3100000001,"ADDRESS":"安和路五段３３６巷３３弄３號","OBJECTID":38556},"geometry":{"x":169749.34999999963,"y":2552247.3100000005}},{"attributes":{"ID":38557,"DIS_CODE":0,"TOWNNAME":"安南區","LI":"州北里","LIN":"7鄰","STREET":"安和路","SECT":"五段","MAREA":" ","LANE":"３３６巷","ALLEY":"３３弄","HOUSE_NO":"５號","E_COORD97":169749.35000000001,"N_COORD97":2552253.5099999998,"ADDRESS":"安和路五段３３６巷３３弄５號","OBJECTID":38557},"geometry":{"x":169749.34999999963,"y":2552253.5100000016}},{"attributes":{"ID":38558,"DIS_CODE":0,"TOWNNAME":"安南區","LI":"州北里","LIN":"7鄰","STREET":"安和路","SECT":"五段","MAREA":" ","LANE":"３３６巷","ALLEY":"３３弄","HOUSE_NO":"７號","E_COORD97":169749.04999999999,"N_COORD97":2552259.4100000001,"ADDRESS":"安和路五段３３６巷３３弄７號","OBJECTID":38558},"geometry":{"x":169749.05000000075,"y":2552259.4100000001}},{"attributes":{"ID":38559,"DIS_CODE":0,"TOWNNAME":"安南區","LI":"州北里","LIN":"7鄰","STREET":"安和路","SECT":"五段","MAREA":" ","LANE":"３３６巷","ALLEY":"３３弄","HOUSE_NO":"９號","E_COORD97":169748.75,"N_COORD97":2552265.6200000001,"ADDRESS":"安和路五段３３６巷３３弄９號","OBJECTID":38559},"geometry":{"x":169748.75,"y":2552265.620000001}},{"attributes":{"ID":38560,"DIS_CODE":0,"TOWNNAME":"安南區","LI":"州北里","LIN":"7鄰","STREET":"安和路","SECT":"五段","MAREA":" ","LANE":"３３６巷","ALLEY":"３３弄","HOUSE_NO":"１１號","E_COORD97":169749.20000000001,"N_COORD97":2552271.9700000002,"ADDRESS":"安和路五段３３６巷３３弄１１號","OBJECTID":38560},"geometry":{"x":169749.20000000019,"y":2552271.9700000025}},{"attributes":{"ID":38561,"DIS_CODE":0,"TOWNNAME":"安南區","LI":"州北里","LIN":"7鄰","STREET":"安和路","SECT":"五段","MAREA":" ","LANE":"３３６巷","ALLEY":"３３弄","HOUSE_NO":"１３號","E_COORD97":169749.35000000001,"N_COORD97":2552277.5699999998,"ADDRESS":"安和路五段３３６巷３３弄１３號","OBJECTID":38561},"geometry":{"x":169749.34999999963,"y":2552277.5700000022}},{"attributes":{"ID":38562,"DIS_CODE":0,"TOWNNAME":"安南區","LI":"州北里","LIN":"7鄰","STREET":"安和路","SECT":"五段","MAREA":" ","LANE":"３３６巷","ALLEY":"３３弄","HOUSE_NO":"１５號","E_COORD97":169750.10999999999,"N_COORD97":2552283.6200000001,"ADDRESS":"安和路五段３３６巷３３弄１５號","OBJECTID":38562},"geometry":{"x":169750.11000000034,"y":2552283.6200000048}},{"attributes":{"ID":38563,"DIS_CODE":0,"TOWNNAME":"安南區","LI":"州北里","LIN":"7鄰","STREET":"安和路","SECT":"五段","MAREA":" ","LANE":"３３６巷","ALLEY":"３３弄","HOUSE_NO":"２號","E_COORD97":169763.73000000001,"N_COORD97":2552240.7999999998,"ADDRESS":"安和路五段３３６巷３３弄２號","OBJECTID":38563},"geometry":{"x":169763.73000000138,"y":2552240.8000000007}},{"attributes":{"ID":38564,"DIS_CODE":0,"TOWNNAME":"佳里區","LI":"東寧里","LIN":"14鄰","STREET":"義民街","SECT":" ","MAREA":" ","LANE":" ","ALLEY":" ","HOUSE_NO":"９２號","E_COORD97":165923.84,"N_COORD97":2562434.9700000002,"ADDRESS":"義民街９２號","OBJECTID":38564},"geometry":{"x":165923.83999999985,"y":2562434.9700000044}},{"attributes":{"ID":38565,"DIS_CODE":0,"TOWNNAME":"安平區","LI":"怡平里","LIN":"26鄰","STREET":"永華六街","SECT":" ","MAREA":" ","LANE":" ","ALLEY":" ","HOUSE_NO":"３２之５號","E_COORD97":165643.10999999999,"N_COORD97":2543618.3700000001,"ADDRESS":"永華六街３２之５號","OBJECTID":38565},"geometry":{"x":165643.1100000022,"y":2543618.370000001}},{"attributes":{"ID":38566,"DIS_CODE":0,"TOWNNAME":"六甲區","LI":"王爺里","LIN":"7鄰","STREET":" ","SECT":" ","MAREA":"番子坑","LANE":" ","ALLEY":" ","HOUSE_NO":"２２之１號","E_COORD97":188559.91,"N_COORD97":2569358.96,"ADDRESS":"番子坑２２之１號","OBJECTID":38566},"geometry":{"x":188559.91000000108,"y":2569358.9600000028}},{"attributes":{"ID":38567,"DIS_CODE":0,"TOWNNAME":"六甲區","LI":"王爺里","LIN":"7鄰","STREET":" ","SECT":" ","MAREA":"番子坑","LANE":" ","ALLEY":" ","HOUSE_NO":"２３號之１","E_COORD97":188516.23000000001,"N_COORD97":2569360.2400000002,"ADDRESS":"番子坑２３號之１","OBJECTID":38567},"geometry":{"x":188516.23000000138,"y":2569360.2400000021}},{"attributes":{"ID":38568,"DIS_CODE":0,"TOWNNAME":"安平區","LI":"怡平里","LIN":"26鄰","STREET":"永華六街","SECT":" ","MAREA":" ","LANE":" ","ALLEY":" ","HOUSE_NO":"３２號","E_COORD97":165607.88,"N_COORD97":2543622.2599999998,"ADDRESS":"永華六街３２號","OBJECTID":38568},"geometry":{"x":165607.87999999989,"y":2543622.2600000035}},{"attributes":{"ID":38569,"DIS_CODE":0,"TOWNNAME":"佳里區","LI":"民安里","LIN":"14鄰","STREET":" ","SECT":" ","MAREA":"新宅","LANE":" ","ALLEY":" ","HOUSE_NO":"３２號","E_COORD97":167572.34,"N_COORD97":2564798.0600000001,"ADDRESS":"新宅３２號","OBJECTID":38569},"geometry":{"x":167572.34000000078,"y":2564798.0600000024}},{"attributes":{"ID":38570,"DIS_CODE":0,"TOWNNAME":"安南區","LI":"州北里","LIN":"7鄰","STREET":"安和路","SECT":"五段","MAREA":" ","LANE":"３３６巷","ALLEY":"３３弄","HOUSE_NO":"６號","E_COORD97":169763.12,"N_COORD97":2552246.8500000001,"ADDRESS":"安和路五段３３６巷３３弄６號","OBJECTID":38570},"geometry":{"x":169763.12000000011,"y":2552246.8500000015}},{"attributes":{"ID":38571,"DIS_CODE":0,"TOWNNAME":"安南區","LI":"州北里","LIN":"7鄰","STREET":"安和路","SECT":"五段","MAREA":" ","LANE":"３３６巷","ALLEY":"３３弄","HOUSE_NO":"８號","E_COORD97":169763.12,"N_COORD97":2552252.9100000001,"ADDRESS":"安和路五段３３６巷３３弄８號","OBJECTID":38571},"geometry":{"x":169763.12000000011,"y":2552252.9100000001}},{"attributes":{"ID":38572,"DIS_CODE":0,"TOWNNAME":"安南區","LI":"州北里","LIN":"7鄰","STREET":"安和路","SECT":"五段","MAREA":" ","LANE":"３３６巷","ALLEY":"３３弄","HOUSE_NO":"１０號","E_COORD97":169762.82000000001,"N_COORD97":2552258.0499999998,"ADDRESS":"安和路五段３３６巷３３弄１０號","OBJECTID":38572},"geometry":{"x":169762.82000000123,"y":2552258.0500000026}},{"attributes":{"ID":38573,"DIS_CODE":0,"TOWNNAME":"安南區","LI":"州北里","LIN":"7鄰","STREET":"安和路","SECT":"五段","MAREA":" ","LANE":"３３６巷","ALLEY":"３３弄","HOUSE_NO":"１２號","E_COORD97":169762.82000000001,"N_COORD97":2552265.1600000001,"ADDRESS":"安和路五段３３６巷３３弄１２號","OBJECTID":38573},"geometry":{"x":169762.82000000123,"y":2552265.1599999983}},{"attributes":{"ID":38574,"DIS_CODE":0,"TOWNNAME":"安南區","LI":"州北里","LIN":"7鄰","STREET":"安和路","SECT":"五段","MAREA":" ","LANE":"３３６巷","ALLEY":"３３弄","HOUSE_NO":"１６號","E_COORD97":169762.67000000001,"N_COORD97":2552271.9700000002,"ADDRESS":"安和路五段３３６巷３３弄１６號","OBJECTID":38574},"geometry":{"x":169762.66999999993,"y":2552271.9700000025}},{"attributes":{"ID":38575,"DIS_CODE":0,"TOWNNAME":"安南區","LI":"州北里","LIN":"7鄰","STREET":"安和路","SECT":"五段","MAREA":" ","LANE":"３３６巷","ALLEY":"３３弄","HOUSE_NO":"１８號","E_COORD97":169762.67000000001,"N_COORD97":2552277.27,"ADDRESS":"安和路五段３３６巷３３弄１８號","OBJECTID":38575},"geometry":{"x":169762.66999999993,"y":2552277.2699999977}},{"attributes":{"ID":38576,"DIS_CODE":0,"TOWNNAME":"六甲區","LI":"王爺里","LIN":"7鄰","STREET":" ","SECT":" ","MAREA":"番子坑","LANE":" ","ALLEY":" ","HOUSE_NO":"２３號","E_COORD97":188518.60999999999,"N_COORD97":2569378.9199999999,"ADDRESS":"番子坑２３號","OBJECTID":38576},"geometry":{"x":188518.61000000127,"y":2569378.9200000018}},{"attributes":{"ID":38577,"DIS_CODE":0,"TOWNNAME":"六甲區","LI":"王爺里","LIN":"7鄰","STREET":" ","SECT":" ","MAREA":"番子坑","LANE":" ","ALLEY":" ","HOUSE_NO":"２４號","E_COORD97":188507.41,"N_COORD97":2569398.0499999998,"ADDRESS":"番子坑２４號","OBJECTID":38577},"geometry":{"x":188507.41000000108,"y":2569398.0499999989}},{"attributes":{"ID":38578,"DIS_CODE":0,"TOWNNAME":"六甲區","LI":"王爺里","LIN":"7鄰","STREET":" ","SECT":" ","MAREA":"番子坑","LANE":" ","ALLEY":" ","HOUSE_NO":"２５號","E_COORD97":188464.37,"N_COORD97":2569429.54,"ADDRESS":"番子坑２５號","OBJECTID":38578},"geometry":{"x":188464.37000000011,"y":2569429.5399999991}},{"attributes":{"ID":38579,"DIS_CODE":0,"TOWNNAME":"六甲區","LI":"王爺里","LIN":"7鄰","STREET":" ","SECT":" ","MAREA":"番子坑","LANE":" ","ALLEY":" ","HOUSE_NO":"２６號","E_COORD97":188427.26999999999,"N_COORD97":2569456.1600000001,"ADDRESS":"番子坑２６號","OBJECTID":38579},"geometry":{"x":188427.26999999955,"y":2569456.160000002}},{"attributes":{"ID":38580,"DIS_CODE":0,"TOWNNAME":"六甲區","LI":"王爺里","LIN":"7鄰","STREET":" ","SECT":" ","MAREA":"番子坑","LANE":" ","ALLEY":" ","HOUSE_NO":"２７號","E_COORD97":188591.84,"N_COORD97":2569351.71,"ADDRESS":"番子坑２７號","OBJECTID":38580},"geometry":{"x":188591.83999999985,"y":2569351.7100000009}},{"attributes":{"ID":38581,"DIS_CODE":0,"TOWNNAME":"六甲區","LI":"王爺里","LIN":"7鄰","STREET":" ","SECT":" ","MAREA":"番子坑","LANE":" ","ALLEY":" ","HOUSE_NO":"２８號","E_COORD97":188433.37,"N_COORD97":2569431.5,"ADDRESS":"番子坑２８號","OBJECTID":38581},"geometry":{"x":188433.37000000104,"y":2569431.4999999981}},{"attributes":{"ID":38582,"DIS_CODE":0,"TOWNNAME":"安南區","LI":"州北里","LIN":"7鄰","STREET":"安和路","SECT":"五段","MAREA":" ","LANE":"３３６巷","ALLEY":"３３弄","HOUSE_NO":"２０號","E_COORD97":169763.26999999999,"N_COORD97":2552284.0800000001,"ADDRESS":"安和路五段３３６巷３３弄２０號","OBJECTID":38582},"geometry":{"x":169763.26999999955,"y":2552284.0800000019}},{"attributes":{"ID":38583,"DIS_CODE":0,"TOWNNAME":"安南區","LI":"州北里","LIN":"7鄰","STREET":"安和路","SECT":"五段","MAREA":" ","LANE":"３３６巷","ALLEY":"３３弄","HOUSE_NO":"２２號","E_COORD97":169763.12,"N_COORD97":2552291.79,"ADDRESS":"安和路五段３３６巷３３弄２２號","OBJECTID":38583},"geometry":{"x":169763.12000000011,"y":2552291.790000001}},{"attributes":{"ID":38584,"DIS_CODE":0,"TOWNNAME":"安平區","LI":"育平里","LIN":"10鄰","STREET":"健康三街","SECT":" ","MAREA":" ","LANE":" ","ALLEY":" ","HOUSE_NO":"２３３號","E_COORD97":164778.35000000001,"N_COORD97":2543487.46,"ADDRESS":"健康三街２３３號","OBJECTID":38584},"geometry":{"x":164778.35000000056,"y":2543487.4600000028}},{"attributes":{"ID":38585,"DIS_CODE":0,"TOWNNAME":"六甲區","LI":"王爺里","LIN":"7鄰","STREET":" ","SECT":" ","MAREA":"番子坑","LANE":" ","ALLEY":" ","HOUSE_NO":"２９號","E_COORD97":188469.84,"N_COORD97":2569386.9199999999,"ADDRESS":"番子坑２９號","OBJECTID":38585},"geometry":{"x":188469.83999999985,"y":2569386.9199999999}},{"attributes":{"ID":38586,"DIS_CODE":0,"TOWNNAME":"六甲區","LI":"王爺里","LIN":"7鄰","STREET":" ","SECT":" ","MAREA":"番子坑","LANE":" ","ALLEY":" ","HOUSE_NO":"３０號","E_COORD97":188476.39999999999,"N_COORD97":2569355.8500000001,"ADDRESS":"番子坑３０號","OBJECTID":38586},"geometry":{"x":188476.40000000037,"y":2569355.8500000015}},{"attributes":{"ID":38587,"DIS_CODE":0,"TOWNNAME":"六甲區","LI":"王爺里","LIN":"7鄰","STREET":" ","SECT":" ","MAREA":"番子坑","LANE":" ","ALLEY":" ","HOUSE_NO":"３１號","E_COORD97":188506.28,"N_COORD97":2569338.8999999999,"ADDRESS":"番子坑３１號","OBJECTID":38587},"geometry":{"x":188506.28000000026,"y":2569338.9000000022}},{"attributes":{"ID":38588,"DIS_CODE":0,"TOWNNAME":"六甲區","LI":"王爺里","LIN":"7鄰","STREET":" ","SECT":" ","MAREA":"番子坑","LANE":" ","ALLEY":" ","HOUSE_NO":"３２號","E_COORD97":188512.73000000001,"N_COORD97":2569315.8599999999,"ADDRESS":"番子坑３２號","OBJECTID":38588},"geometry":{"x":188512.73000000138,"y":2569315.8599999994}},{"attributes":{"ID":38589,"DIS_CODE":0,"TOWNNAME":"安平區","LI":"育平里","LIN":"11鄰","STREET":"育平五街","SECT":" ","MAREA":" ","LANE":" ","ALLEY":" ","HOUSE_NO":"７３號","E_COORD97":164675.63,"N_COORD97":2543495.9100000001,"ADDRESS":"育平五街７３號","OBJECTID":38589},"geometry":{"x":164675.62999999989,"y":2543495.9099999983}},{"attributes":{"ID":38590,"DIS_CODE":0,"TOWNNAME":"安平區","LI":"育平里","LIN":"11鄰","STREET":"育平五街","SECT":" ","MAREA":" ","LANE":" ","ALLEY":" ","HOUSE_NO":"７５號","E_COORD97":164672.17999999999,"N_COORD97":2543494.3999999999,"ADDRESS":"育平五街７５號","OBJECTID":38590},"geometry":{"x":164672.18000000156,"y":2543494.4000000022}},{"attributes":{"ID":38591,"DIS_CODE":0,"TOWNNAME":"六甲區","LI":"菁埔里","LIN":"7鄰","STREET":" ","SECT":" ","MAREA":"菁埔","LANE":" ","ALLEY":" ","HOUSE_NO":"２６１號","E_COORD97":178388.25,"N_COORD97":2569688.6499999999,"ADDRESS":"菁埔２６１號","OBJECTID":38591},"geometry":{"x":178388.25000000093,"y":2569688.6499999985}},{"attributes":{"ID":38592,"DIS_CODE":0,"TOWNNAME":"六甲區","LI":"菁埔里","LIN":"7鄰","STREET":" ","SECT":" ","MAREA":"菁埔","LANE":" ","ALLEY":" ","HOUSE_NO":"２６２號","E_COORD97":178350.04000000001,"N_COORD97":2569580.2400000002,"ADDRESS":"菁埔２６２號","OBJECTID":38592},"geometry":{"x":178350.04000000004,"y":2569580.2400000021}},{"attributes":{"ID":38593,"DIS_CODE":0,"TOWNNAME":"六甲區","LI":"菁埔里","LIN":"7鄰","STREET":" ","SECT":" ","MAREA":"菁埔","LANE":" ","ALLEY":" ","HOUSE_NO":"２６３號","E_COORD97":178390.82000000001,"N_COORD97":2569584.1899999999,"ADDRESS":"菁埔２６３號","OBJECTID":38593},"geometry":{"x":178390.8200000003,"y":2569584.1899999995}},{"attributes":{"ID":38594,"DIS_CODE":0,"TOWNNAME":"六甲區","LI":"菁埔里","LIN":"7鄰","STREET":" ","SECT":" ","MAREA":"菁埔","LANE":" ","ALLEY":" ","HOUSE_NO":"２６５號","E_COORD97":178393.22,"N_COORD97":2569501.9300000002,"ADDRESS":"菁埔２６５號","OBJECTID":38594},"geometry":{"x":178393.22000000067,"y":2569501.9299999997}},{"attributes":{"ID":38595,"DIS_CODE":0,"TOWNNAME":"六甲區","LI":"菁埔里","LIN":"7鄰","STREET":" ","SECT":" ","MAREA":"菁埔","LANE":" ","ALLEY":" ","HOUSE_NO":"２６６號","E_COORD97":178391.01000000001,"N_COORD97":2569506.0099999998,"ADDRESS":"菁埔２６６號","OBJECTID":38595},"geometry":{"x":178391.01000000164,"y":2569506.0100000035}},{"attributes":{"ID":38596,"DIS_CODE":0,"TOWNNAME":"六甲區","LI":"菁埔里","LIN":"7鄰","STREET":" ","SECT":" ","MAREA":"菁埔","LANE":" ","ALLEY":" ","HOUSE_NO":"２７０號","E_COORD97":178429.72,"N_COORD97":2569407.5099999998,"ADDRESS":"菁埔２７０號","OBJECTID":38596},"geometry":{"x":178429.71999999974,"y":2569407.5099999979}},{"attributes":{"ID":38597,"DIS_CODE":0,"TOWNNAME":"安南區","LI":"淵東里","LIN":"14鄰","STREET":"仁安一街","SECT":" ","MAREA":" ","LANE":" ","ALLEY":" ","HOUSE_NO":"１５號","E_COORD97":165629.06,"N_COORD97":2550265.4900000002,"ADDRESS":"仁安一街１５號","OBJECTID":38597},"geometry":{"x":165629.06000000145,"y":2550265.4900000002}},{"attributes":{"ID":38598,"DIS_CODE":0,"TOWNNAME":"安南區","LI":"新順里","LIN":"14鄰","STREET":"永安二街","SECT":" ","MAREA":" ","LANE":" ","ALLEY":" ","HOUSE_NO":"６１號","E_COORD97":169942.29000000001,"N_COORD97":2549327.5099999998,"ADDRESS":"永安二街６１號","OBJECTID":38598},"geometry":{"x":169942.2900000019,"y":2549327.5100000016}},{"attributes":{"ID":38599,"DIS_CODE":0,"TOWNNAME":"安南區","LI":"安順里","LIN":"14鄰","STREET":"總安街","SECT":"一段","MAREA":" ","LANE":" ","ALLEY":" ","HOUSE_NO":"１３０號","E_COORD97":169637.41,"N_COORD97":2550190.2999999998,"ADDRESS":"總安街一段１３０號","OBJECTID":38599},"geometry":{"x":169637.41000000015,"y":2550190.3000000045}},{"attributes":{"ID":38600,"DIS_CODE":0,"TOWNNAME":"安南區","LI":"安順里","LIN":"14鄰","STREET":"總安街","SECT":"一段","MAREA":" ","LANE":" ","ALLEY":" ","HOUSE_NO":"１３２號","E_COORD97":169633.79000000001,"N_COORD97":2550193.1400000001,"ADDRESS":"總安街一段１３２號","OBJECTID":38600},"geometry":{"x":169633.79000000097,"y":2550193.1400000006}}]}