{"displayFieldName":"TOWNNAME","fieldAliases":{"ID":"ID","DIS_CODE":"DIS_CODE","TOWNNAME":"TOWNNAME","LI":"LI","LIN":"LIN","STREET":"STREET","SECT":"SECT","MAREA":"MAREA","LANE":"LANE","ALLEY":"ALLEY","HOUSE_NO":"HOUSE_NO","E_COORD97":"E_COORD97","N_COORD97":"N_COORD97","ADDRESS":"ADDRESS","OBJECTID":"OBJECTID"},"geometryType":"esriGeometryPoint","spatialReference":{"wkid":102443,"latestWkid":3826},"fields":[{"name":"ID","type":"esriFieldTypeDouble","alias":"ID"},{"name":"DIS_CODE","type":"esriFieldTypeInteger","alias":"DIS_CODE"},{"name":"TOWNNAME","type":"esriFieldTypeString","alias":"TOWNNAME","length":8},{"name":"LI","type":"esriFieldTypeString","alias":"LI","length":8},{"name":"LIN","type":"esriFieldTypeString","alias":"LIN","length":12},{"name":"STREET","type":"esriFieldTypeString","alias":"STREET","length":20},{"name":"SECT","type":"esriFieldTypeString","alias":"SECT","length":8},{"name":"MAREA","type":"esriFieldTypeString","alias":"MAREA","length":12},{"name":"LANE","type":"esriFieldTypeString","alias":"LANE","length":10},{"name":"ALLEY","type":"esriFieldTypeString","alias":"ALLEY","length":10},{"name":"HOUSE_NO","type":"esriFieldTypeString","alias":"HOUSE_NO","length":20},{"name":"E_COORD97","type":"esriFieldTypeDouble","alias":"E_COORD97"},{"name":"N_COORD97","type":"esriFieldTypeDouble","alias":"N_COORD97"},{"name":"ADDRESS","type":"esriFieldTypeString","alias":"ADDRESS","length":50},{"name":"OBJECTID","type":"esriFieldTypeOID","alias":"OBJECTID"}],"features":[{"attributes":{"ID":182002,"DIS_CODE":0,"TOWNNAME":"仁德區","LI":"仁義里","LIN":"38鄰","STREET":"仁義五街","SECT":" ","MAREA":" ","LANE":"２４巷","ALLEY":"２弄","HOUSE_NO":"１８號","E_COORD97":173495.29999999999,"N_COORD97":2540409.8399999999,"ADDRESS":"仁義五街２４巷２弄１８號","OBJECTID":182001},"geometry":{"x":173495.30000000075,"y":2540409.8399999999}},{"attributes":{"ID":182003,"DIS_CODE":0,"TOWNNAME":"仁德區","LI":"仁義里","LIN":"38鄰","STREET":"仁義五街","SECT":" ","MAREA":" ","LANE":"２４巷","ALLEY":"２弄","HOUSE_NO":"５號","E_COORD97":173528.25,"N_COORD97":2540387.5800000001,"ADDRESS":"仁義五街２４巷２弄５號","OBJECTID":182002},"geometry":{"x":173528.25000000093,"y":2540387.5800000019}},{"attributes":{"ID":182004,"DIS_CODE":0,"TOWNNAME":"仁德區","LI":"仁德里","LIN":"5鄰","STREET":"仁德四街","SECT":" ","MAREA":" ","LANE":"１２巷","ALLEY":"１弄","HOUSE_NO":"８號","E_COORD97":173218.37,"N_COORD97":2540855.2999999998,"ADDRESS":"仁德四街１２巷１弄８號","OBJECTID":182003},"geometry":{"x":173218.36999999918,"y":2540855.3000000007}},{"attributes":{"ID":182005,"DIS_CODE":0,"TOWNNAME":"山上區","LI":"明和里","LIN":"11鄰","STREET":" ","SECT":" ","MAREA":"明和","LANE":" ","ALLEY":" ","HOUSE_NO":"１９２號之３","E_COORD97":183360.67000000001,"N_COORD97":2556114.2999999998,"ADDRESS":"明和１９２號之３","OBJECTID":182004},"geometry":{"x":183360.67000000086,"y":2556114.3000000026}},{"attributes":{"ID":182006,"DIS_CODE":0,"TOWNNAME":"山上區","LI":"明和里","LIN":"11鄰","STREET":" ","SECT":" ","MAREA":"明和","LANE":" ","ALLEY":" ","HOUSE_NO":"１５９號","E_COORD97":183326.64000000001,"N_COORD97":2556116.25,"ADDRESS":"明和１５９號","OBJECTID":182005},"geometry":{"x":183326.6400000006,"y":2556116.2500000037}},{"attributes":{"ID":182007,"DIS_CODE":0,"TOWNNAME":"山上區","LI":"南洲里","LIN":"11鄰","STREET":" ","SECT":" ","MAREA":"南洲","LANE":" ","ALLEY":" ","HOUSE_NO":"２２８號","E_COORD97":183636.94,"N_COORD97":2555463.25,"ADDRESS":"南洲２２８號","OBJECTID":182006},"geometry":{"x":183636.94000000227,"y":2555463.2500000019}},{"attributes":{"ID":182008,"DIS_CODE":0,"TOWNNAME":"山上區","LI":"南洲里","LIN":"11鄰","STREET":" ","SECT":" ","MAREA":"南洲","LANE":" ","ALLEY":" ","HOUSE_NO":"２６９號","E_COORD97":183650.64000000001,"N_COORD97":2555564.25,"ADDRESS":"南洲２６９號","OBJECTID":182007},"geometry":{"x":183650.6400000006,"y":2555564.2500000019}},{"attributes":{"ID":182009,"DIS_CODE":0,"TOWNNAME":"山上區","LI":"南洲里","LIN":"11鄰","STREET":" ","SECT":" ","MAREA":"南洲","LANE":" ","ALLEY":" ","HOUSE_NO":"２７４號","E_COORD97":183593.73999999999,"N_COORD97":2555565.25,"ADDRESS":"南洲２７４號","OBJECTID":182008},"geometry":{"x":183593.74000000022,"y":2555565.25}},{"attributes":{"ID":182010,"DIS_CODE":0,"TOWNNAME":"山上區","LI":"明和里","LIN":"11鄰","STREET":" ","SECT":" ","MAREA":"明和","LANE":" ","ALLEY":" ","HOUSE_NO":"１６２號","E_COORD97":183323.23999999999,"N_COORD97":2556132.25,"ADDRESS":"明和１６２號","OBJECTID":182009},"geometry":{"x":183323.24000000115,"y":2556132.25}},{"attributes":{"ID":182011,"DIS_CODE":0,"TOWNNAME":"山上區","LI":"明和里","LIN":"11鄰","STREET":" ","SECT":" ","MAREA":"明和","LANE":" ","ALLEY":" ","HOUSE_NO":"１９２之６號","E_COORD97":183374.34,"N_COORD97":2556115.2999999998,"ADDRESS":"明和１９２之６號","OBJECTID":182010},"geometry":{"x":183374.34000000171,"y":2556115.3000000007}},{"attributes":{"ID":182012,"DIS_CODE":0,"TOWNNAME":"山上區","LI":"明和里","LIN":"11鄰","STREET":" ","SECT":" ","MAREA":"明和","LANE":" ","ALLEY":" ","HOUSE_NO":"１８９號","E_COORD97":183360.04000000001,"N_COORD97":2556199.25,"ADDRESS":"明和１８９號","OBJECTID":182011},"geometry":{"x":183360.04000000097,"y":2556199.25}},{"attributes":{"ID":182013,"DIS_CODE":0,"TOWNNAME":"山上區","LI":"南洲里","LIN":"11鄰","STREET":" ","SECT":" ","MAREA":"南洲","LANE":" ","ALLEY":" ","HOUSE_NO":"２２８號之１","E_COORD97":183649.17000000001,"N_COORD97":2555463.2999999998,"ADDRESS":"南洲２２８號之１","OBJECTID":182012},"geometry":{"x":183649.17000000086,"y":2555463.3000000026}},{"attributes":{"ID":182014,"DIS_CODE":0,"TOWNNAME":"山上區","LI":"明和里","LIN":"11鄰","STREET":" ","SECT":" ","MAREA":"明和","LANE":" ","ALLEY":" ","HOUSE_NO":"１９０號","E_COORD97":183355.23999999999,"N_COORD97":2556164.25,"ADDRESS":"明和１９０號","OBJECTID":182013},"geometry":{"x":183355.24000000115,"y":2556164.2500000019}},{"attributes":{"ID":182015,"DIS_CODE":0,"TOWNNAME":"山上區","LI":"明和里","LIN":"11鄰","STREET":" ","SECT":" ","MAREA":"明和","LANE":" ","ALLEY":" ","HOUSE_NO":"１９３號","E_COORD97":183450.14000000001,"N_COORD97":2556110.25,"ADDRESS":"明和１９３號","OBJECTID":182014},"geometry":{"x":183450.14000000153,"y":2556110.2500000019}},{"attributes":{"ID":182016,"DIS_CODE":0,"TOWNNAME":"山上區","LI":"明和里","LIN":"11鄰","STREET":" ","SECT":" ","MAREA":"明和","LANE":" ","ALLEY":" ","HOUSE_NO":"１９３之１號","E_COORD97":183444.84,"N_COORD97":2556112.2999999998,"ADDRESS":"明和１９３之１號","OBJECTID":182015},"geometry":{"x":183444.83999999985,"y":2556112.3000000007}},{"attributes":{"ID":182017,"DIS_CODE":0,"TOWNNAME":"山上區","LI":"南洲里","LIN":"11鄰","STREET":" ","SECT":" ","MAREA":"南洲","LANE":" ","ALLEY":" ","HOUSE_NO":"２２５號","E_COORD97":183682.34,"N_COORD97":2555510.25,"ADDRESS":"南洲２２５號","OBJECTID":182016},"geometry":{"x":183682.33999999985,"y":2555510.2500000019}},{"attributes":{"ID":182018,"DIS_CODE":0,"TOWNNAME":"山上區","LI":"南洲里","LIN":"11鄰","STREET":" ","SECT":" ","MAREA":"南洲","LANE":" ","ALLEY":" ","HOUSE_NO":"４１號","E_COORD97":183036.19,"N_COORD97":2554509.25,"ADDRESS":"南洲４１號","OBJECTID":182017},"geometry":{"x":183036.19000000041,"y":2554509.2500000037}},{"attributes":{"ID":182019,"DIS_CODE":0,"TOWNNAME":"山上區","LI":"南洲里","LIN":"11鄰","STREET":" ","SECT":" ","MAREA":"南洲","LANE":" ","ALLEY":" ","HOUSE_NO":"２６７號","E_COORD97":183675.04000000001,"N_COORD97":2555558.25,"ADDRESS":"南洲２６７號","OBJECTID":182018},"geometry":{"x":183675.04000000097,"y":2555558.2500000019}},{"attributes":{"ID":182020,"DIS_CODE":0,"TOWNNAME":"山上區","LI":"南洲里","LIN":"11鄰","STREET":" ","SECT":" ","MAREA":"南洲","LANE":" ","ALLEY":" ","HOUSE_NO":"２２９號","E_COORD97":183642.73999999999,"N_COORD97":2555481.25,"ADDRESS":"南洲２２９號","OBJECTID":182019},"geometry":{"x":183642.74000000022,"y":2555481.25}},{"attributes":{"ID":182021,"DIS_CODE":0,"TOWNNAME":"山上區","LI":"南洲里","LIN":"11鄰","STREET":" ","SECT":" ","MAREA":"南洲","LANE":" ","ALLEY":" ","HOUSE_NO":"２２６號","E_COORD97":183690.44,"N_COORD97":2555482.25,"ADDRESS":"南洲２２６號","OBJECTID":182020},"geometry":{"x":183690.44000000041,"y":2555482.2500000037}},{"attributes":{"ID":182022,"DIS_CODE":0,"TOWNNAME":"仁德區","LI":"太子里","LIN":"46鄰","STREET":"太子一街","SECT":" ","MAREA":" ","LANE":"４３巷","ALLEY":"３８弄","HOUSE_NO":"２號","E_COORD97":174832.47,"N_COORD97":2543276.4100000001,"ADDRESS":"太子一街４３巷３８弄２號","OBJECTID":182021},"geometry":{"x":174832.46999999974,"y":2543276.410000002}},{"attributes":{"ID":182023,"DIS_CODE":0,"TOWNNAME":"山上區","LI":"明和里","LIN":"11鄰","STREET":" ","SECT":" ","MAREA":"明和","LANE":" ","ALLEY":" ","HOUSE_NO":"１９２之７號","E_COORD97":183378.44,"N_COORD97":2556115.2999999998,"ADDRESS":"明和１９２之７號","OBJECTID":182022},"geometry":{"x":183378.44000000134,"y":2556115.3000000007}},{"attributes":{"ID":182024,"DIS_CODE":0,"TOWNNAME":"山上區","LI":"南洲里","LIN":"11鄰","STREET":" ","SECT":" ","MAREA":"南洲","LANE":" ","ALLEY":" ","HOUSE_NO":"３８號","E_COORD97":183649.38760399999,"N_COORD97":2555407.78761,"ADDRESS":"南洲３８號","OBJECTID":182023},"geometry":{"x":183649.38760400191,"y":2555407.7876150012}},{"attributes":{"ID":182025,"DIS_CODE":0,"TOWNNAME":"山上區","LI":"南洲里","LIN":"11鄰","STREET":" ","SECT":" ","MAREA":"南洲","LANE":" ","ALLEY":" ","HOUSE_NO":"４０號","E_COORD97":183726.29000000001,"N_COORD97":2555057.25,"ADDRESS":"南洲４０號","OBJECTID":182024},"geometry":{"x":183726.29000000097,"y":2555057.25}},{"attributes":{"ID":182026,"DIS_CODE":0,"TOWNNAME":"東山區","LI":"東山里","LIN":"10鄰","STREET":"中興路","SECT":" ","MAREA":" ","LANE":" ","ALLEY":" ","HOUSE_NO":"１６７號","E_COORD97":188956.34,"N_COORD97":2580455.75,"ADDRESS":"中興路１６７號","OBJECTID":182025},"geometry":{"x":188956.33999999985,"y":2580455.7500000037}},{"attributes":{"ID":182027,"DIS_CODE":0,"TOWNNAME":"北區","LI":"開元里","LIN":"10鄰","STREET":"北園街","SECT":" ","MAREA":" ","LANE":" ","ALLEY":" ","HOUSE_NO":"１２６號","E_COORD97":170323.87,"N_COORD97":2545957.29,"ADDRESS":"北園街１２６號","OBJECTID":182026},"geometry":{"x":170323.87000000104,"y":2545957.2900000028}},{"attributes":{"ID":182028,"DIS_CODE":0,"TOWNNAME":"善化區","LI":"東關里","LIN":" ","STREET":"中山路","SECT":" ","MAREA":" ","LANE":" ","ALLEY":" ","HOUSE_NO":"３７７之１７號","E_COORD97":177439.39000000001,"N_COORD97":2559053.27,"ADDRESS":"中山路３７７之１７號","OBJECTID":182027},"geometry":{"x":177439.3900000006,"y":2559053.2699999996}},{"attributes":{"ID":182029,"DIS_CODE":0,"TOWNNAME":"善化區","LI":"光文里","LIN":"20鄰","STREET":"大成路","SECT":" ","MAREA":" ","LANE":" ","ALLEY":" ","HOUSE_NO":"３４０號","E_COORD97":178043.25,"N_COORD97":2558835.25,"ADDRESS":"大成路３４０號","OBJECTID":182028},"geometry":{"x":178043.25,"y":2558835.2500000037}},{"attributes":{"ID":182030,"DIS_CODE":0,"TOWNNAME":"安南區","LI":"淵東里","LIN":"1鄰","STREET":"海佃路","SECT":"四段","MAREA":" ","LANE":"１１８巷","ALLEY":"８弄","HOUSE_NO":"３０號","E_COORD97":165722.47,"N_COORD97":2550688.2999999998,"ADDRESS":"海佃路四段１１８巷８弄３０號","OBJECTID":182029},"geometry":{"x":165722.46999999974,"y":2550688.2999999989}},{"attributes":{"ID":182031,"DIS_CODE":0,"TOWNNAME":"安南區","LI":"淵東里","LIN":"1鄰","STREET":"海佃路","SECT":"四段","MAREA":" ","LANE":"１１８巷","ALLEY":"８弄","HOUSE_NO":"３２號","E_COORD97":165737.87,"N_COORD97":2550679.6499999999,"ADDRESS":"海佃路四段１１８巷８弄３２號","OBJECTID":182030},"geometry":{"x":165737.87000000104,"y":2550679.6500000022}},{"attributes":{"ID":182032,"DIS_CODE":0,"TOWNNAME":"安南區","LI":"梅花里","LIN":"2鄰","STREET":"安中路","SECT":"一段","MAREA":" ","LANE":"６３９巷","ALLEY":"８０弄","HOUSE_NO":"５號","E_COORD97":167681.37,"N_COORD97":2549002.96,"ADDRESS":"安中路一段６３９巷８０弄５號","OBJECTID":182031},"geometry":{"x":167681.37000000011,"y":2549002.9600000028}},{"attributes":{"ID":182033,"DIS_CODE":0,"TOWNNAME":"安南區","LI":"梅花里","LIN":"2鄰","STREET":"安中路","SECT":"一段","MAREA":" ","LANE":"６３９巷","ALLEY":"８０弄","HOUSE_NO":"６號","E_COORD97":167694.81,"N_COORD97":2549026.4500000002,"ADDRESS":"安中路一段６３９巷８０弄６號","OBJECTID":182032},"geometry":{"x":167694.80999999959,"y":2549026.4499999993}},{"attributes":{"ID":182034,"DIS_CODE":0,"TOWNNAME":"安南區","LI":"梅花里","LIN":"2鄰","STREET":"安中路","SECT":"一段","MAREA":" ","LANE":"６３９巷","ALLEY":"８０弄","HOUSE_NO":"７號","E_COORD97":167676.88,"N_COORD97":2549002.6699999999,"ADDRESS":"安中路一段６３９巷８０弄７號","OBJECTID":182033},"geometry":{"x":167676.88000000082,"y":2549002.6699999999}},{"attributes":{"ID":182035,"DIS_CODE":0,"TOWNNAME":"安南區","LI":"梅花里","LIN":"2鄰","STREET":"安中路","SECT":"一段","MAREA":" ","LANE":"６３９巷","ALLEY":"８０弄","HOUSE_NO":"８號","E_COORD97":167690.82999999999,"N_COORD97":2549027.9500000002,"ADDRESS":"安中路一段６３９巷８０弄８號","OBJECTID":182034},"geometry":{"x":167690.83000000194,"y":2549027.950000003}},{"attributes":{"ID":182036,"DIS_CODE":0,"TOWNNAME":"安南區","LI":"梅花里","LIN":"2鄰","STREET":"安中路","SECT":"一段","MAREA":" ","LANE":"６３９巷","ALLEY":"８０弄","HOUSE_NO":"９號","E_COORD97":167673.42000000001,"N_COORD97":2549005.9700000002,"ADDRESS":"安中路一段６３９巷８０弄９號","OBJECTID":182035},"geometry":{"x":167673.42000000086,"y":2549005.9700000025}},{"attributes":{"ID":182037,"DIS_CODE":0,"TOWNNAME":"安南區","LI":"梅花里","LIN":"2鄰","STREET":"安中路","SECT":"一段","MAREA":" ","LANE":"６３９巷","ALLEY":"８０弄","HOUSE_NO":"１０號","E_COORD97":167686.85999999999,"N_COORD97":2549029.4500000002,"ADDRESS":"安中路一段６３９巷８０弄１０號","OBJECTID":182036},"geometry":{"x":167686.86000000034,"y":2549029.4500000011}},{"attributes":{"ID":182038,"DIS_CODE":0,"TOWNNAME":"安南區","LI":"梅花里","LIN":"2鄰","STREET":"安中路","SECT":"一段","MAREA":" ","LANE":"６３９巷","ALLEY":"８０弄","HOUSE_NO":"１１號","E_COORD97":167670.76999999999,"N_COORD97":2549004.98,"ADDRESS":"安中路一段６３９巷８０弄１１號","OBJECTID":182037},"geometry":{"x":167670.77000000048,"y":2549004.9800000004}},{"attributes":{"ID":182039,"DIS_CODE":0,"TOWNNAME":"安南區","LI":"梅花里","LIN":"2鄰","STREET":"安中路","SECT":"一段","MAREA":" ","LANE":"６３９巷","ALLEY":"８０弄","HOUSE_NO":"１２號","E_COORD97":167682.89000000001,"N_COORD97":2549030.96,"ADDRESS":"安中路一段６３９巷８０弄１２號","OBJECTID":182038},"geometry":{"x":167682.88999999966,"y":2549030.9600000028}},{"attributes":{"ID":182040,"DIS_CODE":0,"TOWNNAME":"安南區","LI":"梅花里","LIN":"2鄰","STREET":"安中路","SECT":"一段","MAREA":" ","LANE":"６３９巷","ALLEY":"８０弄","HOUSE_NO":"１３號","E_COORD97":167664.70000000001,"N_COORD97":2549007.2799999998,"ADDRESS":"安中路一段６３９巷８０弄１３號","OBJECTID":182039},"geometry":{"x":167664.70000000205,"y":2549007.2799999993}},{"attributes":{"ID":182041,"DIS_CODE":0,"TOWNNAME":"安南區","LI":"原佃里","LIN":"7鄰","STREET":"安中路","SECT":"二段","MAREA":" ","LANE":"２巷","ALLEY":"１９１弄","HOUSE_NO":"２６號","E_COORD97":167475.13,"N_COORD97":2549985.3100000001,"ADDRESS":"安中路二段２巷１９１弄２６號","OBJECTID":182040},"geometry":{"x":167475.13000000082,"y":2549985.3100000005}},{"attributes":{"ID":182042,"DIS_CODE":0,"TOWNNAME":"安南區","LI":"原佃里","LIN":"7鄰","STREET":"安吉路","SECT":"一段","MAREA":" ","LANE":"２９０巷","ALLEY":"３２弄","HOUSE_NO":"１５０號","E_COORD97":166998.47,"N_COORD97":2549640.3900000001,"ADDRESS":"安吉路一段２９０巷３２弄１５０號","OBJECTID":182041},"geometry":{"x":166998.47000000067,"y":2549640.3900000025}},{"attributes":{"ID":182043,"DIS_CODE":0,"TOWNNAME":"安南區","LI":"原佃里","LIN":"7鄰","STREET":"安吉路","SECT":"一段","MAREA":" ","LANE":"２９０巷","ALLEY":"３２弄","HOUSE_NO":"１５２號","E_COORD97":167003.95000000001,"N_COORD97":2549639.0899999999,"ADDRESS":"安吉路一段２９０巷３２弄１５２號","OBJECTID":182042},"geometry":{"x":167003.95000000112,"y":2549639.0900000017}},{"attributes":{"ID":182044,"DIS_CODE":0,"TOWNNAME":"安南區","LI":"州北里","LIN":"7鄰","STREET":"安和路","SECT":"五段","MAREA":" ","LANE":"３３６巷","ALLEY":"２７弄","HOUSE_NO":"１１號","E_COORD97":169727.38,"N_COORD97":2552250.1699999999,"ADDRESS":"安和路五段３３６巷２７弄１１號","OBJECTID":182043},"geometry":{"x":169727.37999999989,"y":2552250.1699999999}},{"attributes":{"ID":182045,"DIS_CODE":0,"TOWNNAME":"安南區","LI":"城東里","LIN":"4鄰","STREET":"城北路","SECT":" ","MAREA":" ","LANE":"２３４巷","ALLEY":"７２弄","HOUSE_NO":"６號","E_COORD97":161143.35000000001,"N_COORD97":2551816.4399999999,"ADDRESS":"城北路２３４巷７２弄６號","OBJECTID":182044},"geometry":{"x":161143.35000000149,"y":2551816.4400000013}},{"attributes":{"ID":182046,"DIS_CODE":0,"TOWNNAME":"安南區","LI":"州北里","LIN":"7鄰","STREET":"安和路","SECT":"五段","MAREA":" ","LANE":"３３６巷","ALLEY":"２７弄","HOUSE_NO":"１３號","E_COORD97":169725.98000000001,"N_COORD97":2552257.7400000002,"ADDRESS":"安和路五段３３６巷２７弄１３號","OBJECTID":182045},"geometry":{"x":169725.98000000231,"y":2552257.7400000002}},{"attributes":{"ID":182047,"DIS_CODE":0,"TOWNNAME":"安南區","LI":"州北里","LIN":"7鄰","STREET":"安和路","SECT":"五段","MAREA":" ","LANE":"３３６巷","ALLEY":"２７弄","HOUSE_NO":"１５號","E_COORD97":169726.44,"N_COORD97":2552265.2599999998,"ADDRESS":"安和路五段３３６巷２７弄１５號","OBJECTID":182046},"geometry":{"x":169726.44000000134,"y":2552265.2600000016}},{"attributes":{"ID":182048,"DIS_CODE":0,"TOWNNAME":"安南區","LI":"州北里","LIN":"7鄰","STREET":"安和路","SECT":"五段","MAREA":" ","LANE":"３３６巷","ALLEY":"２７弄","HOUSE_NO":"１７號","E_COORD97":169726.69,"N_COORD97":2552271.79,"ADDRESS":"安和路五段３３６巷２７弄１７號","OBJECTID":182047},"geometry":{"x":169726.69000000134,"y":2552271.790000001}},{"attributes":{"ID":182049,"DIS_CODE":0,"TOWNNAME":"安南區","LI":"安順里","LIN":"8鄰","STREET":"安和路","SECT":"四段","MAREA":" ","LANE":"８７巷","ALLEY":"３弄","HOUSE_NO":"５號","E_COORD97":169903.03,"N_COORD97":2550295.7799999998,"ADDRESS":"安和路四段８７巷３弄５號","OBJECTID":182048},"geometry":{"x":169903.03000000026,"y":2550295.7799999993}},{"attributes":{"ID":182050,"DIS_CODE":0,"TOWNNAME":"善化區","LI":"東關里","LIN":"20鄰","STREET":"中山路","SECT":" ","MAREA":" ","LANE":" ","ALLEY":" ","HOUSE_NO":"３５３之６號","E_COORD97":177624.32000000001,"N_COORD97":2559047.02,"ADDRESS":"中山路３５３之６號","OBJECTID":182049},"geometry":{"x":177624.3200000003,"y":2559047.0200000014}},{"attributes":{"ID":182051,"DIS_CODE":0,"TOWNNAME":"善化區","LI":"光文里","LIN":"25鄰","STREET":"公園路","SECT":" ","MAREA":" ","LANE":" ","ALLEY":" ","HOUSE_NO":"９４號","E_COORD97":178102.54000000001,"N_COORD97":2559210.25,"ADDRESS":"公園路９４號","OBJECTID":182050},"geometry":{"x":178102.54000000004,"y":2559210.25}},{"attributes":{"ID":182052,"DIS_CODE":0,"TOWNNAME":"善化區","LI":"坐駕里","LIN":" ","STREET":"建國路","SECT":" ","MAREA":" ","LANE":" ","ALLEY":" ","HOUSE_NO":"６８號","E_COORD97":178030.79999999999,"N_COORD97":2558746.7799999998,"ADDRESS":"建國路６８號","OBJECTID":182051},"geometry":{"x":178030.79999999981,"y":2558746.7800000012}},{"attributes":{"ID":182053,"DIS_CODE":0,"TOWNNAME":"善化區","LI":"東關里","LIN":" ","STREET":"中華路","SECT":" ","MAREA":" ","LANE":" ","ALLEY":" ","HOUSE_NO":"１０４號","E_COORD97":177226.64999999999,"N_COORD97":2558915.25,"ADDRESS":"中華路１０４號","OBJECTID":182052},"geometry":{"x":177226.6500000013,"y":2558915.25}},{"attributes":{"ID":182054,"DIS_CODE":0,"TOWNNAME":"仁德區","LI":"上崙里","LIN":"20鄰","STREET":"上崙街","SECT":" ","MAREA":" ","LANE":" ","ALLEY":" ","HOUSE_NO":"２１號","E_COORD97":173780.01000000001,"N_COORD97":2538109.2400000002,"ADDRESS":"上崙街２１號","OBJECTID":182053},"geometry":{"x":173780.01000000164,"y":2538109.2400000002}},{"attributes":{"ID":182055,"DIS_CODE":0,"TOWNNAME":"山上區","LI":"南洲里","LIN":"11鄰","STREET":" ","SECT":" ","MAREA":"南洲","LANE":" ","ALLEY":" ","HOUSE_NO":"２２７號","E_COORD97":183661.14000000001,"N_COORD97":2555507.25,"ADDRESS":"南洲２２７號","OBJECTID":182054},"geometry":{"x":183661.13999999966,"y":2555507.2500000019}},{"attributes":{"ID":182056,"DIS_CODE":0,"TOWNNAME":"安南區","LI":"\u25A0南里","LIN":"32鄰","STREET":"安昌街","SECT":" ","MAREA":" ","LANE":"１７４巷","ALLEY":"６１弄","HOUSE_NO":"２２號","E_COORD97":170181.53,"N_COORD97":2552266.6800000002,"ADDRESS":"安昌街１７４巷６１弄２２號","OBJECTID":182055},"geometry":{"x":170181.53000000212,"y":2552266.6799999997}},{"attributes":{"ID":182057,"DIS_CODE":0,"TOWNNAME":"安南區","LI":"溪心里","LIN":"12鄰","STREET":"海佃路","SECT":"二段","MAREA":" ","LANE":"７００巷","ALLEY":"２弄","HOUSE_NO":"８號","E_COORD97":166588.88,"N_COORD97":2549497.23,"ADDRESS":"海佃路二段７００巷２弄８號","OBJECTID":182056},"geometry":{"x":166588.88000000082,"y":2549497.2300000004}},{"attributes":{"ID":182058,"DIS_CODE":0,"TOWNNAME":"安南區","LI":"溪心里","LIN":"12鄰","STREET":"海佃路","SECT":"二段","MAREA":" ","LANE":"７００巷","ALLEY":"２弄","HOUSE_NO":"１０號","E_COORD97":166591.29000000001,"N_COORD97":2549493.54,"ADDRESS":"海佃路二段７００巷２弄１０號","OBJECTID":182057},"geometry":{"x":166591.29000000097,"y":2549493.5399999991}},{"attributes":{"ID":182059,"DIS_CODE":0,"TOWNNAME":"安南區","LI":"溪心里","LIN":"12鄰","STREET":"海佃路","SECT":"二段","MAREA":" ","LANE":"７００巷","ALLEY":"２弄","HOUSE_NO":"１２號","E_COORD97":166593.70000000001,"N_COORD97":2549489.8599999999,"ADDRESS":"海佃路二段７００巷２弄１２號","OBJECTID":182058},"geometry":{"x":166593.70000000112,"y":2549489.8600000031}},{"attributes":{"ID":182060,"DIS_CODE":0,"TOWNNAME":"安南區","LI":"溪心里","LIN":"12鄰","STREET":"海佃路","SECT":"二段","MAREA":" ","LANE":"７００巷","ALLEY":"２３弄","HOUSE_NO":"１號","E_COORD97":166597.82999999999,"N_COORD97":2549550.71,"ADDRESS":"海佃路二段７００巷２３弄１號","OBJECTID":182059},"geometry":{"x":166597.83000000101,"y":2549550.7100000028}},{"attributes":{"ID":182061,"DIS_CODE":0,"TOWNNAME":"善化區","LI":"田寮里","LIN":"11鄰","STREET":" ","SECT":" ","MAREA":"六分寮","LANE":" ","ALLEY":" ","HOUSE_NO":"１２１號","E_COORD97":178630.10000000001,"N_COORD97":2561353.75,"ADDRESS":"六分寮１２１號","OBJECTID":182060},"geometry":{"x":178630.09999999963,"y":2561353.75}},{"attributes":{"ID":182062,"DIS_CODE":0,"TOWNNAME":"安南區","LI":"溪心里","LIN":"12鄰","STREET":"海佃路","SECT":"二段","MAREA":" ","LANE":"７００巷","ALLEY":"２３弄","HOUSE_NO":"２號","E_COORD97":166617.16,"N_COORD97":2549564.1499999999,"ADDRESS":"海佃路二段７００巷２３弄２號","OBJECTID":182061},"geometry":{"x":166617.16000000201,"y":2549564.1500000022}},{"attributes":{"ID":182063,"DIS_CODE":0,"TOWNNAME":"安南區","LI":"溪心里","LIN":"12鄰","STREET":"海佃路","SECT":"二段","MAREA":" ","LANE":"７００巷","ALLEY":"２３弄","HOUSE_NO":"３號","E_COORD97":166593.47,"N_COORD97":2549554.5899999999,"ADDRESS":"海佃路二段７００巷２３弄３號","OBJECTID":182062},"geometry":{"x":166593.47000000067,"y":2549554.5900000017}},{"attributes":{"ID":182064,"DIS_CODE":0,"TOWNNAME":"安南區","LI":"溪心里","LIN":"12鄰","STREET":"海佃路","SECT":"二段","MAREA":" ","LANE":"７００巷","ALLEY":"２３弄","HOUSE_NO":"７號","E_COORD97":166589.39999999999,"N_COORD97":2549563.5800000001,"ADDRESS":"海佃路二段７００巷２３弄７號","OBJECTID":182063},"geometry":{"x":166589.4000000013,"y":2549563.5800000038}},{"attributes":{"ID":182065,"DIS_CODE":0,"TOWNNAME":"善化區","LI":"嘉北里","LIN":"11鄰","STREET":" ","SECT":" ","MAREA":"茄拔","LANE":" ","ALLEY":" ","HOUSE_NO":"２２４號","E_COORD97":180850.16,"N_COORD97":2559981.7599999998,"ADDRESS":"茄拔２２４號","OBJECTID":182064},"geometry":{"x":180850.16000000108,"y":2559981.7600000016}},{"attributes":{"ID":182066,"DIS_CODE":0,"TOWNNAME":"善化區","LI":"小新里","LIN":"11鄰","STREET":" ","SECT":" ","MAREA":"小新營","LANE":" ","ALLEY":" ","HOUSE_NO":"９５之４號","E_COORD97":179439.67999999999,"N_COORD97":2558159.02,"ADDRESS":"小新營９５之４號","OBJECTID":182065},"geometry":{"x":179439.68000000063,"y":2558159.0200000014}},{"attributes":{"ID":182067,"DIS_CODE":0,"TOWNNAME":"東區","LI":"後甲里","LIN":"4鄰","STREET":"裕農路","SECT":" ","MAREA":" ","LANE":"６６１巷","ALLEY":"２５弄","HOUSE_NO":"２號","E_COORD97":171714.54000000001,"N_COORD97":2543314.77,"ADDRESS":"裕農路６６１巷２５弄２號","OBJECTID":182066},"geometry":{"x":171714.54000000004,"y":2543314.7700000014}},{"attributes":{"ID":182068,"DIS_CODE":0,"TOWNNAME":"東區","LI":"泉南里","LIN":"14鄰","STREET":"光華街","SECT":" ","MAREA":" ","LANE":"２２９巷","ALLEY":"２８弄","HOUSE_NO":"１１號","E_COORD97":169409.19,"N_COORD97":2542944.4900000002,"ADDRESS":"光華街２２９巷２８弄１１號","OBJECTID":182067},"geometry":{"x":169409.19000000227,"y":2542944.4900000021}},{"attributes":{"ID":182069,"DIS_CODE":0,"TOWNNAME":"善化區","LI":"小新里","LIN":"11鄰","STREET":" ","SECT":" ","MAREA":"小新營","LANE":" ","ALLEY":" ","HOUSE_NO":"９６之１號","E_COORD97":179388.81,"N_COORD97":2558178.52,"ADDRESS":"小新營９６之１號","OBJECTID":182068},"geometry":{"x":179388.81000000145,"y":2558178.5200000033}},{"attributes":{"ID":182070,"DIS_CODE":0,"TOWNNAME":"善化區","LI":"東昌里","LIN":"11鄰","STREET":" ","SECT":" ","MAREA":"東勢寮","LANE":" ","ALLEY":" ","HOUSE_NO":"１０２號之６","E_COORD97":180099.73999999999,"N_COORD97":2561847.02,"ADDRESS":"東勢寮１０２號之６","OBJECTID":182069},"geometry":{"x":180099.74000000022,"y":2561847.0200000033}},{"attributes":{"ID":182071,"DIS_CODE":0,"TOWNNAME":"善化區","LI":"溪美里","LIN":"11鄰","STREET":" ","SECT":" ","MAREA":"溪尾","LANE":" ","ALLEY":" ","HOUSE_NO":"１０２之７號","E_COORD97":176683.75,"N_COORD97":2561465.77,"ADDRESS":"溪尾１０２之７號","OBJECTID":182070},"geometry":{"x":176683.75,"y":2561465.7700000014}},{"attributes":{"ID":182072,"DIS_CODE":0,"TOWNNAME":"善化區","LI":"六德里","LIN":"11鄰","STREET":" ","SECT":" ","MAREA":"六分寮","LANE":" ","ALLEY":" ","HOUSE_NO":"２９４號之２","E_COORD97":178489.76000000001,"N_COORD97":2561627.52,"ADDRESS":"六分寮２９４號之２","OBJECTID":182071},"geometry":{"x":178489.76000000071,"y":2561627.5200000014}},{"attributes":{"ID":182073,"DIS_CODE":0,"TOWNNAME":"善化區","LI":"六德里","LIN":"11鄰","STREET":" ","SECT":" ","MAREA":"六分寮","LANE":" ","ALLEY":" ","HOUSE_NO":"２９１號之２","E_COORD97":178561.79999999999,"N_COORD97":2561582.02,"ADDRESS":"六分寮２９１號之２","OBJECTID":182072},"geometry":{"x":178561.79999999888,"y":2561582.0199999996}},{"attributes":{"ID":182074,"DIS_CODE":0,"TOWNNAME":"仁德區","LI":"中洲里","LIN":"11鄰","STREET":" ","SECT":" ","MAREA":"中洲","LANE":" ","ALLEY":" ","HOUSE_NO":"３２３號","E_COORD97":173319.70999999999,"N_COORD97":2534118.75,"ADDRESS":"中洲３２３號","OBJECTID":182073},"geometry":{"x":173319.71000000089,"y":2534118.75}},{"attributes":{"ID":182075,"DIS_CODE":0,"TOWNNAME":"東區","LI":"崇明里","LIN":"6鄰","STREET":"大同路","SECT":"二段","MAREA":" ","LANE":"４４９巷","ALLEY":"２弄","HOUSE_NO":"１２號","E_COORD97":169700.87,"N_COORD97":2541298.6099999999,"ADDRESS":"大同路二段４４９巷２弄１２號","OBJECTID":182074},"geometry":{"x":169700.86999999918,"y":2541298.6100000013}},{"attributes":{"ID":182076,"DIS_CODE":0,"TOWNNAME":"仁德區","LI":"中洲里","LIN":"11鄰","STREET":" ","SECT":" ","MAREA":"中洲","LANE":" ","ALLEY":" ","HOUSE_NO":"３３５號之１","E_COORD97":173307.59,"N_COORD97":2534229.2999999998,"ADDRESS":"中洲３３５號之１","OBJECTID":182075},"geometry":{"x":173307.58999999985,"y":2534229.3000000026}},{"attributes":{"ID":182077,"DIS_CODE":0,"TOWNNAME":"白河區","LI":"河東里","LIN":"11鄰","STREET":" ","SECT":" ","MAREA":"糞箕湖","LANE":" ","ALLEY":" ","HOUSE_NO":"１４０之１號","E_COORD97":190721.94,"N_COORD97":2582700.54,"ADDRESS":"糞箕湖１４０之１號","OBJECTID":182076},"geometry":{"x":190721.94000000134,"y":2582700.5400000028}},{"attributes":{"ID":182078,"DIS_CODE":0,"TOWNNAME":"白河區","LI":"河東里","LIN":"11鄰","STREET":" ","SECT":" ","MAREA":"糞箕湖","LANE":" ","ALLEY":" ","HOUSE_NO":"１４１之１０號","E_COORD97":190834.07999999999,"N_COORD97":2582756.8700000001,"ADDRESS":"糞箕湖１４１之１０號","OBJECTID":182077},"geometry":{"x":190834.08000000101,"y":2582756.870000001}},{"attributes":{"ID":182079,"DIS_CODE":0,"TOWNNAME":"白河區","LI":"河東里","LIN":"11鄰","STREET":" ","SECT":" ","MAREA":"糞箕湖","LANE":" ","ALLEY":" ","HOUSE_NO":"１４１之１號","E_COORD97":190704.94,"N_COORD97":2582715.3399999999,"ADDRESS":"糞箕湖１４１之１號","OBJECTID":182078},"geometry":{"x":190704.94000000134,"y":2582715.3399999999}},{"attributes":{"ID":182080,"DIS_CODE":0,"TOWNNAME":"白河區","LI":"河東里","LIN":"11鄰","STREET":" ","SECT":" ","MAREA":"糞箕湖","LANE":" ","ALLEY":" ","HOUSE_NO":"１４１之２號","E_COORD97":190733.51000000001,"N_COORD97":2582730.9300000002,"ADDRESS":"糞箕湖１４１之２號","OBJECTID":182079},"geometry":{"x":190733.50999999885,"y":2582730.9299999997}},{"attributes":{"ID":182081,"DIS_CODE":0,"TOWNNAME":"白河區","LI":"河東里","LIN":"11鄰","STREET":" ","SECT":" ","MAREA":"糞箕湖","LANE":" ","ALLEY":" ","HOUSE_NO":"１４１之６號","E_COORD97":190875.42999999999,"N_COORD97":2582734.5800000001,"ADDRESS":"糞箕湖１４１之６號","OBJECTID":182080},"geometry":{"x":190875.43000000063,"y":2582734.5800000001}},{"attributes":{"ID":182082,"DIS_CODE":0,"TOWNNAME":"白河區","LI":"河東里","LIN":"11鄰","STREET":" ","SECT":" ","MAREA":"糞箕湖","LANE":" ","ALLEY":" ","HOUSE_NO":"１４１之８號","E_COORD97":190846.28,"N_COORD97":2582746.5699999998,"ADDRESS":"糞箕湖１４１之８號","OBJECTID":182081},"geometry":{"x":190846.28000000119,"y":2582746.5700000022}},{"attributes":{"ID":182083,"DIS_CODE":0,"TOWNNAME":"白河區","LI":"河東里","LIN":"11鄰","STREET":" ","SECT":" ","MAREA":"糞箕湖","LANE":" ","ALLEY":" ","HOUSE_NO":"１４１號","E_COORD97":190708.32000000001,"N_COORD97":2582746.1099999999,"ADDRESS":"糞箕湖１４１號","OBJECTID":182082},"geometry":{"x":190708.32000000216,"y":2582746.1099999994}},{"attributes":{"ID":182084,"DIS_CODE":0,"TOWNNAME":"白河區","LI":"河東里","LIN":"11鄰","STREET":" ","SECT":" ","MAREA":"糞箕湖","LANE":" ","ALLEY":" ","HOUSE_NO":"１４３號","E_COORD97":190683.91,"N_COORD97":2582740.02,"ADDRESS":"糞箕湖１４３號","OBJECTID":182083},"geometry":{"x":190683.91000000201,"y":2582740.0200000014}},{"attributes":{"ID":182085,"DIS_CODE":0,"TOWNNAME":"白河區","LI":"河東里","LIN":"11鄰","STREET":" ","SECT":" ","MAREA":"糞箕湖","LANE":" ","ALLEY":" ","HOUSE_NO":"１４５號","E_COORD97":190688.13,"N_COORD97":2582809.9500000002,"ADDRESS":"糞箕湖１４５號","OBJECTID":182084},"geometry":{"x":190688.12999999989,"y":2582809.950000003}},{"attributes":{"ID":182086,"DIS_CODE":0,"TOWNNAME":"善化區","LI":"光文里","LIN":"25鄰","STREET":"公園路","SECT":" ","MAREA":" ","LANE":" ","ALLEY":" ","HOUSE_NO":"９８號","E_COORD97":178093.76999999999,"N_COORD97":2559209,"ADDRESS":"公園路９８號","OBJECTID":182085},"geometry":{"x":178093.76999999955,"y":2559209}},{"attributes":{"ID":182087,"DIS_CODE":0,"TOWNNAME":"仁德區","LI":"仁愛里","LIN":"11鄰","STREET":" ","SECT":" ","MAREA":"仁愛","LANE":" ","ALLEY":" ","HOUSE_NO":"２３７號","E_COORD97":170327.810188,"N_COORD97":2540042.8700000001,"ADDRESS":"仁愛２３７號","OBJECTID":182086},"geometry":{"x":170327.81018800102,"y":2540042.8700000029}},{"attributes":{"ID":182088,"DIS_CODE":0,"TOWNNAME":"善化區","LI":"光文里","LIN":"25鄰","STREET":"公園路","SECT":" ","MAREA":" ","LANE":" ","ALLEY":" ","HOUSE_NO":"８９號","E_COORD97":178109,"N_COORD97":2559191.75,"ADDRESS":"公園路８９號","OBJECTID":182087},"geometry":{"x":178109,"y":2559191.7500000019}},{"attributes":{"ID":182089,"DIS_CODE":0,"TOWNNAME":"善化區","LI":"光文里","LIN":"14鄰","STREET":"大成路","SECT":" ","MAREA":" ","LANE":" ","ALLEY":" ","HOUSE_NO":"１８０號","E_COORD97":178434.97,"N_COORD97":2558887,"ADDRESS":"大成路１８０號","OBJECTID":182088},"geometry":{"x":178434.96999999974,"y":2558887}},{"attributes":{"ID":182090,"DIS_CODE":0,"TOWNNAME":"善化區","LI":"東關里","LIN":"13鄰","STREET":"中和街","SECT":" ","MAREA":" ","LANE":" ","ALLEY":" ","HOUSE_NO":"１２號","E_COORD97":177421.75,"N_COORD97":2559064.5,"ADDRESS":"中和街１２號","OBJECTID":182089},"geometry":{"x":177421.75000000093,"y":2559064.5000000019}},{"attributes":{"ID":182091,"DIS_CODE":0,"TOWNNAME":"善化區","LI":"東關里","LIN":"13鄰","STREET":"中和街","SECT":" ","MAREA":" ","LANE":" ","ALLEY":" ","HOUSE_NO":"２２號","E_COORD97":177417.48000000001,"N_COORD97":2559043,"ADDRESS":"中和街２２號","OBJECTID":182090},"geometry":{"x":177417.48000000138,"y":2559043}},{"attributes":{"ID":182092,"DIS_CODE":0,"TOWNNAME":"善化區","LI":"坐駕里","LIN":"8鄰","STREET":"大成路","SECT":" ","MAREA":" ","LANE":" ","ALLEY":" ","HOUSE_NO":"３９１號","E_COORD97":177713.13,"N_COORD97":2558740.5,"ADDRESS":"大成路３９１號","OBJECTID":182091},"geometry":{"x":177713.12999999989,"y":2558740.5}},{"attributes":{"ID":182093,"DIS_CODE":0,"TOWNNAME":"東區","LI":"崇明里","LIN":"6鄰","STREET":"大同路","SECT":"二段","MAREA":" ","LANE":"４４９巷","ALLEY":"２弄","HOUSE_NO":"１３號","E_COORD97":169683.79000000001,"N_COORD97":2541312.0899999999,"ADDRESS":"大同路二段４４９巷２弄１３號","OBJECTID":182092},"geometry":{"x":169683.79000000004,"y":2541312.0900000017}},{"attributes":{"ID":182094,"DIS_CODE":0,"TOWNNAME":"仁德區","LI":"田厝里","LIN":"4鄰","STREET":"保安路","SECT":"二段","MAREA":" ","LANE":" ","ALLEY":" ","HOUSE_NO":"４８０號","E_COORD97":172450.98999999999,"N_COORD97":2537516.5699999998,"ADDRESS":"保安路二段４８０號","OBJECTID":182093},"geometry":{"x":172450.99000000022,"y":2537516.5700000003}},{"attributes":{"ID":182095,"DIS_CODE":0,"TOWNNAME":"善化區","LI":"光文里","LIN":"13鄰","STREET":"仁愛路","SECT":" ","MAREA":" ","LANE":" ","ALLEY":" ","HOUSE_NO":"８４號","E_COORD97":178486.84,"N_COORD97":2559094.0099999998,"ADDRESS":"仁愛路８４號","OBJECTID":182094},"geometry":{"x":178486.83999999985,"y":2559094.0099999979}},{"attributes":{"ID":182096,"DIS_CODE":0,"TOWNNAME":"仁德區","LI":"新田里","LIN":"4鄰","STREET":"勝利路","SECT":" ","MAREA":" ","LANE":" ","ALLEY":" ","HOUSE_NO":"９８號","E_COORD97":174014.10999999999,"N_COORD97":2539673.7599999998,"ADDRESS":"勝利路９８號","OBJECTID":182095},"geometry":{"x":174014.11000000127,"y":2539673.7600000016}},{"attributes":{"ID":182097,"DIS_CODE":0,"TOWNNAME":"仁德區","LI":"仁義里","LIN":"25鄰","STREET":"中清二街","SECT":" ","MAREA":" ","LANE":" ","ALLEY":" ","HOUSE_NO":"１號","E_COORD97":173539.31,"N_COORD97":2541348.0499999998,"ADDRESS":"中清二街１號","OBJECTID":182096},"geometry":{"x":173539.31000000052,"y":2541348.0500000007}},{"attributes":{"ID":182098,"DIS_CODE":0,"TOWNNAME":"佳里區","LI":"鎮山里","LIN":"20鄰","STREET":"鎮山街","SECT":" ","MAREA":" ","LANE":" ","ALLEY":" ","HOUSE_NO":"１９０號","E_COORD97":166221.60999999999,"N_COORD97":2560930.1000000001,"ADDRESS":"鎮山街１９０號","OBJECTID":182097},"geometry":{"x":166221.61000000127,"y":2560930.0999999996}},{"attributes":{"ID":182099,"DIS_CODE":0,"TOWNNAME":"仁德區","LI":"仁義里","LIN":"4鄰","STREET":"仁義三街","SECT":" ","MAREA":" ","LANE":" ","ALLEY":" ","HOUSE_NO":"１５９號","E_COORD97":173770.35999999999,"N_COORD97":2541131.77,"ADDRESS":"仁義三街１５９號","OBJECTID":182098},"geometry":{"x":173770.36000000127,"y":2541131.7699999996}},{"attributes":{"ID":182100,"DIS_CODE":0,"TOWNNAME":"仁德區","LI":"仁義里","LIN":"36鄰","STREET":"勝利路","SECT":" ","MAREA":" ","LANE":" ","ALLEY":" ","HOUSE_NO":"２３號","E_COORD97":173473.01999999999,"N_COORD97":2539985.7599999998,"ADDRESS":"勝利路２３號","OBJECTID":182099},"geometry":{"x":173473.02000000048,"y":2539985.7600000016}},{"attributes":{"ID":182101,"DIS_CODE":0,"TOWNNAME":"東區","LI":"大德里","LIN":"19鄰","STREET":"大同路","SECT":"二段","MAREA":" ","LANE":"６１巷","ALLEY":"１３６弄","HOUSE_NO":"６２號","E_COORD97":169522.54000000001,"N_COORD97":2542273.9100000001,"ADDRESS":"大同路二段６１巷１３６弄６２號","OBJECTID":182100},"geometry":{"x":169522.54000000097,"y":2542273.9100000001}},{"attributes":{"ID":182102,"DIS_CODE":0,"TOWNNAME":"東區","LI":"大德里","LIN":"19鄰","STREET":"大同路","SECT":"二段","MAREA":" ","LANE":"６１巷","ALLEY":"１３６弄","HOUSE_NO":"６４號","E_COORD97":169488.28,"N_COORD97":2542285.7999999998,"ADDRESS":"大同路二段６１巷１３６弄６４號","OBJECTID":182101},"geometry":{"x":169488.28000000212,"y":2542285.8000000007}},{"attributes":{"ID":182103,"DIS_CODE":0,"TOWNNAME":"東區","LI":"大德里","LIN":"19鄰","STREET":"大同路","SECT":"二段","MAREA":" ","LANE":"６１巷","ALLEY":"１３６弄","HOUSE_NO":"６６號","E_COORD97":169492.38,"N_COORD97":2542286.4199999999,"ADDRESS":"大同路二段６１巷１３６弄６６號","OBJECTID":182102},"geometry":{"x":169492.38000000082,"y":2542286.4200000018}},{"attributes":{"ID":182104,"DIS_CODE":0,"TOWNNAME":"東區","LI":"大德里","LIN":"19鄰","STREET":"大同路","SECT":"二段","MAREA":" ","LANE":"６１巷","ALLEY":"１３６弄","HOUSE_NO":"６８號","E_COORD97":169495.45999999999,"N_COORD97":2542287.4399999999,"ADDRESS":"大同路二段６１巷１３６弄６８號","OBJECTID":182103},"geometry":{"x":169495.46000000089,"y":2542287.4399999995}},{"attributes":{"ID":182105,"DIS_CODE":0,"TOWNNAME":"東區","LI":"大德里","LIN":"19鄰","STREET":"大同路","SECT":"二段","MAREA":" ","LANE":"６１巷","ALLEY":"１３６弄","HOUSE_NO":"６號","E_COORD97":169443.14000000001,"N_COORD97":2542271.46,"ADDRESS":"大同路二段６１巷１３６弄６號","OBJECTID":182104},"geometry":{"x":169443.1400000006,"y":2542271.4600000009}},{"attributes":{"ID":182106,"DIS_CODE":0,"TOWNNAME":"東區","LI":"大德里","LIN":"19鄰","STREET":"大同路","SECT":"二段","MAREA":" ","LANE":"６１巷","ALLEY":"１３６弄","HOUSE_NO":"７０號","E_COORD97":169498.95000000001,"N_COORD97":2542287.6400000001,"ADDRESS":"大同路二段６１巷１３６弄７０號","OBJECTID":182105},"geometry":{"x":169498.95000000112,"y":2542287.6400000006}},{"attributes":{"ID":182107,"DIS_CODE":0,"TOWNNAME":"東區","LI":"泉南里","LIN":"26鄰","STREET":"府連路","SECT":" ","MAREA":" ","LANE":"２６０巷","ALLEY":"３弄","HOUSE_NO":"３號","E_COORD97":169466.09,"N_COORD97":2542840.6400000001,"ADDRESS":"府連路２６０巷３弄３號","OBJECTID":182106},"geometry":{"x":169466.09000000078,"y":2542840.6400000043}},{"attributes":{"ID":182108,"DIS_CODE":0,"TOWNNAME":"東區","LI":"泉南里","LIN":"26鄰","STREET":"府連路","SECT":" ","MAREA":" ","LANE":"２６０巷","ALLEY":"３弄","HOUSE_NO":"１３號","E_COORD97":169485.29000000001,"N_COORD97":2542831.3799999999,"ADDRESS":"府連路２６０巷３弄１３號","OBJECTID":182107},"geometry":{"x":169485.29000000097,"y":2542831.3800000008}},{"attributes":{"ID":182109,"DIS_CODE":0,"TOWNNAME":"東區","LI":"泉南里","LIN":"14鄰","STREET":"光華街","SECT":" ","MAREA":" ","LANE":"２２９巷","ALLEY":"２８弄","HOUSE_NO":"９號","E_COORD97":169417.38,"N_COORD97":2542941.3999999999,"ADDRESS":"光華街２２９巷２８弄９號","OBJECTID":182108},"geometry":{"x":169417.37999999989,"y":2542941.4000000022}},{"attributes":{"ID":182110,"DIS_CODE":0,"TOWNNAME":"東區","LI":"裕農里","LIN":"7鄰","STREET":"裕農路","SECT":" ","MAREA":" ","LANE":"３４５巷","ALLEY":"５弄","HOUSE_NO":"１１號","E_COORD97":170948.14999999999,"N_COORD97":2543061.9199999999,"ADDRESS":"裕農路３４５巷５弄１１號","OBJECTID":182109},"geometry":{"x":170948.15000000037,"y":2543061.9200000037}},{"attributes":{"ID":182111,"DIS_CODE":0,"TOWNNAME":"東區","LI":"裕農里","LIN":"7鄰","STREET":"裕農路","SECT":" ","MAREA":" ","LANE":"３４５巷","ALLEY":"５弄","HOUSE_NO":"５號","E_COORD97":170964.67000000001,"N_COORD97":2543067.2000000002,"ADDRESS":"裕農路３４５巷５弄５號","OBJECTID":182110},"geometry":{"x":170964.66999999993,"y":2543067.2000000011}},{"attributes":{"ID":182112,"DIS_CODE":0,"TOWNNAME":"東區","LI":"裕農里","LIN":"7鄰","STREET":"裕農路","SECT":" ","MAREA":" ","LANE":"３４５巷","ALLEY":"５弄","HOUSE_NO":"７號","E_COORD97":170959.04999999999,"N_COORD97":2543064.5600000001,"ADDRESS":"裕農路３４５巷５弄７號","OBJECTID":182111},"geometry":{"x":170959.05000000168,"y":2543064.5600000005}},{"attributes":{"ID":182113,"DIS_CODE":0,"TOWNNAME":"東區","LI":"裕農里","LIN":"7鄰","STREET":"裕農路","SECT":" ","MAREA":" ","LANE":"３４５巷","ALLEY":"５弄","HOUSE_NO":"９號","E_COORD97":170954.10000000001,"N_COORD97":2543062.5800000001,"ADDRESS":"裕農路３４５巷５弄９號","OBJECTID":182112},"geometry":{"x":170954.10000000056,"y":2543062.5800000019}},{"attributes":{"ID":182114,"DIS_CODE":0,"TOWNNAME":"安南區","LI":"海東里","LIN":"24鄰","STREET":"同安路","SECT":" ","MAREA":" ","LANE":"２２５巷","ALLEY":"１６０弄","HOUSE_NO":"１號","E_COORD97":167004.07000000001,"N_COORD97":2549348.1600000001,"ADDRESS":"同安路２２５巷１６０弄１號","OBJECTID":182113},"geometry":{"x":167004.0700000003,"y":2549348.1600000001}},{"attributes":{"ID":182115,"DIS_CODE":0,"TOWNNAME":"安南區","LI":"海東里","LIN":"24鄰","STREET":"同安路","SECT":" ","MAREA":" ","LANE":"２２５巷","ALLEY":"１６０弄","HOUSE_NO":"３號","E_COORD97":167010.48000000001,"N_COORD97":2549351.5299999998,"ADDRESS":"同安路２２５巷１６０弄３號","OBJECTID":182114},"geometry":{"x":167010.48000000138,"y":2549351.5299999993}},{"attributes":{"ID":182116,"DIS_CODE":0,"TOWNNAME":"安南區","LI":"安慶里","LIN":"13鄰","STREET":"怡安路","SECT":"一段","MAREA":" ","LANE":"１３巷","ALLEY":"１０弄","HOUSE_NO":"１２號","E_COORD97":169474.51000000001,"N_COORD97":2548924.7000000002,"ADDRESS":"怡安路一段１３巷１０弄１２號","OBJECTID":182115},"geometry":{"x":169474.51000000071,"y":2548924.700000003}},{"attributes":{"ID":182117,"DIS_CODE":0,"TOWNNAME":"仁德區","LI":"成功里","LIN":"26鄰","STREET":"成功一街","SECT":" ","MAREA":" ","LANE":" ","ALLEY":" ","HOUSE_NO":"５０號","E_COORD97":170524.85000000001,"N_COORD97":2540008.27,"ADDRESS":"成功一街５０號","OBJECTID":182116},"geometry":{"x":170524.85000000056,"y":2540008.2700000014}},{"attributes":{"ID":182118,"DIS_CODE":0,"TOWNNAME":"仁德區","LI":"仁德里","LIN":"24鄰","STREET":"文孝路","SECT":" ","MAREA":" ","LANE":" ","ALLEY":" ","HOUSE_NO":"３５號","E_COORD97":172063.95999999999,"N_COORD97":2541397.3199999998,"ADDRESS":"文孝路３５號","OBJECTID":182117},"geometry":{"x":172063.96000000089,"y":2541397.3200000003}},{"attributes":{"ID":182119,"DIS_CODE":0,"TOWNNAME":"仁德區","LI":"仁德里","LIN":"4鄰","STREET":"仁中三街","SECT":" ","MAREA":" ","LANE":" ","ALLEY":" ","HOUSE_NO":"４６號","E_COORD97":173339.34,"N_COORD97":2540429.25,"ADDRESS":"仁中三街４６號","OBJECTID":182118},"geometry":{"x":173339.34000000078,"y":2540429.2500000019}},{"attributes":{"ID":182120,"DIS_CODE":0,"TOWNNAME":"安南區","LI":"安慶里","LIN":"13鄰","STREET":"怡安路","SECT":"一段","MAREA":" ","LANE":"１３巷","ALLEY":"１０弄","HOUSE_NO":"１６號","E_COORD97":169474.97,"N_COORD97":2548930.3900000001,"ADDRESS":"怡安路一段１３巷１０弄１６號","OBJECTID":182119},"geometry":{"x":169474.97000000067,"y":2548930.3900000006}},{"attributes":{"ID":182121,"DIS_CODE":0,"TOWNNAME":"安南區","LI":"長安里","LIN":"13鄰","STREET":"公學路","SECT":"二段","MAREA":" ","LANE":"１２５巷","ALLEY":"４１弄","HOUSE_NO":"３６號","E_COORD97":167838.39000000001,"N_COORD97":2552251.96,"ADDRESS":"公學路二段１２５巷４１弄３６號","OBJECTID":182120},"geometry":{"x":167838.38999999966,"y":2552251.9600000028}},{"attributes":{"ID":182122,"DIS_CODE":0,"TOWNNAME":"安南區","LI":"海西里","LIN":"12鄰","STREET":"海環街","SECT":" ","MAREA":" ","LANE":"２８１巷","ALLEY":"２５弄","HOUSE_NO":"３１號","E_COORD97":165964.60000000001,"N_COORD97":2548540.8399999999,"ADDRESS":"海環街２８１巷２５弄３１號","OBJECTID":182121},"geometry":{"x":165964.60000000056,"y":2548540.8399999999}},{"attributes":{"ID":182123,"DIS_CODE":0,"TOWNNAME":"安南區","LI":"海西里","LIN":"12鄰","STREET":"海環街","SECT":" ","MAREA":" ","LANE":"２８１巷","ALLEY":"２５弄","HOUSE_NO":"３３號","E_COORD97":165971.16,"N_COORD97":2548563.23,"ADDRESS":"海環街２８１巷２５弄３３號","OBJECTID":182122},"geometry":{"x":165971.16000000015,"y":2548563.2300000023}},{"attributes":{"ID":182124,"DIS_CODE":0,"TOWNNAME":"安南區","LI":"淵東里","LIN":"3鄰","STREET":"本原街","SECT":"三段","MAREA":" ","LANE":"２３４巷","ALLEY":"１０６弄","HOUSE_NO":"１８號","E_COORD97":165287.14999999999,"N_COORD97":2550573.04,"ADDRESS":"本原街三段２３４巷１０６弄１８號","OBJECTID":182123},"geometry":{"x":165287.1500000013,"y":2550573.0399999972}},{"attributes":{"ID":182125,"DIS_CODE":0,"TOWNNAME":"安南區","LI":"淵東里","LIN":"3鄰","STREET":"本原街","SECT":"三段","MAREA":" ","LANE":"２３４巷","ALLEY":"１０６弄","HOUSE_NO":"１８之１號","E_COORD97":165299.84,"N_COORD97":2550574.1699999999,"ADDRESS":"本原街三段２３４巷１０６弄１８之１號","OBJECTID":182124},"geometry":{"x":165299.83999999985,"y":2550574.1700000018}},{"attributes":{"ID":182126,"DIS_CODE":0,"TOWNNAME":"安南區","LI":"淵東里","LIN":"3鄰","STREET":"本原街","SECT":"三段","MAREA":" ","LANE":"２３４巷","ALLEY":"１０６弄","HOUSE_NO":"１８之２號","E_COORD97":165300.51000000001,"N_COORD97":2550566.29,"ADDRESS":"本原街三段２３４巷１０６弄１８之２號","OBJECTID":182125},"geometry":{"x":165300.50999999978,"y":2550566.290000001}},{"attributes":{"ID":182127,"DIS_CODE":0,"TOWNNAME":"安南區","LI":"淵東里","LIN":"3鄰","STREET":"本原街","SECT":"三段","MAREA":" ","LANE":"２３４巷","ALLEY":"１０６弄","HOUSE_NO":"１８之３號","E_COORD97":165304.10999999999,"N_COORD97":2550559.3199999998,"ADDRESS":"本原街三段２３４巷１０６弄１８之３號","OBJECTID":182126},"geometry":{"x":165304.11000000127,"y":2550559.3200000022}},{"attributes":{"ID":182128,"DIS_CODE":0,"TOWNNAME":"安南區","LI":"原佃里","LIN":"7鄰","STREET":"安中路","SECT":"二段","MAREA":" ","LANE":"２巷","ALLEY":"１１７弄","HOUSE_NO":"１號","E_COORD97":167263.98000000001,"N_COORD97":2549825.7999999998,"ADDRESS":"安中路二段２巷１１７弄１號","OBJECTID":182127},"geometry":{"x":167263.98000000045,"y":2549825.8000000007}},{"attributes":{"ID":182129,"DIS_CODE":0,"TOWNNAME":"安南區","LI":"原佃里","LIN":"7鄰","STREET":"安中路","SECT":"二段","MAREA":" ","LANE":"２巷","ALLEY":"１１７弄","HOUSE_NO":"３號","E_COORD97":167257.04000000001,"N_COORD97":2549837.96,"ADDRESS":"安中路二段２巷１１７弄３號","OBJECTID":182128},"geometry":{"x":167257.0400000019,"y":2549837.9600000028}},{"attributes":{"ID":182130,"DIS_CODE":0,"TOWNNAME":"安南區","LI":"原佃里","LIN":"7鄰","STREET":"安中路","SECT":"二段","MAREA":" ","LANE":"２巷","ALLEY":"１１７弄","HOUSE_NO":"５號","E_COORD97":167250.76999999999,"N_COORD97":2549851.7999999998,"ADDRESS":"安中路二段２巷１１７弄５號","OBJECTID":182129},"geometry":{"x":167250.76999999955,"y":2549851.8000000026}},{"attributes":{"ID":182131,"DIS_CODE":0,"TOWNNAME":"安南區","LI":"原佃里","LIN":"7鄰","STREET":"安中路","SECT":"二段","MAREA":" ","LANE":"２巷","ALLEY":"１１７弄","HOUSE_NO":"７號","E_COORD97":167245.26000000001,"N_COORD97":2549863.7000000002,"ADDRESS":"安中路二段２巷１１７弄７號","OBJECTID":182130},"geometry":{"x":167245.26000000071,"y":2549863.700000003}},{"attributes":{"ID":182132,"DIS_CODE":0,"TOWNNAME":"安南區","LI":"公\u25A0里","LIN":"8鄰","STREET":"安興街","SECT":" ","MAREA":" ","LANE":"１８１巷","ALLEY":"２６弄","HOUSE_NO":"６８號","E_COORD97":163966.98999999999,"N_COORD97":2552073.3999999999,"ADDRESS":"安興街１８１巷２６弄６８號","OBJECTID":182131},"geometry":{"x":163966.99000000022,"y":2552073.4000000004}},{"attributes":{"ID":182133,"DIS_CODE":0,"TOWNNAME":"安南區","LI":"公\u25A0里","LIN":"8鄰","STREET":"安興街","SECT":" ","MAREA":" ","LANE":"１８１巷","ALLEY":"２６弄","HOUSE_NO":"７０號","E_COORD97":163961.98999999999,"N_COORD97":2552068.4399999999,"ADDRESS":"安興街１８１巷２６弄７０號","OBJECTID":182132},"geometry":{"x":163961.98999999929,"y":2552068.4399999995}},{"attributes":{"ID":182134,"DIS_CODE":0,"TOWNNAME":"安南區","LI":"東和里","LIN":"7鄰","STREET":"環館北路","SECT":" ","MAREA":" ","LANE":"８４９巷","ALLEY":"６弄","HOUSE_NO":"１９號","E_COORD97":171050.29999999999,"N_COORD97":2551421.9199999999,"ADDRESS":"環館北路８４９巷６弄１９號","OBJECTID":182133},"geometry":{"x":171050.29999999981,"y":2551421.9199999999}},{"attributes":{"ID":182135,"DIS_CODE":0,"TOWNNAME":"安南區","LI":"東和里","LIN":"7鄰","STREET":"環館北路","SECT":" ","MAREA":" ","LANE":"８４９巷","ALLEY":"６弄","HOUSE_NO":"２０號","E_COORD97":171045.25,"N_COORD97":2551444.6600000001,"ADDRESS":"環館北路８４９巷６弄２０號","OBJECTID":182134},"geometry":{"x":171045.25,"y":2551444.6599999983}},{"attributes":{"ID":182136,"DIS_CODE":0,"TOWNNAME":"安南區","LI":"東和里","LIN":"7鄰","STREET":"環館北路","SECT":" ","MAREA":" ","LANE":"８４９巷","ALLEY":"６弄","HOUSE_NO":"２１號","E_COORD97":171045.54999999999,"N_COORD97":2551414.1299999999,"ADDRESS":"環館北路８４９巷６弄２１號","OBJECTID":182135},"geometry":{"x":171045.55000000168,"y":2551414.1300000008}},{"attributes":{"ID":182137,"DIS_CODE":0,"TOWNNAME":"安南區","LI":"東和里","LIN":"4鄰","STREET":"長和路","SECT":"一段","MAREA":" ","LANE":"８２３巷","ALLEY":"９８弄","HOUSE_NO":"８號","E_COORD97":170809.56,"N_COORD97":2551167.5299999998,"ADDRESS":"長和路一段８２３巷９８弄８號","OBJECTID":182136},"geometry":{"x":170809.56000000145,"y":2551167.5300000012}},{"attributes":{"ID":182138,"DIS_CODE":0,"TOWNNAME":"安南區","LI":"新順里","LIN":"7鄰","STREET":"北安路","SECT":"三段","MAREA":" ","LANE":"７４５巷","ALLEY":"４２弄","HOUSE_NO":"５３號","E_COORD97":169149.66,"N_COORD97":2550047.3100000001,"ADDRESS":"北安路三段７４５巷４２弄５３號","OBJECTID":182137},"geometry":{"x":169149.66000000015,"y":2550047.3100000042}},{"attributes":{"ID":182139,"DIS_CODE":0,"TOWNNAME":"安南區","LI":"新順里","LIN":"7鄰","STREET":"北安路","SECT":"三段","MAREA":" ","LANE":"７４５巷","ALLEY":"４２弄","HOUSE_NO":"５５號","E_COORD97":169143.72,"N_COORD97":2550047.0899999999,"ADDRESS":"北安路三段７４５巷４２弄５５號","OBJECTID":182138},"geometry":{"x":169143.71999999974,"y":2550047.0899999999}},{"attributes":{"ID":182140,"DIS_CODE":0,"TOWNNAME":"安南區","LI":"新順里","LIN":"7鄰","STREET":"北安路","SECT":"三段","MAREA":" ","LANE":"７４５巷","ALLEY":"４２弄","HOUSE_NO":"５７號","E_COORD97":169138.98999999999,"N_COORD97":2550040.5,"ADDRESS":"北安路三段７４５巷４２弄５７號","OBJECTID":182139},"geometry":{"x":169138.99000000022,"y":2550040.5}},{"attributes":{"ID":182141,"DIS_CODE":0,"TOWNNAME":"安南區","LI":"新順里","LIN":"7鄰","STREET":"北安路","SECT":"三段","MAREA":" ","LANE":"７４５巷","ALLEY":"４２弄","HOUSE_NO":"６３號","E_COORD97":169129.13,"N_COORD97":2550041.0899999999,"ADDRESS":"北安路三段７４５巷４２弄６３號","OBJECTID":182140},"geometry":{"x":169129.12999999989,"y":2550041.0899999999}},{"attributes":{"ID":182142,"DIS_CODE":0,"TOWNNAME":"安南區","LI":"新順里","LIN":"7鄰","STREET":"北安路","SECT":"三段","MAREA":" ","LANE":"７４５巷","ALLEY":"４２弄","HOUSE_NO":"６５號","E_COORD97":169124.19,"N_COORD97":2550040.3100000001,"ADDRESS":"北安路三段７４５巷４２弄６５號","OBJECTID":182141},"geometry":{"x":169124.19000000041,"y":2550040.3100000005}},{"attributes":{"ID":182143,"DIS_CODE":0,"TOWNNAME":"安南區","LI":"新順里","LIN":"7鄰","STREET":"北安路","SECT":"三段","MAREA":" ","LANE":"７４５巷","ALLEY":"４２弄","HOUSE_NO":"６７號","E_COORD97":169119.70999999999,"N_COORD97":2550038.9300000002,"ADDRESS":"北安路三段７４５巷４２弄６７號","OBJECTID":182142},"geometry":{"x":169119.70999999996,"y":2550038.9300000034}},{"attributes":{"ID":182144,"DIS_CODE":0,"TOWNNAME":"安南區","LI":"新順里","LIN":"7鄰","STREET":"北安路","SECT":"三段","MAREA":" ","LANE":"７４５巷","ALLEY":"４２弄","HOUSE_NO":"６９號","E_COORD97":169115.54999999999,"N_COORD97":2550038.27,"ADDRESS":"北安路三段７４５巷４２弄６９號","OBJECTID":182143},"geometry":{"x":169115.54999999981,"y":2550038.2699999996}},{"attributes":{"ID":182145,"DIS_CODE":0,"TOWNNAME":"安南區","LI":"新順里","LIN":"7鄰","STREET":"北安路","SECT":"三段","MAREA":" ","LANE":"７４５巷","ALLEY":"４２弄","HOUSE_NO":"７１號","E_COORD97":169111.39000000001,"N_COORD97":2550037.6099999999,"ADDRESS":"北安路三段７４５巷４２弄７１號","OBJECTID":182144},"geometry":{"x":169111.38999999966,"y":2550037.6100000031}},{"attributes":{"ID":182146,"DIS_CODE":0,"TOWNNAME":"安南區","LI":"新順里","LIN":"7鄰","STREET":"北安路","SECT":"三段","MAREA":" ","LANE":"７４５巷","ALLEY":"４２弄","HOUSE_NO":"７３號","E_COORD97":169106.73999999999,"N_COORD97":2550041.7799999998,"ADDRESS":"北安路三段７４５巷４２弄７３號","OBJECTID":182145},"geometry":{"x":169106.74000000022,"y":2550041.7799999993}},{"attributes":{"ID":182147,"DIS_CODE":0,"TOWNNAME":"東山區","LI":"大客里","LIN":"10鄰","STREET":" ","SECT":" ","MAREA":"大庄","LANE":" ","ALLEY":" ","HOUSE_NO":"７８號","E_COORD97":189885.56,"N_COORD97":2579003.2000000002,"ADDRESS":"大庄７８號","OBJECTID":182146},"geometry":{"x":189885.56000000145,"y":2579003.1999999993}},{"attributes":{"ID":182148,"DIS_CODE":0,"TOWNNAME":"東山區","LI":"大客里","LIN":"10鄰","STREET":" ","SECT":" ","MAREA":"大庄","LANE":" ","ALLEY":" ","HOUSE_NO":"８２號之１","E_COORD97":190039.17999999999,"N_COORD97":2578976.71,"ADDRESS":"大庄８２號之１","OBJECTID":182147},"geometry":{"x":190039.18000000063,"y":2578976.7100000028}},{"attributes":{"ID":182149,"DIS_CODE":0,"TOWNNAME":"東山區","LI":"大客里","LIN":"10鄰","STREET":" ","SECT":" ","MAREA":"大庄","LANE":" ","ALLEY":" ","HOUSE_NO":"８２號之２","E_COORD97":190013.92000000001,"N_COORD97":2578973.48,"ADDRESS":"大庄８２號之２","OBJECTID":182148},"geometry":{"x":190013.92000000179,"y":2578973.4800000023}},{"attributes":{"ID":182150,"DIS_CODE":0,"TOWNNAME":"東山區","LI":"大客里","LIN":"10鄰","STREET":" ","SECT":" ","MAREA":"大庄","LANE":" ","ALLEY":" ","HOUSE_NO":"８２號之３","E_COORD97":189987.48000000001,"N_COORD97":2578951.4399999999,"ADDRESS":"大庄８２號之３","OBJECTID":182149},"geometry":{"x":189987.48000000138,"y":2578951.4399999995}},{"attributes":{"ID":182151,"DIS_CODE":0,"TOWNNAME":"東山區","LI":"大客里","LIN":"10鄰","STREET":" ","SECT":" ","MAREA":"大庄","LANE":" ","ALLEY":" ","HOUSE_NO":"８２號之４","E_COORD97":189990.12,"N_COORD97":2578976.9399999999,"ADDRESS":"大庄８２號之４","OBJECTID":182150},"geometry":{"x":189990.12000000011,"y":2578976.9400000013}},{"attributes":{"ID":182152,"DIS_CODE":0,"TOWNNAME":"東山區","LI":"大客里","LIN":"10鄰","STREET":" ","SECT":" ","MAREA":"大庄","LANE":" ","ALLEY":" ","HOUSE_NO":"８２號","E_COORD97":189928.29000000001,"N_COORD97":2578961.46,"ADDRESS":"大庄８２號","OBJECTID":182151},"geometry":{"x":189928.29000000004,"y":2578961.4600000028}},{"attributes":{"ID":182153,"DIS_CODE":0,"TOWNNAME":"東山區","LI":"大客里","LIN":"10鄰","STREET":" ","SECT":" ","MAREA":"大庄","LANE":" ","ALLEY":" ","HOUSE_NO":"８３號之１","E_COORD97":189945.85999999999,"N_COORD97":2578992.75,"ADDRESS":"大庄８３號之１","OBJECTID":182152},"geometry":{"x":189945.86000000127,"y":2578992.75}},{"attributes":{"ID":182154,"DIS_CODE":0,"TOWNNAME":"東山區","LI":"三榮里","LIN":"10鄰","STREET":" ","SECT":" ","MAREA":"木柵","LANE":" ","ALLEY":" ","HOUSE_NO":"５０號之１","E_COORD97":187343.95000000001,"N_COORD97":2579704.6800000002,"ADDRESS":"木柵５０號之１","OBJECTID":182153},"geometry":{"x":187343.94999999925,"y":2579704.6800000016}},{"attributes":{"ID":182155,"DIS_CODE":0,"TOWNNAME":"東山區","LI":"三榮里","LIN":"10鄰","STREET":" ","SECT":" ","MAREA":"木柵","LANE":" ","ALLEY":" ","HOUSE_NO":"５０號之２","E_COORD97":187333.17000000001,"N_COORD97":2579696.6699999999,"ADDRESS":"木柵５０號之２","OBJECTID":182154},"geometry":{"x":187333.16999999993,"y":2579696.6700000037}},{"attributes":{"ID":182156,"DIS_CODE":0,"TOWNNAME":"東山區","LI":"三榮里","LIN":"10鄰","STREET":" ","SECT":" ","MAREA":"木柵","LANE":" ","ALLEY":" ","HOUSE_NO":"５０號之３","E_COORD97":187350.60999999999,"N_COORD97":2579668.8900000001,"ADDRESS":"木柵５０號之３","OBJECTID":182155},"geometry":{"x":187350.61000000127,"y":2579668.8900000043}},{"attributes":{"ID":182157,"DIS_CODE":0,"TOWNNAME":"東山區","LI":"三榮里","LIN":"10鄰","STREET":" ","SECT":" ","MAREA":"木柵","LANE":" ","ALLEY":" ","HOUSE_NO":"５０號之４","E_COORD97":187279.60000000001,"N_COORD97":2579653.2799999998,"ADDRESS":"木柵５０號之４","OBJECTID":182156},"geometry":{"x":187279.5999999987,"y":2579653.2799999993}},{"attributes":{"ID":182158,"DIS_CODE":0,"TOWNNAME":"歸仁區","LI":"媽廟里","LIN":"26鄰","STREET":"保大路","SECT":"一段","MAREA":" ","LANE":"２６０巷","ALLEY":"９０弄","HOUSE_NO":"１０號","E_COORD97":177517.58335599999,"N_COORD97":2544538.3804899999,"ADDRESS":"保大路一段２６０巷９０弄１０號","OBJECTID":182157},"geometry":{"x":177517.58335600048,"y":2544538.3804870006}},{"attributes":{"ID":182159,"DIS_CODE":0,"TOWNNAME":"東山區","LI":"三榮里","LIN":"10鄰","STREET":" ","SECT":" ","MAREA":"木柵","LANE":" ","ALLEY":" ","HOUSE_NO":"５５號","E_COORD97":187312.87,"N_COORD97":2579723.2000000002,"ADDRESS":"木柵５５號","OBJECTID":182158},"geometry":{"x":187312.87000000104,"y":2579723.2000000011}},{"attributes":{"ID":182160,"DIS_CODE":0,"TOWNNAME":"新營區","LI":"太北里","LIN":"10鄰","STREET":" ","SECT":" ","MAREA":"太子宮","LANE":" ","ALLEY":" ","HOUSE_NO":"８０號","E_COORD97":176135.39000000001,"N_COORD97":2577104.1699999999,"ADDRESS":"太子宮８０號","OBJECTID":182159},"geometry":{"x":176135.39000000153,"y":2577104.1700000018}},{"attributes":{"ID":182161,"DIS_CODE":0,"TOWNNAME":"新營區","LI":"太北里","LIN":"10鄰","STREET":" ","SECT":" ","MAREA":"太子宮","LANE":" ","ALLEY":" ","HOUSE_NO":"８２之１號","E_COORD97":176174.70999999999,"N_COORD97":2577102.9300000002,"ADDRESS":"太子宮８２之１號","OBJECTID":182160},"geometry":{"x":176174.71000000089,"y":2577102.9299999997}},{"attributes":{"ID":182162,"DIS_CODE":0,"TOWNNAME":"新營區","LI":"太北里","LIN":"10鄰","STREET":" ","SECT":" ","MAREA":"太子宮","LANE":" ","ALLEY":" ","HOUSE_NO":"８１號之２","E_COORD97":176157.13,"N_COORD97":2577111.8700000001,"ADDRESS":"太子宮８１號之２","OBJECTID":182161},"geometry":{"x":176157.12999999989,"y":2577111.870000001}},{"attributes":{"ID":182163,"DIS_CODE":0,"TOWNNAME":"新營區","LI":"鐵線里","LIN":"10鄰","STREET":" ","SECT":" ","MAREA":"鐵線橋","LANE":" ","ALLEY":" ","HOUSE_NO":"１０９之１號","E_COORD97":175926.60999999999,"N_COORD97":2573891.4399999999,"ADDRESS":"鐵線橋１０９之１號","OBJECTID":182162},"geometry":{"x":175926.61000000127,"y":2573891.4400000013}},{"attributes":{"ID":182164,"DIS_CODE":0,"TOWNNAME":"安南區","LI":"淵西里","LIN":"7鄰","STREET":"安中路","SECT":"四段","MAREA":" ","LANE":"３２０巷","ALLEY":"１２９弄","HOUSE_NO":"１０號","E_COORD97":164729.60000000001,"N_COORD97":2550423.8300000001,"ADDRESS":"安中路四段３２０巷１２９弄１０號","OBJECTID":182163},"geometry":{"x":164729.59999999963,"y":2550423.8300000019}},{"attributes":{"ID":182165,"DIS_CODE":0,"TOWNNAME":"安南區","LI":"州北里","LIN":"24鄰","STREET":"長和路","SECT":"二段","MAREA":" ","LANE":"１４０巷","ALLEY":"１８５弄","HOUSE_NO":"２９號","E_COORD97":170250.45000000001,"N_COORD97":2551894.6699999999,"ADDRESS":"長和路二段１４０巷１８５弄２９號","OBJECTID":182164},"geometry":{"x":170250.45000000112,"y":2551894.6699999999}},{"attributes":{"ID":182166,"DIS_CODE":0,"TOWNNAME":"安南區","LI":"州北里","LIN":"24鄰","STREET":"長和路","SECT":"二段","MAREA":" ","LANE":"１４０巷","ALLEY":"１８５弄","HOUSE_NO":"３１號","E_COORD97":170246.25,"N_COORD97":2551894.6099999999,"ADDRESS":"長和路二段１４０巷１８５弄３１號","OBJECTID":182165},"geometry":{"x":170246.25000000093,"y":2551894.6099999994}},{"attributes":{"ID":182167,"DIS_CODE":0,"TOWNNAME":"白河區","LI":"河東里","LIN":"11鄰","STREET":" ","SECT":" ","MAREA":"糞箕湖","LANE":" ","ALLEY":" ","HOUSE_NO":"１４７號","E_COORD97":190665.97,"N_COORD97":2582804.6899999999,"ADDRESS":"糞箕湖１４７號","OBJECTID":182166},"geometry":{"x":190665.9700000016,"y":2582804.6899999976}},{"attributes":{"ID":182168,"DIS_CODE":0,"TOWNNAME":"安南區","LI":"頂安里","LIN":"14鄰","STREET":"長溪路","SECT":"一段","MAREA":" ","LANE":"４０７巷","ALLEY":"３２弄","HOUSE_NO":"１號","E_COORD97":168500.44,"N_COORD97":2548797.1499999999,"ADDRESS":"長溪路一段４０７巷３２弄１號","OBJECTID":182167},"geometry":{"x":168500.44000000041,"y":2548797.1500000041}},{"attributes":{"ID":182169,"DIS_CODE":0,"TOWNNAME":"白河區","LI":"河東里","LIN":"11鄰","STREET":" ","SECT":" ","MAREA":"糞箕湖","LANE":" ","ALLEY":" ","HOUSE_NO":"１４８號","E_COORD97":190638.23999999999,"N_COORD97":2582816.1200000001,"ADDRESS":"糞箕湖１４８號","OBJECTID":182168},"geometry":{"x":190638.24000000115,"y":2582816.120000001}},{"attributes":{"ID":182170,"DIS_CODE":0,"TOWNNAME":"白河區","LI":"河東里","LIN":"11鄰","STREET":" ","SECT":" ","MAREA":"糞箕湖","LANE":" ","ALLEY":" ","HOUSE_NO":"１４９號","E_COORD97":190650.20999999999,"N_COORD97":2582824.3700000001,"ADDRESS":"糞箕湖１４９號","OBJECTID":182169},"geometry":{"x":190650.21000000089,"y":2582824.370000001}},{"attributes":{"ID":182171,"DIS_CODE":0,"TOWNNAME":"白河區","LI":"河東里","LIN":"11鄰","STREET":" ","SECT":" ","MAREA":"糞箕湖","LANE":" ","ALLEY":" ","HOUSE_NO":"１５０號","E_COORD97":190640.26000000001,"N_COORD97":2582854.2999999998,"ADDRESS":"糞箕湖１５０號","OBJECTID":182170},"geometry":{"x":190640.25999999885,"y":2582854.3000000026}},{"attributes":{"ID":182172,"DIS_CODE":0,"TOWNNAME":"白河區","LI":"河東里","LIN":"11鄰","STREET":" ","SECT":" ","MAREA":"糞箕湖","LANE":" ","ALLEY":" ","HOUSE_NO":"１５１號","E_COORD97":190618.56,"N_COORD97":2582860.5899999999,"ADDRESS":"糞箕湖１５１號","OBJECTID":182171},"geometry":{"x":190618.56000000052,"y":2582860.5900000017}},{"attributes":{"ID":182173,"DIS_CODE":0,"TOWNNAME":"安南區","LI":"頂安里","LIN":"14鄰","STREET":"長溪路","SECT":"一段","MAREA":" ","LANE":"４０７巷","ALLEY":"３２弄","HOUSE_NO":"２號","E_COORD97":168511.23000000001,"N_COORD97":2548820.9500000002,"ADDRESS":"長溪路一段４０７巷３２弄２號","OBJECTID":182172},"geometry":{"x":168511.23000000138,"y":2548820.9499999974}},{"attributes":{"ID":182174,"DIS_CODE":0,"TOWNNAME":"白河區","LI":"河東里","LIN":"11鄰","STREET":" ","SECT":" ","MAREA":"糞箕湖","LANE":" ","ALLEY":" ","HOUSE_NO":"１５２號","E_COORD97":190612.25,"N_COORD97":2582867.5899999999,"ADDRESS":"糞箕湖１５２號","OBJECTID":182173},"geometry":{"x":190612.25000000093,"y":2582867.5900000017}},{"attributes":{"ID":182175,"DIS_CODE":0,"TOWNNAME":"白河區","LI":"河東里","LIN":"11鄰","STREET":" ","SECT":" ","MAREA":"糞箕湖","LANE":" ","ALLEY":" ","HOUSE_NO":"１５３之１號","E_COORD97":190585.62,"N_COORD97":2582807.73,"ADDRESS":"糞箕湖１５３之１號","OBJECTID":182174},"geometry":{"x":190585.61999999918,"y":2582807.7300000004}},{"attributes":{"ID":182176,"DIS_CODE":0,"TOWNNAME":"白河區","LI":"河東里","LIN":"11鄰","STREET":" ","SECT":" ","MAREA":"糞箕湖","LANE":" ","ALLEY":" ","HOUSE_NO":"１５３之２號","E_COORD97":190599.29999999999,"N_COORD97":2582817.9900000002,"ADDRESS":"糞箕湖１５３之２號","OBJECTID":182175},"geometry":{"x":190599.29999999981,"y":2582817.9900000021}},{"attributes":{"ID":182177,"DIS_CODE":0,"TOWNNAME":"白河區","LI":"河東里","LIN":"11鄰","STREET":" ","SECT":" ","MAREA":"糞箕湖","LANE":" ","ALLEY":" ","HOUSE_NO":"１５３之６號","E_COORD97":190627.56,"N_COORD97":2582861.0800000001,"ADDRESS":"糞箕湖１５３之６號","OBJECTID":182176},"geometry":{"x":190627.55999999959,"y":2582861.0800000019}},{"attributes":{"ID":182178,"DIS_CODE":0,"TOWNNAME":"白河區","LI":"河東里","LIN":"11鄰","STREET":" ","SECT":" ","MAREA":"糞箕湖","LANE":" ","ALLEY":" ","HOUSE_NO":"１５３之８號","E_COORD97":190562.84,"N_COORD97":2582783.4399999999,"ADDRESS":"糞箕湖１５３之８號","OBJECTID":182177},"geometry":{"x":190562.83999999985,"y":2582783.4400000013}},{"attributes":{"ID":182179,"DIS_CODE":0,"TOWNNAME":"安南區","LI":"頂安里","LIN":"14鄰","STREET":"長溪路","SECT":"一段","MAREA":" ","LANE":"４０７巷","ALLEY":"３２弄","HOUSE_NO":"３號","E_COORD97":168493.78,"N_COORD97":2548795.04,"ADDRESS":"長溪路一段４０７巷３２弄３號","OBJECTID":182178},"geometry":{"x":168493.78000000119,"y":2548795.0399999991}},{"attributes":{"ID":182180,"DIS_CODE":0,"TOWNNAME":"安南區","LI":"頂安里","LIN":"14鄰","STREET":"長溪路","SECT":"一段","MAREA":" ","LANE":"４０７巷","ALLEY":"３２弄","HOUSE_NO":"５號","E_COORD97":168489.04999999999,"N_COORD97":2548797.3700000001,"ADDRESS":"長溪路一段４０７巷３２弄５號","OBJECTID":182179},"geometry":{"x":168489.05000000168,"y":2548797.3700000029}},{"attributes":{"ID":182181,"DIS_CODE":0,"TOWNNAME":"安南區","LI":"頂安里","LIN":"14鄰","STREET":"長溪路","SECT":"一段","MAREA":" ","LANE":"４０７巷","ALLEY":"３２弄","HOUSE_NO":"６號","E_COORD97":168506.42999999999,"N_COORD97":2548822.3700000001,"ADDRESS":"長溪路一段４０７巷３２弄６號","OBJECTID":182180},"geometry":{"x":168506.4299999997,"y":2548822.370000001}},{"attributes":{"ID":182182,"DIS_CODE":0,"TOWNNAME":"安南區","LI":"頂安里","LIN":"14鄰","STREET":"長溪路","SECT":"一段","MAREA":" ","LANE":"４０７巷","ALLEY":"３２弄","HOUSE_NO":"７號","E_COORD97":168485.35999999999,"N_COORD97":2548799.8300000001,"ADDRESS":"長溪路一段４０７巷３２弄７號","OBJECTID":182181},"geometry":{"x":168485.36000000034,"y":2548799.8300000019}},{"attributes":{"ID":182183,"DIS_CODE":0,"TOWNNAME":"安南區","LI":"頂安里","LIN":"14鄰","STREET":"長溪路","SECT":"一段","MAREA":" ","LANE":"４０７巷","ALLEY":"３２弄","HOUSE_NO":"８號","E_COORD97":168502.23999999999,"N_COORD97":2548823.6099999999,"ADDRESS":"長溪路一段４０７巷３２弄８號","OBJECTID":182182},"geometry":{"x":168502.24000000115,"y":2548823.6100000031}},{"attributes":{"ID":182184,"DIS_CODE":0,"TOWNNAME":"新營區","LI":"南紙里","LIN":"10鄰","STREET":"南紙街","SECT":" ","MAREA":" ","LANE":"５４巷","ALLEY":" ","HOUSE_NO":"１０號","E_COORD97":177768.72,"N_COORD97":2577678.6299999999,"ADDRESS":"南紙街５４巷１０號","OBJECTID":182183},"geometry":{"x":177768.71999999974,"y":2577678.6300000027}},{"attributes":{"ID":182185,"DIS_CODE":0,"TOWNNAME":"歸仁區","LI":"南興里","LIN":"24鄰","STREET":"文化二十街","SECT":" ","MAREA":" ","LANE":" ","ALLEY":" ","HOUSE_NO":"４２號","E_COORD97":175519.79000000001,"N_COORD97":2541281.3300000001,"ADDRESS":"文化二十街４２號","OBJECTID":182184},"geometry":{"x":175519.79000000097,"y":2541281.3300000001}},{"attributes":{"ID":182186,"DIS_CODE":0,"TOWNNAME":"歸仁區","LI":"南興里","LIN":"24鄰","STREET":"文化二十街","SECT":" ","MAREA":" ","LANE":" ","ALLEY":" ","HOUSE_NO":"４０號","E_COORD97":175512.69,"N_COORD97":2541281.3300000001,"ADDRESS":"文化二十街４０號","OBJECTID":182185},"geometry":{"x":175512.69000000134,"y":2541281.3300000001}},{"attributes":{"ID":182187,"DIS_CODE":0,"TOWNNAME":"東山區","LI":"青山里","LIN":"10鄰","STREET":" ","SECT":" ","MAREA":"青山","LANE":" ","ALLEY":" ","HOUSE_NO":"８４號","E_COORD97":199125.67999999999,"N_COORD97":2574906.77,"ADDRESS":"青山８４號","OBJECTID":182186},"geometry":{"x":199125.68000000063,"y":2574906.7699999996}},{"attributes":{"ID":182188,"DIS_CODE":0,"TOWNNAME":"東山區","LI":"青山里","LIN":"10鄰","STREET":" ","SECT":" ","MAREA":"青山","LANE":" ","ALLEY":" ","HOUSE_NO":"８６號之１","E_COORD97":198999.53,"N_COORD97":2574731.5600000001,"ADDRESS":"青山８６號之１","OBJECTID":182187},"geometry":{"x":198999.53000000026,"y":2574731.5600000024}},{"attributes":{"ID":182189,"DIS_CODE":0,"TOWNNAME":"安南區","LI":"頂安里","LIN":"14鄰","STREET":"長溪路","SECT":"一段","MAREA":" ","LANE":"４０７巷","ALLEY":"３２弄","HOUSE_NO":"９號","E_COORD97":168481.19,"N_COORD97":2548801.0699999998,"ADDRESS":"長溪路一段４０７巷３２弄９號","OBJECTID":182188},"geometry":{"x":168481.19000000041,"y":2548801.070000004}},{"attributes":{"ID":182190,"DIS_CODE":0,"TOWNNAME":"安南區","LI":"頂安里","LIN":"14鄰","STREET":"長溪路","SECT":"一段","MAREA":" ","LANE":"４０７巷","ALLEY":"３２弄","HOUSE_NO":"１０號","E_COORD97":168498.04000000001,"N_COORD97":2548824.8599999999,"ADDRESS":"長溪路一段４０７巷３２弄１０號","OBJECTID":182189},"geometry":{"x":168498.04000000097,"y":2548824.8599999994}},{"attributes":{"ID":182191,"DIS_CODE":0,"TOWNNAME":"東山區","LI":"青山里","LIN":"10鄰","STREET":" ","SECT":" ","MAREA":"青山","LANE":" ","ALLEY":" ","HOUSE_NO":"８６號之２","E_COORD97":199168.89000000001,"N_COORD97":2574791.9300000002,"ADDRESS":"青山８６號之２","OBJECTID":182190},"geometry":{"x":199168.88999999966,"y":2574791.9299999978}},{"attributes":{"ID":182192,"DIS_CODE":0,"TOWNNAME":"安南區","LI":"頂安里","LIN":"14鄰","STREET":"長溪路","SECT":"一段","MAREA":" ","LANE":"４０７巷","ALLEY":"３２弄","HOUSE_NO":"１１號","E_COORD97":168477.01999999999,"N_COORD97":2548802.3100000001,"ADDRESS":"長溪路一段４０７巷３２弄１１號","OBJECTID":182191},"geometry":{"x":168477.01999999862,"y":2548802.3100000005}},{"attributes":{"ID":182193,"DIS_CODE":0,"TOWNNAME":"東山區","LI":"青山里","LIN":"10鄰","STREET":" ","SECT":" ","MAREA":"青山","LANE":" ","ALLEY":" ","HOUSE_NO":"８６號","E_COORD97":199339.85000000001,"N_COORD97":2574677.8599999999,"ADDRESS":"青山８６號","OBJECTID":182192},"geometry":{"x":199339.85000000056,"y":2574677.8600000013}},{"attributes":{"ID":182194,"DIS_CODE":0,"TOWNNAME":"安南區","LI":"頂安里","LIN":"14鄰","STREET":"長溪路","SECT":"一段","MAREA":" ","LANE":"４０７巷","ALLEY":"３２弄","HOUSE_NO":"１６號","E_COORD97":168489.62,"N_COORD97":2548827.3500000001,"ADDRESS":"長溪路一段４０７巷３２弄１６號","OBJECTID":182193},"geometry":{"x":168489.62000000104,"y":2548827.3499999996}},{"attributes":{"ID":182195,"DIS_CODE":0,"TOWNNAME":"東山區","LI":"青山里","LIN":"10鄰","STREET":" ","SECT":" ","MAREA":"青山","LANE":" ","ALLEY":" ","HOUSE_NO":"９０號之１","E_COORD97":199528.39999999999,"N_COORD97":2574716.5099999998,"ADDRESS":"青山９０號之１","OBJECTID":182194},"geometry":{"x":199528.4000000013,"y":2574716.5099999998}},{"attributes":{"ID":182196,"DIS_CODE":0,"TOWNNAME":"東山區","LI":"青山里","LIN":"10鄰","STREET":" ","SECT":" ","MAREA":"青山","LANE":" ","ALLEY":" ","HOUSE_NO":"９０號","E_COORD97":199105,"N_COORD97":2574953.6400000001,"ADDRESS":"青山９０號","OBJECTID":182195},"geometry":{"x":199105.00000000093,"y":2574953.6400000006}},{"attributes":{"ID":182197,"DIS_CODE":0,"TOWNNAME":"東山區","LI":"青山里","LIN":"10鄰","STREET":" ","SECT":" ","MAREA":"青山","LANE":" ","ALLEY":" ","HOUSE_NO":"９１號之２","E_COORD97":199419.88,"N_COORD97":2575197.3599999999,"ADDRESS":"青山９１號之２","OBJECTID":182196},"geometry":{"x":199419.88000000082,"y":2575197.3600000013}},{"attributes":{"ID":182198,"DIS_CODE":0,"TOWNNAME":"安南區","LI":"頂安里","LIN":"14鄰","STREET":"長溪路","SECT":"一段","MAREA":" ","LANE":"４０７巷","ALLEY":"３２弄","HOUSE_NO":"１７號","E_COORD97":168465.29999999999,"N_COORD97":2548805.8999999999,"ADDRESS":"長溪路一段４０７巷３２弄１７號","OBJECTID":182197},"geometry":{"x":168465.30000000168,"y":2548805.9000000041}},{"attributes":{"ID":182199,"DIS_CODE":0,"TOWNNAME":"安南區","LI":"頂安里","LIN":"14鄰","STREET":"長溪路","SECT":"一段","MAREA":" ","LANE":"４０７巷","ALLEY":"３２弄","HOUSE_NO":"１８號","E_COORD97":168485.39000000001,"N_COORD97":2548828.6000000001,"ADDRESS":"長溪路一段４０７巷３２弄１８號","OBJECTID":182198},"geometry":{"x":168485.3900000006,"y":2548828.6000000015}},{"attributes":{"ID":182200,"DIS_CODE":0,"TOWNNAME":"東山區","LI":"青山里","LIN":"10鄰","STREET":" ","SECT":" ","MAREA":"青山","LANE":" ","ALLEY":" ","HOUSE_NO":"９１號之３","E_COORD97":199570.64999999999,"N_COORD97":2575154.0899999999,"ADDRESS":"青山９１號之３","OBJECTID":182199},"geometry":{"x":199570.6500000013,"y":2575154.0900000036}},{"attributes":{"ID":182201,"DIS_CODE":0,"TOWNNAME":"東山區","LI":"青山里","LIN":"10鄰","STREET":" ","SECT":" ","MAREA":"青山","LANE":" ","ALLEY":" ","HOUSE_NO":"９１號","E_COORD97":199468.56,"N_COORD97":2575293.52,"ADDRESS":"青山９１號","OBJECTID":182200},"geometry":{"x":199468.56000000052,"y":2575293.5200000014}}]}