{"displayFieldName":"TOWNNAME","fieldAliases":{"ID":"ID","DIS_CODE":"DIS_CODE","TOWNNAME":"TOWNNAME","LI":"LI","LIN":"LIN","STREET":"STREET","SECT":"SECT","MAREA":"MAREA","LANE":"LANE","ALLEY":"ALLEY","HOUSE_NO":"HOUSE_NO","E_COORD97":"E_COORD97","N_COORD97":"N_COORD97","ADDRESS":"ADDRESS","OBJECTID":"OBJECTID"},"geometryType":"esriGeometryPoint","spatialReference":{"wkid":102443,"latestWkid":3826},"fields":[{"name":"ID","type":"esriFieldTypeDouble","alias":"ID"},{"name":"DIS_CODE","type":"esriFieldTypeInteger","alias":"DIS_CODE"},{"name":"TOWNNAME","type":"esriFieldTypeString","alias":"TOWNNAME","length":8},{"name":"LI","type":"esriFieldTypeString","alias":"LI","length":8},{"name":"LIN","type":"esriFieldTypeString","alias":"LIN","length":12},{"name":"STREET","type":"esriFieldTypeString","alias":"STREET","length":20},{"name":"SECT","type":"esriFieldTypeString","alias":"SECT","length":8},{"name":"MAREA","type":"esriFieldTypeString","alias":"MAREA","length":12},{"name":"LANE","type":"esriFieldTypeString","alias":"LANE","length":10},{"name":"ALLEY","type":"esriFieldTypeString","alias":"ALLEY","length":10},{"name":"HOUSE_NO","type":"esriFieldTypeString","alias":"HOUSE_NO","length":20},{"name":"E_COORD97","type":"esriFieldTypeDouble","alias":"E_COORD97"},{"name":"N_COORD97","type":"esriFieldTypeDouble","alias":"N_COORD97"},{"name":"ADDRESS","type":"esriFieldTypeString","alias":"ADDRESS","length":50},{"name":"OBJECTID","type":"esriFieldTypeOID","alias":"OBJECTID"}],"features":[{"attributes":{"ID":42201,"DIS_CODE":0,"TOWNNAME":"官田區","LI":"官田里","LIN":"7鄰","STREET":" ","SECT":" ","MAREA":"官田","LANE":" ","ALLEY":" ","HOUSE_NO":"５９號之７","E_COORD97":182737.92000000001,"N_COORD97":2564937.27,"ADDRESS":"官田５９號之７","OBJECTID":42201},"geometry":{"x":182737.91999999993,"y":2564937.2700000033}},{"attributes":{"ID":42202,"DIS_CODE":0,"TOWNNAME":"新化區","LI":"崙頂里","LIN":"7鄰","STREET":" ","SECT":" ","MAREA":"崙子頂","LANE":" ","ALLEY":" ","HOUSE_NO":"３０３號之１０","E_COORD97":176843.14000000001,"N_COORD97":2546982.7999999998,"ADDRESS":"崙子頂３０３號之１０","OBJECTID":42202},"geometry":{"x":176843.13999999966,"y":2546982.8000000045}},{"attributes":{"ID":42203,"DIS_CODE":0,"TOWNNAME":"新化區","LI":"崙頂里","LIN":"7鄰","STREET":" ","SECT":" ","MAREA":"崙子頂","LANE":" ","ALLEY":" ","HOUSE_NO":"３０３號之１１","E_COORD97":176862.32999999999,"N_COORD97":2546992.5600000001,"ADDRESS":"崙子頂３０３號之１１","OBJECTID":42203},"geometry":{"x":176862.33000000101,"y":2546992.5600000024}},{"attributes":{"ID":42204,"DIS_CODE":0,"TOWNNAME":"新化區","LI":"崙頂里","LIN":"7鄰","STREET":" ","SECT":" ","MAREA":"崙子頂","LANE":" ","ALLEY":" ","HOUSE_NO":"３０３號之１２","E_COORD97":176843.04999999999,"N_COORD97":2546978.7400000002,"ADDRESS":"崙子頂３０３號之１２","OBJECTID":42204},"geometry":{"x":176843.05000000168,"y":2546978.7400000002}},{"attributes":{"ID":42205,"DIS_CODE":0,"TOWNNAME":"新化區","LI":"崙頂里","LIN":"7鄰","STREET":" ","SECT":" ","MAREA":"崙子頂","LANE":" ","ALLEY":" ","HOUSE_NO":"３０３號之１５","E_COORD97":176855.98000000001,"N_COORD97":2546982.0699999998,"ADDRESS":"崙子頂３０３號之１５","OBJECTID":42205},"geometry":{"x":176855.98000000231,"y":2546982.0700000022}},{"attributes":{"ID":42206,"DIS_CODE":0,"TOWNNAME":"北區","LI":"開元里","LIN":"7鄰","STREET":"北園街","SECT":" ","MAREA":" ","LANE":"１２４巷","ALLEY":"１０弄","HOUSE_NO":"８０號","E_COORD97":170488.20999999999,"N_COORD97":2546094.0600000001,"ADDRESS":"北園街１２４巷１０弄８０號","OBJECTID":42206},"geometry":{"x":170488.20999999996,"y":2546094.0600000024}},{"attributes":{"ID":42207,"DIS_CODE":0,"TOWNNAME":"北區","LI":"開元里","LIN":"7鄰","STREET":"北園街","SECT":" ","MAREA":" ","LANE":"１２４巷","ALLEY":"１０弄","HOUSE_NO":"８２號","E_COORD97":170486.91,"N_COORD97":2546099.6299999999,"ADDRESS":"北園街１２４巷１０弄８２號","OBJECTID":42207},"geometry":{"x":170486.91000000015,"y":2546099.629999999}},{"attributes":{"ID":42208,"DIS_CODE":0,"TOWNNAME":"北區","LI":"開元里","LIN":"7鄰","STREET":"北園街","SECT":" ","MAREA":" ","LANE":"１２４巷","ALLEY":"１０弄","HOUSE_NO":"８４號","E_COORD97":170484,"N_COORD97":2546105.29,"ADDRESS":"北園街１２４巷１０弄８４號","OBJECTID":42208},"geometry":{"x":170484.00000000093,"y":2546105.2899999991}},{"attributes":{"ID":42209,"DIS_CODE":0,"TOWNNAME":"北區","LI":"開元里","LIN":"7鄰","STREET":"北園街","SECT":" ","MAREA":" ","LANE":"１２４巷","ALLEY":"１０弄","HOUSE_NO":"８６號","E_COORD97":170483.26999999999,"N_COORD97":2546109.0899999999,"ADDRESS":"北園街１２４巷１０弄８６號","OBJECTID":42209},"geometry":{"x":170483.27000000048,"y":2546109.0900000017}},{"attributes":{"ID":42210,"DIS_CODE":0,"TOWNNAME":"新化區","LI":"崙頂里","LIN":"7鄰","STREET":" ","SECT":" ","MAREA":"崙子頂","LANE":" ","ALLEY":" ","HOUSE_NO":"３０３號之１６","E_COORD97":176842.78,"N_COORD97":2546973.3300000001,"ADDRESS":"崙子頂３０３號之１６","OBJECTID":42210},"geometry":{"x":176842.78000000026,"y":2546973.3300000019}},{"attributes":{"ID":42211,"DIS_CODE":0,"TOWNNAME":"新化區","LI":"崙頂里","LIN":"7鄰","STREET":" ","SECT":" ","MAREA":"崙子頂","LANE":" ","ALLEY":" ","HOUSE_NO":"３０３號之１７","E_COORD97":176855.75,"N_COORD97":2546976.71,"ADDRESS":"崙子頂３０３號之１７","OBJECTID":42211},"geometry":{"x":176855.75000000093,"y":2546976.7100000046}},{"attributes":{"ID":42212,"DIS_CODE":0,"TOWNNAME":"新化區","LI":"崙頂里","LIN":"7鄰","STREET":" ","SECT":" ","MAREA":"崙子頂","LANE":" ","ALLEY":" ","HOUSE_NO":"３０３號之１８","E_COORD97":176842.98999999999,"N_COORD97":2546968.2599999998,"ADDRESS":"崙子頂３０３號之１８","OBJECTID":42212},"geometry":{"x":176842.99000000022,"y":2546968.2599999979}},{"attributes":{"ID":42213,"DIS_CODE":0,"TOWNNAME":"新化區","LI":"崙頂里","LIN":"7鄰","STREET":" ","SECT":" ","MAREA":"崙子頂","LANE":" ","ALLEY":" ","HOUSE_NO":"３０３號之１９","E_COORD97":176855.79999999999,"N_COORD97":2546971.5600000001,"ADDRESS":"崙子頂３０３號之１９","OBJECTID":42213},"geometry":{"x":176855.79999999981,"y":2546971.5600000024}},{"attributes":{"ID":42214,"DIS_CODE":0,"TOWNNAME":"北區","LI":"新勝里","LIN":"7鄰","STREET":"北園街","SECT":" ","MAREA":" ","LANE":"５３巷","ALLEY":"５弄","HOUSE_NO":"１０號","E_COORD97":170222.47,"N_COORD97":2545622.6200000001,"ADDRESS":"北園街５３巷５弄１０號","OBJECTID":42214},"geometry":{"x":170222.47000000067,"y":2545622.6200000029}},{"attributes":{"ID":42215,"DIS_CODE":0,"TOWNNAME":"北區","LI":"新勝里","LIN":"7鄰","STREET":"北園街","SECT":" ","MAREA":" ","LANE":"５３巷","ALLEY":"５弄","HOUSE_NO":"２號","E_COORD97":170241.17000000001,"N_COORD97":2545586.9199999999,"ADDRESS":"北園街５３巷５弄２號","OBJECTID":42215},"geometry":{"x":170241.17000000179,"y":2545586.9199999999}},{"attributes":{"ID":42216,"DIS_CODE":0,"TOWNNAME":"北區","LI":"新勝里","LIN":"7鄰","STREET":"北園街","SECT":" ","MAREA":" ","LANE":"５３巷","ALLEY":"５弄","HOUSE_NO":"３４號","E_COORD97":170232.20999999999,"N_COORD97":2545588.0600000001,"ADDRESS":"北園街５３巷５弄３４號","OBJECTID":42216},"geometry":{"x":170232.20999999996,"y":2545588.0600000024}},{"attributes":{"ID":42217,"DIS_CODE":0,"TOWNNAME":"北區","LI":"新勝里","LIN":"7鄰","STREET":"北園街","SECT":" ","MAREA":" ","LANE":"５３巷","ALLEY":"５弄","HOUSE_NO":"３６號","E_COORD97":170228.69,"N_COORD97":2545585.5,"ADDRESS":"北園街５３巷５弄３６號","OBJECTID":42217},"geometry":{"x":170228.69000000134,"y":2545585.5000000019}},{"attributes":{"ID":42218,"DIS_CODE":0,"TOWNNAME":"北區","LI":"新勝里","LIN":"7鄰","STREET":"北園街","SECT":" ","MAREA":" ","LANE":"５３巷","ALLEY":"５弄","HOUSE_NO":"３８號","E_COORD97":170218.98000000001,"N_COORD97":2545585.5299999998,"ADDRESS":"北園街５３巷５弄３８號","OBJECTID":42218},"geometry":{"x":170218.98000000045,"y":2545585.5299999993}},{"attributes":{"ID":42219,"DIS_CODE":0,"TOWNNAME":"北區","LI":"新勝里","LIN":"7鄰","STREET":"北園街","SECT":" ","MAREA":" ","LANE":"５３巷","ALLEY":"５弄","HOUSE_NO":"６號","E_COORD97":170234.06,"N_COORD97":2545610.6299999999,"ADDRESS":"北園街５３巷５弄６號","OBJECTID":42219},"geometry":{"x":170234.05999999959,"y":2545610.6300000008}},{"attributes":{"ID":42220,"DIS_CODE":0,"TOWNNAME":"麻豆區","LI":"中興里","LIN":"17鄰","STREET":"三民路","SECT":" ","MAREA":" ","LANE":" ","ALLEY":" ","HOUSE_NO":"６２號之３","E_COORD97":172707.53,"N_COORD97":2564426.25,"ADDRESS":"三民路６２號之３","OBJECTID":42220},"geometry":{"x":172707.53000000119,"y":2564426.2500000019}},{"attributes":{"ID":42221,"DIS_CODE":0,"TOWNNAME":"麻豆區","LI":"中興里","LIN":"17鄰","STREET":"三民路","SECT":" ","MAREA":" ","LANE":" ","ALLEY":" ","HOUSE_NO":"６２號之４","E_COORD97":172703.44,"N_COORD97":2564425.7000000002,"ADDRESS":"三民路６２號之４","OBJECTID":42221},"geometry":{"x":172703.44000000134,"y":2564425.7000000011}},{"attributes":{"ID":42222,"DIS_CODE":0,"TOWNNAME":"麻豆區","LI":"中興里","LIN":"17鄰","STREET":"三民路","SECT":" ","MAREA":" ","LANE":" ","ALLEY":" ","HOUSE_NO":"６２號之５","E_COORD97":172699.89000000001,"N_COORD97":2564425.0099999998,"ADDRESS":"三民路６２號之５","OBJECTID":42222},"geometry":{"x":172699.8900000006,"y":2564425.0100000016}},{"attributes":{"ID":42223,"DIS_CODE":0,"TOWNNAME":"善化區","LI":"溪美里","LIN":"17鄰","STREET":" ","SECT":" ","MAREA":"溪尾","LANE":" ","ALLEY":" ","HOUSE_NO":"１７４號","E_COORD97":176979.98999999999,"N_COORD97":2561270.02,"ADDRESS":"溪尾１７４號","OBJECTID":42223},"geometry":{"x":176979.99000000115,"y":2561270.0199999996}},{"attributes":{"ID":42224,"DIS_CODE":0,"TOWNNAME":"北區","LI":"新勝里","LIN":"7鄰","STREET":"北園街","SECT":" ","MAREA":" ","LANE":"５３巷","ALLEY":"５弄","HOUSE_NO":"７號","E_COORD97":170218.31,"N_COORD97":2545568.9700000002,"ADDRESS":"北園街５３巷５弄７號","OBJECTID":42224},"geometry":{"x":170218.31000000052,"y":2545568.9700000025}},{"attributes":{"ID":42225,"DIS_CODE":0,"TOWNNAME":"北區","LI":"新勝里","LIN":"7鄰","STREET":"北園街","SECT":" ","MAREA":" ","LANE":"５３巷","ALLEY":"５弄","HOUSE_NO":"８號","E_COORD97":170223.89999999999,"N_COORD97":2545612.1200000001,"ADDRESS":"北園街５３巷５弄８號","OBJECTID":42225},"geometry":{"x":170223.9000000013,"y":2545612.1200000029}},{"attributes":{"ID":42226,"DIS_CODE":0,"TOWNNAME":"新化區","LI":"崙頂里","LIN":"7鄰","STREET":" ","SECT":" ","MAREA":"崙子頂","LANE":" ","ALLEY":" ","HOUSE_NO":"３０３號之２０","E_COORD97":176842.95999999999,"N_COORD97":2546963.1099999999,"ADDRESS":"崙子頂３０３號之２０","OBJECTID":42226},"geometry":{"x":176842.95999999996,"y":2546963.1100000013}},{"attributes":{"ID":42227,"DIS_CODE":0,"TOWNNAME":"新化區","LI":"崙頂里","LIN":"7鄰","STREET":" ","SECT":" ","MAREA":"崙子頂","LANE":" ","ALLEY":" ","HOUSE_NO":"３０３號之２１","E_COORD97":176855.78,"N_COORD97":2546966.3900000001,"ADDRESS":"崙子頂３０３號之２１","OBJECTID":42227},"geometry":{"x":176855.78000000119,"y":2546966.3900000025}},{"attributes":{"ID":42228,"DIS_CODE":0,"TOWNNAME":"永康區","LI":"中興里","LIN":"27鄰","STREET":"中興街","SECT":" ","MAREA":" ","LANE":"６９巷","ALLEY":"８弄","HOUSE_NO":"８號","E_COORD97":172028.28,"N_COORD97":2545313,"ADDRESS":"中興街６９巷８弄８號","OBJECTID":42228},"geometry":{"x":172028.28000000119,"y":2545313.0000000019}},{"attributes":{"ID":42229,"DIS_CODE":0,"TOWNNAME":"北區","LI":"新勝里","LIN":"7鄰","STREET":"北園街","SECT":" ","MAREA":" ","LANE":"５３巷","ALLEY":"５弄","HOUSE_NO":"８號之１","E_COORD97":170223.57999999999,"N_COORD97":2545617.1400000001,"ADDRESS":"北園街５３巷５弄８號之１","OBJECTID":42229},"geometry":{"x":170223.58000000101,"y":2545617.1399999987}},{"attributes":{"ID":42230,"DIS_CODE":0,"TOWNNAME":"北區","LI":"新勝里","LIN":"7鄰","STREET":"北園街","SECT":" ","MAREA":" ","LANE":"５３巷","ALLEY":"５弄","HOUSE_NO":"９號","E_COORD97":170218.54999999999,"N_COORD97":2545565.2599999998,"ADDRESS":"北園街５３巷５弄９號","OBJECTID":42230},"geometry":{"x":170218.55000000075,"y":2545565.2600000016}},{"attributes":{"ID":42231,"DIS_CODE":0,"TOWNNAME":"南區","LI":"喜東里","LIN":"7鄰","STREET":"喜樹路","SECT":" ","MAREA":" ","LANE":"１５１巷","ALLEY":"９弄","HOUSE_NO":"７號","E_COORD97":165825.16,"N_COORD97":2538026.0800000001,"ADDRESS":"喜樹路１５１巷９弄７號","OBJECTID":42231},"geometry":{"x":165825.16000000015,"y":2538026.0800000038}},{"attributes":{"ID":42232,"DIS_CODE":0,"TOWNNAME":"新化區","LI":"崙頂里","LIN":"7鄰","STREET":" ","SECT":" ","MAREA":"崙子頂","LANE":" ","ALLEY":" ","HOUSE_NO":"３０３號之２２","E_COORD97":176842.45000000001,"N_COORD97":2546958,"ADDRESS":"崙子頂３０３號之２２","OBJECTID":42232},"geometry":{"x":176842.45000000205,"y":2546958.0000000019}},{"attributes":{"ID":42233,"DIS_CODE":0,"TOWNNAME":"新化區","LI":"崙頂里","LIN":"7鄰","STREET":" ","SECT":" ","MAREA":"崙子頂","LANE":" ","ALLEY":" ","HOUSE_NO":"３０３號之２３","E_COORD97":176855.82000000001,"N_COORD97":2546961.1299999999,"ADDRESS":"崙子頂３０３號之２３","OBJECTID":42233},"geometry":{"x":176855.82000000123,"y":2546961.129999999}},{"attributes":{"ID":42234,"DIS_CODE":0,"TOWNNAME":"新化區","LI":"崙頂里","LIN":"7鄰","STREET":" ","SECT":" ","MAREA":"崙子頂","LANE":" ","ALLEY":" ","HOUSE_NO":"３０３號之２５","E_COORD97":176855.89000000001,"N_COORD97":2546955.6899999999,"ADDRESS":"崙子頂３０３號之２５","OBJECTID":42234},"geometry":{"x":176855.89000000153,"y":2546955.6900000013}},{"attributes":{"ID":42235,"DIS_CODE":0,"TOWNNAME":"新化區","LI":"崙頂里","LIN":"7鄰","STREET":" ","SECT":" ","MAREA":"崙子頂","LANE":" ","ALLEY":" ","HOUSE_NO":"３０３號之２６","E_COORD97":176842.63,"N_COORD97":2546952.96,"ADDRESS":"崙子頂３０３號之２６","OBJECTID":42235},"geometry":{"x":176842.63000000175,"y":2546952.9600000028}},{"attributes":{"ID":42236,"DIS_CODE":0,"TOWNNAME":"善化區","LI":"坐駕里","LIN":"17鄰","STREET":"興華路","SECT":" ","MAREA":" ","LANE":"３０７巷","ALLEY":" ","HOUSE_NO":"４號","E_COORD97":177788.54999999999,"N_COORD97":2558462.75,"ADDRESS":"興華路３０７巷４號","OBJECTID":42236},"geometry":{"x":177788.54999999981,"y":2558462.7500000019}},{"attributes":{"ID":42237,"DIS_CODE":0,"TOWNNAME":"善化區","LI":"坐駕里","LIN":"17鄰","STREET":"興華路","SECT":" ","MAREA":" ","LANE":" ","ALLEY":" ","HOUSE_NO":"２３７之１號","E_COORD97":177981.44,"N_COORD97":2558505.02,"ADDRESS":"興華路２３７之１號","OBJECTID":42237},"geometry":{"x":177981.44000000041,"y":2558505.0200000014}},{"attributes":{"ID":42238,"DIS_CODE":0,"TOWNNAME":"善化區","LI":"東關里","LIN":"17鄰","STREET":"中興路","SECT":" ","MAREA":" ","LANE":" ","ALLEY":" ","HOUSE_NO":"６７號","E_COORD97":177565.53,"N_COORD97":2559006,"ADDRESS":"中興路６７號","OBJECTID":42238},"geometry":{"x":177565.53000000026,"y":2559006}},{"attributes":{"ID":42239,"DIS_CODE":0,"TOWNNAME":"永康區","LI":"網寮里","LIN":"17鄰","STREET":"永興路","SECT":" ","MAREA":" ","LANE":" ","ALLEY":" ","HOUSE_NO":"４３５號","E_COORD97":173223.79000000001,"N_COORD97":2546889.1699999999,"ADDRESS":"永興路４３５號","OBJECTID":42239},"geometry":{"x":173223.79000000004,"y":2546889.1700000018}},{"attributes":{"ID":42240,"DIS_CODE":0,"TOWNNAME":"永康區","LI":"網寮里","LIN":"17鄰","STREET":"永興路","SECT":" ","MAREA":" ","LANE":" ","ALLEY":" ","HOUSE_NO":"３４７號","E_COORD97":173420.76000000001,"N_COORD97":2546804.4900000002,"ADDRESS":"永興路３４７號","OBJECTID":42240},"geometry":{"x":173420.76000000071,"y":2546804.4899999984}},{"attributes":{"ID":42241,"DIS_CODE":0,"TOWNNAME":"永康區","LI":"網寮里","LIN":"17鄰","STREET":"永興路","SECT":" ","MAREA":" ","LANE":" ","ALLEY":" ","HOUSE_NO":"３４１號","E_COORD97":173436.51000000001,"N_COORD97":2546795.7400000002,"ADDRESS":"永興路３４１號","OBJECTID":42241},"geometry":{"x":173436.51000000071,"y":2546795.7400000002}},{"attributes":{"ID":42242,"DIS_CODE":0,"TOWNNAME":"永康區","LI":"網寮里","LIN":"17鄰","STREET":"永興路","SECT":" ","MAREA":" ","LANE":" ","ALLEY":" ","HOUSE_NO":"４３３號","E_COORD97":173234.89000000001,"N_COORD97":2546883.6299999999,"ADDRESS":"永興路４３３號","OBJECTID":42242},"geometry":{"x":173234.89000000153,"y":2546883.6300000027}},{"attributes":{"ID":42243,"DIS_CODE":0,"TOWNNAME":"永康區","LI":"復國里","LIN":"17鄰","STREET":"國華街","SECT":" ","MAREA":" ","LANE":" ","ALLEY":" ","HOUSE_NO":"８６號","E_COORD97":172866.64999999999,"N_COORD97":2545819.2999999998,"ADDRESS":"國華街８６號","OBJECTID":42243},"geometry":{"x":172866.6500000013,"y":2545819.3000000007}},{"attributes":{"ID":42244,"DIS_CODE":0,"TOWNNAME":"永康區","LI":"龍潭里","LIN":"17鄰","STREET":"龍潭街","SECT":" ","MAREA":" ","LANE":" ","ALLEY":" ","HOUSE_NO":"２６２號","E_COORD97":174964.56,"N_COORD97":2548386.6400000001,"ADDRESS":"龍潭街２６２號","OBJECTID":42244},"geometry":{"x":174964.56000000052,"y":2548386.6400000006}},{"attributes":{"ID":42245,"DIS_CODE":0,"TOWNNAME":"善化區","LI":"東關里","LIN":"17鄰","STREET":"中興路","SECT":" ","MAREA":" ","LANE":" ","ALLEY":" ","HOUSE_NO":"５５號","E_COORD97":177596.03,"N_COORD97":2559005.25,"ADDRESS":"中興路５５號","OBJECTID":42245},"geometry":{"x":177596.03000000026,"y":2559005.2500000019}},{"attributes":{"ID":42246,"DIS_CODE":0,"TOWNNAME":"新化區","LI":"太平里","LIN":"14鄰","STREET":"民權街","SECT":" ","MAREA":" ","LANE":" ","ALLEY":" ","HOUSE_NO":"１２６號","E_COORD97":178727.41,"N_COORD97":2548816.25,"ADDRESS":"民權街１２６號","OBJECTID":42246},"geometry":{"x":178727.41000000015,"y":2548816.25}},{"attributes":{"ID":42247,"DIS_CODE":0,"TOWNNAME":"鹽水區","LI":"岸內里","LIN":"9鄰","STREET":"和平路","SECT":" ","MAREA":" ","LANE":"６３２巷","ALLEY":"６弄","HOUSE_NO":"１號","E_COORD97":174707.54999999999,"N_COORD97":2580610.5299999998,"ADDRESS":"和平路６３２巷６弄１號","OBJECTID":42247},"geometry":{"x":174707.55000000075,"y":2580610.5300000012}},{"attributes":{"ID":42248,"DIS_CODE":0,"TOWNNAME":"善化區","LI":"胡家里","LIN":"17鄰","STREET":" ","SECT":" ","MAREA":"胡厝寮","LANE":" ","ALLEY":" ","HOUSE_NO":"１６４號之１","E_COORD97":175181.91,"N_COORD97":2560648.02,"ADDRESS":"胡厝寮１６４號之１","OBJECTID":42248},"geometry":{"x":175181.91000000108,"y":2560648.0200000014}},{"attributes":{"ID":42249,"DIS_CODE":0,"TOWNNAME":"善化區","LI":"溪美里","LIN":"17鄰","STREET":" ","SECT":" ","MAREA":"溪尾","LANE":" ","ALLEY":" ","HOUSE_NO":"１６７號","E_COORD97":176964.17999999999,"N_COORD97":2561283.02,"ADDRESS":"溪尾１６７號","OBJECTID":42249},"geometry":{"x":176964.18000000063,"y":2561283.0199999996}},{"attributes":{"ID":42250,"DIS_CODE":0,"TOWNNAME":"善化區","LI":"溪美里","LIN":"17鄰","STREET":" ","SECT":" ","MAREA":"溪尾","LANE":" ","ALLEY":" ","HOUSE_NO":"１６３號之１","E_COORD97":176994.29999999999,"N_COORD97":2561305.27,"ADDRESS":"溪尾１６３號之１","OBJECTID":42250},"geometry":{"x":176994.30000000075,"y":2561305.2699999996}},{"attributes":{"ID":42251,"DIS_CODE":0,"TOWNNAME":"善化區","LI":"胡家里","LIN":"17鄰","STREET":" ","SECT":" ","MAREA":"胡厝寮","LANE":" ","ALLEY":" ","HOUSE_NO":"１６６號","E_COORD97":175174.62,"N_COORD97":2560626.25,"ADDRESS":"胡厝寮１６６號","OBJECTID":42251},"geometry":{"x":175174.61999999918,"y":2560626.2500000019}},{"attributes":{"ID":42252,"DIS_CODE":0,"TOWNNAME":"善化區","LI":"胡厝里","LIN":"17鄰","STREET":" ","SECT":" ","MAREA":"西衛","LANE":" ","ALLEY":" ","HOUSE_NO":"１號之８","E_COORD97":174475.39999999999,"N_COORD97":2559461.52,"ADDRESS":"西衛１號之８","OBJECTID":42252},"geometry":{"x":174475.4000000013,"y":2559461.5200000014}},{"attributes":{"ID":42253,"DIS_CODE":0,"TOWNNAME":"善化區","LI":"胡家里","LIN":"17鄰","STREET":" ","SECT":" ","MAREA":"胡厝寮","LANE":" ","ALLEY":" ","HOUSE_NO":"１６１號","E_COORD97":175183.45999999999,"N_COORD97":2560718,"ADDRESS":"胡厝寮１６１號","OBJECTID":42253},"geometry":{"x":175183.45999999996,"y":2560718}},{"attributes":{"ID":42254,"DIS_CODE":0,"TOWNNAME":"善化區","LI":"溪美里","LIN":"17鄰","STREET":" ","SECT":" ","MAREA":"溪尾","LANE":" ","ALLEY":" ","HOUSE_NO":"１６６號","E_COORD97":176950.35000000001,"N_COORD97":2561280.52,"ADDRESS":"溪尾１６６號","OBJECTID":42254},"geometry":{"x":176950.34999999963,"y":2561280.5199999977}},{"attributes":{"ID":42255,"DIS_CODE":0,"TOWNNAME":"善化區","LI":"東關里","LIN":"17鄰","STREET":"中興路","SECT":" ","MAREA":" ","LANE":" ","ALLEY":" ","HOUSE_NO":"６５號","E_COORD97":177570.69,"N_COORD97":2559005.75,"ADDRESS":"中興路６５號","OBJECTID":42255},"geometry":{"x":177570.69000000134,"y":2559005.7500000019}},{"attributes":{"ID":42256,"DIS_CODE":0,"TOWNNAME":"善化區","LI":"東關里","LIN":"17鄰","STREET":"大信路","SECT":" ","MAREA":" ","LANE":" ","ALLEY":" ","HOUSE_NO":"２９號","E_COORD97":177518.70999999999,"N_COORD97":2558965.75,"ADDRESS":"大信路２９號","OBJECTID":42256},"geometry":{"x":177518.71000000089,"y":2558965.75}},{"attributes":{"ID":42257,"DIS_CODE":0,"TOWNNAME":"善化區","LI":"東關里","LIN":"17鄰","STREET":"中興路","SECT":" ","MAREA":" ","LANE":" ","ALLEY":" ","HOUSE_NO":"５３號","E_COORD97":177600.51000000001,"N_COORD97":2559003.5,"ADDRESS":"中興路５３號","OBJECTID":42257},"geometry":{"x":177600.50999999978,"y":2559003.5000000019}},{"attributes":{"ID":42258,"DIS_CODE":0,"TOWNNAME":"善化區","LI":"東關里","LIN":"17鄰","STREET":"中興路","SECT":" ","MAREA":" ","LANE":" ","ALLEY":" ","HOUSE_NO":"８９號","E_COORD97":177519.37,"N_COORD97":2559009,"ADDRESS":"中興路８９號","OBJECTID":42258},"geometry":{"x":177519.37000000104,"y":2559009}},{"attributes":{"ID":42259,"DIS_CODE":0,"TOWNNAME":"善化區","LI":"坐駕里","LIN":"17鄰","STREET":"建國路","SECT":" ","MAREA":" ","LANE":" ","ALLEY":" ","HOUSE_NO":"２０號之２","E_COORD97":178022.64999999999,"N_COORD97":2558408.5299999998,"ADDRESS":"建國路２０號之２","OBJECTID":42259},"geometry":{"x":178022.64999999944,"y":2558408.5299999975}},{"attributes":{"ID":42260,"DIS_CODE":0,"TOWNNAME":"善化區","LI":"東關里","LIN":"17鄰","STREET":"中興路","SECT":" ","MAREA":" ","LANE":" ","ALLEY":" ","HOUSE_NO":"５７號","E_COORD97":177591.32000000001,"N_COORD97":2559004,"ADDRESS":"中興路５７號","OBJECTID":42260},"geometry":{"x":177591.32000000123,"y":2559004.0000000019}},{"attributes":{"ID":42261,"DIS_CODE":0,"TOWNNAME":"善化區","LI":"東關里","LIN":"17鄰","STREET":"中興路","SECT":" ","MAREA":" ","LANE":" ","ALLEY":" ","HOUSE_NO":"６１號","E_COORD97":177582.56,"N_COORD97":2559005,"ADDRESS":"中興路６１號","OBJECTID":42261},"geometry":{"x":177582.56000000052,"y":2559005}},{"attributes":{"ID":42262,"DIS_CODE":0,"TOWNNAME":"善化區","LI":"東關里","LIN":"17鄰","STREET":"新興街","SECT":" ","MAREA":" ","LANE":" ","ALLEY":" ","HOUSE_NO":"１０號","E_COORD97":177606.42000000001,"N_COORD97":2558973,"ADDRESS":"新興街１０號","OBJECTID":42262},"geometry":{"x":177606.41999999993,"y":2558973.0000000019}},{"attributes":{"ID":42263,"DIS_CODE":0,"TOWNNAME":"善化區","LI":"東關里","LIN":"17鄰","STREET":"新興街","SECT":" ","MAREA":" ","LANE":" ","ALLEY":" ","HOUSE_NO":"１２號之１","E_COORD97":177600.14999999999,"N_COORD97":2558969.02,"ADDRESS":"新興街１２號之１","OBJECTID":42263},"geometry":{"x":177600.15000000037,"y":2558969.0200000014}},{"attributes":{"ID":42264,"DIS_CODE":0,"TOWNNAME":"新化區","LI":"護國里","LIN":"4鄰","STREET":"中山路","SECT":" ","MAREA":" ","LANE":" ","ALLEY":" ","HOUSE_NO":"１９８號","E_COORD97":179179.31,"N_COORD97":2548467.25,"ADDRESS":"中山路１９８號","OBJECTID":42264},"geometry":{"x":179179.31000000052,"y":2548467.2500000037}},{"attributes":{"ID":42265,"DIS_CODE":0,"TOWNNAME":"善化區","LI":"胡家里","LIN":"17鄰","STREET":" ","SECT":" ","MAREA":"胡厝寮","LANE":" ","ALLEY":" ","HOUSE_NO":"１５５號之２","E_COORD97":175221.88,"N_COORD97":2560698.52,"ADDRESS":"胡厝寮１５５號之２","OBJECTID":42265},"geometry":{"x":175221.88000000175,"y":2560698.5200000014}},{"attributes":{"ID":42266,"DIS_CODE":0,"TOWNNAME":"善化區","LI":"胡厝里","LIN":"17鄰","STREET":" ","SECT":" ","MAREA":"西衛","LANE":" ","ALLEY":" ","HOUSE_NO":"１之４５號","E_COORD97":174695.98000000001,"N_COORD97":2558980.77,"ADDRESS":"西衛１之４５號","OBJECTID":42266},"geometry":{"x":174695.98000000045,"y":2558980.7700000014}},{"attributes":{"ID":42267,"DIS_CODE":0,"TOWNNAME":"安定區","LI":"新吉里","LIN":"17鄰","STREET":" ","SECT":" ","MAREA":"新吉","LANE":" ","ALLEY":" ","HOUSE_NO":"１８５號","E_COORD97":168991.72,"N_COORD97":2554091.25,"ADDRESS":"新吉１８５號","OBJECTID":42267},"geometry":{"x":168991.72000000067,"y":2554091.25}},{"attributes":{"ID":42268,"DIS_CODE":0,"TOWNNAME":"新化區","LI":"崙頂里","LIN":"7鄰","STREET":" ","SECT":" ","MAREA":"崙子頂","LANE":" ","ALLEY":" ","HOUSE_NO":"３０３號之２７","E_COORD97":176855.31,"N_COORD97":2546950.48,"ADDRESS":"崙子頂３０３號之２７","OBJECTID":42268},"geometry":{"x":176855.31000000052,"y":2546950.4799999986}},{"attributes":{"ID":42269,"DIS_CODE":0,"TOWNNAME":"新化區","LI":"崙頂里","LIN":"7鄰","STREET":" ","SECT":" ","MAREA":"崙子頂","LANE":" ","ALLEY":" ","HOUSE_NO":"３０３號之２８","E_COORD97":176842.10999999999,"N_COORD97":2546948.0899999999,"ADDRESS":"崙子頂３０３號之２８","OBJECTID":42269},"geometry":{"x":176842.11000000127,"y":2546948.0899999999}},{"attributes":{"ID":42270,"DIS_CODE":0,"TOWNNAME":"新化區","LI":"崙頂里","LIN":"7鄰","STREET":" ","SECT":" ","MAREA":"崙子頂","LANE":" ","ALLEY":" ","HOUSE_NO":"３０３號之２９","E_COORD97":176855.10000000001,"N_COORD97":2546945,"ADDRESS":"崙子頂３０３號之２９","OBJECTID":42270},"geometry":{"x":176855.10000000056,"y":2546945.0000000019}},{"attributes":{"ID":42271,"DIS_CODE":0,"TOWNNAME":"鹽水區","LI":"岸內里","LIN":"9鄰","STREET":"和平路","SECT":" ","MAREA":" ","LANE":"６３２巷","ALLEY":"６弄","HOUSE_NO":"２號","E_COORD97":174708.59,"N_COORD97":2580631.54,"ADDRESS":"和平路６３２巷６弄２號","OBJECTID":42271},"geometry":{"x":174708.59000000171,"y":2580631.5399999991}},{"attributes":{"ID":42272,"DIS_CODE":0,"TOWNNAME":"安南區","LI":"四草里","LIN":"8鄰","STREET":"四草大道","SECT":" ","MAREA":" ","LANE":"８１巷","ALLEY":"４０１弄","HOUSE_NO":"７號","E_COORD97":160801.46783099999,"N_COORD97":2545103.8363700002,"ADDRESS":"四草大道８１巷４０１弄７號","OBJECTID":42272},"geometry":{"x":160801.46783100069,"y":2545103.8363700006}},{"attributes":{"ID":42273,"DIS_CODE":0,"TOWNNAME":"善化區","LI":"東關里","LIN":"17鄰","STREET":"大信路","SECT":" ","MAREA":" ","LANE":" ","ALLEY":" ","HOUSE_NO":"２７號","E_COORD97":177517.16,"N_COORD97":2558970.25,"ADDRESS":"大信路２７號","OBJECTID":42273},"geometry":{"x":177517.15999999922,"y":2558970.25}},{"attributes":{"ID":42274,"DIS_CODE":0,"TOWNNAME":"善化區","LI":"東關里","LIN":"17鄰","STREET":"中興路","SECT":" ","MAREA":" ","LANE":" ","ALLEY":" ","HOUSE_NO":"４５號","E_COORD97":177621.81,"N_COORD97":2559002.25,"ADDRESS":"中興路４５號","OBJECTID":42274},"geometry":{"x":177621.80999999959,"y":2559002.2500000019}},{"attributes":{"ID":42275,"DIS_CODE":0,"TOWNNAME":"善化區","LI":"東關里","LIN":"17鄰","STREET":"中興路","SECT":" ","MAREA":" ","LANE":" ","ALLEY":" ","HOUSE_NO":"４７號","E_COORD97":177616.42000000001,"N_COORD97":2559003,"ADDRESS":"中興路４７號","OBJECTID":42275},"geometry":{"x":177616.41999999993,"y":2559003.0000000037}},{"attributes":{"ID":42276,"DIS_CODE":0,"TOWNNAME":"善化區","LI":"東關里","LIN":"17鄰","STREET":"中興路","SECT":" ","MAREA":" ","LANE":" ","ALLEY":" ","HOUSE_NO":"７３號","E_COORD97":177553.45999999999,"N_COORD97":2559006.25,"ADDRESS":"中興路７３號","OBJECTID":42276},"geometry":{"x":177553.45999999996,"y":2559006.2500000019}},{"attributes":{"ID":42277,"DIS_CODE":0,"TOWNNAME":"善化區","LI":"東關里","LIN":"17鄰","STREET":"中興路","SECT":" ","MAREA":" ","LANE":" ","ALLEY":" ","HOUSE_NO":"７７號","E_COORD97":177545.62,"N_COORD97":2559007.25,"ADDRESS":"中興路７７號","OBJECTID":42277},"geometry":{"x":177545.62000000011,"y":2559007.25}},{"attributes":{"ID":42278,"DIS_CODE":0,"TOWNNAME":"善化區","LI":"東關里","LIN":"17鄰","STREET":"中興路","SECT":" ","MAREA":" ","LANE":" ","ALLEY":" ","HOUSE_NO":"６３號","E_COORD97":177575.17000000001,"N_COORD97":2559005.5,"ADDRESS":"中興路６３號","OBJECTID":42278},"geometry":{"x":177575.17000000086,"y":2559005.5}},{"attributes":{"ID":42279,"DIS_CODE":0,"TOWNNAME":"永康區","LI":"勝利里","LIN":"17鄰","STREET":"勝學路","SECT":" ","MAREA":" ","LANE":" ","ALLEY":" ","HOUSE_NO":"１４０號","E_COORD97":171176.62,"N_COORD97":2544967.3599999999,"ADDRESS":"勝學路１４０號","OBJECTID":42279},"geometry":{"x":171176.62000000104,"y":2544967.3600000031}},{"attributes":{"ID":42280,"DIS_CODE":0,"TOWNNAME":"永康區","LI":"復國里","LIN":"17鄰","STREET":"國華街","SECT":" ","MAREA":" ","LANE":" ","ALLEY":" ","HOUSE_NO":"５２號","E_COORD97":172851.88,"N_COORD97":2545696.5299999998,"ADDRESS":"國華街５２號","OBJECTID":42280},"geometry":{"x":172851.87999999989,"y":2545696.5299999993}},{"attributes":{"ID":42281,"DIS_CODE":0,"TOWNNAME":"新化區","LI":"唪口里","LIN":"4鄰","STREET":"大德路","SECT":" ","MAREA":" ","LANE":" ","ALLEY":" ","HOUSE_NO":"９２號之１５","E_COORD97":178086.39000000001,"N_COORD97":2549496.2599999998,"ADDRESS":"大德路９２號之１５","OBJECTID":42281},"geometry":{"x":178086.38999999873,"y":2549496.2599999998}},{"attributes":{"ID":42282,"DIS_CODE":0,"TOWNNAME":"新化區","LI":"豐榮里","LIN":"13鄰","STREET":"民治路","SECT":" ","MAREA":" ","LANE":" ","ALLEY":" ","HOUSE_NO":"３５號","E_COORD97":178714.26000000001,"N_COORD97":2548059.25,"ADDRESS":"民治路３５號","OBJECTID":42282},"geometry":{"x":178714.25999999978,"y":2548059.25}},{"attributes":{"ID":42283,"DIS_CODE":0,"TOWNNAME":"新化區","LI":"護國里","LIN":"4鄰","STREET":"中山路","SECT":" ","MAREA":" ","LANE":" ","ALLEY":" ","HOUSE_NO":"２０８號","E_COORD97":179157.81,"N_COORD97":2548464.25,"ADDRESS":"中山路２０８號","OBJECTID":42283},"geometry":{"x":179157.80999999959,"y":2548464.2500000019}},{"attributes":{"ID":42284,"DIS_CODE":0,"TOWNNAME":"新化區","LI":"唪口里","LIN":"4鄰","STREET":"大德路","SECT":" ","MAREA":" ","LANE":" ","ALLEY":" ","HOUSE_NO":"９２號之１０","E_COORD97":178105.17000000001,"N_COORD97":2549515.2599999998,"ADDRESS":"大德路９２號之１０","OBJECTID":42284},"geometry":{"x":178105.17000000179,"y":2549515.2600000016}},{"attributes":{"ID":42285,"DIS_CODE":0,"TOWNNAME":"新化區","LI":"竹林里","LIN":"4鄰","STREET":"中山路","SECT":" ","MAREA":" ","LANE":" ","ALLEY":" ","HOUSE_NO":"３５６號","E_COORD97":178895.01000000001,"N_COORD97":2548426.25,"ADDRESS":"中山路３５６號","OBJECTID":42285},"geometry":{"x":178895.01000000071,"y":2548426.25}},{"attributes":{"ID":42286,"DIS_CODE":0,"TOWNNAME":"新化區","LI":"唪口里","LIN":"4鄰","STREET":"大德路","SECT":" ","MAREA":" ","LANE":" ","ALLEY":" ","HOUSE_NO":"９２號之３","E_COORD97":178103.63,"N_COORD97":2549490.2599999998,"ADDRESS":"大德路９２號之３","OBJECTID":42286},"geometry":{"x":178103.62999999896,"y":2549490.2599999998}},{"attributes":{"ID":42287,"DIS_CODE":0,"TOWNNAME":"鹽水區","LI":"岸內里","LIN":"8鄰","STREET":"和平路","SECT":" ","MAREA":" ","LANE":"６３２巷","ALLEY":"１弄","HOUSE_NO":"１２號","E_COORD97":174740.94,"N_COORD97":2580593.1800000002,"ADDRESS":"和平路６３２巷１弄１２號","OBJECTID":42287},"geometry":{"x":174740.94000000134,"y":2580593.1799999997}},{"attributes":{"ID":42288,"DIS_CODE":0,"TOWNNAME":"新化區","LI":"竹林里","LIN":"4鄰","STREET":"竹林路","SECT":" ","MAREA":" ","LANE":" ","ALLEY":" ","HOUSE_NO":"１６號","E_COORD97":178855.98000000001,"N_COORD97":2548474.25,"ADDRESS":"竹林路１６號","OBJECTID":42288},"geometry":{"x":178855.98000000045,"y":2548474.2500000037}},{"attributes":{"ID":42289,"DIS_CODE":0,"TOWNNAME":"新化區","LI":"太平里","LIN":"4鄰","STREET":"中正路","SECT":" ","MAREA":" ","LANE":" ","ALLEY":" ","HOUSE_NO":"５８２號","E_COORD97":178920.20999999999,"N_COORD97":2549045.2400000002,"ADDRESS":"中正路５８２號","OBJECTID":42289},"geometry":{"x":178920.20999999996,"y":2549045.2400000021}},{"attributes":{"ID":42290,"DIS_CODE":0,"TOWNNAME":"新化區","LI":"護國里","LIN":"8鄰","STREET":"信義路","SECT":" ","MAREA":" ","LANE":" ","ALLEY":" ","HOUSE_NO":"１０２號","E_COORD97":179812.03,"N_COORD97":2548734.25,"ADDRESS":"信義路１０２號","OBJECTID":42290},"geometry":{"x":179812.03000000119,"y":2548734.25}},{"attributes":{"ID":42291,"DIS_CODE":0,"TOWNNAME":"新化區","LI":"竹林里","LIN":"4鄰","STREET":"中山路","SECT":" ","MAREA":" ","LANE":" ","ALLEY":" ","HOUSE_NO":"３４６號","E_COORD97":178908.51000000001,"N_COORD97":2548428.25,"ADDRESS":"中山路３４６號","OBJECTID":42291},"geometry":{"x":178908.51000000071,"y":2548428.2500000019}},{"attributes":{"ID":42292,"DIS_CODE":0,"TOWNNAME":"新化區","LI":"崙頂里","LIN":"7鄰","STREET":" ","SECT":" ","MAREA":"崙子頂","LANE":" ","ALLEY":" ","HOUSE_NO":"３０３號之３０","E_COORD97":176842.20999999999,"N_COORD97":2546943.0800000001,"ADDRESS":"崙子頂３０３號之３０","OBJECTID":42292},"geometry":{"x":176842.21000000089,"y":2546943.0800000038}},{"attributes":{"ID":42293,"DIS_CODE":0,"TOWNNAME":"新化區","LI":"崙頂里","LIN":"7鄰","STREET":" ","SECT":" ","MAREA":"崙子頂","LANE":" ","ALLEY":" ","HOUSE_NO":"３０３號之３１","E_COORD97":176855.23000000001,"N_COORD97":2546940.0699999998,"ADDRESS":"崙子頂３０３號之３１","OBJECTID":42293},"geometry":{"x":176855.23000000045,"y":2546940.070000004}},{"attributes":{"ID":42294,"DIS_CODE":0,"TOWNNAME":"永康區","LI":"南灣里","LIN":"17鄰","STREET":"立興街","SECT":" ","MAREA":" ","LANE":" ","ALLEY":" ","HOUSE_NO":"１５３號","E_COORD97":174354.85999999999,"N_COORD97":2544613.8799999999,"ADDRESS":"立興街１５３號","OBJECTID":42294},"geometry":{"x":174354.86000000127,"y":2544613.8800000027}},{"attributes":{"ID":42295,"DIS_CODE":0,"TOWNNAME":"永康區","LI":"中興里","LIN":"17鄰","STREET":"中華路","SECT":" ","MAREA":" ","LANE":" ","ALLEY":" ","HOUSE_NO":"２８０號之４２","E_COORD97":171706.20000000001,"N_COORD97":2545233.04,"ADDRESS":"中華路２８０號之４２","OBJECTID":42295},"geometry":{"x":171706.20000000112,"y":2545233.0399999991}},{"attributes":{"ID":42296,"DIS_CODE":0,"TOWNNAME":"永康區","LI":"中興里","LIN":"17鄰","STREET":"中華路","SECT":" ","MAREA":" ","LANE":" ","ALLEY":" ","HOUSE_NO":"２６０號","E_COORD97":171634.26999999999,"N_COORD97":2545129.4900000002,"ADDRESS":"中華路２６０號","OBJECTID":42296},"geometry":{"x":171634.27000000048,"y":2545129.4900000002}},{"attributes":{"ID":42297,"DIS_CODE":0,"TOWNNAME":"新化區","LI":"崙頂里","LIN":"7鄰","STREET":" ","SECT":" ","MAREA":"崙子頂","LANE":" ","ALLEY":" ","HOUSE_NO":"３０３號之３２","E_COORD97":176841.85999999999,"N_COORD97":2546938.1299999999,"ADDRESS":"崙子頂３０３號之３２","OBJECTID":42297},"geometry":{"x":176841.86000000127,"y":2546938.1300000027}},{"attributes":{"ID":42298,"DIS_CODE":0,"TOWNNAME":"新化區","LI":"崙頂里","LIN":"7鄰","STREET":" ","SECT":" ","MAREA":"崙子頂","LANE":" ","ALLEY":" ","HOUSE_NO":"３０３號之４８","E_COORD97":176840.60000000001,"N_COORD97":2546907.3900000001,"ADDRESS":"崙子頂３０３號之４８","OBJECTID":42298},"geometry":{"x":176840.59999999963,"y":2546907.3900000043}},{"attributes":{"ID":42299,"DIS_CODE":0,"TOWNNAME":"新化區","LI":"崙頂里","LIN":"7鄰","STREET":" ","SECT":" ","MAREA":"崙子頂","LANE":" ","ALLEY":" ","HOUSE_NO":"３０３號之５","E_COORD97":176867,"N_COORD97":2547014.3700000001,"ADDRESS":"崙子頂３０３號之５","OBJECTID":42299},"geometry":{"x":176867,"y":2547014.3700000029}},{"attributes":{"ID":42300,"DIS_CODE":0,"TOWNNAME":"新化區","LI":"崙頂里","LIN":"7鄰","STREET":" ","SECT":" ","MAREA":"崙子頂","LANE":" ","ALLEY":" ","HOUSE_NO":"３０３號之５０","E_COORD97":176840.29000000001,"N_COORD97":2546902.6600000001,"ADDRESS":"崙子頂３０３號之５０","OBJECTID":42300},"geometry":{"x":176840.29000000097,"y":2546902.660000002}},{"attributes":{"ID":42301,"DIS_CODE":0,"TOWNNAME":"新化區","LI":"崙頂里","LIN":"7鄰","STREET":" ","SECT":" ","MAREA":"崙子頂","LANE":" ","ALLEY":" ","HOUSE_NO":"３０３號之５２","E_COORD97":176839.84,"N_COORD97":2546897.4900000002,"ADDRESS":"崙子頂３０３號之５２","OBJECTID":42301},"geometry":{"x":176839.84000000078,"y":2546897.4900000021}},{"attributes":{"ID":42302,"DIS_CODE":0,"TOWNNAME":"新化區","LI":"崙頂里","LIN":"7鄰","STREET":" ","SECT":" ","MAREA":"崙子頂","LANE":" ","ALLEY":" ","HOUSE_NO":"３０３號之６","E_COORD97":176843.44,"N_COORD97":2546993.4300000002,"ADDRESS":"崙子頂３０３號之６","OBJECTID":42302},"geometry":{"x":176843.44000000134,"y":2546993.4299999997}},{"attributes":{"ID":42303,"DIS_CODE":0,"TOWNNAME":"新化區","LI":"崙頂里","LIN":"7鄰","STREET":" ","SECT":" ","MAREA":"崙子頂","LANE":" ","ALLEY":" ","HOUSE_NO":"３０３號之７","E_COORD97":176862.69,"N_COORD97":2547014.6499999999,"ADDRESS":"崙子頂３０３號之７","OBJECTID":42303},"geometry":{"x":176862.69000000041,"y":2547014.6500000022}},{"attributes":{"ID":42304,"DIS_CODE":0,"TOWNNAME":"新化區","LI":"崙頂里","LIN":"7鄰","STREET":" ","SECT":" ","MAREA":"崙子頂","LANE":" ","ALLEY":" ","HOUSE_NO":"３０３號之８","E_COORD97":176843.29000000001,"N_COORD97":2546988.2999999998,"ADDRESS":"崙子頂３０３號之８","OBJECTID":42304},"geometry":{"x":176843.2900000019,"y":2546988.3000000007}},{"attributes":{"ID":42305,"DIS_CODE":0,"TOWNNAME":"新化區","LI":"崙頂里","LIN":"7鄰","STREET":" ","SECT":" ","MAREA":"崙子頂","LANE":" ","ALLEY":" ","HOUSE_NO":"３０３號之９","E_COORD97":176862.07999999999,"N_COORD97":2546998.21,"ADDRESS":"崙子頂３０３號之９","OBJECTID":42305},"geometry":{"x":176862.08000000101,"y":2546998.2100000028}},{"attributes":{"ID":42306,"DIS_CODE":0,"TOWNNAME":"善化區","LI":"小新里","LIN":"7鄰","STREET":" ","SECT":" ","MAREA":"小新營","LANE":" ","ALLEY":" ","HOUSE_NO":"５６號之６３","E_COORD97":179486.07999999999,"N_COORD97":2558495.77,"ADDRESS":"小新營５６號之６３","OBJECTID":42306},"geometry":{"x":179486.08000000101,"y":2558495.7700000014}},{"attributes":{"ID":42307,"DIS_CODE":0,"TOWNNAME":"鹽水區","LI":"岸內里","LIN":"9鄰","STREET":"和平路","SECT":" ","MAREA":" ","LANE":"６３２巷","ALLEY":"２弄","HOUSE_NO":"１號","E_COORD97":174709.85000000001,"N_COORD97":2580573.4399999999,"ADDRESS":"和平路６３２巷２弄１號","OBJECTID":42307},"geometry":{"x":174709.85000000149,"y":2580573.4400000013}},{"attributes":{"ID":42308,"DIS_CODE":0,"TOWNNAME":"善化區","LI":"小新里","LIN":"7鄰","STREET":" ","SECT":" ","MAREA":"小新營","LANE":" ","ALLEY":" ","HOUSE_NO":"５６號之２６","E_COORD97":179487.07999999999,"N_COORD97":2558572.77,"ADDRESS":"小新營５６號之２６","OBJECTID":42308},"geometry":{"x":179487.08000000007,"y":2558572.7699999996}},{"attributes":{"ID":42309,"DIS_CODE":0,"TOWNNAME":"安南區","LI":"四草里","LIN":"8鄰","STREET":"四草大道","SECT":" ","MAREA":" ","LANE":"８１巷","ALLEY":"４５７弄","HOUSE_NO":"１號","E_COORD97":160400.31109599999,"N_COORD97":2545456.4204000002,"ADDRESS":"四草大道８１巷４５７弄１號","OBJECTID":42309},"geometry":{"x":160400.31109599955,"y":2545456.4204010013}},{"attributes":{"ID":42310,"DIS_CODE":0,"TOWNNAME":"安南區","LI":"淵中里","LIN":"17鄰","STREET":"安中路","SECT":"三段","MAREA":" ","LANE":" ","ALLEY":" ","HOUSE_NO":"２５３號","E_COORD97":165764.26999999999,"N_COORD97":2549865.8700000001,"ADDRESS":"安中路三段２５３號","OBJECTID":42310},"geometry":{"x":165764.26999999955,"y":2549865.8700000029}},{"attributes":{"ID":42311,"DIS_CODE":0,"TOWNNAME":"安定區","LI":"新吉里","LIN":"17鄰","STREET":" ","SECT":" ","MAREA":"新吉","LANE":" ","ALLEY":" ","HOUSE_NO":"１７５號","E_COORD97":169010.32000000001,"N_COORD97":2554093.25,"ADDRESS":"新吉１７５號","OBJECTID":42311},"geometry":{"x":169010.32000000123,"y":2554093.2500000019}},{"attributes":{"ID":42312,"DIS_CODE":0,"TOWNNAME":"麻豆區","LI":"北勢里","LIN":"17鄰","STREET":" ","SECT":" ","MAREA":"北勢寮","LANE":" ","ALLEY":" ","HOUSE_NO":"７０號之１１","E_COORD97":170991.64000000001,"N_COORD97":2568744.96,"ADDRESS":"北勢寮７０號之１１","OBJECTID":42312},"geometry":{"x":170991.63999999966,"y":2568744.9600000046}},{"attributes":{"ID":42313,"DIS_CODE":0,"TOWNNAME":"麻豆區","LI":"北勢里","LIN":"17鄰","STREET":" ","SECT":" ","MAREA":"北勢寮","LANE":" ","ALLEY":" ","HOUSE_NO":"７０號之１","E_COORD97":170928.19,"N_COORD97":2568960.1200000001,"ADDRESS":"北勢寮７０號之１","OBJECTID":42313},"geometry":{"x":170928.19000000227,"y":2568960.120000001}},{"attributes":{"ID":42314,"DIS_CODE":0,"TOWNNAME":"麻豆區","LI":"北勢里","LIN":"17鄰","STREET":" ","SECT":" ","MAREA":"北勢寮","LANE":" ","ALLEY":" ","HOUSE_NO":"７０號之２","E_COORD97":170870.95000000001,"N_COORD97":2568946.1600000001,"ADDRESS":"北勢寮７０號之２","OBJECTID":42314},"geometry":{"x":170870.95000000112,"y":2568946.1600000039}},{"attributes":{"ID":42315,"DIS_CODE":0,"TOWNNAME":"鹽水區","LI":"岸內里","LIN":"9鄰","STREET":"和平路","SECT":" ","MAREA":" ","LANE":"６３２巷","ALLEY":"２弄","HOUSE_NO":"７號","E_COORD97":174691.29999999999,"N_COORD97":2580572.8500000001,"ADDRESS":"和平路６３２巷２弄７號","OBJECTID":42315},"geometry":{"x":174691.29999999981,"y":2580572.8499999996}},{"attributes":{"ID":42316,"DIS_CODE":0,"TOWNNAME":"麻豆區","LI":"北勢里","LIN":"17鄰","STREET":" ","SECT":" ","MAREA":"北勢寮","LANE":" ","ALLEY":" ","HOUSE_NO":"７０號","E_COORD97":170929.51999999999,"N_COORD97":2568978.1000000001,"ADDRESS":"北勢寮７０號","OBJECTID":42316},"geometry":{"x":170929.51999999955,"y":2568978.0999999996}},{"attributes":{"ID":42317,"DIS_CODE":0,"TOWNNAME":"麻豆區","LI":"北勢里","LIN":"17鄰","STREET":" ","SECT":" ","MAREA":"北勢寮","LANE":" ","ALLEY":" ","HOUSE_NO":"７１號之１","E_COORD97":170893.37,"N_COORD97":2569027.5899999999,"ADDRESS":"北勢寮７１號之１","OBJECTID":42317},"geometry":{"x":170893.37000000104,"y":2569027.5900000036}},{"attributes":{"ID":42318,"DIS_CODE":0,"TOWNNAME":"麻豆區","LI":"北勢里","LIN":"17鄰","STREET":" ","SECT":" ","MAREA":"北勢寮","LANE":" ","ALLEY":" ","HOUSE_NO":"７１號","E_COORD97":170932.92999999999,"N_COORD97":2568941.6000000001,"ADDRESS":"北勢寮７１號","OBJECTID":42318},"geometry":{"x":170932.93000000063,"y":2568941.5999999996}},{"attributes":{"ID":42319,"DIS_CODE":0,"TOWNNAME":"麻豆區","LI":"北勢里","LIN":"17鄰","STREET":" ","SECT":" ","MAREA":"北勢寮","LANE":" ","ALLEY":" ","HOUSE_NO":"７３號之１","E_COORD97":170748.78,"N_COORD97":2569539.04,"ADDRESS":"北勢寮７３號之１","OBJECTID":42319},"geometry":{"x":170748.78000000026,"y":2569539.0400000028}},{"attributes":{"ID":42320,"DIS_CODE":0,"TOWNNAME":"麻豆區","LI":"北勢里","LIN":"17鄰","STREET":" ","SECT":" ","MAREA":"北勢寮","LANE":" ","ALLEY":" ","HOUSE_NO":"７３號之２","E_COORD97":170871.59,"N_COORD97":2569275.98,"ADDRESS":"北勢寮７３號之２","OBJECTID":42320},"geometry":{"x":170871.58999999985,"y":2569275.9800000004}},{"attributes":{"ID":42321,"DIS_CODE":0,"TOWNNAME":"麻豆區","LI":"北勢里","LIN":"17鄰","STREET":" ","SECT":" ","MAREA":"北勢寮","LANE":" ","ALLEY":" ","HOUSE_NO":"７３號之３","E_COORD97":170679.66,"N_COORD97":2569601.6200000001,"ADDRESS":"北勢寮７３號之３","OBJECTID":42321},"geometry":{"x":170679.66000000108,"y":2569601.6200000048}},{"attributes":{"ID":42322,"DIS_CODE":0,"TOWNNAME":"麻豆區","LI":"北勢里","LIN":"17鄰","STREET":" ","SECT":" ","MAREA":"北勢寮","LANE":" ","ALLEY":" ","HOUSE_NO":"７３號","E_COORD97":170705.57000000001,"N_COORD97":2569176.5499999998,"ADDRESS":"北勢寮７３號","OBJECTID":42322},"geometry":{"x":170705.57000000123,"y":2569176.5500000007}},{"attributes":{"ID":42323,"DIS_CODE":0,"TOWNNAME":"麻豆區","LI":"北勢里","LIN":"17鄰","STREET":" ","SECT":" ","MAREA":"北勢寮","LANE":" ","ALLEY":" ","HOUSE_NO":"７５號之９","E_COORD97":170382.41,"N_COORD97":2568771.7000000002,"ADDRESS":"北勢寮７５號之９","OBJECTID":42323},"geometry":{"x":170382.41000000108,"y":2568771.6999999974}},{"attributes":{"ID":42324,"DIS_CODE":0,"TOWNNAME":"麻豆區","LI":"北勢里","LIN":"17鄰","STREET":" ","SECT":" ","MAREA":"北勢寮","LANE":" ","ALLEY":" ","HOUSE_NO":"８０號之１","E_COORD97":170616.56,"N_COORD97":2569256.23,"ADDRESS":"北勢寮８０號之１","OBJECTID":42324},"geometry":{"x":170616.56000000052,"y":2569256.2300000004}},{"attributes":{"ID":42325,"DIS_CODE":0,"TOWNNAME":"麻豆區","LI":"北勢里","LIN":"17鄰","STREET":" ","SECT":" ","MAREA":"北勢寮","LANE":" ","ALLEY":" ","HOUSE_NO":"８０號之５","E_COORD97":170463.94,"N_COORD97":2569445.0499999998,"ADDRESS":"北勢寮８０號之５","OBJECTID":42325},"geometry":{"x":170463.94000000134,"y":2569445.0500000007}},{"attributes":{"ID":42326,"DIS_CODE":0,"TOWNNAME":"麻豆區","LI":"北勢里","LIN":"17鄰","STREET":" ","SECT":" ","MAREA":"北勢寮","LANE":" ","ALLEY":" ","HOUSE_NO":"８０號","E_COORD97":170628.10000000001,"N_COORD97":2569310.6600000001,"ADDRESS":"北勢寮８０號","OBJECTID":42326},"geometry":{"x":170628.10000000056,"y":2569310.6600000001}},{"attributes":{"ID":42327,"DIS_CODE":0,"TOWNNAME":"麻豆區","LI":"北勢里","LIN":"17鄰","STREET":" ","SECT":" ","MAREA":"北勢寮","LANE":" ","ALLEY":" ","HOUSE_NO":"８５號","E_COORD97":170520.06,"N_COORD97":2569732.6699999999,"ADDRESS":"北勢寮８５號","OBJECTID":42327},"geometry":{"x":170520.06000000052,"y":2569732.6700000018}},{"attributes":{"ID":42328,"DIS_CODE":0,"TOWNNAME":"善化區","LI":"小新里","LIN":"7鄰","STREET":" ","SECT":" ","MAREA":"小新營","LANE":" ","ALLEY":" ","HOUSE_NO":"５６號之６０","E_COORD97":179492.25,"N_COORD97":2558515.77,"ADDRESS":"小新營５６號之６０","OBJECTID":42328},"geometry":{"x":179492.25,"y":2558515.7700000033}},{"attributes":{"ID":42329,"DIS_CODE":0,"TOWNNAME":"善化區","LI":"六分里","LIN":"7鄰","STREET":" ","SECT":" ","MAREA":"溪底寮","LANE":" ","ALLEY":" ","HOUSE_NO":"４號","E_COORD97":177944.70999999999,"N_COORD97":2561954.77,"ADDRESS":"溪底寮４號","OBJECTID":42329},"geometry":{"x":177944.71000000089,"y":2561954.7700000014}},{"attributes":{"ID":42330,"DIS_CODE":0,"TOWNNAME":"善化區","LI":"六德里","LIN":"7鄰","STREET":" ","SECT":" ","MAREA":"六分寮","LANE":" ","ALLEY":" ","HOUSE_NO":"２５３號","E_COORD97":178766.35000000001,"N_COORD97":2561655.5,"ADDRESS":"六分寮２５３號","OBJECTID":42330},"geometry":{"x":178766.3499999987,"y":2561655.5000000019}},{"attributes":{"ID":42331,"DIS_CODE":0,"TOWNNAME":"善化區","LI":"小新里","LIN":"7鄰","STREET":" ","SECT":" ","MAREA":"小新營","LANE":" ","ALLEY":" ","HOUSE_NO":"５６之６７號","E_COORD97":179483.53,"N_COORD97":2558462.02,"ADDRESS":"小新營５６之６７號","OBJECTID":42331},"geometry":{"x":179483.53000000119,"y":2558462.0199999996}},{"attributes":{"ID":42332,"DIS_CODE":0,"TOWNNAME":"麻豆區","LI":"大埕里","LIN":"17鄰","STREET":"平等路","SECT":" ","MAREA":" ","LANE":" ","ALLEY":" ","HOUSE_NO":"１９號","E_COORD97":173019.54000000001,"N_COORD97":2564961.6899999999,"ADDRESS":"平等路１９號","OBJECTID":42332},"geometry":{"x":173019.54000000097,"y":2564961.6900000013}},{"attributes":{"ID":42333,"DIS_CODE":0,"TOWNNAME":"善化區","LI":"小新里","LIN":"7鄰","STREET":" ","SECT":" ","MAREA":"小新營","LANE":" ","ALLEY":" ","HOUSE_NO":"５６號之９９","E_COORD97":179531.14000000001,"N_COORD97":2558435.77,"ADDRESS":"小新營５６號之９９","OBJECTID":42333},"geometry":{"x":179531.1400000006,"y":2558435.7700000014}},{"attributes":{"ID":42334,"DIS_CODE":0,"TOWNNAME":"新市區","LI":"社內里","LIN":"17鄰","STREET":" ","SECT":" ","MAREA":"社內","LANE":" ","ALLEY":" ","HOUSE_NO":"１８３之３２號","E_COORD97":175984.79000000001,"N_COORD97":2552937.5499999998,"ADDRESS":"社內１８３之３２號","OBJECTID":42334},"geometry":{"x":175984.79000000004,"y":2552937.5500000007}},{"attributes":{"ID":42335,"DIS_CODE":0,"TOWNNAME":"安定區","LI":"港尾里","LIN":"17鄰","STREET":" ","SECT":" ","MAREA":"港子尾","LANE":" ","ALLEY":" ","HOUSE_NO":"９８號","E_COORD97":171451.98999999999,"N_COORD97":2556090.2599999998,"ADDRESS":"港子尾９８號","OBJECTID":42335},"geometry":{"x":171451.99000000115,"y":2556090.2600000016}},{"attributes":{"ID":42336,"DIS_CODE":0,"TOWNNAME":"安定區","LI":"港南里","LIN":"17鄰","STREET":" ","SECT":" ","MAREA":"港口","LANE":" ","ALLEY":" ","HOUSE_NO":"１３９號之２","E_COORD97":171522.45999999999,"N_COORD97":2554415.2999999998,"ADDRESS":"港口１３９號之２","OBJECTID":42336},"geometry":{"x":171522.45999999903,"y":2554415.3000000026}},{"attributes":{"ID":42337,"DIS_CODE":0,"TOWNNAME":"安定區","LI":"港南里","LIN":"17鄰","STREET":" ","SECT":" ","MAREA":"港口","LANE":" ","ALLEY":" ","HOUSE_NO":"１３９號","E_COORD97":171550.79000000001,"N_COORD97":2554416.25,"ADDRESS":"港口１３９號","OBJECTID":42337},"geometry":{"x":171550.78999999911,"y":2554416.25}},{"attributes":{"ID":42338,"DIS_CODE":0,"TOWNNAME":"安定區","LI":"港南里","LIN":"17鄰","STREET":" ","SECT":" ","MAREA":"港口","LANE":" ","ALLEY":" ","HOUSE_NO":"１４０號之１９","E_COORD97":171549.16,"N_COORD97":2554503.2999999998,"ADDRESS":"港口１４０號之１９","OBJECTID":42338},"geometry":{"x":171549.16000000108,"y":2554503.3000000026}},{"attributes":{"ID":42339,"DIS_CODE":0,"TOWNNAME":"安定區","LI":"港南里","LIN":"17鄰","STREET":" ","SECT":" ","MAREA":"港口","LANE":" ","ALLEY":" ","HOUSE_NO":"１４０號之２０","E_COORD97":171545.32999999999,"N_COORD97":2554504.2999999998,"ADDRESS":"港口１４０號之２０","OBJECTID":42339},"geometry":{"x":171545.33000000007,"y":2554504.3000000026}},{"attributes":{"ID":42340,"DIS_CODE":0,"TOWNNAME":"安定區","LI":"港南里","LIN":"17鄰","STREET":" ","SECT":" ","MAREA":"港口","LANE":" ","ALLEY":" ","HOUSE_NO":"１４０號之１５","E_COORD97":171564.13,"N_COORD97":2554497.2999999998,"ADDRESS":"港口１４０號之１５","OBJECTID":42340},"geometry":{"x":171564.13000000082,"y":2554497.3000000026}},{"attributes":{"ID":42341,"DIS_CODE":0,"TOWNNAME":"安定區","LI":"港南里","LIN":"17鄰","STREET":" ","SECT":" ","MAREA":"港口","LANE":" ","ALLEY":" ","HOUSE_NO":"１４０之４２號","E_COORD97":171600.44,"N_COORD97":2554389.2999999998,"ADDRESS":"港口１４０之４２號","OBJECTID":42341},"geometry":{"x":171600.44000000041,"y":2554389.3000000007}},{"attributes":{"ID":42342,"DIS_CODE":0,"TOWNNAME":"安定區","LI":"港南里","LIN":"17鄰","STREET":" ","SECT":" ","MAREA":"港口","LANE":" ","ALLEY":" ","HOUSE_NO":"１４０號之１７","E_COORD97":171556.45000000001,"N_COORD97":2554500.2999999998,"ADDRESS":"港口１４０號之１７","OBJECTID":42342},"geometry":{"x":171556.45000000019,"y":2554500.3000000026}},{"attributes":{"ID":42343,"DIS_CODE":0,"TOWNNAME":"安定區","LI":"蘇林里","LIN":"17鄰","STREET":" ","SECT":" ","MAREA":"蘇厝","LANE":" ","ALLEY":" ","HOUSE_NO":"１９３號","E_COORD97":173282.32000000001,"N_COORD97":2558980.25,"ADDRESS":"蘇厝１９３號","OBJECTID":42343},"geometry":{"x":173282.32000000123,"y":2558980.25}},{"attributes":{"ID":42344,"DIS_CODE":0,"TOWNNAME":"安定區","LI":"港南里","LIN":"17鄰","STREET":" ","SECT":" ","MAREA":"港口","LANE":" ","ALLEY":" ","HOUSE_NO":"１４０之４５號","E_COORD97":171573.14000000001,"N_COORD97":2554475.2999999998,"ADDRESS":"港口１４０之４５號","OBJECTID":42344},"geometry":{"x":171573.13999999966,"y":2554475.2999999989}},{"attributes":{"ID":42345,"DIS_CODE":0,"TOWNNAME":"安定區","LI":"港南里","LIN":"17鄰","STREET":" ","SECT":" ","MAREA":"港口","LANE":" ","ALLEY":" ","HOUSE_NO":"１４０號之２６","E_COORD97":171618.98000000001,"N_COORD97":2554479.2999999998,"ADDRESS":"港口１４０號之２６","OBJECTID":42345},"geometry":{"x":171618.98000000045,"y":2554479.3000000026}},{"attributes":{"ID":42346,"DIS_CODE":0,"TOWNNAME":"鹽水區","LI":"岸內里","LIN":"9鄰","STREET":"和平路","SECT":" ","MAREA":" ","LANE":"６３２巷","ALLEY":"８弄","HOUSE_NO":"２９號","E_COORD97":174646.92000000001,"N_COORD97":2580652.04,"ADDRESS":"和平路６３２巷８弄２９號","OBJECTID":42346},"geometry":{"x":174646.91999999899,"y":2580652.0399999991}},{"attributes":{"ID":42347,"DIS_CODE":0,"TOWNNAME":"安定區","LI":"蘇林里","LIN":"17鄰","STREET":" ","SECT":" ","MAREA":"蘇厝","LANE":" ","ALLEY":" ","HOUSE_NO":"１８７之２號","E_COORD97":173319.51999999999,"N_COORD97":2558952.2999999998,"ADDRESS":"蘇厝１８７之２號","OBJECTID":42347},"geometry":{"x":173319.51999999955,"y":2558952.3000000026}},{"attributes":{"ID":42348,"DIS_CODE":0,"TOWNNAME":"善化區","LI":"小新里","LIN":"7鄰","STREET":" ","SECT":" ","MAREA":"小新營","LANE":" ","ALLEY":" ","HOUSE_NO":"５６號之３０","E_COORD97":179481.17999999999,"N_COORD97":2558540.27,"ADDRESS":"小新營５６號之３０","OBJECTID":42348},"geometry":{"x":179481.1799999997,"y":2558540.2700000014}},{"attributes":{"ID":42349,"DIS_CODE":0,"TOWNNAME":"善化區","LI":"小新里","LIN":"7鄰","STREET":" ","SECT":" ","MAREA":"小新營","LANE":" ","ALLEY":" ","HOUSE_NO":"５６號之８１","E_COORD97":179574.19,"N_COORD97":2558446.27,"ADDRESS":"小新營５６號之８１","OBJECTID":42349},"geometry":{"x":179574.19000000134,"y":2558446.2700000014}},{"attributes":{"ID":42350,"DIS_CODE":0,"TOWNNAME":"善化區","LI":"小新里","LIN":"7鄰","STREET":" ","SECT":" ","MAREA":"小新營","LANE":" ","ALLEY":" ","HOUSE_NO":"５６之６８號","E_COORD97":179493.56,"N_COORD97":2558459.77,"ADDRESS":"小新營５６之６８號","OBJECTID":42350},"geometry":{"x":179493.55999999959,"y":2558459.7700000014}},{"attributes":{"ID":42351,"DIS_CODE":0,"TOWNNAME":"善化區","LI":"小新里","LIN":"7鄰","STREET":" ","SECT":" ","MAREA":"小新營","LANE":" ","ALLEY":" ","HOUSE_NO":"５６號之５３","E_COORD97":179507.32999999999,"N_COORD97":2558566.02,"ADDRESS":"小新營５６號之５３","OBJECTID":42351},"geometry":{"x":179507.33000000007,"y":2558566.0200000014}},{"attributes":{"ID":42352,"DIS_CODE":0,"TOWNNAME":"善化區","LI":"小新里","LIN":"7鄰","STREET":" ","SECT":" ","MAREA":"小新營","LANE":" ","ALLEY":" ","HOUSE_NO":"５６號之２７","E_COORD97":179471.54000000001,"N_COORD97":2558577.27,"ADDRESS":"小新營５６號之２７","OBJECTID":42352},"geometry":{"x":179471.54000000097,"y":2558577.2700000014}},{"attributes":{"ID":42353,"DIS_CODE":0,"TOWNNAME":"善化區","LI":"小新里","LIN":"7鄰","STREET":" ","SECT":" ","MAREA":"小新營","LANE":" ","ALLEY":" ","HOUSE_NO":"５６號之２４","E_COORD97":179601.64999999999,"N_COORD97":2558511.27,"ADDRESS":"小新營５６號之２４","OBJECTID":42353},"geometry":{"x":179601.6500000013,"y":2558511.2699999996}},{"attributes":{"ID":42354,"DIS_CODE":0,"TOWNNAME":"善化區","LI":"小新里","LIN":"7鄰","STREET":" ","SECT":" ","MAREA":"小新營","LANE":" ","ALLEY":" ","HOUSE_NO":"５６之９６號","E_COORD97":179489.73999999999,"N_COORD97":2558427.02,"ADDRESS":"小新營５６之９６號","OBJECTID":42354},"geometry":{"x":179489.74000000022,"y":2558427.0200000014}},{"attributes":{"ID":42355,"DIS_CODE":0,"TOWNNAME":"善化區","LI":"小新里","LIN":"7鄰","STREET":" ","SECT":" ","MAREA":"小新營","LANE":" ","ALLEY":" ","HOUSE_NO":"５６之９０號","E_COORD97":179473.87,"N_COORD97":2558416.27,"ADDRESS":"小新營５６之９０號","OBJECTID":42355},"geometry":{"x":179473.87000000197,"y":2558416.2699999996}},{"attributes":{"ID":42356,"DIS_CODE":0,"TOWNNAME":"鹽水區","LI":"橋南里","LIN":"7鄰","STREET":"南門路","SECT":" ","MAREA":" ","LANE":"２０１巷","ALLEY":"３３弄","HOUSE_NO":"１０號","E_COORD97":175517.39999999999,"N_COORD97":2578990.52,"ADDRESS":"南門路２０１巷３３弄１０號","OBJECTID":42356},"geometry":{"x":175517.4000000013,"y":2578990.5199999996}},{"attributes":{"ID":42357,"DIS_CODE":0,"TOWNNAME":"鹽水區","LI":"橋南里","LIN":"7鄰","STREET":"南門路","SECT":" ","MAREA":" ","LANE":"２０１巷","ALLEY":"３３弄","HOUSE_NO":"１１號","E_COORD97":175493.82000000001,"N_COORD97":2579035.02,"ADDRESS":"南門路２０１巷３３弄１１號","OBJECTID":42357},"geometry":{"x":175493.8200000003,"y":2579035.0199999996}},{"attributes":{"ID":42358,"DIS_CODE":0,"TOWNNAME":"鹽水區","LI":"橋南里","LIN":"7鄰","STREET":"南門路","SECT":" ","MAREA":" ","LANE":"２０１巷","ALLEY":"３３弄","HOUSE_NO":"１３號","E_COORD97":175477.39999999999,"N_COORD97":2579043.1699999999,"ADDRESS":"南門路２０１巷３３弄１３號","OBJECTID":42358},"geometry":{"x":175477.4000000013,"y":2579043.1700000018}},{"attributes":{"ID":42359,"DIS_CODE":0,"TOWNNAME":"安南區","LI":"四草里","LIN":"8鄰","STREET":"四草大道","SECT":" ","MAREA":" ","LANE":"８１巷","ALLEY":"４５７弄","HOUSE_NO":"３號","E_COORD97":160398.82855499999,"N_COORD97":2545447.84791,"ADDRESS":"四草大道８１巷４５７弄３號","OBJECTID":42359},"geometry":{"x":160398.82855500001,"y":2545447.8479060046}},{"attributes":{"ID":42360,"DIS_CODE":0,"TOWNNAME":"鹽水區","LI":"橋南里","LIN":"7鄰","STREET":"南門路","SECT":" ","MAREA":" ","LANE":"２０１巷","ALLEY":"３３弄","HOUSE_NO":"１５號","E_COORD97":175482.70000000001,"N_COORD97":2579055.8500000001,"ADDRESS":"南門路２０１巷３３弄１５號","OBJECTID":42360},"geometry":{"x":175482.69999999925,"y":2579055.8500000015}},{"attributes":{"ID":42361,"DIS_CODE":0,"TOWNNAME":"鹽水區","LI":"橋南里","LIN":"7鄰","STREET":"南門路","SECT":" ","MAREA":" ","LANE":"２０１巷","ALLEY":"３３弄","HOUSE_NO":"１７號","E_COORD97":175477.39999999999,"N_COORD97":2579055.8300000001,"ADDRESS":"南門路２０１巷３３弄１７號","OBJECTID":42361},"geometry":{"x":175477.4000000013,"y":2579055.8300000019}},{"attributes":{"ID":42362,"DIS_CODE":0,"TOWNNAME":"善化區","LI":"小新里","LIN":"7鄰","STREET":" ","SECT":" ","MAREA":"小新營","LANE":" ","ALLEY":" ","HOUSE_NO":"５６之９８號","E_COORD97":179502.23999999999,"N_COORD97":2558425.77,"ADDRESS":"小新營５６之９８號","OBJECTID":42362},"geometry":{"x":179502.24000000115,"y":2558425.7700000014}},{"attributes":{"ID":42363,"DIS_CODE":0,"TOWNNAME":"鹽水區","LI":"橋南里","LIN":"7鄰","STREET":"南門路","SECT":" ","MAREA":" ","LANE":"２０１巷","ALLEY":"３３弄","HOUSE_NO":"１９號","E_COORD97":175472.73000000001,"N_COORD97":2579055.9500000002,"ADDRESS":"南門路２０１巷３３弄１９號","OBJECTID":42363},"geometry":{"x":175472.73000000231,"y":2579055.9499999993}},{"attributes":{"ID":42364,"DIS_CODE":0,"TOWNNAME":"鹽水區","LI":"橋南里","LIN":"7鄰","STREET":"南門路","SECT":" ","MAREA":" ","LANE":"２０１巷","ALLEY":"３３弄","HOUSE_NO":"２１號","E_COORD97":175468.04000000001,"N_COORD97":2579055.98,"ADDRESS":"南門路２０１巷３３弄２１號","OBJECTID":42364},"geometry":{"x":175468.04000000004,"y":2579055.9800000004}},{"attributes":{"ID":42365,"DIS_CODE":0,"TOWNNAME":"鹽水區","LI":"橋南里","LIN":"7鄰","STREET":"南門路","SECT":" ","MAREA":" ","LANE":"２０１巷","ALLEY":"３３弄","HOUSE_NO":"２３號","E_COORD97":175463.29000000001,"N_COORD97":2579055.8799999999,"ADDRESS":"南門路２０１巷３３弄２３號","OBJECTID":42365},"geometry":{"x":175463.28999999911,"y":2579055.879999999}},{"attributes":{"ID":42366,"DIS_CODE":0,"TOWNNAME":"新營區","LI":"忠政里","LIN":"14鄰","STREET":"中正路","SECT":" ","MAREA":" ","LANE":"５９巷","ALLEY":"１９弄","HOUSE_NO":"１３號","E_COORD97":179971.09,"N_COORD97":2579631.5699999998,"ADDRESS":"中正路５９巷１９弄１３號","OBJECTID":42366},"geometry":{"x":179971.09000000078,"y":2579631.5700000003}},{"attributes":{"ID":42367,"DIS_CODE":0,"TOWNNAME":"鹽水區","LI":"橋南里","LIN":"7鄰","STREET":"南門路","SECT":" ","MAREA":" ","LANE":"２０１巷","ALLEY":"３３弄","HOUSE_NO":"２６號","E_COORD97":175535.45000000001,"N_COORD97":2579012.9500000002,"ADDRESS":"南門路２０１巷３３弄２６號","OBJECTID":42367},"geometry":{"x":175535.45000000205,"y":2579012.9500000011}},{"attributes":{"ID":42368,"DIS_CODE":0,"TOWNNAME":"中西區","LI":"永華里","LIN":"17鄰","STREET":"南門路","SECT":" ","MAREA":" ","LANE":" ","ALLEY":" ","HOUSE_NO":"５號","E_COORD97":168538.38,"N_COORD97":2543623.77,"ADDRESS":"南門路５號","OBJECTID":42368},"geometry":{"x":168538.38000000082,"y":2543623.7699999996}},{"attributes":{"ID":42369,"DIS_CODE":0,"TOWNNAME":"善化區","LI":"小新里","LIN":"7鄰","STREET":" ","SECT":" ","MAREA":"小新營","LANE":" ","ALLEY":" ","HOUSE_NO":"５６號之３","E_COORD97":179571.45999999999,"N_COORD97":2558572.27,"ADDRESS":"小新營５６號之３","OBJECTID":42369},"geometry":{"x":179571.46000000089,"y":2558572.2699999996}},{"attributes":{"ID":42370,"DIS_CODE":0,"TOWNNAME":"善化區","LI":"小新里","LIN":"7鄰","STREET":" ","SECT":" ","MAREA":"小新營","LANE":" ","ALLEY":" ","HOUSE_NO":"５４號之４","E_COORD97":179733.66,"N_COORD97":2558346.27,"ADDRESS":"小新營５４號之４","OBJECTID":42370},"geometry":{"x":179733.66000000108,"y":2558346.2700000033}},{"attributes":{"ID":42371,"DIS_CODE":0,"TOWNNAME":"善化區","LI":"小新里","LIN":"7鄰","STREET":" ","SECT":" ","MAREA":"小新營","LANE":" ","ALLEY":" ","HOUSE_NO":"５６之３１號","E_COORD97":179475.06,"N_COORD97":2558542.27,"ADDRESS":"小新營５６之３１號","OBJECTID":42371},"geometry":{"x":179475.05999999959,"y":2558542.2699999996}},{"attributes":{"ID":42372,"DIS_CODE":0,"TOWNNAME":"善化區","LI":"小新里","LIN":"7鄰","STREET":" ","SECT":" ","MAREA":"小新營","LANE":" ","ALLEY":" ","HOUSE_NO":"５６號之３７","E_COORD97":179463.10000000001,"N_COORD97":2558535.27,"ADDRESS":"小新營５６號之３７","OBJECTID":42372},"geometry":{"x":179463.0999999987,"y":2558535.2699999996}},{"attributes":{"ID":42373,"DIS_CODE":0,"TOWNNAME":"善化區","LI":"小新里","LIN":"7鄰","STREET":" ","SECT":" ","MAREA":"小新營","LANE":" ","ALLEY":" ","HOUSE_NO":"５６號之８","E_COORD97":179577.20999999999,"N_COORD97":2558607.77,"ADDRESS":"小新營５６號之８","OBJECTID":42373},"geometry":{"x":179577.21000000089,"y":2558607.7700000014}},{"attributes":{"ID":42374,"DIS_CODE":0,"TOWNNAME":"鹽水區","LI":"岸內里","LIN":"9鄰","STREET":"和平路","SECT":" ","MAREA":" ","LANE":"６３２巷","ALLEY":"８弄","HOUSE_NO":"３號","E_COORD97":174703.89000000001,"N_COORD97":2580654.3100000001,"ADDRESS":"和平路６３２巷８弄３號","OBJECTID":42374},"geometry":{"x":174703.88999999966,"y":2580654.3100000005}},{"attributes":{"ID":42375,"DIS_CODE":0,"TOWNNAME":"善化區","LI":"小新里","LIN":"7鄰","STREET":" ","SECT":" ","MAREA":"小新營","LANE":" ","ALLEY":" ","HOUSE_NO":"５６號之４１","E_COORD97":179463.42999999999,"N_COORD97":2558511.77,"ADDRESS":"小新營５６號之４１","OBJECTID":42375},"geometry":{"x":179463.43000000063,"y":2558511.7699999996}},{"attributes":{"ID":42376,"DIS_CODE":0,"TOWNNAME":"善化區","LI":"六分里","LIN":"7鄰","STREET":" ","SECT":" ","MAREA":"溪底寮","LANE":" ","ALLEY":" ","HOUSE_NO":"８號","E_COORD97":177924.64999999999,"N_COORD97":2561980.52,"ADDRESS":"溪底寮８號","OBJECTID":42376},"geometry":{"x":177924.6500000013,"y":2561980.5200000014}},{"attributes":{"ID":42377,"DIS_CODE":0,"TOWNNAME":"善化區","LI":"小新里","LIN":"7鄰","STREET":" ","SECT":" ","MAREA":"小新營","LANE":" ","ALLEY":" ","HOUSE_NO":"５６號之５６","E_COORD97":179503.45000000001,"N_COORD97":2558552.52,"ADDRESS":"小新營５６號之５６","OBJECTID":42377},"geometry":{"x":179503.45000000019,"y":2558552.5200000014}},{"attributes":{"ID":42378,"DIS_CODE":0,"TOWNNAME":"善化區","LI":"小新里","LIN":"7鄰","STREET":" ","SECT":" ","MAREA":"小新營","LANE":" ","ALLEY":" ","HOUSE_NO":"５６號之６","E_COORD97":179585.95999999999,"N_COORD97":2558605.52,"ADDRESS":"小新營５６號之６","OBJECTID":42378},"geometry":{"x":179585.95999999996,"y":2558605.5199999977}},{"attributes":{"ID":42379,"DIS_CODE":0,"TOWNNAME":"善化區","LI":"小新里","LIN":"7鄰","STREET":" ","SECT":" ","MAREA":"小新營","LANE":" ","ALLEY":" ","HOUSE_NO":"５６號之７９","E_COORD97":179561.19,"N_COORD97":2558449.77,"ADDRESS":"小新營５６號之７９","OBJECTID":42379},"geometry":{"x":179561.19000000041,"y":2558449.7699999996}},{"attributes":{"ID":42380,"DIS_CODE":0,"TOWNNAME":"善化區","LI":"胡家里","LIN":"7鄰","STREET":" ","SECT":" ","MAREA":"胡厝寮","LANE":" ","ALLEY":" ","HOUSE_NO":"５４號之３","E_COORD97":175423.76999999999,"N_COORD97":2560635.02,"ADDRESS":"胡厝寮５４號之３","OBJECTID":42380},"geometry":{"x":175423.76999999955,"y":2560635.0199999996}},{"attributes":{"ID":42381,"DIS_CODE":0,"TOWNNAME":"善化區","LI":"牛庄里","LIN":"7鄰","STREET":" ","SECT":" ","MAREA":"牛庄","LANE":" ","ALLEY":" ","HOUSE_NO":"７５號之１","E_COORD97":180745.31,"N_COORD97":2560180.77,"ADDRESS":"牛庄７５號之１","OBJECTID":42381},"geometry":{"x":180745.31000000052,"y":2560180.7700000014}},{"attributes":{"ID":42382,"DIS_CODE":0,"TOWNNAME":"善化區","LI":"牛庄里","LIN":"7鄰","STREET":" ","SECT":" ","MAREA":"牛庄","LANE":" ","ALLEY":" ","HOUSE_NO":"８８號之２","E_COORD97":180081.32000000001,"N_COORD97":2560006.77,"ADDRESS":"牛庄８８號之２","OBJECTID":42382},"geometry":{"x":180081.32000000123,"y":2560006.7699999996}},{"attributes":{"ID":42383,"DIS_CODE":0,"TOWNNAME":"善化區","LI":"牛庄里","LIN":"7鄰","STREET":" ","SECT":" ","MAREA":"牛庄","LANE":" ","ALLEY":" ","HOUSE_NO":"７２之２號","E_COORD97":180170.42999999999,"N_COORD97":2560072.02,"ADDRESS":"牛庄７２之２號","OBJECTID":42383},"geometry":{"x":180170.43000000063,"y":2560072.0199999996}},{"attributes":{"ID":42384,"DIS_CODE":0,"TOWNNAME":"善化區","LI":"牛庄里","LIN":"7鄰","STREET":" ","SECT":" ","MAREA":"牛庄","LANE":" ","ALLEY":" ","HOUSE_NO":"８５號","E_COORD97":180110.23999999999,"N_COORD97":2559991,"ADDRESS":"牛庄８５號","OBJECTID":42384},"geometry":{"x":180110.24000000022,"y":2559991.0000000019}},{"attributes":{"ID":42385,"DIS_CODE":0,"TOWNNAME":"善化區","LI":"牛庄里","LIN":"7鄰","STREET":" ","SECT":" ","MAREA":"牛庄","LANE":" ","ALLEY":" ","HOUSE_NO":"７２之３號","E_COORD97":180165.98000000001,"N_COORD97":2560072.02,"ADDRESS":"牛庄７２之３號","OBJECTID":42385},"geometry":{"x":180165.98000000045,"y":2560072.0199999996}},{"attributes":{"ID":42386,"DIS_CODE":0,"TOWNNAME":"善化區","LI":"嘉北里","LIN":"7鄰","STREET":" ","SECT":" ","MAREA":"茄拔","LANE":" ","ALLEY":" ","HOUSE_NO":"１７４之７號","E_COORD97":181057.64000000001,"N_COORD97":2559942.77,"ADDRESS":"茄拔１７４之７號","OBJECTID":42386},"geometry":{"x":181057.63999999966,"y":2559942.7699999996}},{"attributes":{"ID":42387,"DIS_CODE":0,"TOWNNAME":"鹽水區","LI":"橋南里","LIN":"7鄰","STREET":"南門路","SECT":" ","MAREA":" ","LANE":"２０１巷","ALLEY":"３３弄","HOUSE_NO":"２７號","E_COORD97":175461.82999999999,"N_COORD97":2579043.2400000002,"ADDRESS":"南門路２０１巷３３弄２７號","OBJECTID":42387},"geometry":{"x":175461.83000000101,"y":2579043.2400000021}},{"attributes":{"ID":42388,"DIS_CODE":0,"TOWNNAME":"西港區","LI":"新復里","LIN":"7鄰","STREET":" ","SECT":" ","MAREA":"新港","LANE":" ","ALLEY":" ","HOUSE_NO":"７０號","E_COORD97":165770.73000000001,"N_COORD97":2557573.1800000002,"ADDRESS":"新港７０號","OBJECTID":42388},"geometry":{"x":165770.73000000045,"y":2557573.1799999997}},{"attributes":{"ID":42389,"DIS_CODE":0,"TOWNNAME":"大內區","LI":"頭社里","LIN":"7鄰","STREET":" ","SECT":" ","MAREA":"頭社","LANE":" ","ALLEY":" ","HOUSE_NO":"８６號","E_COORD97":186626.54000000001,"N_COORD97":2561163.25,"ADDRESS":"頭社８６號","OBJECTID":42389},"geometry":{"x":186626.54000000097,"y":2561163.25}},{"attributes":{"ID":42390,"DIS_CODE":0,"TOWNNAME":"大內區","LI":"內郭里","LIN":"7鄰","STREET":" ","SECT":" ","MAREA":"後堀","LANE":" ","ALLEY":" ","HOUSE_NO":"１１號","E_COORD97":185568.45999999999,"N_COORD97":2557478.3199999998,"ADDRESS":"後堀１１號","OBJECTID":42390},"geometry":{"x":185568.45999999996,"y":2557478.3200000003}},{"attributes":{"ID":42391,"DIS_CODE":0,"TOWNNAME":"鹽水區","LI":"橋南里","LIN":"7鄰","STREET":"南門路","SECT":" ","MAREA":" ","LANE":"２０１巷","ALLEY":"３３弄","HOUSE_NO":"２８號","E_COORD97":175530.17000000001,"N_COORD97":2579012.9700000002,"ADDRESS":"南門路２０１巷３３弄２８號","OBJECTID":42391},"geometry":{"x":175530.17000000179,"y":2579012.9700000007}},{"attributes":{"ID":42392,"DIS_CODE":0,"TOWNNAME":"鹽水區","LI":"橋南里","LIN":"7鄰","STREET":"南門路","SECT":" ","MAREA":" ","LANE":"２０１巷","ALLEY":"３３弄","HOUSE_NO":"２９號","E_COORD97":175461.82000000001,"N_COORD97":2579036.7400000002,"ADDRESS":"南門路２０１巷３３弄２９號","OBJECTID":42392},"geometry":{"x":175461.82000000216,"y":2579036.7400000021}},{"attributes":{"ID":42393,"DIS_CODE":0,"TOWNNAME":"鹽水區","LI":"橋南里","LIN":"7鄰","STREET":"南門路","SECT":" ","MAREA":" ","LANE":"２０１巷","ALLEY":"３３弄","HOUSE_NO":"２號","E_COORD97":175503.39000000001,"N_COORD97":2578992.5299999998,"ADDRESS":"南門路２０１巷３３弄２號","OBJECTID":42393},"geometry":{"x":175503.3900000006,"y":2578992.5300000012}},{"attributes":{"ID":42394,"DIS_CODE":0,"TOWNNAME":"鹽水區","LI":"橋南里","LIN":"7鄰","STREET":"南門路","SECT":" ","MAREA":" ","LANE":"２０１巷","ALLEY":"３３弄","HOUSE_NO":"３０號","E_COORD97":175524.89999999999,"N_COORD97":2579012.9900000002,"ADDRESS":"南門路２０１巷３３弄３０號","OBJECTID":42394},"geometry":{"x":175524.90000000037,"y":2579012.9899999984}},{"attributes":{"ID":42395,"DIS_CODE":0,"TOWNNAME":"鹽水區","LI":"橋南里","LIN":"7鄰","STREET":"南門路","SECT":" ","MAREA":" ","LANE":"２０１巷","ALLEY":"３３弄","HOUSE_NO":"３１號","E_COORD97":175461.82999999999,"N_COORD97":2579030.77,"ADDRESS":"南門路２０１巷３３弄３１號","OBJECTID":42395},"geometry":{"x":175461.83000000101,"y":2579030.7699999977}},{"attributes":{"ID":42396,"DIS_CODE":0,"TOWNNAME":"鹽水區","LI":"橋南里","LIN":"7鄰","STREET":"南門路","SECT":" ","MAREA":" ","LANE":"２０１巷","ALLEY":"３３弄","HOUSE_NO":"３２號","E_COORD97":175519.63,"N_COORD97":2579013.0099999998,"ADDRESS":"南門路２０１巷３３弄３２號","OBJECTID":42396},"geometry":{"x":175519.62999999989,"y":2579013.0100000016}},{"attributes":{"ID":42397,"DIS_CODE":0,"TOWNNAME":"鹽水區","LI":"橋南里","LIN":"7鄰","STREET":"南門路","SECT":" ","MAREA":" ","LANE":"２０１巷","ALLEY":"３３弄","HOUSE_NO":"３３號","E_COORD97":175461.67999999999,"N_COORD97":2579023.75,"ADDRESS":"南門路２０１巷３３弄３３號","OBJECTID":42397},"geometry":{"x":175461.6799999997,"y":2579023.75}},{"attributes":{"ID":42398,"DIS_CODE":0,"TOWNNAME":"鹽水區","LI":"橋南里","LIN":"7鄰","STREET":"南門路","SECT":" ","MAREA":" ","LANE":"２０１巷","ALLEY":"３３弄","HOUSE_NO":"３４號","E_COORD97":175514.35000000001,"N_COORD97":2579013.0299999998,"ADDRESS":"南門路２０１巷３３弄３４號","OBJECTID":42398},"geometry":{"x":175514.34999999963,"y":2579013.0300000012}},{"attributes":{"ID":42399,"DIS_CODE":0,"TOWNNAME":"鹽水區","LI":"橋南里","LIN":"7鄰","STREET":"南門路","SECT":" ","MAREA":" ","LANE":"２０１巷","ALLEY":"３３弄","HOUSE_NO":"３５號","E_COORD97":175443.67000000001,"N_COORD97":2579023.2400000002,"ADDRESS":"南門路２０１巷３３弄３５號","OBJECTID":42399},"geometry":{"x":175443.66999999899,"y":2579023.2400000021}},{"attributes":{"ID":42400,"DIS_CODE":0,"TOWNNAME":"鹽水區","LI":"橋南里","LIN":"7鄰","STREET":"南門路","SECT":" ","MAREA":" ","LANE":"２０１巷","ALLEY":"３３弄","HOUSE_NO":"３６號","E_COORD97":175509.07999999999,"N_COORD97":2579013.0499999998,"ADDRESS":"南門路２０１巷３３弄３６號","OBJECTID":42400},"geometry":{"x":175509.08000000101,"y":2579013.0500000007}}]}