{"displayFieldName":"TOWNNAME","fieldAliases":{"ID":"ID","DIS_CODE":"DIS_CODE","TOWNNAME":"TOWNNAME","LI":"LI","LIN":"LIN","STREET":"STREET","SECT":"SECT","MAREA":"MAREA","LANE":"LANE","ALLEY":"ALLEY","HOUSE_NO":"HOUSE_NO","E_COORD97":"E_COORD97","N_COORD97":"N_COORD97","ADDRESS":"ADDRESS","OBJECTID":"OBJECTID"},"geometryType":"esriGeometryPoint","spatialReference":{"wkid":102443,"latestWkid":3826},"fields":[{"name":"ID","type":"esriFieldTypeDouble","alias":"ID"},{"name":"DIS_CODE","type":"esriFieldTypeInteger","alias":"DIS_CODE"},{"name":"TOWNNAME","type":"esriFieldTypeString","alias":"TOWNNAME","length":8},{"name":"LI","type":"esriFieldTypeString","alias":"LI","length":8},{"name":"LIN","type":"esriFieldTypeString","alias":"LIN","length":12},{"name":"STREET","type":"esriFieldTypeString","alias":"STREET","length":20},{"name":"SECT","type":"esriFieldTypeString","alias":"SECT","length":8},{"name":"MAREA","type":"esriFieldTypeString","alias":"MAREA","length":12},{"name":"LANE","type":"esriFieldTypeString","alias":"LANE","length":10},{"name":"ALLEY","type":"esriFieldTypeString","alias":"ALLEY","length":10},{"name":"HOUSE_NO","type":"esriFieldTypeString","alias":"HOUSE_NO","length":20},{"name":"E_COORD97","type":"esriFieldTypeDouble","alias":"E_COORD97"},{"name":"N_COORD97","type":"esriFieldTypeDouble","alias":"N_COORD97"},{"name":"ADDRESS","type":"esriFieldTypeString","alias":"ADDRESS","length":50},{"name":"OBJECTID","type":"esriFieldTypeOID","alias":"OBJECTID"}],"features":[{"attributes":{"ID":313809,"DIS_CODE":0,"TOWNNAME":"新營區","LI":"嘉芳里","LIN":" ","STREET":" ","SECT":" ","MAREA":"茄苳腳","LANE":" ","ALLEY":" ","HOUSE_NO":"５７之１３號","E_COORD97":176894.25,"N_COORD97":2578391.77,"ADDRESS":"茄苳腳５７之１３號","OBJECTID":313801},"geometry":{"x":176894.24999999907,"y":2578391.7700000014}},{"attributes":{"ID":313810,"DIS_CODE":0,"TOWNNAME":"新營區","LI":"大宏里","LIN":"12鄰","STREET":"開元路","SECT":" ","MAREA":" ","LANE":" ","ALLEY":" ","HOUSE_NO":"６１號之６","E_COORD97":180885.98999999999,"N_COORD97":2578769.0600000001,"ADDRESS":"開元路６１號之６","OBJECTID":313802},"geometry":{"x":180885.99000000115,"y":2578769.0600000042}},{"attributes":{"ID":313811,"DIS_CODE":0,"TOWNNAME":"新營區","LI":"興業里","LIN":"13鄰","STREET":"中興路","SECT":" ","MAREA":" ","LANE":"１３巷","ALLEY":" ","HOUSE_NO":"２６之４號","E_COORD97":180256.26000000001,"N_COORD97":2577960.25,"ADDRESS":"中興路１３巷２６之４號","OBJECTID":313803},"geometry":{"x":180256.26000000071,"y":2577960.2500000037}},{"attributes":{"ID":313812,"DIS_CODE":0,"TOWNNAME":"新營區","LI":"太南里","LIN":" ","STREET":" ","SECT":" ","MAREA":"太子宮","LANE":" ","ALLEY":" ","HOUSE_NO":"２７２之３號","E_COORD97":176155.89000000001,"N_COORD97":2576771.8999999999,"ADDRESS":"太子宮２７２之３號","OBJECTID":313804},"geometry":{"x":176155.8900000006,"y":2576771.9000000004}},{"attributes":{"ID":313813,"DIS_CODE":0,"TOWNNAME":"新營區","LI":"土庫里","LIN":"9鄰","STREET":" ","SECT":" ","MAREA":"土庫","LANE":" ","ALLEY":" ","HOUSE_NO":"７９號之１","E_COORD97":183150.01000000001,"N_COORD97":2579777.52,"ADDRESS":"土庫７９號之１","OBJECTID":313805},"geometry":{"x":183150.01000000071,"y":2579777.5199999996}},{"attributes":{"ID":313814,"DIS_CODE":0,"TOWNNAME":"新營區","LI":"太南里","LIN":" ","STREET":" ","SECT":" ","MAREA":"太子宮","LANE":" ","ALLEY":" ","HOUSE_NO":"２６６之２號","E_COORD97":176213.37,"N_COORD97":2576810.3700000001,"ADDRESS":"太子宮２６６之２號","OBJECTID":313806},"geometry":{"x":176213.37000000011,"y":2576810.370000001}},{"attributes":{"ID":313815,"DIS_CODE":0,"TOWNNAME":"新營區","LI":"嘉芳里","LIN":"15鄰","STREET":"復興路","SECT":" ","MAREA":" ","LANE":"１０００巷","ALLEY":" ","HOUSE_NO":"１號之１９","E_COORD97":176330.14000000001,"N_COORD97":2578958.2599999998,"ADDRESS":"復興路１０００巷１之１９號","OBJECTID":313807},"geometry":{"x":176330.13999999873,"y":2578958.2600000016}},{"attributes":{"ID":313816,"DIS_CODE":0,"TOWNNAME":"新營區","LI":"埤寮里","LIN":" ","STREET":"中正路","SECT":" ","MAREA":" ","LANE":"４３０巷","ALLEY":" ","HOUSE_NO":"１１０之１０號","E_COORD97":180527,"N_COORD97":2580423.0800000001,"ADDRESS":"中正路４３０巷１１０之１０號","OBJECTID":313808},"geometry":{"x":180527,"y":2580423.0800000038}},{"attributes":{"ID":313817,"DIS_CODE":0,"TOWNNAME":"新營區","LI":"興業里","LIN":" ","STREET":"中興路","SECT":" ","MAREA":" ","LANE":"１３巷","ALLEY":" ","HOUSE_NO":"１２之２號","E_COORD97":180192.78,"N_COORD97":2577962.77,"ADDRESS":"中興路１３巷１２之２號","OBJECTID":313809},"geometry":{"x":180192.78000000026,"y":2577962.7699999977}},{"attributes":{"ID":313818,"DIS_CODE":0,"TOWNNAME":"鹽水區","LI":"橋南里","LIN":"7鄰","STREET":"忠孝路","SECT":" ","MAREA":" ","LANE":"１５５巷","ALLEY":" ","HOUSE_NO":"３號","E_COORD97":175534.04999999999,"N_COORD97":2578879.6200000001,"ADDRESS":"忠孝路１５５巷３號","OBJECTID":313810},"geometry":{"x":175534.04999999981,"y":2578879.620000001}},{"attributes":{"ID":313819,"DIS_CODE":0,"TOWNNAME":"鹽水區","LI":"橋南里","LIN":"7鄰","STREET":"忠孝路","SECT":" ","MAREA":" ","LANE":"１５５巷","ALLEY":" ","HOUSE_NO":"４６號","E_COORD97":175516.67999999999,"N_COORD97":2578787.1899999999,"ADDRESS":"忠孝路１５５巷４６號","OBJECTID":313811},"geometry":{"x":175516.68000000063,"y":2578787.1899999976}},{"attributes":{"ID":313820,"DIS_CODE":0,"TOWNNAME":"新營區","LI":"南紙里","LIN":"15鄰","STREET":"南紙街","SECT":" ","MAREA":" ","LANE":"１５６巷","ALLEY":" ","HOUSE_NO":"２２號","E_COORD97":177808.06,"N_COORD97":2577339.5600000001,"ADDRESS":"南紙街１５６巷２２號","OBJECTID":313812},"geometry":{"x":177808.06000000052,"y":2577339.5600000024}},{"attributes":{"ID":313821,"DIS_CODE":0,"TOWNNAME":"安平區","LI":"億載里","LIN":"7鄰","STREET":"永華十一街","SECT":" ","MAREA":" ","LANE":"１７巷","ALLEY":" ","HOUSE_NO":"２３號","E_COORD97":164038.41,"N_COORD97":2543421.9399999999,"ADDRESS":"永華十一街１７巷２３號","OBJECTID":313813},"geometry":{"x":164038.41000000015,"y":2543421.9400000013}},{"attributes":{"ID":313822,"DIS_CODE":0,"TOWNNAME":"學甲區","LI":"仁得里","LIN":"17鄰","STREET":"四維街","SECT":" ","MAREA":" ","LANE":" ","ALLEY":" ","HOUSE_NO":"１８１號之１","E_COORD97":165740.76000000001,"N_COORD97":2569842.3799999999,"ADDRESS":"四維街１８１號之１","OBJECTID":313814},"geometry":{"x":165740.75999999978,"y":2569842.3800000008}},{"attributes":{"ID":313823,"DIS_CODE":0,"TOWNNAME":"學甲區","LI":"仁得里","LIN":"17鄰","STREET":"四維街","SECT":" ","MAREA":" ","LANE":" ","ALLEY":" ","HOUSE_NO":"１８１號之２","E_COORD97":165738.84,"N_COORD97":2569837.29,"ADDRESS":"四維街１８１號之２","OBJECTID":313815},"geometry":{"x":165738.83999999985,"y":2569837.290000001}},{"attributes":{"ID":313824,"DIS_CODE":0,"TOWNNAME":"學甲區","LI":"仁得里","LIN":"17鄰","STREET":"四維街","SECT":" ","MAREA":" ","LANE":" ","ALLEY":" ","HOUSE_NO":"１８１號","E_COORD97":165753.66,"N_COORD97":2569851.04,"ADDRESS":"四維街１８１號","OBJECTID":313816},"geometry":{"x":165753.66000000015,"y":2569851.0400000028}},{"attributes":{"ID":313825,"DIS_CODE":0,"TOWNNAME":"學甲區","LI":"仁得里","LIN":"17鄰","STREET":"四維街","SECT":" ","MAREA":" ","LANE":" ","ALLEY":" ","HOUSE_NO":"１８３號","E_COORD97":165749.56,"N_COORD97":2569852.6400000001,"ADDRESS":"四維街１８３號","OBJECTID":313817},"geometry":{"x":165749.56000000052,"y":2569852.6400000025}},{"attributes":{"ID":313826,"DIS_CODE":0,"TOWNNAME":"學甲區","LI":"仁得里","LIN":"17鄰","STREET":"四維街","SECT":" ","MAREA":" ","LANE":" ","ALLEY":" ","HOUSE_NO":"１８５號","E_COORD97":165745.48000000001,"N_COORD97":2569853.6099999999,"ADDRESS":"四維街１８５號","OBJECTID":313818},"geometry":{"x":165745.48000000045,"y":2569853.6099999994}},{"attributes":{"ID":313827,"DIS_CODE":0,"TOWNNAME":"鹽水區","LI":"岸內里","LIN":"9鄰","STREET":"和平路","SECT":" ","MAREA":" ","LANE":"６７８巷","ALLEY":" ","HOUSE_NO":"７號","E_COORD97":174621.70999999999,"N_COORD97":2580606.3700000001,"ADDRESS":"和平路６７８巷７號","OBJECTID":313819},"geometry":{"x":174621.71000000089,"y":2580606.3700000029}},{"attributes":{"ID":313828,"DIS_CODE":0,"TOWNNAME":"學甲區","LI":"仁得里","LIN":"17鄰","STREET":"四維街","SECT":" ","MAREA":" ","LANE":" ","ALLEY":" ","HOUSE_NO":"１８７號","E_COORD97":165741.38,"N_COORD97":2569855.1800000002,"ADDRESS":"四維街１８７號","OBJECTID":313820},"geometry":{"x":165741.38000000082,"y":2569855.1800000016}},{"attributes":{"ID":313829,"DIS_CODE":0,"TOWNNAME":"學甲區","LI":"仁得里","LIN":"17鄰","STREET":"四維街","SECT":" ","MAREA":" ","LANE":" ","ALLEY":" ","HOUSE_NO":"１８９號","E_COORD97":165736.98000000001,"N_COORD97":2569857.1099999999,"ADDRESS":"四維街１８９號","OBJECTID":313821},"geometry":{"x":165736.98000000045,"y":2569857.1099999994}},{"attributes":{"ID":313830,"DIS_CODE":0,"TOWNNAME":"新營區","LI":"嘉芳里","LIN":" ","STREET":" ","SECT":" ","MAREA":"茄苳腳","LANE":" ","ALLEY":" ","HOUSE_NO":"５０之３８號","E_COORD97":176828.57000000001,"N_COORD97":2578346.6899999999,"ADDRESS":"茄苳腳５０之３８號","OBJECTID":313822},"geometry":{"x":176828.57000000123,"y":2578346.6900000032}},{"attributes":{"ID":313831,"DIS_CODE":0,"TOWNNAME":"新營區","LI":"埤寮里","LIN":"1鄰","STREET":"中正路","SECT":" ","MAREA":" ","LANE":" ","ALLEY":" ","HOUSE_NO":"５２４號之１０","E_COORD97":180157.10000000001,"N_COORD97":2580922.0699999998,"ADDRESS":"中正路５２４號之１０","OBJECTID":313823},"geometry":{"x":180157.10000000056,"y":2580922.0700000022}},{"attributes":{"ID":313832,"DIS_CODE":0,"TOWNNAME":"新營區","LI":"大宏里","LIN":"8鄰","STREET":"文昌街","SECT":" ","MAREA":" ","LANE":" ","ALLEY":" ","HOUSE_NO":"２２號之５","E_COORD97":180405.73000000001,"N_COORD97":2578423.5800000001,"ADDRESS":"文昌街２２號之５","OBJECTID":313824},"geometry":{"x":180405.73000000231,"y":2578423.5800000019}},{"attributes":{"ID":313833,"DIS_CODE":0,"TOWNNAME":"新營區","LI":"姑爺里","LIN":"11鄰","STREET":" ","SECT":" ","MAREA":"挖仔","LANE":" ","ALLEY":" ","HOUSE_NO":"４３號之２０","E_COORD97":173971.48999999999,"N_COORD97":2575510.4700000002,"ADDRESS":"挖仔４３之２０號","OBJECTID":313825},"geometry":{"x":173971.49000000022,"y":2575510.4700000007}},{"attributes":{"ID":313834,"DIS_CODE":0,"TOWNNAME":"新營區","LI":"興業里","LIN":" ","STREET":"中興路","SECT":" ","MAREA":" ","LANE":"１５巷","ALLEY":" ","HOUSE_NO":"２５之４號","E_COORD97":180272.5,"N_COORD97":2577933.6000000001,"ADDRESS":"中興路１５巷２５之４號","OBJECTID":313826},"geometry":{"x":180272.5,"y":2577933.5999999978}},{"attributes":{"ID":313835,"DIS_CODE":0,"TOWNNAME":"新營區","LI":"太南里","LIN":" ","STREET":" ","SECT":" ","MAREA":"太子宮","LANE":" ","ALLEY":" ","HOUSE_NO":"２７６之１號","E_COORD97":176070.81,"N_COORD97":2576736.8799999999,"ADDRESS":"太子宮２７６之１號","OBJECTID":313827},"geometry":{"x":176070.80999999959,"y":2576736.879999999}},{"attributes":{"ID":313836,"DIS_CODE":0,"TOWNNAME":"新營區","LI":"護鎮里","LIN":" ","STREET":" ","SECT":" ","MAREA":"後鎮","LANE":" ","ALLEY":" ","HOUSE_NO":"９７之４號","E_COORD97":179056.23000000001,"N_COORD97":2580931.7200000002,"ADDRESS":"後鎮９７之４號","OBJECTID":313828},"geometry":{"x":179056.22999999952,"y":2580931.7200000025}},{"attributes":{"ID":313837,"DIS_CODE":0,"TOWNNAME":"新營區","LI":"太南里","LIN":" ","STREET":" ","SECT":" ","MAREA":"太子宮","LANE":" ","ALLEY":" ","HOUSE_NO":"２６７之１６號","E_COORD97":176240.03,"N_COORD97":2576775.9199999999,"ADDRESS":"太子宮２６７之１６號","OBJECTID":313829},"geometry":{"x":176240.03000000212,"y":2576775.9200000037}},{"attributes":{"ID":313838,"DIS_CODE":0,"TOWNNAME":"新營區","LI":"嘉芳里","LIN":" ","STREET":" ","SECT":" ","MAREA":"茄苳腳","LANE":" ","ALLEY":" ","HOUSE_NO":"５７之１２號","E_COORD97":176901.39000000001,"N_COORD97":2578388.4100000001,"ADDRESS":"茄苳腳５７之１２號","OBJECTID":313830},"geometry":{"x":176901.38999999966,"y":2578388.4100000001}},{"attributes":{"ID":313839,"DIS_CODE":0,"TOWNNAME":"新營區","LI":"新東里","LIN":"20鄰","STREET":"東明街","SECT":" ","MAREA":" ","LANE":"２巷","ALLEY":" ","HOUSE_NO":"２０號","E_COORD97":180837.501755,"N_COORD97":2579527.2596399998,"ADDRESS":"東明街２巷２０號","OBJECTID":313831},"geometry":{"x":180837.50175500009,"y":2579527.259641001}},{"attributes":{"ID":313840,"DIS_CODE":0,"TOWNNAME":"新營區","LI":"太南里","LIN":" ","STREET":" ","SECT":" ","MAREA":"太子宮","LANE":" ","ALLEY":" ","HOUSE_NO":"２６７之１５號","E_COORD97":176266.69,"N_COORD97":2576791.29,"ADDRESS":"太子宮２６７之１５號","OBJECTID":313832},"geometry":{"x":176266.69000000134,"y":2576791.2899999991}},{"attributes":{"ID":313841,"DIS_CODE":0,"TOWNNAME":"新營區","LI":"太南里","LIN":" ","STREET":" ","SECT":" ","MAREA":"太子宮","LANE":" ","ALLEY":" ","HOUSE_NO":"２７５之１號","E_COORD97":176140.29000000001,"N_COORD97":2576721.0299999998,"ADDRESS":"太子宮２７５之１號","OBJECTID":313833},"geometry":{"x":176140.29000000097,"y":2576721.0300000012}},{"attributes":{"ID":313842,"DIS_CODE":0,"TOWNNAME":"安平區","LI":"億載里","LIN":"7鄰","STREET":"永華十一街","SECT":" ","MAREA":" ","LANE":"１７巷","ALLEY":" ","HOUSE_NO":"２１號","E_COORD97":164043.59,"N_COORD97":2543421.9399999999,"ADDRESS":"永華十一街１７巷２１號","OBJECTID":313834},"geometry":{"x":164043.58999999985,"y":2543421.9400000013}},{"attributes":{"ID":313843,"DIS_CODE":0,"TOWNNAME":"鹽水區","LI":"橋南里","LIN":"7鄰","STREET":"南門路","SECT":" ","MAREA":" ","LANE":"２０１巷","ALLEY":" ","HOUSE_NO":"７１號","E_COORD97":175597.54000000001,"N_COORD97":2578961.0299999998,"ADDRESS":"南門路２０１巷７１號","OBJECTID":313835},"geometry":{"x":175597.54000000097,"y":2578961.0299999975}},{"attributes":{"ID":313844,"DIS_CODE":0,"TOWNNAME":"鹽水區","LI":"橋南里","LIN":"7鄰","STREET":"南門路","SECT":" ","MAREA":" ","LANE":"２０１巷","ALLEY":" ","HOUSE_NO":"７３之１號","E_COORD97":175618.84,"N_COORD97":2579052.3100000001,"ADDRESS":"南門路２０１巷７３之１號","OBJECTID":313836},"geometry":{"x":175618.84000000171,"y":2579052.3100000042}},{"attributes":{"ID":313845,"DIS_CODE":0,"TOWNNAME":"鹽水區","LI":"橋南里","LIN":"7鄰","STREET":"南門路","SECT":" ","MAREA":" ","LANE":"２０１巷","ALLEY":" ","HOUSE_NO":"７３號之１","E_COORD97":175618.84,"N_COORD97":2579052.3100000001,"ADDRESS":"南門路２０１巷７３號之１","OBJECTID":313837},"geometry":{"x":175618.84000000171,"y":2579052.3100000042}},{"attributes":{"ID":313846,"DIS_CODE":0,"TOWNNAME":"鹽水區","LI":"橋南里","LIN":"7鄰","STREET":"南門路","SECT":" ","MAREA":" ","LANE":"２０１巷","ALLEY":" ","HOUSE_NO":"７３號","E_COORD97":175602.32000000001,"N_COORD97":2578960.0600000001,"ADDRESS":"南門路２０１巷７３號","OBJECTID":313838},"geometry":{"x":175602.3200000003,"y":2578960.0600000024}},{"attributes":{"ID":313847,"DIS_CODE":0,"TOWNNAME":"鹽水區","LI":"橋南里","LIN":"7鄰","STREET":"南門路","SECT":" ","MAREA":" ","LANE":"２０１巷","ALLEY":" ","HOUSE_NO":"９號","E_COORD97":175436.70000000001,"N_COORD97":2578999.3300000001,"ADDRESS":"南門路２０１巷９號","OBJECTID":313839},"geometry":{"x":175436.70000000019,"y":2578999.3300000001}},{"attributes":{"ID":313848,"DIS_CODE":0,"TOWNNAME":"鹽水區","LI":"橋南里","LIN":"7鄰","STREET":"南門路","SECT":" ","MAREA":" ","LANE":"１９９巷","ALLEY":" ","HOUSE_NO":"９號","E_COORD97":175414.67999999999,"N_COORD97":2579054.9700000002,"ADDRESS":"南門路１９９巷９號","OBJECTID":313840},"geometry":{"x":175414.68000000156,"y":2579054.9700000025}},{"attributes":{"ID":313849,"DIS_CODE":0,"TOWNNAME":"學甲區","LI":"仁得里","LIN":"17鄰","STREET":"四維街","SECT":" ","MAREA":" ","LANE":" ","ALLEY":" ","HOUSE_NO":"１９１號","E_COORD97":165732.41,"N_COORD97":2569858.5600000001,"ADDRESS":"四維街１９１號","OBJECTID":313841},"geometry":{"x":165732.41000000201,"y":2569858.5600000005}},{"attributes":{"ID":313850,"DIS_CODE":0,"TOWNNAME":"學甲區","LI":"仁得里","LIN":"17鄰","STREET":"四維街","SECT":" ","MAREA":" ","LANE":" ","ALLEY":" ","HOUSE_NO":"１９３號","E_COORD97":165727.88,"N_COORD97":2569860.02,"ADDRESS":"四維街１９３號","OBJECTID":313842},"geometry":{"x":165727.88000000082,"y":2569860.0199999996}},{"attributes":{"ID":313851,"DIS_CODE":0,"TOWNNAME":"學甲區","LI":"仁得里","LIN":"17鄰","STREET":"四維街","SECT":" ","MAREA":" ","LANE":" ","ALLEY":" ","HOUSE_NO":"１９５號","E_COORD97":165723.01000000001,"N_COORD97":2569861.5099999998,"ADDRESS":"四維街１９５號","OBJECTID":313843},"geometry":{"x":165723.01000000071,"y":2569861.5099999998}},{"attributes":{"ID":313852,"DIS_CODE":0,"TOWNNAME":"學甲區","LI":"仁得里","LIN":"17鄰","STREET":"四維街","SECT":" ","MAREA":" ","LANE":" ","ALLEY":" ","HOUSE_NO":"２０７號","E_COORD97":165714.03,"N_COORD97":2569866.1400000001,"ADDRESS":"四維街２０７號","OBJECTID":313844},"geometry":{"x":165714.03000000026,"y":2569866.1400000025}},{"attributes":{"ID":313853,"DIS_CODE":0,"TOWNNAME":"學甲區","LI":"仁得里","LIN":"17鄰","STREET":"四維街","SECT":" ","MAREA":" ","LANE":" ","ALLEY":" ","HOUSE_NO":"２０９號","E_COORD97":165709.44,"N_COORD97":2569867.6200000001,"ADDRESS":"四維街２０９號","OBJECTID":313845},"geometry":{"x":165709.44000000134,"y":2569867.6200000029}},{"attributes":{"ID":313854,"DIS_CODE":0,"TOWNNAME":"新營區","LI":"嘉芳里","LIN":" ","STREET":" ","SECT":" ","MAREA":"茄苳腳","LANE":" ","ALLEY":" ","HOUSE_NO":"５０之２９號","E_COORD97":176832.73999999999,"N_COORD97":2578363.2799999998,"ADDRESS":"茄苳腳５０之２９號","OBJECTID":313846},"geometry":{"x":176832.74000000115,"y":2578363.2800000012}},{"attributes":{"ID":313855,"DIS_CODE":0,"TOWNNAME":"新營區","LI":"嘉芳里","LIN":"4鄰","STREET":" ","SECT":" ","MAREA":"茄苳腳","LANE":" ","ALLEY":" ","HOUSE_NO":"５０號之２７","E_COORD97":176843.01000000001,"N_COORD97":2578372.0899999999,"ADDRESS":"茄苳腳５０之２７號","OBJECTID":313847},"geometry":{"x":176843.00999999978,"y":2578372.0900000017}},{"attributes":{"ID":313856,"DIS_CODE":0,"TOWNNAME":"新營區","LI":"姑爺里","LIN":"12鄰","STREET":" ","SECT":" ","MAREA":"挖仔","LANE":" ","ALLEY":" ","HOUSE_NO":"４９號之１","E_COORD97":173872.26999999999,"N_COORD97":2575560.7999999998,"ADDRESS":"挖仔４９之１號","OBJECTID":313848},"geometry":{"x":173872.26999999955,"y":2575560.8000000026}},{"attributes":{"ID":313857,"DIS_CODE":0,"TOWNNAME":"新營區","LI":"太南里","LIN":" ","STREET":" ","SECT":" ","MAREA":"太子宮","LANE":" ","ALLEY":" ","HOUSE_NO":"２８１之２號","E_COORD97":176134.73999999999,"N_COORD97":2576632.46,"ADDRESS":"太子宮２８１之２號","OBJECTID":313849},"geometry":{"x":176134.74000000022,"y":2576632.4600000009}},{"attributes":{"ID":313858,"DIS_CODE":0,"TOWNNAME":"新營區","LI":"太南里","LIN":" ","STREET":" ","SECT":" ","MAREA":"太子宮","LANE":" ","ALLEY":" ","HOUSE_NO":"２６７之１８號","E_COORD97":176240.07999999999,"N_COORD97":2576785.8799999999,"ADDRESS":"太子宮２６７之１８號","OBJECTID":313850},"geometry":{"x":176240.08000000101,"y":2576785.8800000008}},{"attributes":{"ID":313859,"DIS_CODE":0,"TOWNNAME":"新營區","LI":"嘉芳里","LIN":" ","STREET":" ","SECT":" ","MAREA":"茄苳腳","LANE":" ","ALLEY":" ","HOUSE_NO":"５０之１７號","E_COORD97":176898.26999999999,"N_COORD97":2578378.46,"ADDRESS":"茄苳腳５０之１７號","OBJECTID":313851},"geometry":{"x":176898.26999999955,"y":2578378.4600000028}},{"attributes":{"ID":313860,"DIS_CODE":0,"TOWNNAME":"新營區","LI":"大宏里","LIN":"8鄰","STREET":"文昌街","SECT":" ","MAREA":" ","LANE":" ","ALLEY":" ","HOUSE_NO":"２２號之３","E_COORD97":180414.95000000001,"N_COORD97":2578424.6400000001,"ADDRESS":"文昌街２２號之３","OBJECTID":313852},"geometry":{"x":180414.95000000112,"y":2578424.6400000006}},{"attributes":{"ID":313861,"DIS_CODE":0,"TOWNNAME":"新營區","LI":"嘉芳里","LIN":"4鄰","STREET":" ","SECT":" ","MAREA":"茄苳腳","LANE":" ","ALLEY":" ","HOUSE_NO":"５０之３５號","E_COORD97":176816.41,"N_COORD97":2578371.1099999999,"ADDRESS":"茄苳腳５０之３５號","OBJECTID":313853},"geometry":{"x":176816.41000000015,"y":2578371.1100000013}},{"attributes":{"ID":313862,"DIS_CODE":0,"TOWNNAME":"歸仁區","LI":"媽廟里","LIN":"22鄰","STREET":"保大路","SECT":"一段","MAREA":" ","LANE":" ","ALLEY":" ","HOUSE_NO":"１６９號","E_COORD97":177641.79063,"N_COORD97":2544007.90313,"ADDRESS":"保大路一段１６９號","OBJECTID":313854},"geometry":{"x":177641.79063000064,"y":2544007.9031310007}},{"attributes":{"ID":313863,"DIS_CODE":0,"TOWNNAME":"新營區","LI":"興業里","LIN":" ","STREET":"中興路","SECT":" ","MAREA":" ","LANE":"１３巷","ALLEY":" ","HOUSE_NO":"２之１號","E_COORD97":180147.63,"N_COORD97":2577965.1899999999,"ADDRESS":"中興路１３巷２之１號","OBJECTID":313855},"geometry":{"x":180147.62999999989,"y":2577965.1899999995}},{"attributes":{"ID":313864,"DIS_CODE":0,"TOWNNAME":"新營區","LI":"新北里","LIN":"20鄰","STREET":"民生路","SECT":" ","MAREA":" ","LANE":"３３０巷","ALLEY":" ","HOUSE_NO":"７號","E_COORD97":178959.23999999999,"N_COORD97":2579180.1200000001,"ADDRESS":"民生路３３０巷７號","OBJECTID":313856},"geometry":{"x":178959.24000000022,"y":2579180.1200000029}},{"attributes":{"ID":313865,"DIS_CODE":0,"TOWNNAME":"鹽水區","LI":"橋南里","LIN":"7鄰","STREET":"南門路","SECT":" ","MAREA":" ","LANE":"２０１巷","ALLEY":" ","HOUSE_NO":"１３號","E_COORD97":175447.56,"N_COORD97":2578996.3999999999,"ADDRESS":"南門路２０１巷１３號","OBJECTID":313857},"geometry":{"x":175447.56000000145,"y":2578996.4000000004}},{"attributes":{"ID":313866,"DIS_CODE":0,"TOWNNAME":"鹽水區","LI":"橋南里","LIN":"7鄰","STREET":"南門路","SECT":" ","MAREA":" ","LANE":"２０１巷","ALLEY":" ","HOUSE_NO":"１號","E_COORD97":175418.67999999999,"N_COORD97":2579005.7599999998,"ADDRESS":"南門路２０１巷１號","OBJECTID":313858},"geometry":{"x":175418.68000000063,"y":2579005.7600000016}},{"attributes":{"ID":313867,"DIS_CODE":0,"TOWNNAME":"鹽水區","LI":"橋南里","LIN":"7鄰","STREET":"南門路","SECT":" ","MAREA":" ","LANE":"２０１巷","ALLEY":" ","HOUSE_NO":"２１號","E_COORD97":175467.07000000001,"N_COORD97":2578991.1000000001,"ADDRESS":"南門路２０１巷２１號","OBJECTID":313859},"geometry":{"x":175467.07000000123,"y":2578991.0999999996}},{"attributes":{"ID":313868,"DIS_CODE":0,"TOWNNAME":"鹽水區","LI":"橋南里","LIN":"7鄰","STREET":"南門路","SECT":" ","MAREA":" ","LANE":"２０１巷","ALLEY":" ","HOUSE_NO":"２３號","E_COORD97":175477.60000000001,"N_COORD97":2579028.3500000001,"ADDRESS":"南門路２０１巷２３號","OBJECTID":313860},"geometry":{"x":175477.59999999963,"y":2579028.3500000015}},{"attributes":{"ID":313869,"DIS_CODE":0,"TOWNNAME":"新營區","LI":"忠政里","LIN":"12鄰","STREET":"府西路","SECT":" ","MAREA":" ","LANE":"２０２巷","ALLEY":" ","HOUSE_NO":"３９號","E_COORD97":179926.79000000001,"N_COORD97":2579544.29,"ADDRESS":"府西路２０２巷３９號","OBJECTID":313861},"geometry":{"x":179926.7900000019,"y":2579544.2899999991}},{"attributes":{"ID":313870,"DIS_CODE":0,"TOWNNAME":"新營區","LI":"太南里","LIN":" ","STREET":" ","SECT":" ","MAREA":"太子宮","LANE":" ","ALLEY":" ","HOUSE_NO":"２６７之１號","E_COORD97":176235.01000000001,"N_COORD97":2576841.27,"ADDRESS":"太子宮２６７之１號","OBJECTID":313862},"geometry":{"x":176235.01000000071,"y":2576841.2700000014}},{"attributes":{"ID":313871,"DIS_CODE":0,"TOWNNAME":"新營區","LI":"嘉芳里","LIN":" ","STREET":" ","SECT":" ","MAREA":"茄苳腳","LANE":" ","ALLEY":" ","HOUSE_NO":"５０之２４號","E_COORD97":176855.29000000001,"N_COORD97":2578373.1299999999,"ADDRESS":"茄苳腳５０之２４號","OBJECTID":313863},"geometry":{"x":176855.29000000097,"y":2578373.129999999}},{"attributes":{"ID":313872,"DIS_CODE":0,"TOWNNAME":"新營區","LI":"新南里","LIN":"15鄰","STREET":"民治路","SECT":" ","MAREA":" ","LANE":"３００巷","ALLEY":" ","HOUSE_NO":"３７號","E_COORD97":178723.16,"N_COORD97":2578522.3300000001,"ADDRESS":"民治路３００巷３７號","OBJECTID":313864},"geometry":{"x":178723.16000000108,"y":2578522.3299999982}},{"attributes":{"ID":313873,"DIS_CODE":0,"TOWNNAME":"新營區","LI":"忠政里","LIN":"6鄰","STREET":"府西路","SECT":" ","MAREA":" ","LANE":"２２巷","ALLEY":" ","HOUSE_NO":"６１號","E_COORD97":179876.16,"N_COORD97":2579236.6600000001,"ADDRESS":"府西路２２巷６１號","OBJECTID":313865},"geometry":{"x":179876.16000000015,"y":2579236.660000002}},{"attributes":{"ID":313874,"DIS_CODE":0,"TOWNNAME":"學甲區","LI":"仁得里","LIN":"17鄰","STREET":"四維街","SECT":" ","MAREA":" ","LANE":" ","ALLEY":" ","HOUSE_NO":"２１１號","E_COORD97":165705.44,"N_COORD97":2569869.1699999999,"ADDRESS":"四維街２１１號","OBJECTID":313866},"geometry":{"x":165705.44000000134,"y":2569869.1700000018}},{"attributes":{"ID":313875,"DIS_CODE":0,"TOWNNAME":"學甲區","LI":"仁得里","LIN":"17鄰","STREET":"四維街","SECT":" ","MAREA":" ","LANE":" ","ALLEY":" ","HOUSE_NO":"２１３號","E_COORD97":165699.70999999999,"N_COORD97":2569867.04,"ADDRESS":"四維街２１３號","OBJECTID":313867},"geometry":{"x":165699.71000000089,"y":2569867.0399999991}},{"attributes":{"ID":313876,"DIS_CODE":0,"TOWNNAME":"學甲區","LI":"仁得里","LIN":"17鄰","STREET":"四維街","SECT":" ","MAREA":" ","LANE":" ","ALLEY":" ","HOUSE_NO":"２１５號","E_COORD97":165695.54999999999,"N_COORD97":2569868.6200000001,"ADDRESS":"四維街２１５號","OBJECTID":313868},"geometry":{"x":165695.55000000075,"y":2569868.620000001}},{"attributes":{"ID":313877,"DIS_CODE":0,"TOWNNAME":"新營區","LI":"延平里","LIN":"4鄰","STREET":"成功街","SECT":" ","MAREA":" ","LANE":" ","ALLEY":" ","HOUSE_NO":"２６號","E_COORD97":179704.08202100001,"N_COORD97":2577832.2336200001,"ADDRESS":"成功街２６號","OBJECTID":313869},"geometry":{"x":179704.08202100173,"y":2577832.2336220033}},{"attributes":{"ID":313878,"DIS_CODE":0,"TOWNNAME":"新營區","LI":"太南里","LIN":" ","STREET":" ","SECT":" ","MAREA":"太子宮","LANE":" ","ALLEY":" ","HOUSE_NO":"２７２之１號","E_COORD97":176142.54000000001,"N_COORD97":2576759.7799999998,"ADDRESS":"太子宮２７２之１號","OBJECTID":313870},"geometry":{"x":176142.54000000004,"y":2576759.7800000012}},{"attributes":{"ID":313879,"DIS_CODE":0,"TOWNNAME":"新營區","LI":"嘉芳里","LIN":" ","STREET":" ","SECT":" ","MAREA":"茄苳腳","LANE":" ","ALLEY":" ","HOUSE_NO":"５０之２１號","E_COORD97":176868.59,"N_COORD97":2578375.2799999998,"ADDRESS":"茄苳腳５０之２１號","OBJECTID":313871},"geometry":{"x":176868.59000000078,"y":2578375.2799999993}},{"attributes":{"ID":313880,"DIS_CODE":0,"TOWNNAME":"新營區","LI":"嘉芳里","LIN":"4鄰","STREET":" ","SECT":" ","MAREA":"茄苳腳","LANE":" ","ALLEY":" ","HOUSE_NO":"５０號之２２","E_COORD97":176864.5,"N_COORD97":2578374.1899999999,"ADDRESS":"茄苳腳５０之２２號","OBJECTID":313872},"geometry":{"x":176864.50000000093,"y":2578374.1900000013}},{"attributes":{"ID":313881,"DIS_CODE":0,"TOWNNAME":"新營區","LI":"嘉芳里","LIN":"10鄰","STREET":" ","SECT":" ","MAREA":"茄苳腳","LANE":" ","ALLEY":" ","HOUSE_NO":"４３號之４","E_COORD97":176816.23999999999,"N_COORD97":2578577.0899999999,"ADDRESS":"茄苳腳４３之４號","OBJECTID":313873},"geometry":{"x":176816.24000000022,"y":2578577.0899999999}},{"attributes":{"ID":313882,"DIS_CODE":0,"TOWNNAME":"新營區","LI":"護鎮里","LIN":"9鄰","STREET":"建國路","SECT":" ","MAREA":" ","LANE":"３１３巷","ALLEY":" ","HOUSE_NO":"２１號","E_COORD97":178469.368563,"N_COORD97":2580631.7556599998,"ADDRESS":"建國路３１３巷２１號","OBJECTID":313874},"geometry":{"x":178469.36856300104,"y":2580631.7556600012}},{"attributes":{"ID":313883,"DIS_CODE":0,"TOWNNAME":"新營區","LI":"太南里","LIN":" ","STREET":" ","SECT":" ","MAREA":"太子宮","LANE":" ","ALLEY":" ","HOUSE_NO":"２７２之５號","E_COORD97":176145.51000000001,"N_COORD97":2576740.9300000002,"ADDRESS":"太子宮２７２之５號","OBJECTID":313875},"geometry":{"x":176145.51000000071,"y":2576740.9299999997}},{"attributes":{"ID":313884,"DIS_CODE":0,"TOWNNAME":"新營區","LI":"嘉芳里","LIN":" ","STREET":" ","SECT":" ","MAREA":"茄苳腳","LANE":" ","ALLEY":" ","HOUSE_NO":"４６號","E_COORD97":176914.89999999999,"N_COORD97":2578556.6099999999,"ADDRESS":"茄苳腳４６號","OBJECTID":313876},"geometry":{"x":176914.9000000013,"y":2578556.6099999994}},{"attributes":{"ID":313885,"DIS_CODE":0,"TOWNNAME":"新營區","LI":"大宏里","LIN":"8鄰","STREET":"文昌街","SECT":" ","MAREA":" ","LANE":" ","ALLEY":" ","HOUSE_NO":"２２號之４","E_COORD97":180409.82999999999,"N_COORD97":2578424.6699999999,"ADDRESS":"文昌街２２號之４","OBJECTID":313877},"geometry":{"x":180409.83000000194,"y":2578424.6699999999}},{"attributes":{"ID":313886,"DIS_CODE":0,"TOWNNAME":"新營區","LI":"嘉芳里","LIN":" ","STREET":" ","SECT":" ","MAREA":"茄苳腳","LANE":" ","ALLEY":" ","HOUSE_NO":"５號","E_COORD97":177236.32999999999,"N_COORD97":2578249.3599999999,"ADDRESS":"茄苳腳５號","OBJECTID":313878},"geometry":{"x":177236.33000000194,"y":2578249.3599999994}},{"attributes":{"ID":313887,"DIS_CODE":0,"TOWNNAME":"新營區","LI":"王公里","LIN":"6鄰","STREET":"民治路","SECT":" ","MAREA":" ","LANE":" ","ALLEY":" ","HOUSE_NO":"８號之１１","E_COORD97":180484.79000000001,"N_COORD97":2578923.77,"ADDRESS":"民治路８號之１１","OBJECTID":313879},"geometry":{"x":180484.79000000097,"y":2578923.7700000014}},{"attributes":{"ID":313888,"DIS_CODE":0,"TOWNNAME":"新營區","LI":"新東里","LIN":"4鄰","STREET":"東大街","SECT":" ","MAREA":" ","LANE":"５２巷","ALLEY":" ","HOUSE_NO":"１０號","E_COORD97":181074.42999999999,"N_COORD97":2579139.1200000001,"ADDRESS":"東大街５２巷１０號","OBJECTID":313880},"geometry":{"x":181074.4299999997,"y":2579139.1200000029}},{"attributes":{"ID":313889,"DIS_CODE":0,"TOWNNAME":"新營區","LI":"三仙里","LIN":"32鄰","STREET":"三興街","SECT":" ","MAREA":" ","LANE":"１４４巷","ALLEY":" ","HOUSE_NO":"３１號","E_COORD97":179517.57000000001,"N_COORD97":2579305.9199999999,"ADDRESS":"三興街１４４巷３１號","OBJECTID":313881},"geometry":{"x":179517.5700000003,"y":2579305.9200000018}},{"attributes":{"ID":313890,"DIS_CODE":0,"TOWNNAME":"新營區","LI":"護鎮里","LIN":" ","STREET":" ","SECT":" ","MAREA":"後鎮","LANE":" ","ALLEY":" ","HOUSE_NO":"９７之２號","E_COORD97":179057.20999999999,"N_COORD97":2580923.96,"ADDRESS":"後鎮９７之２號","OBJECTID":313882},"geometry":{"x":179057.20999999996,"y":2580923.9600000028}},{"attributes":{"ID":313891,"DIS_CODE":0,"TOWNNAME":"新營區","LI":"興業里","LIN":" ","STREET":"中興路","SECT":" ","MAREA":" ","LANE":"１３巷","ALLEY":" ","HOUSE_NO":"１２之４號","E_COORD97":180192.78,"N_COORD97":2577962.77,"ADDRESS":"中興路１３巷１２之４號","OBJECTID":313883},"geometry":{"x":180192.78000000026,"y":2577962.7699999977}},{"attributes":{"ID":313892,"DIS_CODE":0,"TOWNNAME":"新營區","LI":"民榮里","LIN":"20鄰","STREET":"裕民路","SECT":" ","MAREA":" ","LANE":"３４巷","ALLEY":" ","HOUSE_NO":"２６號","E_COORD97":179054.59,"N_COORD97":2577890.5899999999,"ADDRESS":"裕民路３４巷２６號","OBJECTID":313884},"geometry":{"x":179054.58999999985,"y":2577890.5900000017}},{"attributes":{"ID":313893,"DIS_CODE":0,"TOWNNAME":"新營區","LI":"忠政里","LIN":"6鄰","STREET":"府西路","SECT":" ","MAREA":" ","LANE":"２２巷","ALLEY":" ","HOUSE_NO":"１３號","E_COORD97":179846.51999999999,"N_COORD97":2579243.46,"ADDRESS":"府西路２２巷１３號","OBJECTID":313885},"geometry":{"x":179846.51999999955,"y":2579243.4600000009}},{"attributes":{"ID":313894,"DIS_CODE":0,"TOWNNAME":"北區","LI":"賢北里","LIN":"7鄰","STREET":"賢北街","SECT":" ","MAREA":" ","LANE":"１５巷","ALLEY":" ","HOUSE_NO":"９１號","E_COORD97":166160.34,"N_COORD97":2545139.5,"ADDRESS":"賢北街１５巷９１號","OBJECTID":313886},"geometry":{"x":166160.34000000078,"y":2545139.4999999981}},{"attributes":{"ID":313895,"DIS_CODE":0,"TOWNNAME":"歸仁區","LI":"看東里","LIN":"8鄰","STREET":"成功一街","SECT":" ","MAREA":" ","LANE":" ","ALLEY":" ","HOUSE_NO":"１１７號","E_COORD97":178518.76173,"N_COORD97":2539995.1295699999,"ADDRESS":"成功一街１１７號","OBJECTID":313887},"geometry":{"x":178518.76173000038,"y":2539995.1295699999}},{"attributes":{"ID":313896,"DIS_CODE":0,"TOWNNAME":"北區","LI":"賢北里","LIN":"7鄰","STREET":"賢北街","SECT":" ","MAREA":" ","LANE":"１５巷","ALLEY":" ","HOUSE_NO":"９３號","E_COORD97":166161.60999999999,"N_COORD97":2545136.96,"ADDRESS":"賢北街１５巷９３號","OBJECTID":313888},"geometry":{"x":166161.6099999994,"y":2545136.9600000009}},{"attributes":{"ID":313897,"DIS_CODE":0,"TOWNNAME":"北區","LI":"賢北里","LIN":"7鄰","STREET":"賢北街","SECT":" ","MAREA":" ","LANE":"１５巷","ALLEY":" ","HOUSE_NO":"９５號","E_COORD97":166163.51000000001,"N_COORD97":2545133.4700000002,"ADDRESS":"賢北街１５巷９５號","OBJECTID":313889},"geometry":{"x":166163.51000000164,"y":2545133.4700000007}},{"attributes":{"ID":313898,"DIS_CODE":0,"TOWNNAME":"南區","LI":"喜南里","LIN":"7鄰","STREET":"喜樹路","SECT":" ","MAREA":" ","LANE":"３４０巷","ALLEY":" ","HOUSE_NO":"５７號","E_COORD97":165524.67999999999,"N_COORD97":2537731.0800000001,"ADDRESS":"喜樹路３４０巷５７號","OBJECTID":313890},"geometry":{"x":165524.6799999997,"y":2537731.0799999982}},{"attributes":{"ID":313899,"DIS_CODE":0,"TOWNNAME":"學甲區","LI":"仁得里","LIN":"17鄰","STREET":"四維街","SECT":" ","MAREA":" ","LANE":" ","ALLEY":" ","HOUSE_NO":"２１７號","E_COORD97":165691.53,"N_COORD97":2569870.21,"ADDRESS":"四維街２１７號","OBJECTID":313891},"geometry":{"x":165691.53000000119,"y":2569870.2100000028}},{"attributes":{"ID":313900,"DIS_CODE":0,"TOWNNAME":"學甲區","LI":"仁得里","LIN":"17鄰","STREET":"四維街","SECT":" ","MAREA":" ","LANE":" ","ALLEY":" ","HOUSE_NO":"２１９號","E_COORD97":165687.39999999999,"N_COORD97":2569871.3700000001,"ADDRESS":"四維街２１９號","OBJECTID":313892},"geometry":{"x":165687.4000000013,"y":2569871.3700000029}},{"attributes":{"ID":313901,"DIS_CODE":0,"TOWNNAME":"歸仁區","LI":"崙頂里","LIN":"17鄰","STREET":"大成路","SECT":" ","MAREA":" ","LANE":" ","ALLEY":" ","HOUSE_NO":"２５７號","E_COORD97":177880.20000000001,"N_COORD97":2540100.96,"ADDRESS":"大成路２５７號","OBJECTID":313893},"geometry":{"x":177880.20000000112,"y":2540100.9600000028}},{"attributes":{"ID":313902,"DIS_CODE":0,"TOWNNAME":"歸仁區","LI":"看西里","LIN":"17鄰","STREET":"成功七街","SECT":" ","MAREA":" ","LANE":" ","ALLEY":" ","HOUSE_NO":"９號","E_COORD97":178296.01000000001,"N_COORD97":2539895.3599999999,"ADDRESS":"成功七街９號","OBJECTID":313894},"geometry":{"x":178296.01000000164,"y":2539895.3600000013}},{"attributes":{"ID":313903,"DIS_CODE":0,"TOWNNAME":"歸仁區","LI":"崙頂里","LIN":"17鄰","STREET":"大成路","SECT":" ","MAREA":" ","LANE":" ","ALLEY":" ","HOUSE_NO":"２６７號","E_COORD97":177901.70000000001,"N_COORD97":2540104.96,"ADDRESS":"大成路２６７號","OBJECTID":313895},"geometry":{"x":177901.70000000019,"y":2540104.9600000009}},{"attributes":{"ID":313904,"DIS_CODE":0,"TOWNNAME":"歸仁區","LI":"崙頂里","LIN":"17鄰","STREET":"大成路","SECT":" ","MAREA":" ","LANE":" ","ALLEY":" ","HOUSE_NO":"２５９號","E_COORD97":177884.29999999999,"N_COORD97":2540101.96,"ADDRESS":"大成路２５９號","OBJECTID":313896},"geometry":{"x":177884.30000000075,"y":2540101.9600000009}},{"attributes":{"ID":313905,"DIS_CODE":0,"TOWNNAME":"新營區","LI":"嘉芳里","LIN":" ","STREET":" ","SECT":" ","MAREA":"茄苳腳","LANE":" ","ALLEY":" ","HOUSE_NO":"４８號","E_COORD97":176939.81,"N_COORD97":2578422.4900000002,"ADDRESS":"茄苳腳４８號","OBJECTID":313897},"geometry":{"x":176939.81000000052,"y":2578422.4900000002}},{"attributes":{"ID":313906,"DIS_CODE":0,"TOWNNAME":"新營區","LI":"護鎮里","LIN":"9鄰","STREET":"建國路","SECT":" ","MAREA":" ","LANE":"３１３巷","ALLEY":" ","HOUSE_NO":"９號","E_COORD97":178481.76730800001,"N_COORD97":2580972.6984199998,"ADDRESS":"建國路３１３巷９號","OBJECTID":313898},"geometry":{"x":178481.76730800048,"y":2580972.6984180026}},{"attributes":{"ID":313907,"DIS_CODE":0,"TOWNNAME":"新營區","LI":"太南里","LIN":"13鄰","STREET":" ","SECT":" ","MAREA":"太子宮","LANE":" ","ALLEY":" ","HOUSE_NO":"２７９之１２號","E_COORD97":176093.20000000001,"N_COORD97":2576668.1200000001,"ADDRESS":"太子宮２７９之１２號","OBJECTID":313899},"geometry":{"x":176093.20000000205,"y":2576668.1200000029}},{"attributes":{"ID":313908,"DIS_CODE":0,"TOWNNAME":"新營區","LI":"大宏里","LIN":"8鄰","STREET":"文昌街","SECT":" ","MAREA":" ","LANE":" ","ALLEY":" ","HOUSE_NO":"２６號之３","E_COORD97":180396.29000000001,"N_COORD97":2578372.6699999999,"ADDRESS":"文昌街２６號之３","OBJECTID":313900},"geometry":{"x":180396.28999999911,"y":2578372.6699999999}},{"attributes":{"ID":313909,"DIS_CODE":0,"TOWNNAME":"新營區","LI":"大宏里","LIN":"8鄰","STREET":"文昌街","SECT":" ","MAREA":" ","LANE":" ","ALLEY":" ","HOUSE_NO":"２６號之１","E_COORD97":180403.45999999999,"N_COORD97":2578374.8599999999,"ADDRESS":"文昌街２６號之１","OBJECTID":313901},"geometry":{"x":180403.45999999996,"y":2578374.8599999994}},{"attributes":{"ID":313910,"DIS_CODE":0,"TOWNNAME":"新營區","LI":"民榮里","LIN":" ","STREET":"復興路","SECT":" ","MAREA":" ","LANE":"３０５巷","ALLEY":" ","HOUSE_NO":"３５號","E_COORD97":178541.88,"N_COORD97":2578050.3199999998,"ADDRESS":"復興路３０５巷３５號","OBJECTID":313902},"geometry":{"x":178541.88000000082,"y":2578050.3200000003}},{"attributes":{"ID":313911,"DIS_CODE":0,"TOWNNAME":"新營區","LI":"興業里","LIN":" ","STREET":"中興路","SECT":" ","MAREA":" ","LANE":"１３巷","ALLEY":" ","HOUSE_NO":"２９之４號","E_COORD97":180274.76000000001,"N_COORD97":2577977.8799999999,"ADDRESS":"中興路１３巷２９之４號","OBJECTID":313903},"geometry":{"x":180274.76000000071,"y":2577977.879999999}},{"attributes":{"ID":313912,"DIS_CODE":0,"TOWNNAME":"新營區","LI":"三仙里","LIN":"32鄰","STREET":"三興街","SECT":" ","MAREA":" ","LANE":"１４４巷","ALLEY":" ","HOUSE_NO":"３３號","E_COORD97":179522.67999999999,"N_COORD97":2579307,"ADDRESS":"三興街１４４巷３３號","OBJECTID":313904},"geometry":{"x":179522.68000000063,"y":2579307}},{"attributes":{"ID":313913,"DIS_CODE":0,"TOWNNAME":"新營區","LI":"興業里","LIN":" ","STREET":"中興路","SECT":" ","MAREA":" ","LANE":"１３巷","ALLEY":" ","HOUSE_NO":"１１號","E_COORD97":180191.39000000001,"N_COORD97":2577980.4300000002,"ADDRESS":"中興路１３巷１１號","OBJECTID":313905},"geometry":{"x":180191.38999999966,"y":2577980.4300000016}},{"attributes":{"ID":313914,"DIS_CODE":0,"TOWNNAME":"新化區","LI":"東榮里","LIN":"7鄰","STREET":"信義路","SECT":" ","MAREA":" ","LANE":"１３１巷","ALLEY":" ","HOUSE_NO":"１１號","E_COORD97":179663.38,"N_COORD97":2548433.25,"ADDRESS":"信義路１３１巷１１號","OBJECTID":313906},"geometry":{"x":179663.38000000175,"y":2548433.2499999981}},{"attributes":{"ID":313915,"DIS_CODE":0,"TOWNNAME":"新化區","LI":"東榮里","LIN":"7鄰","STREET":"信義路","SECT":" ","MAREA":" ","LANE":"１３１巷","ALLEY":" ","HOUSE_NO":"５號之４","E_COORD97":179658.26000000001,"N_COORD97":2548450.2599999998,"ADDRESS":"信義路１３１巷５號之４","OBJECTID":313907},"geometry":{"x":179658.25999999978,"y":2548450.2600000035}},{"attributes":{"ID":313916,"DIS_CODE":0,"TOWNNAME":"新化區","LI":"太平里","LIN":"7鄰","STREET":"民生路","SECT":" ","MAREA":" ","LANE":"３１４巷","ALLEY":" ","HOUSE_NO":"６７號","E_COORD97":179140.06,"N_COORD97":2549262.25,"ADDRESS":"民生路３１４巷６７號","OBJECTID":313908},"geometry":{"x":179140.06000000052,"y":2549262.2500000019}},{"attributes":{"ID":313917,"DIS_CODE":0,"TOWNNAME":"南區","LI":"建南里","LIN":"7鄰","STREET":"德興路","SECT":" ","MAREA":" ","LANE":"１９０巷","ALLEY":" ","HOUSE_NO":"５號","E_COORD97":167172.26000000001,"N_COORD97":2540201.02,"ADDRESS":"德興路１９０巷５號","OBJECTID":313909},"geometry":{"x":167172.26000000164,"y":2540201.0199999996}},{"attributes":{"ID":313918,"DIS_CODE":0,"TOWNNAME":"北區","LI":"大港里","LIN":"7鄰","STREET":"大興街","SECT":" ","MAREA":" ","LANE":"２２６巷","ALLEY":" ","HOUSE_NO":"１０號","E_COORD97":166747.31,"N_COORD97":2545750.75,"ADDRESS":"大興街２２６巷１０號","OBJECTID":313910},"geometry":{"x":166747.30999999959,"y":2545750.75}},{"attributes":{"ID":313919,"DIS_CODE":0,"TOWNNAME":"北區","LI":"大港里","LIN":"7鄰","STREET":"大興街","SECT":" ","MAREA":" ","LANE":"２２６巷","ALLEY":" ","HOUSE_NO":"１２號","E_COORD97":166746.66,"N_COORD97":2545754.9300000002,"ADDRESS":"大興街２２６巷１２號","OBJECTID":313911},"geometry":{"x":166746.66000000108,"y":2545754.9300000016}},{"attributes":{"ID":313920,"DIS_CODE":0,"TOWNNAME":"北區","LI":"大港里","LIN":"7鄰","STREET":"大興街","SECT":" ","MAREA":" ","LANE":"２２６巷","ALLEY":" ","HOUSE_NO":"１４號","E_COORD97":166745.87,"N_COORD97":2545759.1200000001,"ADDRESS":"大興街２２６巷１４號","OBJECTID":313912},"geometry":{"x":166745.87000000011,"y":2545759.120000001}},{"attributes":{"ID":313921,"DIS_CODE":0,"TOWNNAME":"北區","LI":"大港里","LIN":"7鄰","STREET":"大興街","SECT":" ","MAREA":" ","LANE":"２２６巷","ALLEY":" ","HOUSE_NO":"１６號","E_COORD97":166745.35000000001,"N_COORD97":2545763.8300000001,"ADDRESS":"大興街２２６巷１６號","OBJECTID":313913},"geometry":{"x":166745.34999999963,"y":2545763.8300000001}},{"attributes":{"ID":313922,"DIS_CODE":0,"TOWNNAME":"歸仁區","LI":"崙頂里","LIN":"17鄰","STREET":"大成路","SECT":" ","MAREA":" ","LANE":" ","ALLEY":" ","HOUSE_NO":"２６５號","E_COORD97":177897.60000000001,"N_COORD97":2540103.96,"ADDRESS":"大成路２６５號","OBJECTID":313914},"geometry":{"x":177897.60000000056,"y":2540103.9600000028}},{"attributes":{"ID":313923,"DIS_CODE":0,"TOWNNAME":"歸仁區","LI":"歸南里","LIN":"17鄰","STREET":"民生八街","SECT":" ","MAREA":" ","LANE":" ","ALLEY":" ","HOUSE_NO":"２２號","E_COORD97":176130.51000000001,"N_COORD97":2540345.25,"ADDRESS":"民生八街２２號","OBJECTID":313915},"geometry":{"x":176130.50999999978,"y":2540345.2500000019}},{"attributes":{"ID":313924,"DIS_CODE":0,"TOWNNAME":"歸仁區","LI":"崙頂里","LIN":"17鄰","STREET":"大成路","SECT":" ","MAREA":" ","LANE":" ","ALLEY":" ","HOUSE_NO":"２６９號","E_COORD97":177906.89999999999,"N_COORD97":2540105.96,"ADDRESS":"大成路２６９號","OBJECTID":313916},"geometry":{"x":177906.90000000037,"y":2540105.959999999}},{"attributes":{"ID":313925,"DIS_CODE":0,"TOWNNAME":"歸仁區","LI":"看西里","LIN":"17鄰","STREET":"成功五街","SECT":" ","MAREA":" ","LANE":" ","ALLEY":" ","HOUSE_NO":"３５號","E_COORD97":178323.06,"N_COORD97":2539930.3500000001,"ADDRESS":"成功五街３５號","OBJECTID":313917},"geometry":{"x":178323.06000000052,"y":2539930.3500000015}},{"attributes":{"ID":313926,"DIS_CODE":0,"TOWNNAME":"歸仁區","LI":"崙頂里","LIN":"17鄰","STREET":"大成路","SECT":" ","MAREA":" ","LANE":" ","ALLEY":" ","HOUSE_NO":"２８９號","E_COORD97":177944.53,"N_COORD97":2540114.25,"ADDRESS":"大成路２８９號","OBJECTID":313918},"geometry":{"x":177944.53000000119,"y":2540114.2500000019}},{"attributes":{"ID":313927,"DIS_CODE":0,"TOWNNAME":"歸仁區","LI":"新厝里","LIN":"17鄰","STREET":"中正南路","SECT":"一段","MAREA":" ","LANE":" ","ALLEY":" ","HOUSE_NO":"１４９號","E_COORD97":177465.04999999999,"N_COORD97":2540421.5899999999,"ADDRESS":"中正南路一段１４９號","OBJECTID":313919},"geometry":{"x":177465.05000000168,"y":2540421.5899999999}},{"attributes":{"ID":313928,"DIS_CODE":0,"TOWNNAME":"歸仁區","LI":"崙頂里","LIN":"17鄰","STREET":"大成路","SECT":" ","MAREA":" ","LANE":" ","ALLEY":" ","HOUSE_NO":"２８５號","E_COORD97":177936.32999999999,"N_COORD97":2540113.25,"ADDRESS":"大成路２８５號","OBJECTID":313920},"geometry":{"x":177936.32999999914,"y":2540113.2499999981}},{"attributes":{"ID":313929,"DIS_CODE":0,"TOWNNAME":"新營區","LI":"太北里","LIN":"16鄰","STREET":" ","SECT":" ","MAREA":"太子宮","LANE":" ","ALLEY":" ","HOUSE_NO":"１３３號之６","E_COORD97":175892.25,"N_COORD97":2576842.98,"ADDRESS":"太子宮１３３號之６","OBJECTID":313921},"geometry":{"x":175892.25,"y":2576842.9800000004}},{"attributes":{"ID":313930,"DIS_CODE":0,"TOWNNAME":"新營區","LI":"王公里","LIN":"12鄰","STREET":"義和街","SECT":" ","MAREA":" ","LANE":" ","ALLEY":" ","HOUSE_NO":"３號之２６","E_COORD97":180476.17999999999,"N_COORD97":2579044.5299999998,"ADDRESS":"義和街３號之２６","OBJECTID":313922},"geometry":{"x":180476.1799999997,"y":2579044.5299999993}},{"attributes":{"ID":313931,"DIS_CODE":0,"TOWNNAME":"新營區","LI":"護鎮里","LIN":"1鄰","STREET":" ","SECT":" ","MAREA":"後鎮","LANE":" ","ALLEY":" ","HOUSE_NO":"３號之１０","E_COORD97":179609.29000000001,"N_COORD97":2581077.4700000002,"ADDRESS":"後鎮３之１０號","OBJECTID":313923},"geometry":{"x":179609.29000000004,"y":2581077.4700000007}},{"attributes":{"ID":313932,"DIS_CODE":0,"TOWNNAME":"新營區","LI":"姑爺里","LIN":"11鄰","STREET":" ","SECT":" ","MAREA":"挖仔","LANE":" ","ALLEY":" ","HOUSE_NO":"４３號之１６","E_COORD97":173959.07999999999,"N_COORD97":2575485.0499999998,"ADDRESS":"挖仔４３之１６號","OBJECTID":313924},"geometry":{"x":173959.08000000007,"y":2575485.0500000026}},{"attributes":{"ID":313933,"DIS_CODE":0,"TOWNNAME":"新營區","LI":"角帶里","LIN":"5鄰","STREET":" ","SECT":" ","MAREA":"角帶圍","LANE":" ","ALLEY":" ","HOUSE_NO":"６３號之１","E_COORD97":174719.35999999999,"N_COORD97":2575772.4300000002,"ADDRESS":"角帶圍６３號之１","OBJECTID":313925},"geometry":{"x":174719.36000000127,"y":2575772.4300000016}},{"attributes":{"ID":313934,"DIS_CODE":0,"TOWNNAME":"新營區","LI":"護鎮里","LIN":" ","STREET":" ","SECT":" ","MAREA":"後鎮","LANE":" ","ALLEY":" ","HOUSE_NO":"６０之１號","E_COORD97":179062.48000000001,"N_COORD97":2581163.1499999999,"ADDRESS":"後鎮６０之１號","OBJECTID":313926},"geometry":{"x":179062.48000000045,"y":2581163.1500000022}},{"attributes":{"ID":313935,"DIS_CODE":0,"TOWNNAME":"新營區","LI":"王公里","LIN":"12鄰","STREET":"義和街","SECT":" ","MAREA":" ","LANE":" ","ALLEY":" ","HOUSE_NO":"５號之５","E_COORD97":180467.70000000001,"N_COORD97":2579044.5600000001,"ADDRESS":"義和街５號之５","OBJECTID":313927},"geometry":{"x":180467.70000000019,"y":2579044.5600000024}},{"attributes":{"ID":313936,"DIS_CODE":0,"TOWNNAME":"新營區","LI":"民生里","LIN":"20鄰","STREET":"進修街","SECT":" ","MAREA":" ","LANE":"４１巷","ALLEY":" ","HOUSE_NO":"１２號","E_COORD97":178922.38,"N_COORD97":2578492.5699999998,"ADDRESS":"進修街４１巷１２號","OBJECTID":313928},"geometry":{"x":178922.37999999896,"y":2578492.5700000003}},{"attributes":{"ID":313937,"DIS_CODE":0,"TOWNNAME":"新營區","LI":"好平里","LIN":" ","STREET":"南昌街","SECT":" ","MAREA":" ","LANE":"４０巷","ALLEY":" ","HOUSE_NO":"６號","E_COORD97":179490.06,"N_COORD97":2577676.98,"ADDRESS":"南昌街４０巷６號","OBJECTID":313929},"geometry":{"x":179490.05999999959,"y":2577676.9800000004}},{"attributes":{"ID":313938,"DIS_CODE":0,"TOWNNAME":"新營區","LI":"南興里","LIN":"10鄰","STREET":"和平路","SECT":" ","MAREA":" ","LANE":"１０４巷","ALLEY":" ","HOUSE_NO":"１２號之１","E_COORD97":179371.56,"N_COORD97":2577566.8700000001,"ADDRESS":"和平路１０４巷１２之１號","OBJECTID":313930},"geometry":{"x":179371.55999999959,"y":2577566.870000001}},{"attributes":{"ID":313939,"DIS_CODE":0,"TOWNNAME":"北區","LI":"大港里","LIN":"7鄰","STREET":"大興街","SECT":" ","MAREA":" ","LANE":"２２６巷","ALLEY":" ","HOUSE_NO":"１８號","E_COORD97":166744.69,"N_COORD97":2545768.0099999998,"ADDRESS":"大興街２２６巷１８號","OBJECTID":313931},"geometry":{"x":166744.69000000134,"y":2545768.0100000016}},{"attributes":{"ID":313940,"DIS_CODE":0,"TOWNNAME":"北區","LI":"大港里","LIN":"7鄰","STREET":"大興街","SECT":" ","MAREA":" ","LANE":"２２６巷","ALLEY":" ","HOUSE_NO":"２８號","E_COORD97":166741.54999999999,"N_COORD97":2545789.7200000002,"ADDRESS":"大興街２２６巷２８號","OBJECTID":313932},"geometry":{"x":166741.55000000075,"y":2545789.7200000044}},{"attributes":{"ID":313941,"DIS_CODE":0,"TOWNNAME":"北區","LI":"大港里","LIN":"7鄰","STREET":"大興街","SECT":" ","MAREA":" ","LANE":"２２６巷","ALLEY":" ","HOUSE_NO":"２號","E_COORD97":166750.57999999999,"N_COORD97":2545732.3100000001,"ADDRESS":"大興街２２６巷２號","OBJECTID":313933},"geometry":{"x":166750.58000000101,"y":2545732.3100000024}},{"attributes":{"ID":313942,"DIS_CODE":0,"TOWNNAME":"北區","LI":"大港里","LIN":"7鄰","STREET":"大興街","SECT":" ","MAREA":" ","LANE":"２２６巷","ALLEY":" ","HOUSE_NO":"３０號","E_COORD97":166741.29000000001,"N_COORD97":2545797.2999999998,"ADDRESS":"大興街２２６巷３０號","OBJECTID":313934},"geometry":{"x":166741.29000000004,"y":2545797.3000000026}},{"attributes":{"ID":313943,"DIS_CODE":0,"TOWNNAME":"歸仁區","LI":"辜厝里","LIN":"17鄰","STREET":"大順街","SECT":" ","MAREA":" ","LANE":" ","ALLEY":" ","HOUSE_NO":"７號","E_COORD97":177456.92999999999,"N_COORD97":2540505.9500000002,"ADDRESS":"大順街７號","OBJECTID":313935},"geometry":{"x":177456.9299999997,"y":2540505.9500000011}},{"attributes":{"ID":313944,"DIS_CODE":0,"TOWNNAME":"歸仁區","LI":"崙頂里","LIN":"17鄰","STREET":"大成路","SECT":" ","MAREA":" ","LANE":" ","ALLEY":" ","HOUSE_NO":"２４７號","E_COORD97":177858.60000000001,"N_COORD97":2540094.96,"ADDRESS":"大成路２４７號","OBJECTID":313936},"geometry":{"x":177858.60000000056,"y":2540094.9600000009}},{"attributes":{"ID":313945,"DIS_CODE":0,"TOWNNAME":"南區","LI":"新興里","LIN":"17鄰","STREET":"三官路","SECT":" ","MAREA":" ","LANE":" ","ALLEY":" ","HOUSE_NO":"８１號","E_COORD97":167364.76000000001,"N_COORD97":2542236.3199999998,"ADDRESS":"三官路８１號","OBJECTID":313937},"geometry":{"x":167364.75999999978,"y":2542236.3200000022}},{"attributes":{"ID":313946,"DIS_CODE":0,"TOWNNAME":"歸仁區","LI":"崙頂里","LIN":"17鄰","STREET":"大成路","SECT":" ","MAREA":" ","LANE":" ","ALLEY":" ","HOUSE_NO":"２６１號","E_COORD97":177889.39999999999,"N_COORD97":2540102.96,"ADDRESS":"大成路２６１號","OBJECTID":313938},"geometry":{"x":177889.4000000013,"y":2540102.9600000046}},{"attributes":{"ID":313947,"DIS_CODE":0,"TOWNNAME":"歸仁區","LI":"七甲里","LIN":"15鄰","STREET":"南潭三街","SECT":" ","MAREA":" ","LANE":" ","ALLEY":" ","HOUSE_NO":"１２７號","E_COORD97":176347.64000000001,"N_COORD97":2543241.25,"ADDRESS":"南潭三街１２７號","OBJECTID":313939},"geometry":{"x":176347.6400000006,"y":2543241.25}},{"attributes":{"ID":313948,"DIS_CODE":0,"TOWNNAME":"新營區","LI":"太北里","LIN":"16鄰","STREET":" ","SECT":" ","MAREA":"太子宮","LANE":" ","ALLEY":" ","HOUSE_NO":"１３２號之８","E_COORD97":175889.95370300001,"N_COORD97":2576884.4606699999,"ADDRESS":"太子宮１３２號之８","OBJECTID":313940},"geometry":{"x":175889.95370300021,"y":2576884.4606680013}},{"attributes":{"ID":313949,"DIS_CODE":0,"TOWNNAME":"新營區","LI":"嘉芳里","LIN":"8鄰","STREET":" ","SECT":" ","MAREA":"茄苳腳","LANE":" ","ALLEY":" ","HOUSE_NO":"７８號之１４","E_COORD97":176847.94,"N_COORD97":2578541.5099999998,"ADDRESS":"茄苳腳７８之１４號","OBJECTID":313941},"geometry":{"x":176847.94000000134,"y":2578541.5100000035}},{"attributes":{"ID":313950,"DIS_CODE":0,"TOWNNAME":"新營區","LI":"鐵線里","LIN":" ","STREET":" ","SECT":" ","MAREA":"秀才","LANE":" ","ALLEY":" ","HOUSE_NO":"１４之２號","E_COORD97":174771.23000000001,"N_COORD97":2573897.2400000002,"ADDRESS":"秀才１４之２號","OBJECTID":313942},"geometry":{"x":174771.23000000138,"y":2573897.2400000002}},{"attributes":{"ID":313951,"DIS_CODE":0,"TOWNNAME":"新營區","LI":"王公里","LIN":"4鄰","STREET":"民治路","SECT":" ","MAREA":" ","LANE":" ","ALLEY":" ","HOUSE_NO":"２２號之３","E_COORD97":180292.35000000001,"N_COORD97":2578891.4500000002,"ADDRESS":"民治路２２號之３","OBJECTID":313943},"geometry":{"x":180292.35000000056,"y":2578891.4500000011}},{"attributes":{"ID":313952,"DIS_CODE":0,"TOWNNAME":"新營區","LI":"大宏里","LIN":"10鄰","STREET":"民族路","SECT":" ","MAREA":" ","LANE":" ","ALLEY":" ","HOUSE_NO":"３９號之２","E_COORD97":180269.59,"N_COORD97":2578831.7599999998,"ADDRESS":"民族路３９號之２","OBJECTID":313944},"geometry":{"x":180269.58999999985,"y":2578831.7600000016}},{"attributes":{"ID":313953,"DIS_CODE":0,"TOWNNAME":"新營區","LI":"民生里","LIN":"25鄰","STREET":"民生路","SECT":" ","MAREA":" ","LANE":"１３９巷","ALLEY":" ","HOUSE_NO":"２２號","E_COORD97":179171.51000000001,"N_COORD97":2578596.5899999999,"ADDRESS":"民生路１３９巷２２號","OBJECTID":313945},"geometry":{"x":179171.51000000071,"y":2578596.5900000017}},{"attributes":{"ID":313954,"DIS_CODE":0,"TOWNNAME":"新營區","LI":"興業里","LIN":"4鄰","STREET":"公誠街","SECT":" ","MAREA":" ","LANE":"７巷","ALLEY":" ","HOUSE_NO":"２０之１號","E_COORD97":180378.42000000001,"N_COORD97":2578051.6000000001,"ADDRESS":"公誠街７巷２０之１號","OBJECTID":313946},"geometry":{"x":180378.42000000179,"y":2578051.5999999996}},{"attributes":{"ID":313955,"DIS_CODE":0,"TOWNNAME":"新營區","LI":"興業里","LIN":"4鄰","STREET":"公誠街","SECT":" ","MAREA":" ","LANE":"７巷","ALLEY":" ","HOUSE_NO":"２０號","E_COORD97":180374.92000000001,"N_COORD97":2578057.0899999999,"ADDRESS":"公誠街７巷２０號","OBJECTID":313947},"geometry":{"x":180374.91999999899,"y":2578057.0900000017}},{"attributes":{"ID":313956,"DIS_CODE":0,"TOWNNAME":"新營區","LI":"新南里","LIN":"14鄰","STREET":"民治路","SECT":" ","MAREA":" ","LANE":"３００巷","ALLEY":" ","HOUSE_NO":"１６之５號","E_COORD97":178745.25,"N_COORD97":2578574.3300000001,"ADDRESS":"民治路３００巷１６之５號","OBJECTID":313948},"geometry":{"x":178745.25,"y":2578574.3300000019}},{"attributes":{"ID":313957,"DIS_CODE":0,"TOWNNAME":"北區","LI":"大港里","LIN":"7鄰","STREET":"大興街","SECT":" ","MAREA":" ","LANE":"２２６巷","ALLEY":" ","HOUSE_NO":"３２號","E_COORD97":166740.59,"N_COORD97":2545800.8399999999,"ADDRESS":"大興街２２６巷３２號","OBJECTID":313949},"geometry":{"x":166740.58999999985,"y":2545800.8399999999}},{"attributes":{"ID":313958,"DIS_CODE":0,"TOWNNAME":"北區","LI":"大港里","LIN":"7鄰","STREET":"大興街","SECT":" ","MAREA":" ","LANE":"２２６巷","ALLEY":" ","HOUSE_NO":"３４號","E_COORD97":166741.70000000001,"N_COORD97":2545805.6899999999,"ADDRESS":"大興街２２６巷３４號","OBJECTID":313950},"geometry":{"x":166741.70000000019,"y":2545805.6900000032}},{"attributes":{"ID":313959,"DIS_CODE":0,"TOWNNAME":"北區","LI":"大港里","LIN":"7鄰","STREET":"大興街","SECT":" ","MAREA":" ","LANE":"２２６巷","ALLEY":" ","HOUSE_NO":"３６號","E_COORD97":166741.29000000001,"N_COORD97":2545809.0299999998,"ADDRESS":"大興街２２６巷３６號","OBJECTID":313951},"geometry":{"x":166741.29000000004,"y":2545809.0299999993}},{"attributes":{"ID":313960,"DIS_CODE":0,"TOWNNAME":"歸仁區","LI":"文化里","LIN":"11鄰","STREET":"文化北街","SECT":" ","MAREA":" ","LANE":" ","ALLEY":" ","HOUSE_NO":"２０號","E_COORD97":177399.66,"N_COORD97":2541402.3399999999,"ADDRESS":"文化北街２０號","OBJECTID":313952},"geometry":{"x":177399.66000000015,"y":2541402.3400000017}},{"attributes":{"ID":313961,"DIS_CODE":0,"TOWNNAME":"新營區","LI":"民榮里","LIN":"17鄰","STREET":"富強街","SECT":" ","MAREA":" ","LANE":" ","ALLEY":" ","HOUSE_NO":"５７號","E_COORD97":178906.06,"N_COORD97":2577856.9700000002,"ADDRESS":"富強街５７號","OBJECTID":313953},"geometry":{"x":178906.06000000052,"y":2577856.9700000007}},{"attributes":{"ID":313962,"DIS_CODE":0,"TOWNNAME":"安平區","LI":"建平里","LIN":"17鄰","STREET":"建平十一街","SECT":" ","MAREA":" ","LANE":" ","ALLEY":" ","HOUSE_NO":"１８０號","E_COORD97":165942.51999999999,"N_COORD97":2543957.5,"ADDRESS":"建平十一街１８０號","OBJECTID":313954},"geometry":{"x":165942.51999999955,"y":2543957.5000000019}},{"attributes":{"ID":313963,"DIS_CODE":0,"TOWNNAME":"安平區","LI":"建平里","LIN":"17鄰","STREET":"建平十一街","SECT":" ","MAREA":" ","LANE":" ","ALLEY":" ","HOUSE_NO":"１８６號","E_COORD97":165930.29999999999,"N_COORD97":2543958.4500000002,"ADDRESS":"建平十一街１８６號","OBJECTID":313955},"geometry":{"x":165930.29999999981,"y":2543958.4499999993}},{"attributes":{"ID":313964,"DIS_CODE":0,"TOWNNAME":"安平區","LI":"建平里","LIN":"17鄰","STREET":"建平十一街","SECT":" ","MAREA":" ","LANE":" ","ALLEY":" ","HOUSE_NO":"１８２號","E_COORD97":165936.97,"N_COORD97":2543957.8199999998,"ADDRESS":"建平十一街１８２號","OBJECTID":313956},"geometry":{"x":165936.97000000067,"y":2543957.8199999984}},{"attributes":{"ID":313965,"DIS_CODE":0,"TOWNNAME":"新營區","LI":"太北里","LIN":"16鄰","STREET":" ","SECT":" ","MAREA":"太子宮","LANE":" ","ALLEY":" ","HOUSE_NO":"１３３之３號","E_COORD97":175882.10999999999,"N_COORD97":2576861.8599999999,"ADDRESS":"太子宮１３３之３號","OBJECTID":313957},"geometry":{"x":175882.11000000127,"y":2576861.8600000013}},{"attributes":{"ID":313966,"DIS_CODE":0,"TOWNNAME":"新營區","LI":"大宏里","LIN":"10鄰","STREET":"民治路","SECT":" ","MAREA":" ","LANE":" ","ALLEY":" ","HOUSE_NO":"２７號之９","E_COORD97":180196.09,"N_COORD97":2578865.3300000001,"ADDRESS":"民治路２７號之９","OBJECTID":313958},"geometry":{"x":180196.09000000078,"y":2578865.3300000019}},{"attributes":{"ID":313967,"DIS_CODE":0,"TOWNNAME":"新營區","LI":"嘉芳里","LIN":"4鄰","STREET":" ","SECT":" ","MAREA":"茄苳腳","LANE":" ","ALLEY":" ","HOUSE_NO":"３２之２號","E_COORD97":177008.54000000001,"N_COORD97":2578370.1600000001,"ADDRESS":"茄苳腳３２之２號","OBJECTID":313959},"geometry":{"x":177008.54000000097,"y":2578370.1600000001}},{"attributes":{"ID":313968,"DIS_CODE":0,"TOWNNAME":"新營區","LI":"護鎮里","LIN":" ","STREET":" ","SECT":" ","MAREA":"後鎮","LANE":" ","ALLEY":" ","HOUSE_NO":"７４之２號","E_COORD97":179142.97,"N_COORD97":2581096.3100000001,"ADDRESS":"後鎮７４之２號","OBJECTID":313960},"geometry":{"x":179142.96999999974,"y":2581096.3099999987}},{"attributes":{"ID":313969,"DIS_CODE":0,"TOWNNAME":"新營區","LI":"嘉芳里","LIN":" ","STREET":" ","SECT":" ","MAREA":"茄苳腳","LANE":" ","ALLEY":" ","HOUSE_NO":"２９號","E_COORD97":177027.56,"N_COORD97":2578381.0699999998,"ADDRESS":"茄苳腳２９號","OBJECTID":313961},"geometry":{"x":177027.56000000145,"y":2578381.0700000003}},{"attributes":{"ID":313970,"DIS_CODE":0,"TOWNNAME":"新營區","LI":"鐵線里","LIN":" ","STREET":" ","SECT":" ","MAREA":"秀才","LANE":" ","ALLEY":" ","HOUSE_NO":"１７之１號","E_COORD97":174737.67999999999,"N_COORD97":2573939.4900000002,"ADDRESS":"秀才１７之１號","OBJECTID":313962},"geometry":{"x":174737.6799999997,"y":2573939.4900000021}},{"attributes":{"ID":313971,"DIS_CODE":0,"TOWNNAME":"新營區","LI":"太北里","LIN":"20鄰","STREET":" ","SECT":" ","MAREA":"太子宮","LANE":" ","ALLEY":" ","HOUSE_NO":"１４０之８號","E_COORD97":175665.42999999999,"N_COORD97":2576694.6099999999,"ADDRESS":"太子宮１４０之８號","OBJECTID":313963},"geometry":{"x":175665.42999999877,"y":2576694.6099999994}},{"attributes":{"ID":313972,"DIS_CODE":0,"TOWNNAME":"新營區","LI":"護鎮里","LIN":"4鄰","STREET":" ","SECT":" ","MAREA":"後鎮","LANE":" ","ALLEY":" ","HOUSE_NO":"４５號之５","E_COORD97":179180.14999999999,"N_COORD97":2581160.3700000001,"ADDRESS":"後鎮４５之５號","OBJECTID":313964},"geometry":{"x":179180.15000000037,"y":2581160.370000001}},{"attributes":{"ID":313973,"DIS_CODE":0,"TOWNNAME":"北區","LI":"大港里","LIN":"7鄰","STREET":"大興街","SECT":" ","MAREA":" ","LANE":"２２６巷","ALLEY":" ","HOUSE_NO":"３８號","E_COORD97":166740.17999999999,"N_COORD97":2545812.98,"ADDRESS":"大興街２２６巷３８號","OBJECTID":313965},"geometry":{"x":166740.1799999997,"y":2545812.9800000023}},{"attributes":{"ID":313974,"DIS_CODE":0,"TOWNNAME":"北區","LI":"大港里","LIN":"7鄰","STREET":"大興街","SECT":" ","MAREA":" ","LANE":"２２６巷","ALLEY":" ","HOUSE_NO":"４０號","E_COORD97":166740.17999999999,"N_COORD97":2545816.9199999999,"ADDRESS":"大興街２２６巷４０號","OBJECTID":313966},"geometry":{"x":166740.1799999997,"y":2545816.9199999999}},{"attributes":{"ID":313975,"DIS_CODE":0,"TOWNNAME":"北區","LI":"大港里","LIN":"7鄰","STREET":"大興街","SECT":" ","MAREA":" ","LANE":"２２６巷","ALLEY":" ","HOUSE_NO":"４２號","E_COORD97":166739.88,"N_COORD97":2545820.8700000001,"ADDRESS":"大興街２２６巷４２號","OBJECTID":313967},"geometry":{"x":166739.88000000082,"y":2545820.8700000029}},{"attributes":{"ID":313976,"DIS_CODE":0,"TOWNNAME":"北區","LI":"大港里","LIN":"7鄰","STREET":"大興街","SECT":" ","MAREA":" ","LANE":"２２６巷","ALLEY":" ","HOUSE_NO":"４４號","E_COORD97":166738.66,"N_COORD97":2545824.6099999999,"ADDRESS":"大興街２２６巷４４號","OBJECTID":313968},"geometry":{"x":166738.66000000015,"y":2545824.6100000013}},{"attributes":{"ID":313977,"DIS_CODE":0,"TOWNNAME":"北區","LI":"大港里","LIN":"7鄰","STREET":"大興街","SECT":" ","MAREA":" ","LANE":"２２６巷","ALLEY":" ","HOUSE_NO":"４號","E_COORD97":166749.14000000001,"N_COORD97":2545737.1499999999,"ADDRESS":"大興街２２６巷４號","OBJECTID":313969},"geometry":{"x":166749.14000000153,"y":2545737.1500000022}},{"attributes":{"ID":313978,"DIS_CODE":0,"TOWNNAME":"佳里區","LI":"安西里","LIN":"1鄰","STREET":"中山路","SECT":" ","MAREA":" ","LANE":" ","ALLEY":" ","HOUSE_NO":"３６３號","E_COORD97":165701.44,"N_COORD97":2562611.4199999999,"ADDRESS":"中山路３６３號","OBJECTID":313970},"geometry":{"x":165701.44000000041,"y":2562611.4200000018}},{"attributes":{"ID":313979,"DIS_CODE":0,"TOWNNAME":"新營區","LI":"大宏里","LIN":"10鄰","STREET":"民治路","SECT":" ","MAREA":" ","LANE":" ","ALLEY":" ","HOUSE_NO":"２７號之１","E_COORD97":180254.39000000001,"N_COORD97":2578866.1600000001,"ADDRESS":"民治路２７號之１","OBJECTID":313971},"geometry":{"x":180254.38999999966,"y":2578866.1600000039}},{"attributes":{"ID":313980,"DIS_CODE":0,"TOWNNAME":"新營區","LI":"太北里","LIN":"16鄰","STREET":" ","SECT":" ","MAREA":"太子宮","LANE":" ","ALLEY":" ","HOUSE_NO":"１３３號之４","E_COORD97":175884.14000000001,"N_COORD97":2576858.5299999998,"ADDRESS":"太子宮１３３號之４","OBJECTID":313972},"geometry":{"x":175884.13999999966,"y":2576858.5299999993}},{"attributes":{"ID":313981,"DIS_CODE":0,"TOWNNAME":"新營區","LI":"護鎮里","LIN":" ","STREET":" ","SECT":" ","MAREA":"後鎮","LANE":" ","ALLEY":" ","HOUSE_NO":"９７之３號","E_COORD97":179057.22,"N_COORD97":2580927.29,"ADDRESS":"後鎮９７之３號","OBJECTID":313973},"geometry":{"x":179057.21999999974,"y":2580927.290000001}},{"attributes":{"ID":313982,"DIS_CODE":0,"TOWNNAME":"新營區","LI":"嘉芳里","LIN":" ","STREET":" ","SECT":" ","MAREA":"茄苳腳","LANE":" ","ALLEY":" ","HOUSE_NO":"５７之７號","E_COORD97":176920.60999999999,"N_COORD97":2578391.6299999999,"ADDRESS":"茄苳腳５７之７號","OBJECTID":313974},"geometry":{"x":176920.61000000034,"y":2578391.6300000008}},{"attributes":{"ID":313983,"DIS_CODE":0,"TOWNNAME":"新營區","LI":"嘉芳里","LIN":"5鄰","STREET":" ","SECT":" ","MAREA":"茄苳腳","LANE":" ","ALLEY":" ","HOUSE_NO":"５７號之３７","E_COORD97":176848.54999999999,"N_COORD97":2578459.5499999998,"ADDRESS":"茄苳腳５７之３７號","OBJECTID":313975},"geometry":{"x":176848.55000000075,"y":2578459.5500000007}},{"attributes":{"ID":313984,"DIS_CODE":0,"TOWNNAME":"新營區","LI":"嘉芳里","LIN":" ","STREET":" ","SECT":" ","MAREA":"茄苳腳","LANE":" ","ALLEY":" ","HOUSE_NO":"５７之１５號","E_COORD97":176889.22,"N_COORD97":2578410.6299999999,"ADDRESS":"茄苳腳５７之１５號","OBJECTID":313976},"geometry":{"x":176889.2200000016,"y":2578410.6299999971}},{"attributes":{"ID":313985,"DIS_CODE":0,"TOWNNAME":"新營區","LI":"新東里","LIN":"4鄰","STREET":"東大街","SECT":" ","MAREA":" ","LANE":"５２巷","ALLEY":" ","HOUSE_NO":"３２號","E_COORD97":181129.73000000001,"N_COORD97":2579136.6499999999,"ADDRESS":"東大街５２巷３２號","OBJECTID":313977},"geometry":{"x":181129.73000000138,"y":2579136.6500000004}},{"attributes":{"ID":313986,"DIS_CODE":0,"TOWNNAME":"新營區","LI":"興業里","LIN":" ","STREET":"中興路","SECT":" ","MAREA":" ","LANE":"１３巷","ALLEY":" ","HOUSE_NO":"３０之４號","E_COORD97":180274.70000000001,"N_COORD97":2577960.1699999999,"ADDRESS":"中興路１３巷３０之４號","OBJECTID":313978},"geometry":{"x":180274.70000000019,"y":2577960.1699999999}},{"attributes":{"ID":313987,"DIS_CODE":0,"TOWNNAME":"北區","LI":"大港里","LIN":"7鄰","STREET":"大興街","SECT":" ","MAREA":" ","LANE":"２２６巷","ALLEY":" ","HOUSE_NO":"５０號","E_COORD97":166773.39000000001,"N_COORD97":2545860.5800000001,"ADDRESS":"大興街２２６巷５０號","OBJECTID":313979},"geometry":{"x":166773.3900000006,"y":2545860.5800000001}},{"attributes":{"ID":313988,"DIS_CODE":0,"TOWNNAME":"北區","LI":"大港里","LIN":"7鄰","STREET":"大興街","SECT":" ","MAREA":" ","LANE":"２２６巷","ALLEY":" ","HOUSE_NO":"６號","E_COORD97":166748.88,"N_COORD97":2545741.2000000002,"ADDRESS":"大興街２２６巷６號","OBJECTID":313980},"geometry":{"x":166748.87999999989,"y":2545741.200000003}},{"attributes":{"ID":313989,"DIS_CODE":0,"TOWNNAME":"北區","LI":"大港里","LIN":"7鄰","STREET":"大興街","SECT":" ","MAREA":" ","LANE":"２２６巷","ALLEY":" ","HOUSE_NO":"８號","E_COORD97":166748.35999999999,"N_COORD97":2545746.4300000002,"ADDRESS":"大興街２２６巷８號","OBJECTID":313981},"geometry":{"x":166748.3600000022,"y":2545746.4299999997}},{"attributes":{"ID":313990,"DIS_CODE":0,"TOWNNAME":"北區","LI":"大港里","LIN":"7鄰","STREET":"大興街","SECT":" ","MAREA":" ","LANE":"２２６巷","ALLEY":" ","HOUSE_NO":"１１號","E_COORD97":166732.10999999999,"N_COORD97":2545761.77,"ADDRESS":"大興街２２６巷１１號","OBJECTID":313982},"geometry":{"x":166732.11000000127,"y":2545761.7700000014}},{"attributes":{"ID":313991,"DIS_CODE":0,"TOWNNAME":"北區","LI":"大港里","LIN":"7鄰","STREET":"大興街","SECT":" ","MAREA":" ","LANE":"２２６巷","ALLEY":" ","HOUSE_NO":"１３號","E_COORD97":166731.57000000001,"N_COORD97":2545765.8599999999,"ADDRESS":"大興街２２６巷１３號","OBJECTID":313983},"geometry":{"x":166731.57000000216,"y":2545765.8599999994}},{"attributes":{"ID":313992,"DIS_CODE":0,"TOWNNAME":"安平區","LI":"建平里","LIN":"17鄰","STREET":"建平十一街","SECT":" ","MAREA":" ","LANE":" ","ALLEY":" ","HOUSE_NO":"１８８號","E_COORD97":165923.31,"N_COORD97":2543959.0899999999,"ADDRESS":"建平十一街１８８號","OBJECTID":313984},"geometry":{"x":165923.30999999959,"y":2543959.0900000036}},{"attributes":{"ID":313993,"DIS_CODE":0,"TOWNNAME":"安平區","LI":"國平里","LIN":"17鄰","STREET":"健康路","SECT":"三段","MAREA":" ","LANE":" ","ALLEY":" ","HOUSE_NO":"２４２號","E_COORD97":165302.42999999999,"N_COORD97":2542738.4700000002,"ADDRESS":"健康路三段２４２號","OBJECTID":313985},"geometry":{"x":165302.4299999997,"y":2542738.4700000025}},{"attributes":{"ID":313994,"DIS_CODE":0,"TOWNNAME":"安平區","LI":"億載里","LIN":"17鄰","STREET":"健康四街","SECT":" ","MAREA":" ","LANE":" ","ALLEY":" ","HOUSE_NO":"５３號","E_COORD97":164181.76000000001,"N_COORD97":2543079.0899999999,"ADDRESS":"健康四街５３號","OBJECTID":313986},"geometry":{"x":164181.75999999885,"y":2543079.0900000017}},{"attributes":{"ID":313995,"DIS_CODE":0,"TOWNNAME":"新營區","LI":"太北里","LIN":"16鄰","STREET":" ","SECT":" ","MAREA":"太子宮","LANE":" ","ALLEY":" ","HOUSE_NO":"１３３之７號","E_COORD97":175894.26999999999,"N_COORD97":2576839.6499999999,"ADDRESS":"太子宮１３３之７號","OBJECTID":313987},"geometry":{"x":175894.27000000048,"y":2576839.6500000022}},{"attributes":{"ID":313996,"DIS_CODE":0,"TOWNNAME":"新營區","LI":"王公里","LIN":"6鄰","STREET":"民治路","SECT":" ","MAREA":" ","LANE":" ","ALLEY":" ","HOUSE_NO":"８號之６","E_COORD97":180462.98000000001,"N_COORD97":2578900.6099999999,"ADDRESS":"民治路８號之６","OBJECTID":313988},"geometry":{"x":180462.98000000045,"y":2578900.6100000013}},{"attributes":{"ID":313997,"DIS_CODE":0,"TOWNNAME":"新營區","LI":"土庫里","LIN":"1鄰","STREET":" ","SECT":" ","MAREA":"土庫","LANE":" ","ALLEY":" ","HOUSE_NO":"５號之９","E_COORD97":182945.37,"N_COORD97":2580037.5800000001,"ADDRESS":"土庫５號之９","OBJECTID":313989},"geometry":{"x":182945.36999999918,"y":2580037.5800000019}},{"attributes":{"ID":313998,"DIS_CODE":0,"TOWNNAME":"新營區","LI":"嘉芳里","LIN":"4鄰","STREET":" ","SECT":" ","MAREA":"茄苳腳","LANE":" ","ALLEY":" ","HOUSE_NO":"５０之１５號","E_COORD97":176908.48999999999,"N_COORD97":2578376.1899999999,"ADDRESS":"茄苳腳５０之１５號","OBJECTID":313990},"geometry":{"x":176908.49000000115,"y":2578376.1899999995}},{"attributes":{"ID":313999,"DIS_CODE":0,"TOWNNAME":"新營區","LI":"護鎮里","LIN":"1鄰","STREET":" ","SECT":" ","MAREA":"後鎮","LANE":" ","ALLEY":" ","HOUSE_NO":"３號之６","E_COORD97":179607.95999999999,"N_COORD97":2581059.7599999998,"ADDRESS":"後鎮３之６號","OBJECTID":313991},"geometry":{"x":179607.95999999996,"y":2581059.7600000016}},{"attributes":{"ID":314000,"DIS_CODE":0,"TOWNNAME":"新營區","LI":"護鎮里","LIN":"1鄰","STREET":" ","SECT":" ","MAREA":"後鎮","LANE":" ","ALLEY":" ","HOUSE_NO":"３號之９","E_COORD97":179608.01999999999,"N_COORD97":2581073.04,"ADDRESS":"後鎮３之９號","OBJECTID":313992},"geometry":{"x":179608.02000000048,"y":2581073.0400000028}},{"attributes":{"ID":314001,"DIS_CODE":0,"TOWNNAME":"新營區","LI":"新東里","LIN":"23鄰","STREET":"大同路","SECT":" ","MAREA":" ","LANE":"７２巷","ALLEY":" ","HOUSE_NO":"２２號","E_COORD97":180747.88,"N_COORD97":2578970.1600000001,"ADDRESS":"大同路７２巷２２號","OBJECTID":313993},"geometry":{"x":180747.87999999989,"y":2578970.1600000001}},{"attributes":{"ID":314002,"DIS_CODE":0,"TOWNNAME":"新營區","LI":"新東里","LIN":"20鄰","STREET":"東明街","SECT":" ","MAREA":" ","LANE":"２巷","ALLEY":" ","HOUSE_NO":"３９號","E_COORD97":180881.04999999999,"N_COORD97":2579545.3399999999,"ADDRESS":"東明街２巷３９號","OBJECTID":313994},"geometry":{"x":180881.05000000168,"y":2579545.3399999999}},{"attributes":{"ID":314003,"DIS_CODE":0,"TOWNNAME":"新營區","LI":"民生里","LIN":"25鄰","STREET":"民生路","SECT":" ","MAREA":" ","LANE":"１３９巷","ALLEY":" ","HOUSE_NO":"４號","E_COORD97":179207.16,"N_COORD97":2578609.7000000002,"ADDRESS":"民生路１３９巷４號","OBJECTID":313995},"geometry":{"x":179207.16000000015,"y":2578609.6999999993}},{"attributes":{"ID":314004,"DIS_CODE":0,"TOWNNAME":"北區","LI":"大港里","LIN":"7鄰","STREET":"大興街","SECT":" ","MAREA":" ","LANE":"２２６巷","ALLEY":" ","HOUSE_NO":"１５號","E_COORD97":166730.85999999999,"N_COORD97":2545770.6600000001,"ADDRESS":"大興街２２６巷１５號","OBJECTID":313996},"geometry":{"x":166730.86000000034,"y":2545770.660000002}},{"attributes":{"ID":314005,"DIS_CODE":0,"TOWNNAME":"北區","LI":"大港里","LIN":"7鄰","STREET":"大興街","SECT":" ","MAREA":" ","LANE":"２２６巷","ALLEY":" ","HOUSE_NO":"１７號","E_COORD97":166729.60999999999,"N_COORD97":2545774.3999999999,"ADDRESS":"大興街２２６巷１７號","OBJECTID":313997},"geometry":{"x":166729.6100000022,"y":2545774.4000000004}},{"attributes":{"ID":314006,"DIS_CODE":0,"TOWNNAME":"北區","LI":"大港里","LIN":"7鄰","STREET":"大興街","SECT":" ","MAREA":" ","LANE":"２２６巷","ALLEY":" ","HOUSE_NO":"１９號","E_COORD97":166728.72,"N_COORD97":2545779.02,"ADDRESS":"大興街２２６巷１９號","OBJECTID":313998},"geometry":{"x":166728.72000000067,"y":2545779.0199999996}},{"attributes":{"ID":314007,"DIS_CODE":0,"TOWNNAME":"安平區","LI":"建平里","LIN":"17鄰","STREET":"文平路","SECT":" ","MAREA":" ","LANE":" ","ALLEY":" ","HOUSE_NO":"４９８號","E_COORD97":165844.5,"N_COORD97":2543979.79,"ADDRESS":"文平路４９８號","OBJECTID":313999},"geometry":{"x":165844.5,"y":2543979.7899999991}},{"attributes":{"ID":314008,"DIS_CODE":0,"TOWNNAME":"安平區","LI":"建平里","LIN":"17鄰","STREET":"文平路","SECT":" ","MAREA":" ","LANE":" ","ALLEY":" ","HOUSE_NO":"５０６號","E_COORD97":165847.35999999999,"N_COORD97":2544001.6899999999,"ADDRESS":"文平路５０６號","OBJECTID":314000},"geometry":{"x":165847.36000000034,"y":2544001.6899999995}}]}