{"displayFieldName":"TOWNNAME","fieldAliases":{"ID":"ID","DIS_CODE":"DIS_CODE","TOWNNAME":"TOWNNAME","LI":"LI","LIN":"LIN","STREET":"STREET","SECT":"SECT","MAREA":"MAREA","LANE":"LANE","ALLEY":"ALLEY","HOUSE_NO":"HOUSE_NO","E_COORD97":"E_COORD97","N_COORD97":"N_COORD97","ADDRESS":"ADDRESS","OBJECTID":"OBJECTID"},"geometryType":"esriGeometryPoint","spatialReference":{"wkid":102443,"latestWkid":3826},"fields":[{"name":"ID","type":"esriFieldTypeDouble","alias":"ID"},{"name":"DIS_CODE","type":"esriFieldTypeInteger","alias":"DIS_CODE"},{"name":"TOWNNAME","type":"esriFieldTypeString","alias":"TOWNNAME","length":8},{"name":"LI","type":"esriFieldTypeString","alias":"LI","length":8},{"name":"LIN","type":"esriFieldTypeString","alias":"LIN","length":12},{"name":"STREET","type":"esriFieldTypeString","alias":"STREET","length":20},{"name":"SECT","type":"esriFieldTypeString","alias":"SECT","length":8},{"name":"MAREA","type":"esriFieldTypeString","alias":"MAREA","length":12},{"name":"LANE","type":"esriFieldTypeString","alias":"LANE","length":10},{"name":"ALLEY","type":"esriFieldTypeString","alias":"ALLEY","length":10},{"name":"HOUSE_NO","type":"esriFieldTypeString","alias":"HOUSE_NO","length":20},{"name":"E_COORD97","type":"esriFieldTypeDouble","alias":"E_COORD97"},{"name":"N_COORD97","type":"esriFieldTypeDouble","alias":"N_COORD97"},{"name":"ADDRESS","type":"esriFieldTypeString","alias":"ADDRESS","length":50},{"name":"OBJECTID","type":"esriFieldTypeOID","alias":"OBJECTID"}],"features":[{"attributes":{"ID":236205,"DIS_CODE":0,"TOWNNAME":"安南區","LI":"新順里","LIN":"16鄰","STREET":"安生街","SECT":" ","MAREA":" ","LANE":"４９巷","ALLEY":" ","HOUSE_NO":"１２號","E_COORD97":169626.79999999999,"N_COORD97":2549435.6800000002,"ADDRESS":"安生街４９巷１２號","OBJECTID":236201},"geometry":{"x":169626.80000000075,"y":2549435.6799999997}},{"attributes":{"ID":236206,"DIS_CODE":0,"TOWNNAME":"安南區","LI":"新順里","LIN":"16鄰","STREET":"安生街","SECT":" ","MAREA":" ","LANE":"４９巷","ALLEY":" ","HOUSE_NO":"４號","E_COORD97":169637.98000000001,"N_COORD97":2549449.3799999999,"ADDRESS":"安生街４９巷４號","OBJECTID":236202},"geometry":{"x":169637.98000000231,"y":2549449.3800000008}},{"attributes":{"ID":236207,"DIS_CODE":0,"TOWNNAME":"安南區","LI":"新順里","LIN":"16鄰","STREET":"安生街","SECT":" ","MAREA":" ","LANE":"４９巷","ALLEY":" ","HOUSE_NO":"６號","E_COORD97":169635.42999999999,"N_COORD97":2549446.0699999998,"ADDRESS":"安生街４９巷６號","OBJECTID":236203},"geometry":{"x":169635.4299999997,"y":2549446.0700000022}},{"attributes":{"ID":236208,"DIS_CODE":0,"TOWNNAME":"安南區","LI":"新順里","LIN":"16鄰","STREET":"安生街","SECT":" ","MAREA":" ","LANE":"４９巷","ALLEY":" ","HOUSE_NO":"８號","E_COORD97":169631.85999999999,"N_COORD97":2549442.7599999998,"ADDRESS":"安生街４９巷８號","OBJECTID":236204},"geometry":{"x":169631.8600000022,"y":2549442.7599999998}},{"attributes":{"ID":236209,"DIS_CODE":0,"TOWNNAME":"安南區","LI":"淵東里","LIN":"16鄰","STREET":"安中路","SECT":"三段","MAREA":" ","LANE":"２５６巷","ALLEY":" ","HOUSE_NO":"８１號","E_COORD97":165707.42000000001,"N_COORD97":2550024.6400000001,"ADDRESS":"安中路三段２５６巷８１號","OBJECTID":236205},"geometry":{"x":165707.42000000086,"y":2550024.6399999987}},{"attributes":{"ID":236210,"DIS_CODE":0,"TOWNNAME":"南區","LI":"同安里","LIN":"12鄰","STREET":"明興路","SECT":" ","MAREA":" ","LANE":" ","ALLEY":" ","HOUSE_NO":"１１９７號","E_COORD97":166491.67000000001,"N_COORD97":2536276.0499999998,"ADDRESS":"明興路１１９７號","OBJECTID":236206},"geometry":{"x":166491.67000000086,"y":2536276.0500000007}},{"attributes":{"ID":236211,"DIS_CODE":0,"TOWNNAME":"永康區","LI":"三民里","LIN":"14鄰","STREET":"中正北路","SECT":" ","MAREA":" ","LANE":" ","ALLEY":" ","HOUSE_NO":"９２４號","E_COORD97":175307.63,"N_COORD97":2550412.4900000002,"ADDRESS":"中正北路９２４號","OBJECTID":236207},"geometry":{"x":175307.62999999989,"y":2550412.4900000021}},{"attributes":{"ID":236212,"DIS_CODE":0,"TOWNNAME":"永康區","LI":"大橋里","LIN":"14鄰","STREET":"中華路","SECT":" ","MAREA":" ","LANE":" ","ALLEY":" ","HOUSE_NO":"７８０號","E_COORD97":170847.23000000001,"N_COORD97":2546445.25,"ADDRESS":"中華路７８０號","OBJECTID":236208},"geometry":{"x":170847.23000000138,"y":2546445.25}},{"attributes":{"ID":236213,"DIS_CODE":0,"TOWNNAME":"永康區","LI":"三民里","LIN":"14鄰","STREET":"中正北路","SECT":" ","MAREA":" ","LANE":" ","ALLEY":" ","HOUSE_NO":"９５０號之５","E_COORD97":175627.53,"N_COORD97":2550638.29,"ADDRESS":"中正北路９５０號之５","OBJECTID":236209},"geometry":{"x":175627.53000000026,"y":2550638.2899999991}},{"attributes":{"ID":236214,"DIS_CODE":0,"TOWNNAME":"東區","LI":"裕農里","LIN":"14鄰","STREET":"東寧路","SECT":" ","MAREA":" ","LANE":" ","ALLEY":" ","HOUSE_NO":"３５４號","E_COORD97":170848.75,"N_COORD97":2543368.5600000001,"ADDRESS":"東寧路３５４號","OBJECTID":236210},"geometry":{"x":170848.75,"y":2543368.5600000005}},{"attributes":{"ID":236215,"DIS_CODE":0,"TOWNNAME":"永康區","LI":"王行里","LIN":"14鄰","STREET":"興工路","SECT":" ","MAREA":" ","LANE":" ","ALLEY":" ","HOUSE_NO":"８號","E_COORD97":175447.51999999999,"N_COORD97":2549607.9199999999,"ADDRESS":"興工路８號","OBJECTID":236211},"geometry":{"x":175447.51999999955,"y":2549607.9199999999}},{"attributes":{"ID":236216,"DIS_CODE":0,"TOWNNAME":"安南區","LI":"淵中里","LIN":"16鄰","STREET":"本田路","SECT":"三段","MAREA":" ","LANE":"６６８巷","ALLEY":" ","HOUSE_NO":"７號","E_COORD97":164944.99480700001,"N_COORD97":2549810.6022399999,"ADDRESS":"本田路三段６６８巷７號","OBJECTID":236212},"geometry":{"x":164944.99480700213,"y":2549810.6022420023}},{"attributes":{"ID":236217,"DIS_CODE":0,"TOWNNAME":"南區","LI":"永寧里","LIN":"16鄰","STREET":"灣裡路","SECT":" ","MAREA":" ","LANE":"２１１巷","ALLEY":" ","HOUSE_NO":"１６之２號","E_COORD97":166159.57999999999,"N_COORD97":2536559.1299999999,"ADDRESS":"灣裡路２１１巷１６之２號","OBJECTID":236213},"geometry":{"x":166159.58000000007,"y":2536559.129999999}},{"attributes":{"ID":236218,"DIS_CODE":0,"TOWNNAME":"東區","LI":"虎尾里","LIN":"16鄰","STREET":"東成街","SECT":" ","MAREA":" ","LANE":"４６巷","ALLEY":" ","HOUSE_NO":"３１號","E_COORD97":171363.85999999999,"N_COORD97":2542169.1099999999,"ADDRESS":"東成街４６巷３１號","OBJECTID":236214},"geometry":{"x":171363.86000000034,"y":2542169.1100000013}},{"attributes":{"ID":236219,"DIS_CODE":0,"TOWNNAME":"南區","LI":"建南里","LIN":"16鄰","STREET":"中華南路","SECT":"二段","MAREA":" ","LANE":"２３３巷","ALLEY":" ","HOUSE_NO":"６之１１號","E_COORD97":166841.38,"N_COORD97":2540117.4500000002,"ADDRESS":"中華南路二段２３３巷６之１１號","OBJECTID":236215},"geometry":{"x":166841.38000000082,"y":2540117.4499999993}},{"attributes":{"ID":236220,"DIS_CODE":0,"TOWNNAME":"永康區","LI":"西橋里","LIN":"13鄰","STREET":"大橋三街","SECT":" ","MAREA":" ","LANE":"１０巷","ALLEY":" ","HOUSE_NO":"１２號之１六樓之２","E_COORD97":170542.92000000001,"N_COORD97":2546332.7999999998,"ADDRESS":"大橋三街１０巷１２號之１六樓之２","OBJECTID":236216},"geometry":{"x":170542.92000000179,"y":2546332.8000000026}},{"attributes":{"ID":236221,"DIS_CODE":0,"TOWNNAME":"東區","LI":"東門里","LIN":"13鄰","STREET":"東門路","SECT":"一段","MAREA":" ","LANE":"２１１巷","ALLEY":" ","HOUSE_NO":"６號二樓","E_COORD97":169694.85999999999,"N_COORD97":2543158.54,"ADDRESS":"東門路一段２１１巷６號二樓","OBJECTID":236217},"geometry":{"x":169694.86000000127,"y":2543158.5400000028}},{"attributes":{"ID":236222,"DIS_CODE":0,"TOWNNAME":"東區","LI":"東門里","LIN":"13鄰","STREET":"東門路","SECT":"一段","MAREA":" ","LANE":"２１１巷","ALLEY":" ","HOUSE_NO":"６號三樓","E_COORD97":169694.85999999999,"N_COORD97":2543158.54,"ADDRESS":"東門路一段２１１巷６號三樓","OBJECTID":236218},"geometry":{"x":169694.86000000127,"y":2543158.5400000028}},{"attributes":{"ID":236223,"DIS_CODE":0,"TOWNNAME":"東區","LI":"崇德里","LIN":"13鄰","STREET":"崇明十三街","SECT":" ","MAREA":" ","LANE":"１１巷","ALLEY":" ","HOUSE_NO":"１１號七樓","E_COORD97":170434.92000000001,"N_COORD97":2541615.25,"ADDRESS":"崇明十三街１１巷１１號七樓","OBJECTID":236219},"geometry":{"x":170434.92000000086,"y":2541615.2500000037}},{"attributes":{"ID":236224,"DIS_CODE":0,"TOWNNAME":"東區","LI":"崇德里","LIN":"13鄰","STREET":"崇明十三街","SECT":" ","MAREA":" ","LANE":"１１巷","ALLEY":" ","HOUSE_NO":"１１號二樓","E_COORD97":170434.92000000001,"N_COORD97":2541615.25,"ADDRESS":"崇明十三街１１巷１１號二樓","OBJECTID":236220},"geometry":{"x":170434.92000000086,"y":2541615.2500000037}},{"attributes":{"ID":236225,"DIS_CODE":0,"TOWNNAME":"東區","LI":"崇德里","LIN":"13鄰","STREET":"崇明十三街","SECT":" ","MAREA":" ","LANE":"１１巷","ALLEY":" ","HOUSE_NO":"１１號三樓","E_COORD97":170434.92000000001,"N_COORD97":2541615.25,"ADDRESS":"崇明十三街１１巷１１號三樓","OBJECTID":236221},"geometry":{"x":170434.92000000086,"y":2541615.2500000037}},{"attributes":{"ID":236226,"DIS_CODE":0,"TOWNNAME":"東區","LI":"崇德里","LIN":"13鄰","STREET":"崇明十三街","SECT":" ","MAREA":" ","LANE":"１１巷","ALLEY":" ","HOUSE_NO":"１１號五樓","E_COORD97":170434.92000000001,"N_COORD97":2541615.25,"ADDRESS":"崇明十三街１１巷１１號五樓","OBJECTID":236222},"geometry":{"x":170434.92000000086,"y":2541615.2500000037}},{"attributes":{"ID":236227,"DIS_CODE":0,"TOWNNAME":"東區","LI":"崇德里","LIN":"13鄰","STREET":"崇明十三街","SECT":" ","MAREA":" ","LANE":"１１巷","ALLEY":" ","HOUSE_NO":"１１號六樓","E_COORD97":170434.92000000001,"N_COORD97":2541615.25,"ADDRESS":"崇明十三街１１巷１１號六樓","OBJECTID":236223},"geometry":{"x":170434.92000000086,"y":2541615.2500000037}},{"attributes":{"ID":236228,"DIS_CODE":0,"TOWNNAME":"永康區","LI":"大灣里","LIN":"14鄰","STREET":"大灣路","SECT":" ","MAREA":" ","LANE":" ","ALLEY":" ","HOUSE_NO":"２９８號","E_COORD97":174898.35999999999,"N_COORD97":2545230.1800000002,"ADDRESS":"大灣路２９８號","OBJECTID":236224},"geometry":{"x":174898.36000000034,"y":2545230.1800000016}},{"attributes":{"ID":236229,"DIS_CODE":0,"TOWNNAME":"永康區","LI":"大橋里","LIN":"14鄰","STREET":"大橋二街","SECT":" ","MAREA":" ","LANE":" ","ALLEY":" ","HOUSE_NO":"２６號","E_COORD97":170777.10999999999,"N_COORD97":2546542.46,"ADDRESS":"大橋二街２６號","OBJECTID":236225},"geometry":{"x":170777.11000000034,"y":2546542.4600000028}},{"attributes":{"ID":236230,"DIS_CODE":0,"TOWNNAME":"永康區","LI":"大灣里","LIN":"14鄰","STREET":"民族路","SECT":" ","MAREA":" ","LANE":" ","ALLEY":" ","HOUSE_NO":"３８１號","E_COORD97":174882.25,"N_COORD97":2545295.6800000002,"ADDRESS":"民族路３８１號","OBJECTID":236226},"geometry":{"x":174882.25000000186,"y":2545295.6800000016}},{"attributes":{"ID":236231,"DIS_CODE":0,"TOWNNAME":"永康區","LI":"三合里","LIN":"14鄰","STREET":"南工街","SECT":" ","MAREA":" ","LANE":" ","ALLEY":" ","HOUSE_NO":"２０６號","E_COORD97":172041.95999999999,"N_COORD97":2545941.2400000002,"ADDRESS":"南工街２０６號","OBJECTID":236227},"geometry":{"x":172041.96000000089,"y":2545941.2400000002}},{"attributes":{"ID":236232,"DIS_CODE":0,"TOWNNAME":"安南區","LI":"淵中里","LIN":"16鄰","STREET":"本田路","SECT":"三段","MAREA":" ","LANE":" ","ALLEY":" ","HOUSE_NO":"６７８號","E_COORD97":164940.328243,"N_COORD97":2549843.0352099999,"ADDRESS":"本田路三段６７８號","OBJECTID":236228},"geometry":{"x":164940.32824300136,"y":2549843.0352120008}},{"attributes":{"ID":236233,"DIS_CODE":0,"TOWNNAME":"善化區","LI":"六德里","LIN":"16鄰","STREET":" ","SECT":" ","MAREA":"六分寮","LANE":" ","ALLEY":" ","HOUSE_NO":"３２９號","E_COORD97":178361.87,"N_COORD97":2561395.25,"ADDRESS":"六分寮３２９號","OBJECTID":236229},"geometry":{"x":178361.87000000104,"y":2561395.2500000019}},{"attributes":{"ID":236234,"DIS_CODE":0,"TOWNNAME":"東區","LI":"崇德里","LIN":"13鄰","STREET":"崇明十三街","SECT":" ","MAREA":" ","LANE":"１１巷","ALLEY":" ","HOUSE_NO":"１１號四樓","E_COORD97":170434.92000000001,"N_COORD97":2541615.25,"ADDRESS":"崇明十三街１１巷１１號四樓","OBJECTID":236230},"geometry":{"x":170434.92000000086,"y":2541615.2500000037}},{"attributes":{"ID":236235,"DIS_CODE":0,"TOWNNAME":"東區","LI":"崇德里","LIN":"13鄰","STREET":"崇明十三街","SECT":" ","MAREA":" ","LANE":"１１巷","ALLEY":" ","HOUSE_NO":"１３號七樓","E_COORD97":170431.34,"N_COORD97":2541619.54,"ADDRESS":"崇明十三街１１巷１３號七樓","OBJECTID":236231},"geometry":{"x":170431.33999999985,"y":2541619.540000001}},{"attributes":{"ID":236236,"DIS_CODE":0,"TOWNNAME":"善化區","LI":"溪美里","LIN":"16鄰","STREET":" ","SECT":" ","MAREA":"溪尾","LANE":" ","ALLEY":" ","HOUSE_NO":"１４９號","E_COORD97":176955.44,"N_COORD97":2561330.52,"ADDRESS":"溪尾１４９號","OBJECTID":236232},"geometry":{"x":176955.44000000041,"y":2561330.5199999996}},{"attributes":{"ID":236237,"DIS_CODE":0,"TOWNNAME":"東區","LI":"崇德里","LIN":"13鄰","STREET":"崇明十三街","SECT":" ","MAREA":" ","LANE":"１１巷","ALLEY":" ","HOUSE_NO":"１３號二樓","E_COORD97":170431.34,"N_COORD97":2541619.54,"ADDRESS":"崇明十三街１１巷１３號二樓","OBJECTID":236233},"geometry":{"x":170431.33999999985,"y":2541619.540000001}},{"attributes":{"ID":236238,"DIS_CODE":0,"TOWNNAME":"東區","LI":"崇德里","LIN":"13鄰","STREET":"崇明十三街","SECT":" ","MAREA":" ","LANE":"１１巷","ALLEY":" ","HOUSE_NO":"１３號三樓","E_COORD97":170431.34,"N_COORD97":2541619.54,"ADDRESS":"崇明十三街１１巷１３號三樓","OBJECTID":236234},"geometry":{"x":170431.33999999985,"y":2541619.540000001}},{"attributes":{"ID":236239,"DIS_CODE":0,"TOWNNAME":"東區","LI":"崇德里","LIN":"13鄰","STREET":"崇明十三街","SECT":" ","MAREA":" ","LANE":"１１巷","ALLEY":" ","HOUSE_NO":"１３號五樓","E_COORD97":170431.34,"N_COORD97":2541619.54,"ADDRESS":"崇明十三街１１巷１３號五樓","OBJECTID":236235},"geometry":{"x":170431.33999999985,"y":2541619.540000001}},{"attributes":{"ID":236240,"DIS_CODE":0,"TOWNNAME":"東區","LI":"崇德里","LIN":"13鄰","STREET":"崇明十三街","SECT":" ","MAREA":" ","LANE":"１１巷","ALLEY":" ","HOUSE_NO":"１３號六樓","E_COORD97":170431.34,"N_COORD97":2541619.54,"ADDRESS":"崇明十三街１１巷１３號六樓","OBJECTID":236236},"geometry":{"x":170431.33999999985,"y":2541619.540000001}},{"attributes":{"ID":236241,"DIS_CODE":0,"TOWNNAME":"東區","LI":"崇德里","LIN":"13鄰","STREET":"崇明十三街","SECT":" ","MAREA":" ","LANE":"１１巷","ALLEY":" ","HOUSE_NO":"１３號四樓","E_COORD97":170431.34,"N_COORD97":2541619.54,"ADDRESS":"崇明十三街１１巷１３號四樓","OBJECTID":236237},"geometry":{"x":170431.33999999985,"y":2541619.540000001}},{"attributes":{"ID":236242,"DIS_CODE":0,"TOWNNAME":"東區","LI":"崇德里","LIN":"13鄰","STREET":"崇明十三街","SECT":" ","MAREA":" ","LANE":"１１巷","ALLEY":" ","HOUSE_NO":"１５號二樓","E_COORD97":170438.41,"N_COORD97":2541632.1200000001,"ADDRESS":"崇明十三街１１巷１５號二樓","OBJECTID":236238},"geometry":{"x":170438.41000000108,"y":2541632.1200000029}},{"attributes":{"ID":236243,"DIS_CODE":0,"TOWNNAME":"東區","LI":"崇德里","LIN":"13鄰","STREET":"崇明十三街","SECT":" ","MAREA":" ","LANE":"１１巷","ALLEY":" ","HOUSE_NO":"１５號三樓","E_COORD97":170438.41,"N_COORD97":2541632.1200000001,"ADDRESS":"崇明十三街１１巷１５號三樓","OBJECTID":236239},"geometry":{"x":170438.41000000108,"y":2541632.1200000029}},{"attributes":{"ID":236244,"DIS_CODE":0,"TOWNNAME":"東區","LI":"崇德里","LIN":"13鄰","STREET":"崇明十三街","SECT":" ","MAREA":" ","LANE":"１１巷","ALLEY":" ","HOUSE_NO":"１５號五樓","E_COORD97":170438.41,"N_COORD97":2541632.1200000001,"ADDRESS":"崇明十三街１１巷１５號五樓","OBJECTID":236240},"geometry":{"x":170438.41000000108,"y":2541632.1200000029}},{"attributes":{"ID":236245,"DIS_CODE":0,"TOWNNAME":"東區","LI":"崇德里","LIN":"13鄰","STREET":"崇明十三街","SECT":" ","MAREA":" ","LANE":"１１巷","ALLEY":" ","HOUSE_NO":"１５號四樓","E_COORD97":170438.41,"N_COORD97":2541632.1200000001,"ADDRESS":"崇明十三街１１巷１５號四樓","OBJECTID":236241},"geometry":{"x":170438.41000000108,"y":2541632.1200000029}},{"attributes":{"ID":236246,"DIS_CODE":0,"TOWNNAME":"東區","LI":"崇德里","LIN":"13鄰","STREET":"崇明十三街","SECT":" ","MAREA":" ","LANE":"１１巷","ALLEY":" ","HOUSE_NO":"１７號二樓","E_COORD97":170433.04999999999,"N_COORD97":2541637,"ADDRESS":"崇明十三街１１巷１７號二樓","OBJECTID":236242},"geometry":{"x":170433.04999999981,"y":2541637}},{"attributes":{"ID":236247,"DIS_CODE":0,"TOWNNAME":"東區","LI":"崇德里","LIN":"13鄰","STREET":"崇明十三街","SECT":" ","MAREA":" ","LANE":"１１巷","ALLEY":" ","HOUSE_NO":"１７號三樓","E_COORD97":170433.04999999999,"N_COORD97":2541637,"ADDRESS":"崇明十三街１１巷１７號三樓","OBJECTID":236243},"geometry":{"x":170433.04999999981,"y":2541637}},{"attributes":{"ID":236248,"DIS_CODE":0,"TOWNNAME":"東區","LI":"崇德里","LIN":"13鄰","STREET":"崇明十三街","SECT":" ","MAREA":" ","LANE":"１１巷","ALLEY":" ","HOUSE_NO":"１７號五樓","E_COORD97":170433.04999999999,"N_COORD97":2541637,"ADDRESS":"崇明十三街１１巷１７號五樓","OBJECTID":236244},"geometry":{"x":170433.04999999981,"y":2541637}},{"attributes":{"ID":236249,"DIS_CODE":0,"TOWNNAME":"東區","LI":"崇德里","LIN":"13鄰","STREET":"崇明十三街","SECT":" ","MAREA":" ","LANE":"１１巷","ALLEY":" ","HOUSE_NO":"１７號四樓","E_COORD97":170433.04999999999,"N_COORD97":2541637,"ADDRESS":"崇明十三街１１巷１７號四樓","OBJECTID":236245},"geometry":{"x":170433.04999999981,"y":2541637}},{"attributes":{"ID":236250,"DIS_CODE":0,"TOWNNAME":"東區","LI":"崇德里","LIN":"13鄰","STREET":"崇明十三街","SECT":" ","MAREA":" ","LANE":"１１巷","ALLEY":" ","HOUSE_NO":"１９號二樓","E_COORD97":170427.51999999999,"N_COORD97":2541641.71,"ADDRESS":"崇明十三街１１巷１９號二樓","OBJECTID":236246},"geometry":{"x":170427.51999999955,"y":2541641.7100000028}},{"attributes":{"ID":236251,"DIS_CODE":0,"TOWNNAME":"安南區","LI":"淵中里","LIN":"16鄰","STREET":"本田路","SECT":"三段","MAREA":" ","LANE":" ","ALLEY":" ","HOUSE_NO":"６８２號","E_COORD97":164947.214741,"N_COORD97":2549848.2210400002,"ADDRESS":"本田路三段６８２號","OBJECTID":236247},"geometry":{"x":164947.21474099904,"y":2549848.2210419998}},{"attributes":{"ID":236252,"DIS_CODE":0,"TOWNNAME":"東區","LI":"崇德里","LIN":"13鄰","STREET":"崇明十三街","SECT":" ","MAREA":" ","LANE":"１１巷","ALLEY":" ","HOUSE_NO":"１９號三樓","E_COORD97":170427.51999999999,"N_COORD97":2541641.71,"ADDRESS":"崇明十三街１１巷１９號三樓","OBJECTID":236248},"geometry":{"x":170427.51999999955,"y":2541641.7100000028}},{"attributes":{"ID":236253,"DIS_CODE":0,"TOWNNAME":"東區","LI":"崇德里","LIN":"13鄰","STREET":"崇明十三街","SECT":" ","MAREA":" ","LANE":"１１巷","ALLEY":" ","HOUSE_NO":"１９號五樓","E_COORD97":170427.51999999999,"N_COORD97":2541641.71,"ADDRESS":"崇明十三街１１巷１９號五樓","OBJECTID":236249},"geometry":{"x":170427.51999999955,"y":2541641.7100000028}},{"attributes":{"ID":236254,"DIS_CODE":0,"TOWNNAME":"東區","LI":"崇德里","LIN":"13鄰","STREET":"崇明十三街","SECT":" ","MAREA":" ","LANE":"１１巷","ALLEY":" ","HOUSE_NO":"１９號四樓","E_COORD97":170427.51999999999,"N_COORD97":2541641.71,"ADDRESS":"崇明十三街１１巷１９號四樓","OBJECTID":236250},"geometry":{"x":170427.51999999955,"y":2541641.7100000028}},{"attributes":{"ID":236255,"DIS_CODE":0,"TOWNNAME":"東區","LI":"崇德里","LIN":"13鄰","STREET":"崇明十三街","SECT":" ","MAREA":" ","LANE":"１１巷","ALLEY":" ","HOUSE_NO":"２１號二樓","E_COORD97":170426.54000000001,"N_COORD97":2541647.8799999999,"ADDRESS":"崇明十三街１１巷２１號二樓","OBJECTID":236251},"geometry":{"x":170426.54000000004,"y":2541647.8800000008}},{"attributes":{"ID":236256,"DIS_CODE":0,"TOWNNAME":"東區","LI":"崇德里","LIN":"13鄰","STREET":"崇明十三街","SECT":" ","MAREA":" ","LANE":"１１巷","ALLEY":" ","HOUSE_NO":"２１號三樓","E_COORD97":170426.54000000001,"N_COORD97":2541647.8799999999,"ADDRESS":"崇明十三街１１巷２１號三樓","OBJECTID":236252},"geometry":{"x":170426.54000000004,"y":2541647.8800000008}},{"attributes":{"ID":236257,"DIS_CODE":0,"TOWNNAME":"東區","LI":"崇德里","LIN":"13鄰","STREET":"崇明十三街","SECT":" ","MAREA":" ","LANE":"１１巷","ALLEY":" ","HOUSE_NO":"２１號五樓","E_COORD97":170426.54000000001,"N_COORD97":2541647.8799999999,"ADDRESS":"崇明十三街１１巷２１號五樓","OBJECTID":236253},"geometry":{"x":170426.54000000004,"y":2541647.8800000008}},{"attributes":{"ID":236258,"DIS_CODE":0,"TOWNNAME":"東區","LI":"崇德里","LIN":"13鄰","STREET":"崇明十三街","SECT":" ","MAREA":" ","LANE":"１１巷","ALLEY":" ","HOUSE_NO":"２１號四樓","E_COORD97":170426.54000000001,"N_COORD97":2541647.8799999999,"ADDRESS":"崇明十三街１１巷２１號四樓","OBJECTID":236254},"geometry":{"x":170426.54000000004,"y":2541647.8800000008}},{"attributes":{"ID":236259,"DIS_CODE":0,"TOWNNAME":"東區","LI":"崇德里","LIN":"13鄰","STREET":"崇明十三街","SECT":" ","MAREA":" ","LANE":"１１巷","ALLEY":" ","HOUSE_NO":"２３號二樓","E_COORD97":170433.20999999999,"N_COORD97":2541654.3799999999,"ADDRESS":"崇明十三街１１巷２３號二樓","OBJECTID":236255},"geometry":{"x":170433.21000000089,"y":2541654.3800000008}},{"attributes":{"ID":236260,"DIS_CODE":0,"TOWNNAME":"東區","LI":"崇德里","LIN":"13鄰","STREET":"崇明十三街","SECT":" ","MAREA":" ","LANE":"１１巷","ALLEY":" ","HOUSE_NO":"２３號三樓","E_COORD97":170433.20999999999,"N_COORD97":2541654.3799999999,"ADDRESS":"崇明十三街１１巷２３號三樓","OBJECTID":236256},"geometry":{"x":170433.21000000089,"y":2541654.3800000008}},{"attributes":{"ID":236261,"DIS_CODE":0,"TOWNNAME":"東區","LI":"崇德里","LIN":"13鄰","STREET":"崇明十三街","SECT":" ","MAREA":" ","LANE":"１１巷","ALLEY":" ","HOUSE_NO":"２３號五樓","E_COORD97":170433.20999999999,"N_COORD97":2541654.3799999999,"ADDRESS":"崇明十三街１１巷２３號五樓","OBJECTID":236257},"geometry":{"x":170433.21000000089,"y":2541654.3800000008}},{"attributes":{"ID":236262,"DIS_CODE":0,"TOWNNAME":"東區","LI":"崇德里","LIN":"13鄰","STREET":"崇明十三街","SECT":" ","MAREA":" ","LANE":"１１巷","ALLEY":" ","HOUSE_NO":"２３號四樓","E_COORD97":170433.20999999999,"N_COORD97":2541654.3799999999,"ADDRESS":"崇明十三街１１巷２３號四樓","OBJECTID":236258},"geometry":{"x":170433.21000000089,"y":2541654.3800000008}},{"attributes":{"ID":236263,"DIS_CODE":0,"TOWNNAME":"東區","LI":"崇德里","LIN":"13鄰","STREET":"崇明十三街","SECT":" ","MAREA":" ","LANE":"１１巷","ALLEY":" ","HOUSE_NO":"２５號二樓","E_COORD97":170442.10999999999,"N_COORD97":2541652.4199999999,"ADDRESS":"崇明十三街１１巷２５號二樓","OBJECTID":236259},"geometry":{"x":170442.1100000022,"y":2541652.4200000018}},{"attributes":{"ID":236264,"DIS_CODE":0,"TOWNNAME":"永康區","LI":"復國里","LIN":"14鄰","STREET":"復國二路","SECT":" ","MAREA":" ","LANE":" ","ALLEY":" ","HOUSE_NO":"１７６號","E_COORD97":172927.78,"N_COORD97":2545694.9300000002,"ADDRESS":"復國二路１７６號","OBJECTID":236260},"geometry":{"x":172927.78000000212,"y":2545694.9299999997}},{"attributes":{"ID":236265,"DIS_CODE":0,"TOWNNAME":"東區","LI":"崇德里","LIN":"13鄰","STREET":"崇明十三街","SECT":" ","MAREA":" ","LANE":"１１巷","ALLEY":" ","HOUSE_NO":"２５號三樓","E_COORD97":170442.10999999999,"N_COORD97":2541652.4199999999,"ADDRESS":"崇明十三街１１巷２５號三樓","OBJECTID":236261},"geometry":{"x":170442.1100000022,"y":2541652.4200000018}},{"attributes":{"ID":236266,"DIS_CODE":0,"TOWNNAME":"東區","LI":"崇德里","LIN":"13鄰","STREET":"崇明十三街","SECT":" ","MAREA":" ","LANE":"１１巷","ALLEY":" ","HOUSE_NO":"２５號五樓","E_COORD97":170442.10999999999,"N_COORD97":2541652.4199999999,"ADDRESS":"崇明十三街１１巷２５號五樓","OBJECTID":236262},"geometry":{"x":170442.1100000022,"y":2541652.4200000018}},{"attributes":{"ID":236267,"DIS_CODE":0,"TOWNNAME":"東區","LI":"崇德里","LIN":"13鄰","STREET":"崇明十三街","SECT":" ","MAREA":" ","LANE":"１１巷","ALLEY":" ","HOUSE_NO":"２５號四樓","E_COORD97":170442.10999999999,"N_COORD97":2541652.4199999999,"ADDRESS":"崇明十三街１１巷２５號四樓","OBJECTID":236263},"geometry":{"x":170442.1100000022,"y":2541652.4200000018}},{"attributes":{"ID":236268,"DIS_CODE":0,"TOWNNAME":"東區","LI":"崇德里","LIN":"13鄰","STREET":"崇明十三街","SECT":" ","MAREA":" ","LANE":"１１巷","ALLEY":" ","HOUSE_NO":"２７號二樓","E_COORD97":170446.60000000001,"N_COORD97":2541648.7999999998,"ADDRESS":"崇明十三街１１巷２７號二樓","OBJECTID":236264},"geometry":{"x":170446.60000000149,"y":2541648.8000000007}},{"attributes":{"ID":236269,"DIS_CODE":0,"TOWNNAME":"東區","LI":"崇德里","LIN":"13鄰","STREET":"崇明十三街","SECT":" ","MAREA":" ","LANE":"１１巷","ALLEY":" ","HOUSE_NO":"９號五樓","E_COORD97":170445.64999999999,"N_COORD97":2541607.3799999999,"ADDRESS":"崇明十三街１１巷９號五樓","OBJECTID":236265},"geometry":{"x":170445.6500000013,"y":2541607.3800000008}},{"attributes":{"ID":236270,"DIS_CODE":0,"TOWNNAME":"永康區","LI":"三合里","LIN":"14鄰","STREET":"南工街","SECT":" ","MAREA":" ","LANE":" ","ALLEY":" ","HOUSE_NO":"２０５號","E_COORD97":172021.51999999999,"N_COORD97":2545882.4900000002,"ADDRESS":"南工街２０５號","OBJECTID":236266},"geometry":{"x":172021.51999999955,"y":2545882.4900000039}},{"attributes":{"ID":236271,"DIS_CODE":0,"TOWNNAME":"東區","LI":"崇德里","LIN":"13鄰","STREET":"崇明十三街","SECT":" ","MAREA":" ","LANE":"１１巷","ALLEY":" ","HOUSE_NO":"９號六樓","E_COORD97":170445.64999999999,"N_COORD97":2541607.3799999999,"ADDRESS":"崇明十三街１１巷９號六樓","OBJECTID":236267},"geometry":{"x":170445.6500000013,"y":2541607.3800000008}},{"attributes":{"ID":236272,"DIS_CODE":0,"TOWNNAME":"東區","LI":"崇德里","LIN":"13鄰","STREET":"崇明十三街","SECT":" ","MAREA":" ","LANE":"１１巷","ALLEY":" ","HOUSE_NO":"９號四樓","E_COORD97":170445.64999999999,"N_COORD97":2541607.3799999999,"ADDRESS":"崇明十三街１１巷９號四樓","OBJECTID":236268},"geometry":{"x":170445.6500000013,"y":2541607.3800000008}},{"attributes":{"ID":236273,"DIS_CODE":0,"TOWNNAME":"永康區","LI":"網寮里","LIN":"13鄰","STREET":"永勝街","SECT":" ","MAREA":" ","LANE":"１６９巷","ALLEY":" ","HOUSE_NO":"２號七樓之１","E_COORD97":173315.20000000001,"N_COORD97":2546526.3700000001,"ADDRESS":"永勝街１６９巷２號七樓之１","OBJECTID":236269},"geometry":{"x":173315.20000000112,"y":2546526.3700000029}},{"attributes":{"ID":236274,"DIS_CODE":0,"TOWNNAME":"永康區","LI":"網寮里","LIN":"13鄰","STREET":"永勝街","SECT":" ","MAREA":" ","LANE":"１６９巷","ALLEY":" ","HOUSE_NO":"６號五樓之２","E_COORD97":173304.09,"N_COORD97":2546537.0800000001,"ADDRESS":"永勝街１６９巷６號五樓之２","OBJECTID":236270},"geometry":{"x":173304.08999999985,"y":2546537.0800000019}},{"attributes":{"ID":236275,"DIS_CODE":0,"TOWNNAME":"永康區","LI":"網寮里","LIN":"13鄰","STREET":"永勝街","SECT":" ","MAREA":" ","LANE":"１６９巷","ALLEY":" ","HOUSE_NO":"６號五樓之３","E_COORD97":173304.06,"N_COORD97":2546537.0800000001,"ADDRESS":"永勝街１６９巷６號五樓之３","OBJECTID":236271},"geometry":{"x":173304.05999999959,"y":2546537.0800000019}},{"attributes":{"ID":236276,"DIS_CODE":0,"TOWNNAME":"永康區","LI":"西橋里","LIN":"13鄰","STREET":"大橋三街","SECT":" ","MAREA":" ","LANE":"１０巷","ALLEY":" ","HOUSE_NO":"２０號三樓之１","E_COORD97":170560.53,"N_COORD97":2546319.0499999998,"ADDRESS":"大橋三街１０巷２０號三樓之１","OBJECTID":236272},"geometry":{"x":170560.53000000026,"y":2546319.0500000007}},{"attributes":{"ID":236277,"DIS_CODE":0,"TOWNNAME":"永康區","LI":"網寮里","LIN":"13鄰","STREET":"永勝街","SECT":" ","MAREA":" ","LANE":"１６９巷","ALLEY":" ","HOUSE_NO":"２號九樓之３","E_COORD97":173315.29999999999,"N_COORD97":2546526.3700000001,"ADDRESS":"永勝街１６９巷２號九樓之３","OBJECTID":236273},"geometry":{"x":173315.30000000168,"y":2546526.3700000029}},{"attributes":{"ID":236278,"DIS_CODE":0,"TOWNNAME":"永康區","LI":"西橋里","LIN":"13鄰","STREET":"大橋三街","SECT":" ","MAREA":" ","LANE":"１０巷","ALLEY":" ","HOUSE_NO":"１２號之１六樓之１","E_COORD97":170542.78,"N_COORD97":2546332.7999999998,"ADDRESS":"大橋三街１０巷１２號之１六樓之１","OBJECTID":236274},"geometry":{"x":170542.78000000119,"y":2546332.8000000026}},{"attributes":{"ID":236279,"DIS_CODE":0,"TOWNNAME":"永康區","LI":"網寮里","LIN":"13鄰","STREET":"永勝街","SECT":" ","MAREA":" ","LANE":"１６９巷","ALLEY":" ","HOUSE_NO":"２號八樓之５","E_COORD97":173315.35999999999,"N_COORD97":2546526.3700000001,"ADDRESS":"永勝街１６９巷２號八樓之５","OBJECTID":236275},"geometry":{"x":173315.3599999994,"y":2546526.3700000029}},{"attributes":{"ID":236280,"DIS_CODE":0,"TOWNNAME":"永康區","LI":"西橋里","LIN":"13鄰","STREET":"大橋三街","SECT":" ","MAREA":" ","LANE":"１０巷","ALLEY":" ","HOUSE_NO":"１２號四樓之２","E_COORD97":170536.23999999999,"N_COORD97":2546335.7999999998,"ADDRESS":"大橋三街１０巷１２號四樓之２","OBJECTID":236276},"geometry":{"x":170536.24000000115,"y":2546335.8000000026}},{"attributes":{"ID":236281,"DIS_CODE":0,"TOWNNAME":"永康區","LI":"西橋里","LIN":"13鄰","STREET":"大橋三街","SECT":" ","MAREA":" ","LANE":"１０巷","ALLEY":" ","HOUSE_NO":"１６號四樓之２","E_COORD97":170544.19,"N_COORD97":2546330.0499999998,"ADDRESS":"大橋三街１０巷１６號四樓之２","OBJECTID":236277},"geometry":{"x":170544.19000000041,"y":2546330.0500000045}},{"attributes":{"ID":236282,"DIS_CODE":0,"TOWNNAME":"永康區","LI":"西橋里","LIN":"13鄰","STREET":"大橋三街","SECT":" ","MAREA":" ","LANE":"１０巷","ALLEY":" ","HOUSE_NO":"２０號六樓之２","E_COORD97":170560.67000000001,"N_COORD97":2546319.0499999998,"ADDRESS":"大橋三街１０巷２０號六樓之２","OBJECTID":236278},"geometry":{"x":170560.67000000086,"y":2546319.0500000007}},{"attributes":{"ID":236283,"DIS_CODE":0,"TOWNNAME":"新化區","LI":"豐榮里","LIN":"13鄰","STREET":"民治路","SECT":" ","MAREA":" ","LANE":"３３巷","ALLEY":" ","HOUSE_NO":"３２號八樓之３","E_COORD97":178656.85999999999,"N_COORD97":2548064.2599999998,"ADDRESS":"民治路３３巷３２號八樓之３","OBJECTID":236279},"geometry":{"x":178656.8599999994,"y":2548064.2600000016}},{"attributes":{"ID":236284,"DIS_CODE":0,"TOWNNAME":"安南區","LI":"淵東里","LIN":"16鄰","STREET":"智安一街","SECT":" ","MAREA":" ","LANE":" ","ALLEY":" ","HOUSE_NO":"１６號","E_COORD97":165665.16,"N_COORD97":2549969.48,"ADDRESS":"智安一街１６號","OBJECTID":236280},"geometry":{"x":165665.16000000108,"y":2549969.4800000023}},{"attributes":{"ID":236285,"DIS_CODE":0,"TOWNNAME":"新化區","LI":"豐榮里","LIN":"13鄰","STREET":"民治路","SECT":" ","MAREA":" ","LANE":"３３巷","ALLEY":" ","HOUSE_NO":"４２號七樓之３","E_COORD97":178656.85999999999,"N_COORD97":2548064.2599999998,"ADDRESS":"民治路３３巷４２號七樓之３","OBJECTID":236281},"geometry":{"x":178656.8599999994,"y":2548064.2600000016}},{"attributes":{"ID":236286,"DIS_CODE":0,"TOWNNAME":"新化區","LI":"豐榮里","LIN":"13鄰","STREET":"民治路","SECT":" ","MAREA":" ","LANE":"３３巷","ALLEY":" ","HOUSE_NO":"４２號五樓之３","E_COORD97":178656.85999999999,"N_COORD97":2548064.2599999998,"ADDRESS":"民治路３３巷４２號五樓之３","OBJECTID":236282},"geometry":{"x":178656.8599999994,"y":2548064.2600000016}},{"attributes":{"ID":236287,"DIS_CODE":0,"TOWNNAME":"新化區","LI":"豐榮里","LIN":"13鄰","STREET":"民治路","SECT":" ","MAREA":" ","LANE":"３３巷","ALLEY":" ","HOUSE_NO":"３２號六樓之２","E_COORD97":178656.87,"N_COORD97":2548064.2599999998,"ADDRESS":"民治路３３巷３２號六樓之２","OBJECTID":236283},"geometry":{"x":178656.87000000104,"y":2548064.2600000016}},{"attributes":{"ID":236288,"DIS_CODE":0,"TOWNNAME":"北區","LI":"玉皇里","LIN":"13鄰","STREET":"成功路","SECT":" ","MAREA":" ","LANE":"６８巷","ALLEY":" ","HOUSE_NO":"１４號三樓之１","E_COORD97":168714.48999999999,"N_COORD97":2544400.9100000001,"ADDRESS":"成功路６８巷１４號三樓之１","OBJECTID":236284},"geometry":{"x":168714.49000000115,"y":2544400.9100000001}},{"attributes":{"ID":236289,"DIS_CODE":0,"TOWNNAME":"北區","LI":"玉皇里","LIN":"13鄰","STREET":"成功路","SECT":" ","MAREA":" ","LANE":"６８巷","ALLEY":" ","HOUSE_NO":"１４號三樓之２","E_COORD97":168714.48999999999,"N_COORD97":2544400.9100000001,"ADDRESS":"成功路６８巷１４號三樓之２","OBJECTID":236285},"geometry":{"x":168714.49000000115,"y":2544400.9100000001}},{"attributes":{"ID":236290,"DIS_CODE":0,"TOWNNAME":"北區","LI":"玉皇里","LIN":"13鄰","STREET":"成功路","SECT":" ","MAREA":" ","LANE":"６８巷","ALLEY":" ","HOUSE_NO":"１４號五樓之１","E_COORD97":168714.48999999999,"N_COORD97":2544400.9100000001,"ADDRESS":"成功路６８巷１４號五樓之１","OBJECTID":236286},"geometry":{"x":168714.49000000115,"y":2544400.9100000001}},{"attributes":{"ID":236291,"DIS_CODE":0,"TOWNNAME":"北區","LI":"玉皇里","LIN":"13鄰","STREET":"成功路","SECT":" ","MAREA":" ","LANE":"６８巷","ALLEY":" ","HOUSE_NO":"１４號五樓之２","E_COORD97":168714.48999999999,"N_COORD97":2544400.9100000001,"ADDRESS":"成功路６８巷１４號五樓之２","OBJECTID":236287},"geometry":{"x":168714.49000000115,"y":2544400.9100000001}},{"attributes":{"ID":236292,"DIS_CODE":0,"TOWNNAME":"北區","LI":"玉皇里","LIN":"13鄰","STREET":"成功路","SECT":" ","MAREA":" ","LANE":"６８巷","ALLEY":" ","HOUSE_NO":"１４號四樓之１","E_COORD97":168714.48999999999,"N_COORD97":2544400.9100000001,"ADDRESS":"成功路６８巷１４號四樓之１","OBJECTID":236288},"geometry":{"x":168714.49000000115,"y":2544400.9100000001}},{"attributes":{"ID":236293,"DIS_CODE":0,"TOWNNAME":"北區","LI":"玉皇里","LIN":"13鄰","STREET":"成功路","SECT":" ","MAREA":" ","LANE":"６８巷","ALLEY":" ","HOUSE_NO":"１４號四樓之２","E_COORD97":168714.48999999999,"N_COORD97":2544400.9100000001,"ADDRESS":"成功路６８巷１４號四樓之２","OBJECTID":236289},"geometry":{"x":168714.49000000115,"y":2544400.9100000001}},{"attributes":{"ID":236294,"DIS_CODE":0,"TOWNNAME":"學甲區","LI":"慈福里","LIN":"13鄰","STREET":"民族路","SECT":" ","MAREA":" ","LANE":"５４巷","ALLEY":" ","HOUSE_NO":"８號六樓之４","E_COORD97":166658.98999999999,"N_COORD97":2570302.98,"ADDRESS":"民族路５４巷８號六樓之４","OBJECTID":236290},"geometry":{"x":166658.98999999929,"y":2570302.9800000004}},{"attributes":{"ID":236295,"DIS_CODE":0,"TOWNNAME":"永康區","LI":"復國里","LIN":"14鄰","STREET":"復國二路","SECT":" ","MAREA":" ","LANE":" ","ALLEY":" ","HOUSE_NO":"１５６號","E_COORD97":172918.10000000001,"N_COORD97":2545656.77,"ADDRESS":"復國二路１５６號","OBJECTID":236291},"geometry":{"x":172918.10000000149,"y":2545656.7700000014}},{"attributes":{"ID":236296,"DIS_CODE":0,"TOWNNAME":"學甲區","LI":"慈福里","LIN":"13鄰","STREET":"民族路","SECT":" ","MAREA":" ","LANE":"５４巷","ALLEY":" ","HOUSE_NO":"８號四樓之５","E_COORD97":166658.98999999999,"N_COORD97":2570302.98,"ADDRESS":"民族路５４巷８號四樓之５","OBJECTID":236292},"geometry":{"x":166658.98999999929,"y":2570302.9800000004}},{"attributes":{"ID":236297,"DIS_CODE":0,"TOWNNAME":"學甲區","LI":"慈福里","LIN":"13鄰","STREET":"民族路","SECT":" ","MAREA":" ","LANE":"５４巷","ALLEY":" ","HOUSE_NO":"８號七樓之６","E_COORD97":166658.98999999999,"N_COORD97":2570302.98,"ADDRESS":"民族路５４巷８號七樓之６","OBJECTID":236293},"geometry":{"x":166658.98999999929,"y":2570302.9800000004}},{"attributes":{"ID":236298,"DIS_CODE":0,"TOWNNAME":"學甲區","LI":"慈福里","LIN":"13鄰","STREET":"民族路","SECT":" ","MAREA":" ","LANE":"５４巷","ALLEY":" ","HOUSE_NO":"８號七樓之７","E_COORD97":166658.98999999999,"N_COORD97":2570302.98,"ADDRESS":"民族路５４巷８號七樓之７","OBJECTID":236294},"geometry":{"x":166658.98999999929,"y":2570302.9800000004}},{"attributes":{"ID":236299,"DIS_CODE":0,"TOWNNAME":"學甲區","LI":"慈福里","LIN":"13鄰","STREET":"民族路","SECT":" ","MAREA":" ","LANE":"５４巷","ALLEY":" ","HOUSE_NO":"８號二樓之１","E_COORD97":166658.98999999999,"N_COORD97":2570302.98,"ADDRESS":"民族路５４巷８號二樓之１","OBJECTID":236295},"geometry":{"x":166658.98999999929,"y":2570302.9800000004}},{"attributes":{"ID":236300,"DIS_CODE":0,"TOWNNAME":"學甲區","LI":"慈福里","LIN":"13鄰","STREET":"民族路","SECT":" ","MAREA":" ","LANE":"５４巷","ALLEY":" ","HOUSE_NO":"８號二樓之２","E_COORD97":166658.98999999999,"N_COORD97":2570302.98,"ADDRESS":"民族路５４巷８號二樓之２","OBJECTID":236296},"geometry":{"x":166658.98999999929,"y":2570302.9800000004}},{"attributes":{"ID":236301,"DIS_CODE":0,"TOWNNAME":"學甲區","LI":"慈福里","LIN":"13鄰","STREET":"民族路","SECT":" ","MAREA":" ","LANE":"５４巷","ALLEY":" ","HOUSE_NO":"８號三樓之１","E_COORD97":166658.98999999999,"N_COORD97":2570302.98,"ADDRESS":"民族路５４巷８號三樓之１","OBJECTID":236297},"geometry":{"x":166658.98999999929,"y":2570302.9800000004}},{"attributes":{"ID":236302,"DIS_CODE":0,"TOWNNAME":"學甲區","LI":"慈福里","LIN":"13鄰","STREET":"民族路","SECT":" ","MAREA":" ","LANE":"５４巷","ALLEY":" ","HOUSE_NO":"８號三樓之２","E_COORD97":166658.98999999999,"N_COORD97":2570302.98,"ADDRESS":"民族路５４巷８號三樓之２","OBJECTID":236298},"geometry":{"x":166658.98999999929,"y":2570302.9800000004}},{"attributes":{"ID":236303,"DIS_CODE":0,"TOWNNAME":"學甲區","LI":"慈福里","LIN":"13鄰","STREET":"民族路","SECT":" ","MAREA":" ","LANE":"５４巷","ALLEY":" ","HOUSE_NO":"８號三樓之３","E_COORD97":166658.98999999999,"N_COORD97":2570302.98,"ADDRESS":"民族路５４巷８號三樓之３","OBJECTID":236299},"geometry":{"x":166658.98999999929,"y":2570302.9800000004}},{"attributes":{"ID":236304,"DIS_CODE":0,"TOWNNAME":"學甲區","LI":"慈福里","LIN":"13鄰","STREET":"民族路","SECT":" ","MAREA":" ","LANE":"５４巷","ALLEY":" ","HOUSE_NO":"８號三樓之４","E_COORD97":166658.98999999999,"N_COORD97":2570302.98,"ADDRESS":"民族路５４巷８號三樓之４","OBJECTID":236300},"geometry":{"x":166658.98999999929,"y":2570302.9800000004}},{"attributes":{"ID":236305,"DIS_CODE":0,"TOWNNAME":"學甲區","LI":"慈福里","LIN":"13鄰","STREET":"民族路","SECT":" ","MAREA":" ","LANE":"５４巷","ALLEY":" ","HOUSE_NO":"８號三樓之５","E_COORD97":166658.98999999999,"N_COORD97":2570302.98,"ADDRESS":"民族路５４巷８號三樓之５","OBJECTID":236301},"geometry":{"x":166658.98999999929,"y":2570302.9800000004}},{"attributes":{"ID":236306,"DIS_CODE":0,"TOWNNAME":"學甲區","LI":"慈福里","LIN":"13鄰","STREET":"民族路","SECT":" ","MAREA":" ","LANE":"５４巷","ALLEY":" ","HOUSE_NO":"８號三樓之６","E_COORD97":166658.98999999999,"N_COORD97":2570302.98,"ADDRESS":"民族路５４巷８號三樓之６","OBJECTID":236302},"geometry":{"x":166658.98999999929,"y":2570302.9800000004}},{"attributes":{"ID":236307,"DIS_CODE":0,"TOWNNAME":"學甲區","LI":"慈福里","LIN":"13鄰","STREET":"民族路","SECT":" ","MAREA":" ","LANE":"５４巷","ALLEY":" ","HOUSE_NO":"８號三樓之７","E_COORD97":166658.98999999999,"N_COORD97":2570302.98,"ADDRESS":"民族路５４巷８號三樓之７","OBJECTID":236303},"geometry":{"x":166658.98999999929,"y":2570302.9800000004}},{"attributes":{"ID":236308,"DIS_CODE":0,"TOWNNAME":"學甲區","LI":"慈福里","LIN":"13鄰","STREET":"民族路","SECT":" ","MAREA":" ","LANE":"５４巷","ALLEY":" ","HOUSE_NO":"８號五樓之１","E_COORD97":166658.98999999999,"N_COORD97":2570302.98,"ADDRESS":"民族路５４巷８號五樓之１","OBJECTID":236304},"geometry":{"x":166658.98999999929,"y":2570302.9800000004}},{"attributes":{"ID":236309,"DIS_CODE":0,"TOWNNAME":"學甲區","LI":"慈福里","LIN":"13鄰","STREET":"民族路","SECT":" ","MAREA":" ","LANE":"５４巷","ALLEY":" ","HOUSE_NO":"８號五樓之２","E_COORD97":166658.98999999999,"N_COORD97":2570302.98,"ADDRESS":"民族路５４巷８號五樓之２","OBJECTID":236305},"geometry":{"x":166658.98999999929,"y":2570302.9800000004}},{"attributes":{"ID":236310,"DIS_CODE":0,"TOWNNAME":"學甲區","LI":"慈福里","LIN":"13鄰","STREET":"民族路","SECT":" ","MAREA":" ","LANE":"５４巷","ALLEY":" ","HOUSE_NO":"８號五樓之３","E_COORD97":166658.98999999999,"N_COORD97":2570302.98,"ADDRESS":"民族路５４巷８號五樓之３","OBJECTID":236306},"geometry":{"x":166658.98999999929,"y":2570302.9800000004}},{"attributes":{"ID":236311,"DIS_CODE":0,"TOWNNAME":"學甲區","LI":"慈福里","LIN":"13鄰","STREET":"民族路","SECT":" ","MAREA":" ","LANE":"５４巷","ALLEY":" ","HOUSE_NO":"８號五樓之４","E_COORD97":166658.98999999999,"N_COORD97":2570302.98,"ADDRESS":"民族路５４巷８號五樓之４","OBJECTID":236307},"geometry":{"x":166658.98999999929,"y":2570302.9800000004}},{"attributes":{"ID":236312,"DIS_CODE":0,"TOWNNAME":"學甲區","LI":"慈福里","LIN":"13鄰","STREET":"民族路","SECT":" ","MAREA":" ","LANE":"５４巷","ALLEY":" ","HOUSE_NO":"８號五樓之５","E_COORD97":166658.98999999999,"N_COORD97":2570302.98,"ADDRESS":"民族路５４巷８號五樓之５","OBJECTID":236308},"geometry":{"x":166658.98999999929,"y":2570302.9800000004}},{"attributes":{"ID":236313,"DIS_CODE":0,"TOWNNAME":"學甲區","LI":"慈福里","LIN":"13鄰","STREET":"民族路","SECT":" ","MAREA":" ","LANE":"５４巷","ALLEY":" ","HOUSE_NO":"８號五樓之６","E_COORD97":166658.98999999999,"N_COORD97":2570302.98,"ADDRESS":"民族路５４巷８號五樓之６","OBJECTID":236309},"geometry":{"x":166658.98999999929,"y":2570302.9800000004}},{"attributes":{"ID":236314,"DIS_CODE":0,"TOWNNAME":"學甲區","LI":"慈福里","LIN":"13鄰","STREET":"民族路","SECT":" ","MAREA":" ","LANE":"５４巷","ALLEY":" ","HOUSE_NO":"８號五樓之７","E_COORD97":166658.98999999999,"N_COORD97":2570302.98,"ADDRESS":"民族路５４巷８號五樓之７","OBJECTID":236310},"geometry":{"x":166658.98999999929,"y":2570302.9800000004}},{"attributes":{"ID":236315,"DIS_CODE":0,"TOWNNAME":"學甲區","LI":"慈福里","LIN":"13鄰","STREET":"民族路","SECT":" ","MAREA":" ","LANE":"５４巷","ALLEY":" ","HOUSE_NO":"８號五樓之８","E_COORD97":166658.98999999999,"N_COORD97":2570302.98,"ADDRESS":"民族路５４巷８號五樓之８","OBJECTID":236311},"geometry":{"x":166658.98999999929,"y":2570302.9800000004}},{"attributes":{"ID":236316,"DIS_CODE":0,"TOWNNAME":"學甲區","LI":"慈福里","LIN":"13鄰","STREET":"民族路","SECT":" ","MAREA":" ","LANE":"５４巷","ALLEY":" ","HOUSE_NO":"８號六樓之１","E_COORD97":166658.98999999999,"N_COORD97":2570302.98,"ADDRESS":"民族路５４巷８號六樓之１","OBJECTID":236312},"geometry":{"x":166658.98999999929,"y":2570302.9800000004}},{"attributes":{"ID":236317,"DIS_CODE":0,"TOWNNAME":"東區","LI":"虎尾里","LIN":"16鄰","STREET":"東成街","SECT":" ","MAREA":" ","LANE":"４６巷","ALLEY":" ","HOUSE_NO":"３５號","E_COORD97":171364.23000000001,"N_COORD97":2542161.02,"ADDRESS":"東成街４６巷３５號","OBJECTID":236313},"geometry":{"x":171364.23000000138,"y":2542161.0199999996}},{"attributes":{"ID":236318,"DIS_CODE":0,"TOWNNAME":"安南區","LI":"城南里","LIN":"16鄰","STREET":"青砂街","SECT":"一段","MAREA":" ","LANE":"１４５巷","ALLEY":" ","HOUSE_NO":"１號","E_COORD97":160485.16,"N_COORD97":2551779.04,"ADDRESS":"青砂街一段１４５巷１號","OBJECTID":236314},"geometry":{"x":160485.16000000015,"y":2551779.0399999991}},{"attributes":{"ID":236319,"DIS_CODE":0,"TOWNNAME":"安南區","LI":"城南里","LIN":"16鄰","STREET":"青砂街","SECT":"一段","MAREA":" ","LANE":"１４５巷","ALLEY":" ","HOUSE_NO":"１號之１２","E_COORD97":160464.78,"N_COORD97":2551721.8199999998,"ADDRESS":"青砂街一段１４５巷１號之１２","OBJECTID":236315},"geometry":{"x":160464.78000000212,"y":2551721.820000004}},{"attributes":{"ID":236320,"DIS_CODE":0,"TOWNNAME":"安南區","LI":"城南里","LIN":"16鄰","STREET":"青砂街","SECT":"一段","MAREA":" ","LANE":"１４５巷","ALLEY":" ","HOUSE_NO":"１號之７","E_COORD97":160470,"N_COORD97":2551741.1899999999,"ADDRESS":"青砂街一段１４５巷１號之７","OBJECTID":236316},"geometry":{"x":160470.00000000093,"y":2551741.1899999995}},{"attributes":{"ID":236321,"DIS_CODE":0,"TOWNNAME":"安南區","LI":"城南里","LIN":"16鄰","STREET":"青砂街","SECT":"一段","MAREA":" ","LANE":"１４５巷","ALLEY":" ","HOUSE_NO":"３１號","E_COORD97":160447.87,"N_COORD97":2551806.6000000001,"ADDRESS":"青砂街一段１４５巷３１號","OBJECTID":236317},"geometry":{"x":160447.87000000011,"y":2551806.5999999996}},{"attributes":{"ID":236322,"DIS_CODE":0,"TOWNNAME":"學甲區","LI":"慈福里","LIN":"13鄰","STREET":"民族路","SECT":" ","MAREA":" ","LANE":"５４巷","ALLEY":" ","HOUSE_NO":"８號六樓之２","E_COORD97":166658.98999999999,"N_COORD97":2570302.98,"ADDRESS":"民族路５４巷８號六樓之２","OBJECTID":236318},"geometry":{"x":166658.98999999929,"y":2570302.9800000004}},{"attributes":{"ID":236323,"DIS_CODE":0,"TOWNNAME":"學甲區","LI":"慈福里","LIN":"13鄰","STREET":"民族路","SECT":" ","MAREA":" ","LANE":"５４巷","ALLEY":" ","HOUSE_NO":"８號六樓之３","E_COORD97":166658.98999999999,"N_COORD97":2570302.98,"ADDRESS":"民族路５４巷８號六樓之３","OBJECTID":236319},"geometry":{"x":166658.98999999929,"y":2570302.9800000004}},{"attributes":{"ID":236324,"DIS_CODE":0,"TOWNNAME":"南區","LI":"新生里","LIN":"13鄰","STREET":"大同路","SECT":"二段","MAREA":" ","LANE":"１３６巷","ALLEY":" ","HOUSE_NO":"６號二樓之１","E_COORD97":169249.07000000001,"N_COORD97":2542208.4399999999,"ADDRESS":"大同路二段１３６巷６號二樓之１","OBJECTID":236320},"geometry":{"x":169249.07000000123,"y":2542208.4400000013}},{"attributes":{"ID":236325,"DIS_CODE":0,"TOWNNAME":"南區","LI":"新生里","LIN":"13鄰","STREET":"大同路","SECT":"二段","MAREA":" ","LANE":"１３６巷","ALLEY":" ","HOUSE_NO":"６號二樓之２","E_COORD97":169249.07000000001,"N_COORD97":2542208.4399999999,"ADDRESS":"大同路二段１３６巷６號二樓之２","OBJECTID":236321},"geometry":{"x":169249.07000000123,"y":2542208.4400000013}},{"attributes":{"ID":236326,"DIS_CODE":0,"TOWNNAME":"南區","LI":"新生里","LIN":"13鄰","STREET":"大同路","SECT":"二段","MAREA":" ","LANE":"１３６巷","ALLEY":" ","HOUSE_NO":"６號三樓之１","E_COORD97":169249.07000000001,"N_COORD97":2542208.4399999999,"ADDRESS":"大同路二段１３６巷６號三樓之１","OBJECTID":236322},"geometry":{"x":169249.07000000123,"y":2542208.4400000013}},{"attributes":{"ID":236327,"DIS_CODE":0,"TOWNNAME":"永康區","LI":"復華里","LIN":"14鄰","STREET":"復華六街","SECT":" ","MAREA":" ","LANE":" ","ALLEY":" ","HOUSE_NO":"２２號","E_COORD97":172884.51000000001,"N_COORD97":2545853.1099999999,"ADDRESS":"復華六街２２號","OBJECTID":236323},"geometry":{"x":172884.50999999978,"y":2545853.1099999994}},{"attributes":{"ID":236328,"DIS_CODE":0,"TOWNNAME":"南區","LI":"新生里","LIN":"13鄰","STREET":"大同路","SECT":"二段","MAREA":" ","LANE":"１３６巷","ALLEY":" ","HOUSE_NO":"６號三樓之２","E_COORD97":169249.07000000001,"N_COORD97":2542208.4399999999,"ADDRESS":"大同路二段１３６巷６號三樓之２","OBJECTID":236324},"geometry":{"x":169249.07000000123,"y":2542208.4400000013}},{"attributes":{"ID":236329,"DIS_CODE":0,"TOWNNAME":"南區","LI":"新生里","LIN":"13鄰","STREET":"大同路","SECT":"二段","MAREA":" ","LANE":"１３６巷","ALLEY":" ","HOUSE_NO":"６號四樓之１","E_COORD97":169249.07000000001,"N_COORD97":2542208.4399999999,"ADDRESS":"大同路二段１３６巷６號四樓之１","OBJECTID":236325},"geometry":{"x":169249.07000000123,"y":2542208.4400000013}},{"attributes":{"ID":236330,"DIS_CODE":0,"TOWNNAME":"永康區","LI":"大灣里","LIN":"14鄰","STREET":"民族路","SECT":" ","MAREA":" ","LANE":" ","ALLEY":" ","HOUSE_NO":"３８９號","E_COORD97":174859.19,"N_COORD97":2545306.6600000001,"ADDRESS":"民族路３８９號","OBJECTID":236326},"geometry":{"x":174859.18999999948,"y":2545306.6600000001}},{"attributes":{"ID":236331,"DIS_CODE":0,"TOWNNAME":"仁德區","LI":"保安里","LIN":"14鄰","STREET":"文賢路","SECT":"一段","MAREA":" ","LANE":" ","ALLEY":" ","HOUSE_NO":"５９７號","E_COORD97":171143.51000000001,"N_COORD97":2536772.5800000001,"ADDRESS":"文賢路一段５９７號","OBJECTID":236327},"geometry":{"x":171143.50999999978,"y":2536772.5800000019}},{"attributes":{"ID":236332,"DIS_CODE":0,"TOWNNAME":"仁德區","LI":"保安里","LIN":"14鄰","STREET":"文賢路","SECT":"一段","MAREA":" ","LANE":" ","ALLEY":" ","HOUSE_NO":"５９３號","E_COORD97":171143.04000000001,"N_COORD97":2536780.8300000001,"ADDRESS":"文賢路一段５９３號","OBJECTID":236328},"geometry":{"x":171143.04000000097,"y":2536780.8300000019}},{"attributes":{"ID":236333,"DIS_CODE":0,"TOWNNAME":"仁德區","LI":"仁德里","LIN":"14鄰","STREET":"四維街","SECT":" ","MAREA":" ","LANE":" ","ALLEY":" ","HOUSE_NO":"１２號","E_COORD97":173308.30368700001,"N_COORD97":2541537.2625099998,"ADDRESS":"四維街１２號","OBJECTID":236329},"geometry":{"x":173308.30368700065,"y":2541537.2625080012}},{"attributes":{"ID":236334,"DIS_CODE":0,"TOWNNAME":"仁德區","LI":"保安里","LIN":"14鄰","STREET":"文賢路","SECT":"一段","MAREA":" ","LANE":" ","ALLEY":" ","HOUSE_NO":"５８３號","E_COORD97":171141.34,"N_COORD97":2536802.5800000001,"ADDRESS":"文賢路一段５８３號","OBJECTID":236330},"geometry":{"x":171141.33999999985,"y":2536802.5800000019}},{"attributes":{"ID":236335,"DIS_CODE":0,"TOWNNAME":"仁德區","LI":"仁德里","LIN":"14鄰","STREET":"四維街","SECT":" ","MAREA":" ","LANE":" ","ALLEY":" ","HOUSE_NO":"４號","E_COORD97":173325.67408999999,"N_COORD97":2541538.3208400002,"ADDRESS":"四維街４號","OBJECTID":236331},"geometry":{"x":173325.6740900008,"y":2541538.3208400011}},{"attributes":{"ID":236336,"DIS_CODE":0,"TOWNNAME":"安南區","LI":"城南里","LIN":"16鄰","STREET":"青砂街","SECT":"一段","MAREA":" ","LANE":"６５巷","ALLEY":" ","HOUSE_NO":"６２號","E_COORD97":160462.60000000001,"N_COORD97":2551613.2999999998,"ADDRESS":"青砂街一段６５巷６２號","OBJECTID":236332},"geometry":{"x":160462.60000000056,"y":2551613.3000000007}},{"attributes":{"ID":236337,"DIS_CODE":0,"TOWNNAME":"安南區","LI":"淵東里","LIN":"16鄰","STREET":"安中路","SECT":"三段","MAREA":" ","LANE":"２５６巷","ALLEY":" ","HOUSE_NO":"７５號","E_COORD97":165694.44,"N_COORD97":2550023.73,"ADDRESS":"安中路三段２５６巷７５號","OBJECTID":236333},"geometry":{"x":165694.44000000041,"y":2550023.7300000004}},{"attributes":{"ID":236338,"DIS_CODE":0,"TOWNNAME":"東區","LI":"虎尾里","LIN":"16鄰","STREET":"東成街","SECT":" ","MAREA":" ","LANE":"４６巷","ALLEY":" ","HOUSE_NO":"３號","E_COORD97":171362.51000000001,"N_COORD97":2542230.1200000001,"ADDRESS":"東成街４６巷３號","OBJECTID":236334},"geometry":{"x":171362.50999999978,"y":2542230.120000001}},{"attributes":{"ID":236339,"DIS_CODE":0,"TOWNNAME":"南區","LI":"新生里","LIN":"13鄰","STREET":"大同路","SECT":"二段","MAREA":" ","LANE":"１３６巷","ALLEY":" ","HOUSE_NO":"６號四樓之２","E_COORD97":169249.07000000001,"N_COORD97":2542208.4399999999,"ADDRESS":"大同路二段１３６巷６號四樓之２","OBJECTID":236335},"geometry":{"x":169249.07000000123,"y":2542208.4400000013}},{"attributes":{"ID":236340,"DIS_CODE":0,"TOWNNAME":"南區","LI":"新生里","LIN":"13鄰","STREET":"大同路","SECT":"二段","MAREA":" ","LANE":"１３６巷","ALLEY":" ","HOUSE_NO":"６號五樓之１","E_COORD97":169249.07000000001,"N_COORD97":2542208.4399999999,"ADDRESS":"大同路二段１３６巷６號五樓之１","OBJECTID":236336},"geometry":{"x":169249.07000000123,"y":2542208.4400000013}},{"attributes":{"ID":236341,"DIS_CODE":0,"TOWNNAME":"南區","LI":"新生里","LIN":"13鄰","STREET":"大同路","SECT":"二段","MAREA":" ","LANE":"１３６巷","ALLEY":" ","HOUSE_NO":"６號五樓之２","E_COORD97":169249.07000000001,"N_COORD97":2542208.4399999999,"ADDRESS":"大同路二段１３６巷６號五樓之２","OBJECTID":236337},"geometry":{"x":169249.07000000123,"y":2542208.4400000013}},{"attributes":{"ID":236342,"DIS_CODE":0,"TOWNNAME":"南區","LI":"新生里","LIN":"13鄰","STREET":"大同路","SECT":"二段","MAREA":" ","LANE":"１３６巷","ALLEY":" ","HOUSE_NO":"６號六樓之１","E_COORD97":169249.07000000001,"N_COORD97":2542208.4399999999,"ADDRESS":"大同路二段１３６巷６號六樓之１","OBJECTID":236338},"geometry":{"x":169249.07000000123,"y":2542208.4400000013}},{"attributes":{"ID":236343,"DIS_CODE":0,"TOWNNAME":"南區","LI":"新生里","LIN":"13鄰","STREET":"大同路","SECT":"二段","MAREA":" ","LANE":"１３６巷","ALLEY":" ","HOUSE_NO":"６號六樓之２","E_COORD97":169249.07000000001,"N_COORD97":2542208.4399999999,"ADDRESS":"大同路二段１３６巷６號六樓之２","OBJECTID":236339},"geometry":{"x":169249.07000000123,"y":2542208.4400000013}},{"attributes":{"ID":236344,"DIS_CODE":0,"TOWNNAME":"南區","LI":"新生里","LIN":"13鄰","STREET":"大同路","SECT":"二段","MAREA":" ","LANE":"１３６巷","ALLEY":" ","HOUSE_NO":"６號七樓之１","E_COORD97":169249.07000000001,"N_COORD97":2542208.4399999999,"ADDRESS":"大同路二段１３６巷６號七樓之１","OBJECTID":236340},"geometry":{"x":169249.07000000123,"y":2542208.4400000013}},{"attributes":{"ID":236345,"DIS_CODE":0,"TOWNNAME":"六甲區","LI":"七甲里","LIN":"8鄰","STREET":"七甲街","SECT":" ","MAREA":" ","LANE":"１１２巷","ALLEY":" ","HOUSE_NO":"６號","E_COORD97":183064.94,"N_COORD97":2569134.3500000001,"ADDRESS":"七甲街１１２巷６號","OBJECTID":236341},"geometry":{"x":183064.94000000041,"y":2569134.3500000015}},{"attributes":{"ID":236346,"DIS_CODE":0,"TOWNNAME":"南區","LI":"新生里","LIN":"13鄰","STREET":"大同路","SECT":"二段","MAREA":" ","LANE":"１３６巷","ALLEY":" ","HOUSE_NO":"６號七樓之２","E_COORD97":169249.07000000001,"N_COORD97":2542208.4399999999,"ADDRESS":"大同路二段１３６巷６號七樓之２","OBJECTID":236342},"geometry":{"x":169249.07000000123,"y":2542208.4400000013}},{"attributes":{"ID":236347,"DIS_CODE":0,"TOWNNAME":"南區","LI":"新生里","LIN":"13鄰","STREET":"大同路","SECT":"二段","MAREA":" ","LANE":"１３６巷","ALLEY":" ","HOUSE_NO":"６號八樓之１","E_COORD97":169249.07000000001,"N_COORD97":2542208.4399999999,"ADDRESS":"大同路二段１３６巷６號八樓之１","OBJECTID":236343},"geometry":{"x":169249.07000000123,"y":2542208.4400000013}},{"attributes":{"ID":236348,"DIS_CODE":0,"TOWNNAME":"南區","LI":"新生里","LIN":"13鄰","STREET":"大同路","SECT":"二段","MAREA":" ","LANE":"１３６巷","ALLEY":" ","HOUSE_NO":"６號八樓之２","E_COORD97":169249.07000000001,"N_COORD97":2542208.4399999999,"ADDRESS":"大同路二段１３６巷６號八樓之２","OBJECTID":236344},"geometry":{"x":169249.07000000123,"y":2542208.4400000013}},{"attributes":{"ID":236349,"DIS_CODE":0,"TOWNNAME":"中西區","LI":"郡西里","LIN":"14鄰","STREET":"康樂街","SECT":" ","MAREA":" ","LANE":" ","ALLEY":" ","HOUSE_NO":"３０號","E_COORD97":167376.14999999999,"N_COORD97":2543462.5099999998,"ADDRESS":"康樂街３０號","OBJECTID":236345},"geometry":{"x":167376.15000000037,"y":2543462.5100000016}},{"attributes":{"ID":236350,"DIS_CODE":0,"TOWNNAME":"善化區","LI":"東關里","LIN":"14鄰","STREET":"大同路","SECT":" ","MAREA":" ","LANE":" ","ALLEY":" ","HOUSE_NO":"３６４號","E_COORD97":177361.03,"N_COORD97":2558971.25,"ADDRESS":"大同路３６４號","OBJECTID":236346},"geometry":{"x":177361.03000000119,"y":2558971.2500000019}},{"attributes":{"ID":236351,"DIS_CODE":0,"TOWNNAME":"善化區","LI":"東關里","LIN":"14鄰","STREET":"大同路","SECT":" ","MAREA":" ","LANE":" ","ALLEY":" ","HOUSE_NO":"３６８號","E_COORD97":177360.51000000001,"N_COORD97":2558981,"ADDRESS":"大同路３６８號","OBJECTID":236347},"geometry":{"x":177360.51000000071,"y":2558981}},{"attributes":{"ID":236352,"DIS_CODE":0,"TOWNNAME":"東區","LI":"虎尾里","LIN":"16鄰","STREET":"東成街","SECT":" ","MAREA":" ","LANE":" ","ALLEY":" ","HOUSE_NO":"５４號","E_COORD97":171376,"N_COORD97":2542250.9399999999,"ADDRESS":"東成街５４號","OBJECTID":236348},"geometry":{"x":171376,"y":2542250.9400000032}},{"attributes":{"ID":236353,"DIS_CODE":0,"TOWNNAME":"善化區","LI":"田寮里","LIN":"16鄰","STREET":" ","SECT":" ","MAREA":"六分寮","LANE":" ","ALLEY":" ","HOUSE_NO":"１７３之１１號","E_COORD97":178821.85000000001,"N_COORD97":2561547.77,"ADDRESS":"六分寮１７３之１１號","OBJECTID":236349},"geometry":{"x":178821.84999999963,"y":2561547.7700000014}},{"attributes":{"ID":236354,"DIS_CODE":0,"TOWNNAME":"善化區","LI":"光文里","LIN":"16鄰","STREET":"樹人路","SECT":" ","MAREA":" ","LANE":" ","ALLEY":" ","HOUSE_NO":"６５號","E_COORD97":178357.85999999999,"N_COORD97":2559061.5,"ADDRESS":"樹人路６５號","OBJECTID":236350},"geometry":{"x":178357.86000000034,"y":2559061.5000000019}},{"attributes":{"ID":236355,"DIS_CODE":0,"TOWNNAME":"善化區","LI":"六德里","LIN":"16鄰","STREET":" ","SECT":" ","MAREA":"六分寮","LANE":" ","ALLEY":" ","HOUSE_NO":"３３３之１８號","E_COORD97":178296.91,"N_COORD97":2561412.77,"ADDRESS":"六分寮３３３之１８號","OBJECTID":236351},"geometry":{"x":178296.91000000015,"y":2561412.7700000014}},{"attributes":{"ID":236356,"DIS_CODE":0,"TOWNNAME":"善化區","LI":"六德里","LIN":"16鄰","STREET":" ","SECT":" ","MAREA":"六分寮","LANE":" ","ALLEY":" ","HOUSE_NO":"３３３之１號","E_COORD97":178321.26000000001,"N_COORD97":2561355.77,"ADDRESS":"六分寮３３３之１號","OBJECTID":236352},"geometry":{"x":178321.25999999978,"y":2561355.7699999996}},{"attributes":{"ID":236357,"DIS_CODE":0,"TOWNNAME":"善化區","LI":"田寮里","LIN":"16鄰","STREET":" ","SECT":" ","MAREA":"六分寮","LANE":" ","ALLEY":" ","HOUSE_NO":"１８３號之６","E_COORD97":178943.67000000001,"N_COORD97":2561613.02,"ADDRESS":"六分寮１８３號之６","OBJECTID":236353},"geometry":{"x":178943.66999999993,"y":2561613.0200000033}},{"attributes":{"ID":236358,"DIS_CODE":0,"TOWNNAME":"善化區","LI":"六德里","LIN":"16鄰","STREET":" ","SECT":" ","MAREA":"六分寮","LANE":" ","ALLEY":" ","HOUSE_NO":"３５４號","E_COORD97":178218.48999999999,"N_COORD97":2561451,"ADDRESS":"六分寮３５４號","OBJECTID":236354},"geometry":{"x":178218.48999999929,"y":2561451.0000000037}},{"attributes":{"ID":236359,"DIS_CODE":0,"TOWNNAME":"善化區","LI":"胡家里","LIN":"16鄰","STREET":" ","SECT":" ","MAREA":"胡厝寮","LANE":" ","ALLEY":" ","HOUSE_NO":"１４５號","E_COORD97":175306.35000000001,"N_COORD97":2560739.5,"ADDRESS":"胡厝寮１４５號","OBJECTID":236355},"geometry":{"x":175306.34999999963,"y":2560739.5000000019}},{"attributes":{"ID":236360,"DIS_CODE":0,"TOWNNAME":"善化區","LI":"六德里","LIN":"16鄰","STREET":" ","SECT":" ","MAREA":"六分寮","LANE":" ","ALLEY":" ","HOUSE_NO":"３２６號之１","E_COORD97":178414.82000000001,"N_COORD97":2561405.02,"ADDRESS":"六分寮３２６號之１","OBJECTID":236356},"geometry":{"x":178414.82000000216,"y":2561405.0199999996}},{"attributes":{"ID":236361,"DIS_CODE":0,"TOWNNAME":"善化區","LI":"田寮里","LIN":"16鄰","STREET":" ","SECT":" ","MAREA":"六分寮","LANE":" ","ALLEY":" ","HOUSE_NO":"１８０號","E_COORD97":178873.07000000001,"N_COORD97":2561586.25,"ADDRESS":"六分寮１８０號","OBJECTID":236357},"geometry":{"x":178873.07000000123,"y":2561586.2500000019}},{"attributes":{"ID":236362,"DIS_CODE":0,"TOWNNAME":"善化區","LI":"田寮里","LIN":"16鄰","STREET":" ","SECT":" ","MAREA":"六分寮","LANE":" ","ALLEY":" ","HOUSE_NO":"１７６之２號","E_COORD97":178835.84,"N_COORD97":2561580.27,"ADDRESS":"六分寮１７６之２號","OBJECTID":236358},"geometry":{"x":178835.83999999985,"y":2561580.2699999996}},{"attributes":{"ID":236363,"DIS_CODE":0,"TOWNNAME":"善化區","LI":"田寮里","LIN":"16鄰","STREET":" ","SECT":" ","MAREA":"六分寮","LANE":" ","ALLEY":" ","HOUSE_NO":"１７４號","E_COORD97":178882.95999999999,"N_COORD97":2561532,"ADDRESS":"六分寮１７４號","OBJECTID":236359},"geometry":{"x":178882.95999999903,"y":2561531.9999999981}},{"attributes":{"ID":236364,"DIS_CODE":0,"TOWNNAME":"善化區","LI":"田寮里","LIN":"16鄰","STREET":" ","SECT":" ","MAREA":"六分寮","LANE":" ","ALLEY":" ","HOUSE_NO":"１７８號之１","E_COORD97":178848.48999999999,"N_COORD97":2561626.02,"ADDRESS":"六分寮１７８號之１","OBJECTID":236360},"geometry":{"x":178848.49000000022,"y":2561626.0199999996}},{"attributes":{"ID":236365,"DIS_CODE":0,"TOWNNAME":"善化區","LI":"胡家里","LIN":"16鄰","STREET":" ","SECT":" ","MAREA":"胡厝寮","LANE":" ","ALLEY":" ","HOUSE_NO":"１５４號之１","E_COORD97":175241.97,"N_COORD97":2560697.77,"ADDRESS":"胡厝寮１５４號之１","OBJECTID":236361},"geometry":{"x":175241.97000000067,"y":2560697.7699999996}},{"attributes":{"ID":236366,"DIS_CODE":0,"TOWNNAME":"善化區","LI":"溪美里","LIN":"16鄰","STREET":" ","SECT":" ","MAREA":"溪尾","LANE":" ","ALLEY":" ","HOUSE_NO":"１５７號之１","E_COORD97":176991.94,"N_COORD97":2561320.52,"ADDRESS":"溪尾１５７號之１","OBJECTID":236362},"geometry":{"x":176991.94000000227,"y":2561320.5199999996}},{"attributes":{"ID":236367,"DIS_CODE":0,"TOWNNAME":"善化區","LI":"田寮里","LIN":"16鄰","STREET":" ","SECT":" ","MAREA":"六分寮","LANE":" ","ALLEY":" ","HOUSE_NO":"１８３號之１２","E_COORD97":178955.57999999999,"N_COORD97":2561578.27,"ADDRESS":"六分寮１８３號之１２","OBJECTID":236363},"geometry":{"x":178955.58000000101,"y":2561578.2700000014}},{"attributes":{"ID":236368,"DIS_CODE":0,"TOWNNAME":"善化區","LI":"六德里","LIN":"16鄰","STREET":" ","SECT":" ","MAREA":"六分寮","LANE":" ","ALLEY":" ","HOUSE_NO":"３３０號之１","E_COORD97":178360.54999999999,"N_COORD97":2561374.77,"ADDRESS":"六分寮３３０號之１","OBJECTID":236364},"geometry":{"x":178360.55000000075,"y":2561374.7700000014}},{"attributes":{"ID":236369,"DIS_CODE":0,"TOWNNAME":"善化區","LI":"田寮里","LIN":"16鄰","STREET":" ","SECT":" ","MAREA":"六分寮","LANE":" ","ALLEY":" ","HOUSE_NO":"１８３號之７","E_COORD97":178945.38,"N_COORD97":2561607.77,"ADDRESS":"六分寮１８３號之７","OBJECTID":236365},"geometry":{"x":178945.38000000082,"y":2561607.7700000033}},{"attributes":{"ID":236370,"DIS_CODE":0,"TOWNNAME":"善化區","LI":"六德里","LIN":"16鄰","STREET":" ","SECT":" ","MAREA":"六分寮","LANE":" ","ALLEY":" ","HOUSE_NO":"３２６號","E_COORD97":178389.67999999999,"N_COORD97":2561422,"ADDRESS":"六分寮３２６號","OBJECTID":236366},"geometry":{"x":178389.68000000156,"y":2561422}},{"attributes":{"ID":236371,"DIS_CODE":0,"TOWNNAME":"善化區","LI":"小新里","LIN":"16鄰","STREET":" ","SECT":" ","MAREA":"小新營","LANE":" ","ALLEY":" ","HOUSE_NO":"１３２號","E_COORD97":179885.64999999999,"N_COORD97":2558229.75,"ADDRESS":"小新營１３２號","OBJECTID":236367},"geometry":{"x":179885.64999999944,"y":2558229.7500000019}},{"attributes":{"ID":236372,"DIS_CODE":0,"TOWNNAME":"善化區","LI":"六德里","LIN":"16鄰","STREET":" ","SECT":" ","MAREA":"六分寮","LANE":" ","ALLEY":" ","HOUSE_NO":"３６５號","E_COORD97":178197.04999999999,"N_COORD97":2561293,"ADDRESS":"六分寮３６５號","OBJECTID":236368},"geometry":{"x":178197.04999999981,"y":2561293.0000000019}},{"attributes":{"ID":236373,"DIS_CODE":0,"TOWNNAME":"善化區","LI":"小新里","LIN":"16鄰","STREET":" ","SECT":" ","MAREA":"小新營","LANE":" ","ALLEY":" ","HOUSE_NO":"１２９號之１","E_COORD97":179818.09,"N_COORD97":2558254.77,"ADDRESS":"小新營１２９號之１","OBJECTID":236369},"geometry":{"x":179818.09000000078,"y":2558254.7700000033}},{"attributes":{"ID":236374,"DIS_CODE":0,"TOWNNAME":"善化區","LI":"六德里","LIN":"16鄰","STREET":" ","SECT":" ","MAREA":"六分寮","LANE":" ","ALLEY":" ","HOUSE_NO":"３３３之２０號","E_COORD97":178293.95999999999,"N_COORD97":2561421.52,"ADDRESS":"六分寮３３３之２０號","OBJECTID":236370},"geometry":{"x":178293.96000000089,"y":2561421.5199999996}},{"attributes":{"ID":236375,"DIS_CODE":0,"TOWNNAME":"善化區","LI":"六德里","LIN":"16鄰","STREET":" ","SECT":" ","MAREA":"六分寮","LANE":" ","ALLEY":" ","HOUSE_NO":"３３３之１７號","E_COORD97":178297.60000000001,"N_COORD97":2561408.77,"ADDRESS":"六分寮３３３之１７號","OBJECTID":236371},"geometry":{"x":178297.60000000056,"y":2561408.7700000014}},{"attributes":{"ID":236376,"DIS_CODE":0,"TOWNNAME":"善化區","LI":"小新里","LIN":"16鄰","STREET":" ","SECT":" ","MAREA":"小新營","LANE":" ","ALLEY":" ","HOUSE_NO":"１３４號之２","E_COORD97":179873.90178700001,"N_COORD97":2558175.67814,"ADDRESS":"小新營１３４號之２","OBJECTID":236372},"geometry":{"x":179873.90178700071,"y":2558175.6781399995}},{"attributes":{"ID":236377,"DIS_CODE":0,"TOWNNAME":"東區","LI":"虎尾里","LIN":"16鄰","STREET":"東成街","SECT":" ","MAREA":" ","LANE":"５６巷","ALLEY":" ","HOUSE_NO":"１０號","E_COORD97":171375.63,"N_COORD97":2542224.2999999998,"ADDRESS":"東成街５６巷１０號","OBJECTID":236373},"geometry":{"x":171375.63000000175,"y":2542224.3000000026}},{"attributes":{"ID":236378,"DIS_CODE":0,"TOWNNAME":"南區","LI":"新生里","LIN":"13鄰","STREET":"大同路","SECT":"二段","MAREA":" ","LANE":"１３６巷","ALLEY":" ","HOUSE_NO":"６號九樓之１","E_COORD97":169249.07000000001,"N_COORD97":2542208.4399999999,"ADDRESS":"大同路二段１３６巷６號九樓之１","OBJECTID":236374},"geometry":{"x":169249.07000000123,"y":2542208.4400000013}},{"attributes":{"ID":236379,"DIS_CODE":0,"TOWNNAME":"南區","LI":"新生里","LIN":"13鄰","STREET":"大同路","SECT":"二段","MAREA":" ","LANE":"１３６巷","ALLEY":" ","HOUSE_NO":"６號九樓之２","E_COORD97":169249.07000000001,"N_COORD97":2542208.4399999999,"ADDRESS":"大同路二段１３６巷６號九樓之２","OBJECTID":236375},"geometry":{"x":169249.07000000123,"y":2542208.4400000013}},{"attributes":{"ID":236380,"DIS_CODE":0,"TOWNNAME":"善化區","LI":"光文里","LIN":"14鄰","STREET":"民生路","SECT":" ","MAREA":" ","LANE":" ","ALLEY":" ","HOUSE_NO":"１８９號","E_COORD97":178426.19,"N_COORD97":2558934.21,"ADDRESS":"民生路１８９號","OBJECTID":236376},"geometry":{"x":178426.19000000134,"y":2558934.2100000009}},{"attributes":{"ID":236381,"DIS_CODE":0,"TOWNNAME":"善化區","LI":"文昌里","LIN":"16鄰","STREET":"文賢街","SECT":" ","MAREA":" ","LANE":" ","ALLEY":" ","HOUSE_NO":"１號","E_COORD97":177668,"N_COORD97":2558893.7799999998,"ADDRESS":"文賢街１號","OBJECTID":236377},"geometry":{"x":177668.00000000093,"y":2558893.7799999993}},{"attributes":{"ID":236382,"DIS_CODE":0,"TOWNNAME":"善化區","LI":"坐駕里","LIN":"16鄰","STREET":"大成路","SECT":" ","MAREA":" ","LANE":"１５巷","ALLEY":" ","HOUSE_NO":"１８號","E_COORD97":178867.10000000001,"N_COORD97":2558890.75,"ADDRESS":"大成路１５巷１８號","OBJECTID":236378},"geometry":{"x":178867.10000000056,"y":2558890.7500000019}},{"attributes":{"ID":236383,"DIS_CODE":0,"TOWNNAME":"善化區","LI":"光文里","LIN":"16鄰","STREET":"信義路","SECT":" ","MAREA":" ","LANE":"１５５巷","ALLEY":" ","HOUSE_NO":"１０號","E_COORD97":178179.26000000001,"N_COORD97":2559039.5,"ADDRESS":"信義路１５５巷１０號","OBJECTID":236379},"geometry":{"x":178179.26000000071,"y":2559039.5}},{"attributes":{"ID":236384,"DIS_CODE":0,"TOWNNAME":"南區","LI":"新生里","LIN":"13鄰","STREET":"大同路","SECT":"二段","MAREA":" ","LANE":"１３６巷","ALLEY":" ","HOUSE_NO":"６號十樓之１","E_COORD97":169249.07000000001,"N_COORD97":2542208.4399999999,"ADDRESS":"大同路二段１３６巷６號十樓之１","OBJECTID":236380},"geometry":{"x":169249.07000000123,"y":2542208.4400000013}},{"attributes":{"ID":236385,"DIS_CODE":0,"TOWNNAME":"善化區","LI":"六德里","LIN":"16鄰","STREET":" ","SECT":" ","MAREA":"六分寮","LANE":" ","ALLEY":" ","HOUSE_NO":"３３４號之２","E_COORD97":178259.67000000001,"N_COORD97":2561387.02,"ADDRESS":"六分寮３３４號之２","OBJECTID":236381},"geometry":{"x":178259.67000000086,"y":2561387.0200000014}},{"attributes":{"ID":236386,"DIS_CODE":0,"TOWNNAME":"善化區","LI":"六德里","LIN":"16鄰","STREET":" ","SECT":" ","MAREA":"六分寮","LANE":" ","ALLEY":" ","HOUSE_NO":"３３３之２６號","E_COORD97":178312.45999999999,"N_COORD97":2561430.27,"ADDRESS":"六分寮３３３之２６號","OBJECTID":236382},"geometry":{"x":178312.46000000089,"y":2561430.2699999996}},{"attributes":{"ID":236387,"DIS_CODE":0,"TOWNNAME":"南區","LI":"新生里","LIN":"13鄰","STREET":"大同路","SECT":"二段","MAREA":" ","LANE":"１３６巷","ALLEY":" ","HOUSE_NO":"６號十樓之２","E_COORD97":169249.07000000001,"N_COORD97":2542208.4399999999,"ADDRESS":"大同路二段１３６巷６號十樓之２","OBJECTID":236383},"geometry":{"x":169249.07000000123,"y":2542208.4400000013}},{"attributes":{"ID":236388,"DIS_CODE":0,"TOWNNAME":"北區","LI":"大道里","LIN":"13鄰","STREET":"北門路","SECT":"二段","MAREA":" ","LANE":"５２７巷","ALLEY":" ","HOUSE_NO":"１７號二樓之２","E_COORD97":169525.20000000001,"N_COORD97":2545588.4500000002,"ADDRESS":"北門路二段５２７巷１７號二樓之２","OBJECTID":236384},"geometry":{"x":169525.20000000019,"y":2545588.4500000011}},{"attributes":{"ID":236389,"DIS_CODE":0,"TOWNNAME":"北區","LI":"大道里","LIN":"13鄰","STREET":"北門路","SECT":"二段","MAREA":" ","LANE":"５２７巷","ALLEY":" ","HOUSE_NO":"１７號二樓之１","E_COORD97":169525.20000000001,"N_COORD97":2545588.4500000002,"ADDRESS":"北門路二段５２７巷１７號二樓之１","OBJECTID":236385},"geometry":{"x":169525.20000000019,"y":2545588.4500000011}},{"attributes":{"ID":236390,"DIS_CODE":0,"TOWNNAME":"北區","LI":"大道里","LIN":"13鄰","STREET":"北門路","SECT":"二段","MAREA":" ","LANE":"５２７巷","ALLEY":" ","HOUSE_NO":"１７號三樓之２","E_COORD97":169525.20000000001,"N_COORD97":2545588.4500000002,"ADDRESS":"北門路二段５２７巷１７號三樓之２","OBJECTID":236386},"geometry":{"x":169525.20000000019,"y":2545588.4500000011}},{"attributes":{"ID":236391,"DIS_CODE":0,"TOWNNAME":"安定區","LI":"新吉里","LIN":"19鄰","STREET":" ","SECT":" ","MAREA":"公親寮","LANE":" ","ALLEY":" ","HOUSE_NO":"８號","E_COORD97":168529.67000000001,"N_COORD97":2553199.25,"ADDRESS":"公親寮８號","OBJECTID":236387},"geometry":{"x":168529.67000000086,"y":2553199.25}},{"attributes":{"ID":236392,"DIS_CODE":0,"TOWNNAME":"北區","LI":"大道里","LIN":"13鄰","STREET":"北門路","SECT":"二段","MAREA":" ","LANE":"５２７巷","ALLEY":" ","HOUSE_NO":"１７號三樓之１","E_COORD97":169525.20000000001,"N_COORD97":2545588.4500000002,"ADDRESS":"北門路二段５２７巷１７號三樓之１","OBJECTID":236388},"geometry":{"x":169525.20000000019,"y":2545588.4500000011}},{"attributes":{"ID":236393,"DIS_CODE":0,"TOWNNAME":"北區","LI":"大道里","LIN":"13鄰","STREET":"北門路","SECT":"二段","MAREA":" ","LANE":"５２７巷","ALLEY":" ","HOUSE_NO":"１７號三樓之５","E_COORD97":169525.20000000001,"N_COORD97":2545588.4500000002,"ADDRESS":"北門路二段５２７巷１７號三樓之５","OBJECTID":236389},"geometry":{"x":169525.20000000019,"y":2545588.4500000011}},{"attributes":{"ID":236394,"DIS_CODE":0,"TOWNNAME":"北區","LI":"大道里","LIN":"13鄰","STREET":"北門路","SECT":"二段","MAREA":" ","LANE":"５２７巷","ALLEY":" ","HOUSE_NO":"１７號三樓之３","E_COORD97":169525.20000000001,"N_COORD97":2545588.4500000002,"ADDRESS":"北門路二段５２７巷１７號三樓之３","OBJECTID":236390},"geometry":{"x":169525.20000000019,"y":2545588.4500000011}},{"attributes":{"ID":236395,"DIS_CODE":0,"TOWNNAME":"北區","LI":"大道里","LIN":"13鄰","STREET":"北門路","SECT":"二段","MAREA":" ","LANE":"５２７巷","ALLEY":" ","HOUSE_NO":"１７號四樓之２","E_COORD97":169525.20000000001,"N_COORD97":2545588.4500000002,"ADDRESS":"北門路二段５２７巷１７號四樓之２","OBJECTID":236391},"geometry":{"x":169525.20000000019,"y":2545588.4500000011}},{"attributes":{"ID":236396,"DIS_CODE":0,"TOWNNAME":"北區","LI":"大道里","LIN":"13鄰","STREET":"北門路","SECT":"二段","MAREA":" ","LANE":"５２７巷","ALLEY":" ","HOUSE_NO":"１７號四樓之１","E_COORD97":169525.20000000001,"N_COORD97":2545588.4500000002,"ADDRESS":"北門路二段５２７巷１７號四樓之１","OBJECTID":236392},"geometry":{"x":169525.20000000019,"y":2545588.4500000011}},{"attributes":{"ID":236397,"DIS_CODE":0,"TOWNNAME":"北區","LI":"大道里","LIN":"13鄰","STREET":"北門路","SECT":"二段","MAREA":" ","LANE":"５２７巷","ALLEY":" ","HOUSE_NO":"１７號四樓之５","E_COORD97":169525.20000000001,"N_COORD97":2545588.4500000002,"ADDRESS":"北門路二段５２７巷１７號四樓之５","OBJECTID":236393},"geometry":{"x":169525.20000000019,"y":2545588.4500000011}},{"attributes":{"ID":236398,"DIS_CODE":0,"TOWNNAME":"北區","LI":"大道里","LIN":"13鄰","STREET":"北門路","SECT":"二段","MAREA":" ","LANE":"５２７巷","ALLEY":" ","HOUSE_NO":"１７號四樓之３","E_COORD97":169525.20000000001,"N_COORD97":2545588.4500000002,"ADDRESS":"北門路二段５２７巷１７號四樓之３","OBJECTID":236394},"geometry":{"x":169525.20000000019,"y":2545588.4500000011}},{"attributes":{"ID":236399,"DIS_CODE":0,"TOWNNAME":"中西區","LI":"保安里","LIN":"14鄰","STREET":"友愛街","SECT":" ","MAREA":" ","LANE":" ","ALLEY":" ","HOUSE_NO":"２４６號","E_COORD97":167533.01999999999,"N_COORD97":2543663.0499999998,"ADDRESS":"友愛街２４６號","OBJECTID":236395},"geometry":{"x":167533.02000000142,"y":2543663.0500000026}},{"attributes":{"ID":236400,"DIS_CODE":0,"TOWNNAME":"中西區","LI":"保安里","LIN":"14鄰","STREET":"友愛街","SECT":" ","MAREA":" ","LANE":" ","ALLEY":" ","HOUSE_NO":"２４８號","E_COORD97":167527.29999999999,"N_COORD97":2543664.5800000001,"ADDRESS":"友愛街２４８號","OBJECTID":236396},"geometry":{"x":167527.29999999981,"y":2543664.5800000038}},{"attributes":{"ID":236401,"DIS_CODE":0,"TOWNNAME":"官田區","LI":"官田里","LIN":"16鄰","STREET":" ","SECT":" ","MAREA":"官田","LANE":" ","ALLEY":" ","HOUSE_NO":"１７９號之１","E_COORD97":182396.32999999999,"N_COORD97":2564879.3199999998,"ADDRESS":"官田１７９號之１","OBJECTID":236397},"geometry":{"x":182396.33000000007,"y":2564879.3200000003}},{"attributes":{"ID":236402,"DIS_CODE":0,"TOWNNAME":"官田區","LI":"官田里","LIN":"16鄰","STREET":" ","SECT":" ","MAREA":"官田","LANE":" ","ALLEY":" ","HOUSE_NO":"１７９號","E_COORD97":182425.82999999999,"N_COORD97":2564881.21,"ADDRESS":"官田１７９號","OBJECTID":236398},"geometry":{"x":182425.83000000101,"y":2564881.209999999}},{"attributes":{"ID":236403,"DIS_CODE":0,"TOWNNAME":"官田區","LI":"官田里","LIN":"16鄰","STREET":" ","SECT":" ","MAREA":"官田","LANE":" ","ALLEY":" ","HOUSE_NO":"１８０號","E_COORD97":182438.17999999999,"N_COORD97":2564856.3999999999,"ADDRESS":"官田１８０號","OBJECTID":236399},"geometry":{"x":182438.18000000063,"y":2564856.4000000022}},{"attributes":{"ID":236404,"DIS_CODE":0,"TOWNNAME":"官田區","LI":"官田里","LIN":"16鄰","STREET":" ","SECT":" ","MAREA":"官田","LANE":" ","ALLEY":" ","HOUSE_NO":"１８１號之１","E_COORD97":182380.44,"N_COORD97":2564855.3399999999,"ADDRESS":"官田１８１號之１","OBJECTID":236400},"geometry":{"x":182380.44000000041,"y":2564855.3399999999}}]}