{"displayFieldName":"TOWNNAME","fieldAliases":{"ID":"ID","DIS_CODE":"DIS_CODE","TOWNNAME":"TOWNNAME","LI":"LI","LIN":"LIN","STREET":"STREET","SECT":"SECT","MAREA":"MAREA","LANE":"LANE","ALLEY":"ALLEY","HOUSE_NO":"HOUSE_NO","E_COORD97":"E_COORD97","N_COORD97":"N_COORD97","ADDRESS":"ADDRESS","OBJECTID":"OBJECTID"},"geometryType":"esriGeometryPoint","spatialReference":{"wkid":102443,"latestWkid":3826},"fields":[{"name":"ID","type":"esriFieldTypeDouble","alias":"ID"},{"name":"DIS_CODE","type":"esriFieldTypeInteger","alias":"DIS_CODE"},{"name":"TOWNNAME","type":"esriFieldTypeString","alias":"TOWNNAME","length":8},{"name":"LI","type":"esriFieldTypeString","alias":"LI","length":8},{"name":"LIN","type":"esriFieldTypeString","alias":"LIN","length":12},{"name":"STREET","type":"esriFieldTypeString","alias":"STREET","length":20},{"name":"SECT","type":"esriFieldTypeString","alias":"SECT","length":8},{"name":"MAREA","type":"esriFieldTypeString","alias":"MAREA","length":12},{"name":"LANE","type":"esriFieldTypeString","alias":"LANE","length":10},{"name":"ALLEY","type":"esriFieldTypeString","alias":"ALLEY","length":10},{"name":"HOUSE_NO","type":"esriFieldTypeString","alias":"HOUSE_NO","length":20},{"name":"E_COORD97","type":"esriFieldTypeDouble","alias":"E_COORD97"},{"name":"N_COORD97","type":"esriFieldTypeDouble","alias":"N_COORD97"},{"name":"ADDRESS","type":"esriFieldTypeString","alias":"ADDRESS","length":50},{"name":"OBJECTID","type":"esriFieldTypeOID","alias":"OBJECTID"}],"features":[{"attributes":{"ID":406625,"DIS_CODE":0,"TOWNNAME":"安南區","LI":"海東里","LIN":"22鄰","STREET":"同安路","SECT":" ","MAREA":" ","LANE":"８３巷","ALLEY":" ","HOUSE_NO":"１號","E_COORD97":166918.95999999999,"N_COORD97":2548957.2400000002,"ADDRESS":"同安路８３巷１號","OBJECTID":406601},"geometry":{"x":166918.96000000089,"y":2548957.2400000021}},{"attributes":{"ID":406626,"DIS_CODE":0,"TOWNNAME":"安南區","LI":"海東里","LIN":"22鄰","STREET":"同安路","SECT":" ","MAREA":" ","LANE":"８３巷","ALLEY":" ","HOUSE_NO":"１０號","E_COORD97":166915.66,"N_COORD97":2548980.4900000002,"ADDRESS":"同安路８３巷１０號","OBJECTID":406602},"geometry":{"x":166915.66000000201,"y":2548980.4900000002}},{"attributes":{"ID":406627,"DIS_CODE":0,"TOWNNAME":"東區","LI":"崇德里","LIN":"22鄰","STREET":"崇德路","SECT":" ","MAREA":" ","LANE":"５０８巷","ALLEY":" ","HOUSE_NO":"４５號","E_COORD97":170670.09,"N_COORD97":2541549.9500000002,"ADDRESS":"崇德路５０８巷４５號","OBJECTID":406603},"geometry":{"x":170670.08999999985,"y":2541549.9500000011}},{"attributes":{"ID":406628,"DIS_CODE":0,"TOWNNAME":"東區","LI":"崇德里","LIN":"22鄰","STREET":"崇德路","SECT":" ","MAREA":" ","LANE":"５０８巷","ALLEY":" ","HOUSE_NO":"４７號","E_COORD97":170665.5,"N_COORD97":2541554.1400000001,"ADDRESS":"崇德路５０８巷４７號","OBJECTID":406604},"geometry":{"x":170665.5,"y":2541554.1400000006}},{"attributes":{"ID":406629,"DIS_CODE":0,"TOWNNAME":"東區","LI":"崇德里","LIN":"22鄰","STREET":"崇德路","SECT":" ","MAREA":" ","LANE":"５０８巷","ALLEY":" ","HOUSE_NO":"４９號","E_COORD97":170660.51000000001,"N_COORD97":2541550.9500000002,"ADDRESS":"崇德路５０８巷４９號","OBJECTID":406605},"geometry":{"x":170660.50999999978,"y":2541550.9499999993}},{"attributes":{"ID":406630,"DIS_CODE":0,"TOWNNAME":"仁德區","LI":"成功里","LIN":"22鄰","STREET":"保生路","SECT":" ","MAREA":" ","LANE":"４１巷","ALLEY":" ","HOUSE_NO":"３號","E_COORD97":170808.85000000001,"N_COORD97":2539748.2400000002,"ADDRESS":"保生路４１巷３號","OBJECTID":406606},"geometry":{"x":170808.84999999963,"y":2539748.2400000021}},{"attributes":{"ID":406631,"DIS_CODE":0,"TOWNNAME":"仁德區","LI":"後壁里","LIN":"22鄰","STREET":"中正路","SECT":"二段","MAREA":" ","LANE":"１８７巷","ALLEY":" ","HOUSE_NO":"２１號","E_COORD97":173152.42999999999,"N_COORD97":2538631.52,"ADDRESS":"中正路二段１８７巷２１號","OBJECTID":406607},"geometry":{"x":173152.4299999997,"y":2538631.5199999996}},{"attributes":{"ID":406632,"DIS_CODE":0,"TOWNNAME":"仁德區","LI":"後壁里","LIN":"22鄰","STREET":"中正路","SECT":"二段","MAREA":" ","LANE":"１８７巷","ALLEY":" ","HOUSE_NO":"２３號","E_COORD97":173149.88,"N_COORD97":2538620.02,"ADDRESS":"中正路二段１８７巷２３號","OBJECTID":406608},"geometry":{"x":173149.87999999989,"y":2538620.0200000014}},{"attributes":{"ID":406633,"DIS_CODE":0,"TOWNNAME":"中西區","LI":"藥王里","LIN":"19鄰","STREET":"和善街","SECT":" ","MAREA":" ","LANE":"４３巷","ALLEY":" ","HOUSE_NO":"１１號","E_COORD97":166985.23000000001,"N_COORD97":2544613.5800000001,"ADDRESS":"和善街４３巷１１號","OBJECTID":406609},"geometry":{"x":166985.23000000138,"y":2544613.5800000038}},{"attributes":{"ID":406634,"DIS_CODE":0,"TOWNNAME":"中西區","LI":"藥王里","LIN":"19鄰","STREET":"和善街","SECT":" ","MAREA":" ","LANE":"４３巷","ALLEY":" ","HOUSE_NO":"１２號","E_COORD97":166980.95999999999,"N_COORD97":2544609.9500000002,"ADDRESS":"和善街４３巷１２號","OBJECTID":406610},"geometry":{"x":166980.95999999996,"y":2544609.9499999993}},{"attributes":{"ID":406635,"DIS_CODE":0,"TOWNNAME":"中西區","LI":"藥王里","LIN":"19鄰","STREET":"和善街","SECT":" ","MAREA":" ","LANE":"４３巷","ALLEY":" ","HOUSE_NO":"１３號","E_COORD97":166978.39000000001,"N_COORD97":2544607.8100000001,"ADDRESS":"和善街４３巷１３號","OBJECTID":406611},"geometry":{"x":166978.3900000006,"y":2544607.8100000005}},{"attributes":{"ID":406636,"DIS_CODE":0,"TOWNNAME":"中西區","LI":"藥王里","LIN":"19鄰","STREET":"和善街","SECT":" ","MAREA":" ","LANE":"４３巷","ALLEY":" ","HOUSE_NO":"１４號","E_COORD97":166976.69,"N_COORD97":2544604.1899999999,"ADDRESS":"和善街４３巷１４號","OBJECTID":406612},"geometry":{"x":166976.69000000227,"y":2544604.1899999995}},{"attributes":{"ID":406637,"DIS_CODE":0,"TOWNNAME":"永康區","LI":"龍潭里","LIN":"22鄰","STREET":"龍橋街","SECT":" ","MAREA":" ","LANE":"８８巷","ALLEY":" ","HOUSE_NO":"１８之１號","E_COORD97":174796.98000000001,"N_COORD97":2548525.6000000001,"ADDRESS":"龍橋街８８巷１８之１號","OBJECTID":406613},"geometry":{"x":174796.98000000138,"y":2548525.6000000034}},{"attributes":{"ID":406638,"DIS_CODE":0,"TOWNNAME":"永康區","LI":"六合里","LIN":"22鄰","STREET":"中華二路","SECT":" ","MAREA":" ","LANE":"３５８巷","ALLEY":" ","HOUSE_NO":"１２號","E_COORD97":171114.66,"N_COORD97":2545474.75,"ADDRESS":"中華二路３５８巷１２號","OBJECTID":406614},"geometry":{"x":171114.66000000201,"y":2545474.7500000019}},{"attributes":{"ID":406639,"DIS_CODE":0,"TOWNNAME":"永康區","LI":"六合里","LIN":"22鄰","STREET":"中華二路","SECT":" ","MAREA":" ","LANE":"３５８巷","ALLEY":" ","HOUSE_NO":"１６號","E_COORD97":171112.82000000001,"N_COORD97":2545481.75,"ADDRESS":"中華二路３５８巷１６號","OBJECTID":406615},"geometry":{"x":171112.8200000003,"y":2545481.7500000019}},{"attributes":{"ID":406640,"DIS_CODE":0,"TOWNNAME":"永康區","LI":"六合里","LIN":"22鄰","STREET":"中華二路","SECT":" ","MAREA":" ","LANE":"３５８巷","ALLEY":" ","HOUSE_NO":"１８號","E_COORD97":171111.26000000001,"N_COORD97":2545491.75,"ADDRESS":"中華二路３５８巷１８號","OBJECTID":406616},"geometry":{"x":171111.25999999978,"y":2545491.7500000019}},{"attributes":{"ID":406641,"DIS_CODE":0,"TOWNNAME":"仁德區","LI":"上崙里","LIN":"22鄰","STREET":"德崙路","SECT":" ","MAREA":" ","LANE":"１９６巷","ALLEY":" ","HOUSE_NO":"１１號","E_COORD97":173633.84,"N_COORD97":2538266.52,"ADDRESS":"德崙路１９６巷１１號","OBJECTID":406617},"geometry":{"x":173633.84000000171,"y":2538266.5199999977}},{"attributes":{"ID":406642,"DIS_CODE":0,"TOWNNAME":"仁德區","LI":"太子里","LIN":"22鄰","STREET":"長興四街","SECT":" ","MAREA":" ","LANE":"９０巷","ALLEY":" ","HOUSE_NO":"４號","E_COORD97":173835.70999999999,"N_COORD97":2543580,"ADDRESS":"長興四街９０巷４號","OBJECTID":406618},"geometry":{"x":173835.70999999996,"y":2543580.0000000037}},{"attributes":{"ID":406643,"DIS_CODE":0,"TOWNNAME":"仁德區","LI":"上崙里","LIN":"22鄰","STREET":"德崙路","SECT":" ","MAREA":" ","LANE":"２３０巷","ALLEY":" ","HOUSE_NO":"２號","E_COORD97":173682.20000000001,"N_COORD97":2538233.27,"ADDRESS":"德崙路２３０巷２號","OBJECTID":406619},"geometry":{"x":173682.20000000019,"y":2538233.2699999996}},{"attributes":{"ID":406644,"DIS_CODE":0,"TOWNNAME":"東區","LI":"崇信里","LIN":"13鄰","STREET":"崇信街","SECT":" ","MAREA":" ","LANE":" ","ALLEY":" ","HOUSE_NO":"７０號","E_COORD97":170718.79999999999,"N_COORD97":2542413.1400000001,"ADDRESS":"崇信街７０號","OBJECTID":406620},"geometry":{"x":170718.80000000075,"y":2542413.1400000006}},{"attributes":{"ID":406645,"DIS_CODE":0,"TOWNNAME":"佳里區","LI":"建南里","LIN":"22鄰","STREET":"勝利路","SECT":" ","MAREA":" ","LANE":"２巷","ALLEY":" ","HOUSE_NO":"１５號","E_COORD97":165789.89000000001,"N_COORD97":2561523.4700000002,"ADDRESS":"勝利路２巷１５號","OBJECTID":406621},"geometry":{"x":165789.8900000006,"y":2561523.4700000025}},{"attributes":{"ID":406646,"DIS_CODE":0,"TOWNNAME":"佳里區","LI":"建南里","LIN":"22鄰","STREET":"勝利路","SECT":" ","MAREA":" ","LANE":"２巷","ALLEY":" ","HOUSE_NO":"１７號","E_COORD97":165782.20000000001,"N_COORD97":2561517.5099999998,"ADDRESS":"勝利路２巷１７號","OBJECTID":406622},"geometry":{"x":165782.20000000019,"y":2561517.5099999998}},{"attributes":{"ID":406647,"DIS_CODE":0,"TOWNNAME":"佳里區","LI":"建南里","LIN":"22鄰","STREET":"勝利路","SECT":" ","MAREA":" ","LANE":"２巷","ALLEY":" ","HOUSE_NO":"１９號","E_COORD97":165782.29999999999,"N_COORD97":2561513.3100000001,"ADDRESS":"勝利路２巷１９號","OBJECTID":406623},"geometry":{"x":165782.30000000075,"y":2561513.3100000005}},{"attributes":{"ID":406648,"DIS_CODE":0,"TOWNNAME":"佳里區","LI":"建南里","LIN":"22鄰","STREET":"勝利路","SECT":" ","MAREA":" ","LANE":"２巷","ALLEY":" ","HOUSE_NO":"２１號","E_COORD97":165782.29000000001,"N_COORD97":2561508.9700000002,"ADDRESS":"勝利路２巷２１號","OBJECTID":406624},"geometry":{"x":165782.2900000019,"y":2561508.9700000007}},{"attributes":{"ID":406649,"DIS_CODE":0,"TOWNNAME":"佳里區","LI":"建南里","LIN":"22鄰","STREET":"勝利路","SECT":" ","MAREA":" ","LANE":"２巷","ALLEY":" ","HOUSE_NO":"２３號","E_COORD97":165781.97,"N_COORD97":2561505.02,"ADDRESS":"勝利路２巷２３號","OBJECTID":406625},"geometry":{"x":165781.96999999974,"y":2561505.0200000014}},{"attributes":{"ID":406650,"DIS_CODE":0,"TOWNNAME":"佳里區","LI":"建南里","LIN":"22鄰","STREET":"勝利路","SECT":" ","MAREA":" ","LANE":"２巷","ALLEY":" ","HOUSE_NO":"２號","E_COORD97":165780.09,"N_COORD97":2561561.2799999998,"ADDRESS":"勝利路２巷２號","OBJECTID":406626},"geometry":{"x":165780.09000000078,"y":2561561.2800000012}},{"attributes":{"ID":406651,"DIS_CODE":0,"TOWNNAME":"佳里區","LI":"建南里","LIN":"22鄰","STREET":"勝利路","SECT":" ","MAREA":" ","LANE":"２巷","ALLEY":" ","HOUSE_NO":"３號","E_COORD97":165812.45000000001,"N_COORD97":2561548.6200000001,"ADDRESS":"勝利路２巷３號","OBJECTID":406627},"geometry":{"x":165812.45000000112,"y":2561548.620000001}},{"attributes":{"ID":406652,"DIS_CODE":0,"TOWNNAME":"佳里區","LI":"建南里","LIN":"22鄰","STREET":"勝利路","SECT":" ","MAREA":" ","LANE":"２巷","ALLEY":" ","HOUSE_NO":"４號","E_COORD97":165780.07000000001,"N_COORD97":2561556.8100000001,"ADDRESS":"勝利路２巷４號","OBJECTID":406628},"geometry":{"x":165780.0700000003,"y":2561556.8100000005}},{"attributes":{"ID":406653,"DIS_CODE":0,"TOWNNAME":"佳里區","LI":"建南里","LIN":"22鄰","STREET":"勝利路","SECT":" ","MAREA":" ","LANE":"２巷","ALLEY":" ","HOUSE_NO":"５號","E_COORD97":165794.26999999999,"N_COORD97":2561552.9399999999,"ADDRESS":"勝利路２巷５號","OBJECTID":406629},"geometry":{"x":165794.27000000048,"y":2561552.9400000013}},{"attributes":{"ID":406654,"DIS_CODE":0,"TOWNNAME":"佳里區","LI":"建南里","LIN":"22鄰","STREET":"勝利路","SECT":" ","MAREA":" ","LANE":"２巷","ALLEY":" ","HOUSE_NO":"６號","E_COORD97":165779.45999999999,"N_COORD97":2561551.1099999999,"ADDRESS":"勝利路２巷６號","OBJECTID":406630},"geometry":{"x":165779.46000000089,"y":2561551.1100000031}},{"attributes":{"ID":406655,"DIS_CODE":0,"TOWNNAME":"佳里區","LI":"建南里","LIN":"22鄰","STREET":"勝利路","SECT":" ","MAREA":" ","LANE":"２巷","ALLEY":" ","HOUSE_NO":"７號","E_COORD97":165793.75,"N_COORD97":2561546.6400000001,"ADDRESS":"勝利路２巷７號","OBJECTID":406631},"geometry":{"x":165793.75,"y":2561546.6400000025}},{"attributes":{"ID":406656,"DIS_CODE":0,"TOWNNAME":"佳里區","LI":"建南里","LIN":"22鄰","STREET":"勝利路","SECT":" ","MAREA":" ","LANE":"２巷","ALLEY":" ","HOUSE_NO":"８號","E_COORD97":165778.16,"N_COORD97":2561545.6899999999,"ADDRESS":"勝利路２巷８號","OBJECTID":406632},"geometry":{"x":165778.16000000201,"y":2561545.6899999995}},{"attributes":{"ID":406657,"DIS_CODE":0,"TOWNNAME":"佳里區","LI":"建南里","LIN":"22鄰","STREET":"勝利路","SECT":" ","MAREA":" ","LANE":"２巷","ALLEY":" ","HOUSE_NO":"９號","E_COORD97":165792.98999999999,"N_COORD97":2561540.7200000002,"ADDRESS":"勝利路２巷９號","OBJECTID":406633},"geometry":{"x":165792.99000000209,"y":2561540.7200000007}},{"attributes":{"ID":406658,"DIS_CODE":0,"TOWNNAME":"歸仁區","LI":"崙頂里","LIN":"22鄰","STREET":"崙頂二街","SECT":" ","MAREA":" ","LANE":"５０巷","ALLEY":" ","HOUSE_NO":"５號","E_COORD97":177735.89000000001,"N_COORD97":2540047.48,"ADDRESS":"崙頂二街５０巷５號","OBJECTID":406634},"geometry":{"x":177735.8900000006,"y":2540047.4800000004}},{"attributes":{"ID":406659,"DIS_CODE":0,"TOWNNAME":"歸仁區","LI":"崙頂里","LIN":"22鄰","STREET":"崙頂二街","SECT":" ","MAREA":" ","LANE":"５０巷","ALLEY":" ","HOUSE_NO":"５５號","E_COORD97":177721.54000000001,"N_COORD97":2540003.48,"ADDRESS":"崙頂二街５０巷５５號","OBJECTID":406635},"geometry":{"x":177721.54000000097,"y":2540003.4800000004}},{"attributes":{"ID":406660,"DIS_CODE":0,"TOWNNAME":"歸仁區","LI":"崙頂里","LIN":"22鄰","STREET":"崙頂二街","SECT":" ","MAREA":" ","LANE":"５０巷","ALLEY":" ","HOUSE_NO":"８５號","E_COORD97":177697.04000000001,"N_COORD97":2540025.48,"ADDRESS":"崙頂二街５０巷８５號","OBJECTID":406636},"geometry":{"x":177697.04000000004,"y":2540025.4800000023}},{"attributes":{"ID":406661,"DIS_CODE":0,"TOWNNAME":"歸仁區","LI":"崙頂里","LIN":"22鄰","STREET":"崙頂二街","SECT":" ","MAREA":" ","LANE":"５０巷","ALLEY":" ","HOUSE_NO":"１５號","E_COORD97":177722.94,"N_COORD97":2540065.48,"ADDRESS":"崙頂二街５０巷１５號","OBJECTID":406637},"geometry":{"x":177722.94000000134,"y":2540065.4800000023}},{"attributes":{"ID":406662,"DIS_CODE":0,"TOWNNAME":"歸仁區","LI":"崙頂里","LIN":"22鄰","STREET":"崙頂二街","SECT":" ","MAREA":" ","LANE":"５０巷","ALLEY":" ","HOUSE_NO":"１７號","E_COORD97":177720.84,"N_COORD97":2540069.48,"ADDRESS":"崙頂二街５０巷１７號","OBJECTID":406638},"geometry":{"x":177720.84000000171,"y":2540069.4800000023}},{"attributes":{"ID":406663,"DIS_CODE":0,"TOWNNAME":"歸仁區","LI":"歸仁里","LIN":"22鄰","STREET":"文化二街","SECT":" ","MAREA":" ","LANE":"２６巷","ALLEY":" ","HOUSE_NO":"３２號","E_COORD97":178076.32000000001,"N_COORD97":2541217.1299999999,"ADDRESS":"文化二街２６巷３２號","OBJECTID":406639},"geometry":{"x":178076.32000000123,"y":2541217.129999999}},{"attributes":{"ID":406664,"DIS_CODE":0,"TOWNNAME":"歸仁區","LI":"看西里","LIN":"22鄰","STREET":"成功七街","SECT":" ","MAREA":" ","LANE":"６５巷","ALLEY":" ","HOUSE_NO":"２號","E_COORD97":178271.56,"N_COORD97":2539784.3599999999,"ADDRESS":"成功七街６５巷２號","OBJECTID":406640},"geometry":{"x":178271.55999999959,"y":2539784.3600000013}},{"attributes":{"ID":406665,"DIS_CODE":0,"TOWNNAME":"歸仁區","LI":"看西里","LIN":"22鄰","STREET":"成功七街","SECT":" ","MAREA":" ","LANE":"６５巷","ALLEY":" ","HOUSE_NO":"１０號","E_COORD97":178269.70999999999,"N_COORD97":2539770.3599999999,"ADDRESS":"成功七街６５巷１０號","OBJECTID":406641},"geometry":{"x":178269.71000000089,"y":2539770.3600000013}},{"attributes":{"ID":406666,"DIS_CODE":0,"TOWNNAME":"歸仁區","LI":"崙頂里","LIN":"22鄰","STREET":"崙頂二街","SECT":" ","MAREA":" ","LANE":"５０巷","ALLEY":" ","HOUSE_NO":"５３號","E_COORD97":177725.73999999999,"N_COORD97":2540005.48,"ADDRESS":"崙頂二街５０巷５３號","OBJECTID":406642},"geometry":{"x":177725.74000000115,"y":2540005.4800000023}},{"attributes":{"ID":406667,"DIS_CODE":0,"TOWNNAME":"歸仁區","LI":"崙頂里","LIN":"22鄰","STREET":"崙頂二街","SECT":" ","MAREA":" ","LANE":"５０巷","ALLEY":" ","HOUSE_NO":"６３號","E_COORD97":177706.14000000001,"N_COORD97":2539992.48,"ADDRESS":"崙頂二街５０巷６３號","OBJECTID":406643},"geometry":{"x":177706.13999999966,"y":2539992.4800000004}},{"attributes":{"ID":406668,"DIS_CODE":0,"TOWNNAME":"安平區","LI":"文平里","LIN":"22鄰","STREET":"健康一街","SECT":" ","MAREA":" ","LANE":"５８巷","ALLEY":" ","HOUSE_NO":"１１號","E_COORD97":165971.88,"N_COORD97":2542799.48,"ADDRESS":"健康一街５８巷１１號","OBJECTID":406644},"geometry":{"x":165971.88000000082,"y":2542799.4800000004}},{"attributes":{"ID":406669,"DIS_CODE":0,"TOWNNAME":"安平區","LI":"文平里","LIN":"22鄰","STREET":"健康一街","SECT":" ","MAREA":" ","LANE":"５８巷","ALLEY":" ","HOUSE_NO":"１３號","E_COORD97":165975.53,"N_COORD97":2542799,"ADDRESS":"健康一街５８巷１３號","OBJECTID":406645},"geometry":{"x":165975.53000000026,"y":2542799}},{"attributes":{"ID":406670,"DIS_CODE":0,"TOWNNAME":"安平區","LI":"文平里","LIN":"22鄰","STREET":"健康一街","SECT":" ","MAREA":" ","LANE":"５８巷","ALLEY":" ","HOUSE_NO":"１５號","E_COORD97":165980.29999999999,"N_COORD97":2542798.52,"ADDRESS":"健康一街５８巷１５號","OBJECTID":406646},"geometry":{"x":165980.30000000168,"y":2542798.5199999996}},{"attributes":{"ID":406671,"DIS_CODE":0,"TOWNNAME":"安平區","LI":"文平里","LIN":"22鄰","STREET":"健康一街","SECT":" ","MAREA":" ","LANE":"５８巷","ALLEY":" ","HOUSE_NO":"１７號","E_COORD97":165985.06,"N_COORD97":2542798.52,"ADDRESS":"健康一街５８巷１７號","OBJECTID":406647},"geometry":{"x":165985.06000000145,"y":2542798.5199999996}},{"attributes":{"ID":406672,"DIS_CODE":0,"TOWNNAME":"安平區","LI":"文平里","LIN":"22鄰","STREET":"健康一街","SECT":" ","MAREA":" ","LANE":"５８巷","ALLEY":" ","HOUSE_NO":"１９號","E_COORD97":165989.66,"N_COORD97":2542798.3599999999,"ADDRESS":"健康一街５８巷１９號","OBJECTID":406648},"geometry":{"x":165989.66000000015,"y":2542798.3600000013}},{"attributes":{"ID":406673,"DIS_CODE":0,"TOWNNAME":"安平區","LI":"文平里","LIN":"22鄰","STREET":"健康一街","SECT":" ","MAREA":" ","LANE":"５８巷","ALLEY":" ","HOUSE_NO":"２１號","E_COORD97":165993.79000000001,"N_COORD97":2542797.25,"ADDRESS":"健康一街５８巷２１號","OBJECTID":406649},"geometry":{"x":165993.79000000004,"y":2542797.25}},{"attributes":{"ID":406674,"DIS_CODE":0,"TOWNNAME":"安平區","LI":"文平里","LIN":"22鄰","STREET":"健康一街","SECT":" ","MAREA":" ","LANE":"５８巷","ALLEY":" ","HOUSE_NO":"２３號","E_COORD97":165998.07999999999,"N_COORD97":2542797.25,"ADDRESS":"健康一街５８巷２３號","OBJECTID":406650},"geometry":{"x":165998.08000000007,"y":2542797.25}},{"attributes":{"ID":406675,"DIS_CODE":0,"TOWNNAME":"安平區","LI":"文平里","LIN":"22鄰","STREET":"健康一街","SECT":" ","MAREA":" ","LANE":"５８巷","ALLEY":" ","HOUSE_NO":"２５號","E_COORD97":166002.51999999999,"N_COORD97":2542796.6200000001,"ADDRESS":"健康一街５８巷２５號","OBJECTID":406651},"geometry":{"x":166002.52000000048,"y":2542796.620000001}},{"attributes":{"ID":406676,"DIS_CODE":0,"TOWNNAME":"安平區","LI":"文平里","LIN":"22鄰","STREET":"健康一街","SECT":" ","MAREA":" ","LANE":"５８巷","ALLEY":" ","HOUSE_NO":"７號","E_COORD97":165962.20000000001,"N_COORD97":2542799.9500000002,"ADDRESS":"健康一街５８巷７號","OBJECTID":406652},"geometry":{"x":165962.20000000019,"y":2542799.950000003}},{"attributes":{"ID":406677,"DIS_CODE":0,"TOWNNAME":"安平區","LI":"文平里","LIN":"22鄰","STREET":"健康一街","SECT":" ","MAREA":" ","LANE":"５８巷","ALLEY":" ","HOUSE_NO":"９號","E_COORD97":165967.44,"N_COORD97":2542799.6299999999,"ADDRESS":"健康一街５８巷９號","OBJECTID":406653},"geometry":{"x":165967.44000000041,"y":2542799.6300000008}},{"attributes":{"ID":406678,"DIS_CODE":0,"TOWNNAME":"安平區","LI":"文平里","LIN":"22鄰","STREET":"建平一街","SECT":" ","MAREA":" ","LANE":"２３巷","ALLEY":" ","HOUSE_NO":"５５號","E_COORD97":166006.64000000001,"N_COORD97":2542830.0099999998,"ADDRESS":"建平一街２３巷５５號","OBJECTID":406654},"geometry":{"x":166006.64000000153,"y":2542830.0099999998}},{"attributes":{"ID":406679,"DIS_CODE":0,"TOWNNAME":"安平區","LI":"文平里","LIN":"22鄰","STREET":"建平一街","SECT":" ","MAREA":" ","LANE":"２３巷","ALLEY":" ","HOUSE_NO":"５７號","E_COORD97":166003.79999999999,"N_COORD97":2542830.1600000001,"ADDRESS":"建平一街２３巷５７號","OBJECTID":406655},"geometry":{"x":166003.79999999888,"y":2542830.1600000039}},{"attributes":{"ID":406680,"DIS_CODE":0,"TOWNNAME":"安平區","LI":"文平里","LIN":"22鄰","STREET":"建平一街","SECT":" ","MAREA":" ","LANE":"２３巷","ALLEY":" ","HOUSE_NO":"５９號","E_COORD97":165998.23999999999,"N_COORD97":2542831.0699999998,"ADDRESS":"建平一街２３巷５９號","OBJECTID":406656},"geometry":{"x":165998.24000000115,"y":2542831.0700000022}},{"attributes":{"ID":406681,"DIS_CODE":0,"TOWNNAME":"安平區","LI":"文平里","LIN":"22鄰","STREET":"建平一街","SECT":" ","MAREA":" ","LANE":"２３巷","ALLEY":" ","HOUSE_NO":"６１號","E_COORD97":165993.31,"N_COORD97":2542832.3399999999,"ADDRESS":"建平一街２３巷６１號","OBJECTID":406657},"geometry":{"x":165993.30999999959,"y":2542832.3400000017}},{"attributes":{"ID":406682,"DIS_CODE":0,"TOWNNAME":"安平區","LI":"文平里","LIN":"22鄰","STREET":"建平一街","SECT":" ","MAREA":" ","LANE":"２３巷","ALLEY":" ","HOUSE_NO":"６３號","E_COORD97":165989.03,"N_COORD97":2542832.9700000002,"ADDRESS":"建平一街２３巷６３號","OBJECTID":406658},"geometry":{"x":165989.03000000026,"y":2542832.9700000025}},{"attributes":{"ID":406683,"DIS_CODE":0,"TOWNNAME":"安平區","LI":"文平里","LIN":"22鄰","STREET":"建平一街","SECT":" ","MAREA":" ","LANE":"２３巷","ALLEY":" ","HOUSE_NO":"６５號","E_COORD97":165984.73999999999,"N_COORD97":2542833.1299999999,"ADDRESS":"建平一街２３巷６５號","OBJECTID":406659},"geometry":{"x":165984.74000000115,"y":2542833.1300000008}},{"attributes":{"ID":406684,"DIS_CODE":0,"TOWNNAME":"安平區","LI":"文平里","LIN":"22鄰","STREET":"建平一街","SECT":" ","MAREA":" ","LANE":"２３巷","ALLEY":" ","HOUSE_NO":"６７號","E_COORD97":165979.98000000001,"N_COORD97":2542833.29,"ADDRESS":"建平一街２３巷６７號","OBJECTID":406660},"geometry":{"x":165979.98000000138,"y":2542833.2899999991}},{"attributes":{"ID":406685,"DIS_CODE":0,"TOWNNAME":"安平區","LI":"文平里","LIN":"22鄰","STREET":"建平一街","SECT":" ","MAREA":" ","LANE":"２３巷","ALLEY":" ","HOUSE_NO":"６９號","E_COORD97":165976.17000000001,"N_COORD97":2542833.77,"ADDRESS":"建平一街２３巷６９號","OBJECTID":406661},"geometry":{"x":165976.17000000179,"y":2542833.7699999996}},{"attributes":{"ID":406686,"DIS_CODE":0,"TOWNNAME":"安平區","LI":"文平里","LIN":"22鄰","STREET":"建平一街","SECT":" ","MAREA":" ","LANE":"２３巷","ALLEY":" ","HOUSE_NO":"７１號","E_COORD97":165971.41,"N_COORD97":2542834.5600000001,"ADDRESS":"建平一街２３巷７１號","OBJECTID":406662},"geometry":{"x":165971.41000000201,"y":2542834.5600000042}},{"attributes":{"ID":406687,"DIS_CODE":0,"TOWNNAME":"安平區","LI":"文平里","LIN":"22鄰","STREET":"建平一街","SECT":" ","MAREA":" ","LANE":"２３巷","ALLEY":" ","HOUSE_NO":"７３號","E_COORD97":165967.44,"N_COORD97":2542835.3500000001,"ADDRESS":"建平一街２３巷７３號","OBJECTID":406663},"geometry":{"x":165967.44000000041,"y":2542835.3500000015}},{"attributes":{"ID":406688,"DIS_CODE":0,"TOWNNAME":"安平區","LI":"平通里","LIN":"22鄰","STREET":"育平七街","SECT":" ","MAREA":" ","LANE":"６０巷","ALLEY":" ","HOUSE_NO":"９８號","E_COORD97":164456.20000000001,"N_COORD97":2544052.77,"ADDRESS":"育平七街６０巷９８號","OBJECTID":406664},"geometry":{"x":164456.20000000112,"y":2544052.7700000014}},{"attributes":{"ID":406689,"DIS_CODE":0,"TOWNNAME":"安平區","LI":"平通里","LIN":"22鄰","STREET":"育平七街","SECT":" ","MAREA":" ","LANE":"６０巷","ALLEY":" ","HOUSE_NO":"１００號","E_COORD97":164456.20000000001,"N_COORD97":2544058.1600000001,"ADDRESS":"育平七街６０巷１００號","OBJECTID":406665},"geometry":{"x":164456.20000000112,"y":2544058.160000002}},{"attributes":{"ID":406690,"DIS_CODE":0,"TOWNNAME":"安平區","LI":"平通里","LIN":"22鄰","STREET":"育平七街","SECT":" ","MAREA":" ","LANE":"６０巷","ALLEY":" ","HOUSE_NO":"１０２號","E_COORD97":164456.35000000001,"N_COORD97":2544065.7799999998,"ADDRESS":"育平七街６０巷１０２號","OBJECTID":406666},"geometry":{"x":164456.35000000056,"y":2544065.7800000031}},{"attributes":{"ID":406691,"DIS_CODE":0,"TOWNNAME":"安平區","LI":"平通里","LIN":"22鄰","STREET":"育平七街","SECT":" ","MAREA":" ","LANE":"６０巷","ALLEY":" ","HOUSE_NO":"９６號","E_COORD97":164456.20000000001,"N_COORD97":2544046.8900000001,"ADDRESS":"育平七街６０巷９６號","OBJECTID":406667},"geometry":{"x":164456.20000000112,"y":2544046.8900000025}},{"attributes":{"ID":406692,"DIS_CODE":0,"TOWNNAME":"安平區","LI":"建平里","LIN":"22鄰","STREET":"建平九街","SECT":" ","MAREA":" ","LANE":"２２巷","ALLEY":" ","HOUSE_NO":"１１號","E_COORD97":166144.20999999999,"N_COORD97":2543542.3599999999,"ADDRESS":"建平九街２２巷１１號","OBJECTID":406668},"geometry":{"x":166144.21000000089,"y":2543542.3599999994}},{"attributes":{"ID":406693,"DIS_CODE":0,"TOWNNAME":"安平區","LI":"建平里","LIN":"22鄰","STREET":"建平九街","SECT":" ","MAREA":" ","LANE":"２２巷","ALLEY":" ","HOUSE_NO":"１３號","E_COORD97":166143.17999999999,"N_COORD97":2543545.3100000001,"ADDRESS":"建平九街２２巷１３號","OBJECTID":406669},"geometry":{"x":166143.1799999997,"y":2543545.3100000024}},{"attributes":{"ID":406694,"DIS_CODE":0,"TOWNNAME":"安平區","LI":"建平里","LIN":"22鄰","STREET":"建平九街","SECT":" ","MAREA":" ","LANE":"２２巷","ALLEY":" ","HOUSE_NO":"７號","E_COORD97":166143.92000000001,"N_COORD97":2543536.7599999998,"ADDRESS":"建平九街２２巷７號","OBJECTID":406670},"geometry":{"x":166143.92000000179,"y":2543536.7599999998}},{"attributes":{"ID":406695,"DIS_CODE":0,"TOWNNAME":"安平區","LI":"建平里","LIN":"22鄰","STREET":"建平九街","SECT":" ","MAREA":" ","LANE":"２２巷","ALLEY":" ","HOUSE_NO":"９號","E_COORD97":166144.07000000001,"N_COORD97":2543540.1499999999,"ADDRESS":"建平九街２２巷９號","OBJECTID":406671},"geometry":{"x":166144.07000000123,"y":2543540.1500000022}},{"attributes":{"ID":406696,"DIS_CODE":0,"TOWNNAME":"中西區","LI":"西賢里","LIN":"19鄰","STREET":"西賢一街","SECT":" ","MAREA":" ","LANE":"１０９巷","ALLEY":" ","HOUSE_NO":"５號","E_COORD97":165662.98999999999,"N_COORD97":2544730.77,"ADDRESS":"西賢一街１０９巷５號","OBJECTID":406672},"geometry":{"x":165662.99000000115,"y":2544730.7700000033}},{"attributes":{"ID":406697,"DIS_CODE":0,"TOWNNAME":"新營區","LI":"新東里","LIN":"22鄰","STREET":"東明街","SECT":" ","MAREA":" ","LANE":"８０巷","ALLEY":" ","HOUSE_NO":"２７號","E_COORD97":180887.32000000001,"N_COORD97":2579795.6099999999,"ADDRESS":"東明街８０巷２７號","OBJECTID":406673},"geometry":{"x":180887.3200000003,"y":2579795.6100000013}},{"attributes":{"ID":406698,"DIS_CODE":0,"TOWNNAME":"南區","LI":"新興里","LIN":"22鄰","STREET":"金華路","SECT":"二段","MAREA":" ","LANE":"３４巷","ALLEY":" ","HOUSE_NO":"２７號","E_COORD97":167123.39000000001,"N_COORD97":2541933.0899999999,"ADDRESS":"金華路二段３４巷２７號","OBJECTID":406674},"geometry":{"x":167123.38999999966,"y":2541933.0900000017}},{"attributes":{"ID":406699,"DIS_CODE":0,"TOWNNAME":"南區","LI":"新興里","LIN":"22鄰","STREET":"金華路","SECT":"二段","MAREA":" ","LANE":"３４巷","ALLEY":" ","HOUSE_NO":"２９號","E_COORD97":167124.98999999999,"N_COORD97":2541936.5,"ADDRESS":"金華路二段３４巷２９號","OBJECTID":406675},"geometry":{"x":167124.99000000022,"y":2541936.5000000019}},{"attributes":{"ID":406700,"DIS_CODE":0,"TOWNNAME":"南區","LI":"新興里","LIN":"22鄰","STREET":"金華路","SECT":"二段","MAREA":" ","LANE":"３４巷","ALLEY":" ","HOUSE_NO":"３１號","E_COORD97":167128.79999999999,"N_COORD97":2541940.5,"ADDRESS":"金華路二段３４巷３１號","OBJECTID":406676},"geometry":{"x":167128.79999999981,"y":2541940.5000000019}},{"attributes":{"ID":406701,"DIS_CODE":0,"TOWNNAME":"安平區","LI":"華平里","LIN":"22鄰","STREET":"建平八街","SECT":" ","MAREA":" ","LANE":"４３３巷","ALLEY":" ","HOUSE_NO":"１號","E_COORD97":165196.20999999999,"N_COORD97":2543566.3700000001,"ADDRESS":"建平八街４３３巷１號","OBJECTID":406677},"geometry":{"x":165196.21000000183,"y":2543566.3700000029}},{"attributes":{"ID":406702,"DIS_CODE":0,"TOWNNAME":"安平區","LI":"華平里","LIN":"22鄰","STREET":"建平八街","SECT":" ","MAREA":" ","LANE":"４３３巷","ALLEY":" ","HOUSE_NO":"２號","E_COORD97":165184.63,"N_COORD97":2543568.0899999999,"ADDRESS":"建平八街４３３巷２號","OBJECTID":406678},"geometry":{"x":165184.63000000175,"y":2543568.0899999999}},{"attributes":{"ID":406703,"DIS_CODE":0,"TOWNNAME":"東區","LI":"大智里","LIN":"40鄰","STREET":"文東街","SECT":" ","MAREA":" ","LANE":"２巷","ALLEY":" ","HOUSE_NO":"２０號","E_COORD97":171382.98000000001,"N_COORD97":2540115.8500000001,"ADDRESS":"文東街２巷２０號","OBJECTID":406679},"geometry":{"x":171382.98000000138,"y":2540115.8500000034}},{"attributes":{"ID":406704,"DIS_CODE":0,"TOWNNAME":"東區","LI":"大智里","LIN":"40鄰","STREET":"文東街","SECT":" ","MAREA":" ","LANE":"２巷","ALLEY":" ","HOUSE_NO":"２２號","E_COORD97":171390.51000000001,"N_COORD97":2540116.1200000001,"ADDRESS":"文東街２巷２２號","OBJECTID":406680},"geometry":{"x":171390.51000000071,"y":2540116.1200000029}},{"attributes":{"ID":406705,"DIS_CODE":0,"TOWNNAME":"東區","LI":"大智里","LIN":"34鄰","STREET":"崇善十五街","SECT":" ","MAREA":" ","LANE":"３３巷","ALLEY":" ","HOUSE_NO":"４８號","E_COORD97":171310.82999999999,"N_COORD97":2540498.27,"ADDRESS":"崇善十五街３３巷４８號","OBJECTID":406681},"geometry":{"x":171310.83000000007,"y":2540498.2699999996}},{"attributes":{"ID":406706,"DIS_CODE":0,"TOWNNAME":"東區","LI":"大智里","LIN":"34鄰","STREET":"崇善十五街","SECT":" ","MAREA":" ","LANE":"３３巷","ALLEY":" ","HOUSE_NO":"２２號","E_COORD97":171330.87,"N_COORD97":2540512.9500000002,"ADDRESS":"崇善十五街３３巷２２號","OBJECTID":406682},"geometry":{"x":171330.87000000104,"y":2540512.9500000011}},{"attributes":{"ID":406707,"DIS_CODE":0,"TOWNNAME":"東區","LI":"大智里","LIN":"34鄰","STREET":"崇善十五街","SECT":" ","MAREA":" ","LANE":"３３巷","ALLEY":" ","HOUSE_NO":"６８號","E_COORD97":171309.78,"N_COORD97":2540461.8999999999,"ADDRESS":"崇善十五街３３巷６８號","OBJECTID":406683},"geometry":{"x":171309.78000000026,"y":2540461.9000000041}},{"attributes":{"ID":406708,"DIS_CODE":0,"TOWNNAME":"東區","LI":"大智里","LIN":"34鄰","STREET":"崇善十五街","SECT":" ","MAREA":" ","LANE":"３３巷","ALLEY":" ","HOUSE_NO":"８０號","E_COORD97":171339.42999999999,"N_COORD97":2540462.1600000001,"ADDRESS":"崇善十五街３３巷８０號","OBJECTID":406684},"geometry":{"x":171339.43000000156,"y":2540462.1600000001}},{"attributes":{"ID":406709,"DIS_CODE":0,"TOWNNAME":"東區","LI":"大智里","LIN":"34鄰","STREET":"崇善十五街","SECT":" ","MAREA":" ","LANE":"３３巷","ALLEY":" ","HOUSE_NO":"８２號","E_COORD97":171346.31,"N_COORD97":2540462.0800000001,"ADDRESS":"崇善十五街３３巷８２號","OBJECTID":406685},"geometry":{"x":171346.30999999959,"y":2540462.0800000019}},{"attributes":{"ID":406710,"DIS_CODE":0,"TOWNNAME":"東區","LI":"大智里","LIN":"17鄰","STREET":"德東街","SECT":" ","MAREA":" ","LANE":"１５１巷","ALLEY":" ","HOUSE_NO":"３２號","E_COORD97":171212.35000000001,"N_COORD97":2540359.6099999999,"ADDRESS":"德東街１５１巷３２號","OBJECTID":406686},"geometry":{"x":171212.34999999963,"y":2540359.6099999994}},{"attributes":{"ID":406711,"DIS_CODE":0,"TOWNNAME":"東區","LI":"大智里","LIN":"19鄰","STREET":"崇善十五街","SECT":" ","MAREA":" ","LANE":"４２巷","ALLEY":" ","HOUSE_NO":"９號","E_COORD97":171314.06,"N_COORD97":2540593.1299999999,"ADDRESS":"崇善十五街４２巷９號","OBJECTID":406687},"geometry":{"x":171314.05999999959,"y":2540593.129999999}},{"attributes":{"ID":406712,"DIS_CODE":0,"TOWNNAME":"安平區","LI":"華平里","LIN":"22鄰","STREET":"建平八街","SECT":" ","MAREA":" ","LANE":"４３３巷","ALLEY":" ","HOUSE_NO":"３號","E_COORD97":165195.85999999999,"N_COORD97":2543563.0899999999,"ADDRESS":"建平八街４３３巷３號","OBJECTID":406688},"geometry":{"x":165195.86000000127,"y":2543563.0900000017}},{"attributes":{"ID":406713,"DIS_CODE":0,"TOWNNAME":"安平區","LI":"華平里","LIN":"22鄰","STREET":"建平八街","SECT":" ","MAREA":" ","LANE":"４３３巷","ALLEY":" ","HOUSE_NO":"４號","E_COORD97":165184.63,"N_COORD97":2543563.7799999998,"ADDRESS":"建平八街４３３巷４號","OBJECTID":406689},"geometry":{"x":165184.63000000175,"y":2543563.7799999975}},{"attributes":{"ID":406714,"DIS_CODE":0,"TOWNNAME":"安平區","LI":"華平里","LIN":"22鄰","STREET":"建平八街","SECT":" ","MAREA":" ","LANE":"４３３巷","ALLEY":" ","HOUSE_NO":"５號","E_COORD97":165195.69,"N_COORD97":2543558.4300000002,"ADDRESS":"建平八街４３３巷５號","OBJECTID":406690},"geometry":{"x":165195.69000000134,"y":2543558.4299999997}},{"attributes":{"ID":406715,"DIS_CODE":0,"TOWNNAME":"安平區","LI":"華平里","LIN":"22鄰","STREET":"建平八街","SECT":" ","MAREA":" ","LANE":"４３３巷","ALLEY":" ","HOUSE_NO":"６號","E_COORD97":165184.63,"N_COORD97":2543559.9900000002,"ADDRESS":"建平八街４３３巷６號","OBJECTID":406691},"geometry":{"x":165184.63000000175,"y":2543559.9900000039}},{"attributes":{"ID":406716,"DIS_CODE":0,"TOWNNAME":"安平區","LI":"華平里","LIN":"22鄰","STREET":"建平八街","SECT":" ","MAREA":" ","LANE":"４３３巷","ALLEY":" ","HOUSE_NO":"７號","E_COORD97":165191.54000000001,"N_COORD97":2543554.8100000001,"ADDRESS":"建平八街４３３巷７號","OBJECTID":406692},"geometry":{"x":165191.54000000004,"y":2543554.8100000042}},{"attributes":{"ID":406717,"DIS_CODE":0,"TOWNNAME":"歸仁區","LI":"崙頂里","LIN":"22鄰","STREET":"崙頂二街","SECT":" ","MAREA":" ","LANE":"５０巷","ALLEY":" ","HOUSE_NO":"７３號","E_COORD97":177707.23999999999,"N_COORD97":2540009.48,"ADDRESS":"崙頂二街５０巷７３號","OBJECTID":406693},"geometry":{"x":177707.24000000115,"y":2540009.4800000004}},{"attributes":{"ID":406718,"DIS_CODE":0,"TOWNNAME":"歸仁區","LI":"崙頂里","LIN":"22鄰","STREET":"崙頂二街","SECT":" ","MAREA":" ","LANE":"５０巷","ALLEY":" ","HOUSE_NO":"９１號","E_COORD97":177685.73999999999,"N_COORD97":2540018.48,"ADDRESS":"崙頂二街５０巷９１號","OBJECTID":406694},"geometry":{"x":177685.74000000022,"y":2540018.4800000023}},{"attributes":{"ID":406719,"DIS_CODE":0,"TOWNNAME":"北區","LI":"文元里","LIN":"22鄰","STREET":"和緯路","SECT":"三段","MAREA":" ","LANE":"１８０巷","ALLEY":" ","HOUSE_NO":"８０號","E_COORD97":167933.82000000001,"N_COORD97":2545883.7799999998,"ADDRESS":"和緯路三段１８０巷８０號","OBJECTID":406695},"geometry":{"x":167933.82000000123,"y":2545883.7800000012}},{"attributes":{"ID":406720,"DIS_CODE":0,"TOWNNAME":"玉井區","LI":"玉田里","LIN":"22鄰","STREET":"中華路","SECT":" ","MAREA":" ","LANE":"８２巷","ALLEY":" ","HOUSE_NO":"４之１號","E_COORD97":194963.89999999999,"N_COORD97":2557998.29,"ADDRESS":"中華路８２巷４之１號","OBJECTID":406696},"geometry":{"x":194963.90000000037,"y":2557998.2899999991}},{"attributes":{"ID":406721,"DIS_CODE":0,"TOWNNAME":"東區","LI":"崇誨里","LIN":"25鄰","STREET":"東寧路","SECT":" ","MAREA":" ","LANE":"２７２巷","ALLEY":" ","HOUSE_NO":"１５號","E_COORD97":170655.17999999999,"N_COORD97":2543381.3500000001,"ADDRESS":"東寧路２７２巷１５號","OBJECTID":406697},"geometry":{"x":170655.18000000063,"y":2543381.3500000015}},{"attributes":{"ID":406722,"DIS_CODE":0,"TOWNNAME":"東區","LI":"崇誨里","LIN":"25鄰","STREET":"東寧路","SECT":" ","MAREA":" ","LANE":"２７２巷","ALLEY":" ","HOUSE_NO":"１６號","E_COORD97":170639.53,"N_COORD97":2543378.5099999998,"ADDRESS":"東寧路２７２巷１６號","OBJECTID":406698},"geometry":{"x":170639.53000000119,"y":2543378.5099999998}},{"attributes":{"ID":406723,"DIS_CODE":0,"TOWNNAME":"東區","LI":"崇誨里","LIN":"25鄰","STREET":"東寧路","SECT":" ","MAREA":" ","LANE":"２７２巷","ALLEY":" ","HOUSE_NO":"１號","E_COORD97":170646.09,"N_COORD97":2543418.0600000001,"ADDRESS":"東寧路２７２巷１號","OBJECTID":406699},"geometry":{"x":170646.08999999985,"y":2543418.0600000024}},{"attributes":{"ID":406724,"DIS_CODE":0,"TOWNNAME":"東區","LI":"崇誨里","LIN":"25鄰","STREET":"東寧路","SECT":" ","MAREA":" ","LANE":"２７２巷","ALLEY":" ","HOUSE_NO":"３號","E_COORD97":170647.59,"N_COORD97":2543413.1800000002,"ADDRESS":"東寧路２７２巷３號","OBJECTID":406700},"geometry":{"x":170647.59000000078,"y":2543413.1800000016}},{"attributes":{"ID":406725,"DIS_CODE":0,"TOWNNAME":"玉井區","LI":"玉田里","LIN":"22鄰","STREET":"中華路","SECT":" ","MAREA":" ","LANE":"８２巷","ALLEY":" ","HOUSE_NO":"２之１號","E_COORD97":194946.10000000001,"N_COORD97":2558019.2999999998,"ADDRESS":"中華路８２巷２之１號","OBJECTID":406701},"geometry":{"x":194946.10000000056,"y":2558019.3000000026}},{"attributes":{"ID":406726,"DIS_CODE":0,"TOWNNAME":"歸仁區","LI":"大廟里","LIN":"22鄰","STREET":"大廟一街","SECT":" ","MAREA":" ","LANE":"６０巷","ALLEY":" ","HOUSE_NO":"１２號","E_COORD97":175782.01999999999,"N_COORD97":2544028.25,"ADDRESS":"大廟一街６０巷１２號","OBJECTID":406702},"geometry":{"x":175782.02000000048,"y":2544028.25}},{"attributes":{"ID":406727,"DIS_CODE":0,"TOWNNAME":"東區","LI":"德高里","LIN":"8鄰","STREET":"仁和路","SECT":" ","MAREA":" ","LANE":"２０８巷","ALLEY":" ","HOUSE_NO":"２６號","E_COORD97":171480.47,"N_COORD97":2540968.1000000001,"ADDRESS":"仁和路２０８巷２６號","OBJECTID":406703},"geometry":{"x":171480.47000000067,"y":2540968.0999999996}},{"attributes":{"ID":406728,"DIS_CODE":0,"TOWNNAME":"歸仁區","LI":"大廟里","LIN":"22鄰","STREET":"大廟一街","SECT":" ","MAREA":" ","LANE":"６０巷","ALLEY":" ","HOUSE_NO":"１６號","E_COORD97":175773.82000000001,"N_COORD97":2544035.25,"ADDRESS":"大廟一街６０巷１６號","OBJECTID":406704},"geometry":{"x":175773.82000000216,"y":2544035.25}},{"attributes":{"ID":406729,"DIS_CODE":0,"TOWNNAME":"歸仁區","LI":"大廟里","LIN":"22鄰","STREET":"大廟一街","SECT":" ","MAREA":" ","LANE":"６０巷","ALLEY":" ","HOUSE_NO":"１４號","E_COORD97":175778.92000000001,"N_COORD97":2544032.25,"ADDRESS":"大廟一街６０巷１４號","OBJECTID":406705},"geometry":{"x":175778.91999999993,"y":2544032.25}},{"attributes":{"ID":406730,"DIS_CODE":0,"TOWNNAME":"歸仁區","LI":"大廟里","LIN":"22鄰","STREET":"大廟一街","SECT":" ","MAREA":" ","LANE":"６０巷","ALLEY":" ","HOUSE_NO":"３號","E_COORD97":175771.47,"N_COORD97":2544021.25,"ADDRESS":"大廟一街６０巷３號","OBJECTID":406706},"geometry":{"x":175771.46999999974,"y":2544021.25}},{"attributes":{"ID":406731,"DIS_CODE":0,"TOWNNAME":"楠西區","LI":"楠西里","LIN":"22鄰","STREET":"博愛路","SECT":" ","MAREA":" ","LANE":"５０巷","ALLEY":" ","HOUSE_NO":"７號","E_COORD97":197371.82000000001,"N_COORD97":2563513.2799999998,"ADDRESS":"博愛路５０巷７號","OBJECTID":406707},"geometry":{"x":197371.8200000003,"y":2563513.2800000012}},{"attributes":{"ID":406732,"DIS_CODE":0,"TOWNNAME":"楠西區","LI":"楠西里","LIN":"22鄰","STREET":"博愛路","SECT":" ","MAREA":" ","LANE":"５０巷","ALLEY":" ","HOUSE_NO":"９號","E_COORD97":197370.92000000001,"N_COORD97":2563519.2799999998,"ADDRESS":"博愛路５０巷９號","OBJECTID":406708},"geometry":{"x":197370.91999999899,"y":2563519.2799999993}},{"attributes":{"ID":406733,"DIS_CODE":0,"TOWNNAME":"東區","LI":"德高里","LIN":"12鄰","STREET":"崇善路","SECT":" ","MAREA":" ","LANE":"９１３巷","ALLEY":" ","HOUSE_NO":"１９號","E_COORD97":171420.82999999999,"N_COORD97":2540748.0699999998,"ADDRESS":"崇善路９１３巷１９號","OBJECTID":406709},"geometry":{"x":171420.83000000101,"y":2540748.0700000003}},{"attributes":{"ID":406734,"DIS_CODE":0,"TOWNNAME":"東區","LI":"德高里","LIN":"12鄰","STREET":"崇善路","SECT":" ","MAREA":" ","LANE":"９１３巷","ALLEY":" ","HOUSE_NO":"２１號","E_COORD97":171406.51999999999,"N_COORD97":2540751.5600000001,"ADDRESS":"崇善路９１３巷２１號","OBJECTID":406710},"geometry":{"x":171406.52000000142,"y":2540751.5600000005}},{"attributes":{"ID":406735,"DIS_CODE":0,"TOWNNAME":"東區","LI":"德高里","LIN":"12鄰","STREET":"崇善路","SECT":" ","MAREA":" ","LANE":"９１３巷","ALLEY":" ","HOUSE_NO":"２２號","E_COORD97":171440.94,"N_COORD97":2540745.0800000001,"ADDRESS":"崇善路９１３巷２２號","OBJECTID":406711},"geometry":{"x":171440.94000000041,"y":2540745.0799999982}},{"attributes":{"ID":406736,"DIS_CODE":0,"TOWNNAME":"東區","LI":"德高里","LIN":"12鄰","STREET":"崇善路","SECT":" ","MAREA":" ","LANE":"９１３巷","ALLEY":" ","HOUSE_NO":"２２號之１","E_COORD97":171439.59,"N_COORD97":2540750.4900000002,"ADDRESS":"崇善路９１３巷２２號之１","OBJECTID":406712},"geometry":{"x":171439.58999999985,"y":2540750.4900000021}},{"attributes":{"ID":406737,"DIS_CODE":0,"TOWNNAME":"東區","LI":"德高里","LIN":"12鄰","STREET":"崇善路","SECT":" ","MAREA":" ","LANE":"９１３巷","ALLEY":" ","HOUSE_NO":"２３號","E_COORD97":171405.20000000001,"N_COORD97":2540755.3399999999,"ADDRESS":"崇善路９１３巷２３號","OBJECTID":406713},"geometry":{"x":171405.20000000019,"y":2540755.3399999999}},{"attributes":{"ID":406738,"DIS_CODE":0,"TOWNNAME":"東區","LI":"德高里","LIN":"12鄰","STREET":"崇善路","SECT":" ","MAREA":" ","LANE":"９１３巷","ALLEY":" ","HOUSE_NO":"２５號","E_COORD97":171415.88,"N_COORD97":2540764.6899999999,"ADDRESS":"崇善路９１３巷２５號","OBJECTID":406714},"geometry":{"x":171415.87999999989,"y":2540764.6900000013}},{"attributes":{"ID":406739,"DIS_CODE":0,"TOWNNAME":"東區","LI":"德高里","LIN":"12鄰","STREET":"崇善路","SECT":" ","MAREA":" ","LANE":"９１３巷","ALLEY":" ","HOUSE_NO":"５號","E_COORD97":171425.16,"N_COORD97":2540701.3700000001,"ADDRESS":"崇善路９１３巷５號","OBJECTID":406715},"geometry":{"x":171425.16000000108,"y":2540701.3700000029}},{"attributes":{"ID":406740,"DIS_CODE":0,"TOWNNAME":"東區","LI":"德高里","LIN":"12鄰","STREET":"崇善路","SECT":" ","MAREA":" ","LANE":"９１３巷","ALLEY":" ","HOUSE_NO":"７號","E_COORD97":171424.98000000001,"N_COORD97":2540705.52,"ADDRESS":"崇善路９１３巷７號","OBJECTID":406716},"geometry":{"x":171424.98000000138,"y":2540705.5200000014}},{"attributes":{"ID":406741,"DIS_CODE":0,"TOWNNAME":"東區","LI":"德高里","LIN":"12鄰","STREET":"崇善路","SECT":" ","MAREA":" ","LANE":"９１３巷","ALLEY":" ","HOUSE_NO":"９號","E_COORD97":171424.98000000001,"N_COORD97":2540709.1200000001,"ADDRESS":"崇善路９１３巷９號","OBJECTID":406717},"geometry":{"x":171424.98000000138,"y":2540709.1200000029}},{"attributes":{"ID":406742,"DIS_CODE":0,"TOWNNAME":"楠西區","LI":"楠西里","LIN":"22鄰","STREET":"博愛路","SECT":" ","MAREA":" ","LANE":"５０巷","ALLEY":" ","HOUSE_NO":"６號","E_COORD97":197391.51999999999,"N_COORD97":2563498.2799999998,"ADDRESS":"博愛路５０巷６號","OBJECTID":406718},"geometry":{"x":197391.51999999955,"y":2563498.2799999993}},{"attributes":{"ID":406743,"DIS_CODE":0,"TOWNNAME":"楠西區","LI":"楠西里","LIN":"22鄰","STREET":"博愛路","SECT":" ","MAREA":" ","LANE":"５０巷","ALLEY":" ","HOUSE_NO":"１２號","E_COORD97":197394.47,"N_COORD97":2563523.2799999998,"ADDRESS":"博愛路５０巷１２號","OBJECTID":406719},"geometry":{"x":197394.47000000067,"y":2563523.2800000031}},{"attributes":{"ID":406744,"DIS_CODE":0,"TOWNNAME":"楠西區","LI":"楠西里","LIN":"22鄰","STREET":"博愛路","SECT":" ","MAREA":" ","LANE":"５０巷","ALLEY":" ","HOUSE_NO":"１１號","E_COORD97":197373.17000000001,"N_COORD97":2563524.2799999998,"ADDRESS":"博愛路５０巷１１號","OBJECTID":406720},"geometry":{"x":197373.17000000086,"y":2563524.2800000012}},{"attributes":{"ID":406745,"DIS_CODE":0,"TOWNNAME":"楠西區","LI":"楠西里","LIN":"22鄰","STREET":"博愛路","SECT":" ","MAREA":" ","LANE":"５０巷","ALLEY":" ","HOUSE_NO":"２號","E_COORD97":197391.72,"N_COORD97":2563489.2799999998,"ADDRESS":"博愛路５０巷２號","OBJECTID":406721},"geometry":{"x":197391.71999999974,"y":2563489.2800000031}},{"attributes":{"ID":406746,"DIS_CODE":0,"TOWNNAME":"楠西區","LI":"楠西里","LIN":"22鄰","STREET":"博愛路","SECT":" ","MAREA":" ","LANE":"５０巷","ALLEY":" ","HOUSE_NO":"１３號","E_COORD97":197372.17000000001,"N_COORD97":2563528.2799999998,"ADDRESS":"博愛路５０巷１３號","OBJECTID":406722},"geometry":{"x":197372.16999999993,"y":2563528.2799999993}},{"attributes":{"ID":406747,"DIS_CODE":0,"TOWNNAME":"楠西區","LI":"東勢里","LIN":"22鄰","STREET":"民生路","SECT":" ","MAREA":" ","LANE":"１７５巷","ALLEY":" ","HOUSE_NO":"８號","E_COORD97":197460.39000000001,"N_COORD97":2564383.29,"ADDRESS":"民生路１７５巷８號","OBJECTID":406723},"geometry":{"x":197460.38999999966,"y":2564383.2899999991}},{"attributes":{"ID":406748,"DIS_CODE":0,"TOWNNAME":"楠西區","LI":"東勢里","LIN":"22鄰","STREET":"民生路","SECT":" ","MAREA":" ","LANE":"１７５巷","ALLEY":" ","HOUSE_NO":"１６號","E_COORD97":197461.84,"N_COORD97":2564364.29,"ADDRESS":"民生路１７５巷１６號","OBJECTID":406724},"geometry":{"x":197461.84000000078,"y":2564364.290000001}},{"attributes":{"ID":406749,"DIS_CODE":0,"TOWNNAME":"楠西區","LI":"東勢里","LIN":"22鄰","STREET":"民生路","SECT":" ","MAREA":" ","LANE":"１７５巷","ALLEY":" ","HOUSE_NO":"２２號","E_COORD97":197462.64000000001,"N_COORD97":2564349.29,"ADDRESS":"民生路１７５巷２２號","OBJECTID":406725},"geometry":{"x":197462.6400000006,"y":2564349.2899999991}},{"attributes":{"ID":406750,"DIS_CODE":0,"TOWNNAME":"楠西區","LI":"東勢里","LIN":"22鄰","STREET":"民生路","SECT":" ","MAREA":" ","LANE":"１７５巷","ALLEY":" ","HOUSE_NO":"４號","E_COORD97":197459.29000000001,"N_COORD97":2564391.29,"ADDRESS":"民生路１７５巷４號","OBJECTID":406726},"geometry":{"x":197459.29000000097,"y":2564391.290000001}},{"attributes":{"ID":406751,"DIS_CODE":0,"TOWNNAME":"楠西區","LI":"東勢里","LIN":"22鄰","STREET":"民生路","SECT":" ","MAREA":" ","LANE":"１７５巷","ALLEY":" ","HOUSE_NO":"１號","E_COORD97":197438.69,"N_COORD97":2564406.29,"ADDRESS":"民生路１７５巷１號","OBJECTID":406727},"geometry":{"x":197438.69000000041,"y":2564406.2899999991}},{"attributes":{"ID":406752,"DIS_CODE":0,"TOWNNAME":"楠西區","LI":"東勢里","LIN":"22鄰","STREET":"民生路","SECT":" ","MAREA":" ","LANE":"１７５巷","ALLEY":" ","HOUSE_NO":"５號","E_COORD97":197455.89000000001,"N_COORD97":2564408.29,"ADDRESS":"民生路１７５巷５號","OBJECTID":406728},"geometry":{"x":197455.8900000006,"y":2564408.290000001}},{"attributes":{"ID":406753,"DIS_CODE":0,"TOWNNAME":"楠西區","LI":"東勢里","LIN":"22鄰","STREET":"民生路","SECT":" ","MAREA":" ","LANE":"１７５巷","ALLEY":" ","HOUSE_NO":"６號","E_COORD97":197459.48999999999,"N_COORD97":2564387.29,"ADDRESS":"民生路１７５巷６號","OBJECTID":406729},"geometry":{"x":197459.49000000115,"y":2564387.2900000028}},{"attributes":{"ID":406754,"DIS_CODE":0,"TOWNNAME":"楠西區","LI":"東勢里","LIN":"22鄰","STREET":"民生路","SECT":" ","MAREA":" ","LANE":"１７５巷","ALLEY":" ","HOUSE_NO":"１４號","E_COORD97":197461.84,"N_COORD97":2564368.29,"ADDRESS":"民生路１７５巷１４號","OBJECTID":406730},"geometry":{"x":197461.84000000078,"y":2564368.290000001}},{"attributes":{"ID":406755,"DIS_CODE":0,"TOWNNAME":"楠西區","LI":"東勢里","LIN":"22鄰","STREET":"民生路","SECT":" ","MAREA":" ","LANE":"１７５巷","ALLEY":" ","HOUSE_NO":"１８號","E_COORD97":197462.44,"N_COORD97":2564359.29,"ADDRESS":"民生路１７５巷１８號","OBJECTID":406731},"geometry":{"x":197462.44000000041,"y":2564359.2899999991}},{"attributes":{"ID":406756,"DIS_CODE":0,"TOWNNAME":"楠西區","LI":"東勢里","LIN":"22鄰","STREET":"民生路","SECT":" ","MAREA":" ","LANE":"１７５巷","ALLEY":" ","HOUSE_NO":"７號","E_COORD97":197463.19,"N_COORD97":2564409.29,"ADDRESS":"民生路１７５巷７號","OBJECTID":406732},"geometry":{"x":197463.19000000134,"y":2564409.290000001}},{"attributes":{"ID":406757,"DIS_CODE":0,"TOWNNAME":"楠西區","LI":"東勢里","LIN":"22鄰","STREET":"民生路","SECT":" ","MAREA":" ","LANE":"１７５巷","ALLEY":" ","HOUSE_NO":"２號","E_COORD97":197459.48999999999,"N_COORD97":2564397.29,"ADDRESS":"民生路１７５巷２號","OBJECTID":406733},"geometry":{"x":197459.49000000115,"y":2564397.2899999972}},{"attributes":{"ID":406758,"DIS_CODE":0,"TOWNNAME":"楠西區","LI":"東勢里","LIN":"22鄰","STREET":"民生路","SECT":" ","MAREA":" ","LANE":"１７５巷","ALLEY":" ","HOUSE_NO":"３號","E_COORD97":197445.98999999999,"N_COORD97":2564407.29,"ADDRESS":"民生路１７５巷３號","OBJECTID":406734},"geometry":{"x":197445.99000000115,"y":2564407.2899999991}},{"attributes":{"ID":406759,"DIS_CODE":0,"TOWNNAME":"新營區","LI":"新東里","LIN":"22鄰","STREET":"東明街","SECT":" ","MAREA":" ","LANE":"８０巷","ALLEY":" ","HOUSE_NO":"３７號","E_COORD97":180913.92999999999,"N_COORD97":2579796.5899999999,"ADDRESS":"東明街８０巷３７號","OBJECTID":406735},"geometry":{"x":180913.93000000156,"y":2579796.5900000017}},{"attributes":{"ID":406760,"DIS_CODE":0,"TOWNNAME":"新營區","LI":"新東里","LIN":"22鄰","STREET":"東明街","SECT":" ","MAREA":" ","LANE":"９６巷","ALLEY":" ","HOUSE_NO":"１２號","E_COORD97":180851.62,"N_COORD97":2579832.3100000001,"ADDRESS":"東明街９６巷１２號","OBJECTID":406736},"geometry":{"x":180851.62000000011,"y":2579832.3100000024}},{"attributes":{"ID":406761,"DIS_CODE":0,"TOWNNAME":"新營區","LI":"新北里","LIN":"22鄰","STREET":"民生路","SECT":" ","MAREA":" ","LANE":"３５６巷","ALLEY":" ","HOUSE_NO":"７３號","E_COORD97":179080.69,"N_COORD97":2579290.29,"ADDRESS":"民生路３５６巷７３號","OBJECTID":406737},"geometry":{"x":179080.69000000134,"y":2579290.2899999991}},{"attributes":{"ID":406762,"DIS_CODE":0,"TOWNNAME":"新營區","LI":"南興里","LIN":"22鄰","STREET":"延平路","SECT":" ","MAREA":" ","LANE":"１４０巷","ALLEY":" ","HOUSE_NO":"５８之１號","E_COORD97":179596.01999999999,"N_COORD97":2577441.77,"ADDRESS":"延平路１４０巷５８之１號","OBJECTID":406738},"geometry":{"x":179596.02000000142,"y":2577441.7700000014}},{"attributes":{"ID":406763,"DIS_CODE":0,"TOWNNAME":"新營區","LI":"新南里","LIN":"22鄰","STREET":"復興路","SECT":" ","MAREA":" ","LANE":"６２０巷","ALLEY":" ","HOUSE_NO":"３６之５號","E_COORD97":178054.38,"N_COORD97":2578463.6000000001,"ADDRESS":"復興路６２０巷３６之５號","OBJECTID":406739},"geometry":{"x":178054.37999999989,"y":2578463.6000000015}},{"attributes":{"ID":406764,"DIS_CODE":0,"TOWNNAME":"新營區","LI":"新北里","LIN":"22鄰","STREET":"民生路","SECT":" ","MAREA":" ","LANE":"３５６巷","ALLEY":" ","HOUSE_NO":"２２號","E_COORD97":179011.10999999999,"N_COORD97":2579275.1200000001,"ADDRESS":"民生路３５６巷２２號","OBJECTID":406740},"geometry":{"x":179011.11000000034,"y":2579275.1200000029}},{"attributes":{"ID":406765,"DIS_CODE":0,"TOWNNAME":"新營區","LI":"新南里","LIN":"22鄰","STREET":"復興路","SECT":" ","MAREA":" ","LANE":"６１８巷","ALLEY":" ","HOUSE_NO":"８號","E_COORD97":178086.17000000001,"N_COORD97":2578413.5499999998,"ADDRESS":"復興路６１８巷８號","OBJECTID":406741},"geometry":{"x":178086.16999999993,"y":2578413.5500000045}},{"attributes":{"ID":406766,"DIS_CODE":0,"TOWNNAME":"南區","LI":"文南里","LIN":"22鄰","STREET":"中華西路","SECT":"一段","MAREA":" ","LANE":"１０９巷","ALLEY":" ","HOUSE_NO":"３８號","E_COORD97":166324.10999999999,"N_COORD97":2542453.6699999999,"ADDRESS":"中華西路一段１０９巷３８號","OBJECTID":406742},"geometry":{"x":166324.11000000034,"y":2542453.6700000018}},{"attributes":{"ID":406767,"DIS_CODE":0,"TOWNNAME":"北區","LI":"成功里","LIN":"22鄰","STREET":"北安路","SECT":"一段","MAREA":" ","LANE":"１７６巷","ALLEY":" ","HOUSE_NO":"１０號","E_COORD97":168970.42999999999,"N_COORD97":2546507.0899999999,"ADDRESS":"北安路一段１７６巷１０號","OBJECTID":406743},"geometry":{"x":168970.4299999997,"y":2546507.0899999999}},{"attributes":{"ID":406768,"DIS_CODE":0,"TOWNNAME":"北區","LI":"文成里","LIN":"22鄰","STREET":"文賢二街","SECT":" ","MAREA":" ","LANE":"１８０巷","ALLEY":" ","HOUSE_NO":"１６號","E_COORD97":167819.42999999999,"N_COORD97":2545616.3500000001,"ADDRESS":"文賢二街１８０巷１６號","OBJECTID":406744},"geometry":{"x":167819.4299999997,"y":2545616.3500000015}},{"attributes":{"ID":406769,"DIS_CODE":0,"TOWNNAME":"北區","LI":"文成里","LIN":"22鄰","STREET":"文賢二街","SECT":" ","MAREA":" ","LANE":"１８０巷","ALLEY":" ","HOUSE_NO":"１８號","E_COORD97":167824.25,"N_COORD97":2545617.6200000001,"ADDRESS":"文賢二街１８０巷１８號","OBJECTID":406745},"geometry":{"x":167824.25000000093,"y":2545617.620000001}},{"attributes":{"ID":406770,"DIS_CODE":0,"TOWNNAME":"北區","LI":"文成里","LIN":"22鄰","STREET":"文賢二街","SECT":" ","MAREA":" ","LANE":"１８０巷","ALLEY":" ","HOUSE_NO":"２０號","E_COORD97":167828.82000000001,"N_COORD97":2545618.8900000001,"ADDRESS":"文賢二街１８０巷２０號","OBJECTID":406746},"geometry":{"x":167828.82000000123,"y":2545618.8899999987}},{"attributes":{"ID":406771,"DIS_CODE":0,"TOWNNAME":"北區","LI":"文成里","LIN":"22鄰","STREET":"文賢二街","SECT":" ","MAREA":" ","LANE":"１８０巷","ALLEY":" ","HOUSE_NO":"２２號","E_COORD97":167833.39999999999,"N_COORD97":2545619.8999999999,"ADDRESS":"文賢二街１８０巷２２號","OBJECTID":406747},"geometry":{"x":167833.4000000013,"y":2545619.9000000022}},{"attributes":{"ID":406772,"DIS_CODE":0,"TOWNNAME":"北區","LI":"文成里","LIN":"22鄰","STREET":"文賢二街","SECT":" ","MAREA":" ","LANE":"１８０巷","ALLEY":" ","HOUSE_NO":"２８號","E_COORD97":167842.92000000001,"N_COORD97":2545622.1899999999,"ADDRESS":"文賢二街１８０巷２８號","OBJECTID":406748},"geometry":{"x":167842.92000000086,"y":2545622.1899999995}},{"attributes":{"ID":406773,"DIS_CODE":0,"TOWNNAME":"北區","LI":"文成里","LIN":"22鄰","STREET":"文賢二街","SECT":" ","MAREA":" ","LANE":"１８０巷","ALLEY":" ","HOUSE_NO":"３０號","E_COORD97":167848.13,"N_COORD97":2545623.3300000001,"ADDRESS":"文賢二街１８０巷３０號","OBJECTID":406749},"geometry":{"x":167848.13000000082,"y":2545623.3300000019}},{"attributes":{"ID":406774,"DIS_CODE":0,"TOWNNAME":"北區","LI":"文成里","LIN":"22鄰","STREET":"文賢二街","SECT":" ","MAREA":" ","LANE":"１８０巷","ALLEY":" ","HOUSE_NO":"３２號","E_COORD97":167853.32999999999,"N_COORD97":2545624.6000000001,"ADDRESS":"文賢二街１８０巷３２號","OBJECTID":406750},"geometry":{"x":167853.32999999914,"y":2545624.6000000015}},{"attributes":{"ID":406775,"DIS_CODE":0,"TOWNNAME":"北區","LI":"成德里","LIN":"22鄰","STREET":"北安路","SECT":"一段","MAREA":" ","LANE":"３４１巷","ALLEY":" ","HOUSE_NO":"５０之１號","E_COORD97":168370.64000000001,"N_COORD97":2546769.9700000002,"ADDRESS":"北安路一段３４１巷５０之１號","OBJECTID":406751},"geometry":{"x":168370.63999999966,"y":2546769.9700000007}},{"attributes":{"ID":406776,"DIS_CODE":0,"TOWNNAME":"北區","LI":"成德里","LIN":"22鄰","STREET":"北安路","SECT":"一段","MAREA":" ","LANE":"３４１巷","ALLEY":" ","HOUSE_NO":"５８號","E_COORD97":168351.97,"N_COORD97":2546749.3999999999,"ADDRESS":"北安路一段３４１巷５８號","OBJECTID":406752},"geometry":{"x":168351.96999999974,"y":2546749.4000000022}},{"attributes":{"ID":406777,"DIS_CODE":0,"TOWNNAME":"北區","LI":"大豐里","LIN":"22鄰","STREET":"大興街","SECT":" ","MAREA":" ","LANE":"３２５巷","ALLEY":" ","HOUSE_NO":"４６號","E_COORD97":166605.10999999999,"N_COORD97":2545563.8700000001,"ADDRESS":"大興街３２５巷４６號","OBJECTID":406753},"geometry":{"x":166605.11000000034,"y":2545563.870000001}},{"attributes":{"ID":406778,"DIS_CODE":0,"TOWNNAME":"北區","LI":"大豐里","LIN":"22鄰","STREET":"大興街","SECT":" ","MAREA":" ","LANE":"３２５巷","ALLEY":" ","HOUSE_NO":"４８號","E_COORD97":166606.06,"N_COORD97":2545559.0699999998,"ADDRESS":"大興街３２５巷４８號","OBJECTID":406754},"geometry":{"x":166606.06000000052,"y":2545559.0700000003}},{"attributes":{"ID":406779,"DIS_CODE":0,"TOWNNAME":"北區","LI":"大豐里","LIN":"22鄰","STREET":"大興街","SECT":" ","MAREA":" ","LANE":"３２５巷","ALLEY":" ","HOUSE_NO":"５０號","E_COORD97":166606.14000000001,"N_COORD97":2545554.4300000002,"ADDRESS":"大興街３２５巷５０號","OBJECTID":406755},"geometry":{"x":166606.13999999966,"y":2545554.4300000016}},{"attributes":{"ID":406780,"DIS_CODE":0,"TOWNNAME":"北區","LI":"大豐里","LIN":"22鄰","STREET":"大興街","SECT":" ","MAREA":" ","LANE":"３２５巷","ALLEY":" ","HOUSE_NO":"５２號","E_COORD97":166606.48999999999,"N_COORD97":2545550.23,"ADDRESS":"大興街３２５巷５２號","OBJECTID":406756},"geometry":{"x":166606.48999999929,"y":2545550.2300000023}},{"attributes":{"ID":406781,"DIS_CODE":0,"TOWNNAME":"北區","LI":"大豐里","LIN":"22鄰","STREET":"大興街","SECT":" ","MAREA":" ","LANE":"３２５巷","ALLEY":" ","HOUSE_NO":"５４號","E_COORD97":166606.73999999999,"N_COORD97":2545545.6800000002,"ADDRESS":"大興街３２５巷５４號","OBJECTID":406757},"geometry":{"x":166606.74000000115,"y":2545545.6800000016}},{"attributes":{"ID":406782,"DIS_CODE":0,"TOWNNAME":"北區","LI":"大豐里","LIN":"22鄰","STREET":"大興街","SECT":" ","MAREA":" ","LANE":"３２５巷","ALLEY":" ","HOUSE_NO":"５６號","E_COORD97":166607.09,"N_COORD97":2545541.0499999998,"ADDRESS":"大興街３２５巷５６號","OBJECTID":406758},"geometry":{"x":166607.08999999892,"y":2545541.0500000026}},{"attributes":{"ID":406783,"DIS_CODE":0,"TOWNNAME":"北區","LI":"大豐里","LIN":"22鄰","STREET":"大興街","SECT":" ","MAREA":" ","LANE":"３２５巷","ALLEY":" ","HOUSE_NO":"５８號","E_COORD97":166606.82999999999,"N_COORD97":2545535.6499999999,"ADDRESS":"大興街３２５巷５８號","OBJECTID":406759},"geometry":{"x":166606.83000000007,"y":2545535.6500000041}},{"attributes":{"ID":406784,"DIS_CODE":0,"TOWNNAME":"北區","LI":"大豐里","LIN":"22鄰","STREET":"大興街","SECT":" ","MAREA":" ","LANE":"３２５巷","ALLEY":" ","HOUSE_NO":"６０號","E_COORD97":166607.42999999999,"N_COORD97":2545531.79,"ADDRESS":"大興街３２５巷６０號","OBJECTID":406760},"geometry":{"x":166607.4299999997,"y":2545531.7899999991}},{"attributes":{"ID":406785,"DIS_CODE":0,"TOWNNAME":"北區","LI":"大豐里","LIN":"22鄰","STREET":"大興街","SECT":" ","MAREA":" ","LANE":"３２５巷","ALLEY":" ","HOUSE_NO":"２０號","E_COORD97":166600.14000000001,"N_COORD97":2545609.4900000002,"ADDRESS":"大興街３２５巷２０號","OBJECTID":406761},"geometry":{"x":166600.1400000006,"y":2545609.4900000021}},{"attributes":{"ID":406786,"DIS_CODE":0,"TOWNNAME":"北區","LI":"大豐里","LIN":"22鄰","STREET":"大興街","SECT":" ","MAREA":" ","LANE":"３２５巷","ALLEY":" ","HOUSE_NO":"２２號","E_COORD97":166600.94,"N_COORD97":2545604.5,"ADDRESS":"大興街３２５巷２２號","OBJECTID":406762},"geometry":{"x":166600.94000000134,"y":2545604.5000000019}},{"attributes":{"ID":406787,"DIS_CODE":0,"TOWNNAME":"北區","LI":"大豐里","LIN":"22鄰","STREET":"大興街","SECT":" ","MAREA":" ","LANE":"３２５巷","ALLEY":" ","HOUSE_NO":"２４號","E_COORD97":166591.35000000001,"N_COORD97":2545604.2599999998,"ADDRESS":"大興街３２５巷２４號","OBJECTID":406763},"geometry":{"x":166591.34999999963,"y":2545604.2599999998}},{"attributes":{"ID":406788,"DIS_CODE":0,"TOWNNAME":"北區","LI":"大豐里","LIN":"22鄰","STREET":"大興街","SECT":" ","MAREA":" ","LANE":"３２５巷","ALLEY":" ","HOUSE_NO":"２６號","E_COORD97":166585.72,"N_COORD97":2545603.71,"ADDRESS":"大興街３２５巷２６號","OBJECTID":406764},"geometry":{"x":166585.71999999881,"y":2545603.7100000046}},{"attributes":{"ID":406789,"DIS_CODE":0,"TOWNNAME":"北區","LI":"大豐里","LIN":"22鄰","STREET":"大興街","SECT":" ","MAREA":" ","LANE":"３２５巷","ALLEY":" ","HOUSE_NO":"２８號","E_COORD97":166588.10999999999,"N_COORD97":2545585.2999999998,"ADDRESS":"大興街３２５巷２８號","OBJECTID":406765},"geometry":{"x":166588.11000000034,"y":2545585.3000000007}},{"attributes":{"ID":406790,"DIS_CODE":0,"TOWNNAME":"北區","LI":"大豐里","LIN":"22鄰","STREET":"大興街","SECT":" ","MAREA":" ","LANE":"３２５巷","ALLEY":" ","HOUSE_NO":"３０號","E_COORD97":166593.09,"N_COORD97":2545585.4700000002,"ADDRESS":"大興街３２５巷３０號","OBJECTID":406766},"geometry":{"x":166593.08999999985,"y":2545585.4700000025}},{"attributes":{"ID":406791,"DIS_CODE":0,"TOWNNAME":"北區","LI":"大豐里","LIN":"22鄰","STREET":"大興街","SECT":" ","MAREA":" ","LANE":"３２５巷","ALLEY":" ","HOUSE_NO":"３２號","E_COORD97":166601.07999999999,"N_COORD97":2545593.3700000001,"ADDRESS":"大興街３２５巷３２號","OBJECTID":406767},"geometry":{"x":166601.08000000101,"y":2545593.3700000029}},{"attributes":{"ID":406792,"DIS_CODE":0,"TOWNNAME":"東區","LI":"崇善里","LIN":"25鄰","STREET":"崇善東路","SECT":" ","MAREA":" ","LANE":"１５巷","ALLEY":" ","HOUSE_NO":"２７號","E_COORD97":171258.95000000001,"N_COORD97":2540959.2200000002,"ADDRESS":"崇善東路１５巷２７號","OBJECTID":406768},"geometry":{"x":171258.95000000112,"y":2540959.2200000025}},{"attributes":{"ID":406793,"DIS_CODE":0,"TOWNNAME":"東區","LI":"崇善里","LIN":"25鄰","STREET":"崇善東路","SECT":" ","MAREA":" ","LANE":"１５巷","ALLEY":" ","HOUSE_NO":"２號","E_COORD97":171295.98000000001,"N_COORD97":2540940.9199999999,"ADDRESS":"崇善東路１５巷２號","OBJECTID":406769},"geometry":{"x":171295.98000000138,"y":2540940.9200000018}},{"attributes":{"ID":406794,"DIS_CODE":0,"TOWNNAME":"東區","LI":"崇善里","LIN":"25鄰","STREET":"崇善東路","SECT":" ","MAREA":" ","LANE":"１５巷","ALLEY":" ","HOUSE_NO":"６號","E_COORD97":171293.23000000001,"N_COORD97":2540944.98,"ADDRESS":"崇善東路１５巷６號","OBJECTID":406770},"geometry":{"x":171293.23000000045,"y":2540944.9800000004}},{"attributes":{"ID":406795,"DIS_CODE":0,"TOWNNAME":"北區","LI":"大豐里","LIN":"22鄰","STREET":"大興街","SECT":" ","MAREA":" ","LANE":"３２５巷","ALLEY":" ","HOUSE_NO":"３４號","E_COORD97":166601.76000000001,"N_COORD97":2545585.9900000002,"ADDRESS":"大興街３２５巷３４號","OBJECTID":406771},"geometry":{"x":166601.75999999978,"y":2545585.9900000002}},{"attributes":{"ID":406796,"DIS_CODE":0,"TOWNNAME":"善化區","LI":"光文里","LIN":"22鄰","STREET":"光華路","SECT":" ","MAREA":" ","LANE":"３５巷","ALLEY":" ","HOUSE_NO":"１９號二樓之１","E_COORD97":178564.54000000001,"N_COORD97":2559258.27,"ADDRESS":"光華路３５巷１９號二樓之１","OBJECTID":406772},"geometry":{"x":178564.54000000097,"y":2559258.2700000033}},{"attributes":{"ID":406797,"DIS_CODE":0,"TOWNNAME":"善化區","LI":"光文里","LIN":"22鄰","STREET":"光華路","SECT":" ","MAREA":" ","LANE":"３５巷","ALLEY":" ","HOUSE_NO":"１９號二樓之５","E_COORD97":178564.60000000001,"N_COORD97":2559258.27,"ADDRESS":"光華路３５巷１９號二樓之５","OBJECTID":406773},"geometry":{"x":178564.59999999963,"y":2559258.2700000033}},{"attributes":{"ID":406798,"DIS_CODE":0,"TOWNNAME":"善化區","LI":"光文里","LIN":"22鄰","STREET":"光華路","SECT":" ","MAREA":" ","LANE":"１２８巷","ALLEY":" ","HOUSE_NO":"１０號四樓","E_COORD97":178667.45000000001,"N_COORD97":2559510,"ADDRESS":"光華路１２８巷１０號四樓","OBJECTID":406774},"geometry":{"x":178667.45000000019,"y":2559510}},{"attributes":{"ID":406799,"DIS_CODE":0,"TOWNNAME":"善化區","LI":"光文里","LIN":"22鄰","STREET":"光華路","SECT":" ","MAREA":" ","LANE":"１２８巷","ALLEY":" ","HOUSE_NO":"１９號六樓","E_COORD97":178681.67000000001,"N_COORD97":2559507.4900000002,"ADDRESS":"光華路１２８巷１９號六樓","OBJECTID":406775},"geometry":{"x":178681.67000000179,"y":2559507.4900000002}},{"attributes":{"ID":406800,"DIS_CODE":0,"TOWNNAME":"東區","LI":"大學里","LIN":"21鄰","STREET":"長榮路","SECT":"三段","MAREA":" ","LANE":"８６巷","ALLEY":" ","HOUSE_NO":"８號","E_COORD97":170317.84,"N_COORD97":2543840.75,"ADDRESS":"長榮路三段８６巷８號","OBJECTID":406776},"geometry":{"x":170317.83999999892,"y":2543840.7500000019}},{"attributes":{"ID":406801,"DIS_CODE":0,"TOWNNAME":"東區","LI":"大學里","LIN":"21鄰","STREET":"長榮路","SECT":"三段","MAREA":" ","LANE":"８６巷","ALLEY":" ","HOUSE_NO":"６號","E_COORD97":170306.22,"N_COORD97":2543841.73,"ADDRESS":"長榮路三段８６巷６號","OBJECTID":406777},"geometry":{"x":170306.21999999974,"y":2543841.7300000023}},{"attributes":{"ID":406802,"DIS_CODE":0,"TOWNNAME":"東區","LI":"大學里","LIN":"21鄰","STREET":"長榮路","SECT":"三段","MAREA":" ","LANE":"８６巷","ALLEY":" ","HOUSE_NO":"１０號","E_COORD97":170341.95000000001,"N_COORD97":2543839.9900000002,"ADDRESS":"長榮路三段８６巷１０號","OBJECTID":406778},"geometry":{"x":170341.95000000112,"y":2543839.9900000002}},{"attributes":{"ID":406803,"DIS_CODE":0,"TOWNNAME":"善化區","LI":"光文里","LIN":"22鄰","STREET":"光華路","SECT":" ","MAREA":" ","LANE":"１２８巷","ALLEY":" ","HOUSE_NO":"１７號二樓","E_COORD97":178683.04000000001,"N_COORD97":2559513.25,"ADDRESS":"光華路１２８巷１７號二樓","OBJECTID":406779},"geometry":{"x":178683.04000000097,"y":2559513.2500000037}},{"attributes":{"ID":406804,"DIS_CODE":0,"TOWNNAME":"善化區","LI":"光文里","LIN":"22鄰","STREET":"光華路","SECT":" ","MAREA":" ","LANE":"３５巷","ALLEY":" ","HOUSE_NO":"１９號二樓之６","E_COORD97":178564.57999999999,"N_COORD97":2559258.27,"ADDRESS":"光華路３５巷１９號二樓之６","OBJECTID":406780},"geometry":{"x":178564.58000000007,"y":2559258.2700000033}},{"attributes":{"ID":406805,"DIS_CODE":0,"TOWNNAME":"善化區","LI":"光文里","LIN":"22鄰","STREET":"光華路","SECT":" ","MAREA":" ","LANE":"１２８巷","ALLEY":" ","HOUSE_NO":"９號四樓","E_COORD97":178670.98000000001,"N_COORD97":2559486.75,"ADDRESS":"光華路１２８巷９號四樓","OBJECTID":406781},"geometry":{"x":178670.98000000045,"y":2559486.7500000019}},{"attributes":{"ID":406806,"DIS_CODE":0,"TOWNNAME":"善化區","LI":"光文里","LIN":"22鄰","STREET":"光華路","SECT":" ","MAREA":" ","LANE":"１２８巷","ALLEY":" ","HOUSE_NO":"１７號四樓","E_COORD97":178683.04000000001,"N_COORD97":2559513.25,"ADDRESS":"光華路１２８巷１７號四樓","OBJECTID":406782},"geometry":{"x":178683.04000000097,"y":2559513.2500000037}},{"attributes":{"ID":406807,"DIS_CODE":0,"TOWNNAME":"善化區","LI":"光文里","LIN":"22鄰","STREET":"光華路","SECT":" ","MAREA":" ","LANE":"１２８巷","ALLEY":" ","HOUSE_NO":"１５號三樓","E_COORD97":178680.39999999999,"N_COORD97":2559500.5,"ADDRESS":"光華路１２８巷１５號三樓","OBJECTID":406783},"geometry":{"x":178680.39999999944,"y":2559500.5}},{"attributes":{"ID":406808,"DIS_CODE":0,"TOWNNAME":"善化區","LI":"光文里","LIN":"22鄰","STREET":"光華路","SECT":" ","MAREA":" ","LANE":"１２８巷","ALLEY":" ","HOUSE_NO":"１９號四樓","E_COORD97":178681.67000000001,"N_COORD97":2559507.4900000002,"ADDRESS":"光華路１２８巷１９號四樓","OBJECTID":406784},"geometry":{"x":178681.67000000179,"y":2559507.4900000002}},{"attributes":{"ID":406809,"DIS_CODE":0,"TOWNNAME":"東區","LI":"崇明里","LIN":"8鄰","STREET":"大同路","SECT":"二段","MAREA":" ","LANE":"４４９巷","ALLEY":" ","HOUSE_NO":"４５號","E_COORD97":169702.97,"N_COORD97":2541369.0699999998,"ADDRESS":"大同路二段４４９巷４５號","OBJECTID":406785},"geometry":{"x":169702.96999999974,"y":2541369.0700000003}},{"attributes":{"ID":406810,"DIS_CODE":0,"TOWNNAME":"東區","LI":"大學里","LIN":"21鄰","STREET":"長榮路","SECT":"三段","MAREA":" ","LANE":"８６巷","ALLEY":" ","HOUSE_NO":"１２號","E_COORD97":170353.87,"N_COORD97":2543839.1499999999,"ADDRESS":"長榮路三段８６巷１２號","OBJECTID":406786},"geometry":{"x":170353.87000000104,"y":2543839.1500000004}},{"attributes":{"ID":406811,"DIS_CODE":0,"TOWNNAME":"東區","LI":"大學里","LIN":"21鄰","STREET":"長榮路","SECT":"三段","MAREA":" ","LANE":"８６巷","ALLEY":" ","HOUSE_NO":"２號","E_COORD97":170354.82999999999,"N_COORD97":2543842.7400000002,"ADDRESS":"長榮路三段８６巷２號","OBJECTID":406787},"geometry":{"x":170354.83000000007,"y":2543842.7400000002}},{"attributes":{"ID":406812,"DIS_CODE":0,"TOWNNAME":"東區","LI":"南聖里","LIN":"3鄰","STREET":"裕農路","SECT":" ","MAREA":" ","LANE":"６６８巷","ALLEY":" ","HOUSE_NO":"２６號之５","E_COORD97":171729.48999999999,"N_COORD97":2543119.71,"ADDRESS":"裕農路６６８巷２６號之５","OBJECTID":406788},"geometry":{"x":171729.49000000209,"y":2543119.7100000028}},{"attributes":{"ID":406813,"DIS_CODE":0,"TOWNNAME":"東區","LI":"忠孝里","LIN":"24鄰","STREET":"崇明四街","SECT":" ","MAREA":" ","LANE":"２０巷","ALLEY":" ","HOUSE_NO":"１２號","E_COORD97":169590.23999999999,"N_COORD97":2542260.6299999999,"ADDRESS":"崇明四街２０巷１２號","OBJECTID":406789},"geometry":{"x":169590.24000000115,"y":2542260.6300000008}},{"attributes":{"ID":406814,"DIS_CODE":0,"TOWNNAME":"東區","LI":"忠孝里","LIN":"24鄰","STREET":"崇明四街","SECT":" ","MAREA":" ","LANE":"２０巷","ALLEY":" ","HOUSE_NO":"１４號","E_COORD97":169595.41,"N_COORD97":2542262.0699999998,"ADDRESS":"崇明四街２０巷１４號","OBJECTID":406790},"geometry":{"x":169595.41000000015,"y":2542262.0700000022}},{"attributes":{"ID":406815,"DIS_CODE":0,"TOWNNAME":"東區","LI":"忠孝里","LIN":"24鄰","STREET":"崇明四街","SECT":" ","MAREA":" ","LANE":"２０巷","ALLEY":" ","HOUSE_NO":"１６號","E_COORD97":169601.82999999999,"N_COORD97":2542263.52,"ADDRESS":"崇明四街２０巷１６號","OBJECTID":406791},"geometry":{"x":169601.83000000101,"y":2542263.5199999996}},{"attributes":{"ID":406816,"DIS_CODE":0,"TOWNNAME":"東區","LI":"忠孝里","LIN":"24鄰","STREET":"崇明四街","SECT":" ","MAREA":" ","LANE":"２０巷","ALLEY":" ","HOUSE_NO":"１８號","E_COORD97":169606.79999999999,"N_COORD97":2542264.1400000001,"ADDRESS":"崇明四街２０巷１８號","OBJECTID":406792},"geometry":{"x":169606.80000000075,"y":2542264.1399999987}},{"attributes":{"ID":406817,"DIS_CODE":0,"TOWNNAME":"東區","LI":"忠孝里","LIN":"24鄰","STREET":"崇明四街","SECT":" ","MAREA":" ","LANE":"２０巷","ALLEY":" ","HOUSE_NO":"１０號","E_COORD97":169586.841828,"N_COORD97":2542272.3616399998,"ADDRESS":"崇明四街２０巷１０號","OBJECTID":406793},"geometry":{"x":169586.84182800073,"y":2542272.3616360016}},{"attributes":{"ID":406818,"DIS_CODE":0,"TOWNNAME":"東區","LI":"忠孝里","LIN":"24鄰","STREET":"崇明四街","SECT":" ","MAREA":" ","LANE":"２０巷","ALLEY":" ","HOUSE_NO":"６號","E_COORD97":169598.283008,"N_COORD97":2542277.0183000001,"ADDRESS":"崇明四街２０巷６號","OBJECTID":406794},"geometry":{"x":169598.28300799988,"y":2542277.0183000024}},{"attributes":{"ID":406819,"DIS_CODE":0,"TOWNNAME":"東區","LI":"忠孝里","LIN":"24鄰","STREET":"崇明四街","SECT":" ","MAREA":" ","LANE":"２０巷","ALLEY":" ","HOUSE_NO":"２號","E_COORD97":169602.692568,"N_COORD97":2542279.7436299999,"ADDRESS":"崇明四街２０巷２號","OBJECTID":406795},"geometry":{"x":169602.69256800134,"y":2542279.7436290029}},{"attributes":{"ID":406820,"DIS_CODE":0,"TOWNNAME":"東區","LI":"忠孝里","LIN":"24鄰","STREET":"崇明四街","SECT":" ","MAREA":" ","LANE":"２０巷","ALLEY":" ","HOUSE_NO":"８號","E_COORD97":169591.92679699999,"N_COORD97":2542273.6316399998,"ADDRESS":"崇明四街２０巷８號","OBJECTID":406796},"geometry":{"x":169591.92679699976,"y":2542273.6316350028}},{"attributes":{"ID":406821,"DIS_CODE":0,"TOWNNAME":"東區","LI":"崇德里","LIN":"23鄰","STREET":"崇德路","SECT":" ","MAREA":" ","LANE":"５３０巷","ALLEY":" ","HOUSE_NO":"１０號","E_COORD97":170746.56,"N_COORD97":2541518.4100000001,"ADDRESS":"崇德路５３０巷１０號","OBJECTID":406797},"geometry":{"x":170746.55999999959,"y":2541518.4100000001}},{"attributes":{"ID":406822,"DIS_CODE":0,"TOWNNAME":"永康區","LI":"網寮里","LIN":"22鄰","STREET":"永春街","SECT":" ","MAREA":" ","LANE":"１３巷","ALLEY":" ","HOUSE_NO":"３５號二樓","E_COORD97":173698.67999999999,"N_COORD97":2546199.2000000002,"ADDRESS":"永春街１３巷３５號二樓","OBJECTID":406798},"geometry":{"x":173698.6799999997,"y":2546199.2000000011}},{"attributes":{"ID":406823,"DIS_CODE":0,"TOWNNAME":"東區","LI":"崇德里","LIN":"22鄰","STREET":"崇德路","SECT":" ","MAREA":" ","LANE":"５０８巷","ALLEY":" ","HOUSE_NO":"２８號三樓之４","E_COORD97":170683.32000000001,"N_COORD97":2541577.1200000001,"ADDRESS":"崇德路５０８巷２８號三樓之４","OBJECTID":406799},"geometry":{"x":170683.32000000123,"y":2541577.1200000029}},{"attributes":{"ID":406824,"DIS_CODE":0,"TOWNNAME":"東區","LI":"崇德里","LIN":"22鄰","STREET":"崇德路","SECT":" ","MAREA":" ","LANE":"５０８巷","ALLEY":" ","HOUSE_NO":"２８號四樓之４","E_COORD97":170683.32000000001,"N_COORD97":2541577.1200000001,"ADDRESS":"崇德路５０８巷２８號四樓之４","OBJECTID":406800},"geometry":{"x":170683.32000000123,"y":2541577.1200000029}}]}