{"displayFieldName":"TOWNNAME","fieldAliases":{"ID":"ID","DIS_CODE":"DIS_CODE","TOWNNAME":"TOWNNAME","LI":"LI","LIN":"LIN","STREET":"STREET","SECT":"SECT","MAREA":"MAREA","LANE":"LANE","ALLEY":"ALLEY","HOUSE_NO":"HOUSE_NO","E_COORD97":"E_COORD97","N_COORD97":"N_COORD97","ADDRESS":"ADDRESS","OBJECTID":"OBJECTID"},"geometryType":"esriGeometryPoint","spatialReference":{"wkid":102443,"latestWkid":3826},"fields":[{"name":"ID","type":"esriFieldTypeDouble","alias":"ID"},{"name":"DIS_CODE","type":"esriFieldTypeInteger","alias":"DIS_CODE"},{"name":"TOWNNAME","type":"esriFieldTypeString","alias":"TOWNNAME","length":8},{"name":"LI","type":"esriFieldTypeString","alias":"LI","length":8},{"name":"LIN","type":"esriFieldTypeString","alias":"LIN","length":12},{"name":"STREET","type":"esriFieldTypeString","alias":"STREET","length":20},{"name":"SECT","type":"esriFieldTypeString","alias":"SECT","length":8},{"name":"MAREA","type":"esriFieldTypeString","alias":"MAREA","length":12},{"name":"LANE","type":"esriFieldTypeString","alias":"LANE","length":10},{"name":"ALLEY","type":"esriFieldTypeString","alias":"ALLEY","length":10},{"name":"HOUSE_NO","type":"esriFieldTypeString","alias":"HOUSE_NO","length":20},{"name":"E_COORD97","type":"esriFieldTypeDouble","alias":"E_COORD97"},{"name":"N_COORD97","type":"esriFieldTypeDouble","alias":"N_COORD97"},{"name":"ADDRESS","type":"esriFieldTypeString","alias":"ADDRESS","length":50},{"name":"OBJECTID","type":"esriFieldTypeOID","alias":"OBJECTID"}],"features":[{"attributes":{"ID":481426,"DIS_CODE":0,"TOWNNAME":"安平區","LI":"平通里","LIN":"26鄰","STREET":"育平八街","SECT":" ","MAREA":" ","LANE":" ","ALLEY":" ","HOUSE_NO":"５５號","E_COORD97":164503.25,"N_COORD97":2543895.4300000002,"ADDRESS":"育平八街５５號","OBJECTID":481401},"geometry":{"x":164503.25000000093,"y":2543895.4299999978}},{"attributes":{"ID":481427,"DIS_CODE":0,"TOWNNAME":"安平區","LI":"平通里","LIN":"26鄰","STREET":"育平八街","SECT":" ","MAREA":" ","LANE":" ","ALLEY":" ","HOUSE_NO":"５７號","E_COORD97":164498.72,"N_COORD97":2543895.3700000001,"ADDRESS":"育平八街５７號","OBJECTID":481402},"geometry":{"x":164498.71999999974,"y":2543895.3700000029}},{"attributes":{"ID":481428,"DIS_CODE":0,"TOWNNAME":"安平區","LI":"平通里","LIN":"26鄰","STREET":"育平八街","SECT":" ","MAREA":" ","LANE":" ","ALLEY":" ","HOUSE_NO":"５９號","E_COORD97":164494.28,"N_COORD97":2543895.29,"ADDRESS":"育平八街５９號","OBJECTID":481403},"geometry":{"x":164494.28000000119,"y":2543895.2899999991}},{"attributes":{"ID":481429,"DIS_CODE":0,"TOWNNAME":"安平區","LI":"平通里","LIN":"26鄰","STREET":"育平八街","SECT":" ","MAREA":" ","LANE":" ","ALLEY":" ","HOUSE_NO":"６１號","E_COORD97":164490.06,"N_COORD97":2543895.1099999999,"ADDRESS":"育平八街６１號","OBJECTID":481404},"geometry":{"x":164490.06000000052,"y":2543895.1100000013}},{"attributes":{"ID":481430,"DIS_CODE":0,"TOWNNAME":"安平區","LI":"平通里","LIN":"26鄰","STREET":"育平八街","SECT":" ","MAREA":" ","LANE":" ","ALLEY":" ","HOUSE_NO":"６３號","E_COORD97":164485.67000000001,"N_COORD97":2543895.2400000002,"ADDRESS":"育平八街６３號","OBJECTID":481405},"geometry":{"x":164485.66999999993,"y":2543895.2400000021}},{"attributes":{"ID":481431,"DIS_CODE":0,"TOWNNAME":"安平區","LI":"平通里","LIN":"26鄰","STREET":"育平八街","SECT":" ","MAREA":" ","LANE":" ","ALLEY":" ","HOUSE_NO":"６５號","E_COORD97":164481.23000000001,"N_COORD97":2543895.29,"ADDRESS":"育平八街６５號","OBJECTID":481406},"geometry":{"x":164481.23000000231,"y":2543895.2899999991}},{"attributes":{"ID":481432,"DIS_CODE":0,"TOWNNAME":"安平區","LI":"平通里","LIN":"26鄰","STREET":"育平八街","SECT":" ","MAREA":" ","LANE":" ","ALLEY":" ","HOUSE_NO":"６７號","E_COORD97":164476.76000000001,"N_COORD97":2543895.3300000001,"ADDRESS":"育平八街６７號","OBJECTID":481407},"geometry":{"x":164476.76000000164,"y":2543895.3300000001}},{"attributes":{"ID":481433,"DIS_CODE":0,"TOWNNAME":"安平區","LI":"平通里","LIN":"26鄰","STREET":"育平八街","SECT":" ","MAREA":" ","LANE":" ","ALLEY":" ","HOUSE_NO":"６８號","E_COORD97":164430.26000000001,"N_COORD97":2543926.5,"ADDRESS":"育平八街６８號","OBJECTID":481408},"geometry":{"x":164430.25999999978,"y":2543926.5000000019}},{"attributes":{"ID":481434,"DIS_CODE":0,"TOWNNAME":"安平區","LI":"平通里","LIN":"26鄰","STREET":"育平八街","SECT":" ","MAREA":" ","LANE":" ","ALLEY":" ","HOUSE_NO":"６９號","E_COORD97":164472.37,"N_COORD97":2543895.3700000001,"ADDRESS":"育平八街６９號","OBJECTID":481409},"geometry":{"x":164472.37000000011,"y":2543895.3700000029}},{"attributes":{"ID":481435,"DIS_CODE":0,"TOWNNAME":"安平區","LI":"平通里","LIN":"26鄰","STREET":"育平八街","SECT":" ","MAREA":" ","LANE":" ","ALLEY":" ","HOUSE_NO":"７１號","E_COORD97":164467.92999999999,"N_COORD97":2543895.46,"ADDRESS":"育平八街７１號","OBJECTID":481410},"geometry":{"x":164467.93000000063,"y":2543895.4600000009}},{"attributes":{"ID":481436,"DIS_CODE":0,"TOWNNAME":"安平區","LI":"平通里","LIN":"26鄰","STREET":"育平八街","SECT":" ","MAREA":" ","LANE":" ","ALLEY":" ","HOUSE_NO":"７３號","E_COORD97":164463.44,"N_COORD97":2543895.5099999998,"ADDRESS":"育平八街７３號","OBJECTID":481411},"geometry":{"x":164463.44000000134,"y":2543895.5100000016}},{"attributes":{"ID":481437,"DIS_CODE":0,"TOWNNAME":"安平區","LI":"平通里","LIN":"26鄰","STREET":"育平八街","SECT":" ","MAREA":" ","LANE":" ","ALLEY":" ","HOUSE_NO":"７５號","E_COORD97":164458.56,"N_COORD97":2543894.3199999998,"ADDRESS":"育平八街７５號","OBJECTID":481412},"geometry":{"x":164458.55999999959,"y":2543894.3200000022}},{"attributes":{"ID":481438,"DIS_CODE":0,"TOWNNAME":"安平區","LI":"平通里","LIN":"26鄰","STREET":"育平八街","SECT":" ","MAREA":" ","LANE":" ","ALLEY":" ","HOUSE_NO":"８７號","E_COORD97":164416.73000000001,"N_COORD97":2543893.6800000002,"ADDRESS":"育平八街８７號","OBJECTID":481413},"geometry":{"x":164416.73000000231,"y":2543893.6799999978}},{"attributes":{"ID":481439,"DIS_CODE":0,"TOWNNAME":"安平區","LI":"平通里","LIN":"26鄰","STREET":"育平八街","SECT":" ","MAREA":" ","LANE":" ","ALLEY":" ","HOUSE_NO":"８９號","E_COORD97":164411.62,"N_COORD97":2543893.8199999998,"ADDRESS":"育平八街８９號","OBJECTID":481414},"geometry":{"x":164411.62000000011,"y":2543893.820000004}},{"attributes":{"ID":481440,"DIS_CODE":0,"TOWNNAME":"安平區","LI":"平通里","LIN":"26鄰","STREET":"育平八街","SECT":" ","MAREA":" ","LANE":" ","ALLEY":" ","HOUSE_NO":"９１號","E_COORD97":164406.92999999999,"N_COORD97":2543893.79,"ADDRESS":"育平八街９１號","OBJECTID":481415},"geometry":{"x":164406.9299999997,"y":2543893.790000001}},{"attributes":{"ID":481441,"DIS_CODE":0,"TOWNNAME":"安平區","LI":"平通里","LIN":"26鄰","STREET":"育平八街","SECT":" ","MAREA":" ","LANE":" ","ALLEY":" ","HOUSE_NO":"９３號","E_COORD97":164402.45000000001,"N_COORD97":2543894.1200000001,"ADDRESS":"育平八街９３號","OBJECTID":481416},"geometry":{"x":164402.45000000019,"y":2543894.120000001}},{"attributes":{"ID":481442,"DIS_CODE":0,"TOWNNAME":"安平區","LI":"平通里","LIN":"26鄰","STREET":"育平八街","SECT":" ","MAREA":" ","LANE":" ","ALLEY":" ","HOUSE_NO":"９５號","E_COORD97":164398.42000000001,"N_COORD97":2543893.4700000002,"ADDRESS":"育平八街９５號","OBJECTID":481417},"geometry":{"x":164398.42000000086,"y":2543893.4700000025}},{"attributes":{"ID":481443,"DIS_CODE":0,"TOWNNAME":"安平區","LI":"平通里","LIN":"26鄰","STREET":"育平八街","SECT":" ","MAREA":" ","LANE":" ","ALLEY":" ","HOUSE_NO":"９號","E_COORD97":164616.17999999999,"N_COORD97":2543898.2200000002,"ADDRESS":"育平八街９號","OBJECTID":481418},"geometry":{"x":164616.17999999877,"y":2543898.2200000044}},{"attributes":{"ID":481444,"DIS_CODE":0,"TOWNNAME":"新營區","LI":"南興里","LIN":"26鄰","STREET":"建業路","SECT":" ","MAREA":" ","LANE":" ","ALLEY":" ","HOUSE_NO":"６８號","E_COORD97":179379.04999999999,"N_COORD97":2577514.73,"ADDRESS":"建業路６８號","OBJECTID":481419},"geometry":{"x":179379.05000000168,"y":2577514.7300000023}},{"attributes":{"ID":481445,"DIS_CODE":0,"TOWNNAME":"安平區","LI":"建平里","LIN":"4鄰","STREET":"建平十七街","SECT":" ","MAREA":" ","LANE":" ","ALLEY":" ","HOUSE_NO":"８１號之２","E_COORD97":166034.73000000001,"N_COORD97":2544235.0299999998,"ADDRESS":"建平十七街８１號之２","OBJECTID":481420},"geometry":{"x":166034.73000000138,"y":2544235.0300000012}},{"attributes":{"ID":481446,"DIS_CODE":0,"TOWNNAME":"歸仁區","LI":"南保里","LIN":"26鄰","STREET":"民權六街","SECT":" ","MAREA":" ","LANE":" ","ALLEY":" ","HOUSE_NO":"１７９號","E_COORD97":176621.23999999999,"N_COORD97":2541106.29,"ADDRESS":"民權六街１７９號","OBJECTID":481421},"geometry":{"x":176621.24000000022,"y":2541106.290000001}},{"attributes":{"ID":481447,"DIS_CODE":0,"TOWNNAME":"歸仁區","LI":"後市里","LIN":"26鄰","STREET":"中山路","SECT":"二段","MAREA":" ","LANE":" ","ALLEY":" ","HOUSE_NO":"１１６號","E_COORD97":177311.13,"N_COORD97":2540828.7400000002,"ADDRESS":"中山路二段１１６號","OBJECTID":481422},"geometry":{"x":177311.13000000082,"y":2540828.7400000002}},{"attributes":{"ID":481448,"DIS_CODE":0,"TOWNNAME":"歸仁區","LI":"南保里","LIN":"26鄰","STREET":"民權六街","SECT":" ","MAREA":" ","LANE":" ","ALLEY":" ","HOUSE_NO":"１８７號","E_COORD97":176602.73999999999,"N_COORD97":2541105.29,"ADDRESS":"民權六街１８７號","OBJECTID":481423},"geometry":{"x":176602.74000000022,"y":2541105.2899999991}},{"attributes":{"ID":481449,"DIS_CODE":0,"TOWNNAME":"歸仁區","LI":"歸仁里","LIN":"26鄰","STREET":"文化一街","SECT":" ","MAREA":" ","LANE":" ","ALLEY":" ","HOUSE_NO":"４６號","E_COORD97":178248.64000000001,"N_COORD97":2541142.1299999999,"ADDRESS":"文化一街４６號","OBJECTID":481424},"geometry":{"x":178248.63999999966,"y":2541142.1300000008}},{"attributes":{"ID":481450,"DIS_CODE":0,"TOWNNAME":"歸仁區","LI":"歸仁里","LIN":"26鄰","STREET":"文化一街","SECT":" ","MAREA":" ","LANE":" ","ALLEY":" ","HOUSE_NO":"２５號","E_COORD97":178243.67000000001,"N_COORD97":2541192.1299999999,"ADDRESS":"文化一街２５號","OBJECTID":481425},"geometry":{"x":178243.66999999993,"y":2541192.1300000008}},{"attributes":{"ID":481451,"DIS_CODE":0,"TOWNNAME":"歸仁區","LI":"歸仁里","LIN":"26鄰","STREET":"文化一街","SECT":" ","MAREA":" ","LANE":" ","ALLEY":" ","HOUSE_NO":"２８號","E_COORD97":178249.97,"N_COORD97":2541223.1299999999,"ADDRESS":"文化一街２８號","OBJECTID":481426},"geometry":{"x":178249.96999999974,"y":2541223.1300000008}},{"attributes":{"ID":481452,"DIS_CODE":0,"TOWNNAME":"歸仁區","LI":"新厝里","LIN":"26鄰","STREET":"中正南路","SECT":"一段","MAREA":" ","LANE":" ","ALLEY":" ","HOUSE_NO":"１８７號","E_COORD97":177386.60000000001,"N_COORD97":2540353.21,"ADDRESS":"中正南路一段１８７號","OBJECTID":481427},"geometry":{"x":177386.60000000149,"y":2540353.2100000028}},{"attributes":{"ID":481453,"DIS_CODE":0,"TOWNNAME":"歸仁區","LI":"歸仁里","LIN":"26鄰","STREET":"文化一街","SECT":" ","MAREA":" ","LANE":" ","ALLEY":" ","HOUSE_NO":"２６之１號","E_COORD97":178232.97,"N_COORD97":2541218.1299999999,"ADDRESS":"文化一街２６之１號","OBJECTID":481428},"geometry":{"x":178232.96999999974,"y":2541218.129999999}},{"attributes":{"ID":481454,"DIS_CODE":0,"TOWNNAME":"歸仁區","LI":"歸仁里","LIN":"26鄰","STREET":"文化一街","SECT":" ","MAREA":" ","LANE":" ","ALLEY":" ","HOUSE_NO":"３４號","E_COORD97":178265.04000000001,"N_COORD97":2541154.1299999999,"ADDRESS":"文化一街３４號","OBJECTID":481429},"geometry":{"x":178265.04000000004,"y":2541154.1300000027}},{"attributes":{"ID":481455,"DIS_CODE":0,"TOWNNAME":"歸仁區","LI":"歸仁里","LIN":"26鄰","STREET":"文化一街","SECT":" ","MAREA":" ","LANE":" ","ALLEY":" ","HOUSE_NO":"１６號","E_COORD97":178237.67000000001,"N_COORD97":2541240.1299999999,"ADDRESS":"文化一街１６號","OBJECTID":481430},"geometry":{"x":178237.67000000086,"y":2541240.1300000008}},{"attributes":{"ID":481456,"DIS_CODE":0,"TOWNNAME":"歸仁區","LI":"歸仁里","LIN":"26鄰","STREET":"文化一街","SECT":" ","MAREA":" ","LANE":" ","ALLEY":" ","HOUSE_NO":"４５號","E_COORD97":178254.87,"N_COORD97":2541179.1299999999,"ADDRESS":"文化一街４５號","OBJECTID":481431},"geometry":{"x":178254.87000000197,"y":2541179.1300000008}},{"attributes":{"ID":481457,"DIS_CODE":0,"TOWNNAME":"歸仁區","LI":"南興里","LIN":"26鄰","STREET":"文化二十街","SECT":" ","MAREA":" ","LANE":" ","ALLEY":" ","HOUSE_NO":"８９號","E_COORD97":175448.39000000001,"N_COORD97":2541354.3300000001,"ADDRESS":"文化二十街８９號","OBJECTID":481432},"geometry":{"x":175448.38999999966,"y":2541354.3300000019}},{"attributes":{"ID":481458,"DIS_CODE":0,"TOWNNAME":"歸仁區","LI":"歸仁里","LIN":"26鄰","STREET":"文化一街","SECT":" ","MAREA":" ","LANE":" ","ALLEY":" ","HOUSE_NO":"３７號","E_COORD97":178268.26999999999,"N_COORD97":2541191.1299999999,"ADDRESS":"文化一街３７號","OBJECTID":481433},"geometry":{"x":178268.26999999955,"y":2541191.1299999971}},{"attributes":{"ID":481459,"DIS_CODE":0,"TOWNNAME":"新營區","LI":"三仙里","LIN":"26鄰","STREET":"育德街","SECT":" ","MAREA":" ","LANE":" ","ALLEY":" ","HOUSE_NO":"４９號","E_COORD97":179594.01999999999,"N_COORD97":2579039.77,"ADDRESS":"育德街４９號","OBJECTID":481434},"geometry":{"x":179594.01999999955,"y":2579039.7699999996}},{"attributes":{"ID":481460,"DIS_CODE":0,"TOWNNAME":"關廟區","LI":"香洋里","LIN":"26鄰","STREET":"南雄路","SECT":"一段","MAREA":" ","LANE":" ","ALLEY":" ","HOUSE_NO":"１１１８號","E_COORD97":181085.44,"N_COORD97":2539803.2799999998,"ADDRESS":"南雄路一段１１１８號","OBJECTID":481435},"geometry":{"x":181085.44000000041,"y":2539803.2799999993}},{"attributes":{"ID":481461,"DIS_CODE":0,"TOWNNAME":"南區","LI":"大忠里","LIN":"26鄰","STREET":"國民路","SECT":" ","MAREA":" ","LANE":" ","ALLEY":" ","HOUSE_NO":"２０６號","E_COORD97":169090.32999999999,"N_COORD97":2540973.7799999998,"ADDRESS":"國民路２０６號","OBJECTID":481436},"geometry":{"x":169090.33000000007,"y":2540973.7800000031}},{"attributes":{"ID":481462,"DIS_CODE":0,"TOWNNAME":"南區","LI":"大忠里","LIN":"26鄰","STREET":"國民路","SECT":" ","MAREA":" ","LANE":" ","ALLEY":" ","HOUSE_NO":"２０８號","E_COORD97":169087.23999999999,"N_COORD97":2540976.8599999999,"ADDRESS":"國民路２０８號","OBJECTID":481437},"geometry":{"x":169087.24000000115,"y":2540976.8600000031}},{"attributes":{"ID":481463,"DIS_CODE":0,"TOWNNAME":"南區","LI":"大忠里","LIN":"26鄰","STREET":"國民路","SECT":" ","MAREA":" ","LANE":" ","ALLEY":" ","HOUSE_NO":"２０２號","E_COORD97":169095.78,"N_COORD97":2540967.7999999998,"ADDRESS":"國民路２０２號","OBJECTID":481438},"geometry":{"x":169095.78000000026,"y":2540967.8000000007}},{"attributes":{"ID":481464,"DIS_CODE":0,"TOWNNAME":"南區","LI":"廣州里","LIN":"26鄰","STREET":"福吉三街","SECT":" ","MAREA":" ","LANE":" ","ALLEY":" ","HOUSE_NO":"１０７號","E_COORD97":167161.10000000001,"N_COORD97":2542809.7999999998,"ADDRESS":"福吉三街１０７號","OBJECTID":481439},"geometry":{"x":167161.0999999987,"y":2542809.8000000026}},{"attributes":{"ID":481465,"DIS_CODE":0,"TOWNNAME":"永康區","LI":"永康里","LIN":"26鄰","STREET":"永大路","SECT":"二段","MAREA":" ","LANE":" ","ALLEY":" ","HOUSE_NO":"１０７３號","E_COORD97":174211.20000000001,"N_COORD97":2547352.6899999999,"ADDRESS":"永大路二段１０７３號","OBJECTID":481440},"geometry":{"x":174211.20000000019,"y":2547352.6900000013}},{"attributes":{"ID":481466,"DIS_CODE":0,"TOWNNAME":"東山區","LI":"東中里","LIN":"26鄰","STREET":"東仁街","SECT":" ","MAREA":" ","LANE":" ","ALLEY":" ","HOUSE_NO":"６０號","E_COORD97":188807.20000000001,"N_COORD97":2579845.2999999998,"ADDRESS":"東仁街６０號","OBJECTID":481441},"geometry":{"x":188807.20000000112,"y":2579845.3000000007}},{"attributes":{"ID":481467,"DIS_CODE":0,"TOWNNAME":"永康區","LI":"永康里","LIN":"26鄰","STREET":"永大路","SECT":"二段","MAREA":" ","LANE":" ","ALLEY":" ","HOUSE_NO":"１１２９號地下一層之","E_COORD97":174202.32000000001,"N_COORD97":2547482.3599999999,"ADDRESS":"永大路二段１１２９號地下一層之１２","OBJECTID":481442},"geometry":{"x":174202.32000000216,"y":2547482.3599999994}},{"attributes":{"ID":481468,"DIS_CODE":0,"TOWNNAME":"永康區","LI":"永康里","LIN":"26鄰","STREET":"永大路","SECT":"二段","MAREA":" ","LANE":" ","ALLEY":" ","HOUSE_NO":"１１２９號十七樓之６","E_COORD97":174199.79000000001,"N_COORD97":2547482.3599999999,"ADDRESS":"永大路二段１１２９號十七樓之６","OBJECTID":481443},"geometry":{"x":174199.79000000004,"y":2547482.3599999994}},{"attributes":{"ID":481469,"DIS_CODE":0,"TOWNNAME":"北區","LI":"成德里","LIN":"26鄰","STREET":"和緯路","SECT":"二段","MAREA":" ","LANE":" ","ALLEY":" ","HOUSE_NO":"２３１號","E_COORD97":168499.78,"N_COORD97":2545854.9700000002,"ADDRESS":"和緯路二段２３１號","OBJECTID":481444},"geometry":{"x":168499.77999999933,"y":2545854.9700000007}},{"attributes":{"ID":481470,"DIS_CODE":0,"TOWNNAME":"北區","LI":"成德里","LIN":"26鄰","STREET":"和緯路","SECT":"二段","MAREA":" ","LANE":" ","ALLEY":" ","HOUSE_NO":"２３３號","E_COORD97":168488.98999999999,"N_COORD97":2545855.29,"ADDRESS":"和緯路二段２３３號","OBJECTID":481445},"geometry":{"x":168488.99000000115,"y":2545855.2899999972}},{"attributes":{"ID":481471,"DIS_CODE":0,"TOWNNAME":"北區","LI":"成德里","LIN":"26鄰","STREET":"和緯路","SECT":"二段","MAREA":" ","LANE":" ","ALLEY":" ","HOUSE_NO":"２３５號","E_COORD97":168478.35000000001,"N_COORD97":2545856.2400000002,"ADDRESS":"和緯路二段２３５號","OBJECTID":481446},"geometry":{"x":168478.35000000149,"y":2545856.2400000002}},{"attributes":{"ID":481472,"DIS_CODE":0,"TOWNNAME":"北區","LI":"成德里","LIN":"26鄰","STREET":"和緯路","SECT":"二段","MAREA":" ","LANE":" ","ALLEY":" ","HOUSE_NO":"２３７號","E_COORD97":168467.56,"N_COORD97":2545857.04,"ADDRESS":"和緯路二段２３７號","OBJECTID":481447},"geometry":{"x":168467.56000000052,"y":2545857.0399999972}},{"attributes":{"ID":481473,"DIS_CODE":0,"TOWNNAME":"北區","LI":"成德里","LIN":"26鄰","STREET":"和緯路","SECT":"二段","MAREA":" ","LANE":" ","ALLEY":" ","HOUSE_NO":"２３９號","E_COORD97":168454.22,"N_COORD97":2545857.9900000002,"ADDRESS":"和緯路二段２３９號","OBJECTID":481448},"geometry":{"x":168454.22000000067,"y":2545857.9900000002}},{"attributes":{"ID":481474,"DIS_CODE":0,"TOWNNAME":"北區","LI":"成功里","LIN":"26鄰","STREET":"中華北路","SECT":"二段","MAREA":" ","LANE":" ","ALLEY":" ","HOUSE_NO":"２５６號","E_COORD97":168730.04999999999,"N_COORD97":2546929.6200000001,"ADDRESS":"中華北路二段２５６號","OBJECTID":481449},"geometry":{"x":168730.05000000075,"y":2546929.620000001}},{"attributes":{"ID":481475,"DIS_CODE":0,"TOWNNAME":"北區","LI":"成功里","LIN":"26鄰","STREET":"中華北路","SECT":"二段","MAREA":" ","LANE":" ","ALLEY":" ","HOUSE_NO":"２５７號","E_COORD97":168736.39999999999,"N_COORD97":2546930.5699999998,"ADDRESS":"中華北路二段２５７號","OBJECTID":481450},"geometry":{"x":168736.39999999944,"y":2546930.5700000022}},{"attributes":{"ID":481476,"DIS_CODE":0,"TOWNNAME":"北區","LI":"成功里","LIN":"26鄰","STREET":"中華北路","SECT":"二段","MAREA":" ","LANE":" ","ALLEY":" ","HOUSE_NO":"２５８號","E_COORD97":168742.89999999999,"N_COORD97":2546931.8399999999,"ADDRESS":"中華北路二段２５８號","OBJECTID":481451},"geometry":{"x":168742.90000000037,"y":2546931.8400000017}},{"attributes":{"ID":481477,"DIS_CODE":0,"TOWNNAME":"北區","LI":"成功里","LIN":"26鄰","STREET":"中華北路","SECT":"二段","MAREA":" ","LANE":" ","ALLEY":" ","HOUSE_NO":"２５９號","E_COORD97":168747.51000000001,"N_COORD97":2546933.5899999999,"ADDRESS":"中華北路二段２５９號","OBJECTID":481452},"geometry":{"x":168747.51000000071,"y":2546933.5900000017}},{"attributes":{"ID":481478,"DIS_CODE":0,"TOWNNAME":"北區","LI":"成功里","LIN":"26鄰","STREET":"中華北路","SECT":"二段","MAREA":" ","LANE":" ","ALLEY":" ","HOUSE_NO":"２６０號","E_COORD97":168753.54000000001,"N_COORD97":2546933.75,"ADDRESS":"中華北路二段２６０號","OBJECTID":481453},"geometry":{"x":168753.54000000004,"y":2546933.75}},{"attributes":{"ID":481479,"DIS_CODE":0,"TOWNNAME":"北區","LI":"成功里","LIN":"26鄰","STREET":"中華北路","SECT":"二段","MAREA":" ","LANE":" ","ALLEY":" ","HOUSE_NO":"２６７號","E_COORD97":168789.26000000001,"N_COORD97":2546938.0299999998,"ADDRESS":"中華北路二段２６７號","OBJECTID":481454},"geometry":{"x":168789.25999999885,"y":2546938.0299999993}},{"attributes":{"ID":481480,"DIS_CODE":0,"TOWNNAME":"北區","LI":"文元里","LIN":"26鄰","STREET":"文賢三街","SECT":" ","MAREA":" ","LANE":" ","ALLEY":" ","HOUSE_NO":"２４７號","E_COORD97":167803.75,"N_COORD97":2546069.8399999999,"ADDRESS":"文賢三街２４７號","OBJECTID":481455},"geometry":{"x":167803.75000000093,"y":2546069.8400000036}},{"attributes":{"ID":481481,"DIS_CODE":0,"TOWNNAME":"關廟區","LI":"香洋里","LIN":"26鄰","STREET":"南雄路","SECT":"一段","MAREA":" ","LANE":" ","ALLEY":" ","HOUSE_NO":"１１０８號","E_COORD97":181092.73999999999,"N_COORD97":2539786.2799999998,"ADDRESS":"南雄路一段１１０８號","OBJECTID":481456},"geometry":{"x":181092.74000000115,"y":2539786.2799999993}},{"attributes":{"ID":481482,"DIS_CODE":0,"TOWNNAME":"新營區","LI":"三仙里","LIN":"26鄰","STREET":"育德街","SECT":" ","MAREA":" ","LANE":" ","ALLEY":" ","HOUSE_NO":"４７號","E_COORD97":179594,"N_COORD97":2579035.3500000001,"ADDRESS":"育德街４７號","OBJECTID":481457},"geometry":{"x":179594,"y":2579035.3500000015}},{"attributes":{"ID":481483,"DIS_CODE":0,"TOWNNAME":"新營區","LI":"大宏里","LIN":"26鄰","STREET":"民族路","SECT":" ","MAREA":" ","LANE":" ","ALLEY":" ","HOUSE_NO":"９號之５","E_COORD97":180250.78,"N_COORD97":2578429.8399999999,"ADDRESS":"民族路９號之５","OBJECTID":481458},"geometry":{"x":180250.77999999933,"y":2578429.8399999999}},{"attributes":{"ID":481484,"DIS_CODE":0,"TOWNNAME":"新營區","LI":"王公里","LIN":"26鄰","STREET":"大公街","SECT":" ","MAREA":" ","LANE":" ","ALLEY":" ","HOUSE_NO":"３２號","E_COORD97":180194.26000000001,"N_COORD97":2579654.8900000001,"ADDRESS":"大公街３２號","OBJECTID":481459},"geometry":{"x":180194.25999999978,"y":2579654.8899999987}},{"attributes":{"ID":481485,"DIS_CODE":0,"TOWNNAME":"歸仁區","LI":"歸仁里","LIN":"26鄰","STREET":"文化一街","SECT":" ","MAREA":" ","LANE":" ","ALLEY":" ","HOUSE_NO":"３９號","E_COORD97":178192.81,"N_COORD97":2541228.2999999998,"ADDRESS":"文化一街３９號","OBJECTID":481460},"geometry":{"x":178192.81000000052,"y":2541228.3000000007}},{"attributes":{"ID":481486,"DIS_CODE":0,"TOWNNAME":"歸仁區","LI":"歸仁里","LIN":"26鄰","STREET":"文化一街","SECT":" ","MAREA":" ","LANE":" ","ALLEY":" ","HOUSE_NO":"１０號","E_COORD97":178232.72,"N_COORD97":2541244.5,"ADDRESS":"文化一街１０號","OBJECTID":481461},"geometry":{"x":178232.71999999974,"y":2541244.5000000019}},{"attributes":{"ID":481487,"DIS_CODE":0,"TOWNNAME":"歸仁區","LI":"歸仁里","LIN":"26鄰","STREET":"文化一街","SECT":" ","MAREA":" ","LANE":" ","ALLEY":" ","HOUSE_NO":"２號","E_COORD97":178226.95000000001,"N_COORD97":2541253.1899999999,"ADDRESS":"文化一街２號","OBJECTID":481462},"geometry":{"x":178226.95000000019,"y":2541253.1900000013}},{"attributes":{"ID":481488,"DIS_CODE":0,"TOWNNAME":"歸仁區","LI":"歸仁里","LIN":"26鄰","STREET":"文化一街","SECT":" ","MAREA":" ","LANE":" ","ALLEY":" ","HOUSE_NO":"６號","E_COORD97":178228.70999999999,"N_COORD97":2541250.1600000001,"ADDRESS":"文化一街６號","OBJECTID":481463},"geometry":{"x":178228.71000000183,"y":2541250.1600000039}},{"attributes":{"ID":481489,"DIS_CODE":0,"TOWNNAME":"歸仁區","LI":"歸仁里","LIN":"26鄰","STREET":"文化一街","SECT":" ","MAREA":" ","LANE":" ","ALLEY":" ","HOUSE_NO":"８號","E_COORD97":178230.64999999999,"N_COORD97":2541247.54,"ADDRESS":"文化一街８號","OBJECTID":481464},"geometry":{"x":178230.65000000037,"y":2541247.540000001}},{"attributes":{"ID":481490,"DIS_CODE":0,"TOWNNAME":"歸仁區","LI":"歸仁里","LIN":"26鄰","STREET":"文化一街","SECT":" ","MAREA":" ","LANE":" ","ALLEY":" ","HOUSE_NO":"２５號","E_COORD97":178219.38,"N_COORD97":2541247.1299999999,"ADDRESS":"文化一街２５號","OBJECTID":481465},"geometry":{"x":178219.38000000082,"y":2541247.1300000008}},{"attributes":{"ID":481491,"DIS_CODE":0,"TOWNNAME":"歸仁區","LI":"歸仁里","LIN":"26鄰","STREET":"文化一街","SECT":" ","MAREA":" ","LANE":" ","ALLEY":" ","HOUSE_NO":"２７號","E_COORD97":178215.73999999999,"N_COORD97":2541244.6000000001,"ADDRESS":"文化一街２７號","OBJECTID":481466},"geometry":{"x":178215.74000000115,"y":2541244.6000000015}},{"attributes":{"ID":481492,"DIS_CODE":0,"TOWNNAME":"歸仁區","LI":"歸仁里","LIN":"26鄰","STREET":"文化一街","SECT":" ","MAREA":" ","LANE":" ","ALLEY":" ","HOUSE_NO":"２９號","E_COORD97":178212.19,"N_COORD97":2541241.8700000001,"ADDRESS":"文化一街２９號","OBJECTID":481467},"geometry":{"x":178212.19000000041,"y":2541241.870000001}},{"attributes":{"ID":481493,"DIS_CODE":0,"TOWNNAME":"歸仁區","LI":"歸仁里","LIN":"26鄰","STREET":"文化一街","SECT":" ","MAREA":" ","LANE":" ","ALLEY":" ","HOUSE_NO":"３１號","E_COORD97":178208.20000000001,"N_COORD97":2541239.3199999998,"ADDRESS":"文化一街３１號","OBJECTID":481468},"geometry":{"x":178208.20000000019,"y":2541239.3200000022}},{"attributes":{"ID":481494,"DIS_CODE":0,"TOWNNAME":"歸仁區","LI":"歸仁里","LIN":"26鄰","STREET":"文化一街","SECT":" ","MAREA":" ","LANE":" ","ALLEY":" ","HOUSE_NO":"３３號","E_COORD97":178204.39999999999,"N_COORD97":2541236.8399999999,"ADDRESS":"文化一街３３號","OBJECTID":481469},"geometry":{"x":178204.4000000013,"y":2541236.8399999999}},{"attributes":{"ID":481495,"DIS_CODE":0,"TOWNNAME":"歸仁區","LI":"歸仁里","LIN":"26鄰","STREET":"文化一街","SECT":" ","MAREA":" ","LANE":" ","ALLEY":" ","HOUSE_NO":"３５號","E_COORD97":178200.32000000001,"N_COORD97":2541233.6699999999,"ADDRESS":"文化一街３５號","OBJECTID":481470},"geometry":{"x":178200.32000000123,"y":2541233.6700000018}},{"attributes":{"ID":481496,"DIS_CODE":0,"TOWNNAME":"南區","LI":"文南里","LIN":"26鄰","STREET":"仁南四街","SECT":" ","MAREA":" ","LANE":" ","ALLEY":" ","HOUSE_NO":"１６號","E_COORD97":166491.95999999999,"N_COORD97":2542776.5499999998,"ADDRESS":"仁南四街１６號","OBJECTID":481471},"geometry":{"x":166491.96000000089,"y":2542776.5500000007}},{"attributes":{"ID":481497,"DIS_CODE":0,"TOWNNAME":"南區","LI":"文南里","LIN":"26鄰","STREET":"仁南四街","SECT":" ","MAREA":" ","LANE":" ","ALLEY":" ","HOUSE_NO":"１８號","E_COORD97":166487.17999999999,"N_COORD97":2542776.98,"ADDRESS":"仁南四街１８號","OBJECTID":481472},"geometry":{"x":166487.1799999997,"y":2542776.9799999986}},{"attributes":{"ID":481498,"DIS_CODE":0,"TOWNNAME":"南區","LI":"文南里","LIN":"26鄰","STREET":"仁南四街","SECT":" ","MAREA":" ","LANE":" ","ALLEY":" ","HOUSE_NO":"２０號","E_COORD97":166482.85000000001,"N_COORD97":2542777.8500000001,"ADDRESS":"仁南四街２０號","OBJECTID":481473},"geometry":{"x":166482.84999999963,"y":2542777.8500000015}},{"attributes":{"ID":481499,"DIS_CODE":0,"TOWNNAME":"南區","LI":"文南里","LIN":"26鄰","STREET":"仁南四街","SECT":" ","MAREA":" ","LANE":" ","ALLEY":" ","HOUSE_NO":"２２號","E_COORD97":166478.94,"N_COORD97":2542778.0600000001,"ADDRESS":"仁南四街２２號","OBJECTID":481474},"geometry":{"x":166478.94000000134,"y":2542778.0600000024}},{"attributes":{"ID":481500,"DIS_CODE":0,"TOWNNAME":"南區","LI":"文南里","LIN":"26鄰","STREET":"仁南四街","SECT":" ","MAREA":" ","LANE":" ","ALLEY":" ","HOUSE_NO":"２４號","E_COORD97":166474.39000000001,"N_COORD97":2542778.7200000002,"ADDRESS":"仁南四街２４號","OBJECTID":481475},"geometry":{"x":166474.39000000153,"y":2542778.7200000007}},{"attributes":{"ID":481501,"DIS_CODE":0,"TOWNNAME":"南區","LI":"文南里","LIN":"26鄰","STREET":"仁南四街","SECT":" ","MAREA":" ","LANE":" ","ALLEY":" ","HOUSE_NO":"２６號","E_COORD97":166470.04999999999,"N_COORD97":2542778.9300000002,"ADDRESS":"仁南四街２６號","OBJECTID":481476},"geometry":{"x":166470.05000000168,"y":2542778.9299999997}},{"attributes":{"ID":481502,"DIS_CODE":0,"TOWNNAME":"南區","LI":"文南里","LIN":"26鄰","STREET":"仁南四街","SECT":" ","MAREA":" ","LANE":" ","ALLEY":" ","HOUSE_NO":"２８號","E_COORD97":166466.14000000001,"N_COORD97":2542779.7999999998,"ADDRESS":"仁南四街２８號","OBJECTID":481477},"geometry":{"x":166466.1400000006,"y":2542779.8000000026}},{"attributes":{"ID":481503,"DIS_CODE":0,"TOWNNAME":"南區","LI":"文南里","LIN":"26鄰","STREET":"仁南四街","SECT":" ","MAREA":" ","LANE":" ","ALLEY":" ","HOUSE_NO":"３０號","E_COORD97":166461.14999999999,"N_COORD97":2542780.23,"ADDRESS":"仁南四街３０號","OBJECTID":481478},"geometry":{"x":166461.15000000037,"y":2542780.2300000023}},{"attributes":{"ID":481504,"DIS_CODE":0,"TOWNNAME":"南區","LI":"文南里","LIN":"26鄰","STREET":"仁南四街","SECT":" ","MAREA":" ","LANE":" ","ALLEY":" ","HOUSE_NO":"３２號","E_COORD97":166457.45999999999,"N_COORD97":2542780.8799999999,"ADDRESS":"仁南四街３２號","OBJECTID":481479},"geometry":{"x":166457.46000000089,"y":2542780.8800000008}},{"attributes":{"ID":481505,"DIS_CODE":0,"TOWNNAME":"南區","LI":"文南里","LIN":"26鄰","STREET":"仁南四街","SECT":" ","MAREA":" ","LANE":" ","ALLEY":" ","HOUSE_NO":"３４號","E_COORD97":166452.26000000001,"N_COORD97":2542781.1000000001,"ADDRESS":"仁南四街３４號","OBJECTID":481480},"geometry":{"x":166452.26000000071,"y":2542781.0999999996}},{"attributes":{"ID":481506,"DIS_CODE":0,"TOWNNAME":"南區","LI":"文南里","LIN":"26鄰","STREET":"仁南四街","SECT":" ","MAREA":" ","LANE":" ","ALLEY":" ","HOUSE_NO":"３６號","E_COORD97":166448.35000000001,"N_COORD97":2542781.75,"ADDRESS":"仁南四街３６號","OBJECTID":481481},"geometry":{"x":166448.35000000056,"y":2542781.7500000037}},{"attributes":{"ID":481507,"DIS_CODE":0,"TOWNNAME":"南區","LI":"文南里","LIN":"26鄰","STREET":"仁南四街","SECT":" ","MAREA":" ","LANE":" ","ALLEY":" ","HOUSE_NO":"３８號","E_COORD97":166444.01000000001,"N_COORD97":2542781.75,"ADDRESS":"仁南四街３８號","OBJECTID":481482},"geometry":{"x":166444.01000000071,"y":2542781.7500000037}},{"attributes":{"ID":481508,"DIS_CODE":0,"TOWNNAME":"南區","LI":"文南里","LIN":"26鄰","STREET":"仁南四街","SECT":" ","MAREA":" ","LANE":" ","ALLEY":" ","HOUSE_NO":"４０號","E_COORD97":166439.03,"N_COORD97":2542782.3999999999,"ADDRESS":"仁南四街４０號","OBJECTID":481483},"geometry":{"x":166439.03000000119,"y":2542782.4000000022}},{"attributes":{"ID":481509,"DIS_CODE":0,"TOWNNAME":"南區","LI":"文南里","LIN":"26鄰","STREET":"仁南四街","SECT":" ","MAREA":" ","LANE":" ","ALLEY":" ","HOUSE_NO":"４２號","E_COORD97":166434.67999999999,"N_COORD97":2542783.0499999998,"ADDRESS":"仁南四街４２號","OBJECTID":481484},"geometry":{"x":166434.6799999997,"y":2542783.0500000007}},{"attributes":{"ID":481510,"DIS_CODE":0,"TOWNNAME":"南區","LI":"文南里","LIN":"26鄰","STREET":"仁南四街","SECT":" ","MAREA":" ","LANE":" ","ALLEY":" ","HOUSE_NO":"４６號","E_COORD97":166430.79000000001,"N_COORD97":2542783.48,"ADDRESS":"仁南四街４６號","OBJECTID":481485},"geometry":{"x":166430.79000000004,"y":2542783.4800000004}},{"attributes":{"ID":481511,"DIS_CODE":0,"TOWNNAME":"南區","LI":"文南里","LIN":"26鄰","STREET":"仁南四街","SECT":" ","MAREA":" ","LANE":" ","ALLEY":" ","HOUSE_NO":"４８號","E_COORD97":166426.44,"N_COORD97":2542783.7000000002,"ADDRESS":"仁南四街４８號","OBJECTID":481486},"geometry":{"x":166426.44000000134,"y":2542783.6999999993}},{"attributes":{"ID":481512,"DIS_CODE":0,"TOWNNAME":"南區","LI":"大忠里","LIN":"26鄰","STREET":"國民路","SECT":" ","MAREA":" ","LANE":" ","ALLEY":" ","HOUSE_NO":"２１０號","E_COORD97":169084.88,"N_COORD97":2540979.9399999999,"ADDRESS":"國民路２１０號","OBJECTID":481487},"geometry":{"x":169084.87999999989,"y":2540979.9400000013}},{"attributes":{"ID":481513,"DIS_CODE":0,"TOWNNAME":"南區","LI":"大忠里","LIN":"26鄰","STREET":"國民路","SECT":" ","MAREA":" ","LANE":" ","ALLEY":" ","HOUSE_NO":"２１２號","E_COORD97":169081.98000000001,"N_COORD97":2540983.2000000002,"ADDRESS":"國民路２１２號","OBJECTID":481488},"geometry":{"x":169081.98000000231,"y":2540983.1999999993}},{"attributes":{"ID":481514,"DIS_CODE":0,"TOWNNAME":"南區","LI":"大忠里","LIN":"26鄰","STREET":"國民路","SECT":" ","MAREA":" ","LANE":" ","ALLEY":" ","HOUSE_NO":"２１４號","E_COORD97":169079.07000000001,"N_COORD97":2540986.46,"ADDRESS":"國民路２１４號","OBJECTID":481489},"geometry":{"x":169079.0700000003,"y":2540986.4600000009}},{"attributes":{"ID":481515,"DIS_CODE":0,"TOWNNAME":"南區","LI":"大忠里","LIN":"26鄰","STREET":"國民路","SECT":" ","MAREA":" ","LANE":" ","ALLEY":" ","HOUSE_NO":"２１６號","E_COORD97":169076.70999999999,"N_COORD97":2540990.0800000001,"ADDRESS":"國民路２１６號","OBJECTID":481490},"geometry":{"x":169076.71000000089,"y":2540990.0800000019}},{"attributes":{"ID":481516,"DIS_CODE":0,"TOWNNAME":"南區","LI":"大忠里","LIN":"26鄰","STREET":"國民路","SECT":" ","MAREA":" ","LANE":" ","ALLEY":" ","HOUSE_NO":"２１８號","E_COORD97":169073.79999999999,"N_COORD97":2540993.7000000002,"ADDRESS":"國民路２１８號","OBJECTID":481491},"geometry":{"x":169073.79999999888,"y":2540993.6999999993}},{"attributes":{"ID":481517,"DIS_CODE":0,"TOWNNAME":"南區","LI":"大忠里","LIN":"26鄰","STREET":"國民路","SECT":" ","MAREA":" ","LANE":" ","ALLEY":" ","HOUSE_NO":"２２０號","E_COORD97":169071.44,"N_COORD97":2540996.7799999998,"ADDRESS":"國民路２２０號","OBJECTID":481492},"geometry":{"x":169071.44000000041,"y":2540996.7799999993}},{"attributes":{"ID":481518,"DIS_CODE":0,"TOWNNAME":"南區","LI":"大忠里","LIN":"26鄰","STREET":"國民路","SECT":" ","MAREA":" ","LANE":" ","ALLEY":" ","HOUSE_NO":"２２２號","E_COORD97":169067.98999999999,"N_COORD97":2541000.77,"ADDRESS":"國民路２２２號","OBJECTID":481493},"geometry":{"x":169067.99000000209,"y":2541000.7699999996}},{"attributes":{"ID":481519,"DIS_CODE":0,"TOWNNAME":"南區","LI":"大忠里","LIN":"26鄰","STREET":"國民路","SECT":" ","MAREA":" ","LANE":" ","ALLEY":" ","HOUSE_NO":"２２４號","E_COORD97":169065.44,"N_COORD97":2541004.0299999998,"ADDRESS":"國民路２２４號","OBJECTID":481494},"geometry":{"x":169065.44000000134,"y":2541004.0300000012}},{"attributes":{"ID":481520,"DIS_CODE":0,"TOWNNAME":"南區","LI":"大忠里","LIN":"26鄰","STREET":"國民路","SECT":" ","MAREA":" ","LANE":" ","ALLEY":" ","HOUSE_NO":"２２６號","E_COORD97":169063.26000000001,"N_COORD97":2541007.29,"ADDRESS":"國民路２２６號","OBJECTID":481495},"geometry":{"x":169063.25999999978,"y":2541007.2900000028}},{"attributes":{"ID":481521,"DIS_CODE":0,"TOWNNAME":"南區","LI":"大忠里","LIN":"26鄰","STREET":"國民路","SECT":" ","MAREA":" ","LANE":" ","ALLEY":" ","HOUSE_NO":"２２８號","E_COORD97":169059.98999999999,"N_COORD97":2541010.5499999998,"ADDRESS":"國民路２２８號","OBJECTID":481496},"geometry":{"x":169059.99000000115,"y":2541010.5500000045}},{"attributes":{"ID":481522,"DIS_CODE":0,"TOWNNAME":"南區","LI":"大忠里","LIN":"26鄰","STREET":"國民路","SECT":" ","MAREA":" ","LANE":" ","ALLEY":" ","HOUSE_NO":"２３０號","E_COORD97":169057.26999999999,"N_COORD97":2541014.3500000001,"ADDRESS":"國民路２３０號","OBJECTID":481497},"geometry":{"x":169057.27000000048,"y":2541014.3500000034}},{"attributes":{"ID":481523,"DIS_CODE":0,"TOWNNAME":"南區","LI":"大忠里","LIN":"26鄰","STREET":"國民路","SECT":" ","MAREA":" ","LANE":" ","ALLEY":" ","HOUSE_NO":"２３２號","E_COORD97":169054.72,"N_COORD97":2541017.25,"ADDRESS":"國民路２３２號","OBJECTID":481498},"geometry":{"x":169054.72000000067,"y":2541017.25}},{"attributes":{"ID":481524,"DIS_CODE":0,"TOWNNAME":"南區","LI":"大忠里","LIN":"26鄰","STREET":"國民路","SECT":" ","MAREA":" ","LANE":" ","ALLEY":" ","HOUSE_NO":"２３４號","E_COORD97":169051.82000000001,"N_COORD97":2541020.5099999998,"ADDRESS":"國民路２３４號","OBJECTID":481499},"geometry":{"x":169051.8200000003,"y":2541020.5100000016}},{"attributes":{"ID":481525,"DIS_CODE":0,"TOWNNAME":"南區","LI":"大忠里","LIN":"26鄰","STREET":"國民路","SECT":" ","MAREA":" ","LANE":" ","ALLEY":" ","HOUSE_NO":"２３６號","E_COORD97":169049.09,"N_COORD97":2541023.5899999999,"ADDRESS":"國民路２３６號","OBJECTID":481500},"geometry":{"x":169049.09000000078,"y":2541023.5900000017}},{"attributes":{"ID":481526,"DIS_CODE":0,"TOWNNAME":"新營區","LI":"新東里","LIN":"26鄰","STREET":"東興路","SECT":" ","MAREA":" ","LANE":" ","ALLEY":" ","HOUSE_NO":"１９７號","E_COORD97":180751.04000000001,"N_COORD97":2579495.0099999998,"ADDRESS":"東興路１９７號","OBJECTID":481501},"geometry":{"x":180751.04000000097,"y":2579495.0100000016}},{"attributes":{"ID":481527,"DIS_CODE":0,"TOWNNAME":"新營區","LI":"新東里","LIN":"26鄰","STREET":"東興路","SECT":" ","MAREA":" ","LANE":" ","ALLEY":" ","HOUSE_NO":"１９９號","E_COORD97":180750.91,"N_COORD97":2579500.5099999998,"ADDRESS":"東興路１９９號","OBJECTID":481502},"geometry":{"x":180750.91000000015,"y":2579500.5099999998}},{"attributes":{"ID":481528,"DIS_CODE":0,"TOWNNAME":"東山區","LI":"東中里","LIN":"26鄰","STREET":"東仁街","SECT":" ","MAREA":" ","LANE":" ","ALLEY":" ","HOUSE_NO":"４２號","E_COORD97":188834.82999999999,"N_COORD97":2579832.6400000001,"ADDRESS":"東仁街４２號","OBJECTID":481503},"geometry":{"x":188834.83000000194,"y":2579832.6400000006}},{"attributes":{"ID":481529,"DIS_CODE":0,"TOWNNAME":"東山區","LI":"東中里","LIN":"26鄰","STREET":"東仁街","SECT":" ","MAREA":" ","LANE":" ","ALLEY":" ","HOUSE_NO":"４６號","E_COORD97":188830.51999999999,"N_COORD97":2579834.5600000001,"ADDRESS":"東仁街４６號","OBJECTID":481504},"geometry":{"x":188830.51999999955,"y":2579834.5600000024}},{"attributes":{"ID":481530,"DIS_CODE":0,"TOWNNAME":"東山區","LI":"東中里","LIN":"26鄰","STREET":"東仁街","SECT":" ","MAREA":" ","LANE":" ","ALLEY":" ","HOUSE_NO":"４８號","E_COORD97":188827,"N_COORD97":2579835.9700000002,"ADDRESS":"東仁街４８號","OBJECTID":481505},"geometry":{"x":188827.00000000093,"y":2579835.9700000025}},{"attributes":{"ID":481531,"DIS_CODE":0,"TOWNNAME":"東山區","LI":"東中里","LIN":"26鄰","STREET":"東仁街","SECT":" ","MAREA":" ","LANE":" ","ALLEY":" ","HOUSE_NO":"５０號","E_COORD97":188822.85999999999,"N_COORD97":2579837.5099999998,"ADDRESS":"東仁街５０號","OBJECTID":481506},"geometry":{"x":188822.86000000034,"y":2579837.5100000016}},{"attributes":{"ID":481532,"DIS_CODE":0,"TOWNNAME":"東山區","LI":"東中里","LIN":"26鄰","STREET":"東仁街","SECT":" ","MAREA":" ","LANE":" ","ALLEY":" ","HOUSE_NO":"６２號","E_COORD97":188803.28,"N_COORD97":2579846.6299999999,"ADDRESS":"東仁街６２號","OBJECTID":481507},"geometry":{"x":188803.28000000212,"y":2579846.6300000008}},{"attributes":{"ID":481533,"DIS_CODE":0,"TOWNNAME":"東山區","LI":"東中里","LIN":"26鄰","STREET":"東仁街","SECT":" ","MAREA":" ","LANE":" ","ALLEY":" ","HOUSE_NO":"６６號","E_COORD97":188799.16,"N_COORD97":2579847.8700000001,"ADDRESS":"東仁街６６號","OBJECTID":481508},"geometry":{"x":188799.16000000108,"y":2579847.870000001}},{"attributes":{"ID":481534,"DIS_CODE":0,"TOWNNAME":"東山區","LI":"東中里","LIN":"26鄰","STREET":"東仁街","SECT":" ","MAREA":" ","LANE":" ","ALLEY":" ","HOUSE_NO":"６８號","E_COORD97":188794.20000000001,"N_COORD97":2579850.1699999999,"ADDRESS":"東仁街６８號","OBJECTID":481509},"geometry":{"x":188794.20000000112,"y":2579850.1700000018}},{"attributes":{"ID":481535,"DIS_CODE":0,"TOWNNAME":"東山區","LI":"東中里","LIN":"26鄰","STREET":"東仁街","SECT":" ","MAREA":" ","LANE":" ","ALLEY":" ","HOUSE_NO":"７０號","E_COORD97":188775.37,"N_COORD97":2579855.5,"ADDRESS":"東仁街７０號","OBJECTID":481510},"geometry":{"x":188775.37000000197,"y":2579855.5}},{"attributes":{"ID":481536,"DIS_CODE":0,"TOWNNAME":"東山區","LI":"東中里","LIN":"26鄰","STREET":"東仁街","SECT":" ","MAREA":" ","LANE":" ","ALLEY":" ","HOUSE_NO":"７８號","E_COORD97":188762.03,"N_COORD97":2579861.9199999999,"ADDRESS":"東仁街７８號","OBJECTID":481511},"geometry":{"x":188762.03000000026,"y":2579861.9200000018}},{"attributes":{"ID":481537,"DIS_CODE":0,"TOWNNAME":"東山區","LI":"東中里","LIN":"26鄰","STREET":"東仁街","SECT":" ","MAREA":" ","LANE":" ","ALLEY":" ","HOUSE_NO":"８２號","E_COORD97":188750.79000000001,"N_COORD97":2579865.1699999999,"ADDRESS":"東仁街８２號","OBJECTID":481512},"geometry":{"x":188750.79000000097,"y":2579865.1699999999}},{"attributes":{"ID":481538,"DIS_CODE":0,"TOWNNAME":"東山區","LI":"東中里","LIN":"26鄰","STREET":"東仁街","SECT":" ","MAREA":" ","LANE":" ","ALLEY":" ","HOUSE_NO":"８６號","E_COORD97":188743.75,"N_COORD97":2579868.8900000001,"ADDRESS":"東仁街８６號","OBJECTID":481513},"geometry":{"x":188743.75000000186,"y":2579868.8900000043}},{"attributes":{"ID":481539,"DIS_CODE":0,"TOWNNAME":"東山區","LI":"東中里","LIN":"26鄰","STREET":"東仁街","SECT":" ","MAREA":" ","LANE":" ","ALLEY":" ","HOUSE_NO":"８８號","E_COORD97":188739.79999999999,"N_COORD97":2579870.52,"ADDRESS":"東仁街８８號","OBJECTID":481514},"geometry":{"x":188739.80000000168,"y":2579870.5200000014}},{"attributes":{"ID":481540,"DIS_CODE":0,"TOWNNAME":"東山區","LI":"東中里","LIN":"26鄰","STREET":"東仁街","SECT":" ","MAREA":" ","LANE":" ","ALLEY":" ","HOUSE_NO":"９０號","E_COORD97":188735.48999999999,"N_COORD97":2579872.2999999998,"ADDRESS":"東仁街９０號","OBJECTID":481515},"geometry":{"x":188735.48999999929,"y":2579872.3000000007}},{"attributes":{"ID":481541,"DIS_CODE":0,"TOWNNAME":"東山區","LI":"東中里","LIN":"26鄰","STREET":"東仁街","SECT":" ","MAREA":" ","LANE":" ","ALLEY":" ","HOUSE_NO":"９２號","E_COORD97":188730.78,"N_COORD97":2579874.1499999999,"ADDRESS":"東仁街９２號","OBJECTID":481516},"geometry":{"x":188730.78000000119,"y":2579874.1500000022}},{"attributes":{"ID":481542,"DIS_CODE":0,"TOWNNAME":"東山區","LI":"東中里","LIN":"26鄰","STREET":"成功街","SECT":" ","MAREA":" ","LANE":" ","ALLEY":" ","HOUSE_NO":"１０號","E_COORD97":188789.54000000001,"N_COORD97":2579880.4199999999,"ADDRESS":"成功街１０號","OBJECTID":481517},"geometry":{"x":188789.54000000097,"y":2579880.4199999999}},{"attributes":{"ID":481543,"DIS_CODE":0,"TOWNNAME":"東山區","LI":"東中里","LIN":"26鄰","STREET":"成功街","SECT":" ","MAREA":" ","LANE":" ","ALLEY":" ","HOUSE_NO":"１２號","E_COORD97":188789.20000000001,"N_COORD97":2579886.2200000002,"ADDRESS":"成功街１２號","OBJECTID":481518},"geometry":{"x":188789.20000000019,"y":2579886.2200000007}},{"attributes":{"ID":481544,"DIS_CODE":0,"TOWNNAME":"東山區","LI":"東中里","LIN":"26鄰","STREET":"成功街","SECT":" ","MAREA":" ","LANE":" ","ALLEY":" ","HOUSE_NO":"１６號","E_COORD97":188788.89999999999,"N_COORD97":2579894.4700000002,"ADDRESS":"成功街１６號","OBJECTID":481519},"geometry":{"x":188788.90000000224,"y":2579894.4700000007}},{"attributes":{"ID":481545,"DIS_CODE":0,"TOWNNAME":"東山區","LI":"東中里","LIN":"26鄰","STREET":"和平街","SECT":" ","MAREA":" ","LANE":" ","ALLEY":" ","HOUSE_NO":"１１號","E_COORD97":188852.98999999999,"N_COORD97":2579883.52,"ADDRESS":"和平街１１號","OBJECTID":481520},"geometry":{"x":188852.99000000115,"y":2579883.5199999977}},{"attributes":{"ID":481546,"DIS_CODE":0,"TOWNNAME":"東山區","LI":"東中里","LIN":"26鄰","STREET":"和平街","SECT":" ","MAREA":" ","LANE":" ","ALLEY":" ","HOUSE_NO":"１３號","E_COORD97":188848.67000000001,"N_COORD97":2579884.6499999999,"ADDRESS":"和平街１３號","OBJECTID":481521},"geometry":{"x":188848.66999999993,"y":2579884.6500000022}},{"attributes":{"ID":481547,"DIS_CODE":0,"TOWNNAME":"東山區","LI":"東中里","LIN":"26鄰","STREET":"和平街","SECT":" ","MAREA":" ","LANE":" ","ALLEY":" ","HOUSE_NO":"１５號","E_COORD97":188844.20000000001,"N_COORD97":2579885.54,"ADDRESS":"和平街１５號","OBJECTID":481522},"geometry":{"x":188844.19999999925,"y":2579885.5399999991}},{"attributes":{"ID":481548,"DIS_CODE":0,"TOWNNAME":"東山區","LI":"東中里","LIN":"26鄰","STREET":"和平街","SECT":" ","MAREA":" ","LANE":" ","ALLEY":" ","HOUSE_NO":"１７號","E_COORD97":188840.16,"N_COORD97":2579886.6699999999,"ADDRESS":"和平街１７號","OBJECTID":481523},"geometry":{"x":188840.16000000108,"y":2579886.6700000037}},{"attributes":{"ID":481549,"DIS_CODE":0,"TOWNNAME":"東山區","LI":"東中里","LIN":"26鄰","STREET":"和平街","SECT":" ","MAREA":" ","LANE":" ","ALLEY":" ","HOUSE_NO":"２５號","E_COORD97":188822.85000000001,"N_COORD97":2579890.0800000001,"ADDRESS":"和平街２５號","OBJECTID":481524},"geometry":{"x":188822.85000000056,"y":2579890.0800000001}},{"attributes":{"ID":481550,"DIS_CODE":0,"TOWNNAME":"東山區","LI":"東中里","LIN":"26鄰","STREET":"和平街","SECT":" ","MAREA":" ","LANE":" ","ALLEY":" ","HOUSE_NO":"２７號","E_COORD97":188817.12,"N_COORD97":2579891.4300000002,"ADDRESS":"和平街２７號","OBJECTID":481525},"geometry":{"x":188817.12000000011,"y":2579891.4300000034}},{"attributes":{"ID":481551,"DIS_CODE":0,"TOWNNAME":"東山區","LI":"東中里","LIN":"26鄰","STREET":"和平街","SECT":" ","MAREA":" ","LANE":" ","ALLEY":" ","HOUSE_NO":"２９號","E_COORD97":188811.48000000001,"N_COORD97":2579893.1600000001,"ADDRESS":"和平街２９號","OBJECTID":481526},"geometry":{"x":188811.48000000045,"y":2579893.1600000001}},{"attributes":{"ID":481552,"DIS_CODE":0,"TOWNNAME":"東山區","LI":"東中里","LIN":"26鄰","STREET":"和平街","SECT":" ","MAREA":" ","LANE":" ","ALLEY":" ","HOUSE_NO":"３１號","E_COORD97":188806.13,"N_COORD97":2579894.8500000001,"ADDRESS":"和平街３１號","OBJECTID":481527},"geometry":{"x":188806.13000000082,"y":2579894.8499999978}},{"attributes":{"ID":481553,"DIS_CODE":0,"TOWNNAME":"東山區","LI":"東中里","LIN":"26鄰","STREET":"和平街","SECT":" ","MAREA":" ","LANE":" ","ALLEY":" ","HOUSE_NO":"９號","E_COORD97":188857.31,"N_COORD97":2579882.8799999999,"ADDRESS":"和平街９號","OBJECTID":481528},"geometry":{"x":188857.31000000052,"y":2579882.879999999}},{"attributes":{"ID":481554,"DIS_CODE":0,"TOWNNAME":"永康區","LI":"正強里","LIN":"26鄰","STREET":"正強街","SECT":" ","MAREA":" ","LANE":" ","ALLEY":" ","HOUSE_NO":"２６３號","E_COORD97":173270.54000000001,"N_COORD97":2547857.3999999999,"ADDRESS":"正強街２６３號","OBJECTID":481529},"geometry":{"x":173270.54000000097,"y":2547857.4000000022}},{"attributes":{"ID":481555,"DIS_CODE":0,"TOWNNAME":"歸仁區","LI":"媽廟里","LIN":"26鄰","STREET":"保大路","SECT":"一段","MAREA":" ","LANE":" ","ALLEY":" ","HOUSE_NO":"２１４號","E_COORD97":177526.10999999999,"N_COORD97":2544064.5099999998,"ADDRESS":"保大路一段２１４號","OBJECTID":481530},"geometry":{"x":177526.11000000034,"y":2544064.5100000035}},{"attributes":{"ID":481556,"DIS_CODE":0,"TOWNNAME":"南區","LI":"文華里","LIN":"26鄰","STREET":"建南路","SECT":" ","MAREA":" ","LANE":" ","ALLEY":" ","HOUSE_NO":"１９２號","E_COORD97":166716.01999999999,"N_COORD97":2542880.4100000001,"ADDRESS":"建南路１９２號","OBJECTID":481531},"geometry":{"x":166716.02000000048,"y":2542880.410000002}},{"attributes":{"ID":481557,"DIS_CODE":0,"TOWNNAME":"南區","LI":"文華里","LIN":"26鄰","STREET":"建南路","SECT":" ","MAREA":" ","LANE":" ","ALLEY":" ","HOUSE_NO":"１９４號","E_COORD97":166711.67000000001,"N_COORD97":2542880.52,"ADDRESS":"建南路１９４號","OBJECTID":481532},"geometry":{"x":166711.66999999993,"y":2542880.5199999996}},{"attributes":{"ID":481558,"DIS_CODE":0,"TOWNNAME":"南區","LI":"文華里","LIN":"26鄰","STREET":"建南路","SECT":" ","MAREA":" ","LANE":" ","ALLEY":" ","HOUSE_NO":"１９６號","E_COORD97":166706.04000000001,"N_COORD97":2542881.3700000001,"ADDRESS":"建南路１９６號","OBJECTID":481533},"geometry":{"x":166706.0400000019,"y":2542881.3700000029}},{"attributes":{"ID":481559,"DIS_CODE":0,"TOWNNAME":"南區","LI":"文華里","LIN":"26鄰","STREET":"建南路","SECT":" ","MAREA":" ","LANE":" ","ALLEY":" ","HOUSE_NO":"１９８號","E_COORD97":166701.57999999999,"N_COORD97":2542881.3700000001,"ADDRESS":"建南路１９８號","OBJECTID":481534},"geometry":{"x":166701.58000000007,"y":2542881.3700000029}},{"attributes":{"ID":481560,"DIS_CODE":0,"TOWNNAME":"南區","LI":"文華里","LIN":"26鄰","STREET":"建南路","SECT":" ","MAREA":" ","LANE":" ","ALLEY":" ","HOUSE_NO":"２００號","E_COORD97":166696.91,"N_COORD97":2542882,"ADDRESS":"建南路２００號","OBJECTID":481535},"geometry":{"x":166696.91000000201,"y":2542882.0000000019}},{"attributes":{"ID":481561,"DIS_CODE":0,"TOWNNAME":"南區","LI":"文華里","LIN":"26鄰","STREET":"建南路","SECT":" ","MAREA":" ","LANE":" ","ALLEY":" ","HOUSE_NO":"２０２號","E_COORD97":166692.13,"N_COORD97":2542882.2200000002,"ADDRESS":"建南路２０２號","OBJECTID":481536},"geometry":{"x":166692.13000000082,"y":2542882.2200000025}},{"attributes":{"ID":481562,"DIS_CODE":0,"TOWNNAME":"南區","LI":"文華里","LIN":"26鄰","STREET":"建南路","SECT":" ","MAREA":" ","LANE":" ","ALLEY":" ","HOUSE_NO":"２０４號","E_COORD97":166688.42000000001,"N_COORD97":2542882.8500000001,"ADDRESS":"建南路２０４號","OBJECTID":481537},"geometry":{"x":166688.42000000086,"y":2542882.8500000015}},{"attributes":{"ID":481563,"DIS_CODE":0,"TOWNNAME":"南區","LI":"文華里","LIN":"26鄰","STREET":"德南街","SECT":" ","MAREA":" ","LANE":" ","ALLEY":" ","HOUSE_NO":"１０９號","E_COORD97":166706.59,"N_COORD97":2542979.8999999999,"ADDRESS":"德南街１０９號","OBJECTID":481538},"geometry":{"x":166706.58999999985,"y":2542979.9000000004}},{"attributes":{"ID":481564,"DIS_CODE":0,"TOWNNAME":"南區","LI":"文華里","LIN":"26鄰","STREET":"德南街","SECT":" ","MAREA":" ","LANE":" ","ALLEY":" ","HOUSE_NO":"１１１號","E_COORD97":166702.42000000001,"N_COORD97":2542977.1200000001,"ADDRESS":"德南街１１１號","OBJECTID":481539},"geometry":{"x":166702.42000000086,"y":2542977.1200000048}},{"attributes":{"ID":481565,"DIS_CODE":0,"TOWNNAME":"南區","LI":"文華里","LIN":"26鄰","STREET":"德南街","SECT":" ","MAREA":" ","LANE":" ","ALLEY":" ","HOUSE_NO":"１１３號","E_COORD97":166696.73999999999,"N_COORD97":2542972.2000000002,"ADDRESS":"德南街１１３號","OBJECTID":481540},"geometry":{"x":166696.74000000115,"y":2542972.2000000011}},{"attributes":{"ID":481566,"DIS_CODE":0,"TOWNNAME":"南區","LI":"文華里","LIN":"26鄰","STREET":"德南街","SECT":" ","MAREA":" ","LANE":" ","ALLEY":" ","HOUSE_NO":"１１５號","E_COORD97":166690.32000000001,"N_COORD97":2542968.02,"ADDRESS":"德南街１１５號","OBJECTID":481541},"geometry":{"x":166690.3200000003,"y":2542968.0199999996}},{"attributes":{"ID":481567,"DIS_CODE":0,"TOWNNAME":"南區","LI":"文華里","LIN":"26鄰","STREET":"德南街","SECT":" ","MAREA":" ","LANE":" ","ALLEY":" ","HOUSE_NO":"１１９號","E_COORD97":166683.25,"N_COORD97":2542955.7200000002,"ADDRESS":"德南街１１９號","OBJECTID":481542},"geometry":{"x":166683.25000000093,"y":2542955.7200000044}},{"attributes":{"ID":481568,"DIS_CODE":0,"TOWNNAME":"南區","LI":"文華里","LIN":"26鄰","STREET":"德南街","SECT":" ","MAREA":" ","LANE":" ","ALLEY":" ","HOUSE_NO":"１２１號","E_COORD97":166681.95999999999,"N_COORD97":2542951.3399999999,"ADDRESS":"德南街１２１號","OBJECTID":481543},"geometry":{"x":166681.95999999996,"y":2542951.3400000017}},{"attributes":{"ID":481569,"DIS_CODE":0,"TOWNNAME":"南區","LI":"文華里","LIN":"26鄰","STREET":"德南街","SECT":" ","MAREA":" ","LANE":" ","ALLEY":" ","HOUSE_NO":"１２３號","E_COORD97":166681.20999999999,"N_COORD97":2542946.2000000002,"ADDRESS":"德南街１２３號","OBJECTID":481544},"geometry":{"x":166681.21000000183,"y":2542946.1999999993}},{"attributes":{"ID":481570,"DIS_CODE":0,"TOWNNAME":"南區","LI":"文華里","LIN":"26鄰","STREET":"德南街","SECT":" ","MAREA":" ","LANE":" ","ALLEY":" ","HOUSE_NO":"１２５號","E_COORD97":166680.35999999999,"N_COORD97":2542937.8599999999,"ADDRESS":"德南街１２５號","OBJECTID":481545},"geometry":{"x":166680.3599999994,"y":2542937.8600000013}},{"attributes":{"ID":481571,"DIS_CODE":0,"TOWNNAME":"南區","LI":"文華里","LIN":"26鄰","STREET":"德南街","SECT":" ","MAREA":" ","LANE":" ","ALLEY":" ","HOUSE_NO":"１２７號","E_COORD97":166678.54000000001,"N_COORD97":2542929.8399999999,"ADDRESS":"德南街１２７號","OBJECTID":481546},"geometry":{"x":166678.54000000004,"y":2542929.839999998}},{"attributes":{"ID":481572,"DIS_CODE":0,"TOWNNAME":"南區","LI":"文華里","LIN":"26鄰","STREET":"德南街","SECT":" ","MAREA":" ","LANE":" ","ALLEY":" ","HOUSE_NO":"１２９號","E_COORD97":166678.54000000001,"N_COORD97":2542924.3799999999,"ADDRESS":"德南街１２９號","OBJECTID":481547},"geometry":{"x":166678.54000000004,"y":2542924.379999999}},{"attributes":{"ID":481573,"DIS_CODE":0,"TOWNNAME":"南區","LI":"文華里","LIN":"26鄰","STREET":"德南街","SECT":" ","MAREA":" ","LANE":" ","ALLEY":" ","HOUSE_NO":"１３１號","E_COORD97":166677.89000000001,"N_COORD97":2542919.0299999998,"ADDRESS":"德南街１３１號","OBJECTID":481548},"geometry":{"x":166677.89000000153,"y":2542919.0300000012}},{"attributes":{"ID":481574,"DIS_CODE":0,"TOWNNAME":"南區","LI":"文華里","LIN":"26鄰","STREET":"德南街","SECT":" ","MAREA":" ","LANE":" ","ALLEY":" ","HOUSE_NO":"１３３號","E_COORD97":166677.04000000001,"N_COORD97":2542913.3599999999,"ADDRESS":"德南街１３３號","OBJECTID":481549},"geometry":{"x":166677.04000000004,"y":2542913.3600000013}},{"attributes":{"ID":481575,"DIS_CODE":0,"TOWNNAME":"南區","LI":"文華里","LIN":"26鄰","STREET":"德南街","SECT":" ","MAREA":" ","LANE":" ","ALLEY":" ","HOUSE_NO":"１３５號","E_COORD97":166676.82000000001,"N_COORD97":2542908.98,"ADDRESS":"德南街１３５號","OBJECTID":481550},"geometry":{"x":166676.8200000003,"y":2542908.9800000004}},{"attributes":{"ID":481576,"DIS_CODE":0,"TOWNNAME":"安平區","LI":"華平里","LIN":"5鄰","STREET":"健康二街","SECT":" ","MAREA":" ","LANE":" ","ALLEY":" ","HOUSE_NO":"５１６號","E_COORD97":165382.85000000001,"N_COORD97":2544071.5800000001,"ADDRESS":"健康二街５１６號","OBJECTID":481551},"geometry":{"x":165382.8499999987,"y":2544071.5800000019}},{"attributes":{"ID":481577,"DIS_CODE":0,"TOWNNAME":"安平區","LI":"華平里","LIN":"5鄰","STREET":"健康二街","SECT":" ","MAREA":" ","LANE":" ","ALLEY":" ","HOUSE_NO":"５１８號","E_COORD97":165383.47,"N_COORD97":2544076.7599999998,"ADDRESS":"健康二街５１８號","OBJECTID":481552},"geometry":{"x":165383.46999999974,"y":2544076.7600000035}},{"attributes":{"ID":481578,"DIS_CODE":0,"TOWNNAME":"安平區","LI":"華平里","LIN":"5鄰","STREET":"健康二街","SECT":" ","MAREA":" ","LANE":" ","ALLEY":" ","HOUSE_NO":"５２０號","E_COORD97":165384.01000000001,"N_COORD97":2544081.23,"ADDRESS":"健康二街５２０號","OBJECTID":481553},"geometry":{"x":165384.01000000071,"y":2544081.2300000023}},{"attributes":{"ID":481579,"DIS_CODE":0,"TOWNNAME":"安平區","LI":"華平里","LIN":"5鄰","STREET":"健康二街","SECT":" ","MAREA":" ","LANE":" ","ALLEY":" ","HOUSE_NO":"５２４號","E_COORD97":165386.16,"N_COORD97":2544090.25,"ADDRESS":"健康二街５２４號","OBJECTID":481554},"geometry":{"x":165386.16000000015,"y":2544090.2500000037}},{"attributes":{"ID":481580,"DIS_CODE":0,"TOWNNAME":"安平區","LI":"華平里","LIN":"5鄰","STREET":"健康二街","SECT":" ","MAREA":" ","LANE":" ","ALLEY":" ","HOUSE_NO":"５２６號","E_COORD97":165385.59,"N_COORD97":2544096.4100000001,"ADDRESS":"健康二街５２６號","OBJECTID":481555},"geometry":{"x":165385.59000000078,"y":2544096.4100000039}},{"attributes":{"ID":481581,"DIS_CODE":0,"TOWNNAME":"安平區","LI":"華平里","LIN":"8鄰","STREET":"育平九街","SECT":" ","MAREA":" ","LANE":" ","ALLEY":" ","HOUSE_NO":"２４號","E_COORD97":165412.48000000001,"N_COORD97":2543956.9500000002,"ADDRESS":"育平九街２４號","OBJECTID":481556},"geometry":{"x":165412.48000000138,"y":2543956.9500000011}},{"attributes":{"ID":481582,"DIS_CODE":0,"TOWNNAME":"安平區","LI":"華平里","LIN":"8鄰","STREET":"育平九街","SECT":" ","MAREA":" ","LANE":" ","ALLEY":" ","HOUSE_NO":"２６號","E_COORD97":165408.82999999999,"N_COORD97":2543957.6800000002,"ADDRESS":"育平九街２６號","OBJECTID":481557},"geometry":{"x":165408.83000000007,"y":2543957.6799999997}},{"attributes":{"ID":481583,"DIS_CODE":0,"TOWNNAME":"仁德區","LI":"後壁里","LIN":"26鄰","STREET":"中正路","SECT":"二段","MAREA":" ","LANE":" ","ALLEY":" ","HOUSE_NO":"３０３號","E_COORD97":173242.98999999999,"N_COORD97":2539101.2799999998,"ADDRESS":"中正路二段３０３號","OBJECTID":481558},"geometry":{"x":173242.99000000022,"y":2539101.2799999993}},{"attributes":{"ID":481584,"DIS_CODE":0,"TOWNNAME":"東區","LI":"忠孝里","LIN":"26鄰","STREET":"林森路","SECT":"一段","MAREA":" ","LANE":" ","ALLEY":" ","HOUSE_NO":"１５８號","E_COORD97":169530.54000000001,"N_COORD97":2542472.1899999999,"ADDRESS":"林森路一段１５８號","OBJECTID":481559},"geometry":{"x":169530.54000000097,"y":2542472.1899999995}},{"attributes":{"ID":481585,"DIS_CODE":0,"TOWNNAME":"東區","LI":"忠孝里","LIN":"26鄰","STREET":"崇明一街","SECT":" ","MAREA":" ","LANE":" ","ALLEY":" ","HOUSE_NO":"１２號","E_COORD97":169549.5,"N_COORD97":2542426.25,"ADDRESS":"崇明一街１２號","OBJECTID":481560},"geometry":{"x":169549.50000000093,"y":2542426.2500000019}},{"attributes":{"ID":481586,"DIS_CODE":0,"TOWNNAME":"永康區","LI":"埔園里","LIN":"26鄰","STREET":"中山路","SECT":" ","MAREA":" ","LANE":" ","ALLEY":" ","HOUSE_NO":"２６４號","E_COORD97":173724.41,"N_COORD97":2548024.8599999999,"ADDRESS":"中山路２６４號","OBJECTID":481561},"geometry":{"x":173724.41000000015,"y":2548024.8599999994}},{"attributes":{"ID":481587,"DIS_CODE":0,"TOWNNAME":"永康區","LI":"東灣里","LIN":"26鄰","STREET":"大灣一街","SECT":" ","MAREA":" ","LANE":" ","ALLEY":" ","HOUSE_NO":"２３６號","E_COORD97":174920.48000000001,"N_COORD97":2544611.6699999999,"ADDRESS":"大灣一街２３６號","OBJECTID":481562},"geometry":{"x":174920.48000000138,"y":2544611.6699999999}},{"attributes":{"ID":481588,"DIS_CODE":0,"TOWNNAME":"永康區","LI":"埔園里","LIN":"26鄰","STREET":"中山路","SECT":" ","MAREA":" ","LANE":" ","ALLEY":" ","HOUSE_NO":"２７２號","E_COORD97":173719.06,"N_COORD97":2548040.3599999999,"ADDRESS":"中山路２７２號","OBJECTID":481563},"geometry":{"x":173719.06000000052,"y":2548040.3600000013}},{"attributes":{"ID":481589,"DIS_CODE":0,"TOWNNAME":"東區","LI":"崇文里","LIN":"26鄰","STREET":"崇德二十二街","SECT":" ","MAREA":" ","LANE":" ","ALLEY":" ","HOUSE_NO":"１６號","E_COORD97":170859.07999999999,"N_COORD97":2540801.48,"ADDRESS":"崇德二十二街１６號","OBJECTID":481564},"geometry":{"x":170859.08000000194,"y":2540801.4800000023}},{"attributes":{"ID":481590,"DIS_CODE":0,"TOWNNAME":"東區","LI":"崇文里","LIN":"26鄰","STREET":"崇德二十二街","SECT":" ","MAREA":" ","LANE":" ","ALLEY":" ","HOUSE_NO":"１８號","E_COORD97":170862.67999999999,"N_COORD97":2540800.8300000001,"ADDRESS":"崇德二十二街１８號","OBJECTID":481565},"geometry":{"x":170862.6799999997,"y":2540800.8300000001}},{"attributes":{"ID":481591,"DIS_CODE":0,"TOWNNAME":"仁德區","LI":"上崙里","LIN":"26鄰","STREET":"中正路","SECT":"一段","MAREA":" ","LANE":" ","ALLEY":" ","HOUSE_NO":"７２０號","E_COORD97":172921.87,"N_COORD97":2537722.0299999998,"ADDRESS":"中正路一段７２０號","OBJECTID":481566},"geometry":{"x":172921.87000000197,"y":2537722.0300000012}},{"attributes":{"ID":481592,"DIS_CODE":0,"TOWNNAME":"南區","LI":"廣州里","LIN":"26鄰","STREET":"金華路","SECT":"二段","MAREA":" ","LANE":" ","ALLEY":" ","HOUSE_NO":"３４４號","E_COORD97":167139.98999999999,"N_COORD97":2542729.4900000002,"ADDRESS":"金華路二段３４４號","OBJECTID":481567},"geometry":{"x":167139.99000000022,"y":2542729.4900000039}},{"attributes":{"ID":481593,"DIS_CODE":0,"TOWNNAME":"南區","LI":"廣州里","LIN":"26鄰","STREET":"金華路","SECT":"二段","MAREA":" ","LANE":" ","ALLEY":" ","HOUSE_NO":"３４６號","E_COORD97":167139.98999999999,"N_COORD97":2542734.1499999999,"ADDRESS":"金華路二段３４６號","OBJECTID":481568},"geometry":{"x":167139.99000000022,"y":2542734.1500000004}},{"attributes":{"ID":481594,"DIS_CODE":0,"TOWNNAME":"南區","LI":"廣州里","LIN":"26鄰","STREET":"金華路","SECT":"二段","MAREA":" ","LANE":" ","ALLEY":" ","HOUSE_NO":"３４８號","E_COORD97":167141.32000000001,"N_COORD97":2542739.04,"ADDRESS":"金華路二段３４８號","OBJECTID":481569},"geometry":{"x":167141.3200000003,"y":2542739.040000001}},{"attributes":{"ID":481595,"DIS_CODE":0,"TOWNNAME":"南區","LI":"廣州里","LIN":"26鄰","STREET":"金華路","SECT":"二段","MAREA":" ","LANE":" ","ALLEY":" ","HOUSE_NO":"３５０號","E_COORD97":167141.98999999999,"N_COORD97":2542743.48,"ADDRESS":"金華路二段３５０號","OBJECTID":481570},"geometry":{"x":167141.99000000022,"y":2542743.4800000042}},{"attributes":{"ID":481596,"DIS_CODE":0,"TOWNNAME":"南區","LI":"廣州里","LIN":"26鄰","STREET":"金華路","SECT":"二段","MAREA":" ","LANE":" ","ALLEY":" ","HOUSE_NO":"３５２號","E_COORD97":167141.98999999999,"N_COORD97":2542748.1400000001,"ADDRESS":"金華路二段３５２號","OBJECTID":481571},"geometry":{"x":167141.99000000022,"y":2542748.1400000006}},{"attributes":{"ID":481597,"DIS_CODE":0,"TOWNNAME":"南區","LI":"廣州里","LIN":"26鄰","STREET":"金華路","SECT":"二段","MAREA":" ","LANE":" ","ALLEY":" ","HOUSE_NO":"３５４號","E_COORD97":167141.76000000001,"N_COORD97":2542753.02,"ADDRESS":"金華路二段３５４號","OBJECTID":481572},"geometry":{"x":167141.76000000164,"y":2542753.0200000014}},{"attributes":{"ID":481598,"DIS_CODE":0,"TOWNNAME":"南區","LI":"廣州里","LIN":"26鄰","STREET":"金華路","SECT":"二段","MAREA":" ","LANE":" ","ALLEY":" ","HOUSE_NO":"３５６號","E_COORD97":167143.01000000001,"N_COORD97":2542759.48,"ADDRESS":"金華路二段３５６號","OBJECTID":481573},"geometry":{"x":167143.00999999978,"y":2542759.4800000004}},{"attributes":{"ID":481599,"DIS_CODE":0,"TOWNNAME":"南區","LI":"廣州里","LIN":"26鄰","STREET":"金華路","SECT":"二段","MAREA":" ","LANE":" ","ALLEY":" ","HOUSE_NO":"３６２號","E_COORD97":167144.26999999999,"N_COORD97":2542770.8799999999,"ADDRESS":"金華路二段３６２號","OBJECTID":481574},"geometry":{"x":167144.26999999955,"y":2542770.8800000008}},{"attributes":{"ID":481600,"DIS_CODE":0,"TOWNNAME":"南區","LI":"廣州里","LIN":"26鄰","STREET":"金華路","SECT":"二段","MAREA":" ","LANE":" ","ALLEY":" ","HOUSE_NO":"３６４號","E_COORD97":167144.69,"N_COORD97":2542775.9399999999,"ADDRESS":"金華路二段３６４號","OBJECTID":481575},"geometry":{"x":167144.69000000134,"y":2542775.9399999995}},{"attributes":{"ID":481601,"DIS_CODE":0,"TOWNNAME":"南區","LI":"廣州里","LIN":"26鄰","STREET":"金華路","SECT":"二段","MAREA":" ","LANE":" ","ALLEY":" ","HOUSE_NO":"３６６號","E_COORD97":167145.54000000001,"N_COORD97":2542778.8900000001,"ADDRESS":"金華路二段３６６號","OBJECTID":481576},"geometry":{"x":167145.54000000097,"y":2542778.8900000025}},{"attributes":{"ID":481602,"DIS_CODE":0,"TOWNNAME":"安平區","LI":"華平里","LIN":"5鄰","STREET":"健康二街","SECT":" ","MAREA":" ","LANE":" ","ALLEY":" ","HOUSE_NO":"５２７號","E_COORD97":165366.16,"N_COORD97":2544073.75,"ADDRESS":"健康二街５２７號","OBJECTID":481577},"geometry":{"x":165366.16000000201,"y":2544073.7500000019}},{"attributes":{"ID":481603,"DIS_CODE":0,"TOWNNAME":"安平區","LI":"華平里","LIN":"5鄰","STREET":"健康二街","SECT":" ","MAREA":" ","LANE":" ","ALLEY":" ","HOUSE_NO":"５２９號","E_COORD97":165366.32999999999,"N_COORD97":2544077.6000000001,"ADDRESS":"健康二街５２９號","OBJECTID":481578},"geometry":{"x":165366.33000000007,"y":2544077.6000000034}},{"attributes":{"ID":481604,"DIS_CODE":0,"TOWNNAME":"安平區","LI":"華平里","LIN":"5鄰","STREET":"健康二街","SECT":" ","MAREA":" ","LANE":" ","ALLEY":" ","HOUSE_NO":"５３３號","E_COORD97":165368.17999999999,"N_COORD97":2544091.1600000001,"ADDRESS":"健康二街５３３號","OBJECTID":481579},"geometry":{"x":165368.1799999997,"y":2544091.1600000039}},{"attributes":{"ID":481605,"DIS_CODE":0,"TOWNNAME":"南區","LI":"廣州里","LIN":"26鄰","STREET":"金華路","SECT":"二段","MAREA":" ","LANE":" ","ALLEY":" ","HOUSE_NO":"３６８號","E_COORD97":167145.12,"N_COORD97":2542784.79,"ADDRESS":"金華路二段３６８號","OBJECTID":481580},"geometry":{"x":167145.12000000104,"y":2542784.790000001}},{"attributes":{"ID":481606,"DIS_CODE":0,"TOWNNAME":"南區","LI":"廣州里","LIN":"26鄰","STREET":"金華路","SECT":"二段","MAREA":" ","LANE":" ","ALLEY":" ","HOUSE_NO":"３７４號","E_COORD97":167148.07000000001,"N_COORD97":2542797.8599999999,"ADDRESS":"金華路二段３７４號","OBJECTID":481581},"geometry":{"x":167148.0700000003,"y":2542797.8600000013}},{"attributes":{"ID":481607,"DIS_CODE":0,"TOWNNAME":"南區","LI":"廣州里","LIN":"26鄰","STREET":"金華路","SECT":"二段","MAREA":" ","LANE":" ","ALLEY":" ","HOUSE_NO":"３７６號","E_COORD97":167147.64999999999,"N_COORD97":2542801.23,"ADDRESS":"金華路二段３７６號","OBJECTID":481582},"geometry":{"x":167147.65000000037,"y":2542801.2300000004}},{"attributes":{"ID":481608,"DIS_CODE":0,"TOWNNAME":"南區","LI":"廣州里","LIN":"26鄰","STREET":"金華路","SECT":"二段","MAREA":" ","LANE":" ","ALLEY":" ","HOUSE_NO":"３７８號","E_COORD97":167147.64999999999,"N_COORD97":2542806.29,"ADDRESS":"金華路二段３７８號","OBJECTID":481583},"geometry":{"x":167147.65000000037,"y":2542806.2899999991}},{"attributes":{"ID":481609,"DIS_CODE":0,"TOWNNAME":"南區","LI":"廣州里","LIN":"26鄰","STREET":"金華路","SECT":"二段","MAREA":" ","LANE":" ","ALLEY":" ","HOUSE_NO":"３８０號","E_COORD97":167148.48999999999,"N_COORD97":2542810.9300000002,"ADDRESS":"金華路二段３８０號","OBJECTID":481584},"geometry":{"x":167148.49000000022,"y":2542810.9300000016}},{"attributes":{"ID":481610,"DIS_CODE":0,"TOWNNAME":"南區","LI":"廣州里","LIN":"26鄰","STREET":"金華路","SECT":"二段","MAREA":" ","LANE":" ","ALLEY":" ","HOUSE_NO":"３８２號","E_COORD97":167147.23000000001,"N_COORD97":2542815.1499999999,"ADDRESS":"金華路二段３８２號","OBJECTID":481585},"geometry":{"x":167147.23000000045,"y":2542815.1500000004}},{"attributes":{"ID":481611,"DIS_CODE":0,"TOWNNAME":"南區","LI":"廣州里","LIN":"26鄰","STREET":"金華路","SECT":"二段","MAREA":" ","LANE":" ","ALLEY":" ","HOUSE_NO":"３８４號","E_COORD97":167152.29000000001,"N_COORD97":2542822.7400000002,"ADDRESS":"金華路二段３８４號","OBJECTID":481586},"geometry":{"x":167152.29000000097,"y":2542822.7400000039}},{"attributes":{"ID":481612,"DIS_CODE":0,"TOWNNAME":"南區","LI":"廣州里","LIN":"26鄰","STREET":"建南路","SECT":" ","MAREA":" ","LANE":" ","ALLEY":" ","HOUSE_NO":"７７號","E_COORD97":167232.75,"N_COORD97":2542827.3799999999,"ADDRESS":"建南路７７號","OBJECTID":481587},"geometry":{"x":167232.75,"y":2542827.3800000027}},{"attributes":{"ID":481613,"DIS_CODE":0,"TOWNNAME":"南區","LI":"廣州里","LIN":"26鄰","STREET":"建南路","SECT":" ","MAREA":" ","LANE":" ","ALLEY":" ","HOUSE_NO":"７９號","E_COORD97":167226.59,"N_COORD97":2542828.52,"ADDRESS":"建南路７９號","OBJECTID":481588},"geometry":{"x":167226.59000000078,"y":2542828.5200000014}},{"attributes":{"ID":481614,"DIS_CODE":0,"TOWNNAME":"南區","LI":"廣州里","LIN":"26鄰","STREET":"建南路","SECT":" ","MAREA":" ","LANE":" ","ALLEY":" ","HOUSE_NO":"８１號","E_COORD97":167222.79000000001,"N_COORD97":2542826.4100000001,"ADDRESS":"建南路８１號","OBJECTID":481589},"geometry":{"x":167222.79000000004,"y":2542826.410000002}},{"attributes":{"ID":481615,"DIS_CODE":0,"TOWNNAME":"南區","LI":"廣州里","LIN":"26鄰","STREET":"建南路","SECT":" ","MAREA":" ","LANE":" ","ALLEY":" ","HOUSE_NO":"８７號","E_COORD97":167209.28,"N_COORD97":2542826.4100000001,"ADDRESS":"建南路８７號","OBJECTID":481590},"geometry":{"x":167209.28000000026,"y":2542826.410000002}},{"attributes":{"ID":481616,"DIS_CODE":0,"TOWNNAME":"南區","LI":"廣州里","LIN":"26鄰","STREET":"建南路","SECT":" ","MAREA":" ","LANE":" ","ALLEY":" ","HOUSE_NO":"８７號之３","E_COORD97":167194.92000000001,"N_COORD97":2542827.6800000002,"ADDRESS":"建南路８７號之３","OBJECTID":481591},"geometry":{"x":167194.92000000179,"y":2542827.6799999997}},{"attributes":{"ID":481617,"DIS_CODE":0,"TOWNNAME":"南區","LI":"廣州里","LIN":"26鄰","STREET":"建南路","SECT":" ","MAREA":" ","LANE":" ","ALLEY":" ","HOUSE_NO":"８７號之４","E_COORD97":167190.70000000001,"N_COORD97":2542827.2599999998,"ADDRESS":"建南路８７號之４","OBJECTID":481592},"geometry":{"x":167190.70000000112,"y":2542827.2599999998}},{"attributes":{"ID":481618,"DIS_CODE":0,"TOWNNAME":"南區","LI":"廣州里","LIN":"26鄰","STREET":"建南路","SECT":" ","MAREA":" ","LANE":" ","ALLEY":" ","HOUSE_NO":"８７號之５","E_COORD97":167186.04999999999,"N_COORD97":2542821.3500000001,"ADDRESS":"建南路８７號之５","OBJECTID":481593},"geometry":{"x":167186.05000000075,"y":2542821.3500000034}},{"attributes":{"ID":481619,"DIS_CODE":0,"TOWNNAME":"南區","LI":"廣州里","LIN":"26鄰","STREET":"建南路","SECT":" ","MAREA":" ","LANE":" ","ALLEY":" ","HOUSE_NO":"８７號之６","E_COORD97":167181.41,"N_COORD97":2542826.4100000001,"ADDRESS":"建南路８７號之６","OBJECTID":481594},"geometry":{"x":167181.41000000015,"y":2542826.410000002}},{"attributes":{"ID":481620,"DIS_CODE":0,"TOWNNAME":"南區","LI":"廣州里","LIN":"26鄰","STREET":"建南路","SECT":" ","MAREA":" ","LANE":" ","ALLEY":" ","HOUSE_NO":"８７號之７","E_COORD97":167176.76999999999,"N_COORD97":2542823.46,"ADDRESS":"建南路８７號之７","OBJECTID":481595},"geometry":{"x":167176.76999999955,"y":2542823.4600000028}},{"attributes":{"ID":481621,"DIS_CODE":0,"TOWNNAME":"南區","LI":"廣州里","LIN":"26鄰","STREET":"福吉三街","SECT":" ","MAREA":" ","LANE":" ","ALLEY":" ","HOUSE_NO":"８２號","E_COORD97":167205.04999999999,"N_COORD97":2542782.98,"ADDRESS":"福吉三街８２號","OBJECTID":481596},"geometry":{"x":167205.04999999981,"y":2542782.9800000004}},{"attributes":{"ID":481622,"DIS_CODE":0,"TOWNNAME":"南區","LI":"廣州里","LIN":"26鄰","STREET":"福吉三街","SECT":" ","MAREA":" ","LANE":" ","ALLEY":" ","HOUSE_NO":"８４號","E_COORD97":167200.82999999999,"N_COORD97":2542784.25,"ADDRESS":"福吉三街８４號","OBJECTID":481597},"geometry":{"x":167200.83000000194,"y":2542784.25}},{"attributes":{"ID":481623,"DIS_CODE":0,"TOWNNAME":"南區","LI":"廣州里","LIN":"26鄰","STREET":"福吉三街","SECT":" ","MAREA":" ","LANE":" ","ALLEY":" ","HOUSE_NO":"８５號","E_COORD97":167184.89000000001,"N_COORD97":2542764.3500000001,"ADDRESS":"福吉三街８５號","OBJECTID":481598},"geometry":{"x":167184.8900000006,"y":2542764.3500000015}},{"attributes":{"ID":481624,"DIS_CODE":0,"TOWNNAME":"南區","LI":"廣州里","LIN":"26鄰","STREET":"福吉三街","SECT":" ","MAREA":" ","LANE":" ","ALLEY":" ","HOUSE_NO":"８７號","E_COORD97":167183.32999999999,"N_COORD97":2542768.5600000001,"ADDRESS":"福吉三街８７號","OBJECTID":481599},"geometry":{"x":167183.33000000007,"y":2542768.5600000005}},{"attributes":{"ID":481625,"DIS_CODE":0,"TOWNNAME":"南區","LI":"廣州里","LIN":"26鄰","STREET":"福吉三街","SECT":" ","MAREA":" ","LANE":" ","ALLEY":" ","HOUSE_NO":"８８號","E_COORD97":167193.64999999999,"N_COORD97":2542793.1000000001,"ADDRESS":"福吉三街８８號","OBJECTID":481600},"geometry":{"x":167193.65000000037,"y":2542793.1000000015}}]}