{"displayFieldName":"TOWNNAME","fieldAliases":{"ID":"ID","DIS_CODE":"DIS_CODE","TOWNNAME":"TOWNNAME","LI":"LI","LIN":"LIN","STREET":"STREET","SECT":"SECT","MAREA":"MAREA","LANE":"LANE","ALLEY":"ALLEY","HOUSE_NO":"HOUSE_NO","E_COORD97":"E_COORD97","N_COORD97":"N_COORD97","ADDRESS":"ADDRESS","OBJECTID":"OBJECTID"},"geometryType":"esriGeometryPoint","spatialReference":{"wkid":102443,"latestWkid":3826},"fields":[{"name":"ID","type":"esriFieldTypeDouble","alias":"ID"},{"name":"DIS_CODE","type":"esriFieldTypeInteger","alias":"DIS_CODE"},{"name":"TOWNNAME","type":"esriFieldTypeString","alias":"TOWNNAME","length":8},{"name":"LI","type":"esriFieldTypeString","alias":"LI","length":8},{"name":"LIN","type":"esriFieldTypeString","alias":"LIN","length":12},{"name":"STREET","type":"esriFieldTypeString","alias":"STREET","length":20},{"name":"SECT","type":"esriFieldTypeString","alias":"SECT","length":8},{"name":"MAREA","type":"esriFieldTypeString","alias":"MAREA","length":12},{"name":"LANE","type":"esriFieldTypeString","alias":"LANE","length":10},{"name":"ALLEY","type":"esriFieldTypeString","alias":"ALLEY","length":10},{"name":"HOUSE_NO","type":"esriFieldTypeString","alias":"HOUSE_NO","length":20},{"name":"E_COORD97","type":"esriFieldTypeDouble","alias":"E_COORD97"},{"name":"N_COORD97","type":"esriFieldTypeDouble","alias":"N_COORD97"},{"name":"ADDRESS","type":"esriFieldTypeString","alias":"ADDRESS","length":50},{"name":"OBJECTID","type":"esriFieldTypeOID","alias":"OBJECTID"}],"features":[{"attributes":{"ID":603028,"DIS_CODE":0,"TOWNNAME":"新營區","LI":"王公里","LIN":"22鄰","STREET":"大仁街","SECT":" ","MAREA":" ","LANE":" ","ALLEY":" ","HOUSE_NO":"８６號","E_COORD97":180476.23999999999,"N_COORD97":2579376.7000000002,"ADDRESS":"大仁街８６號","OBJECTID":603001},"geometry":{"x":180476.24000000022,"y":2579376.6999999974}},{"attributes":{"ID":603029,"DIS_CODE":0,"TOWNNAME":"新營區","LI":"王公里","LIN":"22鄰","STREET":"大德街","SECT":" ","MAREA":" ","LANE":" ","ALLEY":" ","HOUSE_NO":"９２號","E_COORD97":180421.73999999999,"N_COORD97":2579502.6400000001,"ADDRESS":"大德街９２號","OBJECTID":603002},"geometry":{"x":180421.74000000022,"y":2579502.6400000006}},{"attributes":{"ID":603030,"DIS_CODE":0,"TOWNNAME":"新營區","LI":"新東里","LIN":"22鄰","STREET":"東興十街","SECT":" ","MAREA":" ","LANE":" ","ALLEY":" ","HOUSE_NO":"７１號","E_COORD97":180917.298568,"N_COORD97":2579757.7943000002,"ADDRESS":"東興十街７１號","OBJECTID":603003},"geometry":{"x":180917.29856800195,"y":2579757.794298999}},{"attributes":{"ID":603031,"DIS_CODE":0,"TOWNNAME":"新營區","LI":"南紙里","LIN":"22鄰","STREET":"建業路","SECT":" ","MAREA":" ","LANE":" ","ALLEY":" ","HOUSE_NO":"２０７號","E_COORD97":178170.14999999999,"N_COORD97":2577499.5,"ADDRESS":"建業路２０７號","OBJECTID":603004},"geometry":{"x":178170.14999999944,"y":2577499.5}},{"attributes":{"ID":603032,"DIS_CODE":0,"TOWNNAME":"新營區","LI":"永生里","LIN":"22鄰","STREET":"新進路","SECT":" ","MAREA":" ","LANE":" ","ALLEY":" ","HOUSE_NO":"３５２號","E_COORD97":179860.35000000001,"N_COORD97":2577778.23,"ADDRESS":"新進路３５２號","OBJECTID":603005},"geometry":{"x":179860.35000000056,"y":2577778.2300000023}},{"attributes":{"ID":603033,"DIS_CODE":0,"TOWNNAME":"新營區","LI":"永生里","LIN":"22鄰","STREET":"新進路","SECT":" ","MAREA":" ","LANE":" ","ALLEY":" ","HOUSE_NO":"３６６號","E_COORD97":179833.60000000001,"N_COORD97":2577760.7799999998,"ADDRESS":"新進路３６６號","OBJECTID":603006},"geometry":{"x":179833.60000000056,"y":2577760.7800000012}},{"attributes":{"ID":603034,"DIS_CODE":0,"TOWNNAME":"新營區","LI":"民生里","LIN":"22鄰","STREET":"進修街","SECT":" ","MAREA":" ","LANE":" ","ALLEY":" ","HOUSE_NO":"１５之２號","E_COORD97":179018.69,"N_COORD97":2578431.27,"ADDRESS":"進修街１５之２號","OBJECTID":603007},"geometry":{"x":179018.69000000041,"y":2578431.2700000014}},{"attributes":{"ID":603035,"DIS_CODE":0,"TOWNNAME":"新營區","LI":"民生里","LIN":"22鄰","STREET":"進修街","SECT":" ","MAREA":" ","LANE":" ","ALLEY":" ","HOUSE_NO":"１３之１號","E_COORD97":179037.20999999999,"N_COORD97":2578452.2200000002,"ADDRESS":"進修街１３之１號","OBJECTID":603008},"geometry":{"x":179037.20999999903,"y":2578452.2200000007}},{"attributes":{"ID":603036,"DIS_CODE":0,"TOWNNAME":"新營區","LI":"民生里","LIN":"22鄰","STREET":"公園路","SECT":"一段","MAREA":" ","LANE":" ","ALLEY":" ","HOUSE_NO":"６０號","E_COORD97":179110.16,"N_COORD97":2578399.75,"ADDRESS":"公園路一段６０號","OBJECTID":603009},"geometry":{"x":179110.16000000015,"y":2578399.75}},{"attributes":{"ID":603037,"DIS_CODE":0,"TOWNNAME":"新營區","LI":"新東里","LIN":"22鄰","STREET":"東明街","SECT":" ","MAREA":" ","LANE":" ","ALLEY":" ","HOUSE_NO":"７８號","E_COORD97":180804.35999999999,"N_COORD97":2579779.3799999999,"ADDRESS":"東明街７８號","OBJECTID":603010},"geometry":{"x":180804.36000000034,"y":2579779.3800000008}},{"attributes":{"ID":603038,"DIS_CODE":0,"TOWNNAME":"南區","LI":"郡南里","LIN":"22鄰","STREET":"德興路","SECT":" ","MAREA":" ","LANE":" ","ALLEY":" ","HOUSE_NO":"７９號","E_COORD97":167226.95000000001,"N_COORD97":2540652.75,"ADDRESS":"德興路７９號","OBJECTID":603011},"geometry":{"x":167226.95000000019,"y":2540652.7500000037}},{"attributes":{"ID":603039,"DIS_CODE":0,"TOWNNAME":"南區","LI":"明興里","LIN":"22鄰","STREET":"永春街","SECT":" ","MAREA":" ","LANE":" ","ALLEY":" ","HOUSE_NO":"１１號","E_COORD97":167092.57000000001,"N_COORD97":2540613.4500000002,"ADDRESS":"永春街１１號","OBJECTID":603012},"geometry":{"x":167092.57000000216,"y":2540613.4500000011}},{"attributes":{"ID":603040,"DIS_CODE":0,"TOWNNAME":"南區","LI":"明興里","LIN":"22鄰","STREET":"永春街","SECT":" ","MAREA":" ","LANE":" ","ALLEY":" ","HOUSE_NO":"１３號","E_COORD97":167091.79999999999,"N_COORD97":2540623.5499999998,"ADDRESS":"永春街１３號","OBJECTID":603013},"geometry":{"x":167091.79999999981,"y":2540623.5500000007}},{"attributes":{"ID":603041,"DIS_CODE":0,"TOWNNAME":"南區","LI":"明興里","LIN":"22鄰","STREET":"永春街","SECT":" ","MAREA":" ","LANE":" ","ALLEY":" ","HOUSE_NO":"１７號","E_COORD97":167074.13,"N_COORD97":2540624.9900000002,"ADDRESS":"永春街１７號","OBJECTID":603014},"geometry":{"x":167074.12999999989,"y":2540624.9900000021}},{"attributes":{"ID":603042,"DIS_CODE":0,"TOWNNAME":"南區","LI":"金華里","LIN":"22鄰","STREET":"賢南街","SECT":" ","MAREA":" ","LANE":" ","ALLEY":" ","HOUSE_NO":"８４號","E_COORD97":166751.95000000001,"N_COORD97":2542463.6899999999,"ADDRESS":"賢南街８４號","OBJECTID":603015},"geometry":{"x":166751.95000000019,"y":2542463.6900000013}},{"attributes":{"ID":603043,"DIS_CODE":0,"TOWNNAME":"安平區","LI":"平通里","LIN":"22鄰","STREET":"育平九街","SECT":" ","MAREA":" ","LANE":" ","ALLEY":" ","HOUSE_NO":"３９７號","E_COORD97":164536.81,"N_COORD97":2544024.3199999998,"ADDRESS":"育平九街３９７號","OBJECTID":603016},"geometry":{"x":164536.80999999959,"y":2544024.3200000003}},{"attributes":{"ID":603044,"DIS_CODE":0,"TOWNNAME":"安平區","LI":"平通里","LIN":"22鄰","STREET":"育平九街","SECT":" ","MAREA":" ","LANE":" ","ALLEY":" ","HOUSE_NO":"３７７號","E_COORD97":164578.16,"N_COORD97":2544024.23,"ADDRESS":"育平九街３７７號","OBJECTID":603017},"geometry":{"x":164578.16000000108,"y":2544024.2300000023}},{"attributes":{"ID":603045,"DIS_CODE":0,"TOWNNAME":"安平區","LI":"平通里","LIN":"22鄰","STREET":"育平九街","SECT":" ","MAREA":" ","LANE":" ","ALLEY":" ","HOUSE_NO":"３７９號","E_COORD97":164574.04999999999,"N_COORD97":2544024.4399999999,"ADDRESS":"育平九街３７９號","OBJECTID":603018},"geometry":{"x":164574.04999999981,"y":2544024.4400000013}},{"attributes":{"ID":603046,"DIS_CODE":0,"TOWNNAME":"東山區","LI":"東中里","LIN":"22鄰","STREET":"中興路","SECT":" ","MAREA":" ","LANE":" ","ALLEY":" ","HOUSE_NO":"８４號","E_COORD97":188997.63,"N_COORD97":2580208.1299999999,"ADDRESS":"中興路８４號","OBJECTID":603019},"geometry":{"x":188997.63000000082,"y":2580208.1300000008}},{"attributes":{"ID":603047,"DIS_CODE":0,"TOWNNAME":"北區","LI":"長榮里","LIN":"22鄰","STREET":"長榮路","SECT":"五段","MAREA":" ","LANE":" ","ALLEY":" ","HOUSE_NO":"１０之３號","E_COORD97":170134.31,"N_COORD97":2545428.2000000002,"ADDRESS":"長榮路五段１０之３號","OBJECTID":603020},"geometry":{"x":170134.30999999959,"y":2545428.1999999993}},{"attributes":{"ID":603048,"DIS_CODE":0,"TOWNNAME":"北區","LI":"長榮里","LIN":"22鄰","STREET":"長榮路","SECT":"五段","MAREA":" ","LANE":" ","ALLEY":" ","HOUSE_NO":"１０之２號","E_COORD97":170134.31,"N_COORD97":2545425.1800000002,"ADDRESS":"長榮路五段１０之２號","OBJECTID":603021},"geometry":{"x":170134.30999999959,"y":2545425.1799999997}},{"attributes":{"ID":603049,"DIS_CODE":0,"TOWNNAME":"北區","LI":"長榮里","LIN":"22鄰","STREET":"長榮路","SECT":"五段","MAREA":" ","LANE":" ","ALLEY":" ","HOUSE_NO":"１０之１號","E_COORD97":170134.62,"N_COORD97":2545420.8999999999,"ADDRESS":"長榮路五段１０之１號","OBJECTID":603022},"geometry":{"x":170134.62000000011,"y":2545420.9000000004}},{"attributes":{"ID":603050,"DIS_CODE":0,"TOWNNAME":"北區","LI":"長榮里","LIN":"22鄰","STREET":"長榮路","SECT":"五段","MAREA":" ","LANE":" ","ALLEY":" ","HOUSE_NO":"１０號","E_COORD97":170134.47,"N_COORD97":2545416.77,"ADDRESS":"長榮路五段１０號","OBJECTID":603023},"geometry":{"x":170134.47000000067,"y":2545416.7700000014}},{"attributes":{"ID":603051,"DIS_CODE":0,"TOWNNAME":"北區","LI":"長榮里","LIN":"22鄰","STREET":"長榮路","SECT":"五段","MAREA":" ","LANE":" ","ALLEY":" ","HOUSE_NO":"８之３號","E_COORD97":170135.26000000001,"N_COORD97":2545413.2799999998,"ADDRESS":"長榮路五段８之３號","OBJECTID":603024},"geometry":{"x":170135.25999999885,"y":2545413.2800000012}},{"attributes":{"ID":603052,"DIS_CODE":0,"TOWNNAME":"北區","LI":"長榮里","LIN":"22鄰","STREET":"長榮路","SECT":"五段","MAREA":" ","LANE":" ","ALLEY":" ","HOUSE_NO":"８之２號","E_COORD97":170135.57999999999,"N_COORD97":2545409.9399999999,"ADDRESS":"長榮路五段８之２號","OBJECTID":603025},"geometry":{"x":170135.58000000101,"y":2545409.9399999995}},{"attributes":{"ID":603053,"DIS_CODE":0,"TOWNNAME":"北區","LI":"長榮里","LIN":"22鄰","STREET":"長榮路","SECT":"五段","MAREA":" ","LANE":" ","ALLEY":" ","HOUSE_NO":"８之１號","E_COORD97":170136.20999999999,"N_COORD97":2545405.1800000002,"ADDRESS":"長榮路五段８之１號","OBJECTID":603026},"geometry":{"x":170136.21000000089,"y":2545405.1799999997}},{"attributes":{"ID":603054,"DIS_CODE":0,"TOWNNAME":"北區","LI":"長榮里","LIN":"22鄰","STREET":"長榮路","SECT":"五段","MAREA":" ","LANE":" ","ALLEY":" ","HOUSE_NO":"８號","E_COORD97":170137.32000000001,"N_COORD97":2545398.3599999999,"ADDRESS":"長榮路五段８號","OBJECTID":603027},"geometry":{"x":170137.32000000123,"y":2545398.3600000013}},{"attributes":{"ID":603055,"DIS_CODE":0,"TOWNNAME":"北區","LI":"長榮里","LIN":"22鄰","STREET":"長榮路","SECT":"五段","MAREA":" ","LANE":" ","ALLEY":" ","HOUSE_NO":"６之３號","E_COORD97":170137.32000000001,"N_COORD97":2545395.1800000002,"ADDRESS":"長榮路五段６之３號","OBJECTID":603028},"geometry":{"x":170137.32000000123,"y":2545395.1799999997}},{"attributes":{"ID":603056,"DIS_CODE":0,"TOWNNAME":"北區","LI":"長榮里","LIN":"22鄰","STREET":"長榮路","SECT":"五段","MAREA":" ","LANE":" ","ALLEY":" ","HOUSE_NO":"６之２號","E_COORD97":170137.48000000001,"N_COORD97":2545391.5299999998,"ADDRESS":"長榮路五段６之２號","OBJECTID":603029},"geometry":{"x":170137.48000000045,"y":2545391.5299999993}},{"attributes":{"ID":603057,"DIS_CODE":0,"TOWNNAME":"北區","LI":"長榮里","LIN":"22鄰","STREET":"長榮路","SECT":"五段","MAREA":" ","LANE":" ","ALLEY":" ","HOUSE_NO":"６之１號","E_COORD97":170137.16,"N_COORD97":2545387.8799999999,"ADDRESS":"長榮路五段６之１號","OBJECTID":603030},"geometry":{"x":170137.16000000108,"y":2545387.8800000008}},{"attributes":{"ID":603058,"DIS_CODE":0,"TOWNNAME":"新營區","LI":"新東里","LIN":"22鄰","STREET":"長榮路","SECT":"一段","MAREA":" ","LANE":" ","ALLEY":" ","HOUSE_NO":"３０７號","E_COORD97":180917.51999999999,"N_COORD97":2579858.5899999999,"ADDRESS":"長榮路一段３０７號","OBJECTID":603031},"geometry":{"x":180917.51999999955,"y":2579858.5899999999}},{"attributes":{"ID":603059,"DIS_CODE":0,"TOWNNAME":"新營區","LI":"民榮里","LIN":"22鄰","STREET":"裕民路","SECT":" ","MAREA":" ","LANE":" ","ALLEY":" ","HOUSE_NO":"３６號","E_COORD97":179132.23999999999,"N_COORD97":2577866.96,"ADDRESS":"裕民路３６號","OBJECTID":603032},"geometry":{"x":179132.23999999929,"y":2577866.9600000009}},{"attributes":{"ID":603060,"DIS_CODE":0,"TOWNNAME":"新營區","LI":"民權里","LIN":"22鄰","STREET":"三民路","SECT":" ","MAREA":" ","LANE":" ","ALLEY":" ","HOUSE_NO":"１３０號之８","E_COORD97":179703.20999999999,"N_COORD97":2578475.6200000001,"ADDRESS":"三民路１３０號之８","OBJECTID":603033},"geometry":{"x":179703.20999999996,"y":2578475.6200000029}},{"attributes":{"ID":603061,"DIS_CODE":0,"TOWNNAME":"新營區","LI":"三仙里","LIN":"22鄰","STREET":"民治路","SECT":" ","MAREA":" ","LANE":" ","ALLEY":" ","HOUSE_NO":"７０之７號","E_COORD97":179642.63,"N_COORD97":2578852.4399999999,"ADDRESS":"民治路７０之７號","OBJECTID":603034},"geometry":{"x":179642.62999999989,"y":2578852.4399999995}},{"attributes":{"ID":603062,"DIS_CODE":0,"TOWNNAME":"新營區","LI":"民權里","LIN":"22鄰","STREET":"三民路","SECT":" ","MAREA":" ","LANE":" ","ALLEY":" ","HOUSE_NO":"１３０號之３","E_COORD97":179722.60999999999,"N_COORD97":2578478.8500000001,"ADDRESS":"三民路１３０號之３","OBJECTID":603035},"geometry":{"x":179722.61000000034,"y":2578478.8500000015}},{"attributes":{"ID":603063,"DIS_CODE":0,"TOWNNAME":"新營區","LI":"民榮里","LIN":"22鄰","STREET":"裕民路","SECT":" ","MAREA":" ","LANE":" ","ALLEY":" ","HOUSE_NO":"５４號","E_COORD97":179133,"N_COORD97":2577827.0899999999,"ADDRESS":"裕民路５４號","OBJECTID":603036},"geometry":{"x":179133,"y":2577827.0900000017}},{"attributes":{"ID":603064,"DIS_CODE":0,"TOWNNAME":"鹽水區","LI":"橋南里","LIN":"22鄰","STREET":"四維路","SECT":" ","MAREA":" ","LANE":" ","ALLEY":" ","HOUSE_NO":"７６號","E_COORD97":175905.92000000001,"N_COORD97":2578567.5299999998,"ADDRESS":"四維路７６號","OBJECTID":603037},"geometry":{"x":175905.91999999993,"y":2578567.5299999993}},{"attributes":{"ID":603065,"DIS_CODE":0,"TOWNNAME":"鹽水區","LI":"橋南里","LIN":"22鄰","STREET":"四維路","SECT":" ","MAREA":" ","LANE":" ","ALLEY":" ","HOUSE_NO":"７８號","E_COORD97":175900.84,"N_COORD97":2578569.6499999999,"ADDRESS":"四維路７８號","OBJECTID":603038},"geometry":{"x":175900.84000000078,"y":2578569.6500000022}},{"attributes":{"ID":603066,"DIS_CODE":0,"TOWNNAME":"關廟區","LI":"香洋里","LIN":"22鄰","STREET":"民族街","SECT":" ","MAREA":" ","LANE":" ","ALLEY":" ","HOUSE_NO":"１４８號","E_COORD97":181362.59,"N_COORD97":2539848.29,"ADDRESS":"民族街１４８號","OBJECTID":603039},"geometry":{"x":181362.59000000078,"y":2539848.290000001}},{"attributes":{"ID":603067,"DIS_CODE":0,"TOWNNAME":"鹽水區","LI":"橋南里","LIN":"22鄰","STREET":"四維路","SECT":" ","MAREA":" ","LANE":" ","ALLEY":" ","HOUSE_NO":"１００號","E_COORD97":175857.57999999999,"N_COORD97":2578590.9500000002,"ADDRESS":"四維路１００號","OBJECTID":603040},"geometry":{"x":175857.58000000007,"y":2578590.9499999993}},{"attributes":{"ID":603068,"DIS_CODE":0,"TOWNNAME":"鹽水區","LI":"橋南里","LIN":"22鄰","STREET":"四維路","SECT":" ","MAREA":" ","LANE":" ","ALLEY":" ","HOUSE_NO":"１０２號","E_COORD97":175853.34,"N_COORD97":2578592.3100000001,"ADDRESS":"四維路１０２號","OBJECTID":603041},"geometry":{"x":175853.34000000078,"y":2578592.3100000024}},{"attributes":{"ID":603069,"DIS_CODE":0,"TOWNNAME":"鹽水區","LI":"橋南里","LIN":"22鄰","STREET":"四維路","SECT":" ","MAREA":" ","LANE":" ","ALLEY":" ","HOUSE_NO":"１０４號","E_COORD97":175849.5,"N_COORD97":2578594.1800000002,"ADDRESS":"四維路１０４號","OBJECTID":603042},"geometry":{"x":175849.5,"y":2578594.1799999978}},{"attributes":{"ID":603070,"DIS_CODE":0,"TOWNNAME":"鹽水區","LI":"橋南里","LIN":"22鄰","STREET":"四維路","SECT":" ","MAREA":" ","LANE":" ","ALLEY":" ","HOUSE_NO":"１０６號","E_COORD97":175845.85000000001,"N_COORD97":2578595.3999999999,"ADDRESS":"四維路１０６號","OBJECTID":603043},"geometry":{"x":175845.85000000056,"y":2578595.4000000004}},{"attributes":{"ID":603071,"DIS_CODE":0,"TOWNNAME":"鹽水區","LI":"橋南里","LIN":"22鄰","STREET":"四維路","SECT":" ","MAREA":" ","LANE":" ","ALLEY":" ","HOUSE_NO":"１０８號","E_COORD97":175841.95000000001,"N_COORD97":2578596.9900000002,"ADDRESS":"四維路１０８號","OBJECTID":603044},"geometry":{"x":175841.95000000019,"y":2578596.9900000021}},{"attributes":{"ID":603072,"DIS_CODE":0,"TOWNNAME":"安平區","LI":"國平里","LIN":"22鄰","STREET":"建平七街","SECT":" ","MAREA":" ","LANE":" ","ALLEY":" ","HOUSE_NO":"６７４號","E_COORD97":164902.57000000001,"N_COORD97":2543424.1499999999,"ADDRESS":"建平七街６７４號","OBJECTID":603045},"geometry":{"x":164902.57000000216,"y":2543424.1500000022}},{"attributes":{"ID":603073,"DIS_CODE":0,"TOWNNAME":"安平區","LI":"國平里","LIN":"22鄰","STREET":"建平七街","SECT":" ","MAREA":" ","LANE":" ","ALLEY":" ","HOUSE_NO":"６７６號","E_COORD97":164898.07000000001,"N_COORD97":2543424.54,"ADDRESS":"建平七街６７６號","OBJECTID":603046},"geometry":{"x":164898.07000000123,"y":2543424.540000001}},{"attributes":{"ID":603074,"DIS_CODE":0,"TOWNNAME":"安平區","LI":"國平里","LIN":"22鄰","STREET":"建平七街","SECT":" ","MAREA":" ","LANE":" ","ALLEY":" ","HOUSE_NO":"６７８號","E_COORD97":164893.94,"N_COORD97":2543424.25,"ADDRESS":"建平七街６７８號","OBJECTID":603047},"geometry":{"x":164893.94000000134,"y":2543424.25}},{"attributes":{"ID":603075,"DIS_CODE":0,"TOWNNAME":"安平區","LI":"國平里","LIN":"22鄰","STREET":"建平七街","SECT":" ","MAREA":" ","LANE":" ","ALLEY":" ","HOUSE_NO":"６８６號","E_COORD97":164877.32000000001,"N_COORD97":2543426.3599999999,"ADDRESS":"建平七街６８６號","OBJECTID":603048},"geometry":{"x":164877.32000000123,"y":2543426.3599999994}},{"attributes":{"ID":603076,"DIS_CODE":0,"TOWNNAME":"安平區","LI":"國平里","LIN":"22鄰","STREET":"建平七街","SECT":" ","MAREA":" ","LANE":" ","ALLEY":" ","HOUSE_NO":"６９８號","E_COORD97":164852.16,"N_COORD97":2543430.29,"ADDRESS":"建平七街６９８號","OBJECTID":603049},"geometry":{"x":164852.16000000015,"y":2543430.2899999991}},{"attributes":{"ID":603077,"DIS_CODE":0,"TOWNNAME":"安平區","LI":"國平里","LIN":"22鄰","STREET":"建平七街","SECT":" ","MAREA":" ","LANE":" ","ALLEY":" ","HOUSE_NO":"７００號","E_COORD97":164848.60000000001,"N_COORD97":2543430.6699999999,"ADDRESS":"建平七街７００號","OBJECTID":603050},"geometry":{"x":164848.59999999963,"y":2543430.6700000018}},{"attributes":{"ID":603078,"DIS_CODE":0,"TOWNNAME":"安平區","LI":"國平里","LIN":"22鄰","STREET":"建平七街","SECT":" ","MAREA":" ","LANE":" ","ALLEY":" ","HOUSE_NO":"７０２號","E_COORD97":164844.47,"N_COORD97":2543430.96,"ADDRESS":"建平七街７０２號","OBJECTID":603051},"geometry":{"x":164844.46999999974,"y":2543430.9600000009}},{"attributes":{"ID":603079,"DIS_CODE":0,"TOWNNAME":"安平區","LI":"國平里","LIN":"22鄰","STREET":"建平七街","SECT":" ","MAREA":" ","LANE":" ","ALLEY":" ","HOUSE_NO":"７０４號","E_COORD97":164840.16,"N_COORD97":2543431.9199999999,"ADDRESS":"建平七街７０４號","OBJECTID":603052},"geometry":{"x":164840.16000000015,"y":2543431.9200000018}},{"attributes":{"ID":603080,"DIS_CODE":0,"TOWNNAME":"安平區","LI":"國平里","LIN":"22鄰","STREET":"建平七街","SECT":" ","MAREA":" ","LANE":" ","ALLEY":" ","HOUSE_NO":"７０６號","E_COORD97":164835.16,"N_COORD97":2543432.5899999999,"ADDRESS":"建平七街７０６號","OBJECTID":603053},"geometry":{"x":164835.16000000015,"y":2543432.5899999999}},{"attributes":{"ID":603081,"DIS_CODE":0,"TOWNNAME":"麻豆區","LI":"油車里","LIN":"22鄰","STREET":"麻學路","SECT":"一段","MAREA":" ","LANE":" ","ALLEY":" ","HOUSE_NO":"２６號","E_COORD97":172241.42000000001,"N_COORD97":2565055.2999999998,"ADDRESS":"麻學路一段２６號","OBJECTID":603054},"geometry":{"x":172241.41999999899,"y":2565055.3000000007}},{"attributes":{"ID":603082,"DIS_CODE":0,"TOWNNAME":"永康區","LI":"\u25A0洲里","LIN":"25鄰","STREET":"中正南路","SECT":" ","MAREA":" ","LANE":" ","ALLEY":" ","HOUSE_NO":"４７３號","E_COORD97":170864.32000000001,"N_COORD97":2548127.3999999999,"ADDRESS":"中正南路４７３號","OBJECTID":603055},"geometry":{"x":170864.31999999937,"y":2548127.4000000004}},{"attributes":{"ID":603083,"DIS_CODE":0,"TOWNNAME":"永康區","LI":"埔園里","LIN":"30鄰","STREET":"龍埔街","SECT":" ","MAREA":" ","LANE":" ","ALLEY":" ","HOUSE_NO":"４３４號","E_COORD97":173930.23000000001,"N_COORD97":2548377.25,"ADDRESS":"龍埔街４３４號","OBJECTID":603056},"geometry":{"x":173930.23000000138,"y":2548377.2500000019}},{"attributes":{"ID":603084,"DIS_CODE":0,"TOWNNAME":"永康區","LI":"龍潭里","LIN":"29鄰","STREET":"龍潭街","SECT":" ","MAREA":" ","LANE":" ","ALLEY":" ","HOUSE_NO":"６號","E_COORD97":174717.89000000001,"N_COORD97":2547716.5299999998,"ADDRESS":"龍潭街６號","OBJECTID":603057},"geometry":{"x":174717.88999999966,"y":2547716.5300000012}},{"attributes":{"ID":603085,"DIS_CODE":0,"TOWNNAME":"麻豆區","LI":"油車里","LIN":"22鄰","STREET":"麻學路","SECT":"一段","MAREA":" ","LANE":" ","ALLEY":" ","HOUSE_NO":"３６號","E_COORD97":172206.98999999999,"N_COORD97":2565091.7599999998,"ADDRESS":"麻學路一段３６號","OBJECTID":603058},"geometry":{"x":172206.99000000022,"y":2565091.7599999998}},{"attributes":{"ID":603086,"DIS_CODE":0,"TOWNNAME":"麻豆區","LI":"油車里","LIN":"22鄰","STREET":"麻學路","SECT":"一段","MAREA":" ","LANE":" ","ALLEY":" ","HOUSE_NO":"８號之１","E_COORD97":172233.31,"N_COORD97":2565060.6699999999,"ADDRESS":"麻學路一段８號之１","OBJECTID":603059},"geometry":{"x":172233.30999999959,"y":2565060.6700000018}},{"attributes":{"ID":603087,"DIS_CODE":0,"TOWNNAME":"新營區","LI":"王公里","LIN":"22鄰","STREET":"大仁街","SECT":" ","MAREA":" ","LANE":" ","ALLEY":" ","HOUSE_NO":"６８號","E_COORD97":180401.48000000001,"N_COORD97":2579369.2999999998,"ADDRESS":"大仁街６８號","OBJECTID":603060},"geometry":{"x":180401.48000000045,"y":2579369.3000000026}},{"attributes":{"ID":603088,"DIS_CODE":0,"TOWNNAME":"新營區","LI":"王公里","LIN":"22鄰","STREET":"大仁街","SECT":" ","MAREA":" ","LANE":" ","ALLEY":" ","HOUSE_NO":"６８之２號","E_COORD97":180413.20000000001,"N_COORD97":2579370.4100000001,"ADDRESS":"大仁街６８之２號","OBJECTID":603061},"geometry":{"x":180413.20000000112,"y":2579370.410000002}},{"attributes":{"ID":603089,"DIS_CODE":0,"TOWNNAME":"歸仁區","LI":"大廟里","LIN":"22鄰","STREET":"大廟一街","SECT":" ","MAREA":" ","LANE":" ","ALLEY":" ","HOUSE_NO":"６６號","E_COORD97":175765.87,"N_COORD97":2544003.25,"ADDRESS":"大廟一街６６號","OBJECTID":603062},"geometry":{"x":175765.87000000011,"y":2544003.2500000019}},{"attributes":{"ID":603090,"DIS_CODE":0,"TOWNNAME":"北區","LI":"大道里","LIN":"22鄰","STREET":"旭日街","SECT":" ","MAREA":" ","LANE":" ","ALLEY":" ","HOUSE_NO":"７６號","E_COORD97":169404.32999999999,"N_COORD97":2545627.4300000002,"ADDRESS":"旭日街７６號","OBJECTID":603063},"geometry":{"x":169404.33000000007,"y":2545627.4299999997}},{"attributes":{"ID":603091,"DIS_CODE":0,"TOWNNAME":"北區","LI":"大道里","LIN":"22鄰","STREET":"旭日街","SECT":" ","MAREA":" ","LANE":" ","ALLEY":" ","HOUSE_NO":"８０號","E_COORD97":169406.64000000001,"N_COORD97":2545635.29,"ADDRESS":"旭日街８０號","OBJECTID":603064},"geometry":{"x":169406.63999999966,"y":2545635.2900000028}},{"attributes":{"ID":603092,"DIS_CODE":0,"TOWNNAME":"北區","LI":"大道里","LIN":"22鄰","STREET":"旭日街","SECT":" ","MAREA":" ","LANE":" ","ALLEY":" ","HOUSE_NO":"８２號","E_COORD97":169408.01999999999,"N_COORD97":2545640.21,"ADDRESS":"旭日街８２號","OBJECTID":603065},"geometry":{"x":169408.02000000048,"y":2545640.2100000009}},{"attributes":{"ID":603093,"DIS_CODE":0,"TOWNNAME":"南區","LI":"明興里","LIN":"22鄰","STREET":"永春街","SECT":" ","MAREA":" ","LANE":" ","ALLEY":" ","HOUSE_NO":"４７號","E_COORD97":167097.45999999999,"N_COORD97":2540667.6899999999,"ADDRESS":"永春街４７號","OBJECTID":603066},"geometry":{"x":167097.45999999996,"y":2540667.6899999995}},{"attributes":{"ID":603094,"DIS_CODE":0,"TOWNNAME":"永康區","LI":"崑山里","LIN":"8鄰","STREET":"大灣路","SECT":" ","MAREA":" ","LANE":" ","ALLEY":" ","HOUSE_NO":"９６５號","E_COORD97":173373.37,"N_COORD97":2544348.5600000001,"ADDRESS":"大灣路９６５號","OBJECTID":603067},"geometry":{"x":173373.37000000104,"y":2544348.5600000005}},{"attributes":{"ID":603095,"DIS_CODE":0,"TOWNNAME":"永康區","LI":"崑山里","LIN":"6鄰","STREET":"永大路","SECT":"一段","MAREA":" ","LANE":" ","ALLEY":" ","HOUSE_NO":"１９之１號","E_COORD97":173805.56,"N_COORD97":2543889.6299999999,"ADDRESS":"永大路一段１９之１號","OBJECTID":603068},"geometry":{"x":173805.56000000052,"y":2543889.629999999}},{"attributes":{"ID":603096,"DIS_CODE":0,"TOWNNAME":"南區","LI":"明興里","LIN":"22鄰","STREET":"永春街","SECT":" ","MAREA":" ","LANE":" ","ALLEY":" ","HOUSE_NO":"４９號","E_COORD97":167096.56,"N_COORD97":2540672.0499999998,"ADDRESS":"永春街４９號","OBJECTID":603069},"geometry":{"x":167096.55999999959,"y":2540672.0500000026}},{"attributes":{"ID":603097,"DIS_CODE":0,"TOWNNAME":"南區","LI":"明興里","LIN":"22鄰","STREET":"永春街","SECT":" ","MAREA":" ","LANE":" ","ALLEY":" ","HOUSE_NO":"５９號","E_COORD97":167099.04999999999,"N_COORD97":2540709.8599999999,"ADDRESS":"永春街５９號","OBJECTID":603070},"geometry":{"x":167099.05000000168,"y":2540709.8600000013}},{"attributes":{"ID":603098,"DIS_CODE":0,"TOWNNAME":"南區","LI":"明興里","LIN":"22鄰","STREET":"永春街","SECT":" ","MAREA":" ","LANE":" ","ALLEY":" ","HOUSE_NO":"６５號","E_COORD97":167099.39000000001,"N_COORD97":2540724.3999999999,"ADDRESS":"永春街６５號","OBJECTID":603071},"geometry":{"x":167099.38999999966,"y":2540724.4000000022}},{"attributes":{"ID":603099,"DIS_CODE":0,"TOWNNAME":"南區","LI":"明興里","LIN":"22鄰","STREET":"永興一街","SECT":" ","MAREA":" ","LANE":" ","ALLEY":" ","HOUSE_NO":"４４號","E_COORD97":167138.34,"N_COORD97":2540736.2799999998,"ADDRESS":"永興一街４４號","OBJECTID":603072},"geometry":{"x":167138.34000000078,"y":2540736.2800000031}},{"attributes":{"ID":603100,"DIS_CODE":0,"TOWNNAME":"南區","LI":"明興里","LIN":"22鄰","STREET":"永興一街","SECT":" ","MAREA":" ","LANE":" ","ALLEY":" ","HOUSE_NO":"４６號","E_COORD97":167131.63,"N_COORD97":2540737.1299999999,"ADDRESS":"永興一街４６號","OBJECTID":603073},"geometry":{"x":167131.62999999989,"y":2540737.1300000027}},{"attributes":{"ID":603101,"DIS_CODE":0,"TOWNNAME":"南區","LI":"明興里","LIN":"22鄰","STREET":"永興一街","SECT":" ","MAREA":" ","LANE":" ","ALLEY":" ","HOUSE_NO":"６４號","E_COORD97":167091.32000000001,"N_COORD97":2540740.4399999999,"ADDRESS":"永興一街６４號","OBJECTID":603074},"geometry":{"x":167091.32000000123,"y":2540740.4400000013}},{"attributes":{"ID":603102,"DIS_CODE":0,"TOWNNAME":"南區","LI":"明興里","LIN":"22鄰","STREET":"永興一街","SECT":" ","MAREA":" ","LANE":" ","ALLEY":" ","HOUSE_NO":"６６號","E_COORD97":167087.84,"N_COORD97":2540739.7599999998,"ADDRESS":"永興一街６６號","OBJECTID":603075},"geometry":{"x":167087.83999999985,"y":2540739.7599999998}},{"attributes":{"ID":603103,"DIS_CODE":0,"TOWNNAME":"南區","LI":"郡南里","LIN":"22鄰","STREET":"永興三街","SECT":" ","MAREA":" ","LANE":" ","ALLEY":" ","HOUSE_NO":"７２號","E_COORD97":167280.04999999999,"N_COORD97":2540616.0899999999,"ADDRESS":"永興三街７２號","OBJECTID":603076},"geometry":{"x":167280.04999999981,"y":2540616.0900000036}},{"attributes":{"ID":603104,"DIS_CODE":0,"TOWNNAME":"南區","LI":"郡南里","LIN":"22鄰","STREET":"永興三街","SECT":" ","MAREA":" ","LANE":" ","ALLEY":" ","HOUSE_NO":"７６號","E_COORD97":167261.12,"N_COORD97":2540618.3999999999,"ADDRESS":"永興三街７６號","OBJECTID":603077},"geometry":{"x":167261.12000000011,"y":2540618.4000000022}},{"attributes":{"ID":603105,"DIS_CODE":0,"TOWNNAME":"南區","LI":"郡南里","LIN":"22鄰","STREET":"永興三街","SECT":" ","MAREA":" ","LANE":" ","ALLEY":" ","HOUSE_NO":"７８號","E_COORD97":167256.09,"N_COORD97":2540618.0099999998,"ADDRESS":"永興三街７８號","OBJECTID":603078},"geometry":{"x":167256.08999999985,"y":2540618.0100000016}},{"attributes":{"ID":603106,"DIS_CODE":0,"TOWNNAME":"南區","LI":"郡南里","LIN":"22鄰","STREET":"永興三街","SECT":" ","MAREA":" ","LANE":" ","ALLEY":" ","HOUSE_NO":"８２號","E_COORD97":167246.04999999999,"N_COORD97":2540619.5600000001,"ADDRESS":"永興三街８２號","OBJECTID":603079},"geometry":{"x":167246.04999999981,"y":2540619.5600000005}},{"attributes":{"ID":603107,"DIS_CODE":0,"TOWNNAME":"南區","LI":"郡南里","LIN":"22鄰","STREET":"永興三街","SECT":" ","MAREA":" ","LANE":" ","ALLEY":" ","HOUSE_NO":"８４號","E_COORD97":167241.79999999999,"N_COORD97":2540625.3500000001,"ADDRESS":"永興三街８４號","OBJECTID":603080},"geometry":{"x":167241.80000000075,"y":2540625.3500000015}},{"attributes":{"ID":603108,"DIS_CODE":0,"TOWNNAME":"南區","LI":"郡南里","LIN":"22鄰","STREET":"永興三街","SECT":" ","MAREA":" ","LANE":" ","ALLEY":" ","HOUSE_NO":"８６號","E_COORD97":167238.32000000001,"N_COORD97":2540623.7999999998,"ADDRESS":"永興三街８６號","OBJECTID":603081},"geometry":{"x":167238.31999999937,"y":2540623.8000000026}},{"attributes":{"ID":603109,"DIS_CODE":0,"TOWNNAME":"南區","LI":"郡南里","LIN":"22鄰","STREET":"永興三街","SECT":" ","MAREA":" ","LANE":" ","ALLEY":" ","HOUSE_NO":"８０號","E_COORD97":167251.07000000001,"N_COORD97":2540618.0099999998,"ADDRESS":"永興三街８０號","OBJECTID":603082},"geometry":{"x":167251.07000000123,"y":2540618.0100000016}},{"attributes":{"ID":603110,"DIS_CODE":0,"TOWNNAME":"安平區","LI":"國平里","LIN":"22鄰","STREET":"建平七街","SECT":" ","MAREA":" ","LANE":" ","ALLEY":" ","HOUSE_NO":"７１０號","E_COORD97":164827.25,"N_COORD97":2543434.1299999999,"ADDRESS":"建平七街７１０號","OBJECTID":603083},"geometry":{"x":164827.25,"y":2543434.129999999}},{"attributes":{"ID":603111,"DIS_CODE":0,"TOWNNAME":"安平區","LI":"國平里","LIN":"22鄰","STREET":"建平七街","SECT":" ","MAREA":" ","LANE":" ","ALLEY":" ","HOUSE_NO":"７１２號","E_COORD97":164822.53,"N_COORD97":2543434.8100000001,"ADDRESS":"建平七街７１２號","OBJECTID":603084},"geometry":{"x":164822.53000000026,"y":2543434.8100000005}},{"attributes":{"ID":603112,"DIS_CODE":0,"TOWNNAME":"安平區","LI":"國平里","LIN":"22鄰","STREET":"建平七街","SECT":" ","MAREA":" ","LANE":" ","ALLEY":" ","HOUSE_NO":"７１４號","E_COORD97":164818.66,"N_COORD97":2543435.3100000001,"ADDRESS":"建平七街７１４號","OBJECTID":603085},"geometry":{"x":164818.66000000201,"y":2543435.3100000005}},{"attributes":{"ID":603113,"DIS_CODE":0,"TOWNNAME":"安平區","LI":"國平里","LIN":"22鄰","STREET":"建平七街","SECT":" ","MAREA":" ","LANE":" ","ALLEY":" ","HOUSE_NO":"７１６號","E_COORD97":164814.62,"N_COORD97":2543435.98,"ADDRESS":"建平七街７１６號","OBJECTID":603086},"geometry":{"x":164814.62000000011,"y":2543435.9800000023}},{"attributes":{"ID":603114,"DIS_CODE":0,"TOWNNAME":"安平區","LI":"國平里","LIN":"22鄰","STREET":"建平七街","SECT":" ","MAREA":" ","LANE":" ","ALLEY":" ","HOUSE_NO":"７１８號","E_COORD97":164810.75,"N_COORD97":2543436.6499999999,"ADDRESS":"建平七街７１８號","OBJECTID":603087},"geometry":{"x":164810.75,"y":2543436.6500000004}},{"attributes":{"ID":603115,"DIS_CODE":0,"TOWNNAME":"永康區","LI":"崑山里","LIN":"7鄰","STREET":"大灣路","SECT":" ","MAREA":" ","LANE":" ","ALLEY":" ","HOUSE_NO":"９２５號","E_COORD97":173543.42000000001,"N_COORD97":2544384.6099999999,"ADDRESS":"大灣路９２５號","OBJECTID":603088},"geometry":{"x":173543.42000000179,"y":2544384.6099999994}},{"attributes":{"ID":603116,"DIS_CODE":0,"TOWNNAME":"永康區","LI":"崑山里","LIN":"37鄰","STREET":"大仁街","SECT":" ","MAREA":" ","LANE":" ","ALLEY":" ","HOUSE_NO":"２０６號","E_COORD97":173955.03,"N_COORD97":2545088.3799999999,"ADDRESS":"大仁街２０６號","OBJECTID":603089},"geometry":{"x":173955.03000000212,"y":2545088.3799999971}},{"attributes":{"ID":603117,"DIS_CODE":0,"TOWNNAME":"永康區","LI":"埔園里","LIN":"28鄰","STREET":"埔園街","SECT":" ","MAREA":" ","LANE":" ","ALLEY":" ","HOUSE_NO":"２０５號","E_COORD97":173718.14999999999,"N_COORD97":2548236.7400000002,"ADDRESS":"埔園街２０５號","OBJECTID":603090},"geometry":{"x":173718.15000000037,"y":2548236.7400000002}},{"attributes":{"ID":603118,"DIS_CODE":0,"TOWNNAME":"安平區","LI":"國平里","LIN":"22鄰","STREET":"建平七街","SECT":" ","MAREA":" ","LANE":" ","ALLEY":" ","HOUSE_NO":"７２０號","E_COORD97":164806.38,"N_COORD97":2543437.3300000001,"ADDRESS":"建平七街７２０號","OBJECTID":603091},"geometry":{"x":164806.37999999989,"y":2543437.3300000001}},{"attributes":{"ID":603119,"DIS_CODE":0,"TOWNNAME":"安平區","LI":"國平里","LIN":"22鄰","STREET":"健康三街","SECT":" ","MAREA":" ","LANE":" ","ALLEY":" ","HOUSE_NO":"２３４號","E_COORD97":164801.17000000001,"N_COORD97":2543478.1800000002,"ADDRESS":"健康三街２３４號","OBJECTID":603092},"geometry":{"x":164801.16999999993,"y":2543478.1800000016}},{"attributes":{"ID":603120,"DIS_CODE":0,"TOWNNAME":"安平區","LI":"國平里","LIN":"22鄰","STREET":"健康三街","SECT":" ","MAREA":" ","LANE":" ","ALLEY":" ","HOUSE_NO":"２３２號","E_COORD97":164801.17000000001,"N_COORD97":2543473.6499999999,"ADDRESS":"健康三街２３２號","OBJECTID":603093},"geometry":{"x":164801.16999999993,"y":2543473.6500000004}},{"attributes":{"ID":603121,"DIS_CODE":0,"TOWNNAME":"安平區","LI":"國平里","LIN":"22鄰","STREET":"健康三街","SECT":" ","MAREA":" ","LANE":" ","ALLEY":" ","HOUSE_NO":"２３０號","E_COORD97":164800.64999999999,"N_COORD97":2543468.8300000001,"ADDRESS":"健康三街２３０號","OBJECTID":603094},"geometry":{"x":164800.6500000013,"y":2543468.8300000001}},{"attributes":{"ID":603122,"DIS_CODE":0,"TOWNNAME":"安平區","LI":"國平里","LIN":"22鄰","STREET":"健康三街","SECT":" ","MAREA":" ","LANE":" ","ALLEY":" ","HOUSE_NO":"２２８號","E_COORD97":164800.12,"N_COORD97":2543464.8399999999,"ADDRESS":"健康三街２２８號","OBJECTID":603095},"geometry":{"x":164800.11999999918,"y":2543464.8399999999}},{"attributes":{"ID":603123,"DIS_CODE":0,"TOWNNAME":"安平區","LI":"國平里","LIN":"22鄰","STREET":"健康三街","SECT":" ","MAREA":" ","LANE":" ","ALLEY":" ","HOUSE_NO":"２２６號","E_COORD97":164800.12,"N_COORD97":2543459.8700000001,"ADDRESS":"健康三街２２６號","OBJECTID":603096},"geometry":{"x":164800.11999999918,"y":2543459.8699999992}},{"attributes":{"ID":603124,"DIS_CODE":0,"TOWNNAME":"北區","LI":"文成里","LIN":"22鄰","STREET":"立賢路","SECT":"二段","MAREA":" ","LANE":" ","ALLEY":" ","HOUSE_NO":"９８號","E_COORD97":167796.62,"N_COORD97":2545565.2999999998,"ADDRESS":"立賢路二段９８號","OBJECTID":603097},"geometry":{"x":167796.62000000011,"y":2545565.3000000007}},{"attributes":{"ID":603125,"DIS_CODE":0,"TOWNNAME":"北區","LI":"文成里","LIN":"22鄰","STREET":"立賢路","SECT":"二段","MAREA":" ","LANE":" ","ALLEY":" ","HOUSE_NO":"９８之１號","E_COORD97":167793.13,"N_COORD97":2545565.7799999998,"ADDRESS":"立賢路二段９８之１號","OBJECTID":603098},"geometry":{"x":167793.12999999989,"y":2545565.7800000012}},{"attributes":{"ID":603126,"DIS_CODE":0,"TOWNNAME":"北區","LI":"文元里","LIN":"22鄰","STREET":"文賢三街","SECT":" ","MAREA":" ","LANE":" ","ALLEY":" ","HOUSE_NO":"１０８號","E_COORD97":167839.82999999999,"N_COORD97":2545785.3999999999,"ADDRESS":"文賢三街１０８號","OBJECTID":603099},"geometry":{"x":167839.83000000194,"y":2545785.4000000022}},{"attributes":{"ID":603127,"DIS_CODE":0,"TOWNNAME":"北區","LI":"文元里","LIN":"22鄰","STREET":"文成路","SECT":" ","MAREA":" ","LANE":" ","ALLEY":" ","HOUSE_NO":"６８１號","E_COORD97":167720.23999999999,"N_COORD97":2545870.0299999998,"ADDRESS":"文成路６８１號","OBJECTID":603100},"geometry":{"x":167720.24000000209,"y":2545870.0299999993}},{"attributes":{"ID":603128,"DIS_CODE":0,"TOWNNAME":"永康區","LI":"埔園里","LIN":"39鄰","STREET":"聖龍街","SECT":" ","MAREA":" ","LANE":" ","ALLEY":" ","HOUSE_NO":"１８３號","E_COORD97":174320.63,"N_COORD97":2547853.4300000002,"ADDRESS":"聖龍街１８３號","OBJECTID":603101},"geometry":{"x":174320.63000000082,"y":2547853.4300000016}},{"attributes":{"ID":603129,"DIS_CODE":0,"TOWNNAME":"永康區","LI":"崑山里","LIN":"11鄰","STREET":"大灣路","SECT":" ","MAREA":" ","LANE":" ","ALLEY":" ","HOUSE_NO":"１０５８號","E_COORD97":173334.88,"N_COORD97":2544368.3799999999,"ADDRESS":"大灣路１０５８號","OBJECTID":603102},"geometry":{"x":173334.87999999989,"y":2544368.379999999}},{"attributes":{"ID":603130,"DIS_CODE":0,"TOWNNAME":"永康區","LI":"埔園里","LIN":"15鄰","STREET":"中山路","SECT":" ","MAREA":" ","LANE":" ","ALLEY":" ","HOUSE_NO":"３３３號","E_COORD97":173592,"N_COORD97":2548412.25,"ADDRESS":"中山路３３３號","OBJECTID":603103},"geometry":{"x":173592,"y":2548412.25}},{"attributes":{"ID":603131,"DIS_CODE":0,"TOWNNAME":"新化區","LI":"東榮里","LIN":"22鄰","STREET":"復興路","SECT":" ","MAREA":" ","LANE":" ","ALLEY":" ","HOUSE_NO":"２２５號之３","E_COORD97":179372.76999999999,"N_COORD97":2548134.2599999998,"ADDRESS":"復興路２２５號之３","OBJECTID":603104},"geometry":{"x":179372.77000000048,"y":2548134.2599999998}},{"attributes":{"ID":603132,"DIS_CODE":0,"TOWNNAME":"新化區","LI":"東榮里","LIN":"22鄰","STREET":"復興路","SECT":" ","MAREA":" ","LANE":" ","ALLEY":" ","HOUSE_NO":"２２５號之６","E_COORD97":179372.76999999999,"N_COORD97":2548134.2599999998,"ADDRESS":"復興路２２５號之６","OBJECTID":603105},"geometry":{"x":179372.77000000048,"y":2548134.2599999998}},{"attributes":{"ID":603133,"DIS_CODE":0,"TOWNNAME":"新化區","LI":"東榮里","LIN":"22鄰","STREET":"復興路","SECT":" ","MAREA":" ","LANE":" ","ALLEY":" ","HOUSE_NO":"２３９號","E_COORD97":179367.22,"N_COORD97":2548169.25,"ADDRESS":"復興路２３９號","OBJECTID":603106},"geometry":{"x":179367.21999999974,"y":2548169.2500000037}},{"attributes":{"ID":603134,"DIS_CODE":0,"TOWNNAME":"新化區","LI":"東榮里","LIN":"22鄰","STREET":"復興路","SECT":" ","MAREA":" ","LANE":" ","ALLEY":" ","HOUSE_NO":"２２１號之１","E_COORD97":179372.75,"N_COORD97":2548134.2599999998,"ADDRESS":"復興路２２１號之１","OBJECTID":603107},"geometry":{"x":179372.75000000186,"y":2548134.2599999998}},{"attributes":{"ID":603135,"DIS_CODE":0,"TOWNNAME":"新化區","LI":"東榮里","LIN":"22鄰","STREET":"復興路","SECT":" ","MAREA":" ","LANE":" ","ALLEY":" ","HOUSE_NO":"２２７號","E_COORD97":179372.32000000001,"N_COORD97":2548134.25,"ADDRESS":"復興路２２７號","OBJECTID":603108},"geometry":{"x":179372.3200000003,"y":2548134.25}},{"attributes":{"ID":603136,"DIS_CODE":0,"TOWNNAME":"新化區","LI":"東榮里","LIN":"22鄰","STREET":"復興路","SECT":" ","MAREA":" ","LANE":" ","ALLEY":" ","HOUSE_NO":"２２３號之１","E_COORD97":179372.75,"N_COORD97":2548134.2599999998,"ADDRESS":"復興路２２３號之１","OBJECTID":603109},"geometry":{"x":179372.75000000186,"y":2548134.2599999998}},{"attributes":{"ID":603137,"DIS_CODE":0,"TOWNNAME":"新化區","LI":"東榮里","LIN":"22鄰","STREET":"復興路","SECT":" ","MAREA":" ","LANE":" ","ALLEY":" ","HOUSE_NO":"２２３號之４","E_COORD97":179372.76000000001,"N_COORD97":2548134.2599999998,"ADDRESS":"復興路２２３號之４","OBJECTID":603110},"geometry":{"x":179372.76000000071,"y":2548134.2599999998}},{"attributes":{"ID":603138,"DIS_CODE":0,"TOWNNAME":"安平區","LI":"西門里","LIN":"14鄰","STREET":"安北路","SECT":" ","MAREA":" ","LANE":" ","ALLEY":" ","HOUSE_NO":"１５３號","E_COORD97":163972.26999999999,"N_COORD97":2544834.4199999999,"ADDRESS":"安北路１５３號","OBJECTID":603111},"geometry":{"x":163972.26999999955,"y":2544834.4199999999}},{"attributes":{"ID":603139,"DIS_CODE":0,"TOWNNAME":"新營區","LI":"民生里","LIN":"22鄰","STREET":"公園路","SECT":"一段","MAREA":" ","LANE":" ","ALLEY":" ","HOUSE_NO":"５６號","E_COORD97":179130.81,"N_COORD97":2578418.8300000001,"ADDRESS":"公園路一段５６號","OBJECTID":603112},"geometry":{"x":179130.80999999959,"y":2578418.8300000019}},{"attributes":{"ID":603140,"DIS_CODE":0,"TOWNNAME":"永康區","LI":"安康里","LIN":"22鄰","STREET":"中華西街","SECT":" ","MAREA":" ","LANE":" ","ALLEY":" ","HOUSE_NO":"１４６號","E_COORD97":170677.82999999999,"N_COORD97":2546207.3900000001,"ADDRESS":"中華西街１４６號","OBJECTID":603113},"geometry":{"x":170677.83000000101,"y":2546207.3900000006}},{"attributes":{"ID":603141,"DIS_CODE":0,"TOWNNAME":"永康區","LI":"安康里","LIN":"22鄰","STREET":"中華西街","SECT":" ","MAREA":" ","LANE":" ","ALLEY":" ","HOUSE_NO":"１２６號","E_COORD97":170707.95000000001,"N_COORD97":2546150.3300000001,"ADDRESS":"中華西街１２６號","OBJECTID":603114},"geometry":{"x":170707.95000000112,"y":2546150.3300000001}},{"attributes":{"ID":603142,"DIS_CODE":0,"TOWNNAME":"永康區","LI":"甲頂里","LIN":"22鄰","STREET":"中正南路","SECT":" ","MAREA":" ","LANE":" ","ALLEY":" ","HOUSE_NO":"３０號底三層之１","E_COORD97":169670.59,"N_COORD97":2546655.7999999998,"ADDRESS":"中正南路３０號底三層之１","OBJECTID":603115},"geometry":{"x":169670.59000000078,"y":2546655.8000000007}},{"attributes":{"ID":603143,"DIS_CODE":0,"TOWNNAME":"永康區","LI":"安康里","LIN":"22鄰","STREET":"大橋一街","SECT":" ","MAREA":" ","LANE":" ","ALLEY":" ","HOUSE_NO":"６０號","E_COORD97":170674.29000000001,"N_COORD97":2546266.5800000001,"ADDRESS":"大橋一街６０號","OBJECTID":603116},"geometry":{"x":170674.29000000004,"y":2546266.5800000001}},{"attributes":{"ID":603144,"DIS_CODE":0,"TOWNNAME":"永康區","LI":"甲頂里","LIN":"22鄰","STREET":"中正南路","SECT":" ","MAREA":" ","LANE":" ","ALLEY":" ","HOUSE_NO":"６０號","E_COORD97":169671.97,"N_COORD97":2546763.3100000001,"ADDRESS":"中正南路６０號","OBJECTID":603117},"geometry":{"x":169671.96999999974,"y":2546763.3100000024}},{"attributes":{"ID":603145,"DIS_CODE":0,"TOWNNAME":"永康區","LI":"崑山里","LIN":"20鄰","STREET":"大仁街","SECT":" ","MAREA":" ","LANE":" ","ALLEY":" ","HOUSE_NO":"２６號","E_COORD97":173826.79999999999,"N_COORD97":2544555.6099999999,"ADDRESS":"大仁街２６號","OBJECTID":603118},"geometry":{"x":173826.79999999981,"y":2544555.6100000013}},{"attributes":{"ID":603146,"DIS_CODE":0,"TOWNNAME":"永康區","LI":"崑山里","LIN":"45鄰","STREET":"永華路","SECT":" ","MAREA":" ","LANE":" ","ALLEY":" ","HOUSE_NO":"２４號","E_COORD97":174073.67000000001,"N_COORD97":2545198.1000000001,"ADDRESS":"永華路２４號","OBJECTID":603119},"geometry":{"x":174073.66999999993,"y":2545198.0999999996}},{"attributes":{"ID":603147,"DIS_CODE":0,"TOWNNAME":"仁德區","LI":"仁義里","LIN":"22鄰","STREET":"中清路","SECT":" ","MAREA":" ","LANE":" ","ALLEY":" ","HOUSE_NO":"１１４號","E_COORD97":173730.17999999999,"N_COORD97":2541370.0499999998,"ADDRESS":"中清路１１４號","OBJECTID":603120},"geometry":{"x":173730.18000000063,"y":2541370.0500000045}},{"attributes":{"ID":603148,"DIS_CODE":0,"TOWNNAME":"仁德區","LI":"仁義里","LIN":"22鄰","STREET":"正義路","SECT":" ","MAREA":" ","LANE":" ","ALLEY":" ","HOUSE_NO":"１２４號","E_COORD97":173704.75,"N_COORD97":2541413.0099999998,"ADDRESS":"正義路１２４號","OBJECTID":603121},"geometry":{"x":173704.75000000093,"y":2541413.0099999998}},{"attributes":{"ID":603149,"DIS_CODE":0,"TOWNNAME":"仁德區","LI":"大甲里","LIN":"22鄰","STREET":"行大街","SECT":" ","MAREA":" ","LANE":" ","ALLEY":" ","HOUSE_NO":"３９２號","E_COORD97":169491.28,"N_COORD97":2535268.75,"ADDRESS":"行大街３９２號","OBJECTID":603122},"geometry":{"x":169491.28000000026,"y":2535268.7500000037}},{"attributes":{"ID":603150,"DIS_CODE":0,"TOWNNAME":"佳里區","LI":"鎮山里","LIN":"22鄰","STREET":"鎮山街","SECT":" ","MAREA":" ","LANE":" ","ALLEY":" ","HOUSE_NO":"７３號","E_COORD97":166301.89000000001,"N_COORD97":2561109.2599999998,"ADDRESS":"鎮山街７３號","OBJECTID":603123},"geometry":{"x":166301.8900000006,"y":2561109.2599999998}},{"attributes":{"ID":603151,"DIS_CODE":0,"TOWNNAME":"新市區","LI":"新市里","LIN":"22鄰","STREET":"自強街","SECT":" ","MAREA":" ","LANE":" ","ALLEY":" ","HOUSE_NO":"１７號","E_COORD97":177686.04999999999,"N_COORD97":2553507.5,"ADDRESS":"自強街１７號","OBJECTID":603124},"geometry":{"x":177686.05000000075,"y":2553507.5000000019}},{"attributes":{"ID":603152,"DIS_CODE":0,"TOWNNAME":"永康區","LI":"崑山里","LIN":"22鄰","STREET":"國光二街","SECT":" ","MAREA":" ","LANE":" ","ALLEY":" ","HOUSE_NO":"１５號","E_COORD97":174059.44,"N_COORD97":2544658.3399999999,"ADDRESS":"國光二街１５號","OBJECTID":603125},"geometry":{"x":174059.44000000134,"y":2544658.3399999999}},{"attributes":{"ID":603153,"DIS_CODE":0,"TOWNNAME":"南區","LI":"郡南里","LIN":"22鄰","STREET":"永興二街","SECT":" ","MAREA":" ","LANE":" ","ALLEY":" ","HOUSE_NO":"１３號","E_COORD97":167265.76000000001,"N_COORD97":2540641.1699999999,"ADDRESS":"永興二街１３號","OBJECTID":603126},"geometry":{"x":167265.76000000071,"y":2540641.1699999999}},{"attributes":{"ID":603154,"DIS_CODE":0,"TOWNNAME":"南區","LI":"郡南里","LIN":"22鄰","STREET":"永興二街","SECT":" ","MAREA":" ","LANE":" ","ALLEY":" ","HOUSE_NO":"１５號","E_COORD97":167259.95999999999,"N_COORD97":2540642.3300000001,"ADDRESS":"永興二街１５號","OBJECTID":603127},"geometry":{"x":167259.96000000089,"y":2540642.3300000019}},{"attributes":{"ID":603155,"DIS_CODE":0,"TOWNNAME":"東區","LI":"和平里","LIN":"22鄰","STREET":"自由路","SECT":"二段","MAREA":" ","LANE":" ","ALLEY":" ","HOUSE_NO":"１３３號","E_COORD97":171799.04000000001,"N_COORD97":2541551.3300000001,"ADDRESS":"自由路二段１３３號","OBJECTID":603128},"geometry":{"x":171799.04000000097,"y":2541551.3300000019}},{"attributes":{"ID":603156,"DIS_CODE":0,"TOWNNAME":"永康區","LI":"崑山里","LIN":"1鄰","STREET":"大灣路","SECT":" ","MAREA":" ","LANE":" ","ALLEY":" ","HOUSE_NO":"６７９號","E_COORD97":174001.20999999999,"N_COORD97":2544480.1499999999,"ADDRESS":"大灣路６７９號","OBJECTID":603129},"geometry":{"x":174001.21000000089,"y":2544480.1500000004}},{"attributes":{"ID":603157,"DIS_CODE":0,"TOWNNAME":"仁德區","LI":"仁義里","LIN":"22鄰","STREET":"正義路","SECT":" ","MAREA":" ","LANE":" ","ALLEY":" ","HOUSE_NO":"１０４號","E_COORD97":173660.87,"N_COORD97":2541419.0099999998,"ADDRESS":"正義路１０４號","OBJECTID":603130},"geometry":{"x":173660.86999999918,"y":2541419.0099999998}},{"attributes":{"ID":603158,"DIS_CODE":0,"TOWNNAME":"永康區","LI":"尚頂里","LIN":"22鄰","STREET":"大武街","SECT":" ","MAREA":" ","LANE":" ","ALLEY":" ","HOUSE_NO":"５６號","E_COORD97":170384.88,"N_COORD97":2546791.48,"ADDRESS":"大武街５６號","OBJECTID":603131},"geometry":{"x":170384.87999999989,"y":2546791.4800000042}},{"attributes":{"ID":603159,"DIS_CODE":0,"TOWNNAME":"永康區","LI":"西勢里","LIN":"22鄰","STREET":"富強路","SECT":"一段","MAREA":" ","LANE":" ","ALLEY":" ","HOUSE_NO":"２３２號之３","E_COORD97":175651.81,"N_COORD97":2546441.7999999998,"ADDRESS":"富強路一段２３２號之３","OBJECTID":603132},"geometry":{"x":175651.80999999959,"y":2546441.8000000026}},{"attributes":{"ID":603160,"DIS_CODE":0,"TOWNNAME":"東區","LI":"富強里","LIN":"22鄰","STREET":"富強二街","SECT":" ","MAREA":" ","LANE":" ","ALLEY":" ","HOUSE_NO":"７號","E_COORD97":170999.60000000001,"N_COORD97":2542521.6499999999,"ADDRESS":"富強二街７號","OBJECTID":603133},"geometry":{"x":170999.60000000056,"y":2542521.6500000041}},{"attributes":{"ID":603161,"DIS_CODE":0,"TOWNNAME":"東區","LI":"富強里","LIN":"22鄰","STREET":"富強二街","SECT":" ","MAREA":" ","LANE":" ","ALLEY":" ","HOUSE_NO":"９號","E_COORD97":171004.57999999999,"N_COORD97":2542527.9900000002,"ADDRESS":"富強二街９號","OBJECTID":603134},"geometry":{"x":171004.58000000007,"y":2542527.9900000002}},{"attributes":{"ID":603162,"DIS_CODE":0,"TOWNNAME":"東區","LI":"關聖里","LIN":"22鄰","STREET":"裕信路","SECT":" ","MAREA":" ","LANE":" ","ALLEY":" ","HOUSE_NO":"１６７號","E_COORD97":172616.89999999999,"N_COORD97":2542863.9500000002,"ADDRESS":"裕信路１６７號","OBJECTID":603135},"geometry":{"x":172616.90000000224,"y":2542863.9499999993}},{"attributes":{"ID":603163,"DIS_CODE":0,"TOWNNAME":"東區","LI":"關聖里","LIN":"22鄰","STREET":"裕信路","SECT":" ","MAREA":" ","LANE":" ","ALLEY":" ","HOUSE_NO":"１６９號","E_COORD97":172616.14999999999,"N_COORD97":2542859.4300000002,"ADDRESS":"裕信路１６９號","OBJECTID":603136},"geometry":{"x":172616.15000000037,"y":2542859.4300000016}},{"attributes":{"ID":603164,"DIS_CODE":0,"TOWNNAME":"東區","LI":"關聖里","LIN":"22鄰","STREET":"裕信路","SECT":" ","MAREA":" ","LANE":" ","ALLEY":" ","HOUSE_NO":"１７１號","E_COORD97":172615.64999999999,"N_COORD97":2542853.6499999999,"ADDRESS":"裕信路１７１號","OBJECTID":603137},"geometry":{"x":172615.6500000013,"y":2542853.6500000004}},{"attributes":{"ID":603165,"DIS_CODE":0,"TOWNNAME":"東區","LI":"關聖里","LIN":"22鄰","STREET":"裕信路","SECT":" ","MAREA":" ","LANE":" ","ALLEY":" ","HOUSE_NO":"１７３號","E_COORD97":172615.89999999999,"N_COORD97":2542848.1299999999,"ADDRESS":"裕信路１７３號","OBJECTID":603138},"geometry":{"x":172615.9000000013,"y":2542848.129999999}},{"attributes":{"ID":603166,"DIS_CODE":0,"TOWNNAME":"安南區","LI":"幸福里","LIN":"22鄰","STREET":"府安路","SECT":"六段","MAREA":" ","LANE":" ","ALLEY":" ","HOUSE_NO":"６０號","E_COORD97":166907.79999999999,"N_COORD97":2546613.9399999999,"ADDRESS":"府安路六段６０號","OBJECTID":603139},"geometry":{"x":166907.80000000075,"y":2546613.9399999995}},{"attributes":{"ID":603167,"DIS_CODE":0,"TOWNNAME":"安南區","LI":"安順里","LIN":"22鄰","STREET":"北安路","SECT":"三段","MAREA":" ","LANE":" ","ALLEY":" ","HOUSE_NO":"６３２號","E_COORD97":169426.60999999999,"N_COORD97":2550357.9700000002,"ADDRESS":"北安路三段６３２號","OBJECTID":603140},"geometry":{"x":169426.6100000022,"y":2550357.9700000007}},{"attributes":{"ID":603168,"DIS_CODE":0,"TOWNNAME":"安南區","LI":"安順里","LIN":"22鄰","STREET":"北安路","SECT":"三段","MAREA":" ","LANE":" ","ALLEY":" ","HOUSE_NO":"６２８號","E_COORD97":169468.06,"N_COORD97":2550305.29,"ADDRESS":"北安路三段６２８號","OBJECTID":603141},"geometry":{"x":169468.05999999959,"y":2550305.290000001}},{"attributes":{"ID":603169,"DIS_CODE":0,"TOWNNAME":"安南區","LI":"安順里","LIN":"22鄰","STREET":"北安路","SECT":"三段","MAREA":" ","LANE":" ","ALLEY":" ","HOUSE_NO":"６２６號","E_COORD97":169467.89999999999,"N_COORD97":2550297.9500000002,"ADDRESS":"北安路三段６２６號","OBJECTID":603142},"geometry":{"x":169467.9000000013,"y":2550297.9499999993}},{"attributes":{"ID":603170,"DIS_CODE":0,"TOWNNAME":"善化區","LI":"光文里","LIN":"22鄰","STREET":"中山路","SECT":" ","MAREA":" ","LANE":" ","ALLEY":" ","HOUSE_NO":"８６號（半毀）","E_COORD97":178681.06,"N_COORD97":2559246,"ADDRESS":"中山路８６號（半毀）","OBJECTID":603143},"geometry":{"x":178681.06000000052,"y":2559246}},{"attributes":{"ID":603171,"DIS_CODE":0,"TOWNNAME":"永康區","LI":"神洲里","LIN":"22鄰","STREET":"忠孝路","SECT":" ","MAREA":" ","LANE":" ","ALLEY":" ","HOUSE_NO":"７８號","E_COORD97":172091.92999999999,"N_COORD97":2544918.4900000002,"ADDRESS":"忠孝路７８號","OBJECTID":603144},"geometry":{"x":172091.92999999877,"y":2544918.4900000002}},{"attributes":{"ID":603172,"DIS_CODE":0,"TOWNNAME":"東區","LI":"關聖里","LIN":"22鄰","STREET":"裕和五街","SECT":" ","MAREA":" ","LANE":" ","ALLEY":" ","HOUSE_NO":"１９１號","E_COORD97":172832.48000000001,"N_COORD97":2542920.8799999999,"ADDRESS":"裕和五街１９１號","OBJECTID":603145},"geometry":{"x":172832.48000000045,"y":2542920.879999999}},{"attributes":{"ID":603173,"DIS_CODE":0,"TOWNNAME":"東區","LI":"關聖里","LIN":"22鄰","STREET":"裕和五街","SECT":" ","MAREA":" ","LANE":" ","ALLEY":" ","HOUSE_NO":"１８９號","E_COORD97":172832.89999999999,"N_COORD97":2542925.52,"ADDRESS":"裕和五街１８９號","OBJECTID":603146},"geometry":{"x":172832.9000000013,"y":2542925.5200000014}},{"attributes":{"ID":603174,"DIS_CODE":0,"TOWNNAME":"東區","LI":"關聖里","LIN":"22鄰","STREET":"裕和五街","SECT":" ","MAREA":" ","LANE":" ","ALLEY":" ","HOUSE_NO":"１８７號","E_COORD97":172832.04999999999,"N_COORD97":2542929.3199999998,"ADDRESS":"裕和五街１８７號","OBJECTID":603147},"geometry":{"x":172832.04999999888,"y":2542929.3200000003}},{"attributes":{"ID":603175,"DIS_CODE":0,"TOWNNAME":"東區","LI":"關聖里","LIN":"22鄰","STREET":"裕和五街","SECT":" ","MAREA":" ","LANE":" ","ALLEY":" ","HOUSE_NO":"１８５號","E_COORD97":172832.34,"N_COORD97":2542933.54,"ADDRESS":"裕和五街１８５號","OBJECTID":603148},"geometry":{"x":172832.34000000078,"y":2542933.5399999991}},{"attributes":{"ID":603176,"DIS_CODE":0,"TOWNNAME":"東區","LI":"關聖里","LIN":"22鄰","STREET":"裕和五街","SECT":" ","MAREA":" ","LANE":" ","ALLEY":" ","HOUSE_NO":"１８３號","E_COORD97":172831.91,"N_COORD97":2542938.3300000001,"ADDRESS":"裕和五街１８３號","OBJECTID":603149},"geometry":{"x":172831.91000000108,"y":2542938.3300000019}},{"attributes":{"ID":603177,"DIS_CODE":0,"TOWNNAME":"東區","LI":"關聖里","LIN":"22鄰","STREET":"裕和五街","SECT":" ","MAREA":" ","LANE":" ","ALLEY":" ","HOUSE_NO":"１８１號","E_COORD97":172831.48999999999,"N_COORD97":2542943.3900000001,"ADDRESS":"裕和五街１８１號","OBJECTID":603150},"geometry":{"x":172831.49000000115,"y":2542943.3900000006}},{"attributes":{"ID":603178,"DIS_CODE":0,"TOWNNAME":"東區","LI":"忠孝里","LIN":"22鄰","STREET":"崇明七街","SECT":" ","MAREA":" ","LANE":" ","ALLEY":" ","HOUSE_NO":"２３號","E_COORD97":169650.09,"N_COORD97":2542152.9900000002,"ADDRESS":"崇明七街２３號","OBJECTID":603151},"geometry":{"x":169650.09000000171,"y":2542152.9900000039}},{"attributes":{"ID":603179,"DIS_CODE":0,"TOWNNAME":"東區","LI":"忠孝里","LIN":"22鄰","STREET":"崇明七街","SECT":" ","MAREA":" ","LANE":" ","ALLEY":" ","HOUSE_NO":"２５號","E_COORD97":169657.81,"N_COORD97":2542155.1400000001,"ADDRESS":"崇明七街２５號","OBJECTID":603152},"geometry":{"x":169657.80999999959,"y":2542155.1400000006}},{"attributes":{"ID":603180,"DIS_CODE":0,"TOWNNAME":"東區","LI":"忠孝里","LIN":"22鄰","STREET":"崇明七街","SECT":" ","MAREA":" ","LANE":" ","ALLEY":" ","HOUSE_NO":"２７號","E_COORD97":169663.92000000001,"N_COORD97":2542157.4700000002,"ADDRESS":"崇明七街２７號","OBJECTID":603153},"geometry":{"x":169663.92000000086,"y":2542157.4700000025}},{"attributes":{"ID":603181,"DIS_CODE":0,"TOWNNAME":"東區","LI":"忠孝里","LIN":"22鄰","STREET":"崇明七街","SECT":" ","MAREA":" ","LANE":" ","ALLEY":" ","HOUSE_NO":"２９號","E_COORD97":169669.48000000001,"N_COORD97":2542159.6299999999,"ADDRESS":"崇明七街２９號","OBJECTID":603154},"geometry":{"x":169669.48000000045,"y":2542159.629999999}},{"attributes":{"ID":603182,"DIS_CODE":0,"TOWNNAME":"東區","LI":"忠孝里","LIN":"22鄰","STREET":"崇明七街","SECT":" ","MAREA":" ","LANE":" ","ALLEY":" ","HOUSE_NO":"３１號","E_COORD97":169679.54000000001,"N_COORD97":2542163.5699999998,"ADDRESS":"崇明七街３１號","OBJECTID":603155},"geometry":{"x":169679.5400000019,"y":2542163.5700000022}},{"attributes":{"ID":603183,"DIS_CODE":0,"TOWNNAME":"永康區","LI":"尚頂里","LIN":"22鄰","STREET":"大武街","SECT":" ","MAREA":" ","LANE":" ","ALLEY":" ","HOUSE_NO":"６１號","E_COORD97":170370.39999999999,"N_COORD97":2546809.2400000002,"ADDRESS":"大武街６１號","OBJECTID":603156},"geometry":{"x":170370.40000000037,"y":2546809.2400000002}},{"attributes":{"ID":603184,"DIS_CODE":0,"TOWNNAME":"永康區","LI":"尚頂里","LIN":"22鄰","STREET":"大武街","SECT":" ","MAREA":" ","LANE":" ","ALLEY":" ","HOUSE_NO":"５８號","E_COORD97":170386.88,"N_COORD97":2546794.23,"ADDRESS":"大武街５８號","OBJECTID":603157},"geometry":{"x":170386.87999999989,"y":2546794.2300000023}},{"attributes":{"ID":603185,"DIS_CODE":0,"TOWNNAME":"永康區","LI":"西勢里","LIN":"22鄰","STREET":"富強路","SECT":"一段","MAREA":" ","LANE":" ","ALLEY":" ","HOUSE_NO":"１９８號","E_COORD97":175609.66,"N_COORD97":2546367.02,"ADDRESS":"富強路一段１９８號","OBJECTID":603158},"geometry":{"x":175609.66000000015,"y":2546367.0200000014}},{"attributes":{"ID":603186,"DIS_CODE":0,"TOWNNAME":"永康區","LI":"安康里","LIN":"22鄰","STREET":"中華西街","SECT":" ","MAREA":" ","LANE":" ","ALLEY":" ","HOUSE_NO":"１３４號","E_COORD97":170700.16,"N_COORD97":2546164.3300000001,"ADDRESS":"中華西街１３４號","OBJECTID":603159},"geometry":{"x":170700.16000000015,"y":2546164.3300000001}},{"attributes":{"ID":603187,"DIS_CODE":0,"TOWNNAME":"永康區","LI":"龍潭里","LIN":"22鄰","STREET":"自強路","SECT":" ","MAREA":" ","LANE":" ","ALLEY":" ","HOUSE_NO":"８５６號","E_COORD97":174695.10999999999,"N_COORD97":2548695.98,"ADDRESS":"自強路８５６號","OBJECTID":603160},"geometry":{"x":174695.11000000034,"y":2548695.9800000004}},{"attributes":{"ID":603188,"DIS_CODE":0,"TOWNNAME":"永康區","LI":"龍潭里","LIN":"22鄰","STREET":"自強路","SECT":" ","MAREA":" ","LANE":" ","ALLEY":" ","HOUSE_NO":"８３６號","E_COORD97":174658.32000000001,"N_COORD97":2548668.7200000002,"ADDRESS":"自強路８３６號","OBJECTID":603161},"geometry":{"x":174658.32000000216,"y":2548668.7200000025}},{"attributes":{"ID":603189,"DIS_CODE":0,"TOWNNAME":"新化區","LI":"東榮里","LIN":"22鄰","STREET":"和平街","SECT":" ","MAREA":" ","LANE":" ","ALLEY":" ","HOUSE_NO":"２９號","E_COORD97":179292.87,"N_COORD97":2548160.25,"ADDRESS":"和平街２９號","OBJECTID":603162},"geometry":{"x":179292.87000000104,"y":2548160.2500000019}},{"attributes":{"ID":603190,"DIS_CODE":0,"TOWNNAME":"新化區","LI":"東榮里","LIN":"22鄰","STREET":"和平街","SECT":" ","MAREA":" ","LANE":" ","ALLEY":" ","HOUSE_NO":"９號","E_COORD97":179361.22,"N_COORD97":2548169.25,"ADDRESS":"和平街９號","OBJECTID":603163},"geometry":{"x":179361.22000000067,"y":2548169.2500000037}},{"attributes":{"ID":603191,"DIS_CODE":0,"TOWNNAME":"新化區","LI":"東榮里","LIN":"22鄰","STREET":"和平街","SECT":" ","MAREA":" ","LANE":" ","ALLEY":" ","HOUSE_NO":"２５號","E_COORD97":179310.26999999999,"N_COORD97":2548163.25,"ADDRESS":"和平街２５號","OBJECTID":603164},"geometry":{"x":179310.26999999955,"y":2548163.2500000019}},{"attributes":{"ID":603192,"DIS_CODE":0,"TOWNNAME":"永康區","LI":"尚頂里","LIN":"22鄰","STREET":"大武街","SECT":" ","MAREA":" ","LANE":" ","ALLEY":" ","HOUSE_NO":"７４號","E_COORD97":170396.78,"N_COORD97":2546811.9900000002,"ADDRESS":"大武街７４號","OBJECTID":603165},"geometry":{"x":170396.78000000212,"y":2546811.9900000021}},{"attributes":{"ID":603193,"DIS_CODE":0,"TOWNNAME":"永康區","LI":"\u25A0行里","LIN":"22鄰","STREET":"正南五街","SECT":" ","MAREA":" ","LANE":" ","ALLEY":" ","HOUSE_NO":"５１６號","E_COORD97":171590.13,"N_COORD97":2548776.48,"ADDRESS":"正南五街５１６號","OBJECTID":603166},"geometry":{"x":171590.12999999989,"y":2548776.4800000004}},{"attributes":{"ID":603194,"DIS_CODE":0,"TOWNNAME":"永康區","LI":"\u25A0行里","LIN":"22鄰","STREET":"正南五街","SECT":" ","MAREA":" ","LANE":" ","ALLEY":" ","HOUSE_NO":"４９０號","E_COORD97":171627,"N_COORD97":2548737.7400000002,"ADDRESS":"正南五街４９０號","OBJECTID":603167},"geometry":{"x":171627,"y":2548737.7400000002}},{"attributes":{"ID":603195,"DIS_CODE":0,"TOWNNAME":"永康區","LI":"\u25A0行里","LIN":"22鄰","STREET":"正南五街","SECT":" ","MAREA":" ","LANE":" ","ALLEY":" ","HOUSE_NO":"４８８號","E_COORD97":171635.39999999999,"N_COORD97":2548740.2400000002,"ADDRESS":"正南五街４８８號","OBJECTID":603168},"geometry":{"x":171635.40000000224,"y":2548740.2400000021}},{"attributes":{"ID":603196,"DIS_CODE":0,"TOWNNAME":"永康區","LI":"\u25A0洲里","LIN":"22鄰","STREET":"中正南路","SECT":" ","MAREA":" ","LANE":" ","ALLEY":" ","HOUSE_NO":"６７７號","E_COORD97":171471.04000000001,"N_COORD97":2548763.2400000002,"ADDRESS":"中正南路６７７號","OBJECTID":603169},"geometry":{"x":171471.04000000004,"y":2548763.2400000021}},{"attributes":{"ID":603197,"DIS_CODE":0,"TOWNNAME":"永康區","LI":"\u25A0洲里","LIN":"22鄰","STREET":"中正南路","SECT":" ","MAREA":" ","LANE":" ","ALLEY":" ","HOUSE_NO":"６８９號","E_COORD97":171489.5,"N_COORD97":2548780.2400000002,"ADDRESS":"中正南路６８９號","OBJECTID":603170},"geometry":{"x":171489.5,"y":2548780.2400000021}},{"attributes":{"ID":603198,"DIS_CODE":0,"TOWNNAME":"永康區","LI":"\u25A0洲里","LIN":"22鄰","STREET":"中正南路","SECT":" ","MAREA":" ","LANE":" ","ALLEY":" ","HOUSE_NO":"６７５號","E_COORD97":171466.19,"N_COORD97":2548758.7400000002,"ADDRESS":"中正南路６７５號","OBJECTID":603171},"geometry":{"x":171466.19000000134,"y":2548758.7400000002}},{"attributes":{"ID":603199,"DIS_CODE":0,"TOWNNAME":"永康區","LI":"龍潭里","LIN":"22鄰","STREET":"自強路","SECT":" ","MAREA":" ","LANE":" ","ALLEY":" ","HOUSE_NO":"８６６號","E_COORD97":174717.12,"N_COORD97":2548713.48,"ADDRESS":"自強路８６６號","OBJECTID":603172},"geometry":{"x":174717.12000000197,"y":2548713.4799999986}},{"attributes":{"ID":603200,"DIS_CODE":0,"TOWNNAME":"永康區","LI":"龍潭里","LIN":"22鄰","STREET":"龍安街","SECT":" ","MAREA":" ","LANE":" ","ALLEY":" ","HOUSE_NO":"２４９之１號","E_COORD97":174746.89999999999,"N_COORD97":2548604.3900000001,"ADDRESS":"龍安街２４９之１號","OBJECTID":603173},"geometry":{"x":174746.90000000037,"y":2548604.3900000006}},{"attributes":{"ID":603201,"DIS_CODE":0,"TOWNNAME":"永康區","LI":"龍潭里","LIN":"22鄰","STREET":"龍潭街","SECT":" ","MAREA":" ","LANE":" ","ALLEY":" ","HOUSE_NO":"３４４號","E_COORD97":174768.79999999999,"N_COORD97":2548466.0899999999,"ADDRESS":"龍潭街３４４號","OBJECTID":603174},"geometry":{"x":174768.80000000075,"y":2548466.0900000017}},{"attributes":{"ID":603202,"DIS_CODE":0,"TOWNNAME":"永康區","LI":"網寮里","LIN":"22鄰","STREET":"永大一路","SECT":" ","MAREA":" ","LANE":" ","ALLEY":" ","HOUSE_NO":"２４９號","E_COORD97":173666.72,"N_COORD97":2546301.9300000002,"ADDRESS":"永大一路２４９號","OBJECTID":603175},"geometry":{"x":173666.7200000016,"y":2546301.9299999997}},{"attributes":{"ID":603203,"DIS_CODE":0,"TOWNNAME":"仁德區","LI":"仁義里","LIN":"22鄰","STREET":"中清路","SECT":" ","MAREA":" ","LANE":" ","ALLEY":" ","HOUSE_NO":"１０１號","E_COORD97":173706.98999999999,"N_COORD97":2541350.2999999998,"ADDRESS":"中清路１０１號","OBJECTID":603176},"geometry":{"x":173706.99000000022,"y":2541350.3000000007}},{"attributes":{"ID":603204,"DIS_CODE":0,"TOWNNAME":"仁德區","LI":"仁義里","LIN":"22鄰","STREET":"中清路","SECT":" ","MAREA":" ","LANE":" ","ALLEY":" ","HOUSE_NO":"８９號","E_COORD97":173704.26000000001,"N_COORD97":2541325.79,"ADDRESS":"中清路８９號","OBJECTID":603177},"geometry":{"x":173704.26000000071,"y":2541325.7899999972}},{"attributes":{"ID":603205,"DIS_CODE":0,"TOWNNAME":"仁德區","LI":"仁義里","LIN":"22鄰","STREET":"正義路","SECT":" ","MAREA":" ","LANE":" ","ALLEY":" ","HOUSE_NO":"１１６號","E_COORD97":173687.42000000001,"N_COORD97":2541413.0099999998,"ADDRESS":"正義路１１６號","OBJECTID":603178},"geometry":{"x":173687.41999999899,"y":2541413.0099999998}},{"attributes":{"ID":603206,"DIS_CODE":0,"TOWNNAME":"仁德區","LI":"太子里","LIN":"22鄰","STREET":"太子北路","SECT":" ","MAREA":" ","LANE":" ","ALLEY":" ","HOUSE_NO":"２７０號","E_COORD97":173876.96738300001,"N_COORD97":2543603.1553699998,"ADDRESS":"太子北路２７０號","OBJECTID":603179},"geometry":{"x":173876.96738300007,"y":2543603.1553659998}},{"attributes":{"ID":603207,"DIS_CODE":0,"TOWNNAME":"仁德區","LI":"仁義里","LIN":"22鄰","STREET":"中清路","SECT":" ","MAREA":" ","LANE":" ","ALLEY":" ","HOUSE_NO":"１１８號","E_COORD97":173730.54000000001,"N_COORD97":2541375.5499999998,"ADDRESS":"中清路１１８號","OBJECTID":603180},"geometry":{"x":173730.54000000004,"y":2541375.5500000007}},{"attributes":{"ID":603208,"DIS_CODE":0,"TOWNNAME":"東區","LI":"中西里","LIN":"22鄰","STREET":"長榮路","SECT":"二段","MAREA":" ","LANE":" ","ALLEY":" ","HOUSE_NO":"１４６號","E_COORD97":170027.45999999999,"N_COORD97":2543308.5499999998,"ADDRESS":"長榮路二段１４６號","OBJECTID":603181},"geometry":{"x":170027.46000000183,"y":2543308.5500000007}},{"attributes":{"ID":603209,"DIS_CODE":0,"TOWNNAME":"東區","LI":"忠孝里","LIN":"22鄰","STREET":"崇明七街","SECT":" ","MAREA":" ","LANE":" ","ALLEY":" ","HOUSE_NO":"３５號","E_COORD97":169694.87,"N_COORD97":2542170.8199999998,"ADDRESS":"崇明七街３５號","OBJECTID":603182},"geometry":{"x":169694.87000000104,"y":2542170.8200000003}},{"attributes":{"ID":603210,"DIS_CODE":0,"TOWNNAME":"東區","LI":"忠孝里","LIN":"22鄰","STREET":"崇明七街","SECT":" ","MAREA":" ","LANE":" ","ALLEY":" ","HOUSE_NO":"３７號","E_COORD97":169698.10000000001,"N_COORD97":2542172.4300000002,"ADDRESS":"崇明七街３７號","OBJECTID":603183},"geometry":{"x":169698.09999999963,"y":2542172.4299999997}},{"attributes":{"ID":603211,"DIS_CODE":0,"TOWNNAME":"東區","LI":"忠孝里","LIN":"22鄰","STREET":"崇明七街","SECT":" ","MAREA":" ","LANE":" ","ALLEY":" ","HOUSE_NO":"３９號","E_COORD97":169701.69,"N_COORD97":2542173.6899999999,"ADDRESS":"崇明七街３９號","OBJECTID":603184},"geometry":{"x":169701.69000000041,"y":2542173.6899999995}},{"attributes":{"ID":603212,"DIS_CODE":0,"TOWNNAME":"東區","LI":"忠孝里","LIN":"22鄰","STREET":"崇明七街","SECT":" ","MAREA":" ","LANE":" ","ALLEY":" ","HOUSE_NO":"４１號","E_COORD97":169706.54000000001,"N_COORD97":2542174.4100000001,"ADDRESS":"崇明七街４１號","OBJECTID":603185},"geometry":{"x":169706.5400000019,"y":2542174.410000002}},{"attributes":{"ID":603213,"DIS_CODE":0,"TOWNNAME":"東區","LI":"忠孝里","LIN":"22鄰","STREET":"崇明七街","SECT":" ","MAREA":" ","LANE":" ","ALLEY":" ","HOUSE_NO":"４３號","E_COORD97":169709.41,"N_COORD97":2542176.02,"ADDRESS":"崇明七街４３號","OBJECTID":603186},"geometry":{"x":169709.41000000108,"y":2542176.0200000033}},{"attributes":{"ID":603214,"DIS_CODE":0,"TOWNNAME":"永康區","LI":"\u25A0行里","LIN":"22鄰","STREET":"正南五街","SECT":" ","MAREA":" ","LANE":" ","ALLEY":" ","HOUSE_NO":"５００號","E_COORD97":171614.92000000001,"N_COORD97":2548750.4900000002,"ADDRESS":"正南五街５００號","OBJECTID":603187},"geometry":{"x":171614.92000000086,"y":2548750.4899999984}},{"attributes":{"ID":603215,"DIS_CODE":0,"TOWNNAME":"永康區","LI":"中華里","LIN":"22鄰","STREET":"華興街","SECT":" ","MAREA":" ","LANE":" ","ALLEY":" ","HOUSE_NO":"１０４號","E_COORD97":171827.73999999999,"N_COORD97":2544582.0499999998,"ADDRESS":"華興街１０４號","OBJECTID":603188},"geometry":{"x":171827.74000000209,"y":2544582.0500000026}},{"attributes":{"ID":603216,"DIS_CODE":0,"TOWNNAME":"永康區","LI":"中華里","LIN":"22鄰","STREET":"華興街","SECT":" ","MAREA":" ","LANE":" ","ALLEY":" ","HOUSE_NO":"１００號","E_COORD97":171836.73000000001,"N_COORD97":2544582.02,"ADDRESS":"華興街１００號","OBJECTID":603189},"geometry":{"x":171836.73000000138,"y":2544582.0199999996}},{"attributes":{"ID":603217,"DIS_CODE":0,"TOWNNAME":"永康區","LI":"\u25A0洲里","LIN":"22鄰","STREET":"\u25A0忠街","SECT":" ","MAREA":" ","LANE":" ","ALLEY":" ","HOUSE_NO":"１９號","E_COORD97":171540.91,"N_COORD97":2548902.3599999999,"ADDRESS":"\u25A0忠街１９號","OBJECTID":603190},"geometry":{"x":171540.91000000015,"y":2548902.3599999994}},{"attributes":{"ID":603218,"DIS_CODE":0,"TOWNNAME":"永康區","LI":"\u25A0洲里","LIN":"22鄰","STREET":"\u25A0忠街","SECT":" ","MAREA":" ","LANE":" ","ALLEY":" ","HOUSE_NO":"２０號","E_COORD97":171559.04999999999,"N_COORD97":2548919.4500000002,"ADDRESS":"\u25A0忠街２０號","OBJECTID":603191},"geometry":{"x":171559.05000000168,"y":2548919.450000003}},{"attributes":{"ID":603219,"DIS_CODE":0,"TOWNNAME":"中西區","LI":"永華里","LIN":"22鄰","STREET":"忠義路","SECT":"二段","MAREA":" ","LANE":" ","ALLEY":" ","HOUSE_NO":"３６號","E_COORD97":168293.39000000001,"N_COORD97":2543685.6499999999,"ADDRESS":"忠義路二段３６號","OBJECTID":603192},"geometry":{"x":168293.39000000153,"y":2543685.6500000022}},{"attributes":{"ID":603220,"DIS_CODE":0,"TOWNNAME":"中西區","LI":"永華里","LIN":"22鄰","STREET":"忠義路","SECT":"二段","MAREA":" ","LANE":" ","ALLEY":" ","HOUSE_NO":"４０號","E_COORD97":168295.57000000001,"N_COORD97":2543704.1099999999,"ADDRESS":"忠義路二段４０號","OBJECTID":603193},"geometry":{"x":168295.5700000003,"y":2543704.1100000031}},{"attributes":{"ID":603221,"DIS_CODE":0,"TOWNNAME":"中西區","LI":"永華里","LIN":"22鄰","STREET":"忠義路","SECT":"二段","MAREA":" ","LANE":" ","ALLEY":" ","HOUSE_NO":"４０號之１","E_COORD97":168331.76000000001,"N_COORD97":2543692.23,"ADDRESS":"忠義路二段４０號之１","OBJECTID":603194},"geometry":{"x":168331.76000000164,"y":2543692.2300000023}},{"attributes":{"ID":603222,"DIS_CODE":0,"TOWNNAME":"中西區","LI":"永華里","LIN":"22鄰","STREET":"忠義路","SECT":"二段","MAREA":" ","LANE":" ","ALLEY":" ","HOUSE_NO":"４２號","E_COORD97":168296.82999999999,"N_COORD97":2543714.2599999998,"ADDRESS":"忠義路二段４２號","OBJECTID":603195},"geometry":{"x":168296.83000000007,"y":2543714.2600000016}},{"attributes":{"ID":603223,"DIS_CODE":0,"TOWNNAME":"中西區","LI":"永華里","LIN":"22鄰","STREET":"忠義路","SECT":"二段","MAREA":" ","LANE":" ","ALLEY":" ","HOUSE_NO":"５２號","E_COORD97":168299.84,"N_COORD97":2543731,"ADDRESS":"忠義路二段５２號","OBJECTID":603196},"geometry":{"x":168299.83999999985,"y":2543731}},{"attributes":{"ID":603224,"DIS_CODE":0,"TOWNNAME":"中西區","LI":"永華里","LIN":"22鄰","STREET":"忠義路","SECT":"二段","MAREA":" ","LANE":" ","ALLEY":" ","HOUSE_NO":"５４號","E_COORD97":168313.07999999999,"N_COORD97":2543736.7200000002,"ADDRESS":"忠義路二段５４號","OBJECTID":603197},"geometry":{"x":168313.08000000101,"y":2543736.7200000025}},{"attributes":{"ID":603225,"DIS_CODE":0,"TOWNNAME":"中西區","LI":"永華里","LIN":"22鄰","STREET":"忠義路","SECT":"二段","MAREA":" ","LANE":" ","ALLEY":" ","HOUSE_NO":"５４號之１","E_COORD97":168301.94,"N_COORD97":2543742.3300000001,"ADDRESS":"忠義路二段５４號之１","OBJECTID":603198},"geometry":{"x":168301.94000000041,"y":2543742.3300000019}},{"attributes":{"ID":603226,"DIS_CODE":0,"TOWNNAME":"中西區","LI":"永華里","LIN":"22鄰","STREET":"忠義路","SECT":"二段","MAREA":" ","LANE":" ","ALLEY":" ","HOUSE_NO":"５４號之２","E_COORD97":168301.17999999999,"N_COORD97":2543736.4700000002,"ADDRESS":"忠義路二段５４號之２","OBJECTID":603199},"geometry":{"x":168301.1799999997,"y":2543736.4700000007}},{"attributes":{"ID":603227,"DIS_CODE":0,"TOWNNAME":"中西區","LI":"永華里","LIN":"22鄰","STREET":"忠義路","SECT":"二段","MAREA":" ","LANE":" ","ALLEY":" ","HOUSE_NO":"５６號","E_COORD97":168303.60999999999,"N_COORD97":2543747.0099999998,"ADDRESS":"忠義路二段５６號","OBJECTID":603200},"geometry":{"x":168303.61000000034,"y":2543747.0100000016}}]}