{"displayFieldName":"TOWNNAME","fieldAliases":{"ID":"ID","DIS_CODE":"DIS_CODE","TOWNNAME":"TOWNNAME","LI":"LI","LIN":"LIN","STREET":"STREET","SECT":"SECT","MAREA":"MAREA","LANE":"LANE","ALLEY":"ALLEY","HOUSE_NO":"HOUSE_NO","E_COORD97":"E_COORD97","N_COORD97":"N_COORD97","ADDRESS":"ADDRESS","OBJECTID":"OBJECTID"},"geometryType":"esriGeometryPoint","spatialReference":{"wkid":102443,"latestWkid":3826},"fields":[{"name":"ID","type":"esriFieldTypeDouble","alias":"ID"},{"name":"DIS_CODE","type":"esriFieldTypeInteger","alias":"DIS_CODE"},{"name":"TOWNNAME","type":"esriFieldTypeString","alias":"TOWNNAME","length":8},{"name":"LI","type":"esriFieldTypeString","alias":"LI","length":8},{"name":"LIN","type":"esriFieldTypeString","alias":"LIN","length":12},{"name":"STREET","type":"esriFieldTypeString","alias":"STREET","length":20},{"name":"SECT","type":"esriFieldTypeString","alias":"SECT","length":8},{"name":"MAREA","type":"esriFieldTypeString","alias":"MAREA","length":12},{"name":"LANE","type":"esriFieldTypeString","alias":"LANE","length":10},{"name":"ALLEY","type":"esriFieldTypeString","alias":"ALLEY","length":10},{"name":"HOUSE_NO","type":"esriFieldTypeString","alias":"HOUSE_NO","length":20},{"name":"E_COORD97","type":"esriFieldTypeDouble","alias":"E_COORD97"},{"name":"N_COORD97","type":"esriFieldTypeDouble","alias":"N_COORD97"},{"name":"ADDRESS","type":"esriFieldTypeString","alias":"ADDRESS","length":50},{"name":"OBJECTID","type":"esriFieldTypeOID","alias":"OBJECTID"}],"features":[{"attributes":{"ID":196402,"DIS_CODE":0,"TOWNNAME":"西港區","LI":"慶安里","LIN":"3鄰","STREET":" ","SECT":" ","MAREA":"中州","LANE":" ","ALLEY":" ","HOUSE_NO":"２１號之７２","E_COORD97":167661.70000000001,"N_COORD97":2559700.9300000002,"ADDRESS":"中州２１號之７２","OBJECTID":196401},"geometry":{"x":167661.70000000112,"y":2559700.9299999997}},{"attributes":{"ID":196403,"DIS_CODE":0,"TOWNNAME":"西港區","LI":"慶安里","LIN":"3鄰","STREET":" ","SECT":" ","MAREA":"中州","LANE":" ","ALLEY":" ","HOUSE_NO":"２１號之７３","E_COORD97":167660.98000000001,"N_COORD97":2559690.9100000001,"ADDRESS":"中州２１號之７３","OBJECTID":196402},"geometry":{"x":167660.98000000045,"y":2559690.9100000001}},{"attributes":{"ID":196404,"DIS_CODE":0,"TOWNNAME":"西港區","LI":"慶安里","LIN":"3鄰","STREET":" ","SECT":" ","MAREA":"中州","LANE":" ","ALLEY":" ","HOUSE_NO":"２１號之７４","E_COORD97":167656.48000000001,"N_COORD97":2559691.23,"ADDRESS":"中州２１號之７４","OBJECTID":196403},"geometry":{"x":167656.48000000138,"y":2559691.2300000023}},{"attributes":{"ID":196405,"DIS_CODE":0,"TOWNNAME":"安平區","LI":"金城里","LIN":"15鄰","STREET":"安北路","SECT":" ","MAREA":" ","LANE":" ","ALLEY":" ","HOUSE_NO":"５８０號","E_COORD97":162793.04999999999,"N_COORD97":2544368.3399999999,"ADDRESS":"安北路５８０號","OBJECTID":196404},"geometry":{"x":162793.04999999981,"y":2544368.3400000017}},{"attributes":{"ID":196406,"DIS_CODE":0,"TOWNNAME":"安平區","LI":"金城里","LIN":"15鄰","STREET":"安北路","SECT":" ","MAREA":" ","LANE":" ","ALLEY":" ","HOUSE_NO":"５８２號","E_COORD97":162788.35000000001,"N_COORD97":2544366.1099999999,"ADDRESS":"安北路５８２號","OBJECTID":196405},"geometry":{"x":162788.35000000056,"y":2544366.1100000013}},{"attributes":{"ID":196407,"DIS_CODE":0,"TOWNNAME":"北區","LI":"大豐里","LIN":"21鄰","STREET":"大興街","SECT":" ","MAREA":" ","LANE":" ","ALLEY":" ","HOUSE_NO":"３０３號","E_COORD97":166675.35000000001,"N_COORD97":2545667.9700000002,"ADDRESS":"大興街３０３號","OBJECTID":196406},"geometry":{"x":166675.35000000056,"y":2545667.9700000007}},{"attributes":{"ID":196408,"DIS_CODE":0,"TOWNNAME":"北區","LI":"永祥里","LIN":"18鄰","STREET":"大武街","SECT":" ","MAREA":" ","LANE":"５４２巷","ALLEY":"１５弄","HOUSE_NO":"１９號","E_COORD97":170285.42000000001,"N_COORD97":2546388.1499999999,"ADDRESS":"大武街５４２巷１５弄１９號","OBJECTID":196407},"geometry":{"x":170285.42000000179,"y":2546388.1500000022}},{"attributes":{"ID":196409,"DIS_CODE":0,"TOWNNAME":"北區","LI":"永祥里","LIN":"18鄰","STREET":"大武街","SECT":" ","MAREA":" ","LANE":"５４２巷","ALLEY":"１５弄","HOUSE_NO":"１號","E_COORD97":170234.84,"N_COORD97":2546388.3100000001,"ADDRESS":"大武街５４２巷１５弄１號","OBJECTID":196408},"geometry":{"x":170234.84000000171,"y":2546388.3100000005}},{"attributes":{"ID":196410,"DIS_CODE":0,"TOWNNAME":"北區","LI":"永祥里","LIN":"18鄰","STREET":"大武街","SECT":" ","MAREA":" ","LANE":"５４２巷","ALLEY":"１５弄","HOUSE_NO":"２０號","E_COORD97":170280.51000000001,"N_COORD97":2546375.8999999999,"ADDRESS":"大武街５４２巷１５弄２０號","OBJECTID":196409},"geometry":{"x":170280.50999999978,"y":2546375.9000000022}},{"attributes":{"ID":196411,"DIS_CODE":0,"TOWNNAME":"北區","LI":"永祥里","LIN":"18鄰","STREET":"大武街","SECT":" ","MAREA":" ","LANE":"５４２巷","ALLEY":"１５弄","HOUSE_NO":"２１號","E_COORD97":170290.89999999999,"N_COORD97":2546387.6400000001,"ADDRESS":"大武街５４２巷１５弄２１號","OBJECTID":196410},"geometry":{"x":170290.89999999944,"y":2546387.6400000025}},{"attributes":{"ID":196412,"DIS_CODE":0,"TOWNNAME":"北區","LI":"永祥里","LIN":"18鄰","STREET":"大武街","SECT":" ","MAREA":" ","LANE":"５４２巷","ALLEY":"１５弄","HOUSE_NO":"２號","E_COORD97":170235.07000000001,"N_COORD97":2546374.5499999998,"ADDRESS":"大武街５４２巷１５弄２號","OBJECTID":196411},"geometry":{"x":170235.0700000003,"y":2546374.5500000026}},{"attributes":{"ID":196413,"DIS_CODE":0,"TOWNNAME":"北區","LI":"永祥里","LIN":"18鄰","STREET":"大武街","SECT":" ","MAREA":" ","LANE":"５４２巷","ALLEY":"１５弄","HOUSE_NO":"３號","E_COORD97":170240.82999999999,"N_COORD97":2546388.7400000002,"ADDRESS":"大武街５４２巷１５弄３號","OBJECTID":196412},"geometry":{"x":170240.83000000101,"y":2546388.7400000002}},{"attributes":{"ID":196414,"DIS_CODE":0,"TOWNNAME":"北區","LI":"永祥里","LIN":"18鄰","STREET":"大武街","SECT":" ","MAREA":" ","LANE":"５４２巷","ALLEY":"１５弄","HOUSE_NO":"４號","E_COORD97":170240.54999999999,"N_COORD97":2546374.8900000001,"ADDRESS":"大武街５４２巷１５弄４號","OBJECTID":196413},"geometry":{"x":170240.55000000075,"y":2546374.8899999987}},{"attributes":{"ID":196415,"DIS_CODE":0,"TOWNNAME":"北區","LI":"永祥里","LIN":"18鄰","STREET":"大武街","SECT":" ","MAREA":" ","LANE":"５４２巷","ALLEY":"１５弄","HOUSE_NO":"５號","E_COORD97":170246.73000000001,"N_COORD97":2546389.5800000001,"ADDRESS":"大武街５４２巷１５弄５號","OBJECTID":196414},"geometry":{"x":170246.73000000138,"y":2546389.5800000001}},{"attributes":{"ID":196416,"DIS_CODE":0,"TOWNNAME":"北區","LI":"永祥里","LIN":"18鄰","STREET":"大武街","SECT":" ","MAREA":" ","LANE":"５４２巷","ALLEY":"１５弄","HOUSE_NO":"６號","E_COORD97":170245.44,"N_COORD97":2546375.2200000002,"ADDRESS":"大武街５４２巷１５弄６號","OBJECTID":196415},"geometry":{"x":170245.44000000134,"y":2546375.2200000007}},{"attributes":{"ID":196417,"DIS_CODE":0,"TOWNNAME":"北區","LI":"永祥里","LIN":"18鄰","STREET":"大武街","SECT":" ","MAREA":" ","LANE":"５４２巷","ALLEY":"１５弄","HOUSE_NO":"７號","E_COORD97":170251.95000000001,"N_COORD97":2546389.4100000001,"ADDRESS":"大武街５４２巷１５弄７號","OBJECTID":196416},"geometry":{"x":170251.95000000112,"y":2546389.410000002}},{"attributes":{"ID":196418,"DIS_CODE":0,"TOWNNAME":"北區","LI":"永祥里","LIN":"18鄰","STREET":"大武街","SECT":" ","MAREA":" ","LANE":"５４２巷","ALLEY":"１５弄","HOUSE_NO":"８號","E_COORD97":170250.67000000001,"N_COORD97":2546375.48,"ADDRESS":"大武街５４２巷１５弄８號","OBJECTID":196417},"geometry":{"x":170250.66999999993,"y":2546375.4800000023}},{"attributes":{"ID":196419,"DIS_CODE":0,"TOWNNAME":"北區","LI":"永祥里","LIN":"18鄰","STREET":"大武街","SECT":" ","MAREA":" ","LANE":"５４２巷","ALLEY":"１５弄","HOUSE_NO":"９號","E_COORD97":170257.67999999999,"N_COORD97":2546388.5699999998,"ADDRESS":"大武街５４２巷１５弄９號","OBJECTID":196418},"geometry":{"x":170257.6799999997,"y":2546388.5700000022}},{"attributes":{"ID":196420,"DIS_CODE":0,"TOWNNAME":"北區","LI":"永祥里","LIN":"18鄰","STREET":"大武街","SECT":" ","MAREA":" ","LANE":"５４２巷","ALLEY":"２９弄","HOUSE_NO":"１０號","E_COORD97":170257.57999999999,"N_COORD97":2546339.6800000002,"ADDRESS":"大武街５４２巷２９弄１０號","OBJECTID":196419},"geometry":{"x":170257.58000000101,"y":2546339.6800000016}},{"attributes":{"ID":196421,"DIS_CODE":0,"TOWNNAME":"北區","LI":"永祥里","LIN":"18鄰","STREET":"大武街","SECT":" ","MAREA":" ","LANE":"５４２巷","ALLEY":"２９弄","HOUSE_NO":"１１號","E_COORD97":170263.39999999999,"N_COORD97":2546354.5499999998,"ADDRESS":"大武街５４２巷２９弄１１號","OBJECTID":196420},"geometry":{"x":170263.40000000037,"y":2546354.5500000026}},{"attributes":{"ID":196422,"DIS_CODE":0,"TOWNNAME":"北區","LI":"永祥里","LIN":"18鄰","STREET":"大武街","SECT":" ","MAREA":" ","LANE":"５４２巷","ALLEY":"２９弄","HOUSE_NO":"１３號","E_COORD97":170268.70999999999,"N_COORD97":2546354.21,"ADDRESS":"大武街５４２巷２９弄１３號","OBJECTID":196421},"geometry":{"x":170268.71000000089,"y":2546354.2100000028}},{"attributes":{"ID":196423,"DIS_CODE":0,"TOWNNAME":"北區","LI":"永祥里","LIN":"18鄰","STREET":"大武街","SECT":" ","MAREA":" ","LANE":"５４２巷","ALLEY":"２９弄","HOUSE_NO":"１號","E_COORD97":170234.82000000001,"N_COORD97":2546354.1299999999,"ADDRESS":"大武街５４２巷２９弄１號","OBJECTID":196422},"geometry":{"x":170234.8200000003,"y":2546354.129999999}},{"attributes":{"ID":196424,"DIS_CODE":0,"TOWNNAME":"北區","LI":"永祥里","LIN":"18鄰","STREET":"大武街","SECT":" ","MAREA":" ","LANE":"５４２巷","ALLEY":"２９弄","HOUSE_NO":"２號","E_COORD97":170234.70000000001,"N_COORD97":2546339.75,"ADDRESS":"大武街５４２巷２９弄２號","OBJECTID":196423},"geometry":{"x":170234.70000000112,"y":2546339.7500000019}},{"attributes":{"ID":196425,"DIS_CODE":0,"TOWNNAME":"西港區","LI":"慶安里","LIN":"3鄰","STREET":" ","SECT":" ","MAREA":"中州","LANE":" ","ALLEY":" ","HOUSE_NO":"２１號之７５","E_COORD97":167651.70000000001,"N_COORD97":2559691.0800000001,"ADDRESS":"中州２１號之７５","OBJECTID":196424},"geometry":{"x":167651.70000000112,"y":2559691.0800000019}},{"attributes":{"ID":196426,"DIS_CODE":0,"TOWNNAME":"西港區","LI":"慶安里","LIN":"3鄰","STREET":" ","SECT":" ","MAREA":"中州","LANE":" ","ALLEY":" ","HOUSE_NO":"２１號之７６","E_COORD97":167646.92000000001,"N_COORD97":2559690.9300000002,"ADDRESS":"中州２１號之７６","OBJECTID":196425},"geometry":{"x":167646.91999999993,"y":2559690.9299999997}},{"attributes":{"ID":196427,"DIS_CODE":0,"TOWNNAME":"西港區","LI":"慶安里","LIN":"3鄰","STREET":" ","SECT":" ","MAREA":"中州","LANE":" ","ALLEY":" ","HOUSE_NO":"２１號之７７","E_COORD97":167642.14000000001,"N_COORD97":2559690.7799999998,"ADDRESS":"中州２１號之７７","OBJECTID":196426},"geometry":{"x":167642.13999999966,"y":2559690.7799999993}},{"attributes":{"ID":196428,"DIS_CODE":0,"TOWNNAME":"西港區","LI":"慶安里","LIN":"3鄰","STREET":" ","SECT":" ","MAREA":"中州","LANE":" ","ALLEY":" ","HOUSE_NO":"２１號之７８","E_COORD97":167637.37,"N_COORD97":2559690.6299999999,"ADDRESS":"中州２１號之７８","OBJECTID":196427},"geometry":{"x":167637.37000000011,"y":2559690.6300000008}},{"attributes":{"ID":196429,"DIS_CODE":0,"TOWNNAME":"西港區","LI":"慶安里","LIN":"3鄰","STREET":" ","SECT":" ","MAREA":"中州","LANE":" ","ALLEY":" ","HOUSE_NO":"２１號之７９","E_COORD97":167632.59,"N_COORD97":2559690.48,"ADDRESS":"中州２１號之７９","OBJECTID":196428},"geometry":{"x":167632.58999999985,"y":2559690.4800000004}},{"attributes":{"ID":196430,"DIS_CODE":0,"TOWNNAME":"北區","LI":"永祥里","LIN":"18鄰","STREET":"大武街","SECT":" ","MAREA":" ","LANE":"５４２巷","ALLEY":"２９弄","HOUSE_NO":"３號","E_COORD97":170240.38,"N_COORD97":2546353.7000000002,"ADDRESS":"大武街５４２巷２９弄３號","OBJECTID":196429},"geometry":{"x":170240.38000000082,"y":2546353.6999999993}},{"attributes":{"ID":196431,"DIS_CODE":0,"TOWNNAME":"北區","LI":"永祥里","LIN":"18鄰","STREET":"大武街","SECT":" ","MAREA":" ","LANE":"５４２巷","ALLEY":"２９弄","HOUSE_NO":"４號","E_COORD97":170240.26999999999,"N_COORD97":2546339.9199999999,"ADDRESS":"大武街５４２巷２９弄４號","OBJECTID":196430},"geometry":{"x":170240.27000000142,"y":2546339.9199999999}},{"attributes":{"ID":196432,"DIS_CODE":0,"TOWNNAME":"北區","LI":"永祥里","LIN":"18鄰","STREET":"大武街","SECT":" ","MAREA":" ","LANE":"５４２巷","ALLEY":"２９弄","HOUSE_NO":"５號","E_COORD97":170245.69,"N_COORD97":2546353.6200000001,"ADDRESS":"大武街５４２巷２９弄５號","OBJECTID":196431},"geometry":{"x":170245.69000000134,"y":2546353.6200000048}},{"attributes":{"ID":196433,"DIS_CODE":0,"TOWNNAME":"北區","LI":"永祥里","LIN":"18鄰","STREET":"大武街","SECT":" ","MAREA":" ","LANE":"５４２巷","ALLEY":"２９弄","HOUSE_NO":"６號","E_COORD97":170245.75,"N_COORD97":2546339.75,"ADDRESS":"大武街５４２巷２９弄６號","OBJECTID":196432},"geometry":{"x":170245.74999999907,"y":2546339.7500000019}},{"attributes":{"ID":196434,"DIS_CODE":0,"TOWNNAME":"北區","LI":"永祥里","LIN":"18鄰","STREET":"大武街","SECT":" ","MAREA":" ","LANE":"５４２巷","ALLEY":"２９弄","HOUSE_NO":"７號","E_COORD97":170251.67999999999,"N_COORD97":2546353.96,"ADDRESS":"大武街５４２巷２９弄７號","OBJECTID":196433},"geometry":{"x":170251.68000000063,"y":2546353.9600000009}},{"attributes":{"ID":196435,"DIS_CODE":0,"TOWNNAME":"北區","LI":"永祥里","LIN":"18鄰","STREET":"大武街","SECT":" ","MAREA":" ","LANE":"５４２巷","ALLEY":"２９弄","HOUSE_NO":"８號","E_COORD97":170251.14000000001,"N_COORD97":2546339.75,"ADDRESS":"大武街５４２巷２９弄８號","OBJECTID":196434},"geometry":{"x":170251.13999999966,"y":2546339.7500000019}},{"attributes":{"ID":196436,"DIS_CODE":0,"TOWNNAME":"西港區","LI":"慶安里","LIN":"3鄰","STREET":" ","SECT":" ","MAREA":"中州","LANE":" ","ALLEY":" ","HOUSE_NO":"２１號之８０","E_COORD97":167627.81,"N_COORD97":2559690.3300000001,"ADDRESS":"中州２１號之８０","OBJECTID":196435},"geometry":{"x":167627.81000000052,"y":2559690.3300000019}},{"attributes":{"ID":196437,"DIS_CODE":0,"TOWNNAME":"西港區","LI":"慶安里","LIN":"3鄰","STREET":" ","SECT":" ","MAREA":"中州","LANE":" ","ALLEY":" ","HOUSE_NO":"２１號之８１","E_COORD97":167623.03,"N_COORD97":2559690.1800000002,"ADDRESS":"中州２１號之８１","OBJECTID":196436},"geometry":{"x":167623.03000000026,"y":2559690.1800000016}},{"attributes":{"ID":196438,"DIS_CODE":0,"TOWNNAME":"左鎮區","LI":"內庄里","LIN":"2鄰","STREET":" ","SECT":" ","MAREA":"內庄","LANE":" ","ALLEY":" ","HOUSE_NO":"１９號","E_COORD97":190674.63,"N_COORD97":2548767.25,"ADDRESS":"內庄１９號","OBJECTID":196437},"geometry":{"x":190674.62999999989,"y":2548767.2500000019}},{"attributes":{"ID":196439,"DIS_CODE":0,"TOWNNAME":"新營區","LI":"太北里","LIN":"21鄰","STREET":" ","SECT":" ","MAREA":"太子宮","LANE":" ","ALLEY":" ","HOUSE_NO":"１５２之４１號","E_COORD97":175294.49576300001,"N_COORD97":2577255.17135,"ADDRESS":"太子宮１５２之４１號","OBJECTID":196438},"geometry":{"x":175294.49576300196,"y":2577255.1713449992}},{"attributes":{"ID":196440,"DIS_CODE":0,"TOWNNAME":"新營區","LI":"太北里","LIN":"21鄰","STREET":" ","SECT":" ","MAREA":"太子宮","LANE":" ","ALLEY":" ","HOUSE_NO":"１５２之４３號","E_COORD97":175303.60846700001,"N_COORD97":2577256.12384,"ADDRESS":"太子宮１５２之４３號","OBJECTID":196439},"geometry":{"x":175303.60846699961,"y":2577256.1238450017}},{"attributes":{"ID":196441,"DIS_CODE":0,"TOWNNAME":"西港區","LI":"慶安里","LIN":"3鄰","STREET":" ","SECT":" ","MAREA":"中州","LANE":" ","ALLEY":" ","HOUSE_NO":"２１號之８２","E_COORD97":167622.04000000001,"N_COORD97":2559668.6800000002,"ADDRESS":"中州２１號之８２","OBJECTID":196440},"geometry":{"x":167622.04000000097,"y":2559668.6799999997}},{"attributes":{"ID":196442,"DIS_CODE":0,"TOWNNAME":"西港區","LI":"慶安里","LIN":"3鄰","STREET":" ","SECT":" ","MAREA":"中州","LANE":" ","ALLEY":" ","HOUSE_NO":"２１號之８３","E_COORD97":167626.94,"N_COORD97":2559668.8199999998,"ADDRESS":"中州２１號之８３","OBJECTID":196441},"geometry":{"x":167626.94000000041,"y":2559668.8199999984}},{"attributes":{"ID":196443,"DIS_CODE":0,"TOWNNAME":"西港區","LI":"慶安里","LIN":"3鄰","STREET":" ","SECT":" ","MAREA":"中州","LANE":" ","ALLEY":" ","HOUSE_NO":"２１號之８４","E_COORD97":167631.84,"N_COORD97":2559668.96,"ADDRESS":"中州２１號之８４","OBJECTID":196442},"geometry":{"x":167631.84000000078,"y":2559668.9600000028}},{"attributes":{"ID":196444,"DIS_CODE":0,"TOWNNAME":"西港區","LI":"慶安里","LIN":"3鄰","STREET":" ","SECT":" ","MAREA":"中州","LANE":" ","ALLEY":" ","HOUSE_NO":"２１號之８５","E_COORD97":167637.87,"N_COORD97":2559670.7599999998,"ADDRESS":"中州２１號之８５","OBJECTID":196443},"geometry":{"x":167637.87000000197,"y":2559670.7599999998}},{"attributes":{"ID":196445,"DIS_CODE":0,"TOWNNAME":"西港區","LI":"慶安里","LIN":"3鄰","STREET":" ","SECT":" ","MAREA":"中州","LANE":" ","ALLEY":" ","HOUSE_NO":"２１號之８６","E_COORD97":167643.12,"N_COORD97":2559671.8999999999,"ADDRESS":"中州２１號之８６","OBJECTID":196444},"geometry":{"x":167643.12000000197,"y":2559671.9000000041}},{"attributes":{"ID":196446,"DIS_CODE":0,"TOWNNAME":"北區","LI":"永祥里","LIN":"18鄰","STREET":"大武街","SECT":" ","MAREA":" ","LANE":"５４２巷","ALLEY":"２９弄","HOUSE_NO":"９號","E_COORD97":170257.66,"N_COORD97":2546354.1299999999,"ADDRESS":"大武街５４２巷２９弄９號","OBJECTID":196445},"geometry":{"x":170257.66000000015,"y":2546354.129999999}},{"attributes":{"ID":196447,"DIS_CODE":0,"TOWNNAME":"西港區","LI":"慶安里","LIN":"3鄰","STREET":" ","SECT":" ","MAREA":"中州","LANE":" ","ALLEY":" ","HOUSE_NO":"２１號之８７","E_COORD97":167648.38,"N_COORD97":2559673.04,"ADDRESS":"中州２１號之８７","OBJECTID":196446},"geometry":{"x":167648.38000000082,"y":2559673.0400000028}},{"attributes":{"ID":196448,"DIS_CODE":0,"TOWNNAME":"北區","LI":"永祥里","LIN":"18鄰","STREET":"大武街","SECT":" ","MAREA":" ","LANE":"５４２巷","ALLEY":"４３弄","HOUSE_NO":"１號","E_COORD97":170234.63,"N_COORD97":2546318.9300000002,"ADDRESS":"大武街５４２巷４３弄１號","OBJECTID":196447},"geometry":{"x":170234.63000000175,"y":2546318.9299999997}},{"attributes":{"ID":196449,"DIS_CODE":0,"TOWNNAME":"北區","LI":"永祥里","LIN":"18鄰","STREET":"大武街","SECT":" ","MAREA":" ","LANE":"５４２巷","ALLEY":"４３弄","HOUSE_NO":"２號","E_COORD97":170239.09,"N_COORD97":2546307.3900000001,"ADDRESS":"大武街５４２巷４３弄２號","OBJECTID":196448},"geometry":{"x":170239.09000000078,"y":2546307.3900000043}},{"attributes":{"ID":196450,"DIS_CODE":0,"TOWNNAME":"北區","LI":"永祥里","LIN":"18鄰","STREET":"大武街","SECT":" ","MAREA":" ","LANE":"５４２巷","ALLEY":"４３弄","HOUSE_NO":"３號","E_COORD97":170240.60999999999,"N_COORD97":2546319.77,"ADDRESS":"大武街５４２巷４３弄３號","OBJECTID":196449},"geometry":{"x":170240.61000000127,"y":2546319.7699999996}},{"attributes":{"ID":196451,"DIS_CODE":0,"TOWNNAME":"北區","LI":"永祥里","LIN":"18鄰","STREET":"大武街","SECT":" ","MAREA":" ","LANE":"５４２巷","ALLEY":"４３弄","HOUSE_NO":"５號","E_COORD97":170245.5,"N_COORD97":2546319.3500000001,"ADDRESS":"大武街５４２巷４３弄５號","OBJECTID":196450},"geometry":{"x":170245.5,"y":2546319.3499999996}},{"attributes":{"ID":196452,"DIS_CODE":0,"TOWNNAME":"北區","LI":"小康里","LIN":"18鄰","STREET":"公園路","SECT":" ","MAREA":" ","LANE":"１０９２巷","ALLEY":"２７弄","HOUSE_NO":"１０號","E_COORD97":169808.59,"N_COORD97":2546633.1800000002,"ADDRESS":"公園路１０９２巷２７弄１０號","OBJECTID":196451},"geometry":{"x":169808.58999999985,"y":2546633.1800000034}},{"attributes":{"ID":196453,"DIS_CODE":0,"TOWNNAME":"北區","LI":"小康里","LIN":"18鄰","STREET":"公園路","SECT":" ","MAREA":" ","LANE":"１０９２巷","ALLEY":"２７弄","HOUSE_NO":"１１號","E_COORD97":169762.32999999999,"N_COORD97":2546652.7400000002,"ADDRESS":"公園路１０９２巷２７弄１１號","OBJECTID":196452},"geometry":{"x":169762.33000000194,"y":2546652.7400000002}},{"attributes":{"ID":196454,"DIS_CODE":0,"TOWNNAME":"北區","LI":"小康里","LIN":"18鄰","STREET":"公園路","SECT":" ","MAREA":" ","LANE":"１０９２巷","ALLEY":"２７弄","HOUSE_NO":"１２號","E_COORD97":169812.84,"N_COORD97":2546635.2400000002,"ADDRESS":"公園路１０９２巷２７弄１２號","OBJECTID":196453},"geometry":{"x":169812.84000000171,"y":2546635.2400000002}},{"attributes":{"ID":196455,"DIS_CODE":0,"TOWNNAME":"北區","LI":"小康里","LIN":"18鄰","STREET":"公園路","SECT":" ","MAREA":" ","LANE":"１０９２巷","ALLEY":"２７弄","HOUSE_NO":"１３號","E_COORD97":169766.45999999999,"N_COORD97":2546654.46,"ADDRESS":"公園路１０９２巷２７弄１３號","OBJECTID":196454},"geometry":{"x":169766.46000000183,"y":2546654.4600000028}},{"attributes":{"ID":196456,"DIS_CODE":0,"TOWNNAME":"北區","LI":"小康里","LIN":"18鄰","STREET":"公園路","SECT":" ","MAREA":" ","LANE":"１０９２巷","ALLEY":"２７弄","HOUSE_NO":"１４號","E_COORD97":169817.66,"N_COORD97":2546635.5899999999,"ADDRESS":"公園路１０９２巷２７弄１４號","OBJECTID":196455},"geometry":{"x":169817.66000000201,"y":2546635.5900000017}},{"attributes":{"ID":196457,"DIS_CODE":0,"TOWNNAME":"北區","LI":"小康里","LIN":"18鄰","STREET":"公園路","SECT":" ","MAREA":" ","LANE":"１０９２巷","ALLEY":"２７弄","HOUSE_NO":"１５號","E_COORD97":169770.48000000001,"N_COORD97":2546653.6600000001,"ADDRESS":"公園路１０９２巷２７弄１５號","OBJECTID":196456},"geometry":{"x":169770.48000000138,"y":2546653.6600000001}},{"attributes":{"ID":196458,"DIS_CODE":0,"TOWNNAME":"北區","LI":"小康里","LIN":"18鄰","STREET":"公園路","SECT":" ","MAREA":" ","LANE":"１０９２巷","ALLEY":"２７弄","HOUSE_NO":"１６號","E_COORD97":169816.17000000001,"N_COORD97":2546654.3399999999,"ADDRESS":"公園路１０９２巷２７弄１６號","OBJECTID":196457},"geometry":{"x":169816.17000000086,"y":2546654.3400000017}},{"attributes":{"ID":196459,"DIS_CODE":0,"TOWNNAME":"北區","LI":"小康里","LIN":"18鄰","STREET":"公園路","SECT":" ","MAREA":" ","LANE":"１０９２巷","ALLEY":"２７弄","HOUSE_NO":"１７號","E_COORD97":169774.84,"N_COORD97":2546652.8500000001,"ADDRESS":"公園路１０９２巷２７弄１７號","OBJECTID":196458},"geometry":{"x":169774.83999999985,"y":2546652.8500000015}},{"attributes":{"ID":196460,"DIS_CODE":0,"TOWNNAME":"北區","LI":"小康里","LIN":"18鄰","STREET":"公園路","SECT":" ","MAREA":" ","LANE":"１０９２巷","ALLEY":"２７弄","HOUSE_NO":"１８號","E_COORD97":169812.03,"N_COORD97":2546655.8399999999,"ADDRESS":"公園路１０９２巷２７弄１８號","OBJECTID":196459},"geometry":{"x":169812.03000000212,"y":2546655.839999998}},{"attributes":{"ID":196461,"DIS_CODE":0,"TOWNNAME":"北區","LI":"小康里","LIN":"18鄰","STREET":"公園路","SECT":" ","MAREA":" ","LANE":"１０９２巷","ALLEY":"２７弄","HOUSE_NO":"１９號","E_COORD97":169778.97,"N_COORD97":2546654.46,"ADDRESS":"公園路１０９２巷２７弄１９號","OBJECTID":196460},"geometry":{"x":169778.96999999974,"y":2546654.4600000028}},{"attributes":{"ID":196462,"DIS_CODE":0,"TOWNNAME":"北區","LI":"小康里","LIN":"18鄰","STREET":"公園路","SECT":" ","MAREA":" ","LANE":"１０９２巷","ALLEY":"２７弄","HOUSE_NO":"１號","E_COORD97":169779.89000000001,"N_COORD97":2546632.4900000002,"ADDRESS":"公園路１０９２巷２７弄１號","OBJECTID":196461},"geometry":{"x":169779.88999999966,"y":2546632.4900000021}},{"attributes":{"ID":196463,"DIS_CODE":0,"TOWNNAME":"北區","LI":"小康里","LIN":"18鄰","STREET":"公園路","SECT":" ","MAREA":" ","LANE":"１０９２巷","ALLEY":"２７弄","HOUSE_NO":"２０號","E_COORD97":169807.79000000001,"N_COORD97":2546653.2000000002,"ADDRESS":"公園路１０９２巷２７弄２０號","OBJECTID":196462},"geometry":{"x":169807.79000000004,"y":2546653.200000003}},{"attributes":{"ID":196464,"DIS_CODE":0,"TOWNNAME":"北區","LI":"小康里","LIN":"18鄰","STREET":"公園路","SECT":" ","MAREA":" ","LANE":"１０９２巷","ALLEY":"２７弄","HOUSE_NO":"２１號","E_COORD97":169778.63,"N_COORD97":2546665.3599999999,"ADDRESS":"公園路１０９２巷２７弄２１號","OBJECTID":196463},"geometry":{"x":169778.63000000175,"y":2546665.3599999994}},{"attributes":{"ID":196465,"DIS_CODE":0,"TOWNNAME":"北區","LI":"小康里","LIN":"18鄰","STREET":"公園路","SECT":" ","MAREA":" ","LANE":"１０９２巷","ALLEY":"２７弄","HOUSE_NO":"２２號","E_COORD97":169803.64999999999,"N_COORD97":2546654.9199999999,"ADDRESS":"公園路１０９２巷２７弄２２號","OBJECTID":196464},"geometry":{"x":169803.65000000037,"y":2546654.9199999999}},{"attributes":{"ID":196466,"DIS_CODE":0,"TOWNNAME":"西港區","LI":"南海里","LIN":"3鄰","STREET":" ","SECT":" ","MAREA":"南海埔","LANE":" ","ALLEY":" ","HOUSE_NO":"２３號","E_COORD97":167788.51999999999,"N_COORD97":2557542.71,"ADDRESS":"南海埔２３號","OBJECTID":196465},"geometry":{"x":167788.51999999955,"y":2557542.7100000028}},{"attributes":{"ID":196467,"DIS_CODE":0,"TOWNNAME":"北區","LI":"小康里","LIN":"18鄰","STREET":"公園路","SECT":" ","MAREA":" ","LANE":"１０９２巷","ALLEY":"２７弄","HOUSE_NO":"２３號","E_COORD97":169773.92000000001,"N_COORD97":2546664.5499999998,"ADDRESS":"公園路１０９２巷２７弄２３號","OBJECTID":196466},"geometry":{"x":169773.92000000086,"y":2546664.5500000007}},{"attributes":{"ID":196468,"DIS_CODE":0,"TOWNNAME":"學甲區","LI":"秀昌里","LIN":"21鄰","STREET":" ","SECT":" ","MAREA":"下溪洲","LANE":" ","ALLEY":" ","HOUSE_NO":"８３號","E_COORD97":165311.87,"N_COORD97":2571113.1600000001,"ADDRESS":"下溪洲８３號","OBJECTID":196467},"geometry":{"x":165311.87000000011,"y":2571113.160000002}},{"attributes":{"ID":196469,"DIS_CODE":0,"TOWNNAME":"北區","LI":"小康里","LIN":"18鄰","STREET":"公園路","SECT":" ","MAREA":" ","LANE":"１０９２巷","ALLEY":"２７弄","HOUSE_NO":"２４號","E_COORD97":169799.06,"N_COORD97":2546654,"ADDRESS":"公園路１０９２巷２７弄２４號","OBJECTID":196468},"geometry":{"x":169799.05999999866,"y":2546654}},{"attributes":{"ID":196470,"DIS_CODE":0,"TOWNNAME":"北區","LI":"小康里","LIN":"18鄰","STREET":"公園路","SECT":" ","MAREA":" ","LANE":"１０９２巷","ALLEY":"２７弄","HOUSE_NO":"２５號","E_COORD97":169770.13,"N_COORD97":2546663.98,"ADDRESS":"公園路１０９２巷２７弄２５號","OBJECTID":196469},"geometry":{"x":169770.13000000175,"y":2546663.9800000023}},{"attributes":{"ID":196471,"DIS_CODE":0,"TOWNNAME":"北區","LI":"小康里","LIN":"18鄰","STREET":"公園路","SECT":" ","MAREA":" ","LANE":"１０９２巷","ALLEY":"２７弄","HOUSE_NO":"７號","E_COORD97":169767.26000000001,"N_COORD97":2546632.6099999999,"ADDRESS":"公園路１０９２巷２７弄７號","OBJECTID":196470},"geometry":{"x":169767.25999999978,"y":2546632.6099999994}},{"attributes":{"ID":196472,"DIS_CODE":0,"TOWNNAME":"北區","LI":"小康里","LIN":"18鄰","STREET":"公園路","SECT":" ","MAREA":" ","LANE":"１０９２巷","ALLEY":"２７弄","HOUSE_NO":"２６號","E_COORD97":169795.16,"N_COORD97":2546655.8399999999,"ADDRESS":"公園路１０９２巷２７弄２６號","OBJECTID":196471},"geometry":{"x":169795.16000000015,"y":2546655.839999998}},{"attributes":{"ID":196473,"DIS_CODE":0,"TOWNNAME":"東山區","LI":"東山里","LIN":"21鄰","STREET":" ","SECT":" ","MAREA":"東山","LANE":" ","ALLEY":" ","HOUSE_NO":"３１９號之２６","E_COORD97":188708.97,"N_COORD97":2580655.1699999999,"ADDRESS":"東山３１９號之２６","OBJECTID":196472},"geometry":{"x":188708.96999999974,"y":2580655.1699999999}},{"attributes":{"ID":196474,"DIS_CODE":0,"TOWNNAME":"東山區","LI":"東山里","LIN":"21鄰","STREET":" ","SECT":" ","MAREA":"東山","LANE":" ","ALLEY":" ","HOUSE_NO":"３１９號之２７","E_COORD97":188699.70000000001,"N_COORD97":2580652.0099999998,"ADDRESS":"東山３１９號之２７","OBJECTID":196473},"geometry":{"x":188699.70000000019,"y":2580652.0099999998}},{"attributes":{"ID":196475,"DIS_CODE":0,"TOWNNAME":"東山區","LI":"東山里","LIN":"21鄰","STREET":" ","SECT":" ","MAREA":"東山","LANE":" ","ALLEY":" ","HOUSE_NO":"３１９號之２８","E_COORD97":188713.98000000001,"N_COORD97":2580663.2200000002,"ADDRESS":"東山３１９號之２８","OBJECTID":196474},"geometry":{"x":188713.98000000138,"y":2580663.2200000044}},{"attributes":{"ID":196476,"DIS_CODE":0,"TOWNNAME":"東山區","LI":"東山里","LIN":"21鄰","STREET":" ","SECT":" ","MAREA":"東山","LANE":" ","ALLEY":" ","HOUSE_NO":"３１９號之２９","E_COORD97":188700.69,"N_COORD97":2580665.1800000002,"ADDRESS":"東山３１９號之２９","OBJECTID":196475},"geometry":{"x":188700.69000000134,"y":2580665.1799999997}},{"attributes":{"ID":196477,"DIS_CODE":0,"TOWNNAME":"東山區","LI":"東山里","LIN":"21鄰","STREET":" ","SECT":" ","MAREA":"東山","LANE":" ","ALLEY":" ","HOUSE_NO":"３１９號之２","E_COORD97":188708.54999999999,"N_COORD97":2580571.48,"ADDRESS":"東山３１９號之２","OBJECTID":196476},"geometry":{"x":188708.54999999981,"y":2580571.4800000004}},{"attributes":{"ID":196478,"DIS_CODE":0,"TOWNNAME":"東山區","LI":"東山里","LIN":"21鄰","STREET":" ","SECT":" ","MAREA":"東山","LANE":" ","ALLEY":" ","HOUSE_NO":"３１９號之３１","E_COORD97":188578.10999999999,"N_COORD97":2580603.1400000001,"ADDRESS":"東山３１９號之３１","OBJECTID":196477},"geometry":{"x":188578.11000000034,"y":2580603.1400000025}},{"attributes":{"ID":196479,"DIS_CODE":0,"TOWNNAME":"東山區","LI":"東山里","LIN":"21鄰","STREET":" ","SECT":" ","MAREA":"東山","LANE":" ","ALLEY":" ","HOUSE_NO":"３１９號之３２","E_COORD97":188310.23999999999,"N_COORD97":2580681.3500000001,"ADDRESS":"東山３１９號之３２","OBJECTID":196478},"geometry":{"x":188310.24000000115,"y":2580681.3499999996}},{"attributes":{"ID":196480,"DIS_CODE":0,"TOWNNAME":"東山區","LI":"東山里","LIN":"21鄰","STREET":" ","SECT":" ","MAREA":"東山","LANE":" ","ALLEY":" ","HOUSE_NO":"３１９號之３","E_COORD97":188700.79000000001,"N_COORD97":2580572.4900000002,"ADDRESS":"東山３１９號之３","OBJECTID":196479},"geometry":{"x":188700.79000000004,"y":2580572.4900000002}},{"attributes":{"ID":196481,"DIS_CODE":0,"TOWNNAME":"東山區","LI":"東山里","LIN":"21鄰","STREET":" ","SECT":" ","MAREA":"東山","LANE":" ","ALLEY":" ","HOUSE_NO":"３１９號之４","E_COORD97":188725.63,"N_COORD97":2580581.96,"ADDRESS":"東山３１９號之４","OBJECTID":196480},"geometry":{"x":188725.62999999989,"y":2580581.9600000028}},{"attributes":{"ID":196482,"DIS_CODE":0,"TOWNNAME":"安南區","LI":"海東里","LIN":"21鄰","STREET":"海東三街","SECT":" ","MAREA":" ","LANE":" ","ALLEY":" ","HOUSE_NO":"５９號","E_COORD97":166856.98972300001,"N_COORD97":2547948.5277200001,"ADDRESS":"海東三街５９號","OBJECTID":196481},"geometry":{"x":166856.98972299974,"y":2547948.5277180001}},{"attributes":{"ID":196483,"DIS_CODE":0,"TOWNNAME":"東山區","LI":"東山里","LIN":"21鄰","STREET":" ","SECT":" ","MAREA":"東山","LANE":" ","ALLEY":" ","HOUSE_NO":"３１９號之５","E_COORD97":188717.62,"N_COORD97":2580582.6600000001,"ADDRESS":"東山３１９號之５","OBJECTID":196482},"geometry":{"x":188717.62000000197,"y":2580582.660000002}},{"attributes":{"ID":196484,"DIS_CODE":0,"TOWNNAME":"東山區","LI":"東山里","LIN":"21鄰","STREET":" ","SECT":" ","MAREA":"東山","LANE":" ","ALLEY":" ","HOUSE_NO":"３１９號之６","E_COORD97":188709.95999999999,"N_COORD97":2580586.5299999998,"ADDRESS":"東山３１９號之６","OBJECTID":196483},"geometry":{"x":188709.95999999903,"y":2580586.5300000012}},{"attributes":{"ID":196485,"DIS_CODE":0,"TOWNNAME":"東山區","LI":"東山里","LIN":"21鄰","STREET":" ","SECT":" ","MAREA":"東山","LANE":" ","ALLEY":" ","HOUSE_NO":"３１９號之７","E_COORD97":188702.04000000001,"N_COORD97":2580587.6200000001,"ADDRESS":"東山３１９號之７","OBJECTID":196484},"geometry":{"x":188702.04000000004,"y":2580587.6200000029}},{"attributes":{"ID":196486,"DIS_CODE":0,"TOWNNAME":"新化區","LI":"全興里","LIN":"21鄰","STREET":" ","SECT":" ","MAREA":"竹子\u25A0","LANE":" ","ALLEY":" ","HOUSE_NO":"２４７號之５６１","E_COORD97":178514.16,"N_COORD97":2546602.2599999998,"ADDRESS":"竹子\u25A0２４７號之５６１","OBJECTID":196485},"geometry":{"x":178514.16000000201,"y":2546602.2600000035}},{"attributes":{"ID":196487,"DIS_CODE":0,"TOWNNAME":"新化區","LI":"全興里","LIN":"21鄰","STREET":" ","SECT":" ","MAREA":"竹子\u25A0","LANE":" ","ALLEY":" ","HOUSE_NO":"２４７號之６０３","E_COORD97":178407.88,"N_COORD97":2546604.2599999998,"ADDRESS":"竹子\u25A0２４７號之６０３","OBJECTID":196486},"geometry":{"x":178407.88000000082,"y":2546604.2599999998}},{"attributes":{"ID":196488,"DIS_CODE":0,"TOWNNAME":"北區","LI":"小康里","LIN":"18鄰","STREET":"公園路","SECT":" ","MAREA":" ","LANE":"１０９２巷","ALLEY":"２７弄","HOUSE_NO":"２７號","E_COORD97":169765.54000000001,"N_COORD97":2546664.1000000001,"ADDRESS":"公園路１０９２巷２７弄２７號","OBJECTID":196487},"geometry":{"x":169765.54000000004,"y":2546664.0999999978}},{"attributes":{"ID":196489,"DIS_CODE":0,"TOWNNAME":"新化區","LI":"全興里","LIN":"21鄰","STREET":" ","SECT":" ","MAREA":"竹子\u25A0","LANE":" ","ALLEY":" ","HOUSE_NO":"２４７號之５８９","E_COORD97":178443.57999999999,"N_COORD97":2546604.2599999998,"ADDRESS":"竹子\u25A0２４７號之５８９","OBJECTID":196488},"geometry":{"x":178443.58000000101,"y":2546604.2599999998}},{"attributes":{"ID":196490,"DIS_CODE":0,"TOWNNAME":"北區","LI":"小康里","LIN":"18鄰","STREET":"公園路","SECT":" ","MAREA":" ","LANE":"１０９２巷","ALLEY":"２７弄","HOUSE_NO":"２８號","E_COORD97":169790.79999999999,"N_COORD97":2546654.46,"ADDRESS":"公園路１０９２巷２７弄２８號","OBJECTID":196489},"geometry":{"x":169790.79999999981,"y":2546654.4600000028}},{"attributes":{"ID":196491,"DIS_CODE":0,"TOWNNAME":"北區","LI":"小康里","LIN":"18鄰","STREET":"公園路","SECT":" ","MAREA":" ","LANE":"１０９２巷","ALLEY":"２７弄","HOUSE_NO":"２號","E_COORD97":169792.17000000001,"N_COORD97":2546633.52,"ADDRESS":"公園路１０９２巷２７弄２號","OBJECTID":196490},"geometry":{"x":169792.17000000086,"y":2546633.5199999996}},{"attributes":{"ID":196492,"DIS_CODE":0,"TOWNNAME":"北區","LI":"小康里","LIN":"18鄰","STREET":"公園路","SECT":" ","MAREA":" ","LANE":"１０９２巷","ALLEY":"２７弄","HOUSE_NO":"３０號","E_COORD97":169789.98999999999,"N_COORD97":2546665.4700000002,"ADDRESS":"公園路１０９２巷２７弄３０號","OBJECTID":196491},"geometry":{"x":169789.99000000022,"y":2546665.4700000007}},{"attributes":{"ID":196493,"DIS_CODE":0,"TOWNNAME":"北區","LI":"小康里","LIN":"18鄰","STREET":"公園路","SECT":" ","MAREA":" ","LANE":"１０９２巷","ALLEY":"２７弄","HOUSE_NO":"３２號","E_COORD97":169794.57999999999,"N_COORD97":2546666.3900000001,"ADDRESS":"公園路１０９２巷２７弄３２號","OBJECTID":196492},"geometry":{"x":169794.58000000194,"y":2546666.3900000006}},{"attributes":{"ID":196494,"DIS_CODE":0,"TOWNNAME":"北區","LI":"小康里","LIN":"18鄰","STREET":"公園路","SECT":" ","MAREA":" ","LANE":"１０９２巷","ALLEY":"２７弄","HOUSE_NO":"３４號","E_COORD97":169798.95000000001,"N_COORD97":2546666.8500000001,"ADDRESS":"公園路１０９２巷２７弄３４號","OBJECTID":196493},"geometry":{"x":169798.95000000205,"y":2546666.8500000015}},{"attributes":{"ID":196495,"DIS_CODE":0,"TOWNNAME":"北區","LI":"小康里","LIN":"18鄰","STREET":"公園路","SECT":" ","MAREA":" ","LANE":"１０９２巷","ALLEY":"２７弄","HOUSE_NO":"３６號","E_COORD97":169802.95999999999,"N_COORD97":2546666.5,"ADDRESS":"公園路１０９２巷２７弄３６號","OBJECTID":196494},"geometry":{"x":169802.95999999996,"y":2546666.5000000019}},{"attributes":{"ID":196496,"DIS_CODE":0,"TOWNNAME":"北區","LI":"小康里","LIN":"18鄰","STREET":"公園路","SECT":" ","MAREA":" ","LANE":"１０９２巷","ALLEY":"２７弄","HOUSE_NO":"３８號","E_COORD97":169807.44,"N_COORD97":2546666.73,"ADDRESS":"公園路１０９２巷２７弄３８號","OBJECTID":196495},"geometry":{"x":169807.44000000041,"y":2546666.7300000004}},{"attributes":{"ID":196497,"DIS_CODE":0,"TOWNNAME":"北區","LI":"小康里","LIN":"18鄰","STREET":"公園路","SECT":" ","MAREA":" ","LANE":"１０９２巷","ALLEY":"２７弄","HOUSE_NO":"３號","E_COORD97":169775.64000000001,"N_COORD97":2546633.4100000001,"ADDRESS":"公園路１０９２巷２７弄３號","OBJECTID":196496},"geometry":{"x":169775.6400000006,"y":2546633.410000002}},{"attributes":{"ID":196498,"DIS_CODE":0,"TOWNNAME":"北區","LI":"小康里","LIN":"18鄰","STREET":"公園路","SECT":" ","MAREA":" ","LANE":"１０９２巷","ALLEY":"２７弄","HOUSE_NO":"４０號","E_COORD97":169812.14999999999,"N_COORD97":2546667.1899999999,"ADDRESS":"公園路１０９２巷２７弄４０號","OBJECTID":196497},"geometry":{"x":169812.15000000037,"y":2546667.1900000013}},{"attributes":{"ID":196499,"DIS_CODE":0,"TOWNNAME":"北區","LI":"小康里","LIN":"18鄰","STREET":"公園路","SECT":" ","MAREA":" ","LANE":"１０９２巷","ALLEY":"２７弄","HOUSE_NO":"４２號","E_COORD97":169816.51000000001,"N_COORD97":2546667.6499999999,"ADDRESS":"公園路１０９２巷２７弄４２號","OBJECTID":196498},"geometry":{"x":169816.50999999978,"y":2546667.6500000004}},{"attributes":{"ID":196500,"DIS_CODE":0,"TOWNNAME":"北區","LI":"小康里","LIN":"18鄰","STREET":"公園路","SECT":" ","MAREA":" ","LANE":"１０９２巷","ALLEY":"２７弄","HOUSE_NO":"４號","E_COORD97":169795.85000000001,"N_COORD97":2546632.4900000002,"ADDRESS":"公園路１０９２巷２７弄４號","OBJECTID":196499},"geometry":{"x":169795.85000000056,"y":2546632.4900000021}},{"attributes":{"ID":196501,"DIS_CODE":0,"TOWNNAME":"七股區","LI":"玉成里","LIN":"3鄰","STREET":" ","SECT":" ","MAREA":"玉成","LANE":" ","ALLEY":" ","HOUSE_NO":"３７號","E_COORD97":161330.35000000001,"N_COORD97":2559600.7400000002,"ADDRESS":"玉成３７號","OBJECTID":196500},"geometry":{"x":161330.35000000056,"y":2559600.7400000002}},{"attributes":{"ID":196502,"DIS_CODE":0,"TOWNNAME":"北區","LI":"小康里","LIN":"18鄰","STREET":"公園路","SECT":" ","MAREA":" ","LANE":"１０９２巷","ALLEY":"２７弄","HOUSE_NO":"５號","E_COORD97":169771.39999999999,"N_COORD97":2546631.3399999999,"ADDRESS":"公園路１０９２巷２７弄５號","OBJECTID":196501},"geometry":{"x":169771.4000000013,"y":2546631.3399999999}},{"attributes":{"ID":196503,"DIS_CODE":0,"TOWNNAME":"北區","LI":"小康里","LIN":"18鄰","STREET":"公園路","SECT":" ","MAREA":" ","LANE":"１０９２巷","ALLEY":"２７弄","HOUSE_NO":"６號","E_COORD97":169799.29000000001,"N_COORD97":2546635.1299999999,"ADDRESS":"公園路１０９２巷２７弄６號","OBJECTID":196502},"geometry":{"x":169799.29000000004,"y":2546635.129999999}},{"attributes":{"ID":196504,"DIS_CODE":0,"TOWNNAME":"北區","LI":"成德里","LIN":"21鄰","STREET":"育德一街","SECT":" ","MAREA":" ","LANE":" ","ALLEY":" ","HOUSE_NO":"３６０號","E_COORD97":168528.45999999999,"N_COORD97":2546643.4900000002,"ADDRESS":"育德一街３６０號","OBJECTID":196503},"geometry":{"x":168528.45999999996,"y":2546643.4900000021}},{"attributes":{"ID":196505,"DIS_CODE":0,"TOWNNAME":"北區","LI":"小康里","LIN":"18鄰","STREET":"公園路","SECT":" ","MAREA":" ","LANE":"１０９２巷","ALLEY":"２７弄","HOUSE_NO":"８號","E_COORD97":169804.69,"N_COORD97":2546634.79,"ADDRESS":"公園路１０９２巷２７弄８號","OBJECTID":196504},"geometry":{"x":169804.69000000134,"y":2546634.7899999991}},{"attributes":{"ID":196506,"DIS_CODE":0,"TOWNNAME":"北區","LI":"小康里","LIN":"18鄰","STREET":"公園路","SECT":" ","MAREA":" ","LANE":"１０９２巷","ALLEY":"２７弄","HOUSE_NO":"９號","E_COORD97":169763.13,"N_COORD97":2546630.8900000001,"ADDRESS":"公園路１０９２巷２７弄９號","OBJECTID":196505},"geometry":{"x":169763.12999999989,"y":2546630.8900000025}},{"attributes":{"ID":196507,"DIS_CODE":0,"TOWNNAME":"北區","LI":"小康里","LIN":"18鄰","STREET":"公園路","SECT":" ","MAREA":" ","LANE":"１０９２巷","ALLEY":"３０弄","HOUSE_NO":"１０號","E_COORD97":169765.42000000001,"N_COORD97":2546587.8100000001,"ADDRESS":"公園路１０９２巷３０弄１０號","OBJECTID":196506},"geometry":{"x":169765.42000000086,"y":2546587.8100000005}},{"attributes":{"ID":196508,"DIS_CODE":0,"TOWNNAME":"北區","LI":"小康里","LIN":"18鄰","STREET":"公園路","SECT":" ","MAREA":" ","LANE":"１０９２巷","ALLEY":"３０弄","HOUSE_NO":"１號","E_COORD97":169794.45999999999,"N_COORD97":2546587.5800000001,"ADDRESS":"公園路１０９２巷３０弄１號","OBJECTID":196507},"geometry":{"x":169794.45999999996,"y":2546587.5800000019}},{"attributes":{"ID":196509,"DIS_CODE":0,"TOWNNAME":"北區","LI":"小康里","LIN":"18鄰","STREET":"公園路","SECT":" ","MAREA":" ","LANE":"１０９２巷","ALLEY":"３０弄","HOUSE_NO":"２號","E_COORD97":169782.41,"N_COORD97":2546588.27,"ADDRESS":"公園路１０９２巷３０弄２號","OBJECTID":196508},"geometry":{"x":169782.41000000108,"y":2546588.2699999977}},{"attributes":{"ID":196510,"DIS_CODE":0,"TOWNNAME":"北區","LI":"成德里","LIN":"21鄰","STREET":"育成路","SECT":" ","MAREA":" ","LANE":" ","ALLEY":" ","HOUSE_NO":"１８６號","E_COORD97":168734.81,"N_COORD97":2546516.6800000002,"ADDRESS":"育成路１８６號","OBJECTID":196509},"geometry":{"x":168734.81000000052,"y":2546516.6799999997}},{"attributes":{"ID":196511,"DIS_CODE":0,"TOWNNAME":"北區","LI":"小康里","LIN":"18鄰","STREET":"公園路","SECT":" ","MAREA":" ","LANE":"１０９２巷","ALLEY":"３０弄","HOUSE_NO":"３號","E_COORD97":169798.25,"N_COORD97":2546588.04,"ADDRESS":"公園路１０９２巷３０弄３號","OBJECTID":196510},"geometry":{"x":169798.25000000186,"y":2546588.0399999991}},{"attributes":{"ID":196512,"DIS_CODE":0,"TOWNNAME":"北區","LI":"小康里","LIN":"18鄰","STREET":"公園路","SECT":" ","MAREA":" ","LANE":"１０９２巷","ALLEY":"３０弄","HOUSE_NO":"４號","E_COORD97":169777.81,"N_COORD97":2546586.4300000002,"ADDRESS":"公園路１０９２巷３０弄４號","OBJECTID":196511},"geometry":{"x":169777.81000000052,"y":2546586.4299999997}},{"attributes":{"ID":196513,"DIS_CODE":0,"TOWNNAME":"安平區","LI":"平安里","LIN":"21鄰","STREET":"民權路","SECT":"四段","MAREA":" ","LANE":" ","ALLEY":" ","HOUSE_NO":"３２５號","E_COORD97":165641.54999999999,"N_COORD97":2544421.3999999999,"ADDRESS":"民權路四段３２５號","OBJECTID":196512},"geometry":{"x":165641.55000000075,"y":2544421.4000000004}},{"attributes":{"ID":196514,"DIS_CODE":0,"TOWNNAME":"安平區","LI":"建平里","LIN":"21鄰","STREET":"怡平路","SECT":" ","MAREA":" ","LANE":" ","ALLEY":" ","HOUSE_NO":"１０５號","E_COORD97":165947.35999999999,"N_COORD97":2543730.4300000002,"ADDRESS":"怡平路１０５號","OBJECTID":196513},"geometry":{"x":165947.36000000034,"y":2543730.4300000016}},{"attributes":{"ID":196515,"DIS_CODE":0,"TOWNNAME":"北區","LI":"小康里","LIN":"18鄰","STREET":"公園路","SECT":" ","MAREA":" ","LANE":"１０９２巷","ALLEY":"３０弄","HOUSE_NO":"５號","E_COORD97":169802.26999999999,"N_COORD97":2546588.73,"ADDRESS":"公園路１０９２巷３０弄５號","OBJECTID":196514},"geometry":{"x":169802.26999999955,"y":2546588.7300000004}},{"attributes":{"ID":196516,"DIS_CODE":0,"TOWNNAME":"北區","LI":"小康里","LIN":"18鄰","STREET":"公園路","SECT":" ","MAREA":" ","LANE":"１０９２巷","ALLEY":"３０弄","HOUSE_NO":"６號","E_COORD97":169774.03,"N_COORD97":2546588.1499999999,"ADDRESS":"公園路１０９２巷３０弄６號","OBJECTID":196515},"geometry":{"x":169774.03000000026,"y":2546588.1500000022}},{"attributes":{"ID":196517,"DIS_CODE":0,"TOWNNAME":"北區","LI":"小康里","LIN":"18鄰","STREET":"公園路","SECT":" ","MAREA":" ","LANE":"１０９２巷","ALLEY":"３０弄","HOUSE_NO":"７號","E_COORD97":169806.73999999999,"N_COORD97":2546588.6099999999,"ADDRESS":"公園路１０９２巷３０弄７號","OBJECTID":196516},"geometry":{"x":169806.74000000022,"y":2546588.6099999994}},{"attributes":{"ID":196518,"DIS_CODE":0,"TOWNNAME":"北區","LI":"小康里","LIN":"18鄰","STREET":"公園路","SECT":" ","MAREA":" ","LANE":"１０９２巷","ALLEY":"３０弄","HOUSE_NO":"８號","E_COORD97":169770.23999999999,"N_COORD97":2546586.4300000002,"ADDRESS":"公園路１０９２巷３０弄８號","OBJECTID":196517},"geometry":{"x":169770.24000000115,"y":2546586.4299999997}},{"attributes":{"ID":196519,"DIS_CODE":0,"TOWNNAME":"北區","LI":"東興里","LIN":"18鄰","STREET":"小東路","SECT":" ","MAREA":" ","LANE":"３０７巷","ALLEY":"９１弄","HOUSE_NO":"１１號","E_COORD97":171077.23000000001,"N_COORD97":2544527.0899999999,"ADDRESS":"小東路３０７巷９１弄１１號","OBJECTID":196518},"geometry":{"x":171077.23000000138,"y":2544527.0899999999}},{"attributes":{"ID":196520,"DIS_CODE":0,"TOWNNAME":"北區","LI":"東興里","LIN":"18鄰","STREET":"小東路","SECT":" ","MAREA":" ","LANE":"３０７巷","ALLEY":"９１弄","HOUSE_NO":"１３號","E_COORD97":171074.51000000001,"N_COORD97":2544523.6899999999,"ADDRESS":"小東路３０７巷９１弄１３號","OBJECTID":196519},"geometry":{"x":171074.51000000164,"y":2544523.6899999995}},{"attributes":{"ID":196521,"DIS_CODE":0,"TOWNNAME":"北區","LI":"東興里","LIN":"18鄰","STREET":"小東路","SECT":" ","MAREA":" ","LANE":"３０７巷","ALLEY":"９１弄","HOUSE_NO":"１５號","E_COORD97":171071.39000000001,"N_COORD97":2544519.71,"ADDRESS":"小東路３０７巷９１弄１５號","OBJECTID":196520},"geometry":{"x":171071.38999999966,"y":2544519.7100000028}},{"attributes":{"ID":196522,"DIS_CODE":0,"TOWNNAME":"北區","LI":"東興里","LIN":"18鄰","STREET":"小東路","SECT":" ","MAREA":" ","LANE":"３０７巷","ALLEY":"９１弄","HOUSE_NO":"１號","E_COORD97":171089.67999999999,"N_COORD97":2544544.6899999999,"ADDRESS":"小東路３０７巷９１弄１號","OBJECTID":196521},"geometry":{"x":171089.6799999997,"y":2544544.6900000032}},{"attributes":{"ID":196523,"DIS_CODE":0,"TOWNNAME":"新營區","LI":"永生里","LIN":"21鄰","STREET":"延平路","SECT":" ","MAREA":" ","LANE":" ","ALLEY":" ","HOUSE_NO":"４３號","E_COORD97":179803.53,"N_COORD97":2577828.5299999998,"ADDRESS":"延平路４３號","OBJECTID":196522},"geometry":{"x":179803.53000000119,"y":2577828.5299999975}},{"attributes":{"ID":196524,"DIS_CODE":0,"TOWNNAME":"北區","LI":"東興里","LIN":"18鄰","STREET":"小東路","SECT":" ","MAREA":" ","LANE":"３０７巷","ALLEY":"９１弄","HOUSE_NO":"３號","E_COORD97":171087.35000000001,"N_COORD97":2544541.0899999999,"ADDRESS":"小東路３０７巷９１弄３號","OBJECTID":196523},"geometry":{"x":171087.35000000149,"y":2544541.0899999999}},{"attributes":{"ID":196525,"DIS_CODE":0,"TOWNNAME":"歸仁區","LI":"許厝里","LIN":"21鄰","STREET":"仁愛北街","SECT":" ","MAREA":" ","LANE":" ","ALLEY":" ","HOUSE_NO":"１９號","E_COORD97":178282.95999999999,"N_COORD97":2540788.3900000001,"ADDRESS":"仁愛北街１９號","OBJECTID":196524},"geometry":{"x":178282.96000000183,"y":2540788.3900000025}},{"attributes":{"ID":196526,"DIS_CODE":0,"TOWNNAME":"北區","LI":"東興里","LIN":"18鄰","STREET":"小東路","SECT":" ","MAREA":" ","LANE":"３０７巷","ALLEY":"９１弄","HOUSE_NO":"５號","E_COORD97":171085.89000000001,"N_COORD97":2544536.9100000001,"ADDRESS":"小東路３０７巷９１弄５號","OBJECTID":196525},"geometry":{"x":171085.8900000006,"y":2544536.9100000039}},{"attributes":{"ID":196527,"DIS_CODE":0,"TOWNNAME":"北區","LI":"東興里","LIN":"18鄰","STREET":"小東路","SECT":" ","MAREA":" ","LANE":"３０７巷","ALLEY":"９１弄","HOUSE_NO":"７號","E_COORD97":171082.57999999999,"N_COORD97":2544533.6099999999,"ADDRESS":"小東路３０７巷９１弄７號","OBJECTID":196526},"geometry":{"x":171082.58000000007,"y":2544533.6099999994}},{"attributes":{"ID":196528,"DIS_CODE":0,"TOWNNAME":"北區","LI":"東興里","LIN":"18鄰","STREET":"小東路","SECT":" ","MAREA":" ","LANE":"３０７巷","ALLEY":"９１弄","HOUSE_NO":"９號","E_COORD97":171079.85999999999,"N_COORD97":2544530.2000000002,"ADDRESS":"小東路３０７巷９１弄９號","OBJECTID":196527},"geometry":{"x":171079.86000000127,"y":2544530.1999999993}},{"attributes":{"ID":196529,"DIS_CODE":0,"TOWNNAME":"永康區","LI":"崑山里","LIN":"21鄰","STREET":"大仁街","SECT":" ","MAREA":" ","LANE":" ","ALLEY":" ","HOUSE_NO":"３９號","E_COORD97":173791.45000000001,"N_COORD97":2544645.8100000001,"ADDRESS":"大仁街３９號","OBJECTID":196528},"geometry":{"x":173791.45000000112,"y":2544645.8100000005}},{"attributes":{"ID":196530,"DIS_CODE":0,"TOWNNAME":"安南區","LI":"淵東里","LIN":"4鄰","STREET":"本原街","SECT":"三段","MAREA":" ","LANE":" ","ALLEY":" ","HOUSE_NO":"７號","E_COORD97":165780.41,"N_COORD97":2550430.6600000001,"ADDRESS":"本原街三段７號","OBJECTID":196529},"geometry":{"x":165780.41000000108,"y":2550430.6600000001}},{"attributes":{"ID":196531,"DIS_CODE":0,"TOWNNAME":"新市區","LI":"大社里","LIN":"3鄰","STREET":" ","SECT":" ","MAREA":"大社","LANE":" ","ALLEY":" ","HOUSE_NO":"１１０號","E_COORD97":180275.39999999999,"N_COORD97":2554354.75,"ADDRESS":"大社１１０號","OBJECTID":196530},"geometry":{"x":180275.40000000037,"y":2554354.75}},{"attributes":{"ID":196532,"DIS_CODE":0,"TOWNNAME":"西港區","LI":"後營里","LIN":"3鄰","STREET":" ","SECT":" ","MAREA":"後營","LANE":" ","ALLEY":" ","HOUSE_NO":"１７２號","E_COORD97":169877.69,"N_COORD97":2560495.71,"ADDRESS":"後營１７２號","OBJECTID":196531},"geometry":{"x":169877.69000000134,"y":2560495.7100000028}},{"attributes":{"ID":196533,"DIS_CODE":0,"TOWNNAME":"七股區","LI":"頂山里","LIN":"3鄰","STREET":" ","SECT":" ","MAREA":"頂山","LANE":" ","ALLEY":" ","HOUSE_NO":"２８號","E_COORD97":159051.04999999999,"N_COORD97":2564524.79,"ADDRESS":"頂山２８號","OBJECTID":196532},"geometry":{"x":159051.05000000075,"y":2564524.7899999991}},{"attributes":{"ID":196534,"DIS_CODE":0,"TOWNNAME":"西港區","LI":"後營里","LIN":"3鄰","STREET":" ","SECT":" ","MAREA":"後營","LANE":" ","ALLEY":" ","HOUSE_NO":"１７３號","E_COORD97":169877.39000000001,"N_COORD97":2560469.9300000002,"ADDRESS":"後營１７３號","OBJECTID":196533},"geometry":{"x":169877.3900000006,"y":2560469.9299999997}},{"attributes":{"ID":196535,"DIS_CODE":0,"TOWNNAME":"西港區","LI":"後營里","LIN":"3鄰","STREET":" ","SECT":" ","MAREA":"後營","LANE":" ","ALLEY":" ","HOUSE_NO":"１７４號之１","E_COORD97":169897.29000000001,"N_COORD97":2560462.1099999999,"ADDRESS":"後營１７４號之１","OBJECTID":196534},"geometry":{"x":169897.29000000004,"y":2560462.1099999994}},{"attributes":{"ID":196536,"DIS_CODE":0,"TOWNNAME":"西港區","LI":"後營里","LIN":"3鄰","STREET":" ","SECT":" ","MAREA":"後營","LANE":" ","ALLEY":" ","HOUSE_NO":"１７４號","E_COORD97":169893.13,"N_COORD97":2560462.9100000001,"ADDRESS":"後營１７４號","OBJECTID":196535},"geometry":{"x":169893.12999999989,"y":2560462.910000002}},{"attributes":{"ID":196537,"DIS_CODE":0,"TOWNNAME":"西港區","LI":"後營里","LIN":"3鄰","STREET":" ","SECT":" ","MAREA":"後營","LANE":" ","ALLEY":" ","HOUSE_NO":"１７５號之１","E_COORD97":169908.51999999999,"N_COORD97":2560459.71,"ADDRESS":"後營１７５號之１","OBJECTID":196536},"geometry":{"x":169908.52000000048,"y":2560459.7100000009}},{"attributes":{"ID":196538,"DIS_CODE":0,"TOWNNAME":"歸仁區","LI":"七甲里","LIN":"18鄰","STREET":"南潭三街","SECT":" ","MAREA":" ","LANE":"１６２巷","ALLEY":"１１弄","HOUSE_NO":"３號","E_COORD97":176453.63,"N_COORD97":2543120.0299999998,"ADDRESS":"南潭三街１６２巷１１弄３號","OBJECTID":196537},"geometry":{"x":176453.62999999989,"y":2543120.0299999993}},{"attributes":{"ID":196539,"DIS_CODE":0,"TOWNNAME":"歸仁區","LI":"大廟里","LIN":"18鄰","STREET":"大廟五街","SECT":" ","MAREA":" ","LANE":"２７巷","ALLEY":"６弄","HOUSE_NO":"１７號","E_COORD97":175891.13,"N_COORD97":2544279.0899999999,"ADDRESS":"大廟五街２７巷６弄１７號","OBJECTID":196538},"geometry":{"x":175891.12999999989,"y":2544279.0900000017}},{"attributes":{"ID":196540,"DIS_CODE":0,"TOWNNAME":"北區","LI":"力行里","LIN":"18鄰","STREET":"南園街","SECT":" ","MAREA":" ","LANE":"１２７巷","ALLEY":"１５１弄","HOUSE_NO":"２之１號","E_COORD97":170929.51999999999,"N_COORD97":2545508.4900000002,"ADDRESS":"南園街１２７巷１５１弄２之１號","OBJECTID":196539},"geometry":{"x":170929.51999999955,"y":2545508.4900000002}},{"attributes":{"ID":196541,"DIS_CODE":0,"TOWNNAME":"歸仁區","LI":"大廟里","LIN":"18鄰","STREET":"大廟五街","SECT":" ","MAREA":" ","LANE":"２７巷","ALLEY":"２弄","HOUSE_NO":"１１號","E_COORD97":175913.63,"N_COORD97":2544252.0899999999,"ADDRESS":"大廟五街２７巷２弄１１號","OBJECTID":196540},"geometry":{"x":175913.63000000175,"y":2544252.0900000017}},{"attributes":{"ID":196542,"DIS_CODE":0,"TOWNNAME":"歸仁區","LI":"大廟里","LIN":"18鄰","STREET":"大廟五街","SECT":" ","MAREA":" ","LANE":"２７巷","ALLEY":"２弄","HOUSE_NO":"７號","E_COORD97":175908.17999999999,"N_COORD97":2544243.0899999999,"ADDRESS":"大廟五街２７巷２弄７號","OBJECTID":196541},"geometry":{"x":175908.18000000063,"y":2544243.0899999999}},{"attributes":{"ID":196543,"DIS_CODE":0,"TOWNNAME":"歸仁區","LI":"七甲里","LIN":"18鄰","STREET":"南潭三街","SECT":" ","MAREA":" ","LANE":"１６２巷","ALLEY":"１１弄","HOUSE_NO":"７號","E_COORD97":176461.82999999999,"N_COORD97":2543121.0299999998,"ADDRESS":"南潭三街１６２巷１１弄７號","OBJECTID":196542},"geometry":{"x":176461.83000000101,"y":2543121.0299999993}},{"attributes":{"ID":196544,"DIS_CODE":0,"TOWNNAME":"歸仁區","LI":"七甲里","LIN":"18鄰","STREET":"南潭三街","SECT":" ","MAREA":" ","LANE":"１６２巷","ALLEY":"１２弄","HOUSE_NO":"６號","E_COORD97":176430.03,"N_COORD97":2543117.0299999998,"ADDRESS":"南潭三街１６２巷１２弄６號","OBJECTID":196543},"geometry":{"x":176430.03000000212,"y":2543117.0299999993}},{"attributes":{"ID":196545,"DIS_CODE":0,"TOWNNAME":"歸仁區","LI":"七甲里","LIN":"18鄰","STREET":"南潭三街","SECT":" ","MAREA":" ","LANE":"１６２巷","ALLEY":"８弄","HOUSE_NO":"１５號","E_COORD97":176400.32999999999,"N_COORD97":2543141.02,"ADDRESS":"南潭三街１６２巷８弄１５號","OBJECTID":196544},"geometry":{"x":176400.33000000007,"y":2543141.0199999996}},{"attributes":{"ID":196546,"DIS_CODE":0,"TOWNNAME":"歸仁區","LI":"七甲里","LIN":"18鄰","STREET":"南潭三街","SECT":" ","MAREA":" ","LANE":"１６２巷","ALLEY":"８弄","HOUSE_NO":"６號","E_COORD97":176427.88,"N_COORD97":2543151.0299999998,"ADDRESS":"南潭三街１６２巷８弄６號","OBJECTID":196545},"geometry":{"x":176427.88000000082,"y":2543151.0299999993}},{"attributes":{"ID":196547,"DIS_CODE":0,"TOWNNAME":"山上區","LI":"明和里","LIN":"21鄰","STREET":" ","SECT":" ","MAREA":"北勢洲","LANE":" ","ALLEY":" ","HOUSE_NO":"７之６號","E_COORD97":182453.32464100001,"N_COORD97":2557205.4367300002,"ADDRESS":"北勢洲７之６號","OBJECTID":196546},"geometry":{"x":182453.32464100141,"y":2557205.4367260002}},{"attributes":{"ID":196548,"DIS_CODE":0,"TOWNNAME":"永康區","LI":"\u25A0行里","LIN":"21鄰","STREET":"正南五街","SECT":" ","MAREA":" ","LANE":"３２７巷","ALLEY":" ","HOUSE_NO":"１６號","E_COORD97":171739.79999999999,"N_COORD97":2548563.8399999999,"ADDRESS":"正南五街３２７巷１６號","OBJECTID":196547},"geometry":{"x":171739.79999999981,"y":2548563.8399999999}},{"attributes":{"ID":196549,"DIS_CODE":0,"TOWNNAME":"安定區","LI":"港口里","LIN":"21鄰","STREET":" ","SECT":" ","MAREA":"港口","LANE":" ","ALLEY":" ","HOUSE_NO":"４０４之５號","E_COORD97":171475.42000000001,"N_COORD97":2555124.2400000002,"ADDRESS":"港口４０４之５號","OBJECTID":196548},"geometry":{"x":171475.42000000179,"y":2555124.2400000021}},{"attributes":{"ID":196550,"DIS_CODE":0,"TOWNNAME":"西港區","LI":"後營里","LIN":"3鄰","STREET":" ","SECT":" ","MAREA":"後營","LANE":" ","ALLEY":" ","HOUSE_NO":"１７５號","E_COORD97":169904.63,"N_COORD97":2560461.0099999998,"ADDRESS":"後營１７５號","OBJECTID":196549},"geometry":{"x":169904.63000000082,"y":2560461.0100000016}},{"attributes":{"ID":196551,"DIS_CODE":0,"TOWNNAME":"西港區","LI":"後營里","LIN":"3鄰","STREET":" ","SECT":" ","MAREA":"後營","LANE":" ","ALLEY":" ","HOUSE_NO":"１７６號","E_COORD97":169916.89999999999,"N_COORD97":2560458.1000000001,"ADDRESS":"後營１７６號","OBJECTID":196550},"geometry":{"x":169916.9000000013,"y":2560458.0999999996}},{"attributes":{"ID":196552,"DIS_CODE":0,"TOWNNAME":"永康區","LI":"\u25A0行里","LIN":"21鄰","STREET":"正南五街","SECT":" ","MAREA":" ","LANE":"３２７巷","ALLEY":" ","HOUSE_NO":"２８號","E_COORD97":171717,"N_COORD97":2548540.7000000002,"ADDRESS":"正南五街３２７巷２８號","OBJECTID":196551},"geometry":{"x":171717,"y":2548540.6999999993}},{"attributes":{"ID":196553,"DIS_CODE":0,"TOWNNAME":"安平區","LI":"金城里","LIN":"15鄰","STREET":"安北路","SECT":" ","MAREA":" ","LANE":" ","ALLEY":" ","HOUSE_NO":"５８６號","E_COORD97":162783.39999999999,"N_COORD97":2544363.52,"ADDRESS":"安北路５８６號","OBJECTID":196552},"geometry":{"x":162783.4000000013,"y":2544363.5200000014}},{"attributes":{"ID":196554,"DIS_CODE":0,"TOWNNAME":"安平區","LI":"金城里","LIN":"15鄰","STREET":"安北路","SECT":" ","MAREA":" ","LANE":" ","ALLEY":" ","HOUSE_NO":"５８８號","E_COORD97":162779.01999999999,"N_COORD97":2544360.8199999998,"ADDRESS":"安北路５８８號","OBJECTID":196553},"geometry":{"x":162779.01999999955,"y":2544360.8200000003}},{"attributes":{"ID":196555,"DIS_CODE":0,"TOWNNAME":"新營區","LI":"中營里","LIN":"15鄰","STREET":"開元路","SECT":" ","MAREA":" ","LANE":" ","ALLEY":" ","HOUSE_NO":"８６號之２","E_COORD97":181525.45999999999,"N_COORD97":2579292.1299999999,"ADDRESS":"開元路８６號之２","OBJECTID":196554},"geometry":{"x":181525.45999999996,"y":2579292.1299999971}},{"attributes":{"ID":196556,"DIS_CODE":0,"TOWNNAME":"新營區","LI":"三仙里","LIN":"15鄰","STREET":"民權路","SECT":" ","MAREA":" ","LANE":" ","ALLEY":" ","HOUSE_NO":"６１之１號","E_COORD97":179665.79999999999,"N_COORD97":2578351.7599999998,"ADDRESS":"民權路６１之１號","OBJECTID":196555},"geometry":{"x":179665.80000000075,"y":2578351.7599999998}},{"attributes":{"ID":196557,"DIS_CODE":0,"TOWNNAME":"新營區","LI":"埤寮里","LIN":"15鄰","STREET":"長榮路","SECT":"一段","MAREA":" ","LANE":" ","ALLEY":" ","HOUSE_NO":"３５６之１號","E_COORD97":180976.51999999999,"N_COORD97":2579911.54,"ADDRESS":"長榮路一段３５６之１號","OBJECTID":196556},"geometry":{"x":180976.52000000048,"y":2579911.540000001}},{"attributes":{"ID":196558,"DIS_CODE":0,"TOWNNAME":"新營區","LI":"南興里","LIN":"15鄰","STREET":"建業路","SECT":" ","MAREA":" ","LANE":" ","ALLEY":" ","HOUSE_NO":"１０２號","E_COORD97":179247.17999999999,"N_COORD97":2577489.8900000001,"ADDRESS":"建業路１０２號","OBJECTID":196557},"geometry":{"x":179247.1799999997,"y":2577489.8900000025}},{"attributes":{"ID":196559,"DIS_CODE":0,"TOWNNAME":"永康區","LI":"\u25A0行里","LIN":"21鄰","STREET":"正南五街","SECT":" ","MAREA":" ","LANE":"３２７巷","ALLEY":" ","HOUSE_NO":"２０號","E_COORD97":171733.29999999999,"N_COORD97":2548556.0099999998,"ADDRESS":"正南五街３２７巷２０號","OBJECTID":196558},"geometry":{"x":171733.29999999981,"y":2548556.0099999998}},{"attributes":{"ID":196560,"DIS_CODE":0,"TOWNNAME":"歸仁區","LI":"大廟里","LIN":"21鄰","STREET":"大廟一街","SECT":" ","MAREA":" ","LANE":"３８巷","ALLEY":" ","HOUSE_NO":"４６號","E_COORD97":175683.17999999999,"N_COORD97":2544096.7999999998,"ADDRESS":"大廟一街３８巷４６號","OBJECTID":196559},"geometry":{"x":175683.18000000063,"y":2544096.8000000007}},{"attributes":{"ID":196561,"DIS_CODE":0,"TOWNNAME":"歸仁區","LI":"歸仁里","LIN":"21鄰","STREET":"大仁街","SECT":" ","MAREA":" ","LANE":"１１３巷","ALLEY":" ","HOUSE_NO":"３６號","E_COORD97":178082.62,"N_COORD97":2541078.29,"ADDRESS":"大仁街１１３巷３６號","OBJECTID":196560},"geometry":{"x":178082.62000000104,"y":2541078.2899999972}},{"attributes":{"ID":196562,"DIS_CODE":0,"TOWNNAME":"歸仁區","LI":"大廟里","LIN":"21鄰","STREET":"大廟一街","SECT":" ","MAREA":" ","LANE":"２８巷","ALLEY":" ","HOUSE_NO":"８１號","E_COORD97":175600.45000000001,"N_COORD97":2544236.75,"ADDRESS":"大廟一街２８巷８１號","OBJECTID":196561},"geometry":{"x":175600.45000000112,"y":2544236.7500000019}},{"attributes":{"ID":196563,"DIS_CODE":0,"TOWNNAME":"新營區","LI":"民榮里","LIN":"15鄰","STREET":"公園路","SECT":"一段","MAREA":" ","LANE":" ","ALLEY":" ","HOUSE_NO":"２２６號","E_COORD97":178891.79000000001,"N_COORD97":2578024.2799999998,"ADDRESS":"公園路一段２２６號","OBJECTID":196562},"geometry":{"x":178891.79000000097,"y":2578024.2800000012}},{"attributes":{"ID":196564,"DIS_CODE":0,"TOWNNAME":"新營區","LI":"民榮里","LIN":"15鄰","STREET":"公園路","SECT":"一段","MAREA":" ","LANE":" ","ALLEY":" ","HOUSE_NO":"２１８號","E_COORD97":178909.20000000001,"N_COORD97":2578027.5099999998,"ADDRESS":"公園路一段２１８號","OBJECTID":196563},"geometry":{"x":178909.20000000112,"y":2578027.5100000016}},{"attributes":{"ID":196565,"DIS_CODE":0,"TOWNNAME":"新營區","LI":"埤寮里","LIN":"15鄰","STREET":"長榮路","SECT":"一段","MAREA":" ","LANE":" ","ALLEY":" ","HOUSE_NO":"３６６之１號","E_COORD97":180866.06,"N_COORD97":2579912.04,"ADDRESS":"長榮路一段３６６之１號","OBJECTID":196564},"geometry":{"x":180866.06000000052,"y":2579912.0399999991}},{"attributes":{"ID":196566,"DIS_CODE":0,"TOWNNAME":"新營區","LI":"民生里","LIN":"15鄰","STREET":"三民路","SECT":" ","MAREA":" ","LANE":" ","ALLEY":" ","HOUSE_NO":"１３５之２號","E_COORD97":179269.54000000001,"N_COORD97":2578221.8700000001,"ADDRESS":"三民路１３５之２號","OBJECTID":196565},"geometry":{"x":179269.54000000097,"y":2578221.8700000029}},{"attributes":{"ID":196567,"DIS_CODE":0,"TOWNNAME":"新營區","LI":"民榮里","LIN":"15鄰","STREET":"公園路","SECT":"一段","MAREA":" ","LANE":" ","ALLEY":" ","HOUSE_NO":"２３０號","E_COORD97":178882.56,"N_COORD97":2578018.7799999998,"ADDRESS":"公園路一段２３０號","OBJECTID":196566},"geometry":{"x":178882.56000000052,"y":2578018.7799999993}},{"attributes":{"ID":196568,"DIS_CODE":0,"TOWNNAME":"六甲區","LI":"水林里","LIN":"15鄰","STREET":"民族街","SECT":" ","MAREA":" ","LANE":" ","ALLEY":" ","HOUSE_NO":"２０３號","E_COORD97":183304.79999999999,"N_COORD97":2570323.1000000001,"ADDRESS":"民族街２０３號","OBJECTID":196567},"geometry":{"x":183304.79999999981,"y":2570323.1000000015}},{"attributes":{"ID":196569,"DIS_CODE":0,"TOWNNAME":"新市區","LI":"大社里","LIN":"3鄰","STREET":" ","SECT":" ","MAREA":"大社","LANE":" ","ALLEY":" ","HOUSE_NO":"９２號","E_COORD97":180310.64999999999,"N_COORD97":2554405.75,"ADDRESS":"大社９２號","OBJECTID":196568},"geometry":{"x":180310.65000000037,"y":2554405.75}},{"attributes":{"ID":196570,"DIS_CODE":0,"TOWNNAME":"歸仁區","LI":"大廟里","LIN":"18鄰","STREET":"大廟五街","SECT":" ","MAREA":" ","LANE":"２７巷","ALLEY":"２弄","HOUSE_NO":"１０號","E_COORD97":175919.63,"N_COORD97":2544240.0899999999,"ADDRESS":"大廟五街２７巷２弄１０號","OBJECTID":196569},"geometry":{"x":175919.62999999989,"y":2544240.0899999999}},{"attributes":{"ID":196571,"DIS_CODE":0,"TOWNNAME":"歸仁區","LI":"大廟里","LIN":"18鄰","STREET":"大廟五街","SECT":" ","MAREA":" ","LANE":"２７巷","ALLEY":"２弄","HOUSE_NO":"３號","E_COORD97":175906.07999999999,"N_COORD97":2544234.0899999999,"ADDRESS":"大廟五街２７巷２弄３號","OBJECTID":196570},"geometry":{"x":175906.08000000101,"y":2544234.0900000017}},{"attributes":{"ID":196572,"DIS_CODE":0,"TOWNNAME":"歸仁區","LI":"七甲里","LIN":"18鄰","STREET":"南潭三街","SECT":" ","MAREA":" ","LANE":"１６２巷","ALLEY":"８弄","HOUSE_NO":"１號","E_COORD97":176432.98000000001,"N_COORD97":2543142.0299999998,"ADDRESS":"南潭三街１６２巷８弄１號","OBJECTID":196571},"geometry":{"x":176432.98000000138,"y":2543142.0300000031}},{"attributes":{"ID":196573,"DIS_CODE":0,"TOWNNAME":"歸仁區","LI":"七甲里","LIN":"18鄰","STREET":"南潭三街","SECT":" ","MAREA":" ","LANE":"１６２巷","ALLEY":"１１弄","HOUSE_NO":"１１號","E_COORD97":176471.28,"N_COORD97":2543121.0299999998,"ADDRESS":"南潭三街１６２巷１１弄１１號","OBJECTID":196572},"geometry":{"x":176471.28000000119,"y":2543121.0299999993}},{"attributes":{"ID":196574,"DIS_CODE":0,"TOWNNAME":"歸仁區","LI":"大廟里","LIN":"18鄰","STREET":"大廟五街","SECT":" ","MAREA":" ","LANE":"２７巷","ALLEY":"２弄","HOUSE_NO":"１６號","E_COORD97":175924.82999999999,"N_COORD97":2544252.0899999999,"ADDRESS":"大廟五街２７巷２弄１６號","OBJECTID":196573},"geometry":{"x":175924.83000000101,"y":2544252.0900000017}},{"attributes":{"ID":196575,"DIS_CODE":0,"TOWNNAME":"歸仁區","LI":"大廟里","LIN":"18鄰","STREET":"大廟五街","SECT":" ","MAREA":" ","LANE":"２７巷","ALLEY":"２弄","HOUSE_NO":"９號","E_COORD97":175910.28,"N_COORD97":2544248.0899999999,"ADDRESS":"大廟五街２７巷２弄９號","OBJECTID":196574},"geometry":{"x":175910.28000000119,"y":2544248.0900000017}},{"attributes":{"ID":196576,"DIS_CODE":0,"TOWNNAME":"歸仁區","LI":"大廟里","LIN":"18鄰","STREET":"大廟五街","SECT":" ","MAREA":" ","LANE":"２７巷","ALLEY":"２弄","HOUSE_NO":"２號","E_COORD97":175914.28,"N_COORD97":2544227.0899999999,"ADDRESS":"大廟五街２７巷２弄２號","OBJECTID":196575},"geometry":{"x":175914.28000000026,"y":2544227.0900000036}},{"attributes":{"ID":196577,"DIS_CODE":0,"TOWNNAME":"南區","LI":"鯤鯓里","LIN":"18鄰","STREET":"鯤鯓路","SECT":" ","MAREA":" ","LANE":"１０２巷","ALLEY":"４３弄","HOUSE_NO":"１０號","E_COORD97":165066.76000000001,"N_COORD97":2540218.4900000002,"ADDRESS":"鯤鯓路１０２巷４３弄１０號","OBJECTID":196576},"geometry":{"x":165066.76000000164,"y":2540218.4900000021}},{"attributes":{"ID":196578,"DIS_CODE":0,"TOWNNAME":"南區","LI":"鯤鯓里","LIN":"18鄰","STREET":"鯤鯓路","SECT":" ","MAREA":" ","LANE":"１０２巷","ALLEY":"４３弄","HOUSE_NO":"１２號","E_COORD97":165048.67000000001,"N_COORD97":2540226.3700000001,"ADDRESS":"鯤鯓路１０２巷４３弄１２號","OBJECTID":196577},"geometry":{"x":165048.66999999993,"y":2540226.3700000029}},{"attributes":{"ID":196579,"DIS_CODE":0,"TOWNNAME":"南區","LI":"鯤鯓里","LIN":"18鄰","STREET":"鯤鯓路","SECT":" ","MAREA":" ","LANE":"１０２巷","ALLEY":"４３弄","HOUSE_NO":"１４號","E_COORD97":165070.03,"N_COORD97":2540228.1000000001,"ADDRESS":"鯤鯓路１０２巷４３弄１４號","OBJECTID":196578},"geometry":{"x":165070.03000000026,"y":2540228.0999999996}},{"attributes":{"ID":196580,"DIS_CODE":0,"TOWNNAME":"南區","LI":"鯤鯓里","LIN":"18鄰","STREET":"鯤鯓路","SECT":" ","MAREA":" ","LANE":"１０２巷","ALLEY":"４３弄","HOUSE_NO":"２號","E_COORD97":165079.47,"N_COORD97":2540221.3500000001,"ADDRESS":"鯤鯓路１０２巷４３弄２號","OBJECTID":196579},"geometry":{"x":165079.47000000067,"y":2540221.3500000015}},{"attributes":{"ID":196581,"DIS_CODE":0,"TOWNNAME":"南區","LI":"鯤鯓里","LIN":"18鄰","STREET":"鯤鯓路","SECT":" ","MAREA":" ","LANE":"１０２巷","ALLEY":"４３弄","HOUSE_NO":"４號","E_COORD97":165080.41,"N_COORD97":2540213.9399999999,"ADDRESS":"鯤鯓路１０２巷４３弄４號","OBJECTID":196580},"geometry":{"x":165080.41000000108,"y":2540213.9400000013}},{"attributes":{"ID":196582,"DIS_CODE":0,"TOWNNAME":"南區","LI":"鯤鯓里","LIN":"18鄰","STREET":"鯤鯓路","SECT":" ","MAREA":" ","LANE":"１０２巷","ALLEY":"４３弄","HOUSE_NO":"６號","E_COORD97":165079.09,"N_COORD97":2540254.4900000002,"ADDRESS":"鯤鯓路１０２巷４３弄６號","OBJECTID":196581},"geometry":{"x":165079.08999999985,"y":2540254.4900000039}},{"attributes":{"ID":196583,"DIS_CODE":0,"TOWNNAME":"南區","LI":"鯤鯓里","LIN":"18鄰","STREET":"鯤鯓路","SECT":" ","MAREA":" ","LANE":"１０２巷","ALLEY":"４３弄","HOUSE_NO":"８號","E_COORD97":165077.20000000001,"N_COORD97":2540238.8399999999,"ADDRESS":"鯤鯓路１０２巷４３弄８號","OBJECTID":196582},"geometry":{"x":165077.20000000019,"y":2540238.8400000017}},{"attributes":{"ID":196584,"DIS_CODE":0,"TOWNNAME":"南區","LI":"鯤鯓里","LIN":"18鄰","STREET":"鯤鯓路","SECT":" ","MAREA":" ","LANE":"１０２巷","ALLEY":"７１弄","HOUSE_NO":"５號","E_COORD97":165068.35000000001,"N_COORD97":2540254.73,"ADDRESS":"鯤鯓路１０２巷７１弄５號","OBJECTID":196583},"geometry":{"x":165068.35000000056,"y":2540254.7300000023}},{"attributes":{"ID":196585,"DIS_CODE":0,"TOWNNAME":"南區","LI":"鯤鯓里","LIN":"18鄰","STREET":"鯤鯓路","SECT":" ","MAREA":" ","LANE":"１０２巷","ALLEY":"７１弄","HOUSE_NO":"７號","E_COORD97":165064.25,"N_COORD97":2540240.6099999999,"ADDRESS":"鯤鯓路１０２巷７１弄７號","OBJECTID":196584},"geometry":{"x":165064.25000000093,"y":2540240.6100000013}},{"attributes":{"ID":196586,"DIS_CODE":0,"TOWNNAME":"西港區","LI":"營西里","LIN":"3鄰","STREET":" ","SECT":" ","MAREA":"後營","LANE":" ","ALLEY":" ","HOUSE_NO":"２７號之１","E_COORD97":169628.63,"N_COORD97":2560211.9700000002,"ADDRESS":"後營２７號之１","OBJECTID":196585},"geometry":{"x":169628.63000000082,"y":2560211.9700000025}},{"attributes":{"ID":196587,"DIS_CODE":0,"TOWNNAME":"西港區","LI":"營西里","LIN":"3鄰","STREET":" ","SECT":" ","MAREA":"後營","LANE":" ","ALLEY":" ","HOUSE_NO":"２７號之２","E_COORD97":169588.95000000001,"N_COORD97":2560201.1200000001,"ADDRESS":"後營２７號之２","OBJECTID":196586},"geometry":{"x":169588.95000000112,"y":2560201.1200000029}},{"attributes":{"ID":196588,"DIS_CODE":0,"TOWNNAME":"西港區","LI":"營西里","LIN":"3鄰","STREET":" ","SECT":" ","MAREA":"後營","LANE":" ","ALLEY":" ","HOUSE_NO":"２７號之３","E_COORD97":169564.13,"N_COORD97":2560217.7999999998,"ADDRESS":"後營２７號之３","OBJECTID":196587},"geometry":{"x":169564.13000000082,"y":2560217.8000000007}},{"attributes":{"ID":196589,"DIS_CODE":0,"TOWNNAME":"西港區","LI":"營西里","LIN":"3鄰","STREET":" ","SECT":" ","MAREA":"後營","LANE":" ","ALLEY":" ","HOUSE_NO":"２７號之５","E_COORD97":169611.82000000001,"N_COORD97":2560191.5899999999,"ADDRESS":"後營２７號之５","OBJECTID":196588},"geometry":{"x":169611.82000000123,"y":2560191.5899999999}},{"attributes":{"ID":196590,"DIS_CODE":0,"TOWNNAME":"西港區","LI":"營西里","LIN":"3鄰","STREET":" ","SECT":" ","MAREA":"後營","LANE":" ","ALLEY":" ","HOUSE_NO":"３０號","E_COORD97":169672.14000000001,"N_COORD97":2560251.7000000002,"ADDRESS":"後營３０號","OBJECTID":196589},"geometry":{"x":169672.1400000006,"y":2560251.6999999974}},{"attributes":{"ID":196591,"DIS_CODE":0,"TOWNNAME":"西港區","LI":"營西里","LIN":"3鄰","STREET":" ","SECT":" ","MAREA":"後營","LANE":" ","ALLEY":" ","HOUSE_NO":"３１號之１","E_COORD97":169658.53,"N_COORD97":2560221.04,"ADDRESS":"後營３１號之１","OBJECTID":196590},"geometry":{"x":169658.53000000026,"y":2560221.0399999991}},{"attributes":{"ID":196592,"DIS_CODE":0,"TOWNNAME":"西港區","LI":"營西里","LIN":"3鄰","STREET":" ","SECT":" ","MAREA":"後營","LANE":" ","ALLEY":" ","HOUSE_NO":"３１號","E_COORD97":169669.29000000001,"N_COORD97":2560234.7999999998,"ADDRESS":"後營３１號","OBJECTID":196591},"geometry":{"x":169669.2900000019,"y":2560234.8000000007}},{"attributes":{"ID":196593,"DIS_CODE":0,"TOWNNAME":"新市區","LI":"三舍里","LIN":"3鄰","STREET":" ","SECT":" ","MAREA":"三舍","LANE":" ","ALLEY":" ","HOUSE_NO":"８５號","E_COORD97":177989.64999999999,"N_COORD97":2554461.25,"ADDRESS":"三舍８５號","OBJECTID":196592},"geometry":{"x":177989.6500000013,"y":2554461.25}},{"attributes":{"ID":196594,"DIS_CODE":0,"TOWNNAME":"新市區","LI":"大洲里","LIN":"3鄰","STREET":" ","SECT":" ","MAREA":"大洲","LANE":" ","ALLEY":" ","HOUSE_NO":"２０號","E_COORD97":174459.82000000001,"N_COORD97":2552449,"ADDRESS":"大洲２０號","OBJECTID":196593},"geometry":{"x":174459.81999999937,"y":2552449}},{"attributes":{"ID":196595,"DIS_CODE":0,"TOWNNAME":"新市區","LI":"三舍里","LIN":"3鄰","STREET":" ","SECT":" ","MAREA":"三舍","LANE":" ","ALLEY":" ","HOUSE_NO":"７８之５號","E_COORD97":177978.89000000001,"N_COORD97":2554483.7999999998,"ADDRESS":"三舍７８之５號","OBJECTID":196594},"geometry":{"x":177978.88999999966,"y":2554483.8000000026}},{"attributes":{"ID":196596,"DIS_CODE":0,"TOWNNAME":"新市區","LI":"三舍里","LIN":"3鄰","STREET":" ","SECT":" ","MAREA":"三舍","LANE":" ","ALLEY":" ","HOUSE_NO":"６０號","E_COORD97":177893.35000000001,"N_COORD97":2554471.2400000002,"ADDRESS":"三舍６０號","OBJECTID":196595},"geometry":{"x":177893.3499999987,"y":2554471.2400000002}},{"attributes":{"ID":196597,"DIS_CODE":0,"TOWNNAME":"新市區","LI":"三舍里","LIN":"3鄰","STREET":" ","SECT":" ","MAREA":"三舍","LANE":" ","ALLEY":" ","HOUSE_NO":"８１號","E_COORD97":177964.07000000001,"N_COORD97":2554450.5,"ADDRESS":"三舍８１號","OBJECTID":196596},"geometry":{"x":177964.07000000123,"y":2554450.5000000019}},{"attributes":{"ID":196598,"DIS_CODE":0,"TOWNNAME":"新市區","LI":"大營里","LIN":"3鄰","STREET":" ","SECT":" ","MAREA":"大營","LANE":" ","ALLEY":" ","HOUSE_NO":"４７號","E_COORD97":179583.34,"N_COORD97":2555480,"ADDRESS":"大營４７號","OBJECTID":196597},"geometry":{"x":179583.33999999985,"y":2555480}},{"attributes":{"ID":196599,"DIS_CODE":0,"TOWNNAME":"新市區","LI":"大社里","LIN":"3鄰","STREET":" ","SECT":" ","MAREA":"大社","LANE":" ","ALLEY":" ","HOUSE_NO":"１０７號","E_COORD97":180257.10000000001,"N_COORD97":2554361.75,"ADDRESS":"大社１０７號","OBJECTID":196598},"geometry":{"x":180257.10000000056,"y":2554361.75}},{"attributes":{"ID":196600,"DIS_CODE":0,"TOWNNAME":"新市區","LI":"大社里","LIN":"3鄰","STREET":" ","SECT":" ","MAREA":"大社","LANE":" ","ALLEY":" ","HOUSE_NO":"９１之６號","E_COORD97":180508.29000000001,"N_COORD97":2554474.0499999998,"ADDRESS":"大社９１之６號","OBJECTID":196599},"geometry":{"x":180508.2900000019,"y":2554474.0500000045}},{"attributes":{"ID":196601,"DIS_CODE":0,"TOWNNAME":"新市區","LI":"大社里","LIN":"3鄰","STREET":" ","SECT":" ","MAREA":"大社","LANE":" ","ALLEY":" ","HOUSE_NO":"９１之１８號","E_COORD97":180398.88,"N_COORD97":2554425.5499999998,"ADDRESS":"大社９１之１８號","OBJECTID":196600},"geometry":{"x":180398.87999999989,"y":2554425.5500000007}}]}