{"displayFieldName":"TOWNNAME","fieldAliases":{"ID":"ID","DIS_CODE":"DIS_CODE","TOWNNAME":"TOWNNAME","LI":"LI","LIN":"LIN","STREET":"STREET","SECT":"SECT","MAREA":"MAREA","LANE":"LANE","ALLEY":"ALLEY","HOUSE_NO":"HOUSE_NO","E_COORD97":"E_COORD97","N_COORD97":"N_COORD97","ADDRESS":"ADDRESS","OBJECTID":"OBJECTID"},"geometryType":"esriGeometryPoint","spatialReference":{"wkid":102443,"latestWkid":3826},"fields":[{"name":"ID","type":"esriFieldTypeDouble","alias":"ID"},{"name":"DIS_CODE","type":"esriFieldTypeInteger","alias":"DIS_CODE"},{"name":"TOWNNAME","type":"esriFieldTypeString","alias":"TOWNNAME","length":8},{"name":"LI","type":"esriFieldTypeString","alias":"LI","length":8},{"name":"LIN","type":"esriFieldTypeString","alias":"LIN","length":12},{"name":"STREET","type":"esriFieldTypeString","alias":"STREET","length":20},{"name":"SECT","type":"esriFieldTypeString","alias":"SECT","length":8},{"name":"MAREA","type":"esriFieldTypeString","alias":"MAREA","length":12},{"name":"LANE","type":"esriFieldTypeString","alias":"LANE","length":10},{"name":"ALLEY","type":"esriFieldTypeString","alias":"ALLEY","length":10},{"name":"HOUSE_NO","type":"esriFieldTypeString","alias":"HOUSE_NO","length":20},{"name":"E_COORD97","type":"esriFieldTypeDouble","alias":"E_COORD97"},{"name":"N_COORD97","type":"esriFieldTypeDouble","alias":"N_COORD97"},{"name":"ADDRESS","type":"esriFieldTypeString","alias":"ADDRESS","length":50},{"name":"OBJECTID","type":"esriFieldTypeOID","alias":"OBJECTID"}],"features":[{"attributes":{"ID":647428,"DIS_CODE":0,"TOWNNAME":"佳里區","LI":"安西里","LIN":"18鄰","STREET":"光復路","SECT":" ","MAREA":" ","LANE":" ","ALLEY":" ","HOUSE_NO":"３６７號","E_COORD97":165501.27720800001,"N_COORD97":2562728.4723800002,"ADDRESS":"光復路３６７號","OBJECTID":647401},"geometry":{"x":165501.27720800135,"y":2562728.4723820016}},{"attributes":{"ID":647429,"DIS_CODE":0,"TOWNNAME":"佳里區","LI":"安西里","LIN":"18鄰","STREET":"光復路","SECT":" ","MAREA":" ","LANE":" ","ALLEY":" ","HOUSE_NO":"３６５號","E_COORD97":165501.912836,"N_COORD97":2562721.4873899999,"ADDRESS":"光復路３６５號","OBJECTID":647402},"geometry":{"x":165501.91283600032,"y":2562721.4873859994}},{"attributes":{"ID":647430,"DIS_CODE":0,"TOWNNAME":"新營區","LI":"舊部里","LIN":"2鄰","STREET":" ","SECT":" ","MAREA":"舊部","LANE":" ","ALLEY":" ","HOUSE_NO":"１３號","E_COORD97":177004.558751,"N_COORD97":2575365.04336,"ADDRESS":"舊部１３號","OBJECTID":647403},"geometry":{"x":177004.55875100195,"y":2575365.0433560014}},{"attributes":{"ID":647431,"DIS_CODE":0,"TOWNNAME":"山上區","LI":"山上里","LIN":"13鄰","STREET":" ","SECT":" ","MAREA":"山上","LANE":" ","ALLEY":" ","HOUSE_NO":"２０１號之９","E_COORD97":184041.302475,"N_COORD97":2555506.57699,"ADDRESS":"山上２０１號之９","OBJECTID":647404},"geometry":{"x":184041.3024749998,"y":2555506.5769909993}},{"attributes":{"ID":647432,"DIS_CODE":0,"TOWNNAME":"關廟區","LI":"埤頭里","LIN":"11鄰","STREET":"關新路","SECT":"二段","MAREA":" ","LANE":"５１巷","ALLEY":"６８弄","HOUSE_NO":"２５號","E_COORD97":178895.30489699999,"N_COORD97":2544240.5128799998,"ADDRESS":"關新路二段５１巷６８弄２５號","OBJECTID":647405},"geometry":{"x":178895.30489700194,"y":2544240.5128820017}},{"attributes":{"ID":647433,"DIS_CODE":0,"TOWNNAME":"安南區","LI":"安順里","LIN":"12鄰","STREET":"安和路","SECT":"三段","MAREA":" ","LANE":"１９０巷","ALLEY":" ","HOUSE_NO":"７５號之４７","E_COORD97":170079.661521,"N_COORD97":2549679.1651699999,"ADDRESS":"安和路三段１９０巷７５號之４７","OBJECTID":647406},"geometry":{"x":170079.66152099986,"y":2549679.1651649997}},{"attributes":{"ID":647434,"DIS_CODE":0,"TOWNNAME":"佳里區","LI":"安西里","LIN":"18鄰","STREET":"進學路","SECT":" ","MAREA":" ","LANE":" ","ALLEY":" ","HOUSE_NO":"２９８號","E_COORD97":165487.08150299999,"N_COORD97":2562712.8090599999,"ADDRESS":"進學路２９８號","OBJECTID":647407},"geometry":{"x":165487.08150300011,"y":2562712.8090580013}},{"attributes":{"ID":647435,"DIS_CODE":0,"TOWNNAME":"新營區","LI":"舊部里","LIN":"3鄰","STREET":" ","SECT":" ","MAREA":"舊部","LANE":" ","ALLEY":" ","HOUSE_NO":"２３號","E_COORD97":177052.44413300001,"N_COORD97":2575366.5250200001,"ADDRESS":"舊部２３號","OBJECTID":647408},"geometry":{"x":177052.44413300045,"y":2575366.5250220019}},{"attributes":{"ID":647436,"DIS_CODE":0,"TOWNNAME":"東山區","LI":"三榮里","LIN":"14鄰","STREET":" ","SECT":" ","MAREA":"下寮子","LANE":" ","ALLEY":" ","HOUSE_NO":"４０號之２","E_COORD97":187637.36134999999,"N_COORD97":2580879.1265500002,"ADDRESS":"下寮子４０號之２","OBJECTID":647409},"geometry":{"x":187637.36135000084,"y":2580879.1265500002}},{"attributes":{"ID":647437,"DIS_CODE":0,"TOWNNAME":"玉井區","LI":"豐里里","LIN":"7鄰","STREET":" ","SECT":" ","MAREA":"豐里","LANE":" ","ALLEY":" ","HOUSE_NO":"７４之７號","E_COORD97":192810.91005000001,"N_COORD97":2559094.4994800002,"ADDRESS":"豐里７４之７號","OBJECTID":647410},"geometry":{"x":192810.910050001,"y":2559094.4994839989}},{"attributes":{"ID":647438,"DIS_CODE":0,"TOWNNAME":"佳里區","LI":"安西里","LIN":"18鄰","STREET":"光復路","SECT":" ","MAREA":" ","LANE":" ","ALLEY":" ","HOUSE_NO":"３６３號","E_COORD97":165499.370322,"N_COORD97":2562714.9257200002,"ADDRESS":"光復路３６３號","OBJECTID":647411},"geometry":{"x":165499.37032200117,"y":2562714.9257229995}},{"attributes":{"ID":647439,"DIS_CODE":0,"TOWNNAME":"玉井區","LI":"豐里里","LIN":"7鄰","STREET":" ","SECT":" ","MAREA":"豐里","LANE":" ","ALLEY":" ","HOUSE_NO":"７４之２號","E_COORD97":193066.42799299999,"N_COORD97":2559365.7501699999,"ADDRESS":"豐里７４之２號","OBJECTID":647412},"geometry":{"x":193066.42799299955,"y":2559365.750171002}},{"attributes":{"ID":647440,"DIS_CODE":0,"TOWNNAME":"佳里區","LI":"龍安里","LIN":"13鄰","STREET":" ","SECT":" ","MAREA":"塭子內","LANE":" ","ALLEY":" ","HOUSE_NO":"１１６號之２","E_COORD97":164092.38520600001,"N_COORD97":2557619.80406,"ADDRESS":"塭子內１１６號之２","OBJECTID":647413},"geometry":{"x":164092.38520599995,"y":2557619.8040640038}},{"attributes":{"ID":647441,"DIS_CODE":0,"TOWNNAME":"東山區","LI":"三榮里","LIN":"5鄰","STREET":" ","SECT":" ","MAREA":"木柵","LANE":" ","ALLEY":" ","HOUSE_NO":"１５號","E_COORD97":187677.410313,"N_COORD97":2579862.70377,"ADDRESS":"木柵１５號","OBJECTID":647414},"geometry":{"x":187677.41031299997,"y":2579862.7037729993}},{"attributes":{"ID":647442,"DIS_CODE":0,"TOWNNAME":"關廟區","LI":"埤頭里","LIN":"11鄰","STREET":"關新路","SECT":"二段","MAREA":" ","LANE":"１０３巷","ALLEY":"６７弄","HOUSE_NO":"２１號","E_COORD97":178954.627775,"N_COORD97":2544229.5062199999,"ADDRESS":"關新路二段１０３巷６７弄２１號","OBJECTID":647415},"geometry":{"x":178954.62777500134,"y":2544229.506221002}},{"attributes":{"ID":647443,"DIS_CODE":0,"TOWNNAME":"新營區","LI":"舊部里","LIN":"3鄰","STREET":" ","SECT":" ","MAREA":"舊部","LANE":" ","ALLEY":" ","HOUSE_NO":"２２號","E_COORD97":177046.29954899999,"N_COORD97":2575340.7017000001,"ADDRESS":"舊部２２號","OBJECTID":647416},"geometry":{"x":177046.29954900127,"y":2575340.7017020043}},{"attributes":{"ID":647444,"DIS_CODE":0,"TOWNNAME":"玉井區","LI":"豐里里","LIN":"7鄰","STREET":" ","SECT":" ","MAREA":"豐里","LANE":" ","ALLEY":" ","HOUSE_NO":"７７號","E_COORD97":192746.92462000001,"N_COORD97":2559552.44007,"ADDRESS":"豐里７７號","OBJECTID":647417},"geometry":{"x":192746.92462000065,"y":2559552.4400700033}},{"attributes":{"ID":647445,"DIS_CODE":0,"TOWNNAME":"新營區","LI":"舊部里","LIN":"3鄰","STREET":" ","SECT":" ","MAREA":"舊部","LANE":" ","ALLEY":" ","HOUSE_NO":"２１號","E_COORD97":177033.79849799999,"N_COORD97":2575328.2133800001,"ADDRESS":"舊部２１號","OBJECTID":647418},"geometry":{"x":177033.79849800095,"y":2575328.2133760024}},{"attributes":{"ID":647446,"DIS_CODE":0,"TOWNNAME":"東山區","LI":"三榮里","LIN":"8鄰","STREET":" ","SECT":" ","MAREA":"木柵","LANE":" ","ALLEY":" ","HOUSE_NO":"３８號之３","E_COORD97":187462.12065,"N_COORD97":2579868.6304299999,"ADDRESS":"木柵３８號之３","OBJECTID":647419},"geometry":{"x":187462.1206500018,"y":2579868.630429998}},{"attributes":{"ID":647447,"DIS_CODE":0,"TOWNNAME":"玉井區","LI":"豐里里","LIN":"8鄰","STREET":" ","SECT":" ","MAREA":"豐里","LANE":" ","ALLEY":" ","HOUSE_NO":"８０號","E_COORD97":192698.40588000001,"N_COORD97":2559560.37757,"ADDRESS":"豐里８０號","OBJECTID":647420},"geometry":{"x":192698.40588000044,"y":2559560.3775660042}},{"attributes":{"ID":647448,"DIS_CODE":0,"TOWNNAME":"新營區","LI":"舊部里","LIN":"2鄰","STREET":" ","SECT":" ","MAREA":"舊部","LANE":" ","ALLEY":" ","HOUSE_NO":"１４號","E_COORD97":177002.016164,"N_COORD97":2575343.03003,"ADDRESS":"舊部１４號","OBJECTID":647421},"geometry":{"x":177002.01616400108,"y":2575343.0300340019}},{"attributes":{"ID":647449,"DIS_CODE":0,"TOWNNAME":"玉井區","LI":"豐里里","LIN":"8鄰","STREET":" ","SECT":" ","MAREA":"豐里","LANE":" ","ALLEY":" ","HOUSE_NO":"８１號","E_COORD97":192672.13372000001,"N_COORD97":2559527.7809199998,"ADDRESS":"豐里８１號","OBJECTID":647422},"geometry":{"x":192672.13371999934,"y":2559527.7809170038}},{"attributes":{"ID":647450,"DIS_CODE":0,"TOWNNAME":"東山區","LI":"三榮里","LIN":"10鄰","STREET":" ","SECT":" ","MAREA":"木柵","LANE":" ","ALLEY":" ","HOUSE_NO":"５４號之１２","E_COORD97":187379.90372999999,"N_COORD97":2579845.7704400001,"ADDRESS":"木柵５４號之１２","OBJECTID":647423},"geometry":{"x":187379.90373000037,"y":2579845.7704399992}},{"attributes":{"ID":647451,"DIS_CODE":0,"TOWNNAME":"玉井區","LI":"豐里里","LIN":"8鄰","STREET":" ","SECT":" ","MAREA":"豐里","LANE":" ","ALLEY":" ","HOUSE_NO":"８５號","E_COORD97":192399.24225099999,"N_COORD97":2559620.8083700002,"ADDRESS":"豐里８５號","OBJECTID":647424},"geometry":{"x":192399.24225100223,"y":2559620.8083660025}},{"attributes":{"ID":647452,"DIS_CODE":0,"TOWNNAME":"新營區","LI":"舊部里","LIN":"3鄰","STREET":" ","SECT":" ","MAREA":"舊部","LANE":" ","ALLEY":" ","HOUSE_NO":"２０號","E_COORD97":177028.92520699999,"N_COORD97":2575307.04672,"ADDRESS":"舊部２０號","OBJECTID":647425},"geometry":{"x":177028.92520700023,"y":2575307.0467210002}},{"attributes":{"ID":647453,"DIS_CODE":0,"TOWNNAME":"玉井區","LI":"豐里里","LIN":"9鄰","STREET":" ","SECT":" ","MAREA":"豐里","LANE":" ","ALLEY":" ","HOUSE_NO":"８５號","E_COORD97":192397.33540099999,"N_COORD97":2559619.3267000001,"ADDRESS":"豐里８５號","OBJECTID":647426},"geometry":{"x":192397.33540100139,"y":2559619.326700002}},{"attributes":{"ID":647454,"DIS_CODE":0,"TOWNNAME":"東山區","LI":"三榮里","LIN":"6鄰","STREET":" ","SECT":" ","MAREA":"木柵","LANE":" ","ALLEY":" ","HOUSE_NO":"９號","E_COORD97":187637.149451,"N_COORD97":2579780.5771499998,"ADDRESS":"木柵９號","OBJECTID":647427},"geometry":{"x":187637.14945099968,"y":2579780.5771510024}},{"attributes":{"ID":647455,"DIS_CODE":0,"TOWNNAME":"玉井區","LI":"豐里里","LIN":"10鄰","STREET":" ","SECT":" ","MAREA":"豐里","LANE":" ","ALLEY":" ","HOUSE_NO":"９６號","E_COORD97":193018.968608,"N_COORD97":2560211.8872099998,"ADDRESS":"豐里９６號","OBJECTID":647428},"geometry":{"x":193018.96860800125,"y":2560211.8872140013}},{"attributes":{"ID":647456,"DIS_CODE":0,"TOWNNAME":"玉井區","LI":"豐里里","LIN":"10鄰","STREET":" ","SECT":" ","MAREA":"豐里","LANE":" ","ALLEY":" ","HOUSE_NO":"１００號","E_COORD97":193085.92024100001,"N_COORD97":2560242.0496999999,"ADDRESS":"豐里１００號","OBJECTID":647429},"geometry":{"x":193085.92024100106,"y":2560242.0496980026}},{"attributes":{"ID":647457,"DIS_CODE":0,"TOWNNAME":"玉井區","LI":"豐里里","LIN":"10鄰","STREET":" ","SECT":" ","MAREA":"豐里","LANE":" ","ALLEY":" ","HOUSE_NO":"１００之１號","E_COORD97":193078.08096799999,"N_COORD97":2560245.01303,"ADDRESS":"豐里１００之１號","OBJECTID":647430},"geometry":{"x":193078.08096799999,"y":2560245.0130289998}},{"attributes":{"ID":647458,"DIS_CODE":0,"TOWNNAME":"玉井區","LI":"豐里里","LIN":"10鄰","STREET":" ","SECT":" ","MAREA":"豐里","LANE":" ","ALLEY":" ","HOUSE_NO":"１０５之１號","E_COORD97":193031.892815,"N_COORD97":2560287.2405099999,"ADDRESS":"豐里１０５之１號","OBJECTID":647431},"geometry":{"x":193031.89281500038,"y":2560287.2405060008}},{"attributes":{"ID":647459,"DIS_CODE":0,"TOWNNAME":"玉井區","LI":"豐里里","LIN":"10鄰","STREET":" ","SECT":" ","MAREA":"豐里","LANE":" ","ALLEY":" ","HOUSE_NO":"１０５之２號","E_COORD97":193020.239841,"N_COORD97":2560273.4821799998,"ADDRESS":"豐里１０５之２號","OBJECTID":647432},"geometry":{"x":193020.23984100111,"y":2560273.4821809996}},{"attributes":{"ID":647460,"DIS_CODE":0,"TOWNNAME":"白河區","LI":"大竹里","LIN":"13鄰","STREET":" ","SECT":" ","MAREA":"大排竹","LANE":" ","ALLEY":" ","HOUSE_NO":"１９４之１６號","E_COORD97":189047.99707400001,"N_COORD97":2585024.71062,"ADDRESS":"大排竹１９４之１６號","OBJECTID":647433},"geometry":{"x":189047.99707400147,"y":2585024.7106219996}},{"attributes":{"ID":647461,"DIS_CODE":0,"TOWNNAME":"仁德區","LI":"中洲里","LIN":"15鄰","STREET":" ","SECT":" ","MAREA":"中洲","LANE":" ","ALLEY":" ","HOUSE_NO":"３７３號之３","E_COORD97":173382.66459199999,"N_COORD97":2534212.6783500002,"ADDRESS":"中洲３７３號之３","OBJECTID":647434},"geometry":{"x":173382.66459200066,"y":2534212.6783530042}},{"attributes":{"ID":647462,"DIS_CODE":0,"TOWNNAME":"學甲區","LI":"豐和里","LIN":"14鄰","STREET":" ","SECT":" ","MAREA":"美豐","LANE":" ","ALLEY":" ","HOUSE_NO":"１１０號之１","E_COORD97":167972.21739500001,"N_COORD97":2568665.8215800002,"ADDRESS":"美豐１１０號之１","OBJECTID":647435},"geometry":{"x":167972.21739500109,"y":2568665.8215810042}},{"attributes":{"ID":647463,"DIS_CODE":0,"TOWNNAME":"南區","LI":"光明里","LIN":"5鄰","STREET":"新興路","SECT":" ","MAREA":" ","LANE":"５３３巷","ALLEY":"４３弄","HOUSE_NO":"４６號","E_COORD97":166783.27629899999,"N_COORD97":2541503.6603700002,"ADDRESS":"新興路５３３巷４３弄４６號","OBJECTID":647436},"geometry":{"x":166783.27629900072,"y":2541503.6603679992}},{"attributes":{"ID":647464,"DIS_CODE":0,"TOWNNAME":"南區","LI":"光明里","LIN":"5鄰","STREET":"新興路","SECT":" ","MAREA":" ","LANE":"５３３巷","ALLEY":"４３弄","HOUSE_NO":"４８號","E_COORD97":166787.61766799999,"N_COORD97":2541502.6020399998,"ADDRESS":"新興路５３３巷４３弄４８號","OBJECTID":647437},"geometry":{"x":166787.61766800098,"y":2541502.6020350009}},{"attributes":{"ID":647465,"DIS_CODE":0,"TOWNNAME":"永康區","LI":"烏竹里","LIN":"5鄰","STREET":"烏竹街","SECT":" ","MAREA":" ","LANE":" ","ALLEY":" ","HOUSE_NO":"５１號","E_COORD97":174487.75313500001,"N_COORD97":2549322.9431599998,"ADDRESS":"烏竹街５１號","OBJECTID":647438},"geometry":{"x":174487.75313500036,"y":2549322.9431559984}},{"attributes":{"ID":647466,"DIS_CODE":0,"TOWNNAME":"新市區","LI":"大社里","LIN":"24鄰","STREET":" ","SECT":" ","MAREA":"大社","LANE":" ","ALLEY":" ","HOUSE_NO":"８８８號","E_COORD97":179844.79255700001,"N_COORD97":2554103.7577200001,"ADDRESS":"大社８８８號","OBJECTID":647439},"geometry":{"x":179844.79255700111,"y":2554103.7577160019}},{"attributes":{"ID":647467,"DIS_CODE":0,"TOWNNAME":"南區","LI":"府南里","LIN":"6鄰","STREET":"金華路","SECT":"一段","MAREA":" ","LANE":"４８４巷","ALLEY":"９９弄","HOUSE_NO":"６之２號","E_COORD97":167417.11739100001,"N_COORD97":2541343.1668699998,"ADDRESS":"金華路一段４８４巷９９弄６之２號","OBJECTID":647440},"geometry":{"x":167417.11739099957,"y":2541343.1668650024}},{"attributes":{"ID":647468,"DIS_CODE":0,"TOWNNAME":"永康區","LI":"三民里","LIN":"3鄰","STREET":"三民街","SECT":" ","MAREA":" ","LANE":" ","ALLEY":" ","HOUSE_NO":"９８號","E_COORD97":172901.50964900001,"N_COORD97":2550328.88845,"ADDRESS":"三民街９８號","OBJECTID":647441},"geometry":{"x":172901.50964900199,"y":2550328.8884459995}},{"attributes":{"ID":647469,"DIS_CODE":0,"TOWNNAME":"新市區","LI":"大社里","LIN":"23鄰","STREET":" ","SECT":" ","MAREA":"大社","LANE":" ","ALLEY":" ","HOUSE_NO":"８５１號","E_COORD97":179688.134322,"N_COORD97":2554174.56018,"ADDRESS":"大社８５１號","OBJECTID":647442},"geometry":{"x":179688.13432200067,"y":2554174.5601780023}},{"attributes":{"ID":647470,"DIS_CODE":0,"TOWNNAME":"仁德區","LI":"仁義里","LIN":"1鄰","STREET":"義林路","SECT":" ","MAREA":" ","LANE":"１４５巷","ALLEY":"２弄","HOUSE_NO":"１號","E_COORD97":174285.86042899999,"N_COORD97":2540568.7407800001,"ADDRESS":"義林路１４５巷２弄１號","OBJECTID":647443},"geometry":{"x":174285.86042900011,"y":2540568.7407789975}},{"attributes":{"ID":647471,"DIS_CODE":0,"TOWNNAME":"玉井區","LI":"豐里里","LIN":"11鄰","STREET":" ","SECT":" ","MAREA":"豐里","LANE":" ","ALLEY":" ","HOUSE_NO":"１１１號","E_COORD97":192964.67896300001,"N_COORD97":2560229.0812900001,"ADDRESS":"豐里１１１號","OBJECTID":647444},"geometry":{"x":192964.67896300182,"y":2560229.0812910032}},{"attributes":{"ID":647472,"DIS_CODE":0,"TOWNNAME":"玉井區","LI":"豐里里","LIN":"11鄰","STREET":" ","SECT":" ","MAREA":"豐里","LANE":" ","ALLEY":" ","HOUSE_NO":"１１１號","E_COORD97":192964.67895999999,"N_COORD97":2560229.0812900001,"ADDRESS":"豐里１１１號","OBJECTID":647445},"geometry":{"x":192964.6789600011,"y":2560229.0812899992}},{"attributes":{"ID":647473,"DIS_CODE":0,"TOWNNAME":"東山區","LI":"青山里","LIN":"8鄰","STREET":" ","SECT":" ","MAREA":"青山","LANE":" ","ALLEY":" ","HOUSE_NO":"６９之８５號","E_COORD97":197623.165626,"N_COORD97":2574991.2821900002,"ADDRESS":"青山６９之８５號","OBJECTID":647446},"geometry":{"x":197623.16562599968,"y":2574991.2821910046}},{"attributes":{"ID":647474,"DIS_CODE":0,"TOWNNAME":"新營區","LI":"王公里","LIN":"2鄰","STREET":"民治路","SECT":" ","MAREA":" ","LANE":"２６巷","ALLEY":" ","HOUSE_NO":"１２之１號","E_COORD97":180255.148392,"N_COORD97":2578989.7026499999,"ADDRESS":"民治路２６巷１２之１號","OBJECTID":647447},"geometry":{"x":180255.14839200024,"y":2578989.7026479989}},{"attributes":{"ID":647475,"DIS_CODE":0,"TOWNNAME":"仁德區","LI":"仁義里","LIN":"1鄰","STREET":"義林路","SECT":" ","MAREA":" ","LANE":"１４５巷","ALLEY":"２弄","HOUSE_NO":"２之１號","E_COORD97":174306.189942,"N_COORD97":2540609.3807600001,"ADDRESS":"義林路１４５巷２弄２之１號","OBJECTID":647448},"geometry":{"x":174306.18994200043,"y":2540609.3807570003}},{"attributes":{"ID":647476,"DIS_CODE":0,"TOWNNAME":"永康區","LI":"烏竹里","LIN":"16鄰","STREET":"龍橋街","SECT":" ","MAREA":" ","LANE":" ","ALLEY":" ","HOUSE_NO":"２００號","E_COORD97":174617.89123000001,"N_COORD97":2548756.41763,"ADDRESS":"龍橋街２００號","OBJECTID":647449},"geometry":{"x":174617.89122999925,"y":2548756.4176280014}},{"attributes":{"ID":647477,"DIS_CODE":0,"TOWNNAME":"北門區","LI":"錦湖里","LIN":"3鄰","STREET":" ","SECT":" ","MAREA":"渡子頭","LANE":" ","ALLEY":" ","HOUSE_NO":"２１號","E_COORD97":165897.65550200001,"N_COORD97":2576747.6973100002,"ADDRESS":"渡子頭２１號","OBJECTID":647450},"geometry":{"x":165897.65550200082,"y":2576747.6973130014}},{"attributes":{"ID":647478,"DIS_CODE":0,"TOWNNAME":"永康區","LI":"烏竹里","LIN":"16鄰","STREET":"龍橋街","SECT":" ","MAREA":" ","LANE":" ","ALLEY":" ","HOUSE_NO":"２３５號","E_COORD97":174583.97902299999,"N_COORD97":2548799.2801000001,"ADDRESS":"龍橋街２３５號","OBJECTID":647451},"geometry":{"x":174583.97902300116,"y":2548799.2801050004}},{"attributes":{"ID":647479,"DIS_CODE":0,"TOWNNAME":"北門區","LI":"錦湖里","LIN":"3鄰","STREET":" ","SECT":" ","MAREA":"渡子頭","LANE":" ","ALLEY":" ","HOUSE_NO":"２３號之７","E_COORD97":166002.95360899999,"N_COORD97":2576713.08983,"ADDRESS":"渡子頭２３號之７","OBJECTID":647452},"geometry":{"x":166002.95360900182,"y":2576713.0898319986}},{"attributes":{"ID":647480,"DIS_CODE":0,"TOWNNAME":"北門區","LI":"錦湖里","LIN":"3鄰","STREET":" ","SECT":" ","MAREA":"渡子頭","LANE":" ","ALLEY":" ","HOUSE_NO":"２３號之８","E_COORD97":166006.55535499999,"N_COORD97":2576714.9948300002,"ADDRESS":"渡子頭２３號之８","OBJECTID":647453},"geometry":{"x":166006.55535500124,"y":2576714.9948309995}},{"attributes":{"ID":647481,"DIS_CODE":0,"TOWNNAME":"玉井區","LI":"望明里","LIN":"8鄰","STREET":" ","SECT":" ","MAREA":"公\u25A0","LANE":" ","ALLEY":" ","HOUSE_NO":"１１４號","E_COORD97":194090.892165,"N_COORD97":2556698.2557100002,"ADDRESS":"公\u25A0１１４號","OBJECTID":647454},"geometry":{"x":194090.89216500055,"y":2556698.2557140011}},{"attributes":{"ID":647482,"DIS_CODE":0,"TOWNNAME":"關廟區","LI":"埤頭里","LIN":"11鄰","STREET":"保東二街","SECT":" ","MAREA":" ","LANE":" ","ALLEY":" ","HOUSE_NO":"１６７號","E_COORD97":178762.675892,"N_COORD97":2544463.2919299998,"ADDRESS":"保東二街１６７號","OBJECTID":647455},"geometry":{"x":178762.67589200195,"y":2544463.2919280045}},{"attributes":{"ID":647483,"DIS_CODE":0,"TOWNNAME":"新營區","LI":"王公里","LIN":"6鄰","STREET":"民治路","SECT":" ","MAREA":" ","LANE":" ","ALLEY":" ","HOUSE_NO":"６號之２１","E_COORD97":180579.75195500001,"N_COORD97":2578987.3329699999,"ADDRESS":"民治路６號之２１","OBJECTID":647456},"geometry":{"x":180579.75195499975,"y":2578987.3329660017}},{"attributes":{"ID":647484,"DIS_CODE":0,"TOWNNAME":"新營區","LI":"王公里","LIN":"6鄰","STREET":"民治路","SECT":" ","MAREA":" ","LANE":" ","ALLEY":" ","HOUSE_NO":"６號之２１","E_COORD97":180579.75195500001,"N_COORD97":2578987.3329699999,"ADDRESS":"民治路６號之２１","OBJECTID":647457},"geometry":{"x":180579.75195499975,"y":2578987.3329660017}},{"attributes":{"ID":647485,"DIS_CODE":0,"TOWNNAME":"新營區","LI":"王公里","LIN":"6鄰","STREET":"民治路","SECT":" ","MAREA":" ","LANE":" ","ALLEY":" ","HOUSE_NO":"６號之２６","E_COORD97":180581.02324800001,"N_COORD97":2578971.4579699999,"ADDRESS":"民治路６號之２６","OBJECTID":647458},"geometry":{"x":180581.02324800007,"y":2578971.4579739999}},{"attributes":{"ID":647486,"DIS_CODE":0,"TOWNNAME":"新營區","LI":"王公里","LIN":"6鄰","STREET":"民治路","SECT":" ","MAREA":" ","LANE":" ","ALLEY":" ","HOUSE_NO":"６號之４０","E_COORD97":180584.62524600001,"N_COORD97":2578907.1113399998,"ADDRESS":"民治路６號之４０","OBJECTID":647459},"geometry":{"x":180584.62524599954,"y":2578907.1113419998}},{"attributes":{"ID":647487,"DIS_CODE":0,"TOWNNAME":"安南區","LI":"總頭里","LIN":"8鄰","STREET":"長溪路","SECT":"二段","MAREA":" ","LANE":" ","ALLEY":" ","HOUSE_NO":"６７５號之２","E_COORD97":168073.53510800001,"N_COORD97":2550951.4042400001,"ADDRESS":"長溪路二段６７５號之２","OBJECTID":647460},"geometry":{"x":168073.5351080019,"y":2550951.4042390008}},{"attributes":{"ID":647488,"DIS_CODE":0,"TOWNNAME":"鹽水區","LI":"岸內里","LIN":"26鄰","STREET":" ","SECT":" ","MAREA":"新岸內","LANE":" ","ALLEY":" ","HOUSE_NO":"１之５５號","E_COORD97":174251.82493999999,"N_COORD97":2580500.1409300002,"ADDRESS":"新岸內１之５５號","OBJECTID":647461},"geometry":{"x":174251.82493999973,"y":2580500.1409250032}},{"attributes":{"ID":647489,"DIS_CODE":0,"TOWNNAME":"永康區","LI":"烏竹里","LIN":"17鄰","STREET":"龍橋街","SECT":" ","MAREA":" ","LANE":"２５３巷","ALLEY":" ","HOUSE_NO":"２７號","E_COORD97":174510.64387500001,"N_COORD97":2548846.6934099998,"ADDRESS":"龍橋街２５３巷２７號","OBJECTID":647462},"geometry":{"x":174510.64387500007,"y":2548846.6934129987}},{"attributes":{"ID":647490,"DIS_CODE":0,"TOWNNAME":"學甲區","LI":"豐和里","LIN":"14鄰","STREET":" ","SECT":" ","MAREA":"美豐","LANE":" ","ALLEY":" ","HOUSE_NO":"１１２號","E_COORD97":167982.56325000001,"N_COORD97":2568613.8770900001,"ADDRESS":"美豐１１２號","OBJECTID":647463},"geometry":{"x":167982.56325000059,"y":2568613.8770870026}},{"attributes":{"ID":647491,"DIS_CODE":0,"TOWNNAME":"學甲區","LI":"豐和里","LIN":"14鄰","STREET":" ","SECT":" ","MAREA":"美豐","LANE":" ","ALLEY":" ","HOUSE_NO":"１１１號","E_COORD97":167960.7592,"N_COORD97":2568645.5293800002,"ADDRESS":"美豐１１１號","OBJECTID":647464},"geometry":{"x":167960.75920000207,"y":2568645.5293780025}},{"attributes":{"ID":647492,"DIS_CODE":0,"TOWNNAME":"新營區","LI":"王公里","LIN":"6鄰","STREET":"民治路","SECT":" ","MAREA":" ","LANE":" ","ALLEY":" ","HOUSE_NO":"６號之４５","E_COORD97":180558.64651699999,"N_COORD97":2578906.4763400001,"ADDRESS":"民治路６號之４５","OBJECTID":647465},"geometry":{"x":180558.64651700016,"y":2578906.4763430003}},{"attributes":{"ID":647493,"DIS_CODE":0,"TOWNNAME":"新營區","LI":"王公里","LIN":"6鄰","STREET":"民治路","SECT":" ","MAREA":" ","LANE":" ","ALLEY":" ","HOUSE_NO":"８號之５","E_COORD97":180468.59657299999,"N_COORD97":2578901.39634,"ADDRESS":"民治路８號之５","OBJECTID":647466},"geometry":{"x":180468.59657300077,"y":2578901.3963450007}},{"attributes":{"ID":647494,"DIS_CODE":0,"TOWNNAME":"永康區","LI":"新樹里","LIN":"4鄰","STREET":"富強路","SECT":"二段","MAREA":" ","LANE":"３２６巷","ALLEY":" ","HOUSE_NO":"１７號","E_COORD97":175678.071604,"N_COORD97":2547570.4499300001,"ADDRESS":"富強路二段３２６巷１７號","OBJECTID":647467},"geometry":{"x":175678.0716040004,"y":2547570.4499350023}},{"attributes":{"ID":647495,"DIS_CODE":0,"TOWNNAME":"玉井區","LI":"望明里","LIN":"8鄰","STREET":" ","SECT":" ","MAREA":"公\u25A0","LANE":" ","ALLEY":" ","HOUSE_NO":"２號","E_COORD97":193851.94,"N_COORD97":2556452.5108400001,"ADDRESS":"公\u25A0２號","OBJECTID":647468},"geometry":{"x":193851.94000000041,"y":2556452.5108400024}},{"attributes":{"ID":647496,"DIS_CODE":0,"TOWNNAME":"關廟區","LI":"埤頭里","LIN":"11鄰","STREET":"關新路","SECT":"二段","MAREA":" ","LANE":" ","ALLEY":" ","HOUSE_NO":"２２５號","E_COORD97":179027.88101000001,"N_COORD97":2544583.5186800002,"ADDRESS":"關新路二段２２５號","OBJECTID":647469},"geometry":{"x":179027.88100999966,"y":2544583.5186800007}},{"attributes":{"ID":647497,"DIS_CODE":0,"TOWNNAME":"仁德區","LI":"太子里","LIN":"27鄰","STREET":"中正路","SECT":"三段","MAREA":" ","LANE":"５２３巷","ALLEY":"１２４弄","HOUSE_NO":"１５號","E_COORD97":173478.822705,"N_COORD97":2543136.3378599999,"ADDRESS":"中正路三段５２３巷１２４弄１５號","OBJECTID":647470},"geometry":{"x":173478.82270499971,"y":2543136.3378640022}},{"attributes":{"ID":647498,"DIS_CODE":0,"TOWNNAME":"新營區","LI":"王公里","LIN":"6鄰","STREET":"民治路","SECT":" ","MAREA":" ","LANE":" ","ALLEY":" ","HOUSE_NO":"６號之１０","E_COORD97":180584.33723599999,"N_COORD97":2578932.3261199999,"ADDRESS":"民治路６號之１０","OBJECTID":647471},"geometry":{"x":180584.33723600116,"y":2578932.3261200003}},{"attributes":{"ID":647499,"DIS_CODE":0,"TOWNNAME":"安南區","LI":"總頭里","LIN":"10鄰","STREET":"長溪路","SECT":"二段","MAREA":" ","LANE":"５２３巷","ALLEY":" ","HOUSE_NO":"４８號","E_COORD97":168098.323596,"N_COORD97":2550523.2028000001,"ADDRESS":"長溪路二段５２３巷４８號","OBJECTID":647472},"geometry":{"x":168098.32359600067,"y":2550523.2028039992}},{"attributes":{"ID":647500,"DIS_CODE":0,"TOWNNAME":"新營區","LI":"王公里","LIN":"12鄰","STREET":"義和街","SECT":" ","MAREA":" ","LANE":" ","ALLEY":" ","HOUSE_NO":"１號之１０","E_COORD97":180525.857743,"N_COORD97":2578981.4327600002,"ADDRESS":"義和街１號之１０","OBJECTID":647473},"geometry":{"x":180525.85774299968,"y":2578981.4327600021}},{"attributes":{"ID":647501,"DIS_CODE":0,"TOWNNAME":"新營區","LI":"王公里","LIN":"12鄰","STREET":"義和街","SECT":" ","MAREA":" ","LANE":" ","ALLEY":" ","HOUSE_NO":"１號之９","E_COORD97":180522.043863,"N_COORD97":2578982.4910900001,"ADDRESS":"義和街１號之９","OBJECTID":647474},"geometry":{"x":180522.04386300128,"y":2578982.4910930004}},{"attributes":{"ID":647502,"DIS_CODE":0,"TOWNNAME":"新營區","LI":"王公里","LIN":"12鄰","STREET":"義和街","SECT":" ","MAREA":" ","LANE":" ","ALLEY":" ","HOUSE_NO":"１號之１１","E_COORD97":180530.09538799999,"N_COORD97":2578981.6444299999,"ADDRESS":"義和街１號之１１","OBJECTID":647475},"geometry":{"x":180530.0953879999,"y":2578981.6444269996}},{"attributes":{"ID":647503,"DIS_CODE":0,"TOWNNAME":"新營區","LI":"王公里","LIN":"12鄰","STREET":"義和街","SECT":" ","MAREA":" ","LANE":" ","ALLEY":" ","HOUSE_NO":"１號之１２","E_COORD97":180534.12114999999,"N_COORD97":2578982.7027599998,"ADDRESS":"義和街１號之１２","OBJECTID":647476},"geometry":{"x":180534.12115000095,"y":2578982.7027600016}},{"attributes":{"ID":647504,"DIS_CODE":0,"TOWNNAME":"新營區","LI":"王公里","LIN":"12鄰","STREET":"義和街","SECT":" ","MAREA":" ","LANE":" ","ALLEY":" ","HOUSE_NO":"１號之１４","E_COORD97":180542.80832099999,"N_COORD97":2578982.2794300001,"ADDRESS":"義和街１號之１４","OBJECTID":647477},"geometry":{"x":180542.80832100008,"y":2578982.2794269994}},{"attributes":{"ID":647505,"DIS_CODE":0,"TOWNNAME":"永康區","LI":"正強里","LIN":"47鄰","STREET":"中正路","SECT":" ","MAREA":" ","LANE":"２５６巷","ALLEY":" ","HOUSE_NO":"１１號之５９","E_COORD97":173228.97439799999,"N_COORD97":2547993.8888699999,"ADDRESS":"中正路２５６巷１１號之５９","OBJECTID":647478},"geometry":{"x":173228.9743980011,"y":2547993.8888730016}},{"attributes":{"ID":647506,"DIS_CODE":0,"TOWNNAME":"關廟區","LI":"埤頭里","LIN":"13鄰","STREET":"關新路","SECT":"二段","MAREA":" ","LANE":"４６２巷","ALLEY":" ","HOUSE_NO":"６５號","E_COORD97":179392.451948,"N_COORD97":2545108.2403699998,"ADDRESS":"關新路二段４６２巷６５號","OBJECTID":647479},"geometry":{"x":179392.45194800198,"y":2545108.2403650004}},{"attributes":{"ID":647507,"DIS_CODE":0,"TOWNNAME":"新營區","LI":"王公里","LIN":"12鄰","STREET":"義和街","SECT":" ","MAREA":" ","LANE":" ","ALLEY":" ","HOUSE_NO":"１號之３","E_COORD97":180521.831981,"N_COORD97":2579000.6944200001,"ADDRESS":"義和街１號之３","OBJECTID":647480},"geometry":{"x":180521.83198099956,"y":2579000.6944169998}},{"attributes":{"ID":647508,"DIS_CODE":0,"TOWNNAME":"新營區","LI":"王公里","LIN":"12鄰","STREET":"義和街","SECT":" ","MAREA":" ","LANE":" ","ALLEY":" ","HOUSE_NO":"１號之４","E_COORD97":180526.49338999999,"N_COORD97":2579002.3877500002,"ADDRESS":"義和街１號之４","OBJECTID":647481},"geometry":{"x":180526.49339000043,"y":2579002.3877489995}},{"attributes":{"ID":647509,"DIS_CODE":0,"TOWNNAME":"新營區","LI":"王公里","LIN":"12鄰","STREET":"義和街","SECT":" ","MAREA":" ","LANE":" ","ALLEY":" ","HOUSE_NO":"１之５號","E_COORD97":180530.09538000001,"N_COORD97":2579003.8694099998,"ADDRESS":"義和街１之５號","OBJECTID":647482},"geometry":{"x":180530.09538000077,"y":2579003.8694100026}},{"attributes":{"ID":647510,"DIS_CODE":0,"TOWNNAME":"新營區","LI":"王公里","LIN":"12鄰","STREET":"義和街","SECT":" ","MAREA":" ","LANE":" ","ALLEY":" ","HOUSE_NO":"１之２號","E_COORD97":180528.40033,"N_COORD97":2579024.4010700001,"ADDRESS":"義和街１之２號","OBJECTID":647483},"geometry":{"x":180528.40033000056,"y":2579024.4010700025}},{"attributes":{"ID":647511,"DIS_CODE":0,"TOWNNAME":"新營區","LI":"王公里","LIN":"12鄰","STREET":"義和街","SECT":" ","MAREA":" ","LANE":" ","ALLEY":" ","HOUSE_NO":"１之１號","E_COORD97":180529.03597,"N_COORD97":2579029.2694000001,"ADDRESS":"義和街１之１號","OBJECTID":647484},"geometry":{"x":180529.03597000148,"y":2579029.2694000006}},{"attributes":{"ID":647512,"DIS_CODE":0,"TOWNNAME":"後壁區","LI":"土溝里","LIN":"9鄰","STREET":" ","SECT":" ","MAREA":"土溝","LANE":" ","ALLEY":" ","HOUSE_NO":"８８之５６號","E_COORD97":186926.78231800001,"N_COORD97":2586385.0868099998,"ADDRESS":"土溝８８之５６號","OBJECTID":647485},"geometry":{"x":186926.78231800068,"y":2586385.0868110005}},{"attributes":{"ID":647513,"DIS_CODE":0,"TOWNNAME":"關廟區","LI":"埤頭里","LIN":"13鄰","STREET":"關新路","SECT":"二段","MAREA":" ","LANE":" ","ALLEY":" ","HOUSE_NO":"５６７號","E_COORD97":179142.02465800001,"N_COORD97":2545426.9573499998,"ADDRESS":"關新路二段５６７號","OBJECTID":647486},"geometry":{"x":179142.02465800103,"y":2545426.9573520031}},{"attributes":{"ID":647514,"DIS_CODE":0,"TOWNNAME":"後壁區","LI":"土溝里","LIN":"11鄰","STREET":" ","SECT":" ","MAREA":"土溝","LANE":" ","ALLEY":" ","HOUSE_NO":"１０３之９６號","E_COORD97":187086.14309299999,"N_COORD97":2585297.6757499999,"ADDRESS":"土溝１０３之９６號","OBJECTID":647487},"geometry":{"x":187086.1430930011,"y":2585297.6757470034}},{"attributes":{"ID":647515,"DIS_CODE":0,"TOWNNAME":"新營區","LI":"王公里","LIN":"12鄰","STREET":"義和街","SECT":" ","MAREA":" ","LANE":" ","ALLEY":" ","HOUSE_NO":"１號之６","E_COORD97":180534.02678700001,"N_COORD97":2579004.20181,"ADDRESS":"義和街１號之６","OBJECTID":647488},"geometry":{"x":180534.02678700071,"y":2579004.2018060014}},{"attributes":{"ID":647516,"DIS_CODE":0,"TOWNNAME":"永康區","LI":"崑山里","LIN":"27鄰","STREET":"大灣路","SECT":" ","MAREA":" ","LANE":"９４２巷","ALLEY":"７１弄","HOUSE_NO":"２７０號","E_COORD97":173533.12450599999,"N_COORD97":2544745.1247899998,"ADDRESS":"大灣路９４２巷７１弄２７０號","OBJECTID":647489},"geometry":{"x":173533.12450600043,"y":2544745.1247940008}},{"attributes":{"ID":647517,"DIS_CODE":0,"TOWNNAME":"後壁區","LI":"新嘉里","LIN":"19鄰","STREET":" ","SECT":" ","MAREA":"白沙屯","LANE":" ","ALLEY":" ","HOUSE_NO":"２１０號之１","E_COORD97":179368.98755600001,"N_COORD97":2585746.3881100002,"ADDRESS":"白沙屯２１０號之１","OBJECTID":647490},"geometry":{"x":179368.98755599931,"y":2585746.3881090023}},{"attributes":{"ID":647518,"DIS_CODE":0,"TOWNNAME":"新營區","LI":"王公里","LIN":"12鄰","STREET":"義和街","SECT":" ","MAREA":" ","LANE":" ","ALLEY":" ","HOUSE_NO":"３號之２１","E_COORD97":180523.644558,"N_COORD97":2579048.3342800001,"ADDRESS":"義和街３號之２１","OBJECTID":647491},"geometry":{"x":180523.64455799945,"y":2579048.3342829999}},{"attributes":{"ID":647519,"DIS_CODE":0,"TOWNNAME":"新營區","LI":"王公里","LIN":"12鄰","STREET":"義和街","SECT":" ","MAREA":" ","LANE":" ","ALLEY":" ","HOUSE_NO":"７號","E_COORD97":180488.89587400001,"N_COORD97":2579008.54097,"ADDRESS":"義和街７號","OBJECTID":647492},"geometry":{"x":180488.89587400015,"y":2579008.5409709997}},{"attributes":{"ID":647520,"DIS_CODE":0,"TOWNNAME":"新營區","LI":"王公里","LIN":"12鄰","STREET":"義和街","SECT":" ","MAREA":" ","LANE":" ","ALLEY":" ","HOUSE_NO":"７號之２","E_COORD97":180506.48209899999,"N_COORD97":2579007.9059700002,"ADDRESS":"義和街７號之２","OBJECTID":647493},"geometry":{"x":180506.48209900223,"y":2579007.905971}},{"attributes":{"ID":647521,"DIS_CODE":0,"TOWNNAME":"新營區","LI":"王公里","LIN":"12鄰","STREET":"義和街","SECT":" ","MAREA":" ","LANE":" ","ALLEY":" ","HOUSE_NO":"７號之３","E_COORD97":180501.82068999999,"N_COORD97":2579009.1759700002,"ADDRESS":"義和街７號之３","OBJECTID":647494},"geometry":{"x":180501.82069000136,"y":2579009.1759699993}},{"attributes":{"ID":647522,"DIS_CODE":0,"TOWNNAME":"新營區","LI":"王公里","LIN":"12鄰","STREET":"義和街","SECT":" ","MAREA":" ","LANE":" ","ALLEY":" ","HOUSE_NO":"７之４號","E_COORD97":180498.00680999999,"N_COORD97":2579009.1759700002,"ADDRESS":"義和街７之４號","OBJECTID":647495},"geometry":{"x":180498.00681000017,"y":2579009.1759699993}},{"attributes":{"ID":647523,"DIS_CODE":0,"TOWNNAME":"新營區","LI":"王公里","LIN":"12鄰","STREET":"義和街","SECT":" ","MAREA":" ","LANE":" ","ALLEY":" ","HOUSE_NO":"７號之５","E_COORD97":180492.92163600001,"N_COORD97":2579009.5992999999,"ADDRESS":"義和街７號之５","OBJECTID":647496},"geometry":{"x":180492.92163600028,"y":2579009.5993030015}},{"attributes":{"ID":647524,"DIS_CODE":0,"TOWNNAME":"永康區","LI":"烏竹里","LIN":"21鄰","STREET":"自強路","SECT":" ","MAREA":" ","LANE":"７７３巷","ALLEY":"２弄","HOUSE_NO":"６號","E_COORD97":174498.986554,"N_COORD97":2548611.32021,"ADDRESS":"自強路７７３巷２弄６號","OBJECTID":647497},"geometry":{"x":174498.9865539996,"y":2548611.3202060014}},{"attributes":{"ID":647525,"DIS_CODE":0,"TOWNNAME":"新營區","LI":"王公里","LIN":"12鄰","STREET":"義和街","SECT":" ","MAREA":" ","LANE":" ","ALLEY":" ","HOUSE_NO":"７之６號","E_COORD97":180512.41480100001,"N_COORD97":2578982.2943199999,"ADDRESS":"義和街７之６號","OBJECTID":647498},"geometry":{"x":180512.41480100155,"y":2578982.2943180017}},{"attributes":{"ID":647526,"DIS_CODE":0,"TOWNNAME":"新營區","LI":"王公里","LIN":"12鄰","STREET":"義和街","SECT":" ","MAREA":" ","LANE":" ","ALLEY":" ","HOUSE_NO":"７之７號","E_COORD97":180507.75339200001,"N_COORD97":2578982.0826500002,"ADDRESS":"義和街７之７號","OBJECTID":647499},"geometry":{"x":180507.75339200068,"y":2578982.0826520007}},{"attributes":{"ID":647527,"DIS_CODE":0,"TOWNNAME":"新營區","LI":"王公里","LIN":"12鄰","STREET":"義和街","SECT":" ","MAREA":" ","LANE":" ","ALLEY":" ","HOUSE_NO":"７號之８","E_COORD97":180503.72763000001,"N_COORD97":2578981.65931,"ADDRESS":"義和街７號之８","OBJECTID":647500},"geometry":{"x":180503.72762999963,"y":2578981.65931}},{"attributes":{"ID":647528,"DIS_CODE":0,"TOWNNAME":"新營區","LI":"王公里","LIN":"12鄰","STREET":"義和街","SECT":" ","MAREA":" ","LANE":" ","ALLEY":" ","HOUSE_NO":"７號之９","E_COORD97":180498.642456,"N_COORD97":2578981.7651499999,"ADDRESS":"義和街７號之９","OBJECTID":647501},"geometry":{"x":180498.64245600067,"y":2578981.7651520036}},{"attributes":{"ID":647529,"DIS_CODE":0,"TOWNNAME":"永康區","LI":"烏竹里","LIN":"21鄰","STREET":"自強路","SECT":" ","MAREA":" ","LANE":"７７３巷","ALLEY":" ","HOUSE_NO":"３６號","E_COORD97":174478.34250699999,"N_COORD97":2548733.3482499998,"ADDRESS":"自強路７７３巷３６號","OBJECTID":647502},"geometry":{"x":174478.34250700008,"y":2548733.3482520003}},{"attributes":{"ID":647530,"DIS_CODE":0,"TOWNNAME":"東山區","LI":"三榮里","LIN":"2鄰","STREET":" ","SECT":" ","MAREA":"許秀才","LANE":" ","ALLEY":" ","HOUSE_NO":"１８號","E_COORD97":187215.98044099999,"N_COORD97":2579304.3954500002,"ADDRESS":"許秀才１８號","OBJECTID":647503},"geometry":{"x":187215.98044100124,"y":2579304.3954520002}},{"attributes":{"ID":647531,"DIS_CODE":0,"TOWNNAME":"北門區","LI":"東壁里","LIN":"2鄰","STREET":" ","SECT":" ","MAREA":"蚵寮","LANE":" ","ALLEY":" ","HOUSE_NO":"５７６號","E_COORD97":161584.53925599999,"N_COORD97":2576501.2086499999,"ADDRESS":"蚵寮５７６號","OBJECTID":647504},"geometry":{"x":161584.53925599996,"y":2576501.208649002}},{"attributes":{"ID":647532,"DIS_CODE":0,"TOWNNAME":"東山區","LI":"三榮里","LIN":"1鄰","STREET":" ","SECT":" ","MAREA":"許秀才","LANE":" ","ALLEY":" ","HOUSE_NO":"１號之１１","E_COORD97":187045.82532,"N_COORD97":2579026.4772600001,"ADDRESS":"許秀才１號之１１","OBJECTID":647505},"geometry":{"x":187045.82531999983,"y":2579026.477260001}},{"attributes":{"ID":647533,"DIS_CODE":0,"TOWNNAME":"玉井區","LI":"望明里","LIN":"2鄰","STREET":" ","SECT":" ","MAREA":"望明","LANE":" ","ALLEY":" ","HOUSE_NO":"１３號","E_COORD97":194448.30193399999,"N_COORD97":2556123.41004,"ADDRESS":"望明１３號","OBJECTID":647506},"geometry":{"x":194448.30193400197,"y":2556123.4100380018}},{"attributes":{"ID":647534,"DIS_CODE":0,"TOWNNAME":"東山區","LI":"三榮里","LIN":"1鄰","STREET":" ","SECT":" ","MAREA":"許秀才","LANE":" ","ALLEY":" ","HOUSE_NO":"１號之１２","E_COORD97":186924.61893999999,"N_COORD97":2578838.3056999999,"ADDRESS":"許秀才１號之１２","OBJECTID":647507},"geometry":{"x":186924.61894000135,"y":2578838.3057000022}},{"attributes":{"ID":647535,"DIS_CODE":0,"TOWNNAME":"東山區","LI":"三榮里","LIN":"1鄰","STREET":" ","SECT":" ","MAREA":"許秀才","LANE":" ","ALLEY":" ","HOUSE_NO":"１號之６","E_COORD97":187000.69078,"N_COORD97":2578746.01908,"ADDRESS":"許秀才１號之６","OBJECTID":647508},"geometry":{"x":187000.69078000076,"y":2578746.01908}},{"attributes":{"ID":647536,"DIS_CODE":0,"TOWNNAME":"玉井區","LI":"望明里","LIN":"1鄰","STREET":" ","SECT":" ","MAREA":"望明","LANE":" ","ALLEY":" ","HOUSE_NO":"６號","E_COORD97":194368.01570300001,"N_COORD97":2556125.1033700001,"ADDRESS":"望明６號","OBJECTID":647509},"geometry":{"x":194368.01570300106,"y":2556125.1033699997}},{"attributes":{"ID":647537,"DIS_CODE":0,"TOWNNAME":"東山區","LI":"三榮里","LIN":"1鄰","STREET":" ","SECT":" ","MAREA":"許秀才","LANE":" ","ALLEY":" ","HOUSE_NO":"１號之７","E_COORD97":186978.22945000001,"N_COORD97":2578753.0040799999,"ADDRESS":"許秀才１號之７","OBJECTID":647510},"geometry":{"x":186978.22945000138,"y":2578753.0040800013}},{"attributes":{"ID":647538,"DIS_CODE":0,"TOWNNAME":"新營區","LI":"王公里","LIN":"12鄰","STREET":"義和街","SECT":" ","MAREA":" ","LANE":" ","ALLEY":" ","HOUSE_NO":"５號之６","E_COORD97":180494.086989,"N_COORD97":2578981.5005700001,"ADDRESS":"義和街５號之６","OBJECTID":647511},"geometry":{"x":180494.08698900044,"y":2578981.5005690027}},{"attributes":{"ID":647539,"DIS_CODE":0,"TOWNNAME":"北門區","LI":"東壁里","LIN":"2鄰","STREET":" ","SECT":" ","MAREA":"蚵寮","LANE":" ","ALLEY":" ","HOUSE_NO":"５７０之６號","E_COORD97":161603.94164,"N_COORD97":2576450.5145100001,"ADDRESS":"蚵寮５７０之６號","OBJECTID":647512},"geometry":{"x":161603.94164000079,"y":2576450.514510002}},{"attributes":{"ID":647540,"DIS_CODE":0,"TOWNNAME":"仁德區","LI":"仁義里","LIN":"23鄰","STREET":"中清路","SECT":" ","MAREA":" ","LANE":"１６０巷","ALLEY":"２弄","HOUSE_NO":"１０號","E_COORD97":173761.87827300001,"N_COORD97":2541463.3380200001,"ADDRESS":"中清路１６０巷２弄１０號","OBJECTID":647513},"geometry":{"x":173761.87827300001,"y":2541463.3380169999}},{"attributes":{"ID":647541,"DIS_CODE":0,"TOWNNAME":"玉井區","LI":"望明里","LIN":"1鄰","STREET":" ","SECT":" ","MAREA":"望明","LANE":" ","ALLEY":" ","HOUSE_NO":"１５號","E_COORD97":194427.541906,"N_COORD97":2556101.3967200001,"ADDRESS":"望明１５號","OBJECTID":647514},"geometry":{"x":194427.54190600011,"y":2556101.3967160024}},{"attributes":{"ID":647542,"DIS_CODE":0,"TOWNNAME":"安南區","LI":"公\u25A0里","LIN":"8鄰","STREET":"安興街","SECT":" ","MAREA":" ","LANE":"１８１巷","ALLEY":"３５０弄","HOUSE_NO":"５６號","E_COORD97":163354.162775,"N_COORD97":2551682.53517,"ADDRESS":"安興街１８１巷３５０弄５６號","OBJECTID":647515},"geometry":{"x":163354.16277500056,"y":2551682.5351689998}},{"attributes":{"ID":647543,"DIS_CODE":0,"TOWNNAME":"北門區","LI":"東壁里","LIN":"4鄰","STREET":" ","SECT":" ","MAREA":"蚵寮","LANE":" ","ALLEY":" ","HOUSE_NO":"５８６號","E_COORD97":161544.62662299999,"N_COORD97":2576514.2839600001,"ADDRESS":"蚵寮５８６號","OBJECTID":647516},"geometry":{"x":161544.62662300095,"y":2576514.2839560024}},{"attributes":{"ID":647544,"DIS_CODE":0,"TOWNNAME":"新營區","LI":"王公里","LIN":"12鄰","STREET":"義和街","SECT":" ","MAREA":" ","LANE":" ","ALLEY":" ","HOUSE_NO":"１號之７","E_COORD97":180494.086989,"N_COORD97":2578981.5005700001,"ADDRESS":"義和街１號之７","OBJECTID":647517},"geometry":{"x":180494.08698900044,"y":2578981.5005690027}},{"attributes":{"ID":647545,"DIS_CODE":0,"TOWNNAME":"關廟區","LI":"埤頭里","LIN":"14鄰","STREET":"關新一街","SECT":" ","MAREA":" ","LANE":" ","ALLEY":" ","HOUSE_NO":"８０號","E_COORD97":179640.33667799999,"N_COORD97":2543726.7980800001,"ADDRESS":"關新一街８０號","OBJECTID":647518},"geometry":{"x":179640.3366780011,"y":2543726.798084002}},{"attributes":{"ID":647546,"DIS_CODE":0,"TOWNNAME":"新營區","LI":"王公里","LIN":"12鄰","STREET":"義和街","SECT":" ","MAREA":" ","LANE":" ","ALLEY":" ","HOUSE_NO":"１號之７","E_COORD97":180538.55705599999,"N_COORD97":2579003.95518,"ADDRESS":"義和街１號之７","OBJECTID":647519},"geometry":{"x":180538.55705600046,"y":2579003.9551770017}},{"attributes":{"ID":647547,"DIS_CODE":0,"TOWNNAME":"新營區","LI":"王公里","LIN":"12鄰","STREET":"義和街","SECT":" ","MAREA":" ","LANE":" ","ALLEY":" ","HOUSE_NO":"１號之８","E_COORD97":180543.00658300001,"N_COORD97":2579004.1668400001,"ADDRESS":"義和街１號之８","OBJECTID":647520},"geometry":{"x":180543.0065829996,"y":2579004.1668439992}},{"attributes":{"ID":647548,"DIS_CODE":0,"TOWNNAME":"仁德區","LI":"上崙里","LIN":"10鄰","STREET":"德善路","SECT":" ","MAREA":" ","LANE":"３０５巷","ALLEY":"１３弄","HOUSE_NO":"２２９之１號","E_COORD97":174122.01394899999,"N_COORD97":2538217.9175300002,"ADDRESS":"德善路３０５巷１３弄２２９之１號","OBJECTID":647521},"geometry":{"x":174122.01394900028,"y":2538217.9175330009}},{"attributes":{"ID":647549,"DIS_CODE":0,"TOWNNAME":"北門區","LI":"東壁里","LIN":"4鄰","STREET":" ","SECT":" ","MAREA":"蚵寮","LANE":" ","ALLEY":" ","HOUSE_NO":"５８９號","E_COORD97":161556.289258,"N_COORD97":2576481.4756399998,"ADDRESS":"蚵寮５８９號","OBJECTID":647522},"geometry":{"x":161556.2892580023,"y":2576481.475641001}},{"attributes":{"ID":647550,"DIS_CODE":0,"TOWNNAME":"關廟區","LI":"埤頭里","LIN":"14鄰","STREET":"關新一街","SECT":" ","MAREA":" ","LANE":"７５巷","ALLEY":" ","HOUSE_NO":"２０號","E_COORD97":179807.65950099999,"N_COORD97":2544003.81653,"ADDRESS":"關新一街７５巷２０號","OBJECTID":647523},"geometry":{"x":179807.65950100124,"y":2544003.8165330011}},{"attributes":{"ID":647551,"DIS_CODE":0,"TOWNNAME":"仁德區","LI":"仁義里","LIN":"1鄰","STREET":"義林路","SECT":" ","MAREA":" ","LANE":" ","ALLEY":" ","HOUSE_NO":"１４７號","E_COORD97":174405.434392,"N_COORD97":2540569.99933,"ADDRESS":"義林路１４７號","OBJECTID":647524},"geometry":{"x":174405.43439200148,"y":2540569.9993329998}},{"attributes":{"ID":647552,"DIS_CODE":0,"TOWNNAME":"永康區","LI":"\u25A0行里","LIN":"45鄰","STREET":"中正南路","SECT":" ","MAREA":" ","LANE":"７２６巷","ALLEY":" ","HOUSE_NO":"１３號之１","E_COORD97":171832.639272,"N_COORD97":2548837.5917500001,"ADDRESS":"中正南路７２６巷１３號之１","OBJECTID":647525},"geometry":{"x":171832.63927199971,"y":2548837.5917509999}},{"attributes":{"ID":647553,"DIS_CODE":0,"TOWNNAME":"下營區","LI":"大埤里","LIN":"10鄰","STREET":" ","SECT":" ","MAREA":"大埤寮","LANE":" ","ALLEY":" ","HOUSE_NO":"９１號","E_COORD97":173231.55593500001,"N_COORD97":2568300.8215200002,"ADDRESS":"大埤寮９１號","OBJECTID":647526},"geometry":{"x":173231.555935001,"y":2568300.8215209991}},{"attributes":{"ID":647554,"DIS_CODE":0,"TOWNNAME":"仁德區","LI":"上崙里","LIN":"10鄰","STREET":"德善路","SECT":" ","MAREA":" ","LANE":"３０５巷","ALLEY":"１３弄","HOUSE_NO":"２２９之３號","E_COORD97":174127.73449999999,"N_COORD97":2538217.4942000001,"ADDRESS":"德善路３０５巷１３弄２２９之３號","OBJECTID":647527},"geometry":{"x":174127.73450000118,"y":2538217.4942000024}},{"attributes":{"ID":647555,"DIS_CODE":0,"TOWNNAME":"仁德區","LI":"上崙里","LIN":"10鄰","STREET":"德善路","SECT":" ","MAREA":" ","LANE":"３０５巷","ALLEY":"１３弄","HOUSE_NO":"２２９之５號","E_COORD97":174133.03130599999,"N_COORD97":2538216.0125299999,"ADDRESS":"德善路３０５巷１３弄２２９之５號","OBJECTID":647528},"geometry":{"x":174133.03130600043,"y":2538216.0125340018}},{"attributes":{"ID":647556,"DIS_CODE":0,"TOWNNAME":"仁德區","LI":"上崙里","LIN":"10鄰","STREET":"德善路","SECT":" ","MAREA":" ","LANE":"３０５巷","ALLEY":"１３弄","HOUSE_NO":"２２９之７號","E_COORD97":174138.328113,"N_COORD97":2538214.74254,"ADDRESS":"德善路３０５巷１３弄２２９之７號","OBJECTID":647529},"geometry":{"x":174138.32811299991,"y":2538214.7425350025}},{"attributes":{"ID":647557,"DIS_CODE":0,"TOWNNAME":"永康區","LI":"\u25A0行里","LIN":"45鄰","STREET":"中正南路","SECT":" ","MAREA":" ","LANE":"７２６巷","ALLEY":" ","HOUSE_NO":"１３號之２","E_COORD97":171833.27512599999,"N_COORD97":2548833.7817500001,"ADDRESS":"中正南路７２６巷１３號之２","OBJECTID":647530},"geometry":{"x":171833.27512600087,"y":2548833.7817529999}},{"attributes":{"ID":647558,"DIS_CODE":0,"TOWNNAME":"東山區","LI":"三榮里","LIN":"3鄰","STREET":" ","SECT":" ","MAREA":"許秀才","LANE":" ","ALLEY":" ","HOUSE_NO":"２６號","E_COORD97":187212.04109399999,"N_COORD97":2579285.7688000002,"ADDRESS":"許秀才２６號","OBJECTID":647531},"geometry":{"x":187212.04109399859,"y":2579285.7687960006}},{"attributes":{"ID":647559,"DIS_CODE":0,"TOWNNAME":"仁德區","LI":"上崙里","LIN":"11鄰","STREET":"德善路","SECT":" ","MAREA":" ","LANE":"３０５巷","ALLEY":"１３弄","HOUSE_NO":"２２９之２號","E_COORD97":174120.95457999999,"N_COORD97":2538206.0641999999,"ADDRESS":"德善路３０５巷１３弄２２９之２號","OBJECTID":647532},"geometry":{"x":174120.9545800006,"y":2538206.0642000008}},{"attributes":{"ID":647560,"DIS_CODE":0,"TOWNNAME":"關廟區","LI":"埤頭里","LIN":"14鄰","STREET":"關新一街","SECT":" ","MAREA":" ","LANE":"１１６巷","ALLEY":" ","HOUSE_NO":"３０號","E_COORD97":179851.30418899999,"N_COORD97":2543443.4820300001,"ADDRESS":"關新一街１１６巷３０號","OBJECTID":647533},"geometry":{"x":179851.30418900121,"y":2543443.4820270035}},{"attributes":{"ID":647561,"DIS_CODE":0,"TOWNNAME":"北門區","LI":"東壁里","LIN":"8鄰","STREET":" ","SECT":" ","MAREA":"蚵寮","LANE":" ","ALLEY":" ","HOUSE_NO":"６４８號","E_COORD97":161694.43847699999,"N_COORD97":2576396.27985,"ADDRESS":"蚵寮６４８號","OBJECTID":647534},"geometry":{"x":161694.43847700115,"y":2576396.2798530012}},{"attributes":{"ID":647562,"DIS_CODE":0,"TOWNNAME":"仁德區","LI":"上崙里","LIN":"11鄰","STREET":"德善路","SECT":" ","MAREA":" ","LANE":"３０５巷","ALLEY":"１３弄","HOUSE_NO":"２２９之６號","E_COORD97":174129.85321999999,"N_COORD97":2538204.5825399999,"ADDRESS":"德善路３０５巷１３弄２２９之６號","OBJECTID":647535},"geometry":{"x":174129.85321999993,"y":2538204.5825399999}},{"attributes":{"ID":647563,"DIS_CODE":0,"TOWNNAME":"仁德區","LI":"上崙里","LIN":"11鄰","STREET":"德善路","SECT":" ","MAREA":" ","LANE":"３０５巷","ALLEY":"１３弄","HOUSE_NO":"２２９之８號","E_COORD97":174135.36189999999,"N_COORD97":2538202.6775400001,"ADDRESS":"德善路３０５巷１３弄２２９之８號","OBJECTID":647536},"geometry":{"x":174135.36190000083,"y":2538202.6775400005}},{"attributes":{"ID":647564,"DIS_CODE":0,"TOWNNAME":"仁德區","LI":"上崙里","LIN":"11鄰","STREET":"德善路","SECT":" ","MAREA":" ","LANE":"３０５巷","ALLEY":"１３弄","HOUSE_NO":"２２９之１０號","E_COORD97":174141.50618999999,"N_COORD97":2538200.9841999998,"ADDRESS":"德善路３０５巷１３弄２２９之１０號","OBJECTID":647537},"geometry":{"x":174141.5061900001,"y":2538200.9842000026}},{"attributes":{"ID":647565,"DIS_CODE":0,"TOWNNAME":"新營區","LI":"王公里","LIN":"6鄰","STREET":"同濟街","SECT":" ","MAREA":" ","LANE":" ","ALLEY":" ","HOUSE_NO":"２１８之２號","E_COORD97":180449.43409699999,"N_COORD97":2578986.0296700001,"ADDRESS":"同濟街２１８之２號","OBJECTID":647538},"geometry":{"x":180449.43409700133,"y":2578986.029666001}},{"attributes":{"ID":647566,"DIS_CODE":0,"TOWNNAME":"仁德區","LI":"上崙里","LIN":"11鄰","STREET":"德善路","SECT":" ","MAREA":" ","LANE":"３０５巷","ALLEY":"１３弄","HOUSE_NO":"２２９之１２號","E_COORD97":174138.32811,"N_COORD97":2538183.4158800002,"ADDRESS":"德善路３０５巷１３弄２２９之１２號","OBJECTID":647539},"geometry":{"x":174138.32811000012,"y":2538183.4158800002}},{"attributes":{"ID":647567,"DIS_CODE":0,"TOWNNAME":"仁德區","LI":"上崙里","LIN":"11鄰","STREET":"德善路","SECT":" ","MAREA":" ","LANE":"３０５巷","ALLEY":"１３弄","HOUSE_NO":"２２９之１６號","E_COORD97":174135.78563999999,"N_COORD97":2538176.64255,"ADDRESS":"德善路３０５巷１３弄２２９之１６號","OBJECTID":647540},"geometry":{"x":174135.78564000037,"y":2538176.6425499991}},{"attributes":{"ID":647568,"DIS_CODE":0,"TOWNNAME":"北門區","LI":"東壁里","LIN":"6鄰","STREET":" ","SECT":" ","MAREA":"蚵寮","LANE":" ","ALLEY":" ","HOUSE_NO":"６１３號","E_COORD97":161620.009658,"N_COORD97":2576373.2082000002,"ADDRESS":"蚵寮６１３號","OBJECTID":647541},"geometry":{"x":161620.00965800043,"y":2576373.208199}},{"attributes":{"ID":647569,"DIS_CODE":0,"TOWNNAME":"仁德區","LI":"上崙里","LIN":"11鄰","STREET":"德善路","SECT":" ","MAREA":" ","LANE":"３０５巷","ALLEY":"１３弄","HOUSE_NO":"２２９之１８號","E_COORD97":174147.65049,"N_COORD97":2538174.7375500002,"ADDRESS":"德善路３０５巷１３弄２２９之１８號","OBJECTID":647542},"geometry":{"x":174147.65049000178,"y":2538174.7375499997}},{"attributes":{"ID":647570,"DIS_CODE":0,"TOWNNAME":"仁德區","LI":"上崙里","LIN":"11鄰","STREET":"德善路","SECT":" ","MAREA":" ","LANE":"３０５巷","ALLEY":"１３弄","HOUSE_NO":"２２９之２０號","E_COORD97":174149.76921,"N_COORD97":2538181.7225500001,"ADDRESS":"德善路３０５巷１３弄２２９之２０號","OBJECTID":647543},"geometry":{"x":174149.76921000052,"y":2538181.722550001}},{"attributes":{"ID":647571,"DIS_CODE":0,"TOWNNAME":"仁德區","LI":"上崙里","LIN":"11鄰","STREET":"德善路","SECT":" ","MAREA":" ","LANE":"３０５巷","ALLEY":"１３弄","HOUSE_NO":"２２９之２２號","E_COORD97":174153.79478,"N_COORD97":2538197.8092100001,"ADDRESS":"德善路３０５巷１３弄２２９之２２號","OBJECTID":647544},"geometry":{"x":174153.79478000104,"y":2538197.8092100024}},{"attributes":{"ID":647572,"DIS_CODE":0,"TOWNNAME":"仁德區","LI":"上崙里","LIN":"11鄰","STREET":"德善路","SECT":" ","MAREA":" ","LANE":"３０５巷","ALLEY":"１３弄","HOUSE_NO":"２２９之２６號","E_COORD97":174158.87972,"N_COORD97":2538196.9625400002,"ADDRESS":"德善路３０５巷１３弄２２９之２６號","OBJECTID":647545},"geometry":{"x":174158.87971999962,"y":2538196.9625400044}},{"attributes":{"ID":647573,"DIS_CODE":0,"TOWNNAME":"仁德區","LI":"上崙里","LIN":"11鄰","STREET":"德善路","SECT":" ","MAREA":" ","LANE":"３０５巷","ALLEY":"１３弄","HOUSE_NO":"２２９之２８號","E_COORD97":174163.54091000001,"N_COORD97":2538196.5392100001,"ADDRESS":"德善路３０５巷１３弄２２９之２８號","OBJECTID":647546},"geometry":{"x":174163.54090999998,"y":2538196.5392099991}},{"attributes":{"ID":647574,"DIS_CODE":0,"TOWNNAME":"仁德區","LI":"上崙里","LIN":"11鄰","STREET":"德善路","SECT":" ","MAREA":" ","LANE":"３０５巷","ALLEY":"１３弄","HOUSE_NO":"２２９之３０號","E_COORD97":174168.20209999999,"N_COORD97":2538193.99921,"ADDRESS":"德善路３０５巷１３弄２２９之３０號","OBJECTID":647547},"geometry":{"x":174168.20210000128,"y":2538193.99921}},{"attributes":{"ID":647575,"DIS_CODE":0,"TOWNNAME":"北門區","LI":"東壁里","LIN":"6鄰","STREET":" ","SECT":" ","MAREA":"蚵寮","LANE":" ","ALLEY":" ","HOUSE_NO":"６１９號","E_COORD97":161641.21445,"N_COORD97":2576386.11986,"ADDRESS":"蚵寮６１９號","OBJECTID":647548},"geometry":{"x":161641.21445000079,"y":2576386.1198590025}},{"attributes":{"ID":647576,"DIS_CODE":0,"TOWNNAME":"新營區","LI":"王公里","LIN":"4鄰","STREET":"民治路","SECT":" ","MAREA":" ","LANE":" ","ALLEY":" ","HOUSE_NO":"２０號","E_COORD97":180327.86538599999,"N_COORD97":2578894.6643699999,"ADDRESS":"民治路２０號","OBJECTID":647549},"geometry":{"x":180327.86538600083,"y":2578894.6643659994}},{"attributes":{"ID":647577,"DIS_CODE":0,"TOWNNAME":"東山區","LI":"三榮里","LIN":"4鄰","STREET":" ","SECT":" ","MAREA":"許秀才","LANE":" ","ALLEY":" ","HOUSE_NO":"３３號之３","E_COORD97":187305.064874,"N_COORD97":2579222.9038300002,"ADDRESS":"許秀才３３號之３","OBJECTID":647550},"geometry":{"x":187305.06487400178,"y":2579222.9038290046}},{"attributes":{"ID":647578,"DIS_CODE":0,"TOWNNAME":"北門區","LI":"東壁里","LIN":"10鄰","STREET":" ","SECT":" ","MAREA":"蚵寮","LANE":" ","ALLEY":" ","HOUSE_NO":"６７４號","E_COORD97":161762.61188300001,"N_COORD97":2576367.8106999998,"ADDRESS":"蚵寮６７４號","OBJECTID":647551},"geometry":{"x":161762.61188300047,"y":2576367.8107020035}},{"attributes":{"ID":647579,"DIS_CODE":0,"TOWNNAME":"新營區","LI":"王公里","LIN":"4鄰","STREET":"民治路","SECT":" ","MAREA":" ","LANE":" ","ALLEY":" ","HOUSE_NO":"２０號之１","E_COORD97":180323.203977,"N_COORD97":2578894.4526999998,"ADDRESS":"民治路２０號之１","OBJECTID":647552},"geometry":{"x":180323.20397699997,"y":2578894.4526990019}},{"attributes":{"ID":647580,"DIS_CODE":0,"TOWNNAME":"新營區","LI":"王公里","LIN":"4鄰","STREET":"民治路","SECT":" ","MAREA":" ","LANE":" ","ALLEY":" ","HOUSE_NO":"２０號之４","E_COORD97":180308.79598600001,"N_COORD97":2578894.0293700001,"ADDRESS":"民治路２０號之４","OBJECTID":647553},"geometry":{"x":180308.79598600045,"y":2578894.0293659996}},{"attributes":{"ID":647581,"DIS_CODE":0,"TOWNNAME":"北門區","LI":"東壁里","LIN":"10鄰","STREET":" ","SECT":" ","MAREA":"蚵寮","LANE":" ","ALLEY":" ","HOUSE_NO":"６８３之１號","E_COORD97":161755.40225399999,"N_COORD97":2576364.0007000002,"ADDRESS":"蚵寮６８３之１號","OBJECTID":647554},"geometry":{"x":161755.40225400124,"y":2576364.0007039998}},{"attributes":{"ID":647582,"DIS_CODE":0,"TOWNNAME":"歸仁區","LI":"八甲里","LIN":"14鄰","STREET":"大仁七街","SECT":" ","MAREA":" ","LANE":" ","ALLEY":" ","HOUSE_NO":"５０號","E_COORD97":178130.72797000001,"N_COORD97":2541672.0965900002,"ADDRESS":"大仁七街５０號","OBJECTID":647555},"geometry":{"x":178130.72797000036,"y":2541672.0965870041}},{"attributes":{"ID":647583,"DIS_CODE":0,"TOWNNAME":"歸仁區","LI":"八甲里","LIN":"14鄰","STREET":"大仁七街","SECT":" ","MAREA":" ","LANE":" ","ALLEY":" ","HOUSE_NO":"５２號","E_COORD97":178131.78730699999,"N_COORD97":2541677.5999199999,"ADDRESS":"大仁七街５２號","OBJECTID":647556},"geometry":{"x":178131.78730700165,"y":2541677.599917002}},{"attributes":{"ID":647584,"DIS_CODE":0,"TOWNNAME":"新營區","LI":"王公里","LIN":"4鄰","STREET":"民治路","SECT":" ","MAREA":" ","LANE":" ","ALLEY":" ","HOUSE_NO":"２２號之１","E_COORD97":180296.056568,"N_COORD97":2578892.8519700002,"ADDRESS":"民治路２２號之１","OBJECTID":647557},"geometry":{"x":180296.0565680014,"y":2578892.8519710023}},{"attributes":{"ID":647585,"DIS_CODE":0,"TOWNNAME":"玉井區","LI":"望明里","LIN":"1鄰","STREET":" ","SECT":" ","MAREA":"望明","LANE":" ","ALLEY":" ","HOUSE_NO":"１９之２號","E_COORD97":194309.850221,"N_COORD97":2556115.31776,"ADDRESS":"望明１９之２號","OBJECTID":647558},"geometry":{"x":194309.85022099968,"y":2556115.3177610021}},{"attributes":{"ID":647586,"DIS_CODE":0,"TOWNNAME":"北門區","LI":"東壁里","LIN":"11鄰","STREET":" ","SECT":" ","MAREA":"蚵寮","LANE":" ","ALLEY":" ","HOUSE_NO":"６８９號","E_COORD97":161726.87429199999,"N_COORD97":2576339.32455,"ADDRESS":"蚵寮６８９號","OBJECTID":647559},"geometry":{"x":161726.87429200113,"y":2576339.3245520014}},{"attributes":{"ID":647587,"DIS_CODE":0,"TOWNNAME":"歸仁區","LI":"八甲里","LIN":"14鄰","STREET":"大仁七街","SECT":" ","MAREA":" ","LANE":"４８巷","ALLEY":" ","HOUSE_NO":"１號","E_COORD97":178140.47387099999,"N_COORD97":2541671.5674200002,"ADDRESS":"大仁七街４８巷１號","OBJECTID":647560},"geometry":{"x":178140.47387100197,"y":2541671.5674210005}},{"attributes":{"ID":647588,"DIS_CODE":0,"TOWNNAME":"新營區","LI":"王公里","LIN":"4鄰","STREET":"民族路","SECT":" ","MAREA":" ","LANE":" ","ALLEY":" ","HOUSE_NO":"７４號之１","E_COORD97":180294.14962800001,"N_COORD97":2578937.8311100001,"ADDRESS":"民族路７４號之１","OBJECTID":647561},"geometry":{"x":180294.14962800127,"y":2578937.8311130013}},{"attributes":{"ID":647589,"DIS_CODE":0,"TOWNNAME":"歸仁區","LI":"八甲里","LIN":"14鄰","STREET":"大仁七街","SECT":" ","MAREA":" ","LANE":"４８巷","ALLEY":" ","HOUSE_NO":"３號","E_COORD97":178146.19429099999,"N_COORD97":2541671.5674200002,"ADDRESS":"大仁七街４８巷３號","OBJECTID":647562},"geometry":{"x":178146.19429099932,"y":2541671.5674210005}},{"attributes":{"ID":647590,"DIS_CODE":0,"TOWNNAME":"歸仁區","LI":"八甲里","LIN":"14鄰","STREET":"大仁七街","SECT":" ","MAREA":" ","LANE":"４８巷","ALLEY":" ","HOUSE_NO":"５號","E_COORD97":178151.91471099999,"N_COORD97":2541671.5674200002,"ADDRESS":"大仁七街４８巷５號","OBJECTID":647563},"geometry":{"x":178151.9147110004,"y":2541671.5674210005}},{"attributes":{"ID":647591,"DIS_CODE":0,"TOWNNAME":"後壁區","LI":"長安里","LIN":"12鄰","STREET":" ","SECT":" ","MAREA":"中寮","LANE":" ","ALLEY":" ","HOUSE_NO":"１６８之５號","E_COORD97":184301.84711199999,"N_COORD97":2581518.5925599998,"ADDRESS":"中寮１６８之５號","OBJECTID":647564},"geometry":{"x":184301.84711200185,"y":2581518.5925549995}},{"attributes":{"ID":647592,"DIS_CODE":0,"TOWNNAME":"新營區","LI":"王公里","LIN":"4鄰","STREET":"民族路","SECT":" ","MAREA":" ","LANE":" ","ALLEY":" ","HOUSE_NO":"７８號之１","E_COORD97":180294.14962800001,"N_COORD97":2578937.8311100001,"ADDRESS":"民族路７８號之１","OBJECTID":647565},"geometry":{"x":180294.14962800127,"y":2578937.8311130013}},{"attributes":{"ID":647593,"DIS_CODE":0,"TOWNNAME":"歸仁區","LI":"八甲里","LIN":"14鄰","STREET":"大仁七街","SECT":" ","MAREA":" ","LANE":"４８巷","ALLEY":" ","HOUSE_NO":"７號","E_COORD97":178158.482601,"N_COORD97":2541671.1440900001,"ADDRESS":"大仁七街４８巷７號","OBJECTID":647566},"geometry":{"x":178158.482601,"y":2541671.1440880019}},{"attributes":{"ID":647594,"DIS_CODE":0,"TOWNNAME":"歸仁區","LI":"八甲里","LIN":"14鄰","STREET":"大仁七街","SECT":" ","MAREA":" ","LANE":"４８巷","ALLEY":" ","HOUSE_NO":"９號","E_COORD97":178163.99115399999,"N_COORD97":2541670.93242,"ADDRESS":"大仁七街４８巷９號","OBJECTID":647567},"geometry":{"x":178163.99115400203,"y":2541670.9324210007}},{"attributes":{"ID":647595,"DIS_CODE":0,"TOWNNAME":"東山區","LI":"三榮里","LIN":"1鄰","STREET":" ","SECT":" ","MAREA":"許秀才","LANE":" ","ALLEY":" ","HOUSE_NO":"３號之１","E_COORD97":187059.26172000001,"N_COORD97":2579263.3321400001,"ADDRESS":"許秀才３號之１","OBJECTID":647568},"geometry":{"x":187059.26172000077,"y":2579263.3321400005}},{"attributes":{"ID":647596,"DIS_CODE":0,"TOWNNAME":"歸仁區","LI":"八甲里","LIN":"14鄰","STREET":"大仁七街","SECT":" ","MAREA":" ","LANE":"４８巷","ALLEY":" ","HOUSE_NO":"１１號","E_COORD97":178169.07597199999,"N_COORD97":2541670.0857500001,"ADDRESS":"大仁七街４８巷１１號","OBJECTID":647569},"geometry":{"x":178169.07597200014,"y":2541670.0857550036}},{"attributes":{"ID":647597,"DIS_CODE":0,"TOWNNAME":"歸仁區","LI":"八甲里","LIN":"14鄰","STREET":"大仁七街","SECT":" ","MAREA":" ","LANE":"４８巷","ALLEY":" ","HOUSE_NO":"１３號","E_COORD97":178174.58452500001,"N_COORD97":2541669.2390899998,"ADDRESS":"大仁七街４８巷１３號","OBJECTID":647570},"geometry":{"x":178174.58452500124,"y":2541669.239089001}},{"attributes":{"ID":647598,"DIS_CODE":0,"TOWNNAME":"新營區","LI":"王公里","LIN":"4鄰","STREET":"民族路","SECT":" ","MAREA":" ","LANE":" ","ALLEY":" ","HOUSE_NO":"７８號之１","E_COORD97":180305.59126799999,"N_COORD97":2578962.5961000002,"ADDRESS":"民族路７８號之１","OBJECTID":647571},"geometry":{"x":180305.59126800019,"y":2578962.5961000025}},{"attributes":{"ID":647599,"DIS_CODE":0,"TOWNNAME":"歸仁區","LI":"八甲里","LIN":"14鄰","STREET":"大仁七街","SECT":" ","MAREA":" ","LANE":"４８巷","ALLEY":" ","HOUSE_NO":"１５號","E_COORD97":178180.09307800001,"N_COORD97":2541669.0274200002,"ADDRESS":"大仁七街４８巷１５號","OBJECTID":647572},"geometry":{"x":178180.09307800047,"y":2541669.0274219997}},{"attributes":{"ID":647600,"DIS_CODE":0,"TOWNNAME":"歸仁區","LI":"八甲里","LIN":"14鄰","STREET":"大仁七街","SECT":" ","MAREA":" ","LANE":"４８巷","ALLEY":" ","HOUSE_NO":"１７號","E_COORD97":178186.872836,"N_COORD97":2541668.8157600001,"ADDRESS":"大仁七街４８巷１７號","OBJECTID":647573},"geometry":{"x":178186.87283600122,"y":2541668.8157560024}},{"attributes":{"ID":647601,"DIS_CODE":0,"TOWNNAME":"歸仁區","LI":"八甲里","LIN":"14鄰","STREET":"大仁七街","SECT":" ","MAREA":" ","LANE":"４８巷","ALLEY":" ","HOUSE_NO":"１９號","E_COORD97":178193.65259300001,"N_COORD97":2541668.1807599999,"ADDRESS":"大仁七街４８巷１９號","OBJECTID":647574},"geometry":{"x":178193.65259299986,"y":2541668.1807559989}},{"attributes":{"ID":647602,"DIS_CODE":0,"TOWNNAME":"麻豆區","LI":"新建里","LIN":"3鄰","STREET":"興民街","SECT":" ","MAREA":" ","LANE":" ","ALLEY":" ","HOUSE_NO":"４５號之１","E_COORD97":172679.023693,"N_COORD97":2564987.1815900002,"ADDRESS":"興民街４５號之１","OBJECTID":647575},"geometry":{"x":172679.0236930009,"y":2564987.1815860048}},{"attributes":{"ID":647603,"DIS_CODE":0,"TOWNNAME":"東區","LI":"大同里","LIN":"18鄰","STREET":"府連路","SECT":" ","MAREA":" ","LANE":"２０４巷","ALLEY":" ","HOUSE_NO":"１９號","E_COORD97":169327.030788,"N_COORD97":2542783.6807800001,"ADDRESS":"府連路２０４巷１９號","OBJECTID":647576},"geometry":{"x":169327.03078800067,"y":2542783.6807830017}},{"attributes":{"ID":647604,"DIS_CODE":0,"TOWNNAME":"新營區","LI":"王公里","LIN":"1鄰","STREET":"民治路","SECT":" ","MAREA":" ","LANE":" ","ALLEY":" ","HOUSE_NO":"２８之１號","E_COORD97":180168.71535000001,"N_COORD97":2578887.34864,"ADDRESS":"民治路２８之１號","OBJECTID":647577},"geometry":{"x":180168.71535000112,"y":2578887.3486400004}},{"attributes":{"ID":647605,"DIS_CODE":0,"TOWNNAME":"玉井區","LI":"望明里","LIN":"4鄰","STREET":" ","SECT":" ","MAREA":"望明","LANE":" ","ALLEY":" ","HOUSE_NO":"４１號","E_COORD97":194337.417254,"N_COORD97":2555970.5550000002,"ADDRESS":"望明４１號","OBJECTID":647578},"geometry":{"x":194337.41725400183,"y":2555970.5549990013}},{"attributes":{"ID":647606,"DIS_CODE":0,"TOWNNAME":"東區","LI":"大智里","LIN":"40鄰","STREET":"永東街","SECT":" ","MAREA":" ","LANE":" ","ALLEY":" ","HOUSE_NO":"８０號","E_COORD97":171612.29272100001,"N_COORD97":2540179.2001700001,"ADDRESS":"永東街８０號","OBJECTID":647579},"geometry":{"x":171612.29272099957,"y":2540179.2001670003}},{"attributes":{"ID":647607,"DIS_CODE":0,"TOWNNAME":"新營區","LI":"王公里","LIN":"2鄰","STREET":"義和街","SECT":" ","MAREA":" ","LANE":" ","ALLEY":" ","HOUSE_NO":"２３號之２","E_COORD97":180257.70588600001,"N_COORD97":2579031.5994000002,"ADDRESS":"義和街２３號之２","OBJECTID":647580},"geometry":{"x":180257.70588599984,"y":2579031.5993960034}},{"attributes":{"ID":647608,"DIS_CODE":0,"TOWNNAME":"東區","LI":"大智里","LIN":"40鄰","STREET":"永東街","SECT":" ","MAREA":" ","LANE":" ","ALLEY":" ","HOUSE_NO":"８２號","E_COORD97":171602.281689,"N_COORD97":2540179.3054399998,"ADDRESS":"永東街８２號","OBJECTID":647581},"geometry":{"x":171602.28168900125,"y":2540179.3054430038}},{"attributes":{"ID":647609,"DIS_CODE":0,"TOWNNAME":"新營區","LI":"王公里","LIN":"2鄰","STREET":"義和街","SECT":" ","MAREA":" ","LANE":" ","ALLEY":" ","HOUSE_NO":"２３號之３","E_COORD97":180250.713773,"N_COORD97":2579031.3877300001,"ADDRESS":"義和街２３號之３","OBJECTID":647582},"geometry":{"x":180250.71377300192,"y":2579031.3877290022}},{"attributes":{"ID":647610,"DIS_CODE":0,"TOWNNAME":"東區","LI":"大智里","LIN":"40鄰","STREET":"永東街","SECT":" ","MAREA":" ","LANE":" ","ALLEY":" ","HOUSE_NO":"８６號","E_COORD97":171602.59782699999,"N_COORD97":2540172.4624899998,"ADDRESS":"永東街８６號","OBJECTID":647583},"geometry":{"x":171602.59782700054,"y":2540172.462487001}},{"attributes":{"ID":647611,"DIS_CODE":0,"TOWNNAME":"玉井區","LI":"望明里","LIN":"4鄰","STREET":" ","SECT":" ","MAREA":"望明","LANE":" ","ALLEY":" ","HOUSE_NO":"４４號","E_COORD97":194277.043703,"N_COORD97":2556030.4566299999,"ADDRESS":"望明４４號","OBJECTID":647584},"geometry":{"x":194277.04370300006,"y":2556030.4566340018}},{"attributes":{"ID":647612,"DIS_CODE":0,"TOWNNAME":"東區","LI":"大智里","LIN":"40鄰","STREET":"永東街","SECT":" ","MAREA":" ","LANE":" ","ALLEY":" ","HOUSE_NO":"８８號","E_COORD97":171602.70320600001,"N_COORD97":2540166.4617400002,"ADDRESS":"永東街８８號","OBJECTID":647585},"geometry":{"x":171602.70320600085,"y":2540166.4617400002}},{"attributes":{"ID":647613,"DIS_CODE":0,"TOWNNAME":"白河區","LI":"崁頭里","LIN":"7鄰","STREET":" ","SECT":" ","MAREA":"崁子頭","LANE":" ","ALLEY":" ","HOUSE_NO":"６５之２４號","E_COORD97":192039.778716,"N_COORD97":2580894.35249,"ADDRESS":"崁子頭６５之２４號","OBJECTID":647586},"geometry":{"x":192039.7787159998,"y":2580894.3524900023}},{"attributes":{"ID":647614,"DIS_CODE":0,"TOWNNAME":"新營區","LI":"王公里","LIN":"2鄰","STREET":"義和街","SECT":" ","MAREA":" ","LANE":" ","ALLEY":" ","HOUSE_NO":"２５號之１","E_COORD97":180217.87202800001,"N_COORD97":2579027.1543999999,"ADDRESS":"義和街２５號之１","OBJECTID":647587},"geometry":{"x":180217.87202800065,"y":2579027.1543979999}},{"attributes":{"ID":647615,"DIS_CODE":0,"TOWNNAME":"東區","LI":"大智里","LIN":"40鄰","STREET":"永東街","SECT":" ","MAREA":" ","LANE":" ","ALLEY":" ","HOUSE_NO":"９０號","E_COORD97":171603.86237799999,"N_COORD97":2540158.1449199999,"ADDRESS":"永東街９０號","OBJECTID":647588},"geometry":{"x":171603.86237800028,"y":2540158.1449150015}},{"attributes":{"ID":647616,"DIS_CODE":0,"TOWNNAME":"新營區","LI":"王公里","LIN":"2鄰","STREET":"義和街","SECT":" ","MAREA":" ","LANE":" ","ALLEY":" ","HOUSE_NO":"２５號之２","E_COORD97":180214.27003099999,"N_COORD97":2579026.09607,"ADDRESS":"義和街２５號之２","OBJECTID":647589},"geometry":{"x":180214.27003100049,"y":2579026.0960650016}},{"attributes":{"ID":647617,"DIS_CODE":0,"TOWNNAME":"麻豆區","LI":"新建里","LIN":"3鄰","STREET":"興民街","SECT":" ","MAREA":" ","LANE":" ","ALLEY":" ","HOUSE_NO":"４５號之２","E_COORD97":172673.72729000001,"N_COORD97":2564987.6049100002,"ADDRESS":"興民街４５號之２","OBJECTID":647590},"geometry":{"x":172673.72729000077,"y":2564987.6049099993}},{"attributes":{"ID":647618,"DIS_CODE":0,"TOWNNAME":"東區","LI":"大智里","LIN":"40鄰","STREET":"永東街","SECT":" ","MAREA":" ","LANE":" ","ALLEY":" ","HOUSE_NO":"９２號","E_COORD97":171585.21024399999,"N_COORD97":2540156.9868800002,"ADDRESS":"永東街９２號","OBJECTID":647591},"geometry":{"x":171585.21024399996,"y":2540156.9868760016}},{"attributes":{"ID":647619,"DIS_CODE":0,"TOWNNAME":"麻豆區","LI":"新建里","LIN":"3鄰","STREET":"興民街","SECT":" ","MAREA":" ","LANE":" ","ALLEY":" ","HOUSE_NO":"４５號之３","E_COORD97":172667.79532,"N_COORD97":2564983.37158,"ADDRESS":"興民街４５號之３","OBJECTID":647592},"geometry":{"x":172667.7953200005,"y":2564983.371580001}},{"attributes":{"ID":647620,"DIS_CODE":0,"TOWNNAME":"東區","LI":"大智里","LIN":"40鄰","STREET":"永東街","SECT":" ","MAREA":" ","LANE":" ","ALLEY":" ","HOUSE_NO":"９６號","E_COORD97":171577.93907299999,"N_COORD97":2540156.46049,"ADDRESS":"永東街９６號","OBJECTID":647593},"geometry":{"x":171577.93907300103,"y":2540156.4604950007}},{"attributes":{"ID":647621,"DIS_CODE":0,"TOWNNAME":"新營區","LI":"王公里","LIN":"2鄰","STREET":"義和街","SECT":" ","MAREA":" ","LANE":" ","ALLEY":" ","HOUSE_NO":"２５號之３","E_COORD97":180209.820504,"N_COORD97":2579025.2494000001,"ADDRESS":"義和街２５號之３","OBJECTID":647594},"geometry":{"x":180209.82050400134,"y":2579025.2493989989}},{"attributes":{"ID":647622,"DIS_CODE":0,"TOWNNAME":"麻豆區","LI":"新建里","LIN":"3鄰","STREET":"興民街","SECT":" ","MAREA":" ","LANE":" ","ALLEY":" ","HOUSE_NO":"４５號之５","E_COORD97":172661.86335,"N_COORD97":2564982.9482499999,"ADDRESS":"興民街４５號之５","OBJECTID":647595},"geometry":{"x":172661.86335000116,"y":2564982.9482500013}},{"attributes":{"ID":647623,"DIS_CODE":0,"TOWNNAME":"東區","LI":"大智里","LIN":"40鄰","STREET":"永東街","SECT":" ","MAREA":" ","LANE":" ","ALLEY":" ","HOUSE_NO":"９８號","E_COORD97":171566.24197199999,"N_COORD97":2540155.3024599999,"ADDRESS":"永東街９８號","OBJECTID":647596},"geometry":{"x":171566.24197199941,"y":2540155.3024560027}},{"attributes":{"ID":647624,"DIS_CODE":0,"TOWNNAME":"麻豆區","LI":"新建里","LIN":"3鄰","STREET":"興民街","SECT":" ","MAREA":" ","LANE":" ","ALLEY":" ","HOUSE_NO":"４５號之６","E_COORD97":172675.21028,"N_COORD97":2564970.88326,"ADDRESS":"興民街４５號之６","OBJECTID":647597},"geometry":{"x":172675.21028000209,"y":2564970.8832600005}},{"attributes":{"ID":647625,"DIS_CODE":0,"TOWNNAME":"麻豆區","LI":"新建里","LIN":"3鄰","STREET":"興民街","SECT":" ","MAREA":" ","LANE":" ","ALLEY":" ","HOUSE_NO":"４５號之７","E_COORD97":172675.21028,"N_COORD97":2564965.5915899999,"ADDRESS":"興民街４５號之７","OBJECTID":647598},"geometry":{"x":172675.21028000209,"y":2564965.5915900003}},{"attributes":{"ID":647626,"DIS_CODE":0,"TOWNNAME":"麻豆區","LI":"新建里","LIN":"3鄰","STREET":"興民街","SECT":" ","MAREA":" ","LANE":" ","ALLEY":" ","HOUSE_NO":"４５號之８","E_COORD97":172674.78657,"N_COORD97":2564958.8182600001,"ADDRESS":"興民街４５號之８","OBJECTID":647599},"geometry":{"x":172674.78657000139,"y":2564958.8182599992}},{"attributes":{"ID":647627,"DIS_CODE":0,"TOWNNAME":"白河區","LI":"崁頭里","LIN":"7鄰","STREET":" ","SECT":" ","MAREA":"崁子頭","LANE":" ","ALLEY":" ","HOUSE_NO":"６５之２５號","E_COORD97":192005.456194,"N_COORD97":2580923.5624699998,"ADDRESS":"崁子頭６５之２５號","OBJECTID":647600},"geometry":{"x":192005.45619400032,"y":2580923.5624740012}}]}