{"displayFieldName":"TOWNNAME","fieldAliases":{"ID":"ID","DIS_CODE":"DIS_CODE","TOWNNAME":"TOWNNAME","LI":"LI","LIN":"LIN","STREET":"STREET","SECT":"SECT","MAREA":"MAREA","LANE":"LANE","ALLEY":"ALLEY","HOUSE_NO":"HOUSE_NO","E_COORD97":"E_COORD97","N_COORD97":"N_COORD97","ADDRESS":"ADDRESS","OBJECTID":"OBJECTID"},"geometryType":"esriGeometryPoint","spatialReference":{"wkid":102443,"latestWkid":3826},"fields":[{"name":"ID","type":"esriFieldTypeDouble","alias":"ID"},{"name":"DIS_CODE","type":"esriFieldTypeInteger","alias":"DIS_CODE"},{"name":"TOWNNAME","type":"esriFieldTypeString","alias":"TOWNNAME","length":8},{"name":"LI","type":"esriFieldTypeString","alias":"LI","length":8},{"name":"LIN","type":"esriFieldTypeString","alias":"LIN","length":12},{"name":"STREET","type":"esriFieldTypeString","alias":"STREET","length":20},{"name":"SECT","type":"esriFieldTypeString","alias":"SECT","length":8},{"name":"MAREA","type":"esriFieldTypeString","alias":"MAREA","length":12},{"name":"LANE","type":"esriFieldTypeString","alias":"LANE","length":10},{"name":"ALLEY","type":"esriFieldTypeString","alias":"ALLEY","length":10},{"name":"HOUSE_NO","type":"esriFieldTypeString","alias":"HOUSE_NO","length":20},{"name":"E_COORD97","type":"esriFieldTypeDouble","alias":"E_COORD97"},{"name":"N_COORD97","type":"esriFieldTypeDouble","alias":"N_COORD97"},{"name":"ADDRESS","type":"esriFieldTypeString","alias":"ADDRESS","length":50},{"name":"OBJECTID","type":"esriFieldTypeOID","alias":"OBJECTID"}],"features":[{"attributes":{"ID":343610,"DIS_CODE":0,"TOWNNAME":"玉井區","LI":"玉田里","LIN":"35鄰","STREET":"大成路","SECT":" ","MAREA":" ","LANE":"２４９巷","ALLEY":" ","HOUSE_NO":"１２號","E_COORD97":195655.92000000001,"N_COORD97":2558155.27,"ADDRESS":"大成路２４９巷１２號","OBJECTID":343601},"geometry":{"x":195655.92000000086,"y":2558155.2699999996}},{"attributes":{"ID":343611,"DIS_CODE":0,"TOWNNAME":"玉井區","LI":"玉田里","LIN":"35鄰","STREET":"大成路","SECT":" ","MAREA":" ","LANE":"２４７巷","ALLEY":" ","HOUSE_NO":"２號","E_COORD97":195672.76000000001,"N_COORD97":2558116.27,"ADDRESS":"大成路２４７巷２號","OBJECTID":343602},"geometry":{"x":195672.75999999978,"y":2558116.2700000014}},{"attributes":{"ID":343612,"DIS_CODE":0,"TOWNNAME":"歸仁區","LI":"西埔里","LIN":"5鄰","STREET":"保大路","SECT":"二段","MAREA":" ","LANE":"１７０巷","ALLEY":" ","HOUSE_NO":"６８號","E_COORD97":176964.07999999999,"N_COORD97":2544271.25,"ADDRESS":"保大路二段１７０巷６８號","OBJECTID":343603},"geometry":{"x":176964.08000000101,"y":2544271.2500000019}},{"attributes":{"ID":343613,"DIS_CODE":0,"TOWNNAME":"玉井區","LI":"玉田里","LIN":"35鄰","STREET":"大成路","SECT":" ","MAREA":" ","LANE":"２４９巷","ALLEY":" ","HOUSE_NO":"８號","E_COORD97":195664.66,"N_COORD97":2558154.27,"ADDRESS":"大成路２４９巷８號","OBJECTID":343604},"geometry":{"x":195664.66000000108,"y":2558154.2700000014}},{"attributes":{"ID":343614,"DIS_CODE":0,"TOWNNAME":"玉井區","LI":"玉田里","LIN":"35鄰","STREET":"大成路","SECT":" ","MAREA":" ","LANE":"２４９巷","ALLEY":" ","HOUSE_NO":"６號","E_COORD97":195670.45999999999,"N_COORD97":2558154.27,"ADDRESS":"大成路２４９巷６號","OBJECTID":343605},"geometry":{"x":195670.46000000183,"y":2558154.2700000014}},{"attributes":{"ID":343615,"DIS_CODE":0,"TOWNNAME":"玉井區","LI":"玉田里","LIN":"35鄰","STREET":"民族路","SECT":" ","MAREA":" ","LANE":"２５１巷","ALLEY":" ","HOUSE_NO":"２號","E_COORD97":195633.88,"N_COORD97":2558106.2799999998,"ADDRESS":"民族路２５１巷２號","OBJECTID":343606},"geometry":{"x":195633.88000000082,"y":2558106.2800000012}},{"attributes":{"ID":343616,"DIS_CODE":0,"TOWNNAME":"玉井區","LI":"玉田里","LIN":"35鄰","STREET":"民族路","SECT":" ","MAREA":" ","LANE":"２５１巷","ALLEY":" ","HOUSE_NO":"１８號","E_COORD97":195636.92999999999,"N_COORD97":2558144.29,"ADDRESS":"民族路２５１巷１８號","OBJECTID":343607},"geometry":{"x":195636.93000000063,"y":2558144.2899999991}},{"attributes":{"ID":343617,"DIS_CODE":0,"TOWNNAME":"玉井區","LI":"玉田里","LIN":"35鄰","STREET":"民族路","SECT":" ","MAREA":" ","LANE":"２５１巷","ALLEY":" ","HOUSE_NO":"１６號","E_COORD97":195636.63,"N_COORD97":2558139.29,"ADDRESS":"民族路２５１巷１６號","OBJECTID":343608},"geometry":{"x":195636.62999999989,"y":2558139.290000001}},{"attributes":{"ID":343618,"DIS_CODE":0,"TOWNNAME":"玉井區","LI":"玉田里","LIN":"35鄰","STREET":"民族路","SECT":" ","MAREA":" ","LANE":"２５１巷","ALLEY":" ","HOUSE_NO":"２６號","E_COORD97":195637.42999999999,"N_COORD97":2558166.2799999998,"ADDRESS":"民族路２５１巷２６號","OBJECTID":343609},"geometry":{"x":195637.4299999997,"y":2558166.2800000031}},{"attributes":{"ID":343619,"DIS_CODE":0,"TOWNNAME":"歸仁區","LI":"六甲里","LIN":"35鄰","STREET":"六甲六街","SECT":" ","MAREA":" ","LANE":"３５巷","ALLEY":" ","HOUSE_NO":"５號","E_COORD97":175539.37,"N_COORD97":2539371.25,"ADDRESS":"六甲六街３５巷５號","OBJECTID":343610},"geometry":{"x":175539.37000000104,"y":2539371.2500000019}},{"attributes":{"ID":343620,"DIS_CODE":0,"TOWNNAME":"歸仁區","LI":"許厝里","LIN":"35鄰","STREET":"和平南街","SECT":" ","MAREA":" ","LANE":"７１巷","ALLEY":" ","HOUSE_NO":"１３號","E_COORD97":177861.38,"N_COORD97":2540536.8199999998,"ADDRESS":"和平南街７１巷１３號","OBJECTID":343611},"geometry":{"x":177861.38000000175,"y":2540536.8199999984}},{"attributes":{"ID":343621,"DIS_CODE":0,"TOWNNAME":"歸仁區","LI":"許厝里","LIN":"35鄰","STREET":"和平南街","SECT":" ","MAREA":" ","LANE":"７１巷","ALLEY":" ","HOUSE_NO":"３號","E_COORD97":177840.63,"N_COORD97":2540540.8199999998,"ADDRESS":"和平南街７１巷３號","OBJECTID":343612},"geometry":{"x":177840.62999999989,"y":2540540.8200000022}},{"attributes":{"ID":343622,"DIS_CODE":0,"TOWNNAME":"歸仁區","LI":"南興里","LIN":"35鄰","STREET":"民生北街","SECT":" ","MAREA":" ","LANE":"５０巷","ALLEY":" ","HOUSE_NO":"５０號","E_COORD97":176395.84,"N_COORD97":2541063.29,"ADDRESS":"民生北街５０巷５０號","OBJECTID":343613},"geometry":{"x":176395.84000000078,"y":2541063.2899999991}},{"attributes":{"ID":343623,"DIS_CODE":0,"TOWNNAME":"歸仁區","LI":"南興里","LIN":"35鄰","STREET":"民生北街","SECT":" ","MAREA":" ","LANE":"５０巷","ALLEY":" ","HOUSE_NO":"４２之１號","E_COORD97":176384.04000000001,"N_COORD97":2541065.2999999998,"ADDRESS":"民生北街５０巷４２之１號","OBJECTID":343614},"geometry":{"x":176384.04000000097,"y":2541065.3000000007}},{"attributes":{"ID":343624,"DIS_CODE":0,"TOWNNAME":"歸仁區","LI":"南興里","LIN":"35鄰","STREET":"民生北街","SECT":" ","MAREA":" ","LANE":"５０巷","ALLEY":" ","HOUSE_NO":"２０號","E_COORD97":176323.14000000001,"N_COORD97":2541068.29,"ADDRESS":"民生北街５０巷２０號","OBJECTID":343615},"geometry":{"x":176323.13999999966,"y":2541068.2900000028}},{"attributes":{"ID":343625,"DIS_CODE":0,"TOWNNAME":"歸仁區","LI":"南興里","LIN":"35鄰","STREET":"民生北街","SECT":" ","MAREA":" ","LANE":"５０巷","ALLEY":" ","HOUSE_NO":"６６號","E_COORD97":176421.54000000001,"N_COORD97":2541060.29,"ADDRESS":"民生北街５０巷６６號","OBJECTID":343616},"geometry":{"x":176421.54000000097,"y":2541060.2899999991}},{"attributes":{"ID":343626,"DIS_CODE":0,"TOWNNAME":"南區","LI":"大忠里","LIN":"35鄰","STREET":"中華南路","SECT":"一段","MAREA":" ","LANE":"１４２巷","ALLEY":" ","HOUSE_NO":"４０號","E_COORD97":169136.04999999999,"N_COORD97":2541374.6099999999,"ADDRESS":"中華南路一段１４２巷４０號","OBJECTID":343617},"geometry":{"x":169136.04999999981,"y":2541374.6099999994}},{"attributes":{"ID":343627,"DIS_CODE":0,"TOWNNAME":"東區","LI":"德光里","LIN":"8鄰","STREET":"崇明路","SECT":" ","MAREA":" ","LANE":" ","ALLEY":" ","HOUSE_NO":"１８９號十樓之１","E_COORD97":169976.20999999999,"N_COORD97":2542107.0499999998,"ADDRESS":"崇明路１８９號十樓之１","OBJECTID":343618},"geometry":{"x":169976.20999999996,"y":2542107.0500000026}},{"attributes":{"ID":343628,"DIS_CODE":0,"TOWNNAME":"歸仁區","LI":"歸仁里","LIN":"5鄰","STREET":"和平三街","SECT":" ","MAREA":" ","LANE":"１１巷","ALLEY":" ","HOUSE_NO":"９號","E_COORD97":177803.48999999999,"N_COORD97":2540973.04,"ADDRESS":"和平三街１１巷９號","OBJECTID":343619},"geometry":{"x":177803.49000000115,"y":2540973.040000001}},{"attributes":{"ID":343629,"DIS_CODE":0,"TOWNNAME":"南區","LI":"大忠里","LIN":"35鄰","STREET":"中華南路","SECT":"一段","MAREA":" ","LANE":"１４２巷","ALLEY":" ","HOUSE_NO":"４２號","E_COORD97":169133.35000000001,"N_COORD97":2541378.2799999998,"ADDRESS":"中華南路一段１４２巷４２號","OBJECTID":343620},"geometry":{"x":169133.35000000056,"y":2541378.2800000012}},{"attributes":{"ID":343630,"DIS_CODE":0,"TOWNNAME":"南區","LI":"大忠里","LIN":"35鄰","STREET":"中華南路","SECT":"一段","MAREA":" ","LANE":"１４２巷","ALLEY":" ","HOUSE_NO":"４６號","E_COORD97":169130.64999999999,"N_COORD97":2541382.2000000002,"ADDRESS":"中華南路一段１４２巷４６號","OBJECTID":343621},"geometry":{"x":169130.65000000037,"y":2541382.2000000011}},{"attributes":{"ID":343631,"DIS_CODE":0,"TOWNNAME":"永康區","LI":"東橋里","LIN":"14鄰","STREET":"東橋八街","SECT":" ","MAREA":" ","LANE":"２８巷","ALLEY":" ","HOUSE_NO":"２８號","E_COORD97":171444.34,"N_COORD97":2546735.75,"ADDRESS":"東橋八街２８巷２８號","OBJECTID":343622},"geometry":{"x":171444.34000000078,"y":2546735.7500000019}},{"attributes":{"ID":343632,"DIS_CODE":0,"TOWNNAME":"永康區","LI":"東橋里","LIN":"15鄰","STREET":"東橋五路","SECT":" ","MAREA":" ","LANE":"８８巷","ALLEY":" ","HOUSE_NO":"１１號","E_COORD97":171761.01999999999,"N_COORD97":2546758.2000000002,"ADDRESS":"東橋五路８８巷１１號","OBJECTID":343623},"geometry":{"x":171761.02000000048,"y":2546758.200000003}},{"attributes":{"ID":343633,"DIS_CODE":0,"TOWNNAME":"永康區","LI":"埔園里","LIN":"35鄰","STREET":"八德街","SECT":" ","MAREA":" ","LANE":"５５巷","ALLEY":" ","HOUSE_NO":"２１號六樓之２","E_COORD97":174227.70999999999,"N_COORD97":2548454.27,"ADDRESS":"八德街５５巷２１號六樓之２","OBJECTID":343624},"geometry":{"x":174227.70999999996,"y":2548454.2700000014}},{"attributes":{"ID":343634,"DIS_CODE":0,"TOWNNAME":"永康區","LI":"埔園里","LIN":"35鄰","STREET":"八德街","SECT":" ","MAREA":" ","LANE":"５５巷","ALLEY":" ","HOUSE_NO":"１７號六樓之２","E_COORD97":174212.81,"N_COORD97":2548454.27,"ADDRESS":"八德街５５巷１７號六樓之２","OBJECTID":343625},"geometry":{"x":174212.80999999959,"y":2548454.2700000014}},{"attributes":{"ID":343635,"DIS_CODE":0,"TOWNNAME":"永康區","LI":"埔園里","LIN":"35鄰","STREET":"八德街","SECT":" ","MAREA":" ","LANE":"５５巷","ALLEY":" ","HOUSE_NO":"２１號四樓之２","E_COORD97":174227.70999999999,"N_COORD97":2548454.27,"ADDRESS":"八德街５５巷２１號四樓之２","OBJECTID":343626},"geometry":{"x":174227.70999999996,"y":2548454.2700000014}},{"attributes":{"ID":343636,"DIS_CODE":0,"TOWNNAME":"永康區","LI":"埔園里","LIN":"35鄰","STREET":"八德街","SECT":" ","MAREA":" ","LANE":"５５巷","ALLEY":" ","HOUSE_NO":"２１號五樓之２","E_COORD97":174227.70999999999,"N_COORD97":2548454.27,"ADDRESS":"八德街５５巷２１號五樓之２","OBJECTID":343627},"geometry":{"x":174227.70999999996,"y":2548454.2700000014}},{"attributes":{"ID":343637,"DIS_CODE":0,"TOWNNAME":"永康區","LI":"埔園里","LIN":"35鄰","STREET":"八德街","SECT":" ","MAREA":" ","LANE":"５５巷","ALLEY":" ","HOUSE_NO":"１９號三樓之３","E_COORD97":174231.5,"N_COORD97":2548437.5,"ADDRESS":"八德街５５巷１９號三樓之３","OBJECTID":343628},"geometry":{"x":174231.50000000093,"y":2548437.5}},{"attributes":{"ID":343638,"DIS_CODE":0,"TOWNNAME":"永康區","LI":"埔園里","LIN":"35鄰","STREET":"八德街","SECT":" ","MAREA":" ","LANE":"５５巷","ALLEY":" ","HOUSE_NO":"１７號二樓之２","E_COORD97":174212.81,"N_COORD97":2548454.27,"ADDRESS":"八德街５５巷１７號二樓之２","OBJECTID":343629},"geometry":{"x":174212.80999999959,"y":2548454.2700000014}},{"attributes":{"ID":343639,"DIS_CODE":0,"TOWNNAME":"永康區","LI":"埔園里","LIN":"35鄰","STREET":"八德街","SECT":" ","MAREA":" ","LANE":"５５巷","ALLEY":" ","HOUSE_NO":"１９號三樓之４","E_COORD97":174231.42999999999,"N_COORD97":2548437.5,"ADDRESS":"八德街５５巷１９號三樓之４","OBJECTID":343630},"geometry":{"x":174231.43000000156,"y":2548437.5}},{"attributes":{"ID":343640,"DIS_CODE":0,"TOWNNAME":"永康區","LI":"埔園里","LIN":"35鄰","STREET":"八德街","SECT":" ","MAREA":" ","LANE":"５５巷","ALLEY":" ","HOUSE_NO":"１９號二樓之４","E_COORD97":174231.42999999999,"N_COORD97":2548437.5,"ADDRESS":"八德街５５巷１９號二樓之４","OBJECTID":343631},"geometry":{"x":174231.43000000156,"y":2548437.5}},{"attributes":{"ID":343641,"DIS_CODE":0,"TOWNNAME":"永康區","LI":"埔園里","LIN":"35鄰","STREET":"八德街","SECT":" ","MAREA":" ","LANE":"５５巷","ALLEY":" ","HOUSE_NO":"１９號六樓之２","E_COORD97":174231.54000000001,"N_COORD97":2548437.5,"ADDRESS":"八德街５５巷１９號六樓之２","OBJECTID":343632},"geometry":{"x":174231.54000000097,"y":2548437.5}},{"attributes":{"ID":343642,"DIS_CODE":0,"TOWNNAME":"永康區","LI":"埔園里","LIN":"35鄰","STREET":"八德街","SECT":" ","MAREA":" ","LANE":"５５巷","ALLEY":" ","HOUSE_NO":"１９號四樓之２","E_COORD97":174231.54000000001,"N_COORD97":2548437.5,"ADDRESS":"八德街５５巷１９號四樓之２","OBJECTID":343633},"geometry":{"x":174231.54000000097,"y":2548437.5}},{"attributes":{"ID":343643,"DIS_CODE":0,"TOWNNAME":"永康區","LI":"埔園里","LIN":"35鄰","STREET":"八德街","SECT":" ","MAREA":" ","LANE":"５５巷","ALLEY":" ","HOUSE_NO":"２１號五樓之４","E_COORD97":174227.60000000001,"N_COORD97":2548454.27,"ADDRESS":"八德街５５巷２１號五樓之４","OBJECTID":343634},"geometry":{"x":174227.60000000056,"y":2548454.2700000014}},{"attributes":{"ID":343644,"DIS_CODE":0,"TOWNNAME":"東區","LI":"德光里","LIN":"8鄰","STREET":"崇明路","SECT":" ","MAREA":" ","LANE":" ","ALLEY":" ","HOUSE_NO":"１８９號三樓","E_COORD97":169976.20999999999,"N_COORD97":2542107.0499999998,"ADDRESS":"崇明路１８９號三樓","OBJECTID":343635},"geometry":{"x":169976.20999999996,"y":2542107.0500000026}},{"attributes":{"ID":343645,"DIS_CODE":0,"TOWNNAME":"新營區","LI":"鐵線里","LIN":"5鄰","STREET":" ","SECT":" ","MAREA":"鐵線橋","LANE":" ","ALLEY":" ","HOUSE_NO":"４８之７號","E_COORD97":176104.60000000001,"N_COORD97":2573706.7000000002,"ADDRESS":"鐵線橋４８之７號","OBJECTID":343636},"geometry":{"x":176104.59999999963,"y":2573706.6999999993}},{"attributes":{"ID":343646,"DIS_CODE":0,"TOWNNAME":"新營區","LI":"南紙里","LIN":"5鄰","STREET":"南紙街","SECT":" ","MAREA":" ","LANE":"２９巷","ALLEY":" ","HOUSE_NO":"２８號","E_COORD97":177903.06,"N_COORD97":2577733.3599999999,"ADDRESS":"南紙街２９巷２８號","OBJECTID":343637},"geometry":{"x":177903.05999999959,"y":2577733.3600000013}},{"attributes":{"ID":343647,"DIS_CODE":0,"TOWNNAME":"新營區","LI":"鐵線里","LIN":"5鄰","STREET":" ","SECT":" ","MAREA":"鐵線橋","LANE":" ","ALLEY":" ","HOUSE_NO":"４８之９號","E_COORD97":176113.79000000001,"N_COORD97":2573702.23,"ADDRESS":"鐵線橋４８之９號","OBJECTID":343638},"geometry":{"x":176113.79000000004,"y":2573702.2300000004}},{"attributes":{"ID":343648,"DIS_CODE":0,"TOWNNAME":"新營區","LI":"忠政里","LIN":"5鄰","STREET":"安和街","SECT":" ","MAREA":" ","LANE":"２５巷","ALLEY":" ","HOUSE_NO":"１號","E_COORD97":180023.19,"N_COORD97":2579233.7400000002,"ADDRESS":"安和街２５巷１號","OBJECTID":343639},"geometry":{"x":180023.19000000134,"y":2579233.7400000002}},{"attributes":{"ID":343649,"DIS_CODE":0,"TOWNNAME":"新營區","LI":"忠政里","LIN":"5鄰","STREET":"安和街","SECT":" ","MAREA":" ","LANE":"７巷","ALLEY":" ","HOUSE_NO":"３號","E_COORD97":180049.78,"N_COORD97":2579214.79,"ADDRESS":"安和街７巷３號","OBJECTID":343640},"geometry":{"x":180049.78000000119,"y":2579214.790000001}},{"attributes":{"ID":343650,"DIS_CODE":0,"TOWNNAME":"新營區","LI":"忠政里","LIN":"5鄰","STREET":"安和街","SECT":" ","MAREA":" ","LANE":"２５巷","ALLEY":" ","HOUSE_NO":"３號","E_COORD97":180023.26999999999,"N_COORD97":2579230.4199999999,"ADDRESS":"安和街２５巷３號","OBJECTID":343641},"geometry":{"x":180023.27000000048,"y":2579230.4200000037}},{"attributes":{"ID":343651,"DIS_CODE":0,"TOWNNAME":"新營區","LI":"忠政里","LIN":"5鄰","STREET":"安和街","SECT":" ","MAREA":" ","LANE":"７巷","ALLEY":" ","HOUSE_NO":"２號","E_COORD97":180048.78,"N_COORD97":2579223.6600000001,"ADDRESS":"安和街７巷２號","OBJECTID":343642},"geometry":{"x":180048.78000000026,"y":2579223.660000002}},{"attributes":{"ID":343652,"DIS_CODE":0,"TOWNNAME":"東區","LI":"德光里","LIN":"8鄰","STREET":"崇明路","SECT":" ","MAREA":" ","LANE":" ","ALLEY":" ","HOUSE_NO":"１８９號三樓之１","E_COORD97":169976.20999999999,"N_COORD97":2542107.0499999998,"ADDRESS":"崇明路１８９號三樓之１","OBJECTID":343643},"geometry":{"x":169976.20999999996,"y":2542107.0500000026}},{"attributes":{"ID":343653,"DIS_CODE":0,"TOWNNAME":"東區","LI":"德光里","LIN":"8鄰","STREET":"崇明路","SECT":" ","MAREA":" ","LANE":" ","ALLEY":" ","HOUSE_NO":"１８９號五樓","E_COORD97":169976.20999999999,"N_COORD97":2542107.0499999998,"ADDRESS":"崇明路１８９號五樓","OBJECTID":343644},"geometry":{"x":169976.20999999996,"y":2542107.0500000026}},{"attributes":{"ID":343654,"DIS_CODE":0,"TOWNNAME":"東區","LI":"德光里","LIN":"8鄰","STREET":"崇明路","SECT":" ","MAREA":" ","LANE":" ","ALLEY":" ","HOUSE_NO":"１８９號五樓之１","E_COORD97":169976.20999999999,"N_COORD97":2542107.0499999998,"ADDRESS":"崇明路１８９號五樓之１","OBJECTID":343645},"geometry":{"x":169976.20999999996,"y":2542107.0500000026}},{"attributes":{"ID":343655,"DIS_CODE":0,"TOWNNAME":"東區","LI":"德光里","LIN":"8鄰","STREET":"崇明路","SECT":" ","MAREA":" ","LANE":" ","ALLEY":" ","HOUSE_NO":"１８９號六樓","E_COORD97":169976.20999999999,"N_COORD97":2542107.0499999998,"ADDRESS":"崇明路１８９號六樓","OBJECTID":343646},"geometry":{"x":169976.20999999996,"y":2542107.0500000026}},{"attributes":{"ID":343656,"DIS_CODE":0,"TOWNNAME":"歸仁區","LI":"武東里","LIN":"5鄰","STREET":"武東一街","SECT":" ","MAREA":" ","LANE":"１６巷","ALLEY":" ","HOUSE_NO":"１７號","E_COORD97":175512.89000000001,"N_COORD97":2535437.25,"ADDRESS":"武東一街１６巷１７號","OBJECTID":343647},"geometry":{"x":175512.88999999966,"y":2535437.25}},{"attributes":{"ID":343657,"DIS_CODE":0,"TOWNNAME":"麻豆區","LI":"寮\u25A0里","LIN":"5鄰","STREET":" ","SECT":" ","MAREA":"寮子\u25A0","LANE":" ","ALLEY":" ","HOUSE_NO":"４４號","E_COORD97":176830.73999999999,"N_COORD97":2565351.2999999998,"ADDRESS":"寮子\u25A0４４號","OBJECTID":343648},"geometry":{"x":176830.74000000115,"y":2565351.3000000007}},{"attributes":{"ID":343658,"DIS_CODE":0,"TOWNNAME":"歸仁區","LI":"武東里","LIN":"5鄰","STREET":"武東一街","SECT":" ","MAREA":" ","LANE":"１６巷","ALLEY":" ","HOUSE_NO":"１３號","E_COORD97":175516.09,"N_COORD97":2535446.25,"ADDRESS":"武東一街１６巷１３號","OBJECTID":343649},"geometry":{"x":175516.09000000078,"y":2535446.2500000019}},{"attributes":{"ID":343659,"DIS_CODE":0,"TOWNNAME":"麻豆區","LI":"寮\u25A0里","LIN":"5鄰","STREET":" ","SECT":" ","MAREA":"寮子\u25A0","LANE":" ","ALLEY":" ","HOUSE_NO":"３７號","E_COORD97":176713.89000000001,"N_COORD97":2565472.1400000001,"ADDRESS":"寮子\u25A0３７號","OBJECTID":343650},"geometry":{"x":176713.8900000006,"y":2565472.1400000025}},{"attributes":{"ID":343660,"DIS_CODE":0,"TOWNNAME":"麻豆區","LI":"寮\u25A0里","LIN":"5鄰","STREET":" ","SECT":" ","MAREA":"寮子\u25A0","LANE":" ","ALLEY":" ","HOUSE_NO":"３８號之１","E_COORD97":176698.06,"N_COORD97":2565413.7999999998,"ADDRESS":"寮子\u25A0３８號之１","OBJECTID":343651},"geometry":{"x":176698.05999999959,"y":2565413.8000000026}},{"attributes":{"ID":343661,"DIS_CODE":0,"TOWNNAME":"歸仁區","LI":"武東里","LIN":"5鄰","STREET":"武東一街","SECT":" ","MAREA":" ","LANE":"１６巷","ALLEY":" ","HOUSE_NO":"１號","E_COORD97":175518.04000000001,"N_COORD97":2535478.25,"ADDRESS":"武東一街１６巷１號","OBJECTID":343652},"geometry":{"x":175518.04000000097,"y":2535478.25}},{"attributes":{"ID":343662,"DIS_CODE":0,"TOWNNAME":"鹽水區","LI":"桐寮里","LIN":"5鄰","STREET":" ","SECT":" ","MAREA":"桐寮","LANE":" ","ALLEY":" ","HOUSE_NO":"６５號","E_COORD97":173959,"N_COORD97":2576613.23,"ADDRESS":"桐寮６５號","OBJECTID":343653},"geometry":{"x":173959.00000000093,"y":2576613.2300000004}},{"attributes":{"ID":343663,"DIS_CODE":0,"TOWNNAME":"東區","LI":"德光里","LIN":"8鄰","STREET":"崇明路","SECT":" ","MAREA":" ","LANE":" ","ALLEY":" ","HOUSE_NO":"１８９號六樓之１","E_COORD97":169976.20999999999,"N_COORD97":2542107.0499999998,"ADDRESS":"崇明路１８９號六樓之１","OBJECTID":343654},"geometry":{"x":169976.20999999996,"y":2542107.0500000026}},{"attributes":{"ID":343664,"DIS_CODE":0,"TOWNNAME":"麻豆區","LI":"寮\u25A0里","LIN":"5鄰","STREET":" ","SECT":" ","MAREA":"寮子\u25A0","LANE":" ","ALLEY":" ","HOUSE_NO":"３８號之２","E_COORD97":176661.28,"N_COORD97":2565398.2999999998,"ADDRESS":"寮子\u25A0３８號之２","OBJECTID":343655},"geometry":{"x":176661.28000000119,"y":2565398.3000000007}},{"attributes":{"ID":343665,"DIS_CODE":0,"TOWNNAME":"東區","LI":"德光里","LIN":"8鄰","STREET":"崇明路","SECT":" ","MAREA":" ","LANE":" ","ALLEY":" ","HOUSE_NO":"１８９號四樓","E_COORD97":169976.20999999999,"N_COORD97":2542107.0499999998,"ADDRESS":"崇明路１８９號四樓","OBJECTID":343656},"geometry":{"x":169976.20999999996,"y":2542107.0500000026}},{"attributes":{"ID":343666,"DIS_CODE":0,"TOWNNAME":"東區","LI":"德光里","LIN":"8鄰","STREET":"崇明路","SECT":" ","MAREA":" ","LANE":" ","ALLEY":" ","HOUSE_NO":"１８９號四樓之１","E_COORD97":169976.20999999999,"N_COORD97":2542107.0499999998,"ADDRESS":"崇明路１８９號四樓之１","OBJECTID":343657},"geometry":{"x":169976.20999999996,"y":2542107.0500000026}},{"attributes":{"ID":343667,"DIS_CODE":0,"TOWNNAME":"麻豆區","LI":"寮\u25A0里","LIN":"5鄰","STREET":" ","SECT":" ","MAREA":"寮子\u25A0","LANE":" ","ALLEY":" ","HOUSE_NO":"４４號之３１","E_COORD97":176960.98000000001,"N_COORD97":2565320.5699999998,"ADDRESS":"寮子\u25A0４４號之３１","OBJECTID":343658},"geometry":{"x":176960.97999999952,"y":2565320.5700000022}},{"attributes":{"ID":343668,"DIS_CODE":0,"TOWNNAME":"永康區","LI":"埔園里","LIN":"35鄰","STREET":"八德街","SECT":" ","MAREA":" ","LANE":"５５巷","ALLEY":" ","HOUSE_NO":"１７號五樓之２","E_COORD97":174212.81,"N_COORD97":2548454.27,"ADDRESS":"八德街５５巷１７號五樓之２","OBJECTID":343659},"geometry":{"x":174212.80999999959,"y":2548454.2700000014}},{"attributes":{"ID":343669,"DIS_CODE":0,"TOWNNAME":"麻豆區","LI":"寮\u25A0里","LIN":"5鄰","STREET":" ","SECT":" ","MAREA":"寮子\u25A0","LANE":" ","ALLEY":" ","HOUSE_NO":"４４號之３２","E_COORD97":176965.69,"N_COORD97":2565318.3900000001,"ADDRESS":"寮子\u25A0４４號之３２","OBJECTID":343660},"geometry":{"x":176965.69000000041,"y":2565318.3900000025}},{"attributes":{"ID":343670,"DIS_CODE":0,"TOWNNAME":"麻豆區","LI":"寮\u25A0里","LIN":"5鄰","STREET":" ","SECT":" ","MAREA":"寮子\u25A0","LANE":" ","ALLEY":" ","HOUSE_NO":"４４號之３３","E_COORD97":176970.41,"N_COORD97":2565316.2200000002,"ADDRESS":"寮子\u25A0４４號之３３","OBJECTID":343661},"geometry":{"x":176970.41000000108,"y":2565316.2200000025}},{"attributes":{"ID":343671,"DIS_CODE":0,"TOWNNAME":"關廟區","LI":"北花里","LIN":"5鄰","STREET":"園東街","SECT":" ","MAREA":" ","LANE":"１１８巷","ALLEY":" ","HOUSE_NO":"５號","E_COORD97":182064.10999999999,"N_COORD97":2540217.25,"ADDRESS":"園東街１１８巷５號","OBJECTID":343662},"geometry":{"x":182064.11000000034,"y":2540217.25}},{"attributes":{"ID":343672,"DIS_CODE":0,"TOWNNAME":"永康區","LI":"甲頂里","LIN":" ","STREET":"中正一街","SECT":" ","MAREA":" ","LANE":" ","ALLEY":" ","HOUSE_NO":"７號","E_COORD97":172780.04000000001,"N_COORD97":2548349.9900000002,"ADDRESS":"中正一街７號","OBJECTID":343663},"geometry":{"x":172780.0400000019,"y":2548349.9900000002}},{"attributes":{"ID":343673,"DIS_CODE":0,"TOWNNAME":"關廟區","LI":"北花里","LIN":"5鄰","STREET":"園東街","SECT":" ","MAREA":" ","LANE":"１４０巷","ALLEY":" ","HOUSE_NO":"５號","E_COORD97":182068.41,"N_COORD97":2540268.25,"ADDRESS":"園東街１４０巷５號","OBJECTID":343664},"geometry":{"x":182068.41000000015,"y":2540268.25}},{"attributes":{"ID":343674,"DIS_CODE":0,"TOWNNAME":"關廟區","LI":"松腳里","LIN":"5鄰","STREET":"中山路","SECT":"一段","MAREA":" ","LANE":"２１巷","ALLEY":" ","HOUSE_NO":"１９號","E_COORD97":182073.45999999999,"N_COORD97":2539893.2799999998,"ADDRESS":"中山路一段２１巷１９號","OBJECTID":343665},"geometry":{"x":182073.46000000183,"y":2539893.2800000012}},{"attributes":{"ID":343675,"DIS_CODE":0,"TOWNNAME":"關廟區","LI":"北花里","LIN":"5鄰","STREET":"園東街","SECT":" ","MAREA":" ","LANE":"１１８巷","ALLEY":" ","HOUSE_NO":"３號","E_COORD97":182056.81,"N_COORD97":2540219.25,"ADDRESS":"園東街１１８巷３號","OBJECTID":343666},"geometry":{"x":182056.80999999959,"y":2540219.2500000019}},{"attributes":{"ID":343676,"DIS_CODE":0,"TOWNNAME":"關廟區","LI":"北花里","LIN":"5鄰","STREET":"園東街","SECT":" ","MAREA":" ","LANE":"１１２巷","ALLEY":" ","HOUSE_NO":"３號","E_COORD97":182055.70999999999,"N_COORD97":2540190.25,"ADDRESS":"園東街１１２巷３號","OBJECTID":343667},"geometry":{"x":182055.70999999996,"y":2540190.25}},{"attributes":{"ID":343677,"DIS_CODE":0,"TOWNNAME":"關廟區","LI":"松腳里","LIN":"5鄰","STREET":"中山路","SECT":"一段","MAREA":" ","LANE":"２１巷","ALLEY":" ","HOUSE_NO":"５０號","E_COORD97":182060.85999999999,"N_COORD97":2539844.2799999998,"ADDRESS":"中山路一段２１巷５０號","OBJECTID":343668},"geometry":{"x":182060.8600000022,"y":2539844.2799999993}},{"attributes":{"ID":343678,"DIS_CODE":0,"TOWNNAME":"關廟區","LI":"松腳里","LIN":"5鄰","STREET":"中山路","SECT":"一段","MAREA":" ","LANE":"２１巷","ALLEY":" ","HOUSE_NO":"２７號","E_COORD97":182073.16,"N_COORD97":2539878.2799999998,"ADDRESS":"中山路一段２１巷２７號","OBJECTID":343669},"geometry":{"x":182073.16000000015,"y":2539878.2799999993}},{"attributes":{"ID":343679,"DIS_CODE":0,"TOWNNAME":"永康區","LI":"埔園里","LIN":"35鄰","STREET":"八德街","SECT":" ","MAREA":" ","LANE":"５５巷","ALLEY":" ","HOUSE_NO":"１９號二樓之１","E_COORD97":174231.39999999999,"N_COORD97":2548437.5,"ADDRESS":"八德街５５巷１９號二樓之１","OBJECTID":343670},"geometry":{"x":174231.4000000013,"y":2548437.5}},{"attributes":{"ID":343680,"DIS_CODE":0,"TOWNNAME":"永康區","LI":"埔園里","LIN":"35鄰","STREET":"八德街","SECT":" ","MAREA":" ","LANE":"５５巷","ALLEY":" ","HOUSE_NO":"２１號四樓之４","E_COORD97":174227.60000000001,"N_COORD97":2548454.27,"ADDRESS":"八德街５５巷２１號四樓之４","OBJECTID":343671},"geometry":{"x":174227.60000000056,"y":2548454.2700000014}},{"attributes":{"ID":343681,"DIS_CODE":0,"TOWNNAME":"永康區","LI":"埔園里","LIN":"35鄰","STREET":"八德街","SECT":" ","MAREA":" ","LANE":"５５巷","ALLEY":" ","HOUSE_NO":"１７號四樓之４","E_COORD97":174212.70000000001,"N_COORD97":2548454.27,"ADDRESS":"八德街５５巷１７號四樓之４","OBJECTID":343672},"geometry":{"x":174212.70000000019,"y":2548454.2700000014}},{"attributes":{"ID":343682,"DIS_CODE":0,"TOWNNAME":"永康區","LI":"埔園里","LIN":"35鄰","STREET":"八德街","SECT":" ","MAREA":" ","LANE":"５５巷","ALLEY":" ","HOUSE_NO":"１７號四樓之２","E_COORD97":174212.81,"N_COORD97":2548454.27,"ADDRESS":"八德街５５巷１７號四樓之２","OBJECTID":343673},"geometry":{"x":174212.80999999959,"y":2548454.2700000014}},{"attributes":{"ID":343683,"DIS_CODE":0,"TOWNNAME":"東區","LI":"德光里","LIN":"8鄰","STREET":"崇明路","SECT":" ","MAREA":" ","LANE":" ","ALLEY":" ","HOUSE_NO":"１９１號七樓","E_COORD97":169980.26999999999,"N_COORD97":2542101.6400000001,"ADDRESS":"崇明路１９１號七樓","OBJECTID":343674},"geometry":{"x":169980.26999999955,"y":2542101.6400000043}},{"attributes":{"ID":343684,"DIS_CODE":0,"TOWNNAME":"東區","LI":"德光里","LIN":"8鄰","STREET":"崇明路","SECT":" ","MAREA":" ","LANE":" ","ALLEY":" ","HOUSE_NO":"１９１號七樓之１","E_COORD97":169980.26999999999,"N_COORD97":2542101.6400000001,"ADDRESS":"崇明路１９１號七樓之１","OBJECTID":343675},"geometry":{"x":169980.26999999955,"y":2542101.6400000043}},{"attributes":{"ID":343685,"DIS_CODE":0,"TOWNNAME":"東區","LI":"德光里","LIN":"8鄰","STREET":"崇明路","SECT":" ","MAREA":" ","LANE":" ","ALLEY":" ","HOUSE_NO":"１９１號九樓","E_COORD97":169980.26999999999,"N_COORD97":2542101.6400000001,"ADDRESS":"崇明路１９１號九樓","OBJECTID":343676},"geometry":{"x":169980.26999999955,"y":2542101.6400000043}},{"attributes":{"ID":343686,"DIS_CODE":0,"TOWNNAME":"東區","LI":"德光里","LIN":"8鄰","STREET":"崇明路","SECT":" ","MAREA":" ","LANE":" ","ALLEY":" ","HOUSE_NO":"１９１號九樓之１","E_COORD97":169980.26999999999,"N_COORD97":2542101.6400000001,"ADDRESS":"崇明路１９１號九樓之１","OBJECTID":343677},"geometry":{"x":169980.26999999955,"y":2542101.6400000043}},{"attributes":{"ID":343687,"DIS_CODE":0,"TOWNNAME":"東區","LI":"德光里","LIN":"8鄰","STREET":"崇明路","SECT":" ","MAREA":" ","LANE":" ","ALLEY":" ","HOUSE_NO":"１９１號八樓","E_COORD97":169980.26999999999,"N_COORD97":2542101.6400000001,"ADDRESS":"崇明路１９１號八樓","OBJECTID":343678},"geometry":{"x":169980.26999999955,"y":2542101.6400000043}},{"attributes":{"ID":343688,"DIS_CODE":0,"TOWNNAME":"東區","LI":"德光里","LIN":"8鄰","STREET":"崇明路","SECT":" ","MAREA":" ","LANE":" ","ALLEY":" ","HOUSE_NO":"１９１號八樓之１","E_COORD97":169980.26999999999,"N_COORD97":2542101.6400000001,"ADDRESS":"崇明路１９１號八樓之１","OBJECTID":343679},"geometry":{"x":169980.26999999955,"y":2542101.6400000043}},{"attributes":{"ID":343689,"DIS_CODE":0,"TOWNNAME":"佳里區","LI":"鎮山里","LIN":"1鄰","STREET":"四安街","SECT":" ","MAREA":" ","LANE":" ","ALLEY":" ","HOUSE_NO":"１８號","E_COORD97":165871.32000000001,"N_COORD97":2561866.2400000002,"ADDRESS":"四安街１８號","OBJECTID":343680},"geometry":{"x":165871.3200000003,"y":2561866.2399999984}},{"attributes":{"ID":343690,"DIS_CODE":0,"TOWNNAME":"關廟區","LI":"北花里","LIN":"5鄰","STREET":"園東街","SECT":" ","MAREA":" ","LANE":"１１２巷","ALLEY":" ","HOUSE_NO":"７號","E_COORD97":182065.70999999999,"N_COORD97":2540188.25,"ADDRESS":"園東街１１２巷７號","OBJECTID":343681},"geometry":{"x":182065.71000000089,"y":2540188.2500000037}},{"attributes":{"ID":343691,"DIS_CODE":0,"TOWNNAME":"關廟區","LI":"松腳里","LIN":"5鄰","STREET":"中山路","SECT":"一段","MAREA":" ","LANE":"２１巷","ALLEY":" ","HOUSE_NO":"３５號","E_COORD97":182072.35999999999,"N_COORD97":2539854.2799999998,"ADDRESS":"中山路一段２１巷３５號","OBJECTID":343682},"geometry":{"x":182072.36000000034,"y":2539854.2799999993}},{"attributes":{"ID":343692,"DIS_CODE":0,"TOWNNAME":"永康區","LI":"埔園里","LIN":"35鄰","STREET":"八德街","SECT":" ","MAREA":" ","LANE":"５５巷","ALLEY":" ","HOUSE_NO":"１７號三樓之４","E_COORD97":174212.70000000001,"N_COORD97":2548454.27,"ADDRESS":"八德街５５巷１７號三樓之４","OBJECTID":343683},"geometry":{"x":174212.70000000019,"y":2548454.2700000014}},{"attributes":{"ID":343693,"DIS_CODE":0,"TOWNNAME":"永康區","LI":"埔園里","LIN":"35鄰","STREET":"八德街","SECT":" ","MAREA":" ","LANE":"５５巷","ALLEY":" ","HOUSE_NO":"１９號五樓之１","E_COORD97":174231.39999999999,"N_COORD97":2548437.5,"ADDRESS":"八德街５５巷１９號五樓之１","OBJECTID":343684},"geometry":{"x":174231.4000000013,"y":2548437.5}},{"attributes":{"ID":343694,"DIS_CODE":0,"TOWNNAME":"永康區","LI":"埔園里","LIN":"35鄰","STREET":"八德街","SECT":" ","MAREA":" ","LANE":"５５巷","ALLEY":" ","HOUSE_NO":"１７號五樓之４","E_COORD97":174212.70000000001,"N_COORD97":2548454.27,"ADDRESS":"八德街５５巷１７號五樓之４","OBJECTID":343685},"geometry":{"x":174212.70000000019,"y":2548454.2700000014}},{"attributes":{"ID":343695,"DIS_CODE":0,"TOWNNAME":"永康區","LI":"埔園里","LIN":"35鄰","STREET":"八德街","SECT":" ","MAREA":" ","LANE":"５５巷","ALLEY":" ","HOUSE_NO":"１９號四樓之１","E_COORD97":174231.39999999999,"N_COORD97":2548437.5,"ADDRESS":"八德街５５巷１９號四樓之１","OBJECTID":343686},"geometry":{"x":174231.4000000013,"y":2548437.5}},{"attributes":{"ID":343696,"DIS_CODE":0,"TOWNNAME":"永康區","LI":"埔園里","LIN":"35鄰","STREET":"八德街","SECT":" ","MAREA":" ","LANE":"５５巷","ALLEY":" ","HOUSE_NO":"１７號四樓之３","E_COORD97":174212.76999999999,"N_COORD97":2548454.27,"ADDRESS":"八德街５５巷１７號四樓之３","OBJECTID":343687},"geometry":{"x":174212.77000000048,"y":2548454.2700000014}},{"attributes":{"ID":343697,"DIS_CODE":0,"TOWNNAME":"永康區","LI":"埔園里","LIN":"35鄰","STREET":"八德街","SECT":" ","MAREA":" ","LANE":"５５巷","ALLEY":" ","HOUSE_NO":"２１號五樓之１","E_COORD97":174227.57000000001,"N_COORD97":2548454.27,"ADDRESS":"八德街５５巷２１號五樓之１","OBJECTID":343688},"geometry":{"x":174227.56999999937,"y":2548454.2700000014}},{"attributes":{"ID":343698,"DIS_CODE":0,"TOWNNAME":"永康區","LI":"埔園里","LIN":"35鄰","STREET":"八德街","SECT":" ","MAREA":" ","LANE":"５５巷","ALLEY":" ","HOUSE_NO":"１９號六樓之５","E_COORD97":174231.56,"N_COORD97":2548437.5,"ADDRESS":"八德街５５巷１９號六樓之５","OBJECTID":343689},"geometry":{"x":174231.55999999959,"y":2548437.5}},{"attributes":{"ID":343699,"DIS_CODE":0,"TOWNNAME":"永康區","LI":"埔園里","LIN":"35鄰","STREET":"八德街","SECT":" ","MAREA":" ","LANE":"５５巷","ALLEY":" ","HOUSE_NO":"２１號六樓之４","E_COORD97":174227.60000000001,"N_COORD97":2548454.27,"ADDRESS":"八德街５５巷２１號六樓之４","OBJECTID":343690},"geometry":{"x":174227.60000000056,"y":2548454.2700000014}},{"attributes":{"ID":343700,"DIS_CODE":0,"TOWNNAME":"永康區","LI":"埔園里","LIN":"35鄰","STREET":"八德街","SECT":" ","MAREA":" ","LANE":"５５巷","ALLEY":" ","HOUSE_NO":"１９號三樓之２","E_COORD97":174231.54000000001,"N_COORD97":2548437.5,"ADDRESS":"八德街５５巷１９號三樓之２","OBJECTID":343691},"geometry":{"x":174231.54000000097,"y":2548437.5}},{"attributes":{"ID":343701,"DIS_CODE":0,"TOWNNAME":"永康區","LI":"埔園里","LIN":"35鄰","STREET":"八德街","SECT":" ","MAREA":" ","LANE":"５５巷","ALLEY":" ","HOUSE_NO":"１７號二樓之３","E_COORD97":174212.76999999999,"N_COORD97":2548454.27,"ADDRESS":"八德街５５巷１７號二樓之３","OBJECTID":343692},"geometry":{"x":174212.77000000048,"y":2548454.2700000014}},{"attributes":{"ID":343702,"DIS_CODE":0,"TOWNNAME":"永康區","LI":"埔園里","LIN":"35鄰","STREET":"八德街","SECT":" ","MAREA":" ","LANE":"５５巷","ALLEY":" ","HOUSE_NO":"２１號六樓之１","E_COORD97":174227.57000000001,"N_COORD97":2548454.27,"ADDRESS":"八德街５５巷２１號六樓之１","OBJECTID":343693},"geometry":{"x":174227.56999999937,"y":2548454.2700000014}},{"attributes":{"ID":343703,"DIS_CODE":0,"TOWNNAME":"永康區","LI":"埔園里","LIN":"35鄰","STREET":"八德街","SECT":" ","MAREA":" ","LANE":"５５巷","ALLEY":" ","HOUSE_NO":"１９號六樓之４","E_COORD97":174231.42999999999,"N_COORD97":2548437.5,"ADDRESS":"八德街５５巷１９號六樓之４","OBJECTID":343694},"geometry":{"x":174231.43000000156,"y":2548437.5}},{"attributes":{"ID":343704,"DIS_CODE":0,"TOWNNAME":"永康區","LI":"埔園里","LIN":"35鄰","STREET":"八德街","SECT":" ","MAREA":" ","LANE":"５５巷","ALLEY":" ","HOUSE_NO":"１９號六樓之１","E_COORD97":174231.39999999999,"N_COORD97":2548437.5,"ADDRESS":"八德街５５巷１９號六樓之１","OBJECTID":343695},"geometry":{"x":174231.4000000013,"y":2548437.5}},{"attributes":{"ID":343705,"DIS_CODE":0,"TOWNNAME":"永康區","LI":"埔園里","LIN":"35鄰","STREET":"八德街","SECT":" ","MAREA":" ","LANE":"５５巷","ALLEY":" ","HOUSE_NO":"１９號二樓之５","E_COORD97":174231.56,"N_COORD97":2548437.5,"ADDRESS":"八德街５５巷１９號二樓之５","OBJECTID":343696},"geometry":{"x":174231.55999999959,"y":2548437.5}},{"attributes":{"ID":343706,"DIS_CODE":0,"TOWNNAME":"東區","LI":"德光里","LIN":"8鄰","STREET":"崇明路","SECT":" ","MAREA":" ","LANE":" ","ALLEY":" ","HOUSE_NO":"１９１號十一樓","E_COORD97":169980.26999999999,"N_COORD97":2542101.6400000001,"ADDRESS":"崇明路１９１號十一樓","OBJECTID":343697},"geometry":{"x":169980.26999999955,"y":2542101.6400000043}},{"attributes":{"ID":343707,"DIS_CODE":0,"TOWNNAME":"東區","LI":"德光里","LIN":"8鄰","STREET":"崇明路","SECT":" ","MAREA":" ","LANE":" ","ALLEY":" ","HOUSE_NO":"１９１號十一樓之１","E_COORD97":169980.26999999999,"N_COORD97":2542101.6400000001,"ADDRESS":"崇明路１９１號十一樓之１","OBJECTID":343698},"geometry":{"x":169980.26999999955,"y":2542101.6400000043}},{"attributes":{"ID":343708,"DIS_CODE":0,"TOWNNAME":"永康區","LI":"埔園里","LIN":"35鄰","STREET":"八德街","SECT":" ","MAREA":" ","LANE":"５５巷","ALLEY":" ","HOUSE_NO":"１７號二樓之１","E_COORD97":174212.67000000001,"N_COORD97":2548454.27,"ADDRESS":"八德街５５巷１７號二樓之１","OBJECTID":343699},"geometry":{"x":174212.66999999993,"y":2548454.2700000014}},{"attributes":{"ID":343709,"DIS_CODE":0,"TOWNNAME":"永康區","LI":"埔園里","LIN":"35鄰","STREET":"八德街","SECT":" ","MAREA":" ","LANE":"５５巷","ALLEY":" ","HOUSE_NO":"１９號四樓之３","E_COORD97":174231.5,"N_COORD97":2548437.5,"ADDRESS":"八德街５５巷１９號四樓之３","OBJECTID":343700},"geometry":{"x":174231.50000000093,"y":2548437.5}},{"attributes":{"ID":343710,"DIS_CODE":0,"TOWNNAME":"永康區","LI":"埔園里","LIN":"35鄰","STREET":"八德街","SECT":" ","MAREA":" ","LANE":"５５巷","ALLEY":" ","HOUSE_NO":"１９號五樓之４","E_COORD97":174231.42999999999,"N_COORD97":2548437.5,"ADDRESS":"八德街５５巷１９號五樓之４","OBJECTID":343701},"geometry":{"x":174231.43000000156,"y":2548437.5}},{"attributes":{"ID":343711,"DIS_CODE":0,"TOWNNAME":"永康區","LI":"埔園里","LIN":"35鄰","STREET":"八德街","SECT":" ","MAREA":" ","LANE":"５５巷","ALLEY":" ","HOUSE_NO":"１９號四樓之４","E_COORD97":174231.42999999999,"N_COORD97":2548437.5,"ADDRESS":"八德街５５巷１９號四樓之４","OBJECTID":343702},"geometry":{"x":174231.43000000156,"y":2548437.5}},{"attributes":{"ID":343712,"DIS_CODE":0,"TOWNNAME":"永康區","LI":"埔園里","LIN":"35鄰","STREET":"八德街","SECT":" ","MAREA":" ","LANE":"５５巷","ALLEY":" ","HOUSE_NO":"１７號三樓之２","E_COORD97":174212.81,"N_COORD97":2548454.27,"ADDRESS":"八德街５５巷１７號三樓之２","OBJECTID":343703},"geometry":{"x":174212.80999999959,"y":2548454.2700000014}},{"attributes":{"ID":343713,"DIS_CODE":0,"TOWNNAME":"永康區","LI":"埔園里","LIN":"35鄰","STREET":"八德街","SECT":" ","MAREA":" ","LANE":"５５巷","ALLEY":" ","HOUSE_NO":"１９號二樓之２","E_COORD97":174231.54000000001,"N_COORD97":2548437.5,"ADDRESS":"八德街５５巷１９號二樓之２","OBJECTID":343704},"geometry":{"x":174231.54000000097,"y":2548437.5}},{"attributes":{"ID":343714,"DIS_CODE":0,"TOWNNAME":"永康區","LI":"埔園里","LIN":"35鄰","STREET":"八德街","SECT":" ","MAREA":" ","LANE":"５５巷","ALLEY":" ","HOUSE_NO":"１７號三樓之１","E_COORD97":174212.67000000001,"N_COORD97":2548454.27,"ADDRESS":"八德街５５巷１７號三樓之１","OBJECTID":343705},"geometry":{"x":174212.66999999993,"y":2548454.2700000014}},{"attributes":{"ID":343715,"DIS_CODE":0,"TOWNNAME":"永康區","LI":"埔園里","LIN":"35鄰","STREET":"八德街","SECT":" ","MAREA":" ","LANE":"５５巷","ALLEY":" ","HOUSE_NO":"２１號二樓之３","E_COORD97":174227.67000000001,"N_COORD97":2548454.27,"ADDRESS":"八德街５５巷２１號二樓之３","OBJECTID":343706},"geometry":{"x":174227.66999999993,"y":2548454.2700000014}},{"attributes":{"ID":343716,"DIS_CODE":0,"TOWNNAME":"永康區","LI":"埔園里","LIN":"35鄰","STREET":"八德街","SECT":" ","MAREA":" ","LANE":"５５巷","ALLEY":" ","HOUSE_NO":"１９號五樓之２","E_COORD97":174231.54000000001,"N_COORD97":2548437.5,"ADDRESS":"八德街５５巷１９號五樓之２","OBJECTID":343707},"geometry":{"x":174231.54000000097,"y":2548437.5}},{"attributes":{"ID":343717,"DIS_CODE":0,"TOWNNAME":"永康區","LI":"埔園里","LIN":"35鄰","STREET":"八德街","SECT":" ","MAREA":" ","LANE":"５５巷","ALLEY":" ","HOUSE_NO":"２１號四樓之１","E_COORD97":174227.57000000001,"N_COORD97":2548454.27,"ADDRESS":"八德街５５巷２１號四樓之１","OBJECTID":343708},"geometry":{"x":174227.56999999937,"y":2548454.2700000014}},{"attributes":{"ID":343718,"DIS_CODE":0,"TOWNNAME":"永康區","LI":"埔園里","LIN":"35鄰","STREET":"八德街","SECT":" ","MAREA":" ","LANE":"５５巷","ALLEY":" ","HOUSE_NO":"１９號三樓之５","E_COORD97":174231.56,"N_COORD97":2548437.5,"ADDRESS":"八德街５５巷１９號三樓之５","OBJECTID":343709},"geometry":{"x":174231.55999999959,"y":2548437.5}},{"attributes":{"ID":343719,"DIS_CODE":0,"TOWNNAME":"永康區","LI":"埔園里","LIN":"35鄰","STREET":"八德街","SECT":" ","MAREA":" ","LANE":"５５巷","ALLEY":" ","HOUSE_NO":"１７號四樓之１","E_COORD97":174212.67000000001,"N_COORD97":2548454.27,"ADDRESS":"八德街５５巷１７號四樓之１","OBJECTID":343710},"geometry":{"x":174212.66999999993,"y":2548454.2700000014}},{"attributes":{"ID":343720,"DIS_CODE":0,"TOWNNAME":"永康區","LI":"埔園里","LIN":"35鄰","STREET":"八德街","SECT":" ","MAREA":" ","LANE":"５５巷","ALLEY":" ","HOUSE_NO":"２１號三樓之１","E_COORD97":174227.57000000001,"N_COORD97":2548454.27,"ADDRESS":"八德街５５巷２１號三樓之１","OBJECTID":343711},"geometry":{"x":174227.56999999937,"y":2548454.2700000014}},{"attributes":{"ID":343721,"DIS_CODE":0,"TOWNNAME":"永康區","LI":"埔園里","LIN":"35鄰","STREET":"八德街","SECT":" ","MAREA":" ","LANE":"５５巷","ALLEY":" ","HOUSE_NO":"２１號三樓之４","E_COORD97":174227.60000000001,"N_COORD97":2548454.27,"ADDRESS":"八德街５５巷２１號三樓之４","OBJECTID":343712},"geometry":{"x":174227.60000000056,"y":2548454.2700000014}},{"attributes":{"ID":343722,"DIS_CODE":0,"TOWNNAME":"永康區","LI":"埔園里","LIN":"35鄰","STREET":"八德街","SECT":" ","MAREA":" ","LANE":"５５巷","ALLEY":" ","HOUSE_NO":"２１號三樓之３","E_COORD97":174227.67000000001,"N_COORD97":2548454.27,"ADDRESS":"八德街５５巷２１號三樓之３","OBJECTID":343713},"geometry":{"x":174227.66999999993,"y":2548454.2700000014}},{"attributes":{"ID":343723,"DIS_CODE":0,"TOWNNAME":"永康區","LI":"埔園里","LIN":"35鄰","STREET":"八德街","SECT":" ","MAREA":" ","LANE":"５５巷","ALLEY":" ","HOUSE_NO":"２１號二樓之１","E_COORD97":174227.57000000001,"N_COORD97":2548454.27,"ADDRESS":"八德街５５巷２１號二樓之１","OBJECTID":343714},"geometry":{"x":174227.56999999937,"y":2548454.2700000014}},{"attributes":{"ID":343724,"DIS_CODE":0,"TOWNNAME":"永康區","LI":"埔園里","LIN":"35鄰","STREET":"八德街","SECT":" ","MAREA":" ","LANE":"５５巷","ALLEY":" ","HOUSE_NO":"１９號三樓之１","E_COORD97":174231.39999999999,"N_COORD97":2548437.5,"ADDRESS":"八德街５５巷１９號三樓之１","OBJECTID":343715},"geometry":{"x":174231.4000000013,"y":2548437.5}},{"attributes":{"ID":343725,"DIS_CODE":0,"TOWNNAME":"永康區","LI":"埔園里","LIN":"35鄰","STREET":"八德街","SECT":" ","MAREA":" ","LANE":"５５巷","ALLEY":" ","HOUSE_NO":"１７號六樓之１","E_COORD97":174212.67000000001,"N_COORD97":2548454.27,"ADDRESS":"八德街５５巷１７號六樓之１","OBJECTID":343716},"geometry":{"x":174212.66999999993,"y":2548454.2700000014}},{"attributes":{"ID":343726,"DIS_CODE":0,"TOWNNAME":"關廟區","LI":"埤頭里","LIN":"5鄰","STREET":"關新路","SECT":"二段","MAREA":" ","LANE":" ","ALLEY":" ","HOUSE_NO":"３６號","E_COORD97":179229.896595,"N_COORD97":2544085.8374000001,"ADDRESS":"關新路二段３６號","OBJECTID":343717},"geometry":{"x":179229.89659500215,"y":2544085.8373980038}},{"attributes":{"ID":343727,"DIS_CODE":0,"TOWNNAME":"關廟區","LI":"布袋里","LIN":"5鄰","STREET":"長文街","SECT":" ","MAREA":" ","LANE":"１３５巷","ALLEY":" ","HOUSE_NO":"２７號","E_COORD97":182869.23999999999,"N_COORD97":2535326.2999999998,"ADDRESS":"長文街１３５巷２７號","OBJECTID":343718},"geometry":{"x":182869.24000000115,"y":2535326.3000000007}},{"attributes":{"ID":343728,"DIS_CODE":0,"TOWNNAME":"永康區","LI":"埔園里","LIN":"35鄰","STREET":"八德街","SECT":" ","MAREA":" ","LANE":"５５巷","ALLEY":" ","HOUSE_NO":"１９號五樓之５","E_COORD97":174231.56,"N_COORD97":2548437.5,"ADDRESS":"八德街５５巷１９號五樓之５","OBJECTID":343719},"geometry":{"x":174231.55999999959,"y":2548437.5}},{"attributes":{"ID":343729,"DIS_CODE":0,"TOWNNAME":"永康區","LI":"埔園里","LIN":"35鄰","STREET":"八德街","SECT":" ","MAREA":" ","LANE":"５５巷","ALLEY":" ","HOUSE_NO":"２１號六樓之３","E_COORD97":174227.67000000001,"N_COORD97":2548454.27,"ADDRESS":"八德街５５巷２１號六樓之３","OBJECTID":343720},"geometry":{"x":174227.66999999993,"y":2548454.2700000014}},{"attributes":{"ID":343730,"DIS_CODE":0,"TOWNNAME":"永康區","LI":"埔園里","LIN":"35鄰","STREET":"八德街","SECT":" ","MAREA":" ","LANE":"５５巷","ALLEY":" ","HOUSE_NO":"１９號五樓之３","E_COORD97":174231.5,"N_COORD97":2548437.5,"ADDRESS":"八德街５５巷１９號五樓之３","OBJECTID":343721},"geometry":{"x":174231.50000000093,"y":2548437.5}},{"attributes":{"ID":343731,"DIS_CODE":0,"TOWNNAME":"永康區","LI":"埔園里","LIN":"35鄰","STREET":"八德街","SECT":" ","MAREA":" ","LANE":"５５巷","ALLEY":" ","HOUSE_NO":"１７號六樓之４","E_COORD97":174212.70000000001,"N_COORD97":2548454.27,"ADDRESS":"八德街５５巷１７號六樓之４","OBJECTID":343722},"geometry":{"x":174212.70000000019,"y":2548454.2700000014}},{"attributes":{"ID":343732,"DIS_CODE":0,"TOWNNAME":"安平區","LI":"育平里","LIN":"35鄰","STREET":"平豐路","SECT":" ","MAREA":" ","LANE":"２３６巷","ALLEY":" ","HOUSE_NO":"２２號三樓之１","E_COORD97":164381.39999999999,"N_COORD97":2543414.2000000002,"ADDRESS":"平豐路２３６巷２２號三樓之１","OBJECTID":343723},"geometry":{"x":164381.40000000037,"y":2543414.1999999993}},{"attributes":{"ID":343733,"DIS_CODE":0,"TOWNNAME":"安平區","LI":"育平里","LIN":"35鄰","STREET":"平豐路","SECT":" ","MAREA":" ","LANE":"２３６巷","ALLEY":" ","HOUSE_NO":"２２號三樓之１０","E_COORD97":164381.39999999999,"N_COORD97":2543414.2000000002,"ADDRESS":"平豐路２３６巷２２號三樓之１０","OBJECTID":343724},"geometry":{"x":164381.40000000037,"y":2543414.1999999993}},{"attributes":{"ID":343734,"DIS_CODE":0,"TOWNNAME":"安平區","LI":"育平里","LIN":"35鄰","STREET":"平豐路","SECT":" ","MAREA":" ","LANE":"２３６巷","ALLEY":" ","HOUSE_NO":"２２號三樓之２","E_COORD97":164381.39999999999,"N_COORD97":2543414.2000000002,"ADDRESS":"平豐路２３６巷２２號三樓之２","OBJECTID":343725},"geometry":{"x":164381.40000000037,"y":2543414.1999999993}},{"attributes":{"ID":343735,"DIS_CODE":0,"TOWNNAME":"安平區","LI":"育平里","LIN":"35鄰","STREET":"平豐路","SECT":" ","MAREA":" ","LANE":"２３６巷","ALLEY":" ","HOUSE_NO":"２２號三樓之３","E_COORD97":164381.39999999999,"N_COORD97":2543414.2000000002,"ADDRESS":"平豐路２３６巷２２號三樓之３","OBJECTID":343726},"geometry":{"x":164381.40000000037,"y":2543414.1999999993}},{"attributes":{"ID":343736,"DIS_CODE":0,"TOWNNAME":"安平區","LI":"育平里","LIN":"35鄰","STREET":"平豐路","SECT":" ","MAREA":" ","LANE":"２３６巷","ALLEY":" ","HOUSE_NO":"２２號三樓之４","E_COORD97":164381.39999999999,"N_COORD97":2543414.2000000002,"ADDRESS":"平豐路２３６巷２２號三樓之４","OBJECTID":343727},"geometry":{"x":164381.40000000037,"y":2543414.1999999993}},{"attributes":{"ID":343737,"DIS_CODE":0,"TOWNNAME":"安平區","LI":"育平里","LIN":"35鄰","STREET":"平豐路","SECT":" ","MAREA":" ","LANE":"２３６巷","ALLEY":" ","HOUSE_NO":"２２號三樓之５","E_COORD97":164381.39999999999,"N_COORD97":2543414.2000000002,"ADDRESS":"平豐路２３６巷２２號三樓之５","OBJECTID":343728},"geometry":{"x":164381.40000000037,"y":2543414.1999999993}},{"attributes":{"ID":343738,"DIS_CODE":0,"TOWNNAME":"安平區","LI":"育平里","LIN":"35鄰","STREET":"平豐路","SECT":" ","MAREA":" ","LANE":"２３６巷","ALLEY":" ","HOUSE_NO":"２２號三樓之６","E_COORD97":164381.39999999999,"N_COORD97":2543414.2000000002,"ADDRESS":"平豐路２３６巷２２號三樓之６","OBJECTID":343729},"geometry":{"x":164381.40000000037,"y":2543414.1999999993}},{"attributes":{"ID":343739,"DIS_CODE":0,"TOWNNAME":"安平區","LI":"育平里","LIN":"35鄰","STREET":"平豐路","SECT":" ","MAREA":" ","LANE":"２３６巷","ALLEY":" ","HOUSE_NO":"２２號三樓之７","E_COORD97":164381.39999999999,"N_COORD97":2543414.2000000002,"ADDRESS":"平豐路２３６巷２２號三樓之７","OBJECTID":343730},"geometry":{"x":164381.40000000037,"y":2543414.1999999993}},{"attributes":{"ID":343740,"DIS_CODE":0,"TOWNNAME":"東區","LI":"德光里","LIN":"8鄰","STREET":"崇明路","SECT":" ","MAREA":" ","LANE":" ","ALLEY":" ","HOUSE_NO":"１９１號十二樓","E_COORD97":169980.26999999999,"N_COORD97":2542101.6400000001,"ADDRESS":"崇明路１９１號十二樓","OBJECTID":343731},"geometry":{"x":169980.26999999955,"y":2542101.6400000043}},{"attributes":{"ID":343741,"DIS_CODE":0,"TOWNNAME":"東區","LI":"德光里","LIN":"8鄰","STREET":"崇明路","SECT":" ","MAREA":" ","LANE":" ","ALLEY":" ","HOUSE_NO":"１９１號十二樓之１","E_COORD97":169980.26999999999,"N_COORD97":2542101.6400000001,"ADDRESS":"崇明路１９１號十二樓之１","OBJECTID":343732},"geometry":{"x":169980.26999999955,"y":2542101.6400000043}},{"attributes":{"ID":343742,"DIS_CODE":0,"TOWNNAME":"新化區","LI":"知義里","LIN":"5鄰","STREET":" ","SECT":" ","MAREA":"知母義","LANE":" ","ALLEY":" ","HOUSE_NO":"７７號","E_COORD97":180087.76999999999,"N_COORD97":2547264.25,"ADDRESS":"知母義７７號","OBJECTID":343733},"geometry":{"x":180087.77000000048,"y":2547264.2500000019}},{"attributes":{"ID":343743,"DIS_CODE":0,"TOWNNAME":"新化區","LI":"豐榮里","LIN":"5鄰","STREET":" ","SECT":" ","MAREA":"洋子","LANE":" ","ALLEY":" ","HOUSE_NO":"１２４號之２","E_COORD97":177828.82999999999,"N_COORD97":2548244.2599999998,"ADDRESS":"洋子１２４號之２","OBJECTID":343734},"geometry":{"x":177828.83000000007,"y":2548244.2600000016}},{"attributes":{"ID":343744,"DIS_CODE":0,"TOWNNAME":"新化區","LI":"羊林里","LIN":"5鄰","STREET":" ","SECT":" ","MAREA":"\u25A0拔林","LANE":" ","ALLEY":" ","HOUSE_NO":"４５８號","E_COORD97":183570.22,"N_COORD97":2551763.25,"ADDRESS":"\u25A0拔林４５８號","OBJECTID":343735},"geometry":{"x":183570.22000000067,"y":2551763.2500000019}},{"attributes":{"ID":343745,"DIS_CODE":0,"TOWNNAME":"新化區","LI":"豐榮里","LIN":"5鄰","STREET":" ","SECT":" ","MAREA":"洋子","LANE":" ","ALLEY":" ","HOUSE_NO":"１２２號","E_COORD97":177864.88,"N_COORD97":2548263.25,"ADDRESS":"洋子１２２號","OBJECTID":343736},"geometry":{"x":177864.88000000082,"y":2548263.25}},{"attributes":{"ID":343746,"DIS_CODE":0,"TOWNNAME":"新化區","LI":"協興里","LIN":"5鄰","STREET":"忠孝路","SECT":" ","MAREA":" ","LANE":"２６９巷","ALLEY":" ","HOUSE_NO":"１０號","E_COORD97":178397.57000000001,"N_COORD97":2548520.25,"ADDRESS":"忠孝路２６９巷１０號","OBJECTID":343737},"geometry":{"x":178397.5700000003,"y":2548520.25}},{"attributes":{"ID":343747,"DIS_CODE":0,"TOWNNAME":"安平區","LI":"育平里","LIN":"35鄰","STREET":"平豐路","SECT":" ","MAREA":" ","LANE":"２３６巷","ALLEY":" ","HOUSE_NO":"２２號三樓之８","E_COORD97":164381.39999999999,"N_COORD97":2543414.2000000002,"ADDRESS":"平豐路２３６巷２２號三樓之８","OBJECTID":343738},"geometry":{"x":164381.40000000037,"y":2543414.1999999993}},{"attributes":{"ID":343748,"DIS_CODE":0,"TOWNNAME":"安平區","LI":"育平里","LIN":"35鄰","STREET":"平豐路","SECT":" ","MAREA":" ","LANE":"２３６巷","ALLEY":" ","HOUSE_NO":"２２號三樓之９","E_COORD97":164381.39999999999,"N_COORD97":2543414.2000000002,"ADDRESS":"平豐路２３６巷２２號三樓之９","OBJECTID":343739},"geometry":{"x":164381.40000000037,"y":2543414.1999999993}},{"attributes":{"ID":343749,"DIS_CODE":0,"TOWNNAME":"安平區","LI":"育平里","LIN":"35鄰","STREET":"平豐路","SECT":" ","MAREA":" ","LANE":"２３６巷","ALLEY":" ","HOUSE_NO":"２２號五樓之１","E_COORD97":164381.39999999999,"N_COORD97":2543414.2000000002,"ADDRESS":"平豐路２３６巷２２號五樓之１","OBJECTID":343740},"geometry":{"x":164381.40000000037,"y":2543414.1999999993}},{"attributes":{"ID":343750,"DIS_CODE":0,"TOWNNAME":"安平區","LI":"育平里","LIN":"35鄰","STREET":"平豐路","SECT":" ","MAREA":" ","LANE":"２３６巷","ALLEY":" ","HOUSE_NO":"２２號五樓之１０","E_COORD97":164381.39999999999,"N_COORD97":2543414.2000000002,"ADDRESS":"平豐路２３６巷２２號五樓之１０","OBJECTID":343741},"geometry":{"x":164381.40000000037,"y":2543414.1999999993}},{"attributes":{"ID":343751,"DIS_CODE":0,"TOWNNAME":"安平區","LI":"育平里","LIN":"35鄰","STREET":"平豐路","SECT":" ","MAREA":" ","LANE":"２３６巷","ALLEY":" ","HOUSE_NO":"２２號五樓之２","E_COORD97":164381.39999999999,"N_COORD97":2543414.2000000002,"ADDRESS":"平豐路２３６巷２２號五樓之２","OBJECTID":343742},"geometry":{"x":164381.40000000037,"y":2543414.1999999993}},{"attributes":{"ID":343752,"DIS_CODE":0,"TOWNNAME":"安平區","LI":"育平里","LIN":"35鄰","STREET":"平豐路","SECT":" ","MAREA":" ","LANE":"２３６巷","ALLEY":" ","HOUSE_NO":"２２號五樓之３","E_COORD97":164381.39999999999,"N_COORD97":2543414.2000000002,"ADDRESS":"平豐路２３６巷２２號五樓之３","OBJECTID":343743},"geometry":{"x":164381.40000000037,"y":2543414.1999999993}},{"attributes":{"ID":343753,"DIS_CODE":0,"TOWNNAME":"安平區","LI":"育平里","LIN":"35鄰","STREET":"平豐路","SECT":" ","MAREA":" ","LANE":"２３６巷","ALLEY":" ","HOUSE_NO":"２２號五樓之４","E_COORD97":164381.39999999999,"N_COORD97":2543414.2000000002,"ADDRESS":"平豐路２３６巷２２號五樓之４","OBJECTID":343744},"geometry":{"x":164381.40000000037,"y":2543414.1999999993}},{"attributes":{"ID":343754,"DIS_CODE":0,"TOWNNAME":"安平區","LI":"育平里","LIN":"35鄰","STREET":"平豐路","SECT":" ","MAREA":" ","LANE":"２３６巷","ALLEY":" ","HOUSE_NO":"２２號五樓之５","E_COORD97":164381.39999999999,"N_COORD97":2543414.2000000002,"ADDRESS":"平豐路２３６巷２２號五樓之５","OBJECTID":343745},"geometry":{"x":164381.40000000037,"y":2543414.1999999993}},{"attributes":{"ID":343755,"DIS_CODE":0,"TOWNNAME":"安平區","LI":"育平里","LIN":"35鄰","STREET":"平豐路","SECT":" ","MAREA":" ","LANE":"２３６巷","ALLEY":" ","HOUSE_NO":"２２號六樓之１","E_COORD97":164381.39999999999,"N_COORD97":2543414.2000000002,"ADDRESS":"平豐路２３６巷２２號六樓之１","OBJECTID":343746},"geometry":{"x":164381.40000000037,"y":2543414.1999999993}},{"attributes":{"ID":343756,"DIS_CODE":0,"TOWNNAME":"東區","LI":"德光里","LIN":"8鄰","STREET":"崇明路","SECT":" ","MAREA":" ","LANE":" ","ALLEY":" ","HOUSE_NO":"１９１號十三樓","E_COORD97":169980.26999999999,"N_COORD97":2542101.6400000001,"ADDRESS":"崇明路１９１號十三樓","OBJECTID":343747},"geometry":{"x":169980.26999999955,"y":2542101.6400000043}},{"attributes":{"ID":343757,"DIS_CODE":0,"TOWNNAME":"佳里區","LI":"鎮山里","LIN":"1鄰","STREET":"四安街","SECT":" ","MAREA":" ","LANE":" ","ALLEY":" ","HOUSE_NO":"３１號","E_COORD97":165870.73999999999,"N_COORD97":2561846.3300000001,"ADDRESS":"四安街３１號","OBJECTID":343748},"geometry":{"x":165870.73999999929,"y":2561846.3300000019}},{"attributes":{"ID":343758,"DIS_CODE":0,"TOWNNAME":"北區","LI":"新勝里","LIN":"5鄰","STREET":"北園街","SECT":" ","MAREA":" ","LANE":"８７巷","ALLEY":" ","HOUSE_NO":"１１號","E_COORD97":170316.66,"N_COORD97":2545646.5099999998,"ADDRESS":"北園街８７巷１１號","OBJECTID":343749},"geometry":{"x":170316.66000000108,"y":2545646.5099999998}},{"attributes":{"ID":343759,"DIS_CODE":0,"TOWNNAME":"北區","LI":"新勝里","LIN":"5鄰","STREET":"北園街","SECT":" ","MAREA":" ","LANE":"８７巷","ALLEY":" ","HOUSE_NO":"１３號","E_COORD97":170314.67999999999,"N_COORD97":2545645.8900000001,"ADDRESS":"北園街８７巷１３號","OBJECTID":343750},"geometry":{"x":170314.6799999997,"y":2545645.8900000006}},{"attributes":{"ID":343760,"DIS_CODE":0,"TOWNNAME":"北區","LI":"新勝里","LIN":"5鄰","STREET":"北園街","SECT":" ","MAREA":" ","LANE":"８７巷","ALLEY":" ","HOUSE_NO":"１５號","E_COORD97":170311.16,"N_COORD97":2545645.27,"ADDRESS":"北園街８７巷１５號","OBJECTID":343751},"geometry":{"x":170311.16000000108,"y":2545645.2699999996}},{"attributes":{"ID":343761,"DIS_CODE":0,"TOWNNAME":"北區","LI":"新勝里","LIN":"5鄰","STREET":"北園街","SECT":" ","MAREA":" ","LANE":"８７巷","ALLEY":" ","HOUSE_NO":"１９號","E_COORD97":170303.5,"N_COORD97":2545644.9399999999,"ADDRESS":"北園街８７巷１９號","OBJECTID":343752},"geometry":{"x":170303.50000000186,"y":2545644.9400000032}},{"attributes":{"ID":343762,"DIS_CODE":0,"TOWNNAME":"安平區","LI":"育平里","LIN":"35鄰","STREET":"平豐路","SECT":" ","MAREA":" ","LANE":"２３６巷","ALLEY":" ","HOUSE_NO":"２２號六樓之１０","E_COORD97":164381.39999999999,"N_COORD97":2543414.2000000002,"ADDRESS":"平豐路２３６巷２２號六樓之１０","OBJECTID":343753},"geometry":{"x":164381.40000000037,"y":2543414.1999999993}},{"attributes":{"ID":343763,"DIS_CODE":0,"TOWNNAME":"安平區","LI":"育平里","LIN":"35鄰","STREET":"平豐路","SECT":" ","MAREA":" ","LANE":"２３６巷","ALLEY":" ","HOUSE_NO":"２２號六樓之２","E_COORD97":164381.39999999999,"N_COORD97":2543414.2000000002,"ADDRESS":"平豐路２３６巷２２號六樓之２","OBJECTID":343754},"geometry":{"x":164381.40000000037,"y":2543414.1999999993}},{"attributes":{"ID":343764,"DIS_CODE":0,"TOWNNAME":"安平區","LI":"育平里","LIN":"35鄰","STREET":"平豐路","SECT":" ","MAREA":" ","LANE":"２３６巷","ALLEY":" ","HOUSE_NO":"２２號六樓之３","E_COORD97":164381.39999999999,"N_COORD97":2543414.2000000002,"ADDRESS":"平豐路２３６巷２２號六樓之３","OBJECTID":343755},"geometry":{"x":164381.40000000037,"y":2543414.1999999993}},{"attributes":{"ID":343765,"DIS_CODE":0,"TOWNNAME":"永康區","LI":"崑山里","LIN":" ","STREET":"大仁街","SECT":" ","MAREA":" ","LANE":" ","ALLEY":" ","HOUSE_NO":"２０３之３號","E_COORD97":173924.04999999999,"N_COORD97":2545061.9900000002,"ADDRESS":"大仁街２０３之３號","OBJECTID":343756},"geometry":{"x":173924.05000000075,"y":2545061.9900000039}},{"attributes":{"ID":343766,"DIS_CODE":0,"TOWNNAME":"安平區","LI":"育平里","LIN":"35鄰","STREET":"平豐路","SECT":" ","MAREA":" ","LANE":"２３６巷","ALLEY":" ","HOUSE_NO":"２２號六樓之４","E_COORD97":164381.39999999999,"N_COORD97":2543414.2000000002,"ADDRESS":"平豐路２３６巷２２號六樓之４","OBJECTID":343757},"geometry":{"x":164381.40000000037,"y":2543414.1999999993}},{"attributes":{"ID":343767,"DIS_CODE":0,"TOWNNAME":"安平區","LI":"育平里","LIN":"35鄰","STREET":"平豐路","SECT":" ","MAREA":" ","LANE":"２３６巷","ALLEY":" ","HOUSE_NO":"２２號六樓之５","E_COORD97":164381.39999999999,"N_COORD97":2543414.2000000002,"ADDRESS":"平豐路２３６巷２２號六樓之５","OBJECTID":343758},"geometry":{"x":164381.40000000037,"y":2543414.1999999993}},{"attributes":{"ID":343768,"DIS_CODE":0,"TOWNNAME":"安平區","LI":"育平里","LIN":"35鄰","STREET":"平豐路","SECT":" ","MAREA":" ","LANE":"２３６巷","ALLEY":" ","HOUSE_NO":"２２號六樓之６","E_COORD97":164381.39999999999,"N_COORD97":2543414.2000000002,"ADDRESS":"平豐路２３６巷２２號六樓之６","OBJECTID":343759},"geometry":{"x":164381.40000000037,"y":2543414.1999999993}},{"attributes":{"ID":343769,"DIS_CODE":0,"TOWNNAME":"安平區","LI":"育平里","LIN":"35鄰","STREET":"平豐路","SECT":" ","MAREA":" ","LANE":"２３６巷","ALLEY":" ","HOUSE_NO":"２２號六樓之７","E_COORD97":164381.39999999999,"N_COORD97":2543414.2000000002,"ADDRESS":"平豐路２３６巷２２號六樓之７","OBJECTID":343760},"geometry":{"x":164381.40000000037,"y":2543414.1999999993}},{"attributes":{"ID":343770,"DIS_CODE":0,"TOWNNAME":"安平區","LI":"育平里","LIN":"35鄰","STREET":"平豐路","SECT":" ","MAREA":" ","LANE":"２３６巷","ALLEY":" ","HOUSE_NO":"２２號六樓之８","E_COORD97":164381.39999999999,"N_COORD97":2543414.2000000002,"ADDRESS":"平豐路２３６巷２２號六樓之８","OBJECTID":343761},"geometry":{"x":164381.40000000037,"y":2543414.1999999993}},{"attributes":{"ID":343771,"DIS_CODE":0,"TOWNNAME":"安平區","LI":"育平里","LIN":"35鄰","STREET":"平豐路","SECT":" ","MAREA":" ","LANE":"２３６巷","ALLEY":" ","HOUSE_NO":"２２號六樓之９","E_COORD97":164381.39999999999,"N_COORD97":2543414.2000000002,"ADDRESS":"平豐路２３６巷２２號六樓之９","OBJECTID":343762},"geometry":{"x":164381.40000000037,"y":2543414.1999999993}},{"attributes":{"ID":343772,"DIS_CODE":0,"TOWNNAME":"東區","LI":"德光里","LIN":"8鄰","STREET":"崇明路","SECT":" ","MAREA":" ","LANE":" ","ALLEY":" ","HOUSE_NO":"１９１號十三樓之１","E_COORD97":169980.26999999999,"N_COORD97":2542101.6400000001,"ADDRESS":"崇明路１９１號十三樓之１","OBJECTID":343763},"geometry":{"x":169980.26999999955,"y":2542101.6400000043}},{"attributes":{"ID":343773,"DIS_CODE":0,"TOWNNAME":"東區","LI":"德光里","LIN":"8鄰","STREET":"崇明路","SECT":" ","MAREA":" ","LANE":" ","ALLEY":" ","HOUSE_NO":"１９１號十樓","E_COORD97":169980.26999999999,"N_COORD97":2542101.6400000001,"ADDRESS":"崇明路１９１號十樓","OBJECTID":343764},"geometry":{"x":169980.26999999955,"y":2542101.6400000043}},{"attributes":{"ID":343774,"DIS_CODE":0,"TOWNNAME":"東區","LI":"德光里","LIN":"8鄰","STREET":"崇明路","SECT":" ","MAREA":" ","LANE":" ","ALLEY":" ","HOUSE_NO":"１９１號十樓之１","E_COORD97":169980.26999999999,"N_COORD97":2542101.6400000001,"ADDRESS":"崇明路１９１號十樓之１","OBJECTID":343765},"geometry":{"x":169980.26999999955,"y":2542101.6400000043}},{"attributes":{"ID":343775,"DIS_CODE":0,"TOWNNAME":"東區","LI":"德光里","LIN":"8鄰","STREET":"崇明路","SECT":" ","MAREA":" ","LANE":" ","ALLEY":" ","HOUSE_NO":"１９１號三樓","E_COORD97":169980.26999999999,"N_COORD97":2542101.6400000001,"ADDRESS":"崇明路１９１號三樓","OBJECTID":343766},"geometry":{"x":169980.26999999955,"y":2542101.6400000043}},{"attributes":{"ID":343776,"DIS_CODE":0,"TOWNNAME":"鹽水區","LI":"橋南里","LIN":"5鄰","STREET":"行昌路","SECT":" ","MAREA":" ","LANE":"４５巷","ALLEY":" ","HOUSE_NO":"１９號","E_COORD97":175236.22,"N_COORD97":2579345.3399999999,"ADDRESS":"行昌路４５巷１９號","OBJECTID":343767},"geometry":{"x":175236.21999999974,"y":2579345.3399999999}},{"attributes":{"ID":343777,"DIS_CODE":0,"TOWNNAME":"鹽水區","LI":"橋南里","LIN":"5鄰","STREET":"行昌路","SECT":" ","MAREA":" ","LANE":"４５巷","ALLEY":" ","HOUSE_NO":"９號","E_COORD97":175229.17000000001,"N_COORD97":2579364.8700000001,"ADDRESS":"行昌路４５巷９號","OBJECTID":343768},"geometry":{"x":175229.17000000086,"y":2579364.8700000029}},{"attributes":{"ID":343778,"DIS_CODE":0,"TOWNNAME":"鹽水區","LI":"橋南里","LIN":"5鄰","STREET":"行昌路","SECT":" ","MAREA":" ","LANE":"６７巷","ALLEY":" ","HOUSE_NO":"１８號","E_COORD97":175252.14000000001,"N_COORD97":2579369.29,"ADDRESS":"行昌路６７巷１８號","OBJECTID":343769},"geometry":{"x":175252.14000000153,"y":2579369.2900000028}},{"attributes":{"ID":343779,"DIS_CODE":0,"TOWNNAME":"鹽水區","LI":"橋南里","LIN":"5鄰","STREET":"行昌路","SECT":" ","MAREA":" ","LANE":"６７巷","ALLEY":" ","HOUSE_NO":"１９號","E_COORD97":175294.14999999999,"N_COORD97":2579372.2400000002,"ADDRESS":"行昌路６７巷１９號","OBJECTID":343770},"geometry":{"x":175294.1500000013,"y":2579372.2400000021}},{"attributes":{"ID":343780,"DIS_CODE":0,"TOWNNAME":"鹽水區","LI":"橋南里","LIN":"5鄰","STREET":"行昌路","SECT":" ","MAREA":" ","LANE":"６７巷","ALLEY":" ","HOUSE_NO":"２０號","E_COORD97":175253.34,"N_COORD97":2579365.7400000002,"ADDRESS":"行昌路６７巷２０號","OBJECTID":343771},"geometry":{"x":175253.34000000078,"y":2579365.7400000021}},{"attributes":{"ID":343781,"DIS_CODE":0,"TOWNNAME":"鹽水區","LI":"橋南里","LIN":"5鄰","STREET":"行昌路","SECT":" ","MAREA":" ","LANE":"６７巷","ALLEY":" ","HOUSE_NO":"２１號","E_COORD97":175295.76000000001,"N_COORD97":2579368.8999999999,"ADDRESS":"行昌路６７巷２１號","OBJECTID":343772},"geometry":{"x":175295.76000000071,"y":2579368.9000000004}},{"attributes":{"ID":343782,"DIS_CODE":0,"TOWNNAME":"鹽水區","LI":"橋南里","LIN":"5鄰","STREET":"行昌路","SECT":" ","MAREA":" ","LANE":"６７巷","ALLEY":" ","HOUSE_NO":"２２號","E_COORD97":175254.45000000001,"N_COORD97":2579362.2000000002,"ADDRESS":"行昌路６７巷２２號","OBJECTID":343773},"geometry":{"x":175254.45000000112,"y":2579362.1999999993}},{"attributes":{"ID":343783,"DIS_CODE":0,"TOWNNAME":"鹽水區","LI":"橋南里","LIN":"5鄰","STREET":"行昌路","SECT":" ","MAREA":" ","LANE":"６７巷","ALLEY":" ","HOUSE_NO":"２３號","E_COORD97":175297.42999999999,"N_COORD97":2579365.2200000002,"ADDRESS":"行昌路６７巷２３號","OBJECTID":343774},"geometry":{"x":175297.4299999997,"y":2579365.2200000025}},{"attributes":{"ID":343784,"DIS_CODE":0,"TOWNNAME":"鹽水區","LI":"橋南里","LIN":"5鄰","STREET":"行昌路","SECT":" ","MAREA":" ","LANE":"６７巷","ALLEY":" ","HOUSE_NO":"２４號","E_COORD97":175255.73999999999,"N_COORD97":2579358.6400000001,"ADDRESS":"行昌路６７巷２４號","OBJECTID":343775},"geometry":{"x":175255.74000000115,"y":2579358.6400000043}},{"attributes":{"ID":343785,"DIS_CODE":0,"TOWNNAME":"鹽水區","LI":"橋南里","LIN":"5鄰","STREET":"行昌路","SECT":" ","MAREA":" ","LANE":"６７巷","ALLEY":" ","HOUSE_NO":"２５號","E_COORD97":175299.59,"N_COORD97":2579361.5899999999,"ADDRESS":"行昌路６７巷２５號","OBJECTID":343776},"geometry":{"x":175299.58999999985,"y":2579361.5900000036}},{"attributes":{"ID":343786,"DIS_CODE":0,"TOWNNAME":"鹽水區","LI":"橋南里","LIN":"5鄰","STREET":"行昌路","SECT":" ","MAREA":" ","LANE":"６７巷","ALLEY":" ","HOUSE_NO":"２７號","E_COORD97":175301.56,"N_COORD97":2579358.02,"ADDRESS":"行昌路６７巷２７號","OBJECTID":343777},"geometry":{"x":175301.55999999959,"y":2579358.0199999977}},{"attributes":{"ID":343787,"DIS_CODE":0,"TOWNNAME":"永康區","LI":"\u25A0洲里","LIN":"32鄰","STREET":"\u25A0行路","SECT":" ","MAREA":" ","LANE":" ","ALLEY":" ","HOUSE_NO":"２４７號","E_COORD97":171165.57000000001,"N_COORD97":2548988.7400000002,"ADDRESS":"\u25A0行路２４７號","OBJECTID":343778},"geometry":{"x":171165.5700000003,"y":2548988.7400000002}},{"attributes":{"ID":343788,"DIS_CODE":0,"TOWNNAME":"永康區","LI":"復國里","LIN":"13鄰","STREET":"復華三街","SECT":" ","MAREA":" ","LANE":" ","ALLEY":" ","HOUSE_NO":"６之３號","E_COORD97":172951.42000000001,"N_COORD97":2545577.0499999998,"ADDRESS":"復華三街６之３號","OBJECTID":343779},"geometry":{"x":172951.41999999993,"y":2545577.0500000007}},{"attributes":{"ID":343789,"DIS_CODE":0,"TOWNNAME":"永康區","LI":"烏竹里","LIN":" ","STREET":"龍橋街","SECT":" ","MAREA":" ","LANE":" ","ALLEY":" ","HOUSE_NO":"２２２號","E_COORD97":174591.17999999999,"N_COORD97":2548817.27,"ADDRESS":"龍橋街２２２號","OBJECTID":343780},"geometry":{"x":174591.18000000063,"y":2548817.2700000014}},{"attributes":{"ID":343790,"DIS_CODE":0,"TOWNNAME":"永康區","LI":"復華里","LIN":" ","STREET":"復華三街","SECT":" ","MAREA":" ","LANE":" ","ALLEY":" ","HOUSE_NO":"９５號","E_COORD97":172576.04000000001,"N_COORD97":2545535.77,"ADDRESS":"復華三街９５號","OBJECTID":343781},"geometry":{"x":172576.04000000004,"y":2545535.7699999996}},{"attributes":{"ID":343791,"DIS_CODE":0,"TOWNNAME":"鹽水區","LI":"田寮里","LIN":"5鄰","STREET":" ","SECT":" ","MAREA":"田寮","LANE":" ","ALLEY":" ","HOUSE_NO":"５１之１號","E_COORD97":171118.12,"N_COORD97":2575183.23,"ADDRESS":"田寮５１之１號","OBJECTID":343782},"geometry":{"x":171118.12000000197,"y":2575183.2300000004}},{"attributes":{"ID":343792,"DIS_CODE":0,"TOWNNAME":"永康區","LI":"\u25A0洲里","LIN":"20鄰","STREET":"中正南路","SECT":" ","MAREA":" ","LANE":" ","ALLEY":" ","HOUSE_NO":"８０１號","E_COORD97":171711.47,"N_COORD97":2548983.2400000002,"ADDRESS":"中正南路８０１號","OBJECTID":343783},"geometry":{"x":171711.46999999974,"y":2548983.2400000039}},{"attributes":{"ID":343793,"DIS_CODE":0,"TOWNNAME":"永康區","LI":"勝利里","LIN":"25鄰","STREET":"中華路","SECT":" ","MAREA":" ","LANE":" ","ALLEY":" ","HOUSE_NO":"１４９號","E_COORD97":171573.13,"N_COORD97":2544859.5,"ADDRESS":"中華路１４９號","OBJECTID":343784},"geometry":{"x":171573.12999999989,"y":2544859.5000000019}},{"attributes":{"ID":343794,"DIS_CODE":0,"TOWNNAME":"永康區","LI":"\u25A0洲里","LIN":"40鄰","STREET":"洲尾街","SECT":" ","MAREA":" ","LANE":" ","ALLEY":" ","HOUSE_NO":"６８號","E_COORD97":171091.41,"N_COORD97":2548693.5099999998,"ADDRESS":"洲尾街６８號","OBJECTID":343785},"geometry":{"x":171091.41000000108,"y":2548693.5100000016}},{"attributes":{"ID":343795,"DIS_CODE":0,"TOWNNAME":"永康區","LI":"崑山里","LIN":" ","STREET":"大仁街","SECT":" ","MAREA":" ","LANE":" ","ALLEY":" ","HOUSE_NO":"２２１之５號","E_COORD97":173945.42000000001,"N_COORD97":2545123.6600000001,"ADDRESS":"大仁街２２１之５號","OBJECTID":343786},"geometry":{"x":173945.42000000086,"y":2545123.6600000001}},{"attributes":{"ID":343796,"DIS_CODE":0,"TOWNNAME":"永康區","LI":"永康里","LIN":" ","STREET":"中山北路","SECT":" ","MAREA":" ","LANE":" ","ALLEY":" ","HOUSE_NO":"１９號","E_COORD97":173930.32999999999,"N_COORD97":2547380.1099999999,"ADDRESS":"中山北路１９號","OBJECTID":343787},"geometry":{"x":173930.33000000007,"y":2547380.1100000013}},{"attributes":{"ID":343797,"DIS_CODE":0,"TOWNNAME":"永康區","LI":"三民里","LIN":" ","STREET":"和平東路","SECT":" ","MAREA":" ","LANE":" ","ALLEY":" ","HOUSE_NO":"９９９號","E_COORD97":175331.51000000001,"N_COORD97":2550457,"ADDRESS":"和平東路９９９號","OBJECTID":343788},"geometry":{"x":175331.51000000071,"y":2550457.0000000019}},{"attributes":{"ID":343798,"DIS_CODE":0,"TOWNNAME":"永康區","LI":"蔦松里","LIN":" ","STREET":"蔦松一街","SECT":" ","MAREA":" ","LANE":" ","ALLEY":" ","HOUSE_NO":"７１號","E_COORD97":173827.81,"N_COORD97":2549473.7400000002,"ADDRESS":"蔦松一街７１號","OBJECTID":343789},"geometry":{"x":173827.80999999959,"y":2549473.7400000002}},{"attributes":{"ID":343799,"DIS_CODE":0,"TOWNNAME":"永康區","LI":"六合里","LIN":" ","STREET":"新興街","SECT":" ","MAREA":" ","LANE":" ","ALLEY":" ","HOUSE_NO":"６９號","E_COORD97":171011.14999999999,"N_COORD97":2545784.0099999998,"ADDRESS":"新興街６９號","OBJECTID":343790},"geometry":{"x":171011.15000000037,"y":2545784.0100000016}},{"attributes":{"ID":343800,"DIS_CODE":0,"TOWNNAME":"鹽水區","LI":"福得里","LIN":"5鄰","STREET":" ","SECT":" ","MAREA":"後厝","LANE":" ","ALLEY":" ","HOUSE_NO":"１００號","E_COORD97":175373.75,"N_COORD97":2579844.2599999998,"ADDRESS":"後厝１００號","OBJECTID":343791},"geometry":{"x":175373.75000000186,"y":2579844.2599999998}},{"attributes":{"ID":343801,"DIS_CODE":0,"TOWNNAME":"鹽水區","LI":"福得里","LIN":"5鄰","STREET":" ","SECT":" ","MAREA":"後厝","LANE":" ","ALLEY":" ","HOUSE_NO":"１０１號","E_COORD97":175370.35000000001,"N_COORD97":2579848.4700000002,"ADDRESS":"後厝１０１號","OBJECTID":343792},"geometry":{"x":175370.34999999963,"y":2579848.4700000025}},{"attributes":{"ID":343802,"DIS_CODE":0,"TOWNNAME":"鹽水區","LI":"福得里","LIN":"5鄰","STREET":" ","SECT":" ","MAREA":"後厝","LANE":" ","ALLEY":" ","HOUSE_NO":"１１３號","E_COORD97":175355.04000000001,"N_COORD97":2579873.7200000002,"ADDRESS":"後厝１１３號","OBJECTID":343793},"geometry":{"x":175355.0400000019,"y":2579873.7200000025}},{"attributes":{"ID":343803,"DIS_CODE":0,"TOWNNAME":"鹽水區","LI":"福得里","LIN":"5鄰","STREET":" ","SECT":" ","MAREA":"後厝","LANE":" ","ALLEY":" ","HOUSE_NO":"１０２號","E_COORD97":175367.63,"N_COORD97":2579852.6800000002,"ADDRESS":"後厝１０２號","OBJECTID":343794},"geometry":{"x":175367.63000000175,"y":2579852.6800000016}},{"attributes":{"ID":343804,"DIS_CODE":0,"TOWNNAME":"鹽水區","LI":"福得里","LIN":"5鄰","STREET":" ","SECT":" ","MAREA":"後厝","LANE":" ","ALLEY":" ","HOUSE_NO":"１０３號","E_COORD97":175364.91,"N_COORD97":2579856.8900000001,"ADDRESS":"後厝１０３號","OBJECTID":343795},"geometry":{"x":175364.91000000108,"y":2579856.8900000006}},{"attributes":{"ID":343805,"DIS_CODE":0,"TOWNNAME":"鹽水區","LI":"福得里","LIN":"5鄰","STREET":" ","SECT":" ","MAREA":"後厝","LANE":" ","ALLEY":" ","HOUSE_NO":"１０４號","E_COORD97":175362.20000000001,"N_COORD97":2579861.1000000001,"ADDRESS":"後厝１０４號","OBJECTID":343796},"geometry":{"x":175362.20000000019,"y":2579861.1000000015}},{"attributes":{"ID":343806,"DIS_CODE":0,"TOWNNAME":"鹽水區","LI":"水仙里","LIN":"5鄰","STREET":"西門路","SECT":" ","MAREA":" ","LANE":"１８巷","ALLEY":" ","HOUSE_NO":"３之１號","E_COORD97":174985.07999999999,"N_COORD97":2579777.6299999999,"ADDRESS":"西門路１８巷３之１號","OBJECTID":343797},"geometry":{"x":174985.08000000194,"y":2579777.6300000008}},{"attributes":{"ID":343807,"DIS_CODE":0,"TOWNNAME":"安平區","LI":"漁光里","LIN":"5鄰","STREET":"漁光路","SECT":" ","MAREA":" ","LANE":"８９巷","ALLEY":" ","HOUSE_NO":"４３號","E_COORD97":163830.66,"N_COORD97":2541981.77,"ADDRESS":"漁光路８９巷４３號","OBJECTID":343798},"geometry":{"x":163830.66000000108,"y":2541981.7700000014}},{"attributes":{"ID":343808,"DIS_CODE":0,"TOWNNAME":"永康區","LI":"蔦松里","LIN":" ","STREET":"蔦松三街","SECT":" ","MAREA":" ","LANE":" ","ALLEY":" ","HOUSE_NO":"２０號","E_COORD97":173791.75,"N_COORD97":2549600.4900000002,"ADDRESS":"蔦松三街２０號","OBJECTID":343799},"geometry":{"x":173791.75,"y":2549600.4900000002}},{"attributes":{"ID":343809,"DIS_CODE":0,"TOWNNAME":"永康區","LI":"崑山里","LIN":" ","STREET":"大灣路","SECT":" ","MAREA":" ","LANE":" ","ALLEY":" ","HOUSE_NO":"７０９號","E_COORD97":173937.32000000001,"N_COORD97":2544464.48,"ADDRESS":"大灣路７０９號","OBJECTID":343800},"geometry":{"x":173937.3200000003,"y":2544464.4800000004}}]}