{"displayFieldName":"TOWNNAME","fieldAliases":{"ID":"ID","DIS_CODE":"DIS_CODE","TOWNNAME":"TOWNNAME","LI":"LI","LIN":"LIN","STREET":"STREET","SECT":"SECT","MAREA":"MAREA","LANE":"LANE","ALLEY":"ALLEY","HOUSE_NO":"HOUSE_NO","E_COORD97":"E_COORD97","N_COORD97":"N_COORD97","ADDRESS":"ADDRESS","OBJECTID":"OBJECTID"},"geometryType":"esriGeometryPoint","spatialReference":{"wkid":102443,"latestWkid":3826},"fields":[{"name":"ID","type":"esriFieldTypeDouble","alias":"ID"},{"name":"DIS_CODE","type":"esriFieldTypeInteger","alias":"DIS_CODE"},{"name":"TOWNNAME","type":"esriFieldTypeString","alias":"TOWNNAME","length":8},{"name":"LI","type":"esriFieldTypeString","alias":"LI","length":8},{"name":"LIN","type":"esriFieldTypeString","alias":"LIN","length":12},{"name":"STREET","type":"esriFieldTypeString","alias":"STREET","length":20},{"name":"SECT","type":"esriFieldTypeString","alias":"SECT","length":8},{"name":"MAREA","type":"esriFieldTypeString","alias":"MAREA","length":12},{"name":"LANE","type":"esriFieldTypeString","alias":"LANE","length":10},{"name":"ALLEY","type":"esriFieldTypeString","alias":"ALLEY","length":10},{"name":"HOUSE_NO","type":"esriFieldTypeString","alias":"HOUSE_NO","length":20},{"name":"E_COORD97","type":"esriFieldTypeDouble","alias":"E_COORD97"},{"name":"N_COORD97","type":"esriFieldTypeDouble","alias":"N_COORD97"},{"name":"ADDRESS","type":"esriFieldTypeString","alias":"ADDRESS","length":50},{"name":"OBJECTID","type":"esriFieldTypeOID","alias":"OBJECTID"}],"features":[{"attributes":{"ID":600028,"DIS_CODE":0,"TOWNNAME":"安平區","LI":"建平里","LIN":"22鄰","STREET":"永華三街","SECT":" ","MAREA":" ","LANE":" ","ALLEY":" ","HOUSE_NO":"６０號","E_COORD97":166102.23000000001,"N_COORD97":2543589.7599999998,"ADDRESS":"永華三街６０號","OBJECTID":600001},"geometry":{"x":166102.23000000138,"y":2543589.7600000016}},{"attributes":{"ID":600029,"DIS_CODE":0,"TOWNNAME":"安平區","LI":"建平里","LIN":"22鄰","STREET":"永華三街","SECT":" ","MAREA":" ","LANE":" ","ALLEY":" ","HOUSE_NO":"６８號","E_COORD97":166105.01000000001,"N_COORD97":2543607.1600000001,"ADDRESS":"永華三街６８號","OBJECTID":600002},"geometry":{"x":166105.01000000071,"y":2543607.160000002}},{"attributes":{"ID":600030,"DIS_CODE":0,"TOWNNAME":"安平區","LI":"建平里","LIN":"22鄰","STREET":"永華三街","SECT":" ","MAREA":" ","LANE":" ","ALLEY":" ","HOUSE_NO":"７０號","E_COORD97":166106.57999999999,"N_COORD97":2543611.3500000001,"ADDRESS":"永華三街７０號","OBJECTID":600003},"geometry":{"x":166106.58000000007,"y":2543611.3500000034}},{"attributes":{"ID":600031,"DIS_CODE":0,"TOWNNAME":"安平區","LI":"建平里","LIN":"22鄰","STREET":"永華三街","SECT":" ","MAREA":" ","LANE":" ","ALLEY":" ","HOUSE_NO":"７２號","E_COORD97":166107.37,"N_COORD97":2543615.8199999998,"ADDRESS":"永華三街７２號","OBJECTID":600004},"geometry":{"x":166107.37000000104,"y":2543615.820000004}},{"attributes":{"ID":600032,"DIS_CODE":0,"TOWNNAME":"學甲區","LI":"慈福里","LIN":"22鄰","STREET":"濟生路","SECT":" ","MAREA":" ","LANE":" ","ALLEY":" ","HOUSE_NO":"１０２號","E_COORD97":166244.01999999999,"N_COORD97":2570302.6499999999,"ADDRESS":"濟生路１０２號","OBJECTID":600005},"geometry":{"x":166244.01999999955,"y":2570302.6500000041}},{"attributes":{"ID":600033,"DIS_CODE":0,"TOWNNAME":"學甲區","LI":"慈福里","LIN":"22鄰","STREET":"濟生路","SECT":" ","MAREA":" ","LANE":" ","ALLEY":" ","HOUSE_NO":"１０４號","E_COORD97":166239.26999999999,"N_COORD97":2570303.29,"ADDRESS":"濟生路１０４號","OBJECTID":600006},"geometry":{"x":166239.26999999955,"y":2570303.2899999972}},{"attributes":{"ID":600034,"DIS_CODE":0,"TOWNNAME":"學甲區","LI":"慈福里","LIN":"22鄰","STREET":"濟生路","SECT":" ","MAREA":" ","LANE":" ","ALLEY":" ","HOUSE_NO":"１０６號","E_COORD97":166236.10000000001,"N_COORD97":2570303.73,"ADDRESS":"濟生路１０６號","OBJECTID":600007},"geometry":{"x":166236.10000000056,"y":2570303.7300000004}},{"attributes":{"ID":600035,"DIS_CODE":0,"TOWNNAME":"學甲區","LI":"慈福里","LIN":"22鄰","STREET":"濟生路","SECT":" ","MAREA":" ","LANE":" ","ALLEY":" ","HOUSE_NO":"１０８號","E_COORD97":166232.59,"N_COORD97":2570304.29,"ADDRESS":"濟生路１０８號","OBJECTID":600008},"geometry":{"x":166232.59000000171,"y":2570304.290000001}},{"attributes":{"ID":600036,"DIS_CODE":0,"TOWNNAME":"學甲區","LI":"慈福里","LIN":"22鄰","STREET":"濟生路","SECT":" ","MAREA":" ","LANE":" ","ALLEY":" ","HOUSE_NO":"１１０號","E_COORD97":166229.14999999999,"N_COORD97":2570305.6600000001,"ADDRESS":"濟生路１１０號","OBJECTID":600009},"geometry":{"x":166229.15000000037,"y":2570305.6600000039}},{"attributes":{"ID":600037,"DIS_CODE":0,"TOWNNAME":"學甲區","LI":"慈福里","LIN":"22鄰","STREET":"濟生路","SECT":" ","MAREA":" ","LANE":" ","ALLEY":" ","HOUSE_NO":"８８號之１","E_COORD97":166291.73000000001,"N_COORD97":2570291.5600000001,"ADDRESS":"濟生路８８號之１","OBJECTID":600010},"geometry":{"x":166291.73000000138,"y":2570291.5600000005}},{"attributes":{"ID":600038,"DIS_CODE":0,"TOWNNAME":"學甲區","LI":"慈福里","LIN":"22鄰","STREET":"濟生路","SECT":" ","MAREA":" ","LANE":" ","ALLEY":" ","HOUSE_NO":"８８號","E_COORD97":166299.48000000001,"N_COORD97":2570290.4700000002,"ADDRESS":"濟生路８８號","OBJECTID":600011},"geometry":{"x":166299.48000000045,"y":2570290.4700000044}},{"attributes":{"ID":600039,"DIS_CODE":0,"TOWNNAME":"學甲區","LI":"慈福里","LIN":"22鄰","STREET":"濟生路","SECT":" ","MAREA":" ","LANE":" ","ALLEY":" ","HOUSE_NO":"９０號","E_COORD97":166286.51999999999,"N_COORD97":2570292.25,"ADDRESS":"濟生路９０號","OBJECTID":600012},"geometry":{"x":166286.51999999955,"y":2570292.2500000019}},{"attributes":{"ID":600040,"DIS_CODE":0,"TOWNNAME":"學甲區","LI":"慈福里","LIN":"22鄰","STREET":"濟生路","SECT":" ","MAREA":" ","LANE":" ","ALLEY":" ","HOUSE_NO":"９２號之１","E_COORD97":166281.32000000001,"N_COORD97":2570293.3599999999,"ADDRESS":"濟生路９２號之１","OBJECTID":600013},"geometry":{"x":166281.32000000123,"y":2570293.3600000031}},{"attributes":{"ID":600041,"DIS_CODE":0,"TOWNNAME":"學甲區","LI":"慈福里","LIN":"22鄰","STREET":"濟生路","SECT":" ","MAREA":" ","LANE":" ","ALLEY":" ","HOUSE_NO":"９２號","E_COORD97":166277.04000000001,"N_COORD97":2570294.29,"ADDRESS":"濟生路９２號","OBJECTID":600014},"geometry":{"x":166277.03999999911,"y":2570294.290000001}},{"attributes":{"ID":600042,"DIS_CODE":0,"TOWNNAME":"學甲區","LI":"慈福里","LIN":"22鄰","STREET":"濟生路","SECT":" ","MAREA":" ","LANE":" ","ALLEY":" ","HOUSE_NO":"９２號","E_COORD97":166281.84,"N_COORD97":2570317.9900000002,"ADDRESS":"濟生路９２號","OBJECTID":600015},"geometry":{"x":166281.84000000171,"y":2570317.9900000021}},{"attributes":{"ID":600043,"DIS_CODE":0,"TOWNNAME":"學甲區","LI":"慈福里","LIN":"22鄰","STREET":"濟生路","SECT":" ","MAREA":" ","LANE":" ","ALLEY":" ","HOUSE_NO":"９４號之１","E_COORD97":166265.76999999999,"N_COORD97":2570297.3399999999,"ADDRESS":"濟生路９４號之１","OBJECTID":600016},"geometry":{"x":166265.76999999955,"y":2570297.3400000036}},{"attributes":{"ID":600044,"DIS_CODE":0,"TOWNNAME":"學甲區","LI":"慈福里","LIN":"22鄰","STREET":"濟生路","SECT":" ","MAREA":" ","LANE":" ","ALLEY":" ","HOUSE_NO":"９４號之２","E_COORD97":166260.97,"N_COORD97":2570318.7799999998,"ADDRESS":"濟生路９４號之２","OBJECTID":600017},"geometry":{"x":166260.97000000067,"y":2570318.7800000012}},{"attributes":{"ID":600045,"DIS_CODE":0,"TOWNNAME":"學甲區","LI":"慈福里","LIN":"22鄰","STREET":"濟生路","SECT":" ","MAREA":" ","LANE":" ","ALLEY":" ","HOUSE_NO":"９４號之５","E_COORD97":166252.98000000001,"N_COORD97":2570328.3399999999,"ADDRESS":"濟生路９４號之５","OBJECTID":600018},"geometry":{"x":166252.98000000138,"y":2570328.3400000017}},{"attributes":{"ID":600046,"DIS_CODE":0,"TOWNNAME":"學甲區","LI":"慈福里","LIN":"22鄰","STREET":"濟生路","SECT":" ","MAREA":" ","LANE":" ","ALLEY":" ","HOUSE_NO":"９４號之６","E_COORD97":166259,"N_COORD97":2570297.7999999998,"ADDRESS":"濟生路９４號之６","OBJECTID":600019},"geometry":{"x":166259.00000000093,"y":2570297.8000000007}},{"attributes":{"ID":600047,"DIS_CODE":0,"TOWNNAME":"學甲區","LI":"慈福里","LIN":"22鄰","STREET":"濟生路","SECT":" ","MAREA":" ","LANE":" ","ALLEY":" ","HOUSE_NO":"９４號","E_COORD97":166271.32000000001,"N_COORD97":2570296.3999999999,"ADDRESS":"濟生路９４號","OBJECTID":600020},"geometry":{"x":166271.3200000003,"y":2570296.4000000004}},{"attributes":{"ID":600048,"DIS_CODE":0,"TOWNNAME":"學甲區","LI":"慈福里","LIN":"22鄰","STREET":"濟生路","SECT":" ","MAREA":" ","LANE":" ","ALLEY":" ","HOUSE_NO":"９８號","E_COORD97":166252.67999999999,"N_COORD97":2570299.9300000002,"ADDRESS":"濟生路９８號","OBJECTID":600021},"geometry":{"x":166252.68000000063,"y":2570299.9300000034}},{"attributes":{"ID":600049,"DIS_CODE":0,"TOWNNAME":"北區","LI":"文元里","LIN":"22鄰","STREET":"文成路","SECT":" ","MAREA":" ","LANE":" ","ALLEY":" ","HOUSE_NO":"６３９號","E_COORD97":167809.22,"N_COORD97":2545865.5899999999,"ADDRESS":"文成路６３９號","OBJECTID":600022},"geometry":{"x":167809.21999999974,"y":2545865.5900000017}},{"attributes":{"ID":600050,"DIS_CODE":0,"TOWNNAME":"北區","LI":"文元里","LIN":"22鄰","STREET":"文成路","SECT":" ","MAREA":" ","LANE":" ","ALLEY":" ","HOUSE_NO":"６４１號","E_COORD97":167802.23999999999,"N_COORD97":2545865.3999999999,"ADDRESS":"文成路６４１號","OBJECTID":600023},"geometry":{"x":167802.24000000115,"y":2545865.4000000004}},{"attributes":{"ID":600051,"DIS_CODE":0,"TOWNNAME":"北區","LI":"文元里","LIN":"22鄰","STREET":"文成路","SECT":" ","MAREA":" ","LANE":" ","ALLEY":" ","HOUSE_NO":"６４３號","E_COORD97":167792.17000000001,"N_COORD97":2545865.0099999998,"ADDRESS":"文成路６４３號","OBJECTID":600024},"geometry":{"x":167792.17000000086,"y":2545865.0100000035}},{"attributes":{"ID":600052,"DIS_CODE":0,"TOWNNAME":"北區","LI":"文元里","LIN":"22鄰","STREET":"文成路","SECT":" ","MAREA":" ","LANE":" ","ALLEY":" ","HOUSE_NO":"６４５號","E_COORD97":167783.07000000001,"N_COORD97":2545865.0099999998,"ADDRESS":"文成路６４５號","OBJECTID":600025},"geometry":{"x":167783.07000000123,"y":2545865.0100000035}},{"attributes":{"ID":600053,"DIS_CODE":0,"TOWNNAME":"北區","LI":"文元里","LIN":"22鄰","STREET":"文成路","SECT":" ","MAREA":" ","LANE":" ","ALLEY":" ","HOUSE_NO":"６４７號","E_COORD97":167773.78,"N_COORD97":2545865.0099999998,"ADDRESS":"文成路６４７號","OBJECTID":600026},"geometry":{"x":167773.78000000026,"y":2545865.0100000035}},{"attributes":{"ID":600054,"DIS_CODE":0,"TOWNNAME":"東區","LI":"德高里","LIN":"19鄰","STREET":"城東街","SECT":" ","MAREA":" ","LANE":" ","ALLEY":" ","HOUSE_NO":"１０９號","E_COORD97":171746.84,"N_COORD97":2540846.7599999998,"ADDRESS":"城東街１０９號","OBJECTID":600027},"geometry":{"x":171746.83999999985,"y":2540846.7600000016}},{"attributes":{"ID":600055,"DIS_CODE":0,"TOWNNAME":"東區","LI":"德高里","LIN":"19鄰","STREET":"城東街","SECT":" ","MAREA":" ","LANE":" ","ALLEY":" ","HOUSE_NO":"１２５號","E_COORD97":171727.92999999999,"N_COORD97":2540909.46,"ADDRESS":"城東街１２５號","OBJECTID":600028},"geometry":{"x":171727.93000000063,"y":2540909.459999999}},{"attributes":{"ID":600056,"DIS_CODE":0,"TOWNNAME":"東區","LI":"中西里","LIN":"28鄰","STREET":"東寧路","SECT":" ","MAREA":" ","LANE":" ","ALLEY":" ","HOUSE_NO":"１５４號之３","E_COORD97":170358.70999999999,"N_COORD97":2543509.1499999999,"ADDRESS":"東寧路１５４號之３","OBJECTID":600029},"geometry":{"x":170358.71000000089,"y":2543509.1500000022}},{"attributes":{"ID":600057,"DIS_CODE":0,"TOWNNAME":"東區","LI":"中西里","LIN":"28鄰","STREET":"東寧路","SECT":" ","MAREA":" ","LANE":" ","ALLEY":" ","HOUSE_NO":"１５４號之４","E_COORD97":170353.92000000001,"N_COORD97":2543508.3100000001,"ADDRESS":"東寧路１５４號之４","OBJECTID":600030},"geometry":{"x":170353.92000000086,"y":2543508.3100000024}},{"attributes":{"ID":600058,"DIS_CODE":0,"TOWNNAME":"東區","LI":"中西里","LIN":"28鄰","STREET":"東寧路","SECT":" ","MAREA":" ","LANE":" ","ALLEY":" ","HOUSE_NO":"１５４號之５","E_COORD97":170349.56,"N_COORD97":2543506.48,"ADDRESS":"東寧路１５４號之５","OBJECTID":600031},"geometry":{"x":170349.55999999959,"y":2543506.4800000023}},{"attributes":{"ID":600059,"DIS_CODE":0,"TOWNNAME":"東區","LI":"中西里","LIN":"28鄰","STREET":"東寧路","SECT":" ","MAREA":" ","LANE":" ","ALLEY":" ","HOUSE_NO":"１５４號之７","E_COORD97":170337.32000000001,"N_COORD97":2543502.2599999998,"ADDRESS":"東寧路１５４號之７","OBJECTID":600032},"geometry":{"x":170337.32000000216,"y":2543502.2599999998}},{"attributes":{"ID":600060,"DIS_CODE":0,"TOWNNAME":"東區","LI":"中西里","LIN":"28鄰","STREET":"東寧路","SECT":" ","MAREA":" ","LANE":" ","ALLEY":" ","HOUSE_NO":"１５４號之８","E_COORD97":170331.26999999999,"N_COORD97":2543499.73,"ADDRESS":"東寧路１５４號之８","OBJECTID":600033},"geometry":{"x":170331.26999999955,"y":2543499.7300000004}},{"attributes":{"ID":600061,"DIS_CODE":0,"TOWNNAME":"北區","LI":"文元里","LIN":"22鄰","STREET":"文賢二街","SECT":" ","MAREA":" ","LANE":" ","ALLEY":" ","HOUSE_NO":"２３８號","E_COORD97":167717.76999999999,"N_COORD97":2545759.7799999998,"ADDRESS":"文賢二街２３８號","OBJECTID":600034},"geometry":{"x":167717.77000000142,"y":2545759.7799999993}},{"attributes":{"ID":600062,"DIS_CODE":0,"TOWNNAME":"北區","LI":"文元里","LIN":"22鄰","STREET":"文賢二街","SECT":" ","MAREA":" ","LANE":" ","ALLEY":" ","HOUSE_NO":"２４０號","E_COORD97":167715.81,"N_COORD97":2545764.7999999998,"ADDRESS":"文賢二街２４０號","OBJECTID":600035},"geometry":{"x":167715.81000000145,"y":2545764.8000000007}},{"attributes":{"ID":600063,"DIS_CODE":0,"TOWNNAME":"北區","LI":"文元里","LIN":"22鄰","STREET":"文賢二街","SECT":" ","MAREA":" ","LANE":" ","ALLEY":" ","HOUSE_NO":"２４２號","E_COORD97":167714.42000000001,"N_COORD97":2545768.4300000002,"ADDRESS":"文賢二街２４２號","OBJECTID":600036},"geometry":{"x":167714.42000000086,"y":2545768.4300000016}},{"attributes":{"ID":600064,"DIS_CODE":0,"TOWNNAME":"北區","LI":"文元里","LIN":"22鄰","STREET":"文賢二街","SECT":" ","MAREA":" ","LANE":" ","ALLEY":" ","HOUSE_NO":"２４６號","E_COORD97":167713.85999999999,"N_COORD97":2545772.8900000001,"ADDRESS":"文賢二街２４６號","OBJECTID":600037},"geometry":{"x":167713.86000000034,"y":2545772.8900000025}},{"attributes":{"ID":600065,"DIS_CODE":0,"TOWNNAME":"北區","LI":"文元里","LIN":"22鄰","STREET":"文賢二街","SECT":" ","MAREA":" ","LANE":" ","ALLEY":" ","HOUSE_NO":"２５０號","E_COORD97":167713.01999999999,"N_COORD97":2545776.5099999998,"ADDRESS":"文賢二街２５０號","OBJECTID":600038},"geometry":{"x":167713.02000000048,"y":2545776.5099999979}},{"attributes":{"ID":600066,"DIS_CODE":0,"TOWNNAME":"北區","LI":"文元里","LIN":"22鄰","STREET":"文賢二街","SECT":" ","MAREA":" ","LANE":" ","ALLEY":" ","HOUSE_NO":"２５２號","E_COORD97":167712.13,"N_COORD97":2545780.7200000002,"ADDRESS":"文賢二街２５２號","OBJECTID":600039},"geometry":{"x":167712.12999999896,"y":2545780.7200000025}},{"attributes":{"ID":600067,"DIS_CODE":0,"TOWNNAME":"北區","LI":"文元里","LIN":"22鄰","STREET":"文賢二街","SECT":" ","MAREA":" ","LANE":" ","ALLEY":" ","HOUSE_NO":"２５６號","E_COORD97":167710.67000000001,"N_COORD97":2545784.6099999999,"ADDRESS":"文賢二街２５６號","OBJECTID":600040},"geometry":{"x":167710.67000000086,"y":2545784.6099999994}},{"attributes":{"ID":600068,"DIS_CODE":0,"TOWNNAME":"北區","LI":"文元里","LIN":"22鄰","STREET":"文賢二街","SECT":" ","MAREA":" ","LANE":" ","ALLEY":" ","HOUSE_NO":"２５８號","E_COORD97":167709.45999999999,"N_COORD97":2545788.7400000002,"ADDRESS":"文賢二街２５８號","OBJECTID":600041},"geometry":{"x":167709.45999999996,"y":2545788.7400000002}},{"attributes":{"ID":600069,"DIS_CODE":0,"TOWNNAME":"北區","LI":"文元里","LIN":"22鄰","STREET":"文賢二街","SECT":" ","MAREA":" ","LANE":" ","ALLEY":" ","HOUSE_NO":"２６０號","E_COORD97":167707.51000000001,"N_COORD97":2545792.1400000001,"ADDRESS":"文賢二街２６０號","OBJECTID":600042},"geometry":{"x":167707.50999999978,"y":2545792.1400000006}},{"attributes":{"ID":600070,"DIS_CODE":0,"TOWNNAME":"北區","LI":"文元里","LIN":"22鄰","STREET":"文賢二街","SECT":" ","MAREA":" ","LANE":" ","ALLEY":" ","HOUSE_NO":"２６２號","E_COORD97":167707.51000000001,"N_COORD97":2545796.0299999998,"ADDRESS":"文賢二街２６２號","OBJECTID":600043},"geometry":{"x":167707.50999999978,"y":2545796.0299999993}},{"attributes":{"ID":600071,"DIS_CODE":0,"TOWNNAME":"北區","LI":"文元里","LIN":"22鄰","STREET":"文賢二街","SECT":" ","MAREA":" ","LANE":" ","ALLEY":" ","HOUSE_NO":"２６６號","E_COORD97":167702.39999999999,"N_COORD97":2545801.6200000001,"ADDRESS":"文賢二街２６６號","OBJECTID":600044},"geometry":{"x":167702.40000000224,"y":2545801.6200000029}},{"attributes":{"ID":600072,"DIS_CODE":0,"TOWNNAME":"北區","LI":"文元里","LIN":"22鄰","STREET":"文賢三街","SECT":" ","MAREA":" ","LANE":" ","ALLEY":" ","HOUSE_NO":"２７號","E_COORD97":167815.57000000001,"N_COORD97":2545797.73,"ADDRESS":"文賢三街２７號","OBJECTID":600045},"geometry":{"x":167815.57000000123,"y":2545797.7300000023}},{"attributes":{"ID":600073,"DIS_CODE":0,"TOWNNAME":"東區","LI":"圍下里","LIN":"16鄰","STREET":"新樓街","SECT":" ","MAREA":" ","LANE":" ","ALLEY":" ","HOUSE_NO":"４９號","E_COORD97":169567.60000000001,"N_COORD97":2543353.2000000002,"ADDRESS":"新樓街４９號","OBJECTID":600046},"geometry":{"x":169567.59999999963,"y":2543353.1999999993}},{"attributes":{"ID":600074,"DIS_CODE":0,"TOWNNAME":"北區","LI":"成德里","LIN":"22鄰","STREET":"中華北路","SECT":"二段","MAREA":" ","LANE":" ","ALLEY":" ","HOUSE_NO":"１９６號","E_COORD97":168312.22,"N_COORD97":2546852.9199999999,"ADDRESS":"中華北路二段１９６號","OBJECTID":600047},"geometry":{"x":168312.22000000067,"y":2546852.9200000018}},{"attributes":{"ID":600075,"DIS_CODE":0,"TOWNNAME":"北區","LI":"成德里","LIN":"22鄰","STREET":"中華北路","SECT":"二段","MAREA":" ","LANE":" ","ALLEY":" ","HOUSE_NO":"１９７號","E_COORD97":168329.5,"N_COORD97":2546856.23,"ADDRESS":"中華北路二段１９７號","OBJECTID":600048},"geometry":{"x":168329.5,"y":2546856.2300000004}},{"attributes":{"ID":600076,"DIS_CODE":0,"TOWNNAME":"東區","LI":"小東里","LIN":"15鄰","STREET":"光明街","SECT":" ","MAREA":" ","LANE":" ","ALLEY":" ","HOUSE_NO":"８２號之１","E_COORD97":170898.13,"N_COORD97":2544141.0600000001,"ADDRESS":"光明街８２號之１","OBJECTID":600049},"geometry":{"x":170898.13000000082,"y":2544141.0600000024}},{"attributes":{"ID":600077,"DIS_CODE":0,"TOWNNAME":"北區","LI":"成德里","LIN":"22鄰","STREET":"中華北路","SECT":"二段","MAREA":" ","LANE":" ","ALLEY":" ","HOUSE_NO":"１９８號","E_COORD97":168341.81,"N_COORD97":2546858.5800000001,"ADDRESS":"中華北路二段１９８號","OBJECTID":600050},"geometry":{"x":168341.81000000052,"y":2546858.5800000019}},{"attributes":{"ID":600078,"DIS_CODE":0,"TOWNNAME":"北區","LI":"成德里","LIN":"22鄰","STREET":"中華北路","SECT":"二段","MAREA":" ","LANE":" ","ALLEY":" ","HOUSE_NO":"１９９號","E_COORD97":168352.48000000001,"N_COORD97":2546860.48,"ADDRESS":"中華北路二段１９９號","OBJECTID":600051},"geometry":{"x":168352.48000000045,"y":2546860.4800000023}},{"attributes":{"ID":600079,"DIS_CODE":0,"TOWNNAME":"北區","LI":"成德里","LIN":"22鄰","STREET":"中華北路","SECT":"二段","MAREA":" ","LANE":" ","ALLEY":" ","HOUSE_NO":"２０６號","E_COORD97":168408.73999999999,"N_COORD97":2546871.1499999999,"ADDRESS":"中華北路二段２０６號","OBJECTID":600052},"geometry":{"x":168408.74000000115,"y":2546871.1500000004}},{"attributes":{"ID":600080,"DIS_CODE":0,"TOWNNAME":"北區","LI":"成德里","LIN":"22鄰","STREET":"中華北路","SECT":"二段","MAREA":" ","LANE":" ","ALLEY":" ","HOUSE_NO":"２０７號","E_COORD97":168415.98000000001,"N_COORD97":2546872.7999999998,"ADDRESS":"中華北路二段２０７號","OBJECTID":600053},"geometry":{"x":168415.98000000138,"y":2546872.8000000007}},{"attributes":{"ID":600081,"DIS_CODE":0,"TOWNNAME":"北區","LI":"文成里","LIN":"22鄰","STREET":"立賢路","SECT":"二段","MAREA":" ","LANE":" ","ALLEY":" ","HOUSE_NO":"７０之２１號","E_COORD97":167825.26000000001,"N_COORD97":2545601.0699999998,"ADDRESS":"立賢路二段７０之２１號","OBJECTID":600054},"geometry":{"x":167825.26000000071,"y":2545601.0700000022}},{"attributes":{"ID":600082,"DIS_CODE":0,"TOWNNAME":"北區","LI":"成德里","LIN":"22鄰","STREET":"文成五街","SECT":" ","MAREA":" ","LANE":" ","ALLEY":" ","HOUSE_NO":"９６號","E_COORD97":168449.75,"N_COORD97":2546580.6600000001,"ADDRESS":"文成五街９６號","OBJECTID":600055},"geometry":{"x":168449.75000000093,"y":2546580.660000002}},{"attributes":{"ID":600083,"DIS_CODE":0,"TOWNNAME":"北區","LI":"成德里","LIN":"22鄰","STREET":"文成五街","SECT":" ","MAREA":" ","LANE":" ","ALLEY":" ","HOUSE_NO":"１２８號","E_COORD97":168381.94,"N_COORD97":2546560.5299999998,"ADDRESS":"文成五街１２８號","OBJECTID":600056},"geometry":{"x":168381.94000000227,"y":2546560.5300000012}},{"attributes":{"ID":600084,"DIS_CODE":0,"TOWNNAME":"北區","LI":"成德里","LIN":"22鄰","STREET":"文成五街","SECT":" ","MAREA":" ","LANE":" ","ALLEY":" ","HOUSE_NO":"１２６號","E_COORD97":168387.64999999999,"N_COORD97":2546562.0499999998,"ADDRESS":"文成五街１２６號","OBJECTID":600057},"geometry":{"x":168387.6500000013,"y":2546562.0500000026}},{"attributes":{"ID":600085,"DIS_CODE":0,"TOWNNAME":"北區","LI":"成德里","LIN":"22鄰","STREET":"文成五街","SECT":" ","MAREA":" ","LANE":" ","ALLEY":" ","HOUSE_NO":"１２２號","E_COORD97":168392.98999999999,"N_COORD97":2546563.3199999998,"ADDRESS":"文成五街１２２號","OBJECTID":600058},"geometry":{"x":168392.99000000022,"y":2546563.3200000022}},{"attributes":{"ID":600086,"DIS_CODE":0,"TOWNNAME":"北區","LI":"成德里","LIN":"22鄰","STREET":"文成五街","SECT":" ","MAREA":" ","LANE":" ","ALLEY":" ","HOUSE_NO":"１２０號","E_COORD97":168398.07000000001,"N_COORD97":2546564.5899999999,"ADDRESS":"文成五街１２０號","OBJECTID":600059},"geometry":{"x":168398.07000000123,"y":2546564.5899999999}},{"attributes":{"ID":600087,"DIS_CODE":0,"TOWNNAME":"北區","LI":"成德里","LIN":"22鄰","STREET":"文成五街","SECT":" ","MAREA":" ","LANE":" ","ALLEY":" ","HOUSE_NO":"１１８號","E_COORD97":168402.89000000001,"N_COORD97":2546566.2400000002,"ADDRESS":"文成五街１１８號","OBJECTID":600060},"geometry":{"x":168402.88999999966,"y":2546566.2400000021}},{"attributes":{"ID":600088,"DIS_CODE":0,"TOWNNAME":"北區","LI":"成德里","LIN":"22鄰","STREET":"文成五街","SECT":" ","MAREA":" ","LANE":" ","ALLEY":" ","HOUSE_NO":"１１６號","E_COORD97":168408.48000000001,"N_COORD97":2546568.1499999999,"ADDRESS":"文成五街１１６號","OBJECTID":600061},"geometry":{"x":168408.48000000045,"y":2546568.1500000004}},{"attributes":{"ID":600089,"DIS_CODE":0,"TOWNNAME":"北區","LI":"成德里","LIN":"22鄰","STREET":"文成五街","SECT":" ","MAREA":" ","LANE":" ","ALLEY":" ","HOUSE_NO":"１１２號","E_COORD97":168413.94,"N_COORD97":2546569.7400000002,"ADDRESS":"文成五街１１２號","OBJECTID":600062},"geometry":{"x":168413.94000000041,"y":2546569.7400000021}},{"attributes":{"ID":600090,"DIS_CODE":0,"TOWNNAME":"北區","LI":"成德里","LIN":"22鄰","STREET":"文成五街","SECT":" ","MAREA":" ","LANE":" ","ALLEY":" ","HOUSE_NO":"１１０號","E_COORD97":168418.76000000001,"N_COORD97":2546571.0099999998,"ADDRESS":"文成五街１１０號","OBJECTID":600063},"geometry":{"x":168418.76000000071,"y":2546571.0100000016}},{"attributes":{"ID":600091,"DIS_CODE":0,"TOWNNAME":"北區","LI":"成德里","LIN":"22鄰","STREET":"文成五街","SECT":" ","MAREA":" ","LANE":" ","ALLEY":" ","HOUSE_NO":"１０８號","E_COORD97":168423.59,"N_COORD97":2546572.5299999998,"ADDRESS":"文成五街１０８號","OBJECTID":600064},"geometry":{"x":168423.58999999985,"y":2546572.5299999993}},{"attributes":{"ID":600092,"DIS_CODE":0,"TOWNNAME":"北區","LI":"成德里","LIN":"22鄰","STREET":"文成五街","SECT":" ","MAREA":" ","LANE":" ","ALLEY":" ","HOUSE_NO":"１０６號","E_COORD97":168428.92000000001,"N_COORD97":2546574.3100000001,"ADDRESS":"文成五街１０６號","OBJECTID":600065},"geometry":{"x":168428.91999999899,"y":2546574.3100000005}},{"attributes":{"ID":600093,"DIS_CODE":0,"TOWNNAME":"北區","LI":"成德里","LIN":"22鄰","STREET":"文成五街","SECT":" ","MAREA":" ","LANE":" ","ALLEY":" ","HOUSE_NO":"１０２號","E_COORD97":168434.26000000001,"N_COORD97":2546576.0899999999,"ADDRESS":"文成五街１０２號","OBJECTID":600066},"geometry":{"x":168434.25999999978,"y":2546576.0899999999}},{"attributes":{"ID":600094,"DIS_CODE":0,"TOWNNAME":"北區","LI":"成德里","LIN":"22鄰","STREET":"文成五街","SECT":" ","MAREA":" ","LANE":" ","ALLEY":" ","HOUSE_NO":"１００號","E_COORD97":168439.84,"N_COORD97":2546577.6099999999,"ADDRESS":"文成五街１００號","OBJECTID":600067},"geometry":{"x":168439.84000000078,"y":2546577.6099999994}},{"attributes":{"ID":600095,"DIS_CODE":0,"TOWNNAME":"北區","LI":"成德里","LIN":"22鄰","STREET":"文成五街","SECT":" ","MAREA":" ","LANE":" ","ALLEY":" ","HOUSE_NO":"９８號","E_COORD97":168444.67000000001,"N_COORD97":2546579.1299999999,"ADDRESS":"文成五街９８號","OBJECTID":600068},"geometry":{"x":168444.67000000086,"y":2546579.1300000008}},{"attributes":{"ID":600096,"DIS_CODE":0,"TOWNNAME":"北區","LI":"成德里","LIN":"22鄰","STREET":"文成五街","SECT":" ","MAREA":" ","LANE":" ","ALLEY":" ","HOUSE_NO":"９２號","E_COORD97":168454.32000000001,"N_COORD97":2546582.4399999999,"ADDRESS":"文成五街９２號","OBJECTID":600069},"geometry":{"x":168454.32000000123,"y":2546582.4399999995}},{"attributes":{"ID":600097,"DIS_CODE":0,"TOWNNAME":"北區","LI":"成德里","LIN":"22鄰","STREET":"文成五街","SECT":" ","MAREA":" ","LANE":" ","ALLEY":" ","HOUSE_NO":"８０號","E_COORD97":168480.23000000001,"N_COORD97":2546589.1699999999,"ADDRESS":"文成五街８０號","OBJECTID":600070},"geometry":{"x":168480.23000000138,"y":2546589.1699999999}},{"attributes":{"ID":600098,"DIS_CODE":0,"TOWNNAME":"北區","LI":"成德里","LIN":"22鄰","STREET":"文成五街","SECT":" ","MAREA":" ","LANE":" ","ALLEY":" ","HOUSE_NO":"７８號","E_COORD97":168485.69,"N_COORD97":2546590.6899999999,"ADDRESS":"文成五街７８號","OBJECTID":600071},"geometry":{"x":168485.69000000134,"y":2546590.6899999995}},{"attributes":{"ID":600099,"DIS_CODE":0,"TOWNNAME":"北區","LI":"成德里","LIN":"22鄰","STREET":"文成五街","SECT":" ","MAREA":" ","LANE":" ","ALLEY":" ","HOUSE_NO":"７６號","E_COORD97":168491.41,"N_COORD97":2546592.21,"ADDRESS":"文成五街７６號","OBJECTID":600072},"geometry":{"x":168491.41000000015,"y":2546592.2100000009}},{"attributes":{"ID":600100,"DIS_CODE":0,"TOWNNAME":"北區","LI":"成德里","LIN":"22鄰","STREET":"文成五街","SECT":" ","MAREA":" ","LANE":" ","ALLEY":" ","HOUSE_NO":"７２號","E_COORD97":168496.87,"N_COORD97":2546593.6099999999,"ADDRESS":"文成五街７２號","OBJECTID":600073},"geometry":{"x":168496.87000000011,"y":2546593.6100000013}},{"attributes":{"ID":600101,"DIS_CODE":0,"TOWNNAME":"北區","LI":"成德里","LIN":"22鄰","STREET":"文成五街","SECT":" ","MAREA":" ","LANE":" ","ALLEY":" ","HOUSE_NO":"７０號","E_COORD97":168502.07000000001,"N_COORD97":2546595.0099999998,"ADDRESS":"文成五街７０號","OBJECTID":600074},"geometry":{"x":168502.07000000123,"y":2546595.0100000016}},{"attributes":{"ID":600102,"DIS_CODE":0,"TOWNNAME":"北區","LI":"成德里","LIN":"22鄰","STREET":"文成五街","SECT":" ","MAREA":" ","LANE":" ","ALLEY":" ","HOUSE_NO":"６８號","E_COORD97":168506.76999999999,"N_COORD97":2546596.1499999999,"ADDRESS":"文成五街６８號","OBJECTID":600075},"geometry":{"x":168506.77000000048,"y":2546596.1500000004}},{"attributes":{"ID":600103,"DIS_CODE":0,"TOWNNAME":"北區","LI":"成德里","LIN":"22鄰","STREET":"文成五街","SECT":" ","MAREA":" ","LANE":" ","ALLEY":" ","HOUSE_NO":"６６號","E_COORD97":168511.73000000001,"N_COORD97":2546598.0600000001,"ADDRESS":"文成五街６６號","OBJECTID":600076},"geometry":{"x":168511.73000000045,"y":2546598.0600000024}},{"attributes":{"ID":600104,"DIS_CODE":0,"TOWNNAME":"北區","LI":"文元里","LIN":"22鄰","STREET":"文成路","SECT":" ","MAREA":" ","LANE":" ","ALLEY":" ","HOUSE_NO":"６１７號","E_COORD97":167890.79000000001,"N_COORD97":2545877.6400000001,"ADDRESS":"文成路６１７號","OBJECTID":600077},"geometry":{"x":167890.79000000004,"y":2545877.6400000006}},{"attributes":{"ID":600105,"DIS_CODE":0,"TOWNNAME":"北區","LI":"文元里","LIN":"22鄰","STREET":"文成路","SECT":" ","MAREA":" ","LANE":" ","ALLEY":" ","HOUSE_NO":"６３３號","E_COORD97":167849.10000000001,"N_COORD97":2545873.4399999999,"ADDRESS":"文成路６３３號","OBJECTID":600078},"geometry":{"x":167849.09999999963,"y":2545873.4400000013}},{"attributes":{"ID":600106,"DIS_CODE":0,"TOWNNAME":"北區","LI":"文元里","LIN":"22鄰","STREET":"文成路","SECT":" ","MAREA":" ","LANE":" ","ALLEY":" ","HOUSE_NO":"６３５號","E_COORD97":167837.67000000001,"N_COORD97":2545872.6800000002,"ADDRESS":"文成路６３５號","OBJECTID":600079},"geometry":{"x":167837.67000000086,"y":2545872.6799999997}},{"attributes":{"ID":600107,"DIS_CODE":0,"TOWNNAME":"東區","LI":"大智里","LIN":"20鄰","STREET":"崇善路","SECT":" ","MAREA":" ","LANE":" ","ALLEY":" ","HOUSE_NO":"７８２號","E_COORD97":171346.14999999999,"N_COORD97":2540702.6000000001,"ADDRESS":"崇善路７８２號","OBJECTID":600080},"geometry":{"x":171346.1500000013,"y":2540702.5999999996}},{"attributes":{"ID":600108,"DIS_CODE":0,"TOWNNAME":"東區","LI":"小東里","LIN":"13鄰","STREET":"光明街","SECT":" ","MAREA":" ","LANE":" ","ALLEY":" ","HOUSE_NO":"５４號之１","E_COORD97":170884.64999999999,"N_COORD97":2544290,"ADDRESS":"光明街５４號之１","OBJECTID":600081},"geometry":{"x":170884.6500000013,"y":2544290.0000000019}},{"attributes":{"ID":600109,"DIS_CODE":0,"TOWNNAME":"東區","LI":"崇德里","LIN":"7鄰","STREET":"崇德六街","SECT":" ","MAREA":" ","LANE":" ","ALLEY":" ","HOUSE_NO":"７４號","E_COORD97":170830.34,"N_COORD97":2541843,"ADDRESS":"崇德六街７４號","OBJECTID":600082},"geometry":{"x":170830.34000000078,"y":2541843}},{"attributes":{"ID":600110,"DIS_CODE":0,"TOWNNAME":"東區","LI":"虎尾里","LIN":"1鄰","STREET":"東門路","SECT":"三段","MAREA":" ","LANE":" ","ALLEY":" ","HOUSE_NO":"１７３號","E_COORD97":171488.20999999999,"N_COORD97":2542024.48,"ADDRESS":"東門路三段１７３號","OBJECTID":600083},"geometry":{"x":171488.20999999996,"y":2542024.4800000042}},{"attributes":{"ID":600111,"DIS_CODE":0,"TOWNNAME":"東區","LI":"崇德里","LIN":"12鄰","STREET":"崇德十一街","SECT":" ","MAREA":" ","LANE":" ","ALLEY":" ","HOUSE_NO":"４２號之１","E_COORD97":170899.54999999999,"N_COORD97":2541445.3100000001,"ADDRESS":"崇德十一街４２號之１","OBJECTID":600084},"geometry":{"x":170899.54999999888,"y":2541445.3100000005}},{"attributes":{"ID":600112,"DIS_CODE":0,"TOWNNAME":"東區","LI":"裕農里","LIN":"9鄰","STREET":"裕農路","SECT":" ","MAREA":" ","LANE":" ","ALLEY":" ","HOUSE_NO":"４６９號","E_COORD97":171275.28,"N_COORD97":2543203.6299999999,"ADDRESS":"裕農路４６９號","OBJECTID":600085},"geometry":{"x":171275.28000000119,"y":2543203.629999999}},{"attributes":{"ID":600113,"DIS_CODE":0,"TOWNNAME":"東區","LI":"東光里","LIN":"16鄰","STREET":"凱旋路","SECT":" ","MAREA":" ","LANE":" ","ALLEY":" ","HOUSE_NO":"１２號","E_COORD97":171350.82999999999,"N_COORD97":2543748.96,"ADDRESS":"凱旋路１２號","OBJECTID":600086},"geometry":{"x":171350.83000000101,"y":2543748.9600000028}},{"attributes":{"ID":600114,"DIS_CODE":0,"TOWNNAME":"東區","LI":"東光里","LIN":"16鄰","STREET":"莊敬路","SECT":" ","MAREA":" ","LANE":" ","ALLEY":" ","HOUSE_NO":"１２號","E_COORD97":171385.76999999999,"N_COORD97":2543709.21,"ADDRESS":"莊敬路１２號","OBJECTID":600087},"geometry":{"x":171385.76999999955,"y":2543709.2100000028}},{"attributes":{"ID":600115,"DIS_CODE":0,"TOWNNAME":"東區","LI":"東光里","LIN":"16鄰","STREET":"莊敬路","SECT":" ","MAREA":" ","LANE":" ","ALLEY":" ","HOUSE_NO":"１８號","E_COORD97":171354.04999999999,"N_COORD97":2543768.2999999998,"ADDRESS":"莊敬路１８號","OBJECTID":600088},"geometry":{"x":171354.05000000168,"y":2543768.3000000007}},{"attributes":{"ID":600116,"DIS_CODE":0,"TOWNNAME":"東區","LI":"圍下里","LIN":"16鄰","STREET":"新樓街","SECT":" ","MAREA":" ","LANE":" ","ALLEY":" ","HOUSE_NO":"５５號","E_COORD97":169583.45000000001,"N_COORD97":2543351.7799999998,"ADDRESS":"新樓街５５號","OBJECTID":600089},"geometry":{"x":169583.44999999925,"y":2543351.7800000012}},{"attributes":{"ID":600117,"DIS_CODE":0,"TOWNNAME":"東區","LI":"崇德里","LIN":"3鄰","STREET":"崇德六街","SECT":" ","MAREA":" ","LANE":" ","ALLEY":" ","HOUSE_NO":"１９號","E_COORD97":170719.44,"N_COORD97":2541756.21,"ADDRESS":"崇德六街１９號","OBJECTID":600090},"geometry":{"x":170719.44000000041,"y":2541756.2100000028}},{"attributes":{"ID":600118,"DIS_CODE":0,"TOWNNAME":"東區","LI":"圍下里","LIN":"16鄰","STREET":"新樓街","SECT":" ","MAREA":" ","LANE":" ","ALLEY":" ","HOUSE_NO":"５７號","E_COORD97":169586.94,"N_COORD97":2543351.6200000001,"ADDRESS":"新樓街５７號","OBJECTID":600091},"geometry":{"x":169586.94000000041,"y":2543351.620000001}},{"attributes":{"ID":600119,"DIS_CODE":0,"TOWNNAME":"東區","LI":"圍下里","LIN":"16鄰","STREET":"新樓街","SECT":" ","MAREA":" ","LANE":" ","ALLEY":" ","HOUSE_NO":"６３號","E_COORD97":169601.06,"N_COORD97":2543350.9900000002,"ADDRESS":"新樓街６３號","OBJECTID":600092},"geometry":{"x":169601.06000000052,"y":2543350.9900000021}},{"attributes":{"ID":600120,"DIS_CODE":0,"TOWNNAME":"東區","LI":"圍下里","LIN":"16鄰","STREET":"新樓街","SECT":" ","MAREA":" ","LANE":" ","ALLEY":" ","HOUSE_NO":"６５號","E_COORD97":169605.17999999999,"N_COORD97":2543350.8300000001,"ADDRESS":"新樓街６５號","OBJECTID":600093},"geometry":{"x":169605.18000000156,"y":2543350.8300000038}},{"attributes":{"ID":600121,"DIS_CODE":0,"TOWNNAME":"東區","LI":"圍下里","LIN":"16鄰","STREET":"新樓街","SECT":" ","MAREA":" ","LANE":" ","ALLEY":" ","HOUSE_NO":"６７號","E_COORD97":169609.78,"N_COORD97":2543351.1400000001,"ADDRESS":"新樓街６７號","OBJECTID":600094},"geometry":{"x":169609.78000000026,"y":2543351.1400000006}},{"attributes":{"ID":600122,"DIS_CODE":0,"TOWNNAME":"東區","LI":"圍下里","LIN":"16鄰","STREET":"新樓街","SECT":" ","MAREA":" ","LANE":" ","ALLEY":" ","HOUSE_NO":"７１號","E_COORD97":169622.29999999999,"N_COORD97":2543350.0299999998,"ADDRESS":"新樓街７１號","OBJECTID":600095},"geometry":{"x":169622.30000000075,"y":2543350.0300000012}},{"attributes":{"ID":600123,"DIS_CODE":0,"TOWNNAME":"北區","LI":"文元里","LIN":"22鄰","STREET":"文賢三街","SECT":" ","MAREA":" ","LANE":" ","ALLEY":" ","HOUSE_NO":"２９號","E_COORD97":167816.39000000001,"N_COORD97":2545803.0299999998,"ADDRESS":"文賢三街２９號","OBJECTID":600096},"geometry":{"x":167816.38999999966,"y":2545803.0299999975}},{"attributes":{"ID":600124,"DIS_CODE":0,"TOWNNAME":"北區","LI":"文元里","LIN":"22鄰","STREET":"文賢三街","SECT":" ","MAREA":" ","LANE":" ","ALLEY":" ","HOUSE_NO":"３１號","E_COORD97":167816.26000000001,"N_COORD97":2545807.73,"ADDRESS":"文賢三街３１號","OBJECTID":600097},"geometry":{"x":167816.26000000164,"y":2545807.7300000023}},{"attributes":{"ID":600125,"DIS_CODE":0,"TOWNNAME":"北區","LI":"文元里","LIN":"22鄰","STREET":"文賢三街","SECT":" ","MAREA":" ","LANE":" ","ALLEY":" ","HOUSE_NO":"３３號","E_COORD97":167815.75,"N_COORD97":2545813.7000000002,"ADDRESS":"文賢三街３３號","OBJECTID":600098},"geometry":{"x":167815.75000000093,"y":2545813.7000000011}},{"attributes":{"ID":600126,"DIS_CODE":0,"TOWNNAME":"北區","LI":"文元里","LIN":"22鄰","STREET":"文賢三街","SECT":" ","MAREA":" ","LANE":" ","ALLEY":" ","HOUSE_NO":"２７之１號","E_COORD97":167815.25,"N_COORD97":2545819.29,"ADDRESS":"文賢三街２７之１號","OBJECTID":600099},"geometry":{"x":167815.25000000093,"y":2545819.290000001}},{"attributes":{"ID":600127,"DIS_CODE":0,"TOWNNAME":"北區","LI":"文元里","LIN":"22鄰","STREET":"文賢三街","SECT":" ","MAREA":" ","LANE":" ","ALLEY":" ","HOUSE_NO":"２７之２號","E_COORD97":167814.73999999999,"N_COORD97":2545824.3700000001,"ADDRESS":"文賢三街２７之２號","OBJECTID":600100},"geometry":{"x":167814.74000000022,"y":2545824.3700000029}},{"attributes":{"ID":600128,"DIS_CODE":0,"TOWNNAME":"東區","LI":"崇善里","LIN":"25鄰","STREET":"崇善東路","SECT":" ","MAREA":" ","LANE":" ","ALLEY":" ","HOUSE_NO":"１７號","E_COORD97":171308.45999999999,"N_COORD97":2540921.2799999998,"ADDRESS":"崇善東路１７號","OBJECTID":600101},"geometry":{"x":171308.45999999996,"y":2540921.2799999993}},{"attributes":{"ID":600129,"DIS_CODE":0,"TOWNNAME":"東區","LI":"崇善里","LIN":"25鄰","STREET":"崇善東路","SECT":" ","MAREA":" ","LANE":" ","ALLEY":" ","HOUSE_NO":"１９號","E_COORD97":171311.34,"N_COORD97":2540923.8900000001,"ADDRESS":"崇善東路１９號","OBJECTID":600102},"geometry":{"x":171311.34000000171,"y":2540923.8900000025}},{"attributes":{"ID":600130,"DIS_CODE":0,"TOWNNAME":"東區","LI":"崇善里","LIN":"25鄰","STREET":"崇善東路","SECT":" ","MAREA":" ","LANE":" ","ALLEY":" ","HOUSE_NO":"１號","E_COORD97":171284.85999999999,"N_COORD97":2540874.46,"ADDRESS":"崇善東路１號","OBJECTID":600103},"geometry":{"x":171284.86000000127,"y":2540874.4600000009}},{"attributes":{"ID":600131,"DIS_CODE":0,"TOWNNAME":"東區","LI":"崇善里","LIN":"25鄰","STREET":"崇善東路","SECT":" ","MAREA":" ","LANE":" ","ALLEY":" ","HOUSE_NO":"２３號","E_COORD97":171315.79999999999,"N_COORD97":2540934.6200000001,"ADDRESS":"崇善東路２３號","OBJECTID":600104},"geometry":{"x":171315.80000000075,"y":2540934.620000001}},{"attributes":{"ID":600132,"DIS_CODE":0,"TOWNNAME":"東區","LI":"崇善里","LIN":"25鄰","STREET":"崇善東路","SECT":" ","MAREA":" ","LANE":" ","ALLEY":" ","HOUSE_NO":"２７號","E_COORD97":171319.20000000001,"N_COORD97":2540947.4500000002,"ADDRESS":"崇善東路２７號","OBJECTID":600105},"geometry":{"x":171319.20000000019,"y":2540947.4499999993}},{"attributes":{"ID":600133,"DIS_CODE":0,"TOWNNAME":"東區","LI":"崇善里","LIN":"25鄰","STREET":"崇善東路","SECT":" ","MAREA":" ","LANE":" ","ALLEY":" ","HOUSE_NO":"３１號","E_COORD97":171327.85000000001,"N_COORD97":2540951.8900000001,"ADDRESS":"崇善東路３１號","OBJECTID":600106},"geometry":{"x":171327.84999999963,"y":2540951.8900000025}},{"attributes":{"ID":600134,"DIS_CODE":0,"TOWNNAME":"東區","LI":"崇善里","LIN":"25鄰","STREET":"崇善東路","SECT":" ","MAREA":" ","LANE":" ","ALLEY":" ","HOUSE_NO":"３３號","E_COORD97":171331.51000000001,"N_COORD97":2540955.2999999998,"ADDRESS":"崇善東路３３號","OBJECTID":600107},"geometry":{"x":171331.50999999978,"y":2540955.3000000026}},{"attributes":{"ID":600135,"DIS_CODE":0,"TOWNNAME":"東區","LI":"崇善里","LIN":"25鄰","STREET":"崇善東路","SECT":" ","MAREA":" ","LANE":" ","ALLEY":" ","HOUSE_NO":"３５號","E_COORD97":171333.09,"N_COORD97":2540959.2200000002,"ADDRESS":"崇善東路３５號","OBJECTID":600108},"geometry":{"x":171333.08999999985,"y":2540959.2200000025}},{"attributes":{"ID":600136,"DIS_CODE":0,"TOWNNAME":"北區","LI":"和順里","LIN":"22鄰","STREET":"臨安路","SECT":"二段","MAREA":" ","LANE":" ","ALLEY":" ","HOUSE_NO":"２１９號","E_COORD97":168017.79000000001,"N_COORD97":2544972.8799999999,"ADDRESS":"臨安路二段２１９號","OBJECTID":600109},"geometry":{"x":168017.79000000004,"y":2544972.879999999}},{"attributes":{"ID":600137,"DIS_CODE":0,"TOWNNAME":"北區","LI":"和順里","LIN":"22鄰","STREET":"臨安路","SECT":"二段","MAREA":" ","LANE":" ","ALLEY":" ","HOUSE_NO":"２２３號","E_COORD97":168029.98000000001,"N_COORD97":2544975.9300000002,"ADDRESS":"臨安路二段２２３號","OBJECTID":600110},"geometry":{"x":168029.98000000138,"y":2544975.9299999997}},{"attributes":{"ID":600138,"DIS_CODE":0,"TOWNNAME":"北區","LI":"和順里","LIN":"22鄰","STREET":"臨安路","SECT":"二段","MAREA":" ","LANE":" ","ALLEY":" ","HOUSE_NO":"２２５號","E_COORD97":168034.10999999999,"N_COORD97":2544977.3100000001,"ADDRESS":"臨安路二段２２５號","OBJECTID":600111},"geometry":{"x":168034.11000000034,"y":2544977.3100000005}},{"attributes":{"ID":600139,"DIS_CODE":0,"TOWNNAME":"北區","LI":"和順里","LIN":"22鄰","STREET":"臨安路","SECT":"二段","MAREA":" ","LANE":" ","ALLEY":" ","HOUSE_NO":"２２７號","E_COORD97":168037.84,"N_COORD97":2544978.48,"ADDRESS":"臨安路二段２２７號","OBJECTID":600112},"geometry":{"x":168037.83999999892,"y":2544978.4800000023}},{"attributes":{"ID":600140,"DIS_CODE":0,"TOWNNAME":"北區","LI":"和順里","LIN":"22鄰","STREET":"臨安路","SECT":"二段","MAREA":" ","LANE":" ","ALLEY":" ","HOUSE_NO":"２２９號","E_COORD97":168041.97,"N_COORD97":2544979.8599999999,"ADDRESS":"臨安路二段２２９號","OBJECTID":600113},"geometry":{"x":168041.9700000016,"y":2544979.8599999994}},{"attributes":{"ID":600141,"DIS_CODE":0,"TOWNNAME":"北區","LI":"和順里","LIN":"22鄰","STREET":"臨安路","SECT":"二段","MAREA":" ","LANE":" ","ALLEY":" ","HOUSE_NO":"２３１號","E_COORD97":168046.69,"N_COORD97":2544981.23,"ADDRESS":"臨安路二段２３１號","OBJECTID":600114},"geometry":{"x":168046.69000000134,"y":2544981.2300000004}},{"attributes":{"ID":600142,"DIS_CODE":0,"TOWNNAME":"永康區","LI":"大橋里","LIN":"22鄰","STREET":"大橋一街","SECT":" ","MAREA":" ","LANE":" ","ALLEY":" ","HOUSE_NO":"１４５號五樓","E_COORD97":171063.64999999999,"N_COORD97":2546511.0099999998,"ADDRESS":"大橋一街１４５號五樓","OBJECTID":600115},"geometry":{"x":171063.65000000037,"y":2546511.0099999998}},{"attributes":{"ID":600143,"DIS_CODE":0,"TOWNNAME":"永康區","LI":"大橋里","LIN":"22鄰","STREET":"大橋一街","SECT":" ","MAREA":" ","LANE":" ","ALLEY":" ","HOUSE_NO":"１５３號二樓","E_COORD97":171075.56,"N_COORD97":2546518.7599999998,"ADDRESS":"大橋一街１５３號二樓","OBJECTID":600116},"geometry":{"x":171075.55999999866,"y":2546518.7600000016}},{"attributes":{"ID":600144,"DIS_CODE":0,"TOWNNAME":"永康區","LI":"大橋里","LIN":"22鄰","STREET":"大橋一街","SECT":" ","MAREA":" ","LANE":" ","ALLEY":" ","HOUSE_NO":"１４９號四樓之１","E_COORD97":171061.37,"N_COORD97":2546530.2999999998,"ADDRESS":"大橋一街１４９號四樓之１","OBJECTID":600117},"geometry":{"x":171061.37000000104,"y":2546530.3000000007}},{"attributes":{"ID":600145,"DIS_CODE":0,"TOWNNAME":"永康區","LI":"大橋里","LIN":"22鄰","STREET":"大橋一街","SECT":" ","MAREA":" ","LANE":" ","ALLEY":" ","HOUSE_NO":"１５３號六樓","E_COORD97":171075.56,"N_COORD97":2546518.7599999998,"ADDRESS":"大橋一街１５３號六樓","OBJECTID":600118},"geometry":{"x":171075.55999999866,"y":2546518.7600000016}},{"attributes":{"ID":600146,"DIS_CODE":0,"TOWNNAME":"永康區","LI":"大橋里","LIN":"22鄰","STREET":"大橋一街","SECT":" ","MAREA":" ","LANE":" ","ALLEY":" ","HOUSE_NO":"１４９號二樓之１","E_COORD97":171061.37,"N_COORD97":2546530.2999999998,"ADDRESS":"大橋一街１４９號二樓之１","OBJECTID":600119},"geometry":{"x":171061.37000000104,"y":2546530.3000000007}},{"attributes":{"ID":600147,"DIS_CODE":0,"TOWNNAME":"永康區","LI":"大橋里","LIN":"22鄰","STREET":"大橋一街","SECT":" ","MAREA":" ","LANE":" ","ALLEY":" ","HOUSE_NO":"１５１號五樓","E_COORD97":171055.35000000001,"N_COORD97":2546536.7599999998,"ADDRESS":"大橋一街１５１號五樓","OBJECTID":600120},"geometry":{"x":171055.35000000056,"y":2546536.7599999998}},{"attributes":{"ID":600148,"DIS_CODE":0,"TOWNNAME":"永康區","LI":"大橋里","LIN":"22鄰","STREET":"大橋一街","SECT":" ","MAREA":" ","LANE":" ","ALLEY":" ","HOUSE_NO":"１５３號三樓","E_COORD97":171075.56,"N_COORD97":2546518.7599999998,"ADDRESS":"大橋一街１５３號三樓","OBJECTID":600121},"geometry":{"x":171075.55999999866,"y":2546518.7600000016}},{"attributes":{"ID":600149,"DIS_CODE":0,"TOWNNAME":"永康區","LI":"大橋里","LIN":"22鄰","STREET":"大橋一街","SECT":" ","MAREA":" ","LANE":" ","ALLEY":" ","HOUSE_NO":"１４９號三樓之１","E_COORD97":171061.37,"N_COORD97":2546530.2999999998,"ADDRESS":"大橋一街１４９號三樓之１","OBJECTID":600122},"geometry":{"x":171061.37000000104,"y":2546530.3000000007}},{"attributes":{"ID":600150,"DIS_CODE":0,"TOWNNAME":"永康區","LI":"大橋里","LIN":"22鄰","STREET":"大橋一街","SECT":" ","MAREA":" ","LANE":" ","ALLEY":" ","HOUSE_NO":"１４９號四樓之２","E_COORD97":171061.51000000001,"N_COORD97":2546530.2999999998,"ADDRESS":"大橋一街１４９號四樓之２","OBJECTID":600123},"geometry":{"x":171061.51000000071,"y":2546530.3000000007}},{"attributes":{"ID":600151,"DIS_CODE":0,"TOWNNAME":"永康區","LI":"大橋里","LIN":"22鄰","STREET":"大橋一街","SECT":" ","MAREA":" ","LANE":" ","ALLEY":" ","HOUSE_NO":"１４９號五樓之１","E_COORD97":171061.37,"N_COORD97":2546530.2999999998,"ADDRESS":"大橋一街１４９號五樓之１","OBJECTID":600124},"geometry":{"x":171061.37000000104,"y":2546530.3000000007}},{"attributes":{"ID":600152,"DIS_CODE":0,"TOWNNAME":"永康區","LI":"大橋里","LIN":"22鄰","STREET":"大橋一街","SECT":" ","MAREA":" ","LANE":" ","ALLEY":" ","HOUSE_NO":"１４９號六樓之２","E_COORD97":171061.51000000001,"N_COORD97":2546530.2999999998,"ADDRESS":"大橋一街１４９號六樓之２","OBJECTID":600125},"geometry":{"x":171061.51000000071,"y":2546530.3000000007}},{"attributes":{"ID":600153,"DIS_CODE":0,"TOWNNAME":"永康區","LI":"大橋里","LIN":"22鄰","STREET":"大橋一街","SECT":" ","MAREA":" ","LANE":" ","ALLEY":" ","HOUSE_NO":"１４９號二樓之２","E_COORD97":171061.51000000001,"N_COORD97":2546530.2999999998,"ADDRESS":"大橋一街１４９號二樓之２","OBJECTID":600126},"geometry":{"x":171061.51000000071,"y":2546530.3000000007}},{"attributes":{"ID":600154,"DIS_CODE":0,"TOWNNAME":"永康區","LI":"大橋里","LIN":"22鄰","STREET":"大橋一街","SECT":" ","MAREA":" ","LANE":" ","ALLEY":" ","HOUSE_NO":"１５３號四樓","E_COORD97":171075.56,"N_COORD97":2546518.7599999998,"ADDRESS":"大橋一街１５３號四樓","OBJECTID":600127},"geometry":{"x":171075.55999999866,"y":2546518.7600000016}},{"attributes":{"ID":600155,"DIS_CODE":0,"TOWNNAME":"永康區","LI":"大橋里","LIN":"22鄰","STREET":"大橋一街","SECT":" ","MAREA":" ","LANE":" ","ALLEY":" ","HOUSE_NO":"１４９號六樓之１","E_COORD97":171061.37,"N_COORD97":2546530.2999999998,"ADDRESS":"大橋一街１４９號六樓之１","OBJECTID":600128},"geometry":{"x":171061.37000000104,"y":2546530.3000000007}},{"attributes":{"ID":600156,"DIS_CODE":0,"TOWNNAME":"永康區","LI":"大橋里","LIN":"22鄰","STREET":"大橋一街","SECT":" ","MAREA":" ","LANE":" ","ALLEY":" ","HOUSE_NO":"１４５號三樓","E_COORD97":171063.64999999999,"N_COORD97":2546511.0099999998,"ADDRESS":"大橋一街１４５號三樓","OBJECTID":600129},"geometry":{"x":171063.65000000037,"y":2546511.0099999998}},{"attributes":{"ID":600157,"DIS_CODE":0,"TOWNNAME":"永康區","LI":"大橋里","LIN":"22鄰","STREET":"大橋一街","SECT":" ","MAREA":" ","LANE":" ","ALLEY":" ","HOUSE_NO":"１５１號二樓","E_COORD97":171055.35000000001,"N_COORD97":2546536.7599999998,"ADDRESS":"大橋一街１５１號二樓","OBJECTID":600130},"geometry":{"x":171055.35000000056,"y":2546536.7599999998}},{"attributes":{"ID":600158,"DIS_CODE":0,"TOWNNAME":"東區","LI":"崇善里","LIN":"25鄰","STREET":"崇善東路","SECT":" ","MAREA":" ","LANE":" ","ALLEY":" ","HOUSE_NO":"７１號","E_COORD97":171395.57000000001,"N_COORD97":2541055.2999999998,"ADDRESS":"崇善東路７１號","OBJECTID":600131},"geometry":{"x":171395.57000000123,"y":2541055.3000000007}},{"attributes":{"ID":600159,"DIS_CODE":0,"TOWNNAME":"東區","LI":"德高里","LIN":"15鄰","STREET":"崇善東路","SECT":" ","MAREA":" ","LANE":" ","ALLEY":" ","HOUSE_NO":"５０號","E_COORD97":171350.12,"N_COORD97":2540931.6699999999,"ADDRESS":"崇善東路５０號","OBJECTID":600132},"geometry":{"x":171350.12000000011,"y":2540931.6700000018}},{"attributes":{"ID":600160,"DIS_CODE":0,"TOWNNAME":"東區","LI":"德高里","LIN":"15鄰","STREET":"崇善東路","SECT":" ","MAREA":" ","LANE":" ","ALLEY":" ","HOUSE_NO":"５２號","E_COORD97":171352.92999999999,"N_COORD97":2540935.7400000002,"ADDRESS":"崇善東路５２號","OBJECTID":600133},"geometry":{"x":171352.93000000156,"y":2540935.7400000021}},{"attributes":{"ID":600161,"DIS_CODE":0,"TOWNNAME":"東區","LI":"德高里","LIN":"15鄰","STREET":"崇善東路","SECT":" ","MAREA":" ","LANE":" ","ALLEY":" ","HOUSE_NO":"８號","E_COORD97":171298.78,"N_COORD97":2540850.6899999999,"ADDRESS":"崇善東路８號","OBJECTID":600134},"geometry":{"x":171298.78000000119,"y":2540850.6900000013}},{"attributes":{"ID":600162,"DIS_CODE":0,"TOWNNAME":"東區","LI":"德高里","LIN":"15鄰","STREET":"崇善東路","SECT":" ","MAREA":" ","LANE":" ","ALLEY":" ","HOUSE_NO":"５８號","E_COORD97":171358.88,"N_COORD97":2540949.96,"ADDRESS":"崇善東路５８號","OBJECTID":600135},"geometry":{"x":171358.88000000082,"y":2540949.9600000009}},{"attributes":{"ID":600163,"DIS_CODE":0,"TOWNNAME":"東區","LI":"大學里","LIN":"9鄰","STREET":"東寧路","SECT":" ","MAREA":" ","LANE":" ","ALLEY":" ","HOUSE_NO":"３５號","E_COORD97":170122.73999999999,"N_COORD97":2543637.7799999998,"ADDRESS":"東寧路３５號","OBJECTID":600136},"geometry":{"x":170122.74000000115,"y":2543637.7799999993}},{"attributes":{"ID":600164,"DIS_CODE":0,"TOWNNAME":"東區","LI":"大學里","LIN":"9鄰","STREET":"東寧路","SECT":" ","MAREA":" ","LANE":" ","ALLEY":" ","HOUSE_NO":"３７號","E_COORD97":170137.48000000001,"N_COORD97":2543640.77,"ADDRESS":"東寧路３７號","OBJECTID":600137},"geometry":{"x":170137.48000000045,"y":2543640.7699999996}},{"attributes":{"ID":600165,"DIS_CODE":0,"TOWNNAME":"中西區","LI":"開山里","LIN":"22鄰","STREET":"開山路","SECT":" ","MAREA":" ","LANE":" ","ALLEY":" ","HOUSE_NO":"２６７號二樓之２","E_COORD97":169053.35999999999,"N_COORD97":2542932.2799999998,"ADDRESS":"開山路２６７號二樓之２","OBJECTID":600138},"geometry":{"x":169053.36000000034,"y":2542932.2799999993}},{"attributes":{"ID":600166,"DIS_CODE":0,"TOWNNAME":"東區","LI":"泉南里","LIN":"17鄰","STREET":"府連路","SECT":" ","MAREA":" ","LANE":" ","ALLEY":" ","HOUSE_NO":"４２８號","E_COORD97":169726.35999999999,"N_COORD97":2542888.4100000001,"ADDRESS":"府連路４２８號","OBJECTID":600139},"geometry":{"x":169726.36000000034,"y":2542888.4100000001}},{"attributes":{"ID":600167,"DIS_CODE":0,"TOWNNAME":"東區","LI":"泉南里","LIN":"17鄰","STREET":"府連路","SECT":" ","MAREA":" ","LANE":" ","ALLEY":" ","HOUSE_NO":"４３０號","E_COORD97":169728.03,"N_COORD97":2542890.5699999998,"ADDRESS":"府連路４３０號","OBJECTID":600140},"geometry":{"x":169728.03000000026,"y":2542890.5700000003}},{"attributes":{"ID":600168,"DIS_CODE":0,"TOWNNAME":"東區","LI":"泉南里","LIN":"17鄰","STREET":"府連路","SECT":" ","MAREA":" ","LANE":" ","ALLEY":" ","HOUSE_NO":"４２６號","E_COORD97":169723.76999999999,"N_COORD97":2542882.2799999998,"ADDRESS":"府連路４２６號","OBJECTID":600141},"geometry":{"x":169723.77000000048,"y":2542882.2799999975}},{"attributes":{"ID":600169,"DIS_CODE":0,"TOWNNAME":"東區","LI":"泉南里","LIN":"17鄰","STREET":"府連路","SECT":" ","MAREA":" ","LANE":" ","ALLEY":" ","HOUSE_NO":"４２４號","E_COORD97":169721.54000000001,"N_COORD97":2542875.6099999999,"ADDRESS":"府連路４２４號","OBJECTID":600142},"geometry":{"x":169721.54000000004,"y":2542875.6099999994}},{"attributes":{"ID":600170,"DIS_CODE":0,"TOWNNAME":"東區","LI":"崇德里","LIN":"15鄰","STREET":"崇明十三街","SECT":" ","MAREA":" ","LANE":" ","ALLEY":" ","HOUSE_NO":"４２號之１","E_COORD97":170535.89999999999,"N_COORD97":2541636.6000000001,"ADDRESS":"崇明十三街４２號之１","OBJECTID":600143},"geometry":{"x":170535.9000000013,"y":2541636.6000000034}},{"attributes":{"ID":600171,"DIS_CODE":0,"TOWNNAME":"中西區","LI":"開山里","LIN":"22鄰","STREET":"開山路","SECT":" ","MAREA":" ","LANE":" ","ALLEY":" ","HOUSE_NO":"２６７號二樓之３","E_COORD97":169053.35999999999,"N_COORD97":2542932.2799999998,"ADDRESS":"開山路２６７號二樓之３","OBJECTID":600144},"geometry":{"x":169053.36000000034,"y":2542932.2799999993}},{"attributes":{"ID":600172,"DIS_CODE":0,"TOWNNAME":"中西區","LI":"開山里","LIN":"22鄰","STREET":"開山路","SECT":" ","MAREA":" ","LANE":" ","ALLEY":" ","HOUSE_NO":"２６７號三樓之１","E_COORD97":169053.35999999999,"N_COORD97":2542932.2799999998,"ADDRESS":"開山路２６７號三樓之１","OBJECTID":600145},"geometry":{"x":169053.36000000034,"y":2542932.2799999993}},{"attributes":{"ID":600173,"DIS_CODE":0,"TOWNNAME":"中西區","LI":"開山里","LIN":"22鄰","STREET":"開山路","SECT":" ","MAREA":" ","LANE":" ","ALLEY":" ","HOUSE_NO":"２６７號三樓之２","E_COORD97":169053.35999999999,"N_COORD97":2542932.2799999998,"ADDRESS":"開山路２６７號三樓之２","OBJECTID":600146},"geometry":{"x":169053.36000000034,"y":2542932.2799999993}},{"attributes":{"ID":600174,"DIS_CODE":0,"TOWNNAME":"中西區","LI":"開山里","LIN":"22鄰","STREET":"開山路","SECT":" ","MAREA":" ","LANE":" ","ALLEY":" ","HOUSE_NO":"２６７號三樓之３","E_COORD97":169053.35999999999,"N_COORD97":2542932.2799999998,"ADDRESS":"開山路２６７號三樓之３","OBJECTID":600147},"geometry":{"x":169053.36000000034,"y":2542932.2799999993}},{"attributes":{"ID":600175,"DIS_CODE":0,"TOWNNAME":"中西區","LI":"開山里","LIN":"22鄰","STREET":"開山路","SECT":" ","MAREA":" ","LANE":" ","ALLEY":" ","HOUSE_NO":"２６７號五樓之１","E_COORD97":169053.35999999999,"N_COORD97":2542932.2799999998,"ADDRESS":"開山路２６７號五樓之１","OBJECTID":600148},"geometry":{"x":169053.36000000034,"y":2542932.2799999993}},{"attributes":{"ID":600176,"DIS_CODE":0,"TOWNNAME":"中西區","LI":"開山里","LIN":"22鄰","STREET":"開山路","SECT":" ","MAREA":" ","LANE":" ","ALLEY":" ","HOUSE_NO":"２６７號五樓之３","E_COORD97":169053.35999999999,"N_COORD97":2542932.2799999998,"ADDRESS":"開山路２６７號五樓之３","OBJECTID":600149},"geometry":{"x":169053.36000000034,"y":2542932.2799999993}},{"attributes":{"ID":600177,"DIS_CODE":0,"TOWNNAME":"中西區","LI":"開山里","LIN":"22鄰","STREET":"開山路","SECT":" ","MAREA":" ","LANE":" ","ALLEY":" ","HOUSE_NO":"２６７號四樓之１","E_COORD97":169053.35999999999,"N_COORD97":2542932.2799999998,"ADDRESS":"開山路２６７號四樓之１","OBJECTID":600150},"geometry":{"x":169053.36000000034,"y":2542932.2799999993}},{"attributes":{"ID":600178,"DIS_CODE":0,"TOWNNAME":"中西區","LI":"開山里","LIN":"22鄰","STREET":"開山路","SECT":" ","MAREA":" ","LANE":" ","ALLEY":" ","HOUSE_NO":"２６７號四樓之２","E_COORD97":169053.35999999999,"N_COORD97":2542932.2799999998,"ADDRESS":"開山路２６７號四樓之２","OBJECTID":600151},"geometry":{"x":169053.36000000034,"y":2542932.2799999993}},{"attributes":{"ID":600179,"DIS_CODE":0,"TOWNNAME":"中西區","LI":"開山里","LIN":"22鄰","STREET":"開山路","SECT":" ","MAREA":" ","LANE":" ","ALLEY":" ","HOUSE_NO":"２６７號四樓之３","E_COORD97":169053.35999999999,"N_COORD97":2542932.2799999998,"ADDRESS":"開山路２６７號四樓之３","OBJECTID":600152},"geometry":{"x":169053.36000000034,"y":2542932.2799999993}},{"attributes":{"ID":600180,"DIS_CODE":0,"TOWNNAME":"中西區","LI":"開山里","LIN":"22鄰","STREET":"開山路","SECT":" ","MAREA":" ","LANE":" ","ALLEY":" ","HOUSE_NO":"２６９號二樓","E_COORD97":169054.89000000001,"N_COORD97":2542924.9700000002,"ADDRESS":"開山路２６９號二樓","OBJECTID":600153},"geometry":{"x":169054.8900000006,"y":2542924.9700000025}},{"attributes":{"ID":600181,"DIS_CODE":0,"TOWNNAME":"永康區","LI":"大橋里","LIN":"22鄰","STREET":"大橋一街","SECT":" ","MAREA":" ","LANE":" ","ALLEY":" ","HOUSE_NO":"１４９號五樓之２","E_COORD97":171061.51000000001,"N_COORD97":2546530.2999999998,"ADDRESS":"大橋一街１４９號五樓之２","OBJECTID":600154},"geometry":{"x":171061.51000000071,"y":2546530.3000000007}},{"attributes":{"ID":600182,"DIS_CODE":0,"TOWNNAME":"東區","LI":"忠孝里","LIN":"24鄰","STREET":"崇明五街","SECT":" ","MAREA":" ","LANE":" ","ALLEY":" ","HOUSE_NO":"１１號","E_COORD97":169600.59,"N_COORD97":2542248.0099999998,"ADDRESS":"崇明五街１１號","OBJECTID":600155},"geometry":{"x":169600.58999999985,"y":2542248.0100000016}},{"attributes":{"ID":600183,"DIS_CODE":0,"TOWNNAME":"東區","LI":"忠孝里","LIN":"24鄰","STREET":"崇明五街","SECT":" ","MAREA":" ","LANE":" ","ALLEY":" ","HOUSE_NO":"１３號","E_COORD97":169605.97,"N_COORD97":2542249.6699999999,"ADDRESS":"崇明五街１３號","OBJECTID":600156},"geometry":{"x":169605.96999999974,"y":2542249.6699999981}},{"attributes":{"ID":600184,"DIS_CODE":0,"TOWNNAME":"東區","LI":"忠孝里","LIN":"24鄰","STREET":"崇明五街","SECT":" ","MAREA":" ","LANE":" ","ALLEY":" ","HOUSE_NO":"９號","E_COORD97":169595.82999999999,"N_COORD97":2542246.5600000001,"ADDRESS":"崇明五街９號","OBJECTID":600157},"geometry":{"x":169595.83000000007,"y":2542246.5600000005}},{"attributes":{"ID":600185,"DIS_CODE":0,"TOWNNAME":"東區","LI":"忠孝里","LIN":"24鄰","STREET":"崇明五街","SECT":" ","MAREA":" ","LANE":" ","ALLEY":" ","HOUSE_NO":"１５號","E_COORD97":169610.94,"N_COORD97":2542250.9100000001,"ADDRESS":"崇明五街１５號","OBJECTID":600158},"geometry":{"x":169610.94000000227,"y":2542250.9100000001}},{"attributes":{"ID":600186,"DIS_CODE":0,"TOWNNAME":"東區","LI":"中西里","LIN":"30鄰","STREET":"東寧路","SECT":" ","MAREA":" ","LANE":" ","ALLEY":" ","HOUSE_NO":"１８８號","E_COORD97":170458.85000000001,"N_COORD97":2543507.6000000001,"ADDRESS":"東寧路１８８號","OBJECTID":600159},"geometry":{"x":170458.85000000056,"y":2543507.5999999978}},{"attributes":{"ID":600187,"DIS_CODE":0,"TOWNNAME":"永康區","LI":"大橋里","LIN":"22鄰","STREET":"大橋一街","SECT":" ","MAREA":" ","LANE":" ","ALLEY":" ","HOUSE_NO":"１５１號六樓","E_COORD97":171055.35000000001,"N_COORD97":2546536.7599999998,"ADDRESS":"大橋一街１５１號六樓","OBJECTID":600160},"geometry":{"x":171055.35000000056,"y":2546536.7599999998}},{"attributes":{"ID":600188,"DIS_CODE":0,"TOWNNAME":"永康區","LI":"大橋里","LIN":"22鄰","STREET":"大橋一街","SECT":" ","MAREA":" ","LANE":" ","ALLEY":" ","HOUSE_NO":"１４５號四樓","E_COORD97":171063.64999999999,"N_COORD97":2546511.0099999998,"ADDRESS":"大橋一街１４５號四樓","OBJECTID":600161},"geometry":{"x":171063.65000000037,"y":2546511.0099999998}},{"attributes":{"ID":600189,"DIS_CODE":0,"TOWNNAME":"永康區","LI":"大橋里","LIN":"22鄰","STREET":"大橋一街","SECT":" ","MAREA":" ","LANE":" ","ALLEY":" ","HOUSE_NO":"１５１號三樓","E_COORD97":171055.35000000001,"N_COORD97":2546536.7599999998,"ADDRESS":"大橋一街１５１號三樓","OBJECTID":600162},"geometry":{"x":171055.35000000056,"y":2546536.7599999998}},{"attributes":{"ID":600190,"DIS_CODE":0,"TOWNNAME":"永康區","LI":"大橋里","LIN":"22鄰","STREET":"大橋一街","SECT":" ","MAREA":" ","LANE":" ","ALLEY":" ","HOUSE_NO":"１５３號五樓","E_COORD97":171075.56,"N_COORD97":2546518.7599999998,"ADDRESS":"大橋一街１５３號五樓","OBJECTID":600163},"geometry":{"x":171075.55999999866,"y":2546518.7600000016}},{"attributes":{"ID":600191,"DIS_CODE":0,"TOWNNAME":"永康區","LI":"大橋里","LIN":"22鄰","STREET":"大橋一街","SECT":" ","MAREA":" ","LANE":" ","ALLEY":" ","HOUSE_NO":"１５１號四樓","E_COORD97":171055.35000000001,"N_COORD97":2546536.7599999998,"ADDRESS":"大橋一街１５１號四樓","OBJECTID":600164},"geometry":{"x":171055.35000000056,"y":2546536.7599999998}},{"attributes":{"ID":600192,"DIS_CODE":0,"TOWNNAME":"安南區","LI":"溪北里","LIN":"22鄰","STREET":"敬安街","SECT":" ","MAREA":" ","LANE":" ","ALLEY":" ","HOUSE_NO":"１５號八樓","E_COORD97":169152.56,"N_COORD97":2547527.25,"ADDRESS":"敬安街１５號八樓","OBJECTID":600165},"geometry":{"x":169152.55999999959,"y":2547527.25}},{"attributes":{"ID":600193,"DIS_CODE":0,"TOWNNAME":"安南區","LI":"溪北里","LIN":"22鄰","STREET":"敬安街","SECT":" ","MAREA":" ","LANE":" ","ALLEY":" ","HOUSE_NO":"１５號三樓","E_COORD97":169152.56,"N_COORD97":2547527.25,"ADDRESS":"敬安街１５號三樓","OBJECTID":600166},"geometry":{"x":169152.55999999959,"y":2547527.25}},{"attributes":{"ID":600194,"DIS_CODE":0,"TOWNNAME":"安南區","LI":"溪北里","LIN":"22鄰","STREET":"敬安街","SECT":" ","MAREA":" ","LANE":" ","ALLEY":" ","HOUSE_NO":"１５號五樓","E_COORD97":169152.56,"N_COORD97":2547527.25,"ADDRESS":"敬安街１５號五樓","OBJECTID":600167},"geometry":{"x":169152.55999999959,"y":2547527.25}},{"attributes":{"ID":600195,"DIS_CODE":0,"TOWNNAME":"安南區","LI":"溪北里","LIN":"22鄰","STREET":"敬安街","SECT":" ","MAREA":" ","LANE":" ","ALLEY":" ","HOUSE_NO":"１５號六樓","E_COORD97":169152.56,"N_COORD97":2547527.25,"ADDRESS":"敬安街１５號六樓","OBJECTID":600168},"geometry":{"x":169152.55999999959,"y":2547527.25}},{"attributes":{"ID":600196,"DIS_CODE":0,"TOWNNAME":"安南區","LI":"溪北里","LIN":"22鄰","STREET":"敬安街","SECT":" ","MAREA":" ","LANE":" ","ALLEY":" ","HOUSE_NO":"１５號四樓","E_COORD97":169152.56,"N_COORD97":2547527.25,"ADDRESS":"敬安街１５號四樓","OBJECTID":600169},"geometry":{"x":169152.55999999959,"y":2547527.25}},{"attributes":{"ID":600197,"DIS_CODE":0,"TOWNNAME":"安南區","LI":"溪北里","LIN":"22鄰","STREET":"敬安街","SECT":" ","MAREA":" ","LANE":" ","ALLEY":" ","HOUSE_NO":"１７號八樓","E_COORD97":169158.35000000001,"N_COORD97":2547528.1600000001,"ADDRESS":"敬安街１７號八樓","OBJECTID":600170},"geometry":{"x":169158.35000000056,"y":2547528.1600000001}},{"attributes":{"ID":600198,"DIS_CODE":0,"TOWNNAME":"安南區","LI":"溪北里","LIN":"22鄰","STREET":"敬安街","SECT":" ","MAREA":" ","LANE":" ","ALLEY":" ","HOUSE_NO":"１７號三樓","E_COORD97":169158.35000000001,"N_COORD97":2547528.1600000001,"ADDRESS":"敬安街１７號三樓","OBJECTID":600171},"geometry":{"x":169158.35000000056,"y":2547528.1600000001}},{"attributes":{"ID":600199,"DIS_CODE":0,"TOWNNAME":"安南區","LI":"溪北里","LIN":"22鄰","STREET":"敬安街","SECT":" ","MAREA":" ","LANE":" ","ALLEY":" ","HOUSE_NO":"１７號六樓","E_COORD97":169158.35000000001,"N_COORD97":2547528.1600000001,"ADDRESS":"敬安街１７號六樓","OBJECTID":600172},"geometry":{"x":169158.35000000056,"y":2547528.1600000001}},{"attributes":{"ID":600200,"DIS_CODE":0,"TOWNNAME":"安南區","LI":"溪北里","LIN":"22鄰","STREET":"敬安街","SECT":" ","MAREA":" ","LANE":" ","ALLEY":" ","HOUSE_NO":"１７號四樓","E_COORD97":169158.35000000001,"N_COORD97":2547528.1600000001,"ADDRESS":"敬安街１７號四樓","OBJECTID":600173},"geometry":{"x":169158.35000000056,"y":2547528.1600000001}},{"attributes":{"ID":600201,"DIS_CODE":0,"TOWNNAME":"東區","LI":"龍山里","LIN":"22鄰","STREET":"府東街","SECT":" ","MAREA":" ","LANE":" ","ALLEY":" ","HOUSE_NO":"２２號七樓之３","E_COORD97":170076.51999999999,"N_COORD97":2542873.75,"ADDRESS":"府東街２２號七樓之３","OBJECTID":600174},"geometry":{"x":170076.52000000048,"y":2542873.7500000019}},{"attributes":{"ID":600202,"DIS_CODE":0,"TOWNNAME":"東區","LI":"龍山里","LIN":"22鄰","STREET":"府東街","SECT":" ","MAREA":" ","LANE":" ","ALLEY":" ","HOUSE_NO":"２２號八樓","E_COORD97":170076.51999999999,"N_COORD97":2542873.75,"ADDRESS":"府東街２２號八樓","OBJECTID":600175},"geometry":{"x":170076.52000000048,"y":2542873.7500000019}},{"attributes":{"ID":600203,"DIS_CODE":0,"TOWNNAME":"東區","LI":"龍山里","LIN":"22鄰","STREET":"府東街","SECT":" ","MAREA":" ","LANE":" ","ALLEY":" ","HOUSE_NO":"２２號八樓之２","E_COORD97":170076.51999999999,"N_COORD97":2542873.75,"ADDRESS":"府東街２２號八樓之２","OBJECTID":600176},"geometry":{"x":170076.52000000048,"y":2542873.7500000019}},{"attributes":{"ID":600204,"DIS_CODE":0,"TOWNNAME":"東區","LI":"龍山里","LIN":"22鄰","STREET":"府東街","SECT":" ","MAREA":" ","LANE":" ","ALLEY":" ","HOUSE_NO":"２２號三樓","E_COORD97":170076.51999999999,"N_COORD97":2542873.75,"ADDRESS":"府東街２２號三樓","OBJECTID":600177},"geometry":{"x":170076.52000000048,"y":2542873.7500000019}},{"attributes":{"ID":600205,"DIS_CODE":0,"TOWNNAME":"東區","LI":"龍山里","LIN":"22鄰","STREET":"府東街","SECT":" ","MAREA":" ","LANE":" ","ALLEY":" ","HOUSE_NO":"２２號三樓之１","E_COORD97":170076.51999999999,"N_COORD97":2542873.75,"ADDRESS":"府東街２２號三樓之１","OBJECTID":600178},"geometry":{"x":170076.52000000048,"y":2542873.7500000019}},{"attributes":{"ID":600206,"DIS_CODE":0,"TOWNNAME":"東區","LI":"龍山里","LIN":"22鄰","STREET":"府東街","SECT":" ","MAREA":" ","LANE":" ","ALLEY":" ","HOUSE_NO":"２２號三樓之３","E_COORD97":170076.51999999999,"N_COORD97":2542873.75,"ADDRESS":"府東街２２號三樓之３","OBJECTID":600179},"geometry":{"x":170076.52000000048,"y":2542873.7500000019}},{"attributes":{"ID":600207,"DIS_CODE":0,"TOWNNAME":"東區","LI":"龍山里","LIN":"22鄰","STREET":"府東街","SECT":" ","MAREA":" ","LANE":" ","ALLEY":" ","HOUSE_NO":"２２號五樓","E_COORD97":170076.51999999999,"N_COORD97":2542873.75,"ADDRESS":"府東街２２號五樓","OBJECTID":600180},"geometry":{"x":170076.52000000048,"y":2542873.7500000019}},{"attributes":{"ID":600208,"DIS_CODE":0,"TOWNNAME":"東區","LI":"龍山里","LIN":"22鄰","STREET":"府東街","SECT":" ","MAREA":" ","LANE":" ","ALLEY":" ","HOUSE_NO":"２２號五樓之２","E_COORD97":170076.51999999999,"N_COORD97":2542873.75,"ADDRESS":"府東街２２號五樓之２","OBJECTID":600181},"geometry":{"x":170076.52000000048,"y":2542873.7500000019}},{"attributes":{"ID":600209,"DIS_CODE":0,"TOWNNAME":"東區","LI":"龍山里","LIN":"22鄰","STREET":"府東街","SECT":" ","MAREA":" ","LANE":" ","ALLEY":" ","HOUSE_NO":"２２號五樓之３","E_COORD97":170076.51999999999,"N_COORD97":2542873.75,"ADDRESS":"府東街２２號五樓之３","OBJECTID":600182},"geometry":{"x":170076.52000000048,"y":2542873.7500000019}},{"attributes":{"ID":600210,"DIS_CODE":0,"TOWNNAME":"東區","LI":"龍山里","LIN":"22鄰","STREET":"府東街","SECT":" ","MAREA":" ","LANE":" ","ALLEY":" ","HOUSE_NO":"２２號六樓","E_COORD97":170076.51999999999,"N_COORD97":2542873.75,"ADDRESS":"府東街２２號六樓","OBJECTID":600183},"geometry":{"x":170076.52000000048,"y":2542873.7500000019}},{"attributes":{"ID":600211,"DIS_CODE":0,"TOWNNAME":"東區","LI":"龍山里","LIN":"22鄰","STREET":"府東街","SECT":" ","MAREA":" ","LANE":" ","ALLEY":" ","HOUSE_NO":"２２號六樓之１","E_COORD97":170076.51999999999,"N_COORD97":2542873.75,"ADDRESS":"府東街２２號六樓之１","OBJECTID":600184},"geometry":{"x":170076.52000000048,"y":2542873.7500000019}},{"attributes":{"ID":600212,"DIS_CODE":0,"TOWNNAME":"東區","LI":"龍山里","LIN":"22鄰","STREET":"府東街","SECT":" ","MAREA":" ","LANE":" ","ALLEY":" ","HOUSE_NO":"２２號六樓之２","E_COORD97":170076.51999999999,"N_COORD97":2542873.75,"ADDRESS":"府東街２２號六樓之２","OBJECTID":600185},"geometry":{"x":170076.52000000048,"y":2542873.7500000019}},{"attributes":{"ID":600213,"DIS_CODE":0,"TOWNNAME":"東區","LI":"裕農里","LIN":"26鄰","STREET":"東寧路","SECT":" ","MAREA":" ","LANE":" ","ALLEY":" ","HOUSE_NO":"４４６號","E_COORD97":170992.32000000001,"N_COORD97":2543318.6899999999,"ADDRESS":"東寧路４４６號","OBJECTID":600186},"geometry":{"x":170992.32000000123,"y":2543318.6900000013}},{"attributes":{"ID":600214,"DIS_CODE":0,"TOWNNAME":"東區","LI":"崇善里","LIN":"15鄰","STREET":"崇善路","SECT":" ","MAREA":" ","LANE":" ","ALLEY":" ","HOUSE_NO":"５８７號","E_COORD97":171058.88,"N_COORD97":2541381.2999999998,"ADDRESS":"崇善路５８７號","OBJECTID":600187},"geometry":{"x":171058.88000000082,"y":2541381.3000000007}},{"attributes":{"ID":600215,"DIS_CODE":0,"TOWNNAME":"東區","LI":"裕農里","LIN":"1鄰","STREET":"裕農路","SECT":" ","MAREA":" ","LANE":" ","ALLEY":" ","HOUSE_NO":"１０３號","E_COORD97":170794.34,"N_COORD97":2542967.02,"ADDRESS":"裕農路１０３號","OBJECTID":600188},"geometry":{"x":170794.34000000171,"y":2542967.0200000014}},{"attributes":{"ID":600216,"DIS_CODE":0,"TOWNNAME":"東區","LI":"中西里","LIN":"30鄰","STREET":"東寧路","SECT":" ","MAREA":" ","LANE":" ","ALLEY":" ","HOUSE_NO":"１８６號地下一層","E_COORD97":170458.85000000001,"N_COORD97":2543507.6000000001,"ADDRESS":"東寧路１８６號地下一層","OBJECTID":600189},"geometry":{"x":170458.85000000056,"y":2543507.5999999978}},{"attributes":{"ID":600217,"DIS_CODE":0,"TOWNNAME":"東區","LI":"崇德里","LIN":"9鄰","STREET":"崇善路","SECT":" ","MAREA":" ","LANE":" ","ALLEY":" ","HOUSE_NO":"４５０號","E_COORD97":170981.25,"N_COORD97":2541530.8300000001,"ADDRESS":"崇善路４５０號","OBJECTID":600190},"geometry":{"x":170981.25,"y":2541530.8300000019}},{"attributes":{"ID":600218,"DIS_CODE":0,"TOWNNAME":"東區","LI":"大學里","LIN":"23鄰","STREET":"林森路","SECT":"二段","MAREA":" ","LANE":" ","ALLEY":" ","HOUSE_NO":"５００號","E_COORD97":170545.23000000001,"N_COORD97":2544439.9300000002,"ADDRESS":"林森路二段５００號","OBJECTID":600191},"geometry":{"x":170545.23000000138,"y":2544439.9299999997}},{"attributes":{"ID":600219,"DIS_CODE":0,"TOWNNAME":"東區","LI":"龍山里","LIN":"22鄰","STREET":"府東街","SECT":" ","MAREA":" ","LANE":" ","ALLEY":" ","HOUSE_NO":"２２號四樓","E_COORD97":170076.51999999999,"N_COORD97":2542873.75,"ADDRESS":"府東街２２號四樓","OBJECTID":600192},"geometry":{"x":170076.52000000048,"y":2542873.7500000019}},{"attributes":{"ID":600220,"DIS_CODE":0,"TOWNNAME":"東區","LI":"龍山里","LIN":"22鄰","STREET":"府東街","SECT":" ","MAREA":" ","LANE":" ","ALLEY":" ","HOUSE_NO":"２２號四樓之１","E_COORD97":170076.51999999999,"N_COORD97":2542873.75,"ADDRESS":"府東街２２號四樓之１","OBJECTID":600193},"geometry":{"x":170076.52000000048,"y":2542873.7500000019}},{"attributes":{"ID":600221,"DIS_CODE":0,"TOWNNAME":"東區","LI":"龍山里","LIN":"22鄰","STREET":"府東街","SECT":" ","MAREA":" ","LANE":" ","ALLEY":" ","HOUSE_NO":"２２號四樓之２","E_COORD97":170076.51999999999,"N_COORD97":2542873.75,"ADDRESS":"府東街２２號四樓之２","OBJECTID":600194},"geometry":{"x":170076.52000000048,"y":2542873.7500000019}},{"attributes":{"ID":600222,"DIS_CODE":0,"TOWNNAME":"東區","LI":"龍山里","LIN":"22鄰","STREET":"府東街","SECT":" ","MAREA":" ","LANE":" ","ALLEY":" ","HOUSE_NO":"２２號四樓之３","E_COORD97":170076.51999999999,"N_COORD97":2542873.75,"ADDRESS":"府東街２２號四樓之３","OBJECTID":600195},"geometry":{"x":170076.52000000048,"y":2542873.7500000019}},{"attributes":{"ID":600223,"DIS_CODE":0,"TOWNNAME":"東區","LI":"龍山里","LIN":"22鄰","STREET":"府東街","SECT":" ","MAREA":" ","LANE":" ","ALLEY":" ","HOUSE_NO":"３０號七樓","E_COORD97":170059.63,"N_COORD97":2542892.3999999999,"ADDRESS":"府東街３０號七樓","OBJECTID":600196},"geometry":{"x":170059.62999999989,"y":2542892.4000000004}},{"attributes":{"ID":600224,"DIS_CODE":0,"TOWNNAME":"東區","LI":"龍山里","LIN":"22鄰","STREET":"府東街","SECT":" ","MAREA":" ","LANE":" ","ALLEY":" ","HOUSE_NO":"３０號七樓之３","E_COORD97":170059.63,"N_COORD97":2542892.3999999999,"ADDRESS":"府東街３０號七樓之３","OBJECTID":600197},"geometry":{"x":170059.62999999989,"y":2542892.4000000004}},{"attributes":{"ID":600225,"DIS_CODE":0,"TOWNNAME":"東區","LI":"龍山里","LIN":"22鄰","STREET":"府東街","SECT":" ","MAREA":" ","LANE":" ","ALLEY":" ","HOUSE_NO":"３０號八樓","E_COORD97":170059.63,"N_COORD97":2542892.3999999999,"ADDRESS":"府東街３０號八樓","OBJECTID":600198},"geometry":{"x":170059.62999999989,"y":2542892.4000000004}},{"attributes":{"ID":600226,"DIS_CODE":0,"TOWNNAME":"東區","LI":"龍山里","LIN":"22鄰","STREET":"府東街","SECT":" ","MAREA":" ","LANE":" ","ALLEY":" ","HOUSE_NO":"３０號八樓之２","E_COORD97":170059.63,"N_COORD97":2542892.3999999999,"ADDRESS":"府東街３０號八樓之２","OBJECTID":600199},"geometry":{"x":170059.62999999989,"y":2542892.4000000004}},{"attributes":{"ID":600227,"DIS_CODE":0,"TOWNNAME":"東區","LI":"龍山里","LIN":"22鄰","STREET":"府東街","SECT":" ","MAREA":" ","LANE":" ","ALLEY":" ","HOUSE_NO":"３０號八樓之３","E_COORD97":170059.63,"N_COORD97":2542892.3999999999,"ADDRESS":"府東街３０號八樓之３","OBJECTID":600200},"geometry":{"x":170059.62999999989,"y":2542892.4000000004}}]}