{"displayFieldName":"TOWNNAME","fieldAliases":{"ID":"ID","DIS_CODE":"DIS_CODE","TOWNNAME":"TOWNNAME","LI":"LI","LIN":"LIN","STREET":"STREET","SECT":"SECT","MAREA":"MAREA","LANE":"LANE","ALLEY":"ALLEY","HOUSE_NO":"HOUSE_NO","E_COORD97":"E_COORD97","N_COORD97":"N_COORD97","ADDRESS":"ADDRESS","OBJECTID":"OBJECTID"},"geometryType":"esriGeometryPoint","spatialReference":{"wkid":102443,"latestWkid":3826},"fields":[{"name":"ID","type":"esriFieldTypeDouble","alias":"ID"},{"name":"DIS_CODE","type":"esriFieldTypeInteger","alias":"DIS_CODE"},{"name":"TOWNNAME","type":"esriFieldTypeString","alias":"TOWNNAME","length":8},{"name":"LI","type":"esriFieldTypeString","alias":"LI","length":8},{"name":"LIN","type":"esriFieldTypeString","alias":"LIN","length":12},{"name":"STREET","type":"esriFieldTypeString","alias":"STREET","length":20},{"name":"SECT","type":"esriFieldTypeString","alias":"SECT","length":8},{"name":"MAREA","type":"esriFieldTypeString","alias":"MAREA","length":12},{"name":"LANE","type":"esriFieldTypeString","alias":"LANE","length":10},{"name":"ALLEY","type":"esriFieldTypeString","alias":"ALLEY","length":10},{"name":"HOUSE_NO","type":"esriFieldTypeString","alias":"HOUSE_NO","length":20},{"name":"E_COORD97","type":"esriFieldTypeDouble","alias":"E_COORD97"},{"name":"N_COORD97","type":"esriFieldTypeDouble","alias":"N_COORD97"},{"name":"ADDRESS","type":"esriFieldTypeString","alias":"ADDRESS","length":50},{"name":"OBJECTID","type":"esriFieldTypeOID","alias":"OBJECTID"}],"features":[{"attributes":{"ID":260605,"DIS_CODE":0,"TOWNNAME":"歸仁區","LI":"看西里","LIN":"13鄰","STREET":"仁愛南街","SECT":" ","MAREA":" ","LANE":" ","ALLEY":" ","HOUSE_NO":"２６３號","E_COORD97":178306.26000000001,"N_COORD97":2540090.1200000001,"ADDRESS":"仁愛南街２６３號","OBJECTID":260601},"geometry":{"x":178306.26000000164,"y":2540090.120000001}},{"attributes":{"ID":260606,"DIS_CODE":0,"TOWNNAME":"新營區","LI":"埤寮里","LIN":"13鄰","STREET":"長榮路","SECT":"二段","MAREA":" ","LANE":" ","ALLEY":" ","HOUSE_NO":"６８號","E_COORD97":179863,"N_COORD97":2579910.0600000001,"ADDRESS":"長榮路二段６８號","OBJECTID":260602},"geometry":{"x":179863.00000000093,"y":2579910.0600000005}},{"attributes":{"ID":260607,"DIS_CODE":0,"TOWNNAME":"新市區","LI":"社內里","LIN":"13鄰","STREET":"中山路","SECT":" ","MAREA":" ","LANE":" ","ALLEY":" ","HOUSE_NO":"５０３之３號","E_COORD97":176429.45999999999,"N_COORD97":2551340.2999999998,"ADDRESS":"中山路５０３之３號","OBJECTID":260603},"geometry":{"x":176429.45999999996,"y":2551340.3000000026}},{"attributes":{"ID":260608,"DIS_CODE":0,"TOWNNAME":"南區","LI":"府南里","LIN":"13鄰","STREET":"永成路","SECT":"三段","MAREA":" ","LANE":" ","ALLEY":" ","HOUSE_NO":"３７８號","E_COORD97":167511.919352,"N_COORD97":2540998.4329400002,"ADDRESS":"永成路三段３７８號","OBJECTID":260604},"geometry":{"x":167511.91935199965,"y":2540998.4329370018}},{"attributes":{"ID":260609,"DIS_CODE":0,"TOWNNAME":"南區","LI":"府南里","LIN":"13鄰","STREET":"永成路","SECT":"三段","MAREA":" ","LANE":" ","ALLEY":" ","HOUSE_NO":"３８０號","E_COORD97":167511.17802799999,"N_COORD97":2541004.6771,"ADDRESS":"永成路三段３８０號","OBJECTID":260605},"geometry":{"x":167511.17802799959,"y":2541004.677099999}},{"attributes":{"ID":260610,"DIS_CODE":0,"TOWNNAME":"南區","LI":"府南里","LIN":"13鄰","STREET":"永成路","SECT":"三段","MAREA":" ","LANE":" ","ALLEY":" ","HOUSE_NO":"３８２號","E_COORD97":167510.54260799999,"N_COORD97":2541009.1220999998,"ADDRESS":"永成路三段３８２號","OBJECTID":260606},"geometry":{"x":167510.54260800127,"y":2541009.1220969986}},{"attributes":{"ID":260611,"DIS_CODE":0,"TOWNNAME":"仁德區","LI":"仁愛里","LIN":"24鄰","STREET":"保仁路","SECT":" ","MAREA":" ","LANE":" ","ALLEY":" ","HOUSE_NO":"２５２號三樓之１","E_COORD97":169989.05330999999,"N_COORD97":2540084.3561900002,"ADDRESS":"保仁路２５２號三樓之１","OBJECTID":260607},"geometry":{"x":169989.05331000034,"y":2540084.3561899997}},{"attributes":{"ID":260612,"DIS_CODE":0,"TOWNNAME":"東山區","LI":"東中里","LIN":"22鄰","STREET":"中興路","SECT":" ","MAREA":" ","LANE":" ","ALLEY":" ","HOUSE_NO":"７０號","E_COORD97":189000.85000000001,"N_COORD97":2580178.3100000001,"ADDRESS":"中興路７０號","OBJECTID":260608},"geometry":{"x":189000.85000000056,"y":2580178.3100000024}},{"attributes":{"ID":260613,"DIS_CODE":0,"TOWNNAME":"仁德區","LI":"仁愛里","LIN":"24鄰","STREET":"保仁路","SECT":" ","MAREA":" ","LANE":" ","ALLEY":" ","HOUSE_NO":"２６０號二樓之２","E_COORD97":169972.28109999999,"N_COORD97":2540064.8995400001,"ADDRESS":"保仁路２６０號二樓之２","OBJECTID":260609},"geometry":{"x":169972.28110000212,"y":2540064.8995400015}},{"attributes":{"ID":260614,"DIS_CODE":0,"TOWNNAME":"安南區","LI":"海東里","LIN":"21鄰","STREET":"海東二街","SECT":" ","MAREA":" ","LANE":" ","ALLEY":" ","HOUSE_NO":"６０號","E_COORD97":166891.60570799999,"N_COORD97":2547920.0638299999,"ADDRESS":"海東二街６０號","OBJECTID":260610},"geometry":{"x":166891.60570800118,"y":2547920.0638290029}},{"attributes":{"ID":260615,"DIS_CODE":0,"TOWNNAME":"仁德區","LI":"仁愛里","LIN":"24鄰","STREET":"保仁路","SECT":" ","MAREA":" ","LANE":" ","ALLEY":" ","HOUSE_NO":"２５８號三樓之１","E_COORD97":169971.37372,"N_COORD97":2540089.35286,"ADDRESS":"保仁路２５８號三樓之１","OBJECTID":260611},"geometry":{"x":169971.37372000143,"y":2540089.3528600018}},{"attributes":{"ID":260616,"DIS_CODE":0,"TOWNNAME":"仁德區","LI":"仁愛里","LIN":"24鄰","STREET":"保仁路","SECT":" ","MAREA":" ","LANE":" ","ALLEY":" ","HOUSE_NO":"２５８號四樓之２","E_COORD97":169971.43338,"N_COORD97":2540083.8028600002,"ADDRESS":"保仁路２５８號四樓之２","OBJECTID":260612},"geometry":{"x":169971.43338000029,"y":2540083.8028599992}},{"attributes":{"ID":260617,"DIS_CODE":0,"TOWNNAME":"仁德區","LI":"仁愛里","LIN":"24鄰","STREET":"保仁路","SECT":" ","MAREA":" ","LANE":" ","ALLEY":" ","HOUSE_NO":"２６０號四樓之２","E_COORD97":169972.28109999999,"N_COORD97":2540064.8995400001,"ADDRESS":"保仁路２６０號四樓之２","OBJECTID":260613},"geometry":{"x":169972.28110000212,"y":2540064.8995400015}},{"attributes":{"ID":260618,"DIS_CODE":0,"TOWNNAME":"新營區","LI":"王公里","LIN":"24鄰","STREET":"中正路","SECT":" ","MAREA":" ","LANE":" ","ALLEY":" ","HOUSE_NO":"１１０號之６","E_COORD97":180107.85000000001,"N_COORD97":2579426.1200000001,"ADDRESS":"中正路１１０號之６","OBJECTID":260614},"geometry":{"x":180107.85000000056,"y":2579426.120000001}},{"attributes":{"ID":260619,"DIS_CODE":0,"TOWNNAME":"新營區","LI":"大宏里","LIN":"19鄰","STREET":"三民路","SECT":" ","MAREA":" ","LANE":" ","ALLEY":" ","HOUSE_NO":"３６號之２９","E_COORD97":180414.57999999999,"N_COORD97":2578512.1299999999,"ADDRESS":"三民路３６號之２９","OBJECTID":260615},"geometry":{"x":180414.58000000007,"y":2578512.129999999}},{"attributes":{"ID":260620,"DIS_CODE":0,"TOWNNAME":"新營區","LI":"大宏里","LIN":"12鄰","STREET":"開元路","SECT":" ","MAREA":" ","LANE":" ","ALLEY":" ","HOUSE_NO":"６１號之８","E_COORD97":180889.10000000001,"N_COORD97":2578777.9100000001,"ADDRESS":"開元路６１號之８","OBJECTID":260616},"geometry":{"x":180889.10000000056,"y":2578777.910000002}},{"attributes":{"ID":260621,"DIS_CODE":0,"TOWNNAME":"新營區","LI":"大宏里","LIN":"4鄰","STREET":"民族路","SECT":" ","MAREA":" ","LANE":" ","ALLEY":" ","HOUSE_NO":"２１號之７","E_COORD97":180262.17000000001,"N_COORD97":2578563.79,"ADDRESS":"民族路２１號之７","OBJECTID":260617},"geometry":{"x":180262.17000000086,"y":2578563.790000001}},{"attributes":{"ID":260622,"DIS_CODE":0,"TOWNNAME":"仁德區","LI":"仁愛里","LIN":"24鄰","STREET":"保仁路","SECT":" ","MAREA":" ","LANE":" ","ALLEY":" ","HOUSE_NO":"２５８號二樓之２","E_COORD97":169971.43338100001,"N_COORD97":2540083.8028699998,"ADDRESS":"保仁路２５８號二樓之２","OBJECTID":260618},"geometry":{"x":169971.4333809996,"y":2540083.8028659988}},{"attributes":{"ID":260623,"DIS_CODE":0,"TOWNNAME":"仁德區","LI":"仁愛里","LIN":"24鄰","STREET":"保仁路","SECT":" ","MAREA":" ","LANE":" ","ALLEY":" ","HOUSE_NO":"２５８號四樓之１","E_COORD97":169971.37372,"N_COORD97":2540089.35286,"ADDRESS":"保仁路２５８號四樓之１","OBJECTID":260619},"geometry":{"x":169971.37372000143,"y":2540089.3528600018}},{"attributes":{"ID":260624,"DIS_CODE":0,"TOWNNAME":"仁德區","LI":"仁愛里","LIN":"24鄰","STREET":"保仁路","SECT":" ","MAREA":" ","LANE":" ","ALLEY":" ","HOUSE_NO":"２５６號一樓之１","E_COORD97":169970.42371999999,"N_COORD97":2540108.2011799999,"ADDRESS":"保仁路２５６號一樓之１","OBJECTID":260620},"geometry":{"x":169970.42372000124,"y":2540108.2011799999}},{"attributes":{"ID":260625,"DIS_CODE":0,"TOWNNAME":"東山區","LI":"東中里","LIN":"22鄰","STREET":"中興路","SECT":" ","MAREA":" ","LANE":" ","ALLEY":" ","HOUSE_NO":"７２號","E_COORD97":189000.26000000001,"N_COORD97":2580182.0800000001,"ADDRESS":"中興路７２號","OBJECTID":260621},"geometry":{"x":189000.25999999978,"y":2580182.0800000038}},{"attributes":{"ID":260626,"DIS_CODE":0,"TOWNNAME":"新營區","LI":"民榮里","LIN":"22鄰","STREET":"裕民路","SECT":" ","MAREA":" ","LANE":" ","ALLEY":" ","HOUSE_NO":"４４號","E_COORD97":179133.17000000001,"N_COORD97":2577849.23,"ADDRESS":"裕民路４４號","OBJECTID":260622},"geometry":{"x":179133.17000000086,"y":2577849.2300000042}},{"attributes":{"ID":260627,"DIS_CODE":0,"TOWNNAME":"新營區","LI":"王公里","LIN":"22鄰","STREET":"大勇街","SECT":" ","MAREA":" ","LANE":" ","ALLEY":" ","HOUSE_NO":"９６號","E_COORD97":180454.92999999999,"N_COORD97":2579434.3799999999,"ADDRESS":"大勇街９６號","OBJECTID":260623},"geometry":{"x":180454.93000000063,"y":2579434.3800000008}},{"attributes":{"ID":260628,"DIS_CODE":0,"TOWNNAME":"東山區","LI":"聖賢里","LIN":"22鄰","STREET":" ","SECT":" ","MAREA":"北勢寮","LANE":" ","ALLEY":" ","HOUSE_NO":"１０１號","E_COORD97":184776.91,"N_COORD97":2578738.8599999999,"ADDRESS":"北勢寮１０１號","OBJECTID":260624},"geometry":{"x":184776.91000000108,"y":2578738.8600000031}},{"attributes":{"ID":260629,"DIS_CODE":0,"TOWNNAME":"仁德區","LI":"仁愛里","LIN":"24鄰","STREET":"保仁路","SECT":" ","MAREA":" ","LANE":" ","ALLEY":" ","HOUSE_NO":"２５０號一樓之２","E_COORD97":169989.75945000001,"N_COORD97":2540071.5787,"ADDRESS":"保仁路２５０號一樓之２","OBJECTID":260625},"geometry":{"x":169989.75945000071,"y":2540071.5787000004}},{"attributes":{"ID":260630,"DIS_CODE":0,"TOWNNAME":"仁德區","LI":"仁愛里","LIN":"24鄰","STREET":"保仁路","SECT":" ","MAREA":" ","LANE":" ","ALLEY":" ","HOUSE_NO":"２５２號四樓之２","E_COORD97":169988.65979000001,"N_COORD97":2540090.1836899999,"ADDRESS":"保仁路２５２號四樓之２","OBJECTID":260626},"geometry":{"x":169988.65978999995,"y":2540090.1836900041}},{"attributes":{"ID":260631,"DIS_CODE":0,"TOWNNAME":"仁德區","LI":"仁愛里","LIN":"24鄰","STREET":"保仁路","SECT":" ","MAREA":" ","LANE":" ","ALLEY":" ","HOUSE_NO":"２５６號五樓之１","E_COORD97":169970.42371999999,"N_COORD97":2540108.2011799999,"ADDRESS":"保仁路２５６號五樓之１","OBJECTID":260627},"geometry":{"x":169970.42372000124,"y":2540108.2011799999}},{"attributes":{"ID":260632,"DIS_CODE":0,"TOWNNAME":"仁德區","LI":"仁愛里","LIN":"24鄰","STREET":"保仁路","SECT":" ","MAREA":" ","LANE":" ","ALLEY":" ","HOUSE_NO":"２５６號四樓之１","E_COORD97":169970.42371999999,"N_COORD97":2540108.2011799999,"ADDRESS":"保仁路２５６號四樓之１","OBJECTID":260628},"geometry":{"x":169970.42372000124,"y":2540108.2011799999}},{"attributes":{"ID":260633,"DIS_CODE":0,"TOWNNAME":"仁德區","LI":"仁愛里","LIN":"24鄰","STREET":"保仁路","SECT":" ","MAREA":" ","LANE":" ","ALLEY":" ","HOUSE_NO":"２６０號五樓之２","E_COORD97":169972.28109999999,"N_COORD97":2540064.8995400001,"ADDRESS":"保仁路２６０號五樓之２","OBJECTID":260629},"geometry":{"x":169972.28110000212,"y":2540064.8995400015}},{"attributes":{"ID":260634,"DIS_CODE":0,"TOWNNAME":"仁德區","LI":"仁愛里","LIN":"24鄰","STREET":"保仁路","SECT":" ","MAREA":" ","LANE":" ","ALLEY":" ","HOUSE_NO":"２５０號一樓之１","E_COORD97":169990.08523999999,"N_COORD97":2540066.0099999998,"ADDRESS":"保仁路２５０號一樓之１","OBJECTID":260630},"geometry":{"x":169990.08524000179,"y":2540066.0099999998}},{"attributes":{"ID":260635,"DIS_CODE":0,"TOWNNAME":"仁德區","LI":"仁愛里","LIN":"24鄰","STREET":"保仁路","SECT":" ","MAREA":" ","LANE":" ","ALLEY":" ","HOUSE_NO":"２５０號二樓之２","E_COORD97":169989.75945000001,"N_COORD97":2540071.8786999998,"ADDRESS":"保仁路２５０號二樓之２","OBJECTID":260631},"geometry":{"x":169989.75945000071,"y":2540071.8786999993}},{"attributes":{"ID":260636,"DIS_CODE":0,"TOWNNAME":"仁德區","LI":"仁愛里","LIN":"24鄰","STREET":"保仁路","SECT":" ","MAREA":" ","LANE":" ","ALLEY":" ","HOUSE_NO":"２５２號三樓之２","E_COORD97":169988.65979000001,"N_COORD97":2540090.1836899999,"ADDRESS":"保仁路２５２號三樓之２","OBJECTID":260632},"geometry":{"x":169988.65978999995,"y":2540090.1836900041}},{"attributes":{"ID":260637,"DIS_CODE":0,"TOWNNAME":"仁德區","LI":"仁愛里","LIN":"24鄰","STREET":"保仁路","SECT":" ","MAREA":" ","LANE":" ","ALLEY":" ","HOUSE_NO":"２５０號三樓之１","E_COORD97":169990.08523999999,"N_COORD97":2540066.0099999998,"ADDRESS":"保仁路２５０號三樓之１","OBJECTID":260633},"geometry":{"x":169990.08524000179,"y":2540066.0099999998}},{"attributes":{"ID":260638,"DIS_CODE":0,"TOWNNAME":"仁德區","LI":"仁愛里","LIN":"24鄰","STREET":"保仁路","SECT":" ","MAREA":" ","LANE":" ","ALLEY":" ","HOUSE_NO":"２５０號三樓之２","E_COORD97":169989.75945000001,"N_COORD97":2540071.8786999998,"ADDRESS":"保仁路２５０號三樓之２","OBJECTID":260634},"geometry":{"x":169989.75945000071,"y":2540071.8786999993}},{"attributes":{"ID":260639,"DIS_CODE":0,"TOWNNAME":"中西區","LI":"萬昌里","LIN":"16鄰","STREET":"青年路","SECT":" ","MAREA":" ","LANE":" ","ALLEY":" ","HOUSE_NO":"１００號","E_COORD97":168850.89000000001,"N_COORD97":2543603.5099999998,"ADDRESS":"青年路１００號","OBJECTID":260635},"geometry":{"x":168850.88999999966,"y":2543603.5100000035}},{"attributes":{"ID":260640,"DIS_CODE":0,"TOWNNAME":"東山區","LI":"聖賢里","LIN":"22鄰","STREET":" ","SECT":" ","MAREA":"北勢寮","LANE":" ","ALLEY":" ","HOUSE_NO":"１０２號","E_COORD97":184772.75,"N_COORD97":2578738.73,"ADDRESS":"北勢寮１０２號","OBJECTID":260636},"geometry":{"x":184772.75000000093,"y":2578738.7300000023}},{"attributes":{"ID":260641,"DIS_CODE":0,"TOWNNAME":"東山區","LI":"聖賢里","LIN":"22鄰","STREET":" ","SECT":" ","MAREA":"北勢寮","LANE":" ","ALLEY":" ","HOUSE_NO":"１０３號","E_COORD97":184768.59,"N_COORD97":2578738.6000000001,"ADDRESS":"北勢寮１０３號","OBJECTID":260637},"geometry":{"x":184768.59000000078,"y":2578738.6000000015}},{"attributes":{"ID":260642,"DIS_CODE":0,"TOWNNAME":"東山區","LI":"聖賢里","LIN":"22鄰","STREET":" ","SECT":" ","MAREA":"北勢寮","LANE":" ","ALLEY":" ","HOUSE_NO":"１０４號","E_COORD97":184764.42999999999,"N_COORD97":2578738.4700000002,"ADDRESS":"北勢寮１０４號","OBJECTID":260638},"geometry":{"x":184764.43000000063,"y":2578738.4700000007}},{"attributes":{"ID":260643,"DIS_CODE":0,"TOWNNAME":"東山區","LI":"聖賢里","LIN":"22鄰","STREET":" ","SECT":" ","MAREA":"北勢寮","LANE":" ","ALLEY":" ","HOUSE_NO":"１０５號","E_COORD97":184760.26000000001,"N_COORD97":2578738.3500000001,"ADDRESS":"北勢寮１０５號","OBJECTID":260639},"geometry":{"x":184760.26000000071,"y":2578738.3499999996}},{"attributes":{"ID":260644,"DIS_CODE":0,"TOWNNAME":"東山區","LI":"聖賢里","LIN":"22鄰","STREET":" ","SECT":" ","MAREA":"北勢寮","LANE":" ","ALLEY":" ","HOUSE_NO":"１０６號","E_COORD97":184756.10000000001,"N_COORD97":2578738.2200000002,"ADDRESS":"北勢寮１０６號","OBJECTID":260640},"geometry":{"x":184756.10000000056,"y":2578738.2200000025}},{"attributes":{"ID":260645,"DIS_CODE":0,"TOWNNAME":"東山區","LI":"聖賢里","LIN":"22鄰","STREET":" ","SECT":" ","MAREA":"北勢寮","LANE":" ","ALLEY":" ","HOUSE_NO":"１０７號","E_COORD97":184751.94,"N_COORD97":2578738.0899999999,"ADDRESS":"北勢寮１０７號","OBJECTID":260641},"geometry":{"x":184751.94000000041,"y":2578738.0900000017}},{"attributes":{"ID":260646,"DIS_CODE":0,"TOWNNAME":"東山區","LI":"聖賢里","LIN":"22鄰","STREET":" ","SECT":" ","MAREA":"北勢寮","LANE":" ","ALLEY":" ","HOUSE_NO":"１０８號","E_COORD97":184747.78,"N_COORD97":2578737.96,"ADDRESS":"北勢寮１０８號","OBJECTID":260642},"geometry":{"x":184747.78000000026,"y":2578737.9600000009}},{"attributes":{"ID":260647,"DIS_CODE":0,"TOWNNAME":"東山區","LI":"聖賢里","LIN":"22鄰","STREET":" ","SECT":" ","MAREA":"北勢寮","LANE":" ","ALLEY":" ","HOUSE_NO":"１０９號","E_COORD97":184743.62,"N_COORD97":2578737.8300000001,"ADDRESS":"北勢寮１０９號","OBJECTID":260643},"geometry":{"x":184743.62000000011,"y":2578737.8300000019}},{"attributes":{"ID":260648,"DIS_CODE":0,"TOWNNAME":"仁德區","LI":"仁愛里","LIN":"24鄰","STREET":"保仁路","SECT":" ","MAREA":" ","LANE":" ","ALLEY":" ","HOUSE_NO":"２６０號三樓之１","E_COORD97":169972.28109999999,"N_COORD97":2540070.4545399998,"ADDRESS":"保仁路２６０號三樓之１","OBJECTID":260644},"geometry":{"x":169972.28110000212,"y":2540070.4545399994}},{"attributes":{"ID":260649,"DIS_CODE":0,"TOWNNAME":"仁德區","LI":"仁愛里","LIN":"24鄰","STREET":"保仁路","SECT":" ","MAREA":" ","LANE":" ","ALLEY":" ","HOUSE_NO":"２６０號四樓之１","E_COORD97":169972.28109999999,"N_COORD97":2540070.4545399998,"ADDRESS":"保仁路２６０號四樓之１","OBJECTID":260645},"geometry":{"x":169972.28110000212,"y":2540070.4545399994}},{"attributes":{"ID":260650,"DIS_CODE":0,"TOWNNAME":"仁德區","LI":"仁愛里","LIN":"24鄰","STREET":"保仁路","SECT":" ","MAREA":" ","LANE":" ","ALLEY":" ","HOUSE_NO":"２５２號四樓之１","E_COORD97":169989.05330999999,"N_COORD97":2540084.3561900002,"ADDRESS":"保仁路２５２號四樓之１","OBJECTID":260646},"geometry":{"x":169989.05331000034,"y":2540084.3561899997}},{"attributes":{"ID":260651,"DIS_CODE":0,"TOWNNAME":"仁德區","LI":"仁愛里","LIN":"24鄰","STREET":"保仁路","SECT":" ","MAREA":" ","LANE":" ","ALLEY":" ","HOUSE_NO":"２５６號五樓之２","E_COORD97":169970.37372599999,"N_COORD97":2540102.9586900002,"ADDRESS":"保仁路２５６號五樓之２","OBJECTID":260647},"geometry":{"x":169970.37372600008,"y":2540102.9586890023}},{"attributes":{"ID":260652,"DIS_CODE":0,"TOWNNAME":"仁德區","LI":"仁愛里","LIN":"24鄰","STREET":"保仁路","SECT":" ","MAREA":" ","LANE":" ","ALLEY":" ","HOUSE_NO":"２５８號五樓之２","E_COORD97":169971.43338,"N_COORD97":2540083.8028600002,"ADDRESS":"保仁路２５８號五樓之２","OBJECTID":260648},"geometry":{"x":169971.43338000029,"y":2540083.8028599992}},{"attributes":{"ID":260653,"DIS_CODE":0,"TOWNNAME":"仁德區","LI":"仁愛里","LIN":"24鄰","STREET":"保仁路","SECT":" ","MAREA":" ","LANE":" ","ALLEY":" ","HOUSE_NO":"２５０號五樓之２","E_COORD97":169989.75945000001,"N_COORD97":2540071.8786999998,"ADDRESS":"保仁路２５０號五樓之２","OBJECTID":260649},"geometry":{"x":169989.75945000071,"y":2540071.8786999993}},{"attributes":{"ID":260654,"DIS_CODE":0,"TOWNNAME":"佳里區","LI":"建南里","LIN":"28鄰","STREET":"四維一街","SECT":" ","MAREA":" ","LANE":" ","ALLEY":" ","HOUSE_NO":"１３１號","E_COORD97":165822.95589499999,"N_COORD97":2561126.6200100002,"ADDRESS":"四維一街１３１號","OBJECTID":260650},"geometry":{"x":165822.95589500014,"y":2561126.6200080011}},{"attributes":{"ID":260655,"DIS_CODE":0,"TOWNNAME":"仁德區","LI":"仁愛里","LIN":"24鄰","STREET":"保仁路","SECT":" ","MAREA":" ","LANE":" ","ALLEY":" ","HOUSE_NO":"２５６號四樓之２","E_COORD97":169970.37372599999,"N_COORD97":2540102.9586900002,"ADDRESS":"保仁路２５６號四樓之２","OBJECTID":260651},"geometry":{"x":169970.37372600008,"y":2540102.9586890023}},{"attributes":{"ID":260656,"DIS_CODE":0,"TOWNNAME":"仁德區","LI":"仁愛里","LIN":"24鄰","STREET":"保仁路","SECT":" ","MAREA":" ","LANE":" ","ALLEY":" ","HOUSE_NO":"２５８號一樓之１","E_COORD97":169971.37372,"N_COORD97":2540089.35286,"ADDRESS":"保仁路２５８號一樓之１","OBJECTID":260652},"geometry":{"x":169971.37372000143,"y":2540089.3528600018}},{"attributes":{"ID":260657,"DIS_CODE":0,"TOWNNAME":"仁德區","LI":"仁愛里","LIN":"24鄰","STREET":"保仁路","SECT":" ","MAREA":" ","LANE":" ","ALLEY":" ","HOUSE_NO":"２５６號二樓之１","E_COORD97":169970.42371999999,"N_COORD97":2540108.2011799999,"ADDRESS":"保仁路２５６號二樓之１","OBJECTID":260653},"geometry":{"x":169970.42372000124,"y":2540108.2011799999}},{"attributes":{"ID":260658,"DIS_CODE":0,"TOWNNAME":"仁德區","LI":"仁愛里","LIN":"24鄰","STREET":"保仁路","SECT":" ","MAREA":" ","LANE":" ","ALLEY":" ","HOUSE_NO":"２５２號五樓之１","E_COORD97":169989.05330999999,"N_COORD97":2540084.3561900002,"ADDRESS":"保仁路２５２號五樓之１","OBJECTID":260654},"geometry":{"x":169989.05331000034,"y":2540084.3561899997}},{"attributes":{"ID":260659,"DIS_CODE":0,"TOWNNAME":"仁德區","LI":"仁愛里","LIN":"24鄰","STREET":"保仁路","SECT":" ","MAREA":" ","LANE":" ","ALLEY":" ","HOUSE_NO":"２６０號三樓之２","E_COORD97":169972.28109999999,"N_COORD97":2540064.8995400001,"ADDRESS":"保仁路２６０號三樓之２","OBJECTID":260655},"geometry":{"x":169972.28110000212,"y":2540064.8995400015}},{"attributes":{"ID":260660,"DIS_CODE":0,"TOWNNAME":"西港區","LI":"南海里","LIN":"4鄰","STREET":"慶安路","SECT":" ","MAREA":" ","LANE":" ","ALLEY":" ","HOUSE_NO":"２３４號之１","E_COORD97":167537.82999999999,"N_COORD97":2557720.2200000002,"ADDRESS":"慶安路２３４號之１","OBJECTID":260656},"geometry":{"x":167537.83000000007,"y":2557720.2200000007}},{"attributes":{"ID":260661,"DIS_CODE":0,"TOWNNAME":"西港區","LI":"南海里","LIN":"4鄰","STREET":"慶安路","SECT":" ","MAREA":" ","LANE":" ","ALLEY":" ","HOUSE_NO":"２３４號之２","E_COORD97":167511.84,"N_COORD97":2557730.7999999998,"ADDRESS":"慶安路２３４號之２","OBJECTID":260657},"geometry":{"x":167511.83999999985,"y":2557730.8000000026}},{"attributes":{"ID":260662,"DIS_CODE":0,"TOWNNAME":"西港區","LI":"南海里","LIN":"4鄰","STREET":"慶安路","SECT":" ","MAREA":" ","LANE":" ","ALLEY":" ","HOUSE_NO":"２３５號","E_COORD97":167517.06,"N_COORD97":2557668.4399999999,"ADDRESS":"慶安路２３５號","OBJECTID":260658},"geometry":{"x":167517.05999999959,"y":2557668.4400000013}},{"attributes":{"ID":260663,"DIS_CODE":0,"TOWNNAME":"白河區","LI":"秀祐里","LIN":"4鄰","STREET":"舉人街","SECT":" ","MAREA":" ","LANE":" ","ALLEY":" ","HOUSE_NO":"１０９號","E_COORD97":188858.04999999999,"N_COORD97":2583263.1200000001,"ADDRESS":"舉人街１０９號","OBJECTID":260659},"geometry":{"x":188858.04999999981,"y":2583263.120000001}},{"attributes":{"ID":260664,"DIS_CODE":0,"TOWNNAME":"白河區","LI":"秀祐里","LIN":"4鄰","STREET":"舉人街","SECT":" ","MAREA":" ","LANE":" ","ALLEY":" ","HOUSE_NO":"１２７號","E_COORD97":188857.73999999999,"N_COORD97":2583302.54,"ADDRESS":"舉人街１２７號","OBJECTID":260660},"geometry":{"x":188857.74000000209,"y":2583302.5399999991}},{"attributes":{"ID":260665,"DIS_CODE":0,"TOWNNAME":"白河區","LI":"秀祐里","LIN":"4鄰","STREET":"舉人街","SECT":" ","MAREA":" ","LANE":" ","ALLEY":" ","HOUSE_NO":"１２９號","E_COORD97":188857.25,"N_COORD97":2583311.0699999998,"ADDRESS":"舉人街１２９號","OBJECTID":260661},"geometry":{"x":188857.24999999907,"y":2583311.0700000003}},{"attributes":{"ID":260666,"DIS_CODE":0,"TOWNNAME":"白河區","LI":"秀祐里","LIN":"4鄰","STREET":"舉人街","SECT":" ","MAREA":" ","LANE":" ","ALLEY":" ","HOUSE_NO":"１３７號","E_COORD97":188852.5,"N_COORD97":2583328.4199999999,"ADDRESS":"舉人街１３７號","OBJECTID":260662},"geometry":{"x":188852.50000000093,"y":2583328.4199999999}},{"attributes":{"ID":260667,"DIS_CODE":0,"TOWNNAME":"白河區","LI":"秀祐里","LIN":"4鄰","STREET":"舉人街","SECT":" ","MAREA":" ","LANE":" ","ALLEY":" ","HOUSE_NO":"１４１號","E_COORD97":188855.70000000001,"N_COORD97":2583345.8300000001,"ADDRESS":"舉人街１４１號","OBJECTID":260663},"geometry":{"x":188855.70000000019,"y":2583345.8300000001}},{"attributes":{"ID":260668,"DIS_CODE":0,"TOWNNAME":"仁德區","LI":"仁愛里","LIN":"24鄰","STREET":"保仁路","SECT":" ","MAREA":" ","LANE":" ","ALLEY":" ","HOUSE_NO":"２５０號四樓之１","E_COORD97":169990.08523999999,"N_COORD97":2540066.0099999998,"ADDRESS":"保仁路２５０號四樓之１","OBJECTID":260664},"geometry":{"x":169990.08524000179,"y":2540066.0099999998}},{"attributes":{"ID":260669,"DIS_CODE":0,"TOWNNAME":"仁德區","LI":"仁愛里","LIN":"24鄰","STREET":"保仁路","SECT":" ","MAREA":" ","LANE":" ","ALLEY":" ","HOUSE_NO":"２６０號五樓之１","E_COORD97":169972.28109999999,"N_COORD97":2540070.4545399998,"ADDRESS":"保仁路２６０號五樓之１","OBJECTID":260665},"geometry":{"x":169972.28110000212,"y":2540070.4545399994}},{"attributes":{"ID":260670,"DIS_CODE":0,"TOWNNAME":"仁德區","LI":"仁愛里","LIN":"24鄰","STREET":"保仁路","SECT":" ","MAREA":" ","LANE":" ","ALLEY":" ","HOUSE_NO":"２５８號一樓之２","E_COORD97":169971.43338,"N_COORD97":2540083.8028600002,"ADDRESS":"保仁路２５８號一樓之２","OBJECTID":260666},"geometry":{"x":169971.43338000029,"y":2540083.8028599992}},{"attributes":{"ID":260671,"DIS_CODE":0,"TOWNNAME":"仁德區","LI":"仁愛里","LIN":"24鄰","STREET":"保仁路","SECT":" ","MAREA":" ","LANE":" ","ALLEY":" ","HOUSE_NO":"２５２號二樓之２","E_COORD97":169988.65979000001,"N_COORD97":2540090.1836899999,"ADDRESS":"保仁路２５２號二樓之２","OBJECTID":260667},"geometry":{"x":169988.65978999995,"y":2540090.1836900041}},{"attributes":{"ID":260672,"DIS_CODE":0,"TOWNNAME":"仁德區","LI":"仁愛里","LIN":"24鄰","STREET":"保仁路","SECT":" ","MAREA":" ","LANE":" ","ALLEY":" ","HOUSE_NO":"２５６號三樓之２","E_COORD97":169970.37372599999,"N_COORD97":2540102.9586900002,"ADDRESS":"保仁路２５６號三樓之２","OBJECTID":260668},"geometry":{"x":169970.37372600008,"y":2540102.9586890023}},{"attributes":{"ID":260673,"DIS_CODE":0,"TOWNNAME":"仁德區","LI":"仁愛里","LIN":"24鄰","STREET":"保仁路","SECT":" ","MAREA":" ","LANE":" ","ALLEY":" ","HOUSE_NO":"２５０號四樓之２","E_COORD97":169989.75945000001,"N_COORD97":2540071.8786999998,"ADDRESS":"保仁路２５０號四樓之２","OBJECTID":260669},"geometry":{"x":169989.75945000071,"y":2540071.8786999993}},{"attributes":{"ID":260674,"DIS_CODE":0,"TOWNNAME":"仁德區","LI":"仁愛里","LIN":"24鄰","STREET":"保仁路","SECT":" ","MAREA":" ","LANE":" ","ALLEY":" ","HOUSE_NO":"２５２號五樓之２","E_COORD97":169988.65979000001,"N_COORD97":2540090.1836899999,"ADDRESS":"保仁路２５２號五樓之２","OBJECTID":260670},"geometry":{"x":169988.65978999995,"y":2540090.1836900041}},{"attributes":{"ID":260675,"DIS_CODE":0,"TOWNNAME":"新營區","LI":"大宏里","LIN":"5鄰","STREET":"三民路","SECT":" ","MAREA":" ","LANE":" ","ALLEY":" ","HOUSE_NO":"６２號之２","E_COORD97":180229.06,"N_COORD97":2578495.2799999998,"ADDRESS":"三民路６２號之２","OBJECTID":260671},"geometry":{"x":180229.05999999959,"y":2578495.2800000031}},{"attributes":{"ID":260676,"DIS_CODE":0,"TOWNNAME":"新營區","LI":"王公里","LIN":"14鄰","STREET":"中正路","SECT":" ","MAREA":" ","LANE":" ","ALLEY":" ","HOUSE_NO":"１００之２號","E_COORD97":180147.31,"N_COORD97":2579335.1200000001,"ADDRESS":"中正路１００之２號","OBJECTID":260672},"geometry":{"x":180147.31000000052,"y":2579335.1199999992}},{"attributes":{"ID":260677,"DIS_CODE":0,"TOWNNAME":"南區","LI":"府南里","LIN":"14鄰","STREET":"永成路","SECT":"三段","MAREA":" ","LANE":" ","ALLEY":" ","HOUSE_NO":"３３０號","E_COORD97":167506.071287,"N_COORD97":2540947.79171,"ADDRESS":"永成路三段３３０號","OBJECTID":260673},"geometry":{"x":167506.07128700055,"y":2540947.7917139996}},{"attributes":{"ID":260678,"DIS_CODE":0,"TOWNNAME":"新營區","LI":"新南里","LIN":"28鄰","STREET":"秦漢街","SECT":" ","MAREA":" ","LANE":" ","ALLEY":" ","HOUSE_NO":"６１之５號","E_COORD97":178448.73812600001,"N_COORD97":2578730.4342499999,"ADDRESS":"秦漢街６１之５號","OBJECTID":260674},"geometry":{"x":178448.73812600132,"y":2578730.4342540037}},{"attributes":{"ID":260679,"DIS_CODE":0,"TOWNNAME":"仁德區","LI":"仁愛里","LIN":"28鄰","STREET":"機場路","SECT":" ","MAREA":" ","LANE":" ","ALLEY":" ","HOUSE_NO":"１０００號","E_COORD97":169723.244351,"N_COORD97":2538796.2508999999,"ADDRESS":"機場路１０００號","OBJECTID":260675},"geometry":{"x":169723.24435099866,"y":2538796.2508990038}},{"attributes":{"ID":260680,"DIS_CODE":0,"TOWNNAME":"仁德區","LI":"仁愛里","LIN":"28鄰","STREET":"大同路","SECT":"三段","MAREA":" ","LANE":" ","ALLEY":" ","HOUSE_NO":"４９８號","E_COORD97":169791.24973499999,"N_COORD97":2539208.5773399998,"ADDRESS":"大同路三段４９８號","OBJECTID":260676},"geometry":{"x":169791.24973500054,"y":2539208.577343002}},{"attributes":{"ID":260681,"DIS_CODE":0,"TOWNNAME":"仁德區","LI":"仁愛里","LIN":"28鄰","STREET":"大同路","SECT":"三段","MAREA":" ","LANE":" ","ALLEY":" ","HOUSE_NO":"８１０號","E_COORD97":169906.52558799999,"N_COORD97":2538732.97254,"ADDRESS":"大同路三段８１０號","OBJECTID":260677},"geometry":{"x":169906.52558800112,"y":2538732.9725420009}},{"attributes":{"ID":260682,"DIS_CODE":0,"TOWNNAME":"新營區","LI":"新南里","LIN":"28鄰","STREET":"秦漢街","SECT":" ","MAREA":" ","LANE":" ","ALLEY":" ","HOUSE_NO":"５９之３號","E_COORD97":178455.14090599999,"N_COORD97":2578724.63656,"ADDRESS":"秦漢街５９之３號","OBJECTID":260678},"geometry":{"x":178455.14090599958,"y":2578724.636558}},{"attributes":{"ID":260683,"DIS_CODE":0,"TOWNNAME":"南區","LI":"府南里","LIN":"14鄰","STREET":"永成路","SECT":"三段","MAREA":" ","LANE":" ","ALLEY":" ","HOUSE_NO":"３３２號","E_COORD97":167507.02441700001,"N_COORD97":2540954.5121300002,"ADDRESS":"永成路三段３３２號","OBJECTID":260679},"geometry":{"x":167507.02441700175,"y":2540954.5121270046}},{"attributes":{"ID":260684,"DIS_CODE":0,"TOWNNAME":"南區","LI":"府南里","LIN":"14鄰","STREET":"永成路","SECT":"三段","MAREA":" ","LANE":" ","ALLEY":" ","HOUSE_NO":"３２０號","E_COORD97":167506.706707,"N_COORD97":2540904.8234000001,"ADDRESS":"永成路三段３２０號","OBJECTID":260680},"geometry":{"x":167506.7067069998,"y":2540904.8234039992}},{"attributes":{"ID":260685,"DIS_CODE":0,"TOWNNAME":"新營區","LI":"新南里","LIN":"28鄰","STREET":"秦漢街","SECT":" ","MAREA":" ","LANE":" ","ALLEY":" ","HOUSE_NO":"６５號","E_COORD97":178450.22130100001,"N_COORD97":2578743.1342500001,"ADDRESS":"秦漢街６５號","OBJECTID":260681},"geometry":{"x":178450.22130099963,"y":2578743.1342470013}},{"attributes":{"ID":260686,"DIS_CODE":0,"TOWNNAME":"新營區","LI":"新南里","LIN":"28鄰","STREET":"秦漢街","SECT":" ","MAREA":" ","LANE":" ","ALLEY":" ","HOUSE_NO":"６７號","E_COORD97":178446.831186,"N_COORD97":2578746.0975799998,"ADDRESS":"秦漢街６７號","OBJECTID":260682},"geometry":{"x":178446.83118600119,"y":2578746.0975790042}},{"attributes":{"ID":260687,"DIS_CODE":0,"TOWNNAME":"南區","LI":"府南里","LIN":"14鄰","STREET":"永成路","SECT":"三段","MAREA":" ","LANE":" ","ALLEY":" ","HOUSE_NO":"３４６號","E_COORD97":167507.76574,"N_COORD97":2540965.0954499999,"ADDRESS":"永成路三段３４６號","OBJECTID":260683},"geometry":{"x":167507.76573999971,"y":2540965.095449999}},{"attributes":{"ID":260688,"DIS_CODE":0,"TOWNNAME":"南區","LI":"府南里","LIN":"14鄰","STREET":"永成路","SECT":"三段","MAREA":" ","LANE":" ","ALLEY":" ","HOUSE_NO":"３４０號","E_COORD97":167507.34212700001,"N_COORD97":2540961.2854599999,"ADDRESS":"永成路三段３４０號","OBJECTID":260684},"geometry":{"x":167507.34212700091,"y":2540961.2854570001}},{"attributes":{"ID":260689,"DIS_CODE":0,"TOWNNAME":"南區","LI":"府南里","LIN":"14鄰","STREET":"永成路","SECT":"三段","MAREA":" ","LANE":" ","ALLEY":" ","HOUSE_NO":"３３６號","E_COORD97":167507.130321,"N_COORD97":2540957.5812900001,"ADDRESS":"永成路三段３３６號","OBJECTID":260685},"geometry":{"x":167507.13032099977,"y":2540957.5812920034}},{"attributes":{"ID":260690,"DIS_CODE":0,"TOWNNAME":"歸仁區","LI":"崙頂里","LIN":"28鄰","STREET":"成功十街","SECT":" ","MAREA":" ","LANE":" ","ALLEY":" ","HOUSE_NO":"２０號","E_COORD97":177784.66562799999,"N_COORD97":2539657.8511899998,"ADDRESS":"成功十街２０號","OBJECTID":260686},"geometry":{"x":177784.66562800016,"y":2539657.8511930015}},{"attributes":{"ID":260691,"DIS_CODE":0,"TOWNNAME":"歸仁區","LI":"崙頂里","LIN":"28鄰","STREET":"成功十街","SECT":" ","MAREA":" ","LANE":" ","ALLEY":" ","HOUSE_NO":"１０號","E_COORD97":177780.63902999999,"N_COORD97":2539636.2612000001,"ADDRESS":"成功十街１０號","OBJECTID":260687},"geometry":{"x":177780.63903000019,"y":2539636.2611999996}},{"attributes":{"ID":260692,"DIS_CODE":0,"TOWNNAME":"仁德區","LI":"仁愛里","LIN":"28鄰","STREET":"機場路","SECT":" ","MAREA":" ","LANE":" ","ALLEY":" ","HOUSE_NO":"１３３２號五樓","E_COORD97":169702.21434499999,"N_COORD97":2539366.4910599999,"ADDRESS":"機場路１３３２號五樓","OBJECTID":260688},"geometry":{"x":169702.21434499975,"y":2539366.4910599999}},{"attributes":{"ID":260693,"DIS_CODE":0,"TOWNNAME":"仁德區","LI":"仁愛里","LIN":"28鄰","STREET":"機場路","SECT":" ","MAREA":" ","LANE":" ","ALLEY":" ","HOUSE_NO":"１３３０號三樓","E_COORD97":169705.39139899999,"N_COORD97":2539352.5210699998,"ADDRESS":"機場路１３３０號三樓","OBJECTID":260689},"geometry":{"x":169705.39139900077,"y":2539352.5210679974}},{"attributes":{"ID":260694,"DIS_CODE":0,"TOWNNAME":"仁德區","LI":"仁愛里","LIN":"28鄰","STREET":"機場路","SECT":" ","MAREA":" ","LANE":" ","ALLEY":" ","HOUSE_NO":"１３３０號四樓","E_COORD97":169705.39139899999,"N_COORD97":2539352.5210699998,"ADDRESS":"機場路１３３０號四樓","OBJECTID":260690},"geometry":{"x":169705.39139900077,"y":2539352.5210679974}},{"attributes":{"ID":260695,"DIS_CODE":0,"TOWNNAME":"仁德區","LI":"仁愛里","LIN":"28鄰","STREET":"機場路","SECT":" ","MAREA":" ","LANE":" ","ALLEY":" ","HOUSE_NO":"１３３０號五樓","E_COORD97":169705.39139899999,"N_COORD97":2539352.5210699998,"ADDRESS":"機場路１３３０號五樓","OBJECTID":260691},"geometry":{"x":169705.39139900077,"y":2539352.5210679974}},{"attributes":{"ID":260696,"DIS_CODE":0,"TOWNNAME":"新營區","LI":"新南里","LIN":"28鄰","STREET":"秦漢街","SECT":" ","MAREA":" ","LANE":" ","ALLEY":" ","HOUSE_NO":"６１之６號","E_COORD97":178445.983657,"N_COORD97":2578729.7992600002,"ADDRESS":"秦漢街６１之６號","OBJECTID":260692},"geometry":{"x":178445.98365699966,"y":2578729.7992550023}},{"attributes":{"ID":260697,"DIS_CODE":0,"TOWNNAME":"新營區","LI":"新南里","LIN":"28鄰","STREET":"秦漢街","SECT":" ","MAREA":" ","LANE":" ","ALLEY":" ","HOUSE_NO":"６１之７號","E_COORD97":178443.652952,"N_COORD97":2578728.10592,"ADDRESS":"秦漢街６１之７號","OBJECTID":260693},"geometry":{"x":178443.6529520005,"y":2578728.1059220005}},{"attributes":{"ID":260698,"DIS_CODE":0,"TOWNNAME":"新營區","LI":"新南里","LIN":"28鄰","STREET":"秦漢街","SECT":" ","MAREA":" ","LANE":" ","ALLEY":" ","HOUSE_NO":"６１之８號","E_COORD97":178441.74601199999,"N_COORD97":2578727.0475900001,"ADDRESS":"秦漢街６１之８號","OBJECTID":260694},"geometry":{"x":178441.74601200223,"y":2578727.0475890022}},{"attributes":{"ID":260699,"DIS_CODE":0,"TOWNNAME":"安南區","LI":"東和里","LIN":"7鄰","STREET":"長和路","SECT":"一段","MAREA":" ","LANE":" ","ALLEY":" ","HOUSE_NO":"２１２號","E_COORD97":171724.31,"N_COORD97":2550642.1800000002,"ADDRESS":"長和路一段２１２號","OBJECTID":260695},"geometry":{"x":171724.30999999959,"y":2550642.1800000016}},{"attributes":{"ID":260700,"DIS_CODE":0,"TOWNNAME":"安南區","LI":"東和里","LIN":"7鄰","STREET":"長和路","SECT":"一段","MAREA":" ","LANE":" ","ALLEY":" ","HOUSE_NO":"１９４號","E_COORD97":171728.38372300001,"N_COORD97":2550585.64035,"ADDRESS":"長和路一段１９４號","OBJECTID":260696},"geometry":{"x":171728.38372299913,"y":2550585.6403550021}},{"attributes":{"ID":260701,"DIS_CODE":0,"TOWNNAME":"安南區","LI":"顯宮里","LIN":"7鄰","STREET":"媽祖宮路","SECT":" ","MAREA":" ","LANE":" ","ALLEY":" ","HOUSE_NO":"１６７號","E_COORD97":160486.44,"N_COORD97":2548763.4399999999,"ADDRESS":"媽祖宮路１６７號","OBJECTID":260697},"geometry":{"x":160486.44000000134,"y":2548763.4399999995}},{"attributes":{"ID":260702,"DIS_CODE":0,"TOWNNAME":"安南區","LI":"東和里","LIN":"6鄰","STREET":"長和路","SECT":"一段","MAREA":" ","LANE":" ","ALLEY":" ","HOUSE_NO":"８２５號","E_COORD97":170899.84,"N_COORD97":2551403.7599999998,"ADDRESS":"長和路一段８２５號","OBJECTID":260698},"geometry":{"x":170899.84000000078,"y":2551403.7600000016}},{"attributes":{"ID":260703,"DIS_CODE":0,"TOWNNAME":"安南區","LI":"東和里","LIN":"6鄰","STREET":"長和路","SECT":"一段","MAREA":" ","LANE":" ","ALLEY":" ","HOUSE_NO":"８２７號","E_COORD97":170895.95000000001,"N_COORD97":2551406.4199999999,"ADDRESS":"長和路一段８２７號","OBJECTID":260699},"geometry":{"x":170895.95000000112,"y":2551406.4200000018}},{"attributes":{"ID":260704,"DIS_CODE":0,"TOWNNAME":"安南區","LI":"東和里","LIN":"6鄰","STREET":"長和路","SECT":"一段","MAREA":" ","LANE":" ","ALLEY":" ","HOUSE_NO":"８３１號","E_COORD97":170887.26000000001,"N_COORD97":2551410.3799999999,"ADDRESS":"長和路一段８３１號","OBJECTID":260700},"geometry":{"x":170887.25999999978,"y":2551410.379999999}},{"attributes":{"ID":260705,"DIS_CODE":0,"TOWNNAME":"安南區","LI":"東和里","LIN":"6鄰","STREET":"長和路","SECT":"一段","MAREA":" ","LANE":" ","ALLEY":" ","HOUSE_NO":"８３３號","E_COORD97":170883.64999999999,"N_COORD97":2551412.3100000001,"ADDRESS":"長和路一段８３３號","OBJECTID":260701},"geometry":{"x":170883.65000000037,"y":2551412.3100000005}},{"attributes":{"ID":260706,"DIS_CODE":0,"TOWNNAME":"安南區","LI":"東和里","LIN":"6鄰","STREET":"長和路","SECT":"一段","MAREA":" ","LANE":" ","ALLEY":" ","HOUSE_NO":"８３５號","E_COORD97":170880.04000000001,"N_COORD97":2551414.9500000002,"ADDRESS":"長和路一段８３５號","OBJECTID":260702},"geometry":{"x":170880.04000000097,"y":2551414.950000003}},{"attributes":{"ID":260707,"DIS_CODE":0,"TOWNNAME":"安南區","LI":"頂安里","LIN":"6鄰","STREET":"怡安路","SECT":"一段","MAREA":" ","LANE":" ","ALLEY":" ","HOUSE_NO":"３８６之１號","E_COORD97":168710.41,"N_COORD97":2549177.1400000001,"ADDRESS":"怡安路一段３８６之１號","OBJECTID":260703},"geometry":{"x":168710.41000000015,"y":2549177.1399999987}},{"attributes":{"ID":260708,"DIS_CODE":0,"TOWNNAME":"安南區","LI":"東和里","LIN":"6鄰","STREET":"長和路","SECT":"一段","MAREA":" ","LANE":" ","ALLEY":" ","HOUSE_NO":"８２９號","E_COORD97":170891.35000000001,"N_COORD97":2551408.2200000002,"ADDRESS":"長和路一段８２９號","OBJECTID":260704},"geometry":{"x":170891.35000000056,"y":2551408.2200000025}},{"attributes":{"ID":260709,"DIS_CODE":0,"TOWNNAME":"安南區","LI":"東和里","LIN":"7鄰","STREET":"長和路","SECT":"一段","MAREA":" ","LANE":" ","ALLEY":" ","HOUSE_NO":"１９６號","E_COORD97":171720.54833300001,"N_COORD97":2550591.77868,"ADDRESS":"長和路一段１９６號","OBJECTID":260705},"geometry":{"x":171720.54833300225,"y":2550591.7786849998}},{"attributes":{"ID":260710,"DIS_CODE":0,"TOWNNAME":"安南區","LI":"東和里","LIN":"7鄰","STREET":"長和路","SECT":"一段","MAREA":" ","LANE":" ","ALLEY":" ","HOUSE_NO":"１９８號","E_COORD97":171715.88945300001,"N_COORD97":2550597.2820199998,"ADDRESS":"長和路一段１９８號","OBJECTID":260706},"geometry":{"x":171715.88945300132,"y":2550597.2820150014}},{"attributes":{"ID":260711,"DIS_CODE":0,"TOWNNAME":"安南區","LI":"東和里","LIN":"7鄰","STREET":"長和路","SECT":"一段","MAREA":" ","LANE":" ","ALLEY":" ","HOUSE_NO":"１７０號","E_COORD97":171767.56067100001,"N_COORD97":2550547.5403800001,"ADDRESS":"長和路一段１７０號","OBJECTID":260707},"geometry":{"x":171767.56067099981,"y":2550547.5403760038}},{"attributes":{"ID":260712,"DIS_CODE":0,"TOWNNAME":"安南區","LI":"東和里","LIN":"7鄰","STREET":"長和路","SECT":"一段","MAREA":" ","LANE":" ","ALLEY":" ","HOUSE_NO":"６５號","E_COORD97":171870.69133900001,"N_COORD97":2550401.9137900001,"ADDRESS":"長和路一段６５號","OBJECTID":260708},"geometry":{"x":171870.69133900013,"y":2550401.9137880001}},{"attributes":{"ID":260713,"DIS_CODE":0,"TOWNNAME":"安南區","LI":"東和里","LIN":"7鄰","STREET":"長和路","SECT":"一段","MAREA":" ","LANE":" ","ALLEY":" ","HOUSE_NO":"３５號","E_COORD97":171902.244664,"N_COORD97":2550361.4854799998,"ADDRESS":"長和路一段３５號","OBJECTID":260709},"geometry":{"x":171902.24466400035,"y":2550361.4854760002}},{"attributes":{"ID":260714,"DIS_CODE":0,"TOWNNAME":"安南區","LI":"東和里","LIN":"7鄰","STREET":"長和路","SECT":"一段","MAREA":" ","LANE":" ","ALLEY":" ","HOUSE_NO":"３１號","E_COORD97":171914.31539900001,"N_COORD97":2550346.8804799998,"ADDRESS":"長和路一段３１號","OBJECTID":260710},"geometry":{"x":171914.31539900135,"y":2550346.8804840017}},{"attributes":{"ID":260715,"DIS_CODE":0,"TOWNNAME":"仁德區","LI":"仁義里","LIN":"17鄰","STREET":"義林八街","SECT":" ","MAREA":" ","LANE":" ","ALLEY":" ","HOUSE_NO":"１００號","E_COORD97":174235.21986300001,"N_COORD97":2541292.28688,"ADDRESS":"義林八街１００號","OBJECTID":260711},"geometry":{"x":174235.21986300126,"y":2541292.2868780009}},{"attributes":{"ID":260716,"DIS_CODE":0,"TOWNNAME":"仁德區","LI":"仁義里","LIN":"17鄰","STREET":"義林八街","SECT":" ","MAREA":" ","LANE":" ","ALLEY":" ","HOUSE_NO":"１０６號","E_COORD97":174216.30326399999,"N_COORD97":2541296.1828600001,"ADDRESS":"義林八街１０６號","OBJECTID":260712},"geometry":{"x":174216.30326399952,"y":2541296.1828650013}},{"attributes":{"ID":260717,"DIS_CODE":0,"TOWNNAME":"仁德區","LI":"太子里","LIN":"27鄰","STREET":"中正路","SECT":"三段","MAREA":" ","LANE":" ","ALLEY":" ","HOUSE_NO":"５８５號","E_COORD97":173880.064488,"N_COORD97":2543175.08604,"ADDRESS":"中正路三段５８５號","OBJECTID":260713},"geometry":{"x":173880.06448800024,"y":2543175.0860420018}},{"attributes":{"ID":260718,"DIS_CODE":0,"TOWNNAME":"北區","LI":"成德里","LIN":"22鄰","STREET":"育成路","SECT":" ","MAREA":" ","LANE":" ","ALLEY":" ","HOUSE_NO":"３２１號","E_COORD97":168476.89000000001,"N_COORD97":2546867.2599999998,"ADDRESS":"育成路３２１號","OBJECTID":260714},"geometry":{"x":168476.8900000006,"y":2546867.2600000016}},{"attributes":{"ID":260719,"DIS_CODE":0,"TOWNNAME":"白河區","LI":"秀祐里","LIN":"4鄰","STREET":"舉人街","SECT":" ","MAREA":" ","LANE":" ","ALLEY":" ","HOUSE_NO":"１４３號","E_COORD97":188857.07000000001,"N_COORD97":2583352.0600000001,"ADDRESS":"舉人街１４３號","OBJECTID":260715},"geometry":{"x":188857.06999999937,"y":2583352.0600000005}},{"attributes":{"ID":260720,"DIS_CODE":0,"TOWNNAME":"白河區","LI":"秀祐里","LIN":"4鄰","STREET":"舉人街","SECT":" ","MAREA":" ","LANE":" ","ALLEY":" ","HOUSE_NO":"１４５號","E_COORD97":188856.63,"N_COORD97":2583356.6699999999,"ADDRESS":"舉人街１４５號","OBJECTID":260716},"geometry":{"x":188856.63000000082,"y":2583356.6699999999}},{"attributes":{"ID":260721,"DIS_CODE":0,"TOWNNAME":"白河區","LI":"秀祐里","LIN":"4鄰","STREET":"舉人街","SECT":" ","MAREA":" ","LANE":" ","ALLEY":" ","HOUSE_NO":"１６５號","E_COORD97":188844.17999999999,"N_COORD97":2583410.9500000002,"ADDRESS":"舉人街１６５號","OBJECTID":260717},"geometry":{"x":188844.18000000063,"y":2583410.9500000011}},{"attributes":{"ID":260722,"DIS_CODE":0,"TOWNNAME":"仁德區","LI":"仁義里","LIN":"17鄰","STREET":"義林八街","SECT":" ","MAREA":" ","LANE":" ","ALLEY":" ","HOUSE_NO":"１０２號","E_COORD97":174220.43341,"N_COORD97":2541295.4155700002,"ADDRESS":"義林八街１０２號","OBJECTID":260718},"geometry":{"x":174220.43341000099,"y":2541295.4155739993}},{"attributes":{"ID":260723,"DIS_CODE":0,"TOWNNAME":"仁德區","LI":"仁義里","LIN":"17鄰","STREET":"義林八街","SECT":" ","MAREA":" ","LANE":" ","ALLEY":" ","HOUSE_NO":"１１６號","E_COORD97":174195.44073100001,"N_COORD97":2541298.0614100001,"ADDRESS":"義林八街１１６號","OBJECTID":260719},"geometry":{"x":174195.44073100109,"y":2541298.0614059996}},{"attributes":{"ID":260724,"DIS_CODE":0,"TOWNNAME":"仁德區","LI":"仁義里","LIN":"17鄰","STREET":"義林八街","SECT":" ","MAREA":" ","LANE":" ","ALLEY":" ","HOUSE_NO":"１１２號","E_COORD97":174201.159395,"N_COORD97":2541298.14078,"ADDRESS":"義林八街１１２號","OBJECTID":260720},"geometry":{"x":174201.15939499903,"y":2541298.1407810021}},{"attributes":{"ID":260725,"DIS_CODE":0,"TOWNNAME":"仁德區","LI":"仁義里","LIN":"17鄰","STREET":"義林八街","SECT":" ","MAREA":" ","LANE":" ","ALLEY":" ","HOUSE_NO":"１１０號","E_COORD97":174204.76003500001,"N_COORD97":2541298.4582799999,"ADDRESS":"義林八街１１０號","OBJECTID":260721},"geometry":{"x":174204.76003500074,"y":2541298.4582810011}},{"attributes":{"ID":260726,"DIS_CODE":0,"TOWNNAME":"仁德區","LI":"仁義里","LIN":"17鄰","STREET":"義林八街","SECT":" ","MAREA":" ","LANE":" ","ALLEY":" ","HOUSE_NO":"１０８號","E_COORD97":174213.23212999999,"N_COORD97":2541297.2941100001,"ADDRESS":"義林八街１０８號","OBJECTID":260722},"geometry":{"x":174213.2321300013,"y":2541297.2941150013}},{"attributes":{"ID":260727,"DIS_CODE":0,"TOWNNAME":"新營區","LI":"大宏里","LIN":"8鄰","STREET":"文昌街","SECT":" ","MAREA":" ","LANE":" ","ALLEY":" ","HOUSE_NO":"２６號之２","E_COORD97":180400.39000000001,"N_COORD97":2578373.7599999998,"ADDRESS":"文昌街２６號之２","OBJECTID":260723},"geometry":{"x":180400.39000000153,"y":2578373.7600000035}},{"attributes":{"ID":260728,"DIS_CODE":0,"TOWNNAME":"新營區","LI":"大宏里","LIN":"4鄰","STREET":"民族路","SECT":" ","MAREA":" ","LANE":" ","ALLEY":" ","HOUSE_NO":"２１號之５","E_COORD97":180243.78,"N_COORD97":2578568.2999999998,"ADDRESS":"民族路２１號之５","OBJECTID":260724},"geometry":{"x":180243.78000000026,"y":2578568.3000000026}},{"attributes":{"ID":260729,"DIS_CODE":0,"TOWNNAME":"安南區","LI":"東和里","LIN":"7鄰","STREET":"長和路","SECT":"一段","MAREA":" ","LANE":" ","ALLEY":" ","HOUSE_NO":"２０９號","E_COORD97":171678.19487599999,"N_COORD97":2550575.0570299998,"ADDRESS":"長和路一段２０９號","OBJECTID":260725},"geometry":{"x":171678.19487600215,"y":2550575.0570270009}},{"attributes":{"ID":260730,"DIS_CODE":0,"TOWNNAME":"安南區","LI":"東和里","LIN":"7鄰","STREET":"長和路","SECT":"一段","MAREA":" ","LANE":" ","ALLEY":" ","HOUSE_NO":"２１３號","E_COORD97":171666.75944299999,"N_COORD97":2550586.69869,"ADDRESS":"長和路一段２１３號","OBJECTID":260726},"geometry":{"x":171666.75944299996,"y":2550586.6986880004}},{"attributes":{"ID":260731,"DIS_CODE":0,"TOWNNAME":"新營區","LI":"大宏里","LIN":"8鄰","STREET":"文昌街","SECT":" ","MAREA":" ","LANE":" ","ALLEY":" ","HOUSE_NO":"２６號之９","E_COORD97":180390.32000000001,"N_COORD97":2578408.1400000001,"ADDRESS":"文昌街２６號之９","OBJECTID":260727},"geometry":{"x":180390.32000000123,"y":2578408.1400000006}},{"attributes":{"ID":260732,"DIS_CODE":0,"TOWNNAME":"新營區","LI":"大宏里","LIN":"4鄰","STREET":"民族路","SECT":" ","MAREA":" ","LANE":" ","ALLEY":" ","HOUSE_NO":"２１號之９","E_COORD97":180234.60999999999,"N_COORD97":2578576.1000000001,"ADDRESS":"民族路２１號之９","OBJECTID":260728},"geometry":{"x":180234.61000000034,"y":2578576.1000000015}},{"attributes":{"ID":260733,"DIS_CODE":0,"TOWNNAME":"新營區","LI":"大宏里","LIN":"10鄰","STREET":"民族路","SECT":" ","MAREA":" ","LANE":" ","ALLEY":" ","HOUSE_NO":"４５號之２","E_COORD97":180267.66,"N_COORD97":2578858.3500000001,"ADDRESS":"民族路４５號之２","OBJECTID":260729},"geometry":{"x":180267.66000000108,"y":2578858.3500000015}},{"attributes":{"ID":260734,"DIS_CODE":0,"TOWNNAME":"麻豆區","LI":"油車里","LIN":"17鄰","STREET":"新生北路","SECT":" ","MAREA":" ","LANE":" ","ALLEY":" ","HOUSE_NO":"２２０號","E_COORD97":172307.68257,"N_COORD97":2565479.70291,"ADDRESS":"新生北路２２０號","OBJECTID":260730},"geometry":{"x":172307.68257000111,"y":2565479.7029100005}},{"attributes":{"ID":260735,"DIS_CODE":0,"TOWNNAME":"安南區","LI":"淵中里","LIN":"17鄰","STREET":"樂安一街","SECT":" ","MAREA":" ","LANE":" ","ALLEY":" ","HOUSE_NO":"１５７號","E_COORD97":165765.82218700001,"N_COORD97":2549799.3061000002,"ADDRESS":"樂安一街１５７號","OBJECTID":260731},"geometry":{"x":165765.82218700182,"y":2549799.3060979992}},{"attributes":{"ID":260736,"DIS_CODE":0,"TOWNNAME":"安南區","LI":"淵中里","LIN":"17鄰","STREET":"樂安二街","SECT":" ","MAREA":" ","LANE":" ","ALLEY":" ","HOUSE_NO":"１４０號","E_COORD97":165764.33894099999,"N_COORD97":2549760.6769500002,"ADDRESS":"樂安二街１４０號","OBJECTID":260732},"geometry":{"x":165764.33894100133,"y":2549760.6769520007}},{"attributes":{"ID":260737,"DIS_CODE":0,"TOWNNAME":"安南區","LI":"淵中里","LIN":"17鄰","STREET":"樂安二街","SECT":" ","MAREA":" ","LANE":" ","ALLEY":" ","HOUSE_NO":"１４６號","E_COORD97":165753.74432999999,"N_COORD97":2549763.4286199999,"ADDRESS":"樂安二街１４６號","OBJECTID":260733},"geometry":{"x":165753.74433000199,"y":2549763.4286170024}},{"attributes":{"ID":260738,"DIS_CODE":0,"TOWNNAME":"安南區","LI":"東和里","LIN":"3鄰","STREET":"長和路","SECT":"一段","MAREA":" ","LANE":" ","ALLEY":" ","HOUSE_NO":"８９６號","E_COORD97":170731.45000000001,"N_COORD97":2551529.5099999998,"ADDRESS":"長和路一段８９６號","OBJECTID":260734},"geometry":{"x":170731.45000000112,"y":2551529.5099999998}},{"attributes":{"ID":260739,"DIS_CODE":0,"TOWNNAME":"安南區","LI":"東和里","LIN":"3鄰","STREET":"長和路","SECT":"一段","MAREA":" ","LANE":" ","ALLEY":" ","HOUSE_NO":"８９８號","E_COORD97":170726.85999999999,"N_COORD97":2551532.1699999999,"ADDRESS":"長和路一段８９８號","OBJECTID":260735},"geometry":{"x":170726.8600000022,"y":2551532.1699999999}},{"attributes":{"ID":260740,"DIS_CODE":0,"TOWNNAME":"安南區","LI":"東和里","LIN":"3鄰","STREET":"長和路","SECT":"一段","MAREA":" ","LANE":" ","ALLEY":" ","HOUSE_NO":"８９７號","E_COORD97":170712.19,"N_COORD97":2551499.7400000002,"ADDRESS":"長和路一段８９７號","OBJECTID":260736},"geometry":{"x":170712.19000000041,"y":2551499.7400000021}},{"attributes":{"ID":260741,"DIS_CODE":0,"TOWNNAME":"安南區","LI":"東和里","LIN":"3鄰","STREET":"長和路","SECT":"一段","MAREA":" ","LANE":" ","ALLEY":" ","HOUSE_NO":"８９９號","E_COORD97":170706.89999999999,"N_COORD97":2551501.4199999999,"ADDRESS":"長和路一段８９９號","OBJECTID":260737},"geometry":{"x":170706.9000000013,"y":2551501.4200000018}},{"attributes":{"ID":260742,"DIS_CODE":0,"TOWNNAME":"安南區","LI":"東和里","LIN":"3鄰","STREET":"長和路","SECT":"一段","MAREA":" ","LANE":" ","ALLEY":" ","HOUSE_NO":"９０１號","E_COORD97":170703.78,"N_COORD97":2551505.02,"ADDRESS":"長和路一段９０１號","OBJECTID":260738},"geometry":{"x":170703.78000000119,"y":2551505.0199999996}},{"attributes":{"ID":260743,"DIS_CODE":0,"TOWNNAME":"安南區","LI":"四草里","LIN":"3鄰","STREET":"大眾路","SECT":" ","MAREA":" ","LANE":" ","ALLEY":" ","HOUSE_NO":"３８７號","E_COORD97":161257.56,"N_COORD97":2546599.6600000001,"ADDRESS":"大眾路３８７號","OBJECTID":260739},"geometry":{"x":161257.56000000052,"y":2546599.6600000001}},{"attributes":{"ID":260744,"DIS_CODE":0,"TOWNNAME":"白河區","LI":"秀祐里","LIN":"4鄰","STREET":"舉人街","SECT":" ","MAREA":" ","LANE":" ","ALLEY":" ","HOUSE_NO":"１６９號","E_COORD97":188847.76000000001,"N_COORD97":2583423.8300000001,"ADDRESS":"舉人街１６９號","OBJECTID":260740},"geometry":{"x":188847.75999999978,"y":2583423.8300000001}},{"attributes":{"ID":260745,"DIS_CODE":0,"TOWNNAME":"白河區","LI":"秀祐里","LIN":"4鄰","STREET":"舉人街","SECT":" ","MAREA":" ","LANE":" ","ALLEY":" ","HOUSE_NO":"１７１號","E_COORD97":188843.26000000001,"N_COORD97":2583438.0299999998,"ADDRESS":"舉人街１７１號","OBJECTID":260741},"geometry":{"x":188843.25999999978,"y":2583438.0300000012}},{"attributes":{"ID":260746,"DIS_CODE":0,"TOWNNAME":"鹽水區","LI":"歡雅里","LIN":"22鄰","STREET":" ","SECT":" ","MAREA":"下寮","LANE":" ","ALLEY":" ","HOUSE_NO":"１３號","E_COORD97":172438.32999999999,"N_COORD97":2575181.5,"ADDRESS":"下寮１３號","OBJECTID":260742},"geometry":{"x":172438.33000000007,"y":2575181.5}},{"attributes":{"ID":260747,"DIS_CODE":0,"TOWNNAME":"關廟區","LI":"北勢里","LIN":"22鄰","STREET":"仁愛路","SECT":" ","MAREA":" ","LANE":" ","ALLEY":" ","HOUSE_NO":"１７２號","E_COORD97":181389.19,"N_COORD97":2540399.2799999998,"ADDRESS":"仁愛路１７２號","OBJECTID":260743},"geometry":{"x":181389.19000000227,"y":2540399.2799999993}},{"attributes":{"ID":260748,"DIS_CODE":0,"TOWNNAME":"關廟區","LI":"北勢里","LIN":"22鄰","STREET":"仁愛路","SECT":" ","MAREA":" ","LANE":" ","ALLEY":" ","HOUSE_NO":"１８２號","E_COORD97":181396.89000000001,"N_COORD97":2540420.2799999998,"ADDRESS":"仁愛路１８２號","OBJECTID":260744},"geometry":{"x":181396.88999999966,"y":2540420.2799999993}},{"attributes":{"ID":260749,"DIS_CODE":0,"TOWNNAME":"關廟區","LI":"北勢里","LIN":"22鄰","STREET":"仁愛路","SECT":" ","MAREA":" ","LANE":" ","ALLEY":" ","HOUSE_NO":"２１６號","E_COORD97":181413.79000000001,"N_COORD97":2540465.2799999998,"ADDRESS":"仁愛路２１６號","OBJECTID":260745},"geometry":{"x":181413.79000000097,"y":2540465.2800000031}},{"attributes":{"ID":260750,"DIS_CODE":0,"TOWNNAME":"安南區","LI":"四草里","LIN":"3鄰","STREET":"大眾一街","SECT":" ","MAREA":" ","LANE":" ","ALLEY":" ","HOUSE_NO":"１１號","E_COORD97":160945.51000000001,"N_COORD97":2546531,"ADDRESS":"大眾一街１１號","OBJECTID":260746},"geometry":{"x":160945.50999999978,"y":2546531.0000000019}},{"attributes":{"ID":260751,"DIS_CODE":0,"TOWNNAME":"安南區","LI":"四草里","LIN":"3鄰","STREET":"大眾路","SECT":" ","MAREA":" ","LANE":" ","ALLEY":" ","HOUSE_NO":"３８５號","E_COORD97":161243,"N_COORD97":2546620.0899999999,"ADDRESS":"大眾路３８５號","OBJECTID":260747},"geometry":{"x":161243.00000000093,"y":2546620.0899999999}},{"attributes":{"ID":260752,"DIS_CODE":0,"TOWNNAME":"安南區","LI":"四草里","LIN":"3鄰","STREET":"大眾一街","SECT":" ","MAREA":" ","LANE":" ","ALLEY":" ","HOUSE_NO":"２０號","E_COORD97":160936.97,"N_COORD97":2546495.02,"ADDRESS":"大眾一街２０號","OBJECTID":260748},"geometry":{"x":160936.96999999974,"y":2546495.0199999977}},{"attributes":{"ID":260753,"DIS_CODE":0,"TOWNNAME":"安南區","LI":"四草里","LIN":"3鄰","STREET":"大眾一街","SECT":" ","MAREA":" ","LANE":" ","ALLEY":" ","HOUSE_NO":"２１號","E_COORD97":160970.14999999999,"N_COORD97":2546505.0099999998,"ADDRESS":"大眾一街２１號","OBJECTID":260749},"geometry":{"x":160970.15000000037,"y":2546505.0099999998}},{"attributes":{"ID":260754,"DIS_CODE":0,"TOWNNAME":"安南區","LI":"四草里","LIN":"3鄰","STREET":"大眾一街","SECT":" ","MAREA":" ","LANE":" ","ALLEY":" ","HOUSE_NO":"２５號","E_COORD97":160968.19,"N_COORD97":2546494.77,"ADDRESS":"大眾一街２５號","OBJECTID":260750},"geometry":{"x":160968.19000000041,"y":2546494.7700000014}},{"attributes":{"ID":260755,"DIS_CODE":0,"TOWNNAME":"安南區","LI":"四草里","LIN":"3鄰","STREET":"大眾一街","SECT":" ","MAREA":" ","LANE":" ","ALLEY":" ","HOUSE_NO":"２７號","E_COORD97":160979.66,"N_COORD97":2546479.6600000001,"ADDRESS":"大眾一街２７號","OBJECTID":260751},"geometry":{"x":160979.66000000108,"y":2546479.6600000001}},{"attributes":{"ID":260756,"DIS_CODE":0,"TOWNNAME":"安南區","LI":"四草里","LIN":"3鄰","STREET":"大眾一街","SECT":" ","MAREA":" ","LANE":" ","ALLEY":" ","HOUSE_NO":"７號","E_COORD97":160940.39000000001,"N_COORD97":2546534.8999999999,"ADDRESS":"大眾一街７號","OBJECTID":260752},"geometry":{"x":160940.3900000006,"y":2546534.9000000022}},{"attributes":{"ID":260757,"DIS_CODE":0,"TOWNNAME":"安南區","LI":"四草里","LIN":"3鄰","STREET":"大眾一街","SECT":" ","MAREA":" ","LANE":" ","ALLEY":" ","HOUSE_NO":"２９號","E_COORD97":160980.88,"N_COORD97":2546476,"ADDRESS":"大眾一街２９號","OBJECTID":260753},"geometry":{"x":160980.88000000082,"y":2546476.0000000019}},{"attributes":{"ID":260758,"DIS_CODE":0,"TOWNNAME":"安南區","LI":"四草里","LIN":"3鄰","STREET":"大眾一街","SECT":" ","MAREA":" ","LANE":" ","ALLEY":" ","HOUSE_NO":"３１號","E_COORD97":160979.66,"N_COORD97":2546469.4300000002,"ADDRESS":"大眾一街３１號","OBJECTID":260754},"geometry":{"x":160979.66000000108,"y":2546469.4300000016}},{"attributes":{"ID":260759,"DIS_CODE":0,"TOWNNAME":"安南區","LI":"四草里","LIN":"3鄰","STREET":"大眾一街","SECT":" ","MAREA":" ","LANE":" ","ALLEY":" ","HOUSE_NO":"３號","E_COORD97":160938.67999999999,"N_COORD97":2546540.2599999998,"ADDRESS":"大眾一街３號","OBJECTID":260755},"geometry":{"x":160938.6799999997,"y":2546540.2599999998}},{"attributes":{"ID":260760,"DIS_CODE":0,"TOWNNAME":"安南區","LI":"四草里","LIN":"3鄰","STREET":"大眾一街","SECT":" ","MAREA":" ","LANE":" ","ALLEY":" ","HOUSE_NO":"４３號","E_COORD97":161002.34,"N_COORD97":2546439.1299999999,"ADDRESS":"大眾一街４３號","OBJECTID":260756},"geometry":{"x":161002.33999999985,"y":2546439.129999999}},{"attributes":{"ID":260761,"DIS_CODE":0,"TOWNNAME":"安南區","LI":"四草里","LIN":"3鄰","STREET":"大眾一街","SECT":" ","MAREA":" ","LANE":" ","ALLEY":" ","HOUSE_NO":"４７號","E_COORD97":161006.98000000001,"N_COORD97":2546426.46,"ADDRESS":"大眾一街４７號","OBJECTID":260757},"geometry":{"x":161006.98000000045,"y":2546426.4600000028}},{"attributes":{"ID":260762,"DIS_CODE":0,"TOWNNAME":"關廟區","LI":"北勢里","LIN":"22鄰","STREET":"仁愛路","SECT":" ","MAREA":" ","LANE":" ","ALLEY":" ","HOUSE_NO":"２１２號","E_COORD97":181412.69,"N_COORD97":2540463.2799999998,"ADDRESS":"仁愛路２１２號","OBJECTID":260758},"geometry":{"x":181412.69000000041,"y":2540463.2800000012}},{"attributes":{"ID":260763,"DIS_CODE":0,"TOWNNAME":"關廟區","LI":"北勢里","LIN":"22鄰","STREET":"仁愛路","SECT":" ","MAREA":" ","LANE":" ","ALLEY":" ","HOUSE_NO":"１８０號","E_COORD97":181395.79000000001,"N_COORD97":2540415.2799999998,"ADDRESS":"仁愛路１８０號","OBJECTID":260759},"geometry":{"x":181395.79000000004,"y":2540415.2800000012}},{"attributes":{"ID":260764,"DIS_CODE":0,"TOWNNAME":"關廟區","LI":"東勢里","LIN":"22鄰","STREET":"東德街","SECT":" ","MAREA":" ","LANE":" ","ALLEY":" ","HOUSE_NO":"１２６號","E_COORD97":181792.26999999999,"N_COORD97":2539213.27,"ADDRESS":"東德街１２６號","OBJECTID":260760},"geometry":{"x":181792.26999999955,"y":2539213.2699999996}},{"attributes":{"ID":260765,"DIS_CODE":0,"TOWNNAME":"關廟區","LI":"東勢里","LIN":"22鄰","STREET":"東德街","SECT":" ","MAREA":" ","LANE":" ","ALLEY":" ","HOUSE_NO":"１２７號","E_COORD97":181801.07000000001,"N_COORD97":2539197.27,"ADDRESS":"東德街１２７號","OBJECTID":260761},"geometry":{"x":181801.0700000003,"y":2539197.2699999977}},{"attributes":{"ID":260766,"DIS_CODE":0,"TOWNNAME":"關廟區","LI":"東勢里","LIN":"22鄰","STREET":"東德街","SECT":" ","MAREA":" ","LANE":" ","ALLEY":" ","HOUSE_NO":"１２０號","E_COORD97":181800.26999999999,"N_COORD97":2539217.27,"ADDRESS":"東德街１２０號","OBJECTID":260762},"geometry":{"x":181800.27000000048,"y":2539217.2699999996}},{"attributes":{"ID":260767,"DIS_CODE":0,"TOWNNAME":"關廟區","LI":"東勢里","LIN":"22鄰","STREET":"東德街","SECT":" ","MAREA":" ","LANE":" ","ALLEY":" ","HOUSE_NO":"１１６號","E_COORD97":181808.76999999999,"N_COORD97":2539220.27,"ADDRESS":"東德街１１６號","OBJECTID":260763},"geometry":{"x":181808.77000000048,"y":2539220.2699999996}},{"attributes":{"ID":260768,"DIS_CODE":0,"TOWNNAME":"關廟區","LI":"北勢里","LIN":"22鄰","STREET":"北美街","SECT":" ","MAREA":" ","LANE":" ","ALLEY":" ","HOUSE_NO":"６５號","E_COORD97":181478.14000000001,"N_COORD97":2540436.2999999998,"ADDRESS":"北美街６５號","OBJECTID":260764},"geometry":{"x":181478.13999999966,"y":2540436.3000000026}},{"attributes":{"ID":260769,"DIS_CODE":0,"TOWNNAME":"關廟區","LI":"北勢里","LIN":"22鄰","STREET":"仁愛路","SECT":" ","MAREA":" ","LANE":" ","ALLEY":" ","HOUSE_NO":"１５２號","E_COORD97":181379.19,"N_COORD97":2540370.2799999998,"ADDRESS":"仁愛路１５２號","OBJECTID":260765},"geometry":{"x":181379.19000000134,"y":2540370.2800000031}},{"attributes":{"ID":260770,"DIS_CODE":0,"TOWNNAME":"關廟區","LI":"北勢里","LIN":"22鄰","STREET":"北美街","SECT":" ","MAREA":" ","LANE":" ","ALLEY":" ","HOUSE_NO":"６９號","E_COORD97":181482.44,"N_COORD97":2540452.2999999998,"ADDRESS":"北美街６９號","OBJECTID":260766},"geometry":{"x":181482.44000000227,"y":2540452.3000000007}},{"attributes":{"ID":260771,"DIS_CODE":0,"TOWNNAME":"關廟區","LI":"東勢里","LIN":"22鄰","STREET":"東德街","SECT":" ","MAREA":" ","LANE":" ","ALLEY":" ","HOUSE_NO":"１２８號","E_COORD97":181786.07000000001,"N_COORD97":2539212.27,"ADDRESS":"東德街１２８號","OBJECTID":260767},"geometry":{"x":181786.0700000003,"y":2539212.2700000014}},{"attributes":{"ID":260772,"DIS_CODE":0,"TOWNNAME":"安南區","LI":"東和里","LIN":"3鄰","STREET":"長和路","SECT":"一段","MAREA":" ","LANE":" ","ALLEY":" ","HOUSE_NO":"９０７號","E_COORD97":170691.75,"N_COORD97":2551512.9500000002,"ADDRESS":"長和路一段９０７號","OBJECTID":260768},"geometry":{"x":170691.75000000186,"y":2551512.9499999974}},{"attributes":{"ID":260773,"DIS_CODE":0,"TOWNNAME":"安南區","LI":"東和里","LIN":"3鄰","STREET":"長和路","SECT":"一段","MAREA":" ","LANE":" ","ALLEY":" ","HOUSE_NO":"９０５號","E_COORD97":170695.12,"N_COORD97":2551510.0699999998,"ADDRESS":"長和路一段９０５號","OBJECTID":260769},"geometry":{"x":170695.12000000104,"y":2551510.070000004}},{"attributes":{"ID":260774,"DIS_CODE":0,"TOWNNAME":"安南區","LI":"東和里","LIN":"7鄰","STREET":"長和路","SECT":"一段","MAREA":" ","LANE":" ","ALLEY":" ","HOUSE_NO":"１９８之５號","E_COORD97":171706.51999999999,"N_COORD97":2550618.6099999999,"ADDRESS":"長和路一段１９８之５號","OBJECTID":260770},"geometry":{"x":171706.52000000142,"y":2550618.6100000013}},{"attributes":{"ID":260775,"DIS_CODE":0,"TOWNNAME":"安南區","LI":"\u25A0田里","LIN":"7鄰","STREET":"\u25A0田路","SECT":" ","MAREA":" ","LANE":" ","ALLEY":" ","HOUSE_NO":"７９之１號","E_COORD97":162622.78,"N_COORD97":2548321.0499999998,"ADDRESS":"\u25A0田路７９之１號","OBJECTID":260771},"geometry":{"x":162622.78000000119,"y":2548321.0500000026}},{"attributes":{"ID":260776,"DIS_CODE":0,"TOWNNAME":"安南區","LI":"\u25A0田里","LIN":"7鄰","STREET":"\u25A0田路","SECT":" ","MAREA":" ","LANE":" ","ALLEY":" ","HOUSE_NO":"７９號","E_COORD97":162617.23000000001,"N_COORD97":2548317.8700000001,"ADDRESS":"\u25A0田路７９號","OBJECTID":260772},"geometry":{"x":162617.23000000138,"y":2548317.870000001}},{"attributes":{"ID":260777,"DIS_CODE":0,"TOWNNAME":"安南區","LI":"\u25A0田里","LIN":"7鄰","STREET":"\u25A0田路","SECT":" ","MAREA":" ","LANE":" ","ALLEY":" ","HOUSE_NO":"８１號","E_COORD97":162611.98999999999,"N_COORD97":2548313.4300000002,"ADDRESS":"\u25A0田路８１號","OBJECTID":260773},"geometry":{"x":162611.99000000022,"y":2548313.4300000034}},{"attributes":{"ID":260778,"DIS_CODE":0,"TOWNNAME":"關廟區","LI":"北勢里","LIN":"22鄰","STREET":"仁愛路","SECT":" ","MAREA":" ","LANE":" ","ALLEY":" ","HOUSE_NO":"１５６號","E_COORD97":181381.59,"N_COORD97":2540375.2799999998,"ADDRESS":"仁愛路１５６號","OBJECTID":260774},"geometry":{"x":181381.59000000078,"y":2540375.2800000012}},{"attributes":{"ID":260779,"DIS_CODE":0,"TOWNNAME":"關廟區","LI":"北勢里","LIN":"22鄰","STREET":"成功路","SECT":" ","MAREA":" ","LANE":" ","ALLEY":" ","HOUSE_NO":"２１３號","E_COORD97":181447.57000000001,"N_COORD97":2540472.27,"ADDRESS":"成功路２１３號","OBJECTID":260775},"geometry":{"x":181447.57000000216,"y":2540472.2700000033}},{"attributes":{"ID":260780,"DIS_CODE":0,"TOWNNAME":"關廟區","LI":"北勢里","LIN":"22鄰","STREET":"仁愛路","SECT":" ","MAREA":" ","LANE":" ","ALLEY":" ","HOUSE_NO":"１５０號","E_COORD97":181377.69,"N_COORD97":2540366.2799999998,"ADDRESS":"仁愛路１５０號","OBJECTID":260776},"geometry":{"x":181377.69000000134,"y":2540366.2799999993}},{"attributes":{"ID":260781,"DIS_CODE":0,"TOWNNAME":"關廟區","LI":"北勢里","LIN":"22鄰","STREET":"北仁街","SECT":" ","MAREA":" ","LANE":" ","ALLEY":" ","HOUSE_NO":"１１６號","E_COORD97":181399.59,"N_COORD97":2540350.25,"ADDRESS":"北仁街１１６號","OBJECTID":260777},"geometry":{"x":181399.59000000078,"y":2540350.25}},{"attributes":{"ID":260782,"DIS_CODE":0,"TOWNNAME":"安南區","LI":"\u25A0田里","LIN":"7鄰","STREET":"\u25A0田路","SECT":" ","MAREA":" ","LANE":" ","ALLEY":" ","HOUSE_NO":"８３號","E_COORD97":162605.79999999999,"N_COORD97":2548310.25,"ADDRESS":"\u25A0田路８３號","OBJECTID":260778},"geometry":{"x":162605.80000000075,"y":2548310.25}},{"attributes":{"ID":260783,"DIS_CODE":0,"TOWNNAME":"安南區","LI":"\u25A0田里","LIN":"7鄰","STREET":"\u25A0田路","SECT":" ","MAREA":" ","LANE":" ","ALLEY":" ","HOUSE_NO":"８５號","E_COORD97":162600.72,"N_COORD97":2548306.4399999999,"ADDRESS":"\u25A0田路８５號","OBJECTID":260779},"geometry":{"x":162600.72000000067,"y":2548306.4400000013}},{"attributes":{"ID":260784,"DIS_CODE":0,"TOWNNAME":"安南區","LI":"\u25A0田里","LIN":"7鄰","STREET":"\u25A0田路","SECT":" ","MAREA":" ","LANE":" ","ALLEY":" ","HOUSE_NO":"９１號","E_COORD97":162586.26999999999,"N_COORD97":2548296.1200000001,"ADDRESS":"\u25A0田路９１號","OBJECTID":260780},"geometry":{"x":162586.26999999862,"y":2548296.120000001}},{"attributes":{"ID":260785,"DIS_CODE":0,"TOWNNAME":"安南區","LI":"\u25A0田里","LIN":"7鄰","STREET":"\u25A0田路","SECT":" ","MAREA":" ","LANE":" ","ALLEY":" ","HOUSE_NO":"８７號","E_COORD97":162596.59,"N_COORD97":2548302.9500000002,"ADDRESS":"\u25A0田路８７號","OBJECTID":260781},"geometry":{"x":162596.59000000078,"y":2548302.9500000011}},{"attributes":{"ID":260786,"DIS_CODE":0,"TOWNNAME":"安南區","LI":"\u25A0田里","LIN":"7鄰","STREET":"\u25A0田路","SECT":" ","MAREA":" ","LANE":" ","ALLEY":" ","HOUSE_NO":"９３號","E_COORD97":162581.35000000001,"N_COORD97":2548292.1499999999,"ADDRESS":"\u25A0田路９３號","OBJECTID":260782},"geometry":{"x":162581.35000000056,"y":2548292.1500000041}},{"attributes":{"ID":260787,"DIS_CODE":0,"TOWNNAME":"安南區","LI":"\u25A0田里","LIN":"7鄰","STREET":"\u25A0田路","SECT":" ","MAREA":" ","LANE":" ","ALLEY":" ","HOUSE_NO":"９７號","E_COORD97":162569.60000000001,"N_COORD97":2548284.6899999999,"ADDRESS":"\u25A0田路９７號","OBJECTID":260783},"geometry":{"x":162569.60000000056,"y":2548284.6900000013}},{"attributes":{"ID":260788,"DIS_CODE":0,"TOWNNAME":"安南區","LI":"\u25A0田里","LIN":"7鄰","STREET":"\u25A0田路","SECT":" ","MAREA":" ","LANE":" ","ALLEY":" ","HOUSE_NO":"９９號","E_COORD97":162565,"N_COORD97":2548282.1499999999,"ADDRESS":"\u25A0田路９９號","OBJECTID":260784},"geometry":{"x":162565.00000000186,"y":2548282.1500000041}},{"attributes":{"ID":260789,"DIS_CODE":0,"TOWNNAME":"新營區","LI":"大宏里","LIN":"15鄰","STREET":"大同路","SECT":" ","MAREA":" ","LANE":" ","ALLEY":" ","HOUSE_NO":"４１號之７","E_COORD97":180677.76000000001,"N_COORD97":2578846.46,"ADDRESS":"大同路４１號之７","OBJECTID":260785},"geometry":{"x":180677.76000000164,"y":2578846.4600000009}},{"attributes":{"ID":260790,"DIS_CODE":0,"TOWNNAME":"後壁區","LI":"後壁里","LIN":"12鄰","STREET":" ","SECT":" ","MAREA":"後壁","LANE":" ","ALLEY":" ","HOUSE_NO":"３２８號","E_COORD97":185906.95999999999,"N_COORD97":2584749.6499999999,"ADDRESS":"後壁３２８號","OBJECTID":260786},"geometry":{"x":185906.96000000089,"y":2584749.6500000022}},{"attributes":{"ID":260791,"DIS_CODE":0,"TOWNNAME":"新營區","LI":"大宏里","LIN":"15鄰","STREET":"大同路","SECT":" ","MAREA":" ","LANE":" ","ALLEY":" ","HOUSE_NO":"３９號之７","E_COORD97":180697.09,"N_COORD97":2578823.1000000001,"ADDRESS":"大同路３９號之７","OBJECTID":260787},"geometry":{"x":180697.08999999985,"y":2578823.1000000015}},{"attributes":{"ID":260792,"DIS_CODE":0,"TOWNNAME":"新營區","LI":"大宏里","LIN":"8鄰","STREET":"文昌街","SECT":" ","MAREA":" ","LANE":" ","ALLEY":" ","HOUSE_NO":"２２之１號","E_COORD97":180424.16,"N_COORD97":2578426.8100000001,"ADDRESS":"文昌街２２之１號","OBJECTID":260788},"geometry":{"x":180424.16000000015,"y":2578426.8100000005}},{"attributes":{"ID":260793,"DIS_CODE":0,"TOWNNAME":"關廟區","LI":"新光里","LIN":"8鄰","STREET":"北寮街","SECT":" ","MAREA":" ","LANE":" ","ALLEY":" ","HOUSE_NO":"１３６號","E_COORD97":184307.88658399999,"N_COORD97":2541931.2472600001,"ADDRESS":"北寮街１３６號","OBJECTID":260789},"geometry":{"x":184307.88658399973,"y":2541931.2472580001}},{"attributes":{"ID":260794,"DIS_CODE":0,"TOWNNAME":"關廟區","LI":"田中里","LIN":"8鄰","STREET":"南雄南路","SECT":" ","MAREA":" ","LANE":" ","ALLEY":" ","HOUSE_NO":"６１１號","E_COORD97":183434.54000000001,"N_COORD97":2533745.2999999998,"ADDRESS":"南雄南路６１１號","OBJECTID":260790},"geometry":{"x":183434.54000000097,"y":2533745.3000000007}},{"attributes":{"ID":260795,"DIS_CODE":0,"TOWNNAME":"關廟區","LI":"田中里","LIN":"8鄰","STREET":"南雄南路","SECT":" ","MAREA":" ","LANE":" ","ALLEY":" ","HOUSE_NO":"６２１號","E_COORD97":183421.59,"N_COORD97":2533723.2999999998,"ADDRESS":"南雄南路６２１號","OBJECTID":260791},"geometry":{"x":183421.58999999985,"y":2533723.3000000045}},{"attributes":{"ID":260796,"DIS_CODE":0,"TOWNNAME":"關廟區","LI":"田中里","LIN":"8鄰","STREET":"南雄南路","SECT":" ","MAREA":" ","LANE":" ","ALLEY":" ","HOUSE_NO":"６２３號","E_COORD97":183422.79000000001,"N_COORD97":2533719.2999999998,"ADDRESS":"南雄南路６２３號","OBJECTID":260792},"geometry":{"x":183422.79000000097,"y":2533719.3000000007}},{"attributes":{"ID":260797,"DIS_CODE":0,"TOWNNAME":"關廟區","LI":"龜洞里","LIN":"8鄰","STREET":"官崙街","SECT":" ","MAREA":" ","LANE":" ","ALLEY":" ","HOUSE_NO":"９８號","E_COORD97":183567.54000000001,"N_COORD97":2533096.2999999998,"ADDRESS":"官崙街９８號","OBJECTID":260793},"geometry":{"x":183567.54000000004,"y":2533096.3000000026}},{"attributes":{"ID":260798,"DIS_CODE":0,"TOWNNAME":"關廟區","LI":"田中里","LIN":"8鄰","STREET":"南雄南路","SECT":" ","MAREA":" ","LANE":" ","ALLEY":" ","HOUSE_NO":"６１９號","E_COORD97":183420.04000000001,"N_COORD97":2533727.2999999998,"ADDRESS":"南雄南路６１９號","OBJECTID":260794},"geometry":{"x":183420.04000000004,"y":2533727.3000000026}},{"attributes":{"ID":260799,"DIS_CODE":0,"TOWNNAME":"南區","LI":"府南里","LIN":"10鄰","STREET":"永成路","SECT":"三段","MAREA":" ","LANE":" ","ALLEY":" ","HOUSE_NO":"２７３號","E_COORD97":167484.22562000001,"N_COORD97":2541061.9858200001,"ADDRESS":"永成路三段２７３號","OBJECTID":260795},"geometry":{"x":167484.22561999969,"y":2541061.9858190026}},{"attributes":{"ID":260800,"DIS_CODE":0,"TOWNNAME":"關廟區","LI":"田中里","LIN":"8鄰","STREET":"南雄南路","SECT":" ","MAREA":" ","LANE":" ","ALLEY":" ","HOUSE_NO":"６３１號","E_COORD97":183415.84,"N_COORD97":2533686.2999999998,"ADDRESS":"南雄南路６３１號","OBJECTID":260796},"geometry":{"x":183415.84000000078,"y":2533686.3000000026}},{"attributes":{"ID":260801,"DIS_CODE":0,"TOWNNAME":"關廟區","LI":"田中里","LIN":"8鄰","STREET":"南雄南路","SECT":" ","MAREA":" ","LANE":" ","ALLEY":" ","HOUSE_NO":"５７９號","E_COORD97":183512.98999999999,"N_COORD97":2533763.2999999998,"ADDRESS":"南雄南路５７９號","OBJECTID":260797},"geometry":{"x":183512.99000000115,"y":2533763.3000000007}},{"attributes":{"ID":260802,"DIS_CODE":0,"TOWNNAME":"關廟區","LI":"龜洞里","LIN":"8鄰","STREET":"官崙街","SECT":" ","MAREA":" ","LANE":" ","ALLEY":" ","HOUSE_NO":"９０號","E_COORD97":183507.23999999999,"N_COORD97":2533204.2999999998,"ADDRESS":"官崙街９０號","OBJECTID":260798},"geometry":{"x":183507.24000000022,"y":2533204.3000000045}},{"attributes":{"ID":260803,"DIS_CODE":0,"TOWNNAME":"安南區","LI":"海西里","LIN":"8鄰","STREET":"海中街","SECT":" ","MAREA":" ","LANE":" ","ALLEY":" ","HOUSE_NO":"８１號","E_COORD97":166218.56921099999,"N_COORD97":2548906.5087899999,"ADDRESS":"海中街８１號","OBJECTID":260799},"geometry":{"x":166218.56921100058,"y":2548906.5087930001}},{"attributes":{"ID":260804,"DIS_CODE":0,"TOWNNAME":"安南區","LI":"頂安里","LIN":"8鄰","STREET":"怡安路","SECT":"一段","MAREA":" ","LANE":" ","ALLEY":" ","HOUSE_NO":"４６２之１號","E_COORD97":168564.05855300001,"N_COORD97":2549240.8264700002,"ADDRESS":"怡安路一段４６２之１號","OBJECTID":260800},"geometry":{"x":168564.05855300091,"y":2549240.8264700007}}]}