{"displayFieldName":"TOWNNAME","fieldAliases":{"ID":"ID","DIS_CODE":"DIS_CODE","TOWNNAME":"TOWNNAME","LI":"LI","LIN":"LIN","STREET":"STREET","SECT":"SECT","MAREA":"MAREA","LANE":"LANE","ALLEY":"ALLEY","HOUSE_NO":"HOUSE_NO","E_COORD97":"E_COORD97","N_COORD97":"N_COORD97","ADDRESS":"ADDRESS","OBJECTID":"OBJECTID"},"geometryType":"esriGeometryPoint","spatialReference":{"wkid":102443,"latestWkid":3826},"fields":[{"name":"ID","type":"esriFieldTypeDouble","alias":"ID"},{"name":"DIS_CODE","type":"esriFieldTypeInteger","alias":"DIS_CODE"},{"name":"TOWNNAME","type":"esriFieldTypeString","alias":"TOWNNAME","length":8},{"name":"LI","type":"esriFieldTypeString","alias":"LI","length":8},{"name":"LIN","type":"esriFieldTypeString","alias":"LIN","length":12},{"name":"STREET","type":"esriFieldTypeString","alias":"STREET","length":20},{"name":"SECT","type":"esriFieldTypeString","alias":"SECT","length":8},{"name":"MAREA","type":"esriFieldTypeString","alias":"MAREA","length":12},{"name":"LANE","type":"esriFieldTypeString","alias":"LANE","length":10},{"name":"ALLEY","type":"esriFieldTypeString","alias":"ALLEY","length":10},{"name":"HOUSE_NO","type":"esriFieldTypeString","alias":"HOUSE_NO","length":20},{"name":"E_COORD97","type":"esriFieldTypeDouble","alias":"E_COORD97"},{"name":"N_COORD97","type":"esriFieldTypeDouble","alias":"N_COORD97"},{"name":"ADDRESS","type":"esriFieldTypeString","alias":"ADDRESS","length":50},{"name":"OBJECTID","type":"esriFieldTypeOID","alias":"OBJECTID"}],"features":[{"attributes":{"ID":469826,"DIS_CODE":0,"TOWNNAME":"安南區","LI":"城北里","LIN":"5鄰","STREET":"安中路","SECT":"六段","MAREA":" ","LANE":" ","ALLEY":" ","HOUSE_NO":"５６６號","E_COORD97":160879.87,"N_COORD97":2551425.77,"ADDRESS":"安中路六段５６６號","OBJECTID":469801},"geometry":{"x":160879.87000000104,"y":2551425.7699999996}},{"attributes":{"ID":469827,"DIS_CODE":0,"TOWNNAME":"南區","LI":"明德里","LIN":"5鄰","STREET":"大成路","SECT":"一段","MAREA":" ","LANE":" ","ALLEY":" ","HOUSE_NO":"５５號","E_COORD97":168109.66,"N_COORD97":2541722.2999999998,"ADDRESS":"大成路一段５５號","OBJECTID":469802},"geometry":{"x":168109.66000000108,"y":2541722.3000000026}},{"attributes":{"ID":469828,"DIS_CODE":0,"TOWNNAME":"南區","LI":"明興里","LIN":"5鄰","STREET":"金華路","SECT":"一段","MAREA":" ","LANE":" ","ALLEY":" ","HOUSE_NO":"１７２號","E_COORD97":166949.45999999999,"N_COORD97":2540711.0800000001,"ADDRESS":"金華路一段１７２號","OBJECTID":469803},"geometry":{"x":166949.46000000089,"y":2540711.0800000001}},{"attributes":{"ID":469829,"DIS_CODE":0,"TOWNNAME":"南區","LI":"明興里","LIN":"5鄰","STREET":"金華路","SECT":"一段","MAREA":" ","LANE":" ","ALLEY":" ","HOUSE_NO":"１７４號","E_COORD97":166950.48000000001,"N_COORD97":2540717.25,"ADDRESS":"金華路一段１７４號","OBJECTID":469804},"geometry":{"x":166950.48000000045,"y":2540717.2500000019}},{"attributes":{"ID":469830,"DIS_CODE":0,"TOWNNAME":"南區","LI":"明興里","LIN":"5鄰","STREET":"金華路","SECT":"一段","MAREA":" ","LANE":" ","ALLEY":" ","HOUSE_NO":"１７６號","E_COORD97":166951.07000000001,"N_COORD97":2540720.8100000001,"ADDRESS":"金華路一段１７６號","OBJECTID":469805},"geometry":{"x":166951.07000000123,"y":2540720.8100000024}},{"attributes":{"ID":469831,"DIS_CODE":0,"TOWNNAME":"南區","LI":"明興里","LIN":"5鄰","STREET":"金華路","SECT":"一段","MAREA":" ","LANE":" ","ALLEY":" ","HOUSE_NO":"１７８號","E_COORD97":166951.84,"N_COORD97":2540725.3100000001,"ADDRESS":"金華路一段１７８號","OBJECTID":469806},"geometry":{"x":166951.84000000078,"y":2540725.3100000024}},{"attributes":{"ID":469832,"DIS_CODE":0,"TOWNNAME":"南區","LI":"明興里","LIN":"5鄰","STREET":"金華路","SECT":"一段","MAREA":" ","LANE":" ","ALLEY":" ","HOUSE_NO":"１８０號","E_COORD97":166951.92000000001,"N_COORD97":2540729.5499999998,"ADDRESS":"金華路一段１８０號","OBJECTID":469807},"geometry":{"x":166951.91999999993,"y":2540729.5500000026}},{"attributes":{"ID":469833,"DIS_CODE":0,"TOWNNAME":"南區","LI":"明興里","LIN":"5鄰","STREET":"金華路","SECT":"一段","MAREA":" ","LANE":" ","ALLEY":" ","HOUSE_NO":"１８２號","E_COORD97":166952.69,"N_COORD97":2540733.71,"ADDRESS":"金華路一段１８２號","OBJECTID":469808},"geometry":{"x":166952.69000000041,"y":2540733.7100000009}},{"attributes":{"ID":469834,"DIS_CODE":0,"TOWNNAME":"南區","LI":"明興里","LIN":"5鄰","STREET":"金華路","SECT":"一段","MAREA":" ","LANE":" ","ALLEY":" ","HOUSE_NO":"１８４號","E_COORD97":166953.70999999999,"N_COORD97":2540737.9700000002,"ADDRESS":"金華路一段１８４號","OBJECTID":469809},"geometry":{"x":166953.70999999996,"y":2540737.9700000025}},{"attributes":{"ID":469835,"DIS_CODE":0,"TOWNNAME":"南區","LI":"明興里","LIN":"5鄰","STREET":"金華路","SECT":"一段","MAREA":" ","LANE":" ","ALLEY":" ","HOUSE_NO":"１８６號","E_COORD97":166953.88,"N_COORD97":2540741.6200000001,"ADDRESS":"金華路一段１８６號","OBJECTID":469810},"geometry":{"x":166953.87999999989,"y":2540741.620000001}},{"attributes":{"ID":469836,"DIS_CODE":0,"TOWNNAME":"南區","LI":"明興里","LIN":"5鄰","STREET":"金華路","SECT":"一段","MAREA":" ","LANE":" ","ALLEY":" ","HOUSE_NO":"１８８號","E_COORD97":166954.22,"N_COORD97":2540745.5299999998,"ADDRESS":"金華路一段１８８號","OBJECTID":469811},"geometry":{"x":166954.22000000067,"y":2540745.5300000012}},{"attributes":{"ID":469837,"DIS_CODE":0,"TOWNNAME":"新化區","LI":"護國里","LIN":"5鄰","STREET":"信義路","SECT":" ","MAREA":" ","LANE":" ","ALLEY":" ","HOUSE_NO":"１７０號","E_COORD97":179253.73000000001,"N_COORD97":2548370.25,"ADDRESS":"信義路１７０號","OBJECTID":469812},"geometry":{"x":179253.73000000138,"y":2548370.2500000019}},{"attributes":{"ID":469838,"DIS_CODE":0,"TOWNNAME":"新化區","LI":"護國里","LIN":"5鄰","STREET":"中山路","SECT":" ","MAREA":" ","LANE":" ","ALLEY":" ","HOUSE_NO":"２１３號","E_COORD97":179204.10999999999,"N_COORD97":2548451.25,"ADDRESS":"中山路２１３號","OBJECTID":469813},"geometry":{"x":179204.11000000034,"y":2548451.2500000019}},{"attributes":{"ID":469839,"DIS_CODE":0,"TOWNNAME":"新化區","LI":"護國里","LIN":"5鄰","STREET":"信義路","SECT":" ","MAREA":" ","LANE":" ","ALLEY":" ","HOUSE_NO":"１８６號","E_COORD97":179220.32999999999,"N_COORD97":2548356.25,"ADDRESS":"信義路１８６號","OBJECTID":469814},"geometry":{"x":179220.33000000101,"y":2548356.2500000019}},{"attributes":{"ID":469840,"DIS_CODE":0,"TOWNNAME":"新化區","LI":"觀音里","LIN":"5鄰","STREET":"仁愛街","SECT":" ","MAREA":" ","LANE":" ","ALLEY":" ","HOUSE_NO":"６７號","E_COORD97":178958.28,"N_COORD97":2548565.25,"ADDRESS":"仁愛街６７號","OBJECTID":469815},"geometry":{"x":178958.28000000119,"y":2548565.25}},{"attributes":{"ID":469841,"DIS_CODE":0,"TOWNNAME":"新化區","LI":"觀音里","LIN":"5鄰","STREET":"民族街","SECT":" ","MAREA":" ","LANE":" ","ALLEY":" ","HOUSE_NO":"１６號","E_COORD97":178902.35999999999,"N_COORD97":2548504.25,"ADDRESS":"民族街１６號","OBJECTID":469816},"geometry":{"x":178902.36000000034,"y":2548504.25}},{"attributes":{"ID":469842,"DIS_CODE":0,"TOWNNAME":"新化區","LI":"協興里","LIN":"5鄰","STREET":"中山路","SECT":" ","MAREA":" ","LANE":" ","ALLEY":" ","HOUSE_NO":"５９６號","E_COORD97":178343.60999999999,"N_COORD97":2548487.25,"ADDRESS":"中山路５９６號","OBJECTID":469817},"geometry":{"x":178343.61000000127,"y":2548487.25}},{"attributes":{"ID":469843,"DIS_CODE":0,"TOWNNAME":"新化區","LI":"護國里","LIN":"5鄰","STREET":"中山路","SECT":" ","MAREA":" ","LANE":" ","ALLEY":" ","HOUSE_NO":"１８８號之２","E_COORD97":179205.85999999999,"N_COORD97":2548472.2599999998,"ADDRESS":"中山路１８８號之２","OBJECTID":469818},"geometry":{"x":179205.86000000034,"y":2548472.2599999998}},{"attributes":{"ID":469844,"DIS_CODE":0,"TOWNNAME":"新化區","LI":"協興里","LIN":"5鄰","STREET":"忠孝路","SECT":" ","MAREA":" ","LANE":" ","ALLEY":" ","HOUSE_NO":"２７５號","E_COORD97":178390.22,"N_COORD97":2548546.25,"ADDRESS":"忠孝路２７５號","OBJECTID":469819},"geometry":{"x":178390.22000000067,"y":2548546.2500000019}},{"attributes":{"ID":469845,"DIS_CODE":0,"TOWNNAME":"新化區","LI":"協興里","LIN":"5鄰","STREET":"中山路","SECT":" ","MAREA":" ","LANE":" ","ALLEY":" ","HOUSE_NO":"６１０號","E_COORD97":178326.51000000001,"N_COORD97":2548492.25,"ADDRESS":"中山路６１０號","OBJECTID":469820},"geometry":{"x":178326.51000000164,"y":2548492.2500000019}},{"attributes":{"ID":469846,"DIS_CODE":0,"TOWNNAME":"新化區","LI":"豐榮里","LIN":"5鄰","STREET":"中山路","SECT":" ","MAREA":" ","LANE":" ","ALLEY":" ","HOUSE_NO":"７８１號","E_COORD97":177794.51000000001,"N_COORD97":2548394.25,"ADDRESS":"中山路７８１號","OBJECTID":469821},"geometry":{"x":177794.51000000071,"y":2548394.2500000019}},{"attributes":{"ID":469847,"DIS_CODE":0,"TOWNNAME":"新化區","LI":"東榮里","LIN":"5鄰","STREET":"信義路","SECT":" ","MAREA":" ","LANE":" ","ALLEY":" ","HOUSE_NO":"１０３號","E_COORD97":179750.82999999999,"N_COORD97":2548619.25,"ADDRESS":"信義路１０３號","OBJECTID":469822},"geometry":{"x":179750.83000000101,"y":2548619.25}},{"attributes":{"ID":469848,"DIS_CODE":0,"TOWNNAME":"新化區","LI":"竹林里","LIN":"5鄰","STREET":"民族街","SECT":" ","MAREA":" ","LANE":" ","ALLEY":" ","HOUSE_NO":"２７號","E_COORD97":178882.45999999999,"N_COORD97":2548526.25,"ADDRESS":"民族街２７號","OBJECTID":469823},"geometry":{"x":178882.45999999996,"y":2548526.2500000019}},{"attributes":{"ID":469849,"DIS_CODE":0,"TOWNNAME":"新化區","LI":"護國里","LIN":"5鄰","STREET":"中山路","SECT":" ","MAREA":" ","LANE":" ","ALLEY":" ","HOUSE_NO":"１９２號之１","E_COORD97":179191.64000000001,"N_COORD97":2548472.2599999998,"ADDRESS":"中山路１９２號之１","OBJECTID":469824},"geometry":{"x":179191.63999999873,"y":2548472.2599999998}},{"attributes":{"ID":469850,"DIS_CODE":0,"TOWNNAME":"新化區","LI":"觀音里","LIN":"5鄰","STREET":"仁愛街","SECT":" ","MAREA":" ","LANE":" ","ALLEY":" ","HOUSE_NO":"８１號","E_COORD97":178897.78,"N_COORD97":2548563.25,"ADDRESS":"仁愛街８１號","OBJECTID":469825},"geometry":{"x":178897.78000000026,"y":2548563.2500000019}},{"attributes":{"ID":469851,"DIS_CODE":0,"TOWNNAME":"新化區","LI":"護國里","LIN":"5鄰","STREET":"信義路","SECT":" ","MAREA":" ","LANE":" ","ALLEY":" ","HOUSE_NO":"１８４號","E_COORD97":179223.32999999999,"N_COORD97":2548357.25,"ADDRESS":"信義路１８４號","OBJECTID":469826},"geometry":{"x":179223.33000000101,"y":2548357.25}},{"attributes":{"ID":469852,"DIS_CODE":0,"TOWNNAME":"新化區","LI":"護國里","LIN":"5鄰","STREET":"中山路","SECT":" ","MAREA":" ","LANE":" ","ALLEY":" ","HOUSE_NO":"１８０號","E_COORD97":179242.60999999999,"N_COORD97":2548488.25,"ADDRESS":"中山路１８０號","OBJECTID":469827},"geometry":{"x":179242.61000000127,"y":2548488.2500000019}},{"attributes":{"ID":469853,"DIS_CODE":0,"TOWNNAME":"新化區","LI":"竹林里","LIN":"5鄰","STREET":"民族街","SECT":" ","MAREA":" ","LANE":" ","ALLEY":" ","HOUSE_NO":"３７號","E_COORD97":178881.26000000001,"N_COORD97":2548543.25,"ADDRESS":"民族街３７號","OBJECTID":469828},"geometry":{"x":178881.26000000071,"y":2548543.2500000019}},{"attributes":{"ID":469854,"DIS_CODE":0,"TOWNNAME":"新化區","LI":"豐榮里","LIN":"5鄰","STREET":"中山路","SECT":" ","MAREA":" ","LANE":" ","ALLEY":" ","HOUSE_NO":"８０７號","E_COORD97":177571.01000000001,"N_COORD97":2548344.25,"ADDRESS":"中山路８０７號","OBJECTID":469829},"geometry":{"x":177571.01000000071,"y":2548344.25}},{"attributes":{"ID":469855,"DIS_CODE":0,"TOWNNAME":"新化區","LI":"東榮里","LIN":"5鄰","STREET":"信義路","SECT":" ","MAREA":" ","LANE":" ","ALLEY":" ","HOUSE_NO":"１０１號","E_COORD97":179754.82999999999,"N_COORD97":2548624.25,"ADDRESS":"信義路１０１號","OBJECTID":469830},"geometry":{"x":179754.83000000007,"y":2548624.2500000019}},{"attributes":{"ID":469856,"DIS_CODE":0,"TOWNNAME":"新化區","LI":"護國里","LIN":"5鄰","STREET":"中山路","SECT":" ","MAREA":" ","LANE":" ","ALLEY":" ","HOUSE_NO":"１９０號","E_COORD97":179198.81,"N_COORD97":2548471.25,"ADDRESS":"中山路１９０號","OBJECTID":469831},"geometry":{"x":179198.80999999959,"y":2548471.2500000019}},{"attributes":{"ID":469857,"DIS_CODE":0,"TOWNNAME":"新化區","LI":"協興里","LIN":"5鄰","STREET":"中山路","SECT":" ","MAREA":" ","LANE":" ","ALLEY":" ","HOUSE_NO":"５９８號","E_COORD97":178338.60999999999,"N_COORD97":2548488.25,"ADDRESS":"中山路５９８號","OBJECTID":469832},"geometry":{"x":178338.61000000127,"y":2548488.2500000019}},{"attributes":{"ID":469858,"DIS_CODE":0,"TOWNNAME":"新化區","LI":"協興里","LIN":"5鄰","STREET":"中山路","SECT":" ","MAREA":" ","LANE":" ","ALLEY":" ","HOUSE_NO":"５６０號","E_COORD97":178422.01000000001,"N_COORD97":2548464.25,"ADDRESS":"中山路５６０號","OBJECTID":469833},"geometry":{"x":178422.01000000071,"y":2548464.2500000019}},{"attributes":{"ID":469859,"DIS_CODE":0,"TOWNNAME":"新化區","LI":"協興里","LIN":"5鄰","STREET":"中山路","SECT":" ","MAREA":" ","LANE":" ","ALLEY":" ","HOUSE_NO":"５７８號","E_COORD97":178396.20999999999,"N_COORD97":2548473.25,"ADDRESS":"中山路５７８號","OBJECTID":469834},"geometry":{"x":178396.20999999996,"y":2548473.25}},{"attributes":{"ID":469860,"DIS_CODE":0,"TOWNNAME":"新化區","LI":"護國里","LIN":"5鄰","STREET":"信義路","SECT":" ","MAREA":" ","LANE":" ","ALLEY":" ","HOUSE_NO":"１７６號","E_COORD97":179237.73000000001,"N_COORD97":2548363.25,"ADDRESS":"信義路１７６號","OBJECTID":469835},"geometry":{"x":179237.73000000231,"y":2548363.2500000019}},{"attributes":{"ID":469861,"DIS_CODE":0,"TOWNNAME":"新化區","LI":"豐榮里","LIN":"5鄰","STREET":"中山路","SECT":" ","MAREA":" ","LANE":" ","ALLEY":" ","HOUSE_NO":"８０７號之１","E_COORD97":177568.04000000001,"N_COORD97":2548335.2599999998,"ADDRESS":"中山路８０７號之１","OBJECTID":469836},"geometry":{"x":177568.04000000004,"y":2548335.2600000016}},{"attributes":{"ID":469862,"DIS_CODE":0,"TOWNNAME":"新化區","LI":"護國里","LIN":"5鄰","STREET":"信義路","SECT":" ","MAREA":" ","LANE":" ","ALLEY":" ","HOUSE_NO":"１８２號","E_COORD97":179226.92999999999,"N_COORD97":2548358.25,"ADDRESS":"信義路１８２號","OBJECTID":469837},"geometry":{"x":179226.9299999997,"y":2548358.25}},{"attributes":{"ID":469863,"DIS_CODE":0,"TOWNNAME":"新化區","LI":"豐榮里","LIN":"5鄰","STREET":"中山路","SECT":" ","MAREA":" ","LANE":" ","ALLEY":" ","HOUSE_NO":"７８５號之１","E_COORD97":177769.84,"N_COORD97":2548351.2599999998,"ADDRESS":"中山路７８５號之１","OBJECTID":469838},"geometry":{"x":177769.83999999985,"y":2548351.2599999998}},{"attributes":{"ID":469864,"DIS_CODE":0,"TOWNNAME":"西港區","LI":"慶安里","LIN":"5鄰","STREET":"中山路","SECT":" ","MAREA":" ","LANE":" ","ALLEY":" ","HOUSE_NO":"４５１號","E_COORD97":168228.04999999999,"N_COORD97":2558691.2200000002,"ADDRESS":"中山路４５１號","OBJECTID":469839},"geometry":{"x":168228.05000000168,"y":2558691.2200000025}},{"attributes":{"ID":469865,"DIS_CODE":0,"TOWNNAME":"西港區","LI":"慶安里","LIN":"5鄰","STREET":"中山路","SECT":" ","MAREA":" ","LANE":" ","ALLEY":" ","HOUSE_NO":"４５５號","E_COORD97":168226.75,"N_COORD97":2558701.77,"ADDRESS":"中山路４５５號","OBJECTID":469840},"geometry":{"x":168226.74999999907,"y":2558701.7699999996}},{"attributes":{"ID":469866,"DIS_CODE":0,"TOWNNAME":"西港區","LI":"慶安里","LIN":"5鄰","STREET":"中山路","SECT":" ","MAREA":" ","LANE":" ","ALLEY":" ","HOUSE_NO":"４５７號","E_COORD97":168170.64000000001,"N_COORD97":2558696.0499999998,"ADDRESS":"中山路４５７號","OBJECTID":469841},"geometry":{"x":168170.63999999966,"y":2558696.0500000026}},{"attributes":{"ID":469867,"DIS_CODE":0,"TOWNNAME":"西港區","LI":"慶安里","LIN":"5鄰","STREET":"中山路","SECT":" ","MAREA":" ","LANE":" ","ALLEY":" ","HOUSE_NO":"４６１號","E_COORD97":168178.32999999999,"N_COORD97":2558698.8199999998,"ADDRESS":"中山路４６１號","OBJECTID":469842},"geometry":{"x":168178.33000000007,"y":2558698.8200000003}},{"attributes":{"ID":469868,"DIS_CODE":0,"TOWNNAME":"西港區","LI":"慶安里","LIN":"5鄰","STREET":"中山路","SECT":" ","MAREA":" ","LANE":" ","ALLEY":" ","HOUSE_NO":"４６５號之１","E_COORD97":168192.79999999999,"N_COORD97":2558703.7599999998,"ADDRESS":"中山路４６５號之１","OBJECTID":469843},"geometry":{"x":168192.80000000075,"y":2558703.7600000016}},{"attributes":{"ID":469869,"DIS_CODE":0,"TOWNNAME":"西港區","LI":"慶安里","LIN":"5鄰","STREET":"中山路","SECT":" ","MAREA":" ","LANE":" ","ALLEY":" ","HOUSE_NO":"４６５號","E_COORD97":168225.48000000001,"N_COORD97":2558710.2799999998,"ADDRESS":"中山路４６５號","OBJECTID":469844},"geometry":{"x":168225.48000000045,"y":2558710.2800000012}},{"attributes":{"ID":469870,"DIS_CODE":0,"TOWNNAME":"西港區","LI":"慶安里","LIN":"5鄰","STREET":"中山路","SECT":" ","MAREA":" ","LANE":" ","ALLEY":" ","HOUSE_NO":"４６７之１號","E_COORD97":168177.41,"N_COORD97":2558716.5800000001,"ADDRESS":"中山路４６７之１號","OBJECTID":469845},"geometry":{"x":168177.41000000108,"y":2558716.5800000001}},{"attributes":{"ID":469871,"DIS_CODE":0,"TOWNNAME":"西港區","LI":"慶安里","LIN":"5鄰","STREET":"中山路","SECT":" ","MAREA":" ","LANE":" ","ALLEY":" ","HOUSE_NO":"４６７號","E_COORD97":168218.70999999999,"N_COORD97":2558734.3900000001,"ADDRESS":"中山路４６７號","OBJECTID":469846},"geometry":{"x":168218.71000000183,"y":2558734.3900000025}},{"attributes":{"ID":469872,"DIS_CODE":0,"TOWNNAME":"西港區","LI":"慶安里","LIN":"5鄰","STREET":"中山路","SECT":" ","MAREA":" ","LANE":" ","ALLEY":" ","HOUSE_NO":"４６９號之５","E_COORD97":168102.95000000001,"N_COORD97":2558765.8799999999,"ADDRESS":"中山路４６９號之５","OBJECTID":469847},"geometry":{"x":168102.95000000019,"y":2558765.8800000008}},{"attributes":{"ID":469873,"DIS_CODE":0,"TOWNNAME":"西港區","LI":"慶安里","LIN":"5鄰","STREET":"中山路","SECT":" ","MAREA":" ","LANE":" ","ALLEY":" ","HOUSE_NO":"４６９之７號","E_COORD97":168089.088667,"N_COORD97":2558744.6806399999,"ADDRESS":"中山路４６９之７號","OBJECTID":469848},"geometry":{"x":168089.08866700064,"y":2558744.6806390006}},{"attributes":{"ID":469874,"DIS_CODE":0,"TOWNNAME":"西港區","LI":"慶安里","LIN":"5鄰","STREET":"中山路","SECT":" ","MAREA":" ","LANE":" ","ALLEY":" ","HOUSE_NO":"４６９號","E_COORD97":168199.53,"N_COORD97":2558763.5,"ADDRESS":"中山路４６９號","OBJECTID":469849},"geometry":{"x":168199.53000000026,"y":2558763.5000000019}},{"attributes":{"ID":469875,"DIS_CODE":0,"TOWNNAME":"西港區","LI":"慶安里","LIN":"5鄰","STREET":"中山路","SECT":" ","MAREA":" ","LANE":" ","ALLEY":" ","HOUSE_NO":"４７３號","E_COORD97":168195.66,"N_COORD97":2558791.29,"ADDRESS":"中山路４７３號","OBJECTID":469850},"geometry":{"x":168195.66000000108,"y":2558791.290000001}},{"attributes":{"ID":469876,"DIS_CODE":0,"TOWNNAME":"西港區","LI":"慶安里","LIN":"5鄰","STREET":"中山路","SECT":" ","MAREA":" ","LANE":" ","ALLEY":" ","HOUSE_NO":"４７５號","E_COORD97":168172.88,"N_COORD97":2558837.0499999998,"ADDRESS":"中山路４７５號","OBJECTID":469851},"geometry":{"x":168172.87999999989,"y":2558837.0499999989}},{"attributes":{"ID":469877,"DIS_CODE":0,"TOWNNAME":"西港區","LI":"慶安里","LIN":"5鄰","STREET":"中山路","SECT":" ","MAREA":" ","LANE":" ","ALLEY":" ","HOUSE_NO":"４７７號之１","E_COORD97":168172.10999999999,"N_COORD97":2558855.2000000002,"ADDRESS":"中山路４７７號之１","OBJECTID":469852},"geometry":{"x":168172.1099999994,"y":2558855.200000003}},{"attributes":{"ID":469878,"DIS_CODE":0,"TOWNNAME":"西港區","LI":"慶安里","LIN":"5鄰","STREET":"中山路","SECT":" ","MAREA":" ","LANE":" ","ALLEY":" ","HOUSE_NO":"４７７號","E_COORD97":168110.23999999999,"N_COORD97":2558838.6600000001,"ADDRESS":"中山路４７７號","OBJECTID":469853},"geometry":{"x":168110.24000000209,"y":2558838.6600000001}},{"attributes":{"ID":469879,"DIS_CODE":0,"TOWNNAME":"西港區","LI":"慶安里","LIN":"5鄰","STREET":"中山路","SECT":" ","MAREA":" ","LANE":" ","ALLEY":" ","HOUSE_NO":"４７９號","E_COORD97":168170.29999999999,"N_COORD97":2558865.9900000002,"ADDRESS":"中山路４７９號","OBJECTID":469854},"geometry":{"x":168170.29999999888,"y":2558865.9900000002}},{"attributes":{"ID":469880,"DIS_CODE":0,"TOWNNAME":"西港區","LI":"慶安里","LIN":"5鄰","STREET":"中山路","SECT":" ","MAREA":" ","LANE":" ","ALLEY":" ","HOUSE_NO":"４８１號","E_COORD97":168161.63,"N_COORD97":2558893,"ADDRESS":"中山路４８１號","OBJECTID":469855},"geometry":{"x":168161.63000000082,"y":2558893}},{"attributes":{"ID":469881,"DIS_CODE":0,"TOWNNAME":"西港區","LI":"慶安里","LIN":"5鄰","STREET":"中山路","SECT":" ","MAREA":" ","LANE":" ","ALLEY":" ","HOUSE_NO":"４８３號之１","E_COORD97":168145.89000000001,"N_COORD97":2558917.4199999999,"ADDRESS":"中山路４８３號之１","OBJECTID":469856},"geometry":{"x":168145.89000000153,"y":2558917.4199999999}},{"attributes":{"ID":469882,"DIS_CODE":0,"TOWNNAME":"西港區","LI":"慶安里","LIN":"5鄰","STREET":"中山路","SECT":" ","MAREA":" ","LANE":" ","ALLEY":" ","HOUSE_NO":"４８３號之３０","E_COORD97":168023.09,"N_COORD97":2558876.8199999998,"ADDRESS":"中山路４８３號之３０","OBJECTID":469857},"geometry":{"x":168023.09000000078,"y":2558876.8200000022}},{"attributes":{"ID":469883,"DIS_CODE":0,"TOWNNAME":"西港區","LI":"慶安里","LIN":"5鄰","STREET":"中山路","SECT":" ","MAREA":" ","LANE":" ","ALLEY":" ","HOUSE_NO":"４８３號之３１","E_COORD97":167995.70000000001,"N_COORD97":2558902.8300000001,"ADDRESS":"中山路４８３號之３１","OBJECTID":469858},"geometry":{"x":167995.70000000112,"y":2558902.8300000019}},{"attributes":{"ID":469884,"DIS_CODE":0,"TOWNNAME":"西港區","LI":"慶安里","LIN":"5鄰","STREET":"中山路","SECT":" ","MAREA":" ","LANE":" ","ALLEY":" ","HOUSE_NO":"４８３號","E_COORD97":168152.67999999999,"N_COORD97":2558907.54,"ADDRESS":"中山路４８３號","OBJECTID":469859},"geometry":{"x":168152.68000000063,"y":2558907.540000001}},{"attributes":{"ID":469885,"DIS_CODE":0,"TOWNNAME":"西港區","LI":"慶安里","LIN":"5鄰","STREET":"中山路","SECT":" ","MAREA":" ","LANE":" ","ALLEY":" ","HOUSE_NO":"４８７號之１","E_COORD97":168151.10999999999,"N_COORD97":2558944.3500000001,"ADDRESS":"中山路４８７號之１","OBJECTID":469860},"geometry":{"x":168151.11000000034,"y":2558944.3499999996}},{"attributes":{"ID":469886,"DIS_CODE":0,"TOWNNAME":"西港區","LI":"慶安里","LIN":"5鄰","STREET":"中山路","SECT":" ","MAREA":" ","LANE":" ","ALLEY":" ","HOUSE_NO":"４８７號之２","E_COORD97":168149.25,"N_COORD97":2558949.2599999998,"ADDRESS":"中山路４８７號之２","OBJECTID":469861},"geometry":{"x":168149.25000000093,"y":2558949.2599999998}},{"attributes":{"ID":469887,"DIS_CODE":0,"TOWNNAME":"西港區","LI":"慶安里","LIN":"5鄰","STREET":"中山路","SECT":" ","MAREA":" ","LANE":" ","ALLEY":" ","HOUSE_NO":"４８７號之３","E_COORD97":168147.75,"N_COORD97":2558953.7000000002,"ADDRESS":"中山路４８７號之３","OBJECTID":469862},"geometry":{"x":168147.75000000093,"y":2558953.7000000011}},{"attributes":{"ID":469888,"DIS_CODE":0,"TOWNNAME":"西港區","LI":"慶安里","LIN":"5鄰","STREET":"中山路","SECT":" ","MAREA":" ","LANE":" ","ALLEY":" ","HOUSE_NO":"４９１號","E_COORD97":168115.09,"N_COORD97":2559002.9100000001,"ADDRESS":"中山路４９１號","OBJECTID":469863},"geometry":{"x":168115.08999999985,"y":2559002.9100000001}},{"attributes":{"ID":469889,"DIS_CODE":0,"TOWNNAME":"西港區","LI":"慶安里","LIN":"5鄰","STREET":"中山路","SECT":" ","MAREA":" ","LANE":" ","ALLEY":" ","HOUSE_NO":"４９３號之１","E_COORD97":168111.81,"N_COORD97":2559032.9500000002,"ADDRESS":"中山路４９３號之１","OBJECTID":469864},"geometry":{"x":168111.80999999959,"y":2559032.950000003}},{"attributes":{"ID":469890,"DIS_CODE":0,"TOWNNAME":"西港區","LI":"慶安里","LIN":"5鄰","STREET":"中山路","SECT":" ","MAREA":" ","LANE":" ","ALLEY":" ","HOUSE_NO":"４９３號之５","E_COORD97":168088.32000000001,"N_COORD97":2559051.8100000001,"ADDRESS":"中山路４９３號之５","OBJECTID":469865},"geometry":{"x":168088.32000000123,"y":2559051.8100000005}},{"attributes":{"ID":469891,"DIS_CODE":0,"TOWNNAME":"西港區","LI":"慶安里","LIN":"5鄰","STREET":"中山路","SECT":" ","MAREA":" ","LANE":" ","ALLEY":" ","HOUSE_NO":"４９３號","E_COORD97":168116.14999999999,"N_COORD97":2559026.2400000002,"ADDRESS":"中山路４９３號","OBJECTID":469866},"geometry":{"x":168116.15000000224,"y":2559026.2400000021}},{"attributes":{"ID":469892,"DIS_CODE":0,"TOWNNAME":"西港區","LI":"慶安里","LIN":"5鄰","STREET":"中山路","SECT":" ","MAREA":" ","LANE":" ","ALLEY":" ","HOUSE_NO":"４９５號","E_COORD97":168096.26999999999,"N_COORD97":2559071.6899999999,"ADDRESS":"中山路４９５號","OBJECTID":469867},"geometry":{"x":168096.27000000048,"y":2559071.6899999995}},{"attributes":{"ID":469893,"DIS_CODE":0,"TOWNNAME":"西港區","LI":"慶安里","LIN":"5鄰","STREET":"中山路","SECT":" ","MAREA":" ","LANE":" ","ALLEY":" ","HOUSE_NO":"４９７號","E_COORD97":168082.97,"N_COORD97":2559100.6099999999,"ADDRESS":"中山路４９７號","OBJECTID":469868},"geometry":{"x":168082.97000000067,"y":2559100.6100000013}},{"attributes":{"ID":469894,"DIS_CODE":0,"TOWNNAME":"西港區","LI":"西港里","LIN":"5鄰","STREET":"文化路","SECT":" ","MAREA":" ","LANE":" ","ALLEY":" ","HOUSE_NO":"１０２號","E_COORD97":168902.23000000001,"N_COORD97":2558351.79,"ADDRESS":"文化路１０２號","OBJECTID":469869},"geometry":{"x":168902.23000000231,"y":2558351.7899999991}},{"attributes":{"ID":469895,"DIS_CODE":0,"TOWNNAME":"西港區","LI":"西港里","LIN":"5鄰","STREET":"文化路","SECT":" ","MAREA":" ","LANE":" ","ALLEY":" ","HOUSE_NO":"５１號之１","E_COORD97":168694.57999999999,"N_COORD97":2558289.5600000001,"ADDRESS":"文化路５１號之１","OBJECTID":469870},"geometry":{"x":168694.58000000101,"y":2558289.5600000005}},{"attributes":{"ID":469896,"DIS_CODE":0,"TOWNNAME":"西港區","LI":"西港里","LIN":"5鄰","STREET":"文化路","SECT":" ","MAREA":" ","LANE":" ","ALLEY":" ","HOUSE_NO":"５１號","E_COORD97":168700.01000000001,"N_COORD97":2558288.21,"ADDRESS":"文化路５１號","OBJECTID":469871},"geometry":{"x":168700.01000000071,"y":2558288.2100000028}},{"attributes":{"ID":469897,"DIS_CODE":0,"TOWNNAME":"西港區","LI":"西港里","LIN":"5鄰","STREET":"文化路","SECT":" ","MAREA":" ","LANE":" ","ALLEY":" ","HOUSE_NO":"５３號之１","E_COORD97":168720.23000000001,"N_COORD97":2558288.1099999999,"ADDRESS":"文化路５３號之１","OBJECTID":469872},"geometry":{"x":168720.23000000045,"y":2558288.1099999994}},{"attributes":{"ID":469898,"DIS_CODE":0,"TOWNNAME":"西港區","LI":"西港里","LIN":"5鄰","STREET":"文化路","SECT":" ","MAREA":" ","LANE":" ","ALLEY":" ","HOUSE_NO":"５３號之２","E_COORD97":168712.66,"N_COORD97":2558284.7999999998,"ADDRESS":"文化路５３號之２","OBJECTID":469873},"geometry":{"x":168712.66000000108,"y":2558284.8000000007}},{"attributes":{"ID":469899,"DIS_CODE":0,"TOWNNAME":"西港區","LI":"西港里","LIN":"5鄰","STREET":"文化路","SECT":" ","MAREA":" ","LANE":" ","ALLEY":" ","HOUSE_NO":"５３號","E_COORD97":168717.23999999999,"N_COORD97":2558285.25,"ADDRESS":"文化路５３號","OBJECTID":469874},"geometry":{"x":168717.24000000115,"y":2558285.25}},{"attributes":{"ID":469900,"DIS_CODE":0,"TOWNNAME":"西港區","LI":"西港里","LIN":"5鄰","STREET":"文化路","SECT":" ","MAREA":" ","LANE":" ","ALLEY":" ","HOUSE_NO":"５５號","E_COORD97":168727.69,"N_COORD97":2558288.6499999999,"ADDRESS":"文化路５５號","OBJECTID":469875},"geometry":{"x":168727.68999999948,"y":2558288.6500000004}},{"attributes":{"ID":469901,"DIS_CODE":0,"TOWNNAME":"西港區","LI":"西港里","LIN":"5鄰","STREET":"文化路","SECT":" ","MAREA":" ","LANE":" ","ALLEY":" ","HOUSE_NO":"５６號","E_COORD97":168678.10999999999,"N_COORD97":2558215.3700000001,"ADDRESS":"文化路５６號","OBJECTID":469876},"geometry":{"x":168678.11000000127,"y":2558215.3700000029}},{"attributes":{"ID":469902,"DIS_CODE":0,"TOWNNAME":"西港區","LI":"西港里","LIN":"5鄰","STREET":"文化路","SECT":" ","MAREA":" ","LANE":" ","ALLEY":" ","HOUSE_NO":"５９號","E_COORD97":168743.06,"N_COORD97":2558297.5499999998,"ADDRESS":"文化路５９號","OBJECTID":469877},"geometry":{"x":168743.06000000145,"y":2558297.5500000007}},{"attributes":{"ID":469903,"DIS_CODE":0,"TOWNNAME":"西港區","LI":"西港里","LIN":"5鄰","STREET":"文化路","SECT":" ","MAREA":" ","LANE":" ","ALLEY":" ","HOUSE_NO":"６０號之１","E_COORD97":168715.39000000001,"N_COORD97":2558243.6099999999,"ADDRESS":"文化路６０號之１","OBJECTID":469878},"geometry":{"x":168715.38999999873,"y":2558243.6100000013}},{"attributes":{"ID":469904,"DIS_CODE":0,"TOWNNAME":"西港區","LI":"西港里","LIN":"5鄰","STREET":"文化路","SECT":" ","MAREA":" ","LANE":" ","ALLEY":" ","HOUSE_NO":"６０號之２","E_COORD97":168719.41,"N_COORD97":2558245.6400000001,"ADDRESS":"文化路６０號之２","OBJECTID":469879},"geometry":{"x":168719.41000000108,"y":2558245.6400000006}},{"attributes":{"ID":469905,"DIS_CODE":0,"TOWNNAME":"西港區","LI":"西港里","LIN":"5鄰","STREET":"文化路","SECT":" ","MAREA":" ","LANE":" ","ALLEY":" ","HOUSE_NO":"６２號","E_COORD97":168723.38,"N_COORD97":2558247.5800000001,"ADDRESS":"文化路６２號","OBJECTID":469880},"geometry":{"x":168723.38000000082,"y":2558247.5800000019}},{"attributes":{"ID":469906,"DIS_CODE":0,"TOWNNAME":"西港區","LI":"西港里","LIN":"5鄰","STREET":"文化路","SECT":" ","MAREA":" ","LANE":" ","ALLEY":" ","HOUSE_NO":"６４號","E_COORD97":168727.13,"N_COORD97":2558249.52,"ADDRESS":"文化路６４號","OBJECTID":469881},"geometry":{"x":168727.12999999989,"y":2558249.5199999977}},{"attributes":{"ID":469907,"DIS_CODE":0,"TOWNNAME":"西港區","LI":"西港里","LIN":"5鄰","STREET":"文化路","SECT":" ","MAREA":" ","LANE":" ","ALLEY":" ","HOUSE_NO":"６５號之１","E_COORD97":168769.5,"N_COORD97":2558316.4399999999,"ADDRESS":"文化路６５號之１","OBJECTID":469882},"geometry":{"x":168769.50000000093,"y":2558316.4399999995}},{"attributes":{"ID":469908,"DIS_CODE":0,"TOWNNAME":"西港區","LI":"西港里","LIN":"5鄰","STREET":"文化路","SECT":" ","MAREA":" ","LANE":" ","ALLEY":" ","HOUSE_NO":"６５號","E_COORD97":168765.85000000001,"N_COORD97":2558314.5499999998,"ADDRESS":"文化路６５號","OBJECTID":469883},"geometry":{"x":168765.84999999963,"y":2558314.5500000007}},{"attributes":{"ID":469909,"DIS_CODE":0,"TOWNNAME":"西港區","LI":"西港里","LIN":"5鄰","STREET":"文化路","SECT":" ","MAREA":" ","LANE":" ","ALLEY":" ","HOUSE_NO":"６６號","E_COORD97":168731.01000000001,"N_COORD97":2558251.7999999998,"ADDRESS":"文化路６６號","OBJECTID":469884},"geometry":{"x":168731.00999999978,"y":2558251.8000000007}},{"attributes":{"ID":469910,"DIS_CODE":0,"TOWNNAME":"西港區","LI":"西港里","LIN":"5鄰","STREET":"文化路","SECT":" ","MAREA":" ","LANE":" ","ALLEY":" ","HOUSE_NO":"６７號","E_COORD97":168774.75,"N_COORD97":2558318.9500000002,"ADDRESS":"文化路６７號","OBJECTID":469885},"geometry":{"x":168774.75000000093,"y":2558318.9500000011}},{"attributes":{"ID":469911,"DIS_CODE":0,"TOWNNAME":"西港區","LI":"西港里","LIN":"5鄰","STREET":"文化路","SECT":" ","MAREA":" ","LANE":" ","ALLEY":" ","HOUSE_NO":"６８號","E_COORD97":168734.82999999999,"N_COORD97":2558253.6400000001,"ADDRESS":"文化路６８號","OBJECTID":469886},"geometry":{"x":168734.82999999914,"y":2558253.6400000025}},{"attributes":{"ID":469912,"DIS_CODE":0,"TOWNNAME":"西港區","LI":"西港里","LIN":"5鄰","STREET":"文化路","SECT":" ","MAREA":" ","LANE":" ","ALLEY":" ","HOUSE_NO":"７０號","E_COORD97":168738.29000000001,"N_COORD97":2558255.4700000002,"ADDRESS":"文化路７０號","OBJECTID":469887},"geometry":{"x":168738.29000000004,"y":2558255.4700000025}},{"attributes":{"ID":469913,"DIS_CODE":0,"TOWNNAME":"西港區","LI":"西港里","LIN":"5鄰","STREET":"文化路","SECT":" ","MAREA":" ","LANE":" ","ALLEY":" ","HOUSE_NO":"７１號","E_COORD97":168783.29000000001,"N_COORD97":2558366.7000000002,"ADDRESS":"文化路７１號","OBJECTID":469888},"geometry":{"x":168783.29000000097,"y":2558366.700000003}},{"attributes":{"ID":469914,"DIS_CODE":0,"TOWNNAME":"西港區","LI":"西港里","LIN":"5鄰","STREET":"文化路","SECT":" ","MAREA":" ","LANE":" ","ALLEY":" ","HOUSE_NO":"７２號","E_COORD97":168741.92999999999,"N_COORD97":2558257.48,"ADDRESS":"文化路７２號","OBJECTID":469889},"geometry":{"x":168741.9299999997,"y":2558257.4799999986}},{"attributes":{"ID":469915,"DIS_CODE":0,"TOWNNAME":"西港區","LI":"西港里","LIN":"5鄰","STREET":"文化路","SECT":" ","MAREA":" ","LANE":" ","ALLEY":" ","HOUSE_NO":"７４號","E_COORD97":168745.62,"N_COORD97":2558259.27,"ADDRESS":"文化路７４號","OBJECTID":469890},"geometry":{"x":168745.62000000104,"y":2558259.2700000014}},{"attributes":{"ID":469916,"DIS_CODE":0,"TOWNNAME":"西港區","LI":"西港里","LIN":"5鄰","STREET":"文化路","SECT":" ","MAREA":" ","LANE":" ","ALLEY":" ","HOUSE_NO":"７６號","E_COORD97":168749.48999999999,"N_COORD97":2558261.3100000001,"ADDRESS":"文化路７６號","OBJECTID":469891},"geometry":{"x":168749.49000000115,"y":2558261.3100000005}},{"attributes":{"ID":469917,"DIS_CODE":0,"TOWNNAME":"西港區","LI":"西港里","LIN":"5鄰","STREET":"文化路","SECT":" ","MAREA":" ","LANE":" ","ALLEY":" ","HOUSE_NO":"７８號","E_COORD97":168752.92000000001,"N_COORD97":2558263.3199999998,"ADDRESS":"文化路７８號","OBJECTID":469892},"geometry":{"x":168752.92000000179,"y":2558263.3200000022}},{"attributes":{"ID":469918,"DIS_CODE":0,"TOWNNAME":"西港區","LI":"西港里","LIN":"5鄰","STREET":"文化路","SECT":" ","MAREA":" ","LANE":" ","ALLEY":" ","HOUSE_NO":"７９號","E_COORD97":168825.42999999999,"N_COORD97":2558352.4199999999,"ADDRESS":"文化路７９號","OBJECTID":469893},"geometry":{"x":168825.43000000156,"y":2558352.4200000037}},{"attributes":{"ID":469919,"DIS_CODE":0,"TOWNNAME":"西港區","LI":"西港里","LIN":"5鄰","STREET":"文化路","SECT":" ","MAREA":" ","LANE":" ","ALLEY":" ","HOUSE_NO":"８０號","E_COORD97":168756.67000000001,"N_COORD97":2558265.0699999998,"ADDRESS":"文化路８０號","OBJECTID":469894},"geometry":{"x":168756.67000000086,"y":2558265.0700000022}},{"attributes":{"ID":469920,"DIS_CODE":0,"TOWNNAME":"西港區","LI":"西港里","LIN":"5鄰","STREET":"文化路","SECT":" ","MAREA":" ","LANE":" ","ALLEY":" ","HOUSE_NO":"８１號","E_COORD97":168834.25,"N_COORD97":2558355.4900000002,"ADDRESS":"文化路８１號","OBJECTID":469895},"geometry":{"x":168834.25000000093,"y":2558355.4899999984}},{"attributes":{"ID":469921,"DIS_CODE":0,"TOWNNAME":"東區","LI":"大德里","LIN":"5鄰","STREET":"立德十路","SECT":" ","MAREA":" ","LANE":" ","ALLEY":" ","HOUSE_NO":"５２號","E_COORD97":169521.10999999999,"N_COORD97":2542044.8500000001,"ADDRESS":"立德十路５２號","OBJECTID":469896},"geometry":{"x":169521.11000000034,"y":2542044.8500000034}},{"attributes":{"ID":469922,"DIS_CODE":0,"TOWNNAME":"西港區","LI":"西港里","LIN":"5鄰","STREET":"文化路","SECT":" ","MAREA":" ","LANE":" ","ALLEY":" ","HOUSE_NO":"８５號","E_COORD97":168852.98000000001,"N_COORD97":2558371.4100000001,"ADDRESS":"文化路８５號","OBJECTID":469897},"geometry":{"x":168852.98000000231,"y":2558371.4100000001}},{"attributes":{"ID":469923,"DIS_CODE":0,"TOWNNAME":"西港區","LI":"西港里","LIN":"5鄰","STREET":"文化路","SECT":" ","MAREA":" ","LANE":" ","ALLEY":" ","HOUSE_NO":"８６號","E_COORD97":168773.32999999999,"N_COORD97":2558261.9900000002,"ADDRESS":"文化路８６號","OBJECTID":469898},"geometry":{"x":168773.33000000007,"y":2558261.9900000021}},{"attributes":{"ID":469924,"DIS_CODE":0,"TOWNNAME":"西港區","LI":"西港里","LIN":"5鄰","STREET":"文化路","SECT":" ","MAREA":" ","LANE":" ","ALLEY":" ","HOUSE_NO":"８７號","E_COORD97":168860.41,"N_COORD97":2558373.02,"ADDRESS":"文化路８７號","OBJECTID":469899},"geometry":{"x":168860.41000000108,"y":2558373.0200000014}},{"attributes":{"ID":469925,"DIS_CODE":0,"TOWNNAME":"西港區","LI":"西港里","LIN":"5鄰","STREET":"文化路","SECT":" ","MAREA":" ","LANE":" ","ALLEY":" ","HOUSE_NO":"８９號","E_COORD97":168869.85000000001,"N_COORD97":2558382.4900000002,"ADDRESS":"文化路８９號","OBJECTID":469900},"geometry":{"x":168869.8499999987,"y":2558382.4900000002}},{"attributes":{"ID":469926,"DIS_CODE":0,"TOWNNAME":"西港區","LI":"西港里","LIN":"5鄰","STREET":"文化路","SECT":" ","MAREA":" ","LANE":" ","ALLEY":" ","HOUSE_NO":"９０號","E_COORD97":168786.98999999999,"N_COORD97":2558283.8599999999,"ADDRESS":"文化路９０號","OBJECTID":469901},"geometry":{"x":168786.99000000115,"y":2558283.8599999994}},{"attributes":{"ID":469927,"DIS_CODE":0,"TOWNNAME":"西港區","LI":"西港里","LIN":"5鄰","STREET":"文化路","SECT":" ","MAREA":" ","LANE":" ","ALLEY":" ","HOUSE_NO":"９１號","E_COORD97":168875.82999999999,"N_COORD97":2558383.4399999999,"ADDRESS":"文化路９１號","OBJECTID":469902},"geometry":{"x":168875.83000000101,"y":2558383.4400000013}},{"attributes":{"ID":469928,"DIS_CODE":0,"TOWNNAME":"東區","LI":"大德里","LIN":"5鄰","STREET":"立德十路","SECT":" ","MAREA":" ","LANE":" ","ALLEY":" ","HOUSE_NO":"４２號","E_COORD97":169498.09,"N_COORD97":2542041.1000000001,"ADDRESS":"立德十路４２號","OBJECTID":469903},"geometry":{"x":169498.09000000078,"y":2542041.1000000015}},{"attributes":{"ID":469929,"DIS_CODE":0,"TOWNNAME":"東區","LI":"大德里","LIN":"5鄰","STREET":"立德十路","SECT":" ","MAREA":" ","LANE":" ","ALLEY":" ","HOUSE_NO":"４０號","E_COORD97":169494.45999999999,"N_COORD97":2542038.75,"ADDRESS":"立德十路４０號","OBJECTID":469904},"geometry":{"x":169494.45999999996,"y":2542038.75}},{"attributes":{"ID":469930,"DIS_CODE":0,"TOWNNAME":"東區","LI":"大德里","LIN":"5鄰","STREET":"立德十路","SECT":" ","MAREA":" ","LANE":" ","ALLEY":" ","HOUSE_NO":"３８號","E_COORD97":169489.01999999999,"N_COORD97":2542038.75,"ADDRESS":"立德十路３８號","OBJECTID":469905},"geometry":{"x":169489.01999999955,"y":2542038.75}},{"attributes":{"ID":469931,"DIS_CODE":0,"TOWNNAME":"東區","LI":"大德里","LIN":"5鄰","STREET":"立德十路","SECT":" ","MAREA":" ","LANE":" ","ALLEY":" ","HOUSE_NO":"３６號","E_COORD97":169485.38,"N_COORD97":2542038.4700000002,"ADDRESS":"立德十路３６號","OBJECTID":469906},"geometry":{"x":169485.38000000175,"y":2542038.4700000044}},{"attributes":{"ID":469932,"DIS_CODE":0,"TOWNNAME":"東區","LI":"大德里","LIN":"5鄰","STREET":"立德十路","SECT":" ","MAREA":" ","LANE":" ","ALLEY":" ","HOUSE_NO":"３２號","E_COORD97":169476.09,"N_COORD97":2542035.4700000002,"ADDRESS":"立德十路３２號","OBJECTID":469907},"geometry":{"x":169476.09000000078,"y":2542035.4700000025}},{"attributes":{"ID":469933,"DIS_CODE":0,"TOWNNAME":"東區","LI":"大德里","LIN":"5鄰","STREET":"立德十路","SECT":" ","MAREA":" ","LANE":" ","ALLEY":" ","HOUSE_NO":"２４號","E_COORD97":169458.13,"N_COORD97":2542033.7200000002,"ADDRESS":"立德十路２４號","OBJECTID":469908},"geometry":{"x":169458.12999999989,"y":2542033.7200000025}},{"attributes":{"ID":469934,"DIS_CODE":0,"TOWNNAME":"東區","LI":"大德里","LIN":"5鄰","STREET":"立德十路","SECT":" ","MAREA":" ","LANE":" ","ALLEY":" ","HOUSE_NO":"２２號","E_COORD97":169453.37,"N_COORD97":2542033.23,"ADDRESS":"立德十路２２號","OBJECTID":469909},"geometry":{"x":169453.36999999918,"y":2542033.2300000042}},{"attributes":{"ID":469935,"DIS_CODE":0,"TOWNNAME":"東區","LI":"大德里","LIN":"5鄰","STREET":"立德十路","SECT":" ","MAREA":" ","LANE":" ","ALLEY":" ","HOUSE_NO":"１６號","E_COORD97":169444.45999999999,"N_COORD97":2542030.5800000001,"ADDRESS":"立德十路１６號","OBJECTID":469910},"geometry":{"x":169444.46000000089,"y":2542030.5800000019}},{"attributes":{"ID":469936,"DIS_CODE":0,"TOWNNAME":"東區","LI":"大德里","LIN":"5鄰","STREET":"立德十路","SECT":" ","MAREA":" ","LANE":" ","ALLEY":" ","HOUSE_NO":"１４號","E_COORD97":169440.32999999999,"N_COORD97":2542029.8100000001,"ADDRESS":"立德十路１４號","OBJECTID":469911},"geometry":{"x":169440.33000000101,"y":2542029.8100000024}},{"attributes":{"ID":469937,"DIS_CODE":0,"TOWNNAME":"東區","LI":"大德里","LIN":"5鄰","STREET":"立德十路","SECT":" ","MAREA":" ","LANE":" ","ALLEY":" ","HOUSE_NO":"１８號","E_COORD97":169435.57999999999,"N_COORD97":2542029.1800000002,"ADDRESS":"立德十路１８號","OBJECTID":469912},"geometry":{"x":169435.58000000101,"y":2542029.1800000034}},{"attributes":{"ID":469938,"DIS_CODE":0,"TOWNNAME":"東區","LI":"大德里","LIN":"5鄰","STREET":"立德十路","SECT":" ","MAREA":" ","LANE":" ","ALLEY":" ","HOUSE_NO":"１０號","E_COORD97":169428.51999999999,"N_COORD97":2542027.2999999998,"ADDRESS":"立德十路１０號","OBJECTID":469913},"geometry":{"x":169428.52000000048,"y":2542027.3000000026}},{"attributes":{"ID":469939,"DIS_CODE":0,"TOWNNAME":"東區","LI":"大德里","LIN":"5鄰","STREET":"立德十路","SECT":" ","MAREA":" ","LANE":" ","ALLEY":" ","HOUSE_NO":"８號","E_COORD97":169425.03,"N_COORD97":2542026.7400000002,"ADDRESS":"立德十路８號","OBJECTID":469914},"geometry":{"x":169425.03000000026,"y":2542026.7400000021}},{"attributes":{"ID":469940,"DIS_CODE":0,"TOWNNAME":"東區","LI":"大德里","LIN":"5鄰","STREET":"立德十路","SECT":" ","MAREA":" ","LANE":" ","ALLEY":" ","HOUSE_NO":"６號","E_COORD97":169420.89999999999,"N_COORD97":2542025.8300000001,"ADDRESS":"立德十路６號","OBJECTID":469915},"geometry":{"x":169420.90000000037,"y":2542025.8300000019}},{"attributes":{"ID":469941,"DIS_CODE":0,"TOWNNAME":"東區","LI":"大德里","LIN":"5鄰","STREET":"立德十路","SECT":" ","MAREA":" ","LANE":" ","ALLEY":" ","HOUSE_NO":"４號","E_COORD97":169416.64000000001,"N_COORD97":2542025.7599999998,"ADDRESS":"立德十路４號","OBJECTID":469916},"geometry":{"x":169416.63999999966,"y":2542025.7600000016}},{"attributes":{"ID":469942,"DIS_CODE":0,"TOWNNAME":"東區","LI":"大德里","LIN":"5鄰","STREET":"立德十路","SECT":" ","MAREA":" ","LANE":" ","ALLEY":" ","HOUSE_NO":"２號","E_COORD97":169412.57999999999,"N_COORD97":2542025.2000000002,"ADDRESS":"立德十路２號","OBJECTID":469917},"geometry":{"x":169412.58000000007,"y":2542025.200000003}},{"attributes":{"ID":469943,"DIS_CODE":0,"TOWNNAME":"東區","LI":"大德里","LIN":"5鄰","STREET":"立德十路","SECT":" ","MAREA":" ","LANE":" ","ALLEY":" ","HOUSE_NO":"６８號","E_COORD97":169556.17000000001,"N_COORD97":2542046.4100000001,"ADDRESS":"立德十路６８號","OBJECTID":469918},"geometry":{"x":169556.16999999993,"y":2542046.410000002}},{"attributes":{"ID":469944,"DIS_CODE":0,"TOWNNAME":"東區","LI":"大德里","LIN":"5鄰","STREET":"立德十路","SECT":" ","MAREA":" ","LANE":" ","ALLEY":" ","HOUSE_NO":"７０號","E_COORD97":169560.14999999999,"N_COORD97":2542047.5299999998,"ADDRESS":"立德十路７０號","OBJECTID":469919},"geometry":{"x":169560.15000000037,"y":2542047.5300000012}},{"attributes":{"ID":469945,"DIS_CODE":0,"TOWNNAME":"東區","LI":"大德里","LIN":"5鄰","STREET":"立德十路","SECT":" ","MAREA":" ","LANE":" ","ALLEY":" ","HOUSE_NO":"７２號","E_COORD97":169566.01000000001,"N_COORD97":2542047.98,"ADDRESS":"立德十路７２號","OBJECTID":469920},"geometry":{"x":169566.01000000071,"y":2542047.9800000004}},{"attributes":{"ID":469946,"DIS_CODE":0,"TOWNNAME":"東區","LI":"大德里","LIN":"5鄰","STREET":"立德十路","SECT":" ","MAREA":" ","LANE":" ","ALLEY":" ","HOUSE_NO":"７４號","E_COORD97":169571.35000000001,"N_COORD97":2542049.5600000001,"ADDRESS":"立德十路７４號","OBJECTID":469921},"geometry":{"x":169571.34999999963,"y":2542049.5600000005}},{"attributes":{"ID":469947,"DIS_CODE":0,"TOWNNAME":"東區","LI":"大德里","LIN":"5鄰","STREET":"立德十路","SECT":" ","MAREA":" ","LANE":" ","ALLEY":" ","HOUSE_NO":"５４號","E_COORD97":169524.70999999999,"N_COORD97":2542045,"ADDRESS":"立德十路５４號","OBJECTID":469922},"geometry":{"x":169524.71000000089,"y":2542045.0000000019}},{"attributes":{"ID":469948,"DIS_CODE":0,"TOWNNAME":"東區","LI":"大德里","LIN":"5鄰","STREET":"立德十路","SECT":" ","MAREA":" ","LANE":" ","ALLEY":" ","HOUSE_NO":"５６號","E_COORD97":169528.54999999999,"N_COORD97":2542045.52,"ADDRESS":"立德十路５６號","OBJECTID":469923},"geometry":{"x":169528.55000000075,"y":2542045.5199999996}},{"attributes":{"ID":469949,"DIS_CODE":0,"TOWNNAME":"東區","LI":"小東里","LIN":"5鄰","STREET":"小東路","SECT":" ","MAREA":" ","LANE":" ","ALLEY":" ","HOUSE_NO":"２２６號","E_COORD97":170898.31,"N_COORD97":2544438.1000000001,"ADDRESS":"小東路２２６號","OBJECTID":469924},"geometry":{"x":170898.31000000052,"y":2544438.1000000015}},{"attributes":{"ID":469950,"DIS_CODE":0,"TOWNNAME":"東區","LI":"小東里","LIN":"5鄰","STREET":"小東路","SECT":" ","MAREA":" ","LANE":" ","ALLEY":" ","HOUSE_NO":"２２８號","E_COORD97":170901.45999999999,"N_COORD97":2544436.8900000001,"ADDRESS":"小東路２２８號","OBJECTID":469925},"geometry":{"x":170901.45999999996,"y":2544436.8900000025}},{"attributes":{"ID":469951,"DIS_CODE":0,"TOWNNAME":"東區","LI":"小東里","LIN":"5鄰","STREET":"小東路","SECT":" ","MAREA":" ","LANE":" ","ALLEY":" ","HOUSE_NO":"２３０號","E_COORD97":170905.37,"N_COORD97":2544435.54,"ADDRESS":"小東路２３０號","OBJECTID":469926},"geometry":{"x":170905.37000000104,"y":2544435.5399999991}},{"attributes":{"ID":469952,"DIS_CODE":0,"TOWNNAME":"東區","LI":"小東里","LIN":"5鄰","STREET":"小東路","SECT":" ","MAREA":" ","LANE":" ","ALLEY":" ","HOUSE_NO":"２４０號","E_COORD97":170923.70999999999,"N_COORD97":2544429.0899999999,"ADDRESS":"小東路２４０號","OBJECTID":469927},"geometry":{"x":170923.70999999996,"y":2544429.0899999999}},{"attributes":{"ID":469953,"DIS_CODE":0,"TOWNNAME":"東區","LI":"富裕里","LIN":"5鄰","STREET":"裕農路","SECT":" ","MAREA":" ","LANE":" ","ALLEY":" ","HOUSE_NO":"９６號","E_COORD97":170712.60999999999,"N_COORD97":2542901.4300000002,"ADDRESS":"裕農路９６號","OBJECTID":469928},"geometry":{"x":170712.61000000034,"y":2542901.4299999997}},{"attributes":{"ID":469954,"DIS_CODE":0,"TOWNNAME":"東區","LI":"崇德里","LIN":"5鄰","STREET":"中華東路","SECT":"三段","MAREA":" ","LANE":" ","ALLEY":" ","HOUSE_NO":"１７１號","E_COORD97":170652.85999999999,"N_COORD97":2541955.73,"ADDRESS":"中華東路三段１７１號","OBJECTID":469929},"geometry":{"x":170652.86000000127,"y":2541955.7300000023}},{"attributes":{"ID":469955,"DIS_CODE":0,"TOWNNAME":"東區","LI":"莊敬里","LIN":"5鄰","STREET":"小東路","SECT":" ","MAREA":" ","LANE":" ","ALLEY":" ","HOUSE_NO":"２６２號","E_COORD97":171165.41,"N_COORD97":2544345.77,"ADDRESS":"小東路２６２號","OBJECTID":469930},"geometry":{"x":171165.41000000201,"y":2544345.7699999996}},{"attributes":{"ID":469956,"DIS_CODE":0,"TOWNNAME":"東區","LI":"莊敬里","LIN":"5鄰","STREET":"小東路","SECT":" ","MAREA":" ","LANE":" ","ALLEY":" ","HOUSE_NO":"２６４號","E_COORD97":171169.54999999999,"N_COORD97":2544343.9300000002,"ADDRESS":"小東路２６４號","OBJECTID":469931},"geometry":{"x":171169.55000000075,"y":2544343.9300000016}},{"attributes":{"ID":469957,"DIS_CODE":0,"TOWNNAME":"東區","LI":"莊敬里","LIN":"5鄰","STREET":"小東路","SECT":" ","MAREA":" ","LANE":" ","ALLEY":" ","HOUSE_NO":"２７０號","E_COORD97":171179.51999999999,"N_COORD97":2544341.3599999999,"ADDRESS":"小東路２７０號","OBJECTID":469932},"geometry":{"x":171179.52000000048,"y":2544341.3600000013}},{"attributes":{"ID":469958,"DIS_CODE":0,"TOWNNAME":"東區","LI":"莊敬里","LIN":"5鄰","STREET":"小東路","SECT":" ","MAREA":" ","LANE":" ","ALLEY":" ","HOUSE_NO":"２７２號","E_COORD97":171185.45000000001,"N_COORD97":2544340.5,"ADDRESS":"小東路２７２號","OBJECTID":469933},"geometry":{"x":171185.45000000205,"y":2544340.5000000019}},{"attributes":{"ID":469959,"DIS_CODE":0,"TOWNNAME":"東區","LI":"莊敬里","LIN":"5鄰","STREET":"小東路","SECT":" ","MAREA":" ","LANE":" ","ALLEY":" ","HOUSE_NO":"２７４號","E_COORD97":171188.79999999999,"N_COORD97":2544338.9500000002,"ADDRESS":"小東路２７４號","OBJECTID":469934},"geometry":{"x":171188.79999999981,"y":2544338.9499999974}},{"attributes":{"ID":469960,"DIS_CODE":0,"TOWNNAME":"東區","LI":"莊敬里","LIN":"5鄰","STREET":"小東路","SECT":" ","MAREA":" ","LANE":" ","ALLEY":" ","HOUSE_NO":"２７６號","E_COORD97":171192.76000000001,"N_COORD97":2544337.6600000001,"ADDRESS":"小東路２７６號","OBJECTID":469935},"geometry":{"x":171192.75999999978,"y":2544337.6600000001}},{"attributes":{"ID":469961,"DIS_CODE":0,"TOWNNAME":"東區","LI":"莊敬里","LIN":"5鄰","STREET":"小東路","SECT":" ","MAREA":" ","LANE":" ","ALLEY":" ","HOUSE_NO":"２７８號","E_COORD97":171196.20000000001,"N_COORD97":2544335.9399999999,"ADDRESS":"小東路２７８號","OBJECTID":469936},"geometry":{"x":171196.20000000112,"y":2544335.9400000032}},{"attributes":{"ID":469962,"DIS_CODE":0,"TOWNNAME":"東區","LI":"莊敬里","LIN":"5鄰","STREET":"小東路","SECT":" ","MAREA":" ","LANE":" ","ALLEY":" ","HOUSE_NO":"２８０號","E_COORD97":171200.14999999999,"N_COORD97":2544335.0600000001,"ADDRESS":"小東路２８０號","OBJECTID":469937},"geometry":{"x":171200.1500000013,"y":2544335.0600000005}},{"attributes":{"ID":469963,"DIS_CODE":0,"TOWNNAME":"東區","LI":"莊敬里","LIN":"5鄰","STREET":"小東路","SECT":" ","MAREA":" ","LANE":" ","ALLEY":" ","HOUSE_NO":"２８２號","E_COORD97":171204.39000000001,"N_COORD97":2544333.54,"ADDRESS":"小東路２８２號","OBJECTID":469938},"geometry":{"x":171204.3900000006,"y":2544333.5399999991}},{"attributes":{"ID":469964,"DIS_CODE":0,"TOWNNAME":"東區","LI":"莊敬里","LIN":"5鄰","STREET":"東光路","SECT":"二段","MAREA":" ","LANE":" ","ALLEY":" ","HOUSE_NO":"１２３號","E_COORD97":171222.56,"N_COORD97":2544260.2999999998,"ADDRESS":"東光路二段１２３號","OBJECTID":469939},"geometry":{"x":171222.55999999959,"y":2544260.3000000045}},{"attributes":{"ID":469965,"DIS_CODE":0,"TOWNNAME":"東區","LI":"莊敬里","LIN":"5鄰","STREET":"東光路","SECT":"二段","MAREA":" ","LANE":" ","ALLEY":" ","HOUSE_NO":"１２５號","E_COORD97":171222.79999999999,"N_COORD97":2544264.6099999999,"ADDRESS":"東光路二段１２５號","OBJECTID":469940},"geometry":{"x":171222.79999999981,"y":2544264.6100000013}},{"attributes":{"ID":469966,"DIS_CODE":0,"TOWNNAME":"東區","LI":"莊敬里","LIN":"5鄰","STREET":"東光路","SECT":"二段","MAREA":" ","LANE":" ","ALLEY":" ","HOUSE_NO":"１２７號","E_COORD97":171223.06,"N_COORD97":2544269.0800000001,"ADDRESS":"東光路二段１２７號","OBJECTID":469941},"geometry":{"x":171223.06000000145,"y":2544269.0800000019}},{"attributes":{"ID":469967,"DIS_CODE":0,"TOWNNAME":"東區","LI":"莊敬里","LIN":"5鄰","STREET":"東光路","SECT":"二段","MAREA":" ","LANE":" ","ALLEY":" ","HOUSE_NO":"１２９號","E_COORD97":171223.57000000001,"N_COORD97":2544273.1200000001,"ADDRESS":"東光路二段１２９號","OBJECTID":469942},"geometry":{"x":171223.5700000003,"y":2544273.1200000029}},{"attributes":{"ID":469968,"DIS_CODE":0,"TOWNNAME":"東區","LI":"莊敬里","LIN":"5鄰","STREET":"東光路","SECT":"二段","MAREA":" ","LANE":" ","ALLEY":" ","HOUSE_NO":"１３１號","E_COORD97":171223.82999999999,"N_COORD97":2544276.1299999999,"ADDRESS":"東光路二段１３１號","OBJECTID":469943},"geometry":{"x":171223.83000000101,"y":2544276.129999999}},{"attributes":{"ID":469969,"DIS_CODE":0,"TOWNNAME":"東區","LI":"莊敬里","LIN":"5鄰","STREET":"東光路","SECT":"二段","MAREA":" ","LANE":" ","ALLEY":" ","HOUSE_NO":"１３３號","E_COORD97":171224.60999999999,"N_COORD97":2544281.04,"ADDRESS":"東光路二段１３３號","OBJECTID":469944},"geometry":{"x":171224.61000000034,"y":2544281.040000001}},{"attributes":{"ID":469970,"DIS_CODE":0,"TOWNNAME":"東區","LI":"莊敬里","LIN":"5鄰","STREET":"東光路","SECT":"二段","MAREA":" ","LANE":" ","ALLEY":" ","HOUSE_NO":"１３５號","E_COORD97":171224.42999999999,"N_COORD97":2544285.0699999998,"ADDRESS":"東光路二段１３５號","OBJECTID":469945},"geometry":{"x":171224.43000000063,"y":2544285.070000004}},{"attributes":{"ID":469971,"DIS_CODE":0,"TOWNNAME":"東區","LI":"莊敬里","LIN":"5鄰","STREET":"東光路","SECT":"二段","MAREA":" ","LANE":" ","ALLEY":" ","HOUSE_NO":"１３７號","E_COORD97":171224.95000000001,"N_COORD97":2544289.46,"ADDRESS":"東光路二段１３７號","OBJECTID":469946},"geometry":{"x":171224.95000000112,"y":2544289.4600000009}},{"attributes":{"ID":469972,"DIS_CODE":0,"TOWNNAME":"東區","LI":"莊敬里","LIN":"5鄰","STREET":"東光路","SECT":"二段","MAREA":" ","LANE":" ","ALLEY":" ","HOUSE_NO":"１３９號","E_COORD97":171225.29000000001,"N_COORD97":2544292.5499999998,"ADDRESS":"東光路二段１３９號","OBJECTID":469947},"geometry":{"x":171225.28999999911,"y":2544292.5500000045}},{"attributes":{"ID":469973,"DIS_CODE":0,"TOWNNAME":"東區","LI":"富裕里","LIN":"5鄰","STREET":"裕農路","SECT":" ","MAREA":" ","LANE":" ","ALLEY":" ","HOUSE_NO":"８０號","E_COORD97":170672.47,"N_COORD97":2542888.8199999998,"ADDRESS":"裕農路８０號","OBJECTID":469948},"geometry":{"x":170672.46999999974,"y":2542888.8200000003}},{"attributes":{"ID":469974,"DIS_CODE":0,"TOWNNAME":"東區","LI":"富裕里","LIN":"5鄰","STREET":"裕農路","SECT":" ","MAREA":" ","LANE":" ","ALLEY":" ","HOUSE_NO":"８２號","E_COORD97":170681.19,"N_COORD97":2542868.02,"ADDRESS":"裕農路８２號","OBJECTID":469949},"geometry":{"x":170681.19000000134,"y":2542868.0200000014}},{"attributes":{"ID":469975,"DIS_CODE":0,"TOWNNAME":"東區","LI":"富裕里","LIN":"5鄰","STREET":"裕農路","SECT":" ","MAREA":" ","LANE":" ","ALLEY":" ","HOUSE_NO":"８６號","E_COORD97":170683.60000000001,"N_COORD97":2542894.3799999999,"ADDRESS":"裕農路８６號","OBJECTID":469950},"geometry":{"x":170683.59999999963,"y":2542894.379999999}},{"attributes":{"ID":469976,"DIS_CODE":0,"TOWNNAME":"東區","LI":"富裕里","LIN":"5鄰","STREET":"裕農路","SECT":" ","MAREA":" ","LANE":" ","ALLEY":" ","HOUSE_NO":"１００號","E_COORD97":170726.78,"N_COORD97":2542908.1699999999,"ADDRESS":"裕農路１００號","OBJECTID":469951},"geometry":{"x":170726.78000000026,"y":2542908.1700000018}},{"attributes":{"ID":469977,"DIS_CODE":0,"TOWNNAME":"東區","LI":"富裕里","LIN":"5鄰","STREET":"裕農路","SECT":" ","MAREA":" ","LANE":" ","ALLEY":" ","HOUSE_NO":"１１６號","E_COORD97":170772.34,"N_COORD97":2542928.0299999998,"ADDRESS":"裕農路１１６號","OBJECTID":469952},"geometry":{"x":170772.34000000171,"y":2542928.0299999975}},{"attributes":{"ID":469978,"DIS_CODE":0,"TOWNNAME":"東區","LI":"富裕里","LIN":"5鄰","STREET":"裕農路","SECT":" ","MAREA":" ","LANE":" ","ALLEY":" ","HOUSE_NO":"１１８號","E_COORD97":170776.42000000001,"N_COORD97":2542928.3199999998,"ADDRESS":"裕農路１１８號","OBJECTID":469953},"geometry":{"x":170776.41999999993,"y":2542928.3200000022}},{"attributes":{"ID":469979,"DIS_CODE":0,"TOWNNAME":"東區","LI":"富裕里","LIN":"5鄰","STREET":"裕農路","SECT":" ","MAREA":" ","LANE":" ","ALLEY":" ","HOUSE_NO":"１２０號","E_COORD97":170780.10999999999,"N_COORD97":2542931.3799999999,"ADDRESS":"裕農路１２０號","OBJECTID":469954},"geometry":{"x":170780.11000000127,"y":2542931.379999999}},{"attributes":{"ID":469980,"DIS_CODE":0,"TOWNNAME":"東區","LI":"富裕里","LIN":"5鄰","STREET":"裕農路","SECT":" ","MAREA":" ","LANE":" ","ALLEY":" ","HOUSE_NO":"１２２號","E_COORD97":170784.20000000001,"N_COORD97":2542931.7799999998,"ADDRESS":"裕農路１２２號","OBJECTID":469955},"geometry":{"x":170784.20000000112,"y":2542931.7799999993}},{"attributes":{"ID":469981,"DIS_CODE":0,"TOWNNAME":"東區","LI":"富裕里","LIN":"5鄰","STREET":"裕農路","SECT":" ","MAREA":" ","LANE":" ","ALLEY":" ","HOUSE_NO":"１２４號","E_COORD97":170788.45000000001,"N_COORD97":2542933.7599999998,"ADDRESS":"裕農路１２４號","OBJECTID":469956},"geometry":{"x":170788.45000000019,"y":2542933.7599999979}},{"attributes":{"ID":469982,"DIS_CODE":0,"TOWNNAME":"東區","LI":"富裕里","LIN":"5鄰","STREET":"裕農路","SECT":" ","MAREA":" ","LANE":" ","ALLEY":" ","HOUSE_NO":"１２６號","E_COORD97":170792.14000000001,"N_COORD97":2542935.0099999998,"ADDRESS":"裕農路１２６號","OBJECTID":469957},"geometry":{"x":170792.14000000153,"y":2542935.0099999998}},{"attributes":{"ID":469983,"DIS_CODE":0,"TOWNNAME":"新市區","LI":"港墘里","LIN":"5鄰","STREET":"民族路","SECT":" ","MAREA":" ","LANE":" ","ALLEY":" ","HOUSE_NO":"１２３號","E_COORD97":178286.73000000001,"N_COORD97":2553580.29,"ADDRESS":"民族路１２３號","OBJECTID":469958},"geometry":{"x":178286.73000000231,"y":2553580.290000001}},{"attributes":{"ID":469984,"DIS_CODE":0,"TOWNNAME":"新市區","LI":"港墘里","LIN":"5鄰","STREET":"民族路","SECT":" ","MAREA":" ","LANE":" ","ALLEY":" ","HOUSE_NO":"１０３號","E_COORD97":178318.48999999999,"N_COORD97":2553612.79,"ADDRESS":"民族路１０３號","OBJECTID":469959},"geometry":{"x":178318.49000000022,"y":2553612.7900000028}},{"attributes":{"ID":469985,"DIS_CODE":0,"TOWNNAME":"新市區","LI":"永就里","LIN":"5鄰","STREET":"中華路","SECT":" ","MAREA":" ","LANE":" ","ALLEY":" ","HOUSE_NO":"１２３號","E_COORD97":177918.79000000001,"N_COORD97":2551176,"ADDRESS":"中華路１２３號","OBJECTID":469960},"geometry":{"x":177918.79000000097,"y":2551176.0000000019}},{"attributes":{"ID":469986,"DIS_CODE":0,"TOWNNAME":"新市區","LI":"永就里","LIN":"5鄰","STREET":"中華路","SECT":" ","MAREA":" ","LANE":" ","ALLEY":" ","HOUSE_NO":"１１１之１號","E_COORD97":177872.98999999999,"N_COORD97":2551376.0499999998,"ADDRESS":"中華路１１１之１號","OBJECTID":469961},"geometry":{"x":177872.99000000115,"y":2551376.0500000026}},{"attributes":{"ID":469987,"DIS_CODE":0,"TOWNNAME":"新市區","LI":"新市里","LIN":"5鄰","STREET":"仁愛街","SECT":" ","MAREA":" ","LANE":" ","ALLEY":" ","HOUSE_NO":"２７７號","E_COORD97":177636.48000000001,"N_COORD97":2552999.5299999998,"ADDRESS":"仁愛街２７７號","OBJECTID":469962},"geometry":{"x":177636.48000000138,"y":2552999.5299999993}},{"attributes":{"ID":469988,"DIS_CODE":0,"TOWNNAME":"新市區","LI":"新市里","LIN":"5鄰","STREET":"仁愛街","SECT":" ","MAREA":" ","LANE":" ","ALLEY":" ","HOUSE_NO":"２８１號","E_COORD97":177638.28,"N_COORD97":2553008.2799999998,"ADDRESS":"仁愛街２８１號","OBJECTID":469963},"geometry":{"x":177638.28000000026,"y":2553008.2799999993}},{"attributes":{"ID":469989,"DIS_CODE":0,"TOWNNAME":"新市區","LI":"新市里","LIN":"5鄰","STREET":"仁愛街","SECT":" ","MAREA":" ","LANE":" ","ALLEY":" ","HOUSE_NO":"３０９號","E_COORD97":177650.53,"N_COORD97":2553066.5299999998,"ADDRESS":"仁愛街３０９號","OBJECTID":469964},"geometry":{"x":177650.53000000212,"y":2553066.5300000012}},{"attributes":{"ID":469990,"DIS_CODE":0,"TOWNNAME":"新市區","LI":"新市里","LIN":"5鄰","STREET":"華興街","SECT":" ","MAREA":" ","LANE":" ","ALLEY":" ","HOUSE_NO":"６８號","E_COORD97":177610.62,"N_COORD97":2552987.75,"ADDRESS":"華興街６８號","OBJECTID":469965},"geometry":{"x":177610.61999999918,"y":2552987.7500000019}},{"attributes":{"ID":469991,"DIS_CODE":0,"TOWNNAME":"新市區","LI":"新市里","LIN":"5鄰","STREET":"仁愛街","SECT":" ","MAREA":" ","LANE":" ","ALLEY":" ","HOUSE_NO":"２９１號","E_COORD97":177642.57999999999,"N_COORD97":2553028.7799999998,"ADDRESS":"仁愛街２９１號","OBJECTID":469966},"geometry":{"x":177642.58000000007,"y":2553028.7799999993}},{"attributes":{"ID":469992,"DIS_CODE":0,"TOWNNAME":"新市區","LI":"新市里","LIN":"5鄰","STREET":"仁愛街","SECT":" ","MAREA":" ","LANE":" ","ALLEY":" ","HOUSE_NO":"２８３號","E_COORD97":177639.12,"N_COORD97":2553012.5299999998,"ADDRESS":"仁愛街２８３號","OBJECTID":469967},"geometry":{"x":177639.12000000011,"y":2553012.5300000012}},{"attributes":{"ID":469993,"DIS_CODE":0,"TOWNNAME":"新市區","LI":"新市里","LIN":"5鄰","STREET":"仁愛街","SECT":" ","MAREA":" ","LANE":" ","ALLEY":" ","HOUSE_NO":"３１９號","E_COORD97":177655.57999999999,"N_COORD97":2553088.7799999998,"ADDRESS":"仁愛街３１９號","OBJECTID":469968},"geometry":{"x":177655.58000000101,"y":2553088.7800000012}},{"attributes":{"ID":469994,"DIS_CODE":0,"TOWNNAME":"新市區","LI":"新市里","LIN":"5鄰","STREET":"仁愛街","SECT":" ","MAREA":" ","LANE":" ","ALLEY":" ","HOUSE_NO":"２８５號","E_COORD97":177640.12,"N_COORD97":2553016.7799999998,"ADDRESS":"仁愛街２８５號","OBJECTID":469969},"geometry":{"x":177640.12000000104,"y":2553016.7800000012}},{"attributes":{"ID":469995,"DIS_CODE":0,"TOWNNAME":"安南區","LI":"原佃里","LIN":"5鄰","STREET":"本原街","SECT":"一段","MAREA":" ","LANE":" ","ALLEY":" ","HOUSE_NO":"１３６號","E_COORD97":167908.12,"N_COORD97":2550163.1099999999,"ADDRESS":"本原街一段１３６號","OBJECTID":469970},"geometry":{"x":167908.12000000104,"y":2550163.1100000031}},{"attributes":{"ID":469996,"DIS_CODE":0,"TOWNNAME":"安南區","LI":"原佃里","LIN":"5鄰","STREET":"本原街","SECT":"一段","MAREA":" ","LANE":" ","ALLEY":" ","HOUSE_NO":"１７０號","E_COORD97":167823.29999999999,"N_COORD97":2550176.0099999998,"ADDRESS":"本原街一段１７０號","OBJECTID":469971},"geometry":{"x":167823.30000000075,"y":2550176.0099999998}},{"attributes":{"ID":469997,"DIS_CODE":0,"TOWNNAME":"安南區","LI":"原佃里","LIN":"5鄰","STREET":"本原街","SECT":"一段","MAREA":" ","LANE":" ","ALLEY":" ","HOUSE_NO":"１７３號","E_COORD97":167802.85999999999,"N_COORD97":2550134.7999999998,"ADDRESS":"本原街一段１７３號","OBJECTID":469972},"geometry":{"x":167802.86000000127,"y":2550134.8000000007}},{"attributes":{"ID":469998,"DIS_CODE":0,"TOWNNAME":"安南區","LI":"原佃里","LIN":"5鄰","STREET":"本原街","SECT":"一段","MAREA":" ","LANE":" ","ALLEY":" ","HOUSE_NO":"１７４號","E_COORD97":167822.87,"N_COORD97":2550184.02,"ADDRESS":"本原街一段１７４號","OBJECTID":469973},"geometry":{"x":167822.87000000104,"y":2550184.0200000033}},{"attributes":{"ID":469999,"DIS_CODE":0,"TOWNNAME":"安南區","LI":"原佃里","LIN":"5鄰","STREET":"本原街","SECT":"一段","MAREA":" ","LANE":" ","ALLEY":" ","HOUSE_NO":"１７５號","E_COORD97":167801.47,"N_COORD97":2550139.71,"ADDRESS":"本原街一段１７５號","OBJECTID":469974},"geometry":{"x":167801.47000000067,"y":2550139.7100000009}},{"attributes":{"ID":470000,"DIS_CODE":0,"TOWNNAME":"安南區","LI":"原佃里","LIN":"5鄰","STREET":"本原街","SECT":"一段","MAREA":" ","LANE":" ","ALLEY":" ","HOUSE_NO":"１７７號","E_COORD97":167798.69,"N_COORD97":2550144.8300000001,"ADDRESS":"本原街一段１７７號","OBJECTID":469975},"geometry":{"x":167798.68999999948,"y":2550144.8300000001}},{"attributes":{"ID":470001,"DIS_CODE":0,"TOWNNAME":"安南區","LI":"原佃里","LIN":"5鄰","STREET":"本原街","SECT":"一段","MAREA":" ","LANE":" ","ALLEY":" ","HOUSE_NO":"１８１號","E_COORD97":167796.01999999999,"N_COORD97":2550153.27,"ADDRESS":"本原街一段１８１號","OBJECTID":469976},"geometry":{"x":167796.02000000048,"y":2550153.2700000014}},{"attributes":{"ID":470002,"DIS_CODE":0,"TOWNNAME":"安南區","LI":"原佃里","LIN":"5鄰","STREET":"本原街","SECT":"一段","MAREA":" ","LANE":" ","ALLEY":" ","HOUSE_NO":"１８３號","E_COORD97":167794.95000000001,"N_COORD97":2550157.4300000002,"ADDRESS":"本原街一段１８３號","OBJECTID":469977},"geometry":{"x":167794.95000000019,"y":2550157.4299999978}},{"attributes":{"ID":470003,"DIS_CODE":0,"TOWNNAME":"安南區","LI":"原佃里","LIN":"5鄰","STREET":"本原街","SECT":"一段","MAREA":" ","LANE":" ","ALLEY":" ","HOUSE_NO":"１８５號","E_COORD97":167793.88,"N_COORD97":2550162.2999999998,"ADDRESS":"本原街一段１８５號","OBJECTID":469978},"geometry":{"x":167793.88000000082,"y":2550162.3000000007}},{"attributes":{"ID":470004,"DIS_CODE":0,"TOWNNAME":"安南區","LI":"原佃里","LIN":"5鄰","STREET":"本原街","SECT":"一段","MAREA":" ","LANE":" ","ALLEY":" ","HOUSE_NO":"２１５號","E_COORD97":167758.32000000001,"N_COORD97":2550223.9300000002,"ADDRESS":"本原街一段２１５號","OBJECTID":469979},"geometry":{"x":167758.3200000003,"y":2550223.9299999997}},{"attributes":{"ID":470005,"DIS_CODE":0,"TOWNNAME":"安南區","LI":"原佃里","LIN":"5鄰","STREET":"本原街","SECT":"一段","MAREA":" ","LANE":" ","ALLEY":" ","HOUSE_NO":"２１９號","E_COORD97":167752.87,"N_COORD97":2550241.6299999999,"ADDRESS":"本原街一段２１９號","OBJECTID":469980},"geometry":{"x":167752.87000000011,"y":2550241.6300000008}},{"attributes":{"ID":470006,"DIS_CODE":0,"TOWNNAME":"中西區","LI":"大南里","LIN":"5鄰","STREET":"五妃街","SECT":" ","MAREA":" ","LANE":" ","ALLEY":" ","HOUSE_NO":"２５１號","E_COORD97":168237.63,"N_COORD97":2542567.4700000002,"ADDRESS":"五妃街２５１號","OBJECTID":469981},"geometry":{"x":168237.62999999896,"y":2542567.4700000044}},{"attributes":{"ID":470007,"DIS_CODE":0,"TOWNNAME":"中西區","LI":"大南里","LIN":"5鄰","STREET":"五妃街","SECT":" ","MAREA":" ","LANE":" ","ALLEY":" ","HOUSE_NO":"２５３號","E_COORD97":168234.10999999999,"N_COORD97":2542568.1699999999,"ADDRESS":"五妃街２５３號","OBJECTID":469982},"geometry":{"x":168234.11000000034,"y":2542568.1699999999}},{"attributes":{"ID":470008,"DIS_CODE":0,"TOWNNAME":"中西區","LI":"大南里","LIN":"5鄰","STREET":"五妃街","SECT":" ","MAREA":" ","LANE":" ","ALLEY":" ","HOUSE_NO":"２５５號","E_COORD97":168229.88,"N_COORD97":2542567.8199999998,"ADDRESS":"五妃街２５５號","OBJECTID":469983},"geometry":{"x":168229.88000000082,"y":2542567.820000004}},{"attributes":{"ID":470009,"DIS_CODE":0,"TOWNNAME":"中西區","LI":"大南里","LIN":"5鄰","STREET":"五妃街","SECT":" ","MAREA":" ","LANE":" ","ALLEY":" ","HOUSE_NO":"２５７號","E_COORD97":168226.01000000001,"N_COORD97":2542567.4700000002,"ADDRESS":"五妃街２５７號","OBJECTID":469984},"geometry":{"x":168226.00999999978,"y":2542567.4700000044}},{"attributes":{"ID":470010,"DIS_CODE":0,"TOWNNAME":"中西區","LI":"大南里","LIN":"5鄰","STREET":"五妃街","SECT":" ","MAREA":" ","LANE":" ","ALLEY":" ","HOUSE_NO":"２５９號","E_COORD97":168221.42999999999,"N_COORD97":2542567.4700000002,"ADDRESS":"五妃街２５９號","OBJECTID":469985},"geometry":{"x":168221.4299999997,"y":2542567.4700000044}},{"attributes":{"ID":470011,"DIS_CODE":0,"TOWNNAME":"南區","LI":"郡南里","LIN":"5鄰","STREET":"永興一街","SECT":" ","MAREA":" ","LANE":" ","ALLEY":" ","HOUSE_NO":"２號","E_COORD97":167295.01999999999,"N_COORD97":2540727.3700000001,"ADDRESS":"永興一街２號","OBJECTID":469986},"geometry":{"x":167295.01999999955,"y":2540727.3700000048}},{"attributes":{"ID":470012,"DIS_CODE":0,"TOWNNAME":"南區","LI":"郡南里","LIN":"5鄰","STREET":"永興一街","SECT":" ","MAREA":" ","LANE":" ","ALLEY":" ","HOUSE_NO":"６號","E_COORD97":167285.39999999999,"N_COORD97":2540728.2599999998,"ADDRESS":"永興一街６號","OBJECTID":469987},"geometry":{"x":167285.40000000224,"y":2540728.2600000016}},{"attributes":{"ID":470013,"DIS_CODE":0,"TOWNNAME":"安南區","LI":"海西里","LIN":"5鄰","STREET":"海環街","SECT":" ","MAREA":" ","LANE":" ","ALLEY":" ","HOUSE_NO":"３７８號","E_COORD97":166173.20999999999,"N_COORD97":2548965.6899999999,"ADDRESS":"海環街３７８號","OBJECTID":469988},"geometry":{"x":166173.21000000089,"y":2548965.6900000032}},{"attributes":{"ID":470014,"DIS_CODE":0,"TOWNNAME":"安南區","LI":"海西里","LIN":"5鄰","STREET":"海環街","SECT":" ","MAREA":" ","LANE":" ","ALLEY":" ","HOUSE_NO":"４２１號","E_COORD97":166134.45999999999,"N_COORD97":2548990.9900000002,"ADDRESS":"海環街４２１號","OBJECTID":469989},"geometry":{"x":166134.45999999996,"y":2548990.9900000002}},{"attributes":{"ID":470015,"DIS_CODE":0,"TOWNNAME":"安南區","LI":"海西里","LIN":"5鄰","STREET":"海環街","SECT":" ","MAREA":" ","LANE":" ","ALLEY":" ","HOUSE_NO":"４２５號","E_COORD97":166129.42999999999,"N_COORD97":2548997.27,"ADDRESS":"海環街４２５號","OBJECTID":469990},"geometry":{"x":166129.4299999997,"y":2548997.2700000014}},{"attributes":{"ID":470016,"DIS_CODE":0,"TOWNNAME":"安南區","LI":"海西里","LIN":"5鄰","STREET":"海環街","SECT":" ","MAREA":" ","LANE":" ","ALLEY":" ","HOUSE_NO":"４２９號","E_COORD97":166122.31,"N_COORD97":2549010.2400000002,"ADDRESS":"海環街４２９號","OBJECTID":469991},"geometry":{"x":166122.31000000145,"y":2549010.2400000039}},{"attributes":{"ID":470017,"DIS_CODE":0,"TOWNNAME":"安南區","LI":"溪心里","LIN":"5鄰","STREET":"本原街","SECT":"二段","MAREA":" ","LANE":" ","ALLEY":" ","HOUSE_NO":"９７號","E_COORD97":166832.84,"N_COORD97":2550713.5800000001,"ADDRESS":"本原街二段９７號","OBJECTID":469992},"geometry":{"x":166832.84000000078,"y":2550713.5800000019}},{"attributes":{"ID":470018,"DIS_CODE":0,"TOWNNAME":"南區","LI":"郡南里","LIN":"5鄰","STREET":"永吉街","SECT":" ","MAREA":" ","LANE":" ","ALLEY":" ","HOUSE_NO":"４５號","E_COORD97":167298.38,"N_COORD97":2540751.3900000001,"ADDRESS":"永吉街４５號","OBJECTID":469993},"geometry":{"x":167298.37999999989,"y":2540751.3900000025}},{"attributes":{"ID":470019,"DIS_CODE":0,"TOWNNAME":"安南區","LI":"海東里","LIN":"5鄰","STREET":"海佃路","SECT":"二段","MAREA":" ","LANE":" ","ALLEY":" ","HOUSE_NO":"５１７號","E_COORD97":166664.39999999999,"N_COORD97":2549246.1200000001,"ADDRESS":"海佃路二段５１７號","OBJECTID":469994},"geometry":{"x":166664.40000000037,"y":2549246.1200000029}},{"attributes":{"ID":470020,"DIS_CODE":0,"TOWNNAME":"安南區","LI":"原佃里","LIN":"5鄰","STREET":"本原街","SECT":"一段","MAREA":" ","LANE":" ","ALLEY":" ","HOUSE_NO":"１５２號","E_COORD97":167892.42000000001,"N_COORD97":2550157.1800000002,"ADDRESS":"本原街一段１５２號","OBJECTID":469995},"geometry":{"x":167892.42000000086,"y":2550157.1800000016}},{"attributes":{"ID":470021,"DIS_CODE":0,"TOWNNAME":"安南區","LI":"原佃里","LIN":"5鄰","STREET":"本原街","SECT":"一段","MAREA":" ","LANE":" ","ALLEY":" ","HOUSE_NO":"１３２號","E_COORD97":167916.76000000001,"N_COORD97":2550166.6299999999,"ADDRESS":"本原街一段１３２號","OBJECTID":469996},"geometry":{"x":167916.76000000071,"y":2550166.6300000008}},{"attributes":{"ID":470022,"DIS_CODE":0,"TOWNNAME":"安南區","LI":"溪墘里","LIN":"5鄰","STREET":"海佃路","SECT":"一段","MAREA":" ","LANE":" ","ALLEY":" ","HOUSE_NO":"２４０號之１","E_COORD97":167149.59,"N_COORD97":2547290.52,"ADDRESS":"海佃路一段２４０號之１","OBJECTID":469997},"geometry":{"x":167149.59000000171,"y":2547290.5199999996}},{"attributes":{"ID":470023,"DIS_CODE":0,"TOWNNAME":"安南區","LI":"海東里","LIN":"5鄰","STREET":"海佃路","SECT":"二段","MAREA":" ","LANE":" ","ALLEY":" ","HOUSE_NO":"５１７號之１","E_COORD97":166666.78,"N_COORD97":2549243.0499999998,"ADDRESS":"海佃路二段５１７號之１","OBJECTID":469998},"geometry":{"x":166666.78000000026,"y":2549243.0500000026}},{"attributes":{"ID":470024,"DIS_CODE":0,"TOWNNAME":"南區","LI":"郡南里","LIN":"5鄰","STREET":"永吉街","SECT":" ","MAREA":" ","LANE":" ","ALLEY":" ","HOUSE_NO":"４７號","E_COORD97":167298.04000000001,"N_COORD97":2540755.5,"ADDRESS":"永吉街４７號","OBJECTID":469999},"geometry":{"x":167298.04000000097,"y":2540755.5}},{"attributes":{"ID":470025,"DIS_CODE":0,"TOWNNAME":"南區","LI":"郡南里","LIN":"5鄰","STREET":"永吉街","SECT":" ","MAREA":" ","LANE":" ","ALLEY":" ","HOUSE_NO":"４３號之１","E_COORD97":167300.44,"N_COORD97":2540728.0899999999,"ADDRESS":"永吉街４３號之１","OBJECTID":470000},"geometry":{"x":167300.44000000227,"y":2540728.0900000036}}]}