{"displayFieldName":"TOWNNAME","fieldAliases":{"ID":"ID","DIS_CODE":"DIS_CODE","TOWNNAME":"TOWNNAME","LI":"LI","LIN":"LIN","STREET":"STREET","SECT":"SECT","MAREA":"MAREA","LANE":"LANE","ALLEY":"ALLEY","HOUSE_NO":"HOUSE_NO","E_COORD97":"E_COORD97","N_COORD97":"N_COORD97","ADDRESS":"ADDRESS","OBJECTID":"OBJECTID"},"geometryType":"esriGeometryPoint","spatialReference":{"wkid":102443,"latestWkid":3826},"fields":[{"name":"ID","type":"esriFieldTypeDouble","alias":"ID"},{"name":"DIS_CODE","type":"esriFieldTypeInteger","alias":"DIS_CODE"},{"name":"TOWNNAME","type":"esriFieldTypeString","alias":"TOWNNAME","length":8},{"name":"LI","type":"esriFieldTypeString","alias":"LI","length":8},{"name":"LIN","type":"esriFieldTypeString","alias":"LIN","length":12},{"name":"STREET","type":"esriFieldTypeString","alias":"STREET","length":20},{"name":"SECT","type":"esriFieldTypeString","alias":"SECT","length":8},{"name":"MAREA","type":"esriFieldTypeString","alias":"MAREA","length":12},{"name":"LANE","type":"esriFieldTypeString","alias":"LANE","length":10},{"name":"ALLEY","type":"esriFieldTypeString","alias":"ALLEY","length":10},{"name":"HOUSE_NO","type":"esriFieldTypeString","alias":"HOUSE_NO","length":20},{"name":"E_COORD97","type":"esriFieldTypeDouble","alias":"E_COORD97"},{"name":"N_COORD97","type":"esriFieldTypeDouble","alias":"N_COORD97"},{"name":"ADDRESS","type":"esriFieldTypeString","alias":"ADDRESS","length":50},{"name":"OBJECTID","type":"esriFieldTypeOID","alias":"OBJECTID"}],"features":[{"attributes":{"ID":67801,"DIS_CODE":0,"TOWNNAME":"南區","LI":"府南里","LIN":"6鄰","STREET":"金華路","SECT":"一段","MAREA":" ","LANE":"４８４巷","ALLEY":"９９弄","HOUSE_NO":"２號之３６","E_COORD97":167282.39999999999,"N_COORD97":2541386.5800000001,"ADDRESS":"金華路一段４８４巷９９弄２號之３６","OBJECTID":67801},"geometry":{"x":167282.4000000013,"y":2541386.5800000019}},{"attributes":{"ID":67802,"DIS_CODE":0,"TOWNNAME":"南區","LI":"府南里","LIN":"6鄰","STREET":"金華路","SECT":"一段","MAREA":" ","LANE":"４８４巷","ALLEY":"９９弄","HOUSE_NO":"２號之３７","E_COORD97":167286.89999999999,"N_COORD97":2541382.7999999998,"ADDRESS":"金華路一段４８４巷９９弄２號之３７","OBJECTID":67802},"geometry":{"x":167286.90000000037,"y":2541382.8000000026}},{"attributes":{"ID":67803,"DIS_CODE":0,"TOWNNAME":"南區","LI":"府南里","LIN":"6鄰","STREET":"金華路","SECT":"一段","MAREA":" ","LANE":"４８４巷","ALLEY":"９９弄","HOUSE_NO":"２號之３８","E_COORD97":167291.39999999999,"N_COORD97":2541378.8700000001,"ADDRESS":"金華路一段４８４巷９９弄２號之３８","OBJECTID":67803},"geometry":{"x":167291.40000000037,"y":2541378.8700000029}},{"attributes":{"ID":67804,"DIS_CODE":0,"TOWNNAME":"南區","LI":"府南里","LIN":"6鄰","STREET":"金華路","SECT":"一段","MAREA":" ","LANE":"４８４巷","ALLEY":"９９弄","HOUSE_NO":"２號之３９","E_COORD97":167295.62,"N_COORD97":2541375.0800000001,"ADDRESS":"金華路一段４８４巷９９弄２號之３９","OBJECTID":67804},"geometry":{"x":167295.62000000197,"y":2541375.0800000001}},{"attributes":{"ID":67805,"DIS_CODE":0,"TOWNNAME":"新市區","LI":"潭頂里","LIN":"7鄰","STREET":" ","SECT":" ","MAREA":"潭頂","LANE":" ","ALLEY":" ","HOUSE_NO":"２９５號","E_COORD97":180746.56,"N_COORD97":2552788.25,"ADDRESS":"潭頂２９５號","OBJECTID":67805},"geometry":{"x":180746.55999999866,"y":2552788.2500000019}},{"attributes":{"ID":67806,"DIS_CODE":0,"TOWNNAME":"新市區","LI":"永就里","LIN":"7鄰","STREET":" ","SECT":" ","MAREA":"永就","LANE":" ","ALLEY":" ","HOUSE_NO":"７６號","E_COORD97":177610.56,"N_COORD97":2551509.75,"ADDRESS":"永就７６號","OBJECTID":67806},"geometry":{"x":177610.56000000145,"y":2551509.7500000019}},{"attributes":{"ID":67807,"DIS_CODE":0,"TOWNNAME":"新市區","LI":"三舍里","LIN":"7鄰","STREET":" ","SECT":" ","MAREA":"三舍","LANE":" ","ALLEY":" ","HOUSE_NO":"１６８之１號","E_COORD97":177767.82000000001,"N_COORD97":2554445.0499999998,"ADDRESS":"三舍１６８之１號","OBJECTID":67807},"geometry":{"x":177767.82000000123,"y":2554445.0500000007}},{"attributes":{"ID":67808,"DIS_CODE":0,"TOWNNAME":"新市區","LI":"大社里","LIN":"31鄰","STREET":" ","SECT":" ","MAREA":"大社","LANE":" ","ALLEY":" ","HOUSE_NO":"７８之２８號","E_COORD97":180784.95999999999,"N_COORD97":2554179.2999999998,"ADDRESS":"大社７８之２８號","OBJECTID":67808},"geometry":{"x":180784.95999999903,"y":2554179.3000000007}},{"attributes":{"ID":67809,"DIS_CODE":0,"TOWNNAME":"新市區","LI":"大社里","LIN":"31鄰","STREET":" ","SECT":" ","MAREA":"大社","LANE":" ","ALLEY":" ","HOUSE_NO":"７８之２０號","E_COORD97":180768.01000000001,"N_COORD97":2554176.5499999998,"ADDRESS":"大社７８之２０號","OBJECTID":67809},"geometry":{"x":180768.01000000071,"y":2554176.5500000026}},{"attributes":{"ID":67810,"DIS_CODE":0,"TOWNNAME":"新市區","LI":"大社里","LIN":"31鄰","STREET":" ","SECT":" ","MAREA":"大社","LANE":" ","ALLEY":" ","HOUSE_NO":"７８之１９號","E_COORD97":180766.01000000001,"N_COORD97":2554186.5499999998,"ADDRESS":"大社７８之１９號","OBJECTID":67810},"geometry":{"x":180766.01000000164,"y":2554186.5500000026}},{"attributes":{"ID":67811,"DIS_CODE":0,"TOWNNAME":"新市區","LI":"大社里","LIN":"31鄰","STREET":" ","SECT":" ","MAREA":"大社","LANE":" ","ALLEY":" ","HOUSE_NO":"７８之７８號","E_COORD97":180861.63,"N_COORD97":2554191.0499999998,"ADDRESS":"大社７８之７８號","OBJECTID":67811},"geometry":{"x":180861.62999999989,"y":2554191.0500000007}},{"attributes":{"ID":67812,"DIS_CODE":0,"TOWNNAME":"新市區","LI":"大社里","LIN":"31鄰","STREET":" ","SECT":" ","MAREA":"大社","LANE":" ","ALLEY":" ","HOUSE_NO":"７８之６２號","E_COORD97":180830.01000000001,"N_COORD97":2554203.0499999998,"ADDRESS":"大社７８之６２號","OBJECTID":67812},"geometry":{"x":180830.00999999978,"y":2554203.0500000026}},{"attributes":{"ID":67813,"DIS_CODE":0,"TOWNNAME":"新市區","LI":"大社里","LIN":"31鄰","STREET":" ","SECT":" ","MAREA":"大社","LANE":" ","ALLEY":" ","HOUSE_NO":"７８之７０號","E_COORD97":180866.85000000001,"N_COORD97":2554164.5499999998,"ADDRESS":"大社７８之７０號","OBJECTID":67813},"geometry":{"x":180866.85000000149,"y":2554164.5500000007}},{"attributes":{"ID":67814,"DIS_CODE":0,"TOWNNAME":"新市區","LI":"大社里","LIN":"31鄰","STREET":" ","SECT":" ","MAREA":"大社","LANE":" ","ALLEY":" ","HOUSE_NO":"７８之１２號","E_COORD97":180749.51000000001,"N_COORD97":2554172.0499999998,"ADDRESS":"大社７８之１２號","OBJECTID":67814},"geometry":{"x":180749.51000000071,"y":2554172.0500000045}},{"attributes":{"ID":67815,"DIS_CODE":0,"TOWNNAME":"南區","LI":"府南里","LIN":"6鄰","STREET":"金華路","SECT":"一段","MAREA":" ","LANE":"４８４巷","ALLEY":"９９弄","HOUSE_NO":"２號之４","E_COORD97":167278.85999999999,"N_COORD97":2541418.5800000001,"ADDRESS":"金華路一段４８４巷９９弄２號之４","OBJECTID":67815},"geometry":{"x":167278.8600000022,"y":2541418.5800000001}},{"attributes":{"ID":67816,"DIS_CODE":0,"TOWNNAME":"新市區","LI":"大社里","LIN":"31鄰","STREET":" ","SECT":" ","MAREA":"大社","LANE":" ","ALLEY":" ","HOUSE_NO":"７８之５６號","E_COORD97":180854.14999999999,"N_COORD97":2554171.0499999998,"ADDRESS":"大社７８之５６號","OBJECTID":67816},"geometry":{"x":180854.1500000013,"y":2554171.0500000007}},{"attributes":{"ID":67817,"DIS_CODE":0,"TOWNNAME":"新市區","LI":"大社里","LIN":"31鄰","STREET":" ","SECT":" ","MAREA":"大社","LANE":" ","ALLEY":" ","HOUSE_NO":"７８之１０號","E_COORD97":180726.07000000001,"N_COORD97":2554130.7999999998,"ADDRESS":"大社７８之１０號","OBJECTID":67817},"geometry":{"x":180726.07000000123,"y":2554130.8000000026}},{"attributes":{"ID":67818,"DIS_CODE":0,"TOWNNAME":"新市區","LI":"大社里","LIN":"31鄰","STREET":" ","SECT":" ","MAREA":"大社","LANE":" ","ALLEY":" ","HOUSE_NO":"７８之５３號","E_COORD97":180851.14999999999,"N_COORD97":2554183.2999999998,"ADDRESS":"大社７８之５３號","OBJECTID":67818},"geometry":{"x":180851.1500000013,"y":2554183.3000000007}},{"attributes":{"ID":67819,"DIS_CODE":0,"TOWNNAME":"新市區","LI":"大社里","LIN":"31鄰","STREET":" ","SECT":" ","MAREA":"大社","LANE":" ","ALLEY":" ","HOUSE_NO":"７８之１４號","E_COORD97":180754.76000000001,"N_COORD97":2554173.2999999998,"ADDRESS":"大社７８之１４號","OBJECTID":67819},"geometry":{"x":180754.76000000071,"y":2554173.3000000007}},{"attributes":{"ID":67820,"DIS_CODE":0,"TOWNNAME":"新市區","LI":"大社里","LIN":"31鄰","STREET":" ","SECT":" ","MAREA":"大社","LANE":" ","ALLEY":" ","HOUSE_NO":"７８之２４號","E_COORD97":180776.56,"N_COORD97":2554178.2999999998,"ADDRESS":"大社７８之２４號","OBJECTID":67820},"geometry":{"x":180776.55999999959,"y":2554178.3000000026}},{"attributes":{"ID":67821,"DIS_CODE":0,"TOWNNAME":"新市區","LI":"大社里","LIN":"31鄰","STREET":" ","SECT":" ","MAREA":"大社","LANE":" ","ALLEY":" ","HOUSE_NO":"７８之４０號","E_COORD97":180811.45999999999,"N_COORD97":2554179.0499999998,"ADDRESS":"大社７８之４０號","OBJECTID":67821},"geometry":{"x":180811.45999999996,"y":2554179.0500000045}},{"attributes":{"ID":67822,"DIS_CODE":0,"TOWNNAME":"新市區","LI":"大社里","LIN":"31鄰","STREET":" ","SECT":" ","MAREA":"大社","LANE":" ","ALLEY":" ","HOUSE_NO":"７８之４５號","E_COORD97":180833.64999999999,"N_COORD97":2554179.7999999998,"ADDRESS":"大社７８之４５號","OBJECTID":67822},"geometry":{"x":180833.6500000013,"y":2554179.8000000007}},{"attributes":{"ID":67823,"DIS_CODE":0,"TOWNNAME":"新市區","LI":"大社里","LIN":"31鄰","STREET":" ","SECT":" ","MAREA":"大社","LANE":" ","ALLEY":" ","HOUSE_NO":"７８之１３號","E_COORD97":180752.35000000001,"N_COORD97":2554183.2999999998,"ADDRESS":"大社７８之１３號","OBJECTID":67823},"geometry":{"x":180752.35000000056,"y":2554183.3000000007}},{"attributes":{"ID":67824,"DIS_CODE":0,"TOWNNAME":"新市區","LI":"大社里","LIN":"31鄰","STREET":" ","SECT":" ","MAREA":"大社","LANE":" ","ALLEY":" ","HOUSE_NO":"７８之６４號","E_COORD97":180835.12,"N_COORD97":2554204.0499999998,"ADDRESS":"大社７８之６４號","OBJECTID":67824},"geometry":{"x":180835.12000000197,"y":2554204.0500000026}},{"attributes":{"ID":67825,"DIS_CODE":0,"TOWNNAME":"新市區","LI":"大社里","LIN":"31鄰","STREET":" ","SECT":" ","MAREA":"大社","LANE":" ","ALLEY":" ","HOUSE_NO":"７８之１７號","E_COORD97":180761.51000000001,"N_COORD97":2554185.5499999998,"ADDRESS":"大社７８之１７號","OBJECTID":67825},"geometry":{"x":180761.51000000071,"y":2554185.5500000045}},{"attributes":{"ID":67826,"DIS_CODE":0,"TOWNNAME":"西港區","LI":"西港里","LIN":"31鄰","STREET":" ","SECT":" ","MAREA":"堀子頭","LANE":" ","ALLEY":" ","HOUSE_NO":"９０號之１４","E_COORD97":168575.79000000001,"N_COORD97":2557452.2799999998,"ADDRESS":"堀子頭９０號之１４","OBJECTID":67826},"geometry":{"x":168575.7900000019,"y":2557452.2800000012}},{"attributes":{"ID":67827,"DIS_CODE":0,"TOWNNAME":"西港區","LI":"西港里","LIN":"31鄰","STREET":" ","SECT":" ","MAREA":"堀子頭","LANE":" ","ALLEY":" ","HOUSE_NO":"９０號之１６","E_COORD97":168582.5,"N_COORD97":2557451.3999999999,"ADDRESS":"堀子頭９０號之１６","OBJECTID":67827},"geometry":{"x":168582.5,"y":2557451.4000000041}},{"attributes":{"ID":67828,"DIS_CODE":0,"TOWNNAME":"中西區","LI":"赤嵌里","LIN":"7鄰","STREET":"慈音街","SECT":" ","MAREA":" ","LANE":" ","ALLEY":" ","HOUSE_NO":"５號","E_COORD97":168668.03,"N_COORD97":2544096.29,"ADDRESS":"慈音街５號","OBJECTID":67828},"geometry":{"x":168668.03000000119,"y":2544096.290000001}},{"attributes":{"ID":67829,"DIS_CODE":0,"TOWNNAME":"南區","LI":"府南里","LIN":"6鄰","STREET":"金華路","SECT":"一段","MAREA":" ","LANE":"４８４巷","ALLEY":"９９弄","HOUSE_NO":"２號之４０","E_COORD97":167301.62,"N_COORD97":2541371.2999999998,"ADDRESS":"金華路一段４８４巷９９弄２號之４０","OBJECTID":67829},"geometry":{"x":167301.62000000011,"y":2541371.3000000007}},{"attributes":{"ID":67830,"DIS_CODE":0,"TOWNNAME":"西港區","LI":"西港里","LIN":"31鄰","STREET":" ","SECT":" ","MAREA":"堀子頭","LANE":" ","ALLEY":" ","HOUSE_NO":"９０號之１７","E_COORD97":168582.89000000001,"N_COORD97":2557447.6299999999,"ADDRESS":"堀子頭９０號之１７","OBJECTID":67830},"geometry":{"x":168582.88999999966,"y":2557447.629999999}},{"attributes":{"ID":67831,"DIS_CODE":0,"TOWNNAME":"西港區","LI":"西港里","LIN":"31鄰","STREET":" ","SECT":" ","MAREA":"堀子頭","LANE":" ","ALLEY":" ","HOUSE_NO":"９０號之１８","E_COORD97":168583.62,"N_COORD97":2557443.29,"ADDRESS":"堀子頭９０號之１８","OBJECTID":67831},"geometry":{"x":168583.62000000011,"y":2557443.2899999991}},{"attributes":{"ID":67832,"DIS_CODE":0,"TOWNNAME":"南區","LI":"府南里","LIN":"6鄰","STREET":"金華路","SECT":"一段","MAREA":" ","LANE":"４８４巷","ALLEY":"９９弄","HOUSE_NO":"２號之４１","E_COORD97":167320.73000000001,"N_COORD97":2541355.6000000001,"ADDRESS":"金華路一段４８４巷９９弄２號之４１","OBJECTID":67832},"geometry":{"x":167320.73000000138,"y":2541355.6000000015}},{"attributes":{"ID":67833,"DIS_CODE":0,"TOWNNAME":"西港區","LI":"西港里","LIN":"31鄰","STREET":" ","SECT":" ","MAREA":"堀子頭","LANE":" ","ALLEY":" ","HOUSE_NO":"９０號之１","E_COORD97":168523.38,"N_COORD97":2557447.3999999999,"ADDRESS":"堀子頭９０號之１","OBJECTID":67833},"geometry":{"x":168523.37999999989,"y":2557447.4000000004}},{"attributes":{"ID":67834,"DIS_CODE":0,"TOWNNAME":"南區","LI":"府南里","LIN":"6鄰","STREET":"金華路","SECT":"一段","MAREA":" ","LANE":"４８４巷","ALLEY":"９９弄","HOUSE_NO":"２號之４２","E_COORD97":167325.01999999999,"N_COORD97":2541351.96,"ADDRESS":"金華路一段４８４巷９９弄２號之４２","OBJECTID":67834},"geometry":{"x":167325.02000000048,"y":2541351.9600000028}},{"attributes":{"ID":67835,"DIS_CODE":0,"TOWNNAME":"西港區","LI":"西港里","LIN":"31鄰","STREET":" ","SECT":" ","MAREA":"堀子頭","LANE":" ","ALLEY":" ","HOUSE_NO":"９０號之２","E_COORD97":168524.29000000001,"N_COORD97":2557443.8500000001,"ADDRESS":"堀子頭９０號之２","OBJECTID":67835},"geometry":{"x":168524.29000000004,"y":2557443.8499999978}},{"attributes":{"ID":67836,"DIS_CODE":0,"TOWNNAME":"南區","LI":"府南里","LIN":"6鄰","STREET":"金華路","SECT":"一段","MAREA":" ","LANE":"４８４巷","ALLEY":"９９弄","HOUSE_NO":"２號之４３","E_COORD97":167329.73999999999,"N_COORD97":2541348.3199999998,"ADDRESS":"金華路一段４８４巷９９弄２號之４３","OBJECTID":67836},"geometry":{"x":167329.74000000022,"y":2541348.3200000022}},{"attributes":{"ID":67837,"DIS_CODE":0,"TOWNNAME":"西港區","LI":"西港里","LIN":"31鄰","STREET":" ","SECT":" ","MAREA":"堀子頭","LANE":" ","ALLEY":" ","HOUSE_NO":"９０號之３","E_COORD97":168524.85999999999,"N_COORD97":2557439.2599999998,"ADDRESS":"堀子頭９０號之３","OBJECTID":67837},"geometry":{"x":168524.8600000022,"y":2557439.2600000016}},{"attributes":{"ID":67838,"DIS_CODE":0,"TOWNNAME":"南區","LI":"府南里","LIN":"6鄰","STREET":"金華路","SECT":"一段","MAREA":" ","LANE":"４８４巷","ALLEY":"９９弄","HOUSE_NO":"２號之４５","E_COORD97":167340.17999999999,"N_COORD97":2541340.5299999998,"ADDRESS":"金華路一段４８４巷９９弄２號之４５","OBJECTID":67838},"geometry":{"x":167340.1799999997,"y":2541340.5299999993}},{"attributes":{"ID":67839,"DIS_CODE":0,"TOWNNAME":"西港區","LI":"西港里","LIN":"31鄰","STREET":" ","SECT":" ","MAREA":"堀子頭","LANE":" ","ALLEY":" ","HOUSE_NO":"９０號之４","E_COORD97":168525.45999999999,"N_COORD97":2557435.0499999998,"ADDRESS":"堀子頭９０號之４","OBJECTID":67839},"geometry":{"x":168525.46000000183,"y":2557435.0500000026}},{"attributes":{"ID":67840,"DIS_CODE":0,"TOWNNAME":"西港區","LI":"西港里","LIN":"31鄰","STREET":" ","SECT":" ","MAREA":"堀子頭","LANE":" ","ALLEY":" ","HOUSE_NO":"９０號之５","E_COORD97":168540.62,"N_COORD97":2557448.1200000001,"ADDRESS":"堀子頭９０號之５","OBJECTID":67840},"geometry":{"x":168540.62000000104,"y":2557448.1200000029}},{"attributes":{"ID":67841,"DIS_CODE":0,"TOWNNAME":"西港區","LI":"西港里","LIN":"31鄰","STREET":" ","SECT":" ","MAREA":"堀子頭","LANE":" ","ALLEY":" ","HOUSE_NO":"９０號之６","E_COORD97":168544.76000000001,"N_COORD97":2557448.6400000001,"ADDRESS":"堀子頭９０號之６","OBJECTID":67841},"geometry":{"x":168544.75999999978,"y":2557448.6400000006}},{"attributes":{"ID":67842,"DIS_CODE":0,"TOWNNAME":"西港區","LI":"西港里","LIN":"31鄰","STREET":" ","SECT":" ","MAREA":"堀子頭","LANE":" ","ALLEY":" ","HOUSE_NO":"９０號之７","E_COORD97":168548.57000000001,"N_COORD97":2557449.5299999998,"ADDRESS":"堀子頭９０號之７","OBJECTID":67842},"geometry":{"x":168548.5700000003,"y":2557449.5300000012}},{"attributes":{"ID":67843,"DIS_CODE":0,"TOWNNAME":"西港區","LI":"西港里","LIN":"31鄰","STREET":" ","SECT":" ","MAREA":"堀子頭","LANE":" ","ALLEY":" ","HOUSE_NO":"９０號之８","E_COORD97":168553.01999999999,"N_COORD97":2557449.8999999999,"ADDRESS":"堀子頭９０號之８","OBJECTID":67843},"geometry":{"x":168553.01999999955,"y":2557449.9000000004}},{"attributes":{"ID":67844,"DIS_CODE":0,"TOWNNAME":"南區","LI":"府南里","LIN":"6鄰","STREET":"金華路","SECT":"一段","MAREA":" ","LANE":"４８４巷","ALLEY":"９９弄","HOUSE_NO":"２號之６","E_COORD97":167284.14000000001,"N_COORD97":2541425.6600000001,"ADDRESS":"金華路一段４８４巷９９弄２號之６","OBJECTID":67844},"geometry":{"x":167284.13999999966,"y":2541425.6600000001}},{"attributes":{"ID":67845,"DIS_CODE":0,"TOWNNAME":"南區","LI":"府南里","LIN":"6鄰","STREET":"金華路","SECT":"一段","MAREA":" ","LANE":"４８４巷","ALLEY":"９９弄","HOUSE_NO":"２號之７","E_COORD97":167286.62,"N_COORD97":2541428.96,"ADDRESS":"金華路一段４８４巷９９弄２號之７","OBJECTID":67845},"geometry":{"x":167286.62000000011,"y":2541428.9600000028}},{"attributes":{"ID":67846,"DIS_CODE":0,"TOWNNAME":"南區","LI":"府南里","LIN":"6鄰","STREET":"金華路","SECT":"一段","MAREA":" ","LANE":"４８４巷","ALLEY":"９９弄","HOUSE_NO":"２號之８","E_COORD97":167298.57999999999,"N_COORD97":2541416.1099999999,"ADDRESS":"金華路一段４８４巷９９弄２號之８","OBJECTID":67846},"geometry":{"x":167298.58000000007,"y":2541416.1100000013}},{"attributes":{"ID":67847,"DIS_CODE":0,"TOWNNAME":"仁德區","LI":"仁德里","LIN":"7鄰","STREET":"仁德三街","SECT":" ","MAREA":" ","LANE":" ","ALLEY":" ","HOUSE_NO":"３０號","E_COORD97":173256.70999999999,"N_COORD97":2540998.0099999998,"ADDRESS":"仁德三街３０號","OBJECTID":67847},"geometry":{"x":173256.71000000183,"y":2540998.0100000016}},{"attributes":{"ID":67848,"DIS_CODE":0,"TOWNNAME":"仁德區","LI":"仁德里","LIN":"7鄰","STREET":"仁德三街","SECT":" ","MAREA":" ","LANE":" ","ALLEY":" ","HOUSE_NO":"１２號","E_COORD97":173301.31,"N_COORD97":2541001.7599999998,"ADDRESS":"仁德三街１２號","OBJECTID":67848},"geometry":{"x":173301.30999999866,"y":2541001.7600000016}},{"attributes":{"ID":67849,"DIS_CODE":0,"TOWNNAME":"仁德區","LI":"仁德里","LIN":"7鄰","STREET":"仁德三街","SECT":" ","MAREA":" ","LANE":" ","ALLEY":" ","HOUSE_NO":"６２號","E_COORD97":173163.42000000001,"N_COORD97":2540978.2599999998,"ADDRESS":"仁德三街６２號","OBJECTID":67849},"geometry":{"x":173163.41999999993,"y":2540978.2600000016}},{"attributes":{"ID":67850,"DIS_CODE":0,"TOWNNAME":"仁德區","LI":"仁德里","LIN":"7鄰","STREET":"仁德三街","SECT":" ","MAREA":" ","LANE":" ","ALLEY":" ","HOUSE_NO":"５４號","E_COORD97":173179.5,"N_COORD97":2540983.75,"ADDRESS":"仁德三街５４號","OBJECTID":67850},"geometry":{"x":173179.5,"y":2540983.75}},{"attributes":{"ID":67851,"DIS_CODE":0,"TOWNNAME":"仁德區","LI":"仁義里","LIN":" ","STREET":"中正路","SECT":"二段","MAREA":" ","LANE":" ","ALLEY":" ","HOUSE_NO":"１０３２號","E_COORD97":173407.51000000001,"N_COORD97":2540865.52,"ADDRESS":"中正路二段１０３２號","OBJECTID":67851},"geometry":{"x":173407.51000000071,"y":2540865.5199999996}},{"attributes":{"ID":67852,"DIS_CODE":0,"TOWNNAME":"仁德區","LI":"仁義里","LIN":" ","STREET":"正義二街","SECT":" ","MAREA":" ","LANE":" ","ALLEY":" ","HOUSE_NO":"８８之１號","E_COORD97":173619.07000000001,"N_COORD97":2541566.7999999998,"ADDRESS":"正義二街８８之１號","OBJECTID":67852},"geometry":{"x":173619.07000000216,"y":2541566.8000000007}},{"attributes":{"ID":67853,"DIS_CODE":0,"TOWNNAME":"仁德區","LI":"仁義里","LIN":" ","STREET":"中山路","SECT":" ","MAREA":" ","LANE":" ","ALLEY":" ","HOUSE_NO":"１２６號","E_COORD97":174639.03,"N_COORD97":2541175.2400000002,"ADDRESS":"中山路１２６號","OBJECTID":67853},"geometry":{"x":174639.03000000026,"y":2541175.2400000021}},{"attributes":{"ID":67854,"DIS_CODE":0,"TOWNNAME":"南區","LI":"府南里","LIN":"6鄰","STREET":"金華路","SECT":"一段","MAREA":" ","LANE":"４８４巷","ALLEY":"９９弄","HOUSE_NO":"２號之９","E_COORD97":167304.42999999999,"N_COORD97":2541411.8199999998,"ADDRESS":"金華路一段４８４巷９９弄２號之９","OBJECTID":67854},"geometry":{"x":167304.4299999997,"y":2541411.820000004}},{"attributes":{"ID":67855,"DIS_CODE":0,"TOWNNAME":"仁德區","LI":"土庫里","LIN":" ","STREET":"中正路","SECT":"三段","MAREA":" ","LANE":" ","ALLEY":" ","HOUSE_NO":"４７２號","E_COORD97":174037.72,"N_COORD97":2542918.7799999998,"ADDRESS":"中正路三段４７２號","OBJECTID":67855},"geometry":{"x":174037.71999999974,"y":2542918.7799999993}},{"attributes":{"ID":67856,"DIS_CODE":0,"TOWNNAME":"仁德區","LI":"二行里","LIN":" ","STREET":"二行一路","SECT":" ","MAREA":" ","LANE":" ","ALLEY":" ","HOUSE_NO":"１３０號","E_COORD97":170530.79999999999,"N_COORD97":2535586.4900000002,"ADDRESS":"二行一路１３０號","OBJECTID":67856},"geometry":{"x":170530.80000000075,"y":2535586.4900000021}},{"attributes":{"ID":67857,"DIS_CODE":0,"TOWNNAME":"仁德區","LI":"一甲里","LIN":" ","STREET":"忠義二街","SECT":" ","MAREA":" ","LANE":" ","ALLEY":" ","HOUSE_NO":"１號","E_COORD97":173983.67999999999,"N_COORD97":2542050.0099999998,"ADDRESS":"忠義二街１號","OBJECTID":67857},"geometry":{"x":173983.6799999997,"y":2542050.0099999998}},{"attributes":{"ID":67858,"DIS_CODE":0,"TOWNNAME":"關廟區","LI":"東勢里","LIN":"6鄰","STREET":"旺萊路","SECT":" ","MAREA":" ","LANE":"２１５巷","ALLEY":"１５弄","HOUSE_NO":"８號","E_COORD97":181898.98999999999,"N_COORD97":2539504.25,"ADDRESS":"旺萊路２１５巷１５弄８號","OBJECTID":67858},"geometry":{"x":181898.99000000209,"y":2539504.2500000019}},{"attributes":{"ID":67859,"DIS_CODE":0,"TOWNNAME":"白河區","LI":"仙草里","LIN":"7鄰","STREET":" ","SECT":" ","MAREA":"仙草","LANE":" ","ALLEY":" ","HOUSE_NO":"８５號","E_COORD97":196999.98999999999,"N_COORD97":2582146.6200000001,"ADDRESS":"仙草８５號","OBJECTID":67859},"geometry":{"x":196999.99000000115,"y":2582146.6200000029}},{"attributes":{"ID":67860,"DIS_CODE":0,"TOWNNAME":"西港區","LI":"西港里","LIN":"31鄰","STREET":" ","SECT":" ","MAREA":"堀子頭","LANE":" ","ALLEY":" ","HOUSE_NO":"９０號之９","E_COORD97":168556.53,"N_COORD97":2557450.2799999998,"ADDRESS":"堀子頭９０號之９","OBJECTID":67860},"geometry":{"x":168556.53000000119,"y":2557450.2799999993}},{"attributes":{"ID":67861,"DIS_CODE":0,"TOWNNAME":"西港區","LI":"西港里","LIN":"31鄰","STREET":" ","SECT":" ","MAREA":"堀子頭","LANE":" ","ALLEY":" ","HOUSE_NO":"９０號","E_COORD97":168524.07000000001,"N_COORD97":2557456.71,"ADDRESS":"堀子頭９０號","OBJECTID":67861},"geometry":{"x":168524.07000000123,"y":2557456.7100000046}},{"attributes":{"ID":67862,"DIS_CODE":0,"TOWNNAME":"中西區","LI":"赤嵌里","LIN":"7鄰","STREET":"慈音街","SECT":" ","MAREA":" ","LANE":" ","ALLEY":" ","HOUSE_NO":"７號","E_COORD97":168663.07000000001,"N_COORD97":2544100.5800000001,"ADDRESS":"慈音街７號","OBJECTID":67862},"geometry":{"x":168663.07000000123,"y":2544100.5800000001}},{"attributes":{"ID":67863,"DIS_CODE":0,"TOWNNAME":"西港區","LI":"西港里","LIN":"31鄰","STREET":" ","SECT":" ","MAREA":"堀子頭","LANE":" ","ALLEY":" ","HOUSE_NO":"８３號之１０","E_COORD97":168544,"N_COORD97":2557405.8199999998,"ADDRESS":"堀子頭８３號之１０","OBJECTID":67863},"geometry":{"x":168544.00000000186,"y":2557405.8200000022}},{"attributes":{"ID":67864,"DIS_CODE":0,"TOWNNAME":"歸仁區","LI":"看東里","LIN":"6鄰","STREET":"成功路","SECT":"一段","MAREA":" ","LANE":"１８７巷","ALLEY":"１３弄","HOUSE_NO":"３０號","E_COORD97":178525.04999999999,"N_COORD97":2540085.4500000002,"ADDRESS":"成功路一段１８７巷１３弄３０號","OBJECTID":67864},"geometry":{"x":178525.05000000075,"y":2540085.4500000011}},{"attributes":{"ID":67865,"DIS_CODE":0,"TOWNNAME":"歸仁區","LI":"看東里","LIN":"6鄰","STREET":"成功路","SECT":"一段","MAREA":" ","LANE":"１８７巷","ALLEY":"１３弄","HOUSE_NO":"１７號","E_COORD97":178514.85000000001,"N_COORD97":2540101.4500000002,"ADDRESS":"成功路一段１８７巷１３弄１７號","OBJECTID":67865},"geometry":{"x":178514.84999999963,"y":2540101.4500000011}},{"attributes":{"ID":67866,"DIS_CODE":0,"TOWNNAME":"玉井區","LI":"玉井里","LIN":"6鄰","STREET":"樹糖街","SECT":" ","MAREA":" ","LANE":"２６巷","ALLEY":"１弄","HOUSE_NO":"１０號","E_COORD97":194822.98000000001,"N_COORD97":2558386.2400000002,"ADDRESS":"樹糖街２６巷１弄１０號","OBJECTID":67866},"geometry":{"x":194822.98000000045,"y":2558386.2400000002}},{"attributes":{"ID":67867,"DIS_CODE":0,"TOWNNAME":"玉井區","LI":"玉井里","LIN":"6鄰","STREET":"樹糖街","SECT":" ","MAREA":" ","LANE":"２６巷","ALLEY":"１弄","HOUSE_NO":"９號","E_COORD97":194826.84,"N_COORD97":2558396.2400000002,"ADDRESS":"樹糖街２６巷１弄９號","OBJECTID":67867},"geometry":{"x":194826.83999999985,"y":2558396.2400000021}},{"attributes":{"ID":67868,"DIS_CODE":0,"TOWNNAME":"玉井區","LI":"玉井里","LIN":"6鄰","STREET":"樹糖街","SECT":" ","MAREA":" ","LANE":"２６巷","ALLEY":"１弄","HOUSE_NO":"７號","E_COORD97":194817.44,"N_COORD97":2558396.2400000002,"ADDRESS":"樹糖街２６巷１弄７號","OBJECTID":67868},"geometry":{"x":194817.44000000134,"y":2558396.2400000021}},{"attributes":{"ID":67869,"DIS_CODE":0,"TOWNNAME":"新營區","LI":"新南里","LIN":"6鄰","STREET":"秦漢街","SECT":" ","MAREA":" ","LANE":"１２０巷","ALLEY":"３６弄","HOUSE_NO":"１９號","E_COORD97":178291.54999999999,"N_COORD97":2578971.8199999998,"ADDRESS":"秦漢街１２０巷３６弄１９號","OBJECTID":67869},"geometry":{"x":178291.54999999981,"y":2578971.8200000022}},{"attributes":{"ID":67870,"DIS_CODE":0,"TOWNNAME":"歸仁區","LI":"大廟里","LIN":"6鄰","STREET":"大廟一街","SECT":" ","MAREA":" ","LANE":"１６１巷","ALLEY":"７弄","HOUSE_NO":"２４號","E_COORD97":175733.47,"N_COORD97":2543828.25,"ADDRESS":"大廟一街１６１巷７弄２４號","OBJECTID":67870},"geometry":{"x":175733.47000000067,"y":2543828.25}},{"attributes":{"ID":67871,"DIS_CODE":0,"TOWNNAME":"歸仁區","LI":"大廟里","LIN":"6鄰","STREET":"大廟一街","SECT":" ","MAREA":" ","LANE":"１６１巷","ALLEY":"７弄","HOUSE_NO":"１８號","E_COORD97":175730.37,"N_COORD97":2543817.25,"ADDRESS":"大廟一街１６１巷７弄１８號","OBJECTID":67871},"geometry":{"x":175730.37000000011,"y":2543817.2500000019}},{"attributes":{"ID":67872,"DIS_CODE":0,"TOWNNAME":"歸仁區","LI":"大廟里","LIN":"6鄰","STREET":"大廟一街","SECT":" ","MAREA":" ","LANE":"１６１巷","ALLEY":"７弄","HOUSE_NO":"２２號","E_COORD97":175747.76999999999,"N_COORD97":2543819.25,"ADDRESS":"大廟一街１６１巷７弄２２號","OBJECTID":67872},"geometry":{"x":175747.77000000142,"y":2543819.2500000037}},{"attributes":{"ID":67873,"DIS_CODE":0,"TOWNNAME":"柳營區","LI":"大農里","LIN":"6鄰","STREET":"義士路","SECT":"一段","MAREA":" ","LANE":"２４７巷","ALLEY":"７６弄","HOUSE_NO":"１２號","E_COORD97":186246.67999999999,"N_COORD97":2575718.1699999999,"ADDRESS":"義士路一段２４７巷７６弄１２號","OBJECTID":67873},"geometry":{"x":186246.6799999997,"y":2575718.1699999999}},{"attributes":{"ID":67874,"DIS_CODE":0,"TOWNNAME":"柳營區","LI":"大農里","LIN":"6鄰","STREET":"義士路","SECT":"一段","MAREA":" ","LANE":"２４７巷","ALLEY":"７６弄","HOUSE_NO":"６號","E_COORD97":186270.76999999999,"N_COORD97":2575722.6299999999,"ADDRESS":"義士路一段２４７巷７６弄６號","OBJECTID":67874},"geometry":{"x":186270.76999999955,"y":2575722.6300000008}},{"attributes":{"ID":67875,"DIS_CODE":0,"TOWNNAME":"柳營區","LI":"大農里","LIN":"6鄰","STREET":"義士路","SECT":"一段","MAREA":" ","LANE":"２４７巷","ALLEY":"７６弄","HOUSE_NO":"８號","E_COORD97":186265.75,"N_COORD97":2575721.21,"ADDRESS":"義士路一段２４７巷７６弄８號","OBJECTID":67875},"geometry":{"x":186265.75000000093,"y":2575721.2100000028}},{"attributes":{"ID":67876,"DIS_CODE":0,"TOWNNAME":"歸仁區","LI":"七甲里","LIN":"6鄰","STREET":"七甲三街","SECT":" ","MAREA":" ","LANE":"１５巷","ALLEY":"３２弄","HOUSE_NO":"１１號","E_COORD97":177559.19,"N_COORD97":2542956.2599999998,"ADDRESS":"七甲三街１５巷３２弄１１號","OBJECTID":67876},"geometry":{"x":177559.19000000041,"y":2542956.2599999998}},{"attributes":{"ID":67877,"DIS_CODE":0,"TOWNNAME":"歸仁區","LI":"七甲里","LIN":"6鄰","STREET":"七甲三街","SECT":" ","MAREA":" ","LANE":"１５巷","ALLEY":"３２弄","HOUSE_NO":"１５號","E_COORD97":177579.69,"N_COORD97":2542960.2599999998,"ADDRESS":"七甲三街１５巷３２弄１５號","OBJECTID":67877},"geometry":{"x":177579.69000000041,"y":2542960.2599999998}},{"attributes":{"ID":67878,"DIS_CODE":0,"TOWNNAME":"仁德區","LI":"田厝里","LIN":"7鄰","STREET":"保安路","SECT":"二段","MAREA":" ","LANE":" ","ALLEY":" ","HOUSE_NO":"６０１號","E_COORD97":172711.73000000001,"N_COORD97":2537599.3100000001,"ADDRESS":"保安路二段６０１號","OBJECTID":67878},"geometry":{"x":172711.73000000138,"y":2537599.3100000024}},{"attributes":{"ID":67879,"DIS_CODE":0,"TOWNNAME":"仁德區","LI":"保安里","LIN":"7鄰","STREET":"文賢二街","SECT":" ","MAREA":" ","LANE":" ","ALLEY":" ","HOUSE_NO":"１５號","E_COORD97":171630.42000000001,"N_COORD97":2536113.5699999998,"ADDRESS":"文賢二街１５號","OBJECTID":67879},"geometry":{"x":171630.42000000086,"y":2536113.5700000003}},{"attributes":{"ID":67880,"DIS_CODE":0,"TOWNNAME":"仁德區","LI":"新田里","LIN":"7鄰","STREET":"新田一街","SECT":" ","MAREA":" ","LANE":" ","ALLEY":" ","HOUSE_NO":"２３１號","E_COORD97":174404.89000000001,"N_COORD97":2538964.25,"ADDRESS":"新田一街２３１號","OBJECTID":67880},"geometry":{"x":174404.8900000006,"y":2538964.2500000037}},{"attributes":{"ID":67881,"DIS_CODE":0,"TOWNNAME":"仁德區","LI":"後壁里","LIN":"7鄰","STREET":"德善一街","SECT":" ","MAREA":" ","LANE":" ","ALLEY":" ","HOUSE_NO":"５８號","E_COORD97":173522.95999999999,"N_COORD97":2539057.77,"ADDRESS":"德善一街５８號","OBJECTID":67881},"geometry":{"x":173522.96000000183,"y":2539057.7699999996}},{"attributes":{"ID":67882,"DIS_CODE":0,"TOWNNAME":"仁德區","LI":"新田里","LIN":"7鄰","STREET":"新田路","SECT":" ","MAREA":" ","LANE":" ","ALLEY":" ","HOUSE_NO":"３３號","E_COORD97":174470.29000000001,"N_COORD97":2538959.5,"ADDRESS":"新田路３３號","OBJECTID":67882},"geometry":{"x":174470.29000000097,"y":2538959.5000000019}},{"attributes":{"ID":67883,"DIS_CODE":0,"TOWNNAME":"歸仁區","LI":"西埔里","LIN":"6鄰","STREET":"保大路","SECT":"二段","MAREA":" ","LANE":"１２２巷","ALLEY":"２０弄","HOUSE_NO":"２２號","E_COORD97":177116.53,"N_COORD97":2544265.25,"ADDRESS":"保大路二段１２２巷２０弄２２號","OBJECTID":67883},"geometry":{"x":177116.53000000212,"y":2544265.25}},{"attributes":{"ID":67884,"DIS_CODE":0,"TOWNNAME":"歸仁區","LI":"大廟里","LIN":"6鄰","STREET":"大廟一街","SECT":" ","MAREA":" ","LANE":"１６１巷","ALLEY":"７弄","HOUSE_NO":"２０號","E_COORD97":175773.37,"N_COORD97":2543809.25,"ADDRESS":"大廟一街１６１巷７弄２０號","OBJECTID":67884},"geometry":{"x":175773.37000000104,"y":2543809.2500000019}},{"attributes":{"ID":67885,"DIS_CODE":0,"TOWNNAME":"安定區","LI":"港口里","LIN":"7鄰","STREET":" ","SECT":" ","MAREA":"港口","LANE":" ","ALLEY":" ","HOUSE_NO":"２８３號之３","E_COORD97":171442.62,"N_COORD97":2554661.2999999998,"ADDRESS":"港口２８３號之３","OBJECTID":67885},"geometry":{"x":171442.62000000104,"y":2554661.3000000007}},{"attributes":{"ID":67886,"DIS_CODE":0,"TOWNNAME":"新市區","LI":"新和里","LIN":"7鄰","STREET":"富強路","SECT":" ","MAREA":" ","LANE":"７５巷","ALLEY":" ","HOUSE_NO":"１號","E_COORD97":177236.42999999999,"N_COORD97":2552372.9900000002,"ADDRESS":"富強路７５巷１號","OBJECTID":67886},"geometry":{"x":177236.4299999997,"y":2552372.9900000021}},{"attributes":{"ID":67887,"DIS_CODE":0,"TOWNNAME":"新市區","LI":"新和里","LIN":"7鄰","STREET":"富強路","SECT":" ","MAREA":" ","LANE":" ","ALLEY":" ","HOUSE_NO":"６５號","E_COORD97":177249.42999999999,"N_COORD97":2552401,"ADDRESS":"富強路６５號","OBJECTID":67887},"geometry":{"x":177249.43000000063,"y":2552401}},{"attributes":{"ID":67888,"DIS_CODE":0,"TOWNNAME":"新市區","LI":"新和里","LIN":"7鄰","STREET":"富強路","SECT":" ","MAREA":" ","LANE":" ","ALLEY":" ","HOUSE_NO":"１００號","E_COORD97":177117.23000000001,"N_COORD97":2552336.5,"ADDRESS":"富強路１００號","OBJECTID":67888},"geometry":{"x":177117.23000000138,"y":2552336.5}},{"attributes":{"ID":67889,"DIS_CODE":0,"TOWNNAME":"新市區","LI":"豐華里","LIN":"7鄰","STREET":" ","SECT":" ","MAREA":"豐華","LANE":" ","ALLEY":" ","HOUSE_NO":"６５號","E_COORD97":175551.73000000001,"N_COORD97":2554219,"ADDRESS":"豐華６５號","OBJECTID":67889},"geometry":{"x":175551.73000000045,"y":2554219.0000000037}},{"attributes":{"ID":67890,"DIS_CODE":0,"TOWNNAME":"新市區","LI":"豐華里","LIN":"7鄰","STREET":" ","SECT":" ","MAREA":"豐華","LANE":" ","ALLEY":" ","HOUSE_NO":"６２之１號","E_COORD97":175105.67999999999,"N_COORD97":2553831.7999999998,"ADDRESS":"豐華６２之１號","OBJECTID":67890},"geometry":{"x":175105.6799999997,"y":2553831.8000000026}},{"attributes":{"ID":67891,"DIS_CODE":0,"TOWNNAME":"新市區","LI":"港墘里","LIN":"7鄰","STREET":" ","SECT":" ","MAREA":"店頂","LANE":" ","ALLEY":" ","HOUSE_NO":"１號","E_COORD97":179038.38,"N_COORD97":2553130.8199999998,"ADDRESS":"店頂１號","OBJECTID":67891},"geometry":{"x":179038.38000000082,"y":2553130.8200000003}},{"attributes":{"ID":67892,"DIS_CODE":0,"TOWNNAME":"新市區","LI":"潭頂里","LIN":"7鄰","STREET":" ","SECT":" ","MAREA":"潭頂","LANE":" ","ALLEY":" ","HOUSE_NO":"２７８之５號","E_COORD97":180722.12,"N_COORD97":2552890.5499999998,"ADDRESS":"潭頂２７８之５號","OBJECTID":67892},"geometry":{"x":180722.12000000104,"y":2552890.5500000045}},{"attributes":{"ID":67893,"DIS_CODE":0,"TOWNNAME":"新市區","LI":"潭頂里","LIN":"7鄰","STREET":" ","SECT":" ","MAREA":"潭頂","LANE":" ","ALLEY":" ","HOUSE_NO":"２７８號","E_COORD97":180741.14999999999,"N_COORD97":2552896.75,"ADDRESS":"潭頂２７８號","OBJECTID":67893},"geometry":{"x":180741.15000000037,"y":2552896.7500000019}},{"attributes":{"ID":67894,"DIS_CODE":0,"TOWNNAME":"新市區","LI":"潭頂里","LIN":"7鄰","STREET":" ","SECT":" ","MAREA":"潭頂","LANE":" ","ALLEY":" ","HOUSE_NO":"２８２號","E_COORD97":180762.28,"N_COORD97":2552843.75,"ADDRESS":"潭頂２８２號","OBJECTID":67894},"geometry":{"x":180762.28000000026,"y":2552843.75}},{"attributes":{"ID":67895,"DIS_CODE":0,"TOWNNAME":"新市區","LI":"潭頂里","LIN":"7鄰","STREET":" ","SECT":" ","MAREA":"潭頂","LANE":" ","ALLEY":" ","HOUSE_NO":"２７０號","E_COORD97":180793.57999999999,"N_COORD97":2552908,"ADDRESS":"潭頂２７０號","OBJECTID":67895},"geometry":{"x":180793.58000000101,"y":2552908.0000000019}},{"attributes":{"ID":67896,"DIS_CODE":0,"TOWNNAME":"新市區","LI":"豐華里","LIN":"7鄰","STREET":" ","SECT":" ","MAREA":"豐華","LANE":" ","ALLEY":" ","HOUSE_NO":"６３之１０號","E_COORD97":175455.88,"N_COORD97":2554137.7999999998,"ADDRESS":"豐華６３之１０號","OBJECTID":67896},"geometry":{"x":175455.88000000175,"y":2554137.8000000026}},{"attributes":{"ID":67897,"DIS_CODE":0,"TOWNNAME":"新市區","LI":"潭頂里","LIN":"7鄰","STREET":" ","SECT":" ","MAREA":"潭頂","LANE":" ","ALLEY":" ","HOUSE_NO":"２９１號","E_COORD97":180854.14000000001,"N_COORD97":2552754.25,"ADDRESS":"潭頂２９１號","OBJECTID":67897},"geometry":{"x":180854.13999999966,"y":2552754.2500000019}},{"attributes":{"ID":67898,"DIS_CODE":0,"TOWNNAME":"北區","LI":"勝安里","LIN":"6鄰","STREET":"開元路","SECT":" ","MAREA":" ","LANE":"７３巷","ALLEY":"６８弄","HOUSE_NO":"１５號","E_COORD97":169905.23000000001,"N_COORD97":2545365.5099999998,"ADDRESS":"開元路７３巷６８弄１５號","OBJECTID":67898},"geometry":{"x":169905.23000000045,"y":2545365.5099999998}},{"attributes":{"ID":67899,"DIS_CODE":0,"TOWNNAME":"北區","LI":"勝安里","LIN":"6鄰","STREET":"開元路","SECT":" ","MAREA":" ","LANE":"７３巷","ALLEY":"６８弄","HOUSE_NO":"１７號","E_COORD97":169906.17999999999,"N_COORD97":2545360.8599999999,"ADDRESS":"開元路７３巷６８弄１７號","OBJECTID":67899},"geometry":{"x":169906.1799999997,"y":2545360.8600000013}},{"attributes":{"ID":67900,"DIS_CODE":0,"TOWNNAME":"北區","LI":"勝安里","LIN":"6鄰","STREET":"開元路","SECT":" ","MAREA":" ","LANE":"７３巷","ALLEY":"６８弄","HOUSE_NO":"１９號","E_COORD97":169906.97,"N_COORD97":2545356.9199999999,"ADDRESS":"開元路７３巷６８弄１９號","OBJECTID":67900},"geometry":{"x":169906.97000000067,"y":2545356.9199999981}},{"attributes":{"ID":67901,"DIS_CODE":0,"TOWNNAME":"北區","LI":"勝安里","LIN":"6鄰","STREET":"開元路","SECT":" ","MAREA":" ","LANE":"７３巷","ALLEY":"６８弄","HOUSE_NO":"１號","E_COORD97":169898.92000000001,"N_COORD97":2545394.2000000002,"ADDRESS":"開元路７３巷６８弄１號","OBJECTID":67901},"geometry":{"x":169898.92000000179,"y":2545394.1999999993}},{"attributes":{"ID":67902,"DIS_CODE":0,"TOWNNAME":"北區","LI":"勝安里","LIN":"6鄰","STREET":"開元路","SECT":" ","MAREA":" ","LANE":"７３巷","ALLEY":"６８弄","HOUSE_NO":"２１號","E_COORD97":169908.54999999999,"N_COORD97":2545352.98,"ADDRESS":"開元路７３巷６８弄２１號","OBJECTID":67902},"geometry":{"x":169908.55000000075,"y":2545352.9800000004}},{"attributes":{"ID":67903,"DIS_CODE":0,"TOWNNAME":"北區","LI":"勝安里","LIN":"6鄰","STREET":"開元路","SECT":" ","MAREA":" ","LANE":"７３巷","ALLEY":"６８弄","HOUSE_NO":"２之１號","E_COORD97":169889.60999999999,"N_COORD97":2545388.21,"ADDRESS":"開元路７３巷６８弄２之１號","OBJECTID":67903},"geometry":{"x":169889.61000000127,"y":2545388.2100000028}},{"attributes":{"ID":67904,"DIS_CODE":0,"TOWNNAME":"北區","LI":"勝安里","LIN":"6鄰","STREET":"開元路","SECT":" ","MAREA":" ","LANE":"７３巷","ALLEY":"６８弄","HOUSE_NO":"２號","E_COORD97":169885.20000000001,"N_COORD97":2545387.2599999998,"ADDRESS":"開元路７３巷６８弄２號","OBJECTID":67904},"geometry":{"x":169885.19999999925,"y":2545387.2599999998}},{"attributes":{"ID":67905,"DIS_CODE":0,"TOWNNAME":"永康區","LI":"北灣里","LIN":"7鄰","STREET":"大灣七街","SECT":" ","MAREA":" ","LANE":" ","ALLEY":" ","HOUSE_NO":"１６號","E_COORD97":175095.20000000001,"N_COORD97":2545588.8300000001,"ADDRESS":"大灣七街１６號","OBJECTID":67905},"geometry":{"x":175095.20000000112,"y":2545588.8300000019}},{"attributes":{"ID":67906,"DIS_CODE":0,"TOWNNAME":"永康區","LI":"北灣里","LIN":"7鄰","STREET":"大灣七街","SECT":" ","MAREA":" ","LANE":" ","ALLEY":" ","HOUSE_NO":"２６號","E_COORD97":175096.13,"N_COORD97":2545611.4500000002,"ADDRESS":"大灣七街２６號","OBJECTID":67906},"geometry":{"x":175096.12999999989,"y":2545611.4500000011}},{"attributes":{"ID":67907,"DIS_CODE":0,"TOWNNAME":"北區","LI":"勝安里","LIN":"6鄰","STREET":"開元路","SECT":" ","MAREA":" ","LANE":"７３巷","ALLEY":"６８弄","HOUSE_NO":"２號之２","E_COORD97":169889.60999999999,"N_COORD97":2545380.1699999999,"ADDRESS":"開元路７３巷６８弄２號之２","OBJECTID":67907},"geometry":{"x":169889.61000000127,"y":2545380.1700000018}},{"attributes":{"ID":67908,"DIS_CODE":0,"TOWNNAME":"北區","LI":"勝安里","LIN":"6鄰","STREET":"開元路","SECT":" ","MAREA":" ","LANE":"７３巷","ALLEY":"６８弄","HOUSE_NO":"２號之３","E_COORD97":169891.03,"N_COORD97":2545374.5,"ADDRESS":"開元路７３巷６８弄２號之３","OBJECTID":67908},"geometry":{"x":169891.03000000026,"y":2545374.5000000019}},{"attributes":{"ID":67909,"DIS_CODE":0,"TOWNNAME":"新市區","LI":"豐華里","LIN":"7鄰","STREET":" ","SECT":" ","MAREA":"豐華","LANE":" ","ALLEY":" ","HOUSE_NO":"６５之７號","E_COORD97":175465.95999999999,"N_COORD97":2554234.7999999998,"ADDRESS":"豐華６５之７號","OBJECTID":67909},"geometry":{"x":175465.96000000089,"y":2554234.8000000045}},{"attributes":{"ID":67910,"DIS_CODE":0,"TOWNNAME":"新市區","LI":"潭頂里","LIN":"7鄰","STREET":" ","SECT":" ","MAREA":"潭頂","LANE":" ","ALLEY":" ","HOUSE_NO":"２７６號","E_COORD97":180770.70000000001,"N_COORD97":2552877.25,"ADDRESS":"潭頂２７６號","OBJECTID":67910},"geometry":{"x":180770.70000000112,"y":2552877.25}},{"attributes":{"ID":67911,"DIS_CODE":0,"TOWNNAME":"新市區","LI":"潭頂里","LIN":"7鄰","STREET":" ","SECT":" ","MAREA":"潭頂","LANE":" ","ALLEY":" ","HOUSE_NO":"２９４號","E_COORD97":180754.95000000001,"N_COORD97":2552788,"ADDRESS":"潭頂２９４號","OBJECTID":67911},"geometry":{"x":180754.95000000205,"y":2552788}},{"attributes":{"ID":67912,"DIS_CODE":0,"TOWNNAME":"北區","LI":"勝安里","LIN":"6鄰","STREET":"開元路","SECT":" ","MAREA":" ","LANE":"７３巷","ALLEY":"６８弄","HOUSE_NO":"３號","E_COORD97":169899.87,"N_COORD97":2545390.4100000001,"ADDRESS":"開元路７３巷６８弄３號","OBJECTID":67912},"geometry":{"x":169899.87000000104,"y":2545390.4100000001}},{"attributes":{"ID":67913,"DIS_CODE":0,"TOWNNAME":"北區","LI":"勝安里","LIN":"6鄰","STREET":"開元路","SECT":" ","MAREA":" ","LANE":"７３巷","ALLEY":"６８弄","HOUSE_NO":"４號","E_COORD97":169892.92999999999,"N_COORD97":2545368.3500000001,"ADDRESS":"開元路７３巷６８弄４號","OBJECTID":67913},"geometry":{"x":169892.9299999997,"y":2545368.3500000015}},{"attributes":{"ID":67914,"DIS_CODE":0,"TOWNNAME":"北區","LI":"勝安里","LIN":"6鄰","STREET":"開元路","SECT":" ","MAREA":" ","LANE":"７３巷","ALLEY":"６８弄","HOUSE_NO":"５號","E_COORD97":169900.34,"N_COORD97":2545387.1000000001,"ADDRESS":"開元路７３巷６８弄５號","OBJECTID":67914},"geometry":{"x":169900.33999999985,"y":2545387.1000000015}},{"attributes":{"ID":67915,"DIS_CODE":0,"TOWNNAME":"北區","LI":"勝安里","LIN":"6鄰","STREET":"開元路","SECT":" ","MAREA":" ","LANE":"７３巷","ALLEY":"６８弄","HOUSE_NO":"６號","E_COORD97":169893.23000000001,"N_COORD97":2545363.5099999998,"ADDRESS":"開元路７３巷６８弄６號","OBJECTID":67915},"geometry":{"x":169893.23000000045,"y":2545363.5100000016}},{"attributes":{"ID":67916,"DIS_CODE":0,"TOWNNAME":"北區","LI":"勝安里","LIN":"6鄰","STREET":"開元路","SECT":" ","MAREA":" ","LANE":"７３巷","ALLEY":"６８弄","HOUSE_NO":"７號","E_COORD97":169901.76000000001,"N_COORD97":2545383.6400000001,"ADDRESS":"開元路７３巷６８弄７號","OBJECTID":67916},"geometry":{"x":169901.76000000071,"y":2545383.6400000043}},{"attributes":{"ID":67917,"DIS_CODE":0,"TOWNNAME":"北區","LI":"勝安里","LIN":"6鄰","STREET":"開元路","SECT":" ","MAREA":" ","LANE":"７３巷","ALLEY":"６８弄","HOUSE_NO":"８號","E_COORD97":169894.5,"N_COORD97":2545360.6299999999,"ADDRESS":"開元路７３巷６８弄８號","OBJECTID":67917},"geometry":{"x":169894.5,"y":2545360.629999999}},{"attributes":{"ID":67918,"DIS_CODE":0,"TOWNNAME":"北區","LI":"勝安里","LIN":"6鄰","STREET":"開元路","SECT":" ","MAREA":" ","LANE":"７３巷","ALLEY":"６８弄","HOUSE_NO":"９號","E_COORD97":169902.07999999999,"N_COORD97":2545379.8500000001,"ADDRESS":"開元路７３巷６８弄９號","OBJECTID":67918},"geometry":{"x":169902.08000000101,"y":2545379.8499999996}},{"attributes":{"ID":67919,"DIS_CODE":0,"TOWNNAME":"關廟區","LI":"關廟里","LIN":"6鄰","STREET":"民生街","SECT":" ","MAREA":" ","LANE":"１６７巷","ALLEY":"２６弄","HOUSE_NO":"３號","E_COORD97":180795.44,"N_COORD97":2539951.29,"ADDRESS":"民生街１６７巷２６弄３號","OBJECTID":67919},"geometry":{"x":180795.44000000041,"y":2539951.2899999991}},{"attributes":{"ID":67920,"DIS_CODE":0,"TOWNNAME":"關廟區","LI":"關廟里","LIN":"6鄰","STREET":"民生街","SECT":" ","MAREA":" ","LANE":"１６７巷","ALLEY":"２８弄","HOUSE_NO":"５號","E_COORD97":180778.14000000001,"N_COORD97":2539962.29,"ADDRESS":"民生街１６７巷２８弄５號","OBJECTID":67920},"geometry":{"x":180778.13999999966,"y":2539962.2899999991}},{"attributes":{"ID":67921,"DIS_CODE":0,"TOWNNAME":"關廟區","LI":"北勢里","LIN":"6鄰","STREET":"中正路","SECT":" ","MAREA":" ","LANE":"７０６巷","ALLEY":"７弄","HOUSE_NO":"８號","E_COORD97":181666.26000000001,"N_COORD97":2540372.25,"ADDRESS":"中正路７０６巷７弄８號","OBJECTID":67921},"geometry":{"x":181666.26000000071,"y":2540372.2500000019}},{"attributes":{"ID":67922,"DIS_CODE":0,"TOWNNAME":"新市區","LI":"新和里","LIN":"7鄰","STREET":"富強路","SECT":" ","MAREA":" ","LANE":" ","ALLEY":" ","HOUSE_NO":"５５號","E_COORD97":177268.13,"N_COORD97":2552412,"ADDRESS":"富強路５５號","OBJECTID":67922},"geometry":{"x":177268.13000000175,"y":2552412.0000000037}},{"attributes":{"ID":67923,"DIS_CODE":0,"TOWNNAME":"新市區","LI":"新和里","LIN":"7鄰","STREET":"富強路","SECT":" ","MAREA":" ","LANE":" ","ALLEY":" ","HOUSE_NO":"９６號","E_COORD97":177192.84,"N_COORD97":2552391.1899999999,"ADDRESS":"富強路９６號","OBJECTID":67923},"geometry":{"x":177192.83999999985,"y":2552391.1900000013}},{"attributes":{"ID":67924,"DIS_CODE":0,"TOWNNAME":"關廟區","LI":"東勢里","LIN":"6鄰","STREET":"旺萊路","SECT":" ","MAREA":" ","LANE":"２１５巷","ALLEY":"３弄","HOUSE_NO":"２８號","E_COORD97":181890.59,"N_COORD97":2539453.25,"ADDRESS":"旺萊路２１５巷３弄２８號","OBJECTID":67924},"geometry":{"x":181890.58999999985,"y":2539453.2500000019}},{"attributes":{"ID":67925,"DIS_CODE":0,"TOWNNAME":"關廟區","LI":"東勢里","LIN":"6鄰","STREET":"旺萊路","SECT":" ","MAREA":" ","LANE":"２１５巷","ALLEY":"３弄","HOUSE_NO":"２號","E_COORD97":181929.64000000001,"N_COORD97":2539448.25,"ADDRESS":"旺萊路２１５巷３弄２號","OBJECTID":67925},"geometry":{"x":181929.6400000006,"y":2539448.25}},{"attributes":{"ID":67926,"DIS_CODE":0,"TOWNNAME":"關廟區","LI":"松腳里","LIN":"6鄰","STREET":"中山路","SECT":"一段","MAREA":" ","LANE":"８９巷","ALLEY":"６１弄","HOUSE_NO":"１號","E_COORD97":181929.35999999999,"N_COORD97":2539809.2799999998,"ADDRESS":"中山路一段８９巷６１弄１號","OBJECTID":67926},"geometry":{"x":181929.36000000127,"y":2539809.2799999993}},{"attributes":{"ID":67927,"DIS_CODE":0,"TOWNNAME":"關廟區","LI":"東勢里","LIN":"6鄰","STREET":"旺萊路","SECT":" ","MAREA":" ","LANE":"２１５巷","ALLEY":"３弄","HOUSE_NO":"１６號","E_COORD97":181910.19,"N_COORD97":2539449.25,"ADDRESS":"旺萊路２１５巷３弄１６號","OBJECTID":67927},"geometry":{"x":181910.19000000134,"y":2539449.2500000019}},{"attributes":{"ID":67928,"DIS_CODE":0,"TOWNNAME":"關廟區","LI":"關廟里","LIN":"6鄰","STREET":"民生街","SECT":" ","MAREA":" ","LANE":"１６７巷","ALLEY":"２２弄","HOUSE_NO":"１號","E_COORD97":180799.64000000001,"N_COORD97":2539931.29,"ADDRESS":"民生街１６７巷２２弄１號","OBJECTID":67928},"geometry":{"x":180799.63999999966,"y":2539931.2899999991}},{"attributes":{"ID":67929,"DIS_CODE":0,"TOWNNAME":"關廟區","LI":"新埔里","LIN":"6鄰","STREET":"新埔三街","SECT":" ","MAREA":" ","LANE":"２９巷","ALLEY":"１１弄","HOUSE_NO":"１１號","E_COORD97":181078.47,"N_COORD97":2540964.25,"ADDRESS":"新埔三街２９巷１１弄１１號","OBJECTID":67929},"geometry":{"x":181078.47000000067,"y":2540964.2499999981}},{"attributes":{"ID":67930,"DIS_CODE":0,"TOWNNAME":"關廟區","LI":"北勢里","LIN":"6鄰","STREET":"中正路","SECT":" ","MAREA":" ","LANE":"７３８巷","ALLEY":"１５弄","HOUSE_NO":"１０號","E_COORD97":181598.06,"N_COORD97":2540344.25,"ADDRESS":"中正路７３８巷１５弄１０號","OBJECTID":67930},"geometry":{"x":181598.06000000052,"y":2540344.2500000037}},{"attributes":{"ID":67931,"DIS_CODE":0,"TOWNNAME":"關廟區","LI":"北花里","LIN":"6鄰","STREET":"四維街","SECT":" ","MAREA":" ","LANE":"３５０巷","ALLEY":"１６弄","HOUSE_NO":"３號","E_COORD97":181934.31,"N_COORD97":2540227.25,"ADDRESS":"四維街３５０巷１６弄３號","OBJECTID":67931},"geometry":{"x":181934.30999999959,"y":2540227.25}},{"attributes":{"ID":67932,"DIS_CODE":0,"TOWNNAME":"關廟區","LI":"布袋里","LIN":"6鄰","STREET":"南雄南路","SECT":" ","MAREA":" ","LANE":"３１８巷","ALLEY":"８弄","HOUSE_NO":"２８號","E_COORD97":183363.44,"N_COORD97":2535068.25,"ADDRESS":"南雄南路３１８巷８弄２８號","OBJECTID":67932},"geometry":{"x":183363.44000000041,"y":2535068.25}},{"attributes":{"ID":67933,"DIS_CODE":0,"TOWNNAME":"西港區","LI":"西港里","LIN":"31鄰","STREET":" ","SECT":" ","MAREA":"堀子頭","LANE":" ","ALLEY":" ","HOUSE_NO":"８３號之１１","E_COORD97":168549.79999999999,"N_COORD97":2557406.48,"ADDRESS":"堀子頭８３號之１１","OBJECTID":67933},"geometry":{"x":168549.79999999981,"y":2557406.4799999986}},{"attributes":{"ID":67934,"DIS_CODE":0,"TOWNNAME":"西港區","LI":"西港里","LIN":"31鄰","STREET":" ","SECT":" ","MAREA":"堀子頭","LANE":" ","ALLEY":" ","HOUSE_NO":"８３號之１２","E_COORD97":168554.60000000001,"N_COORD97":2557407.4500000002,"ADDRESS":"堀子頭８３號之１２","OBJECTID":67934},"geometry":{"x":168554.60000000149,"y":2557407.4499999993}},{"attributes":{"ID":67935,"DIS_CODE":0,"TOWNNAME":"西港區","LI":"西港里","LIN":"31鄰","STREET":" ","SECT":" ","MAREA":"堀子頭","LANE":" ","ALLEY":" ","HOUSE_NO":"８３號之１３","E_COORD97":168561.17999999999,"N_COORD97":2557408.3300000001,"ADDRESS":"堀子頭８３號之１３","OBJECTID":67935},"geometry":{"x":168561.18000000063,"y":2557408.3300000019}},{"attributes":{"ID":67936,"DIS_CODE":0,"TOWNNAME":"西港區","LI":"西港里","LIN":"31鄰","STREET":" ","SECT":" ","MAREA":"堀子頭","LANE":" ","ALLEY":" ","HOUSE_NO":"８３號之１４","E_COORD97":168566.17000000001,"N_COORD97":2557409.1600000001,"ADDRESS":"堀子頭８３號之１４","OBJECTID":67936},"geometry":{"x":168566.16999999993,"y":2557409.160000002}},{"attributes":{"ID":67937,"DIS_CODE":0,"TOWNNAME":"中西區","LI":"協和里","LIN":"7鄰","STREET":"協和街","SECT":" ","MAREA":" ","LANE":" ","ALLEY":" ","HOUSE_NO":"９２號","E_COORD97":167139.34,"N_COORD97":2544578.8300000001,"ADDRESS":"協和街９２號","OBJECTID":67937},"geometry":{"x":167139.33999999985,"y":2544578.8300000019}},{"attributes":{"ID":67938,"DIS_CODE":0,"TOWNNAME":"西港區","LI":"西港里","LIN":"31鄰","STREET":" ","SECT":" ","MAREA":"堀子頭","LANE":" ","ALLEY":" ","HOUSE_NO":"８３號之１５","E_COORD97":168573.01000000001,"N_COORD97":2557409.8500000001,"ADDRESS":"堀子頭８３號之１５","OBJECTID":67938},"geometry":{"x":168573.01000000071,"y":2557409.8499999978}},{"attributes":{"ID":67939,"DIS_CODE":0,"TOWNNAME":"西港區","LI":"西港里","LIN":"31鄰","STREET":" ","SECT":" ","MAREA":"堀子頭","LANE":" ","ALLEY":" ","HOUSE_NO":"８３號之１６","E_COORD97":168577.85000000001,"N_COORD97":2557410.5499999998,"ADDRESS":"堀子頭８３號之１６","OBJECTID":67939},"geometry":{"x":168577.84999999963,"y":2557410.5500000026}},{"attributes":{"ID":67940,"DIS_CODE":0,"TOWNNAME":"西港區","LI":"西港里","LIN":"31鄰","STREET":" ","SECT":" ","MAREA":"堀子頭","LANE":" ","ALLEY":" ","HOUSE_NO":"８３號之１８","E_COORD97":168591.04000000001,"N_COORD97":2557410.2000000002,"ADDRESS":"堀子頭８３號之１８","OBJECTID":67940},"geometry":{"x":168591.0400000019,"y":2557410.1999999993}},{"attributes":{"ID":67941,"DIS_CODE":0,"TOWNNAME":"西港區","LI":"西港里","LIN":"31鄰","STREET":" ","SECT":" ","MAREA":"堀子頭","LANE":" ","ALLEY":" ","HOUSE_NO":"８３號之１９","E_COORD97":168590.20999999999,"N_COORD97":2557414.6499999999,"ADDRESS":"堀子頭８３號之１９","OBJECTID":67941},"geometry":{"x":168590.21000000089,"y":2557414.6500000004}},{"attributes":{"ID":67942,"DIS_CODE":0,"TOWNNAME":"西港區","LI":"西港里","LIN":"31鄰","STREET":" ","SECT":" ","MAREA":"堀子頭","LANE":" ","ALLEY":" ","HOUSE_NO":"８３號之２０","E_COORD97":168597.92999999999,"N_COORD97":2557398.6299999999,"ADDRESS":"堀子頭８３號之２０","OBJECTID":67942},"geometry":{"x":168597.9299999997,"y":2557398.6300000008}},{"attributes":{"ID":67943,"DIS_CODE":0,"TOWNNAME":"西港區","LI":"西港里","LIN":"31鄰","STREET":" ","SECT":" ","MAREA":"堀子頭","LANE":" ","ALLEY":" ","HOUSE_NO":"８３號之２１","E_COORD97":168591.76999999999,"N_COORD97":2557397.6899999999,"ADDRESS":"堀子頭８３號之２１","OBJECTID":67943},"geometry":{"x":168591.76999999955,"y":2557397.6900000032}},{"attributes":{"ID":67944,"DIS_CODE":0,"TOWNNAME":"西港區","LI":"西港里","LIN":"31鄰","STREET":" ","SECT":" ","MAREA":"堀子頭","LANE":" ","ALLEY":" ","HOUSE_NO":"８３號之２２","E_COORD97":168586.75,"N_COORD97":2557396.6099999999,"ADDRESS":"堀子頭８３號之２２","OBJECTID":67944},"geometry":{"x":168586.75000000093,"y":2557396.6099999994}},{"attributes":{"ID":67945,"DIS_CODE":0,"TOWNNAME":"西港區","LI":"西港里","LIN":"31鄰","STREET":" ","SECT":" ","MAREA":"堀子頭","LANE":" ","ALLEY":" ","HOUSE_NO":"８３號之２３","E_COORD97":168580.70000000001,"N_COORD97":2557396.04,"ADDRESS":"堀子頭８３號之２３","OBJECTID":67945},"geometry":{"x":168580.70000000112,"y":2557396.040000001}},{"attributes":{"ID":67946,"DIS_CODE":0,"TOWNNAME":"西港區","LI":"西港里","LIN":"31鄰","STREET":" ","SECT":" ","MAREA":"堀子頭","LANE":" ","ALLEY":" ","HOUSE_NO":"８３號之２４","E_COORD97":168574.64000000001,"N_COORD97":2557395.2200000002,"ADDRESS":"堀子頭８３號之２４","OBJECTID":67946},"geometry":{"x":168574.63999999873,"y":2557395.2200000044}},{"attributes":{"ID":67947,"DIS_CODE":0,"TOWNNAME":"西港區","LI":"西港里","LIN":"31鄰","STREET":" ","SECT":" ","MAREA":"堀子頭","LANE":" ","ALLEY":" ","HOUSE_NO":"８３號之２５","E_COORD97":168568.17000000001,"N_COORD97":2557394.52,"ADDRESS":"堀子頭８３號之２５","OBJECTID":67947},"geometry":{"x":168568.17000000179,"y":2557394.5199999996}},{"attributes":{"ID":67948,"DIS_CODE":0,"TOWNNAME":"西港區","LI":"西港里","LIN":"31鄰","STREET":" ","SECT":" ","MAREA":"堀子頭","LANE":" ","ALLEY":" ","HOUSE_NO":"８３號之２６","E_COORD97":168562.54000000001,"N_COORD97":2557393.7999999998,"ADDRESS":"堀子頭８３號之２６","OBJECTID":67948},"geometry":{"x":168562.54000000097,"y":2557393.8000000007}},{"attributes":{"ID":67949,"DIS_CODE":0,"TOWNNAME":"西港區","LI":"西港里","LIN":"31鄰","STREET":" ","SECT":" ","MAREA":"堀子頭","LANE":" ","ALLEY":" ","HOUSE_NO":"８３號之２７","E_COORD97":168556.10000000001,"N_COORD97":2557392.6899999999,"ADDRESS":"堀子頭８３號之２７","OBJECTID":67949},"geometry":{"x":168556.09999999963,"y":2557392.6899999995}},{"attributes":{"ID":67950,"DIS_CODE":0,"TOWNNAME":"西港區","LI":"西港里","LIN":"31鄰","STREET":" ","SECT":" ","MAREA":"堀子頭","LANE":" ","ALLEY":" ","HOUSE_NO":"８３號之２８","E_COORD97":168550.60999999999,"N_COORD97":2557391.8100000001,"ADDRESS":"堀子頭８３號之２８","OBJECTID":67950},"geometry":{"x":168550.61000000127,"y":2557391.8100000024}},{"attributes":{"ID":67951,"DIS_CODE":0,"TOWNNAME":"西港區","LI":"西港里","LIN":"31鄰","STREET":" ","SECT":" ","MAREA":"堀子頭","LANE":" ","ALLEY":" ","HOUSE_NO":"８３號之２９","E_COORD97":168544.63,"N_COORD97":2557391.25,"ADDRESS":"堀子頭８３號之２９","OBJECTID":67951},"geometry":{"x":168544.63000000175,"y":2557391.2500000019}},{"attributes":{"ID":67952,"DIS_CODE":0,"TOWNNAME":"西港區","LI":"西港里","LIN":"31鄰","STREET":" ","SECT":" ","MAREA":"堀子頭","LANE":" ","ALLEY":" ","HOUSE_NO":"８３號之３０","E_COORD97":168539.12,"N_COORD97":2557390.1600000001,"ADDRESS":"堀子頭８３號之３０","OBJECTID":67952},"geometry":{"x":168539.12000000011,"y":2557390.1600000001}},{"attributes":{"ID":67953,"DIS_CODE":0,"TOWNNAME":"西港區","LI":"西港里","LIN":"31鄰","STREET":" ","SECT":" ","MAREA":"堀子頭","LANE":" ","ALLEY":" ","HOUSE_NO":"８３號之３１","E_COORD97":168532.34,"N_COORD97":2557389.2000000002,"ADDRESS":"堀子頭８３號之３１","OBJECTID":67953},"geometry":{"x":168532.33999999985,"y":2557389.1999999993}},{"attributes":{"ID":67954,"DIS_CODE":0,"TOWNNAME":"西港區","LI":"西港里","LIN":"31鄰","STREET":" ","SECT":" ","MAREA":"堀子頭","LANE":" ","ALLEY":" ","HOUSE_NO":"８３號之５","E_COORD97":168581.82000000001,"N_COORD97":2557506.1200000001,"ADDRESS":"堀子頭８３號之５","OBJECTID":67954},"geometry":{"x":168581.82000000123,"y":2557506.1200000029}},{"attributes":{"ID":67955,"DIS_CODE":0,"TOWNNAME":"西港區","LI":"西港里","LIN":"31鄰","STREET":" ","SECT":" ","MAREA":"堀子頭","LANE":" ","ALLEY":" ","HOUSE_NO":"８３之６號","E_COORD97":168520.98000000001,"N_COORD97":2557484.2599999998,"ADDRESS":"堀子頭８３之６號","OBJECTID":67955},"geometry":{"x":168520.98000000138,"y":2557484.2599999998}},{"attributes":{"ID":67956,"DIS_CODE":0,"TOWNNAME":"西港區","LI":"西港里","LIN":"31鄰","STREET":" ","SECT":" ","MAREA":"堀子頭","LANE":" ","ALLEY":" ","HOUSE_NO":"８３號之７","E_COORD97":168521.95999999999,"N_COORD97":2557479.8900000001,"ADDRESS":"堀子頭８３號之７","OBJECTID":67956},"geometry":{"x":168521.95999999903,"y":2557479.8900000025}},{"attributes":{"ID":67957,"DIS_CODE":0,"TOWNNAME":"西港區","LI":"西港里","LIN":"31鄰","STREET":" ","SECT":" ","MAREA":"堀子頭","LANE":" ","ALLEY":" ","HOUSE_NO":"８３號之８","E_COORD97":168530.98999999999,"N_COORD97":2557403.5800000001,"ADDRESS":"堀子頭８３號之８","OBJECTID":67957},"geometry":{"x":168530.99000000115,"y":2557403.5800000019}},{"attributes":{"ID":67958,"DIS_CODE":0,"TOWNNAME":"佳里區","LI":"嘉福里","LIN":"6鄰","STREET":" ","SECT":" ","MAREA":"下營","LANE":" ","ALLEY":" ","HOUSE_NO":"１２２號","E_COORD97":163171.07999999999,"N_COORD97":2563342.7599999998,"ADDRESS":"下營１２２號","OBJECTID":67958},"geometry":{"x":163171.08000000007,"y":2563342.7599999998}},{"attributes":{"ID":67959,"DIS_CODE":0,"TOWNNAME":"佳里區","LI":"嘉福里","LIN":"6鄰","STREET":" ","SECT":" ","MAREA":"下營","LANE":" ","ALLEY":" ","HOUSE_NO":"１３２號之１","E_COORD97":163195.17000000001,"N_COORD97":2563356.0699999998,"ADDRESS":"下營１３２號之１","OBJECTID":67959},"geometry":{"x":163195.16999999993,"y":2563356.070000004}},{"attributes":{"ID":67960,"DIS_CODE":0,"TOWNNAME":"佳里區","LI":"嘉福里","LIN":"6鄰","STREET":" ","SECT":" ","MAREA":"下營","LANE":" ","ALLEY":" ","HOUSE_NO":"１３２號","E_COORD97":163211.91,"N_COORD97":2563352.9199999999,"ADDRESS":"下營１３２號","OBJECTID":67960},"geometry":{"x":163211.91000000108,"y":2563352.9199999999}},{"attributes":{"ID":67961,"DIS_CODE":0,"TOWNNAME":"佳里區","LI":"嘉福里","LIN":"6鄰","STREET":" ","SECT":" ","MAREA":"下營","LANE":" ","ALLEY":" ","HOUSE_NO":"１３３號之１","E_COORD97":163239.35000000001,"N_COORD97":2563383.6899999999,"ADDRESS":"下營１３３號之１","OBJECTID":67961},"geometry":{"x":163239.35000000056,"y":2563383.6899999995}},{"attributes":{"ID":67962,"DIS_CODE":0,"TOWNNAME":"佳里區","LI":"嘉福里","LIN":"6鄰","STREET":" ","SECT":" ","MAREA":"下營","LANE":" ","ALLEY":" ","HOUSE_NO":"１３５號","E_COORD97":163307.01999999999,"N_COORD97":2563388.2599999998,"ADDRESS":"下營１３５號","OBJECTID":67962},"geometry":{"x":163307.02000000048,"y":2563388.2600000035}},{"attributes":{"ID":67963,"DIS_CODE":0,"TOWNNAME":"麻豆區","LI":"大山里","LIN":"6鄰","STREET":" ","SECT":" ","MAREA":"大山\u25A0","LANE":" ","ALLEY":" ","HOUSE_NO":"６５號之１０","E_COORD97":170110.42999999999,"N_COORD97":2566525.96,"ADDRESS":"大山\u25A0６５號之１０","OBJECTID":67963},"geometry":{"x":170110.43000000156,"y":2566525.9600000009}},{"attributes":{"ID":67964,"DIS_CODE":0,"TOWNNAME":"佳里區","LI":"嘉福里","LIN":"6鄰","STREET":" ","SECT":" ","MAREA":"下營","LANE":" ","ALLEY":" ","HOUSE_NO":"５１號","E_COORD97":163293.85000000001,"N_COORD97":2563422.5699999998,"ADDRESS":"下營５１號","OBJECTID":67964},"geometry":{"x":163293.84999999963,"y":2563422.5700000003}},{"attributes":{"ID":67965,"DIS_CODE":0,"TOWNNAME":"佳里區","LI":"嘉福里","LIN":"6鄰","STREET":" ","SECT":" ","MAREA":"下營","LANE":" ","ALLEY":" ","HOUSE_NO":"５２號","E_COORD97":163275.29999999999,"N_COORD97":2563422.3599999999,"ADDRESS":"下營５２號","OBJECTID":67965},"geometry":{"x":163275.30000000075,"y":2563422.3600000013}},{"attributes":{"ID":67966,"DIS_CODE":0,"TOWNNAME":"佳里區","LI":"嘉福里","LIN":"6鄰","STREET":" ","SECT":" ","MAREA":"下營","LANE":" ","ALLEY":" ","HOUSE_NO":"５３號之１０","E_COORD97":163235.23000000001,"N_COORD97":2563429.04,"ADDRESS":"下營５３號之１０","OBJECTID":67966},"geometry":{"x":163235.23000000231,"y":2563429.0399999991}},{"attributes":{"ID":67967,"DIS_CODE":0,"TOWNNAME":"佳里區","LI":"嘉福里","LIN":"6鄰","STREET":" ","SECT":" ","MAREA":"下營","LANE":" ","ALLEY":" ","HOUSE_NO":"５３號之１","E_COORD97":163266.01999999999,"N_COORD97":2563401.9100000001,"ADDRESS":"下營５３號之１","OBJECTID":67967},"geometry":{"x":163266.01999999862,"y":2563401.910000002}},{"attributes":{"ID":67968,"DIS_CODE":0,"TOWNNAME":"佳里區","LI":"嘉福里","LIN":"6鄰","STREET":" ","SECT":" ","MAREA":"下營","LANE":" ","ALLEY":" ","HOUSE_NO":"５３號之２","E_COORD97":163252.54999999999,"N_COORD97":2563414.1000000001,"ADDRESS":"下營５３號之２","OBJECTID":67968},"geometry":{"x":163252.54999999888,"y":2563414.1000000015}},{"attributes":{"ID":67969,"DIS_CODE":0,"TOWNNAME":"佳里區","LI":"嘉福里","LIN":"6鄰","STREET":" ","SECT":" ","MAREA":"下營","LANE":" ","ALLEY":" ","HOUSE_NO":"５３號之３","E_COORD97":163252.45999999999,"N_COORD97":2563418.5699999998,"ADDRESS":"下營５３號之３","OBJECTID":67969},"geometry":{"x":163252.46000000089,"y":2563418.5700000022}},{"attributes":{"ID":67970,"DIS_CODE":0,"TOWNNAME":"佳里區","LI":"嘉福里","LIN":"6鄰","STREET":" ","SECT":" ","MAREA":"下營","LANE":" ","ALLEY":" ","HOUSE_NO":"５３號之４","E_COORD97":163252.45999999999,"N_COORD97":2563422.8399999999,"ADDRESS":"下營５３號之４","OBJECTID":67970},"geometry":{"x":163252.46000000089,"y":2563422.8400000017}},{"attributes":{"ID":67971,"DIS_CODE":0,"TOWNNAME":"佳里區","LI":"嘉福里","LIN":"6鄰","STREET":" ","SECT":" ","MAREA":"下營","LANE":" ","ALLEY":" ","HOUSE_NO":"５３號之５","E_COORD97":163252.89999999999,"N_COORD97":2563426.4100000001,"ADDRESS":"下營５３號之５","OBJECTID":67971},"geometry":{"x":163252.9000000013,"y":2563426.410000002}},{"attributes":{"ID":67972,"DIS_CODE":0,"TOWNNAME":"佳里區","LI":"嘉福里","LIN":"6鄰","STREET":" ","SECT":" ","MAREA":"下營","LANE":" ","ALLEY":" ","HOUSE_NO":"５３號之６","E_COORD97":163236.26999999999,"N_COORD97":2563411.5800000001,"ADDRESS":"下營５３號之６","OBJECTID":67972},"geometry":{"x":163236.27000000048,"y":2563411.5800000019}},{"attributes":{"ID":67973,"DIS_CODE":0,"TOWNNAME":"佳里區","LI":"嘉福里","LIN":"6鄰","STREET":" ","SECT":" ","MAREA":"下營","LANE":" ","ALLEY":" ","HOUSE_NO":"５３號之７","E_COORD97":163235.59,"N_COORD97":2563415.6400000001,"ADDRESS":"下營５３號之７","OBJECTID":67973},"geometry":{"x":163235.59000000171,"y":2563415.6400000006}},{"attributes":{"ID":67974,"DIS_CODE":0,"TOWNNAME":"佳里區","LI":"嘉福里","LIN":"6鄰","STREET":" ","SECT":" ","MAREA":"下營","LANE":" ","ALLEY":" ","HOUSE_NO":"５３號之８","E_COORD97":163235.20999999999,"N_COORD97":2563420.5099999998,"ADDRESS":"下營５３號之８","OBJECTID":67974},"geometry":{"x":163235.21000000089,"y":2563420.5100000035}},{"attributes":{"ID":67975,"DIS_CODE":0,"TOWNNAME":"佳里區","LI":"嘉福里","LIN":"6鄰","STREET":" ","SECT":" ","MAREA":"下營","LANE":" ","ALLEY":" ","HOUSE_NO":"５３號之９","E_COORD97":163235.29000000001,"N_COORD97":2563425.1299999999,"ADDRESS":"下營５３號之９","OBJECTID":67975},"geometry":{"x":163235.29000000004,"y":2563425.1299999971}},{"attributes":{"ID":67976,"DIS_CODE":0,"TOWNNAME":"佳里區","LI":"嘉福里","LIN":"6鄰","STREET":" ","SECT":" ","MAREA":"下營","LANE":" ","ALLEY":" ","HOUSE_NO":"５３號","E_COORD97":163279.51999999999,"N_COORD97":2563409.0899999999,"ADDRESS":"下營５３號","OBJECTID":67976},"geometry":{"x":163279.51999999955,"y":2563409.0899999999}},{"attributes":{"ID":67977,"DIS_CODE":0,"TOWNNAME":"佳里區","LI":"嘉福里","LIN":"6鄰","STREET":" ","SECT":" ","MAREA":"下營","LANE":" ","ALLEY":" ","HOUSE_NO":"５５號之１","E_COORD97":163226.42000000001,"N_COORD97":2563413.0899999999,"ADDRESS":"下營５５號之１","OBJECTID":67977},"geometry":{"x":163226.41999999899,"y":2563413.0900000036}},{"attributes":{"ID":67978,"DIS_CODE":0,"TOWNNAME":"佳里區","LI":"嘉福里","LIN":"6鄰","STREET":" ","SECT":" ","MAREA":"下營","LANE":" ","ALLEY":" ","HOUSE_NO":"５５號","E_COORD97":163213.60000000001,"N_COORD97":2563410.3900000001,"ADDRESS":"下營５５號","OBJECTID":67978},"geometry":{"x":163213.60000000056,"y":2563410.3900000006}},{"attributes":{"ID":67979,"DIS_CODE":0,"TOWNNAME":"麻豆區","LI":"南勢里","LIN":"6鄰","STREET":" ","SECT":" ","MAREA":"\u25A0帝\u25A0","LANE":" ","ALLEY":" ","HOUSE_NO":"３９號之１","E_COORD97":174003.72,"N_COORD97":2565112.7999999998,"ADDRESS":"\u25A0帝\u25A0３９號之１","OBJECTID":67979},"geometry":{"x":174003.71999999974,"y":2565112.8000000026}},{"attributes":{"ID":67980,"DIS_CODE":0,"TOWNNAME":"白河區","LI":"蓮潭里","LIN":"6鄰","STREET":" ","SECT":" ","MAREA":"山子腳","LANE":" ","ALLEY":" ","HOUSE_NO":"３０之９號","E_COORD97":189080.32000000001,"N_COORD97":2588388.2999999998,"ADDRESS":"山子腳３０之９號","OBJECTID":67980},"geometry":{"x":189080.3200000003,"y":2588388.3000000007}},{"attributes":{"ID":67981,"DIS_CODE":0,"TOWNNAME":"白河區","LI":"蓮潭里","LIN":"6鄰","STREET":" ","SECT":" ","MAREA":"山子腳","LANE":" ","ALLEY":" ","HOUSE_NO":"３２之１號","E_COORD97":189146.91,"N_COORD97":2588395.3399999999,"ADDRESS":"山子腳３２之１號","OBJECTID":67981},"geometry":{"x":189146.91000000108,"y":2588395.3400000017}},{"attributes":{"ID":67982,"DIS_CODE":0,"TOWNNAME":"白河區","LI":"蓮潭里","LIN":"6鄰","STREET":" ","SECT":" ","MAREA":"山子腳","LANE":" ","ALLEY":" ","HOUSE_NO":"３２號","E_COORD97":189139.10999999999,"N_COORD97":2588390.5899999999,"ADDRESS":"山子腳３２號","OBJECTID":67982},"geometry":{"x":189139.11000000127,"y":2588390.5900000017}},{"attributes":{"ID":67983,"DIS_CODE":0,"TOWNNAME":"白河區","LI":"蓮潭里","LIN":"6鄰","STREET":" ","SECT":" ","MAREA":"山子腳","LANE":" ","ALLEY":" ","HOUSE_NO":"３３之１號","E_COORD97":189118.20000000001,"N_COORD97":2588421.5299999998,"ADDRESS":"山子腳３３之１號","OBJECTID":67983},"geometry":{"x":189118.20000000019,"y":2588421.5300000012}},{"attributes":{"ID":67984,"DIS_CODE":0,"TOWNNAME":"白河區","LI":"蓮潭里","LIN":"6鄰","STREET":" ","SECT":" ","MAREA":"山子腳","LANE":" ","ALLEY":" ","HOUSE_NO":"３３號","E_COORD97":189110.47,"N_COORD97":2588391.3999999999,"ADDRESS":"山子腳３３號","OBJECTID":67984},"geometry":{"x":189110.47000000067,"y":2588391.4000000004}},{"attributes":{"ID":67985,"DIS_CODE":0,"TOWNNAME":"白河區","LI":"蓮潭里","LIN":"6鄰","STREET":" ","SECT":" ","MAREA":"山子腳","LANE":" ","ALLEY":" ","HOUSE_NO":"３４號","E_COORD97":189154.28,"N_COORD97":2588408.3700000001,"ADDRESS":"山子腳３４號","OBJECTID":67985},"geometry":{"x":189154.28000000119,"y":2588408.370000001}},{"attributes":{"ID":67986,"DIS_CODE":0,"TOWNNAME":"白河區","LI":"蓮潭里","LIN":"6鄰","STREET":" ","SECT":" ","MAREA":"山子腳","LANE":" ","ALLEY":" ","HOUSE_NO":"３５之１號","E_COORD97":189169.42999999999,"N_COORD97":2588420.6800000002,"ADDRESS":"山子腳３５之１號","OBJECTID":67986},"geometry":{"x":189169.43000000156,"y":2588420.6800000016}},{"attributes":{"ID":67987,"DIS_CODE":0,"TOWNNAME":"白河區","LI":"蓮潭里","LIN":"6鄰","STREET":" ","SECT":" ","MAREA":"山子腳","LANE":" ","ALLEY":" ","HOUSE_NO":"３５之２號","E_COORD97":189196.19,"N_COORD97":2588438.3100000001,"ADDRESS":"山子腳３５之２號","OBJECTID":67987},"geometry":{"x":189196.19000000134,"y":2588438.3100000024}},{"attributes":{"ID":67988,"DIS_CODE":0,"TOWNNAME":"白河區","LI":"蓮潭里","LIN":"6鄰","STREET":" ","SECT":" ","MAREA":"山子腳","LANE":" ","ALLEY":" ","HOUSE_NO":"３５之３號","E_COORD97":189174.91,"N_COORD97":2588426.0699999998,"ADDRESS":"山子腳３５之３號","OBJECTID":67988},"geometry":{"x":189174.91000000015,"y":2588426.0700000022}},{"attributes":{"ID":67989,"DIS_CODE":0,"TOWNNAME":"白河區","LI":"蓮潭里","LIN":"6鄰","STREET":" ","SECT":" ","MAREA":"山子腳","LANE":" ","ALLEY":" ","HOUSE_NO":"３５號","E_COORD97":189179.07000000001,"N_COORD97":2588427.6699999999,"ADDRESS":"山子腳３５號","OBJECTID":67989},"geometry":{"x":189179.0700000003,"y":2588427.6700000018}},{"attributes":{"ID":67990,"DIS_CODE":0,"TOWNNAME":"白河區","LI":"蓮潭里","LIN":"6鄰","STREET":" ","SECT":" ","MAREA":"山子腳","LANE":" ","ALLEY":" ","HOUSE_NO":"３６之７號","E_COORD97":189184.10999999999,"N_COORD97":2588495.1600000001,"ADDRESS":"山子腳３６之７號","OBJECTID":67990},"geometry":{"x":189184.1100000022,"y":2588495.1600000039}},{"attributes":{"ID":67991,"DIS_CODE":0,"TOWNNAME":"白河區","LI":"蓮潭里","LIN":"6鄰","STREET":" ","SECT":" ","MAREA":"山子腳","LANE":" ","ALLEY":" ","HOUSE_NO":"３６號","E_COORD97":189202.79999999999,"N_COORD97":2588464.79,"ADDRESS":"山子腳３６號","OBJECTID":67991},"geometry":{"x":189202.80000000075,"y":2588464.7899999991}},{"attributes":{"ID":67992,"DIS_CODE":0,"TOWNNAME":"白河區","LI":"蓮潭里","LIN":"6鄰","STREET":" ","SECT":" ","MAREA":"山子腳","LANE":" ","ALLEY":" ","HOUSE_NO":"３７號","E_COORD97":189185.91,"N_COORD97":2588450.8300000001,"ADDRESS":"山子腳３７號","OBJECTID":67992},"geometry":{"x":189185.91000000108,"y":2588450.8300000019}},{"attributes":{"ID":67993,"DIS_CODE":0,"TOWNNAME":"白河區","LI":"蓮潭里","LIN":"6鄰","STREET":" ","SECT":" ","MAREA":"山子腳","LANE":" ","ALLEY":" ","HOUSE_NO":"３９號","E_COORD97":189176.72,"N_COORD97":2588457.79,"ADDRESS":"山子腳３９號","OBJECTID":67993},"geometry":{"x":189176.72000000067,"y":2588457.7899999991}},{"attributes":{"ID":67994,"DIS_CODE":0,"TOWNNAME":"後壁區","LI":"頂安里","LIN":"7鄰","STREET":" ","SECT":" ","MAREA":"頂寮","LANE":" ","ALLEY":" ","HOUSE_NO":"７２號之５","E_COORD97":183799.59,"N_COORD97":2581441.3700000001,"ADDRESS":"頂寮７２號之５","OBJECTID":67994},"geometry":{"x":183799.58999999985,"y":2581441.370000001}},{"attributes":{"ID":67995,"DIS_CODE":0,"TOWNNAME":"後壁區","LI":"頂安里","LIN":"7鄰","STREET":" ","SECT":" ","MAREA":"頂寮","LANE":" ","ALLEY":" ","HOUSE_NO":"７２號","E_COORD97":183781.32999999999,"N_COORD97":2581442.0800000001,"ADDRESS":"頂寮７２號","OBJECTID":67995},"geometry":{"x":183781.32999999914,"y":2581442.0800000001}},{"attributes":{"ID":67996,"DIS_CODE":0,"TOWNNAME":"後壁區","LI":"頂安里","LIN":"7鄰","STREET":" ","SECT":" ","MAREA":"頂寮","LANE":" ","ALLEY":" ","HOUSE_NO":"７３號之２","E_COORD97":183789.5,"N_COORD97":2581424.02,"ADDRESS":"頂寮７３號之２","OBJECTID":67996},"geometry":{"x":183789.50000000093,"y":2581424.0200000014}},{"attributes":{"ID":67997,"DIS_CODE":0,"TOWNNAME":"後壁區","LI":"頂安里","LIN":"7鄰","STREET":" ","SECT":" ","MAREA":"頂寮","LANE":" ","ALLEY":" ","HOUSE_NO":"７３號","E_COORD97":183802.17000000001,"N_COORD97":2581417.3900000001,"ADDRESS":"頂寮７３號","OBJECTID":67997},"geometry":{"x":183802.16999999993,"y":2581417.3900000006}},{"attributes":{"ID":67998,"DIS_CODE":0,"TOWNNAME":"後壁區","LI":"頂安里","LIN":"7鄰","STREET":" ","SECT":" ","MAREA":"頂寮","LANE":" ","ALLEY":" ","HOUSE_NO":"７４號","E_COORD97":183818.13,"N_COORD97":2581422.7000000002,"ADDRESS":"頂寮７４號","OBJECTID":67998},"geometry":{"x":183818.12999999896,"y":2581422.7000000011}},{"attributes":{"ID":67999,"DIS_CODE":0,"TOWNNAME":"後壁區","LI":"頂安里","LIN":"7鄰","STREET":" ","SECT":" ","MAREA":"頂寮","LANE":" ","ALLEY":" ","HOUSE_NO":"７５號","E_COORD97":183829.17999999999,"N_COORD97":2581434.3999999999,"ADDRESS":"頂寮７５號","OBJECTID":67999},"geometry":{"x":183829.1799999997,"y":2581434.4000000004}},{"attributes":{"ID":68000,"DIS_CODE":0,"TOWNNAME":"後壁區","LI":"頂安里","LIN":"7鄰","STREET":" ","SECT":" ","MAREA":"頂寮","LANE":" ","ALLEY":" ","HOUSE_NO":"７７號之１","E_COORD97":183837.84,"N_COORD97":2581398.8199999998,"ADDRESS":"頂寮７７號之１","OBJECTID":68000},"geometry":{"x":183837.84000000078,"y":2581398.8200000022}}]}