{"displayFieldName":"TOWNNAME","fieldAliases":{"ID":"ID","DIS_CODE":"DIS_CODE","TOWNNAME":"TOWNNAME","LI":"LI","LIN":"LIN","STREET":"STREET","SECT":"SECT","MAREA":"MAREA","LANE":"LANE","ALLEY":"ALLEY","HOUSE_NO":"HOUSE_NO","E_COORD97":"E_COORD97","N_COORD97":"N_COORD97","ADDRESS":"ADDRESS","OBJECTID":"OBJECTID"},"geometryType":"esriGeometryPoint","spatialReference":{"wkid":102443,"latestWkid":3826},"fields":[{"name":"ID","type":"esriFieldTypeDouble","alias":"ID"},{"name":"DIS_CODE","type":"esriFieldTypeInteger","alias":"DIS_CODE"},{"name":"TOWNNAME","type":"esriFieldTypeString","alias":"TOWNNAME","length":8},{"name":"LI","type":"esriFieldTypeString","alias":"LI","length":8},{"name":"LIN","type":"esriFieldTypeString","alias":"LIN","length":12},{"name":"STREET","type":"esriFieldTypeString","alias":"STREET","length":20},{"name":"SECT","type":"esriFieldTypeString","alias":"SECT","length":8},{"name":"MAREA","type":"esriFieldTypeString","alias":"MAREA","length":12},{"name":"LANE","type":"esriFieldTypeString","alias":"LANE","length":10},{"name":"ALLEY","type":"esriFieldTypeString","alias":"ALLEY","length":10},{"name":"HOUSE_NO","type":"esriFieldTypeString","alias":"HOUSE_NO","length":20},{"name":"E_COORD97","type":"esriFieldTypeDouble","alias":"E_COORD97"},{"name":"N_COORD97","type":"esriFieldTypeDouble","alias":"N_COORD97"},{"name":"ADDRESS","type":"esriFieldTypeString","alias":"ADDRESS","length":50},{"name":"OBJECTID","type":"esriFieldTypeOID","alias":"OBJECTID"}],"features":[{"attributes":{"ID":498028,"DIS_CODE":0,"TOWNNAME":"新營區","LI":"延平里","LIN":"7鄰","STREET":"復興路","SECT":" ","MAREA":" ","LANE":" ","ALLEY":" ","HOUSE_NO":"１之２６號","E_COORD97":179684.29000000001,"N_COORD97":2577939.7000000002,"ADDRESS":"復興路１之２６號","OBJECTID":498001},"geometry":{"x":179684.28999999911,"y":2577939.700000003}},{"attributes":{"ID":498029,"DIS_CODE":0,"TOWNNAME":"新營區","LI":"民權里","LIN":"7鄰","STREET":"文化街","SECT":" ","MAREA":" ","LANE":" ","ALLEY":" ","HOUSE_NO":"１８之１號","E_COORD97":179835.32999999999,"N_COORD97":2578081.8399999999,"ADDRESS":"文化街１８之１號","OBJECTID":498002},"geometry":{"x":179835.33000000101,"y":2578081.8400000017}},{"attributes":{"ID":498030,"DIS_CODE":0,"TOWNNAME":"新營區","LI":"延平里","LIN":"7鄰","STREET":"復興路","SECT":" ","MAREA":" ","LANE":" ","ALLEY":" ","HOUSE_NO":"１之１０號","E_COORD97":179730.42000000001,"N_COORD97":2577960.52,"ADDRESS":"復興路１之１０號","OBJECTID":498003},"geometry":{"x":179730.41999999993,"y":2577960.5199999996}},{"attributes":{"ID":498031,"DIS_CODE":0,"TOWNNAME":"新營區","LI":"南興里","LIN":"7鄰","STREET":"和平路","SECT":" ","MAREA":" ","LANE":" ","ALLEY":" ","HOUSE_NO":"８９號","E_COORD97":179422.64000000001,"N_COORD97":2577634.1200000001,"ADDRESS":"和平路８９號","OBJECTID":498004},"geometry":{"x":179422.6400000006,"y":2577634.1200000029}},{"attributes":{"ID":498032,"DIS_CODE":0,"TOWNNAME":"新營區","LI":"延平里","LIN":"7鄰","STREET":"復興路","SECT":" ","MAREA":" ","LANE":" ","ALLEY":" ","HOUSE_NO":"１之３７號","E_COORD97":179666.82999999999,"N_COORD97":2577924.2799999998,"ADDRESS":"復興路１之３７號","OBJECTID":498005},"geometry":{"x":179666.83000000007,"y":2577924.2799999993}},{"attributes":{"ID":498033,"DIS_CODE":0,"TOWNNAME":"新營區","LI":"民榮里","LIN":"7鄰","STREET":"和平路","SECT":" ","MAREA":" ","LANE":" ","ALLEY":" ","HOUSE_NO":"３０號","E_COORD97":179404.17999999999,"N_COORD97":2577833.5499999998,"ADDRESS":"和平路３０號","OBJECTID":498006},"geometry":{"x":179404.18000000063,"y":2577833.5500000045}},{"attributes":{"ID":498034,"DIS_CODE":0,"TOWNNAME":"新營區","LI":"民權里","LIN":"7鄰","STREET":"文化街","SECT":" ","MAREA":" ","LANE":" ","ALLEY":" ","HOUSE_NO":"１０號之３","E_COORD97":179824.64999999999,"N_COORD97":2578044.2400000002,"ADDRESS":"文化街１０號之３","OBJECTID":498007},"geometry":{"x":179824.64999999944,"y":2578044.2400000002}},{"attributes":{"ID":498035,"DIS_CODE":0,"TOWNNAME":"新營區","LI":"民權里","LIN":"7鄰","STREET":"文化街","SECT":" ","MAREA":" ","LANE":" ","ALLEY":" ","HOUSE_NO":"１０號","E_COORD97":179826.47,"N_COORD97":2578035.3199999998,"ADDRESS":"文化街１０號","OBJECTID":498008},"geometry":{"x":179826.46999999974,"y":2578035.3200000022}},{"attributes":{"ID":498036,"DIS_CODE":0,"TOWNNAME":"歸仁區","LI":"辜厝里","LIN":"25鄰","STREET":"大順街","SECT":" ","MAREA":" ","LANE":" ","ALLEY":" ","HOUSE_NO":"６３號","E_COORD97":177366.17999999999,"N_COORD97":2540596.1499999999,"ADDRESS":"大順街６３號","OBJECTID":498009},"geometry":{"x":177366.18000000063,"y":2540596.1500000041}},{"attributes":{"ID":498037,"DIS_CODE":0,"TOWNNAME":"歸仁區","LI":"南興里","LIN":"13鄰","STREET":"文化十八街","SECT":" ","MAREA":" ","LANE":" ","ALLEY":" ","HOUSE_NO":"３６號","E_COORD97":175880.89000000001,"N_COORD97":2541300.3300000001,"ADDRESS":"文化十八街３６號","OBJECTID":498010},"geometry":{"x":175880.88999999966,"y":2541300.3300000019}},{"attributes":{"ID":498038,"DIS_CODE":0,"TOWNNAME":"歸仁區","LI":"南興里","LIN":"20鄰","STREET":"文化街","SECT":"三段","MAREA":" ","LANE":" ","ALLEY":" ","HOUSE_NO":"５６６號","E_COORD97":175705.64000000001,"N_COORD97":2541273.3300000001,"ADDRESS":"文化街三段５６６號","OBJECTID":498011},"geometry":{"x":175705.63999999966,"y":2541273.3300000019}},{"attributes":{"ID":498039,"DIS_CODE":0,"TOWNNAME":"東山區","LI":"東中里","LIN":"7鄰","STREET":"青葉路","SECT":"二段","MAREA":" ","LANE":" ","ALLEY":" ","HOUSE_NO":"４９號","E_COORD97":189126.37,"N_COORD97":2580253.71,"ADDRESS":"青葉路二段４９號","OBJECTID":498012},"geometry":{"x":189126.37000000104,"y":2580253.7100000028}},{"attributes":{"ID":498040,"DIS_CODE":0,"TOWNNAME":"歸仁區","LI":"南興里","LIN":"6鄰","STREET":"民生二街","SECT":" ","MAREA":" ","LANE":" ","ALLEY":" ","HOUSE_NO":"４２號","E_COORD97":176148.48999999999,"N_COORD97":2541346.29,"ADDRESS":"民生二街４２號","OBJECTID":498013},"geometry":{"x":176148.49000000022,"y":2541346.2900000028}},{"attributes":{"ID":498041,"DIS_CODE":0,"TOWNNAME":"北區","LI":"安民里","LIN":"7鄰","STREET":"海成街","SECT":" ","MAREA":" ","LANE":" ","ALLEY":" ","HOUSE_NO":"７２號","E_COORD97":167820.48000000001,"N_COORD97":2544700.0299999998,"ADDRESS":"海成街７２號","OBJECTID":498014},"geometry":{"x":167820.48000000045,"y":2544700.0299999993}},{"attributes":{"ID":498042,"DIS_CODE":0,"TOWNNAME":"安南區","LI":"安東里","LIN":"12鄰","STREET":"安和路","SECT":"一段","MAREA":" ","LANE":"２２０巷","ALLEY":"１０５弄","HOUSE_NO":"１２號","E_COORD97":169530.842473,"N_COORD97":2548126.2193100001,"ADDRESS":"安和路一段２２０巷１０５弄１２號","OBJECTID":498015},"geometry":{"x":169530.84247300029,"y":2548126.2193130013}},{"attributes":{"ID":498043,"DIS_CODE":0,"TOWNNAME":"歸仁區","LI":"南保里","LIN":"26鄰","STREET":"民權六街","SECT":" ","MAREA":" ","LANE":" ","ALLEY":" ","HOUSE_NO":"２０１號","E_COORD97":176574.14000000001,"N_COORD97":2541109.29,"ADDRESS":"民權六街２０１號","OBJECTID":498016},"geometry":{"x":176574.13999999966,"y":2541109.290000001}},{"attributes":{"ID":498044,"DIS_CODE":0,"TOWNNAME":"歸仁區","LI":"南保里","LIN":"43鄰","STREET":"民權南路","SECT":" ","MAREA":" ","LANE":" ","ALLEY":" ","HOUSE_NO":"８０號","E_COORD97":176961.29000000001,"N_COORD97":2540648.29,"ADDRESS":"民權南路８０號","OBJECTID":498017},"geometry":{"x":176961.29000000004,"y":2540648.290000001}},{"attributes":{"ID":498045,"DIS_CODE":0,"TOWNNAME":"鹽水區","LI":"中境里","LIN":"7鄰","STREET":"中山路","SECT":" ","MAREA":" ","LANE":" ","ALLEY":" ","HOUSE_NO":"１０號","E_COORD97":175023.01999999999,"N_COORD97":2579919.52,"ADDRESS":"中山路１０號","OBJECTID":498018},"geometry":{"x":175023.02000000048,"y":2579919.5199999996}},{"attributes":{"ID":498046,"DIS_CODE":0,"TOWNNAME":"鹽水區","LI":"中境里","LIN":"7鄰","STREET":"中山路","SECT":" ","MAREA":" ","LANE":" ","ALLEY":" ","HOUSE_NO":"１２號","E_COORD97":175018.69,"N_COORD97":2579934.2599999998,"ADDRESS":"中山路１２號","OBJECTID":498019},"geometry":{"x":175018.69000000227,"y":2579934.2600000016}},{"attributes":{"ID":498047,"DIS_CODE":0,"TOWNNAME":"鹽水區","LI":"中境里","LIN":"7鄰","STREET":"中山路","SECT":" ","MAREA":" ","LANE":" ","ALLEY":" ","HOUSE_NO":"１４號","E_COORD97":175011.25,"N_COORD97":2579920.4100000001,"ADDRESS":"中山路１４號","OBJECTID":498020},"geometry":{"x":175011.25000000093,"y":2579920.410000002}},{"attributes":{"ID":498048,"DIS_CODE":0,"TOWNNAME":"鹽水區","LI":"中境里","LIN":"7鄰","STREET":"中山路","SECT":" ","MAREA":" ","LANE":" ","ALLEY":" ","HOUSE_NO":"１６號","E_COORD97":175005.29000000001,"N_COORD97":2579921.3700000001,"ADDRESS":"中山路１６號","OBJECTID":498021},"geometry":{"x":175005.29000000004,"y":2579921.3700000029}},{"attributes":{"ID":498049,"DIS_CODE":0,"TOWNNAME":"鹽水區","LI":"水仙里","LIN":"7鄰","STREET":"中山路","SECT":" ","MAREA":" ","LANE":" ","ALLEY":" ","HOUSE_NO":"２７號","E_COORD97":175002.23999999999,"N_COORD97":2579899.5600000001,"ADDRESS":"中山路２７號","OBJECTID":498022},"geometry":{"x":175002.24000000022,"y":2579899.5600000024}},{"attributes":{"ID":498050,"DIS_CODE":0,"TOWNNAME":"鹽水區","LI":"水正里","LIN":"7鄰","STREET":"中正路","SECT":" ","MAREA":" ","LANE":" ","ALLEY":" ","HOUSE_NO":"５１號","E_COORD97":175116.26999999999,"N_COORD97":2579852.5099999998,"ADDRESS":"中正路５１號","OBJECTID":498023},"geometry":{"x":175116.27000000048,"y":2579852.5099999998}},{"attributes":{"ID":498051,"DIS_CODE":0,"TOWNNAME":"歸仁區","LI":"南興里","LIN":"35鄰","STREET":"民生一街","SECT":" ","MAREA":" ","LANE":" ","ALLEY":" ","HOUSE_NO":"６６號","E_COORD97":176427.79000000001,"N_COORD97":2541019.29,"ADDRESS":"民生一街６６號","OBJECTID":498024},"geometry":{"x":176427.79000000004,"y":2541019.2899999991}},{"attributes":{"ID":498052,"DIS_CODE":0,"TOWNNAME":"鹽水區","LI":"水正里","LIN":"7鄰","STREET":"中正路","SECT":" ","MAREA":" ","LANE":" ","ALLEY":" ","HOUSE_NO":"５３號","E_COORD97":175115.88,"N_COORD97":2579848.1200000001,"ADDRESS":"中正路５３號","OBJECTID":498025},"geometry":{"x":175115.88000000082,"y":2579848.1200000029}},{"attributes":{"ID":498053,"DIS_CODE":0,"TOWNNAME":"鹽水區","LI":"水正里","LIN":"7鄰","STREET":"中正路","SECT":" ","MAREA":" ","LANE":" ","ALLEY":" ","HOUSE_NO":"５５號","E_COORD97":175115.48999999999,"N_COORD97":2579843.73,"ADDRESS":"中正路５５號","OBJECTID":498026},"geometry":{"x":175115.49000000115,"y":2579843.7300000023}},{"attributes":{"ID":498054,"DIS_CODE":0,"TOWNNAME":"鹽水區","LI":"水正里","LIN":"7鄰","STREET":"中正路","SECT":" ","MAREA":" ","LANE":" ","ALLEY":" ","HOUSE_NO":"５７號","E_COORD97":175115.09,"N_COORD97":2579839.3399999999,"ADDRESS":"中正路５７號","OBJECTID":498027},"geometry":{"x":175115.08999999985,"y":2579839.3400000017}},{"attributes":{"ID":498055,"DIS_CODE":0,"TOWNNAME":"歸仁區","LI":"南保里","LIN":"41鄰","STREET":"保興街","SECT":" ","MAREA":" ","LANE":" ","ALLEY":" ","HOUSE_NO":"２０號","E_COORD97":176506.62,"N_COORD97":2541016.25,"ADDRESS":"保興街２０號","OBJECTID":498028},"geometry":{"x":176506.62000000011,"y":2541016.2500000019}},{"attributes":{"ID":498056,"DIS_CODE":0,"TOWNNAME":"鹽水區","LI":"水正里","LIN":"7鄰","STREET":"中正路","SECT":" ","MAREA":" ","LANE":" ","ALLEY":" ","HOUSE_NO":"５９號","E_COORD97":175114.17000000001,"N_COORD97":2579835.1099999999,"ADDRESS":"中正路５９號","OBJECTID":498029},"geometry":{"x":175114.16999999993,"y":2579835.1099999994}},{"attributes":{"ID":498057,"DIS_CODE":0,"TOWNNAME":"鹽水區","LI":"水正里","LIN":"7鄰","STREET":"中正路","SECT":" ","MAREA":" ","LANE":" ","ALLEY":" ","HOUSE_NO":"６１號","E_COORD97":175113.70999999999,"N_COORD97":2579830.5299999998,"ADDRESS":"中正路６１號","OBJECTID":498030},"geometry":{"x":175113.71000000089,"y":2579830.5300000012}},{"attributes":{"ID":498058,"DIS_CODE":0,"TOWNNAME":"鹽水區","LI":"水正里","LIN":"7鄰","STREET":"中正路","SECT":" ","MAREA":" ","LANE":" ","ALLEY":" ","HOUSE_NO":"６３號","E_COORD97":175113.25,"N_COORD97":2579825.9500000002,"ADDRESS":"中正路６３號","OBJECTID":498031},"geometry":{"x":175113.25000000093,"y":2579825.9499999974}},{"attributes":{"ID":498059,"DIS_CODE":0,"TOWNNAME":"鹽水區","LI":"水正里","LIN":"7鄰","STREET":"中正路","SECT":" ","MAREA":" ","LANE":" ","ALLEY":" ","HOUSE_NO":"６５號","E_COORD97":175112.78,"N_COORD97":2579821.3700000001,"ADDRESS":"中正路６５號","OBJECTID":498032},"geometry":{"x":175112.78000000212,"y":2579821.370000001}},{"attributes":{"ID":498060,"DIS_CODE":0,"TOWNNAME":"鹽水區","LI":"水正里","LIN":"7鄰","STREET":"中正路","SECT":" ","MAREA":" ","LANE":" ","ALLEY":" ","HOUSE_NO":"６７號","E_COORD97":175112.32000000001,"N_COORD97":2579816.79,"ADDRESS":"中正路６７號","OBJECTID":498033},"geometry":{"x":175112.3200000003,"y":2579816.7899999972}},{"attributes":{"ID":498061,"DIS_CODE":0,"TOWNNAME":"關廟區","LI":"東勢里","LIN":"7鄰","STREET":"旺萊路","SECT":" ","MAREA":" ","LANE":" ","ALLEY":" ","HOUSE_NO":"１４３號","E_COORD97":181797.23999999999,"N_COORD97":2539335.25,"ADDRESS":"旺萊路１４３號","OBJECTID":498034},"geometry":{"x":181797.24000000209,"y":2539335.2500000019}},{"attributes":{"ID":498062,"DIS_CODE":0,"TOWNNAME":"關廟區","LI":"東勢里","LIN":"7鄰","STREET":"旺萊路","SECT":" ","MAREA":" ","LANE":" ","ALLEY":" ","HOUSE_NO":"１６３號","E_COORD97":181842.14000000001,"N_COORD97":2539364.25,"ADDRESS":"旺萊路１６３號","OBJECTID":498035},"geometry":{"x":181842.1400000006,"y":2539364.2500000037}},{"attributes":{"ID":498063,"DIS_CODE":0,"TOWNNAME":"關廟區","LI":"山西里","LIN":"7鄰","STREET":"成功路","SECT":" ","MAREA":" ","LANE":" ","ALLEY":" ","HOUSE_NO":"５４５號","E_COORD97":180789.70999999999,"N_COORD97":2540620.3799999999,"ADDRESS":"成功路５４５號","OBJECTID":498036},"geometry":{"x":180789.70999999996,"y":2540620.3800000008}},{"attributes":{"ID":498064,"DIS_CODE":0,"TOWNNAME":"關廟區","LI":"山西里","LIN":"7鄰","STREET":"成功路","SECT":" ","MAREA":" ","LANE":" ","ALLEY":" ","HOUSE_NO":"５２１號","E_COORD97":180847.60999999999,"N_COORD97":2540617.3799999999,"ADDRESS":"成功路５２１號","OBJECTID":498037},"geometry":{"x":180847.61000000127,"y":2540617.3800000008}},{"attributes":{"ID":498065,"DIS_CODE":0,"TOWNNAME":"關廟區","LI":"山西里","LIN":"7鄰","STREET":"文衡路","SECT":" ","MAREA":" ","LANE":" ","ALLEY":" ","HOUSE_NO":"１６５號","E_COORD97":180899.48000000001,"N_COORD97":2540608.4500000002,"ADDRESS":"文衡路１６５號","OBJECTID":498038},"geometry":{"x":180899.48000000138,"y":2540608.4499999993}},{"attributes":{"ID":498066,"DIS_CODE":0,"TOWNNAME":"關廟區","LI":"山西里","LIN":"7鄰","STREET":"成功路","SECT":" ","MAREA":" ","LANE":" ","ALLEY":" ","HOUSE_NO":"５３１號","E_COORD97":180821.91,"N_COORD97":2540619.3799999999,"ADDRESS":"成功路５３１號","OBJECTID":498039},"geometry":{"x":180821.91000000108,"y":2540619.379999999}},{"attributes":{"ID":498067,"DIS_CODE":0,"TOWNNAME":"關廟區","LI":"東勢里","LIN":"7鄰","STREET":"旺萊路","SECT":" ","MAREA":" ","LANE":" ","ALLEY":" ","HOUSE_NO":"１４５號","E_COORD97":181806.04000000001,"N_COORD97":2539339.25,"ADDRESS":"旺萊路１４５號","OBJECTID":498040},"geometry":{"x":181806.04000000004,"y":2539339.25}},{"attributes":{"ID":498068,"DIS_CODE":0,"TOWNNAME":"關廟區","LI":"松腳里","LIN":"7鄰","STREET":"中山路","SECT":"一段","MAREA":" ","LANE":" ","ALLEY":" ","HOUSE_NO":"９１號","E_COORD97":181895.91,"N_COORD97":2539929.2799999998,"ADDRESS":"中山路一段９１號","OBJECTID":498041},"geometry":{"x":181895.91000000201,"y":2539929.2799999975}},{"attributes":{"ID":498069,"DIS_CODE":0,"TOWNNAME":"關廟區","LI":"布袋里","LIN":"7鄰","STREET":"南雄南路","SECT":" ","MAREA":" ","LANE":" ","ALLEY":" ","HOUSE_NO":"４９０號","E_COORD97":183806.23999999999,"N_COORD97":2534260.2999999998,"ADDRESS":"南雄南路４９０號","OBJECTID":498042},"geometry":{"x":183806.24000000115,"y":2534260.3000000026}},{"attributes":{"ID":498070,"DIS_CODE":0,"TOWNNAME":"關廟區","LI":"山西里","LIN":"7鄰","STREET":"文衡路","SECT":" ","MAREA":" ","LANE":" ","ALLEY":" ","HOUSE_NO":"１９１號","E_COORD97":180896.56,"N_COORD97":2540665.3300000001,"ADDRESS":"文衡路１９１號","OBJECTID":498043},"geometry":{"x":180896.56000000052,"y":2540665.3300000001}},{"attributes":{"ID":498071,"DIS_CODE":0,"TOWNNAME":"關廟區","LI":"山西里","LIN":"7鄰","STREET":"成功路","SECT":" ","MAREA":" ","LANE":" ","ALLEY":" ","HOUSE_NO":"５２７號","E_COORD97":180833.10999999999,"N_COORD97":2540619.3799999999,"ADDRESS":"成功路５２７號","OBJECTID":498044},"geometry":{"x":180833.11000000034,"y":2540619.379999999}},{"attributes":{"ID":498072,"DIS_CODE":0,"TOWNNAME":"關廟區","LI":"下湖里","LIN":"7鄰","STREET":"下湖二街","SECT":" ","MAREA":" ","LANE":" ","ALLEY":" ","HOUSE_NO":"１１２號","E_COORD97":179314.84,"N_COORD97":2543116.2999999998,"ADDRESS":"下湖二街１１２號","OBJECTID":498045},"geometry":{"x":179314.84000000078,"y":2543116.3000000007}},{"attributes":{"ID":498073,"DIS_CODE":0,"TOWNNAME":"關廟區","LI":"山西里","LIN":"7鄰","STREET":"成功路","SECT":" ","MAREA":" ","LANE":" ","ALLEY":" ","HOUSE_NO":"５２９號","E_COORD97":180827.31,"N_COORD97":2540619.3799999999,"ADDRESS":"成功路５２９號","OBJECTID":498046},"geometry":{"x":180827.30999999959,"y":2540619.379999999}},{"attributes":{"ID":498074,"DIS_CODE":0,"TOWNNAME":"關廟區","LI":"山西里","LIN":"7鄰","STREET":"成功路","SECT":" ","MAREA":" ","LANE":" ","ALLEY":" ","HOUSE_NO":"５１５號","E_COORD97":180863.01000000001,"N_COORD97":2540617.3799999999,"ADDRESS":"成功路５１５號","OBJECTID":498047},"geometry":{"x":180863.01000000071,"y":2540617.3800000008}},{"attributes":{"ID":498075,"DIS_CODE":0,"TOWNNAME":"關廟區","LI":"山西里","LIN":"7鄰","STREET":"成功路","SECT":" ","MAREA":" ","LANE":" ","ALLEY":" ","HOUSE_NO":"５３５號","E_COORD97":180813.91,"N_COORD97":2540620.3799999999,"ADDRESS":"成功路５３５號","OBJECTID":498048},"geometry":{"x":180813.91000000015,"y":2540620.3800000008}},{"attributes":{"ID":498076,"DIS_CODE":0,"TOWNNAME":"關廟區","LI":"下湖里","LIN":"7鄰","STREET":"下湖二街","SECT":" ","MAREA":" ","LANE":" ","ALLEY":" ","HOUSE_NO":"１１６號","E_COORD97":179305.44,"N_COORD97":2543115.25,"ADDRESS":"下湖二街１１６號","OBJECTID":498049},"geometry":{"x":179305.44000000041,"y":2543115.2500000019}},{"attributes":{"ID":498077,"DIS_CODE":0,"TOWNNAME":"仁德區","LI":"新田里","LIN":"4鄰","STREET":"勝利路","SECT":" ","MAREA":" ","LANE":"１７７巷","ALLEY":"２弄","HOUSE_NO":"１號","E_COORD97":174395.40591999999,"N_COORD97":2539602.7623700001,"ADDRESS":"勝利路１７７巷２弄１號","OBJECTID":498050},"geometry":{"x":174395.40591999982,"y":2539602.7623669989}},{"attributes":{"ID":498078,"DIS_CODE":0,"TOWNNAME":"關廟區","LI":"山西里","LIN":"7鄰","STREET":"成功路","SECT":" ","MAREA":" ","LANE":" ","ALLEY":" ","HOUSE_NO":"５１７號","E_COORD97":180858.01000000001,"N_COORD97":2540617.3799999999,"ADDRESS":"成功路５１７號","OBJECTID":498051},"geometry":{"x":180858.01000000071,"y":2540617.3800000008}},{"attributes":{"ID":498079,"DIS_CODE":0,"TOWNNAME":"關廟區","LI":"山西里","LIN":"7鄰","STREET":"文衡路","SECT":" ","MAREA":" ","LANE":" ","ALLEY":" ","HOUSE_NO":"１４５號","E_COORD97":180905.10000000001,"N_COORD97":2540575.4500000002,"ADDRESS":"文衡路１４５號","OBJECTID":498052},"geometry":{"x":180905.09999999963,"y":2540575.4499999993}},{"attributes":{"ID":498080,"DIS_CODE":0,"TOWNNAME":"關廟區","LI":"下湖里","LIN":"7鄰","STREET":"下湖二街","SECT":" ","MAREA":" ","LANE":" ","ALLEY":" ","HOUSE_NO":"１２６號","E_COORD97":179292.84,"N_COORD97":2543164.25,"ADDRESS":"下湖二街１２６號","OBJECTID":498053},"geometry":{"x":179292.84000000078,"y":2543164.25}},{"attributes":{"ID":498081,"DIS_CODE":0,"TOWNNAME":"關廟區","LI":"山西里","LIN":"7鄰","STREET":"成功路","SECT":" ","MAREA":" ","LANE":" ","ALLEY":" ","HOUSE_NO":"５４１號","E_COORD97":180800.41,"N_COORD97":2540621.3799999999,"ADDRESS":"成功路５４１號","OBJECTID":498054},"geometry":{"x":180800.41000000015,"y":2540621.3800000008}},{"attributes":{"ID":498082,"DIS_CODE":0,"TOWNNAME":"關廟區","LI":"山西里","LIN":"7鄰","STREET":"成功路","SECT":" ","MAREA":" ","LANE":" ","ALLEY":" ","HOUSE_NO":"５１３號","E_COORD97":180869.10999999999,"N_COORD97":2540617.3799999999,"ADDRESS":"成功路５１３號","OBJECTID":498055},"geometry":{"x":180869.1099999994,"y":2540617.3800000008}},{"attributes":{"ID":498083,"DIS_CODE":0,"TOWNNAME":"關廟區","LI":"山西里","LIN":"7鄰","STREET":"成功路","SECT":" ","MAREA":" ","LANE":" ","ALLEY":" ","HOUSE_NO":"５１８號","E_COORD97":180863.19,"N_COORD97":2540631.27,"ADDRESS":"成功路５１８號","OBJECTID":498056},"geometry":{"x":180863.19000000041,"y":2540631.2699999996}},{"attributes":{"ID":498084,"DIS_CODE":0,"TOWNNAME":"關廟區","LI":"山西里","LIN":"7鄰","STREET":"成功路","SECT":" ","MAREA":" ","LANE":" ","ALLEY":" ","HOUSE_NO":"５２３號","E_COORD97":180843.01000000001,"N_COORD97":2540618.3799999999,"ADDRESS":"成功路５２３號","OBJECTID":498057},"geometry":{"x":180843.00999999978,"y":2540618.379999999}},{"attributes":{"ID":498085,"DIS_CODE":0,"TOWNNAME":"關廟區","LI":"下湖里","LIN":"7鄰","STREET":"下湖二街","SECT":" ","MAREA":" ","LANE":" ","ALLEY":" ","HOUSE_NO":"１００號","E_COORD97":179323.54000000001,"N_COORD97":2543148.25,"ADDRESS":"下湖二街１００號","OBJECTID":498058},"geometry":{"x":179323.54000000097,"y":2543148.2500000019}},{"attributes":{"ID":498086,"DIS_CODE":0,"TOWNNAME":"關廟區","LI":"山西里","LIN":"7鄰","STREET":"文衡路","SECT":" ","MAREA":" ","LANE":" ","ALLEY":" ","HOUSE_NO":"１４３號","E_COORD97":180905.5,"N_COORD97":2540570.4500000002,"ADDRESS":"文衡路１４３號","OBJECTID":498059},"geometry":{"x":180905.50000000093,"y":2540570.4500000011}},{"attributes":{"ID":498087,"DIS_CODE":0,"TOWNNAME":"歸仁區","LI":"南保里","LIN":"25鄰","STREET":"保興街","SECT":" ","MAREA":" ","LANE":" ","ALLEY":" ","HOUSE_NO":"６４號","E_COORD97":176516.42000000001,"N_COORD97":2541142.25,"ADDRESS":"保興街６４號","OBJECTID":498060},"geometry":{"x":176516.41999999993,"y":2541142.2500000019}},{"attributes":{"ID":498088,"DIS_CODE":0,"TOWNNAME":"歸仁區","LI":"南保里","LIN":"34鄰","STREET":"民權八街","SECT":" ","MAREA":" ","LANE":" ","ALLEY":" ","HOUSE_NO":"１１２號","E_COORD97":176746.23999999999,"N_COORD97":2541084.29,"ADDRESS":"民權八街１１２號","OBJECTID":498061},"geometry":{"x":176746.24000000115,"y":2541084.2899999991}},{"attributes":{"ID":498089,"DIS_CODE":0,"TOWNNAME":"關廟區","LI":"布袋里","LIN":"7鄰","STREET":"長富街","SECT":" ","MAREA":" ","LANE":" ","ALLEY":" ","HOUSE_NO":"３７號","E_COORD97":183597.49561899999,"N_COORD97":2534624.9571600002,"ADDRESS":"長富街３７號","OBJECTID":498062},"geometry":{"x":183597.49561900087,"y":2534624.9571640044}},{"attributes":{"ID":498090,"DIS_CODE":0,"TOWNNAME":"關廟區","LI":"龜洞里","LIN":"7鄰","STREET":"南雄南路","SECT":" ","MAREA":" ","LANE":" ","ALLEY":" ","HOUSE_NO":"７５１號","E_COORD97":183237.44,"N_COORD97":2533370.2999999998,"ADDRESS":"南雄南路７５１號","OBJECTID":498063},"geometry":{"x":183237.44000000134,"y":2533370.3000000045}},{"attributes":{"ID":498091,"DIS_CODE":0,"TOWNNAME":"關廟區","LI":"五甲里","LIN":"7鄰","STREET":"南雄路","SECT":"一段","MAREA":" ","LANE":" ","ALLEY":" ","HOUSE_NO":"９２１號","E_COORD97":181261.89000000001,"N_COORD97":2539329.2799999998,"ADDRESS":"南雄路一段９２１號","OBJECTID":498064},"geometry":{"x":181261.8900000006,"y":2539329.2800000031}},{"attributes":{"ID":498092,"DIS_CODE":0,"TOWNNAME":"關廟區","LI":"香洋里","LIN":"7鄰","STREET":"忠孝街","SECT":" ","MAREA":" ","LANE":" ","ALLEY":" ","HOUSE_NO":"８８號","E_COORD97":181009.48999999999,"N_COORD97":2540223.25,"ADDRESS":"忠孝街８８號","OBJECTID":498065},"geometry":{"x":181009.49000000115,"y":2540223.2500000019}},{"attributes":{"ID":498093,"DIS_CODE":0,"TOWNNAME":"關廟區","LI":"香洋里","LIN":"7鄰","STREET":"忠孝街","SECT":" ","MAREA":" ","LANE":" ","ALLEY":" ","HOUSE_NO":"７８號","E_COORD97":181004.09,"N_COORD97":2540205.25,"ADDRESS":"忠孝街７８號","OBJECTID":498066},"geometry":{"x":181004.08999999985,"y":2540205.2500000037}},{"attributes":{"ID":498094,"DIS_CODE":0,"TOWNNAME":"關廟區","LI":"南花里","LIN":"7鄰","STREET":"花園一街","SECT":" ","MAREA":" ","LANE":" ","ALLEY":" ","HOUSE_NO":"１２０號","E_COORD97":181880.98999999999,"N_COORD97":2540196.25,"ADDRESS":"花園一街１２０號","OBJECTID":498067},"geometry":{"x":181880.99000000115,"y":2540196.2500000019}},{"attributes":{"ID":498095,"DIS_CODE":0,"TOWNNAME":"歸仁區","LI":"南興里","LIN":"6鄰","STREET":"民生二街","SECT":" ","MAREA":" ","LANE":" ","ALLEY":" ","HOUSE_NO":"１１２號","E_COORD97":176122.14000000001,"N_COORD97":2541380.2799999998,"ADDRESS":"民生二街１１２號","OBJECTID":498068},"geometry":{"x":176122.1400000006,"y":2541380.2799999975}},{"attributes":{"ID":498096,"DIS_CODE":0,"TOWNNAME":"關廟區","LI":"北勢里","LIN":"7鄰","STREET":"北安一街","SECT":" ","MAREA":" ","LANE":" ","ALLEY":" ","HOUSE_NO":"１５１號","E_COORD97":181750.14000000001,"N_COORD97":2540484.3100000001,"ADDRESS":"北安一街１５１號","OBJECTID":498069},"geometry":{"x":181750.1400000006,"y":2540484.3100000024}},{"attributes":{"ID":498097,"DIS_CODE":0,"TOWNNAME":"關廟區","LI":"香洋里","LIN":"7鄰","STREET":"忠孝街","SECT":" ","MAREA":" ","LANE":" ","ALLEY":" ","HOUSE_NO":"６２號","E_COORD97":180994.48999999999,"N_COORD97":2540173.25,"ADDRESS":"忠孝街６２號","OBJECTID":498070},"geometry":{"x":180994.49000000022,"y":2540173.25}},{"attributes":{"ID":498098,"DIS_CODE":0,"TOWNNAME":"關廟區","LI":"新光里","LIN":"7鄰","STREET":"北寮街","SECT":" ","MAREA":" ","LANE":" ","ALLEY":" ","HOUSE_NO":"１１８號","E_COORD97":184273.67000000001,"N_COORD97":2541915.25,"ADDRESS":"北寮街１１８號","OBJECTID":498071},"geometry":{"x":184273.66999999993,"y":2541915.2500000019}},{"attributes":{"ID":498099,"DIS_CODE":0,"TOWNNAME":"關廟區","LI":"香洋里","LIN":"7鄰","STREET":"忠孝街","SECT":" ","MAREA":" ","LANE":" ","ALLEY":" ","HOUSE_NO":"７０號","E_COORD97":181000.19,"N_COORD97":2540193.25,"ADDRESS":"忠孝街７０號","OBJECTID":498072},"geometry":{"x":181000.19000000041,"y":2540193.25}},{"attributes":{"ID":498100,"DIS_CODE":0,"TOWNNAME":"關廟區","LI":"北勢里","LIN":"7鄰","STREET":"北安三街","SECT":" ","MAREA":" ","LANE":" ","ALLEY":" ","HOUSE_NO":"６號","E_COORD97":181759.14000000001,"N_COORD97":2540524.3199999998,"ADDRESS":"北安三街６號","OBJECTID":498073},"geometry":{"x":181759.13999999966,"y":2540524.3200000022}},{"attributes":{"ID":498101,"DIS_CODE":0,"TOWNNAME":"關廟區","LI":"香洋里","LIN":"7鄰","STREET":"忠孝街","SECT":" ","MAREA":" ","LANE":" ","ALLEY":" ","HOUSE_NO":"８６號","E_COORD97":181007.48999999999,"N_COORD97":2540218.25,"ADDRESS":"忠孝街８６號","OBJECTID":498074},"geometry":{"x":181007.49000000115,"y":2540218.25}},{"attributes":{"ID":498102,"DIS_CODE":0,"TOWNNAME":"關廟區","LI":"北勢里","LIN":"7鄰","STREET":"北安一街","SECT":" ","MAREA":" ","LANE":" ","ALLEY":" ","HOUSE_NO":"１５０號","E_COORD97":181716.34,"N_COORD97":2540518.3199999998,"ADDRESS":"北安一街１５０號","OBJECTID":498075},"geometry":{"x":181716.33999999892,"y":2540518.3200000022}},{"attributes":{"ID":498103,"DIS_CODE":0,"TOWNNAME":"關廟區","LI":"關廟里","LIN":"7鄰","STREET":"民生街","SECT":" ","MAREA":" ","LANE":" ","ALLEY":" ","HOUSE_NO":"１５３號","E_COORD97":180858.69,"N_COORD97":2539859.29,"ADDRESS":"民生街１５３號","OBJECTID":498076},"geometry":{"x":180858.69000000227,"y":2539859.290000001}},{"attributes":{"ID":498104,"DIS_CODE":0,"TOWNNAME":"關廟區","LI":"松腳里","LIN":"7鄰","STREET":"和平路","SECT":" ","MAREA":" ","LANE":" ","ALLEY":" ","HOUSE_NO":"２４６號","E_COORD97":181720.84,"N_COORD97":2539851.25,"ADDRESS":"和平路２４６號","OBJECTID":498077},"geometry":{"x":181720.83999999985,"y":2539851.25}},{"attributes":{"ID":498105,"DIS_CODE":0,"TOWNNAME":"關廟區","LI":"布袋里","LIN":"7鄰","STREET":"南雄南路","SECT":" ","MAREA":" ","LANE":" ","ALLEY":" ","HOUSE_NO":"４６５號","E_COORD97":183827.09,"N_COORD97":2534422.25,"ADDRESS":"南雄南路４６５號","OBJECTID":498078},"geometry":{"x":183827.09000000078,"y":2534422.2500000019}},{"attributes":{"ID":498106,"DIS_CODE":0,"TOWNNAME":"關廟區","LI":"香洋里","LIN":"7鄰","STREET":"忠孝街","SECT":" ","MAREA":" ","LANE":" ","ALLEY":" ","HOUSE_NO":"５２號","E_COORD97":180988.69,"N_COORD97":2540155.25,"ADDRESS":"忠孝街５２號","OBJECTID":498079},"geometry":{"x":180988.69000000041,"y":2540155.2500000019}},{"attributes":{"ID":498107,"DIS_CODE":0,"TOWNNAME":"關廟區","LI":"松腳里","LIN":"7鄰","STREET":"四維街","SECT":" ","MAREA":" ","LANE":" ","ALLEY":" ","HOUSE_NO":"２２８號","E_COORD97":181870.45999999999,"N_COORD97":2539932.25,"ADDRESS":"四維街２２８號","OBJECTID":498080},"geometry":{"x":181870.46000000089,"y":2539932.25}},{"attributes":{"ID":498108,"DIS_CODE":0,"TOWNNAME":"歸仁區","LI":"南興里","LIN":"26鄰","STREET":"文化二十街","SECT":" ","MAREA":" ","LANE":" ","ALLEY":" ","HOUSE_NO":"１２５號","E_COORD97":175467.23999999999,"N_COORD97":2541384.3300000001,"ADDRESS":"文化二十街１２５號","OBJECTID":498081},"geometry":{"x":175467.23999999929,"y":2541384.3300000038}},{"attributes":{"ID":498109,"DIS_CODE":0,"TOWNNAME":"歸仁區","LI":"後市里","LIN":"24鄰","STREET":"文化街","SECT":"二段","MAREA":" ","LANE":" ","ALLEY":" ","HOUSE_NO":"２９號","E_COORD97":177536.44,"N_COORD97":2541084.2599999998,"ADDRESS":"文化街二段２９號","OBJECTID":498082},"geometry":{"x":177536.44000000134,"y":2541084.2600000016}},{"attributes":{"ID":498110,"DIS_CODE":0,"TOWNNAME":"歸仁區","LI":"南興里","LIN":"17鄰","STREET":"南興街","SECT":" ","MAREA":" ","LANE":" ","ALLEY":" ","HOUSE_NO":"１７５號","E_COORD97":175770.29000000001,"N_COORD97":2541382.25,"ADDRESS":"南興街１７５號","OBJECTID":498083},"geometry":{"x":175770.2900000019,"y":2541382.2500000019}},{"attributes":{"ID":498111,"DIS_CODE":0,"TOWNNAME":"關廟區","LI":"布袋里","LIN":"7鄰","STREET":"南雄南路","SECT":" ","MAREA":" ","LANE":" ","ALLEY":" ","HOUSE_NO":"４６９號","E_COORD97":183829.98999999999,"N_COORD97":2534400.2999999998,"ADDRESS":"南雄南路４６９號","OBJECTID":498084},"geometry":{"x":183829.99000000115,"y":2534400.3000000007}},{"attributes":{"ID":498112,"DIS_CODE":0,"TOWNNAME":"關廟區","LI":"北勢里","LIN":"7鄰","STREET":"北安二街","SECT":" ","MAREA":" ","LANE":" ","ALLEY":" ","HOUSE_NO":"２號","E_COORD97":181689.34,"N_COORD97":2540519.3199999998,"ADDRESS":"北安二街２號","OBJECTID":498085},"geometry":{"x":181689.34000000171,"y":2540519.3200000003}},{"attributes":{"ID":498113,"DIS_CODE":0,"TOWNNAME":"關廟區","LI":"香洋里","LIN":"7鄰","STREET":"忠孝街","SECT":" ","MAREA":" ","LANE":" ","ALLEY":" ","HOUSE_NO":"６０號","E_COORD97":180992.98999999999,"N_COORD97":2540168.25,"ADDRESS":"忠孝街６０號","OBJECTID":498086},"geometry":{"x":180992.99000000022,"y":2540168.2500000019}},{"attributes":{"ID":498114,"DIS_CODE":0,"TOWNNAME":"關廟區","LI":"新光里","LIN":"7鄰","STREET":"北寮街","SECT":" ","MAREA":" ","LANE":" ","ALLEY":" ","HOUSE_NO":"１０６號","E_COORD97":184255.97,"N_COORD97":2541900.25,"ADDRESS":"北寮街１０６號","OBJECTID":498087},"geometry":{"x":184255.96999999974,"y":2541900.2500000037}},{"attributes":{"ID":498115,"DIS_CODE":0,"TOWNNAME":"關廟區","LI":"香洋里","LIN":"7鄰","STREET":"忠孝街","SECT":" ","MAREA":" ","LANE":" ","ALLEY":" ","HOUSE_NO":"７２號","E_COORD97":181000.59,"N_COORD97":2540197.25,"ADDRESS":"忠孝街７２號","OBJECTID":498088},"geometry":{"x":181000.58999999985,"y":2540197.25}},{"attributes":{"ID":498116,"DIS_CODE":0,"TOWNNAME":"關廟區","LI":"田中里","LIN":"7鄰","STREET":"南雄南路","SECT":" ","MAREA":" ","LANE":" ","ALLEY":" ","HOUSE_NO":"７０８號","E_COORD97":183401.04000000001,"N_COORD97":2533514.25,"ADDRESS":"南雄南路７０８號","OBJECTID":498089},"geometry":{"x":183401.04000000097,"y":2533514.25}},{"attributes":{"ID":498117,"DIS_CODE":0,"TOWNNAME":"歸仁區","LI":"南興里","LIN":"31鄰","STREET":"民生一街","SECT":" ","MAREA":" ","LANE":" ","ALLEY":" ","HOUSE_NO":"６８號","E_COORD97":176439.09,"N_COORD97":2541018.29,"ADDRESS":"民生一街６８號","OBJECTID":498090},"geometry":{"x":176439.08999999985,"y":2541018.290000001}},{"attributes":{"ID":498118,"DIS_CODE":0,"TOWNNAME":"歸仁區","LI":"南興里","LIN":"19鄰","STREET":"南興一街","SECT":" ","MAREA":" ","LANE":" ","ALLEY":" ","HOUSE_NO":"４６號","E_COORD97":175734.09,"N_COORD97":2541332.25,"ADDRESS":"南興一街４６號","OBJECTID":498091},"geometry":{"x":175734.09000000171,"y":2541332.2500000019}},{"attributes":{"ID":498119,"DIS_CODE":0,"TOWNNAME":"歸仁區","LI":"後市里","LIN":"24鄰","STREET":"文化街","SECT":"二段","MAREA":" ","LANE":" ","ALLEY":" ","HOUSE_NO":"３３號","E_COORD97":177527.23999999999,"N_COORD97":2541080.2599999998,"ADDRESS":"文化街二段３３號","OBJECTID":498092},"geometry":{"x":177527.24000000115,"y":2541080.2600000016}},{"attributes":{"ID":498120,"DIS_CODE":0,"TOWNNAME":"歸仁區","LI":"南興里","LIN":"17鄰","STREET":"南興街","SECT":" ","MAREA":" ","LANE":" ","ALLEY":" ","HOUSE_NO":"２０５號","E_COORD97":175699.48999999999,"N_COORD97":2541385.25,"ADDRESS":"南興街２０５號","OBJECTID":498093},"geometry":{"x":175699.48999999929,"y":2541385.2500000019}},{"attributes":{"ID":498121,"DIS_CODE":0,"TOWNNAME":"北區","LI":"成德里","LIN":"7鄰","STREET":"育德路","SECT":" ","MAREA":" ","LANE":" ","ALLEY":" ","HOUSE_NO":"１５３號","E_COORD97":168526.37,"N_COORD97":2545515.7400000002,"ADDRESS":"育德路１５３號","OBJECTID":498094},"geometry":{"x":168526.37000000104,"y":2545515.7400000021}},{"attributes":{"ID":498122,"DIS_CODE":0,"TOWNNAME":"北區","LI":"成德里","LIN":"7鄰","STREET":"育德路","SECT":" ","MAREA":" ","LANE":" ","ALLEY":" ","HOUSE_NO":"１５５號","E_COORD97":168528.67999999999,"N_COORD97":2545519.2000000002,"ADDRESS":"育德路１５５號","OBJECTID":498095},"geometry":{"x":168528.67999999877,"y":2545519.1999999993}},{"attributes":{"ID":498123,"DIS_CODE":0,"TOWNNAME":"北區","LI":"成德里","LIN":"7鄰","STREET":"育德路","SECT":" ","MAREA":" ","LANE":" ","ALLEY":" ","HOUSE_NO":"１５７號","E_COORD97":168531.25,"N_COORD97":2545521.6400000001,"ADDRESS":"育德路１５７號","OBJECTID":498096},"geometry":{"x":168531.25,"y":2545521.6400000006}},{"attributes":{"ID":498124,"DIS_CODE":0,"TOWNNAME":"北區","LI":"成德里","LIN":"7鄰","STREET":"育德路","SECT":" ","MAREA":" ","LANE":" ","ALLEY":" ","HOUSE_NO":"１５９號","E_COORD97":168533.82000000001,"N_COORD97":2545525.23,"ADDRESS":"育德路１５９號","OBJECTID":498097},"geometry":{"x":168533.82000000123,"y":2545525.2300000042}},{"attributes":{"ID":498125,"DIS_CODE":0,"TOWNNAME":"北區","LI":"成德里","LIN":"7鄰","STREET":"育德路","SECT":" ","MAREA":" ","LANE":" ","ALLEY":" ","HOUSE_NO":"１６１號","E_COORD97":168536.39000000001,"N_COORD97":2545529.2000000002,"ADDRESS":"育德路１６１號","OBJECTID":498098},"geometry":{"x":168536.3900000006,"y":2545529.1999999993}},{"attributes":{"ID":498126,"DIS_CODE":0,"TOWNNAME":"北區","LI":"成德里","LIN":"7鄰","STREET":"育德路","SECT":" ","MAREA":" ","LANE":" ","ALLEY":" ","HOUSE_NO":"１６５號","E_COORD97":168540.54999999999,"N_COORD97":2545540.7400000002,"ADDRESS":"育德路１６５號","OBJECTID":498099},"geometry":{"x":168540.55000000075,"y":2545540.7400000002}},{"attributes":{"ID":498127,"DIS_CODE":0,"TOWNNAME":"北區","LI":"成德里","LIN":"7鄰","STREET":"育德路","SECT":" ","MAREA":" ","LANE":" ","ALLEY":" ","HOUSE_NO":"１６７號","E_COORD97":168543.39999999999,"N_COORD97":2545544.2400000002,"ADDRESS":"育德路１６７號","OBJECTID":498100},"geometry":{"x":168543.4000000013,"y":2545544.2400000002}},{"attributes":{"ID":498128,"DIS_CODE":0,"TOWNNAME":"北區","LI":"成德里","LIN":"7鄰","STREET":"育德路","SECT":" ","MAREA":" ","LANE":" ","ALLEY":" ","HOUSE_NO":"１６９號","E_COORD97":168546.25,"N_COORD97":2545547.0899999999,"ADDRESS":"育德路１６９號","OBJECTID":498101},"geometry":{"x":168546.25000000093,"y":2545547.0900000017}},{"attributes":{"ID":498129,"DIS_CODE":0,"TOWNNAME":"北區","LI":"成德里","LIN":"7鄰","STREET":"育德路","SECT":" ","MAREA":" ","LANE":" ","ALLEY":" ","HOUSE_NO":"１７１號","E_COORD97":168549.32000000001,"N_COORD97":2545550.1600000001,"ADDRESS":"育德路１７１號","OBJECTID":498102},"geometry":{"x":168549.32000000123,"y":2545550.160000002}},{"attributes":{"ID":498130,"DIS_CODE":0,"TOWNNAME":"北區","LI":"成德里","LIN":"7鄰","STREET":"育德路","SECT":" ","MAREA":" ","LANE":" ","ALLEY":" ","HOUSE_NO":"１７３號","E_COORD97":168552.17999999999,"N_COORD97":2545553.8799999999,"ADDRESS":"育德路１７３號","OBJECTID":498103},"geometry":{"x":168552.1799999997,"y":2545553.8800000008}},{"attributes":{"ID":498131,"DIS_CODE":0,"TOWNNAME":"北區","LI":"成德里","LIN":"7鄰","STREET":"育德路","SECT":" ","MAREA":" ","LANE":" ","ALLEY":" ","HOUSE_NO":"１７５號","E_COORD97":168554.59,"N_COORD97":2545556.9500000002,"ADDRESS":"育德路１７５號","OBJECTID":498104},"geometry":{"x":168554.58999999985,"y":2545556.9500000011}},{"attributes":{"ID":498132,"DIS_CODE":0,"TOWNNAME":"北區","LI":"成德里","LIN":"7鄰","STREET":"育德路","SECT":" ","MAREA":" ","LANE":" ","ALLEY":" ","HOUSE_NO":"１２５號","E_COORD97":168493.64000000001,"N_COORD97":2545457.5299999998,"ADDRESS":"育德路１２５號","OBJECTID":498105},"geometry":{"x":168493.6400000006,"y":2545457.5300000031}},{"attributes":{"ID":498133,"DIS_CODE":0,"TOWNNAME":"歸仁區","LI":"南保里","LIN":"7鄰","STREET":"文化街","SECT":"三段","MAREA":" ","LANE":" ","ALLEY":" ","HOUSE_NO":"１４號","E_COORD97":176965.48999999999,"N_COORD97":2541247.3300000001,"ADDRESS":"文化街三段１４號","OBJECTID":498106},"geometry":{"x":176965.49000000022,"y":2541247.3300000001}},{"attributes":{"ID":498134,"DIS_CODE":0,"TOWNNAME":"歸仁區","LI":"南保里","LIN":"43鄰","STREET":"民權南路","SECT":" ","MAREA":" ","LANE":" ","ALLEY":" ","HOUSE_NO":"３２號","E_COORD97":176967.98999999999,"N_COORD97":2540761.29,"ADDRESS":"民權南路３２號","OBJECTID":498107},"geometry":{"x":176967.99000000115,"y":2540761.290000001}},{"attributes":{"ID":498135,"DIS_CODE":0,"TOWNNAME":"北區","LI":"大和里","LIN":"7鄰","STREET":"大和路","SECT":" ","MAREA":" ","LANE":" ","ALLEY":" ","HOUSE_NO":"１２６號","E_COORD97":166991.04999999999,"N_COORD97":2545774.8399999999,"ADDRESS":"大和路１２６號","OBJECTID":498108},"geometry":{"x":166991.05000000075,"y":2545774.8400000036}},{"attributes":{"ID":498136,"DIS_CODE":0,"TOWNNAME":"北區","LI":"大和里","LIN":"7鄰","STREET":"大和路","SECT":" ","MAREA":" ","LANE":" ","ALLEY":" ","HOUSE_NO":"１２８號","E_COORD97":166990.82999999999,"N_COORD97":2545778.9199999999,"ADDRESS":"大和路１２８號","OBJECTID":498109},"geometry":{"x":166990.83000000101,"y":2545778.9200000018}},{"attributes":{"ID":498137,"DIS_CODE":0,"TOWNNAME":"北區","LI":"大和里","LIN":"7鄰","STREET":"大和路","SECT":" ","MAREA":" ","LANE":" ","ALLEY":" ","HOUSE_NO":"１３２號","E_COORD97":166991.38,"N_COORD97":2545788.0800000001,"ADDRESS":"大和路１３２號","OBJECTID":498110},"geometry":{"x":166991.37999999989,"y":2545788.0800000019}},{"attributes":{"ID":498138,"DIS_CODE":0,"TOWNNAME":"北區","LI":"大和里","LIN":"7鄰","STREET":"大和路","SECT":" ","MAREA":" ","LANE":" ","ALLEY":" ","HOUSE_NO":"１３６號","E_COORD97":166990.5,"N_COORD97":2545792.73,"ADDRESS":"大和路１３６號","OBJECTID":498111},"geometry":{"x":166990.5,"y":2545792.7299999986}},{"attributes":{"ID":498139,"DIS_CODE":0,"TOWNNAME":"北區","LI":"大和里","LIN":"7鄰","STREET":"大和路","SECT":" ","MAREA":" ","LANE":" ","ALLEY":" ","HOUSE_NO":"１３８之１號","E_COORD97":166988.39999999999,"N_COORD97":2545801.1200000001,"ADDRESS":"大和路１３８之１號","OBJECTID":498112},"geometry":{"x":166988.40000000037,"y":2545801.1200000048}},{"attributes":{"ID":498140,"DIS_CODE":0,"TOWNNAME":"北區","LI":"大和里","LIN":"7鄰","STREET":"大和路","SECT":" ","MAREA":" ","LANE":" ","ALLEY":" ","HOUSE_NO":"１３８號","E_COORD97":166989.17000000001,"N_COORD97":2545797.1400000001,"ADDRESS":"大和路１３８號","OBJECTID":498113},"geometry":{"x":166989.16999999993,"y":2545797.1400000043}},{"attributes":{"ID":498141,"DIS_CODE":0,"TOWNNAME":"北區","LI":"大和里","LIN":"7鄰","STREET":"大和路","SECT":" ","MAREA":" ","LANE":" ","ALLEY":" ","HOUSE_NO":"１４２號","E_COORD97":166988.07000000001,"N_COORD97":2545806.21,"ADDRESS":"大和路１４２號","OBJECTID":498114},"geometry":{"x":166988.07000000123,"y":2545806.2100000009}},{"attributes":{"ID":498142,"DIS_CODE":0,"TOWNNAME":"北區","LI":"大和里","LIN":"7鄰","STREET":"大和路","SECT":" ","MAREA":" ","LANE":" ","ALLEY":" ","HOUSE_NO":"１４６號","E_COORD97":166987.51000000001,"N_COORD97":2545811.0299999998,"ADDRESS":"大和路１４６號","OBJECTID":498115},"geometry":{"x":166987.51000000164,"y":2545811.0300000012}},{"attributes":{"ID":498143,"DIS_CODE":0,"TOWNNAME":"北區","LI":"大和里","LIN":"7鄰","STREET":"大和路","SECT":" ","MAREA":" ","LANE":" ","ALLEY":" ","HOUSE_NO":"１４８號","E_COORD97":166987,"N_COORD97":2545815.6600000001,"ADDRESS":"大和路１４８號","OBJECTID":498116},"geometry":{"x":166987,"y":2545815.6600000001}},{"attributes":{"ID":498144,"DIS_CODE":0,"TOWNNAME":"北區","LI":"大和里","LIN":"7鄰","STREET":"大和路","SECT":" ","MAREA":" ","LANE":" ","ALLEY":" ","HOUSE_NO":"１５０號","E_COORD97":166986.56,"N_COORD97":2545820.0699999998,"ADDRESS":"大和路１５０號","OBJECTID":498117},"geometry":{"x":166986.55999999959,"y":2545820.0700000003}},{"attributes":{"ID":498145,"DIS_CODE":0,"TOWNNAME":"北區","LI":"大和里","LIN":"7鄰","STREET":"大和路","SECT":" ","MAREA":" ","LANE":" ","ALLEY":" ","HOUSE_NO":"１５２號","E_COORD97":166986.23000000001,"N_COORD97":2545824.6000000001,"ADDRESS":"大和路１５２號","OBJECTID":498118},"geometry":{"x":166986.23000000045,"y":2545824.6000000015}},{"attributes":{"ID":498146,"DIS_CODE":0,"TOWNNAME":"北區","LI":"大和里","LIN":"7鄰","STREET":"大和路","SECT":" ","MAREA":" ","LANE":" ","ALLEY":" ","HOUSE_NO":"１５６號","E_COORD97":166985.67999999999,"N_COORD97":2545828.79,"ADDRESS":"大和路１５６號","OBJECTID":498119},"geometry":{"x":166985.6799999997,"y":2545828.790000001}},{"attributes":{"ID":498147,"DIS_CODE":0,"TOWNNAME":"北區","LI":"大和里","LIN":"7鄰","STREET":"大和路","SECT":" ","MAREA":" ","LANE":" ","ALLEY":" ","HOUSE_NO":"１５８號","E_COORD97":166985.23999999999,"N_COORD97":2545833.5299999998,"ADDRESS":"大和路１５８號","OBJECTID":498120},"geometry":{"x":166985.24000000115,"y":2545833.5299999975}},{"attributes":{"ID":498148,"DIS_CODE":0,"TOWNNAME":"北區","LI":"大和里","LIN":"7鄰","STREET":"大和路","SECT":" ","MAREA":" ","LANE":" ","ALLEY":" ","HOUSE_NO":"１６０號","E_COORD97":166985.37,"N_COORD97":2545838.0800000001,"ADDRESS":"大和路１６０號","OBJECTID":498121},"geometry":{"x":166985.37000000197,"y":2545838.0800000019}},{"attributes":{"ID":498149,"DIS_CODE":0,"TOWNNAME":"北區","LI":"重興里","LIN":"3鄰","STREET":"東豐路","SECT":" ","MAREA":" ","LANE":"３０５巷","ALLEY":"８６弄","HOUSE_NO":"６號","E_COORD97":170475.16,"N_COORD97":2545006.7799999998,"ADDRESS":"東豐路３０５巷８６弄６號","OBJECTID":498122},"geometry":{"x":170475.16000000015,"y":2545006.7799999993}},{"attributes":{"ID":498150,"DIS_CODE":0,"TOWNNAME":"北區","LI":"大和里","LIN":"7鄰","STREET":"大和路","SECT":" ","MAREA":" ","LANE":" ","ALLEY":" ","HOUSE_NO":"１６２號","E_COORD97":166985.23999999999,"N_COORD97":2545842.6299999999,"ADDRESS":"大和路１６２號","OBJECTID":498123},"geometry":{"x":166985.24000000115,"y":2545842.6299999971}},{"attributes":{"ID":498151,"DIS_CODE":0,"TOWNNAME":"北區","LI":"大和里","LIN":"7鄰","STREET":"大和路","SECT":" ","MAREA":" ","LANE":" ","ALLEY":" ","HOUSE_NO":"１６６號","E_COORD97":166984.84,"N_COORD97":2545846.5899999999,"ADDRESS":"大和路１６６號","OBJECTID":498124},"geometry":{"x":166984.83999999985,"y":2545846.5899999999}},{"attributes":{"ID":498152,"DIS_CODE":0,"TOWNNAME":"北區","LI":"大和里","LIN":"7鄰","STREET":"大和路","SECT":" ","MAREA":" ","LANE":" ","ALLEY":" ","HOUSE_NO":"１６８號","E_COORD97":166984.70000000001,"N_COORD97":2545851.6099999999,"ADDRESS":"大和路１６８號","OBJECTID":498125},"geometry":{"x":166984.69999999925,"y":2545851.6100000013}},{"attributes":{"ID":498153,"DIS_CODE":0,"TOWNNAME":"北區","LI":"大和里","LIN":"7鄰","STREET":"大和路","SECT":" ","MAREA":" ","LANE":" ","ALLEY":" ","HOUSE_NO":"１８２號","E_COORD97":166988.20000000001,"N_COORD97":2545883.7799999998,"ADDRESS":"大和路１８２號","OBJECTID":498126},"geometry":{"x":166988.20000000205,"y":2545883.7800000012}},{"attributes":{"ID":498154,"DIS_CODE":0,"TOWNNAME":"北區","LI":"大和里","LIN":"7鄰","STREET":"大和路","SECT":" ","MAREA":" ","LANE":" ","ALLEY":" ","HOUSE_NO":"２１２號","E_COORD97":166979.17999999999,"N_COORD97":2545914.2999999998,"ADDRESS":"大和路２１２號","OBJECTID":498127},"geometry":{"x":166979.1799999997,"y":2545914.3000000007}},{"attributes":{"ID":498155,"DIS_CODE":0,"TOWNNAME":"北區","LI":"大和里","LIN":"7鄰","STREET":"大和路","SECT":" ","MAREA":" ","LANE":" ","ALLEY":" ","HOUSE_NO":"２１６號","E_COORD97":166978.63,"N_COORD97":2545918.96,"ADDRESS":"大和路２１６號","OBJECTID":498128},"geometry":{"x":166978.63000000082,"y":2545918.9600000028}},{"attributes":{"ID":498156,"DIS_CODE":0,"TOWNNAME":"北區","LI":"大和里","LIN":"7鄰","STREET":"大和路","SECT":" ","MAREA":" ","LANE":" ","ALLEY":" ","HOUSE_NO":"２１８號","E_COORD97":166978.45000000001,"N_COORD97":2545923.25,"ADDRESS":"大和路２１８號","OBJECTID":498129},"geometry":{"x":166978.45000000112,"y":2545923.25}},{"attributes":{"ID":498157,"DIS_CODE":0,"TOWNNAME":"北區","LI":"大和里","LIN":"7鄰","STREET":"大和路","SECT":" ","MAREA":" ","LANE":" ","ALLEY":" ","HOUSE_NO":"２２０號","E_COORD97":166978.26000000001,"N_COORD97":2545927.6600000001,"ADDRESS":"大和路２２０號","OBJECTID":498130},"geometry":{"x":166978.25999999978,"y":2545927.6600000001}},{"attributes":{"ID":498158,"DIS_CODE":0,"TOWNNAME":"北區","LI":"大和里","LIN":"7鄰","STREET":"大和路","SECT":" ","MAREA":" ","LANE":" ","ALLEY":" ","HOUSE_NO":"２２２號","E_COORD97":166977.95999999999,"N_COORD97":2545932.1000000001,"ADDRESS":"大和路２２２號","OBJECTID":498131},"geometry":{"x":166977.96000000089,"y":2545932.1000000034}},{"attributes":{"ID":498159,"DIS_CODE":0,"TOWNNAME":"北區","LI":"大和里","LIN":"7鄰","STREET":"大和路","SECT":" ","MAREA":" ","LANE":" ","ALLEY":" ","HOUSE_NO":"２２６號","E_COORD97":166977.45999999999,"N_COORD97":2545936.5899999999,"ADDRESS":"大和路２２６號","OBJECTID":498132},"geometry":{"x":166977.45999999996,"y":2545936.5900000017}},{"attributes":{"ID":498160,"DIS_CODE":0,"TOWNNAME":"北區","LI":"大和里","LIN":"7鄰","STREET":"大和路","SECT":" ","MAREA":" ","LANE":" ","ALLEY":" ","HOUSE_NO":"２２８號","E_COORD97":166977.16,"N_COORD97":2545941.2400000002,"ADDRESS":"大和路２２８號","OBJECTID":498133},"geometry":{"x":166977.16000000108,"y":2545941.2400000002}},{"attributes":{"ID":498161,"DIS_CODE":0,"TOWNNAME":"北區","LI":"大和里","LIN":"7鄰","STREET":"大和路","SECT":" ","MAREA":" ","LANE":" ","ALLEY":" ","HOUSE_NO":"２３０號","E_COORD97":166976.73000000001,"N_COORD97":2545945.8999999999,"ADDRESS":"大和路２３０號","OBJECTID":498134},"geometry":{"x":166976.73000000138,"y":2545945.9000000022}},{"attributes":{"ID":498162,"DIS_CODE":0,"TOWNNAME":"北區","LI":"大和里","LIN":"7鄰","STREET":"大和路","SECT":" ","MAREA":" ","LANE":" ","ALLEY":" ","HOUSE_NO":"２３２號","E_COORD97":166976.54000000001,"N_COORD97":2545949.6600000001,"ADDRESS":"大和路２３２號","OBJECTID":498135},"geometry":{"x":166976.54000000004,"y":2545949.660000002}},{"attributes":{"ID":498163,"DIS_CODE":0,"TOWNNAME":"北區","LI":"大和里","LIN":"7鄰","STREET":"大和路","SECT":" ","MAREA":" ","LANE":" ","ALLEY":" ","HOUSE_NO":"２３８號","E_COORD97":166976.23999999999,"N_COORD97":2545959.1800000002,"ADDRESS":"大和路２３８號","OBJECTID":498136},"geometry":{"x":166976.24000000209,"y":2545959.1800000016}},{"attributes":{"ID":498164,"DIS_CODE":0,"TOWNNAME":"北區","LI":"大和里","LIN":"7鄰","STREET":"大和路","SECT":" ","MAREA":" ","LANE":" ","ALLEY":" ","HOUSE_NO":"２４０號","E_COORD97":166975.69,"N_COORD97":2545963.23,"ADDRESS":"大和路２４０號","OBJECTID":498137},"geometry":{"x":166975.69000000134,"y":2545963.2300000023}},{"attributes":{"ID":498165,"DIS_CODE":0,"TOWNNAME":"北區","LI":"大和里","LIN":"7鄰","STREET":"大和路","SECT":" ","MAREA":" ","LANE":" ","ALLEY":" ","HOUSE_NO":"２４２號","E_COORD97":166975.44,"N_COORD97":2545967.9700000002,"ADDRESS":"大和路２４２號","OBJECTID":498138},"geometry":{"x":166975.44000000134,"y":2545967.9700000044}},{"attributes":{"ID":498166,"DIS_CODE":0,"TOWNNAME":"北區","LI":"大和里","LIN":"7鄰","STREET":"大和路","SECT":" ","MAREA":" ","LANE":" ","ALLEY":" ","HOUSE_NO":"２４６號","E_COORD97":166975.56,"N_COORD97":2545972.5600000001,"ADDRESS":"大和路２４６號","OBJECTID":498139},"geometry":{"x":166975.56000000052,"y":2545972.5600000005}},{"attributes":{"ID":498167,"DIS_CODE":0,"TOWNNAME":"北區","LI":"大和里","LIN":"7鄰","STREET":"大和路","SECT":" ","MAREA":" ","LANE":" ","ALLEY":" ","HOUSE_NO":"２４８號","E_COORD97":166975.19,"N_COORD97":2545976.6699999999,"ADDRESS":"大和路２４８號","OBJECTID":498140},"geometry":{"x":166975.19000000134,"y":2545976.6700000018}},{"attributes":{"ID":498168,"DIS_CODE":0,"TOWNNAME":"歸仁區","LI":"南保里","LIN":"40鄰","STREET":"保興街","SECT":" ","MAREA":" ","LANE":" ","ALLEY":" ","HOUSE_NO":"４８號","E_COORD97":176513.12,"N_COORD97":2541092.25,"ADDRESS":"保興街４８號","OBJECTID":498141},"geometry":{"x":176513.12000000011,"y":2541092.25}},{"attributes":{"ID":498169,"DIS_CODE":0,"TOWNNAME":"北區","LI":"大和里","LIN":"7鄰","STREET":"大和路","SECT":" ","MAREA":" ","LANE":" ","ALLEY":" ","HOUSE_NO":"２５０號","E_COORD97":166974.45999999999,"N_COORD97":2545981.2200000002,"ADDRESS":"大和路２５０號","OBJECTID":498142},"geometry":{"x":166974.46000000183,"y":2545981.2200000025}},{"attributes":{"ID":498170,"DIS_CODE":0,"TOWNNAME":"北區","LI":"大和里","LIN":"7鄰","STREET":"大和路","SECT":" ","MAREA":" ","LANE":" ","ALLEY":" ","HOUSE_NO":"２５２號","E_COORD97":166974.32999999999,"N_COORD97":2545985.8300000001,"ADDRESS":"大和路２５２號","OBJECTID":498143},"geometry":{"x":166974.33000000101,"y":2545985.8300000019}},{"attributes":{"ID":498171,"DIS_CODE":0,"TOWNNAME":"北區","LI":"大和里","LIN":"7鄰","STREET":"大和路","SECT":" ","MAREA":" ","LANE":" ","ALLEY":" ","HOUSE_NO":"２５６號","E_COORD97":166974.03,"N_COORD97":2545989.9300000002,"ADDRESS":"大和路２５６號","OBJECTID":498144},"geometry":{"x":166974.03000000026,"y":2545989.9299999997}},{"attributes":{"ID":498172,"DIS_CODE":0,"TOWNNAME":"北區","LI":"大和里","LIN":"7鄰","STREET":"大港街","SECT":" ","MAREA":" ","LANE":" ","ALLEY":" ","HOUSE_NO":"７３號","E_COORD97":167009.42999999999,"N_COORD97":2545995.6000000001,"ADDRESS":"大港街７３號","OBJECTID":498145},"geometry":{"x":167009.4299999997,"y":2545995.5999999996}},{"attributes":{"ID":498173,"DIS_CODE":0,"TOWNNAME":"北區","LI":"大和里","LIN":"7鄰","STREET":"大港街","SECT":" ","MAREA":" ","LANE":" ","ALLEY":" ","HOUSE_NO":"７５號","E_COORD97":167003.85000000001,"N_COORD97":2545995.3599999999,"ADDRESS":"大港街７５號","OBJECTID":498146},"geometry":{"x":167003.85000000056,"y":2545995.3600000013}},{"attributes":{"ID":498174,"DIS_CODE":0,"TOWNNAME":"北區","LI":"大和里","LIN":"7鄰","STREET":"大港街","SECT":" ","MAREA":" ","LANE":" ","ALLEY":" ","HOUSE_NO":"７７號","E_COORD97":166998.32999999999,"N_COORD97":2545995.1099999999,"ADDRESS":"大港街７７號","OBJECTID":498147},"geometry":{"x":166998.33000000007,"y":2545995.1099999994}},{"attributes":{"ID":498175,"DIS_CODE":0,"TOWNNAME":"北區","LI":"大和里","LIN":"7鄰","STREET":"大港街","SECT":" ","MAREA":" ","LANE":" ","ALLEY":" ","HOUSE_NO":"７９號","E_COORD97":166992.87,"N_COORD97":2545994.9300000002,"ADDRESS":"大港街７９號","OBJECTID":498148},"geometry":{"x":166992.87000000104,"y":2545994.9300000016}},{"attributes":{"ID":498176,"DIS_CODE":0,"TOWNNAME":"麻豆區","LI":"北勢里","LIN":"7鄰","STREET":"新生北路","SECT":" ","MAREA":" ","LANE":" ","ALLEY":" ","HOUSE_NO":"４８０號","E_COORD97":172808.75,"N_COORD97":2565516.6699999999,"ADDRESS":"新生北路４８０號","OBJECTID":498149},"geometry":{"x":172808.75,"y":2565516.6699999999}},{"attributes":{"ID":498177,"DIS_CODE":0,"TOWNNAME":"麻豆區","LI":"北勢里","LIN":"7鄰","STREET":"新生北路","SECT":" ","MAREA":" ","LANE":" ","ALLEY":" ","HOUSE_NO":"５１７號","E_COORD97":172946.29999999999,"N_COORD97":2565547.3799999999,"ADDRESS":"新生北路５１７號","OBJECTID":498150},"geometry":{"x":172946.30000000075,"y":2565547.3800000008}},{"attributes":{"ID":498178,"DIS_CODE":0,"TOWNNAME":"麻豆區","LI":"北勢里","LIN":"7鄰","STREET":"新生北路","SECT":" ","MAREA":" ","LANE":" ","ALLEY":" ","HOUSE_NO":"５３７號","E_COORD97":173013.38,"N_COORD97":2565531.8900000001,"ADDRESS":"新生北路５３７號","OBJECTID":498151},"geometry":{"x":173013.38000000082,"y":2565531.8900000025}},{"attributes":{"ID":498179,"DIS_CODE":0,"TOWNNAME":"麻豆區","LI":"北勢里","LIN":"7鄰","STREET":"新生北路","SECT":" ","MAREA":" ","LANE":" ","ALLEY":" ","HOUSE_NO":"５４７號","E_COORD97":173029.76000000001,"N_COORD97":2565530.5699999998,"ADDRESS":"新生北路５４７號","OBJECTID":498152},"geometry":{"x":173029.76000000071,"y":2565530.5700000022}},{"attributes":{"ID":498180,"DIS_CODE":0,"TOWNNAME":"麻豆區","LI":"北勢里","LIN":"7鄰","STREET":"新生北路","SECT":" ","MAREA":" ","LANE":" ","ALLEY":" ","HOUSE_NO":"５４９號","E_COORD97":173038.10000000001,"N_COORD97":2565529.4399999999,"ADDRESS":"新生北路５４９號","OBJECTID":498153},"geometry":{"x":173038.09999999963,"y":2565529.4400000032}},{"attributes":{"ID":498181,"DIS_CODE":0,"TOWNNAME":"麻豆區","LI":"北勢里","LIN":"7鄰","STREET":"新生北路","SECT":" ","MAREA":" ","LANE":" ","ALLEY":" ","HOUSE_NO":"５５１號","E_COORD97":173106.56,"N_COORD97":2565555.3199999998,"ADDRESS":"新生北路５５１號","OBJECTID":498154},"geometry":{"x":173106.56000000145,"y":2565555.3200000022}},{"attributes":{"ID":498182,"DIS_CODE":0,"TOWNNAME":"麻豆區","LI":"北勢里","LIN":"7鄰","STREET":"新生北路","SECT":" ","MAREA":" ","LANE":" ","ALLEY":" ","HOUSE_NO":"５８１號之５","E_COORD97":173256.73999999999,"N_COORD97":2565530.77,"ADDRESS":"新生北路５８１號之５","OBJECTID":498155},"geometry":{"x":173256.74000000209,"y":2565530.7700000033}},{"attributes":{"ID":498183,"DIS_CODE":0,"TOWNNAME":"麻豆區","LI":"北勢里","LIN":"7鄰","STREET":"新生北路","SECT":" ","MAREA":" ","LANE":" ","ALLEY":" ","HOUSE_NO":"５８１號","E_COORD97":173240.42000000001,"N_COORD97":2565527.3799999999,"ADDRESS":"新生北路５８１號","OBJECTID":498156},"geometry":{"x":173240.42000000086,"y":2565527.3800000008}},{"attributes":{"ID":498184,"DIS_CODE":0,"TOWNNAME":"麻豆區","LI":"北勢里","LIN":"7鄰","STREET":"新生北路","SECT":" ","MAREA":" ","LANE":" ","ALLEY":" ","HOUSE_NO":"５９１號","E_COORD97":173265.23999999999,"N_COORD97":2565530.0299999998,"ADDRESS":"新生北路５９１號","OBJECTID":498157},"geometry":{"x":173265.24000000209,"y":2565530.0300000012}},{"attributes":{"ID":498185,"DIS_CODE":0,"TOWNNAME":"北區","LI":"成功里","LIN":"3鄰","STREET":"北安路","SECT":"一段","MAREA":" ","LANE":"９４巷","ALLEY":"５弄","HOUSE_NO":"１號","E_COORD97":169113.72,"N_COORD97":2546424.27,"ADDRESS":"北安路一段９４巷５弄１號","OBJECTID":498158},"geometry":{"x":169113.72000000067,"y":2546424.2699999996}},{"attributes":{"ID":498186,"DIS_CODE":0,"TOWNNAME":"麻豆區","LI":"新建里","LIN":"7鄰","STREET":"新生南路","SECT":" ","MAREA":" ","LANE":" ","ALLEY":" ","HOUSE_NO":"１３號","E_COORD97":172338.04999999999,"N_COORD97":2564890.27,"ADDRESS":"新生南路１３號","OBJECTID":498159},"geometry":{"x":172338.04999999981,"y":2564890.2700000014}},{"attributes":{"ID":498187,"DIS_CODE":0,"TOWNNAME":"麻豆區","LI":"新建里","LIN":"7鄰","STREET":"新生南路","SECT":" ","MAREA":" ","LANE":" ","ALLEY":" ","HOUSE_NO":"１５號","E_COORD97":172338.23000000001,"N_COORD97":2564885.6699999999,"ADDRESS":"新生南路１５號","OBJECTID":498160},"geometry":{"x":172338.22999999952,"y":2564885.6700000018}},{"attributes":{"ID":498188,"DIS_CODE":0,"TOWNNAME":"麻豆區","LI":"興農里","LIN":"7鄰","STREET":"新生南路","SECT":" ","MAREA":" ","LANE":" ","ALLEY":" ","HOUSE_NO":"２２２號","E_COORD97":172295.35000000001,"N_COORD97":2564413.77,"ADDRESS":"新生南路２２２號","OBJECTID":498161},"geometry":{"x":172295.34999999963,"y":2564413.7699999996}},{"attributes":{"ID":498189,"DIS_CODE":0,"TOWNNAME":"歸仁區","LI":"南保里","LIN":"20鄰","STREET":"文化街","SECT":"三段","MAREA":" ","LANE":" ","ALLEY":" ","HOUSE_NO":"６９號","E_COORD97":176876.19,"N_COORD97":2541232.3300000001,"ADDRESS":"文化街三段６９號","OBJECTID":498162},"geometry":{"x":176876.19000000041,"y":2541232.3300000019}},{"attributes":{"ID":498190,"DIS_CODE":0,"TOWNNAME":"歸仁區","LI":"後市里","LIN":"4鄰","STREET":"大吉街","SECT":" ","MAREA":" ","LANE":" ","ALLEY":" ","HOUSE_NO":"２３號","E_COORD97":177221.56,"N_COORD97":2540742.25,"ADDRESS":"大吉街２３號","OBJECTID":498163},"geometry":{"x":177221.55999999959,"y":2540742.2500000019}},{"attributes":{"ID":498191,"DIS_CODE":0,"TOWNNAME":"歸仁區","LI":"南興里","LIN":"24鄰","STREET":"文化二十街","SECT":" ","MAREA":" ","LANE":" ","ALLEY":" ","HOUSE_NO":"９６號","E_COORD97":175504.69,"N_COORD97":2541324.3300000001,"ADDRESS":"文化二十街９６號","OBJECTID":498164},"geometry":{"x":175504.69000000041,"y":2541324.3300000019}},{"attributes":{"ID":498192,"DIS_CODE":0,"TOWNNAME":"歸仁區","LI":"後市里","LIN":"8鄰","STREET":"中山五街","SECT":" ","MAREA":" ","LANE":" ","ALLEY":" ","HOUSE_NO":"３７號","E_COORD97":177102.69,"N_COORD97":2540715.25,"ADDRESS":"中山五街３７號","OBJECTID":498165},"geometry":{"x":177102.69000000134,"y":2540715.25}},{"attributes":{"ID":498193,"DIS_CODE":0,"TOWNNAME":"麻豆區","LI":"興農里","LIN":"7鄰","STREET":"新生南路","SECT":" ","MAREA":" ","LANE":" ","ALLEY":" ","HOUSE_NO":"２２６號","E_COORD97":172315.14000000001,"N_COORD97":2564411.4500000002,"ADDRESS":"新生南路２２６號","OBJECTID":498166},"geometry":{"x":172315.1400000006,"y":2564411.4500000011}},{"attributes":{"ID":498194,"DIS_CODE":0,"TOWNNAME":"麻豆區","LI":"興農里","LIN":"7鄰","STREET":"新生南路","SECT":" ","MAREA":" ","LANE":" ","ALLEY":" ","HOUSE_NO":"２４６號","E_COORD97":172318.34,"N_COORD97":2564376.54,"ADDRESS":"新生南路２４６號","OBJECTID":498167},"geometry":{"x":172318.34000000171,"y":2564376.540000001}},{"attributes":{"ID":498195,"DIS_CODE":0,"TOWNNAME":"麻豆區","LI":"興農里","LIN":"7鄰","STREET":"新生南路","SECT":" ","MAREA":" ","LANE":" ","ALLEY":" ","HOUSE_NO":"２４８號","E_COORD97":172318.91,"N_COORD97":2564372.1699999999,"ADDRESS":"新生南路２４８號","OBJECTID":498168},"geometry":{"x":172318.91000000108,"y":2564372.1700000037}},{"attributes":{"ID":498196,"DIS_CODE":0,"TOWNNAME":"麻豆區","LI":"興農里","LIN":"7鄰","STREET":"新生南路","SECT":" ","MAREA":" ","LANE":" ","ALLEY":" ","HOUSE_NO":"２５０號","E_COORD97":172319.26999999999,"N_COORD97":2564367.4199999999,"ADDRESS":"新生南路２５０號","OBJECTID":498169},"geometry":{"x":172319.27000000048,"y":2564367.4200000018}},{"attributes":{"ID":498197,"DIS_CODE":0,"TOWNNAME":"麻豆區","LI":"興農里","LIN":"7鄰","STREET":"新生南路","SECT":" ","MAREA":" ","LANE":" ","ALLEY":" ","HOUSE_NO":"２５２號","E_COORD97":172319.53,"N_COORD97":2564362.9700000002,"ADDRESS":"新生南路２５２號","OBJECTID":498170},"geometry":{"x":172319.53000000119,"y":2564362.9700000007}},{"attributes":{"ID":498198,"DIS_CODE":0,"TOWNNAME":"麻豆區","LI":"興農里","LIN":"7鄰","STREET":"新生南路","SECT":" ","MAREA":" ","LANE":" ","ALLEY":" ","HOUSE_NO":"２５４號","E_COORD97":172324.66,"N_COORD97":2564356.8500000001,"ADDRESS":"新生南路２５４號","OBJECTID":498171},"geometry":{"x":172324.66000000015,"y":2564356.8500000034}},{"attributes":{"ID":498199,"DIS_CODE":0,"TOWNNAME":"麻豆區","LI":"興農里","LIN":"7鄰","STREET":"新生南路","SECT":" ","MAREA":" ","LANE":" ","ALLEY":" ","HOUSE_NO":"２５６號","E_COORD97":172324.22,"N_COORD97":2564352.98,"ADDRESS":"新生南路２５６號","OBJECTID":498172},"geometry":{"x":172324.22000000067,"y":2564352.9800000004}},{"attributes":{"ID":498200,"DIS_CODE":0,"TOWNNAME":"麻豆區","LI":"興農里","LIN":"7鄰","STREET":"新生南路","SECT":" ","MAREA":" ","LANE":" ","ALLEY":" ","HOUSE_NO":"２５８號","E_COORD97":172324.09,"N_COORD97":2564347.5600000001,"ADDRESS":"新生南路２５８號","OBJECTID":498173},"geometry":{"x":172324.09000000078,"y":2564347.5600000024}},{"attributes":{"ID":498201,"DIS_CODE":0,"TOWNNAME":"麻豆區","LI":"興農里","LIN":"7鄰","STREET":"新生南路","SECT":" ","MAREA":" ","LANE":" ","ALLEY":" ","HOUSE_NO":"２６０號","E_COORD97":172324.29999999999,"N_COORD97":2564342.8300000001,"ADDRESS":"新生南路２６０號","OBJECTID":498174},"geometry":{"x":172324.30000000075,"y":2564342.8300000001}},{"attributes":{"ID":498202,"DIS_CODE":0,"TOWNNAME":"麻豆區","LI":"興農里","LIN":"7鄰","STREET":"新生南路","SECT":" ","MAREA":" ","LANE":" ","ALLEY":" ","HOUSE_NO":"２６４號","E_COORD97":172321.98000000001,"N_COORD97":2564332.1299999999,"ADDRESS":"新生南路２６４號","OBJECTID":498175},"geometry":{"x":172321.98000000138,"y":2564332.1300000008}},{"attributes":{"ID":498203,"DIS_CODE":0,"TOWNNAME":"麻豆區","LI":"興農里","LIN":"7鄰","STREET":"新生南路","SECT":" ","MAREA":" ","LANE":" ","ALLEY":" ","HOUSE_NO":"２６６號","E_COORD97":172322.14000000001,"N_COORD97":2564328.3399999999,"ADDRESS":"新生南路２６６號","OBJECTID":498176},"geometry":{"x":172322.13999999966,"y":2564328.3400000017}},{"attributes":{"ID":498204,"DIS_CODE":0,"TOWNNAME":"麻豆區","LI":"興農里","LIN":"7鄰","STREET":"新生南路","SECT":" ","MAREA":" ","LANE":" ","ALLEY":" ","HOUSE_NO":"２６８號","E_COORD97":172322.45999999999,"N_COORD97":2564324.27,"ADDRESS":"新生南路２６８號","OBJECTID":498177},"geometry":{"x":172322.45999999996,"y":2564324.2700000014}},{"attributes":{"ID":498205,"DIS_CODE":0,"TOWNNAME":"麻豆區","LI":"興農里","LIN":"7鄰","STREET":"新生南路","SECT":" ","MAREA":" ","LANE":" ","ALLEY":" ","HOUSE_NO":"２７０號","E_COORD97":172322.38,"N_COORD97":2564319.6600000001,"ADDRESS":"新生南路２７０號","OBJECTID":498178},"geometry":{"x":172322.37999999989,"y":2564319.660000002}},{"attributes":{"ID":498206,"DIS_CODE":0,"TOWNNAME":"麻豆區","LI":"興農里","LIN":"7鄰","STREET":"新生南路","SECT":" ","MAREA":" ","LANE":" ","ALLEY":" ","HOUSE_NO":"２７２號","E_COORD97":172322.51000000001,"N_COORD97":2564315.8700000001,"ADDRESS":"新生南路２７２號","OBJECTID":498179},"geometry":{"x":172322.51000000071,"y":2564315.8700000029}},{"attributes":{"ID":498207,"DIS_CODE":0,"TOWNNAME":"麻豆區","LI":"興農里","LIN":"7鄰","STREET":"新生南路","SECT":" ","MAREA":" ","LANE":" ","ALLEY":" ","HOUSE_NO":"２７４號","E_COORD97":172323.28,"N_COORD97":2564311.5,"ADDRESS":"新生南路２７４號","OBJECTID":498180},"geometry":{"x":172323.28000000119,"y":2564311.5}},{"attributes":{"ID":498208,"DIS_CODE":0,"TOWNNAME":"麻豆區","LI":"興農里","LIN":"7鄰","STREET":"新生南路","SECT":" ","MAREA":" ","LANE":" ","ALLEY":" ","HOUSE_NO":"２７６號","E_COORD97":172322.97,"N_COORD97":2564307.3100000001,"ADDRESS":"新生南路２７６號","OBJECTID":498181},"geometry":{"x":172322.97000000067,"y":2564307.3100000042}},{"attributes":{"ID":498209,"DIS_CODE":0,"TOWNNAME":"麻豆區","LI":"興農里","LIN":"7鄰","STREET":"新生南路","SECT":" ","MAREA":" ","LANE":" ","ALLEY":" ","HOUSE_NO":"２７８號","E_COORD97":172323.28,"N_COORD97":2564303.1299999999,"ADDRESS":"新生南路２７８號","OBJECTID":498182},"geometry":{"x":172323.28000000119,"y":2564303.129999999}},{"attributes":{"ID":498210,"DIS_CODE":0,"TOWNNAME":"麻豆區","LI":"興農里","LIN":"7鄰","STREET":"新生南路","SECT":" ","MAREA":" ","LANE":" ","ALLEY":" ","HOUSE_NO":"２８０號","E_COORD97":172323.39999999999,"N_COORD97":2564299.1600000001,"ADDRESS":"新生南路２８０號","OBJECTID":498183},"geometry":{"x":172323.39999999944,"y":2564299.160000002}},{"attributes":{"ID":498211,"DIS_CODE":0,"TOWNNAME":"麻豆區","LI":"興農里","LIN":"7鄰","STREET":"新生南路","SECT":" ","MAREA":" ","LANE":" ","ALLEY":" ","HOUSE_NO":"２８２號","E_COORD97":172323.97,"N_COORD97":2564295.0800000001,"ADDRESS":"新生南路２８２號","OBJECTID":498184},"geometry":{"x":172323.96999999881,"y":2564295.0800000038}},{"attributes":{"ID":498212,"DIS_CODE":0,"TOWNNAME":"麻豆區","LI":"興農里","LIN":"7鄰","STREET":"新生南路","SECT":" ","MAREA":" ","LANE":" ","ALLEY":" ","HOUSE_NO":"２８４號","E_COORD97":172324.45999999999,"N_COORD97":2564290.79,"ADDRESS":"新生南路２８４號","OBJECTID":498185},"geometry":{"x":172324.46000000183,"y":2564290.7899999991}},{"attributes":{"ID":498213,"DIS_CODE":0,"TOWNNAME":"歸仁區","LI":"南保里","LIN":"63鄰","STREET":"大順街","SECT":" ","MAREA":" ","LANE":" ","ALLEY":" ","HOUSE_NO":"２９４號","E_COORD97":176614.57000000001,"N_COORD97":2540616.25,"ADDRESS":"大順街２９４號","OBJECTID":498186},"geometry":{"x":176614.57000000216,"y":2540616.2500000019}},{"attributes":{"ID":498214,"DIS_CODE":0,"TOWNNAME":"麻豆區","LI":"興農里","LIN":"7鄰","STREET":"新生南路","SECT":" ","MAREA":" ","LANE":" ","ALLEY":" ","HOUSE_NO":"２８６號","E_COORD97":172324.32000000001,"N_COORD97":2564286.2000000002,"ADDRESS":"新生南路２８６號","OBJECTID":498187},"geometry":{"x":172324.32000000123,"y":2564286.1999999974}},{"attributes":{"ID":498215,"DIS_CODE":0,"TOWNNAME":"麻豆區","LI":"興農里","LIN":"7鄰","STREET":"新生南路","SECT":" ","MAREA":" ","LANE":" ","ALLEY":" ","HOUSE_NO":"２８８號","E_COORD97":172324.66,"N_COORD97":2564282.52,"ADDRESS":"新生南路２８８號","OBJECTID":498188},"geometry":{"x":172324.66000000015,"y":2564282.5200000014}},{"attributes":{"ID":498216,"DIS_CODE":0,"TOWNNAME":"麻豆區","LI":"興農里","LIN":"7鄰","STREET":"新生南路","SECT":" ","MAREA":" ","LANE":" ","ALLEY":" ","HOUSE_NO":"２９０號","E_COORD97":172325.26000000001,"N_COORD97":2564278.0499999998,"ADDRESS":"新生南路２９０號","OBJECTID":498189},"geometry":{"x":172325.25999999978,"y":2564278.0500000007}},{"attributes":{"ID":498217,"DIS_CODE":0,"TOWNNAME":"麻豆區","LI":"興農里","LIN":"7鄰","STREET":"新生南路","SECT":" ","MAREA":" ","LANE":" ","ALLEY":" ","HOUSE_NO":"２９２號","E_COORD97":172325.56,"N_COORD97":2564273.8999999999,"ADDRESS":"新生南路２９２號","OBJECTID":498190},"geometry":{"x":172325.56000000052,"y":2564273.9000000022}},{"attributes":{"ID":498218,"DIS_CODE":0,"TOWNNAME":"麻豆區","LI":"興農里","LIN":"7鄰","STREET":"新生南路","SECT":" ","MAREA":" ","LANE":" ","ALLEY":" ","HOUSE_NO":"２９４號","E_COORD97":172325.81,"N_COORD97":2564269.9300000002,"ADDRESS":"新生南路２９４號","OBJECTID":498191},"geometry":{"x":172325.81000000052,"y":2564269.9300000016}},{"attributes":{"ID":498219,"DIS_CODE":0,"TOWNNAME":"麻豆區","LI":"新建里","LIN":"7鄰","STREET":"新生南路","SECT":" ","MAREA":" ","LANE":" ","ALLEY":" ","HOUSE_NO":"３號","E_COORD97":172335.14000000001,"N_COORD97":2564917.6699999999,"ADDRESS":"新生南路３號","OBJECTID":498192},"geometry":{"x":172335.1400000006,"y":2564917.6699999981}},{"attributes":{"ID":498220,"DIS_CODE":0,"TOWNNAME":"安南區","LI":"淵中里","LIN":"3鄰","STREET":"本淵路","SECT":" ","MAREA":" ","LANE":"５７巷","ALLEY":"４８弄","HOUSE_NO":"１號","E_COORD97":165153.477896,"N_COORD97":2549884.51211,"ADDRESS":"本淵路５７巷４８弄１號","OBJECTID":498193},"geometry":{"x":165153.47789600119,"y":2549884.5121149998}},{"attributes":{"ID":498221,"DIS_CODE":0,"TOWNNAME":"麻豆區","LI":"新建里","LIN":"7鄰","STREET":"新生南路","SECT":" ","MAREA":" ","LANE":" ","ALLEY":" ","HOUSE_NO":"４１號","E_COORD97":172340.23999999999,"N_COORD97":2564819.9399999999,"ADDRESS":"新生南路４１號","OBJECTID":498194},"geometry":{"x":172340.24000000115,"y":2564819.9399999995}},{"attributes":{"ID":498222,"DIS_CODE":0,"TOWNNAME":"麻豆區","LI":"新建里","LIN":"7鄰","STREET":"新生南路","SECT":" ","MAREA":" ","LANE":" ","ALLEY":" ","HOUSE_NO":"４３號","E_COORD97":172340.42999999999,"N_COORD97":2564816.0099999998,"ADDRESS":"新生南路４３號","OBJECTID":498195},"geometry":{"x":172340.4299999997,"y":2564816.0099999998}},{"attributes":{"ID":498223,"DIS_CODE":0,"TOWNNAME":"麻豆區","LI":"新建里","LIN":"7鄰","STREET":"新生南路","SECT":" ","MAREA":" ","LANE":" ","ALLEY":" ","HOUSE_NO":"４５號","E_COORD97":172340.62,"N_COORD97":2564812.0299999998,"ADDRESS":"新生南路４５號","OBJECTID":498196},"geometry":{"x":172340.62000000104,"y":2564812.0299999993}},{"attributes":{"ID":498224,"DIS_CODE":0,"TOWNNAME":"麻豆區","LI":"新建里","LIN":"7鄰","STREET":"新生南路","SECT":" ","MAREA":" ","LANE":" ","ALLEY":" ","HOUSE_NO":"５９號","E_COORD97":172362.19,"N_COORD97":2564786.3199999998,"ADDRESS":"新生南路５９號","OBJECTID":498197},"geometry":{"x":172362.18999999948,"y":2564786.3200000022}},{"attributes":{"ID":498225,"DIS_CODE":0,"TOWNNAME":"麻豆區","LI":"新建里","LIN":"7鄰","STREET":"新生南路","SECT":" ","MAREA":" ","LANE":" ","ALLEY":" ","HOUSE_NO":"５號","E_COORD97":172332.85087699999,"N_COORD97":2564915.4992800001,"ADDRESS":"新生南路５號","OBJECTID":498198},"geometry":{"x":172332.85087700095,"y":2564915.4992790036}},{"attributes":{"ID":498226,"DIS_CODE":0,"TOWNNAME":"歸仁區","LI":"南興里","LIN":"7鄰","STREET":"民生二街","SECT":" ","MAREA":" ","LANE":" ","ALLEY":" ","HOUSE_NO":"７３號","E_COORD97":176082.59,"N_COORD97":2541307.29,"ADDRESS":"民生二街７３號","OBJECTID":498199},"geometry":{"x":176082.58999999985,"y":2541307.290000001}},{"attributes":{"ID":498227,"DIS_CODE":0,"TOWNNAME":"歸仁區","LI":"崙頂里","LIN":"7鄰","STREET":"崙頂一街","SECT":" ","MAREA":" ","LANE":" ","ALLEY":" ","HOUSE_NO":"７２號","E_COORD97":178008.67000000001,"N_COORD97":2539977.6800000002,"ADDRESS":"崙頂一街７２號","OBJECTID":498200},"geometry":{"x":178008.67000000179,"y":2539977.6799999997}}]}