{"displayFieldName":"TOWNNAME","fieldAliases":{"ID":"ID","DIS_CODE":"DIS_CODE","TOWNNAME":"TOWNNAME","LI":"LI","LIN":"LIN","STREET":"STREET","SECT":"SECT","MAREA":"MAREA","LANE":"LANE","ALLEY":"ALLEY","HOUSE_NO":"HOUSE_NO","E_COORD97":"E_COORD97","N_COORD97":"N_COORD97","ADDRESS":"ADDRESS","OBJECTID":"OBJECTID"},"geometryType":"esriGeometryPoint","spatialReference":{"wkid":102443,"latestWkid":3826},"fields":[{"name":"ID","type":"esriFieldTypeDouble","alias":"ID"},{"name":"DIS_CODE","type":"esriFieldTypeInteger","alias":"DIS_CODE"},{"name":"TOWNNAME","type":"esriFieldTypeString","alias":"TOWNNAME","length":8},{"name":"LI","type":"esriFieldTypeString","alias":"LI","length":8},{"name":"LIN","type":"esriFieldTypeString","alias":"LIN","length":12},{"name":"STREET","type":"esriFieldTypeString","alias":"STREET","length":20},{"name":"SECT","type":"esriFieldTypeString","alias":"SECT","length":8},{"name":"MAREA","type":"esriFieldTypeString","alias":"MAREA","length":12},{"name":"LANE","type":"esriFieldTypeString","alias":"LANE","length":10},{"name":"ALLEY","type":"esriFieldTypeString","alias":"ALLEY","length":10},{"name":"HOUSE_NO","type":"esriFieldTypeString","alias":"HOUSE_NO","length":20},{"name":"E_COORD97","type":"esriFieldTypeDouble","alias":"E_COORD97"},{"name":"N_COORD97","type":"esriFieldTypeDouble","alias":"N_COORD97"},{"name":"ADDRESS","type":"esriFieldTypeString","alias":"ADDRESS","length":50},{"name":"OBJECTID","type":"esriFieldTypeOID","alias":"OBJECTID"}],"features":[{"attributes":{"ID":386025,"DIS_CODE":0,"TOWNNAME":"永康區","LI":"\u25A0洲里","LIN":"37鄰","STREET":"\u25A0洲二街","SECT":" ","MAREA":" ","LANE":"１７５巷","ALLEY":" ","HOUSE_NO":"１５１號","E_COORD97":171720.5,"N_COORD97":2549558.0099999998,"ADDRESS":"\u25A0洲二街１７５巷１５１號","OBJECTID":386001},"geometry":{"x":171720.5,"y":2549558.0100000016}},{"attributes":{"ID":386026,"DIS_CODE":0,"TOWNNAME":"永康區","LI":"二王里","LIN":"37鄰","STREET":"中山南路","SECT":" ","MAREA":" ","LANE":"４９０巷","ALLEY":" ","HOUSE_NO":"１４號","E_COORD97":172200.95999999999,"N_COORD97":2546342.3399999999,"ADDRESS":"中山南路４９０巷１４號","OBJECTID":386002},"geometry":{"x":172200.96000000089,"y":2546342.3400000017}},{"attributes":{"ID":386027,"DIS_CODE":0,"TOWNNAME":"永康區","LI":"二王里","LIN":"37鄰","STREET":"中山南路","SECT":" ","MAREA":" ","LANE":"４９０巷","ALLEY":" ","HOUSE_NO":"２０號","E_COORD97":172214.97,"N_COORD97":2546342.3399999999,"ADDRESS":"中山南路４９０巷２０號","OBJECTID":386003},"geometry":{"x":172214.96999999974,"y":2546342.3400000017}},{"attributes":{"ID":386028,"DIS_CODE":0,"TOWNNAME":"仁德區","LI":"仁義里","LIN":"37鄰","STREET":"仁義六街","SECT":" ","MAREA":" ","LANE":"５６巷","ALLEY":" ","HOUSE_NO":"４１號","E_COORD97":173582.70000000001,"N_COORD97":2540023.02,"ADDRESS":"仁義六街５６巷４１號","OBJECTID":386004},"geometry":{"x":173582.70000000112,"y":2540023.0200000033}},{"attributes":{"ID":386029,"DIS_CODE":0,"TOWNNAME":"仁德區","LI":"仁義里","LIN":"37鄰","STREET":"仁義六街","SECT":" ","MAREA":" ","LANE":"５６巷","ALLEY":" ","HOUSE_NO":"７號","E_COORD97":173605.54000000001,"N_COORD97":2540087.02,"ADDRESS":"仁義六街５６巷７號","OBJECTID":386005},"geometry":{"x":173605.5400000019,"y":2540087.0199999996}},{"attributes":{"ID":386030,"DIS_CODE":0,"TOWNNAME":"仁德區","LI":"仁義里","LIN":"37鄰","STREET":"仁義六街","SECT":" ","MAREA":" ","LANE":"５６巷","ALLEY":" ","HOUSE_NO":"５１號","E_COORD97":173575.89000000001,"N_COORD97":2540004.02,"ADDRESS":"仁義六街５６巷５１號","OBJECTID":386006},"geometry":{"x":173575.8900000006,"y":2540004.0200000014}},{"attributes":{"ID":386031,"DIS_CODE":0,"TOWNNAME":"仁德區","LI":"仁義里","LIN":"37鄰","STREET":"仁義六街","SECT":" ","MAREA":" ","LANE":"５６巷","ALLEY":" ","HOUSE_NO":"１１號","E_COORD97":173603.94,"N_COORD97":2540079.5099999998,"ADDRESS":"仁義六街５６巷１１號","OBJECTID":386007},"geometry":{"x":173603.94000000134,"y":2540079.5099999998}},{"attributes":{"ID":386032,"DIS_CODE":0,"TOWNNAME":"中西區","LI":"永華里","LIN":"21鄰","STREET":"忠義路","SECT":"二段","MAREA":" ","LANE":"３８巷","ALLEY":" ","HOUSE_NO":"１０號","E_COORD97":168356.60000000001,"N_COORD97":2543710.8599999999,"ADDRESS":"忠義路二段３８巷１０號","OBJECTID":386008},"geometry":{"x":168356.60000000056,"y":2543710.8600000013}},{"attributes":{"ID":386033,"DIS_CODE":0,"TOWNNAME":"中西區","LI":"永華里","LIN":"21鄰","STREET":"忠義路","SECT":"二段","MAREA":" ","LANE":"３８巷","ALLEY":" ","HOUSE_NO":"１２號","E_COORD97":168357.26999999999,"N_COORD97":2543714.54,"ADDRESS":"忠義路二段３８巷１２號","OBJECTID":386009},"geometry":{"x":168357.27000000048,"y":2543714.5400000028}},{"attributes":{"ID":386034,"DIS_CODE":0,"TOWNNAME":"中西區","LI":"永華里","LIN":"21鄰","STREET":"忠義路","SECT":"二段","MAREA":" ","LANE":"３８巷","ALLEY":" ","HOUSE_NO":"１４號","E_COORD97":168354.59,"N_COORD97":2543719.2200000002,"ADDRESS":"忠義路二段３８巷１４號","OBJECTID":386010},"geometry":{"x":168354.58999999985,"y":2543719.2200000025}},{"attributes":{"ID":386035,"DIS_CODE":0,"TOWNNAME":"中西區","LI":"永華里","LIN":"21鄰","STREET":"忠義路","SECT":"二段","MAREA":" ","LANE":"３８巷","ALLEY":" ","HOUSE_NO":"４號","E_COORD97":168342.26000000001,"N_COORD97":2543671.6800000002,"ADDRESS":"忠義路二段３８巷４號","OBJECTID":386011},"geometry":{"x":168342.26000000071,"y":2543671.6800000016}},{"attributes":{"ID":386036,"DIS_CODE":0,"TOWNNAME":"仁德區","LI":"仁義里","LIN":"37鄰","STREET":"中正路","SECT":"二段","MAREA":" ","LANE":"７４４巷","ALLEY":" ","HOUSE_NO":"１號","E_COORD97":173482.79000000001,"N_COORD97":2540093.2799999998,"ADDRESS":"中正路二段７４４巷１號","OBJECTID":386012},"geometry":{"x":173482.79000000004,"y":2540093.2800000012}},{"attributes":{"ID":386037,"DIS_CODE":0,"TOWNNAME":"仁德區","LI":"仁義里","LIN":"37鄰","STREET":"仁義六街","SECT":" ","MAREA":" ","LANE":"５６巷","ALLEY":" ","HOUSE_NO":"３５號","E_COORD97":173586.78,"N_COORD97":2540034.0099999998,"ADDRESS":"仁義六街５６巷３５號","OBJECTID":386013},"geometry":{"x":173586.78000000026,"y":2540034.0100000016}},{"attributes":{"ID":386038,"DIS_CODE":0,"TOWNNAME":"仁德區","LI":"仁義里","LIN":"37鄰","STREET":"仁義六街","SECT":" ","MAREA":" ","LANE":"５６巷","ALLEY":" ","HOUSE_NO":"２７號","E_COORD97":173592.19,"N_COORD97":2540048.5099999998,"ADDRESS":"仁義六街５６巷２７號","OBJECTID":386014},"geometry":{"x":173592.19000000041,"y":2540048.5100000016}},{"attributes":{"ID":386039,"DIS_CODE":0,"TOWNNAME":"仁德區","LI":"仁義里","LIN":"37鄰","STREET":"仁義六街","SECT":" ","MAREA":" ","LANE":"５６巷","ALLEY":" ","HOUSE_NO":"１７號","E_COORD97":173599.01000000001,"N_COORD97":2540068.0099999998,"ADDRESS":"仁義六街５６巷１７號","OBJECTID":386015},"geometry":{"x":173599.01000000071,"y":2540068.0100000016}},{"attributes":{"ID":386040,"DIS_CODE":0,"TOWNNAME":"仁德區","LI":"仁義里","LIN":"37鄰","STREET":"中正路","SECT":"二段","MAREA":" ","LANE":"７４４巷","ALLEY":" ","HOUSE_NO":"７號","E_COORD97":173490.35000000001,"N_COORD97":2540077.77,"ADDRESS":"中正路二段７４４巷７號","OBJECTID":386016},"geometry":{"x":173490.34999999963,"y":2540077.7699999996}},{"attributes":{"ID":386041,"DIS_CODE":0,"TOWNNAME":"仁德區","LI":"仁義里","LIN":"37鄰","STREET":"仁義六街","SECT":" ","MAREA":" ","LANE":"５６巷","ALLEY":" ","HOUSE_NO":"５３號","E_COORD97":173574.62,"N_COORD97":2540000.02,"ADDRESS":"仁義六街５６巷５３號","OBJECTID":386017},"geometry":{"x":173574.62000000197,"y":2540000.0200000014}},{"attributes":{"ID":386042,"DIS_CODE":0,"TOWNNAME":"仁德區","LI":"仁義里","LIN":"37鄰","STREET":"仁義六街","SECT":" ","MAREA":" ","LANE":"５６巷","ALLEY":" ","HOUSE_NO":"２９號","E_COORD97":173590.67999999999,"N_COORD97":2540045.2599999998,"ADDRESS":"仁義六街５６巷２９號","OBJECTID":386018},"geometry":{"x":173590.68000000156,"y":2540045.2600000035}},{"attributes":{"ID":386043,"DIS_CODE":0,"TOWNNAME":"仁德區","LI":"仁義里","LIN":"37鄰","STREET":"仁義六街","SECT":" ","MAREA":" ","LANE":"２０巷","ALLEY":" ","HOUSE_NO":"７號","E_COORD97":173547.87,"N_COORD97":2540120.77,"ADDRESS":"仁義六街２０巷７號","OBJECTID":386019},"geometry":{"x":173547.87000000104,"y":2540120.7700000014}},{"attributes":{"ID":386044,"DIS_CODE":0,"TOWNNAME":"中西區","LI":"三民里","LIN":"19鄰","STREET":"忠義路","SECT":"二段","MAREA":" ","LANE":"１５８巷","ALLEY":" ","HOUSE_NO":"３４號","E_COORD97":168465.57000000001,"N_COORD97":2544019.1200000001,"ADDRESS":"忠義路二段１５８巷３４號","OBJECTID":386020},"geometry":{"x":168465.5700000003,"y":2544019.1200000029}},{"attributes":{"ID":386045,"DIS_CODE":0,"TOWNNAME":"中西區","LI":"永華里","LIN":"21鄰","STREET":"忠義路","SECT":"二段","MAREA":" ","LANE":"３８巷","ALLEY":" ","HOUSE_NO":"８號","E_COORD97":168352.92000000001,"N_COORD97":2543701.6600000001,"ADDRESS":"忠義路二段３８巷８號","OBJECTID":386021},"geometry":{"x":168352.92000000086,"y":2543701.660000002}},{"attributes":{"ID":386046,"DIS_CODE":0,"TOWNNAME":"永康區","LI":"龍潭里","LIN":"37鄰","STREET":"中山北路","SECT":" ","MAREA":" ","LANE":"１６４巷","ALLEY":" ","HOUSE_NO":"１１８號之２","E_COORD97":174545.39999999999,"N_COORD97":2547335.2000000002,"ADDRESS":"中山北路１６４巷１１８號之２","OBJECTID":386022},"geometry":{"x":174545.40000000037,"y":2547335.2000000011}},{"attributes":{"ID":386047,"DIS_CODE":0,"TOWNNAME":"仁德區","LI":"太子里","LIN":"37鄰","STREET":"長興一街","SECT":" ","MAREA":" ","LANE":"１７巷","ALLEY":" ","HOUSE_NO":"３號","E_COORD97":174620.32000000001,"N_COORD97":2543774.75,"ADDRESS":"長興一街１７巷３號","OBJECTID":386023},"geometry":{"x":174620.3200000003,"y":2543774.75}},{"attributes":{"ID":386048,"DIS_CODE":0,"TOWNNAME":"仁德區","LI":"太子里","LIN":"37鄰","STREET":"長興一街","SECT":" ","MAREA":" ","LANE":"４０巷","ALLEY":" ","HOUSE_NO":"１號","E_COORD97":174581.06,"N_COORD97":2543843.2599999998,"ADDRESS":"長興一街４０巷１號","OBJECTID":386024},"geometry":{"x":174581.05999999959,"y":2543843.2600000016}},{"attributes":{"ID":386049,"DIS_CODE":0,"TOWNNAME":"中西區","LI":"三民里","LIN":"20鄰","STREET":"忠義路","SECT":"二段","MAREA":" ","LANE":"１５８巷","ALLEY":" ","HOUSE_NO":"２２號","E_COORD97":168431.23000000001,"N_COORD97":2544034.02,"ADDRESS":"忠義路二段１５８巷２２號","OBJECTID":386025},"geometry":{"x":168431.23000000138,"y":2544034.0200000033}},{"attributes":{"ID":386050,"DIS_CODE":0,"TOWNNAME":"中西區","LI":"三民里","LIN":"19鄰","STREET":"忠義路","SECT":"二段","MAREA":" ","LANE":"１５８巷","ALLEY":" ","HOUSE_NO":"３６號","E_COORD97":168468.89000000001,"N_COORD97":2544016.2799999998,"ADDRESS":"忠義路二段１５８巷３６號","OBJECTID":386026},"geometry":{"x":168468.88999999966,"y":2544016.2800000012}},{"attributes":{"ID":386051,"DIS_CODE":0,"TOWNNAME":"中西區","LI":"三民里","LIN":"19鄰","STREET":"忠義路","SECT":"二段","MAREA":" ","LANE":"１５８巷","ALLEY":" ","HOUSE_NO":"３８號","E_COORD97":168473.39000000001,"N_COORD97":2544018.4100000001,"ADDRESS":"忠義路二段１５８巷３８號","OBJECTID":386027},"geometry":{"x":168473.3900000006,"y":2544018.4100000039}},{"attributes":{"ID":386052,"DIS_CODE":0,"TOWNNAME":"中西區","LI":"三民里","LIN":"19鄰","STREET":"忠義路","SECT":"二段","MAREA":" ","LANE":"１５８巷","ALLEY":" ","HOUSE_NO":"４０號","E_COORD97":168475.76000000001,"N_COORD97":2544015.5699999998,"ADDRESS":"忠義路二段１５８巷４０號","OBJECTID":386028},"geometry":{"x":168475.76000000164,"y":2544015.5700000022}},{"attributes":{"ID":386053,"DIS_CODE":0,"TOWNNAME":"中西區","LI":"三民里","LIN":"19鄰","STREET":"忠義路","SECT":"二段","MAREA":" ","LANE":"１５８巷","ALLEY":" ","HOUSE_NO":"４２號","E_COORD97":168480.26000000001,"N_COORD97":2544016.9900000002,"ADDRESS":"忠義路二段１５８巷４２號","OBJECTID":386029},"geometry":{"x":168480.25999999978,"y":2544016.9900000002}},{"attributes":{"ID":386054,"DIS_CODE":0,"TOWNNAME":"中西區","LI":"三民里","LIN":"19鄰","STREET":"忠義路","SECT":"二段","MAREA":" ","LANE":"１５８巷","ALLEY":" ","HOUSE_NO":"４８號","E_COORD97":168471.26000000001,"N_COORD97":2544001.8599999999,"ADDRESS":"忠義路二段１５８巷４８號","OBJECTID":386030},"geometry":{"x":168471.26000000071,"y":2544001.8600000013}},{"attributes":{"ID":386055,"DIS_CODE":0,"TOWNNAME":"中西區","LI":"三民里","LIN":"19鄰","STREET":"忠義路","SECT":"二段","MAREA":" ","LANE":"１５８巷","ALLEY":" ","HOUSE_NO":"５０號","E_COORD97":168469.84,"N_COORD97":2543998.3100000001,"ADDRESS":"忠義路二段１５８巷５０號","OBJECTID":386031},"geometry":{"x":168469.83999999985,"y":2543998.3100000005}},{"attributes":{"ID":386056,"DIS_CODE":0,"TOWNNAME":"中西區","LI":"三民里","LIN":"19鄰","STREET":"忠義路","SECT":"二段","MAREA":" ","LANE":"１５８巷","ALLEY":" ","HOUSE_NO":"５２號","E_COORD97":168469.23999999999,"N_COORD97":2543993.5600000001,"ADDRESS":"忠義路二段１５８巷５２號","OBJECTID":386032},"geometry":{"x":168469.24000000022,"y":2543993.5600000005}},{"attributes":{"ID":386057,"DIS_CODE":0,"TOWNNAME":"中西區","LI":"三民里","LIN":"19鄰","STREET":"忠義路","SECT":"二段","MAREA":" ","LANE":"１５８巷","ALLEY":" ","HOUSE_NO":"５２號之１","E_COORD97":168480.13,"N_COORD97":2543989.54,"ADDRESS":"忠義路二段１５８巷５２號之１","OBJECTID":386033},"geometry":{"x":168480.13000000175,"y":2543989.540000001}},{"attributes":{"ID":386058,"DIS_CODE":0,"TOWNNAME":"中西區","LI":"三民里","LIN":"19鄰","STREET":"忠義路","SECT":"二段","MAREA":" ","LANE":"１５８巷","ALLEY":" ","HOUSE_NO":"５４號","E_COORD97":168480.13,"N_COORD97":2543998.0600000001,"ADDRESS":"忠義路二段１５８巷５４號","OBJECTID":386034},"geometry":{"x":168480.13000000175,"y":2543998.0600000024}},{"attributes":{"ID":386059,"DIS_CODE":0,"TOWNNAME":"中西區","LI":"三民里","LIN":"19鄰","STREET":"忠義路","SECT":"二段","MAREA":" ","LANE":"１５８巷","ALLEY":" ","HOUSE_NO":"６０號","E_COORD97":168485.94,"N_COORD97":2544014.6299999999,"ADDRESS":"忠義路二段１５８巷６０號","OBJECTID":386035},"geometry":{"x":168485.94000000134,"y":2544014.629999999}},{"attributes":{"ID":386060,"DIS_CODE":0,"TOWNNAME":"中西區","LI":"三民里","LIN":"19鄰","STREET":"忠義路","SECT":"二段","MAREA":" ","LANE":"１５８巷","ALLEY":" ","HOUSE_NO":"６２號","E_COORD97":168491.85999999999,"N_COORD97":2544012.0299999998,"ADDRESS":"忠義路二段１５８巷６２號","OBJECTID":386036},"geometry":{"x":168491.86000000034,"y":2544012.0299999993}},{"attributes":{"ID":386061,"DIS_CODE":0,"TOWNNAME":"中西區","LI":"三民里","LIN":"19鄰","STREET":"忠義路","SECT":"二段","MAREA":" ","LANE":"１５８巷","ALLEY":" ","HOUSE_NO":"６４號","E_COORD97":168497.54999999999,"N_COORD97":2544011.0800000001,"ADDRESS":"忠義路二段１５８巷６４號","OBJECTID":386037},"geometry":{"x":168497.55000000168,"y":2544011.0800000019}},{"attributes":{"ID":386062,"DIS_CODE":0,"TOWNNAME":"仁德區","LI":"成功里","LIN":"37鄰","STREET":"保華路","SECT":" ","MAREA":" ","LANE":"２２巷","ALLEY":" ","HOUSE_NO":"２號","E_COORD97":170726.09,"N_COORD97":2540012,"ADDRESS":"保華路２２巷２號","OBJECTID":386038},"geometry":{"x":170726.08999999985,"y":2540012}},{"attributes":{"ID":386063,"DIS_CODE":0,"TOWNNAME":"仁德區","LI":"太子里","LIN":"37鄰","STREET":"長興一街","SECT":" ","MAREA":" ","LANE":"１７巷","ALLEY":" ","HOUSE_NO":"４號","E_COORD97":174618.42000000001,"N_COORD97":2543797.75,"ADDRESS":"長興一街１７巷４號","OBJECTID":386039},"geometry":{"x":174618.42000000086,"y":2543797.75}},{"attributes":{"ID":386064,"DIS_CODE":0,"TOWNNAME":"仁德區","LI":"太子里","LIN":"37鄰","STREET":"長興一街","SECT":" ","MAREA":" ","LANE":"４０巷","ALLEY":" ","HOUSE_NO":"５號","E_COORD97":174577.45000000001,"N_COORD97":2543869.75,"ADDRESS":"長興一街４０巷５號","OBJECTID":386040},"geometry":{"x":174577.44999999925,"y":2543869.7499999981}},{"attributes":{"ID":386065,"DIS_CODE":0,"TOWNNAME":"仁德區","LI":"太子里","LIN":"37鄰","STREET":"長興一街","SECT":" ","MAREA":" ","LANE":"４０巷","ALLEY":" ","HOUSE_NO":"１６號","E_COORD97":174544.76999999999,"N_COORD97":2543898.75,"ADDRESS":"長興一街４０巷１６號","OBJECTID":386041},"geometry":{"x":174544.77000000048,"y":2543898.7500000019}},{"attributes":{"ID":386066,"DIS_CODE":0,"TOWNNAME":"仁德區","LI":"太子里","LIN":"37鄰","STREET":"長興一街","SECT":" ","MAREA":" ","LANE":"１７巷","ALLEY":" ","HOUSE_NO":"８號","E_COORD97":174607.17000000001,"N_COORD97":2543781.75,"ADDRESS":"長興一街１７巷８號","OBJECTID":386042},"geometry":{"x":174607.17000000086,"y":2543781.7500000037}},{"attributes":{"ID":386067,"DIS_CODE":0,"TOWNNAME":"仁德區","LI":"太子里","LIN":"37鄰","STREET":"長興一街","SECT":" ","MAREA":" ","LANE":"４０巷","ALLEY":" ","HOUSE_NO":"４２號","E_COORD97":174452.45999999999,"N_COORD97":2543904.25,"ADDRESS":"長興一街４０巷４２號","OBJECTID":386043},"geometry":{"x":174452.46000000089,"y":2543904.2500000019}},{"attributes":{"ID":386068,"DIS_CODE":0,"TOWNNAME":"仁德區","LI":"太子里","LIN":"37鄰","STREET":"長興一街","SECT":" ","MAREA":" ","LANE":"４０巷","ALLEY":" ","HOUSE_NO":"２８號","E_COORD97":174498.63,"N_COORD97":2543896.75,"ADDRESS":"長興一街４０巷２８號","OBJECTID":386044},"geometry":{"x":174498.63000000082,"y":2543896.75}},{"attributes":{"ID":386069,"DIS_CODE":0,"TOWNNAME":"仁德區","LI":"太子里","LIN":"37鄰","STREET":"長興一街","SECT":" ","MAREA":" ","LANE":"１７巷","ALLEY":" ","HOUSE_NO":"１０號","E_COORD97":174603.01999999999,"N_COORD97":2543773.5,"ADDRESS":"長興一街１７巷１０號","OBJECTID":386045},"geometry":{"x":174603.01999999955,"y":2543773.5000000037}},{"attributes":{"ID":386070,"DIS_CODE":0,"TOWNNAME":"仁德區","LI":"太子里","LIN":"37鄰","STREET":"長興一街","SECT":" ","MAREA":" ","LANE":"１７巷","ALLEY":" ","HOUSE_NO":"１２號","E_COORD97":174597.82000000001,"N_COORD97":2543765,"ADDRESS":"長興一街１７巷１２號","OBJECTID":386046},"geometry":{"x":174597.82000000123,"y":2543765}},{"attributes":{"ID":386071,"DIS_CODE":0,"TOWNNAME":"仁德區","LI":"太子里","LIN":"37鄰","STREET":"長興一街","SECT":" ","MAREA":" ","LANE":"４０巷","ALLEY":" ","HOUSE_NO":"８號","E_COORD97":174587.76999999999,"N_COORD97":2543887.5,"ADDRESS":"長興一街４０巷８號","OBJECTID":386047},"geometry":{"x":174587.76999999955,"y":2543887.5}},{"attributes":{"ID":386072,"DIS_CODE":0,"TOWNNAME":"仁德區","LI":"太子里","LIN":"37鄰","STREET":"長興一街","SECT":" ","MAREA":" ","LANE":"１７巷","ALLEY":" ","HOUSE_NO":"１號","E_COORD97":174625.67000000001,"N_COORD97":2543786.5,"ADDRESS":"長興一街１７巷１號","OBJECTID":386048},"geometry":{"x":174625.67000000086,"y":2543786.5}},{"attributes":{"ID":386073,"DIS_CODE":0,"TOWNNAME":"仁德區","LI":"太子里","LIN":"37鄰","STREET":"長興一街","SECT":" ","MAREA":" ","LANE":"１７巷","ALLEY":" ","HOUSE_NO":"６號","E_COORD97":174612.13,"N_COORD97":2543789.5,"ADDRESS":"長興一街１７巷６號","OBJECTID":386049},"geometry":{"x":174612.13000000082,"y":2543789.5}},{"attributes":{"ID":386074,"DIS_CODE":0,"TOWNNAME":"仁德區","LI":"太子里","LIN":"37鄰","STREET":"長興一街","SECT":" ","MAREA":" ","LANE":"４０巷","ALLEY":" ","HOUSE_NO":"２０號","E_COORD97":174522.48000000001,"N_COORD97":2543900.5,"ADDRESS":"長興一街４０巷２０號","OBJECTID":386050},"geometry":{"x":174522.48000000138,"y":2543900.5}},{"attributes":{"ID":386075,"DIS_CODE":0,"TOWNNAME":"仁德區","LI":"後壁里","LIN":"37鄰","STREET":"德洋一街","SECT":" ","MAREA":" ","LANE":"５１巷","ALLEY":" ","HOUSE_NO":"２號","E_COORD97":173129.35999999999,"N_COORD97":2539210.0099999998,"ADDRESS":"德洋一街５１巷２號","OBJECTID":386051},"geometry":{"x":173129.36000000127,"y":2539210.0100000016}},{"attributes":{"ID":386076,"DIS_CODE":0,"TOWNNAME":"永康區","LI":"北灣里","LIN":"37鄰","STREET":"大同街","SECT":" ","MAREA":" ","LANE":"３２０巷","ALLEY":" ","HOUSE_NO":"３號","E_COORD97":174808.92000000001,"N_COORD97":2545965.5499999998,"ADDRESS":"大同街３２０巷３號","OBJECTID":386052},"geometry":{"x":174808.91999999993,"y":2545965.5500000026}},{"attributes":{"ID":386077,"DIS_CODE":0,"TOWNNAME":"永康區","LI":"正強里","LIN":"37鄰","STREET":"正強街","SECT":" ","MAREA":" ","LANE":"３３０巷","ALLEY":" ","HOUSE_NO":"２號","E_COORD97":173251.67999999999,"N_COORD97":2548207,"ADDRESS":"正強街３３０巷２號","OBJECTID":386053},"geometry":{"x":173251.68000000156,"y":2548207}},{"attributes":{"ID":386078,"DIS_CODE":0,"TOWNNAME":"永康區","LI":"正強里","LIN":"37鄰","STREET":"正強街","SECT":" ","MAREA":" ","LANE":"３３０巷","ALLEY":" ","HOUSE_NO":"１６號","E_COORD97":173278.82000000001,"N_COORD97":2548212.5,"ADDRESS":"正強街３３０巷１６號","OBJECTID":386054},"geometry":{"x":173278.82000000123,"y":2548212.5000000019}},{"attributes":{"ID":386079,"DIS_CODE":0,"TOWNNAME":"永康區","LI":"北灣里","LIN":"37鄰","STREET":"大同街","SECT":" ","MAREA":" ","LANE":"３２０巷","ALLEY":" ","HOUSE_NO":"８號","E_COORD97":174798.73999999999,"N_COORD97":2545951.0299999998,"ADDRESS":"大同街３２０巷８號","OBJECTID":386055},"geometry":{"x":174798.74000000022,"y":2545951.0299999993}},{"attributes":{"ID":386080,"DIS_CODE":0,"TOWNNAME":"永康區","LI":"北灣里","LIN":"37鄰","STREET":"大同街","SECT":" ","MAREA":" ","LANE":"３２０巷","ALLEY":" ","HOUSE_NO":"１１號","E_COORD97":174794.73999999999,"N_COORD97":2545977.0499999998,"ADDRESS":"大同街３２０巷１１號","OBJECTID":386056},"geometry":{"x":174794.74000000115,"y":2545977.0500000007}},{"attributes":{"ID":386081,"DIS_CODE":0,"TOWNNAME":"永康區","LI":"正強里","LIN":"37鄰","STREET":"正強街","SECT":" ","MAREA":" ","LANE":"３３２巷","ALLEY":" ","HOUSE_NO":"１１號","E_COORD97":173277.51000000001,"N_COORD97":2548262.4900000002,"ADDRESS":"正強街３３２巷１１號","OBJECTID":386057},"geometry":{"x":173277.50999999978,"y":2548262.4900000039}},{"attributes":{"ID":386082,"DIS_CODE":0,"TOWNNAME":"永康區","LI":"五王里","LIN":"37鄰","STREET":"中華路","SECT":" ","MAREA":" ","LANE":"５７８巷","ALLEY":" ","HOUSE_NO":"１５號之２３","E_COORD97":171276.04999999999,"N_COORD97":2545965.79,"ADDRESS":"中華路５７８巷１５號之２３","OBJECTID":386058},"geometry":{"x":171276.05000000168,"y":2545965.7899999991}},{"attributes":{"ID":386083,"DIS_CODE":0,"TOWNNAME":"永康區","LI":"北灣里","LIN":"37鄰","STREET":"大同街","SECT":" ","MAREA":" ","LANE":"３２０巷","ALLEY":" ","HOUSE_NO":"１８號","E_COORD97":174810.10000000001,"N_COORD97":2545942.9500000002,"ADDRESS":"大同街３２０巷１８號","OBJECTID":386059},"geometry":{"x":174810.10000000056,"y":2545942.950000003}},{"attributes":{"ID":386084,"DIS_CODE":0,"TOWNNAME":"永康區","LI":"北灣里","LIN":"37鄰","STREET":"大同街","SECT":" ","MAREA":" ","LANE":"３２０巷","ALLEY":" ","HOUSE_NO":"２０號","E_COORD97":174837.81,"N_COORD97":2545973.46,"ADDRESS":"大同街３２０巷２０號","OBJECTID":386060},"geometry":{"x":174837.81000000052,"y":2545973.4600000009}},{"attributes":{"ID":386085,"DIS_CODE":0,"TOWNNAME":"永康區","LI":"北灣里","LIN":"37鄰","STREET":"大同街","SECT":" ","MAREA":" ","LANE":"３２０巷","ALLEY":" ","HOUSE_NO":"２２號","E_COORD97":174827.07000000001,"N_COORD97":2545974.8900000001,"ADDRESS":"大同街３２０巷２２號","OBJECTID":386061},"geometry":{"x":174827.0700000003,"y":2545974.8899999987}},{"attributes":{"ID":386086,"DIS_CODE":0,"TOWNNAME":"永康區","LI":"北灣里","LIN":"37鄰","STREET":"大同街","SECT":" ","MAREA":" ","LANE":"３８０巷","ALLEY":" ","HOUSE_NO":"５０號","E_COORD97":174840.92999999999,"N_COORD97":2545989.48,"ADDRESS":"大同街３８０巷５０號","OBJECTID":386062},"geometry":{"x":174840.9299999997,"y":2545989.4800000023}},{"attributes":{"ID":386087,"DIS_CODE":0,"TOWNNAME":"永康區","LI":"北灣里","LIN":"37鄰","STREET":"大同街","SECT":" ","MAREA":" ","LANE":"３８０巷","ALLEY":" ","HOUSE_NO":"５２號","E_COORD97":174850.81,"N_COORD97":2545986.3300000001,"ADDRESS":"大同街３８０巷５２號","OBJECTID":386063},"geometry":{"x":174850.81000000145,"y":2545986.3300000019}},{"attributes":{"ID":386088,"DIS_CODE":0,"TOWNNAME":"永康區","LI":"南灣里","LIN":"37鄰","STREET":"南灣街","SECT":" ","MAREA":" ","LANE":"８４巷","ALLEY":" ","HOUSE_NO":"９號","E_COORD97":174452.64000000001,"N_COORD97":2544972.75,"ADDRESS":"南灣街８４巷９號","OBJECTID":386064},"geometry":{"x":174452.6400000006,"y":2544972.7500000019}},{"attributes":{"ID":386089,"DIS_CODE":0,"TOWNNAME":"永康區","LI":"北灣里","LIN":"37鄰","STREET":"大同街","SECT":" ","MAREA":" ","LANE":"３２０巷","ALLEY":" ","HOUSE_NO":"２８號","E_COORD97":174827.04999999999,"N_COORD97":2545978.7200000002,"ADDRESS":"大同街３２０巷２８號","OBJECTID":386065},"geometry":{"x":174827.04999999981,"y":2545978.7200000007}},{"attributes":{"ID":386090,"DIS_CODE":0,"TOWNNAME":"永康區","LI":"永康里","LIN":"37鄰","STREET":"西勢路","SECT":" ","MAREA":" ","LANE":"７３８巷","ALLEY":" ","HOUSE_NO":"１３號","E_COORD97":174533.45999999999,"N_COORD97":2546797.6699999999,"ADDRESS":"西勢路７３８巷１３號","OBJECTID":386066},"geometry":{"x":174533.46000000089,"y":2546797.6700000018}},{"attributes":{"ID":386091,"DIS_CODE":0,"TOWNNAME":"永康區","LI":"五王里","LIN":"37鄰","STREET":"中華路","SECT":" ","MAREA":" ","LANE":"５７８巷","ALLEY":" ","HOUSE_NO":"１５號之１１","E_COORD97":171275.95000000001,"N_COORD97":2545965.79,"ADDRESS":"中華路５７８巷１５號之１１","OBJECTID":386067},"geometry":{"x":171275.95000000112,"y":2545965.7899999991}},{"attributes":{"ID":386092,"DIS_CODE":0,"TOWNNAME":"永康區","LI":"東灣里","LIN":"37鄰","STREET":"大灣一街","SECT":" ","MAREA":" ","LANE":"３４９巷","ALLEY":" ","HOUSE_NO":"１２號","E_COORD97":175174.04999999999,"N_COORD97":2544917.9900000002,"ADDRESS":"大灣一街３４９巷１２號","OBJECTID":386068},"geometry":{"x":175174.05000000075,"y":2544917.9900000002}},{"attributes":{"ID":386093,"DIS_CODE":0,"TOWNNAME":"永康區","LI":"五王里","LIN":"37鄰","STREET":"中華路","SECT":" ","MAREA":" ","LANE":"５７８巷","ALLEY":" ","HOUSE_NO":"１５號之８１","E_COORD97":171275.95000000001,"N_COORD97":2545965.79,"ADDRESS":"中華路５７８巷１５號之８１","OBJECTID":386069},"geometry":{"x":171275.95000000112,"y":2545965.7899999991}},{"attributes":{"ID":386094,"DIS_CODE":0,"TOWNNAME":"永康區","LI":"永康里","LIN":"37鄰","STREET":"西勢路","SECT":" ","MAREA":" ","LANE":"７３８巷","ALLEY":" ","HOUSE_NO":"４９號","E_COORD97":174512.45999999999,"N_COORD97":2546884.3799999999,"ADDRESS":"西勢路７３８巷４９號","OBJECTID":386070},"geometry":{"x":174512.45999999996,"y":2546884.379999999}},{"attributes":{"ID":386095,"DIS_CODE":0,"TOWNNAME":"中西區","LI":"西湖里","LIN":"37鄰","STREET":"和緯路","SECT":"五段","MAREA":" ","LANE":"８９巷","ALLEY":" ","HOUSE_NO":"７９號","E_COORD97":166406.32000000001,"N_COORD97":2545025.7000000002,"ADDRESS":"和緯路五段８９巷７９號","OBJECTID":386071},"geometry":{"x":166406.32000000123,"y":2545025.700000003}},{"attributes":{"ID":386096,"DIS_CODE":0,"TOWNNAME":"永康區","LI":"五王里","LIN":"37鄰","STREET":"中華路","SECT":" ","MAREA":" ","LANE":"５７８巷","ALLEY":" ","HOUSE_NO":"１５號之９２","E_COORD97":171276.07999999999,"N_COORD97":2545965.79,"ADDRESS":"中華路５７８巷１５號之９２","OBJECTID":386072},"geometry":{"x":171276.08000000194,"y":2545965.7899999991}},{"attributes":{"ID":386097,"DIS_CODE":0,"TOWNNAME":"永康區","LI":"五王里","LIN":"37鄰","STREET":"中華路","SECT":" ","MAREA":" ","LANE":"５７８巷","ALLEY":" ","HOUSE_NO":"１５號之２１","E_COORD97":171275.95000000001,"N_COORD97":2545965.79,"ADDRESS":"中華路５７８巷１５號之２１","OBJECTID":386073},"geometry":{"x":171275.95000000112,"y":2545965.7899999991}},{"attributes":{"ID":386098,"DIS_CODE":0,"TOWNNAME":"永康區","LI":"埔園里","LIN":"37鄰","STREET":"龍國街","SECT":" ","MAREA":" ","LANE":"１３１巷","ALLEY":" ","HOUSE_NO":"６號","E_COORD97":174331.17000000001,"N_COORD97":2548092.02,"ADDRESS":"龍國街１３１巷６號","OBJECTID":386074},"geometry":{"x":174331.16999999993,"y":2548092.0200000033}},{"attributes":{"ID":386099,"DIS_CODE":0,"TOWNNAME":"永康區","LI":"西灣里","LIN":"37鄰","STREET":"國光八街","SECT":" ","MAREA":" ","LANE":"１２９巷","ALLEY":" ","HOUSE_NO":"４２號","E_COORD97":174144.54999999999,"N_COORD97":2545639.7200000002,"ADDRESS":"國光八街１２９巷４２號","OBJECTID":386075},"geometry":{"x":174144.55000000075,"y":2545639.7200000007}},{"attributes":{"ID":386100,"DIS_CODE":0,"TOWNNAME":"永康區","LI":"西灣里","LIN":"37鄰","STREET":"永華路","SECT":" ","MAREA":" ","LANE":"２３８巷","ALLEY":" ","HOUSE_NO":"７號","E_COORD97":174144.26999999999,"N_COORD97":2545590.3799999999,"ADDRESS":"永華路２３８巷７號","OBJECTID":386076},"geometry":{"x":174144.27000000142,"y":2545590.3800000027}},{"attributes":{"ID":386101,"DIS_CODE":0,"TOWNNAME":"仁德區","LI":"後壁里","LIN":"37鄰","STREET":"民安路","SECT":"一段","MAREA":" ","LANE":"３９２巷","ALLEY":" ","HOUSE_NO":"３號","E_COORD97":173139.35999999999,"N_COORD97":2539332.3300000001,"ADDRESS":"民安路一段３９２巷３號","OBJECTID":386077},"geometry":{"x":173139.36000000127,"y":2539332.3300000001}},{"attributes":{"ID":386102,"DIS_CODE":0,"TOWNNAME":"仁德區","LI":"後壁里","LIN":"37鄰","STREET":"民安路","SECT":"一段","MAREA":" ","LANE":"３９２巷","ALLEY":" ","HOUSE_NO":"５號","E_COORD97":173136.42999999999,"N_COORD97":2539328.3300000001,"ADDRESS":"民安路一段３９２巷５號","OBJECTID":386078},"geometry":{"x":173136.43000000063,"y":2539328.3300000001}},{"attributes":{"ID":386103,"DIS_CODE":0,"TOWNNAME":"仁德區","LI":"太子里","LIN":"37鄰","STREET":"長興一街","SECT":" ","MAREA":" ","LANE":"２２巷","ALLEY":" ","HOUSE_NO":"３８號","E_COORD97":174841.48000000001,"N_COORD97":2543840.0699999998,"ADDRESS":"長興一街２２巷３８號","OBJECTID":386079},"geometry":{"x":174841.48000000045,"y":2543840.0700000003}},{"attributes":{"ID":386104,"DIS_CODE":0,"TOWNNAME":"中西區","LI":"西湖里","LIN":"37鄰","STREET":"中華西路","SECT":"二段","MAREA":" ","LANE":"７９１巷","ALLEY":" ","HOUSE_NO":"２５號","E_COORD97":166541.22,"N_COORD97":2545023,"ADDRESS":"中華西路二段７９１巷２５號","OBJECTID":386080},"geometry":{"x":166541.21999999974,"y":2545023}},{"attributes":{"ID":386105,"DIS_CODE":0,"TOWNNAME":"中西區","LI":"西湖里","LIN":"37鄰","STREET":"中華西路","SECT":"二段","MAREA":" ","LANE":"７９１巷","ALLEY":" ","HOUSE_NO":"２７號","E_COORD97":166535.45999999999,"N_COORD97":2545023.5099999998,"ADDRESS":"中華西路二段７９１巷２７號","OBJECTID":386081},"geometry":{"x":166535.46000000089,"y":2545023.5099999998}},{"attributes":{"ID":386106,"DIS_CODE":0,"TOWNNAME":"中西區","LI":"西湖里","LIN":"37鄰","STREET":"中華西路","SECT":"二段","MAREA":" ","LANE":"７９１巷","ALLEY":" ","HOUSE_NO":"２９號","E_COORD97":166530.20999999999,"N_COORD97":2545023.6800000002,"ADDRESS":"中華西路二段７９１巷２９號","OBJECTID":386082},"geometry":{"x":166530.21000000183,"y":2545023.6800000016}},{"attributes":{"ID":386107,"DIS_CODE":0,"TOWNNAME":"中西區","LI":"西湖里","LIN":"37鄰","STREET":"中華西路","SECT":"二段","MAREA":" ","LANE":"７９１巷","ALLEY":" ","HOUSE_NO":"３１號","E_COORD97":166524.45000000001,"N_COORD97":2545024.02,"ADDRESS":"中華西路二段７９１巷３１號","OBJECTID":386083},"geometry":{"x":166524.45000000112,"y":2545024.0200000033}},{"attributes":{"ID":386108,"DIS_CODE":0,"TOWNNAME":"中西區","LI":"西湖里","LIN":"37鄰","STREET":"中華西路","SECT":"二段","MAREA":" ","LANE":"７９１巷","ALLEY":" ","HOUSE_NO":"３３號","E_COORD97":166518.19,"N_COORD97":2545024.52,"ADDRESS":"中華西路二段７９１巷３３號","OBJECTID":386084},"geometry":{"x":166518.19000000041,"y":2545024.5200000014}},{"attributes":{"ID":386109,"DIS_CODE":0,"TOWNNAME":"中西區","LI":"西湖里","LIN":"37鄰","STREET":"中華西路","SECT":"二段","MAREA":" ","LANE":"７９１巷","ALLEY":" ","HOUSE_NO":"３５號","E_COORD97":166512.60000000001,"N_COORD97":2545024.8599999999,"ADDRESS":"中華西路二段７９１巷３５號","OBJECTID":386085},"geometry":{"x":166512.60000000056,"y":2545024.8600000031}},{"attributes":{"ID":386110,"DIS_CODE":0,"TOWNNAME":"中西區","LI":"西湖里","LIN":"37鄰","STREET":"中華西路","SECT":"二段","MAREA":" ","LANE":"７９１巷","ALLEY":" ","HOUSE_NO":"３７號","E_COORD97":166506.67000000001,"N_COORD97":2545025.3700000001,"ADDRESS":"中華西路二段７９１巷３７號","OBJECTID":386086},"geometry":{"x":166506.67000000179,"y":2545025.370000001}},{"attributes":{"ID":386111,"DIS_CODE":0,"TOWNNAME":"中西區","LI":"西湖里","LIN":"37鄰","STREET":"中華西路","SECT":"二段","MAREA":" ","LANE":"７９１巷","ALLEY":" ","HOUSE_NO":"３９號","E_COORD97":166500.23999999999,"N_COORD97":2545025.54,"ADDRESS":"中華西路二段７９１巷３９號","OBJECTID":386087},"geometry":{"x":166500.24000000115,"y":2545025.5399999991}},{"attributes":{"ID":386112,"DIS_CODE":0,"TOWNNAME":"中西區","LI":"西湖里","LIN":"37鄰","STREET":"中華西路","SECT":"二段","MAREA":" ","LANE":"７９１巷","ALLEY":" ","HOUSE_NO":"４１號","E_COORD97":166493.47,"N_COORD97":2545026.2200000002,"ADDRESS":"中華西路二段７９１巷４１號","OBJECTID":386088},"geometry":{"x":166493.46999999974,"y":2545026.2200000007}},{"attributes":{"ID":386113,"DIS_CODE":0,"TOWNNAME":"中西區","LI":"西湖里","LIN":"37鄰","STREET":"中華西路","SECT":"二段","MAREA":" ","LANE":"７９１巷","ALLEY":" ","HOUSE_NO":"４３號","E_COORD97":166486.69,"N_COORD97":2545026.5600000001,"ADDRESS":"中華西路二段７９１巷４３號","OBJECTID":386089},"geometry":{"x":166486.69000000227,"y":2545026.5600000005}},{"attributes":{"ID":386114,"DIS_CODE":0,"TOWNNAME":"中西區","LI":"西湖里","LIN":"37鄰","STREET":"中華西路","SECT":"二段","MAREA":" ","LANE":"７９１巷","ALLEY":" ","HOUSE_NO":"４５號","E_COORD97":166480.42999999999,"N_COORD97":2545027.0600000001,"ADDRESS":"中華西路二段７９１巷４５號","OBJECTID":386090},"geometry":{"x":166480.4299999997,"y":2545027.0600000005}},{"attributes":{"ID":386115,"DIS_CODE":0,"TOWNNAME":"中西區","LI":"西湖里","LIN":"37鄰","STREET":"中華西路","SECT":"二段","MAREA":" ","LANE":"７９１巷","ALLEY":" ","HOUSE_NO":"４７號","E_COORD97":166474.5,"N_COORD97":2545027.3999999999,"ADDRESS":"中華西路二段７９１巷４７號","OBJECTID":386091},"geometry":{"x":166474.50000000093,"y":2545027.4000000004}},{"attributes":{"ID":386116,"DIS_CODE":0,"TOWNNAME":"中西區","LI":"西湖里","LIN":"37鄰","STREET":"中華西路","SECT":"二段","MAREA":" ","LANE":"７９１巷","ALLEY":" ","HOUSE_NO":"４９號","E_COORD97":166467.73000000001,"N_COORD97":2545028.0800000001,"ADDRESS":"中華西路二段７９１巷４９號","OBJECTID":386092},"geometry":{"x":166467.72999999952,"y":2545028.0800000019}},{"attributes":{"ID":386117,"DIS_CODE":0,"TOWNNAME":"中西區","LI":"西湖里","LIN":"37鄰","STREET":"中華西路","SECT":"二段","MAREA":" ","LANE":"７９１巷","ALLEY":" ","HOUSE_NO":"５１號","E_COORD97":166460.79000000001,"N_COORD97":2545028.7599999998,"ADDRESS":"中華西路二段７９１巷５１號","OBJECTID":386093},"geometry":{"x":166460.79000000097,"y":2545028.7599999998}},{"attributes":{"ID":386118,"DIS_CODE":0,"TOWNNAME":"中西區","LI":"西湖里","LIN":"37鄰","STREET":"中華西路","SECT":"二段","MAREA":" ","LANE":"７９１巷","ALLEY":" ","HOUSE_NO":"５３號","E_COORD97":166454.51999999999,"N_COORD97":2545029.4300000002,"ADDRESS":"中華西路二段７９１巷５３號","OBJECTID":386094},"geometry":{"x":166454.51999999955,"y":2545029.4300000016}},{"attributes":{"ID":386119,"DIS_CODE":0,"TOWNNAME":"中西區","LI":"西湖里","LIN":"37鄰","STREET":"中華西路","SECT":"二段","MAREA":" ","LANE":"７９１巷","ALLEY":" ","HOUSE_NO":"５５號","E_COORD97":166448.76000000001,"N_COORD97":2545029.9399999999,"ADDRESS":"中華西路二段７９１巷５５號","OBJECTID":386095},"geometry":{"x":166448.76000000071,"y":2545029.9399999995}},{"attributes":{"ID":386120,"DIS_CODE":0,"TOWNNAME":"中西區","LI":"西湖里","LIN":"37鄰","STREET":"中華西路","SECT":"二段","MAREA":" ","LANE":"７９１巷","ALLEY":" ","HOUSE_NO":"５７號","E_COORD97":166442.5,"N_COORD97":2545030.2799999998,"ADDRESS":"中華西路二段７９１巷５７號","OBJECTID":386096},"geometry":{"x":166442.50000000093,"y":2545030.2799999993}},{"attributes":{"ID":386121,"DIS_CODE":0,"TOWNNAME":"中西區","LI":"西湖里","LIN":"37鄰","STREET":"中華西路","SECT":"二段","MAREA":" ","LANE":"７９１巷","ALLEY":" ","HOUSE_NO":"５９號","E_COORD97":166436.57000000001,"N_COORD97":2545030.96,"ADDRESS":"中華西路二段７９１巷５９號","OBJECTID":386097},"geometry":{"x":166436.57000000216,"y":2545030.9600000009}},{"attributes":{"ID":386122,"DIS_CODE":0,"TOWNNAME":"中西區","LI":"西湖里","LIN":"37鄰","STREET":"中華西路","SECT":"二段","MAREA":" ","LANE":"７９１巷","ALLEY":" ","HOUSE_NO":"６１號","E_COORD97":166430.81,"N_COORD97":2545031.4700000002,"ADDRESS":"中華西路二段７９１巷６１號","OBJECTID":386098},"geometry":{"x":166430.81000000145,"y":2545031.4700000007}},{"attributes":{"ID":386123,"DIS_CODE":0,"TOWNNAME":"中西區","LI":"西湖里","LIN":"37鄰","STREET":"中華西路","SECT":"二段","MAREA":" ","LANE":"７９１巷","ALLEY":" ","HOUSE_NO":"６３號","E_COORD97":166425.06,"N_COORD97":2545031.9700000002,"ADDRESS":"中華西路二段７９１巷６３號","OBJECTID":386099},"geometry":{"x":166425.05999999959,"y":2545031.9700000044}},{"attributes":{"ID":386124,"DIS_CODE":0,"TOWNNAME":"中西區","LI":"西湖里","LIN":"37鄰","STREET":"中華西路","SECT":"二段","MAREA":" ","LANE":"７９１巷","ALLEY":" ","HOUSE_NO":"６５號","E_COORD97":166419.47,"N_COORD97":2545032.48,"ADDRESS":"中華西路二段７９１巷６５號","OBJECTID":386100},"geometry":{"x":166419.46999999974,"y":2545032.4800000023}},{"attributes":{"ID":386125,"DIS_CODE":0,"TOWNNAME":"中西區","LI":"西湖里","LIN":"37鄰","STREET":"和緯路","SECT":"五段","MAREA":" ","LANE":"８９巷","ALLEY":" ","HOUSE_NO":"７７號","E_COORD97":166406.64000000001,"N_COORD97":2545029.5699999998,"ADDRESS":"和緯路五段８９巷７７號","OBJECTID":386101},"geometry":{"x":166406.64000000153,"y":2545029.5700000003}},{"attributes":{"ID":386126,"DIS_CODE":0,"TOWNNAME":"中西區","LI":"西湖里","LIN":"37鄰","STREET":"和緯路","SECT":"五段","MAREA":" ","LANE":"８９巷","ALLEY":" ","HOUSE_NO":"８１號","E_COORD97":166405.81,"N_COORD97":2545022.3999999999,"ADDRESS":"和緯路五段８９巷８１號","OBJECTID":386102},"geometry":{"x":166405.81000000052,"y":2545022.4000000022}},{"attributes":{"ID":386127,"DIS_CODE":0,"TOWNNAME":"中西區","LI":"西湖里","LIN":"37鄰","STREET":"和緯路","SECT":"五段","MAREA":" ","LANE":"８９巷","ALLEY":" ","HOUSE_NO":"８９號","E_COORD97":166404.29000000001,"N_COORD97":2545004.3599999999,"ADDRESS":"和緯路五段８９巷８９號","OBJECTID":386103},"geometry":{"x":166404.2900000019,"y":2545004.3600000031}},{"attributes":{"ID":386128,"DIS_CODE":0,"TOWNNAME":"中西區","LI":"西湖里","LIN":"37鄰","STREET":"頂美三街","SECT":" ","MAREA":" ","LANE":"２３９巷","ALLEY":" ","HOUSE_NO":"１０號","E_COORD97":166536.48000000001,"N_COORD97":2544972.54,"ADDRESS":"頂美三街２３９巷１０號","OBJECTID":386104},"geometry":{"x":166536.48000000138,"y":2544972.5400000028}},{"attributes":{"ID":386129,"DIS_CODE":0,"TOWNNAME":"中西區","LI":"西湖里","LIN":"37鄰","STREET":"頂美三街","SECT":" ","MAREA":" ","LANE":"２３９巷","ALLEY":" ","HOUSE_NO":"２號","E_COORD97":166551.92999999999,"N_COORD97":2544970.8700000001,"ADDRESS":"頂美三街２３９巷２號","OBJECTID":386105},"geometry":{"x":166551.9299999997,"y":2544970.870000001}},{"attributes":{"ID":386130,"DIS_CODE":0,"TOWNNAME":"中西區","LI":"西湖里","LIN":"37鄰","STREET":"頂美三街","SECT":" ","MAREA":" ","LANE":"２３９巷","ALLEY":" ","HOUSE_NO":"３８號","E_COORD97":166480.94,"N_COORD97":2544976.9399999999,"ADDRESS":"頂美三街２３９巷３８號","OBJECTID":386106},"geometry":{"x":166480.94000000041,"y":2544976.9400000032}},{"attributes":{"ID":386131,"DIS_CODE":0,"TOWNNAME":"中西區","LI":"西湖里","LIN":"37鄰","STREET":"頂美三街","SECT":" ","MAREA":" ","LANE":"２３９巷","ALLEY":" ","HOUSE_NO":"１８號","E_COORD97":166520.94,"N_COORD97":2544973.9100000001,"ADDRESS":"頂美三街２３９巷１８號","OBJECTID":386107},"geometry":{"x":166520.94000000134,"y":2544973.9100000001}},{"attributes":{"ID":386132,"DIS_CODE":0,"TOWNNAME":"中西區","LI":"西湖里","LIN":"37鄰","STREET":"頂美三街","SECT":" ","MAREA":" ","LANE":"２３９巷","ALLEY":" ","HOUSE_NO":"２０號","E_COORD97":166516.04999999999,"N_COORD97":2544974.3599999999,"ADDRESS":"頂美三街２３９巷２０號","OBJECTID":386108},"geometry":{"x":166516.05000000075,"y":2544974.3600000013}},{"attributes":{"ID":386133,"DIS_CODE":0,"TOWNNAME":"中西區","LI":"西湖里","LIN":"37鄰","STREET":"頂美三街","SECT":" ","MAREA":" ","LANE":"２３９巷","ALLEY":" ","HOUSE_NO":"１６號","E_COORD97":166525.89000000001,"N_COORD97":2544973.4100000001,"ADDRESS":"頂美三街２３９巷１６號","OBJECTID":386109},"geometry":{"x":166525.8900000006,"y":2544973.4100000001}},{"attributes":{"ID":386134,"DIS_CODE":0,"TOWNNAME":"中西區","LI":"西湖里","LIN":"37鄰","STREET":"頂美三街","SECT":" ","MAREA":" ","LANE":"２３９巷","ALLEY":" ","HOUSE_NO":"１２號","E_COORD97":166530.66,"N_COORD97":2544973.0899999999,"ADDRESS":"頂美三街２３９巷１２號","OBJECTID":386110},"geometry":{"x":166530.65999999922,"y":2544973.0900000017}},{"attributes":{"ID":386135,"DIS_CODE":0,"TOWNNAME":"中西區","LI":"西湖里","LIN":"37鄰","STREET":"頂美三街","SECT":" ","MAREA":" ","LANE":"２３９巷","ALLEY":" ","HOUSE_NO":"８號","E_COORD97":166541.89999999999,"N_COORD97":2544972.0299999998,"ADDRESS":"頂美三街２３９巷８號","OBJECTID":386111},"geometry":{"x":166541.9000000013,"y":2544972.0299999993}},{"attributes":{"ID":386136,"DIS_CODE":0,"TOWNNAME":"中西區","LI":"西湖里","LIN":"37鄰","STREET":"頂美三街","SECT":" ","MAREA":" ","LANE":"２３９巷","ALLEY":" ","HOUSE_NO":"６號","E_COORD97":166546.85000000001,"N_COORD97":2544971.5,"ADDRESS":"頂美三街２３９巷６號","OBJECTID":386112},"geometry":{"x":166546.84999999963,"y":2544971.5000000019}},{"attributes":{"ID":386137,"DIS_CODE":0,"TOWNNAME":"中西區","LI":"西湖里","LIN":"37鄰","STREET":"頂美三街","SECT":" ","MAREA":" ","LANE":"２３９巷","ALLEY":" ","HOUSE_NO":"２２號","E_COORD97":166510.91,"N_COORD97":2544974.5699999998,"ADDRESS":"頂美三街２３９巷２２號","OBJECTID":386113},"geometry":{"x":166510.91000000108,"y":2544974.5700000022}},{"attributes":{"ID":386138,"DIS_CODE":0,"TOWNNAME":"中西區","LI":"西湖里","LIN":"37鄰","STREET":"頂美三街","SECT":" ","MAREA":" ","LANE":"２３９巷","ALLEY":" ","HOUSE_NO":"２６號","E_COORD97":166506.20999999999,"N_COORD97":2544974.9900000002,"ADDRESS":"頂美三街２３９巷２６號","OBJECTID":386114},"geometry":{"x":166506.20999999996,"y":2544974.9900000021}},{"attributes":{"ID":386139,"DIS_CODE":0,"TOWNNAME":"中西區","LI":"西湖里","LIN":"37鄰","STREET":"頂美三街","SECT":" ","MAREA":" ","LANE":"２３９巷","ALLEY":" ","HOUSE_NO":"２８號","E_COORD97":166501.13,"N_COORD97":2544975.3100000001,"ADDRESS":"頂美三街２３９巷２８號","OBJECTID":386115},"geometry":{"x":166501.12999999989,"y":2544975.3100000042}},{"attributes":{"ID":386140,"DIS_CODE":0,"TOWNNAME":"中西區","LI":"西湖里","LIN":"37鄰","STREET":"頂美三街","SECT":" ","MAREA":" ","LANE":"２３９巷","ALLEY":" ","HOUSE_NO":"３０號","E_COORD97":166496.17999999999,"N_COORD97":2544975.7599999998,"ADDRESS":"頂美三街２３９巷３０號","OBJECTID":386116},"geometry":{"x":166496.18000000156,"y":2544975.7600000016}},{"attributes":{"ID":386141,"DIS_CODE":0,"TOWNNAME":"中西區","LI":"西湖里","LIN":"37鄰","STREET":"頂美三街","SECT":" ","MAREA":" ","LANE":"２３９巷","ALLEY":" ","HOUSE_NO":"３２號","E_COORD97":166491.26000000001,"N_COORD97":2544976.2599999998,"ADDRESS":"頂美三街２３９巷３２號","OBJECTID":386117},"geometry":{"x":166491.26000000071,"y":2544976.2600000016}},{"attributes":{"ID":386142,"DIS_CODE":0,"TOWNNAME":"中西區","LI":"西湖里","LIN":"37鄰","STREET":"頂美三街","SECT":" ","MAREA":" ","LANE":"２３９巷","ALLEY":" ","HOUSE_NO":"３６號","E_COORD97":166486.17999999999,"N_COORD97":2544976.77,"ADDRESS":"頂美三街２３９巷３６號","OBJECTID":386118},"geometry":{"x":166486.18000000156,"y":2544976.7699999996}},{"attributes":{"ID":386143,"DIS_CODE":0,"TOWNNAME":"中西區","LI":"西湖里","LIN":"37鄰","STREET":"頂美三街","SECT":" ","MAREA":" ","LANE":"２３９巷","ALLEY":" ","HOUSE_NO":"５８號","E_COORD97":166410.32000000001,"N_COORD97":2544982.1899999999,"ADDRESS":"頂美三街２３９巷５８號","OBJECTID":386119},"geometry":{"x":166410.3200000003,"y":2544982.1900000013}},{"attributes":{"ID":386144,"DIS_CODE":0,"TOWNNAME":"中西區","LI":"西湖里","LIN":"37鄰","STREET":"頂美三街","SECT":" ","MAREA":" ","LANE":"２３９巷","ALLEY":" ","HOUSE_NO":"４６之５號","E_COORD97":166445.20999999999,"N_COORD97":2544979.6499999999,"ADDRESS":"頂美三街２３９巷４６之５號","OBJECTID":386120},"geometry":{"x":166445.20999999996,"y":2544979.6500000041}},{"attributes":{"ID":386145,"DIS_CODE":0,"TOWNNAME":"中西區","LI":"西湖里","LIN":"37鄰","STREET":"頂美三街","SECT":" ","MAREA":" ","LANE":"２３９巷","ALLEY":" ","HOUSE_NO":"４６號","E_COORD97":166466.51999999999,"N_COORD97":2544977.8500000001,"ADDRESS":"頂美三街２３９巷４６號","OBJECTID":386121},"geometry":{"x":166466.51999999862,"y":2544977.8500000015}},{"attributes":{"ID":386146,"DIS_CODE":0,"TOWNNAME":"中西區","LI":"西湖里","LIN":"37鄰","STREET":"頂美三街","SECT":" ","MAREA":" ","LANE":"２３９巷","ALLEY":" ","HOUSE_NO":"４６之３號","E_COORD97":166450.01000000001,"N_COORD97":2544979.1200000001,"ADDRESS":"頂美三街２３９巷４６之３號","OBJECTID":386122},"geometry":{"x":166450.01000000164,"y":2544979.120000001}},{"attributes":{"ID":386147,"DIS_CODE":0,"TOWNNAME":"中西區","LI":"西湖里","LIN":"37鄰","STREET":"頂美三街","SECT":" ","MAREA":" ","LANE":"２３９巷","ALLEY":" ","HOUSE_NO":"４６之２號","E_COORD97":166455.54000000001,"N_COORD97":2544978.6299999999,"ADDRESS":"頂美三街２３９巷４６之２號","OBJECTID":386123},"geometry":{"x":166455.54000000097,"y":2544978.6300000008}},{"attributes":{"ID":386148,"DIS_CODE":0,"TOWNNAME":"中西區","LI":"西湖里","LIN":"37鄰","STREET":"頂美三街","SECT":" ","MAREA":" ","LANE":"２３９巷","ALLEY":" ","HOUSE_NO":"４６之１號","E_COORD97":166461.44,"N_COORD97":2544978.4900000002,"ADDRESS":"頂美三街２３９巷４６之１號","OBJECTID":386124},"geometry":{"x":166461.44000000227,"y":2544978.4900000021}},{"attributes":{"ID":386149,"DIS_CODE":0,"TOWNNAME":"中西區","LI":"西湖里","LIN":"37鄰","STREET":"頂美三街","SECT":" ","MAREA":" ","LANE":"２３９巷","ALLEY":" ","HOUSE_NO":"４０號","E_COORD97":166476.67999999999,"N_COORD97":2544977.2200000002,"ADDRESS":"頂美三街２３９巷４０號","OBJECTID":386125},"geometry":{"x":166476.68000000063,"y":2544977.2200000025}},{"attributes":{"ID":386150,"DIS_CODE":0,"TOWNNAME":"中西區","LI":"西湖里","LIN":"37鄰","STREET":"頂美三街","SECT":" ","MAREA":" ","LANE":"２３９巷","ALLEY":" ","HOUSE_NO":"４２號","E_COORD97":166471.62,"N_COORD97":2544977.6200000001,"ADDRESS":"頂美三街２３９巷４２號","OBJECTID":386126},"geometry":{"x":166471.62000000197,"y":2544977.6200000029}},{"attributes":{"ID":386151,"DIS_CODE":0,"TOWNNAME":"中西區","LI":"西湖里","LIN":"37鄰","STREET":"頂美三街","SECT":" ","MAREA":" ","LANE":"２３９巷","ALLEY":" ","HOUSE_NO":"４６之８號","E_COORD97":166429.37,"N_COORD97":2544980.71,"ADDRESS":"頂美三街２３９巷４６之８號","OBJECTID":386127},"geometry":{"x":166429.37000000197,"y":2544980.7100000028}},{"attributes":{"ID":386152,"DIS_CODE":0,"TOWNNAME":"中西區","LI":"西湖里","LIN":"37鄰","STREET":"頂美三街","SECT":" ","MAREA":" ","LANE":"２３９巷","ALLEY":" ","HOUSE_NO":"４６之６號","E_COORD97":166439.79000000001,"N_COORD97":2544979.9900000002,"ADDRESS":"頂美三街２３９巷４６之６號","OBJECTID":386128},"geometry":{"x":166439.78999999911,"y":2544979.9900000002}},{"attributes":{"ID":386153,"DIS_CODE":0,"TOWNNAME":"中西區","LI":"西湖里","LIN":"37鄰","STREET":"頂美三街","SECT":" ","MAREA":" ","LANE":"２３９巷","ALLEY":" ","HOUSE_NO":"４６之７號","E_COORD97":166434.70999999999,"N_COORD97":2544980.5,"ADDRESS":"頂美三街２３９巷４６之７號","OBJECTID":386129},"geometry":{"x":166434.70999999996,"y":2544980.5000000037}},{"attributes":{"ID":386154,"DIS_CODE":0,"TOWNNAME":"中西區","LI":"西湖里","LIN":"37鄰","STREET":"頂美三街","SECT":" ","MAREA":" ","LANE":"２３９巷","ALLEY":" ","HOUSE_NO":"５２號","E_COORD97":166419.20999999999,"N_COORD97":2544981.3399999999,"ADDRESS":"頂美三街２３９巷５２號","OBJECTID":386130},"geometry":{"x":166419.20999999996,"y":2544981.3400000036}},{"attributes":{"ID":386155,"DIS_CODE":0,"TOWNNAME":"中西區","LI":"西湖里","LIN":"37鄰","STREET":"頂美三街","SECT":" ","MAREA":" ","LANE":"２３９巷","ALLEY":" ","HOUSE_NO":"５０號","E_COORD97":166424.04000000001,"N_COORD97":2544981,"ADDRESS":"頂美三街２３９巷５０號","OBJECTID":386131},"geometry":{"x":166424.04000000004,"y":2544981.0000000019}},{"attributes":{"ID":386156,"DIS_CODE":0,"TOWNNAME":"中西區","LI":"西湖里","LIN":"37鄰","STREET":"頂美三街","SECT":" ","MAREA":" ","LANE":"２３９巷","ALLEY":" ","HOUSE_NO":"５６號","E_COORD97":166414.45000000001,"N_COORD97":2544981.98,"ADDRESS":"頂美三街２３９巷５６號","OBJECTID":386132},"geometry":{"x":166414.45000000019,"y":2544981.9800000023}},{"attributes":{"ID":386157,"DIS_CODE":0,"TOWNNAME":"中西區","LI":"西湖里","LIN":"37鄰","STREET":"頂美三街","SECT":" ","MAREA":" ","LANE":"２４１巷","ALLEY":" ","HOUSE_NO":"３１號","E_COORD97":166473.19,"N_COORD97":2544999.4399999999,"ADDRESS":"頂美三街２４１巷３１號","OBJECTID":386133},"geometry":{"x":166473.19000000227,"y":2544999.4399999995}},{"attributes":{"ID":386158,"DIS_CODE":0,"TOWNNAME":"中西區","LI":"西湖里","LIN":"37鄰","STREET":"頂美三街","SECT":" ","MAREA":" ","LANE":"２４１巷","ALLEY":" ","HOUSE_NO":"３８號","E_COORD97":166473.64999999999,"N_COORD97":2545010.2999999998,"ADDRESS":"頂美三街２４１巷３８號","OBJECTID":386134},"geometry":{"x":166473.6500000013,"y":2545010.3000000026}},{"attributes":{"ID":386159,"DIS_CODE":0,"TOWNNAME":"中西區","LI":"西湖里","LIN":"37鄰","STREET":"頂美三街","SECT":" ","MAREA":" ","LANE":"２４１巷","ALLEY":" ","HOUSE_NO":"２號","E_COORD97":166546.85000000001,"N_COORD97":2545003.5699999998,"ADDRESS":"頂美三街２４１巷２號","OBJECTID":386135},"geometry":{"x":166546.84999999963,"y":2545003.5700000003}},{"attributes":{"ID":386160,"DIS_CODE":0,"TOWNNAME":"中西區","LI":"西湖里","LIN":"37鄰","STREET":"頂美三街","SECT":" ","MAREA":" ","LANE":"２４１巷","ALLEY":" ","HOUSE_NO":"１號","E_COORD97":166548.12,"N_COORD97":2544992.77,"ADDRESS":"頂美三街２４１巷１號","OBJECTID":386136},"geometry":{"x":166548.12000000104,"y":2544992.7700000014}},{"attributes":{"ID":386161,"DIS_CODE":0,"TOWNNAME":"中西區","LI":"西湖里","LIN":"37鄰","STREET":"頂美三街","SECT":" ","MAREA":" ","LANE":"２４１巷","ALLEY":" ","HOUSE_NO":"５號","E_COORD97":166537.32000000001,"N_COORD97":2544993.5299999998,"ADDRESS":"頂美三街２４１巷５號","OBJECTID":386137},"geometry":{"x":166537.32000000123,"y":2544993.5300000012}},{"attributes":{"ID":386162,"DIS_CODE":0,"TOWNNAME":"中西區","LI":"西湖里","LIN":"37鄰","STREET":"頂美三街","SECT":" ","MAREA":" ","LANE":"２４１巷","ALLEY":" ","HOUSE_NO":"１１號","E_COORD97":166522.39999999999,"N_COORD97":2544994.3599999999,"ADDRESS":"頂美三街２４１巷１１號","OBJECTID":386138},"geometry":{"x":166522.40000000037,"y":2544994.3600000031}},{"attributes":{"ID":386163,"DIS_CODE":0,"TOWNNAME":"中西區","LI":"西湖里","LIN":"37鄰","STREET":"頂美三街","SECT":" ","MAREA":" ","LANE":"２４１巷","ALLEY":" ","HOUSE_NO":"９號","E_COORD97":166527.16,"N_COORD97":2544994.04,"ADDRESS":"頂美三街２４１巷９號","OBJECTID":386139},"geometry":{"x":166527.16000000015,"y":2544994.040000001}},{"attributes":{"ID":386164,"DIS_CODE":0,"TOWNNAME":"中西區","LI":"西湖里","LIN":"37鄰","STREET":"頂美三街","SECT":" ","MAREA":" ","LANE":"２４１巷","ALLEY":" ","HOUSE_NO":"３號","E_COORD97":166542.39999999999,"N_COORD97":2544992.8999999999,"ADDRESS":"頂美三街２４１巷３號","OBJECTID":386140},"geometry":{"x":166542.40000000037,"y":2544992.9000000022}},{"attributes":{"ID":386165,"DIS_CODE":0,"TOWNNAME":"中西區","LI":"西湖里","LIN":"37鄰","STREET":"頂美三街","SECT":" ","MAREA":" ","LANE":"２４１巷","ALLEY":" ","HOUSE_NO":"７號","E_COORD97":166531.98999999999,"N_COORD97":2544993.6600000001,"ADDRESS":"頂美三街２４１巷７號","OBJECTID":386141},"geometry":{"x":166531.99000000209,"y":2544993.660000002}},{"attributes":{"ID":386166,"DIS_CODE":0,"TOWNNAME":"中西區","LI":"西湖里","LIN":"37鄰","STREET":"頂美三街","SECT":" ","MAREA":" ","LANE":"２４１巷","ALLEY":" ","HOUSE_NO":"１３號","E_COORD97":166517.76999999999,"N_COORD97":2544995.0600000001,"ADDRESS":"頂美三街２４１巷１３號","OBJECTID":386142},"geometry":{"x":166517.77000000048,"y":2544995.0600000024}},{"attributes":{"ID":386167,"DIS_CODE":0,"TOWNNAME":"中西區","LI":"西湖里","LIN":"37鄰","STREET":"頂美三街","SECT":" ","MAREA":" ","LANE":"２４１巷","ALLEY":" ","HOUSE_NO":"１５號","E_COORD97":166512.94,"N_COORD97":2544995.4399999999,"ADDRESS":"頂美三街２４１巷１５號","OBJECTID":386143},"geometry":{"x":166512.94000000134,"y":2544995.4400000013}},{"attributes":{"ID":386168,"DIS_CODE":0,"TOWNNAME":"中西區","LI":"西湖里","LIN":"37鄰","STREET":"頂美三街","SECT":" ","MAREA":" ","LANE":"２４１巷","ALLEY":" ","HOUSE_NO":"１７號","E_COORD97":166508.10999999999,"N_COORD97":2544995.6899999999,"ADDRESS":"頂美三街２４１巷１７號","OBJECTID":386144},"geometry":{"x":166508.11000000127,"y":2544995.6900000032}},{"attributes":{"ID":386169,"DIS_CODE":0,"TOWNNAME":"中西區","LI":"西湖里","LIN":"37鄰","STREET":"頂美三街","SECT":" ","MAREA":" ","LANE":"２４１巷","ALLEY":" ","HOUSE_NO":"１９號","E_COORD97":166503.54000000001,"N_COORD97":2544996.3300000001,"ADDRESS":"頂美三街２４１巷１９號","OBJECTID":386145},"geometry":{"x":166503.54000000004,"y":2544996.3300000019}},{"attributes":{"ID":386170,"DIS_CODE":0,"TOWNNAME":"中西區","LI":"西湖里","LIN":"37鄰","STREET":"頂美三街","SECT":" ","MAREA":" ","LANE":"２４１巷","ALLEY":" ","HOUSE_NO":"２５號","E_COORD97":166488.42999999999,"N_COORD97":2544998.1099999999,"ADDRESS":"頂美三街２４１巷２５號","OBJECTID":386146},"geometry":{"x":166488.43000000063,"y":2544998.1099999994}},{"attributes":{"ID":386171,"DIS_CODE":0,"TOWNNAME":"中西區","LI":"西湖里","LIN":"37鄰","STREET":"頂美三街","SECT":" ","MAREA":" ","LANE":"２４１巷","ALLEY":" ","HOUSE_NO":"２７號","E_COORD97":166483.22,"N_COORD97":2544998.6200000001,"ADDRESS":"頂美三街２４１巷２７號","OBJECTID":386147},"geometry":{"x":166483.22000000067,"y":2544998.6200000029}},{"attributes":{"ID":386172,"DIS_CODE":0,"TOWNNAME":"中西區","LI":"西湖里","LIN":"37鄰","STREET":"頂美三街","SECT":" ","MAREA":" ","LANE":"２４１巷","ALLEY":" ","HOUSE_NO":"３２號","E_COORD97":166484.23999999999,"N_COORD97":2545008.5800000001,"ADDRESS":"頂美三街２４１巷３２號","OBJECTID":386148},"geometry":{"x":166484.24000000022,"y":2545008.5800000019}},{"attributes":{"ID":386173,"DIS_CODE":0,"TOWNNAME":"中西區","LI":"西湖里","LIN":"37鄰","STREET":"頂美三街","SECT":" ","MAREA":" ","LANE":"２４１巷","ALLEY":" ","HOUSE_NO":"２９號","E_COORD97":166478.14000000001,"N_COORD97":2544998.7400000002,"ADDRESS":"頂美三街２４１巷２９號","OBJECTID":386149},"geometry":{"x":166478.1400000006,"y":2544998.7400000002}},{"attributes":{"ID":386174,"DIS_CODE":0,"TOWNNAME":"中西區","LI":"西湖里","LIN":"37鄰","STREET":"頂美三街","SECT":" ","MAREA":" ","LANE":"２４１巷","ALLEY":" ","HOUSE_NO":"２１號","E_COORD97":166498.84,"N_COORD97":2544997.0899999999,"ADDRESS":"頂美三街２４１巷２１號","OBJECTID":386150},"geometry":{"x":166498.84000000078,"y":2544997.0900000017}},{"attributes":{"ID":386175,"DIS_CODE":0,"TOWNNAME":"中西區","LI":"西湖里","LIN":"37鄰","STREET":"頂美三街","SECT":" ","MAREA":" ","LANE":"２４１巷","ALLEY":" ","HOUSE_NO":"２３號","E_COORD97":166493.51000000001,"N_COORD97":2544997.6000000001,"ADDRESS":"頂美三街２４１巷２３號","OBJECTID":386151},"geometry":{"x":166493.50999999978,"y":2544997.6000000015}},{"attributes":{"ID":386176,"DIS_CODE":0,"TOWNNAME":"中西區","LI":"西湖里","LIN":"37鄰","STREET":"頂美三街","SECT":" ","MAREA":" ","LANE":"２４１巷","ALLEY":" ","HOUSE_NO":"２０號","E_COORD97":166510.14999999999,"N_COORD97":2545005.98,"ADDRESS":"頂美三街２４１巷２０號","OBJECTID":386152},"geometry":{"x":166510.15000000037,"y":2545005.9800000023}},{"attributes":{"ID":386177,"DIS_CODE":0,"TOWNNAME":"中西區","LI":"西湖里","LIN":"37鄰","STREET":"頂美三街","SECT":" ","MAREA":" ","LANE":"２４１巷","ALLEY":" ","HOUSE_NO":"３０號","E_COORD97":166489.32000000001,"N_COORD97":2545007.9500000002,"ADDRESS":"頂美三街２４１巷３０號","OBJECTID":386153},"geometry":{"x":166489.32000000123,"y":2545007.9500000011}},{"attributes":{"ID":386178,"DIS_CODE":0,"TOWNNAME":"中西區","LI":"西湖里","LIN":"37鄰","STREET":"頂美三街","SECT":" ","MAREA":" ","LANE":"２４１巷","ALLEY":" ","HOUSE_NO":"３６號","E_COORD97":166479.07000000001,"N_COORD97":2545009.2799999998,"ADDRESS":"頂美三街２４１巷３６號","OBJECTID":386154},"geometry":{"x":166479.07000000216,"y":2545009.2800000012}},{"attributes":{"ID":386179,"DIS_CODE":0,"TOWNNAME":"中西區","LI":"西湖里","LIN":"37鄰","STREET":"頂美三街","SECT":" ","MAREA":" ","LANE":"２４１巷","ALLEY":" ","HOUSE_NO":"１０號","E_COORD97":166531.48000000001,"N_COORD97":2545004.52,"ADDRESS":"頂美三街２４１巷１０號","OBJECTID":386155},"geometry":{"x":166531.48000000045,"y":2545004.5200000014}},{"attributes":{"ID":386180,"DIS_CODE":0,"TOWNNAME":"中西區","LI":"西湖里","LIN":"37鄰","STREET":"頂美三街","SECT":" ","MAREA":" ","LANE":"２４１巷","ALLEY":" ","HOUSE_NO":"１２號","E_COORD97":166526.66,"N_COORD97":2545005.0299999998,"ADDRESS":"頂美三街２４１巷１２號","OBJECTID":386156},"geometry":{"x":166526.66000000015,"y":2545005.0299999993}},{"attributes":{"ID":386181,"DIS_CODE":0,"TOWNNAME":"中西區","LI":"西湖里","LIN":"37鄰","STREET":"頂美三街","SECT":" ","MAREA":" ","LANE":"２４１巷","ALLEY":" ","HOUSE_NO":"１６號","E_COORD97":166521.45000000001,"N_COORD97":2545005.2799999998,"ADDRESS":"頂美三街２４１巷１６號","OBJECTID":386157},"geometry":{"x":166521.45000000019,"y":2545005.2800000012}},{"attributes":{"ID":386182,"DIS_CODE":0,"TOWNNAME":"中西區","LI":"西湖里","LIN":"37鄰","STREET":"頂美三街","SECT":" ","MAREA":" ","LANE":"２４１巷","ALLEY":" ","HOUSE_NO":"１８號","E_COORD97":166516.10999999999,"N_COORD97":2545005.6499999999,"ADDRESS":"頂美三街２４１巷１８號","OBJECTID":386158},"geometry":{"x":166516.1100000022,"y":2545005.6500000004}},{"attributes":{"ID":386183,"DIS_CODE":0,"TOWNNAME":"中西區","LI":"西湖里","LIN":"37鄰","STREET":"頂美三街","SECT":" ","MAREA":" ","LANE":"２４１巷","ALLEY":" ","HOUSE_NO":"６號","E_COORD97":166542.01999999999,"N_COORD97":2545003.8900000001,"ADDRESS":"頂美三街２４１巷６號","OBJECTID":386159},"geometry":{"x":166542.02000000048,"y":2545003.8900000006}},{"attributes":{"ID":386184,"DIS_CODE":0,"TOWNNAME":"中西區","LI":"西湖里","LIN":"37鄰","STREET":"頂美三街","SECT":" ","MAREA":" ","LANE":"２４１巷","ALLEY":" ","HOUSE_NO":"８號","E_COORD97":166536.82000000001,"N_COORD97":2545004.3900000001,"ADDRESS":"頂美三街２４１巷８號","OBJECTID":386160},"geometry":{"x":166536.82000000123,"y":2545004.3900000006}},{"attributes":{"ID":386185,"DIS_CODE":0,"TOWNNAME":"中西區","LI":"西湖里","LIN":"37鄰","STREET":"頂美三街","SECT":" ","MAREA":" ","LANE":"２４１巷","ALLEY":" ","HOUSE_NO":"２２號","E_COORD97":166505.07000000001,"N_COORD97":2545006.5499999998,"ADDRESS":"頂美三街２４１巷２２號","OBJECTID":386161},"geometry":{"x":166505.07000000123,"y":2545006.5500000007}},{"attributes":{"ID":386186,"DIS_CODE":0,"TOWNNAME":"中西區","LI":"西湖里","LIN":"37鄰","STREET":"頂美三街","SECT":" ","MAREA":" ","LANE":"２４１巷","ALLEY":" ","HOUSE_NO":"２６號","E_COORD97":166499.73000000001,"N_COORD97":2545007.1899999999,"ADDRESS":"頂美三街２４１巷２６號","OBJECTID":386162},"geometry":{"x":166499.73000000045,"y":2545007.1900000013}},{"attributes":{"ID":386187,"DIS_CODE":0,"TOWNNAME":"中西區","LI":"西湖里","LIN":"37鄰","STREET":"頂美三街","SECT":" ","MAREA":" ","LANE":"２４１巷","ALLEY":" ","HOUSE_NO":"２８號","E_COORD97":166494.91,"N_COORD97":2545007.7000000002,"ADDRESS":"頂美三街２４１巷２８號","OBJECTID":386163},"geometry":{"x":166494.91000000015,"y":2545007.6999999993}},{"attributes":{"ID":386188,"DIS_CODE":0,"TOWNNAME":"中西區","LI":"西湖里","LIN":"37鄰","STREET":"頂美三街","SECT":" ","MAREA":" ","LANE":"２４１巷","ALLEY":" ","HOUSE_NO":"４３號","E_COORD97":166436.06,"N_COORD97":2545002.8500000001,"ADDRESS":"頂美三街２４１巷４３號","OBJECTID":386164},"geometry":{"x":166436.06000000052,"y":2545002.8500000015}},{"attributes":{"ID":386189,"DIS_CODE":0,"TOWNNAME":"永康區","LI":"西灣里","LIN":"37鄰","STREET":"國光七街","SECT":" ","MAREA":" ","LANE":"３８巷","ALLEY":" ","HOUSE_NO":"９號","E_COORD97":174200.25,"N_COORD97":2545591.0099999998,"ADDRESS":"國光七街３８巷９號","OBJECTID":386165},"geometry":{"x":174200.25,"y":2545591.0100000016}},{"attributes":{"ID":386190,"DIS_CODE":0,"TOWNNAME":"中西區","LI":"西湖里","LIN":"37鄰","STREET":"頂美三街","SECT":" ","MAREA":" ","LANE":"２４１巷","ALLEY":" ","HOUSE_NO":"５８號","E_COORD97":166424.89000000001,"N_COORD97":2545015.5499999998,"ADDRESS":"頂美三街２４１巷５８號","OBJECTID":386166},"geometry":{"x":166424.88999999966,"y":2545015.5500000026}},{"attributes":{"ID":386191,"DIS_CODE":0,"TOWNNAME":"中西區","LI":"西湖里","LIN":"37鄰","STREET":"頂美三街","SECT":" ","MAREA":" ","LANE":"２４１巷","ALLEY":" ","HOUSE_NO":"４２號","E_COORD97":166459.60000000001,"N_COORD97":2545011.9900000002,"ADDRESS":"頂美三街２４１巷４２號","OBJECTID":386167},"geometry":{"x":166459.60000000056,"y":2545011.9900000021}},{"attributes":{"ID":386192,"DIS_CODE":0,"TOWNNAME":"中西區","LI":"西湖里","LIN":"37鄰","STREET":"頂美三街","SECT":" ","MAREA":" ","LANE":"２４１巷","ALLEY":" ","HOUSE_NO":"５０號","E_COORD97":166441.98999999999,"N_COORD97":2545013.6899999999,"ADDRESS":"頂美三街２４１巷５０號","OBJECTID":386168},"geometry":{"x":166441.99000000022,"y":2545013.6900000013}},{"attributes":{"ID":386193,"DIS_CODE":0,"TOWNNAME":"中西區","LI":"西湖里","LIN":"37鄰","STREET":"頂美三街","SECT":" ","MAREA":" ","LANE":"２４１巷","ALLEY":" ","HOUSE_NO":"５６號","E_COORD97":166430.14000000001,"N_COORD97":2545014.8700000001,"ADDRESS":"頂美三街２４１巷５６號","OBJECTID":386169},"geometry":{"x":166430.13999999966,"y":2545014.870000001}},{"attributes":{"ID":386194,"DIS_CODE":0,"TOWNNAME":"中西區","LI":"西湖里","LIN":"37鄰","STREET":"頂美三街","SECT":" ","MAREA":" ","LANE":"２４１巷","ALLEY":" ","HOUSE_NO":"４６號","E_COORD97":166453.84,"N_COORD97":2545012.5,"ADDRESS":"頂美三街２４１巷４６號","OBJECTID":386170},"geometry":{"x":166453.83999999985,"y":2545012.5000000019}},{"attributes":{"ID":386195,"DIS_CODE":0,"TOWNNAME":"中西區","LI":"西湖里","LIN":"37鄰","STREET":"頂美三街","SECT":" ","MAREA":" ","LANE":"２４１巷","ALLEY":" ","HOUSE_NO":"４８號","E_COORD97":166448.25,"N_COORD97":2545013.0099999998,"ADDRESS":"頂美三街２４１巷４８號","OBJECTID":386171},"geometry":{"x":166448.25,"y":2545013.0099999998}},{"attributes":{"ID":386196,"DIS_CODE":0,"TOWNNAME":"中西區","LI":"西湖里","LIN":"37鄰","STREET":"頂美三街","SECT":" ","MAREA":" ","LANE":"２４１巷","ALLEY":" ","HOUSE_NO":"５２號","E_COORD97":166435.72,"N_COORD97":2545014.3599999999,"ADDRESS":"頂美三街２４１巷５２號","OBJECTID":386172},"geometry":{"x":166435.72000000067,"y":2545014.3599999975}},{"attributes":{"ID":386197,"DIS_CODE":0,"TOWNNAME":"中西區","LI":"西湖里","LIN":"37鄰","STREET":"頂美三街","SECT":" ","MAREA":" ","LANE":"２４１巷","ALLEY":" ","HOUSE_NO":"６０號","E_COORD97":166419.64000000001,"N_COORD97":2545019.9500000002,"ADDRESS":"頂美三街２４１巷６０號","OBJECTID":386173},"geometry":{"x":166419.63999999966,"y":2545019.9499999993}},{"attributes":{"ID":386198,"DIS_CODE":0,"TOWNNAME":"中西區","LI":"西湖里","LIN":"37鄰","STREET":"和緯路","SECT":"五段","MAREA":" ","LANE":"８９巷","ALLEY":" ","HOUSE_NO":"９９號","E_COORD97":166403.78,"N_COORD97":2544965.3100000001,"ADDRESS":"和緯路五段８９巷９９號","OBJECTID":386174},"geometry":{"x":166403.78000000026,"y":2544965.3100000042}},{"attributes":{"ID":386199,"DIS_CODE":0,"TOWNNAME":"安平區","LI":"平安里","LIN":"9鄰","STREET":"安平路","SECT":" ","MAREA":" ","LANE":"４２６巷","ALLEY":" ","HOUSE_NO":"３６號之２","E_COORD97":165370.112257,"N_COORD97":2544410.77336,"ADDRESS":"安平路４２６巷３６號之２","OBJECTID":386175},"geometry":{"x":165370.11225700006,"y":2544410.7733610012}},{"attributes":{"ID":386200,"DIS_CODE":0,"TOWNNAME":"新市區","LI":"新和里","LIN":"37鄰","STREET":"仁愛街","SECT":" ","MAREA":" ","LANE":"２４１巷","ALLEY":" ","HOUSE_NO":"２３號","E_COORD97":177554.17000000001,"N_COORD97":2552908.2799999998,"ADDRESS":"仁愛街２４１巷２３號","OBJECTID":386176},"geometry":{"x":177554.16999999899,"y":2552908.2800000012}},{"attributes":{"ID":386201,"DIS_CODE":0,"TOWNNAME":"新市區","LI":"新和里","LIN":"37鄰","STREET":"仁愛街","SECT":" ","MAREA":" ","LANE":"２４１巷","ALLEY":" ","HOUSE_NO":"３７號","E_COORD97":177502.07999999999,"N_COORD97":2552883.2799999998,"ADDRESS":"仁愛街２４１巷３７號","OBJECTID":386177},"geometry":{"x":177502.08000000007,"y":2552883.2799999993}},{"attributes":{"ID":386202,"DIS_CODE":0,"TOWNNAME":"新市區","LI":"新和里","LIN":"37鄰","STREET":"仁愛街","SECT":" ","MAREA":" ","LANE":"２４１巷","ALLEY":" ","HOUSE_NO":"１５號","E_COORD97":177571.62,"N_COORD97":2552910.7799999998,"ADDRESS":"仁愛街２４１巷１５號","OBJECTID":386178},"geometry":{"x":177571.61999999918,"y":2552910.7799999993}},{"attributes":{"ID":386203,"DIS_CODE":0,"TOWNNAME":"永康區","LI":"北灣里","LIN":"37鄰","STREET":"大同街","SECT":" ","MAREA":" ","LANE":"３２０巷","ALLEY":" ","HOUSE_NO":"３８號","E_COORD97":174826.09,"N_COORD97":2546004.48,"ADDRESS":"大同街３２０巷３８號","OBJECTID":386179},"geometry":{"x":174826.09000000078,"y":2546004.4800000004}},{"attributes":{"ID":386204,"DIS_CODE":0,"TOWNNAME":"永康區","LI":"\u25A0洲里","LIN":"37鄰","STREET":"\u25A0洲二街","SECT":" ","MAREA":" ","LANE":"１９７巷","ALLEY":" ","HOUSE_NO":"１８號","E_COORD97":171736.54999999999,"N_COORD97":2549481.4900000002,"ADDRESS":"\u25A0洲二街１９７巷１８號","OBJECTID":386180},"geometry":{"x":171736.54999999981,"y":2549481.4900000002}},{"attributes":{"ID":386205,"DIS_CODE":0,"TOWNNAME":"永康區","LI":"\u25A0洲里","LIN":"37鄰","STREET":"\u25A0洲二街","SECT":" ","MAREA":" ","LANE":"１９７巷","ALLEY":" ","HOUSE_NO":"２號","E_COORD97":171751.79999999999,"N_COORD97":2549462.9900000002,"ADDRESS":"\u25A0洲二街１９７巷２號","OBJECTID":386181},"geometry":{"x":171751.79999999981,"y":2549462.9900000039}},{"attributes":{"ID":386206,"DIS_CODE":0,"TOWNNAME":"永康區","LI":"西灣里","LIN":"37鄰","STREET":"國光八街","SECT":" ","MAREA":" ","LANE":"１２９巷","ALLEY":" ","HOUSE_NO":"３０號","E_COORD97":174142.16,"N_COORD97":2545673.8300000001,"ADDRESS":"國光八街１２９巷３０號","OBJECTID":386182},"geometry":{"x":174142.16000000201,"y":2545673.8300000019}},{"attributes":{"ID":386207,"DIS_CODE":0,"TOWNNAME":"永康區","LI":"西灣里","LIN":"37鄰","STREET":"國光八街","SECT":" ","MAREA":" ","LANE":"１２９巷","ALLEY":" ","HOUSE_NO":"２８號","E_COORD97":174140.87,"N_COORD97":2545678.0299999998,"ADDRESS":"國光八街１２９巷２８號","OBJECTID":386183},"geometry":{"x":174140.87000000104,"y":2545678.0300000031}},{"attributes":{"ID":386208,"DIS_CODE":0,"TOWNNAME":"永康區","LI":"西灣里","LIN":"37鄰","STREET":"國光八街","SECT":" ","MAREA":" ","LANE":"１２９巷","ALLEY":" ","HOUSE_NO":"１８號","E_COORD97":174136.78,"N_COORD97":2545705.2400000002,"ADDRESS":"國光八街１２９巷１８號","OBJECTID":386184},"geometry":{"x":174136.78000000119,"y":2545705.2400000021}},{"attributes":{"ID":386209,"DIS_CODE":0,"TOWNNAME":"永康區","LI":"西灣里","LIN":"37鄰","STREET":"國光七街","SECT":" ","MAREA":" ","LANE":"３８巷","ALLEY":" ","HOUSE_NO":"１１號","E_COORD97":174202.14000000001,"N_COORD97":2545595.0099999998,"ADDRESS":"國光七街３８巷１１號","OBJECTID":386185},"geometry":{"x":174202.13999999966,"y":2545595.0100000016}},{"attributes":{"ID":386210,"DIS_CODE":0,"TOWNNAME":"永康區","LI":"西灣里","LIN":"37鄰","STREET":"國光八街","SECT":" ","MAREA":" ","LANE":"１２９巷","ALLEY":" ","HOUSE_NO":"５０號","E_COORD97":174141.39999999999,"N_COORD97":2545625.4100000001,"ADDRESS":"國光八街１２９巷５０號","OBJECTID":386186},"geometry":{"x":174141.4000000013,"y":2545625.4100000039}},{"attributes":{"ID":386211,"DIS_CODE":0,"TOWNNAME":"永康區","LI":"西灣里","LIN":"37鄰","STREET":"國光七街","SECT":" ","MAREA":" ","LANE":"３８巷","ALLEY":" ","HOUSE_NO":"５號","E_COORD97":174198.87,"N_COORD97":2545582.5099999998,"ADDRESS":"國光七街３８巷５號","OBJECTID":386187},"geometry":{"x":174198.87000000104,"y":2545582.5099999998}},{"attributes":{"ID":386212,"DIS_CODE":0,"TOWNNAME":"永康區","LI":"西灣里","LIN":"37鄰","STREET":"國光七街","SECT":" ","MAREA":" ","LANE":"３８巷","ALLEY":" ","HOUSE_NO":"１３號","E_COORD97":174203.38,"N_COORD97":2545598.5099999998,"ADDRESS":"國光七街３８巷１３號","OBJECTID":386188},"geometry":{"x":174203.38000000082,"y":2545598.5100000016}},{"attributes":{"ID":386213,"DIS_CODE":0,"TOWNNAME":"永康區","LI":"西灣里","LIN":"37鄰","STREET":"國光八街","SECT":" ","MAREA":" ","LANE":"１２９巷","ALLEY":" ","HOUSE_NO":"３２號","E_COORD97":174142.47,"N_COORD97":2545669.5299999998,"ADDRESS":"國光八街１２９巷３２號","OBJECTID":386189},"geometry":{"x":174142.46999999974,"y":2545669.5299999993}},{"attributes":{"ID":386214,"DIS_CODE":0,"TOWNNAME":"永康區","LI":"西灣里","LIN":"37鄰","STREET":"國光八街","SECT":" ","MAREA":" ","LANE":"１２９巷","ALLEY":" ","HOUSE_NO":"３１號","E_COORD97":174167.28,"N_COORD97":2545595.46,"ADDRESS":"國光八街１２９巷３１號","OBJECTID":386190},"geometry":{"x":174167.28000000119,"y":2545595.4600000046}},{"attributes":{"ID":386215,"DIS_CODE":0,"TOWNNAME":"永康區","LI":"南灣里","LIN":"37鄰","STREET":"南灣街","SECT":" ","MAREA":" ","LANE":"８４巷","ALLEY":" ","HOUSE_NO":"５號","E_COORD97":174458.01000000001,"N_COORD97":2544970.75,"ADDRESS":"南灣街８４巷５號","OBJECTID":386191},"geometry":{"x":174458.01000000164,"y":2544970.75}},{"attributes":{"ID":386216,"DIS_CODE":0,"TOWNNAME":"永康區","LI":"南灣里","LIN":"37鄰","STREET":"南灣街","SECT":" ","MAREA":" ","LANE":"１００巷","ALLEY":" ","HOUSE_NO":"６號","E_COORD97":174418.85999999999,"N_COORD97":2544989.8900000001,"ADDRESS":"南灣街１００巷６號","OBJECTID":386192},"geometry":{"x":174418.86000000034,"y":2544989.8900000025}},{"attributes":{"ID":386217,"DIS_CODE":0,"TOWNNAME":"永康區","LI":"西灣里","LIN":"37鄰","STREET":"國光七街","SECT":" ","MAREA":" ","LANE":"３８巷","ALLEY":" ","HOUSE_NO":"１５號","E_COORD97":174204.53,"N_COORD97":2545603.2599999998,"ADDRESS":"國光七街３８巷１５號","OBJECTID":386193},"geometry":{"x":174204.53000000119,"y":2545603.2600000016}},{"attributes":{"ID":386218,"DIS_CODE":0,"TOWNNAME":"永康區","LI":"南灣里","LIN":"37鄰","STREET":"南灣街","SECT":" ","MAREA":" ","LANE":"８４巷","ALLEY":" ","HOUSE_NO":"１３號","E_COORD97":174423.66,"N_COORD97":2544977.5,"ADDRESS":"南灣街８４巷１３號","OBJECTID":386194},"geometry":{"x":174423.66000000201,"y":2544977.5000000019}},{"attributes":{"ID":386219,"DIS_CODE":0,"TOWNNAME":"中西區","LI":"永福里","LIN":"19鄰","STREET":"忠義路","SECT":"二段","MAREA":" ","LANE":"１４７巷","ALLEY":" ","HOUSE_NO":"２２號","E_COORD97":168317.98999999999,"N_COORD97":2544063.9300000002,"ADDRESS":"忠義路二段１４７巷２２號","OBJECTID":386195},"geometry":{"x":168317.99000000022,"y":2544063.9299999997}},{"attributes":{"ID":386220,"DIS_CODE":0,"TOWNNAME":"永康區","LI":"西灣里","LIN":"37鄰","STREET":"國光八街","SECT":" ","MAREA":" ","LANE":"１２９巷","ALLEY":" ","HOUSE_NO":"２７號","E_COORD97":174166.81,"N_COORD97":2545604.21,"ADDRESS":"國光八街１２９巷２７號","OBJECTID":386196},"geometry":{"x":174166.81000000052,"y":2545604.2100000028}},{"attributes":{"ID":386221,"DIS_CODE":0,"TOWNNAME":"永康區","LI":"西灣里","LIN":"37鄰","STREET":"國光八街","SECT":" ","MAREA":" ","LANE":"１２９巷","ALLEY":" ","HOUSE_NO":"２０號","E_COORD97":174137.07999999999,"N_COORD97":2545700.7400000002,"ADDRESS":"國光八街１２９巷２０號","OBJECTID":386197},"geometry":{"x":174137.08000000007,"y":2545700.7400000002}},{"attributes":{"ID":386222,"DIS_CODE":0,"TOWNNAME":"永康區","LI":"西灣里","LIN":"37鄰","STREET":"國光七街","SECT":" ","MAREA":" ","LANE":"３８巷","ALLEY":" ","HOUSE_NO":"７號","E_COORD97":174200.12,"N_COORD97":2545586.5099999998,"ADDRESS":"國光七街３８巷７號","OBJECTID":386198},"geometry":{"x":174200.12000000197,"y":2545586.5099999998}},{"attributes":{"ID":386223,"DIS_CODE":0,"TOWNNAME":"永康區","LI":"西灣里","LIN":"37鄰","STREET":"國光八街","SECT":" ","MAREA":" ","LANE":"１２９巷","ALLEY":" ","HOUSE_NO":"３４號","E_COORD97":174142.76999999999,"N_COORD97":2545665.2799999998,"ADDRESS":"國光八街１２９巷３４號","OBJECTID":386199},"geometry":{"x":174142.77000000048,"y":2545665.2799999993}},{"attributes":{"ID":386224,"DIS_CODE":0,"TOWNNAME":"永康區","LI":"西灣里","LIN":"37鄰","STREET":"國光八街","SECT":" ","MAREA":" ","LANE":"１２９巷","ALLEY":" ","HOUSE_NO":"２６號","E_COORD97":174141.39000000001,"N_COORD97":2545682.79,"ADDRESS":"國光八街１２９巷２６號","OBJECTID":386200},"geometry":{"x":174141.38999999966,"y":2545682.7900000028}}]}