{"displayFieldName":"TOWNNAME","fieldAliases":{"ID":"ID","DIS_CODE":"DIS_CODE","TOWNNAME":"TOWNNAME","LI":"LI","LIN":"LIN","STREET":"STREET","SECT":"SECT","MAREA":"MAREA","LANE":"LANE","ALLEY":"ALLEY","HOUSE_NO":"HOUSE_NO","E_COORD97":"E_COORD97","N_COORD97":"N_COORD97","ADDRESS":"ADDRESS","OBJECTID":"OBJECTID"},"geometryType":"esriGeometryPoint","spatialReference":{"wkid":102443,"latestWkid":3826},"fields":[{"name":"ID","type":"esriFieldTypeDouble","alias":"ID"},{"name":"DIS_CODE","type":"esriFieldTypeInteger","alias":"DIS_CODE"},{"name":"TOWNNAME","type":"esriFieldTypeString","alias":"TOWNNAME","length":8},{"name":"LI","type":"esriFieldTypeString","alias":"LI","length":8},{"name":"LIN","type":"esriFieldTypeString","alias":"LIN","length":12},{"name":"STREET","type":"esriFieldTypeString","alias":"STREET","length":20},{"name":"SECT","type":"esriFieldTypeString","alias":"SECT","length":8},{"name":"MAREA","type":"esriFieldTypeString","alias":"MAREA","length":12},{"name":"LANE","type":"esriFieldTypeString","alias":"LANE","length":10},{"name":"ALLEY","type":"esriFieldTypeString","alias":"ALLEY","length":10},{"name":"HOUSE_NO","type":"esriFieldTypeString","alias":"HOUSE_NO","length":20},{"name":"E_COORD97","type":"esriFieldTypeDouble","alias":"E_COORD97"},{"name":"N_COORD97","type":"esriFieldTypeDouble","alias":"N_COORD97"},{"name":"ADDRESS","type":"esriFieldTypeString","alias":"ADDRESS","length":50},{"name":"OBJECTID","type":"esriFieldTypeOID","alias":"OBJECTID"}],"features":[{"attributes":{"ID":510828,"DIS_CODE":0,"TOWNNAME":"安平區","LI":"平通里","LIN":"1鄰","STREET":"國平路","SECT":" ","MAREA":" ","LANE":" ","ALLEY":" ","HOUSE_NO":"５８７號四樓之１","E_COORD97":165064.60999999999,"N_COORD97":2544106.4700000002,"ADDRESS":"國平路５８７號四樓之１","OBJECTID":510801},"geometry":{"x":165064.61000000034,"y":2544106.4700000044}},{"attributes":{"ID":510829,"DIS_CODE":0,"TOWNNAME":"安平區","LI":"平通里","LIN":"1鄰","STREET":"國平路","SECT":" ","MAREA":" ","LANE":" ","ALLEY":" ","HOUSE_NO":"５８７號六樓之１１","E_COORD97":165064.60999999999,"N_COORD97":2544106.4700000002,"ADDRESS":"國平路５８７號六樓之１１","OBJECTID":510802},"geometry":{"x":165064.61000000034,"y":2544106.4700000044}},{"attributes":{"ID":510830,"DIS_CODE":0,"TOWNNAME":"安平區","LI":"平通里","LIN":"1鄰","STREET":"國平路","SECT":" ","MAREA":" ","LANE":" ","ALLEY":" ","HOUSE_NO":"５８７號七樓之７","E_COORD97":165064.60999999999,"N_COORD97":2544106.4700000002,"ADDRESS":"國平路５８７號七樓之７","OBJECTID":510803},"geometry":{"x":165064.61000000034,"y":2544106.4700000044}},{"attributes":{"ID":510831,"DIS_CODE":0,"TOWNNAME":"安平區","LI":"平通里","LIN":"1鄰","STREET":"國平路","SECT":" ","MAREA":" ","LANE":" ","ALLEY":" ","HOUSE_NO":"５８７號七樓之１０","E_COORD97":165064.60999999999,"N_COORD97":2544106.4700000002,"ADDRESS":"國平路５８７號七樓之１０","OBJECTID":510804},"geometry":{"x":165064.61000000034,"y":2544106.4700000044}},{"attributes":{"ID":510832,"DIS_CODE":0,"TOWNNAME":"安平區","LI":"平通里","LIN":"1鄰","STREET":"國平路","SECT":" ","MAREA":" ","LANE":" ","ALLEY":" ","HOUSE_NO":"５８７號七樓之１６","E_COORD97":165064.60999999999,"N_COORD97":2544106.4700000002,"ADDRESS":"國平路５８７號七樓之１６","OBJECTID":510805},"geometry":{"x":165064.61000000034,"y":2544106.4700000044}},{"attributes":{"ID":510833,"DIS_CODE":0,"TOWNNAME":"安平區","LI":"平通里","LIN":"1鄰","STREET":"國平路","SECT":" ","MAREA":" ","LANE":" ","ALLEY":" ","HOUSE_NO":"５８７號二樓之１７","E_COORD97":165064.60999999999,"N_COORD97":2544106.4700000002,"ADDRESS":"國平路５８７號二樓之１７","OBJECTID":510806},"geometry":{"x":165064.61000000034,"y":2544106.4700000044}},{"attributes":{"ID":510834,"DIS_CODE":0,"TOWNNAME":"安平區","LI":"平通里","LIN":"1鄰","STREET":"國平路","SECT":" ","MAREA":" ","LANE":" ","ALLEY":" ","HOUSE_NO":"５８７號三樓之３","E_COORD97":165064.60999999999,"N_COORD97":2544106.4700000002,"ADDRESS":"國平路５８７號三樓之３","OBJECTID":510807},"geometry":{"x":165064.61000000034,"y":2544106.4700000044}},{"attributes":{"ID":510835,"DIS_CODE":0,"TOWNNAME":"安平區","LI":"平通里","LIN":"1鄰","STREET":"國平路","SECT":" ","MAREA":" ","LANE":" ","ALLEY":" ","HOUSE_NO":"５８７號三樓之１０","E_COORD97":165064.60999999999,"N_COORD97":2544106.4700000002,"ADDRESS":"國平路５８７號三樓之１０","OBJECTID":510808},"geometry":{"x":165064.61000000034,"y":2544106.4700000044}},{"attributes":{"ID":510836,"DIS_CODE":0,"TOWNNAME":"安平區","LI":"建平里","LIN":"1鄰","STREET":"建平十七街","SECT":" ","MAREA":" ","LANE":" ","ALLEY":" ","HOUSE_NO":"３１號十四樓之４","E_COORD97":166285.63,"N_COORD97":2544212.4500000002,"ADDRESS":"建平十七街３１號十四樓之４","OBJECTID":510809},"geometry":{"x":166285.63000000082,"y":2544212.4499999993}},{"attributes":{"ID":510837,"DIS_CODE":0,"TOWNNAME":"安平區","LI":"平通里","LIN":"1鄰","STREET":"國平路","SECT":" ","MAREA":" ","LANE":" ","ALLEY":" ","HOUSE_NO":"５８７號三樓之１６","E_COORD97":165064.60999999999,"N_COORD97":2544106.4700000002,"ADDRESS":"國平路５８７號三樓之１６","OBJECTID":510810},"geometry":{"x":165064.61000000034,"y":2544106.4700000044}},{"attributes":{"ID":510838,"DIS_CODE":0,"TOWNNAME":"安平區","LI":"平通里","LIN":"1鄰","STREET":"國平路","SECT":" ","MAREA":" ","LANE":" ","ALLEY":" ","HOUSE_NO":"５８７號三樓之１７","E_COORD97":165064.60999999999,"N_COORD97":2544106.4700000002,"ADDRESS":"國平路５８７號三樓之１７","OBJECTID":510811},"geometry":{"x":165064.61000000034,"y":2544106.4700000044}},{"attributes":{"ID":510839,"DIS_CODE":0,"TOWNNAME":"安平區","LI":"平通里","LIN":"1鄰","STREET":"國平路","SECT":" ","MAREA":" ","LANE":" ","ALLEY":" ","HOUSE_NO":"５８７號四樓之７","E_COORD97":165064.60999999999,"N_COORD97":2544106.4700000002,"ADDRESS":"國平路５８７號四樓之７","OBJECTID":510812},"geometry":{"x":165064.61000000034,"y":2544106.4700000044}},{"attributes":{"ID":510840,"DIS_CODE":0,"TOWNNAME":"安平區","LI":"平通里","LIN":"1鄰","STREET":"國平路","SECT":" ","MAREA":" ","LANE":" ","ALLEY":" ","HOUSE_NO":"５８７號五樓之３","E_COORD97":165064.60999999999,"N_COORD97":2544106.4700000002,"ADDRESS":"國平路５８７號五樓之３","OBJECTID":510813},"geometry":{"x":165064.61000000034,"y":2544106.4700000044}},{"attributes":{"ID":510841,"DIS_CODE":0,"TOWNNAME":"安平區","LI":"平通里","LIN":"1鄰","STREET":"國平路","SECT":" ","MAREA":" ","LANE":" ","ALLEY":" ","HOUSE_NO":"５８７號六樓之１５","E_COORD97":165064.60999999999,"N_COORD97":2544106.4700000002,"ADDRESS":"國平路５８７號六樓之１５","OBJECTID":510814},"geometry":{"x":165064.61000000034,"y":2544106.4700000044}},{"attributes":{"ID":510842,"DIS_CODE":0,"TOWNNAME":"北區","LI":"華興里","LIN":"1鄰","STREET":"開南街","SECT":" ","MAREA":" ","LANE":" ","ALLEY":" ","HOUSE_NO":"１５號二樓","E_COORD97":170310.26000000001,"N_COORD97":2545391.2999999998,"ADDRESS":"開南街１５號二樓","OBJECTID":510815},"geometry":{"x":170310.26000000071,"y":2545391.3000000007}},{"attributes":{"ID":510843,"DIS_CODE":0,"TOWNNAME":"北區","LI":"華興里","LIN":"1鄰","STREET":"開南街","SECT":" ","MAREA":" ","LANE":" ","ALLEY":" ","HOUSE_NO":"１號四樓","E_COORD97":170287.82999999999,"N_COORD97":2545393.9500000002,"ADDRESS":"開南街１號四樓","OBJECTID":510816},"geometry":{"x":170287.83000000194,"y":2545393.9500000011}},{"attributes":{"ID":510844,"DIS_CODE":0,"TOWNNAME":"北區","LI":"華興里","LIN":"1鄰","STREET":"開南街","SECT":" ","MAREA":" ","LANE":" ","ALLEY":" ","HOUSE_NO":"１號五樓","E_COORD97":170287.82999999999,"N_COORD97":2545393.9500000002,"ADDRESS":"開南街１號五樓","OBJECTID":510817},"geometry":{"x":170287.83000000194,"y":2545393.9500000011}},{"attributes":{"ID":510845,"DIS_CODE":0,"TOWNNAME":"安平區","LI":"華平里","LIN":"1鄰","STREET":"慶平路","SECT":" ","MAREA":" ","LANE":" ","ALLEY":" ","HOUSE_NO":"５０７號之１七樓","E_COORD97":165177.17999999999,"N_COORD97":2544199.2200000002,"ADDRESS":"慶平路５０７號之１七樓","OBJECTID":510818},"geometry":{"x":165177.1799999997,"y":2544199.2200000007}},{"attributes":{"ID":510846,"DIS_CODE":0,"TOWNNAME":"安平區","LI":"華平里","LIN":"1鄰","STREET":"慶平路","SECT":" ","MAREA":" ","LANE":" ","ALLEY":" ","HOUSE_NO":"５０７號之１九樓之１","E_COORD97":165177.17999999999,"N_COORD97":2544199.2200000002,"ADDRESS":"慶平路５０７號之１九樓之１","OBJECTID":510819},"geometry":{"x":165177.1799999997,"y":2544199.2200000007}},{"attributes":{"ID":510847,"DIS_CODE":0,"TOWNNAME":"安平區","LI":"華平里","LIN":"1鄰","STREET":"慶平路","SECT":" ","MAREA":" ","LANE":" ","ALLEY":" ","HOUSE_NO":"５０７號之１九樓之２","E_COORD97":165177.17999999999,"N_COORD97":2544199.2200000002,"ADDRESS":"慶平路５０７號之１九樓之２","OBJECTID":510820},"geometry":{"x":165177.1799999997,"y":2544199.2200000007}},{"attributes":{"ID":510848,"DIS_CODE":0,"TOWNNAME":"安平區","LI":"華平里","LIN":"1鄰","STREET":"慶平路","SECT":" ","MAREA":" ","LANE":" ","ALLEY":" ","HOUSE_NO":"５０７號之１二十樓","E_COORD97":165177.17999999999,"N_COORD97":2544199.2200000002,"ADDRESS":"慶平路５０７號之１二十樓","OBJECTID":510821},"geometry":{"x":165177.1799999997,"y":2544199.2200000007}},{"attributes":{"ID":510849,"DIS_CODE":0,"TOWNNAME":"安平區","LI":"華平里","LIN":"1鄰","STREET":"慶平路","SECT":" ","MAREA":" ","LANE":" ","ALLEY":" ","HOUSE_NO":"５０７號之１八樓之１","E_COORD97":165177.17999999999,"N_COORD97":2544199.2200000002,"ADDRESS":"慶平路５０７號之１八樓之１","OBJECTID":510822},"geometry":{"x":165177.1799999997,"y":2544199.2200000007}},{"attributes":{"ID":510850,"DIS_CODE":0,"TOWNNAME":"安平區","LI":"華平里","LIN":"1鄰","STREET":"慶平路","SECT":" ","MAREA":" ","LANE":" ","ALLEY":" ","HOUSE_NO":"５０７號之１八樓之２","E_COORD97":165177.17999999999,"N_COORD97":2544199.2200000002,"ADDRESS":"慶平路５０７號之１八樓之２","OBJECTID":510823},"geometry":{"x":165177.1799999997,"y":2544199.2200000007}},{"attributes":{"ID":510851,"DIS_CODE":0,"TOWNNAME":"安平區","LI":"華平里","LIN":"1鄰","STREET":"慶平路","SECT":" ","MAREA":" ","LANE":" ","ALLEY":" ","HOUSE_NO":"５０７號之１十一樓之","E_COORD97":165177.17999999999,"N_COORD97":2544199.2200000002,"ADDRESS":"慶平路５０７號之１十一樓之１","OBJECTID":510824},"geometry":{"x":165177.1799999997,"y":2544199.2200000007}},{"attributes":{"ID":510852,"DIS_CODE":0,"TOWNNAME":"安平區","LI":"華平里","LIN":"1鄰","STREET":"慶平路","SECT":" ","MAREA":" ","LANE":" ","ALLEY":" ","HOUSE_NO":"５０７號之１十一樓之","E_COORD97":165177.17999999999,"N_COORD97":2544199.2200000002,"ADDRESS":"慶平路５０７號之１十一樓之２","OBJECTID":510825},"geometry":{"x":165177.1799999997,"y":2544199.2200000007}},{"attributes":{"ID":510853,"DIS_CODE":0,"TOWNNAME":"安平區","LI":"華平里","LIN":"1鄰","STREET":"慶平路","SECT":" ","MAREA":" ","LANE":" ","ALLEY":" ","HOUSE_NO":"５０７號之１十七樓","E_COORD97":165177.17999999999,"N_COORD97":2544199.2200000002,"ADDRESS":"慶平路５０７號之１十七樓","OBJECTID":510826},"geometry":{"x":165177.1799999997,"y":2544199.2200000007}},{"attributes":{"ID":510854,"DIS_CODE":0,"TOWNNAME":"安平區","LI":"華平里","LIN":"1鄰","STREET":"慶平路","SECT":" ","MAREA":" ","LANE":" ","ALLEY":" ","HOUSE_NO":"５０７號之１十九樓之","E_COORD97":165177.17999999999,"N_COORD97":2544199.2200000002,"ADDRESS":"慶平路５０７號之１十九樓之１","OBJECTID":510827},"geometry":{"x":165177.1799999997,"y":2544199.2200000007}},{"attributes":{"ID":510855,"DIS_CODE":0,"TOWNNAME":"北區","LI":"華興里","LIN":"1鄰","STREET":"開南街","SECT":" ","MAREA":" ","LANE":" ","ALLEY":" ","HOUSE_NO":"３號四樓","E_COORD97":170291.95000000001,"N_COORD97":2545389.8399999999,"ADDRESS":"開南街３號四樓","OBJECTID":510828},"geometry":{"x":170291.95000000019,"y":2545389.8399999999}},{"attributes":{"ID":510856,"DIS_CODE":0,"TOWNNAME":"安平區","LI":"華平里","LIN":"1鄰","STREET":"慶平路","SECT":" ","MAREA":" ","LANE":" ","ALLEY":" ","HOUSE_NO":"５０７號之１十九樓之","E_COORD97":165177.17999999999,"N_COORD97":2544199.2200000002,"ADDRESS":"慶平路５０７號之１十九樓之２","OBJECTID":510829},"geometry":{"x":165177.1799999997,"y":2544199.2200000007}},{"attributes":{"ID":510857,"DIS_CODE":0,"TOWNNAME":"安平區","LI":"華平里","LIN":"1鄰","STREET":"慶平路","SECT":" ","MAREA":" ","LANE":" ","ALLEY":" ","HOUSE_NO":"５０７號之１十二樓","E_COORD97":165177.17999999999,"N_COORD97":2544199.2200000002,"ADDRESS":"慶平路５０７號之１十二樓","OBJECTID":510830},"geometry":{"x":165177.1799999997,"y":2544199.2200000007}},{"attributes":{"ID":510858,"DIS_CODE":0,"TOWNNAME":"安平區","LI":"華平里","LIN":"1鄰","STREET":"慶平路","SECT":" ","MAREA":" ","LANE":" ","ALLEY":" ","HOUSE_NO":"５０７號之１十三樓之","E_COORD97":165177.17999999999,"N_COORD97":2544199.2200000002,"ADDRESS":"慶平路５０７號之１十三樓之１","OBJECTID":510831},"geometry":{"x":165177.1799999997,"y":2544199.2200000007}},{"attributes":{"ID":510859,"DIS_CODE":0,"TOWNNAME":"安平區","LI":"華平里","LIN":"1鄰","STREET":"慶平路","SECT":" ","MAREA":" ","LANE":" ","ALLEY":" ","HOUSE_NO":"５０７號之１十三樓之","E_COORD97":165177.17999999999,"N_COORD97":2544199.2200000002,"ADDRESS":"慶平路５０７號之１十三樓之２","OBJECTID":510832},"geometry":{"x":165177.1799999997,"y":2544199.2200000007}},{"attributes":{"ID":510860,"DIS_CODE":0,"TOWNNAME":"安平區","LI":"華平里","LIN":"1鄰","STREET":"慶平路","SECT":" ","MAREA":" ","LANE":" ","ALLEY":" ","HOUSE_NO":"５０７號之１十五樓之","E_COORD97":165177.17999999999,"N_COORD97":2544199.2200000002,"ADDRESS":"慶平路５０７號之１十五樓之１","OBJECTID":510833},"geometry":{"x":165177.1799999997,"y":2544199.2200000007}},{"attributes":{"ID":510861,"DIS_CODE":0,"TOWNNAME":"安平區","LI":"華平里","LIN":"1鄰","STREET":"慶平路","SECT":" ","MAREA":" ","LANE":" ","ALLEY":" ","HOUSE_NO":"５０７號之１十五樓之","E_COORD97":165177.17999999999,"N_COORD97":2544199.2200000002,"ADDRESS":"慶平路５０７號之１十五樓之２","OBJECTID":510834},"geometry":{"x":165177.1799999997,"y":2544199.2200000007}},{"attributes":{"ID":510862,"DIS_CODE":0,"TOWNNAME":"安平區","LI":"華平里","LIN":"1鄰","STREET":"慶平路","SECT":" ","MAREA":" ","LANE":" ","ALLEY":" ","HOUSE_NO":"５０７號之１十六樓","E_COORD97":165177.17999999999,"N_COORD97":2544199.2200000002,"ADDRESS":"慶平路５０７號之１十六樓","OBJECTID":510835},"geometry":{"x":165177.1799999997,"y":2544199.2200000007}},{"attributes":{"ID":510863,"DIS_CODE":0,"TOWNNAME":"安平區","LI":"華平里","LIN":"1鄰","STREET":"慶平路","SECT":" ","MAREA":" ","LANE":" ","ALLEY":" ","HOUSE_NO":"５０７號之１十四樓之","E_COORD97":165177.17999999999,"N_COORD97":2544199.2200000002,"ADDRESS":"慶平路５０７號之１十四樓之１","OBJECTID":510836},"geometry":{"x":165177.1799999997,"y":2544199.2200000007}},{"attributes":{"ID":510864,"DIS_CODE":0,"TOWNNAME":"安平區","LI":"華平里","LIN":"1鄰","STREET":"慶平路","SECT":" ","MAREA":" ","LANE":" ","ALLEY":" ","HOUSE_NO":"５０７號之１十四樓之","E_COORD97":165177.17999999999,"N_COORD97":2544199.2200000002,"ADDRESS":"慶平路５０７號之１十四樓之２","OBJECTID":510837},"geometry":{"x":165177.1799999997,"y":2544199.2200000007}},{"attributes":{"ID":510865,"DIS_CODE":0,"TOWNNAME":"安平區","LI":"華平里","LIN":"1鄰","STREET":"慶平路","SECT":" ","MAREA":" ","LANE":" ","ALLEY":" ","HOUSE_NO":"５０７號之１十樓之１","E_COORD97":165177.17999999999,"N_COORD97":2544199.2200000002,"ADDRESS":"慶平路５０７號之１十樓之１","OBJECTID":510838},"geometry":{"x":165177.1799999997,"y":2544199.2200000007}},{"attributes":{"ID":510866,"DIS_CODE":0,"TOWNNAME":"安平區","LI":"華平里","LIN":"1鄰","STREET":"慶平路","SECT":" ","MAREA":" ","LANE":" ","ALLEY":" ","HOUSE_NO":"５０７號之１十樓之２","E_COORD97":165177.17999999999,"N_COORD97":2544199.2200000002,"ADDRESS":"慶平路５０７號之１十樓之２","OBJECTID":510839},"geometry":{"x":165177.1799999997,"y":2544199.2200000007}},{"attributes":{"ID":510867,"DIS_CODE":0,"TOWNNAME":"安平區","LI":"華平里","LIN":"1鄰","STREET":"慶平路","SECT":" ","MAREA":" ","LANE":" ","ALLEY":" ","HOUSE_NO":"５０７號之１三樓之１","E_COORD97":165177.17999999999,"N_COORD97":2544199.2200000002,"ADDRESS":"慶平路５０７號之１三樓之１","OBJECTID":510840},"geometry":{"x":165177.1799999997,"y":2544199.2200000007}},{"attributes":{"ID":510868,"DIS_CODE":0,"TOWNNAME":"東區","LI":"和平里","LIN":"1鄰","STREET":"仁和路","SECT":" ","MAREA":" ","LANE":" ","ALLEY":" ","HOUSE_NO":"２９號五樓","E_COORD97":171099.45000000001,"N_COORD97":2542097.2200000002,"ADDRESS":"仁和路２９號五樓","OBJECTID":510841},"geometry":{"x":171099.45000000112,"y":2542097.2200000007}},{"attributes":{"ID":510869,"DIS_CODE":0,"TOWNNAME":"安平區","LI":"華平里","LIN":"1鄰","STREET":"慶平路","SECT":" ","MAREA":" ","LANE":" ","ALLEY":" ","HOUSE_NO":"５０７號之１三樓之２","E_COORD97":165177.17999999999,"N_COORD97":2544199.2200000002,"ADDRESS":"慶平路５０７號之１三樓之２","OBJECTID":510842},"geometry":{"x":165177.1799999997,"y":2544199.2200000007}},{"attributes":{"ID":510870,"DIS_CODE":0,"TOWNNAME":"安平區","LI":"怡平里","LIN":"1鄰","STREET":"建平十七街","SECT":" ","MAREA":" ","LANE":" ","ALLEY":" ","HOUSE_NO":"１５７號七樓之３","E_COORD97":165787.04999999999,"N_COORD97":2544229.52,"ADDRESS":"建平十七街１５７號七樓之３","OBJECTID":510843},"geometry":{"x":165787.05000000168,"y":2544229.5199999996}},{"attributes":{"ID":510871,"DIS_CODE":0,"TOWNNAME":"安平區","LI":"怡平里","LIN":"1鄰","STREET":"建平十七街","SECT":" ","MAREA":" ","LANE":" ","ALLEY":" ","HOUSE_NO":"１５７號七樓之４","E_COORD97":165787.04999999999,"N_COORD97":2544229.52,"ADDRESS":"建平十七街１５７號七樓之４","OBJECTID":510844},"geometry":{"x":165787.05000000168,"y":2544229.5199999996}},{"attributes":{"ID":510872,"DIS_CODE":0,"TOWNNAME":"安平區","LI":"怡平里","LIN":"1鄰","STREET":"建平十七街","SECT":" ","MAREA":" ","LANE":" ","ALLEY":" ","HOUSE_NO":"１５７號七樓之５","E_COORD97":165787.04999999999,"N_COORD97":2544229.52,"ADDRESS":"建平十七街１５７號七樓之５","OBJECTID":510845},"geometry":{"x":165787.05000000168,"y":2544229.5199999996}},{"attributes":{"ID":510873,"DIS_CODE":0,"TOWNNAME":"安平區","LI":"怡平里","LIN":"1鄰","STREET":"建平十七街","SECT":" ","MAREA":" ","LANE":" ","ALLEY":" ","HOUSE_NO":"１５７號七樓之６","E_COORD97":165787.04999999999,"N_COORD97":2544229.52,"ADDRESS":"建平十七街１５７號七樓之６","OBJECTID":510846},"geometry":{"x":165787.05000000168,"y":2544229.5199999996}},{"attributes":{"ID":510874,"DIS_CODE":0,"TOWNNAME":"安平區","LI":"怡平里","LIN":"1鄰","STREET":"建平十七街","SECT":" ","MAREA":" ","LANE":" ","ALLEY":" ","HOUSE_NO":"１５７號七樓之７","E_COORD97":165787.04999999999,"N_COORD97":2544229.52,"ADDRESS":"建平十七街１５７號七樓之７","OBJECTID":510847},"geometry":{"x":165787.05000000168,"y":2544229.5199999996}},{"attributes":{"ID":510875,"DIS_CODE":0,"TOWNNAME":"安平區","LI":"怡平里","LIN":"1鄰","STREET":"建平十七街","SECT":" ","MAREA":" ","LANE":" ","ALLEY":" ","HOUSE_NO":"１５７號七樓之８","E_COORD97":165787.04999999999,"N_COORD97":2544229.52,"ADDRESS":"建平十七街１５７號七樓之８","OBJECTID":510848},"geometry":{"x":165787.05000000168,"y":2544229.5199999996}},{"attributes":{"ID":510876,"DIS_CODE":0,"TOWNNAME":"安平區","LI":"怡平里","LIN":"1鄰","STREET":"建平十七街","SECT":" ","MAREA":" ","LANE":" ","ALLEY":" ","HOUSE_NO":"１５７號九樓之１","E_COORD97":165787.04999999999,"N_COORD97":2544229.52,"ADDRESS":"建平十七街１５７號九樓之１","OBJECTID":510849},"geometry":{"x":165787.05000000168,"y":2544229.5199999996}},{"attributes":{"ID":510877,"DIS_CODE":0,"TOWNNAME":"安平區","LI":"怡平里","LIN":"1鄰","STREET":"建平十七街","SECT":" ","MAREA":" ","LANE":" ","ALLEY":" ","HOUSE_NO":"１５７號九樓之２","E_COORD97":165787.04999999999,"N_COORD97":2544229.52,"ADDRESS":"建平十七街１５７號九樓之２","OBJECTID":510850},"geometry":{"x":165787.05000000168,"y":2544229.5199999996}},{"attributes":{"ID":510878,"DIS_CODE":0,"TOWNNAME":"安平區","LI":"怡平里","LIN":"1鄰","STREET":"建平十七街","SECT":" ","MAREA":" ","LANE":" ","ALLEY":" ","HOUSE_NO":"１５７號二樓之１","E_COORD97":165787.04999999999,"N_COORD97":2544229.52,"ADDRESS":"建平十七街１５７號二樓之１","OBJECTID":510851},"geometry":{"x":165787.05000000168,"y":2544229.5199999996}},{"attributes":{"ID":510879,"DIS_CODE":0,"TOWNNAME":"安平區","LI":"怡平里","LIN":"1鄰","STREET":"建平十七街","SECT":" ","MAREA":" ","LANE":" ","ALLEY":" ","HOUSE_NO":"１５７號二樓之２","E_COORD97":165787.04999999999,"N_COORD97":2544229.52,"ADDRESS":"建平十七街１５７號二樓之２","OBJECTID":510852},"geometry":{"x":165787.05000000168,"y":2544229.5199999996}},{"attributes":{"ID":510880,"DIS_CODE":0,"TOWNNAME":"安平區","LI":"怡平里","LIN":"1鄰","STREET":"建平十七街","SECT":" ","MAREA":" ","LANE":" ","ALLEY":" ","HOUSE_NO":"１５７號八樓之１","E_COORD97":165787.04999999999,"N_COORD97":2544229.52,"ADDRESS":"建平十七街１５７號八樓之１","OBJECTID":510853},"geometry":{"x":165787.05000000168,"y":2544229.5199999996}},{"attributes":{"ID":510881,"DIS_CODE":0,"TOWNNAME":"安平區","LI":"怡平里","LIN":"1鄰","STREET":"建平十七街","SECT":" ","MAREA":" ","LANE":" ","ALLEY":" ","HOUSE_NO":"１５７號八樓之２","E_COORD97":165787.04999999999,"N_COORD97":2544229.52,"ADDRESS":"建平十七街１５７號八樓之２","OBJECTID":510854},"geometry":{"x":165787.05000000168,"y":2544229.5199999996}},{"attributes":{"ID":510882,"DIS_CODE":0,"TOWNNAME":"安平區","LI":"怡平里","LIN":"1鄰","STREET":"建平十七街","SECT":" ","MAREA":" ","LANE":" ","ALLEY":" ","HOUSE_NO":"１５７號八樓之３","E_COORD97":165787.04999999999,"N_COORD97":2544229.52,"ADDRESS":"建平十七街１５７號八樓之３","OBJECTID":510855},"geometry":{"x":165787.05000000168,"y":2544229.5199999996}},{"attributes":{"ID":510883,"DIS_CODE":0,"TOWNNAME":"安平區","LI":"怡平里","LIN":"1鄰","STREET":"建平十七街","SECT":" ","MAREA":" ","LANE":" ","ALLEY":" ","HOUSE_NO":"１５７號八樓之４","E_COORD97":165787.04999999999,"N_COORD97":2544229.52,"ADDRESS":"建平十七街１５７號八樓之４","OBJECTID":510856},"geometry":{"x":165787.05000000168,"y":2544229.5199999996}},{"attributes":{"ID":510884,"DIS_CODE":0,"TOWNNAME":"安平區","LI":"怡平里","LIN":"1鄰","STREET":"建平十七街","SECT":" ","MAREA":" ","LANE":" ","ALLEY":" ","HOUSE_NO":"１５７號八樓之５","E_COORD97":165787.04999999999,"N_COORD97":2544229.52,"ADDRESS":"建平十七街１５７號八樓之５","OBJECTID":510857},"geometry":{"x":165787.05000000168,"y":2544229.5199999996}},{"attributes":{"ID":510885,"DIS_CODE":0,"TOWNNAME":"安平區","LI":"怡平里","LIN":"1鄰","STREET":"建平十七街","SECT":" ","MAREA":" ","LANE":" ","ALLEY":" ","HOUSE_NO":"１５７號十一樓之１","E_COORD97":165787.04999999999,"N_COORD97":2544229.52,"ADDRESS":"建平十七街１５７號十一樓之１","OBJECTID":510858},"geometry":{"x":165787.05000000168,"y":2544229.5199999996}},{"attributes":{"ID":510886,"DIS_CODE":0,"TOWNNAME":"安平區","LI":"怡平里","LIN":"1鄰","STREET":"建平十七街","SECT":" ","MAREA":" ","LANE":" ","ALLEY":" ","HOUSE_NO":"１５７號十一樓之２","E_COORD97":165787.04999999999,"N_COORD97":2544229.52,"ADDRESS":"建平十七街１５７號十一樓之２","OBJECTID":510859},"geometry":{"x":165787.05000000168,"y":2544229.5199999996}},{"attributes":{"ID":510887,"DIS_CODE":0,"TOWNNAME":"安平區","LI":"怡平里","LIN":"1鄰","STREET":"建平十七街","SECT":" ","MAREA":" ","LANE":" ","ALLEY":" ","HOUSE_NO":"１５７號十一樓之３","E_COORD97":165787.04999999999,"N_COORD97":2544229.52,"ADDRESS":"建平十七街１５７號十一樓之３","OBJECTID":510860},"geometry":{"x":165787.05000000168,"y":2544229.5199999996}},{"attributes":{"ID":510888,"DIS_CODE":0,"TOWNNAME":"安平區","LI":"怡平里","LIN":"1鄰","STREET":"建平十七街","SECT":" ","MAREA":" ","LANE":" ","ALLEY":" ","HOUSE_NO":"１５７號十一樓之４","E_COORD97":165787.04999999999,"N_COORD97":2544229.52,"ADDRESS":"建平十七街１５７號十一樓之４","OBJECTID":510861},"geometry":{"x":165787.05000000168,"y":2544229.5199999996}},{"attributes":{"ID":510889,"DIS_CODE":0,"TOWNNAME":"安平區","LI":"怡平里","LIN":"1鄰","STREET":"建平十七街","SECT":" ","MAREA":" ","LANE":" ","ALLEY":" ","HOUSE_NO":"１５７號十一樓之５","E_COORD97":165787.04999999999,"N_COORD97":2544229.52,"ADDRESS":"建平十七街１５７號十一樓之５","OBJECTID":510862},"geometry":{"x":165787.05000000168,"y":2544229.5199999996}},{"attributes":{"ID":510890,"DIS_CODE":0,"TOWNNAME":"安平區","LI":"怡平里","LIN":"1鄰","STREET":"建平十七街","SECT":" ","MAREA":" ","LANE":" ","ALLEY":" ","HOUSE_NO":"１５７號十二樓之１","E_COORD97":165787.04999999999,"N_COORD97":2544229.52,"ADDRESS":"建平十七街１５７號十二樓之１","OBJECTID":510863},"geometry":{"x":165787.05000000168,"y":2544229.5199999996}},{"attributes":{"ID":510891,"DIS_CODE":0,"TOWNNAME":"安平區","LI":"怡平里","LIN":"1鄰","STREET":"建平十七街","SECT":" ","MAREA":" ","LANE":" ","ALLEY":" ","HOUSE_NO":"１５７號十二樓之２","E_COORD97":165787.04999999999,"N_COORD97":2544229.52,"ADDRESS":"建平十七街１５７號十二樓之２","OBJECTID":510864},"geometry":{"x":165787.05000000168,"y":2544229.5199999996}},{"attributes":{"ID":510892,"DIS_CODE":0,"TOWNNAME":"安平區","LI":"怡平里","LIN":"1鄰","STREET":"建平十七街","SECT":" ","MAREA":" ","LANE":" ","ALLEY":" ","HOUSE_NO":"１５７號十二樓之３","E_COORD97":165787.04999999999,"N_COORD97":2544229.52,"ADDRESS":"建平十七街１５７號十二樓之３","OBJECTID":510865},"geometry":{"x":165787.05000000168,"y":2544229.5199999996}},{"attributes":{"ID":510893,"DIS_CODE":0,"TOWNNAME":"安平區","LI":"怡平里","LIN":"1鄰","STREET":"建平十七街","SECT":" ","MAREA":" ","LANE":" ","ALLEY":" ","HOUSE_NO":"１５７號十二樓之４","E_COORD97":165787.04999999999,"N_COORD97":2544229.52,"ADDRESS":"建平十七街１５７號十二樓之４","OBJECTID":510866},"geometry":{"x":165787.05000000168,"y":2544229.5199999996}},{"attributes":{"ID":510894,"DIS_CODE":0,"TOWNNAME":"安平區","LI":"怡平里","LIN":"1鄰","STREET":"建平十七街","SECT":" ","MAREA":" ","LANE":" ","ALLEY":" ","HOUSE_NO":"１５７號十二樓之５","E_COORD97":165787.04999999999,"N_COORD97":2544229.52,"ADDRESS":"建平十七街１５７號十二樓之５","OBJECTID":510867},"geometry":{"x":165787.05000000168,"y":2544229.5199999996}},{"attributes":{"ID":510895,"DIS_CODE":0,"TOWNNAME":"安平區","LI":"怡平里","LIN":"1鄰","STREET":"建平十七街","SECT":" ","MAREA":" ","LANE":" ","ALLEY":" ","HOUSE_NO":"１５７號十二樓之６","E_COORD97":165787.04999999999,"N_COORD97":2544229.52,"ADDRESS":"建平十七街１５７號十二樓之６","OBJECTID":510868},"geometry":{"x":165787.05000000168,"y":2544229.5199999996}},{"attributes":{"ID":510896,"DIS_CODE":0,"TOWNNAME":"安平區","LI":"怡平里","LIN":"1鄰","STREET":"建平十七街","SECT":" ","MAREA":" ","LANE":" ","ALLEY":" ","HOUSE_NO":"１５７號十二樓之７","E_COORD97":165787.04999999999,"N_COORD97":2544229.52,"ADDRESS":"建平十七街１５７號十二樓之７","OBJECTID":510869},"geometry":{"x":165787.05000000168,"y":2544229.5199999996}},{"attributes":{"ID":510897,"DIS_CODE":0,"TOWNNAME":"安平區","LI":"怡平里","LIN":"1鄰","STREET":"建平十七街","SECT":" ","MAREA":" ","LANE":" ","ALLEY":" ","HOUSE_NO":"１５７號十二樓之８","E_COORD97":165787.04999999999,"N_COORD97":2544229.52,"ADDRESS":"建平十七街１５７號十二樓之８","OBJECTID":510870},"geometry":{"x":165787.05000000168,"y":2544229.5199999996}},{"attributes":{"ID":510898,"DIS_CODE":0,"TOWNNAME":"安平區","LI":"怡平里","LIN":"1鄰","STREET":"建平十七街","SECT":" ","MAREA":" ","LANE":" ","ALLEY":" ","HOUSE_NO":"１５７號十三樓之１","E_COORD97":165787.04999999999,"N_COORD97":2544229.52,"ADDRESS":"建平十七街１５７號十三樓之１","OBJECTID":510871},"geometry":{"x":165787.05000000168,"y":2544229.5199999996}},{"attributes":{"ID":510899,"DIS_CODE":0,"TOWNNAME":"安平區","LI":"怡平里","LIN":"1鄰","STREET":"建平十七街","SECT":" ","MAREA":" ","LANE":" ","ALLEY":" ","HOUSE_NO":"１５７號十三樓之２","E_COORD97":165787.04999999999,"N_COORD97":2544229.52,"ADDRESS":"建平十七街１５７號十三樓之２","OBJECTID":510872},"geometry":{"x":165787.05000000168,"y":2544229.5199999996}},{"attributes":{"ID":510900,"DIS_CODE":0,"TOWNNAME":"安平區","LI":"怡平里","LIN":"1鄰","STREET":"建平十七街","SECT":" ","MAREA":" ","LANE":" ","ALLEY":" ","HOUSE_NO":"１５７號十樓之１","E_COORD97":165787.04999999999,"N_COORD97":2544229.52,"ADDRESS":"建平十七街１５７號十樓之１","OBJECTID":510873},"geometry":{"x":165787.05000000168,"y":2544229.5199999996}},{"attributes":{"ID":510901,"DIS_CODE":0,"TOWNNAME":"安平區","LI":"建平里","LIN":"1鄰","STREET":"建平十七街","SECT":" ","MAREA":" ","LANE":" ","ALLEY":" ","HOUSE_NO":"３１號十樓之１","E_COORD97":166285.63,"N_COORD97":2544212.4500000002,"ADDRESS":"建平十七街３１號十樓之１","OBJECTID":510874},"geometry":{"x":166285.63000000082,"y":2544212.4499999993}},{"attributes":{"ID":510902,"DIS_CODE":0,"TOWNNAME":"安平區","LI":"怡平里","LIN":"1鄰","STREET":"建平十七街","SECT":" ","MAREA":" ","LANE":" ","ALLEY":" ","HOUSE_NO":"１５７號十樓之１０","E_COORD97":165787.04999999999,"N_COORD97":2544229.52,"ADDRESS":"建平十七街１５７號十樓之１０","OBJECTID":510875},"geometry":{"x":165787.05000000168,"y":2544229.5199999996}},{"attributes":{"ID":510903,"DIS_CODE":0,"TOWNNAME":"安平區","LI":"怡平里","LIN":"1鄰","STREET":"建平十七街","SECT":" ","MAREA":" ","LANE":" ","ALLEY":" ","HOUSE_NO":"１５７號十樓之２","E_COORD97":165787.04999999999,"N_COORD97":2544229.52,"ADDRESS":"建平十七街１５７號十樓之２","OBJECTID":510876},"geometry":{"x":165787.05000000168,"y":2544229.5199999996}},{"attributes":{"ID":510904,"DIS_CODE":0,"TOWNNAME":"安平區","LI":"怡平里","LIN":"1鄰","STREET":"建平十七街","SECT":" ","MAREA":" ","LANE":" ","ALLEY":" ","HOUSE_NO":"１５７號十樓之３","E_COORD97":165787.04999999999,"N_COORD97":2544229.52,"ADDRESS":"建平十七街１５７號十樓之３","OBJECTID":510877},"geometry":{"x":165787.05000000168,"y":2544229.5199999996}},{"attributes":{"ID":510905,"DIS_CODE":0,"TOWNNAME":"安平區","LI":"怡平里","LIN":"1鄰","STREET":"建平十七街","SECT":" ","MAREA":" ","LANE":" ","ALLEY":" ","HOUSE_NO":"１５７號十樓之４","E_COORD97":165787.04999999999,"N_COORD97":2544229.52,"ADDRESS":"建平十七街１５７號十樓之４","OBJECTID":510878},"geometry":{"x":165787.05000000168,"y":2544229.5199999996}},{"attributes":{"ID":510906,"DIS_CODE":0,"TOWNNAME":"安平區","LI":"怡平里","LIN":"1鄰","STREET":"建平十七街","SECT":" ","MAREA":" ","LANE":" ","ALLEY":" ","HOUSE_NO":"１５７號十樓之５","E_COORD97":165787.04999999999,"N_COORD97":2544229.52,"ADDRESS":"建平十七街１５７號十樓之５","OBJECTID":510879},"geometry":{"x":165787.05000000168,"y":2544229.5199999996}},{"attributes":{"ID":510907,"DIS_CODE":0,"TOWNNAME":"安平區","LI":"怡平里","LIN":"1鄰","STREET":"建平十七街","SECT":" ","MAREA":" ","LANE":" ","ALLEY":" ","HOUSE_NO":"１５７號十樓之６","E_COORD97":165787.04999999999,"N_COORD97":2544229.52,"ADDRESS":"建平十七街１５７號十樓之６","OBJECTID":510880},"geometry":{"x":165787.05000000168,"y":2544229.5199999996}},{"attributes":{"ID":510908,"DIS_CODE":0,"TOWNNAME":"安平區","LI":"怡平里","LIN":"1鄰","STREET":"建平十七街","SECT":" ","MAREA":" ","LANE":" ","ALLEY":" ","HOUSE_NO":"１５７號十樓之７","E_COORD97":165787.04999999999,"N_COORD97":2544229.52,"ADDRESS":"建平十七街１５７號十樓之７","OBJECTID":510881},"geometry":{"x":165787.05000000168,"y":2544229.5199999996}},{"attributes":{"ID":510909,"DIS_CODE":0,"TOWNNAME":"安平區","LI":"怡平里","LIN":"1鄰","STREET":"建平十七街","SECT":" ","MAREA":" ","LANE":" ","ALLEY":" ","HOUSE_NO":"１５７號十樓之８","E_COORD97":165787.04999999999,"N_COORD97":2544229.52,"ADDRESS":"建平十七街１５７號十樓之８","OBJECTID":510882},"geometry":{"x":165787.05000000168,"y":2544229.5199999996}},{"attributes":{"ID":510910,"DIS_CODE":0,"TOWNNAME":"安平區","LI":"怡平里","LIN":"1鄰","STREET":"建平十七街","SECT":" ","MAREA":" ","LANE":" ","ALLEY":" ","HOUSE_NO":"１５７號十樓之９","E_COORD97":165787.04999999999,"N_COORD97":2544229.52,"ADDRESS":"建平十七街１５７號十樓之９","OBJECTID":510883},"geometry":{"x":165787.05000000168,"y":2544229.5199999996}},{"attributes":{"ID":510911,"DIS_CODE":0,"TOWNNAME":"安平區","LI":"怡平里","LIN":"1鄰","STREET":"建平十七街","SECT":" ","MAREA":" ","LANE":" ","ALLEY":" ","HOUSE_NO":"１５７號三樓之１","E_COORD97":165787.04999999999,"N_COORD97":2544229.52,"ADDRESS":"建平十七街１５７號三樓之１","OBJECTID":510884},"geometry":{"x":165787.05000000168,"y":2544229.5199999996}},{"attributes":{"ID":510912,"DIS_CODE":0,"TOWNNAME":"安平區","LI":"建平里","LIN":"1鄰","STREET":"建平十七街","SECT":" ","MAREA":" ","LANE":" ","ALLEY":" ","HOUSE_NO":"３１號九樓之３","E_COORD97":166285.63,"N_COORD97":2544212.4500000002,"ADDRESS":"建平十七街３１號九樓之３","OBJECTID":510885},"geometry":{"x":166285.63000000082,"y":2544212.4499999993}},{"attributes":{"ID":510913,"DIS_CODE":0,"TOWNNAME":"安平區","LI":"怡平里","LIN":"1鄰","STREET":"建平十七街","SECT":" ","MAREA":" ","LANE":" ","ALLEY":" ","HOUSE_NO":"１５７號三樓之１０","E_COORD97":165787.04999999999,"N_COORD97":2544229.52,"ADDRESS":"建平十七街１５７號三樓之１０","OBJECTID":510886},"geometry":{"x":165787.05000000168,"y":2544229.5199999996}},{"attributes":{"ID":510914,"DIS_CODE":0,"TOWNNAME":"安平區","LI":"怡平里","LIN":"1鄰","STREET":"建平十七街","SECT":" ","MAREA":" ","LANE":" ","ALLEY":" ","HOUSE_NO":"１５７號三樓之２","E_COORD97":165787.04999999999,"N_COORD97":2544229.52,"ADDRESS":"建平十七街１５７號三樓之２","OBJECTID":510887},"geometry":{"x":165787.05000000168,"y":2544229.5199999996}},{"attributes":{"ID":510915,"DIS_CODE":0,"TOWNNAME":"安平區","LI":"怡平里","LIN":"1鄰","STREET":"建平十七街","SECT":" ","MAREA":" ","LANE":" ","ALLEY":" ","HOUSE_NO":"１５７號三樓之３","E_COORD97":165787.04999999999,"N_COORD97":2544229.52,"ADDRESS":"建平十七街１５７號三樓之３","OBJECTID":510888},"geometry":{"x":165787.05000000168,"y":2544229.5199999996}},{"attributes":{"ID":510916,"DIS_CODE":0,"TOWNNAME":"安平區","LI":"怡平里","LIN":"1鄰","STREET":"建平十七街","SECT":" ","MAREA":" ","LANE":" ","ALLEY":" ","HOUSE_NO":"１５７號三樓之４","E_COORD97":165787.04999999999,"N_COORD97":2544229.52,"ADDRESS":"建平十七街１５７號三樓之４","OBJECTID":510889},"geometry":{"x":165787.05000000168,"y":2544229.5199999996}},{"attributes":{"ID":510917,"DIS_CODE":0,"TOWNNAME":"安平區","LI":"怡平里","LIN":"1鄰","STREET":"建平十七街","SECT":" ","MAREA":" ","LANE":" ","ALLEY":" ","HOUSE_NO":"１５７號三樓之５","E_COORD97":165787.04999999999,"N_COORD97":2544229.52,"ADDRESS":"建平十七街１５７號三樓之５","OBJECTID":510890},"geometry":{"x":165787.05000000168,"y":2544229.5199999996}},{"attributes":{"ID":510918,"DIS_CODE":0,"TOWNNAME":"安平區","LI":"怡平里","LIN":"1鄰","STREET":"建平十七街","SECT":" ","MAREA":" ","LANE":" ","ALLEY":" ","HOUSE_NO":"１５７號三樓之６","E_COORD97":165787.04999999999,"N_COORD97":2544229.52,"ADDRESS":"建平十七街１５７號三樓之６","OBJECTID":510891},"geometry":{"x":165787.05000000168,"y":2544229.5199999996}},{"attributes":{"ID":510919,"DIS_CODE":0,"TOWNNAME":"安平區","LI":"怡平里","LIN":"1鄰","STREET":"建平十七街","SECT":" ","MAREA":" ","LANE":" ","ALLEY":" ","HOUSE_NO":"１５７號三樓之７","E_COORD97":165787.04999999999,"N_COORD97":2544229.52,"ADDRESS":"建平十七街１５７號三樓之７","OBJECTID":510892},"geometry":{"x":165787.05000000168,"y":2544229.5199999996}},{"attributes":{"ID":510920,"DIS_CODE":0,"TOWNNAME":"安平區","LI":"怡平里","LIN":"1鄰","STREET":"建平十七街","SECT":" ","MAREA":" ","LANE":" ","ALLEY":" ","HOUSE_NO":"１５７號三樓之８","E_COORD97":165787.04999999999,"N_COORD97":2544229.52,"ADDRESS":"建平十七街１５７號三樓之８","OBJECTID":510893},"geometry":{"x":165787.05000000168,"y":2544229.5199999996}},{"attributes":{"ID":510921,"DIS_CODE":0,"TOWNNAME":"安平區","LI":"怡平里","LIN":"1鄰","STREET":"建平十七街","SECT":" ","MAREA":" ","LANE":" ","ALLEY":" ","HOUSE_NO":"１５７號三樓之９","E_COORD97":165787.04999999999,"N_COORD97":2544229.52,"ADDRESS":"建平十七街１５７號三樓之９","OBJECTID":510894},"geometry":{"x":165787.05000000168,"y":2544229.5199999996}},{"attributes":{"ID":510922,"DIS_CODE":0,"TOWNNAME":"安平區","LI":"怡平里","LIN":"1鄰","STREET":"建平十七街","SECT":" ","MAREA":" ","LANE":" ","ALLEY":" ","HOUSE_NO":"１５７號五樓之１","E_COORD97":165787.04999999999,"N_COORD97":2544229.52,"ADDRESS":"建平十七街１５７號五樓之１","OBJECTID":510895},"geometry":{"x":165787.05000000168,"y":2544229.5199999996}},{"attributes":{"ID":510923,"DIS_CODE":0,"TOWNNAME":"安平區","LI":"怡平里","LIN":"1鄰","STREET":"建平十七街","SECT":" ","MAREA":" ","LANE":" ","ALLEY":" ","HOUSE_NO":"１５７號五樓之２","E_COORD97":165787.04999999999,"N_COORD97":2544229.52,"ADDRESS":"建平十七街１５７號五樓之２","OBJECTID":510896},"geometry":{"x":165787.05000000168,"y":2544229.5199999996}},{"attributes":{"ID":510924,"DIS_CODE":0,"TOWNNAME":"安平區","LI":"怡平里","LIN":"1鄰","STREET":"建平十七街","SECT":" ","MAREA":" ","LANE":" ","ALLEY":" ","HOUSE_NO":"１５７號五樓之３","E_COORD97":165787.04999999999,"N_COORD97":2544229.52,"ADDRESS":"建平十七街１５７號五樓之３","OBJECTID":510897},"geometry":{"x":165787.05000000168,"y":2544229.5199999996}},{"attributes":{"ID":510925,"DIS_CODE":0,"TOWNNAME":"安平區","LI":"怡平里","LIN":"1鄰","STREET":"建平十七街","SECT":" ","MAREA":" ","LANE":" ","ALLEY":" ","HOUSE_NO":"１５７號五樓之４","E_COORD97":165787.04999999999,"N_COORD97":2544229.52,"ADDRESS":"建平十七街１５７號五樓之４","OBJECTID":510898},"geometry":{"x":165787.05000000168,"y":2544229.5199999996}},{"attributes":{"ID":510926,"DIS_CODE":0,"TOWNNAME":"安平區","LI":"怡平里","LIN":"1鄰","STREET":"建平十七街","SECT":" ","MAREA":" ","LANE":" ","ALLEY":" ","HOUSE_NO":"１５７號五樓之５","E_COORD97":165787.04999999999,"N_COORD97":2544229.52,"ADDRESS":"建平十七街１５７號五樓之５","OBJECTID":510899},"geometry":{"x":165787.05000000168,"y":2544229.5199999996}},{"attributes":{"ID":510927,"DIS_CODE":0,"TOWNNAME":"安平區","LI":"怡平里","LIN":"1鄰","STREET":"建平十七街","SECT":" ","MAREA":" ","LANE":" ","ALLEY":" ","HOUSE_NO":"１５７號五樓之６","E_COORD97":165787.04999999999,"N_COORD97":2544229.52,"ADDRESS":"建平十七街１５７號五樓之６","OBJECTID":510900},"geometry":{"x":165787.05000000168,"y":2544229.5199999996}},{"attributes":{"ID":510928,"DIS_CODE":0,"TOWNNAME":"安平區","LI":"怡平里","LIN":"1鄰","STREET":"建平十七街","SECT":" ","MAREA":" ","LANE":" ","ALLEY":" ","HOUSE_NO":"１５７號五樓之７","E_COORD97":165787.04999999999,"N_COORD97":2544229.52,"ADDRESS":"建平十七街１５７號五樓之７","OBJECTID":510901},"geometry":{"x":165787.05000000168,"y":2544229.5199999996}},{"attributes":{"ID":510929,"DIS_CODE":0,"TOWNNAME":"安平區","LI":"怡平里","LIN":"1鄰","STREET":"建平十七街","SECT":" ","MAREA":" ","LANE":" ","ALLEY":" ","HOUSE_NO":"１５７號六樓之１","E_COORD97":165787.04999999999,"N_COORD97":2544229.52,"ADDRESS":"建平十七街１５７號六樓之１","OBJECTID":510902},"geometry":{"x":165787.05000000168,"y":2544229.5199999996}},{"attributes":{"ID":510930,"DIS_CODE":0,"TOWNNAME":"安平區","LI":"怡平里","LIN":"1鄰","STREET":"建平十七街","SECT":" ","MAREA":" ","LANE":" ","ALLEY":" ","HOUSE_NO":"１５７號六樓之２","E_COORD97":165787.04999999999,"N_COORD97":2544229.52,"ADDRESS":"建平十七街１５７號六樓之２","OBJECTID":510903},"geometry":{"x":165787.05000000168,"y":2544229.5199999996}},{"attributes":{"ID":510931,"DIS_CODE":0,"TOWNNAME":"安平區","LI":"怡平里","LIN":"1鄰","STREET":"建平十七街","SECT":" ","MAREA":" ","LANE":" ","ALLEY":" ","HOUSE_NO":"１５７號六樓之３","E_COORD97":165787.04999999999,"N_COORD97":2544229.52,"ADDRESS":"建平十七街１５７號六樓之３","OBJECTID":510904},"geometry":{"x":165787.05000000168,"y":2544229.5199999996}},{"attributes":{"ID":510932,"DIS_CODE":0,"TOWNNAME":"安平區","LI":"怡平里","LIN":"1鄰","STREET":"建平十七街","SECT":" ","MAREA":" ","LANE":" ","ALLEY":" ","HOUSE_NO":"１５７號六樓之４","E_COORD97":165787.04999999999,"N_COORD97":2544229.52,"ADDRESS":"建平十七街１５７號六樓之４","OBJECTID":510905},"geometry":{"x":165787.05000000168,"y":2544229.5199999996}},{"attributes":{"ID":510933,"DIS_CODE":0,"TOWNNAME":"安平區","LI":"怡平里","LIN":"1鄰","STREET":"建平十七街","SECT":" ","MAREA":" ","LANE":" ","ALLEY":" ","HOUSE_NO":"１５７號六樓之５","E_COORD97":165787.04999999999,"N_COORD97":2544229.52,"ADDRESS":"建平十七街１５７號六樓之５","OBJECTID":510906},"geometry":{"x":165787.05000000168,"y":2544229.5199999996}},{"attributes":{"ID":510934,"DIS_CODE":0,"TOWNNAME":"安平區","LI":"怡平里","LIN":"1鄰","STREET":"建平十七街","SECT":" ","MAREA":" ","LANE":" ","ALLEY":" ","HOUSE_NO":"１５７號六樓之６","E_COORD97":165787.04999999999,"N_COORD97":2544229.52,"ADDRESS":"建平十七街１５７號六樓之６","OBJECTID":510907},"geometry":{"x":165787.05000000168,"y":2544229.5199999996}},{"attributes":{"ID":510935,"DIS_CODE":0,"TOWNNAME":"安平區","LI":"怡平里","LIN":"1鄰","STREET":"建平十七街","SECT":" ","MAREA":" ","LANE":" ","ALLEY":" ","HOUSE_NO":"１５７號六樓之７","E_COORD97":165787.04999999999,"N_COORD97":2544229.52,"ADDRESS":"建平十七街１５７號六樓之７","OBJECTID":510908},"geometry":{"x":165787.05000000168,"y":2544229.5199999996}},{"attributes":{"ID":510936,"DIS_CODE":0,"TOWNNAME":"安平區","LI":"怡平里","LIN":"1鄰","STREET":"建平十七街","SECT":" ","MAREA":" ","LANE":" ","ALLEY":" ","HOUSE_NO":"１５７號六樓之８","E_COORD97":165787.04999999999,"N_COORD97":2544229.52,"ADDRESS":"建平十七街１５７號六樓之８","OBJECTID":510909},"geometry":{"x":165787.05000000168,"y":2544229.5199999996}},{"attributes":{"ID":510937,"DIS_CODE":0,"TOWNNAME":"安平區","LI":"怡平里","LIN":"1鄰","STREET":"建平十七街","SECT":" ","MAREA":" ","LANE":" ","ALLEY":" ","HOUSE_NO":"１５７號四樓之１","E_COORD97":165787.04999999999,"N_COORD97":2544229.52,"ADDRESS":"建平十七街１５７號四樓之１","OBJECTID":510910},"geometry":{"x":165787.05000000168,"y":2544229.5199999996}},{"attributes":{"ID":510938,"DIS_CODE":0,"TOWNNAME":"安平區","LI":"怡平里","LIN":"1鄰","STREET":"建平十七街","SECT":" ","MAREA":" ","LANE":" ","ALLEY":" ","HOUSE_NO":"１５７號四樓之２","E_COORD97":165787.04999999999,"N_COORD97":2544229.52,"ADDRESS":"建平十七街１５７號四樓之２","OBJECTID":510911},"geometry":{"x":165787.05000000168,"y":2544229.5199999996}},{"attributes":{"ID":510939,"DIS_CODE":0,"TOWNNAME":"安平區","LI":"怡平里","LIN":"1鄰","STREET":"建平十七街","SECT":" ","MAREA":" ","LANE":" ","ALLEY":" ","HOUSE_NO":"１５７號四樓之３","E_COORD97":165787.04999999999,"N_COORD97":2544229.52,"ADDRESS":"建平十七街１５７號四樓之３","OBJECTID":510912},"geometry":{"x":165787.05000000168,"y":2544229.5199999996}},{"attributes":{"ID":510940,"DIS_CODE":0,"TOWNNAME":"安平區","LI":"怡平里","LIN":"1鄰","STREET":"建平十七街","SECT":" ","MAREA":" ","LANE":" ","ALLEY":" ","HOUSE_NO":"１５７號四樓之５","E_COORD97":165787.04999999999,"N_COORD97":2544229.52,"ADDRESS":"建平十七街１５７號四樓之５","OBJECTID":510913},"geometry":{"x":165787.05000000168,"y":2544229.5199999996}},{"attributes":{"ID":510941,"DIS_CODE":0,"TOWNNAME":"安平區","LI":"怡平里","LIN":"1鄰","STREET":"建平十七街","SECT":" ","MAREA":" ","LANE":" ","ALLEY":" ","HOUSE_NO":"１５７號四樓之６","E_COORD97":165787.04999999999,"N_COORD97":2544229.52,"ADDRESS":"建平十七街１５７號四樓之６","OBJECTID":510914},"geometry":{"x":165787.05000000168,"y":2544229.5199999996}},{"attributes":{"ID":510942,"DIS_CODE":0,"TOWNNAME":"安平區","LI":"怡平里","LIN":"1鄰","STREET":"建平十七街","SECT":" ","MAREA":" ","LANE":" ","ALLEY":" ","HOUSE_NO":"１５７號四樓之７","E_COORD97":165787.04999999999,"N_COORD97":2544229.52,"ADDRESS":"建平十七街１５７號四樓之７","OBJECTID":510915},"geometry":{"x":165787.05000000168,"y":2544229.5199999996}},{"attributes":{"ID":510943,"DIS_CODE":0,"TOWNNAME":"安平區","LI":"怡平里","LIN":"1鄰","STREET":"建平十七街","SECT":" ","MAREA":" ","LANE":" ","ALLEY":" ","HOUSE_NO":"１５９號七樓之１","E_COORD97":165773.10000000001,"N_COORD97":2544228.0299999998,"ADDRESS":"建平十七街１５９號七樓之１","OBJECTID":510916},"geometry":{"x":165773.10000000056,"y":2544228.0300000012}},{"attributes":{"ID":510944,"DIS_CODE":0,"TOWNNAME":"安平區","LI":"怡平里","LIN":"1鄰","STREET":"建平十七街","SECT":" ","MAREA":" ","LANE":" ","ALLEY":" ","HOUSE_NO":"１５９號七樓之２","E_COORD97":165773.10000000001,"N_COORD97":2544228.0299999998,"ADDRESS":"建平十七街１５９號七樓之２","OBJECTID":510917},"geometry":{"x":165773.10000000056,"y":2544228.0300000012}},{"attributes":{"ID":510945,"DIS_CODE":0,"TOWNNAME":"安平區","LI":"怡平里","LIN":"1鄰","STREET":"建平十七街","SECT":" ","MAREA":" ","LANE":" ","ALLEY":" ","HOUSE_NO":"１５９號九樓之１","E_COORD97":165773.10000000001,"N_COORD97":2544228.0299999998,"ADDRESS":"建平十七街１５９號九樓之１","OBJECTID":510918},"geometry":{"x":165773.10000000056,"y":2544228.0300000012}},{"attributes":{"ID":510946,"DIS_CODE":0,"TOWNNAME":"安平區","LI":"怡平里","LIN":"1鄰","STREET":"建平十七街","SECT":" ","MAREA":" ","LANE":" ","ALLEY":" ","HOUSE_NO":"１５９號九樓之２","E_COORD97":165773.10000000001,"N_COORD97":2544228.0299999998,"ADDRESS":"建平十七街１５９號九樓之２","OBJECTID":510919},"geometry":{"x":165773.10000000056,"y":2544228.0300000012}},{"attributes":{"ID":510947,"DIS_CODE":0,"TOWNNAME":"安平區","LI":"怡平里","LIN":"1鄰","STREET":"建平十七街","SECT":" ","MAREA":" ","LANE":" ","ALLEY":" ","HOUSE_NO":"１５９號二樓","E_COORD97":165773.10000000001,"N_COORD97":2544228.0299999998,"ADDRESS":"建平十七街１５９號二樓","OBJECTID":510920},"geometry":{"x":165773.10000000056,"y":2544228.0300000012}},{"attributes":{"ID":510948,"DIS_CODE":0,"TOWNNAME":"安平區","LI":"怡平里","LIN":"1鄰","STREET":"建平十七街","SECT":" ","MAREA":" ","LANE":" ","ALLEY":" ","HOUSE_NO":"１５９號二樓之１","E_COORD97":165773.10000000001,"N_COORD97":2544228.0299999998,"ADDRESS":"建平十七街１５９號二樓之１","OBJECTID":510921},"geometry":{"x":165773.10000000056,"y":2544228.0300000012}},{"attributes":{"ID":510949,"DIS_CODE":0,"TOWNNAME":"安平區","LI":"怡平里","LIN":"1鄰","STREET":"建平十七街","SECT":" ","MAREA":" ","LANE":" ","ALLEY":" ","HOUSE_NO":"１５９號二樓之２","E_COORD97":165773.10000000001,"N_COORD97":2544228.0299999998,"ADDRESS":"建平十七街１５９號二樓之２","OBJECTID":510922},"geometry":{"x":165773.10000000056,"y":2544228.0300000012}},{"attributes":{"ID":510950,"DIS_CODE":0,"TOWNNAME":"安平區","LI":"怡平里","LIN":"1鄰","STREET":"建平十七街","SECT":" ","MAREA":" ","LANE":" ","ALLEY":" ","HOUSE_NO":"１５９號八樓之１","E_COORD97":165773.10000000001,"N_COORD97":2544228.0299999998,"ADDRESS":"建平十七街１５９號八樓之１","OBJECTID":510923},"geometry":{"x":165773.10000000056,"y":2544228.0300000012}},{"attributes":{"ID":510951,"DIS_CODE":0,"TOWNNAME":"安平區","LI":"怡平里","LIN":"1鄰","STREET":"建平十七街","SECT":" ","MAREA":" ","LANE":" ","ALLEY":" ","HOUSE_NO":"１５９號八樓之２","E_COORD97":165773.10000000001,"N_COORD97":2544228.0299999998,"ADDRESS":"建平十七街１５９號八樓之２","OBJECTID":510924},"geometry":{"x":165773.10000000056,"y":2544228.0300000012}},{"attributes":{"ID":510952,"DIS_CODE":0,"TOWNNAME":"安平區","LI":"怡平里","LIN":"1鄰","STREET":"建平十七街","SECT":" ","MAREA":" ","LANE":" ","ALLEY":" ","HOUSE_NO":"１５９號十一樓之１","E_COORD97":165773.10000000001,"N_COORD97":2544228.0299999998,"ADDRESS":"建平十七街１５９號十一樓之１","OBJECTID":510925},"geometry":{"x":165773.10000000056,"y":2544228.0300000012}},{"attributes":{"ID":510953,"DIS_CODE":0,"TOWNNAME":"安平區","LI":"怡平里","LIN":"1鄰","STREET":"建平十七街","SECT":" ","MAREA":" ","LANE":" ","ALLEY":" ","HOUSE_NO":"１５９號十一樓之２","E_COORD97":165773.10000000001,"N_COORD97":2544228.0299999998,"ADDRESS":"建平十七街１５９號十一樓之２","OBJECTID":510926},"geometry":{"x":165773.10000000056,"y":2544228.0300000012}},{"attributes":{"ID":510954,"DIS_CODE":0,"TOWNNAME":"安平區","LI":"怡平里","LIN":"1鄰","STREET":"建平十七街","SECT":" ","MAREA":" ","LANE":" ","ALLEY":" ","HOUSE_NO":"１５９號十二樓之１","E_COORD97":165773.10000000001,"N_COORD97":2544228.0299999998,"ADDRESS":"建平十七街１５９號十二樓之１","OBJECTID":510927},"geometry":{"x":165773.10000000056,"y":2544228.0300000012}},{"attributes":{"ID":510955,"DIS_CODE":0,"TOWNNAME":"安平區","LI":"華平里","LIN":"1鄰","STREET":"慶平路","SECT":" ","MAREA":" ","LANE":" ","ALLEY":" ","HOUSE_NO":"５０７號之１五樓之１","E_COORD97":165177.17999999999,"N_COORD97":2544199.2200000002,"ADDRESS":"慶平路５０７號之１五樓之１","OBJECTID":510928},"geometry":{"x":165177.1799999997,"y":2544199.2200000007}},{"attributes":{"ID":510956,"DIS_CODE":0,"TOWNNAME":"安平區","LI":"華平里","LIN":"1鄰","STREET":"慶平路","SECT":" ","MAREA":" ","LANE":" ","ALLEY":" ","HOUSE_NO":"５０７號之１五樓之２","E_COORD97":165177.17999999999,"N_COORD97":2544199.2200000002,"ADDRESS":"慶平路５０７號之１五樓之２","OBJECTID":510929},"geometry":{"x":165177.1799999997,"y":2544199.2200000007}},{"attributes":{"ID":510957,"DIS_CODE":0,"TOWNNAME":"安平區","LI":"華平里","LIN":"1鄰","STREET":"慶平路","SECT":" ","MAREA":" ","LANE":" ","ALLEY":" ","HOUSE_NO":"５０７號之１六樓之１","E_COORD97":165177.17999999999,"N_COORD97":2544199.2200000002,"ADDRESS":"慶平路５０７號之１六樓之１","OBJECTID":510930},"geometry":{"x":165177.1799999997,"y":2544199.2200000007}},{"attributes":{"ID":510958,"DIS_CODE":0,"TOWNNAME":"安平區","LI":"華平里","LIN":"1鄰","STREET":"慶平路","SECT":" ","MAREA":" ","LANE":" ","ALLEY":" ","HOUSE_NO":"５０７號之１六樓之２","E_COORD97":165177.17999999999,"N_COORD97":2544199.2200000002,"ADDRESS":"慶平路５０７號之１六樓之２","OBJECTID":510931},"geometry":{"x":165177.1799999997,"y":2544199.2200000007}},{"attributes":{"ID":510959,"DIS_CODE":0,"TOWNNAME":"安平區","LI":"怡平里","LIN":"1鄰","STREET":"建平十七街","SECT":" ","MAREA":" ","LANE":" ","ALLEY":" ","HOUSE_NO":"１５９號十二樓之２","E_COORD97":165773.10000000001,"N_COORD97":2544228.0299999998,"ADDRESS":"建平十七街１５９號十二樓之２","OBJECTID":510932},"geometry":{"x":165773.10000000056,"y":2544228.0300000012}},{"attributes":{"ID":510960,"DIS_CODE":0,"TOWNNAME":"安平區","LI":"怡平里","LIN":"1鄰","STREET":"建平十七街","SECT":" ","MAREA":" ","LANE":" ","ALLEY":" ","HOUSE_NO":"１５９號十樓之１","E_COORD97":165773.10000000001,"N_COORD97":2544228.0299999998,"ADDRESS":"建平十七街１５９號十樓之１","OBJECTID":510933},"geometry":{"x":165773.10000000056,"y":2544228.0300000012}},{"attributes":{"ID":510961,"DIS_CODE":0,"TOWNNAME":"安平區","LI":"怡平里","LIN":"1鄰","STREET":"建平十七街","SECT":" ","MAREA":" ","LANE":" ","ALLEY":" ","HOUSE_NO":"１５９號十樓之２","E_COORD97":165773.10000000001,"N_COORD97":2544228.0299999998,"ADDRESS":"建平十七街１５９號十樓之２","OBJECTID":510934},"geometry":{"x":165773.10000000056,"y":2544228.0300000012}},{"attributes":{"ID":510962,"DIS_CODE":0,"TOWNNAME":"安平區","LI":"怡平里","LIN":"1鄰","STREET":"建平十七街","SECT":" ","MAREA":" ","LANE":" ","ALLEY":" ","HOUSE_NO":"１５９號三樓之１","E_COORD97":165773.10000000001,"N_COORD97":2544228.0299999998,"ADDRESS":"建平十七街１５９號三樓之１","OBJECTID":510935},"geometry":{"x":165773.10000000056,"y":2544228.0300000012}},{"attributes":{"ID":510963,"DIS_CODE":0,"TOWNNAME":"安平區","LI":"怡平里","LIN":"1鄰","STREET":"建平十七街","SECT":" ","MAREA":" ","LANE":" ","ALLEY":" ","HOUSE_NO":"１５９號三樓之２","E_COORD97":165773.10000000001,"N_COORD97":2544228.0299999998,"ADDRESS":"建平十七街１５９號三樓之２","OBJECTID":510936},"geometry":{"x":165773.10000000056,"y":2544228.0300000012}},{"attributes":{"ID":510964,"DIS_CODE":0,"TOWNNAME":"安平區","LI":"怡平里","LIN":"1鄰","STREET":"建平十七街","SECT":" ","MAREA":" ","LANE":" ","ALLEY":" ","HOUSE_NO":"１５９號五樓之１","E_COORD97":165773.10000000001,"N_COORD97":2544228.0299999998,"ADDRESS":"建平十七街１５９號五樓之１","OBJECTID":510937},"geometry":{"x":165773.10000000056,"y":2544228.0300000012}},{"attributes":{"ID":510965,"DIS_CODE":0,"TOWNNAME":"安平區","LI":"怡平里","LIN":"1鄰","STREET":"建平十七街","SECT":" ","MAREA":" ","LANE":" ","ALLEY":" ","HOUSE_NO":"１５９號五樓之２","E_COORD97":165773.10000000001,"N_COORD97":2544228.0299999998,"ADDRESS":"建平十七街１５９號五樓之２","OBJECTID":510938},"geometry":{"x":165773.10000000056,"y":2544228.0300000012}},{"attributes":{"ID":510966,"DIS_CODE":0,"TOWNNAME":"安平區","LI":"怡平里","LIN":"1鄰","STREET":"建平十七街","SECT":" ","MAREA":" ","LANE":" ","ALLEY":" ","HOUSE_NO":"１５９號六樓之１","E_COORD97":165773.10000000001,"N_COORD97":2544228.0299999998,"ADDRESS":"建平十七街１５９號六樓之１","OBJECTID":510939},"geometry":{"x":165773.10000000056,"y":2544228.0300000012}},{"attributes":{"ID":510967,"DIS_CODE":0,"TOWNNAME":"安平區","LI":"怡平里","LIN":"1鄰","STREET":"建平十七街","SECT":" ","MAREA":" ","LANE":" ","ALLEY":" ","HOUSE_NO":"１５９號六樓之２","E_COORD97":165773.10000000001,"N_COORD97":2544228.0299999998,"ADDRESS":"建平十七街１５９號六樓之２","OBJECTID":510940},"geometry":{"x":165773.10000000056,"y":2544228.0300000012}},{"attributes":{"ID":510968,"DIS_CODE":0,"TOWNNAME":"安平區","LI":"怡平里","LIN":"1鄰","STREET":"建平十七街","SECT":" ","MAREA":" ","LANE":" ","ALLEY":" ","HOUSE_NO":"１５９號四樓之１","E_COORD97":165773.10000000001,"N_COORD97":2544228.0299999998,"ADDRESS":"建平十七街１５９號四樓之１","OBJECTID":510941},"geometry":{"x":165773.10000000056,"y":2544228.0300000012}},{"attributes":{"ID":510969,"DIS_CODE":0,"TOWNNAME":"安平區","LI":"怡平里","LIN":"1鄰","STREET":"建平十七街","SECT":" ","MAREA":" ","LANE":" ","ALLEY":" ","HOUSE_NO":"１５９號四樓之２","E_COORD97":165773.10000000001,"N_COORD97":2544228.0299999998,"ADDRESS":"建平十七街１５９號四樓之２","OBJECTID":510942},"geometry":{"x":165773.10000000056,"y":2544228.0300000012}},{"attributes":{"ID":510970,"DIS_CODE":0,"TOWNNAME":"安平區","LI":"華平里","LIN":"1鄰","STREET":"慶平路","SECT":" ","MAREA":" ","LANE":" ","ALLEY":" ","HOUSE_NO":"５０７號之１四樓之１","E_COORD97":165177.17999999999,"N_COORD97":2544199.2200000002,"ADDRESS":"慶平路５０７號之１四樓之１","OBJECTID":510943},"geometry":{"x":165177.1799999997,"y":2544199.2200000007}},{"attributes":{"ID":510971,"DIS_CODE":0,"TOWNNAME":"安平區","LI":"華平里","LIN":"1鄰","STREET":"慶平路","SECT":" ","MAREA":" ","LANE":" ","ALLEY":" ","HOUSE_NO":"５０７號之１四樓之２","E_COORD97":165177.17999999999,"N_COORD97":2544199.2200000002,"ADDRESS":"慶平路５０７號之１四樓之２","OBJECTID":510944},"geometry":{"x":165177.1799999997,"y":2544199.2200000007}},{"attributes":{"ID":510972,"DIS_CODE":0,"TOWNNAME":"北區","LI":"華興里","LIN":"1鄰","STREET":"開南街","SECT":" ","MAREA":" ","LANE":" ","ALLEY":" ","HOUSE_NO":"３號五樓","E_COORD97":170291.95000000001,"N_COORD97":2545389.8399999999,"ADDRESS":"開南街３號五樓","OBJECTID":510945},"geometry":{"x":170291.95000000019,"y":2545389.8399999999}},{"attributes":{"ID":510973,"DIS_CODE":0,"TOWNNAME":"安平區","LI":"建平里","LIN":"1鄰","STREET":"建平十七街","SECT":" ","MAREA":" ","LANE":" ","ALLEY":" ","HOUSE_NO":"３１號七樓之１","E_COORD97":166285.63,"N_COORD97":2544212.4500000002,"ADDRESS":"建平十七街３１號七樓之１","OBJECTID":510946},"geometry":{"x":166285.63000000082,"y":2544212.4499999993}},{"attributes":{"ID":510974,"DIS_CODE":0,"TOWNNAME":"安平區","LI":"建平里","LIN":"1鄰","STREET":"建平十七街","SECT":" ","MAREA":" ","LANE":" ","ALLEY":" ","HOUSE_NO":"３１號七樓之２","E_COORD97":166285.63,"N_COORD97":2544212.4500000002,"ADDRESS":"建平十七街３１號七樓之２","OBJECTID":510947},"geometry":{"x":166285.63000000082,"y":2544212.4499999993}},{"attributes":{"ID":510975,"DIS_CODE":0,"TOWNNAME":"安平區","LI":"建平里","LIN":"1鄰","STREET":"建平十七街","SECT":" ","MAREA":" ","LANE":" ","ALLEY":" ","HOUSE_NO":"３１號七樓之３","E_COORD97":166285.63,"N_COORD97":2544212.4500000002,"ADDRESS":"建平十七街３１號七樓之３","OBJECTID":510948},"geometry":{"x":166285.63000000082,"y":2544212.4499999993}},{"attributes":{"ID":510976,"DIS_CODE":0,"TOWNNAME":"安平區","LI":"建平里","LIN":"1鄰","STREET":"建平十七街","SECT":" ","MAREA":" ","LANE":" ","ALLEY":" ","HOUSE_NO":"３１號七樓之４","E_COORD97":166285.63,"N_COORD97":2544212.4500000002,"ADDRESS":"建平十七街３１號七樓之４","OBJECTID":510949},"geometry":{"x":166285.63000000082,"y":2544212.4499999993}},{"attributes":{"ID":510977,"DIS_CODE":0,"TOWNNAME":"安平區","LI":"建平里","LIN":"1鄰","STREET":"建平十七街","SECT":" ","MAREA":" ","LANE":" ","ALLEY":" ","HOUSE_NO":"３１號九樓之１","E_COORD97":166285.63,"N_COORD97":2544212.4500000002,"ADDRESS":"建平十七街３１號九樓之１","OBJECTID":510950},"geometry":{"x":166285.63000000082,"y":2544212.4499999993}},{"attributes":{"ID":510978,"DIS_CODE":0,"TOWNNAME":"安平區","LI":"建平里","LIN":"1鄰","STREET":"建平十七街","SECT":" ","MAREA":" ","LANE":" ","ALLEY":" ","HOUSE_NO":"３１號九樓之２","E_COORD97":166285.63,"N_COORD97":2544212.4500000002,"ADDRESS":"建平十七街３１號九樓之２","OBJECTID":510951},"geometry":{"x":166285.63000000082,"y":2544212.4499999993}},{"attributes":{"ID":510979,"DIS_CODE":0,"TOWNNAME":"安平區","LI":"建平里","LIN":"1鄰","STREET":"建平十七街","SECT":" ","MAREA":" ","LANE":" ","ALLEY":" ","HOUSE_NO":"３１號九樓之４","E_COORD97":166285.63,"N_COORD97":2544212.4500000002,"ADDRESS":"建平十七街３１號九樓之４","OBJECTID":510952},"geometry":{"x":166285.63000000082,"y":2544212.4499999993}},{"attributes":{"ID":510980,"DIS_CODE":0,"TOWNNAME":"安平區","LI":"建平里","LIN":"1鄰","STREET":"建平十七街","SECT":" ","MAREA":" ","LANE":" ","ALLEY":" ","HOUSE_NO":"３１號八樓之１","E_COORD97":166285.63,"N_COORD97":2544212.4500000002,"ADDRESS":"建平十七街３１號八樓之１","OBJECTID":510953},"geometry":{"x":166285.63000000082,"y":2544212.4499999993}},{"attributes":{"ID":510981,"DIS_CODE":0,"TOWNNAME":"安平區","LI":"建平里","LIN":"1鄰","STREET":"建平十七街","SECT":" ","MAREA":" ","LANE":" ","ALLEY":" ","HOUSE_NO":"３１號八樓之２","E_COORD97":166285.63,"N_COORD97":2544212.4500000002,"ADDRESS":"建平十七街３１號八樓之２","OBJECTID":510954},"geometry":{"x":166285.63000000082,"y":2544212.4499999993}},{"attributes":{"ID":510982,"DIS_CODE":0,"TOWNNAME":"安平區","LI":"建平里","LIN":"1鄰","STREET":"建平十七街","SECT":" ","MAREA":" ","LANE":" ","ALLEY":" ","HOUSE_NO":"３１號八樓之３","E_COORD97":166285.63,"N_COORD97":2544212.4500000002,"ADDRESS":"建平十七街３１號八樓之３","OBJECTID":510955},"geometry":{"x":166285.63000000082,"y":2544212.4499999993}},{"attributes":{"ID":510983,"DIS_CODE":0,"TOWNNAME":"安平區","LI":"建平里","LIN":"1鄰","STREET":"建平十七街","SECT":" ","MAREA":" ","LANE":" ","ALLEY":" ","HOUSE_NO":"３１號八樓之４","E_COORD97":166285.63,"N_COORD97":2544212.4500000002,"ADDRESS":"建平十七街３１號八樓之４","OBJECTID":510956},"geometry":{"x":166285.63000000082,"y":2544212.4499999993}},{"attributes":{"ID":510984,"DIS_CODE":0,"TOWNNAME":"安平區","LI":"建平里","LIN":"1鄰","STREET":"建平十七街","SECT":" ","MAREA":" ","LANE":" ","ALLEY":" ","HOUSE_NO":"３１號十一樓之１","E_COORD97":166285.63,"N_COORD97":2544212.4500000002,"ADDRESS":"建平十七街３１號十一樓之１","OBJECTID":510957},"geometry":{"x":166285.63000000082,"y":2544212.4499999993}},{"attributes":{"ID":510985,"DIS_CODE":0,"TOWNNAME":"安平區","LI":"建平里","LIN":"1鄰","STREET":"建平十七街","SECT":" ","MAREA":" ","LANE":" ","ALLEY":" ","HOUSE_NO":"３１號十一樓之２","E_COORD97":166285.63,"N_COORD97":2544212.4500000002,"ADDRESS":"建平十七街３１號十一樓之２","OBJECTID":510958},"geometry":{"x":166285.63000000082,"y":2544212.4499999993}},{"attributes":{"ID":510986,"DIS_CODE":0,"TOWNNAME":"安平區","LI":"建平里","LIN":"1鄰","STREET":"建平十七街","SECT":" ","MAREA":" ","LANE":" ","ALLEY":" ","HOUSE_NO":"３１號十一樓之３","E_COORD97":166285.63,"N_COORD97":2544212.4500000002,"ADDRESS":"建平十七街３１號十一樓之３","OBJECTID":510959},"geometry":{"x":166285.63000000082,"y":2544212.4499999993}},{"attributes":{"ID":510987,"DIS_CODE":0,"TOWNNAME":"安平區","LI":"建平里","LIN":"1鄰","STREET":"建平十七街","SECT":" ","MAREA":" ","LANE":" ","ALLEY":" ","HOUSE_NO":"３１號十一樓之４","E_COORD97":166285.63,"N_COORD97":2544212.4500000002,"ADDRESS":"建平十七街３１號十一樓之４","OBJECTID":510960},"geometry":{"x":166285.63000000082,"y":2544212.4499999993}},{"attributes":{"ID":510988,"DIS_CODE":0,"TOWNNAME":"安平區","LI":"建平里","LIN":"1鄰","STREET":"建平十七街","SECT":" ","MAREA":" ","LANE":" ","ALLEY":" ","HOUSE_NO":"３１號十二樓之１","E_COORD97":166285.63,"N_COORD97":2544212.4500000002,"ADDRESS":"建平十七街３１號十二樓之１","OBJECTID":510961},"geometry":{"x":166285.63000000082,"y":2544212.4499999993}},{"attributes":{"ID":510989,"DIS_CODE":0,"TOWNNAME":"安平區","LI":"建平里","LIN":"1鄰","STREET":"建平十七街","SECT":" ","MAREA":" ","LANE":" ","ALLEY":" ","HOUSE_NO":"３１號十二樓之２","E_COORD97":166285.63,"N_COORD97":2544212.4500000002,"ADDRESS":"建平十七街３１號十二樓之２","OBJECTID":510962},"geometry":{"x":166285.63000000082,"y":2544212.4499999993}},{"attributes":{"ID":510990,"DIS_CODE":0,"TOWNNAME":"東區","LI":"和平里","LIN":"1鄰","STREET":"文化二街","SECT":" ","MAREA":" ","LANE":" ","ALLEY":" ","HOUSE_NO":"１號五樓","E_COORD97":171099.45000000001,"N_COORD97":2542097.2200000002,"ADDRESS":"文化二街１號五樓","OBJECTID":510963},"geometry":{"x":171099.45000000112,"y":2542097.2200000007}},{"attributes":{"ID":510991,"DIS_CODE":0,"TOWNNAME":"安平區","LI":"建平里","LIN":"1鄰","STREET":"建平十七街","SECT":" ","MAREA":" ","LANE":" ","ALLEY":" ","HOUSE_NO":"３１號十二樓之３","E_COORD97":166285.63,"N_COORD97":2544212.4500000002,"ADDRESS":"建平十七街３１號十二樓之３","OBJECTID":510964},"geometry":{"x":166285.63000000082,"y":2544212.4499999993}},{"attributes":{"ID":510992,"DIS_CODE":0,"TOWNNAME":"安平區","LI":"建平里","LIN":"1鄰","STREET":"建平十七街","SECT":" ","MAREA":" ","LANE":" ","ALLEY":" ","HOUSE_NO":"３１號十二樓之４","E_COORD97":166285.63,"N_COORD97":2544212.4500000002,"ADDRESS":"建平十七街３１號十二樓之４","OBJECTID":510965},"geometry":{"x":166285.63000000082,"y":2544212.4499999993}},{"attributes":{"ID":510993,"DIS_CODE":0,"TOWNNAME":"安平區","LI":"建平里","LIN":"1鄰","STREET":"建平十七街","SECT":" ","MAREA":" ","LANE":" ","ALLEY":" ","HOUSE_NO":"３１號十三樓之１","E_COORD97":166285.63,"N_COORD97":2544212.4500000002,"ADDRESS":"建平十七街３１號十三樓之１","OBJECTID":510966},"geometry":{"x":166285.63000000082,"y":2544212.4499999993}},{"attributes":{"ID":510994,"DIS_CODE":0,"TOWNNAME":"安平區","LI":"建平里","LIN":"1鄰","STREET":"建平十七街","SECT":" ","MAREA":" ","LANE":" ","ALLEY":" ","HOUSE_NO":"３１號十三樓之２","E_COORD97":166285.63,"N_COORD97":2544212.4500000002,"ADDRESS":"建平十七街３１號十三樓之２","OBJECTID":510967},"geometry":{"x":166285.63000000082,"y":2544212.4499999993}},{"attributes":{"ID":510995,"DIS_CODE":0,"TOWNNAME":"安平區","LI":"建平里","LIN":"1鄰","STREET":"建平十七街","SECT":" ","MAREA":" ","LANE":" ","ALLEY":" ","HOUSE_NO":"３１號十三樓之３","E_COORD97":166285.63,"N_COORD97":2544212.4500000002,"ADDRESS":"建平十七街３１號十三樓之３","OBJECTID":510968},"geometry":{"x":166285.63000000082,"y":2544212.4499999993}},{"attributes":{"ID":510996,"DIS_CODE":0,"TOWNNAME":"安平區","LI":"建平里","LIN":"1鄰","STREET":"建平十七街","SECT":" ","MAREA":" ","LANE":" ","ALLEY":" ","HOUSE_NO":"３１號十三樓之４","E_COORD97":166285.63,"N_COORD97":2544212.4500000002,"ADDRESS":"建平十七街３１號十三樓之４","OBJECTID":510969},"geometry":{"x":166285.63000000082,"y":2544212.4499999993}},{"attributes":{"ID":510997,"DIS_CODE":0,"TOWNNAME":"安平區","LI":"建平里","LIN":"1鄰","STREET":"建平十七街","SECT":" ","MAREA":" ","LANE":" ","ALLEY":" ","HOUSE_NO":"３１號十五樓之１","E_COORD97":166285.63,"N_COORD97":2544212.4500000002,"ADDRESS":"建平十七街３１號十五樓之１","OBJECTID":510970},"geometry":{"x":166285.63000000082,"y":2544212.4499999993}},{"attributes":{"ID":510998,"DIS_CODE":0,"TOWNNAME":"安平區","LI":"建平里","LIN":"1鄰","STREET":"建平十七街","SECT":" ","MAREA":" ","LANE":" ","ALLEY":" ","HOUSE_NO":"３１號十五樓之２","E_COORD97":166285.63,"N_COORD97":2544212.4500000002,"ADDRESS":"建平十七街３１號十五樓之２","OBJECTID":510971},"geometry":{"x":166285.63000000082,"y":2544212.4499999993}},{"attributes":{"ID":510999,"DIS_CODE":0,"TOWNNAME":"安平區","LI":"建平里","LIN":"1鄰","STREET":"建平十七街","SECT":" ","MAREA":" ","LANE":" ","ALLEY":" ","HOUSE_NO":"３１號十五樓之３","E_COORD97":166285.63,"N_COORD97":2544212.4500000002,"ADDRESS":"建平十七街３１號十五樓之３","OBJECTID":510972},"geometry":{"x":166285.63000000082,"y":2544212.4499999993}},{"attributes":{"ID":511000,"DIS_CODE":0,"TOWNNAME":"安平區","LI":"建平里","LIN":"1鄰","STREET":"建平十七街","SECT":" ","MAREA":" ","LANE":" ","ALLEY":" ","HOUSE_NO":"３１號十四樓之１","E_COORD97":166285.63,"N_COORD97":2544212.4500000002,"ADDRESS":"建平十七街３１號十四樓之１","OBJECTID":510973},"geometry":{"x":166285.63000000082,"y":2544212.4499999993}},{"attributes":{"ID":511001,"DIS_CODE":0,"TOWNNAME":"安平區","LI":"建平里","LIN":"1鄰","STREET":"建平十七街","SECT":" ","MAREA":" ","LANE":" ","ALLEY":" ","HOUSE_NO":"３１號十四樓之２","E_COORD97":166285.63,"N_COORD97":2544212.4500000002,"ADDRESS":"建平十七街３１號十四樓之２","OBJECTID":510974},"geometry":{"x":166285.63000000082,"y":2544212.4499999993}},{"attributes":{"ID":511002,"DIS_CODE":0,"TOWNNAME":"安平區","LI":"建平里","LIN":"1鄰","STREET":"建平十七街","SECT":" ","MAREA":" ","LANE":" ","ALLEY":" ","HOUSE_NO":"３１號十四樓之３","E_COORD97":166285.63,"N_COORD97":2544212.4500000002,"ADDRESS":"建平十七街３１號十四樓之３","OBJECTID":510975},"geometry":{"x":166285.63000000082,"y":2544212.4499999993}},{"attributes":{"ID":511003,"DIS_CODE":0,"TOWNNAME":"安平區","LI":"建平里","LIN":"1鄰","STREET":"建平十七街","SECT":" ","MAREA":" ","LANE":" ","ALLEY":" ","HOUSE_NO":"３１號十樓之２","E_COORD97":166285.63,"N_COORD97":2544212.4500000002,"ADDRESS":"建平十七街３１號十樓之２","OBJECTID":510976},"geometry":{"x":166285.63000000082,"y":2544212.4499999993}},{"attributes":{"ID":511004,"DIS_CODE":0,"TOWNNAME":"安平區","LI":"建平里","LIN":"1鄰","STREET":"建平十七街","SECT":" ","MAREA":" ","LANE":" ","ALLEY":" ","HOUSE_NO":"３１號十樓之３","E_COORD97":166285.63,"N_COORD97":2544212.4500000002,"ADDRESS":"建平十七街３１號十樓之３","OBJECTID":510977},"geometry":{"x":166285.63000000082,"y":2544212.4499999993}},{"attributes":{"ID":511005,"DIS_CODE":0,"TOWNNAME":"安平區","LI":"建平里","LIN":"1鄰","STREET":"建平十七街","SECT":" ","MAREA":" ","LANE":" ","ALLEY":" ","HOUSE_NO":"３１號十樓之４","E_COORD97":166285.63,"N_COORD97":2544212.4500000002,"ADDRESS":"建平十七街３１號十樓之４","OBJECTID":510978},"geometry":{"x":166285.63000000082,"y":2544212.4499999993}},{"attributes":{"ID":511006,"DIS_CODE":0,"TOWNNAME":"安平區","LI":"建平里","LIN":"1鄰","STREET":"建平十七街","SECT":" ","MAREA":" ","LANE":" ","ALLEY":" ","HOUSE_NO":"３１號三樓之１","E_COORD97":166285.63,"N_COORD97":2544212.4500000002,"ADDRESS":"建平十七街３１號三樓之１","OBJECTID":510979},"geometry":{"x":166285.63000000082,"y":2544212.4499999993}},{"attributes":{"ID":511007,"DIS_CODE":0,"TOWNNAME":"安平區","LI":"建平里","LIN":"1鄰","STREET":"建平十七街","SECT":" ","MAREA":" ","LANE":" ","ALLEY":" ","HOUSE_NO":"３１號三樓之２","E_COORD97":166285.63,"N_COORD97":2544212.4500000002,"ADDRESS":"建平十七街３１號三樓之２","OBJECTID":510980},"geometry":{"x":166285.63000000082,"y":2544212.4499999993}},{"attributes":{"ID":511008,"DIS_CODE":0,"TOWNNAME":"安平區","LI":"建平里","LIN":"1鄰","STREET":"建平十七街","SECT":" ","MAREA":" ","LANE":" ","ALLEY":" ","HOUSE_NO":"３１號三樓之３","E_COORD97":166285.63,"N_COORD97":2544212.4500000002,"ADDRESS":"建平十七街３１號三樓之３","OBJECTID":510981},"geometry":{"x":166285.63000000082,"y":2544212.4499999993}},{"attributes":{"ID":511009,"DIS_CODE":0,"TOWNNAME":"安平區","LI":"建平里","LIN":"1鄰","STREET":"建平十七街","SECT":" ","MAREA":" ","LANE":" ","ALLEY":" ","HOUSE_NO":"３１號五樓之１","E_COORD97":166285.63,"N_COORD97":2544212.4500000002,"ADDRESS":"建平十七街３１號五樓之１","OBJECTID":510982},"geometry":{"x":166285.63000000082,"y":2544212.4499999993}},{"attributes":{"ID":511010,"DIS_CODE":0,"TOWNNAME":"安平區","LI":"建平里","LIN":"1鄰","STREET":"建平十七街","SECT":" ","MAREA":" ","LANE":" ","ALLEY":" ","HOUSE_NO":"３１號五樓之２","E_COORD97":166285.63,"N_COORD97":2544212.4500000002,"ADDRESS":"建平十七街３１號五樓之２","OBJECTID":510983},"geometry":{"x":166285.63000000082,"y":2544212.4499999993}},{"attributes":{"ID":511011,"DIS_CODE":0,"TOWNNAME":"安平區","LI":"建平里","LIN":"1鄰","STREET":"建平十七街","SECT":" ","MAREA":" ","LANE":" ","ALLEY":" ","HOUSE_NO":"３１號五樓之３","E_COORD97":166285.63,"N_COORD97":2544212.4500000002,"ADDRESS":"建平十七街３１號五樓之３","OBJECTID":510984},"geometry":{"x":166285.63000000082,"y":2544212.4499999993}},{"attributes":{"ID":511012,"DIS_CODE":0,"TOWNNAME":"安平區","LI":"建平里","LIN":"1鄰","STREET":"建平十七街","SECT":" ","MAREA":" ","LANE":" ","ALLEY":" ","HOUSE_NO":"３１號六樓之１","E_COORD97":166285.63,"N_COORD97":2544212.4500000002,"ADDRESS":"建平十七街３１號六樓之１","OBJECTID":510985},"geometry":{"x":166285.63000000082,"y":2544212.4499999993}},{"attributes":{"ID":511013,"DIS_CODE":0,"TOWNNAME":"安平區","LI":"建平里","LIN":"1鄰","STREET":"建平十七街","SECT":" ","MAREA":" ","LANE":" ","ALLEY":" ","HOUSE_NO":"３１號六樓之２","E_COORD97":166285.63,"N_COORD97":2544212.4500000002,"ADDRESS":"建平十七街３１號六樓之２","OBJECTID":510986},"geometry":{"x":166285.63000000082,"y":2544212.4499999993}},{"attributes":{"ID":511014,"DIS_CODE":0,"TOWNNAME":"安平區","LI":"建平里","LIN":"1鄰","STREET":"建平十七街","SECT":" ","MAREA":" ","LANE":" ","ALLEY":" ","HOUSE_NO":"３１號六樓之３","E_COORD97":166285.63,"N_COORD97":2544212.4500000002,"ADDRESS":"建平十七街３１號六樓之３","OBJECTID":510987},"geometry":{"x":166285.63000000082,"y":2544212.4499999993}},{"attributes":{"ID":511015,"DIS_CODE":0,"TOWNNAME":"安平區","LI":"建平里","LIN":"1鄰","STREET":"建平十七街","SECT":" ","MAREA":" ","LANE":" ","ALLEY":" ","HOUSE_NO":"３１號六樓之４","E_COORD97":166285.63,"N_COORD97":2544212.4500000002,"ADDRESS":"建平十七街３１號六樓之４","OBJECTID":510988},"geometry":{"x":166285.63000000082,"y":2544212.4499999993}},{"attributes":{"ID":511016,"DIS_CODE":0,"TOWNNAME":"安平區","LI":"建平里","LIN":"1鄰","STREET":"建平十七街","SECT":" ","MAREA":" ","LANE":" ","ALLEY":" ","HOUSE_NO":"３１號四樓之１","E_COORD97":166285.63,"N_COORD97":2544212.4500000002,"ADDRESS":"建平十七街３１號四樓之１","OBJECTID":510989},"geometry":{"x":166285.63000000082,"y":2544212.4499999993}},{"attributes":{"ID":511017,"DIS_CODE":0,"TOWNNAME":"安平區","LI":"建平里","LIN":"1鄰","STREET":"建平十七街","SECT":" ","MAREA":" ","LANE":" ","ALLEY":" ","HOUSE_NO":"３１號四樓之２","E_COORD97":166285.63,"N_COORD97":2544212.4500000002,"ADDRESS":"建平十七街３１號四樓之２","OBJECTID":510990},"geometry":{"x":166285.63000000082,"y":2544212.4499999993}},{"attributes":{"ID":511018,"DIS_CODE":0,"TOWNNAME":"安平區","LI":"建平里","LIN":"1鄰","STREET":"建平十七街","SECT":" ","MAREA":" ","LANE":" ","ALLEY":" ","HOUSE_NO":"３１號四樓之３","E_COORD97":166285.63,"N_COORD97":2544212.4500000002,"ADDRESS":"建平十七街３１號四樓之３","OBJECTID":510991},"geometry":{"x":166285.63000000082,"y":2544212.4499999993}},{"attributes":{"ID":511019,"DIS_CODE":0,"TOWNNAME":"安平區","LI":"建平里","LIN":"1鄰","STREET":"建平十七街","SECT":" ","MAREA":" ","LANE":" ","ALLEY":" ","HOUSE_NO":"３３號七樓之１","E_COORD97":166259.04999999999,"N_COORD97":2544213.9199999999,"ADDRESS":"建平十七街３３號七樓之１","OBJECTID":510992},"geometry":{"x":166259.05000000075,"y":2544213.9199999999}},{"attributes":{"ID":511020,"DIS_CODE":0,"TOWNNAME":"安平區","LI":"建平里","LIN":"1鄰","STREET":"建平十七街","SECT":" ","MAREA":" ","LANE":" ","ALLEY":" ","HOUSE_NO":"３３號七樓之２","E_COORD97":166259.04999999999,"N_COORD97":2544213.9199999999,"ADDRESS":"建平十七街３３號七樓之２","OBJECTID":510993},"geometry":{"x":166259.05000000075,"y":2544213.9199999999}},{"attributes":{"ID":511021,"DIS_CODE":0,"TOWNNAME":"安平區","LI":"建平里","LIN":"1鄰","STREET":"建平十七街","SECT":" ","MAREA":" ","LANE":" ","ALLEY":" ","HOUSE_NO":"３３號七樓之３","E_COORD97":166259.04999999999,"N_COORD97":2544213.9199999999,"ADDRESS":"建平十七街３３號七樓之３","OBJECTID":510994},"geometry":{"x":166259.05000000075,"y":2544213.9199999999}},{"attributes":{"ID":511022,"DIS_CODE":0,"TOWNNAME":"安平區","LI":"建平里","LIN":"1鄰","STREET":"建平十七街","SECT":" ","MAREA":" ","LANE":" ","ALLEY":" ","HOUSE_NO":"３３號七樓之４","E_COORD97":166259.04999999999,"N_COORD97":2544213.9199999999,"ADDRESS":"建平十七街３３號七樓之４","OBJECTID":510995},"geometry":{"x":166259.05000000075,"y":2544213.9199999999}},{"attributes":{"ID":511023,"DIS_CODE":0,"TOWNNAME":"安平區","LI":"建平里","LIN":"1鄰","STREET":"建平十七街","SECT":" ","MAREA":" ","LANE":" ","ALLEY":" ","HOUSE_NO":"３３號九樓之１","E_COORD97":166259.04999999999,"N_COORD97":2544213.9199999999,"ADDRESS":"建平十七街３３號九樓之１","OBJECTID":510996},"geometry":{"x":166259.05000000075,"y":2544213.9199999999}},{"attributes":{"ID":511024,"DIS_CODE":0,"TOWNNAME":"安平區","LI":"建平里","LIN":"1鄰","STREET":"建平十七街","SECT":" ","MAREA":" ","LANE":" ","ALLEY":" ","HOUSE_NO":"３３號九樓之２","E_COORD97":166259.04999999999,"N_COORD97":2544213.9199999999,"ADDRESS":"建平十七街３３號九樓之２","OBJECTID":510997},"geometry":{"x":166259.05000000075,"y":2544213.9199999999}},{"attributes":{"ID":511025,"DIS_CODE":0,"TOWNNAME":"安平區","LI":"建平里","LIN":"1鄰","STREET":"建平十七街","SECT":" ","MAREA":" ","LANE":" ","ALLEY":" ","HOUSE_NO":"３３號九樓之３","E_COORD97":166259.04999999999,"N_COORD97":2544213.9199999999,"ADDRESS":"建平十七街３３號九樓之３","OBJECTID":510998},"geometry":{"x":166259.05000000075,"y":2544213.9199999999}},{"attributes":{"ID":511026,"DIS_CODE":0,"TOWNNAME":"安平區","LI":"建平里","LIN":"1鄰","STREET":"建平十七街","SECT":" ","MAREA":" ","LANE":" ","ALLEY":" ","HOUSE_NO":"３３號八樓之１","E_COORD97":166259.04999999999,"N_COORD97":2544213.9199999999,"ADDRESS":"建平十七街３３號八樓之１","OBJECTID":510999},"geometry":{"x":166259.05000000075,"y":2544213.9199999999}},{"attributes":{"ID":511027,"DIS_CODE":0,"TOWNNAME":"安平區","LI":"建平里","LIN":"1鄰","STREET":"建平十七街","SECT":" ","MAREA":" ","LANE":" ","ALLEY":" ","HOUSE_NO":"３３號八樓之２","E_COORD97":166259.04999999999,"N_COORD97":2544213.9199999999,"ADDRESS":"建平十七街３３號八樓之２","OBJECTID":511000},"geometry":{"x":166259.05000000075,"y":2544213.9199999999}}]}