{"displayFieldName":"TOWNNAME","fieldAliases":{"ID":"ID","DIS_CODE":"DIS_CODE","TOWNNAME":"TOWNNAME","LI":"LI","LIN":"LIN","STREET":"STREET","SECT":"SECT","MAREA":"MAREA","LANE":"LANE","ALLEY":"ALLEY","HOUSE_NO":"HOUSE_NO","E_COORD97":"E_COORD97","N_COORD97":"N_COORD97","ADDRESS":"ADDRESS","OBJECTID":"OBJECTID"},"geometryType":"esriGeometryPoint","spatialReference":{"wkid":102443,"latestWkid":3826},"fields":[{"name":"ID","type":"esriFieldTypeDouble","alias":"ID"},{"name":"DIS_CODE","type":"esriFieldTypeInteger","alias":"DIS_CODE"},{"name":"TOWNNAME","type":"esriFieldTypeString","alias":"TOWNNAME","length":8},{"name":"LI","type":"esriFieldTypeString","alias":"LI","length":8},{"name":"LIN","type":"esriFieldTypeString","alias":"LIN","length":12},{"name":"STREET","type":"esriFieldTypeString","alias":"STREET","length":20},{"name":"SECT","type":"esriFieldTypeString","alias":"SECT","length":8},{"name":"MAREA","type":"esriFieldTypeString","alias":"MAREA","length":12},{"name":"LANE","type":"esriFieldTypeString","alias":"LANE","length":10},{"name":"ALLEY","type":"esriFieldTypeString","alias":"ALLEY","length":10},{"name":"HOUSE_NO","type":"esriFieldTypeString","alias":"HOUSE_NO","length":20},{"name":"E_COORD97","type":"esriFieldTypeDouble","alias":"E_COORD97"},{"name":"N_COORD97","type":"esriFieldTypeDouble","alias":"N_COORD97"},{"name":"ADDRESS","type":"esriFieldTypeString","alias":"ADDRESS","length":50},{"name":"OBJECTID","type":"esriFieldTypeOID","alias":"OBJECTID"}],"features":[{"attributes":{"ID":440226,"DIS_CODE":0,"TOWNNAME":"安南區","LI":"城中里","LIN":"4鄰","STREET":"安中路","SECT":"六段","MAREA":" ","LANE":"５１９巷","ALLEY":" ","HOUSE_NO":"３０號","E_COORD97":160854.41,"N_COORD97":2551329.4700000002,"ADDRESS":"安中路六段５１９巷３０號","OBJECTID":440201},"geometry":{"x":160854.41000000015,"y":2551329.4700000025}},{"attributes":{"ID":440227,"DIS_CODE":0,"TOWNNAME":"安南區","LI":"城中里","LIN":"4鄰","STREET":"安中路","SECT":"六段","MAREA":" ","LANE":"５１９巷","ALLEY":" ","HOUSE_NO":"４２號","E_COORD97":160836.01999999999,"N_COORD97":2551298.6499999999,"ADDRESS":"安中路六段５１９巷４２號","OBJECTID":440202},"geometry":{"x":160836.02000000048,"y":2551298.6500000004}},{"attributes":{"ID":440228,"DIS_CODE":0,"TOWNNAME":"安南區","LI":"城南里","LIN":"6鄰","STREET":"城西街","SECT":"一段","MAREA":" ","LANE":"１８１巷","ALLEY":" ","HOUSE_NO":"３９號","E_COORD97":160529.26000000001,"N_COORD97":2551163.1400000001,"ADDRESS":"城西街一段１８１巷３９號","OBJECTID":440203},"geometry":{"x":160529.26000000071,"y":2551163.1400000006}},{"attributes":{"ID":440229,"DIS_CODE":0,"TOWNNAME":"安南區","LI":"城南里","LIN":"6鄰","STREET":"城西街","SECT":"一段","MAREA":" ","LANE":"６１巷","ALLEY":" ","HOUSE_NO":"１５４號","E_COORD97":160578.48999999999,"N_COORD97":2551169.3799999999,"ADDRESS":"城西街一段６１巷１５４號","OBJECTID":440204},"geometry":{"x":160578.49000000209,"y":2551169.379999999}},{"attributes":{"ID":440230,"DIS_CODE":0,"TOWNNAME":"安南區","LI":"城南里","LIN":"6鄰","STREET":"城西街","SECT":"一段","MAREA":" ","LANE":"６１巷","ALLEY":" ","HOUSE_NO":"１５５號","E_COORD97":160569.48000000001,"N_COORD97":2551100.8999999999,"ADDRESS":"城西街一段６１巷１５５號","OBJECTID":440205},"geometry":{"x":160569.48000000045,"y":2551100.8999999985}},{"attributes":{"ID":440231,"DIS_CODE":0,"TOWNNAME":"安南區","LI":"城南里","LIN":"6鄰","STREET":"城西街","SECT":"一段","MAREA":" ","LANE":"６１巷","ALLEY":" ","HOUSE_NO":"１６４號","E_COORD97":160564.57000000001,"N_COORD97":2551147.25,"ADDRESS":"城西街一段６１巷１６４號","OBJECTID":440206},"geometry":{"x":160564.57000000216,"y":2551147.2500000019}},{"attributes":{"ID":440232,"DIS_CODE":0,"TOWNNAME":"安南區","LI":"城南里","LIN":"6鄰","STREET":"城西街","SECT":"一段","MAREA":" ","LANE":"６１巷","ALLEY":" ","HOUSE_NO":"１６８號","E_COORD97":160551.89000000001,"N_COORD97":2551165.1200000001,"ADDRESS":"城西街一段６１巷１６８號","OBJECTID":440207},"geometry":{"x":160551.8900000006,"y":2551165.1200000029}},{"attributes":{"ID":440233,"DIS_CODE":0,"TOWNNAME":"安南區","LI":"城南里","LIN":"6鄰","STREET":"城西街","SECT":"一段","MAREA":" ","LANE":"６１巷","ALLEY":" ","HOUSE_NO":"１７０號","E_COORD97":160551.14000000001,"N_COORD97":2551149.98,"ADDRESS":"城西街一段６１巷１７０號","OBJECTID":440208},"geometry":{"x":160551.13999999966,"y":2551149.9800000004}},{"attributes":{"ID":440234,"DIS_CODE":0,"TOWNNAME":"安南區","LI":"城南里","LIN":"6鄰","STREET":"城西街","SECT":"一段","MAREA":" ","LANE":"６１巷","ALLEY":" ","HOUSE_NO":"１７２號","E_COORD97":160561.57999999999,"N_COORD97":2551132.23,"ADDRESS":"城西街一段６１巷１７２號","OBJECTID":440209},"geometry":{"x":160561.58000000101,"y":2551132.2300000004}},{"attributes":{"ID":440235,"DIS_CODE":0,"TOWNNAME":"安南區","LI":"城西里","LIN":"4鄰","STREET":"城西街","SECT":"三段","MAREA":" ","LANE":"１０１０巷","ALLEY":" ","HOUSE_NO":"３００號","E_COORD97":156100.12,"N_COORD97":2551276.3799999999,"ADDRESS":"城西街三段１０１０巷３００號","OBJECTID":440210},"geometry":{"x":156100.12000000011,"y":2551276.3800000008}},{"attributes":{"ID":440236,"DIS_CODE":0,"TOWNNAME":"安南區","LI":"城西里","LIN":"4鄰","STREET":"城西街","SECT":"三段","MAREA":" ","LANE":"１０５２巷","ALLEY":" ","HOUSE_NO":"１６號","E_COORD97":155627.88,"N_COORD97":2550864.7999999998,"ADDRESS":"城西街三段１０５２巷１６號","OBJECTID":440211},"geometry":{"x":155627.88000000082,"y":2550864.8000000045}},{"attributes":{"ID":440237,"DIS_CODE":0,"TOWNNAME":"安南區","LI":"城西里","LIN":"4鄰","STREET":"城西街","SECT":"三段","MAREA":" ","LANE":"１０５２巷","ALLEY":" ","HOUSE_NO":"１８號","E_COORD97":155613.14999999999,"N_COORD97":2550865.6000000001,"ADDRESS":"城西街三段１０５２巷１８號","OBJECTID":440212},"geometry":{"x":155613.1500000013,"y":2550865.6000000015}},{"attributes":{"ID":440238,"DIS_CODE":0,"TOWNNAME":"安南區","LI":"城西里","LIN":"4鄰","STREET":"城西街","SECT":"三段","MAREA":" ","LANE":"１０５２巷","ALLEY":" ","HOUSE_NO":"１９號","E_COORD97":155594.79999999999,"N_COORD97":2550845.4300000002,"ADDRESS":"城西街三段１０５２巷１９號","OBJECTID":440213},"geometry":{"x":155594.79999999981,"y":2550845.4299999997}},{"attributes":{"ID":440239,"DIS_CODE":0,"TOWNNAME":"安南區","LI":"城西里","LIN":"4鄰","STREET":"城西街","SECT":"三段","MAREA":" ","LANE":"１０５２巷","ALLEY":" ","HOUSE_NO":"３０號","E_COORD97":155564.41,"N_COORD97":2550876.3100000001,"ADDRESS":"城西街三段１０５２巷３０號","OBJECTID":440214},"geometry":{"x":155564.41000000015,"y":2550876.3100000024}},{"attributes":{"ID":440240,"DIS_CODE":0,"TOWNNAME":"安南區","LI":"城西里","LIN":"4鄰","STREET":"城西街","SECT":"三段","MAREA":" ","LANE":"１０５２巷","ALLEY":" ","HOUSE_NO":"９號","E_COORD97":155635.76999999999,"N_COORD97":2550830.1800000002,"ADDRESS":"城西街三段１０５２巷９號","OBJECTID":440215},"geometry":{"x":155635.76999999955,"y":2550830.1799999997}},{"attributes":{"ID":440241,"DIS_CODE":0,"TOWNNAME":"安南區","LI":"青草里","LIN":"4鄰","STREET":"青砂街","SECT":"二段","MAREA":" ","LANE":"４５６巷","ALLEY":" ","HOUSE_NO":"６４號","E_COORD97":158730.82999999999,"N_COORD97":2553041.73,"ADDRESS":"青砂街二段４５６巷６４號","OBJECTID":440216},"geometry":{"x":158730.83000000007,"y":2553041.7300000042}},{"attributes":{"ID":440242,"DIS_CODE":0,"TOWNNAME":"安南區","LI":"青草里","LIN":"4鄰","STREET":"青砂街","SECT":"二段","MAREA":" ","LANE":"４５６巷","ALLEY":" ","HOUSE_NO":"６７號","E_COORD97":158726.42999999999,"N_COORD97":2553016.4700000002,"ADDRESS":"青砂街二段４５６巷６７號","OBJECTID":440217},"geometry":{"x":158726.4299999997,"y":2553016.4700000044}},{"attributes":{"ID":440243,"DIS_CODE":0,"TOWNNAME":"安南區","LI":"青草里","LIN":"4鄰","STREET":"青砂街","SECT":"二段","MAREA":" ","LANE":"４５６巷","ALLEY":" ","HOUSE_NO":"７６號","E_COORD97":158706.09,"N_COORD97":2553038.9900000002,"ADDRESS":"青砂街二段４５６巷７６號","OBJECTID":440218},"geometry":{"x":158706.09000000078,"y":2553038.9900000002}},{"attributes":{"ID":440244,"DIS_CODE":0,"TOWNNAME":"安南區","LI":"青草里","LIN":"4鄰","STREET":"青砂街","SECT":"二段","MAREA":" ","LANE":"４５６巷","ALLEY":" ","HOUSE_NO":"７７號","E_COORD97":158730.82999999999,"N_COORD97":2552973.0899999999,"ADDRESS":"青砂街二段４５６巷７７號","OBJECTID":440219},"geometry":{"x":158730.83000000007,"y":2552973.0899999999}},{"attributes":{"ID":440245,"DIS_CODE":0,"TOWNNAME":"安南區","LI":"青草里","LIN":"4鄰","STREET":"青砂街","SECT":"二段","MAREA":" ","LANE":"４５６巷","ALLEY":" ","HOUSE_NO":"７９號","E_COORD97":158725.88,"N_COORD97":2552974.7400000002,"ADDRESS":"青砂街二段４５６巷７９號","OBJECTID":440220},"geometry":{"x":158725.87999999989,"y":2552974.7400000021}},{"attributes":{"ID":440246,"DIS_CODE":0,"TOWNNAME":"安南區","LI":"青草里","LIN":"4鄰","STREET":"青砂街","SECT":"二段","MAREA":" ","LANE":"４５６巷","ALLEY":" ","HOUSE_NO":"８０號","E_COORD97":158691.23999999999,"N_COORD97":2553039.54,"ADDRESS":"青砂街二段４５６巷８０號","OBJECTID":440221},"geometry":{"x":158691.24000000022,"y":2553039.540000001}},{"attributes":{"ID":440247,"DIS_CODE":0,"TOWNNAME":"安南區","LI":"青草里","LIN":"4鄰","STREET":"青砂街","SECT":"二段","MAREA":" ","LANE":"４５６巷","ALLEY":" ","HOUSE_NO":"８６號","E_COORD97":158707.73999999999,"N_COORD97":2553006.04,"ADDRESS":"青砂街二段４５６巷８６號","OBJECTID":440222},"geometry":{"x":158707.74000000115,"y":2553006.0399999991}},{"attributes":{"ID":440248,"DIS_CODE":0,"TOWNNAME":"安南區","LI":"青草里","LIN":"4鄰","STREET":"青砂街","SECT":"二段","MAREA":" ","LANE":"４５６巷","ALLEY":" ","HOUSE_NO":"８８號","E_COORD97":158699.48999999999,"N_COORD97":2553008.23,"ADDRESS":"青砂街二段４５６巷８８號","OBJECTID":440223},"geometry":{"x":158699.49000000022,"y":2553008.2300000023}},{"attributes":{"ID":440249,"DIS_CODE":0,"TOWNNAME":"安南區","LI":"淵中里","LIN":"7鄰","STREET":"安中路","SECT":"四段","MAREA":" ","LANE":"１５４巷","ALLEY":" ","HOUSE_NO":"３５號","E_COORD97":165009.17999999999,"N_COORD97":2550120.6600000001,"ADDRESS":"安中路四段１５４巷３５號","OBJECTID":440224},"geometry":{"x":165009.1799999997,"y":2550120.660000002}},{"attributes":{"ID":440250,"DIS_CODE":0,"TOWNNAME":"安南區","LI":"淵中里","LIN":"7鄰","STREET":"安中路","SECT":"四段","MAREA":" ","LANE":"１５４巷","ALLEY":" ","HOUSE_NO":"４３號","E_COORD97":165021.07999999999,"N_COORD97":2550136.8399999999,"ADDRESS":"安中路四段１５４巷４３號","OBJECTID":440225},"geometry":{"x":165021.08000000101,"y":2550136.8399999999}},{"attributes":{"ID":440251,"DIS_CODE":0,"TOWNNAME":"安南區","LI":"淵中里","LIN":"7鄰","STREET":"安中路","SECT":"四段","MAREA":" ","LANE":"１５４巷","ALLEY":" ","HOUSE_NO":"４５號","E_COORD97":165024.95999999999,"N_COORD97":2550138.1000000001,"ADDRESS":"安中路四段１５４巷４５號","OBJECTID":440226},"geometry":{"x":165024.96000000183,"y":2550138.0999999996}},{"attributes":{"ID":440252,"DIS_CODE":0,"TOWNNAME":"安南區","LI":"淵中里","LIN":"14鄰","STREET":"安中路","SECT":"四段","MAREA":" ","LANE":"１５４巷","ALLEY":" ","HOUSE_NO":"４６號","E_COORD97":165037.09,"N_COORD97":2550124,"ADDRESS":"安中路四段１５４巷４６號","OBJECTID":440227},"geometry":{"x":165037.08999999985,"y":2550124.0000000019}},{"attributes":{"ID":440253,"DIS_CODE":0,"TOWNNAME":"安南區","LI":"淵中里","LIN":"17鄰","STREET":"安中路","SECT":"三段","MAREA":" ","LANE":"２３３巷","ALLEY":" ","HOUSE_NO":"１０號","E_COORD97":165779.42000000001,"N_COORD97":2549829.7999999998,"ADDRESS":"安中路三段２３３巷１０號","OBJECTID":440228},"geometry":{"x":165779.42000000179,"y":2549829.8000000007}},{"attributes":{"ID":440254,"DIS_CODE":0,"TOWNNAME":"安南區","LI":"淵中里","LIN":"17鄰","STREET":"安中路","SECT":"三段","MAREA":" ","LANE":"２３３巷","ALLEY":" ","HOUSE_NO":"１１號","E_COORD97":165799.76999999999,"N_COORD97":2549822.0600000001,"ADDRESS":"安中路三段２３３巷１１號","OBJECTID":440229},"geometry":{"x":165799.76999999955,"y":2549822.0600000042}},{"attributes":{"ID":440255,"DIS_CODE":0,"TOWNNAME":"安南區","LI":"淵東里","LIN":"5鄰","STREET":"本原街","SECT":"三段","MAREA":" ","LANE":"１３６巷","ALLEY":" ","HOUSE_NO":"２號","E_COORD97":165558.51000000001,"N_COORD97":2550397.7799999998,"ADDRESS":"本原街三段１３６巷２號","OBJECTID":440230},"geometry":{"x":165558.51000000071,"y":2550397.7799999993}},{"attributes":{"ID":440256,"DIS_CODE":0,"TOWNNAME":"安南區","LI":"學東里","LIN":"14鄰","STREET":"公學路","SECT":"七段","MAREA":" ","LANE":"９７巷","ALLEY":" ","HOUSE_NO":"６號","E_COORD97":161742.14999999999,"N_COORD97":2553378.2999999998,"ADDRESS":"公學路七段９７巷６號","OBJECTID":440231},"geometry":{"x":161742.15000000224,"y":2553378.3000000026}},{"attributes":{"ID":440257,"DIS_CODE":0,"TOWNNAME":"安南區","LI":"城東里","LIN":"5鄰","STREET":"城北路","SECT":" ","MAREA":" ","LANE":"１７２巷","ALLEY":" ","HOUSE_NO":"２９號","E_COORD97":161060.51000000001,"N_COORD97":2551748.8999999999,"ADDRESS":"城北路１７２巷２９號","OBJECTID":440232},"geometry":{"x":161060.50999999978,"y":2551748.9000000022}},{"attributes":{"ID":440258,"DIS_CODE":0,"TOWNNAME":"安南區","LI":"安慶里","LIN":"13鄰","STREET":"安和路","SECT":"二段","MAREA":" ","LANE":"１１１巷","ALLEY":" ","HOUSE_NO":"２號","E_COORD97":169478.32999999999,"N_COORD97":2548793.9300000002,"ADDRESS":"安和路二段１１１巷２號","OBJECTID":440233},"geometry":{"x":169478.33000000007,"y":2548793.9299999997}},{"attributes":{"ID":440259,"DIS_CODE":0,"TOWNNAME":"安南區","LI":"淵中里","LIN":"5鄰","STREET":"安中路","SECT":"四段","MAREA":" ","LANE":"９４巷","ALLEY":" ","HOUSE_NO":"２７號","E_COORD97":165156.23000000001,"N_COORD97":2550079.1699999999,"ADDRESS":"安中路四段９４巷２７號","OBJECTID":440234},"geometry":{"x":165156.23000000138,"y":2550079.1700000018}},{"attributes":{"ID":440260,"DIS_CODE":0,"TOWNNAME":"安南區","LI":"顯宮里","LIN":"9鄰","STREET":"媽祖宮路","SECT":" ","MAREA":" ","LANE":" ","ALLEY":" ","HOUSE_NO":"２０１號","E_COORD97":160442.89000000001,"N_COORD97":2548695.0299999998,"ADDRESS":"媽祖宮路２０１號","OBJECTID":440235},"geometry":{"x":160442.89000000153,"y":2548695.0299999975}},{"attributes":{"ID":440261,"DIS_CODE":0,"TOWNNAME":"安南區","LI":"顯宮里","LIN":"10鄰","STREET":"媽祖宮路","SECT":" ","MAREA":" ","LANE":" ","ALLEY":" ","HOUSE_NO":"２０３號","E_COORD97":160438.26999999999,"N_COORD97":2548693.77,"ADDRESS":"媽祖宮路２０３號","OBJECTID":440236},"geometry":{"x":160438.26999999955,"y":2548693.7700000033}},{"attributes":{"ID":440262,"DIS_CODE":0,"TOWNNAME":"安南區","LI":"州北里","LIN":"12鄰","STREET":"安和路","SECT":"五段","MAREA":" ","LANE":"１７１巷","ALLEY":" ","HOUSE_NO":"７０號","E_COORD97":169698.41,"N_COORD97":2551796.8399999999,"ADDRESS":"安和路五段１７１巷７０號","OBJECTID":440237},"geometry":{"x":169698.41000000015,"y":2551796.8400000017}},{"attributes":{"ID":440263,"DIS_CODE":0,"TOWNNAME":"安南區","LI":"安西里","LIN":"8鄰","STREET":"安和路","SECT":"一段","MAREA":" ","LANE":"３２１巷","ALLEY":" ","HOUSE_NO":"４０號","E_COORD97":169161.29000000001,"N_COORD97":2548152.1699999999,"ADDRESS":"安和路一段３２１巷４０號","OBJECTID":440238},"geometry":{"x":169161.29000000097,"y":2548152.1699999999}},{"attributes":{"ID":440264,"DIS_CODE":0,"TOWNNAME":"善化區","LI":"文昌里","LIN":"20鄰","STREET":"中正路","SECT":" ","MAREA":" ","LANE":"２１２巷","ALLEY":" ","HOUSE_NO":"１３號","E_COORD97":177794.38,"N_COORD97":2558309.25,"ADDRESS":"中正路２１２巷１３號","OBJECTID":440239},"geometry":{"x":177794.37999999989,"y":2558309.25}},{"attributes":{"ID":440265,"DIS_CODE":0,"TOWNNAME":"善化區","LI":"文昌里","LIN":"20鄰","STREET":"中正路","SECT":" ","MAREA":" ","LANE":"２１２巷","ALLEY":" ","HOUSE_NO":"３０號","E_COORD97":177766.79000000001,"N_COORD97":2558266.75,"ADDRESS":"中正路２１２巷３０號","OBJECTID":440240},"geometry":{"x":177766.79000000004,"y":2558266.7500000019}},{"attributes":{"ID":440266,"DIS_CODE":0,"TOWNNAME":"善化區","LI":"文昌里","LIN":"18鄰","STREET":"中正路","SECT":" ","MAREA":" ","LANE":"２６６巷","ALLEY":" ","HOUSE_NO":"１８號","E_COORD97":177763.78,"N_COORD97":2558406.5,"ADDRESS":"中正路２６６巷１８號","OBJECTID":440241},"geometry":{"x":177763.78000000026,"y":2558406.5000000037}},{"attributes":{"ID":440267,"DIS_CODE":0,"TOWNNAME":"善化區","LI":"文昌里","LIN":"20鄰","STREET":"中正路","SECT":" ","MAREA":" ","LANE":"２１２巷","ALLEY":" ","HOUSE_NO":"３４號","E_COORD97":177783.17999999999,"N_COORD97":2558270,"ADDRESS":"中正路２１２巷３４號","OBJECTID":440242},"geometry":{"x":177783.18000000063,"y":2558270}},{"attributes":{"ID":440268,"DIS_CODE":0,"TOWNNAME":"善化區","LI":"文正里","LIN":"13鄰","STREET":"陽明路","SECT":" ","MAREA":" ","LANE":"１４２巷","ALLEY":" ","HOUSE_NO":"３９之８９號","E_COORD97":176523.54999999999,"N_COORD97":2559543.77,"ADDRESS":"陽明路１４２巷３９之８９號","OBJECTID":440243},"geometry":{"x":176523.54999999981,"y":2559543.7700000014}},{"attributes":{"ID":440269,"DIS_CODE":0,"TOWNNAME":"善化區","LI":"文昌里","LIN":"18鄰","STREET":"中正路","SECT":" ","MAREA":" ","LANE":"２６６巷","ALLEY":" ","HOUSE_NO":"２０號","E_COORD97":177767.67000000001,"N_COORD97":2558407.25,"ADDRESS":"中正路２６６巷２０號","OBJECTID":440244},"geometry":{"x":177767.66999999993,"y":2558407.25}},{"attributes":{"ID":440270,"DIS_CODE":0,"TOWNNAME":"善化區","LI":"文昌里","LIN":"20鄰","STREET":"中正路","SECT":" ","MAREA":" ","LANE":"２１２巷","ALLEY":" ","HOUSE_NO":"３５號","E_COORD97":177787.29000000001,"N_COORD97":2558270.75,"ADDRESS":"中正路２１２巷３５號","OBJECTID":440245},"geometry":{"x":177787.29000000004,"y":2558270.75}},{"attributes":{"ID":440271,"DIS_CODE":0,"TOWNNAME":"善化區","LI":"文昌里","LIN":"20鄰","STREET":"中正路","SECT":" ","MAREA":" ","LANE":"２１２巷","ALLEY":" ","HOUSE_NO":"２４號","E_COORD97":177756.87,"N_COORD97":2558287,"ADDRESS":"中正路２１２巷２４號","OBJECTID":440246},"geometry":{"x":177756.87000000104,"y":2558287}},{"attributes":{"ID":440272,"DIS_CODE":0,"TOWNNAME":"善化區","LI":"坐駕里","LIN":"13鄰","STREET":"大成路","SECT":" ","MAREA":" ","LANE":"３６７巷","ALLEY":" ","HOUSE_NO":"１３號","E_COORD97":178063.23999999999,"N_COORD97":2558709.25,"ADDRESS":"大成路３６７巷１３號","OBJECTID":440247},"geometry":{"x":178063.24000000115,"y":2558709.25}},{"attributes":{"ID":440273,"DIS_CODE":0,"TOWNNAME":"善化區","LI":"文昌里","LIN":"20鄰","STREET":"中正路","SECT":" ","MAREA":" ","LANE":"２１２巷","ALLEY":" ","HOUSE_NO":"２９號","E_COORD97":177762.69,"N_COORD97":2558266,"ADDRESS":"中正路２１２巷２９號","OBJECTID":440248},"geometry":{"x":177762.69000000041,"y":2558266}},{"attributes":{"ID":440274,"DIS_CODE":0,"TOWNNAME":"善化區","LI":"文昌里","LIN":"20鄰","STREET":"中正路","SECT":" ","MAREA":" ","LANE":"２１２巷","ALLEY":" ","HOUSE_NO":"１９號","E_COORD97":177777.42000000001,"N_COORD97":2558291,"ADDRESS":"中正路２１２巷１９號","OBJECTID":440249},"geometry":{"x":177777.41999999993,"y":2558291.0000000037}},{"attributes":{"ID":440275,"DIS_CODE":0,"TOWNNAME":"善化區","LI":"坐駕里","LIN":"8鄰","STREET":"大成路","SECT":" ","MAREA":" ","LANE":"３６７巷","ALLEY":" ","HOUSE_NO":"２號","E_COORD97":177936.17000000001,"N_COORD97":2558766.5,"ADDRESS":"大成路３６７巷２號","OBJECTID":440250},"geometry":{"x":177936.17000000086,"y":2558766.5000000019}},{"attributes":{"ID":440276,"DIS_CODE":0,"TOWNNAME":"善化區","LI":"文昌里","LIN":"18鄰","STREET":"興華路","SECT":" ","MAREA":" ","LANE":"３１７巷","ALLEY":" ","HOUSE_NO":"１０號","E_COORD97":177747.17999999999,"N_COORD97":2558454.25,"ADDRESS":"興華路３１７巷１０號","OBJECTID":440251},"geometry":{"x":177747.18000000156,"y":2558454.25}},{"attributes":{"ID":440277,"DIS_CODE":0,"TOWNNAME":"善化區","LI":"光文里","LIN":"18鄰","STREET":"和平路","SECT":" ","MAREA":" ","LANE":"１４６巷","ALLEY":" ","HOUSE_NO":"１４號","E_COORD97":178218.35000000001,"N_COORD97":2558973,"ADDRESS":"和平路１４６巷１４號","OBJECTID":440252},"geometry":{"x":178218.34999999963,"y":2558973.0000000019}},{"attributes":{"ID":440278,"DIS_CODE":0,"TOWNNAME":"善化區","LI":"文昌里","LIN":"20鄰","STREET":"中正路","SECT":" ","MAREA":" ","LANE":"２１２巷","ALLEY":" ","HOUSE_NO":"４７號","E_COORD97":177775.73999999999,"N_COORD97":2558255.25,"ADDRESS":"中正路２１２巷４７號","OBJECTID":440253},"geometry":{"x":177775.74000000022,"y":2558255.2500000037}},{"attributes":{"ID":440279,"DIS_CODE":0,"TOWNNAME":"善化區","LI":"光文里","LIN":"18鄰","STREET":"和平路","SECT":" ","MAREA":" ","LANE":"１２６巷","ALLEY":" ","HOUSE_NO":"８號","E_COORD97":178171.17000000001,"N_COORD97":2558942.5,"ADDRESS":"和平路１２６巷８號","OBJECTID":440254},"geometry":{"x":178171.16999999993,"y":2558942.5000000019}},{"attributes":{"ID":440280,"DIS_CODE":0,"TOWNNAME":"善化區","LI":"文昌里","LIN":"20鄰","STREET":"中正路","SECT":" ","MAREA":" ","LANE":"２１２巷","ALLEY":" ","HOUSE_NO":"３１號","E_COORD97":177770.89000000001,"N_COORD97":2558267.5,"ADDRESS":"中正路２１２巷３１號","OBJECTID":440255},"geometry":{"x":177770.88999999966,"y":2558267.5000000037}},{"attributes":{"ID":440281,"DIS_CODE":0,"TOWNNAME":"善化區","LI":"坐駕里","LIN":"13鄰","STREET":"大成路","SECT":" ","MAREA":" ","LANE":"３６７巷","ALLEY":" ","HOUSE_NO":"１７號","E_COORD97":178093.44,"N_COORD97":2558704,"ADDRESS":"大成路３６７巷１７號","OBJECTID":440256},"geometry":{"x":178093.44000000041,"y":2558704}},{"attributes":{"ID":440282,"DIS_CODE":0,"TOWNNAME":"善化區","LI":"坐駕里","LIN":"13鄰","STREET":"大成路","SECT":" ","MAREA":" ","LANE":"３６７巷","ALLEY":" ","HOUSE_NO":"１６號","E_COORD97":178089.88,"N_COORD97":2558705.5,"ADDRESS":"大成路３６７巷１６號","OBJECTID":440257},"geometry":{"x":178089.87999999989,"y":2558705.5000000019}},{"attributes":{"ID":440283,"DIS_CODE":0,"TOWNNAME":"善化區","LI":"文昌里","LIN":"20鄰","STREET":"中正路","SECT":" ","MAREA":" ","LANE":"２１２巷","ALLEY":" ","HOUSE_NO":"２２號","E_COORD97":177765.09,"N_COORD97":2558288.75,"ADDRESS":"中正路２１２巷２２號","OBJECTID":440258},"geometry":{"x":177765.09000000078,"y":2558288.75}},{"attributes":{"ID":440284,"DIS_CODE":0,"TOWNNAME":"善化區","LI":"文正里","LIN":"4鄰","STREET":"文正路","SECT":" ","MAREA":" ","LANE":"７９巷","ALLEY":" ","HOUSE_NO":"２之１號","E_COORD97":177148.59,"N_COORD97":2559343.5299999998,"ADDRESS":"文正路７９巷２之１號","OBJECTID":440259},"geometry":{"x":177148.59000000078,"y":2559343.5299999993}},{"attributes":{"ID":440285,"DIS_CODE":0,"TOWNNAME":"善化區","LI":"文昌里","LIN":"18鄰","STREET":"中正路","SECT":" ","MAREA":" ","LANE":"２６６巷","ALLEY":" ","HOUSE_NO":"７號","E_COORD97":177744.98000000001,"N_COORD97":2558418.75,"ADDRESS":"中正路２６６巷７號","OBJECTID":440260},"geometry":{"x":177744.98000000138,"y":2558418.7500000019}},{"attributes":{"ID":440286,"DIS_CODE":0,"TOWNNAME":"善化區","LI":"文昌里","LIN":"18鄰","STREET":"中正路","SECT":" ","MAREA":" ","LANE":"２６６巷","ALLEY":" ","HOUSE_NO":"９號","E_COORD97":177749.04999999999,"N_COORD97":2558419.5,"ADDRESS":"中正路２６６巷９號","OBJECTID":440261},"geometry":{"x":177749.05000000075,"y":2558419.5}},{"attributes":{"ID":440287,"DIS_CODE":0,"TOWNNAME":"善化區","LI":"文昌里","LIN":"20鄰","STREET":"中正路","SECT":" ","MAREA":" ","LANE":"２１２巷","ALLEY":" ","HOUSE_NO":"２３號","E_COORD97":177760.98000000001,"N_COORD97":2558288,"ADDRESS":"中正路２１２巷２３號","OBJECTID":440262},"geometry":{"x":177760.98000000045,"y":2558288.0000000019}},{"attributes":{"ID":440288,"DIS_CODE":0,"TOWNNAME":"善化區","LI":"文昌里","LIN":"20鄰","STREET":"中正路","SECT":" ","MAREA":" ","LANE":"２１２巷","ALLEY":" ","HOUSE_NO":"１２號","E_COORD97":177790.25,"N_COORD97":2558308.5,"ADDRESS":"中正路２１２巷１２號","OBJECTID":440263},"geometry":{"x":177790.25000000093,"y":2558308.5000000019}},{"attributes":{"ID":440289,"DIS_CODE":0,"TOWNNAME":"善化區","LI":"文正里","LIN":"13鄰","STREET":"陽明路","SECT":" ","MAREA":" ","LANE":"２３８巷","ALLEY":" ","HOUSE_NO":"２５號","E_COORD97":176352.47,"N_COORD97":2559719.5099999998,"ADDRESS":"陽明路２３８巷２５號","OBJECTID":440264},"geometry":{"x":176352.47000000067,"y":2559719.5100000016}},{"attributes":{"ID":440290,"DIS_CODE":0,"TOWNNAME":"善化區","LI":"光文里","LIN":"18鄰","STREET":"和平路","SECT":" ","MAREA":" ","LANE":"１２６巷","ALLEY":" ","HOUSE_NO":"３號","E_COORD97":178152.48999999999,"N_COORD97":2558942.75,"ADDRESS":"和平路１２６巷３號","OBJECTID":440265},"geometry":{"x":178152.49000000209,"y":2558942.75}},{"attributes":{"ID":440291,"DIS_CODE":0,"TOWNNAME":"善化區","LI":"文昌里","LIN":"20鄰","STREET":"中正路","SECT":" ","MAREA":" ","LANE":"２１２巷","ALLEY":" ","HOUSE_NO":"１５號","E_COORD97":177793.89000000001,"N_COORD97":2558294,"ADDRESS":"中正路２１２巷１５號","OBJECTID":440266},"geometry":{"x":177793.8900000006,"y":2558294}},{"attributes":{"ID":440292,"DIS_CODE":0,"TOWNNAME":"善化區","LI":"坐駕里","LIN":"13鄰","STREET":"大成路","SECT":" ","MAREA":" ","LANE":"３６７巷","ALLEY":" ","HOUSE_NO":"１５號","E_COORD97":178086.29000000001,"N_COORD97":2558706.75,"ADDRESS":"大成路３６７巷１５號","OBJECTID":440267},"geometry":{"x":178086.29000000097,"y":2558706.7500000019}},{"attributes":{"ID":440293,"DIS_CODE":0,"TOWNNAME":"六甲區","LI":"六甲里","LIN":"14鄰","STREET":"建國街","SECT":" ","MAREA":" ","LANE":"１８巷","ALLEY":" ","HOUSE_NO":"８號","E_COORD97":183763.01000000001,"N_COORD97":2569913.6000000001,"ADDRESS":"建國街１８巷８號","OBJECTID":440268},"geometry":{"x":183763.01000000164,"y":2569913.6000000015}},{"attributes":{"ID":440294,"DIS_CODE":0,"TOWNNAME":"善化區","LI":"北關里","LIN":" ","STREET":"復興街","SECT":" ","MAREA":" ","LANE":"４８巷","ALLEY":" ","HOUSE_NO":"３之１號","E_COORD97":176937.82999999999,"N_COORD97":2559093.5099999998,"ADDRESS":"復興街４８巷３之１號","OBJECTID":440269},"geometry":{"x":176937.83000000007,"y":2559093.5099999998}},{"attributes":{"ID":440295,"DIS_CODE":0,"TOWNNAME":"善化區","LI":"光文里","LIN":"18鄰","STREET":"和平路","SECT":" ","MAREA":" ","LANE":"１２６巷","ALLEY":" ","HOUSE_NO":"１４號","E_COORD97":178196.10999999999,"N_COORD97":2558950.5,"ADDRESS":"和平路１２６巷１４號","OBJECTID":440270},"geometry":{"x":178196.11000000127,"y":2558950.5}},{"attributes":{"ID":440296,"DIS_CODE":0,"TOWNNAME":"善化區","LI":"光文里","LIN":"18鄰","STREET":"和平路","SECT":" ","MAREA":" ","LANE":"１２６巷","ALLEY":" ","HOUSE_NO":"６號","E_COORD97":178163.84,"N_COORD97":2558942.75,"ADDRESS":"和平路１２６巷６號","OBJECTID":440271},"geometry":{"x":178163.84000000078,"y":2558942.75}},{"attributes":{"ID":440297,"DIS_CODE":0,"TOWNNAME":"善化區","LI":"文昌里","LIN":"20鄰","STREET":"中正路","SECT":" ","MAREA":" ","LANE":"２１２巷","ALLEY":" ","HOUSE_NO":"１號","E_COORD97":177744.03,"N_COORD97":2558299.75,"ADDRESS":"中正路２１２巷１號","OBJECTID":440272},"geometry":{"x":177744.03000000119,"y":2558299.7500000019}},{"attributes":{"ID":440298,"DIS_CODE":0,"TOWNNAME":"善化區","LI":"文昌里","LIN":"20鄰","STREET":"中正路","SECT":" ","MAREA":" ","LANE":"２１２巷","ALLEY":" ","HOUSE_NO":"４２號","E_COORD97":177796.42000000001,"N_COORD97":2558259,"ADDRESS":"中正路２１２巷４２號","OBJECTID":440273},"geometry":{"x":177796.41999999993,"y":2558259}},{"attributes":{"ID":440299,"DIS_CODE":0,"TOWNNAME":"善化區","LI":"北關里","LIN":" ","STREET":"博愛路","SECT":" ","MAREA":" ","LANE":"３５巷","ALLEY":" ","HOUSE_NO":"４號","E_COORD97":177185.23999999999,"N_COORD97":2559179.2599999998,"ADDRESS":"博愛路３５巷４號","OBJECTID":440274},"geometry":{"x":177185.24000000115,"y":2559179.2599999998}},{"attributes":{"ID":440300,"DIS_CODE":0,"TOWNNAME":"善化區","LI":"文正里","LIN":"13鄰","STREET":"陽明路","SECT":" ","MAREA":" ","LANE":"１４２巷","ALLEY":" ","HOUSE_NO":"３９之５７號","E_COORD97":176528.53,"N_COORD97":2559614.52,"ADDRESS":"陽明路１４２巷３９之５７號","OBJECTID":440275},"geometry":{"x":176528.53000000119,"y":2559614.5199999996}},{"attributes":{"ID":440301,"DIS_CODE":0,"TOWNNAME":"善化區","LI":"文正里","LIN":"13鄰","STREET":"陽明路","SECT":" ","MAREA":" ","LANE":"１４２巷","ALLEY":" ","HOUSE_NO":"３９之３３號","E_COORD97":176487.28,"N_COORD97":2559608.27,"ADDRESS":"陽明路１４２巷３９之３３號","OBJECTID":440276},"geometry":{"x":176487.28000000026,"y":2559608.2700000014}},{"attributes":{"ID":440302,"DIS_CODE":0,"TOWNNAME":"善化區","LI":"文正里","LIN":"13鄰","STREET":"陽明路","SECT":" ","MAREA":" ","LANE":"１４２巷","ALLEY":" ","HOUSE_NO":"３９之７０號","E_COORD97":176542.04999999999,"N_COORD97":2559567.0099999998,"ADDRESS":"陽明路１４２巷３９之７０號","OBJECTID":440277},"geometry":{"x":176542.05000000075,"y":2559567.0100000016}},{"attributes":{"ID":440303,"DIS_CODE":0,"TOWNNAME":"善化區","LI":"光文里","LIN":" ","STREET":"中正路","SECT":" ","MAREA":" ","LANE":"６７６巷","ALLEY":" ","HOUSE_NO":"３６號","E_COORD97":177843.72,"N_COORD97":2559552.25,"ADDRESS":"中正路６７６巷３６號","OBJECTID":440278},"geometry":{"x":177843.7200000016,"y":2559552.25}},{"attributes":{"ID":440304,"DIS_CODE":0,"TOWNNAME":"善化區","LI":"光文里","LIN":" ","STREET":"和平路","SECT":" ","MAREA":" ","LANE":"１４６巷","ALLEY":" ","HOUSE_NO":"１０號","E_COORD97":178201.60999999999,"N_COORD97":2558971,"ADDRESS":"和平路１４６巷１０號","OBJECTID":440279},"geometry":{"x":178201.61000000127,"y":2558971}},{"attributes":{"ID":440305,"DIS_CODE":0,"TOWNNAME":"善化區","LI":"光文里","LIN":"20鄰","STREET":"大成路","SECT":" ","MAREA":" ","LANE":"３１６巷","ALLEY":" ","HOUSE_NO":"１６號","E_COORD97":178108.45999999999,"N_COORD97":2558862.5,"ADDRESS":"大成路３１６巷１６號","OBJECTID":440280},"geometry":{"x":178108.46000000183,"y":2558862.5}},{"attributes":{"ID":440306,"DIS_CODE":0,"TOWNNAME":"善化區","LI":"光文里","LIN":"18鄰","STREET":"和平路","SECT":" ","MAREA":" ","LANE":"１４６巷","ALLEY":" ","HOUSE_NO":"１１號","E_COORD97":178207.26000000001,"N_COORD97":2558971.5,"ADDRESS":"和平路１４６巷１１號","OBJECTID":440281},"geometry":{"x":178207.25999999978,"y":2558971.5}},{"attributes":{"ID":440307,"DIS_CODE":0,"TOWNNAME":"善化區","LI":"文正里","LIN":"13鄰","STREET":"陽明路","SECT":" ","MAREA":" ","LANE":"１４２巷","ALLEY":" ","HOUSE_NO":"３９之１６號","E_COORD97":176494.39999999999,"N_COORD97":2559583.77,"ADDRESS":"陽明路１４２巷３９之１６號","OBJECTID":440282},"geometry":{"x":176494.4000000013,"y":2559583.7700000033}},{"attributes":{"ID":440308,"DIS_CODE":0,"TOWNNAME":"善化區","LI":"文正里","LIN":"13鄰","STREET":"陽明路","SECT":" ","MAREA":" ","LANE":"１４２巷","ALLEY":" ","HOUSE_NO":"３９之３１號","E_COORD97":176498.37,"N_COORD97":2559609.77,"ADDRESS":"陽明路１４２巷３９之３１號","OBJECTID":440283},"geometry":{"x":176498.37000000011,"y":2559609.7699999996}},{"attributes":{"ID":440309,"DIS_CODE":0,"TOWNNAME":"善化區","LI":"光文里","LIN":"18鄰","STREET":"和平路","SECT":" ","MAREA":" ","LANE":"１３６巷","ALLEY":" ","HOUSE_NO":"４號","E_COORD97":178154.34,"N_COORD97":2558953.75,"ADDRESS":"和平路１３６巷４號","OBJECTID":440284},"geometry":{"x":178154.33999999985,"y":2558953.7500000037}},{"attributes":{"ID":440310,"DIS_CODE":0,"TOWNNAME":"善化區","LI":"光文里","LIN":"20鄰","STREET":"民權路","SECT":" ","MAREA":" ","LANE":"２４５巷","ALLEY":" ","HOUSE_NO":"１號","E_COORD97":178072.79999999999,"N_COORD97":2558945.2599999998,"ADDRESS":"民權路２４５巷１號","OBJECTID":440285},"geometry":{"x":178072.80000000075,"y":2558945.2599999998}},{"attributes":{"ID":440311,"DIS_CODE":0,"TOWNNAME":"善化區","LI":"南關里","LIN":"13鄰","STREET":"自由路","SECT":" ","MAREA":" ","LANE":"１８９巷","ALLEY":" ","HOUSE_NO":"６號","E_COORD97":176859.14999999999,"N_COORD97":2558913.5,"ADDRESS":"自由路１８９巷６號","OBJECTID":440286},"geometry":{"x":176859.15000000037,"y":2558913.5}},{"attributes":{"ID":440312,"DIS_CODE":0,"TOWNNAME":"善化區","LI":"坐駕里","LIN":"14鄰","STREET":"大成路","SECT":" ","MAREA":" ","LANE":"３６７巷","ALLEY":" ","HOUSE_NO":"４３號之１","E_COORD97":178265.51999999999,"N_COORD97":2558632.27,"ADDRESS":"大成路３６７巷４３號之１","OBJECTID":440287},"geometry":{"x":178265.52000000048,"y":2558632.2700000014}},{"attributes":{"ID":440313,"DIS_CODE":0,"TOWNNAME":"善化區","LI":"坐駕里","LIN":"14鄰","STREET":"大成路","SECT":" ","MAREA":" ","LANE":"３６７巷","ALLEY":" ","HOUSE_NO":"３８號","E_COORD97":178236.45999999999,"N_COORD97":2558643.25,"ADDRESS":"大成路３６７巷３８號","OBJECTID":440288},"geometry":{"x":178236.45999999996,"y":2558643.2500000019}},{"attributes":{"ID":440314,"DIS_CODE":0,"TOWNNAME":"善化區","LI":"坐駕里","LIN":"13鄰","STREET":"大成路","SECT":" ","MAREA":" ","LANE":"３６７巷","ALLEY":" ","HOUSE_NO":"２４號","E_COORD97":178103.89999999999,"N_COORD97":2558662.75,"ADDRESS":"大成路３６７巷２４號","OBJECTID":440289},"geometry":{"x":178103.90000000037,"y":2558662.7500000019}},{"attributes":{"ID":440315,"DIS_CODE":0,"TOWNNAME":"善化區","LI":"光文里","LIN":"14鄰","STREET":"民生路","SECT":" ","MAREA":" ","LANE":"１６９巷","ALLEY":" ","HOUSE_NO":"１５號","E_COORD97":178475.01999999999,"N_COORD97":2558909.2599999998,"ADDRESS":"民生路１６９巷１５號","OBJECTID":440290},"geometry":{"x":178475.01999999955,"y":2558909.2599999979}},{"attributes":{"ID":440316,"DIS_CODE":0,"TOWNNAME":"善化區","LI":"光文里","LIN":"14鄰","STREET":"民生路","SECT":" ","MAREA":" ","LANE":"１６９巷","ALLEY":" ","HOUSE_NO":"５號","E_COORD97":178473.51999999999,"N_COORD97":2558929.7599999998,"ADDRESS":"民生路１６９巷５號","OBJECTID":440291},"geometry":{"x":178473.51999999955,"y":2558929.7600000035}},{"attributes":{"ID":440317,"DIS_CODE":0,"TOWNNAME":"善化區","LI":"南關里","LIN":"13鄰","STREET":"復興街","SECT":" ","MAREA":" ","LANE":"１２１巷","ALLEY":" ","HOUSE_NO":"１４號","E_COORD97":176817.84,"N_COORD97":2558969.5099999998,"ADDRESS":"復興街１２１巷１４號","OBJECTID":440292},"geometry":{"x":176817.84000000078,"y":2558969.5100000016}},{"attributes":{"ID":440318,"DIS_CODE":0,"TOWNNAME":"善化區","LI":"南關里","LIN":"13鄰","STREET":"自由路","SECT":" ","MAREA":" ","LANE":"１８９巷","ALLEY":" ","HOUSE_NO":"２３號","E_COORD97":176882.20000000001,"N_COORD97":2558831,"ADDRESS":"自由路１８９巷２３號","OBJECTID":440293},"geometry":{"x":176882.20000000019,"y":2558831.0000000019}},{"attributes":{"ID":440319,"DIS_CODE":0,"TOWNNAME":"善化區","LI":"光文里","LIN":"14鄰","STREET":"民生路","SECT":" ","MAREA":" ","LANE":"１６９巷","ALLEY":" ","HOUSE_NO":"１３號","E_COORD97":178474.32000000001,"N_COORD97":2558913.2599999998,"ADDRESS":"民生路１６９巷１３號","OBJECTID":440294},"geometry":{"x":178474.32000000123,"y":2558913.2600000016}},{"attributes":{"ID":440320,"DIS_CODE":0,"TOWNNAME":"善化區","LI":"西關里","LIN":"13鄰","STREET":"興農路","SECT":" ","MAREA":" ","LANE":"６９巷","ALLEY":" ","HOUSE_NO":"２１號","E_COORD97":176375.17999999999,"N_COORD97":2559048.5099999998,"ADDRESS":"興農路６９巷２１號","OBJECTID":440295},"geometry":{"x":176375.1799999997,"y":2559048.5099999998}},{"attributes":{"ID":440321,"DIS_CODE":0,"TOWNNAME":"善化區","LI":"南關里","LIN":"4鄰","STREET":"自由路","SECT":" ","MAREA":" ","LANE":"１１２巷","ALLEY":" ","HOUSE_NO":"１號","E_COORD97":177138.39000000001,"N_COORD97":2558908.5,"ADDRESS":"自由路１１２巷１號","OBJECTID":440296},"geometry":{"x":177138.38999999966,"y":2558908.5000000019}},{"attributes":{"ID":440322,"DIS_CODE":0,"TOWNNAME":"善化區","LI":"光文里","LIN":"14鄰","STREET":"民生路","SECT":" ","MAREA":" ","LANE":"１６９巷","ALLEY":" ","HOUSE_NO":"７號","E_COORD97":178474.12,"N_COORD97":2558925.7599999998,"ADDRESS":"民生路１６９巷７號","OBJECTID":440297},"geometry":{"x":178474.12000000104,"y":2558925.7599999998}},{"attributes":{"ID":440323,"DIS_CODE":0,"TOWNNAME":"善化區","LI":"光文里","LIN":"26鄰","STREET":"中山路","SECT":" ","MAREA":" ","LANE":"２４０巷","ALLEY":" ","HOUSE_NO":"１號之６４","E_COORD97":178176.84,"N_COORD97":2559264.52,"ADDRESS":"中山路２４０巷１號之６４","OBJECTID":440298},"geometry":{"x":178176.84000000171,"y":2559264.5200000014}},{"attributes":{"ID":440324,"DIS_CODE":0,"TOWNNAME":"東區","LI":"小東里","LIN":"30鄰","STREET":"東平路","SECT":" ","MAREA":" ","LANE":"２５２巷","ALLEY":" ","HOUSE_NO":"１５號","E_COORD97":170718.04000000001,"N_COORD97":2544084.9100000001,"ADDRESS":"東平路２５２巷１５號","OBJECTID":440299},"geometry":{"x":170718.04000000004,"y":2544084.9100000001}},{"attributes":{"ID":440325,"DIS_CODE":0,"TOWNNAME":"永康區","LI":"永康里","LIN":"40鄰","STREET":"永大二路","SECT":" ","MAREA":" ","LANE":" ","ALLEY":" ","HOUSE_NO":"５０號八樓之１","E_COORD97":174243.35999999999,"N_COORD97":2546574.3399999999,"ADDRESS":"永大二路５０號八樓之１","OBJECTID":440300},"geometry":{"x":174243.36000000127,"y":2546574.3399999999}},{"attributes":{"ID":440326,"DIS_CODE":0,"TOWNNAME":"東區","LI":"小東里","LIN":"30鄰","STREET":"東平路","SECT":" ","MAREA":" ","LANE":"２５２巷","ALLEY":" ","HOUSE_NO":"１７號","E_COORD97":170718.39000000001,"N_COORD97":2544090.2200000002,"ADDRESS":"東平路２５２巷１７號","OBJECTID":440301},"geometry":{"x":170718.38999999966,"y":2544090.2200000007}},{"attributes":{"ID":440327,"DIS_CODE":0,"TOWNNAME":"東區","LI":"小東里","LIN":"30鄰","STREET":"東平路","SECT":" ","MAREA":" ","LANE":"２５２巷","ALLEY":" ","HOUSE_NO":"３號","E_COORD97":170711.42000000001,"N_COORD97":2544051.7599999998,"ADDRESS":"東平路２５２巷３號","OBJECTID":440302},"geometry":{"x":170711.42000000086,"y":2544051.7599999998}},{"attributes":{"ID":440328,"DIS_CODE":0,"TOWNNAME":"東區","LI":"小東里","LIN":"30鄰","STREET":"東平路","SECT":" ","MAREA":" ","LANE":"２５２巷","ALLEY":" ","HOUSE_NO":"５號","E_COORD97":170712.13,"N_COORD97":2544057.7799999998,"ADDRESS":"東平路２５２巷５號","OBJECTID":440303},"geometry":{"x":170712.12999999989,"y":2544057.7799999993}},{"attributes":{"ID":440329,"DIS_CODE":0,"TOWNNAME":"東區","LI":"小東里","LIN":"30鄰","STREET":"東平路","SECT":" ","MAREA":" ","LANE":"２５２巷","ALLEY":" ","HOUSE_NO":"７號","E_COORD97":170712.84,"N_COORD97":2544064.6099999999,"ADDRESS":"東平路２５２巷７號","OBJECTID":440304},"geometry":{"x":170712.83999999892,"y":2544064.6100000013}},{"attributes":{"ID":440330,"DIS_CODE":0,"TOWNNAME":"東區","LI":"大學里","LIN":"12鄰","STREET":"長榮路","SECT":"三段","MAREA":" ","LANE":"６６巷","ALLEY":" ","HOUSE_NO":"６８號","E_COORD97":170374.67000000001,"N_COORD97":2543768.4900000002,"ADDRESS":"長榮路三段６６巷６８號","OBJECTID":440305},"geometry":{"x":170374.66999999993,"y":2543768.4900000021}},{"attributes":{"ID":440331,"DIS_CODE":0,"TOWNNAME":"東區","LI":"大學里","LIN":"11鄰","STREET":"長榮路","SECT":"三段","MAREA":" ","LANE":"６６巷","ALLEY":" ","HOUSE_NO":"２７號","E_COORD97":170305.17000000001,"N_COORD97":2543814.9700000002,"ADDRESS":"長榮路三段６６巷２７號","OBJECTID":440306},"geometry":{"x":170305.16999999993,"y":2543814.9700000044}},{"attributes":{"ID":440332,"DIS_CODE":0,"TOWNNAME":"東區","LI":"莊敬里","LIN":"4鄰","STREET":"小東路","SECT":" ","MAREA":" ","LANE":"２５４巷","ALLEY":" ","HOUSE_NO":"１５號","E_COORD97":171168.64999999999,"N_COORD97":2544282.04,"ADDRESS":"小東路２５４巷１５號","OBJECTID":440307},"geometry":{"x":171168.65000000037,"y":2544282.040000001}},{"attributes":{"ID":440333,"DIS_CODE":0,"TOWNNAME":"東區","LI":"忠孝里","LIN":"13鄰","STREET":"榮譽街","SECT":" ","MAREA":" ","LANE":"８７巷","ALLEY":" ","HOUSE_NO":"３９號","E_COORD97":169756.79000000001,"N_COORD97":2541792.6800000002,"ADDRESS":"榮譽街８７巷３９號","OBJECTID":440308},"geometry":{"x":169756.79000000004,"y":2541792.6800000016}},{"attributes":{"ID":440334,"DIS_CODE":0,"TOWNNAME":"東區","LI":"富強里","LIN":"13鄰","STREET":"裕農路","SECT":" ","MAREA":" ","LANE":"２８８巷","ALLEY":" ","HOUSE_NO":"２３４號","E_COORD97":171058.31,"N_COORD97":2542779.5099999998,"ADDRESS":"裕農路２８８巷２３４號","OBJECTID":440309},"geometry":{"x":171058.30999999959,"y":2542779.5099999979}},{"attributes":{"ID":440335,"DIS_CODE":0,"TOWNNAME":"東區","LI":"東光里","LIN":"4鄰","STREET":"東興路","SECT":" ","MAREA":" ","LANE":"２０巷","ALLEY":" ","HOUSE_NO":"７號","E_COORD97":170945.98999999999,"N_COORD97":2543462.1499999999,"ADDRESS":"東興路２０巷７號","OBJECTID":440310},"geometry":{"x":170945.99000000022,"y":2543462.1500000022}},{"attributes":{"ID":440336,"DIS_CODE":0,"TOWNNAME":"東區","LI":"東光里","LIN":"4鄰","STREET":"東興路","SECT":" ","MAREA":" ","LANE":"２０巷","ALLEY":" ","HOUSE_NO":"９號","E_COORD97":170947.98000000001,"N_COORD97":2543468.3300000001,"ADDRESS":"東興路２０巷９號","OBJECTID":440311},"geometry":{"x":170947.98000000045,"y":2543468.3300000001}},{"attributes":{"ID":440337,"DIS_CODE":0,"TOWNNAME":"東區","LI":"東光里","LIN":"4鄰","STREET":"東興路","SECT":" ","MAREA":" ","LANE":"２０巷","ALLEY":" ","HOUSE_NO":"１１號","E_COORD97":170948.32999999999,"N_COORD97":2543474.98,"ADDRESS":"東興路２０巷１１號","OBJECTID":440312},"geometry":{"x":170948.33000000007,"y":2543474.9800000004}},{"attributes":{"ID":440338,"DIS_CODE":0,"TOWNNAME":"東區","LI":"東光里","LIN":"4鄰","STREET":"東興路","SECT":" ","MAREA":" ","LANE":"２０巷","ALLEY":" ","HOUSE_NO":"１３號","E_COORD97":170959.42000000001,"N_COORD97":2543471.25,"ADDRESS":"東興路２０巷１３號","OBJECTID":440313},"geometry":{"x":170959.41999999993,"y":2543471.2500000019}},{"attributes":{"ID":440339,"DIS_CODE":0,"TOWNNAME":"東區","LI":"東光里","LIN":"4鄰","STREET":"東興路","SECT":" ","MAREA":" ","LANE":"２０巷","ALLEY":" ","HOUSE_NO":"１５號","E_COORD97":170958.01999999999,"N_COORD97":2543465.4100000001,"ADDRESS":"東興路２０巷１５號","OBJECTID":440314},"geometry":{"x":170958.02000000048,"y":2543465.4099999983}},{"attributes":{"ID":440340,"DIS_CODE":0,"TOWNNAME":"東區","LI":"東光里","LIN":"4鄰","STREET":"東興路","SECT":" ","MAREA":" ","LANE":"２０巷","ALLEY":" ","HOUSE_NO":"１７號","E_COORD97":170956.85000000001,"N_COORD97":2543459.3500000001,"ADDRESS":"東興路２０巷１７號","OBJECTID":440315},"geometry":{"x":170956.85000000149,"y":2543459.3500000015}},{"attributes":{"ID":440341,"DIS_CODE":0,"TOWNNAME":"東區","LI":"東光里","LIN":"4鄰","STREET":"東興路","SECT":" ","MAREA":" ","LANE":"２０巷","ALLEY":" ","HOUSE_NO":"１９號","E_COORD97":170955.10000000001,"N_COORD97":2543453.1699999999,"ADDRESS":"東興路２０巷１９號","OBJECTID":440316},"geometry":{"x":170955.10000000149,"y":2543453.1699999981}},{"attributes":{"ID":440342,"DIS_CODE":0,"TOWNNAME":"東區","LI":"東光里","LIN":"4鄰","STREET":"東興路","SECT":" ","MAREA":" ","LANE":"２０巷","ALLEY":" ","HOUSE_NO":"２１號","E_COORD97":170953.23000000001,"N_COORD97":2543446.9900000002,"ADDRESS":"東興路２０巷２１號","OBJECTID":440317},"geometry":{"x":170953.22999999952,"y":2543446.9900000002}},{"attributes":{"ID":440343,"DIS_CODE":0,"TOWNNAME":"東區","LI":"東光里","LIN":"4鄰","STREET":"東興路","SECT":" ","MAREA":" ","LANE":"２０巷","ALLEY":" ","HOUSE_NO":"２３號","E_COORD97":170952.17999999999,"N_COORD97":2543441.8500000001,"ADDRESS":"東興路２０巷２３號","OBJECTID":440318},"geometry":{"x":170952.1799999997,"y":2543441.8500000034}},{"attributes":{"ID":440344,"DIS_CODE":0,"TOWNNAME":"東區","LI":"莊敬里","LIN":"4鄰","STREET":"小東路","SECT":" ","MAREA":" ","LANE":"２５４巷","ALLEY":" ","HOUSE_NO":"２１號","E_COORD97":171179.70999999999,"N_COORD97":2544269.9500000002,"ADDRESS":"小東路２５４巷２１號","OBJECTID":440319},"geometry":{"x":171179.70999999996,"y":2544269.9499999993}},{"attributes":{"ID":440345,"DIS_CODE":0,"TOWNNAME":"東區","LI":"莊敬里","LIN":"4鄰","STREET":"小東路","SECT":" ","MAREA":" ","LANE":"２５８巷","ALLEY":" ","HOUSE_NO":"６號","E_COORD97":171150.29000000001,"N_COORD97":2544332.02,"ADDRESS":"小東路２５８巷６號","OBJECTID":440320},"geometry":{"x":171150.29000000004,"y":2544332.0199999977}},{"attributes":{"ID":440346,"DIS_CODE":0,"TOWNNAME":"東區","LI":"莊敬里","LIN":"4鄰","STREET":"小東路","SECT":" ","MAREA":" ","LANE":"２５８巷","ALLEY":" ","HOUSE_NO":"８號","E_COORD97":171153.88,"N_COORD97":2544328.3500000001,"ADDRESS":"小東路２５８巷８號","OBJECTID":440321},"geometry":{"x":171153.88000000082,"y":2544328.3499999996}},{"attributes":{"ID":440347,"DIS_CODE":0,"TOWNNAME":"東區","LI":"莊敬里","LIN":"4鄰","STREET":"小東路","SECT":" ","MAREA":" ","LANE":"２５８巷","ALLEY":" ","HOUSE_NO":"３５號","E_COORD97":171199.06,"N_COORD97":2544298.1200000001,"ADDRESS":"小東路２５８巷３５號","OBJECTID":440322},"geometry":{"x":171199.05999999959,"y":2544298.120000001}},{"attributes":{"ID":440348,"DIS_CODE":0,"TOWNNAME":"東區","LI":"圍下里","LIN":"7鄰","STREET":"青年路","SECT":" ","MAREA":" ","LANE":"２９３巷","ALLEY":" ","HOUSE_NO":"６號","E_COORD97":169436.32545800001,"N_COORD97":2543583.5231400002,"ADDRESS":"青年路２９３巷６號","OBJECTID":440323},"geometry":{"x":169436.32545799948,"y":2543583.5231420025}},{"attributes":{"ID":440349,"DIS_CODE":0,"TOWNNAME":"東區","LI":"圍下里","LIN":"7鄰","STREET":"青年路","SECT":" ","MAREA":" ","LANE":"２９３巷","ALLEY":" ","HOUSE_NO":"８號","E_COORD97":169442.46979500001,"N_COORD97":2543584.15814,"ADDRESS":"青年路２９３巷８號","OBJECTID":440324},"geometry":{"x":169442.46979499981,"y":2543584.1581409983}},{"attributes":{"ID":440350,"DIS_CODE":0,"TOWNNAME":"東區","LI":"圍下里","LIN":"15鄰","STREET":"青年路","SECT":" ","MAREA":" ","LANE":"２９３巷","ALLEY":" ","HOUSE_NO":"７０號","E_COORD97":169448.23000000001,"N_COORD97":2543646.1000000001,"ADDRESS":"青年路２９３巷７０號","OBJECTID":440325},"geometry":{"x":169448.23000000138,"y":2543646.0999999996}},{"attributes":{"ID":440351,"DIS_CODE":0,"TOWNNAME":"東區","LI":"圍下里","LIN":"15鄰","STREET":"青年路","SECT":" ","MAREA":" ","LANE":"２９３巷","ALLEY":" ","HOUSE_NO":"７２號","E_COORD97":169448.64000000001,"N_COORD97":2543650.8500000001,"ADDRESS":"青年路２９３巷７２號","OBJECTID":440326},"geometry":{"x":169448.63999999966,"y":2543650.8499999996}},{"attributes":{"ID":440352,"DIS_CODE":0,"TOWNNAME":"東區","LI":"虎尾里","LIN":"6鄰","STREET":"富農街","SECT":"一段","MAREA":" ","LANE":"７２巷","ALLEY":" ","HOUSE_NO":"１１號","E_COORD97":171587.88,"N_COORD97":2542199.54,"ADDRESS":"富農街一段７２巷１１號","OBJECTID":440327},"geometry":{"x":171587.88000000082,"y":2542199.540000001}},{"attributes":{"ID":440353,"DIS_CODE":0,"TOWNNAME":"東區","LI":"虎尾里","LIN":"6鄰","STREET":"富農街","SECT":"一段","MAREA":" ","LANE":"７２巷","ALLEY":" ","HOUSE_NO":"１３號","E_COORD97":171592.14999999999,"N_COORD97":2542200.4900000002,"ADDRESS":"富農街一段７２巷１３號","OBJECTID":440328},"geometry":{"x":171592.15000000037,"y":2542200.4900000039}},{"attributes":{"ID":440354,"DIS_CODE":0,"TOWNNAME":"東區","LI":"虎尾里","LIN":"6鄰","STREET":"富農街","SECT":"一段","MAREA":" ","LANE":"７２巷","ALLEY":" ","HOUSE_NO":"１５號","E_COORD97":171595.63,"N_COORD97":2542201.1200000001,"ADDRESS":"富農街一段７２巷１５號","OBJECTID":440329},"geometry":{"x":171595.62999999989,"y":2542201.1200000029}},{"attributes":{"ID":440355,"DIS_CODE":0,"TOWNNAME":"東區","LI":"虎尾里","LIN":"6鄰","STREET":"富農街","SECT":"一段","MAREA":" ","LANE":"７２巷","ALLEY":" ","HOUSE_NO":"１７號","E_COORD97":171599.75,"N_COORD97":2542201.5899999999,"ADDRESS":"富農街一段７２巷１７號","OBJECTID":440330},"geometry":{"x":171599.75,"y":2542201.5899999999}},{"attributes":{"ID":440356,"DIS_CODE":0,"TOWNNAME":"東區","LI":"虎尾里","LIN":"6鄰","STREET":"富農街","SECT":"一段","MAREA":" ","LANE":"７２巷","ALLEY":" ","HOUSE_NO":"１９號","E_COORD97":171603.87,"N_COORD97":2542202.54,"ADDRESS":"富農街一段７２巷１９號","OBJECTID":440331},"geometry":{"x":171603.87000000011,"y":2542202.5400000028}},{"attributes":{"ID":440357,"DIS_CODE":0,"TOWNNAME":"東區","LI":"虎尾里","LIN":"6鄰","STREET":"富農街","SECT":"一段","MAREA":" ","LANE":"７２巷","ALLEY":" ","HOUSE_NO":"１號","E_COORD97":171557,"N_COORD97":2542197.96,"ADDRESS":"富農街一段７２巷１號","OBJECTID":440332},"geometry":{"x":171557.00000000093,"y":2542197.9600000046}},{"attributes":{"ID":440358,"DIS_CODE":0,"TOWNNAME":"東區","LI":"虎尾里","LIN":"6鄰","STREET":"富農街","SECT":"一段","MAREA":" ","LANE":"７２巷","ALLEY":" ","HOUSE_NO":"２１號","E_COORD97":171607.82000000001,"N_COORD97":2542203.02,"ADDRESS":"富農街一段７２巷２１號","OBJECTID":440333},"geometry":{"x":171607.8200000003,"y":2542203.0200000033}},{"attributes":{"ID":440359,"DIS_CODE":0,"TOWNNAME":"東區","LI":"虎尾里","LIN":"17鄰","STREET":"富農街","SECT":"一段","MAREA":" ","LANE":"２９巷","ALLEY":" ","HOUSE_NO":"４號","E_COORD97":171492.42999999999,"N_COORD97":2542200.6099999999,"ADDRESS":"富農街一段２９巷４號","OBJECTID":440334},"geometry":{"x":171492.43000000063,"y":2542200.6099999994}},{"attributes":{"ID":440360,"DIS_CODE":0,"TOWNNAME":"東區","LI":"圍下里","LIN":"8鄰","STREET":"青年路","SECT":" ","MAREA":" ","LANE":"２９３巷","ALLEY":" ","HOUSE_NO":"１５號","E_COORD97":169401.70000000001,"N_COORD97":2543583.6000000001,"ADDRESS":"青年路２９３巷１５號","OBJECTID":440335},"geometry":{"x":169401.70000000019,"y":2543583.6000000015}},{"attributes":{"ID":440361,"DIS_CODE":0,"TOWNNAME":"東區","LI":"圍下里","LIN":"8鄰","STREET":"青年路","SECT":" ","MAREA":" ","LANE":"２９３巷","ALLEY":" ","HOUSE_NO":"１７號","E_COORD97":169406.42999999999,"N_COORD97":2543584.0099999998,"ADDRESS":"青年路２９３巷１７號","OBJECTID":440336},"geometry":{"x":169406.4299999997,"y":2543584.0100000016}},{"attributes":{"ID":440362,"DIS_CODE":0,"TOWNNAME":"東區","LI":"裕農里","LIN":"20鄰","STREET":"裕豐街","SECT":" ","MAREA":" ","LANE":"２２２巷","ALLEY":" ","HOUSE_NO":"３４號","E_COORD97":170893.67999999999,"N_COORD97":2543209.6800000002,"ADDRESS":"裕豐街２２２巷３４號","OBJECTID":440337},"geometry":{"x":170893.68000000156,"y":2543209.6800000016}},{"attributes":{"ID":440363,"DIS_CODE":0,"TOWNNAME":"東區","LI":"裕農里","LIN":"20鄰","STREET":"裕豐街","SECT":" ","MAREA":" ","LANE":"２２２巷","ALLEY":" ","HOUSE_NO":"３６號","E_COORD97":170897.64000000001,"N_COORD97":2543210.3399999999,"ADDRESS":"裕豐街２２２巷３６號","OBJECTID":440338},"geometry":{"x":170897.6400000006,"y":2543210.3399999999}},{"attributes":{"ID":440364,"DIS_CODE":0,"TOWNNAME":"東區","LI":"裕農里","LIN":"20鄰","STREET":"裕豐街","SECT":" ","MAREA":" ","LANE":"２２２巷","ALLEY":" ","HOUSE_NO":"３８號","E_COORD97":170901.94,"N_COORD97":2543211.6600000001,"ADDRESS":"裕豐街２２２巷３８號","OBJECTID":440339},"geometry":{"x":170901.94000000041,"y":2543211.6600000001}},{"attributes":{"ID":440365,"DIS_CODE":0,"TOWNNAME":"東區","LI":"裕農里","LIN":"20鄰","STREET":"裕豐街","SECT":" ","MAREA":" ","LANE":"２２２巷","ALLEY":" ","HOUSE_NO":"４０號","E_COORD97":170906.23000000001,"N_COORD97":2543212.6499999999,"ADDRESS":"裕豐街２２２巷４０號","OBJECTID":440340},"geometry":{"x":170906.23000000138,"y":2543212.6500000004}},{"attributes":{"ID":440366,"DIS_CODE":0,"TOWNNAME":"東區","LI":"裕農里","LIN":"19鄰","STREET":"裕豐街","SECT":" ","MAREA":" ","LANE":"２２２巷","ALLEY":" ","HOUSE_NO":"５１號","E_COORD97":170902.92999999999,"N_COORD97":2543229.9399999999,"ADDRESS":"裕豐街２２２巷５１號","OBJECTID":440341},"geometry":{"x":170902.9299999997,"y":2543229.9399999995}},{"attributes":{"ID":440367,"DIS_CODE":0,"TOWNNAME":"東區","LI":"大學里","LIN":"14鄰","STREET":"長榮路","SECT":"三段","MAREA":" ","LANE":"３０巷","ALLEY":" ","HOUSE_NO":"２４號之１","E_COORD97":170250.97,"N_COORD97":2543708.4100000001,"ADDRESS":"長榮路三段３０巷２４號之１","OBJECTID":440342},"geometry":{"x":170250.9700000016,"y":2543708.4100000001}},{"attributes":{"ID":440368,"DIS_CODE":0,"TOWNNAME":"東區","LI":"東光里","LIN":"15鄰","STREET":"莊敬路","SECT":" ","MAREA":" ","LANE":"５７巷","ALLEY":" ","HOUSE_NO":"９號","E_COORD97":171302.67000000001,"N_COORD97":2543808.9700000002,"ADDRESS":"莊敬路５７巷９號","OBJECTID":440343},"geometry":{"x":171302.67000000086,"y":2543808.9700000025}},{"attributes":{"ID":440369,"DIS_CODE":0,"TOWNNAME":"東區","LI":"東光里","LIN":"15鄰","STREET":"莊敬路","SECT":" ","MAREA":" ","LANE":"５７巷","ALLEY":" ","HOUSE_NO":"１１號","E_COORD97":171295.38,"N_COORD97":2543808.3199999998,"ADDRESS":"莊敬路５７巷１１號","OBJECTID":440344},"geometry":{"x":171295.37999999989,"y":2543808.3200000003}},{"attributes":{"ID":440370,"DIS_CODE":0,"TOWNNAME":"楠西區","LI":"灣丘里","LIN":"3鄰","STREET":" ","SECT":" ","MAREA":"灣丘","LANE":" ","ALLEY":" ","HOUSE_NO":"３０號之２","E_COORD97":199966.69656000001,"N_COORD97":2564013.1057099998,"ADDRESS":"灣丘３０號之２","OBJECTID":440345},"geometry":{"x":199966.696560001,"y":2564013.1057120003}},{"attributes":{"ID":440371,"DIS_CODE":0,"TOWNNAME":"東區","LI":"東光里","LIN":"15鄰","STREET":"莊敬路","SECT":" ","MAREA":" ","LANE":"５７巷","ALLEY":" ","HOUSE_NO":"１３號","E_COORD97":171290.03,"N_COORD97":2543808.1600000001,"ADDRESS":"莊敬路５７巷１３號","OBJECTID":440346},"geometry":{"x":171290.02999999933,"y":2543808.1600000001}},{"attributes":{"ID":440372,"DIS_CODE":0,"TOWNNAME":"東區","LI":"東光里","LIN":"15鄰","STREET":"莊敬路","SECT":" ","MAREA":" ","LANE":"５７巷","ALLEY":" ","HOUSE_NO":"１５號","E_COORD97":171284.51000000001,"N_COORD97":2543808.9700000002,"ADDRESS":"莊敬路５７巷１５號","OBJECTID":440347},"geometry":{"x":171284.50999999978,"y":2543808.9700000025}},{"attributes":{"ID":440373,"DIS_CODE":0,"TOWNNAME":"東區","LI":"東光里","LIN":"15鄰","STREET":"莊敬路","SECT":" ","MAREA":" ","LANE":"５７巷","ALLEY":" ","HOUSE_NO":"１７號","E_COORD97":171277.70000000001,"N_COORD97":2543809.7799999998,"ADDRESS":"莊敬路５７巷１７號","OBJECTID":440348},"geometry":{"x":171277.70000000112,"y":2543809.7799999993}},{"attributes":{"ID":440374,"DIS_CODE":0,"TOWNNAME":"東區","LI":"東光里","LIN":"15鄰","STREET":"莊敬路","SECT":" ","MAREA":" ","LANE":"５７巷","ALLEY":" ","HOUSE_NO":"１９號","E_COORD97":171270.73000000001,"N_COORD97":2543810.9100000001,"ADDRESS":"莊敬路５７巷１９號","OBJECTID":440349},"geometry":{"x":171270.73000000138,"y":2543810.9100000001}},{"attributes":{"ID":440375,"DIS_CODE":0,"TOWNNAME":"東區","LI":"大德里","LIN":"4鄰","STREET":"立德八路","SECT":" ","MAREA":" ","LANE":"３巷","ALLEY":" ","HOUSE_NO":"４２號","E_COORD97":169441.26000000001,"N_COORD97":2541991.6699999999,"ADDRESS":"立德八路３巷４２號","OBJECTID":440350},"geometry":{"x":169441.25999999978,"y":2541991.6699999999}},{"attributes":{"ID":440376,"DIS_CODE":0,"TOWNNAME":"東區","LI":"大德里","LIN":"4鄰","STREET":"立德八路","SECT":" ","MAREA":" ","LANE":"３巷","ALLEY":" ","HOUSE_NO":"６２號","E_COORD97":169436.5,"N_COORD97":2541999.8500000001,"ADDRESS":"立德八路３巷６２號","OBJECTID":440351},"geometry":{"x":169436.5,"y":2541999.8499999996}},{"attributes":{"ID":440377,"DIS_CODE":0,"TOWNNAME":"東區","LI":"泉南里","LIN":"14鄰","STREET":"光華街","SECT":" ","MAREA":" ","LANE":"２２９巷","ALLEY":" ","HOUSE_NO":"４０號","E_COORD97":169437.76000000001,"N_COORD97":2542907.5800000001,"ADDRESS":"光華街２２９巷４０號","OBJECTID":440352},"geometry":{"x":169437.76000000071,"y":2542907.5800000001}},{"attributes":{"ID":440378,"DIS_CODE":0,"TOWNNAME":"東區","LI":"東安里","LIN":"15鄰","STREET":"長榮路","SECT":"二段","MAREA":" ","LANE":"２４巷","ALLEY":" ","HOUSE_NO":"７３號","E_COORD97":170144.51999999999,"N_COORD97":2543035.46,"ADDRESS":"長榮路二段２４巷７３號","OBJECTID":440353},"geometry":{"x":170144.51999999955,"y":2543035.4600000046}},{"attributes":{"ID":440379,"DIS_CODE":0,"TOWNNAME":"東區","LI":"東安里","LIN":"15鄰","STREET":"長榮路","SECT":"二段","MAREA":" ","LANE":"２４巷","ALLEY":" ","HOUSE_NO":"７５號","E_COORD97":170146.69,"N_COORD97":2543023.3999999999,"ADDRESS":"長榮路二段２４巷７５號","OBJECTID":440354},"geometry":{"x":170146.69000000227,"y":2543023.4000000022}},{"attributes":{"ID":440380,"DIS_CODE":0,"TOWNNAME":"東區","LI":"忠孝里","LIN":"24鄰","STREET":"崇明四街","SECT":" ","MAREA":" ","LANE":"２０巷","ALLEY":" ","HOUSE_NO":"７號","E_COORD97":169619.32999999999,"N_COORD97":2542263.98,"ADDRESS":"崇明四街２０巷７號","OBJECTID":440355},"geometry":{"x":169619.33000000007,"y":2542263.9800000004}},{"attributes":{"ID":440381,"DIS_CODE":0,"TOWNNAME":"東區","LI":"新東里","LIN":"4鄰","STREET":"衛國街","SECT":" ","MAREA":" ","LANE":"１０６巷","ALLEY":" ","HOUSE_NO":"３２號","E_COORD97":170384.73000000001,"N_COORD97":2542952.4399999999,"ADDRESS":"衛國街１０６巷３２號","OBJECTID":440356},"geometry":{"x":170384.73000000045,"y":2542952.4399999995}},{"attributes":{"ID":440382,"DIS_CODE":0,"TOWNNAME":"東區","LI":"新東里","LIN":"4鄰","STREET":"衛國街","SECT":" ","MAREA":" ","LANE":"１０６巷","ALLEY":" ","HOUSE_NO":"３３號","E_COORD97":170405.95000000001,"N_COORD97":2542973.9399999999,"ADDRESS":"衛國街１０６巷３３號","OBJECTID":440357},"geometry":{"x":170405.95000000112,"y":2542973.9400000013}},{"attributes":{"ID":440383,"DIS_CODE":0,"TOWNNAME":"東區","LI":"新東里","LIN":"4鄰","STREET":"衛國街","SECT":" ","MAREA":" ","LANE":"１０６巷","ALLEY":" ","HOUSE_NO":"３４號","E_COORD97":170385.25,"N_COORD97":2542948.3300000001,"ADDRESS":"衛國街１０６巷３４號","OBJECTID":440358},"geometry":{"x":170385.25000000093,"y":2542948.3300000019}},{"attributes":{"ID":440384,"DIS_CODE":0,"TOWNNAME":"東區","LI":"新東里","LIN":"4鄰","STREET":"衛國街","SECT":" ","MAREA":" ","LANE":"１０６巷","ALLEY":" ","HOUSE_NO":"３５號","E_COORD97":170406.78,"N_COORD97":2542967.9300000002,"ADDRESS":"衛國街１０６巷３５號","OBJECTID":440359},"geometry":{"x":170406.78000000026,"y":2542967.9300000016}},{"attributes":{"ID":440385,"DIS_CODE":0,"TOWNNAME":"東區","LI":"大學里","LIN":"10鄰","STREET":"大學路","SECT":" ","MAREA":" ","LANE":"２２巷","ALLEY":" ","HOUSE_NO":"２０號之２","E_COORD97":170155.48000000001,"N_COORD97":2543916.8399999999,"ADDRESS":"大學路２２巷２０號之２","OBJECTID":440360},"geometry":{"x":170155.48000000138,"y":2543916.8400000036}},{"attributes":{"ID":440386,"DIS_CODE":0,"TOWNNAME":"東區","LI":"大學里","LIN":"10鄰","STREET":"大學路","SECT":" ","MAREA":" ","LANE":"２２巷","ALLEY":" ","HOUSE_NO":"２０號之３","E_COORD97":170165.54000000001,"N_COORD97":2543920.8300000001,"ADDRESS":"大學路２２巷２０號之３","OBJECTID":440361},"geometry":{"x":170165.54000000004,"y":2543920.8300000019}},{"attributes":{"ID":440387,"DIS_CODE":0,"TOWNNAME":"東區","LI":"大學里","LIN":"10鄰","STREET":"大學路","SECT":" ","MAREA":" ","LANE":"２２巷","ALLEY":" ","HOUSE_NO":"２０號","E_COORD97":170164.94,"N_COORD97":2543929.8199999998,"ADDRESS":"大學路２２巷２０號","OBJECTID":440362},"geometry":{"x":170164.94000000041,"y":2543929.8200000003}},{"attributes":{"ID":440388,"DIS_CODE":0,"TOWNNAME":"東區","LI":"新東里","LIN":"17鄰","STREET":"裕豐街","SECT":" ","MAREA":" ","LANE":"１６３巷","ALLEY":" ","HOUSE_NO":"３６號","E_COORD97":170657.17999999999,"N_COORD97":2543142.6099999999,"ADDRESS":"裕豐街１６３巷３６號","OBJECTID":440363},"geometry":{"x":170657.1799999997,"y":2543142.6100000013}},{"attributes":{"ID":440389,"DIS_CODE":0,"TOWNNAME":"東區","LI":"新東里","LIN":"17鄰","STREET":"裕豐街","SECT":" ","MAREA":" ","LANE":"１６３巷","ALLEY":" ","HOUSE_NO":"４２號","E_COORD97":170648.23000000001,"N_COORD97":2543139.0499999998,"ADDRESS":"裕豐街１６３巷４２號","OBJECTID":440364},"geometry":{"x":170648.23000000231,"y":2543139.0500000007}},{"attributes":{"ID":440390,"DIS_CODE":0,"TOWNNAME":"東區","LI":"新東里","LIN":"17鄰","STREET":"裕豐街","SECT":" ","MAREA":" ","LANE":"１６３巷","ALLEY":" ","HOUSE_NO":"４２之１號","E_COORD97":170644.28,"N_COORD97":2543138.3999999999,"ADDRESS":"裕豐街１６３巷４２之１號","OBJECTID":440365},"geometry":{"x":170644.28000000212,"y":2543138.4000000022}},{"attributes":{"ID":440391,"DIS_CODE":0,"TOWNNAME":"東區","LI":"新東里","LIN":"17鄰","STREET":"裕豐街","SECT":" ","MAREA":" ","LANE":"１６３巷","ALLEY":" ","HOUSE_NO":"４６號","E_COORD97":170640.19,"N_COORD97":2543137.4700000002,"ADDRESS":"裕豐街１６３巷４６號","OBJECTID":440366},"geometry":{"x":170640.19000000134,"y":2543137.4700000025}},{"attributes":{"ID":440392,"DIS_CODE":0,"TOWNNAME":"東區","LI":"新東里","LIN":"17鄰","STREET":"裕豐街","SECT":" ","MAREA":" ","LANE":"１６３巷","ALLEY":" ","HOUSE_NO":"４８號","E_COORD97":170636.23999999999,"N_COORD97":2543136.4199999999,"ADDRESS":"裕豐街１６３巷４８號","OBJECTID":440367},"geometry":{"x":170636.24000000115,"y":2543136.4200000037}},{"attributes":{"ID":440393,"DIS_CODE":0,"TOWNNAME":"東區","LI":"新東里","LIN":"17鄰","STREET":"裕豐街","SECT":" ","MAREA":" ","LANE":"１６３巷","ALLEY":" ","HOUSE_NO":"４號","E_COORD97":170712.54999999999,"N_COORD97":2543152.2000000002,"ADDRESS":"裕豐街１６３巷４號","OBJECTID":440368},"geometry":{"x":170712.54999999981,"y":2543152.2000000011}},{"attributes":{"ID":440394,"DIS_CODE":0,"TOWNNAME":"東區","LI":"新東里","LIN":"17鄰","STREET":"裕豐街","SECT":" ","MAREA":" ","LANE":"１６３巷","ALLEY":" ","HOUSE_NO":"５０號","E_COORD97":170631.89999999999,"N_COORD97":2543135.6299999999,"ADDRESS":"裕豐街１６３巷５０號","OBJECTID":440369},"geometry":{"x":170631.9000000013,"y":2543135.6300000008}},{"attributes":{"ID":440395,"DIS_CODE":0,"TOWNNAME":"永康區","LI":"尚頂里","LIN":"4鄰","STREET":"正南一街","SECT":" ","MAREA":" ","LANE":"１９０巷","ALLEY":" ","HOUSE_NO":"１５號","E_COORD97":170684.67000000001,"N_COORD97":2547502.9500000002,"ADDRESS":"正南一街１９０巷１５號","OBJECTID":440370},"geometry":{"x":170684.66999999993,"y":2547502.9500000011}},{"attributes":{"ID":440396,"DIS_CODE":0,"TOWNNAME":"永康區","LI":"龍潭里","LIN":"3鄰","STREET":"龍安街","SECT":" ","MAREA":" ","LANE":"４０巷","ALLEY":" ","HOUSE_NO":"７號","E_COORD97":174624.35999999999,"N_COORD97":2548136.0899999999,"ADDRESS":"龍安街４０巷７號","OBJECTID":440371},"geometry":{"x":174624.36000000127,"y":2548136.0900000036}},{"attributes":{"ID":440397,"DIS_CODE":0,"TOWNNAME":"永康區","LI":"西灣里","LIN":"50鄰","STREET":"永華路","SECT":" ","MAREA":" ","LANE":"２７３巷","ALLEY":" ","HOUSE_NO":"１０號","E_COORD97":173993.41,"N_COORD97":2545816.8700000001,"ADDRESS":"永華路２７３巷１０號","OBJECTID":440372},"geometry":{"x":173993.41000000108,"y":2545816.8700000029}},{"attributes":{"ID":440398,"DIS_CODE":0,"TOWNNAME":"永康區","LI":"西灣里","LIN":"32鄰","STREET":"國光八街","SECT":" ","MAREA":" ","LANE":"９０巷","ALLEY":" ","HOUSE_NO":"２０號","E_COORD97":174196.92999999999,"N_COORD97":2545837.4900000002,"ADDRESS":"國光八街９０巷２０號","OBJECTID":440373},"geometry":{"x":174196.9299999997,"y":2545837.4900000002}},{"attributes":{"ID":440399,"DIS_CODE":0,"TOWNNAME":"永康區","LI":"西灣里","LIN":"18鄰","STREET":"大安街","SECT":" ","MAREA":" ","LANE":"２９３巷","ALLEY":" ","HOUSE_NO":"５５號","E_COORD97":174506.76000000001,"N_COORD97":2545615.0699999998,"ADDRESS":"大安街２９３巷５５號","OBJECTID":440374},"geometry":{"x":174506.75999999978,"y":2545615.0700000022}},{"attributes":{"ID":440400,"DIS_CODE":0,"TOWNNAME":"永康區","LI":"崑山里","LIN":" ","STREET":"大灣路","SECT":" ","MAREA":" ","LANE":"１１０２巷","ALLEY":" ","HOUSE_NO":"４之１１號","E_COORD97":173194.04000000001,"N_COORD97":2544546.27,"ADDRESS":"大灣路１１０２巷４之１１號","OBJECTID":440375},"geometry":{"x":173194.04000000097,"y":2544546.2699999996}},{"attributes":{"ID":440401,"DIS_CODE":0,"TOWNNAME":"永康區","LI":"\u25A0行里","LIN":"38鄰","STREET":"仁愛街","SECT":" ","MAREA":" ","LANE":"１３８巷","ALLEY":" ","HOUSE_NO":"８號","E_COORD97":172211.66,"N_COORD97":2549633.0299999998,"ADDRESS":"仁愛街１３８巷８號","OBJECTID":440376},"geometry":{"x":172211.66000000108,"y":2549633.0299999993}},{"attributes":{"ID":440402,"DIS_CODE":0,"TOWNNAME":"永康區","LI":"\u25A0洲里","LIN":"32鄰","STREET":"\u25A0行路","SECT":" ","MAREA":" ","LANE":"３２８巷","ALLEY":" ","HOUSE_NO":"８號","E_COORD97":171041.85000000001,"N_COORD97":2548986.7799999998,"ADDRESS":"\u25A0行路３２８巷８號","OBJECTID":440377},"geometry":{"x":171041.85000000056,"y":2548986.7800000012}},{"attributes":{"ID":440403,"DIS_CODE":0,"TOWNNAME":"永康區","LI":"\u25A0洲里","LIN":"32鄰","STREET":"\u25A0行路","SECT":" ","MAREA":" ","LANE":"３３０巷","ALLEY":" ","HOUSE_NO":"７號","E_COORD97":170986.59,"N_COORD97":2548969.1400000001,"ADDRESS":"\u25A0行路３３０巷７號","OBJECTID":440378},"geometry":{"x":170986.59000000078,"y":2548969.1400000006}},{"attributes":{"ID":440404,"DIS_CODE":0,"TOWNNAME":"永康區","LI":"二王里","LIN":" ","STREET":"中山南路","SECT":" ","MAREA":" ","LANE":"８７２巷","ALLEY":" ","HOUSE_NO":"９００號","E_COORD97":173020.76999999999,"N_COORD97":2546872.25,"ADDRESS":"中山南路８７２巷９００號","OBJECTID":440379},"geometry":{"x":173020.77000000048,"y":2546872.25}},{"attributes":{"ID":440405,"DIS_CODE":0,"TOWNNAME":"永康區","LI":"\u25A0行里","LIN":"20鄰","STREET":"正南五街","SECT":" ","MAREA":" ","LANE":"４１０巷","ALLEY":" ","HOUSE_NO":"１之６號","E_COORD97":171795.35000000001,"N_COORD97":2548609.7999999998,"ADDRESS":"正南五街４１０巷１之６號","OBJECTID":440380},"geometry":{"x":171795.34999999963,"y":2548609.8000000007}},{"attributes":{"ID":440406,"DIS_CODE":0,"TOWNNAME":"永康區","LI":"\u25A0行里","LIN":"39鄰","STREET":"永安路","SECT":" ","MAREA":" ","LANE":"１０５巷","ALLEY":" ","HOUSE_NO":"５號","E_COORD97":172728.92999999999,"N_COORD97":2549256.1200000001,"ADDRESS":"永安路１０５巷５號","OBJECTID":440381},"geometry":{"x":172728.9299999997,"y":2549256.1200000048}},{"attributes":{"ID":440407,"DIS_CODE":0,"TOWNNAME":"永康區","LI":"\u25A0行里","LIN":"32鄰","STREET":"仁愛街","SECT":" ","MAREA":" ","LANE":"１０８巷","ALLEY":" ","HOUSE_NO":"２３號","E_COORD97":172195.79000000001,"N_COORD97":2549437.71,"ADDRESS":"仁愛街１０８巷２３號","OBJECTID":440382},"geometry":{"x":172195.79000000097,"y":2549437.7100000009}},{"attributes":{"ID":440408,"DIS_CODE":0,"TOWNNAME":"永康區","LI":"\u25A0行里","LIN":"32鄰","STREET":"仁愛街","SECT":" ","MAREA":" ","LANE":"１０８巷","ALLEY":" ","HOUSE_NO":"２９號","E_COORD97":172215.14999999999,"N_COORD97":2549433.21,"ADDRESS":"仁愛街１０８巷２９號","OBJECTID":440383},"geometry":{"x":172215.15000000224,"y":2549433.2100000009}},{"attributes":{"ID":440409,"DIS_CODE":0,"TOWNNAME":"永康區","LI":"崑山里","LIN":" ","STREET":"大灣路","SECT":" ","MAREA":" ","LANE":"１１０２巷","ALLEY":" ","HOUSE_NO":"４之９號","E_COORD97":173191.70000000001,"N_COORD97":2544524.5099999998,"ADDRESS":"大灣路１１０２巷４之９號","OBJECTID":440384},"geometry":{"x":173191.70000000112,"y":2544524.5099999998}},{"attributes":{"ID":440410,"DIS_CODE":0,"TOWNNAME":"永康區","LI":"埔園里","LIN":" ","STREET":"自強路","SECT":" ","MAREA":" ","LANE":"４６８巷","ALLEY":" ","HOUSE_NO":"３號","E_COORD97":173862.67000000001,"N_COORD97":2547923.7400000002,"ADDRESS":"自強路４６８巷３號","OBJECTID":440385},"geometry":{"x":173862.67000000086,"y":2547923.7400000002}},{"attributes":{"ID":440411,"DIS_CODE":0,"TOWNNAME":"永康區","LI":"大橋里","LIN":" ","STREET":"大橋一街","SECT":" ","MAREA":" ","LANE":"１３７巷","ALLEY":" ","HOUSE_NO":"１７號","E_COORD97":171002.64999999999,"N_COORD97":2546520.75,"ADDRESS":"大橋一街１３７巷１７號","OBJECTID":440386},"geometry":{"x":171002.65000000037,"y":2546520.75}},{"attributes":{"ID":440412,"DIS_CODE":0,"TOWNNAME":"永康區","LI":"埔園里","LIN":" ","STREET":"龍埔街","SECT":" ","MAREA":" ","LANE":"２３３巷","ALLEY":" ","HOUSE_NO":"１之４號","E_COORD97":174267.82999999999,"N_COORD97":2548232.3599999999,"ADDRESS":"龍埔街２３３巷１之４號","OBJECTID":440387},"geometry":{"x":174267.83000000007,"y":2548232.3600000013}},{"attributes":{"ID":440413,"DIS_CODE":0,"TOWNNAME":"永康區","LI":"崑山里","LIN":" ","STREET":"永大路","SECT":"一段","MAREA":" ","LANE":"２８７巷","ALLEY":" ","HOUSE_NO":"５６號","E_COORD97":173896.07999999999,"N_COORD97":2544415.3999999999,"ADDRESS":"永大路一段２８７巷５６號","OBJECTID":440388},"geometry":{"x":173896.08000000007,"y":2544415.4000000041}},{"attributes":{"ID":440414,"DIS_CODE":0,"TOWNNAME":"永康區","LI":"埔園里","LIN":" ","STREET":"龍埔街","SECT":" ","MAREA":" ","LANE":"６３４巷","ALLEY":" ","HOUSE_NO":"２４９號","E_COORD97":174218.53,"N_COORD97":2548267.5600000001,"ADDRESS":"龍埔街６３４巷２４９號","OBJECTID":440389},"geometry":{"x":174218.53000000119,"y":2548267.5600000005}},{"attributes":{"ID":440415,"DIS_CODE":0,"TOWNNAME":"永康區","LI":"崑山里","LIN":" ","STREET":"大灣路","SECT":" ","MAREA":" ","LANE":"８９１巷","ALLEY":" ","HOUSE_NO":"５４號","E_COORD97":173593.73999999999,"N_COORD97":2544235.75,"ADDRESS":"大灣路８９１巷５４號","OBJECTID":440390},"geometry":{"x":173593.74000000022,"y":2544235.75}},{"attributes":{"ID":440416,"DIS_CODE":0,"TOWNNAME":"永康區","LI":"甲頂里","LIN":" ","STREET":"大武街","SECT":" ","MAREA":" ","LANE":"５９７巷","ALLEY":" ","HOUSE_NO":"４２之１號","E_COORD97":170240.12,"N_COORD97":2546582.79,"ADDRESS":"大武街５９７巷４２之１號","OBJECTID":440391},"geometry":{"x":170240.12000000197,"y":2546582.7899999991}},{"attributes":{"ID":440417,"DIS_CODE":0,"TOWNNAME":"永康區","LI":"\u25A0行里","LIN":"38鄰","STREET":"仁愛街","SECT":" ","MAREA":" ","LANE":"１３８巷","ALLEY":" ","HOUSE_NO":"２０號","E_COORD97":172257.04000000001,"N_COORD97":2549638.5299999998,"ADDRESS":"仁愛街１３８巷２０號","OBJECTID":440392},"geometry":{"x":172257.04000000004,"y":2549638.5300000012}},{"attributes":{"ID":440418,"DIS_CODE":0,"TOWNNAME":"永康區","LI":"\u25A0行里","LIN":"25鄰","STREET":"\u25A0和街","SECT":" ","MAREA":" ","LANE":"２５６巷","ALLEY":" ","HOUSE_NO":"８號","E_COORD97":171659.14000000001,"N_COORD97":2548380.7999999998,"ADDRESS":"\u25A0和街２５６巷８號","OBJECTID":440393},"geometry":{"x":171659.1400000006,"y":2548380.8000000026}},{"attributes":{"ID":440419,"DIS_CODE":0,"TOWNNAME":"永康區","LI":"大橋里","LIN":" ","STREET":"大橋一街","SECT":" ","MAREA":" ","LANE":"１３７巷","ALLEY":" ","HOUSE_NO":"１９號","E_COORD97":170995.45999999999,"N_COORD97":2546531.75,"ADDRESS":"大橋一街１３７巷１９號","OBJECTID":440394},"geometry":{"x":170995.46000000183,"y":2546531.7500000019}},{"attributes":{"ID":440420,"DIS_CODE":0,"TOWNNAME":"關廟區","LI":"東勢里","LIN":"14鄰","STREET":"東榮街","SECT":" ","MAREA":" ","LANE":"９２巷","ALLEY":" ","HOUSE_NO":"５號","E_COORD97":182101.32000000001,"N_COORD97":2539301.25,"ADDRESS":"東榮街９２巷５號","OBJECTID":440395},"geometry":{"x":182101.3200000003,"y":2539301.2500000019}},{"attributes":{"ID":440421,"DIS_CODE":0,"TOWNNAME":"永康區","LI":"大橋里","LIN":" ","STREET":"大橋一街","SECT":" ","MAREA":" ","LANE":"１３７巷","ALLEY":" ","HOUSE_NO":"１５號","E_COORD97":171007.14999999999,"N_COORD97":2546523.5,"ADDRESS":"大橋一街１３７巷１５號","OBJECTID":440396},"geometry":{"x":171007.1500000013,"y":2546523.5000000019}},{"attributes":{"ID":440422,"DIS_CODE":0,"TOWNNAME":"永康區","LI":"\u25A0行里","LIN":"20鄰","STREET":"正南五街","SECT":" ","MAREA":" ","LANE":"２８９巷","ALLEY":" ","HOUSE_NO":"９９號","E_COORD97":171814.41,"N_COORD97":2548334.1000000001,"ADDRESS":"正南五街２８９巷９９號","OBJECTID":440397},"geometry":{"x":171814.41000000015,"y":2548334.0999999996}},{"attributes":{"ID":440423,"DIS_CODE":0,"TOWNNAME":"永康區","LI":"\u25A0洲里","LIN":"25鄰","STREET":"洲工街","SECT":" ","MAREA":" ","LANE":"２２巷","ALLEY":" ","HOUSE_NO":"１０號","E_COORD97":170656.14999999999,"N_COORD97":2548185.3900000001,"ADDRESS":"洲工街２２巷１０號","OBJECTID":440398},"geometry":{"x":170656.1500000013,"y":2548185.3899999987}},{"attributes":{"ID":440424,"DIS_CODE":0,"TOWNNAME":"永康區","LI":"北灣里","LIN":" ","STREET":"大灣七街","SECT":" ","MAREA":" ","LANE":"４５巷","ALLEY":" ","HOUSE_NO":"１１號","E_COORD97":175038.72,"N_COORD97":2545620.46,"ADDRESS":"大灣七街４５巷１１號","OBJECTID":440399},"geometry":{"x":175038.72000000067,"y":2545620.4600000028}},{"attributes":{"ID":440425,"DIS_CODE":0,"TOWNNAME":"永康區","LI":"復興里","LIN":" ","STREET":"復興路","SECT":" ","MAREA":" ","LANE":"４２９巷","ALLEY":" ","HOUSE_NO":"４２７之２２號","E_COORD97":172200.10999999999,"N_COORD97":2543916.21,"ADDRESS":"復興路４２９巷４２７之２２號","OBJECTID":440400},"geometry":{"x":172200.1100000022,"y":2543916.2100000028}}]}