{"displayFieldName":"TOWNNAME","fieldAliases":{"ID":"ID","DIS_CODE":"DIS_CODE","TOWNNAME":"TOWNNAME","LI":"LI","LIN":"LIN","STREET":"STREET","SECT":"SECT","MAREA":"MAREA","LANE":"LANE","ALLEY":"ALLEY","HOUSE_NO":"HOUSE_NO","E_COORD97":"E_COORD97","N_COORD97":"N_COORD97","ADDRESS":"ADDRESS","OBJECTID":"OBJECTID"},"geometryType":"esriGeometryPoint","spatialReference":{"wkid":102443,"latestWkid":3826},"fields":[{"name":"ID","type":"esriFieldTypeDouble","alias":"ID"},{"name":"DIS_CODE","type":"esriFieldTypeInteger","alias":"DIS_CODE"},{"name":"TOWNNAME","type":"esriFieldTypeString","alias":"TOWNNAME","length":8},{"name":"LI","type":"esriFieldTypeString","alias":"LI","length":8},{"name":"LIN","type":"esriFieldTypeString","alias":"LIN","length":12},{"name":"STREET","type":"esriFieldTypeString","alias":"STREET","length":20},{"name":"SECT","type":"esriFieldTypeString","alias":"SECT","length":8},{"name":"MAREA","type":"esriFieldTypeString","alias":"MAREA","length":12},{"name":"LANE","type":"esriFieldTypeString","alias":"LANE","length":10},{"name":"ALLEY","type":"esriFieldTypeString","alias":"ALLEY","length":10},{"name":"HOUSE_NO","type":"esriFieldTypeString","alias":"HOUSE_NO","length":20},{"name":"E_COORD97","type":"esriFieldTypeDouble","alias":"E_COORD97"},{"name":"N_COORD97","type":"esriFieldTypeDouble","alias":"N_COORD97"},{"name":"ADDRESS","type":"esriFieldTypeString","alias":"ADDRESS","length":50},{"name":"OBJECTID","type":"esriFieldTypeOID","alias":"OBJECTID"}],"features":[{"attributes":{"ID":393225,"DIS_CODE":0,"TOWNNAME":"歸仁區","LI":"崙頂里","LIN":"23鄰","STREET":"崙頂二街","SECT":" ","MAREA":" ","LANE":"５０巷","ALLEY":" ","HOUSE_NO":"４７號","E_COORD97":177747.23999999999,"N_COORD97":2540003.48,"ADDRESS":"崙頂二街５０巷４７號","OBJECTID":393201},"geometry":{"x":177747.23999999929,"y":2540003.4800000004}},{"attributes":{"ID":393226,"DIS_CODE":0,"TOWNNAME":"歸仁區","LI":"看西里","LIN":"23鄰","STREET":"成功五街","SECT":" ","MAREA":" ","LANE":"８８巷","ALLEY":" ","HOUSE_NO":"５５號","E_COORD97":178402.41,"N_COORD97":2539848.3599999999,"ADDRESS":"成功五街８８巷５５號","OBJECTID":393202},"geometry":{"x":178402.41000000108,"y":2539848.3600000013}},{"attributes":{"ID":393227,"DIS_CODE":0,"TOWNNAME":"歸仁區","LI":"崙頂里","LIN":"23鄰","STREET":"崙頂二街","SECT":" ","MAREA":" ","LANE":"６６巷","ALLEY":" ","HOUSE_NO":"２號","E_COORD97":177736.59,"N_COORD97":2539981.48,"ADDRESS":"崙頂二街６６巷２號","OBJECTID":393203},"geometry":{"x":177736.59000000078,"y":2539981.4800000023}},{"attributes":{"ID":393228,"DIS_CODE":0,"TOWNNAME":"歸仁區","LI":"看西里","LIN":"23鄰","STREET":"成功五街","SECT":" ","MAREA":" ","LANE":"９８巷","ALLEY":" ","HOUSE_NO":"６號","E_COORD97":178432.06,"N_COORD97":2539884.3599999999,"ADDRESS":"成功五街９８巷６號","OBJECTID":393204},"geometry":{"x":178432.05999999959,"y":2539884.3599999994}},{"attributes":{"ID":393229,"DIS_CODE":0,"TOWNNAME":"歸仁區","LI":"看西里","LIN":"23鄰","STREET":"成功五街","SECT":" ","MAREA":" ","LANE":"８８巷","ALLEY":" ","HOUSE_NO":"３５號","E_COORD97":178416.60999999999,"N_COORD97":2539826.3599999999,"ADDRESS":"成功五街８８巷３５號","OBJECTID":393205},"geometry":{"x":178416.61000000127,"y":2539826.3599999994}},{"attributes":{"ID":393230,"DIS_CODE":0,"TOWNNAME":"歸仁區","LI":"看西里","LIN":"23鄰","STREET":"凱旋路","SECT":"一段","MAREA":" ","LANE":"２１０巷","ALLEY":" ","HOUSE_NO":"１８號","E_COORD97":178444.60999999999,"N_COORD97":2539792.3700000001,"ADDRESS":"凱旋路一段２１０巷１８號","OBJECTID":393206},"geometry":{"x":178444.61000000034,"y":2539792.3700000029}},{"attributes":{"ID":393231,"DIS_CODE":0,"TOWNNAME":"歸仁區","LI":"崙頂里","LIN":"23鄰","STREET":"崙頂二街","SECT":" ","MAREA":" ","LANE":"６６巷","ALLEY":" ","HOUSE_NO":"１號","E_COORD97":177726.29000000001,"N_COORD97":2539971.48,"ADDRESS":"崙頂二街６６巷１號","OBJECTID":393207},"geometry":{"x":177726.29000000004,"y":2539971.4800000023}},{"attributes":{"ID":393232,"DIS_CODE":0,"TOWNNAME":"歸仁區","LI":"看西里","LIN":"23鄰","STREET":"成功五街","SECT":" ","MAREA":" ","LANE":"８８巷","ALLEY":" ","HOUSE_NO":"２１號","E_COORD97":178415.81,"N_COORD97":2539858.3599999999,"ADDRESS":"成功五街８８巷２１號","OBJECTID":393208},"geometry":{"x":178415.81000000145,"y":2539858.3600000013}},{"attributes":{"ID":393233,"DIS_CODE":0,"TOWNNAME":"歸仁區","LI":"看西里","LIN":"23鄰","STREET":"凱旋路","SECT":"一段","MAREA":" ","LANE":"２１０巷","ALLEY":" ","HOUSE_NO":"１１號","E_COORD97":178419.91,"N_COORD97":2539774.3700000001,"ADDRESS":"凱旋路一段２１０巷１１號","OBJECTID":393209},"geometry":{"x":178419.91000000108,"y":2539774.370000001}},{"attributes":{"ID":393234,"DIS_CODE":0,"TOWNNAME":"歸仁區","LI":"看西里","LIN":"23鄰","STREET":"凱旋路","SECT":"一段","MAREA":" ","LANE":"２１０巷","ALLEY":" ","HOUSE_NO":"２８號","E_COORD97":178423.10999999999,"N_COORD97":2539791.3700000001,"ADDRESS":"凱旋路一段２１０巷２８號","OBJECTID":393210},"geometry":{"x":178423.1100000022,"y":2539791.370000001}},{"attributes":{"ID":393235,"DIS_CODE":0,"TOWNNAME":"歸仁區","LI":"崙頂里","LIN":"23鄰","STREET":"崙頂二街","SECT":" ","MAREA":" ","LANE":"５０巷","ALLEY":" ","HOUSE_NO":"５１號","E_COORD97":177754.34,"N_COORD97":2539995.48,"ADDRESS":"崙頂二街５０巷５１號","OBJECTID":393211},"geometry":{"x":177754.33999999985,"y":2539995.4800000004}},{"attributes":{"ID":393236,"DIS_CODE":0,"TOWNNAME":"安平區","LI":"文平里","LIN":"23鄰","STREET":"建平一街","SECT":" ","MAREA":" ","LANE":"２３巷","ALLEY":" ","HOUSE_NO":"６２號","E_COORD97":165981.73000000001,"N_COORD97":2542852.3599999999,"ADDRESS":"建平一街２３巷６２號","OBJECTID":393212},"geometry":{"x":165981.73000000138,"y":2542852.3600000013}},{"attributes":{"ID":393237,"DIS_CODE":0,"TOWNNAME":"安平區","LI":"文平里","LIN":"23鄰","STREET":"建平一街","SECT":" ","MAREA":" ","LANE":"２３巷","ALLEY":" ","HOUSE_NO":"４０號","E_COORD97":166021.85999999999,"N_COORD97":2542847.1000000001,"ADDRESS":"建平一街２３巷４０號","OBJECTID":393213},"geometry":{"x":166021.86000000127,"y":2542847.1000000015}},{"attributes":{"ID":393238,"DIS_CODE":0,"TOWNNAME":"安平區","LI":"文平里","LIN":"23鄰","STREET":"建平一街","SECT":" ","MAREA":" ","LANE":"２３巷","ALLEY":" ","HOUSE_NO":"３８號","E_COORD97":166025.35000000001,"N_COORD97":2542847.1000000001,"ADDRESS":"建平一街２３巷３８號","OBJECTID":393214},"geometry":{"x":166025.3499999987,"y":2542847.1000000015}},{"attributes":{"ID":393239,"DIS_CODE":0,"TOWNNAME":"新營區","LI":"南紙里","LIN":"23鄰","STREET":"南紙街","SECT":" ","MAREA":" ","LANE":"１１７巷","ALLEY":" ","HOUSE_NO":"８號","E_COORD97":177838.13,"N_COORD97":2577471.1899999999,"ADDRESS":"南紙街１１７巷８號","OBJECTID":393215},"geometry":{"x":177838.13000000082,"y":2577471.1899999995}},{"attributes":{"ID":393240,"DIS_CODE":0,"TOWNNAME":"新營區","LI":"忠政里","LIN":"23鄰","STREET":"府西路","SECT":" ","MAREA":" ","LANE":"１８１巷","ALLEY":" ","HOUSE_NO":"９號","E_COORD97":179750.98000000001,"N_COORD97":2579426.6200000001,"ADDRESS":"府西路１８１巷９號","OBJECTID":393216},"geometry":{"x":179750.98000000045,"y":2579426.6199999992}},{"attributes":{"ID":393241,"DIS_CODE":0,"TOWNNAME":"新營區","LI":"忠政里","LIN":"23鄰","STREET":"府西路","SECT":" ","MAREA":" ","LANE":"１８１巷","ALLEY":" ","HOUSE_NO":"３４號","E_COORD97":179696.17000000001,"N_COORD97":2579440.1800000002,"ADDRESS":"府西路１８１巷３４號","OBJECTID":393217},"geometry":{"x":179696.16999999993,"y":2579440.1800000016}},{"attributes":{"ID":393242,"DIS_CODE":0,"TOWNNAME":"新營區","LI":"民榮里","LIN":"23鄰","STREET":"裕民路","SECT":" ","MAREA":" ","LANE":"３４巷","ALLEY":" ","HOUSE_NO":"１２號","E_COORD97":179093.35000000001,"N_COORD97":2577881.54,"ADDRESS":"裕民路３４巷１２號","OBJECTID":393218},"geometry":{"x":179093.34999999963,"y":2577881.5399999991}},{"attributes":{"ID":393243,"DIS_CODE":0,"TOWNNAME":"新營區","LI":"新北里","LIN":"23鄰","STREET":"民生路","SECT":" ","MAREA":" ","LANE":"３８６巷","ALLEY":" ","HOUSE_NO":"６６號","E_COORD97":179020.5,"N_COORD97":2579327.1200000001,"ADDRESS":"民生路３８６巷６６號","OBJECTID":393219},"geometry":{"x":179020.50000000093,"y":2579327.120000001}},{"attributes":{"ID":393244,"DIS_CODE":0,"TOWNNAME":"新營區","LI":"南紙里","LIN":"23鄰","STREET":"南紙街","SECT":" ","MAREA":" ","LANE":"１１７巷","ALLEY":" ","HOUSE_NO":"２８號","E_COORD97":177880.29000000001,"N_COORD97":2577468.7799999998,"ADDRESS":"南紙街１１７巷２８號","OBJECTID":393220},"geometry":{"x":177880.29000000004,"y":2577468.7800000012}},{"attributes":{"ID":393245,"DIS_CODE":0,"TOWNNAME":"新營區","LI":"新南里","LIN":"23鄰","STREET":"復興路","SECT":" ","MAREA":" ","LANE":"６８２巷","ALLEY":" ","HOUSE_NO":"１２號","E_COORD97":177877.69,"N_COORD97":2578419,"ADDRESS":"復興路６８２巷１２號","OBJECTID":393221},"geometry":{"x":177877.69000000041,"y":2578419}},{"attributes":{"ID":393246,"DIS_CODE":0,"TOWNNAME":"新營區","LI":"新北里","LIN":"23鄰","STREET":"民生路","SECT":" ","MAREA":" ","LANE":"３８６巷","ALLEY":" ","HOUSE_NO":"５４號","E_COORD97":178989.82000000001,"N_COORD97":2579325.0499999998,"ADDRESS":"民生路３８６巷５４號","OBJECTID":393222},"geometry":{"x":178989.82000000123,"y":2579325.0499999989}},{"attributes":{"ID":393247,"DIS_CODE":0,"TOWNNAME":"新營區","LI":"忠政里","LIN":"23鄰","STREET":"府西路","SECT":" ","MAREA":" ","LANE":"１８７巷","ALLEY":" ","HOUSE_NO":"１４號","E_COORD97":179746.34,"N_COORD97":2579472.0600000001,"ADDRESS":"府西路１８７巷１４號","OBJECTID":393223},"geometry":{"x":179746.33999999985,"y":2579472.0600000024}},{"attributes":{"ID":393248,"DIS_CODE":0,"TOWNNAME":"新營區","LI":"忠政里","LIN":"23鄰","STREET":"府西路","SECT":" ","MAREA":" ","LANE":"１８１巷","ALLEY":" ","HOUSE_NO":"１７號","E_COORD97":179733.85000000001,"N_COORD97":2579426.71,"ADDRESS":"府西路１８１巷１７號","OBJECTID":393224},"geometry":{"x":179733.84999999963,"y":2579426.7100000028}},{"attributes":{"ID":393249,"DIS_CODE":0,"TOWNNAME":"北區","LI":"永祥里","LIN":"23鄰","STREET":"大武街","SECT":" ","MAREA":" ","LANE":"５９７巷","ALLEY":" ","HOUSE_NO":"３３號","E_COORD97":170213.72,"N_COORD97":2546515.0299999998,"ADDRESS":"大武街５９７巷３３號","OBJECTID":393225},"geometry":{"x":170213.72000000067,"y":2546515.0299999975}},{"attributes":{"ID":393250,"DIS_CODE":0,"TOWNNAME":"永康區","LI":"安康里","LIN":"12鄰","STREET":"中華路","SECT":" ","MAREA":" ","LANE":"６１９巷","ALLEY":" ","HOUSE_NO":"１９號之２","E_COORD97":170994.34,"N_COORD97":2546063.79,"ADDRESS":"中華路６１９巷１９號之２","OBJECTID":393226},"geometry":{"x":170994.34000000171,"y":2546063.790000001}},{"attributes":{"ID":393251,"DIS_CODE":0,"TOWNNAME":"永康區","LI":"三民里","LIN":"12鄰","STREET":"和平路","SECT":" ","MAREA":" ","LANE":"２４１巷","ALLEY":" ","HOUSE_NO":"２號","E_COORD97":174732.34,"N_COORD97":2550757.5,"ADDRESS":"和平路２４１巷２號","OBJECTID":393227},"geometry":{"x":174732.34000000171,"y":2550757.5000000037}},{"attributes":{"ID":393252,"DIS_CODE":0,"TOWNNAME":"南區","LI":"新興里","LIN":"23鄰","STREET":"五妃街","SECT":" ","MAREA":" ","LANE":"４４３巷","ALLEY":" ","HOUSE_NO":"１４號","E_COORD97":167525.42000000001,"N_COORD97":2542551.2000000002,"ADDRESS":"五妃街４４３巷１４號","OBJECTID":393228},"geometry":{"x":167525.41999999899,"y":2542551.2000000011}},{"attributes":{"ID":393253,"DIS_CODE":0,"TOWNNAME":"南區","LI":"新興里","LIN":"23鄰","STREET":"五妃街","SECT":" ","MAREA":" ","LANE":"４４３巷","ALLEY":" ","HOUSE_NO":"１６號","E_COORD97":167524.32000000001,"N_COORD97":2542546.8199999998,"ADDRESS":"五妃街４４３巷１６號","OBJECTID":393229},"geometry":{"x":167524.3200000003,"y":2542546.8200000003}},{"attributes":{"ID":393254,"DIS_CODE":0,"TOWNNAME":"南區","LI":"新興里","LIN":"23鄰","STREET":"五妃街","SECT":" ","MAREA":" ","LANE":"４４３巷","ALLEY":" ","HOUSE_NO":"１８號","E_COORD97":167524.48999999999,"N_COORD97":2542542.23,"ADDRESS":"五妃街４４３巷１８號","OBJECTID":393230},"geometry":{"x":167524.49000000115,"y":2542542.2300000023}},{"attributes":{"ID":393255,"DIS_CODE":0,"TOWNNAME":"南區","LI":"新興里","LIN":"23鄰","STREET":"五妃街","SECT":" ","MAREA":" ","LANE":"４４３巷","ALLEY":" ","HOUSE_NO":"１９號","E_COORD97":167536.63,"N_COORD97":2542538.71,"ADDRESS":"五妃街４４３巷１９號","OBJECTID":393231},"geometry":{"x":167536.63000000082,"y":2542538.7100000046}},{"attributes":{"ID":393256,"DIS_CODE":0,"TOWNNAME":"南區","LI":"新興里","LIN":"23鄰","STREET":"五妃街","SECT":" ","MAREA":" ","LANE":"４４３巷","ALLEY":" ","HOUSE_NO":"２０號","E_COORD97":167518.84,"N_COORD97":2542546.02,"ADDRESS":"五妃街４４３巷２０號","OBJECTID":393232},"geometry":{"x":167518.83999999985,"y":2542546.0200000014}},{"attributes":{"ID":393257,"DIS_CODE":0,"TOWNNAME":"南區","LI":"新興里","LIN":"23鄰","STREET":"五妃街","SECT":" ","MAREA":" ","LANE":"４４３巷","ALLEY":" ","HOUSE_NO":"２１號","E_COORD97":167536.13,"N_COORD97":2542535,"ADDRESS":"五妃街４４３巷２１號","OBJECTID":393233},"geometry":{"x":167536.13000000082,"y":2542535}},{"attributes":{"ID":393258,"DIS_CODE":0,"TOWNNAME":"南區","LI":"新興里","LIN":"23鄰","STREET":"五妃街","SECT":" ","MAREA":" ","LANE":"４４３巷","ALLEY":" ","HOUSE_NO":"２２號","E_COORD97":167514.63,"N_COORD97":2542547.3700000001,"ADDRESS":"五妃街４４３巷２２號","OBJECTID":393234},"geometry":{"x":167514.63000000082,"y":2542547.370000001}},{"attributes":{"ID":393259,"DIS_CODE":0,"TOWNNAME":"南區","LI":"新興里","LIN":"23鄰","STREET":"五妃街","SECT":" ","MAREA":" ","LANE":"４４３巷","ALLEY":" ","HOUSE_NO":"２４號","E_COORD97":167506.20000000001,"N_COORD97":2542545.9399999999,"ADDRESS":"五妃街４４３巷２４號","OBJECTID":393235},"geometry":{"x":167506.20000000019,"y":2542545.9400000032}},{"attributes":{"ID":393260,"DIS_CODE":0,"TOWNNAME":"歸仁區","LI":"看西里","LIN":"23鄰","STREET":"成功五街","SECT":" ","MAREA":" ","LANE":"８８巷","ALLEY":" ","HOUSE_NO":"４１號","E_COORD97":178405.31,"N_COORD97":2539813.3599999999,"ADDRESS":"成功五街８８巷４１號","OBJECTID":393236},"geometry":{"x":178405.30999999959,"y":2539813.3599999994}},{"attributes":{"ID":393261,"DIS_CODE":0,"TOWNNAME":"歸仁區","LI":"六甲里","LIN":"23鄰","STREET":"中正南路","SECT":"一段","MAREA":" ","LANE":"８００巷","ALLEY":" ","HOUSE_NO":"１９號","E_COORD97":176366.29519400001,"N_COORD97":2539647.66371,"ADDRESS":"中正南路一段８００巷１９號","OBJECTID":393237},"geometry":{"x":176366.29519400187,"y":2539647.6637090035}},{"attributes":{"ID":393262,"DIS_CODE":0,"TOWNNAME":"歸仁區","LI":"六甲里","LIN":"23鄰","STREET":"中正南路","SECT":"一段","MAREA":" ","LANE":"８１０巷","ALLEY":" ","HOUSE_NO":"３９號","E_COORD97":176347.28001799999,"N_COORD97":2539652.4791199998,"ADDRESS":"中正南路一段８１０巷３９號","OBJECTID":393238},"geometry":{"x":176347.28001799993,"y":2539652.4791230019}},{"attributes":{"ID":393263,"DIS_CODE":0,"TOWNNAME":"歸仁區","LI":"看西里","LIN":"23鄰","STREET":"成功五街","SECT":" ","MAREA":" ","LANE":"８８巷","ALLEY":" ","HOUSE_NO":"３３號","E_COORD97":178416.60999999999,"N_COORD97":2539830.3599999999,"ADDRESS":"成功五街８８巷３３號","OBJECTID":393239},"geometry":{"x":178416.61000000127,"y":2539830.3599999994}},{"attributes":{"ID":393264,"DIS_CODE":0,"TOWNNAME":"歸仁區","LI":"看西里","LIN":"23鄰","STREET":"凱旋路","SECT":"一段","MAREA":" ","LANE":"２１０巷","ALLEY":" ","HOUSE_NO":"７號","E_COORD97":178433.06,"N_COORD97":2539776.3700000001,"ADDRESS":"凱旋路一段２１０巷７號","OBJECTID":393240},"geometry":{"x":178433.06000000052,"y":2539776.3700000029}},{"attributes":{"ID":393265,"DIS_CODE":0,"TOWNNAME":"歸仁區","LI":"崙頂里","LIN":"23鄰","STREET":"崙頂二街","SECT":" ","MAREA":" ","LANE":"６６巷","ALLEY":" ","HOUSE_NO":"５號","E_COORD97":177720.19,"N_COORD97":2539979.48,"ADDRESS":"崙頂二街６６巷５號","OBJECTID":393241},"geometry":{"x":177720.19000000041,"y":2539979.4800000004}},{"attributes":{"ID":393266,"DIS_CODE":0,"TOWNNAME":"歸仁區","LI":"六甲里","LIN":"23鄰","STREET":"中正南路","SECT":"一段","MAREA":" ","LANE":"８００巷","ALLEY":" ","HOUSE_NO":"２３號","E_COORD97":176366.718929,"N_COORD97":2539655.2837,"ADDRESS":"中正南路一段８００巷２３號","OBJECTID":393242},"geometry":{"x":176366.7189290002,"y":2539655.2837050017}},{"attributes":{"ID":393267,"DIS_CODE":0,"TOWNNAME":"歸仁區","LI":"八甲里","LIN":"23鄰","STREET":"大德路","SECT":" ","MAREA":" ","LANE":"１１４巷","ALLEY":" ","HOUSE_NO":"３０號","E_COORD97":178137.14000000001,"N_COORD97":2541404.25,"ADDRESS":"大德路１１４巷３０號","OBJECTID":393243},"geometry":{"x":178137.13999999966,"y":2541404.25}},{"attributes":{"ID":393268,"DIS_CODE":0,"TOWNNAME":"歸仁區","LI":"大廟里","LIN":"23鄰","STREET":"大廟一街","SECT":" ","MAREA":" ","LANE":"３８巷","ALLEY":" ","HOUSE_NO":"３９號","E_COORD97":175719.72,"N_COORD97":2544078.25,"ADDRESS":"大廟一街３８巷３９號","OBJECTID":393244},"geometry":{"x":175719.72000000067,"y":2544078.2500000019}},{"attributes":{"ID":393269,"DIS_CODE":0,"TOWNNAME":"歸仁區","LI":"六甲里","LIN":"23鄰","STREET":"中正南路","SECT":"一段","MAREA":" ","LANE":"８１０巷","ALLEY":" ","HOUSE_NO":"１５號","E_COORD97":176347.01525900001,"N_COORD97":2539602.3670700002,"ADDRESS":"中正南路一段８１０巷１５號","OBJECTID":393245},"geometry":{"x":176347.01525899954,"y":2539602.3670669999}},{"attributes":{"ID":393270,"DIS_CODE":0,"TOWNNAME":"歸仁區","LI":"後市里","LIN":"23鄰","STREET":"大通路","SECT":" ","MAREA":" ","LANE":"１１６巷","ALLEY":" ","HOUSE_NO":"６號","E_COORD97":177562.70000000001,"N_COORD97":2540934.25,"ADDRESS":"大通路１１６巷６號","OBJECTID":393246},"geometry":{"x":177562.69999999925,"y":2540934.2500000019}},{"attributes":{"ID":393271,"DIS_CODE":0,"TOWNNAME":"歸仁區","LI":"南興里","LIN":"23鄰","STREET":"文化二十街","SECT":" ","MAREA":" ","LANE":"１２巷","ALLEY":" ","HOUSE_NO":"７號","E_COORD97":175511.89000000001,"N_COORD97":2541249.3300000001,"ADDRESS":"文化二十街１２巷７號","OBJECTID":393247},"geometry":{"x":175511.8900000006,"y":2541249.3300000019}},{"attributes":{"ID":393272,"DIS_CODE":0,"TOWNNAME":"歸仁區","LI":"看西里","LIN":"23鄰","STREET":"成功五街","SECT":" ","MAREA":" ","LANE":"８８巷","ALLEY":" ","HOUSE_NO":"２３號","E_COORD97":178415.70999999999,"N_COORD97":2539852.3599999999,"ADDRESS":"成功五街８８巷２３號","OBJECTID":393248},"geometry":{"x":178415.71000000089,"y":2539852.3600000013}},{"attributes":{"ID":393273,"DIS_CODE":0,"TOWNNAME":"北區","LI":"文元里","LIN":"23鄰","STREET":"文成三路","SECT":" ","MAREA":" ","LANE":"６８２巷","ALLEY":" ","HOUSE_NO":"６８號","E_COORD97":167942.69,"N_COORD97":2546414.6800000002,"ADDRESS":"文成三路６８２巷６８號","OBJECTID":393249},"geometry":{"x":167942.69000000041,"y":2546414.6799999997}},{"attributes":{"ID":393274,"DIS_CODE":0,"TOWNNAME":"北區","LI":"文元里","LIN":"23鄰","STREET":"文賢三街","SECT":" ","MAREA":" ","LANE":"３２０巷","ALLEY":" ","HOUSE_NO":"６６號","E_COORD97":167913.95000000001,"N_COORD97":2546332.6699999999,"ADDRESS":"文賢三街３２０巷６６號","OBJECTID":393250},"geometry":{"x":167913.95000000112,"y":2546332.6700000018}},{"attributes":{"ID":393275,"DIS_CODE":0,"TOWNNAME":"玉井區","LI":"玉田里","LIN":"23鄰","STREET":"民權路","SECT":" ","MAREA":" ","LANE":"３３巷","ALLEY":" ","HOUSE_NO":"９號","E_COORD97":194979.54000000001,"N_COORD97":2557882.2799999998,"ADDRESS":"民權路３３巷９號","OBJECTID":393251},"geometry":{"x":194979.54000000004,"y":2557882.2800000012}},{"attributes":{"ID":393276,"DIS_CODE":0,"TOWNNAME":"玉井區","LI":"玉田里","LIN":"23鄰","STREET":"民權路","SECT":" ","MAREA":" ","LANE":"３９巷","ALLEY":" ","HOUSE_NO":"６號","E_COORD97":194949.54000000001,"N_COORD97":2557877.2799999998,"ADDRESS":"民權路３９巷６號","OBJECTID":393252},"geometry":{"x":194949.5400000019,"y":2557877.2799999993}},{"attributes":{"ID":393277,"DIS_CODE":0,"TOWNNAME":"玉井區","LI":"玉田里","LIN":"23鄰","STREET":"民權路","SECT":" ","MAREA":" ","LANE":"３９巷","ALLEY":" ","HOUSE_NO":"２號","E_COORD97":194951.34,"N_COORD97":2557868.27,"ADDRESS":"民權路３９巷２號","OBJECTID":393253},"geometry":{"x":194951.34000000078,"y":2557868.2700000033}},{"attributes":{"ID":393278,"DIS_CODE":0,"TOWNNAME":"玉井區","LI":"玉田里","LIN":"23鄰","STREET":"民權路","SECT":" ","MAREA":" ","LANE":"３９巷","ALLEY":" ","HOUSE_NO":"２之１號","E_COORD97":194950.92999999999,"N_COORD97":2557871.2799999998,"ADDRESS":"民權路３９巷２之１號","OBJECTID":393254},"geometry":{"x":194950.9299999997,"y":2557871.2800000031}},{"attributes":{"ID":393279,"DIS_CODE":0,"TOWNNAME":"玉井區","LI":"玉田里","LIN":"23鄰","STREET":"民權路","SECT":" ","MAREA":" ","LANE":"３９巷","ALLEY":" ","HOUSE_NO":"８號","E_COORD97":194948.63,"N_COORD97":2557881.2799999998,"ADDRESS":"民權路３９巷８號","OBJECTID":393255},"geometry":{"x":194948.62999999989,"y":2557881.2799999975}},{"attributes":{"ID":393280,"DIS_CODE":0,"TOWNNAME":"玉井區","LI":"玉田里","LIN":"23鄰","STREET":"民權路","SECT":" ","MAREA":" ","LANE":"３９巷","ALLEY":" ","HOUSE_NO":"１號","E_COORD97":194958.75,"N_COORD97":2557879.2799999998,"ADDRESS":"民權路３９巷１號","OBJECTID":393256},"geometry":{"x":194958.75000000093,"y":2557879.2800000012}},{"attributes":{"ID":393281,"DIS_CODE":0,"TOWNNAME":"玉井區","LI":"玉田里","LIN":"23鄰","STREET":"民權路","SECT":" ","MAREA":" ","LANE":"３９巷","ALLEY":" ","HOUSE_NO":"１２號","E_COORD97":194948.29000000001,"N_COORD97":2557887.2799999998,"ADDRESS":"民權路３９巷１２號","OBJECTID":393257},"geometry":{"x":194948.29000000097,"y":2557887.2799999993}},{"attributes":{"ID":393282,"DIS_CODE":0,"TOWNNAME":"玉井區","LI":"玉田里","LIN":"23鄰","STREET":"民權路","SECT":" ","MAREA":" ","LANE":"３９巷","ALLEY":" ","HOUSE_NO":"１０號","E_COORD97":194948.98999999999,"N_COORD97":2557884.2799999998,"ADDRESS":"民權路３９巷１０號","OBJECTID":393258},"geometry":{"x":194948.99000000115,"y":2557884.2799999993}},{"attributes":{"ID":393283,"DIS_CODE":0,"TOWNNAME":"玉井區","LI":"玉田里","LIN":"23鄰","STREET":"民權路","SECT":" ","MAREA":" ","LANE":"３３巷","ALLEY":" ","HOUSE_NO":"１２號","E_COORD97":194977.79000000001,"N_COORD97":2557861.2799999998,"ADDRESS":"民權路３３巷１２號","OBJECTID":393259},"geometry":{"x":194977.79000000004,"y":2557861.2800000031}},{"attributes":{"ID":393284,"DIS_CODE":0,"TOWNNAME":"玉井區","LI":"玉田里","LIN":"23鄰","STREET":"民權路","SECT":" ","MAREA":" ","LANE":"３３巷","ALLEY":" ","HOUSE_NO":"５號","E_COORD97":194975.32999999999,"N_COORD97":2557895.2799999998,"ADDRESS":"民權路３３巷５號","OBJECTID":393260},"geometry":{"x":194975.33000000101,"y":2557895.2800000031}},{"attributes":{"ID":393285,"DIS_CODE":0,"TOWNNAME":"北區","LI":"大豐里","LIN":"23鄰","STREET":"大興街","SECT":" ","MAREA":" ","LANE":"３５５巷","ALLEY":" ","HOUSE_NO":"５３號","E_COORD97":166579.34,"N_COORD97":2545533.9500000002,"ADDRESS":"大興街３５５巷５３號","OBJECTID":393261},"geometry":{"x":166579.33999999985,"y":2545533.9500000011}},{"attributes":{"ID":393286,"DIS_CODE":0,"TOWNNAME":"永康區","LI":"三合里","LIN":"15鄰","STREET":"南工街","SECT":" ","MAREA":" ","LANE":"２４７巷","ALLEY":" ","HOUSE_NO":"２１號","E_COORD97":171977.60000000001,"N_COORD97":2545888.25,"ADDRESS":"南工街２４７巷２１號","OBJECTID":393262},"geometry":{"x":171977.60000000056,"y":2545888.2500000019}},{"attributes":{"ID":393287,"DIS_CODE":0,"TOWNNAME":"永康區","LI":"\u25A0行里","LIN":"8鄰","STREET":"中正一街","SECT":" ","MAREA":" ","LANE":"３２巷","ALLEY":" ","HOUSE_NO":"１號","E_COORD97":172806.57999999999,"N_COORD97":2548329.9900000002,"ADDRESS":"中正一街３２巷１號","OBJECTID":393263},"geometry":{"x":172806.58000000007,"y":2548329.9900000002}},{"attributes":{"ID":393288,"DIS_CODE":0,"TOWNNAME":"柳營區","LI":"東昇里","LIN":"23鄰","STREET":"十美街","SECT":" ","MAREA":" ","LANE":"２１５巷","ALLEY":" ","HOUSE_NO":"１８號","E_COORD97":180282.88,"N_COORD97":2575460.3799999999,"ADDRESS":"十美街２１５巷１８號","OBJECTID":393264},"geometry":{"x":180282.88000000082,"y":2575460.3800000008}},{"attributes":{"ID":393289,"DIS_CODE":0,"TOWNNAME":"柳營區","LI":"東昇里","LIN":"23鄰","STREET":"十美街","SECT":" ","MAREA":" ","LANE":"２１５巷","ALLEY":" ","HOUSE_NO":"１號","E_COORD97":180297.04000000001,"N_COORD97":2575526.2200000002,"ADDRESS":"十美街２１５巷１號","OBJECTID":393265},"geometry":{"x":180297.04000000097,"y":2575526.2200000007}},{"attributes":{"ID":393290,"DIS_CODE":0,"TOWNNAME":"柳營區","LI":"東昇里","LIN":"23鄰","STREET":"十美街","SECT":" ","MAREA":" ","LANE":"２１５巷","ALLEY":" ","HOUSE_NO":"２０號","E_COORD97":180283.20000000001,"N_COORD97":2575452.0699999998,"ADDRESS":"十美街２１５巷２０號","OBJECTID":393266},"geometry":{"x":180283.20000000019,"y":2575452.0700000003}},{"attributes":{"ID":393291,"DIS_CODE":0,"TOWNNAME":"柳營區","LI":"東昇里","LIN":"23鄰","STREET":"十美街","SECT":" ","MAREA":" ","LANE":"２１５巷","ALLEY":" ","HOUSE_NO":"２號","E_COORD97":180276.39999999999,"N_COORD97":2575521.3500000001,"ADDRESS":"十美街２１５巷２號","OBJECTID":393267},"geometry":{"x":180276.4000000013,"y":2575521.3499999978}},{"attributes":{"ID":393292,"DIS_CODE":0,"TOWNNAME":"柳營區","LI":"東昇里","LIN":"23鄰","STREET":"十美街","SECT":" ","MAREA":" ","LANE":"２１５巷","ALLEY":" ","HOUSE_NO":"３號","E_COORD97":180298.26000000001,"N_COORD97":2575516.5699999998,"ADDRESS":"十美街２１５巷３號","OBJECTID":393268},"geometry":{"x":180298.26000000071,"y":2575516.5700000003}},{"attributes":{"ID":393293,"DIS_CODE":0,"TOWNNAME":"柳營區","LI":"東昇里","LIN":"23鄰","STREET":"十美街","SECT":" ","MAREA":" ","LANE":"２１５巷","ALLEY":" ","HOUSE_NO":"５號","E_COORD97":180299.47,"N_COORD97":2575506.9199999999,"ADDRESS":"十美街２１５巷５號","OBJECTID":393269},"geometry":{"x":180299.46999999974,"y":2575506.9199999999}},{"attributes":{"ID":393294,"DIS_CODE":0,"TOWNNAME":"柳營區","LI":"東昇里","LIN":"23鄰","STREET":"十美街","SECT":" ","MAREA":" ","LANE":"２１５巷","ALLEY":" ","HOUSE_NO":"６號","E_COORD97":180277.38,"N_COORD97":2575512.2400000002,"ADDRESS":"十美街２１５巷６號","OBJECTID":393270},"geometry":{"x":180277.38000000082,"y":2575512.2400000002}},{"attributes":{"ID":393295,"DIS_CODE":0,"TOWNNAME":"柳營區","LI":"東昇里","LIN":"23鄰","STREET":"十美街","SECT":" ","MAREA":" ","LANE":"２１５巷","ALLEY":" ","HOUSE_NO":"７號","E_COORD97":180300.69,"N_COORD97":2575497.27,"ADDRESS":"十美街２１５巷７號","OBJECTID":393271},"geometry":{"x":180300.69000000041,"y":2575497.2699999996}},{"attributes":{"ID":393296,"DIS_CODE":0,"TOWNNAME":"柳營區","LI":"東昇里","LIN":"23鄰","STREET":"十美街","SECT":" ","MAREA":" ","LANE":"２１５巷","ALLEY":" ","HOUSE_NO":"８號","E_COORD97":180278.37,"N_COORD97":2575503.1400000001,"ADDRESS":"十美街２１５巷８號","OBJECTID":393272},"geometry":{"x":180278.37000000011,"y":2575503.1400000006}},{"attributes":{"ID":393297,"DIS_CODE":0,"TOWNNAME":"新營區","LI":"新北里","LIN":"23鄰","STREET":"民生路","SECT":" ","MAREA":" ","LANE":"３８６巷","ALLEY":" ","HOUSE_NO":"３１號","E_COORD97":178906.12,"N_COORD97":2579345.3999999999,"ADDRESS":"民生路３８６巷３１號","OBJECTID":393273},"geometry":{"x":178906.12000000104,"y":2579345.4000000004}},{"attributes":{"ID":393298,"DIS_CODE":0,"TOWNNAME":"永康區","LI":"二王里","LIN":"12鄰","STREET":"永二街","SECT":" ","MAREA":" ","LANE":"４４７巷","ALLEY":" ","HOUSE_NO":"６號","E_COORD97":172714.44,"N_COORD97":2546623.52,"ADDRESS":"永二街４４７巷６號","OBJECTID":393274},"geometry":{"x":172714.44000000041,"y":2546623.5199999996}},{"attributes":{"ID":393299,"DIS_CODE":0,"TOWNNAME":"永康區","LI":"二王里","LIN":"29鄰","STREET":"中山南路","SECT":" ","MAREA":" ","LANE":"５４４巷","ALLEY":" ","HOUSE_NO":"１５號","E_COORD97":172231.64000000001,"N_COORD97":2546541.4399999999,"ADDRESS":"中山南路５４４巷１５號","OBJECTID":393275},"geometry":{"x":172231.6400000006,"y":2546541.4400000013}},{"attributes":{"ID":393300,"DIS_CODE":0,"TOWNNAME":"永康區","LI":"二王里","LIN":"25鄰","STREET":"中山南路","SECT":" ","MAREA":" ","LANE":"５４４巷","ALLEY":" ","HOUSE_NO":"９７號","E_COORD97":172332.26000000001,"N_COORD97":2546253.7400000002,"ADDRESS":"中山南路５４４巷９７號","OBJECTID":393276},"geometry":{"x":172332.26000000164,"y":2546253.7400000039}},{"attributes":{"ID":393301,"DIS_CODE":0,"TOWNNAME":"永康區","LI":"二王里","LIN":"12鄰","STREET":"永二街","SECT":" ","MAREA":" ","LANE":"４４７巷","ALLEY":" ","HOUSE_NO":"２１號","E_COORD97":172737.60000000001,"N_COORD97":2546589.7000000002,"ADDRESS":"永二街４４７巷２１號","OBJECTID":393277},"geometry":{"x":172737.59999999963,"y":2546589.7000000011}},{"attributes":{"ID":393302,"DIS_CODE":0,"TOWNNAME":"北區","LI":"文元里","LIN":"23鄰","STREET":"文成三路","SECT":" ","MAREA":" ","LANE":"６８２巷","ALLEY":" ","HOUSE_NO":"７８號","E_COORD97":167943.57999999999,"N_COORD97":2546445.1600000001,"ADDRESS":"文成三路６８２巷７８號","OBJECTID":393278},"geometry":{"x":167943.58000000101,"y":2546445.160000002}},{"attributes":{"ID":393303,"DIS_CODE":0,"TOWNNAME":"北區","LI":"文元里","LIN":"23鄰","STREET":"文成三路","SECT":" ","MAREA":" ","LANE":"６８２巷","ALLEY":" ","HOUSE_NO":"７６號","E_COORD97":167943.70999999999,"N_COORD97":2546440.9700000002,"ADDRESS":"文成三路６８２巷７６號","OBJECTID":393279},"geometry":{"x":167943.70999999996,"y":2546440.9700000007}},{"attributes":{"ID":393304,"DIS_CODE":0,"TOWNNAME":"北區","LI":"文元里","LIN":"23鄰","STREET":"文賢三街","SECT":" ","MAREA":" ","LANE":"３２０巷","ALLEY":" ","HOUSE_NO":"１２號","E_COORD97":167850.70999999999,"N_COORD97":2546324.6000000001,"ADDRESS":"文賢三街３２０巷１２號","OBJECTID":393280},"geometry":{"x":167850.71000000183,"y":2546324.5999999996}},{"attributes":{"ID":393305,"DIS_CODE":0,"TOWNNAME":"北區","LI":"文元里","LIN":"23鄰","STREET":"文賢三街","SECT":" ","MAREA":" ","LANE":"３２０巷","ALLEY":" ","HOUSE_NO":"２６號","E_COORD97":167868.48999999999,"N_COORD97":2546325.3599999999,"ADDRESS":"文賢三街３２０巷２６號","OBJECTID":393281},"geometry":{"x":167868.49000000115,"y":2546325.3599999994}},{"attributes":{"ID":393306,"DIS_CODE":0,"TOWNNAME":"北區","LI":"文元里","LIN":"23鄰","STREET":"文賢三街","SECT":" ","MAREA":" ","LANE":"３２０巷","ALLEY":" ","HOUSE_NO":"３０號","E_COORD97":167878.64999999999,"N_COORD97":2546326.3700000001,"ADDRESS":"文賢三街３２０巷３０號","OBJECTID":393282},"geometry":{"x":167878.64999999944,"y":2546326.3700000029}},{"attributes":{"ID":393307,"DIS_CODE":0,"TOWNNAME":"北區","LI":"文元里","LIN":"23鄰","STREET":"文賢路","SECT":" ","MAREA":" ","LANE":"１１２２巷","ALLEY":" ","HOUSE_NO":"２８６號","E_COORD97":167941.35999999999,"N_COORD97":2546459.2000000002,"ADDRESS":"文賢路１１２２巷２８６號","OBJECTID":393283},"geometry":{"x":167941.36000000034,"y":2546459.1999999993}},{"attributes":{"ID":393308,"DIS_CODE":0,"TOWNNAME":"永康區","LI":"大橋里","LIN":"23鄰","STREET":"大橋一街","SECT":" ","MAREA":" ","LANE":"１８１巷","ALLEY":" ","HOUSE_NO":"１６號六樓之１","E_COORD97":171156.37,"N_COORD97":2546593.29,"ADDRESS":"大橋一街１８１巷１６號六樓之１","OBJECTID":393284},"geometry":{"x":171156.37000000011,"y":2546593.2899999991}},{"attributes":{"ID":393309,"DIS_CODE":0,"TOWNNAME":"永康區","LI":"大橋里","LIN":"23鄰","STREET":"大橋一街","SECT":" ","MAREA":" ","LANE":"１８１巷","ALLEY":" ","HOUSE_NO":"１６號六樓之３","E_COORD97":171156.47,"N_COORD97":2546593.29,"ADDRESS":"大橋一街１８１巷１６號六樓之３","OBJECTID":393285},"geometry":{"x":171156.47000000067,"y":2546593.2899999991}},{"attributes":{"ID":393310,"DIS_CODE":0,"TOWNNAME":"永康區","LI":"大橋里","LIN":"23鄰","STREET":"大橋一街","SECT":" ","MAREA":" ","LANE":"１８１巷","ALLEY":" ","HOUSE_NO":"１６號三樓之２","E_COORD97":171156.51000000001,"N_COORD97":2546593.29,"ADDRESS":"大橋一街１８１巷１６號三樓之２","OBJECTID":393286},"geometry":{"x":171156.51000000071,"y":2546593.2899999991}},{"attributes":{"ID":393311,"DIS_CODE":0,"TOWNNAME":"永康區","LI":"大橋里","LIN":"23鄰","STREET":"大橋一街","SECT":" ","MAREA":" ","LANE":"１８１巷","ALLEY":" ","HOUSE_NO":"１６號五樓之２","E_COORD97":171156.51000000001,"N_COORD97":2546593.29,"ADDRESS":"大橋一街１８１巷１６號五樓之２","OBJECTID":393287},"geometry":{"x":171156.51000000071,"y":2546593.2899999991}},{"attributes":{"ID":393312,"DIS_CODE":0,"TOWNNAME":"永康區","LI":"大橋里","LIN":"23鄰","STREET":"大橋一街","SECT":" ","MAREA":" ","LANE":"１８１巷","ALLEY":" ","HOUSE_NO":"１６號五樓之３","E_COORD97":171156.47,"N_COORD97":2546593.29,"ADDRESS":"大橋一街１８１巷１６號五樓之３","OBJECTID":393288},"geometry":{"x":171156.47000000067,"y":2546593.2899999991}},{"attributes":{"ID":393313,"DIS_CODE":0,"TOWNNAME":"永康區","LI":"大橋里","LIN":"23鄰","STREET":"大橋一街","SECT":" ","MAREA":" ","LANE":"１８１巷","ALLEY":" ","HOUSE_NO":"１６號四樓之３","E_COORD97":171156.47,"N_COORD97":2546593.29,"ADDRESS":"大橋一街１８１巷１６號四樓之３","OBJECTID":393289},"geometry":{"x":171156.47000000067,"y":2546593.2899999991}},{"attributes":{"ID":393314,"DIS_CODE":0,"TOWNNAME":"永康區","LI":"大橋里","LIN":"23鄰","STREET":"大橋一街","SECT":" ","MAREA":" ","LANE":"１８１巷","ALLEY":" ","HOUSE_NO":"１６號三樓之１","E_COORD97":171156.37,"N_COORD97":2546593.29,"ADDRESS":"大橋一街１８１巷１６號三樓之１","OBJECTID":393290},"geometry":{"x":171156.37000000011,"y":2546593.2899999991}},{"attributes":{"ID":393315,"DIS_CODE":0,"TOWNNAME":"永康區","LI":"大橋里","LIN":"23鄰","STREET":"大橋一街","SECT":" ","MAREA":" ","LANE":"１８１巷","ALLEY":" ","HOUSE_NO":"１６號二樓之２","E_COORD97":171156.51000000001,"N_COORD97":2546593.29,"ADDRESS":"大橋一街１８１巷１６號二樓之２","OBJECTID":393291},"geometry":{"x":171156.51000000071,"y":2546593.2899999991}},{"attributes":{"ID":393316,"DIS_CODE":0,"TOWNNAME":"永康區","LI":"崑山里","LIN":"23鄰","STREET":"崑山街","SECT":" ","MAREA":" ","LANE":"６３巷","ALLEY":" ","HOUSE_NO":"２７號四樓","E_COORD97":173867.41,"N_COORD97":2544673.7599999998,"ADDRESS":"崑山街６３巷２７號四樓","OBJECTID":393292},"geometry":{"x":173867.40999999922,"y":2544673.7600000016}},{"attributes":{"ID":393317,"DIS_CODE":0,"TOWNNAME":"永康區","LI":"西橋里","LIN":"13鄰","STREET":"大橋一街","SECT":" ","MAREA":" ","LANE":"３１巷","ALLEY":" ","HOUSE_NO":"３號","E_COORD97":170575.32000000001,"N_COORD97":2546246.75,"ADDRESS":"大橋一街３１巷３號","OBJECTID":393293},"geometry":{"x":170575.32000000123,"y":2546246.7500000037}},{"attributes":{"ID":393318,"DIS_CODE":0,"TOWNNAME":"永康區","LI":"三民里","LIN":"8鄰","STREET":"永安路","SECT":" ","MAREA":" ","LANE":"３６３巷","ALLEY":" ","HOUSE_NO":"１２５號","E_COORD97":171550.17999999999,"N_COORD97":2549704.7000000002,"ADDRESS":"永安路３６３巷１２５號","OBJECTID":393294},"geometry":{"x":171550.18000000063,"y":2549704.7000000011}},{"attributes":{"ID":393319,"DIS_CODE":0,"TOWNNAME":"永康區","LI":"大橋里","LIN":"23鄰","STREET":"大橋一街","SECT":" ","MAREA":" ","LANE":"１８１巷","ALLEY":" ","HOUSE_NO":"１６號四樓之２","E_COORD97":171156.51000000001,"N_COORD97":2546593.29,"ADDRESS":"大橋一街１８１巷１６號四樓之２","OBJECTID":393295},"geometry":{"x":171156.51000000071,"y":2546593.2899999991}},{"attributes":{"ID":393320,"DIS_CODE":0,"TOWNNAME":"永康區","LI":"大橋里","LIN":"23鄰","STREET":"大橋一街","SECT":" ","MAREA":" ","LANE":"１８１巷","ALLEY":" ","HOUSE_NO":"１６號六樓之２","E_COORD97":171156.51000000001,"N_COORD97":2546593.29,"ADDRESS":"大橋一街１８１巷１６號六樓之２","OBJECTID":393296},"geometry":{"x":171156.51000000071,"y":2546593.2899999991}},{"attributes":{"ID":393321,"DIS_CODE":0,"TOWNNAME":"永康區","LI":"大橋里","LIN":"23鄰","STREET":"大橋一街","SECT":" ","MAREA":" ","LANE":"１８１巷","ALLEY":" ","HOUSE_NO":"１６號二樓之１","E_COORD97":171156.37,"N_COORD97":2546593.29,"ADDRESS":"大橋一街１８１巷１６號二樓之１","OBJECTID":393297},"geometry":{"x":171156.37000000011,"y":2546593.2899999991}},{"attributes":{"ID":393322,"DIS_CODE":0,"TOWNNAME":"永康區","LI":"大橋里","LIN":"23鄰","STREET":"大橋一街","SECT":" ","MAREA":" ","LANE":"１８１巷","ALLEY":" ","HOUSE_NO":"１６號五樓之５","E_COORD97":171156.53,"N_COORD97":2546593.29,"ADDRESS":"大橋一街１８１巷１６號五樓之５","OBJECTID":393298},"geometry":{"x":171156.53000000119,"y":2546593.2899999991}},{"attributes":{"ID":393323,"DIS_CODE":0,"TOWNNAME":"永康區","LI":"崑山里","LIN":"23鄰","STREET":"崑山街","SECT":" ","MAREA":" ","LANE":"６３巷","ALLEY":" ","HOUSE_NO":"２７號三樓","E_COORD97":173867.41,"N_COORD97":2544673.7599999998,"ADDRESS":"崑山街６３巷２７號三樓","OBJECTID":393299},"geometry":{"x":173867.40999999922,"y":2544673.7600000016}},{"attributes":{"ID":393324,"DIS_CODE":0,"TOWNNAME":"永康區","LI":"網寮里","LIN":"23鄰","STREET":"文化路","SECT":" ","MAREA":" ","LANE":"１２８巷","ALLEY":" ","HOUSE_NO":"２號七樓之２","E_COORD97":173906.66,"N_COORD97":2546255.75,"ADDRESS":"文化路１２８巷２號七樓之２","OBJECTID":393300},"geometry":{"x":173906.66000000108,"y":2546255.75}},{"attributes":{"ID":393325,"DIS_CODE":0,"TOWNNAME":"永康區","LI":"網寮里","LIN":"23鄰","STREET":"文化路","SECT":" ","MAREA":" ","LANE":"１２８巷","ALLEY":" ","HOUSE_NO":"４號五樓之３","E_COORD97":173903.48999999999,"N_COORD97":2546260,"ADDRESS":"文化路１２８巷４號五樓之３","OBJECTID":393301},"geometry":{"x":173903.49000000115,"y":2546260.0000000019}},{"attributes":{"ID":393326,"DIS_CODE":0,"TOWNNAME":"永康區","LI":"網寮里","LIN":"23鄰","STREET":"文化路","SECT":" ","MAREA":" ","LANE":"１２８巷","ALLEY":" ","HOUSE_NO":"２號三樓之１０","E_COORD97":173907.82999999999,"N_COORD97":2546255.75,"ADDRESS":"文化路１２８巷２號三樓之１０","OBJECTID":393302},"geometry":{"x":173907.83000000007,"y":2546255.75}},{"attributes":{"ID":393327,"DIS_CODE":0,"TOWNNAME":"永康區","LI":"網寮里","LIN":"23鄰","STREET":"文化路","SECT":" ","MAREA":" ","LANE":"１２８巷","ALLEY":" ","HOUSE_NO":"４號六樓之６","E_COORD97":173903.5,"N_COORD97":2546260,"ADDRESS":"文化路１２８巷４號六樓之６","OBJECTID":393303},"geometry":{"x":173903.5,"y":2546260.0000000019}},{"attributes":{"ID":393328,"DIS_CODE":0,"TOWNNAME":"永康區","LI":"網寮里","LIN":"23鄰","STREET":"文化路","SECT":" ","MAREA":" ","LANE":"１２８巷","ALLEY":" ","HOUSE_NO":"２號五樓之２","E_COORD97":173906.66,"N_COORD97":2546255.75,"ADDRESS":"文化路１２８巷２號五樓之２","OBJECTID":393304},"geometry":{"x":173906.66000000108,"y":2546255.75}},{"attributes":{"ID":393329,"DIS_CODE":0,"TOWNNAME":"永康區","LI":"網寮里","LIN":"23鄰","STREET":"文化路","SECT":" ","MAREA":" ","LANE":"１２８巷","ALLEY":" ","HOUSE_NO":"４號六樓之４","E_COORD97":173903.42000000001,"N_COORD97":2546260,"ADDRESS":"文化路１２８巷４號六樓之４","OBJECTID":393305},"geometry":{"x":173903.42000000086,"y":2546260.0000000019}},{"attributes":{"ID":393330,"DIS_CODE":0,"TOWNNAME":"永康區","LI":"二王里","LIN":"18鄰","STREET":"中山南路","SECT":" ","MAREA":" ","LANE":"６４４巷","ALLEY":" ","HOUSE_NO":"１３號","E_COORD97":172405.42000000001,"N_COORD97":2546642.3799999999,"ADDRESS":"中山南路６４４巷１３號","OBJECTID":393306},"geometry":{"x":172405.41999999993,"y":2546642.3800000008}},{"attributes":{"ID":393331,"DIS_CODE":0,"TOWNNAME":"永康區","LI":"網寮里","LIN":"23鄰","STREET":"文化路","SECT":" ","MAREA":" ","LANE":"１２８巷","ALLEY":" ","HOUSE_NO":"２號七樓之１","E_COORD97":173906.53,"N_COORD97":2546255.75,"ADDRESS":"文化路１２８巷２號七樓之１","OBJECTID":393307},"geometry":{"x":173906.53000000119,"y":2546255.75}},{"attributes":{"ID":393332,"DIS_CODE":0,"TOWNNAME":"永康區","LI":"網寮里","LIN":"23鄰","STREET":"文化路","SECT":" ","MAREA":" ","LANE":"１２８巷","ALLEY":" ","HOUSE_NO":"２號四樓之２","E_COORD97":173906.66,"N_COORD97":2546255.75,"ADDRESS":"文化路１２８巷２號四樓之２","OBJECTID":393308},"geometry":{"x":173906.66000000108,"y":2546255.75}},{"attributes":{"ID":393333,"DIS_CODE":0,"TOWNNAME":"永康區","LI":"網寮里","LIN":"23鄰","STREET":"文化路","SECT":" ","MAREA":" ","LANE":"１２８巷","ALLEY":" ","HOUSE_NO":"２號三樓之１３","E_COORD97":173907.87,"N_COORD97":2546255.75,"ADDRESS":"文化路１２８巷２號三樓之１３","OBJECTID":393309},"geometry":{"x":173907.87000000011,"y":2546255.75}},{"attributes":{"ID":393334,"DIS_CODE":0,"TOWNNAME":"永康區","LI":"網寮里","LIN":"23鄰","STREET":"文化路","SECT":" ","MAREA":" ","LANE":"１２８巷","ALLEY":" ","HOUSE_NO":"２號三樓之１２","E_COORD97":173907.91,"N_COORD97":2546255.75,"ADDRESS":"文化路１２８巷２號三樓之１２","OBJECTID":393310},"geometry":{"x":173907.91000000015,"y":2546255.75}},{"attributes":{"ID":393335,"DIS_CODE":0,"TOWNNAME":"永康區","LI":"二王里","LIN":"2鄰","STREET":"永二街","SECT":" ","MAREA":" ","LANE":"２８８巷","ALLEY":" ","HOUSE_NO":"９號","E_COORD97":173088.97,"N_COORD97":2546549.9199999999,"ADDRESS":"永二街２８８巷９號","OBJECTID":393311},"geometry":{"x":173088.97000000067,"y":2546549.9199999999}},{"attributes":{"ID":393336,"DIS_CODE":0,"TOWNNAME":"永康區","LI":"二王里","LIN":"7鄰","STREET":"永二街","SECT":" ","MAREA":" ","LANE":"４０４巷","ALLEY":" ","HOUSE_NO":"１號","E_COORD97":172763.16,"N_COORD97":2546693.79,"ADDRESS":"永二街４０４巷１號","OBJECTID":393312},"geometry":{"x":172763.16000000015,"y":2546693.790000001}},{"attributes":{"ID":393337,"DIS_CODE":0,"TOWNNAME":"永康區","LI":"崑山里","LIN":"23鄰","STREET":"崑山街","SECT":" ","MAREA":" ","LANE":"６３巷","ALLEY":" ","HOUSE_NO":"２７號二樓","E_COORD97":173867.41,"N_COORD97":2544673.7599999998,"ADDRESS":"崑山街６３巷２７號二樓","OBJECTID":393313},"geometry":{"x":173867.40999999922,"y":2544673.7600000016}},{"attributes":{"ID":393338,"DIS_CODE":0,"TOWNNAME":"東區","LI":"大同里","LIN":"23鄰","STREET":"大同路","SECT":"一段","MAREA":" ","LANE":"２４１巷","ALLEY":" ","HOUSE_NO":"５１號二樓","E_COORD97":169216.10999999999,"N_COORD97":2542657.3900000001,"ADDRESS":"大同路一段２４１巷５１號二樓","OBJECTID":393314},"geometry":{"x":169216.11000000034,"y":2542657.3900000025}},{"attributes":{"ID":393339,"DIS_CODE":0,"TOWNNAME":"東區","LI":"大同里","LIN":"23鄰","STREET":"大同路","SECT":"一段","MAREA":" ","LANE":"２４１巷","ALLEY":" ","HOUSE_NO":"５１號三樓","E_COORD97":169216.10999999999,"N_COORD97":2542657.3900000001,"ADDRESS":"大同路一段２４１巷５１號三樓","OBJECTID":393315},"geometry":{"x":169216.11000000034,"y":2542657.3900000025}},{"attributes":{"ID":393340,"DIS_CODE":0,"TOWNNAME":"東區","LI":"大同里","LIN":"23鄰","STREET":"大同路","SECT":"一段","MAREA":" ","LANE":"２４１巷","ALLEY":" ","HOUSE_NO":"５１號五樓","E_COORD97":169216.10999999999,"N_COORD97":2542657.3900000001,"ADDRESS":"大同路一段２４１巷５１號五樓","OBJECTID":393316},"geometry":{"x":169216.11000000034,"y":2542657.3900000025}},{"attributes":{"ID":393341,"DIS_CODE":0,"TOWNNAME":"下營區","LI":"營前里","LIN":"23鄰","STREET":"忠孝街","SECT":" ","MAREA":" ","LANE":"２６巷","ALLEY":" ","HOUSE_NO":"８號","E_COORD97":174664.89000000001,"N_COORD97":2569845.27,"ADDRESS":"忠孝街２６巷８號","OBJECTID":393317},"geometry":{"x":174664.88999999966,"y":2569845.2699999996}},{"attributes":{"ID":393342,"DIS_CODE":0,"TOWNNAME":"東區","LI":"大同里","LIN":"23鄰","STREET":"大同路","SECT":"一段","MAREA":" ","LANE":"２４１巷","ALLEY":" ","HOUSE_NO":"５１號四樓","E_COORD97":169216.10999999999,"N_COORD97":2542657.3900000001,"ADDRESS":"大同路一段２４１巷５１號四樓","OBJECTID":393318},"geometry":{"x":169216.11000000034,"y":2542657.3900000025}},{"attributes":{"ID":393343,"DIS_CODE":0,"TOWNNAME":"東區","LI":"大同里","LIN":"23鄰","STREET":"大同路","SECT":"一段","MAREA":" ","LANE":"２４１巷","ALLEY":" ","HOUSE_NO":"５３號二樓","E_COORD97":169223.26000000001,"N_COORD97":2542653.7400000002,"ADDRESS":"大同路一段２４１巷５３號二樓","OBJECTID":393319},"geometry":{"x":169223.25999999885,"y":2542653.7400000021}},{"attributes":{"ID":393344,"DIS_CODE":0,"TOWNNAME":"東區","LI":"大同里","LIN":"23鄰","STREET":"大同路","SECT":"一段","MAREA":" ","LANE":"２４１巷","ALLEY":" ","HOUSE_NO":"５３號三樓","E_COORD97":169223.26000000001,"N_COORD97":2542653.7400000002,"ADDRESS":"大同路一段２４１巷５３號三樓","OBJECTID":393320},"geometry":{"x":169223.25999999885,"y":2542653.7400000021}},{"attributes":{"ID":393345,"DIS_CODE":0,"TOWNNAME":"東區","LI":"大同里","LIN":"23鄰","STREET":"大同路","SECT":"一段","MAREA":" ","LANE":"２４１巷","ALLEY":" ","HOUSE_NO":"５３號五樓","E_COORD97":169223.26000000001,"N_COORD97":2542653.7400000002,"ADDRESS":"大同路一段２４１巷５３號五樓","OBJECTID":393321},"geometry":{"x":169223.25999999885,"y":2542653.7400000021}},{"attributes":{"ID":393346,"DIS_CODE":0,"TOWNNAME":"東區","LI":"大同里","LIN":"23鄰","STREET":"大同路","SECT":"一段","MAREA":" ","LANE":"２４１巷","ALLEY":" ","HOUSE_NO":"５３號四樓","E_COORD97":169223.26000000001,"N_COORD97":2542653.7400000002,"ADDRESS":"大同路一段２４１巷５３號四樓","OBJECTID":393322},"geometry":{"x":169223.25999999885,"y":2542653.7400000021}},{"attributes":{"ID":393347,"DIS_CODE":0,"TOWNNAME":"東區","LI":"大同里","LIN":"23鄰","STREET":"大同路","SECT":"一段","MAREA":" ","LANE":"２４１巷","ALLEY":" ","HOUSE_NO":"５５號二樓","E_COORD97":169226.60999999999,"N_COORD97":2542659.6699999999,"ADDRESS":"大同路一段２４１巷５５號二樓","OBJECTID":393323},"geometry":{"x":169226.6100000022,"y":2542659.6699999999}},{"attributes":{"ID":393348,"DIS_CODE":0,"TOWNNAME":"東區","LI":"大同里","LIN":"23鄰","STREET":"大同路","SECT":"一段","MAREA":" ","LANE":"２４１巷","ALLEY":" ","HOUSE_NO":"５５號三樓","E_COORD97":169226.60999999999,"N_COORD97":2542659.6699999999,"ADDRESS":"大同路一段２４１巷５５號三樓","OBJECTID":393324},"geometry":{"x":169226.6100000022,"y":2542659.6699999999}},{"attributes":{"ID":393349,"DIS_CODE":0,"TOWNNAME":"東區","LI":"大同里","LIN":"23鄰","STREET":"大同路","SECT":"一段","MAREA":" ","LANE":"２４１巷","ALLEY":" ","HOUSE_NO":"５５號五樓","E_COORD97":169226.60999999999,"N_COORD97":2542659.6699999999,"ADDRESS":"大同路一段２４１巷５５號五樓","OBJECTID":393325},"geometry":{"x":169226.6100000022,"y":2542659.6699999999}},{"attributes":{"ID":393350,"DIS_CODE":0,"TOWNNAME":"東區","LI":"大同里","LIN":"23鄰","STREET":"大同路","SECT":"一段","MAREA":" ","LANE":"２４１巷","ALLEY":" ","HOUSE_NO":"５５號四樓","E_COORD97":169226.60999999999,"N_COORD97":2542659.6699999999,"ADDRESS":"大同路一段２４１巷５５號四樓","OBJECTID":393326},"geometry":{"x":169226.6100000022,"y":2542659.6699999999}},{"attributes":{"ID":393351,"DIS_CODE":0,"TOWNNAME":"東區","LI":"大同里","LIN":"23鄰","STREET":"大同路","SECT":"一段","MAREA":" ","LANE":"２４１巷","ALLEY":" ","HOUSE_NO":"５７號二樓之１","E_COORD97":169231.41,"N_COORD97":2542672.2599999998,"ADDRESS":"大同路一段２４１巷５７號二樓之１","OBJECTID":393327},"geometry":{"x":169231.41000000108,"y":2542672.2599999998}},{"attributes":{"ID":393352,"DIS_CODE":0,"TOWNNAME":"東區","LI":"大同里","LIN":"23鄰","STREET":"大同路","SECT":"一段","MAREA":" ","LANE":"２４１巷","ALLEY":" ","HOUSE_NO":"５７號三樓","E_COORD97":169231.41,"N_COORD97":2542672.2599999998,"ADDRESS":"大同路一段２４１巷５７號三樓","OBJECTID":393328},"geometry":{"x":169231.41000000108,"y":2542672.2599999998}},{"attributes":{"ID":393353,"DIS_CODE":0,"TOWNNAME":"東區","LI":"大同里","LIN":"23鄰","STREET":"大同路","SECT":"一段","MAREA":" ","LANE":"２４１巷","ALLEY":" ","HOUSE_NO":"５７號五樓之１","E_COORD97":169231.41,"N_COORD97":2542672.2599999998,"ADDRESS":"大同路一段２４１巷５７號五樓之１","OBJECTID":393329},"geometry":{"x":169231.41000000108,"y":2542672.2599999998}},{"attributes":{"ID":393354,"DIS_CODE":0,"TOWNNAME":"東區","LI":"大同里","LIN":"23鄰","STREET":"大同路","SECT":"一段","MAREA":" ","LANE":"２４１巷","ALLEY":" ","HOUSE_NO":"５７號五樓之２","E_COORD97":169231.41,"N_COORD97":2542672.2599999998,"ADDRESS":"大同路一段２４１巷５７號五樓之２","OBJECTID":393330},"geometry":{"x":169231.41000000108,"y":2542672.2599999998}},{"attributes":{"ID":393355,"DIS_CODE":0,"TOWNNAME":"永康區","LI":"網寮里","LIN":"23鄰","STREET":"文化路","SECT":" ","MAREA":" ","LANE":"１２８巷","ALLEY":" ","HOUSE_NO":"４號六樓之５","E_COORD97":173903.54999999999,"N_COORD97":2546260,"ADDRESS":"文化路１２８巷４號六樓之５","OBJECTID":393331},"geometry":{"x":173903.55000000168,"y":2546260.0000000019}},{"attributes":{"ID":393356,"DIS_CODE":0,"TOWNNAME":"東區","LI":"大同里","LIN":"23鄰","STREET":"大同路","SECT":"一段","MAREA":" ","LANE":"２４１巷","ALLEY":" ","HOUSE_NO":"５７號四樓","E_COORD97":169231.41,"N_COORD97":2542672.2599999998,"ADDRESS":"大同路一段２４１巷５７號四樓","OBJECTID":393332},"geometry":{"x":169231.41000000108,"y":2542672.2599999998}},{"attributes":{"ID":393357,"DIS_CODE":0,"TOWNNAME":"永康區","LI":"網寮里","LIN":"23鄰","STREET":"文化路","SECT":" ","MAREA":" ","LANE":"１２８巷","ALLEY":" ","HOUSE_NO":"４號七樓之６","E_COORD97":173903.5,"N_COORD97":2546260,"ADDRESS":"文化路１２８巷４號七樓之６","OBJECTID":393333},"geometry":{"x":173903.5,"y":2546260.0000000019}},{"attributes":{"ID":393358,"DIS_CODE":0,"TOWNNAME":"永康區","LI":"網寮里","LIN":"23鄰","STREET":"文化路","SECT":" ","MAREA":" ","LANE":"１２８巷","ALLEY":" ","HOUSE_NO":"４號六樓之２","E_COORD97":173903.53,"N_COORD97":2546260,"ADDRESS":"文化路１２８巷４號六樓之２","OBJECTID":393334},"geometry":{"x":173903.53000000026,"y":2546260.0000000019}},{"attributes":{"ID":393359,"DIS_CODE":0,"TOWNNAME":"永康區","LI":"安康里","LIN":"23鄰","STREET":"中華西街","SECT":" ","MAREA":" ","LANE":"１２２巷","ALLEY":" ","HOUSE_NO":"３５號二樓","E_COORD97":170839.85999999999,"N_COORD97":2546236.0099999998,"ADDRESS":"中華西街１２２巷３５號二樓","OBJECTID":393335},"geometry":{"x":170839.86000000034,"y":2546236.0100000016}},{"attributes":{"ID":393360,"DIS_CODE":0,"TOWNNAME":"永康區","LI":"網寮里","LIN":"23鄰","STREET":"文化路","SECT":" ","MAREA":" ","LANE":"１２８巷","ALLEY":" ","HOUSE_NO":"２號四樓之３","E_COORD97":173906.62,"N_COORD97":2546255.75,"ADDRESS":"文化路１２８巷２號四樓之３","OBJECTID":393336},"geometry":{"x":173906.61999999918,"y":2546255.75}},{"attributes":{"ID":393361,"DIS_CODE":0,"TOWNNAME":"永康區","LI":"網寮里","LIN":"23鄰","STREET":"文化路","SECT":" ","MAREA":" ","LANE":"１２８巷","ALLEY":" ","HOUSE_NO":"２號三樓之５","E_COORD97":173906.67999999999,"N_COORD97":2546255.75,"ADDRESS":"文化路１２８巷２號三樓之５","OBJECTID":393337},"geometry":{"x":173906.68000000063,"y":2546255.75}},{"attributes":{"ID":393362,"DIS_CODE":0,"TOWNNAME":"東區","LI":"自強里","LIN":"23鄰","STREET":"富農街","SECT":"一段","MAREA":" ","LANE":"１９１巷","ALLEY":" ","HOUSE_NO":"１０號二樓","E_COORD97":171509.19,"N_COORD97":2542594.8399999999,"ADDRESS":"富農街一段１９１巷１０號二樓","OBJECTID":393338},"geometry":{"x":171509.19000000041,"y":2542594.8400000017}},{"attributes":{"ID":393363,"DIS_CODE":0,"TOWNNAME":"東區","LI":"自強里","LIN":"23鄰","STREET":"富農街","SECT":"一段","MAREA":" ","LANE":"１９１巷","ALLEY":" ","HOUSE_NO":"１０號三樓","E_COORD97":171509.19,"N_COORD97":2542594.8399999999,"ADDRESS":"富農街一段１９１巷１０號三樓","OBJECTID":393339},"geometry":{"x":171509.19000000041,"y":2542594.8400000017}},{"attributes":{"ID":393364,"DIS_CODE":0,"TOWNNAME":"東區","LI":"自強里","LIN":"23鄰","STREET":"富農街","SECT":"一段","MAREA":" ","LANE":"１９１巷","ALLEY":" ","HOUSE_NO":"１０號五樓","E_COORD97":171509.19,"N_COORD97":2542594.8399999999,"ADDRESS":"富農街一段１９１巷１０號五樓","OBJECTID":393340},"geometry":{"x":171509.19000000041,"y":2542594.8400000017}},{"attributes":{"ID":393365,"DIS_CODE":0,"TOWNNAME":"東區","LI":"自強里","LIN":"23鄰","STREET":"富農街","SECT":"一段","MAREA":" ","LANE":"１９１巷","ALLEY":" ","HOUSE_NO":"１０號四樓","E_COORD97":171509.19,"N_COORD97":2542594.8399999999,"ADDRESS":"富農街一段１９１巷１０號四樓","OBJECTID":393341},"geometry":{"x":171509.19000000041,"y":2542594.8400000017}},{"attributes":{"ID":393366,"DIS_CODE":0,"TOWNNAME":"東區","LI":"自強里","LIN":"23鄰","STREET":"富農街","SECT":"一段","MAREA":" ","LANE":"１９１巷","ALLEY":" ","HOUSE_NO":"１２號二樓","E_COORD97":171499.13,"N_COORD97":2542594.0699999998,"ADDRESS":"富農街一段１９１巷１２號二樓","OBJECTID":393342},"geometry":{"x":171499.12999999989,"y":2542594.0700000022}},{"attributes":{"ID":393367,"DIS_CODE":0,"TOWNNAME":"東區","LI":"自強里","LIN":"23鄰","STREET":"富農街","SECT":"一段","MAREA":" ","LANE":"１９１巷","ALLEY":" ","HOUSE_NO":"１２號三樓","E_COORD97":171499.13,"N_COORD97":2542594.0699999998,"ADDRESS":"富農街一段１９１巷１２號三樓","OBJECTID":393343},"geometry":{"x":171499.12999999989,"y":2542594.0700000022}},{"attributes":{"ID":393368,"DIS_CODE":0,"TOWNNAME":"東區","LI":"自強里","LIN":"23鄰","STREET":"富農街","SECT":"一段","MAREA":" ","LANE":"１９１巷","ALLEY":" ","HOUSE_NO":"１２號五樓","E_COORD97":171499.13,"N_COORD97":2542594.0699999998,"ADDRESS":"富農街一段１９１巷１２號五樓","OBJECTID":393344},"geometry":{"x":171499.12999999989,"y":2542594.0700000022}},{"attributes":{"ID":393369,"DIS_CODE":0,"TOWNNAME":"東區","LI":"自強里","LIN":"23鄰","STREET":"富農街","SECT":"一段","MAREA":" ","LANE":"１９１巷","ALLEY":" ","HOUSE_NO":"１２號四樓","E_COORD97":171499.13,"N_COORD97":2542594.0699999998,"ADDRESS":"富農街一段１９１巷１２號四樓","OBJECTID":393345},"geometry":{"x":171499.12999999989,"y":2542594.0700000022}},{"attributes":{"ID":393370,"DIS_CODE":0,"TOWNNAME":"東區","LI":"自強里","LIN":"23鄰","STREET":"富農街","SECT":"一段","MAREA":" ","LANE":"１９１巷","ALLEY":" ","HOUSE_NO":"１４號三樓","E_COORD97":171490.37,"N_COORD97":2542593.8100000001,"ADDRESS":"富農街一段１９１巷１４號三樓","OBJECTID":393346},"geometry":{"x":171490.37000000011,"y":2542593.8100000005}},{"attributes":{"ID":393371,"DIS_CODE":0,"TOWNNAME":"東區","LI":"自強里","LIN":"23鄰","STREET":"富農街","SECT":"一段","MAREA":" ","LANE":"１９１巷","ALLEY":" ","HOUSE_NO":"１４號五樓","E_COORD97":171490.37,"N_COORD97":2542593.8100000001,"ADDRESS":"富農街一段１９１巷１４號五樓","OBJECTID":393347},"geometry":{"x":171490.37000000011,"y":2542593.8100000005}},{"attributes":{"ID":393372,"DIS_CODE":0,"TOWNNAME":"東區","LI":"自強里","LIN":"23鄰","STREET":"富農街","SECT":"一段","MAREA":" ","LANE":"１９１巷","ALLEY":" ","HOUSE_NO":"１４號四樓","E_COORD97":171490.37,"N_COORD97":2542593.8100000001,"ADDRESS":"富農街一段１９１巷１４號四樓","OBJECTID":393348},"geometry":{"x":171490.37000000011,"y":2542593.8100000005}},{"attributes":{"ID":393373,"DIS_CODE":0,"TOWNNAME":"東區","LI":"自強里","LIN":"23鄰","STREET":"富農街","SECT":"一段","MAREA":" ","LANE":"１９１巷","ALLEY":" ","HOUSE_NO":"１６號二樓","E_COORD97":171482.63,"N_COORD97":2542594.0699999998,"ADDRESS":"富農街一段１９１巷１６號二樓","OBJECTID":393349},"geometry":{"x":171482.63000000082,"y":2542594.0700000022}},{"attributes":{"ID":393374,"DIS_CODE":0,"TOWNNAME":"東區","LI":"自強里","LIN":"23鄰","STREET":"富農街","SECT":"一段","MAREA":" ","LANE":"１９１巷","ALLEY":" ","HOUSE_NO":"１６號三樓","E_COORD97":171482.63,"N_COORD97":2542594.0699999998,"ADDRESS":"富農街一段１９１巷１６號三樓","OBJECTID":393350},"geometry":{"x":171482.63000000082,"y":2542594.0700000022}},{"attributes":{"ID":393375,"DIS_CODE":0,"TOWNNAME":"東區","LI":"自強里","LIN":"23鄰","STREET":"富農街","SECT":"一段","MAREA":" ","LANE":"１９１巷","ALLEY":" ","HOUSE_NO":"１６號五樓","E_COORD97":171482.63,"N_COORD97":2542594.0699999998,"ADDRESS":"富農街一段１９１巷１６號五樓","OBJECTID":393351},"geometry":{"x":171482.63000000082,"y":2542594.0700000022}},{"attributes":{"ID":393376,"DIS_CODE":0,"TOWNNAME":"東區","LI":"自強里","LIN":"23鄰","STREET":"富農街","SECT":"一段","MAREA":" ","LANE":"１９１巷","ALLEY":" ","HOUSE_NO":"１６號四樓","E_COORD97":171482.63,"N_COORD97":2542594.0699999998,"ADDRESS":"富農街一段１９１巷１６號四樓","OBJECTID":393352},"geometry":{"x":171482.63000000082,"y":2542594.0700000022}},{"attributes":{"ID":393377,"DIS_CODE":0,"TOWNNAME":"永康區","LI":"三合里","LIN":"6鄰","STREET":"南工街","SECT":" ","MAREA":" ","LANE":"１１４巷","ALLEY":" ","HOUSE_NO":"１號","E_COORD97":172118.98999999999,"N_COORD97":2545762.0699999998,"ADDRESS":"南工街１１４巷１號","OBJECTID":393353},"geometry":{"x":172118.99000000022,"y":2545762.0700000003}},{"attributes":{"ID":393378,"DIS_CODE":0,"TOWNNAME":"東區","LI":"自強里","LIN":"23鄰","STREET":"富農街","SECT":"一段","MAREA":" ","LANE":"１９１巷","ALLEY":" ","HOUSE_NO":"４號七樓","E_COORD97":171530.84,"N_COORD97":2542591.23,"ADDRESS":"富農街一段１９１巷４號七樓","OBJECTID":393354},"geometry":{"x":171530.84000000078,"y":2542591.2300000004}},{"attributes":{"ID":393379,"DIS_CODE":0,"TOWNNAME":"東區","LI":"崇文里","LIN":"13鄰","STREET":"崇德十九街","SECT":" ","MAREA":" ","LANE":" ","ALLEY":" ","HOUSE_NO":"４３號","E_COORD97":170956.57000000001,"N_COORD97":2540988.3900000001,"ADDRESS":"崇德十九街４３號","OBJECTID":393355},"geometry":{"x":170956.57000000123,"y":2540988.3900000025}},{"attributes":{"ID":393380,"DIS_CODE":0,"TOWNNAME":"東區","LI":"自強里","LIN":"23鄰","STREET":"富農街","SECT":"一段","MAREA":" ","LANE":"１９１巷","ALLEY":" ","HOUSE_NO":"４號九樓","E_COORD97":171530.84,"N_COORD97":2542591.23,"ADDRESS":"富農街一段１９１巷４號九樓","OBJECTID":393356},"geometry":{"x":171530.84000000078,"y":2542591.2300000004}},{"attributes":{"ID":393381,"DIS_CODE":0,"TOWNNAME":"東區","LI":"自強里","LIN":"23鄰","STREET":"富農街","SECT":"一段","MAREA":" ","LANE":"１９１巷","ALLEY":" ","HOUSE_NO":"４號八樓","E_COORD97":171530.84,"N_COORD97":2542591.23,"ADDRESS":"富農街一段１９１巷４號八樓","OBJECTID":393357},"geometry":{"x":171530.84000000078,"y":2542591.2300000004}},{"attributes":{"ID":393382,"DIS_CODE":0,"TOWNNAME":"東區","LI":"自強里","LIN":"23鄰","STREET":"富農街","SECT":"一段","MAREA":" ","LANE":"１９１巷","ALLEY":" ","HOUSE_NO":"４號十一樓","E_COORD97":171530.84,"N_COORD97":2542591.23,"ADDRESS":"富農街一段１９１巷４號十一樓","OBJECTID":393358},"geometry":{"x":171530.84000000078,"y":2542591.2300000004}},{"attributes":{"ID":393383,"DIS_CODE":0,"TOWNNAME":"東區","LI":"自強里","LIN":"23鄰","STREET":"富農街","SECT":"一段","MAREA":" ","LANE":"１９１巷","ALLEY":" ","HOUSE_NO":"４號三樓","E_COORD97":171530.84,"N_COORD97":2542591.23,"ADDRESS":"富農街一段１９１巷４號三樓","OBJECTID":393359},"geometry":{"x":171530.84000000078,"y":2542591.2300000004}},{"attributes":{"ID":393384,"DIS_CODE":0,"TOWNNAME":"東區","LI":"自強里","LIN":"23鄰","STREET":"富農街","SECT":"一段","MAREA":" ","LANE":"１９１巷","ALLEY":" ","HOUSE_NO":"４號五樓","E_COORD97":171530.84,"N_COORD97":2542591.23,"ADDRESS":"富農街一段１９１巷４號五樓","OBJECTID":393360},"geometry":{"x":171530.84000000078,"y":2542591.2300000004}},{"attributes":{"ID":393385,"DIS_CODE":0,"TOWNNAME":"東區","LI":"自強里","LIN":"23鄰","STREET":"富農街","SECT":"一段","MAREA":" ","LANE":"１９１巷","ALLEY":" ","HOUSE_NO":"４號六樓","E_COORD97":171530.84,"N_COORD97":2542591.23,"ADDRESS":"富農街一段１９１巷４號六樓","OBJECTID":393361},"geometry":{"x":171530.84000000078,"y":2542591.2300000004}},{"attributes":{"ID":393386,"DIS_CODE":0,"TOWNNAME":"東區","LI":"自強里","LIN":"23鄰","STREET":"富農街","SECT":"一段","MAREA":" ","LANE":"１９１巷","ALLEY":" ","HOUSE_NO":"４號四樓","E_COORD97":171530.84,"N_COORD97":2542591.23,"ADDRESS":"富農街一段１９１巷４號四樓","OBJECTID":393362},"geometry":{"x":171530.84000000078,"y":2542591.2300000004}},{"attributes":{"ID":393387,"DIS_CODE":0,"TOWNNAME":"永康區","LI":"西灣里","LIN":"23鄰","STREET":"國光七街","SECT":" ","MAREA":" ","LANE":"２１巷","ALLEY":" ","HOUSE_NO":"１號三樓","E_COORD97":174301.70000000001,"N_COORD97":2545509.5099999998,"ADDRESS":"國光七街２１巷１號三樓","OBJECTID":393363},"geometry":{"x":174301.70000000112,"y":2545509.5100000016}},{"attributes":{"ID":393388,"DIS_CODE":0,"TOWNNAME":"永康區","LI":"安康里","LIN":"23鄰","STREET":"中華西街","SECT":" ","MAREA":" ","LANE":"１２２巷","ALLEY":" ","HOUSE_NO":"４３號二樓","E_COORD97":170853.98999999999,"N_COORD97":2546229.0099999998,"ADDRESS":"中華西街１２２巷４３號二樓","OBJECTID":393364},"geometry":{"x":170853.99000000022,"y":2546229.0100000016}},{"attributes":{"ID":393389,"DIS_CODE":0,"TOWNNAME":"永康區","LI":"安康里","LIN":"23鄰","STREET":"中華西街","SECT":" ","MAREA":" ","LANE":"１２２巷","ALLEY":" ","HOUSE_NO":"４５號五樓之３","E_COORD97":170870.14000000001,"N_COORD97":2546233.7999999998,"ADDRESS":"中華西街１２２巷４５號五樓之３","OBJECTID":393365},"geometry":{"x":170870.14000000153,"y":2546233.8000000045}},{"attributes":{"ID":393390,"DIS_CODE":0,"TOWNNAME":"永康區","LI":"安康里","LIN":"23鄰","STREET":"中華西街","SECT":" ","MAREA":" ","LANE":"１２２巷","ALLEY":" ","HOUSE_NO":"３３號五樓","E_COORD97":170837.79000000001,"N_COORD97":2546218.7599999998,"ADDRESS":"中華西街１２２巷３３號五樓","OBJECTID":393366},"geometry":{"x":170837.79000000097,"y":2546218.7599999998}},{"attributes":{"ID":393391,"DIS_CODE":0,"TOWNNAME":"永康區","LI":"安康里","LIN":"23鄰","STREET":"中華西街","SECT":" ","MAREA":" ","LANE":"１２２巷","ALLEY":" ","HOUSE_NO":"４３號六樓","E_COORD97":170853.98999999999,"N_COORD97":2546229.0099999998,"ADDRESS":"中華西街１２２巷４３號六樓","OBJECTID":393367},"geometry":{"x":170853.99000000022,"y":2546229.0100000016}},{"attributes":{"ID":393392,"DIS_CODE":0,"TOWNNAME":"東區","LI":"自強里","LIN":"23鄰","STREET":"富農街","SECT":"一段","MAREA":" ","LANE":"１９９巷","ALLEY":" ","HOUSE_NO":"１３號二樓","E_COORD97":171506.60999999999,"N_COORD97":2542628.3100000001,"ADDRESS":"富農街一段１９９巷１３號二樓","OBJECTID":393368},"geometry":{"x":171506.6100000022,"y":2542628.3100000005}},{"attributes":{"ID":393393,"DIS_CODE":0,"TOWNNAME":"東區","LI":"自強里","LIN":"23鄰","STREET":"富農街","SECT":"一段","MAREA":" ","LANE":"１９９巷","ALLEY":" ","HOUSE_NO":"１３號三樓","E_COORD97":171506.60999999999,"N_COORD97":2542628.3100000001,"ADDRESS":"富農街一段１９９巷１３號三樓","OBJECTID":393369},"geometry":{"x":171506.6100000022,"y":2542628.3100000005}},{"attributes":{"ID":393394,"DIS_CODE":0,"TOWNNAME":"東區","LI":"自強里","LIN":"23鄰","STREET":"富農街","SECT":"一段","MAREA":" ","LANE":"１９９巷","ALLEY":" ","HOUSE_NO":"１３號五樓","E_COORD97":171506.60999999999,"N_COORD97":2542628.3100000001,"ADDRESS":"富農街一段１９９巷１３號五樓","OBJECTID":393370},"geometry":{"x":171506.6100000022,"y":2542628.3100000005}},{"attributes":{"ID":393395,"DIS_CODE":0,"TOWNNAME":"東區","LI":"自強里","LIN":"23鄰","STREET":"富農街","SECT":"一段","MAREA":" ","LANE":"１９９巷","ALLEY":" ","HOUSE_NO":"１３號四樓","E_COORD97":171506.60999999999,"N_COORD97":2542628.3100000001,"ADDRESS":"富農街一段１９９巷１３號四樓","OBJECTID":393371},"geometry":{"x":171506.6100000022,"y":2542628.3100000005}},{"attributes":{"ID":393396,"DIS_CODE":0,"TOWNNAME":"東區","LI":"自強里","LIN":"23鄰","STREET":"富農街","SECT":"一段","MAREA":" ","LANE":"１９９巷","ALLEY":" ","HOUSE_NO":"１５號二樓","E_COORD97":171498.35999999999,"N_COORD97":2542627.54,"ADDRESS":"富農街一段１９９巷１５號二樓","OBJECTID":393372},"geometry":{"x":171498.36000000127,"y":2542627.540000001}},{"attributes":{"ID":393397,"DIS_CODE":0,"TOWNNAME":"東區","LI":"自強里","LIN":"23鄰","STREET":"富農街","SECT":"一段","MAREA":" ","LANE":"１９９巷","ALLEY":" ","HOUSE_NO":"１５號三樓","E_COORD97":171498.35999999999,"N_COORD97":2542627.54,"ADDRESS":"富農街一段１９９巷１５號三樓","OBJECTID":393373},"geometry":{"x":171498.36000000127,"y":2542627.540000001}},{"attributes":{"ID":393398,"DIS_CODE":0,"TOWNNAME":"東區","LI":"自強里","LIN":"23鄰","STREET":"富農街","SECT":"一段","MAREA":" ","LANE":"１９９巷","ALLEY":" ","HOUSE_NO":"１５號五樓","E_COORD97":171498.35999999999,"N_COORD97":2542627.54,"ADDRESS":"富農街一段１９９巷１５號五樓","OBJECTID":393374},"geometry":{"x":171498.36000000127,"y":2542627.540000001}},{"attributes":{"ID":393399,"DIS_CODE":0,"TOWNNAME":"東區","LI":"自強里","LIN":"23鄰","STREET":"富農街","SECT":"一段","MAREA":" ","LANE":"１９９巷","ALLEY":" ","HOUSE_NO":"１５號四樓","E_COORD97":171498.35999999999,"N_COORD97":2542627.54,"ADDRESS":"富農街一段１９９巷１５號四樓","OBJECTID":393375},"geometry":{"x":171498.36000000127,"y":2542627.540000001}},{"attributes":{"ID":393400,"DIS_CODE":0,"TOWNNAME":"東區","LI":"自強里","LIN":"23鄰","STREET":"富農街","SECT":"一段","MAREA":" ","LANE":"１９９巷","ALLEY":" ","HOUSE_NO":"１７號二樓","E_COORD97":171488.04999999999,"N_COORD97":2542627.2799999998,"ADDRESS":"富農街一段１９９巷１７號二樓","OBJECTID":393376},"geometry":{"x":171488.05000000075,"y":2542627.2799999993}},{"attributes":{"ID":393401,"DIS_CODE":0,"TOWNNAME":"東區","LI":"自強里","LIN":"23鄰","STREET":"富農街","SECT":"一段","MAREA":" ","LANE":"１９９巷","ALLEY":" ","HOUSE_NO":"１７號三樓","E_COORD97":171488.04999999999,"N_COORD97":2542627.2799999998,"ADDRESS":"富農街一段１９９巷１７號三樓","OBJECTID":393377},"geometry":{"x":171488.05000000075,"y":2542627.2799999993}},{"attributes":{"ID":393402,"DIS_CODE":0,"TOWNNAME":"東區","LI":"自強里","LIN":"23鄰","STREET":"富農街","SECT":"一段","MAREA":" ","LANE":"１９９巷","ALLEY":" ","HOUSE_NO":"１７號五樓","E_COORD97":171488.04999999999,"N_COORD97":2542627.2799999998,"ADDRESS":"富農街一段１９９巷１７號五樓","OBJECTID":393378},"geometry":{"x":171488.05000000075,"y":2542627.2799999993}},{"attributes":{"ID":393403,"DIS_CODE":0,"TOWNNAME":"東區","LI":"自強里","LIN":"23鄰","STREET":"富農街","SECT":"一段","MAREA":" ","LANE":"１９９巷","ALLEY":" ","HOUSE_NO":"１７號四樓","E_COORD97":171488.04999999999,"N_COORD97":2542627.2799999998,"ADDRESS":"富農街一段１９９巷１７號四樓","OBJECTID":393379},"geometry":{"x":171488.05000000075,"y":2542627.2799999993}},{"attributes":{"ID":393404,"DIS_CODE":0,"TOWNNAME":"東區","LI":"自強里","LIN":"23鄰","STREET":"富農街","SECT":"一段","MAREA":" ","LANE":"１９９巷","ALLEY":" ","HOUSE_NO":"１９號二樓","E_COORD97":171479.79999999999,"N_COORD97":2542626.77,"ADDRESS":"富農街一段１９９巷１９號二樓","OBJECTID":393380},"geometry":{"x":171479.80000000075,"y":2542626.7700000014}},{"attributes":{"ID":393405,"DIS_CODE":0,"TOWNNAME":"東區","LI":"自強里","LIN":"23鄰","STREET":"富農街","SECT":"一段","MAREA":" ","LANE":"１９９巷","ALLEY":" ","HOUSE_NO":"１９號三樓","E_COORD97":171479.79999999999,"N_COORD97":2542626.77,"ADDRESS":"富農街一段１９９巷１９號三樓","OBJECTID":393381},"geometry":{"x":171479.80000000075,"y":2542626.7700000014}},{"attributes":{"ID":393406,"DIS_CODE":0,"TOWNNAME":"東區","LI":"自強里","LIN":"23鄰","STREET":"富農街","SECT":"一段","MAREA":" ","LANE":"１９９巷","ALLEY":" ","HOUSE_NO":"１９號五樓","E_COORD97":171479.79999999999,"N_COORD97":2542626.77,"ADDRESS":"富農街一段１９９巷１９號五樓","OBJECTID":393382},"geometry":{"x":171479.80000000075,"y":2542626.7700000014}},{"attributes":{"ID":393407,"DIS_CODE":0,"TOWNNAME":"東區","LI":"自強里","LIN":"23鄰","STREET":"富農街","SECT":"一段","MAREA":" ","LANE":"１９９巷","ALLEY":" ","HOUSE_NO":"１９號四樓","E_COORD97":171479.79999999999,"N_COORD97":2542626.77,"ADDRESS":"富農街一段１９９巷１９號四樓","OBJECTID":393383},"geometry":{"x":171479.80000000075,"y":2542626.7700000014}},{"attributes":{"ID":393408,"DIS_CODE":0,"TOWNNAME":"東區","LI":"自強里","LIN":"23鄰","STREET":"富農街","SECT":"一段","MAREA":" ","LANE":"１９９巷","ALLEY":" ","HOUSE_NO":"３號七樓","E_COORD97":171544.25,"N_COORD97":2542615.6899999999,"ADDRESS":"富農街一段１９９巷３號七樓","OBJECTID":393384},"geometry":{"x":171544.24999999907,"y":2542615.6900000013}},{"attributes":{"ID":393409,"DIS_CODE":0,"TOWNNAME":"東區","LI":"自強里","LIN":"23鄰","STREET":"富農街","SECT":"一段","MAREA":" ","LANE":"１９９巷","ALLEY":" ","HOUSE_NO":"３號九樓","E_COORD97":171544.25,"N_COORD97":2542615.6899999999,"ADDRESS":"富農街一段１９９巷３號九樓","OBJECTID":393385},"geometry":{"x":171544.24999999907,"y":2542615.6900000013}},{"attributes":{"ID":393410,"DIS_CODE":0,"TOWNNAME":"東區","LI":"自強里","LIN":"23鄰","STREET":"富農街","SECT":"一段","MAREA":" ","LANE":"１９９巷","ALLEY":" ","HOUSE_NO":"３號十一樓","E_COORD97":171544.25,"N_COORD97":2542615.6899999999,"ADDRESS":"富農街一段１９９巷３號十一樓","OBJECTID":393386},"geometry":{"x":171544.24999999907,"y":2542615.6900000013}},{"attributes":{"ID":393411,"DIS_CODE":0,"TOWNNAME":"東區","LI":"自強里","LIN":"23鄰","STREET":"富農街","SECT":"一段","MAREA":" ","LANE":"１９９巷","ALLEY":" ","HOUSE_NO":"３號十樓","E_COORD97":171544.25,"N_COORD97":2542615.6899999999,"ADDRESS":"富農街一段１９９巷３號十樓","OBJECTID":393387},"geometry":{"x":171544.24999999907,"y":2542615.6900000013}},{"attributes":{"ID":393412,"DIS_CODE":0,"TOWNNAME":"東區","LI":"自強里","LIN":"23鄰","STREET":"富農街","SECT":"一段","MAREA":" ","LANE":"１９９巷","ALLEY":" ","HOUSE_NO":"３號三樓","E_COORD97":171544.25,"N_COORD97":2542615.6899999999,"ADDRESS":"富農街一段１９９巷３號三樓","OBJECTID":393388},"geometry":{"x":171544.24999999907,"y":2542615.6900000013}},{"attributes":{"ID":393413,"DIS_CODE":0,"TOWNNAME":"東區","LI":"自強里","LIN":"23鄰","STREET":"富農街","SECT":"一段","MAREA":" ","LANE":"１９９巷","ALLEY":" ","HOUSE_NO":"３號五樓","E_COORD97":171544.25,"N_COORD97":2542615.6899999999,"ADDRESS":"富農街一段１９９巷３號五樓","OBJECTID":393389},"geometry":{"x":171544.24999999907,"y":2542615.6900000013}},{"attributes":{"ID":393414,"DIS_CODE":0,"TOWNNAME":"東區","LI":"自強里","LIN":"23鄰","STREET":"富農街","SECT":"一段","MAREA":" ","LANE":"１９９巷","ALLEY":" ","HOUSE_NO":"３號六樓","E_COORD97":171544.25,"N_COORD97":2542615.6899999999,"ADDRESS":"富農街一段１９９巷３號六樓","OBJECTID":393390},"geometry":{"x":171544.24999999907,"y":2542615.6900000013}},{"attributes":{"ID":393415,"DIS_CODE":0,"TOWNNAME":"東區","LI":"自強里","LIN":"23鄰","STREET":"富農街","SECT":"一段","MAREA":" ","LANE":"１９９巷","ALLEY":" ","HOUSE_NO":"３號四樓","E_COORD97":171544.25,"N_COORD97":2542615.6899999999,"ADDRESS":"富農街一段１９９巷３號四樓","OBJECTID":393391},"geometry":{"x":171544.24999999907,"y":2542615.6900000013}},{"attributes":{"ID":393416,"DIS_CODE":0,"TOWNNAME":"東區","LI":"自強里","LIN":"23鄰","STREET":"富農街","SECT":"一段","MAREA":" ","LANE":"１９９巷","ALLEY":" ","HOUSE_NO":"７號七樓","E_COORD97":171530.57999999999,"N_COORD97":2542620.3300000001,"ADDRESS":"富農街一段１９９巷７號七樓","OBJECTID":393392},"geometry":{"x":171530.58000000101,"y":2542620.3300000001}},{"attributes":{"ID":393417,"DIS_CODE":0,"TOWNNAME":"東區","LI":"自強里","LIN":"23鄰","STREET":"富農街","SECT":"一段","MAREA":" ","LANE":"１９９巷","ALLEY":" ","HOUSE_NO":"７號九樓","E_COORD97":171530.57999999999,"N_COORD97":2542620.3300000001,"ADDRESS":"富農街一段１９９巷７號九樓","OBJECTID":393393},"geometry":{"x":171530.58000000101,"y":2542620.3300000001}},{"attributes":{"ID":393418,"DIS_CODE":0,"TOWNNAME":"東區","LI":"自強里","LIN":"23鄰","STREET":"富農街","SECT":"一段","MAREA":" ","LANE":"１９９巷","ALLEY":" ","HOUSE_NO":"７號八樓","E_COORD97":171530.57999999999,"N_COORD97":2542620.3300000001,"ADDRESS":"富農街一段１９９巷７號八樓","OBJECTID":393394},"geometry":{"x":171530.58000000101,"y":2542620.3300000001}},{"attributes":{"ID":393419,"DIS_CODE":0,"TOWNNAME":"東區","LI":"自強里","LIN":"23鄰","STREET":"富農街","SECT":"一段","MAREA":" ","LANE":"１９９巷","ALLEY":" ","HOUSE_NO":"７號十一樓","E_COORD97":171530.57999999999,"N_COORD97":2542620.3300000001,"ADDRESS":"富農街一段１９９巷７號十一樓","OBJECTID":393395},"geometry":{"x":171530.58000000101,"y":2542620.3300000001}},{"attributes":{"ID":393420,"DIS_CODE":0,"TOWNNAME":"東區","LI":"自強里","LIN":"23鄰","STREET":"富農街","SECT":"一段","MAREA":" ","LANE":"１９９巷","ALLEY":" ","HOUSE_NO":"７號十樓","E_COORD97":171530.57999999999,"N_COORD97":2542620.3300000001,"ADDRESS":"富農街一段１９９巷７號十樓","OBJECTID":393396},"geometry":{"x":171530.58000000101,"y":2542620.3300000001}},{"attributes":{"ID":393421,"DIS_CODE":0,"TOWNNAME":"東區","LI":"自強里","LIN":"23鄰","STREET":"富農街","SECT":"一段","MAREA":" ","LANE":"１９９巷","ALLEY":" ","HOUSE_NO":"７號五樓","E_COORD97":171530.57999999999,"N_COORD97":2542620.3300000001,"ADDRESS":"富農街一段１９９巷７號五樓","OBJECTID":393397},"geometry":{"x":171530.58000000101,"y":2542620.3300000001}},{"attributes":{"ID":393422,"DIS_CODE":0,"TOWNNAME":"東區","LI":"自強里","LIN":"23鄰","STREET":"富農街","SECT":"一段","MAREA":" ","LANE":"１９９巷","ALLEY":" ","HOUSE_NO":"７號六樓","E_COORD97":171530.57999999999,"N_COORD97":2542620.3300000001,"ADDRESS":"富農街一段１９９巷７號六樓","OBJECTID":393398},"geometry":{"x":171530.58000000101,"y":2542620.3300000001}},{"attributes":{"ID":393423,"DIS_CODE":0,"TOWNNAME":"東區","LI":"自強里","LIN":"23鄰","STREET":"富農街","SECT":"一段","MAREA":" ","LANE":"１９９巷","ALLEY":" ","HOUSE_NO":"７號四樓","E_COORD97":171530.57999999999,"N_COORD97":2542620.3300000001,"ADDRESS":"富農街一段１９９巷７號四樓","OBJECTID":393399},"geometry":{"x":171530.58000000101,"y":2542620.3300000001}},{"attributes":{"ID":393424,"DIS_CODE":0,"TOWNNAME":"東區","LI":"成大里","LIN":"23鄰","STREET":"育樂街","SECT":" ","MAREA":" ","LANE":"１４１巷","ALLEY":" ","HOUSE_NO":"１號二樓","E_COORD97":169524.39000000001,"N_COORD97":2543941.48,"ADDRESS":"育樂街１４１巷１號二樓","OBJECTID":393400},"geometry":{"x":169524.3900000006,"y":2543941.4800000023}}]}