{"displayFieldName":"TOWNNAME","fieldAliases":{"ID":"ID","DIS_CODE":"DIS_CODE","TOWNNAME":"TOWNNAME","LI":"LI","LIN":"LIN","STREET":"STREET","SECT":"SECT","MAREA":"MAREA","LANE":"LANE","ALLEY":"ALLEY","HOUSE_NO":"HOUSE_NO","E_COORD97":"E_COORD97","N_COORD97":"N_COORD97","ADDRESS":"ADDRESS","OBJECTID":"OBJECTID"},"geometryType":"esriGeometryPoint","spatialReference":{"wkid":102443,"latestWkid":3826},"fields":[{"name":"ID","type":"esriFieldTypeDouble","alias":"ID"},{"name":"DIS_CODE","type":"esriFieldTypeInteger","alias":"DIS_CODE"},{"name":"TOWNNAME","type":"esriFieldTypeString","alias":"TOWNNAME","length":8},{"name":"LI","type":"esriFieldTypeString","alias":"LI","length":8},{"name":"LIN","type":"esriFieldTypeString","alias":"LIN","length":12},{"name":"STREET","type":"esriFieldTypeString","alias":"STREET","length":20},{"name":"SECT","type":"esriFieldTypeString","alias":"SECT","length":8},{"name":"MAREA","type":"esriFieldTypeString","alias":"MAREA","length":12},{"name":"LANE","type":"esriFieldTypeString","alias":"LANE","length":10},{"name":"ALLEY","type":"esriFieldTypeString","alias":"ALLEY","length":10},{"name":"HOUSE_NO","type":"esriFieldTypeString","alias":"HOUSE_NO","length":20},{"name":"E_COORD97","type":"esriFieldTypeDouble","alias":"E_COORD97"},{"name":"N_COORD97","type":"esriFieldTypeDouble","alias":"N_COORD97"},{"name":"ADDRESS","type":"esriFieldTypeString","alias":"ADDRESS","length":50},{"name":"OBJECTID","type":"esriFieldTypeOID","alias":"OBJECTID"}],"features":[{"attributes":{"ID":137201,"DIS_CODE":0,"TOWNNAME":"永康區","LI":"二王里","LIN":"27鄰","STREET":"中山南路","SECT":" ","MAREA":" ","LANE":"５４４巷","ALLEY":"７０弄","HOUSE_NO":"１１號","E_COORD97":172284.34,"N_COORD97":2546291.4199999999,"ADDRESS":"中山南路５４４巷７０弄１１號","OBJECTID":137201},"geometry":{"x":172284.34000000171,"y":2546291.4199999999}},{"attributes":{"ID":137202,"DIS_CODE":0,"TOWNNAME":"南區","LI":"文華里","LIN":"6鄰","STREET":"金華路","SECT":"二段","MAREA":" ","LANE":" ","ALLEY":" ","HOUSE_NO":"３５５號","E_COORD97":167127.57000000001,"N_COORD97":2542952.73,"ADDRESS":"金華路二段３５５號","OBJECTID":137202},"geometry":{"x":167127.5700000003,"y":2542952.7300000023}},{"attributes":{"ID":137203,"DIS_CODE":0,"TOWNNAME":"南區","LI":"文華里","LIN":"6鄰","STREET":"金華路","SECT":"二段","MAREA":" ","LANE":" ","ALLEY":" ","HOUSE_NO":"３５７號","E_COORD97":167127.20999999999,"N_COORD97":2542957.6800000002,"ADDRESS":"金華路二段３５７號","OBJECTID":137203},"geometry":{"x":167127.21000000089,"y":2542957.6799999997}},{"attributes":{"ID":137204,"DIS_CODE":0,"TOWNNAME":"南區","LI":"文華里","LIN":"6鄰","STREET":"金華路","SECT":"二段","MAREA":" ","LANE":" ","ALLEY":" ","HOUSE_NO":"３６１號","E_COORD97":167127.92999999999,"N_COORD97":2542965.6600000001,"ADDRESS":"金華路二段３６１號","OBJECTID":137204},"geometry":{"x":167127.9299999997,"y":2542965.6600000039}},{"attributes":{"ID":137205,"DIS_CODE":0,"TOWNNAME":"南區","LI":"文華里","LIN":"6鄰","STREET":"金華路","SECT":"二段","MAREA":" ","LANE":" ","ALLEY":" ","HOUSE_NO":"３６３號","E_COORD97":167128.29000000001,"N_COORD97":2542969.9700000002,"ADDRESS":"金華路二段３６３號","OBJECTID":137205},"geometry":{"x":167128.29000000097,"y":2542969.9700000007}},{"attributes":{"ID":137206,"DIS_CODE":0,"TOWNNAME":"南區","LI":"文華里","LIN":"6鄰","STREET":"金華路","SECT":"二段","MAREA":" ","LANE":" ","ALLEY":" ","HOUSE_NO":"３６５號","E_COORD97":167128.47,"N_COORD97":2542974.7200000002,"ADDRESS":"金華路二段３６５號","OBJECTID":137206},"geometry":{"x":167128.47000000067,"y":2542974.7200000007}},{"attributes":{"ID":137207,"DIS_CODE":0,"TOWNNAME":"安南區","LI":"頂安里","LIN":"17鄰","STREET":"北安路","SECT":"二段","MAREA":" ","LANE":" ","ALLEY":" ","HOUSE_NO":"５２６號","E_COORD97":168343.56,"N_COORD97":2548549.9700000002,"ADDRESS":"北安路二段５２６號","OBJECTID":137207},"geometry":{"x":168343.56000000052,"y":2548549.9700000007}},{"attributes":{"ID":137208,"DIS_CODE":0,"TOWNNAME":"安南區","LI":"頂安里","LIN":"17鄰","STREET":"北安路","SECT":"二段","MAREA":" ","LANE":" ","ALLEY":" ","HOUSE_NO":"５２８號","E_COORD97":168340.85999999999,"N_COORD97":2548557.1099999999,"ADDRESS":"北安路二段５２８號","OBJECTID":137208},"geometry":{"x":168340.86000000127,"y":2548557.1100000013}},{"attributes":{"ID":137209,"DIS_CODE":0,"TOWNNAME":"永康區","LI":"二王里","LIN":"27鄰","STREET":"中山南路","SECT":" ","MAREA":" ","LANE":"５４４巷","ALLEY":"７０弄","HOUSE_NO":"１０號","E_COORD97":172286.26999999999,"N_COORD97":2546309.1099999999,"ADDRESS":"中山南路５４４巷７０弄１０號","OBJECTID":137209},"geometry":{"x":172286.27000000142,"y":2546309.1100000013}},{"attributes":{"ID":137210,"DIS_CODE":0,"TOWNNAME":"永康區","LI":"二王里","LIN":"27鄰","STREET":"中山南路","SECT":" ","MAREA":" ","LANE":"５４４巷","ALLEY":"７０弄","HOUSE_NO":"５號","E_COORD97":172295.60999999999,"N_COORD97":2546291.6699999999,"ADDRESS":"中山南路５４４巷７０弄５號","OBJECTID":137210},"geometry":{"x":172295.61000000127,"y":2546291.6700000018}},{"attributes":{"ID":137211,"DIS_CODE":0,"TOWNNAME":"永康區","LI":"正強里","LIN":"27鄰","STREET":"中正路","SECT":" ","MAREA":" ","LANE":"２０９巷","ALLEY":"３弄","HOUSE_NO":"８號","E_COORD97":173160.54999999999,"N_COORD97":2547897.75,"ADDRESS":"中正路２０９巷３弄８號","OBJECTID":137211},"geometry":{"x":173160.54999999981,"y":2547897.7500000037}},{"attributes":{"ID":137212,"DIS_CODE":0,"TOWNNAME":"永康區","LI":"大灣里","LIN":"27鄰","STREET":"大灣六街","SECT":" ","MAREA":" ","LANE":"８０巷","ALLEY":"３６弄","HOUSE_NO":"１０號","E_COORD97":175274.32999999999,"N_COORD97":2545250.6800000002,"ADDRESS":"大灣六街８０巷３６弄１０號","OBJECTID":137212},"geometry":{"x":175274.33000000007,"y":2545250.6800000016}},{"attributes":{"ID":137213,"DIS_CODE":0,"TOWNNAME":"永康區","LI":"二王里","LIN":"27鄰","STREET":"中山南路","SECT":" ","MAREA":" ","LANE":"５４４巷","ALLEY":"９２弄","HOUSE_NO":"３０號","E_COORD97":172274.14000000001,"N_COORD97":2546264.1699999999,"ADDRESS":"中山南路５４４巷９２弄３０號","OBJECTID":137213},"geometry":{"x":172274.1400000006,"y":2546264.1700000037}},{"attributes":{"ID":137214,"DIS_CODE":0,"TOWNNAME":"永康區","LI":"二王里","LIN":"27鄰","STREET":"中山南路","SECT":" ","MAREA":" ","LANE":"５４４巷","ALLEY":"９２弄","HOUSE_NO":"２０號","E_COORD97":172295.39000000001,"N_COORD97":2546264.6699999999,"ADDRESS":"中山南路５４４巷９２弄２０號","OBJECTID":137214},"geometry":{"x":172295.38999999966,"y":2546264.6700000018}},{"attributes":{"ID":137215,"DIS_CODE":0,"TOWNNAME":"永康區","LI":"二王里","LIN":"27鄰","STREET":"中山南路","SECT":" ","MAREA":" ","LANE":"５４４巷","ALLEY":"９２弄","HOUSE_NO":"１８號","E_COORD97":172299.54999999999,"N_COORD97":2546264.4199999999,"ADDRESS":"中山南路５４４巷９２弄１８號","OBJECTID":137215},"geometry":{"x":172299.54999999981,"y":2546264.4199999999}},{"attributes":{"ID":137216,"DIS_CODE":0,"TOWNNAME":"永康區","LI":"二王里","LIN":"27鄰","STREET":"中山南路","SECT":" ","MAREA":" ","LANE":"５４４巷","ALLEY":"９２弄","HOUSE_NO":"２４號","E_COORD97":172286.88,"N_COORD97":2546264.6699999999,"ADDRESS":"中山南路５４４巷９２弄２４號","OBJECTID":137216},"geometry":{"x":172286.87999999989,"y":2546264.6700000018}},{"attributes":{"ID":137217,"DIS_CODE":0,"TOWNNAME":"東區","LI":"富強里","LIN":"27鄰","STREET":"東門路","SECT":"二段","MAREA":" ","LANE":"３０１巷","ALLEY":"８０弄","HOUSE_NO":"７號","E_COORD97":170940.81,"N_COORD97":2542703.98,"ADDRESS":"東門路二段３０１巷８０弄７號","OBJECTID":137217},"geometry":{"x":170940.81000000052,"y":2542703.9800000023}},{"attributes":{"ID":137218,"DIS_CODE":0,"TOWNNAME":"東區","LI":"虎尾里","LIN":"27鄰","STREET":"東門路","SECT":"三段","MAREA":" ","LANE":"２７３巷","ALLEY":"２８弄","HOUSE_NO":"１２號","E_COORD97":171760.31,"N_COORD97":2541980.5499999998,"ADDRESS":"東門路三段２７３巷２８弄１２號","OBJECTID":137218},"geometry":{"x":171760.30999999959,"y":2541980.5500000045}},{"attributes":{"ID":137219,"DIS_CODE":0,"TOWNNAME":"東區","LI":"虎尾里","LIN":"27鄰","STREET":"東門路","SECT":"三段","MAREA":" ","LANE":"２７３巷","ALLEY":"２８弄","HOUSE_NO":"２４號","E_COORD97":171798.76000000001,"N_COORD97":2541983.7799999998,"ADDRESS":"東門路三段２７３巷２８弄２４號","OBJECTID":137219},"geometry":{"x":171798.76000000071,"y":2541983.7799999975}},{"attributes":{"ID":137220,"DIS_CODE":0,"TOWNNAME":"東區","LI":"富強里","LIN":"27鄰","STREET":"裕農路","SECT":" ","MAREA":" ","LANE":"２８８巷","ALLEY":"７０弄","HOUSE_NO":"３９號之１","E_COORD97":170969.29999999999,"N_COORD97":2542824.6899999999,"ADDRESS":"裕農路２８８巷７０弄３９號之１","OBJECTID":137220},"geometry":{"x":170969.30000000075,"y":2542824.6899999995}},{"attributes":{"ID":137221,"DIS_CODE":0,"TOWNNAME":"東區","LI":"虎尾里","LIN":"27鄰","STREET":"東門路","SECT":"三段","MAREA":" ","LANE":"２７３巷","ALLEY":"２８弄","HOUSE_NO":"２號","E_COORD97":171735.56,"N_COORD97":2541977.8900000001,"ADDRESS":"東門路三段２７３巷２８弄２號","OBJECTID":137221},"geometry":{"x":171735.56000000052,"y":2541977.8900000043}},{"attributes":{"ID":137222,"DIS_CODE":0,"TOWNNAME":"東區","LI":"虎尾里","LIN":"27鄰","STREET":"東門路","SECT":"三段","MAREA":" ","LANE":"２７３巷","ALLEY":"２８弄","HOUSE_NO":"５號","E_COORD97":171743.48000000001,"N_COORD97":2542000.4700000002,"ADDRESS":"東門路三段２７３巷２８弄５號","OBJECTID":137222},"geometry":{"x":171743.48000000138,"y":2542000.4700000007}},{"attributes":{"ID":137223,"DIS_CODE":0,"TOWNNAME":"佳里區","LI":"海澄里","LIN":"6鄰","STREET":" ","SECT":" ","MAREA":"番子寮","LANE":" ","ALLEY":" ","HOUSE_NO":"３０號之２","E_COORD97":164155.13,"N_COORD97":2564642.71,"ADDRESS":"番子寮３０號之２","OBJECTID":137223},"geometry":{"x":164155.12999999989,"y":2564642.7100000009}},{"attributes":{"ID":137224,"DIS_CODE":0,"TOWNNAME":"佳里區","LI":"海澄里","LIN":"6鄰","STREET":" ","SECT":" ","MAREA":"番子寮","LANE":" ","ALLEY":" ","HOUSE_NO":"３０號之３","E_COORD97":164150.92000000001,"N_COORD97":2564642.5600000001,"ADDRESS":"番子寮３０號之３","OBJECTID":137224},"geometry":{"x":164150.92000000086,"y":2564642.5600000024}},{"attributes":{"ID":137225,"DIS_CODE":0,"TOWNNAME":"佳里區","LI":"海澄里","LIN":"6鄰","STREET":" ","SECT":" ","MAREA":"番子寮","LANE":" ","ALLEY":" ","HOUSE_NO":"３０號之４","E_COORD97":164146.78,"N_COORD97":2564642.5600000001,"ADDRESS":"番子寮３０號之４","OBJECTID":137225},"geometry":{"x":164146.78000000119,"y":2564642.5600000024}},{"attributes":{"ID":137226,"DIS_CODE":0,"TOWNNAME":"後壁區","LI":"頂安里","LIN":" ","STREET":" ","SECT":" ","MAREA":"頂寮","LANE":" ","ALLEY":" ","HOUSE_NO":"４８之１號","E_COORD97":183956.79000000001,"N_COORD97":2581519.6800000002,"ADDRESS":"頂寮４８之１號","OBJECTID":137226},"geometry":{"x":183956.79000000097,"y":2581519.6799999997}},{"attributes":{"ID":137227,"DIS_CODE":0,"TOWNNAME":"佳里區","LI":"海澄里","LIN":"6鄰","STREET":" ","SECT":" ","MAREA":"番子寮","LANE":" ","ALLEY":" ","HOUSE_NO":"３１號","E_COORD97":164107.54000000001,"N_COORD97":2564579.5,"ADDRESS":"番子寮３１號","OBJECTID":137227},"geometry":{"x":164107.54000000097,"y":2564579.5}},{"attributes":{"ID":137228,"DIS_CODE":0,"TOWNNAME":"佳里區","LI":"海澄里","LIN":"6鄰","STREET":" ","SECT":" ","MAREA":"番子寮","LANE":" ","ALLEY":" ","HOUSE_NO":"３３號","E_COORD97":164110.04000000001,"N_COORD97":2564530.0899999999,"ADDRESS":"番子寮３３號","OBJECTID":137228},"geometry":{"x":164110.04000000004,"y":2564530.0900000017}},{"attributes":{"ID":137229,"DIS_CODE":0,"TOWNNAME":"佳里區","LI":"海澄里","LIN":"6鄰","STREET":" ","SECT":" ","MAREA":"番子寮","LANE":" ","ALLEY":" ","HOUSE_NO":"３４號之１","E_COORD97":164095.45999999999,"N_COORD97":2564553.1400000001,"ADDRESS":"番子寮３４號之１","OBJECTID":137229},"geometry":{"x":164095.45999999996,"y":2564553.1400000025}},{"attributes":{"ID":137230,"DIS_CODE":0,"TOWNNAME":"佳里區","LI":"海澄里","LIN":"6鄰","STREET":" ","SECT":" ","MAREA":"番子寮","LANE":" ","ALLEY":" ","HOUSE_NO":"３４號","E_COORD97":164104.12,"N_COORD97":2564540.4700000002,"ADDRESS":"番子寮３４號","OBJECTID":137230},"geometry":{"x":164104.12000000104,"y":2564540.4700000044}},{"attributes":{"ID":137231,"DIS_CODE":0,"TOWNNAME":"佳里區","LI":"海澄里","LIN":"6鄰","STREET":" ","SECT":" ","MAREA":"番子寮","LANE":" ","ALLEY":" ","HOUSE_NO":"３５號","E_COORD97":164130.54000000001,"N_COORD97":2564536.75,"ADDRESS":"番子寮３５號","OBJECTID":137231},"geometry":{"x":164130.54000000004,"y":2564536.75}},{"attributes":{"ID":137232,"DIS_CODE":0,"TOWNNAME":"後壁區","LI":"頂安里","LIN":" ","STREET":" ","SECT":" ","MAREA":"頂寮","LANE":" ","ALLEY":" ","HOUSE_NO":"４９號","E_COORD97":183946.45000000001,"N_COORD97":2581529.4100000001,"ADDRESS":"頂寮４９號","OBJECTID":137232},"geometry":{"x":183946.45000000019,"y":2581529.4100000039}},{"attributes":{"ID":137233,"DIS_CODE":0,"TOWNNAME":"後壁區","LI":"頂安里","LIN":" ","STREET":" ","SECT":" ","MAREA":"頂寮","LANE":" ","ALLEY":" ","HOUSE_NO":"５０之２號","E_COORD97":183951.09,"N_COORD97":2581547.8700000001,"ADDRESS":"頂寮５０之２號","OBJECTID":137233},"geometry":{"x":183951.09000000078,"y":2581547.8700000029}},{"attributes":{"ID":137234,"DIS_CODE":0,"TOWNNAME":"後壁區","LI":"頂安里","LIN":" ","STREET":" ","SECT":" ","MAREA":"頂寮","LANE":" ","ALLEY":" ","HOUSE_NO":"５０之５號","E_COORD97":183946.13,"N_COORD97":2581561.0099999998,"ADDRESS":"頂寮５０之５號","OBJECTID":137234},"geometry":{"x":183946.13000000082,"y":2581561.0099999998}},{"attributes":{"ID":137235,"DIS_CODE":0,"TOWNNAME":"後壁區","LI":"頂安里","LIN":" ","STREET":" ","SECT":" ","MAREA":"頂寮","LANE":" ","ALLEY":" ","HOUSE_NO":"５０之６號","E_COORD97":183944.29999999999,"N_COORD97":2581565.2799999998,"ADDRESS":"頂寮５０之６號","OBJECTID":137235},"geometry":{"x":183944.30000000075,"y":2581565.2799999993}},{"attributes":{"ID":137236,"DIS_CODE":0,"TOWNNAME":"後壁區","LI":"頂安里","LIN":" ","STREET":" ","SECT":" ","MAREA":"頂寮","LANE":" ","ALLEY":" ","HOUSE_NO":"５２之２號","E_COORD97":183918.29000000001,"N_COORD97":2581557.0899999999,"ADDRESS":"頂寮５２之２號","OBJECTID":137236},"geometry":{"x":183918.29000000004,"y":2581557.0899999999}},{"attributes":{"ID":137237,"DIS_CODE":0,"TOWNNAME":"後壁區","LI":"頂安里","LIN":" ","STREET":" ","SECT":" ","MAREA":"頂寮","LANE":" ","ALLEY":" ","HOUSE_NO":"５３之１號","E_COORD97":183905,"N_COORD97":2581584.2400000002,"ADDRESS":"頂寮５３之１號","OBJECTID":137237},"geometry":{"x":183905,"y":2581584.2400000002}},{"attributes":{"ID":137238,"DIS_CODE":0,"TOWNNAME":"後壁區","LI":"頂安里","LIN":" ","STREET":" ","SECT":" ","MAREA":"頂寮","LANE":" ","ALLEY":" ","HOUSE_NO":"５５之１號","E_COORD97":183866.51000000001,"N_COORD97":2581557.8799999999,"ADDRESS":"頂寮５５之１號","OBJECTID":137238},"geometry":{"x":183866.51000000164,"y":2581557.879999999}},{"attributes":{"ID":137239,"DIS_CODE":0,"TOWNNAME":"後壁區","LI":"頂安里","LIN":" ","STREET":" ","SECT":" ","MAREA":"頂寮","LANE":" ","ALLEY":" ","HOUSE_NO":"６８號","E_COORD97":183883.28,"N_COORD97":2581451.8900000001,"ADDRESS":"頂寮６８號","OBJECTID":137239},"geometry":{"x":183883.28000000026,"y":2581451.8900000043}},{"attributes":{"ID":137240,"DIS_CODE":0,"TOWNNAME":"後壁區","LI":"頂安里","LIN":" ","STREET":" ","SECT":" ","MAREA":"頂寮","LANE":" ","ALLEY":" ","HOUSE_NO":"７８之２號","E_COORD97":183836.07999999999,"N_COORD97":2581381.04,"ADDRESS":"頂寮７８之２號","OBJECTID":137240},"geometry":{"x":183836.08000000101,"y":2581381.0399999991}},{"attributes":{"ID":137241,"DIS_CODE":0,"TOWNNAME":"後壁區","LI":"頂安里","LIN":" ","STREET":" ","SECT":" ","MAREA":"頂寮","LANE":" ","ALLEY":" ","HOUSE_NO":"７８之３號","E_COORD97":183838.70999999999,"N_COORD97":2581385.54,"ADDRESS":"頂寮７８之３號","OBJECTID":137241},"geometry":{"x":183838.71000000089,"y":2581385.540000001}},{"attributes":{"ID":137242,"DIS_CODE":0,"TOWNNAME":"後壁區","LI":"頂安里","LIN":" ","STREET":" ","SECT":" ","MAREA":"頂寮","LANE":" ","ALLEY":" ","HOUSE_NO":"８４之２號","E_COORD97":183733.94,"N_COORD97":2581383.1800000002,"ADDRESS":"頂寮８４之２號","OBJECTID":137242},"geometry":{"x":183733.94000000134,"y":2581383.1799999997}},{"attributes":{"ID":137243,"DIS_CODE":0,"TOWNNAME":"後壁區","LI":"頂安里","LIN":" ","STREET":" ","SECT":" ","MAREA":"頂寮","LANE":" ","ALLEY":" ","HOUSE_NO":"８５之１號","E_COORD97":183785.44,"N_COORD97":2581339.75,"ADDRESS":"頂寮８５之１號","OBJECTID":137243},"geometry":{"x":183785.44000000041,"y":2581339.75}},{"attributes":{"ID":137244,"DIS_CODE":0,"TOWNNAME":"後壁區","LI":"頂安里","LIN":" ","STREET":" ","SECT":" ","MAREA":"頂寮","LANE":" ","ALLEY":" ","HOUSE_NO":"８７之１號","E_COORD97":183742.60999999999,"N_COORD97":2581344.6299999999,"ADDRESS":"頂寮８７之１號","OBJECTID":137244},"geometry":{"x":183742.6100000022,"y":2581344.6300000008}},{"attributes":{"ID":137245,"DIS_CODE":0,"TOWNNAME":"後壁區","LI":"頂安里","LIN":" ","STREET":" ","SECT":" ","MAREA":"頂寮","LANE":" ","ALLEY":" ","HOUSE_NO":"９０之１９號","E_COORD97":183715.72,"N_COORD97":2581274.1299999999,"ADDRESS":"頂寮９０之１９號","OBJECTID":137245},"geometry":{"x":183715.7200000016,"y":2581274.129999999}},{"attributes":{"ID":137246,"DIS_CODE":0,"TOWNNAME":"後壁區","LI":"頂安里","LIN":" ","STREET":" ","SECT":" ","MAREA":"頂寮","LANE":" ","ALLEY":" ","HOUSE_NO":"９０之２０號","E_COORD97":183714.97,"N_COORD97":2581278.4900000002,"ADDRESS":"頂寮９０之２０號","OBJECTID":137246},"geometry":{"x":183714.96999999974,"y":2581278.4900000021}},{"attributes":{"ID":137247,"DIS_CODE":0,"TOWNNAME":"後壁區","LI":"頂安里","LIN":" ","STREET":" ","SECT":" ","MAREA":"頂寮","LANE":" ","ALLEY":" ","HOUSE_NO":"９０之３７號","E_COORD97":183722.67000000001,"N_COORD97":2581335.21,"ADDRESS":"頂寮９０之３７號","OBJECTID":137247},"geometry":{"x":183722.66999999993,"y":2581335.2100000028}},{"attributes":{"ID":137248,"DIS_CODE":0,"TOWNNAME":"後壁區","LI":"頂安里","LIN":" ","STREET":" ","SECT":" ","MAREA":"頂寮","LANE":" ","ALLEY":" ","HOUSE_NO":"９０之３９號","E_COORD97":183726.85000000001,"N_COORD97":2581336.5600000001,"ADDRESS":"頂寮９０之３９號","OBJECTID":137248},"geometry":{"x":183726.85000000056,"y":2581336.5600000024}},{"attributes":{"ID":137249,"DIS_CODE":0,"TOWNNAME":"後壁區","LI":"頂安里","LIN":" ","STREET":" ","SECT":" ","MAREA":"頂寮","LANE":" ","ALLEY":" ","HOUSE_NO":"９０之４０號","E_COORD97":183732.97,"N_COORD97":2581309.3100000001,"ADDRESS":"頂寮９０之４０號","OBJECTID":137249},"geometry":{"x":183732.97000000067,"y":2581309.3100000005}},{"attributes":{"ID":137250,"DIS_CODE":0,"TOWNNAME":"後壁區","LI":"頂安里","LIN":" ","STREET":" ","SECT":" ","MAREA":"頂寮","LANE":" ","ALLEY":" ","HOUSE_NO":"９０之４號","E_COORD97":183741.73000000001,"N_COORD97":2581303.6299999999,"ADDRESS":"頂寮９０之４號","OBJECTID":137250},"geometry":{"x":183741.72999999952,"y":2581303.6300000008}},{"attributes":{"ID":137251,"DIS_CODE":0,"TOWNNAME":"後壁區","LI":"頂安里","LIN":" ","STREET":" ","SECT":" ","MAREA":"頂寮","LANE":" ","ALLEY":" ","HOUSE_NO":"９０之６號","E_COORD97":183738.57000000001,"N_COORD97":2581288.8199999998,"ADDRESS":"頂寮９０之６號","OBJECTID":137251},"geometry":{"x":183738.5700000003,"y":2581288.8200000003}},{"attributes":{"ID":137252,"DIS_CODE":0,"TOWNNAME":"東區","LI":"虎尾里","LIN":"27鄰","STREET":"東門路","SECT":"三段","MAREA":" ","LANE":"２７３巷","ALLEY":"２８弄","HOUSE_NO":"１１號","E_COORD97":171760.95999999999,"N_COORD97":2542001.6699999999,"ADDRESS":"東門路三段２７３巷２８弄１１號","OBJECTID":137252},"geometry":{"x":171760.95999999996,"y":2542001.6699999999}},{"attributes":{"ID":137253,"DIS_CODE":0,"TOWNNAME":"東區","LI":"虎尾里","LIN":"27鄰","STREET":"東門路","SECT":"三段","MAREA":" ","LANE":"２７３巷","ALLEY":"２８弄","HOUSE_NO":"２１號","E_COORD97":171788.32000000001,"N_COORD97":2542004.3300000001,"ADDRESS":"東門路三段２７３巷２８弄２１號","OBJECTID":137253},"geometry":{"x":171788.32000000216,"y":2542004.3300000001}},{"attributes":{"ID":137254,"DIS_CODE":0,"TOWNNAME":"東區","LI":"富強里","LIN":"27鄰","STREET":"東門路","SECT":"二段","MAREA":" ","LANE":"３０１巷","ALLEY":"８０弄","HOUSE_NO":"６號","E_COORD97":170924.01999999999,"N_COORD97":2542701.7000000002,"ADDRESS":"東門路二段３０１巷８０弄６號","OBJECTID":137254},"geometry":{"x":170924.02000000048,"y":2542701.6999999993}},{"attributes":{"ID":137255,"DIS_CODE":0,"TOWNNAME":"東區","LI":"富強里","LIN":"27鄰","STREET":"東門路","SECT":"二段","MAREA":" ","LANE":"３０１巷","ALLEY":"８０弄","HOUSE_NO":"８號","E_COORD97":170925.53,"N_COORD97":2542697.02,"ADDRESS":"東門路二段３０１巷８０弄８號","OBJECTID":137255},"geometry":{"x":170925.53000000026,"y":2542697.0199999996}},{"attributes":{"ID":137256,"DIS_CODE":0,"TOWNNAME":"東區","LI":"富強里","LIN":"27鄰","STREET":"東門路","SECT":"二段","MAREA":" ","LANE":"３０１巷","ALLEY":"８０弄","HOUSE_NO":"１５號","E_COORD97":170943.75,"N_COORD97":2542676.21,"ADDRESS":"東門路二段３０１巷８０弄１５號","OBJECTID":137256},"geometry":{"x":170943.75,"y":2542676.2100000009}},{"attributes":{"ID":137257,"DIS_CODE":0,"TOWNNAME":"永康區","LI":"安康里","LIN":"6鄰","STREET":"中華西街","SECT":" ","MAREA":" ","LANE":" ","ALLEY":" ","HOUSE_NO":"１７６號","E_COORD97":170634.73999999999,"N_COORD97":2546298.9900000002,"ADDRESS":"中華西街１７６號","OBJECTID":137257},"geometry":{"x":170634.74000000115,"y":2546298.9900000002}},{"attributes":{"ID":137258,"DIS_CODE":0,"TOWNNAME":"永康區","LI":"安康里","LIN":"6鄰","STREET":"中華西街","SECT":" ","MAREA":" ","LANE":" ","ALLEY":" ","HOUSE_NO":"１７０號","E_COORD97":170641.95000000001,"N_COORD97":2546268.2400000002,"ADDRESS":"中華西街１７０號","OBJECTID":137258},"geometry":{"x":170641.95000000112,"y":2546268.2400000021}},{"attributes":{"ID":137259,"DIS_CODE":0,"TOWNNAME":"永康區","LI":"安康里","LIN":"6鄰","STREET":"中華西街","SECT":" ","MAREA":" ","LANE":" ","ALLEY":" ","HOUSE_NO":"１８８號","E_COORD97":170641,"N_COORD97":2546347,"ADDRESS":"中華西街１８８號","OBJECTID":137259},"geometry":{"x":170641.00000000093,"y":2546347.0000000019}},{"attributes":{"ID":137260,"DIS_CODE":0,"TOWNNAME":"新市區","LI":"新市里","LIN":"27鄰","STREET":"復興路","SECT":" ","MAREA":" ","LANE":"６巷","ALLEY":"１９弄","HOUSE_NO":"２９之２號","E_COORD97":177861.54000000001,"N_COORD97":2553431.0499999998,"ADDRESS":"復興路６巷１９弄２９之２號","OBJECTID":137260},"geometry":{"x":177861.54000000004,"y":2553431.0500000026}},{"attributes":{"ID":137261,"DIS_CODE":0,"TOWNNAME":"新市區","LI":"新市里","LIN":"27鄰","STREET":"復興路","SECT":" ","MAREA":" ","LANE":"６巷","ALLEY":"１９弄","HOUSE_NO":"２５號","E_COORD97":177878.39000000001,"N_COORD97":2553417.7799999998,"ADDRESS":"復興路６巷１９弄２５號","OBJECTID":137261},"geometry":{"x":177878.3900000006,"y":2553417.7800000012}},{"attributes":{"ID":137262,"DIS_CODE":0,"TOWNNAME":"新市區","LI":"新和里","LIN":"27鄰","STREET":"永福街","SECT":" ","MAREA":" ","LANE":"１６巷","ALLEY":"２弄","HOUSE_NO":"１號","E_COORD97":177781.14999999999,"N_COORD97":2552736.25,"ADDRESS":"永福街１６巷２弄１號","OBJECTID":137262},"geometry":{"x":177781.1500000013,"y":2552736.2500000019}},{"attributes":{"ID":137263,"DIS_CODE":0,"TOWNNAME":"新市區","LI":"新和里","LIN":"27鄰","STREET":"忠孝街","SECT":" ","MAREA":" ","LANE":"１７９巷","ALLEY":"１弄","HOUSE_NO":"６號","E_COORD97":177680.07000000001,"N_COORD97":2552772.9900000002,"ADDRESS":"忠孝街１７９巷１弄６號","OBJECTID":137263},"geometry":{"x":177680.0700000003,"y":2552772.9900000021}},{"attributes":{"ID":137264,"DIS_CODE":0,"TOWNNAME":"新市區","LI":"新和里","LIN":"27鄰","STREET":"忠孝街","SECT":" ","MAREA":" ","LANE":"１７９巷","ALLEY":"１弄","HOUSE_NO":"１１號","E_COORD97":177690.26000000001,"N_COORD97":2552751,"ADDRESS":"忠孝街１７９巷１弄１１號","OBJECTID":137264},"geometry":{"x":177690.25999999978,"y":2552751.0000000037}},{"attributes":{"ID":137265,"DIS_CODE":0,"TOWNNAME":"新市區","LI":"新市里","LIN":"27鄰","STREET":"復興路","SECT":" ","MAREA":" ","LANE":"６巷","ALLEY":"１９弄","HOUSE_NO":"１５號","E_COORD97":177878.79000000001,"N_COORD97":2553397.5299999998,"ADDRESS":"復興路６巷１９弄１５號","OBJECTID":137265},"geometry":{"x":177878.79000000004,"y":2553397.5299999975}},{"attributes":{"ID":137266,"DIS_CODE":0,"TOWNNAME":"仁德區","LI":"仁德里","LIN":"27鄰","STREET":"淨修街","SECT":" ","MAREA":" ","LANE":"１７５巷","ALLEY":"３０弄","HOUSE_NO":"１９號","E_COORD97":171993.25,"N_COORD97":2541192.6800000002,"ADDRESS":"淨修街１７５巷３０弄１９號","OBJECTID":137266},"geometry":{"x":171993.25,"y":2541192.6800000016}},{"attributes":{"ID":137267,"DIS_CODE":0,"TOWNNAME":"永康區","LI":"正強里","LIN":"27鄰","STREET":"中正路","SECT":" ","MAREA":" ","LANE":"１５５巷","ALLEY":"６弄","HOUSE_NO":"２２號","E_COORD97":173167.73000000001,"N_COORD97":2547828.4900000002,"ADDRESS":"中正路１５５巷６弄２２號","OBJECTID":137267},"geometry":{"x":173167.73000000138,"y":2547828.4900000039}},{"attributes":{"ID":137268,"DIS_CODE":0,"TOWNNAME":"仁德區","LI":"仁德里","LIN":"27鄰","STREET":"淨修街","SECT":" ","MAREA":" ","LANE":"１７５巷","ALLEY":"３０弄","HOUSE_NO":"１７號","E_COORD97":171992.22,"N_COORD97":2541197.6800000002,"ADDRESS":"淨修街１７５巷３０弄１７號","OBJECTID":137268},"geometry":{"x":171992.22000000067,"y":2541197.6799999997}},{"attributes":{"ID":137269,"DIS_CODE":0,"TOWNNAME":"仁德區","LI":"仁德里","LIN":"27鄰","STREET":"淨修街","SECT":" ","MAREA":" ","LANE":"１７５巷","ALLEY":"３０弄","HOUSE_NO":"１號","E_COORD97":171988.07999999999,"N_COORD97":2541237.9399999999,"ADDRESS":"淨修街１７５巷３０弄１號","OBJECTID":137269},"geometry":{"x":171988.08000000194,"y":2541237.9400000013}},{"attributes":{"ID":137270,"DIS_CODE":0,"TOWNNAME":"仁德區","LI":"仁德里","LIN":"27鄰","STREET":"淨修街","SECT":" ","MAREA":" ","LANE":"１７５巷","ALLEY":"３０弄","HOUSE_NO":"７號","E_COORD97":171989.12,"N_COORD97":2541222.1800000002,"ADDRESS":"淨修街１７５巷３０弄７號","OBJECTID":137270},"geometry":{"x":171989.12000000011,"y":2541222.1800000034}},{"attributes":{"ID":137271,"DIS_CODE":0,"TOWNNAME":"仁德區","LI":"仁德里","LIN":"27鄰","STREET":"淨修街","SECT":" ","MAREA":" ","LANE":"１７５巷","ALLEY":"３０弄","HOUSE_NO":"９號","E_COORD97":171989.16,"N_COORD97":2541217.6800000002,"ADDRESS":"淨修街１７５巷３０弄９號","OBJECTID":137271},"geometry":{"x":171989.15999999922,"y":2541217.6799999997}},{"attributes":{"ID":137272,"DIS_CODE":0,"TOWNNAME":"仁德區","LI":"仁德里","LIN":"27鄰","STREET":"淨修街","SECT":" ","MAREA":" ","LANE":"１７５巷","ALLEY":"３０弄","HOUSE_NO":"１１號","E_COORD97":171990.92999999999,"N_COORD97":2541212.9300000002,"ADDRESS":"淨修街１７５巷３０弄１１號","OBJECTID":137272},"geometry":{"x":171990.93000000063,"y":2541212.9299999997}},{"attributes":{"ID":137273,"DIS_CODE":0,"TOWNNAME":"仁德區","LI":"後壁里","LIN":"27鄰","STREET":"中正路","SECT":"二段","MAREA":" ","LANE":"３０１巷","ALLEY":"１９弄","HOUSE_NO":"１４號","E_COORD97":173158.53,"N_COORD97":2539087.46,"ADDRESS":"中正路二段３０１巷１９弄１４號","OBJECTID":137273},"geometry":{"x":173158.53000000119,"y":2539087.4600000009}},{"attributes":{"ID":137274,"DIS_CODE":0,"TOWNNAME":"仁德區","LI":"後壁里","LIN":"27鄰","STREET":"中正路","SECT":"二段","MAREA":" ","LANE":"３０１巷","ALLEY":"２０弄","HOUSE_NO":"３號","E_COORD97":173210.29999999999,"N_COORD97":2539133.3500000001,"ADDRESS":"中正路二段３０１巷２０弄３號","OBJECTID":137274},"geometry":{"x":173210.30000000168,"y":2539133.3500000015}},{"attributes":{"ID":137275,"DIS_CODE":0,"TOWNNAME":"仁德區","LI":"後壁里","LIN":"27鄰","STREET":"中正路","SECT":"二段","MAREA":" ","LANE":"３０１巷","ALLEY":"１９弄","HOUSE_NO":"９號","E_COORD97":173166.95999999999,"N_COORD97":2539091.21,"ADDRESS":"中正路二段３０１巷１９弄９號","OBJECTID":137275},"geometry":{"x":173166.96000000183,"y":2539091.2100000028}},{"attributes":{"ID":137276,"DIS_CODE":0,"TOWNNAME":"仁德區","LI":"後壁里","LIN":"27鄰","STREET":"中正路","SECT":"二段","MAREA":" ","LANE":"３０１巷","ALLEY":"１１弄","HOUSE_NO":"８號","E_COORD97":173192.32999999999,"N_COORD97":2539092.23,"ADDRESS":"中正路二段３０１巷１１弄８號","OBJECTID":137276},"geometry":{"x":173192.33000000101,"y":2539092.2300000004}},{"attributes":{"ID":137277,"DIS_CODE":0,"TOWNNAME":"仁德區","LI":"後壁里","LIN":"27鄰","STREET":"中正路","SECT":"二段","MAREA":" ","LANE":"３０１巷","ALLEY":"１９弄","HOUSE_NO":"５號","E_COORD97":173171.75,"N_COORD97":2539098.21,"ADDRESS":"中正路二段３０１巷１９弄５號","OBJECTID":137277},"geometry":{"x":173171.75000000186,"y":2539098.2100000028}},{"attributes":{"ID":137278,"DIS_CODE":0,"TOWNNAME":"官田區","LI":"隆本里","LIN":"27鄰","STREET":"勝利路","SECT":" ","MAREA":" ","LANE":"４８巷","ALLEY":"１７弄","HOUSE_NO":"１０號","E_COORD97":179882.85999999999,"N_COORD97":2565979.9700000002,"ADDRESS":"勝利路４８巷１７弄１０號","OBJECTID":137278},"geometry":{"x":179882.86000000127,"y":2565979.9700000007}},{"attributes":{"ID":137279,"DIS_CODE":0,"TOWNNAME":"官田區","LI":"隆本里","LIN":"27鄰","STREET":"勝利路","SECT":" ","MAREA":" ","LANE":"４８巷","ALLEY":"１７弄","HOUSE_NO":"１２號","E_COORD97":179878.45000000001,"N_COORD97":2565979.7000000002,"ADDRESS":"勝利路４８巷１７弄１２號","OBJECTID":137279},"geometry":{"x":179878.45000000205,"y":2565979.7000000011}},{"attributes":{"ID":137280,"DIS_CODE":0,"TOWNNAME":"官田區","LI":"隆本里","LIN":"27鄰","STREET":"勝利路","SECT":" ","MAREA":" ","LANE":"４８巷","ALLEY":"１７弄","HOUSE_NO":"１６號","E_COORD97":179874.70000000001,"N_COORD97":2565978.8999999999,"ADDRESS":"勝利路４８巷１７弄１６號","OBJECTID":137280},"geometry":{"x":179874.70000000019,"y":2565978.9000000022}},{"attributes":{"ID":137281,"DIS_CODE":0,"TOWNNAME":"官田區","LI":"隆本里","LIN":"27鄰","STREET":"勝利路","SECT":" ","MAREA":" ","LANE":"４８巷","ALLEY":"１７弄","HOUSE_NO":"２０號","E_COORD97":179865.35999999999,"N_COORD97":2565978.8100000001,"ADDRESS":"勝利路４８巷１７弄２０號","OBJECTID":137281},"geometry":{"x":179865.36000000034,"y":2565978.8100000042}},{"attributes":{"ID":137282,"DIS_CODE":0,"TOWNNAME":"官田區","LI":"隆本里","LIN":"27鄰","STREET":"勝利路","SECT":" ","MAREA":" ","LANE":"４８巷","ALLEY":"１７弄","HOUSE_NO":"２號","E_COORD97":179896.10000000001,"N_COORD97":2565985.29,"ADDRESS":"勝利路４８巷１７弄２號","OBJECTID":137282},"geometry":{"x":179896.10000000056,"y":2565985.290000001}},{"attributes":{"ID":137283,"DIS_CODE":0,"TOWNNAME":"官田區","LI":"隆本里","LIN":"27鄰","STREET":"勝利路","SECT":" ","MAREA":" ","LANE":"４８巷","ALLEY":"１７弄","HOUSE_NO":"６號","E_COORD97":179891.73999999999,"N_COORD97":2565980.8100000001,"ADDRESS":"勝利路４８巷１７弄６號","OBJECTID":137283},"geometry":{"x":179891.74000000209,"y":2565980.8100000005}},{"attributes":{"ID":137284,"DIS_CODE":0,"TOWNNAME":"後壁區","LI":"頂安里","LIN":" ","STREET":" ","SECT":" ","MAREA":"頂寮","LANE":" ","ALLEY":" ","HOUSE_NO":"９１之１號","E_COORD97":183783.73999999999,"N_COORD97":2581304.6499999999,"ADDRESS":"頂寮９１之１號","OBJECTID":137284},"geometry":{"x":183783.74000000022,"y":2581304.6500000022}},{"attributes":{"ID":137285,"DIS_CODE":0,"TOWNNAME":"後壁區","LI":"頂安里","LIN":" ","STREET":" ","SECT":" ","MAREA":"頂寮","LANE":" ","ALLEY":" ","HOUSE_NO":"９２之２附３號","E_COORD97":183869.95000000001,"N_COORD97":2581262.1299999999,"ADDRESS":"頂寮９２之２附３號","OBJECTID":137285},"geometry":{"x":183869.95000000019,"y":2581262.1300000027}},{"attributes":{"ID":137286,"DIS_CODE":0,"TOWNNAME":"後壁區","LI":"頂安里","LIN":" ","STREET":" ","SECT":" ","MAREA":"頂寮","LANE":" ","ALLEY":" ","HOUSE_NO":"９３之２號","E_COORD97":183821.28,"N_COORD97":2581252.9900000002,"ADDRESS":"頂寮９３之２號","OBJECTID":137286},"geometry":{"x":183821.28000000119,"y":2581252.9900000002}},{"attributes":{"ID":137287,"DIS_CODE":0,"TOWNNAME":"永康區","LI":"安康里","LIN":"6鄰","STREET":"中華西街","SECT":" ","MAREA":" ","LANE":" ","ALLEY":" ","HOUSE_NO":"２４０號","E_COORD97":170705.91,"N_COORD97":2546455.25,"ADDRESS":"中華西街２４０號","OBJECTID":137287},"geometry":{"x":170705.90999999922,"y":2546455.25}},{"attributes":{"ID":137288,"DIS_CODE":0,"TOWNNAME":"中西區","LI":"元安里","LIN":"6鄰","STREET":"大德街","SECT":" ","MAREA":" ","LANE":" ","ALLEY":" ","HOUSE_NO":"９０號","E_COORD97":167528.38,"N_COORD97":2543205.6400000001,"ADDRESS":"大德街９０號","OBJECTID":137288},"geometry":{"x":167528.37999999989,"y":2543205.6400000006}},{"attributes":{"ID":137289,"DIS_CODE":0,"TOWNNAME":"永康區","LI":"安康里","LIN":"6鄰","STREET":"中華西街","SECT":" ","MAREA":" ","LANE":" ","ALLEY":" ","HOUSE_NO":"１７２號","E_COORD97":170638.88,"N_COORD97":2546276.4900000002,"ADDRESS":"中華西街１７２號","OBJECTID":137289},"geometry":{"x":170638.88000000082,"y":2546276.4900000021}},{"attributes":{"ID":137290,"DIS_CODE":0,"TOWNNAME":"中西區","LI":"元安里","LIN":"6鄰","STREET":"大德街","SECT":" ","MAREA":" ","LANE":" ","ALLEY":" ","HOUSE_NO":"９２號","E_COORD97":167527.29999999999,"N_COORD97":2543202.6899999999,"ADDRESS":"大德街９２號","OBJECTID":137290},"geometry":{"x":167527.29999999981,"y":2543202.6900000013}},{"attributes":{"ID":137291,"DIS_CODE":0,"TOWNNAME":"安定區","LI":"安定里","LIN":"6鄰","STREET":" ","SECT":" ","MAREA":"安定","LANE":" ","ALLEY":" ","HOUSE_NO":"３８之４號","E_COORD97":172201.87,"N_COORD97":2557869.3100000001,"ADDRESS":"安定３８之４號","OBJECTID":137291},"geometry":{"x":172201.87000000104,"y":2557869.3100000024}},{"attributes":{"ID":137292,"DIS_CODE":0,"TOWNNAME":"官田區","LI":"隆本里","LIN":"27鄰","STREET":"勝利路","SECT":" ","MAREA":" ","LANE":"４８巷","ALLEY":"１７弄","HOUSE_NO":"８號","E_COORD97":179887.63,"N_COORD97":2565980.0299999998,"ADDRESS":"勝利路４８巷１７弄８號","OBJECTID":137292},"geometry":{"x":179887.63000000082,"y":2565980.0300000012}},{"attributes":{"ID":137293,"DIS_CODE":0,"TOWNNAME":"永康區","LI":"安康里","LIN":"6鄰","STREET":"中華西街","SECT":" ","MAREA":" ","LANE":" ","ALLEY":" ","HOUSE_NO":"１８４號","E_COORD97":170637.54000000001,"N_COORD97":2546325.1699999999,"ADDRESS":"中華西街１８４號","OBJECTID":137293},"geometry":{"x":170637.54000000097,"y":2546325.1700000037}},{"attributes":{"ID":137294,"DIS_CODE":0,"TOWNNAME":"官田區","LI":"隆本里","LIN":"27鄰","STREET":"勝利路","SECT":" ","MAREA":" ","LANE":"４８巷","ALLEY":"３９弄","HOUSE_NO":"１號","E_COORD97":179874.10999999999,"N_COORD97":2566001.4100000001,"ADDRESS":"勝利路４８巷３９弄１號","OBJECTID":137294},"geometry":{"x":179874.1100000022,"y":2566001.4100000039}},{"attributes":{"ID":137295,"DIS_CODE":0,"TOWNNAME":"新市區","LI":"新和里","LIN":"27鄰","STREET":"忠孝街","SECT":" ","MAREA":" ","LANE":"１７９巷","ALLEY":"１弄","HOUSE_NO":"１５號","E_COORD97":177688.12,"N_COORD97":2552741.25,"ADDRESS":"忠孝街１７９巷１弄１５號","OBJECTID":137295},"geometry":{"x":177688.12000000011,"y":2552741.25}},{"attributes":{"ID":137296,"DIS_CODE":0,"TOWNNAME":"永康區","LI":"安康里","LIN":"6鄰","STREET":"大橋一街","SECT":" ","MAREA":" ","LANE":" ","ALLEY":" ","HOUSE_NO":"５５之１號","E_COORD97":170791.70000000001,"N_COORD97":2546354.79,"ADDRESS":"大橋一街５５之１號","OBJECTID":137296},"geometry":{"x":170791.70000000019,"y":2546354.790000001}},{"attributes":{"ID":137297,"DIS_CODE":0,"TOWNNAME":"永康區","LI":"安康里","LIN":"6鄰","STREET":"大橋一街","SECT":" ","MAREA":" ","LANE":" ","ALLEY":" ","HOUSE_NO":"４９之２號","E_COORD97":170711.17000000001,"N_COORD97":2546308.1099999999,"ADDRESS":"大橋一街４９之２號","OBJECTID":137297},"geometry":{"x":170711.17000000086,"y":2546308.1100000031}},{"attributes":{"ID":137298,"DIS_CODE":0,"TOWNNAME":"新市區","LI":"新和里","LIN":"27鄰","STREET":"忠孝街","SECT":" ","MAREA":" ","LANE":"１７９巷","ALLEY":"１弄","HOUSE_NO":"２２號","E_COORD97":177674.57000000001,"N_COORD97":2552739.5,"ADDRESS":"忠孝街１７９巷１弄２２號","OBJECTID":137298},"geometry":{"x":177674.57000000123,"y":2552739.5}},{"attributes":{"ID":137299,"DIS_CODE":0,"TOWNNAME":"新市區","LI":"新市里","LIN":"27鄰","STREET":"復興路","SECT":" ","MAREA":" ","LANE":"６巷","ALLEY":"１９弄","HOUSE_NO":"３５號","E_COORD97":177877.79000000001,"N_COORD97":2553438.7799999998,"ADDRESS":"復興路６巷１９弄３５號","OBJECTID":137299},"geometry":{"x":177877.79000000097,"y":2553438.7799999993}},{"attributes":{"ID":137300,"DIS_CODE":0,"TOWNNAME":"新市區","LI":"新和里","LIN":"27鄰","STREET":"永福街","SECT":" ","MAREA":" ","LANE":"１６巷","ALLEY":"１弄","HOUSE_NO":"４號","E_COORD97":177775.06,"N_COORD97":2552727.5,"ADDRESS":"永福街１６巷１弄４號","OBJECTID":137300},"geometry":{"x":177775.06000000145,"y":2552727.5000000037}},{"attributes":{"ID":137301,"DIS_CODE":0,"TOWNNAME":"新市區","LI":"新和里","LIN":"27鄰","STREET":"忠孝街","SECT":" ","MAREA":" ","LANE":"１７９巷","ALLEY":"１弄","HOUSE_NO":"８號","E_COORD97":177679.57000000001,"N_COORD97":2552768.25,"ADDRESS":"忠孝街１７９巷１弄８號","OBJECTID":137301},"geometry":{"x":177679.57000000123,"y":2552768.25}},{"attributes":{"ID":137302,"DIS_CODE":0,"TOWNNAME":"新市區","LI":"新和里","LIN":"27鄰","STREET":"忠孝街","SECT":" ","MAREA":" ","LANE":"１７９巷","ALLEY":"１弄","HOUSE_NO":"１６號","E_COORD97":177677.42000000001,"N_COORD97":2552753.75,"ADDRESS":"忠孝街１７９巷１弄１６號","OBJECTID":137302},"geometry":{"x":177677.41999999993,"y":2552753.7500000019}},{"attributes":{"ID":137303,"DIS_CODE":0,"TOWNNAME":"永康區","LI":"中興里","LIN":"27鄰","STREET":"中興街","SECT":" ","MAREA":" ","LANE":"９１巷","ALLEY":"２７弄","HOUSE_NO":"１３號","E_COORD97":171968.97,"N_COORD97":2545299.1499999999,"ADDRESS":"中興街９１巷２７弄１３號","OBJECTID":137303},"geometry":{"x":171968.96999999974,"y":2545299.1500000022}},{"attributes":{"ID":137304,"DIS_CODE":0,"TOWNNAME":"永康區","LI":"正強里","LIN":"27鄰","STREET":"中正路","SECT":" ","MAREA":" ","LANE":"１５５巷","ALLEY":"４弄","HOUSE_NO":"１３號","E_COORD97":173187.97,"N_COORD97":2547859.25,"ADDRESS":"中正路１５５巷４弄１３號","OBJECTID":137304},"geometry":{"x":173187.96999999974,"y":2547859.25}},{"attributes":{"ID":137305,"DIS_CODE":0,"TOWNNAME":"永康區","LI":"正強里","LIN":"27鄰","STREET":"中正路","SECT":" ","MAREA":" ","LANE":"１５５巷","ALLEY":"４弄","HOUSE_NO":"１２號","E_COORD97":173191.87,"N_COORD97":2547872.5499999998,"ADDRESS":"中正路１５５巷４弄１２號","OBJECTID":137305},"geometry":{"x":173191.87000000104,"y":2547872.5499999989}},{"attributes":{"ID":137306,"DIS_CODE":0,"TOWNNAME":"永康區","LI":"正強里","LIN":"27鄰","STREET":"中正路","SECT":" ","MAREA":" ","LANE":"１５５巷","ALLEY":"４弄","HOUSE_NO":"１０號","E_COORD97":173197.12,"N_COORD97":2547873.2999999998,"ADDRESS":"中正路１５５巷４弄１０號","OBJECTID":137306},"geometry":{"x":173197.12000000104,"y":2547873.3000000007}},{"attributes":{"ID":137307,"DIS_CODE":0,"TOWNNAME":"永康區","LI":"正強里","LIN":"27鄰","STREET":"中正路","SECT":" ","MAREA":" ","LANE":"１５５巷","ALLEY":"４弄","HOUSE_NO":"２４號","E_COORD97":173161.60999999999,"N_COORD97":2547869.7999999998,"ADDRESS":"中正路１５５巷４弄２４號","OBJECTID":137307},"geometry":{"x":173161.61000000127,"y":2547869.8000000007}},{"attributes":{"ID":137308,"DIS_CODE":0,"TOWNNAME":"永康區","LI":"正強里","LIN":"27鄰","STREET":"中正路","SECT":" ","MAREA":" ","LANE":"１５５巷","ALLEY":"４弄","HOUSE_NO":"１４號","E_COORD97":173186.12,"N_COORD97":2547872.0499999998,"ADDRESS":"中正路１５５巷４弄１４號","OBJECTID":137308},"geometry":{"x":173186.12000000011,"y":2547872.0500000007}},{"attributes":{"ID":137309,"DIS_CODE":0,"TOWNNAME":"永康區","LI":"正強里","LIN":"27鄰","STREET":"中正路","SECT":" ","MAREA":" ","LANE":"１５５巷","ALLEY":"６弄","HOUSE_NO":"１６號","E_COORD97":173184.98000000001,"N_COORD97":2547830.2400000002,"ADDRESS":"中正路１５５巷６弄１６號","OBJECTID":137309},"geometry":{"x":173184.98000000138,"y":2547830.2400000039}},{"attributes":{"ID":137310,"DIS_CODE":0,"TOWNNAME":"永康區","LI":"正強里","LIN":"27鄰","STREET":"中正路","SECT":" ","MAREA":" ","LANE":"１５５巷","ALLEY":"４弄","HOUSE_NO":"１７號","E_COORD97":173177.84,"N_COORD97":2547858.25,"ADDRESS":"中正路１５５巷４弄１７號","OBJECTID":137310},"geometry":{"x":173177.84000000171,"y":2547858.2500000019}},{"attributes":{"ID":137311,"DIS_CODE":0,"TOWNNAME":"後壁區","LI":"頂安里","LIN":" ","STREET":" ","SECT":" ","MAREA":"頂寮","LANE":" ","ALLEY":" ","HOUSE_NO":"９４之２附１號","E_COORD97":183879.13,"N_COORD97":2581239.3999999999,"ADDRESS":"頂寮９４之２附１號","OBJECTID":137311},"geometry":{"x":183879.12999999896,"y":2581239.4000000022}},{"attributes":{"ID":137312,"DIS_CODE":0,"TOWNNAME":"後壁區","LI":"頂安里","LIN":" ","STREET":" ","SECT":" ","MAREA":"頂寮","LANE":" ","ALLEY":" ","HOUSE_NO":"９５之７號","E_COORD97":183884.89999999999,"N_COORD97":2581094.6699999999,"ADDRESS":"頂寮９５之７號","OBJECTID":137312},"geometry":{"x":183884.9000000013,"y":2581094.6700000018}},{"attributes":{"ID":137313,"DIS_CODE":0,"TOWNNAME":"後壁區","LI":"頂安里","LIN":" ","STREET":" ","SECT":" ","MAREA":"頂寮","LANE":" ","ALLEY":" ","HOUSE_NO":"９８之１號","E_COORD97":183789.63,"N_COORD97":2581246.4900000002,"ADDRESS":"頂寮９８之１號","OBJECTID":137313},"geometry":{"x":183789.63000000082,"y":2581246.4900000002}},{"attributes":{"ID":137314,"DIS_CODE":0,"TOWNNAME":"後壁區","LI":"頂安里","LIN":" ","STREET":" ","SECT":" ","MAREA":"頂寮","LANE":" ","ALLEY":" ","HOUSE_NO":"９８之４號","E_COORD97":183799.72,"N_COORD97":2581269.1499999999,"ADDRESS":"頂寮９８之４號","OBJECTID":137314},"geometry":{"x":183799.71999999974,"y":2581269.1500000004}},{"attributes":{"ID":137315,"DIS_CODE":0,"TOWNNAME":"後壁區","LI":"平安里","LIN":" ","STREET":" ","SECT":" ","MAREA":"魚寮","LANE":" ","ALLEY":" ","HOUSE_NO":"１４之１號","E_COORD97":182360.84,"N_COORD97":2585417.52,"ADDRESS":"魚寮１４之１號","OBJECTID":137315},"geometry":{"x":182360.84000000078,"y":2585417.5200000014}},{"attributes":{"ID":137316,"DIS_CODE":0,"TOWNNAME":"後壁區","LI":"平安里","LIN":" ","STREET":" ","SECT":" ","MAREA":"魚寮","LANE":" ","ALLEY":" ","HOUSE_NO":"１９之１號","E_COORD97":182406.94,"N_COORD97":2585392,"ADDRESS":"魚寮１９之１號","OBJECTID":137316},"geometry":{"x":182406.94000000134,"y":2585392}},{"attributes":{"ID":137317,"DIS_CODE":0,"TOWNNAME":"後壁區","LI":"平安里","LIN":" ","STREET":" ","SECT":" ","MAREA":"魚寮","LANE":" ","ALLEY":" ","HOUSE_NO":"１９之２號","E_COORD97":182421.56,"N_COORD97":2585386.2999999998,"ADDRESS":"魚寮１９之２號","OBJECTID":137317},"geometry":{"x":182421.56000000145,"y":2585386.3000000026}},{"attributes":{"ID":137318,"DIS_CODE":0,"TOWNNAME":"後壁區","LI":"平安里","LIN":" ","STREET":" ","SECT":" ","MAREA":"魚寮","LANE":" ","ALLEY":" ","HOUSE_NO":"２號","E_COORD97":182248.78,"N_COORD97":2585441.9100000001,"ADDRESS":"魚寮２號","OBJECTID":137318},"geometry":{"x":182248.78000000026,"y":2585441.9100000039}},{"attributes":{"ID":137319,"DIS_CODE":0,"TOWNNAME":"後壁區","LI":"平安里","LIN":" ","STREET":" ","SECT":" ","MAREA":"魚寮","LANE":" ","ALLEY":" ","HOUSE_NO":"９號","E_COORD97":182327.38,"N_COORD97":2585454.3799999999,"ADDRESS":"魚寮９號","OBJECTID":137319},"geometry":{"x":182327.37999999989,"y":2585454.3800000027}},{"attributes":{"ID":137320,"DIS_CODE":0,"TOWNNAME":"後壁區","LI":"菁寮里","LIN":" ","STREET":" ","SECT":" ","MAREA":"菁寮","LANE":" ","ALLEY":" ","HOUSE_NO":"１００號","E_COORD97":181991.12,"N_COORD97":2586564.5800000001,"ADDRESS":"菁寮１００號","OBJECTID":137320},"geometry":{"x":181991.12000000197,"y":2586564.5800000001}},{"attributes":{"ID":137321,"DIS_CODE":0,"TOWNNAME":"永康區","LI":"安康里","LIN":"6鄰","STREET":"中華路","SECT":" ","MAREA":" ","LANE":" ","ALLEY":" ","HOUSE_NO":"７２５號","E_COORD97":170839.01999999999,"N_COORD97":2546392.7400000002,"ADDRESS":"中華路７２５號","OBJECTID":137321},"geometry":{"x":170839.02000000048,"y":2546392.7400000039}},{"attributes":{"ID":137322,"DIS_CODE":0,"TOWNNAME":"永康區","LI":"正強里","LIN":"27鄰","STREET":"中正路","SECT":" ","MAREA":" ","LANE":"１５５巷","ALLEY":"４弄","HOUSE_NO":"２８號","E_COORD97":173153.07999999999,"N_COORD97":2547869.0499999998,"ADDRESS":"中正路１５５巷４弄２８號","OBJECTID":137322},"geometry":{"x":173153.08000000101,"y":2547869.0500000007}},{"attributes":{"ID":137323,"DIS_CODE":0,"TOWNNAME":"安定區","LI":"中沙里","LIN":"6鄰","STREET":" ","SECT":" ","MAREA":"沙崙","LANE":" ","ALLEY":" ","HOUSE_NO":"１８號","E_COORD97":168511.76999999999,"N_COORD97":2552222.29,"ADDRESS":"沙崙１８號","OBJECTID":137323},"geometry":{"x":168511.77000000048,"y":2552222.2899999991}},{"attributes":{"ID":137324,"DIS_CODE":0,"TOWNNAME":"永康區","LI":"永康里","LIN":"6鄰","STREET":"中山南路","SECT":" ","MAREA":" ","LANE":" ","ALLEY":" ","HOUSE_NO":"１１１２號","E_COORD97":173851.48999999999,"N_COORD97":2547338,"ADDRESS":"中山南路１１１２號","OBJECTID":137324},"geometry":{"x":173851.49000000022,"y":2547338.0000000019}},{"attributes":{"ID":137325,"DIS_CODE":0,"TOWNNAME":"永康區","LI":"正強里","LIN":"27鄰","STREET":"中正路","SECT":" ","MAREA":" ","LANE":"１５５巷","ALLEY":"４弄","HOUSE_NO":"２２號","E_COORD97":173166.37,"N_COORD97":2547870.2999999998,"ADDRESS":"中正路１５５巷４弄２２號","OBJECTID":137325},"geometry":{"x":173166.37000000104,"y":2547870.3000000007}},{"attributes":{"ID":137326,"DIS_CODE":0,"TOWNNAME":"永康區","LI":"正強里","LIN":"27鄰","STREET":"中正路","SECT":" ","MAREA":" ","LANE":"１５５巷","ALLEY":"６弄","HOUSE_NO":"１４號","E_COORD97":173190.17999999999,"N_COORD97":2547830.7400000002,"ADDRESS":"中正路１５５巷６弄１４號","OBJECTID":137326},"geometry":{"x":173190.1799999997,"y":2547830.7400000021}},{"attributes":{"ID":137327,"DIS_CODE":0,"TOWNNAME":"永康區","LI":"正強里","LIN":"27鄰","STREET":"中正路","SECT":" ","MAREA":" ","LANE":"１５５巷","ALLEY":"４弄","HOUSE_NO":"１９號","E_COORD97":173173.14999999999,"N_COORD97":2547857.75,"ADDRESS":"中正路１５５巷４弄１９號","OBJECTID":137327},"geometry":{"x":173173.1500000013,"y":2547857.7500000019}},{"attributes":{"ID":137328,"DIS_CODE":0,"TOWNNAME":"中西區","LI":"元安里","LIN":"6鄰","STREET":"大德街","SECT":" ","MAREA":" ","LANE":" ","ALLEY":" ","HOUSE_NO":"９４號","E_COORD97":167527.13,"N_COORD97":2543198.3999999999,"ADDRESS":"大德街９４號","OBJECTID":137328},"geometry":{"x":167527.12999999989,"y":2543198.4000000022}},{"attributes":{"ID":137329,"DIS_CODE":0,"TOWNNAME":"後壁區","LI":"菁寮里","LIN":" ","STREET":" ","SECT":" ","MAREA":"菁寮","LANE":" ","ALLEY":" ","HOUSE_NO":"１０６號","E_COORD97":182031.78,"N_COORD97":2586591.3199999998,"ADDRESS":"菁寮１０６號","OBJECTID":137329},"geometry":{"x":182031.78000000026,"y":2586591.3200000003}},{"attributes":{"ID":137330,"DIS_CODE":0,"TOWNNAME":"後壁區","LI":"菁寮里","LIN":" ","STREET":" ","SECT":" ","MAREA":"菁寮","LANE":" ","ALLEY":" ","HOUSE_NO":"１０之２號","E_COORD97":181904.70000000001,"N_COORD97":2586315.6699999999,"ADDRESS":"菁寮１０之２號","OBJECTID":137330},"geometry":{"x":181904.70000000112,"y":2586315.6700000018}},{"attributes":{"ID":137331,"DIS_CODE":0,"TOWNNAME":"後壁區","LI":"菁寮里","LIN":" ","STREET":" ","SECT":" ","MAREA":"菁寮","LANE":" ","ALLEY":" ","HOUSE_NO":"１１９號","E_COORD97":181962.51999999999,"N_COORD97":2586425.0299999998,"ADDRESS":"菁寮１１９號","OBJECTID":137331},"geometry":{"x":181962.52000000048,"y":2586425.0300000012}},{"attributes":{"ID":137332,"DIS_CODE":0,"TOWNNAME":"永康區","LI":"安康里","LIN":"6鄰","STREET":"大橋一街","SECT":" ","MAREA":" ","LANE":" ","ALLEY":" ","HOUSE_NO":"４５之３號","E_COORD97":170679.79999999999,"N_COORD97":2546291.02,"ADDRESS":"大橋一街４５之３號","OBJECTID":137332},"geometry":{"x":170679.80000000075,"y":2546291.0199999996}},{"attributes":{"ID":137333,"DIS_CODE":0,"TOWNNAME":"永康區","LI":"永康里","LIN":"6鄰","STREET":"中山南路","SECT":" ","MAREA":" ","LANE":" ","ALLEY":" ","HOUSE_NO":"１１０８號","E_COORD97":173843.07000000001,"N_COORD97":2547335.9900000002,"ADDRESS":"中山南路１１０８號","OBJECTID":137333},"geometry":{"x":173843.07000000123,"y":2547335.9900000002}},{"attributes":{"ID":137334,"DIS_CODE":0,"TOWNNAME":"後壁區","LI":"菁寮里","LIN":" ","STREET":" ","SECT":" ","MAREA":"菁寮","LANE":" ","ALLEY":" ","HOUSE_NO":"１１之２號","E_COORD97":181922.01000000001,"N_COORD97":2586377.5499999998,"ADDRESS":"菁寮１１之２號","OBJECTID":137334},"geometry":{"x":181922.01000000164,"y":2586377.5500000045}},{"attributes":{"ID":137335,"DIS_CODE":0,"TOWNNAME":"後壁區","LI":"新東里","LIN":" ","STREET":" ","SECT":" ","MAREA":"新港東","LANE":" ","ALLEY":" ","HOUSE_NO":"１５０號","E_COORD97":181245.07000000001,"N_COORD97":2582039.4700000002,"ADDRESS":"新港東１５０號","OBJECTID":137335},"geometry":{"x":181245.0700000003,"y":2582039.4700000025}},{"attributes":{"ID":137336,"DIS_CODE":0,"TOWNNAME":"後壁區","LI":"菁寮里","LIN":" ","STREET":" ","SECT":" ","MAREA":"菁寮","LANE":" ","ALLEY":" ","HOUSE_NO":"１２５之１號","E_COORD97":182010.91,"N_COORD97":2586472.9100000001,"ADDRESS":"菁寮１２５之１號","OBJECTID":137336},"geometry":{"x":182010.91000000015,"y":2586472.910000002}},{"attributes":{"ID":137337,"DIS_CODE":0,"TOWNNAME":"永康區","LI":"正強里","LIN":"27鄰","STREET":"中正路","SECT":" ","MAREA":" ","LANE":"１５５巷","ALLEY":"４弄","HOUSE_NO":"２０號","E_COORD97":173170.97,"N_COORD97":2547870.7999999998,"ADDRESS":"中正路１５５巷４弄２０號","OBJECTID":137337},"geometry":{"x":173170.96999999974,"y":2547870.8000000007}},{"attributes":{"ID":137338,"DIS_CODE":0,"TOWNNAME":"永康區","LI":"正強里","LIN":"27鄰","STREET":"中正路","SECT":" ","MAREA":" ","LANE":"１５５巷","ALLEY":"４弄","HOUSE_NO":"３１號","E_COORD97":173146.10000000001,"N_COORD97":2547855.25,"ADDRESS":"中正路１５５巷４弄３１號","OBJECTID":137338},"geometry":{"x":173146.09999999963,"y":2547855.2500000019}},{"attributes":{"ID":137339,"DIS_CODE":0,"TOWNNAME":"永康區","LI":"正強里","LIN":"27鄰","STREET":"中正路","SECT":" ","MAREA":" ","LANE":"１５５巷","ALLEY":"６弄","HOUSE_NO":"２４號","E_COORD97":173162.64000000001,"N_COORD97":2547827.9900000002,"ADDRESS":"中正路１５５巷６弄２４號","OBJECTID":137339},"geometry":{"x":173162.6400000006,"y":2547827.9900000002}},{"attributes":{"ID":137340,"DIS_CODE":0,"TOWNNAME":"永康區","LI":"正強里","LIN":"27鄰","STREET":"中正路","SECT":" ","MAREA":" ","LANE":"１５５巷","ALLEY":"４弄","HOUSE_NO":"３０號","E_COORD97":173148.82999999999,"N_COORD97":2547868.2999999998,"ADDRESS":"中正路１５５巷４弄３０號","OBJECTID":137340},"geometry":{"x":173148.83000000007,"y":2547868.3000000026}},{"attributes":{"ID":137341,"DIS_CODE":0,"TOWNNAME":"永康區","LI":"正強里","LIN":"27鄰","STREET":"中正路","SECT":" ","MAREA":" ","LANE":"１５５巷","ALLEY":"４弄","HOUSE_NO":"１６號","E_COORD97":173181.20999999999,"N_COORD97":2547871.7999999998,"ADDRESS":"中正路１５５巷４弄１６號","OBJECTID":137341},"geometry":{"x":173181.21000000089,"y":2547871.8000000026}},{"attributes":{"ID":137342,"DIS_CODE":0,"TOWNNAME":"後壁區","LI":"菁寮里","LIN":" ","STREET":" ","SECT":" ","MAREA":"菁寮","LANE":" ","ALLEY":" ","HOUSE_NO":"１２７號","E_COORD97":182039.28,"N_COORD97":2586484.54,"ADDRESS":"菁寮１２７號","OBJECTID":137342},"geometry":{"x":182039.28000000212,"y":2586484.540000001}},{"attributes":{"ID":137343,"DIS_CODE":0,"TOWNNAME":"永康區","LI":"正強里","LIN":"27鄰","STREET":"中正路","SECT":" ","MAREA":" ","LANE":"１５５巷","ALLEY":"６弄","HOUSE_NO":"１８號","E_COORD97":173178.76999999999,"N_COORD97":2547829.7400000002,"ADDRESS":"中正路１５５巷６弄１８號","OBJECTID":137343},"geometry":{"x":173178.76999999955,"y":2547829.7400000002}},{"attributes":{"ID":137344,"DIS_CODE":0,"TOWNNAME":"後壁區","LI":"菁寮里","LIN":" ","STREET":" ","SECT":" ","MAREA":"菁寮","LANE":" ","ALLEY":" ","HOUSE_NO":"１３６號","E_COORD97":182101.64999999999,"N_COORD97":2586468.6000000001,"ADDRESS":"菁寮１３６號","OBJECTID":137344},"geometry":{"x":182101.6500000013,"y":2586468.6000000015}},{"attributes":{"ID":137345,"DIS_CODE":0,"TOWNNAME":"後壁區","LI":"菁寮里","LIN":" ","STREET":" ","SECT":" ","MAREA":"菁寮","LANE":" ","ALLEY":" ","HOUSE_NO":"１４０號","E_COORD97":182102.35000000001,"N_COORD97":2586491.4399999999,"ADDRESS":"菁寮１４０號","OBJECTID":137345},"geometry":{"x":182102.34999999963,"y":2586491.4399999995}},{"attributes":{"ID":137346,"DIS_CODE":0,"TOWNNAME":"後壁區","LI":"墨林里","LIN":" ","STREET":" ","SECT":" ","MAREA":"菁寮","LANE":" ","ALLEY":" ","HOUSE_NO":"１４７之２號","E_COORD97":182077.73999999999,"N_COORD97":2586573.2200000002,"ADDRESS":"菁寮１４７之２號","OBJECTID":137346},"geometry":{"x":182077.74000000022,"y":2586573.2200000025}},{"attributes":{"ID":137347,"DIS_CODE":0,"TOWNNAME":"後壁區","LI":"墨林里","LIN":" ","STREET":" ","SECT":" ","MAREA":"菁寮","LANE":" ","ALLEY":" ","HOUSE_NO":"１４７之３號","E_COORD97":182080.51999999999,"N_COORD97":2586584.77,"ADDRESS":"菁寮１４７之３號","OBJECTID":137347},"geometry":{"x":182080.51999999955,"y":2586584.7700000033}},{"attributes":{"ID":137348,"DIS_CODE":0,"TOWNNAME":"永康區","LI":"正強里","LIN":"27鄰","STREET":"中正路","SECT":" ","MAREA":" ","LANE":"１５５巷","ALLEY":"６弄","HOUSE_NO":"８號","E_COORD97":173204.98000000001,"N_COORD97":2547832.2400000002,"ADDRESS":"中正路１５５巷６弄８號","OBJECTID":137348},"geometry":{"x":173204.98000000138,"y":2547832.2400000002}},{"attributes":{"ID":137349,"DIS_CODE":0,"TOWNNAME":"後壁區","LI":"墨林里","LIN":" ","STREET":" ","SECT":" ","MAREA":"菁寮","LANE":" ","ALLEY":" ","HOUSE_NO":"１４９之２號","E_COORD97":182068.35999999999,"N_COORD97":2586608.52,"ADDRESS":"菁寮１４９之２號","OBJECTID":137349},"geometry":{"x":182068.36000000127,"y":2586608.5199999996}},{"attributes":{"ID":137350,"DIS_CODE":0,"TOWNNAME":"後壁區","LI":"墨林里","LIN":" ","STREET":" ","SECT":" ","MAREA":"菁寮","LANE":" ","ALLEY":" ","HOUSE_NO":"１４９之３號","E_COORD97":182067.85000000001,"N_COORD97":2586604.4500000002,"ADDRESS":"菁寮１４９之３號","OBJECTID":137350},"geometry":{"x":182067.85000000056,"y":2586604.4500000011}},{"attributes":{"ID":137351,"DIS_CODE":0,"TOWNNAME":"後壁區","LI":"墨林里","LIN":" ","STREET":" ","SECT":" ","MAREA":"菁寮","LANE":" ","ALLEY":" ","HOUSE_NO":"１５０之１８號","E_COORD97":182112.67000000001,"N_COORD97":2586658.3399999999,"ADDRESS":"菁寮１５０之１８號","OBJECTID":137351},"geometry":{"x":182112.67000000179,"y":2586658.3399999999}},{"attributes":{"ID":137352,"DIS_CODE":0,"TOWNNAME":"後壁區","LI":"墨林里","LIN":" ","STREET":" ","SECT":" ","MAREA":"菁寮","LANE":" ","ALLEY":" ","HOUSE_NO":"１５０之４號","E_COORD97":182081.35999999999,"N_COORD97":2586636.4399999999,"ADDRESS":"菁寮１５０之４號","OBJECTID":137352},"geometry":{"x":182081.3600000022,"y":2586636.4399999995}},{"attributes":{"ID":137353,"DIS_CODE":0,"TOWNNAME":"後壁區","LI":"墨林里","LIN":" ","STREET":" ","SECT":" ","MAREA":"菁寮","LANE":" ","ALLEY":" ","HOUSE_NO":"１５８號","E_COORD97":182127.69,"N_COORD97":2586699.5,"ADDRESS":"菁寮１５８號","OBJECTID":137353},"geometry":{"x":182127.69000000041,"y":2586699.5000000019}},{"attributes":{"ID":137354,"DIS_CODE":0,"TOWNNAME":"後壁區","LI":"墨林里","LIN":" ","STREET":" ","SECT":" ","MAREA":"菁寮","LANE":" ","ALLEY":" ","HOUSE_NO":"１６１之１號","E_COORD97":182211,"N_COORD97":2586623.02,"ADDRESS":"菁寮１６１之１號","OBJECTID":137354},"geometry":{"x":182211.00000000093,"y":2586623.0199999996}},{"attributes":{"ID":137355,"DIS_CODE":0,"TOWNNAME":"安定區","LI":"安定里","LIN":"6鄰","STREET":" ","SECT":" ","MAREA":"安定","LANE":" ","ALLEY":" ","HOUSE_NO":"３８之１４號","E_COORD97":172203.72,"N_COORD97":2557823.3199999998,"ADDRESS":"安定３８之１４號","OBJECTID":137355},"geometry":{"x":172203.7200000016,"y":2557823.3200000003}},{"attributes":{"ID":137356,"DIS_CODE":0,"TOWNNAME":"安定區","LI":"安定里","LIN":"6鄰","STREET":" ","SECT":" ","MAREA":"安定","LANE":" ","ALLEY":" ","HOUSE_NO":"３３之５號","E_COORD97":172203.67000000001,"N_COORD97":2557957.3199999998,"ADDRESS":"安定３３之５號","OBJECTID":137356},"geometry":{"x":172203.66999999993,"y":2557957.3200000022}},{"attributes":{"ID":137357,"DIS_CODE":0,"TOWNNAME":"安定區","LI":"安定里","LIN":"6鄰","STREET":" ","SECT":" ","MAREA":"安定","LANE":" ","ALLEY":" ","HOUSE_NO":"３８號之９","E_COORD97":172202.19,"N_COORD97":2557843.3199999998,"ADDRESS":"安定３８號之９","OBJECTID":137357},"geometry":{"x":172202.19000000041,"y":2557843.3200000003}},{"attributes":{"ID":137358,"DIS_CODE":0,"TOWNNAME":"永康區","LI":"北灣里","LIN":"27鄰","STREET":"文賢街","SECT":" ","MAREA":" ","LANE":"１０８巷","ALLEY":"８弄","HOUSE_NO":"１號","E_COORD97":175407.45000000001,"N_COORD97":2545436.3199999998,"ADDRESS":"文賢街１０８巷８弄１號","OBJECTID":137358},"geometry":{"x":175407.45000000019,"y":2545436.320000004}},{"attributes":{"ID":137359,"DIS_CODE":0,"TOWNNAME":"永康區","LI":"正強里","LIN":"27鄰","STREET":"中正路","SECT":" ","MAREA":" ","LANE":"１５５巷","ALLEY":"４弄","HOUSE_NO":"８號","E_COORD97":173201.37,"N_COORD97":2547873.2999999998,"ADDRESS":"中正路１５５巷４弄８號","OBJECTID":137359},"geometry":{"x":173201.37000000011,"y":2547873.3000000007}},{"attributes":{"ID":137360,"DIS_CODE":0,"TOWNNAME":"永康區","LI":"中興里","LIN":"27鄰","STREET":"中興街","SECT":" ","MAREA":" ","LANE":"９１巷","ALLEY":"２７弄","HOUSE_NO":"１９號之１","E_COORD97":171939.59,"N_COORD97":2545313.7999999998,"ADDRESS":"中興街９１巷２７弄１９號之１","OBJECTID":137360},"geometry":{"x":171939.58999999985,"y":2545313.8000000007}},{"attributes":{"ID":137361,"DIS_CODE":0,"TOWNNAME":"後壁區","LI":"墨林里","LIN":" ","STREET":" ","SECT":" ","MAREA":"菁寮","LANE":" ","ALLEY":" ","HOUSE_NO":"１７１號","E_COORD97":182161.85000000001,"N_COORD97":2586573.04,"ADDRESS":"菁寮１７１號","OBJECTID":137361},"geometry":{"x":182161.8499999987,"y":2586573.040000001}},{"attributes":{"ID":137362,"DIS_CODE":0,"TOWNNAME":"後壁區","LI":"墨林里","LIN":" ","STREET":" ","SECT":" ","MAREA":"菁寮","LANE":" ","ALLEY":" ","HOUSE_NO":"１７６號","E_COORD97":182177.5,"N_COORD97":2586553.3900000001,"ADDRESS":"菁寮１７６號","OBJECTID":137362},"geometry":{"x":182177.5,"y":2586553.3900000006}},{"attributes":{"ID":137363,"DIS_CODE":0,"TOWNNAME":"後壁區","LI":"墨林里","LIN":" ","STREET":" ","SECT":" ","MAREA":"菁寮","LANE":" ","ALLEY":" ","HOUSE_NO":"１７９之２號","E_COORD97":182127.85999999999,"N_COORD97":2586546.5299999998,"ADDRESS":"菁寮１７９之２號","OBJECTID":137363},"geometry":{"x":182127.86000000127,"y":2586546.5300000012}},{"attributes":{"ID":137364,"DIS_CODE":0,"TOWNNAME":"後壁區","LI":"墨林里","LIN":" ","STREET":" ","SECT":" ","MAREA":"菁寮","LANE":" ","ALLEY":" ","HOUSE_NO":"１７９之６號","E_COORD97":182150.67999999999,"N_COORD97":2586552.0800000001,"ADDRESS":"菁寮１７９之６號","OBJECTID":137364},"geometry":{"x":182150.6799999997,"y":2586552.0800000001}},{"attributes":{"ID":137365,"DIS_CODE":0,"TOWNNAME":"後壁區","LI":"墨林里","LIN":" ","STREET":" ","SECT":" ","MAREA":"菁寮","LANE":" ","ALLEY":" ","HOUSE_NO":"１７９之７號","E_COORD97":182157.67999999999,"N_COORD97":2586552.3300000001,"ADDRESS":"菁寮１７９之７號","OBJECTID":137365},"geometry":{"x":182157.6799999997,"y":2586552.3300000019}},{"attributes":{"ID":137366,"DIS_CODE":0,"TOWNNAME":"後壁區","LI":"墨林里","LIN":" ","STREET":" ","SECT":" ","MAREA":"菁寮","LANE":" ","ALLEY":" ","HOUSE_NO":"１８４號","E_COORD97":182116.26999999999,"N_COORD97":2586468.8500000001,"ADDRESS":"菁寮１８４號","OBJECTID":137366},"geometry":{"x":182116.26999999955,"y":2586468.8499999978}},{"attributes":{"ID":137367,"DIS_CODE":0,"TOWNNAME":"後壁區","LI":"墨林里","LIN":" ","STREET":" ","SECT":" ","MAREA":"菁寮","LANE":" ","ALLEY":" ","HOUSE_NO":"１８５號","E_COORD97":182116.38,"N_COORD97":2586465.2200000002,"ADDRESS":"菁寮１８５號","OBJECTID":137367},"geometry":{"x":182116.38000000175,"y":2586465.2200000025}},{"attributes":{"ID":137368,"DIS_CODE":0,"TOWNNAME":"後壁區","LI":"墨林里","LIN":" ","STREET":" ","SECT":" ","MAREA":"菁寮","LANE":" ","ALLEY":" ","HOUSE_NO":"１９０號","E_COORD97":182117.82000000001,"N_COORD97":2586440,"ADDRESS":"菁寮１９０號","OBJECTID":137368},"geometry":{"x":182117.82000000123,"y":2586440}},{"attributes":{"ID":137369,"DIS_CODE":0,"TOWNNAME":"後壁區","LI":"墨林里","LIN":" ","STREET":" ","SECT":" ","MAREA":"菁寮","LANE":" ","ALLEY":" ","HOUSE_NO":"１９９號","E_COORD97":182116.34,"N_COORD97":2586396.1299999999,"ADDRESS":"菁寮１９９號","OBJECTID":137369},"geometry":{"x":182116.33999999985,"y":2586396.1300000008}},{"attributes":{"ID":137370,"DIS_CODE":0,"TOWNNAME":"後壁區","LI":"墨林里","LIN":" ","STREET":" ","SECT":" ","MAREA":"菁寮","LANE":" ","ALLEY":" ","HOUSE_NO":"２００號","E_COORD97":182115.95999999999,"N_COORD97":2586390.04,"ADDRESS":"菁寮２００號","OBJECTID":137370},"geometry":{"x":182115.96000000089,"y":2586390.040000001}},{"attributes":{"ID":137371,"DIS_CODE":0,"TOWNNAME":"後壁區","LI":"墨林里","LIN":" ","STREET":" ","SECT":" ","MAREA":"菁寮","LANE":" ","ALLEY":" ","HOUSE_NO":"２０５號","E_COORD97":182127.29999999999,"N_COORD97":2586382.4199999999,"ADDRESS":"菁寮２０５號","OBJECTID":137371},"geometry":{"x":182127.30000000075,"y":2586382.4199999999}},{"attributes":{"ID":137372,"DIS_CODE":0,"TOWNNAME":"後壁區","LI":"墨林里","LIN":" ","STREET":" ","SECT":" ","MAREA":"菁寮","LANE":" ","ALLEY":" ","HOUSE_NO":"２０９號","E_COORD97":182142.10000000001,"N_COORD97":2586390.3999999999,"ADDRESS":"菁寮２０９號","OBJECTID":137372},"geometry":{"x":182142.10000000056,"y":2586390.4000000004}},{"attributes":{"ID":137373,"DIS_CODE":0,"TOWNNAME":"後壁區","LI":"墨林里","LIN":" ","STREET":" ","SECT":" ","MAREA":"菁寮","LANE":" ","ALLEY":" ","HOUSE_NO":"２１２號","E_COORD97":182153.23000000001,"N_COORD97":2586393.3199999998,"ADDRESS":"菁寮２１２號","OBJECTID":137373},"geometry":{"x":182153.23000000045,"y":2586393.3200000022}},{"attributes":{"ID":137374,"DIS_CODE":0,"TOWNNAME":"後壁區","LI":"墨林里","LIN":" ","STREET":" ","SECT":" ","MAREA":"菁寮","LANE":" ","ALLEY":" ","HOUSE_NO":"２１５號","E_COORD97":182164.20999999999,"N_COORD97":2586397.2400000002,"ADDRESS":"菁寮２１５號","OBJECTID":137374},"geometry":{"x":182164.20999999996,"y":2586397.2400000021}},{"attributes":{"ID":137375,"DIS_CODE":0,"TOWNNAME":"後壁區","LI":"墨林里","LIN":" ","STREET":" ","SECT":" ","MAREA":"菁寮","LANE":" ","ALLEY":" ","HOUSE_NO":"２１７號","E_COORD97":182180.14999999999,"N_COORD97":2586400.73,"ADDRESS":"菁寮２１７號","OBJECTID":137375},"geometry":{"x":182180.1500000013,"y":2586400.7300000023}},{"attributes":{"ID":137376,"DIS_CODE":0,"TOWNNAME":"後壁區","LI":"墨林里","LIN":" ","STREET":" ","SECT":" ","MAREA":"菁寮","LANE":" ","ALLEY":" ","HOUSE_NO":"２１８號","E_COORD97":182190.20000000001,"N_COORD97":2586402.71,"ADDRESS":"菁寮２１８號","OBJECTID":137376},"geometry":{"x":182190.20000000019,"y":2586402.7100000009}},{"attributes":{"ID":137377,"DIS_CODE":0,"TOWNNAME":"後壁區","LI":"墨林里","LIN":" ","STREET":" ","SECT":" ","MAREA":"菁寮","LANE":" ","ALLEY":" ","HOUSE_NO":"２２１號","E_COORD97":182202.57999999999,"N_COORD97":2586404.8700000001,"ADDRESS":"菁寮２２１號","OBJECTID":137377},"geometry":{"x":182202.58000000007,"y":2586404.870000001}},{"attributes":{"ID":137378,"DIS_CODE":0,"TOWNNAME":"後壁區","LI":"墨林里","LIN":" ","STREET":" ","SECT":" ","MAREA":"菁寮","LANE":" ","ALLEY":" ","HOUSE_NO":"２３０號","E_COORD97":182141.92999999999,"N_COORD97":2586474.8500000001,"ADDRESS":"菁寮２３０號","OBJECTID":137378},"geometry":{"x":182141.93000000063,"y":2586474.8499999996}},{"attributes":{"ID":137379,"DIS_CODE":0,"TOWNNAME":"後壁區","LI":"墨林里","LIN":" ","STREET":" ","SECT":" ","MAREA":"菁寮","LANE":" ","ALLEY":" ","HOUSE_NO":"２３５號","E_COORD97":182181.42999999999,"N_COORD97":2586464.1200000001,"ADDRESS":"菁寮２３５號","OBJECTID":137379},"geometry":{"x":182181.4299999997,"y":2586464.120000001}},{"attributes":{"ID":137380,"DIS_CODE":0,"TOWNNAME":"後壁區","LI":"墨林里","LIN":" ","STREET":" ","SECT":" ","MAREA":"菁寮","LANE":" ","ALLEY":" ","HOUSE_NO":"２３６號","E_COORD97":182176.39999999999,"N_COORD97":2586484.5,"ADDRESS":"菁寮２３６號","OBJECTID":137380},"geometry":{"x":182176.4000000013,"y":2586484.5}},{"attributes":{"ID":137381,"DIS_CODE":0,"TOWNNAME":"後壁區","LI":"墨林里","LIN":" ","STREET":" ","SECT":" ","MAREA":"菁寮","LANE":" ","ALLEY":" ","HOUSE_NO":"２４２號","E_COORD97":182156.39000000001,"N_COORD97":2586514.8199999998,"ADDRESS":"菁寮２４２號","OBJECTID":137381},"geometry":{"x":182156.38999999966,"y":2586514.8200000022}},{"attributes":{"ID":137382,"DIS_CODE":0,"TOWNNAME":"後壁區","LI":"墨林里","LIN":" ","STREET":" ","SECT":" ","MAREA":"菁寮","LANE":" ","ALLEY":" ","HOUSE_NO":"２５２之１號","E_COORD97":182270.16,"N_COORD97":2586436.7400000002,"ADDRESS":"菁寮２５２之１號","OBJECTID":137382},"geometry":{"x":182270.16000000015,"y":2586436.7400000039}},{"attributes":{"ID":137383,"DIS_CODE":0,"TOWNNAME":"後壁區","LI":"墨林里","LIN":"9鄰","STREET":" ","SECT":" ","MAREA":"菁寮","LANE":" ","ALLEY":" ","HOUSE_NO":"２５７號之５","E_COORD97":182213.01999999999,"N_COORD97":2586444.9199999999,"ADDRESS":"菁寮２５７之５號","OBJECTID":137383},"geometry":{"x":182213.01999999955,"y":2586444.9199999981}},{"attributes":{"ID":137384,"DIS_CODE":0,"TOWNNAME":"安定區","LI":"安定里","LIN":"6鄰","STREET":" ","SECT":" ","MAREA":"安定","LANE":" ","ALLEY":" ","HOUSE_NO":"３１之１號","E_COORD97":172131.87,"N_COORD97":2557942.3199999998,"ADDRESS":"安定３１之１號","OBJECTID":137384},"geometry":{"x":172131.87000000197,"y":2557942.3200000003}},{"attributes":{"ID":137385,"DIS_CODE":0,"TOWNNAME":"安定區","LI":"保西里","LIN":"6鄰","STREET":" ","SECT":" ","MAREA":"安定","LANE":" ","ALLEY":" ","HOUSE_NO":"３８７號","E_COORD97":171594.70947500001,"N_COORD97":2557715.40754,"ADDRESS":"安定３８７號","OBJECTID":137385},"geometry":{"x":171594.70947500039,"y":2557715.407536}},{"attributes":{"ID":137386,"DIS_CODE":0,"TOWNNAME":"永康區","LI":"中興里","LIN":"27鄰","STREET":"中興街","SECT":" ","MAREA":" ","LANE":"９１巷","ALLEY":"２７弄","HOUSE_NO":"１９號","E_COORD97":171936.98999999999,"N_COORD97":2545308.75,"ADDRESS":"中興街９１巷２７弄１９號","OBJECTID":137386},"geometry":{"x":171936.99000000115,"y":2545308.7500000019}},{"attributes":{"ID":137387,"DIS_CODE":0,"TOWNNAME":"永康區","LI":"北灣里","LIN":"27鄰","STREET":"文賢街","SECT":" ","MAREA":" ","LANE":"１０８巷","ALLEY":"８弄","HOUSE_NO":"７號","E_COORD97":175406.85999999999,"N_COORD97":2545417.3300000001,"ADDRESS":"文賢街１０８巷８弄７號","OBJECTID":137387},"geometry":{"x":175406.86000000034,"y":2545417.3300000001}},{"attributes":{"ID":137388,"DIS_CODE":0,"TOWNNAME":"安定區","LI":"安定里","LIN":"6鄰","STREET":" ","SECT":" ","MAREA":"安定","LANE":" ","ALLEY":" ","HOUSE_NO":"３５號","E_COORD97":172133.67000000001,"N_COORD97":2557918.3199999998,"ADDRESS":"安定３５號","OBJECTID":137388},"geometry":{"x":172133.67000000086,"y":2557918.3200000003}},{"attributes":{"ID":137389,"DIS_CODE":0,"TOWNNAME":"永康區","LI":"北灣里","LIN":"27鄰","STREET":"文賢街","SECT":" ","MAREA":" ","LANE":"１０８巷","ALLEY":"５弄","HOUSE_NO":"５號","E_COORD97":175398.75,"N_COORD97":2545488.8300000001,"ADDRESS":"文賢街１０８巷５弄５號","OBJECTID":137389},"geometry":{"x":175398.75,"y":2545488.8300000001}},{"attributes":{"ID":137390,"DIS_CODE":0,"TOWNNAME":"安定區","LI":"港尾里","LIN":"6鄰","STREET":" ","SECT":" ","MAREA":"港子尾","LANE":" ","ALLEY":" ","HOUSE_NO":"２８號之１","E_COORD97":171563.13,"N_COORD97":2556022.2999999998,"ADDRESS":"港子尾２８號之１","OBJECTID":137390},"geometry":{"x":171563.12999999989,"y":2556022.3000000026}},{"attributes":{"ID":137391,"DIS_CODE":0,"TOWNNAME":"永康區","LI":"北灣里","LIN":"27鄰","STREET":"文賢街","SECT":" ","MAREA":" ","LANE":"１０８巷","ALLEY":"８弄","HOUSE_NO":"６號","E_COORD97":175397.39999999999,"N_COORD97":2545429.3199999998,"ADDRESS":"文賢街１０８巷８弄６號","OBJECTID":137391},"geometry":{"x":175397.4000000013,"y":2545429.320000004}},{"attributes":{"ID":137392,"DIS_CODE":0,"TOWNNAME":"永康區","LI":"北灣里","LIN":"27鄰","STREET":"文賢街","SECT":" ","MAREA":" ","LANE":"１０８巷","ALLEY":"５弄","HOUSE_NO":"２號","E_COORD97":175408.14999999999,"N_COORD97":2545478.0800000001,"ADDRESS":"文賢街１０８巷５弄２號","OBJECTID":137392},"geometry":{"x":175408.15000000037,"y":2545478.0799999982}},{"attributes":{"ID":137393,"DIS_CODE":0,"TOWNNAME":"鹽水區","LI":"水秀里","LIN":"5鄰","STREET":" ","SECT":" ","MAREA":"土庫","LANE":" ","ALLEY":" ","HOUSE_NO":"１７號","E_COORD97":176616.19,"N_COORD97":2579711.4399999999,"ADDRESS":"土庫１７號","OBJECTID":137393},"geometry":{"x":176616.19000000134,"y":2579711.4400000032}},{"attributes":{"ID":137394,"DIS_CODE":0,"TOWNNAME":"永康區","LI":"中興里","LIN":"27鄰","STREET":"中興街","SECT":" ","MAREA":" ","LANE":"９１巷","ALLEY":"２７弄","HOUSE_NO":"１５號","E_COORD97":171960.54999999999,"N_COORD97":2545299.4300000002,"ADDRESS":"中興街９１巷２７弄１５號","OBJECTID":137394},"geometry":{"x":171960.54999999981,"y":2545299.4300000034}},{"attributes":{"ID":137395,"DIS_CODE":0,"TOWNNAME":"安定區","LI":"保西里","LIN":"6鄰","STREET":" ","SECT":" ","MAREA":"安定","LANE":" ","ALLEY":" ","HOUSE_NO":"３８４號","E_COORD97":171557.82000000001,"N_COORD97":2557701.3199999998,"ADDRESS":"安定３８４號","OBJECTID":137395},"geometry":{"x":171557.82000000216,"y":2557701.3200000003}},{"attributes":{"ID":137396,"DIS_CODE":0,"TOWNNAME":"安定區","LI":"安定里","LIN":"6鄰","STREET":" ","SECT":" ","MAREA":"安定","LANE":" ","ALLEY":" ","HOUSE_NO":"２９之４號","E_COORD97":172068.07000000001,"N_COORD97":2557970.3199999998,"ADDRESS":"安定２９之４號","OBJECTID":137396},"geometry":{"x":172068.07000000216,"y":2557970.320000004}},{"attributes":{"ID":137397,"DIS_CODE":0,"TOWNNAME":"安定區","LI":"安定里","LIN":"6鄰","STREET":" ","SECT":" ","MAREA":"安定","LANE":" ","ALLEY":" ","HOUSE_NO":"３０號之２","E_COORD97":172082.44,"N_COORD97":2557970.3199999998,"ADDRESS":"安定３０號之２","OBJECTID":137397},"geometry":{"x":172082.43999999948,"y":2557970.320000004}},{"attributes":{"ID":137398,"DIS_CODE":0,"TOWNNAME":"永康區","LI":"中興里","LIN":"27鄰","STREET":"中興街","SECT":" ","MAREA":" ","LANE":"９１巷","ALLEY":"２７弄","HOUSE_NO":"１２號之１","E_COORD97":171975.88,"N_COORD97":2545298.8599999999,"ADDRESS":"中興街９１巷２７弄１２號之１","OBJECTID":137398},"geometry":{"x":171975.88000000082,"y":2545298.8599999994}},{"attributes":{"ID":137399,"DIS_CODE":0,"TOWNNAME":"永康區","LI":"中興里","LIN":"27鄰","STREET":"中興街","SECT":" ","MAREA":" ","LANE":"９１巷","ALLEY":"２７弄","HOUSE_NO":"１７號","E_COORD97":171951,"N_COORD97":2545299.8999999999,"ADDRESS":"中興街９１巷２７弄１７號","OBJECTID":137399},"geometry":{"x":171951,"y":2545299.8999999985}},{"attributes":{"ID":137400,"DIS_CODE":0,"TOWNNAME":"永康區","LI":"北灣里","LIN":"27鄰","STREET":"文賢街","SECT":" ","MAREA":" ","LANE":"１０８巷","ALLEY":"８弄","HOUSE_NO":"５號","E_COORD97":175406.95000000001,"N_COORD97":2545424.3199999998,"ADDRESS":"文賢街１０８巷８弄５號","OBJECTID":137400},"geometry":{"x":175406.95000000112,"y":2545424.3200000003}}]}