{"displayFieldName":"TOWNNAME","fieldAliases":{"ID":"ID","DIS_CODE":"DIS_CODE","TOWNNAME":"TOWNNAME","LI":"LI","LIN":"LIN","STREET":"STREET","SECT":"SECT","MAREA":"MAREA","LANE":"LANE","ALLEY":"ALLEY","HOUSE_NO":"HOUSE_NO","E_COORD97":"E_COORD97","N_COORD97":"N_COORD97","ADDRESS":"ADDRESS","OBJECTID":"OBJECTID"},"geometryType":"esriGeometryPoint","spatialReference":{"wkid":102443,"latestWkid":3826},"fields":[{"name":"ID","type":"esriFieldTypeDouble","alias":"ID"},{"name":"DIS_CODE","type":"esriFieldTypeInteger","alias":"DIS_CODE"},{"name":"TOWNNAME","type":"esriFieldTypeString","alias":"TOWNNAME","length":8},{"name":"LI","type":"esriFieldTypeString","alias":"LI","length":8},{"name":"LIN","type":"esriFieldTypeString","alias":"LIN","length":12},{"name":"STREET","type":"esriFieldTypeString","alias":"STREET","length":20},{"name":"SECT","type":"esriFieldTypeString","alias":"SECT","length":8},{"name":"MAREA","type":"esriFieldTypeString","alias":"MAREA","length":12},{"name":"LANE","type":"esriFieldTypeString","alias":"LANE","length":10},{"name":"ALLEY","type":"esriFieldTypeString","alias":"ALLEY","length":10},{"name":"HOUSE_NO","type":"esriFieldTypeString","alias":"HOUSE_NO","length":20},{"name":"E_COORD97","type":"esriFieldTypeDouble","alias":"E_COORD97"},{"name":"N_COORD97","type":"esriFieldTypeDouble","alias":"N_COORD97"},{"name":"ADDRESS","type":"esriFieldTypeString","alias":"ADDRESS","length":50},{"name":"OBJECTID","type":"esriFieldTypeOID","alias":"OBJECTID"}],"features":[{"attributes":{"ID":536828,"DIS_CODE":0,"TOWNNAME":"關廟區","LI":"北花里","LIN":"19鄰","STREET":"花園三街","SECT":" ","MAREA":" ","LANE":" ","ALLEY":" ","HOUSE_NO":"２０號","E_COORD97":181998.73999999999,"N_COORD97":2540454.25,"ADDRESS":"花園三街２０號","OBJECTID":536801},"geometry":{"x":181998.74000000022,"y":2540454.25}},{"attributes":{"ID":536829,"DIS_CODE":0,"TOWNNAME":"關廟區","LI":"東勢里","LIN":"19鄰","STREET":"旺萊路","SECT":" ","MAREA":" ","LANE":" ","ALLEY":" ","HOUSE_NO":"１７２號","E_COORD97":181783.04000000001,"N_COORD97":2539300.25,"ADDRESS":"旺萊路１７２號","OBJECTID":536802},"geometry":{"x":181783.0400000019,"y":2539300.2500000019}},{"attributes":{"ID":536830,"DIS_CODE":0,"TOWNNAME":"關廟區","LI":"東勢里","LIN":"19鄰","STREET":"旺萊路","SECT":" ","MAREA":" ","LANE":" ","ALLEY":" ","HOUSE_NO":"１９６號","E_COORD97":181812.94,"N_COORD97":2539320.25,"ADDRESS":"旺萊路１９６號","OBJECTID":536803},"geometry":{"x":181812.94000000227,"y":2539320.2500000037}},{"attributes":{"ID":536831,"DIS_CODE":0,"TOWNNAME":"關廟區","LI":"東勢里","LIN":"19鄰","STREET":"旺萊路","SECT":" ","MAREA":" ","LANE":" ","ALLEY":" ","HOUSE_NO":"１９０號","E_COORD97":181806.04000000001,"N_COORD97":2539316.25,"ADDRESS":"旺萊路１９０號","OBJECTID":536804},"geometry":{"x":181806.04000000004,"y":2539316.25}},{"attributes":{"ID":536832,"DIS_CODE":0,"TOWNNAME":"關廟區","LI":"北花里","LIN":"19鄰","STREET":"北安一街","SECT":" ","MAREA":" ","LANE":" ","ALLEY":" ","HOUSE_NO":"５５號","E_COORD97":181961.89000000001,"N_COORD97":2540525.3199999998,"ADDRESS":"北安一街５５號","OBJECTID":536805},"geometry":{"x":181961.8900000006,"y":2540525.3200000003}},{"attributes":{"ID":536833,"DIS_CODE":0,"TOWNNAME":"關廟區","LI":"東勢里","LIN":"19鄰","STREET":"旺萊路","SECT":" ","MAREA":" ","LANE":" ","ALLEY":" ","HOUSE_NO":"１７０號","E_COORD97":181779.94,"N_COORD97":2539298.25,"ADDRESS":"旺萊路１７０號","OBJECTID":536806},"geometry":{"x":181779.94000000041,"y":2539298.25}},{"attributes":{"ID":536834,"DIS_CODE":0,"TOWNNAME":"關廟區","LI":"五甲里","LIN":"19鄰","STREET":"南雄路","SECT":"一段","MAREA":" ","LANE":" ","ALLEY":" ","HOUSE_NO":"９３５號","E_COORD97":181231.59,"N_COORD97":2539401.2799999998,"ADDRESS":"南雄路一段９３５號","OBJECTID":536807},"geometry":{"x":181231.59000000171,"y":2539401.2800000012}},{"attributes":{"ID":536835,"DIS_CODE":0,"TOWNNAME":"關廟區","LI":"香洋里","LIN":"19鄰","STREET":"中央路","SECT":" ","MAREA":" ","LANE":" ","ALLEY":" ","HOUSE_NO":"１２７號","E_COORD97":181326.16,"N_COORD97":2540024.3199999998,"ADDRESS":"中央路１２７號","OBJECTID":536808},"geometry":{"x":181326.16000000015,"y":2540024.3200000003}},{"attributes":{"ID":536836,"DIS_CODE":0,"TOWNNAME":"關廟區","LI":"五甲里","LIN":"19鄰","STREET":"南雄路","SECT":"一段","MAREA":" ","LANE":" ","ALLEY":" ","HOUSE_NO":"１０６７號","E_COORD97":181107.85000000001,"N_COORD97":2539678.1699999999,"ADDRESS":"南雄路一段１０６７號","OBJECTID":536809},"geometry":{"x":181107.85000000056,"y":2539678.1700000018}},{"attributes":{"ID":536837,"DIS_CODE":0,"TOWNNAME":"關廟區","LI":"東勢里","LIN":"19鄰","STREET":"旺萊路","SECT":" ","MAREA":" ","LANE":" ","ALLEY":" ","HOUSE_NO":"１８６號","E_COORD97":181799.94,"N_COORD97":2539311.25,"ADDRESS":"旺萊路１８６號","OBJECTID":536810},"geometry":{"x":181799.94000000134,"y":2539311.2500000019}},{"attributes":{"ID":536838,"DIS_CODE":0,"TOWNNAME":"關廟區","LI":"北花里","LIN":"19鄰","STREET":"花園三街","SECT":" ","MAREA":" ","LANE":" ","ALLEY":" ","HOUSE_NO":"２６號","E_COORD97":181988.73999999999,"N_COORD97":2540455.25,"ADDRESS":"花園三街２６號","OBJECTID":536811},"geometry":{"x":181988.74000000209,"y":2540455.25}},{"attributes":{"ID":536839,"DIS_CODE":0,"TOWNNAME":"關廟區","LI":"北勢里","LIN":"19鄰","STREET":"南雄路","SECT":"二段","MAREA":" ","LANE":" ","ALLEY":" ","HOUSE_NO":"２２８號","E_COORD97":181167.48999999999,"N_COORD97":2540587.2799999998,"ADDRESS":"南雄路二段２２８號","OBJECTID":536812},"geometry":{"x":181167.49000000022,"y":2540587.2800000031}},{"attributes":{"ID":536840,"DIS_CODE":0,"TOWNNAME":"關廟區","LI":"五甲里","LIN":"19鄰","STREET":"南雄路","SECT":"一段","MAREA":" ","LANE":" ","ALLEY":" ","HOUSE_NO":"１０７７號","E_COORD97":181099.85000000001,"N_COORD97":2539697.1699999999,"ADDRESS":"南雄路一段１０７７號","OBJECTID":536813},"geometry":{"x":181099.85000000056,"y":2539697.1700000018}},{"attributes":{"ID":536841,"DIS_CODE":0,"TOWNNAME":"關廟區","LI":"五甲里","LIN":"19鄰","STREET":"南雄路","SECT":"一段","MAREA":" ","LANE":" ","ALLEY":" ","HOUSE_NO":"１０１７號","E_COORD97":181140.14999999999,"N_COORD97":2539603.1699999999,"ADDRESS":"南雄路一段１０１７號","OBJECTID":536814},"geometry":{"x":181140.15000000224,"y":2539603.1700000018}},{"attributes":{"ID":536842,"DIS_CODE":0,"TOWNNAME":"關廟區","LI":"東勢里","LIN":"19鄰","STREET":"東仁街","SECT":" ","MAREA":" ","LANE":" ","ALLEY":" ","HOUSE_NO":"８０號","E_COORD97":181810.62,"N_COORD97":2539251.25,"ADDRESS":"東仁街８０號","OBJECTID":536815},"geometry":{"x":181810.62000000011,"y":2539251.25}},{"attributes":{"ID":536843,"DIS_CODE":0,"TOWNNAME":"關廟區","LI":"五甲里","LIN":"19鄰","STREET":"南雄路","SECT":"一段","MAREA":" ","LANE":" ","ALLEY":" ","HOUSE_NO":"１０９５號","E_COORD97":181084.45000000001,"N_COORD97":2539734.1699999999,"ADDRESS":"南雄路一段１０９５號","OBJECTID":536816},"geometry":{"x":181084.45000000112,"y":2539734.1700000037}},{"attributes":{"ID":536844,"DIS_CODE":0,"TOWNNAME":"關廟區","LI":"東勢里","LIN":"19鄰","STREET":"東仁街","SECT":" ","MAREA":" ","LANE":" ","ALLEY":" ","HOUSE_NO":"４９號","E_COORD97":181830.92000000001,"N_COORD97":2539271.25,"ADDRESS":"東仁街４９號","OBJECTID":536817},"geometry":{"x":181830.91999999993,"y":2539271.25}},{"attributes":{"ID":536845,"DIS_CODE":0,"TOWNNAME":"關廟區","LI":"北勢里","LIN":"19鄰","STREET":"南雄路","SECT":"二段","MAREA":" ","LANE":" ","ALLEY":" ","HOUSE_NO":"２４０號","E_COORD97":181160.19,"N_COORD97":2540606.2799999998,"ADDRESS":"南雄路二段２４０號","OBJECTID":536818},"geometry":{"x":181160.18999999948,"y":2540606.2799999993}},{"attributes":{"ID":536846,"DIS_CODE":0,"TOWNNAME":"南區","LI":"白雪里","LIN":"19鄰","STREET":"金華路","SECT":"一段","MAREA":" ","LANE":" ","ALLEY":" ","HOUSE_NO":"３０９號","E_COORD97":166958.23999999999,"N_COORD97":2541058.29,"ADDRESS":"金華路一段３０９號","OBJECTID":536819},"geometry":{"x":166958.24000000115,"y":2541058.2900000028}},{"attributes":{"ID":536847,"DIS_CODE":0,"TOWNNAME":"南區","LI":"白雪里","LIN":"19鄰","STREET":"金華路","SECT":"一段","MAREA":" ","LANE":" ","ALLEY":" ","HOUSE_NO":"３１１號","E_COORD97":166958.72,"N_COORD97":2541061.9500000002,"ADDRESS":"金華路一段３１１號","OBJECTID":536820},"geometry":{"x":166958.71999999881,"y":2541061.9500000011}},{"attributes":{"ID":536848,"DIS_CODE":0,"TOWNNAME":"南區","LI":"白雪里","LIN":"19鄰","STREET":"金華路","SECT":"一段","MAREA":" ","LANE":" ","ALLEY":" ","HOUSE_NO":"２８９號之１","E_COORD97":166959.42000000001,"N_COORD97":2541006.3399999999,"ADDRESS":"金華路一段２８９號之１","OBJECTID":536821},"geometry":{"x":166959.42000000179,"y":2541006.3399999999}},{"attributes":{"ID":536849,"DIS_CODE":0,"TOWNNAME":"南區","LI":"明興里","LIN":"19鄰","STREET":"德興路","SECT":" ","MAREA":" ","LANE":" ","ALLEY":" ","HOUSE_NO":"１５８號","E_COORD97":167190.07999999999,"N_COORD97":2540379.7400000002,"ADDRESS":"德興路１５８號","OBJECTID":536822},"geometry":{"x":167190.08000000007,"y":2540379.7400000021}},{"attributes":{"ID":536850,"DIS_CODE":0,"TOWNNAME":"鹽水區","LI":"橋南里","LIN":"19鄰","STREET":"忠孝路","SECT":" ","MAREA":" ","LANE":" ","ALLEY":" ","HOUSE_NO":"１００號","E_COORD97":175681.01999999999,"N_COORD97":2578925.9100000001,"ADDRESS":"忠孝路１００號","OBJECTID":536823},"geometry":{"x":175681.01999999955,"y":2578925.910000002}},{"attributes":{"ID":536851,"DIS_CODE":0,"TOWNNAME":"鹽水區","LI":"橋南里","LIN":"19鄰","STREET":"忠孝路","SECT":" ","MAREA":" ","LANE":" ","ALLEY":" ","HOUSE_NO":"１０１號","E_COORD97":175671.45000000001,"N_COORD97":2578884.2000000002,"ADDRESS":"忠孝路１０１號","OBJECTID":536824},"geometry":{"x":175671.45000000112,"y":2578884.1999999993}},{"attributes":{"ID":536852,"DIS_CODE":0,"TOWNNAME":"鹽水區","LI":"橋南里","LIN":"19鄰","STREET":"忠孝路","SECT":" ","MAREA":" ","LANE":" ","ALLEY":" ","HOUSE_NO":"１０３號","E_COORD97":175667.67000000001,"N_COORD97":2578884.3500000001,"ADDRESS":"忠孝路１０３號","OBJECTID":536825},"geometry":{"x":175667.67000000086,"y":2578884.3499999996}},{"attributes":{"ID":536853,"DIS_CODE":0,"TOWNNAME":"鹽水區","LI":"橋南里","LIN":"19鄰","STREET":"忠孝路","SECT":" ","MAREA":" ","LANE":" ","ALLEY":" ","HOUSE_NO":"１０５號","E_COORD97":175663.69,"N_COORD97":2578884.5800000001,"ADDRESS":"忠孝路１０５號","OBJECTID":536826},"geometry":{"x":175663.69000000041,"y":2578884.5800000019}},{"attributes":{"ID":536854,"DIS_CODE":0,"TOWNNAME":"鹽水區","LI":"橋南里","LIN":"19鄰","STREET":"忠孝路","SECT":" ","MAREA":" ","LANE":" ","ALLEY":" ","HOUSE_NO":"１０８號","E_COORD97":175661.95000000001,"N_COORD97":2578933.6699999999,"ADDRESS":"忠孝路１０８號","OBJECTID":536827},"geometry":{"x":175661.95000000019,"y":2578933.6700000037}},{"attributes":{"ID":536855,"DIS_CODE":0,"TOWNNAME":"鹽水區","LI":"橋南里","LIN":"19鄰","STREET":"忠孝路","SECT":" ","MAREA":" ","LANE":" ","ALLEY":" ","HOUSE_NO":"１１１號","E_COORD97":175647.28,"N_COORD97":2578888.1200000001,"ADDRESS":"忠孝路１１１號","OBJECTID":536828},"geometry":{"x":175647.28000000119,"y":2578888.1200000029}},{"attributes":{"ID":536856,"DIS_CODE":0,"TOWNNAME":"鹽水區","LI":"橋南里","LIN":"19鄰","STREET":"忠孝路","SECT":" ","MAREA":" ","LANE":" ","ALLEY":" ","HOUSE_NO":"１１３號","E_COORD97":175642.51000000001,"N_COORD97":2578888.71,"ADDRESS":"忠孝路１１３號","OBJECTID":536829},"geometry":{"x":175642.50999999978,"y":2578888.7100000028}},{"attributes":{"ID":536857,"DIS_CODE":0,"TOWNNAME":"鹽水區","LI":"橋南里","LIN":"19鄰","STREET":"忠孝路","SECT":" ","MAREA":" ","LANE":" ","ALLEY":" ","HOUSE_NO":"１２５號","E_COORD97":175608.19,"N_COORD97":2578818.3199999998,"ADDRESS":"忠孝路１２５號","OBJECTID":536830},"geometry":{"x":175608.19000000041,"y":2578818.3200000022}},{"attributes":{"ID":536858,"DIS_CODE":0,"TOWNNAME":"鹽水區","LI":"橋南里","LIN":"19鄰","STREET":"忠孝路","SECT":" ","MAREA":" ","LANE":" ","ALLEY":" ","HOUSE_NO":"１３１號","E_COORD97":175596.60999999999,"N_COORD97":2578902.4300000002,"ADDRESS":"忠孝路１３１號","OBJECTID":536831},"geometry":{"x":175596.61000000034,"y":2578902.4300000016}},{"attributes":{"ID":536859,"DIS_CODE":0,"TOWNNAME":"鹽水區","LI":"橋南里","LIN":"19鄰","STREET":"忠孝路","SECT":" ","MAREA":" ","LANE":" ","ALLEY":" ","HOUSE_NO":"１３３號","E_COORD97":175592.23999999999,"N_COORD97":2578902.9300000002,"ADDRESS":"忠孝路１３３號","OBJECTID":536832},"geometry":{"x":175592.24000000022,"y":2578902.9299999997}},{"attributes":{"ID":536860,"DIS_CODE":0,"TOWNNAME":"鹽水區","LI":"橋南里","LIN":"19鄰","STREET":"忠孝路","SECT":" ","MAREA":" ","LANE":" ","ALLEY":" ","HOUSE_NO":"１３５號","E_COORD97":175587.59,"N_COORD97":2578903.0499999998,"ADDRESS":"忠孝路１３５號","OBJECTID":536833},"geometry":{"x":175587.58999999985,"y":2578903.0500000026}},{"attributes":{"ID":536861,"DIS_CODE":0,"TOWNNAME":"鹽水區","LI":"橋南里","LIN":"19鄰","STREET":"忠孝路","SECT":" ","MAREA":" ","LANE":" ","ALLEY":" ","HOUSE_NO":"１５３號","E_COORD97":175535.26000000001,"N_COORD97":2578910.6000000001,"ADDRESS":"忠孝路１５３號","OBJECTID":536834},"geometry":{"x":175535.26000000071,"y":2578910.6000000015}},{"attributes":{"ID":536862,"DIS_CODE":0,"TOWNNAME":"鹽水區","LI":"橋南里","LIN":"19鄰","STREET":"忠孝路","SECT":" ","MAREA":" ","LANE":" ","ALLEY":" ","HOUSE_NO":"１５７號","E_COORD97":175519.70999999999,"N_COORD97":2578911.5699999998,"ADDRESS":"忠孝路１５７號","OBJECTID":536835},"geometry":{"x":175519.70999999903,"y":2578911.5700000022}},{"attributes":{"ID":536863,"DIS_CODE":0,"TOWNNAME":"鹽水區","LI":"橋南里","LIN":"19鄰","STREET":"忠孝路","SECT":" ","MAREA":" ","LANE":" ","ALLEY":" ","HOUSE_NO":"１６９號","E_COORD97":175476.73000000001,"N_COORD97":2578916.6099999999,"ADDRESS":"忠孝路１６９號","OBJECTID":536836},"geometry":{"x":175476.73000000138,"y":2578916.6100000031}},{"attributes":{"ID":536864,"DIS_CODE":0,"TOWNNAME":"鹽水區","LI":"橋南里","LIN":"19鄰","STREET":"忠孝路","SECT":" ","MAREA":" ","LANE":" ","ALLEY":" ","HOUSE_NO":"１７３號","E_COORD97":175483.12,"N_COORD97":2578907.1600000001,"ADDRESS":"忠孝路１７３號","OBJECTID":536837},"geometry":{"x":175483.12000000011,"y":2578907.1600000039}},{"attributes":{"ID":536865,"DIS_CODE":0,"TOWNNAME":"鹽水區","LI":"橋南里","LIN":"19鄰","STREET":"忠孝路","SECT":" ","MAREA":" ","LANE":" ","ALLEY":" ","HOUSE_NO":"１７５號","E_COORD97":175469.01999999999,"N_COORD97":2578912.8999999999,"ADDRESS":"忠孝路１７５號","OBJECTID":536838},"geometry":{"x":175469.01999999955,"y":2578912.9000000022}},{"attributes":{"ID":536866,"DIS_CODE":0,"TOWNNAME":"鹽水區","LI":"橋南里","LIN":"19鄰","STREET":"忠孝路","SECT":" ","MAREA":" ","LANE":" ","ALLEY":" ","HOUSE_NO":"１７７號","E_COORD97":175461.06,"N_COORD97":2578909.25,"ADDRESS":"忠孝路１７７號","OBJECTID":536839},"geometry":{"x":175461.06000000145,"y":2578909.25}},{"attributes":{"ID":536867,"DIS_CODE":0,"TOWNNAME":"鹽水區","LI":"橋南里","LIN":"19鄰","STREET":"忠孝路","SECT":" ","MAREA":" ","LANE":" ","ALLEY":" ","HOUSE_NO":"１８３號","E_COORD97":175439.85999999999,"N_COORD97":2578921.48,"ADDRESS":"忠孝路１８３號","OBJECTID":536840},"geometry":{"x":175439.86000000127,"y":2578921.4800000004}},{"attributes":{"ID":536868,"DIS_CODE":0,"TOWNNAME":"鹽水區","LI":"橋南里","LIN":"19鄰","STREET":"忠孝路","SECT":" ","MAREA":" ","LANE":" ","ALLEY":" ","HOUSE_NO":"２３號","E_COORD97":175933.51999999999,"N_COORD97":2578843.6400000001,"ADDRESS":"忠孝路２３號","OBJECTID":536841},"geometry":{"x":175933.51999999955,"y":2578843.6400000025}},{"attributes":{"ID":536869,"DIS_CODE":0,"TOWNNAME":"鹽水區","LI":"橋南里","LIN":"19鄰","STREET":"忠孝路","SECT":" ","MAREA":" ","LANE":" ","ALLEY":" ","HOUSE_NO":"２５號","E_COORD97":175929.51000000001,"N_COORD97":2578844.23,"ADDRESS":"忠孝路２５號","OBJECTID":536842},"geometry":{"x":175929.51000000164,"y":2578844.2300000004}},{"attributes":{"ID":536870,"DIS_CODE":0,"TOWNNAME":"鹽水區","LI":"橋南里","LIN":"19鄰","STREET":"忠孝路","SECT":" ","MAREA":" ","LANE":" ","ALLEY":" ","HOUSE_NO":"２７號","E_COORD97":175925.48999999999,"N_COORD97":2578844.8199999998,"ADDRESS":"忠孝路２７號","OBJECTID":536843},"geometry":{"x":175925.49000000115,"y":2578844.8199999984}},{"attributes":{"ID":536871,"DIS_CODE":0,"TOWNNAME":"鹽水區","LI":"橋南里","LIN":"19鄰","STREET":"忠孝路","SECT":" ","MAREA":" ","LANE":" ","ALLEY":" ","HOUSE_NO":"２９號","E_COORD97":175921.47,"N_COORD97":2578845.4100000001,"ADDRESS":"忠孝路２９號","OBJECTID":536844},"geometry":{"x":175921.47000000067,"y":2578845.410000002}},{"attributes":{"ID":536872,"DIS_CODE":0,"TOWNNAME":"鹽水區","LI":"橋南里","LIN":"19鄰","STREET":"忠孝路","SECT":" ","MAREA":" ","LANE":" ","ALLEY":" ","HOUSE_NO":"３１號","E_COORD97":175917.45999999999,"N_COORD97":2578846,"ADDRESS":"忠孝路３１號","OBJECTID":536845},"geometry":{"x":175917.45999999996,"y":2578846}},{"attributes":{"ID":536873,"DIS_CODE":0,"TOWNNAME":"鹽水區","LI":"橋南里","LIN":"19鄰","STREET":"忠孝路","SECT":" ","MAREA":" ","LANE":" ","ALLEY":" ","HOUSE_NO":"３３號","E_COORD97":175913.44,"N_COORD97":2578846.5899999999,"ADDRESS":"忠孝路３３號","OBJECTID":536846},"geometry":{"x":175913.44000000041,"y":2578846.5900000017}},{"attributes":{"ID":536874,"DIS_CODE":0,"TOWNNAME":"鹽水區","LI":"橋南里","LIN":"19鄰","STREET":"忠孝路","SECT":" ","MAREA":" ","LANE":" ","ALLEY":" ","HOUSE_NO":"３５號","E_COORD97":175909.42000000001,"N_COORD97":2578847.1699999999,"ADDRESS":"忠孝路３５號","OBJECTID":536847},"geometry":{"x":175909.41999999993,"y":2578847.1700000018}},{"attributes":{"ID":536875,"DIS_CODE":0,"TOWNNAME":"鹽水區","LI":"橋南里","LIN":"19鄰","STREET":"忠孝路","SECT":" ","MAREA":" ","LANE":" ","ALLEY":" ","HOUSE_NO":"３７號","E_COORD97":175905.41,"N_COORD97":2578847.7599999998,"ADDRESS":"忠孝路３７號","OBJECTID":536848},"geometry":{"x":175905.41000000108,"y":2578847.7599999998}},{"attributes":{"ID":536876,"DIS_CODE":0,"TOWNNAME":"鹽水區","LI":"橋南里","LIN":"19鄰","STREET":"忠孝路","SECT":" ","MAREA":" ","LANE":" ","ALLEY":" ","HOUSE_NO":"３９號","E_COORD97":175901.39000000001,"N_COORD97":2578848.3500000001,"ADDRESS":"忠孝路３９號","OBJECTID":536849},"geometry":{"x":175901.39000000153,"y":2578848.3500000015}},{"attributes":{"ID":536877,"DIS_CODE":0,"TOWNNAME":"鹽水區","LI":"橋南里","LIN":"19鄰","STREET":"忠孝路","SECT":" ","MAREA":" ","LANE":" ","ALLEY":" ","HOUSE_NO":"４１號","E_COORD97":175897.37,"N_COORD97":2578848.9399999999,"ADDRESS":"忠孝路４１號","OBJECTID":536850},"geometry":{"x":175897.37000000104,"y":2578848.9399999995}},{"attributes":{"ID":536878,"DIS_CODE":0,"TOWNNAME":"鹽水區","LI":"橋南里","LIN":"19鄰","STREET":"忠孝路","SECT":" ","MAREA":" ","LANE":" ","ALLEY":" ","HOUSE_NO":"５２號","E_COORD97":175869.45000000001,"N_COORD97":2578927.1400000001,"ADDRESS":"忠孝路５２號","OBJECTID":536851},"geometry":{"x":175869.45000000205,"y":2578927.1400000006}},{"attributes":{"ID":536879,"DIS_CODE":0,"TOWNNAME":"鹽水區","LI":"橋南里","LIN":"19鄰","STREET":"忠孝路","SECT":" ","MAREA":" ","LANE":" ","ALLEY":" ","HOUSE_NO":"５３號","E_COORD97":175866.70000000001,"N_COORD97":2578846.8100000001,"ADDRESS":"忠孝路５３號","OBJECTID":536852},"geometry":{"x":175866.70000000112,"y":2578846.8100000024}},{"attributes":{"ID":536880,"DIS_CODE":0,"TOWNNAME":"鹽水區","LI":"橋南里","LIN":"19鄰","STREET":"忠孝路","SECT":" ","MAREA":" ","LANE":" ","ALLEY":" ","HOUSE_NO":"５４號","E_COORD97":175861.20000000001,"N_COORD97":2578900.73,"ADDRESS":"忠孝路５４號","OBJECTID":536853},"geometry":{"x":175861.20000000112,"y":2578900.7300000023}},{"attributes":{"ID":536881,"DIS_CODE":0,"TOWNNAME":"鹽水區","LI":"橋南里","LIN":"19鄰","STREET":"忠孝路","SECT":" ","MAREA":" ","LANE":" ","ALLEY":" ","HOUSE_NO":"５７號","E_COORD97":175857.54000000001,"N_COORD97":2578848.0099999998,"ADDRESS":"忠孝路５７號","OBJECTID":536854},"geometry":{"x":175857.54000000004,"y":2578848.0100000016}},{"attributes":{"ID":536882,"DIS_CODE":0,"TOWNNAME":"鹽水區","LI":"橋南里","LIN":"19鄰","STREET":"忠孝路","SECT":" ","MAREA":" ","LANE":" ","ALLEY":" ","HOUSE_NO":"６０號","E_COORD97":175849.51999999999,"N_COORD97":2578915.3799999999,"ADDRESS":"忠孝路６０號","OBJECTID":536855},"geometry":{"x":175849.52000000142,"y":2578915.3800000008}},{"attributes":{"ID":536883,"DIS_CODE":0,"TOWNNAME":"鹽水區","LI":"橋南里","LIN":"19鄰","STREET":"忠孝路","SECT":" ","MAREA":" ","LANE":" ","ALLEY":" ","HOUSE_NO":"６２號","E_COORD97":175840.48000000001,"N_COORD97":2578915.4300000002,"ADDRESS":"忠孝路６２號","OBJECTID":536856},"geometry":{"x":175840.47999999952,"y":2578915.4300000016}},{"attributes":{"ID":536884,"DIS_CODE":0,"TOWNNAME":"鹽水區","LI":"橋南里","LIN":"19鄰","STREET":"忠孝路","SECT":" ","MAREA":" ","LANE":" ","ALLEY":" ","HOUSE_NO":"６４號","E_COORD97":175834.14999999999,"N_COORD97":2578903.4500000002,"ADDRESS":"忠孝路６４號","OBJECTID":536857},"geometry":{"x":175834.14999999944,"y":2578903.4499999993}},{"attributes":{"ID":536885,"DIS_CODE":0,"TOWNNAME":"鹽水區","LI":"橋南里","LIN":"19鄰","STREET":"忠孝路","SECT":" ","MAREA":" ","LANE":" ","ALLEY":" ","HOUSE_NO":"６６號","E_COORD97":175829.70999999999,"N_COORD97":2578903.46,"ADDRESS":"忠孝路６６號","OBJECTID":536858},"geometry":{"x":175829.70999999996,"y":2578903.4600000028}},{"attributes":{"ID":536886,"DIS_CODE":0,"TOWNNAME":"鹽水區","LI":"橋南里","LIN":"19鄰","STREET":"忠孝路","SECT":" ","MAREA":" ","LANE":" ","ALLEY":" ","HOUSE_NO":"６８號","E_COORD97":175822.22,"N_COORD97":2578903.6800000002,"ADDRESS":"忠孝路６８號","OBJECTID":536859},"geometry":{"x":175822.21999999974,"y":2578903.6800000016}},{"attributes":{"ID":536887,"DIS_CODE":0,"TOWNNAME":"鹽水區","LI":"橋南里","LIN":"19鄰","STREET":"忠孝路","SECT":" ","MAREA":" ","LANE":" ","ALLEY":" ","HOUSE_NO":"７０號","E_COORD97":175814.23999999999,"N_COORD97":2578903.4100000001,"ADDRESS":"忠孝路７０號","OBJECTID":536860},"geometry":{"x":175814.24000000022,"y":2578903.410000002}},{"attributes":{"ID":536888,"DIS_CODE":0,"TOWNNAME":"鹽水區","LI":"橋南里","LIN":"19鄰","STREET":"忠孝路","SECT":" ","MAREA":" ","LANE":" ","ALLEY":" ","HOUSE_NO":"７５號","E_COORD97":175710.42999999999,"N_COORD97":2578782.4199999999,"ADDRESS":"忠孝路７５號","OBJECTID":536861},"geometry":{"x":175710.43000000063,"y":2578782.4199999999}},{"attributes":{"ID":536889,"DIS_CODE":0,"TOWNNAME":"鹽水區","LI":"橋南里","LIN":"19鄰","STREET":"忠孝路","SECT":" ","MAREA":" ","LANE":" ","ALLEY":" ","HOUSE_NO":"７７號","E_COORD97":175791.39000000001,"N_COORD97":2578869.1699999999,"ADDRESS":"忠孝路７７號","OBJECTID":536862},"geometry":{"x":175791.3900000006,"y":2578869.1699999981}},{"attributes":{"ID":536890,"DIS_CODE":0,"TOWNNAME":"鹽水區","LI":"橋南里","LIN":"19鄰","STREET":"忠孝路","SECT":" ","MAREA":" ","LANE":" ","ALLEY":" ","HOUSE_NO":"８６號","E_COORD97":175722.39999999999,"N_COORD97":2578933.8599999999,"ADDRESS":"忠孝路８６號","OBJECTID":536863},"geometry":{"x":175722.40000000224,"y":2578933.8599999994}},{"attributes":{"ID":536891,"DIS_CODE":0,"TOWNNAME":"鹽水區","LI":"橋南里","LIN":"19鄰","STREET":"忠孝路","SECT":" ","MAREA":" ","LANE":" ","ALLEY":" ","HOUSE_NO":"９３號","E_COORD97":175702.76000000001,"N_COORD97":2578854.8199999998,"ADDRESS":"忠孝路９３號","OBJECTID":536864},"geometry":{"x":175702.76000000071,"y":2578854.8200000003}},{"attributes":{"ID":536892,"DIS_CODE":0,"TOWNNAME":"鹽水區","LI":"橋南里","LIN":"19鄰","STREET":"忠孝路","SECT":" ","MAREA":" ","LANE":" ","ALLEY":" ","HOUSE_NO":"９５號","E_COORD97":175685.72,"N_COORD97":2578879.4199999999,"ADDRESS":"忠孝路９５號","OBJECTID":536865},"geometry":{"x":175685.7200000016,"y":2578879.4200000018}},{"attributes":{"ID":536893,"DIS_CODE":0,"TOWNNAME":"鹽水區","LI":"橋南里","LIN":"19鄰","STREET":"忠孝路","SECT":" ","MAREA":" ","LANE":" ","ALLEY":" ","HOUSE_NO":"９７號","E_COORD97":175680.81,"N_COORD97":2578879.2799999998,"ADDRESS":"忠孝路９７號","OBJECTID":536866},"geometry":{"x":175680.80999999959,"y":2578879.2800000012}},{"attributes":{"ID":536894,"DIS_CODE":0,"TOWNNAME":"鹽水區","LI":"橋南里","LIN":"19鄰","STREET":"忠孝路","SECT":" ","MAREA":" ","LANE":" ","ALLEY":" ","HOUSE_NO":"９８號","E_COORD97":175685.38,"N_COORD97":2578925.27,"ADDRESS":"忠孝路９８號","OBJECTID":536867},"geometry":{"x":175685.38000000082,"y":2578925.2699999996}},{"attributes":{"ID":536895,"DIS_CODE":0,"TOWNNAME":"安平區","LI":"文平里","LIN":"19鄰","STREET":"建平一街","SECT":" ","MAREA":" ","LANE":" ","ALLEY":" ","HOUSE_NO":"８２號","E_COORD97":165881.92000000001,"N_COORD97":2542759.73,"ADDRESS":"建平一街８２號","OBJECTID":536868},"geometry":{"x":165881.92000000086,"y":2542759.7300000023}},{"attributes":{"ID":536896,"DIS_CODE":0,"TOWNNAME":"安平區","LI":"文平里","LIN":"19鄰","STREET":"建平一街","SECT":" ","MAREA":" ","LANE":" ","ALLEY":" ","HOUSE_NO":"８０號","E_COORD97":165886.35999999999,"N_COORD97":2542760.04,"ADDRESS":"建平一街８０號","OBJECTID":536869},"geometry":{"x":165886.36000000034,"y":2542760.040000001}},{"attributes":{"ID":536897,"DIS_CODE":0,"TOWNNAME":"安平區","LI":"文平里","LIN":"19鄰","STREET":"建平一街","SECT":" ","MAREA":" ","LANE":" ","ALLEY":" ","HOUSE_NO":"７６號","E_COORD97":165894.45999999999,"N_COORD97":2542758.6099999999,"ADDRESS":"建平一街７６號","OBJECTID":536870},"geometry":{"x":165894.46000000183,"y":2542758.6100000013}},{"attributes":{"ID":536898,"DIS_CODE":0,"TOWNNAME":"安平區","LI":"文平里","LIN":"19鄰","STREET":"建平一街","SECT":" ","MAREA":" ","LANE":" ","ALLEY":" ","HOUSE_NO":"７８號","E_COORD97":165890.48999999999,"N_COORD97":2542759.4100000001,"ADDRESS":"建平一街７８號","OBJECTID":536871},"geometry":{"x":165890.49000000022,"y":2542759.4100000001}},{"attributes":{"ID":536899,"DIS_CODE":0,"TOWNNAME":"安平區","LI":"文平里","LIN":"19鄰","STREET":"建平一街","SECT":" ","MAREA":" ","LANE":" ","ALLEY":" ","HOUSE_NO":"７２號","E_COORD97":165898.91,"N_COORD97":2542757.6600000001,"ADDRESS":"建平一街７２號","OBJECTID":536872},"geometry":{"x":165898.91000000108,"y":2542757.6600000001}},{"attributes":{"ID":536900,"DIS_CODE":0,"TOWNNAME":"南區","LI":"彰南里","LIN":"19鄰","STREET":"新樂路","SECT":" ","MAREA":" ","LANE":" ","ALLEY":" ","HOUSE_NO":"４號","E_COORD97":165705.10000000001,"N_COORD97":2542250.0600000001,"ADDRESS":"新樂路４號","OBJECTID":536873},"geometry":{"x":165705.10000000149,"y":2542250.0600000005}},{"attributes":{"ID":536901,"DIS_CODE":0,"TOWNNAME":"南區","LI":"彰南里","LIN":"19鄰","STREET":"新樂路","SECT":" ","MAREA":" ","LANE":" ","ALLEY":" ","HOUSE_NO":"４號之１","E_COORD97":165703.89999999999,"N_COORD97":2542236.6000000001,"ADDRESS":"新樂路４號之１","OBJECTID":536874},"geometry":{"x":165703.90000000224,"y":2542236.6000000034}},{"attributes":{"ID":536902,"DIS_CODE":0,"TOWNNAME":"北區","LI":"成德里","LIN":"19鄰","STREET":"育成路","SECT":" ","MAREA":" ","LANE":" ","ALLEY":" ","HOUSE_NO":"４５號","E_COORD97":168952.04000000001,"N_COORD97":2546321.2999999998,"ADDRESS":"育成路４５號","OBJECTID":536875},"geometry":{"x":168952.03999999911,"y":2546321.3000000007}},{"attributes":{"ID":536903,"DIS_CODE":0,"TOWNNAME":"北區","LI":"成德里","LIN":"19鄰","STREET":"育成路","SECT":" ","MAREA":" ","LANE":" ","ALLEY":" ","HOUSE_NO":"５６號","E_COORD97":168947.53,"N_COORD97":2546362.0099999998,"ADDRESS":"育成路５６號","OBJECTID":536876},"geometry":{"x":168947.53000000119,"y":2546362.0099999998}},{"attributes":{"ID":536904,"DIS_CODE":0,"TOWNNAME":"北區","LI":"成德里","LIN":"19鄰","STREET":"育成路","SECT":" ","MAREA":" ","LANE":" ","ALLEY":" ","HOUSE_NO":"４９號","E_COORD97":168944.94,"N_COORD97":2546325.8900000001,"ADDRESS":"育成路４９號","OBJECTID":536877},"geometry":{"x":168944.94000000134,"y":2546325.8900000025}},{"attributes":{"ID":536905,"DIS_CODE":0,"TOWNNAME":"北區","LI":"成德里","LIN":"19鄰","STREET":"育成路","SECT":" ","MAREA":" ","LANE":" ","ALLEY":" ","HOUSE_NO":"３２號","E_COORD97":168978.41,"N_COORD97":2546339.3999999999,"ADDRESS":"育成路３２號","OBJECTID":536878},"geometry":{"x":168978.41000000015,"y":2546339.4000000004}},{"attributes":{"ID":536906,"DIS_CODE":0,"TOWNNAME":"北區","LI":"成德里","LIN":"19鄰","STREET":"育成路","SECT":" ","MAREA":" ","LANE":" ","ALLEY":" ","HOUSE_NO":"２號","E_COORD97":169020.79999999999,"N_COORD97":2546307.6000000001,"ADDRESS":"育成路２號","OBJECTID":536879},"geometry":{"x":169020.79999999981,"y":2546307.5999999996}},{"attributes":{"ID":536907,"DIS_CODE":0,"TOWNNAME":"北區","LI":"成德里","LIN":"19鄰","STREET":"育成路","SECT":" ","MAREA":" ","LANE":" ","ALLEY":" ","HOUSE_NO":"３３號","E_COORD97":168973.51999999999,"N_COORD97":2546304.8199999998,"ADDRESS":"育成路３３號","OBJECTID":536880},"geometry":{"x":168973.51999999955,"y":2546304.8200000022}},{"attributes":{"ID":536908,"DIS_CODE":0,"TOWNNAME":"北區","LI":"成德里","LIN":"19鄰","STREET":"育成路","SECT":" ","MAREA":" ","LANE":" ","ALLEY":" ","HOUSE_NO":"３５號","E_COORD97":168969.88,"N_COORD97":2546307.5,"ADDRESS":"育成路３５號","OBJECTID":536881},"geometry":{"x":168969.87999999989,"y":2546307.5000000019}},{"attributes":{"ID":536909,"DIS_CODE":0,"TOWNNAME":"北區","LI":"成德里","LIN":"19鄰","STREET":"育成路","SECT":" ","MAREA":" ","LANE":" ","ALLEY":" ","HOUSE_NO":"３６號","E_COORD97":168974.38,"N_COORD97":2546342.2799999998,"ADDRESS":"育成路３６號","OBJECTID":536882},"geometry":{"x":168974.37999999989,"y":2546342.2800000012}},{"attributes":{"ID":536910,"DIS_CODE":0,"TOWNNAME":"北區","LI":"成德里","LIN":"19鄰","STREET":"育成路","SECT":" ","MAREA":" ","LANE":" ","ALLEY":" ","HOUSE_NO":"３７號","E_COORD97":168966.42000000001,"N_COORD97":2546309.9900000002,"ADDRESS":"育成路３７號","OBJECTID":536883},"geometry":{"x":168966.42000000179,"y":2546309.9900000021}},{"attributes":{"ID":536911,"DIS_CODE":0,"TOWNNAME":"北區","LI":"成德里","LIN":"19鄰","STREET":"育成路","SECT":" ","MAREA":" ","LANE":" ","ALLEY":" ","HOUSE_NO":"３８號","E_COORD97":168970.54999999999,"N_COORD97":2546344.96,"ADDRESS":"育成路３８號","OBJECTID":536884},"geometry":{"x":168970.55000000168,"y":2546344.9600000028}},{"attributes":{"ID":536912,"DIS_CODE":0,"TOWNNAME":"北區","LI":"成德里","LIN":"19鄰","STREET":"育成路","SECT":" ","MAREA":" ","LANE":" ","ALLEY":" ","HOUSE_NO":"３９號","E_COORD97":168962.20000000001,"N_COORD97":2546312.48,"ADDRESS":"育成路３９號","OBJECTID":536885},"geometry":{"x":168962.20000000112,"y":2546312.4800000004}},{"attributes":{"ID":536913,"DIS_CODE":0,"TOWNNAME":"北區","LI":"成德里","LIN":"19鄰","STREET":"育成路","SECT":" ","MAREA":" ","LANE":" ","ALLEY":" ","HOUSE_NO":"５０號","E_COORD97":168955.97,"N_COORD97":2546356.0699999998,"ADDRESS":"育成路５０號","OBJECTID":536886},"geometry":{"x":168955.97000000067,"y":2546356.0700000003}},{"attributes":{"ID":536914,"DIS_CODE":0,"TOWNNAME":"北區","LI":"成德里","LIN":"19鄰","STREET":"育成路","SECT":" ","MAREA":" ","LANE":" ","ALLEY":" ","HOUSE_NO":"５１號","E_COORD97":168941.10999999999,"N_COORD97":2546328.77,"ADDRESS":"育成路５１號","OBJECTID":536887},"geometry":{"x":168941.11000000034,"y":2546328.7700000014}},{"attributes":{"ID":536915,"DIS_CODE":0,"TOWNNAME":"北區","LI":"成德里","LIN":"19鄰","STREET":"育賢街","SECT":" ","MAREA":" ","LANE":" ","ALLEY":" ","HOUSE_NO":"３２０號","E_COORD97":168922.12,"N_COORD97":2546304.0499999998,"ADDRESS":"育賢街３２０號","OBJECTID":536888},"geometry":{"x":168922.12000000011,"y":2546304.0500000026}},{"attributes":{"ID":536916,"DIS_CODE":0,"TOWNNAME":"北區","LI":"成德里","LIN":"19鄰","STREET":"育賢街","SECT":" ","MAREA":" ","LANE":" ","ALLEY":" ","HOUSE_NO":"３２２號","E_COORD97":168923.84,"N_COORD97":2546306.7400000002,"ADDRESS":"育賢街３２２號","OBJECTID":536889},"geometry":{"x":168923.83999999985,"y":2546306.7400000002}},{"attributes":{"ID":536917,"DIS_CODE":0,"TOWNNAME":"北區","LI":"成德里","LIN":"19鄰","STREET":"育賢街","SECT":" ","MAREA":" ","LANE":" ","ALLEY":" ","HOUSE_NO":"３２６號","E_COORD97":168926.14999999999,"N_COORD97":2546310.9500000002,"ADDRESS":"育賢街３２６號","OBJECTID":536890},"geometry":{"x":168926.15000000037,"y":2546310.9499999993}},{"attributes":{"ID":536918,"DIS_CODE":0,"TOWNNAME":"北區","LI":"成德里","LIN":"19鄰","STREET":"育賢街","SECT":" ","MAREA":" ","LANE":" ","ALLEY":" ","HOUSE_NO":"３２８號","E_COORD97":168927.87,"N_COORD97":2546314.9700000002,"ADDRESS":"育賢街３２８號","OBJECTID":536891},"geometry":{"x":168927.86999999918,"y":2546314.9700000025}},{"attributes":{"ID":536919,"DIS_CODE":0,"TOWNNAME":"北區","LI":"成德里","LIN":"19鄰","STREET":"育賢街","SECT":" ","MAREA":" ","LANE":" ","ALLEY":" ","HOUSE_NO":"３３０號","E_COORD97":168930.56,"N_COORD97":2546319,"ADDRESS":"育賢街３３０號","OBJECTID":536892},"geometry":{"x":168930.55999999959,"y":2546319}},{"attributes":{"ID":536920,"DIS_CODE":0,"TOWNNAME":"北區","LI":"成德里","LIN":"19鄰","STREET":"育賢街","SECT":" ","MAREA":" ","LANE":" ","ALLEY":" ","HOUSE_NO":"３３２號","E_COORD97":168931.89999999999,"N_COORD97":2546322.6400000001,"ADDRESS":"育賢街３３２號","OBJECTID":536893},"geometry":{"x":168931.9000000013,"y":2546322.6400000043}},{"attributes":{"ID":536921,"DIS_CODE":0,"TOWNNAME":"北區","LI":"成德里","LIN":"19鄰","STREET":"育賢街","SECT":" ","MAREA":" ","LANE":" ","ALLEY":" ","HOUSE_NO":"３３６號","E_COORD97":168932.28,"N_COORD97":2546329.9199999999,"ADDRESS":"育賢街３３６號","OBJECTID":536894},"geometry":{"x":168932.28000000119,"y":2546329.9199999981}},{"attributes":{"ID":536922,"DIS_CODE":0,"TOWNNAME":"關廟區","LI":"五甲里","LIN":"19鄰","STREET":"南雄路","SECT":"一段","MAREA":" ","LANE":" ","ALLEY":" ","HOUSE_NO":"１０９３號","E_COORD97":181086.35000000001,"N_COORD97":2539729.1699999999,"ADDRESS":"南雄路一段１０９３號","OBJECTID":536895},"geometry":{"x":181086.34999999963,"y":2539729.1699999999}},{"attributes":{"ID":536923,"DIS_CODE":0,"TOWNNAME":"關廟區","LI":"東勢里","LIN":"19鄰","STREET":"東仁街","SECT":" ","MAREA":" ","LANE":" ","ALLEY":" ","HOUSE_NO":"４６號","E_COORD97":181848.92000000001,"N_COORD97":2539298.25,"ADDRESS":"東仁街４６號","OBJECTID":536896},"geometry":{"x":181848.92000000086,"y":2539298.25}},{"attributes":{"ID":536924,"DIS_CODE":0,"TOWNNAME":"關廟區","LI":"東勢里","LIN":"19鄰","STREET":"東仁街","SECT":" ","MAREA":" ","LANE":" ","ALLEY":" ","HOUSE_NO":"９６號","E_COORD97":181826.32000000001,"N_COORD97":2539229.25,"ADDRESS":"東仁街９６號","OBJECTID":536897},"geometry":{"x":181826.32000000123,"y":2539229.2500000019}},{"attributes":{"ID":536925,"DIS_CODE":0,"TOWNNAME":"北區","LI":"公園里","LIN":"19鄰","STREET":"公園路","SECT":" ","MAREA":" ","LANE":" ","ALLEY":" ","HOUSE_NO":"１２８號之２４","E_COORD97":168808.79999999999,"N_COORD97":2544363,"ADDRESS":"公園路１２８號之２４","OBJECTID":536898},"geometry":{"x":168808.79999999981,"y":2544363}},{"attributes":{"ID":536926,"DIS_CODE":0,"TOWNNAME":"北區","LI":"公園里","LIN":"19鄰","STREET":"公園路","SECT":" ","MAREA":" ","LANE":" ","ALLEY":" ","HOUSE_NO":"１２８號之２５","E_COORD97":168803.78,"N_COORD97":2544364,"ADDRESS":"公園路１２８號之２５","OBJECTID":536899},"geometry":{"x":168803.78000000119,"y":2544364.0000000019}},{"attributes":{"ID":536927,"DIS_CODE":0,"TOWNNAME":"北區","LI":"公園里","LIN":"19鄰","STREET":"公園路","SECT":" ","MAREA":" ","LANE":" ","ALLEY":" ","HOUSE_NO":"１２８號之２６","E_COORD97":168798.35000000001,"N_COORD97":2544364.3999999999,"ADDRESS":"公園路１２８號之２６","OBJECTID":536900},"geometry":{"x":168798.34999999963,"y":2544364.4000000041}},{"attributes":{"ID":536928,"DIS_CODE":0,"TOWNNAME":"北區","LI":"公園里","LIN":"19鄰","STREET":"公園路","SECT":" ","MAREA":" ","LANE":" ","ALLEY":" ","HOUSE_NO":"１２８號之２７","E_COORD97":168793.92999999999,"N_COORD97":2544365.2000000002,"ADDRESS":"公園路１２８號之２７","OBJECTID":536901},"geometry":{"x":168793.93000000063,"y":2544365.2000000011}},{"attributes":{"ID":536929,"DIS_CODE":0,"TOWNNAME":"北區","LI":"公園里","LIN":"19鄰","STREET":"公園路","SECT":" ","MAREA":" ","LANE":" ","ALLEY":" ","HOUSE_NO":"１２８號之２８","E_COORD97":168789.70999999999,"N_COORD97":2544366.0099999998,"ADDRESS":"公園路１２８號之２８","OBJECTID":536902},"geometry":{"x":168789.70999999996,"y":2544366.0099999998}},{"attributes":{"ID":536930,"DIS_CODE":0,"TOWNNAME":"北區","LI":"公園里","LIN":"19鄰","STREET":"公園路","SECT":" ","MAREA":" ","LANE":" ","ALLEY":" ","HOUSE_NO":"１２８號之２９","E_COORD97":168778.45999999999,"N_COORD97":2544350.1000000001,"ADDRESS":"公園路１２８號之２９","OBJECTID":536903},"geometry":{"x":168778.46000000089,"y":2544350.1000000015}},{"attributes":{"ID":536931,"DIS_CODE":0,"TOWNNAME":"北區","LI":"公園里","LIN":"19鄰","STREET":"公園路","SECT":" ","MAREA":" ","LANE":" ","ALLEY":" ","HOUSE_NO":"１２８號之３０","E_COORD97":168782.67999999999,"N_COORD97":2544349.29,"ADDRESS":"公園路１２８號之３０","OBJECTID":536904},"geometry":{"x":168782.6799999997,"y":2544349.2899999991}},{"attributes":{"ID":536932,"DIS_CODE":0,"TOWNNAME":"北區","LI":"公園里","LIN":"19鄰","STREET":"公園路","SECT":" ","MAREA":" ","LANE":" ","ALLEY":" ","HOUSE_NO":"１２８號之３１","E_COORD97":168786.70000000001,"N_COORD97":2544348.6899999999,"ADDRESS":"公園路１２８號之３１","OBJECTID":536905},"geometry":{"x":168786.69999999925,"y":2544348.6900000013}},{"attributes":{"ID":536933,"DIS_CODE":0,"TOWNNAME":"北區","LI":"公園里","LIN":"19鄰","STREET":"公園路","SECT":" ","MAREA":" ","LANE":" ","ALLEY":" ","HOUSE_NO":"１２８號之３２","E_COORD97":168790.72,"N_COORD97":2544347.6899999999,"ADDRESS":"公園路１２８號之３２","OBJECTID":536906},"geometry":{"x":168790.71999999974,"y":2544347.6899999976}},{"attributes":{"ID":536934,"DIS_CODE":0,"TOWNNAME":"北區","LI":"公園里","LIN":"19鄰","STREET":"公園路","SECT":" ","MAREA":" ","LANE":" ","ALLEY":" ","HOUSE_NO":"１２８號之４","E_COORD97":168747.70999999999,"N_COORD97":2544340.7200000002,"ADDRESS":"公園路１２８號之４","OBJECTID":536907},"geometry":{"x":168747.71000000089,"y":2544340.7200000007}},{"attributes":{"ID":536935,"DIS_CODE":0,"TOWNNAME":"北區","LI":"公園里","LIN":"19鄰","STREET":"公園路","SECT":" ","MAREA":" ","LANE":" ","ALLEY":" ","HOUSE_NO":"１２８號之４０","E_COORD97":168811.42000000001,"N_COORD97":2544337.0499999998,"ADDRESS":"公園路１２８號之４０","OBJECTID":536908},"geometry":{"x":168811.41999999993,"y":2544337.0500000026}},{"attributes":{"ID":536936,"DIS_CODE":0,"TOWNNAME":"北區","LI":"公園里","LIN":"19鄰","STREET":"公園路","SECT":" ","MAREA":" ","LANE":" ","ALLEY":" ","HOUSE_NO":"１２８號之４１","E_COORD97":168806.19,"N_COORD97":2544338.25,"ADDRESS":"公園路１２８號之４１","OBJECTID":536909},"geometry":{"x":168806.19000000134,"y":2544338.2500000019}},{"attributes":{"ID":536937,"DIS_CODE":0,"TOWNNAME":"北區","LI":"公園里","LIN":"19鄰","STREET":"公園路","SECT":" ","MAREA":" ","LANE":" ","ALLEY":" ","HOUSE_NO":"１２８號之４２","E_COORD97":168802.37,"N_COORD97":2544339.0600000001,"ADDRESS":"公園路１２８號之４２","OBJECTID":536910},"geometry":{"x":168802.37000000011,"y":2544339.0600000005}},{"attributes":{"ID":536938,"DIS_CODE":0,"TOWNNAME":"北區","LI":"公園里","LIN":"19鄰","STREET":"公園路","SECT":" ","MAREA":" ","LANE":" ","ALLEY":" ","HOUSE_NO":"１２８號之４３","E_COORD97":168798.35000000001,"N_COORD97":2544339.8599999999,"ADDRESS":"公園路１２８號之４３","OBJECTID":536911},"geometry":{"x":168798.34999999963,"y":2544339.8600000031}},{"attributes":{"ID":536939,"DIS_CODE":0,"TOWNNAME":"北區","LI":"公園里","LIN":"19鄰","STREET":"公園路","SECT":" ","MAREA":" ","LANE":" ","ALLEY":" ","HOUSE_NO":"１２８號之４４","E_COORD97":168793.92999999999,"N_COORD97":2544340.6600000001,"ADDRESS":"公園路１２８號之４４","OBJECTID":536912},"geometry":{"x":168793.93000000063,"y":2544340.6600000001}},{"attributes":{"ID":536940,"DIS_CODE":0,"TOWNNAME":"北區","LI":"公園里","LIN":"19鄰","STREET":"公園路","SECT":" ","MAREA":" ","LANE":" ","ALLEY":" ","HOUSE_NO":"１２８號之４５","E_COORD97":168789.51000000001,"N_COORD97":2544341.27,"ADDRESS":"公園路１２８號之４５","OBJECTID":536913},"geometry":{"x":168789.51000000071,"y":2544341.2700000014}},{"attributes":{"ID":536941,"DIS_CODE":0,"TOWNNAME":"北區","LI":"公園里","LIN":"19鄰","STREET":"公園路","SECT":" ","MAREA":" ","LANE":" ","ALLEY":" ","HOUSE_NO":"１２８號之４６","E_COORD97":168785.69,"N_COORD97":2544342.27,"ADDRESS":"公園路１２８號之４６","OBJECTID":536914},"geometry":{"x":168785.69000000134,"y":2544342.2700000014}},{"attributes":{"ID":536942,"DIS_CODE":0,"TOWNNAME":"北區","LI":"公園里","LIN":"19鄰","STREET":"公園路","SECT":" ","MAREA":" ","LANE":" ","ALLEY":" ","HOUSE_NO":"１２８號之４７","E_COORD97":168781.07000000001,"N_COORD97":2544343.0699999998,"ADDRESS":"公園路１２８號之４７","OBJECTID":536915},"geometry":{"x":168781.07000000216,"y":2544343.0700000022}},{"attributes":{"ID":536943,"DIS_CODE":0,"TOWNNAME":"北區","LI":"公園里","LIN":"19鄰","STREET":"公園路","SECT":" ","MAREA":" ","LANE":" ","ALLEY":" ","HOUSE_NO":"１２８號之４８","E_COORD97":168777.04999999999,"N_COORD97":2544344.2799999998,"ADDRESS":"公園路１２８號之４８","OBJECTID":536916},"geometry":{"x":168777.04999999981,"y":2544344.2800000012}},{"attributes":{"ID":536944,"DIS_CODE":0,"TOWNNAME":"北區","LI":"公園里","LIN":"19鄰","STREET":"公園路","SECT":" ","MAREA":" ","LANE":" ","ALLEY":" ","HOUSE_NO":"１２８號之４９","E_COORD97":168769.81,"N_COORD97":2544338.0499999998,"ADDRESS":"公園路１２８號之４９","OBJECTID":536917},"geometry":{"x":168769.80999999959,"y":2544338.0500000026}},{"attributes":{"ID":536945,"DIS_CODE":0,"TOWNNAME":"北區","LI":"公園里","LIN":"19鄰","STREET":"公園路","SECT":" ","MAREA":" ","LANE":" ","ALLEY":" ","HOUSE_NO":"１２８號之５","E_COORD97":168750.12,"N_COORD97":2544344.1299999999,"ADDRESS":"公園路１２８號之５","OBJECTID":536918},"geometry":{"x":168750.12000000104,"y":2544344.1299999971}},{"attributes":{"ID":536946,"DIS_CODE":0,"TOWNNAME":"北區","LI":"公園里","LIN":"19鄰","STREET":"公園路","SECT":" ","MAREA":" ","LANE":" ","ALLEY":" ","HOUSE_NO":"１２８號之５０","E_COORD97":168774.44,"N_COORD97":2544336.8500000001,"ADDRESS":"公園路１２８號之５０","OBJECTID":536919},"geometry":{"x":168774.44000000041,"y":2544336.8500000034}},{"attributes":{"ID":536947,"DIS_CODE":0,"TOWNNAME":"北區","LI":"公園里","LIN":"19鄰","STREET":"公園路","SECT":" ","MAREA":" ","LANE":" ","ALLEY":" ","HOUSE_NO":"１２８號之５１","E_COORD97":168778.85999999999,"N_COORD97":2544335.8500000001,"ADDRESS":"公園路１２８號之５１","OBJECTID":536920},"geometry":{"x":168778.86000000034,"y":2544335.8499999996}},{"attributes":{"ID":536948,"DIS_CODE":0,"TOWNNAME":"北區","LI":"公園里","LIN":"19鄰","STREET":"公園路","SECT":" ","MAREA":" ","LANE":" ","ALLEY":" ","HOUSE_NO":"１２８號之５２","E_COORD97":168782.48000000001,"N_COORD97":2544335.04,"ADDRESS":"公園路１２８號之５２","OBJECTID":536921},"geometry":{"x":168782.48000000138,"y":2544335.0400000028}},{"attributes":{"ID":536949,"DIS_CODE":0,"TOWNNAME":"北區","LI":"公園里","LIN":"19鄰","STREET":"公園路","SECT":" ","MAREA":" ","LANE":" ","ALLEY":" ","HOUSE_NO":"１２８號之５３","E_COORD97":168779.66,"N_COORD97":2544326.4100000001,"ADDRESS":"公園路１２８號之５３","OBJECTID":536922},"geometry":{"x":168779.66000000015,"y":2544326.4100000001}},{"attributes":{"ID":536950,"DIS_CODE":0,"TOWNNAME":"北區","LI":"公園里","LIN":"19鄰","STREET":"公園路","SECT":" ","MAREA":" ","LANE":" ","ALLEY":" ","HOUSE_NO":"１２８號之５４","E_COORD97":168776.25,"N_COORD97":2544327.2200000002,"ADDRESS":"公園路１２８號之５４","OBJECTID":536923},"geometry":{"x":168776.25000000093,"y":2544327.2200000007}},{"attributes":{"ID":536951,"DIS_CODE":0,"TOWNNAME":"北區","LI":"公園里","LIN":"19鄰","STREET":"公園路","SECT":" ","MAREA":" ","LANE":" ","ALLEY":" ","HOUSE_NO":"１２８號之５５","E_COORD97":168772.23000000001,"N_COORD97":2544328.2200000002,"ADDRESS":"公園路１２８號之５５","OBJECTID":536924},"geometry":{"x":168772.23000000138,"y":2544328.2200000007}},{"attributes":{"ID":536952,"DIS_CODE":0,"TOWNNAME":"北區","LI":"公園里","LIN":"19鄰","STREET":"公園路","SECT":" ","MAREA":" ","LANE":" ","ALLEY":" ","HOUSE_NO":"１２８號之５６","E_COORD97":168768.20999999999,"N_COORD97":2544329.02,"ADDRESS":"公園路１２８號之５６","OBJECTID":536925},"geometry":{"x":168768.21000000089,"y":2544329.0200000033}},{"attributes":{"ID":536953,"DIS_CODE":0,"TOWNNAME":"北區","LI":"公園里","LIN":"19鄰","STREET":"公園路","SECT":" ","MAREA":" ","LANE":" ","ALLEY":" ","HOUSE_NO":"１２８號之６","E_COORD97":168751.92999999999,"N_COORD97":2544347.3399999999,"ADDRESS":"公園路１２８號之６","OBJECTID":536926},"geometry":{"x":168751.9299999997,"y":2544347.3400000036}},{"attributes":{"ID":536954,"DIS_CODE":0,"TOWNNAME":"北區","LI":"公園里","LIN":"19鄰","STREET":"公園路","SECT":" ","MAREA":" ","LANE":" ","ALLEY":" ","HOUSE_NO":"１２８號之７","E_COORD97":168753.73000000001,"N_COORD97":2544350.5499999998,"ADDRESS":"公園路１２８號之７","OBJECTID":536927},"geometry":{"x":168753.73000000138,"y":2544350.5500000026}},{"attributes":{"ID":536955,"DIS_CODE":0,"TOWNNAME":"北區","LI":"公園里","LIN":"19鄰","STREET":"公園路","SECT":" ","MAREA":" ","LANE":" ","ALLEY":" ","HOUSE_NO":"１２８號之８","E_COORD97":168755.73999999999,"N_COORD97":2544354.1699999999,"ADDRESS":"公園路１２８號之８","OBJECTID":536928},"geometry":{"x":168755.74000000022,"y":2544354.1699999999}},{"attributes":{"ID":536956,"DIS_CODE":0,"TOWNNAME":"北區","LI":"公園里","LIN":"19鄰","STREET":"公園路","SECT":" ","MAREA":" ","LANE":" ","ALLEY":" ","HOUSE_NO":"１２８號之９","E_COORD97":168757.54999999999,"N_COORD97":2544357.7799999998,"ADDRESS":"公園路１２８號之９","OBJECTID":536929},"geometry":{"x":168757.55000000075,"y":2544357.7800000012}},{"attributes":{"ID":536957,"DIS_CODE":0,"TOWNNAME":"新營區","LI":"民權里","LIN":"19鄰","STREET":"中華路","SECT":" ","MAREA":" ","LANE":" ","ALLEY":" ","HOUSE_NO":"２７之３號","E_COORD97":179796.14000000001,"N_COORD97":2578214.9300000002,"ADDRESS":"中華路２７之３號","OBJECTID":536930},"geometry":{"x":179796.13999999966,"y":2578214.9299999997}},{"attributes":{"ID":536958,"DIS_CODE":0,"TOWNNAME":"新營區","LI":"王公里","LIN":"19鄰","STREET":"樂仁街","SECT":" ","MAREA":" ","LANE":" ","ALLEY":" ","HOUSE_NO":"６１號","E_COORD97":180502.10000000001,"N_COORD97":2579233.71,"ADDRESS":"樂仁街６１號","OBJECTID":536931},"geometry":{"x":180502.09999999963,"y":2579233.7100000028}},{"attributes":{"ID":536959,"DIS_CODE":0,"TOWNNAME":"新營區","LI":"南紙里","LIN":"19鄰","STREET":"太子路","SECT":" ","MAREA":" ","LANE":" ","ALLEY":" ","HOUSE_NO":"４３０號之６","E_COORD97":176898.35000000001,"N_COORD97":2577398.3599999999,"ADDRESS":"太子路４３０號之６","OBJECTID":536932},"geometry":{"x":176898.35000000149,"y":2577398.3599999994}},{"attributes":{"ID":536960,"DIS_CODE":0,"TOWNNAME":"新營區","LI":"南紙里","LIN":"19鄰","STREET":"太子路","SECT":" ","MAREA":" ","LANE":" ","ALLEY":" ","HOUSE_NO":"４５０號","E_COORD97":176795.53,"N_COORD97":2577331.25,"ADDRESS":"太子路４５０號","OBJECTID":536933},"geometry":{"x":176795.53000000026,"y":2577331.2500000019}},{"attributes":{"ID":536961,"DIS_CODE":0,"TOWNNAME":"新營區","LI":"忠政里","LIN":"19鄰","STREET":"長榮路","SECT":"二段","MAREA":" ","LANE":" ","ALLEY":" ","HOUSE_NO":"４１號","E_COORD97":179951.70999999999,"N_COORD97":2579843.1899999999,"ADDRESS":"長榮路二段４１號","OBJECTID":536934},"geometry":{"x":179951.71000000089,"y":2579843.1900000013}},{"attributes":{"ID":536962,"DIS_CODE":0,"TOWNNAME":"新營區","LI":"王公里","LIN":"19鄰","STREET":"樂仁街","SECT":" ","MAREA":" ","LANE":" ","ALLEY":" ","HOUSE_NO":"６３號","E_COORD97":180502.14000000001,"N_COORD97":2579241.4700000002,"ADDRESS":"樂仁街６３號","OBJECTID":536935},"geometry":{"x":180502.14000000153,"y":2579241.4700000025}},{"attributes":{"ID":536963,"DIS_CODE":0,"TOWNNAME":"新營區","LI":"忠政里","LIN":"19鄰","STREET":"長榮路","SECT":"二段","MAREA":" ","LANE":" ","ALLEY":" ","HOUSE_NO":"７號","E_COORD97":180028.17000000001,"N_COORD97":2579847.2400000002,"ADDRESS":"長榮路二段７號","OBJECTID":536936},"geometry":{"x":180028.17000000086,"y":2579847.2400000021}},{"attributes":{"ID":536964,"DIS_CODE":0,"TOWNNAME":"新營區","LI":"大宏里","LIN":"19鄰","STREET":"三民路","SECT":" ","MAREA":" ","LANE":" ","ALLEY":" ","HOUSE_NO":"３６之１１號","E_COORD97":180399.19,"N_COORD97":2578502.2400000002,"ADDRESS":"三民路３６之１１號","OBJECTID":536937},"geometry":{"x":180399.19000000227,"y":2578502.2400000002}},{"attributes":{"ID":536965,"DIS_CODE":0,"TOWNNAME":"新營區","LI":"王公里","LIN":"19鄰","STREET":"樂仁街","SECT":" ","MAREA":" ","LANE":" ","ALLEY":" ","HOUSE_NO":"５９號","E_COORD97":180502.07000000001,"N_COORD97":2579225.96,"ADDRESS":"樂仁街５９號","OBJECTID":536938},"geometry":{"x":180502.07000000123,"y":2579225.9600000028}},{"attributes":{"ID":536966,"DIS_CODE":0,"TOWNNAME":"新營區","LI":"忠政里","LIN":"19鄰","STREET":"長榮路","SECT":"二段","MAREA":" ","LANE":" ","ALLEY":" ","HOUSE_NO":"９號","E_COORD97":180024.01999999999,"N_COORD97":2579847.2599999998,"ADDRESS":"長榮路二段９號","OBJECTID":536939},"geometry":{"x":180024.01999999955,"y":2579847.2599999998}},{"attributes":{"ID":536967,"DIS_CODE":0,"TOWNNAME":"新營區","LI":"三仙里","LIN":"19鄰","STREET":"三民路","SECT":" ","MAREA":" ","LANE":" ","ALLEY":" ","HOUSE_NO":"１４０號之３７","E_COORD97":179553.92999999999,"N_COORD97":2578455.2999999998,"ADDRESS":"三民路１４０號之３７","OBJECTID":536940},"geometry":{"x":179553.9299999997,"y":2578455.3000000007}},{"attributes":{"ID":536968,"DIS_CODE":0,"TOWNNAME":"南區","LI":"廣州里","LIN":"19鄰","STREET":"福吉三街","SECT":" ","MAREA":" ","LANE":" ","ALLEY":" ","HOUSE_NO":"６３號","E_COORD97":167231.48000000001,"N_COORD97":2542729.8100000001,"ADDRESS":"福吉三街６３號","OBJECTID":536941},"geometry":{"x":167231.48000000138,"y":2542729.8100000005}},{"attributes":{"ID":536969,"DIS_CODE":0,"TOWNNAME":"南區","LI":"廣州里","LIN":"19鄰","STREET":"福吉四街","SECT":" ","MAREA":" ","LANE":" ","ALLEY":" ","HOUSE_NO":"５４號","E_COORD97":167236.97,"N_COORD97":2542691.4399999999,"ADDRESS":"福吉四街５４號","OBJECTID":536942},"geometry":{"x":167236.97000000067,"y":2542691.4399999976}},{"attributes":{"ID":536970,"DIS_CODE":0,"TOWNNAME":"南區","LI":"白雪里","LIN":"19鄰","STREET":"金華路","SECT":"一段","MAREA":" ","LANE":" ","ALLEY":" ","HOUSE_NO":"２８３號","E_COORD97":166952.32000000001,"N_COORD97":2540981.1600000001,"ADDRESS":"金華路一段２８３號","OBJECTID":536943},"geometry":{"x":166952.32000000123,"y":2540981.1600000001}},{"attributes":{"ID":536971,"DIS_CODE":0,"TOWNNAME":"南區","LI":"白雪里","LIN":"19鄰","STREET":"金華路","SECT":"一段","MAREA":" ","LANE":" ","ALLEY":" ","HOUSE_NO":"２８５號","E_COORD97":166955.76000000001,"N_COORD97":2540986.0899999999,"ADDRESS":"金華路一段２８５號","OBJECTID":536944},"geometry":{"x":166955.76000000071,"y":2540986.0900000017}},{"attributes":{"ID":536972,"DIS_CODE":0,"TOWNNAME":"南區","LI":"白雪里","LIN":"19鄰","STREET":"金華路","SECT":"一段","MAREA":" ","LANE":" ","ALLEY":" ","HOUSE_NO":"２８７號","E_COORD97":166955.26999999999,"N_COORD97":2540989.9900000002,"ADDRESS":"金華路一段２８７號","OBJECTID":536945},"geometry":{"x":166955.27000000048,"y":2540989.9899999984}},{"attributes":{"ID":536973,"DIS_CODE":0,"TOWNNAME":"南區","LI":"白雪里","LIN":"19鄰","STREET":"金華路","SECT":"一段","MAREA":" ","LANE":" ","ALLEY":" ","HOUSE_NO":"２８９號","E_COORD97":166956.48999999999,"N_COORD97":2540994.6299999999,"ADDRESS":"金華路一段２８９號","OBJECTID":536946},"geometry":{"x":166956.49000000115,"y":2540994.6300000027}},{"attributes":{"ID":536974,"DIS_CODE":0,"TOWNNAME":"南區","LI":"彰南里","LIN":"19鄰","STREET":"新樂路","SECT":" ","MAREA":" ","LANE":" ","ALLEY":" ","HOUSE_NO":"２４號之２","E_COORD97":165655.63,"N_COORD97":2541986.5600000001,"ADDRESS":"新樂路２４號之２","OBJECTID":536947},"geometry":{"x":165655.62999999989,"y":2541986.5599999987}},{"attributes":{"ID":536975,"DIS_CODE":0,"TOWNNAME":"南區","LI":"彰南里","LIN":"19鄰","STREET":"新樂路","SECT":" ","MAREA":" ","LANE":" ","ALLEY":" ","HOUSE_NO":"２號之２","E_COORD97":165758.17000000001,"N_COORD97":2542317.96,"ADDRESS":"新樂路２號之２","OBJECTID":536948},"geometry":{"x":165758.17000000086,"y":2542317.9600000028}},{"attributes":{"ID":536976,"DIS_CODE":0,"TOWNNAME":"南區","LI":"白雪里","LIN":"19鄰","STREET":"利南街","SECT":" ","MAREA":" ","LANE":" ","ALLEY":" ","HOUSE_NO":"１３號","E_COORD97":166923.35000000001,"N_COORD97":2541074.2799999998,"ADDRESS":"利南街１３號","OBJECTID":536949},"geometry":{"x":166923.34999999963,"y":2541074.2799999993}},{"attributes":{"ID":536977,"DIS_CODE":0,"TOWNNAME":"南區","LI":"白雪里","LIN":"19鄰","STREET":"利南街","SECT":" ","MAREA":" ","LANE":" ","ALLEY":" ","HOUSE_NO":"５號","E_COORD97":166945.26000000001,"N_COORD97":2541072.04,"ADDRESS":"利南街５號","OBJECTID":536950},"geometry":{"x":166945.26000000071,"y":2541072.0399999991}},{"attributes":{"ID":536978,"DIS_CODE":0,"TOWNNAME":"南區","LI":"白雪里","LIN":"19鄰","STREET":"利南街","SECT":" ","MAREA":" ","LANE":" ","ALLEY":" ","HOUSE_NO":"７號","E_COORD97":166941.56,"N_COORD97":2541071.77,"ADDRESS":"利南街７號","OBJECTID":536951},"geometry":{"x":166941.56000000052,"y":2541071.7699999996}},{"attributes":{"ID":536979,"DIS_CODE":0,"TOWNNAME":"南區","LI":"白雪里","LIN":"19鄰","STREET":"利南街","SECT":" ","MAREA":" ","LANE":" ","ALLEY":" ","HOUSE_NO":"９號","E_COORD97":166936.09,"N_COORD97":2541072.1400000001,"ADDRESS":"利南街９號","OBJECTID":536952},"geometry":{"x":166936.09000000171,"y":2541072.1400000025}},{"attributes":{"ID":536980,"DIS_CODE":0,"TOWNNAME":"南區","LI":"白雪里","LIN":"19鄰","STREET":"金華路","SECT":"一段","MAREA":" ","LANE":" ","ALLEY":" ","HOUSE_NO":"３１３號","E_COORD97":166960.19,"N_COORD97":2541070.2400000002,"ADDRESS":"金華路一段３１３號","OBJECTID":536953},"geometry":{"x":166960.19000000134,"y":2541070.2400000021}},{"attributes":{"ID":536981,"DIS_CODE":0,"TOWNNAME":"南區","LI":"白雪里","LIN":"19鄰","STREET":"金華路","SECT":"一段","MAREA":" ","LANE":" ","ALLEY":" ","HOUSE_NO":"３１５號","E_COORD97":166959.95000000001,"N_COORD97":2541075.6099999999,"ADDRESS":"金華路一段３１５號","OBJECTID":536954},"geometry":{"x":166959.95000000112,"y":2541075.6099999994}},{"attributes":{"ID":536982,"DIS_CODE":0,"TOWNNAME":"南區","LI":"白雪里","LIN":"19鄰","STREET":"金華路","SECT":"一段","MAREA":" ","LANE":" ","ALLEY":" ","HOUSE_NO":"３１７號","E_COORD97":166962.14000000001,"N_COORD97":2541080.25,"ADDRESS":"金華路一段３１７號","OBJECTID":536955},"geometry":{"x":166962.13999999966,"y":2541080.2500000019}},{"attributes":{"ID":536983,"DIS_CODE":0,"TOWNNAME":"安平區","LI":"文平里","LIN":"19鄰","STREET":"建平一街","SECT":" ","MAREA":" ","LANE":" ","ALLEY":" ","HOUSE_NO":"１００號","E_COORD97":165851.12,"N_COORD97":2542763.3799999999,"ADDRESS":"建平一街１００號","OBJECTID":536956},"geometry":{"x":165851.11999999918,"y":2542763.3800000008}},{"attributes":{"ID":536984,"DIS_CODE":0,"TOWNNAME":"安平區","LI":"文平里","LIN":"19鄰","STREET":"建平一街","SECT":" ","MAREA":" ","LANE":" ","ALLEY":" ","HOUSE_NO":"１０２號","E_COORD97":165847.14999999999,"N_COORD97":2542764.4900000002,"ADDRESS":"建平一街１０２號","OBJECTID":536957},"geometry":{"x":165847.15000000037,"y":2542764.4900000021}},{"attributes":{"ID":536985,"DIS_CODE":0,"TOWNNAME":"安平區","LI":"平通里","LIN":"19鄰","STREET":"慶平路","SECT":" ","MAREA":" ","LANE":" ","ALLEY":" ","HOUSE_NO":"７４３號","E_COORD97":164505,"N_COORD97":2544261.21,"ADDRESS":"慶平路７４３號","OBJECTID":536958},"geometry":{"x":164505.00000000093,"y":2544261.2100000046}},{"attributes":{"ID":536986,"DIS_CODE":0,"TOWNNAME":"安平區","LI":"平通里","LIN":"19鄰","STREET":"慶平路","SECT":" ","MAREA":" ","LANE":" ","ALLEY":" ","HOUSE_NO":"７６３號","E_COORD97":164458.03,"N_COORD97":2544246.6200000001,"ADDRESS":"慶平路７６３號","OBJECTID":536959},"geometry":{"x":164458.03000000026,"y":2544246.620000001}},{"attributes":{"ID":536987,"DIS_CODE":0,"TOWNNAME":"安平區","LI":"文平里","LIN":"19鄰","STREET":"建平一街","SECT":" ","MAREA":" ","LANE":" ","ALLEY":" ","HOUSE_NO":"１０６號","E_COORD97":165843.03,"N_COORD97":2542764.96,"ADDRESS":"建平一街１０６號","OBJECTID":536960},"geometry":{"x":165843.03000000026,"y":2542764.9600000028}},{"attributes":{"ID":536988,"DIS_CODE":0,"TOWNNAME":"安平區","LI":"文平里","LIN":"19鄰","STREET":"建平一街","SECT":" ","MAREA":" ","LANE":" ","ALLEY":" ","HOUSE_NO":"１０８號","E_COORD97":165838.73999999999,"N_COORD97":2542765.2799999998,"ADDRESS":"建平一街１０８號","OBJECTID":536961},"geometry":{"x":165838.74000000209,"y":2542765.2800000012}},{"attributes":{"ID":536989,"DIS_CODE":0,"TOWNNAME":"安平區","LI":"文平里","LIN":"19鄰","STREET":"建平一街","SECT":" ","MAREA":" ","LANE":" ","ALLEY":" ","HOUSE_NO":"１１０號","E_COORD97":165834.45000000001,"N_COORD97":2542766.3900000001,"ADDRESS":"建平一街１１０號","OBJECTID":536962},"geometry":{"x":165834.45000000112,"y":2542766.3900000006}},{"attributes":{"ID":536990,"DIS_CODE":0,"TOWNNAME":"安平區","LI":"文平里","LIN":"19鄰","STREET":"建平一街","SECT":" ","MAREA":" ","LANE":" ","ALLEY":" ","HOUSE_NO":"６０號","E_COORD97":165921.56925900001,"N_COORD97":2542755.1793,"ADDRESS":"建平一街６０號","OBJECTID":536963},"geometry":{"x":165921.56925900187,"y":2542755.179297002}},{"attributes":{"ID":536991,"DIS_CODE":0,"TOWNNAME":"安平區","LI":"文平里","LIN":"19鄰","STREET":"建平一街","SECT":" ","MAREA":" ","LANE":" ","ALLEY":" ","HOUSE_NO":"６２號","E_COORD97":165917.32999999999,"N_COORD97":2542755.5,"ADDRESS":"建平一街６２號","OBJECTID":536964},"geometry":{"x":165917.33000000007,"y":2542755.5}},{"attributes":{"ID":536992,"DIS_CODE":0,"TOWNNAME":"安平區","LI":"文平里","LIN":"19鄰","STREET":"建平一街","SECT":" ","MAREA":" ","LANE":" ","ALLEY":" ","HOUSE_NO":"１１２號","E_COORD97":165830.32999999999,"N_COORD97":2542766.3900000001,"ADDRESS":"建平一街１１２號","OBJECTID":536965},"geometry":{"x":165830.33000000007,"y":2542766.3900000006}},{"attributes":{"ID":536993,"DIS_CODE":0,"TOWNNAME":"安平區","LI":"文平里","LIN":"19鄰","STREET":"建平一街","SECT":" ","MAREA":" ","LANE":" ","ALLEY":" ","HOUSE_NO":"１１６號","E_COORD97":165825.25,"N_COORD97":2542767.3500000001,"ADDRESS":"建平一街１１６號","OBJECTID":536966},"geometry":{"x":165825.25000000093,"y":2542767.3500000015}},{"attributes":{"ID":536994,"DIS_CODE":0,"TOWNNAME":"安平區","LI":"文平里","LIN":"19鄰","STREET":"建平一街","SECT":" ","MAREA":" ","LANE":" ","ALLEY":" ","HOUSE_NO":"１１８號","E_COORD97":165820.95999999999,"N_COORD97":2542767.5,"ADDRESS":"建平一街１１８號","OBJECTID":536967},"geometry":{"x":165820.95999999996,"y":2542767.5000000019}},{"attributes":{"ID":536995,"DIS_CODE":0,"TOWNNAME":"安平區","LI":"文平里","LIN":"19鄰","STREET":"建平一街","SECT":" ","MAREA":" ","LANE":" ","ALLEY":" ","HOUSE_NO":"１２０號","E_COORD97":165816.82999999999,"N_COORD97":2542768.2999999998,"ADDRESS":"建平一街１２０號","OBJECTID":536968},"geometry":{"x":165816.83000000007,"y":2542768.2999999989}},{"attributes":{"ID":536996,"DIS_CODE":0,"TOWNNAME":"安平區","LI":"文平里","LIN":"19鄰","STREET":"建平一街","SECT":" ","MAREA":" ","LANE":" ","ALLEY":" ","HOUSE_NO":"１２２號","E_COORD97":165813.01999999999,"N_COORD97":2542768.77,"ADDRESS":"建平一街１２２號","OBJECTID":536969},"geometry":{"x":165813.02000000048,"y":2542768.7700000014}},{"attributes":{"ID":536997,"DIS_CODE":0,"TOWNNAME":"安平區","LI":"文平里","LIN":"19鄰","STREET":"建平一街","SECT":" ","MAREA":" ","LANE":" ","ALLEY":" ","HOUSE_NO":"６６號","E_COORD97":165910.79999999999,"N_COORD97":2542755.8599999999,"ADDRESS":"建平一街６６號","OBJECTID":536970},"geometry":{"x":165910.80000000168,"y":2542755.8599999994}},{"attributes":{"ID":536998,"DIS_CODE":0,"TOWNNAME":"安平區","LI":"文平里","LIN":"19鄰","STREET":"建平一街","SECT":" ","MAREA":" ","LANE":" ","ALLEY":" ","HOUSE_NO":"６８號","E_COORD97":165907.04999999999,"N_COORD97":2542756.3500000001,"ADDRESS":"建平一街６８號","OBJECTID":536971},"geometry":{"x":165907.04999999981,"y":2542756.3499999996}},{"attributes":{"ID":536999,"DIS_CODE":0,"TOWNNAME":"安平區","LI":"文平里","LIN":"19鄰","STREET":"建平一街","SECT":" ","MAREA":" ","LANE":" ","ALLEY":" ","HOUSE_NO":"７０號","E_COORD97":165903.42999999999,"N_COORD97":2542756.71,"ADDRESS":"建平一街７０號","OBJECTID":536972},"geometry":{"x":165903.43000000063,"y":2542756.7100000028}},{"attributes":{"ID":537000,"DIS_CODE":0,"TOWNNAME":"安平區","LI":"平通里","LIN":"19鄰","STREET":"育平九街","SECT":" ","MAREA":" ","LANE":" ","ALLEY":" ","HOUSE_NO":"３６２號","E_COORD97":164670.06,"N_COORD97":2544051.5899999999,"ADDRESS":"育平九街３６２號","OBJECTID":536973},"geometry":{"x":164670.06000000052,"y":2544051.5900000017}},{"attributes":{"ID":537001,"DIS_CODE":0,"TOWNNAME":"安平區","LI":"平通里","LIN":"19鄰","STREET":"育平九街","SECT":" ","MAREA":" ","LANE":" ","ALLEY":" ","HOUSE_NO":"３６０號","E_COORD97":164673.07999999999,"N_COORD97":2544050.3199999998,"ADDRESS":"育平九街３６０號","OBJECTID":536974},"geometry":{"x":164673.08000000007,"y":2544050.3200000022}},{"attributes":{"ID":537002,"DIS_CODE":0,"TOWNNAME":"安平區","LI":"平通里","LIN":"19鄰","STREET":"育平路","SECT":" ","MAREA":" ","LANE":" ","ALLEY":" ","HOUSE_NO":"４３３號","E_COORD97":164638.95000000001,"N_COORD97":2544053.6499999999,"ADDRESS":"育平路４３３號","OBJECTID":536975},"geometry":{"x":164638.95000000112,"y":2544053.6500000004}},{"attributes":{"ID":537003,"DIS_CODE":0,"TOWNNAME":"安平區","LI":"平通里","LIN":"19鄰","STREET":"育平路","SECT":" ","MAREA":" ","LANE":" ","ALLEY":" ","HOUSE_NO":"４３５號","E_COORD97":164638.63,"N_COORD97":2544061.1099999999,"ADDRESS":"育平路４３５號","OBJECTID":536976},"geometry":{"x":164638.62999999989,"y":2544061.1100000013}},{"attributes":{"ID":537004,"DIS_CODE":0,"TOWNNAME":"安平區","LI":"平通里","LIN":"19鄰","STREET":"育平路","SECT":" ","MAREA":" ","LANE":" ","ALLEY":" ","HOUSE_NO":"４３７號","E_COORD97":164638.47,"N_COORD97":2544065.5600000001,"ADDRESS":"育平路４３７號","OBJECTID":536977},"geometry":{"x":164638.47000000067,"y":2544065.5600000024}},{"attributes":{"ID":537005,"DIS_CODE":0,"TOWNNAME":"安平區","LI":"平通里","LIN":"19鄰","STREET":"育平路","SECT":" ","MAREA":" ","LANE":" ","ALLEY":" ","HOUSE_NO":"４３９號","E_COORD97":164637.98999999999,"N_COORD97":2544071.9100000001,"ADDRESS":"育平路４３９號","OBJECTID":536978},"geometry":{"x":164637.99000000022,"y":2544071.9100000001}},{"attributes":{"ID":537006,"DIS_CODE":0,"TOWNNAME":"歸仁區","LI":"崙頂里","LIN":"19鄰","STREET":"大成一街","SECT":" ","MAREA":" ","LANE":" ","ALLEY":" ","HOUSE_NO":"１３號","E_COORD97":177808.28,"N_COORD97":2540208.98,"ADDRESS":"大成一街１３號","OBJECTID":536979},"geometry":{"x":177808.28000000212,"y":2540208.9800000023}},{"attributes":{"ID":537007,"DIS_CODE":0,"TOWNNAME":"歸仁區","LI":"南保里","LIN":"19鄰","STREET":"民權北路","SECT":" ","MAREA":" ","LANE":" ","ALLEY":" ","HOUSE_NO":"１０９號","E_COORD97":176990.85999999999,"N_COORD97":2541133.25,"ADDRESS":"民權北路１０９號","OBJECTID":536980},"geometry":{"x":176990.86000000127,"y":2541133.25}},{"attributes":{"ID":537008,"DIS_CODE":0,"TOWNNAME":"歸仁區","LI":"崙頂里","LIN":"19鄰","STREET":"大成一街","SECT":" ","MAREA":" ","LANE":" ","ALLEY":" ","HOUSE_NO":"３３號","E_COORD97":177850.38,"N_COORD97":2540224.98,"ADDRESS":"大成一街３３號","OBJECTID":536981},"geometry":{"x":177850.37999999989,"y":2540224.9800000023}},{"attributes":{"ID":537009,"DIS_CODE":0,"TOWNNAME":"歸仁區","LI":"崙頂里","LIN":"19鄰","STREET":"大成一街","SECT":" ","MAREA":" ","LANE":" ","ALLEY":" ","HOUSE_NO":"２９號","E_COORD97":177842.07999999999,"N_COORD97":2540221.98,"ADDRESS":"大成一街２９號","OBJECTID":536982},"geometry":{"x":177842.08000000101,"y":2540221.9800000023}},{"attributes":{"ID":537010,"DIS_CODE":0,"TOWNNAME":"歸仁區","LI":"崙頂里","LIN":"19鄰","STREET":"大成一街","SECT":" ","MAREA":" ","LANE":" ","ALLEY":" ","HOUSE_NO":"１１號","E_COORD97":177805.17999999999,"N_COORD97":2540203.98,"ADDRESS":"大成一街１１號","OBJECTID":536983},"geometry":{"x":177805.18000000063,"y":2540203.9800000042}},{"attributes":{"ID":537011,"DIS_CODE":0,"TOWNNAME":"歸仁區","LI":"崙頂里","LIN":"19鄰","STREET":"大成一街","SECT":" ","MAREA":" ","LANE":" ","ALLEY":" ","HOUSE_NO":"２５號","E_COORD97":177833.88,"N_COORD97":2540217.98,"ADDRESS":"大成一街２５號","OBJECTID":536984},"geometry":{"x":177833.87999999989,"y":2540217.9800000023}},{"attributes":{"ID":537012,"DIS_CODE":0,"TOWNNAME":"歸仁區","LI":"南保里","LIN":"19鄰","STREET":"民權北路","SECT":" ","MAREA":" ","LANE":" ","ALLEY":" ","HOUSE_NO":"１０１號","E_COORD97":176989.76000000001,"N_COORD97":2541116.25,"ADDRESS":"民權北路１０１號","OBJECTID":536985},"geometry":{"x":176989.76000000071,"y":2541116.25}},{"attributes":{"ID":537013,"DIS_CODE":0,"TOWNNAME":"歸仁區","LI":"許厝里","LIN":"19鄰","STREET":"忠孝北路","SECT":" ","MAREA":" ","LANE":" ","ALLEY":" ","HOUSE_NO":"８５號","E_COORD97":178340.72,"N_COORD97":2540868.25,"ADDRESS":"忠孝北路８５號","OBJECTID":536986},"geometry":{"x":178340.72000000067,"y":2540868.25}},{"attributes":{"ID":537014,"DIS_CODE":0,"TOWNNAME":"歸仁區","LI":"崙頂里","LIN":"19鄰","STREET":"大成一街","SECT":" ","MAREA":" ","LANE":" ","ALLEY":" ","HOUSE_NO":"２３號","E_COORD97":177829.78,"N_COORD97":2540216.98,"ADDRESS":"大成一街２３號","OBJECTID":536987},"geometry":{"x":177829.78000000026,"y":2540216.9800000004}},{"attributes":{"ID":537015,"DIS_CODE":0,"TOWNNAME":"歸仁區","LI":"崙頂里","LIN":"19鄰","STREET":"大成一街","SECT":" ","MAREA":" ","LANE":" ","ALLEY":" ","HOUSE_NO":"２１號","E_COORD97":177825.67999999999,"N_COORD97":2540214.98,"ADDRESS":"大成一街２１號","OBJECTID":536988},"geometry":{"x":177825.68000000063,"y":2540214.9800000023}},{"attributes":{"ID":537016,"DIS_CODE":0,"TOWNNAME":"歸仁區","LI":"後市里","LIN":"19鄰","STREET":"大通路","SECT":" ","MAREA":" ","LANE":" ","ALLEY":" ","HOUSE_NO":"１１５號","E_COORD97":177568.10000000001,"N_COORD97":2540898.25,"ADDRESS":"大通路１１５號","OBJECTID":536989},"geometry":{"x":177568.10000000149,"y":2540898.2500000019}},{"attributes":{"ID":537017,"DIS_CODE":0,"TOWNNAME":"歸仁區","LI":"崙頂里","LIN":"19鄰","STREET":"大成一街","SECT":" ","MAREA":" ","LANE":" ","ALLEY":" ","HOUSE_NO":"３７號","E_COORD97":177864.98999999999,"N_COORD97":2540230.5600000001,"ADDRESS":"大成一街３７號","OBJECTID":536990},"geometry":{"x":177864.99000000115,"y":2540230.5600000042}},{"attributes":{"ID":537018,"DIS_CODE":0,"TOWNNAME":"歸仁區","LI":"崙頂里","LIN":"19鄰","STREET":"大成一街","SECT":" ","MAREA":" ","LANE":" ","ALLEY":" ","HOUSE_NO":"１９號","E_COORD97":177820.57999999999,"N_COORD97":2540212.98,"ADDRESS":"大成一街１９號","OBJECTID":536991},"geometry":{"x":177820.58000000007,"y":2540212.9800000004}},{"attributes":{"ID":537019,"DIS_CODE":0,"TOWNNAME":"歸仁區","LI":"南保里","LIN":"19鄰","STREET":"民權北路","SECT":" ","MAREA":" ","LANE":" ","ALLEY":" ","HOUSE_NO":"１１１號","E_COORD97":176991.85999999999,"N_COORD97":2541137.25,"ADDRESS":"民權北路１１１號","OBJECTID":536992},"geometry":{"x":176991.86000000034,"y":2541137.2500000037}},{"attributes":{"ID":537020,"DIS_CODE":0,"TOWNNAME":"北區","LI":"大港里","LIN":"19鄰","STREET":"大和路","SECT":" ","MAREA":" ","LANE":" ","ALLEY":" ","HOUSE_NO":"２８３號","E_COORD97":166900.54999999999,"N_COORD97":2546121.3300000001,"ADDRESS":"大和路２８３號","OBJECTID":536993},"geometry":{"x":166900.54999999981,"y":2546121.3300000019}},{"attributes":{"ID":537021,"DIS_CODE":0,"TOWNNAME":"北區","LI":"大港里","LIN":"19鄰","STREET":"大和路","SECT":" ","MAREA":" ","LANE":" ","ALLEY":" ","HOUSE_NO":"２８５號","E_COORD97":166900.34,"N_COORD97":2546124.0099999998,"ADDRESS":"大和路２８５號","OBJECTID":536994},"geometry":{"x":166900.33999999892,"y":2546124.0100000016}},{"attributes":{"ID":537022,"DIS_CODE":0,"TOWNNAME":"北區","LI":"大港里","LIN":"19鄰","STREET":"大和路","SECT":" ","MAREA":" ","LANE":" ","ALLEY":" ","HOUSE_NO":"２８７號","E_COORD97":166898.70999999999,"N_COORD97":2546126.79,"ADDRESS":"大和路２８７號","OBJECTID":536995},"geometry":{"x":166898.71000000089,"y":2546126.7900000028}},{"attributes":{"ID":537023,"DIS_CODE":0,"TOWNNAME":"北區","LI":"大港里","LIN":"19鄰","STREET":"大和路","SECT":" ","MAREA":" ","LANE":" ","ALLEY":" ","HOUSE_NO":"２９１號","E_COORD97":166895.10000000001,"N_COORD97":2546132.3599999999,"ADDRESS":"大和路２９１號","OBJECTID":536996},"geometry":{"x":166895.10000000149,"y":2546132.3599999994}},{"attributes":{"ID":537024,"DIS_CODE":0,"TOWNNAME":"北區","LI":"大港里","LIN":"19鄰","STREET":"大和路","SECT":" ","MAREA":" ","LANE":" ","ALLEY":" ","HOUSE_NO":"２９３號","E_COORD97":166893.63,"N_COORD97":2546135.1400000001,"ADDRESS":"大和路２９３號","OBJECTID":536997},"geometry":{"x":166893.63000000082,"y":2546135.1400000006}},{"attributes":{"ID":537025,"DIS_CODE":0,"TOWNNAME":"北區","LI":"大港里","LIN":"19鄰","STREET":"大和路","SECT":" ","MAREA":" ","LANE":" ","ALLEY":" ","HOUSE_NO":"２９５號","E_COORD97":166892.32000000001,"N_COORD97":2546137.4399999999,"ADDRESS":"大和路２９５號","OBJECTID":536998},"geometry":{"x":166892.3200000003,"y":2546137.4400000013}},{"attributes":{"ID":537026,"DIS_CODE":0,"TOWNNAME":"北區","LI":"大港里","LIN":"19鄰","STREET":"大和路","SECT":" ","MAREA":" ","LANE":" ","ALLEY":" ","HOUSE_NO":"２９７號","E_COORD97":166890.67999999999,"N_COORD97":2546139.73,"ADDRESS":"大和路２９７號","OBJECTID":536999},"geometry":{"x":166890.6799999997,"y":2546139.7300000023}},{"attributes":{"ID":537027,"DIS_CODE":0,"TOWNNAME":"北區","LI":"大港里","LIN":"19鄰","STREET":"大和路","SECT":" ","MAREA":" ","LANE":" ","ALLEY":" ","HOUSE_NO":"２９９號","E_COORD97":166889.54000000001,"N_COORD97":2546142.6800000002,"ADDRESS":"大和路２９９號","OBJECTID":537000},"geometry":{"x":166889.54000000097,"y":2546142.6800000016}}]}