{"displayFieldName":"TOWNNAME","fieldAliases":{"ID":"ID","DIS_CODE":"DIS_CODE","TOWNNAME":"TOWNNAME","LI":"LI","LIN":"LIN","STREET":"STREET","SECT":"SECT","MAREA":"MAREA","LANE":"LANE","ALLEY":"ALLEY","HOUSE_NO":"HOUSE_NO","E_COORD97":"E_COORD97","N_COORD97":"N_COORD97","ADDRESS":"ADDRESS","OBJECTID":"OBJECTID"},"geometryType":"esriGeometryPoint","spatialReference":{"wkid":102443,"latestWkid":3826},"fields":[{"name":"ID","type":"esriFieldTypeDouble","alias":"ID"},{"name":"DIS_CODE","type":"esriFieldTypeInteger","alias":"DIS_CODE"},{"name":"TOWNNAME","type":"esriFieldTypeString","alias":"TOWNNAME","length":8},{"name":"LI","type":"esriFieldTypeString","alias":"LI","length":8},{"name":"LIN","type":"esriFieldTypeString","alias":"LIN","length":12},{"name":"STREET","type":"esriFieldTypeString","alias":"STREET","length":20},{"name":"SECT","type":"esriFieldTypeString","alias":"SECT","length":8},{"name":"MAREA","type":"esriFieldTypeString","alias":"MAREA","length":12},{"name":"LANE","type":"esriFieldTypeString","alias":"LANE","length":10},{"name":"ALLEY","type":"esriFieldTypeString","alias":"ALLEY","length":10},{"name":"HOUSE_NO","type":"esriFieldTypeString","alias":"HOUSE_NO","length":20},{"name":"E_COORD97","type":"esriFieldTypeDouble","alias":"E_COORD97"},{"name":"N_COORD97","type":"esriFieldTypeDouble","alias":"N_COORD97"},{"name":"ADDRESS","type":"esriFieldTypeString","alias":"ADDRESS","length":50},{"name":"OBJECTID","type":"esriFieldTypeOID","alias":"OBJECTID"}],"features":[{"attributes":{"ID":586428,"DIS_CODE":0,"TOWNNAME":"鹽水區","LI":"中境里","LIN":"11鄰","STREET":"三福路","SECT":" ","MAREA":" ","LANE":" ","ALLEY":" ","HOUSE_NO":"７３號之１","E_COORD97":174589.73000000001,"N_COORD97":2580109.3799999999,"ADDRESS":"三福路７３號之１","OBJECTID":586401},"geometry":{"x":174589.73000000138,"y":2580109.3800000008}},{"attributes":{"ID":586429,"DIS_CODE":0,"TOWNNAME":"鹽水區","LI":"中境里","LIN":"11鄰","STREET":"三福路","SECT":" ","MAREA":" ","LANE":" ","ALLEY":" ","HOUSE_NO":"７３之２０號","E_COORD97":174542.56,"N_COORD97":2580166.1299999999,"ADDRESS":"三福路７３之２０號","OBJECTID":586402},"geometry":{"x":174542.56000000052,"y":2580166.129999999}},{"attributes":{"ID":586430,"DIS_CODE":0,"TOWNNAME":"鹽水區","LI":"中境里","LIN":"11鄰","STREET":"三福路","SECT":" ","MAREA":" ","LANE":" ","ALLEY":" ","HOUSE_NO":"７３之２１號","E_COORD97":174538.34,"N_COORD97":2580167.1099999999,"ADDRESS":"三福路７３之２１號","OBJECTID":586403},"geometry":{"x":174538.33999999985,"y":2580167.1099999994}},{"attributes":{"ID":586431,"DIS_CODE":0,"TOWNNAME":"鹽水區","LI":"中境里","LIN":"11鄰","STREET":"三福路","SECT":" ","MAREA":" ","LANE":" ","ALLEY":" ","HOUSE_NO":"７３號之２２","E_COORD97":174534.12,"N_COORD97":2580168.0899999999,"ADDRESS":"三福路７３號之２２","OBJECTID":586404},"geometry":{"x":174534.12000000104,"y":2580168.089999998}},{"attributes":{"ID":586432,"DIS_CODE":0,"TOWNNAME":"鹽水區","LI":"中境里","LIN":"11鄰","STREET":"三福路","SECT":" ","MAREA":" ","LANE":" ","ALLEY":" ","HOUSE_NO":"７３之２３號","E_COORD97":174529.89999999999,"N_COORD97":2580169.0699999998,"ADDRESS":"三福路７３之２３號","OBJECTID":586405},"geometry":{"x":174529.90000000037,"y":2580169.070000004}},{"attributes":{"ID":586433,"DIS_CODE":0,"TOWNNAME":"鹽水區","LI":"中境里","LIN":"11鄰","STREET":"三福路","SECT":" ","MAREA":" ","LANE":" ","ALLEY":" ","HOUSE_NO":"７３之２４號","E_COORD97":174525.67999999999,"N_COORD97":2580170.04,"ADDRESS":"三福路７３之２４號","OBJECTID":586406},"geometry":{"x":174525.6799999997,"y":2580170.0399999991}},{"attributes":{"ID":586434,"DIS_CODE":0,"TOWNNAME":"鹽水區","LI":"中境里","LIN":"11鄰","STREET":"三福路","SECT":" ","MAREA":" ","LANE":" ","ALLEY":" ","HOUSE_NO":"７３號之２４","E_COORD97":174525.67999999999,"N_COORD97":2580170.04,"ADDRESS":"三福路７３號之２４","OBJECTID":586407},"geometry":{"x":174525.6799999997,"y":2580170.0399999991}},{"attributes":{"ID":586435,"DIS_CODE":0,"TOWNNAME":"鹽水區","LI":"中境里","LIN":"11鄰","STREET":"三福路","SECT":" ","MAREA":" ","LANE":" ","ALLEY":" ","HOUSE_NO":"７３號之２５","E_COORD97":174521.45999999999,"N_COORD97":2580171.02,"ADDRESS":"三福路７３號之２５","OBJECTID":586408},"geometry":{"x":174521.46000000183,"y":2580171.0199999996}},{"attributes":{"ID":586436,"DIS_CODE":0,"TOWNNAME":"鹽水區","LI":"中境里","LIN":"11鄰","STREET":"三福路","SECT":" ","MAREA":" ","LANE":" ","ALLEY":" ","HOUSE_NO":"７３之２６號","E_COORD97":174517.23999999999,"N_COORD97":2580172,"ADDRESS":"三福路７３之２６號","OBJECTID":586409},"geometry":{"x":174517.24000000022,"y":2580172}},{"attributes":{"ID":586437,"DIS_CODE":0,"TOWNNAME":"鹽水區","LI":"中境里","LIN":"11鄰","STREET":"三福路","SECT":" ","MAREA":" ","LANE":" ","ALLEY":" ","HOUSE_NO":"７３號之２６","E_COORD97":174517.23999999999,"N_COORD97":2580172,"ADDRESS":"三福路７３號之２６","OBJECTID":586410},"geometry":{"x":174517.24000000022,"y":2580172}},{"attributes":{"ID":586438,"DIS_CODE":0,"TOWNNAME":"鹽水區","LI":"中境里","LIN":"11鄰","STREET":"三福路","SECT":" ","MAREA":" ","LANE":" ","ALLEY":" ","HOUSE_NO":"７３之２號","E_COORD97":174585.56,"N_COORD97":2580109.71,"ADDRESS":"三福路７３之２號","OBJECTID":586411},"geometry":{"x":174585.55999999959,"y":2580109.7100000009}},{"attributes":{"ID":586439,"DIS_CODE":0,"TOWNNAME":"鹽水區","LI":"中境里","LIN":"11鄰","STREET":"三福路","SECT":" ","MAREA":" ","LANE":" ","ALLEY":" ","HOUSE_NO":"７３號之３","E_COORD97":174581.39000000001,"N_COORD97":2580110.0499999998,"ADDRESS":"三福路７３號之３","OBJECTID":586412},"geometry":{"x":174581.3900000006,"y":2580110.0500000026}},{"attributes":{"ID":586440,"DIS_CODE":0,"TOWNNAME":"鹽水區","LI":"中境里","LIN":"11鄰","STREET":"三福路","SECT":" ","MAREA":" ","LANE":" ","ALLEY":" ","HOUSE_NO":"７３之４號","E_COORD97":174577.20999999999,"N_COORD97":2580110.3799999999,"ADDRESS":"三福路７３之４號","OBJECTID":586413},"geometry":{"x":174577.21000000183,"y":2580110.379999999}},{"attributes":{"ID":586441,"DIS_CODE":0,"TOWNNAME":"鹽水區","LI":"中境里","LIN":"11鄰","STREET":"三福路","SECT":" ","MAREA":" ","LANE":" ","ALLEY":" ","HOUSE_NO":"７３號之４","E_COORD97":174577.20999999999,"N_COORD97":2580110.3799999999,"ADDRESS":"三福路７３號之４","OBJECTID":586414},"geometry":{"x":174577.21000000183,"y":2580110.379999999}},{"attributes":{"ID":586442,"DIS_CODE":0,"TOWNNAME":"鹽水區","LI":"中境里","LIN":"11鄰","STREET":"三福路","SECT":" ","MAREA":" ","LANE":" ","ALLEY":" ","HOUSE_NO":"７３之５號","E_COORD97":174573.04000000001,"N_COORD97":2580110.71,"ADDRESS":"三福路７３之５號","OBJECTID":586415},"geometry":{"x":174573.04000000004,"y":2580110.709999999}},{"attributes":{"ID":586443,"DIS_CODE":0,"TOWNNAME":"鹽水區","LI":"中境里","LIN":"11鄰","STREET":"三福路","SECT":" ","MAREA":" ","LANE":" ","ALLEY":" ","HOUSE_NO":"７３之６號","E_COORD97":174561.44,"N_COORD97":2580113.8900000001,"ADDRESS":"三福路７３之６號","OBJECTID":586416},"geometry":{"x":174561.44000000134,"y":2580113.8900000025}},{"attributes":{"ID":586444,"DIS_CODE":0,"TOWNNAME":"鹽水區","LI":"中境里","LIN":"11鄰","STREET":"三福路","SECT":" ","MAREA":" ","LANE":" ","ALLEY":" ","HOUSE_NO":"７３號之６","E_COORD97":174561.44,"N_COORD97":2580113.8900000001,"ADDRESS":"三福路７３號之６","OBJECTID":586417},"geometry":{"x":174561.44000000134,"y":2580113.8900000025}},{"attributes":{"ID":586445,"DIS_CODE":0,"TOWNNAME":"鹽水區","LI":"中境里","LIN":"11鄰","STREET":"三福路","SECT":" ","MAREA":" ","LANE":" ","ALLEY":" ","HOUSE_NO":"７３號之７","E_COORD97":174557.64999999999,"N_COORD97":2580113.8399999999,"ADDRESS":"三福路７３號之７","OBJECTID":586418},"geometry":{"x":174557.64999999944,"y":2580113.8400000017}},{"attributes":{"ID":586446,"DIS_CODE":0,"TOWNNAME":"鹽水區","LI":"中境里","LIN":"11鄰","STREET":"三福路","SECT":" ","MAREA":" ","LANE":" ","ALLEY":" ","HOUSE_NO":"７３之８號","E_COORD97":174553.92999999999,"N_COORD97":2580113.8399999999,"ADDRESS":"三福路７３之８號","OBJECTID":586419},"geometry":{"x":174553.93000000063,"y":2580113.8400000017}},{"attributes":{"ID":586447,"DIS_CODE":0,"TOWNNAME":"鹽水區","LI":"中境里","LIN":"11鄰","STREET":"三福路","SECT":" ","MAREA":" ","LANE":" ","ALLEY":" ","HOUSE_NO":"７３號之９","E_COORD97":174549.59,"N_COORD97":2580113.9500000002,"ADDRESS":"三福路７３號之９","OBJECTID":586420},"geometry":{"x":174549.59000000078,"y":2580113.9499999993}},{"attributes":{"ID":586448,"DIS_CODE":0,"TOWNNAME":"鹽水區","LI":"中境里","LIN":"11鄰","STREET":"三福路","SECT":" ","MAREA":" ","LANE":" ","ALLEY":" ","HOUSE_NO":"７３號","E_COORD97":174578.66,"N_COORD97":2580136.27,"ADDRESS":"三福路７３號","OBJECTID":586421},"geometry":{"x":174578.66000000015,"y":2580136.2700000033}},{"attributes":{"ID":586449,"DIS_CODE":0,"TOWNNAME":"鹽水區","LI":"中境里","LIN":"11鄰","STREET":"三福路","SECT":" ","MAREA":" ","LANE":" ","ALLEY":" ","HOUSE_NO":"７５號","E_COORD97":174576.89999999999,"N_COORD97":2580166.3399999999,"ADDRESS":"三福路７５號","OBJECTID":586422},"geometry":{"x":174576.9000000013,"y":2580166.339999998}},{"attributes":{"ID":586450,"DIS_CODE":0,"TOWNNAME":"鹽水區","LI":"中境里","LIN":"11鄰","STREET":"三福路","SECT":" ","MAREA":" ","LANE":" ","ALLEY":" ","HOUSE_NO":"８１號","E_COORD97":174511.85999999999,"N_COORD97":2580132.29,"ADDRESS":"三福路８１號","OBJECTID":586423},"geometry":{"x":174511.86000000034,"y":2580132.2900000028}},{"attributes":{"ID":586451,"DIS_CODE":0,"TOWNNAME":"鹽水區","LI":"中境里","LIN":"11鄰","STREET":"三福路","SECT":" ","MAREA":" ","LANE":" ","ALLEY":" ","HOUSE_NO":"８７號","E_COORD97":174581.59,"N_COORD97":2580087.0600000001,"ADDRESS":"三福路８７號","OBJECTID":586424},"geometry":{"x":174581.59000000078,"y":2580087.0600000005}},{"attributes":{"ID":586452,"DIS_CODE":0,"TOWNNAME":"鹽水區","LI":"水正里","LIN":"11鄰","STREET":"中正路","SECT":" ","MAREA":" ","LANE":" ","ALLEY":" ","HOUSE_NO":"１１１號","E_COORD97":175091.82000000001,"N_COORD97":2579700.27,"ADDRESS":"中正路１１１號","OBJECTID":586425},"geometry":{"x":175091.8200000003,"y":2579700.2700000014}},{"attributes":{"ID":586453,"DIS_CODE":0,"TOWNNAME":"鹽水區","LI":"水正里","LIN":"11鄰","STREET":"中正路","SECT":" ","MAREA":" ","LANE":" ","ALLEY":" ","HOUSE_NO":"１１３號","E_COORD97":175099.85999999999,"N_COORD97":2579687.0099999998,"ADDRESS":"中正路１１３號","OBJECTID":586426},"geometry":{"x":175099.86000000034,"y":2579687.0099999998}},{"attributes":{"ID":586454,"DIS_CODE":0,"TOWNNAME":"鹽水區","LI":"水正里","LIN":"11鄰","STREET":"中正路","SECT":" ","MAREA":" ","LANE":" ","ALLEY":" ","HOUSE_NO":"１１５號","E_COORD97":175088.13,"N_COORD97":2579693.98,"ADDRESS":"中正路１１５號","OBJECTID":586427},"geometry":{"x":175088.13000000082,"y":2579693.9800000004}},{"attributes":{"ID":586455,"DIS_CODE":0,"TOWNNAME":"鹽水區","LI":"水正里","LIN":"11鄰","STREET":"中正路","SECT":" ","MAREA":" ","LANE":" ","ALLEY":" ","HOUSE_NO":"１１７號","E_COORD97":175087.23999999999,"N_COORD97":2579687.2000000002,"ADDRESS":"中正路１１７號","OBJECTID":586428},"geometry":{"x":175087.24000000022,"y":2579687.1999999993}},{"attributes":{"ID":586456,"DIS_CODE":0,"TOWNNAME":"鹽水區","LI":"水正里","LIN":"11鄰","STREET":"中正路","SECT":" ","MAREA":" ","LANE":" ","ALLEY":" ","HOUSE_NO":"１１９號","E_COORD97":175084.56,"N_COORD97":2579683.77,"ADDRESS":"中正路１１９號","OBJECTID":586429},"geometry":{"x":175084.55999999959,"y":2579683.7699999996}},{"attributes":{"ID":586457,"DIS_CODE":0,"TOWNNAME":"鹽水區","LI":"水正里","LIN":"11鄰","STREET":"中正路","SECT":" ","MAREA":" ","LANE":" ","ALLEY":" ","HOUSE_NO":"１２１號","E_COORD97":175081.92999999999,"N_COORD97":2579680.1299999999,"ADDRESS":"中正路１２１號","OBJECTID":586430},"geometry":{"x":175081.9299999997,"y":2579680.1300000008}},{"attributes":{"ID":586458,"DIS_CODE":0,"TOWNNAME":"鹽水區","LI":"水正里","LIN":"11鄰","STREET":"中正路","SECT":" ","MAREA":" ","LANE":" ","ALLEY":" ","HOUSE_NO":"１２３號","E_COORD97":175079.19,"N_COORD97":2579676.9300000002,"ADDRESS":"中正路１２３號","OBJECTID":586431},"geometry":{"x":175079.19000000041,"y":2579676.9299999997}},{"attributes":{"ID":586459,"DIS_CODE":0,"TOWNNAME":"鹽水區","LI":"水正里","LIN":"11鄰","STREET":"中正路","SECT":" ","MAREA":" ","LANE":" ","ALLEY":" ","HOUSE_NO":"１２５號","E_COORD97":175076.5,"N_COORD97":2579673.5,"ADDRESS":"中正路１２５號","OBJECTID":586432},"geometry":{"x":175076.5,"y":2579673.5}},{"attributes":{"ID":586460,"DIS_CODE":0,"TOWNNAME":"中西區","LI":"保安里","LIN":"14鄰","STREET":"中正路","SECT":" ","MAREA":" ","LANE":" ","ALLEY":" ","HOUSE_NO":"３２１號","E_COORD97":167475.89999999999,"N_COORD97":2543765.5299999998,"ADDRESS":"中正路３２１號","OBJECTID":586433},"geometry":{"x":167475.9000000013,"y":2543765.5300000031}},{"attributes":{"ID":586461,"DIS_CODE":0,"TOWNNAME":"中西區","LI":"保安里","LIN":"14鄰","STREET":"中正路","SECT":" ","MAREA":" ","LANE":" ","ALLEY":" ","HOUSE_NO":"３２３號","E_COORD97":167452.10000000001,"N_COORD97":2543769.9500000002,"ADDRESS":"中正路３２３號","OBJECTID":586434},"geometry":{"x":167452.09999999963,"y":2543769.9500000011}},{"attributes":{"ID":586462,"DIS_CODE":0,"TOWNNAME":"關廟區","LI":"山西里","LIN":"11鄰","STREET":"忠孝街","SECT":" ","MAREA":" ","LANE":" ","ALLEY":" ","HOUSE_NO":"２０１號","E_COORD97":181125.84,"N_COORD97":2540578.25,"ADDRESS":"忠孝街２０１號","OBJECTID":586435},"geometry":{"x":181125.83999999985,"y":2540578.2500000019}},{"attributes":{"ID":586463,"DIS_CODE":0,"TOWNNAME":"關廟區","LI":"五甲里","LIN":"11鄰","STREET":"五甲路","SECT":" ","MAREA":" ","LANE":" ","ALLEY":" ","HOUSE_NO":"２２２號","E_COORD97":180996.57000000001,"N_COORD97":2538913.25,"ADDRESS":"五甲路２２２號","OBJECTID":586436},"geometry":{"x":180996.57000000216,"y":2538913.2500000037}},{"attributes":{"ID":586464,"DIS_CODE":0,"TOWNNAME":"關廟區","LI":"五甲里","LIN":"11鄰","STREET":"五甲路","SECT":" ","MAREA":" ","LANE":" ","ALLEY":" ","HOUSE_NO":"２３６號","E_COORD97":180980.07000000001,"N_COORD97":2538899.25,"ADDRESS":"五甲路２３６號","OBJECTID":586437},"geometry":{"x":180980.07000000123,"y":2538899.25}},{"attributes":{"ID":586465,"DIS_CODE":0,"TOWNNAME":"關廟區","LI":"松腳里","LIN":"11鄰","STREET":"和平路","SECT":" ","MAREA":" ","LANE":" ","ALLEY":" ","HOUSE_NO":"１８８號","E_COORD97":181693.94,"N_COORD97":2539665.25,"ADDRESS":"和平路１８８號","OBJECTID":586438},"geometry":{"x":181693.94000000041,"y":2539665.25}},{"attributes":{"ID":586466,"DIS_CODE":0,"TOWNNAME":"關廟區","LI":"五甲里","LIN":"11鄰","STREET":"大富街","SECT":" ","MAREA":" ","LANE":" ","ALLEY":" ","HOUSE_NO":"２２號","E_COORD97":180970.72,"N_COORD97":2539035.25,"ADDRESS":"大富街２２號","OBJECTID":586439},"geometry":{"x":180970.71999999974,"y":2539035.2500000037}},{"attributes":{"ID":586467,"DIS_CODE":0,"TOWNNAME":"關廟區","LI":"五甲里","LIN":"11鄰","STREET":"五甲路","SECT":" ","MAREA":" ","LANE":" ","ALLEY":" ","HOUSE_NO":"２２０號","E_COORD97":180999.57000000001,"N_COORD97":2538916.25,"ADDRESS":"五甲路２２０號","OBJECTID":586440},"geometry":{"x":180999.5700000003,"y":2538916.25}},{"attributes":{"ID":586468,"DIS_CODE":0,"TOWNNAME":"關廟區","LI":"五甲里","LIN":"11鄰","STREET":"大富街","SECT":" ","MAREA":" ","LANE":" ","ALLEY":" ","HOUSE_NO":"２８號","E_COORD97":180978.42000000001,"N_COORD97":2539038.25,"ADDRESS":"大富街２８號","OBJECTID":586441},"geometry":{"x":180978.41999999899,"y":2539038.25}},{"attributes":{"ID":586469,"DIS_CODE":0,"TOWNNAME":"關廟區","LI":"五甲里","LIN":"11鄰","STREET":"五甲路","SECT":" ","MAREA":" ","LANE":" ","ALLEY":" ","HOUSE_NO":"２３８號","E_COORD97":180976.57000000001,"N_COORD97":2538896.25,"ADDRESS":"五甲路２３８號","OBJECTID":586442},"geometry":{"x":180976.57000000123,"y":2538896.2500000037}},{"attributes":{"ID":586470,"DIS_CODE":0,"TOWNNAME":"關廟區","LI":"五甲里","LIN":"11鄰","STREET":"五甲路","SECT":" ","MAREA":" ","LANE":" ","ALLEY":" ","HOUSE_NO":"２２８號","E_COORD97":180989.97,"N_COORD97":2538908.25,"ADDRESS":"五甲路２２８號","OBJECTID":586443},"geometry":{"x":180989.9700000016,"y":2538908.25}},{"attributes":{"ID":586471,"DIS_CODE":0,"TOWNNAME":"關廟區","LI":"五甲里","LIN":"11鄰","STREET":"五甲路","SECT":" ","MAREA":" ","LANE":" ","ALLEY":" ","HOUSE_NO":"２３２號","E_COORD97":180983.07000000001,"N_COORD97":2538901.25,"ADDRESS":"五甲路２３２號","OBJECTID":586444},"geometry":{"x":180983.07000000216,"y":2538901.2500000019}},{"attributes":{"ID":586472,"DIS_CODE":0,"TOWNNAME":"關廟區","LI":"北勢里","LIN":"11鄰","STREET":"成功路","SECT":" ","MAREA":" ","LANE":" ","ALLEY":" ","HOUSE_NO":"２５０號","E_COORD97":181497.07000000001,"N_COORD97":2540484.2599999998,"ADDRESS":"成功路２５０號","OBJECTID":586445},"geometry":{"x":181497.07000000123,"y":2540484.2600000016}},{"attributes":{"ID":586473,"DIS_CODE":0,"TOWNNAME":"關廟區","LI":"香洋里","LIN":"11鄰","STREET":"南雄路","SECT":"二段","MAREA":" ","LANE":" ","ALLEY":" ","HOUSE_NO":"４８號","E_COORD97":181117.44,"N_COORD97":2540125.2799999998,"ADDRESS":"南雄路二段４８號","OBJECTID":586446},"geometry":{"x":181117.44000000041,"y":2540125.2799999993}},{"attributes":{"ID":586474,"DIS_CODE":0,"TOWNNAME":"新市區","LI":"港墘里","LIN":"1鄰","STREET":"民族路","SECT":" ","MAREA":" ","LANE":" ","ALLEY":" ","HOUSE_NO":"４０號","E_COORD97":178563.63,"N_COORD97":2553872.79,"ADDRESS":"民族路４０號","OBJECTID":586447},"geometry":{"x":178563.63000000082,"y":2553872.7899999991}},{"attributes":{"ID":586475,"DIS_CODE":0,"TOWNNAME":"關廟區","LI":"北勢里","LIN":"11鄰","STREET":"成功路","SECT":" ","MAREA":" ","LANE":" ","ALLEY":" ","HOUSE_NO":"２４８號","E_COORD97":181502.87,"N_COORD97":2540487.27,"ADDRESS":"成功路２４８號","OBJECTID":586448},"geometry":{"x":181502.87000000197,"y":2540487.2700000014}},{"attributes":{"ID":586476,"DIS_CODE":0,"TOWNNAME":"關廟區","LI":"北勢里","LIN":"11鄰","STREET":"成功路","SECT":" ","MAREA":" ","LANE":" ","ALLEY":" ","HOUSE_NO":"２２２號","E_COORD97":181536.17000000001,"N_COORD97":2540536.27,"ADDRESS":"成功路２２２號","OBJECTID":586449},"geometry":{"x":181536.16999999899,"y":2540536.2699999996}},{"attributes":{"ID":586477,"DIS_CODE":0,"TOWNNAME":"關廟區","LI":"北花里","LIN":"11鄰","STREET":"中正路","SECT":" ","MAREA":" ","LANE":" ","ALLEY":" ","HOUSE_NO":"６６８號","E_COORD97":181754.56,"N_COORD97":2540373.25,"ADDRESS":"中正路６６８號","OBJECTID":586450},"geometry":{"x":181754.55999999959,"y":2540373.25}},{"attributes":{"ID":586478,"DIS_CODE":0,"TOWNNAME":"關廟區","LI":"北花里","LIN":"11鄰","STREET":"中正路","SECT":" ","MAREA":" ","LANE":" ","ALLEY":" ","HOUSE_NO":"６６６號","E_COORD97":181760.66,"N_COORD97":2540377.25,"ADDRESS":"中正路６６６號","OBJECTID":586451},"geometry":{"x":181760.66000000108,"y":2540377.25}},{"attributes":{"ID":586479,"DIS_CODE":0,"TOWNNAME":"關廟區","LI":"北勢里","LIN":"11鄰","STREET":"成功路","SECT":" ","MAREA":" ","LANE":" ","ALLEY":" ","HOUSE_NO":"２６０號","E_COORD97":181478.26999999999,"N_COORD97":2540487.27,"ADDRESS":"成功路２６０號","OBJECTID":586452},"geometry":{"x":181478.27000000048,"y":2540487.2700000014}},{"attributes":{"ID":586480,"DIS_CODE":0,"TOWNNAME":"關廟區","LI":"香洋里","LIN":"11鄰","STREET":"南雄路","SECT":"二段","MAREA":" ","LANE":" ","ALLEY":" ","HOUSE_NO":"６８號","E_COORD97":181126.64000000001,"N_COORD97":2540165.2799999998,"ADDRESS":"南雄路二段６８號","OBJECTID":586453},"geometry":{"x":181126.6400000006,"y":2540165.2799999993}},{"attributes":{"ID":586481,"DIS_CODE":0,"TOWNNAME":"關廟區","LI":"南花里","LIN":"11鄰","STREET":"中山路","SECT":"一段","MAREA":" ","LANE":" ","ALLEY":" ","HOUSE_NO":"２６０號","E_COORD97":181812.66,"N_COORD97":2539947.2799999998,"ADDRESS":"中山路一段２６０號","OBJECTID":586454},"geometry":{"x":181812.66000000015,"y":2539947.2800000012}},{"attributes":{"ID":586482,"DIS_CODE":0,"TOWNNAME":"關廟區","LI":"北花里","LIN":"11鄰","STREET":"成功路","SECT":" ","MAREA":" ","LANE":" ","ALLEY":" ","HOUSE_NO":"１７號","E_COORD97":181720.01999999999,"N_COORD97":2540398.27,"ADDRESS":"成功路１７號","OBJECTID":586455},"geometry":{"x":181720.02000000142,"y":2540398.2700000014}},{"attributes":{"ID":586483,"DIS_CODE":0,"TOWNNAME":"關廟區","LI":"埤頭里","LIN":"11鄰","STREET":"關新路","SECT":"二段","MAREA":" ","LANE":" ","ALLEY":" ","HOUSE_NO":"１７７號","E_COORD97":179084.32000000001,"N_COORD97":2544497.2999999998,"ADDRESS":"關新路二段１７７號","OBJECTID":586456},"geometry":{"x":179084.31999999937,"y":2544497.3000000007}},{"attributes":{"ID":586484,"DIS_CODE":0,"TOWNNAME":"關廟區","LI":"南花里","LIN":"11鄰","STREET":"中山路","SECT":"一段","MAREA":" ","LANE":" ","ALLEY":" ","HOUSE_NO":"２５６號","E_COORD97":181822.66,"N_COORD97":2539950.2799999998,"ADDRESS":"中山路一段２５６號","OBJECTID":586457},"geometry":{"x":181822.66000000015,"y":2539950.2800000012}},{"attributes":{"ID":586485,"DIS_CODE":0,"TOWNNAME":"關廟區","LI":"香洋里","LIN":"11鄰","STREET":"南雄路","SECT":"二段","MAREA":" ","LANE":" ","ALLEY":" ","HOUSE_NO":"６０號","E_COORD97":181121.64000000001,"N_COORD97":2540144.2799999998,"ADDRESS":"南雄路二段６０號","OBJECTID":586458},"geometry":{"x":181121.6400000006,"y":2540144.2800000012}},{"attributes":{"ID":586486,"DIS_CODE":0,"TOWNNAME":"中西區","LI":"保安里","LIN":"14鄰","STREET":"康樂街","SECT":" ","MAREA":" ","LANE":" ","ALLEY":" ","HOUSE_NO":"１０８號","E_COORD97":167446.84,"N_COORD97":2543742.8599999999,"ADDRESS":"康樂街１０８號","OBJECTID":586459},"geometry":{"x":167446.84000000078,"y":2543742.8599999994}},{"attributes":{"ID":586487,"DIS_CODE":0,"TOWNNAME":"關廟區","LI":"關廟里","LIN":"11鄰","STREET":"大富街","SECT":" ","MAREA":" ","LANE":" ","ALLEY":" ","HOUSE_NO":"２８５號","E_COORD97":181047.44,"N_COORD97":2539657.1499999999,"ADDRESS":"大富街２８５號","OBJECTID":586460},"geometry":{"x":181047.44000000134,"y":2539657.1500000022}},{"attributes":{"ID":586488,"DIS_CODE":0,"TOWNNAME":"關廟區","LI":"北花里","LIN":"11鄰","STREET":"中正路","SECT":" ","MAREA":" ","LANE":" ","ALLEY":" ","HOUSE_NO":"７７７號","E_COORD97":181722.26000000001,"N_COORD97":2540328.25,"ADDRESS":"中正路７７７號","OBJECTID":586461},"geometry":{"x":181722.26000000071,"y":2540328.2500000019}},{"attributes":{"ID":586489,"DIS_CODE":0,"TOWNNAME":"關廟區","LI":"香洋里","LIN":"11鄰","STREET":"中央路","SECT":" ","MAREA":" ","LANE":" ","ALLEY":" ","HOUSE_NO":"１６６號","E_COORD97":181380.66,"N_COORD97":2540027.3199999998,"ADDRESS":"中央路１６６號","OBJECTID":586462},"geometry":{"x":181380.66000000201,"y":2540027.3200000003}},{"attributes":{"ID":586490,"DIS_CODE":0,"TOWNNAME":"關廟區","LI":"香洋里","LIN":"11鄰","STREET":"南雄路","SECT":"二段","MAREA":" ","LANE":" ","ALLEY":" ","HOUSE_NO":"６６號","E_COORD97":181123.23999999999,"N_COORD97":2540155.2799999998,"ADDRESS":"南雄路二段６６號","OBJECTID":586463},"geometry":{"x":181123.24000000115,"y":2540155.2799999993}},{"attributes":{"ID":586491,"DIS_CODE":0,"TOWNNAME":"關廟區","LI":"北花里","LIN":"11鄰","STREET":"成功路","SECT":" ","MAREA":" ","LANE":" ","ALLEY":" ","HOUSE_NO":"１１號","E_COORD97":181732.22,"N_COORD97":2540395.27,"ADDRESS":"成功路１１號","OBJECTID":586464},"geometry":{"x":181732.21999999974,"y":2540395.2700000014}},{"attributes":{"ID":586492,"DIS_CODE":0,"TOWNNAME":"關廟區","LI":"香洋里","LIN":"11鄰","STREET":"南雄路","SECT":"二段","MAREA":" ","LANE":" ","ALLEY":" ","HOUSE_NO":"５０號","E_COORD97":181113.48999999999,"N_COORD97":2540129.02,"ADDRESS":"南雄路二段５０號","OBJECTID":586465},"geometry":{"x":181113.49000000022,"y":2540129.0200000014}},{"attributes":{"ID":586493,"DIS_CODE":0,"TOWNNAME":"關廟區","LI":"南花里","LIN":"11鄰","STREET":"中山路","SECT":"一段","MAREA":" ","LANE":" ","ALLEY":" ","HOUSE_NO":"２６２號","E_COORD97":181806.56,"N_COORD97":2539946.2799999998,"ADDRESS":"中山路一段２６２號","OBJECTID":586466},"geometry":{"x":181806.56000000052,"y":2539946.2800000031}},{"attributes":{"ID":586494,"DIS_CODE":0,"TOWNNAME":"關廟區","LI":"埤頭里","LIN":"11鄰","STREET":"關新路","SECT":"二段","MAREA":" ","LANE":" ","ALLEY":" ","HOUSE_NO":"３８７號","E_COORD97":179060.17000000001,"N_COORD97":2544969.2999999998,"ADDRESS":"關新路二段３８７號","OBJECTID":586467},"geometry":{"x":179060.17000000086,"y":2544969.3000000026}},{"attributes":{"ID":586495,"DIS_CODE":0,"TOWNNAME":"關廟區","LI":"埤頭里","LIN":"11鄰","STREET":"關新路","SECT":"二段","MAREA":" ","LANE":" ","ALLEY":" ","HOUSE_NO":"２３８號","E_COORD97":179130.07000000001,"N_COORD97":2544558.2999999998,"ADDRESS":"關新路二段２３８號","OBJECTID":586468},"geometry":{"x":179130.06999999937,"y":2544558.3000000007}},{"attributes":{"ID":586496,"DIS_CODE":0,"TOWNNAME":"關廟區","LI":"北花里","LIN":"11鄰","STREET":"中正路","SECT":" ","MAREA":" ","LANE":" ","ALLEY":" ","HOUSE_NO":"７６３號","E_COORD97":181758.76000000001,"N_COORD97":2540342.25,"ADDRESS":"中正路７６３號","OBJECTID":586469},"geometry":{"x":181758.75999999978,"y":2540342.2500000019}},{"attributes":{"ID":586497,"DIS_CODE":0,"TOWNNAME":"中西區","LI":"大涼里","LIN":"20鄰","STREET":"中華西路","SECT":"二段","MAREA":" ","LANE":" ","ALLEY":" ","HOUSE_NO":"３６號","E_COORD97":166660.75,"N_COORD97":2543723.75,"ADDRESS":"中華西路二段３６號","OBJECTID":586470},"geometry":{"x":166660.75000000093,"y":2543723.75}},{"attributes":{"ID":586498,"DIS_CODE":0,"TOWNNAME":"中西區","LI":"郡西里","LIN":"14鄰","STREET":"郡西路","SECT":" ","MAREA":" ","LANE":" ","ALLEY":" ","HOUSE_NO":"１１８號","E_COORD97":167439.51999999999,"N_COORD97":2543457.6699999999,"ADDRESS":"郡西路１１８號","OBJECTID":586471},"geometry":{"x":167439.51999999955,"y":2543457.6700000018}},{"attributes":{"ID":586499,"DIS_CODE":0,"TOWNNAME":"中西區","LI":"郡西里","LIN":"14鄰","STREET":"郡西路","SECT":" ","MAREA":" ","LANE":" ","ALLEY":" ","HOUSE_NO":"８１號","E_COORD97":167416.44,"N_COORD97":2543457.1400000001,"ADDRESS":"郡西路８１號","OBJECTID":586472},"geometry":{"x":167416.44000000134,"y":2543457.1400000006}},{"attributes":{"ID":586500,"DIS_CODE":0,"TOWNNAME":"中西區","LI":"郡西里","LIN":"14鄰","STREET":"大仁街","SECT":" ","MAREA":" ","LANE":" ","ALLEY":" ","HOUSE_NO":"３４號","E_COORD97":167391.41,"N_COORD97":2543440.1899999999,"ADDRESS":"大仁街３４號","OBJECTID":586473},"geometry":{"x":167391.41000000015,"y":2543440.1900000013}},{"attributes":{"ID":586501,"DIS_CODE":0,"TOWNNAME":"中西區","LI":"郡西里","LIN":"14鄰","STREET":"大仁街","SECT":" ","MAREA":" ","LANE":" ","ALLEY":" ","HOUSE_NO":"３６號","E_COORD97":167386.16,"N_COORD97":2543441.6499999999,"ADDRESS":"大仁街３６號","OBJECTID":586474},"geometry":{"x":167386.16000000015,"y":2543441.6500000022}},{"attributes":{"ID":586502,"DIS_CODE":0,"TOWNNAME":"中西區","LI":"郡西里","LIN":"14鄰","STREET":"大仁街","SECT":" ","MAREA":" ","LANE":" ","ALLEY":" ","HOUSE_NO":"４０號","E_COORD97":167380.17999999999,"N_COORD97":2543442.6299999999,"ADDRESS":"大仁街４０號","OBJECTID":586475},"geometry":{"x":167380.18000000063,"y":2543442.6300000027}},{"attributes":{"ID":586503,"DIS_CODE":0,"TOWNNAME":"中西區","LI":"郡西里","LIN":"14鄰","STREET":"康樂街","SECT":" ","MAREA":" ","LANE":" ","ALLEY":" ","HOUSE_NO":"２４號","E_COORD97":167371.14999999999,"N_COORD97":2543445.1899999999,"ADDRESS":"康樂街２４號","OBJECTID":586476},"geometry":{"x":167371.15000000037,"y":2543445.1899999995}},{"attributes":{"ID":586504,"DIS_CODE":0,"TOWNNAME":"中西區","LI":"郡西里","LIN":"14鄰","STREET":"康樂街","SECT":" ","MAREA":" ","LANE":" ","ALLEY":" ","HOUSE_NO":"２４號之１","E_COORD97":167374.20000000001,"N_COORD97":2543444.0899999999,"ADDRESS":"康樂街２４號之１","OBJECTID":586477},"geometry":{"x":167374.20000000019,"y":2543444.0900000017}},{"attributes":{"ID":586505,"DIS_CODE":0,"TOWNNAME":"中西區","LI":"普濟里","LIN":"10鄰","STREET":"成功路","SECT":" ","MAREA":" ","LANE":" ","ALLEY":" ","HOUSE_NO":"３０１號","E_COORD97":168074.95000000001,"N_COORD97":2544473.3500000001,"ADDRESS":"成功路３０１號","OBJECTID":586478},"geometry":{"x":168074.95000000205,"y":2544473.3500000015}},{"attributes":{"ID":586506,"DIS_CODE":0,"TOWNNAME":"關廟區","LI":"北花里","LIN":"11鄰","STREET":"中正路","SECT":" ","MAREA":" ","LANE":" ","ALLEY":" ","HOUSE_NO":"７６１號","E_COORD97":181770.26000000001,"N_COORD97":2540346.25,"ADDRESS":"中正路７６１號","OBJECTID":586479},"geometry":{"x":181770.26000000071,"y":2540346.25}},{"attributes":{"ID":586507,"DIS_CODE":0,"TOWNNAME":"關廟區","LI":"北花里","LIN":"11鄰","STREET":"成功路","SECT":" ","MAREA":" ","LANE":" ","ALLEY":" ","HOUSE_NO":"７號","E_COORD97":181741.37,"N_COORD97":2540392.27,"ADDRESS":"成功路７號","OBJECTID":586480},"geometry":{"x":181741.37000000011,"y":2540392.2700000014}},{"attributes":{"ID":586508,"DIS_CODE":0,"TOWNNAME":"關廟區","LI":"香洋里","LIN":"11鄰","STREET":"南雄路","SECT":"二段","MAREA":" ","LANE":" ","ALLEY":" ","HOUSE_NO":"４２號","E_COORD97":181118.23999999999,"N_COORD97":2540118.2799999998,"ADDRESS":"南雄路二段４２號","OBJECTID":586481},"geometry":{"x":181118.24000000022,"y":2540118.2799999993}},{"attributes":{"ID":586509,"DIS_CODE":0,"TOWNNAME":"關廟區","LI":"北花里","LIN":"11鄰","STREET":"成功路","SECT":" ","MAREA":" ","LANE":" ","ALLEY":" ","HOUSE_NO":"１５號","E_COORD97":181725.32000000001,"N_COORD97":2540397.27,"ADDRESS":"成功路１５號","OBJECTID":586482},"geometry":{"x":181725.3200000003,"y":2540397.2699999996}},{"attributes":{"ID":586510,"DIS_CODE":0,"TOWNNAME":"關廟區","LI":"北花里","LIN":"11鄰","STREET":"中正路","SECT":" ","MAREA":" ","LANE":" ","ALLEY":" ","HOUSE_NO":"７７３號","E_COORD97":181731.85999999999,"N_COORD97":2540330.25,"ADDRESS":"中正路７７３號","OBJECTID":586483},"geometry":{"x":181731.86000000034,"y":2540330.2499999981}},{"attributes":{"ID":586511,"DIS_CODE":0,"TOWNNAME":"關廟區","LI":"新光里","LIN":"11鄰","STREET":"新光街","SECT":" ","MAREA":" ","LANE":" ","ALLEY":" ","HOUSE_NO":"２３８號","E_COORD97":184313.17000000001,"N_COORD97":2541843.25,"ADDRESS":"新光街２３８號","OBJECTID":586484},"geometry":{"x":184313.17000000086,"y":2541843.2500000019}},{"attributes":{"ID":586512,"DIS_CODE":0,"TOWNNAME":"中西區","LI":"元安里","LIN":"2鄰","STREET":"國華街","SECT":"二段","MAREA":" ","LANE":" ","ALLEY":" ","HOUSE_NO":"２７號","E_COORD97":167574.45999999999,"N_COORD97":2543207.1899999999,"ADDRESS":"國華街二段２７號","OBJECTID":586485},"geometry":{"x":167574.46000000183,"y":2543207.1899999995}},{"attributes":{"ID":586513,"DIS_CODE":0,"TOWNNAME":"關廟區","LI":"關廟里","LIN":"11鄰","STREET":"大富街","SECT":" ","MAREA":" ","LANE":" ","ALLEY":" ","HOUSE_NO":"２８３號","E_COORD97":181055.67000000001,"N_COORD97":2539648.25,"ADDRESS":"大富街２８３號","OBJECTID":586486},"geometry":{"x":181055.67000000086,"y":2539648.25}},{"attributes":{"ID":586514,"DIS_CODE":0,"TOWNNAME":"關廟區","LI":"五甲里","LIN":"11鄰","STREET":"五義街","SECT":" ","MAREA":" ","LANE":" ","ALLEY":" ","HOUSE_NO":"１００號","E_COORD97":180996.57000000001,"N_COORD97":2539007.27,"ADDRESS":"五義街１００號","OBJECTID":586487},"geometry":{"x":180996.57000000216,"y":2539007.2699999996}},{"attributes":{"ID":586515,"DIS_CODE":0,"TOWNNAME":"關廟區","LI":"五甲里","LIN":"11鄰","STREET":"五義街","SECT":" ","MAREA":" ","LANE":" ","ALLEY":" ","HOUSE_NO":"１０２號","E_COORD97":180992.26999999999,"N_COORD97":2539005.27,"ADDRESS":"五義街１０２號","OBJECTID":586488},"geometry":{"x":180992.26999999955,"y":2539005.2700000014}},{"attributes":{"ID":586516,"DIS_CODE":0,"TOWNNAME":"關廟區","LI":"關廟里","LIN":"11鄰","STREET":"大富街","SECT":" ","MAREA":" ","LANE":" ","ALLEY":" ","HOUSE_NO":"２８９號","E_COORD97":181042.14000000001,"N_COORD97":2539677.1499999999,"ADDRESS":"大富街２８９號","OBJECTID":586489},"geometry":{"x":181042.13999999966,"y":2539677.1500000041}},{"attributes":{"ID":586517,"DIS_CODE":0,"TOWNNAME":"關廟區","LI":"北花里","LIN":"11鄰","STREET":"成功路","SECT":" ","MAREA":" ","LANE":" ","ALLEY":" ","HOUSE_NO":"９號","E_COORD97":181735.26999999999,"N_COORD97":2540393.27,"ADDRESS":"成功路９號","OBJECTID":586490},"geometry":{"x":181735.27000000142,"y":2540393.2699999996}},{"attributes":{"ID":586518,"DIS_CODE":0,"TOWNNAME":"關廟區","LI":"北花里","LIN":"11鄰","STREET":"中正路","SECT":" ","MAREA":" ","LANE":" ","ALLEY":" ","HOUSE_NO":"７０２號","E_COORD97":181674.26000000001,"N_COORD97":2540334.25,"ADDRESS":"中正路７０２號","OBJECTID":586491},"geometry":{"x":181674.25999999978,"y":2540334.2500000019}},{"attributes":{"ID":586519,"DIS_CODE":0,"TOWNNAME":"關廟區","LI":"香洋里","LIN":"11鄰","STREET":"南雄路","SECT":"二段","MAREA":" ","LANE":" ","ALLEY":" ","HOUSE_NO":"５６號","E_COORD97":181120.14000000001,"N_COORD97":2540137.27,"ADDRESS":"南雄路二段５６號","OBJECTID":586492},"geometry":{"x":181120.13999999966,"y":2540137.2700000014}},{"attributes":{"ID":586520,"DIS_CODE":0,"TOWNNAME":"關廟區","LI":"新光里","LIN":"11鄰","STREET":"新光街","SECT":" ","MAREA":" ","LANE":" ","ALLEY":" ","HOUSE_NO":"２１０號","E_COORD97":184273.26999999999,"N_COORD97":2541805.25,"ADDRESS":"新光街２１０號","OBJECTID":586493},"geometry":{"x":184273.27000000048,"y":2541805.2500000037}},{"attributes":{"ID":586521,"DIS_CODE":0,"TOWNNAME":"關廟區","LI":"北花里","LIN":"11鄰","STREET":"中正路","SECT":" ","MAREA":" ","LANE":" ","ALLEY":" ","HOUSE_NO":"７８９號","E_COORD97":181693.85999999999,"N_COORD97":2540310.25,"ADDRESS":"中正路７８９號","OBJECTID":586494},"geometry":{"x":181693.86000000127,"y":2540310.2500000037}},{"attributes":{"ID":586522,"DIS_CODE":0,"TOWNNAME":"關廟區","LI":"北花里","LIN":"11鄰","STREET":"成功路","SECT":" ","MAREA":" ","LANE":" ","ALLEY":" ","HOUSE_NO":"１３號","E_COORD97":181728.42000000001,"N_COORD97":2540396.27,"ADDRESS":"成功路１３號","OBJECTID":586495},"geometry":{"x":181728.42000000086,"y":2540396.2699999996}},{"attributes":{"ID":586523,"DIS_CODE":0,"TOWNNAME":"關廟區","LI":"山西里","LIN":"11鄰","STREET":"崇明街","SECT":" ","MAREA":" ","LANE":" ","ALLEY":" ","HOUSE_NO":"１０號","E_COORD97":181070.51999999999,"N_COORD97":2540638.25,"ADDRESS":"崇明街１０號","OBJECTID":586496},"geometry":{"x":181070.51999999955,"y":2540638.25}},{"attributes":{"ID":586524,"DIS_CODE":0,"TOWNNAME":"關廟區","LI":"北花里","LIN":"11鄰","STREET":"園中街","SECT":" ","MAREA":" ","LANE":" ","ALLEY":" ","HOUSE_NO":"２１號","E_COORD97":181765.95999999999,"N_COORD97":2540264.25,"ADDRESS":"園中街２１號","OBJECTID":586497},"geometry":{"x":181765.95999999996,"y":2540264.2500000019}},{"attributes":{"ID":586525,"DIS_CODE":0,"TOWNNAME":"關廟區","LI":"北花里","LIN":"11鄰","STREET":"園中街","SECT":" ","MAREA":" ","LANE":" ","ALLEY":" ","HOUSE_NO":"２３號","E_COORD97":181765.95999999999,"N_COORD97":2540269.25,"ADDRESS":"園中街２３號","OBJECTID":586498},"geometry":{"x":181765.95999999996,"y":2540269.2499999981}},{"attributes":{"ID":586526,"DIS_CODE":0,"TOWNNAME":"關廟區","LI":"北花里","LIN":"11鄰","STREET":"中正路","SECT":" ","MAREA":" ","LANE":" ","ALLEY":" ","HOUSE_NO":"６８０號","E_COORD97":181726.45999999999,"N_COORD97":2540355.25,"ADDRESS":"中正路６８０號","OBJECTID":586499},"geometry":{"x":181726.46000000089,"y":2540355.2500000019}},{"attributes":{"ID":586527,"DIS_CODE":0,"TOWNNAME":"關廟區","LI":"北勢里","LIN":"11鄰","STREET":"成功路","SECT":" ","MAREA":" ","LANE":" ","ALLEY":" ","HOUSE_NO":"２３６號","E_COORD97":181528.97,"N_COORD97":2540508.27,"ADDRESS":"成功路２３６號","OBJECTID":586500},"geometry":{"x":181528.9700000016,"y":2540508.2699999996}},{"attributes":{"ID":586528,"DIS_CODE":0,"TOWNNAME":"安平區","LI":"石門里","LIN":"11鄰","STREET":"平生路","SECT":" ","MAREA":" ","LANE":" ","ALLEY":" ","HOUSE_NO":"９１號","E_COORD97":164366.01999999999,"N_COORD97":2544754.21,"ADDRESS":"平生路９１號","OBJECTID":586501},"geometry":{"x":164366.01999999955,"y":2544754.2100000028}},{"attributes":{"ID":586529,"DIS_CODE":0,"TOWNNAME":"北區","LI":"大山里","LIN":"11鄰","STREET":"精忠街","SECT":" ","MAREA":" ","LANE":" ","ALLEY":" ","HOUSE_NO":"１２０號","E_COORD97":169291.04999999999,"N_COORD97":2545550.0099999998,"ADDRESS":"精忠街１２０號","OBJECTID":586502},"geometry":{"x":169291.05000000075,"y":2545550.0100000016}},{"attributes":{"ID":586530,"DIS_CODE":0,"TOWNNAME":"北區","LI":"大山里","LIN":"11鄰","STREET":"精忠街","SECT":" ","MAREA":" ","LANE":" ","ALLEY":" ","HOUSE_NO":"１２２號","E_COORD97":169287.51000000001,"N_COORD97":2545551.0899999999,"ADDRESS":"精忠街１２２號","OBJECTID":586503},"geometry":{"x":169287.50999999978,"y":2545551.0899999999}},{"attributes":{"ID":586531,"DIS_CODE":0,"TOWNNAME":"北區","LI":"大山里","LIN":"11鄰","STREET":"精忠街","SECT":" ","MAREA":" ","LANE":" ","ALLEY":" ","HOUSE_NO":"１２４號","E_COORD97":169283.89999999999,"N_COORD97":2545551.9399999999,"ADDRESS":"精忠街１２４號","OBJECTID":586504},"geometry":{"x":169283.90000000037,"y":2545551.9399999995}},{"attributes":{"ID":586532,"DIS_CODE":0,"TOWNNAME":"北區","LI":"大山里","LIN":"11鄰","STREET":"精忠街","SECT":" ","MAREA":" ","LANE":" ","ALLEY":" ","HOUSE_NO":"１２６號","E_COORD97":169280.73999999999,"N_COORD97":2545552.7000000002,"ADDRESS":"精忠街１２６號","OBJECTID":586505},"geometry":{"x":169280.74000000022,"y":2545552.7000000011}},{"attributes":{"ID":586533,"DIS_CODE":0,"TOWNNAME":"北區","LI":"大山里","LIN":"11鄰","STREET":"精忠街","SECT":" ","MAREA":" ","LANE":" ","ALLEY":" ","HOUSE_NO":"１２８號","E_COORD97":169277.35000000001,"N_COORD97":2545553.7000000002,"ADDRESS":"精忠街１２８號","OBJECTID":586506},"geometry":{"x":169277.35000000056,"y":2545553.6999999993}},{"attributes":{"ID":586534,"DIS_CODE":0,"TOWNNAME":"北區","LI":"大山里","LIN":"11鄰","STREET":"精忠街","SECT":" ","MAREA":" ","LANE":" ","ALLEY":" ","HOUSE_NO":"１３０號","E_COORD97":169271.04000000001,"N_COORD97":2545558.1600000001,"ADDRESS":"精忠街１３０號","OBJECTID":586507},"geometry":{"x":169271.04000000097,"y":2545558.1600000001}},{"attributes":{"ID":586535,"DIS_CODE":0,"TOWNNAME":"北區","LI":"玉皇里","LIN":"11鄰","STREET":"佑民街","SECT":" ","MAREA":" ","LANE":" ","ALLEY":" ","HOUSE_NO":"４８號","E_COORD97":168638.26999999999,"N_COORD97":2544451.3300000001,"ADDRESS":"佑民街４８號","OBJECTID":586508},"geometry":{"x":168638.27000000142,"y":2544451.3300000001}},{"attributes":{"ID":586536,"DIS_CODE":0,"TOWNNAME":"北區","LI":"玉皇里","LIN":"11鄰","STREET":"佑民街","SECT":" ","MAREA":" ","LANE":" ","ALLEY":" ","HOUSE_NO":"８０號","E_COORD97":168694.72,"N_COORD97":2544476.8900000001,"ADDRESS":"佑民街８０號","OBJECTID":586509},"geometry":{"x":168694.7200000016,"y":2544476.8900000025}},{"attributes":{"ID":586537,"DIS_CODE":0,"TOWNNAME":"北區","LI":"玉皇里","LIN":"11鄰","STREET":"佑民街","SECT":" ","MAREA":" ","LANE":" ","ALLEY":" ","HOUSE_NO":"８２號","E_COORD97":168699.17999999999,"N_COORD97":2544479.9500000002,"ADDRESS":"佑民街８２號","OBJECTID":586510},"geometry":{"x":168699.1799999997,"y":2544479.9499999993}},{"attributes":{"ID":586538,"DIS_CODE":0,"TOWNNAME":"北區","LI":"玉皇里","LIN":"11鄰","STREET":"佑民街","SECT":" ","MAREA":" ","LANE":" ","ALLEY":" ","HOUSE_NO":"８６號","E_COORD97":168701.92000000001,"N_COORD97":2544482.5899999999,"ADDRESS":"佑民街８６號","OBJECTID":586511},"geometry":{"x":168701.92000000179,"y":2544482.5900000017}},{"attributes":{"ID":586539,"DIS_CODE":0,"TOWNNAME":"北區","LI":"玉皇里","LIN":"11鄰","STREET":"佑民街","SECT":" ","MAREA":" ","LANE":" ","ALLEY":" ","HOUSE_NO":"９０號","E_COORD97":168706.48000000001,"N_COORD97":2544486.75,"ADDRESS":"佑民街９０號","OBJECTID":586512},"geometry":{"x":168706.48000000045,"y":2544486.75}},{"attributes":{"ID":586540,"DIS_CODE":0,"TOWNNAME":"安平區","LI":"石門里","LIN":"11鄰","STREET":"平生路","SECT":" ","MAREA":" ","LANE":" ","ALLEY":" ","HOUSE_NO":"６０號","E_COORD97":164360.67999999999,"N_COORD97":2544664.3900000001,"ADDRESS":"平生路６０號","OBJECTID":586513},"geometry":{"x":164360.68000000063,"y":2544664.3900000025}},{"attributes":{"ID":586541,"DIS_CODE":0,"TOWNNAME":"安平區","LI":"石門里","LIN":"11鄰","STREET":"平生路","SECT":" ","MAREA":" ","LANE":" ","ALLEY":" ","HOUSE_NO":"６２號","E_COORD97":164362.73000000001,"N_COORD97":2544676.3799999999,"ADDRESS":"平生路６２號","OBJECTID":586514},"geometry":{"x":164362.73000000138,"y":2544676.3800000008}},{"attributes":{"ID":586542,"DIS_CODE":0,"TOWNNAME":"安平區","LI":"石門里","LIN":"11鄰","STREET":"平生路","SECT":" ","MAREA":" ","LANE":" ","ALLEY":" ","HOUSE_NO":"６４號","E_COORD97":164366.82999999999,"N_COORD97":2544685.4399999999,"ADDRESS":"平生路６４號","OBJECTID":586515},"geometry":{"x":164366.83000000101,"y":2544685.4400000032}},{"attributes":{"ID":586543,"DIS_CODE":0,"TOWNNAME":"安平區","LI":"石門里","LIN":"11鄰","STREET":"平生路","SECT":" ","MAREA":" ","LANE":" ","ALLEY":" ","HOUSE_NO":"６６號","E_COORD97":164368.29999999999,"N_COORD97":2544691.8799999999,"ADDRESS":"平生路６６號","OBJECTID":586516},"geometry":{"x":164368.30000000075,"y":2544691.8800000027}},{"attributes":{"ID":586544,"DIS_CODE":0,"TOWNNAME":"安平區","LI":"石門里","LIN":"11鄰","STREET":"平生路","SECT":" ","MAREA":" ","LANE":" ","ALLEY":" ","HOUSE_NO":"７０號","E_COORD97":164375.16,"N_COORD97":2544715.04,"ADDRESS":"平生路７０號","OBJECTID":586517},"geometry":{"x":164375.16000000108,"y":2544715.040000001}},{"attributes":{"ID":586545,"DIS_CODE":0,"TOWNNAME":"安平區","LI":"石門里","LIN":"11鄰","STREET":"平生路","SECT":" ","MAREA":" ","LANE":" ","ALLEY":" ","HOUSE_NO":"７２號","E_COORD97":164377.23999999999,"N_COORD97":2544721.9900000002,"ADDRESS":"平生路７２號","OBJECTID":586518},"geometry":{"x":164377.24000000022,"y":2544721.9900000002}},{"attributes":{"ID":586546,"DIS_CODE":0,"TOWNNAME":"安平區","LI":"石門里","LIN":"11鄰","STREET":"平生路","SECT":" ","MAREA":" ","LANE":" ","ALLEY":" ","HOUSE_NO":"７４號","E_COORD97":164380.25,"N_COORD97":2544728.0099999998,"ADDRESS":"平生路７４號","OBJECTID":586519},"geometry":{"x":164380.25,"y":2544728.0099999998}},{"attributes":{"ID":586547,"DIS_CODE":0,"TOWNNAME":"中西區","LI":"普濟里","LIN":"8鄰","STREET":"西門路","SECT":"二段","MAREA":" ","LANE":" ","ALLEY":" ","HOUSE_NO":"３８９號","E_COORD97":168024.01999999999,"N_COORD97":2544361.71,"ADDRESS":"西門路二段３８９號","OBJECTID":586520},"geometry":{"x":168024.01999999955,"y":2544361.7100000009}},{"attributes":{"ID":586548,"DIS_CODE":0,"TOWNNAME":"中西區","LI":"普濟里","LIN":"10鄰","STREET":"西門路","SECT":"二段","MAREA":" ","LANE":" ","ALLEY":" ","HOUSE_NO":"４３１號","E_COORD97":168087.92000000001,"N_COORD97":2544446.1299999999,"ADDRESS":"西門路二段４３１號","OBJECTID":586521},"geometry":{"x":168087.91999999993,"y":2544446.1300000027}},{"attributes":{"ID":586549,"DIS_CODE":0,"TOWNNAME":"中西區","LI":"普濟里","LIN":"10鄰","STREET":"西門路","SECT":"二段","MAREA":" ","LANE":" ","ALLEY":" ","HOUSE_NO":"４３３號","E_COORD97":168088.89999999999,"N_COORD97":2544451.04,"ADDRESS":"西門路二段４３３號","OBJECTID":586522},"geometry":{"x":168088.90000000224,"y":2544451.040000001}},{"attributes":{"ID":586550,"DIS_CODE":0,"TOWNNAME":"中西區","LI":"普濟里","LIN":"10鄰","STREET":"西門路","SECT":"二段","MAREA":" ","LANE":" ","ALLEY":" ","HOUSE_NO":"４３５號","E_COORD97":168091.85000000001,"N_COORD97":2544454.96,"ADDRESS":"西門路二段４３５號","OBJECTID":586523},"geometry":{"x":168091.85000000149,"y":2544454.9600000009}},{"attributes":{"ID":586551,"DIS_CODE":0,"TOWNNAME":"中西區","LI":"普濟里","LIN":"10鄰","STREET":"西門路","SECT":"二段","MAREA":" ","LANE":" ","ALLEY":" ","HOUSE_NO":"４３７號","E_COORD97":168093.42000000001,"N_COORD97":2544458.8799999999,"ADDRESS":"西門路二段４３７號","OBJECTID":586524},"geometry":{"x":168093.42000000179,"y":2544458.8800000008}},{"attributes":{"ID":586552,"DIS_CODE":0,"TOWNNAME":"中西區","LI":"普濟里","LIN":"10鄰","STREET":"西門路","SECT":"二段","MAREA":" ","LANE":" ","ALLEY":" ","HOUSE_NO":"４３９號","E_COORD97":168094.67999999999,"N_COORD97":2544465.71,"ADDRESS":"西門路二段４３９號","OBJECTID":586525},"geometry":{"x":168094.67999999877,"y":2544465.7100000028}},{"attributes":{"ID":586553,"DIS_CODE":0,"TOWNNAME":"中西區","LI":"普濟里","LIN":"10鄰","STREET":"慈聖街","SECT":" ","MAREA":" ","LANE":" ","ALLEY":" ","HOUSE_NO":"８７號","E_COORD97":168053.25,"N_COORD97":2544416.52,"ADDRESS":"慈聖街８７號","OBJECTID":586526},"geometry":{"x":168053.25,"y":2544416.5199999996}},{"attributes":{"ID":586554,"DIS_CODE":0,"TOWNNAME":"中西區","LI":"水仙里","LIN":"9鄰","STREET":"和平街","SECT":" ","MAREA":" ","LANE":" ","ALLEY":" ","HOUSE_NO":"７５號","E_COORD97":167712.94,"N_COORD97":2544104.1699999999,"ADDRESS":"和平街７５號","OBJECTID":586527},"geometry":{"x":167712.94000000134,"y":2544104.1699999981}},{"attributes":{"ID":586555,"DIS_CODE":0,"TOWNNAME":"中西區","LI":"水仙里","LIN":"9鄰","STREET":"和平街","SECT":" ","MAREA":" ","LANE":" ","ALLEY":" ","HOUSE_NO":"７７號","E_COORD97":167707.37,"N_COORD97":2544104.5899999999,"ADDRESS":"和平街７７號","OBJECTID":586528},"geometry":{"x":167707.36999999918,"y":2544104.589999998}},{"attributes":{"ID":586556,"DIS_CODE":0,"TOWNNAME":"中西區","LI":"水仙里","LIN":"9鄰","STREET":"和平街","SECT":" ","MAREA":" ","LANE":" ","ALLEY":" ","HOUSE_NO":"７９號","E_COORD97":167702.22,"N_COORD97":2544105.8399999999,"ADDRESS":"和平街７９號","OBJECTID":586529},"geometry":{"x":167702.21999999974,"y":2544105.8399999999}},{"attributes":{"ID":586557,"DIS_CODE":0,"TOWNNAME":"中西區","LI":"水仙里","LIN":"9鄰","STREET":"忠明街","SECT":" ","MAREA":" ","LANE":" ","ALLEY":" ","HOUSE_NO":"１０號","E_COORD97":167694.98000000001,"N_COORD97":2544080.2400000002,"ADDRESS":"忠明街１０號","OBJECTID":586530},"geometry":{"x":167694.98000000045,"y":2544080.2399999984}},{"attributes":{"ID":586558,"DIS_CODE":0,"TOWNNAME":"安平區","LI":"石門里","LIN":"11鄰","STREET":"平生路","SECT":" ","MAREA":" ","LANE":" ","ALLEY":" ","HOUSE_NO":"８７號","E_COORD97":164358.98999999999,"N_COORD97":2544739.1800000002,"ADDRESS":"平生路８７號","OBJECTID":586531},"geometry":{"x":164358.99000000115,"y":2544739.1800000016}},{"attributes":{"ID":586559,"DIS_CODE":0,"TOWNNAME":"安平區","LI":"石門里","LIN":"11鄰","STREET":"平生路","SECT":" ","MAREA":" ","LANE":" ","ALLEY":" ","HOUSE_NO":"８９號","E_COORD97":164360,"N_COORD97":2544745.52,"ADDRESS":"平生路８９號","OBJECTID":586532},"geometry":{"x":164360,"y":2544745.5199999977}},{"attributes":{"ID":586560,"DIS_CODE":0,"TOWNNAME":"安平區","LI":"石門里","LIN":"11鄰","STREET":"平生路","SECT":" ","MAREA":" ","LANE":" ","ALLEY":" ","HOUSE_NO":"９３號","E_COORD97":164368.35999999999,"N_COORD97":2544759.5600000001,"ADDRESS":"平生路９３號","OBJECTID":586533},"geometry":{"x":164368.36000000127,"y":2544759.5600000005}},{"attributes":{"ID":586561,"DIS_CODE":0,"TOWNNAME":"安平區","LI":"石門里","LIN":"11鄰","STREET":"安北路","SECT":" ","MAREA":" ","LANE":" ","ALLEY":" ","HOUSE_NO":"１０１號","E_COORD97":164368.69,"N_COORD97":2544764.23,"ADDRESS":"安北路１０１號","OBJECTID":586534},"geometry":{"x":164368.69000000041,"y":2544764.2300000004}},{"attributes":{"ID":586562,"DIS_CODE":0,"TOWNNAME":"安平區","LI":"石門里","LIN":"11鄰","STREET":"安北路","SECT":" ","MAREA":" ","LANE":" ","ALLEY":" ","HOUSE_NO":"５９號之１","E_COORD97":164510.79999999999,"N_COORD97":2544633.79,"ADDRESS":"安北路５９號之１","OBJECTID":586535},"geometry":{"x":164510.80000000075,"y":2544633.7899999991}},{"attributes":{"ID":586563,"DIS_CODE":0,"TOWNNAME":"安平區","LI":"石門里","LIN":"11鄰","STREET":"安北路","SECT":" ","MAREA":" ","LANE":" ","ALLEY":" ","HOUSE_NO":"５９號之２","E_COORD97":164502.59,"N_COORD97":2544641.8999999999,"ADDRESS":"安北路５９號之２","OBJECTID":586536},"geometry":{"x":164502.59000000078,"y":2544641.9000000004}},{"attributes":{"ID":586564,"DIS_CODE":0,"TOWNNAME":"安平區","LI":"石門里","LIN":"11鄰","STREET":"安北路","SECT":" ","MAREA":" ","LANE":" ","ALLEY":" ","HOUSE_NO":"５９號之３","E_COORD97":164498.31,"N_COORD97":2544645.3500000001,"ADDRESS":"安北路５９號之３","OBJECTID":586537},"geometry":{"x":164498.31000000145,"y":2544645.3500000034}},{"attributes":{"ID":586565,"DIS_CODE":0,"TOWNNAME":"安平區","LI":"石門里","LIN":"11鄰","STREET":"安北路","SECT":" ","MAREA":" ","LANE":" ","ALLEY":" ","HOUSE_NO":"６１號","E_COORD97":164493.42000000001,"N_COORD97":2544650.02,"ADDRESS":"安北路６１號","OBJECTID":586538},"geometry":{"x":164493.42000000086,"y":2544650.0199999996}},{"attributes":{"ID":586566,"DIS_CODE":0,"TOWNNAME":"安平區","LI":"石門里","LIN":"11鄰","STREET":"安北路","SECT":" ","MAREA":" ","LANE":" ","ALLEY":" ","HOUSE_NO":"６７號","E_COORD97":164487.82999999999,"N_COORD97":2544655.6699999999,"ADDRESS":"安北路６７號","OBJECTID":586539},"geometry":{"x":164487.83000000007,"y":2544655.6699999999}},{"attributes":{"ID":586567,"DIS_CODE":0,"TOWNNAME":"安平區","LI":"石門里","LIN":"11鄰","STREET":"安北路","SECT":" ","MAREA":" ","LANE":" ","ALLEY":" ","HOUSE_NO":"６９號","E_COORD97":164481.38,"N_COORD97":2544661.75,"ADDRESS":"安北路６９號","OBJECTID":586540},"geometry":{"x":164481.38000000082,"y":2544661.75}},{"attributes":{"ID":586568,"DIS_CODE":0,"TOWNNAME":"安平區","LI":"石門里","LIN":"11鄰","STREET":"安北路","SECT":" ","MAREA":" ","LANE":" ","ALLEY":" ","HOUSE_NO":"７１號","E_COORD97":164477.45000000001,"N_COORD97":2544664.96,"ADDRESS":"安北路７１號","OBJECTID":586541},"geometry":{"x":164477.45000000019,"y":2544664.9600000009}},{"attributes":{"ID":586569,"DIS_CODE":0,"TOWNNAME":"安平區","LI":"石門里","LIN":"11鄰","STREET":"安北路","SECT":" ","MAREA":" ","LANE":" ","ALLEY":" ","HOUSE_NO":"７３號","E_COORD97":164471,"N_COORD97":2544671.04,"ADDRESS":"安北路７３號","OBJECTID":586542},"geometry":{"x":164471.00000000093,"y":2544671.040000001}},{"attributes":{"ID":586570,"DIS_CODE":0,"TOWNNAME":"安平區","LI":"石門里","LIN":"11鄰","STREET":"安北路","SECT":" ","MAREA":" ","LANE":" ","ALLEY":" ","HOUSE_NO":"７３號之１","E_COORD97":164466.35000000001,"N_COORD97":2544673.54,"ADDRESS":"安北路７３號之１","OBJECTID":586543},"geometry":{"x":164466.35000000056,"y":2544673.5399999991}},{"attributes":{"ID":586571,"DIS_CODE":0,"TOWNNAME":"安平區","LI":"石門里","LIN":"11鄰","STREET":"安北路","SECT":" ","MAREA":" ","LANE":" ","ALLEY":" ","HOUSE_NO":"７５號","E_COORD97":164461.34,"N_COORD97":2544677.4700000002,"ADDRESS":"安北路７５號","OBJECTID":586544},"geometry":{"x":164461.34000000078,"y":2544677.4700000025}},{"attributes":{"ID":586572,"DIS_CODE":0,"TOWNNAME":"安平區","LI":"石門里","LIN":"11鄰","STREET":"安北路","SECT":" ","MAREA":" ","LANE":" ","ALLEY":" ","HOUSE_NO":"７７號","E_COORD97":164453.82999999999,"N_COORD97":2544683.1899999999,"ADDRESS":"安北路７７號","OBJECTID":586545},"geometry":{"x":164453.83000000007,"y":2544683.1899999995}},{"attributes":{"ID":586573,"DIS_CODE":0,"TOWNNAME":"安平區","LI":"石門里","LIN":"11鄰","STREET":"安北路","SECT":" ","MAREA":" ","LANE":" ","ALLEY":" ","HOUSE_NO":"８１號","E_COORD97":164450.60000000001,"N_COORD97":2544686.0499999998,"ADDRESS":"安北路８１號","OBJECTID":586546},"geometry":{"x":164450.60000000149,"y":2544686.0500000045}},{"attributes":{"ID":586574,"DIS_CODE":0,"TOWNNAME":"安平區","LI":"石門里","LIN":"11鄰","STREET":"安北路","SECT":" ","MAREA":" ","LANE":" ","ALLEY":" ","HOUSE_NO":"８３號","E_COORD97":164439.26000000001,"N_COORD97":2544688.5800000001,"ADDRESS":"安北路８３號","OBJECTID":586547},"geometry":{"x":164439.25999999978,"y":2544688.5800000019}},{"attributes":{"ID":586575,"DIS_CODE":0,"TOWNNAME":"安平區","LI":"石門里","LIN":"11鄰","STREET":"安北路","SECT":" ","MAREA":" ","LANE":" ","ALLEY":" ","HOUSE_NO":"８５號","E_COORD97":164436.54000000001,"N_COORD97":2544691.8999999999,"ADDRESS":"安北路８５號","OBJECTID":586548},"geometry":{"x":164436.54000000097,"y":2544691.9000000004}},{"attributes":{"ID":586576,"DIS_CODE":0,"TOWNNAME":"安平區","LI":"石門里","LIN":"11鄰","STREET":"安北路","SECT":" ","MAREA":" ","LANE":" ","ALLEY":" ","HOUSE_NO":"８９號","E_COORD97":164427.75,"N_COORD97":2544709.96,"ADDRESS":"安北路８９號","OBJECTID":586549},"geometry":{"x":164427.75,"y":2544709.9600000009}},{"attributes":{"ID":586577,"DIS_CODE":0,"TOWNNAME":"安平區","LI":"石門里","LIN":"11鄰","STREET":"安北路","SECT":" ","MAREA":" ","LANE":" ","ALLEY":" ","HOUSE_NO":"９３號","E_COORD97":164416.38,"N_COORD97":2544720.9900000002,"ADDRESS":"安北路９３號","OBJECTID":586550},"geometry":{"x":164416.37999999989,"y":2544720.9900000021}},{"attributes":{"ID":586578,"DIS_CODE":0,"TOWNNAME":"安平區","LI":"石門里","LIN":"11鄰","STREET":"安北路","SECT":" ","MAREA":" ","LANE":" ","ALLEY":" ","HOUSE_NO":"９５號","E_COORD97":164409.01999999999,"N_COORD97":2544726.6699999999,"ADDRESS":"安北路９５號","OBJECTID":586551},"geometry":{"x":164409.02000000048,"y":2544726.6699999999}},{"attributes":{"ID":586579,"DIS_CODE":0,"TOWNNAME":"安平區","LI":"石門里","LIN":"11鄰","STREET":"安北路","SECT":" ","MAREA":" ","LANE":" ","ALLEY":" ","HOUSE_NO":"９９號","E_COORD97":164396.64000000001,"N_COORD97":2544738.7000000002,"ADDRESS":"安北路９９號","OBJECTID":586552},"geometry":{"x":164396.6400000006,"y":2544738.7000000011}},{"attributes":{"ID":586580,"DIS_CODE":0,"TOWNNAME":"安平區","LI":"石門里","LIN":"11鄰","STREET":"安北路","SECT":" ","MAREA":" ","LANE":" ","ALLEY":" ","HOUSE_NO":"９９號之１","E_COORD97":164392.29000000001,"N_COORD97":2544743.3700000001,"ADDRESS":"安北路９９號之１","OBJECTID":586553},"geometry":{"x":164392.29000000097,"y":2544743.370000001}},{"attributes":{"ID":586581,"DIS_CODE":0,"TOWNNAME":"安平區","LI":"石門里","LIN":"11鄰","STREET":"安北路","SECT":" ","MAREA":" ","LANE":" ","ALLEY":" ","HOUSE_NO":"９９號之２","E_COORD97":164386.60999999999,"N_COORD97":2544747.3799999999,"ADDRESS":"安北路９９號之２","OBJECTID":586554},"geometry":{"x":164386.61000000034,"y":2544747.3800000008}},{"attributes":{"ID":586582,"DIS_CODE":0,"TOWNNAME":"歸仁區","LI":"新厝里","LIN":"11鄰","STREET":"公園十街","SECT":" ","MAREA":" ","LANE":" ","ALLEY":" ","HOUSE_NO":"６號","E_COORD97":177690.28,"N_COORD97":2540435,"ADDRESS":"公園十街６號","OBJECTID":586555},"geometry":{"x":177690.28000000119,"y":2540435.0000000019}},{"attributes":{"ID":586583,"DIS_CODE":0,"TOWNNAME":"中西區","LI":"文賢里","LIN":"10鄰","STREET":"文和街","SECT":" ","MAREA":" ","LANE":" ","ALLEY":" ","HOUSE_NO":"１６７號之１","E_COORD97":166959.97,"N_COORD97":2544683.8900000001,"ADDRESS":"文和街１６７號之１","OBJECTID":586556},"geometry":{"x":166959.96999999974,"y":2544683.8900000025}},{"attributes":{"ID":586584,"DIS_CODE":0,"TOWNNAME":"中西區","LI":"文賢里","LIN":"10鄰","STREET":"文和街","SECT":" ","MAREA":" ","LANE":" ","ALLEY":" ","HOUSE_NO":"１６７號之２","E_COORD97":166955.89000000001,"N_COORD97":2544681.1800000002,"ADDRESS":"文和街１６７號之２","OBJECTID":586557},"geometry":{"x":166955.89000000153,"y":2544681.1800000016}},{"attributes":{"ID":586585,"DIS_CODE":0,"TOWNNAME":"中西區","LI":"文賢里","LIN":"10鄰","STREET":"文和街","SECT":" ","MAREA":" ","LANE":" ","ALLEY":" ","HOUSE_NO":"１７１號","E_COORD97":166948.23999999999,"N_COORD97":2544675.7599999998,"ADDRESS":"文和街１７１號","OBJECTID":586558},"geometry":{"x":166948.24000000022,"y":2544675.7599999998}},{"attributes":{"ID":586586,"DIS_CODE":0,"TOWNNAME":"麻豆區","LI":"興農里","LIN":"11鄰","STREET":"新生南路","SECT":" ","MAREA":" ","LANE":" ","ALLEY":" ","HOUSE_NO":"１０１號","E_COORD97":172346.31,"N_COORD97":2564652.6800000002,"ADDRESS":"新生南路１０１號","OBJECTID":586559},"geometry":{"x":172346.30999999959,"y":2564652.6799999997}},{"attributes":{"ID":586587,"DIS_CODE":0,"TOWNNAME":"麻豆區","LI":"興農里","LIN":"11鄰","STREET":"新生南路","SECT":" ","MAREA":" ","LANE":" ","ALLEY":" ","HOUSE_NO":"１０３號","E_COORD97":172347.03,"N_COORD97":2564648.7400000002,"ADDRESS":"新生南路１０３號","OBJECTID":586560},"geometry":{"x":172347.03000000119,"y":2564648.7400000002}},{"attributes":{"ID":586588,"DIS_CODE":0,"TOWNNAME":"麻豆區","LI":"興農里","LIN":"11鄰","STREET":"新生南路","SECT":" ","MAREA":" ","LANE":" ","ALLEY":" ","HOUSE_NO":"１０７號","E_COORD97":172346.64000000001,"N_COORD97":2564636.3599999999,"ADDRESS":"新生南路１０７號","OBJECTID":586561},"geometry":{"x":172346.64000000153,"y":2564636.3600000013}},{"attributes":{"ID":586589,"DIS_CODE":0,"TOWNNAME":"麻豆區","LI":"興農里","LIN":"11鄰","STREET":"新生南路","SECT":" ","MAREA":" ","LANE":" ","ALLEY":" ","HOUSE_NO":"１１１號","E_COORD97":172362.57000000001,"N_COORD97":2564611.3700000001,"ADDRESS":"新生南路１１１號","OBJECTID":586562},"geometry":{"x":172362.5700000003,"y":2564611.370000001}},{"attributes":{"ID":586590,"DIS_CODE":0,"TOWNNAME":"中西區","LI":"文賢里","LIN":"10鄰","STREET":"文和街","SECT":" ","MAREA":" ","LANE":" ","ALLEY":" ","HOUSE_NO":"１８９號","E_COORD97":166911.39000000001,"N_COORD97":2544651.6800000002,"ADDRESS":"文和街１８９號","OBJECTID":586563},"geometry":{"x":166911.38999999966,"y":2544651.6799999997}},{"attributes":{"ID":586591,"DIS_CODE":0,"TOWNNAME":"中西區","LI":"文賢里","LIN":"10鄰","STREET":"文和街","SECT":" ","MAREA":" ","LANE":" ","ALLEY":" ","HOUSE_NO":"１９３號","E_COORD97":166903.47,"N_COORD97":2544646.9199999999,"ADDRESS":"文和街１９３號","OBJECTID":586564},"geometry":{"x":166903.47000000067,"y":2544646.9199999999}},{"attributes":{"ID":586592,"DIS_CODE":0,"TOWNNAME":"麻豆區","LI":"大埕里","LIN":"11鄰","STREET":"新生北路","SECT":" ","MAREA":" ","LANE":" ","ALLEY":" ","HOUSE_NO":"５４０號","E_COORD97":172900.63,"N_COORD97":2565485.1099999999,"ADDRESS":"新生北路５４０號","OBJECTID":586565},"geometry":{"x":172900.62999999989,"y":2565485.1100000013}},{"attributes":{"ID":586593,"DIS_CODE":0,"TOWNNAME":"麻豆區","LI":"大埕里","LIN":"11鄰","STREET":"新生北路","SECT":" ","MAREA":" ","LANE":" ","ALLEY":" ","HOUSE_NO":"５４２號","E_COORD97":172907.31,"N_COORD97":2565491.6200000001,"ADDRESS":"新生北路５４２號","OBJECTID":586566},"geometry":{"x":172907.30999999959,"y":2565491.620000001}},{"attributes":{"ID":586594,"DIS_CODE":0,"TOWNNAME":"麻豆區","LI":"大埕里","LIN":"11鄰","STREET":"新生北路","SECT":" ","MAREA":" ","LANE":" ","ALLEY":" ","HOUSE_NO":"５４６號之１","E_COORD97":172913.76000000001,"N_COORD97":2565492.1800000002,"ADDRESS":"新生北路５４６號之１","OBJECTID":586567},"geometry":{"x":172913.76000000164,"y":2565492.1800000016}},{"attributes":{"ID":586595,"DIS_CODE":0,"TOWNNAME":"麻豆區","LI":"大埕里","LIN":"11鄰","STREET":"新生北路","SECT":" ","MAREA":" ","LANE":" ","ALLEY":" ","HOUSE_NO":"５４６號","E_COORD97":172923.22,"N_COORD97":2565481.02,"ADDRESS":"新生北路５４６號","OBJECTID":586568},"geometry":{"x":172923.22000000067,"y":2565481.0199999996}},{"attributes":{"ID":586596,"DIS_CODE":0,"TOWNNAME":"麻豆區","LI":"大埕里","LIN":"11鄰","STREET":"新生北路","SECT":" ","MAREA":" ","LANE":" ","ALLEY":" ","HOUSE_NO":"５５０號","E_COORD97":172937.62,"N_COORD97":2565496.21,"ADDRESS":"新生北路５５０號","OBJECTID":586569},"geometry":{"x":172937.62000000104,"y":2565496.2100000028}},{"attributes":{"ID":586597,"DIS_CODE":0,"TOWNNAME":"麻豆區","LI":"大埕里","LIN":"11鄰","STREET":"新生北路","SECT":" ","MAREA":" ","LANE":" ","ALLEY":" ","HOUSE_NO":"５６０號","E_COORD97":172962.81,"N_COORD97":2565502.3199999998,"ADDRESS":"新生北路５６０號","OBJECTID":586570},"geometry":{"x":172962.81000000052,"y":2565502.3200000003}},{"attributes":{"ID":586598,"DIS_CODE":0,"TOWNNAME":"麻豆區","LI":"大埕里","LIN":"11鄰","STREET":"新生北路","SECT":" ","MAREA":" ","LANE":" ","ALLEY":" ","HOUSE_NO":"５６２號","E_COORD97":172967.64999999999,"N_COORD97":2565502.25,"ADDRESS":"新生北路５６２號","OBJECTID":586571},"geometry":{"x":172967.65000000224,"y":2565502.2500000019}},{"attributes":{"ID":586599,"DIS_CODE":0,"TOWNNAME":"麻豆區","LI":"大埕里","LIN":"11鄰","STREET":"新生北路","SECT":" ","MAREA":" ","LANE":" ","ALLEY":" ","HOUSE_NO":"５６４號","E_COORD97":172972.25,"N_COORD97":2565502.3599999999,"ADDRESS":"新生北路５６４號","OBJECTID":586572},"geometry":{"x":172972.25000000093,"y":2565502.3599999975}},{"attributes":{"ID":586600,"DIS_CODE":0,"TOWNNAME":"麻豆區","LI":"大埕里","LIN":"11鄰","STREET":"新生北路","SECT":" ","MAREA":" ","LANE":" ","ALLEY":" ","HOUSE_NO":"５６８號","E_COORD97":172987.82999999999,"N_COORD97":2565500.4700000002,"ADDRESS":"新生北路５６８號","OBJECTID":586573},"geometry":{"x":172987.83000000007,"y":2565500.4700000025}},{"attributes":{"ID":586601,"DIS_CODE":0,"TOWNNAME":"麻豆區","LI":"大埕里","LIN":"11鄰","STREET":"新生北路","SECT":" ","MAREA":" ","LANE":" ","ALLEY":" ","HOUSE_NO":"５７０號","E_COORD97":172992.64000000001,"N_COORD97":2565500.25,"ADDRESS":"新生北路５７０號","OBJECTID":586574},"geometry":{"x":172992.6400000006,"y":2565500.25}},{"attributes":{"ID":586602,"DIS_CODE":0,"TOWNNAME":"麻豆區","LI":"大埕里","LIN":"11鄰","STREET":"新生北路","SECT":" ","MAREA":" ","LANE":" ","ALLEY":" ","HOUSE_NO":"５７２號","E_COORD97":172996.64000000001,"N_COORD97":2565500.1000000001,"ADDRESS":"新生北路５７２號","OBJECTID":586575},"geometry":{"x":172996.6400000006,"y":2565500.0999999996}},{"attributes":{"ID":586603,"DIS_CODE":0,"TOWNNAME":"麻豆區","LI":"大埕里","LIN":"11鄰","STREET":"新生北路","SECT":" ","MAREA":" ","LANE":" ","ALLEY":" ","HOUSE_NO":"５７８號","E_COORD97":173014.87,"N_COORD97":2565495.1299999999,"ADDRESS":"新生北路５７８號","OBJECTID":586576},"geometry":{"x":173014.87000000011,"y":2565495.1300000008}},{"attributes":{"ID":586604,"DIS_CODE":0,"TOWNNAME":"麻豆區","LI":"大埕里","LIN":"11鄰","STREET":"新生北路","SECT":" ","MAREA":" ","LANE":" ","ALLEY":" ","HOUSE_NO":"５８０號","E_COORD97":173019.60000000001,"N_COORD97":2565495.6899999999,"ADDRESS":"新生北路５８０號","OBJECTID":586577},"geometry":{"x":173019.59999999963,"y":2565495.6899999995}},{"attributes":{"ID":586605,"DIS_CODE":0,"TOWNNAME":"麻豆區","LI":"大埕里","LIN":"11鄰","STREET":"新生北路","SECT":" ","MAREA":" ","LANE":" ","ALLEY":" ","HOUSE_NO":"５８２號","E_COORD97":173024.01999999999,"N_COORD97":2565494.48,"ADDRESS":"新生北路５８２號","OBJECTID":586578},"geometry":{"x":173024.02000000048,"y":2565494.4800000004}},{"attributes":{"ID":586606,"DIS_CODE":0,"TOWNNAME":"麻豆區","LI":"大埕里","LIN":"11鄰","STREET":"新生北路","SECT":" ","MAREA":" ","LANE":" ","ALLEY":" ","HOUSE_NO":"５８４號","E_COORD97":173038.48000000001,"N_COORD97":2565493.2400000002,"ADDRESS":"新生北路５８４號","OBJECTID":586579},"geometry":{"x":173038.48000000231,"y":2565493.2400000002}},{"attributes":{"ID":586607,"DIS_CODE":0,"TOWNNAME":"麻豆區","LI":"興農里","LIN":"11鄰","STREET":"新生南路","SECT":" ","MAREA":" ","LANE":" ","ALLEY":" ","HOUSE_NO":"１２７號","E_COORD97":172352.88,"N_COORD97":2564583.3900000001,"ADDRESS":"新生南路１２７號","OBJECTID":586580},"geometry":{"x":172352.87999999989,"y":2564583.3900000006}},{"attributes":{"ID":586608,"DIS_CODE":0,"TOWNNAME":"麻豆區","LI":"興農里","LIN":"11鄰","STREET":"新生南路","SECT":" ","MAREA":" ","LANE":" ","ALLEY":" ","HOUSE_NO":"１３１號","E_COORD97":172354.56,"N_COORD97":2564572.21,"ADDRESS":"新生南路１３１號","OBJECTID":586581},"geometry":{"x":172354.56000000052,"y":2564572.2100000009}},{"attributes":{"ID":586609,"DIS_CODE":0,"TOWNNAME":"麻豆區","LI":"興農里","LIN":"11鄰","STREET":"新生南路","SECT":" ","MAREA":" ","LANE":" ","ALLEY":" ","HOUSE_NO":"１４５號","E_COORD97":172354.42000000001,"N_COORD97":2564521.9300000002,"ADDRESS":"新生南路１４５號","OBJECTID":586582},"geometry":{"x":172354.41999999993,"y":2564521.9299999997}},{"attributes":{"ID":586610,"DIS_CODE":0,"TOWNNAME":"麻豆區","LI":"興農里","LIN":"11鄰","STREET":"新生南路","SECT":" ","MAREA":" ","LANE":" ","ALLEY":" ","HOUSE_NO":"１４７號","E_COORD97":172354.62,"N_COORD97":2564516.8999999999,"ADDRESS":"新生南路１４７號","OBJECTID":586583},"geometry":{"x":172354.62000000104,"y":2564516.9000000041}},{"attributes":{"ID":586611,"DIS_CODE":0,"TOWNNAME":"麻豆區","LI":"興農里","LIN":"11鄰","STREET":"新生南路","SECT":" ","MAREA":" ","LANE":" ","ALLEY":" ","HOUSE_NO":"１５３號","E_COORD97":172355.92000000001,"N_COORD97":2564501.75,"ADDRESS":"新生南路１５３號","OBJECTID":586584},"geometry":{"x":172355.92000000086,"y":2564501.7500000019}},{"attributes":{"ID":586612,"DIS_CODE":0,"TOWNNAME":"麻豆區","LI":"中興里","LIN":"11鄰","STREET":"新生南路","SECT":" ","MAREA":" ","LANE":" ","ALLEY":" ","HOUSE_NO":"５４２號之１","E_COORD97":172675.76999999999,"N_COORD97":2563941.4399999999,"ADDRESS":"新生南路５４２號之１","OBJECTID":586585},"geometry":{"x":172675.76999999955,"y":2563941.4399999995}},{"attributes":{"ID":586613,"DIS_CODE":0,"TOWNNAME":"麻豆區","LI":"中興里","LIN":"11鄰","STREET":"新生南路","SECT":" ","MAREA":" ","LANE":" ","ALLEY":" ","HOUSE_NO":"５４２號之２","E_COORD97":172710.09,"N_COORD97":2563938.4700000002,"ADDRESS":"新生南路５４２號之２","OBJECTID":586586},"geometry":{"x":172710.09000000078,"y":2563938.4700000025}},{"attributes":{"ID":586614,"DIS_CODE":0,"TOWNNAME":"麻豆區","LI":"中興里","LIN":"11鄰","STREET":"新生南路","SECT":" ","MAREA":" ","LANE":" ","ALLEY":" ","HOUSE_NO":"５４２號","E_COORD97":172705.29000000001,"N_COORD97":2563963.3500000001,"ADDRESS":"新生南路５４２號","OBJECTID":586587},"geometry":{"x":172705.2900000019,"y":2563963.3499999996}},{"attributes":{"ID":586615,"DIS_CODE":0,"TOWNNAME":"麻豆區","LI":"中興里","LIN":"11鄰","STREET":"新生南路","SECT":" ","MAREA":" ","LANE":" ","ALLEY":" ","HOUSE_NO":"５４６號","E_COORD97":172670.76999999999,"N_COORD97":2564013.7599999998,"ADDRESS":"新生南路５４６號","OBJECTID":586588},"geometry":{"x":172670.76999999955,"y":2564013.7599999998}},{"attributes":{"ID":586616,"DIS_CODE":0,"TOWNNAME":"麻豆區","LI":"巷口里","LIN":"11鄰","STREET":"新生南路","SECT":" ","MAREA":" ","LANE":" ","ALLEY":" ","HOUSE_NO":"５８９號","E_COORD97":173323,"N_COORD97":2564093.3799999999,"ADDRESS":"新生南路５８９號","OBJECTID":586589},"geometry":{"x":173323.00000000093,"y":2564093.379999999}},{"attributes":{"ID":586617,"DIS_CODE":0,"TOWNNAME":"麻豆區","LI":"中興里","LIN":"11鄰","STREET":"新生南路","SECT":" ","MAREA":" ","LANE":" ","ALLEY":" ","HOUSE_NO":"８００號","E_COORD97":172894.95999999999,"N_COORD97":2564017.2000000002,"ADDRESS":"新生南路８００號","OBJECTID":586590},"geometry":{"x":172894.95999999996,"y":2564017.1999999993}},{"attributes":{"ID":586618,"DIS_CODE":0,"TOWNNAME":"麻豆區","LI":"興農里","LIN":"11鄰","STREET":"新生南路","SECT":" ","MAREA":" ","LANE":" ","ALLEY":" ","HOUSE_NO":"８３號","E_COORD97":172345.82999999999,"N_COORD97":2564709.6899999999,"ADDRESS":"新生南路８３號","OBJECTID":586591},"geometry":{"x":172345.83000000194,"y":2564709.6899999995}},{"attributes":{"ID":586619,"DIS_CODE":0,"TOWNNAME":"麻豆區","LI":"興農里","LIN":"11鄰","STREET":"新生南路","SECT":" ","MAREA":" ","LANE":" ","ALLEY":" ","HOUSE_NO":"９３號","E_COORD97":172343.51999999999,"N_COORD97":2564668.0899999999,"ADDRESS":"新生南路９３號","OBJECTID":586592},"geometry":{"x":172343.51999999955,"y":2564668.0900000017}},{"attributes":{"ID":586620,"DIS_CODE":0,"TOWNNAME":"麻豆區","LI":"興農里","LIN":"11鄰","STREET":"新生南路","SECT":" ","MAREA":" ","LANE":" ","ALLEY":" ","HOUSE_NO":"９９號","E_COORD97":172355.14999999999,"N_COORD97":2564642.8799999999,"ADDRESS":"新生南路９９號","OBJECTID":586593},"geometry":{"x":172355.15000000037,"y":2564642.879999999}},{"attributes":{"ID":586621,"DIS_CODE":0,"TOWNNAME":"歸仁區","LI":"許厝里","LIN":"11鄰","STREET":"信義南路","SECT":" ","MAREA":" ","LANE":" ","ALLEY":" ","HOUSE_NO":"８２號","E_COORD97":178113.03,"N_COORD97":2540392.25,"ADDRESS":"信義南路８２號","OBJECTID":586594},"geometry":{"x":178113.03000000026,"y":2540392.2500000019}},{"attributes":{"ID":586622,"DIS_CODE":0,"TOWNNAME":"歸仁區","LI":"許厝里","LIN":"11鄰","STREET":"信義南路","SECT":" ","MAREA":" ","LANE":" ","ALLEY":" ","HOUSE_NO":"１１１號","E_COORD97":178139.70999999999,"N_COORD97":2540431.1000000001,"ADDRESS":"信義南路１１１號","OBJECTID":586595},"geometry":{"x":178139.71000000089,"y":2540431.0999999996}},{"attributes":{"ID":586623,"DIS_CODE":0,"TOWNNAME":"歸仁區","LI":"許厝里","LIN":"11鄰","STREET":"信義南路","SECT":" ","MAREA":" ","LANE":" ","ALLEY":" ","HOUSE_NO":"１２１號","E_COORD97":178144.81,"N_COORD97":2540415.1000000001,"ADDRESS":"信義南路１２１號","OBJECTID":586596},"geometry":{"x":178144.81000000052,"y":2540415.0999999996}},{"attributes":{"ID":586624,"DIS_CODE":0,"TOWNNAME":"歸仁區","LI":"南興里","LIN":"11鄰","STREET":"民生二街","SECT":" ","MAREA":" ","LANE":" ","ALLEY":" ","HOUSE_NO":"１５８號","E_COORD97":175997.94,"N_COORD97":2541348.29,"ADDRESS":"民生二街１５８號","OBJECTID":586597},"geometry":{"x":175997.94000000041,"y":2541348.2899999991}},{"attributes":{"ID":586625,"DIS_CODE":0,"TOWNNAME":"歸仁區","LI":"南興里","LIN":"11鄰","STREET":"民生二街","SECT":" ","MAREA":" ","LANE":" ","ALLEY":" ","HOUSE_NO":"１４２號","E_COORD97":176038.94,"N_COORD97":2541348.29,"ADDRESS":"民生二街１４２號","OBJECTID":586598},"geometry":{"x":176038.94000000041,"y":2541348.2899999991}},{"attributes":{"ID":586626,"DIS_CODE":0,"TOWNNAME":"歸仁區","LI":"南保里","LIN":"11鄰","STREET":"文化街","SECT":"三段","MAREA":" ","LANE":" ","ALLEY":" ","HOUSE_NO":"１５６號","E_COORD97":176634.34,"N_COORD97":2541208.3300000001,"ADDRESS":"文化街三段１５６號","OBJECTID":586599},"geometry":{"x":176634.34000000171,"y":2541208.3300000038}},{"attributes":{"ID":586627,"DIS_CODE":0,"TOWNNAME":"歸仁區","LI":"許厝里","LIN":"11鄰","STREET":"信義南路","SECT":" ","MAREA":" ","LANE":" ","ALLEY":" ","HOUSE_NO":"６５號","E_COORD97":178112.22,"N_COORD97":2540540.1000000001,"ADDRESS":"信義南路６５號","OBJECTID":586600},"geometry":{"x":178112.22000000067,"y":2540540.0999999996}}]}