{"displayFieldName":"TOWNNAME","fieldAliases":{"ID":"ID","DIS_CODE":"DIS_CODE","TOWNNAME":"TOWNNAME","LI":"LI","LIN":"LIN","STREET":"STREET","SECT":"SECT","MAREA":"MAREA","LANE":"LANE","ALLEY":"ALLEY","HOUSE_NO":"HOUSE_NO","E_COORD97":"E_COORD97","N_COORD97":"N_COORD97","ADDRESS":"ADDRESS","OBJECTID":"OBJECTID"},"geometryType":"esriGeometryPoint","spatialReference":{"wkid":102443,"latestWkid":3826},"fields":[{"name":"ID","type":"esriFieldTypeDouble","alias":"ID"},{"name":"DIS_CODE","type":"esriFieldTypeInteger","alias":"DIS_CODE"},{"name":"TOWNNAME","type":"esriFieldTypeString","alias":"TOWNNAME","length":8},{"name":"LI","type":"esriFieldTypeString","alias":"LI","length":8},{"name":"LIN","type":"esriFieldTypeString","alias":"LIN","length":12},{"name":"STREET","type":"esriFieldTypeString","alias":"STREET","length":20},{"name":"SECT","type":"esriFieldTypeString","alias":"SECT","length":8},{"name":"MAREA","type":"esriFieldTypeString","alias":"MAREA","length":12},{"name":"LANE","type":"esriFieldTypeString","alias":"LANE","length":10},{"name":"ALLEY","type":"esriFieldTypeString","alias":"ALLEY","length":10},{"name":"HOUSE_NO","type":"esriFieldTypeString","alias":"HOUSE_NO","length":20},{"name":"E_COORD97","type":"esriFieldTypeDouble","alias":"E_COORD97"},{"name":"N_COORD97","type":"esriFieldTypeDouble","alias":"N_COORD97"},{"name":"ADDRESS","type":"esriFieldTypeString","alias":"ADDRESS","length":50},{"name":"OBJECTID","type":"esriFieldTypeOID","alias":"OBJECTID"}],"features":[{"attributes":{"ID":350010,"DIS_CODE":0,"TOWNNAME":"學甲區","LI":"新達里","LIN":"8鄰","STREET":"中山路","SECT":" ","MAREA":" ","LANE":" ","ALLEY":" ","HOUSE_NO":"５２號之５","E_COORD97":166474.26000000001,"N_COORD97":2570458.96,"ADDRESS":"中山路５２號之５","OBJECTID":350001},"geometry":{"x":166474.26000000071,"y":2570458.9600000009}},{"attributes":{"ID":350011,"DIS_CODE":0,"TOWNNAME":"學甲區","LI":"新達里","LIN":"8鄰","STREET":"中山路","SECT":" ","MAREA":" ","LANE":" ","ALLEY":" ","HOUSE_NO":"５２號","E_COORD97":166496.97,"N_COORD97":2570460.9900000002,"ADDRESS":"中山路５２號","OBJECTID":350002},"geometry":{"x":166496.96999999974,"y":2570460.9900000021}},{"attributes":{"ID":350012,"DIS_CODE":0,"TOWNNAME":"學甲區","LI":"新達里","LIN":"8鄰","STREET":"中山路","SECT":" ","MAREA":" ","LANE":" ","ALLEY":" ","HOUSE_NO":"５４號","E_COORD97":166464.88,"N_COORD97":2570494.5,"ADDRESS":"中山路５４號","OBJECTID":350003},"geometry":{"x":166464.88000000082,"y":2570494.5000000019}},{"attributes":{"ID":350013,"DIS_CODE":0,"TOWNNAME":"學甲區","LI":"仁得里","LIN":"8鄰","STREET":"中正路","SECT":" ","MAREA":" ","LANE":" ","ALLEY":" ","HOUSE_NO":"２０８號","E_COORD97":166085.76000000001,"N_COORD97":2570241.5299999998,"ADDRESS":"中正路２０８號","OBJECTID":350004},"geometry":{"x":166085.76000000071,"y":2570241.5300000012}},{"attributes":{"ID":350014,"DIS_CODE":0,"TOWNNAME":"永康區","LI":"復華里","LIN":"6鄰","STREET":"國華街","SECT":" ","MAREA":" ","LANE":"１０２巷","ALLEY":" ","HOUSE_NO":"９６號四樓之２","E_COORD97":173017.07000000001,"N_COORD97":2546176.0800000001,"ADDRESS":"國華街１０２巷９６號四樓之２","OBJECTID":350005},"geometry":{"x":173017.0700000003,"y":2546176.0800000001}},{"attributes":{"ID":350015,"DIS_CODE":0,"TOWNNAME":"永康區","LI":"復華里","LIN":"6鄰","STREET":"國華街","SECT":" ","MAREA":" ","LANE":"１０２巷","ALLEY":" ","HOUSE_NO":"９０號十一樓之１","E_COORD97":173009.98999999999,"N_COORD97":2546144.3799999999,"ADDRESS":"國華街１０２巷９０號十一樓之１","OBJECTID":350006},"geometry":{"x":173009.99000000115,"y":2546144.3800000008}},{"attributes":{"ID":350016,"DIS_CODE":0,"TOWNNAME":"安南區","LI":"海東里","LIN":"6鄰","STREET":"同安路","SECT":" ","MAREA":" ","LANE":"２３７巷","ALLEY":" ","HOUSE_NO":"１號七樓之９","E_COORD97":167195.69,"N_COORD97":2549238.3799999999,"ADDRESS":"同安路２３７巷１號七樓之９","OBJECTID":350007},"geometry":{"x":167195.69000000134,"y":2549238.3800000027}},{"attributes":{"ID":350017,"DIS_CODE":0,"TOWNNAME":"安南區","LI":"南興里","LIN":"6鄰","STREET":"公學路","SECT":"五段","MAREA":" ","LANE":"６９７巷","ALLEY":" ","HOUSE_NO":"１５１號七樓","E_COORD97":163840.01999999999,"N_COORD97":2552468.4399999999,"ADDRESS":"公學路五段６９７巷１５１號七樓","OBJECTID":350008},"geometry":{"x":163840.01999999955,"y":2552468.4399999995}},{"attributes":{"ID":350018,"DIS_CODE":0,"TOWNNAME":"安南區","LI":"南興里","LIN":"6鄰","STREET":"公學路","SECT":"五段","MAREA":" ","LANE":"６９７巷","ALLEY":" ","HOUSE_NO":"１５１號九樓","E_COORD97":163840.01999999999,"N_COORD97":2552468.4399999999,"ADDRESS":"公學路五段６９７巷１５１號九樓","OBJECTID":350009},"geometry":{"x":163840.01999999955,"y":2552468.4399999995}},{"attributes":{"ID":350019,"DIS_CODE":0,"TOWNNAME":"安南區","LI":"南興里","LIN":"6鄰","STREET":"公學路","SECT":"五段","MAREA":" ","LANE":"６９７巷","ALLEY":" ","HOUSE_NO":"１５１號八樓","E_COORD97":163840.01999999999,"N_COORD97":2552468.4399999999,"ADDRESS":"公學路五段６９７巷１５１號八樓","OBJECTID":350010},"geometry":{"x":163840.01999999955,"y":2552468.4399999995}},{"attributes":{"ID":350020,"DIS_CODE":0,"TOWNNAME":"安南區","LI":"南興里","LIN":"6鄰","STREET":"公學路","SECT":"五段","MAREA":" ","LANE":"６９７巷","ALLEY":" ","HOUSE_NO":"１５１號十一樓","E_COORD97":163840.01999999999,"N_COORD97":2552468.4399999999,"ADDRESS":"公學路五段６９７巷１５１號十一樓","OBJECTID":350011},"geometry":{"x":163840.01999999955,"y":2552468.4399999995}},{"attributes":{"ID":350021,"DIS_CODE":0,"TOWNNAME":"安南區","LI":"南興里","LIN":"6鄰","STREET":"公學路","SECT":"五段","MAREA":" ","LANE":"６９７巷","ALLEY":" ","HOUSE_NO":"１５１號十二樓","E_COORD97":163840.01999999999,"N_COORD97":2552468.4399999999,"ADDRESS":"公學路五段６９７巷１５１號十二樓","OBJECTID":350012},"geometry":{"x":163840.01999999955,"y":2552468.4399999995}},{"attributes":{"ID":350022,"DIS_CODE":0,"TOWNNAME":"安南區","LI":"南興里","LIN":"6鄰","STREET":"公學路","SECT":"五段","MAREA":" ","LANE":"６９７巷","ALLEY":" ","HOUSE_NO":"１５１號十樓","E_COORD97":163840.01999999999,"N_COORD97":2552468.4399999999,"ADDRESS":"公學路五段６９７巷１５１號十樓","OBJECTID":350013},"geometry":{"x":163840.01999999955,"y":2552468.4399999995}},{"attributes":{"ID":350023,"DIS_CODE":0,"TOWNNAME":"安南區","LI":"海東里","LIN":"6鄰","STREET":"同安路","SECT":" ","MAREA":" ","LANE":"２３７巷","ALLEY":" ","HOUSE_NO":"１號七樓之３","E_COORD97":167195.69,"N_COORD97":2549238.3799999999,"ADDRESS":"同安路２３７巷１號七樓之３","OBJECTID":350014},"geometry":{"x":167195.69000000134,"y":2549238.3800000027}},{"attributes":{"ID":350024,"DIS_CODE":0,"TOWNNAME":"安南區","LI":"南興里","LIN":"6鄰","STREET":"公學路","SECT":"五段","MAREA":" ","LANE":"６９７巷","ALLEY":" ","HOUSE_NO":"１５１號三樓","E_COORD97":163840.01999999999,"N_COORD97":2552468.4399999999,"ADDRESS":"公學路五段６９７巷１５１號三樓","OBJECTID":350015},"geometry":{"x":163840.01999999955,"y":2552468.4399999995}},{"attributes":{"ID":350025,"DIS_CODE":0,"TOWNNAME":"安南區","LI":"南興里","LIN":"6鄰","STREET":"公學路","SECT":"五段","MAREA":" ","LANE":"６９７巷","ALLEY":" ","HOUSE_NO":"１５１號五樓","E_COORD97":163840.01999999999,"N_COORD97":2552468.4399999999,"ADDRESS":"公學路五段６９７巷１５１號五樓","OBJECTID":350016},"geometry":{"x":163840.01999999955,"y":2552468.4399999995}},{"attributes":{"ID":350026,"DIS_CODE":0,"TOWNNAME":"永康區","LI":"成功里","LIN":"41鄰","STREET":"中華路","SECT":" ","MAREA":" ","LANE":"１５４巷","ALLEY":" ","HOUSE_NO":"２５號","E_COORD97":171695.42000000001,"N_COORD97":2544900.0099999998,"ADDRESS":"中華路１５４巷２５號","OBJECTID":350017},"geometry":{"x":171695.41999999993,"y":2544900.0100000016}},{"attributes":{"ID":350027,"DIS_CODE":0,"TOWNNAME":"安南區","LI":"南興里","LIN":"6鄰","STREET":"公學路","SECT":"五段","MAREA":" ","LANE":"６９７巷","ALLEY":" ","HOUSE_NO":"１５１號六樓","E_COORD97":163840.01999999999,"N_COORD97":2552468.4399999999,"ADDRESS":"公學路五段６９７巷１５１號六樓","OBJECTID":350018},"geometry":{"x":163840.01999999955,"y":2552468.4399999995}},{"attributes":{"ID":350028,"DIS_CODE":0,"TOWNNAME":"安南區","LI":"南興里","LIN":"6鄰","STREET":"公學路","SECT":"五段","MAREA":" ","LANE":"６９７巷","ALLEY":" ","HOUSE_NO":"１５１號四樓","E_COORD97":163840.01999999999,"N_COORD97":2552468.4399999999,"ADDRESS":"公學路五段６９７巷１５１號四樓","OBJECTID":350019},"geometry":{"x":163840.01999999955,"y":2552468.4399999995}},{"attributes":{"ID":350029,"DIS_CODE":0,"TOWNNAME":"安南區","LI":"南興里","LIN":"6鄰","STREET":"公學路","SECT":"五段","MAREA":" ","LANE":"６９７巷","ALLEY":" ","HOUSE_NO":"１５３號一樓","E_COORD97":163851.07000000001,"N_COORD97":2552468.96,"ADDRESS":"公學路五段６９７巷１５３號一樓","OBJECTID":350020},"geometry":{"x":163851.0700000003,"y":2552468.9600000028}},{"attributes":{"ID":350030,"DIS_CODE":0,"TOWNNAME":"安南區","LI":"南興里","LIN":"6鄰","STREET":"公學路","SECT":"五段","MAREA":" ","LANE":"６９７巷","ALLEY":" ","HOUSE_NO":"１５３號七樓","E_COORD97":163851.07000000001,"N_COORD97":2552468.96,"ADDRESS":"公學路五段６９７巷１５３號七樓","OBJECTID":350021},"geometry":{"x":163851.0700000003,"y":2552468.9600000028}},{"attributes":{"ID":350031,"DIS_CODE":0,"TOWNNAME":"安南區","LI":"南興里","LIN":"6鄰","STREET":"公學路","SECT":"五段","MAREA":" ","LANE":"６９７巷","ALLEY":" ","HOUSE_NO":"１５３號七樓之１","E_COORD97":163851.07000000001,"N_COORD97":2552468.96,"ADDRESS":"公學路五段６９７巷１５３號七樓之１","OBJECTID":350022},"geometry":{"x":163851.0700000003,"y":2552468.9600000028}},{"attributes":{"ID":350032,"DIS_CODE":0,"TOWNNAME":"安南區","LI":"南興里","LIN":"6鄰","STREET":"公學路","SECT":"五段","MAREA":" ","LANE":"６９７巷","ALLEY":" ","HOUSE_NO":"１５３號九樓","E_COORD97":163851.07000000001,"N_COORD97":2552468.96,"ADDRESS":"公學路五段６９７巷１５３號九樓","OBJECTID":350023},"geometry":{"x":163851.0700000003,"y":2552468.9600000028}},{"attributes":{"ID":350033,"DIS_CODE":0,"TOWNNAME":"安南區","LI":"南興里","LIN":"6鄰","STREET":"公學路","SECT":"五段","MAREA":" ","LANE":"６９７巷","ALLEY":" ","HOUSE_NO":"１５３號九樓之１","E_COORD97":163851.07000000001,"N_COORD97":2552468.96,"ADDRESS":"公學路五段６９７巷１５３號九樓之１","OBJECTID":350024},"geometry":{"x":163851.0700000003,"y":2552468.9600000028}},{"attributes":{"ID":350034,"DIS_CODE":0,"TOWNNAME":"安南區","LI":"南興里","LIN":"6鄰","STREET":"公學路","SECT":"五段","MAREA":" ","LANE":"６９７巷","ALLEY":" ","HOUSE_NO":"１５３號八樓","E_COORD97":163851.07000000001,"N_COORD97":2552468.96,"ADDRESS":"公學路五段６９７巷１５３號八樓","OBJECTID":350025},"geometry":{"x":163851.0700000003,"y":2552468.9600000028}},{"attributes":{"ID":350035,"DIS_CODE":0,"TOWNNAME":"安南區","LI":"南興里","LIN":"6鄰","STREET":"公學路","SECT":"五段","MAREA":" ","LANE":"６９７巷","ALLEY":" ","HOUSE_NO":"１５３號八樓之１","E_COORD97":163851.07000000001,"N_COORD97":2552468.96,"ADDRESS":"公學路五段６９７巷１５３號八樓之１","OBJECTID":350026},"geometry":{"x":163851.0700000003,"y":2552468.9600000028}},{"attributes":{"ID":350036,"DIS_CODE":0,"TOWNNAME":"安南區","LI":"南興里","LIN":"6鄰","STREET":"公學路","SECT":"五段","MAREA":" ","LANE":"６９７巷","ALLEY":" ","HOUSE_NO":"１５３號十一樓","E_COORD97":163851.07000000001,"N_COORD97":2552468.96,"ADDRESS":"公學路五段６９７巷１５３號十一樓","OBJECTID":350027},"geometry":{"x":163851.0700000003,"y":2552468.9600000028}},{"attributes":{"ID":350037,"DIS_CODE":0,"TOWNNAME":"安南區","LI":"南興里","LIN":"6鄰","STREET":"公學路","SECT":"五段","MAREA":" ","LANE":"６９７巷","ALLEY":" ","HOUSE_NO":"１５３號十一樓之１","E_COORD97":163851.07000000001,"N_COORD97":2552468.96,"ADDRESS":"公學路五段６９７巷１５３號十一樓之１","OBJECTID":350028},"geometry":{"x":163851.0700000003,"y":2552468.9600000028}},{"attributes":{"ID":350038,"DIS_CODE":0,"TOWNNAME":"安南區","LI":"南興里","LIN":"6鄰","STREET":"公學路","SECT":"五段","MAREA":" ","LANE":"６９７巷","ALLEY":" ","HOUSE_NO":"１５３號十二樓","E_COORD97":163851.07000000001,"N_COORD97":2552468.96,"ADDRESS":"公學路五段６９７巷１５３號十二樓","OBJECTID":350029},"geometry":{"x":163851.0700000003,"y":2552468.9600000028}},{"attributes":{"ID":350039,"DIS_CODE":0,"TOWNNAME":"安南區","LI":"南興里","LIN":"6鄰","STREET":"公學路","SECT":"五段","MAREA":" ","LANE":"６９７巷","ALLEY":" ","HOUSE_NO":"１５３號十二樓之１","E_COORD97":163851.07000000001,"N_COORD97":2552468.96,"ADDRESS":"公學路五段６９７巷１５３號十二樓之１","OBJECTID":350030},"geometry":{"x":163851.0700000003,"y":2552468.9600000028}},{"attributes":{"ID":350040,"DIS_CODE":0,"TOWNNAME":"安南區","LI":"南興里","LIN":"6鄰","STREET":"公學路","SECT":"五段","MAREA":" ","LANE":"６９７巷","ALLEY":" ","HOUSE_NO":"１５３號十樓","E_COORD97":163851.07000000001,"N_COORD97":2552468.96,"ADDRESS":"公學路五段６９７巷１５３號十樓","OBJECTID":350031},"geometry":{"x":163851.0700000003,"y":2552468.9600000028}},{"attributes":{"ID":350041,"DIS_CODE":0,"TOWNNAME":"安南區","LI":"南興里","LIN":"6鄰","STREET":"公學路","SECT":"五段","MAREA":" ","LANE":"６９７巷","ALLEY":" ","HOUSE_NO":"１５３號十樓之１","E_COORD97":163851.07000000001,"N_COORD97":2552468.96,"ADDRESS":"公學路五段６９７巷１５３號十樓之１","OBJECTID":350032},"geometry":{"x":163851.0700000003,"y":2552468.9600000028}},{"attributes":{"ID":350042,"DIS_CODE":0,"TOWNNAME":"安南區","LI":"南興里","LIN":"6鄰","STREET":"公學路","SECT":"五段","MAREA":" ","LANE":"６９７巷","ALLEY":" ","HOUSE_NO":"１５３號三樓","E_COORD97":163851.07000000001,"N_COORD97":2552468.96,"ADDRESS":"公學路五段６９７巷１５３號三樓","OBJECTID":350033},"geometry":{"x":163851.0700000003,"y":2552468.9600000028}},{"attributes":{"ID":350043,"DIS_CODE":0,"TOWNNAME":"安南區","LI":"海東里","LIN":"6鄰","STREET":"同安路","SECT":" ","MAREA":" ","LANE":"２３７巷","ALLEY":" ","HOUSE_NO":"１號九樓之１","E_COORD97":167195.69,"N_COORD97":2549238.3799999999,"ADDRESS":"同安路２３７巷１號九樓之１","OBJECTID":350034},"geometry":{"x":167195.69000000134,"y":2549238.3800000027}},{"attributes":{"ID":350044,"DIS_CODE":0,"TOWNNAME":"安南區","LI":"南興里","LIN":"6鄰","STREET":"公學路","SECT":"五段","MAREA":" ","LANE":"６９７巷","ALLEY":" ","HOUSE_NO":"１５３號三樓之１","E_COORD97":163851.07000000001,"N_COORD97":2552468.96,"ADDRESS":"公學路五段６９７巷１５３號三樓之１","OBJECTID":350035},"geometry":{"x":163851.0700000003,"y":2552468.9600000028}},{"attributes":{"ID":350045,"DIS_CODE":0,"TOWNNAME":"安南區","LI":"南興里","LIN":"6鄰","STREET":"公學路","SECT":"五段","MAREA":" ","LANE":"６９７巷","ALLEY":" ","HOUSE_NO":"１５３號五樓","E_COORD97":163851.07000000001,"N_COORD97":2552468.96,"ADDRESS":"公學路五段６９７巷１５３號五樓","OBJECTID":350036},"geometry":{"x":163851.0700000003,"y":2552468.9600000028}},{"attributes":{"ID":350046,"DIS_CODE":0,"TOWNNAME":"永康區","LI":"成功里","LIN":"12鄰","STREET":"忠孝路","SECT":" ","MAREA":" ","LANE":"２０３巷","ALLEY":" ","HOUSE_NO":"２７號","E_COORD97":171956.14999999999,"N_COORD97":2544846.7400000002,"ADDRESS":"忠孝路２０３巷２７號","OBJECTID":350037},"geometry":{"x":171956.1500000013,"y":2544846.7400000039}},{"attributes":{"ID":350047,"DIS_CODE":0,"TOWNNAME":"永康區","LI":"甲頂里","LIN":"13鄰","STREET":"大武街","SECT":" ","MAREA":" ","LANE":"１８巷","ALLEY":" ","HOUSE_NO":"３２號","E_COORD97":170367.39000000001,"N_COORD97":2546615.5899999999,"ADDRESS":"大武街１８巷３２號","OBJECTID":350038},"geometry":{"x":170367.3900000006,"y":2546615.5899999999}},{"attributes":{"ID":350048,"DIS_CODE":0,"TOWNNAME":"學甲區","LI":"仁得里","LIN":"8鄰","STREET":"中正路","SECT":" ","MAREA":" ","LANE":" ","ALLEY":" ","HOUSE_NO":"２１２號","E_COORD97":166086.48999999999,"N_COORD97":2570251.3799999999,"ADDRESS":"中正路２１２號","OBJECTID":350039},"geometry":{"x":166086.49000000115,"y":2570251.379999999}},{"attributes":{"ID":350049,"DIS_CODE":0,"TOWNNAME":"安南區","LI":"南興里","LIN":"6鄰","STREET":"公學路","SECT":"五段","MAREA":" ","LANE":"６９７巷","ALLEY":" ","HOUSE_NO":"１５３號五樓之１","E_COORD97":163851.07000000001,"N_COORD97":2552468.96,"ADDRESS":"公學路五段６９７巷１５３號五樓之１","OBJECTID":350040},"geometry":{"x":163851.0700000003,"y":2552468.9600000028}},{"attributes":{"ID":350050,"DIS_CODE":0,"TOWNNAME":"安南區","LI":"南興里","LIN":"6鄰","STREET":"公學路","SECT":"五段","MAREA":" ","LANE":"６９７巷","ALLEY":" ","HOUSE_NO":"１５３號六樓","E_COORD97":163851.07000000001,"N_COORD97":2552468.96,"ADDRESS":"公學路五段６９７巷１５３號六樓","OBJECTID":350041},"geometry":{"x":163851.0700000003,"y":2552468.9600000028}},{"attributes":{"ID":350051,"DIS_CODE":0,"TOWNNAME":"安南區","LI":"南興里","LIN":"6鄰","STREET":"公學路","SECT":"五段","MAREA":" ","LANE":"６９７巷","ALLEY":" ","HOUSE_NO":"１５３號六樓之１","E_COORD97":163851.07000000001,"N_COORD97":2552468.96,"ADDRESS":"公學路五段６９７巷１５３號六樓之１","OBJECTID":350042},"geometry":{"x":163851.0700000003,"y":2552468.9600000028}},{"attributes":{"ID":350052,"DIS_CODE":0,"TOWNNAME":"安南區","LI":"南興里","LIN":"6鄰","STREET":"公學路","SECT":"五段","MAREA":" ","LANE":"６９７巷","ALLEY":" ","HOUSE_NO":"１５３號四樓","E_COORD97":163851.07000000001,"N_COORD97":2552468.96,"ADDRESS":"公學路五段６９７巷１５３號四樓","OBJECTID":350043},"geometry":{"x":163851.0700000003,"y":2552468.9600000028}},{"attributes":{"ID":350053,"DIS_CODE":0,"TOWNNAME":"安南區","LI":"南興里","LIN":"6鄰","STREET":"公學路","SECT":"五段","MAREA":" ","LANE":"６９７巷","ALLEY":" ","HOUSE_NO":"１５３號四樓之１","E_COORD97":163851.07000000001,"N_COORD97":2552468.96,"ADDRESS":"公學路五段６９７巷１５３號四樓之１","OBJECTID":350044},"geometry":{"x":163851.0700000003,"y":2552468.9600000028}},{"attributes":{"ID":350054,"DIS_CODE":0,"TOWNNAME":"安南區","LI":"南興里","LIN":"6鄰","STREET":"公學路","SECT":"五段","MAREA":" ","LANE":"６９７巷","ALLEY":" ","HOUSE_NO":"１５５號一樓","E_COORD97":163864.75,"N_COORD97":2552468.4399999999,"ADDRESS":"公學路五段６９７巷１５５號一樓","OBJECTID":350045},"geometry":{"x":163864.75,"y":2552468.4399999995}},{"attributes":{"ID":350055,"DIS_CODE":0,"TOWNNAME":"安南區","LI":"南興里","LIN":"6鄰","STREET":"公學路","SECT":"五段","MAREA":" ","LANE":"６９７巷","ALLEY":" ","HOUSE_NO":"１５５號七樓","E_COORD97":163864.75,"N_COORD97":2552468.4399999999,"ADDRESS":"公學路五段６９７巷１５５號七樓","OBJECTID":350046},"geometry":{"x":163864.75,"y":2552468.4399999995}},{"attributes":{"ID":350056,"DIS_CODE":0,"TOWNNAME":"安南區","LI":"南興里","LIN":"6鄰","STREET":"公學路","SECT":"五段","MAREA":" ","LANE":"６９７巷","ALLEY":" ","HOUSE_NO":"１５５號七樓之１","E_COORD97":163864.75,"N_COORD97":2552468.4399999999,"ADDRESS":"公學路五段６９７巷１５５號七樓之１","OBJECTID":350047},"geometry":{"x":163864.75,"y":2552468.4399999995}},{"attributes":{"ID":350057,"DIS_CODE":0,"TOWNNAME":"安南區","LI":"南興里","LIN":"6鄰","STREET":"公學路","SECT":"五段","MAREA":" ","LANE":"６９７巷","ALLEY":" ","HOUSE_NO":"１５５號九樓","E_COORD97":163864.75,"N_COORD97":2552468.4399999999,"ADDRESS":"公學路五段６９７巷１５５號九樓","OBJECTID":350048},"geometry":{"x":163864.75,"y":2552468.4399999995}},{"attributes":{"ID":350058,"DIS_CODE":0,"TOWNNAME":"安南區","LI":"南興里","LIN":"6鄰","STREET":"公學路","SECT":"五段","MAREA":" ","LANE":"６９７巷","ALLEY":" ","HOUSE_NO":"１５５號九樓之１","E_COORD97":163864.75,"N_COORD97":2552468.4399999999,"ADDRESS":"公學路五段６９７巷１５５號九樓之１","OBJECTID":350049},"geometry":{"x":163864.75,"y":2552468.4399999995}},{"attributes":{"ID":350059,"DIS_CODE":0,"TOWNNAME":"安南區","LI":"南興里","LIN":"6鄰","STREET":"公學路","SECT":"五段","MAREA":" ","LANE":"６９７巷","ALLEY":" ","HOUSE_NO":"１５５號九樓之２","E_COORD97":163864.75,"N_COORD97":2552468.4399999999,"ADDRESS":"公學路五段６９７巷１５５號九樓之２","OBJECTID":350050},"geometry":{"x":163864.75,"y":2552468.4399999995}},{"attributes":{"ID":350060,"DIS_CODE":0,"TOWNNAME":"安南區","LI":"南興里","LIN":"6鄰","STREET":"公學路","SECT":"五段","MAREA":" ","LANE":"６９７巷","ALLEY":" ","HOUSE_NO":"１５５號二樓","E_COORD97":163864.75,"N_COORD97":2552468.4399999999,"ADDRESS":"公學路五段６９７巷１５５號二樓","OBJECTID":350051},"geometry":{"x":163864.75,"y":2552468.4399999995}},{"attributes":{"ID":350061,"DIS_CODE":0,"TOWNNAME":"佳里區","LI":"佳化里","LIN":"18鄰","STREET":" ","SECT":" ","MAREA":"佳里興","LANE":" ","ALLEY":" ","HOUSE_NO":"１７２號","E_COORD97":167255.70999999999,"N_COORD97":2565086.02,"ADDRESS":"佳里興１７２號","OBJECTID":350052},"geometry":{"x":167255.71000000183,"y":2565086.0200000014}},{"attributes":{"ID":350062,"DIS_CODE":0,"TOWNNAME":"安南區","LI":"南興里","LIN":"6鄰","STREET":"公學路","SECT":"五段","MAREA":" ","LANE":"６９７巷","ALLEY":" ","HOUSE_NO":"１５５號八樓","E_COORD97":163864.75,"N_COORD97":2552468.4399999999,"ADDRESS":"公學路五段６９７巷１５５號八樓","OBJECTID":350053},"geometry":{"x":163864.75,"y":2552468.4399999995}},{"attributes":{"ID":350063,"DIS_CODE":0,"TOWNNAME":"北區","LI":"大道里","LIN":"18鄰","STREET":"北門路","SECT":"二段","MAREA":" ","LANE":"５４７巷","ALLEY":" ","HOUSE_NO":"１９號二樓之２","E_COORD97":169610.13,"N_COORD97":2545677.8799999999,"ADDRESS":"北門路二段５４７巷１９號二樓之２","OBJECTID":350054},"geometry":{"x":169610.12999999989,"y":2545677.879999999}},{"attributes":{"ID":350064,"DIS_CODE":0,"TOWNNAME":"北區","LI":"大道里","LIN":"18鄰","STREET":"北門路","SECT":"二段","MAREA":" ","LANE":"５４７巷","ALLEY":" ","HOUSE_NO":"１９號二樓之１","E_COORD97":169610.13,"N_COORD97":2545677.8799999999,"ADDRESS":"北門路二段５４７巷１９號二樓之１","OBJECTID":350055},"geometry":{"x":169610.12999999989,"y":2545677.879999999}},{"attributes":{"ID":350065,"DIS_CODE":0,"TOWNNAME":"北區","LI":"大道里","LIN":"18鄰","STREET":"北門路","SECT":"二段","MAREA":" ","LANE":"５４７巷","ALLEY":" ","HOUSE_NO":"１９號三樓之２","E_COORD97":169610.13,"N_COORD97":2545677.8799999999,"ADDRESS":"北門路二段５４７巷１９號三樓之２","OBJECTID":350056},"geometry":{"x":169610.12999999989,"y":2545677.879999999}},{"attributes":{"ID":350066,"DIS_CODE":0,"TOWNNAME":"北區","LI":"大道里","LIN":"18鄰","STREET":"北門路","SECT":"二段","MAREA":" ","LANE":"５４７巷","ALLEY":" ","HOUSE_NO":"１９號三樓之１","E_COORD97":169610.13,"N_COORD97":2545677.8799999999,"ADDRESS":"北門路二段５４７巷１９號三樓之１","OBJECTID":350057},"geometry":{"x":169610.12999999989,"y":2545677.879999999}},{"attributes":{"ID":350067,"DIS_CODE":0,"TOWNNAME":"北區","LI":"大道里","LIN":"18鄰","STREET":"北門路","SECT":"二段","MAREA":" ","LANE":"５４７巷","ALLEY":" ","HOUSE_NO":"１９號三樓之５","E_COORD97":169610.13,"N_COORD97":2545677.8799999999,"ADDRESS":"北門路二段５４７巷１９號三樓之５","OBJECTID":350058},"geometry":{"x":169610.12999999989,"y":2545677.879999999}},{"attributes":{"ID":350068,"DIS_CODE":0,"TOWNNAME":"北區","LI":"大道里","LIN":"18鄰","STREET":"北門路","SECT":"二段","MAREA":" ","LANE":"５４７巷","ALLEY":" ","HOUSE_NO":"１９號三樓之３","E_COORD97":169610.13,"N_COORD97":2545677.8799999999,"ADDRESS":"北門路二段５４７巷１９號三樓之３","OBJECTID":350059},"geometry":{"x":169610.12999999989,"y":2545677.879999999}},{"attributes":{"ID":350069,"DIS_CODE":0,"TOWNNAME":"北區","LI":"大道里","LIN":"18鄰","STREET":"北門路","SECT":"二段","MAREA":" ","LANE":"５４７巷","ALLEY":" ","HOUSE_NO":"１９號四樓之２","E_COORD97":169610.13,"N_COORD97":2545677.8799999999,"ADDRESS":"北門路二段５４７巷１９號四樓之２","OBJECTID":350060},"geometry":{"x":169610.12999999989,"y":2545677.879999999}},{"attributes":{"ID":350070,"DIS_CODE":0,"TOWNNAME":"北區","LI":"大道里","LIN":"18鄰","STREET":"北門路","SECT":"二段","MAREA":" ","LANE":"５４７巷","ALLEY":" ","HOUSE_NO":"１９號四樓之１","E_COORD97":169610.13,"N_COORD97":2545677.8799999999,"ADDRESS":"北門路二段５４７巷１９號四樓之１","OBJECTID":350061},"geometry":{"x":169610.12999999989,"y":2545677.879999999}},{"attributes":{"ID":350071,"DIS_CODE":0,"TOWNNAME":"北區","LI":"大道里","LIN":"18鄰","STREET":"北門路","SECT":"二段","MAREA":" ","LANE":"５４７巷","ALLEY":" ","HOUSE_NO":"１９號四樓之５","E_COORD97":169610.13,"N_COORD97":2545677.8799999999,"ADDRESS":"北門路二段５４７巷１９號四樓之５","OBJECTID":350062},"geometry":{"x":169610.12999999989,"y":2545677.879999999}},{"attributes":{"ID":350072,"DIS_CODE":0,"TOWNNAME":"北區","LI":"大道里","LIN":"18鄰","STREET":"北門路","SECT":"二段","MAREA":" ","LANE":"５４７巷","ALLEY":" ","HOUSE_NO":"１９號四樓之３","E_COORD97":169610.13,"N_COORD97":2545677.8799999999,"ADDRESS":"北門路二段５４７巷１９號四樓之３","OBJECTID":350063},"geometry":{"x":169610.12999999989,"y":2545677.879999999}},{"attributes":{"ID":350073,"DIS_CODE":0,"TOWNNAME":"北區","LI":"大道里","LIN":"18鄰","STREET":"北門路","SECT":"二段","MAREA":" ","LANE":"５４７巷","ALLEY":" ","HOUSE_NO":"１９號五樓之２","E_COORD97":169610.13,"N_COORD97":2545677.8799999999,"ADDRESS":"北門路二段５４７巷１９號五樓之２","OBJECTID":350064},"geometry":{"x":169610.12999999989,"y":2545677.879999999}},{"attributes":{"ID":350074,"DIS_CODE":0,"TOWNNAME":"北區","LI":"大道里","LIN":"18鄰","STREET":"北門路","SECT":"二段","MAREA":" ","LANE":"５４７巷","ALLEY":" ","HOUSE_NO":"１９號五樓之１","E_COORD97":169610.13,"N_COORD97":2545677.8799999999,"ADDRESS":"北門路二段５４７巷１９號五樓之１","OBJECTID":350065},"geometry":{"x":169610.12999999989,"y":2545677.879999999}},{"attributes":{"ID":350075,"DIS_CODE":0,"TOWNNAME":"學甲區","LI":"仁得里","LIN":"8鄰","STREET":"中正路","SECT":" ","MAREA":" ","LANE":" ","ALLEY":" ","HOUSE_NO":"２１４號","E_COORD97":166087.23999999999,"N_COORD97":2570255.0299999998,"ADDRESS":"中正路２１４號","OBJECTID":350066},"geometry":{"x":166087.24000000022,"y":2570255.0300000012}},{"attributes":{"ID":350076,"DIS_CODE":0,"TOWNNAME":"學甲區","LI":"仁得里","LIN":"8鄰","STREET":"中正路","SECT":" ","MAREA":" ","LANE":" ","ALLEY":" ","HOUSE_NO":"２１６號","E_COORD97":166087.34,"N_COORD97":2570258.8799999999,"ADDRESS":"中正路２１６號","OBJECTID":350067},"geometry":{"x":166087.34000000078,"y":2570258.8800000027}},{"attributes":{"ID":350077,"DIS_CODE":0,"TOWNNAME":"歸仁區","LI":"後市里","LIN":"8鄰","STREET":"中山五街","SECT":" ","MAREA":" ","LANE":" ","ALLEY":" ","HOUSE_NO":"６１號","E_COORD97":177100.39000000001,"N_COORD97":2540663.25,"ADDRESS":"中山五街６１號","OBJECTID":350068},"geometry":{"x":177100.3900000006,"y":2540663.2500000019}},{"attributes":{"ID":350078,"DIS_CODE":0,"TOWNNAME":"歸仁區","LI":"後市里","LIN":"8鄰","STREET":"中山五街","SECT":" ","MAREA":" ","LANE":" ","ALLEY":" ","HOUSE_NO":"６３號","E_COORD97":177098.29000000001,"N_COORD97":2540650.25,"ADDRESS":"中山五街６３號","OBJECTID":350069},"geometry":{"x":177098.29000000097,"y":2540650.2500000019}},{"attributes":{"ID":350079,"DIS_CODE":0,"TOWNNAME":"歸仁區","LI":"歸南里","LIN":"8鄰","STREET":"中正十六街","SECT":" ","MAREA":" ","LANE":" ","ALLEY":" ","HOUSE_NO":"５號","E_COORD97":176527.81,"N_COORD97":2539848.9500000002,"ADDRESS":"中正十六街５號","OBJECTID":350070},"geometry":{"x":176527.81000000052,"y":2539848.9499999993}},{"attributes":{"ID":350080,"DIS_CODE":0,"TOWNNAME":"歸仁區","LI":"新厝里","LIN":"8鄰","STREET":"中正三街","SECT":" ","MAREA":" ","LANE":" ","ALLEY":" ","HOUSE_NO":"６８號","E_COORD97":177773.60000000001,"N_COORD97":2540554.27,"ADDRESS":"中正三街６８號","OBJECTID":350071},"geometry":{"x":177773.60000000056,"y":2540554.2700000014}},{"attributes":{"ID":350081,"DIS_CODE":0,"TOWNNAME":"歸仁區","LI":"看西里","LIN":"8鄰","STREET":"信義南路","SECT":" ","MAREA":" ","LANE":" ","ALLEY":" ","HOUSE_NO":"１８９號","E_COORD97":178136.76000000001,"N_COORD97":2540230.4900000002,"ADDRESS":"信義南路１８９號","OBJECTID":350072},"geometry":{"x":178136.76000000164,"y":2540230.4899999984}},{"attributes":{"ID":350082,"DIS_CODE":0,"TOWNNAME":"歸仁區","LI":"崙頂里","LIN":"8鄰","STREET":"崙頂三街","SECT":" ","MAREA":" ","LANE":" ","ALLEY":" ","HOUSE_NO":"１１４號","E_COORD97":178077.32000000001,"N_COORD97":2539918.6800000002,"ADDRESS":"崙頂三街１１４號","OBJECTID":350073},"geometry":{"x":178077.31999999937,"y":2539918.6799999997}},{"attributes":{"ID":350083,"DIS_CODE":0,"TOWNNAME":"歸仁區","LI":"看西里","LIN":"8鄰","STREET":"信義南路","SECT":" ","MAREA":" ","LANE":" ","ALLEY":" ","HOUSE_NO":"１９９號","E_COORD97":178128.56,"N_COORD97":2540212.4900000002,"ADDRESS":"信義南路１９９號","OBJECTID":350074},"geometry":{"x":178128.55999999959,"y":2540212.4900000002}},{"attributes":{"ID":350084,"DIS_CODE":0,"TOWNNAME":"歸仁區","LI":"許厝里","LIN":"8鄰","STREET":"仁愛南街","SECT":" ","MAREA":" ","LANE":" ","ALLEY":" ","HOUSE_NO":"５８號","E_COORD97":178261.23000000001,"N_COORD97":2540518.25,"ADDRESS":"仁愛南街５８號","OBJECTID":350075},"geometry":{"x":178261.23000000231,"y":2540518.2500000019}},{"attributes":{"ID":350085,"DIS_CODE":0,"TOWNNAME":"歸仁區","LI":"看西里","LIN":"8鄰","STREET":"信義南路","SECT":" ","MAREA":" ","LANE":" ","ALLEY":" ","HOUSE_NO":"２０９號","E_COORD97":178118.38,"N_COORD97":2540166.25,"ADDRESS":"信義南路２０９號","OBJECTID":350076},"geometry":{"x":178118.37999999989,"y":2540166.25}},{"attributes":{"ID":350086,"DIS_CODE":0,"TOWNNAME":"歸仁區","LI":"看東里","LIN":"8鄰","STREET":"成功一街","SECT":" ","MAREA":" ","LANE":" ","ALLEY":" ","HOUSE_NO":"３３號","E_COORD97":178637.04999999999,"N_COORD97":2540120.4500000002,"ADDRESS":"成功一街３３號","OBJECTID":350077},"geometry":{"x":178637.05000000075,"y":2540120.4499999993}},{"attributes":{"ID":350087,"DIS_CODE":0,"TOWNNAME":"歸仁區","LI":"崙頂里","LIN":"8鄰","STREET":"崙頂三街","SECT":" ","MAREA":" ","LANE":" ","ALLEY":" ","HOUSE_NO":"９０號","E_COORD97":178033.41,"N_COORD97":2539917.1099999999,"ADDRESS":"崙頂三街９０號","OBJECTID":350078},"geometry":{"x":178033.41000000108,"y":2539917.1100000031}},{"attributes":{"ID":350088,"DIS_CODE":0,"TOWNNAME":"歸仁區","LI":"許厝里","LIN":"8鄰","STREET":"仁愛南街","SECT":" ","MAREA":" ","LANE":" ","ALLEY":" ","HOUSE_NO":"５０號","E_COORD97":178259.32999999999,"N_COORD97":2540534.25,"ADDRESS":"仁愛南街５０號","OBJECTID":350079},"geometry":{"x":178259.33000000101,"y":2540534.2500000019}},{"attributes":{"ID":350089,"DIS_CODE":0,"TOWNNAME":"歸仁區","LI":"許厝里","LIN":"8鄰","STREET":"仁愛南街","SECT":" ","MAREA":" ","LANE":" ","ALLEY":" ","HOUSE_NO":"５４號","E_COORD97":178260.32999999999,"N_COORD97":2540528.25,"ADDRESS":"仁愛南街５４號","OBJECTID":350080},"geometry":{"x":178260.33000000194,"y":2540528.2500000019}},{"attributes":{"ID":350090,"DIS_CODE":0,"TOWNNAME":"北區","LI":"小康里","LIN":"8鄰","STREET":"實踐街","SECT":" ","MAREA":" ","LANE":" ","ALLEY":" ","HOUSE_NO":"２７號","E_COORD97":169824.17999999999,"N_COORD97":2546082.9500000002,"ADDRESS":"實踐街２７號","OBJECTID":350081},"geometry":{"x":169824.18000000063,"y":2546082.9500000011}},{"attributes":{"ID":350091,"DIS_CODE":0,"TOWNNAME":"北區","LI":"小康里","LIN":"8鄰","STREET":"實踐街","SECT":" ","MAREA":" ","LANE":" ","ALLEY":" ","HOUSE_NO":"２９號","E_COORD97":169846.89999999999,"N_COORD97":2546071.9700000002,"ADDRESS":"實踐街２９號","OBJECTID":350082},"geometry":{"x":169846.90000000224,"y":2546071.9700000007}},{"attributes":{"ID":350092,"DIS_CODE":0,"TOWNNAME":"安南區","LI":"南興里","LIN":"6鄰","STREET":"公學路","SECT":"五段","MAREA":" ","LANE":"６９７巷","ALLEY":" ","HOUSE_NO":"１５５號八樓之１","E_COORD97":163864.75,"N_COORD97":2552468.4399999999,"ADDRESS":"公學路五段６９７巷１５５號八樓之１","OBJECTID":350083},"geometry":{"x":163864.75,"y":2552468.4399999995}},{"attributes":{"ID":350093,"DIS_CODE":0,"TOWNNAME":"佳里區","LI":"佳化里","LIN":"18鄰","STREET":" ","SECT":" ","MAREA":"佳里興","LANE":" ","ALLEY":" ","HOUSE_NO":"１７３號","E_COORD97":167261.76999999999,"N_COORD97":2565070.6800000002,"ADDRESS":"佳里興１７３號","OBJECTID":350084},"geometry":{"x":167261.77000000142,"y":2565070.6800000016}},{"attributes":{"ID":350094,"DIS_CODE":0,"TOWNNAME":"安南區","LI":"南興里","LIN":"6鄰","STREET":"公學路","SECT":"五段","MAREA":" ","LANE":"６９７巷","ALLEY":" ","HOUSE_NO":"１５５號十一樓","E_COORD97":163864.75,"N_COORD97":2552468.4399999999,"ADDRESS":"公學路五段６９７巷１５５號十一樓","OBJECTID":350085},"geometry":{"x":163864.75,"y":2552468.4399999995}},{"attributes":{"ID":350095,"DIS_CODE":0,"TOWNNAME":"安南區","LI":"南興里","LIN":"6鄰","STREET":"公學路","SECT":"五段","MAREA":" ","LANE":"６９７巷","ALLEY":" ","HOUSE_NO":"１５５號十一樓之１","E_COORD97":163864.75,"N_COORD97":2552468.4399999999,"ADDRESS":"公學路五段６９７巷１５５號十一樓之１","OBJECTID":350086},"geometry":{"x":163864.75,"y":2552468.4399999995}},{"attributes":{"ID":350096,"DIS_CODE":0,"TOWNNAME":"安南區","LI":"南興里","LIN":"6鄰","STREET":"公學路","SECT":"五段","MAREA":" ","LANE":"６９７巷","ALLEY":" ","HOUSE_NO":"１５５號十一樓之２","E_COORD97":163864.75,"N_COORD97":2552468.4399999999,"ADDRESS":"公學路五段６９７巷１５５號十一樓之２","OBJECTID":350087},"geometry":{"x":163864.75,"y":2552468.4399999995}},{"attributes":{"ID":350097,"DIS_CODE":0,"TOWNNAME":"安南區","LI":"南興里","LIN":"6鄰","STREET":"公學路","SECT":"五段","MAREA":" ","LANE":"６９７巷","ALLEY":" ","HOUSE_NO":"１５５號十樓","E_COORD97":163864.75,"N_COORD97":2552468.4399999999,"ADDRESS":"公學路五段６９７巷１５５號十樓","OBJECTID":350088},"geometry":{"x":163864.75,"y":2552468.4399999995}},{"attributes":{"ID":350098,"DIS_CODE":0,"TOWNNAME":"安南區","LI":"南興里","LIN":"6鄰","STREET":"公學路","SECT":"五段","MAREA":" ","LANE":"６９７巷","ALLEY":" ","HOUSE_NO":"１５５號十樓之１","E_COORD97":163864.75,"N_COORD97":2552468.4399999999,"ADDRESS":"公學路五段６９７巷１５５號十樓之１","OBJECTID":350089},"geometry":{"x":163864.75,"y":2552468.4399999995}},{"attributes":{"ID":350099,"DIS_CODE":0,"TOWNNAME":"安南區","LI":"南興里","LIN":"6鄰","STREET":"公學路","SECT":"五段","MAREA":" ","LANE":"６９７巷","ALLEY":" ","HOUSE_NO":"１５５號三樓","E_COORD97":163864.75,"N_COORD97":2552468.4399999999,"ADDRESS":"公學路五段６９７巷１５５號三樓","OBJECTID":350090},"geometry":{"x":163864.75,"y":2552468.4399999995}},{"attributes":{"ID":350100,"DIS_CODE":0,"TOWNNAME":"安南區","LI":"南興里","LIN":"6鄰","STREET":"公學路","SECT":"五段","MAREA":" ","LANE":"６９７巷","ALLEY":" ","HOUSE_NO":"１５５號三樓之１","E_COORD97":163864.75,"N_COORD97":2552468.4399999999,"ADDRESS":"公學路五段６９７巷１５５號三樓之１","OBJECTID":350091},"geometry":{"x":163864.75,"y":2552468.4399999995}},{"attributes":{"ID":350101,"DIS_CODE":0,"TOWNNAME":"安南區","LI":"南興里","LIN":"6鄰","STREET":"公學路","SECT":"五段","MAREA":" ","LANE":"６９７巷","ALLEY":" ","HOUSE_NO":"１５５號三樓之２","E_COORD97":163864.75,"N_COORD97":2552468.4399999999,"ADDRESS":"公學路五段６９７巷１５５號三樓之２","OBJECTID":350092},"geometry":{"x":163864.75,"y":2552468.4399999995}},{"attributes":{"ID":350102,"DIS_CODE":0,"TOWNNAME":"安南區","LI":"南興里","LIN":"6鄰","STREET":"公學路","SECT":"五段","MAREA":" ","LANE":"６９７巷","ALLEY":" ","HOUSE_NO":"１５５號五樓","E_COORD97":163864.75,"N_COORD97":2552468.4399999999,"ADDRESS":"公學路五段６９７巷１５５號五樓","OBJECTID":350093},"geometry":{"x":163864.75,"y":2552468.4399999995}},{"attributes":{"ID":350103,"DIS_CODE":0,"TOWNNAME":"安南區","LI":"南興里","LIN":"6鄰","STREET":"公學路","SECT":"五段","MAREA":" ","LANE":"６９７巷","ALLEY":" ","HOUSE_NO":"１５５號五樓之１","E_COORD97":163864.75,"N_COORD97":2552468.4399999999,"ADDRESS":"公學路五段６９７巷１５５號五樓之１","OBJECTID":350094},"geometry":{"x":163864.75,"y":2552468.4399999995}},{"attributes":{"ID":350104,"DIS_CODE":0,"TOWNNAME":"安南區","LI":"南興里","LIN":"6鄰","STREET":"公學路","SECT":"五段","MAREA":" ","LANE":"６９７巷","ALLEY":" ","HOUSE_NO":"１５５號六樓","E_COORD97":163864.75,"N_COORD97":2552468.4399999999,"ADDRESS":"公學路五段６９７巷１５５號六樓","OBJECTID":350095},"geometry":{"x":163864.75,"y":2552468.4399999995}},{"attributes":{"ID":350105,"DIS_CODE":0,"TOWNNAME":"安南區","LI":"南興里","LIN":"6鄰","STREET":"公學路","SECT":"五段","MAREA":" ","LANE":"６９７巷","ALLEY":" ","HOUSE_NO":"１５５號六樓之１","E_COORD97":163864.75,"N_COORD97":2552468.4399999999,"ADDRESS":"公學路五段６９７巷１５５號六樓之１","OBJECTID":350096},"geometry":{"x":163864.75,"y":2552468.4399999995}},{"attributes":{"ID":350106,"DIS_CODE":0,"TOWNNAME":"安南區","LI":"南興里","LIN":"6鄰","STREET":"公學路","SECT":"五段","MAREA":" ","LANE":"６９７巷","ALLEY":" ","HOUSE_NO":"１５５號四樓","E_COORD97":163864.75,"N_COORD97":2552468.4399999999,"ADDRESS":"公學路五段６９７巷１５５號四樓","OBJECTID":350097},"geometry":{"x":163864.75,"y":2552468.4399999995}},{"attributes":{"ID":350107,"DIS_CODE":0,"TOWNNAME":"安南區","LI":"南興里","LIN":"6鄰","STREET":"公學路","SECT":"五段","MAREA":" ","LANE":"６９７巷","ALLEY":" ","HOUSE_NO":"１５５號四樓之１","E_COORD97":163864.75,"N_COORD97":2552468.4399999999,"ADDRESS":"公學路五段６９７巷１５５號四樓之１","OBJECTID":350098},"geometry":{"x":163864.75,"y":2552468.4399999995}},{"attributes":{"ID":350108,"DIS_CODE":0,"TOWNNAME":"安南區","LI":"南興里","LIN":"6鄰","STREET":"公學路","SECT":"五段","MAREA":" ","LANE":"６９７巷","ALLEY":" ","HOUSE_NO":"１５７號一樓","E_COORD97":163838.95999999999,"N_COORD97":2552459.5,"ADDRESS":"公學路五段６９７巷１５７號一樓","OBJECTID":350099},"geometry":{"x":163838.96000000089,"y":2552459.5000000037}},{"attributes":{"ID":350109,"DIS_CODE":0,"TOWNNAME":"安南區","LI":"南興里","LIN":"6鄰","STREET":"公學路","SECT":"五段","MAREA":" ","LANE":"６９７巷","ALLEY":" ","HOUSE_NO":"１５７號七樓","E_COORD97":163838.95999999999,"N_COORD97":2552459.5,"ADDRESS":"公學路五段６９７巷１５７號七樓","OBJECTID":350100},"geometry":{"x":163838.96000000089,"y":2552459.5000000037}},{"attributes":{"ID":350110,"DIS_CODE":0,"TOWNNAME":"安南區","LI":"南興里","LIN":"6鄰","STREET":"公學路","SECT":"五段","MAREA":" ","LANE":"６９７巷","ALLEY":" ","HOUSE_NO":"１５７號七樓之１","E_COORD97":163838.95999999999,"N_COORD97":2552459.5,"ADDRESS":"公學路五段６９７巷１５７號七樓之１","OBJECTID":350101},"geometry":{"x":163838.96000000089,"y":2552459.5000000037}},{"attributes":{"ID":350111,"DIS_CODE":0,"TOWNNAME":"安南區","LI":"南興里","LIN":"6鄰","STREET":"公學路","SECT":"五段","MAREA":" ","LANE":"６９７巷","ALLEY":" ","HOUSE_NO":"１５７號九樓","E_COORD97":163838.95999999999,"N_COORD97":2552459.5,"ADDRESS":"公學路五段６９７巷１５７號九樓","OBJECTID":350102},"geometry":{"x":163838.96000000089,"y":2552459.5000000037}},{"attributes":{"ID":350112,"DIS_CODE":0,"TOWNNAME":"安南區","LI":"南興里","LIN":"6鄰","STREET":"公學路","SECT":"五段","MAREA":" ","LANE":"６９７巷","ALLEY":" ","HOUSE_NO":"１５７號九樓之１","E_COORD97":163838.95999999999,"N_COORD97":2552459.5,"ADDRESS":"公學路五段６９７巷１５７號九樓之１","OBJECTID":350103},"geometry":{"x":163838.96000000089,"y":2552459.5000000037}},{"attributes":{"ID":350113,"DIS_CODE":0,"TOWNNAME":"安南區","LI":"南興里","LIN":"6鄰","STREET":"公學路","SECT":"五段","MAREA":" ","LANE":"６９７巷","ALLEY":" ","HOUSE_NO":"１５７號八樓","E_COORD97":163838.95999999999,"N_COORD97":2552459.5,"ADDRESS":"公學路五段６９７巷１５７號八樓","OBJECTID":350104},"geometry":{"x":163838.96000000089,"y":2552459.5000000037}},{"attributes":{"ID":350114,"DIS_CODE":0,"TOWNNAME":"安南區","LI":"南興里","LIN":"6鄰","STREET":"公學路","SECT":"五段","MAREA":" ","LANE":"６９７巷","ALLEY":" ","HOUSE_NO":"１５７號八樓之１","E_COORD97":163838.95999999999,"N_COORD97":2552459.5,"ADDRESS":"公學路五段６９７巷１５７號八樓之１","OBJECTID":350105},"geometry":{"x":163838.96000000089,"y":2552459.5000000037}},{"attributes":{"ID":350115,"DIS_CODE":0,"TOWNNAME":"安南區","LI":"南興里","LIN":"6鄰","STREET":"公學路","SECT":"五段","MAREA":" ","LANE":"６９７巷","ALLEY":" ","HOUSE_NO":"１５７號十一樓","E_COORD97":163838.95999999999,"N_COORD97":2552459.5,"ADDRESS":"公學路五段６９７巷１５７號十一樓","OBJECTID":350106},"geometry":{"x":163838.96000000089,"y":2552459.5000000037}},{"attributes":{"ID":350116,"DIS_CODE":0,"TOWNNAME":"安南區","LI":"南興里","LIN":"6鄰","STREET":"公學路","SECT":"五段","MAREA":" ","LANE":"６９７巷","ALLEY":" ","HOUSE_NO":"１５７號十一樓之１","E_COORD97":163838.95999999999,"N_COORD97":2552459.5,"ADDRESS":"公學路五段６９７巷１５７號十一樓之１","OBJECTID":350107},"geometry":{"x":163838.96000000089,"y":2552459.5000000037}},{"attributes":{"ID":350117,"DIS_CODE":0,"TOWNNAME":"安南區","LI":"南興里","LIN":"6鄰","STREET":"公學路","SECT":"五段","MAREA":" ","LANE":"６９７巷","ALLEY":" ","HOUSE_NO":"１５７號十一樓之２","E_COORD97":163838.95999999999,"N_COORD97":2552459.5,"ADDRESS":"公學路五段６９７巷１５７號十一樓之２","OBJECTID":350108},"geometry":{"x":163838.96000000089,"y":2552459.5000000037}},{"attributes":{"ID":350118,"DIS_CODE":0,"TOWNNAME":"安南區","LI":"南興里","LIN":"6鄰","STREET":"公學路","SECT":"五段","MAREA":" ","LANE":"６９７巷","ALLEY":" ","HOUSE_NO":"１５７號十二樓","E_COORD97":163838.95999999999,"N_COORD97":2552459.5,"ADDRESS":"公學路五段６９７巷１５７號十二樓","OBJECTID":350109},"geometry":{"x":163838.96000000089,"y":2552459.5000000037}},{"attributes":{"ID":350119,"DIS_CODE":0,"TOWNNAME":"佳里區","LI":"佳化里","LIN":"18鄰","STREET":" ","SECT":" ","MAREA":"佳里興","LANE":" ","ALLEY":" ","HOUSE_NO":"１７４號之１","E_COORD97":167270,"N_COORD97":2565038.1400000001,"ADDRESS":"佳里興１７４號之１","OBJECTID":350110},"geometry":{"x":167270,"y":2565038.1400000025}},{"attributes":{"ID":350120,"DIS_CODE":0,"TOWNNAME":"安南區","LI":"南興里","LIN":"6鄰","STREET":"公學路","SECT":"五段","MAREA":" ","LANE":"６９７巷","ALLEY":" ","HOUSE_NO":"１５７號十二樓之１","E_COORD97":163838.95999999999,"N_COORD97":2552459.5,"ADDRESS":"公學路五段６９７巷１５７號十二樓之１","OBJECTID":350111},"geometry":{"x":163838.96000000089,"y":2552459.5000000037}},{"attributes":{"ID":350121,"DIS_CODE":0,"TOWNNAME":"安南區","LI":"南興里","LIN":"6鄰","STREET":"公學路","SECT":"五段","MAREA":" ","LANE":"６９７巷","ALLEY":" ","HOUSE_NO":"１５７號十樓","E_COORD97":163838.95999999999,"N_COORD97":2552459.5,"ADDRESS":"公學路五段６９７巷１５７號十樓","OBJECTID":350112},"geometry":{"x":163838.96000000089,"y":2552459.5000000037}},{"attributes":{"ID":350122,"DIS_CODE":0,"TOWNNAME":"安南區","LI":"南興里","LIN":"6鄰","STREET":"公學路","SECT":"五段","MAREA":" ","LANE":"６９７巷","ALLEY":" ","HOUSE_NO":"１５７號十樓之１","E_COORD97":163838.95999999999,"N_COORD97":2552459.5,"ADDRESS":"公學路五段６９７巷１５７號十樓之１","OBJECTID":350113},"geometry":{"x":163838.96000000089,"y":2552459.5000000037}},{"attributes":{"ID":350123,"DIS_CODE":0,"TOWNNAME":"安南區","LI":"南興里","LIN":"6鄰","STREET":"公學路","SECT":"五段","MAREA":" ","LANE":"６９７巷","ALLEY":" ","HOUSE_NO":"１５７號三樓","E_COORD97":163838.95999999999,"N_COORD97":2552459.5,"ADDRESS":"公學路五段６９７巷１５７號三樓","OBJECTID":350114},"geometry":{"x":163838.96000000089,"y":2552459.5000000037}},{"attributes":{"ID":350124,"DIS_CODE":0,"TOWNNAME":"永康區","LI":"西勢里","LIN":"26鄰","STREET":"廣興街","SECT":" ","MAREA":" ","LANE":"２６巷","ALLEY":" ","HOUSE_NO":"３１號","E_COORD97":175958.57000000001,"N_COORD97":2546443,"ADDRESS":"廣興街２６巷３１號","OBJECTID":350115},"geometry":{"x":175958.57000000216,"y":2546443.0000000019}},{"attributes":{"ID":350125,"DIS_CODE":0,"TOWNNAME":"安南區","LI":"南興里","LIN":"6鄰","STREET":"公學路","SECT":"五段","MAREA":" ","LANE":"６９７巷","ALLEY":" ","HOUSE_NO":"１５７號六樓","E_COORD97":163838.95999999999,"N_COORD97":2552459.5,"ADDRESS":"公學路五段６９７巷１５７號六樓","OBJECTID":350116},"geometry":{"x":163838.96000000089,"y":2552459.5000000037}},{"attributes":{"ID":350126,"DIS_CODE":0,"TOWNNAME":"安南區","LI":"南興里","LIN":"6鄰","STREET":"公學路","SECT":"五段","MAREA":" ","LANE":"６９７巷","ALLEY":" ","HOUSE_NO":"１５７號六樓之１","E_COORD97":163838.95999999999,"N_COORD97":2552459.5,"ADDRESS":"公學路五段６９７巷１５７號六樓之１","OBJECTID":350117},"geometry":{"x":163838.96000000089,"y":2552459.5000000037}},{"attributes":{"ID":350127,"DIS_CODE":0,"TOWNNAME":"安南區","LI":"南興里","LIN":"6鄰","STREET":"公學路","SECT":"五段","MAREA":" ","LANE":"６９７巷","ALLEY":" ","HOUSE_NO":"１５７號四樓","E_COORD97":163838.95999999999,"N_COORD97":2552459.5,"ADDRESS":"公學路五段６９７巷１５７號四樓","OBJECTID":350118},"geometry":{"x":163838.96000000089,"y":2552459.5000000037}},{"attributes":{"ID":350128,"DIS_CODE":0,"TOWNNAME":"安南區","LI":"南興里","LIN":"6鄰","STREET":"公學路","SECT":"五段","MAREA":" ","LANE":"６９７巷","ALLEY":" ","HOUSE_NO":"１５７號四樓之１","E_COORD97":163838.95999999999,"N_COORD97":2552459.5,"ADDRESS":"公學路五段６９７巷１５７號四樓之１","OBJECTID":350119},"geometry":{"x":163838.96000000089,"y":2552459.5000000037}},{"attributes":{"ID":350129,"DIS_CODE":0,"TOWNNAME":"安南區","LI":"南興里","LIN":"6鄰","STREET":"公學路","SECT":"五段","MAREA":" ","LANE":"６９７巷","ALLEY":" ","HOUSE_NO":"１５９號一樓","E_COORD97":163852.12,"N_COORD97":2552450.04,"ADDRESS":"公學路五段６９７巷１５９號一樓","OBJECTID":350120},"geometry":{"x":163852.12000000011,"y":2552450.0399999991}},{"attributes":{"ID":350130,"DIS_CODE":0,"TOWNNAME":"安南區","LI":"南興里","LIN":"6鄰","STREET":"公學路","SECT":"五段","MAREA":" ","LANE":"６９７巷","ALLEY":" ","HOUSE_NO":"１５９號七樓","E_COORD97":163852.12,"N_COORD97":2552450.04,"ADDRESS":"公學路五段６９７巷１５９號七樓","OBJECTID":350121},"geometry":{"x":163852.12000000011,"y":2552450.0399999991}},{"attributes":{"ID":350131,"DIS_CODE":0,"TOWNNAME":"安南區","LI":"南興里","LIN":"6鄰","STREET":"公學路","SECT":"五段","MAREA":" ","LANE":"６９７巷","ALLEY":" ","HOUSE_NO":"１５９號九樓","E_COORD97":163852.12,"N_COORD97":2552450.04,"ADDRESS":"公學路五段６９７巷１５９號九樓","OBJECTID":350122},"geometry":{"x":163852.12000000011,"y":2552450.0399999991}},{"attributes":{"ID":350132,"DIS_CODE":0,"TOWNNAME":"安南區","LI":"南興里","LIN":"6鄰","STREET":"公學路","SECT":"五段","MAREA":" ","LANE":"６９７巷","ALLEY":" ","HOUSE_NO":"１５９號八樓","E_COORD97":163852.12,"N_COORD97":2552450.04,"ADDRESS":"公學路五段６９７巷１５９號八樓","OBJECTID":350123},"geometry":{"x":163852.12000000011,"y":2552450.0399999991}},{"attributes":{"ID":350133,"DIS_CODE":0,"TOWNNAME":"永康區","LI":"甲頂里","LIN":"6鄰","STREET":"中正南路","SECT":" ","MAREA":" ","LANE":"１６８巷","ALLEY":" ","HOUSE_NO":"３４號","E_COORD97":169918.57999999999,"N_COORD97":2546918.9900000002,"ADDRESS":"中正南路１６８巷３４號","OBJECTID":350124},"geometry":{"x":169918.58000000101,"y":2546918.9900000002}},{"attributes":{"ID":350134,"DIS_CODE":0,"TOWNNAME":"安南區","LI":"南興里","LIN":"6鄰","STREET":"公學路","SECT":"五段","MAREA":" ","LANE":"６９７巷","ALLEY":" ","HOUSE_NO":"１５９號十一樓","E_COORD97":163852.12,"N_COORD97":2552450.04,"ADDRESS":"公學路五段６９７巷１５９號十一樓","OBJECTID":350125},"geometry":{"x":163852.12000000011,"y":2552450.0399999991}},{"attributes":{"ID":350135,"DIS_CODE":0,"TOWNNAME":"安南區","LI":"南興里","LIN":"6鄰","STREET":"公學路","SECT":"五段","MAREA":" ","LANE":"６９７巷","ALLEY":" ","HOUSE_NO":"１５９號十二樓","E_COORD97":163852.12,"N_COORD97":2552450.04,"ADDRESS":"公學路五段６９７巷１５９號十二樓","OBJECTID":350126},"geometry":{"x":163852.12000000011,"y":2552450.0399999991}},{"attributes":{"ID":350136,"DIS_CODE":0,"TOWNNAME":"安南區","LI":"南興里","LIN":"6鄰","STREET":"公學路","SECT":"五段","MAREA":" ","LANE":"６９７巷","ALLEY":" ","HOUSE_NO":"１５９號十樓","E_COORD97":163852.12,"N_COORD97":2552450.04,"ADDRESS":"公學路五段６９７巷１５９號十樓","OBJECTID":350127},"geometry":{"x":163852.12000000011,"y":2552450.0399999991}},{"attributes":{"ID":350137,"DIS_CODE":0,"TOWNNAME":"安南區","LI":"南興里","LIN":"6鄰","STREET":"公學路","SECT":"五段","MAREA":" ","LANE":"６９７巷","ALLEY":" ","HOUSE_NO":"１５９號三樓","E_COORD97":163852.12,"N_COORD97":2552450.04,"ADDRESS":"公學路五段６９７巷１５９號三樓","OBJECTID":350128},"geometry":{"x":163852.12000000011,"y":2552450.0399999991}},{"attributes":{"ID":350138,"DIS_CODE":0,"TOWNNAME":"安南區","LI":"南興里","LIN":"6鄰","STREET":"公學路","SECT":"五段","MAREA":" ","LANE":"６９７巷","ALLEY":" ","HOUSE_NO":"１５９號五樓","E_COORD97":163852.12,"N_COORD97":2552450.04,"ADDRESS":"公學路五段６９７巷１５９號五樓","OBJECTID":350129},"geometry":{"x":163852.12000000011,"y":2552450.0399999991}},{"attributes":{"ID":350139,"DIS_CODE":0,"TOWNNAME":"安南區","LI":"南興里","LIN":"6鄰","STREET":"公學路","SECT":"五段","MAREA":" ","LANE":"６９７巷","ALLEY":" ","HOUSE_NO":"１５９號六樓","E_COORD97":163852.12,"N_COORD97":2552450.04,"ADDRESS":"公學路五段６９７巷１５９號六樓","OBJECTID":350130},"geometry":{"x":163852.12000000011,"y":2552450.0399999991}},{"attributes":{"ID":350140,"DIS_CODE":0,"TOWNNAME":"安南區","LI":"南興里","LIN":"6鄰","STREET":"公學路","SECT":"五段","MAREA":" ","LANE":"６９７巷","ALLEY":" ","HOUSE_NO":"１５９號四樓","E_COORD97":163852.12,"N_COORD97":2552450.04,"ADDRESS":"公學路五段６９７巷１５９號四樓","OBJECTID":350131},"geometry":{"x":163852.12000000011,"y":2552450.0399999991}},{"attributes":{"ID":350141,"DIS_CODE":0,"TOWNNAME":"安南區","LI":"南興里","LIN":"6鄰","STREET":"公學路","SECT":"五段","MAREA":" ","LANE":"６９７巷","ALLEY":" ","HOUSE_NO":"１６１號一樓","E_COORD97":163864.35999999999,"N_COORD97":2552461.21,"ADDRESS":"公學路五段６９７巷１６１號一樓","OBJECTID":350132},"geometry":{"x":163864.36000000034,"y":2552461.2100000009}},{"attributes":{"ID":350142,"DIS_CODE":0,"TOWNNAME":"安南區","LI":"南興里","LIN":"6鄰","STREET":"公學路","SECT":"五段","MAREA":" ","LANE":"６９７巷","ALLEY":" ","HOUSE_NO":"１６１號七樓","E_COORD97":163864.35999999999,"N_COORD97":2552461.21,"ADDRESS":"公學路五段６９７巷１６１號七樓","OBJECTID":350133},"geometry":{"x":163864.36000000034,"y":2552461.2100000009}},{"attributes":{"ID":350143,"DIS_CODE":0,"TOWNNAME":"安南區","LI":"南興里","LIN":"6鄰","STREET":"公學路","SECT":"五段","MAREA":" ","LANE":"６９７巷","ALLEY":" ","HOUSE_NO":"１６１號九樓","E_COORD97":163864.35999999999,"N_COORD97":2552461.21,"ADDRESS":"公學路五段６９７巷１６１號九樓","OBJECTID":350134},"geometry":{"x":163864.36000000034,"y":2552461.2100000009}},{"attributes":{"ID":350144,"DIS_CODE":0,"TOWNNAME":"安南區","LI":"南興里","LIN":"6鄰","STREET":"公學路","SECT":"五段","MAREA":" ","LANE":"６９７巷","ALLEY":" ","HOUSE_NO":"１６１號八樓","E_COORD97":163864.35999999999,"N_COORD97":2552461.21,"ADDRESS":"公學路五段６９７巷１６１號八樓","OBJECTID":350135},"geometry":{"x":163864.36000000034,"y":2552461.2100000009}},{"attributes":{"ID":350145,"DIS_CODE":0,"TOWNNAME":"安南區","LI":"南興里","LIN":"6鄰","STREET":"公學路","SECT":"五段","MAREA":" ","LANE":"６９７巷","ALLEY":" ","HOUSE_NO":"１６１號十一樓","E_COORD97":163864.35999999999,"N_COORD97":2552461.21,"ADDRESS":"公學路五段６９７巷１６１號十一樓","OBJECTID":350136},"geometry":{"x":163864.36000000034,"y":2552461.2100000009}},{"attributes":{"ID":350146,"DIS_CODE":0,"TOWNNAME":"安南區","LI":"南興里","LIN":"6鄰","STREET":"公學路","SECT":"五段","MAREA":" ","LANE":"６９７巷","ALLEY":" ","HOUSE_NO":"１６１號十二樓","E_COORD97":163864.35999999999,"N_COORD97":2552461.21,"ADDRESS":"公學路五段６９７巷１６１號十二樓","OBJECTID":350137},"geometry":{"x":163864.36000000034,"y":2552461.2100000009}},{"attributes":{"ID":350147,"DIS_CODE":0,"TOWNNAME":"安南區","LI":"南興里","LIN":"6鄰","STREET":"公學路","SECT":"五段","MAREA":" ","LANE":"６９７巷","ALLEY":" ","HOUSE_NO":"１６１號十樓","E_COORD97":163864.35999999999,"N_COORD97":2552461.21,"ADDRESS":"公學路五段６９７巷１６１號十樓","OBJECTID":350138},"geometry":{"x":163864.36000000034,"y":2552461.2100000009}},{"attributes":{"ID":350148,"DIS_CODE":0,"TOWNNAME":"安南區","LI":"南興里","LIN":"6鄰","STREET":"公學路","SECT":"五段","MAREA":" ","LANE":"６９７巷","ALLEY":" ","HOUSE_NO":"１６１號六樓","E_COORD97":163864.35999999999,"N_COORD97":2552461.21,"ADDRESS":"公學路五段６９７巷１６１號六樓","OBJECTID":350139},"geometry":{"x":163864.36000000034,"y":2552461.2100000009}},{"attributes":{"ID":350149,"DIS_CODE":0,"TOWNNAME":"安南區","LI":"南興里","LIN":"6鄰","STREET":"公學路","SECT":"五段","MAREA":" ","LANE":"６９７巷","ALLEY":" ","HOUSE_NO":"１６１號四樓","E_COORD97":163864.35999999999,"N_COORD97":2552461.21,"ADDRESS":"公學路五段６９７巷１６１號四樓","OBJECTID":350140},"geometry":{"x":163864.36000000034,"y":2552461.2100000009}},{"attributes":{"ID":350150,"DIS_CODE":0,"TOWNNAME":"安南區","LI":"南興里","LIN":"6鄰","STREET":"公學路","SECT":"五段","MAREA":" ","LANE":"６９７巷","ALLEY":" ","HOUSE_NO":"１６３號一樓","E_COORD97":163836.32999999999,"N_COORD97":2552440.0499999998,"ADDRESS":"公學路五段６９７巷１６３號一樓","OBJECTID":350141},"geometry":{"x":163836.33000000101,"y":2552440.0500000026}},{"attributes":{"ID":350151,"DIS_CODE":0,"TOWNNAME":"安南區","LI":"南興里","LIN":"6鄰","STREET":"公學路","SECT":"五段","MAREA":" ","LANE":"６９７巷","ALLEY":" ","HOUSE_NO":"１６３號七樓","E_COORD97":163836.32999999999,"N_COORD97":2552440.0499999998,"ADDRESS":"公學路五段６９７巷１６３號七樓","OBJECTID":350142},"geometry":{"x":163836.33000000101,"y":2552440.0500000026}},{"attributes":{"ID":350152,"DIS_CODE":0,"TOWNNAME":"安南區","LI":"南興里","LIN":"6鄰","STREET":"公學路","SECT":"五段","MAREA":" ","LANE":"６９７巷","ALLEY":" ","HOUSE_NO":"１６３號九樓","E_COORD97":163836.32999999999,"N_COORD97":2552440.0499999998,"ADDRESS":"公學路五段６９７巷１６３號九樓","OBJECTID":350143},"geometry":{"x":163836.33000000101,"y":2552440.0500000026}},{"attributes":{"ID":350153,"DIS_CODE":0,"TOWNNAME":"安南區","LI":"南興里","LIN":"6鄰","STREET":"公學路","SECT":"五段","MAREA":" ","LANE":"６９７巷","ALLEY":" ","HOUSE_NO":"１６３號八樓","E_COORD97":163836.32999999999,"N_COORD97":2552440.0499999998,"ADDRESS":"公學路五段６９７巷１６３號八樓","OBJECTID":350144},"geometry":{"x":163836.33000000101,"y":2552440.0500000026}},{"attributes":{"ID":350154,"DIS_CODE":0,"TOWNNAME":"安南區","LI":"南興里","LIN":"6鄰","STREET":"公學路","SECT":"五段","MAREA":" ","LANE":"６９７巷","ALLEY":" ","HOUSE_NO":"１６３號十一樓","E_COORD97":163836.32999999999,"N_COORD97":2552440.0499999998,"ADDRESS":"公學路五段６９７巷１６３號十一樓","OBJECTID":350145},"geometry":{"x":163836.33000000101,"y":2552440.0500000026}},{"attributes":{"ID":350155,"DIS_CODE":0,"TOWNNAME":"安南區","LI":"南興里","LIN":"6鄰","STREET":"公學路","SECT":"五段","MAREA":" ","LANE":"６９７巷","ALLEY":" ","HOUSE_NO":"１６３號十二樓","E_COORD97":163836.32999999999,"N_COORD97":2552440.0499999998,"ADDRESS":"公學路五段６９７巷１６３號十二樓","OBJECTID":350146},"geometry":{"x":163836.33000000101,"y":2552440.0500000026}},{"attributes":{"ID":350156,"DIS_CODE":0,"TOWNNAME":"安南區","LI":"南興里","LIN":"6鄰","STREET":"公學路","SECT":"五段","MAREA":" ","LANE":"６９７巷","ALLEY":" ","HOUSE_NO":"１６３號十樓","E_COORD97":163836.32999999999,"N_COORD97":2552440.0499999998,"ADDRESS":"公學路五段６９７巷１６３號十樓","OBJECTID":350147},"geometry":{"x":163836.33000000101,"y":2552440.0500000026}},{"attributes":{"ID":350157,"DIS_CODE":0,"TOWNNAME":"安南區","LI":"南興里","LIN":"6鄰","STREET":"公學路","SECT":"五段","MAREA":" ","LANE":"６９７巷","ALLEY":" ","HOUSE_NO":"１６３號三樓","E_COORD97":163836.32999999999,"N_COORD97":2552440.0499999998,"ADDRESS":"公學路五段６９７巷１６３號三樓","OBJECTID":350148},"geometry":{"x":163836.33000000101,"y":2552440.0500000026}},{"attributes":{"ID":350158,"DIS_CODE":0,"TOWNNAME":"安南區","LI":"南興里","LIN":"6鄰","STREET":"公學路","SECT":"五段","MAREA":" ","LANE":"６９７巷","ALLEY":" ","HOUSE_NO":"１６３號五樓","E_COORD97":163836.32999999999,"N_COORD97":2552440.0499999998,"ADDRESS":"公學路五段６９７巷１６３號五樓","OBJECTID":350149},"geometry":{"x":163836.33000000101,"y":2552440.0500000026}},{"attributes":{"ID":350159,"DIS_CODE":0,"TOWNNAME":"安南區","LI":"南興里","LIN":"6鄰","STREET":"公學路","SECT":"五段","MAREA":" ","LANE":"６９７巷","ALLEY":" ","HOUSE_NO":"１６３號六樓","E_COORD97":163836.32999999999,"N_COORD97":2552440.0499999998,"ADDRESS":"公學路五段６９７巷１６３號六樓","OBJECTID":350150},"geometry":{"x":163836.33000000101,"y":2552440.0500000026}},{"attributes":{"ID":350160,"DIS_CODE":0,"TOWNNAME":"安南區","LI":"南興里","LIN":"6鄰","STREET":"公學路","SECT":"五段","MAREA":" ","LANE":"６９７巷","ALLEY":" ","HOUSE_NO":"１６３號四樓","E_COORD97":163836.32999999999,"N_COORD97":2552440.0499999998,"ADDRESS":"公學路五段６９７巷１６３號四樓","OBJECTID":350151},"geometry":{"x":163836.33000000101,"y":2552440.0500000026}},{"attributes":{"ID":350161,"DIS_CODE":0,"TOWNNAME":"安南區","LI":"南興里","LIN":"6鄰","STREET":"公學路","SECT":"五段","MAREA":" ","LANE":"６９７巷","ALLEY":" ","HOUSE_NO":"１６５號一樓","E_COORD97":163850.54000000001,"N_COORD97":2552441.1099999999,"ADDRESS":"公學路五段６９７巷１６５號一樓","OBJECTID":350152},"geometry":{"x":163850.54000000004,"y":2552441.1100000031}},{"attributes":{"ID":350162,"DIS_CODE":0,"TOWNNAME":"安南區","LI":"南興里","LIN":"6鄰","STREET":"公學路","SECT":"五段","MAREA":" ","LANE":"６９７巷","ALLEY":" ","HOUSE_NO":"１６５號七樓","E_COORD97":163850.54000000001,"N_COORD97":2552441.1099999999,"ADDRESS":"公學路五段６９７巷１６５號七樓","OBJECTID":350153},"geometry":{"x":163850.54000000004,"y":2552441.1100000031}},{"attributes":{"ID":350163,"DIS_CODE":0,"TOWNNAME":"安南區","LI":"南興里","LIN":"6鄰","STREET":"公學路","SECT":"五段","MAREA":" ","LANE":"６９７巷","ALLEY":" ","HOUSE_NO":"１６５號九樓","E_COORD97":163850.54000000001,"N_COORD97":2552441.1099999999,"ADDRESS":"公學路五段６９７巷１６５號九樓","OBJECTID":350154},"geometry":{"x":163850.54000000004,"y":2552441.1100000031}},{"attributes":{"ID":350164,"DIS_CODE":0,"TOWNNAME":"安南區","LI":"南興里","LIN":"6鄰","STREET":"公學路","SECT":"五段","MAREA":" ","LANE":"６９７巷","ALLEY":" ","HOUSE_NO":"１６５號八樓","E_COORD97":163850.54000000001,"N_COORD97":2552441.1099999999,"ADDRESS":"公學路五段６９７巷１６５號八樓","OBJECTID":350155},"geometry":{"x":163850.54000000004,"y":2552441.1100000031}},{"attributes":{"ID":350165,"DIS_CODE":0,"TOWNNAME":"安南區","LI":"南興里","LIN":"6鄰","STREET":"公學路","SECT":"五段","MAREA":" ","LANE":"６９７巷","ALLEY":" ","HOUSE_NO":"１６５號十一樓","E_COORD97":163850.54000000001,"N_COORD97":2552441.1099999999,"ADDRESS":"公學路五段６９７巷１６５號十一樓","OBJECTID":350156},"geometry":{"x":163850.54000000004,"y":2552441.1100000031}},{"attributes":{"ID":350166,"DIS_CODE":0,"TOWNNAME":"安南區","LI":"南興里","LIN":"6鄰","STREET":"公學路","SECT":"五段","MAREA":" ","LANE":"６９７巷","ALLEY":" ","HOUSE_NO":"１６５號十二樓","E_COORD97":163850.54000000001,"N_COORD97":2552441.1099999999,"ADDRESS":"公學路五段６９７巷１６５號十二樓","OBJECTID":350157},"geometry":{"x":163850.54000000004,"y":2552441.1100000031}},{"attributes":{"ID":350167,"DIS_CODE":0,"TOWNNAME":"永康區","LI":"甲頂里","LIN":"13鄰","STREET":"大武街","SECT":" ","MAREA":" ","LANE":"１８巷","ALLEY":" ","HOUSE_NO":"２６號","E_COORD97":170355.67999999999,"N_COORD97":2546623.5899999999,"ADDRESS":"大武街１８巷２６號","OBJECTID":350158},"geometry":{"x":170355.6799999997,"y":2546623.5899999999}},{"attributes":{"ID":350168,"DIS_CODE":0,"TOWNNAME":"永康區","LI":"甲頂里","LIN":"8鄰","STREET":"中華路","SECT":" ","MAREA":" ","LANE":"８９５巷","ALLEY":" ","HOUSE_NO":"１６號","E_COORD97":170418.34,"N_COORD97":2546671.2000000002,"ADDRESS":"中華路８９５巷１６號","OBJECTID":350159},"geometry":{"x":170418.34000000078,"y":2546671.2000000011}},{"attributes":{"ID":350169,"DIS_CODE":0,"TOWNNAME":"安南區","LI":"南興里","LIN":"6鄰","STREET":"公學路","SECT":"五段","MAREA":" ","LANE":"６９７巷","ALLEY":" ","HOUSE_NO":"１６５號十樓","E_COORD97":163850.54000000001,"N_COORD97":2552441.1099999999,"ADDRESS":"公學路五段６９７巷１６５號十樓","OBJECTID":350160},"geometry":{"x":163850.54000000004,"y":2552441.1100000031}},{"attributes":{"ID":350170,"DIS_CODE":0,"TOWNNAME":"安南區","LI":"南興里","LIN":"6鄰","STREET":"公學路","SECT":"五段","MAREA":" ","LANE":"６９７巷","ALLEY":" ","HOUSE_NO":"１６５號三樓","E_COORD97":163850.54000000001,"N_COORD97":2552441.1099999999,"ADDRESS":"公學路五段６９７巷１６５號三樓","OBJECTID":350161},"geometry":{"x":163850.54000000004,"y":2552441.1100000031}},{"attributes":{"ID":350171,"DIS_CODE":0,"TOWNNAME":"安南區","LI":"南興里","LIN":"6鄰","STREET":"公學路","SECT":"五段","MAREA":" ","LANE":"６９７巷","ALLEY":" ","HOUSE_NO":"１６５號五樓","E_COORD97":163850.54000000001,"N_COORD97":2552441.1099999999,"ADDRESS":"公學路五段６９７巷１６５號五樓","OBJECTID":350162},"geometry":{"x":163850.54000000004,"y":2552441.1100000031}},{"attributes":{"ID":350172,"DIS_CODE":0,"TOWNNAME":"將軍區","LI":"仁和里","LIN":"18鄰","STREET":" ","SECT":" ","MAREA":"和巷","LANE":" ","ALLEY":" ","HOUSE_NO":"５７之２號","E_COORD97":163958.88,"N_COORD97":2569292.3100000001,"ADDRESS":"和巷５７之２號","OBJECTID":350163},"geometry":{"x":163958.87999999989,"y":2569292.3100000024}},{"attributes":{"ID":350173,"DIS_CODE":0,"TOWNNAME":"安南區","LI":"南興里","LIN":"6鄰","STREET":"公學路","SECT":"五段","MAREA":" ","LANE":"６９７巷","ALLEY":" ","HOUSE_NO":"１６５號六樓","E_COORD97":163850.54000000001,"N_COORD97":2552441.1099999999,"ADDRESS":"公學路五段６９７巷１６５號六樓","OBJECTID":350164},"geometry":{"x":163850.54000000004,"y":2552441.1100000031}},{"attributes":{"ID":350174,"DIS_CODE":0,"TOWNNAME":"安南區","LI":"南興里","LIN":"6鄰","STREET":"公學路","SECT":"五段","MAREA":" ","LANE":"６９７巷","ALLEY":" ","HOUSE_NO":"１６５號四樓","E_COORD97":163850.54000000001,"N_COORD97":2552441.1099999999,"ADDRESS":"公學路五段６９７巷１６５號四樓","OBJECTID":350165},"geometry":{"x":163850.54000000004,"y":2552441.1100000031}},{"attributes":{"ID":350175,"DIS_CODE":0,"TOWNNAME":"安南區","LI":"南興里","LIN":"6鄰","STREET":"公學路","SECT":"五段","MAREA":" ","LANE":"６９７巷","ALLEY":" ","HOUSE_NO":"１６７號一樓","E_COORD97":163861.59,"N_COORD97":2552440.0499999998,"ADDRESS":"公學路五段６９７巷１６７號一樓","OBJECTID":350166},"geometry":{"x":163861.59000000078,"y":2552440.0500000026}},{"attributes":{"ID":350176,"DIS_CODE":0,"TOWNNAME":"安南區","LI":"南興里","LIN":"6鄰","STREET":"公學路","SECT":"五段","MAREA":" ","LANE":"６９７巷","ALLEY":" ","HOUSE_NO":"１６７號七樓","E_COORD97":163861.59,"N_COORD97":2552440.0499999998,"ADDRESS":"公學路五段６９７巷１６７號七樓","OBJECTID":350167},"geometry":{"x":163861.59000000078,"y":2552440.0500000026}},{"attributes":{"ID":350177,"DIS_CODE":0,"TOWNNAME":"安南區","LI":"南興里","LIN":"6鄰","STREET":"公學路","SECT":"五段","MAREA":" ","LANE":"６９７巷","ALLEY":" ","HOUSE_NO":"１６７號七樓之１","E_COORD97":163861.59,"N_COORD97":2552440.0499999998,"ADDRESS":"公學路五段６９７巷１６７號七樓之１","OBJECTID":350168},"geometry":{"x":163861.59000000078,"y":2552440.0500000026}},{"attributes":{"ID":350178,"DIS_CODE":0,"TOWNNAME":"安南區","LI":"南興里","LIN":"6鄰","STREET":"公學路","SECT":"五段","MAREA":" ","LANE":"６９７巷","ALLEY":" ","HOUSE_NO":"１６７號七樓之２","E_COORD97":163861.59,"N_COORD97":2552440.0499999998,"ADDRESS":"公學路五段６９７巷１６７號七樓之２","OBJECTID":350169},"geometry":{"x":163861.59000000078,"y":2552440.0500000026}},{"attributes":{"ID":350179,"DIS_CODE":0,"TOWNNAME":"中西區","LI":"開山里","LIN":"19鄰","STREET":"開山路","SECT":" ","MAREA":" ","LANE":"２３５巷","ALLEY":" ","HOUSE_NO":"１２號四樓之７","E_COORD97":169031.16,"N_COORD97":2543009.54,"ADDRESS":"開山路２３５巷１２號四樓之７","OBJECTID":350170},"geometry":{"x":169031.16000000201,"y":2543009.5400000028}},{"attributes":{"ID":350180,"DIS_CODE":0,"TOWNNAME":"安南區","LI":"南興里","LIN":"6鄰","STREET":"公學路","SECT":"五段","MAREA":" ","LANE":"６９７巷","ALLEY":" ","HOUSE_NO":"１６７號七樓之３","E_COORD97":163861.59,"N_COORD97":2552440.0499999998,"ADDRESS":"公學路五段６９７巷１６７號七樓之３","OBJECTID":350171},"geometry":{"x":163861.59000000078,"y":2552440.0500000026}},{"attributes":{"ID":350181,"DIS_CODE":0,"TOWNNAME":"安南區","LI":"南興里","LIN":"6鄰","STREET":"公學路","SECT":"五段","MAREA":" ","LANE":"６９７巷","ALLEY":" ","HOUSE_NO":"１６７號九樓","E_COORD97":163861.59,"N_COORD97":2552440.0499999998,"ADDRESS":"公學路五段６９７巷１６７號九樓","OBJECTID":350172},"geometry":{"x":163861.59000000078,"y":2552440.0500000026}},{"attributes":{"ID":350182,"DIS_CODE":0,"TOWNNAME":"安南區","LI":"南興里","LIN":"6鄰","STREET":"公學路","SECT":"五段","MAREA":" ","LANE":"６９７巷","ALLEY":" ","HOUSE_NO":"１６７號九樓之１","E_COORD97":163861.59,"N_COORD97":2552440.0499999998,"ADDRESS":"公學路五段６９７巷１６７號九樓之１","OBJECTID":350173},"geometry":{"x":163861.59000000078,"y":2552440.0500000026}},{"attributes":{"ID":350183,"DIS_CODE":0,"TOWNNAME":"安南區","LI":"南興里","LIN":"6鄰","STREET":"公學路","SECT":"五段","MAREA":" ","LANE":"６９７巷","ALLEY":" ","HOUSE_NO":"１６７號八樓","E_COORD97":163861.59,"N_COORD97":2552440.0499999998,"ADDRESS":"公學路五段６９７巷１６７號八樓","OBJECTID":350174},"geometry":{"x":163861.59000000078,"y":2552440.0500000026}},{"attributes":{"ID":350184,"DIS_CODE":0,"TOWNNAME":"安南區","LI":"南興里","LIN":"6鄰","STREET":"公學路","SECT":"五段","MAREA":" ","LANE":"６９７巷","ALLEY":" ","HOUSE_NO":"１６７號八樓之１","E_COORD97":163861.59,"N_COORD97":2552440.0499999998,"ADDRESS":"公學路五段６９７巷１６７號八樓之１","OBJECTID":350175},"geometry":{"x":163861.59000000078,"y":2552440.0500000026}},{"attributes":{"ID":350185,"DIS_CODE":0,"TOWNNAME":"安南區","LI":"南興里","LIN":"6鄰","STREET":"公學路","SECT":"五段","MAREA":" ","LANE":"６９７巷","ALLEY":" ","HOUSE_NO":"１６７號十一樓","E_COORD97":163861.59,"N_COORD97":2552440.0499999998,"ADDRESS":"公學路五段６９７巷１６７號十一樓","OBJECTID":350176},"geometry":{"x":163861.59000000078,"y":2552440.0500000026}},{"attributes":{"ID":350186,"DIS_CODE":0,"TOWNNAME":"安南區","LI":"南興里","LIN":"6鄰","STREET":"公學路","SECT":"五段","MAREA":" ","LANE":"６９７巷","ALLEY":" ","HOUSE_NO":"１６７號十一樓之１","E_COORD97":163861.59,"N_COORD97":2552440.0499999998,"ADDRESS":"公學路五段６９７巷１６７號十一樓之１","OBJECTID":350177},"geometry":{"x":163861.59000000078,"y":2552440.0500000026}},{"attributes":{"ID":350187,"DIS_CODE":0,"TOWNNAME":"安南區","LI":"南興里","LIN":"6鄰","STREET":"公學路","SECT":"五段","MAREA":" ","LANE":"６９７巷","ALLEY":" ","HOUSE_NO":"１６７號十二樓","E_COORD97":163861.59,"N_COORD97":2552440.0499999998,"ADDRESS":"公學路五段６９７巷１６７號十二樓","OBJECTID":350178},"geometry":{"x":163861.59000000078,"y":2552440.0500000026}},{"attributes":{"ID":350188,"DIS_CODE":0,"TOWNNAME":"安南區","LI":"南興里","LIN":"6鄰","STREET":"公學路","SECT":"五段","MAREA":" ","LANE":"６９７巷","ALLEY":" ","HOUSE_NO":"１６７號十二樓之１","E_COORD97":163861.59,"N_COORD97":2552440.0499999998,"ADDRESS":"公學路五段６９７巷１６７號十二樓之１","OBJECTID":350179},"geometry":{"x":163861.59000000078,"y":2552440.0500000026}},{"attributes":{"ID":350189,"DIS_CODE":0,"TOWNNAME":"安南區","LI":"南興里","LIN":"6鄰","STREET":"公學路","SECT":"五段","MAREA":" ","LANE":"６９７巷","ALLEY":" ","HOUSE_NO":"１６７號十樓","E_COORD97":163861.59,"N_COORD97":2552440.0499999998,"ADDRESS":"公學路五段６９７巷１６７號十樓","OBJECTID":350180},"geometry":{"x":163861.59000000078,"y":2552440.0500000026}},{"attributes":{"ID":350190,"DIS_CODE":0,"TOWNNAME":"安南區","LI":"南興里","LIN":"6鄰","STREET":"公學路","SECT":"五段","MAREA":" ","LANE":"６９７巷","ALLEY":" ","HOUSE_NO":"１６７號十樓之１","E_COORD97":163861.59,"N_COORD97":2552440.0499999998,"ADDRESS":"公學路五段６９７巷１６７號十樓之１","OBJECTID":350181},"geometry":{"x":163861.59000000078,"y":2552440.0500000026}},{"attributes":{"ID":350191,"DIS_CODE":0,"TOWNNAME":"安南區","LI":"南興里","LIN":"6鄰","STREET":"公學路","SECT":"五段","MAREA":" ","LANE":"６９７巷","ALLEY":" ","HOUSE_NO":"１６７號三樓","E_COORD97":163861.59,"N_COORD97":2552440.0499999998,"ADDRESS":"公學路五段６９７巷１６７號三樓","OBJECTID":350182},"geometry":{"x":163861.59000000078,"y":2552440.0500000026}},{"attributes":{"ID":350192,"DIS_CODE":0,"TOWNNAME":"安南區","LI":"南興里","LIN":"6鄰","STREET":"公學路","SECT":"五段","MAREA":" ","LANE":"６９７巷","ALLEY":" ","HOUSE_NO":"１６７號三樓之１","E_COORD97":163861.59,"N_COORD97":2552440.0499999998,"ADDRESS":"公學路五段６９７巷１６７號三樓之１","OBJECTID":350183},"geometry":{"x":163861.59000000078,"y":2552440.0500000026}},{"attributes":{"ID":350193,"DIS_CODE":0,"TOWNNAME":"安南區","LI":"南興里","LIN":"6鄰","STREET":"公學路","SECT":"五段","MAREA":" ","LANE":"６９７巷","ALLEY":" ","HOUSE_NO":"１６７號三樓之２","E_COORD97":163861.59,"N_COORD97":2552440.0499999998,"ADDRESS":"公學路五段６９７巷１６７號三樓之２","OBJECTID":350184},"geometry":{"x":163861.59000000078,"y":2552440.0500000026}},{"attributes":{"ID":350194,"DIS_CODE":0,"TOWNNAME":"安南區","LI":"南興里","LIN":"6鄰","STREET":"公學路","SECT":"五段","MAREA":" ","LANE":"６９７巷","ALLEY":" ","HOUSE_NO":"１６７號五樓","E_COORD97":163861.59,"N_COORD97":2552440.0499999998,"ADDRESS":"公學路五段６９７巷１６７號五樓","OBJECTID":350185},"geometry":{"x":163861.59000000078,"y":2552440.0500000026}},{"attributes":{"ID":350195,"DIS_CODE":0,"TOWNNAME":"永康區","LI":"永康里","LIN":"38鄰","STREET":"西勢路","SECT":" ","MAREA":" ","LANE":"６６９巷","ALLEY":" ","HOUSE_NO":"１２號","E_COORD97":174558.06,"N_COORD97":2546702.4199999999,"ADDRESS":"西勢路６６９巷１２號","OBJECTID":350186},"geometry":{"x":174558.06000000052,"y":2546702.4199999999}},{"attributes":{"ID":350196,"DIS_CODE":0,"TOWNNAME":"永康區","LI":"永康里","LIN":"39鄰","STREET":"文化路","SECT":" ","MAREA":" ","LANE":"１５巷","ALLEY":" ","HOUSE_NO":"１１號","E_COORD97":174388.29999999999,"N_COORD97":2546348.1499999999,"ADDRESS":"文化路１５巷１１號","OBJECTID":350187},"geometry":{"x":174388.30000000168,"y":2546348.1500000004}},{"attributes":{"ID":350197,"DIS_CODE":0,"TOWNNAME":"永康區","LI":"安康里","LIN":"13鄰","STREET":"中華路","SECT":" ","MAREA":" ","LANE":"６６１巷","ALLEY":" ","HOUSE_NO":"１０９號","E_COORD97":170798.39999999999,"N_COORD97":2546103.75,"ADDRESS":"中華路６６１巷１０９號","OBJECTID":350188},"geometry":{"x":170798.4000000013,"y":2546103.75}},{"attributes":{"ID":350198,"DIS_CODE":0,"TOWNNAME":"永康區","LI":"正強里","LIN":"17鄰","STREET":"自強路","SECT":" ","MAREA":" ","LANE":"１８８巷","ALLEY":" ","HOUSE_NO":"５２號","E_COORD97":173218.44,"N_COORD97":2547310.1699999999,"ADDRESS":"自強路１８８巷５２號","OBJECTID":350189},"geometry":{"x":173218.44000000227,"y":2547310.1699999999}},{"attributes":{"ID":350199,"DIS_CODE":0,"TOWNNAME":"永康區","LI":"永康里","LIN":"17鄰","STREET":"永中街","SECT":" ","MAREA":" ","LANE":"１１８巷","ALLEY":" ","HOUSE_NO":"３０號","E_COORD97":174055.39999999999,"N_COORD97":2547180.7400000002,"ADDRESS":"永中街１１８巷３０號","OBJECTID":350190},"geometry":{"x":174055.40000000037,"y":2547180.7400000021}},{"attributes":{"ID":350200,"DIS_CODE":0,"TOWNNAME":"安南區","LI":"南興里","LIN":"6鄰","STREET":"公學路","SECT":"五段","MAREA":" ","LANE":"６９７巷","ALLEY":" ","HOUSE_NO":"１６７號五樓之１","E_COORD97":163861.59,"N_COORD97":2552440.0499999998,"ADDRESS":"公學路五段６９７巷１６７號五樓之１","OBJECTID":350191},"geometry":{"x":163861.59000000078,"y":2552440.0500000026}},{"attributes":{"ID":350201,"DIS_CODE":0,"TOWNNAME":"安南區","LI":"南興里","LIN":"6鄰","STREET":"公學路","SECT":"五段","MAREA":" ","LANE":"６９７巷","ALLEY":" ","HOUSE_NO":"１６７號五樓之２","E_COORD97":163861.59,"N_COORD97":2552440.0499999998,"ADDRESS":"公學路五段６９７巷１６７號五樓之２","OBJECTID":350192},"geometry":{"x":163861.59000000078,"y":2552440.0500000026}},{"attributes":{"ID":350202,"DIS_CODE":0,"TOWNNAME":"安南區","LI":"南興里","LIN":"6鄰","STREET":"公學路","SECT":"五段","MAREA":" ","LANE":"６９７巷","ALLEY":" ","HOUSE_NO":"１６７號六樓","E_COORD97":163861.59,"N_COORD97":2552440.0499999998,"ADDRESS":"公學路五段６９７巷１６７號六樓","OBJECTID":350193},"geometry":{"x":163861.59000000078,"y":2552440.0500000026}},{"attributes":{"ID":350203,"DIS_CODE":0,"TOWNNAME":"安南區","LI":"南興里","LIN":"6鄰","STREET":"公學路","SECT":"五段","MAREA":" ","LANE":"６９７巷","ALLEY":" ","HOUSE_NO":"１６７號六樓之１","E_COORD97":163861.59,"N_COORD97":2552440.0499999998,"ADDRESS":"公學路五段６９７巷１６７號六樓之１","OBJECTID":350194},"geometry":{"x":163861.59000000078,"y":2552440.0500000026}},{"attributes":{"ID":350204,"DIS_CODE":0,"TOWNNAME":"安南區","LI":"南興里","LIN":"6鄰","STREET":"公學路","SECT":"五段","MAREA":" ","LANE":"６９７巷","ALLEY":" ","HOUSE_NO":"１６９號一樓","E_COORD97":163837.38,"N_COORD97":2552448.46,"ADDRESS":"公學路五段６９７巷１６９號一樓","OBJECTID":350195},"geometry":{"x":163837.38000000082,"y":2552448.4600000028}},{"attributes":{"ID":350205,"DIS_CODE":0,"TOWNNAME":"歸仁區","LI":"崙頂里","LIN":"8鄰","STREET":"崙頂三街","SECT":" ","MAREA":" ","LANE":" ","ALLEY":" ","HOUSE_NO":"１１６號","E_COORD97":178081.42000000001,"N_COORD97":2539918.6800000002,"ADDRESS":"崙頂三街１１６號","OBJECTID":350196},"geometry":{"x":178081.42000000179,"y":2539918.6799999997}},{"attributes":{"ID":350206,"DIS_CODE":0,"TOWNNAME":"安南區","LI":"南興里","LIN":"6鄰","STREET":"公學路","SECT":"五段","MAREA":" ","LANE":"６９７巷","ALLEY":" ","HOUSE_NO":"１６９號七樓","E_COORD97":163837.38,"N_COORD97":2552448.46,"ADDRESS":"公學路五段６９７巷１６９號七樓","OBJECTID":350197},"geometry":{"x":163837.38000000082,"y":2552448.4600000028}},{"attributes":{"ID":350207,"DIS_CODE":0,"TOWNNAME":"安南區","LI":"南興里","LIN":"6鄰","STREET":"公學路","SECT":"五段","MAREA":" ","LANE":"６９７巷","ALLEY":" ","HOUSE_NO":"１６９號九樓","E_COORD97":163837.38,"N_COORD97":2552448.46,"ADDRESS":"公學路五段６９７巷１６９號九樓","OBJECTID":350198},"geometry":{"x":163837.38000000082,"y":2552448.4600000028}},{"attributes":{"ID":350208,"DIS_CODE":0,"TOWNNAME":"安南區","LI":"南興里","LIN":"6鄰","STREET":"公學路","SECT":"五段","MAREA":" ","LANE":"６９７巷","ALLEY":" ","HOUSE_NO":"１６９號八樓","E_COORD97":163837.38,"N_COORD97":2552448.46,"ADDRESS":"公學路五段６９７巷１６９號八樓","OBJECTID":350199},"geometry":{"x":163837.38000000082,"y":2552448.4600000028}},{"attributes":{"ID":350209,"DIS_CODE":0,"TOWNNAME":"安南區","LI":"南興里","LIN":"6鄰","STREET":"公學路","SECT":"五段","MAREA":" ","LANE":"６９７巷","ALLEY":" ","HOUSE_NO":"１６９號十一樓","E_COORD97":163837.38,"N_COORD97":2552448.46,"ADDRESS":"公學路五段６９７巷１６９號十一樓","OBJECTID":350200},"geometry":{"x":163837.38000000082,"y":2552448.4600000028}}]}