{"displayFieldName":"TOWNNAME","fieldAliases":{"ID":"ID","DIS_CODE":"DIS_CODE","TOWNNAME":"TOWNNAME","LI":"LI","LIN":"LIN","STREET":"STREET","SECT":"SECT","MAREA":"MAREA","LANE":"LANE","ALLEY":"ALLEY","HOUSE_NO":"HOUSE_NO","E_COORD97":"E_COORD97","N_COORD97":"N_COORD97","ADDRESS":"ADDRESS","OBJECTID":"OBJECTID"},"geometryType":"esriGeometryPoint","spatialReference":{"wkid":102443,"latestWkid":3826},"fields":[{"name":"ID","type":"esriFieldTypeDouble","alias":"ID"},{"name":"DIS_CODE","type":"esriFieldTypeInteger","alias":"DIS_CODE"},{"name":"TOWNNAME","type":"esriFieldTypeString","alias":"TOWNNAME","length":8},{"name":"LI","type":"esriFieldTypeString","alias":"LI","length":8},{"name":"LIN","type":"esriFieldTypeString","alias":"LIN","length":12},{"name":"STREET","type":"esriFieldTypeString","alias":"STREET","length":20},{"name":"SECT","type":"esriFieldTypeString","alias":"SECT","length":8},{"name":"MAREA","type":"esriFieldTypeString","alias":"MAREA","length":12},{"name":"LANE","type":"esriFieldTypeString","alias":"LANE","length":10},{"name":"ALLEY","type":"esriFieldTypeString","alias":"ALLEY","length":10},{"name":"HOUSE_NO","type":"esriFieldTypeString","alias":"HOUSE_NO","length":20},{"name":"E_COORD97","type":"esriFieldTypeDouble","alias":"E_COORD97"},{"name":"N_COORD97","type":"esriFieldTypeDouble","alias":"N_COORD97"},{"name":"ADDRESS","type":"esriFieldTypeString","alias":"ADDRESS","length":50},{"name":"OBJECTID","type":"esriFieldTypeOID","alias":"OBJECTID"}],"features":[{"attributes":{"ID":584028,"DIS_CODE":0,"TOWNNAME":"東區","LI":"小東里","LIN":"8鄰","STREET":"東和路","SECT":" ","MAREA":" ","LANE":" ","ALLEY":" ","HOUSE_NO":"１０９號","E_COORD97":170813.25,"N_COORD97":2544312.2599999998,"ADDRESS":"東和路１０９號","OBJECTID":584001},"geometry":{"x":170813.25,"y":2544312.2599999998}},{"attributes":{"ID":584029,"DIS_CODE":0,"TOWNNAME":"東區","LI":"小東里","LIN":"8鄰","STREET":"東和路","SECT":" ","MAREA":" ","LANE":" ","ALLEY":" ","HOUSE_NO":"１０１號","E_COORD97":170825.78,"N_COORD97":2544313.4399999999,"ADDRESS":"東和路１０１號","OBJECTID":584002},"geometry":{"x":170825.78000000212,"y":2544313.4400000013}},{"attributes":{"ID":584030,"DIS_CODE":0,"TOWNNAME":"東區","LI":"小東里","LIN":"8鄰","STREET":"東和路","SECT":" ","MAREA":" ","LANE":" ","ALLEY":" ","HOUSE_NO":"１０７號","E_COORD97":170816.92999999999,"N_COORD97":2544313.29,"ADDRESS":"東和路１０７號","OBJECTID":584003},"geometry":{"x":170816.9299999997,"y":2544313.290000001}},{"attributes":{"ID":584031,"DIS_CODE":0,"TOWNNAME":"東區","LI":"小東里","LIN":"8鄰","STREET":"東和路","SECT":" ","MAREA":" ","LANE":" ","ALLEY":" ","HOUSE_NO":"９５號","E_COORD97":170830.70999999999,"N_COORD97":2544293.7599999998,"ADDRESS":"東和路９５號","OBJECTID":584004},"geometry":{"x":170830.70999999996,"y":2544293.7600000016}},{"attributes":{"ID":584032,"DIS_CODE":0,"TOWNNAME":"東區","LI":"小東里","LIN":"8鄰","STREET":"東和路","SECT":" ","MAREA":" ","LANE":" ","ALLEY":" ","HOUSE_NO":"９７號","E_COORD97":170826.29999999999,"N_COORD97":2544297.23,"ADDRESS":"東和路９７號","OBJECTID":584005},"geometry":{"x":170826.29999999981,"y":2544297.2300000004}},{"attributes":{"ID":584033,"DIS_CODE":0,"TOWNNAME":"東區","LI":"崇德里","LIN":"1鄰","STREET":"崇善路","SECT":" ","MAREA":" ","LANE":" ","ALLEY":" ","HOUSE_NO":"２３６號","E_COORD97":170789.01000000001,"N_COORD97":2541978.3500000001,"ADDRESS":"崇善路２３６號","OBJECTID":584006},"geometry":{"x":170789.00999999978,"y":2541978.3500000015}},{"attributes":{"ID":584034,"DIS_CODE":0,"TOWNNAME":"東區","LI":"裕農里","LIN":"6鄰","STREET":"裕農路","SECT":" ","MAREA":" ","LANE":" ","ALLEY":" ","HOUSE_NO":"３４９號之１","E_COORD97":171013.70999999999,"N_COORD97":2543074.6000000001,"ADDRESS":"裕農路３４９號之１","OBJECTID":584007},"geometry":{"x":171013.70999999996,"y":2543074.6000000015}},{"attributes":{"ID":584035,"DIS_CODE":0,"TOWNNAME":"東區","LI":"泉南里","LIN":"16鄰","STREET":"樹林街","SECT":"一段","MAREA":" ","LANE":" ","ALLEY":" ","HOUSE_NO":"９號","E_COORD97":169684.60000000001,"N_COORD97":2542894.9700000002,"ADDRESS":"樹林街一段９號","OBJECTID":584008},"geometry":{"x":169684.59999999963,"y":2542894.9700000007}},{"attributes":{"ID":584036,"DIS_CODE":0,"TOWNNAME":"鹽水區","LI":"水秀里","LIN":"16鄰","STREET":"朝琴路","SECT":" ","MAREA":" ","LANE":" ","ALLEY":" ","HOUSE_NO":"１８０號","E_COORD97":175655.76999999999,"N_COORD97":2580322.7200000002,"ADDRESS":"朝琴路１８０號","OBJECTID":584009},"geometry":{"x":175655.76999999955,"y":2580322.7200000007}},{"attributes":{"ID":584037,"DIS_CODE":0,"TOWNNAME":"學甲區","LI":"仁得里","LIN":"16鄰","STREET":"民權路","SECT":" ","MAREA":" ","LANE":" ","ALLEY":" ","HOUSE_NO":"１００號","E_COORD97":165922.66,"N_COORD97":2570188.96,"ADDRESS":"民權路１００號","OBJECTID":584010},"geometry":{"x":165922.66000000108,"y":2570188.9600000046}},{"attributes":{"ID":584038,"DIS_CODE":0,"TOWNNAME":"學甲區","LI":"仁得里","LIN":"16鄰","STREET":"民權路","SECT":" ","MAREA":" ","LANE":" ","ALLEY":" ","HOUSE_NO":"１０１號之１","E_COORD97":165861.01000000001,"N_COORD97":2570160.9500000002,"ADDRESS":"民權路１０１號之１","OBJECTID":584011},"geometry":{"x":165861.00999999978,"y":2570160.9500000011}},{"attributes":{"ID":584039,"DIS_CODE":0,"TOWNNAME":"學甲區","LI":"仁得里","LIN":"16鄰","STREET":"民權路","SECT":" ","MAREA":" ","LANE":" ","ALLEY":" ","HOUSE_NO":"１０１號","E_COORD97":165869.06,"N_COORD97":2570176.8999999999,"ADDRESS":"民權路１０１號","OBJECTID":584012},"geometry":{"x":165869.05999999959,"y":2570176.9000000022}},{"attributes":{"ID":584040,"DIS_CODE":0,"TOWNNAME":"學甲區","LI":"仁得里","LIN":"16鄰","STREET":"民權路","SECT":" ","MAREA":" ","LANE":" ","ALLEY":" ","HOUSE_NO":"１０２號","E_COORD97":165917.48999999999,"N_COORD97":2570190.1899999999,"ADDRESS":"民權路１０２號","OBJECTID":584013},"geometry":{"x":165917.49000000022,"y":2570190.1900000013}},{"attributes":{"ID":584041,"DIS_CODE":0,"TOWNNAME":"學甲區","LI":"仁得里","LIN":"16鄰","STREET":"民權路","SECT":" ","MAREA":" ","LANE":" ","ALLEY":" ","HOUSE_NO":"１０３號之１","E_COORD97":165837.39999999999,"N_COORD97":2570180.8900000001,"ADDRESS":"民權路１０３號之１","OBJECTID":584014},"geometry":{"x":165837.40000000037,"y":2570180.8900000006}},{"attributes":{"ID":584042,"DIS_CODE":0,"TOWNNAME":"東區","LI":"泉南里","LIN":"4鄰","STREET":"府東街","SECT":" ","MAREA":" ","LANE":" ","ALLEY":" ","HOUSE_NO":"１７６號","E_COORD97":169536.23000000001,"N_COORD97":2543057.7400000002,"ADDRESS":"府東街１７６號","OBJECTID":584015},"geometry":{"x":169536.23000000231,"y":2543057.7400000021}},{"attributes":{"ID":584043,"DIS_CODE":0,"TOWNNAME":"東區","LI":"大智里","LIN":"10鄰","STREET":"德東街","SECT":" ","MAREA":" ","LANE":" ","ALLEY":" ","HOUSE_NO":"１０２號","E_COORD97":171131.5,"N_COORD97":2540240.2799999998,"ADDRESS":"德東街１０２號","OBJECTID":584016},"geometry":{"x":171131.50000000093,"y":2540240.2799999993}},{"attributes":{"ID":584044,"DIS_CODE":0,"TOWNNAME":"東區","LI":"大智里","LIN":"10鄰","STREET":"德東街","SECT":" ","MAREA":" ","LANE":" ","ALLEY":" ","HOUSE_NO":"１０４號","E_COORD97":171134.57000000001,"N_COORD97":2540241.6800000002,"ADDRESS":"德東街１０４號","OBJECTID":584017},"geometry":{"x":171134.57000000123,"y":2540241.6799999997}},{"attributes":{"ID":584045,"DIS_CODE":0,"TOWNNAME":"東區","LI":"大智里","LIN":"10鄰","STREET":"德東街","SECT":" ","MAREA":" ","LANE":" ","ALLEY":" ","HOUSE_NO":"１０６號","E_COORD97":171138.31,"N_COORD97":2540240,"ADDRESS":"德東街１０６號","OBJECTID":584018},"geometry":{"x":171138.31000000145,"y":2540240}},{"attributes":{"ID":584046,"DIS_CODE":0,"TOWNNAME":"學甲區","LI":"仁得里","LIN":"16鄰","STREET":"民權路","SECT":" ","MAREA":" ","LANE":" ","ALLEY":" ","HOUSE_NO":"１０６號","E_COORD97":165907.28,"N_COORD97":2570197.6200000001,"ADDRESS":"民權路１０６號","OBJECTID":584019},"geometry":{"x":165907.28000000026,"y":2570197.620000001}},{"attributes":{"ID":584047,"DIS_CODE":0,"TOWNNAME":"學甲區","LI":"仁得里","LIN":"16鄰","STREET":"民權路","SECT":" ","MAREA":" ","LANE":" ","ALLEY":" ","HOUSE_NO":"１０８號","E_COORD97":165903.60000000001,"N_COORD97":2570198.8700000001,"ADDRESS":"民權路１０８號","OBJECTID":584020},"geometry":{"x":165903.60000000056,"y":2570198.870000001}},{"attributes":{"ID":584048,"DIS_CODE":0,"TOWNNAME":"學甲區","LI":"仁得里","LIN":"16鄰","STREET":"民權路","SECT":" ","MAREA":" ","LANE":" ","ALLEY":" ","HOUSE_NO":"１１２號","E_COORD97":165896.78,"N_COORD97":2570200.9700000002,"ADDRESS":"民權路１１２號","OBJECTID":584021},"geometry":{"x":165896.78000000119,"y":2570200.9700000007}},{"attributes":{"ID":584049,"DIS_CODE":0,"TOWNNAME":"學甲區","LI":"仁得里","LIN":"16鄰","STREET":"民權路","SECT":" ","MAREA":" ","LANE":" ","ALLEY":" ","HOUSE_NO":"１１４號","E_COORD97":165892.54000000001,"N_COORD97":2570202.29,"ADDRESS":"民權路１１４號","OBJECTID":584022},"geometry":{"x":165892.54000000097,"y":2570202.290000001}},{"attributes":{"ID":584050,"DIS_CODE":0,"TOWNNAME":"學甲區","LI":"仁得里","LIN":"16鄰","STREET":"民權路","SECT":" ","MAREA":" ","LANE":" ","ALLEY":" ","HOUSE_NO":"１１６號","E_COORD97":165887.78,"N_COORD97":2570203.52,"ADDRESS":"民權路１１６號","OBJECTID":584023},"geometry":{"x":165887.78000000119,"y":2570203.5199999996}},{"attributes":{"ID":584051,"DIS_CODE":0,"TOWNNAME":"學甲區","LI":"仁得里","LIN":"16鄰","STREET":"民權路","SECT":" ","MAREA":" ","LANE":" ","ALLEY":" ","HOUSE_NO":"１１８號","E_COORD97":165883.64000000001,"N_COORD97":2570205.1200000001,"ADDRESS":"民權路１１８號","OBJECTID":584024},"geometry":{"x":165883.6400000006,"y":2570205.1200000048}},{"attributes":{"ID":584052,"DIS_CODE":0,"TOWNNAME":"學甲區","LI":"仁得里","LIN":"16鄰","STREET":"民權路","SECT":" ","MAREA":" ","LANE":" ","ALLEY":" ","HOUSE_NO":"１３０號","E_COORD97":165853.07000000001,"N_COORD97":2570210.5,"ADDRESS":"民權路１３０號","OBJECTID":584025},"geometry":{"x":165853.0700000003,"y":2570210.5}},{"attributes":{"ID":584053,"DIS_CODE":0,"TOWNNAME":"學甲區","LI":"仁得里","LIN":"16鄰","STREET":"民權路","SECT":" ","MAREA":" ","LANE":" ","ALLEY":" ","HOUSE_NO":"１３２號","E_COORD97":165849.16,"N_COORD97":2570211.5600000001,"ADDRESS":"民權路１３２號","OBJECTID":584026},"geometry":{"x":165849.15999999922,"y":2570211.5600000042}},{"attributes":{"ID":584054,"DIS_CODE":0,"TOWNNAME":"學甲區","LI":"仁得里","LIN":"16鄰","STREET":"民權路","SECT":" ","MAREA":" ","LANE":" ","ALLEY":" ","HOUSE_NO":"１３４號","E_COORD97":165844.04999999999,"N_COORD97":2570213,"ADDRESS":"民權路１３４號","OBJECTID":584027},"geometry":{"x":165844.04999999981,"y":2570213.0000000019}},{"attributes":{"ID":584055,"DIS_CODE":0,"TOWNNAME":"學甲區","LI":"仁得里","LIN":"16鄰","STREET":"民權路","SECT":" ","MAREA":" ","LANE":" ","ALLEY":" ","HOUSE_NO":"１３６號","E_COORD97":165838.94,"N_COORD97":2570214.8300000001,"ADDRESS":"民權路１３６號","OBJECTID":584028},"geometry":{"x":165838.94000000041,"y":2570214.8300000001}},{"attributes":{"ID":584056,"DIS_CODE":0,"TOWNNAME":"學甲區","LI":"仁得里","LIN":"16鄰","STREET":"民權路","SECT":" ","MAREA":" ","LANE":" ","ALLEY":" ","HOUSE_NO":"１３８號","E_COORD97":165834.63,"N_COORD97":2570216.3999999999,"ADDRESS":"民權路１３８號","OBJECTID":584029},"geometry":{"x":165834.63000000082,"y":2570216.4000000022}},{"attributes":{"ID":584057,"DIS_CODE":0,"TOWNNAME":"學甲區","LI":"仁得里","LIN":"16鄰","STREET":"民權路","SECT":" ","MAREA":" ","LANE":" ","ALLEY":" ","HOUSE_NO":"１４０號","E_COORD97":165827.82000000001,"N_COORD97":2570218.3399999999,"ADDRESS":"民權路１４０號","OBJECTID":584030},"geometry":{"x":165827.8200000003,"y":2570218.3399999999}},{"attributes":{"ID":584058,"DIS_CODE":0,"TOWNNAME":"學甲區","LI":"仁得里","LIN":"16鄰","STREET":"民權路","SECT":" ","MAREA":" ","LANE":" ","ALLEY":" ","HOUSE_NO":"９３號","E_COORD97":165908.14999999999,"N_COORD97":2570168.3900000001,"ADDRESS":"民權路９３號","OBJECTID":584031},"geometry":{"x":165908.15000000037,"y":2570168.3900000006}},{"attributes":{"ID":584059,"DIS_CODE":0,"TOWNNAME":"學甲區","LI":"仁得里","LIN":"16鄰","STREET":"民權路","SECT":" ","MAREA":" ","LANE":" ","ALLEY":" ","HOUSE_NO":"９５號","E_COORD97":165898.59,"N_COORD97":2570168.54,"ADDRESS":"民權路９５號","OBJECTID":584032},"geometry":{"x":165898.59000000171,"y":2570168.5399999991}},{"attributes":{"ID":584060,"DIS_CODE":0,"TOWNNAME":"學甲區","LI":"仁得里","LIN":"16鄰","STREET":"民權路","SECT":" ","MAREA":" ","LANE":" ","ALLEY":" ","HOUSE_NO":"９７號","E_COORD97":165893.25,"N_COORD97":2570170.3399999999,"ADDRESS":"民權路９７號","OBJECTID":584033},"geometry":{"x":165893.25000000093,"y":2570170.3399999999}},{"attributes":{"ID":584061,"DIS_CODE":0,"TOWNNAME":"學甲區","LI":"仁得里","LIN":"16鄰","STREET":"民權路","SECT":" ","MAREA":" ","LANE":" ","ALLEY":" ","HOUSE_NO":"９９號","E_COORD97":165886.14999999999,"N_COORD97":2570170.6600000001,"ADDRESS":"民權路９９號","OBJECTID":584034},"geometry":{"x":165886.15000000037,"y":2570170.660000002}},{"attributes":{"ID":584062,"DIS_CODE":0,"TOWNNAME":"學甲區","LI":"仁得里","LIN":"16鄰","STREET":"和平路","SECT":" ","MAREA":" ","LANE":" ","ALLEY":" ","HOUSE_NO":"１７１號","E_COORD97":165891.12,"N_COORD97":2570092.27,"ADDRESS":"和平路１７１號","OBJECTID":584035},"geometry":{"x":165891.12000000011,"y":2570092.2699999996}},{"attributes":{"ID":584063,"DIS_CODE":0,"TOWNNAME":"學甲區","LI":"仁得里","LIN":"16鄰","STREET":"和平路","SECT":" ","MAREA":" ","LANE":" ","ALLEY":" ","HOUSE_NO":"１７３號","E_COORD97":165892.35999999999,"N_COORD97":2570096.77,"ADDRESS":"和平路１７３號","OBJECTID":584036},"geometry":{"x":165892.36000000127,"y":2570096.7699999996}},{"attributes":{"ID":584064,"DIS_CODE":0,"TOWNNAME":"學甲區","LI":"仁得里","LIN":"16鄰","STREET":"和平路","SECT":" ","MAREA":" ","LANE":" ","ALLEY":" ","HOUSE_NO":"１７５號","E_COORD97":165893.67000000001,"N_COORD97":2570101.27,"ADDRESS":"和平路１７５號","OBJECTID":584037},"geometry":{"x":165893.67000000086,"y":2570101.2700000014}},{"attributes":{"ID":584065,"DIS_CODE":0,"TOWNNAME":"學甲區","LI":"仁得里","LIN":"16鄰","STREET":"和平路","SECT":" ","MAREA":" ","LANE":" ","ALLEY":" ","HOUSE_NO":"１７７號","E_COORD97":165894.79000000001,"N_COORD97":2570105.6200000001,"ADDRESS":"和平路１７７號","OBJECTID":584038},"geometry":{"x":165894.79000000097,"y":2570105.620000001}},{"attributes":{"ID":584066,"DIS_CODE":0,"TOWNNAME":"學甲區","LI":"仁得里","LIN":"16鄰","STREET":"和平路","SECT":" ","MAREA":" ","LANE":" ","ALLEY":" ","HOUSE_NO":"１７９號","E_COORD97":165896.23999999999,"N_COORD97":2570110.27,"ADDRESS":"和平路１７９號","OBJECTID":584039},"geometry":{"x":165896.24000000209,"y":2570110.2699999996}},{"attributes":{"ID":584067,"DIS_CODE":0,"TOWNNAME":"學甲區","LI":"仁得里","LIN":"16鄰","STREET":"和平路","SECT":" ","MAREA":" ","LANE":" ","ALLEY":" ","HOUSE_NO":"１８１號","E_COORD97":165897.60000000001,"N_COORD97":2570114.5499999998,"ADDRESS":"和平路１８１號","OBJECTID":584040},"geometry":{"x":165897.59999999963,"y":2570114.5500000026}},{"attributes":{"ID":584068,"DIS_CODE":0,"TOWNNAME":"學甲區","LI":"仁得里","LIN":"16鄰","STREET":"和平路","SECT":" ","MAREA":" ","LANE":" ","ALLEY":" ","HOUSE_NO":"１８５號","E_COORD97":165900.51999999999,"N_COORD97":2570123.4100000001,"ADDRESS":"和平路１８５號","OBJECTID":584041},"geometry":{"x":165900.52000000142,"y":2570123.4100000001}},{"attributes":{"ID":584069,"DIS_CODE":0,"TOWNNAME":"學甲區","LI":"仁得里","LIN":"16鄰","STREET":"和平路","SECT":" ","MAREA":" ","LANE":" ","ALLEY":" ","HOUSE_NO":"１８７號","E_COORD97":165901.82000000001,"N_COORD97":2570127.21,"ADDRESS":"和平路１８７號","OBJECTID":584042},"geometry":{"x":165901.8200000003,"y":2570127.2100000028}},{"attributes":{"ID":584070,"DIS_CODE":0,"TOWNNAME":"學甲區","LI":"仁得里","LIN":"16鄰","STREET":"和平路","SECT":" ","MAREA":" ","LANE":" ","ALLEY":" ","HOUSE_NO":"１８９號","E_COORD97":165903.29999999999,"N_COORD97":2570131.8500000001,"ADDRESS":"和平路１８９號","OBJECTID":584043},"geometry":{"x":165903.29999999981,"y":2570131.8500000015}},{"attributes":{"ID":584071,"DIS_CODE":0,"TOWNNAME":"學甲區","LI":"仁得里","LIN":"16鄰","STREET":"和平路","SECT":" ","MAREA":" ","LANE":" ","ALLEY":" ","HOUSE_NO":"１９１號","E_COORD97":165904.53,"N_COORD97":2570136.3799999999,"ADDRESS":"和平路１９１號","OBJECTID":584044},"geometry":{"x":165904.53000000212,"y":2570136.379999999}},{"attributes":{"ID":584072,"DIS_CODE":0,"TOWNNAME":"學甲區","LI":"仁得里","LIN":"16鄰","STREET":"和平路","SECT":" ","MAREA":" ","LANE":" ","ALLEY":" ","HOUSE_NO":"２１７號","E_COORD97":165925.04000000001,"N_COORD97":2570213.0099999998,"ADDRESS":"和平路２１７號","OBJECTID":584045},"geometry":{"x":165925.04000000097,"y":2570213.0099999998}},{"attributes":{"ID":584073,"DIS_CODE":0,"TOWNNAME":"學甲區","LI":"仁得里","LIN":"16鄰","STREET":"和平路","SECT":" ","MAREA":" ","LANE":" ","ALLEY":" ","HOUSE_NO":"２１９號","E_COORD97":165926.73000000001,"N_COORD97":2570222.02,"ADDRESS":"和平路２１９號","OBJECTID":584046},"geometry":{"x":165926.73000000045,"y":2570222.0200000014}},{"attributes":{"ID":584074,"DIS_CODE":0,"TOWNNAME":"學甲區","LI":"仁得里","LIN":"16鄰","STREET":"和平路","SECT":" ","MAREA":" ","LANE":" ","ALLEY":" ","HOUSE_NO":"２２３號","E_COORD97":165925.89000000001,"N_COORD97":2570232.5099999998,"ADDRESS":"和平路２２３號","OBJECTID":584047},"geometry":{"x":165925.8900000006,"y":2570232.5100000016}},{"attributes":{"ID":584075,"DIS_CODE":0,"TOWNNAME":"學甲區","LI":"仁得里","LIN":"16鄰","STREET":"和平路","SECT":" ","MAREA":" ","LANE":" ","ALLEY":" ","HOUSE_NO":"２２９號","E_COORD97":165936.23000000001,"N_COORD97":2570255.1499999999,"ADDRESS":"和平路２２９號","OBJECTID":584048},"geometry":{"x":165936.23000000138,"y":2570255.1500000041}},{"attributes":{"ID":584076,"DIS_CODE":0,"TOWNNAME":"學甲區","LI":"仁得里","LIN":"16鄰","STREET":"和平路","SECT":" ","MAREA":" ","LANE":" ","ALLEY":" ","HOUSE_NO":"２３３號","E_COORD97":165942.53,"N_COORD97":2570272.5800000001,"ADDRESS":"和平路２３３號","OBJECTID":584049},"geometry":{"x":165942.53000000119,"y":2570272.5800000019}},{"attributes":{"ID":584077,"DIS_CODE":0,"TOWNNAME":"學甲區","LI":"仁得里","LIN":"16鄰","STREET":"和平路","SECT":" ","MAREA":" ","LANE":" ","ALLEY":" ","HOUSE_NO":"２４５號","E_COORD97":165944.92000000001,"N_COORD97":2570287.8100000001,"ADDRESS":"和平路２４５號","OBJECTID":584050},"geometry":{"x":165944.91999999993,"y":2570287.8099999987}},{"attributes":{"ID":584078,"DIS_CODE":0,"TOWNNAME":"學甲區","LI":"仁得里","LIN":"16鄰","STREET":"和平路","SECT":" ","MAREA":" ","LANE":" ","ALLEY":" ","HOUSE_NO":"２４７號","E_COORD97":165945.73000000001,"N_COORD97":2570291.8900000001,"ADDRESS":"和平路２４７號","OBJECTID":584051},"geometry":{"x":165945.73000000231,"y":2570291.8900000025}},{"attributes":{"ID":584079,"DIS_CODE":0,"TOWNNAME":"學甲區","LI":"仁得里","LIN":"16鄰","STREET":"和平路","SECT":" ","MAREA":" ","LANE":" ","ALLEY":" ","HOUSE_NO":"２４９號","E_COORD97":165947.39999999999,"N_COORD97":2570296.23,"ADDRESS":"和平路２４９號","OBJECTID":584052},"geometry":{"x":165947.40000000037,"y":2570296.2300000023}},{"attributes":{"ID":584080,"DIS_CODE":0,"TOWNNAME":"學甲區","LI":"仁得里","LIN":"16鄰","STREET":"和平路","SECT":" ","MAREA":" ","LANE":" ","ALLEY":" ","HOUSE_NO":"２５１號","E_COORD97":165947.95000000001,"N_COORD97":2570300,"ADDRESS":"和平路２５１號","OBJECTID":584053},"geometry":{"x":165947.95000000112,"y":2570300.0000000019}},{"attributes":{"ID":584081,"DIS_CODE":0,"TOWNNAME":"學甲區","LI":"明宜里","LIN":"16鄰","STREET":"和平路","SECT":" ","MAREA":" ","LANE":" ","ALLEY":" ","HOUSE_NO":"３０８號","E_COORD97":166034.20000000001,"N_COORD97":2570552.2400000002,"ADDRESS":"和平路３０８號","OBJECTID":584054},"geometry":{"x":166034.20000000112,"y":2570552.2400000002}},{"attributes":{"ID":584082,"DIS_CODE":0,"TOWNNAME":"學甲區","LI":"明宜里","LIN":"16鄰","STREET":"和平路","SECT":" ","MAREA":" ","LANE":" ","ALLEY":" ","HOUSE_NO":"３１０號","E_COORD97":166037.01999999999,"N_COORD97":2570556.5800000001,"ADDRESS":"和平路３１０號","OBJECTID":584055},"geometry":{"x":166037.01999999955,"y":2570556.5800000001}},{"attributes":{"ID":584083,"DIS_CODE":0,"TOWNNAME":"學甲區","LI":"明宜里","LIN":"16鄰","STREET":"和平路","SECT":" ","MAREA":" ","LANE":" ","ALLEY":" ","HOUSE_NO":"３１６號","E_COORD97":166034.23999999999,"N_COORD97":2570566.0600000001,"ADDRESS":"和平路３１６號","OBJECTID":584056},"geometry":{"x":166034.24000000115,"y":2570566.0600000005}},{"attributes":{"ID":584084,"DIS_CODE":0,"TOWNNAME":"學甲區","LI":"明宜里","LIN":"16鄰","STREET":"和平路","SECT":" ","MAREA":" ","LANE":" ","ALLEY":" ","HOUSE_NO":"３１８號","E_COORD97":166035.34,"N_COORD97":2570569.77,"ADDRESS":"和平路３１８號","OBJECTID":584057},"geometry":{"x":166035.33999999985,"y":2570569.7700000014}},{"attributes":{"ID":584085,"DIS_CODE":0,"TOWNNAME":"學甲區","LI":"明宜里","LIN":"16鄰","STREET":"和平路","SECT":" ","MAREA":" ","LANE":" ","ALLEY":" ","HOUSE_NO":"３２０號","E_COORD97":166036.03,"N_COORD97":2570573.9900000002,"ADDRESS":"和平路３２０號","OBJECTID":584058},"geometry":{"x":166036.03000000026,"y":2570573.9900000002}},{"attributes":{"ID":584086,"DIS_CODE":0,"TOWNNAME":"學甲區","LI":"明宜里","LIN":"16鄰","STREET":"和平路","SECT":" ","MAREA":" ","LANE":" ","ALLEY":" ","HOUSE_NO":"３２２號","E_COORD97":166037.42999999999,"N_COORD97":2570578.7599999998,"ADDRESS":"和平路３２２號","OBJECTID":584059},"geometry":{"x":166037.43000000063,"y":2570578.7599999998}},{"attributes":{"ID":584087,"DIS_CODE":0,"TOWNNAME":"學甲區","LI":"明宜里","LIN":"16鄰","STREET":"和平路","SECT":" ","MAREA":" ","LANE":" ","ALLEY":" ","HOUSE_NO":"３２４號","E_COORD97":166038.73000000001,"N_COORD97":2570584.5,"ADDRESS":"和平路３２４號","OBJECTID":584060},"geometry":{"x":166038.73000000045,"y":2570584.5000000037}},{"attributes":{"ID":584088,"DIS_CODE":0,"TOWNNAME":"學甲區","LI":"明宜里","LIN":"16鄰","STREET":"和平路","SECT":" ","MAREA":" ","LANE":" ","ALLEY":" ","HOUSE_NO":"３３０號","E_COORD97":166046.87,"N_COORD97":2570623.8300000001,"ADDRESS":"和平路３３０號","OBJECTID":584061},"geometry":{"x":166046.87000000104,"y":2570623.8300000019}},{"attributes":{"ID":584089,"DIS_CODE":0,"TOWNNAME":"學甲區","LI":"明宜里","LIN":"16鄰","STREET":"和平路","SECT":" ","MAREA":" ","LANE":" ","ALLEY":" ","HOUSE_NO":"３３２號","E_COORD97":166048,"N_COORD97":2570629.02,"ADDRESS":"和平路３３２號","OBJECTID":584062},"geometry":{"x":166048,"y":2570629.0200000014}},{"attributes":{"ID":584090,"DIS_CODE":0,"TOWNNAME":"學甲區","LI":"明宜里","LIN":"16鄰","STREET":"和平路","SECT":" ","MAREA":" ","LANE":" ","ALLEY":" ","HOUSE_NO":"３３４號","E_COORD97":166048.91,"N_COORD97":2570633.9199999999,"ADDRESS":"和平路３３４號","OBJECTID":584063},"geometry":{"x":166048.91000000015,"y":2570633.9200000018}},{"attributes":{"ID":584091,"DIS_CODE":0,"TOWNNAME":"學甲區","LI":"明宜里","LIN":"16鄰","STREET":"和平路","SECT":" ","MAREA":" ","LANE":" ","ALLEY":" ","HOUSE_NO":"３３８號","E_COORD97":166051.45000000001,"N_COORD97":2570650.3300000001,"ADDRESS":"和平路３３８號","OBJECTID":584064},"geometry":{"x":166051.45000000112,"y":2570650.3300000038}},{"attributes":{"ID":584092,"DIS_CODE":0,"TOWNNAME":"學甲區","LI":"仁得里","LIN":"16鄰","STREET":"信義路","SECT":" ","MAREA":" ","LANE":" ","ALLEY":" ","HOUSE_NO":"３２號之１０","E_COORD97":165824.28,"N_COORD97":2570110.1800000002,"ADDRESS":"信義路３２號之１０","OBJECTID":584065},"geometry":{"x":165824.28000000026,"y":2570110.1799999997}},{"attributes":{"ID":584093,"DIS_CODE":0,"TOWNNAME":"學甲區","LI":"仁得里","LIN":"16鄰","STREET":"信義路","SECT":" ","MAREA":" ","LANE":" ","ALLEY":" ","HOUSE_NO":"３２號之１１","E_COORD97":165828.17000000001,"N_COORD97":2570109.3199999998,"ADDRESS":"信義路３２號之１１","OBJECTID":584066},"geometry":{"x":165828.16999999993,"y":2570109.3200000022}},{"attributes":{"ID":584094,"DIS_CODE":0,"TOWNNAME":"學甲區","LI":"仁得里","LIN":"16鄰","STREET":"信義路","SECT":" ","MAREA":" ","LANE":" ","ALLEY":" ","HOUSE_NO":"３２號之１","E_COORD97":165785.98000000001,"N_COORD97":2570122.8199999998,"ADDRESS":"信義路３２號之１","OBJECTID":584067},"geometry":{"x":165785.98000000045,"y":2570122.8200000022}},{"attributes":{"ID":584095,"DIS_CODE":0,"TOWNNAME":"學甲區","LI":"仁得里","LIN":"16鄰","STREET":"信義路","SECT":" ","MAREA":" ","LANE":" ","ALLEY":" ","HOUSE_NO":"３２號之３","E_COORD97":165797.26000000001,"N_COORD97":2570118.8799999999,"ADDRESS":"信義路３２號之３","OBJECTID":584068},"geometry":{"x":165797.25999999885,"y":2570118.879999999}},{"attributes":{"ID":584096,"DIS_CODE":0,"TOWNNAME":"學甲區","LI":"仁得里","LIN":"16鄰","STREET":"信義路","SECT":" ","MAREA":" ","LANE":" ","ALLEY":" ","HOUSE_NO":"３２號之４","E_COORD97":165801.03,"N_COORD97":2570117.73,"ADDRESS":"信義路３２號之４","OBJECTID":584069},"geometry":{"x":165801.02999999933,"y":2570117.7300000004}},{"attributes":{"ID":584097,"DIS_CODE":0,"TOWNNAME":"學甲區","LI":"仁得里","LIN":"16鄰","STREET":"信義路","SECT":" ","MAREA":" ","LANE":" ","ALLEY":" ","HOUSE_NO":"３２號之５","E_COORD97":165804.81,"N_COORD97":2570116.5899999999,"ADDRESS":"信義路３２號之５","OBJECTID":584070},"geometry":{"x":165804.80999999959,"y":2570116.5900000017}},{"attributes":{"ID":584098,"DIS_CODE":0,"TOWNNAME":"學甲區","LI":"仁得里","LIN":"16鄰","STREET":"信義路","SECT":" ","MAREA":" ","LANE":" ","ALLEY":" ","HOUSE_NO":"３２號之６","E_COORD97":165808.59,"N_COORD97":2570115.4399999999,"ADDRESS":"信義路３２號之６","OBJECTID":584071},"geometry":{"x":165808.58999999985,"y":2570115.4399999995}},{"attributes":{"ID":584099,"DIS_CODE":0,"TOWNNAME":"學甲區","LI":"仁得里","LIN":"16鄰","STREET":"信義路","SECT":" ","MAREA":" ","LANE":" ","ALLEY":" ","HOUSE_NO":"３２號之７","E_COORD97":165812.37,"N_COORD97":2570114.2999999998,"ADDRESS":"信義路３２號之７","OBJECTID":584072},"geometry":{"x":165812.37000000104,"y":2570114.3000000007}},{"attributes":{"ID":584100,"DIS_CODE":0,"TOWNNAME":"學甲區","LI":"仁得里","LIN":"16鄰","STREET":"信義路","SECT":" ","MAREA":" ","LANE":" ","ALLEY":" ","HOUSE_NO":"３２號之８","E_COORD97":165816.20000000001,"N_COORD97":2570113.1000000001,"ADDRESS":"信義路３２號之８","OBJECTID":584073},"geometry":{"x":165816.20000000019,"y":2570113.1000000015}},{"attributes":{"ID":584101,"DIS_CODE":0,"TOWNNAME":"學甲區","LI":"仁得里","LIN":"16鄰","STREET":"信義路","SECT":" ","MAREA":" ","LANE":" ","ALLEY":" ","HOUSE_NO":"３２號之９","E_COORD97":165820.35999999999,"N_COORD97":2570112,"ADDRESS":"信義路３２號之９","OBJECTID":584074},"geometry":{"x":165820.36000000034,"y":2570112}},{"attributes":{"ID":584102,"DIS_CODE":0,"TOWNNAME":"學甲區","LI":"仁得里","LIN":"16鄰","STREET":"信義路","SECT":" ","MAREA":" ","LANE":" ","ALLEY":" ","HOUSE_NO":"３４號之１０","E_COORD97":165837.19,"N_COORD97":2570125.6499999999,"ADDRESS":"信義路３４號之１０","OBJECTID":584075},"geometry":{"x":165837.19000000041,"y":2570125.6500000004}},{"attributes":{"ID":584103,"DIS_CODE":0,"TOWNNAME":"學甲區","LI":"仁得里","LIN":"16鄰","STREET":"信義路","SECT":" ","MAREA":" ","LANE":" ","ALLEY":" ","HOUSE_NO":"３４號之１１","E_COORD97":165841.29999999999,"N_COORD97":2570124.6400000001,"ADDRESS":"信義路３４號之１１","OBJECTID":584076},"geometry":{"x":165841.30000000168,"y":2570124.6400000025}},{"attributes":{"ID":584104,"DIS_CODE":0,"TOWNNAME":"學甲區","LI":"仁得里","LIN":"16鄰","STREET":"信義路","SECT":" ","MAREA":" ","LANE":" ","ALLEY":" ","HOUSE_NO":"３４號之１２","E_COORD97":165845.16,"N_COORD97":2570123.52,"ADDRESS":"信義路３４號之１２","OBJECTID":584077},"geometry":{"x":165845.16000000015,"y":2570123.5200000014}},{"attributes":{"ID":584105,"DIS_CODE":0,"TOWNNAME":"學甲區","LI":"仁得里","LIN":"16鄰","STREET":"信義路","SECT":" ","MAREA":" ","LANE":" ","ALLEY":" ","HOUSE_NO":"３４號之１３","E_COORD97":165848.97,"N_COORD97":2570122.5800000001,"ADDRESS":"信義路３４號之１３","OBJECTID":584078},"geometry":{"x":165848.97000000067,"y":2570122.5800000001}},{"attributes":{"ID":584106,"DIS_CODE":0,"TOWNNAME":"學甲區","LI":"仁得里","LIN":"16鄰","STREET":"信義路","SECT":" ","MAREA":" ","LANE":" ","ALLEY":" ","HOUSE_NO":"３４號之１８","E_COORD97":165820.67999999999,"N_COORD97":2570149.77,"ADDRESS":"信義路３４號之１８","OBJECTID":584079},"geometry":{"x":165820.68000000063,"y":2570149.7700000014}},{"attributes":{"ID":584107,"DIS_CODE":0,"TOWNNAME":"學甲區","LI":"仁得里","LIN":"16鄰","STREET":"信義路","SECT":" ","MAREA":" ","LANE":" ","ALLEY":" ","HOUSE_NO":"３４號之２","E_COORD97":165794.54999999999,"N_COORD97":2570148.23,"ADDRESS":"信義路３４號之２","OBJECTID":584080},"geometry":{"x":165794.55000000075,"y":2570148.2300000004}},{"attributes":{"ID":584108,"DIS_CODE":0,"TOWNNAME":"學甲區","LI":"仁得里","LIN":"16鄰","STREET":"信義路","SECT":" ","MAREA":" ","LANE":" ","ALLEY":" ","HOUSE_NO":"３４號之３","E_COORD97":165809.19,"N_COORD97":2570134.3999999999,"ADDRESS":"信義路３４號之３","OBJECTID":584081},"geometry":{"x":165809.19000000134,"y":2570134.3999999985}},{"attributes":{"ID":584109,"DIS_CODE":0,"TOWNNAME":"學甲區","LI":"仁得里","LIN":"16鄰","STREET":"信義路","SECT":" ","MAREA":" ","LANE":" ","ALLEY":" ","HOUSE_NO":"３４號之４","E_COORD97":165813.53,"N_COORD97":2570133.02,"ADDRESS":"信義路３４號之４","OBJECTID":584082},"geometry":{"x":165813.53000000119,"y":2570133.0200000033}},{"attributes":{"ID":584110,"DIS_CODE":0,"TOWNNAME":"學甲區","LI":"仁得里","LIN":"16鄰","STREET":"信義路","SECT":" ","MAREA":" ","LANE":" ","ALLEY":" ","HOUSE_NO":"３４號之５","E_COORD97":165817.06,"N_COORD97":2570131.9500000002,"ADDRESS":"信義路３４號之５","OBJECTID":584083},"geometry":{"x":165817.05999999866,"y":2570131.9499999993}},{"attributes":{"ID":584111,"DIS_CODE":0,"TOWNNAME":"學甲區","LI":"仁得里","LIN":"16鄰","STREET":"信義路","SECT":" ","MAREA":" ","LANE":" ","ALLEY":" ","HOUSE_NO":"３４號之６","E_COORD97":165821.07000000001,"N_COORD97":2570130.73,"ADDRESS":"信義路３４號之６","OBJECTID":584084},"geometry":{"x":165821.0700000003,"y":2570130.7300000023}},{"attributes":{"ID":584112,"DIS_CODE":0,"TOWNNAME":"學甲區","LI":"仁得里","LIN":"16鄰","STREET":"信義路","SECT":" ","MAREA":" ","LANE":" ","ALLEY":" ","HOUSE_NO":"３４號之８","E_COORD97":165829.42000000001,"N_COORD97":2570128.0600000001,"ADDRESS":"信義路３４號之８","OBJECTID":584085},"geometry":{"x":165829.42000000086,"y":2570128.0600000024}},{"attributes":{"ID":584113,"DIS_CODE":0,"TOWNNAME":"學甲區","LI":"仁得里","LIN":"16鄰","STREET":"信義路","SECT":" ","MAREA":" ","LANE":" ","ALLEY":" ","HOUSE_NO":"３４號之９","E_COORD97":165833.04999999999,"N_COORD97":2570126.8900000001,"ADDRESS":"信義路３４號之９","OBJECTID":584086},"geometry":{"x":165833.05000000075,"y":2570126.8900000006}},{"attributes":{"ID":584114,"DIS_CODE":0,"TOWNNAME":"學甲區","LI":"仁得里","LIN":"16鄰","STREET":"信義路","SECT":" ","MAREA":" ","LANE":" ","ALLEY":" ","HOUSE_NO":"３４號","E_COORD97":165791.28,"N_COORD97":2570139.3599999999,"ADDRESS":"信義路３４號","OBJECTID":584087},"geometry":{"x":165791.28000000119,"y":2570139.3599999994}},{"attributes":{"ID":584115,"DIS_CODE":0,"TOWNNAME":"學甲區","LI":"仁得里","LIN":"16鄰","STREET":"信義路","SECT":" ","MAREA":" ","LANE":" ","ALLEY":" ","HOUSE_NO":"３６號之１０","E_COORD97":165841.26000000001,"N_COORD97":2570250.8799999999,"ADDRESS":"信義路３６號之１０","OBJECTID":584088},"geometry":{"x":165841.25999999978,"y":2570250.879999999}},{"attributes":{"ID":584116,"DIS_CODE":0,"TOWNNAME":"學甲區","LI":"仁得里","LIN":"16鄰","STREET":"信義路","SECT":" ","MAREA":" ","LANE":" ","ALLEY":" ","HOUSE_NO":"３６號之５","E_COORD97":165835.12,"N_COORD97":2570237.5699999998,"ADDRESS":"信義路３６號之５","OBJECTID":584089},"geometry":{"x":165835.12000000011,"y":2570237.5700000003}},{"attributes":{"ID":584117,"DIS_CODE":0,"TOWNNAME":"學甲區","LI":"仁得里","LIN":"16鄰","STREET":"信義路","SECT":" ","MAREA":" ","LANE":" ","ALLEY":" ","HOUSE_NO":"３６號之６","E_COORD97":165836.75,"N_COORD97":2570241.7799999998,"ADDRESS":"信義路３６號之６","OBJECTID":584090},"geometry":{"x":165836.75000000186,"y":2570241.7799999993}},{"attributes":{"ID":584118,"DIS_CODE":0,"TOWNNAME":"學甲區","LI":"仁得里","LIN":"16鄰","STREET":"信義路","SECT":" ","MAREA":" ","LANE":" ","ALLEY":" ","HOUSE_NO":"３６號之７","E_COORD97":165855.89999999999,"N_COORD97":2570235.8399999999,"ADDRESS":"信義路３６號之７","OBJECTID":584091},"geometry":{"x":165855.90000000037,"y":2570235.8399999999}},{"attributes":{"ID":584119,"DIS_CODE":0,"TOWNNAME":"學甲區","LI":"仁得里","LIN":"16鄰","STREET":"信義路","SECT":" ","MAREA":" ","LANE":" ","ALLEY":" ","HOUSE_NO":"３６號之８","E_COORD97":165854.22,"N_COORD97":2570230.6899999999,"ADDRESS":"信義路３６號之８","OBJECTID":584092},"geometry":{"x":165854.22000000067,"y":2570230.6900000013}},{"attributes":{"ID":584120,"DIS_CODE":0,"TOWNNAME":"學甲區","LI":"仁得里","LIN":"16鄰","STREET":"信義路","SECT":" ","MAREA":" ","LANE":" ","ALLEY":" ","HOUSE_NO":"３６號之９","E_COORD97":165839.41,"N_COORD97":2570247.2000000002,"ADDRESS":"信義路３６號之９","OBJECTID":584093},"geometry":{"x":165839.41000000108,"y":2570247.2000000011}},{"attributes":{"ID":584121,"DIS_CODE":0,"TOWNNAME":"學甲區","LI":"仁得里","LIN":"16鄰","STREET":"信義路","SECT":" ","MAREA":" ","LANE":" ","ALLEY":" ","HOUSE_NO":"３８號之１","E_COORD97":165847.14000000001,"N_COORD97":2570264.8799999999,"ADDRESS":"信義路３８號之１","OBJECTID":584094},"geometry":{"x":165847.13999999873,"y":2570264.879999999}},{"attributes":{"ID":584122,"DIS_CODE":0,"TOWNNAME":"學甲區","LI":"仁得里","LIN":"16鄰","STREET":"信義路","SECT":" ","MAREA":" ","LANE":" ","ALLEY":" ","HOUSE_NO":"３８號之２","E_COORD97":165848.64999999999,"N_COORD97":2570269.5899999999,"ADDRESS":"信義路３８號之２","OBJECTID":584095},"geometry":{"x":165848.6500000013,"y":2570269.5900000017}},{"attributes":{"ID":584123,"DIS_CODE":0,"TOWNNAME":"學甲區","LI":"仁得里","LIN":"16鄰","STREET":"信義路","SECT":" ","MAREA":" ","LANE":" ","ALLEY":" ","HOUSE_NO":"３８號之３","E_COORD97":165850.07000000001,"N_COORD97":2570274.8199999998,"ADDRESS":"信義路３８號之３","OBJECTID":584096},"geometry":{"x":165850.07000000216,"y":2570274.8200000022}},{"attributes":{"ID":584124,"DIS_CODE":0,"TOWNNAME":"學甲區","LI":"仁得里","LIN":"16鄰","STREET":"信義路","SECT":" ","MAREA":" ","LANE":" ","ALLEY":" ","HOUSE_NO":"３８號之４","E_COORD97":165855.53,"N_COORD97":2570290.25,"ADDRESS":"信義路３８號之４","OBJECTID":584097},"geometry":{"x":165855.53000000119,"y":2570290.25}},{"attributes":{"ID":584125,"DIS_CODE":0,"TOWNNAME":"學甲區","LI":"仁得里","LIN":"16鄰","STREET":"信義路","SECT":" ","MAREA":" ","LANE":" ","ALLEY":" ","HOUSE_NO":"３８號之５","E_COORD97":165856.67999999999,"N_COORD97":2570296.2200000002,"ADDRESS":"信義路３８號之５","OBJECTID":584098},"geometry":{"x":165856.6799999997,"y":2570296.2200000025}},{"attributes":{"ID":584126,"DIS_CODE":0,"TOWNNAME":"學甲區","LI":"仁得里","LIN":"16鄰","STREET":"信義路","SECT":" ","MAREA":" ","LANE":" ","ALLEY":" ","HOUSE_NO":"３８號","E_COORD97":165846.67000000001,"N_COORD97":2570259.6200000001,"ADDRESS":"信義路３８號","OBJECTID":584099},"geometry":{"x":165846.66999999993,"y":2570259.6200000029}},{"attributes":{"ID":584127,"DIS_CODE":0,"TOWNNAME":"學甲區","LI":"仁得里","LIN":"16鄰","STREET":"信義路","SECT":" ","MAREA":" ","LANE":" ","ALLEY":" ","HOUSE_NO":"４０號之３","E_COORD97":165865.59,"N_COORD97":2570314.7799999998,"ADDRESS":"信義路４０號之３","OBJECTID":584100},"geometry":{"x":165865.58999999985,"y":2570314.7800000012}},{"attributes":{"ID":584128,"DIS_CODE":0,"TOWNNAME":"學甲區","LI":"仁得里","LIN":"16鄰","STREET":"信義路","SECT":" ","MAREA":" ","LANE":" ","ALLEY":" ","HOUSE_NO":"４０號","E_COORD97":165861.92999999999,"N_COORD97":2570305.96,"ADDRESS":"信義路４０號","OBJECTID":584101},"geometry":{"x":165861.9299999997,"y":2570305.9600000028}},{"attributes":{"ID":584129,"DIS_CODE":0,"TOWNNAME":"學甲區","LI":"仁得里","LIN":"16鄰","STREET":"信義路","SECT":" ","MAREA":" ","LANE":" ","ALLEY":" ","HOUSE_NO":"４２號","E_COORD97":165876.13,"N_COORD97":2570317.9900000002,"ADDRESS":"信義路４２號","OBJECTID":584102},"geometry":{"x":165876.12999999989,"y":2570317.9900000021}},{"attributes":{"ID":584130,"DIS_CODE":0,"TOWNNAME":"學甲區","LI":"仁得里","LIN":"16鄰","STREET":"建國路","SECT":" ","MAREA":" ","LANE":" ","ALLEY":" ","HOUSE_NO":"１０４號","E_COORD97":165883.01999999999,"N_COORD97":2570074.23,"ADDRESS":"建國路１０４號","OBJECTID":584103},"geometry":{"x":165883.01999999955,"y":2570074.2300000004}},{"attributes":{"ID":584131,"DIS_CODE":0,"TOWNNAME":"學甲區","LI":"仁得里","LIN":"16鄰","STREET":"建國路","SECT":" ","MAREA":" ","LANE":" ","ALLEY":" ","HOUSE_NO":"１０６號","E_COORD97":165878.13,"N_COORD97":2570075.3300000001,"ADDRESS":"建國路１０６號","OBJECTID":584104},"geometry":{"x":165878.13000000175,"y":2570075.3300000019}},{"attributes":{"ID":584132,"DIS_CODE":0,"TOWNNAME":"學甲區","LI":"仁得里","LIN":"16鄰","STREET":"建國路","SECT":" ","MAREA":" ","LANE":" ","ALLEY":" ","HOUSE_NO":"１０８號","E_COORD97":165872.62,"N_COORD97":2570079.9300000002,"ADDRESS":"建國路１０８號","OBJECTID":584105},"geometry":{"x":165872.62000000011,"y":2570079.9300000016}},{"attributes":{"ID":584133,"DIS_CODE":0,"TOWNNAME":"學甲區","LI":"仁得里","LIN":"16鄰","STREET":"建國路","SECT":" ","MAREA":" ","LANE":" ","ALLEY":" ","HOUSE_NO":"１１６號","E_COORD97":165839.78,"N_COORD97":2570084.1299999999,"ADDRESS":"建國路１１６號","OBJECTID":584106},"geometry":{"x":165839.78000000026,"y":2570084.1300000027}},{"attributes":{"ID":584134,"DIS_CODE":0,"TOWNNAME":"學甲區","LI":"仁得里","LIN":"16鄰","STREET":"建國路","SECT":" ","MAREA":" ","LANE":" ","ALLEY":" ","HOUSE_NO":"１１８號","E_COORD97":165835.29000000001,"N_COORD97":2570085.1299999999,"ADDRESS":"建國路１１８號","OBJECTID":584107},"geometry":{"x":165835.29000000097,"y":2570085.1300000008}},{"attributes":{"ID":584135,"DIS_CODE":0,"TOWNNAME":"學甲區","LI":"仁得里","LIN":"16鄰","STREET":"建國路","SECT":" ","MAREA":" ","LANE":" ","ALLEY":" ","HOUSE_NO":"１２０號","E_COORD97":165830.81,"N_COORD97":2570086.46,"ADDRESS":"建國路１２０號","OBJECTID":584108},"geometry":{"x":165830.81000000145,"y":2570086.4600000009}},{"attributes":{"ID":584136,"DIS_CODE":0,"TOWNNAME":"學甲區","LI":"仁得里","LIN":"16鄰","STREET":"建國路","SECT":" ","MAREA":" ","LANE":" ","ALLEY":" ","HOUSE_NO":"１２２號","E_COORD97":165821,"N_COORD97":2570089.0800000001,"ADDRESS":"建國路１２２號","OBJECTID":584109},"geometry":{"x":165821,"y":2570089.0800000038}},{"attributes":{"ID":584137,"DIS_CODE":0,"TOWNNAME":"學甲區","LI":"仁得里","LIN":"16鄰","STREET":"建國路","SECT":" ","MAREA":" ","LANE":" ","ALLEY":" ","HOUSE_NO":"１４０號","E_COORD97":165800.72,"N_COORD97":2570100.9300000002,"ADDRESS":"建國路１４０號","OBJECTID":584110},"geometry":{"x":165800.71999999974,"y":2570100.9300000016}},{"attributes":{"ID":584138,"DIS_CODE":0,"TOWNNAME":"學甲區","LI":"仁得里","LIN":"16鄰","STREET":"建國路","SECT":" ","MAREA":" ","LANE":" ","ALLEY":" ","HOUSE_NO":"１４２號","E_COORD97":165796.17000000001,"N_COORD97":2570102.46,"ADDRESS":"建國路１４２號","OBJECTID":584111},"geometry":{"x":165796.16999999993,"y":2570102.4600000028}},{"attributes":{"ID":584139,"DIS_CODE":0,"TOWNNAME":"學甲區","LI":"仁得里","LIN":"16鄰","STREET":"建國路","SECT":" ","MAREA":" ","LANE":" ","ALLEY":" ","HOUSE_NO":"１４４號","E_COORD97":165790.78,"N_COORD97":2570101.6800000002,"ADDRESS":"建國路１４４號","OBJECTID":584112},"geometry":{"x":165790.78000000026,"y":2570101.6800000034}},{"attributes":{"ID":584140,"DIS_CODE":0,"TOWNNAME":"學甲區","LI":"仁得里","LIN":"16鄰","STREET":"建國路","SECT":" ","MAREA":" ","LANE":" ","ALLEY":" ","HOUSE_NO":"１４６號","E_COORD97":165786.04000000001,"N_COORD97":2570102.9500000002,"ADDRESS":"建國路１４６號","OBJECTID":584113},"geometry":{"x":165786.04000000097,"y":2570102.9500000011}},{"attributes":{"ID":584141,"DIS_CODE":0,"TOWNNAME":"學甲區","LI":"仁得里","LIN":"16鄰","STREET":"建國路","SECT":" ","MAREA":" ","LANE":" ","ALLEY":" ","HOUSE_NO":"１４８號","E_COORD97":165780.85000000001,"N_COORD97":2570104.3300000001,"ADDRESS":"建國路１４８號","OBJECTID":584114},"geometry":{"x":165780.84999999963,"y":2570104.3300000038}},{"attributes":{"ID":584142,"DIS_CODE":0,"TOWNNAME":"學甲區","LI":"仁得里","LIN":"16鄰","STREET":"建國路","SECT":" ","MAREA":" ","LANE":" ","ALLEY":" ","HOUSE_NO":"１５０號","E_COORD97":165774.54000000001,"N_COORD97":2570106.1699999999,"ADDRESS":"建國路１５０號","OBJECTID":584115},"geometry":{"x":165774.54000000097,"y":2570106.1700000018}},{"attributes":{"ID":584143,"DIS_CODE":0,"TOWNNAME":"學甲區","LI":"明宜里","LIN":"16鄰","STREET":"重信路","SECT":" ","MAREA":" ","LANE":" ","ALLEY":" ","HOUSE_NO":"１０號","E_COORD97":166064.79000000001,"N_COORD97":2570596.6899999999,"ADDRESS":"重信路１０號","OBJECTID":584116},"geometry":{"x":166064.79000000004,"y":2570596.6900000013}},{"attributes":{"ID":584144,"DIS_CODE":0,"TOWNNAME":"學甲區","LI":"明宜里","LIN":"16鄰","STREET":"重信路","SECT":" ","MAREA":" ","LANE":" ","ALLEY":" ","HOUSE_NO":"１２號之１","E_COORD97":166055.03,"N_COORD97":2570597.7999999998,"ADDRESS":"重信路１２號之１","OBJECTID":584117},"geometry":{"x":166055.03000000026,"y":2570597.8000000026}},{"attributes":{"ID":584145,"DIS_CODE":0,"TOWNNAME":"學甲區","LI":"明宜里","LIN":"16鄰","STREET":"重信路","SECT":" ","MAREA":" ","LANE":" ","ALLEY":" ","HOUSE_NO":"１２號之２","E_COORD97":166051.31,"N_COORD97":2570598.3700000001,"ADDRESS":"重信路１２號之２","OBJECTID":584118},"geometry":{"x":166051.31000000052,"y":2570598.370000001}},{"attributes":{"ID":584146,"DIS_CODE":0,"TOWNNAME":"學甲區","LI":"明宜里","LIN":"16鄰","STREET":"重信路","SECT":" ","MAREA":" ","LANE":" ","ALLEY":" ","HOUSE_NO":"１２號之３","E_COORD97":166046.72,"N_COORD97":2570599.4500000002,"ADDRESS":"重信路１２號之３","OBJECTID":584119},"geometry":{"x":166046.7200000016,"y":2570599.4499999993}},{"attributes":{"ID":584147,"DIS_CODE":0,"TOWNNAME":"學甲區","LI":"明宜里","LIN":"16鄰","STREET":"重信路","SECT":" ","MAREA":" ","LANE":" ","ALLEY":" ","HOUSE_NO":"１２號之４","E_COORD97":166041.70000000001,"N_COORD97":2570600.6400000001,"ADDRESS":"重信路１２號之４","OBJECTID":584120},"geometry":{"x":166041.70000000019,"y":2570600.6400000006}},{"attributes":{"ID":584148,"DIS_CODE":0,"TOWNNAME":"學甲區","LI":"明宜里","LIN":"16鄰","STREET":"重信路","SECT":" ","MAREA":" ","LANE":" ","ALLEY":" ","HOUSE_NO":"１２號","E_COORD97":166058.75,"N_COORD97":2570597.23,"ADDRESS":"重信路１２號","OBJECTID":584121},"geometry":{"x":166058.75000000186,"y":2570597.2300000023}},{"attributes":{"ID":584149,"DIS_CODE":0,"TOWNNAME":"學甲區","LI":"明宜里","LIN":"16鄰","STREET":"重信路","SECT":" ","MAREA":" ","LANE":" ","ALLEY":" ","HOUSE_NO":"３號之２","E_COORD97":166076.31,"N_COORD97":2570573.8799999999,"ADDRESS":"重信路３號之２","OBJECTID":584122},"geometry":{"x":166076.30999999959,"y":2570573.8800000027}},{"attributes":{"ID":584150,"DIS_CODE":0,"TOWNNAME":"學甲區","LI":"明宜里","LIN":"16鄰","STREET":"重信路","SECT":" ","MAREA":" ","LANE":" ","ALLEY":" ","HOUSE_NO":"３號之５","E_COORD97":166064.69,"N_COORD97":2570577.0899999999,"ADDRESS":"重信路３號之５","OBJECTID":584123},"geometry":{"x":166064.69000000227,"y":2570577.0900000036}},{"attributes":{"ID":584151,"DIS_CODE":0,"TOWNNAME":"學甲區","LI":"明宜里","LIN":"16鄰","STREET":"重信路","SECT":" ","MAREA":" ","LANE":" ","ALLEY":" ","HOUSE_NO":"３號之６","E_COORD97":166059.69,"N_COORD97":2570577.9399999999,"ADDRESS":"重信路３號之６","OBJECTID":584124},"geometry":{"x":166059.69000000227,"y":2570577.9400000013}},{"attributes":{"ID":584152,"DIS_CODE":0,"TOWNNAME":"學甲區","LI":"明宜里","LIN":"16鄰","STREET":"重信路","SECT":" ","MAREA":" ","LANE":" ","ALLEY":" ","HOUSE_NO":"３號之７","E_COORD97":166054.51000000001,"N_COORD97":2570579.4399999999,"ADDRESS":"重信路３號之７","OBJECTID":584125},"geometry":{"x":166054.50999999978,"y":2570579.4399999995}},{"attributes":{"ID":584153,"DIS_CODE":0,"TOWNNAME":"學甲區","LI":"明宜里","LIN":"16鄰","STREET":"重信路","SECT":" ","MAREA":" ","LANE":" ","ALLEY":" ","HOUSE_NO":"３號","E_COORD97":166086.14999999999,"N_COORD97":2570558.29,"ADDRESS":"重信路３號","OBJECTID":584126},"geometry":{"x":166086.15000000037,"y":2570558.290000001}},{"attributes":{"ID":584154,"DIS_CODE":0,"TOWNNAME":"學甲區","LI":"明宜里","LIN":"16鄰","STREET":"重信路","SECT":" ","MAREA":" ","LANE":" ","ALLEY":" ","HOUSE_NO":"６號","E_COORD97":166106.17999999999,"N_COORD97":2570590.1899999999,"ADDRESS":"重信路６號","OBJECTID":584127},"geometry":{"x":166106.1799999997,"y":2570590.1900000013}},{"attributes":{"ID":584155,"DIS_CODE":0,"TOWNNAME":"北區","LI":"大豐里","LIN":"16鄰","STREET":"武聖路","SECT":" ","MAREA":" ","LANE":" ","ALLEY":" ","HOUSE_NO":"１６８號","E_COORD97":166924.60999999999,"N_COORD97":2545276.9199999999,"ADDRESS":"武聖路１６８號","OBJECTID":584128},"geometry":{"x":166924.6100000022,"y":2545276.9200000018}},{"attributes":{"ID":584156,"DIS_CODE":0,"TOWNNAME":"北區","LI":"大豐里","LIN":"16鄰","STREET":"武聖路","SECT":" ","MAREA":" ","LANE":" ","ALLEY":" ","HOUSE_NO":"１８２號","E_COORD97":166895.10000000001,"N_COORD97":2545292.9500000002,"ADDRESS":"武聖路１８２號","OBJECTID":584129},"geometry":{"x":166895.10000000149,"y":2545292.9500000011}},{"attributes":{"ID":584157,"DIS_CODE":0,"TOWNNAME":"北區","LI":"大豐里","LIN":"16鄰","STREET":"武聖路","SECT":" ","MAREA":" ","LANE":" ","ALLEY":" ","HOUSE_NO":"１９２號","E_COORD97":166863.73999999999,"N_COORD97":2545309.1699999999,"ADDRESS":"武聖路１９２號","OBJECTID":584130},"geometry":{"x":166863.74000000022,"y":2545309.1700000018}},{"attributes":{"ID":584158,"DIS_CODE":0,"TOWNNAME":"北區","LI":"大豐里","LIN":"16鄰","STREET":"武聖路","SECT":" ","MAREA":" ","LANE":" ","ALLEY":" ","HOUSE_NO":"１９４號","E_COORD97":166859.54999999999,"N_COORD97":2545311.1000000001,"ADDRESS":"武聖路１９４號","OBJECTID":584131},"geometry":{"x":166859.54999999981,"y":2545311.0999999996}},{"attributes":{"ID":584159,"DIS_CODE":0,"TOWNNAME":"北區","LI":"大豐里","LIN":"16鄰","STREET":"武聖路","SECT":" ","MAREA":" ","LANE":" ","ALLEY":" ","HOUSE_NO":"２４６號之１","E_COORD97":166719.76999999999,"N_COORD97":2545455.8700000001,"ADDRESS":"武聖路２４６號之１","OBJECTID":584132},"geometry":{"x":166719.77000000048,"y":2545455.870000001}},{"attributes":{"ID":584160,"DIS_CODE":0,"TOWNNAME":"東區","LI":"泉南里","LIN":"15鄰","STREET":"府連東路","SECT":" ","MAREA":" ","LANE":" ","ALLEY":" ","HOUSE_NO":"２７號","E_COORD97":169778.04999999999,"N_COORD97":2542780.8599999999,"ADDRESS":"府連東路２７號","OBJECTID":584133},"geometry":{"x":169778.05000000075,"y":2542780.8600000013}},{"attributes":{"ID":584161,"DIS_CODE":0,"TOWNNAME":"東區","LI":"泉南里","LIN":"15鄰","STREET":"府連東路","SECT":" ","MAREA":" ","LANE":" ","ALLEY":" ","HOUSE_NO":"２９號","E_COORD97":169781.67999999999,"N_COORD97":2542780.1299999999,"ADDRESS":"府連東路２９號","OBJECTID":584134},"geometry":{"x":169781.68000000063,"y":2542780.129999999}},{"attributes":{"ID":584162,"DIS_CODE":0,"TOWNNAME":"東區","LI":"莊敬里","LIN":"23鄰","STREET":"莊敬路","SECT":" ","MAREA":" ","LANE":" ","ALLEY":" ","HOUSE_NO":"１０６號","E_COORD97":171367.45999999999,"N_COORD97":2543955.6400000001,"ADDRESS":"莊敬路１０６號","OBJECTID":584135},"geometry":{"x":171367.45999999996,"y":2543955.6400000006}},{"attributes":{"ID":584163,"DIS_CODE":0,"TOWNNAME":"東區","LI":"泉南里","LIN":"3鄰","STREET":"府東街","SECT":" ","MAREA":" ","LANE":" ","ALLEY":" ","HOUSE_NO":"１５０號","E_COORD97":169584.66,"N_COORD97":2543050.21,"ADDRESS":"府東街１５０號","OBJECTID":584136},"geometry":{"x":169584.66000000015,"y":2543050.2100000009}},{"attributes":{"ID":584164,"DIS_CODE":0,"TOWNNAME":"北區","LI":"大豐里","LIN":"16鄰","STREET":"武聖路","SECT":" ","MAREA":" ","LANE":" ","ALLEY":" ","HOUSE_NO":"１８６號","E_COORD97":166885.95000000001,"N_COORD97":2545297.23,"ADDRESS":"武聖路１８６號","OBJECTID":584137},"geometry":{"x":166885.95000000019,"y":2545297.2300000004}},{"attributes":{"ID":584165,"DIS_CODE":0,"TOWNNAME":"北區","LI":"大豐里","LIN":"16鄰","STREET":"武聖路","SECT":" ","MAREA":" ","LANE":" ","ALLEY":" ","HOUSE_NO":"１９８號","E_COORD97":166846.62,"N_COORD97":2545317.4900000002,"ADDRESS":"武聖路１９８號","OBJECTID":584138},"geometry":{"x":166846.62000000104,"y":2545317.4900000021}},{"attributes":{"ID":584166,"DIS_CODE":0,"TOWNNAME":"北區","LI":"新勝里","LIN":"16鄰","STREET":"長榮路","SECT":"五段","MAREA":" ","LANE":" ","ALLEY":" ","HOUSE_NO":"１９５號","E_COORD97":170051.57999999999,"N_COORD97":2545838.46,"ADDRESS":"長榮路五段１９５號","OBJECTID":584139},"geometry":{"x":170051.58000000007,"y":2545838.4600000009}},{"attributes":{"ID":584167,"DIS_CODE":0,"TOWNNAME":"北區","LI":"新勝里","LIN":"16鄰","STREET":"長榮路","SECT":"五段","MAREA":" ","LANE":" ","ALLEY":" ","HOUSE_NO":"１９７號","E_COORD97":170051.76999999999,"N_COORD97":2545843.0699999998,"ADDRESS":"長榮路五段１９７號","OBJECTID":584140},"geometry":{"x":170051.76999999955,"y":2545843.0700000003}},{"attributes":{"ID":584168,"DIS_CODE":0,"TOWNNAME":"北區","LI":"新勝里","LIN":"16鄰","STREET":"長榮路","SECT":"五段","MAREA":" ","LANE":" ","ALLEY":" ","HOUSE_NO":"２０１號","E_COORD97":170052.42000000001,"N_COORD97":2545851.8199999998,"ADDRESS":"長榮路五段２０１號","OBJECTID":584141},"geometry":{"x":170052.41999999993,"y":2545851.8200000003}},{"attributes":{"ID":584169,"DIS_CODE":0,"TOWNNAME":"北區","LI":"新勝里","LIN":"16鄰","STREET":"長榮路","SECT":"五段","MAREA":" ","LANE":" ","ALLEY":" ","HOUSE_NO":"２０３號","E_COORD97":170052.54999999999,"N_COORD97":2545856.9500000002,"ADDRESS":"長榮路五段２０３號","OBJECTID":584142},"geometry":{"x":170052.55000000075,"y":2545856.9499999993}},{"attributes":{"ID":584170,"DIS_CODE":0,"TOWNNAME":"北區","LI":"新勝里","LIN":"16鄰","STREET":"長榮路","SECT":"五段","MAREA":" ","LANE":" ","ALLEY":" ","HOUSE_NO":"２０５號","E_COORD97":170051.70999999999,"N_COORD97":2545860.6600000001,"ADDRESS":"長榮路五段２０５號","OBJECTID":584143},"geometry":{"x":170051.71000000089,"y":2545860.6599999983}},{"attributes":{"ID":584171,"DIS_CODE":0,"TOWNNAME":"北區","LI":"大豐里","LIN":"16鄰","STREET":"武聖路","SECT":" ","MAREA":" ","LANE":" ","ALLEY":" ","HOUSE_NO":"１９０號","E_COORD97":166868.72,"N_COORD97":2545307.1800000002,"ADDRESS":"武聖路１９０號","OBJECTID":584144},"geometry":{"x":166868.71999999974,"y":2545307.1799999997}},{"attributes":{"ID":584172,"DIS_CODE":0,"TOWNNAME":"北區","LI":"大豐里","LIN":"16鄰","STREET":"武聖路","SECT":" ","MAREA":" ","LANE":" ","ALLEY":" ","HOUSE_NO":"１８４號","E_COORD97":166890.51999999999,"N_COORD97":2545295.1499999999,"ADDRESS":"武聖路１８４號","OBJECTID":584145},"geometry":{"x":166890.52000000142,"y":2545295.1500000041}},{"attributes":{"ID":584173,"DIS_CODE":0,"TOWNNAME":"歸仁區","LI":"七甲里","LIN":"16鄰","STREET":"南潭二街","SECT":" ","MAREA":" ","LANE":" ","ALLEY":" ","HOUSE_NO":"１５０號","E_COORD97":176489.34,"N_COORD97":2543005.0099999998,"ADDRESS":"南潭二街１５０號","OBJECTID":584146},"geometry":{"x":176489.33999999985,"y":2543005.0100000016}},{"attributes":{"ID":584174,"DIS_CODE":0,"TOWNNAME":"歸仁區","LI":"大廟里","LIN":"16鄰","STREET":"大廟六街","SECT":" ","MAREA":" ","LANE":" ","ALLEY":" ","HOUSE_NO":"２７號","E_COORD97":176035.38,"N_COORD97":2544247.0899999999,"ADDRESS":"大廟六街２７號","OBJECTID":584147},"geometry":{"x":176035.37999999989,"y":2544247.089999998}},{"attributes":{"ID":584175,"DIS_CODE":0,"TOWNNAME":"歸仁區","LI":"大潭里","LIN":"16鄰","STREET":"大潭二街","SECT":" ","MAREA":" ","LANE":" ","ALLEY":" ","HOUSE_NO":"２６號","E_COORD97":175056.16,"N_COORD97":2534698.25,"ADDRESS":"大潭二街２６號","OBJECTID":584148},"geometry":{"x":175056.16000000108,"y":2534698.25}},{"attributes":{"ID":584176,"DIS_CODE":0,"TOWNNAME":"歸仁區","LI":"七甲里","LIN":"16鄰","STREET":"南潭二街","SECT":" ","MAREA":" ","LANE":" ","ALLEY":" ","HOUSE_NO":"１４８號","E_COORD97":176484.23999999999,"N_COORD97":2543005.0099999998,"ADDRESS":"南潭二街１４８號","OBJECTID":584149},"geometry":{"x":176484.24000000022,"y":2543005.0100000016}},{"attributes":{"ID":584177,"DIS_CODE":0,"TOWNNAME":"歸仁區","LI":"七甲里","LIN":"16鄰","STREET":"南潭二街","SECT":" ","MAREA":" ","LANE":" ","ALLEY":" ","HOUSE_NO":"１３２號","E_COORD97":176450.44,"N_COORD97":2543005.0099999998,"ADDRESS":"南潭二街１３２號","OBJECTID":584150},"geometry":{"x":176450.44000000041,"y":2543005.0100000016}},{"attributes":{"ID":584178,"DIS_CODE":0,"TOWNNAME":"歸仁區","LI":"七甲里","LIN":"16鄰","STREET":"南潭二街","SECT":" ","MAREA":" ","LANE":" ","ALLEY":" ","HOUSE_NO":"１４６號","E_COORD97":176481.14000000001,"N_COORD97":2543005.0099999998,"ADDRESS":"南潭二街１４６號","OBJECTID":584151},"geometry":{"x":176481.14000000153,"y":2543005.0100000016}},{"attributes":{"ID":584179,"DIS_CODE":0,"TOWNNAME":"歸仁區","LI":"七甲里","LIN":"16鄰","STREET":"南潭二街","SECT":" ","MAREA":" ","LANE":" ","ALLEY":" ","HOUSE_NO":"１４０號","E_COORD97":176467.84,"N_COORD97":2543005.0099999998,"ADDRESS":"南潭二街１４０號","OBJECTID":584152},"geometry":{"x":176467.83999999985,"y":2543005.0100000016}},{"attributes":{"ID":584180,"DIS_CODE":0,"TOWNNAME":"歸仁區","LI":"大廟里","LIN":"16鄰","STREET":"大廟六街","SECT":" ","MAREA":" ","LANE":" ","ALLEY":" ","HOUSE_NO":"６７號","E_COORD97":176114.38,"N_COORD97":2544251.79,"ADDRESS":"大廟六街６７號","OBJECTID":584153},"geometry":{"x":176114.38000000082,"y":2544251.7900000028}},{"attributes":{"ID":584181,"DIS_CODE":0,"TOWNNAME":"歸仁區","LI":"七甲里","LIN":"16鄰","STREET":"南潭二街","SECT":" ","MAREA":" ","LANE":" ","ALLEY":" ","HOUSE_NO":"１４２號","E_COORD97":176470.94,"N_COORD97":2543005.0099999998,"ADDRESS":"南潭二街１４２號","OBJECTID":584154},"geometry":{"x":176470.94000000041,"y":2543005.0100000016}},{"attributes":{"ID":584182,"DIS_CODE":0,"TOWNNAME":"歸仁區","LI":"七甲里","LIN":"16鄰","STREET":"南潭二街","SECT":" ","MAREA":" ","LANE":" ","ALLEY":" ","HOUSE_NO":"１３４號","E_COORD97":176454.44,"N_COORD97":2543005.0099999998,"ADDRESS":"南潭二街１３４號","OBJECTID":584155},"geometry":{"x":176454.44000000227,"y":2543005.0100000016}},{"attributes":{"ID":584183,"DIS_CODE":0,"TOWNNAME":"歸仁區","LI":"七甲里","LIN":"16鄰","STREET":"南潭二街","SECT":" ","MAREA":" ","LANE":" ","ALLEY":" ","HOUSE_NO":"１３６號","E_COORD97":176458.54000000001,"N_COORD97":2543005.0099999998,"ADDRESS":"南潭二街１３６號","OBJECTID":584156},"geometry":{"x":176458.5400000019,"y":2543005.0100000016}},{"attributes":{"ID":584184,"DIS_CODE":0,"TOWNNAME":"歸仁區","LI":"大廟里","LIN":"16鄰","STREET":"大廟六街","SECT":" ","MAREA":" ","LANE":" ","ALLEY":" ","HOUSE_NO":"６１號","E_COORD97":176107.17999999999,"N_COORD97":2544236.79,"ADDRESS":"大廟六街６１號","OBJECTID":584157},"geometry":{"x":176107.1799999997,"y":2544236.7899999991}},{"attributes":{"ID":584185,"DIS_CODE":0,"TOWNNAME":"歸仁區","LI":"大廟里","LIN":"16鄰","STREET":"大廟六街","SECT":" ","MAREA":" ","LANE":" ","ALLEY":" ","HOUSE_NO":"９１號","E_COORD97":176158.67999999999,"N_COORD97":2544289.0899999999,"ADDRESS":"大廟六街９１號","OBJECTID":584158},"geometry":{"x":176158.67999999877,"y":2544289.0900000017}},{"attributes":{"ID":584186,"DIS_CODE":0,"TOWNNAME":"東區","LI":"龍山里","LIN":"9鄰","STREET":"府東街","SECT":" ","MAREA":" ","LANE":" ","ALLEY":" ","HOUSE_NO":"１０號","E_COORD97":170108.28,"N_COORD97":2542867.46,"ADDRESS":"府東街１０號","OBJECTID":584159},"geometry":{"x":170108.28000000026,"y":2542867.4600000028}},{"attributes":{"ID":584187,"DIS_CODE":0,"TOWNNAME":"東區","LI":"龍山里","LIN":"16鄰","STREET":"府東街","SECT":" ","MAREA":" ","LANE":" ","ALLEY":" ","HOUSE_NO":"１１６號","E_COORD97":169776.87,"N_COORD97":2542977.7200000002,"ADDRESS":"府東街１１６號","OBJECTID":584160},"geometry":{"x":169776.87000000011,"y":2542977.7200000007}},{"attributes":{"ID":584188,"DIS_CODE":0,"TOWNNAME":"歸仁區","LI":"大廟里","LIN":"16鄰","STREET":"大廟六街","SECT":" ","MAREA":" ","LANE":" ","ALLEY":" ","HOUSE_NO":"７３號","E_COORD97":176128.78,"N_COORD97":2544254.79,"ADDRESS":"大廟六街７３號","OBJECTID":584161},"geometry":{"x":176128.78000000119,"y":2544254.7899999991}},{"attributes":{"ID":584189,"DIS_CODE":0,"TOWNNAME":"歸仁區","LI":"大潭里","LIN":"16鄰","STREET":"大潭二街","SECT":" ","MAREA":" ","LANE":" ","ALLEY":" ","HOUSE_NO":"１８號","E_COORD97":175061.20000000001,"N_COORD97":2534729.25,"ADDRESS":"大潭二街１８號","OBJECTID":584162},"geometry":{"x":175061.20000000112,"y":2534729.25}},{"attributes":{"ID":584190,"DIS_CODE":0,"TOWNNAME":"歸仁區","LI":"七甲里","LIN":"16鄰","STREET":"南潭二街","SECT":" ","MAREA":" ","LANE":" ","ALLEY":" ","HOUSE_NO":"１５８號","E_COORD97":176505.73999999999,"N_COORD97":2543005.0099999998,"ADDRESS":"南潭二街１５８號","OBJECTID":584163},"geometry":{"x":176505.74000000022,"y":2543005.0100000016}},{"attributes":{"ID":584191,"DIS_CODE":0,"TOWNNAME":"歸仁區","LI":"八甲里","LIN":"16鄰","STREET":"大仁街","SECT":" ","MAREA":" ","LANE":" ","ALLEY":" ","HOUSE_NO":"３９４號","E_COORD97":178153.97,"N_COORD97":2540744.27,"ADDRESS":"大仁街３９４號","OBJECTID":584164},"geometry":{"x":178153.97000000067,"y":2540744.2700000014}},{"attributes":{"ID":584192,"DIS_CODE":0,"TOWNNAME":"歸仁區","LI":"大潭里","LIN":"16鄰","STREET":"大潭二街","SECT":" ","MAREA":" ","LANE":" ","ALLEY":" ","HOUSE_NO":"２２號","E_COORD97":175050.06,"N_COORD97":2534698.25,"ADDRESS":"大潭二街２２號","OBJECTID":584165},"geometry":{"x":175050.05999999959,"y":2534698.25}},{"attributes":{"ID":584193,"DIS_CODE":0,"TOWNNAME":"南區","LI":"鯤鯓里","LIN":"16鄰","STREET":"鯤鯓路","SECT":" ","MAREA":" ","LANE":" ","ALLEY":" ","HOUSE_NO":"１５１號","E_COORD97":164747.82000000001,"N_COORD97":2540272.0099999998,"ADDRESS":"鯤鯓路１５１號","OBJECTID":584166},"geometry":{"x":164747.8200000003,"y":2540272.0100000016}},{"attributes":{"ID":584194,"DIS_CODE":0,"TOWNNAME":"南區","LI":"鯤鯓里","LIN":"16鄰","STREET":"鯤鯓路","SECT":" ","MAREA":" ","LANE":" ","ALLEY":" ","HOUSE_NO":"１５３號","E_COORD97":164750.88,"N_COORD97":2540285.5299999998,"ADDRESS":"鯤鯓路１５３號","OBJECTID":584167},"geometry":{"x":164750.88000000082,"y":2540285.5299999993}},{"attributes":{"ID":584195,"DIS_CODE":0,"TOWNNAME":"南區","LI":"鯤鯓里","LIN":"16鄰","STREET":"鯤鯓路","SECT":" ","MAREA":" ","LANE":" ","ALLEY":" ","HOUSE_NO":"１６１號","E_COORD97":164798.60000000001,"N_COORD97":2540312.8700000001,"ADDRESS":"鯤鯓路１６１號","OBJECTID":584168},"geometry":{"x":164798.60000000056,"y":2540312.870000001}},{"attributes":{"ID":584196,"DIS_CODE":0,"TOWNNAME":"南區","LI":"鯤鯓里","LIN":"16鄰","STREET":"鯤鯓路","SECT":" ","MAREA":" ","LANE":" ","ALLEY":" ","HOUSE_NO":"１６３號","E_COORD97":164831.59,"N_COORD97":2540282.02,"ADDRESS":"鯤鯓路１６３號","OBJECTID":584169},"geometry":{"x":164831.58999999985,"y":2540282.0200000014}},{"attributes":{"ID":584197,"DIS_CODE":0,"TOWNNAME":"南區","LI":"鯤鯓里","LIN":"16鄰","STREET":"鯤鯓路","SECT":" ","MAREA":" ","LANE":" ","ALLEY":" ","HOUSE_NO":"１６５號","E_COORD97":164840.53,"N_COORD97":2540285.04,"ADDRESS":"鯤鯓路１６５號","OBJECTID":584170},"geometry":{"x":164840.53000000119,"y":2540285.040000001}},{"attributes":{"ID":584198,"DIS_CODE":0,"TOWNNAME":"南區","LI":"鯤鯓里","LIN":"16鄰","STREET":"鯤鯓路","SECT":" ","MAREA":" ","LANE":" ","ALLEY":" ","HOUSE_NO":"１６７號","E_COORD97":164831.95000000001,"N_COORD97":2540289.7400000002,"ADDRESS":"鯤鯓路１６７號","OBJECTID":584171},"geometry":{"x":164831.95000000205,"y":2540289.7400000002}},{"attributes":{"ID":584199,"DIS_CODE":0,"TOWNNAME":"南區","LI":"鯤鯓里","LIN":"16鄰","STREET":"鯤鯓路","SECT":" ","MAREA":" ","LANE":" ","ALLEY":" ","HOUSE_NO":"１６９號","E_COORD97":164830.14000000001,"N_COORD97":2540295.29,"ADDRESS":"鯤鯓路１６９號","OBJECTID":584172},"geometry":{"x":164830.14000000153,"y":2540295.2900000028}},{"attributes":{"ID":584200,"DIS_CODE":0,"TOWNNAME":"南區","LI":"鯤鯓里","LIN":"16鄰","STREET":"鯤鯓路","SECT":" ","MAREA":" ","LANE":" ","ALLEY":" ","HOUSE_NO":"１７１號","E_COORD97":164824.25,"N_COORD97":2540306.4700000002,"ADDRESS":"鯤鯓路１７１號","OBJECTID":584173},"geometry":{"x":164824.25,"y":2540306.4700000025}},{"attributes":{"ID":584201,"DIS_CODE":0,"TOWNNAME":"南區","LI":"鯤鯓里","LIN":"16鄰","STREET":"鯤鯓路","SECT":" ","MAREA":" ","LANE":" ","ALLEY":" ","HOUSE_NO":"１７３之１號","E_COORD97":164819.16,"N_COORD97":2540321.8799999999,"ADDRESS":"鯤鯓路１７３之１號","OBJECTID":584174},"geometry":{"x":164819.16000000108,"y":2540321.8800000027}},{"attributes":{"ID":584202,"DIS_CODE":0,"TOWNNAME":"南區","LI":"鯤鯓里","LIN":"16鄰","STREET":"鯤鯓路","SECT":" ","MAREA":" ","LANE":" ","ALLEY":" ","HOUSE_NO":"１９９號","E_COORD97":164743.94,"N_COORD97":2540367.1200000001,"ADDRESS":"鯤鯓路１９９號","OBJECTID":584175},"geometry":{"x":164743.94000000041,"y":2540367.1200000029}},{"attributes":{"ID":584203,"DIS_CODE":0,"TOWNNAME":"南區","LI":"鯤鯓里","LIN":"16鄰","STREET":"鯤鯓路","SECT":" ","MAREA":" ","LANE":" ","ALLEY":" ","HOUSE_NO":"２０１號","E_COORD97":164756.98999999999,"N_COORD97":2540380.5299999998,"ADDRESS":"鯤鯓路２０１號","OBJECTID":584176},"geometry":{"x":164756.98999999929,"y":2540380.5299999993}},{"attributes":{"ID":584204,"DIS_CODE":0,"TOWNNAME":"南區","LI":"鯤鯓里","LIN":"16鄰","STREET":"鯤鯓路","SECT":" ","MAREA":" ","LANE":" ","ALLEY":" ","HOUSE_NO":"２０５號","E_COORD97":164705.89000000001,"N_COORD97":2540373.0499999998,"ADDRESS":"鯤鯓路２０５號","OBJECTID":584177},"geometry":{"x":164705.88999999966,"y":2540373.0499999989}},{"attributes":{"ID":584205,"DIS_CODE":0,"TOWNNAME":"南區","LI":"鯤鯓里","LIN":"16鄰","STREET":"鯤鯓路","SECT":" ","MAREA":" ","LANE":" ","ALLEY":" ","HOUSE_NO":"２０５號之１","E_COORD97":164641.06,"N_COORD97":2540487.6400000001,"ADDRESS":"鯤鯓路２０５號之１","OBJECTID":584178},"geometry":{"x":164641.06000000052,"y":2540487.6400000043}},{"attributes":{"ID":584206,"DIS_CODE":0,"TOWNNAME":"東區","LI":"泉南里","LIN":"25鄰","STREET":"樹林街","SECT":"一段","MAREA":" ","LANE":" ","ALLEY":" ","HOUSE_NO":"７９號","E_COORD97":169520.48999999999,"N_COORD97":2542951.5699999998,"ADDRESS":"樹林街一段７９號","OBJECTID":584179},"geometry":{"x":169520.48999999929,"y":2542951.5700000003}},{"attributes":{"ID":584207,"DIS_CODE":0,"TOWNNAME":"東區","LI":"大智里","LIN":"10鄰","STREET":"德東街","SECT":" ","MAREA":" ","LANE":" ","ALLEY":" ","HOUSE_NO":"１００號","E_COORD97":171127.67000000001,"N_COORD97":2540238.6000000001,"ADDRESS":"德東街１００號","OBJECTID":584180},"geometry":{"x":171127.66999999899,"y":2540238.5999999996}},{"attributes":{"ID":584208,"DIS_CODE":0,"TOWNNAME":"東區","LI":"大智里","LIN":"10鄰","STREET":"德東街","SECT":" ","MAREA":" ","LANE":" ","ALLEY":" ","HOUSE_NO":"１１３號","E_COORD97":171114.20999999999,"N_COORD97":2540274.21,"ADDRESS":"德東街１１３號","OBJECTID":584181},"geometry":{"x":171114.21000000089,"y":2540274.2100000046}},{"attributes":{"ID":584209,"DIS_CODE":0,"TOWNNAME":"東區","LI":"大智里","LIN":"10鄰","STREET":"德東街","SECT":" ","MAREA":" ","LANE":" ","ALLEY":" ","HOUSE_NO":"１１４號","E_COORD97":171156.69,"N_COORD97":2540242.98,"ADDRESS":"德東街１１４號","OBJECTID":584182},"geometry":{"x":171156.69000000041,"y":2540242.9800000004}},{"attributes":{"ID":584210,"DIS_CODE":0,"TOWNNAME":"東區","LI":"大智里","LIN":"10鄰","STREET":"德東街","SECT":" ","MAREA":" ","LANE":" ","ALLEY":" ","HOUSE_NO":"１２０號","E_COORD97":171167.42000000001,"N_COORD97":2540242.2400000002,"ADDRESS":"德東街１２０號","OBJECTID":584183},"geometry":{"x":171167.42000000086,"y":2540242.2400000002}},{"attributes":{"ID":584211,"DIS_CODE":0,"TOWNNAME":"東區","LI":"大智里","LIN":"10鄰","STREET":"德東街","SECT":" ","MAREA":" ","LANE":" ","ALLEY":" ","HOUSE_NO":"１１９號","E_COORD97":171125.10999999999,"N_COORD97":2540272.9500000002,"ADDRESS":"德東街１１９號","OBJECTID":584184},"geometry":{"x":171125.11000000034,"y":2540272.9499999993}},{"attributes":{"ID":584212,"DIS_CODE":0,"TOWNNAME":"東區","LI":"大智里","LIN":"10鄰","STREET":"德東街","SECT":" ","MAREA":" ","LANE":" ","ALLEY":" ","HOUSE_NO":"１２３號","E_COORD97":171131.98999999999,"N_COORD97":2540273.6400000001,"ADDRESS":"德東街１２３號","OBJECTID":584185},"geometry":{"x":171131.99000000022,"y":2540273.6400000006}},{"attributes":{"ID":584213,"DIS_CODE":0,"TOWNNAME":"東區","LI":"大智里","LIN":"10鄰","STREET":"德東街","SECT":" ","MAREA":" ","LANE":" ","ALLEY":" ","HOUSE_NO":"１３９號","E_COORD97":171171.17000000001,"N_COORD97":2540276.7400000002,"ADDRESS":"德東街１３９號","OBJECTID":584186},"geometry":{"x":171171.16999999993,"y":2540276.7400000039}},{"attributes":{"ID":584214,"DIS_CODE":0,"TOWNNAME":"南區","LI":"鯤鯓里","LIN":"16鄰","STREET":"鯤鯓路","SECT":" ","MAREA":" ","LANE":" ","ALLEY":" ","HOUSE_NO":"２１０號","E_COORD97":164860.98999999999,"N_COORD97":2540335.6400000001,"ADDRESS":"鯤鯓路２１０號","OBJECTID":584187},"geometry":{"x":164860.99000000115,"y":2540335.6400000025}},{"attributes":{"ID":584215,"DIS_CODE":0,"TOWNNAME":"南區","LI":"鯤鯓里","LIN":"16鄰","STREET":"鯤鯓路","SECT":" ","MAREA":" ","LANE":" ","ALLEY":" ","HOUSE_NO":"２１４號","E_COORD97":164844.79999999999,"N_COORD97":2540352.2200000002,"ADDRESS":"鯤鯓路２１４號","OBJECTID":584188},"geometry":{"x":164844.80000000075,"y":2540352.2200000025}},{"attributes":{"ID":584216,"DIS_CODE":0,"TOWNNAME":"南區","LI":"鯤鯓里","LIN":"16鄰","STREET":"鯤鯓路","SECT":" ","MAREA":" ","LANE":" ","ALLEY":" ","HOUSE_NO":"２３０號","E_COORD97":164834.97,"N_COORD97":2540394.8599999999,"ADDRESS":"鯤鯓路２３０號","OBJECTID":584189},"geometry":{"x":164834.97000000067,"y":2540394.8600000013}},{"attributes":{"ID":584217,"DIS_CODE":0,"TOWNNAME":"南區","LI":"鯤鯓里","LIN":"16鄰","STREET":"鯤鯓路","SECT":" ","MAREA":" ","LANE":" ","ALLEY":" ","HOUSE_NO":"３００號","E_COORD97":164790.69,"N_COORD97":2540525.9500000002,"ADDRESS":"鯤鯓路３００號","OBJECTID":584190},"geometry":{"x":164790.69000000134,"y":2540525.9500000011}},{"attributes":{"ID":584218,"DIS_CODE":0,"TOWNNAME":"南區","LI":"白雪里","LIN":"16鄰","STREET":"金華路","SECT":"一段","MAREA":" ","LANE":" ","ALLEY":" ","HOUSE_NO":"１５７號","E_COORD97":166917.34,"N_COORD97":2540683.1299999999,"ADDRESS":"金華路一段１５７號","OBJECTID":584191},"geometry":{"x":166917.33999999892,"y":2540683.1300000008}},{"attributes":{"ID":584219,"DIS_CODE":0,"TOWNNAME":"楠西區","LI":"東勢里","LIN":"16鄰","STREET":"茄拔路","SECT":" ","MAREA":" ","LANE":" ","ALLEY":" ","HOUSE_NO":"２１１號","E_COORD97":197533.73999999999,"N_COORD97":2563756.2799999998,"ADDRESS":"茄拔路２１１號","OBJECTID":584192},"geometry":{"x":197533.74000000115,"y":2563756.2799999993}},{"attributes":{"ID":584220,"DIS_CODE":0,"TOWNNAME":"楠西區","LI":"東勢里","LIN":"16鄰","STREET":"茄拔路","SECT":" ","MAREA":" ","LANE":" ","ALLEY":" ","HOUSE_NO":"１８９號","E_COORD97":197483.92000000001,"N_COORD97":2563768.2000000002,"ADDRESS":"茄拔路１８９號","OBJECTID":584193},"geometry":{"x":197483.91999999993,"y":2563768.2000000011}},{"attributes":{"ID":584221,"DIS_CODE":0,"TOWNNAME":"楠西區","LI":"東勢里","LIN":"16鄰","STREET":"茄拔路","SECT":" ","MAREA":" ","LANE":" ","ALLEY":" ","HOUSE_NO":"２２６號","E_COORD97":197560.14000000001,"N_COORD97":2563727.2799999998,"ADDRESS":"茄拔路２２６號","OBJECTID":584194},"geometry":{"x":197560.13999999966,"y":2563727.2800000012}},{"attributes":{"ID":584222,"DIS_CODE":0,"TOWNNAME":"東區","LI":"泉南里","LIN":"5鄰","STREET":"府東街","SECT":" ","MAREA":" ","LANE":" ","ALLEY":" ","HOUSE_NO":"２１２號","E_COORD97":169441.09,"N_COORD97":2543090.04,"ADDRESS":"府東街２１２號","OBJECTID":584195},"geometry":{"x":169441.08999999985,"y":2543090.0399999991}},{"attributes":{"ID":584223,"DIS_CODE":0,"TOWNNAME":"東區","LI":"泉南里","LIN":"25鄰","STREET":"樹林街","SECT":"一段","MAREA":" ","LANE":" ","ALLEY":" ","HOUSE_NO":"７１號地下層","E_COORD97":169540.5,"N_COORD97":2542944.52,"ADDRESS":"樹林街一段７１號地下層","OBJECTID":584196},"geometry":{"x":169540.49999999907,"y":2542944.5199999996}},{"attributes":{"ID":584224,"DIS_CODE":0,"TOWNNAME":"東區","LI":"泉南里","LIN":"25鄰","STREET":"樹林街","SECT":"一段","MAREA":" ","LANE":" ","ALLEY":" ","HOUSE_NO":"７３號","E_COORD97":169536.07000000001,"N_COORD97":2542946.1600000001,"ADDRESS":"樹林街一段７３號","OBJECTID":584197},"geometry":{"x":169536.07000000123,"y":2542946.160000002}},{"attributes":{"ID":584225,"DIS_CODE":0,"TOWNNAME":"楠西區","LI":"東勢里","LIN":"16鄰","STREET":"茄拔路","SECT":" ","MAREA":" ","LANE":" ","ALLEY":" ","HOUSE_NO":"１８７號","E_COORD97":197480.01999999999,"N_COORD97":2563769.2000000002,"ADDRESS":"茄拔路１８７號","OBJECTID":584198},"geometry":{"x":197480.01999999862,"y":2563769.2000000011}},{"attributes":{"ID":584226,"DIS_CODE":0,"TOWNNAME":"楠西區","LI":"東勢里","LIN":"16鄰","STREET":"茄拔路","SECT":" ","MAREA":" ","LANE":" ","ALLEY":" ","HOUSE_NO":"１９９號","E_COORD97":197504.42000000001,"N_COORD97":2563764.2000000002,"ADDRESS":"茄拔路１９９號","OBJECTID":584199},"geometry":{"x":197504.41999999993,"y":2563764.200000003}},{"attributes":{"ID":584227,"DIS_CODE":0,"TOWNNAME":"楠西區","LI":"楠西里","LIN":"16鄰","STREET":"中正路","SECT":" ","MAREA":" ","LANE":" ","ALLEY":" ","HOUSE_NO":"７３號","E_COORD97":197216.91,"N_COORD97":2564030.25,"ADDRESS":"中正路７３號","OBJECTID":584200},"geometry":{"x":197216.91000000015,"y":2564030.2500000019}}]}