{"displayFieldName":"TOWNNAME","fieldAliases":{"ID":"ID","DIS_CODE":"DIS_CODE","TOWNNAME":"TOWNNAME","LI":"LI","LIN":"LIN","STREET":"STREET","SECT":"SECT","MAREA":"MAREA","LANE":"LANE","ALLEY":"ALLEY","HOUSE_NO":"HOUSE_NO","E_COORD97":"E_COORD97","N_COORD97":"N_COORD97","ADDRESS":"ADDRESS","OBJECTID":"OBJECTID"},"geometryType":"esriGeometryPoint","spatialReference":{"wkid":102443,"latestWkid":3826},"fields":[{"name":"ID","type":"esriFieldTypeDouble","alias":"ID"},{"name":"DIS_CODE","type":"esriFieldTypeInteger","alias":"DIS_CODE"},{"name":"TOWNNAME","type":"esriFieldTypeString","alias":"TOWNNAME","length":8},{"name":"LI","type":"esriFieldTypeString","alias":"LI","length":8},{"name":"LIN","type":"esriFieldTypeString","alias":"LIN","length":12},{"name":"STREET","type":"esriFieldTypeString","alias":"STREET","length":20},{"name":"SECT","type":"esriFieldTypeString","alias":"SECT","length":8},{"name":"MAREA","type":"esriFieldTypeString","alias":"MAREA","length":12},{"name":"LANE","type":"esriFieldTypeString","alias":"LANE","length":10},{"name":"ALLEY","type":"esriFieldTypeString","alias":"ALLEY","length":10},{"name":"HOUSE_NO","type":"esriFieldTypeString","alias":"HOUSE_NO","length":20},{"name":"E_COORD97","type":"esriFieldTypeDouble","alias":"E_COORD97"},{"name":"N_COORD97","type":"esriFieldTypeDouble","alias":"N_COORD97"},{"name":"ADDRESS","type":"esriFieldTypeString","alias":"ADDRESS","length":50},{"name":"OBJECTID","type":"esriFieldTypeOID","alias":"OBJECTID"}],"features":[{"attributes":{"ID":376411,"DIS_CODE":0,"TOWNNAME":"新化區","LI":"豐榮里","LIN":"10鄰","STREET":"信義路","SECT":" ","MAREA":" ","LANE":"４７０巷","ALLEY":" ","HOUSE_NO":"１２號","E_COORD97":178521.98000000001,"N_COORD97":2548324.25,"ADDRESS":"信義路４７０巷１２號","OBJECTID":376401},"geometry":{"x":178521.98000000045,"y":2548324.25}},{"attributes":{"ID":376412,"DIS_CODE":0,"TOWNNAME":"新化區","LI":"協興里","LIN":"10鄰","STREET":"正新路","SECT":" ","MAREA":" ","LANE":"３４１巷","ALLEY":" ","HOUSE_NO":"２號","E_COORD97":178511.82000000001,"N_COORD97":2548827.25,"ADDRESS":"正新路３４１巷２號","OBJECTID":376402},"geometry":{"x":178511.82000000123,"y":2548827.2500000019}},{"attributes":{"ID":376413,"DIS_CODE":0,"TOWNNAME":"新化區","LI":"協興里","LIN":"10鄰","STREET":"正新路","SECT":" ","MAREA":" ","LANE":"３４１巷","ALLEY":" ","HOUSE_NO":"７號","E_COORD97":178485.01999999999,"N_COORD97":2548814.25,"ADDRESS":"正新路３４１巷７號","OBJECTID":376403},"geometry":{"x":178485.01999999955,"y":2548814.2500000019}},{"attributes":{"ID":376414,"DIS_CODE":0,"TOWNNAME":"新化區","LI":"協興里","LIN":"10鄰","STREET":"正新路","SECT":" ","MAREA":" ","LANE":"３４１巷","ALLEY":" ","HOUSE_NO":"８號","E_COORD97":178504.01999999999,"N_COORD97":2548826.25,"ADDRESS":"正新路３４１巷８號","OBJECTID":376404},"geometry":{"x":178504.01999999955,"y":2548826.25}},{"attributes":{"ID":376415,"DIS_CODE":0,"TOWNNAME":"新化區","LI":"豐榮里","LIN":"10鄰","STREET":"信義路","SECT":" ","MAREA":" ","LANE":"４８４巷","ALLEY":" ","HOUSE_NO":"１１號","E_COORD97":178417.07999999999,"N_COORD97":2548311.25,"ADDRESS":"信義路４８４巷１１號","OBJECTID":376405},"geometry":{"x":178417.08000000007,"y":2548311.2500000037}},{"attributes":{"ID":376416,"DIS_CODE":0,"TOWNNAME":"新化區","LI":"協興里","LIN":"10鄰","STREET":"正新路","SECT":" ","MAREA":" ","LANE":"３６３巷","ALLEY":" ","HOUSE_NO":"４０號","E_COORD97":178433.07000000001,"N_COORD97":2548895.25,"ADDRESS":"正新路３６３巷４０號","OBJECTID":376406},"geometry":{"x":178433.0700000003,"y":2548895.2500000019}},{"attributes":{"ID":376417,"DIS_CODE":0,"TOWNNAME":"新化區","LI":"協興里","LIN":"10鄰","STREET":"正新路","SECT":" ","MAREA":" ","LANE":"３６３巷","ALLEY":" ","HOUSE_NO":"２９號","E_COORD97":178458.76999999999,"N_COORD97":2548863.25,"ADDRESS":"正新路３６３巷２９號","OBJECTID":376407},"geometry":{"x":178458.77000000048,"y":2548863.25}},{"attributes":{"ID":376418,"DIS_CODE":0,"TOWNNAME":"新化區","LI":"豐榮里","LIN":"10鄰","STREET":"信義路","SECT":" ","MAREA":" ","LANE":"４８４巷","ALLEY":" ","HOUSE_NO":"３６號","E_COORD97":178383.98000000001,"N_COORD97":2548364.25,"ADDRESS":"信義路４８４巷３６號","OBJECTID":376408},"geometry":{"x":178383.98000000138,"y":2548364.25}},{"attributes":{"ID":376419,"DIS_CODE":0,"TOWNNAME":"新化區","LI":"協興里","LIN":"10鄰","STREET":"正新路","SECT":" ","MAREA":" ","LANE":"３６３巷","ALLEY":" ","HOUSE_NO":"２５號","E_COORD97":178467.17000000001,"N_COORD97":2548864.25,"ADDRESS":"正新路３６３巷２５號","OBJECTID":376409},"geometry":{"x":178467.16999999993,"y":2548864.2500000037}},{"attributes":{"ID":376420,"DIS_CODE":0,"TOWNNAME":"仁德區","LI":"仁義里","LIN":"18鄰","STREET":"正義三街","SECT":" ","MAREA":" ","LANE":"２８６巷","ALLEY":" ","HOUSE_NO":"１１號","E_COORD97":174026.60999999999,"N_COORD97":2541500.7599999998,"ADDRESS":"正義三街２８６巷１１號","OBJECTID":376410},"geometry":{"x":174026.61000000034,"y":2541500.7600000016}},{"attributes":{"ID":376421,"DIS_CODE":0,"TOWNNAME":"新化區","LI":"協興里","LIN":"10鄰","STREET":"正新路","SECT":" ","MAREA":" ","LANE":"３４１巷","ALLEY":" ","HOUSE_NO":"３１號","E_COORD97":178419.47,"N_COORD97":2548802.25,"ADDRESS":"正新路３４１巷３１號","OBJECTID":376411},"geometry":{"x":178419.46999999974,"y":2548802.25}},{"attributes":{"ID":376422,"DIS_CODE":0,"TOWNNAME":"新化區","LI":"協興里","LIN":"10鄰","STREET":"正新路","SECT":" ","MAREA":" ","LANE":"３４１巷","ALLEY":" ","HOUSE_NO":"５０號","E_COORD97":178436.26999999999,"N_COORD97":2548815.25,"ADDRESS":"正新路３４１巷５０號","OBJECTID":376412},"geometry":{"x":178436.26999999862,"y":2548815.25}},{"attributes":{"ID":376423,"DIS_CODE":0,"TOWNNAME":"新化區","LI":"協興里","LIN":"10鄰","STREET":"正新路","SECT":" ","MAREA":" ","LANE":"３４１巷","ALLEY":" ","HOUSE_NO":"４０號","E_COORD97":178453.97,"N_COORD97":2548819.25,"ADDRESS":"正新路３４１巷４０號","OBJECTID":376413},"geometry":{"x":178453.9700000016,"y":2548819.25}},{"attributes":{"ID":376424,"DIS_CODE":0,"TOWNNAME":"新化區","LI":"豐榮里","LIN":"10鄰","STREET":"信義路","SECT":" ","MAREA":" ","LANE":"４７０巷","ALLEY":" ","HOUSE_NO":"１６號","E_COORD97":178522.17999999999,"N_COORD97":2548328.25,"ADDRESS":"信義路４７０巷１６號","OBJECTID":376414},"geometry":{"x":178522.18000000063,"y":2548328.2500000037}},{"attributes":{"ID":376425,"DIS_CODE":0,"TOWNNAME":"新化區","LI":"協興里","LIN":"10鄰","STREET":"正新路","SECT":" ","MAREA":" ","LANE":"３４１巷","ALLEY":" ","HOUSE_NO":"６２號之１","E_COORD97":178409.79999999999,"N_COORD97":2548809.2599999998,"ADDRESS":"正新路３４１巷６２號之１","OBJECTID":376415},"geometry":{"x":178409.80000000075,"y":2548809.2599999979}},{"attributes":{"ID":376426,"DIS_CODE":0,"TOWNNAME":"新化區","LI":"豐榮里","LIN":"10鄰","STREET":"信義路","SECT":" ","MAREA":" ","LANE":"４８４巷","ALLEY":" ","HOUSE_NO":"３０號","E_COORD97":178393.17999999999,"N_COORD97":2548356.25,"ADDRESS":"信義路４８４巷３０號","OBJECTID":376416},"geometry":{"x":178393.18000000156,"y":2548356.2500000019}},{"attributes":{"ID":376427,"DIS_CODE":0,"TOWNNAME":"新化區","LI":"協興里","LIN":"10鄰","STREET":"正新路","SECT":" ","MAREA":" ","LANE":"３６３巷","ALLEY":" ","HOUSE_NO":"３３號","E_COORD97":178450.07000000001,"N_COORD97":2548861.25,"ADDRESS":"正新路３６３巷３３號","OBJECTID":376417},"geometry":{"x":178450.0700000003,"y":2548861.2500000019}},{"attributes":{"ID":376428,"DIS_CODE":0,"TOWNNAME":"新化區","LI":"協興里","LIN":"10鄰","STREET":"正新路","SECT":" ","MAREA":" ","LANE":"３４１巷","ALLEY":" ","HOUSE_NO":"３８號","E_COORD97":178457.67000000001,"N_COORD97":2548819.25,"ADDRESS":"正新路３４１巷３８號","OBJECTID":376418},"geometry":{"x":178457.66999999899,"y":2548819.25}},{"attributes":{"ID":376429,"DIS_CODE":0,"TOWNNAME":"新化區","LI":"協興里","LIN":"10鄰","STREET":"正新路","SECT":" ","MAREA":" ","LANE":"３４１巷","ALLEY":" ","HOUSE_NO":"７６號","E_COORD97":178385.07000000001,"N_COORD97":2548806.25,"ADDRESS":"正新路３４１巷７６號","OBJECTID":376419},"geometry":{"x":178385.07000000123,"y":2548806.2500000037}},{"attributes":{"ID":376430,"DIS_CODE":0,"TOWNNAME":"新化區","LI":"協興里","LIN":"10鄰","STREET":"正新路","SECT":" ","MAREA":" ","LANE":"３６３巷","ALLEY":" ","HOUSE_NO":"１號","E_COORD97":178505.72,"N_COORD97":2548870.25,"ADDRESS":"正新路３６３巷１號","OBJECTID":376420},"geometry":{"x":178505.71999999974,"y":2548870.25}},{"attributes":{"ID":376431,"DIS_CODE":0,"TOWNNAME":"新化區","LI":"豐榮里","LIN":"10鄰","STREET":"信義路","SECT":" ","MAREA":" ","LANE":"４８４巷","ALLEY":" ","HOUSE_NO":"３號","E_COORD97":178436.73000000001,"N_COORD97":2548292.25,"ADDRESS":"信義路４８４巷３號","OBJECTID":376421},"geometry":{"x":178436.73000000138,"y":2548292.2500000019}},{"attributes":{"ID":376432,"DIS_CODE":0,"TOWNNAME":"新化區","LI":"協興里","LIN":"10鄰","STREET":"正新路","SECT":" ","MAREA":" ","LANE":"３６３巷","ALLEY":" ","HOUSE_NO":"４８號","E_COORD97":178419.87,"N_COORD97":2548893.25,"ADDRESS":"正新路３６３巷４８號","OBJECTID":376422},"geometry":{"x":178419.87000000104,"y":2548893.25}},{"attributes":{"ID":376433,"DIS_CODE":0,"TOWNNAME":"新化區","LI":"協興里","LIN":"10鄰","STREET":"正新路","SECT":" ","MAREA":" ","LANE":"３６３巷","ALLEY":" ","HOUSE_NO":"１０號","E_COORD97":178485.07000000001,"N_COORD97":2548905.25,"ADDRESS":"正新路３６３巷１０號","OBJECTID":376423},"geometry":{"x":178485.07000000123,"y":2548905.2500000019}},{"attributes":{"ID":376434,"DIS_CODE":0,"TOWNNAME":"新化區","LI":"協興里","LIN":"10鄰","STREET":"正新路","SECT":" ","MAREA":" ","LANE":"３４１巷","ALLEY":" ","HOUSE_NO":"１０號","E_COORD97":178499.97,"N_COORD97":2548825.25,"ADDRESS":"正新路３４１巷１０號","OBJECTID":376424},"geometry":{"x":178499.97000000067,"y":2548825.25}},{"attributes":{"ID":376435,"DIS_CODE":0,"TOWNNAME":"新化區","LI":"豐榮里","LIN":"10鄰","STREET":"信義路","SECT":" ","MAREA":" ","LANE":"４７０巷","ALLEY":" ","HOUSE_NO":"１１號","E_COORD97":178499.88,"N_COORD97":2548321.25,"ADDRESS":"信義路４７０巷１１號","OBJECTID":376425},"geometry":{"x":178499.87999999989,"y":2548321.25}},{"attributes":{"ID":376436,"DIS_CODE":0,"TOWNNAME":"新化區","LI":"豐榮里","LIN":"10鄰","STREET":"信義路","SECT":" ","MAREA":" ","LANE":"４８４巷","ALLEY":" ","HOUSE_NO":"１２號","E_COORD97":178437.07999999999,"N_COORD97":2548311.25,"ADDRESS":"信義路４８４巷１２號","OBJECTID":376426},"geometry":{"x":178437.08000000101,"y":2548311.2500000037}},{"attributes":{"ID":376437,"DIS_CODE":0,"TOWNNAME":"仁德區","LI":"土庫里","LIN":"5鄰","STREET":"土庫六街","SECT":" ","MAREA":" ","LANE":"７５巷","ALLEY":" ","HOUSE_NO":"８２號","E_COORD97":174108.59,"N_COORD97":2543155.25,"ADDRESS":"土庫六街７５巷８２號","OBJECTID":376427},"geometry":{"x":174108.59000000078,"y":2543155.2500000019}},{"attributes":{"ID":376438,"DIS_CODE":0,"TOWNNAME":"新化區","LI":"協興里","LIN":"10鄰","STREET":"正新路","SECT":" ","MAREA":" ","LANE":"３６３巷","ALLEY":" ","HOUSE_NO":"３９號","E_COORD97":178437.17000000001,"N_COORD97":2548859.25,"ADDRESS":"正新路３６３巷３９號","OBJECTID":376428},"geometry":{"x":178437.16999999993,"y":2548859.25}},{"attributes":{"ID":376439,"DIS_CODE":0,"TOWNNAME":"新化區","LI":"協興里","LIN":"10鄰","STREET":"正新路","SECT":" ","MAREA":" ","LANE":"３４１巷","ALLEY":" ","HOUSE_NO":"３６號","E_COORD97":178460.76999999999,"N_COORD97":2548820.25,"ADDRESS":"正新路３４１巷３６號","OBJECTID":376429},"geometry":{"x":178460.77000000048,"y":2548820.2500000019}},{"attributes":{"ID":376440,"DIS_CODE":0,"TOWNNAME":"新化區","LI":"豐榮里","LIN":"10鄰","STREET":"信義路","SECT":" ","MAREA":" ","LANE":"４８４巷","ALLEY":" ","HOUSE_NO":"２２號","E_COORD97":178417.28,"N_COORD97":2548330.25,"ADDRESS":"信義路４８４巷２２號","OBJECTID":376430},"geometry":{"x":178417.28000000119,"y":2548330.25}},{"attributes":{"ID":376441,"DIS_CODE":0,"TOWNNAME":"新化區","LI":"協興里","LIN":"10鄰","STREET":"正新路","SECT":" ","MAREA":" ","LANE":"３４１巷","ALLEY":" ","HOUSE_NO":"３２號","E_COORD97":178464.67000000001,"N_COORD97":2548820.25,"ADDRESS":"正新路３４１巷３２號","OBJECTID":376431},"geometry":{"x":178464.67000000179,"y":2548820.2500000019}},{"attributes":{"ID":376442,"DIS_CODE":0,"TOWNNAME":"新化區","LI":"協興里","LIN":"10鄰","STREET":"正新路","SECT":" ","MAREA":" ","LANE":"３６３巷","ALLEY":" ","HOUSE_NO":"２３號","E_COORD97":178471.26999999999,"N_COORD97":2548865.25,"ADDRESS":"正新路３６３巷２３號","OBJECTID":376432},"geometry":{"x":178471.26999999955,"y":2548865.2500000019}},{"attributes":{"ID":376443,"DIS_CODE":0,"TOWNNAME":"新化區","LI":"協興里","LIN":"10鄰","STREET":"正新路","SECT":" ","MAREA":" ","LANE":"３６３巷","ALLEY":" ","HOUSE_NO":"１２號","E_COORD97":178478.26999999999,"N_COORD97":2548904.25,"ADDRESS":"正新路３６３巷１２號","OBJECTID":376433},"geometry":{"x":178478.26999999955,"y":2548904.25}},{"attributes":{"ID":376444,"DIS_CODE":0,"TOWNNAME":"新化區","LI":"協興里","LIN":"10鄰","STREET":"正新路","SECT":" ","MAREA":" ","LANE":"３６３巷","ALLEY":" ","HOUSE_NO":"１５號","E_COORD97":178488.37,"N_COORD97":2548844.25,"ADDRESS":"正新路３６３巷１５號","OBJECTID":376434},"geometry":{"x":178488.37000000011,"y":2548844.2500000019}},{"attributes":{"ID":376445,"DIS_CODE":0,"TOWNNAME":"新化區","LI":"協興里","LIN":"10鄰","STREET":"正新路","SECT":" ","MAREA":" ","LANE":"３４１巷","ALLEY":" ","HOUSE_NO":"９號","E_COORD97":178477.22,"N_COORD97":2548813.25,"ADDRESS":"正新路３４１巷９號","OBJECTID":376435},"geometry":{"x":178477.21999999974,"y":2548813.2500000037}},{"attributes":{"ID":376446,"DIS_CODE":0,"TOWNNAME":"新化區","LI":"協興里","LIN":"10鄰","STREET":"正新路","SECT":" ","MAREA":" ","LANE":"３６３巷","ALLEY":" ","HOUSE_NO":"３８號","E_COORD97":178437.87,"N_COORD97":2548895.25,"ADDRESS":"正新路３６３巷３８號","OBJECTID":376436},"geometry":{"x":178437.86999999918,"y":2548895.2500000019}},{"attributes":{"ID":376447,"DIS_CODE":0,"TOWNNAME":"新化區","LI":"太平里","LIN":"10鄰","STREET":"大德路","SECT":" ","MAREA":" ","LANE":"２１巷","ALLEY":" ","HOUSE_NO":"２０號","E_COORD97":178571.73000000001,"N_COORD97":2549317.25,"ADDRESS":"大德路２１巷２０號","OBJECTID":376437},"geometry":{"x":178571.73000000138,"y":2549317.25}},{"attributes":{"ID":376448,"DIS_CODE":0,"TOWNNAME":"新化區","LI":"豐榮里","LIN":"10鄰","STREET":"信義路","SECT":" ","MAREA":" ","LANE":"４８４巷","ALLEY":" ","HOUSE_NO":"１９號","E_COORD97":178389.38,"N_COORD97":2548337.25,"ADDRESS":"信義路４８４巷１９號","OBJECTID":376438},"geometry":{"x":178389.37999999989,"y":2548337.25}},{"attributes":{"ID":376449,"DIS_CODE":0,"TOWNNAME":"新化區","LI":"協興里","LIN":"10鄰","STREET":"太平街","SECT":" ","MAREA":" ","LANE":"１３４巷","ALLEY":" ","HOUSE_NO":"６２號","E_COORD97":178515.57000000001,"N_COORD97":2548790.25,"ADDRESS":"太平街１３４巷６２號","OBJECTID":376439},"geometry":{"x":178515.57000000123,"y":2548790.2500000019}},{"attributes":{"ID":376450,"DIS_CODE":0,"TOWNNAME":"新化區","LI":"協興里","LIN":"10鄰","STREET":"太平街","SECT":" ","MAREA":" ","LANE":"１３４巷","ALLEY":" ","HOUSE_NO":"９號","E_COORD97":178399.62,"N_COORD97":2548758.25,"ADDRESS":"太平街１３４巷９號","OBJECTID":376440},"geometry":{"x":178399.62000000104,"y":2548758.25}},{"attributes":{"ID":376451,"DIS_CODE":0,"TOWNNAME":"新化區","LI":"東榮里","LIN":"10鄰","STREET":"信義路","SECT":" ","MAREA":" ","LANE":"１３１巷","ALLEY":" ","HOUSE_NO":"１８號","E_COORD97":179635.14000000001,"N_COORD97":2548430.54,"ADDRESS":"信義路１３１巷１８號","OBJECTID":376441},"geometry":{"x":179635.13999999966,"y":2548430.5400000028}},{"attributes":{"ID":376452,"DIS_CODE":0,"TOWNNAME":"北區","LI":"大和里","LIN":"10鄰","STREET":"文賢路","SECT":" ","MAREA":" ","LANE":"７３５巷","ALLEY":" ","HOUSE_NO":"５７號","E_COORD97":167219.76999999999,"N_COORD97":2546117.8100000001,"ADDRESS":"文賢路７３５巷５７號","OBJECTID":376442},"geometry":{"x":167219.77000000048,"y":2546117.8099999987}},{"attributes":{"ID":376453,"DIS_CODE":0,"TOWNNAME":"安平區","LI":"平通里","LIN":"10鄰","STREET":"育平九街","SECT":" ","MAREA":" ","LANE":"２４６巷","ALLEY":" ","HOUSE_NO":"２３號","E_COORD97":164893.24094399999,"N_COORD97":2544077.3368299999,"ADDRESS":"育平九街２４６巷２３號","OBJECTID":376443},"geometry":{"x":164893.24094400089,"y":2544077.3368330002}},{"attributes":{"ID":376454,"DIS_CODE":0,"TOWNNAME":"安平區","LI":"平通里","LIN":"10鄰","STREET":"育平九街","SECT":" ","MAREA":" ","LANE":"２４６巷","ALLEY":" ","HOUSE_NO":"２５號","E_COORD97":164894.08857399999,"N_COORD97":2544081.9934999999,"ADDRESS":"育平九街２４６巷２５號","OBJECTID":376444},"geometry":{"x":164894.0885739997,"y":2544081.993497001}},{"attributes":{"ID":376455,"DIS_CODE":0,"TOWNNAME":"安平區","LI":"平通里","LIN":"10鄰","STREET":"育平九街","SECT":" ","MAREA":" ","LANE":"２４６巷","ALLEY":" ","HOUSE_NO":"２７號","E_COORD97":164894.936204,"N_COORD97":2544087.0734899999,"ADDRESS":"育平九街２４６巷２７號","OBJECTID":376445},"geometry":{"x":164894.93620400038,"y":2544087.0734940004}},{"attributes":{"ID":376456,"DIS_CODE":0,"TOWNNAME":"安平區","LI":"平通里","LIN":"10鄰","STREET":"育平九街","SECT":" ","MAREA":" ","LANE":"２４６巷","ALLEY":" ","HOUSE_NO":"２９號","E_COORD97":164895.995742,"N_COORD97":2544091.9418299999,"ADDRESS":"育平九街２４６巷２９號","OBJECTID":376446},"geometry":{"x":164895.99574200064,"y":2544091.9418250006}},{"attributes":{"ID":376457,"DIS_CODE":0,"TOWNNAME":"南區","LI":"文華里","LIN":"10鄰","STREET":"金華路","SECT":"二段","MAREA":" ","LANE":"３４５巷","ALLEY":" ","HOUSE_NO":"１１號","E_COORD97":167064.07999999999,"N_COORD97":2542925.7599999998,"ADDRESS":"金華路二段３４５巷１１號","OBJECTID":376447},"geometry":{"x":167064.08000000101,"y":2542925.7599999998}},{"attributes":{"ID":376458,"DIS_CODE":0,"TOWNNAME":"南區","LI":"文華里","LIN":"10鄰","STREET":"金華路","SECT":"二段","MAREA":" ","LANE":"３４５巷","ALLEY":" ","HOUSE_NO":"１３號","E_COORD97":167060.13,"N_COORD97":2542926.29,"ADDRESS":"金華路二段３４５巷１３號","OBJECTID":376448},"geometry":{"x":167060.13000000082,"y":2542926.2900000028}},{"attributes":{"ID":376459,"DIS_CODE":0,"TOWNNAME":"南區","LI":"文華里","LIN":"10鄰","STREET":"金華路","SECT":"二段","MAREA":" ","LANE":"３４５巷","ALLEY":" ","HOUSE_NO":"１５號","E_COORD97":167055.82000000001,"N_COORD97":2542926.29,"ADDRESS":"金華路二段３４５巷１５號","OBJECTID":376449},"geometry":{"x":167055.82000000123,"y":2542926.2900000028}},{"attributes":{"ID":376460,"DIS_CODE":0,"TOWNNAME":"南區","LI":"文華里","LIN":"10鄰","STREET":"金華路","SECT":"二段","MAREA":" ","LANE":"３４５巷","ALLEY":" ","HOUSE_NO":"１７號","E_COORD97":167050.98000000001,"N_COORD97":2542926.6499999999,"ADDRESS":"金華路二段３４５巷１７號","OBJECTID":376450},"geometry":{"x":167050.98000000231,"y":2542926.6500000022}},{"attributes":{"ID":376461,"DIS_CODE":0,"TOWNNAME":"南區","LI":"文華里","LIN":"10鄰","STREET":"建南路","SECT":" ","MAREA":" ","LANE":"１０２巷","ALLEY":" ","HOUSE_NO":"１號","E_COORD97":167073.29999999999,"N_COORD97":2542863.6600000001,"ADDRESS":"建南路１０２巷１號","OBJECTID":376451},"geometry":{"x":167073.29999999981,"y":2542863.6599999983}},{"attributes":{"ID":376462,"DIS_CODE":0,"TOWNNAME":"南區","LI":"文華里","LIN":"10鄰","STREET":"建南路","SECT":" ","MAREA":" ","LANE":"１０２巷","ALLEY":" ","HOUSE_NO":"３號","E_COORD97":167073.19,"N_COORD97":2542870.2400000002,"ADDRESS":"建南路１０２巷３號","OBJECTID":376452},"geometry":{"x":167073.18999999948,"y":2542870.2400000039}},{"attributes":{"ID":376463,"DIS_CODE":0,"TOWNNAME":"南區","LI":"文華里","LIN":"10鄰","STREET":"建南路","SECT":" ","MAREA":" ","LANE":"１２０巷","ALLEY":" ","HOUSE_NO":"２號","E_COORD97":167045.70000000001,"N_COORD97":2542861.29,"ADDRESS":"建南路１２０巷２號","OBJECTID":376453},"geometry":{"x":167045.70000000019,"y":2542861.2899999991}},{"attributes":{"ID":376464,"DIS_CODE":0,"TOWNNAME":"南區","LI":"文華里","LIN":"10鄰","STREET":"建南路","SECT":" ","MAREA":" ","LANE":"１２０巷","ALLEY":" ","HOUSE_NO":"８號","E_COORD97":167047.19,"N_COORD97":2542876.1400000001,"ADDRESS":"建南路１２０巷８號","OBJECTID":376454},"geometry":{"x":167047.19000000041,"y":2542876.1400000025}},{"attributes":{"ID":376465,"DIS_CODE":0,"TOWNNAME":"南區","LI":"田寮里","LIN":"10鄰","STREET":"新興路","SECT":" ","MAREA":" ","LANE":"１１３巷","ALLEY":" ","HOUSE_NO":"２６號","E_COORD97":167568.32999999999,"N_COORD97":2542045.8300000001,"ADDRESS":"新興路１１３巷２６號","OBJECTID":376455},"geometry":{"x":167568.33000000007,"y":2542045.8300000019}},{"attributes":{"ID":376466,"DIS_CODE":0,"TOWNNAME":"南區","LI":"田寮里","LIN":"10鄰","STREET":"新興路","SECT":" ","MAREA":" ","LANE":"１１３巷","ALLEY":" ","HOUSE_NO":"２８號","E_COORD97":167566.01999999999,"N_COORD97":2542041.7999999998,"ADDRESS":"新興路１１３巷２８號","OBJECTID":376456},"geometry":{"x":167566.01999999955,"y":2542041.8000000007}},{"attributes":{"ID":376467,"DIS_CODE":0,"TOWNNAME":"南區","LI":"田寮里","LIN":"10鄰","STREET":"新興路","SECT":" ","MAREA":" ","LANE":"１１３巷","ALLEY":" ","HOUSE_NO":"４０號","E_COORD97":167559.39999999999,"N_COORD97":2542015.3799999999,"ADDRESS":"新興路１１３巷４０號","OBJECTID":376457},"geometry":{"x":167559.40000000037,"y":2542015.379999999}},{"attributes":{"ID":376468,"DIS_CODE":0,"TOWNNAME":"南區","LI":"田寮里","LIN":"10鄰","STREET":"新興路","SECT":" ","MAREA":" ","LANE":"１１３巷","ALLEY":" ","HOUSE_NO":"４２號","E_COORD97":167558.76999999999,"N_COORD97":2542010.9700000002,"ADDRESS":"新興路１１３巷４２號","OBJECTID":376458},"geometry":{"x":167558.77000000048,"y":2542010.9700000007}},{"attributes":{"ID":376469,"DIS_CODE":0,"TOWNNAME":"南區","LI":"田寮里","LIN":"10鄰","STREET":"新興路","SECT":" ","MAREA":" ","LANE":"１１３巷","ALLEY":" ","HOUSE_NO":"４４號","E_COORD97":167557.92999999999,"N_COORD97":2542005.4100000001,"ADDRESS":"新興路１１３巷４４號","OBJECTID":376459},"geometry":{"x":167557.93000000063,"y":2542005.410000002}},{"attributes":{"ID":376470,"DIS_CODE":0,"TOWNNAME":"南區","LI":"田寮里","LIN":"10鄰","STREET":"新興路","SECT":" ","MAREA":" ","LANE":"１１３巷","ALLEY":" ","HOUSE_NO":"５４號","E_COORD97":167555.94,"N_COORD97":2541995.3700000001,"ADDRESS":"新興路１１３巷５４號","OBJECTID":376460},"geometry":{"x":167555.94000000041,"y":2541995.3700000048}},{"attributes":{"ID":376471,"DIS_CODE":0,"TOWNNAME":"南區","LI":"田寮里","LIN":"10鄰","STREET":"新興路","SECT":" ","MAREA":" ","LANE":"１１３巷","ALLEY":" ","HOUSE_NO":"２號","E_COORD97":167541.44,"N_COORD97":2542101.2000000002,"ADDRESS":"新興路１１３巷２號","OBJECTID":376461},"geometry":{"x":167541.44000000134,"y":2542101.2000000011}},{"attributes":{"ID":376472,"DIS_CODE":0,"TOWNNAME":"南區","LI":"田寮里","LIN":"10鄰","STREET":"新興路","SECT":" ","MAREA":" ","LANE":"１１３巷","ALLEY":" ","HOUSE_NO":"１２號","E_COORD97":167556.78,"N_COORD97":2542062.6600000001,"ADDRESS":"新興路１１３巷１２號","OBJECTID":376462},"geometry":{"x":167556.78000000026,"y":2542062.6600000001}},{"attributes":{"ID":376473,"DIS_CODE":0,"TOWNNAME":"南區","LI":"田寮里","LIN":"10鄰","STREET":"新興路","SECT":" ","MAREA":" ","LANE":"１１３巷","ALLEY":" ","HOUSE_NO":"１４號","E_COORD97":167562.87,"N_COORD97":2542071,"ADDRESS":"新興路１１３巷１４號","OBJECTID":376463},"geometry":{"x":167562.87000000011,"y":2542071}},{"attributes":{"ID":376474,"DIS_CODE":0,"TOWNNAME":"南區","LI":"田寮里","LIN":"10鄰","STREET":"新興路","SECT":" ","MAREA":" ","LANE":"１１３巷","ALLEY":" ","HOUSE_NO":"１６號","E_COORD97":167573.37,"N_COORD97":2542068.0600000001,"ADDRESS":"新興路１１３巷１６號","OBJECTID":376464},"geometry":{"x":167573.37000000011,"y":2542068.0600000042}},{"attributes":{"ID":376475,"DIS_CODE":0,"TOWNNAME":"南區","LI":"田寮里","LIN":"10鄰","STREET":"新興路","SECT":" ","MAREA":" ","LANE":"１１３巷","ALLEY":" ","HOUSE_NO":"４１號","E_COORD97":167584.84,"N_COORD97":2542058.4300000002,"ADDRESS":"新興路１１３巷４１號","OBJECTID":376465},"geometry":{"x":167584.83999999985,"y":2542058.4300000016}},{"attributes":{"ID":376476,"DIS_CODE":0,"TOWNNAME":"南區","LI":"田寮里","LIN":"10鄰","STREET":"新興路","SECT":" ","MAREA":" ","LANE":"１１３巷","ALLEY":" ","HOUSE_NO":"１８號","E_COORD97":167572.84,"N_COORD97":2542063.7599999998,"ADDRESS":"新興路１１３巷１８號","OBJECTID":376466},"geometry":{"x":167572.83999999985,"y":2542063.7600000016}},{"attributes":{"ID":376477,"DIS_CODE":0,"TOWNNAME":"南區","LI":"田寮里","LIN":"10鄰","STREET":"新興路","SECT":" ","MAREA":" ","LANE":"１１３巷","ALLEY":" ","HOUSE_NO":"４３號","E_COORD97":167583.44,"N_COORD97":2542054.23,"ADDRESS":"新興路１１３巷４３號","OBJECTID":376467},"geometry":{"x":167583.43999999948,"y":2542054.2300000023}},{"attributes":{"ID":376478,"DIS_CODE":0,"TOWNNAME":"南區","LI":"田寮里","LIN":"10鄰","STREET":"新興路","SECT":" ","MAREA":" ","LANE":"１１３巷","ALLEY":" ","HOUSE_NO":"２０號","E_COORD97":167572.10999999999,"N_COORD97":2542059.1499999999,"ADDRESS":"新興路１１３巷２０號","OBJECTID":376468},"geometry":{"x":167572.1100000022,"y":2542059.1500000004}},{"attributes":{"ID":376479,"DIS_CODE":0,"TOWNNAME":"南區","LI":"田寮里","LIN":"10鄰","STREET":"新興路","SECT":" ","MAREA":" ","LANE":"１１３巷","ALLEY":" ","HOUSE_NO":"４５號","E_COORD97":167582.04000000001,"N_COORD97":2542050.1899999999,"ADDRESS":"新興路１１３巷４５號","OBJECTID":376469},"geometry":{"x":167582.04000000004,"y":2542050.1900000013}},{"attributes":{"ID":376480,"DIS_CODE":0,"TOWNNAME":"南區","LI":"田寮里","LIN":"10鄰","STREET":"新興路","SECT":" ","MAREA":" ","LANE":"１１３巷","ALLEY":" ","HOUSE_NO":"２２號","E_COORD97":167571.16,"N_COORD97":2542054.9500000002,"ADDRESS":"新興路１１３巷２２號","OBJECTID":376470},"geometry":{"x":167571.16000000015,"y":2542054.9500000011}},{"attributes":{"ID":376481,"DIS_CODE":0,"TOWNNAME":"南區","LI":"田寮里","LIN":"10鄰","STREET":"新興路","SECT":" ","MAREA":" ","LANE":"１１３巷","ALLEY":" ","HOUSE_NO":"２４號","E_COORD97":167569.48000000001,"N_COORD97":2542050.0299999998,"ADDRESS":"新興路１１３巷２４號","OBJECTID":376471},"geometry":{"x":167569.48000000045,"y":2542050.0300000031}},{"attributes":{"ID":376482,"DIS_CODE":0,"TOWNNAME":"南區","LI":"田寮里","LIN":"10鄰","STREET":"新興路","SECT":" ","MAREA":" ","LANE":"１１３巷","ALLEY":" ","HOUSE_NO":"４７號","E_COORD97":167581.26000000001,"N_COORD97":2542044.8999999999,"ADDRESS":"新興路１１３巷４７號","OBJECTID":376472},"geometry":{"x":167581.26000000071,"y":2542044.9000000004}},{"attributes":{"ID":376483,"DIS_CODE":0,"TOWNNAME":"南區","LI":"田寮里","LIN":"10鄰","STREET":"新興路","SECT":" ","MAREA":" ","LANE":"１１３巷","ALLEY":" ","HOUSE_NO":"４９號","E_COORD97":167579.85999999999,"N_COORD97":2542040.0800000001,"ADDRESS":"新興路１１３巷４９號","OBJECTID":376473},"geometry":{"x":167579.86000000034,"y":2542040.0800000001}},{"attributes":{"ID":376484,"DIS_CODE":0,"TOWNNAME":"南區","LI":"田寮里","LIN":"10鄰","STREET":"新興路","SECT":" ","MAREA":" ","LANE":"１１３巷","ALLEY":" ","HOUSE_NO":"５１號","E_COORD97":167578.60999999999,"N_COORD97":2542036.2400000002,"ADDRESS":"新興路１１３巷５１號","OBJECTID":376474},"geometry":{"x":167578.61000000034,"y":2542036.2400000039}},{"attributes":{"ID":376485,"DIS_CODE":0,"TOWNNAME":"南區","LI":"田寮里","LIN":"10鄰","STREET":"新興路","SECT":" ","MAREA":" ","LANE":"１１３巷","ALLEY":" ","HOUSE_NO":"５５號","E_COORD97":167575.95999999999,"N_COORD97":2542027.0600000001,"ADDRESS":"新興路１１３巷５５號","OBJECTID":376475},"geometry":{"x":167575.95999999996,"y":2542027.0600000005}},{"attributes":{"ID":376486,"DIS_CODE":0,"TOWNNAME":"南區","LI":"田寮里","LIN":"10鄰","STREET":"新興路","SECT":" ","MAREA":" ","LANE":"１１３巷","ALLEY":" ","HOUSE_NO":"５７號","E_COORD97":167574.72,"N_COORD97":2542022.0800000001,"ADDRESS":"新興路１１３巷５７號","OBJECTID":376476},"geometry":{"x":167574.72000000067,"y":2542022.0800000001}},{"attributes":{"ID":376487,"DIS_CODE":0,"TOWNNAME":"南區","LI":"田寮里","LIN":"10鄰","STREET":"新興路","SECT":" ","MAREA":" ","LANE":"１１３巷","ALLEY":" ","HOUSE_NO":"５９號","E_COORD97":167573.63,"N_COORD97":2542018.04,"ADDRESS":"新興路１１３巷５９號","OBJECTID":376477},"geometry":{"x":167573.63000000082,"y":2542018.0399999991}},{"attributes":{"ID":376488,"DIS_CODE":0,"TOWNNAME":"南區","LI":"田寮里","LIN":"10鄰","STREET":"新興路","SECT":" ","MAREA":" ","LANE":"１１３巷","ALLEY":" ","HOUSE_NO":"６１號","E_COORD97":167572.07000000001,"N_COORD97":2542013.6800000002,"ADDRESS":"新興路１１３巷６１號","OBJECTID":376478},"geometry":{"x":167572.0700000003,"y":2542013.6800000016}},{"attributes":{"ID":376489,"DIS_CODE":0,"TOWNNAME":"南區","LI":"田寮里","LIN":"10鄰","STREET":"新興路","SECT":" ","MAREA":" ","LANE":"１１３巷","ALLEY":" ","HOUSE_NO":"６３號","E_COORD97":167570.98000000001,"N_COORD97":2542009.1699999999,"ADDRESS":"新興路１１３巷６３號","OBJECTID":376479},"geometry":{"x":167570.98000000045,"y":2542009.1700000037}},{"attributes":{"ID":376490,"DIS_CODE":0,"TOWNNAME":"南區","LI":"田寮里","LIN":"10鄰","STREET":"新興路","SECT":" ","MAREA":" ","LANE":"１１３巷","ALLEY":" ","HOUSE_NO":"６５號","E_COORD97":167570.04000000001,"N_COORD97":2542004.2000000002,"ADDRESS":"新興路１１３巷６５號","OBJECTID":376480},"geometry":{"x":167570.04000000004,"y":2542004.1999999993}},{"attributes":{"ID":376491,"DIS_CODE":0,"TOWNNAME":"南區","LI":"田寮里","LIN":"10鄰","STREET":"新興路","SECT":" ","MAREA":" ","LANE":"１１３巷","ALLEY":" ","HOUSE_NO":"６７號","E_COORD97":167568.79999999999,"N_COORD97":2541999.6800000002,"ADDRESS":"新興路１１３巷６７號","OBJECTID":376481},"geometry":{"x":167568.80000000075,"y":2541999.6800000016}},{"attributes":{"ID":376492,"DIS_CODE":0,"TOWNNAME":"南區","LI":"田寮里","LIN":"10鄰","STREET":"新興路","SECT":" ","MAREA":" ","LANE":"１１３巷","ALLEY":" ","HOUSE_NO":"１１３號","E_COORD97":167525.64999999999,"N_COORD97":2541926.6800000002,"ADDRESS":"新興路１１３巷１１３號","OBJECTID":376482},"geometry":{"x":167525.65000000037,"y":2541926.6799999997}},{"attributes":{"ID":376493,"DIS_CODE":0,"TOWNNAME":"南區","LI":"田寮里","LIN":"10鄰","STREET":"新興路","SECT":" ","MAREA":" ","LANE":"１１３巷","ALLEY":" ","HOUSE_NO":"１１５號","E_COORD97":167523.89999999999,"N_COORD97":2541922.7400000002,"ADDRESS":"新興路１１３巷１１５號","OBJECTID":376483},"geometry":{"x":167523.90000000037,"y":2541922.7400000002}},{"attributes":{"ID":376494,"DIS_CODE":0,"TOWNNAME":"南區","LI":"田寮里","LIN":"10鄰","STREET":"新興路","SECT":" ","MAREA":" ","LANE":"１１３巷","ALLEY":" ","HOUSE_NO":"１１７號","E_COORD97":167523.03,"N_COORD97":2541918.8100000001,"ADDRESS":"新興路１１３巷１１７號","OBJECTID":376484},"geometry":{"x":167523.03000000026,"y":2541918.8100000024}},{"attributes":{"ID":376495,"DIS_CODE":0,"TOWNNAME":"南區","LI":"田寮里","LIN":"10鄰","STREET":"新興路","SECT":" ","MAREA":" ","LANE":"１１３巷","ALLEY":" ","HOUSE_NO":"１１９號","E_COORD97":167521.70999999999,"N_COORD97":2541915.3100000001,"ADDRESS":"新興路１１３巷１１９號","OBJECTID":376485},"geometry":{"x":167521.70999999996,"y":2541915.3100000024}},{"attributes":{"ID":376496,"DIS_CODE":0,"TOWNNAME":"南區","LI":"田寮里","LIN":"10鄰","STREET":"新興路","SECT":" ","MAREA":" ","LANE":"１１３巷","ALLEY":" ","HOUSE_NO":"１２１號","E_COORD97":167519.73999999999,"N_COORD97":2541911.8100000001,"ADDRESS":"新興路１１３巷１２１號","OBJECTID":376486},"geometry":{"x":167519.74000000022,"y":2541911.8100000024}},{"attributes":{"ID":376497,"DIS_CODE":0,"TOWNNAME":"南區","LI":"田寮里","LIN":"10鄰","STREET":"新興路","SECT":" ","MAREA":" ","LANE":"１１３巷","ALLEY":" ","HOUSE_NO":"１２３號","E_COORD97":167517.54999999999,"N_COORD97":2541908.3100000001,"ADDRESS":"新興路１１３巷１２３號","OBJECTID":376487},"geometry":{"x":167517.54999999981,"y":2541908.3100000024}},{"attributes":{"ID":376498,"DIS_CODE":0,"TOWNNAME":"南區","LI":"田寮里","LIN":"10鄰","STREET":"新興路","SECT":" ","MAREA":" ","LANE":"１１３巷","ALLEY":" ","HOUSE_NO":"７０號","E_COORD97":167514.26999999999,"N_COORD97":2541933.46,"ADDRESS":"新興路１１３巷７０號","OBJECTID":376488},"geometry":{"x":167514.27000000142,"y":2541933.459999999}},{"attributes":{"ID":376499,"DIS_CODE":0,"TOWNNAME":"南區","LI":"田寮里","LIN":"10鄰","STREET":"新興路","SECT":" ","MAREA":" ","LANE":"１１３巷","ALLEY":" ","HOUSE_NO":"７２號","E_COORD97":167513.17000000001,"N_COORD97":2541928.6499999999,"ADDRESS":"新興路１１３巷７２號","OBJECTID":376489},"geometry":{"x":167513.16999999993,"y":2541928.6500000022}},{"attributes":{"ID":376500,"DIS_CODE":0,"TOWNNAME":"南區","LI":"田寮里","LIN":"10鄰","STREET":"新興路","SECT":" ","MAREA":" ","LANE":"１１３巷","ALLEY":" ","HOUSE_NO":"７４號","E_COORD97":167511.64000000001,"N_COORD97":2541924.9300000002,"ADDRESS":"新興路１１３巷７４號","OBJECTID":376490},"geometry":{"x":167511.63999999966,"y":2541924.9299999997}},{"attributes":{"ID":376501,"DIS_CODE":0,"TOWNNAME":"南區","LI":"田寮里","LIN":"10鄰","STREET":"新興路","SECT":" ","MAREA":" ","LANE":"１１３巷","ALLEY":" ","HOUSE_NO":"７８號","E_COORD97":167507.70000000001,"N_COORD97":2541917.2799999998,"ADDRESS":"新興路１１３巷７８號","OBJECTID":376491},"geometry":{"x":167507.70000000112,"y":2541917.2800000012}},{"attributes":{"ID":376502,"DIS_CODE":0,"TOWNNAME":"南區","LI":"田寮里","LIN":"10鄰","STREET":"新興路","SECT":" ","MAREA":" ","LANE":"１１３巷","ALLEY":" ","HOUSE_NO":"６６號","E_COORD97":167528.28,"N_COORD97":2541936.9399999999,"ADDRESS":"新興路１１３巷６６號","OBJECTID":376492},"geometry":{"x":167528.28000000026,"y":2541936.9400000013}},{"attributes":{"ID":376503,"DIS_CODE":0,"TOWNNAME":"南區","LI":"田寮里","LIN":"10鄰","STREET":"新興路","SECT":" ","MAREA":" ","LANE":"１１３巷","ALLEY":" ","HOUSE_NO":"１０１號","E_COORD97":167539.39000000001,"N_COORD97":2541931.9500000002,"ADDRESS":"新興路１１３巷１０１號","OBJECTID":376493},"geometry":{"x":167539.3900000006,"y":2541931.950000003}},{"attributes":{"ID":376504,"DIS_CODE":0,"TOWNNAME":"南區","LI":"田寮里","LIN":"10鄰","STREET":"新興路","SECT":" ","MAREA":" ","LANE":"１１３巷","ALLEY":" ","HOUSE_NO":"６４號之２","E_COORD97":167529.38,"N_COORD97":2541944.0099999998,"ADDRESS":"新興路１１３巷６４號之２","OBJECTID":376494},"geometry":{"x":167529.38000000082,"y":2541944.0099999998}},{"attributes":{"ID":376505,"DIS_CODE":0,"TOWNNAME":"南區","LI":"田寮里","LIN":"10鄰","STREET":"新興路","SECT":" ","MAREA":" ","LANE":"１１３巷","ALLEY":" ","HOUSE_NO":"６４號之１","E_COORD97":167531.60000000001,"N_COORD97":2541950.1899999999,"ADDRESS":"新興路１１３巷６４號之１","OBJECTID":376495},"geometry":{"x":167531.60000000056,"y":2541950.1899999995}},{"attributes":{"ID":376506,"DIS_CODE":0,"TOWNNAME":"南區","LI":"田寮里","LIN":"10鄰","STREET":"新興路","SECT":" ","MAREA":" ","LANE":"１１３巷","ALLEY":" ","HOUSE_NO":"９９號","E_COORD97":167540.98000000001,"N_COORD97":2541937.0699999998,"ADDRESS":"新興路１１３巷９９號","OBJECTID":376496},"geometry":{"x":167540.98000000231,"y":2541937.0700000022}},{"attributes":{"ID":376507,"DIS_CODE":0,"TOWNNAME":"南區","LI":"田寮里","LIN":"10鄰","STREET":"新興路","SECT":" ","MAREA":" ","LANE":"１１３巷","ALLEY":" ","HOUSE_NO":"９５號","E_COORD97":167549.37,"N_COORD97":2541940.8100000001,"ADDRESS":"新興路１１３巷９５號","OBJECTID":376497},"geometry":{"x":167549.37000000011,"y":2541940.8099999987}},{"attributes":{"ID":376508,"DIS_CODE":0,"TOWNNAME":"南區","LI":"田寮里","LIN":"10鄰","STREET":"新興路","SECT":" ","MAREA":" ","LANE":"１１３巷","ALLEY":" ","HOUSE_NO":"６４號","E_COORD97":167534.25,"N_COORD97":2541955.0499999998,"ADDRESS":"新興路１１３巷６４號","OBJECTID":376498},"geometry":{"x":167534.25000000093,"y":2541955.0500000007}},{"attributes":{"ID":376509,"DIS_CODE":0,"TOWNNAME":"南區","LI":"田寮里","LIN":"10鄰","STREET":"新興路","SECT":" ","MAREA":" ","LANE":"１１３巷","ALLEY":" ","HOUSE_NO":"６２號","E_COORD97":167536.45999999999,"N_COORD97":2541960.3599999999,"ADDRESS":"新興路１１３巷６２號","OBJECTID":376499},"geometry":{"x":167536.45999999996,"y":2541960.3600000013}},{"attributes":{"ID":376510,"DIS_CODE":0,"TOWNNAME":"南區","LI":"田寮里","LIN":"10鄰","STREET":"新興路","SECT":" ","MAREA":" ","LANE":"１１３巷","ALLEY":" ","HOUSE_NO":"６０號","E_COORD97":167540.67000000001,"N_COORD97":2541966.1000000001,"ADDRESS":"新興路１１３巷６０號","OBJECTID":376500},"geometry":{"x":167540.66999999899,"y":2541966.1000000015}},{"attributes":{"ID":376511,"DIS_CODE":0,"TOWNNAME":"南區","LI":"田寮里","LIN":"10鄰","STREET":"新興路","SECT":" ","MAREA":" ","LANE":"１１３巷","ALLEY":" ","HOUSE_NO":"９１號","E_COORD97":167552.84,"N_COORD97":2541960.7599999998,"ADDRESS":"新興路１１３巷９１號","OBJECTID":376501},"geometry":{"x":167552.83999999985,"y":2541960.7599999979}},{"attributes":{"ID":376512,"DIS_CODE":0,"TOWNNAME":"南區","LI":"田寮里","LIN":"10鄰","STREET":"新興路","SECT":" ","MAREA":" ","LANE":"１１３巷","ALLEY":" ","HOUSE_NO":"５８號","E_COORD97":167543.10999999999,"N_COORD97":2541978.54,"ADDRESS":"新興路１１３巷５８號","OBJECTID":376502},"geometry":{"x":167543.11000000034,"y":2541978.5400000028}},{"attributes":{"ID":376513,"DIS_CODE":0,"TOWNNAME":"南區","LI":"田寮里","LIN":"10鄰","STREET":"新興路","SECT":" ","MAREA":" ","LANE":"１１３巷","ALLEY":" ","HOUSE_NO":"８３號","E_COORD97":167561.47,"N_COORD97":2541976.3700000001,"ADDRESS":"新興路１１３巷８３號","OBJECTID":376503},"geometry":{"x":167561.46999999974,"y":2541976.3700000029}},{"attributes":{"ID":376514,"DIS_CODE":0,"TOWNNAME":"南區","LI":"田寮里","LIN":"10鄰","STREET":"新興路","SECT":" ","MAREA":" ","LANE":"１１３巷","ALLEY":" ","HOUSE_NO":"７５號","E_COORD97":167566.59,"N_COORD97":2541983.7799999998,"ADDRESS":"新興路１１３巷７５號","OBJECTID":376504},"geometry":{"x":167566.58999999892,"y":2541983.7799999975}},{"attributes":{"ID":376515,"DIS_CODE":0,"TOWNNAME":"南區","LI":"田寮里","LIN":"10鄰","STREET":"新興路","SECT":" ","MAREA":" ","LANE":"１１３巷","ALLEY":" ","HOUSE_NO":"７７號","E_COORD97":167582.35000000001,"N_COORD97":2541973.5600000001,"ADDRESS":"新興路１１３巷７７號","OBJECTID":376505},"geometry":{"x":167582.35000000056,"y":2541973.5600000024}},{"attributes":{"ID":376516,"DIS_CODE":0,"TOWNNAME":"佳里區","LI":"東寧里","LIN":"10鄰","STREET":"進學路","SECT":" ","MAREA":" ","LANE":"１６１巷","ALLEY":" ","HOUSE_NO":"１號","E_COORD97":165792.59,"N_COORD97":2562636.04,"ADDRESS":"進學路１６１巷１號","OBJECTID":376506},"geometry":{"x":165792.59000000078,"y":2562636.0399999972}},{"attributes":{"ID":376517,"DIS_CODE":0,"TOWNNAME":"中西區","LI":"民生里","LIN":"10鄰","STREET":"大勇街","SECT":" ","MAREA":" ","LANE":"９２巷","ALLEY":" ","HOUSE_NO":"１８號","E_COORD97":167119.45999999999,"N_COORD97":2543416.2599999998,"ADDRESS":"大勇街９２巷１８號","OBJECTID":376507},"geometry":{"x":167119.45999999996,"y":2543416.2600000016}},{"attributes":{"ID":376518,"DIS_CODE":0,"TOWNNAME":"中西區","LI":"民生里","LIN":"10鄰","STREET":"大勇街","SECT":" ","MAREA":" ","LANE":"９２巷","ALLEY":" ","HOUSE_NO":"２０號","E_COORD97":167126.29000000001,"N_COORD97":2543410.9500000002,"ADDRESS":"大勇街９２巷２０號","OBJECTID":376508},"geometry":{"x":167126.29000000004,"y":2543410.9500000011}},{"attributes":{"ID":376519,"DIS_CODE":0,"TOWNNAME":"中西區","LI":"民生里","LIN":"10鄰","STREET":"大勇街","SECT":" ","MAREA":" ","LANE":"９２巷","ALLEY":" ","HOUSE_NO":"２２號","E_COORD97":167136.26999999999,"N_COORD97":2543411.8100000001,"ADDRESS":"大勇街９２巷２２號","OBJECTID":376509},"geometry":{"x":167136.27000000142,"y":2543411.8100000005}},{"attributes":{"ID":376520,"DIS_CODE":0,"TOWNNAME":"中西區","LI":"民生里","LIN":"10鄰","STREET":"大勇街","SECT":" ","MAREA":" ","LANE":"９２巷","ALLEY":" ","HOUSE_NO":"２４號","E_COORD97":167141.34,"N_COORD97":2543408.52,"ADDRESS":"大勇街９２巷２４號","OBJECTID":376510},"geometry":{"x":167141.34000000078,"y":2543408.5199999996}},{"attributes":{"ID":376521,"DIS_CODE":0,"TOWNNAME":"中西區","LI":"民生里","LIN":"10鄰","STREET":"大勇街","SECT":" ","MAREA":" ","LANE":"９２巷","ALLEY":" ","HOUSE_NO":"２６號","E_COORD97":167145.67000000001,"N_COORD97":2543408.0600000001,"ADDRESS":"大勇街９２巷２６號","OBJECTID":376511},"geometry":{"x":167145.66999999899,"y":2543408.0600000024}},{"attributes":{"ID":376522,"DIS_CODE":0,"TOWNNAME":"中西區","LI":"民生里","LIN":"10鄰","STREET":"大勇街","SECT":" ","MAREA":" ","LANE":"９２巷","ALLEY":" ","HOUSE_NO":"２８號","E_COORD97":167152.95999999999,"N_COORD97":2543405.79,"ADDRESS":"大勇街９２巷２８號","OBJECTID":376512},"geometry":{"x":167152.96000000089,"y":2543405.790000001}},{"attributes":{"ID":376523,"DIS_CODE":0,"TOWNNAME":"中西區","LI":"民生里","LIN":"10鄰","STREET":"大勇街","SECT":" ","MAREA":" ","LANE":"９２巷","ALLEY":" ","HOUSE_NO":"３０號","E_COORD97":167156.14999999999,"N_COORD97":2543405.79,"ADDRESS":"大勇街９２巷３０號","OBJECTID":376513},"geometry":{"x":167156.15000000037,"y":2543405.790000001}},{"attributes":{"ID":376524,"DIS_CODE":0,"TOWNNAME":"中西區","LI":"民生里","LIN":"10鄰","STREET":"大勇街","SECT":" ","MAREA":" ","LANE":"９２巷","ALLEY":" ","HOUSE_NO":"３２號","E_COORD97":167162.07999999999,"N_COORD97":2543408.52,"ADDRESS":"大勇街９２巷３２號","OBJECTID":376514},"geometry":{"x":167162.08000000101,"y":2543408.5199999996}},{"attributes":{"ID":376525,"DIS_CODE":0,"TOWNNAME":"中西區","LI":"民生里","LIN":"10鄰","STREET":"大勇街","SECT":" ","MAREA":" ","LANE":"９２巷","ALLEY":" ","HOUSE_NO":"３２號之１","E_COORD97":167155.01000000001,"N_COORD97":2543412.3900000001,"ADDRESS":"大勇街９２巷３２號之１","OBJECTID":376515},"geometry":{"x":167155.00999999978,"y":2543412.3900000025}},{"attributes":{"ID":376526,"DIS_CODE":0,"TOWNNAME":"中西區","LI":"民生里","LIN":"10鄰","STREET":"大勇街","SECT":" ","MAREA":" ","LANE":"９２巷","ALLEY":" ","HOUSE_NO":"３４號","E_COORD97":167169.14000000001,"N_COORD97":2543404.6499999999,"ADDRESS":"大勇街９２巷３４號","OBJECTID":376516},"geometry":{"x":167169.13999999966,"y":2543404.6500000022}},{"attributes":{"ID":376527,"DIS_CODE":0,"TOWNNAME":"中西區","LI":"元安里","LIN":"10鄰","STREET":"西門路","SECT":"一段","MAREA":" ","LANE":"７４７巷","ALLEY":" ","HOUSE_NO":"１２號","E_COORD97":167686.17000000001,"N_COORD97":2543347.1299999999,"ADDRESS":"西門路一段７４７巷１２號","OBJECTID":376517},"geometry":{"x":167686.16999999993,"y":2543347.129999999}},{"attributes":{"ID":376528,"DIS_CODE":0,"TOWNNAME":"中西區","LI":"民生里","LIN":"10鄰","STREET":"大勇街","SECT":" ","MAREA":" ","LANE":"９２巷","ALLEY":" ","HOUSE_NO":"１０號","E_COORD97":167144.07000000001,"N_COORD97":2543396.23,"ADDRESS":"大勇街９２巷１０號","OBJECTID":376518},"geometry":{"x":167144.07000000123,"y":2543396.2300000023}},{"attributes":{"ID":376529,"DIS_CODE":0,"TOWNNAME":"中西區","LI":"民生里","LIN":"10鄰","STREET":"大勇街","SECT":" ","MAREA":" ","LANE":"９２巷","ALLEY":" ","HOUSE_NO":"１２號","E_COORD97":167139.97,"N_COORD97":2543396.4500000002,"ADDRESS":"大勇街９２巷１２號","OBJECTID":376519},"geometry":{"x":167139.96999999974,"y":2543396.450000003}},{"attributes":{"ID":376530,"DIS_CODE":0,"TOWNNAME":"中西區","LI":"民生里","LIN":"10鄰","STREET":"大勇街","SECT":" ","MAREA":" ","LANE":"９２巷","ALLEY":" ","HOUSE_NO":"１６號","E_COORD97":167115.57999999999,"N_COORD97":2543398.2799999998,"ADDRESS":"大勇街９２巷１６號","OBJECTID":376520},"geometry":{"x":167115.58000000007,"y":2543398.2800000012}},{"attributes":{"ID":376531,"DIS_CODE":0,"TOWNNAME":"中西區","LI":"民生里","LIN":"10鄰","STREET":"大勇街","SECT":" ","MAREA":" ","LANE":"９２巷","ALLEY":" ","HOUSE_NO":"２號","E_COORD97":167170.51000000001,"N_COORD97":2543397.3599999999,"ADDRESS":"大勇街９２巷２號","OBJECTID":376521},"geometry":{"x":167170.51000000164,"y":2543397.3600000031}},{"attributes":{"ID":376532,"DIS_CODE":0,"TOWNNAME":"中西區","LI":"民生里","LIN":"10鄰","STREET":"大勇街","SECT":" ","MAREA":" ","LANE":"９２巷","ALLEY":" ","HOUSE_NO":"４號","E_COORD97":167154.56,"N_COORD97":2543396,"ADDRESS":"大勇街９２巷４號","OBJECTID":376522},"geometry":{"x":167154.55999999866,"y":2543396}},{"attributes":{"ID":376533,"DIS_CODE":0,"TOWNNAME":"中西區","LI":"民生里","LIN":"10鄰","STREET":"大勇街","SECT":" ","MAREA":" ","LANE":"９２巷","ALLEY":" ","HOUSE_NO":"６號","E_COORD97":167150.91,"N_COORD97":2543396,"ADDRESS":"大勇街９２巷６號","OBJECTID":376523},"geometry":{"x":167150.91000000015,"y":2543396}},{"attributes":{"ID":376534,"DIS_CODE":0,"TOWNNAME":"中西區","LI":"民生里","LIN":"10鄰","STREET":"大勇街","SECT":" ","MAREA":" ","LANE":"９２巷","ALLEY":" ","HOUSE_NO":"８號","E_COORD97":167147.72,"N_COORD97":2543395.77,"ADDRESS":"大勇街９２巷８號","OBJECTID":376524},"geometry":{"x":167147.72000000067,"y":2543395.7700000014}},{"attributes":{"ID":376535,"DIS_CODE":0,"TOWNNAME":"中西區","LI":"元安里","LIN":"10鄰","STREET":"西門路","SECT":"一段","MAREA":" ","LANE":"７６１巷","ALLEY":" ","HOUSE_NO":"２１號","E_COORD97":167654.09,"N_COORD97":2543382.4399999999,"ADDRESS":"西門路一段７６１巷２１號","OBJECTID":376525},"geometry":{"x":167654.08999999985,"y":2543382.4399999995}},{"attributes":{"ID":376536,"DIS_CODE":0,"TOWNNAME":"中西區","LI":"元安里","LIN":"10鄰","STREET":"西門路","SECT":"一段","MAREA":" ","LANE":"７６１巷","ALLEY":" ","HOUSE_NO":"２３號","E_COORD97":167646.20000000001,"N_COORD97":2543384.4100000001,"ADDRESS":"西門路一段７６１巷２３號","OBJECTID":376526},"geometry":{"x":167646.20000000112,"y":2543384.4100000039}},{"attributes":{"ID":376537,"DIS_CODE":0,"TOWNNAME":"中西區","LI":"元安里","LIN":"10鄰","STREET":"國華街","SECT":"二段","MAREA":" ","LANE":"７１巷","ALLEY":" ","HOUSE_NO":"２號","E_COORD97":167617.26000000001,"N_COORD97":2543351.21,"ADDRESS":"國華街二段７１巷２號","OBJECTID":376527},"geometry":{"x":167617.25999999978,"y":2543351.2100000009}},{"attributes":{"ID":376538,"DIS_CODE":0,"TOWNNAME":"中西區","LI":"元安里","LIN":"10鄰","STREET":"國華街","SECT":"二段","MAREA":" ","LANE":"７１巷","ALLEY":" ","HOUSE_NO":"６號","E_COORD97":167612.34,"N_COORD97":2543350.6699999999,"ADDRESS":"國華街二段７１巷６號","OBJECTID":376528},"geometry":{"x":167612.33999999892,"y":2543350.6699999999}},{"attributes":{"ID":376539,"DIS_CODE":0,"TOWNNAME":"中西區","LI":"元安里","LIN":"10鄰","STREET":"國華街","SECT":"二段","MAREA":" ","LANE":"７１巷","ALLEY":" ","HOUSE_NO":"８號","E_COORD97":167607.53,"N_COORD97":2543351.6299999999,"ADDRESS":"國華街二段７１巷８號","OBJECTID":376529},"geometry":{"x":167607.53000000026,"y":2543351.6300000008}},{"attributes":{"ID":376540,"DIS_CODE":0,"TOWNNAME":"中西區","LI":"元安里","LIN":"10鄰","STREET":"西門路","SECT":"一段","MAREA":" ","LANE":"７４７巷","ALLEY":" ","HOUSE_NO":"１０號","E_COORD97":167690.47,"N_COORD97":2543348.4700000002,"ADDRESS":"西門路一段７４７巷１０號","OBJECTID":376530},"geometry":{"x":167690.46999999974,"y":2543348.4700000025}},{"attributes":{"ID":376541,"DIS_CODE":0,"TOWNNAME":"中西區","LI":"元安里","LIN":"10鄰","STREET":"西門路","SECT":"一段","MAREA":" ","LANE":"７４７巷","ALLEY":" ","HOUSE_NO":"１４號","E_COORD97":167681.56,"N_COORD97":2543348.1600000001,"ADDRESS":"西門路一段７４７巷１４號","OBJECTID":376531},"geometry":{"x":167681.55999999959,"y":2543348.1600000001}},{"attributes":{"ID":376542,"DIS_CODE":0,"TOWNNAME":"中西區","LI":"元安里","LIN":"10鄰","STREET":"西門路","SECT":"一段","MAREA":" ","LANE":"７４７巷","ALLEY":" ","HOUSE_NO":"１６號","E_COORD97":167677.20999999999,"N_COORD97":2543344.98,"ADDRESS":"西門路一段７４７巷１６號","OBJECTID":376532},"geometry":{"x":167677.20999999996,"y":2543344.9800000023}},{"attributes":{"ID":376543,"DIS_CODE":0,"TOWNNAME":"中西區","LI":"元安里","LIN":"10鄰","STREET":"西門路","SECT":"一段","MAREA":" ","LANE":"７４７巷","ALLEY":" ","HOUSE_NO":"１８號","E_COORD97":167672.67999999999,"N_COORD97":2543346.8999999999,"ADDRESS":"西門路一段７４７巷１８號","OBJECTID":376533},"geometry":{"x":167672.68000000156,"y":2543346.9000000004}},{"attributes":{"ID":376544,"DIS_CODE":0,"TOWNNAME":"中西區","LI":"元安里","LIN":"10鄰","STREET":"西門路","SECT":"一段","MAREA":" ","LANE":"７４７巷","ALLEY":" ","HOUSE_NO":"２０號","E_COORD97":167666.98000000001,"N_COORD97":2543343.6099999999,"ADDRESS":"西門路一段７４７巷２０號","OBJECTID":376534},"geometry":{"x":167666.98000000138,"y":2543343.6099999994}},{"attributes":{"ID":376545,"DIS_CODE":0,"TOWNNAME":"中西區","LI":"元安里","LIN":"10鄰","STREET":"西門路","SECT":"一段","MAREA":" ","LANE":"７４７巷","ALLEY":" ","HOUSE_NO":"２４號","E_COORD97":167670.95999999999,"N_COORD97":2543370.5600000001,"ADDRESS":"西門路一段７４７巷２４號","OBJECTID":376535},"geometry":{"x":167670.95999999903,"y":2543370.5600000024}},{"attributes":{"ID":376546,"DIS_CODE":0,"TOWNNAME":"中西區","LI":"元安里","LIN":"10鄰","STREET":"西門路","SECT":"一段","MAREA":" ","LANE":"７４７巷","ALLEY":" ","HOUSE_NO":"２６號","E_COORD97":167662.53,"N_COORD97":2543372.1000000001,"ADDRESS":"西門路一段７４７巷２６號","OBJECTID":376536},"geometry":{"x":167662.53000000212,"y":2543372.1000000034}},{"attributes":{"ID":376547,"DIS_CODE":0,"TOWNNAME":"東區","LI":"裕農里","LIN":"10鄰","STREET":"東寧路","SECT":" ","MAREA":" ","LANE":"５３８巷","ALLEY":" ","HOUSE_NO":"８號","E_COORD97":171201.57999999999,"N_COORD97":2543226.7200000002,"ADDRESS":"東寧路５３８巷８號","OBJECTID":376537},"geometry":{"x":171201.58000000194,"y":2543226.7200000044}},{"attributes":{"ID":376548,"DIS_CODE":0,"TOWNNAME":"中西區","LI":"元安里","LIN":"10鄰","STREET":"西門路","SECT":"一段","MAREA":" ","LANE":"７４７巷","ALLEY":" ","HOUSE_NO":"６號","E_COORD97":167699.89000000001,"N_COORD97":2543350.3599999999,"ADDRESS":"西門路一段７４７巷６號","OBJECTID":376538},"geometry":{"x":167699.88999999966,"y":2543350.3600000013}},{"attributes":{"ID":376549,"DIS_CODE":0,"TOWNNAME":"中西區","LI":"元安里","LIN":"10鄰","STREET":"西門路","SECT":"一段","MAREA":" ","LANE":"７４７巷","ALLEY":" ","HOUSE_NO":"８號","E_COORD97":167694.54000000001,"N_COORD97":2543350.1400000001,"ADDRESS":"西門路一段７４７巷８號","OBJECTID":376539},"geometry":{"x":167694.54000000097,"y":2543350.1400000025}},{"attributes":{"ID":376550,"DIS_CODE":0,"TOWNNAME":"中西區","LI":"元安里","LIN":"10鄰","STREET":"西門路","SECT":"一段","MAREA":" ","LANE":"７６１巷","ALLEY":" ","HOUSE_NO":"１１號","E_COORD97":167676,"N_COORD97":2543377.1899999999,"ADDRESS":"西門路一段７６１巷１１號","OBJECTID":376540},"geometry":{"x":167676.00000000186,"y":2543377.1899999995}},{"attributes":{"ID":376551,"DIS_CODE":0,"TOWNNAME":"中西區","LI":"元安里","LIN":"10鄰","STREET":"西門路","SECT":"一段","MAREA":" ","LANE":"７６１巷","ALLEY":" ","HOUSE_NO":"９號","E_COORD97":167681.79999999999,"N_COORD97":2543380.0600000001,"ADDRESS":"西門路一段７６１巷９號","OBJECTID":376541},"geometry":{"x":167681.79999999981,"y":2543380.0599999987}},{"attributes":{"ID":376552,"DIS_CODE":0,"TOWNNAME":"仁德區","LI":"仁義里","LIN":"22鄰","STREET":"中山路","SECT":" ","MAREA":" ","LANE":"３９６巷","ALLEY":" ","HOUSE_NO":"５號","E_COORD97":173787.54000000001,"N_COORD97":2541313.9900000002,"ADDRESS":"中山路３９６巷５號","OBJECTID":376542},"geometry":{"x":173787.54000000097,"y":2541313.9900000002}},{"attributes":{"ID":376553,"DIS_CODE":0,"TOWNNAME":"仁德區","LI":"土庫里","LIN":"3鄰","STREET":"土庫路","SECT":" ","MAREA":" ","LANE":"２００巷","ALLEY":" ","HOUSE_NO":"１５號","E_COORD97":174199.62,"N_COORD97":2542892,"ADDRESS":"土庫路２００巷１５號","OBJECTID":376543},"geometry":{"x":174199.62000000011,"y":2542892.0000000037}},{"attributes":{"ID":376554,"DIS_CODE":0,"TOWNNAME":"仁德區","LI":"仁義里","LIN":"18鄰","STREET":"正義三街","SECT":" ","MAREA":" ","LANE":"２８６巷","ALLEY":" ","HOUSE_NO":"１７號","E_COORD97":174019.81,"N_COORD97":2541482.4199999999,"ADDRESS":"正義三街２８６巷１７號","OBJECTID":376544},"geometry":{"x":174019.80999999959,"y":2541482.4200000018}},{"attributes":{"ID":376555,"DIS_CODE":0,"TOWNNAME":"仁德區","LI":"仁義里","LIN":"2鄰","STREET":"仁義三街","SECT":" ","MAREA":" ","LANE":"２４３巷","ALLEY":" ","HOUSE_NO":"２號","E_COORD97":173979.45000000001,"N_COORD97":2541146.77,"ADDRESS":"仁義三街２４３巷２號","OBJECTID":376545},"geometry":{"x":173979.45000000112,"y":2541146.7700000033}},{"attributes":{"ID":376556,"DIS_CODE":0,"TOWNNAME":"仁德區","LI":"仁義里","LIN":"15鄰","STREET":"義林路","SECT":" ","MAREA":" ","LANE":"２５６巷","ALLEY":" ","HOUSE_NO":"６０號","E_COORD97":174918.03,"N_COORD97":2541471.27,"ADDRESS":"義林路２５６巷６０號","OBJECTID":376546},"geometry":{"x":174918.03000000119,"y":2541471.2699999996}},{"attributes":{"ID":376557,"DIS_CODE":0,"TOWNNAME":"仁德區","LI":"仁義里","LIN":"43鄰","STREET":"中正路","SECT":"二段","MAREA":" ","LANE":"９９４巷","ALLEY":" ","HOUSE_NO":"４１號","E_COORD97":173530.75,"N_COORD97":2540805.52,"ADDRESS":"中正路二段９９４巷４１號","OBJECTID":376547},"geometry":{"x":173530.75,"y":2540805.5199999996}},{"attributes":{"ID":376558,"DIS_CODE":0,"TOWNNAME":"新化區","LI":"太平里","LIN":"10鄰","STREET":"中正路","SECT":" ","MAREA":" ","LANE":"７７７巷","ALLEY":" ","HOUSE_NO":"９號","E_COORD97":178648.31,"N_COORD97":2549308.25,"ADDRESS":"中正路７７７巷９號","OBJECTID":376548},"geometry":{"x":178648.31000000052,"y":2549308.2500000037}},{"attributes":{"ID":376559,"DIS_CODE":0,"TOWNNAME":"新化區","LI":"太平里","LIN":"10鄰","STREET":"中正路","SECT":" ","MAREA":" ","LANE":"７７７巷","ALLEY":" ","HOUSE_NO":"１５號之１","E_COORD97":178674.69,"N_COORD97":2549278.2599999998,"ADDRESS":"中正路７７７巷１５號之１","OBJECTID":376549},"geometry":{"x":178674.69000000041,"y":2549278.2600000016}},{"attributes":{"ID":376560,"DIS_CODE":0,"TOWNNAME":"新化區","LI":"太平里","LIN":"10鄰","STREET":"中正路","SECT":" ","MAREA":" ","LANE":"７７７巷","ALLEY":" ","HOUSE_NO":"３５號之１","E_COORD97":178681.09,"N_COORD97":2549214.2599999998,"ADDRESS":"中正路７７７巷３５號之１","OBJECTID":376550},"geometry":{"x":178681.09000000078,"y":2549214.2600000016}},{"attributes":{"ID":376561,"DIS_CODE":0,"TOWNNAME":"新化區","LI":"太平里","LIN":"10鄰","STREET":"中正路","SECT":" ","MAREA":" ","LANE":"７７７巷","ALLEY":" ","HOUSE_NO":"１１號","E_COORD97":178643.35999999999,"N_COORD97":2549306.25,"ADDRESS":"中正路７７７巷１１號","OBJECTID":376551},"geometry":{"x":178643.3600000022,"y":2549306.2500000019}},{"attributes":{"ID":376562,"DIS_CODE":0,"TOWNNAME":"新化區","LI":"太平里","LIN":"10鄰","STREET":"中正路","SECT":" ","MAREA":" ","LANE":"７７７巷","ALLEY":" ","HOUSE_NO":"１７號","E_COORD97":178676.45999999999,"N_COORD97":2549271.25,"ADDRESS":"中正路７７７巷１７號","OBJECTID":376552},"geometry":{"x":178676.46000000089,"y":2549271.2500000019}},{"attributes":{"ID":376563,"DIS_CODE":0,"TOWNNAME":"新化區","LI":"太平里","LIN":"10鄰","STREET":"中正路","SECT":" ","MAREA":" ","LANE":"７７７巷","ALLEY":" ","HOUSE_NO":"４號","E_COORD97":178661.81,"N_COORD97":2549332.25,"ADDRESS":"中正路７７７巷４號","OBJECTID":376553},"geometry":{"x":178661.81000000052,"y":2549332.2500000019}},{"attributes":{"ID":376564,"DIS_CODE":0,"TOWNNAME":"新化區","LI":"太平里","LIN":"10鄰","STREET":"中正路","SECT":" ","MAREA":" ","LANE":"７７７巷","ALLEY":" ","HOUSE_NO":"７號","E_COORD97":178652.10999999999,"N_COORD97":2549308.25,"ADDRESS":"中正路７７７巷７號","OBJECTID":376554},"geometry":{"x":178652.11000000127,"y":2549308.2500000037}},{"attributes":{"ID":376565,"DIS_CODE":0,"TOWNNAME":"新化區","LI":"太平里","LIN":"10鄰","STREET":"中正路","SECT":" ","MAREA":" ","LANE":"７７７巷","ALLEY":" ","HOUSE_NO":"２９號","E_COORD97":178671.56,"N_COORD97":2549246.25,"ADDRESS":"中正路７７７巷２９號","OBJECTID":376555},"geometry":{"x":178671.55999999959,"y":2549246.25}},{"attributes":{"ID":376566,"DIS_CODE":0,"TOWNNAME":"新化區","LI":"太平里","LIN":"10鄰","STREET":"中正路","SECT":" ","MAREA":" ","LANE":"７７７巷","ALLEY":" ","HOUSE_NO":"１５號","E_COORD97":178671.35999999999,"N_COORD97":2549285.25,"ADDRESS":"中正路７７７巷１５號","OBJECTID":376556},"geometry":{"x":178671.36000000127,"y":2549285.2500000019}},{"attributes":{"ID":376567,"DIS_CODE":0,"TOWNNAME":"新化區","LI":"太平里","LIN":"10鄰","STREET":"中正路","SECT":" ","MAREA":" ","LANE":"７７７巷","ALLEY":" ","HOUSE_NO":"３３號","E_COORD97":178670.26000000001,"N_COORD97":2549236.25,"ADDRESS":"中正路７７７巷３３號","OBJECTID":376557},"geometry":{"x":178670.25999999978,"y":2549236.25}},{"attributes":{"ID":376568,"DIS_CODE":0,"TOWNNAME":"新化區","LI":"太平里","LIN":"10鄰","STREET":"中正路","SECT":" ","MAREA":" ","LANE":"７７７巷","ALLEY":" ","HOUSE_NO":"６７號","E_COORD97":178618.16,"N_COORD97":2549314.25,"ADDRESS":"中正路７７７巷６７號","OBJECTID":376558},"geometry":{"x":178618.16000000108,"y":2549314.25}},{"attributes":{"ID":376569,"DIS_CODE":0,"TOWNNAME":"新化區","LI":"太平里","LIN":"10鄰","STREET":"中正路","SECT":" ","MAREA":" ","LANE":"７７７巷","ALLEY":" ","HOUSE_NO":"８７號","E_COORD97":178607.66,"N_COORD97":2549365.25,"ADDRESS":"中正路７７７巷８７號","OBJECTID":376559},"geometry":{"x":178607.66000000108,"y":2549365.25}},{"attributes":{"ID":376570,"DIS_CODE":0,"TOWNNAME":"新化區","LI":"太平里","LIN":"10鄰","STREET":"中正路","SECT":" ","MAREA":" ","LANE":"７７７巷","ALLEY":" ","HOUSE_NO":"３號","E_COORD97":178669.31,"N_COORD97":2549304.25,"ADDRESS":"中正路７７７巷３號","OBJECTID":376560},"geometry":{"x":178669.30999999959,"y":2549304.25}},{"attributes":{"ID":376571,"DIS_CODE":0,"TOWNNAME":"新化區","LI":"太平里","LIN":"10鄰","STREET":"中正路","SECT":" ","MAREA":" ","LANE":"７７７巷","ALLEY":" ","HOUSE_NO":"２號","E_COORD97":178665.70999999999,"N_COORD97":2549326.25,"ADDRESS":"中正路７７７巷２號","OBJECTID":376561},"geometry":{"x":178665.70999999996,"y":2549326.2500000019}},{"attributes":{"ID":376572,"DIS_CODE":0,"TOWNNAME":"安南區","LI":"新順里","LIN":"10鄰","STREET":"政安路","SECT":" ","MAREA":" ","LANE":"５７巷","ALLEY":" ","HOUSE_NO":"５號","E_COORD97":169910.48000000001,"N_COORD97":2549135.1800000002,"ADDRESS":"政安路５７巷５號","OBJECTID":376562},"geometry":{"x":169910.48000000045,"y":2549135.1799999978}},{"attributes":{"ID":376573,"DIS_CODE":0,"TOWNNAME":"安南區","LI":"新順里","LIN":"10鄰","STREET":"政安路","SECT":" ","MAREA":" ","LANE":"５７巷","ALLEY":" ","HOUSE_NO":"９號","E_COORD97":169909.79999999999,"N_COORD97":2549157.0299999998,"ADDRESS":"政安路５７巷９號","OBJECTID":376563},"geometry":{"x":169909.80000000075,"y":2549157.0300000012}},{"attributes":{"ID":376574,"DIS_CODE":0,"TOWNNAME":"新化區","LI":"太平里","LIN":"10鄰","STREET":"中正路","SECT":" ","MAREA":" ","LANE":"７７７巷","ALLEY":" ","HOUSE_NO":"３５號之２","E_COORD97":178680.60999999999,"N_COORD97":2549208.2599999998,"ADDRESS":"中正路７７７巷３５號之２","OBJECTID":376564},"geometry":{"x":178680.6099999994,"y":2549208.2599999998}},{"attributes":{"ID":376575,"DIS_CODE":0,"TOWNNAME":"新化區","LI":"太平里","LIN":"10鄰","STREET":"中正路","SECT":" ","MAREA":" ","LANE":"７７７巷","ALLEY":" ","HOUSE_NO":"４９號","E_COORD97":178630.56,"N_COORD97":2549272.25,"ADDRESS":"中正路７７７巷４９號","OBJECTID":376565},"geometry":{"x":178630.55999999959,"y":2549272.2500000019}},{"attributes":{"ID":376576,"DIS_CODE":0,"TOWNNAME":"新化區","LI":"太平里","LIN":"10鄰","STREET":"中正路","SECT":" ","MAREA":" ","LANE":"７７７巷","ALLEY":" ","HOUSE_NO":"２３號","E_COORD97":178673.95999999999,"N_COORD97":2549256.25,"ADDRESS":"中正路７７７巷２３號","OBJECTID":376566},"geometry":{"x":178673.95999999996,"y":2549256.25}},{"attributes":{"ID":376577,"DIS_CODE":0,"TOWNNAME":"新化區","LI":"太平里","LIN":"10鄰","STREET":"中正路","SECT":" ","MAREA":" ","LANE":"７７７巷","ALLEY":" ","HOUSE_NO":"５１號","E_COORD97":178630.45999999999,"N_COORD97":2549276.25,"ADDRESS":"中正路７７７巷５１號","OBJECTID":376567},"geometry":{"x":178630.46000000183,"y":2549276.25}},{"attributes":{"ID":376578,"DIS_CODE":0,"TOWNNAME":"新化區","LI":"太平里","LIN":"10鄰","STREET":"中正路","SECT":" ","MAREA":" ","LANE":"８５３巷","ALLEY":" ","HOUSE_NO":"３號","E_COORD97":178597.10999999999,"N_COORD97":2549464.25,"ADDRESS":"中正路８５３巷３號","OBJECTID":376568},"geometry":{"x":178597.11000000034,"y":2549464.2500000037}},{"attributes":{"ID":376579,"DIS_CODE":0,"TOWNNAME":"仁德區","LI":"土庫里","LIN":"13鄰","STREET":"土庫路","SECT":" ","MAREA":" ","LANE":"２１１巷","ALLEY":" ","HOUSE_NO":"２號","E_COORD97":174303.70999999999,"N_COORD97":2542890.75,"ADDRESS":"土庫路２１１巷２號","OBJECTID":376569},"geometry":{"x":174303.70999999996,"y":2542890.7500000019}},{"attributes":{"ID":376580,"DIS_CODE":0,"TOWNNAME":"新化區","LI":"豐榮里","LIN":"10鄰","STREET":"正新路","SECT":" ","MAREA":" ","LANE":"２１７巷","ALLEY":" ","HOUSE_NO":"６６號","E_COORD97":178425.76999999999,"N_COORD97":2548373.25,"ADDRESS":"正新路２１７巷６６號","OBJECTID":376570},"geometry":{"x":178425.76999999955,"y":2548373.2500000019}},{"attributes":{"ID":376581,"DIS_CODE":0,"TOWNNAME":"安南區","LI":"溪心里","LIN":"10鄰","STREET":"功安一街","SECT":" ","MAREA":" ","LANE":"６巷","ALLEY":" ","HOUSE_NO":"８號","E_COORD97":166149.20999999999,"N_COORD97":2549847.52,"ADDRESS":"功安一街６巷８號","OBJECTID":376571},"geometry":{"x":166149.21000000089,"y":2549847.5199999996}},{"attributes":{"ID":376582,"DIS_CODE":0,"TOWNNAME":"安南區","LI":"溪心里","LIN":"10鄰","STREET":"功安一街","SECT":" ","MAREA":" ","LANE":"６巷","ALLEY":" ","HOUSE_NO":"３號","E_COORD97":166137.62,"N_COORD97":2549841.3300000001,"ADDRESS":"功安一街６巷３號","OBJECTID":376572},"geometry":{"x":166137.61999999918,"y":2549841.3300000019}},{"attributes":{"ID":376583,"DIS_CODE":0,"TOWNNAME":"安南區","LI":"溪心里","LIN":"10鄰","STREET":"功安一街","SECT":" ","MAREA":" ","LANE":"６巷","ALLEY":" ","HOUSE_NO":"５號","E_COORD97":166142.23000000001,"N_COORD97":2549841.0099999998,"ADDRESS":"功安一街６巷５號","OBJECTID":376573},"geometry":{"x":166142.23000000045,"y":2549841.0099999998}},{"attributes":{"ID":376584,"DIS_CODE":0,"TOWNNAME":"安南區","LI":"溪心里","LIN":"10鄰","STREET":"功安一街","SECT":" ","MAREA":" ","LANE":"６巷","ALLEY":" ","HOUSE_NO":"６號","E_COORD97":166146.51000000001,"N_COORD97":2549840.8599999999,"ADDRESS":"功安一街６巷６號","OBJECTID":376574},"geometry":{"x":166146.51000000164,"y":2549840.8599999994}},{"attributes":{"ID":376585,"DIS_CODE":0,"TOWNNAME":"安南區","LI":"溪心里","LIN":"10鄰","STREET":"功安一街","SECT":" ","MAREA":" ","LANE":"６巷","ALLEY":" ","HOUSE_NO":"７號","E_COORD97":166150.64000000001,"N_COORD97":2549840.54,"ADDRESS":"功安一街６巷７號","OBJECTID":376575},"geometry":{"x":166150.64000000153,"y":2549840.5399999991}},{"attributes":{"ID":376586,"DIS_CODE":0,"TOWNNAME":"安南區","LI":"溪心里","LIN":"10鄰","STREET":"功安一街","SECT":" ","MAREA":" ","LANE":"６巷","ALLEY":" ","HOUSE_NO":"９號","E_COORD97":166143.82000000001,"N_COORD97":2549848.3199999998,"ADDRESS":"功安一街６巷９號","OBJECTID":376576},"geometry":{"x":166143.82000000123,"y":2549848.3200000022}},{"attributes":{"ID":376587,"DIS_CODE":0,"TOWNNAME":"安南區","LI":"溪心里","LIN":"10鄰","STREET":"功安一街","SECT":" ","MAREA":" ","LANE":"６巷","ALLEY":" ","HOUSE_NO":"１１號","E_COORD97":166133.66,"N_COORD97":2549848.6299999999,"ADDRESS":"功安一街６巷１１號","OBJECTID":376577},"geometry":{"x":166133.66000000015,"y":2549848.629999999}},{"attributes":{"ID":376588,"DIS_CODE":0,"TOWNNAME":"安南區","LI":"溪心里","LIN":"10鄰","STREET":"功安一街","SECT":" ","MAREA":" ","LANE":"６巷","ALLEY":" ","HOUSE_NO":"１０號","E_COORD97":166138.26000000001,"N_COORD97":2549848.48,"ADDRESS":"功安一街６巷１０號","OBJECTID":376578},"geometry":{"x":166138.26000000071,"y":2549848.4800000004}},{"attributes":{"ID":376589,"DIS_CODE":0,"TOWNNAME":"南區","LI":"再興里","LIN":"10鄰","STREET":"新城街","SECT":" ","MAREA":" ","LANE":"１６巷","ALLEY":" ","HOUSE_NO":"１號","E_COORD97":167195.62,"N_COORD97":2542205.27,"ADDRESS":"新城街１６巷１號","OBJECTID":376579},"geometry":{"x":167195.62000000197,"y":2542205.2700000014}},{"attributes":{"ID":376590,"DIS_CODE":0,"TOWNNAME":"南區","LI":"再興里","LIN":"10鄰","STREET":"新城街","SECT":" ","MAREA":" ","LANE":"１６巷","ALLEY":" ","HOUSE_NO":"２號","E_COORD97":167192.53,"N_COORD97":2542173.3199999998,"ADDRESS":"新城街１６巷２號","OBJECTID":376580},"geometry":{"x":167192.53000000026,"y":2542173.3200000003}},{"attributes":{"ID":376591,"DIS_CODE":0,"TOWNNAME":"南區","LI":"再興里","LIN":"10鄰","STREET":"新城街","SECT":" ","MAREA":" ","LANE":"１６巷","ALLEY":" ","HOUSE_NO":"４號","E_COORD97":167194.06,"N_COORD97":2542190.6699999999,"ADDRESS":"新城街１６巷４號","OBJECTID":376581},"geometry":{"x":167194.06000000052,"y":2542190.6699999999}},{"attributes":{"ID":376592,"DIS_CODE":0,"TOWNNAME":"南區","LI":"再興里","LIN":"10鄰","STREET":"新城街","SECT":" ","MAREA":" ","LANE":"１６巷","ALLEY":" ","HOUSE_NO":"６號","E_COORD97":167199.09,"N_COORD97":2542189.73,"ADDRESS":"新城街１６巷６號","OBJECTID":376582},"geometry":{"x":167199.09000000078,"y":2542189.7300000023}},{"attributes":{"ID":376593,"DIS_CODE":0,"TOWNNAME":"南區","LI":"再興里","LIN":"10鄰","STREET":"新城街","SECT":" ","MAREA":" ","LANE":"１６巷","ALLEY":" ","HOUSE_NO":"８號","E_COORD97":167203.70000000001,"N_COORD97":2542188.0499999998,"ADDRESS":"新城街１６巷８號","OBJECTID":376583},"geometry":{"x":167203.70000000112,"y":2542188.0500000026}},{"attributes":{"ID":376594,"DIS_CODE":0,"TOWNNAME":"南區","LI":"再興里","LIN":"10鄰","STREET":"新城街","SECT":" ","MAREA":" ","LANE":"１６巷","ALLEY":" ","HOUSE_NO":"１０號","E_COORD97":167207.69,"N_COORD97":2542186.1699999999,"ADDRESS":"新城街１６巷１０號","OBJECTID":376584},"geometry":{"x":167207.69000000134,"y":2542186.1700000018}},{"attributes":{"ID":376595,"DIS_CODE":0,"TOWNNAME":"南區","LI":"再興里","LIN":"10鄰","STREET":"新城街","SECT":" ","MAREA":" ","LANE":"１６巷","ALLEY":" ","HOUSE_NO":"１２號","E_COORD97":167212.60999999999,"N_COORD97":2542184.3900000001,"ADDRESS":"新城街１６巷１２號","OBJECTID":376585},"geometry":{"x":167212.61000000034,"y":2542184.3899999987}},{"attributes":{"ID":376596,"DIS_CODE":0,"TOWNNAME":"南區","LI":"再興里","LIN":"10鄰","STREET":"新城街","SECT":" ","MAREA":" ","LANE":"１６巷","ALLEY":" ","HOUSE_NO":"１４號","E_COORD97":167216.79999999999,"N_COORD97":2542182.6099999999,"ADDRESS":"新城街１６巷１４號","OBJECTID":376586},"geometry":{"x":167216.80000000075,"y":2542182.6100000013}},{"attributes":{"ID":376597,"DIS_CODE":0,"TOWNNAME":"南區","LI":"再興里","LIN":"10鄰","STREET":"新城街","SECT":" ","MAREA":" ","LANE":"１６巷","ALLEY":" ","HOUSE_NO":"１６號","E_COORD97":167221.20000000001,"N_COORD97":2542180.3100000001,"ADDRESS":"新城街１６巷１６號","OBJECTID":376587},"geometry":{"x":167221.20000000112,"y":2542180.3100000005}},{"attributes":{"ID":376598,"DIS_CODE":0,"TOWNNAME":"南區","LI":"再興里","LIN":"10鄰","STREET":"新城街","SECT":" ","MAREA":" ","LANE":"１６巷","ALLEY":" ","HOUSE_NO":"１８號","E_COORD97":167226.44,"N_COORD97":2542178.3199999998,"ADDRESS":"新城街１６巷１８號","OBJECTID":376588},"geometry":{"x":167226.44000000134,"y":2542178.3200000022}},{"attributes":{"ID":376599,"DIS_CODE":0,"TOWNNAME":"南區","LI":"再興里","LIN":"10鄰","STREET":"新城街","SECT":" ","MAREA":" ","LANE":"１６巷","ALLEY":" ","HOUSE_NO":"２０號","E_COORD97":167230.67999999999,"N_COORD97":2542175.1200000001,"ADDRESS":"新城街１６巷２０號","OBJECTID":376589},"geometry":{"x":167230.68000000063,"y":2542175.120000001}},{"attributes":{"ID":376600,"DIS_CODE":0,"TOWNNAME":"南區","LI":"竹溪里","LIN":"10鄰","STREET":"體育路","SECT":" ","MAREA":" ","LANE":"４３巷","ALLEY":" ","HOUSE_NO":"１２號","E_COORD97":168752.69,"N_COORD97":2542208.25,"ADDRESS":"體育路４３巷１２號","OBJECTID":376590},"geometry":{"x":168752.69000000041,"y":2542208.25}},{"attributes":{"ID":376601,"DIS_CODE":0,"TOWNNAME":"南區","LI":"竹溪里","LIN":"10鄰","STREET":"體育路","SECT":" ","MAREA":" ","LANE":"４３巷","ALLEY":" ","HOUSE_NO":"１４號","E_COORD97":168757.89999999999,"N_COORD97":2542208.25,"ADDRESS":"體育路４３巷１４號","OBJECTID":376591},"geometry":{"x":168757.90000000037,"y":2542208.25}},{"attributes":{"ID":376602,"DIS_CODE":0,"TOWNNAME":"南區","LI":"竹溪里","LIN":"10鄰","STREET":"體育路","SECT":" ","MAREA":" ","LANE":"４３巷","ALLEY":" ","HOUSE_NO":"１６號","E_COORD97":168762.41,"N_COORD97":2542208.6000000001,"ADDRESS":"體育路４３巷１６號","OBJECTID":376592},"geometry":{"x":168762.41000000108,"y":2542208.5999999996}},{"attributes":{"ID":376603,"DIS_CODE":0,"TOWNNAME":"南區","LI":"竹溪里","LIN":"10鄰","STREET":"體育路","SECT":" ","MAREA":" ","LANE":"４５巷","ALLEY":" ","HOUSE_NO":"４號","E_COORD97":168737.59,"N_COORD97":2542176.0499999998,"ADDRESS":"體育路４５巷４號","OBJECTID":376593},"geometry":{"x":168737.58999999985,"y":2542176.0500000007}},{"attributes":{"ID":376604,"DIS_CODE":0,"TOWNNAME":"南區","LI":"竹溪里","LIN":"10鄰","STREET":"體育路","SECT":" ","MAREA":" ","LANE":"４５巷","ALLEY":" ","HOUSE_NO":"６號","E_COORD97":168739.59,"N_COORD97":2542172.5299999998,"ADDRESS":"體育路４５巷６號","OBJECTID":376594},"geometry":{"x":168739.58999999985,"y":2542172.5300000012}},{"attributes":{"ID":376605,"DIS_CODE":0,"TOWNNAME":"南區","LI":"竹溪里","LIN":"10鄰","STREET":"體育路","SECT":" ","MAREA":" ","LANE":"４５巷","ALLEY":" ","HOUSE_NO":"８號","E_COORD97":168744.41,"N_COORD97":2542175.4700000002,"ADDRESS":"體育路４５巷８號","OBJECTID":376595},"geometry":{"x":168744.41000000015,"y":2542175.4700000025}},{"attributes":{"ID":376606,"DIS_CODE":0,"TOWNNAME":"南區","LI":"竹溪里","LIN":"10鄰","STREET":"體育路","SECT":" ","MAREA":" ","LANE":"４５巷","ALLEY":" ","HOUSE_NO":"１０號","E_COORD97":168747.82000000001,"N_COORD97":2542174.29,"ADDRESS":"體育路４５巷１０號","OBJECTID":376596},"geometry":{"x":168747.82000000123,"y":2542174.290000001}},{"attributes":{"ID":376607,"DIS_CODE":0,"TOWNNAME":"南區","LI":"竹溪里","LIN":"10鄰","STREET":"體育路","SECT":" ","MAREA":" ","LANE":"４５巷","ALLEY":" ","HOUSE_NO":"１２號","E_COORD97":168753.04000000001,"N_COORD97":2542173.2599999998,"ADDRESS":"體育路４５巷１２號","OBJECTID":376597},"geometry":{"x":168753.04000000004,"y":2542173.2599999998}},{"attributes":{"ID":376608,"DIS_CODE":0,"TOWNNAME":"南區","LI":"竹溪里","LIN":"10鄰","STREET":"體育路","SECT":" ","MAREA":" ","LANE":"４５巷","ALLEY":" ","HOUSE_NO":"１４號","E_COORD97":168756.16,"N_COORD97":2542172.5600000001,"ADDRESS":"體育路４５巷１４號","OBJECTID":376598},"geometry":{"x":168756.16000000015,"y":2542172.5600000005}},{"attributes":{"ID":376609,"DIS_CODE":0,"TOWNNAME":"南區","LI":"竹溪里","LIN":"10鄰","STREET":"體育路","SECT":" ","MAREA":" ","LANE":"４５巷","ALLEY":" ","HOUSE_NO":"１６號","E_COORD97":168761.37,"N_COORD97":2542172.2200000002,"ADDRESS":"體育路４５巷１６號","OBJECTID":376599},"geometry":{"x":168761.37000000011,"y":2542172.2200000044}},{"attributes":{"ID":376610,"DIS_CODE":0,"TOWNNAME":"南區","LI":"竹溪里","LIN":"10鄰","STREET":"體育路","SECT":" ","MAREA":" ","LANE":"４３巷","ALLEY":" ","HOUSE_NO":"４４號","E_COORD97":168774.20000000001,"N_COORD97":2542186.77,"ADDRESS":"體育路４３巷４４號","OBJECTID":376600},"geometry":{"x":168774.20000000019,"y":2542186.7699999996}}]}