{"displayFieldName":"TOWNNAME","fieldAliases":{"ID":"ID","DIS_CODE":"DIS_CODE","TOWNNAME":"TOWNNAME","LI":"LI","LIN":"LIN","STREET":"STREET","SECT":"SECT","MAREA":"MAREA","LANE":"LANE","ALLEY":"ALLEY","HOUSE_NO":"HOUSE_NO","E_COORD97":"E_COORD97","N_COORD97":"N_COORD97","ADDRESS":"ADDRESS","OBJECTID":"OBJECTID"},"geometryType":"esriGeometryPoint","spatialReference":{"wkid":102443,"latestWkid":3826},"fields":[{"name":"ID","type":"esriFieldTypeDouble","alias":"ID"},{"name":"DIS_CODE","type":"esriFieldTypeInteger","alias":"DIS_CODE"},{"name":"TOWNNAME","type":"esriFieldTypeString","alias":"TOWNNAME","length":8},{"name":"LI","type":"esriFieldTypeString","alias":"LI","length":8},{"name":"LIN","type":"esriFieldTypeString","alias":"LIN","length":12},{"name":"STREET","type":"esriFieldTypeString","alias":"STREET","length":20},{"name":"SECT","type":"esriFieldTypeString","alias":"SECT","length":8},{"name":"MAREA","type":"esriFieldTypeString","alias":"MAREA","length":12},{"name":"LANE","type":"esriFieldTypeString","alias":"LANE","length":10},{"name":"ALLEY","type":"esriFieldTypeString","alias":"ALLEY","length":10},{"name":"HOUSE_NO","type":"esriFieldTypeString","alias":"HOUSE_NO","length":20},{"name":"E_COORD97","type":"esriFieldTypeDouble","alias":"E_COORD97"},{"name":"N_COORD97","type":"esriFieldTypeDouble","alias":"N_COORD97"},{"name":"ADDRESS","type":"esriFieldTypeString","alias":"ADDRESS","length":50},{"name":"OBJECTID","type":"esriFieldTypeOID","alias":"OBJECTID"}],"features":[{"attributes":{"ID":343810,"DIS_CODE":0,"TOWNNAME":"永康區","LI":"\u25A0洲里","LIN":"38鄰","STREET":"\u25A0行路","SECT":" ","MAREA":" ","LANE":" ","ALLEY":" ","HOUSE_NO":"１９６號","E_COORD97":171305.82999999999,"N_COORD97":2549197.0899999999,"ADDRESS":"\u25A0行路１９６號","OBJECTID":343801},"geometry":{"x":171305.83000000007,"y":2549197.0900000036}},{"attributes":{"ID":343811,"DIS_CODE":0,"TOWNNAME":"鹽水區","LI":"水仙里","LIN":"5鄰","STREET":"西門路","SECT":" ","MAREA":" ","LANE":" ","ALLEY":" ","HOUSE_NO":"１號","E_COORD97":174973.16,"N_COORD97":2579653.2799999998,"ADDRESS":"西門路１號","OBJECTID":343802},"geometry":{"x":174973.16000000108,"y":2579653.2799999993}},{"attributes":{"ID":343812,"DIS_CODE":0,"TOWNNAME":"鹽水區","LI":"福得里","LIN":"5鄰","STREET":" ","SECT":" ","MAREA":"後厝","LANE":" ","ALLEY":" ","HOUSE_NO":"１０５號","E_COORD97":175359.48000000001,"N_COORD97":2579865.3100000001,"ADDRESS":"後厝１０５號","OBJECTID":343803},"geometry":{"x":175359.48000000138,"y":2579865.3100000005}},{"attributes":{"ID":343813,"DIS_CODE":0,"TOWNNAME":"鹽水區","LI":"福得里","LIN":"5鄰","STREET":" ","SECT":" ","MAREA":"後厝","LANE":" ","ALLEY":" ","HOUSE_NO":"１０６號","E_COORD97":175350.59,"N_COORD97":2579854.2000000002,"ADDRESS":"後厝１０６號","OBJECTID":343804},"geometry":{"x":175350.58999999985,"y":2579854.1999999993}},{"attributes":{"ID":343814,"DIS_CODE":0,"TOWNNAME":"鹽水區","LI":"福得里","LIN":"5鄰","STREET":" ","SECT":" ","MAREA":"後厝","LANE":" ","ALLEY":" ","HOUSE_NO":"１１７號","E_COORD97":175343.54000000001,"N_COORD97":2579892.4500000002,"ADDRESS":"後厝１１７號","OBJECTID":343805},"geometry":{"x":175343.54000000097,"y":2579892.4499999993}},{"attributes":{"ID":343815,"DIS_CODE":0,"TOWNNAME":"鹽水區","LI":"福得里","LIN":"5鄰","STREET":" ","SECT":" ","MAREA":"後厝","LANE":" ","ALLEY":" ","HOUSE_NO":"１０７號","E_COORD97":175346.69,"N_COORD97":2579852.71,"ADDRESS":"後厝１０７號","OBJECTID":343806},"geometry":{"x":175346.69000000041,"y":2579852.7100000009}},{"attributes":{"ID":343816,"DIS_CODE":0,"TOWNNAME":"鹽水區","LI":"福得里","LIN":"5鄰","STREET":" ","SECT":" ","MAREA":"後厝","LANE":" ","ALLEY":" ","HOUSE_NO":"１０８號","E_COORD97":175342.48000000001,"N_COORD97":2579850.4100000001,"ADDRESS":"後厝１０８號","OBJECTID":343807},"geometry":{"x":175342.48000000138,"y":2579850.4100000001}},{"attributes":{"ID":343817,"DIS_CODE":0,"TOWNNAME":"鹽水區","LI":"福得里","LIN":"5鄰","STREET":" ","SECT":" ","MAREA":"後厝","LANE":" ","ALLEY":" ","HOUSE_NO":"１０９號","E_COORD97":175338.53,"N_COORD97":2579847.8199999998,"ADDRESS":"後厝１０９號","OBJECTID":343808},"geometry":{"x":175338.53000000119,"y":2579847.8200000003}},{"attributes":{"ID":343818,"DIS_CODE":0,"TOWNNAME":"鹽水區","LI":"福得里","LIN":"5鄰","STREET":" ","SECT":" ","MAREA":"後厝","LANE":" ","ALLEY":" ","HOUSE_NO":"１１０號","E_COORD97":175332.64000000001,"N_COORD97":2579867.1699999999,"ADDRESS":"後厝１１０號","OBJECTID":343809},"geometry":{"x":175332.6400000006,"y":2579867.1700000018}},{"attributes":{"ID":343819,"DIS_CODE":0,"TOWNNAME":"鹽水區","LI":"福得里","LIN":"5鄰","STREET":" ","SECT":" ","MAREA":"後厝","LANE":" ","ALLEY":" ","HOUSE_NO":"１１１號","E_COORD97":175336.51000000001,"N_COORD97":2579869.5099999998,"ADDRESS":"後厝１１１號","OBJECTID":343810},"geometry":{"x":175336.51000000071,"y":2579869.5099999998}},{"attributes":{"ID":343820,"DIS_CODE":0,"TOWNNAME":"鹽水區","LI":"桐寮里","LIN":"5鄰","STREET":" ","SECT":" ","MAREA":"桐寮","LANE":" ","ALLEY":" ","HOUSE_NO":"６５之１號","E_COORD97":173821.13,"N_COORD97":2576524.3199999998,"ADDRESS":"桐寮６５之１號","OBJECTID":343811},"geometry":{"x":173821.12999999989,"y":2576524.3200000003}},{"attributes":{"ID":343821,"DIS_CODE":0,"TOWNNAME":"鹽水區","LI":"桐寮里","LIN":"5鄰","STREET":" ","SECT":" ","MAREA":"桐寮","LANE":" ","ALLEY":" ","HOUSE_NO":"６５之２號","E_COORD97":173843.98000000001,"N_COORD97":2576533.48,"ADDRESS":"桐寮６５之２號","OBJECTID":343812},"geometry":{"x":173843.98000000138,"y":2576533.4800000023}},{"attributes":{"ID":343822,"DIS_CODE":0,"TOWNNAME":"北區","LI":"成功里","LIN":"5鄰","STREET":"北安路","SECT":"一段","MAREA":" ","LANE":"１４２巷","ALLEY":" ","HOUSE_NO":"４９號","E_COORD97":169073.01999999999,"N_COORD97":2546557.9700000002,"ADDRESS":"北安路一段１４２巷４９號","OBJECTID":343813},"geometry":{"x":169073.01999999955,"y":2546557.9700000044}},{"attributes":{"ID":343823,"DIS_CODE":0,"TOWNNAME":"北區","LI":"成功里","LIN":"5鄰","STREET":"北安路","SECT":"一段","MAREA":" ","LANE":"１４２巷","ALLEY":" ","HOUSE_NO":"５１號","E_COORD97":169077.47,"N_COORD97":2546564.1600000001,"ADDRESS":"北安路一段１４２巷５１號","OBJECTID":343814},"geometry":{"x":169077.46999999974,"y":2546564.160000002}},{"attributes":{"ID":343824,"DIS_CODE":0,"TOWNNAME":"北區","LI":"成功里","LIN":"5鄰","STREET":"北安路","SECT":"一段","MAREA":" ","LANE":"１４２巷","ALLEY":" ","HOUSE_NO":"５３號","E_COORD97":169071.26999999999,"N_COORD97":2546566.8599999999,"ADDRESS":"北安路一段１４２巷５３號","OBJECTID":343815},"geometry":{"x":169071.27000000048,"y":2546566.8599999994}},{"attributes":{"ID":343825,"DIS_CODE":0,"TOWNNAME":"北區","LI":"大港里","LIN":"5鄰","STREET":"大興街","SECT":" ","MAREA":" ","LANE":"１９２巷","ALLEY":" ","HOUSE_NO":"３８號","E_COORD97":166825.91,"N_COORD97":2545798.1699999999,"ADDRESS":"大興街１９２巷３８號","OBJECTID":343816},"geometry":{"x":166825.91000000108,"y":2545798.1699999999}},{"attributes":{"ID":343826,"DIS_CODE":0,"TOWNNAME":"安平區","LI":"育平里","LIN":"35鄰","STREET":"平豐路","SECT":" ","MAREA":" ","LANE":"２３６巷","ALLEY":" ","HOUSE_NO":"２２號四樓之１","E_COORD97":164381.39999999999,"N_COORD97":2543414.2000000002,"ADDRESS":"平豐路２３６巷２２號四樓之１","OBJECTID":343817},"geometry":{"x":164381.40000000037,"y":2543414.1999999993}},{"attributes":{"ID":343827,"DIS_CODE":0,"TOWNNAME":"安平區","LI":"育平里","LIN":"35鄰","STREET":"平豐路","SECT":" ","MAREA":" ","LANE":"２３６巷","ALLEY":" ","HOUSE_NO":"２２號四樓之１０","E_COORD97":164381.39999999999,"N_COORD97":2543414.2000000002,"ADDRESS":"平豐路２３６巷２２號四樓之１０","OBJECTID":343818},"geometry":{"x":164381.40000000037,"y":2543414.1999999993}},{"attributes":{"ID":343828,"DIS_CODE":0,"TOWNNAME":"永康區","LI":"勝利里","LIN":"20鄰","STREET":"勝學路","SECT":" ","MAREA":" ","LANE":"２８２巷","ALLEY":" ","HOUSE_NO":"１號","E_COORD97":171223.01999999999,"N_COORD97":2545346.0699999998,"ADDRESS":"勝學路２８２巷１號","OBJECTID":343819},"geometry":{"x":171223.01999999955,"y":2545346.0699999984}},{"attributes":{"ID":343829,"DIS_CODE":0,"TOWNNAME":"安平區","LI":"育平里","LIN":"35鄰","STREET":"平豐路","SECT":" ","MAREA":" ","LANE":"２３６巷","ALLEY":" ","HOUSE_NO":"２２號四樓之２","E_COORD97":164381.39999999999,"N_COORD97":2543414.2000000002,"ADDRESS":"平豐路２３６巷２２號四樓之２","OBJECTID":343820},"geometry":{"x":164381.40000000037,"y":2543414.1999999993}},{"attributes":{"ID":343830,"DIS_CODE":0,"TOWNNAME":"東區","LI":"德光里","LIN":"8鄰","STREET":"崇明路","SECT":" ","MAREA":" ","LANE":" ","ALLEY":" ","HOUSE_NO":"１９１號三樓之１","E_COORD97":169980.26999999999,"N_COORD97":2542101.6400000001,"ADDRESS":"崇明路１９１號三樓之１","OBJECTID":343821},"geometry":{"x":169980.26999999955,"y":2542101.6400000043}},{"attributes":{"ID":343831,"DIS_CODE":0,"TOWNNAME":"東區","LI":"德光里","LIN":"8鄰","STREET":"崇明路","SECT":" ","MAREA":" ","LANE":" ","ALLEY":" ","HOUSE_NO":"１９１號五樓","E_COORD97":169980.26999999999,"N_COORD97":2542101.6400000001,"ADDRESS":"崇明路１９１號五樓","OBJECTID":343822},"geometry":{"x":169980.26999999955,"y":2542101.6400000043}},{"attributes":{"ID":343832,"DIS_CODE":0,"TOWNNAME":"東區","LI":"德光里","LIN":"8鄰","STREET":"崇明路","SECT":" ","MAREA":" ","LANE":" ","ALLEY":" ","HOUSE_NO":"１９１號五樓之１","E_COORD97":169980.26999999999,"N_COORD97":2542101.6400000001,"ADDRESS":"崇明路１９１號五樓之１","OBJECTID":343823},"geometry":{"x":169980.26999999955,"y":2542101.6400000043}},{"attributes":{"ID":343833,"DIS_CODE":0,"TOWNNAME":"東區","LI":"德光里","LIN":"8鄰","STREET":"崇明路","SECT":" ","MAREA":" ","LANE":" ","ALLEY":" ","HOUSE_NO":"１９１號六樓","E_COORD97":169980.26999999999,"N_COORD97":2542101.6400000001,"ADDRESS":"崇明路１９１號六樓","OBJECTID":343824},"geometry":{"x":169980.26999999955,"y":2542101.6400000043}},{"attributes":{"ID":343834,"DIS_CODE":0,"TOWNNAME":"東區","LI":"德光里","LIN":"8鄰","STREET":"崇明路","SECT":" ","MAREA":" ","LANE":" ","ALLEY":" ","HOUSE_NO":"１９１號六樓之１","E_COORD97":169980.26999999999,"N_COORD97":2542101.6400000001,"ADDRESS":"崇明路１９１號六樓之１","OBJECTID":343825},"geometry":{"x":169980.26999999955,"y":2542101.6400000043}},{"attributes":{"ID":343835,"DIS_CODE":0,"TOWNNAME":"新化區","LI":"豐榮里","LIN":"5鄰","STREET":" ","SECT":" ","MAREA":"洋子","LANE":" ","ALLEY":" ","HOUSE_NO":"８６號","E_COORD97":177879.53,"N_COORD97":2548321.25,"ADDRESS":"洋子８６號","OBJECTID":343826},"geometry":{"x":177879.53000000119,"y":2548321.25}},{"attributes":{"ID":343836,"DIS_CODE":0,"TOWNNAME":"新化區","LI":"豐榮里","LIN":"5鄰","STREET":" ","SECT":" ","MAREA":"洋子","LANE":" ","ALLEY":" ","HOUSE_NO":"１２４號之５","E_COORD97":177829.04000000001,"N_COORD97":2548238.2599999998,"ADDRESS":"洋子１２４號之５","OBJECTID":343827},"geometry":{"x":177829.04000000004,"y":2548238.2599999998}},{"attributes":{"ID":343837,"DIS_CODE":0,"TOWNNAME":"安平區","LI":"育平里","LIN":"35鄰","STREET":"平豐路","SECT":" ","MAREA":" ","LANE":"２３６巷","ALLEY":" ","HOUSE_NO":"２２號四樓之３","E_COORD97":164381.39999999999,"N_COORD97":2543414.2000000002,"ADDRESS":"平豐路２３６巷２２號四樓之３","OBJECTID":343828},"geometry":{"x":164381.40000000037,"y":2543414.1999999993}},{"attributes":{"ID":343838,"DIS_CODE":0,"TOWNNAME":"安平區","LI":"育平里","LIN":"35鄰","STREET":"平豐路","SECT":" ","MAREA":" ","LANE":"２３６巷","ALLEY":" ","HOUSE_NO":"２２號四樓之４","E_COORD97":164381.39999999999,"N_COORD97":2543414.2000000002,"ADDRESS":"平豐路２３６巷２２號四樓之４","OBJECTID":343829},"geometry":{"x":164381.40000000037,"y":2543414.1999999993}},{"attributes":{"ID":343839,"DIS_CODE":0,"TOWNNAME":"安平區","LI":"育平里","LIN":"35鄰","STREET":"平豐路","SECT":" ","MAREA":" ","LANE":"２３６巷","ALLEY":" ","HOUSE_NO":"２２號四樓之５","E_COORD97":164381.39999999999,"N_COORD97":2543414.2000000002,"ADDRESS":"平豐路２３６巷２２號四樓之５","OBJECTID":343830},"geometry":{"x":164381.40000000037,"y":2543414.1999999993}},{"attributes":{"ID":343840,"DIS_CODE":0,"TOWNNAME":"新化區","LI":"豐榮里","LIN":"5鄰","STREET":" ","SECT":" ","MAREA":"洋子","LANE":" ","ALLEY":" ","HOUSE_NO":"８８號之３","E_COORD97":177841.78,"N_COORD97":2548302.2599999998,"ADDRESS":"洋子８８號之３","OBJECTID":343831},"geometry":{"x":177841.78000000026,"y":2548302.2600000016}},{"attributes":{"ID":343841,"DIS_CODE":0,"TOWNNAME":"新化區","LI":"豐榮里","LIN":"5鄰","STREET":" ","SECT":" ","MAREA":"洋子","LANE":" ","ALLEY":" ","HOUSE_NO":"８２號","E_COORD97":177902.13,"N_COORD97":2548299.25,"ADDRESS":"洋子８２號","OBJECTID":343832},"geometry":{"x":177902.13000000175,"y":2548299.2500000019}},{"attributes":{"ID":343842,"DIS_CODE":0,"TOWNNAME":"新化區","LI":"大坑里","LIN":"5鄰","STREET":" ","SECT":" ","MAREA":"大坑尾","LANE":" ","ALLEY":" ","HOUSE_NO":"１７０號","E_COORD97":186927.13,"N_COORD97":2545874.25,"ADDRESS":"大坑尾１７０號","OBJECTID":343833},"geometry":{"x":186927.13000000175,"y":2545874.2500000019}},{"attributes":{"ID":343843,"DIS_CODE":0,"TOWNNAME":"新化區","LI":"羊林里","LIN":"5鄰","STREET":" ","SECT":" ","MAREA":"\u25A0拔林","LANE":" ","ALLEY":" ","HOUSE_NO":"４７０號之１","E_COORD97":183583.25,"N_COORD97":2551730.2599999998,"ADDRESS":"\u25A0拔林４７０號之１","OBJECTID":343834},"geometry":{"x":183583.25,"y":2551730.2600000016}},{"attributes":{"ID":343844,"DIS_CODE":0,"TOWNNAME":"新化區","LI":"豐榮里","LIN":"5鄰","STREET":" ","SECT":" ","MAREA":"洋子","LANE":" ","ALLEY":" ","HOUSE_NO":"８１號","E_COORD97":177904.82999999999,"N_COORD97":2548335.25,"ADDRESS":"洋子８１號","OBJECTID":343835},"geometry":{"x":177904.83000000101,"y":2548335.2500000037}},{"attributes":{"ID":343845,"DIS_CODE":0,"TOWNNAME":"新化區","LI":"羊林里","LIN":"5鄰","STREET":" ","SECT":" ","MAREA":"\u25A0拔林","LANE":" ","ALLEY":" ","HOUSE_NO":"４６９號之１","E_COORD97":183565.64999999999,"N_COORD97":2551710.2599999998,"ADDRESS":"\u25A0拔林４６９號之１","OBJECTID":343836},"geometry":{"x":183565.65000000037,"y":2551710.2599999998}},{"attributes":{"ID":343846,"DIS_CODE":0,"TOWNNAME":"安平區","LI":"育平里","LIN":"35鄰","STREET":"平豐路","SECT":" ","MAREA":" ","LANE":"２３６巷","ALLEY":" ","HOUSE_NO":"２２號四樓之６","E_COORD97":164381.39999999999,"N_COORD97":2543414.2000000002,"ADDRESS":"平豐路２３６巷２２號四樓之６","OBJECTID":343837},"geometry":{"x":164381.40000000037,"y":2543414.1999999993}},{"attributes":{"ID":343847,"DIS_CODE":0,"TOWNNAME":"永康區","LI":"永康里","LIN":"35鄰","STREET":"大同街","SECT":" ","MAREA":" ","LANE":"９２８巷","ALLEY":" ","HOUSE_NO":"１１號","E_COORD97":174472.73000000001,"N_COORD97":2547011.9900000002,"ADDRESS":"大同街９２８巷１１號","OBJECTID":343838},"geometry":{"x":174472.73000000138,"y":2547011.9900000021}},{"attributes":{"ID":343848,"DIS_CODE":0,"TOWNNAME":"新化區","LI":"豐榮里","LIN":"5鄰","STREET":" ","SECT":" ","MAREA":"洋子","LANE":" ","ALLEY":" ","HOUSE_NO":"８３號","E_COORD97":177891.92999999999,"N_COORD97":2548331.25,"ADDRESS":"洋子８３號","OBJECTID":343839},"geometry":{"x":177891.93000000063,"y":2548331.25}},{"attributes":{"ID":343849,"DIS_CODE":0,"TOWNNAME":"安平區","LI":"育平里","LIN":"35鄰","STREET":"平豐路","SECT":" ","MAREA":" ","LANE":"２３６巷","ALLEY":" ","HOUSE_NO":"２２號四樓之７","E_COORD97":164381.39999999999,"N_COORD97":2543414.2000000002,"ADDRESS":"平豐路２３６巷２２號四樓之７","OBJECTID":343840},"geometry":{"x":164381.40000000037,"y":2543414.1999999993}},{"attributes":{"ID":343850,"DIS_CODE":0,"TOWNNAME":"安平區","LI":"育平里","LIN":"35鄰","STREET":"平豐路","SECT":" ","MAREA":" ","LANE":"２３６巷","ALLEY":" ","HOUSE_NO":"２２號四樓之８","E_COORD97":164381.39999999999,"N_COORD97":2543414.2000000002,"ADDRESS":"平豐路２３６巷２２號四樓之８","OBJECTID":343841},"geometry":{"x":164381.40000000037,"y":2543414.1999999993}},{"attributes":{"ID":343851,"DIS_CODE":0,"TOWNNAME":"安平區","LI":"育平里","LIN":"35鄰","STREET":"平豐路","SECT":" ","MAREA":" ","LANE":"２３６巷","ALLEY":" ","HOUSE_NO":"２２號四樓之９","E_COORD97":164381.39999999999,"N_COORD97":2543414.2000000002,"ADDRESS":"平豐路２３６巷２２號四樓之９","OBJECTID":343842},"geometry":{"x":164381.40000000037,"y":2543414.1999999993}},{"attributes":{"ID":343852,"DIS_CODE":0,"TOWNNAME":"永康區","LI":"北灣里","LIN":"35鄰","STREET":"大灣路","SECT":" ","MAREA":" ","LANE":"４０巷","ALLEY":" ","HOUSE_NO":"６８號之２","E_COORD97":175073.22,"N_COORD97":2546117.4199999999,"ADDRESS":"大灣路４０巷６８號之２","OBJECTID":343843},"geometry":{"x":175073.21999999974,"y":2546117.4200000018}},{"attributes":{"ID":343853,"DIS_CODE":0,"TOWNNAME":"永康區","LI":"永康里","LIN":"35鄰","STREET":"大同街","SECT":" ","MAREA":" ","LANE":"８０１巷","ALLEY":" ","HOUSE_NO":"８號","E_COORD97":174408.91,"N_COORD97":2546992.0499999998,"ADDRESS":"大同街８０１巷８號","OBJECTID":343844},"geometry":{"x":174408.91000000108,"y":2546992.0500000026}},{"attributes":{"ID":343854,"DIS_CODE":0,"TOWNNAME":"東區","LI":"崇文里","LIN":"35鄰","STREET":"生產路","SECT":" ","MAREA":" ","LANE":"３６７巷","ALLEY":" ","HOUSE_NO":"４號","E_COORD97":171187.60999999999,"N_COORD97":2540763.3199999998,"ADDRESS":"生產路３６７巷４號","OBJECTID":343845},"geometry":{"x":171187.61000000034,"y":2540763.3200000003}},{"attributes":{"ID":343855,"DIS_CODE":0,"TOWNNAME":"東區","LI":"崇文里","LIN":"35鄰","STREET":"生產路","SECT":" ","MAREA":" ","LANE":"３６７巷","ALLEY":" ","HOUSE_NO":"６號","E_COORD97":171184.53,"N_COORD97":2540769.98,"ADDRESS":"生產路３６７巷６號","OBJECTID":343846},"geometry":{"x":171184.53000000026,"y":2540769.9800000042}},{"attributes":{"ID":343856,"DIS_CODE":0,"TOWNNAME":"東區","LI":"崇文里","LIN":"35鄰","STREET":"生產路","SECT":" ","MAREA":" ","LANE":"３６７巷","ALLEY":" ","HOUSE_NO":"８號","E_COORD97":171182.54000000001,"N_COORD97":2540775.8500000001,"ADDRESS":"生產路３６７巷８號","OBJECTID":343847},"geometry":{"x":171182.54000000004,"y":2540775.8499999996}},{"attributes":{"ID":343857,"DIS_CODE":0,"TOWNNAME":"東區","LI":"崇文里","LIN":"35鄰","STREET":"生產路","SECT":" ","MAREA":" ","LANE":"３６７巷","ALLEY":" ","HOUSE_NO":"９號","E_COORD97":171169.63,"N_COORD97":2540744.7599999998,"ADDRESS":"生產路３６７巷９號","OBJECTID":343848},"geometry":{"x":171169.62999999989,"y":2540744.7600000016}},{"attributes":{"ID":343858,"DIS_CODE":0,"TOWNNAME":"佳里區","LI":"安西里","LIN":"35鄰","STREET":"佳西路","SECT":" ","MAREA":" ","LANE":"３１０巷","ALLEY":" ","HOUSE_NO":"１１號","E_COORD97":164859.41,"N_COORD97":2562766.5099999998,"ADDRESS":"佳西路３１０巷１１號","OBJECTID":343849},"geometry":{"x":164859.41000000201,"y":2562766.5100000016}},{"attributes":{"ID":343859,"DIS_CODE":0,"TOWNNAME":"佳里區","LI":"安西里","LIN":"35鄰","STREET":"佳西路","SECT":" ","MAREA":" ","LANE":"３１０巷","ALLEY":" ","HOUSE_NO":"１３號","E_COORD97":164864.20999999999,"N_COORD97":2562765.4700000002,"ADDRESS":"佳西路３１０巷１３號","OBJECTID":343850},"geometry":{"x":164864.21000000089,"y":2562765.4700000025}},{"attributes":{"ID":343860,"DIS_CODE":0,"TOWNNAME":"佳里區","LI":"安西里","LIN":"35鄰","STREET":"佳西路","SECT":" ","MAREA":" ","LANE":"３１０巷","ALLEY":" ","HOUSE_NO":"１５號","E_COORD97":164869.22,"N_COORD97":2562764.7200000002,"ADDRESS":"佳西路３１０巷１５號","OBJECTID":343851},"geometry":{"x":164869.22000000067,"y":2562764.7200000007}},{"attributes":{"ID":343861,"DIS_CODE":0,"TOWNNAME":"佳里區","LI":"安西里","LIN":"35鄰","STREET":"佳西路","SECT":" ","MAREA":" ","LANE":"３１０巷","ALLEY":" ","HOUSE_NO":"１７號","E_COORD97":164873.79000000001,"N_COORD97":2562763.8799999999,"ADDRESS":"佳西路３１０巷１７號","OBJECTID":343852},"geometry":{"x":164873.79000000097,"y":2562763.8800000008}},{"attributes":{"ID":343862,"DIS_CODE":0,"TOWNNAME":"佳里區","LI":"安西里","LIN":"35鄰","STREET":"佳西路","SECT":" ","MAREA":" ","LANE":"３１０巷","ALLEY":" ","HOUSE_NO":"１９號","E_COORD97":164878.39000000001,"N_COORD97":2562762.5099999998,"ADDRESS":"佳西路３１０巷１９號","OBJECTID":343853},"geometry":{"x":164878.3900000006,"y":2562762.5100000035}},{"attributes":{"ID":343863,"DIS_CODE":0,"TOWNNAME":"佳里區","LI":"安西里","LIN":"35鄰","STREET":"佳西路","SECT":" ","MAREA":" ","LANE":"３１０巷","ALLEY":" ","HOUSE_NO":"２３號","E_COORD97":164886.97,"N_COORD97":2562760.5,"ADDRESS":"佳西路３１０巷２３號","OBJECTID":343854},"geometry":{"x":164886.96999999974,"y":2562760.5000000019}},{"attributes":{"ID":343864,"DIS_CODE":0,"TOWNNAME":"佳里區","LI":"安西里","LIN":"35鄰","STREET":"佳西路","SECT":" ","MAREA":" ","LANE":"３１０巷","ALLEY":" ","HOUSE_NO":"５號","E_COORD97":164842.10999999999,"N_COORD97":2562776.0499999998,"ADDRESS":"佳西路３１０巷５號","OBJECTID":343855},"geometry":{"x":164842.11000000034,"y":2562776.0500000007}},{"attributes":{"ID":343865,"DIS_CODE":0,"TOWNNAME":"佳里區","LI":"安西里","LIN":"35鄰","STREET":"佳西路","SECT":" ","MAREA":" ","LANE":"３１０巷","ALLEY":" ","HOUSE_NO":"７號","E_COORD97":164849.17000000001,"N_COORD97":2562773.77,"ADDRESS":"佳西路３１０巷７號","OBJECTID":343856},"geometry":{"x":164849.17000000086,"y":2562773.7699999996}},{"attributes":{"ID":343866,"DIS_CODE":0,"TOWNNAME":"佳里區","LI":"安西里","LIN":"35鄰","STREET":"佳西路","SECT":" ","MAREA":" ","LANE":"３１０巷","ALLEY":" ","HOUSE_NO":"９號","E_COORD97":164854.97,"N_COORD97":2562772.3300000001,"ADDRESS":"佳西路３１０巷９號","OBJECTID":343857},"geometry":{"x":164854.96999999881,"y":2562772.3300000019}},{"attributes":{"ID":343867,"DIS_CODE":0,"TOWNNAME":"永康區","LI":"永康里","LIN":"35鄰","STREET":"大同街","SECT":" ","MAREA":" ","LANE":"８０１巷","ALLEY":" ","HOUSE_NO":"２０號","E_COORD97":174390,"N_COORD97":2546986.2999999998,"ADDRESS":"大同街８０１巷２０號","OBJECTID":343858},"geometry":{"x":174390,"y":2546986.3000000045}},{"attributes":{"ID":343868,"DIS_CODE":0,"TOWNNAME":"永康區","LI":"勝利里","LIN":"35鄰","STREET":"勝利街","SECT":" ","MAREA":" ","LANE":"２巷","ALLEY":" ","HOUSE_NO":"４４號","E_COORD97":171049.12,"N_COORD97":2544708.25,"ADDRESS":"勝利街２巷４４號","OBJECTID":343859},"geometry":{"x":171049.12000000104,"y":2544708.2500000019}},{"attributes":{"ID":343869,"DIS_CODE":0,"TOWNNAME":"永康區","LI":"埔園里","LIN":"35鄰","STREET":"永大路","SECT":"三段","MAREA":" ","LANE":"４５０巷","ALLEY":" ","HOUSE_NO":"１２號","E_COORD97":174178,"N_COORD97":2548397.52,"ADDRESS":"永大路三段４５０巷１２號","OBJECTID":343860},"geometry":{"x":174178,"y":2548397.5200000014}},{"attributes":{"ID":343870,"DIS_CODE":0,"TOWNNAME":"永康區","LI":"復華里","LIN":"35鄰","STREET":"復華七街","SECT":" ","MAREA":" ","LANE":"３９巷","ALLEY":" ","HOUSE_NO":"６號","E_COORD97":172609.39999999999,"N_COORD97":2546057.2000000002,"ADDRESS":"復華七街３９巷６號","OBJECTID":343861},"geometry":{"x":172609.40000000037,"y":2546057.2000000011}},{"attributes":{"ID":343871,"DIS_CODE":0,"TOWNNAME":"永康區","LI":"復國里","LIN":"35鄰","STREET":"復國一路","SECT":" ","MAREA":" ","LANE":"１１３巷","ALLEY":" ","HOUSE_NO":"４號","E_COORD97":172674.37,"N_COORD97":2545040.4300000002,"ADDRESS":"復國一路１１３巷４號","OBJECTID":343862},"geometry":{"x":172674.37000000197,"y":2545040.4299999997}},{"attributes":{"ID":343872,"DIS_CODE":0,"TOWNNAME":"永康區","LI":"勝利里","LIN":"35鄰","STREET":"勝利街","SECT":" ","MAREA":" ","LANE":"２巷","ALLEY":" ","HOUSE_NO":"３４號","E_COORD97":171070.01999999999,"N_COORD97":2544706.75,"ADDRESS":"勝利街２巷３４號","OBJECTID":343863},"geometry":{"x":171070.01999999955,"y":2544706.75}},{"attributes":{"ID":343873,"DIS_CODE":0,"TOWNNAME":"永康區","LI":"埔園里","LIN":"35鄰","STREET":"自強路","SECT":" ","MAREA":" ","LANE":"６３３巷","ALLEY":" ","HOUSE_NO":"１４號","E_COORD97":174198.51999999999,"N_COORD97":2548369.3300000001,"ADDRESS":"自強路６３３巷１４號","OBJECTID":343864},"geometry":{"x":174198.52000000142,"y":2548369.3300000019}},{"attributes":{"ID":343874,"DIS_CODE":0,"TOWNNAME":"永康區","LI":"埔園里","LIN":"35鄰","STREET":"自強路","SECT":" ","MAREA":" ","LANE":"６３３巷","ALLEY":" ","HOUSE_NO":"２號","E_COORD97":174228.48999999999,"N_COORD97":2548390.0299999998,"ADDRESS":"自強路６３３巷２號","OBJECTID":343865},"geometry":{"x":174228.49000000115,"y":2548390.0300000031}},{"attributes":{"ID":343875,"DIS_CODE":0,"TOWNNAME":"永康區","LI":"埔園里","LIN":"35鄰","STREET":"自強路","SECT":" ","MAREA":" ","LANE":"６３３巷","ALLEY":" ","HOUSE_NO":"９號","E_COORD97":174199.88,"N_COORD97":2548390.0899999999,"ADDRESS":"自強路６３３巷９號","OBJECTID":343866},"geometry":{"x":174199.88000000082,"y":2548390.089999998}},{"attributes":{"ID":343876,"DIS_CODE":0,"TOWNNAME":"永康區","LI":"龍潭里","LIN":"35鄰","STREET":"龍安街","SECT":" ","MAREA":" ","LANE":"１８９巷","ALLEY":" ","HOUSE_NO":"１８號","E_COORD97":174637.19,"N_COORD97":2548539.9100000001,"ADDRESS":"龍安街１８９巷１８號","OBJECTID":343867},"geometry":{"x":174637.19000000227,"y":2548539.9100000001}},{"attributes":{"ID":343877,"DIS_CODE":0,"TOWNNAME":"永康區","LI":"正強里","LIN":"35鄰","STREET":"正強街","SECT":" ","MAREA":" ","LANE":"３１５巷","ALLEY":" ","HOUSE_NO":"１３號","E_COORD97":173203.44,"N_COORD97":2548289.8300000001,"ADDRESS":"正強街３１５巷１３號","OBJECTID":343868},"geometry":{"x":173203.44000000134,"y":2548289.8300000001}},{"attributes":{"ID":343878,"DIS_CODE":0,"TOWNNAME":"永康區","LI":"正強里","LIN":"35鄰","STREET":"正強街","SECT":" ","MAREA":" ","LANE":"３１３巷","ALLEY":" ","HOUSE_NO":"５號","E_COORD97":173228.10999999999,"N_COORD97":2548249.3999999999,"ADDRESS":"正強街３１３巷５號","OBJECTID":343869},"geometry":{"x":173228.11000000127,"y":2548249.4000000004}},{"attributes":{"ID":343879,"DIS_CODE":0,"TOWNNAME":"永康區","LI":"成功里","LIN":"35鄰","STREET":"中華路","SECT":" ","MAREA":" ","LANE":"１５４巷","ALLEY":" ","HOUSE_NO":"１０６號","E_COORD97":171869.06,"N_COORD97":2544892.9700000002,"ADDRESS":"中華路１５４巷１０６號","OBJECTID":343870},"geometry":{"x":171869.06000000145,"y":2544892.9700000044}},{"attributes":{"ID":343880,"DIS_CODE":0,"TOWNNAME":"永康區","LI":"正強里","LIN":"35鄰","STREET":"正強街","SECT":" ","MAREA":" ","LANE":"３１３巷","ALLEY":" ","HOUSE_NO":"１３號","E_COORD97":173211.66,"N_COORD97":2548244.8999999999,"ADDRESS":"正強街３１３巷１３號","OBJECTID":343871},"geometry":{"x":173211.66000000108,"y":2548244.9000000004}},{"attributes":{"ID":343881,"DIS_CODE":0,"TOWNNAME":"永康區","LI":"成功里","LIN":"35鄰","STREET":"中華一路","SECT":" ","MAREA":" ","LANE":"３９巷","ALLEY":" ","HOUSE_NO":"４６號","E_COORD97":171852.85999999999,"N_COORD97":2544869,"ADDRESS":"中華一路３９巷４６號","OBJECTID":343872},"geometry":{"x":171852.86000000127,"y":2544869.0000000019}},{"attributes":{"ID":343882,"DIS_CODE":0,"TOWNNAME":"永康區","LI":"成功里","LIN":"35鄰","STREET":"中華路","SECT":" ","MAREA":" ","LANE":"１５４巷","ALLEY":" ","HOUSE_NO":"９４號","E_COORD97":171833.54000000001,"N_COORD97":2544891.3100000001,"ADDRESS":"中華路１５４巷９４號","OBJECTID":343873},"geometry":{"x":171833.54000000004,"y":2544891.3100000024}},{"attributes":{"ID":343883,"DIS_CODE":0,"TOWNNAME":"南區","LI":"大忠里","LIN":"35鄰","STREET":"中華南路","SECT":"一段","MAREA":" ","LANE":"１４２巷","ALLEY":" ","HOUSE_NO":"２８號","E_COORD97":169154.72,"N_COORD97":2541353.0600000001,"ADDRESS":"中華南路一段１４２巷２８號","OBJECTID":343874},"geometry":{"x":169154.72000000067,"y":2541353.0600000024}},{"attributes":{"ID":343884,"DIS_CODE":0,"TOWNNAME":"南區","LI":"大忠里","LIN":"35鄰","STREET":"中華南路","SECT":"一段","MAREA":" ","LANE":"１４２巷","ALLEY":" ","HOUSE_NO":"３４號","E_COORD97":169146.37,"N_COORD97":2541364.3199999998,"ADDRESS":"中華南路一段１４２巷３４號","OBJECTID":343875},"geometry":{"x":169146.37000000011,"y":2541364.320000004}},{"attributes":{"ID":343885,"DIS_CODE":0,"TOWNNAME":"佳里區","LI":"鎮山里","LIN":"1鄰","STREET":"四安街","SECT":" ","MAREA":" ","LANE":" ","ALLEY":" ","HOUSE_NO":"５５號","E_COORD97":165820.04000000001,"N_COORD97":2561824.1000000001,"ADDRESS":"四安街５５號","OBJECTID":343876},"geometry":{"x":165820.04000000097,"y":2561824.1000000015}},{"attributes":{"ID":343886,"DIS_CODE":0,"TOWNNAME":"南區","LI":"大忠里","LIN":"35鄰","STREET":"中華南路","SECT":"一段","MAREA":" ","LANE":"１４２巷","ALLEY":" ","HOUSE_NO":"３６號","E_COORD97":169143.42000000001,"N_COORD97":2541368,"ADDRESS":"中華南路一段１４２巷３６號","OBJECTID":343877},"geometry":{"x":169143.42000000086,"y":2541368}},{"attributes":{"ID":343887,"DIS_CODE":0,"TOWNNAME":"永康區","LI":"東橋里","LIN":"14鄰","STREET":"東橋一路","SECT":" ","MAREA":" ","LANE":"２８２巷","ALLEY":" ","HOUSE_NO":"８號","E_COORD97":171415.35999999999,"N_COORD97":2546682.8599999999,"ADDRESS":"東橋一路２８２巷８號","OBJECTID":343878},"geometry":{"x":171415.36000000127,"y":2546682.8600000031}},{"attributes":{"ID":343888,"DIS_CODE":0,"TOWNNAME":"歸仁區","LI":"南保里","LIN":"35鄰","STREET":"中山路","SECT":"三段","MAREA":" ","LANE":"１００巷","ALLEY":" ","HOUSE_NO":"１３號","E_COORD97":176753.04999999999,"N_COORD97":2540959.6400000001,"ADDRESS":"中山路三段１００巷１３號","OBJECTID":343879},"geometry":{"x":176753.04999999888,"y":2540959.6400000025}},{"attributes":{"ID":343889,"DIS_CODE":0,"TOWNNAME":"歸仁區","LI":"南保里","LIN":"35鄰","STREET":"中山路","SECT":"三段","MAREA":" ","LANE":"１００巷","ALLEY":" ","HOUSE_NO":"５３號","E_COORD97":176724.01000000001,"N_COORD97":2540978.2799999998,"ADDRESS":"中山路三段１００巷５３號","OBJECTID":343880},"geometry":{"x":176724.00999999978,"y":2540978.2800000012}},{"attributes":{"ID":343890,"DIS_CODE":0,"TOWNNAME":"歸仁區","LI":"南保里","LIN":"35鄰","STREET":"中山路","SECT":"三段","MAREA":" ","LANE":"１００巷","ALLEY":" ","HOUSE_NO":"４３號","E_COORD97":176700.51000000001,"N_COORD97":2540981.2799999998,"ADDRESS":"中山路三段１００巷４３號","OBJECTID":343881},"geometry":{"x":176700.50999999978,"y":2540981.2800000012}},{"attributes":{"ID":343891,"DIS_CODE":0,"TOWNNAME":"歸仁區","LI":"南保里","LIN":"35鄰","STREET":"中山路","SECT":"三段","MAREA":" ","LANE":"１００巷","ALLEY":" ","HOUSE_NO":"４１號","E_COORD97":176695.31,"N_COORD97":2540983.2799999998,"ADDRESS":"中山路三段１００巷４１號","OBJECTID":343882},"geometry":{"x":176695.31000000145,"y":2540983.2799999993}},{"attributes":{"ID":343892,"DIS_CODE":0,"TOWNNAME":"歸仁區","LI":"南興里","LIN":"35鄰","STREET":"民生北街","SECT":" ","MAREA":" ","LANE":"５０巷","ALLEY":" ","HOUSE_NO":"４６號","E_COORD97":176385.64000000001,"N_COORD97":2541064.29,"ADDRESS":"民生北街５０巷４６號","OBJECTID":343883},"geometry":{"x":176385.63999999966,"y":2541064.2899999991}},{"attributes":{"ID":343893,"DIS_CODE":0,"TOWNNAME":"歸仁區","LI":"南保里","LIN":"35鄰","STREET":"中山路","SECT":"三段","MAREA":" ","LANE":"１００巷","ALLEY":" ","HOUSE_NO":"５５號","E_COORD97":176729.10999999999,"N_COORD97":2540977.2799999998,"ADDRESS":"中山路三段１００巷５５號","OBJECTID":343884},"geometry":{"x":176729.11000000034,"y":2540977.2800000031}},{"attributes":{"ID":343894,"DIS_CODE":0,"TOWNNAME":"歸仁區","LI":"南保里","LIN":"35鄰","STREET":"中山路","SECT":"三段","MAREA":" ","LANE":"１００巷","ALLEY":" ","HOUSE_NO":"２９號","E_COORD97":176713.04999999999,"N_COORD97":2540964.6400000001,"ADDRESS":"中山路三段１００巷２９號","OBJECTID":343885},"geometry":{"x":176713.05000000075,"y":2540964.6400000006}},{"attributes":{"ID":343895,"DIS_CODE":0,"TOWNNAME":"南化區","LI":"玉山里","LIN":"5鄰","STREET":" ","SECT":" ","MAREA":"玉山","LANE":" ","ALLEY":" ","HOUSE_NO":"４５號","E_COORD97":200724.17000000001,"N_COORD97":2552500.75,"ADDRESS":"玉山４５號","OBJECTID":343886},"geometry":{"x":200724.17000000179,"y":2552500.75}},{"attributes":{"ID":343896,"DIS_CODE":0,"TOWNNAME":"歸仁區","LI":"南興里","LIN":"35鄰","STREET":"民生北街","SECT":" ","MAREA":" ","LANE":"５０巷","ALLEY":" ","HOUSE_NO":"５８號","E_COORD97":176408.14000000001,"N_COORD97":2541061.29,"ADDRESS":"民生北街５０巷５８號","OBJECTID":343887},"geometry":{"x":176408.13999999873,"y":2541061.2899999972}},{"attributes":{"ID":343897,"DIS_CODE":0,"TOWNNAME":"歸仁區","LI":"南保里","LIN":"35鄰","STREET":"中山路","SECT":"三段","MAREA":" ","LANE":"１００巷","ALLEY":" ","HOUSE_NO":"３１號","E_COORD97":176707.95000000001,"N_COORD97":2540965.6400000001,"ADDRESS":"中山路三段１００巷３１號","OBJECTID":343888},"geometry":{"x":176707.95000000019,"y":2540965.6399999987}},{"attributes":{"ID":343898,"DIS_CODE":0,"TOWNNAME":"歸仁區","LI":"南保里","LIN":"35鄰","STREET":"中山路","SECT":"三段","MAREA":" ","LANE":"１００巷","ALLEY":" ","HOUSE_NO":"２３號","E_COORD97":176727.45000000001,"N_COORD97":2540962.6400000001,"ADDRESS":"中山路三段１００巷２３號","OBJECTID":343889},"geometry":{"x":176727.45000000112,"y":2540962.6400000043}},{"attributes":{"ID":343899,"DIS_CODE":0,"TOWNNAME":"歸仁區","LI":"南保里","LIN":"35鄰","STREET":"中山路","SECT":"三段","MAREA":" ","LANE":"１００巷","ALLEY":" ","HOUSE_NO":"１１號","E_COORD97":176758.14999999999,"N_COORD97":2540960.6400000001,"ADDRESS":"中山路三段１００巷１１號","OBJECTID":343890},"geometry":{"x":176758.15000000224,"y":2540960.6400000025}},{"attributes":{"ID":343900,"DIS_CODE":0,"TOWNNAME":"歸仁區","LI":"南興里","LIN":"35鄰","STREET":"民生北街","SECT":" ","MAREA":" ","LANE":"５０巷","ALLEY":" ","HOUSE_NO":"６０號","E_COORD97":176412.34,"N_COORD97":2541061.29,"ADDRESS":"民生北街５０巷６０號","OBJECTID":343891},"geometry":{"x":176412.34000000078,"y":2541061.2899999972}},{"attributes":{"ID":343901,"DIS_CODE":0,"TOWNNAME":"歸仁區","LI":"南興里","LIN":"35鄰","STREET":"民生北街","SECT":" ","MAREA":" ","LANE":"５０巷","ALLEY":" ","HOUSE_NO":"４８號","E_COORD97":176390.73999999999,"N_COORD97":2541064.29,"ADDRESS":"民生北街５０巷４８號","OBJECTID":343892},"geometry":{"x":176390.74000000022,"y":2541064.2899999991}},{"attributes":{"ID":343902,"DIS_CODE":0,"TOWNNAME":"歸仁區","LI":"南興里","LIN":"35鄰","STREET":"民生北街","SECT":" ","MAREA":" ","LANE":"５０巷","ALLEY":" ","HOUSE_NO":"４２號","E_COORD97":176374.34,"N_COORD97":2541065.29,"ADDRESS":"民生北街５０巷４２號","OBJECTID":343893},"geometry":{"x":176374.33999999985,"y":2541065.290000001}},{"attributes":{"ID":343903,"DIS_CODE":0,"TOWNNAME":"關廟區","LI":"南花里","LIN":"5鄰","STREET":"園東街","SECT":" ","MAREA":" ","LANE":" ","ALLEY":" ","HOUSE_NO":"６號","E_COORD97":182135.91,"N_COORD97":2540070.25,"ADDRESS":"園東街６號","OBJECTID":343894},"geometry":{"x":182135.91000000015,"y":2540070.2500000019}},{"attributes":{"ID":343904,"DIS_CODE":0,"TOWNNAME":"玉井區","LI":"玉田里","LIN":"35鄰","STREET":"民族路","SECT":" ","MAREA":" ","LANE":"２５１巷","ALLEY":" ","HOUSE_NO":"８號","E_COORD97":195633.88,"N_COORD97":2558119.29,"ADDRESS":"民族路２５１巷８號","OBJECTID":343895},"geometry":{"x":195633.88000000082,"y":2558119.290000001}},{"attributes":{"ID":343905,"DIS_CODE":0,"TOWNNAME":"玉井區","LI":"玉田里","LIN":"35鄰","STREET":"民族路","SECT":" ","MAREA":" ","LANE":"２５１巷","ALLEY":" ","HOUSE_NO":"３２號","E_COORD97":195637.73999999999,"N_COORD97":2558180.2799999998,"ADDRESS":"民族路２５１巷３２號","OBJECTID":343896},"geometry":{"x":195637.74000000022,"y":2558180.2800000012}},{"attributes":{"ID":343906,"DIS_CODE":0,"TOWNNAME":"玉井區","LI":"玉田里","LIN":"35鄰","STREET":"民族路","SECT":" ","MAREA":" ","LANE":"２５１巷","ALLEY":" ","HOUSE_NO":"２４號","E_COORD97":195637.13,"N_COORD97":2558160.2799999998,"ADDRESS":"民族路２５１巷２４號","OBJECTID":343897},"geometry":{"x":195637.13000000175,"y":2558160.2800000012}},{"attributes":{"ID":343907,"DIS_CODE":0,"TOWNNAME":"玉井區","LI":"玉田里","LIN":"35鄰","STREET":"民族路","SECT":" ","MAREA":" ","LANE":"２５１巷","ALLEY":" ","HOUSE_NO":"２８號","E_COORD97":195637.42999999999,"N_COORD97":2558171.2799999998,"ADDRESS":"民族路２５１巷２８號","OBJECTID":343898},"geometry":{"x":195637.4299999997,"y":2558171.2800000012}},{"attributes":{"ID":343908,"DIS_CODE":0,"TOWNNAME":"玉井區","LI":"玉田里","LIN":"35鄰","STREET":"民族路","SECT":" ","MAREA":" ","LANE":"２５１巷","ALLEY":" ","HOUSE_NO":"３０號","E_COORD97":195637.42999999999,"N_COORD97":2558176.2799999998,"ADDRESS":"民族路２５１巷３０號","OBJECTID":343899},"geometry":{"x":195637.4299999997,"y":2558176.2799999975}},{"attributes":{"ID":343909,"DIS_CODE":0,"TOWNNAME":"玉井區","LI":"玉田里","LIN":"35鄰","STREET":"民族路","SECT":" ","MAREA":" ","LANE":"２５１巷","ALLEY":" ","HOUSE_NO":"１４號","E_COORD97":195636.34,"N_COORD97":2558134.29,"ADDRESS":"民族路２５１巷１４號","OBJECTID":343900},"geometry":{"x":195636.34000000078,"y":2558134.2899999991}},{"attributes":{"ID":343910,"DIS_CODE":0,"TOWNNAME":"玉井區","LI":"玉田里","LIN":"35鄰","STREET":"民族路","SECT":" ","MAREA":" ","LANE":"２５１巷","ALLEY":" ","HOUSE_NO":"２０號","E_COORD97":195637.13,"N_COORD97":2558150.29,"ADDRESS":"民族路２５１巷２０號","OBJECTID":343901},"geometry":{"x":195637.13000000175,"y":2558150.290000001}},{"attributes":{"ID":343911,"DIS_CODE":0,"TOWNNAME":"玉井區","LI":"玉田里","LIN":"35鄰","STREET":"民族路","SECT":" ","MAREA":" ","LANE":"２５１巷","ALLEY":" ","HOUSE_NO":"１２號","E_COORD97":195635.92999999999,"N_COORD97":2558129.29,"ADDRESS":"民族路２５１巷１２號","OBJECTID":343902},"geometry":{"x":195635.9299999997,"y":2558129.290000001}},{"attributes":{"ID":343912,"DIS_CODE":0,"TOWNNAME":"南化區","LI":"南化里","LIN":"5鄰","STREET":" ","SECT":" ","MAREA":"南化","LANE":" ","ALLEY":" ","HOUSE_NO":"６９號","E_COORD97":196354.79000000001,"N_COORD97":2549141.75,"ADDRESS":"南化６９號","OBJECTID":343903},"geometry":{"x":196354.78999999911,"y":2549141.75}},{"attributes":{"ID":343913,"DIS_CODE":0,"TOWNNAME":"玉井區","LI":"玉田里","LIN":"35鄰","STREET":"民族路","SECT":" ","MAREA":" ","LANE":"２５１巷","ALLEY":" ","HOUSE_NO":"２２號","E_COORD97":195637.13,"N_COORD97":2558155.29,"ADDRESS":"民族路２５１巷２２號","OBJECTID":343904},"geometry":{"x":195637.13000000175,"y":2558155.2899999991}},{"attributes":{"ID":343914,"DIS_CODE":0,"TOWNNAME":"歸仁區","LI":"辜厝里","LIN":"35鄰","STREET":"中正南路","SECT":"一段","MAREA":" ","LANE":"２１８巷","ALLEY":" ","HOUSE_NO":"４８號","E_COORD97":177228.12,"N_COORD97":2540373.6800000002,"ADDRESS":"中正南路一段２１８巷４８號","OBJECTID":343905},"geometry":{"x":177228.12000000104,"y":2540373.6799999997}},{"attributes":{"ID":343915,"DIS_CODE":0,"TOWNNAME":"南化區","LI":"東和里","LIN":"5鄰","STREET":" ","SECT":" ","MAREA":"東和","LANE":" ","ALLEY":" ","HOUSE_NO":"３８號之３","E_COORD97":195730.5,"N_COORD97":2545110.7999999998,"ADDRESS":"東和３８號之３","OBJECTID":343906},"geometry":{"x":195730.5,"y":2545110.8000000007}},{"attributes":{"ID":343916,"DIS_CODE":0,"TOWNNAME":"南化區","LI":"東和里","LIN":"5鄰","STREET":" ","SECT":" ","MAREA":"東和","LANE":" ","ALLEY":" ","HOUSE_NO":"４０號之２","E_COORD97":195652.73999999999,"N_COORD97":2545076.7999999998,"ADDRESS":"東和４０號之２","OBJECTID":343907},"geometry":{"x":195652.74000000115,"y":2545076.8000000007}},{"attributes":{"ID":343917,"DIS_CODE":0,"TOWNNAME":"歸仁區","LI":"辜厝里","LIN":"35鄰","STREET":"中正南路","SECT":"一段","MAREA":" ","LANE":"２１８巷","ALLEY":" ","HOUSE_NO":"３８號","E_COORD97":177244.51999999999,"N_COORD97":2540372.6800000002,"ADDRESS":"中正南路一段２１８巷３８號","OBJECTID":343908},"geometry":{"x":177244.51999999955,"y":2540372.6800000016}},{"attributes":{"ID":343918,"DIS_CODE":0,"TOWNNAME":"南化區","LI":"中坑里","LIN":"5鄰","STREET":" ","SECT":" ","MAREA":"中坑","LANE":" ","ALLEY":" ","HOUSE_NO":"３６號之４","E_COORD97":193722.92000000001,"N_COORD97":2549373.7999999998,"ADDRESS":"中坑３６號之４","OBJECTID":343909},"geometry":{"x":193722.92000000179,"y":2549373.8000000026}},{"attributes":{"ID":343919,"DIS_CODE":0,"TOWNNAME":"歸仁區","LI":"辜厝里","LIN":"35鄰","STREET":"中正南路","SECT":"一段","MAREA":" ","LANE":"２１８巷","ALLEY":" ","HOUSE_NO":"５０號","E_COORD97":177223.01999999999,"N_COORD97":2540374.6800000002,"ADDRESS":"中正南路一段２１８巷５０號","OBJECTID":343910},"geometry":{"x":177223.02000000048,"y":2540374.6800000034}},{"attributes":{"ID":343920,"DIS_CODE":0,"TOWNNAME":"南化區","LI":"南化里","LIN":"5鄰","STREET":" ","SECT":" ","MAREA":"南化","LANE":" ","ALLEY":" ","HOUSE_NO":"６４號","E_COORD97":196343.59,"N_COORD97":2549159.75,"ADDRESS":"南化６４號","OBJECTID":343911},"geometry":{"x":196343.58999999985,"y":2549159.7500000019}},{"attributes":{"ID":343921,"DIS_CODE":0,"TOWNNAME":"南化區","LI":"南化里","LIN":"5鄰","STREET":" ","SECT":" ","MAREA":"南化","LANE":" ","ALLEY":" ","HOUSE_NO":"４７號之１４","E_COORD97":196208.70000000001,"N_COORD97":2549265.7999999998,"ADDRESS":"南化４７號之１４","OBJECTID":343912},"geometry":{"x":196208.70000000112,"y":2549265.8000000026}},{"attributes":{"ID":343922,"DIS_CODE":0,"TOWNNAME":"歸仁區","LI":"後市里","LIN":"35鄰","STREET":"國光街","SECT":" ","MAREA":" ","LANE":"８９巷","ALLEY":" ","HOUSE_NO":"７號","E_COORD97":177255.29000000001,"N_COORD97":2540992.7400000002,"ADDRESS":"國光街８９巷７號","OBJECTID":343913},"geometry":{"x":177255.2900000019,"y":2540992.7400000021}},{"attributes":{"ID":343923,"DIS_CODE":0,"TOWNNAME":"北區","LI":"成德里","LIN":"35鄰","STREET":"育德一街","SECT":" ","MAREA":" ","LANE":"２０８巷","ALLEY":" ","HOUSE_NO":"１１號","E_COORD97":168585.70999999999,"N_COORD97":2546212.1899999999,"ADDRESS":"育德一街２０８巷１１號","OBJECTID":343914},"geometry":{"x":168585.70999999996,"y":2546212.1899999995}},{"attributes":{"ID":343924,"DIS_CODE":0,"TOWNNAME":"南化區","LI":"西埔里","LIN":"5鄰","STREET":" ","SECT":" ","MAREA":"西埔","LANE":" ","ALLEY":" ","HOUSE_NO":"４２號之２","E_COORD97":194869.01000000001,"N_COORD97":2548350.7999999998,"ADDRESS":"西埔４２號之２","OBJECTID":343915},"geometry":{"x":194869.00999999978,"y":2548350.8000000026}},{"attributes":{"ID":343925,"DIS_CODE":0,"TOWNNAME":"南化區","LI":"小崙里","LIN":"5鄰","STREET":" ","SECT":" ","MAREA":"小崙","LANE":" ","ALLEY":" ","HOUSE_NO":"５６之３號","E_COORD97":197357.76999999999,"N_COORD97":2549547.7999999998,"ADDRESS":"小崙５６之３號","OBJECTID":343916},"geometry":{"x":197357.76999999955,"y":2549547.8000000007}},{"attributes":{"ID":343926,"DIS_CODE":0,"TOWNNAME":"南化區","LI":"北平里","LIN":"5鄰","STREET":" ","SECT":" ","MAREA":"北平","LANE":" ","ALLEY":" ","HOUSE_NO":"５１號之１","E_COORD97":195188.13,"N_COORD97":2551389.7999999998,"ADDRESS":"北平５１號之１","OBJECTID":343917},"geometry":{"x":195188.13000000082,"y":2551389.8000000007}},{"attributes":{"ID":343927,"DIS_CODE":0,"TOWNNAME":"南化區","LI":"小崙里","LIN":"5鄰","STREET":" ","SECT":" ","MAREA":"小崙","LANE":" ","ALLEY":" ","HOUSE_NO":"５３號之３","E_COORD97":197750.89999999999,"N_COORD97":2549612.7999999998,"ADDRESS":"小崙５３號之３","OBJECTID":343918},"geometry":{"x":197750.90000000037,"y":2549612.8000000007}},{"attributes":{"ID":343928,"DIS_CODE":0,"TOWNNAME":"南化區","LI":"小崙里","LIN":"5鄰","STREET":" ","SECT":" ","MAREA":"小崙","LANE":" ","ALLEY":" ","HOUSE_NO":"５０號之３","E_COORD97":197210.70000000001,"N_COORD97":2549685.7999999998,"ADDRESS":"小崙５０號之３","OBJECTID":343919},"geometry":{"x":197210.70000000112,"y":2549685.8000000026}},{"attributes":{"ID":343929,"DIS_CODE":0,"TOWNNAME":"南化區","LI":"東和里","LIN":"5鄰","STREET":" ","SECT":" ","MAREA":"東和","LANE":" ","ALLEY":" ","HOUSE_NO":"３９號之３","E_COORD97":195651,"N_COORD97":2545124.7999999998,"ADDRESS":"東和３９號之３","OBJECTID":343920},"geometry":{"x":195651,"y":2545124.8000000045}},{"attributes":{"ID":343930,"DIS_CODE":0,"TOWNNAME":"南化區","LI":"東和里","LIN":"5鄰","STREET":" ","SECT":" ","MAREA":"東和","LANE":" ","ALLEY":" ","HOUSE_NO":"４２號","E_COORD97":195596.57000000001,"N_COORD97":2544949.75,"ADDRESS":"東和４２號","OBJECTID":343921},"geometry":{"x":195596.5700000003,"y":2544949.7500000019}},{"attributes":{"ID":343931,"DIS_CODE":0,"TOWNNAME":"南化區","LI":"小崙里","LIN":"5鄰","STREET":" ","SECT":" ","MAREA":"小崙","LANE":" ","ALLEY":" ","HOUSE_NO":"４９之４號","E_COORD97":197246.87,"N_COORD97":2549761.7999999998,"ADDRESS":"小崙４９之４號","OBJECTID":343922},"geometry":{"x":197246.87000000104,"y":2549761.8000000007}},{"attributes":{"ID":343932,"DIS_CODE":0,"TOWNNAME":"南化區","LI":"關山里","LIN":"5鄰","STREET":" ","SECT":" ","MAREA":"西阿里關","LANE":" ","ALLEY":" ","HOUSE_NO":"１１２號","E_COORD97":209077.98999999999,"N_COORD97":2565468.75,"ADDRESS":"西阿里關１１２號","OBJECTID":343923},"geometry":{"x":209077.99000000115,"y":2565468.75}},{"attributes":{"ID":343933,"DIS_CODE":0,"TOWNNAME":"南化區","LI":"關山里","LIN":"5鄰","STREET":" ","SECT":" ","MAREA":"西阿里關","LANE":" ","ALLEY":" ","HOUSE_NO":"１０３之１號","E_COORD97":209318.69,"N_COORD97":2564673.7999999998,"ADDRESS":"西阿里關１０３之１號","OBJECTID":343924},"geometry":{"x":209318.69000000041,"y":2564673.8000000045}},{"attributes":{"ID":343934,"DIS_CODE":0,"TOWNNAME":"南化區","LI":"中坑里","LIN":"5鄰","STREET":" ","SECT":" ","MAREA":"中坑","LANE":" ","ALLEY":" ","HOUSE_NO":"３９號","E_COORD97":193569.16,"N_COORD97":2549437.7799999998,"ADDRESS":"中坑３９號","OBJECTID":343925},"geometry":{"x":193569.16000000108,"y":2549437.7799999993}},{"attributes":{"ID":343935,"DIS_CODE":0,"TOWNNAME":"南化區","LI":"東和里","LIN":"5鄰","STREET":" ","SECT":" ","MAREA":"東和","LANE":" ","ALLEY":" ","HOUSE_NO":"４７號之３","E_COORD97":195719.20000000001,"N_COORD97":2544850.7999999998,"ADDRESS":"東和４７號之３","OBJECTID":343926},"geometry":{"x":195719.20000000019,"y":2544850.8000000026}},{"attributes":{"ID":343936,"DIS_CODE":0,"TOWNNAME":"南化區","LI":"北寮里","LIN":"5鄰","STREET":" ","SECT":" ","MAREA":"北寮","LANE":" ","ALLEY":" ","HOUSE_NO":"７１號","E_COORD97":197749.09,"N_COORD97":2553150.75,"ADDRESS":"北寮７１號","OBJECTID":343927},"geometry":{"x":197749.08999999985,"y":2553150.7500000019}},{"attributes":{"ID":343937,"DIS_CODE":0,"TOWNNAME":"南化區","LI":"南化里","LIN":"5鄰","STREET":" ","SECT":" ","MAREA":"南化","LANE":" ","ALLEY":" ","HOUSE_NO":"５６號","E_COORD97":196311.69,"N_COORD97":2549172.75,"ADDRESS":"南化５６號","OBJECTID":343928},"geometry":{"x":196311.69000000041,"y":2549172.7500000037}},{"attributes":{"ID":343938,"DIS_CODE":0,"TOWNNAME":"北區","LI":"成德里","LIN":"35鄰","STREET":"育德一街","SECT":" ","MAREA":" ","LANE":"２０８巷","ALLEY":" ","HOUSE_NO":"１２號","E_COORD97":168584.44,"N_COORD97":2546199.4900000002,"ADDRESS":"育德一街２０８巷１２號","OBJECTID":343929},"geometry":{"x":168584.44000000134,"y":2546199.4900000002}},{"attributes":{"ID":343939,"DIS_CODE":0,"TOWNNAME":"北區","LI":"成德里","LIN":"35鄰","STREET":"育德一街","SECT":" ","MAREA":" ","LANE":"２０８巷","ALLEY":" ","HOUSE_NO":"１３號","E_COORD97":168591.89999999999,"N_COORD97":2546211.8700000001,"ADDRESS":"育德一街２０８巷１３號","OBJECTID":343930},"geometry":{"x":168591.90000000037,"y":2546211.870000001}},{"attributes":{"ID":343940,"DIS_CODE":0,"TOWNNAME":"北區","LI":"成德里","LIN":"35鄰","STREET":"育德一街","SECT":" ","MAREA":" ","LANE":"２０８巷","ALLEY":" ","HOUSE_NO":"１５號","E_COORD97":168598.89000000001,"N_COORD97":2546211.23,"ADDRESS":"育德一街２０８巷１５號","OBJECTID":343931},"geometry":{"x":168598.8900000006,"y":2546211.2300000023}},{"attributes":{"ID":343941,"DIS_CODE":0,"TOWNNAME":"南化區","LI":"中坑里","LIN":"5鄰","STREET":" ","SECT":" ","MAREA":"中坑","LANE":" ","ALLEY":" ","HOUSE_NO":"３８號之２","E_COORD97":193687.82999999999,"N_COORD97":2549526.7999999998,"ADDRESS":"中坑３８號之２","OBJECTID":343932},"geometry":{"x":193687.83000000007,"y":2549526.8000000026}},{"attributes":{"ID":343942,"DIS_CODE":0,"TOWNNAME":"南化區","LI":"中坑里","LIN":"5鄰","STREET":" ","SECT":" ","MAREA":"中坑","LANE":" ","ALLEY":" ","HOUSE_NO":"３７號之１","E_COORD97":193733.10000000001,"N_COORD97":2549391.7999999998,"ADDRESS":"中坑３７號之１","OBJECTID":343933},"geometry":{"x":193733.09999999963,"y":2549391.8000000007}},{"attributes":{"ID":343943,"DIS_CODE":0,"TOWNNAME":"新營區","LI":"南紙里","LIN":"5鄰","STREET":"南紙街","SECT":" ","MAREA":" ","LANE":"２９巷","ALLEY":" ","HOUSE_NO":"１６號","E_COORD97":177879.42999999999,"N_COORD97":2577726.8300000001,"ADDRESS":"南紙街２９巷１６號","OBJECTID":343934},"geometry":{"x":177879.43000000156,"y":2577726.8300000019}},{"attributes":{"ID":343944,"DIS_CODE":0,"TOWNNAME":"新營區","LI":"南紙里","LIN":"5鄰","STREET":"南紙街","SECT":" ","MAREA":" ","LANE":"２９巷","ALLEY":" ","HOUSE_NO":"１８號","E_COORD97":177883.51999999999,"N_COORD97":2577727.9100000001,"ADDRESS":"南紙街２９巷１８號","OBJECTID":343935},"geometry":{"x":177883.51999999955,"y":2577727.9100000001}},{"attributes":{"ID":343945,"DIS_CODE":0,"TOWNNAME":"南化區","LI":"中坑里","LIN":"5鄰","STREET":" ","SECT":" ","MAREA":"中坑","LANE":" ","ALLEY":" ","HOUSE_NO":"３８之５號","E_COORD97":193668.45999999999,"N_COORD97":2549625.7999999998,"ADDRESS":"中坑３８之５號","OBJECTID":343936},"geometry":{"x":193668.46000000183,"y":2549625.8000000007}},{"attributes":{"ID":343946,"DIS_CODE":0,"TOWNNAME":"北區","LI":"成德里","LIN":"35鄰","STREET":"育德一街","SECT":" ","MAREA":" ","LANE":"２０８巷","ALLEY":" ","HOUSE_NO":"１６號","E_COORD97":168590.79000000001,"N_COORD97":2546199.0099999998,"ADDRESS":"育德一街２０８巷１６號","OBJECTID":343937},"geometry":{"x":168590.79000000004,"y":2546199.0099999998}},{"attributes":{"ID":343947,"DIS_CODE":0,"TOWNNAME":"南化區","LI":"中坑里","LIN":"5鄰","STREET":" ","SECT":" ","MAREA":"中坑","LANE":" ","ALLEY":" ","HOUSE_NO":"４３號","E_COORD97":193429.06,"N_COORD97":2549432.7799999998,"ADDRESS":"中坑４３號","OBJECTID":343938},"geometry":{"x":193429.06000000052,"y":2549432.7800000031}},{"attributes":{"ID":343948,"DIS_CODE":0,"TOWNNAME":"東區","LI":"德光里","LIN":"8鄰","STREET":"崇明路","SECT":" ","MAREA":" ","LANE":" ","ALLEY":" ","HOUSE_NO":"１９１號四樓","E_COORD97":169980.26999999999,"N_COORD97":2542101.6400000001,"ADDRESS":"崇明路１９１號四樓","OBJECTID":343939},"geometry":{"x":169980.26999999955,"y":2542101.6400000043}},{"attributes":{"ID":343949,"DIS_CODE":0,"TOWNNAME":"南化區","LI":"北平里","LIN":"5鄰","STREET":" ","SECT":" ","MAREA":"北平","LANE":" ","ALLEY":" ","HOUSE_NO":"５２號之３","E_COORD97":195175.73000000001,"N_COORD97":2551397.7999999998,"ADDRESS":"北平５２號之３","OBJECTID":343940},"geometry":{"x":195175.73000000045,"y":2551397.8000000026}},{"attributes":{"ID":343950,"DIS_CODE":0,"TOWNNAME":"南化區","LI":"北平里","LIN":"5鄰","STREET":" ","SECT":" ","MAREA":"北平","LANE":" ","ALLEY":" ","HOUSE_NO":"５０號","E_COORD97":195304.19,"N_COORD97":2551564.75,"ADDRESS":"北平５０號","OBJECTID":343941},"geometry":{"x":195304.19000000041,"y":2551564.75}},{"attributes":{"ID":343951,"DIS_CODE":0,"TOWNNAME":"東區","LI":"德光里","LIN":"8鄰","STREET":"崇明路","SECT":" ","MAREA":" ","LANE":" ","ALLEY":" ","HOUSE_NO":"１９１號四樓之１","E_COORD97":169980.26999999999,"N_COORD97":2542101.6400000001,"ADDRESS":"崇明路１９１號四樓之１","OBJECTID":343942},"geometry":{"x":169980.26999999955,"y":2542101.6400000043}},{"attributes":{"ID":343952,"DIS_CODE":0,"TOWNNAME":"新營區","LI":"太北里","LIN":"5鄰","STREET":" ","SECT":" ","MAREA":"太子宮","LANE":" ","ALLEY":" ","HOUSE_NO":"３６號","E_COORD97":175892.42999999999,"N_COORD97":2577202.8399999999,"ADDRESS":"太子宮３６號","OBJECTID":343943},"geometry":{"x":175892.4299999997,"y":2577202.8399999999}},{"attributes":{"ID":343953,"DIS_CODE":0,"TOWNNAME":"北區","LI":"成德里","LIN":"35鄰","STREET":"育德一街","SECT":" ","MAREA":" ","LANE":"２０８巷","ALLEY":" ","HOUSE_NO":"１７號","E_COORD97":168606.35000000001,"N_COORD97":2546210.9199999999,"ADDRESS":"育德一街２０８巷１７號","OBJECTID":343944},"geometry":{"x":168606.35000000056,"y":2546210.9199999999}},{"attributes":{"ID":343954,"DIS_CODE":0,"TOWNNAME":"新營區","LI":"太北里","LIN":"5鄰","STREET":" ","SECT":" ","MAREA":"太子宮","LANE":" ","ALLEY":" ","HOUSE_NO":"３６之５號","E_COORD97":175866.32000000001,"N_COORD97":2577207.46,"ADDRESS":"太子宮３６之５號","OBJECTID":343945},"geometry":{"x":175866.3200000003,"y":2577207.4600000028}},{"attributes":{"ID":343955,"DIS_CODE":0,"TOWNNAME":"佳里區","LI":"鎮山里","LIN":"1鄰","STREET":"四安街","SECT":" ","MAREA":" ","LANE":" ","ALLEY":" ","HOUSE_NO":"２３號","E_COORD97":165879.89999999999,"N_COORD97":2561831.6899999999,"ADDRESS":"四安街２３號","OBJECTID":343946},"geometry":{"x":165879.90000000037,"y":2561831.6899999995}},{"attributes":{"ID":343956,"DIS_CODE":0,"TOWNNAME":"北區","LI":"成德里","LIN":"35鄰","STREET":"育德一街","SECT":" ","MAREA":" ","LANE":"２０８巷","ALLEY":" ","HOUSE_NO":"１８號","E_COORD97":168597.62,"N_COORD97":2546198.5299999998,"ADDRESS":"育德一街２０８巷１８號","OBJECTID":343947},"geometry":{"x":168597.62000000104,"y":2546198.5299999993}},{"attributes":{"ID":343957,"DIS_CODE":0,"TOWNNAME":"新營區","LI":"太北里","LIN":"5鄰","STREET":" ","SECT":" ","MAREA":"太子宮","LANE":" ","ALLEY":" ","HOUSE_NO":"３６之１號","E_COORD97":175896.12,"N_COORD97":2577235,"ADDRESS":"太子宮３６之１號","OBJECTID":343948},"geometry":{"x":175896.12000000011,"y":2577235}},{"attributes":{"ID":343958,"DIS_CODE":0,"TOWNNAME":"新營區","LI":"土庫里","LIN":"5鄰","STREET":" ","SECT":" ","MAREA":"土庫","LANE":" ","ALLEY":" ","HOUSE_NO":"９５之１號","E_COORD97":183303.47,"N_COORD97":2579802.2999999998,"ADDRESS":"土庫９５之１號","OBJECTID":343949},"geometry":{"x":183303.46999999974,"y":2579802.3000000026}},{"attributes":{"ID":343959,"DIS_CODE":0,"TOWNNAME":"北區","LI":"成德里","LIN":"35鄰","STREET":"育德一街","SECT":" ","MAREA":" ","LANE":"２１２巷","ALLEY":" ","HOUSE_NO":"１號","E_COORD97":168563.64999999999,"N_COORD97":2546234.8900000001,"ADDRESS":"育德一街２１２巷１號","OBJECTID":343950},"geometry":{"x":168563.65000000224,"y":2546234.8900000006}},{"attributes":{"ID":343960,"DIS_CODE":0,"TOWNNAME":"北區","LI":"成德里","LIN":"35鄰","STREET":"育德一街","SECT":" ","MAREA":" ","LANE":"２１２巷","ALLEY":" ","HOUSE_NO":"２號","E_COORD97":168562.69,"N_COORD97":2546228.7000000002,"ADDRESS":"育德一街２１２巷２號","OBJECTID":343951},"geometry":{"x":168562.69000000041,"y":2546228.6999999993}},{"attributes":{"ID":343961,"DIS_CODE":0,"TOWNNAME":"新營區","LI":"太北里","LIN":"5鄰","STREET":" ","SECT":" ","MAREA":"太子宮","LANE":" ","ALLEY":" ","HOUSE_NO":"３９號","E_COORD97":175800.73000000001,"N_COORD97":2577276.3900000001,"ADDRESS":"太子宮３９號","OBJECTID":343952},"geometry":{"x":175800.73000000138,"y":2577276.3900000025}},{"attributes":{"ID":343962,"DIS_CODE":0,"TOWNNAME":"新營區","LI":"太北里","LIN":"5鄰","STREET":" ","SECT":" ","MAREA":"太子宮","LANE":" ","ALLEY":" ","HOUSE_NO":"４０之１號","E_COORD97":175820.29000000001,"N_COORD97":2577211.0099999998,"ADDRESS":"太子宮４０之１號","OBJECTID":343953},"geometry":{"x":175820.29000000004,"y":2577211.0099999998}},{"attributes":{"ID":343963,"DIS_CODE":0,"TOWNNAME":"新營區","LI":"角帶里","LIN":"5鄰","STREET":" ","SECT":" ","MAREA":"角帶圍","LANE":" ","ALLEY":" ","HOUSE_NO":"６４號","E_COORD97":174703.57000000001,"N_COORD97":2575772.4500000002,"ADDRESS":"角帶圍６４號","OBJECTID":343954},"geometry":{"x":174703.5700000003,"y":2575772.4500000011}},{"attributes":{"ID":343964,"DIS_CODE":0,"TOWNNAME":"北區","LI":"成德里","LIN":"35鄰","STREET":"育德一街","SECT":" ","MAREA":" ","LANE":"２１２巷","ALLEY":" ","HOUSE_NO":"３號","E_COORD97":168569.51999999999,"N_COORD97":2546234.8900000001,"ADDRESS":"育德一街２１２巷３號","OBJECTID":343955},"geometry":{"x":168569.52000000048,"y":2546234.8900000006}},{"attributes":{"ID":343965,"DIS_CODE":0,"TOWNNAME":"北區","LI":"成德里","LIN":"35鄰","STREET":"育德一街","SECT":" ","MAREA":" ","LANE":"２１２巷","ALLEY":" ","HOUSE_NO":"５號","E_COORD97":168576.35000000001,"N_COORD97":2546234.5699999998,"ADDRESS":"育德一街２１２巷５號","OBJECTID":343956},"geometry":{"x":168576.34999999963,"y":2546234.570000004}},{"attributes":{"ID":343966,"DIS_CODE":0,"TOWNNAME":"新營區","LI":"角帶里","LIN":"5鄰","STREET":" ","SECT":" ","MAREA":"角帶圍","LANE":" ","ALLEY":" ","HOUSE_NO":"５９號","E_COORD97":174765.76999999999,"N_COORD97":2575730.0600000001,"ADDRESS":"角帶圍５９號","OBJECTID":343957},"geometry":{"x":174765.76999999955,"y":2575730.0600000005}},{"attributes":{"ID":343967,"DIS_CODE":0,"TOWNNAME":"新營區","LI":"角帶里","LIN":"5鄰","STREET":" ","SECT":" ","MAREA":"角帶圍","LANE":" ","ALLEY":" ","HOUSE_NO":"６２號","E_COORD97":174731.09,"N_COORD97":2575751.2599999998,"ADDRESS":"角帶圍６２號","OBJECTID":343958},"geometry":{"x":174731.09000000078,"y":2575751.2599999998}},{"attributes":{"ID":343968,"DIS_CODE":0,"TOWNNAME":"新化區","LI":"羊林里","LIN":"5鄰","STREET":" ","SECT":" ","MAREA":"\u25A0拔林","LANE":" ","ALLEY":" ","HOUSE_NO":"４７３號之１","E_COORD97":183543.95000000001,"N_COORD97":2551744.2599999998,"ADDRESS":"\u25A0拔林４７３號之１","OBJECTID":343959},"geometry":{"x":183543.95000000112,"y":2551744.2599999998}},{"attributes":{"ID":343969,"DIS_CODE":0,"TOWNNAME":"北區","LI":"成德里","LIN":"35鄰","STREET":"育德一街","SECT":" ","MAREA":" ","LANE":"２１２巷","ALLEY":" ","HOUSE_NO":"６號","E_COORD97":168568.73000000001,"N_COORD97":2546228.7000000002,"ADDRESS":"育德一街２１２巷６號","OBJECTID":343960},"geometry":{"x":168568.73000000138,"y":2546228.6999999993}},{"attributes":{"ID":343970,"DIS_CODE":0,"TOWNNAME":"新化區","LI":"羊林里","LIN":"5鄰","STREET":" ","SECT":" ","MAREA":"\u25A0拔林","LANE":" ","ALLEY":" ","HOUSE_NO":"４７５號之１","E_COORD97":183535.85000000001,"N_COORD97":2551767.2599999998,"ADDRESS":"\u25A0拔林４７５號之１","OBJECTID":343961},"geometry":{"x":183535.85000000056,"y":2551767.2600000016}},{"attributes":{"ID":343971,"DIS_CODE":0,"TOWNNAME":"新化區","LI":"羊林里","LIN":"5鄰","STREET":" ","SECT":" ","MAREA":"\u25A0拔林","LANE":" ","ALLEY":" ","HOUSE_NO":"４６１號","E_COORD97":183603.12,"N_COORD97":2551753.25,"ADDRESS":"\u25A0拔林４６１號","OBJECTID":343962},"geometry":{"x":183603.11999999918,"y":2551753.2500000019}},{"attributes":{"ID":343972,"DIS_CODE":0,"TOWNNAME":"新化區","LI":"大坑里","LIN":"5鄰","STREET":" ","SECT":" ","MAREA":"大坑尾","LANE":" ","ALLEY":" ","HOUSE_NO":"１３４號","E_COORD97":187084.63,"N_COORD97":2545711.25,"ADDRESS":"大坑尾１３４號","OBJECTID":343963},"geometry":{"x":187084.62999999989,"y":2545711.2500000019}},{"attributes":{"ID":343973,"DIS_CODE":0,"TOWNNAME":"北區","LI":"成德里","LIN":"35鄰","STREET":"育德一街","SECT":" ","MAREA":" ","LANE":"２１２巷","ALLEY":" ","HOUSE_NO":"７號","E_COORD97":168583.17000000001,"N_COORD97":2546234.5699999998,"ADDRESS":"育德一街２１２巷７號","OBJECTID":343964},"geometry":{"x":168583.16999999993,"y":2546234.570000004}},{"attributes":{"ID":343974,"DIS_CODE":0,"TOWNNAME":"北區","LI":"成德里","LIN":"35鄰","STREET":"育德一街","SECT":" ","MAREA":" ","LANE":"２１２巷","ALLEY":" ","HOUSE_NO":"８號","E_COORD97":168575.23999999999,"N_COORD97":2546228.3799999999,"ADDRESS":"育德一街２１２巷８號","OBJECTID":343965},"geometry":{"x":168575.24000000115,"y":2546228.3800000008}},{"attributes":{"ID":343975,"DIS_CODE":0,"TOWNNAME":"南區","LI":"佛壇里","LIN":"5鄰","STREET":"興南街","SECT":" ","MAREA":" ","LANE":"１６６巷","ALLEY":" ","HOUSE_NO":"４６號","E_COORD97":166071.09,"N_COORD97":2535943.6099999999,"ADDRESS":"興南街１６６巷４６號","OBJECTID":343966},"geometry":{"x":166071.08999999985,"y":2535943.6100000031}},{"attributes":{"ID":343976,"DIS_CODE":0,"TOWNNAME":"南區","LI":"佛壇里","LIN":"5鄰","STREET":"興南街","SECT":" ","MAREA":" ","LANE":"１６６巷","ALLEY":" ","HOUSE_NO":"４８號","E_COORD97":166083.04000000001,"N_COORD97":2535950.23,"ADDRESS":"興南街１６６巷４８號","OBJECTID":343967},"geometry":{"x":166083.04000000097,"y":2535950.2300000004}},{"attributes":{"ID":343977,"DIS_CODE":0,"TOWNNAME":"南區","LI":"佛壇里","LIN":"5鄰","STREET":"興南街","SECT":" ","MAREA":" ","LANE":"１６６巷","ALLEY":" ","HOUSE_NO":"５０號","E_COORD97":166033.89000000001,"N_COORD97":2535955.71,"ADDRESS":"興南街１６６巷５０號","OBJECTID":343968},"geometry":{"x":166033.8900000006,"y":2535955.7100000028}},{"attributes":{"ID":343978,"DIS_CODE":0,"TOWNNAME":"南區","LI":"佛壇里","LIN":"5鄰","STREET":"興南街","SECT":" ","MAREA":" ","LANE":"１６６巷","ALLEY":" ","HOUSE_NO":"５２號","E_COORD97":166060.38,"N_COORD97":2535943.5899999999,"ADDRESS":"興南街１６６巷５２號","OBJECTID":343969},"geometry":{"x":166060.37999999989,"y":2535943.5899999999}},{"attributes":{"ID":343979,"DIS_CODE":0,"TOWNNAME":"南區","LI":"佛壇里","LIN":"5鄰","STREET":"興南街","SECT":" ","MAREA":" ","LANE":"１６６巷","ALLEY":" ","HOUSE_NO":"５４號","E_COORD97":166071.42000000001,"N_COORD97":2535882.96,"ADDRESS":"興南街１６６巷５４號","OBJECTID":343970},"geometry":{"x":166071.42000000086,"y":2535882.9600000028}},{"attributes":{"ID":343980,"DIS_CODE":0,"TOWNNAME":"南區","LI":"佛壇里","LIN":"5鄰","STREET":"灣裡路","SECT":" ","MAREA":" ","LANE":"２８２巷","ALLEY":" ","HOUSE_NO":"１１９號","E_COORD97":166050.14000000001,"N_COORD97":2535959.1600000001,"ADDRESS":"灣裡路２８２巷１１９號","OBJECTID":343971},"geometry":{"x":166050.13999999966,"y":2535959.160000002}},{"attributes":{"ID":343981,"DIS_CODE":0,"TOWNNAME":"南區","LI":"竹溪里","LIN":"5鄰","STREET":"體育路","SECT":" ","MAREA":" ","LANE":"４１巷","ALLEY":" ","HOUSE_NO":"２７號","E_COORD97":168845.32000000001,"N_COORD97":2542260.29,"ADDRESS":"體育路４１巷２７號","OBJECTID":343972},"geometry":{"x":168845.31999999937,"y":2542260.2899999991}},{"attributes":{"ID":343982,"DIS_CODE":0,"TOWNNAME":"歸仁區","LI":"七甲里","LIN":"5鄰","STREET":"中正北路","SECT":"二段","MAREA":" ","LANE":"４５２巷","ALLEY":" ","HOUSE_NO":"９號","E_COORD97":177523.82000000001,"N_COORD97":2543118.2599999998,"ADDRESS":"中正北路二段４５２巷９號","OBJECTID":343973},"geometry":{"x":177523.82000000123,"y":2543118.2600000016}},{"attributes":{"ID":343983,"DIS_CODE":0,"TOWNNAME":"東區","LI":"德光里","LIN":"8鄰","STREET":"崇明路","SECT":" ","MAREA":" ","LANE":" ","ALLEY":" ","HOUSE_NO":"１９３號七樓","E_COORD97":169985.69,"N_COORD97":2542095.5600000001,"ADDRESS":"崇明路１９３號七樓","OBJECTID":343974},"geometry":{"x":169985.69000000227,"y":2542095.5600000024}},{"attributes":{"ID":343984,"DIS_CODE":0,"TOWNNAME":"東區","LI":"德光里","LIN":"8鄰","STREET":"崇明路","SECT":" ","MAREA":" ","LANE":" ","ALLEY":" ","HOUSE_NO":"１９３號七樓之１","E_COORD97":169985.69,"N_COORD97":2542095.5600000001,"ADDRESS":"崇明路１９３號七樓之１","OBJECTID":343975},"geometry":{"x":169985.69000000227,"y":2542095.5600000024}},{"attributes":{"ID":343985,"DIS_CODE":0,"TOWNNAME":"東區","LI":"德光里","LIN":"8鄰","STREET":"崇明路","SECT":" ","MAREA":" ","LANE":" ","ALLEY":" ","HOUSE_NO":"１９３號九樓","E_COORD97":169985.69,"N_COORD97":2542095.5600000001,"ADDRESS":"崇明路１９３號九樓","OBJECTID":343976},"geometry":{"x":169985.69000000227,"y":2542095.5600000024}},{"attributes":{"ID":343986,"DIS_CODE":0,"TOWNNAME":"東區","LI":"德光里","LIN":"8鄰","STREET":"崇明路","SECT":" ","MAREA":" ","LANE":" ","ALLEY":" ","HOUSE_NO":"１９３號九樓之１","E_COORD97":169985.69,"N_COORD97":2542095.5600000001,"ADDRESS":"崇明路１９３號九樓之１","OBJECTID":343977},"geometry":{"x":169985.69000000227,"y":2542095.5600000024}},{"attributes":{"ID":343987,"DIS_CODE":0,"TOWNNAME":"東區","LI":"德光里","LIN":"8鄰","STREET":"崇明路","SECT":" ","MAREA":" ","LANE":" ","ALLEY":" ","HOUSE_NO":"１９３號八樓","E_COORD97":169985.69,"N_COORD97":2542095.5600000001,"ADDRESS":"崇明路１９３號八樓","OBJECTID":343978},"geometry":{"x":169985.69000000227,"y":2542095.5600000024}},{"attributes":{"ID":343988,"DIS_CODE":0,"TOWNNAME":"東區","LI":"德光里","LIN":"8鄰","STREET":"崇明路","SECT":" ","MAREA":" ","LANE":" ","ALLEY":" ","HOUSE_NO":"１９３號八樓之１","E_COORD97":169985.69,"N_COORD97":2542095.5600000001,"ADDRESS":"崇明路１９３號八樓之１","OBJECTID":343979},"geometry":{"x":169985.69000000227,"y":2542095.5600000024}},{"attributes":{"ID":343989,"DIS_CODE":0,"TOWNNAME":"東區","LI":"德光里","LIN":"8鄰","STREET":"崇明路","SECT":" ","MAREA":" ","LANE":" ","ALLEY":" ","HOUSE_NO":"１９３號十一樓","E_COORD97":169985.69,"N_COORD97":2542095.5600000001,"ADDRESS":"崇明路１９３號十一樓","OBJECTID":343980},"geometry":{"x":169985.69000000227,"y":2542095.5600000024}},{"attributes":{"ID":343990,"DIS_CODE":0,"TOWNNAME":"南區","LI":"喜東里","LIN":"5鄰","STREET":"喜樹路","SECT":" ","MAREA":" ","LANE":"６１巷","ALLEY":" ","HOUSE_NO":"１２號","E_COORD97":165958.26000000001,"N_COORD97":2538539.5699999998,"ADDRESS":"喜樹路６１巷１２號","OBJECTID":343981},"geometry":{"x":165958.25999999978,"y":2538539.5700000022}},{"attributes":{"ID":343991,"DIS_CODE":0,"TOWNNAME":"南區","LI":"喜東里","LIN":"5鄰","STREET":"喜樹路","SECT":" ","MAREA":" ","LANE":"６１巷","ALLEY":" ","HOUSE_NO":"１４號","E_COORD97":165969.44,"N_COORD97":2538553.6899999999,"ADDRESS":"喜樹路６１巷１４號","OBJECTID":343982},"geometry":{"x":165969.44000000041,"y":2538553.6900000032}},{"attributes":{"ID":343992,"DIS_CODE":0,"TOWNNAME":"南區","LI":"喜東里","LIN":"5鄰","STREET":"喜樹路","SECT":" ","MAREA":" ","LANE":"６１巷","ALLEY":" ","HOUSE_NO":"２號","E_COORD97":165948.62,"N_COORD97":2538563.21,"ADDRESS":"喜樹路６１巷２號","OBJECTID":343983},"geometry":{"x":165948.62000000104,"y":2538563.2100000028}},{"attributes":{"ID":343993,"DIS_CODE":0,"TOWNNAME":"南區","LI":"喜東里","LIN":"5鄰","STREET":"喜樹路","SECT":" ","MAREA":" ","LANE":"６１巷","ALLEY":" ","HOUSE_NO":"４號","E_COORD97":165949.82000000001,"N_COORD97":2538551.8999999999,"ADDRESS":"喜樹路６１巷４號","OBJECTID":343984},"geometry":{"x":165949.8200000003,"y":2538551.9000000004}},{"attributes":{"ID":343994,"DIS_CODE":0,"TOWNNAME":"南區","LI":"喜東里","LIN":"5鄰","STREET":"喜樹路","SECT":" ","MAREA":" ","LANE":"６１巷","ALLEY":" ","HOUSE_NO":"６號","E_COORD97":165950.59,"N_COORD97":2538544.1299999999,"ADDRESS":"喜樹路６１巷６號","OBJECTID":343985},"geometry":{"x":165950.58999999985,"y":2538544.1300000008}},{"attributes":{"ID":343995,"DIS_CODE":0,"TOWNNAME":"南區","LI":"喜東里","LIN":"5鄰","STREET":"喜樹路","SECT":" ","MAREA":" ","LANE":"６１巷","ALLEY":" ","HOUSE_NO":"８號","E_COORD97":165950.81,"N_COORD97":2538535.0899999999,"ADDRESS":"喜樹路６１巷８號","OBJECTID":343986},"geometry":{"x":165950.80999999959,"y":2538535.0900000017}},{"attributes":{"ID":343996,"DIS_CODE":0,"TOWNNAME":"南區","LI":"竹溪里","LIN":"5鄰","STREET":"體育路","SECT":" ","MAREA":" ","LANE":"４１巷","ALLEY":" ","HOUSE_NO":"２５號","E_COORD97":168836.66,"N_COORD97":2542261.3700000001,"ADDRESS":"體育路４１巷２５號","OBJECTID":343987},"geometry":{"x":168836.66000000108,"y":2542261.3700000029}},{"attributes":{"ID":343997,"DIS_CODE":0,"TOWNNAME":"南區","LI":"竹溪里","LIN":"5鄰","STREET":"體育路","SECT":" ","MAREA":" ","LANE":"４１巷","ALLEY":" ","HOUSE_NO":"２３號之２","E_COORD97":168832.87,"N_COORD97":2542261.3700000001,"ADDRESS":"體育路４１巷２３號之２","OBJECTID":343988},"geometry":{"x":168832.87000000011,"y":2542261.3700000029}},{"attributes":{"ID":343998,"DIS_CODE":0,"TOWNNAME":"南區","LI":"明德里","LIN":"5鄰","STREET":"大成路","SECT":"一段","MAREA":" ","LANE":"６１巷","ALLEY":" ","HOUSE_NO":"７號","E_COORD97":168097.76999999999,"N_COORD97":2541688.48,"ADDRESS":"大成路一段６１巷７號","OBJECTID":343989},"geometry":{"x":168097.77000000048,"y":2541688.4800000004}},{"attributes":{"ID":343999,"DIS_CODE":0,"TOWNNAME":"南區","LI":"明德里","LIN":"5鄰","STREET":"大成路","SECT":"一段","MAREA":" ","LANE":"６１巷","ALLEY":" ","HOUSE_NO":"９號","E_COORD97":168100.64000000001,"N_COORD97":2541688.48,"ADDRESS":"大成路一段６１巷９號","OBJECTID":343990},"geometry":{"x":168100.6400000006,"y":2541688.4800000004}},{"attributes":{"ID":344000,"DIS_CODE":0,"TOWNNAME":"北區","LI":"成德里","LIN":"35鄰","STREET":"育德一街","SECT":" ","MAREA":" ","LANE":"２１２巷","ALLEY":" ","HOUSE_NO":"９號","E_COORD97":168590.16,"N_COORD97":2546234.25,"ADDRESS":"育德一街２１２巷９號","OBJECTID":343991},"geometry":{"x":168590.16000000015,"y":2546234.2500000019}},{"attributes":{"ID":344001,"DIS_CODE":0,"TOWNNAME":"北區","LI":"成德里","LIN":"35鄰","STREET":"育德一街","SECT":" ","MAREA":" ","LANE":"２１２巷","ALLEY":" ","HOUSE_NO":"１０號","E_COORD97":168581.89999999999,"N_COORD97":2546228.0600000001,"ADDRESS":"育德一街２１２巷１０號","OBJECTID":343992},"geometry":{"x":168581.90000000037,"y":2546228.0600000042}},{"attributes":{"ID":344002,"DIS_CODE":0,"TOWNNAME":"北區","LI":"成德里","LIN":"35鄰","STREET":"育德一街","SECT":" ","MAREA":" ","LANE":"２１２巷","ALLEY":" ","HOUSE_NO":"１１號","E_COORD97":168597.14000000001,"N_COORD97":2546233.9300000002,"ADDRESS":"育德一街２１２巷１１號","OBJECTID":343993},"geometry":{"x":168597.1400000006,"y":2546233.9299999997}},{"attributes":{"ID":344003,"DIS_CODE":0,"TOWNNAME":"北區","LI":"成德里","LIN":"35鄰","STREET":"育德一街","SECT":" ","MAREA":" ","LANE":"２１２巷","ALLEY":" ","HOUSE_NO":"１２號","E_COORD97":168588.89000000001,"N_COORD97":2546227.7400000002,"ADDRESS":"育德一街２１２巷１２號","OBJECTID":343994},"geometry":{"x":168588.8900000006,"y":2546227.7400000021}},{"attributes":{"ID":344004,"DIS_CODE":0,"TOWNNAME":"北區","LI":"成德里","LIN":"35鄰","STREET":"育德一街","SECT":" ","MAREA":" ","LANE":"２１２巷","ALLEY":" ","HOUSE_NO":"１３號","E_COORD97":168604.13,"N_COORD97":2546233.6200000001,"ADDRESS":"育德一街２１２巷１３號","OBJECTID":343995},"geometry":{"x":168604.13000000082,"y":2546233.620000001}},{"attributes":{"ID":344005,"DIS_CODE":0,"TOWNNAME":"北區","LI":"成德里","LIN":"35鄰","STREET":"育德一街","SECT":" ","MAREA":" ","LANE":"２１２巷","ALLEY":" ","HOUSE_NO":"１５號","E_COORD97":168611.26999999999,"N_COORD97":2546233.46,"ADDRESS":"育德一街２１２巷１５號","OBJECTID":343996},"geometry":{"x":168611.27000000048,"y":2546233.4600000028}},{"attributes":{"ID":344006,"DIS_CODE":0,"TOWNNAME":"東區","LI":"德光里","LIN":"8鄰","STREET":"崇明路","SECT":" ","MAREA":" ","LANE":" ","ALLEY":" ","HOUSE_NO":"１９３號十一樓之１","E_COORD97":169985.69,"N_COORD97":2542095.5600000001,"ADDRESS":"崇明路１９３號十一樓之１","OBJECTID":343997},"geometry":{"x":169985.69000000227,"y":2542095.5600000024}},{"attributes":{"ID":344007,"DIS_CODE":0,"TOWNNAME":"東區","LI":"德光里","LIN":"8鄰","STREET":"崇明路","SECT":" ","MAREA":" ","LANE":" ","ALLEY":" ","HOUSE_NO":"１９３號十二樓","E_COORD97":169985.69,"N_COORD97":2542095.5600000001,"ADDRESS":"崇明路１９３號十二樓","OBJECTID":343998},"geometry":{"x":169985.69000000227,"y":2542095.5600000024}},{"attributes":{"ID":344008,"DIS_CODE":0,"TOWNNAME":"東區","LI":"德光里","LIN":"8鄰","STREET":"崇明路","SECT":" ","MAREA":" ","LANE":" ","ALLEY":" ","HOUSE_NO":"１９３號十二樓之１","E_COORD97":169985.69,"N_COORD97":2542095.5600000001,"ADDRESS":"崇明路１９３號十二樓之１","OBJECTID":343999},"geometry":{"x":169985.69000000227,"y":2542095.5600000024}},{"attributes":{"ID":344009,"DIS_CODE":0,"TOWNNAME":"東區","LI":"德光里","LIN":"8鄰","STREET":"崇明路","SECT":" ","MAREA":" ","LANE":" ","ALLEY":" ","HOUSE_NO":"１９３號十三樓","E_COORD97":169985.69,"N_COORD97":2542095.5600000001,"ADDRESS":"崇明路１９３號十三樓","OBJECTID":344000},"geometry":{"x":169985.69000000227,"y":2542095.5600000024}}]}