{"displayFieldName":"TOWNNAME","fieldAliases":{"ID":"ID","DIS_CODE":"DIS_CODE","TOWNNAME":"TOWNNAME","LI":"LI","LIN":"LIN","STREET":"STREET","SECT":"SECT","MAREA":"MAREA","LANE":"LANE","ALLEY":"ALLEY","HOUSE_NO":"HOUSE_NO","E_COORD97":"E_COORD97","N_COORD97":"N_COORD97","ADDRESS":"ADDRESS","OBJECTID":"OBJECTID"},"geometryType":"esriGeometryPoint","spatialReference":{"wkid":102443,"latestWkid":3826},"fields":[{"name":"ID","type":"esriFieldTypeDouble","alias":"ID"},{"name":"DIS_CODE","type":"esriFieldTypeInteger","alias":"DIS_CODE"},{"name":"TOWNNAME","type":"esriFieldTypeString","alias":"TOWNNAME","length":8},{"name":"LI","type":"esriFieldTypeString","alias":"LI","length":8},{"name":"LIN","type":"esriFieldTypeString","alias":"LIN","length":12},{"name":"STREET","type":"esriFieldTypeString","alias":"STREET","length":20},{"name":"SECT","type":"esriFieldTypeString","alias":"SECT","length":8},{"name":"MAREA","type":"esriFieldTypeString","alias":"MAREA","length":12},{"name":"LANE","type":"esriFieldTypeString","alias":"LANE","length":10},{"name":"ALLEY","type":"esriFieldTypeString","alias":"ALLEY","length":10},{"name":"HOUSE_NO","type":"esriFieldTypeString","alias":"HOUSE_NO","length":20},{"name":"E_COORD97","type":"esriFieldTypeDouble","alias":"E_COORD97"},{"name":"N_COORD97","type":"esriFieldTypeDouble","alias":"N_COORD97"},{"name":"ADDRESS","type":"esriFieldTypeString","alias":"ADDRESS","length":50},{"name":"OBJECTID","type":"esriFieldTypeOID","alias":"OBJECTID"}],"features":[{"attributes":{"ID":147802,"DIS_CODE":0,"TOWNNAME":"白河區","LI":"仙草里","LIN":" ","STREET":" ","SECT":" ","MAREA":"白水溪","LANE":" ","ALLEY":" ","HOUSE_NO":"４７號","E_COORD97":197737.41,"N_COORD97":2583534.1499999999,"ADDRESS":"白水溪４７號","OBJECTID":147801},"geometry":{"x":197737.40999999922,"y":2583534.1500000004}},{"attributes":{"ID":147803,"DIS_CODE":0,"TOWNNAME":"白河區","LI":"仙草里","LIN":" ","STREET":" ","SECT":" ","MAREA":"白水溪","LANE":" ","ALLEY":" ","HOUSE_NO":"５１號","E_COORD97":198702.76999999999,"N_COORD97":2583889.04,"ADDRESS":"白水溪５１號","OBJECTID":147802},"geometry":{"x":198702.77000000048,"y":2583889.0399999991}},{"attributes":{"ID":147804,"DIS_CODE":0,"TOWNNAME":"白河區","LI":"竹門里","LIN":" ","STREET":" ","SECT":" ","MAREA":"竹子門","LANE":" ","ALLEY":" ","HOUSE_NO":"１２９號","E_COORD97":193199.81,"N_COORD97":2585978.1600000001,"ADDRESS":"竹子門１２９號","OBJECTID":147803},"geometry":{"x":193199.81000000052,"y":2585978.1600000001}},{"attributes":{"ID":147805,"DIS_CODE":0,"TOWNNAME":"白河區","LI":"竹門里","LIN":" ","STREET":" ","SECT":" ","MAREA":"竹子門","LANE":" ","ALLEY":" ","HOUSE_NO":"１３３之１號","E_COORD97":193222.95000000001,"N_COORD97":2585954.7799999998,"ADDRESS":"竹子門１３３之１號","OBJECTID":147804},"geometry":{"x":193222.95000000205,"y":2585954.7800000012}},{"attributes":{"ID":147806,"DIS_CODE":0,"TOWNNAME":"白河區","LI":"竹門里","LIN":" ","STREET":" ","SECT":" ","MAREA":"竹子門","LANE":" ","ALLEY":" ","HOUSE_NO":"４２號","E_COORD97":193552.97,"N_COORD97":2586175.2599999998,"ADDRESS":"竹子門４２號","OBJECTID":147805},"geometry":{"x":193552.9700000016,"y":2586175.2600000016}},{"attributes":{"ID":147807,"DIS_CODE":0,"TOWNNAME":"白河區","LI":"竹門里","LIN":" ","STREET":" ","SECT":" ","MAREA":"竹子門","LANE":" ","ALLEY":" ","HOUSE_NO":"４３號","E_COORD97":193540.04000000001,"N_COORD97":2586141.5099999998,"ADDRESS":"竹子門４３號","OBJECTID":147806},"geometry":{"x":193540.04000000097,"y":2586141.5099999998}},{"attributes":{"ID":147808,"DIS_CODE":0,"TOWNNAME":"白河區","LI":"竹門里","LIN":" ","STREET":" ","SECT":" ","MAREA":"竹子門","LANE":" ","ALLEY":" ","HOUSE_NO":"４５之４號","E_COORD97":193522.73999999999,"N_COORD97":2586133.6099999999,"ADDRESS":"竹子門４５之４號","OBJECTID":147807},"geometry":{"x":193522.74000000209,"y":2586133.6099999994}},{"attributes":{"ID":147809,"DIS_CODE":0,"TOWNNAME":"白河區","LI":"竹門里","LIN":" ","STREET":" ","SECT":" ","MAREA":"竹子門","LANE":" ","ALLEY":" ","HOUSE_NO":"４５號","E_COORD97":193488.73999999999,"N_COORD97":2586138.0299999998,"ADDRESS":"竹子門４５號","OBJECTID":147808},"geometry":{"x":193488.74000000022,"y":2586138.0299999993}},{"attributes":{"ID":147810,"DIS_CODE":0,"TOWNNAME":"安南區","LI":"原佃里","LIN":"3鄰","STREET":"本原街","SECT":"一段","MAREA":" ","LANE":"９７巷","ALLEY":"１２弄","HOUSE_NO":"２４號","E_COORD97":167922.41,"N_COORD97":2550117.8100000001,"ADDRESS":"本原街一段９７巷１２弄２４號","OBJECTID":147809},"geometry":{"x":167922.40999999922,"y":2550117.8100000005}},{"attributes":{"ID":147811,"DIS_CODE":0,"TOWNNAME":"東區","LI":"崇文里","LIN":"30鄰","STREET":"崇德二十五街","SECT":" ","MAREA":" ","LANE":" ","ALLEY":" ","HOUSE_NO":"３９號","E_COORD97":170919.32999999999,"N_COORD97":2540673.4700000002,"ADDRESS":"崇德二十五街３９號","OBJECTID":147810},"geometry":{"x":170919.33000000007,"y":2540673.4700000025}},{"attributes":{"ID":147812,"DIS_CODE":0,"TOWNNAME":"白河區","LI":"竹門里","LIN":" ","STREET":" ","SECT":" ","MAREA":"竹子門","LANE":" ","ALLEY":" ","HOUSE_NO":"７０號","E_COORD97":193665.47,"N_COORD97":2586386.0899999999,"ADDRESS":"竹子門７０號","OBJECTID":147811},"geometry":{"x":193665.47000000067,"y":2586386.089999998}},{"attributes":{"ID":147813,"DIS_CODE":0,"TOWNNAME":"安南區","LI":"原佃里","LIN":"3鄰","STREET":"本原街","SECT":"一段","MAREA":" ","LANE":"９７巷","ALLEY":"１２弄","HOUSE_NO":"２６號","E_COORD97":167916.87,"N_COORD97":2550117.1400000001,"ADDRESS":"本原街一段９７巷１２弄２６號","OBJECTID":147812},"geometry":{"x":167916.87000000011,"y":2550117.1400000025}},{"attributes":{"ID":147814,"DIS_CODE":0,"TOWNNAME":"東區","LI":"崇文里","LIN":"30鄰","STREET":"崇德二十五街","SECT":" ","MAREA":" ","LANE":" ","ALLEY":" ","HOUSE_NO":"４１號","E_COORD97":170923.91,"N_COORD97":2540673.3700000001,"ADDRESS":"崇德二十五街４１號","OBJECTID":147813},"geometry":{"x":170923.91000000015,"y":2540673.3700000048}},{"attributes":{"ID":147815,"DIS_CODE":0,"TOWNNAME":"白河區","LI":"竹門里","LIN":" ","STREET":" ","SECT":" ","MAREA":"竹子門","LANE":" ","ALLEY":" ","HOUSE_NO":"７２號","E_COORD97":193580.23000000001,"N_COORD97":2586451.9500000002,"ADDRESS":"竹子門７２號","OBJECTID":147814},"geometry":{"x":193580.23000000045,"y":2586451.9500000011}},{"attributes":{"ID":147816,"DIS_CODE":0,"TOWNNAME":"東區","LI":"崇文里","LIN":"30鄰","STREET":"崇德二十五街","SECT":" ","MAREA":" ","LANE":" ","ALLEY":" ","HOUSE_NO":"４３號","E_COORD97":170928.03,"N_COORD97":2540673.3700000001,"ADDRESS":"崇德二十五街４３號","OBJECTID":147815},"geometry":{"x":170928.03000000119,"y":2540673.3700000048}},{"attributes":{"ID":147817,"DIS_CODE":0,"TOWNNAME":"東區","LI":"崇文里","LIN":"30鄰","STREET":"崇德二十五街","SECT":" ","MAREA":" ","LANE":" ","ALLEY":" ","HOUSE_NO":"４５號","E_COORD97":170932.41,"N_COORD97":2540673.3700000001,"ADDRESS":"崇德二十五街４５號","OBJECTID":147816},"geometry":{"x":170932.41000000015,"y":2540673.3700000048}},{"attributes":{"ID":147818,"DIS_CODE":0,"TOWNNAME":"安南區","LI":"原佃里","LIN":"3鄰","STREET":"本原街","SECT":"一段","MAREA":" ","LANE":"９７巷","ALLEY":"１２弄","HOUSE_NO":"３０號","E_COORD97":167905.81,"N_COORD97":2550114.8500000001,"ADDRESS":"本原街一段９７巷１２弄３０號","OBJECTID":147817},"geometry":{"x":167905.81000000052,"y":2550114.8500000015}},{"attributes":{"ID":147819,"DIS_CODE":0,"TOWNNAME":"安南區","LI":"原佃里","LIN":"3鄰","STREET":"本原街","SECT":"一段","MAREA":" ","LANE":"９７巷","ALLEY":"２８弄","HOUSE_NO":"１３號","E_COORD97":167959.16,"N_COORD97":2550055.3999999999,"ADDRESS":"本原街一段９７巷２８弄１３號","OBJECTID":147818},"geometry":{"x":167959.16000000015,"y":2550055.4000000004}},{"attributes":{"ID":147820,"DIS_CODE":0,"TOWNNAME":"安南區","LI":"原佃里","LIN":"3鄰","STREET":"本原街","SECT":"一段","MAREA":" ","LANE":"９７巷","ALLEY":"２８弄","HOUSE_NO":"２號","E_COORD97":167956.76000000001,"N_COORD97":2550078.46,"ADDRESS":"本原街一段９７巷２８弄２號","OBJECTID":147819},"geometry":{"x":167956.75999999978,"y":2550078.4600000028}},{"attributes":{"ID":147821,"DIS_CODE":0,"TOWNNAME":"中西區","LI":"光賢里","LIN":"3鄰","STREET":"武聖路","SECT":" ","MAREA":" ","LANE":"２７巷","ALLEY":"１２弄","HOUSE_NO":"１３號","E_COORD97":166627.14999999999,"N_COORD97":2545221.04,"ADDRESS":"武聖路２７巷１２弄１３號","OBJECTID":147820},"geometry":{"x":166627.15000000037,"y":2545221.040000001}},{"attributes":{"ID":147822,"DIS_CODE":0,"TOWNNAME":"安南區","LI":"溪心里","LIN":"3鄰","STREET":"安中路","SECT":"二段","MAREA":" ","LANE":"３３６巷","ALLEY":"１５弄","HOUSE_NO":"１８號","E_COORD97":166370.17999999999,"N_COORD97":2549810.52,"ADDRESS":"安中路二段３３６巷１５弄１８號","OBJECTID":147821},"geometry":{"x":166370.1799999997,"y":2549810.5199999996}},{"attributes":{"ID":147823,"DIS_CODE":0,"TOWNNAME":"安南區","LI":"溪心里","LIN":"3鄰","STREET":"海佃路","SECT":"三段","MAREA":" ","LANE":"４８巷","ALLEY":"４２弄","HOUSE_NO":"１０號","E_COORD97":166390.01999999999,"N_COORD97":2549893.6899999999,"ADDRESS":"海佃路三段４８巷４２弄１０號","OBJECTID":147822},"geometry":{"x":166390.01999999955,"y":2549893.6899999995}},{"attributes":{"ID":147824,"DIS_CODE":0,"TOWNNAME":"白河區","LI":"竹門里","LIN":" ","STREET":" ","SECT":" ","MAREA":"竹子門","LANE":" ","ALLEY":" ","HOUSE_NO":"９４之１號","E_COORD97":193454.20000000001,"N_COORD97":2586160.23,"ADDRESS":"竹子門９４之１號","OBJECTID":147823},"geometry":{"x":193454.20000000112,"y":2586160.2300000023}},{"attributes":{"ID":147825,"DIS_CODE":0,"TOWNNAME":"白河區","LI":"竹門里","LIN":" ","STREET":" ","SECT":" ","MAREA":"竹子門","LANE":" ","ALLEY":" ","HOUSE_NO":"９６號","E_COORD97":193243.01999999999,"N_COORD97":2586017.7000000002,"ADDRESS":"竹子門９６號","OBJECTID":147824},"geometry":{"x":193243.01999999955,"y":2586017.6999999993}},{"attributes":{"ID":147826,"DIS_CODE":0,"TOWNNAME":"白河區","LI":"竹門里","LIN":" ","STREET":" ","SECT":" ","MAREA":"竹子門","LANE":" ","ALLEY":" ","HOUSE_NO":"９８之３號","E_COORD97":193420.59,"N_COORD97":2586135.9399999999,"ADDRESS":"竹子門９８之３號","OBJECTID":147825},"geometry":{"x":193420.59000000078,"y":2586135.9400000032}},{"attributes":{"ID":147827,"DIS_CODE":0,"TOWNNAME":"安南區","LI":"溪心里","LIN":"3鄰","STREET":"海佃路","SECT":"三段","MAREA":" ","LANE":"４８巷","ALLEY":"４２弄","HOUSE_NO":"１１號","E_COORD97":166402.19,"N_COORD97":2549916.8599999999,"ADDRESS":"海佃路三段４８巷４２弄１１號","OBJECTID":147826},"geometry":{"x":166402.19000000134,"y":2549916.8599999975}},{"attributes":{"ID":147828,"DIS_CODE":0,"TOWNNAME":"永康區","LI":"\u25A0洲里","LIN":"30鄰","STREET":"洲尾街","SECT":" ","MAREA":" ","LANE":" ","ALLEY":" ","HOUSE_NO":"２８５號","E_COORD97":171044.97,"N_COORD97":2549142.2000000002,"ADDRESS":"洲尾街２８５號","OBJECTID":147827},"geometry":{"x":171044.97000000067,"y":2549142.2000000011}},{"attributes":{"ID":147829,"DIS_CODE":0,"TOWNNAME":"安南區","LI":"溪心里","LIN":"3鄰","STREET":"海佃路","SECT":"三段","MAREA":" ","LANE":"４８巷","ALLEY":"４２弄","HOUSE_NO":"１２號","E_COORD97":166394.67999999999,"N_COORD97":2549893.0899999999,"ADDRESS":"海佃路三段４８巷４２弄１２號","OBJECTID":147828},"geometry":{"x":166394.68000000063,"y":2549893.0900000017}},{"attributes":{"ID":147830,"DIS_CODE":0,"TOWNNAME":"安南區","LI":"溪心里","LIN":"3鄰","STREET":"海佃路","SECT":"三段","MAREA":" ","LANE":"４８巷","ALLEY":"４２弄","HOUSE_NO":"１３號","E_COORD97":166406.54999999999,"N_COORD97":2549915.21,"ADDRESS":"海佃路三段４８巷４２弄１３號","OBJECTID":147829},"geometry":{"x":166406.54999999981,"y":2549915.2100000009}},{"attributes":{"ID":147831,"DIS_CODE":0,"TOWNNAME":"白河區","LI":"竹門里","LIN":" ","STREET":" ","SECT":" ","MAREA":"竹圍子","LANE":" ","ALLEY":" ","HOUSE_NO":"１０之１號","E_COORD97":192594.01000000001,"N_COORD97":2586193.6200000001,"ADDRESS":"竹圍子１０之１號","OBJECTID":147830},"geometry":{"x":192594.01000000071,"y":2586193.620000001}},{"attributes":{"ID":147832,"DIS_CODE":0,"TOWNNAME":"白河區","LI":"竹門里","LIN":" ","STREET":" ","SECT":" ","MAREA":"竹圍子","LANE":" ","ALLEY":" ","HOUSE_NO":"１之２號","E_COORD97":192654.70000000001,"N_COORD97":2586128.2400000002,"ADDRESS":"竹圍子１之２號","OBJECTID":147831},"geometry":{"x":192654.70000000019,"y":2586128.2400000039}},{"attributes":{"ID":147833,"DIS_CODE":0,"TOWNNAME":"白河區","LI":"仙草里","LIN":" ","STREET":" ","SECT":" ","MAREA":"岩前","LANE":" ","ALLEY":" ","HOUSE_NO":"１０之１號","E_COORD97":195917.73000000001,"N_COORD97":2582166.6200000001,"ADDRESS":"岩前１０之１號","OBJECTID":147832},"geometry":{"x":195917.73000000045,"y":2582166.6200000029}},{"attributes":{"ID":147834,"DIS_CODE":0,"TOWNNAME":"白河區","LI":"仙草里","LIN":" ","STREET":" ","SECT":" ","MAREA":"岩前","LANE":" ","ALLEY":" ","HOUSE_NO":"１４之１號","E_COORD97":195883.70999999999,"N_COORD97":2582187.3100000001,"ADDRESS":"岩前１４之１號","OBJECTID":147833},"geometry":{"x":195883.70999999996,"y":2582187.3100000005}},{"attributes":{"ID":147835,"DIS_CODE":0,"TOWNNAME":"安南區","LI":"溪心里","LIN":"3鄰","STREET":"海佃路","SECT":"三段","MAREA":" ","LANE":"４８巷","ALLEY":"４２弄","HOUSE_NO":"１２之１號","E_COORD97":166399.79000000001,"N_COORD97":2549892.1899999999,"ADDRESS":"海佃路三段４８巷４２弄１２之１號","OBJECTID":147834},"geometry":{"x":166399.79000000097,"y":2549892.1900000013}},{"attributes":{"ID":147836,"DIS_CODE":0,"TOWNNAME":"白河區","LI":"仙草里","LIN":" ","STREET":" ","SECT":" ","MAREA":"岩前","LANE":" ","ALLEY":" ","HOUSE_NO":"１７之１號","E_COORD97":195845.42999999999,"N_COORD97":2582117.8599999999,"ADDRESS":"岩前１７之１號","OBJECTID":147835},"geometry":{"x":195845.43000000063,"y":2582117.8599999994}},{"attributes":{"ID":147837,"DIS_CODE":0,"TOWNNAME":"白河區","LI":"仙草里","LIN":" ","STREET":" ","SECT":" ","MAREA":"岩前","LANE":" ","ALLEY":" ","HOUSE_NO":"１之３６號","E_COORD97":196102.01999999999,"N_COORD97":2582126.02,"ADDRESS":"岩前１之３６號","OBJECTID":147836},"geometry":{"x":196102.02000000142,"y":2582126.0200000014}},{"attributes":{"ID":147838,"DIS_CODE":0,"TOWNNAME":"安南區","LI":"溪心里","LIN":"3鄰","STREET":"海佃路","SECT":"三段","MAREA":" ","LANE":"４８巷","ALLEY":"４２弄","HOUSE_NO":"１５號","E_COORD97":166411.66,"N_COORD97":2549914.3100000001,"ADDRESS":"海佃路三段４８巷４２弄１５號","OBJECTID":147837},"geometry":{"x":166411.66000000015,"y":2549914.3100000005}},{"attributes":{"ID":147839,"DIS_CODE":0,"TOWNNAME":"白河區","LI":"仙草里","LIN":" ","STREET":" ","SECT":" ","MAREA":"岩前","LANE":" ","ALLEY":" ","HOUSE_NO":"１之７號","E_COORD97":196188.04000000001,"N_COORD97":2582112.3500000001,"ADDRESS":"岩前１之７號","OBJECTID":147838},"geometry":{"x":196188.04000000004,"y":2582112.3500000034}},{"attributes":{"ID":147840,"DIS_CODE":0,"TOWNNAME":"白河區","LI":"仙草里","LIN":" ","STREET":" ","SECT":" ","MAREA":"岩前","LANE":" ","ALLEY":" ","HOUSE_NO":"３２之１號","E_COORD97":195799.79999999999,"N_COORD97":2582218.71,"ADDRESS":"岩前３２之１號","OBJECTID":147839},"geometry":{"x":195799.79999999981,"y":2582218.7100000009}},{"attributes":{"ID":147841,"DIS_CODE":0,"TOWNNAME":"安南區","LI":"溪心里","LIN":"3鄰","STREET":"海佃路","SECT":"三段","MAREA":" ","LANE":"４８巷","ALLEY":"４２弄","HOUSE_NO":"１６號","E_COORD97":166404,"N_COORD97":2549890.54,"ADDRESS":"海佃路三段４８巷４２弄１６號","OBJECTID":147840},"geometry":{"x":166404,"y":2549890.5399999991}},{"attributes":{"ID":147842,"DIS_CODE":0,"TOWNNAME":"安南區","LI":"溪心里","LIN":"3鄰","STREET":"海佃路","SECT":"三段","MAREA":" ","LANE":"４８巷","ALLEY":"４２弄","HOUSE_NO":"１７號","E_COORD97":166416.17000000001,"N_COORD97":2549913.2599999998,"ADDRESS":"海佃路三段４８巷４２弄１７號","OBJECTID":147841},"geometry":{"x":166416.16999999993,"y":2549913.2599999998}},{"attributes":{"ID":147843,"DIS_CODE":0,"TOWNNAME":"安南區","LI":"溪心里","LIN":"3鄰","STREET":"海佃路","SECT":"三段","MAREA":" ","LANE":"４８巷","ALLEY":"４２弄","HOUSE_NO":"１８號","E_COORD97":166408.35999999999,"N_COORD97":2549888.8900000001,"ADDRESS":"海佃路三段４８巷４２弄１８號","OBJECTID":147842},"geometry":{"x":166408.36000000127,"y":2549888.8900000025}},{"attributes":{"ID":147844,"DIS_CODE":0,"TOWNNAME":"白河區","LI":"廣安里","LIN":" ","STREET":" ","SECT":" ","MAREA":"枋子林","LANE":" ","ALLEY":" ","HOUSE_NO":"１０之１２號","E_COORD97":189361.10000000001,"N_COORD97":2587217.2599999998,"ADDRESS":"枋子林１０之１２號","OBJECTID":147843},"geometry":{"x":189361.09999999963,"y":2587217.2600000016}},{"attributes":{"ID":147845,"DIS_CODE":0,"TOWNNAME":"白河區","LI":"廣安里","LIN":" ","STREET":" ","SECT":" ","MAREA":"枋子林","LANE":" ","ALLEY":" ","HOUSE_NO":"１０之５號","E_COORD97":189362.32000000001,"N_COORD97":2587242.9100000001,"ADDRESS":"枋子林１０之５號","OBJECTID":147844},"geometry":{"x":189362.32000000216,"y":2587242.910000002}},{"attributes":{"ID":147846,"DIS_CODE":0,"TOWNNAME":"白河區","LI":"廣安里","LIN":" ","STREET":" ","SECT":" ","MAREA":"枋子林","LANE":" ","ALLEY":" ","HOUSE_NO":"１１之３號","E_COORD97":189064.10000000001,"N_COORD97":2587400.3799999999,"ADDRESS":"枋子林１１之３號","OBJECTID":147845},"geometry":{"x":189064.09999999963,"y":2587400.3800000027}},{"attributes":{"ID":147847,"DIS_CODE":0,"TOWNNAME":"白河區","LI":"廣安里","LIN":" ","STREET":" ","SECT":" ","MAREA":"枋子林","LANE":" ","ALLEY":" ","HOUSE_NO":"２９號","E_COORD97":189080.5,"N_COORD97":2587747.21,"ADDRESS":"枋子林２９號","OBJECTID":147846},"geometry":{"x":189080.5,"y":2587747.2100000028}},{"attributes":{"ID":147848,"DIS_CODE":0,"TOWNNAME":"白河區","LI":"廣安里","LIN":" ","STREET":" ","SECT":" ","MAREA":"枋子林","LANE":" ","ALLEY":" ","HOUSE_NO":"２之１號","E_COORD97":189043.67000000001,"N_COORD97":2587309.2999999998,"ADDRESS":"枋子林２之１號","OBJECTID":147847},"geometry":{"x":189043.66999999993,"y":2587309.3000000026}},{"attributes":{"ID":147849,"DIS_CODE":0,"TOWNNAME":"白河區","LI":"廣安里","LIN":" ","STREET":" ","SECT":" ","MAREA":"枋子林","LANE":" ","ALLEY":" ","HOUSE_NO":"４３號","E_COORD97":189034.48999999999,"N_COORD97":2587528.8300000001,"ADDRESS":"枋子林４３號","OBJECTID":147848},"geometry":{"x":189034.49000000115,"y":2587528.8300000019}},{"attributes":{"ID":147850,"DIS_CODE":0,"TOWNNAME":"白河區","LI":"廣安里","LIN":" ","STREET":" ","SECT":" ","MAREA":"枋子林","LANE":" ","ALLEY":" ","HOUSE_NO":"４４之１０號","E_COORD97":189078.51999999999,"N_COORD97":2587488.8700000001,"ADDRESS":"枋子林４４之１０號","OBJECTID":147849},"geometry":{"x":189078.51999999955,"y":2587488.8700000029}},{"attributes":{"ID":147851,"DIS_CODE":0,"TOWNNAME":"白河區","LI":"廣安里","LIN":" ","STREET":" ","SECT":" ","MAREA":"枋子林","LANE":" ","ALLEY":" ","HOUSE_NO":"４５號","E_COORD97":189037.44,"N_COORD97":2587494.7400000002,"ADDRESS":"枋子林４５號","OBJECTID":147850},"geometry":{"x":189037.44000000041,"y":2587494.7400000021}},{"attributes":{"ID":147852,"DIS_CODE":0,"TOWNNAME":"白河區","LI":"廣安里","LIN":" ","STREET":" ","SECT":" ","MAREA":"枋子林","LANE":" ","ALLEY":" ","HOUSE_NO":"４７號","E_COORD97":189016.60999999999,"N_COORD97":2587475.6400000001,"ADDRESS":"枋子林４７號","OBJECTID":147851},"geometry":{"x":189016.61000000127,"y":2587475.6400000025}},{"attributes":{"ID":147853,"DIS_CODE":0,"TOWNNAME":"白河區","LI":"廣安里","LIN":" ","STREET":" ","SECT":" ","MAREA":"枋子林","LANE":" ","ALLEY":" ","HOUSE_NO":"５２之３號","E_COORD97":189040.57999999999,"N_COORD97":2587401.6000000001,"ADDRESS":"枋子林５２之３號","OBJECTID":147852},"geometry":{"x":189040.58000000101,"y":2587401.5999999996}},{"attributes":{"ID":147854,"DIS_CODE":0,"TOWNNAME":"白河區","LI":"廣安里","LIN":" ","STREET":" ","SECT":" ","MAREA":"枋子林","LANE":" ","ALLEY":" ","HOUSE_NO":"５２之４號","E_COORD97":189042.54000000001,"N_COORD97":2587404.9500000002,"ADDRESS":"枋子林５２之４號","OBJECTID":147853},"geometry":{"x":189042.54000000097,"y":2587404.9500000011}},{"attributes":{"ID":147855,"DIS_CODE":0,"TOWNNAME":"白河區","LI":"廣安里","LIN":" ","STREET":" ","SECT":" ","MAREA":"枋子林","LANE":" ","ALLEY":" ","HOUSE_NO":"５２之５號","E_COORD97":189044.5,"N_COORD97":2587408.29,"ADDRESS":"枋子林５２之５號","OBJECTID":147854},"geometry":{"x":189044.50000000093,"y":2587408.290000001}},{"attributes":{"ID":147856,"DIS_CODE":0,"TOWNNAME":"白河區","LI":"廣安里","LIN":" ","STREET":" ","SECT":" ","MAREA":"枋子林","LANE":" ","ALLEY":" ","HOUSE_NO":"６８之６號","E_COORD97":188833.04000000001,"N_COORD97":2587364.8399999999,"ADDRESS":"枋子林６８之６號","OBJECTID":147855},"geometry":{"x":188833.04000000004,"y":2587364.8400000017}},{"attributes":{"ID":147857,"DIS_CODE":0,"TOWNNAME":"白河區","LI":"汴頭里","LIN":" ","STREET":" ","SECT":" ","MAREA":"林子內","LANE":" ","ALLEY":" ","HOUSE_NO":"１１之１號","E_COORD97":194640.19,"N_COORD97":2584625.3399999999,"ADDRESS":"林子內１１之１號","OBJECTID":147856},"geometry":{"x":194640.19000000041,"y":2584625.3400000017}},{"attributes":{"ID":147858,"DIS_CODE":0,"TOWNNAME":"白河區","LI":"汴頭里","LIN":" ","STREET":" ","SECT":" ","MAREA":"林子內","LANE":" ","ALLEY":" ","HOUSE_NO":"１２之１號","E_COORD97":194679.26000000001,"N_COORD97":2584691.0600000001,"ADDRESS":"林子內１２之１號","OBJECTID":147857},"geometry":{"x":194679.25999999978,"y":2584691.0600000005}},{"attributes":{"ID":147859,"DIS_CODE":0,"TOWNNAME":"白河區","LI":"汴頭里","LIN":" ","STREET":" ","SECT":" ","MAREA":"林子內","LANE":" ","ALLEY":" ","HOUSE_NO":"２１之１６號","E_COORD97":194602.35999999999,"N_COORD97":2584814.0499999998,"ADDRESS":"林子內２１之１６號","OBJECTID":147858},"geometry":{"x":194602.36000000127,"y":2584814.0500000007}},{"attributes":{"ID":147860,"DIS_CODE":0,"TOWNNAME":"新營區","LI":"忠政里","LIN":"30鄰","STREET":"府西路","SECT":" ","MAREA":" ","LANE":" ","ALLEY":" ","HOUSE_NO":"６７號之６","E_COORD97":179785.79000000001,"N_COORD97":2579119.7599999998,"ADDRESS":"府西路６７號之６","OBJECTID":147859},"geometry":{"x":179785.79000000004,"y":2579119.7600000016}},{"attributes":{"ID":147861,"DIS_CODE":0,"TOWNNAME":"官田區","LI":"嘉南里","LIN":"1鄰","STREET":" ","SECT":" ","MAREA":"嘉南","LANE":" ","ALLEY":" ","HOUSE_NO":"１號之４０","E_COORD97":184214.55384400001,"N_COORD97":2568012.3718500002,"ADDRESS":"嘉南１號之４０","OBJECTID":147860},"geometry":{"x":184214.55384400208,"y":2568012.3718519993}},{"attributes":{"ID":147862,"DIS_CODE":0,"TOWNNAME":"安南區","LI":"溪心里","LIN":"3鄰","STREET":"海佃路","SECT":"三段","MAREA":" ","LANE":"４８巷","ALLEY":"４２弄","HOUSE_NO":"２號","E_COORD97":166371.98999999999,"N_COORD97":2549900.4500000002,"ADDRESS":"海佃路三段４８巷４２弄２號","OBJECTID":147861},"geometry":{"x":166371.99000000022,"y":2549900.4500000011}},{"attributes":{"ID":147863,"DIS_CODE":0,"TOWNNAME":"安南區","LI":"溪心里","LIN":"3鄰","STREET":"海佃路","SECT":"三段","MAREA":" ","LANE":"４８巷","ALLEY":"４２弄","HOUSE_NO":"３號","E_COORD97":166383.41,"N_COORD97":2549921.8199999998,"ADDRESS":"海佃路三段４８巷４２弄３號","OBJECTID":147862},"geometry":{"x":166383.41000000108,"y":2549921.820000004}},{"attributes":{"ID":147864,"DIS_CODE":0,"TOWNNAME":"安南區","LI":"溪心里","LIN":"3鄰","STREET":"海佃路","SECT":"三段","MAREA":" ","LANE":"４８巷","ALLEY":"４２弄","HOUSE_NO":"５號","E_COORD97":166388.07000000001,"N_COORD97":2549920.9199999999,"ADDRESS":"海佃路三段４８巷４２弄５號","OBJECTID":147863},"geometry":{"x":166388.07000000123,"y":2549920.9200000018}},{"attributes":{"ID":147865,"DIS_CODE":0,"TOWNNAME":"安南區","LI":"溪心里","LIN":"3鄰","STREET":"海佃路","SECT":"三段","MAREA":" ","LANE":"４８巷","ALLEY":"４２弄","HOUSE_NO":"６號","E_COORD97":166381.29999999999,"N_COORD97":2549896.7000000002,"ADDRESS":"海佃路三段４８巷４２弄６號","OBJECTID":147864},"geometry":{"x":166381.29999999981,"y":2549896.6999999993}},{"attributes":{"ID":147866,"DIS_CODE":0,"TOWNNAME":"安南區","LI":"溪心里","LIN":"3鄰","STREET":"海佃路","SECT":"三段","MAREA":" ","LANE":"４８巷","ALLEY":"４２弄","HOUSE_NO":"８號","E_COORD97":166386.10999999999,"N_COORD97":2549895.1899999999,"ADDRESS":"海佃路三段４８巷４２弄８號","OBJECTID":147865},"geometry":{"x":166386.11000000127,"y":2549895.1900000013}},{"attributes":{"ID":147867,"DIS_CODE":0,"TOWNNAME":"安南區","LI":"溪心里","LIN":"3鄰","STREET":"海佃路","SECT":"三段","MAREA":" ","LANE":"４８巷","ALLEY":"４２弄","HOUSE_NO":"９號","E_COORD97":166397.07999999999,"N_COORD97":2549919.1200000001,"ADDRESS":"海佃路三段４８巷４２弄９號","OBJECTID":147866},"geometry":{"x":166397.08000000007,"y":2549919.120000001}},{"attributes":{"ID":147868,"DIS_CODE":0,"TOWNNAME":"安南區","LI":"溪心里","LIN":"3鄰","STREET":"海佃路","SECT":"三段","MAREA":" ","LANE":"４８巷","ALLEY":"５８弄","HOUSE_NO":"１０號","E_COORD97":166410.59,"N_COORD97":2549929.27,"ADDRESS":"海佃路三段４８巷５８弄１０號","OBJECTID":147867},"geometry":{"x":166410.59000000171,"y":2549929.2700000014}},{"attributes":{"ID":147869,"DIS_CODE":0,"TOWNNAME":"安南區","LI":"溪心里","LIN":"3鄰","STREET":"海佃路","SECT":"三段","MAREA":" ","LANE":"４８巷","ALLEY":"５８弄","HOUSE_NO":"１２號","E_COORD97":166414.79999999999,"N_COORD97":2549927.77,"ADDRESS":"海佃路三段４８巷５８弄１２號","OBJECTID":147868},"geometry":{"x":166414.80000000075,"y":2549927.7699999977}},{"attributes":{"ID":147870,"DIS_CODE":0,"TOWNNAME":"安南區","LI":"溪心里","LIN":"3鄰","STREET":"海佃路","SECT":"三段","MAREA":" ","LANE":"４８巷","ALLEY":"５８弄","HOUSE_NO":"１４號","E_COORD97":166419.91,"N_COORD97":2549926.5699999998,"ADDRESS":"海佃路三段４８巷５８弄１４號","OBJECTID":147869},"geometry":{"x":166419.91000000015,"y":2549926.5699999984}},{"attributes":{"ID":147871,"DIS_CODE":0,"TOWNNAME":"安南區","LI":"溪心里","LIN":"3鄰","STREET":"海佃路","SECT":"三段","MAREA":" ","LANE":"４８巷","ALLEY":"５８弄","HOUSE_NO":"２號","E_COORD97":166392.26000000001,"N_COORD97":2549935.4300000002,"ADDRESS":"海佃路三段４８巷５８弄２號","OBJECTID":147870},"geometry":{"x":166392.25999999885,"y":2549935.4300000016}},{"attributes":{"ID":147872,"DIS_CODE":0,"TOWNNAME":"安南區","LI":"溪心里","LIN":"3鄰","STREET":"海佃路","SECT":"三段","MAREA":" ","LANE":"４８巷","ALLEY":"５８弄","HOUSE_NO":"４號","E_COORD97":166396.91,"N_COORD97":2549933.7799999998,"ADDRESS":"海佃路三段４８巷５８弄４號","OBJECTID":147871},"geometry":{"x":166396.91000000201,"y":2549933.7799999993}},{"attributes":{"ID":147873,"DIS_CODE":0,"TOWNNAME":"安南區","LI":"溪心里","LIN":"3鄰","STREET":"海佃路","SECT":"三段","MAREA":" ","LANE":"４８巷","ALLEY":"５８弄","HOUSE_NO":"６號","E_COORD97":166401.42000000001,"N_COORD97":2549932.8799999999,"ADDRESS":"海佃路三段４８巷５８弄６號","OBJECTID":147872},"geometry":{"x":166401.41999999993,"y":2549932.879999999}},{"attributes":{"ID":147874,"DIS_CODE":0,"TOWNNAME":"安南區","LI":"佃西里","LIN":"3鄰","STREET":"公學路","SECT":"四段","MAREA":" ","LANE":"２３４巷","ALLEY":"３６弄","HOUSE_NO":"６號","E_COORD97":165325.5,"N_COORD97":2551867.1899999999,"ADDRESS":"公學路四段２３４巷３６弄６號","OBJECTID":147873},"geometry":{"x":165325.50000000093,"y":2551867.1899999995}},{"attributes":{"ID":147875,"DIS_CODE":0,"TOWNNAME":"安南區","LI":"溪心里","LIN":"3鄰","STREET":"安中路","SECT":"二段","MAREA":" ","LANE":"３３６巷","ALLEY":"１５弄","HOUSE_NO":"１６號","E_COORD97":166375.14000000001,"N_COORD97":2549809.02,"ADDRESS":"安中路二段３３６巷１５弄１６號","OBJECTID":147874},"geometry":{"x":166375.1400000006,"y":2549809.0200000014}},{"attributes":{"ID":147876,"DIS_CODE":0,"TOWNNAME":"安南區","LI":"溪心里","LIN":"3鄰","STREET":"海佃路","SECT":"三段","MAREA":" ","LANE":"４８巷","ALLEY":"５８弄","HOUSE_NO":"８號","E_COORD97":166406.07999999999,"N_COORD97":2549930.6200000001,"ADDRESS":"海佃路三段４８巷５８弄８號","OBJECTID":147875},"geometry":{"x":166406.08000000101,"y":2549930.6200000048}},{"attributes":{"ID":147877,"DIS_CODE":0,"TOWNNAME":"安南區","LI":"原佃里","LIN":"3鄰","STREET":"本原街","SECT":"一段","MAREA":" ","LANE":"９７巷","ALLEY":"２８弄","HOUSE_NO":"１５號","E_COORD97":167954.84,"N_COORD97":2550054.1899999999,"ADDRESS":"本原街一段９７巷２８弄１５號","OBJECTID":147876},"geometry":{"x":167954.84000000171,"y":2550054.1900000013}},{"attributes":{"ID":147878,"DIS_CODE":0,"TOWNNAME":"麻豆區","LI":"海埔里","LIN":"8鄰","STREET":" ","SECT":" ","MAREA":"海埔","LANE":" ","ALLEY":" ","HOUSE_NO":"３５號","E_COORD97":169577.69,"N_COORD97":2566897.2000000002,"ADDRESS":"海埔３５號","OBJECTID":147877},"geometry":{"x":169577.69000000134,"y":2566897.200000003}},{"attributes":{"ID":147879,"DIS_CODE":0,"TOWNNAME":"安南區","LI":"新順里","LIN":"3鄰","STREET":"安和路","SECT":"二段","MAREA":" ","LANE":"３１８巷","ALLEY":"３８弄","HOUSE_NO":"２號","E_COORD97":169823.67000000001,"N_COORD97":2549262.5299999998,"ADDRESS":"安和路二段３１８巷３８弄２號","OBJECTID":147878},"geometry":{"x":169823.66999999993,"y":2549262.5300000012}},{"attributes":{"ID":147880,"DIS_CODE":0,"TOWNNAME":"安南區","LI":"新順里","LIN":"3鄰","STREET":"安和路","SECT":"二段","MAREA":" ","LANE":"３１８巷","ALLEY":"３８弄","HOUSE_NO":"４號","E_COORD97":169823.67000000001,"N_COORD97":2549258.4399999999,"ADDRESS":"安和路二段３１８巷３８弄４號","OBJECTID":147879},"geometry":{"x":169823.66999999993,"y":2549258.4399999995}},{"attributes":{"ID":147881,"DIS_CODE":0,"TOWNNAME":"安南區","LI":"州南里","LIN":"3鄰","STREET":"安和路","SECT":"四段","MAREA":" ","LANE":"５３３巷","ALLEY":"１６０弄","HOUSE_NO":"１號","E_COORD97":169574.45000000001,"N_COORD97":2551245.2599999998,"ADDRESS":"安和路四段５３３巷１６０弄１號","OBJECTID":147880},"geometry":{"x":169574.45000000019,"y":2551245.2600000016}},{"attributes":{"ID":147882,"DIS_CODE":0,"TOWNNAME":"安南區","LI":"州南里","LIN":"3鄰","STREET":"安和路","SECT":"四段","MAREA":" ","LANE":"５３３巷","ALLEY":"１６０弄","HOUSE_NO":"３號","E_COORD97":169569.85999999999,"N_COORD97":2551249.0299999998,"ADDRESS":"安和路四段５３３巷１６０弄３號","OBJECTID":147881},"geometry":{"x":169569.86000000127,"y":2551249.0300000012}},{"attributes":{"ID":147883,"DIS_CODE":0,"TOWNNAME":"白河區","LI":"汴頭里","LIN":" ","STREET":" ","SECT":" ","MAREA":"林子內","LANE":" ","ALLEY":" ","HOUSE_NO":"２８之１號","E_COORD97":195057.82000000001,"N_COORD97":2584986.1899999999,"ADDRESS":"林子內２８之１號","OBJECTID":147882},"geometry":{"x":195057.8200000003,"y":2584986.1900000013}},{"attributes":{"ID":147884,"DIS_CODE":0,"TOWNNAME":"白河區","LI":"汴頭里","LIN":" ","STREET":" ","SECT":" ","MAREA":"林子內","LANE":" ","ALLEY":" ","HOUSE_NO":"４０之３號","E_COORD97":194877.47,"N_COORD97":2585128.3399999999,"ADDRESS":"林子內４０之３號","OBJECTID":147883},"geometry":{"x":194877.47000000067,"y":2585128.3400000017}},{"attributes":{"ID":147885,"DIS_CODE":0,"TOWNNAME":"白河區","LI":"汴頭里","LIN":" ","STREET":" ","SECT":" ","MAREA":"林子內","LANE":" ","ALLEY":" ","HOUSE_NO":"４０號","E_COORD97":194915.54999999999,"N_COORD97":2585127.5099999998,"ADDRESS":"林子內４０號","OBJECTID":147884},"geometry":{"x":194915.55000000075,"y":2585127.5099999998}},{"attributes":{"ID":147886,"DIS_CODE":0,"TOWNNAME":"白河區","LI":"汴頭里","LIN":" ","STREET":" ","SECT":" ","MAREA":"林子內","LANE":" ","ALLEY":" ","HOUSE_NO":"５１之１號","E_COORD97":194915.89999999999,"N_COORD97":2585057.5600000001,"ADDRESS":"林子內５１之１號","OBJECTID":147885},"geometry":{"x":194915.9000000013,"y":2585057.5600000005}},{"attributes":{"ID":147887,"DIS_CODE":0,"TOWNNAME":"白河區","LI":"汴頭里","LIN":" ","STREET":" ","SECT":" ","MAREA":"林子內","LANE":" ","ALLEY":" ","HOUSE_NO":"６之１號","E_COORD97":195155.76000000001,"N_COORD97":2584450.4700000002,"ADDRESS":"林子內６之１號","OBJECTID":147886},"geometry":{"x":195155.75999999978,"y":2584450.4700000007}},{"attributes":{"ID":147888,"DIS_CODE":0,"TOWNNAME":"白河區","LI":"汴頭里","LIN":" ","STREET":" ","SECT":" ","MAREA":"林子內","LANE":" ","ALLEY":" ","HOUSE_NO":"９之２號","E_COORD97":195028.64000000001,"N_COORD97":2584742.2000000002,"ADDRESS":"林子內９之２號","OBJECTID":147887},"geometry":{"x":195028.6400000006,"y":2584742.2000000011}},{"attributes":{"ID":147889,"DIS_CODE":0,"TOWNNAME":"白河區","LI":"仙草里","LIN":" ","STREET":" ","SECT":" ","MAREA":"羌仔崙","LANE":" ","ALLEY":" ","HOUSE_NO":"１之８號","E_COORD97":198080.94,"N_COORD97":2582513.8300000001,"ADDRESS":"羌仔崙１之８號","OBJECTID":147888},"geometry":{"x":198080.94000000041,"y":2582513.8300000019}},{"attributes":{"ID":147890,"DIS_CODE":0,"TOWNNAME":"白河區","LI":"關嶺里","LIN":" ","STREET":" ","SECT":" ","MAREA":"南寮","LANE":" ","ALLEY":" ","HOUSE_NO":"１４之１號","E_COORD97":198672.60999999999,"N_COORD97":2580227.25,"ADDRESS":"南寮１４之１號","OBJECTID":147889},"geometry":{"x":198672.61000000127,"y":2580227.25}},{"attributes":{"ID":147891,"DIS_CODE":0,"TOWNNAME":"白河區","LI":"大林里","LIN":"8鄰","STREET":" ","SECT":" ","MAREA":"杭內","LANE":" ","ALLEY":" ","HOUSE_NO":"１９號","E_COORD97":195500.62,"N_COORD97":2581172.1800000002,"ADDRESS":"杭內１９號","OBJECTID":147890},"geometry":{"x":195500.62000000104,"y":2581172.1800000016}},{"attributes":{"ID":147892,"DIS_CODE":0,"TOWNNAME":"白河區","LI":"關嶺里","LIN":"11鄰","STREET":" ","SECT":" ","MAREA":"南寮","LANE":" ","ALLEY":" ","HOUSE_NO":"１１１號","E_COORD97":199147.76000000001,"N_COORD97":2577312.1000000001,"ADDRESS":"南寮１１１號","OBJECTID":147891},"geometry":{"x":199147.75999999978,"y":2577312.0999999996}},{"attributes":{"ID":147893,"DIS_CODE":0,"TOWNNAME":"白河區","LI":"廣安里","LIN":"3鄰","STREET":" ","SECT":" ","MAREA":"枋子林","LANE":" ","ALLEY":" ","HOUSE_NO":"１１之１號","E_COORD97":189056.35000000001,"N_COORD97":2587387.4700000002,"ADDRESS":"枋子林１１之１號","OBJECTID":147892},"geometry":{"x":189056.35000000149,"y":2587387.4700000007}},{"attributes":{"ID":147894,"DIS_CODE":0,"TOWNNAME":"新營區","LI":"新北里","LIN":"30鄰","STREET":"新北六街","SECT":" ","MAREA":" ","LANE":" ","ALLEY":" ","HOUSE_NO":"４０之１號","E_COORD97":178763.81,"N_COORD97":2579011.6800000002,"ADDRESS":"新北六街４０之１號","OBJECTID":147893},"geometry":{"x":178763.81000000052,"y":2579011.6800000034}},{"attributes":{"ID":147895,"DIS_CODE":0,"TOWNNAME":"新營區","LI":"新北里","LIN":"30鄰","STREET":"新北街","SECT":" ","MAREA":" ","LANE":" ","ALLEY":" ","HOUSE_NO":"１７２之２號","E_COORD97":178672.85999999999,"N_COORD97":2578998.8399999999,"ADDRESS":"新北街１７２之２號","OBJECTID":147894},"geometry":{"x":178672.86000000127,"y":2578998.8399999999}},{"attributes":{"ID":147896,"DIS_CODE":0,"TOWNNAME":"新營區","LI":"新南里","LIN":"30鄰","STREET":"長榮路","SECT":"二段","MAREA":" ","LANE":" ","ALLEY":" ","HOUSE_NO":"１０４７號","E_COORD97":178048.84,"N_COORD97":2578814.6400000001,"ADDRESS":"長榮路二段１０４７號","OBJECTID":147895},"geometry":{"x":178048.84000000078,"y":2578814.6400000006}},{"attributes":{"ID":147897,"DIS_CODE":0,"TOWNNAME":"歸仁區","LI":"南興里","LIN":"30鄰","STREET":"保興一街","SECT":" ","MAREA":" ","LANE":" ","ALLEY":" ","HOUSE_NO":"３５號","E_COORD97":176444.57000000001,"N_COORD97":2541076.25,"ADDRESS":"保興一街３５號","OBJECTID":147896},"geometry":{"x":176444.5700000003,"y":2541076.2500000037}},{"attributes":{"ID":147898,"DIS_CODE":0,"TOWNNAME":"歸仁區","LI":"南興里","LIN":"30鄰","STREET":"保興街","SECT":" ","MAREA":" ","LANE":" ","ALLEY":" ","HOUSE_NO":"６５號","E_COORD97":176494.62,"N_COORD97":2541074.25,"ADDRESS":"保興街６５號","OBJECTID":147897},"geometry":{"x":176494.62000000011,"y":2541074.2500000019}},{"attributes":{"ID":147899,"DIS_CODE":0,"TOWNNAME":"新營區","LI":"新南里","LIN":"30鄰","STREET":"明清三街","SECT":" ","MAREA":" ","LANE":" ","ALLEY":" ","HOUSE_NO":"２６之２號","E_COORD97":178296.67999999999,"N_COORD97":2578865.54,"ADDRESS":"明清三街２６之２號","OBJECTID":147898},"geometry":{"x":178296.68000000063,"y":2578865.5399999991}},{"attributes":{"ID":147900,"DIS_CODE":0,"TOWNNAME":"新營區","LI":"新北里","LIN":"30鄰","STREET":"新北四街","SECT":" ","MAREA":" ","LANE":" ","ALLEY":" ","HOUSE_NO":"１０號","E_COORD97":178741.28,"N_COORD97":2578905.4100000001,"ADDRESS":"新北四街１０號","OBJECTID":147899},"geometry":{"x":178741.28000000119,"y":2578905.4100000039}},{"attributes":{"ID":147901,"DIS_CODE":0,"TOWNNAME":"安南區","LI":"州南里","LIN":"3鄰","STREET":"安和路","SECT":"四段","MAREA":" ","LANE":"５３３巷","ALLEY":"１６０弄","HOUSE_NO":"５號","E_COORD97":169569.32000000001,"N_COORD97":2551256.0299999998,"ADDRESS":"安和路四段５３３巷１６０弄５號","OBJECTID":147900},"geometry":{"x":169569.32000000216,"y":2551256.0300000012}},{"attributes":{"ID":147902,"DIS_CODE":0,"TOWNNAME":"安南區","LI":"州南里","LIN":"3鄰","STREET":"安和路","SECT":"四段","MAREA":" ","LANE":"５３３巷","ALLEY":"１６０弄","HOUSE_NO":"７號","E_COORD97":169569.04999999999,"N_COORD97":2551258.73,"ADDRESS":"安和路四段５３３巷１６０弄７號","OBJECTID":147901},"geometry":{"x":169569.05000000168,"y":2551258.7300000023}},{"attributes":{"ID":147903,"DIS_CODE":0,"TOWNNAME":"南區","LI":"喜南里","LIN":"3鄰","STREET":"喜樹路","SECT":" ","MAREA":" ","LANE":"３０２巷","ALLEY":"１５弄","HOUSE_NO":"３２號","E_COORD97":165618.53,"N_COORD97":2537717.48,"ADDRESS":"喜樹路３０２巷１５弄３２號","OBJECTID":147902},"geometry":{"x":165618.53000000119,"y":2537717.4800000004}},{"attributes":{"ID":147904,"DIS_CODE":0,"TOWNNAME":"南區","LI":"喜南里","LIN":"3鄰","STREET":"喜樹路","SECT":" ","MAREA":" ","LANE":"３０２巷","ALLEY":"１５弄","HOUSE_NO":"３４號","E_COORD97":165609.92999999999,"N_COORD97":2537703.9399999999,"ADDRESS":"喜樹路３０２巷１５弄３４號","OBJECTID":147903},"geometry":{"x":165609.93000000063,"y":2537703.9399999995}},{"attributes":{"ID":147905,"DIS_CODE":0,"TOWNNAME":"南區","LI":"喜南里","LIN":"3鄰","STREET":"喜樹路","SECT":" ","MAREA":" ","LANE":"３０２巷","ALLEY":"２７弄","HOUSE_NO":"２６號","E_COORD97":165602.85999999999,"N_COORD97":2537720.8900000001,"ADDRESS":"喜樹路３０２巷２７弄２６號","OBJECTID":147904},"geometry":{"x":165602.86000000127,"y":2537720.8900000025}},{"attributes":{"ID":147906,"DIS_CODE":0,"TOWNNAME":"永康區","LI":"東橋里","LIN":"3鄰","STREET":"大橋一街","SECT":" ","MAREA":" ","LANE":"３２４巷","ALLEY":"２５弄","HOUSE_NO":"４號","E_COORD97":171377.70999999999,"N_COORD97":2546624.04,"ADDRESS":"大橋一街３２４巷２５弄４號","OBJECTID":147905},"geometry":{"x":171377.70999999996,"y":2546624.040000001}},{"attributes":{"ID":147907,"DIS_CODE":0,"TOWNNAME":"永康區","LI":"東橋里","LIN":"3鄰","STREET":"大橋一街","SECT":" ","MAREA":" ","LANE":"３２４巷","ALLEY":"２５弄","HOUSE_NO":"１號","E_COORD97":171366.89999999999,"N_COORD97":2546630.79,"ADDRESS":"大橋一街３２４巷２５弄１號","OBJECTID":147906},"geometry":{"x":171366.90000000037,"y":2546630.7899999991}},{"attributes":{"ID":147908,"DIS_CODE":0,"TOWNNAME":"永康區","LI":"埔園里","LIN":"3鄰","STREET":"聖龍街","SECT":" ","MAREA":" ","LANE":"２２巷","ALLEY":"２８弄","HOUSE_NO":"３號","E_COORD97":173902.37,"N_COORD97":2547762.25,"ADDRESS":"聖龍街２２巷２８弄３號","OBJECTID":147907},"geometry":{"x":173902.37000000104,"y":2547762.2500000037}},{"attributes":{"ID":147909,"DIS_CODE":0,"TOWNNAME":"永康區","LI":"埔園里","LIN":"3鄰","STREET":"聖龍街","SECT":" ","MAREA":" ","LANE":"２２巷","ALLEY":"２８弄","HOUSE_NO":"６號","E_COORD97":173911.73000000001,"N_COORD97":2547755.75,"ADDRESS":"聖龍街２２巷２８弄６號","OBJECTID":147908},"geometry":{"x":173911.73000000138,"y":2547755.7500000019}},{"attributes":{"ID":147910,"DIS_CODE":0,"TOWNNAME":"安南區","LI":"南興里","LIN":"3鄰","STREET":"安興街","SECT":" ","MAREA":" ","LANE":"３８１巷","ALLEY":"２８弄","HOUSE_NO":"２２號","E_COORD97":163592.54999999999,"N_COORD97":2552288.4900000002,"ADDRESS":"安興街３８１巷２８弄２２號","OBJECTID":147909},"geometry":{"x":163592.54999999981,"y":2552288.4900000021}},{"attributes":{"ID":147911,"DIS_CODE":0,"TOWNNAME":"安南區","LI":"南興里","LIN":"3鄰","STREET":"安興街","SECT":" ","MAREA":" ","LANE":"３８１巷","ALLEY":"２８弄","HOUSE_NO":"６號","E_COORD97":163630.37,"N_COORD97":2552273.3300000001,"ADDRESS":"安興街３８１巷２８弄６號","OBJECTID":147910},"geometry":{"x":163630.37000000011,"y":2552273.3300000001}},{"attributes":{"ID":147912,"DIS_CODE":0,"TOWNNAME":"安南區","LI":"南興里","LIN":"3鄰","STREET":"安興街","SECT":" ","MAREA":" ","LANE":"３８１巷","ALLEY":"２８弄","HOUSE_NO":"７號","E_COORD97":163627.07999999999,"N_COORD97":2552255.5499999998,"ADDRESS":"安興街３８１巷２８弄７號","OBJECTID":147911},"geometry":{"x":163627.08000000007,"y":2552255.5500000007}},{"attributes":{"ID":147913,"DIS_CODE":0,"TOWNNAME":"歸仁區","LI":"南興里","LIN":"30鄰","STREET":"保興街","SECT":" ","MAREA":" ","LANE":"５５巷","ALLEY":" ","HOUSE_NO":"２號","E_COORD97":176475.51999999999,"N_COORD97":2541070.25,"ADDRESS":"保興街５５巷２號","OBJECTID":147912},"geometry":{"x":176475.52000000048,"y":2541070.2500000019}},{"attributes":{"ID":147914,"DIS_CODE":0,"TOWNNAME":"西港區","LI":"西港里","LIN":"7鄰","STREET":"文化路","SECT":" ","MAREA":" ","LANE":" ","ALLEY":" ","HOUSE_NO":"４６號","E_COORD97":168625.04000000001,"N_COORD97":2558193.79,"ADDRESS":"文化路４６號","OBJECTID":147913},"geometry":{"x":168625.0400000019,"y":2558193.790000001}},{"attributes":{"ID":147915,"DIS_CODE":0,"TOWNNAME":"西港區","LI":"西港里","LIN":"7鄰","STREET":"文化路","SECT":" ","MAREA":" ","LANE":" ","ALLEY":" ","HOUSE_NO":"４８號","E_COORD97":168642.35000000001,"N_COORD97":2558201.8100000001,"ADDRESS":"文化路４８號","OBJECTID":147914},"geometry":{"x":168642.34999999963,"y":2558201.8100000024}},{"attributes":{"ID":147916,"DIS_CODE":0,"TOWNNAME":"西港區","LI":"西港里","LIN":"7鄰","STREET":"文化路","SECT":" ","MAREA":" ","LANE":" ","ALLEY":" ","HOUSE_NO":"５６號之２","E_COORD97":168661.32000000001,"N_COORD97":2558214.7200000002,"ADDRESS":"文化路５６號之２","OBJECTID":147915},"geometry":{"x":168661.32000000123,"y":2558214.7200000007}},{"attributes":{"ID":147917,"DIS_CODE":0,"TOWNNAME":"西港區","LI":"西港里","LIN":"9鄰","STREET":"文化路","SECT":" ","MAREA":" ","LANE":" ","ALLEY":" ","HOUSE_NO":"６號","E_COORD97":168473.13,"N_COORD97":2558111.0800000001,"ADDRESS":"文化路６號","OBJECTID":147916},"geometry":{"x":168473.12999999989,"y":2558111.0800000038}},{"attributes":{"ID":147918,"DIS_CODE":0,"TOWNNAME":"西港區","LI":"西港里","LIN":"3鄰","STREET":"文化路","SECT":" ","MAREA":" ","LANE":" ","ALLEY":" ","HOUSE_NO":"７號","E_COORD97":168446.22,"N_COORD97":2558137.9900000002,"ADDRESS":"文化路７號","OBJECTID":147917},"geometry":{"x":168446.22000000067,"y":2558137.9900000002}},{"attributes":{"ID":147919,"DIS_CODE":0,"TOWNNAME":"東區","LI":"大德里","LIN":"2鄰","STREET":"立德九路","SECT":" ","MAREA":" ","LANE":" ","ALLEY":" ","HOUSE_NO":"５０號","E_COORD97":169530.37,"N_COORD97":2541954.8700000001,"ADDRESS":"立德九路５０號","OBJECTID":147918},"geometry":{"x":169530.37000000104,"y":2541954.8700000048}},{"attributes":{"ID":147920,"DIS_CODE":0,"TOWNNAME":"東區","LI":"大德里","LIN":"14鄰","STREET":"立德十路","SECT":" ","MAREA":" ","LANE":" ","ALLEY":" ","HOUSE_NO":"７３號","E_COORD97":169576.09,"N_COORD97":2542077.7000000002,"ADDRESS":"立德十路７３號","OBJECTID":147919},"geometry":{"x":169576.09000000078,"y":2542077.7000000011}},{"attributes":{"ID":147921,"DIS_CODE":0,"TOWNNAME":"白河區","LI":"關嶺里","LIN":" ","STREET":" ","SECT":" ","MAREA":"南寮","LANE":" ","ALLEY":" ","HOUSE_NO":"３２之１號","E_COORD97":198851.94,"N_COORD97":2579263.1499999999,"ADDRESS":"南寮３２之１號","OBJECTID":147920},"geometry":{"x":198851.94000000134,"y":2579263.1500000041}},{"attributes":{"ID":147922,"DIS_CODE":0,"TOWNNAME":"白河區","LI":"關嶺里","LIN":" ","STREET":" ","SECT":" ","MAREA":"南寮","LANE":" ","ALLEY":" ","HOUSE_NO":"３４之１號","E_COORD97":198969.01999999999,"N_COORD97":2579163.5899999999,"ADDRESS":"南寮３４之１號","OBJECTID":147921},"geometry":{"x":198969.02000000048,"y":2579163.5899999999}},{"attributes":{"ID":147923,"DIS_CODE":0,"TOWNNAME":"白河區","LI":"關嶺里","LIN":" ","STREET":" ","SECT":" ","MAREA":"南寮","LANE":" ","ALLEY":" ","HOUSE_NO":"３４之２號","E_COORD97":198984.29000000001,"N_COORD97":2579148.21,"ADDRESS":"南寮３４之２號","OBJECTID":147922},"geometry":{"x":198984.29000000097,"y":2579148.2100000046}},{"attributes":{"ID":147924,"DIS_CODE":0,"TOWNNAME":"白河區","LI":"關嶺里","LIN":" ","STREET":" ","SECT":" ","MAREA":"南寮","LANE":" ","ALLEY":" ","HOUSE_NO":"４４之２號","E_COORD97":198179.48000000001,"N_COORD97":2579052.7400000002,"ADDRESS":"南寮４４之２號","OBJECTID":147923},"geometry":{"x":198179.48000000045,"y":2579052.7400000021}},{"attributes":{"ID":147925,"DIS_CODE":0,"TOWNNAME":"白河區","LI":"關嶺里","LIN":" ","STREET":" ","SECT":" ","MAREA":"南寮","LANE":" ","ALLEY":" ","HOUSE_NO":"４５號","E_COORD97":198233.85000000001,"N_COORD97":2578901.29,"ADDRESS":"南寮４５號","OBJECTID":147924},"geometry":{"x":198233.84999999963,"y":2578901.2899999972}},{"attributes":{"ID":147926,"DIS_CODE":0,"TOWNNAME":"白河區","LI":"關嶺里","LIN":" ","STREET":" ","SECT":" ","MAREA":"南寮","LANE":" ","ALLEY":" ","HOUSE_NO":"６３之２號","E_COORD97":199102.73000000001,"N_COORD97":2578151.27,"ADDRESS":"南寮６３之２號","OBJECTID":147925},"geometry":{"x":199102.73000000138,"y":2578151.2699999996}},{"attributes":{"ID":147927,"DIS_CODE":0,"TOWNNAME":"白河區","LI":"關嶺里","LIN":" ","STREET":" ","SECT":" ","MAREA":"南寮","LANE":" ","ALLEY":" ","HOUSE_NO":"８４號","E_COORD97":196758.44,"N_COORD97":2577860.5800000001,"ADDRESS":"南寮８４號","OBJECTID":147926},"geometry":{"x":196758.44000000134,"y":2577860.5800000019}},{"attributes":{"ID":147928,"DIS_CODE":0,"TOWNNAME":"安南區","LI":"南興里","LIN":"3鄰","STREET":"安興街","SECT":" ","MAREA":" ","LANE":"３８１巷","ALLEY":"７弄","HOUSE_NO":"１３號","E_COORD97":163729.91,"N_COORD97":2552283.5800000001,"ADDRESS":"安興街３８１巷７弄１３號","OBJECTID":147927},"geometry":{"x":163729.91000000015,"y":2552283.5800000019}},{"attributes":{"ID":147929,"DIS_CODE":0,"TOWNNAME":"官田區","LI":"嘉南里","LIN":"1鄰","STREET":" ","SECT":" ","MAREA":"嘉南","LANE":" ","ALLEY":" ","HOUSE_NO":"１號之４２","E_COORD97":184201.41920900001,"N_COORD97":2568010.0435199998,"ADDRESS":"嘉南１號之４２","OBJECTID":147928},"geometry":{"x":184201.41920899972,"y":2568010.0435199998}},{"attributes":{"ID":147930,"DIS_CODE":0,"TOWNNAME":"新營區","LI":"新北里","LIN":"30鄰","STREET":"新北六街","SECT":" ","MAREA":" ","LANE":" ","ALLEY":" ","HOUSE_NO":"８０號","E_COORD97":178824.81,"N_COORD97":2579032.3799999999,"ADDRESS":"新北六街８０號","OBJECTID":147929},"geometry":{"x":178824.81000000052,"y":2579032.379999999}},{"attributes":{"ID":147931,"DIS_CODE":0,"TOWNNAME":"官田區","LI":"嘉南里","LIN":"1鄰","STREET":" ","SECT":" ","MAREA":"嘉南","LANE":" ","ALLEY":" ","HOUSE_NO":"１號之５８","E_COORD97":183959.06400799999,"N_COORD97":2568020.2035099999,"ADDRESS":"嘉南１號之５８","OBJECTID":147930},"geometry":{"x":183959.06400800031,"y":2568020.2035140041}},{"attributes":{"ID":147932,"DIS_CODE":0,"TOWNNAME":"安南區","LI":"南興里","LIN":"3鄰","STREET":"安興街","SECT":" ","MAREA":" ","LANE":"３８１巷","ALLEY":"７弄","HOUSE_NO":"１６號","E_COORD97":163704.12,"N_COORD97":2552276.75,"ADDRESS":"安興街３８１巷７弄１６號","OBJECTID":147931},"geometry":{"x":163704.12000000104,"y":2552276.75}},{"attributes":{"ID":147933,"DIS_CODE":0,"TOWNNAME":"安南區","LI":"南興里","LIN":"3鄰","STREET":"安興街","SECT":" ","MAREA":" ","LANE":"３８１巷","ALLEY":"７弄","HOUSE_NO":"２０號","E_COORD97":163697.28,"N_COORD97":2552298.2999999998,"ADDRESS":"安興街３８１巷７弄２０號","OBJECTID":147932},"geometry":{"x":163697.27999999933,"y":2552298.3000000007}},{"attributes":{"ID":147934,"DIS_CODE":0,"TOWNNAME":"安南區","LI":"南興里","LIN":"3鄰","STREET":"安興街","SECT":" ","MAREA":" ","LANE":"３８１巷","ALLEY":"７弄","HOUSE_NO":"８號","E_COORD97":163704.12,"N_COORD97":2552310.3900000001,"ADDRESS":"安興街３８１巷７弄８號","OBJECTID":147933},"geometry":{"x":163704.12000000104,"y":2552310.3900000006}},{"attributes":{"ID":147935,"DIS_CODE":0,"TOWNNAME":"安平區","LI":"億載里","LIN":"15鄰","STREET":"光州三街","SECT":" ","MAREA":" ","LANE":" ","ALLEY":" ","HOUSE_NO":"２７號","E_COORD97":164044.159824,"N_COORD97":2543152.65392,"ADDRESS":"光州三街２７號","OBJECTID":147934},"geometry":{"x":164044.15982400067,"y":2543152.6539149992}},{"attributes":{"ID":147936,"DIS_CODE":0,"TOWNNAME":"安平區","LI":"華平里","LIN":"19鄰","STREET":"永華八街","SECT":" ","MAREA":" ","LANE":"１９３巷","ALLEY":" ","HOUSE_NO":"５號","E_COORD97":165113.01999999999,"N_COORD97":2543731.8399999999,"ADDRESS":"永華八街１９３巷５號","OBJECTID":147935},"geometry":{"x":165113.02000000048,"y":2543731.8400000017}},{"attributes":{"ID":147937,"DIS_CODE":0,"TOWNNAME":"大內區","LI":"大內里","LIN":"1鄰","STREET":" ","SECT":" ","MAREA":"內庄","LANE":" ","ALLEY":" ","HOUSE_NO":"７號之１","E_COORD97":184442.25922199999,"N_COORD97":2557600.80608,"ADDRESS":"內庄７號之１","OBJECTID":147936},"geometry":{"x":184442.25922200084,"y":2557600.8060839996}},{"attributes":{"ID":147938,"DIS_CODE":0,"TOWNNAME":"新營區","LI":"新北里","LIN":"30鄰","STREET":"新北四街","SECT":" ","MAREA":" ","LANE":" ","ALLEY":" ","HOUSE_NO":"７５號","E_COORD97":178801.14999999999,"N_COORD97":2579011.4399999999,"ADDRESS":"新北四街７５號","OBJECTID":147937},"geometry":{"x":178801.1500000013,"y":2579011.4399999995}},{"attributes":{"ID":147939,"DIS_CODE":0,"TOWNNAME":"下營區","LI":"大屯里","LIN":"1鄰","STREET":" ","SECT":" ","MAREA":"大屯寮","LANE":" ","ALLEY":" ","HOUSE_NO":"１號之３０","E_COORD97":173121.355629,"N_COORD97":2570497.34405,"ADDRESS":"大屯寮１號之３０","OBJECTID":147938},"geometry":{"x":173121.35562900081,"y":2570497.3440509997}},{"attributes":{"ID":147940,"DIS_CODE":0,"TOWNNAME":"新營區","LI":"新南里","LIN":"30鄰","STREET":"明清三街","SECT":" ","MAREA":" ","LANE":" ","ALLEY":" ","HOUSE_NO":"２４號","E_COORD97":178292.06,"N_COORD97":2578851.1099999999,"ADDRESS":"明清三街２４號","OBJECTID":147939},"geometry":{"x":178292.06000000145,"y":2578851.1099999994}},{"attributes":{"ID":147941,"DIS_CODE":0,"TOWNNAME":"下營區","LI":"大屯里","LIN":"1鄰","STREET":" ","SECT":" ","MAREA":"大屯寮","LANE":" ","ALLEY":" ","HOUSE_NO":"１之２７號","E_COORD97":173122.62632000001,"N_COORD97":2570532.4806900001,"ADDRESS":"大屯寮１之２７號","OBJECTID":147940},"geometry":{"x":173122.62632000074,"y":2570532.4806900006}},{"attributes":{"ID":147942,"DIS_CODE":0,"TOWNNAME":"下營區","LI":"大屯里","LIN":"1鄰","STREET":" ","SECT":" ","MAREA":"大屯寮","LANE":" ","ALLEY":" ","HOUSE_NO":"３號","E_COORD97":172251.64735399999,"N_COORD97":2570453.2287699999,"ADDRESS":"大屯寮３號","OBJECTID":147941},"geometry":{"x":172251.64735400118,"y":2570453.228767002}},{"attributes":{"ID":147943,"DIS_CODE":0,"TOWNNAME":"下營區","LI":"大屯里","LIN":"1鄰","STREET":" ","SECT":" ","MAREA":"大屯寮","LANE":" ","ALLEY":" ","HOUSE_NO":"３號之２","E_COORD97":172282.19834900001,"N_COORD97":2570518.5107100001,"ADDRESS":"大屯寮３號之２","OBJECTID":147942},"geometry":{"x":172282.19834900089,"y":2570518.5107060019}},{"attributes":{"ID":147944,"DIS_CODE":0,"TOWNNAME":"下營區","LI":"大屯里","LIN":"1鄰","STREET":" ","SECT":" ","MAREA":"大屯寮","LANE":" ","ALLEY":" ","HOUSE_NO":"４之１７號","E_COORD97":172360.203197,"N_COORD97":2570048.0989899999,"ADDRESS":"大屯寮４之１７號","OBJECTID":147943},"geometry":{"x":172360.20319700055,"y":2570048.0989859998}},{"attributes":{"ID":147945,"DIS_CODE":0,"TOWNNAME":"七股區","LI":"竹橋里","LIN":"1鄰","STREET":" ","SECT":" ","MAREA":"竹橋","LANE":" ","ALLEY":" ","HOUSE_NO":"９號之２","E_COORD97":164518.80528500001,"N_COORD97":2556075.1664399998,"ADDRESS":"竹橋９號之２","OBJECTID":147944},"geometry":{"x":164518.80528500024,"y":2556075.166438004}},{"attributes":{"ID":147946,"DIS_CODE":0,"TOWNNAME":"將軍區","LI":"長沙里","LIN":"13鄰","STREET":" ","SECT":" ","MAREA":"長沙","LANE":" ","ALLEY":" ","HOUSE_NO":"１０８之６號","E_COORD97":157163.04999999999,"N_COORD97":2568608.52,"ADDRESS":"長沙１０８之６號","OBJECTID":147945},"geometry":{"x":157163.04999999981,"y":2568608.5200000014}},{"attributes":{"ID":147947,"DIS_CODE":0,"TOWNNAME":"白河區","LI":"關嶺里","LIN":" ","STREET":" ","SECT":" ","MAREA":"南寮","LANE":" ","ALLEY":" ","HOUSE_NO":"９之１０號","E_COORD97":198322.73999999999,"N_COORD97":2579710.9500000002,"ADDRESS":"南寮９之１０號","OBJECTID":147946},"geometry":{"x":198322.74000000022,"y":2579710.950000003}},{"attributes":{"ID":147948,"DIS_CODE":0,"TOWNNAME":"白河區","LI":"庄內里","LIN":" ","STREET":" ","SECT":" ","MAREA":"客庄內","LANE":" ","ALLEY":" ","HOUSE_NO":"１１８號","E_COORD97":190887.09,"N_COORD97":2583571.73,"ADDRESS":"客庄內１１８號","OBJECTID":147947},"geometry":{"x":190887.08999999985,"y":2583571.7299999986}},{"attributes":{"ID":147949,"DIS_CODE":0,"TOWNNAME":"白河區","LI":"庄內里","LIN":" ","STREET":" ","SECT":" ","MAREA":"客庄內","LANE":" ","ALLEY":" ","HOUSE_NO":"１２７號","E_COORD97":190934.62,"N_COORD97":2583511.7599999998,"ADDRESS":"客庄內１２７號","OBJECTID":147948},"geometry":{"x":190934.62000000011,"y":2583511.7599999998}},{"attributes":{"ID":147950,"DIS_CODE":0,"TOWNNAME":"白河區","LI":"庄內里","LIN":" ","STREET":" ","SECT":" ","MAREA":"客庄內","LANE":" ","ALLEY":" ","HOUSE_NO":"１４０號","E_COORD97":191074.22,"N_COORD97":2583590.71,"ADDRESS":"客庄內１４０號","OBJECTID":147949},"geometry":{"x":191074.21999999974,"y":2583590.7100000028}},{"attributes":{"ID":147951,"DIS_CODE":0,"TOWNNAME":"安南區","LI":"城東里","LIN":"3鄰","STREET":"城北路","SECT":" ","MAREA":" ","LANE":"２３４巷","ALLEY":"２８弄","HOUSE_NO":"３０號","E_COORD97":161052.75,"N_COORD97":2551815.6200000001,"ADDRESS":"城北路２３４巷２８弄３０號","OBJECTID":147950},"geometry":{"x":161052.74999999907,"y":2551815.6200000048}},{"attributes":{"ID":147952,"DIS_CODE":0,"TOWNNAME":"仁德區","LI":"二行里","LIN":"3鄰","STREET":"中正西路","SECT":" ","MAREA":" ","LANE":"１２巷","ALLEY":"１５弄","HOUSE_NO":"３號","E_COORD97":170434.73999999999,"N_COORD97":2535513.4900000002,"ADDRESS":"中正西路１２巷１５弄３號","OBJECTID":147951},"geometry":{"x":170434.74000000115,"y":2535513.4900000002}},{"attributes":{"ID":147953,"DIS_CODE":0,"TOWNNAME":"仁德區","LI":"二行里","LIN":"3鄰","STREET":"中正西路","SECT":" ","MAREA":" ","LANE":"１２巷","ALLEY":"１５弄","HOUSE_NO":"５號","E_COORD97":170430.42000000001,"N_COORD97":2535523.7400000002,"ADDRESS":"中正西路１２巷１５弄５號","OBJECTID":147952},"geometry":{"x":170430.41999999993,"y":2535523.7400000021}},{"attributes":{"ID":147954,"DIS_CODE":0,"TOWNNAME":"新營區","LI":"太北里","LIN":"19鄰","STREET":" ","SECT":" ","MAREA":"太子宮","LANE":" ","ALLEY":" ","HOUSE_NO":"４４號之９","E_COORD97":175740.14999999999,"N_COORD97":2577197.02,"ADDRESS":"太子宮４４號之９","OBJECTID":147953},"geometry":{"x":175740.1500000013,"y":2577197.0199999996}},{"attributes":{"ID":147955,"DIS_CODE":0,"TOWNNAME":"白河區","LI":"庄內里","LIN":" ","STREET":" ","SECT":" ","MAREA":"客庄內","LANE":" ","ALLEY":" ","HOUSE_NO":"１４２之６號","E_COORD97":191051.60999999999,"N_COORD97":2583643.25,"ADDRESS":"客庄內１４２之６號","OBJECTID":147954},"geometry":{"x":191051.61000000034,"y":2583643.2500000019}},{"attributes":{"ID":147956,"DIS_CODE":0,"TOWNNAME":"白河區","LI":"庄內里","LIN":" ","STREET":" ","SECT":" ","MAREA":"客庄內","LANE":" ","ALLEY":" ","HOUSE_NO":"６０之１號","E_COORD97":190742.03,"N_COORD97":2583467.6499999999,"ADDRESS":"客庄內６０之１號","OBJECTID":147955},"geometry":{"x":190742.03000000026,"y":2583467.6500000022}},{"attributes":{"ID":147957,"DIS_CODE":0,"TOWNNAME":"白河區","LI":"庄內里","LIN":" ","STREET":" ","SECT":" ","MAREA":"客庄內","LANE":" ","ALLEY":" ","HOUSE_NO":"６２之１號","E_COORD97":190751.53,"N_COORD97":2583467.5299999998,"ADDRESS":"客庄內６２之１號","OBJECTID":147956},"geometry":{"x":190751.53000000119,"y":2583467.5300000012}},{"attributes":{"ID":147958,"DIS_CODE":0,"TOWNNAME":"白河區","LI":"庄內里","LIN":" ","STREET":" ","SECT":" ","MAREA":"客庄內","LANE":" ","ALLEY":" ","HOUSE_NO":"７２之３號","E_COORD97":190842.76000000001,"N_COORD97":2583525.46,"ADDRESS":"客庄內７２之３號","OBJECTID":147957},"geometry":{"x":190842.76000000071,"y":2583525.4600000009}},{"attributes":{"ID":147959,"DIS_CODE":0,"TOWNNAME":"白河區","LI":"庄內里","LIN":" ","STREET":" ","SECT":" ","MAREA":"客庄內","LANE":" ","ALLEY":" ","HOUSE_NO":"８８之２２號","E_COORD97":190858.95000000001,"N_COORD97":2584040.0800000001,"ADDRESS":"客庄內８８之２２號","OBJECTID":147958},"geometry":{"x":190858.95000000112,"y":2584040.0800000001}},{"attributes":{"ID":147960,"DIS_CODE":0,"TOWNNAME":"白河區","LI":"庄內里","LIN":" ","STREET":" ","SECT":" ","MAREA":"客庄內","LANE":" ","ALLEY":" ","HOUSE_NO":"８８之２４號","E_COORD97":190878.54999999999,"N_COORD97":2584028.98,"ADDRESS":"客庄內８８之２４號","OBJECTID":147959},"geometry":{"x":190878.54999999981,"y":2584028.9800000023}},{"attributes":{"ID":147961,"DIS_CODE":0,"TOWNNAME":"白河區","LI":"庄內里","LIN":" ","STREET":" ","SECT":" ","MAREA":"客庄內","LANE":" ","ALLEY":" ","HOUSE_NO":"８８之２５號","E_COORD97":190881.17000000001,"N_COORD97":2584032.7799999998,"ADDRESS":"客庄內８８之２５號","OBJECTID":147960},"geometry":{"x":190881.16999999993,"y":2584032.7800000012}},{"attributes":{"ID":147962,"DIS_CODE":0,"TOWNNAME":"白河區","LI":"庄內里","LIN":" ","STREET":" ","SECT":" ","MAREA":"客庄內","LANE":" ","ALLEY":" ","HOUSE_NO":"８８之２７號","E_COORD97":190883.79000000001,"N_COORD97":2584036.5899999999,"ADDRESS":"客庄內８８之２７號","OBJECTID":147961},"geometry":{"x":190883.79000000004,"y":2584036.589999998}},{"attributes":{"ID":147963,"DIS_CODE":0,"TOWNNAME":"白河區","LI":"庄內里","LIN":" ","STREET":" ","SECT":" ","MAREA":"客庄內","LANE":" ","ALLEY":" ","HOUSE_NO":"８８之２８號","E_COORD97":190886.41,"N_COORD97":2584040.3900000001,"ADDRESS":"客庄內８８之２８號","OBJECTID":147962},"geometry":{"x":190886.41000000015,"y":2584040.3900000025}},{"attributes":{"ID":147964,"DIS_CODE":0,"TOWNNAME":"白河區","LI":"庄內里","LIN":" ","STREET":" ","SECT":" ","MAREA":"客庄內","LANE":" ","ALLEY":" ","HOUSE_NO":"８８之３１號","E_COORD97":190894.26999999999,"N_COORD97":2584051.7999999998,"ADDRESS":"客庄內８８之３１號","OBJECTID":147963},"geometry":{"x":190894.27000000142,"y":2584051.8000000007}},{"attributes":{"ID":147965,"DIS_CODE":0,"TOWNNAME":"白河區","LI":"庄內里","LIN":" ","STREET":" ","SECT":" ","MAREA":"客庄內","LANE":" ","ALLEY":" ","HOUSE_NO":"８８之３２號","E_COORD97":190896.89000000001,"N_COORD97":2584055.6099999999,"ADDRESS":"客庄內８８之３２號","OBJECTID":147964},"geometry":{"x":190896.88999999873,"y":2584055.6099999994}},{"attributes":{"ID":147966,"DIS_CODE":0,"TOWNNAME":"白河區","LI":"庄內里","LIN":" ","STREET":" ","SECT":" ","MAREA":"客庄內","LANE":" ","ALLEY":" ","HOUSE_NO":"８８之３３號","E_COORD97":190899.51000000001,"N_COORD97":2584059.4100000001,"ADDRESS":"客庄內８８之３３號","OBJECTID":147965},"geometry":{"x":190899.50999999978,"y":2584059.410000002}},{"attributes":{"ID":147967,"DIS_CODE":0,"TOWNNAME":"白河區","LI":"庄內里","LIN":" ","STREET":" ","SECT":" ","MAREA":"客庄內","LANE":" ","ALLEY":" ","HOUSE_NO":"８８之７號","E_COORD97":191048.06,"N_COORD97":2584001.0099999998,"ADDRESS":"客庄內８８之７號","OBJECTID":147966},"geometry":{"x":191048.05999999959,"y":2584001.0100000016}},{"attributes":{"ID":147968,"DIS_CODE":0,"TOWNNAME":"白河區","LI":"汴頭里","LIN":" ","STREET":" ","SECT":" ","MAREA":"洪溪州","LANE":" ","ALLEY":" ","HOUSE_NO":"１９之２號","E_COORD97":192966.59,"N_COORD97":2584033.6899999999,"ADDRESS":"洪溪州１９之２號","OBJECTID":147967},"geometry":{"x":192966.58999999985,"y":2584033.6900000013}},{"attributes":{"ID":147969,"DIS_CODE":0,"TOWNNAME":"白河區","LI":"汴頭里","LIN":" ","STREET":" ","SECT":" ","MAREA":"洪溪州","LANE":" ","ALLEY":" ","HOUSE_NO":"１９之５號","E_COORD97":192949.03,"N_COORD97":2584057.25,"ADDRESS":"洪溪州１９之５號","OBJECTID":147968},"geometry":{"x":192949.03000000026,"y":2584057.2500000019}},{"attributes":{"ID":147970,"DIS_CODE":0,"TOWNNAME":"白河區","LI":"汴頭里","LIN":" ","STREET":" ","SECT":" ","MAREA":"洪溪州","LANE":" ","ALLEY":" ","HOUSE_NO":"２７之１號","E_COORD97":192927.87,"N_COORD97":2584037.04,"ADDRESS":"洪溪州２７之１號","OBJECTID":147969},"geometry":{"x":192927.87000000011,"y":2584037.040000001}},{"attributes":{"ID":147971,"DIS_CODE":0,"TOWNNAME":"白河區","LI":"汴頭里","LIN":" ","STREET":" ","SECT":" ","MAREA":"洪溪州","LANE":" ","ALLEY":" ","HOUSE_NO":"２８之１號","E_COORD97":192883.85999999999,"N_COORD97":2583980.04,"ADDRESS":"洪溪州２８之１號","OBJECTID":147970},"geometry":{"x":192883.86000000034,"y":2583980.040000001}},{"attributes":{"ID":147972,"DIS_CODE":0,"TOWNNAME":"白河區","LI":"汴頭里","LIN":" ","STREET":" ","SECT":" ","MAREA":"洪溪州","LANE":" ","ALLEY":" ","HOUSE_NO":"３１號","E_COORD97":192853.95999999999,"N_COORD97":2583993.9399999999,"ADDRESS":"洪溪州３１號","OBJECTID":147971},"geometry":{"x":192853.95999999996,"y":2583993.9400000013}},{"attributes":{"ID":147973,"DIS_CODE":0,"TOWNNAME":"白河區","LI":"汴頭里","LIN":" ","STREET":" ","SECT":" ","MAREA":"洪溪州","LANE":" ","ALLEY":" ","HOUSE_NO":"３３之１號","E_COORD97":192782.98000000001,"N_COORD97":2584004.7799999998,"ADDRESS":"洪溪州３３之１號","OBJECTID":147972},"geometry":{"x":192782.98000000138,"y":2584004.7800000012}},{"attributes":{"ID":147974,"DIS_CODE":0,"TOWNNAME":"白河區","LI":"汴頭里","LIN":" ","STREET":" ","SECT":" ","MAREA":"洪溪州","LANE":" ","ALLEY":" ","HOUSE_NO":"３６號","E_COORD97":192841.39999999999,"N_COORD97":2584041.6099999999,"ADDRESS":"洪溪州３６號","OBJECTID":147973},"geometry":{"x":192841.40000000037,"y":2584041.6099999994}},{"attributes":{"ID":147975,"DIS_CODE":0,"TOWNNAME":"白河區","LI":"汴頭里","LIN":" ","STREET":" ","SECT":" ","MAREA":"洪溪州","LANE":" ","ALLEY":" ","HOUSE_NO":"３號","E_COORD97":193193.76000000001,"N_COORD97":2584226.5,"ADDRESS":"洪溪州３號","OBJECTID":147974},"geometry":{"x":193193.76000000071,"y":2584226.5}},{"attributes":{"ID":147976,"DIS_CODE":0,"TOWNNAME":"白河區","LI":"關嶺里","LIN":"8鄰","STREET":" ","SECT":" ","MAREA":"南寮","LANE":" ","ALLEY":" ","HOUSE_NO":"３之２號","E_COORD97":198932.85000000001,"N_COORD97":2580226.0899999999,"ADDRESS":"南寮３之２號","OBJECTID":147975},"geometry":{"x":198932.85000000056,"y":2580226.0900000036}},{"attributes":{"ID":147977,"DIS_CODE":0,"TOWNNAME":"白河區","LI":"崁頭里","LIN":" ","STREET":" ","SECT":" ","MAREA":"崁子頭","LANE":" ","ALLEY":" ","HOUSE_NO":"２０號","E_COORD97":190534.41,"N_COORD97":2580738.8999999999,"ADDRESS":"崁子頭２０號","OBJECTID":147976},"geometry":{"x":190534.41000000015,"y":2580738.9000000004}},{"attributes":{"ID":147978,"DIS_CODE":0,"TOWNNAME":"白河區","LI":"崁頭里","LIN":" ","STREET":" ","SECT":" ","MAREA":"崁子頭","LANE":" ","ALLEY":" ","HOUSE_NO":"２３號","E_COORD97":190590.34,"N_COORD97":2580725.4100000001,"ADDRESS":"崁子頭２３號","OBJECTID":147977},"geometry":{"x":190590.33999999985,"y":2580725.4100000001}},{"attributes":{"ID":147979,"DIS_CODE":0,"TOWNNAME":"北區","LI":"成德里","LIN":"19鄰","STREET":"育成路","SECT":" ","MAREA":" ","LANE":" ","ALLEY":" ","HOUSE_NO":"１６號","E_COORD97":169002.76999999999,"N_COORD97":2546320.4300000002,"ADDRESS":"育成路１６號","OBJECTID":147978},"geometry":{"x":169002.77000000142,"y":2546320.4300000016}},{"attributes":{"ID":147980,"DIS_CODE":0,"TOWNNAME":"北區","LI":"成德里","LIN":"19鄰","STREET":"育成路","SECT":" ","MAREA":" ","LANE":" ","ALLEY":" ","HOUSE_NO":"１８號","E_COORD97":168998.92999999999,"N_COORD97":2546323.1200000001,"ADDRESS":"育成路１８號","OBJECTID":147979},"geometry":{"x":168998.93000000063,"y":2546323.1200000048}},{"attributes":{"ID":147981,"DIS_CODE":0,"TOWNNAME":"北區","LI":"成德里","LIN":"19鄰","STREET":"育成路","SECT":" ","MAREA":" ","LANE":" ","ALLEY":" ","HOUSE_NO":"２０號","E_COORD97":168995.87,"N_COORD97":2546325.4199999999,"ADDRESS":"育成路２０號","OBJECTID":147980},"geometry":{"x":168995.87000000197,"y":2546325.4199999999}},{"attributes":{"ID":147982,"DIS_CODE":0,"TOWNNAME":"北區","LI":"成德里","LIN":"19鄰","STREET":"育成路","SECT":" ","MAREA":" ","LANE":" ","ALLEY":" ","HOUSE_NO":"２２號","E_COORD97":168992.03,"N_COORD97":2546327.9100000001,"ADDRESS":"育成路２２號","OBJECTID":147981},"geometry":{"x":168992.03000000119,"y":2546327.910000002}},{"attributes":{"ID":147983,"DIS_CODE":0,"TOWNNAME":"白河區","LI":"崁頭里","LIN":" ","STREET":" ","SECT":" ","MAREA":"崁子頭","LANE":" ","ALLEY":" ","HOUSE_NO":"２號","E_COORD97":190339.38,"N_COORD97":2580786.6800000002,"ADDRESS":"崁子頭２號","OBJECTID":147982},"geometry":{"x":190339.37999999989,"y":2580786.6799999997}},{"attributes":{"ID":147984,"DIS_CODE":0,"TOWNNAME":"白河區","LI":"崁頭里","LIN":" ","STREET":" ","SECT":" ","MAREA":"崁子頭","LANE":" ","ALLEY":" ","HOUSE_NO":"３１之１號","E_COORD97":190661.39000000001,"N_COORD97":2580664.73,"ADDRESS":"崁子頭３１之１號","OBJECTID":147983},"geometry":{"x":190661.39000000153,"y":2580664.7300000004}},{"attributes":{"ID":147985,"DIS_CODE":0,"TOWNNAME":"新營區","LI":"民權里","LIN":"19鄰","STREET":"中華路","SECT":" ","MAREA":" ","LANE":" ","ALLEY":" ","HOUSE_NO":"２９號","E_COORD97":179785.45000000001,"N_COORD97":2578212.71,"ADDRESS":"中華路２９號","OBJECTID":147984},"geometry":{"x":179785.45000000112,"y":2578212.7100000028}},{"attributes":{"ID":147986,"DIS_CODE":0,"TOWNNAME":"安平區","LI":"文平里","LIN":"19鄰","STREET":"建平一街","SECT":" ","MAREA":" ","LANE":" ","ALLEY":" ","HOUSE_NO":"９８號","E_COORD97":165856.20000000001,"N_COORD97":2542763.6899999999,"ADDRESS":"建平一街９８號","OBJECTID":147985},"geometry":{"x":165856.20000000112,"y":2542763.6899999995}},{"attributes":{"ID":147987,"DIS_CODE":0,"TOWNNAME":"安平區","LI":"文平里","LIN":"19鄰","STREET":"建平一街","SECT":" ","MAREA":" ","LANE":" ","ALLEY":" ","HOUSE_NO":"９６號","E_COORD97":165860.01000000001,"N_COORD97":2542763.0600000001,"ADDRESS":"建平一街９６號","OBJECTID":147986},"geometry":{"x":165860.01000000164,"y":2542763.0600000042}},{"attributes":{"ID":147988,"DIS_CODE":0,"TOWNNAME":"歸仁區","LI":"崙頂里","LIN":"19鄰","STREET":"大成一街","SECT":" ","MAREA":" ","LANE":" ","ALLEY":" ","HOUSE_NO":"３號","E_COORD97":177787.42999999999,"N_COORD97":2540197.98,"ADDRESS":"大成一街３號","OBJECTID":147987},"geometry":{"x":177787.4299999997,"y":2540197.9800000023}},{"attributes":{"ID":147989,"DIS_CODE":0,"TOWNNAME":"歸仁區","LI":"崙頂里","LIN":"19鄰","STREET":"大成路","SECT":" ","MAREA":" ","LANE":" ","ALLEY":" ","HOUSE_NO":"１７３號","E_COORD97":177768.17999999999,"N_COORD97":2540188.98,"ADDRESS":"大成路１７３號","OBJECTID":147988},"geometry":{"x":177768.18000000063,"y":2540188.9800000004}},{"attributes":{"ID":147990,"DIS_CODE":0,"TOWNNAME":"仁德區","LI":"二行里","LIN":"3鄰","STREET":"中正西路","SECT":" ","MAREA":" ","LANE":"１２巷","ALLEY":"１５弄","HOUSE_NO":"１號","E_COORD97":170438.95999999999,"N_COORD97":2535513.2400000002,"ADDRESS":"中正西路１２巷１５弄１號","OBJECTID":147989},"geometry":{"x":170438.95999999996,"y":2535513.2400000039}},{"attributes":{"ID":147991,"DIS_CODE":0,"TOWNNAME":"仁德區","LI":"二行里","LIN":"3鄰","STREET":"中正西路","SECT":" ","MAREA":" ","LANE":"１２巷","ALLEY":"１５弄","HOUSE_NO":"８號","E_COORD97":170435.17000000001,"N_COORD97":2535535.75,"ADDRESS":"中正西路１２巷１５弄８號","OBJECTID":147990},"geometry":{"x":170435.17000000086,"y":2535535.75}},{"attributes":{"ID":147992,"DIS_CODE":0,"TOWNNAME":"仁德區","LI":"二行里","LIN":"3鄰","STREET":"中正西路","SECT":" ","MAREA":" ","LANE":"１２巷","ALLEY":"１５弄","HOUSE_NO":"７號","E_COORD97":170426.14000000001,"N_COORD97":2535524.9900000002,"ADDRESS":"中正西路１２巷１５弄７號","OBJECTID":147991},"geometry":{"x":170426.1400000006,"y":2535524.9900000039}},{"attributes":{"ID":147993,"DIS_CODE":0,"TOWNNAME":"仁德區","LI":"二行里","LIN":"3鄰","STREET":"中正西路","SECT":" ","MAREA":" ","LANE":"１２巷","ALLEY":"１５弄","HOUSE_NO":"１０號","E_COORD97":170432.56,"N_COORD97":2535537.25,"ADDRESS":"中正西路１２巷１５弄１０號","OBJECTID":147992},"geometry":{"x":170432.55999999959,"y":2535537.2500000019}},{"attributes":{"ID":147994,"DIS_CODE":0,"TOWNNAME":"南區","LI":"興農里","LIN":"3鄰","STREET":"灣裡路","SECT":" ","MAREA":" ","LANE":"２６３巷","ALLEY":"３４弄","HOUSE_NO":"１號","E_COORD97":166310.64999999999,"N_COORD97":2536393.3700000001,"ADDRESS":"灣裡路２６３巷３４弄１號","OBJECTID":147993},"geometry":{"x":166310.65000000224,"y":2536393.370000001}},{"attributes":{"ID":147995,"DIS_CODE":0,"TOWNNAME":"南區","LI":"興農里","LIN":"3鄰","STREET":"灣裡路","SECT":" ","MAREA":" ","LANE":"２６３巷","ALLEY":"３４弄","HOUSE_NO":"３號","E_COORD97":166295.51999999999,"N_COORD97":2536388.46,"ADDRESS":"灣裡路２６３巷３４弄３號","OBJECTID":147994},"geometry":{"x":166295.52000000142,"y":2536388.4600000028}},{"attributes":{"ID":147996,"DIS_CODE":0,"TOWNNAME":"南區","LI":"興農里","LIN":"3鄰","STREET":"灣裡路","SECT":" ","MAREA":" ","LANE":"２６３巷","ALLEY":"３４弄","HOUSE_NO":"５號","E_COORD97":166300.26999999999,"N_COORD97":2536382.8399999999,"ADDRESS":"灣裡路２６３巷３４弄５號","OBJECTID":147995},"geometry":{"x":166300.26999999955,"y":2536382.8399999999}},{"attributes":{"ID":147997,"DIS_CODE":0,"TOWNNAME":"南區","LI":"興農里","LIN":"3鄰","STREET":"灣裡路","SECT":" ","MAREA":" ","LANE":"２６３巷","ALLEY":"３４弄","HOUSE_NO":"１３號","E_COORD97":166281.04999999999,"N_COORD97":2536365.3999999999,"ADDRESS":"灣裡路２６３巷３４弄１３號","OBJECTID":147996},"geometry":{"x":166281.05000000075,"y":2536365.4000000004}},{"attributes":{"ID":147998,"DIS_CODE":0,"TOWNNAME":"南區","LI":"興農里","LIN":"3鄰","STREET":"灣裡路","SECT":" ","MAREA":" ","LANE":"２６３巷","ALLEY":"３４弄","HOUSE_NO":"１５號","E_COORD97":166293.35999999999,"N_COORD97":2536371.9900000002,"ADDRESS":"灣裡路２６３巷３４弄１５號","OBJECTID":147997},"geometry":{"x":166293.36000000034,"y":2536371.9900000002}},{"attributes":{"ID":147999,"DIS_CODE":0,"TOWNNAME":"南區","LI":"興農里","LIN":"3鄰","STREET":"灣裡路","SECT":" ","MAREA":" ","LANE":"２６３巷","ALLEY":"３４弄","HOUSE_NO":"１５號之１","E_COORD97":166287.09,"N_COORD97":2536335.6699999999,"ADDRESS":"灣裡路２６３巷３４弄１５號之１","OBJECTID":147998},"geometry":{"x":166287.09000000078,"y":2536335.6699999999}},{"attributes":{"ID":148000,"DIS_CODE":0,"TOWNNAME":"南區","LI":"興農里","LIN":"3鄰","STREET":"灣裡路","SECT":" ","MAREA":" ","LANE":"２６３巷","ALLEY":"３４弄","HOUSE_NO":"１５號之２","E_COORD97":166290.07000000001,"N_COORD97":2536344.04,"ADDRESS":"灣裡路２６３巷３４弄１５號之２","OBJECTID":147999},"geometry":{"x":166290.0700000003,"y":2536344.0400000028}},{"attributes":{"ID":148001,"DIS_CODE":0,"TOWNNAME":"南區","LI":"興農里","LIN":"3鄰","STREET":"灣裡路","SECT":" ","MAREA":" ","LANE":"２６３巷","ALLEY":"５２弄","HOUSE_NO":"１６號","E_COORD97":166305.91,"N_COORD97":2536360.6000000001,"ADDRESS":"灣裡路２６３巷５２弄１６號","OBJECTID":148000},"geometry":{"x":166305.91000000108,"y":2536360.5999999996}}]}