{"displayFieldName":"TOWNNAME","fieldAliases":{"ID":"ID","DIS_CODE":"DIS_CODE","TOWNNAME":"TOWNNAME","LI":"LI","LIN":"LIN","STREET":"STREET","SECT":"SECT","MAREA":"MAREA","LANE":"LANE","ALLEY":"ALLEY","HOUSE_NO":"HOUSE_NO","E_COORD97":"E_COORD97","N_COORD97":"N_COORD97","ADDRESS":"ADDRESS","OBJECTID":"OBJECTID"},"geometryType":"esriGeometryPoint","spatialReference":{"wkid":102443,"latestWkid":3826},"fields":[{"name":"ID","type":"esriFieldTypeDouble","alias":"ID"},{"name":"DIS_CODE","type":"esriFieldTypeInteger","alias":"DIS_CODE"},{"name":"TOWNNAME","type":"esriFieldTypeString","alias":"TOWNNAME","length":8},{"name":"LI","type":"esriFieldTypeString","alias":"LI","length":8},{"name":"LIN","type":"esriFieldTypeString","alias":"LIN","length":12},{"name":"STREET","type":"esriFieldTypeString","alias":"STREET","length":20},{"name":"SECT","type":"esriFieldTypeString","alias":"SECT","length":8},{"name":"MAREA","type":"esriFieldTypeString","alias":"MAREA","length":12},{"name":"LANE","type":"esriFieldTypeString","alias":"LANE","length":10},{"name":"ALLEY","type":"esriFieldTypeString","alias":"ALLEY","length":10},{"name":"HOUSE_NO","type":"esriFieldTypeString","alias":"HOUSE_NO","length":20},{"name":"E_COORD97","type":"esriFieldTypeDouble","alias":"E_COORD97"},{"name":"N_COORD97","type":"esriFieldTypeDouble","alias":"N_COORD97"},{"name":"ADDRESS","type":"esriFieldTypeString","alias":"ADDRESS","length":50},{"name":"OBJECTID","type":"esriFieldTypeOID","alias":"OBJECTID"}],"features":[{"attributes":{"ID":377811,"DIS_CODE":0,"TOWNNAME":"安南區","LI":"長安里","LIN":"21鄰","STREET":"長溪路","SECT":"三段","MAREA":" ","LANE":"３８０巷","ALLEY":" ","HOUSE_NO":"１８０號","E_COORD97":167937.32999999999,"N_COORD97":2552375.02,"ADDRESS":"長溪路三段３８０巷１８０號","OBJECTID":377801},"geometry":{"x":167937.33000000101,"y":2552375.0200000014}},{"attributes":{"ID":377812,"DIS_CODE":0,"TOWNNAME":"安南區","LI":"長安里","LIN":"21鄰","STREET":"長溪路","SECT":"三段","MAREA":" ","LANE":"３８０巷","ALLEY":" ","HOUSE_NO":"１８７號","E_COORD97":167933.13,"N_COORD97":2552350.2799999998,"ADDRESS":"長溪路三段３８０巷１８７號","OBJECTID":377802},"geometry":{"x":167933.13000000082,"y":2552350.2799999993}},{"attributes":{"ID":377813,"DIS_CODE":0,"TOWNNAME":"安南區","LI":"長安里","LIN":"21鄰","STREET":"長溪路","SECT":"三段","MAREA":" ","LANE":"３８０巷","ALLEY":" ","HOUSE_NO":"１９０號","E_COORD97":167907.10999999999,"N_COORD97":2552377.6600000001,"ADDRESS":"長溪路三段３８０巷１９０號","OBJECTID":377803},"geometry":{"x":167907.11000000034,"y":2552377.660000002}},{"attributes":{"ID":377814,"DIS_CODE":0,"TOWNNAME":"安南區","LI":"長安里","LIN":"21鄰","STREET":"長溪路","SECT":"三段","MAREA":" ","LANE":"３８０巷","ALLEY":" ","HOUSE_NO":"１９２號","E_COORD97":167898.14999999999,"N_COORD97":2552371.3999999999,"ADDRESS":"長溪路三段３８０巷１９２號","OBJECTID":377804},"geometry":{"x":167898.1500000013,"y":2552371.4000000004}},{"attributes":{"ID":377815,"DIS_CODE":0,"TOWNNAME":"安南區","LI":"長安里","LIN":"21鄰","STREET":"長溪路","SECT":"三段","MAREA":" ","LANE":"３８０巷","ALLEY":" ","HOUSE_NO":"１９６號","E_COORD97":167893.81,"N_COORD97":2552354.2000000002,"ADDRESS":"長溪路三段３８０巷１９６號","OBJECTID":377805},"geometry":{"x":167893.81000000145,"y":2552354.1999999993}},{"attributes":{"ID":377816,"DIS_CODE":0,"TOWNNAME":"安南區","LI":"長安里","LIN":"21鄰","STREET":"長溪路","SECT":"三段","MAREA":" ","LANE":"３８０巷","ALLEY":" ","HOUSE_NO":"２０１號","E_COORD97":167887.85999999999,"N_COORD97":2552326.2000000002,"ADDRESS":"長溪路三段３８０巷２０１號","OBJECTID":377806},"geometry":{"x":167887.86000000127,"y":2552326.2000000011}},{"attributes":{"ID":377817,"DIS_CODE":0,"TOWNNAME":"安南區","LI":"長安里","LIN":"21鄰","STREET":"長溪路","SECT":"三段","MAREA":" ","LANE":"３８０巷","ALLEY":" ","HOUSE_NO":"２０２號","E_COORD97":167873.72,"N_COORD97":2552349.75,"ADDRESS":"長溪路三段３８０巷２０２號","OBJECTID":377807},"geometry":{"x":167873.71999999974,"y":2552349.7500000019}},{"attributes":{"ID":377818,"DIS_CODE":0,"TOWNNAME":"善化區","LI":"光文里","LIN":"21鄰","STREET":"民權路","SECT":" ","MAREA":" ","LANE":"２４６巷","ALLEY":" ","HOUSE_NO":"７號","E_COORD97":178050.42000000001,"N_COORD97":2559022.5099999998,"ADDRESS":"民權路２４６巷７號","OBJECTID":377808},"geometry":{"x":178050.41999999993,"y":2559022.5099999998}},{"attributes":{"ID":377819,"DIS_CODE":0,"TOWNNAME":"善化區","LI":"光文里","LIN":"21鄰","STREET":"民權路","SECT":" ","MAREA":" ","LANE":"２４６巷","ALLEY":" ","HOUSE_NO":"５號","E_COORD97":178050.23000000001,"N_COORD97":2559018.5099999998,"ADDRESS":"民權路２４６巷５號","OBJECTID":377809},"geometry":{"x":178050.23000000138,"y":2559018.5099999998}},{"attributes":{"ID":377820,"DIS_CODE":0,"TOWNNAME":"永康區","LI":"網寮里","LIN":"21鄰","STREET":"文化路","SECT":" ","MAREA":" ","LANE":"２４２巷","ALLEY":" ","HOUSE_NO":"２６之３號","E_COORD97":173598.92000000001,"N_COORD97":2546181.0699999998,"ADDRESS":"文化路２４２巷２６之３號","OBJECTID":377810},"geometry":{"x":173598.91999999993,"y":2546181.0700000022}},{"attributes":{"ID":377821,"DIS_CODE":0,"TOWNNAME":"永康區","LI":"網寮里","LIN":"21鄰","STREET":"文化路","SECT":" ","MAREA":" ","LANE":"２４２巷","ALLEY":" ","HOUSE_NO":"２８之１１號","E_COORD97":173613.32999999999,"N_COORD97":2546182.3300000001,"ADDRESS":"文化路２４２巷２８之１１號","OBJECTID":377811},"geometry":{"x":173613.33000000007,"y":2546182.3300000019}},{"attributes":{"ID":377822,"DIS_CODE":0,"TOWNNAME":"永康區","LI":"網寮里","LIN":"21鄰","STREET":"文化路","SECT":" ","MAREA":" ","LANE":"２４２巷","ALLEY":" ","HOUSE_NO":"１２號","E_COORD97":173576.16,"N_COORD97":2546169.3399999999,"ADDRESS":"文化路２４２巷１２號","OBJECTID":377812},"geometry":{"x":173576.16000000108,"y":2546169.3400000017}},{"attributes":{"ID":377823,"DIS_CODE":0,"TOWNNAME":"永康區","LI":"網寮里","LIN":"21鄰","STREET":"文化路","SECT":" ","MAREA":" ","LANE":"２３５巷","ALLEY":" ","HOUSE_NO":"１６號","E_COORD97":173652.04999999999,"N_COORD97":2546075.8300000001,"ADDRESS":"文化路２３５巷１６號","OBJECTID":377813},"geometry":{"x":173652.04999999981,"y":2546075.8300000001}},{"attributes":{"ID":377824,"DIS_CODE":0,"TOWNNAME":"永康區","LI":"網寮里","LIN":"21鄰","STREET":"文化路","SECT":" ","MAREA":" ","LANE":"２３５巷","ALLEY":" ","HOUSE_NO":"８號","E_COORD97":173648.23000000001,"N_COORD97":2546095.8999999999,"ADDRESS":"文化路２３５巷８號","OBJECTID":377814},"geometry":{"x":173648.23000000045,"y":2546095.9000000004}},{"attributes":{"ID":377825,"DIS_CODE":0,"TOWNNAME":"永康區","LI":"網寮里","LIN":"21鄰","STREET":"文化路","SECT":" ","MAREA":" ","LANE":"２３５巷","ALLEY":" ","HOUSE_NO":"２號","E_COORD97":173642.70999999999,"N_COORD97":2546125.2999999998,"ADDRESS":"文化路２３５巷２號","OBJECTID":377815},"geometry":{"x":173642.70999999996,"y":2546125.3000000045}},{"attributes":{"ID":377826,"DIS_CODE":0,"TOWNNAME":"永康區","LI":"復國里","LIN":"21鄰","STREET":"復國一路","SECT":" ","MAREA":" ","LANE":"３４７巷","ALLEY":" ","HOUSE_NO":"１４號","E_COORD97":172721.07000000001,"N_COORD97":2545809.7799999998,"ADDRESS":"復國一路３４７巷１４號","OBJECTID":377816},"geometry":{"x":172721.07000000123,"y":2545809.7800000012}},{"attributes":{"ID":377827,"DIS_CODE":0,"TOWNNAME":"永康區","LI":"網寮里","LIN":"21鄰","STREET":"文化路","SECT":" ","MAREA":" ","LANE":"２３５巷","ALLEY":" ","HOUSE_NO":"６號","E_COORD97":173643.67999999999,"N_COORD97":2546122.7200000002,"ADDRESS":"文化路２３５巷６號","OBJECTID":377817},"geometry":{"x":173643.68000000063,"y":2546122.7200000025}},{"attributes":{"ID":377828,"DIS_CODE":0,"TOWNNAME":"永康區","LI":"網寮里","LIN":"21鄰","STREET":"文化路","SECT":" ","MAREA":" ","LANE":"２６１巷","ALLEY":" ","HOUSE_NO":"１９號","E_COORD97":173625.97,"N_COORD97":2546102.8300000001,"ADDRESS":"文化路２６１巷１９號","OBJECTID":377818},"geometry":{"x":173625.9700000016,"y":2546102.8300000001}},{"attributes":{"ID":377829,"DIS_CODE":0,"TOWNNAME":"永康區","LI":"網寮里","LIN":"21鄰","STREET":"文化路","SECT":" ","MAREA":" ","LANE":"２４２巷","ALLEY":" ","HOUSE_NO":"３２之１０號","E_COORD97":173563.42999999999,"N_COORD97":2546197.79,"ADDRESS":"文化路２４２巷３２之１０號","OBJECTID":377819},"geometry":{"x":173563.43000000156,"y":2546197.7899999972}},{"attributes":{"ID":377830,"DIS_CODE":0,"TOWNNAME":"永康區","LI":"網寮里","LIN":"21鄰","STREET":"文化路","SECT":" ","MAREA":" ","LANE":"２４２巷","ALLEY":" ","HOUSE_NO":"２８之１３號","E_COORD97":173613.32999999999,"N_COORD97":2546182.3300000001,"ADDRESS":"文化路２４２巷２８之１３號","OBJECTID":377820},"geometry":{"x":173613.33000000007,"y":2546182.3300000019}},{"attributes":{"ID":377831,"DIS_CODE":0,"TOWNNAME":"永康區","LI":"復國里","LIN":"21鄰","STREET":"復華六街","SECT":" ","MAREA":" ","LANE":"８１巷","ALLEY":" ","HOUSE_NO":"７號","E_COORD97":172647.57000000001,"N_COORD97":2545816.54,"ADDRESS":"復華六街８１巷７號","OBJECTID":377821},"geometry":{"x":172647.5700000003,"y":2545816.5400000028}},{"attributes":{"ID":377832,"DIS_CODE":0,"TOWNNAME":"永康區","LI":"網寮里","LIN":"21鄰","STREET":"文化路","SECT":" ","MAREA":" ","LANE":"２４２巷","ALLEY":" ","HOUSE_NO":"２６之６號","E_COORD97":173598.92000000001,"N_COORD97":2546181.0699999998,"ADDRESS":"文化路２４２巷２６之６號","OBJECTID":377822},"geometry":{"x":173598.91999999993,"y":2546181.0700000022}},{"attributes":{"ID":377833,"DIS_CODE":0,"TOWNNAME":"永康區","LI":"復國里","LIN":"21鄰","STREET":"復華六街","SECT":" ","MAREA":" ","LANE":"８１巷","ALLEY":" ","HOUSE_NO":"２號","E_COORD97":172656.45000000001,"N_COORD97":2545814.6099999999,"ADDRESS":"復華六街８１巷２號","OBJECTID":377823},"geometry":{"x":172656.45000000019,"y":2545814.6100000013}},{"attributes":{"ID":377834,"DIS_CODE":0,"TOWNNAME":"永康區","LI":"網寮里","LIN":"21鄰","STREET":"文化路","SECT":" ","MAREA":" ","LANE":"２４２巷","ALLEY":" ","HOUSE_NO":"３０之３號","E_COORD97":173571.28,"N_COORD97":2546192.0299999998,"ADDRESS":"文化路２４２巷３０之３號","OBJECTID":377824},"geometry":{"x":173571.28000000026,"y":2546192.0299999993}},{"attributes":{"ID":377835,"DIS_CODE":0,"TOWNNAME":"永康區","LI":"網寮里","LIN":"21鄰","STREET":"文化路","SECT":" ","MAREA":" ","LANE":"２５２巷","ALLEY":" ","HOUSE_NO":"２號","E_COORD97":173550.59,"N_COORD97":2546135.75,"ADDRESS":"文化路２５２巷２號","OBJECTID":377825},"geometry":{"x":173550.58999999892,"y":2546135.7500000019}},{"attributes":{"ID":377836,"DIS_CODE":0,"TOWNNAME":"永康區","LI":"網寮里","LIN":"21鄰","STREET":"文化路","SECT":" ","MAREA":" ","LANE":"２４２巷","ALLEY":" ","HOUSE_NO":"２６之９號","E_COORD97":173598.92000000001,"N_COORD97":2546181.0699999998,"ADDRESS":"文化路２４２巷２６之９號","OBJECTID":377826},"geometry":{"x":173598.91999999993,"y":2546181.0700000022}},{"attributes":{"ID":377837,"DIS_CODE":0,"TOWNNAME":"永康區","LI":"網寮里","LIN":"21鄰","STREET":"文化路","SECT":" ","MAREA":" ","LANE":"２４２巷","ALLEY":" ","HOUSE_NO":"３２之９號","E_COORD97":173562.17999999999,"N_COORD97":2546197.79,"ADDRESS":"文化路２４２巷３２之９號","OBJECTID":377827},"geometry":{"x":173562.18000000063,"y":2546197.7899999972}},{"attributes":{"ID":377838,"DIS_CODE":0,"TOWNNAME":"永康區","LI":"網寮里","LIN":"21鄰","STREET":"文化路","SECT":" ","MAREA":" ","LANE":"２４２巷","ALLEY":" ","HOUSE_NO":"２６之７號","E_COORD97":173598.92000000001,"N_COORD97":2546181.0699999998,"ADDRESS":"文化路２４２巷２６之７號","OBJECTID":377828},"geometry":{"x":173598.91999999993,"y":2546181.0700000022}},{"attributes":{"ID":377839,"DIS_CODE":0,"TOWNNAME":"永康區","LI":"網寮里","LIN":"21鄰","STREET":"文化路","SECT":" ","MAREA":" ","LANE":"２４２巷","ALLEY":" ","HOUSE_NO":"１０號","E_COORD97":173577.39999999999,"N_COORD97":2546161.8399999999,"ADDRESS":"文化路２４２巷１０號","OBJECTID":377829},"geometry":{"x":173577.40000000037,"y":2546161.8400000017}},{"attributes":{"ID":377840,"DIS_CODE":0,"TOWNNAME":"永康區","LI":"網寮里","LIN":"21鄰","STREET":"文化路","SECT":" ","MAREA":" ","LANE":"２５２巷","ALLEY":" ","HOUSE_NO":"１０號","E_COORD97":173533.39000000001,"N_COORD97":2546148.9900000002,"ADDRESS":"文化路２５２巷１０號","OBJECTID":377830},"geometry":{"x":173533.3900000006,"y":2546148.9900000002}},{"attributes":{"ID":377841,"DIS_CODE":0,"TOWNNAME":"永康區","LI":"網寮里","LIN":"21鄰","STREET":"文化路","SECT":" ","MAREA":" ","LANE":"２４２巷","ALLEY":" ","HOUSE_NO":"３２之５號","E_COORD97":173562.17999999999,"N_COORD97":2546197.79,"ADDRESS":"文化路２４２巷３２之５號","OBJECTID":377831},"geometry":{"x":173562.18000000063,"y":2546197.7899999972}},{"attributes":{"ID":377842,"DIS_CODE":0,"TOWNNAME":"永康區","LI":"網寮里","LIN":"21鄰","STREET":"文化路","SECT":" ","MAREA":" ","LANE":"２４２巷","ALLEY":" ","HOUSE_NO":"３０之１５號","E_COORD97":173572.53,"N_COORD97":2546192.0299999998,"ADDRESS":"文化路２４２巷３０之１５號","OBJECTID":377832},"geometry":{"x":173572.53000000119,"y":2546192.0299999993}},{"attributes":{"ID":377843,"DIS_CODE":0,"TOWNNAME":"永康區","LI":"網寮里","LIN":"21鄰","STREET":"文化路","SECT":" ","MAREA":" ","LANE":"２４２巷","ALLEY":" ","HOUSE_NO":"３２之１２號","E_COORD97":173563.42999999999,"N_COORD97":2546197.79,"ADDRESS":"文化路２４２巷３２之１２號","OBJECTID":377833},"geometry":{"x":173563.43000000156,"y":2546197.7899999972}},{"attributes":{"ID":377844,"DIS_CODE":0,"TOWNNAME":"永康區","LI":"網寮里","LIN":"21鄰","STREET":"文化路","SECT":" ","MAREA":" ","LANE":"２４２巷","ALLEY":" ","HOUSE_NO":"３０之２號","E_COORD97":173571.28,"N_COORD97":2546192.0299999998,"ADDRESS":"文化路２４２巷３０之２號","OBJECTID":377834},"geometry":{"x":173571.28000000026,"y":2546192.0299999993}},{"attributes":{"ID":377845,"DIS_CODE":0,"TOWNNAME":"永康區","LI":"網寮里","LIN":"21鄰","STREET":"文化路","SECT":" ","MAREA":" ","LANE":"２４２巷","ALLEY":" ","HOUSE_NO":"１６號","E_COORD97":173575.82000000001,"N_COORD97":2546174.5899999999,"ADDRESS":"文化路２４２巷１６號","OBJECTID":377835},"geometry":{"x":173575.82000000123,"y":2546174.5900000017}},{"attributes":{"ID":377846,"DIS_CODE":0,"TOWNNAME":"永康區","LI":"網寮里","LIN":"21鄰","STREET":"文化路","SECT":" ","MAREA":" ","LANE":"２４２巷","ALLEY":" ","HOUSE_NO":"３２之７號","E_COORD97":173562.17999999999,"N_COORD97":2546197.79,"ADDRESS":"文化路２４２巷３２之７號","OBJECTID":377836},"geometry":{"x":173562.18000000063,"y":2546197.7899999972}},{"attributes":{"ID":377847,"DIS_CODE":0,"TOWNNAME":"善化區","LI":"胡厝里","LIN":"21鄰","STREET":"興農路","SECT":" ","MAREA":" ","LANE":"３６１巷","ALLEY":" ","HOUSE_NO":"１８號","E_COORD97":175468.47,"N_COORD97":2558945.0099999998,"ADDRESS":"興農路３６１巷１８號","OBJECTID":377837},"geometry":{"x":175468.46999999974,"y":2558945.0100000035}},{"attributes":{"ID":377848,"DIS_CODE":0,"TOWNNAME":"善化區","LI":"胡厝里","LIN":"21鄰","STREET":"興農路","SECT":" ","MAREA":" ","LANE":"３６１巷","ALLEY":" ","HOUSE_NO":"９號","E_COORD97":175467.35999999999,"N_COORD97":2558978.2599999998,"ADDRESS":"興農路３６１巷９號","OBJECTID":377838},"geometry":{"x":175467.36000000127,"y":2558978.2600000016}},{"attributes":{"ID":377849,"DIS_CODE":0,"TOWNNAME":"善化區","LI":"胡厝里","LIN":"21鄰","STREET":"興農路","SECT":" ","MAREA":" ","LANE":"３６１巷","ALLEY":" ","HOUSE_NO":"１號","E_COORD97":175465.04999999999,"N_COORD97":2558993.0099999998,"ADDRESS":"興農路３６１巷１號","OBJECTID":377839},"geometry":{"x":175465.05000000075,"y":2558993.0100000016}},{"attributes":{"ID":377850,"DIS_CODE":0,"TOWNNAME":"善化區","LI":"胡厝里","LIN":"21鄰","STREET":"興農路","SECT":" ","MAREA":" ","LANE":"３７０巷","ALLEY":" ","HOUSE_NO":"１９號","E_COORD97":175450.35000000001,"N_COORD97":2559088.7599999998,"ADDRESS":"興農路３７０巷１９號","OBJECTID":377840},"geometry":{"x":175450.34999999963,"y":2559088.7599999998}},{"attributes":{"ID":377851,"DIS_CODE":0,"TOWNNAME":"永康區","LI":"崑山里","LIN":"21鄰","STREET":"大仁街","SECT":" ","MAREA":" ","LANE":"５１巷","ALLEY":" ","HOUSE_NO":"１１號","E_COORD97":173732.17000000001,"N_COORD97":2544662.29,"ADDRESS":"大仁街５１巷１１號","OBJECTID":377841},"geometry":{"x":173732.17000000086,"y":2544662.2900000028}},{"attributes":{"ID":377852,"DIS_CODE":0,"TOWNNAME":"永康區","LI":"安康里","LIN":"21鄰","STREET":"中華路","SECT":" ","MAREA":" ","LANE":"６６１巷","ALLEY":" ","HOUSE_NO":"８號","E_COORD97":170953.04000000001,"N_COORD97":2546209.5,"ADDRESS":"中華路６６１巷８號","OBJECTID":377842},"geometry":{"x":170953.04000000097,"y":2546209.5}},{"attributes":{"ID":377853,"DIS_CODE":0,"TOWNNAME":"新市區","LI":"新市里","LIN":"21鄰","STREET":"和平街","SECT":" ","MAREA":" ","LANE":"５０巷","ALLEY":" ","HOUSE_NO":"７號","E_COORD97":177665.28,"N_COORD97":2553482,"ADDRESS":"和平街５０巷７號","OBJECTID":377843},"geometry":{"x":177665.28000000026,"y":2553482}},{"attributes":{"ID":377854,"DIS_CODE":0,"TOWNNAME":"新市區","LI":"新市里","LIN":"21鄰","STREET":"和平街","SECT":" ","MAREA":" ","LANE":"３２巷","ALLEY":" ","HOUSE_NO":"４號","E_COORD97":177712.45000000001,"N_COORD97":2553483.75,"ADDRESS":"和平街３２巷４號","OBJECTID":377844},"geometry":{"x":177712.45000000112,"y":2553483.75}},{"attributes":{"ID":377855,"DIS_CODE":0,"TOWNNAME":"新市區","LI":"港墘里","LIN":"21鄰","STREET":"南昌街","SECT":" ","MAREA":" ","LANE":"１１巷","ALLEY":" ","HOUSE_NO":"９號","E_COORD97":177969.82000000001,"N_COORD97":2552776.5,"ADDRESS":"南昌街１１巷９號","OBJECTID":377845},"geometry":{"x":177969.8200000003,"y":2552776.5000000019}},{"attributes":{"ID":377856,"DIS_CODE":0,"TOWNNAME":"仁德區","LI":"仁德里","LIN":"21鄰","STREET":"文華路","SECT":"三段","MAREA":" ","LANE":"４６７巷","ALLEY":" ","HOUSE_NO":"１號","E_COORD97":172396.20000000001,"N_COORD97":2541294.0699999998,"ADDRESS":"文華路三段４６７巷１號","OBJECTID":377846},"geometry":{"x":172396.20000000112,"y":2541294.0700000003}},{"attributes":{"ID":377857,"DIS_CODE":0,"TOWNNAME":"仁德區","LI":"仁德里","LIN":"21鄰","STREET":"文華路","SECT":"三段","MAREA":" ","LANE":"４６７巷","ALLEY":" ","HOUSE_NO":"４號","E_COORD97":172396.82999999999,"N_COORD97":2541313.3199999998,"ADDRESS":"文華路三段４６７巷４號","OBJECTID":377847},"geometry":{"x":172396.83000000101,"y":2541313.3199999984}},{"attributes":{"ID":377858,"DIS_CODE":0,"TOWNNAME":"仁德區","LI":"太子里","LIN":"21鄰","STREET":"長興四街","SECT":" ","MAREA":" ","LANE":"７４巷","ALLEY":" ","HOUSE_NO":"１４號","E_COORD97":173924.23000000001,"N_COORD97":2543646.0099999998,"ADDRESS":"長興四街７４巷１４號","OBJECTID":377848},"geometry":{"x":173924.23000000045,"y":2543646.0099999998}},{"attributes":{"ID":377859,"DIS_CODE":0,"TOWNNAME":"仁德區","LI":"仁德里","LIN":"21鄰","STREET":"文華路","SECT":"三段","MAREA":" ","LANE":"４６７巷","ALLEY":" ","HOUSE_NO":"９號","E_COORD97":172379.73999999999,"N_COORD97":2541297.8199999998,"ADDRESS":"文華路三段４６７巷９號","OBJECTID":377849},"geometry":{"x":172379.74000000022,"y":2541297.8200000022}},{"attributes":{"ID":377860,"DIS_CODE":0,"TOWNNAME":"東區","LI":"崇德里","LIN":"8鄰","STREET":"崇德七街","SECT":" ","MAREA":" ","LANE":"３０巷","ALLEY":" ","HOUSE_NO":"１號","E_COORD97":170869.10000000001,"N_COORD97":2541819.0099999998,"ADDRESS":"崇德七街３０巷１號","OBJECTID":377850},"geometry":{"x":170869.10000000056,"y":2541819.0099999998}},{"attributes":{"ID":377861,"DIS_CODE":0,"TOWNNAME":"東區","LI":"小東里","LIN":"12鄰","STREET":"光明街","SECT":" ","MAREA":" ","LANE":"６０巷","ALLEY":" ","HOUSE_NO":"２５號","E_COORD97":170813.56,"N_COORD97":2544253.1200000001,"ADDRESS":"光明街６０巷２５號","OBJECTID":377851},"geometry":{"x":170813.56000000052,"y":2544253.1200000029}},{"attributes":{"ID":377862,"DIS_CODE":0,"TOWNNAME":"東區","LI":"小東里","LIN":"12鄰","STREET":"光明街","SECT":" ","MAREA":" ","LANE":"６０巷","ALLEY":" ","HOUSE_NO":"２９號","E_COORD97":170805.85999999999,"N_COORD97":2544252.2999999998,"ADDRESS":"光明街６０巷２９號","OBJECTID":377852},"geometry":{"x":170805.86000000034,"y":2544252.3000000007}},{"attributes":{"ID":377863,"DIS_CODE":0,"TOWNNAME":"東區","LI":"小東里","LIN":"12鄰","STREET":"光明街","SECT":" ","MAREA":" ","LANE":"６０巷","ALLEY":" ","HOUSE_NO":"２７號","E_COORD97":170810.03,"N_COORD97":2544252.6600000001,"ADDRESS":"光明街６０巷２７號","OBJECTID":377853},"geometry":{"x":170810.03000000026,"y":2544252.6600000001}},{"attributes":{"ID":377864,"DIS_CODE":0,"TOWNNAME":"東區","LI":"崇學里","LIN":"12鄰","STREET":"崇明十街","SECT":" ","MAREA":" ","LANE":"７０巷","ALLEY":" ","HOUSE_NO":"２號","E_COORD97":170212.03,"N_COORD97":2541869.3999999999,"ADDRESS":"崇明十街７０巷２號","OBJECTID":377854},"geometry":{"x":170212.03000000212,"y":2541869.4000000022}},{"attributes":{"ID":377865,"DIS_CODE":0,"TOWNNAME":"永康區","LI":"正強里","LIN":"21鄰","STREET":"中正路","SECT":" ","MAREA":" ","LANE":"１０５巷","ALLEY":" ","HOUSE_NO":"１號","E_COORD97":173476.22,"N_COORD97":2547834.6000000001,"ADDRESS":"中正路１０５巷１號","OBJECTID":377855},"geometry":{"x":173476.21999999974,"y":2547834.6000000015}},{"attributes":{"ID":377866,"DIS_CODE":0,"TOWNNAME":"仁德區","LI":"保安里","LIN":"21鄰","STREET":"文賢一街","SECT":" ","MAREA":" ","LANE":"１巷","ALLEY":" ","HOUSE_NO":"１６號","E_COORD97":171093.62,"N_COORD97":2536670.5800000001,"ADDRESS":"文賢一街１巷１６號","OBJECTID":377856},"geometry":{"x":171093.62000000011,"y":2536670.5800000019}},{"attributes":{"ID":377867,"DIS_CODE":0,"TOWNNAME":"仁德區","LI":"太子里","LIN":"21鄰","STREET":"長興路","SECT":" ","MAREA":" ","LANE":"８７巷","ALLEY":" ","HOUSE_NO":"７２號","E_COORD97":173834.22,"N_COORD97":2543753.2599999998,"ADDRESS":"長興路８７巷７２號","OBJECTID":377857},"geometry":{"x":173834.21999999974,"y":2543753.2599999998}},{"attributes":{"ID":377868,"DIS_CODE":0,"TOWNNAME":"仁德區","LI":"後壁里","LIN":"21鄰","STREET":"中正路","SECT":"二段","MAREA":" ","LANE":"９７巷","ALLEY":" ","HOUSE_NO":"２６號","E_COORD97":173161.07000000001,"N_COORD97":2538586.52,"ADDRESS":"中正路二段９７巷２６號","OBJECTID":377858},"geometry":{"x":173161.0700000003,"y":2538586.5200000014}},{"attributes":{"ID":377869,"DIS_CODE":0,"TOWNNAME":"仁德區","LI":"後壁里","LIN":"21鄰","STREET":"中正路","SECT":"二段","MAREA":" ","LANE":"９７巷","ALLEY":" ","HOUSE_NO":"５０號","E_COORD97":173129.82000000001,"N_COORD97":2538543.5299999998,"ADDRESS":"中正路二段９７巷５０號","OBJECTID":377859},"geometry":{"x":173129.82000000123,"y":2538543.5299999993}},{"attributes":{"ID":377870,"DIS_CODE":0,"TOWNNAME":"仁德區","LI":"保安里","LIN":"21鄰","STREET":"文賢一街","SECT":" ","MAREA":" ","LANE":"１巷","ALLEY":" ","HOUSE_NO":"２０號","E_COORD97":171093.91,"N_COORD97":2536662.0699999998,"ADDRESS":"文賢一街１巷２０號","OBJECTID":377860},"geometry":{"x":171093.91000000015,"y":2536662.0700000003}},{"attributes":{"ID":377871,"DIS_CODE":0,"TOWNNAME":"仁德區","LI":"後壁里","LIN":"21鄰","STREET":"中正路","SECT":"二段","MAREA":" ","LANE":"９７巷","ALLEY":" ","HOUSE_NO":"１６號","E_COORD97":173151.91,"N_COORD97":2538548.5299999998,"ADDRESS":"中正路二段９７巷１６號","OBJECTID":377861},"geometry":{"x":173151.91000000015,"y":2538548.5300000012}},{"attributes":{"ID":377872,"DIS_CODE":0,"TOWNNAME":"仁德區","LI":"後壁里","LIN":"21鄰","STREET":"中正路","SECT":"二段","MAREA":" ","LANE":"９７巷","ALLEY":" ","HOUSE_NO":"３０號","E_COORD97":173156.70999999999,"N_COORD97":2538579.0299999998,"ADDRESS":"中正路二段９７巷３０號","OBJECTID":377862},"geometry":{"x":173156.71000000183,"y":2538579.0300000012}},{"attributes":{"ID":377873,"DIS_CODE":0,"TOWNNAME":"仁德區","LI":"後壁里","LIN":"21鄰","STREET":"中正路","SECT":"二段","MAREA":" ","LANE":"９７巷","ALLEY":" ","HOUSE_NO":"３２號","E_COORD97":173153.82999999999,"N_COORD97":2538575.0299999998,"ADDRESS":"中正路二段９７巷３２號","OBJECTID":377863},"geometry":{"x":173153.83000000007,"y":2538575.0300000031}},{"attributes":{"ID":377874,"DIS_CODE":0,"TOWNNAME":"仁德區","LI":"太子里","LIN":"21鄰","STREET":"長興路","SECT":" ","MAREA":" ","LANE":"８７巷","ALLEY":" ","HOUSE_NO":"５９號","E_COORD97":173890.26999999999,"N_COORD97":2543743.2599999998,"ADDRESS":"長興路８７巷５９號","OBJECTID":377864},"geometry":{"x":173890.27000000048,"y":2543743.2599999998}},{"attributes":{"ID":377875,"DIS_CODE":0,"TOWNNAME":"仁德區","LI":"後壁里","LIN":"21鄰","STREET":"中正路","SECT":"二段","MAREA":" ","LANE":"９７巷","ALLEY":" ","HOUSE_NO":"２號","E_COORD97":173138.03,"N_COORD97":2538509.77,"ADDRESS":"中正路二段９７巷２號","OBJECTID":377865},"geometry":{"x":173138.03000000212,"y":2538509.7700000014}},{"attributes":{"ID":377876,"DIS_CODE":0,"TOWNNAME":"仁德區","LI":"後壁里","LIN":"21鄰","STREET":"中正路","SECT":"二段","MAREA":" ","LANE":"９７巷","ALLEY":" ","HOUSE_NO":"１９號","E_COORD97":173093.56,"N_COORD97":2538534.2799999998,"ADDRESS":"中正路二段９７巷１９號","OBJECTID":377866},"geometry":{"x":173093.56000000052,"y":2538534.2800000012}},{"attributes":{"ID":377877,"DIS_CODE":0,"TOWNNAME":"仁德區","LI":"後壁里","LIN":"21鄰","STREET":"中正路","SECT":"二段","MAREA":" ","LANE":"９７巷","ALLEY":" ","HOUSE_NO":"１５號","E_COORD97":173099.62,"N_COORD97":2538528.77,"ADDRESS":"中正路二段９７巷１５號","OBJECTID":377867},"geometry":{"x":173099.62000000011,"y":2538528.7699999996}},{"attributes":{"ID":377878,"DIS_CODE":0,"TOWNNAME":"仁德區","LI":"後壁里","LIN":"21鄰","STREET":"中正路","SECT":"二段","MAREA":" ","LANE":"９７巷","ALLEY":" ","HOUSE_NO":"２４號","E_COORD97":173162.85000000001,"N_COORD97":2538562.0299999998,"ADDRESS":"中正路二段９７巷２４號","OBJECTID":377868},"geometry":{"x":173162.85000000056,"y":2538562.0300000012}},{"attributes":{"ID":377879,"DIS_CODE":0,"TOWNNAME":"仁德區","LI":"後壁里","LIN":"21鄰","STREET":"中正路","SECT":"二段","MAREA":" ","LANE":"９７巷","ALLEY":" ","HOUSE_NO":"３６號","E_COORD97":173148.98999999999,"N_COORD97":2538568.2799999998,"ADDRESS":"中正路二段９７巷３６號","OBJECTID":377869},"geometry":{"x":173148.99000000115,"y":2538568.2799999993}},{"attributes":{"ID":377880,"DIS_CODE":0,"TOWNNAME":"仁德區","LI":"後壁里","LIN":"21鄰","STREET":"中正路","SECT":"二段","MAREA":" ","LANE":"９７巷","ALLEY":" ","HOUSE_NO":"８號","E_COORD97":173128.38,"N_COORD97":2538518.02,"ADDRESS":"中正路二段９７巷８號","OBJECTID":377870},"geometry":{"x":173128.38000000175,"y":2538518.0200000014}},{"attributes":{"ID":377881,"DIS_CODE":0,"TOWNNAME":"仁德區","LI":"後壁里","LIN":"21鄰","STREET":"中正路","SECT":"二段","MAREA":" ","LANE":"９７巷","ALLEY":" ","HOUSE_NO":"４６號","E_COORD97":173135.48999999999,"N_COORD97":2538551.0299999998,"ADDRESS":"中正路二段９７巷４６號","OBJECTID":377871},"geometry":{"x":173135.49000000115,"y":2538551.0299999975}},{"attributes":{"ID":377882,"DIS_CODE":0,"TOWNNAME":"仁德區","LI":"後壁里","LIN":"21鄰","STREET":"中正路","SECT":"二段","MAREA":" ","LANE":"９７巷","ALLEY":" ","HOUSE_NO":"６號","E_COORD97":173131.34,"N_COORD97":2538515.52,"ADDRESS":"中正路二段９７巷６號","OBJECTID":377872},"geometry":{"x":173131.33999999985,"y":2538515.5200000014}},{"attributes":{"ID":377883,"DIS_CODE":0,"TOWNNAME":"仁德區","LI":"後壁里","LIN":"21鄰","STREET":"中正路","SECT":"二段","MAREA":" ","LANE":"９７巷","ALLEY":" ","HOUSE_NO":"２９號","E_COORD97":173077.34,"N_COORD97":2538548.5299999998,"ADDRESS":"中正路二段９７巷２９號","OBJECTID":377873},"geometry":{"x":173077.33999999985,"y":2538548.5300000012}},{"attributes":{"ID":377884,"DIS_CODE":0,"TOWNNAME":"仁德區","LI":"後壁里","LIN":"21鄰","STREET":"中正路","SECT":"二段","MAREA":" ","LANE":"９７巷","ALLEY":" ","HOUSE_NO":"２８號","E_COORD97":173159.37,"N_COORD97":2538582.0299999998,"ADDRESS":"中正路二段９７巷２８號","OBJECTID":377874},"geometry":{"x":173159.37000000104,"y":2538582.0300000031}},{"attributes":{"ID":377885,"DIS_CODE":0,"TOWNNAME":"新市區","LI":"港墘里","LIN":"21鄰","STREET":"南昌街","SECT":" ","MAREA":" ","LANE":"１１巷","ALLEY":" ","HOUSE_NO":"７號","E_COORD97":177975.20999999999,"N_COORD97":2552776.75,"ADDRESS":"南昌街１１巷７號","OBJECTID":377875},"geometry":{"x":177975.21000000089,"y":2552776.7500000037}},{"attributes":{"ID":377886,"DIS_CODE":0,"TOWNNAME":"新市區","LI":"港墘里","LIN":"21鄰","STREET":"南昌街","SECT":" ","MAREA":" ","LANE":"１１巷","ALLEY":" ","HOUSE_NO":"１３號","E_COORD97":177961.51999999999,"N_COORD97":2552775.5,"ADDRESS":"南昌街１１巷１３號","OBJECTID":377876},"geometry":{"x":177961.51999999955,"y":2552775.5000000019}},{"attributes":{"ID":377887,"DIS_CODE":0,"TOWNNAME":"永康區","LI":"北灣里","LIN":"21鄰","STREET":"大同街","SECT":" ","MAREA":" ","LANE":"３８０巷","ALLEY":" ","HOUSE_NO":"６３號","E_COORD97":174890.54000000001,"N_COORD97":2546002.5,"ADDRESS":"大同街３８０巷６３號","OBJECTID":377877},"geometry":{"x":174890.5400000019,"y":2546002.5000000019}},{"attributes":{"ID":377888,"DIS_CODE":0,"TOWNNAME":"東區","LI":"裕農里","LIN":"11鄰","STREET":"東寧路","SECT":" ","MAREA":" ","LANE":"５１２巷","ALLEY":" ","HOUSE_NO":"１０號","E_COORD97":171119.5,"N_COORD97":2543241.9100000001,"ADDRESS":"東寧路５１２巷１０號","OBJECTID":377878},"geometry":{"x":171119.50000000093,"y":2543241.9100000039}},{"attributes":{"ID":377889,"DIS_CODE":0,"TOWNNAME":"東區","LI":"裕農里","LIN":"11鄰","STREET":"東寧路","SECT":" ","MAREA":" ","LANE":"５１２巷","ALLEY":" ","HOUSE_NO":"１２號","E_COORD97":171112.56,"N_COORD97":2543241.9100000001,"ADDRESS":"東寧路５１２巷１２號","OBJECTID":377879},"geometry":{"x":171112.55999999959,"y":2543241.9100000039}},{"attributes":{"ID":377890,"DIS_CODE":0,"TOWNNAME":"永康區","LI":"北灣里","LIN":"21鄰","STREET":"大灣路","SECT":" ","MAREA":" ","LANE":"４０巷","ALLEY":" ","HOUSE_NO":"１２１號","E_COORD97":174948.85999999999,"N_COORD97":2546189.2200000002,"ADDRESS":"大灣路４０巷１２１號","OBJECTID":377880},"geometry":{"x":174948.86000000034,"y":2546189.2200000007}},{"attributes":{"ID":377891,"DIS_CODE":0,"TOWNNAME":"永康區","LI":"北灣里","LIN":"21鄰","STREET":"大灣路","SECT":" ","MAREA":" ","LANE":"４０巷","ALLEY":" ","HOUSE_NO":"１１５號","E_COORD97":174951.13,"N_COORD97":2546176.48,"ADDRESS":"大灣路４０巷１１５號","OBJECTID":377881},"geometry":{"x":174951.13000000082,"y":2546176.4800000004}},{"attributes":{"ID":377892,"DIS_CODE":0,"TOWNNAME":"新市區","LI":"新市里","LIN":"21鄰","STREET":"和平街","SECT":" ","MAREA":" ","LANE":"３２巷","ALLEY":" ","HOUSE_NO":"２號","E_COORD97":177713.64000000001,"N_COORD97":2553479.25,"ADDRESS":"和平街３２巷２號","OBJECTID":377882},"geometry":{"x":177713.64000000153,"y":2553479.2500000019}},{"attributes":{"ID":377893,"DIS_CODE":0,"TOWNNAME":"新市區","LI":"港墘里","LIN":"21鄰","STREET":"南昌街","SECT":" ","MAREA":" ","LANE":"１１巷","ALLEY":" ","HOUSE_NO":"１１號","E_COORD97":177966.42999999999,"N_COORD97":2552776,"ADDRESS":"南昌街１１巷１１號","OBJECTID":377883},"geometry":{"x":177966.43000000063,"y":2552776.0000000019}},{"attributes":{"ID":377894,"DIS_CODE":0,"TOWNNAME":"東區","LI":"圍下里","LIN":"21鄰","STREET":"前鋒路","SECT":" ","MAREA":" ","LANE":"１１５巷","ALLEY":" ","HOUSE_NO":"３號","E_COORD97":169299.82000000001,"N_COORD97":2543750.6699999999,"ADDRESS":"前鋒路１１５巷３號","OBJECTID":377884},"geometry":{"x":169299.82000000216,"y":2543750.6699999999}},{"attributes":{"ID":377895,"DIS_CODE":0,"TOWNNAME":"永康區","LI":"網寮里","LIN":"21鄰","STREET":"文化路","SECT":" ","MAREA":" ","LANE":"２４２巷","ALLEY":" ","HOUSE_NO":"１號","E_COORD97":173565.79000000001,"N_COORD97":2546139.0099999998,"ADDRESS":"文化路２４２巷１號","OBJECTID":377885},"geometry":{"x":173565.79000000004,"y":2546139.0099999998}},{"attributes":{"ID":377896,"DIS_CODE":0,"TOWNNAME":"東區","LI":"裕農里","LIN":"26鄰","STREET":"東寧路","SECT":" ","MAREA":" ","LANE":"５１０巷","ALLEY":" ","HOUSE_NO":"８５號","E_COORD97":170992.98000000001,"N_COORD97":2543227.0699999998,"ADDRESS":"東寧路５１０巷８５號","OBJECTID":377886},"geometry":{"x":170992.98000000138,"y":2543227.0700000003}},{"attributes":{"ID":377897,"DIS_CODE":0,"TOWNNAME":"東區","LI":"裕農里","LIN":"26鄰","STREET":"東寧路","SECT":" ","MAREA":" ","LANE":"５１０巷","ALLEY":" ","HOUSE_NO":"７１號","E_COORD97":170989.01999999999,"N_COORD97":2543258.4100000001,"ADDRESS":"東寧路５１０巷７１號","OBJECTID":377887},"geometry":{"x":170989.01999999955,"y":2543258.4100000001}},{"attributes":{"ID":377898,"DIS_CODE":0,"TOWNNAME":"東區","LI":"崇誨里","LIN":"30鄰","STREET":"東寧路","SECT":" ","MAREA":" ","LANE":"２９６巷","ALLEY":" ","HOUSE_NO":"１３號","E_COORD97":170763.39000000001,"N_COORD97":2543381.9199999999,"ADDRESS":"東寧路２９６巷１３號","OBJECTID":377888},"geometry":{"x":170763.39000000153,"y":2543381.9200000018}},{"attributes":{"ID":377899,"DIS_CODE":0,"TOWNNAME":"東區","LI":"崇誨里","LIN":"30鄰","STREET":"東寧路","SECT":" ","MAREA":" ","LANE":"２９６巷","ALLEY":" ","HOUSE_NO":"１５號","E_COORD97":170767.06,"N_COORD97":2543381.4700000002,"ADDRESS":"東寧路２９６巷１５號","OBJECTID":377889},"geometry":{"x":170767.06000000145,"y":2543381.4700000025}},{"attributes":{"ID":377900,"DIS_CODE":0,"TOWNNAME":"東區","LI":"崇誨里","LIN":"30鄰","STREET":"東寧路","SECT":" ","MAREA":" ","LANE":"２９６巷","ALLEY":" ","HOUSE_NO":"１７號","E_COORD97":170771.53,"N_COORD97":2543381.29,"ADDRESS":"東寧路２９６巷１７號","OBJECTID":377890},"geometry":{"x":170771.53000000212,"y":2543381.290000001}},{"attributes":{"ID":377901,"DIS_CODE":0,"TOWNNAME":"東區","LI":"崇誨里","LIN":"30鄰","STREET":"東寧路","SECT":" ","MAREA":" ","LANE":"２９６巷","ALLEY":" ","HOUSE_NO":"１１號","E_COORD97":170759.45000000001,"N_COORD97":2543381.4700000002,"ADDRESS":"東寧路２９６巷１１號","OBJECTID":377891},"geometry":{"x":170759.45000000019,"y":2543381.4700000025}},{"attributes":{"ID":377902,"DIS_CODE":0,"TOWNNAME":"東區","LI":"崇誨里","LIN":"30鄰","STREET":"東寧路","SECT":" ","MAREA":" ","LANE":"２９６巷","ALLEY":" ","HOUSE_NO":"１９號","E_COORD97":170777.62,"N_COORD97":2543381.02,"ADDRESS":"東寧路２９６巷１９號","OBJECTID":377892},"geometry":{"x":170777.62000000104,"y":2543381.0200000014}},{"attributes":{"ID":377903,"DIS_CODE":0,"TOWNNAME":"東區","LI":"裕農里","LIN":"11鄰","STREET":"東寧路","SECT":" ","MAREA":" ","LANE":"５１２巷","ALLEY":" ","HOUSE_NO":"３８號","E_COORD97":171130.07000000001,"N_COORD97":2543223.1099999999,"ADDRESS":"東寧路５１２巷３８號","OBJECTID":377893},"geometry":{"x":171130.0700000003,"y":2543223.1100000013}},{"attributes":{"ID":377904,"DIS_CODE":0,"TOWNNAME":"東區","LI":"後甲里","LIN":"15鄰","STREET":"裕農路","SECT":" ","MAREA":" ","LANE":"６２１巷","ALLEY":" ","HOUSE_NO":"５５號之５","E_COORD97":171489.45999999999,"N_COORD97":2543427.6600000001,"ADDRESS":"裕農路６２１巷５５號之５","OBJECTID":377894},"geometry":{"x":171489.46000000089,"y":2543427.660000002}},{"attributes":{"ID":377905,"DIS_CODE":0,"TOWNNAME":"安南區","LI":"州北里","LIN":"21鄰","STREET":"北安路","SECT":"四段","MAREA":" ","LANE":"６００巷","ALLEY":" ","HOUSE_NO":"１０號","E_COORD97":169616.69,"N_COORD97":2552037.9700000002,"ADDRESS":"北安路四段６００巷１０號","OBJECTID":377895},"geometry":{"x":169616.69000000134,"y":2552037.9700000025}},{"attributes":{"ID":377906,"DIS_CODE":0,"TOWNNAME":"安南區","LI":"州北里","LIN":"21鄰","STREET":"北安路","SECT":"四段","MAREA":" ","LANE":"６００巷","ALLEY":" ","HOUSE_NO":"１２號","E_COORD97":169621.75,"N_COORD97":2552038.2999999998,"ADDRESS":"北安路四段６００巷１２號","OBJECTID":377896},"geometry":{"x":169621.75,"y":2552038.3000000026}},{"attributes":{"ID":377907,"DIS_CODE":0,"TOWNNAME":"安南區","LI":"州北里","LIN":"21鄰","STREET":"北安路","SECT":"四段","MAREA":" ","LANE":"６００巷","ALLEY":" ","HOUSE_NO":"３號","E_COORD97":169605.07999999999,"N_COORD97":2552068.1200000001,"ADDRESS":"北安路四段６００巷３號","OBJECTID":377897},"geometry":{"x":169605.08000000101,"y":2552068.1200000029}},{"attributes":{"ID":377908,"DIS_CODE":0,"TOWNNAME":"安南區","LI":"州北里","LIN":"21鄰","STREET":"北安路","SECT":"四段","MAREA":" ","LANE":"６００巷","ALLEY":" ","HOUSE_NO":"４號","E_COORD97":169600.47,"N_COORD97":2552032.4100000001,"ADDRESS":"北安路四段６００巷４號","OBJECTID":377898},"geometry":{"x":169600.47000000067,"y":2552032.4100000001}},{"attributes":{"ID":377909,"DIS_CODE":0,"TOWNNAME":"安南區","LI":"州北里","LIN":"21鄰","STREET":"北安路","SECT":"四段","MAREA":" ","LANE":"６００巷","ALLEY":" ","HOUSE_NO":"５號","E_COORD97":169609.70000000001,"N_COORD97":2552068.21,"ADDRESS":"北安路四段６００巷５號","OBJECTID":377899},"geometry":{"x":169609.70000000112,"y":2552068.2100000009}},{"attributes":{"ID":377910,"DIS_CODE":0,"TOWNNAME":"安南區","LI":"州北里","LIN":"21鄰","STREET":"北安路","SECT":"四段","MAREA":" ","LANE":"６００巷","ALLEY":" ","HOUSE_NO":"６號","E_COORD97":169606.66,"N_COORD97":2552033.77,"ADDRESS":"北安路四段６００巷６號","OBJECTID":377900},"geometry":{"x":169606.66000000108,"y":2552033.7700000014}},{"attributes":{"ID":377911,"DIS_CODE":0,"TOWNNAME":"安南區","LI":"州北里","LIN":"21鄰","STREET":"北安路","SECT":"四段","MAREA":" ","LANE":"６００巷","ALLEY":" ","HOUSE_NO":"７號","E_COORD97":169614.98000000001,"N_COORD97":2552068.8700000001,"ADDRESS":"北安路四段６００巷７號","OBJECTID":377901},"geometry":{"x":169614.98000000138,"y":2552068.8700000029}},{"attributes":{"ID":377912,"DIS_CODE":0,"TOWNNAME":"安南區","LI":"州北里","LIN":"21鄰","STREET":"北安路","SECT":"四段","MAREA":" ","LANE":"６００巷","ALLEY":" ","HOUSE_NO":"８號","E_COORD97":169611.84,"N_COORD97":2552034.5,"ADDRESS":"北安路四段６００巷８號","OBJECTID":377902},"geometry":{"x":169611.84000000078,"y":2552034.5}},{"attributes":{"ID":377913,"DIS_CODE":0,"TOWNNAME":"安南區","LI":"州北里","LIN":"21鄰","STREET":"安和路","SECT":"五段","MAREA":" ","LANE":"２６９巷","ALLEY":" ","HOUSE_NO":"２０號","E_COORD97":169616.73000000001,"N_COORD97":2551995.5,"ADDRESS":"安和路五段２６９巷２０號","OBJECTID":377903},"geometry":{"x":169616.73000000045,"y":2551995.5000000019}},{"attributes":{"ID":377914,"DIS_CODE":0,"TOWNNAME":"安南區","LI":"州北里","LIN":"21鄰","STREET":"安和路","SECT":"五段","MAREA":" ","LANE":"２６９巷","ALLEY":" ","HOUSE_NO":"１６號","E_COORD97":169637.82999999999,"N_COORD97":2552003.3100000001,"ADDRESS":"安和路五段２６９巷１６號","OBJECTID":377904},"geometry":{"x":169637.83000000007,"y":2552003.3100000005}},{"attributes":{"ID":377915,"DIS_CODE":0,"TOWNNAME":"安南區","LI":"州北里","LIN":"21鄰","STREET":"安和路","SECT":"五段","MAREA":" ","LANE":"２６９巷","ALLEY":" ","HOUSE_NO":"１８號","E_COORD97":169631.82999999999,"N_COORD97":2552000.9700000002,"ADDRESS":"安和路五段２６９巷１８號","OBJECTID":377905},"geometry":{"x":169631.83000000194,"y":2552000.9700000025}},{"attributes":{"ID":377916,"DIS_CODE":0,"TOWNNAME":"安南區","LI":"州北里","LIN":"21鄰","STREET":"安和路","SECT":"五段","MAREA":" ","LANE":"２６９巷","ALLEY":" ","HOUSE_NO":"２２號","E_COORD97":169606.5,"N_COORD97":2551991.8599999999,"ADDRESS":"安和路五段２６９巷２２號","OBJECTID":377906},"geometry":{"x":169606.5,"y":2551991.8600000031}},{"attributes":{"ID":377917,"DIS_CODE":0,"TOWNNAME":"安南區","LI":"州北里","LIN":"21鄰","STREET":"安和路","SECT":"五段","MAREA":" ","LANE":"２６９巷","ALLEY":" ","HOUSE_NO":"２４號","E_COORD97":169599.37,"N_COORD97":2551989.0299999998,"ADDRESS":"安和路五段２６９巷２４號","OBJECTID":377907},"geometry":{"x":169599.37000000197,"y":2551989.0299999993}},{"attributes":{"ID":377918,"DIS_CODE":0,"TOWNNAME":"安南區","LI":"州北里","LIN":"21鄰","STREET":"安和路","SECT":"五段","MAREA":" ","LANE":"２６９巷","ALLEY":" ","HOUSE_NO":"２６號","E_COORD97":169593.89999999999,"N_COORD97":2551986.7000000002,"ADDRESS":"安和路五段２６９巷２６號","OBJECTID":377908},"geometry":{"x":169593.90000000037,"y":2551986.7000000011}},{"attributes":{"ID":377919,"DIS_CODE":0,"TOWNNAME":"安南區","LI":"州北里","LIN":"21鄰","STREET":"安和路","SECT":"五段","MAREA":" ","LANE":"２６９巷","ALLEY":" ","HOUSE_NO":"２８號","E_COORD97":169588.82000000001,"N_COORD97":2551984.9700000002,"ADDRESS":"安和路五段２６９巷２８號","OBJECTID":377909},"geometry":{"x":169588.8200000003,"y":2551984.9700000007}},{"attributes":{"ID":377920,"DIS_CODE":0,"TOWNNAME":"安南區","LI":"州北里","LIN":"21鄰","STREET":"安和路","SECT":"五段","MAREA":" ","LANE":"２６９巷","ALLEY":" ","HOUSE_NO":"３０號","E_COORD97":169584.28,"N_COORD97":2551982.9300000002,"ADDRESS":"安和路五段２６９巷３０號","OBJECTID":377910},"geometry":{"x":169584.28000000026,"y":2551982.9300000016}},{"attributes":{"ID":377921,"DIS_CODE":0,"TOWNNAME":"安南區","LI":"州北里","LIN":"21鄰","STREET":"安和路","SECT":"五段","MAREA":" ","LANE":"２６９巷","ALLEY":" ","HOUSE_NO":"３２號","E_COORD97":169579.69,"N_COORD97":2551980.6699999999,"ADDRESS":"安和路五段２６９巷３２號","OBJECTID":377911},"geometry":{"x":169579.69000000041,"y":2551980.6700000018}},{"attributes":{"ID":377922,"DIS_CODE":0,"TOWNNAME":"安南區","LI":"州北里","LIN":"21鄰","STREET":"安和路","SECT":"五段","MAREA":" ","LANE":"２６９巷","ALLEY":" ","HOUSE_NO":"６號","E_COORD97":169665.60000000001,"N_COORD97":2552018.0099999998,"ADDRESS":"安和路五段２６９巷６號","OBJECTID":377912},"geometry":{"x":169665.60000000056,"y":2552018.0099999998}},{"attributes":{"ID":377923,"DIS_CODE":0,"TOWNNAME":"安南區","LI":"州北里","LIN":"21鄰","STREET":"安和路","SECT":"五段","MAREA":" ","LANE":"２６９巷","ALLEY":" ","HOUSE_NO":"８號","E_COORD97":169659.42999999999,"N_COORD97":2552014.9300000002,"ADDRESS":"安和路五段２６９巷８號","OBJECTID":377913},"geometry":{"x":169659.43000000156,"y":2552014.9299999997}},{"attributes":{"ID":377924,"DIS_CODE":0,"TOWNNAME":"永康區","LI":"東橋里","LIN":"21鄰","STREET":"自強路","SECT":" ","MAREA":" ","LANE":"１４０巷","ALLEY":" ","HOUSE_NO":"２９號","E_COORD97":173022.63,"N_COORD97":2547234.8599999999,"ADDRESS":"自強路１４０巷２９號","OBJECTID":377914},"geometry":{"x":173022.62999999989,"y":2547234.8599999994}},{"attributes":{"ID":377925,"DIS_CODE":0,"TOWNNAME":"永康區","LI":"東橋里","LIN":"21鄰","STREET":"自強路","SECT":" ","MAREA":" ","LANE":"１１８巷","ALLEY":" ","HOUSE_NO":"７號","E_COORD97":172908.64000000001,"N_COORD97":2547315.4900000002,"ADDRESS":"自強路１１８巷７號","OBJECTID":377915},"geometry":{"x":172908.63999999966,"y":2547315.4900000002}},{"attributes":{"ID":377926,"DIS_CODE":0,"TOWNNAME":"永康區","LI":"網寮里","LIN":"21鄰","STREET":"文化路","SECT":" ","MAREA":" ","LANE":"２４２巷","ALLEY":" ","HOUSE_NO":"２６之２號","E_COORD97":173598.92000000001,"N_COORD97":2546181.0699999998,"ADDRESS":"文化路２４２巷２６之２號","OBJECTID":377916},"geometry":{"x":173598.91999999993,"y":2546181.0700000022}},{"attributes":{"ID":377927,"DIS_CODE":0,"TOWNNAME":"永康區","LI":"東橋里","LIN":"21鄰","STREET":"自強路","SECT":" ","MAREA":" ","LANE":"１４０巷","ALLEY":" ","HOUSE_NO":"９號","E_COORD97":173006.73999999999,"N_COORD97":2547290.1000000001,"ADDRESS":"自強路１４０巷９號","OBJECTID":377917},"geometry":{"x":173006.74000000115,"y":2547290.0999999996}},{"attributes":{"ID":377928,"DIS_CODE":0,"TOWNNAME":"東區","LI":"裕農里","LIN":"10鄰","STREET":"東寧路","SECT":" ","MAREA":" ","LANE":"５３８巷","ALLEY":" ","HOUSE_NO":"１２號","E_COORD97":171201.91,"N_COORD97":2543218.1499999999,"ADDRESS":"東寧路５３８巷１２號","OBJECTID":377918},"geometry":{"x":171201.91000000015,"y":2543218.1500000022}},{"attributes":{"ID":377929,"DIS_CODE":0,"TOWNNAME":"東區","LI":"中西里","LIN":"21鄰","STREET":"長榮路","SECT":"二段","MAREA":" ","LANE":"８６巷","ALLEY":" ","HOUSE_NO":"５號","E_COORD97":170012.04999999999,"N_COORD97":2543220.23,"ADDRESS":"長榮路二段８６巷５號","OBJECTID":377919},"geometry":{"x":170012.05000000075,"y":2543220.2300000023}},{"attributes":{"ID":377930,"DIS_CODE":0,"TOWNNAME":"東區","LI":"中西里","LIN":"21鄰","STREET":"長榮路","SECT":"二段","MAREA":" ","LANE":"８６巷","ALLEY":" ","HOUSE_NO":"７號","E_COORD97":170019.63,"N_COORD97":2543226.8399999999,"ADDRESS":"長榮路二段８６巷７號","OBJECTID":377920},"geometry":{"x":170019.63000000082,"y":2543226.8399999999}},{"attributes":{"ID":377931,"DIS_CODE":0,"TOWNNAME":"東區","LI":"中西里","LIN":"21鄰","STREET":"長榮路","SECT":"二段","MAREA":" ","LANE":"８６巷","ALLEY":" ","HOUSE_NO":"９號","E_COORD97":170020.35000000001,"N_COORD97":2543237.54,"ADDRESS":"長榮路二段８６巷９號","OBJECTID":377921},"geometry":{"x":170020.34999999963,"y":2543237.540000001}},{"attributes":{"ID":377932,"DIS_CODE":0,"TOWNNAME":"永康區","LI":"網寮里","LIN":"21鄰","STREET":"文化路","SECT":" ","MAREA":" ","LANE":"２４２巷","ALLEY":" ","HOUSE_NO":"２６之８號","E_COORD97":173598.92000000001,"N_COORD97":2546181.0699999998,"ADDRESS":"文化路２４２巷２６之８號","OBJECTID":377922},"geometry":{"x":173598.91999999993,"y":2546181.0700000022}},{"attributes":{"ID":377933,"DIS_CODE":0,"TOWNNAME":"永康區","LI":"西勢里","LIN":"21鄰","STREET":"富強路","SECT":"一段","MAREA":" ","LANE":"１５５巷","ALLEY":" ","HOUSE_NO":"２０號","E_COORD97":175535.70000000001,"N_COORD97":2546403.8700000001,"ADDRESS":"富強路一段１５５巷２０號","OBJECTID":377923},"geometry":{"x":175535.70000000112,"y":2546403.8700000029}},{"attributes":{"ID":377934,"DIS_CODE":0,"TOWNNAME":"永康區","LI":"東橋里","LIN":"21鄰","STREET":"自強路","SECT":" ","MAREA":" ","LANE":"１１８巷","ALLEY":" ","HOUSE_NO":"１８號","E_COORD97":172940.70999999999,"N_COORD97":2547314.4900000002,"ADDRESS":"自強路１１８巷１８號","OBJECTID":377924},"geometry":{"x":172940.70999999996,"y":2547314.4900000021}},{"attributes":{"ID":377935,"DIS_CODE":0,"TOWNNAME":"永康區","LI":"西灣里","LIN":"21鄰","STREET":"國光七街","SECT":" ","MAREA":" ","LANE":"３巷","ALLEY":" ","HOUSE_NO":"５３號","E_COORD97":174326.91,"N_COORD97":2545382.71,"ADDRESS":"國光七街３巷５３號","OBJECTID":377925},"geometry":{"x":174326.91000000201,"y":2545382.7100000009}},{"attributes":{"ID":377936,"DIS_CODE":0,"TOWNNAME":"永康區","LI":"西勢里","LIN":"21鄰","STREET":"富強路","SECT":"一段","MAREA":" ","LANE":"１５５巷","ALLEY":" ","HOUSE_NO":"１３號","E_COORD97":175536.79000000001,"N_COORD97":2546380.9199999999,"ADDRESS":"富強路一段１５５巷１３號","OBJECTID":377926},"geometry":{"x":175536.79000000097,"y":2546380.9200000037}},{"attributes":{"ID":377937,"DIS_CODE":0,"TOWNNAME":"永康區","LI":"崑山里","LIN":"21鄰","STREET":"大仁街","SECT":" ","MAREA":" ","LANE":"３１巷","ALLEY":" ","HOUSE_NO":"３３號","E_COORD97":173701.31,"N_COORD97":2544607.8300000001,"ADDRESS":"大仁街３１巷３３號","OBJECTID":377927},"geometry":{"x":173701.30999999959,"y":2544607.8300000001}},{"attributes":{"ID":377938,"DIS_CODE":0,"TOWNNAME":"永康區","LI":"西灣里","LIN":"21鄰","STREET":"永大路","SECT":"二段","MAREA":" ","LANE":"１９７巷","ALLEY":" ","HOUSE_NO":"２３號","E_COORD97":174258.19,"N_COORD97":2545317.02,"ADDRESS":"永大路二段１９７巷２３號","OBJECTID":377928},"geometry":{"x":174258.19000000134,"y":2545317.0200000014}},{"attributes":{"ID":377939,"DIS_CODE":0,"TOWNNAME":"永康區","LI":"西勢里","LIN":"21鄰","STREET":"富強路","SECT":"一段","MAREA":" ","LANE":"９８巷","ALLEY":" ","HOUSE_NO":"４６號","E_COORD97":175581.89999999999,"N_COORD97":2546076.6400000001,"ADDRESS":"富強路一段９８巷４６號","OBJECTID":377929},"geometry":{"x":175581.9000000013,"y":2546076.6400000025}},{"attributes":{"ID":377940,"DIS_CODE":0,"TOWNNAME":"永康區","LI":"甲頂里","LIN":"21鄰","STREET":"中正南路","SECT":" ","MAREA":" ","LANE":"５２巷","ALLEY":" ","HOUSE_NO":"２８號","E_COORD97":169763.29999999999,"N_COORD97":2546762.8199999998,"ADDRESS":"中正南路５２巷２８號","OBJECTID":377930},"geometry":{"x":169763.29999999981,"y":2546762.8200000022}},{"attributes":{"ID":377941,"DIS_CODE":0,"TOWNNAME":"中西區","LI":"天后里","LIN":"21鄰","STREET":"西門路","SECT":"二段","MAREA":" ","LANE":"４０２巷","ALLEY":" ","HOUSE_NO":"５號","E_COORD97":168117.70999999999,"N_COORD97":2544393.1699999999,"ADDRESS":"西門路二段４０２巷５號","OBJECTID":377931},"geometry":{"x":168117.71000000089,"y":2544393.1700000018}},{"attributes":{"ID":377942,"DIS_CODE":0,"TOWNNAME":"中西區","LI":"天后里","LIN":"21鄰","STREET":"西門路","SECT":"二段","MAREA":" ","LANE":"４０２巷","ALLEY":" ","HOUSE_NO":"７號","E_COORD97":168123.57000000001,"N_COORD97":2544389.6800000002,"ADDRESS":"西門路二段４０２巷７號","OBJECTID":377932},"geometry":{"x":168123.57000000123,"y":2544389.6800000016}},{"attributes":{"ID":377943,"DIS_CODE":0,"TOWNNAME":"中西區","LI":"天后里","LIN":"21鄰","STREET":"西門路","SECT":"二段","MAREA":" ","LANE":"４０２巷","ALLEY":" ","HOUSE_NO":"９號","E_COORD97":168127.98000000001,"N_COORD97":2544387.5899999999,"ADDRESS":"西門路二段４０２巷９號","OBJECTID":377933},"geometry":{"x":168127.98000000138,"y":2544387.5900000017}},{"attributes":{"ID":377944,"DIS_CODE":0,"TOWNNAME":"仁德區","LI":"後壁里","LIN":"21鄰","STREET":"中正路","SECT":"二段","MAREA":" ","LANE":"９７巷","ALLEY":" ","HOUSE_NO":"５６號","E_COORD97":173112.95999999999,"N_COORD97":2538533.2799999998,"ADDRESS":"中正路二段９７巷５６號","OBJECTID":377934},"geometry":{"x":173112.96000000089,"y":2538533.2800000012}},{"attributes":{"ID":377945,"DIS_CODE":0,"TOWNNAME":"仁德區","LI":"後壁里","LIN":"21鄰","STREET":"中正路","SECT":"二段","MAREA":" ","LANE":"９７巷","ALLEY":" ","HOUSE_NO":"６０號","E_COORD97":173108.70000000001,"N_COORD97":2538546.0299999998,"ADDRESS":"中正路二段９７巷６０號","OBJECTID":377935},"geometry":{"x":173108.70000000019,"y":2538546.0300000012}},{"attributes":{"ID":377946,"DIS_CODE":0,"TOWNNAME":"中西區","LI":"光賢里","LIN":"21鄰","STREET":"光賢街","SECT":" ","MAREA":" ","LANE":"４５巷","ALLEY":" ","HOUSE_NO":"４０號","E_COORD97":166835.76000000001,"N_COORD97":2545089.1800000002,"ADDRESS":"光賢街４５巷４０號","OBJECTID":377936},"geometry":{"x":166835.75999999978,"y":2545089.1799999997}},{"attributes":{"ID":377947,"DIS_CODE":0,"TOWNNAME":"中西區","LI":"光賢里","LIN":"21鄰","STREET":"光賢街","SECT":" ","MAREA":" ","LANE":"４５巷","ALLEY":" ","HOUSE_NO":"４１號","E_COORD97":166765.66,"N_COORD97":2545095.8799999999,"ADDRESS":"光賢街４５巷４１號","OBJECTID":377937},"geometry":{"x":166765.66000000015,"y":2545095.8800000008}},{"attributes":{"ID":377948,"DIS_CODE":0,"TOWNNAME":"中西區","LI":"光賢里","LIN":"21鄰","STREET":"光賢街","SECT":" ","MAREA":" ","LANE":"４５巷","ALLEY":" ","HOUSE_NO":"４２號","E_COORD97":166831,"N_COORD97":2545088.2200000002,"ADDRESS":"光賢街４５巷４２號","OBJECTID":377938},"geometry":{"x":166831,"y":2545088.2200000044}},{"attributes":{"ID":377949,"DIS_CODE":0,"TOWNNAME":"中西區","LI":"光賢里","LIN":"21鄰","STREET":"光賢街","SECT":" ","MAREA":" ","LANE":"４５巷","ALLEY":" ","HOUSE_NO":"４３號","E_COORD97":166761.53,"N_COORD97":2545095.2400000002,"ADDRESS":"光賢街４５巷４３號","OBJECTID":377939},"geometry":{"x":166761.53000000026,"y":2545095.2400000021}},{"attributes":{"ID":377950,"DIS_CODE":0,"TOWNNAME":"中西區","LI":"光賢里","LIN":"21鄰","STREET":"光賢街","SECT":" ","MAREA":" ","LANE":"４５巷","ALLEY":" ","HOUSE_NO":"４５號","E_COORD97":166757.07999999999,"N_COORD97":2545094.6099999999,"ADDRESS":"光賢街４５巷４５號","OBJECTID":377940},"geometry":{"x":166757.08000000101,"y":2545094.6100000013}},{"attributes":{"ID":377951,"DIS_CODE":0,"TOWNNAME":"中西區","LI":"光賢里","LIN":"21鄰","STREET":"光賢街","SECT":" ","MAREA":" ","LANE":"４５巷","ALLEY":" ","HOUSE_NO":"４７號","E_COORD97":166752.53,"N_COORD97":2545093.77,"ADDRESS":"光賢街４５巷４７號","OBJECTID":377941},"geometry":{"x":166752.53000000119,"y":2545093.7700000014}},{"attributes":{"ID":377952,"DIS_CODE":0,"TOWNNAME":"中西區","LI":"光賢里","LIN":"21鄰","STREET":"光賢街","SECT":" ","MAREA":" ","LANE":"４５巷","ALLEY":" ","HOUSE_NO":"４６號","E_COORD97":166826.54999999999,"N_COORD97":2545087.9100000001,"ADDRESS":"光賢街４５巷４６號","OBJECTID":377942},"geometry":{"x":166826.55000000075,"y":2545087.9100000001}},{"attributes":{"ID":377953,"DIS_CODE":0,"TOWNNAME":"中西區","LI":"光賢里","LIN":"21鄰","STREET":"光賢街","SECT":" ","MAREA":" ","LANE":"４５巷","ALLEY":" ","HOUSE_NO":"４８號","E_COORD97":166821.79000000001,"N_COORD97":2545087.27,"ADDRESS":"光賢街４５巷４８號","OBJECTID":377943},"geometry":{"x":166821.79000000097,"y":2545087.2700000014}},{"attributes":{"ID":377954,"DIS_CODE":0,"TOWNNAME":"中西區","LI":"光賢里","LIN":"21鄰","STREET":"光賢街","SECT":" ","MAREA":" ","LANE":"４５巷","ALLEY":" ","HOUSE_NO":"４９號","E_COORD97":166745.85999999999,"N_COORD97":2545093.1400000001,"ADDRESS":"光賢街４５巷４９號","OBJECTID":377944},"geometry":{"x":166745.86000000034,"y":2545093.1400000025}},{"attributes":{"ID":377955,"DIS_CODE":0,"TOWNNAME":"中西區","LI":"光賢里","LIN":"21鄰","STREET":"光賢街","SECT":" ","MAREA":" ","LANE":"４５巷","ALLEY":" ","HOUSE_NO":"５０號","E_COORD97":166820.51999999999,"N_COORD97":2545097.4300000002,"ADDRESS":"光賢街４５巷５０號","OBJECTID":377945},"geometry":{"x":166820.51999999955,"y":2545097.4300000016}},{"attributes":{"ID":377956,"DIS_CODE":0,"TOWNNAME":"中西區","LI":"光賢里","LIN":"21鄰","STREET":"光賢街","SECT":" ","MAREA":" ","LANE":"４５巷","ALLEY":" ","HOUSE_NO":"５１號","E_COORD97":166749.14999999999,"N_COORD97":2545112.0699999998,"ADDRESS":"光賢街４５巷５１號","OBJECTID":377946},"geometry":{"x":166749.15000000037,"y":2545112.0700000003}},{"attributes":{"ID":377957,"DIS_CODE":0,"TOWNNAME":"中西區","LI":"光賢里","LIN":"21鄰","STREET":"光賢街","SECT":" ","MAREA":" ","LANE":"４５巷","ALLEY":" ","HOUSE_NO":"５２號","E_COORD97":166818.92999999999,"N_COORD97":2545107.9100000001,"ADDRESS":"光賢街４５巷５２號","OBJECTID":377947},"geometry":{"x":166818.93000000063,"y":2545107.910000002}},{"attributes":{"ID":377958,"DIS_CODE":0,"TOWNNAME":"中西區","LI":"光賢里","LIN":"21鄰","STREET":"光賢街","SECT":" ","MAREA":" ","LANE":"４５巷","ALLEY":" ","HOUSE_NO":"５３號","E_COORD97":166753.91,"N_COORD97":2545112.3900000001,"ADDRESS":"光賢街４５巷５３號","OBJECTID":377948},"geometry":{"x":166753.91000000015,"y":2545112.3900000006}},{"attributes":{"ID":377959,"DIS_CODE":0,"TOWNNAME":"中西區","LI":"光賢里","LIN":"21鄰","STREET":"光賢街","SECT":" ","MAREA":" ","LANE":"４５巷","ALLEY":" ","HOUSE_NO":"５５號","E_COORD97":166758.76000000001,"N_COORD97":2545113.6000000001,"ADDRESS":"光賢街４５巷５５號","OBJECTID":377949},"geometry":{"x":166758.76000000071,"y":2545113.5999999996}},{"attributes":{"ID":377960,"DIS_CODE":0,"TOWNNAME":"中西區","LI":"光賢里","LIN":"21鄰","STREET":"光賢街","SECT":" ","MAREA":" ","LANE":"４５巷","ALLEY":" ","HOUSE_NO":"５６號","E_COORD97":166817.03,"N_COORD97":2545117.75,"ADDRESS":"光賢街４５巷５６號","OBJECTID":377950},"geometry":{"x":166817.03000000119,"y":2545117.7500000037}},{"attributes":{"ID":377961,"DIS_CODE":0,"TOWNNAME":"中西區","LI":"光賢里","LIN":"21鄰","STREET":"光賢街","SECT":" ","MAREA":" ","LANE":"４５巷","ALLEY":" ","HOUSE_NO":"５８號","E_COORD97":166816.07999999999,"N_COORD97":2545125.3700000001,"ADDRESS":"光賢街４５巷５８號","OBJECTID":377951},"geometry":{"x":166816.08000000194,"y":2545125.3700000029}},{"attributes":{"ID":377962,"DIS_CODE":0,"TOWNNAME":"中西區","LI":"光賢里","LIN":"21鄰","STREET":"光賢街","SECT":" ","MAREA":" ","LANE":"４５巷","ALLEY":" ","HOUSE_NO":"５７號","E_COORD97":166763.45000000001,"N_COORD97":2545114.2400000002,"ADDRESS":"光賢街４５巷５７號","OBJECTID":377952},"geometry":{"x":166763.45000000112,"y":2545114.2400000002}},{"attributes":{"ID":377963,"DIS_CODE":0,"TOWNNAME":"中西區","LI":"光賢里","LIN":"21鄰","STREET":"光賢街","SECT":" ","MAREA":" ","LANE":"４５巷","ALLEY":" ","HOUSE_NO":"５９號","E_COORD97":166768.41,"N_COORD97":2545114.7000000002,"ADDRESS":"光賢街４５巷５９號","OBJECTID":377953},"geometry":{"x":166768.41000000108,"y":2545114.7000000011}},{"attributes":{"ID":377964,"DIS_CODE":0,"TOWNNAME":"中西區","LI":"光賢里","LIN":"21鄰","STREET":"光賢街","SECT":" ","MAREA":" ","LANE":"４５巷","ALLEY":" ","HOUSE_NO":"６１號","E_COORD97":166772.60000000001,"N_COORD97":2545115.2000000002,"ADDRESS":"光賢街４５巷６１號","OBJECTID":377954},"geometry":{"x":166772.59999999963,"y":2545115.2000000011}},{"attributes":{"ID":377965,"DIS_CODE":0,"TOWNNAME":"中西區","LI":"光賢里","LIN":"21鄰","STREET":"光賢街","SECT":" ","MAREA":" ","LANE":"４５巷","ALLEY":" ","HOUSE_NO":"６３號","E_COORD97":166776.92000000001,"N_COORD97":2545115.71,"ADDRESS":"光賢街４５巷６３號","OBJECTID":377955},"geometry":{"x":166776.92000000086,"y":2545115.7100000046}},{"attributes":{"ID":377966,"DIS_CODE":0,"TOWNNAME":"中西區","LI":"光賢里","LIN":"21鄰","STREET":"光賢街","SECT":" ","MAREA":" ","LANE":"４５巷","ALLEY":" ","HOUSE_NO":"６５號","E_COORD97":166781.35999999999,"N_COORD97":2545116.3999999999,"ADDRESS":"光賢街４５巷６５號","OBJECTID":377956},"geometry":{"x":166781.36000000034,"y":2545116.4000000004}},{"attributes":{"ID":377967,"DIS_CODE":0,"TOWNNAME":"中西區","LI":"光賢里","LIN":"21鄰","STREET":"光賢街","SECT":" ","MAREA":" ","LANE":"４５巷","ALLEY":" ","HOUSE_NO":"６７號","E_COORD97":166786.19,"N_COORD97":2545116.98,"ADDRESS":"光賢街４５巷６７號","OBJECTID":377957},"geometry":{"x":166786.19000000041,"y":2545116.9800000023}},{"attributes":{"ID":377968,"DIS_CODE":0,"TOWNNAME":"中西區","LI":"光賢里","LIN":"21鄰","STREET":"光賢街","SECT":" ","MAREA":" ","LANE":"４５巷","ALLEY":" ","HOUSE_NO":"６９號","E_COORD97":166790.63,"N_COORD97":2545117.54,"ADDRESS":"光賢街４５巷６９號","OBJECTID":377958},"geometry":{"x":166790.63000000082,"y":2545117.5399999991}},{"attributes":{"ID":377969,"DIS_CODE":0,"TOWNNAME":"中西區","LI":"光賢里","LIN":"21鄰","STREET":"光賢街","SECT":" ","MAREA":" ","LANE":"４５巷","ALLEY":" ","HOUSE_NO":"７１號","E_COORD97":166795.82000000001,"N_COORD97":2545118.4199999999,"ADDRESS":"光賢街４５巷７１號","OBJECTID":377959},"geometry":{"x":166795.8200000003,"y":2545118.4199999999}},{"attributes":{"ID":377970,"DIS_CODE":0,"TOWNNAME":"中西區","LI":"光賢里","LIN":"21鄰","STREET":"光賢街","SECT":" ","MAREA":" ","LANE":"４５巷","ALLEY":" ","HOUSE_NO":"７３號","E_COORD97":166800.26000000001,"N_COORD97":2545119.0499999998,"ADDRESS":"光賢街４５巷７３號","OBJECTID":377960},"geometry":{"x":166800.25999999978,"y":2545119.0500000007}},{"attributes":{"ID":377971,"DIS_CODE":0,"TOWNNAME":"新市區","LI":"港墘里","LIN":"21鄰","STREET":"南昌街","SECT":" ","MAREA":" ","LANE":"１１巷","ALLEY":" ","HOUSE_NO":"１８號","E_COORD97":177950.73000000001,"N_COORD97":2552785,"ADDRESS":"南昌街１１巷１８號","OBJECTID":377961},"geometry":{"x":177950.73000000045,"y":2552785.0000000037}},{"attributes":{"ID":377972,"DIS_CODE":0,"TOWNNAME":"新市區","LI":"港墘里","LIN":"21鄰","STREET":"南昌街","SECT":" ","MAREA":" ","LANE":"１１巷","ALLEY":" ","HOUSE_NO":"１６號","E_COORD97":177956.48000000001,"N_COORD97":2552785.75,"ADDRESS":"南昌街１１巷１６號","OBJECTID":377962},"geometry":{"x":177956.48000000138,"y":2552785.75}},{"attributes":{"ID":377973,"DIS_CODE":0,"TOWNNAME":"安南區","LI":"海東里","LIN":"21鄰","STREET":"海東三街","SECT":" ","MAREA":" ","LANE":"６８巷","ALLEY":" ","HOUSE_NO":"１號","E_COORD97":166850.56,"N_COORD97":2547984.8999999999,"ADDRESS":"海東三街６８巷１號","OBJECTID":377963},"geometry":{"x":166850.55999999959,"y":2547984.9000000004}},{"attributes":{"ID":377974,"DIS_CODE":0,"TOWNNAME":"安南區","LI":"海東里","LIN":"21鄰","STREET":"海東三街","SECT":" ","MAREA":" ","LANE":"６８巷","ALLEY":" ","HOUSE_NO":"２號","E_COORD97":166881.09,"N_COORD97":2547986.6299999999,"ADDRESS":"海東三街６８巷２號","OBJECTID":377964},"geometry":{"x":166881.08999999985,"y":2547986.6300000008}},{"attributes":{"ID":377975,"DIS_CODE":0,"TOWNNAME":"安南區","LI":"海東里","LIN":"21鄰","STREET":"海東三街","SECT":" ","MAREA":" ","LANE":"６８巷","ALLEY":" ","HOUSE_NO":"３號","E_COORD97":166849.54000000001,"N_COORD97":2547989.6899999999,"ADDRESS":"海東三街６８巷３號","OBJECTID":377965},"geometry":{"x":166849.54000000004,"y":2547989.6900000013}},{"attributes":{"ID":377976,"DIS_CODE":0,"TOWNNAME":"安南區","LI":"海東里","LIN":"21鄰","STREET":"海東三街","SECT":" ","MAREA":" ","LANE":"６８巷","ALLEY":" ","HOUSE_NO":"５號","E_COORD97":166848.64000000001,"N_COORD97":2547994.2400000002,"ADDRESS":"海東三街６８巷５號","OBJECTID":377966},"geometry":{"x":166848.63999999966,"y":2547994.2400000021}},{"attributes":{"ID":377977,"DIS_CODE":0,"TOWNNAME":"安南區","LI":"海東里","LIN":"21鄰","STREET":"海東三街","SECT":" ","MAREA":" ","LANE":"６８巷","ALLEY":" ","HOUSE_NO":"６號","E_COORD97":166879.95999999999,"N_COORD97":2547990.2799999998,"ADDRESS":"海東三街６８巷６號","OBJECTID":377967},"geometry":{"x":166879.96000000089,"y":2547990.2799999993}},{"attributes":{"ID":377978,"DIS_CODE":0,"TOWNNAME":"安南區","LI":"海東里","LIN":"21鄰","STREET":"海東三街","SECT":" ","MAREA":" ","LANE":"６８巷","ALLEY":" ","HOUSE_NO":"７號","E_COORD97":166847.47,"N_COORD97":2547999.27,"ADDRESS":"海東三街６８巷７號","OBJECTID":377968},"geometry":{"x":166847.47000000067,"y":2547999.2700000014}},{"attributes":{"ID":377979,"DIS_CODE":0,"TOWNNAME":"安南區","LI":"海東里","LIN":"21鄰","STREET":"海東三街","SECT":" ","MAREA":" ","LANE":"６８巷","ALLEY":" ","HOUSE_NO":"８號","E_COORD97":166878.95999999999,"N_COORD97":2547995.77,"ADDRESS":"海東三街６８巷８號","OBJECTID":377969},"geometry":{"x":166878.95999999996,"y":2547995.7700000014}},{"attributes":{"ID":377980,"DIS_CODE":0,"TOWNNAME":"安南區","LI":"海東里","LIN":"21鄰","STREET":"海東三街","SECT":" ","MAREA":" ","LANE":"６８巷","ALLEY":" ","HOUSE_NO":"１０號","E_COORD97":166878.16,"N_COORD97":2547999.7000000002,"ADDRESS":"海東三街６８巷１０號","OBJECTID":377970},"geometry":{"x":166878.15999999922,"y":2547999.7000000011}},{"attributes":{"ID":377981,"DIS_CODE":0,"TOWNNAME":"東區","LI":"復興里","LIN":"21鄰","STREET":"自由路","SECT":"三段","MAREA":" ","LANE":" ","ALLEY":" ","HOUSE_NO":"４１０號","E_COORD97":171800.19,"N_COORD97":2542584.1699999999,"ADDRESS":"自由路三段４１０號","OBJECTID":377971},"geometry":{"x":171800.19000000134,"y":2542584.1699999999}},{"attributes":{"ID":377982,"DIS_CODE":0,"TOWNNAME":"東區","LI":"自強里","LIN":"21鄰","STREET":"中華東路","SECT":"二段","MAREA":" ","LANE":"２４３巷","ALLEY":" ","HOUSE_NO":"６２號","E_COORD97":171402.26999999999,"N_COORD97":2542572.8100000001,"ADDRESS":"中華東路二段２４３巷６２號","OBJECTID":377972},"geometry":{"x":171402.26999999955,"y":2542572.8100000024}},{"attributes":{"ID":377983,"DIS_CODE":0,"TOWNNAME":"東區","LI":"自強里","LIN":"21鄰","STREET":"中華東路","SECT":"二段","MAREA":" ","LANE":"２４３巷","ALLEY":" ","HOUSE_NO":"６４號","E_COORD97":171407.89000000001,"N_COORD97":2542573.5099999998,"ADDRESS":"中華東路二段２４３巷６４號","OBJECTID":377973},"geometry":{"x":171407.8900000006,"y":2542573.5100000016}},{"attributes":{"ID":377984,"DIS_CODE":0,"TOWNNAME":"東區","LI":"自強里","LIN":"21鄰","STREET":"中華東路","SECT":"二段","MAREA":" ","LANE":"２４３巷","ALLEY":" ","HOUSE_NO":"６８號","E_COORD97":171417.89999999999,"N_COORD97":2542572.6400000001,"ADDRESS":"中華東路二段２４３巷６８號","OBJECTID":377974},"geometry":{"x":171417.90000000037,"y":2542572.6399999987}},{"attributes":{"ID":377985,"DIS_CODE":0,"TOWNNAME":"東區","LI":"自強里","LIN":"21鄰","STREET":"中華東路","SECT":"二段","MAREA":" ","LANE":"２４３巷","ALLEY":" ","HOUSE_NO":"７０號","E_COORD97":171423.69,"N_COORD97":2542572.8100000001,"ADDRESS":"中華東路二段２４３巷７０號","OBJECTID":377975},"geometry":{"x":171423.69000000134,"y":2542572.8100000024}},{"attributes":{"ID":377986,"DIS_CODE":0,"TOWNNAME":"佳里區","LI":"安西里","LIN":"21鄰","STREET":"公園路","SECT":" ","MAREA":" ","LANE":"４６７巷","ALLEY":" ","HOUSE_NO":"１０號","E_COORD97":165296.34,"N_COORD97":2562895.2000000002,"ADDRESS":"公園路４６７巷１０號","OBJECTID":377976},"geometry":{"x":165296.33999999985,"y":2562895.1999999993}},{"attributes":{"ID":377987,"DIS_CODE":0,"TOWNNAME":"佳里區","LI":"安西里","LIN":"21鄰","STREET":"公園路","SECT":" ","MAREA":" ","LANE":"４６７巷","ALLEY":" ","HOUSE_NO":"１１號","E_COORD97":165270.62,"N_COORD97":2562860.5099999998,"ADDRESS":"公園路４６７巷１１號","OBJECTID":377977},"geometry":{"x":165270.62000000011,"y":2562860.5099999998}},{"attributes":{"ID":377988,"DIS_CODE":0,"TOWNNAME":"佳里區","LI":"安西里","LIN":"21鄰","STREET":"公園路","SECT":" ","MAREA":" ","LANE":"４６７巷","ALLEY":" ","HOUSE_NO":"１２號","E_COORD97":165293.95000000001,"N_COORD97":2562897.3700000001,"ADDRESS":"公園路４６７巷１２號","OBJECTID":377978},"geometry":{"x":165293.95000000019,"y":2562897.3700000029}},{"attributes":{"ID":377989,"DIS_CODE":0,"TOWNNAME":"佳里區","LI":"安西里","LIN":"21鄰","STREET":"公園路","SECT":" ","MAREA":" ","LANE":"４６７巷","ALLEY":" ","HOUSE_NO":"１３號","E_COORD97":165270.72,"N_COORD97":2562867.2400000002,"ADDRESS":"公園路４６７巷１３號","OBJECTID":377979},"geometry":{"x":165270.72000000067,"y":2562867.2400000021}},{"attributes":{"ID":377990,"DIS_CODE":0,"TOWNNAME":"佳里區","LI":"安西里","LIN":"21鄰","STREET":"公園路","SECT":" ","MAREA":" ","LANE":"４６７巷","ALLEY":" ","HOUSE_NO":"１５號","E_COORD97":165271.45000000001,"N_COORD97":2562873.3300000001,"ADDRESS":"公園路４６７巷１５號","OBJECTID":377980},"geometry":{"x":165271.45000000112,"y":2562873.3300000019}},{"attributes":{"ID":377991,"DIS_CODE":0,"TOWNNAME":"佳里區","LI":"安西里","LIN":"21鄰","STREET":"公園路","SECT":" ","MAREA":" ","LANE":"４６７巷","ALLEY":" ","HOUSE_NO":"１６號","E_COORD97":165290.13,"N_COORD97":2562900.7999999998,"ADDRESS":"公園路４６７巷１６號","OBJECTID":377981},"geometry":{"x":165290.13000000082,"y":2562900.8000000045}},{"attributes":{"ID":377992,"DIS_CODE":0,"TOWNNAME":"佳里區","LI":"安西里","LIN":"21鄰","STREET":"公園路","SECT":" ","MAREA":" ","LANE":"４６７巷","ALLEY":" ","HOUSE_NO":"１７號","E_COORD97":165291.14000000001,"N_COORD97":2562877.3799999999,"ADDRESS":"公園路４６７巷１７號","OBJECTID":377982},"geometry":{"x":165291.14000000153,"y":2562877.379999999}},{"attributes":{"ID":377993,"DIS_CODE":0,"TOWNNAME":"佳里區","LI":"安西里","LIN":"21鄰","STREET":"公園路","SECT":" ","MAREA":" ","LANE":"４６７巷","ALLEY":" ","HOUSE_NO":"１８號","E_COORD97":165285.70999999999,"N_COORD97":2562904.6299999999,"ADDRESS":"公園路４６７巷１８號","OBJECTID":377983},"geometry":{"x":165285.70999999996,"y":2562904.6300000008}},{"attributes":{"ID":377994,"DIS_CODE":0,"TOWNNAME":"佳里區","LI":"安西里","LIN":"21鄰","STREET":"公園路","SECT":" ","MAREA":" ","LANE":"４６７巷","ALLEY":" ","HOUSE_NO":"１９號","E_COORD97":165287.98000000001,"N_COORD97":2562880.1699999999,"ADDRESS":"公園路４６７巷１９號","OBJECTID":377984},"geometry":{"x":165287.98000000231,"y":2562880.1700000037}},{"attributes":{"ID":377995,"DIS_CODE":0,"TOWNNAME":"佳里區","LI":"安西里","LIN":"21鄰","STREET":"公園路","SECT":" ","MAREA":" ","LANE":"４６７巷","ALLEY":" ","HOUSE_NO":"１號","E_COORD97":165267.88,"N_COORD97":2562828.3799999999,"ADDRESS":"公園路４６７巷１號","OBJECTID":377985},"geometry":{"x":165267.88000000175,"y":2562828.3800000008}},{"attributes":{"ID":377996,"DIS_CODE":0,"TOWNNAME":"佳里區","LI":"安西里","LIN":"21鄰","STREET":"公園路","SECT":" ","MAREA":" ","LANE":"４６７巷","ALLEY":" ","HOUSE_NO":"２１號","E_COORD97":165284.75,"N_COORD97":2562882.5800000001,"ADDRESS":"公園路４６７巷２１號","OBJECTID":377986},"geometry":{"x":165284.75000000093,"y":2562882.5800000019}},{"attributes":{"ID":377997,"DIS_CODE":0,"TOWNNAME":"佳里區","LI":"安西里","LIN":"21鄰","STREET":"公園路","SECT":" ","MAREA":" ","LANE":"４６７巷","ALLEY":" ","HOUSE_NO":"２３號","E_COORD97":165282.07999999999,"N_COORD97":2562884.98,"ADDRESS":"公園路４６７巷２３號","OBJECTID":377987},"geometry":{"x":165282.08000000101,"y":2562884.9800000004}},{"attributes":{"ID":377998,"DIS_CODE":0,"TOWNNAME":"佳里區","LI":"安西里","LIN":"21鄰","STREET":"公園路","SECT":" ","MAREA":" ","LANE":"４６７巷","ALLEY":" ","HOUSE_NO":"２５號","E_COORD97":165278.81,"N_COORD97":2562888.1000000001,"ADDRESS":"公園路４６７巷２５號","OBJECTID":377988},"geometry":{"x":165278.81000000052,"y":2562888.1000000015}},{"attributes":{"ID":377999,"DIS_CODE":0,"TOWNNAME":"東區","LI":"東安里","LIN":"6鄰","STREET":"長榮路","SECT":"二段","MAREA":" ","LANE":"２４巷","ALLEY":" ","HOUSE_NO":"３５號","E_COORD97":170040.07999999999,"N_COORD97":2543059.1899999999,"ADDRESS":"長榮路二段２４巷３５號","OBJECTID":377989},"geometry":{"x":170040.08000000007,"y":2543059.1899999995}},{"attributes":{"ID":378000,"DIS_CODE":0,"TOWNNAME":"東區","LI":"東安里","LIN":"6鄰","STREET":"長榮路","SECT":"二段","MAREA":" ","LANE":"２４巷","ALLEY":" ","HOUSE_NO":"３７號","E_COORD97":170044.64000000001,"N_COORD97":2543057.77,"ADDRESS":"長榮路二段２４巷３７號","OBJECTID":377990},"geometry":{"x":170044.6400000006,"y":2543057.7699999996}},{"attributes":{"ID":378001,"DIS_CODE":0,"TOWNNAME":"佳里區","LI":"安西里","LIN":"21鄰","STREET":"公園路","SECT":" ","MAREA":" ","LANE":"４６７巷","ALLEY":" ","HOUSE_NO":"２６號","E_COORD97":165271.67999999999,"N_COORD97":2562927.1800000002,"ADDRESS":"公園路４６７巷２６號","OBJECTID":377991},"geometry":{"x":165271.6799999997,"y":2562927.1799999997}},{"attributes":{"ID":378002,"DIS_CODE":0,"TOWNNAME":"佳里區","LI":"安西里","LIN":"21鄰","STREET":"公園路","SECT":" ","MAREA":" ","LANE":"４６７巷","ALLEY":" ","HOUSE_NO":"２７號","E_COORD97":165276.10000000001,"N_COORD97":2562890.2400000002,"ADDRESS":"公園路４６７巷２７號","OBJECTID":377992},"geometry":{"x":165276.10000000149,"y":2562890.2400000039}},{"attributes":{"ID":378003,"DIS_CODE":0,"TOWNNAME":"佳里區","LI":"安西里","LIN":"21鄰","STREET":"公園路","SECT":" ","MAREA":" ","LANE":"４６７巷","ALLEY":" ","HOUSE_NO":"２９號","E_COORD97":165273.23999999999,"N_COORD97":2562893.2799999998,"ADDRESS":"公園路４６７巷２９號","OBJECTID":377993},"geometry":{"x":165273.24000000115,"y":2562893.2800000012}},{"attributes":{"ID":378004,"DIS_CODE":0,"TOWNNAME":"佳里區","LI":"安西里","LIN":"21鄰","STREET":"公園路","SECT":" ","MAREA":" ","LANE":"４６７巷","ALLEY":" ","HOUSE_NO":"２號","E_COORD97":165306.67999999999,"N_COORD97":2562884.7400000002,"ADDRESS":"公園路４６７巷２號","OBJECTID":377994},"geometry":{"x":165306.68000000063,"y":2562884.7400000021}},{"attributes":{"ID":378005,"DIS_CODE":0,"TOWNNAME":"佳里區","LI":"安西里","LIN":"21鄰","STREET":"公園路","SECT":" ","MAREA":" ","LANE":"４６７巷","ALLEY":" ","HOUSE_NO":"３８號","E_COORD97":165259.94,"N_COORD97":2562927.3500000001,"ADDRESS":"公園路４６７巷３８號","OBJECTID":377995},"geometry":{"x":165259.94000000134,"y":2562927.3500000015}},{"attributes":{"ID":378006,"DIS_CODE":0,"TOWNNAME":"佳里區","LI":"安西里","LIN":"21鄰","STREET":"公園路","SECT":" ","MAREA":" ","LANE":"４６７巷","ALLEY":" ","HOUSE_NO":"３號","E_COORD97":165268.10000000001,"N_COORD97":2562834.3100000001,"ADDRESS":"公園路４６７巷３號","OBJECTID":377996},"geometry":{"x":165268.10000000056,"y":2562834.3100000005}},{"attributes":{"ID":378007,"DIS_CODE":0,"TOWNNAME":"佳里區","LI":"安西里","LIN":"21鄰","STREET":"公園路","SECT":" ","MAREA":" ","LANE":"４６７巷","ALLEY":" ","HOUSE_NO":"４０號","E_COORD97":165255.95999999999,"N_COORD97":2562930.6600000001,"ADDRESS":"公園路４６７巷４０號","OBJECTID":377997},"geometry":{"x":165255.96000000089,"y":2562930.6600000001}},{"attributes":{"ID":378008,"DIS_CODE":0,"TOWNNAME":"佳里區","LI":"安西里","LIN":"21鄰","STREET":"公園路","SECT":" ","MAREA":" ","LANE":"４６７巷","ALLEY":" ","HOUSE_NO":"５３號","E_COORD97":165240.79999999999,"N_COORD97":2562921.2599999998,"ADDRESS":"公園路４６７巷５３號","OBJECTID":377998},"geometry":{"x":165240.79999999981,"y":2562921.2600000016}},{"attributes":{"ID":378009,"DIS_CODE":0,"TOWNNAME":"佳里區","LI":"安西里","LIN":"21鄰","STREET":"公園路","SECT":" ","MAREA":" ","LANE":"４６７巷","ALLEY":" ","HOUSE_NO":"５５號","E_COORD97":165233.51999999999,"N_COORD97":2562923.52,"ADDRESS":"公園路４６７巷５５號","OBJECTID":377999},"geometry":{"x":165233.51999999955,"y":2562923.5199999996}},{"attributes":{"ID":378010,"DIS_CODE":0,"TOWNNAME":"佳里區","LI":"安西里","LIN":"21鄰","STREET":"公園路","SECT":" ","MAREA":" ","LANE":"４６７巷","ALLEY":" ","HOUSE_NO":"５７號","E_COORD97":165229.44,"N_COORD97":2562926.1099999999,"ADDRESS":"公園路４６７巷５７號","OBJECTID":378000},"geometry":{"x":165229.44000000134,"y":2562926.1099999994}}]}