{"displayFieldName":"TOWNNAME","fieldAliases":{"ID":"ID","DIS_CODE":"DIS_CODE","TOWNNAME":"TOWNNAME","LI":"LI","LIN":"LIN","STREET":"STREET","SECT":"SECT","MAREA":"MAREA","LANE":"LANE","ALLEY":"ALLEY","HOUSE_NO":"HOUSE_NO","E_COORD97":"E_COORD97","N_COORD97":"N_COORD97","ADDRESS":"ADDRESS","OBJECTID":"OBJECTID"},"geometryType":"esriGeometryPoint","spatialReference":{"wkid":102443,"latestWkid":3826},"fields":[{"name":"ID","type":"esriFieldTypeDouble","alias":"ID"},{"name":"DIS_CODE","type":"esriFieldTypeInteger","alias":"DIS_CODE"},{"name":"TOWNNAME","type":"esriFieldTypeString","alias":"TOWNNAME","length":8},{"name":"LI","type":"esriFieldTypeString","alias":"LI","length":8},{"name":"LIN","type":"esriFieldTypeString","alias":"LIN","length":12},{"name":"STREET","type":"esriFieldTypeString","alias":"STREET","length":20},{"name":"SECT","type":"esriFieldTypeString","alias":"SECT","length":8},{"name":"MAREA","type":"esriFieldTypeString","alias":"MAREA","length":12},{"name":"LANE","type":"esriFieldTypeString","alias":"LANE","length":10},{"name":"ALLEY","type":"esriFieldTypeString","alias":"ALLEY","length":10},{"name":"HOUSE_NO","type":"esriFieldTypeString","alias":"HOUSE_NO","length":20},{"name":"E_COORD97","type":"esriFieldTypeDouble","alias":"E_COORD97"},{"name":"N_COORD97","type":"esriFieldTypeDouble","alias":"N_COORD97"},{"name":"ADDRESS","type":"esriFieldTypeString","alias":"ADDRESS","length":50},{"name":"OBJECTID","type":"esriFieldTypeOID","alias":"OBJECTID"}],"features":[{"attributes":{"ID":351810,"DIS_CODE":0,"TOWNNAME":"安南區","LI":"安西里","LIN":"18鄰","STREET":"安通路","SECT":"四段","MAREA":" ","LANE":"１１９巷","ALLEY":" ","HOUSE_NO":"１３號","E_COORD97":168717.37,"N_COORD97":2547805.4300000002,"ADDRESS":"安通路四段１１９巷１３號","OBJECTID":351801},"geometry":{"x":168717.37000000011,"y":2547805.4300000016}},{"attributes":{"ID":351811,"DIS_CODE":0,"TOWNNAME":"安南區","LI":"安西里","LIN":"18鄰","STREET":"安通路","SECT":"四段","MAREA":" ","LANE":"１１９巷","ALLEY":" ","HOUSE_NO":"１５號","E_COORD97":168717.67000000001,"N_COORD97":2547809.5699999998,"ADDRESS":"安通路四段１１９巷１５號","OBJECTID":351802},"geometry":{"x":168717.67000000086,"y":2547809.5700000003}},{"attributes":{"ID":351812,"DIS_CODE":0,"TOWNNAME":"安南區","LI":"安西里","LIN":"18鄰","STREET":"安通路","SECT":"四段","MAREA":" ","LANE":"１１９巷","ALLEY":" ","HOUSE_NO":"１７號","E_COORD97":168719.44,"N_COORD97":2547813.7000000002,"ADDRESS":"安通路四段１１９巷１７號","OBJECTID":351803},"geometry":{"x":168719.44000000227,"y":2547813.7000000011}},{"attributes":{"ID":351813,"DIS_CODE":0,"TOWNNAME":"安南區","LI":"安西里","LIN":"18鄰","STREET":"安通路","SECT":"四段","MAREA":" ","LANE":"１１９巷","ALLEY":" ","HOUSE_NO":"１９號","E_COORD97":168720.03,"N_COORD97":2547819.3199999998,"ADDRESS":"安通路四段１１９巷１９號","OBJECTID":351804},"geometry":{"x":168720.03000000026,"y":2547819.3200000003}},{"attributes":{"ID":351814,"DIS_CODE":0,"TOWNNAME":"安南區","LI":"安西里","LIN":"18鄰","STREET":"安通路","SECT":"四段","MAREA":" ","LANE":"１１９巷","ALLEY":" ","HOUSE_NO":"２１號","E_COORD97":168719.73999999999,"N_COORD97":2547823.46,"ADDRESS":"安通路四段１１９巷２１號","OBJECTID":351805},"geometry":{"x":168719.74000000022,"y":2547823.4600000028}},{"attributes":{"ID":351815,"DIS_CODE":0,"TOWNNAME":"安南區","LI":"安西里","LIN":"18鄰","STREET":"安通路","SECT":"四段","MAREA":" ","LANE":"１１９巷","ALLEY":" ","HOUSE_NO":"２３號","E_COORD97":168721.51000000001,"N_COORD97":2547828.48,"ADDRESS":"安通路四段１１９巷２３號","OBJECTID":351806},"geometry":{"x":168721.51000000164,"y":2547828.4800000004}},{"attributes":{"ID":351816,"DIS_CODE":0,"TOWNNAME":"安南區","LI":"安西里","LIN":"18鄰","STREET":"安通路","SECT":"四段","MAREA":" ","LANE":"１１９巷","ALLEY":" ","HOUSE_NO":"２５號","E_COORD97":168708.79000000001,"N_COORD97":2547830.25,"ADDRESS":"安通路四段１１９巷２５號","OBJECTID":351807},"geometry":{"x":168708.79000000097,"y":2547830.2500000019}},{"attributes":{"ID":351817,"DIS_CODE":0,"TOWNNAME":"歸仁區","LI":"七甲里","LIN":"8鄰","STREET":"七甲一街","SECT":" ","MAREA":" ","LANE":" ","ALLEY":" ","HOUSE_NO":"１２６號","E_COORD97":177656.94,"N_COORD97":2542651.6600000001,"ADDRESS":"七甲一街１２６號","OBJECTID":351808},"geometry":{"x":177656.94000000134,"y":2542651.660000002}},{"attributes":{"ID":351818,"DIS_CODE":0,"TOWNNAME":"歸仁區","LI":"七甲里","LIN":"8鄰","STREET":"七甲一街","SECT":" ","MAREA":" ","LANE":" ","ALLEY":" ","HOUSE_NO":"１４２號","E_COORD97":177636.64000000001,"N_COORD97":2542701.6600000001,"ADDRESS":"七甲一街１４２號","OBJECTID":351809},"geometry":{"x":177636.63999999966,"y":2542701.660000002}},{"attributes":{"ID":351819,"DIS_CODE":0,"TOWNNAME":"歸仁區","LI":"六甲里","LIN":"8鄰","STREET":"中正十五街","SECT":" ","MAREA":" ","LANE":" ","ALLEY":" ","HOUSE_NO":"８８號","E_COORD97":176481.81,"N_COORD97":2539442.25,"ADDRESS":"中正十五街８８號","OBJECTID":351810},"geometry":{"x":176481.81000000052,"y":2539442.2500000037}},{"attributes":{"ID":351820,"DIS_CODE":0,"TOWNNAME":"歸仁區","LI":"六甲里","LIN":"8鄰","STREET":"中正十五街","SECT":" ","MAREA":" ","LANE":" ","ALLEY":" ","HOUSE_NO":"７６號","E_COORD97":176476.51000000001,"N_COORD97":2539406.25,"ADDRESS":"中正十五街７６號","OBJECTID":351811},"geometry":{"x":176476.50999999978,"y":2539406.2500000019}},{"attributes":{"ID":351821,"DIS_CODE":0,"TOWNNAME":"歸仁區","LI":"六甲里","LIN":"8鄰","STREET":"中正十五街","SECT":" ","MAREA":" ","LANE":" ","ALLEY":" ","HOUSE_NO":"８４號","E_COORD97":176480.70999999999,"N_COORD97":2539430.25,"ADDRESS":"中正十五街８４號","OBJECTID":351812},"geometry":{"x":176480.70999999996,"y":2539430.2500000019}},{"attributes":{"ID":351822,"DIS_CODE":0,"TOWNNAME":"歸仁區","LI":"文化里","LIN":"8鄰","STREET":"文化三街","SECT":" ","MAREA":" ","LANE":" ","ALLEY":" ","HOUSE_NO":"２３號","E_COORD97":177212.95999999999,"N_COORD97":2541380.3300000001,"ADDRESS":"文化三街２３號","OBJECTID":351813},"geometry":{"x":177212.95999999996,"y":2541380.3300000001}},{"attributes":{"ID":351823,"DIS_CODE":0,"TOWNNAME":"歸仁區","LI":"七甲里","LIN":"8鄰","STREET":"七甲一街","SECT":" ","MAREA":" ","LANE":" ","ALLEY":" ","HOUSE_NO":"１３６號","E_COORD97":177655.94,"N_COORD97":2542672.6600000001,"ADDRESS":"七甲一街１３６號","OBJECTID":351814},"geometry":{"x":177655.94000000041,"y":2542672.6600000001}},{"attributes":{"ID":351824,"DIS_CODE":0,"TOWNNAME":"楠西區","LI":"楠西里","LIN":"8鄰","STREET":"民權路","SECT":" ","MAREA":" ","LANE":" ","ALLEY":" ","HOUSE_NO":"２４號","E_COORD97":197275.64000000001,"N_COORD97":2564256.29,"ADDRESS":"民權路２４號","OBJECTID":351815},"geometry":{"x":197275.63999999966,"y":2564256.290000001}},{"attributes":{"ID":351825,"DIS_CODE":0,"TOWNNAME":"楠西區","LI":"楠西里","LIN":"8鄰","STREET":"中華路","SECT":" ","MAREA":" ","LANE":" ","ALLEY":" ","HOUSE_NO":"７８號","E_COORD97":197218.31,"N_COORD97":2564153.25,"ADDRESS":"中華路７８號","OBJECTID":351816},"geometry":{"x":197218.30999999959,"y":2564153.25}},{"attributes":{"ID":351826,"DIS_CODE":0,"TOWNNAME":"安平區","LI":"平通里","LIN":"32鄰","STREET":"永華十街","SECT":" ","MAREA":" ","LANE":" ","ALLEY":" ","HOUSE_NO":"９號","E_COORD97":164531.47,"N_COORD97":2543641.3900000001,"ADDRESS":"永華十街９號","OBJECTID":351817},"geometry":{"x":164531.47000000067,"y":2543641.3900000006}},{"attributes":{"ID":351827,"DIS_CODE":0,"TOWNNAME":"安南區","LI":"安西里","LIN":"18鄰","STREET":"安通路","SECT":"四段","MAREA":" ","LANE":"１１９巷","ALLEY":" ","HOUSE_NO":"３號","E_COORD97":168717.95999999999,"N_COORD97":2547780.6099999999,"ADDRESS":"安通路四段１１９巷３號","OBJECTID":351818},"geometry":{"x":168717.95999999996,"y":2547780.6100000013}},{"attributes":{"ID":351828,"DIS_CODE":0,"TOWNNAME":"安南區","LI":"安西里","LIN":"18鄰","STREET":"安通路","SECT":"四段","MAREA":" ","LANE":"１１９巷","ALLEY":" ","HOUSE_NO":"５號","E_COORD97":168717.67000000001,"N_COORD97":2547785.04,"ADDRESS":"安通路四段１１９巷５號","OBJECTID":351819},"geometry":{"x":168717.67000000086,"y":2547785.0399999991}},{"attributes":{"ID":351829,"DIS_CODE":0,"TOWNNAME":"安南區","LI":"安西里","LIN":"18鄰","STREET":"安通路","SECT":"四段","MAREA":" ","LANE":"１１９巷","ALLEY":" ","HOUSE_NO":"７號","E_COORD97":168715.59,"N_COORD97":2547790.0600000001,"ADDRESS":"安通路四段１１９巷７號","OBJECTID":351820},"geometry":{"x":168715.58999999985,"y":2547790.0600000005}},{"attributes":{"ID":351830,"DIS_CODE":0,"TOWNNAME":"安南區","LI":"安西里","LIN":"18鄰","STREET":"安通路","SECT":"四段","MAREA":" ","LANE":"１１９巷","ALLEY":" ","HOUSE_NO":"１１號","E_COORD97":168717.95999999999,"N_COORD97":2547801,"ADDRESS":"安通路四段１１９巷１１號","OBJECTID":351821},"geometry":{"x":168717.95999999996,"y":2547801.0000000037}},{"attributes":{"ID":351831,"DIS_CODE":0,"TOWNNAME":"安南區","LI":"公親里","LIN":"6鄰","STREET":"公學路","SECT":"一段","MAREA":" ","LANE":"２０巷","ALLEY":" ","HOUSE_NO":"５號","E_COORD97":168662.56,"N_COORD97":2553108.5499999998,"ADDRESS":"公學路一段２０巷５號","OBJECTID":351822},"geometry":{"x":168662.55999999959,"y":2553108.5500000026}},{"attributes":{"ID":351832,"DIS_CODE":0,"TOWNNAME":"安南區","LI":"公親里","LIN":"6鄰","STREET":"公學路","SECT":"一段","MAREA":" ","LANE":"２０巷","ALLEY":" ","HOUSE_NO":"６號","E_COORD97":168665.79999999999,"N_COORD97":2553104.6699999999,"ADDRESS":"公學路一段２０巷６號","OBJECTID":351823},"geometry":{"x":168665.80000000075,"y":2553104.6699999999}},{"attributes":{"ID":351833,"DIS_CODE":0,"TOWNNAME":"安南區","LI":"公親里","LIN":"6鄰","STREET":"公學路","SECT":"一段","MAREA":" ","LANE":"２０巷","ALLEY":" ","HOUSE_NO":"７號","E_COORD97":168667.75,"N_COORD97":2553101.4300000002,"ADDRESS":"公學路一段２０巷７號","OBJECTID":351824},"geometry":{"x":168667.75000000186,"y":2553101.4300000016}},{"attributes":{"ID":351834,"DIS_CODE":0,"TOWNNAME":"安南區","LI":"公親里","LIN":"6鄰","STREET":"公學路","SECT":"一段","MAREA":" ","LANE":"６巷","ALLEY":" ","HOUSE_NO":"１號","E_COORD97":168765.67999999999,"N_COORD97":2553179.1499999999,"ADDRESS":"公學路一段６巷１號","OBJECTID":351825},"geometry":{"x":168765.6799999997,"y":2553179.1500000022}},{"attributes":{"ID":351835,"DIS_CODE":0,"TOWNNAME":"安南區","LI":"公親里","LIN":"6鄰","STREET":"公學路","SECT":"一段","MAREA":" ","LANE":"６巷","ALLEY":" ","HOUSE_NO":"３號","E_COORD97":168766.32000000001,"N_COORD97":2553184.3300000001,"ADDRESS":"公學路一段６巷３號","OBJECTID":351826},"geometry":{"x":168766.32000000123,"y":2553184.3300000019}},{"attributes":{"ID":351836,"DIS_CODE":0,"TOWNNAME":"安南區","LI":"公親里","LIN":"6鄰","STREET":"公學路","SECT":"一段","MAREA":" ","LANE":"６巷","ALLEY":" ","HOUSE_NO":"５號","E_COORD97":168766.97,"N_COORD97":2553189.52,"ADDRESS":"公學路一段６巷５號","OBJECTID":351827},"geometry":{"x":168766.96999999974,"y":2553189.5200000014}},{"attributes":{"ID":351837,"DIS_CODE":0,"TOWNNAME":"安南區","LI":"公親里","LIN":"6鄰","STREET":"公學路","SECT":"一段","MAREA":" ","LANE":"６巷","ALLEY":" ","HOUSE_NO":"７號","E_COORD97":168766.97,"N_COORD97":2553195.3399999999,"ADDRESS":"公學路一段６巷７號","OBJECTID":351828},"geometry":{"x":168766.96999999974,"y":2553195.3399999999}},{"attributes":{"ID":351838,"DIS_CODE":0,"TOWNNAME":"安南區","LI":"公親里","LIN":"6鄰","STREET":"公學路","SECT":"一段","MAREA":" ","LANE":"６巷","ALLEY":" ","HOUSE_NO":"９號","E_COORD97":168766.32000000001,"N_COORD97":2553197.9399999999,"ADDRESS":"公學路一段６巷９號","OBJECTID":351829},"geometry":{"x":168766.32000000123,"y":2553197.9399999995}},{"attributes":{"ID":351839,"DIS_CODE":0,"TOWNNAME":"安南區","LI":"公\u25A0里","LIN":"6鄰","STREET":"公學路","SECT":"五段","MAREA":" ","LANE":"３６３巷","ALLEY":" ","HOUSE_NO":"１２號","E_COORD97":164349.82999999999,"N_COORD97":2552370.73,"ADDRESS":"公學路五段３６３巷１２號","OBJECTID":351830},"geometry":{"x":164349.83000000101,"y":2552370.7300000023}},{"attributes":{"ID":351840,"DIS_CODE":0,"TOWNNAME":"安南區","LI":"公\u25A0里","LIN":"6鄰","STREET":"公學路","SECT":"五段","MAREA":" ","LANE":"３６３巷","ALLEY":" ","HOUSE_NO":"１４號","E_COORD97":164337.92999999999,"N_COORD97":2552394.04,"ADDRESS":"公學路五段３６３巷１４號","OBJECTID":351831},"geometry":{"x":164337.9299999997,"y":2552394.0400000028}},{"attributes":{"ID":351841,"DIS_CODE":0,"TOWNNAME":"安南區","LI":"公\u25A0里","LIN":"6鄰","STREET":"公學路","SECT":"五段","MAREA":" ","LANE":"３６３巷","ALLEY":" ","HOUSE_NO":"１６號","E_COORD97":164328.01000000001,"N_COORD97":2552394.3700000001,"ADDRESS":"公學路五段３６３巷１６號","OBJECTID":351832},"geometry":{"x":164328.01000000071,"y":2552394.3700000029}},{"attributes":{"ID":351842,"DIS_CODE":0,"TOWNNAME":"安南區","LI":"砂崙里","LIN":"6鄰","STREET":"城北路","SECT":" ","MAREA":" ","LANE":"７３５巷","ALLEY":" ","HOUSE_NO":"３３０號","E_COORD97":160155.95999999999,"N_COORD97":2552847.0899999999,"ADDRESS":"城北路７３５巷３３０號","OBJECTID":351833},"geometry":{"x":160155.95999999996,"y":2552847.0899999999}},{"attributes":{"ID":351843,"DIS_CODE":0,"TOWNNAME":"安南區","LI":"海東里","LIN":"6鄰","STREET":"同安路","SECT":" ","MAREA":" ","LANE":"３４７巷","ALLEY":" ","HOUSE_NO":"６６號","E_COORD97":167218.07000000001,"N_COORD97":2549377.4700000002,"ADDRESS":"同安路３４７巷６６號","OBJECTID":351834},"geometry":{"x":167218.07000000216,"y":2549377.4700000007}},{"attributes":{"ID":351844,"DIS_CODE":0,"TOWNNAME":"安南區","LI":"海東里","LIN":"6鄰","STREET":"同安路","SECT":" ","MAREA":" ","LANE":"３４７巷","ALLEY":" ","HOUSE_NO":"６８號","E_COORD97":167214.54999999999,"N_COORD97":2549380.0499999998,"ADDRESS":"同安路３４７巷６８號","OBJECTID":351835},"geometry":{"x":167214.55000000075,"y":2549380.0500000007}},{"attributes":{"ID":351845,"DIS_CODE":0,"TOWNNAME":"新市區","LI":"新和里","LIN":"6鄰","STREET":"富強路","SECT":" ","MAREA":" ","LANE":"４１巷","ALLEY":" ","HOUSE_NO":"９號","E_COORD97":177316.76000000001,"N_COORD97":2552390.5,"ADDRESS":"富強路４１巷９號","OBJECTID":351836},"geometry":{"x":177316.76000000071,"y":2552390.5}},{"attributes":{"ID":351846,"DIS_CODE":0,"TOWNNAME":"新市區","LI":"新和里","LIN":"6鄰","STREET":"富強路","SECT":" ","MAREA":" ","LANE":"３１巷","ALLEY":" ","HOUSE_NO":"４號","E_COORD97":177330.09,"N_COORD97":2552413.25,"ADDRESS":"富強路３１巷４號","OBJECTID":351837},"geometry":{"x":177330.09000000078,"y":2552413.25}},{"attributes":{"ID":351847,"DIS_CODE":0,"TOWNNAME":"永康區","LI":"安康里","LIN":"6鄰","STREET":"中華路","SECT":" ","MAREA":" ","LANE":"７２７巷","ALLEY":" ","HOUSE_NO":"３６號","E_COORD97":170753.25,"N_COORD97":2546381.2200000002,"ADDRESS":"中華路７２７巷３６號","OBJECTID":351838},"geometry":{"x":170753.25000000093,"y":2546381.2200000025}},{"attributes":{"ID":351848,"DIS_CODE":0,"TOWNNAME":"安南區","LI":"安西里","LIN":"6鄰","STREET":"安和路","SECT":"一段","MAREA":" ","LANE":"２６３巷","ALLEY":" ","HOUSE_NO":"５２號","E_COORD97":169128.94928599999,"N_COORD97":2548001.94838,"ADDRESS":"安和路一段２６３巷５２號","OBJECTID":351839},"geometry":{"x":169128.94928600173,"y":2548001.9483780004}},{"attributes":{"ID":351849,"DIS_CODE":0,"TOWNNAME":"安南區","LI":"安西里","LIN":"6鄰","STREET":"安和路","SECT":"一段","MAREA":" ","LANE":"２６３巷","ALLEY":" ","HOUSE_NO":"５８號","E_COORD97":169121.76000000001,"N_COORD97":2548012.2000000002,"ADDRESS":"安和路一段２６３巷５８號","OBJECTID":351840},"geometry":{"x":169121.76000000071,"y":2548012.1999999993}},{"attributes":{"ID":351850,"DIS_CODE":0,"TOWNNAME":"安南區","LI":"安西里","LIN":"6鄰","STREET":"安和路","SECT":"一段","MAREA":" ","LANE":"２６３巷","ALLEY":" ","HOUSE_NO":"６０號","E_COORD97":169117.45000000001,"N_COORD97":2548011.0299999998,"ADDRESS":"安和路一段２６３巷６０號","OBJECTID":351841},"geometry":{"x":169117.45000000205,"y":2548011.0300000012}},{"attributes":{"ID":351851,"DIS_CODE":0,"TOWNNAME":"安南區","LI":"安西里","LIN":"6鄰","STREET":"安和路","SECT":"一段","MAREA":" ","LANE":"２６３巷","ALLEY":" ","HOUSE_NO":"６２號","E_COORD97":169111.97,"N_COORD97":2548006.73,"ADDRESS":"安和路一段２６３巷６２號","OBJECTID":351842},"geometry":{"x":169111.97000000067,"y":2548006.7300000042}},{"attributes":{"ID":351852,"DIS_CODE":0,"TOWNNAME":"安南區","LI":"安西里","LIN":"6鄰","STREET":"安和路","SECT":"一段","MAREA":" ","LANE":"２６３巷","ALLEY":" ","HOUSE_NO":"６４號","E_COORD97":169102.97,"N_COORD97":2548009.8599999999,"ADDRESS":"安和路一段２６３巷６４號","OBJECTID":351843},"geometry":{"x":169102.96999999974,"y":2548009.8600000013}},{"attributes":{"ID":351853,"DIS_CODE":0,"TOWNNAME":"安南區","LI":"安西里","LIN":"6鄰","STREET":"安和路","SECT":"一段","MAREA":" ","LANE":"２８５巷","ALLEY":" ","HOUSE_NO":"３８號","E_COORD97":169169.89000000001,"N_COORD97":2548066.71,"ADDRESS":"安和路一段２８５巷３８號","OBJECTID":351844},"geometry":{"x":169169.89000000153,"y":2548066.7100000028}},{"attributes":{"ID":351854,"DIS_CODE":0,"TOWNNAME":"安平區","LI":"平通里","LIN":"32鄰","STREET":"永華路","SECT":"二段","MAREA":" ","LANE":" ","ALLEY":" ","HOUSE_NO":"８９８號","E_COORD97":164562.95000000001,"N_COORD97":2543645.5099999998,"ADDRESS":"永華路二段８９８號","OBJECTID":351845},"geometry":{"x":164562.95000000112,"y":2543645.5100000016}},{"attributes":{"ID":351855,"DIS_CODE":0,"TOWNNAME":"安平區","LI":"平通里","LIN":"32鄰","STREET":"育平六街","SECT":" ","MAREA":" ","LANE":" ","ALLEY":" ","HOUSE_NO":"１００號","E_COORD97":164363.92000000001,"N_COORD97":2543724.7400000002,"ADDRESS":"育平六街１００號","OBJECTID":351846},"geometry":{"x":164363.91999999899,"y":2543724.7400000039}},{"attributes":{"ID":351856,"DIS_CODE":0,"TOWNNAME":"安平區","LI":"平通里","LIN":"32鄰","STREET":"育平六街","SECT":" ","MAREA":" ","LANE":" ","ALLEY":" ","HOUSE_NO":"１０１號","E_COORD97":164350.64000000001,"N_COORD97":2543682.46,"ADDRESS":"育平六街１０１號","OBJECTID":351847},"geometry":{"x":164350.6400000006,"y":2543682.4600000009}},{"attributes":{"ID":351857,"DIS_CODE":0,"TOWNNAME":"安平區","LI":"平通里","LIN":"32鄰","STREET":"育平六街","SECT":" ","MAREA":" ","LANE":" ","ALLEY":" ","HOUSE_NO":"３８號","E_COORD97":164515.98999999999,"N_COORD97":2543703.6499999999,"ADDRESS":"育平六街３８號","OBJECTID":351848},"geometry":{"x":164515.99000000022,"y":2543703.6500000004}},{"attributes":{"ID":351858,"DIS_CODE":0,"TOWNNAME":"新化區","LI":"全興里","LIN":"18鄰","STREET":" ","SECT":" ","MAREA":"竹子\u25A0","LANE":" ","ALLEY":" ","HOUSE_NO":"２４７號之９７","E_COORD97":178499.73000000001,"N_COORD97":2546755.2599999998,"ADDRESS":"竹子\u25A0２４７號之９７","OBJECTID":351849},"geometry":{"x":178499.73000000045,"y":2546755.2600000016}},{"attributes":{"ID":351859,"DIS_CODE":0,"TOWNNAME":"安南區","LI":"梅花里","LIN":"18鄰","STREET":"同安路","SECT":" ","MAREA":" ","LANE":"３２２巷","ALLEY":" ","HOUSE_NO":"２５號","E_COORD97":167304.39999999999,"N_COORD97":2549217.9199999999,"ADDRESS":"同安路３２２巷２５號","OBJECTID":351850},"geometry":{"x":167304.4000000013,"y":2549217.9199999999}},{"attributes":{"ID":351860,"DIS_CODE":0,"TOWNNAME":"安南區","LI":"梅花里","LIN":"18鄰","STREET":"同安路","SECT":" ","MAREA":" ","LANE":"３２２巷","ALLEY":" ","HOUSE_NO":"２９號","E_COORD97":167292.06,"N_COORD97":2549206.6499999999,"ADDRESS":"同安路３２２巷２９號","OBJECTID":351851},"geometry":{"x":167292.06000000145,"y":2549206.6500000004}},{"attributes":{"ID":351861,"DIS_CODE":0,"TOWNNAME":"安南區","LI":"梅花里","LIN":"18鄰","STREET":"同安路","SECT":" ","MAREA":" ","LANE":"３２２巷","ALLEY":" ","HOUSE_NO":"３３號","E_COORD97":167300.35999999999,"N_COORD97":2549202.8300000001,"ADDRESS":"同安路３２２巷３３號","OBJECTID":351852},"geometry":{"x":167300.36000000034,"y":2549202.8300000038}},{"attributes":{"ID":351862,"DIS_CODE":0,"TOWNNAME":"安南區","LI":"安西里","LIN":"6鄰","STREET":"安和路","SECT":"一段","MAREA":" ","LANE":"２８５巷","ALLEY":" ","HOUSE_NO":"４６號","E_COORD97":169153.07000000001,"N_COORD97":2548055.3799999999,"ADDRESS":"安和路一段２８５巷４６號","OBJECTID":351853},"geometry":{"x":169153.07000000123,"y":2548055.3800000027}},{"attributes":{"ID":351863,"DIS_CODE":0,"TOWNNAME":"安南區","LI":"安西里","LIN":"6鄰","STREET":"安和路","SECT":"一段","MAREA":" ","LANE":"２８５巷","ALLEY":" ","HOUSE_NO":"５０號","E_COORD97":169138.19,"N_COORD97":2548053.4199999999,"ADDRESS":"安和路一段２８５巷５０號","OBJECTID":351854},"geometry":{"x":169138.19000000134,"y":2548053.4200000018}},{"attributes":{"ID":351864,"DIS_CODE":0,"TOWNNAME":"安南區","LI":"安西里","LIN":"6鄰","STREET":"安和路","SECT":"一段","MAREA":" ","LANE":"２８５巷","ALLEY":" ","HOUSE_NO":"５５號","E_COORD97":169117.84,"N_COORD97":2548023.1400000001,"ADDRESS":"安和路一段２８５巷５５號","OBJECTID":351855},"geometry":{"x":169117.84000000171,"y":2548023.1400000006}},{"attributes":{"ID":351865,"DIS_CODE":0,"TOWNNAME":"安南區","LI":"安西里","LIN":"6鄰","STREET":"安和路","SECT":"一段","MAREA":" ","LANE":"２８５巷","ALLEY":" ","HOUSE_NO":"５７號","E_COORD97":169115.10000000001,"N_COORD97":2548022.75,"ADDRESS":"安和路一段２８５巷５７號","OBJECTID":351856},"geometry":{"x":169115.09999999963,"y":2548022.75}},{"attributes":{"ID":351866,"DIS_CODE":0,"TOWNNAME":"安南區","LI":"安西里","LIN":"6鄰","STREET":"安和路","SECT":"一段","MAREA":" ","LANE":"２８５巷","ALLEY":" ","HOUSE_NO":"６９號","E_COORD97":169060.10999999999,"N_COORD97":2548032.2000000002,"ADDRESS":"安和路一段２８５巷６９號","OBJECTID":351857},"geometry":{"x":169060.11000000034,"y":2548032.1999999993}},{"attributes":{"ID":351867,"DIS_CODE":0,"TOWNNAME":"安南區","LI":"安西里","LIN":"6鄰","STREET":"安和路","SECT":"一段","MAREA":" ","LANE":"２８５巷","ALLEY":" ","HOUSE_NO":"８６號","E_COORD97":169031.85999999999,"N_COORD97":2548044.3399999999,"ADDRESS":"安和路一段２８５巷８６號","OBJECTID":351858},"geometry":{"x":169031.86000000127,"y":2548044.3400000017}},{"attributes":{"ID":351868,"DIS_CODE":0,"TOWNNAME":"安南區","LI":"安西里","LIN":"6鄰","STREET":"安和路","SECT":"一段","MAREA":" ","LANE":"２８５巷","ALLEY":" ","HOUSE_NO":"９０號","E_COORD97":169017.07999999999,"N_COORD97":2548041.7200000002,"ADDRESS":"安和路一段２８５巷９０號","OBJECTID":351859},"geometry":{"x":169017.08000000101,"y":2548041.7200000025}},{"attributes":{"ID":351869,"DIS_CODE":0,"TOWNNAME":"安南區","LI":"安東里","LIN":"6鄰","STREET":"安和路","SECT":"一段","MAREA":" ","LANE":"２８８巷","ALLEY":" ","HOUSE_NO":"３６號","E_COORD97":169397.70000000001,"N_COORD97":2548083.9500000002,"ADDRESS":"安和路一段２８８巷３６號","OBJECTID":351860},"geometry":{"x":169397.70000000112,"y":2548083.9499999993}},{"attributes":{"ID":351870,"DIS_CODE":0,"TOWNNAME":"安南區","LI":"安東里","LIN":"6鄰","STREET":"安和路","SECT":"一段","MAREA":" ","LANE":"２８８巷","ALLEY":" ","HOUSE_NO":"３８號","E_COORD97":169397,"N_COORD97":2548087.02,"ADDRESS":"安和路一段２８８巷３８號","OBJECTID":351861},"geometry":{"x":169397.00000000093,"y":2548087.0199999996}},{"attributes":{"ID":351871,"DIS_CODE":0,"TOWNNAME":"安南區","LI":"安東里","LIN":"6鄰","STREET":"安和路","SECT":"一段","MAREA":" ","LANE":"２８８巷","ALLEY":" ","HOUSE_NO":"４１號","E_COORD97":169394.07000000001,"N_COORD97":2548119.0699999998,"ADDRESS":"安和路一段２８８巷４１號","OBJECTID":351862},"geometry":{"x":169394.0700000003,"y":2548119.0700000003}},{"attributes":{"ID":351872,"DIS_CODE":0,"TOWNNAME":"安南區","LI":"安東里","LIN":"6鄰","STREET":"安和路","SECT":"一段","MAREA":" ","LANE":"２８８巷","ALLEY":" ","HOUSE_NO":"６０號","E_COORD97":169434.73000000001,"N_COORD97":2548110.1299999999,"ADDRESS":"安和路一段２８８巷６０號","OBJECTID":351863},"geometry":{"x":169434.73000000138,"y":2548110.129999999}},{"attributes":{"ID":351873,"DIS_CODE":0,"TOWNNAME":"安南區","LI":"安西里","LIN":"6鄰","STREET":"安和路","SECT":"一段","MAREA":" ","LANE":"２８５巷","ALLEY":" ","HOUSE_NO":"４０號","E_COORD97":169165.59,"N_COORD97":2548062.7999999998,"ADDRESS":"安和路一段２８５巷４０號","OBJECTID":351864},"geometry":{"x":169165.59000000078,"y":2548062.8000000007}},{"attributes":{"ID":351874,"DIS_CODE":0,"TOWNNAME":"安南區","LI":"安西里","LIN":"6鄰","STREET":"安和路","SECT":"一段","MAREA":" ","LANE":"２８５巷","ALLEY":" ","HOUSE_NO":"４２號","E_COORD97":169162.07000000001,"N_COORD97":2548062.02,"ADDRESS":"安和路一段２８５巷４２號","OBJECTID":351865},"geometry":{"x":169162.0700000003,"y":2548062.0200000014}},{"attributes":{"ID":351875,"DIS_CODE":0,"TOWNNAME":"安南區","LI":"州北里","LIN":"6鄰","STREET":"安和路","SECT":"五段","MAREA":" ","LANE":"１７１巷","ALLEY":" ","HOUSE_NO":"６９號","E_COORD97":169684.09,"N_COORD97":2551768.3799999999,"ADDRESS":"安和路五段１７１巷６９號","OBJECTID":351866},"geometry":{"x":169684.09000000171,"y":2551768.3800000008}},{"attributes":{"ID":351876,"DIS_CODE":0,"TOWNNAME":"安南區","LI":"安西里","LIN":"6鄰","STREET":"安中路","SECT":"一段","MAREA":" ","LANE":"２９巷","ALLEY":" ","HOUSE_NO":"２２０號","E_COORD97":168963.67413199999,"N_COORD97":2548160.8105600001,"ADDRESS":"安中路一段２９巷２２０號","OBJECTID":351867},"geometry":{"x":168963.67413200159,"y":2548160.8105590027}},{"attributes":{"ID":351877,"DIS_CODE":0,"TOWNNAME":"安南區","LI":"安東里","LIN":"6鄰","STREET":"安和路","SECT":"一段","MAREA":" ","LANE":"２８８巷","ALLEY":" ","HOUSE_NO":"２５號","E_COORD97":169370.31,"N_COORD97":2548105.6600000001,"ADDRESS":"安和路一段２８８巷２５號","OBJECTID":351868},"geometry":{"x":169370.31000000145,"y":2548105.660000002}},{"attributes":{"ID":351878,"DIS_CODE":0,"TOWNNAME":"安南區","LI":"安東里","LIN":"6鄰","STREET":"安和路","SECT":"一段","MAREA":" ","LANE":"２８８巷","ALLEY":" ","HOUSE_NO":"２７號","E_COORD97":169374.92000000001,"N_COORD97":2548105.7999999998,"ADDRESS":"安和路一段２８８巷２７號","OBJECTID":351869},"geometry":{"x":169374.92000000179,"y":2548105.8000000026}},{"attributes":{"ID":351879,"DIS_CODE":0,"TOWNNAME":"安南區","LI":"溪墘里","LIN":"6鄰","STREET":"海佃路","SECT":"一段","MAREA":" ","LANE":"２４６巷","ALLEY":" ","HOUSE_NO":"４１號","E_COORD97":167258.10000000001,"N_COORD97":2547354.98,"ADDRESS":"海佃路一段２４６巷４１號","OBJECTID":351870},"geometry":{"x":167258.10000000056,"y":2547354.9800000023}},{"attributes":{"ID":351880,"DIS_CODE":0,"TOWNNAME":"安南區","LI":"溪墘里","LIN":"6鄰","STREET":"海佃路","SECT":"一段","MAREA":" ","LANE":"２４６巷","ALLEY":" ","HOUSE_NO":"４５號","E_COORD97":167266.84,"N_COORD97":2547356.6699999999,"ADDRESS":"海佃路一段２４６巷４５號","OBJECTID":351871},"geometry":{"x":167266.84000000078,"y":2547356.6700000018}},{"attributes":{"ID":351881,"DIS_CODE":0,"TOWNNAME":"安南區","LI":"溪墘里","LIN":"6鄰","STREET":"海佃路","SECT":"一段","MAREA":" ","LANE":"２４６巷","ALLEY":" ","HOUSE_NO":"４７號","E_COORD97":167271.73999999999,"N_COORD97":2547357.7799999998,"ADDRESS":"海佃路一段２４６巷４７號","OBJECTID":351872},"geometry":{"x":167271.74000000115,"y":2547357.7800000031}},{"attributes":{"ID":351882,"DIS_CODE":0,"TOWNNAME":"安平區","LI":"平通里","LIN":"32鄰","STREET":"育平六街","SECT":" ","MAREA":" ","LANE":" ","ALLEY":" ","HOUSE_NO":"４０號","E_COORD97":164513.82999999999,"N_COORD97":2543703.4900000002,"ADDRESS":"育平六街４０號","OBJECTID":351873},"geometry":{"x":164513.82999999914,"y":2543703.4900000021}},{"attributes":{"ID":351883,"DIS_CODE":0,"TOWNNAME":"安平區","LI":"平通里","LIN":"32鄰","STREET":"育平六街","SECT":" ","MAREA":" ","LANE":" ","ALLEY":" ","HOUSE_NO":"４２號","E_COORD97":164511.51000000001,"N_COORD97":2543703.8199999998,"ADDRESS":"育平六街４２號","OBJECTID":351874},"geometry":{"x":164511.51000000071,"y":2543703.820000004}},{"attributes":{"ID":351884,"DIS_CODE":0,"TOWNNAME":"安平區","LI":"平通里","LIN":"32鄰","STREET":"育平六街","SECT":" ","MAREA":" ","LANE":" ","ALLEY":" ","HOUSE_NO":"４２號之１","E_COORD97":164508.67999999999,"N_COORD97":2543703.9900000002,"ADDRESS":"育平六街４２號之１","OBJECTID":351875},"geometry":{"x":164508.6799999997,"y":2543703.9900000021}},{"attributes":{"ID":351885,"DIS_CODE":0,"TOWNNAME":"南區","LI":"白雪里","LIN":"18鄰","STREET":"新都路","SECT":" ","MAREA":" ","LANE":"５９０巷","ALLEY":" ","HOUSE_NO":"１６號","E_COORD97":166906.67999999999,"N_COORD97":2540954,"ADDRESS":"新都路５９０巷１６號","OBJECTID":351876},"geometry":{"x":166906.68000000063,"y":2540954.0000000019}},{"attributes":{"ID":351886,"DIS_CODE":0,"TOWNNAME":"南區","LI":"光明里","LIN":"18鄰","STREET":"新建路","SECT":" ","MAREA":" ","LANE":"１９巷","ALLEY":" ","HOUSE_NO":"１號","E_COORD97":166480.75,"N_COORD97":2541471.6699999999,"ADDRESS":"新建路１９巷１號","OBJECTID":351877},"geometry":{"x":166480.74999999907,"y":2541471.6700000018}},{"attributes":{"ID":351887,"DIS_CODE":0,"TOWNNAME":"南區","LI":"光明里","LIN":"18鄰","STREET":"新建路","SECT":" ","MAREA":" ","LANE":"１９巷","ALLEY":" ","HOUSE_NO":"３號","E_COORD97":166487.28,"N_COORD97":2541471.5,"ADDRESS":"新建路１９巷３號","OBJECTID":351878},"geometry":{"x":166487.28000000026,"y":2541471.5000000037}},{"attributes":{"ID":351888,"DIS_CODE":0,"TOWNNAME":"南區","LI":"光明里","LIN":"18鄰","STREET":"新建路","SECT":" ","MAREA":" ","LANE":"１９巷","ALLEY":" ","HOUSE_NO":"５號","E_COORD97":166497.41,"N_COORD97":2541471.8300000001,"ADDRESS":"新建路１９巷５號","OBJECTID":351879},"geometry":{"x":166497.41000000108,"y":2541471.8300000001}},{"attributes":{"ID":351889,"DIS_CODE":0,"TOWNNAME":"南區","LI":"光明里","LIN":"18鄰","STREET":"新建路","SECT":" ","MAREA":" ","LANE":"１９巷","ALLEY":" ","HOUSE_NO":"７號","E_COORD97":166504.92999999999,"N_COORD97":2541471.9900000002,"ADDRESS":"新建路１９巷７號","OBJECTID":351880},"geometry":{"x":166504.93000000063,"y":2541471.9900000021}},{"attributes":{"ID":351890,"DIS_CODE":0,"TOWNNAME":"南區","LI":"光明里","LIN":"18鄰","STREET":"新建路","SECT":" ","MAREA":" ","LANE":"１９巷","ALLEY":" ","HOUSE_NO":"９號","E_COORD97":166514.56,"N_COORD97":2541471.5,"ADDRESS":"新建路１９巷９號","OBJECTID":351881},"geometry":{"x":166514.56000000052,"y":2541471.5000000037}},{"attributes":{"ID":351891,"DIS_CODE":0,"TOWNNAME":"安南區","LI":"溪墘里","LIN":"6鄰","STREET":"海佃路","SECT":"一段","MAREA":" ","LANE":"２４６巷","ALLEY":" ","HOUSE_NO":"４９號","E_COORD97":167276.23000000001,"N_COORD97":2547358.8799999999,"ADDRESS":"海佃路一段２４６巷４９號","OBJECTID":351882},"geometry":{"x":167276.23000000045,"y":2547358.879999999}},{"attributes":{"ID":351892,"DIS_CODE":0,"TOWNNAME":"安南區","LI":"溪墘里","LIN":"6鄰","STREET":"海佃路","SECT":"一段","MAREA":" ","LANE":"２４６巷","ALLEY":" ","HOUSE_NO":"５１號","E_COORD97":167280.20000000001,"N_COORD97":2547359.8199999998,"ADDRESS":"海佃路一段２４６巷５１號","OBJECTID":351883},"geometry":{"x":167280.20000000112,"y":2547359.8200000022}},{"attributes":{"ID":351893,"DIS_CODE":0,"TOWNNAME":"安南區","LI":"溪墘里","LIN":"6鄰","STREET":"海佃路","SECT":"一段","MAREA":" ","LANE":"２４６巷","ALLEY":" ","HOUSE_NO":"５３號","E_COORD97":167284.75,"N_COORD97":2547360.3999999999,"ADDRESS":"海佃路一段２４６巷５３號","OBJECTID":351884},"geometry":{"x":167284.75000000093,"y":2547360.4000000004}},{"attributes":{"ID":351894,"DIS_CODE":0,"TOWNNAME":"安南區","LI":"溪墘里","LIN":"6鄰","STREET":"海佃路","SECT":"一段","MAREA":" ","LANE":"２４６巷","ALLEY":" ","HOUSE_NO":"５５號","E_COORD97":167289.25,"N_COORD97":2547361.4500000002,"ADDRESS":"海佃路一段２４６巷５５號","OBJECTID":351885},"geometry":{"x":167289.25,"y":2547361.4500000011}},{"attributes":{"ID":351895,"DIS_CODE":0,"TOWNNAME":"安南區","LI":"溪墘里","LIN":"6鄰","STREET":"海佃路","SECT":"一段","MAREA":" ","LANE":"２４６巷","ALLEY":" ","HOUSE_NO":"５７號","E_COORD97":167293.69,"N_COORD97":2547362.5600000001,"ADDRESS":"海佃路一段２４６巷５７號","OBJECTID":351886},"geometry":{"x":167293.69000000227,"y":2547362.5600000005}},{"attributes":{"ID":351896,"DIS_CODE":0,"TOWNNAME":"安南區","LI":"溪墘里","LIN":"6鄰","STREET":"海佃路","SECT":"一段","MAREA":" ","LANE":"２４６巷","ALLEY":" ","HOUSE_NO":"５９號","E_COORD97":167298.06,"N_COORD97":2547364.1299999999,"ADDRESS":"海佃路一段２４６巷５９號","OBJECTID":351887},"geometry":{"x":167298.05999999959,"y":2547364.129999999}},{"attributes":{"ID":351897,"DIS_CODE":0,"TOWNNAME":"安南區","LI":"溪墘里","LIN":"6鄰","STREET":"海佃路","SECT":"一段","MAREA":" ","LANE":"２４６巷","ALLEY":" ","HOUSE_NO":"６１號","E_COORD97":167302.60999999999,"N_COORD97":2547364.77,"ADDRESS":"海佃路一段２４６巷６１號","OBJECTID":351888},"geometry":{"x":167302.6100000022,"y":2547364.7700000033}},{"attributes":{"ID":351898,"DIS_CODE":0,"TOWNNAME":"安南區","LI":"溪墘里","LIN":"6鄰","STREET":"海佃路","SECT":"一段","MAREA":" ","LANE":"２４６巷","ALLEY":" ","HOUSE_NO":"６５號","E_COORD97":167311.48000000001,"N_COORD97":2547366.75,"ADDRESS":"海佃路一段２４６巷６５號","OBJECTID":351889},"geometry":{"x":167311.48000000045,"y":2547366.7500000019}},{"attributes":{"ID":351899,"DIS_CODE":0,"TOWNNAME":"楠西區","LI":"楠西里","LIN":"8鄰","STREET":"民權路","SECT":" ","MAREA":" ","LANE":" ","ALLEY":" ","HOUSE_NO":"３６號","E_COORD97":197302.64000000001,"N_COORD97":2564254.29,"ADDRESS":"民權路３６號","OBJECTID":351890},"geometry":{"x":197302.63999999966,"y":2564254.2899999991}},{"attributes":{"ID":351900,"DIS_CODE":0,"TOWNNAME":"楠西區","LI":"楠西里","LIN":"8鄰","STREET":"中華路","SECT":" ","MAREA":" ","LANE":" ","ALLEY":" ","HOUSE_NO":"８０號","E_COORD97":197272.01000000001,"N_COORD97":2564161.2400000002,"ADDRESS":"中華路８０號","OBJECTID":351891},"geometry":{"x":197272.01000000164,"y":2564161.2400000002}},{"attributes":{"ID":351901,"DIS_CODE":0,"TOWNNAME":"楠西區","LI":"楠西里","LIN":"8鄰","STREET":"民權路","SECT":" ","MAREA":" ","LANE":" ","ALLEY":" ","HOUSE_NO":"１８號","E_COORD97":197258.44,"N_COORD97":2564259.29,"ADDRESS":"民權路１８號","OBJECTID":351892},"geometry":{"x":197258.44000000134,"y":2564259.290000001}},{"attributes":{"ID":351902,"DIS_CODE":0,"TOWNNAME":"楠西區","LI":"東勢里","LIN":"8鄰","STREET":"東勢路","SECT":" ","MAREA":" ","LANE":" ","ALLEY":" ","HOUSE_NO":"８２號","E_COORD97":197578.01999999999,"N_COORD97":2564067.29,"ADDRESS":"東勢路８２號","OBJECTID":351893},"geometry":{"x":197578.01999999955,"y":2564067.2899999991}},{"attributes":{"ID":351903,"DIS_CODE":0,"TOWNNAME":"楠西區","LI":"楠西里","LIN":"8鄰","STREET":"中興路","SECT":" ","MAREA":" ","LANE":" ","ALLEY":" ","HOUSE_NO":"３６號","E_COORD97":197195.41,"N_COORD97":2564189.25,"ADDRESS":"中興路３６號","OBJECTID":351894},"geometry":{"x":197195.41000000108,"y":2564189.2500000019}},{"attributes":{"ID":351904,"DIS_CODE":0,"TOWNNAME":"楠西區","LI":"楠西里","LIN":"8鄰","STREET":"中興路","SECT":" ","MAREA":" ","LANE":" ","ALLEY":" ","HOUSE_NO":"６０號","E_COORD97":197211.31,"N_COORD97":2564254.25,"ADDRESS":"中興路６０號","OBJECTID":351895},"geometry":{"x":197211.30999999959,"y":2564254.2500000019}},{"attributes":{"ID":351905,"DIS_CODE":0,"TOWNNAME":"南區","LI":"府南里","LIN":"18鄰","STREET":"大成路","SECT":"二段","MAREA":" ","LANE":"１７７巷","ALLEY":" ","HOUSE_NO":"３０號","E_COORD97":167243.54000000001,"N_COORD97":2541645.9900000002,"ADDRESS":"大成路二段１７７巷３０號","OBJECTID":351896},"geometry":{"x":167243.5400000019,"y":2541645.9900000021}},{"attributes":{"ID":351906,"DIS_CODE":0,"TOWNNAME":"南區","LI":"府南里","LIN":"18鄰","STREET":"大成路","SECT":"二段","MAREA":" ","LANE":"１７７巷","ALLEY":" ","HOUSE_NO":"３２號","E_COORD97":167241.69,"N_COORD97":2541640.0299999998,"ADDRESS":"大成路二段１７７巷３２號","OBJECTID":351897},"geometry":{"x":167241.69000000134,"y":2541640.0300000031}},{"attributes":{"ID":351907,"DIS_CODE":0,"TOWNNAME":"南區","LI":"府南里","LIN":"18鄰","STREET":"大成路","SECT":"二段","MAREA":" ","LANE":"１７７巷","ALLEY":" ","HOUSE_NO":"３４號","E_COORD97":167238.42000000001,"N_COORD97":2541634.8799999999,"ADDRESS":"大成路二段１７７巷３４號","OBJECTID":351898},"geometry":{"x":167238.41999999993,"y":2541634.8800000008}},{"attributes":{"ID":351908,"DIS_CODE":0,"TOWNNAME":"安南區","LI":"溪墘里","LIN":"6鄰","STREET":"海佃路","SECT":"一段","MAREA":" ","LANE":"２４６巷","ALLEY":" ","HOUSE_NO":"９號","E_COORD97":167185.04000000001,"N_COORD97":2547339.6200000001,"ADDRESS":"海佃路一段２４６巷９號","OBJECTID":351899},"geometry":{"x":167185.04000000004,"y":2547339.620000001}},{"attributes":{"ID":351909,"DIS_CODE":0,"TOWNNAME":"下營區","LI":"新興里","LIN":"6鄰","STREET":"慈惠街","SECT":" ","MAREA":" ","LANE":"２６巷","ALLEY":" ","HOUSE_NO":"１７號","E_COORD97":175161.20000000001,"N_COORD97":2570653.4500000002,"ADDRESS":"慈惠街２６巷１７號","OBJECTID":351900},"geometry":{"x":175161.20000000112,"y":2570653.4500000011}},{"attributes":{"ID":351910,"DIS_CODE":0,"TOWNNAME":"下營區","LI":"新興里","LIN":"6鄰","STREET":"慈惠街","SECT":" ","MAREA":" ","LANE":"２６巷","ALLEY":" ","HOUSE_NO":"１８號","E_COORD97":175174.26999999999,"N_COORD97":2570641.9500000002,"ADDRESS":"慈惠街２６巷１８號","OBJECTID":351901},"geometry":{"x":175174.26999999955,"y":2570641.9500000011}},{"attributes":{"ID":351911,"DIS_CODE":0,"TOWNNAME":"下營區","LI":"新興里","LIN":"6鄰","STREET":"慈惠街","SECT":" ","MAREA":" ","LANE":"２６巷","ALLEY":" ","HOUSE_NO":"１９號","E_COORD97":175162.17000000001,"N_COORD97":2570657.2999999998,"ADDRESS":"慈惠街２６巷１９號","OBJECTID":351902},"geometry":{"x":175162.16999999993,"y":2570657.3000000007}},{"attributes":{"ID":351912,"DIS_CODE":0,"TOWNNAME":"下營區","LI":"新興里","LIN":"6鄰","STREET":"慈惠街","SECT":" ","MAREA":" ","LANE":"２６巷","ALLEY":" ","HOUSE_NO":"１號","E_COORD97":175152.69,"N_COORD97":2570615.9199999999,"ADDRESS":"慈惠街２６巷１號","OBJECTID":351903},"geometry":{"x":175152.69000000134,"y":2570615.9200000018}},{"attributes":{"ID":351913,"DIS_CODE":0,"TOWNNAME":"楠西區","LI":"東勢里","LIN":"8鄰","STREET":"東勢路","SECT":" ","MAREA":" ","LANE":" ","ALLEY":" ","HOUSE_NO":"１１０號","E_COORD97":197518.97,"N_COORD97":2564054.29,"ADDRESS":"東勢路１１０號","OBJECTID":351904},"geometry":{"x":197518.96999999974,"y":2564054.2899999991}},{"attributes":{"ID":351914,"DIS_CODE":0,"TOWNNAME":"楠西區","LI":"東勢里","LIN":"8鄰","STREET":"東勢路","SECT":" ","MAREA":" ","LANE":" ","ALLEY":" ","HOUSE_NO":"１２０號","E_COORD97":197497.57000000001,"N_COORD97":2564052.29,"ADDRESS":"東勢路１２０號","OBJECTID":351905},"geometry":{"x":197497.57000000216,"y":2564052.290000001}},{"attributes":{"ID":351915,"DIS_CODE":0,"TOWNNAME":"楠西區","LI":"東勢里","LIN":"8鄰","STREET":"東勢路","SECT":" ","MAREA":" ","LANE":" ","ALLEY":" ","HOUSE_NO":"７２號","E_COORD97":197588.92000000001,"N_COORD97":2564064.2799999998,"ADDRESS":"東勢路７２號","OBJECTID":351906},"geometry":{"x":197588.91999999993,"y":2564064.2799999993}},{"attributes":{"ID":351916,"DIS_CODE":0,"TOWNNAME":"楠西區","LI":"東勢里","LIN":"8鄰","STREET":"東勢路","SECT":" ","MAREA":" ","LANE":" ","ALLEY":" ","HOUSE_NO":"９８號","E_COORD97":197538.01999999999,"N_COORD97":2564056.29,"ADDRESS":"東勢路９８號","OBJECTID":351907},"geometry":{"x":197538.02000000048,"y":2564056.290000001}},{"attributes":{"ID":351917,"DIS_CODE":0,"TOWNNAME":"下營區","LI":"新興里","LIN":"6鄰","STREET":"慈惠街","SECT":" ","MAREA":" ","LANE":"２６巷","ALLEY":" ","HOUSE_NO":"２０號","E_COORD97":175175.44,"N_COORD97":2570646.79,"ADDRESS":"慈惠街２６巷２０號","OBJECTID":351908},"geometry":{"x":175175.44000000041,"y":2570646.790000001}},{"attributes":{"ID":351918,"DIS_CODE":0,"TOWNNAME":"佳里區","LI":"東寧里","LIN":"18鄰","STREET":"新生東路","SECT":" ","MAREA":" ","LANE":" ","ALLEY":" ","HOUSE_NO":"１０號","E_COORD97":166250.60000000001,"N_COORD97":2562501.2400000002,"ADDRESS":"新生東路１０號","OBJECTID":351909},"geometry":{"x":166250.59999999963,"y":2562501.2400000021}},{"attributes":{"ID":351919,"DIS_CODE":0,"TOWNNAME":"仁德區","LI":"仁義里","LIN":"18鄰","STREET":"正義三街","SECT":" ","MAREA":" ","LANE":"２８６巷","ALLEY":" ","HOUSE_NO":"３２號","E_COORD97":173991.07999999999,"N_COORD97":2541473.4199999999,"ADDRESS":"正義三街２８６巷３２號","OBJECTID":351910},"geometry":{"x":173991.08000000007,"y":2541473.4200000018}},{"attributes":{"ID":351920,"DIS_CODE":0,"TOWNNAME":"仁德區","LI":"仁義里","LIN":"18鄰","STREET":"正義三街","SECT":" ","MAREA":" ","LANE":"２８６巷","ALLEY":" ","HOUSE_NO":"２８號","E_COORD97":173989.89999999999,"N_COORD97":2541493.6600000001,"ADDRESS":"正義三街２８６巷２８號","OBJECTID":351911},"geometry":{"x":173989.90000000224,"y":2541493.6600000001}},{"attributes":{"ID":351921,"DIS_CODE":0,"TOWNNAME":"仁德區","LI":"仁義里","LIN":"18鄰","STREET":"正義三街","SECT":" ","MAREA":" ","LANE":"２８６巷","ALLEY":" ","HOUSE_NO":"３８號","E_COORD97":174000.20000000001,"N_COORD97":2541471.4199999999,"ADDRESS":"正義三街２８６巷３８號","OBJECTID":351912},"geometry":{"x":174000.20000000112,"y":2541471.4199999999}},{"attributes":{"ID":351922,"DIS_CODE":0,"TOWNNAME":"仁德區","LI":"仁德里","LIN":"18鄰","STREET":"文華路","SECT":"三段","MAREA":" ","LANE":"１８９巷","ALLEY":" ","HOUSE_NO":"５０號","E_COORD97":172136.5,"N_COORD97":2540479.5699999998,"ADDRESS":"文華路三段１８９巷５０號","OBJECTID":351913},"geometry":{"x":172136.50000000093,"y":2540479.5700000003}},{"attributes":{"ID":351923,"DIS_CODE":0,"TOWNNAME":"仁德區","LI":"一甲里","LIN":"18鄰","STREET":"忠義路","SECT":" ","MAREA":" ","LANE":"２５１巷","ALLEY":" ","HOUSE_NO":"２７號","E_COORD97":173836.14000000001,"N_COORD97":2541758.52,"ADDRESS":"忠義路２５１巷２７號","OBJECTID":351914},"geometry":{"x":173836.13999999966,"y":2541758.5199999996}},{"attributes":{"ID":351924,"DIS_CODE":0,"TOWNNAME":"下營區","LI":"新興里","LIN":"6鄰","STREET":"慈惠街","SECT":" ","MAREA":" ","LANE":"２６巷","ALLEY":" ","HOUSE_NO":"２１號","E_COORD97":175163.20000000001,"N_COORD97":2570661.4199999999,"ADDRESS":"慈惠街２６巷２１號","OBJECTID":351915},"geometry":{"x":175163.20000000112,"y":2570661.4199999999}},{"attributes":{"ID":351925,"DIS_CODE":0,"TOWNNAME":"下營區","LI":"新興里","LIN":"6鄰","STREET":"慈惠街","SECT":" ","MAREA":" ","LANE":"２６巷","ALLEY":" ","HOUSE_NO":"２２號","E_COORD97":175176.51999999999,"N_COORD97":2570650.5800000001,"ADDRESS":"慈惠街２６巷２２號","OBJECTID":351916},"geometry":{"x":175176.52000000142,"y":2570650.5800000001}},{"attributes":{"ID":351926,"DIS_CODE":0,"TOWNNAME":"下營區","LI":"新興里","LIN":"6鄰","STREET":"慈惠街","SECT":" ","MAREA":" ","LANE":"２６巷","ALLEY":" ","HOUSE_NO":"２３號","E_COORD97":175164.35000000001,"N_COORD97":2570665.9500000002,"ADDRESS":"慈惠街２６巷２３號","OBJECTID":351917},"geometry":{"x":175164.35000000056,"y":2570665.9500000011}},{"attributes":{"ID":351927,"DIS_CODE":0,"TOWNNAME":"下營區","LI":"新興里","LIN":"6鄰","STREET":"慈惠街","SECT":" ","MAREA":" ","LANE":"２６巷","ALLEY":" ","HOUSE_NO":"２５號","E_COORD97":175166.31,"N_COORD97":2570671.4500000002,"ADDRESS":"慈惠街２６巷２５號","OBJECTID":351918},"geometry":{"x":175166.31000000052,"y":2570671.4499999993}},{"attributes":{"ID":351928,"DIS_CODE":0,"TOWNNAME":"楠西區","LI":"東勢里","LIN":"8鄰","STREET":"東勢路","SECT":" ","MAREA":" ","LANE":" ","ALLEY":" ","HOUSE_NO":"１０８號","E_COORD97":197523.37,"N_COORD97":2564055.29,"ADDRESS":"東勢路１０８號","OBJECTID":351919},"geometry":{"x":197523.37000000011,"y":2564055.2900000028}},{"attributes":{"ID":351929,"DIS_CODE":0,"TOWNNAME":"楠西區","LI":"楠西里","LIN":"8鄰","STREET":"中興路","SECT":" ","MAREA":" ","LANE":" ","ALLEY":" ","HOUSE_NO":"５２號","E_COORD97":197205.91,"N_COORD97":2564234.25,"ADDRESS":"中興路５２號","OBJECTID":351920},"geometry":{"x":197205.91000000108,"y":2564234.2500000019}},{"attributes":{"ID":351930,"DIS_CODE":0,"TOWNNAME":"安平區","LI":"平通里","LIN":"32鄰","STREET":"育平六街","SECT":" ","MAREA":" ","LANE":" ","ALLEY":" ","HOUSE_NO":"４６號地下一層","E_COORD97":164500.54999999999,"N_COORD97":2543709.6299999999,"ADDRESS":"育平六街４６號地下一層","OBJECTID":351921},"geometry":{"x":164500.55000000075,"y":2543709.629999999}},{"attributes":{"ID":351931,"DIS_CODE":0,"TOWNNAME":"安平區","LI":"平通里","LIN":"32鄰","STREET":"育平六街","SECT":" ","MAREA":" ","LANE":" ","ALLEY":" ","HOUSE_NO":"９８號","E_COORD97":164378.57999999999,"N_COORD97":2543723.9100000001,"ADDRESS":"育平六街９８號","OBJECTID":351922},"geometry":{"x":164378.58000000101,"y":2543723.910000002}},{"attributes":{"ID":351932,"DIS_CODE":0,"TOWNNAME":"楠西區","LI":"東勢里","LIN":"8鄰","STREET":"東勢路","SECT":" ","MAREA":" ","LANE":" ","ALLEY":" ","HOUSE_NO":"５６號","E_COORD97":197638.01999999999,"N_COORD97":2564068.29,"ADDRESS":"東勢路５６號","OBJECTID":351923},"geometry":{"x":197638.02000000048,"y":2564068.2899999991}},{"attributes":{"ID":351933,"DIS_CODE":0,"TOWNNAME":"楠西區","LI":"楠西里","LIN":"8鄰","STREET":"民權路","SECT":" ","MAREA":" ","LANE":" ","ALLEY":" ","HOUSE_NO":"２８號","E_COORD97":197285.84,"N_COORD97":2564255.29,"ADDRESS":"民權路２８號","OBJECTID":351924},"geometry":{"x":197285.84000000078,"y":2564255.2900000028}},{"attributes":{"ID":351934,"DIS_CODE":0,"TOWNNAME":"佳里區","LI":"海澄里","LIN":"5鄰","STREET":" ","SECT":" ","MAREA":"番子寮","LANE":" ","ALLEY":" ","HOUSE_NO":"１５號之３","E_COORD97":164208.45000000001,"N_COORD97":2564780.0899999999,"ADDRESS":"番子寮１５號之３","OBJECTID":351925},"geometry":{"x":164208.45000000112,"y":2564780.0900000017}},{"attributes":{"ID":351935,"DIS_CODE":0,"TOWNNAME":"佳里區","LI":"海澄里","LIN":"5鄰","STREET":" ","SECT":" ","MAREA":"番子寮","LANE":" ","ALLEY":" ","HOUSE_NO":"１５號之５","E_COORD97":164206.38,"N_COORD97":2564784,"ADDRESS":"番子寮１５號之５","OBJECTID":351926},"geometry":{"x":164206.37999999989,"y":2564784.0000000019}},{"attributes":{"ID":351936,"DIS_CODE":0,"TOWNNAME":"佳里區","LI":"海澄里","LIN":"5鄰","STREET":" ","SECT":" ","MAREA":"番子寮","LANE":" ","ALLEY":" ","HOUSE_NO":"１５號之６","E_COORD97":164204.16,"N_COORD97":2564789.2000000002,"ADDRESS":"番子寮１５號之６","OBJECTID":351927},"geometry":{"x":164204.16000000015,"y":2564789.2000000011}},{"attributes":{"ID":351937,"DIS_CODE":0,"TOWNNAME":"佳里區","LI":"海澄里","LIN":"5鄰","STREET":" ","SECT":" ","MAREA":"番子寮","LANE":" ","ALLEY":" ","HOUSE_NO":"１５號之８","E_COORD97":164205.23999999999,"N_COORD97":2564799.5,"ADDRESS":"番子寮１５號之８","OBJECTID":351928},"geometry":{"x":164205.24000000115,"y":2564799.5}},{"attributes":{"ID":351938,"DIS_CODE":0,"TOWNNAME":"佳里區","LI":"海澄里","LIN":"5鄰","STREET":" ","SECT":" ","MAREA":"番子寮","LANE":" ","ALLEY":" ","HOUSE_NO":"１５號之９","E_COORD97":164202.20000000001,"N_COORD97":2564802.73,"ADDRESS":"番子寮１５號之９","OBJECTID":351929},"geometry":{"x":164202.20000000019,"y":2564802.7300000042}},{"attributes":{"ID":351939,"DIS_CODE":0,"TOWNNAME":"佳里區","LI":"海澄里","LIN":"5鄰","STREET":" ","SECT":" ","MAREA":"番子寮","LANE":" ","ALLEY":" ","HOUSE_NO":"１５號","E_COORD97":164220.32999999999,"N_COORD97":2564790.27,"ADDRESS":"番子寮１５號","OBJECTID":351930},"geometry":{"x":164220.33000000007,"y":2564790.2699999996}},{"attributes":{"ID":351940,"DIS_CODE":0,"TOWNNAME":"佳里區","LI":"漳洲里","LIN":"1鄰","STREET":" ","SECT":" ","MAREA":"番子寮","LANE":" ","ALLEY":" ","HOUSE_NO":"１６０號","E_COORD97":163666.70000000001,"N_COORD97":2564666.71,"ADDRESS":"番子寮１６０號","OBJECTID":351931},"geometry":{"x":163666.70000000019,"y":2564666.7100000009}},{"attributes":{"ID":351941,"DIS_CODE":0,"TOWNNAME":"佳里區","LI":"漳洲里","LIN":"2鄰","STREET":" ","SECT":" ","MAREA":"番子寮","LANE":" ","ALLEY":" ","HOUSE_NO":"１６３號","E_COORD97":163609.28,"N_COORD97":2564601.5499999998,"ADDRESS":"番子寮１６３號","OBJECTID":351932},"geometry":{"x":163609.28000000212,"y":2564601.5500000026}},{"attributes":{"ID":351942,"DIS_CODE":0,"TOWNNAME":"永康區","LI":"永康里","LIN":"18鄰","STREET":"永中街","SECT":" ","MAREA":" ","LANE":"１６６巷","ALLEY":" ","HOUSE_NO":"３８號","E_COORD97":174083.97,"N_COORD97":2547229.1099999999,"ADDRESS":"永中街１６６巷３８號","OBJECTID":351933},"geometry":{"x":174083.97000000067,"y":2547229.1099999994}},{"attributes":{"ID":351943,"DIS_CODE":0,"TOWNNAME":"永康區","LI":"安康里","LIN":"18鄰","STREET":"中華路","SECT":" ","MAREA":" ","LANE":"６６１巷","ALLEY":" ","HOUSE_NO":"９４號","E_COORD97":170821.23999999999,"N_COORD97":2546131.25,"ADDRESS":"中華路６６１巷９４號","OBJECTID":351934},"geometry":{"x":170821.24000000115,"y":2546131.2500000037}},{"attributes":{"ID":351944,"DIS_CODE":0,"TOWNNAME":"永康區","LI":"永康里","LIN":"18鄰","STREET":"永中街","SECT":" ","MAREA":" ","LANE":"１３８巷","ALLEY":" ","HOUSE_NO":"２０之１號","E_COORD97":174054.67999999999,"N_COORD97":2547233.5600000001,"ADDRESS":"永中街１３８巷２０之１號","OBJECTID":351935},"geometry":{"x":174054.6799999997,"y":2547233.5600000005}},{"attributes":{"ID":351945,"DIS_CODE":0,"TOWNNAME":"永康區","LI":"正強里","LIN":"18鄰","STREET":"自強路","SECT":" ","MAREA":" ","LANE":"１８８巷","ALLEY":" ","HOUSE_NO":"６６號","E_COORD97":173224.85999999999,"N_COORD97":2547265.75,"ADDRESS":"自強路１８８巷６６號","OBJECTID":351936},"geometry":{"x":173224.86000000034,"y":2547265.75}},{"attributes":{"ID":351946,"DIS_CODE":0,"TOWNNAME":"下營區","LI":"新興里","LIN":"6鄰","STREET":"慈惠街","SECT":" ","MAREA":" ","LANE":"２６巷","ALLEY":" ","HOUSE_NO":"２６號","E_COORD97":175178.31,"N_COORD97":2570654.8799999999,"ADDRESS":"慈惠街２６巷２６號","OBJECTID":351937},"geometry":{"x":175178.31000000052,"y":2570654.879999999}},{"attributes":{"ID":351947,"DIS_CODE":0,"TOWNNAME":"下營區","LI":"新興里","LIN":"6鄰","STREET":"慈惠街","SECT":" ","MAREA":" ","LANE":"２６巷","ALLEY":" ","HOUSE_NO":"２７號","E_COORD97":175167.57999999999,"N_COORD97":2570677.9700000002,"ADDRESS":"慈惠街２６巷２７號","OBJECTID":351938},"geometry":{"x":175167.58000000007,"y":2570677.9700000025}},{"attributes":{"ID":351948,"DIS_CODE":0,"TOWNNAME":"下營區","LI":"新興里","LIN":"6鄰","STREET":"慈惠街","SECT":" ","MAREA":" ","LANE":"２６巷","ALLEY":" ","HOUSE_NO":"２８號","E_COORD97":175179.47,"N_COORD97":2570658.8300000001,"ADDRESS":"慈惠街２６巷２８號","OBJECTID":351939},"geometry":{"x":175179.47000000067,"y":2570658.8300000001}},{"attributes":{"ID":351949,"DIS_CODE":0,"TOWNNAME":"楠西區","LI":"東勢里","LIN":"8鄰","STREET":"東勢路","SECT":" ","MAREA":" ","LANE":" ","ALLEY":" ","HOUSE_NO":"５０號","E_COORD97":197644.92000000001,"N_COORD97":2564069.29,"ADDRESS":"東勢路５０號","OBJECTID":351940},"geometry":{"x":197644.91999999993,"y":2564069.290000001}},{"attributes":{"ID":351950,"DIS_CODE":0,"TOWNNAME":"楠西區","LI":"楠西里","LIN":"8鄰","STREET":"中興路","SECT":" ","MAREA":" ","LANE":" ","ALLEY":" ","HOUSE_NO":"４６號","E_COORD97":197202.20999999999,"N_COORD97":2564215.25,"ADDRESS":"中興路４６號","OBJECTID":351941},"geometry":{"x":197202.20999999996,"y":2564215.25}},{"attributes":{"ID":351951,"DIS_CODE":0,"TOWNNAME":"楠西區","LI":"東勢里","LIN":"8鄰","STREET":"東勢路","SECT":" ","MAREA":" ","LANE":" ","ALLEY":" ","HOUSE_NO":"１１８號","E_COORD97":197503.37,"N_COORD97":2564053.29,"ADDRESS":"東勢路１１８號","OBJECTID":351942},"geometry":{"x":197503.37000000011,"y":2564053.290000001}},{"attributes":{"ID":351952,"DIS_CODE":0,"TOWNNAME":"楠西區","LI":"楠西里","LIN":"8鄰","STREET":"民權路","SECT":" ","MAREA":" ","LANE":" ","ALLEY":" ","HOUSE_NO":"２６號","E_COORD97":197280.34,"N_COORD97":2564255.29,"ADDRESS":"民權路２６號","OBJECTID":351943},"geometry":{"x":197280.34000000078,"y":2564255.2900000028}},{"attributes":{"ID":351953,"DIS_CODE":0,"TOWNNAME":"楠西區","LI":"楠西里","LIN":"8鄰","STREET":"民權路","SECT":" ","MAREA":" ","LANE":" ","ALLEY":" ","HOUSE_NO":"２２號","E_COORD97":197271.64000000001,"N_COORD97":2564256.29,"ADDRESS":"民權路２２號","OBJECTID":351944},"geometry":{"x":197271.6400000006,"y":2564256.290000001}},{"attributes":{"ID":351954,"DIS_CODE":0,"TOWNNAME":"楠西區","LI":"楠西里","LIN":"8鄰","STREET":"中興路","SECT":" ","MAREA":" ","LANE":" ","ALLEY":" ","HOUSE_NO":"３８號","E_COORD97":197196.70999999999,"N_COORD97":2564194.25,"ADDRESS":"中興路３８號","OBJECTID":351945},"geometry":{"x":197196.71000000089,"y":2564194.25}},{"attributes":{"ID":351955,"DIS_CODE":0,"TOWNNAME":"佳里區","LI":"漳洲里","LIN":"2鄰","STREET":" ","SECT":" ","MAREA":"番子寮","LANE":" ","ALLEY":" ","HOUSE_NO":"１６５號","E_COORD97":163597.70000000001,"N_COORD97":2564648.1800000002,"ADDRESS":"番子寮１６５號","OBJECTID":351946},"geometry":{"x":163597.70000000019,"y":2564648.1799999997}},{"attributes":{"ID":351956,"DIS_CODE":0,"TOWNNAME":"佳里區","LI":"漳洲里","LIN":"2鄰","STREET":" ","SECT":" ","MAREA":"番子寮","LANE":" ","ALLEY":" ","HOUSE_NO":"１６６號","E_COORD97":163599.37,"N_COORD97":2564619.3999999999,"ADDRESS":"番子寮１６６號","OBJECTID":351947},"geometry":{"x":163599.37000000011,"y":2564619.4000000022}},{"attributes":{"ID":351957,"DIS_CODE":0,"TOWNNAME":"永康區","LI":"西橋里","LIN":"18鄰","STREET":"中華西街","SECT":" ","MAREA":" ","LANE":"２６９巷","ALLEY":" ","HOUSE_NO":"２７號","E_COORD97":170605.70999999999,"N_COORD97":2546509.75,"ADDRESS":"中華西街２６９巷２７號","OBJECTID":351948},"geometry":{"x":170605.71000000089,"y":2546509.75}},{"attributes":{"ID":351958,"DIS_CODE":0,"TOWNNAME":"下營區","LI":"新興里","LIN":"6鄰","STREET":"慈惠街","SECT":" ","MAREA":" ","LANE":"２６巷","ALLEY":" ","HOUSE_NO":"２９號","E_COORD97":175168.56,"N_COORD97":2570684.8500000001,"ADDRESS":"慈惠街２６巷２９號","OBJECTID":351949},"geometry":{"x":175168.56000000052,"y":2570684.8500000015}},{"attributes":{"ID":351959,"DIS_CODE":0,"TOWNNAME":"佳里區","LI":"漳洲里","LIN":"2鄰","STREET":" ","SECT":" ","MAREA":"番子寮","LANE":" ","ALLEY":" ","HOUSE_NO":"１６８號","E_COORD97":163576.07000000001,"N_COORD97":2564653.1400000001,"ADDRESS":"番子寮１６８號","OBJECTID":351950},"geometry":{"x":163576.0700000003,"y":2564653.1400000006}},{"attributes":{"ID":351960,"DIS_CODE":0,"TOWNNAME":"下營區","LI":"新興里","LIN":"6鄰","STREET":"慈惠街","SECT":" ","MAREA":" ","LANE":"２６巷","ALLEY":" ","HOUSE_NO":"２號","E_COORD97":175166.85000000001,"N_COORD97":2570616.1200000001,"ADDRESS":"慈惠街２６巷２號","OBJECTID":351951},"geometry":{"x":175166.84999999963,"y":2570616.1200000029}},{"attributes":{"ID":351961,"DIS_CODE":0,"TOWNNAME":"佳里區","LI":"漳洲里","LIN":"2鄰","STREET":" ","SECT":" ","MAREA":"番子寮","LANE":" ","ALLEY":" ","HOUSE_NO":"１６９號","E_COORD97":163547.53,"N_COORD97":2564656.54,"ADDRESS":"番子寮１６９號","OBJECTID":351952},"geometry":{"x":163547.53000000026,"y":2564656.5399999991}},{"attributes":{"ID":351962,"DIS_CODE":0,"TOWNNAME":"下營區","LI":"新興里","LIN":"6鄰","STREET":"慈惠街","SECT":" ","MAREA":" ","LANE":"２６巷","ALLEY":" ","HOUSE_NO":"３０號","E_COORD97":175180.82000000001,"N_COORD97":2570662.9399999999,"ADDRESS":"慈惠街２６巷３０號","OBJECTID":351953},"geometry":{"x":175180.82000000123,"y":2570662.9400000013}},{"attributes":{"ID":351963,"DIS_CODE":0,"TOWNNAME":"下營區","LI":"新興里","LIN":"6鄰","STREET":"慈惠街","SECT":" ","MAREA":" ","LANE":"２６巷","ALLEY":" ","HOUSE_NO":"３１號","E_COORD97":175169.82000000001,"N_COORD97":2570692.2799999998,"ADDRESS":"慈惠街２６巷３１號","OBJECTID":351954},"geometry":{"x":175169.8200000003,"y":2570692.2799999993}},{"attributes":{"ID":351964,"DIS_CODE":0,"TOWNNAME":"下營區","LI":"新興里","LIN":"6鄰","STREET":"慈惠街","SECT":" ","MAREA":" ","LANE":"２６巷","ALLEY":" ","HOUSE_NO":"３２號","E_COORD97":175181.73000000001,"N_COORD97":2570667.3300000001,"ADDRESS":"慈惠街２６巷３２號","OBJECTID":351955},"geometry":{"x":175181.73000000138,"y":2570667.3300000038}},{"attributes":{"ID":351965,"DIS_CODE":0,"TOWNNAME":"下營區","LI":"新興里","LIN":"6鄰","STREET":"慈惠街","SECT":" ","MAREA":" ","LANE":"２６巷","ALLEY":" ","HOUSE_NO":"３６號","E_COORD97":175183.14999999999,"N_COORD97":2570671.3100000001,"ADDRESS":"慈惠街２６巷３６號","OBJECTID":351956},"geometry":{"x":175183.15000000037,"y":2570671.3100000042}},{"attributes":{"ID":351966,"DIS_CODE":0,"TOWNNAME":"下營區","LI":"新興里","LIN":"6鄰","STREET":"慈惠街","SECT":" ","MAREA":" ","LANE":"２６巷","ALLEY":" ","HOUSE_NO":"３８號","E_COORD97":175184.14000000001,"N_COORD97":2570675.6899999999,"ADDRESS":"慈惠街２６巷３８號","OBJECTID":351957},"geometry":{"x":175184.13999999966,"y":2570675.6900000013}},{"attributes":{"ID":351967,"DIS_CODE":0,"TOWNNAME":"下營區","LI":"新興里","LIN":"6鄰","STREET":"慈惠街","SECT":" ","MAREA":" ","LANE":"２６巷","ALLEY":" ","HOUSE_NO":"３號","E_COORD97":175153.5,"N_COORD97":2570620.5800000001,"ADDRESS":"慈惠街２６巷３號","OBJECTID":351958},"geometry":{"x":175153.50000000186,"y":2570620.5800000001}},{"attributes":{"ID":351968,"DIS_CODE":0,"TOWNNAME":"下營區","LI":"新興里","LIN":"6鄰","STREET":"慈惠街","SECT":" ","MAREA":" ","LANE":"２６巷","ALLEY":" ","HOUSE_NO":"４０號","E_COORD97":175185.72,"N_COORD97":2570680.6299999999,"ADDRESS":"慈惠街２６巷４０號","OBJECTID":351959},"geometry":{"x":175185.72000000067,"y":2570680.6299999971}},{"attributes":{"ID":351969,"DIS_CODE":0,"TOWNNAME":"下營區","LI":"新興里","LIN":"6鄰","STREET":"慈惠街","SECT":" ","MAREA":" ","LANE":"２６巷","ALLEY":" ","HOUSE_NO":"４２號","E_COORD97":175186.95000000001,"N_COORD97":2570685.8399999999,"ADDRESS":"慈惠街２６巷４２號","OBJECTID":351960},"geometry":{"x":175186.95000000112,"y":2570685.8399999999}},{"attributes":{"ID":351970,"DIS_CODE":0,"TOWNNAME":"下營區","LI":"新興里","LIN":"6鄰","STREET":"慈惠街","SECT":" ","MAREA":" ","LANE":"２６巷","ALLEY":" ","HOUSE_NO":"５號","E_COORD97":175154.66,"N_COORD97":2570625.6099999999,"ADDRESS":"慈惠街２６巷５號","OBJECTID":351961},"geometry":{"x":175154.66000000108,"y":2570625.6099999994}},{"attributes":{"ID":351971,"DIS_CODE":0,"TOWNNAME":"下營區","LI":"新興里","LIN":"6鄰","STREET":"慈惠街","SECT":" ","MAREA":" ","LANE":"２６巷","ALLEY":" ","HOUSE_NO":"６號","E_COORD97":175168.04000000001,"N_COORD97":2570621.1000000001,"ADDRESS":"慈惠街２６巷６號","OBJECTID":351962},"geometry":{"x":175168.04000000004,"y":2570621.1000000015}},{"attributes":{"ID":351972,"DIS_CODE":0,"TOWNNAME":"下營區","LI":"新興里","LIN":"6鄰","STREET":"慈惠街","SECT":" ","MAREA":" ","LANE":"２６巷","ALLEY":" ","HOUSE_NO":"７號","E_COORD97":175155.82000000001,"N_COORD97":2570630.96,"ADDRESS":"慈惠街２６巷７號","OBJECTID":351963},"geometry":{"x":175155.8200000003,"y":2570630.9600000028}},{"attributes":{"ID":351973,"DIS_CODE":0,"TOWNNAME":"下營區","LI":"新興里","LIN":"6鄰","STREET":"慈惠街","SECT":" ","MAREA":" ","LANE":"２６巷","ALLEY":" ","HOUSE_NO":"８號","E_COORD97":175169.51999999999,"N_COORD97":2570625.1699999999,"ADDRESS":"慈惠街２６巷８號","OBJECTID":351964},"geometry":{"x":175169.51999999955,"y":2570625.1700000018}},{"attributes":{"ID":351974,"DIS_CODE":0,"TOWNNAME":"下營區","LI":"新興里","LIN":"6鄰","STREET":"慈惠街","SECT":" ","MAREA":" ","LANE":"２６巷","ALLEY":" ","HOUSE_NO":"９號","E_COORD97":175157.26999999999,"N_COORD97":2570636.3999999999,"ADDRESS":"慈惠街２６巷９號","OBJECTID":351965},"geometry":{"x":175157.26999999955,"y":2570636.4000000041}},{"attributes":{"ID":351975,"DIS_CODE":0,"TOWNNAME":"北區","LI":"振興里","LIN":"6鄰","STREET":"長榮路","SECT":"四段","MAREA":" ","LANE":"１８３巷","ALLEY":" ","HOUSE_NO":"１６號","E_COORD97":170141,"N_COORD97":2545217.21,"ADDRESS":"長榮路四段１８３巷１６號","OBJECTID":351966},"geometry":{"x":170141.00000000093,"y":2545217.2100000046}},{"attributes":{"ID":351976,"DIS_CODE":0,"TOWNNAME":"北區","LI":"振興里","LIN":"6鄰","STREET":"長榮路","SECT":"四段","MAREA":" ","LANE":"１８３巷","ALLEY":" ","HOUSE_NO":"１７號","E_COORD97":170141.07000000001,"N_COORD97":2545176.4300000002,"ADDRESS":"長榮路四段１８３巷１７號","OBJECTID":351967},"geometry":{"x":170141.07000000123,"y":2545176.4299999997}},{"attributes":{"ID":351977,"DIS_CODE":0,"TOWNNAME":"北區","LI":"振興里","LIN":"6鄰","STREET":"長榮路","SECT":"四段","MAREA":" ","LANE":"１８３巷","ALLEY":" ","HOUSE_NO":"１８號","E_COORD97":170137.29000000001,"N_COORD97":2545212.0299999998,"ADDRESS":"長榮路四段１８３巷１８號","OBJECTID":351968},"geometry":{"x":170137.29000000097,"y":2545212.0299999993}},{"attributes":{"ID":351978,"DIS_CODE":0,"TOWNNAME":"楠西區","LI":"東勢里","LIN":"8鄰","STREET":"東勢路","SECT":" ","MAREA":" ","LANE":" ","ALLEY":" ","HOUSE_NO":"９０號","E_COORD97":197552.72,"N_COORD97":2564057.29,"ADDRESS":"東勢路９０號","OBJECTID":351969},"geometry":{"x":197552.72000000067,"y":2564057.2899999991}},{"attributes":{"ID":351979,"DIS_CODE":0,"TOWNNAME":"楠西區","LI":"楠西里","LIN":"8鄰","STREET":"中興路","SECT":" ","MAREA":" ","LANE":" ","ALLEY":" ","HOUSE_NO":"３４號","E_COORD97":197193.41,"N_COORD97":2564181.25,"ADDRESS":"中興路３４號","OBJECTID":351970},"geometry":{"x":197193.41000000201,"y":2564181.25}},{"attributes":{"ID":351980,"DIS_CODE":0,"TOWNNAME":"南區","LI":"明亮里","LIN":"18鄰","STREET":"金華路","SECT":"一段","MAREA":" ","LANE":"３５２巷","ALLEY":" ","HOUSE_NO":"６７號","E_COORD97":167175.34,"N_COORD97":2541141.2599999998,"ADDRESS":"金華路一段３５２巷６７號","OBJECTID":351971},"geometry":{"x":167175.34000000078,"y":2541141.2600000016}},{"attributes":{"ID":351981,"DIS_CODE":0,"TOWNNAME":"南區","LI":"明亮里","LIN":"18鄰","STREET":"金華路","SECT":"一段","MAREA":" ","LANE":"３５２巷","ALLEY":" ","HOUSE_NO":"６９號","E_COORD97":167178.41,"N_COORD97":2541137.8799999999,"ADDRESS":"金華路一段３５２巷６９號","OBJECTID":351972},"geometry":{"x":167178.41000000201,"y":2541137.879999999}},{"attributes":{"ID":351982,"DIS_CODE":0,"TOWNNAME":"南區","LI":"明亮里","LIN":"18鄰","STREET":"金華路","SECT":"一段","MAREA":" ","LANE":"３５２巷","ALLEY":" ","HOUSE_NO":"７１號","E_COORD97":167181.79000000001,"N_COORD97":2541136.04,"ADDRESS":"金華路一段３５２巷７１號","OBJECTID":351973},"geometry":{"x":167181.79000000004,"y":2541136.040000001}},{"attributes":{"ID":351983,"DIS_CODE":0,"TOWNNAME":"南區","LI":"明亮里","LIN":"18鄰","STREET":"金華路","SECT":"一段","MAREA":" ","LANE":"３５２巷","ALLEY":" ","HOUSE_NO":"７３號","E_COORD97":167184.85999999999,"N_COORD97":2541132.3599999999,"ADDRESS":"金華路一段３５２巷７３號","OBJECTID":351974},"geometry":{"x":167184.86000000034,"y":2541132.3599999975}},{"attributes":{"ID":351984,"DIS_CODE":0,"TOWNNAME":"北區","LI":"振興里","LIN":"6鄰","STREET":"長榮路","SECT":"四段","MAREA":" ","LANE":"１８３巷","ALLEY":" ","HOUSE_NO":"１９號","E_COORD97":170138.13,"N_COORD97":2545173.1600000001,"ADDRESS":"長榮路四段１８３巷１９號","OBJECTID":351975},"geometry":{"x":170138.13000000175,"y":2545173.160000002}},{"attributes":{"ID":351985,"DIS_CODE":0,"TOWNNAME":"北區","LI":"振興里","LIN":"6鄰","STREET":"長榮路","SECT":"四段","MAREA":" ","LANE":"１８３巷","ALLEY":" ","HOUSE_NO":"１號","E_COORD97":170159.94,"N_COORD97":2545205.5699999998,"ADDRESS":"長榮路四段１８３巷１號","OBJECTID":351976},"geometry":{"x":170159.94000000041,"y":2545205.5700000022}},{"attributes":{"ID":351986,"DIS_CODE":0,"TOWNNAME":"北區","LI":"振興里","LIN":"6鄰","STREET":"長榮路","SECT":"四段","MAREA":" ","LANE":"１８３巷","ALLEY":" ","HOUSE_NO":"２０號","E_COORD97":170134.56,"N_COORD97":2545209.2000000002,"ADDRESS":"長榮路四段１８３巷２０號","OBJECTID":351977},"geometry":{"x":170134.55999999959,"y":2545209.2000000011}},{"attributes":{"ID":351987,"DIS_CODE":0,"TOWNNAME":"北區","LI":"振興里","LIN":"6鄰","STREET":"長榮路","SECT":"四段","MAREA":" ","LANE":"１８３巷","ALLEY":" ","HOUSE_NO":"２１號","E_COORD97":170134.97,"N_COORD97":2545170.4399999999,"ADDRESS":"長榮路四段１８３巷２１號","OBJECTID":351978},"geometry":{"x":170134.96999999974,"y":2545170.4400000013}},{"attributes":{"ID":351988,"DIS_CODE":0,"TOWNNAME":"北區","LI":"振興里","LIN":"6鄰","STREET":"長榮路","SECT":"四段","MAREA":" ","LANE":"１８３巷","ALLEY":" ","HOUSE_NO":"２２號","E_COORD97":170131.73000000001,"N_COORD97":2545206.1499999999,"ADDRESS":"長榮路四段１８３巷２２號","OBJECTID":351979},"geometry":{"x":170131.73000000138,"y":2545206.1500000004}},{"attributes":{"ID":351989,"DIS_CODE":0,"TOWNNAME":"北區","LI":"振興里","LIN":"6鄰","STREET":"長榮路","SECT":"四段","MAREA":" ","LANE":"１８３巷","ALLEY":" ","HOUSE_NO":"２３號","E_COORD97":170131.26000000001,"N_COORD97":2545168.04,"ADDRESS":"長榮路四段１８３巷２３號","OBJECTID":351980},"geometry":{"x":170131.25999999978,"y":2545168.0399999991}},{"attributes":{"ID":351990,"DIS_CODE":0,"TOWNNAME":"北區","LI":"振興里","LIN":"6鄰","STREET":"長榮路","SECT":"四段","MAREA":" ","LANE":"１８３巷","ALLEY":" ","HOUSE_NO":"２４號","E_COORD97":170129.54999999999,"N_COORD97":2545202.8799999999,"ADDRESS":"長榮路四段１８３巷２４號","OBJECTID":351981},"geometry":{"x":170129.54999999981,"y":2545202.879999999}},{"attributes":{"ID":351991,"DIS_CODE":0,"TOWNNAME":"北區","LI":"振興里","LIN":"6鄰","STREET":"長榮路","SECT":"四段","MAREA":" ","LANE":"１８３巷","ALLEY":" ","HOUSE_NO":"２５號","E_COORD97":170129.39999999999,"N_COORD97":2545165.3199999998,"ADDRESS":"長榮路四段１８３巷２５號","OBJECTID":351982},"geometry":{"x":170129.40000000037,"y":2545165.3200000022}},{"attributes":{"ID":351992,"DIS_CODE":0,"TOWNNAME":"北區","LI":"振興里","LIN":"6鄰","STREET":"長榮路","SECT":"四段","MAREA":" ","LANE":"１８３巷","ALLEY":" ","HOUSE_NO":"２６號","E_COORD97":170126.38,"N_COORD97":2545200.1499999999,"ADDRESS":"長榮路四段１８３巷２６號","OBJECTID":351983},"geometry":{"x":170126.38000000082,"y":2545200.1500000041}},{"attributes":{"ID":351993,"DIS_CODE":0,"TOWNNAME":"北區","LI":"振興里","LIN":"6鄰","STREET":"長榮路","SECT":"四段","MAREA":" ","LANE":"１８３巷","ALLEY":" ","HOUSE_NO":"２７號","E_COORD97":170126.13,"N_COORD97":2545160.6299999999,"ADDRESS":"長榮路四段１８３巷２７號","OBJECTID":351984},"geometry":{"x":170126.13000000175,"y":2545160.629999999}},{"attributes":{"ID":351994,"DIS_CODE":0,"TOWNNAME":"關廟區","LI":"山西里","LIN":"6鄰","STREET":"崇仁街","SECT":" ","MAREA":" ","LANE":"２５巷","ALLEY":" ","HOUSE_NO":"８號","E_COORD97":180969.42000000001,"N_COORD97":2540409.25,"ADDRESS":"崇仁街２５巷８號","OBJECTID":351985},"geometry":{"x":180969.41999999993,"y":2540409.2500000019}},{"attributes":{"ID":351995,"DIS_CODE":0,"TOWNNAME":"北區","LI":"振興里","LIN":"6鄰","STREET":"長榮路","SECT":"四段","MAREA":" ","LANE":"１８３巷","ALLEY":" ","HOUSE_NO":"２８號","E_COORD97":170124.09,"N_COORD97":2545196.6699999999,"ADDRESS":"長榮路四段１８３巷２８號","OBJECTID":351986},"geometry":{"x":170124.08999999985,"y":2545196.6700000018}},{"attributes":{"ID":351996,"DIS_CODE":0,"TOWNNAME":"北區","LI":"振興里","LIN":"6鄰","STREET":"長榮路","SECT":"四段","MAREA":" ","LANE":"１８３巷","ALLEY":" ","HOUSE_NO":"２號","E_COORD97":170161.29000000001,"N_COORD97":2545237.48,"ADDRESS":"長榮路四段１８３巷２號","OBJECTID":351987},"geometry":{"x":170161.29000000097,"y":2545237.4800000004}},{"attributes":{"ID":351997,"DIS_CODE":0,"TOWNNAME":"北區","LI":"振興里","LIN":"6鄰","STREET":"長榮路","SECT":"四段","MAREA":" ","LANE":"１８３巷","ALLEY":" ","HOUSE_NO":"３０號","E_COORD97":170120.82000000001,"N_COORD97":2545194.21,"ADDRESS":"長榮路四段１８３巷３０號","OBJECTID":351988},"geometry":{"x":170120.82000000123,"y":2545194.2100000028}},{"attributes":{"ID":351998,"DIS_CODE":0,"TOWNNAME":"北區","LI":"振興里","LIN":"6鄰","STREET":"長榮路","SECT":"四段","MAREA":" ","LANE":"１８３巷","ALLEY":" ","HOUSE_NO":"３２號","E_COORD97":170118.42000000001,"N_COORD97":2545190.73,"ADDRESS":"長榮路四段１８３巷３２號","OBJECTID":351989},"geometry":{"x":170118.41999999993,"y":2545190.7300000023}},{"attributes":{"ID":351999,"DIS_CODE":0,"TOWNNAME":"北區","LI":"振興里","LIN":"6鄰","STREET":"長榮路","SECT":"四段","MAREA":" ","LANE":"１８３巷","ALLEY":" ","HOUSE_NO":"３４號","E_COORD97":170115.91,"N_COORD97":2545187.8900000001,"ADDRESS":"長榮路四段１８３巷３４號","OBJECTID":351990},"geometry":{"x":170115.91000000015,"y":2545187.8900000006}},{"attributes":{"ID":352000,"DIS_CODE":0,"TOWNNAME":"北區","LI":"振興里","LIN":"6鄰","STREET":"長榮路","SECT":"四段","MAREA":" ","LANE":"１８３巷","ALLEY":" ","HOUSE_NO":"３６號","E_COORD97":170112.97,"N_COORD97":2545184.8399999999,"ADDRESS":"長榮路四段１８３巷３６號","OBJECTID":351991},"geometry":{"x":170112.96999999974,"y":2545184.8400000036}},{"attributes":{"ID":352001,"DIS_CODE":0,"TOWNNAME":"北區","LI":"振興里","LIN":"6鄰","STREET":"長榮路","SECT":"四段","MAREA":" ","LANE":"１８３巷","ALLEY":" ","HOUSE_NO":"３８號","E_COORD97":170109.26000000001,"N_COORD97":2545182.77,"ADDRESS":"長榮路四段１８３巷３８號","OBJECTID":351992},"geometry":{"x":170109.25999999978,"y":2545182.7700000014}},{"attributes":{"ID":352002,"DIS_CODE":0,"TOWNNAME":"北區","LI":"振興里","LIN":"6鄰","STREET":"長榮路","SECT":"四段","MAREA":" ","LANE":"１８３巷","ALLEY":" ","HOUSE_NO":"３號","E_COORD97":170157.54000000001,"N_COORD97":2545199.9100000001,"ADDRESS":"長榮路四段１８３巷３號","OBJECTID":351993},"geometry":{"x":170157.5400000019,"y":2545199.9100000001}},{"attributes":{"ID":352003,"DIS_CODE":0,"TOWNNAME":"北區","LI":"振興里","LIN":"6鄰","STREET":"長榮路","SECT":"四段","MAREA":" ","LANE":"１８３巷","ALLEY":" ","HOUSE_NO":"４０號","E_COORD97":170106.53,"N_COORD97":2545179.6099999999,"ADDRESS":"長榮路四段１８３巷４０號","OBJECTID":351994},"geometry":{"x":170106.53000000026,"y":2545179.6100000013}},{"attributes":{"ID":352004,"DIS_CODE":0,"TOWNNAME":"北區","LI":"振興里","LIN":"6鄰","STREET":"長榮路","SECT":"四段","MAREA":" ","LANE":"１８３巷","ALLEY":" ","HOUSE_NO":"４２號","E_COORD97":170104.23999999999,"N_COORD97":2545176.6699999999,"ADDRESS":"長榮路四段１８３巷４２號","OBJECTID":351995},"geometry":{"x":170104.24000000115,"y":2545176.6700000018}},{"attributes":{"ID":352005,"DIS_CODE":0,"TOWNNAME":"北區","LI":"振興里","LIN":"6鄰","STREET":"長榮路","SECT":"四段","MAREA":" ","LANE":"１８３巷","ALLEY":" ","HOUSE_NO":"４４號","E_COORD97":170101.19,"N_COORD97":2545173.1800000002,"ADDRESS":"長榮路四段１８３巷４４號","OBJECTID":351996},"geometry":{"x":170101.19000000134,"y":2545173.1800000016}},{"attributes":{"ID":352006,"DIS_CODE":0,"TOWNNAME":"楠西區","LI":"楠西里","LIN":"8鄰","STREET":"中興路","SECT":" ","MAREA":" ","LANE":" ","ALLEY":" ","HOUSE_NO":"３４號之１","E_COORD97":197196.45000000001,"N_COORD97":2564185.2999999998,"ADDRESS":"中興路３４號之１","OBJECTID":351997},"geometry":{"x":197196.45000000205,"y":2564185.3000000007}},{"attributes":{"ID":352007,"DIS_CODE":0,"TOWNNAME":"楠西區","LI":"東勢里","LIN":"8鄰","STREET":"東勢路","SECT":" ","MAREA":" ","LANE":" ","ALLEY":" ","HOUSE_NO":"８８號","E_COORD97":197557.32000000001,"N_COORD97":2564058.29,"ADDRESS":"東勢路８８號","OBJECTID":351998},"geometry":{"x":197557.32000000123,"y":2564058.2899999972}},{"attributes":{"ID":352008,"DIS_CODE":0,"TOWNNAME":"楠西區","LI":"東勢里","LIN":"8鄰","STREET":"東勢路","SECT":" ","MAREA":" ","LANE":" ","ALLEY":" ","HOUSE_NO":"１１２號","E_COORD97":197513.37,"N_COORD97":2564054.29,"ADDRESS":"東勢路１１２號","OBJECTID":351999},"geometry":{"x":197513.37000000011,"y":2564054.2899999991}},{"attributes":{"ID":352009,"DIS_CODE":0,"TOWNNAME":"楠西區","LI":"楠西里","LIN":"8鄰","STREET":"民權路","SECT":" ","MAREA":" ","LANE":" ","ALLEY":" ","HOUSE_NO":"３２號","E_COORD97":197294.04000000001,"N_COORD97":2564255.29,"ADDRESS":"民權路３２號","OBJECTID":352000},"geometry":{"x":197294.0400000019,"y":2564255.2900000028}}]}