{"displayFieldName":"TOWNNAME","fieldAliases":{"ID":"ID","DIS_CODE":"DIS_CODE","TOWNNAME":"TOWNNAME","LI":"LI","LIN":"LIN","STREET":"STREET","SECT":"SECT","MAREA":"MAREA","LANE":"LANE","ALLEY":"ALLEY","HOUSE_NO":"HOUSE_NO","E_COORD97":"E_COORD97","N_COORD97":"N_COORD97","ADDRESS":"ADDRESS","OBJECTID":"OBJECTID"},"geometryType":"esriGeometryPoint","spatialReference":{"wkid":102443,"latestWkid":3826},"fields":[{"name":"ID","type":"esriFieldTypeDouble","alias":"ID"},{"name":"DIS_CODE","type":"esriFieldTypeInteger","alias":"DIS_CODE"},{"name":"TOWNNAME","type":"esriFieldTypeString","alias":"TOWNNAME","length":8},{"name":"LI","type":"esriFieldTypeString","alias":"LI","length":8},{"name":"LIN","type":"esriFieldTypeString","alias":"LIN","length":12},{"name":"STREET","type":"esriFieldTypeString","alias":"STREET","length":20},{"name":"SECT","type":"esriFieldTypeString","alias":"SECT","length":8},{"name":"MAREA","type":"esriFieldTypeString","alias":"MAREA","length":12},{"name":"LANE","type":"esriFieldTypeString","alias":"LANE","length":10},{"name":"ALLEY","type":"esriFieldTypeString","alias":"ALLEY","length":10},{"name":"HOUSE_NO","type":"esriFieldTypeString","alias":"HOUSE_NO","length":20},{"name":"E_COORD97","type":"esriFieldTypeDouble","alias":"E_COORD97"},{"name":"N_COORD97","type":"esriFieldTypeDouble","alias":"N_COORD97"},{"name":"ADDRESS","type":"esriFieldTypeString","alias":"ADDRESS","length":50},{"name":"OBJECTID","type":"esriFieldTypeOID","alias":"OBJECTID"}],"features":[{"attributes":{"ID":439226,"DIS_CODE":0,"TOWNNAME":"新市區","LI":"新市里","LIN":"26鄰","STREET":"復興路","SECT":" ","MAREA":" ","LANE":"６巷","ALLEY":" ","HOUSE_NO":"３５號","E_COORD97":177922.53,"N_COORD97":2553370.2799999998,"ADDRESS":"復興路６巷３５號","OBJECTID":439201},"geometry":{"x":177922.53000000119,"y":2553370.2800000012}},{"attributes":{"ID":439227,"DIS_CODE":0,"TOWNNAME":"新市區","LI":"新和里","LIN":"42鄰","STREET":"信義街","SECT":" ","MAREA":" ","LANE":"１０６巷","ALLEY":" ","HOUSE_NO":"１３７號","E_COORD97":177348.29000000001,"N_COORD97":2553020.27,"ADDRESS":"信義街１０６巷１３７號","OBJECTID":439202},"geometry":{"x":177348.29000000004,"y":2553020.2700000033}},{"attributes":{"ID":439228,"DIS_CODE":0,"TOWNNAME":"新市區","LI":"新和里","LIN":"42鄰","STREET":"信義街","SECT":" ","MAREA":" ","LANE":"１０６巷","ALLEY":" ","HOUSE_NO":"２２號","E_COORD97":177339.98999999999,"N_COORD97":2553007.27,"ADDRESS":"信義街１０６巷２２號","OBJECTID":439203},"geometry":{"x":177339.99000000022,"y":2553007.2700000014}},{"attributes":{"ID":439229,"DIS_CODE":0,"TOWNNAME":"東區","LI":"東智里","LIN":"7鄰","STREET":"長東街","SECT":" ","MAREA":" ","LANE":"１０８巷","ALLEY":" ","HOUSE_NO":"４２之１號","E_COORD97":170916.91,"N_COORD97":2540208.5299999998,"ADDRESS":"長東街１０８巷４２之１號","OBJECTID":439204},"geometry":{"x":170916.91000000108,"y":2540208.5299999993}},{"attributes":{"ID":439230,"DIS_CODE":0,"TOWNNAME":"東區","LI":"小東里","LIN":"20鄰","STREET":"東興路","SECT":" ","MAREA":" ","LANE":"３１４巷","ALLEY":" ","HOUSE_NO":"８號","E_COORD97":171102.57999999999,"N_COORD97":2544091.8399999999,"ADDRESS":"東興路３１４巷８號","OBJECTID":439205},"geometry":{"x":171102.58000000007,"y":2544091.8399999999}},{"attributes":{"ID":439231,"DIS_CODE":0,"TOWNNAME":"東區","LI":"東門里","LIN":"13鄰","STREET":"東門路","SECT":"一段","MAREA":" ","LANE":"２１１巷","ALLEY":" ","HOUSE_NO":"１１號","E_COORD97":169678.79999999999,"N_COORD97":2543172.0800000001,"ADDRESS":"東門路一段２１１巷１１號","OBJECTID":439206},"geometry":{"x":169678.79999999981,"y":2543172.0800000001}},{"attributes":{"ID":439232,"DIS_CODE":0,"TOWNNAME":"東區","LI":"德高里","LIN":"18鄰","STREET":"仁和路","SECT":" ","MAREA":" ","LANE":"３０２巷","ALLEY":" ","HOUSE_NO":"３２號","E_COORD97":171684.5,"N_COORD97":2540627.6699999999,"ADDRESS":"仁和路３０２巷３２號","OBJECTID":439207},"geometry":{"x":171684.5,"y":2540627.6699999999}},{"attributes":{"ID":439233,"DIS_CODE":0,"TOWNNAME":"東區","LI":"東明里","LIN":"4鄰","STREET":"怡東路","SECT":" ","MAREA":" ","LANE":"５８巷","ALLEY":" ","HOUSE_NO":"１３號","E_COORD97":170907.73000000001,"N_COORD97":2543585.8100000001,"ADDRESS":"怡東路５８巷１３號","OBJECTID":439208},"geometry":{"x":170907.73000000138,"y":2543585.8100000024}},{"attributes":{"ID":439234,"DIS_CODE":0,"TOWNNAME":"東區","LI":"東明里","LIN":"4鄰","STREET":"怡東路","SECT":" ","MAREA":" ","LANE":"５８巷","ALLEY":" ","HOUSE_NO":"１５號","E_COORD97":170913.88,"N_COORD97":2543585.2799999998,"ADDRESS":"怡東路５８巷１５號","OBJECTID":439209},"geometry":{"x":170913.87999999989,"y":2543585.2800000012}},{"attributes":{"ID":439235,"DIS_CODE":0,"TOWNNAME":"東區","LI":"東明里","LIN":"4鄰","STREET":"怡東路","SECT":" ","MAREA":" ","LANE":"７２巷","ALLEY":" ","HOUSE_NO":"１６號","E_COORD97":170916.5,"N_COORD97":2543623.71,"ADDRESS":"怡東路７２巷１６號","OBJECTID":439210},"geometry":{"x":170916.5,"y":2543623.7100000046}},{"attributes":{"ID":439236,"DIS_CODE":0,"TOWNNAME":"東區","LI":"虎尾里","LIN":"24鄰","STREET":"東成街","SECT":" ","MAREA":" ","LANE":"２２２巷","ALLEY":" ","HOUSE_NO":"１３號","E_COORD97":171931,"N_COORD97":2542223.7599999998,"ADDRESS":"東成街２２２巷１３號","OBJECTID":439211},"geometry":{"x":171931.00000000093,"y":2542223.7599999998}},{"attributes":{"ID":439237,"DIS_CODE":0,"TOWNNAME":"東區","LI":"虎尾里","LIN":"24鄰","STREET":"東成街","SECT":" ","MAREA":" ","LANE":"２２２巷","ALLEY":" ","HOUSE_NO":"１３之１號","E_COORD97":171920.85000000001,"N_COORD97":2542224.9100000001,"ADDRESS":"東成街２２２巷１３之１號","OBJECTID":439212},"geometry":{"x":171920.84999999963,"y":2542224.9100000039}},{"attributes":{"ID":439238,"DIS_CODE":0,"TOWNNAME":"東區","LI":"東光里","LIN":"5鄰","STREET":"東寧路","SECT":" ","MAREA":" ","LANE":"４３５巷","ALLEY":" ","HOUSE_NO":"１１號","E_COORD97":171074.72,"N_COORD97":2543389.8799999999,"ADDRESS":"東寧路４３５巷１１號","OBJECTID":439213},"geometry":{"x":171074.7200000016,"y":2543389.8800000027}},{"attributes":{"ID":439239,"DIS_CODE":0,"TOWNNAME":"東區","LI":"崇德里","LIN":"8鄰","STREET":"崇德七街","SECT":" ","MAREA":" ","LANE":"２０巷","ALLEY":" ","HOUSE_NO":"２號","E_COORD97":170796.87,"N_COORD97":2541726.21,"ADDRESS":"崇德七街２０巷２號","OBJECTID":439214},"geometry":{"x":170796.87000000104,"y":2541726.2100000028}},{"attributes":{"ID":439240,"DIS_CODE":0,"TOWNNAME":"東區","LI":"崇德里","LIN":"8鄰","STREET":"崇德七街","SECT":" ","MAREA":" ","LANE":"２０巷","ALLEY":" ","HOUSE_NO":"６號","E_COORD97":170801.45999999999,"N_COORD97":2541723.2599999998,"ADDRESS":"崇德七街２０巷６號","OBJECTID":439215},"geometry":{"x":170801.45999999996,"y":2541723.2599999998}},{"attributes":{"ID":439241,"DIS_CODE":0,"TOWNNAME":"東區","LI":"崇德里","LIN":"8鄰","STREET":"崇德七街","SECT":" ","MAREA":" ","LANE":"２０巷","ALLEY":" ","HOUSE_NO":"８號","E_COORD97":170807.35000000001,"N_COORD97":2541719.3300000001,"ADDRESS":"崇德七街２０巷８號","OBJECTID":439216},"geometry":{"x":170807.34999999963,"y":2541719.3300000001}},{"attributes":{"ID":439242,"DIS_CODE":0,"TOWNNAME":"東區","LI":"崇德里","LIN":"8鄰","STREET":"崇德七街","SECT":" ","MAREA":" ","LANE":"３０巷","ALLEY":" ","HOUSE_NO":"２７號","E_COORD97":170886.59,"N_COORD97":2541759.2799999998,"ADDRESS":"崇德七街３０巷２７號","OBJECTID":439217},"geometry":{"x":170886.59000000078,"y":2541759.2799999993}},{"attributes":{"ID":439243,"DIS_CODE":0,"TOWNNAME":"東區","LI":"崇德里","LIN":"8鄰","STREET":"崇德七街","SECT":" ","MAREA":" ","LANE":"３０巷","ALLEY":" ","HOUSE_NO":"３１號","E_COORD97":170888.56,"N_COORD97":2541753.3900000001,"ADDRESS":"崇德七街３０巷３１號","OBJECTID":439218},"geometry":{"x":170888.55999999959,"y":2541753.3900000006}},{"attributes":{"ID":439244,"DIS_CODE":0,"TOWNNAME":"東區","LI":"崇德里","LIN":"8鄰","STREET":"崇德七街","SECT":" ","MAREA":" ","LANE":"３０巷","ALLEY":" ","HOUSE_NO":"３５號","E_COORD97":170890.20000000001,"N_COORD97":2541744.5499999998,"ADDRESS":"崇德七街３０巷３５號","OBJECTID":439219},"geometry":{"x":170890.20000000019,"y":2541744.5500000026}},{"attributes":{"ID":439245,"DIS_CODE":0,"TOWNNAME":"東區","LI":"龍山里","LIN":"20鄰","STREET":"崇學路","SECT":" ","MAREA":" ","LANE":"２０３巷","ALLEY":" ","HOUSE_NO":"８號","E_COORD97":170397.87,"N_COORD97":2542393.5600000001,"ADDRESS":"崇學路２０３巷８號","OBJECTID":439220},"geometry":{"x":170397.87000000104,"y":2542393.5600000042}},{"attributes":{"ID":439246,"DIS_CODE":0,"TOWNNAME":"東區","LI":"龍山里","LIN":"20鄰","STREET":"崇學路","SECT":" ","MAREA":" ","LANE":"２０３巷","ALLEY":" ","HOUSE_NO":"９之１號","E_COORD97":170387.72,"N_COORD97":2542377.1899999999,"ADDRESS":"崇學路２０３巷９之１號","OBJECTID":439221},"geometry":{"x":170387.71999999974,"y":2542377.1899999995}},{"attributes":{"ID":439247,"DIS_CODE":0,"TOWNNAME":"東區","LI":"崇信里","LIN":"26鄰","STREET":"崇學路","SECT":" ","MAREA":" ","LANE":"２３０巷","ALLEY":" ","HOUSE_NO":"１２１號","E_COORD97":170613.98999999999,"N_COORD97":2542270.77,"ADDRESS":"崇學路２３０巷１２１號","OBJECTID":439222},"geometry":{"x":170613.99000000209,"y":2542270.7700000014}},{"attributes":{"ID":439248,"DIS_CODE":0,"TOWNNAME":"東區","LI":"崇信里","LIN":"26鄰","STREET":"崇學路","SECT":" ","MAREA":" ","LANE":"２３０巷","ALLEY":" ","HOUSE_NO":"１２３號","E_COORD97":170609.57000000001,"N_COORD97":2542266.3500000001,"ADDRESS":"崇學路２３０巷１２３號","OBJECTID":439223},"geometry":{"x":170609.5700000003,"y":2542266.3500000015}},{"attributes":{"ID":439249,"DIS_CODE":0,"TOWNNAME":"東區","LI":"文聖里","LIN":"13鄰","STREET":"裕平路","SECT":" ","MAREA":" ","LANE":"１８８巷","ALLEY":" ","HOUSE_NO":"１６號","E_COORD97":172312.16,"N_COORD97":2542794.3500000001,"ADDRESS":"裕平路１８８巷１６號","OBJECTID":439224},"geometry":{"x":172312.16000000108,"y":2542794.3500000034}},{"attributes":{"ID":439250,"DIS_CODE":0,"TOWNNAME":"東區","LI":"文聖里","LIN":"13鄰","STREET":"裕平路","SECT":" ","MAREA":" ","LANE":"１８８巷","ALLEY":" ","HOUSE_NO":"１７號","E_COORD97":172329.51000000001,"N_COORD97":2542781.5800000001,"ADDRESS":"裕平路１８８巷１７號","OBJECTID":439225},"geometry":{"x":172329.51000000071,"y":2542781.5800000001}},{"attributes":{"ID":439251,"DIS_CODE":0,"TOWNNAME":"東區","LI":"文聖里","LIN":"13鄰","STREET":"裕平路","SECT":" ","MAREA":" ","LANE":"１８８巷","ALLEY":" ","HOUSE_NO":"１９號","E_COORD97":172328.85999999999,"N_COORD97":2542776.6699999999,"ADDRESS":"裕平路１８８巷１９號","OBJECTID":439226},"geometry":{"x":172328.8600000022,"y":2542776.6700000018}},{"attributes":{"ID":439252,"DIS_CODE":0,"TOWNNAME":"東區","LI":"文聖里","LIN":"13鄰","STREET":"裕平路","SECT":" ","MAREA":" ","LANE":"１８８巷","ALLEY":" ","HOUSE_NO":"１號","E_COORD97":172330.5,"N_COORD97":2542813.3399999999,"ADDRESS":"裕平路１８８巷１號","OBJECTID":439227},"geometry":{"x":172330.5,"y":2542813.3399999999}},{"attributes":{"ID":439253,"DIS_CODE":0,"TOWNNAME":"東區","LI":"文聖里","LIN":"13鄰","STREET":"裕平路","SECT":" ","MAREA":" ","LANE":"１８８巷","ALLEY":" ","HOUSE_NO":"２１號","E_COORD97":172329.51000000001,"N_COORD97":2542772.4100000001,"ADDRESS":"裕平路１８８巷２１號","OBJECTID":439228},"geometry":{"x":172329.51000000071,"y":2542772.4100000001}},{"attributes":{"ID":439254,"DIS_CODE":0,"TOWNNAME":"東區","LI":"文聖里","LIN":"13鄰","STREET":"裕平路","SECT":" ","MAREA":" ","LANE":"１８８巷","ALLEY":" ","HOUSE_NO":"２２號","E_COORD97":172310.51999999999,"N_COORD97":2542781.8999999999,"ADDRESS":"裕平路１８８巷２２號","OBJECTID":439229},"geometry":{"x":172310.52000000048,"y":2542781.9000000022}},{"attributes":{"ID":439255,"DIS_CODE":0,"TOWNNAME":"東區","LI":"文聖里","LIN":"13鄰","STREET":"裕平路","SECT":" ","MAREA":" ","LANE":"１８８巷","ALLEY":" ","HOUSE_NO":"２３號","E_COORD97":172329.19,"N_COORD97":2542767.1699999999,"ADDRESS":"裕平路１８８巷２３號","OBJECTID":439230},"geometry":{"x":172329.19000000134,"y":2542767.1699999999}},{"attributes":{"ID":439256,"DIS_CODE":0,"TOWNNAME":"東區","LI":"大學里","LIN":"12鄰","STREET":"長榮路","SECT":"三段","MAREA":" ","LANE":"６６巷","ALLEY":" ","HOUSE_NO":"６２之１號","E_COORD97":170352.70000000001,"N_COORD97":2543778.8399999999,"ADDRESS":"長榮路三段６６巷６２之１號","OBJECTID":439231},"geometry":{"x":170352.70000000019,"y":2543778.8400000017}},{"attributes":{"ID":439257,"DIS_CODE":0,"TOWNNAME":"東區","LI":"東門里","LIN":"8鄰","STREET":"前鋒路","SECT":" ","MAREA":" ","LANE":"３８巷","ALLEY":" ","HOUSE_NO":"１７號","E_COORD97":169379.09,"N_COORD97":2543463.4199999999,"ADDRESS":"前鋒路３８巷１７號","OBJECTID":439232},"geometry":{"x":169379.09000000078,"y":2543463.4200000018}},{"attributes":{"ID":439258,"DIS_CODE":0,"TOWNNAME":"東區","LI":"崇信里","LIN":"26鄰","STREET":"崇善路","SECT":" ","MAREA":" ","LANE":"２３１巷","ALLEY":" ","HOUSE_NO":"２７號","E_COORD97":170638.72,"N_COORD97":2542247.1899999999,"ADDRESS":"崇善路２３１巷２７號","OBJECTID":439233},"geometry":{"x":170638.71999999974,"y":2542247.1900000013}},{"attributes":{"ID":439259,"DIS_CODE":0,"TOWNNAME":"東區","LI":"崇善里","LIN":"14鄰","STREET":"崇善路","SECT":" ","MAREA":" ","LANE":"６６７巷","ALLEY":" ","HOUSE_NO":"１１號","E_COORD97":171137.92999999999,"N_COORD97":2541240.6699999999,"ADDRESS":"崇善路６６７巷１１號","OBJECTID":439234},"geometry":{"x":171137.93000000063,"y":2541240.6700000018}},{"attributes":{"ID":439260,"DIS_CODE":0,"TOWNNAME":"東區","LI":"德高里","LIN":"12鄰","STREET":"崇善路","SECT":" ","MAREA":" ","LANE":"９１３巷","ALLEY":" ","HOUSE_NO":"３１號","E_COORD97":171409.85999999999,"N_COORD97":2540774.7999999998,"ADDRESS":"崇善路９１３巷３１號","OBJECTID":439235},"geometry":{"x":171409.86000000034,"y":2540774.7999999989}},{"attributes":{"ID":439261,"DIS_CODE":0,"TOWNNAME":"東區","LI":"德高里","LIN":"12鄰","STREET":"崇善路","SECT":" ","MAREA":" ","LANE":"９１３巷","ALLEY":" ","HOUSE_NO":"３３號","E_COORD97":171406.42000000001,"N_COORD97":2540773.6499999999,"ADDRESS":"崇善路９１３巷３３號","OBJECTID":439236},"geometry":{"x":171406.42000000086,"y":2540773.6500000022}},{"attributes":{"ID":439262,"DIS_CODE":0,"TOWNNAME":"東區","LI":"德高里","LIN":"12鄰","STREET":"崇善路","SECT":" ","MAREA":" ","LANE":"９１３巷","ALLEY":" ","HOUSE_NO":"３５號","E_COORD97":171402.98000000001,"N_COORD97":2540772.1800000002,"ADDRESS":"崇善路９１３巷３５號","OBJECTID":439237},"geometry":{"x":171402.98000000138,"y":2540772.1800000016}},{"attributes":{"ID":439263,"DIS_CODE":0,"TOWNNAME":"東區","LI":"德高里","LIN":"12鄰","STREET":"崇善路","SECT":" ","MAREA":" ","LANE":"９１３巷","ALLEY":" ","HOUSE_NO":"３７號","E_COORD97":171399.04999999999,"N_COORD97":2540770.8700000001,"ADDRESS":"崇善路９１３巷３７號","OBJECTID":439238},"geometry":{"x":171399.04999999981,"y":2540770.870000001}},{"attributes":{"ID":439264,"DIS_CODE":0,"TOWNNAME":"東區","LI":"德高里","LIN":"12鄰","STREET":"崇善路","SECT":" ","MAREA":" ","LANE":"９１３巷","ALLEY":" ","HOUSE_NO":"３９號","E_COORD97":171393.97,"N_COORD97":2540769.23,"ADDRESS":"崇善路９１３巷３９號","OBJECTID":439239},"geometry":{"x":171393.97000000067,"y":2540769.2300000023}},{"attributes":{"ID":439265,"DIS_CODE":0,"TOWNNAME":"東區","LI":"中西里","LIN":"10鄰","STREET":"勝利路","SECT":" ","MAREA":" ","LANE":"５２巷","ALLEY":" ","HOUSE_NO":"８０號","E_COORD97":169953.03,"N_COORD97":2543429.79,"ADDRESS":"勝利路５２巷８０號","OBJECTID":439240},"geometry":{"x":169953.03000000119,"y":2543429.7899999991}},{"attributes":{"ID":439266,"DIS_CODE":0,"TOWNNAME":"東區","LI":"文聖里","LIN":"13鄰","STREET":"裕平路","SECT":" ","MAREA":" ","LANE":"１８８巷","ALLEY":" ","HOUSE_NO":"１８號","E_COORD97":172311.82999999999,"N_COORD97":2542789.7599999998,"ADDRESS":"裕平路１８８巷１８號","OBJECTID":439241},"geometry":{"x":172311.83000000194,"y":2542789.7600000016}},{"attributes":{"ID":439267,"DIS_CODE":0,"TOWNNAME":"東區","LI":"文聖里","LIN":"13鄰","STREET":"裕平路","SECT":" ","MAREA":" ","LANE":"１８８巷","ALLEY":" ","HOUSE_NO":"２０號","E_COORD97":172311.5,"N_COORD97":2542786.1600000001,"ADDRESS":"裕平路１８８巷２０號","OBJECTID":439242},"geometry":{"x":172311.5,"y":2542786.160000002}},{"attributes":{"ID":439268,"DIS_CODE":0,"TOWNNAME":"東區","LI":"文聖里","LIN":"13鄰","STREET":"裕平路","SECT":" ","MAREA":" ","LANE":"１８８巷","ALLEY":" ","HOUSE_NO":"１０號","E_COORD97":172312.48999999999,"N_COORD97":2542802.21,"ADDRESS":"裕平路１８８巷１０號","OBJECTID":439243},"geometry":{"x":172312.48999999929,"y":2542802.2100000009}},{"attributes":{"ID":439269,"DIS_CODE":0,"TOWNNAME":"東區","LI":"文聖里","LIN":"13鄰","STREET":"裕平路","SECT":" ","MAREA":" ","LANE":"１８８巷","ALLEY":" ","HOUSE_NO":"１３號","E_COORD97":172329.19,"N_COORD97":2542788.1299999999,"ADDRESS":"裕平路１８８巷１３號","OBJECTID":439244},"geometry":{"x":172329.19000000134,"y":2542788.1300000027}},{"attributes":{"ID":439270,"DIS_CODE":0,"TOWNNAME":"東區","LI":"文聖里","LIN":"13鄰","STREET":"裕平路","SECT":" ","MAREA":" ","LANE":"１８８巷","ALLEY":" ","HOUSE_NO":"１１號","E_COORD97":172329.19,"N_COORD97":2542792.3799999999,"ADDRESS":"裕平路１８８巷１１號","OBJECTID":439245},"geometry":{"x":172329.19000000134,"y":2542792.379999999}},{"attributes":{"ID":439271,"DIS_CODE":0,"TOWNNAME":"東區","LI":"文聖里","LIN":"13鄰","STREET":"裕平路","SECT":" ","MAREA":" ","LANE":"１８８巷","ALLEY":" ","HOUSE_NO":"１２號","E_COORD97":172311.82999999999,"N_COORD97":2542798.2799999998,"ADDRESS":"裕平路１８８巷１２號","OBJECTID":439246},"geometry":{"x":172311.83000000194,"y":2542798.2800000012}},{"attributes":{"ID":439272,"DIS_CODE":0,"TOWNNAME":"東區","LI":"文聖里","LIN":"13鄰","STREET":"裕平路","SECT":" ","MAREA":" ","LANE":"１８８巷","ALLEY":" ","HOUSE_NO":"１５號","E_COORD97":172329.19,"N_COORD97":2542785.1800000002,"ADDRESS":"裕平路１８８巷１５號","OBJECTID":439247},"geometry":{"x":172329.19000000134,"y":2542785.1800000034}},{"attributes":{"ID":439273,"DIS_CODE":0,"TOWNNAME":"東區","LI":"文聖里","LIN":"13鄰","STREET":"裕平路","SECT":" ","MAREA":" ","LANE":"１８８巷","ALLEY":" ","HOUSE_NO":"２號","E_COORD97":172312.48999999999,"N_COORD97":2542813.9900000002,"ADDRESS":"裕平路１８８巷２號","OBJECTID":439248},"geometry":{"x":172312.48999999929,"y":2542813.9899999984}},{"attributes":{"ID":439274,"DIS_CODE":0,"TOWNNAME":"東區","LI":"文聖里","LIN":"13鄰","STREET":"裕平路","SECT":" ","MAREA":" ","LANE":"１８８巷","ALLEY":" ","HOUSE_NO":"３０號","E_COORD97":172311.5,"N_COORD97":2542768.48,"ADDRESS":"裕平路１８８巷３０號","OBJECTID":439249},"geometry":{"x":172311.5,"y":2542768.4800000023}},{"attributes":{"ID":439275,"DIS_CODE":0,"TOWNNAME":"東區","LI":"文聖里","LIN":"13鄰","STREET":"裕平路","SECT":" ","MAREA":" ","LANE":"１８８巷","ALLEY":" ","HOUSE_NO":"３２號","E_COORD97":172311.17999999999,"N_COORD97":2542764.2200000002,"ADDRESS":"裕平路１８８巷３２號","OBJECTID":439250},"geometry":{"x":172311.18000000063,"y":2542764.2200000007}},{"attributes":{"ID":439276,"DIS_CODE":0,"TOWNNAME":"東區","LI":"文聖里","LIN":"13鄰","STREET":"裕平路","SECT":" ","MAREA":" ","LANE":"１８８巷","ALLEY":" ","HOUSE_NO":"３６號","E_COORD97":172311.82999999999,"N_COORD97":2542761.27,"ADDRESS":"裕平路１８８巷３６號","OBJECTID":439251},"geometry":{"x":172311.83000000194,"y":2542761.2700000014}},{"attributes":{"ID":439277,"DIS_CODE":0,"TOWNNAME":"東區","LI":"文聖里","LIN":"13鄰","STREET":"裕平路","SECT":" ","MAREA":" ","LANE":"１８８巷","ALLEY":" ","HOUSE_NO":"３號","E_COORD97":172330.17000000001,"N_COORD97":2542810.7200000002,"ADDRESS":"裕平路１８８巷３號","OBJECTID":439252},"geometry":{"x":172330.17000000086,"y":2542810.7200000025}},{"attributes":{"ID":439278,"DIS_CODE":0,"TOWNNAME":"善化區","LI":"西關里","LIN":"4鄰","STREET":"中華路","SECT":" ","MAREA":" ","LANE":"１５７巷","ALLEY":" ","HOUSE_NO":"１２號","E_COORD97":177173.72,"N_COORD97":2559099.5,"ADDRESS":"中華路１５７巷１２號","OBJECTID":439253},"geometry":{"x":177173.71999999974,"y":2559099.5000000019}},{"attributes":{"ID":439279,"DIS_CODE":0,"TOWNNAME":"善化區","LI":"光文里","LIN":"26鄰","STREET":"中山路","SECT":" ","MAREA":" ","LANE":"２４０巷","ALLEY":" ","HOUSE_NO":"１號之２５","E_COORD97":178094.26000000001,"N_COORD97":2559235.27,"ADDRESS":"中山路２４０巷１號之２５","OBJECTID":439254},"geometry":{"x":178094.26000000164,"y":2559235.2700000014}},{"attributes":{"ID":439280,"DIS_CODE":0,"TOWNNAME":"善化區","LI":"光文里","LIN":"14鄰","STREET":"民生路","SECT":" ","MAREA":" ","LANE":"１６９巷","ALLEY":" ","HOUSE_NO":"９號","E_COORD97":178474.66,"N_COORD97":2558921.7599999998,"ADDRESS":"民生路１６９巷９號","OBJECTID":439255},"geometry":{"x":178474.66000000015,"y":2558921.7599999998}},{"attributes":{"ID":439281,"DIS_CODE":0,"TOWNNAME":"善化區","LI":"坐駕里","LIN":"18鄰","STREET":"興華路","SECT":" ","MAREA":" ","LANE":"２２３巷","ALLEY":" ","HOUSE_NO":"９號","E_COORD97":178227.51000000001,"N_COORD97":2558516.25,"ADDRESS":"興華路２２３巷９號","OBJECTID":439256},"geometry":{"x":178227.50999999978,"y":2558516.2499999981}},{"attributes":{"ID":439282,"DIS_CODE":0,"TOWNNAME":"善化區","LI":"光文里","LIN":"26鄰","STREET":"中山路","SECT":" ","MAREA":" ","LANE":"２４０巷","ALLEY":" ","HOUSE_NO":"１號之３２","E_COORD97":178131.56,"N_COORD97":2559243.52,"ADDRESS":"中山路２４０巷１號之３２","OBJECTID":439257},"geometry":{"x":178131.56000000052,"y":2559243.5200000014}},{"attributes":{"ID":439283,"DIS_CODE":0,"TOWNNAME":"善化區","LI":"文昌里","LIN":"18鄰","STREET":"興華路","SECT":" ","MAREA":" ","LANE":"３１７巷","ALLEY":" ","HOUSE_NO":"１號","E_COORD97":177756.51000000001,"N_COORD97":2558477.5,"ADDRESS":"興華路３１７巷１號","OBJECTID":439258},"geometry":{"x":177756.50999999978,"y":2558477.5000000037}},{"attributes":{"ID":439284,"DIS_CODE":0,"TOWNNAME":"北區","LI":"大豐里","LIN":"20鄰","STREET":"大興街","SECT":" ","MAREA":" ","LANE":"２３３巷","ALLEY":" ","HOUSE_NO":"５６號五樓之３","E_COORD97":166846.79999999999,"N_COORD97":2545498.4500000002,"ADDRESS":"大興街２３３巷５６號五樓之３","OBJECTID":439259},"geometry":{"x":166846.80000000075,"y":2545498.4499999974}},{"attributes":{"ID":439285,"DIS_CODE":0,"TOWNNAME":"北區","LI":"大豐里","LIN":"20鄰","STREET":"大興街","SECT":" ","MAREA":" ","LANE":"２３３巷","ALLEY":" ","HOUSE_NO":"５６號六樓之１","E_COORD97":166846.79999999999,"N_COORD97":2545498.4500000002,"ADDRESS":"大興街２３３巷５６號六樓之１","OBJECTID":439260},"geometry":{"x":166846.80000000075,"y":2545498.4499999974}},{"attributes":{"ID":439286,"DIS_CODE":0,"TOWNNAME":"善化區","LI":"光文里","LIN":"26鄰","STREET":"中山路","SECT":" ","MAREA":" ","LANE":"２４０巷","ALLEY":" ","HOUSE_NO":"１號之３７","E_COORD97":178152.92000000001,"N_COORD97":2559246.77,"ADDRESS":"中山路２４０巷１號之３７","OBJECTID":439261},"geometry":{"x":178152.92000000086,"y":2559246.7699999996}},{"attributes":{"ID":439287,"DIS_CODE":0,"TOWNNAME":"善化區","LI":"東關里","LIN":" ","STREET":"中華路","SECT":" ","MAREA":" ","LANE":"１３７巷","ALLEY":" ","HOUSE_NO":"６號","E_COORD97":177194.03,"N_COORD97":2558991.75,"ADDRESS":"中華路１３７巷６號","OBJECTID":439262},"geometry":{"x":177194.03000000026,"y":2558991.7500000019}},{"attributes":{"ID":439288,"DIS_CODE":0,"TOWNNAME":"善化區","LI":"南關里","LIN":"13鄰","STREET":"自由路","SECT":" ","MAREA":" ","LANE":"１８９巷","ALLEY":" ","HOUSE_NO":"１１號","E_COORD97":176872.75,"N_COORD97":2558891.25,"ADDRESS":"自由路１８９巷１１號","OBJECTID":439263},"geometry":{"x":176872.75000000093,"y":2558891.25}},{"attributes":{"ID":439289,"DIS_CODE":0,"TOWNNAME":"善化區","LI":"南關里","LIN":"13鄰","STREET":"復興街","SECT":" ","MAREA":" ","LANE":"５５巷","ALLEY":" ","HOUSE_NO":"８號之１","E_COORD97":176976.28,"N_COORD97":2559005.02,"ADDRESS":"復興街５５巷８號之１","OBJECTID":439264},"geometry":{"x":176976.28000000119,"y":2559005.0199999996}},{"attributes":{"ID":439290,"DIS_CODE":0,"TOWNNAME":"善化區","LI":"文昌里","LIN":"18鄰","STREET":"興華路","SECT":" ","MAREA":" ","LANE":"３１７巷","ALLEY":" ","HOUSE_NO":"１１號","E_COORD97":177755.37,"N_COORD97":2558440.5,"ADDRESS":"興華路３１７巷１１號","OBJECTID":439265},"geometry":{"x":177755.37000000104,"y":2558440.5000000019}},{"attributes":{"ID":439291,"DIS_CODE":0,"TOWNNAME":"善化區","LI":"光文里","LIN":"20鄰","STREET":"大成路","SECT":" ","MAREA":" ","LANE":"３１６巷","ALLEY":" ","HOUSE_NO":"２號","E_COORD97":178073.53,"N_COORD97":2558855.75,"ADDRESS":"大成路３１６巷２號","OBJECTID":439266},"geometry":{"x":178073.53000000026,"y":2558855.7500000019}},{"attributes":{"ID":439292,"DIS_CODE":0,"TOWNNAME":"善化區","LI":"南關里","LIN":"13鄰","STREET":"自由路","SECT":" ","MAREA":" ","LANE":"１８９巷","ALLEY":" ","HOUSE_NO":"２１號","E_COORD97":176894.95999999999,"N_COORD97":2558825,"ADDRESS":"自由路１８９巷２１號","OBJECTID":439267},"geometry":{"x":176894.96000000089,"y":2558825}},{"attributes":{"ID":439293,"DIS_CODE":0,"TOWNNAME":"善化區","LI":"文正里","LIN":"14鄰","STREET":"興農路","SECT":" ","MAREA":" ","LANE":"１８８巷","ALLEY":" ","HOUSE_NO":"２９號","E_COORD97":176021.04999999999,"N_COORD97":2559278.5099999998,"ADDRESS":"興農路１８８巷２９號","OBJECTID":439268},"geometry":{"x":176021.05000000075,"y":2559278.5100000016}},{"attributes":{"ID":439294,"DIS_CODE":0,"TOWNNAME":"善化區","LI":"光文里","LIN":"26鄰","STREET":"中山路","SECT":" ","MAREA":" ","LANE":"２４０巷","ALLEY":" ","HOUSE_NO":"１號之５６","E_COORD97":178142.56,"N_COORD97":2559258.77,"ADDRESS":"中山路２４０巷１號之５６","OBJECTID":439269},"geometry":{"x":178142.55999999959,"y":2559258.7700000014}},{"attributes":{"ID":439295,"DIS_CODE":0,"TOWNNAME":"善化區","LI":"光文里","LIN":"26鄰","STREET":"中山路","SECT":" ","MAREA":" ","LANE":"２４０巷","ALLEY":" ","HOUSE_NO":"１號之６１","E_COORD97":178164.31,"N_COORD97":2559262.52,"ADDRESS":"中山路２４０巷１號之６１","OBJECTID":439270},"geometry":{"x":178164.30999999959,"y":2559262.5199999996}},{"attributes":{"ID":439296,"DIS_CODE":0,"TOWNNAME":"善化區","LI":"南關里","LIN":"13鄰","STREET":"自由路","SECT":" ","MAREA":" ","LANE":"１８９巷","ALLEY":" ","HOUSE_NO":"１６號","E_COORD97":176868.82000000001,"N_COORD97":2558861.25,"ADDRESS":"自由路１８９巷１６號","OBJECTID":439271},"geometry":{"x":176868.82000000216,"y":2558861.25}},{"attributes":{"ID":439297,"DIS_CODE":0,"TOWNNAME":"善化區","LI":"光文里","LIN":"13鄰","STREET":"民權路","SECT":" ","MAREA":" ","LANE":"１１４巷","ALLEY":" ","HOUSE_NO":"１號","E_COORD97":178452.20999999999,"N_COORD97":2559070.2599999998,"ADDRESS":"民權路１１４巷１號","OBJECTID":439272},"geometry":{"x":178452.20999999996,"y":2559070.2600000016}},{"attributes":{"ID":439298,"DIS_CODE":0,"TOWNNAME":"善化區","LI":"文正里","LIN":"13鄰","STREET":"陽明路","SECT":" ","MAREA":" ","LANE":"１４２巷","ALLEY":" ","HOUSE_NO":"３９之７號","E_COORD97":176486.88,"N_COORD97":2559561.27,"ADDRESS":"陽明路１４２巷３９之７號","OBJECTID":439273},"geometry":{"x":176486.88000000082,"y":2559561.2700000014}},{"attributes":{"ID":439299,"DIS_CODE":0,"TOWNNAME":"善化區","LI":"光文里","LIN":"20鄰","STREET":"民權路","SECT":" ","MAREA":" ","LANE":"２４５巷","ALLEY":" ","HOUSE_NO":"７號","E_COORD97":178085.41,"N_COORD97":2558949.2599999998,"ADDRESS":"民權路２４５巷７號","OBJECTID":439274},"geometry":{"x":178085.41000000108,"y":2558949.2599999998}},{"attributes":{"ID":439300,"DIS_CODE":0,"TOWNNAME":"善化區","LI":"坐駕里","LIN":"13鄰","STREET":"信義路","SECT":" ","MAREA":" ","LANE":"７１巷","ALLEY":" ","HOUSE_NO":"１０號","E_COORD97":178261.14999999999,"N_COORD97":2558719.25,"ADDRESS":"信義路７１巷１０號","OBJECTID":439275},"geometry":{"x":178261.15000000037,"y":2558719.25}},{"attributes":{"ID":439301,"DIS_CODE":0,"TOWNNAME":"善化區","LI":"坐駕里","LIN":"13鄰","STREET":"信義路","SECT":" ","MAREA":" ","LANE":"７１巷","ALLEY":" ","HOUSE_NO":"２９號","E_COORD97":178203.54999999999,"N_COORD97":2558697.5,"ADDRESS":"信義路７１巷２９號","OBJECTID":439276},"geometry":{"x":178203.54999999981,"y":2558697.5}},{"attributes":{"ID":439302,"DIS_CODE":0,"TOWNNAME":"善化區","LI":"小新里","LIN":"1鄰","STREET":"成功路","SECT":" ","MAREA":" ","LANE":"５３巷","ALLEY":" ","HOUSE_NO":"３號","E_COORD97":180014.19,"N_COORD97":2558545,"ADDRESS":"成功路５３巷３號","OBJECTID":439277},"geometry":{"x":180014.19000000041,"y":2558544.9999999981}},{"attributes":{"ID":439303,"DIS_CODE":0,"TOWNNAME":"善化區","LI":"光文里","LIN":" ","STREET":"公園路","SECT":" ","MAREA":" ","LANE":"２４０巷","ALLEY":" ","HOUSE_NO":"１之１號","E_COORD97":178071.91,"N_COORD97":2559249.77,"ADDRESS":"公園路２４０巷１之１號","OBJECTID":439278},"geometry":{"x":178071.91000000108,"y":2559249.7700000014}},{"attributes":{"ID":439304,"DIS_CODE":0,"TOWNNAME":"善化區","LI":"文正里","LIN":"13鄰","STREET":"陽明路","SECT":" ","MAREA":" ","LANE":"１４２巷","ALLEY":" ","HOUSE_NO":"３９之７５號","E_COORD97":176536.89000000001,"N_COORD97":2559596.52,"ADDRESS":"陽明路１４２巷３９之７５號","OBJECTID":439279},"geometry":{"x":176536.88999999966,"y":2559596.5200000014}},{"attributes":{"ID":439305,"DIS_CODE":0,"TOWNNAME":"善化區","LI":"西關里","LIN":"4鄰","STREET":"中華路","SECT":" ","MAREA":" ","LANE":"１５７巷","ALLEY":" ","HOUSE_NO":"１８號","E_COORD97":177153.07999999999,"N_COORD97":2559096,"ADDRESS":"中華路１５７巷１８號","OBJECTID":439280},"geometry":{"x":177153.08000000007,"y":2559096.0000000019}},{"attributes":{"ID":439306,"DIS_CODE":0,"TOWNNAME":"楠西區","LI":"灣丘里","LIN":"6鄰","STREET":" ","SECT":" ","MAREA":"灣丘","LANE":" ","ALLEY":" ","HOUSE_NO":"１號之５","E_COORD97":198662.88686200001,"N_COORD97":2563694.7136300001,"ADDRESS":"灣丘１號之５","OBJECTID":439281},"geometry":{"x":198662.88686200138,"y":2563694.7136349995}},{"attributes":{"ID":439307,"DIS_CODE":0,"TOWNNAME":"善化區","LI":"光文里","LIN":"18鄰","STREET":"和平路","SECT":" ","MAREA":" ","LANE":"１２６巷","ALLEY":" ","HOUSE_NO":"２號","E_COORD97":178148.82000000001,"N_COORD97":2558942.75,"ADDRESS":"和平路１２６巷２號","OBJECTID":439282},"geometry":{"x":178148.82000000123,"y":2558942.75}},{"attributes":{"ID":439308,"DIS_CODE":0,"TOWNNAME":"新營區","LI":"民榮里","LIN":" ","STREET":"復興路","SECT":" ","MAREA":" ","LANE":"３０１巷","ALLEY":" ","HOUSE_NO":"四樓之４","E_COORD97":178600.48999999999,"N_COORD97":2578117.6499999999,"ADDRESS":"復興路３０１巷四樓之４","OBJECTID":439283},"geometry":{"x":178600.49000000115,"y":2578117.6500000022}},{"attributes":{"ID":439309,"DIS_CODE":0,"TOWNNAME":"仁德區","LI":"田厝里","LIN":"4鄰","STREET":"田厝三街","SECT":" ","MAREA":" ","LANE":"９３巷","ALLEY":" ","HOUSE_NO":"３５號","E_COORD97":172498.51999999999,"N_COORD97":2537487.9900000002,"ADDRESS":"田厝三街９３巷３５號","OBJECTID":439284},"geometry":{"x":172498.52000000048,"y":2537487.9900000039}},{"attributes":{"ID":439310,"DIS_CODE":0,"TOWNNAME":"仁德區","LI":"二行里","LIN":"4鄰","STREET":"二行一路","SECT":" ","MAREA":" ","LANE":"８３巷","ALLEY":" ","HOUSE_NO":"１９號","E_COORD97":170335.01000000001,"N_COORD97":2535356.5,"ADDRESS":"二行一路８３巷１９號","OBJECTID":439285},"geometry":{"x":170335.00999999978,"y":2535356.5000000019}},{"attributes":{"ID":439311,"DIS_CODE":0,"TOWNNAME":"北區","LI":"大豐里","LIN":"20鄰","STREET":"大興街","SECT":" ","MAREA":" ","LANE":"２３３巷","ALLEY":" ","HOUSE_NO":"５６號六樓之２","E_COORD97":166846.79999999999,"N_COORD97":2545498.4500000002,"ADDRESS":"大興街２３３巷５６號六樓之２","OBJECTID":439286},"geometry":{"x":166846.80000000075,"y":2545498.4499999974}},{"attributes":{"ID":439312,"DIS_CODE":0,"TOWNNAME":"仁德區","LI":"土庫里","LIN":"4鄰","STREET":"中正路","SECT":"三段","MAREA":" ","LANE":"５２３巷","ALLEY":" ","HOUSE_NO":"１２７號","E_COORD97":173364.17000000001,"N_COORD97":2543064.02,"ADDRESS":"中正路三段５２３巷１２７號","OBJECTID":439287},"geometry":{"x":173364.17000000086,"y":2543064.0199999977}},{"attributes":{"ID":439313,"DIS_CODE":0,"TOWNNAME":"仁德區","LI":"仁德里","LIN":"20鄰","STREET":"中山路","SECT":" ","MAREA":" ","LANE":"８７５巷","ALLEY":" ","HOUSE_NO":"３１號","E_COORD97":172402.89000000001,"N_COORD97":2541446,"ADDRESS":"中山路８７５巷３１號","OBJECTID":439288},"geometry":{"x":172402.8900000006,"y":2541446}},{"attributes":{"ID":439314,"DIS_CODE":0,"TOWNNAME":"仁德區","LI":"後壁里","LIN":"4鄰","STREET":"德善一街","SECT":" ","MAREA":" ","LANE":"２７巷","ALLEY":" ","HOUSE_NO":"１１號","E_COORD97":173391.73999999999,"N_COORD97":2538976.02,"ADDRESS":"德善一街２７巷１１號","OBJECTID":439289},"geometry":{"x":173391.74000000022,"y":2538976.0200000014}},{"attributes":{"ID":439315,"DIS_CODE":0,"TOWNNAME":"仁德區","LI":"土庫里","LIN":"4鄰","STREET":"中正路","SECT":"三段","MAREA":" ","LANE":"５２３巷","ALLEY":" ","HOUSE_NO":"６８號","E_COORD97":173774.67999999999,"N_COORD97":2543055.77,"ADDRESS":"中正路三段５２３巷６８號","OBJECTID":439290},"geometry":{"x":173774.6799999997,"y":2543055.7700000033}},{"attributes":{"ID":439316,"DIS_CODE":0,"TOWNNAME":"仁德區","LI":"仁德里","LIN":"18鄰","STREET":"文華路","SECT":"三段","MAREA":" ","LANE":"１８９巷","ALLEY":" ","HOUSE_NO":"５７號","E_COORD97":172096.45999999999,"N_COORD97":2540459.5,"ADDRESS":"文華路三段１８９巷５７號","OBJECTID":439291},"geometry":{"x":172096.45999999996,"y":2540459.5}},{"attributes":{"ID":439317,"DIS_CODE":0,"TOWNNAME":"白河區","LI":"永安里","LIN":"4鄰","STREET":"中正路","SECT":" ","MAREA":" ","LANE":"９１巷","ALLEY":" ","HOUSE_NO":"３號","E_COORD97":189985.54999999999,"N_COORD97":2583061.3700000001,"ADDRESS":"中正路９１巷３號","OBJECTID":439292},"geometry":{"x":189985.54999999981,"y":2583061.370000001}},{"attributes":{"ID":439318,"DIS_CODE":0,"TOWNNAME":"仁德區","LI":"仁德里","LIN":"20鄰","STREET":"中山路","SECT":" ","MAREA":" ","LANE":"８７５巷","ALLEY":" ","HOUSE_NO":"２１號","E_COORD97":172421.23000000001,"N_COORD97":2541495.7400000002,"ADDRESS":"中山路８７５巷２１號","OBJECTID":439293},"geometry":{"x":172421.23000000045,"y":2541495.7400000002}},{"attributes":{"ID":439319,"DIS_CODE":0,"TOWNNAME":"仁德區","LI":"太子里","LIN":"20鄰","STREET":"長興四街","SECT":" ","MAREA":" ","LANE":"６４巷","ALLEY":" ","HOUSE_NO":"１０號","E_COORD97":173949.89999999999,"N_COORD97":2543606.25,"ADDRESS":"長興四街６４巷１０號","OBJECTID":439294},"geometry":{"x":173949.9000000013,"y":2543606.2500000019}},{"attributes":{"ID":439320,"DIS_CODE":0,"TOWNNAME":"仁德區","LI":"後壁里","LIN":"42鄰","STREET":"德崙路","SECT":" ","MAREA":" ","LANE":"４８巷","ALLEY":" ","HOUSE_NO":"７號","E_COORD97":173304.26999999999,"N_COORD97":2538534.77,"ADDRESS":"德崙路４８巷７號","OBJECTID":439295},"geometry":{"x":173304.26999999955,"y":2538534.7699999996}},{"attributes":{"ID":439321,"DIS_CODE":0,"TOWNNAME":"仁德區","LI":"二行里","LIN":"4鄰","STREET":"二行一路","SECT":" ","MAREA":" ","LANE":"８３巷","ALLEY":" ","HOUSE_NO":"９號","E_COORD97":170367.79000000001,"N_COORD97":2535350,"ADDRESS":"二行一路８３巷９號","OBJECTID":439296},"geometry":{"x":170367.7900000019,"y":2535350}},{"attributes":{"ID":439322,"DIS_CODE":0,"TOWNNAME":"仁德區","LI":"成功里","LIN":"36鄰","STREET":"保華路","SECT":" ","MAREA":" ","LANE":"４６巷","ALLEY":" ","HOUSE_NO":"３９號","E_COORD97":170654.98000000001,"N_COORD97":2540085.7400000002,"ADDRESS":"保華路４６巷３９號","OBJECTID":439297},"geometry":{"x":170654.98000000231,"y":2540085.7400000002}},{"attributes":{"ID":439323,"DIS_CODE":0,"TOWNNAME":"仁德區","LI":"仁德里","LIN":"18鄰","STREET":"文華路","SECT":"三段","MAREA":" ","LANE":"１８９巷","ALLEY":" ","HOUSE_NO":"６６號","E_COORD97":172111.81,"N_COORD97":2540484.0699999998,"ADDRESS":"文華路三段１８９巷６６號","OBJECTID":439298},"geometry":{"x":172111.81000000052,"y":2540484.0700000003}},{"attributes":{"ID":439324,"DIS_CODE":0,"TOWNNAME":"仁德區","LI":"成功里","LIN":"20鄰","STREET":"保生路","SECT":" ","MAREA":" ","LANE":"６９巷","ALLEY":" ","HOUSE_NO":"２０號","E_COORD97":170680.85000000001,"N_COORD97":2539741.4900000002,"ADDRESS":"保生路６９巷２０號","OBJECTID":439299},"geometry":{"x":170680.85000000056,"y":2539741.4900000002}},{"attributes":{"ID":439325,"DIS_CODE":0,"TOWNNAME":"仁德區","LI":"太子里","LIN":"25鄰","STREET":"長興五街","SECT":" ","MAREA":" ","LANE":"１４巷","ALLEY":" ","HOUSE_NO":"１９號","E_COORD97":173642.01000000001,"N_COORD97":2543607.7599999998,"ADDRESS":"長興五街１４巷１９號","OBJECTID":439300},"geometry":{"x":173642.00999999978,"y":2543607.7599999998}},{"attributes":{"ID":439326,"DIS_CODE":0,"TOWNNAME":"仁德區","LI":"後壁里","LIN":"4鄰","STREET":"德善一街","SECT":" ","MAREA":" ","LANE":"２７巷","ALLEY":" ","HOUSE_NO":"２９號","E_COORD97":173343.42999999999,"N_COORD97":2539006.7599999998,"ADDRESS":"德善一街２７巷２９號","OBJECTID":439301},"geometry":{"x":173343.43000000063,"y":2539006.7599999998}},{"attributes":{"ID":439327,"DIS_CODE":0,"TOWNNAME":"仁德區","LI":"後壁里","LIN":"4鄰","STREET":"德善一街","SECT":" ","MAREA":" ","LANE":"５巷","ALLEY":" ","HOUSE_NO":"１９號之１","E_COORD97":173320.67000000001,"N_COORD97":2538972.7999999998,"ADDRESS":"德善一街５巷１９號之１","OBJECTID":439302},"geometry":{"x":173320.66999999993,"y":2538972.8000000026}},{"attributes":{"ID":439328,"DIS_CODE":0,"TOWNNAME":"仁德區","LI":"二行里","LIN":"4鄰","STREET":"二行一路","SECT":" ","MAREA":" ","LANE":"８３巷","ALLEY":" ","HOUSE_NO":"２５號","E_COORD97":170313.95999999999,"N_COORD97":2535360.25,"ADDRESS":"二行一路８３巷２５號","OBJECTID":439303},"geometry":{"x":170313.96000000183,"y":2535360.2500000037}},{"attributes":{"ID":439329,"DIS_CODE":0,"TOWNNAME":"仁德區","LI":"仁德里","LIN":"18鄰","STREET":"文華路","SECT":"三段","MAREA":" ","LANE":"１８９巷","ALLEY":" ","HOUSE_NO":"６７號","E_COORD97":172098.97,"N_COORD97":2540434.5099999998,"ADDRESS":"文華路三段１８９巷６７號","OBJECTID":439304},"geometry":{"x":172098.97000000067,"y":2540434.5100000016}},{"attributes":{"ID":439330,"DIS_CODE":0,"TOWNNAME":"仁德區","LI":"太子里","LIN":"25鄰","STREET":"長興五街","SECT":" ","MAREA":" ","LANE":"１４巷","ALLEY":" ","HOUSE_NO":"７號","E_COORD97":173612.25,"N_COORD97":2543603,"ADDRESS":"長興五街１４巷７號","OBJECTID":439305},"geometry":{"x":173612.25,"y":2543603}},{"attributes":{"ID":439331,"DIS_CODE":0,"TOWNNAME":"仁德區","LI":"二行里","LIN":"4鄰","STREET":"二行一路","SECT":" ","MAREA":" ","LANE":"８３巷","ALLEY":" ","HOUSE_NO":"１３號","E_COORD97":170355.59,"N_COORD97":2535352.75,"ADDRESS":"二行一路８３巷１３號","OBJECTID":439306},"geometry":{"x":170355.59000000078,"y":2535352.75}},{"attributes":{"ID":439332,"DIS_CODE":0,"TOWNNAME":"仁德區","LI":"新田里","LIN":"5鄰","STREET":"勝利二街","SECT":" ","MAREA":" ","LANE":"３９巷","ALLEY":" ","HOUSE_NO":"９號","E_COORD97":174904.57999999999,"N_COORD97":2539278.2599999998,"ADDRESS":"勝利二街３９巷９號","OBJECTID":439307},"geometry":{"x":174904.58000000101,"y":2539278.2599999998}},{"attributes":{"ID":439333,"DIS_CODE":0,"TOWNNAME":"仁德區","LI":"一甲里","LIN":"18鄰","STREET":"忠義路","SECT":" ","MAREA":" ","LANE":"２５１巷","ALLEY":" ","HOUSE_NO":"５之２號","E_COORD97":173852.76000000001,"N_COORD97":2541805.29,"ADDRESS":"忠義路２５１巷５之２號","OBJECTID":439308},"geometry":{"x":173852.75999999885,"y":2541805.290000001}},{"attributes":{"ID":439334,"DIS_CODE":0,"TOWNNAME":"仁德區","LI":"仁德里","LIN":"20鄰","STREET":"中山路","SECT":" ","MAREA":" ","LANE":"８７５巷","ALLEY":" ","HOUSE_NO":"２９號","E_COORD97":172419.54000000001,"N_COORD97":2541455,"ADDRESS":"中山路８７５巷２９號","OBJECTID":439309},"geometry":{"x":172419.54000000097,"y":2541455.0000000019}},{"attributes":{"ID":439335,"DIS_CODE":0,"TOWNNAME":"仁德區","LI":"太子里","LIN":"32鄰","STREET":"太子三街","SECT":" ","MAREA":" ","LANE":"２３巷","ALLEY":" ","HOUSE_NO":"３號","E_COORD97":174011.62,"N_COORD97":2543419.5099999998,"ADDRESS":"太子三街２３巷３號","OBJECTID":439310},"geometry":{"x":174011.62000000011,"y":2543419.5099999998}},{"attributes":{"ID":439336,"DIS_CODE":0,"TOWNNAME":"仁德區","LI":"一甲里","LIN":"4鄰","STREET":"中正路","SECT":"三段","MAREA":" ","LANE":"１６２巷","ALLEY":" ","HOUSE_NO":"１６號","E_COORD97":173480.84,"N_COORD97":2541723.3399999999,"ADDRESS":"中正路三段１６２巷１６號","OBJECTID":439311},"geometry":{"x":173480.83999999985,"y":2541723.3400000036}},{"attributes":{"ID":439337,"DIS_CODE":0,"TOWNNAME":"仁德區","LI":"二行里","LIN":"4鄰","STREET":"二行一路","SECT":" ","MAREA":" ","LANE":"８３巷","ALLEY":" ","HOUSE_NO":"４８號","E_COORD97":170290.13,"N_COORD97":2535375.9900000002,"ADDRESS":"二行一路８３巷４８號","OBJECTID":439312},"geometry":{"x":170290.12999999989,"y":2535375.9900000021}},{"attributes":{"ID":439338,"DIS_CODE":0,"TOWNNAME":"仁德區","LI":"二行里","LIN":"18鄰","STREET":"行大街","SECT":" ","MAREA":" ","LANE":"１７２巷","ALLEY":" ","HOUSE_NO":"５７號","E_COORD97":169787.07999999999,"N_COORD97":2535229.25,"ADDRESS":"行大街１７２巷５７號","OBJECTID":439313},"geometry":{"x":169787.08000000007,"y":2535229.2500000019}},{"attributes":{"ID":439339,"DIS_CODE":0,"TOWNNAME":"仁德區","LI":"上崙里","LIN":"20鄰","STREET":"上崙街","SECT":" ","MAREA":" ","LANE":"４１巷","ALLEY":" ","HOUSE_NO":"１１號","E_COORD97":173733.73000000001,"N_COORD97":2538067.7400000002,"ADDRESS":"上崙街４１巷１１號","OBJECTID":439314},"geometry":{"x":173733.73000000138,"y":2538067.7400000002}},{"attributes":{"ID":439340,"DIS_CODE":0,"TOWNNAME":"仁德區","LI":"一甲里","LIN":"4鄰","STREET":"中正路","SECT":"三段","MAREA":" ","LANE":"１６２巷","ALLEY":" ","HOUSE_NO":"４０號之２","E_COORD97":173553.94,"N_COORD97":2541740.25,"ADDRESS":"中正路三段１６２巷４０號之２","OBJECTID":439315},"geometry":{"x":173553.94000000227,"y":2541740.25}},{"attributes":{"ID":439341,"DIS_CODE":0,"TOWNNAME":"仁德區","LI":"一甲里","LIN":"13鄰","STREET":"中清路","SECT":" ","MAREA":" ","LANE":"２５５巷","ALLEY":" ","HOUSE_NO":"２０號","E_COORD97":173661.70999999999,"N_COORD97":2541788.5499999998,"ADDRESS":"中清路２５５巷２０號","OBJECTID":439316},"geometry":{"x":173661.70999999996,"y":2541788.5500000026}},{"attributes":{"ID":439342,"DIS_CODE":0,"TOWNNAME":"仁德區","LI":"一甲里","LIN":"4鄰","STREET":"中正路","SECT":"三段","MAREA":" ","LANE":"１６２巷","ALLEY":" ","HOUSE_NO":"４號","E_COORD97":173504.51999999999,"N_COORD97":2541758.7799999998,"ADDRESS":"中正路三段１６２巷４號","OBJECTID":439317},"geometry":{"x":173504.51999999955,"y":2541758.7799999993}},{"attributes":{"ID":439343,"DIS_CODE":0,"TOWNNAME":"仁德區","LI":"上崙里","LIN":"26鄰","STREET":"中正路","SECT":"一段","MAREA":" ","LANE":"７６６巷","ALLEY":" ","HOUSE_NO":"３２號","E_COORD97":172996.48000000001,"N_COORD97":2537728.2799999998,"ADDRESS":"中正路一段７６６巷３２號","OBJECTID":439318},"geometry":{"x":172996.48000000138,"y":2537728.2799999993}},{"attributes":{"ID":439344,"DIS_CODE":0,"TOWNNAME":"仁德區","LI":"上崙里","LIN":"24鄰","STREET":"中正路","SECT":"一段","MAREA":" ","LANE":"７６６巷","ALLEY":" ","HOUSE_NO":"５號","E_COORD97":172980.29000000001,"N_COORD97":2537858.77,"ADDRESS":"中正路一段７６６巷５號","OBJECTID":439319},"geometry":{"x":172980.29000000097,"y":2537858.7700000014}},{"attributes":{"ID":439345,"DIS_CODE":0,"TOWNNAME":"仁德區","LI":"一甲里","LIN":"17鄰","STREET":"忠義路","SECT":" ","MAREA":" ","LANE":"２５１巷","ALLEY":" ","HOUSE_NO":"７１號","E_COORD97":173830.04000000001,"N_COORD97":2541659.02,"ADDRESS":"忠義路２５１巷７１號","OBJECTID":439320},"geometry":{"x":173830.04000000097,"y":2541659.0199999996}},{"attributes":{"ID":439346,"DIS_CODE":0,"TOWNNAME":"仁德區","LI":"上崙里","LIN":"25鄰","STREET":"中正路","SECT":"一段","MAREA":" ","LANE":"７６６巷","ALLEY":" ","HOUSE_NO":"７９號","E_COORD97":173031.82000000001,"N_COORD97":2537648.7799999998,"ADDRESS":"中正路一段７６６巷７９號","OBJECTID":439321},"geometry":{"x":173031.8200000003,"y":2537648.7800000012}},{"attributes":{"ID":439347,"DIS_CODE":0,"TOWNNAME":"仁德區","LI":"上崙里","LIN":"26鄰","STREET":"中正路","SECT":"一段","MAREA":" ","LANE":"７１８巷","ALLEY":" ","HOUSE_NO":"１０號","E_COORD97":172957.64000000001,"N_COORD97":2537710.7799999998,"ADDRESS":"中正路一段７１８巷１０號","OBJECTID":439322},"geometry":{"x":172957.6400000006,"y":2537710.7799999993}},{"attributes":{"ID":439348,"DIS_CODE":0,"TOWNNAME":"仁德區","LI":"一甲里","LIN":"4鄰","STREET":"中正路","SECT":"三段","MAREA":" ","LANE":"１６２巷","ALLEY":" ","HOUSE_NO":"３４號","E_COORD97":173529.92999999999,"N_COORD97":2541746.9900000002,"ADDRESS":"中正路三段１６２巷３４號","OBJECTID":439323},"geometry":{"x":173529.93000000063,"y":2541746.9900000021}},{"attributes":{"ID":439349,"DIS_CODE":0,"TOWNNAME":"仁德區","LI":"上崙里","LIN":"4鄰","STREET":"德崙路","SECT":" ","MAREA":" ","LANE":"２９１巷","ALLEY":" ","HOUSE_NO":"７８號","E_COORD97":173864.63,"N_COORD97":2538293.2599999998,"ADDRESS":"德崙路２９１巷７８號","OBJECTID":439324},"geometry":{"x":173864.63000000082,"y":2538293.2600000016}},{"attributes":{"ID":439350,"DIS_CODE":0,"TOWNNAME":"仁德區","LI":"上崙里","LIN":"4鄰","STREET":"德崙路","SECT":" ","MAREA":" ","LANE":"２９１巷","ALLEY":" ","HOUSE_NO":"７４號","E_COORD97":173857.20000000001,"N_COORD97":2538298.0099999998,"ADDRESS":"德崙路２９１巷７４號","OBJECTID":439325},"geometry":{"x":173857.20000000205,"y":2538298.0100000016}},{"attributes":{"ID":439351,"DIS_CODE":0,"TOWNNAME":"仁德區","LI":"上崙里","LIN":"26鄰","STREET":"中正路","SECT":"一段","MAREA":" ","LANE":"７６６巷","ALLEY":" ","HOUSE_NO":"２８號","E_COORD97":172994.51999999999,"N_COORD97":2537736.2799999998,"ADDRESS":"中正路一段７６６巷２８號","OBJECTID":439326},"geometry":{"x":172994.51999999955,"y":2537736.2800000012}},{"attributes":{"ID":439352,"DIS_CODE":0,"TOWNNAME":"仁德區","LI":"上崙里","LIN":"26鄰","STREET":"中正路","SECT":"一段","MAREA":" ","LANE":"７１８巷","ALLEY":" ","HOUSE_NO":"２號","E_COORD97":172937.23000000001,"N_COORD97":2537707.5299999998,"ADDRESS":"中正路一段７１８巷２號","OBJECTID":439327},"geometry":{"x":172937.23000000138,"y":2537707.5300000012}},{"attributes":{"ID":439353,"DIS_CODE":0,"TOWNNAME":"仁德區","LI":"上崙里","LIN":"4鄰","STREET":"德崙路","SECT":" ","MAREA":" ","LANE":"２９７巷","ALLEY":" ","HOUSE_NO":"１號","E_COORD97":173875.51999999999,"N_COORD97":2538163.27,"ADDRESS":"德崙路２９７巷１號","OBJECTID":439328},"geometry":{"x":173875.51999999955,"y":2538163.2700000033}},{"attributes":{"ID":439354,"DIS_CODE":0,"TOWNNAME":"仁德區","LI":"上崙里","LIN":"8鄰","STREET":"德南路","SECT":" ","MAREA":" ","LANE":"３６７巷","ALLEY":" ","HOUSE_NO":"１０號","E_COORD97":173887.51000000001,"N_COORD97":2538356.77,"ADDRESS":"德南路３６７巷１０號","OBJECTID":439329},"geometry":{"x":173887.51000000071,"y":2538356.7700000033}},{"attributes":{"ID":439355,"DIS_CODE":0,"TOWNNAME":"仁德區","LI":"上崙里","LIN":"4鄰","STREET":"德崙路","SECT":" ","MAREA":" ","LANE":"２９１巷","ALLEY":" ","HOUSE_NO":"２５號","E_COORD97":173850.67999999999,"N_COORD97":2538212.2599999998,"ADDRESS":"德崙路２９１巷２５號","OBJECTID":439330},"geometry":{"x":173850.68000000063,"y":2538212.2600000016}},{"attributes":{"ID":439356,"DIS_CODE":0,"TOWNNAME":"仁德區","LI":"一甲里","LIN":"18鄰","STREET":"忠義路","SECT":" ","MAREA":" ","LANE":"２５１巷","ALLEY":" ","HOUSE_NO":"３０號","E_COORD97":173820.01999999999,"N_COORD97":2541763.4100000001,"ADDRESS":"忠義路２５１巷３０號","OBJECTID":439331},"geometry":{"x":173820.01999999955,"y":2541763.4099999983}},{"attributes":{"ID":439357,"DIS_CODE":0,"TOWNNAME":"仁德區","LI":"上崙里","LIN":"20鄰","STREET":"上崙街","SECT":" ","MAREA":" ","LANE":"１２１巷","ALLEY":" ","HOUSE_NO":"５號","E_COORD97":173634.51999999999,"N_COORD97":2537950.5,"ADDRESS":"上崙街１２１巷５號","OBJECTID":439332},"geometry":{"x":173634.52000000048,"y":2537950.5}},{"attributes":{"ID":439358,"DIS_CODE":0,"TOWNNAME":"仁德區","LI":"一甲里","LIN":"17鄰","STREET":"忠義路","SECT":" ","MAREA":" ","LANE":"２５１巷","ALLEY":" ","HOUSE_NO":"６０號","E_COORD97":173814.14000000001,"N_COORD97":2541678.4300000002,"ADDRESS":"忠義路２５１巷６０號","OBJECTID":439333},"geometry":{"x":173814.13999999966,"y":2541678.4300000034}},{"attributes":{"ID":439359,"DIS_CODE":0,"TOWNNAME":"仁德區","LI":"一甲里","LIN":"17鄰","STREET":"忠義路","SECT":" ","MAREA":" ","LANE":"２５１巷","ALLEY":" ","HOUSE_NO":"６８號","E_COORD97":173813.42999999999,"N_COORD97":2541662.6800000002,"ADDRESS":"忠義路２５１巷６８號","OBJECTID":439334},"geometry":{"x":173813.43000000063,"y":2541662.6799999997}},{"attributes":{"ID":439360,"DIS_CODE":0,"TOWNNAME":"仁德區","LI":"二行里","LIN":"4鄰","STREET":"二行一路","SECT":" ","MAREA":" ","LANE":"８３巷","ALLEY":" ","HOUSE_NO":"２８號","E_COORD97":170326.45999999999,"N_COORD97":2535368.75,"ADDRESS":"二行一路８３巷２８號","OBJECTID":439335},"geometry":{"x":170326.46000000089,"y":2535368.75}},{"attributes":{"ID":439361,"DIS_CODE":0,"TOWNNAME":"仁德區","LI":"上崙里","LIN":"4鄰","STREET":"德崙路","SECT":" ","MAREA":" ","LANE":"２９１巷","ALLEY":" ","HOUSE_NO":"７６號","E_COORD97":173861.01000000001,"N_COORD97":2538295.5099999998,"ADDRESS":"德崙路２９１巷７６號","OBJECTID":439336},"geometry":{"x":173861.00999999978,"y":2538295.5100000016}},{"attributes":{"ID":439362,"DIS_CODE":0,"TOWNNAME":"仁德區","LI":"一甲里","LIN":"18鄰","STREET":"忠義路","SECT":" ","MAREA":" ","LANE":"２５１巷","ALLEY":" ","HOUSE_NO":"１８號","E_COORD97":173821.85999999999,"N_COORD97":2541788.4100000001,"ADDRESS":"忠義路２５１巷１８號","OBJECTID":439337},"geometry":{"x":173821.86000000034,"y":2541788.410000002}},{"attributes":{"ID":439363,"DIS_CODE":0,"TOWNNAME":"仁德區","LI":"上崙里","LIN":"26鄰","STREET":"中正路","SECT":"一段","MAREA":" ","LANE":"７１８巷","ALLEY":" ","HOUSE_NO":"１２號","E_COORD97":172962.09,"N_COORD97":2537711.2799999998,"ADDRESS":"中正路一段７１８巷１２號","OBJECTID":439338},"geometry":{"x":172962.08999999985,"y":2537711.2799999993}},{"attributes":{"ID":439364,"DIS_CODE":0,"TOWNNAME":"仁德區","LI":"二行里","LIN":"14鄰","STREET":"中正西路","SECT":" ","MAREA":" ","LANE":"３５３巷","ALLEY":" ","HOUSE_NO":"２５號","E_COORD97":169827.04000000001,"N_COORD97":2535349,"ADDRESS":"中正西路３５３巷２５號","OBJECTID":439339},"geometry":{"x":169827.04000000097,"y":2535349.0000000019}},{"attributes":{"ID":439365,"DIS_CODE":0,"TOWNNAME":"仁德區","LI":"二行里","LIN":"14鄰","STREET":"中正西路","SECT":" ","MAREA":" ","LANE":"３５３巷","ALLEY":" ","HOUSE_NO":"４５號","E_COORD97":169870.82000000001,"N_COORD97":2535345.75,"ADDRESS":"中正西路３５３巷４５號","OBJECTID":439340},"geometry":{"x":169870.8200000003,"y":2535345.75}},{"attributes":{"ID":439366,"DIS_CODE":0,"TOWNNAME":"仁德區","LI":"二行里","LIN":"14鄰","STREET":"中正西路","SECT":" ","MAREA":" ","LANE":"３５３巷","ALLEY":" ","HOUSE_NO":"３１號","E_COORD97":169841.76999999999,"N_COORD97":2535348,"ADDRESS":"中正西路３５３巷３１號","OBJECTID":439341},"geometry":{"x":169841.77000000142,"y":2535347.9999999981}},{"attributes":{"ID":439367,"DIS_CODE":0,"TOWNNAME":"仁德區","LI":"一甲里","LIN":"17鄰","STREET":"忠義路","SECT":" ","MAREA":" ","LANE":"２５１巷","ALLEY":" ","HOUSE_NO":"６６號","E_COORD97":173813.31,"N_COORD97":2541666.9300000002,"ADDRESS":"忠義路２５１巷６６號","OBJECTID":439342},"geometry":{"x":173813.31000000145,"y":2541666.9299999997}},{"attributes":{"ID":439368,"DIS_CODE":0,"TOWNNAME":"仁德區","LI":"一甲里","LIN":"18鄰","STREET":"忠義路","SECT":" ","MAREA":" ","LANE":"２５１巷","ALLEY":" ","HOUSE_NO":"３２號","E_COORD97":173819.19,"N_COORD97":2541759.1600000001,"ADDRESS":"忠義路２５１巷３２號","OBJECTID":439343},"geometry":{"x":173819.19000000134,"y":2541759.160000002}},{"attributes":{"ID":439369,"DIS_CODE":0,"TOWNNAME":"仁德區","LI":"上崙里","LIN":"20鄰","STREET":"崑崙路","SECT":" ","MAREA":" ","LANE":"３５３巷","ALLEY":" ","HOUSE_NO":"２９號","E_COORD97":173746.04000000001,"N_COORD97":2537913.75,"ADDRESS":"崑崙路３５３巷２９號","OBJECTID":439344},"geometry":{"x":173746.03999999911,"y":2537913.7500000019}},{"attributes":{"ID":439370,"DIS_CODE":0,"TOWNNAME":"仁德區","LI":"二行里","LIN":"14鄰","STREET":"中正西路","SECT":" ","MAREA":" ","LANE":"３５３巷","ALLEY":" ","HOUSE_NO":"２２號","E_COORD97":169809.64000000001,"N_COORD97":2535336.75,"ADDRESS":"中正西路３５３巷２２號","OBJECTID":439345},"geometry":{"x":169809.6400000006,"y":2535336.7500000019}},{"attributes":{"ID":439371,"DIS_CODE":0,"TOWNNAME":"仁德區","LI":"一甲里","LIN":"18鄰","STREET":"忠義路","SECT":" ","MAREA":" ","LANE":"２５１巷","ALLEY":" ","HOUSE_NO":"２號","E_COORD97":173822.04000000001,"N_COORD97":2541821.8999999999,"ADDRESS":"忠義路２５１巷２號","OBJECTID":439346},"geometry":{"x":173822.04000000004,"y":2541821.9000000022}},{"attributes":{"ID":439372,"DIS_CODE":0,"TOWNNAME":"仁德區","LI":"一甲里","LIN":"18鄰","STREET":"忠義路","SECT":" ","MAREA":" ","LANE":"２５１巷","ALLEY":" ","HOUSE_NO":"３３號","E_COORD97":173834.81,"N_COORD97":2541745.77,"ADDRESS":"忠義路２５１巷３３號","OBJECTID":439347},"geometry":{"x":173834.80999999959,"y":2541745.7699999996}},{"attributes":{"ID":439373,"DIS_CODE":0,"TOWNNAME":"仁德區","LI":"上崙里","LIN":"4鄰","STREET":"德崙路","SECT":" ","MAREA":" ","LANE":"２９１巷","ALLEY":" ","HOUSE_NO":"４８號","E_COORD97":173870.5,"N_COORD97":2538249.77,"ADDRESS":"德崙路２９１巷４８號","OBJECTID":439348},"geometry":{"x":173870.50000000093,"y":2538249.7700000014}},{"attributes":{"ID":439374,"DIS_CODE":0,"TOWNNAME":"仁德區","LI":"一甲里","LIN":"18鄰","STREET":"忠義路","SECT":" ","MAREA":" ","LANE":"２５１巷","ALLEY":" ","HOUSE_NO":"３８號","E_COORD97":173818.16,"N_COORD97":2541746.6600000001,"ADDRESS":"忠義路２５１巷３８號","OBJECTID":439349},"geometry":{"x":173818.16000000015,"y":2541746.660000002}},{"attributes":{"ID":439375,"DIS_CODE":0,"TOWNNAME":"仁德區","LI":"上崙里","LIN":"26鄰","STREET":"中正路","SECT":"一段","MAREA":" ","LANE":"７６６巷","ALLEY":" ","HOUSE_NO":"３０號","E_COORD97":172995.42999999999,"N_COORD97":2537732.2799999998,"ADDRESS":"中正路一段７６６巷３０號","OBJECTID":439350},"geometry":{"x":172995.4299999997,"y":2537732.2799999975}},{"attributes":{"ID":439376,"DIS_CODE":0,"TOWNNAME":"仁德區","LI":"二行里","LIN":"14鄰","STREET":"中正西路","SECT":" ","MAREA":" ","LANE":"３５３巷","ALLEY":" ","HOUSE_NO":"７２號","E_COORD97":169873.51000000001,"N_COORD97":2535294.9900000002,"ADDRESS":"中正西路３５３巷７２號","OBJECTID":439351},"geometry":{"x":169873.50999999978,"y":2535294.9900000021}},{"attributes":{"ID":439377,"DIS_CODE":0,"TOWNNAME":"仁德區","LI":"一甲里","LIN":"17鄰","STREET":"忠義路","SECT":" ","MAREA":" ","LANE":"２５１巷","ALLEY":" ","HOUSE_NO":"５７號","E_COORD97":173832.07000000001,"N_COORD97":2541688.77,"ADDRESS":"忠義路２５１巷５７號","OBJECTID":439352},"geometry":{"x":173832.0700000003,"y":2541688.7699999996}},{"attributes":{"ID":439378,"DIS_CODE":0,"TOWNNAME":"仁德區","LI":"一甲里","LIN":"18鄰","STREET":"忠義路","SECT":" ","MAREA":" ","LANE":"２５１巷","ALLEY":" ","HOUSE_NO":"３５號","E_COORD97":173835.29000000001,"N_COORD97":2541741.2599999998,"ADDRESS":"忠義路２５１巷３５號","OBJECTID":439353},"geometry":{"x":173835.29000000004,"y":2541741.2600000016}},{"attributes":{"ID":439379,"DIS_CODE":0,"TOWNNAME":"仁德區","LI":"二行里","LIN":"14鄰","STREET":"中正西路","SECT":" ","MAREA":" ","LANE":"３５３巷","ALLEY":" ","HOUSE_NO":"５８號","E_COORD97":169892.45999999999,"N_COORD97":2535330.25,"ADDRESS":"中正西路３５３巷５８號","OBJECTID":439354},"geometry":{"x":169892.46000000089,"y":2535330.2500000019}},{"attributes":{"ID":439380,"DIS_CODE":0,"TOWNNAME":"仁德區","LI":"上崙里","LIN":"18鄰","STREET":"德崙路","SECT":" ","MAREA":" ","LANE":"３１６巷","ALLEY":" ","HOUSE_NO":"６１號","E_COORD97":173931.20000000001,"N_COORD97":2537980.2599999998,"ADDRESS":"德崙路３１６巷６１號","OBJECTID":439355},"geometry":{"x":173931.20000000019,"y":2537980.2599999998}},{"attributes":{"ID":439381,"DIS_CODE":0,"TOWNNAME":"仁德區","LI":"上崙里","LIN":"18鄰","STREET":"德崙路","SECT":" ","MAREA":" ","LANE":"３１６巷","ALLEY":" ","HOUSE_NO":"１５號","E_COORD97":173901.34,"N_COORD97":2538095.0099999998,"ADDRESS":"德崙路３１６巷１５號","OBJECTID":439356},"geometry":{"x":173901.33999999985,"y":2538095.0100000016}},{"attributes":{"ID":439382,"DIS_CODE":0,"TOWNNAME":"仁德區","LI":"二行里","LIN":"14鄰","STREET":"中正西路","SECT":" ","MAREA":" ","LANE":"３５３巷","ALLEY":" ","HOUSE_NO":"７６號","E_COORD97":169881.69,"N_COORD97":2535293.2400000002,"ADDRESS":"中正西路３５３巷７６號","OBJECTID":439357},"geometry":{"x":169881.69000000041,"y":2535293.2400000021}},{"attributes":{"ID":439383,"DIS_CODE":0,"TOWNNAME":"永康區","LI":"埔園里","LIN":" ","STREET":"自強路","SECT":" ","MAREA":" ","LANE":"４１７巷","ALLEY":" ","HOUSE_NO":"８號","E_COORD97":173771.32999999999,"N_COORD97":2548006,"ADDRESS":"自強路４１７巷８號","OBJECTID":439358},"geometry":{"x":173771.33000000194,"y":2548006.0000000019}},{"attributes":{"ID":439384,"DIS_CODE":0,"TOWNNAME":"仁德區","LI":"上崙里","LIN":"26鄰","STREET":"中正路","SECT":"一段","MAREA":" ","LANE":"７１８巷","ALLEY":" ","HOUSE_NO":"６號","E_COORD97":172946.73000000001,"N_COORD97":2537709.0299999998,"ADDRESS":"中正路一段７１８巷６號","OBJECTID":439359},"geometry":{"x":172946.73000000045,"y":2537709.0299999993}},{"attributes":{"ID":439385,"DIS_CODE":0,"TOWNNAME":"仁德區","LI":"一甲里","LIN":"14鄰","STREET":"忠義路","SECT":" ","MAREA":" ","LANE":"１９９巷","ALLEY":" ","HOUSE_NO":"２３號","E_COORD97":174051.67000000001,"N_COORD97":2541756.02,"ADDRESS":"忠義路１９９巷２３號","OBJECTID":439360},"geometry":{"x":174051.66999999993,"y":2541756.0200000014}},{"attributes":{"ID":439386,"DIS_CODE":0,"TOWNNAME":"仁德區","LI":"一甲里","LIN":"18鄰","STREET":"忠義路","SECT":" ","MAREA":" ","LANE":"２５１巷","ALLEY":" ","HOUSE_NO":"３１號","E_COORD97":173835.16,"N_COORD97":2541750.02,"ADDRESS":"忠義路２５１巷３１號","OBJECTID":439361},"geometry":{"x":173835.16000000015,"y":2541750.0200000014}},{"attributes":{"ID":439387,"DIS_CODE":0,"TOWNNAME":"仁德區","LI":"一甲里","LIN":"18鄰","STREET":"忠義路","SECT":" ","MAREA":" ","LANE":"２５１巷","ALLEY":" ","HOUSE_NO":"３６號","E_COORD97":173818.60000000001,"N_COORD97":2541750.9100000001,"ADDRESS":"忠義路２５１巷３６號","OBJECTID":439362},"geometry":{"x":173818.60000000056,"y":2541750.910000002}},{"attributes":{"ID":439388,"DIS_CODE":0,"TOWNNAME":"仁德區","LI":"二行里","LIN":"20鄰","STREET":"行大街","SECT":" ","MAREA":" ","LANE":"１７２巷","ALLEY":" ","HOUSE_NO":"１１號","E_COORD97":169887,"N_COORD97":2535159.25,"ADDRESS":"行大街１７２巷１１號","OBJECTID":439363},"geometry":{"x":169887.00000000093,"y":2535159.25}},{"attributes":{"ID":439389,"DIS_CODE":0,"TOWNNAME":"仁德區","LI":"二行里","LIN":"14鄰","STREET":"中正西路","SECT":" ","MAREA":" ","LANE":"３５３巷","ALLEY":" ","HOUSE_NO":"５２號","E_COORD97":169869.95000000001,"N_COORD97":2535333.5,"ADDRESS":"中正西路３５３巷５２號","OBJECTID":439364},"geometry":{"x":169869.94999999925,"y":2535333.5}},{"attributes":{"ID":439390,"DIS_CODE":0,"TOWNNAME":"仁德區","LI":"一甲里","LIN":"14鄰","STREET":"忠義路","SECT":" ","MAREA":" ","LANE":"２４１巷","ALLEY":" ","HOUSE_NO":"６號","E_COORD97":173885.67999999999,"N_COORD97":2541811.5099999998,"ADDRESS":"忠義路２４１巷６號","OBJECTID":439365},"geometry":{"x":173885.68000000156,"y":2541811.5100000016}},{"attributes":{"ID":439391,"DIS_CODE":0,"TOWNNAME":"仁德區","LI":"二行里","LIN":"14鄰","STREET":"中正西路","SECT":" ","MAREA":" ","LANE":"３５３巷","ALLEY":" ","HOUSE_NO":"３０號","E_COORD97":169826.69,"N_COORD97":2535335.5,"ADDRESS":"中正西路３５３巷３０號","OBJECTID":439366},"geometry":{"x":169826.69000000134,"y":2535335.5000000019}},{"attributes":{"ID":439392,"DIS_CODE":0,"TOWNNAME":"仁德區","LI":"一甲里","LIN":"14鄰","STREET":"忠義路","SECT":" ","MAREA":" ","LANE":"２４１巷","ALLEY":" ","HOUSE_NO":"２８號","E_COORD97":173887.79999999999,"N_COORD97":2541765.02,"ADDRESS":"忠義路２４１巷２８號","OBJECTID":439367},"geometry":{"x":173887.79999999981,"y":2541765.0199999996}},{"attributes":{"ID":439393,"DIS_CODE":0,"TOWNNAME":"仁德區","LI":"二行里","LIN":"14鄰","STREET":"中正西路","SECT":" ","MAREA":" ","LANE":"３５３巷","ALLEY":" ","HOUSE_NO":"３２之１號","E_COORD97":169838.32999999999,"N_COORD97":2535335.7999999998,"ADDRESS":"中正西路３５３巷３２之１號","OBJECTID":439368},"geometry":{"x":169838.33000000007,"y":2535335.8000000007}},{"attributes":{"ID":439394,"DIS_CODE":0,"TOWNNAME":"仁德區","LI":"上崙里","LIN":"18鄰","STREET":"德崙路","SECT":" ","MAREA":" ","LANE":"３１６巷","ALLEY":" ","HOUSE_NO":"６３號","E_COORD97":173949.75,"N_COORD97":2537976.7599999998,"ADDRESS":"德崙路３１６巷６３號","OBJECTID":439369},"geometry":{"x":173949.74999999907,"y":2537976.7599999998}},{"attributes":{"ID":439395,"DIS_CODE":0,"TOWNNAME":"仁德區","LI":"上崙里","LIN":"18鄰","STREET":"德崙路","SECT":" ","MAREA":" ","LANE":"３１６巷","ALLEY":" ","HOUSE_NO":"４７號","E_COORD97":173925.42999999999,"N_COORD97":2538020.02,"ADDRESS":"德崙路３１６巷４７號","OBJECTID":439370},"geometry":{"x":173925.4299999997,"y":2538020.0200000014}},{"attributes":{"ID":439396,"DIS_CODE":0,"TOWNNAME":"仁德區","LI":"二行里","LIN":"14鄰","STREET":"中正西路","SECT":" ","MAREA":" ","LANE":"３５３巷","ALLEY":" ","HOUSE_NO":"５４號","E_COORD97":169874.29000000001,"N_COORD97":2535333.25,"ADDRESS":"中正西路３５３巷５４號","OBJECTID":439371},"geometry":{"x":169874.2900000019,"y":2535333.2500000037}},{"attributes":{"ID":439397,"DIS_CODE":0,"TOWNNAME":"仁德區","LI":"二行里","LIN":"14鄰","STREET":"中正西路","SECT":" ","MAREA":" ","LANE":"３５３巷","ALLEY":" ","HOUSE_NO":"３５號","E_COORD97":169850.32000000001,"N_COORD97":2535347.25,"ADDRESS":"中正西路３５３巷３５號","OBJECTID":439372},"geometry":{"x":169850.3200000003,"y":2535347.2500000019}},{"attributes":{"ID":439398,"DIS_CODE":0,"TOWNNAME":"仁德區","LI":"一甲里","LIN":"18鄰","STREET":"忠義路","SECT":" ","MAREA":" ","LANE":"２５１巷","ALLEY":" ","HOUSE_NO":"２５號","E_COORD97":173837.64000000001,"N_COORD97":2541762.52,"ADDRESS":"忠義路２５１巷２５號","OBJECTID":439373},"geometry":{"x":173837.63999999966,"y":2541762.5200000033}},{"attributes":{"ID":439399,"DIS_CODE":0,"TOWNNAME":"仁德區","LI":"二行里","LIN":"20鄰","STREET":"行大街","SECT":" ","MAREA":" ","LANE":"１７２巷","ALLEY":" ","HOUSE_NO":"１７號","E_COORD97":169874.57000000001,"N_COORD97":2535138.25,"ADDRESS":"行大街１７２巷１７號","OBJECTID":439374},"geometry":{"x":169874.57000000123,"y":2535138.25}},{"attributes":{"ID":439400,"DIS_CODE":0,"TOWNNAME":"仁德區","LI":"二行里","LIN":"14鄰","STREET":"中正西路","SECT":" ","MAREA":" ","LANE":"３５３巷","ALLEY":" ","HOUSE_NO":"２１號","E_COORD97":169813.79000000001,"N_COORD97":2535350,"ADDRESS":"中正西路３５３巷２１號","OBJECTID":439375},"geometry":{"x":169813.79000000097,"y":2535350}},{"attributes":{"ID":439401,"DIS_CODE":0,"TOWNNAME":"仁德區","LI":"二行里","LIN":"14鄰","STREET":"中正西路","SECT":" ","MAREA":" ","LANE":"３５３巷","ALLEY":" ","HOUSE_NO":"３６號","E_COORD97":169840.26999999999,"N_COORD97":2535335,"ADDRESS":"中正西路３５３巷３６號","OBJECTID":439376},"geometry":{"x":169840.27000000048,"y":2535335.0000000019}},{"attributes":{"ID":439402,"DIS_CODE":0,"TOWNNAME":"仁德區","LI":"上崙里","LIN":"4鄰","STREET":"德崙路","SECT":" ","MAREA":" ","LANE":"２９１巷","ALLEY":" ","HOUSE_NO":"１３號","E_COORD97":173859.34,"N_COORD97":2538178.0099999998,"ADDRESS":"德崙路２９１巷１３號","OBJECTID":439377},"geometry":{"x":173859.34000000171,"y":2538178.0099999998}},{"attributes":{"ID":439403,"DIS_CODE":0,"TOWNNAME":"仁德區","LI":"二行里","LIN":"4鄰","STREET":"二行一路","SECT":" ","MAREA":" ","LANE":"８３巷","ALLEY":" ","HOUSE_NO":"４２號","E_COORD97":170298.70000000001,"N_COORD97":2535374.2400000002,"ADDRESS":"二行一路８３巷４２號","OBJECTID":439378},"geometry":{"x":170298.70000000019,"y":2535374.2400000039}},{"attributes":{"ID":439404,"DIS_CODE":0,"TOWNNAME":"仁德區","LI":"一甲里","LIN":"4鄰","STREET":"中正路","SECT":"三段","MAREA":" ","LANE":"１６２巷","ALLEY":" ","HOUSE_NO":"２０號","E_COORD97":173492.26999999999,"N_COORD97":2541720.0699999998,"ADDRESS":"中正路三段１６２巷２０號","OBJECTID":439379},"geometry":{"x":173492.27000000048,"y":2541720.0700000022}},{"attributes":{"ID":439405,"DIS_CODE":0,"TOWNNAME":"仁德區","LI":"一甲里","LIN":"17鄰","STREET":"中清路","SECT":" ","MAREA":" ","LANE":"２３２巷","ALLEY":" ","HOUSE_NO":"３號","E_COORD97":173773.19,"N_COORD97":2541708.04,"ADDRESS":"中清路２３２巷３號","OBJECTID":439380},"geometry":{"x":173773.19000000134,"y":2541708.040000001}},{"attributes":{"ID":439406,"DIS_CODE":0,"TOWNNAME":"西港區","LI":"慶安里","LIN":"25鄰","STREET":"慶安路","SECT":" ","MAREA":" ","LANE":"５９巷","ALLEY":" ","HOUSE_NO":"５號","E_COORD97":168286.44,"N_COORD97":2557859,"ADDRESS":"慶安路５９巷５號","OBJECTID":439381},"geometry":{"x":168286.44000000041,"y":2557859}},{"attributes":{"ID":439407,"DIS_CODE":0,"TOWNNAME":"仁德區","LI":"一甲里","LIN":"4鄰","STREET":"中正路","SECT":"三段","MAREA":" ","LANE":"１６２巷","ALLEY":" ","HOUSE_NO":"２８號","E_COORD97":173517.35000000001,"N_COORD97":2541751.4900000002,"ADDRESS":"中正路三段１６２巷２８號","OBJECTID":439382},"geometry":{"x":173517.34999999963,"y":2541751.4900000002}},{"attributes":{"ID":439408,"DIS_CODE":0,"TOWNNAME":"仁德區","LI":"一甲里","LIN":"4鄰","STREET":"中正路","SECT":"三段","MAREA":" ","LANE":"１６２巷","ALLEY":" ","HOUSE_NO":"１８號","E_COORD97":173485.95999999999,"N_COORD97":2541722.3399999999,"ADDRESS":"中正路三段１６２巷１８號","OBJECTID":439383},"geometry":{"x":173485.96000000089,"y":2541722.3399999999}},{"attributes":{"ID":439409,"DIS_CODE":0,"TOWNNAME":"仁德區","LI":"一甲里","LIN":"4鄰","STREET":"中正路","SECT":"三段","MAREA":" ","LANE":"１６２巷","ALLEY":" ","HOUSE_NO":"２２號","E_COORD97":173491.5,"N_COORD97":2541715.8199999998,"ADDRESS":"中正路三段１６２巷２２號","OBJECTID":439384},"geometry":{"x":173491.5,"y":2541715.8200000003}},{"attributes":{"ID":439410,"DIS_CODE":0,"TOWNNAME":"仁德區","LI":"上崙里","LIN":"25鄰","STREET":"中正路","SECT":"一段","MAREA":" ","LANE":"７６６巷","ALLEY":" ","HOUSE_NO":"７５號","E_COORD97":173032.03,"N_COORD97":2537664.02,"ADDRESS":"中正路一段７６６巷７５號","OBJECTID":439385},"geometry":{"x":173032.03000000026,"y":2537664.0200000014}},{"attributes":{"ID":439411,"DIS_CODE":0,"TOWNNAME":"仁德區","LI":"二行里","LIN":"8鄰","STREET":"行大一街","SECT":" ","MAREA":" ","LANE":"９９巷","ALLEY":" ","HOUSE_NO":"２號","E_COORD97":170131.69,"N_COORD97":2535041.75,"ADDRESS":"行大一街９９巷２號","OBJECTID":439386},"geometry":{"x":170131.69000000134,"y":2535041.7500000019}},{"attributes":{"ID":439412,"DIS_CODE":0,"TOWNNAME":"仁德區","LI":"一甲里","LIN":"4鄰","STREET":"中正路","SECT":"三段","MAREA":" ","LANE":"１６２巷","ALLEY":" ","HOUSE_NO":"１０號","E_COORD97":173483.72,"N_COORD97":2541730.3399999999,"ADDRESS":"中正路三段１６２巷１０號","OBJECTID":439387},"geometry":{"x":173483.72000000067,"y":2541730.3400000017}},{"attributes":{"ID":439413,"DIS_CODE":0,"TOWNNAME":"仁德區","LI":"二行里","LIN":"13鄰","STREET":"行大街","SECT":" ","MAREA":" ","LANE":"１７２巷","ALLEY":" ","HOUSE_NO":"５６號","E_COORD97":169866.87,"N_COORD97":2535204.9900000002,"ADDRESS":"行大街１７２巷５６號","OBJECTID":439388},"geometry":{"x":169866.87000000011,"y":2535204.9900000002}},{"attributes":{"ID":439414,"DIS_CODE":0,"TOWNNAME":"仁德區","LI":"一甲里","LIN":"4鄰","STREET":"中正路","SECT":"三段","MAREA":" ","LANE":"１６２巷","ALLEY":" ","HOUSE_NO":"３２號","E_COORD97":173525.72,"N_COORD97":2541748.4900000002,"ADDRESS":"中正路三段１６２巷３２號","OBJECTID":439389},"geometry":{"x":173525.71999999974,"y":2541748.4900000002}},{"attributes":{"ID":439415,"DIS_CODE":0,"TOWNNAME":"仁德區","LI":"上崙里","LIN":"7鄰","STREET":"德南路","SECT":" ","MAREA":" ","LANE":"３７３巷","ALLEY":" ","HOUSE_NO":"１９號","E_COORD97":173933.14999999999,"N_COORD97":2538333.52,"ADDRESS":"德南路３７３巷１９號","OBJECTID":439390},"geometry":{"x":173933.15000000037,"y":2538333.5199999996}},{"attributes":{"ID":439416,"DIS_CODE":0,"TOWNNAME":"仁德區","LI":"一甲里","LIN":"4鄰","STREET":"中正路","SECT":"三段","MAREA":" ","LANE":"１６２巷","ALLEY":" ","HOUSE_NO":"３６號","E_COORD97":173534.45999999999,"N_COORD97":2541745.9900000002,"ADDRESS":"中正路三段１６２巷３６號","OBJECTID":439391},"geometry":{"x":173534.45999999996,"y":2541745.9899999984}},{"attributes":{"ID":439417,"DIS_CODE":0,"TOWNNAME":"仁德區","LI":"上崙里","LIN":"26鄰","STREET":"中正路","SECT":"一段","MAREA":" ","LANE":"７１８巷","ALLEY":" ","HOUSE_NO":"４號","E_COORD97":172941.98999999999,"N_COORD97":2537708.2799999998,"ADDRESS":"中正路一段７１８巷４號","OBJECTID":439392},"geometry":{"x":172941.99000000115,"y":2537708.2799999993}},{"attributes":{"ID":439418,"DIS_CODE":0,"TOWNNAME":"仁德區","LI":"二行里","LIN":"4鄰","STREET":"二行一路","SECT":" ","MAREA":" ","LANE":"８３巷","ALLEY":" ","HOUSE_NO":"２９號","E_COORD97":170300.57000000001,"N_COORD97":2535363.25,"ADDRESS":"二行一路８３巷２９號","OBJECTID":439393},"geometry":{"x":170300.57000000123,"y":2535363.25}},{"attributes":{"ID":439419,"DIS_CODE":0,"TOWNNAME":"仁德區","LI":"上崙里","LIN":"4鄰","STREET":"德崙路","SECT":" ","MAREA":" ","LANE":"２９１巷","ALLEY":" ","HOUSE_NO":"２３號","E_COORD97":173837.04000000001,"N_COORD97":2538225.02,"ADDRESS":"德崙路２９１巷２３號","OBJECTID":439394},"geometry":{"x":173837.04000000004,"y":2538225.0199999996}},{"attributes":{"ID":439420,"DIS_CODE":0,"TOWNNAME":"新化區","LI":"東榮里","LIN":"14鄰","STREET":"中興路","SECT":" ","MAREA":" ","LANE":"５９５巷","ALLEY":" ","HOUSE_NO":"１３號","E_COORD97":179840.56,"N_COORD97":2547892.25,"ADDRESS":"中興路５９５巷１３號","OBJECTID":439395},"geometry":{"x":179840.56000000052,"y":2547892.2500000019}},{"attributes":{"ID":439421,"DIS_CODE":0,"TOWNNAME":"新化區","LI":"太平里","LIN":"4鄰","STREET":"中正路","SECT":" ","MAREA":" ","LANE":"５８４巷","ALLEY":" ","HOUSE_NO":"２５號","E_COORD97":178968.95999999999,"N_COORD97":2549087.25,"ADDRESS":"中正路５８４巷２５號","OBJECTID":439396},"geometry":{"x":178968.95999999996,"y":2549087.25}},{"attributes":{"ID":439422,"DIS_CODE":0,"TOWNNAME":"新化區","LI":"太平里","LIN":"4鄰","STREET":"民生路","SECT":" ","MAREA":" ","LANE":"１８６巷","ALLEY":" ","HOUSE_NO":"１５號","E_COORD97":179120.35999999999,"N_COORD97":2548978.25,"ADDRESS":"民生路１８６巷１５號","OBJECTID":439397},"geometry":{"x":179120.36000000127,"y":2548978.25}},{"attributes":{"ID":439423,"DIS_CODE":0,"TOWNNAME":"新化區","LI":"太平里","LIN":"4鄰","STREET":"中正路","SECT":" ","MAREA":" ","LANE":"５８０巷","ALLEY":" ","HOUSE_NO":"２號之２１","E_COORD97":178968.69,"N_COORD97":2548982.2599999998,"ADDRESS":"中正路５８０巷２號之２１","OBJECTID":439398},"geometry":{"x":178968.69000000134,"y":2548982.2600000035}},{"attributes":{"ID":439424,"DIS_CODE":0,"TOWNNAME":"新化區","LI":"太平里","LIN":"4鄰","STREET":"中正路","SECT":" ","MAREA":" ","LANE":"５８０巷","ALLEY":" ","HOUSE_NO":"２號之１１０","E_COORD97":179002.25,"N_COORD97":2549034.2599999998,"ADDRESS":"中正路５８０巷２號之１１０","OBJECTID":439399},"geometry":{"x":179002.25000000093,"y":2549034.2600000016}},{"attributes":{"ID":439425,"DIS_CODE":0,"TOWNNAME":"新化區","LI":"協興里","LIN":"13鄰","STREET":"太平街","SECT":" ","MAREA":" ","LANE":"１５０巷","ALLEY":" ","HOUSE_NO":"８５號","E_COORD97":178297.67000000001,"N_COORD97":2548819.25,"ADDRESS":"太平街１５０巷８５號","OBJECTID":439400},"geometry":{"x":178297.66999999993,"y":2548819.25}}]}