{"displayFieldName":"TOWNNAME","fieldAliases":{"ID":"ID","DIS_CODE":"DIS_CODE","TOWNNAME":"TOWNNAME","LI":"LI","LIN":"LIN","STREET":"STREET","SECT":"SECT","MAREA":"MAREA","LANE":"LANE","ALLEY":"ALLEY","HOUSE_NO":"HOUSE_NO","E_COORD97":"E_COORD97","N_COORD97":"N_COORD97","ADDRESS":"ADDRESS","OBJECTID":"OBJECTID"},"geometryType":"esriGeometryPoint","spatialReference":{"wkid":102443,"latestWkid":3826},"fields":[{"name":"ID","type":"esriFieldTypeDouble","alias":"ID"},{"name":"DIS_CODE","type":"esriFieldTypeInteger","alias":"DIS_CODE"},{"name":"TOWNNAME","type":"esriFieldTypeString","alias":"TOWNNAME","length":8},{"name":"LI","type":"esriFieldTypeString","alias":"LI","length":8},{"name":"LIN","type":"esriFieldTypeString","alias":"LIN","length":12},{"name":"STREET","type":"esriFieldTypeString","alias":"STREET","length":20},{"name":"SECT","type":"esriFieldTypeString","alias":"SECT","length":8},{"name":"MAREA","type":"esriFieldTypeString","alias":"MAREA","length":12},{"name":"LANE","type":"esriFieldTypeString","alias":"LANE","length":10},{"name":"ALLEY","type":"esriFieldTypeString","alias":"ALLEY","length":10},{"name":"HOUSE_NO","type":"esriFieldTypeString","alias":"HOUSE_NO","length":20},{"name":"E_COORD97","type":"esriFieldTypeDouble","alias":"E_COORD97"},{"name":"N_COORD97","type":"esriFieldTypeDouble","alias":"N_COORD97"},{"name":"ADDRESS","type":"esriFieldTypeString","alias":"ADDRESS","length":50},{"name":"OBJECTID","type":"esriFieldTypeOID","alias":"OBJECTID"}],"features":[{"attributes":{"ID":418826,"DIS_CODE":0,"TOWNNAME":"南區","LI":"金華里","LIN":"2鄰","STREET":"金華路","SECT":"二段","MAREA":" ","LANE":"５７巷","ALLEY":" ","HOUSE_NO":"３２號","E_COORD97":166980.57000000001,"N_COORD97":2542124.5299999998,"ADDRESS":"金華路二段５７巷３２號","OBJECTID":418801},"geometry":{"x":166980.5700000003,"y":2542124.5299999975}},{"attributes":{"ID":418827,"DIS_CODE":0,"TOWNNAME":"南區","LI":"金華里","LIN":"2鄰","STREET":"金華路","SECT":"二段","MAREA":" ","LANE":"５７巷","ALLEY":" ","HOUSE_NO":"３３號","E_COORD97":166973.51000000001,"N_COORD97":2542106.9900000002,"ADDRESS":"金華路二段５７巷３３號","OBJECTID":418802},"geometry":{"x":166973.50999999978,"y":2542106.9900000021}},{"attributes":{"ID":418828,"DIS_CODE":0,"TOWNNAME":"麻豆區","LI":"埤頭里","LIN":"17鄰","STREET":" ","SECT":" ","MAREA":"埤頭","LANE":" ","ALLEY":" ","HOUSE_NO":"１５２號之１","E_COORD97":171120.10683500001,"N_COORD97":2567242.8294899999,"ADDRESS":"埤頭１５２號之１","OBJECTID":418803},"geometry":{"x":171120.10683500115,"y":2567242.8294940013}},{"attributes":{"ID":418829,"DIS_CODE":0,"TOWNNAME":"南區","LI":"金華里","LIN":"2鄰","STREET":"金華路","SECT":"二段","MAREA":" ","LANE":"５７巷","ALLEY":" ","HOUSE_NO":"３４號","E_COORD97":166976.26000000001,"N_COORD97":2542124.9300000002,"ADDRESS":"金華路二段５７巷３４號","OBJECTID":418804},"geometry":{"x":166976.26000000071,"y":2542124.9299999997}},{"attributes":{"ID":418830,"DIS_CODE":0,"TOWNNAME":"南區","LI":"金華里","LIN":"2鄰","STREET":"金華路","SECT":"二段","MAREA":" ","LANE":"５７巷","ALLEY":" ","HOUSE_NO":"３５號","E_COORD97":166968.31,"N_COORD97":2542105.75,"ADDRESS":"金華路二段５７巷３５號","OBJECTID":418805},"geometry":{"x":166968.31000000145,"y":2542105.75}},{"attributes":{"ID":418831,"DIS_CODE":0,"TOWNNAME":"南區","LI":"金華里","LIN":"2鄰","STREET":"金華路","SECT":"二段","MAREA":" ","LANE":"５７巷","ALLEY":" ","HOUSE_NO":"３８號","E_COORD97":166964.88,"N_COORD97":2542126.4900000002,"ADDRESS":"金華路二段５７巷３８號","OBJECTID":418806},"geometry":{"x":166964.88000000082,"y":2542126.4900000021}},{"attributes":{"ID":418832,"DIS_CODE":0,"TOWNNAME":"南區","LI":"金華里","LIN":"2鄰","STREET":"金華路","SECT":"二段","MAREA":" ","LANE":"６３巷","ALLEY":" ","HOUSE_NO":"１號","E_COORD97":167057.67999999999,"N_COORD97":2542133.52,"ADDRESS":"金華路二段６３巷１號","OBJECTID":418807},"geometry":{"x":167057.68000000063,"y":2542133.5199999996}},{"attributes":{"ID":418833,"DIS_CODE":0,"TOWNNAME":"南區","LI":"金華里","LIN":"2鄰","STREET":"金華路","SECT":"二段","MAREA":" ","LANE":"６３巷","ALLEY":" ","HOUSE_NO":"３號","E_COORD97":167044.81,"N_COORD97":2542133.79,"ADDRESS":"金華路二段６３巷３號","OBJECTID":418808},"geometry":{"x":167044.81000000052,"y":2542133.790000001}},{"attributes":{"ID":418834,"DIS_CODE":0,"TOWNNAME":"南區","LI":"金華里","LIN":"2鄰","STREET":"金華路","SECT":"二段","MAREA":" ","LANE":"６３巷","ALLEY":" ","HOUSE_NO":"７號","E_COORD97":167022.81,"N_COORD97":2542134.8599999999,"ADDRESS":"金華路二段６３巷７號","OBJECTID":418809},"geometry":{"x":167022.81000000052,"y":2542134.8599999994}},{"attributes":{"ID":418835,"DIS_CODE":0,"TOWNNAME":"南區","LI":"金華里","LIN":"2鄰","STREET":"金華路","SECT":"二段","MAREA":" ","LANE":"６３巷","ALLEY":" ","HOUSE_NO":"１１號","E_COORD97":167002.53,"N_COORD97":2542135.5,"ADDRESS":"金華路二段６３巷１１號","OBJECTID":418810},"geometry":{"x":167002.53000000026,"y":2542135.5}},{"attributes":{"ID":418836,"DIS_CODE":0,"TOWNNAME":"南區","LI":"金華里","LIN":"2鄰","STREET":"金華路","SECT":"二段","MAREA":" ","LANE":"６３巷","ALLEY":" ","HOUSE_NO":"１３號","E_COORD97":166997,"N_COORD97":2542136.1800000002,"ADDRESS":"金華路二段６３巷１３號","OBJECTID":418811},"geometry":{"x":166997.00000000093,"y":2542136.1799999997}},{"attributes":{"ID":418837,"DIS_CODE":0,"TOWNNAME":"南區","LI":"金華里","LIN":"2鄰","STREET":"金華路","SECT":"二段","MAREA":" ","LANE":"６３巷","ALLEY":" ","HOUSE_NO":"１５號","E_COORD97":166992.73000000001,"N_COORD97":2542136.6699999999,"ADDRESS":"金華路二段６３巷１５號","OBJECTID":418812},"geometry":{"x":166992.73000000045,"y":2542136.6699999999}},{"attributes":{"ID":418838,"DIS_CODE":0,"TOWNNAME":"南區","LI":"金華里","LIN":"2鄰","STREET":"金華路","SECT":"二段","MAREA":" ","LANE":"６３巷","ALLEY":" ","HOUSE_NO":"１７號","E_COORD97":166986.84,"N_COORD97":2542137.46,"ADDRESS":"金華路二段６３巷１７號","OBJECTID":418813},"geometry":{"x":166986.83999999892,"y":2542137.4600000028}},{"attributes":{"ID":418839,"DIS_CODE":0,"TOWNNAME":"南區","LI":"金華里","LIN":"2鄰","STREET":"金華路","SECT":"二段","MAREA":" ","LANE":"６３巷","ALLEY":" ","HOUSE_NO":"１９號","E_COORD97":166980.95999999999,"N_COORD97":2542138.2400000002,"ADDRESS":"金華路二段６３巷１９號","OBJECTID":418814},"geometry":{"x":166980.95999999996,"y":2542138.2400000021}},{"attributes":{"ID":418840,"DIS_CODE":0,"TOWNNAME":"南區","LI":"金華里","LIN":"2鄰","STREET":"金華路","SECT":"二段","MAREA":" ","LANE":"６３巷","ALLEY":" ","HOUSE_NO":"２１號","E_COORD97":166976.64999999999,"N_COORD97":2542137.8500000001,"ADDRESS":"金華路二段６３巷２１號","OBJECTID":418815},"geometry":{"x":166976.65000000037,"y":2542137.8500000015}},{"attributes":{"ID":418841,"DIS_CODE":0,"TOWNNAME":"南區","LI":"金華里","LIN":"2鄰","STREET":"金華路","SECT":"二段","MAREA":" ","LANE":"６３巷","ALLEY":" ","HOUSE_NO":"２３號","E_COORD97":166971.94,"N_COORD97":2542139.4100000001,"ADDRESS":"金華路二段６３巷２３號","OBJECTID":418816},"geometry":{"x":166971.94000000134,"y":2542139.4100000001}},{"attributes":{"ID":418842,"DIS_CODE":0,"TOWNNAME":"南區","LI":"金華里","LIN":"2鄰","STREET":"金華路","SECT":"二段","MAREA":" ","LANE":"６３巷","ALLEY":" ","HOUSE_NO":"２５號","E_COORD97":166964.88,"N_COORD97":2542140.5899999999,"ADDRESS":"金華路二段６３巷２５號","OBJECTID":418817},"geometry":{"x":166964.88000000082,"y":2542140.5899999999}},{"attributes":{"ID":418843,"DIS_CODE":0,"TOWNNAME":"新化區","LI":"協興里","LIN":"2鄰","STREET":"忠孝路","SECT":" ","MAREA":" ","LANE":"１９０巷","ALLEY":" ","HOUSE_NO":"１２號之１２","E_COORD97":178481.98000000001,"N_COORD97":2548651.2599999998,"ADDRESS":"忠孝路１９０巷１２號之１２","OBJECTID":418818},"geometry":{"x":178481.98000000138,"y":2548651.2600000016}},{"attributes":{"ID":418844,"DIS_CODE":0,"TOWNNAME":"新化區","LI":"協興里","LIN":"2鄰","STREET":"忠孝路","SECT":" ","MAREA":" ","LANE":"１９０巷","ALLEY":" ","HOUSE_NO":"１２號之１３","E_COORD97":178486.76999999999,"N_COORD97":2548652.2599999998,"ADDRESS":"忠孝路１９０巷１２號之１３","OBJECTID":418819},"geometry":{"x":178486.76999999955,"y":2548652.2599999998}},{"attributes":{"ID":418845,"DIS_CODE":0,"TOWNNAME":"新化區","LI":"太平里","LIN":"2鄰","STREET":"太平街","SECT":" ","MAREA":" ","LANE":"１巷","ALLEY":" ","HOUSE_NO":"７號之２","E_COORD97":179088.78,"N_COORD97":2548792.2599999998,"ADDRESS":"太平街１巷７號之２","OBJECTID":418820},"geometry":{"x":179088.78000000119,"y":2548792.2599999979}},{"attributes":{"ID":418846,"DIS_CODE":0,"TOWNNAME":"新化區","LI":"東榮里","LIN":"2鄰","STREET":"中興路","SECT":" ","MAREA":" ","LANE":"１０４巷","ALLEY":" ","HOUSE_NO":"１２號","E_COORD97":181870.45999999999,"N_COORD97":2547357.25,"ADDRESS":"中興路１０４巷１２號","OBJECTID":418821},"geometry":{"x":181870.46000000089,"y":2547357.25}},{"attributes":{"ID":418847,"DIS_CODE":0,"TOWNNAME":"新化區","LI":"護國里","LIN":"2鄰","STREET":"中正路","SECT":" ","MAREA":" ","LANE":"４６０巷","ALLEY":" ","HOUSE_NO":"１０號之１","E_COORD97":179082.69,"N_COORD97":2548532.2599999998,"ADDRESS":"中正路４６０巷１０號之１","OBJECTID":418822},"geometry":{"x":179082.69000000134,"y":2548532.2600000016}},{"attributes":{"ID":418848,"DIS_CODE":0,"TOWNNAME":"新化區","LI":"東榮里","LIN":"2鄰","STREET":"中興路","SECT":" ","MAREA":" ","LANE":"１０４巷","ALLEY":" ","HOUSE_NO":"２０號","E_COORD97":181869.45999999999,"N_COORD97":2547377.25,"ADDRESS":"中興路１０４巷２０號","OBJECTID":418823},"geometry":{"x":181869.45999999996,"y":2547377.2500000019}},{"attributes":{"ID":418849,"DIS_CODE":0,"TOWNNAME":"新化區","LI":"太平里","LIN":"2鄰","STREET":"太平街","SECT":" ","MAREA":" ","LANE":"１巷","ALLEY":" ","HOUSE_NO":"７號之４","E_COORD97":179094.26000000001,"N_COORD97":2548791.2599999998,"ADDRESS":"太平街１巷７號之４","OBJECTID":418824},"geometry":{"x":179094.25999999978,"y":2548791.2599999998}},{"attributes":{"ID":418850,"DIS_CODE":0,"TOWNNAME":"東區","LI":"大福里","LIN":"2鄰","STREET":"立德二路","SECT":" ","MAREA":" ","LANE":"５４巷","ALLEY":" ","HOUSE_NO":"２７號","E_COORD97":169590.98999999999,"N_COORD97":2541677.2000000002,"ADDRESS":"立德二路５４巷２７號","OBJECTID":418825},"geometry":{"x":169590.99000000022,"y":2541677.2000000011}},{"attributes":{"ID":418851,"DIS_CODE":0,"TOWNNAME":"東區","LI":"大福里","LIN":"2鄰","STREET":"立德二路","SECT":" ","MAREA":" ","LANE":"５４巷","ALLEY":" ","HOUSE_NO":"２９號","E_COORD97":169585.48999999999,"N_COORD97":2541674.4500000002,"ADDRESS":"立德二路５４巷２９號","OBJECTID":418826},"geometry":{"x":169585.49000000115,"y":2541674.450000003}},{"attributes":{"ID":418852,"DIS_CODE":0,"TOWNNAME":"東區","LI":"大福里","LIN":"2鄰","STREET":"立德二路","SECT":" ","MAREA":" ","LANE":"５４巷","ALLEY":" ","HOUSE_NO":"３１號","E_COORD97":169578.62,"N_COORD97":2541673.0800000001,"ADDRESS":"立德二路５４巷３１號","OBJECTID":418827},"geometry":{"x":169578.62000000011,"y":2541673.0800000001}},{"attributes":{"ID":418853,"DIS_CODE":0,"TOWNNAME":"東區","LI":"大福里","LIN":"2鄰","STREET":"立德二路","SECT":" ","MAREA":" ","LANE":"５４巷","ALLEY":" ","HOUSE_NO":"３３號","E_COORD97":169572.03,"N_COORD97":2541671.71,"ADDRESS":"立德二路５４巷３３號","OBJECTID":418828},"geometry":{"x":169572.03000000119,"y":2541671.7100000028}},{"attributes":{"ID":418854,"DIS_CODE":0,"TOWNNAME":"東區","LI":"大福里","LIN":"2鄰","STREET":"立德二路","SECT":" ","MAREA":" ","LANE":"５４巷","ALLEY":" ","HOUSE_NO":"３５號","E_COORD97":169583.29000000001,"N_COORD97":2541657.1600000001,"ADDRESS":"立德二路５４巷３５號","OBJECTID":418829},"geometry":{"x":169583.29000000097,"y":2541657.160000002}},{"attributes":{"ID":418855,"DIS_CODE":0,"TOWNNAME":"東區","LI":"大福里","LIN":"2鄰","STREET":"立德二路","SECT":" ","MAREA":" ","LANE":"５４巷","ALLEY":" ","HOUSE_NO":"３７號","E_COORD97":169587.41,"N_COORD97":2541657.1600000001,"ADDRESS":"立德二路５４巷３７號","OBJECTID":418830},"geometry":{"x":169587.41000000108,"y":2541657.160000002}},{"attributes":{"ID":418856,"DIS_CODE":0,"TOWNNAME":"東區","LI":"大福里","LIN":"2鄰","STREET":"立德二路","SECT":" ","MAREA":" ","LANE":"５４巷","ALLEY":" ","HOUSE_NO":"３９號","E_COORD97":169590.16,"N_COORD97":2541658.54,"ADDRESS":"立德二路５４巷３９號","OBJECTID":418831},"geometry":{"x":169590.16000000015,"y":2541658.5399999991}},{"attributes":{"ID":418857,"DIS_CODE":0,"TOWNNAME":"東區","LI":"大福里","LIN":"2鄰","STREET":"立德二路","SECT":" ","MAREA":" ","LANE":"５４巷","ALLEY":" ","HOUSE_NO":"４１號","E_COORD97":169595.66,"N_COORD97":2541658.8100000001,"ADDRESS":"立德二路５４巷４１號","OBJECTID":418832},"geometry":{"x":169595.66000000201,"y":2541658.8100000005}},{"attributes":{"ID":418858,"DIS_CODE":0,"TOWNNAME":"東區","LI":"仁和里","LIN":"2鄰","STREET":"仁和路","SECT":" ","MAREA":" ","LANE":"１０７巷","ALLEY":" ","HOUSE_NO":"４７號","E_COORD97":171479.79999999999,"N_COORD97":2541368.6499999999,"ADDRESS":"仁和路１０７巷４７號","OBJECTID":418833},"geometry":{"x":171479.80000000075,"y":2541368.6500000004}},{"attributes":{"ID":418859,"DIS_CODE":0,"TOWNNAME":"東區","LI":"仁和里","LIN":"2鄰","STREET":"仁和路","SECT":" ","MAREA":" ","LANE":"１０７巷","ALLEY":" ","HOUSE_NO":"４９號","E_COORD97":171485.10000000001,"N_COORD97":2541370.1299999999,"ADDRESS":"仁和路１０７巷４９號","OBJECTID":418834},"geometry":{"x":171485.09999999963,"y":2541370.129999999}},{"attributes":{"ID":418860,"DIS_CODE":0,"TOWNNAME":"南區","LI":"喜北里","LIN":"2鄰","STREET":"喜樹路","SECT":" ","MAREA":" ","LANE":"４０巷","ALLEY":" ","HOUSE_NO":"７號","E_COORD97":165834.97,"N_COORD97":2538580.8700000001,"ADDRESS":"喜樹路４０巷７號","OBJECTID":418835},"geometry":{"x":165834.9700000016,"y":2538580.870000001}},{"attributes":{"ID":418861,"DIS_CODE":0,"TOWNNAME":"東區","LI":"仁和里","LIN":"2鄰","STREET":"仁和路","SECT":" ","MAREA":" ","LANE":"１０７巷","ALLEY":" ","HOUSE_NO":"５１號","E_COORD97":171490.20000000001,"N_COORD97":2541368.6499999999,"ADDRESS":"仁和路１０７巷５１號","OBJECTID":418836},"geometry":{"x":171490.20000000019,"y":2541368.6500000004}},{"attributes":{"ID":418862,"DIS_CODE":0,"TOWNNAME":"東區","LI":"仁和里","LIN":"2鄰","STREET":"仁和路","SECT":" ","MAREA":" ","LANE":"１０７巷","ALLEY":" ","HOUSE_NO":"５３號","E_COORD97":171495.29000000001,"N_COORD97":2541370.1299999999,"ADDRESS":"仁和路１０７巷５３號","OBJECTID":418837},"geometry":{"x":171495.29000000097,"y":2541370.129999999}},{"attributes":{"ID":418863,"DIS_CODE":0,"TOWNNAME":"東區","LI":"仁和里","LIN":"2鄰","STREET":"仁和路","SECT":" ","MAREA":" ","LANE":"１０７巷","ALLEY":" ","HOUSE_NO":"５５號","E_COORD97":171500.39000000001,"N_COORD97":2541368.0099999998,"ADDRESS":"仁和路１０７巷５５號","OBJECTID":418838},"geometry":{"x":171500.38999999966,"y":2541368.0099999998}},{"attributes":{"ID":418864,"DIS_CODE":0,"TOWNNAME":"東區","LI":"仁和里","LIN":"2鄰","STREET":"仁和路","SECT":" ","MAREA":" ","LANE":"１０７巷","ALLEY":" ","HOUSE_NO":"５７號","E_COORD97":171506.12,"N_COORD97":2541368.6499999999,"ADDRESS":"仁和路１０７巷５７號","OBJECTID":418839},"geometry":{"x":171506.12000000011,"y":2541368.6500000004}},{"attributes":{"ID":418865,"DIS_CODE":0,"TOWNNAME":"東區","LI":"仁和里","LIN":"2鄰","STREET":"仁和路","SECT":" ","MAREA":" ","LANE":"１０７巷","ALLEY":" ","HOUSE_NO":"５９號","E_COORD97":171510.35999999999,"N_COORD97":2541366.5299999998,"ADDRESS":"仁和路１０７巷５９號","OBJECTID":418840},"geometry":{"x":171510.36000000127,"y":2541366.5300000012}},{"attributes":{"ID":418866,"DIS_CODE":0,"TOWNNAME":"東區","LI":"仁和里","LIN":"2鄰","STREET":"仁和路","SECT":" ","MAREA":" ","LANE":"１０７巷","ALLEY":" ","HOUSE_NO":"６１號","E_COORD97":171514.82000000001,"N_COORD97":2541367.1600000001,"ADDRESS":"仁和路１０７巷６１號","OBJECTID":418841},"geometry":{"x":171514.8200000003,"y":2541367.1600000001}},{"attributes":{"ID":418867,"DIS_CODE":0,"TOWNNAME":"東區","LI":"仁和里","LIN":"2鄰","STREET":"仁和路","SECT":" ","MAREA":" ","LANE":"１０７巷","ALLEY":" ","HOUSE_NO":"６３號","E_COORD97":171520.54999999999,"N_COORD97":2541366.5299999998,"ADDRESS":"仁和路１０７巷６３號","OBJECTID":418842},"geometry":{"x":171520.55000000075,"y":2541366.5300000012}},{"attributes":{"ID":418868,"DIS_CODE":0,"TOWNNAME":"東區","LI":"仁和里","LIN":"2鄰","STREET":"仁和路","SECT":" ","MAREA":" ","LANE":"１０７巷","ALLEY":" ","HOUSE_NO":"６５號","E_COORD97":171525.42999999999,"N_COORD97":2541365.6800000002,"ADDRESS":"仁和路１０７巷６５號","OBJECTID":418843},"geometry":{"x":171525.4299999997,"y":2541365.6800000016}},{"attributes":{"ID":418869,"DIS_CODE":0,"TOWNNAME":"東區","LI":"仁和里","LIN":"2鄰","STREET":"仁和路","SECT":" ","MAREA":" ","LANE":"１０７巷","ALLEY":" ","HOUSE_NO":"４８號","E_COORD97":171480.64999999999,"N_COORD97":2541352.96,"ADDRESS":"仁和路１０７巷４８號","OBJECTID":418844},"geometry":{"x":171480.65000000037,"y":2541352.9600000009}},{"attributes":{"ID":418870,"DIS_CODE":0,"TOWNNAME":"東區","LI":"仁和里","LIN":"2鄰","STREET":"仁和路","SECT":" ","MAREA":" ","LANE":"１０７巷","ALLEY":" ","HOUSE_NO":"５０號","E_COORD97":171485.53,"N_COORD97":2541351.6899999999,"ADDRESS":"仁和路１０７巷５０號","OBJECTID":418845},"geometry":{"x":171485.53000000119,"y":2541351.6900000013}},{"attributes":{"ID":418871,"DIS_CODE":0,"TOWNNAME":"東區","LI":"仁和里","LIN":"2鄰","STREET":"仁和路","SECT":" ","MAREA":" ","LANE":"１０７巷","ALLEY":" ","HOUSE_NO":"５２號","E_COORD97":171490.62,"N_COORD97":2541351.4700000002,"ADDRESS":"仁和路１０７巷５２號","OBJECTID":418846},"geometry":{"x":171490.62000000011,"y":2541351.4700000025}},{"attributes":{"ID":418872,"DIS_CODE":0,"TOWNNAME":"東區","LI":"仁和里","LIN":"2鄰","STREET":"仁和路","SECT":" ","MAREA":" ","LANE":"１０７巷","ALLEY":" ","HOUSE_NO":"５４號","E_COORD97":171495.07999999999,"N_COORD97":2541352.75,"ADDRESS":"仁和路１０７巷５４號","OBJECTID":418847},"geometry":{"x":171495.08000000101,"y":2541352.75}},{"attributes":{"ID":418873,"DIS_CODE":0,"TOWNNAME":"東區","LI":"仁和里","LIN":"2鄰","STREET":"仁和路","SECT":" ","MAREA":" ","LANE":"１０７巷","ALLEY":" ","HOUSE_NO":"５６號","E_COORD97":171500.38,"N_COORD97":2541350.2000000002,"ADDRESS":"仁和路１０７巷５６號","OBJECTID":418848},"geometry":{"x":171500.37999999989,"y":2541350.1999999993}},{"attributes":{"ID":418874,"DIS_CODE":0,"TOWNNAME":"東區","LI":"仁和里","LIN":"2鄰","STREET":"仁和路","SECT":" ","MAREA":" ","LANE":"１０７巷","ALLEY":" ","HOUSE_NO":"５８號","E_COORD97":171505.48000000001,"N_COORD97":2541350.6299999999,"ADDRESS":"仁和路１０７巷５８號","OBJECTID":418849},"geometry":{"x":171505.48000000045,"y":2541350.6300000027}},{"attributes":{"ID":418875,"DIS_CODE":0,"TOWNNAME":"東區","LI":"仁和里","LIN":"2鄰","STREET":"仁和路","SECT":" ","MAREA":" ","LANE":"１０７巷","ALLEY":" ","HOUSE_NO":"６０號","E_COORD97":171510.35999999999,"N_COORD97":2541349.7799999998,"ADDRESS":"仁和路１０７巷６０號","OBJECTID":418850},"geometry":{"x":171510.36000000127,"y":2541349.7799999975}},{"attributes":{"ID":418876,"DIS_CODE":0,"TOWNNAME":"東區","LI":"仁和里","LIN":"2鄰","STREET":"仁和路","SECT":" ","MAREA":" ","LANE":"１０７巷","ALLEY":" ","HOUSE_NO":"６２號","E_COORD97":171515.67000000001,"N_COORD97":2541349.1400000001,"ADDRESS":"仁和路１０７巷６２號","OBJECTID":418851},"geometry":{"x":171515.66999999993,"y":2541349.1400000043}},{"attributes":{"ID":418877,"DIS_CODE":0,"TOWNNAME":"東區","LI":"仁和里","LIN":"2鄰","STREET":"仁和路","SECT":" ","MAREA":" ","LANE":"１０７巷","ALLEY":" ","HOUSE_NO":"６４號","E_COORD97":171520.76000000001,"N_COORD97":2541349.9900000002,"ADDRESS":"仁和路１０７巷６４號","OBJECTID":418852},"geometry":{"x":171520.76000000071,"y":2541349.9900000021}},{"attributes":{"ID":418878,"DIS_CODE":0,"TOWNNAME":"東區","LI":"仁和里","LIN":"2鄰","STREET":"仁和路","SECT":" ","MAREA":" ","LANE":"１０７巷","ALLEY":" ","HOUSE_NO":"６６號","E_COORD97":171525.64000000001,"N_COORD97":2541347.8700000001,"ADDRESS":"仁和路１０７巷６６號","OBJECTID":418853},"geometry":{"x":171525.63999999966,"y":2541347.8700000048}},{"attributes":{"ID":418879,"DIS_CODE":0,"TOWNNAME":"東區","LI":"仁和里","LIN":"2鄰","STREET":"仁和路","SECT":" ","MAREA":" ","LANE":"１０７巷","ALLEY":" ","HOUSE_NO":"６７號","E_COORD97":171538.01999999999,"N_COORD97":2541362.0099999998,"ADDRESS":"仁和路１０７巷６７號","OBJECTID":418854},"geometry":{"x":171538.01999999955,"y":2541362.0099999998}},{"attributes":{"ID":418880,"DIS_CODE":0,"TOWNNAME":"東區","LI":"仁和里","LIN":"2鄰","STREET":"仁和路","SECT":" ","MAREA":" ","LANE":"１０７巷","ALLEY":" ","HOUSE_NO":"６９號","E_COORD97":171543.67999999999,"N_COORD97":2541363.0099999998,"ADDRESS":"仁和路１０７巷６９號","OBJECTID":418855},"geometry":{"x":171543.6799999997,"y":2541363.0100000016}},{"attributes":{"ID":418881,"DIS_CODE":0,"TOWNNAME":"東區","LI":"仁和里","LIN":"2鄰","STREET":"仁和路","SECT":" ","MAREA":" ","LANE":"１０７巷","ALLEY":" ","HOUSE_NO":"７１號","E_COORD97":171548.67999999999,"N_COORD97":2541363.0099999998,"ADDRESS":"仁和路１０７巷７１號","OBJECTID":418856},"geometry":{"x":171548.68000000063,"y":2541363.0100000016}},{"attributes":{"ID":418882,"DIS_CODE":0,"TOWNNAME":"東區","LI":"仁和里","LIN":"2鄰","STREET":"仁和路","SECT":" ","MAREA":" ","LANE":"１０７巷","ALLEY":" ","HOUSE_NO":"７３號","E_COORD97":171554.01000000001,"N_COORD97":2541363.3399999999,"ADDRESS":"仁和路１０７巷７３號","OBJECTID":418857},"geometry":{"x":171554.00999999978,"y":2541363.3399999999}},{"attributes":{"ID":418883,"DIS_CODE":0,"TOWNNAME":"東區","LI":"仁和里","LIN":"2鄰","STREET":"仁和路","SECT":" ","MAREA":" ","LANE":"１０７巷","ALLEY":" ","HOUSE_NO":"７５號","E_COORD97":171558.67999999999,"N_COORD97":2541361.3500000001,"ADDRESS":"仁和路１０７巷７５號","OBJECTID":418858},"geometry":{"x":171558.68000000063,"y":2541361.3500000015}},{"attributes":{"ID":418884,"DIS_CODE":0,"TOWNNAME":"東區","LI":"仁和里","LIN":"2鄰","STREET":"仁和路","SECT":" ","MAREA":" ","LANE":"１０７巷","ALLEY":" ","HOUSE_NO":"７７號","E_COORD97":171563.67000000001,"N_COORD97":2541361.0099999998,"ADDRESS":"仁和路１０７巷７７號","OBJECTID":418859},"geometry":{"x":171563.67000000086,"y":2541361.0099999998}},{"attributes":{"ID":418885,"DIS_CODE":0,"TOWNNAME":"東區","LI":"仁和里","LIN":"2鄰","STREET":"仁和路","SECT":" ","MAREA":" ","LANE":"１０７巷","ALLEY":" ","HOUSE_NO":"７９號","E_COORD97":171568.67000000001,"N_COORD97":2541361.3500000001,"ADDRESS":"仁和路１０７巷７９號","OBJECTID":418860},"geometry":{"x":171568.67000000179,"y":2541361.3500000015}},{"attributes":{"ID":418886,"DIS_CODE":0,"TOWNNAME":"東區","LI":"仁和里","LIN":"2鄰","STREET":"仁和路","SECT":" ","MAREA":" ","LANE":"１０７巷","ALLEY":" ","HOUSE_NO":"８１號","E_COORD97":171573.67000000001,"N_COORD97":2541360.6800000002,"ADDRESS":"仁和路１０７巷８１號","OBJECTID":418861},"geometry":{"x":171573.67000000179,"y":2541360.6799999997}},{"attributes":{"ID":418887,"DIS_CODE":0,"TOWNNAME":"東區","LI":"仁和里","LIN":"2鄰","STREET":"仁和路","SECT":" ","MAREA":" ","LANE":"１０７巷","ALLEY":" ","HOUSE_NO":"８３號","E_COORD97":171579.66,"N_COORD97":2541360.6800000002,"ADDRESS":"仁和路１０７巷８３號","OBJECTID":418862},"geometry":{"x":171579.66000000108,"y":2541360.6799999997}},{"attributes":{"ID":418888,"DIS_CODE":0,"TOWNNAME":"東區","LI":"仁和里","LIN":"2鄰","STREET":"仁和路","SECT":" ","MAREA":" ","LANE":"１０７巷","ALLEY":" ","HOUSE_NO":"８５號","E_COORD97":171583.98999999999,"N_COORD97":2541359.02,"ADDRESS":"仁和路１０７巷８５號","OBJECTID":418863},"geometry":{"x":171583.99000000115,"y":2541359.0200000033}},{"attributes":{"ID":418889,"DIS_CODE":0,"TOWNNAME":"東區","LI":"仁和里","LIN":"2鄰","STREET":"仁和路","SECT":" ","MAREA":" ","LANE":"１０７巷","ALLEY":" ","HOUSE_NO":"８７號","E_COORD97":171588.66,"N_COORD97":2541358.3500000001,"ADDRESS":"仁和路１０７巷８７號","OBJECTID":418864},"geometry":{"x":171588.66000000015,"y":2541358.3499999996}},{"attributes":{"ID":418890,"DIS_CODE":0,"TOWNNAME":"東區","LI":"仁和里","LIN":"2鄰","STREET":"仁和路","SECT":" ","MAREA":" ","LANE":"１０７巷","ALLEY":" ","HOUSE_NO":"６８號","E_COORD97":171538.69,"N_COORD97":2541346.3700000001,"ADDRESS":"仁和路１０７巷６８號","OBJECTID":418865},"geometry":{"x":171538.69000000134,"y":2541346.370000001}},{"attributes":{"ID":418891,"DIS_CODE":0,"TOWNNAME":"東區","LI":"仁和里","LIN":"2鄰","STREET":"仁和路","SECT":" ","MAREA":" ","LANE":"１０７巷","ALLEY":" ","HOUSE_NO":"７０號","E_COORD97":171544.01999999999,"N_COORD97":2541345.04,"ADDRESS":"仁和路１０７巷７０號","OBJECTID":418866},"geometry":{"x":171544.02000000048,"y":2541345.040000001}},{"attributes":{"ID":418892,"DIS_CODE":0,"TOWNNAME":"東區","LI":"仁和里","LIN":"2鄰","STREET":"仁和路","SECT":" ","MAREA":" ","LANE":"１０７巷","ALLEY":" ","HOUSE_NO":"７２號","E_COORD97":171549.67999999999,"N_COORD97":2541346.04,"ADDRESS":"仁和路１０７巷７２號","OBJECTID":418867},"geometry":{"x":171549.68000000156,"y":2541346.040000001}},{"attributes":{"ID":418893,"DIS_CODE":0,"TOWNNAME":"東區","LI":"仁和里","LIN":"2鄰","STREET":"仁和路","SECT":" ","MAREA":" ","LANE":"１０７巷","ALLEY":" ","HOUSE_NO":"７４號","E_COORD97":171554.34,"N_COORD97":2541344.3700000001,"ADDRESS":"仁和路１０７巷７４號","OBJECTID":418868},"geometry":{"x":171554.34000000078,"y":2541344.3700000048}},{"attributes":{"ID":418894,"DIS_CODE":0,"TOWNNAME":"東區","LI":"仁和里","LIN":"2鄰","STREET":"仁和路","SECT":" ","MAREA":" ","LANE":"１０７巷","ALLEY":" ","HOUSE_NO":"７６號","E_COORD97":171559.01000000001,"N_COORD97":2541343.71,"ADDRESS":"仁和路１０７巷７６號","OBJECTID":418869},"geometry":{"x":171559.00999999978,"y":2541343.7100000009}},{"attributes":{"ID":418895,"DIS_CODE":0,"TOWNNAME":"東區","LI":"仁和里","LIN":"2鄰","STREET":"仁和路","SECT":" ","MAREA":" ","LANE":"１０７巷","ALLEY":" ","HOUSE_NO":"７８號","E_COORD97":171564.01000000001,"N_COORD97":2541344.71,"ADDRESS":"仁和路１０７巷７８號","OBJECTID":418870},"geometry":{"x":171564.00999999978,"y":2541344.7100000009}},{"attributes":{"ID":418896,"DIS_CODE":0,"TOWNNAME":"東區","LI":"仁和里","LIN":"2鄰","STREET":"仁和路","SECT":" ","MAREA":" ","LANE":"１０７巷","ALLEY":" ","HOUSE_NO":"８０號","E_COORD97":171569.34,"N_COORD97":2541342.3799999999,"ADDRESS":"仁和路１０７巷８０號","OBJECTID":418871},"geometry":{"x":171569.34000000078,"y":2541342.3800000027}},{"attributes":{"ID":418897,"DIS_CODE":0,"TOWNNAME":"東區","LI":"仁和里","LIN":"2鄰","STREET":"仁和路","SECT":" ","MAREA":" ","LANE":"１０７巷","ALLEY":" ","HOUSE_NO":"８２號","E_COORD97":171573.67000000001,"N_COORD97":2541342.04,"ADDRESS":"仁和路１０７巷８２號","OBJECTID":418872},"geometry":{"x":171573.67000000179,"y":2541342.040000001}},{"attributes":{"ID":418898,"DIS_CODE":0,"TOWNNAME":"東區","LI":"仁和里","LIN":"2鄰","STREET":"仁和路","SECT":" ","MAREA":" ","LANE":"１０７巷","ALLEY":" ","HOUSE_NO":"８４號","E_COORD97":171579.32999999999,"N_COORD97":2541341.3799999999,"ADDRESS":"仁和路１０７巷８４號","OBJECTID":418873},"geometry":{"x":171579.33000000007,"y":2541341.379999999}},{"attributes":{"ID":418899,"DIS_CODE":0,"TOWNNAME":"東區","LI":"仁和里","LIN":"2鄰","STREET":"仁和路","SECT":" ","MAREA":" ","LANE":"１０７巷","ALLEY":" ","HOUSE_NO":"８６號","E_COORD97":171584.66,"N_COORD97":2541341.71,"ADDRESS":"仁和路１０７巷８６號","OBJECTID":418874},"geometry":{"x":171584.66000000108,"y":2541341.709999999}},{"attributes":{"ID":418900,"DIS_CODE":0,"TOWNNAME":"東區","LI":"仁和里","LIN":"2鄰","STREET":"仁和路","SECT":" ","MAREA":" ","LANE":"１０７巷","ALLEY":" ","HOUSE_NO":"８８號","E_COORD97":171590,"N_COORD97":2541342.2000000002,"ADDRESS":"仁和路１０７巷８８號","OBJECTID":418875},"geometry":{"x":171589.99999999907,"y":2541342.1999999993}},{"attributes":{"ID":418901,"DIS_CODE":0,"TOWNNAME":"東區","LI":"東光里","LIN":"2鄰","STREET":"東寧路","SECT":" ","MAREA":" ","LANE":"４３５巷","ALLEY":" ","HOUSE_NO":"１７號","E_COORD97":171077.25,"N_COORD97":2543417.6600000001,"ADDRESS":"東寧路４３５巷１７號","OBJECTID":418876},"geometry":{"x":171077.25000000093,"y":2543417.660000002}},{"attributes":{"ID":418902,"DIS_CODE":0,"TOWNNAME":"東區","LI":"東光里","LIN":"2鄰","STREET":"東寧路","SECT":" ","MAREA":" ","LANE":"４３５巷","ALLEY":" ","HOUSE_NO":"１９號","E_COORD97":171079.26999999999,"N_COORD97":2543427.7799999998,"ADDRESS":"東寧路４３５巷１９號","OBJECTID":418877},"geometry":{"x":171079.27000000142,"y":2543427.7799999993}},{"attributes":{"ID":418903,"DIS_CODE":0,"TOWNNAME":"東區","LI":"東光里","LIN":"2鄰","STREET":"東寧路","SECT":" ","MAREA":" ","LANE":"４３５巷","ALLEY":" ","HOUSE_NO":"２１號","E_COORD97":171083.60000000001,"N_COORD97":2543443.5699999998,"ADDRESS":"東寧路４３５巷２１號","OBJECTID":418878},"geometry":{"x":171083.59999999963,"y":2543443.5700000003}},{"attributes":{"ID":418904,"DIS_CODE":0,"TOWNNAME":"東區","LI":"東光里","LIN":"2鄰","STREET":"東寧路","SECT":" ","MAREA":" ","LANE":"４３５巷","ALLEY":" ","HOUSE_NO":"２４號","E_COORD97":171094.79999999999,"N_COORD97":2543428.8599999999,"ADDRESS":"東寧路４３５巷２４號","OBJECTID":418879},"geometry":{"x":171094.80000000075,"y":2543428.8600000013}},{"attributes":{"ID":418905,"DIS_CODE":0,"TOWNNAME":"東區","LI":"南聖里","LIN":"2鄰","STREET":"裕農路","SECT":" ","MAREA":" ","LANE":"６６８巷","ALLEY":" ","HOUSE_NO":"６號","E_COORD97":171716.60000000001,"N_COORD97":2543194.3599999999,"ADDRESS":"裕農路６６８巷６號","OBJECTID":418880},"geometry":{"x":171716.60000000056,"y":2543194.3600000013}},{"attributes":{"ID":418906,"DIS_CODE":0,"TOWNNAME":"東區","LI":"南聖里","LIN":"2鄰","STREET":"富農街","SECT":"二段","MAREA":" ","LANE":"１３２巷","ALLEY":" ","HOUSE_NO":"１號之２","E_COORD97":171665.14999999999,"N_COORD97":2543166.0899999999,"ADDRESS":"富農街二段１３２巷１號之２","OBJECTID":418881},"geometry":{"x":171665.15000000037,"y":2543166.0900000017}},{"attributes":{"ID":418907,"DIS_CODE":0,"TOWNNAME":"安南區","LI":"鳳凰里","LIN":"24鄰","STREET":"怡安路","SECT":"二段","MAREA":" ","LANE":"５４５巷","ALLEY":" ","HOUSE_NO":"２０號","E_COORD97":167496.01000000001,"N_COORD97":2549359.6800000002,"ADDRESS":"怡安路二段５４５巷２０號","OBJECTID":418882},"geometry":{"x":167496.01000000164,"y":2549359.6800000016}},{"attributes":{"ID":418908,"DIS_CODE":0,"TOWNNAME":"安南區","LI":"鳳凰里","LIN":"24鄰","STREET":"怡安路","SECT":"二段","MAREA":" ","LANE":"５４５巷","ALLEY":" ","HOUSE_NO":"８號","E_COORD97":167508.26000000001,"N_COORD97":2549383.3399999999,"ADDRESS":"怡安路二段５４５巷８號","OBJECTID":418883},"geometry":{"x":167508.26000000071,"y":2549383.3400000017}},{"attributes":{"ID":418909,"DIS_CODE":0,"TOWNNAME":"東區","LI":"南聖里","LIN":"2鄰","STREET":"裕農路","SECT":" ","MAREA":" ","LANE":"６６８巷","ALLEY":" ","HOUSE_NO":"１４號","E_COORD97":171714.70000000001,"N_COORD97":2543172.1800000002,"ADDRESS":"裕農路６６８巷１４號","OBJECTID":418884},"geometry":{"x":171714.70000000112,"y":2543172.1800000016}},{"attributes":{"ID":418910,"DIS_CODE":0,"TOWNNAME":"東區","LI":"關聖里","LIN":"2鄰","STREET":"裕農路","SECT":" ","MAREA":" ","LANE":"６６８巷","ALLEY":" ","HOUSE_NO":"６４號","E_COORD97":171714.23000000001,"N_COORD97":2542921.7200000002,"ADDRESS":"裕農路６６８巷６４號","OBJECTID":418885},"geometry":{"x":171714.23000000045,"y":2542921.7200000044}},{"attributes":{"ID":418911,"DIS_CODE":0,"TOWNNAME":"東區","LI":"關聖里","LIN":"2鄰","STREET":"裕農路","SECT":" ","MAREA":" ","LANE":"６６８巷","ALLEY":" ","HOUSE_NO":"６４號之１","E_COORD97":171711.42999999999,"N_COORD97":2542916.8199999998,"ADDRESS":"裕農路６６８巷６４號之１","OBJECTID":418886},"geometry":{"x":171711.43000000063,"y":2542916.8200000003}},{"attributes":{"ID":418912,"DIS_CODE":0,"TOWNNAME":"東區","LI":"關聖里","LIN":"2鄰","STREET":"裕農路","SECT":" ","MAREA":" ","LANE":"６６８巷","ALLEY":" ","HOUSE_NO":"６４號之２","E_COORD97":171718.32000000001,"N_COORD97":2542917.3999999999,"ADDRESS":"裕農路６６８巷６４號之２","OBJECTID":418887},"geometry":{"x":171718.3200000003,"y":2542917.4000000022}},{"attributes":{"ID":418913,"DIS_CODE":0,"TOWNNAME":"東區","LI":"關聖里","LIN":"2鄰","STREET":"裕農路","SECT":" ","MAREA":" ","LANE":"６６８巷","ALLEY":" ","HOUSE_NO":"６６號","E_COORD97":171740.53,"N_COORD97":2542924.0600000001,"ADDRESS":"裕農路６６８巷６６號","OBJECTID":418888},"geometry":{"x":171740.53000000026,"y":2542924.0600000024}},{"attributes":{"ID":418914,"DIS_CODE":0,"TOWNNAME":"東區","LI":"關聖里","LIN":"2鄰","STREET":"裕農路","SECT":" ","MAREA":" ","LANE":"６６８巷","ALLEY":" ","HOUSE_NO":"６６號之１","E_COORD97":171727.44,"N_COORD97":2542919.7400000002,"ADDRESS":"裕農路６６８巷６６號之１","OBJECTID":418889},"geometry":{"x":171727.44000000041,"y":2542919.7400000002}},{"attributes":{"ID":418915,"DIS_CODE":0,"TOWNNAME":"安南區","LI":"溪北里","LIN":"2鄰","STREET":"安和路","SECT":"一段","MAREA":" ","LANE":"９１巷","ALLEY":" ","HOUSE_NO":"５８號","E_COORD97":169304.64999999999,"N_COORD97":2547531.4199999999,"ADDRESS":"安和路一段９１巷５８號","OBJECTID":418890},"geometry":{"x":169304.6500000013,"y":2547531.4200000018}},{"attributes":{"ID":418916,"DIS_CODE":0,"TOWNNAME":"安南區","LI":"溪墘里","LIN":"2鄰","STREET":"海佃路","SECT":"一段","MAREA":" ","LANE":"１５８巷","ALLEY":" ","HOUSE_NO":"１５號","E_COORD97":167225.85999999999,"N_COORD97":2547213.1800000002,"ADDRESS":"海佃路一段１５８巷１５號","OBJECTID":418891},"geometry":{"x":167225.86000000034,"y":2547213.1800000034}},{"attributes":{"ID":418917,"DIS_CODE":0,"TOWNNAME":"安南區","LI":"總頭里","LIN":"2鄰","STREET":"總安街","SECT":"二段","MAREA":" ","LANE":"３１５巷","ALLEY":" ","HOUSE_NO":"３３號","E_COORD97":168414.67999999999,"N_COORD97":2550379.3599999999,"ADDRESS":"總安街二段３１５巷３３號","OBJECTID":418892},"geometry":{"x":168414.6799999997,"y":2550379.3600000013}},{"attributes":{"ID":418918,"DIS_CODE":0,"TOWNNAME":"安南區","LI":"總頭里","LIN":"2鄰","STREET":"總安街","SECT":"二段","MAREA":" ","LANE":"３１５巷","ALLEY":" ","HOUSE_NO":"３５號","E_COORD97":168404.75,"N_COORD97":2550365.0499999998,"ADDRESS":"總安街二段３１５巷３５號","OBJECTID":418893},"geometry":{"x":168404.74999999907,"y":2550365.0500000026}},{"attributes":{"ID":418919,"DIS_CODE":0,"TOWNNAME":"安南區","LI":"總頭里","LIN":"2鄰","STREET":"總安街","SECT":"二段","MAREA":" ","LANE":"３１５巷","ALLEY":" ","HOUSE_NO":"４號","E_COORD97":168401.25,"N_COORD97":2550460.4500000002,"ADDRESS":"總安街二段３１５巷４號","OBJECTID":418894},"geometry":{"x":168401.25,"y":2550460.4499999993}},{"attributes":{"ID":418920,"DIS_CODE":0,"TOWNNAME":"安南區","LI":"總頭里","LIN":"2鄰","STREET":"總安街","SECT":"二段","MAREA":" ","LANE":"３１５巷","ALLEY":" ","HOUSE_NO":"６號","E_COORD97":168402.53,"N_COORD97":2550455.3599999999,"ADDRESS":"總安街二段３１５巷６號","OBJECTID":418895},"geometry":{"x":168402.53000000026,"y":2550455.3599999994}},{"attributes":{"ID":418921,"DIS_CODE":0,"TOWNNAME":"安南區","LI":"總頭里","LIN":"2鄰","STREET":"總安街","SECT":"二段","MAREA":" ","LANE":"３１５巷","ALLEY":" ","HOUSE_NO":"８號","E_COORD97":168399.34,"N_COORD97":2550449.3199999998,"ADDRESS":"總安街二段３１５巷８號","OBJECTID":418896},"geometry":{"x":168399.34000000078,"y":2550449.3200000003}},{"attributes":{"ID":418922,"DIS_CODE":0,"TOWNNAME":"安南區","LI":"海東里","LIN":"2鄰","STREET":"海中街","SECT":" ","MAREA":" ","LANE":"１３０巷","ALLEY":" ","HOUSE_NO":"９１號","E_COORD97":166555.39000000001,"N_COORD97":2549244.5899999999,"ADDRESS":"海中街１３０巷９１號","OBJECTID":418897},"geometry":{"x":166555.38999999966,"y":2549244.5900000036}},{"attributes":{"ID":418923,"DIS_CODE":0,"TOWNNAME":"安南區","LI":"海東里","LIN":"2鄰","STREET":"海中街","SECT":" ","MAREA":" ","LANE":"１３０巷","ALLEY":" ","HOUSE_NO":"６９號","E_COORD97":166545.79000000001,"N_COORD97":2549208.5800000001,"ADDRESS":"海中街１３０巷６９號","OBJECTID":418898},"geometry":{"x":166545.79000000097,"y":2549208.5800000019}},{"attributes":{"ID":418924,"DIS_CODE":0,"TOWNNAME":"安南區","LI":"海東里","LIN":"2鄰","STREET":"海中街","SECT":" ","MAREA":" ","LANE":"１３０巷","ALLEY":" ","HOUSE_NO":"７１號","E_COORD97":166565.60999999999,"N_COORD97":2549218.5699999998,"ADDRESS":"海中街１３０巷７１號","OBJECTID":418899},"geometry":{"x":166565.61000000127,"y":2549218.5700000022}},{"attributes":{"ID":418925,"DIS_CODE":0,"TOWNNAME":"安南區","LI":"海東里","LIN":"2鄰","STREET":"海中街","SECT":" ","MAREA":" ","LANE":"１３０巷","ALLEY":" ","HOUSE_NO":"８５號","E_COORD97":166558.75,"N_COORD97":2549233.3700000001,"ADDRESS":"海中街１３０巷８５號","OBJECTID":418900},"geometry":{"x":166558.75000000186,"y":2549233.370000001}},{"attributes":{"ID":418926,"DIS_CODE":0,"TOWNNAME":"新營區","LI":"角帶里","LIN":"1鄰","STREET":" ","SECT":" ","MAREA":"角帶圍","LANE":" ","ALLEY":" ","HOUSE_NO":"１號之１２","E_COORD97":175060.07647999999,"N_COORD97":2576316.1467800001,"ADDRESS":"角帶圍１號之１２","OBJECTID":418901},"geometry":{"x":175060.07648000028,"y":2576316.1467799991}},{"attributes":{"ID":418927,"DIS_CODE":0,"TOWNNAME":"安南區","LI":"海東里","LIN":"2鄰","STREET":"海中街","SECT":" ","MAREA":" ","LANE":"１３０巷","ALLEY":" ","HOUSE_NO":"８７號","E_COORD97":166557.70000000001,"N_COORD97":2549237.5099999998,"ADDRESS":"海中街１３０巷８７號","OBJECTID":418902},"geometry":{"x":166557.70000000205,"y":2549237.5099999998}},{"attributes":{"ID":418928,"DIS_CODE":0,"TOWNNAME":"安南區","LI":"海東里","LIN":"2鄰","STREET":"海中街","SECT":" ","MAREA":" ","LANE":"１３０巷","ALLEY":" ","HOUSE_NO":"８８號","E_COORD97":166591.81,"N_COORD97":2549207.9100000001,"ADDRESS":"海中街１３０巷８８號","OBJECTID":418903},"geometry":{"x":166591.81000000145,"y":2549207.9100000001}},{"attributes":{"ID":418929,"DIS_CODE":0,"TOWNNAME":"安南區","LI":"海東里","LIN":"2鄰","STREET":"海中街","SECT":" ","MAREA":" ","LANE":"１３０巷","ALLEY":" ","HOUSE_NO":"８９號","E_COORD97":166556.32999999999,"N_COORD97":2549241.02,"ADDRESS":"海中街１３０巷８９號","OBJECTID":418904},"geometry":{"x":166556.33000000007,"y":2549241.0199999996}},{"attributes":{"ID":418930,"DIS_CODE":0,"TOWNNAME":"安南區","LI":"海東里","LIN":"2鄰","STREET":"海中街","SECT":" ","MAREA":" ","LANE":"１３０巷","ALLEY":" ","HOUSE_NO":"９３號","E_COORD97":166554.72,"N_COORD97":2549248.46,"ADDRESS":"海中街１３０巷９３號","OBJECTID":418905},"geometry":{"x":166554.71999999974,"y":2549248.4600000009}},{"attributes":{"ID":418931,"DIS_CODE":0,"TOWNNAME":"安南區","LI":"海東里","LIN":"2鄰","STREET":"海中街","SECT":" ","MAREA":" ","LANE":"１３０巷","ALLEY":" ","HOUSE_NO":"９５號","E_COORD97":166553.82000000001,"N_COORD97":2549252.6200000001,"ADDRESS":"海中街１３０巷９５號","OBJECTID":418906},"geometry":{"x":166553.82000000123,"y":2549252.6200000048}},{"attributes":{"ID":418932,"DIS_CODE":0,"TOWNNAME":"安南區","LI":"海東里","LIN":"2鄰","STREET":"海中街","SECT":" ","MAREA":" ","LANE":"１３０巷","ALLEY":" ","HOUSE_NO":"９６號","E_COORD97":166582.92999999999,"N_COORD97":2549233.1899999999,"ADDRESS":"海中街１３０巷９６號","OBJECTID":418907},"geometry":{"x":166582.93000000063,"y":2549233.1899999976}},{"attributes":{"ID":418933,"DIS_CODE":0,"TOWNNAME":"安南區","LI":"海東里","LIN":"2鄰","STREET":"海中街","SECT":" ","MAREA":" ","LANE":"１３０巷","ALLEY":" ","HOUSE_NO":"９７號","E_COORD97":166552.14999999999,"N_COORD97":2549255.98,"ADDRESS":"海中街１３０巷９７號","OBJECTID":418908},"geometry":{"x":166552.1500000013,"y":2549255.9799999986}},{"attributes":{"ID":418934,"DIS_CODE":0,"TOWNNAME":"安南區","LI":"海東里","LIN":"2鄰","STREET":"海中街","SECT":" ","MAREA":" ","LANE":"１３８巷","ALLEY":" ","HOUSE_NO":"５５號","E_COORD97":166490.10000000001,"N_COORD97":2549226.2599999998,"ADDRESS":"海中街１３８巷５５號","OBJECTID":418909},"geometry":{"x":166490.10000000056,"y":2549226.2599999979}},{"attributes":{"ID":418935,"DIS_CODE":0,"TOWNNAME":"安南區","LI":"海東里","LIN":"2鄰","STREET":"海中街","SECT":" ","MAREA":" ","LANE":"１３８巷","ALLEY":" ","HOUSE_NO":"５７號","E_COORD97":166501.28,"N_COORD97":2549227.1299999999,"ADDRESS":"海中街１３８巷５７號","OBJECTID":418910},"geometry":{"x":166501.28000000212,"y":2549227.1300000008}},{"attributes":{"ID":418936,"DIS_CODE":0,"TOWNNAME":"安南區","LI":"海東里","LIN":"2鄰","STREET":"海環街","SECT":" ","MAREA":" ","LANE":"６４６巷","ALLEY":" ","HOUSE_NO":"３號","E_COORD97":166518.95000000001,"N_COORD97":2549287.4900000002,"ADDRESS":"海環街６４６巷３號","OBJECTID":418911},"geometry":{"x":166518.95000000112,"y":2549287.4900000021}},{"attributes":{"ID":418937,"DIS_CODE":0,"TOWNNAME":"中西區","LI":"五妃里","LIN":"2鄰","STREET":"南門路","SECT":" ","MAREA":" ","LANE":"２４５巷","ALLEY":" ","HOUSE_NO":"１６號","E_COORD97":168414.92000000001,"N_COORD97":2542527.6499999999,"ADDRESS":"南門路２４５巷１６號","OBJECTID":418912},"geometry":{"x":168414.91999999993,"y":2542527.6500000004}},{"attributes":{"ID":418938,"DIS_CODE":0,"TOWNNAME":"中西區","LI":"五妃里","LIN":"2鄰","STREET":"南門路","SECT":" ","MAREA":" ","LANE":"２４５巷","ALLEY":" ","HOUSE_NO":"１８號","E_COORD97":168421.47,"N_COORD97":2542527.4100000001,"ADDRESS":"南門路２４５巷１８號","OBJECTID":418913},"geometry":{"x":168421.46999999974,"y":2542527.410000002}},{"attributes":{"ID":418939,"DIS_CODE":0,"TOWNNAME":"中西區","LI":"五妃里","LIN":"2鄰","STREET":"南門路","SECT":" ","MAREA":" ","LANE":"２４５巷","ALLEY":" ","HOUSE_NO":"１號之１","E_COORD97":168414.19,"N_COORD97":2542537.9300000002,"ADDRESS":"南門路２４５巷１號之１","OBJECTID":418914},"geometry":{"x":168414.19000000227,"y":2542537.9299999997}},{"attributes":{"ID":418940,"DIS_CODE":0,"TOWNNAME":"中西區","LI":"五妃里","LIN":"2鄰","STREET":"南門路","SECT":" ","MAREA":" ","LANE":"２４５巷","ALLEY":" ","HOUSE_NO":"２０號","E_COORD97":168427.60999999999,"N_COORD97":2542527.0600000001,"ADDRESS":"南門路２４５巷２０號","OBJECTID":418915},"geometry":{"x":168427.61000000034,"y":2542527.0600000024}},{"attributes":{"ID":418941,"DIS_CODE":0,"TOWNNAME":"中西區","LI":"五妃里","LIN":"2鄰","STREET":"南門路","SECT":" ","MAREA":" ","LANE":"２４５巷","ALLEY":" ","HOUSE_NO":"２０號之１","E_COORD97":168432.42999999999,"N_COORD97":2542527.1800000002,"ADDRESS":"南門路２４５巷２０號之１","OBJECTID":418916},"geometry":{"x":168432.43000000063,"y":2542527.1799999997}},{"attributes":{"ID":418942,"DIS_CODE":0,"TOWNNAME":"中西區","LI":"五妃里","LIN":"2鄰","STREET":"南門路","SECT":" ","MAREA":" ","LANE":"２４５巷","ALLEY":" ","HOUSE_NO":"２號","E_COORD97":168390.51999999999,"N_COORD97":2542527.5299999998,"ADDRESS":"南門路２４５巷２號","OBJECTID":418917},"geometry":{"x":168390.51999999955,"y":2542527.5299999993}},{"attributes":{"ID":418943,"DIS_CODE":0,"TOWNNAME":"中西區","LI":"五妃里","LIN":"2鄰","STREET":"南門路","SECT":" ","MAREA":" ","LANE":"２４５巷","ALLEY":" ","HOUSE_NO":"２號之１","E_COORD97":168396.10000000001,"N_COORD97":2542527.6499999999,"ADDRESS":"南門路２４５巷２號之１","OBJECTID":418918},"geometry":{"x":168396.10000000056,"y":2542527.6500000004}},{"attributes":{"ID":418944,"DIS_CODE":0,"TOWNNAME":"中西區","LI":"五妃里","LIN":"2鄰","STREET":"南門路","SECT":" ","MAREA":" ","LANE":"２４５巷","ALLEY":" ","HOUSE_NO":"４號","E_COORD97":168403.01999999999,"N_COORD97":2542527.77,"ADDRESS":"南門路２４５巷４號","OBJECTID":418919},"geometry":{"x":168403.02000000048,"y":2542527.7700000014}},{"attributes":{"ID":418945,"DIS_CODE":0,"TOWNNAME":"中西區","LI":"五妃里","LIN":"2鄰","STREET":"南門路","SECT":" ","MAREA":" ","LANE":"２４５巷","ALLEY":" ","HOUSE_NO":"５號","E_COORD97":168430.92000000001,"N_COORD97":2542537.79,"ADDRESS":"南門路２４５巷５號","OBJECTID":418920},"geometry":{"x":168430.92000000086,"y":2542537.790000001}},{"attributes":{"ID":418946,"DIS_CODE":0,"TOWNNAME":"中西區","LI":"五妃里","LIN":"2鄰","STREET":"南門路","SECT":" ","MAREA":" ","LANE":"２４５巷","ALLEY":" ","HOUSE_NO":"６號","E_COORD97":168408.97,"N_COORD97":2542527.77,"ADDRESS":"南門路２４５巷６號","OBJECTID":418921},"geometry":{"x":168408.97000000067,"y":2542527.7700000014}},{"attributes":{"ID":418947,"DIS_CODE":0,"TOWNNAME":"中西區","LI":"五妃里","LIN":"2鄰","STREET":"南門路","SECT":" ","MAREA":" ","LANE":"２４５巷","ALLEY":" ","HOUSE_NO":"７號","E_COORD97":168440.51000000001,"N_COORD97":2542537.2999999998,"ADDRESS":"南門路２４５巷７號","OBJECTID":418922},"geometry":{"x":168440.51000000071,"y":2542537.3000000007}},{"attributes":{"ID":418948,"DIS_CODE":0,"TOWNNAME":"中西區","LI":"五妃里","LIN":"2鄰","STREET":"南門路","SECT":" ","MAREA":" ","LANE":"２４５巷","ALLEY":" ","HOUSE_NO":"８號","E_COORD97":168405.81,"N_COORD97":2542518.3100000001,"ADDRESS":"南門路２４５巷８號","OBJECTID":418923},"geometry":{"x":168405.81000000145,"y":2542518.3100000024}},{"attributes":{"ID":418949,"DIS_CODE":0,"TOWNNAME":"中西區","LI":"仙草里","LIN":"2鄰","STREET":"五妃街","SECT":" ","MAREA":" ","LANE":"３２２巷","ALLEY":" ","HOUSE_NO":"７號","E_COORD97":167808.44,"N_COORD97":2542622.9100000001,"ADDRESS":"五妃街３２２巷７號","OBJECTID":418924},"geometry":{"x":167808.44000000041,"y":2542622.910000002}},{"attributes":{"ID":418950,"DIS_CODE":0,"TOWNNAME":"中西區","LI":"仙草里","LIN":"2鄰","STREET":"五妃街","SECT":" ","MAREA":" ","LANE":"３２２巷","ALLEY":" ","HOUSE_NO":"９號","E_COORD97":167803.69,"N_COORD97":2542634.5299999998,"ADDRESS":"五妃街３２２巷９號","OBJECTID":418925},"geometry":{"x":167803.69000000041,"y":2542634.5300000012}},{"attributes":{"ID":418951,"DIS_CODE":0,"TOWNNAME":"中西區","LI":"小西里","LIN":"2鄰","STREET":"永福路","SECT":"一段","MAREA":" ","LANE":"２３３巷","ALLEY":" ","HOUSE_NO":"１０號","E_COORD97":167877.95999999999,"N_COORD97":2543277.9300000002,"ADDRESS":"永福路一段２３３巷１０號","OBJECTID":418926},"geometry":{"x":167877.96000000183,"y":2543277.9299999997}},{"attributes":{"ID":418952,"DIS_CODE":0,"TOWNNAME":"中西區","LI":"小西里","LIN":"2鄰","STREET":"永福路","SECT":"一段","MAREA":" ","LANE":"２３３巷","ALLEY":" ","HOUSE_NO":"１１號","E_COORD97":167929.13,"N_COORD97":2543259.9700000002,"ADDRESS":"永福路一段２３３巷１１號","OBJECTID":418927},"geometry":{"x":167929.12999999896,"y":2543259.9700000025}},{"attributes":{"ID":418953,"DIS_CODE":0,"TOWNNAME":"中西區","LI":"小西里","LIN":"2鄰","STREET":"永福路","SECT":"一段","MAREA":" ","LANE":"２３３巷","ALLEY":" ","HOUSE_NO":"１２號","E_COORD97":167870.60999999999,"N_COORD97":2543278.75,"ADDRESS":"永福路一段２３３巷１２號","OBJECTID":418928},"geometry":{"x":167870.6100000022,"y":2543278.75}},{"attributes":{"ID":418954,"DIS_CODE":0,"TOWNNAME":"中西區","LI":"小西里","LIN":"2鄰","STREET":"永福路","SECT":"一段","MAREA":" ","LANE":"２３３巷","ALLEY":" ","HOUSE_NO":"１３號","E_COORD97":167920.14000000001,"N_COORD97":2543260.5699999998,"ADDRESS":"永福路一段２３３巷１３號","OBJECTID":418929},"geometry":{"x":167920.13999999966,"y":2543260.5700000003}},{"attributes":{"ID":418955,"DIS_CODE":0,"TOWNNAME":"中西區","LI":"小西里","LIN":"2鄰","STREET":"永福路","SECT":"一段","MAREA":" ","LANE":"２３３巷","ALLEY":" ","HOUSE_NO":"１４號","E_COORD97":167859.42000000001,"N_COORD97":2543278.98,"ADDRESS":"永福路一段２３３巷１４號","OBJECTID":418930},"geometry":{"x":167859.42000000179,"y":2543278.9800000042}},{"attributes":{"ID":418956,"DIS_CODE":0,"TOWNNAME":"中西區","LI":"小西里","LIN":"2鄰","STREET":"永福路","SECT":"一段","MAREA":" ","LANE":"２３３巷","ALLEY":" ","HOUSE_NO":"１５號","E_COORD97":167915.54999999999,"N_COORD97":2543260.77,"ADDRESS":"永福路一段２３３巷１５號","OBJECTID":418931},"geometry":{"x":167915.54999999981,"y":2543260.7700000014}},{"attributes":{"ID":418957,"DIS_CODE":0,"TOWNNAME":"中西區","LI":"小西里","LIN":"2鄰","STREET":"永福路","SECT":"一段","MAREA":" ","LANE":"２３３巷","ALLEY":" ","HOUSE_NO":"１６號","E_COORD97":167854.75,"N_COORD97":2543279.5600000001,"ADDRESS":"永福路一段２３３巷１６號","OBJECTID":418932},"geometry":{"x":167854.75000000093,"y":2543279.5600000024}},{"attributes":{"ID":418958,"DIS_CODE":0,"TOWNNAME":"中西區","LI":"小西里","LIN":"2鄰","STREET":"永福路","SECT":"一段","MAREA":" ","LANE":"２３３巷","ALLEY":" ","HOUSE_NO":"１８號","E_COORD97":167847.39999999999,"N_COORD97":2543280.2599999998,"ADDRESS":"永福路一段２３３巷１８號","OBJECTID":418933},"geometry":{"x":167847.40000000037,"y":2543280.2600000016}},{"attributes":{"ID":418959,"DIS_CODE":0,"TOWNNAME":"中西區","LI":"小西里","LIN":"2鄰","STREET":"永福路","SECT":"一段","MAREA":" ","LANE":"２３３巷","ALLEY":" ","HOUSE_NO":"１號","E_COORD97":167955.91,"N_COORD97":2543257.5899999999,"ADDRESS":"永福路一段２３３巷１號","OBJECTID":418934},"geometry":{"x":167955.91000000015,"y":2543257.5900000017}},{"attributes":{"ID":418960,"DIS_CODE":0,"TOWNNAME":"中西區","LI":"小西里","LIN":"2鄰","STREET":"永福路","SECT":"一段","MAREA":" ","LANE":"２３３巷","ALLEY":" ","HOUSE_NO":"３號","E_COORD97":167949.29999999999,"N_COORD97":2543259.9700000002,"ADDRESS":"永福路一段２３３巷３號","OBJECTID":418935},"geometry":{"x":167949.29999999981,"y":2543259.9700000025}},{"attributes":{"ID":418961,"DIS_CODE":0,"TOWNNAME":"中西區","LI":"小西里","LIN":"2鄰","STREET":"永福路","SECT":"一段","MAREA":" ","LANE":"２３３巷","ALLEY":" ","HOUSE_NO":"４號","E_COORD97":167907.01000000001,"N_COORD97":2543272.3399999999,"ADDRESS":"永福路一段２３３巷４號","OBJECTID":418936},"geometry":{"x":167907.01000000071,"y":2543272.339999998}},{"attributes":{"ID":418962,"DIS_CODE":0,"TOWNNAME":"中西區","LI":"小西里","LIN":"2鄰","STREET":"永福路","SECT":"一段","MAREA":" ","LANE":"２３３巷","ALLEY":" ","HOUSE_NO":"５號","E_COORD97":167942.91,"N_COORD97":2543258.9700000002,"ADDRESS":"永福路一段２３３巷５號","OBJECTID":418937},"geometry":{"x":167942.91000000201,"y":2543258.9700000044}},{"attributes":{"ID":418963,"DIS_CODE":0,"TOWNNAME":"中西區","LI":"小西里","LIN":"2鄰","STREET":"永福路","SECT":"一段","MAREA":" ","LANE":"２３３巷","ALLEY":" ","HOUSE_NO":"６號","E_COORD97":167890.44,"N_COORD97":2543277.5800000001,"ADDRESS":"永福路一段２３３巷６號","OBJECTID":418938},"geometry":{"x":167890.44000000227,"y":2543277.5800000001}},{"attributes":{"ID":418964,"DIS_CODE":0,"TOWNNAME":"中西區","LI":"小西里","LIN":"2鄰","STREET":"永福路","SECT":"一段","MAREA":" ","LANE":"２３３巷","ALLEY":" ","HOUSE_NO":"７號","E_COORD97":167939.51999999999,"N_COORD97":2543258.77,"ADDRESS":"永福路一段２３３巷７號","OBJECTID":418939},"geometry":{"x":167939.51999999955,"y":2543258.7699999996}},{"attributes":{"ID":418965,"DIS_CODE":0,"TOWNNAME":"中西區","LI":"小西里","LIN":"2鄰","STREET":"永福路","SECT":"一段","MAREA":" ","LANE":"２３３巷","ALLEY":" ","HOUSE_NO":"８號","E_COORD97":167884.48999999999,"N_COORD97":2543277.23,"ADDRESS":"永福路一段２３３巷８號","OBJECTID":418940},"geometry":{"x":167884.49000000022,"y":2543277.2300000042}},{"attributes":{"ID":418966,"DIS_CODE":0,"TOWNNAME":"中西區","LI":"小西里","LIN":"2鄰","STREET":"永福路","SECT":"一段","MAREA":" ","LANE":"２３３巷","ALLEY":" ","HOUSE_NO":"９號","E_COORD97":167934.51999999999,"N_COORD97":2543259.5699999998,"ADDRESS":"永福路一段２３３巷９號","OBJECTID":418941},"geometry":{"x":167934.51999999955,"y":2543259.5700000003}},{"attributes":{"ID":418967,"DIS_CODE":0,"TOWNNAME":"中西區","LI":"小西里","LIN":"2鄰","STREET":"永福路","SECT":"一段","MAREA":" ","LANE":"２４１巷","ALLEY":" ","HOUSE_NO":"１０號","E_COORD97":167975.48000000001,"N_COORD97":2543287.8500000001,"ADDRESS":"永福路一段２４１巷１０號","OBJECTID":418942},"geometry":{"x":167975.48000000138,"y":2543287.8499999996}},{"attributes":{"ID":418968,"DIS_CODE":0,"TOWNNAME":"學甲區","LI":"慈福里","LIN":"13鄰","STREET":"民族路","SECT":" ","MAREA":" ","LANE":" ","ALLEY":" ","HOUSE_NO":"６１號","E_COORD97":166615.97,"N_COORD97":2570386.52,"ADDRESS":"民族路６１號","OBJECTID":418943},"geometry":{"x":166615.96999999974,"y":2570386.5199999996}},{"attributes":{"ID":418969,"DIS_CODE":0,"TOWNNAME":"中西區","LI":"小西里","LIN":"2鄰","STREET":"永福路","SECT":"一段","MAREA":" ","LANE":"２４１巷","ALLEY":" ","HOUSE_NO":"１１號","E_COORD97":167951.14999999999,"N_COORD97":2543275.2599999998,"ADDRESS":"永福路一段２４１巷１１號","OBJECTID":418944},"geometry":{"x":167951.15000000037,"y":2543275.2599999998}},{"attributes":{"ID":418970,"DIS_CODE":0,"TOWNNAME":"中西區","LI":"小西里","LIN":"2鄰","STREET":"永福路","SECT":"一段","MAREA":" ","LANE":"２４１巷","ALLEY":" ","HOUSE_NO":"１２號","E_COORD97":167958.54000000001,"N_COORD97":2543290.3399999999,"ADDRESS":"永福路一段２４１巷１２號","OBJECTID":418945},"geometry":{"x":167958.54000000004,"y":2543290.3400000017}},{"attributes":{"ID":418971,"DIS_CODE":0,"TOWNNAME":"中西區","LI":"小西里","LIN":"2鄰","STREET":"永福路","SECT":"一段","MAREA":" ","LANE":"２４１巷","ALLEY":" ","HOUSE_NO":"１３號","E_COORD97":167944.95999999999,"N_COORD97":2543275.5899999999,"ADDRESS":"永福路一段２４１巷１３號","OBJECTID":418946},"geometry":{"x":167944.95999999996,"y":2543275.5900000017}},{"attributes":{"ID":418972,"DIS_CODE":0,"TOWNNAME":"中西區","LI":"小西里","LIN":"2鄰","STREET":"永福路","SECT":"一段","MAREA":" ","LANE":"２４１巷","ALLEY":" ","HOUSE_NO":"１４號","E_COORD97":167951.69,"N_COORD97":2543290.7799999998,"ADDRESS":"永福路一段２４１巷１４號","OBJECTID":418947},"geometry":{"x":167951.69000000134,"y":2543290.7800000012}},{"attributes":{"ID":418973,"DIS_CODE":0,"TOWNNAME":"中西區","LI":"小西里","LIN":"2鄰","STREET":"永福路","SECT":"一段","MAREA":" ","LANE":"２４１巷","ALLEY":" ","HOUSE_NO":"１５號","E_COORD97":167937.89999999999,"N_COORD97":2543276.6699999999,"ADDRESS":"永福路一段２４１巷１５號","OBJECTID":418948},"geometry":{"x":167937.90000000037,"y":2543276.6699999999}},{"attributes":{"ID":418974,"DIS_CODE":0,"TOWNNAME":"中西區","LI":"小西里","LIN":"2鄰","STREET":"永福路","SECT":"一段","MAREA":" ","LANE":"２４１巷","ALLEY":" ","HOUSE_NO":"１６號","E_COORD97":167945.17999999999,"N_COORD97":2543291.1000000001,"ADDRESS":"永福路一段２４１巷１６號","OBJECTID":418949},"geometry":{"x":167945.1799999997,"y":2543291.1000000034}},{"attributes":{"ID":418975,"DIS_CODE":0,"TOWNNAME":"中西區","LI":"小西里","LIN":"2鄰","STREET":"永福路","SECT":"一段","MAREA":" ","LANE":"２４１巷","ALLEY":" ","HOUSE_NO":"１８號","E_COORD97":167937.89999999999,"N_COORD97":2543290.8900000001,"ADDRESS":"永福路一段２４１巷１８號","OBJECTID":418950},"geometry":{"x":167937.90000000037,"y":2543290.8900000025}},{"attributes":{"ID":418976,"DIS_CODE":0,"TOWNNAME":"中西區","LI":"小西里","LIN":"2鄰","STREET":"永福路","SECT":"一段","MAREA":" ","LANE":"２４１巷","ALLEY":" ","HOUSE_NO":"１號","E_COORD97":167993.39000000001,"N_COORD97":2543272.6600000001,"ADDRESS":"永福路一段２４１巷１號","OBJECTID":418951},"geometry":{"x":167993.39000000153,"y":2543272.6600000001}},{"attributes":{"ID":418977,"DIS_CODE":0,"TOWNNAME":"中西區","LI":"小西里","LIN":"2鄰","STREET":"永福路","SECT":"一段","MAREA":" ","LANE":"２４１巷","ALLEY":" ","HOUSE_NO":"２號","E_COORD97":167994.26000000001,"N_COORD97":2543286.4399999999,"ADDRESS":"永福路一段２４１巷２號","OBJECTID":418952},"geometry":{"x":167994.26000000164,"y":2543286.4400000013}},{"attributes":{"ID":418978,"DIS_CODE":0,"TOWNNAME":"中西區","LI":"小西里","LIN":"2鄰","STREET":"永福路","SECT":"一段","MAREA":" ","LANE":"２４１巷","ALLEY":" ","HOUSE_NO":"３號","E_COORD97":167987.85999999999,"N_COORD97":2543271.3599999999,"ADDRESS":"永福路一段２４１巷３號","OBJECTID":418953},"geometry":{"x":167987.86000000127,"y":2543271.3599999994}},{"attributes":{"ID":418979,"DIS_CODE":0,"TOWNNAME":"中西區","LI":"小西里","LIN":"2鄰","STREET":"永福路","SECT":"一段","MAREA":" ","LANE":"２４１巷","ALLEY":" ","HOUSE_NO":"４號","E_COORD97":167988.51000000001,"N_COORD97":2543287.52,"ADDRESS":"永福路一段２４１巷４號","OBJECTID":418954},"geometry":{"x":167988.50999999978,"y":2543287.5199999996}},{"attributes":{"ID":418980,"DIS_CODE":0,"TOWNNAME":"中西區","LI":"小西里","LIN":"2鄰","STREET":"永福路","SECT":"一段","MAREA":" ","LANE":"２４１巷","ALLEY":" ","HOUSE_NO":"５號","E_COORD97":167981.23000000001,"N_COORD97":2543271.6800000002,"ADDRESS":"永福路一段２４１巷５號","OBJECTID":418955},"geometry":{"x":167981.23000000045,"y":2543271.6800000016}},{"attributes":{"ID":418981,"DIS_CODE":0,"TOWNNAME":"中西區","LI":"小西里","LIN":"2鄰","STREET":"永福路","SECT":"一段","MAREA":" ","LANE":"２４１巷","ALLEY":" ","HOUSE_NO":"６號","E_COORD97":167988.62,"N_COORD97":2543293.3799999999,"ADDRESS":"永福路一段２４１巷６號","OBJECTID":418956},"geometry":{"x":167988.62000000011,"y":2543293.379999999}},{"attributes":{"ID":418982,"DIS_CODE":0,"TOWNNAME":"中西區","LI":"小西里","LIN":"2鄰","STREET":"永福路","SECT":"一段","MAREA":" ","LANE":"２４１巷","ALLEY":" ","HOUSE_NO":"７號","E_COORD97":167972.76000000001,"N_COORD97":2543272.77,"ADDRESS":"永福路一段２４１巷７號","OBJECTID":418957},"geometry":{"x":167972.76000000071,"y":2543272.7700000033}},{"attributes":{"ID":418983,"DIS_CODE":0,"TOWNNAME":"中西區","LI":"小西里","LIN":"2鄰","STREET":"永福路","SECT":"一段","MAREA":" ","LANE":"２４１巷","ALLEY":" ","HOUSE_NO":"８號","E_COORD97":167981.12,"N_COORD97":2543287.52,"ADDRESS":"永福路一段２４１巷８號","OBJECTID":418958},"geometry":{"x":167981.12000000104,"y":2543287.5199999996}},{"attributes":{"ID":418984,"DIS_CODE":0,"TOWNNAME":"中西區","LI":"小西里","LIN":"2鄰","STREET":"永福路","SECT":"一段","MAREA":" ","LANE":"２４１巷","ALLEY":" ","HOUSE_NO":"９號","E_COORD97":167957.76999999999,"N_COORD97":2543274.9399999999,"ADDRESS":"永福路一段２４１巷９號","OBJECTID":418959},"geometry":{"x":167957.76999999955,"y":2543274.9400000032}},{"attributes":{"ID":418985,"DIS_CODE":0,"TOWNNAME":"中西區","LI":"小西里","LIN":"2鄰","STREET":"永福路","SECT":"一段","MAREA":" ","LANE":"２３３巷","ALLEY":" ","HOUSE_NO":"４號之１","E_COORD97":167899.19,"N_COORD97":2543274.8999999999,"ADDRESS":"永福路一段２３３巷４號之１","OBJECTID":418960},"geometry":{"x":167899.19000000134,"y":2543274.9000000004}},{"attributes":{"ID":418986,"DIS_CODE":0,"TOWNNAME":"中西區","LI":"福安里","LIN":"2鄰","STREET":"府前路","SECT":"一段","MAREA":" ","LANE":"３０４巷","ALLEY":" ","HOUSE_NO":"１１號","E_COORD97":167871.16,"N_COORD97":2543488.5899999999,"ADDRESS":"府前路一段３０４巷１１號","OBJECTID":418961},"geometry":{"x":167871.16000000015,"y":2543488.5900000017}},{"attributes":{"ID":418987,"DIS_CODE":0,"TOWNNAME":"中西區","LI":"五妃里","LIN":"2鄰","STREET":"南門路","SECT":" ","MAREA":" ","LANE":"２４５巷","ALLEY":" ","HOUSE_NO":"３號","E_COORD97":168420.14000000001,"N_COORD97":2542539.8700000001,"ADDRESS":"南門路２４５巷３號","OBJECTID":418962},"geometry":{"x":168420.13999999966,"y":2542539.870000001}},{"attributes":{"ID":418988,"DIS_CODE":0,"TOWNNAME":"中西區","LI":"大南里","LIN":"2鄰","STREET":"南門路","SECT":" ","MAREA":" ","LANE":"６８巷","ALLEY":" ","HOUSE_NO":"２１號","E_COORD97":168197.47,"N_COORD97":2542505.9500000002,"ADDRESS":"南門路６８巷２１號","OBJECTID":418963},"geometry":{"x":168197.46999999974,"y":2542505.9500000011}},{"attributes":{"ID":418989,"DIS_CODE":0,"TOWNNAME":"中西區","LI":"大南里","LIN":"2鄰","STREET":"南門路","SECT":" ","MAREA":" ","LANE":"６８巷","ALLEY":" ","HOUSE_NO":"２３號","E_COORD97":168183.03,"N_COORD97":2542508.0600000001,"ADDRESS":"南門路６８巷２３號","OBJECTID":418964},"geometry":{"x":168183.03000000119,"y":2542508.0600000005}},{"attributes":{"ID":418990,"DIS_CODE":0,"TOWNNAME":"中西區","LI":"大南里","LIN":"2鄰","STREET":"南門路","SECT":" ","MAREA":" ","LANE":"６８巷","ALLEY":" ","HOUSE_NO":"２５號","E_COORD97":168168.23999999999,"N_COORD97":2542507.3599999999,"ADDRESS":"南門路６８巷２５號","OBJECTID":418965},"geometry":{"x":168168.24000000115,"y":2542507.3600000013}},{"attributes":{"ID":418991,"DIS_CODE":0,"TOWNNAME":"中西區","LI":"大南里","LIN":"2鄰","STREET":"南門路","SECT":" ","MAREA":" ","LANE":"６８巷","ALLEY":" ","HOUSE_NO":"２７號","E_COORD97":168172.10999999999,"N_COORD97":2542499.6200000001,"ADDRESS":"南門路６８巷２７號","OBJECTID":418966},"geometry":{"x":168172.1099999994,"y":2542499.6200000029}},{"attributes":{"ID":418992,"DIS_CODE":0,"TOWNNAME":"新營區","LI":"角帶里","LIN":"1鄰","STREET":" ","SECT":" ","MAREA":"角帶圍","LANE":" ","ALLEY":" ","HOUSE_NO":"３號之３","E_COORD97":174689.22434099999,"N_COORD97":2576060.2763800002,"ADDRESS":"角帶圍３號之３","OBJECTID":418967},"geometry":{"x":174689.22434100136,"y":2576060.2763820011}},{"attributes":{"ID":418993,"DIS_CODE":0,"TOWNNAME":"安南區","LI":"溪心里","LIN":"2鄰","STREET":"海佃路","SECT":"二段","MAREA":" ","LANE":"５７３巷","ALLEY":" ","HOUSE_NO":"４號","E_COORD97":166571.59,"N_COORD97":2549373.2799999998,"ADDRESS":"海佃路二段５７３巷４號","OBJECTID":418968},"geometry":{"x":166571.59000000171,"y":2549373.2800000012}},{"attributes":{"ID":418994,"DIS_CODE":0,"TOWNNAME":"安南區","LI":"溪心里","LIN":"2鄰","STREET":"海佃路","SECT":"二段","MAREA":" ","LANE":"５７３巷","ALLEY":" ","HOUSE_NO":"５號","E_COORD97":166572.69,"N_COORD97":2549351.8199999998,"ADDRESS":"海佃路二段５７３巷５號","OBJECTID":418969},"geometry":{"x":166572.69000000041,"y":2549351.8199999984}},{"attributes":{"ID":418995,"DIS_CODE":0,"TOWNNAME":"安南區","LI":"溪心里","LIN":"2鄰","STREET":"海佃路","SECT":"二段","MAREA":" ","LANE":"５７３巷","ALLEY":" ","HOUSE_NO":"６號","E_COORD97":166570.03,"N_COORD97":2549369.8900000001,"ADDRESS":"海佃路二段５７３巷６號","OBJECTID":418970},"geometry":{"x":166570.03000000026,"y":2549369.8900000025}},{"attributes":{"ID":418996,"DIS_CODE":0,"TOWNNAME":"安南區","LI":"溪心里","LIN":"2鄰","STREET":"海佃路","SECT":"二段","MAREA":" ","LANE":"５７３巷","ALLEY":" ","HOUSE_NO":"８號","E_COORD97":166566.23999999999,"N_COORD97":2549367.9399999999,"ADDRESS":"海佃路二段５７３巷８號","OBJECTID":418971},"geometry":{"x":166566.24000000115,"y":2549367.9400000013}},{"attributes":{"ID":418997,"DIS_CODE":0,"TOWNNAME":"安南區","LI":"溪心里","LIN":"2鄰","STREET":"海佃路","SECT":"二段","MAREA":" ","LANE":"５７３巷","ALLEY":" ","HOUSE_NO":"９號","E_COORD97":166561.45999999999,"N_COORD97":2549340.4300000002,"ADDRESS":"海佃路二段５７３巷９號","OBJECTID":418972},"geometry":{"x":166561.46000000089,"y":2549340.4300000034}},{"attributes":{"ID":418998,"DIS_CODE":0,"TOWNNAME":"安南區","LI":"溪心里","LIN":"2鄰","STREET":"海環街","SECT":" ","MAREA":" ","LANE":"７１５巷","ALLEY":" ","HOUSE_NO":"２６號","E_COORD97":166502.87,"N_COORD97":2549383.21,"ADDRESS":"海環街７１５巷２６號","OBJECTID":418973},"geometry":{"x":166502.87000000104,"y":2549383.2100000009}},{"attributes":{"ID":418999,"DIS_CODE":0,"TOWNNAME":"安南區","LI":"溪心里","LIN":"2鄰","STREET":"海環街","SECT":" ","MAREA":" ","LANE":"７１５巷","ALLEY":" ","HOUSE_NO":"２８號","E_COORD97":166499.26000000001,"N_COORD97":2549385.6800000002,"ADDRESS":"海環街７１５巷２８號","OBJECTID":418974},"geometry":{"x":166499.26000000164,"y":2549385.6799999997}},{"attributes":{"ID":419000,"DIS_CODE":0,"TOWNNAME":"安南區","LI":"溪心里","LIN":"2鄰","STREET":"海環街","SECT":" ","MAREA":" ","LANE":"７１５巷","ALLEY":" ","HOUSE_NO":"３０號","E_COORD97":166496.22,"N_COORD97":2549388.3799999999,"ADDRESS":"海環街７１５巷３０號","OBJECTID":418975},"geometry":{"x":166496.22000000067,"y":2549388.3800000008}},{"attributes":{"ID":419001,"DIS_CODE":0,"TOWNNAME":"安南區","LI":"溪心里","LIN":"2鄰","STREET":"海環街","SECT":" ","MAREA":" ","LANE":"７１５巷","ALLEY":" ","HOUSE_NO":"３２號","E_COORD97":166493.63,"N_COORD97":2549392.3199999998,"ADDRESS":"海環街７１５巷３２號","OBJECTID":418976},"geometry":{"x":166493.63000000082,"y":2549392.3200000003}},{"attributes":{"ID":419002,"DIS_CODE":0,"TOWNNAME":"安南區","LI":"\u25A0南里","LIN":"2鄰","STREET":"安昌街","SECT":" ","MAREA":" ","LANE":"１７９巷","ALLEY":" ","HOUSE_NO":"５１號","E_COORD97":169972.88,"N_COORD97":2552446.96,"ADDRESS":"安昌街１７９巷５１號","OBJECTID":418977},"geometry":{"x":169972.87999999989,"y":2552446.959999999}},{"attributes":{"ID":419003,"DIS_CODE":0,"TOWNNAME":"南區","LI":"國宅里","LIN":"2鄰","STREET":"金華路","SECT":"二段","MAREA":" ","LANE":"３巷","ALLEY":" ","HOUSE_NO":"２號","E_COORD97":167034.34,"N_COORD97":2541816.2599999998,"ADDRESS":"金華路二段３巷２號","OBJECTID":418978},"geometry":{"x":167034.34000000171,"y":2541816.2600000016}},{"attributes":{"ID":419004,"DIS_CODE":0,"TOWNNAME":"南區","LI":"國宅里","LIN":"2鄰","STREET":"金華路","SECT":"二段","MAREA":" ","LANE":"３巷","ALLEY":" ","HOUSE_NO":"４號","E_COORD97":167022.72,"N_COORD97":2541817.3500000001,"ADDRESS":"金華路二段３巷４號","OBJECTID":418979},"geometry":{"x":167022.71999999974,"y":2541817.3499999996}},{"attributes":{"ID":419005,"DIS_CODE":0,"TOWNNAME":"南區","LI":"國宅里","LIN":"2鄰","STREET":"金華路","SECT":"二段","MAREA":" ","LANE":"３巷","ALLEY":" ","HOUSE_NO":"６號","E_COORD97":167010.92999999999,"N_COORD97":2541818.4399999999,"ADDRESS":"金華路二段３巷６號","OBJECTID":418980},"geometry":{"x":167010.9299999997,"y":2541818.4400000013}},{"attributes":{"ID":419006,"DIS_CODE":0,"TOWNNAME":"南區","LI":"國宅里","LIN":"2鄰","STREET":"金華路","SECT":"二段","MAREA":" ","LANE":"３巷","ALLEY":" ","HOUSE_NO":"８號","E_COORD97":166999.13,"N_COORD97":2541818.98,"ADDRESS":"金華路二段３巷８號","OBJECTID":418981},"geometry":{"x":166999.13000000082,"y":2541818.9800000023}},{"attributes":{"ID":419007,"DIS_CODE":0,"TOWNNAME":"南區","LI":"國宅里","LIN":"2鄰","STREET":"金華路","SECT":"二段","MAREA":" ","LANE":"３巷","ALLEY":" ","HOUSE_NO":"１０號","E_COORD97":166979.89000000001,"N_COORD97":2541820.25,"ADDRESS":"金華路二段３巷１０號","OBJECTID":418982},"geometry":{"x":166979.8900000006,"y":2541820.2500000019}},{"attributes":{"ID":419008,"DIS_CODE":0,"TOWNNAME":"南區","LI":"國宅里","LIN":"2鄰","STREET":"金華路","SECT":"二段","MAREA":" ","LANE":"３巷","ALLEY":" ","HOUSE_NO":"１２號","E_COORD97":166968.10000000001,"N_COORD97":2541821.8799999999,"ADDRESS":"金華路二段３巷１２號","OBJECTID":418983},"geometry":{"x":166968.10000000056,"y":2541821.8800000008}},{"attributes":{"ID":419009,"DIS_CODE":0,"TOWNNAME":"南區","LI":"國宅里","LIN":"2鄰","STREET":"金華路","SECT":"二段","MAREA":" ","LANE":"３巷","ALLEY":" ","HOUSE_NO":"１４號","E_COORD97":166957.75,"N_COORD97":2541822.4199999999,"ADDRESS":"金華路二段３巷１４號","OBJECTID":418984},"geometry":{"x":166957.75000000093,"y":2541822.4200000018}},{"attributes":{"ID":419010,"DIS_CODE":0,"TOWNNAME":"南區","LI":"國宅里","LIN":"2鄰","STREET":"金華路","SECT":"二段","MAREA":" ","LANE":"３巷","ALLEY":" ","HOUSE_NO":"１６號","E_COORD97":166944.87,"N_COORD97":2541823.1499999999,"ADDRESS":"金華路二段３巷１６號","OBJECTID":418985},"geometry":{"x":166944.87000000104,"y":2541823.1500000041}},{"attributes":{"ID":419011,"DIS_CODE":0,"TOWNNAME":"南區","LI":"國宅里","LIN":"2鄰","STREET":"金華路","SECT":"二段","MAREA":" ","LANE":"９巷","ALLEY":" ","HOUSE_NO":"１號","E_COORD97":167034.88,"N_COORD97":2541828.3999999999,"ADDRESS":"金華路二段９巷１號","OBJECTID":418986},"geometry":{"x":167034.88000000082,"y":2541828.4000000041}},{"attributes":{"ID":419012,"DIS_CODE":0,"TOWNNAME":"南區","LI":"國宅里","LIN":"2鄰","STREET":"金華路","SECT":"二段","MAREA":" ","LANE":"９巷","ALLEY":" ","HOUSE_NO":"３號","E_COORD97":167022.89999999999,"N_COORD97":2541829.8500000001,"ADDRESS":"金華路二段９巷３號","OBJECTID":418987},"geometry":{"x":167022.9000000013,"y":2541829.8499999996}},{"attributes":{"ID":419013,"DIS_CODE":0,"TOWNNAME":"南區","LI":"國宅里","LIN":"2鄰","STREET":"金華路","SECT":"二段","MAREA":" ","LANE":"９巷","ALLEY":" ","HOUSE_NO":"５號","E_COORD97":167012.38,"N_COORD97":2541830.5800000001,"ADDRESS":"金華路二段９巷５號","OBJECTID":418988},"geometry":{"x":167012.38000000082,"y":2541830.5800000019}},{"attributes":{"ID":419014,"DIS_CODE":0,"TOWNNAME":"南區","LI":"國宅里","LIN":"2鄰","STREET":"金華路","SECT":"二段","MAREA":" ","LANE":"９巷","ALLEY":" ","HOUSE_NO":"７號","E_COORD97":167000.95000000001,"N_COORD97":2541831.8500000001,"ADDRESS":"金華路二段９巷７號","OBJECTID":418989},"geometry":{"x":167000.95000000019,"y":2541831.8500000015}},{"attributes":{"ID":419015,"DIS_CODE":0,"TOWNNAME":"南區","LI":"國宅里","LIN":"2鄰","STREET":"金華路","SECT":"二段","MAREA":" ","LANE":"９巷","ALLEY":" ","HOUSE_NO":"９號","E_COORD97":166984.79000000001,"N_COORD97":2541835.6499999999,"ADDRESS":"金華路二段９巷９號","OBJECTID":418990},"geometry":{"x":166984.79000000097,"y":2541835.6500000004}},{"attributes":{"ID":419016,"DIS_CODE":0,"TOWNNAME":"南區","LI":"國宅里","LIN":"2鄰","STREET":"金華路","SECT":"二段","MAREA":" ","LANE":"９巷","ALLEY":" ","HOUSE_NO":"１１號","E_COORD97":166978.07999999999,"N_COORD97":2541836.2000000002,"ADDRESS":"金華路二段９巷１１號","OBJECTID":418991},"geometry":{"x":166978.08000000007,"y":2541836.2000000011}},{"attributes":{"ID":419017,"DIS_CODE":0,"TOWNNAME":"南區","LI":"國宅里","LIN":"2鄰","STREET":"金華路","SECT":"二段","MAREA":" ","LANE":"９巷","ALLEY":" ","HOUSE_NO":"１３號","E_COORD97":166973,"N_COORD97":2541836.5600000001,"ADDRESS":"金華路二段９巷１３號","OBJECTID":418992},"geometry":{"x":166973.00000000093,"y":2541836.5600000005}},{"attributes":{"ID":419018,"DIS_CODE":0,"TOWNNAME":"南區","LI":"國宅里","LIN":"2鄰","STREET":"金華路","SECT":"二段","MAREA":" ","LANE":"９巷","ALLEY":" ","HOUSE_NO":"１５號","E_COORD97":166968.82000000001,"N_COORD97":2541836.5600000001,"ADDRESS":"金華路二段９巷１５號","OBJECTID":418993},"geometry":{"x":166968.82000000216,"y":2541836.5600000005}},{"attributes":{"ID":419019,"DIS_CODE":0,"TOWNNAME":"南區","LI":"國宅里","LIN":"2鄰","STREET":"金華路","SECT":"二段","MAREA":" ","LANE":"９巷","ALLEY":" ","HOUSE_NO":"１７號","E_COORD97":166963.20000000001,"N_COORD97":2541837.2799999998,"ADDRESS":"金華路二段９巷１７號","OBJECTID":418994},"geometry":{"x":166963.20000000112,"y":2541837.2799999993}},{"attributes":{"ID":419020,"DIS_CODE":0,"TOWNNAME":"南區","LI":"國宅里","LIN":"2鄰","STREET":"金華路","SECT":"二段","MAREA":" ","LANE":"９巷","ALLEY":" ","HOUSE_NO":"１９號","E_COORD97":166957.20999999999,"N_COORD97":2541837.6499999999,"ADDRESS":"金華路二段９巷１９號","OBJECTID":418995},"geometry":{"x":166957.20999999996,"y":2541837.6500000022}},{"attributes":{"ID":419021,"DIS_CODE":0,"TOWNNAME":"南區","LI":"國宅里","LIN":"2鄰","STREET":"金華路","SECT":"二段","MAREA":" ","LANE":"９巷","ALLEY":" ","HOUSE_NO":"２１號","E_COORD97":166952.13,"N_COORD97":2541838.1899999999,"ADDRESS":"金華路二段９巷２１號","OBJECTID":418996},"geometry":{"x":166952.12999999989,"y":2541838.1899999995}},{"attributes":{"ID":419022,"DIS_CODE":0,"TOWNNAME":"南區","LI":"國宅里","LIN":"2鄰","STREET":"金華路","SECT":"二段","MAREA":" ","LANE":"９巷","ALLEY":" ","HOUSE_NO":"２３號","E_COORD97":166947.76999999999,"N_COORD97":2541838.1899999999,"ADDRESS":"金華路二段９巷２３號","OBJECTID":418997},"geometry":{"x":166947.76999999955,"y":2541838.1899999995}},{"attributes":{"ID":419023,"DIS_CODE":0,"TOWNNAME":"南區","LI":"國宅里","LIN":"2鄰","STREET":"金華路","SECT":"二段","MAREA":" ","LANE":"９巷","ALLEY":" ","HOUSE_NO":"２５號","E_COORD97":166942.87,"N_COORD97":2541839.46,"ADDRESS":"金華路二段９巷２５號","OBJECTID":418998},"geometry":{"x":166942.87000000197,"y":2541839.4600000028}},{"attributes":{"ID":419024,"DIS_CODE":0,"TOWNNAME":"南區","LI":"喜北里","LIN":"2鄰","STREET":"喜樹路","SECT":" ","MAREA":" ","LANE":"４０巷","ALLEY":" ","HOUSE_NO":"１號","E_COORD97":165851.54000000001,"N_COORD97":2538580.8100000001,"ADDRESS":"喜樹路４０巷１號","OBJECTID":418999},"geometry":{"x":165851.53999999911,"y":2538580.8100000005}},{"attributes":{"ID":419025,"DIS_CODE":0,"TOWNNAME":"南區","LI":"喜北里","LIN":"2鄰","STREET":"喜樹路","SECT":" ","MAREA":" ","LANE":"４０巷","ALLEY":" ","HOUSE_NO":"３號","E_COORD97":165845.60000000001,"N_COORD97":2538581.1800000002,"ADDRESS":"喜樹路４０巷３號","OBJECTID":419000},"geometry":{"x":165845.59999999963,"y":2538581.1800000034}}]}