{"displayFieldName":"TOWNNAME","fieldAliases":{"ID":"ID","DIS_CODE":"DIS_CODE","TOWNNAME":"TOWNNAME","LI":"LI","LIN":"LIN","STREET":"STREET","SECT":"SECT","MAREA":"MAREA","LANE":"LANE","ALLEY":"ALLEY","HOUSE_NO":"HOUSE_NO","E_COORD97":"E_COORD97","N_COORD97":"N_COORD97","ADDRESS":"ADDRESS","OBJECTID":"OBJECTID"},"geometryType":"esriGeometryPoint","spatialReference":{"wkid":102443,"latestWkid":3826},"fields":[{"name":"ID","type":"esriFieldTypeDouble","alias":"ID"},{"name":"DIS_CODE","type":"esriFieldTypeInteger","alias":"DIS_CODE"},{"name":"TOWNNAME","type":"esriFieldTypeString","alias":"TOWNNAME","length":8},{"name":"LI","type":"esriFieldTypeString","alias":"LI","length":8},{"name":"LIN","type":"esriFieldTypeString","alias":"LIN","length":12},{"name":"STREET","type":"esriFieldTypeString","alias":"STREET","length":20},{"name":"SECT","type":"esriFieldTypeString","alias":"SECT","length":8},{"name":"MAREA","type":"esriFieldTypeString","alias":"MAREA","length":12},{"name":"LANE","type":"esriFieldTypeString","alias":"LANE","length":10},{"name":"ALLEY","type":"esriFieldTypeString","alias":"ALLEY","length":10},{"name":"HOUSE_NO","type":"esriFieldTypeString","alias":"HOUSE_NO","length":20},{"name":"E_COORD97","type":"esriFieldTypeDouble","alias":"E_COORD97"},{"name":"N_COORD97","type":"esriFieldTypeDouble","alias":"N_COORD97"},{"name":"ADDRESS","type":"esriFieldTypeString","alias":"ADDRESS","length":50},{"name":"OBJECTID","type":"esriFieldTypeOID","alias":"OBJECTID"}],"features":[{"attributes":{"ID":562428,"DIS_CODE":0,"TOWNNAME":"北區","LI":"安民里","LIN":"9鄰","STREET":"成功路","SECT":" ","MAREA":" ","LANE":" ","ALLEY":" ","HOUSE_NO":"３８８號七樓之７","E_COORD97":167989.98999999999,"N_COORD97":2544544.8100000001,"ADDRESS":"成功路３８８號七樓之７","OBJECTID":562401},"geometry":{"x":167989.99000000115,"y":2544544.8100000042}},{"attributes":{"ID":562429,"DIS_CODE":0,"TOWNNAME":"北區","LI":"安民里","LIN":"9鄰","STREET":"成功路","SECT":" ","MAREA":" ","LANE":" ","ALLEY":" ","HOUSE_NO":"３８８號七樓之８","E_COORD97":167989.98999999999,"N_COORD97":2544544.8100000001,"ADDRESS":"成功路３８８號七樓之８","OBJECTID":562402},"geometry":{"x":167989.99000000115,"y":2544544.8100000042}},{"attributes":{"ID":562430,"DIS_CODE":0,"TOWNNAME":"北區","LI":"安民里","LIN":"9鄰","STREET":"成功路","SECT":" ","MAREA":" ","LANE":" ","ALLEY":" ","HOUSE_NO":"３８８號七樓之９","E_COORD97":167989.98999999999,"N_COORD97":2544544.8100000001,"ADDRESS":"成功路３８８號七樓之９","OBJECTID":562403},"geometry":{"x":167989.99000000115,"y":2544544.8100000042}},{"attributes":{"ID":562431,"DIS_CODE":0,"TOWNNAME":"仁德區","LI":"仁德里","LIN":"3鄰","STREET":"仁中七街","SECT":" ","MAREA":" ","LANE":" ","ALLEY":" ","HOUSE_NO":"１０號","E_COORD97":173285.51999999999,"N_COORD97":2540319.0099999998,"ADDRESS":"仁中七街１０號","OBJECTID":562404},"geometry":{"x":173285.52000000048,"y":2540319.0100000016}},{"attributes":{"ID":562432,"DIS_CODE":0,"TOWNNAME":"仁德區","LI":"仁德里","LIN":"15鄰","STREET":"仁德一街","SECT":" ","MAREA":" ","LANE":" ","ALLEY":" ","HOUSE_NO":"２５號","E_COORD97":173188.29000000001,"N_COORD97":2541239.27,"ADDRESS":"仁德一街２５號","OBJECTID":562405},"geometry":{"x":173188.29000000004,"y":2541239.2700000014}},{"attributes":{"ID":562433,"DIS_CODE":0,"TOWNNAME":"北區","LI":"安民里","LIN":"9鄰","STREET":"成功路","SECT":" ","MAREA":" ","LANE":" ","ALLEY":" ","HOUSE_NO":"３８８號九樓之１","E_COORD97":167989.98999999999,"N_COORD97":2544544.8100000001,"ADDRESS":"成功路３８８號九樓之１","OBJECTID":562406},"geometry":{"x":167989.99000000115,"y":2544544.8100000042}},{"attributes":{"ID":562434,"DIS_CODE":0,"TOWNNAME":"北區","LI":"安民里","LIN":"9鄰","STREET":"成功路","SECT":" ","MAREA":" ","LANE":" ","ALLEY":" ","HOUSE_NO":"３８８號九樓之１０","E_COORD97":167989.98999999999,"N_COORD97":2544544.8100000001,"ADDRESS":"成功路３８８號九樓之１０","OBJECTID":562407},"geometry":{"x":167989.99000000115,"y":2544544.8100000042}},{"attributes":{"ID":562435,"DIS_CODE":0,"TOWNNAME":"北區","LI":"安民里","LIN":"9鄰","STREET":"成功路","SECT":" ","MAREA":" ","LANE":" ","ALLEY":" ","HOUSE_NO":"３８８號九樓之１１","E_COORD97":167989.98999999999,"N_COORD97":2544544.8100000001,"ADDRESS":"成功路３８８號九樓之１１","OBJECTID":562408},"geometry":{"x":167989.99000000115,"y":2544544.8100000042}},{"attributes":{"ID":562436,"DIS_CODE":0,"TOWNNAME":"北區","LI":"安民里","LIN":"9鄰","STREET":"成功路","SECT":" ","MAREA":" ","LANE":" ","ALLEY":" ","HOUSE_NO":"３８８號九樓之１２","E_COORD97":167989.98999999999,"N_COORD97":2544544.8100000001,"ADDRESS":"成功路３８８號九樓之１２","OBJECTID":562409},"geometry":{"x":167989.99000000115,"y":2544544.8100000042}},{"attributes":{"ID":562437,"DIS_CODE":0,"TOWNNAME":"北區","LI":"安民里","LIN":"9鄰","STREET":"成功路","SECT":" ","MAREA":" ","LANE":" ","ALLEY":" ","HOUSE_NO":"３８８號九樓之１３","E_COORD97":167989.98999999999,"N_COORD97":2544544.8100000001,"ADDRESS":"成功路３８８號九樓之１３","OBJECTID":562410},"geometry":{"x":167989.99000000115,"y":2544544.8100000042}},{"attributes":{"ID":562438,"DIS_CODE":0,"TOWNNAME":"北區","LI":"安民里","LIN":"9鄰","STREET":"成功路","SECT":" ","MAREA":" ","LANE":" ","ALLEY":" ","HOUSE_NO":"３８８號九樓之１４","E_COORD97":167989.98999999999,"N_COORD97":2544544.8100000001,"ADDRESS":"成功路３８８號九樓之１４","OBJECTID":562411},"geometry":{"x":167989.99000000115,"y":2544544.8100000042}},{"attributes":{"ID":562439,"DIS_CODE":0,"TOWNNAME":"北區","LI":"安民里","LIN":"9鄰","STREET":"成功路","SECT":" ","MAREA":" ","LANE":" ","ALLEY":" ","HOUSE_NO":"３８８號九樓之２","E_COORD97":167989.98999999999,"N_COORD97":2544544.8100000001,"ADDRESS":"成功路３８８號九樓之２","OBJECTID":562412},"geometry":{"x":167989.99000000115,"y":2544544.8100000042}},{"attributes":{"ID":562440,"DIS_CODE":0,"TOWNNAME":"北區","LI":"安民里","LIN":"9鄰","STREET":"成功路","SECT":" ","MAREA":" ","LANE":" ","ALLEY":" ","HOUSE_NO":"３８８號九樓之３","E_COORD97":167989.98999999999,"N_COORD97":2544544.8100000001,"ADDRESS":"成功路３８８號九樓之３","OBJECTID":562413},"geometry":{"x":167989.99000000115,"y":2544544.8100000042}},{"attributes":{"ID":562441,"DIS_CODE":0,"TOWNNAME":"北區","LI":"安民里","LIN":"9鄰","STREET":"成功路","SECT":" ","MAREA":" ","LANE":" ","ALLEY":" ","HOUSE_NO":"３８８號九樓之４","E_COORD97":167989.98999999999,"N_COORD97":2544544.8100000001,"ADDRESS":"成功路３８８號九樓之４","OBJECTID":562414},"geometry":{"x":167989.99000000115,"y":2544544.8100000042}},{"attributes":{"ID":562442,"DIS_CODE":0,"TOWNNAME":"北區","LI":"安民里","LIN":"9鄰","STREET":"成功路","SECT":" ","MAREA":" ","LANE":" ","ALLEY":" ","HOUSE_NO":"３８８號九樓之５","E_COORD97":167989.98999999999,"N_COORD97":2544544.8100000001,"ADDRESS":"成功路３８８號九樓之５","OBJECTID":562415},"geometry":{"x":167989.99000000115,"y":2544544.8100000042}},{"attributes":{"ID":562443,"DIS_CODE":0,"TOWNNAME":"北區","LI":"安民里","LIN":"9鄰","STREET":"成功路","SECT":" ","MAREA":" ","LANE":" ","ALLEY":" ","HOUSE_NO":"３８８號九樓之６","E_COORD97":167989.98999999999,"N_COORD97":2544544.8100000001,"ADDRESS":"成功路３８８號九樓之６","OBJECTID":562416},"geometry":{"x":167989.99000000115,"y":2544544.8100000042}},{"attributes":{"ID":562444,"DIS_CODE":0,"TOWNNAME":"北區","LI":"安民里","LIN":"9鄰","STREET":"成功路","SECT":" ","MAREA":" ","LANE":" ","ALLEY":" ","HOUSE_NO":"３８８號九樓之７","E_COORD97":167989.98999999999,"N_COORD97":2544544.8100000001,"ADDRESS":"成功路３８８號九樓之７","OBJECTID":562417},"geometry":{"x":167989.99000000115,"y":2544544.8100000042}},{"attributes":{"ID":562445,"DIS_CODE":0,"TOWNNAME":"北區","LI":"安民里","LIN":"9鄰","STREET":"成功路","SECT":" ","MAREA":" ","LANE":" ","ALLEY":" ","HOUSE_NO":"３８８號九樓之８","E_COORD97":167989.98999999999,"N_COORD97":2544544.8100000001,"ADDRESS":"成功路３８８號九樓之８","OBJECTID":562418},"geometry":{"x":167989.99000000115,"y":2544544.8100000042}},{"attributes":{"ID":562446,"DIS_CODE":0,"TOWNNAME":"北區","LI":"安民里","LIN":"9鄰","STREET":"成功路","SECT":" ","MAREA":" ","LANE":" ","ALLEY":" ","HOUSE_NO":"３８８號九樓之９","E_COORD97":167989.98999999999,"N_COORD97":2544544.8100000001,"ADDRESS":"成功路３８８號九樓之９","OBJECTID":562419},"geometry":{"x":167989.99000000115,"y":2544544.8100000042}},{"attributes":{"ID":562447,"DIS_CODE":0,"TOWNNAME":"北區","LI":"安民里","LIN":"9鄰","STREET":"成功路","SECT":" ","MAREA":" ","LANE":" ","ALLEY":" ","HOUSE_NO":"３８８號二樓之１０","E_COORD97":167989.98999999999,"N_COORD97":2544544.8100000001,"ADDRESS":"成功路３８８號二樓之１０","OBJECTID":562420},"geometry":{"x":167989.99000000115,"y":2544544.8100000042}},{"attributes":{"ID":562448,"DIS_CODE":0,"TOWNNAME":"北區","LI":"安民里","LIN":"9鄰","STREET":"成功路","SECT":" ","MAREA":" ","LANE":" ","ALLEY":" ","HOUSE_NO":"３８８號二樓之２","E_COORD97":167989.98999999999,"N_COORD97":2544544.8100000001,"ADDRESS":"成功路３８８號二樓之２","OBJECTID":562421},"geometry":{"x":167989.99000000115,"y":2544544.8100000042}},{"attributes":{"ID":562449,"DIS_CODE":0,"TOWNNAME":"北區","LI":"安民里","LIN":"9鄰","STREET":"成功路","SECT":" ","MAREA":" ","LANE":" ","ALLEY":" ","HOUSE_NO":"３８８號二樓之３","E_COORD97":167989.98999999999,"N_COORD97":2544544.8100000001,"ADDRESS":"成功路３８８號二樓之３","OBJECTID":562422},"geometry":{"x":167989.99000000115,"y":2544544.8100000042}},{"attributes":{"ID":562450,"DIS_CODE":0,"TOWNNAME":"北區","LI":"安民里","LIN":"9鄰","STREET":"成功路","SECT":" ","MAREA":" ","LANE":" ","ALLEY":" ","HOUSE_NO":"３８８號二樓之４","E_COORD97":167989.98999999999,"N_COORD97":2544544.8100000001,"ADDRESS":"成功路３８８號二樓之４","OBJECTID":562423},"geometry":{"x":167989.99000000115,"y":2544544.8100000042}},{"attributes":{"ID":562451,"DIS_CODE":0,"TOWNNAME":"北區","LI":"安民里","LIN":"9鄰","STREET":"成功路","SECT":" ","MAREA":" ","LANE":" ","ALLEY":" ","HOUSE_NO":"３８８號二樓之５","E_COORD97":167989.98999999999,"N_COORD97":2544544.8100000001,"ADDRESS":"成功路３８８號二樓之５","OBJECTID":562424},"geometry":{"x":167989.99000000115,"y":2544544.8100000042}},{"attributes":{"ID":562452,"DIS_CODE":0,"TOWNNAME":"北區","LI":"安民里","LIN":"9鄰","STREET":"成功路","SECT":" ","MAREA":" ","LANE":" ","ALLEY":" ","HOUSE_NO":"３８８號二樓之６","E_COORD97":167989.98999999999,"N_COORD97":2544544.8100000001,"ADDRESS":"成功路３８８號二樓之６","OBJECTID":562425},"geometry":{"x":167989.99000000115,"y":2544544.8100000042}},{"attributes":{"ID":562453,"DIS_CODE":0,"TOWNNAME":"北區","LI":"安民里","LIN":"9鄰","STREET":"成功路","SECT":" ","MAREA":" ","LANE":" ","ALLEY":" ","HOUSE_NO":"３８８號二樓之７","E_COORD97":167989.98999999999,"N_COORD97":2544544.8100000001,"ADDRESS":"成功路３８８號二樓之７","OBJECTID":562426},"geometry":{"x":167989.99000000115,"y":2544544.8100000042}},{"attributes":{"ID":562454,"DIS_CODE":0,"TOWNNAME":"北區","LI":"安民里","LIN":"9鄰","STREET":"成功路","SECT":" ","MAREA":" ","LANE":" ","ALLEY":" ","HOUSE_NO":"３８８號二樓之８","E_COORD97":167989.98999999999,"N_COORD97":2544544.8100000001,"ADDRESS":"成功路３８８號二樓之８","OBJECTID":562427},"geometry":{"x":167989.99000000115,"y":2544544.8100000042}},{"attributes":{"ID":562455,"DIS_CODE":0,"TOWNNAME":"北區","LI":"安民里","LIN":"9鄰","STREET":"成功路","SECT":" ","MAREA":" ","LANE":" ","ALLEY":" ","HOUSE_NO":"３８８號二樓之９","E_COORD97":167989.98999999999,"N_COORD97":2544544.8100000001,"ADDRESS":"成功路３８８號二樓之９","OBJECTID":562428},"geometry":{"x":167989.99000000115,"y":2544544.8100000042}},{"attributes":{"ID":562456,"DIS_CODE":0,"TOWNNAME":"北區","LI":"安民里","LIN":"9鄰","STREET":"成功路","SECT":" ","MAREA":" ","LANE":" ","ALLEY":" ","HOUSE_NO":"３８８號八樓之１","E_COORD97":167989.98999999999,"N_COORD97":2544544.8100000001,"ADDRESS":"成功路３８８號八樓之１","OBJECTID":562429},"geometry":{"x":167989.99000000115,"y":2544544.8100000042}},{"attributes":{"ID":562457,"DIS_CODE":0,"TOWNNAME":"北區","LI":"安民里","LIN":"9鄰","STREET":"成功路","SECT":" ","MAREA":" ","LANE":" ","ALLEY":" ","HOUSE_NO":"３８８號八樓之１０","E_COORD97":167989.98999999999,"N_COORD97":2544544.8100000001,"ADDRESS":"成功路３８８號八樓之１０","OBJECTID":562430},"geometry":{"x":167989.99000000115,"y":2544544.8100000042}},{"attributes":{"ID":562458,"DIS_CODE":0,"TOWNNAME":"東區","LI":"崇成里","LIN":"9鄰","STREET":"崇德十三街","SECT":" ","MAREA":" ","LANE":" ","ALLEY":" ","HOUSE_NO":"５４號","E_COORD97":170987.70000000001,"N_COORD97":2541275.5600000001,"ADDRESS":"崇德十三街５４號","OBJECTID":562431},"geometry":{"x":170987.70000000112,"y":2541275.5600000024}},{"attributes":{"ID":562459,"DIS_CODE":0,"TOWNNAME":"北區","LI":"安民里","LIN":"9鄰","STREET":"成功路","SECT":" ","MAREA":" ","LANE":" ","ALLEY":" ","HOUSE_NO":"３８８號八樓之１１","E_COORD97":167989.98999999999,"N_COORD97":2544544.8100000001,"ADDRESS":"成功路３８８號八樓之１１","OBJECTID":562432},"geometry":{"x":167989.99000000115,"y":2544544.8100000042}},{"attributes":{"ID":562460,"DIS_CODE":0,"TOWNNAME":"北區","LI":"安民里","LIN":"9鄰","STREET":"成功路","SECT":" ","MAREA":" ","LANE":" ","ALLEY":" ","HOUSE_NO":"３８８號八樓之２","E_COORD97":167989.98999999999,"N_COORD97":2544544.8100000001,"ADDRESS":"成功路３８８號八樓之２","OBJECTID":562433},"geometry":{"x":167989.99000000115,"y":2544544.8100000042}},{"attributes":{"ID":562461,"DIS_CODE":0,"TOWNNAME":"北區","LI":"安民里","LIN":"9鄰","STREET":"成功路","SECT":" ","MAREA":" ","LANE":" ","ALLEY":" ","HOUSE_NO":"３８８號八樓之３","E_COORD97":167989.98999999999,"N_COORD97":2544544.8100000001,"ADDRESS":"成功路３８８號八樓之３","OBJECTID":562434},"geometry":{"x":167989.99000000115,"y":2544544.8100000042}},{"attributes":{"ID":562462,"DIS_CODE":0,"TOWNNAME":"北區","LI":"安民里","LIN":"9鄰","STREET":"成功路","SECT":" ","MAREA":" ","LANE":" ","ALLEY":" ","HOUSE_NO":"３８８號八樓之４","E_COORD97":167989.98999999999,"N_COORD97":2544544.8100000001,"ADDRESS":"成功路３８８號八樓之４","OBJECTID":562435},"geometry":{"x":167989.99000000115,"y":2544544.8100000042}},{"attributes":{"ID":562463,"DIS_CODE":0,"TOWNNAME":"北區","LI":"安民里","LIN":"9鄰","STREET":"成功路","SECT":" ","MAREA":" ","LANE":" ","ALLEY":" ","HOUSE_NO":"３８８號八樓之５","E_COORD97":167989.98999999999,"N_COORD97":2544544.8100000001,"ADDRESS":"成功路３８８號八樓之５","OBJECTID":562436},"geometry":{"x":167989.99000000115,"y":2544544.8100000042}},{"attributes":{"ID":562464,"DIS_CODE":0,"TOWNNAME":"仁德區","LI":"仁義里","LIN":"25鄰","STREET":"中山路","SECT":" ","MAREA":" ","LANE":" ","ALLEY":" ","HOUSE_NO":"４９８號","E_COORD97":173505.95999999999,"N_COORD97":2541320.9900000002,"ADDRESS":"中山路４９８號","OBJECTID":562437},"geometry":{"x":173505.96000000183,"y":2541320.9900000002}},{"attributes":{"ID":562465,"DIS_CODE":0,"TOWNNAME":"北區","LI":"安民里","LIN":"9鄰","STREET":"成功路","SECT":" ","MAREA":" ","LANE":" ","ALLEY":" ","HOUSE_NO":"３８８號八樓之６","E_COORD97":167989.98999999999,"N_COORD97":2544544.8100000001,"ADDRESS":"成功路３８８號八樓之６","OBJECTID":562438},"geometry":{"x":167989.99000000115,"y":2544544.8100000042}},{"attributes":{"ID":562466,"DIS_CODE":0,"TOWNNAME":"北區","LI":"安民里","LIN":"9鄰","STREET":"成功路","SECT":" ","MAREA":" ","LANE":" ","ALLEY":" ","HOUSE_NO":"３８８號八樓之７","E_COORD97":167989.98999999999,"N_COORD97":2544544.8100000001,"ADDRESS":"成功路３８８號八樓之７","OBJECTID":562439},"geometry":{"x":167989.99000000115,"y":2544544.8100000042}},{"attributes":{"ID":562467,"DIS_CODE":0,"TOWNNAME":"北區","LI":"安民里","LIN":"9鄰","STREET":"成功路","SECT":" ","MAREA":" ","LANE":" ","ALLEY":" ","HOUSE_NO":"３８８號八樓之８","E_COORD97":167989.98999999999,"N_COORD97":2544544.8100000001,"ADDRESS":"成功路３８８號八樓之８","OBJECTID":562440},"geometry":{"x":167989.99000000115,"y":2544544.8100000042}},{"attributes":{"ID":562468,"DIS_CODE":0,"TOWNNAME":"北區","LI":"安民里","LIN":"9鄰","STREET":"成功路","SECT":" ","MAREA":" ","LANE":" ","ALLEY":" ","HOUSE_NO":"３８８號八樓之９","E_COORD97":167989.98999999999,"N_COORD97":2544544.8100000001,"ADDRESS":"成功路３８８號八樓之９","OBJECTID":562441},"geometry":{"x":167989.99000000115,"y":2544544.8100000042}},{"attributes":{"ID":562469,"DIS_CODE":0,"TOWNNAME":"東區","LI":"東門里","LIN":"20鄰","STREET":"勝利路","SECT":" ","MAREA":" ","LANE":" ","ALLEY":" ","HOUSE_NO":"７號","E_COORD97":169756.09,"N_COORD97":2543123.3900000001,"ADDRESS":"勝利路７號","OBJECTID":562442},"geometry":{"x":169756.08999999985,"y":2543123.3900000006}},{"attributes":{"ID":562470,"DIS_CODE":0,"TOWNNAME":"北區","LI":"安民里","LIN":"9鄰","STREET":"成功路","SECT":" ","MAREA":" ","LANE":" ","ALLEY":" ","HOUSE_NO":"３８８號十一樓之１","E_COORD97":167989.98999999999,"N_COORD97":2544544.8100000001,"ADDRESS":"成功路３８８號十一樓之１","OBJECTID":562443},"geometry":{"x":167989.99000000115,"y":2544544.8100000042}},{"attributes":{"ID":562471,"DIS_CODE":0,"TOWNNAME":"北區","LI":"安民里","LIN":"9鄰","STREET":"成功路","SECT":" ","MAREA":" ","LANE":" ","ALLEY":" ","HOUSE_NO":"３８８號十一樓之１０","E_COORD97":167989.98999999999,"N_COORD97":2544544.8100000001,"ADDRESS":"成功路３８８號十一樓之１０","OBJECTID":562444},"geometry":{"x":167989.99000000115,"y":2544544.8100000042}},{"attributes":{"ID":562472,"DIS_CODE":0,"TOWNNAME":"北區","LI":"安民里","LIN":"9鄰","STREET":"成功路","SECT":" ","MAREA":" ","LANE":" ","ALLEY":" ","HOUSE_NO":"３８８號十一樓之１１","E_COORD97":167989.98999999999,"N_COORD97":2544544.8100000001,"ADDRESS":"成功路３８８號十一樓之１１","OBJECTID":562445},"geometry":{"x":167989.99000000115,"y":2544544.8100000042}},{"attributes":{"ID":562473,"DIS_CODE":0,"TOWNNAME":"北區","LI":"安民里","LIN":"9鄰","STREET":"成功路","SECT":" ","MAREA":" ","LANE":" ","ALLEY":" ","HOUSE_NO":"３８８號十一樓之１２","E_COORD97":167989.98999999999,"N_COORD97":2544544.8100000001,"ADDRESS":"成功路３８８號十一樓之１２","OBJECTID":562446},"geometry":{"x":167989.99000000115,"y":2544544.8100000042}},{"attributes":{"ID":562474,"DIS_CODE":0,"TOWNNAME":"北區","LI":"安民里","LIN":"9鄰","STREET":"成功路","SECT":" ","MAREA":" ","LANE":" ","ALLEY":" ","HOUSE_NO":"３８８號十一樓之１３","E_COORD97":167989.98999999999,"N_COORD97":2544544.8100000001,"ADDRESS":"成功路３８８號十一樓之１３","OBJECTID":562447},"geometry":{"x":167989.99000000115,"y":2544544.8100000042}},{"attributes":{"ID":562475,"DIS_CODE":0,"TOWNNAME":"北區","LI":"安民里","LIN":"9鄰","STREET":"成功路","SECT":" ","MAREA":" ","LANE":" ","ALLEY":" ","HOUSE_NO":"３８８號十一樓之１４","E_COORD97":167989.98999999999,"N_COORD97":2544544.8100000001,"ADDRESS":"成功路３８８號十一樓之１４","OBJECTID":562448},"geometry":{"x":167989.99000000115,"y":2544544.8100000042}},{"attributes":{"ID":562476,"DIS_CODE":0,"TOWNNAME":"北區","LI":"安民里","LIN":"9鄰","STREET":"成功路","SECT":" ","MAREA":" ","LANE":" ","ALLEY":" ","HOUSE_NO":"３８８號十一樓之２","E_COORD97":167989.98999999999,"N_COORD97":2544544.8100000001,"ADDRESS":"成功路３８８號十一樓之２","OBJECTID":562449},"geometry":{"x":167989.99000000115,"y":2544544.8100000042}},{"attributes":{"ID":562477,"DIS_CODE":0,"TOWNNAME":"北區","LI":"安民里","LIN":"9鄰","STREET":"成功路","SECT":" ","MAREA":" ","LANE":" ","ALLEY":" ","HOUSE_NO":"３８８號十一樓之３","E_COORD97":167989.98999999999,"N_COORD97":2544544.8100000001,"ADDRESS":"成功路３８８號十一樓之３","OBJECTID":562450},"geometry":{"x":167989.99000000115,"y":2544544.8100000042}},{"attributes":{"ID":562478,"DIS_CODE":0,"TOWNNAME":"北區","LI":"安民里","LIN":"9鄰","STREET":"成功路","SECT":" ","MAREA":" ","LANE":" ","ALLEY":" ","HOUSE_NO":"３８８號十一樓之４","E_COORD97":167989.98999999999,"N_COORD97":2544544.8100000001,"ADDRESS":"成功路３８８號十一樓之４","OBJECTID":562451},"geometry":{"x":167989.99000000115,"y":2544544.8100000042}},{"attributes":{"ID":562479,"DIS_CODE":0,"TOWNNAME":"北區","LI":"安民里","LIN":"9鄰","STREET":"成功路","SECT":" ","MAREA":" ","LANE":" ","ALLEY":" ","HOUSE_NO":"３８８號十一樓之５","E_COORD97":167989.98999999999,"N_COORD97":2544544.8100000001,"ADDRESS":"成功路３８８號十一樓之５","OBJECTID":562452},"geometry":{"x":167989.99000000115,"y":2544544.8100000042}},{"attributes":{"ID":562480,"DIS_CODE":0,"TOWNNAME":"北區","LI":"安民里","LIN":"9鄰","STREET":"成功路","SECT":" ","MAREA":" ","LANE":" ","ALLEY":" ","HOUSE_NO":"３８８號十一樓之６","E_COORD97":167989.98999999999,"N_COORD97":2544544.8100000001,"ADDRESS":"成功路３８８號十一樓之６","OBJECTID":562453},"geometry":{"x":167989.99000000115,"y":2544544.8100000042}},{"attributes":{"ID":562481,"DIS_CODE":0,"TOWNNAME":"北區","LI":"安民里","LIN":"9鄰","STREET":"成功路","SECT":" ","MAREA":" ","LANE":" ","ALLEY":" ","HOUSE_NO":"３８８號十一樓之７","E_COORD97":167989.98999999999,"N_COORD97":2544544.8100000001,"ADDRESS":"成功路３８８號十一樓之７","OBJECTID":562454},"geometry":{"x":167989.99000000115,"y":2544544.8100000042}},{"attributes":{"ID":562482,"DIS_CODE":0,"TOWNNAME":"北區","LI":"安民里","LIN":"9鄰","STREET":"成功路","SECT":" ","MAREA":" ","LANE":" ","ALLEY":" ","HOUSE_NO":"３８８號十一樓之８","E_COORD97":167989.98999999999,"N_COORD97":2544544.8100000001,"ADDRESS":"成功路３８８號十一樓之８","OBJECTID":562455},"geometry":{"x":167989.99000000115,"y":2544544.8100000042}},{"attributes":{"ID":562483,"DIS_CODE":0,"TOWNNAME":"北區","LI":"安民里","LIN":"9鄰","STREET":"成功路","SECT":" ","MAREA":" ","LANE":" ","ALLEY":" ","HOUSE_NO":"３８８號十一樓之９","E_COORD97":167989.98999999999,"N_COORD97":2544544.8100000001,"ADDRESS":"成功路３８８號十一樓之９","OBJECTID":562456},"geometry":{"x":167989.99000000115,"y":2544544.8100000042}},{"attributes":{"ID":562484,"DIS_CODE":0,"TOWNNAME":"北區","LI":"安民里","LIN":"9鄰","STREET":"成功路","SECT":" ","MAREA":" ","LANE":" ","ALLEY":" ","HOUSE_NO":"３８８號十二樓之１","E_COORD97":167989.98999999999,"N_COORD97":2544544.8100000001,"ADDRESS":"成功路３８８號十二樓之１","OBJECTID":562457},"geometry":{"x":167989.99000000115,"y":2544544.8100000042}},{"attributes":{"ID":562485,"DIS_CODE":0,"TOWNNAME":"北區","LI":"安民里","LIN":"9鄰","STREET":"成功路","SECT":" ","MAREA":" ","LANE":" ","ALLEY":" ","HOUSE_NO":"３８８號十二樓之２","E_COORD97":167989.98999999999,"N_COORD97":2544544.8100000001,"ADDRESS":"成功路３８８號十二樓之２","OBJECTID":562458},"geometry":{"x":167989.99000000115,"y":2544544.8100000042}},{"attributes":{"ID":562486,"DIS_CODE":0,"TOWNNAME":"北區","LI":"安民里","LIN":"9鄰","STREET":"成功路","SECT":" ","MAREA":" ","LANE":" ","ALLEY":" ","HOUSE_NO":"３８８號十二樓之３","E_COORD97":167989.98999999999,"N_COORD97":2544544.8100000001,"ADDRESS":"成功路３８８號十二樓之３","OBJECTID":562459},"geometry":{"x":167989.99000000115,"y":2544544.8100000042}},{"attributes":{"ID":562487,"DIS_CODE":0,"TOWNNAME":"北區","LI":"安民里","LIN":"9鄰","STREET":"成功路","SECT":" ","MAREA":" ","LANE":" ","ALLEY":" ","HOUSE_NO":"３８８號十二樓之４","E_COORD97":167989.98999999999,"N_COORD97":2544544.8100000001,"ADDRESS":"成功路３８８號十二樓之４","OBJECTID":562460},"geometry":{"x":167989.99000000115,"y":2544544.8100000042}},{"attributes":{"ID":562488,"DIS_CODE":0,"TOWNNAME":"仁德區","LI":"太子里","LIN":"32鄰","STREET":"太子三街","SECT":" ","MAREA":" ","LANE":" ","ALLEY":" ","HOUSE_NO":"２７號","E_COORD97":173976.87,"N_COORD97":2543438.2599999998,"ADDRESS":"太子三街２７號","OBJECTID":562461},"geometry":{"x":173976.87000000104,"y":2543438.2599999998}},{"attributes":{"ID":562489,"DIS_CODE":0,"TOWNNAME":"仁德區","LI":"仁德里","LIN":"10鄰","STREET":"中正路","SECT":"二段","MAREA":" ","LANE":" ","ALLEY":" ","HOUSE_NO":"１２１７號","E_COORD97":173264.54000000001,"N_COORD97":2541213.2799999998,"ADDRESS":"中正路二段１２１７號","OBJECTID":562462},"geometry":{"x":173264.54000000004,"y":2541213.2799999993}},{"attributes":{"ID":562490,"DIS_CODE":0,"TOWNNAME":"北區","LI":"安民里","LIN":"9鄰","STREET":"成功路","SECT":" ","MAREA":" ","LANE":" ","ALLEY":" ","HOUSE_NO":"３８８號十二樓之５","E_COORD97":167989.98999999999,"N_COORD97":2544544.8100000001,"ADDRESS":"成功路３８８號十二樓之５","OBJECTID":562463},"geometry":{"x":167989.99000000115,"y":2544544.8100000042}},{"attributes":{"ID":562491,"DIS_CODE":0,"TOWNNAME":"北區","LI":"安民里","LIN":"9鄰","STREET":"成功路","SECT":" ","MAREA":" ","LANE":" ","ALLEY":" ","HOUSE_NO":"３８８號十二樓之６","E_COORD97":167989.98999999999,"N_COORD97":2544544.8100000001,"ADDRESS":"成功路３８８號十二樓之６","OBJECTID":562464},"geometry":{"x":167989.99000000115,"y":2544544.8100000042}},{"attributes":{"ID":562492,"DIS_CODE":0,"TOWNNAME":"北區","LI":"安民里","LIN":"9鄰","STREET":"成功路","SECT":" ","MAREA":" ","LANE":" ","ALLEY":" ","HOUSE_NO":"３８８號十二樓之７","E_COORD97":167989.98999999999,"N_COORD97":2544544.8100000001,"ADDRESS":"成功路３８８號十二樓之７","OBJECTID":562465},"geometry":{"x":167989.99000000115,"y":2544544.8100000042}},{"attributes":{"ID":562493,"DIS_CODE":0,"TOWNNAME":"北區","LI":"安民里","LIN":"9鄰","STREET":"成功路","SECT":" ","MAREA":" ","LANE":" ","ALLEY":" ","HOUSE_NO":"３８８號十二樓之８","E_COORD97":167989.98999999999,"N_COORD97":2544544.8100000001,"ADDRESS":"成功路３８８號十二樓之８","OBJECTID":562466},"geometry":{"x":167989.99000000115,"y":2544544.8100000042}},{"attributes":{"ID":562494,"DIS_CODE":0,"TOWNNAME":"北區","LI":"安民里","LIN":"9鄰","STREET":"成功路","SECT":" ","MAREA":" ","LANE":" ","ALLEY":" ","HOUSE_NO":"３８８號十樓之１","E_COORD97":167989.98999999999,"N_COORD97":2544544.8100000001,"ADDRESS":"成功路３８８號十樓之１","OBJECTID":562467},"geometry":{"x":167989.99000000115,"y":2544544.8100000042}},{"attributes":{"ID":562495,"DIS_CODE":0,"TOWNNAME":"北區","LI":"安民里","LIN":"9鄰","STREET":"成功路","SECT":" ","MAREA":" ","LANE":" ","ALLEY":" ","HOUSE_NO":"３８８號十樓之１０","E_COORD97":167989.98999999999,"N_COORD97":2544544.8100000001,"ADDRESS":"成功路３８８號十樓之１０","OBJECTID":562468},"geometry":{"x":167989.99000000115,"y":2544544.8100000042}},{"attributes":{"ID":562496,"DIS_CODE":0,"TOWNNAME":"北區","LI":"安民里","LIN":"9鄰","STREET":"成功路","SECT":" ","MAREA":" ","LANE":" ","ALLEY":" ","HOUSE_NO":"３８８號十樓之１１","E_COORD97":167989.98999999999,"N_COORD97":2544544.8100000001,"ADDRESS":"成功路３８８號十樓之１１","OBJECTID":562469},"geometry":{"x":167989.99000000115,"y":2544544.8100000042}},{"attributes":{"ID":562497,"DIS_CODE":0,"TOWNNAME":"北區","LI":"安民里","LIN":"9鄰","STREET":"成功路","SECT":" ","MAREA":" ","LANE":" ","ALLEY":" ","HOUSE_NO":"３８８號十樓之１２","E_COORD97":167989.98999999999,"N_COORD97":2544544.8100000001,"ADDRESS":"成功路３８８號十樓之１２","OBJECTID":562470},"geometry":{"x":167989.99000000115,"y":2544544.8100000042}},{"attributes":{"ID":562498,"DIS_CODE":0,"TOWNNAME":"北區","LI":"安民里","LIN":"9鄰","STREET":"成功路","SECT":" ","MAREA":" ","LANE":" ","ALLEY":" ","HOUSE_NO":"３８８號十樓之１３","E_COORD97":167989.98999999999,"N_COORD97":2544544.8100000001,"ADDRESS":"成功路３８８號十樓之１３","OBJECTID":562471},"geometry":{"x":167989.99000000115,"y":2544544.8100000042}},{"attributes":{"ID":562499,"DIS_CODE":0,"TOWNNAME":"北區","LI":"安民里","LIN":"9鄰","STREET":"成功路","SECT":" ","MAREA":" ","LANE":" ","ALLEY":" ","HOUSE_NO":"３８８號十樓之２","E_COORD97":167989.98999999999,"N_COORD97":2544544.8100000001,"ADDRESS":"成功路３８８號十樓之２","OBJECTID":562472},"geometry":{"x":167989.99000000115,"y":2544544.8100000042}},{"attributes":{"ID":562500,"DIS_CODE":0,"TOWNNAME":"北區","LI":"安民里","LIN":"9鄰","STREET":"成功路","SECT":" ","MAREA":" ","LANE":" ","ALLEY":" ","HOUSE_NO":"３８８號十樓之３","E_COORD97":167989.98999999999,"N_COORD97":2544544.8100000001,"ADDRESS":"成功路３８８號十樓之３","OBJECTID":562473},"geometry":{"x":167989.99000000115,"y":2544544.8100000042}},{"attributes":{"ID":562501,"DIS_CODE":0,"TOWNNAME":"北區","LI":"安民里","LIN":"9鄰","STREET":"成功路","SECT":" ","MAREA":" ","LANE":" ","ALLEY":" ","HOUSE_NO":"３８８號十樓之４","E_COORD97":167989.98999999999,"N_COORD97":2544544.8100000001,"ADDRESS":"成功路３８８號十樓之４","OBJECTID":562474},"geometry":{"x":167989.99000000115,"y":2544544.8100000042}},{"attributes":{"ID":562502,"DIS_CODE":0,"TOWNNAME":"北區","LI":"安民里","LIN":"9鄰","STREET":"成功路","SECT":" ","MAREA":" ","LANE":" ","ALLEY":" ","HOUSE_NO":"３８８號十樓之５","E_COORD97":167989.98999999999,"N_COORD97":2544544.8100000001,"ADDRESS":"成功路３８８號十樓之５","OBJECTID":562475},"geometry":{"x":167989.99000000115,"y":2544544.8100000042}},{"attributes":{"ID":562503,"DIS_CODE":0,"TOWNNAME":"北區","LI":"安民里","LIN":"9鄰","STREET":"成功路","SECT":" ","MAREA":" ","LANE":" ","ALLEY":" ","HOUSE_NO":"３８８號十樓之６","E_COORD97":167989.98999999999,"N_COORD97":2544544.8100000001,"ADDRESS":"成功路３８８號十樓之６","OBJECTID":562476},"geometry":{"x":167989.99000000115,"y":2544544.8100000042}},{"attributes":{"ID":562504,"DIS_CODE":0,"TOWNNAME":"北區","LI":"安民里","LIN":"9鄰","STREET":"成功路","SECT":" ","MAREA":" ","LANE":" ","ALLEY":" ","HOUSE_NO":"３８８號十樓之７","E_COORD97":167989.98999999999,"N_COORD97":2544544.8100000001,"ADDRESS":"成功路３８８號十樓之７","OBJECTID":562477},"geometry":{"x":167989.99000000115,"y":2544544.8100000042}},{"attributes":{"ID":562505,"DIS_CODE":0,"TOWNNAME":"北區","LI":"安民里","LIN":"9鄰","STREET":"成功路","SECT":" ","MAREA":" ","LANE":" ","ALLEY":" ","HOUSE_NO":"３８８號十樓之８","E_COORD97":167989.98999999999,"N_COORD97":2544544.8100000001,"ADDRESS":"成功路３８８號十樓之８","OBJECTID":562478},"geometry":{"x":167989.99000000115,"y":2544544.8100000042}},{"attributes":{"ID":562506,"DIS_CODE":0,"TOWNNAME":"北區","LI":"安民里","LIN":"9鄰","STREET":"成功路","SECT":" ","MAREA":" ","LANE":" ","ALLEY":" ","HOUSE_NO":"３８８號十樓之９","E_COORD97":167989.98999999999,"N_COORD97":2544544.8100000001,"ADDRESS":"成功路３８８號十樓之９","OBJECTID":562479},"geometry":{"x":167989.99000000115,"y":2544544.8100000042}},{"attributes":{"ID":562507,"DIS_CODE":0,"TOWNNAME":"北區","LI":"安民里","LIN":"9鄰","STREET":"成功路","SECT":" ","MAREA":" ","LANE":" ","ALLEY":" ","HOUSE_NO":"３８８號三樓之１","E_COORD97":167989.98999999999,"N_COORD97":2544544.8100000001,"ADDRESS":"成功路３８８號三樓之１","OBJECTID":562480},"geometry":{"x":167989.99000000115,"y":2544544.8100000042}},{"attributes":{"ID":562508,"DIS_CODE":0,"TOWNNAME":"北區","LI":"安民里","LIN":"9鄰","STREET":"成功路","SECT":" ","MAREA":" ","LANE":" ","ALLEY":" ","HOUSE_NO":"３８８號三樓之１０","E_COORD97":167989.98999999999,"N_COORD97":2544544.8100000001,"ADDRESS":"成功路３８８號三樓之１０","OBJECTID":562481},"geometry":{"x":167989.99000000115,"y":2544544.8100000042}},{"attributes":{"ID":562509,"DIS_CODE":0,"TOWNNAME":"北區","LI":"安民里","LIN":"9鄰","STREET":"成功路","SECT":" ","MAREA":" ","LANE":" ","ALLEY":" ","HOUSE_NO":"３８８號三樓之１１","E_COORD97":167989.98999999999,"N_COORD97":2544544.8100000001,"ADDRESS":"成功路３８８號三樓之１１","OBJECTID":562482},"geometry":{"x":167989.99000000115,"y":2544544.8100000042}},{"attributes":{"ID":562510,"DIS_CODE":0,"TOWNNAME":"仁德區","LI":"仁義里","LIN":"22鄰","STREET":"中清路","SECT":" ","MAREA":" ","LANE":" ","ALLEY":" ","HOUSE_NO":"９９號","E_COORD97":173705.42000000001,"N_COORD97":2541346.5499999998,"ADDRESS":"中清路９９號","OBJECTID":562483},"geometry":{"x":173705.41999999993,"y":2541346.5500000045}},{"attributes":{"ID":562511,"DIS_CODE":0,"TOWNNAME":"仁德區","LI":"仁義里","LIN":"36鄰","STREET":"勝利路","SECT":" ","MAREA":" ","LANE":" ","ALLEY":" ","HOUSE_NO":"７３號","E_COORD97":173577.70000000001,"N_COORD97":2539930.25,"ADDRESS":"勝利路７３號","OBJECTID":562484},"geometry":{"x":173577.70000000112,"y":2539930.2500000037}},{"attributes":{"ID":562512,"DIS_CODE":0,"TOWNNAME":"仁德區","LI":"仁義里","LIN":"24鄰","STREET":"中清路","SECT":" ","MAREA":" ","LANE":" ","ALLEY":" ","HOUSE_NO":"１３９號","E_COORD97":173716.62,"N_COORD97":2541466.2999999998,"ADDRESS":"中清路１３９號","OBJECTID":562485},"geometry":{"x":173716.62000000011,"y":2541466.3000000007}},{"attributes":{"ID":562513,"DIS_CODE":0,"TOWNNAME":"北區","LI":"安民里","LIN":"9鄰","STREET":"成功路","SECT":" ","MAREA":" ","LANE":" ","ALLEY":" ","HOUSE_NO":"３８８號三樓之１２","E_COORD97":167989.98999999999,"N_COORD97":2544544.8100000001,"ADDRESS":"成功路３８８號三樓之１２","OBJECTID":562486},"geometry":{"x":167989.99000000115,"y":2544544.8100000042}},{"attributes":{"ID":562514,"DIS_CODE":0,"TOWNNAME":"北區","LI":"安民里","LIN":"9鄰","STREET":"成功路","SECT":" ","MAREA":" ","LANE":" ","ALLEY":" ","HOUSE_NO":"３８８號三樓之１３","E_COORD97":167989.98999999999,"N_COORD97":2544544.8100000001,"ADDRESS":"成功路３８８號三樓之１３","OBJECTID":562487},"geometry":{"x":167989.99000000115,"y":2544544.8100000042}},{"attributes":{"ID":562515,"DIS_CODE":0,"TOWNNAME":"北區","LI":"安民里","LIN":"9鄰","STREET":"成功路","SECT":" ","MAREA":" ","LANE":" ","ALLEY":" ","HOUSE_NO":"３８８號三樓之１４","E_COORD97":167989.98999999999,"N_COORD97":2544544.8100000001,"ADDRESS":"成功路３８８號三樓之１４","OBJECTID":562488},"geometry":{"x":167989.99000000115,"y":2544544.8100000042}},{"attributes":{"ID":562516,"DIS_CODE":0,"TOWNNAME":"北區","LI":"安民里","LIN":"9鄰","STREET":"成功路","SECT":" ","MAREA":" ","LANE":" ","ALLEY":" ","HOUSE_NO":"３８８號三樓之２","E_COORD97":167989.98999999999,"N_COORD97":2544544.8100000001,"ADDRESS":"成功路３８８號三樓之２","OBJECTID":562489},"geometry":{"x":167989.99000000115,"y":2544544.8100000042}},{"attributes":{"ID":562517,"DIS_CODE":0,"TOWNNAME":"北區","LI":"安民里","LIN":"9鄰","STREET":"成功路","SECT":" ","MAREA":" ","LANE":" ","ALLEY":" ","HOUSE_NO":"３８８號三樓之３","E_COORD97":167989.98999999999,"N_COORD97":2544544.8100000001,"ADDRESS":"成功路３８８號三樓之３","OBJECTID":562490},"geometry":{"x":167989.99000000115,"y":2544544.8100000042}},{"attributes":{"ID":562518,"DIS_CODE":0,"TOWNNAME":"北區","LI":"安民里","LIN":"9鄰","STREET":"成功路","SECT":" ","MAREA":" ","LANE":" ","ALLEY":" ","HOUSE_NO":"３８８號三樓之４","E_COORD97":167989.98999999999,"N_COORD97":2544544.8100000001,"ADDRESS":"成功路３８８號三樓之４","OBJECTID":562491},"geometry":{"x":167989.99000000115,"y":2544544.8100000042}},{"attributes":{"ID":562519,"DIS_CODE":0,"TOWNNAME":"北區","LI":"安民里","LIN":"9鄰","STREET":"成功路","SECT":" ","MAREA":" ","LANE":" ","ALLEY":" ","HOUSE_NO":"３８８號三樓之５","E_COORD97":167989.98999999999,"N_COORD97":2544544.8100000001,"ADDRESS":"成功路３８８號三樓之５","OBJECTID":562492},"geometry":{"x":167989.99000000115,"y":2544544.8100000042}},{"attributes":{"ID":562520,"DIS_CODE":0,"TOWNNAME":"北區","LI":"安民里","LIN":"9鄰","STREET":"成功路","SECT":" ","MAREA":" ","LANE":" ","ALLEY":" ","HOUSE_NO":"３８８號三樓之６","E_COORD97":167989.98999999999,"N_COORD97":2544544.8100000001,"ADDRESS":"成功路３８８號三樓之６","OBJECTID":562493},"geometry":{"x":167989.99000000115,"y":2544544.8100000042}},{"attributes":{"ID":562521,"DIS_CODE":0,"TOWNNAME":"北區","LI":"安民里","LIN":"9鄰","STREET":"成功路","SECT":" ","MAREA":" ","LANE":" ","ALLEY":" ","HOUSE_NO":"３８８號三樓之７","E_COORD97":167989.98999999999,"N_COORD97":2544544.8100000001,"ADDRESS":"成功路３８８號三樓之７","OBJECTID":562494},"geometry":{"x":167989.99000000115,"y":2544544.8100000042}},{"attributes":{"ID":562522,"DIS_CODE":0,"TOWNNAME":"北區","LI":"安民里","LIN":"9鄰","STREET":"成功路","SECT":" ","MAREA":" ","LANE":" ","ALLEY":" ","HOUSE_NO":"３８８號三樓之８","E_COORD97":167989.98999999999,"N_COORD97":2544544.8100000001,"ADDRESS":"成功路３８８號三樓之８","OBJECTID":562495},"geometry":{"x":167989.99000000115,"y":2544544.8100000042}},{"attributes":{"ID":562523,"DIS_CODE":0,"TOWNNAME":"北區","LI":"安民里","LIN":"9鄰","STREET":"成功路","SECT":" ","MAREA":" ","LANE":" ","ALLEY":" ","HOUSE_NO":"３８８號三樓之９","E_COORD97":167989.98999999999,"N_COORD97":2544544.8100000001,"ADDRESS":"成功路３８８號三樓之９","OBJECTID":562496},"geometry":{"x":167989.99000000115,"y":2544544.8100000042}},{"attributes":{"ID":562524,"DIS_CODE":0,"TOWNNAME":"北區","LI":"安民里","LIN":"9鄰","STREET":"成功路","SECT":" ","MAREA":" ","LANE":" ","ALLEY":" ","HOUSE_NO":"３８８號五樓之１","E_COORD97":167989.98999999999,"N_COORD97":2544544.8100000001,"ADDRESS":"成功路３８８號五樓之１","OBJECTID":562497},"geometry":{"x":167989.99000000115,"y":2544544.8100000042}},{"attributes":{"ID":562525,"DIS_CODE":0,"TOWNNAME":"北區","LI":"安民里","LIN":"9鄰","STREET":"成功路","SECT":" ","MAREA":" ","LANE":" ","ALLEY":" ","HOUSE_NO":"３８８號五樓之１０","E_COORD97":167989.98999999999,"N_COORD97":2544544.8100000001,"ADDRESS":"成功路３８８號五樓之１０","OBJECTID":562498},"geometry":{"x":167989.99000000115,"y":2544544.8100000042}},{"attributes":{"ID":562526,"DIS_CODE":0,"TOWNNAME":"北區","LI":"安民里","LIN":"9鄰","STREET":"成功路","SECT":" ","MAREA":" ","LANE":" ","ALLEY":" ","HOUSE_NO":"３８８號五樓之１１","E_COORD97":167989.98999999999,"N_COORD97":2544544.8100000001,"ADDRESS":"成功路３８８號五樓之１１","OBJECTID":562499},"geometry":{"x":167989.99000000115,"y":2544544.8100000042}},{"attributes":{"ID":562527,"DIS_CODE":0,"TOWNNAME":"北區","LI":"安民里","LIN":"9鄰","STREET":"成功路","SECT":" ","MAREA":" ","LANE":" ","ALLEY":" ","HOUSE_NO":"３８８號五樓之１２","E_COORD97":167989.98999999999,"N_COORD97":2544544.8100000001,"ADDRESS":"成功路３８８號五樓之１２","OBJECTID":562500},"geometry":{"x":167989.99000000115,"y":2544544.8100000042}},{"attributes":{"ID":562528,"DIS_CODE":0,"TOWNNAME":"北區","LI":"安民里","LIN":"9鄰","STREET":"成功路","SECT":" ","MAREA":" ","LANE":" ","ALLEY":" ","HOUSE_NO":"３８８號五樓之１３","E_COORD97":167989.98999999999,"N_COORD97":2544544.8100000001,"ADDRESS":"成功路３８８號五樓之１３","OBJECTID":562501},"geometry":{"x":167989.99000000115,"y":2544544.8100000042}},{"attributes":{"ID":562529,"DIS_CODE":0,"TOWNNAME":"北區","LI":"安民里","LIN":"9鄰","STREET":"成功路","SECT":" ","MAREA":" ","LANE":" ","ALLEY":" ","HOUSE_NO":"３８８號五樓之１４","E_COORD97":167989.98999999999,"N_COORD97":2544544.8100000001,"ADDRESS":"成功路３８８號五樓之１４","OBJECTID":562502},"geometry":{"x":167989.99000000115,"y":2544544.8100000042}},{"attributes":{"ID":562530,"DIS_CODE":0,"TOWNNAME":"北區","LI":"安民里","LIN":"9鄰","STREET":"成功路","SECT":" ","MAREA":" ","LANE":" ","ALLEY":" ","HOUSE_NO":"３８８號五樓之２","E_COORD97":167989.98999999999,"N_COORD97":2544544.8100000001,"ADDRESS":"成功路３８８號五樓之２","OBJECTID":562503},"geometry":{"x":167989.99000000115,"y":2544544.8100000042}},{"attributes":{"ID":562531,"DIS_CODE":0,"TOWNNAME":"北區","LI":"安民里","LIN":"9鄰","STREET":"成功路","SECT":" ","MAREA":" ","LANE":" ","ALLEY":" ","HOUSE_NO":"３８８號五樓之３","E_COORD97":167989.98999999999,"N_COORD97":2544544.8100000001,"ADDRESS":"成功路３８８號五樓之３","OBJECTID":562504},"geometry":{"x":167989.99000000115,"y":2544544.8100000042}},{"attributes":{"ID":562532,"DIS_CODE":0,"TOWNNAME":"北區","LI":"安民里","LIN":"9鄰","STREET":"成功路","SECT":" ","MAREA":" ","LANE":" ","ALLEY":" ","HOUSE_NO":"３８８號五樓之４","E_COORD97":167989.98999999999,"N_COORD97":2544544.8100000001,"ADDRESS":"成功路３８８號五樓之４","OBJECTID":562505},"geometry":{"x":167989.99000000115,"y":2544544.8100000042}},{"attributes":{"ID":562533,"DIS_CODE":0,"TOWNNAME":"北區","LI":"安民里","LIN":"9鄰","STREET":"成功路","SECT":" ","MAREA":" ","LANE":" ","ALLEY":" ","HOUSE_NO":"３８８號五樓之５","E_COORD97":167989.98999999999,"N_COORD97":2544544.8100000001,"ADDRESS":"成功路３８８號五樓之５","OBJECTID":562506},"geometry":{"x":167989.99000000115,"y":2544544.8100000042}},{"attributes":{"ID":562534,"DIS_CODE":0,"TOWNNAME":"北區","LI":"安民里","LIN":"9鄰","STREET":"成功路","SECT":" ","MAREA":" ","LANE":" ","ALLEY":" ","HOUSE_NO":"３８８號五樓之６","E_COORD97":167989.98999999999,"N_COORD97":2544544.8100000001,"ADDRESS":"成功路３８８號五樓之６","OBJECTID":562507},"geometry":{"x":167989.99000000115,"y":2544544.8100000042}},{"attributes":{"ID":562535,"DIS_CODE":0,"TOWNNAME":"北區","LI":"安民里","LIN":"9鄰","STREET":"成功路","SECT":" ","MAREA":" ","LANE":" ","ALLEY":" ","HOUSE_NO":"３８８號五樓之７","E_COORD97":167989.98999999999,"N_COORD97":2544544.8100000001,"ADDRESS":"成功路３８８號五樓之７","OBJECTID":562508},"geometry":{"x":167989.99000000115,"y":2544544.8100000042}},{"attributes":{"ID":562536,"DIS_CODE":0,"TOWNNAME":"北區","LI":"安民里","LIN":"9鄰","STREET":"成功路","SECT":" ","MAREA":" ","LANE":" ","ALLEY":" ","HOUSE_NO":"３８８號五樓之８","E_COORD97":167989.98999999999,"N_COORD97":2544544.8100000001,"ADDRESS":"成功路３８８號五樓之８","OBJECTID":562509},"geometry":{"x":167989.99000000115,"y":2544544.8100000042}},{"attributes":{"ID":562537,"DIS_CODE":0,"TOWNNAME":"北區","LI":"安民里","LIN":"9鄰","STREET":"成功路","SECT":" ","MAREA":" ","LANE":" ","ALLEY":" ","HOUSE_NO":"３８８號五樓之９","E_COORD97":167989.98999999999,"N_COORD97":2544544.8100000001,"ADDRESS":"成功路３８８號五樓之９","OBJECTID":562510},"geometry":{"x":167989.99000000115,"y":2544544.8100000042}},{"attributes":{"ID":562538,"DIS_CODE":0,"TOWNNAME":"北區","LI":"安民里","LIN":"9鄰","STREET":"成功路","SECT":" ","MAREA":" ","LANE":" ","ALLEY":" ","HOUSE_NO":"３８８號六樓之１","E_COORD97":167989.98999999999,"N_COORD97":2544544.8100000001,"ADDRESS":"成功路３８８號六樓之１","OBJECTID":562511},"geometry":{"x":167989.99000000115,"y":2544544.8100000042}},{"attributes":{"ID":562539,"DIS_CODE":0,"TOWNNAME":"仁德區","LI":"仁義里","LIN":"4鄰","STREET":"仁義三街","SECT":" ","MAREA":" ","LANE":" ","ALLEY":" ","HOUSE_NO":"１８６號","E_COORD97":173803.12,"N_COORD97":2541114.0099999998,"ADDRESS":"仁義三街１８６號","OBJECTID":562512},"geometry":{"x":173803.12000000011,"y":2541114.0099999998}},{"attributes":{"ID":562540,"DIS_CODE":0,"TOWNNAME":"仁德區","LI":"仁義里","LIN":"4鄰","STREET":"仁義三街","SECT":" ","MAREA":" ","LANE":" ","ALLEY":" ","HOUSE_NO":"１７６號","E_COORD97":173785.10000000001,"N_COORD97":2541115.0099999998,"ADDRESS":"仁義三街１７６號","OBJECTID":562513},"geometry":{"x":173785.10000000056,"y":2541115.0100000035}},{"attributes":{"ID":562541,"DIS_CODE":0,"TOWNNAME":"北區","LI":"安民里","LIN":"9鄰","STREET":"成功路","SECT":" ","MAREA":" ","LANE":" ","ALLEY":" ","HOUSE_NO":"３８８號六樓之１０","E_COORD97":167989.98999999999,"N_COORD97":2544544.8100000001,"ADDRESS":"成功路３８８號六樓之１０","OBJECTID":562514},"geometry":{"x":167989.99000000115,"y":2544544.8100000042}},{"attributes":{"ID":562542,"DIS_CODE":0,"TOWNNAME":"北區","LI":"安民里","LIN":"9鄰","STREET":"成功路","SECT":" ","MAREA":" ","LANE":" ","ALLEY":" ","HOUSE_NO":"３８８號六樓之１１","E_COORD97":167989.98999999999,"N_COORD97":2544544.8100000001,"ADDRESS":"成功路３８８號六樓之１１","OBJECTID":562515},"geometry":{"x":167989.99000000115,"y":2544544.8100000042}},{"attributes":{"ID":562543,"DIS_CODE":0,"TOWNNAME":"北區","LI":"安民里","LIN":"9鄰","STREET":"成功路","SECT":" ","MAREA":" ","LANE":" ","ALLEY":" ","HOUSE_NO":"３８８號六樓之１２","E_COORD97":167989.98999999999,"N_COORD97":2544544.8100000001,"ADDRESS":"成功路３８８號六樓之１２","OBJECTID":562516},"geometry":{"x":167989.99000000115,"y":2544544.8100000042}},{"attributes":{"ID":562544,"DIS_CODE":0,"TOWNNAME":"北區","LI":"安民里","LIN":"9鄰","STREET":"成功路","SECT":" ","MAREA":" ","LANE":" ","ALLEY":" ","HOUSE_NO":"３８８號六樓之１３","E_COORD97":167989.98999999999,"N_COORD97":2544544.8100000001,"ADDRESS":"成功路３８８號六樓之１３","OBJECTID":562517},"geometry":{"x":167989.99000000115,"y":2544544.8100000042}},{"attributes":{"ID":562545,"DIS_CODE":0,"TOWNNAME":"北區","LI":"安民里","LIN":"9鄰","STREET":"成功路","SECT":" ","MAREA":" ","LANE":" ","ALLEY":" ","HOUSE_NO":"３８８號六樓之１４","E_COORD97":167989.98999999999,"N_COORD97":2544544.8100000001,"ADDRESS":"成功路３８８號六樓之１４","OBJECTID":562518},"geometry":{"x":167989.99000000115,"y":2544544.8100000042}},{"attributes":{"ID":562546,"DIS_CODE":0,"TOWNNAME":"北區","LI":"安民里","LIN":"9鄰","STREET":"成功路","SECT":" ","MAREA":" ","LANE":" ","ALLEY":" ","HOUSE_NO":"３８８號六樓之２","E_COORD97":167989.98999999999,"N_COORD97":2544544.8100000001,"ADDRESS":"成功路３８８號六樓之２","OBJECTID":562519},"geometry":{"x":167989.99000000115,"y":2544544.8100000042}},{"attributes":{"ID":562547,"DIS_CODE":0,"TOWNNAME":"北區","LI":"安民里","LIN":"9鄰","STREET":"成功路","SECT":" ","MAREA":" ","LANE":" ","ALLEY":" ","HOUSE_NO":"３８８號六樓之３","E_COORD97":167989.98999999999,"N_COORD97":2544544.8100000001,"ADDRESS":"成功路３８８號六樓之３","OBJECTID":562520},"geometry":{"x":167989.99000000115,"y":2544544.8100000042}},{"attributes":{"ID":562548,"DIS_CODE":0,"TOWNNAME":"北區","LI":"安民里","LIN":"9鄰","STREET":"成功路","SECT":" ","MAREA":" ","LANE":" ","ALLEY":" ","HOUSE_NO":"３８８號六樓之４","E_COORD97":167989.98999999999,"N_COORD97":2544544.8100000001,"ADDRESS":"成功路３８８號六樓之４","OBJECTID":562521},"geometry":{"x":167989.99000000115,"y":2544544.8100000042}},{"attributes":{"ID":562549,"DIS_CODE":0,"TOWNNAME":"北區","LI":"安民里","LIN":"9鄰","STREET":"成功路","SECT":" ","MAREA":" ","LANE":" ","ALLEY":" ","HOUSE_NO":"３８８號六樓之５","E_COORD97":167989.98999999999,"N_COORD97":2544544.8100000001,"ADDRESS":"成功路３８８號六樓之５","OBJECTID":562522},"geometry":{"x":167989.99000000115,"y":2544544.8100000042}},{"attributes":{"ID":562550,"DIS_CODE":0,"TOWNNAME":"北區","LI":"安民里","LIN":"9鄰","STREET":"成功路","SECT":" ","MAREA":" ","LANE":" ","ALLEY":" ","HOUSE_NO":"３８８號六樓之６","E_COORD97":167989.98999999999,"N_COORD97":2544544.8100000001,"ADDRESS":"成功路３８８號六樓之６","OBJECTID":562523},"geometry":{"x":167989.99000000115,"y":2544544.8100000042}},{"attributes":{"ID":562551,"DIS_CODE":0,"TOWNNAME":"北區","LI":"安民里","LIN":"9鄰","STREET":"成功路","SECT":" ","MAREA":" ","LANE":" ","ALLEY":" ","HOUSE_NO":"３８８號六樓之７","E_COORD97":167989.98999999999,"N_COORD97":2544544.8100000001,"ADDRESS":"成功路３８８號六樓之７","OBJECTID":562524},"geometry":{"x":167989.99000000115,"y":2544544.8100000042}},{"attributes":{"ID":562552,"DIS_CODE":0,"TOWNNAME":"北區","LI":"安民里","LIN":"9鄰","STREET":"成功路","SECT":" ","MAREA":" ","LANE":" ","ALLEY":" ","HOUSE_NO":"３８８號六樓之９","E_COORD97":167989.98999999999,"N_COORD97":2544544.8100000001,"ADDRESS":"成功路３８８號六樓之９","OBJECTID":562525},"geometry":{"x":167989.99000000115,"y":2544544.8100000042}},{"attributes":{"ID":562553,"DIS_CODE":0,"TOWNNAME":"北區","LI":"安民里","LIN":"9鄰","STREET":"成功路","SECT":" ","MAREA":" ","LANE":" ","ALLEY":" ","HOUSE_NO":"３８８號四樓之１","E_COORD97":167989.98999999999,"N_COORD97":2544544.8100000001,"ADDRESS":"成功路３８８號四樓之１","OBJECTID":562526},"geometry":{"x":167989.99000000115,"y":2544544.8100000042}},{"attributes":{"ID":562554,"DIS_CODE":0,"TOWNNAME":"北區","LI":"安民里","LIN":"9鄰","STREET":"成功路","SECT":" ","MAREA":" ","LANE":" ","ALLEY":" ","HOUSE_NO":"３８８號四樓之１０","E_COORD97":167989.98999999999,"N_COORD97":2544544.8100000001,"ADDRESS":"成功路３８８號四樓之１０","OBJECTID":562527},"geometry":{"x":167989.99000000115,"y":2544544.8100000042}},{"attributes":{"ID":562555,"DIS_CODE":0,"TOWNNAME":"北區","LI":"安民里","LIN":"9鄰","STREET":"成功路","SECT":" ","MAREA":" ","LANE":" ","ALLEY":" ","HOUSE_NO":"３８８號四樓之１１","E_COORD97":167989.98999999999,"N_COORD97":2544544.8100000001,"ADDRESS":"成功路３８８號四樓之１１","OBJECTID":562528},"geometry":{"x":167989.99000000115,"y":2544544.8100000042}},{"attributes":{"ID":562556,"DIS_CODE":0,"TOWNNAME":"北區","LI":"安民里","LIN":"9鄰","STREET":"成功路","SECT":" ","MAREA":" ","LANE":" ","ALLEY":" ","HOUSE_NO":"３８８號四樓之１２","E_COORD97":167989.98999999999,"N_COORD97":2544544.8100000001,"ADDRESS":"成功路３８８號四樓之１２","OBJECTID":562529},"geometry":{"x":167989.99000000115,"y":2544544.8100000042}},{"attributes":{"ID":562557,"DIS_CODE":0,"TOWNNAME":"北區","LI":"安民里","LIN":"9鄰","STREET":"成功路","SECT":" ","MAREA":" ","LANE":" ","ALLEY":" ","HOUSE_NO":"３８８號四樓之１３","E_COORD97":167989.98999999999,"N_COORD97":2544544.8100000001,"ADDRESS":"成功路３８８號四樓之１３","OBJECTID":562530},"geometry":{"x":167989.99000000115,"y":2544544.8100000042}},{"attributes":{"ID":562558,"DIS_CODE":0,"TOWNNAME":"北區","LI":"安民里","LIN":"9鄰","STREET":"成功路","SECT":" ","MAREA":" ","LANE":" ","ALLEY":" ","HOUSE_NO":"３８８號四樓之１４","E_COORD97":167989.98999999999,"N_COORD97":2544544.8100000001,"ADDRESS":"成功路３８８號四樓之１４","OBJECTID":562531},"geometry":{"x":167989.99000000115,"y":2544544.8100000042}},{"attributes":{"ID":562559,"DIS_CODE":0,"TOWNNAME":"北區","LI":"安民里","LIN":"9鄰","STREET":"成功路","SECT":" ","MAREA":" ","LANE":" ","ALLEY":" ","HOUSE_NO":"３８８號四樓之２","E_COORD97":167989.98999999999,"N_COORD97":2544544.8100000001,"ADDRESS":"成功路３８８號四樓之２","OBJECTID":562532},"geometry":{"x":167989.99000000115,"y":2544544.8100000042}},{"attributes":{"ID":562560,"DIS_CODE":0,"TOWNNAME":"北區","LI":"安民里","LIN":"9鄰","STREET":"成功路","SECT":" ","MAREA":" ","LANE":" ","ALLEY":" ","HOUSE_NO":"３８８號四樓之３","E_COORD97":167989.98999999999,"N_COORD97":2544544.8100000001,"ADDRESS":"成功路３８８號四樓之３","OBJECTID":562533},"geometry":{"x":167989.99000000115,"y":2544544.8100000042}},{"attributes":{"ID":562561,"DIS_CODE":0,"TOWNNAME":"北區","LI":"安民里","LIN":"9鄰","STREET":"成功路","SECT":" ","MAREA":" ","LANE":" ","ALLEY":" ","HOUSE_NO":"３８８號四樓之４","E_COORD97":167989.98999999999,"N_COORD97":2544544.8100000001,"ADDRESS":"成功路３８８號四樓之４","OBJECTID":562534},"geometry":{"x":167989.99000000115,"y":2544544.8100000042}},{"attributes":{"ID":562562,"DIS_CODE":0,"TOWNNAME":"北區","LI":"安民里","LIN":"9鄰","STREET":"成功路","SECT":" ","MAREA":" ","LANE":" ","ALLEY":" ","HOUSE_NO":"３８８號四樓之５","E_COORD97":167989.98999999999,"N_COORD97":2544544.8100000001,"ADDRESS":"成功路３８８號四樓之５","OBJECTID":562535},"geometry":{"x":167989.99000000115,"y":2544544.8100000042}},{"attributes":{"ID":562563,"DIS_CODE":0,"TOWNNAME":"北區","LI":"安民里","LIN":"9鄰","STREET":"成功路","SECT":" ","MAREA":" ","LANE":" ","ALLEY":" ","HOUSE_NO":"３８８號四樓之６","E_COORD97":167989.98999999999,"N_COORD97":2544544.8100000001,"ADDRESS":"成功路３８８號四樓之６","OBJECTID":562536},"geometry":{"x":167989.99000000115,"y":2544544.8100000042}},{"attributes":{"ID":562564,"DIS_CODE":0,"TOWNNAME":"北區","LI":"安民里","LIN":"9鄰","STREET":"成功路","SECT":" ","MAREA":" ","LANE":" ","ALLEY":" ","HOUSE_NO":"３８８號四樓之７","E_COORD97":167989.98999999999,"N_COORD97":2544544.8100000001,"ADDRESS":"成功路３８８號四樓之７","OBJECTID":562537},"geometry":{"x":167989.99000000115,"y":2544544.8100000042}},{"attributes":{"ID":562565,"DIS_CODE":0,"TOWNNAME":"北區","LI":"安民里","LIN":"9鄰","STREET":"成功路","SECT":" ","MAREA":" ","LANE":" ","ALLEY":" ","HOUSE_NO":"３８８號四樓之８","E_COORD97":167989.98999999999,"N_COORD97":2544544.8100000001,"ADDRESS":"成功路３８８號四樓之８","OBJECTID":562538},"geometry":{"x":167989.99000000115,"y":2544544.8100000042}},{"attributes":{"ID":562566,"DIS_CODE":0,"TOWNNAME":"北區","LI":"安民里","LIN":"9鄰","STREET":"成功路","SECT":" ","MAREA":" ","LANE":" ","ALLEY":" ","HOUSE_NO":"３８８號四樓之９","E_COORD97":167989.98999999999,"N_COORD97":2544544.8100000001,"ADDRESS":"成功路３８８號四樓之９","OBJECTID":562539},"geometry":{"x":167989.99000000115,"y":2544544.8100000042}},{"attributes":{"ID":562567,"DIS_CODE":0,"TOWNNAME":"南區","LI":"新生里","LIN":"9鄰","STREET":"大同路","SECT":"二段","MAREA":" ","LANE":" ","ALLEY":" ","HOUSE_NO":"１６２號二樓之１","E_COORD97":169328.76000000001,"N_COORD97":2542049.1099999999,"ADDRESS":"大同路二段１６２號二樓之１","OBJECTID":562540},"geometry":{"x":169328.76000000071,"y":2542049.1099999994}},{"attributes":{"ID":562568,"DIS_CODE":0,"TOWNNAME":"南區","LI":"新生里","LIN":"9鄰","STREET":"大同路","SECT":"二段","MAREA":" ","LANE":" ","ALLEY":" ","HOUSE_NO":"１６２號二樓之２","E_COORD97":169328.76000000001,"N_COORD97":2542049.1099999999,"ADDRESS":"大同路二段１６２號二樓之２","OBJECTID":562541},"geometry":{"x":169328.76000000071,"y":2542049.1099999994}},{"attributes":{"ID":562569,"DIS_CODE":0,"TOWNNAME":"南區","LI":"新生里","LIN":"9鄰","STREET":"大同路","SECT":"二段","MAREA":" ","LANE":" ","ALLEY":" ","HOUSE_NO":"１６２號三樓之１","E_COORD97":169328.76000000001,"N_COORD97":2542049.1099999999,"ADDRESS":"大同路二段１６２號三樓之１","OBJECTID":562542},"geometry":{"x":169328.76000000071,"y":2542049.1099999994}},{"attributes":{"ID":562570,"DIS_CODE":0,"TOWNNAME":"南區","LI":"新生里","LIN":"9鄰","STREET":"大同路","SECT":"二段","MAREA":" ","LANE":" ","ALLEY":" ","HOUSE_NO":"１６２號三樓之２","E_COORD97":169328.76000000001,"N_COORD97":2542049.1099999999,"ADDRESS":"大同路二段１６２號三樓之２","OBJECTID":562543},"geometry":{"x":169328.76000000071,"y":2542049.1099999994}},{"attributes":{"ID":562571,"DIS_CODE":0,"TOWNNAME":"南區","LI":"新生里","LIN":"9鄰","STREET":"大同路","SECT":"二段","MAREA":" ","LANE":" ","ALLEY":" ","HOUSE_NO":"１６２號三樓之３","E_COORD97":169328.76000000001,"N_COORD97":2542049.1099999999,"ADDRESS":"大同路二段１６２號三樓之３","OBJECTID":562544},"geometry":{"x":169328.76000000071,"y":2542049.1099999994}},{"attributes":{"ID":562572,"DIS_CODE":0,"TOWNNAME":"北區","LI":"大豐里","LIN":"22鄰","STREET":"大興街","SECT":" ","MAREA":" ","LANE":" ","ALLEY":" ","HOUSE_NO":"３３９號","E_COORD97":166584.64000000001,"N_COORD97":2545650.75,"ADDRESS":"大興街３３９號","OBJECTID":562545},"geometry":{"x":166584.64000000153,"y":2545650.7500000019}},{"attributes":{"ID":562573,"DIS_CODE":0,"TOWNNAME":"北區","LI":"大豐里","LIN":"22鄰","STREET":"大興街","SECT":" ","MAREA":" ","LANE":" ","ALLEY":" ","HOUSE_NO":"３４３號","E_COORD97":166565.82999999999,"N_COORD97":2545643.29,"ADDRESS":"大興街３４３號","OBJECTID":562546},"geometry":{"x":166565.83000000101,"y":2545643.290000001}},{"attributes":{"ID":562574,"DIS_CODE":0,"TOWNNAME":"仁德區","LI":"仁德里","LIN":"39鄰","STREET":"文華路","SECT":"三段","MAREA":" ","LANE":" ","ALLEY":" ","HOUSE_NO":"６１６號","E_COORD97":172574.23000000001,"N_COORD97":2541886.8300000001,"ADDRESS":"文華路三段６１６號","OBJECTID":562547},"geometry":{"x":172574.23000000138,"y":2541886.8300000019}},{"attributes":{"ID":562575,"DIS_CODE":0,"TOWNNAME":"仁德區","LI":"仁德里","LIN":"39鄰","STREET":"文宏一街","SECT":" ","MAREA":" ","LANE":" ","ALLEY":" ","HOUSE_NO":"５９號","E_COORD97":172449.94,"N_COORD97":2541814.8199999998,"ADDRESS":"文宏一街５９號","OBJECTID":562548},"geometry":{"x":172449.94000000041,"y":2541814.8200000003}},{"attributes":{"ID":562576,"DIS_CODE":0,"TOWNNAME":"仁德區","LI":"仁義里","LIN":"8鄰","STREET":"仁義一街","SECT":" ","MAREA":" ","LANE":" ","ALLEY":" ","HOUSE_NO":"１４１號","E_COORD97":173647.70000000001,"N_COORD97":2541191.5099999998,"ADDRESS":"仁義一街１４１號","OBJECTID":562549},"geometry":{"x":173647.70000000112,"y":2541191.5099999998}},{"attributes":{"ID":562577,"DIS_CODE":0,"TOWNNAME":"仁德區","LI":"仁德里","LIN":"33鄰","STREET":"中山路","SECT":" ","MAREA":" ","LANE":" ","ALLEY":" ","HOUSE_NO":"６９８號","E_COORD97":172805.70999999999,"N_COORD97":2541494.7400000002,"ADDRESS":"中山路６９８號","OBJECTID":562550},"geometry":{"x":172805.70999999903,"y":2541494.7400000021}},{"attributes":{"ID":562578,"DIS_CODE":0,"TOWNNAME":"南區","LI":"新生里","LIN":"9鄰","STREET":"大同路","SECT":"二段","MAREA":" ","LANE":" ","ALLEY":" ","HOUSE_NO":"１６２號三樓之５","E_COORD97":169328.76000000001,"N_COORD97":2542049.1099999999,"ADDRESS":"大同路二段１６２號三樓之５","OBJECTID":562551},"geometry":{"x":169328.76000000071,"y":2542049.1099999994}},{"attributes":{"ID":562579,"DIS_CODE":0,"TOWNNAME":"南區","LI":"新生里","LIN":"9鄰","STREET":"大同路","SECT":"二段","MAREA":" ","LANE":" ","ALLEY":" ","HOUSE_NO":"１６２號四樓之１","E_COORD97":169328.76000000001,"N_COORD97":2542049.1099999999,"ADDRESS":"大同路二段１６２號四樓之１","OBJECTID":562552},"geometry":{"x":169328.76000000071,"y":2542049.1099999994}},{"attributes":{"ID":562580,"DIS_CODE":0,"TOWNNAME":"南區","LI":"新生里","LIN":"9鄰","STREET":"大同路","SECT":"二段","MAREA":" ","LANE":" ","ALLEY":" ","HOUSE_NO":"１６２號四樓之２","E_COORD97":169328.76000000001,"N_COORD97":2542049.1099999999,"ADDRESS":"大同路二段１６２號四樓之２","OBJECTID":562553},"geometry":{"x":169328.76000000071,"y":2542049.1099999994}},{"attributes":{"ID":562581,"DIS_CODE":0,"TOWNNAME":"南區","LI":"新生里","LIN":"9鄰","STREET":"大同路","SECT":"二段","MAREA":" ","LANE":" ","ALLEY":" ","HOUSE_NO":"１６２號四樓之３","E_COORD97":169328.76000000001,"N_COORD97":2542049.1099999999,"ADDRESS":"大同路二段１６２號四樓之３","OBJECTID":562554},"geometry":{"x":169328.76000000071,"y":2542049.1099999994}},{"attributes":{"ID":562582,"DIS_CODE":0,"TOWNNAME":"南區","LI":"新生里","LIN":"9鄰","STREET":"大同路","SECT":"二段","MAREA":" ","LANE":" ","ALLEY":" ","HOUSE_NO":"１６２號四樓之５","E_COORD97":169328.76000000001,"N_COORD97":2542049.1099999999,"ADDRESS":"大同路二段１６２號四樓之５","OBJECTID":562555},"geometry":{"x":169328.76000000071,"y":2542049.1099999994}},{"attributes":{"ID":562583,"DIS_CODE":0,"TOWNNAME":"南區","LI":"新生里","LIN":"9鄰","STREET":"大同路","SECT":"二段","MAREA":" ","LANE":" ","ALLEY":" ","HOUSE_NO":"１６２號五樓之１","E_COORD97":169328.76000000001,"N_COORD97":2542049.1099999999,"ADDRESS":"大同路二段１６２號五樓之１","OBJECTID":562556},"geometry":{"x":169328.76000000071,"y":2542049.1099999994}},{"attributes":{"ID":562584,"DIS_CODE":0,"TOWNNAME":"南區","LI":"新生里","LIN":"9鄰","STREET":"大同路","SECT":"二段","MAREA":" ","LANE":" ","ALLEY":" ","HOUSE_NO":"１６２號五樓之２","E_COORD97":169328.76000000001,"N_COORD97":2542049.1099999999,"ADDRESS":"大同路二段１６２號五樓之２","OBJECTID":562557},"geometry":{"x":169328.76000000071,"y":2542049.1099999994}},{"attributes":{"ID":562585,"DIS_CODE":0,"TOWNNAME":"南區","LI":"新生里","LIN":"9鄰","STREET":"大同路","SECT":"二段","MAREA":" ","LANE":" ","ALLEY":" ","HOUSE_NO":"１６２號五樓之３","E_COORD97":169328.76000000001,"N_COORD97":2542049.1099999999,"ADDRESS":"大同路二段１６２號五樓之３","OBJECTID":562558},"geometry":{"x":169328.76000000071,"y":2542049.1099999994}},{"attributes":{"ID":562586,"DIS_CODE":0,"TOWNNAME":"南區","LI":"新生里","LIN":"9鄰","STREET":"大同路","SECT":"二段","MAREA":" ","LANE":" ","ALLEY":" ","HOUSE_NO":"１６２號五樓之５","E_COORD97":169328.76000000001,"N_COORD97":2542049.1099999999,"ADDRESS":"大同路二段１６２號五樓之５","OBJECTID":562559},"geometry":{"x":169328.76000000071,"y":2542049.1099999994}},{"attributes":{"ID":562587,"DIS_CODE":0,"TOWNNAME":"南區","LI":"新生里","LIN":"9鄰","STREET":"大同路","SECT":"二段","MAREA":" ","LANE":" ","ALLEY":" ","HOUSE_NO":"１６２號六樓之１","E_COORD97":169328.76000000001,"N_COORD97":2542049.1099999999,"ADDRESS":"大同路二段１６２號六樓之１","OBJECTID":562560},"geometry":{"x":169328.76000000071,"y":2542049.1099999994}},{"attributes":{"ID":562588,"DIS_CODE":0,"TOWNNAME":"南區","LI":"新生里","LIN":"9鄰","STREET":"大同路","SECT":"二段","MAREA":" ","LANE":" ","ALLEY":" ","HOUSE_NO":"１６２號六樓之２","E_COORD97":169328.76000000001,"N_COORD97":2542049.1099999999,"ADDRESS":"大同路二段１６２號六樓之２","OBJECTID":562561},"geometry":{"x":169328.76000000071,"y":2542049.1099999994}},{"attributes":{"ID":562589,"DIS_CODE":0,"TOWNNAME":"南區","LI":"新生里","LIN":"9鄰","STREET":"大同路","SECT":"二段","MAREA":" ","LANE":" ","ALLEY":" ","HOUSE_NO":"１６２號六樓之３","E_COORD97":169328.76000000001,"N_COORD97":2542049.1099999999,"ADDRESS":"大同路二段１６２號六樓之３","OBJECTID":562562},"geometry":{"x":169328.76000000071,"y":2542049.1099999994}},{"attributes":{"ID":562590,"DIS_CODE":0,"TOWNNAME":"南區","LI":"新生里","LIN":"9鄰","STREET":"大同路","SECT":"二段","MAREA":" ","LANE":" ","ALLEY":" ","HOUSE_NO":"１６２號六樓之５","E_COORD97":169328.76000000001,"N_COORD97":2542049.1099999999,"ADDRESS":"大同路二段１６２號六樓之５","OBJECTID":562563},"geometry":{"x":169328.76000000071,"y":2542049.1099999994}},{"attributes":{"ID":562591,"DIS_CODE":0,"TOWNNAME":"南區","LI":"新生里","LIN":"9鄰","STREET":"大同路","SECT":"二段","MAREA":" ","LANE":" ","ALLEY":" ","HOUSE_NO":"１６２號七樓之１","E_COORD97":169328.76000000001,"N_COORD97":2542049.1099999999,"ADDRESS":"大同路二段１６２號七樓之１","OBJECTID":562564},"geometry":{"x":169328.76000000071,"y":2542049.1099999994}},{"attributes":{"ID":562592,"DIS_CODE":0,"TOWNNAME":"南區","LI":"新生里","LIN":"9鄰","STREET":"大同路","SECT":"二段","MAREA":" ","LANE":" ","ALLEY":" ","HOUSE_NO":"１６２號七樓之２","E_COORD97":169328.76000000001,"N_COORD97":2542049.1099999999,"ADDRESS":"大同路二段１６２號七樓之２","OBJECTID":562565},"geometry":{"x":169328.76000000071,"y":2542049.1099999994}},{"attributes":{"ID":562593,"DIS_CODE":0,"TOWNNAME":"南區","LI":"新生里","LIN":"9鄰","STREET":"大同路","SECT":"二段","MAREA":" ","LANE":" ","ALLEY":" ","HOUSE_NO":"１６２號七樓之３","E_COORD97":169328.76000000001,"N_COORD97":2542049.1099999999,"ADDRESS":"大同路二段１６２號七樓之３","OBJECTID":562566},"geometry":{"x":169328.76000000071,"y":2542049.1099999994}},{"attributes":{"ID":562594,"DIS_CODE":0,"TOWNNAME":"南區","LI":"新生里","LIN":"9鄰","STREET":"大同路","SECT":"二段","MAREA":" ","LANE":" ","ALLEY":" ","HOUSE_NO":"１６２號七樓之５","E_COORD97":169328.76000000001,"N_COORD97":2542049.1099999999,"ADDRESS":"大同路二段１６２號七樓之５","OBJECTID":562567},"geometry":{"x":169328.76000000071,"y":2542049.1099999994}},{"attributes":{"ID":562595,"DIS_CODE":0,"TOWNNAME":"南區","LI":"新生里","LIN":"9鄰","STREET":"大同路","SECT":"二段","MAREA":" ","LANE":" ","ALLEY":" ","HOUSE_NO":"１６２號八樓之１","E_COORD97":169328.76000000001,"N_COORD97":2542049.1099999999,"ADDRESS":"大同路二段１６２號八樓之１","OBJECTID":562568},"geometry":{"x":169328.76000000071,"y":2542049.1099999994}},{"attributes":{"ID":562596,"DIS_CODE":0,"TOWNNAME":"南區","LI":"新生里","LIN":"9鄰","STREET":"大同路","SECT":"二段","MAREA":" ","LANE":" ","ALLEY":" ","HOUSE_NO":"１６２號八樓之２","E_COORD97":169328.76000000001,"N_COORD97":2542049.1099999999,"ADDRESS":"大同路二段１６２號八樓之２","OBJECTID":562569},"geometry":{"x":169328.76000000071,"y":2542049.1099999994}},{"attributes":{"ID":562597,"DIS_CODE":0,"TOWNNAME":"南區","LI":"新生里","LIN":"9鄰","STREET":"大同路","SECT":"二段","MAREA":" ","LANE":" ","ALLEY":" ","HOUSE_NO":"１６２號八樓之３","E_COORD97":169328.76000000001,"N_COORD97":2542049.1099999999,"ADDRESS":"大同路二段１６２號八樓之３","OBJECTID":562570},"geometry":{"x":169328.76000000071,"y":2542049.1099999994}},{"attributes":{"ID":562598,"DIS_CODE":0,"TOWNNAME":"仁德區","LI":"仁德里","LIN":"35鄰","STREET":"裕華三街","SECT":" ","MAREA":" ","LANE":" ","ALLEY":" ","HOUSE_NO":"２６６號","E_COORD97":172731.56,"N_COORD97":2541735.4900000002,"ADDRESS":"裕華三街２６６號","OBJECTID":562571},"geometry":{"x":172731.55999999959,"y":2541735.4900000002}},{"attributes":{"ID":562599,"DIS_CODE":0,"TOWNNAME":"南區","LI":"新生里","LIN":"9鄰","STREET":"大同路","SECT":"二段","MAREA":" ","LANE":" ","ALLEY":" ","HOUSE_NO":"１６２號八樓之５","E_COORD97":169328.76000000001,"N_COORD97":2542049.1099999999,"ADDRESS":"大同路二段１６２號八樓之５","OBJECTID":562572},"geometry":{"x":169328.76000000071,"y":2542049.1099999994}},{"attributes":{"ID":562600,"DIS_CODE":0,"TOWNNAME":"南區","LI":"新生里","LIN":"9鄰","STREET":"大同路","SECT":"二段","MAREA":" ","LANE":" ","ALLEY":" ","HOUSE_NO":"１６２號九樓之１","E_COORD97":169328.76000000001,"N_COORD97":2542049.1099999999,"ADDRESS":"大同路二段１６２號九樓之１","OBJECTID":562573},"geometry":{"x":169328.76000000071,"y":2542049.1099999994}},{"attributes":{"ID":562601,"DIS_CODE":0,"TOWNNAME":"南區","LI":"新生里","LIN":"9鄰","STREET":"大同路","SECT":"二段","MAREA":" ","LANE":" ","ALLEY":" ","HOUSE_NO":"１６２號九樓之２","E_COORD97":169328.76000000001,"N_COORD97":2542049.1099999999,"ADDRESS":"大同路二段１６２號九樓之２","OBJECTID":562574},"geometry":{"x":169328.76000000071,"y":2542049.1099999994}},{"attributes":{"ID":562602,"DIS_CODE":0,"TOWNNAME":"南區","LI":"新生里","LIN":"9鄰","STREET":"大同路","SECT":"二段","MAREA":" ","LANE":" ","ALLEY":" ","HOUSE_NO":"１６２號九樓之３","E_COORD97":169328.76000000001,"N_COORD97":2542049.1099999999,"ADDRESS":"大同路二段１６２號九樓之３","OBJECTID":562575},"geometry":{"x":169328.76000000071,"y":2542049.1099999994}},{"attributes":{"ID":562603,"DIS_CODE":0,"TOWNNAME":"南區","LI":"新生里","LIN":"9鄰","STREET":"大同路","SECT":"二段","MAREA":" ","LANE":" ","ALLEY":" ","HOUSE_NO":"１６２號九樓之５","E_COORD97":169328.76000000001,"N_COORD97":2542049.1099999999,"ADDRESS":"大同路二段１６２號九樓之５","OBJECTID":562576},"geometry":{"x":169328.76000000071,"y":2542049.1099999994}},{"attributes":{"ID":562604,"DIS_CODE":0,"TOWNNAME":"南區","LI":"新生里","LIN":"9鄰","STREET":"大同路","SECT":"二段","MAREA":" ","LANE":" ","ALLEY":" ","HOUSE_NO":"１６２號十樓之１","E_COORD97":169328.76000000001,"N_COORD97":2542049.1099999999,"ADDRESS":"大同路二段１６２號十樓之１","OBJECTID":562577},"geometry":{"x":169328.76000000071,"y":2542049.1099999994}},{"attributes":{"ID":562605,"DIS_CODE":0,"TOWNNAME":"南區","LI":"新生里","LIN":"9鄰","STREET":"大同路","SECT":"二段","MAREA":" ","LANE":" ","ALLEY":" ","HOUSE_NO":"１６２號十樓之２","E_COORD97":169328.76000000001,"N_COORD97":2542049.1099999999,"ADDRESS":"大同路二段１６２號十樓之２","OBJECTID":562578},"geometry":{"x":169328.76000000071,"y":2542049.1099999994}},{"attributes":{"ID":562606,"DIS_CODE":0,"TOWNNAME":"南區","LI":"新生里","LIN":"9鄰","STREET":"大同路","SECT":"二段","MAREA":" ","LANE":" ","ALLEY":" ","HOUSE_NO":"１６２號十樓之３","E_COORD97":169328.76000000001,"N_COORD97":2542049.1099999999,"ADDRESS":"大同路二段１６２號十樓之３","OBJECTID":562579},"geometry":{"x":169328.76000000071,"y":2542049.1099999994}},{"attributes":{"ID":562607,"DIS_CODE":0,"TOWNNAME":"南區","LI":"新生里","LIN":"9鄰","STREET":"大同路","SECT":"二段","MAREA":" ","LANE":" ","ALLEY":" ","HOUSE_NO":"１６２號十樓之５","E_COORD97":169328.76000000001,"N_COORD97":2542049.1099999999,"ADDRESS":"大同路二段１６２號十樓之５","OBJECTID":562580},"geometry":{"x":169328.76000000071,"y":2542049.1099999994}},{"attributes":{"ID":562608,"DIS_CODE":0,"TOWNNAME":"南區","LI":"新生里","LIN":"9鄰","STREET":"大同路","SECT":"二段","MAREA":" ","LANE":" ","ALLEY":" ","HOUSE_NO":"１６２號十一樓之１","E_COORD97":169328.76000000001,"N_COORD97":2542049.1099999999,"ADDRESS":"大同路二段１６２號十一樓之１","OBJECTID":562581},"geometry":{"x":169328.76000000071,"y":2542049.1099999994}},{"attributes":{"ID":562609,"DIS_CODE":0,"TOWNNAME":"南區","LI":"新生里","LIN":"9鄰","STREET":"大同路","SECT":"二段","MAREA":" ","LANE":" ","ALLEY":" ","HOUSE_NO":"１６２號十一樓之２","E_COORD97":169328.76000000001,"N_COORD97":2542049.1099999999,"ADDRESS":"大同路二段１６２號十一樓之２","OBJECTID":562582},"geometry":{"x":169328.76000000071,"y":2542049.1099999994}},{"attributes":{"ID":562610,"DIS_CODE":0,"TOWNNAME":"南區","LI":"新生里","LIN":"9鄰","STREET":"大同路","SECT":"二段","MAREA":" ","LANE":" ","ALLEY":" ","HOUSE_NO":"１６２號十一樓之３","E_COORD97":169328.76000000001,"N_COORD97":2542049.1099999999,"ADDRESS":"大同路二段１６２號十一樓之３","OBJECTID":562583},"geometry":{"x":169328.76000000071,"y":2542049.1099999994}},{"attributes":{"ID":562611,"DIS_CODE":0,"TOWNNAME":"南區","LI":"新生里","LIN":"9鄰","STREET":"大同路","SECT":"二段","MAREA":" ","LANE":" ","ALLEY":" ","HOUSE_NO":"１６２號十一樓之５","E_COORD97":169328.76000000001,"N_COORD97":2542049.1099999999,"ADDRESS":"大同路二段１６２號十一樓之５","OBJECTID":562584},"geometry":{"x":169328.76000000071,"y":2542049.1099999994}},{"attributes":{"ID":562612,"DIS_CODE":0,"TOWNNAME":"仁德區","LI":"仁義里","LIN":"30鄰","STREET":"正義路","SECT":" ","MAREA":" ","LANE":" ","ALLEY":" ","HOUSE_NO":"８７號","E_COORD97":173581.10999999999,"N_COORD97":2541445.52,"ADDRESS":"正義路８７號","OBJECTID":562585},"geometry":{"x":173581.11000000034,"y":2541445.5199999996}},{"attributes":{"ID":562613,"DIS_CODE":0,"TOWNNAME":"南區","LI":"新生里","LIN":"9鄰","STREET":"大同路","SECT":"二段","MAREA":" ","LANE":" ","ALLEY":" ","HOUSE_NO":"１６２號十二樓之１","E_COORD97":169328.76000000001,"N_COORD97":2542049.1099999999,"ADDRESS":"大同路二段１６２號十二樓之１","OBJECTID":562586},"geometry":{"x":169328.76000000071,"y":2542049.1099999994}},{"attributes":{"ID":562614,"DIS_CODE":0,"TOWNNAME":"南區","LI":"新生里","LIN":"9鄰","STREET":"大同路","SECT":"二段","MAREA":" ","LANE":" ","ALLEY":" ","HOUSE_NO":"１６２號十二樓之２","E_COORD97":169328.76000000001,"N_COORD97":2542049.1099999999,"ADDRESS":"大同路二段１６２號十二樓之２","OBJECTID":562587},"geometry":{"x":169328.76000000071,"y":2542049.1099999994}},{"attributes":{"ID":562615,"DIS_CODE":0,"TOWNNAME":"仁德區","LI":"太子里","LIN":"9鄰","STREET":"太子路","SECT":" ","MAREA":" ","LANE":" ","ALLEY":" ","HOUSE_NO":"１３８號","E_COORD97":174552.03,"N_COORD97":2543534.2599999998,"ADDRESS":"太子路１３８號","OBJECTID":562588},"geometry":{"x":174552.03000000119,"y":2543534.2600000035}},{"attributes":{"ID":562616,"DIS_CODE":0,"TOWNNAME":"南區","LI":"新生里","LIN":"9鄰","STREET":"大同路","SECT":"二段","MAREA":" ","LANE":" ","ALLEY":" ","HOUSE_NO":"１６２號十二樓之３","E_COORD97":169328.76000000001,"N_COORD97":2542049.1099999999,"ADDRESS":"大同路二段１６２號十二樓之３","OBJECTID":562589},"geometry":{"x":169328.76000000071,"y":2542049.1099999994}},{"attributes":{"ID":562617,"DIS_CODE":0,"TOWNNAME":"南區","LI":"新生里","LIN":"9鄰","STREET":"大同路","SECT":"二段","MAREA":" ","LANE":" ","ALLEY":" ","HOUSE_NO":"１６２號十二樓之５","E_COORD97":169328.76000000001,"N_COORD97":2542049.1099999999,"ADDRESS":"大同路二段１６２號十二樓之５","OBJECTID":562590},"geometry":{"x":169328.76000000071,"y":2542049.1099999994}},{"attributes":{"ID":562618,"DIS_CODE":0,"TOWNNAME":"南區","LI":"新生里","LIN":"9鄰","STREET":"大同路","SECT":"二段","MAREA":" ","LANE":" ","ALLEY":" ","HOUSE_NO":"１５４號二樓","E_COORD97":169319.62,"N_COORD97":2542092.7799999998,"ADDRESS":"大同路二段１５４號二樓","OBJECTID":562591},"geometry":{"x":169319.62000000197,"y":2542092.7800000031}},{"attributes":{"ID":562619,"DIS_CODE":0,"TOWNNAME":"南區","LI":"新生里","LIN":"9鄰","STREET":"大同路","SECT":"二段","MAREA":" ","LANE":" ","ALLEY":" ","HOUSE_NO":"１５４號十三樓之１","E_COORD97":169319.62,"N_COORD97":2542092.7799999998,"ADDRESS":"大同路二段１５４號十三樓之１","OBJECTID":562592},"geometry":{"x":169319.62000000197,"y":2542092.7800000031}},{"attributes":{"ID":562620,"DIS_CODE":0,"TOWNNAME":"南區","LI":"新生里","LIN":"9鄰","STREET":"大同路","SECT":"二段","MAREA":" ","LANE":" ","ALLEY":" ","HOUSE_NO":"１５４號十三樓之２","E_COORD97":169319.62,"N_COORD97":2542092.7799999998,"ADDRESS":"大同路二段１５４號十三樓之２","OBJECTID":562593},"geometry":{"x":169319.62000000197,"y":2542092.7800000031}},{"attributes":{"ID":562621,"DIS_CODE":0,"TOWNNAME":"安平區","LI":"文平里","LIN":"9鄰","STREET":"建平路","SECT":" ","MAREA":" ","LANE":" ","ALLEY":" ","HOUSE_NO":"２８１號二樓","E_COORD97":166150.76000000001,"N_COORD97":2543268.1000000001,"ADDRESS":"建平路２８１號二樓","OBJECTID":562594},"geometry":{"x":166150.76000000071,"y":2543268.1000000015}},{"attributes":{"ID":562622,"DIS_CODE":0,"TOWNNAME":"南區","LI":"新生里","LIN":"9鄰","STREET":"大同路","SECT":"二段","MAREA":" ","LANE":" ","ALLEY":" ","HOUSE_NO":"１５４號十三樓之３","E_COORD97":169319.62,"N_COORD97":2542092.7799999998,"ADDRESS":"大同路二段１５４號十三樓之３","OBJECTID":562595},"geometry":{"x":169319.62000000197,"y":2542092.7800000031}},{"attributes":{"ID":562623,"DIS_CODE":0,"TOWNNAME":"南區","LI":"新生里","LIN":"9鄰","STREET":"大同路","SECT":"二段","MAREA":" ","LANE":" ","ALLEY":" ","HOUSE_NO":"１５４號十三樓之５","E_COORD97":169319.62,"N_COORD97":2542092.7799999998,"ADDRESS":"大同路二段１５４號十三樓之５","OBJECTID":562596},"geometry":{"x":169319.62000000197,"y":2542092.7800000031}},{"attributes":{"ID":562624,"DIS_CODE":0,"TOWNNAME":"南區","LI":"新生里","LIN":"9鄰","STREET":"大同路","SECT":"二段","MAREA":" ","LANE":" ","ALLEY":" ","HOUSE_NO":"１５４號三樓之１","E_COORD97":169319.62,"N_COORD97":2542092.7799999998,"ADDRESS":"大同路二段１５４號三樓之１","OBJECTID":562597},"geometry":{"x":169319.62000000197,"y":2542092.7800000031}},{"attributes":{"ID":562625,"DIS_CODE":0,"TOWNNAME":"南區","LI":"新生里","LIN":"9鄰","STREET":"大同路","SECT":"二段","MAREA":" ","LANE":" ","ALLEY":" ","HOUSE_NO":"１５４號三樓之２","E_COORD97":169319.62,"N_COORD97":2542092.7799999998,"ADDRESS":"大同路二段１５４號三樓之２","OBJECTID":562598},"geometry":{"x":169319.62000000197,"y":2542092.7800000031}},{"attributes":{"ID":562626,"DIS_CODE":0,"TOWNNAME":"南區","LI":"新生里","LIN":"9鄰","STREET":"大同路","SECT":"二段","MAREA":" ","LANE":" ","ALLEY":" ","HOUSE_NO":"１５４號三樓之３","E_COORD97":169319.62,"N_COORD97":2542092.7799999998,"ADDRESS":"大同路二段１５４號三樓之３","OBJECTID":562599},"geometry":{"x":169319.62000000197,"y":2542092.7800000031}},{"attributes":{"ID":562627,"DIS_CODE":0,"TOWNNAME":"南區","LI":"新生里","LIN":"9鄰","STREET":"大同路","SECT":"二段","MAREA":" ","LANE":" ","ALLEY":" ","HOUSE_NO":"１５４號三樓之５","E_COORD97":169319.62,"N_COORD97":2542092.7799999998,"ADDRESS":"大同路二段１５４號三樓之５","OBJECTID":562600},"geometry":{"x":169319.62000000197,"y":2542092.7800000031}}]}