{"displayFieldName":"TOWNNAME","fieldAliases":{"ID":"ID","DIS_CODE":"DIS_CODE","TOWNNAME":"TOWNNAME","LI":"LI","LIN":"LIN","STREET":"STREET","SECT":"SECT","MAREA":"MAREA","LANE":"LANE","ALLEY":"ALLEY","HOUSE_NO":"HOUSE_NO","E_COORD97":"E_COORD97","N_COORD97":"N_COORD97","ADDRESS":"ADDRESS","OBJECTID":"OBJECTID"},"geometryType":"esriGeometryPoint","spatialReference":{"wkid":102443,"latestWkid":3826},"fields":[{"name":"ID","type":"esriFieldTypeDouble","alias":"ID"},{"name":"DIS_CODE","type":"esriFieldTypeInteger","alias":"DIS_CODE"},{"name":"TOWNNAME","type":"esriFieldTypeString","alias":"TOWNNAME","length":8},{"name":"LI","type":"esriFieldTypeString","alias":"LI","length":8},{"name":"LIN","type":"esriFieldTypeString","alias":"LIN","length":12},{"name":"STREET","type":"esriFieldTypeString","alias":"STREET","length":20},{"name":"SECT","type":"esriFieldTypeString","alias":"SECT","length":8},{"name":"MAREA","type":"esriFieldTypeString","alias":"MAREA","length":12},{"name":"LANE","type":"esriFieldTypeString","alias":"LANE","length":10},{"name":"ALLEY","type":"esriFieldTypeString","alias":"ALLEY","length":10},{"name":"HOUSE_NO","type":"esriFieldTypeString","alias":"HOUSE_NO","length":20},{"name":"E_COORD97","type":"esriFieldTypeDouble","alias":"E_COORD97"},{"name":"N_COORD97","type":"esriFieldTypeDouble","alias":"N_COORD97"},{"name":"ADDRESS","type":"esriFieldTypeString","alias":"ADDRESS","length":50},{"name":"OBJECTID","type":"esriFieldTypeOID","alias":"OBJECTID"}],"features":[{"attributes":{"ID":296809,"DIS_CODE":0,"TOWNNAME":"東區","LI":"德光里","LIN":"14鄰","STREET":"德光街","SECT":" ","MAREA":" ","LANE":" ","ALLEY":" ","HOUSE_NO":"９４號","E_COORD97":170203.56,"N_COORD97":2542321.1499999999,"ADDRESS":"德光街９４號","OBJECTID":296801},"geometry":{"x":170203.55999999959,"y":2542321.1500000004}},{"attributes":{"ID":296810,"DIS_CODE":0,"TOWNNAME":"東區","LI":"德光里","LIN":"14鄰","STREET":"德光街","SECT":" ","MAREA":" ","LANE":" ","ALLEY":" ","HOUSE_NO":"９６號之１","E_COORD97":170189.54999999999,"N_COORD97":2542322,"ADDRESS":"德光街９６號之１","OBJECTID":296802},"geometry":{"x":170189.55000000075,"y":2542322}},{"attributes":{"ID":296811,"DIS_CODE":0,"TOWNNAME":"東區","LI":"德光里","LIN":"14鄰","STREET":"德光街","SECT":" ","MAREA":" ","LANE":" ","ALLEY":" ","HOUSE_NO":"９８號之１","E_COORD97":170199.59,"N_COORD97":2542304.9900000002,"ADDRESS":"德光街９８號之１","OBJECTID":296803},"geometry":{"x":170199.59000000078,"y":2542304.9900000002}},{"attributes":{"ID":296812,"DIS_CODE":0,"TOWNNAME":"東區","LI":"關聖里","LIN":"14鄰","STREET":"裕和二街","SECT":" ","MAREA":" ","LANE":" ","ALLEY":" ","HOUSE_NO":"１０１號","E_COORD97":172210.95000000001,"N_COORD97":2542916.21,"ADDRESS":"裕和二街１０１號","OBJECTID":296804},"geometry":{"x":172210.95000000019,"y":2542916.2100000028}},{"attributes":{"ID":296813,"DIS_CODE":0,"TOWNNAME":"東區","LI":"關聖里","LIN":"14鄰","STREET":"裕和二街","SECT":" ","MAREA":" ","LANE":" ","ALLEY":" ","HOUSE_NO":"１０３號","E_COORD97":172210.95000000001,"N_COORD97":2542911.6200000001,"ADDRESS":"裕和二街１０３號","OBJECTID":296805},"geometry":{"x":172210.95000000019,"y":2542911.620000001}},{"attributes":{"ID":296814,"DIS_CODE":0,"TOWNNAME":"永康區","LI":"東橋里","LIN":"5鄰","STREET":"中山南路","SECT":" ","MAREA":" ","LANE":"１９５巷","ALLEY":" ","HOUSE_NO":"３２之７號三樓之６","E_COORD97":171459.95000000001,"N_COORD97":2546395.8999999999,"ADDRESS":"中山南路１９５巷３２之７號三樓之６","OBJECTID":296806},"geometry":{"x":171459.95000000019,"y":2546395.9000000022}},{"attributes":{"ID":296815,"DIS_CODE":0,"TOWNNAME":"永康區","LI":"崑山里","LIN":"20鄰","STREET":"崑山街","SECT":" ","MAREA":" ","LANE":"２１巷","ALLEY":" ","HOUSE_NO":"１９號五樓之３","E_COORD97":173867.85000000001,"N_COORD97":2544557.3599999999,"ADDRESS":"崑山街２１巷１９號五樓之３","OBJECTID":296807},"geometry":{"x":173867.85000000056,"y":2544557.3600000013}},{"attributes":{"ID":296816,"DIS_CODE":0,"TOWNNAME":"永康區","LI":"東橋里","LIN":"5鄰","STREET":"中山南路","SECT":" ","MAREA":" ","LANE":"１９５巷","ALLEY":" ","HOUSE_NO":"３２之７號五樓之６","E_COORD97":171459.95000000001,"N_COORD97":2546395.8999999999,"ADDRESS":"中山南路１９５巷３２之７號五樓之６","OBJECTID":296808},"geometry":{"x":171459.95000000019,"y":2546395.9000000022}},{"attributes":{"ID":296817,"DIS_CODE":0,"TOWNNAME":"永康區","LI":"東橋里","LIN":"5鄰","STREET":"中山南路","SECT":" ","MAREA":" ","LANE":"１９５巷","ALLEY":" ","HOUSE_NO":"３２之７號九樓之１","E_COORD97":171459.85000000001,"N_COORD97":2546395.8999999999,"ADDRESS":"中山南路１９５巷３２之７號九樓之１","OBJECTID":296809},"geometry":{"x":171459.84999999963,"y":2546395.9000000022}},{"attributes":{"ID":296818,"DIS_CODE":0,"TOWNNAME":"永康區","LI":"埔園里","LIN":"5鄰","STREET":"中山路","SECT":" ","MAREA":" ","LANE":"１５８巷","ALLEY":" ","HOUSE_NO":"３４號八樓之１","E_COORD97":173879.39999999999,"N_COORD97":2547820.04,"ADDRESS":"中山路１５８巷３４號八樓之１","OBJECTID":296810},"geometry":{"x":173879.40000000037,"y":2547820.0399999972}},{"attributes":{"ID":296819,"DIS_CODE":0,"TOWNNAME":"永康區","LI":"東灣里","LIN":"18鄰","STREET":"大灣三街","SECT":" ","MAREA":" ","LANE":"５７巷","ALLEY":" ","HOUSE_NO":"１１號六樓之２","E_COORD97":174967.79000000001,"N_COORD97":2544887.0499999998,"ADDRESS":"大灣三街５７巷１１號六樓之２","OBJECTID":296811},"geometry":{"x":174967.79000000004,"y":2544887.0500000026}},{"attributes":{"ID":296820,"DIS_CODE":0,"TOWNNAME":"安南區","LI":"頂安里","LIN":"17鄰","STREET":"安中二街","SECT":" ","MAREA":" ","LANE":"７７巷","ALLEY":" ","HOUSE_NO":"１０號","E_COORD97":168405.68426499999,"N_COORD97":2548514.80106,"ADDRESS":"安中二街７７巷１０號","OBJECTID":296812},"geometry":{"x":168405.68426500075,"y":2548514.8010569997}},{"attributes":{"ID":296821,"DIS_CODE":0,"TOWNNAME":"安南區","LI":"頂安里","LIN":"17鄰","STREET":"安中二街","SECT":" ","MAREA":" ","LANE":"７７巷","ALLEY":" ","HOUSE_NO":"８號","E_COORD97":168409.71140199999,"N_COORD97":2548515.6477199998,"ADDRESS":"安中二街７７巷８號","OBJECTID":296813},"geometry":{"x":168409.711401999,"y":2548515.6477230005}},{"attributes":{"ID":296822,"DIS_CODE":0,"TOWNNAME":"安南區","LI":"頂安里","LIN":"17鄰","STREET":"安中二街","SECT":" ","MAREA":" ","LANE":"７７巷","ALLEY":" ","HOUSE_NO":"６號","E_COORD97":168414.16244799999,"N_COORD97":2548516.4943900001,"ADDRESS":"安中二街７７巷６號","OBJECTID":296814},"geometry":{"x":168414.16244800203,"y":2548516.4943890031}},{"attributes":{"ID":296823,"DIS_CODE":0,"TOWNNAME":"安南區","LI":"頂安里","LIN":"17鄰","STREET":"安中二街","SECT":" ","MAREA":" ","LANE":"７７巷","ALLEY":" ","HOUSE_NO":"２號","E_COORD97":168418.18958499999,"N_COORD97":2548517.55272,"ADDRESS":"安中二街７７巷２號","OBJECTID":296815},"geometry":{"x":168418.18958500121,"y":2548517.5527220014}},{"attributes":{"ID":296824,"DIS_CODE":0,"TOWNNAME":"永康區","LI":"埔園里","LIN":"24鄰","STREET":"中正路","SECT":" ","MAREA":" ","LANE":"１４８巷","ALLEY":" ","HOUSE_NO":"２號之１三樓","E_COORD97":173558.62,"N_COORD97":2547937.54,"ADDRESS":"中正路１４８巷２號之１三樓","OBJECTID":296816},"geometry":{"x":173558.62000000011,"y":2547937.5399999991}},{"attributes":{"ID":296825,"DIS_CODE":0,"TOWNNAME":"安南區","LI":"淵東里","LIN":"17鄰","STREET":"功安一街","SECT":" ","MAREA":" ","LANE":"２２６巷","ALLEY":" ","HOUSE_NO":"１號","E_COORD97":165884.42000000001,"N_COORD97":2550074.2999999998,"ADDRESS":"功安一街２２６巷１號","OBJECTID":296817},"geometry":{"x":165884.41999999993,"y":2550074.3000000007}},{"attributes":{"ID":296826,"DIS_CODE":0,"TOWNNAME":"安南區","LI":"淵東里","LIN":"17鄰","STREET":"功安一街","SECT":" ","MAREA":" ","LANE":"２２６巷","ALLEY":" ","HOUSE_NO":"３號","E_COORD97":165883.62,"N_COORD97":2550078.1099999999,"ADDRESS":"功安一街２２６巷３號","OBJECTID":296818},"geometry":{"x":165883.62000000104,"y":2550078.1100000031}},{"attributes":{"ID":296827,"DIS_CODE":0,"TOWNNAME":"安南區","LI":"淵東里","LIN":"17鄰","STREET":"功安一街","SECT":" ","MAREA":" ","LANE":"２２６巷","ALLEY":" ","HOUSE_NO":"５號","E_COORD97":165882.35000000001,"N_COORD97":2550083.3500000001,"ADDRESS":"功安一街２２６巷５號","OBJECTID":296819},"geometry":{"x":165882.34999999963,"y":2550083.3500000034}},{"attributes":{"ID":296828,"DIS_CODE":0,"TOWNNAME":"安南區","LI":"淵東里","LIN":"17鄰","STREET":"功安一街","SECT":" ","MAREA":" ","LANE":"２２６巷","ALLEY":" ","HOUSE_NO":"７號","E_COORD97":165880.76999999999,"N_COORD97":2550088.75,"ADDRESS":"功安一街２２６巷７號","OBJECTID":296820},"geometry":{"x":165880.77000000048,"y":2550088.7500000019}},{"attributes":{"ID":296829,"DIS_CODE":0,"TOWNNAME":"安南區","LI":"淵東里","LIN":"17鄰","STREET":"功安一街","SECT":" ","MAREA":" ","LANE":"２２６巷","ALLEY":" ","HOUSE_NO":"２號","E_COORD97":165896.01000000001,"N_COORD97":2550075.0899999999,"ADDRESS":"功安一街２２６巷２號","OBJECTID":296821},"geometry":{"x":165896.01000000071,"y":2550075.089999998}},{"attributes":{"ID":296830,"DIS_CODE":0,"TOWNNAME":"安南區","LI":"淵東里","LIN":"17鄰","STREET":"功安一街","SECT":" ","MAREA":" ","LANE":"２２６巷","ALLEY":" ","HOUSE_NO":"６號","E_COORD97":165895.53,"N_COORD97":2550079.0600000001,"ADDRESS":"功安一街２２６巷６號","OBJECTID":296822},"geometry":{"x":165895.53000000026,"y":2550079.0600000005}},{"attributes":{"ID":296831,"DIS_CODE":0,"TOWNNAME":"安南區","LI":"淵東里","LIN":"17鄰","STREET":"功安一街","SECT":" ","MAREA":" ","LANE":"２２６巷","ALLEY":" ","HOUSE_NO":"８號","E_COORD97":165894.73999999999,"N_COORD97":2550083.1899999999,"ADDRESS":"功安一街２２６巷８號","OBJECTID":296823},"geometry":{"x":165894.74000000115,"y":2550083.1899999995}},{"attributes":{"ID":296832,"DIS_CODE":0,"TOWNNAME":"安南區","LI":"淵東里","LIN":"17鄰","STREET":"功安一街","SECT":" ","MAREA":" ","LANE":"２２６巷","ALLEY":" ","HOUSE_NO":"１０號","E_COORD97":165893.94,"N_COORD97":2550087.3199999998,"ADDRESS":"功安一街２２６巷１０號","OBJECTID":296824},"geometry":{"x":165893.94000000134,"y":2550087.3200000003}},{"attributes":{"ID":296833,"DIS_CODE":0,"TOWNNAME":"安南區","LI":"淵東里","LIN":"17鄰","STREET":"功安一街","SECT":" ","MAREA":" ","LANE":"２２６巷","ALLEY":" ","HOUSE_NO":"１２號","E_COORD97":165893.14999999999,"N_COORD97":2550091.1299999999,"ADDRESS":"功安一街２２６巷１２號","OBJECTID":296825},"geometry":{"x":165893.15000000037,"y":2550091.1300000027}},{"attributes":{"ID":296834,"DIS_CODE":0,"TOWNNAME":"安南區","LI":"淵東里","LIN":"17鄰","STREET":"功安一街","SECT":" ","MAREA":" ","LANE":"２２６巷","ALLEY":" ","HOUSE_NO":"１６號","E_COORD97":165892.51000000001,"N_COORD97":2550095.4100000001,"ADDRESS":"功安一街２２６巷１６號","OBJECTID":296826},"geometry":{"x":165892.51000000071,"y":2550095.410000002}},{"attributes":{"ID":296835,"DIS_CODE":0,"TOWNNAME":"東區","LI":"關聖里","LIN":"14鄰","STREET":"裕和二街","SECT":" ","MAREA":" ","LANE":" ","ALLEY":" ","HOUSE_NO":"６１號","E_COORD97":172208.70000000001,"N_COORD97":2542980.2200000002,"ADDRESS":"裕和二街６１號","OBJECTID":296827},"geometry":{"x":172208.70000000019,"y":2542980.2200000025}},{"attributes":{"ID":296836,"DIS_CODE":0,"TOWNNAME":"東區","LI":"關聖里","LIN":"14鄰","STREET":"裕和二街","SECT":" ","MAREA":" ","LANE":" ","ALLEY":" ","HOUSE_NO":"６３號","E_COORD97":172214.32999999999,"N_COORD97":2542983.7200000002,"ADDRESS":"裕和二街６３號","OBJECTID":296828},"geometry":{"x":172214.33000000101,"y":2542983.7200000025}},{"attributes":{"ID":296837,"DIS_CODE":0,"TOWNNAME":"東區","LI":"關聖里","LIN":"14鄰","STREET":"裕和二街","SECT":" ","MAREA":" ","LANE":" ","ALLEY":" ","HOUSE_NO":"６５號","E_COORD97":172218.44,"N_COORD97":2542980.6800000002,"ADDRESS":"裕和二街６５號","OBJECTID":296829},"geometry":{"x":172218.44000000134,"y":2542980.6799999997}},{"attributes":{"ID":296838,"DIS_CODE":0,"TOWNNAME":"東區","LI":"關聖里","LIN":"14鄰","STREET":"裕和二街","SECT":" ","MAREA":" ","LANE":" ","ALLEY":" ","HOUSE_NO":"６７號","E_COORD97":172224.22,"N_COORD97":2542983.2599999998,"ADDRESS":"裕和二街６７號","OBJECTID":296830},"geometry":{"x":172224.22000000067,"y":2542983.2599999998}},{"attributes":{"ID":296839,"DIS_CODE":0,"TOWNNAME":"東區","LI":"關聖里","LIN":"14鄰","STREET":"裕和二街","SECT":" ","MAREA":" ","LANE":" ","ALLEY":" ","HOUSE_NO":"６９號","E_COORD97":172224.22,"N_COORD97":2542971.8599999999,"ADDRESS":"裕和二街６９號","OBJECTID":296831},"geometry":{"x":172224.22000000067,"y":2542971.8599999994}},{"attributes":{"ID":296840,"DIS_CODE":0,"TOWNNAME":"東區","LI":"關聖里","LIN":"14鄰","STREET":"裕和二街","SECT":" ","MAREA":" ","LANE":" ","ALLEY":" ","HOUSE_NO":"７３號","E_COORD97":172213.87,"N_COORD97":2542971.8599999999,"ADDRESS":"裕和二街７３號","OBJECTID":296832},"geometry":{"x":172213.87000000104,"y":2542971.8599999994}},{"attributes":{"ID":296841,"DIS_CODE":0,"TOWNNAME":"東區","LI":"關聖里","LIN":"14鄰","STREET":"裕和二街","SECT":" ","MAREA":" ","LANE":" ","ALLEY":" ","HOUSE_NO":"７５號","E_COORD97":172209,"N_COORD97":2542968.5099999998,"ADDRESS":"裕和二街７５號","OBJECTID":296833},"geometry":{"x":172209.00000000186,"y":2542968.5099999998}},{"attributes":{"ID":296842,"DIS_CODE":0,"TOWNNAME":"東區","LI":"關聖里","LIN":"14鄰","STREET":"裕和二街","SECT":" ","MAREA":" ","LANE":" ","ALLEY":" ","HOUSE_NO":"７７號","E_COORD97":172208.54999999999,"N_COORD97":2542955.2799999998,"ADDRESS":"裕和二街７７號","OBJECTID":296834},"geometry":{"x":172208.55000000075,"y":2542955.2800000012}},{"attributes":{"ID":296843,"DIS_CODE":0,"TOWNNAME":"東區","LI":"關聖里","LIN":"14鄰","STREET":"裕和二街","SECT":" ","MAREA":" ","LANE":" ","ALLEY":" ","HOUSE_NO":"７９號","E_COORD97":172214.32999999999,"N_COORD97":2542958.6299999999,"ADDRESS":"裕和二街７９號","OBJECTID":296835},"geometry":{"x":172214.33000000101,"y":2542958.6300000008}},{"attributes":{"ID":296844,"DIS_CODE":0,"TOWNNAME":"東區","LI":"關聖里","LIN":"14鄰","STREET":"裕和二街","SECT":" ","MAREA":" ","LANE":" ","ALLEY":" ","HOUSE_NO":"８１號","E_COORD97":172219.35000000001,"N_COORD97":2542956.0499999998,"ADDRESS":"裕和二街８１號","OBJECTID":296836},"geometry":{"x":172219.34999999963,"y":2542956.0500000007}},{"attributes":{"ID":296845,"DIS_CODE":0,"TOWNNAME":"永康區","LI":"東灣里","LIN":"18鄰","STREET":"大灣三街","SECT":" ","MAREA":" ","LANE":"５７巷","ALLEY":" ","HOUSE_NO":"１１號四樓之２","E_COORD97":174967.79000000001,"N_COORD97":2544887.0499999998,"ADDRESS":"大灣三街５７巷１１號四樓之２","OBJECTID":296837},"geometry":{"x":174967.79000000004,"y":2544887.0500000026}},{"attributes":{"ID":296846,"DIS_CODE":0,"TOWNNAME":"永康區","LI":"東灣里","LIN":"18鄰","STREET":"大灣三街","SECT":" ","MAREA":" ","LANE":"５７巷","ALLEY":" ","HOUSE_NO":"１３號三樓之１","E_COORD97":174970.45999999999,"N_COORD97":2544885.0499999998,"ADDRESS":"大灣三街５７巷１３號三樓之１","OBJECTID":296838},"geometry":{"x":174970.45999999903,"y":2544885.0500000007}},{"attributes":{"ID":296847,"DIS_CODE":0,"TOWNNAME":"南區","LI":"明亮里","LIN":"17鄰","STREET":"金華路","SECT":"一段","MAREA":" ","LANE":"３５２巷","ALLEY":" ","HOUSE_NO":"７７號","E_COORD97":167193.76999999999,"N_COORD97":2541125,"ADDRESS":"金華路一段３５２巷７７號","OBJECTID":296839},"geometry":{"x":167193.76999999862,"y":2541125}},{"attributes":{"ID":296848,"DIS_CODE":0,"TOWNNAME":"南區","LI":"明亮里","LIN":"17鄰","STREET":"金華路","SECT":"一段","MAREA":" ","LANE":"３５２巷","ALLEY":" ","HOUSE_NO":"７９號","E_COORD97":167196.53,"N_COORD97":2541121.0099999998,"ADDRESS":"金華路一段３５２巷７９號","OBJECTID":296840},"geometry":{"x":167196.53000000119,"y":2541121.0099999998}},{"attributes":{"ID":296849,"DIS_CODE":0,"TOWNNAME":"南區","LI":"明亮里","LIN":"17鄰","STREET":"金華路","SECT":"一段","MAREA":" ","LANE":"３５２巷","ALLEY":" ","HOUSE_NO":"８１號","E_COORD97":167200.82999999999,"N_COORD97":2541118.8599999999,"ADDRESS":"金華路一段３５２巷８１號","OBJECTID":296841},"geometry":{"x":167200.83000000194,"y":2541118.8599999975}},{"attributes":{"ID":296850,"DIS_CODE":0,"TOWNNAME":"南區","LI":"明亮里","LIN":"17鄰","STREET":"金華路","SECT":"一段","MAREA":" ","LANE":"３５２巷","ALLEY":" ","HOUSE_NO":"８３號","E_COORD97":167203.29000000001,"N_COORD97":2541116.4100000001,"ADDRESS":"金華路一段３５２巷８３號","OBJECTID":296842},"geometry":{"x":167203.29000000097,"y":2541116.410000002}},{"attributes":{"ID":296851,"DIS_CODE":0,"TOWNNAME":"南區","LI":"明亮里","LIN":"17鄰","STREET":"金華路","SECT":"一段","MAREA":" ","LANE":"３５２巷","ALLEY":" ","HOUSE_NO":"８５號","E_COORD97":167206.04999999999,"N_COORD97":2541113.3399999999,"ADDRESS":"金華路一段３５２巷８５號","OBJECTID":296843},"geometry":{"x":167206.05000000075,"y":2541113.3400000017}},{"attributes":{"ID":296852,"DIS_CODE":0,"TOWNNAME":"南區","LI":"明亮里","LIN":"17鄰","STREET":"金華路","SECT":"一段","MAREA":" ","LANE":"３５２巷","ALLEY":" ","HOUSE_NO":"８７號","E_COORD97":167209.73999999999,"N_COORD97":2541110.5800000001,"ADDRESS":"金華路一段３５２巷８７號","OBJECTID":296844},"geometry":{"x":167209.74000000022,"y":2541110.5800000001}},{"attributes":{"ID":296853,"DIS_CODE":0,"TOWNNAME":"安南區","LI":"頂安里","LIN":"17鄰","STREET":"安中二街","SECT":" ","MAREA":" ","LANE":"７７巷","ALLEY":" ","HOUSE_NO":"７號","E_COORD97":168416.07003900001,"N_COORD97":2548487.0727400002,"ADDRESS":"安中二街７７巷７號","OBJECTID":296845},"geometry":{"x":168416.07003900036,"y":2548487.0727380011}},{"attributes":{"ID":296854,"DIS_CODE":0,"TOWNNAME":"安南區","LI":"頂安里","LIN":"17鄰","STREET":"安中二街","SECT":" ","MAREA":" ","LANE":"７７巷","ALLEY":" ","HOUSE_NO":"５號","E_COORD97":168420.30913000001,"N_COORD97":2548487.9194,"ADDRESS":"安中二街７７巷５號","OBJECTID":296846},"geometry":{"x":168420.30912999995,"y":2548487.9194050021}},{"attributes":{"ID":296855,"DIS_CODE":0,"TOWNNAME":"安南區","LI":"頂安里","LIN":"17鄰","STREET":"安中二街","SECT":" ","MAREA":" ","LANE":"７７巷","ALLEY":" ","HOUSE_NO":"３號","E_COORD97":168424.76017600001,"N_COORD97":2548488.7660699999,"ADDRESS":"安中二街７７巷３號","OBJECTID":296847},"geometry":{"x":168424.76017600019,"y":2548488.7660709992}},{"attributes":{"ID":296856,"DIS_CODE":0,"TOWNNAME":"南區","LI":"明亮里","LIN":"17鄰","STREET":"金華路","SECT":"一段","MAREA":" ","LANE":"３５２巷","ALLEY":" ","HOUSE_NO":"８９號","E_COORD97":167212.20000000001,"N_COORD97":2541108.7400000002,"ADDRESS":"金華路一段３５２巷８９號","OBJECTID":296848},"geometry":{"x":167212.20000000112,"y":2541108.7400000021}},{"attributes":{"ID":296857,"DIS_CODE":0,"TOWNNAME":"南區","LI":"明亮里","LIN":"17鄰","STREET":"金華路","SECT":"一段","MAREA":" ","LANE":"３５２巷","ALLEY":" ","HOUSE_NO":"９１號","E_COORD97":167215.57999999999,"N_COORD97":2541106.2799999998,"ADDRESS":"金華路一段３５２巷９１號","OBJECTID":296849},"geometry":{"x":167215.58000000007,"y":2541106.2800000012}},{"attributes":{"ID":296858,"DIS_CODE":0,"TOWNNAME":"南區","LI":"明亮里","LIN":"17鄰","STREET":"金華路","SECT":"一段","MAREA":" ","LANE":"３５２巷","ALLEY":" ","HOUSE_NO":"９３號","E_COORD97":167222.34,"N_COORD97":2541102.2999999998,"ADDRESS":"金華路一段３５２巷９３號","OBJECTID":296850},"geometry":{"x":167222.33999999985,"y":2541102.3000000007}},{"attributes":{"ID":296859,"DIS_CODE":0,"TOWNNAME":"東區","LI":"關聖里","LIN":"14鄰","STREET":"裕和二街","SECT":" ","MAREA":" ","LANE":" ","ALLEY":" ","HOUSE_NO":"８３號","E_COORD97":172224.53,"N_COORD97":2542958.1699999999,"ADDRESS":"裕和二街８３號","OBJECTID":296851},"geometry":{"x":172224.53000000119,"y":2542958.1699999981}},{"attributes":{"ID":296860,"DIS_CODE":0,"TOWNNAME":"東區","LI":"關聖里","LIN":"14鄰","STREET":"裕和二街","SECT":" ","MAREA":" ","LANE":" ","ALLEY":" ","HOUSE_NO":"８５號","E_COORD97":172224.53,"N_COORD97":2542945.71,"ADDRESS":"裕和二街８５號","OBJECTID":296852},"geometry":{"x":172224.53000000119,"y":2542945.7100000046}},{"attributes":{"ID":296861,"DIS_CODE":0,"TOWNNAME":"東區","LI":"大同里","LIN":"4鄰","STREET":"大同路","SECT":"一段","MAREA":" ","LANE":"７１巷","ALLEY":" ","HOUSE_NO":"２４號二樓之３","E_COORD97":169271.64000000001,"N_COORD97":2543068.1499999999,"ADDRESS":"大同路一段７１巷２４號二樓之３","OBJECTID":296853},"geometry":{"x":169271.6400000006,"y":2543068.1500000022}},{"attributes":{"ID":296862,"DIS_CODE":0,"TOWNNAME":"東區","LI":"大同里","LIN":"4鄰","STREET":"大同路","SECT":"一段","MAREA":" ","LANE":"７１巷","ALLEY":" ","HOUSE_NO":"２４號五樓之２","E_COORD97":169271.64000000001,"N_COORD97":2543068.1499999999,"ADDRESS":"大同路一段７１巷２４號五樓之２","OBJECTID":296854},"geometry":{"x":169271.6400000006,"y":2543068.1500000022}},{"attributes":{"ID":296863,"DIS_CODE":0,"TOWNNAME":"仁德區","LI":"太子里","LIN":"4鄰","STREET":"太子路","SECT":" ","MAREA":" ","LANE":"１９０巷","ALLEY":" ","HOUSE_NO":"１８號五樓","E_COORD97":174327.85000000001,"N_COORD97":2543647.0099999998,"ADDRESS":"太子路１９０巷１８號五樓","OBJECTID":296855},"geometry":{"x":174327.84999999963,"y":2543647.0099999998}},{"attributes":{"ID":296864,"DIS_CODE":0,"TOWNNAME":"南區","LI":"明亮里","LIN":"17鄰","STREET":"金華路","SECT":"一段","MAREA":" ","LANE":"３５２巷","ALLEY":" ","HOUSE_NO":"９５號","E_COORD97":167229.39999999999,"N_COORD97":2541101.9900000002,"ADDRESS":"金華路一段３５２巷９５號","OBJECTID":296856},"geometry":{"x":167229.39999999944,"y":2541101.9900000039}},{"attributes":{"ID":296865,"DIS_CODE":0,"TOWNNAME":"西港區","LI":"西港里","LIN":"17鄰","STREET":"中山路","SECT":" ","MAREA":" ","LANE":"２４６巷","ALLEY":" ","HOUSE_NO":"１號","E_COORD97":168444.13,"N_COORD97":2557825.1499999999,"ADDRESS":"中山路２４６巷１號","OBJECTID":296857},"geometry":{"x":168444.12999999989,"y":2557825.1500000004}},{"attributes":{"ID":296866,"DIS_CODE":0,"TOWNNAME":"西港區","LI":"西港里","LIN":"17鄰","STREET":"中山路","SECT":" ","MAREA":" ","LANE":"２４６巷","ALLEY":" ","HOUSE_NO":"２號","E_COORD97":168455.54000000001,"N_COORD97":2557809.73,"ADDRESS":"中山路２４６巷２號","OBJECTID":296858},"geometry":{"x":168455.5400000019,"y":2557809.7300000023}},{"attributes":{"ID":296867,"DIS_CODE":0,"TOWNNAME":"西港區","LI":"西港里","LIN":"17鄰","STREET":"中山路","SECT":" ","MAREA":" ","LANE":"２４６巷","ALLEY":" ","HOUSE_NO":"４號","E_COORD97":168460.42999999999,"N_COORD97":2557810.6200000001,"ADDRESS":"中山路２４６巷４號","OBJECTID":296859},"geometry":{"x":168460.4299999997,"y":2557810.6200000029}},{"attributes":{"ID":296868,"DIS_CODE":0,"TOWNNAME":"西港區","LI":"西港里","LIN":"17鄰","STREET":"中山路","SECT":" ","MAREA":" ","LANE":"２４６巷","ALLEY":" ","HOUSE_NO":"５號","E_COORD97":168454.32000000001,"N_COORD97":2557827.3999999999,"ADDRESS":"中山路２４６巷５號","OBJECTID":296860},"geometry":{"x":168454.32000000123,"y":2557827.3999999985}},{"attributes":{"ID":296869,"DIS_CODE":0,"TOWNNAME":"東區","LI":"關聖里","LIN":"14鄰","STREET":"裕和二街","SECT":" ","MAREA":" ","LANE":" ","ALLEY":" ","HOUSE_NO":"８７號","E_COORD97":172218.89000000001,"N_COORD97":2542943.1200000001,"ADDRESS":"裕和二街８７號","OBJECTID":296861},"geometry":{"x":172218.88999999966,"y":2542943.1200000048}},{"attributes":{"ID":296870,"DIS_CODE":0,"TOWNNAME":"東區","LI":"關聖里","LIN":"14鄰","STREET":"裕和二街","SECT":" ","MAREA":" ","LANE":" ","ALLEY":" ","HOUSE_NO":"８９號","E_COORD97":172213.87,"N_COORD97":2542946.4700000002,"ADDRESS":"裕和二街８９號","OBJECTID":296862},"geometry":{"x":172213.87000000104,"y":2542946.4700000007}},{"attributes":{"ID":296871,"DIS_CODE":0,"TOWNNAME":"東區","LI":"關聖里","LIN":"14鄰","STREET":"裕和二街","SECT":" ","MAREA":" ","LANE":" ","ALLEY":" ","HOUSE_NO":"９１號","E_COORD97":172208.23999999999,"N_COORD97":2542942.3599999999,"ADDRESS":"裕和二街９１號","OBJECTID":296863},"geometry":{"x":172208.24000000115,"y":2542942.3599999994}},{"attributes":{"ID":296872,"DIS_CODE":0,"TOWNNAME":"東區","LI":"關聖里","LIN":"14鄰","STREET":"裕和二街","SECT":" ","MAREA":" ","LANE":" ","ALLEY":" ","HOUSE_NO":"９３號","E_COORD97":172210.10000000001,"N_COORD97":2542935.75,"ADDRESS":"裕和二街９３號","OBJECTID":296864},"geometry":{"x":172210.10000000056,"y":2542935.7500000019}},{"attributes":{"ID":296873,"DIS_CODE":0,"TOWNNAME":"南區","LI":"開南里","LIN":"4鄰","STREET":"中華西路","SECT":"一段","MAREA":" ","LANE":"３６巷","ALLEY":" ","HOUSE_NO":"１１號二樓","E_COORD97":166373.26000000001,"N_COORD97":2540962.73,"ADDRESS":"中華西路一段３６巷１１號二樓","OBJECTID":296865},"geometry":{"x":166373.25999999978,"y":2540962.7300000023}},{"attributes":{"ID":296874,"DIS_CODE":0,"TOWNNAME":"南區","LI":"開南里","LIN":"4鄰","STREET":"中華西路","SECT":"一段","MAREA":" ","LANE":"３６巷","ALLEY":" ","HOUSE_NO":"１１號三樓","E_COORD97":166373.26000000001,"N_COORD97":2540962.73,"ADDRESS":"中華西路一段３６巷１１號三樓","OBJECTID":296866},"geometry":{"x":166373.25999999978,"y":2540962.7300000023}},{"attributes":{"ID":296875,"DIS_CODE":0,"TOWNNAME":"南區","LI":"開南里","LIN":"4鄰","STREET":"中華西路","SECT":"一段","MAREA":" ","LANE":"３６巷","ALLEY":" ","HOUSE_NO":"１１號五樓","E_COORD97":166373.26000000001,"N_COORD97":2540962.73,"ADDRESS":"中華西路一段３６巷１１號五樓","OBJECTID":296867},"geometry":{"x":166373.25999999978,"y":2540962.7300000023}},{"attributes":{"ID":296876,"DIS_CODE":0,"TOWNNAME":"南區","LI":"開南里","LIN":"4鄰","STREET":"中華西路","SECT":"一段","MAREA":" ","LANE":"３６巷","ALLEY":" ","HOUSE_NO":"１１號四樓","E_COORD97":166373.26000000001,"N_COORD97":2540962.73,"ADDRESS":"中華西路一段３６巷１１號四樓","OBJECTID":296868},"geometry":{"x":166373.25999999978,"y":2540962.7300000023}},{"attributes":{"ID":296877,"DIS_CODE":0,"TOWNNAME":"南區","LI":"開南里","LIN":"4鄰","STREET":"中華西路","SECT":"一段","MAREA":" ","LANE":"３６巷","ALLEY":" ","HOUSE_NO":"１號二樓","E_COORD97":166333.35000000001,"N_COORD97":2540962.4399999999,"ADDRESS":"中華西路一段３６巷１號二樓","OBJECTID":296869},"geometry":{"x":166333.34999999963,"y":2540962.4399999976}},{"attributes":{"ID":296878,"DIS_CODE":0,"TOWNNAME":"南區","LI":"開南里","LIN":"4鄰","STREET":"中華西路","SECT":"一段","MAREA":" ","LANE":"３６巷","ALLEY":" ","HOUSE_NO":"１號三樓","E_COORD97":166333.35000000001,"N_COORD97":2540962.4399999999,"ADDRESS":"中華西路一段３６巷１號三樓","OBJECTID":296870},"geometry":{"x":166333.34999999963,"y":2540962.4399999976}},{"attributes":{"ID":296879,"DIS_CODE":0,"TOWNNAME":"南區","LI":"開南里","LIN":"4鄰","STREET":"中華西路","SECT":"一段","MAREA":" ","LANE":"３６巷","ALLEY":" ","HOUSE_NO":"１號五樓","E_COORD97":166333.35000000001,"N_COORD97":2540962.4399999999,"ADDRESS":"中華西路一段３６巷１號五樓","OBJECTID":296871},"geometry":{"x":166333.34999999963,"y":2540962.4399999976}},{"attributes":{"ID":296880,"DIS_CODE":0,"TOWNNAME":"南區","LI":"開南里","LIN":"4鄰","STREET":"中華西路","SECT":"一段","MAREA":" ","LANE":"３６巷","ALLEY":" ","HOUSE_NO":"１號四樓","E_COORD97":166333.35000000001,"N_COORD97":2540962.4399999999,"ADDRESS":"中華西路一段３６巷１號四樓","OBJECTID":296872},"geometry":{"x":166333.34999999963,"y":2540962.4399999976}},{"attributes":{"ID":296881,"DIS_CODE":0,"TOWNNAME":"西港區","LI":"西港里","LIN":"17鄰","STREET":"中山路","SECT":" ","MAREA":" ","LANE":"２４６巷","ALLEY":" ","HOUSE_NO":"６號","E_COORD97":168464.48999999999,"N_COORD97":2557811.3199999998,"ADDRESS":"中山路２４６巷６號","OBJECTID":296873},"geometry":{"x":168464.49000000209,"y":2557811.320000004}},{"attributes":{"ID":296882,"DIS_CODE":0,"TOWNNAME":"西港區","LI":"西港里","LIN":"17鄰","STREET":"中山路","SECT":" ","MAREA":" ","LANE":"２４６巷","ALLEY":" ","HOUSE_NO":"７號","E_COORD97":168462.69,"N_COORD97":2557829.1499999999,"ADDRESS":"中山路２４６巷７號","OBJECTID":296874},"geometry":{"x":168462.69000000041,"y":2557829.1500000041}},{"attributes":{"ID":296883,"DIS_CODE":0,"TOWNNAME":"西港區","LI":"西港里","LIN":"17鄰","STREET":"中山路","SECT":" ","MAREA":" ","LANE":"２４６巷","ALLEY":" ","HOUSE_NO":"８號","E_COORD97":168469.29000000001,"N_COORD97":2557811.8900000001,"ADDRESS":"中山路２４６巷８號","OBJECTID":296875},"geometry":{"x":168469.29000000097,"y":2557811.8900000025}},{"attributes":{"ID":296884,"DIS_CODE":0,"TOWNNAME":"西港區","LI":"西港里","LIN":"17鄰","STREET":"中山路","SECT":" ","MAREA":" ","LANE":"２４６巷","ALLEY":" ","HOUSE_NO":"９號","E_COORD97":168468.87,"N_COORD97":2557830.1000000001,"ADDRESS":"中山路２４６巷９號","OBJECTID":296876},"geometry":{"x":168468.87000000104,"y":2557830.1000000015}},{"attributes":{"ID":296885,"DIS_CODE":0,"TOWNNAME":"東區","LI":"關聖里","LIN":"14鄰","STREET":"裕和二街","SECT":" ","MAREA":" ","LANE":" ","ALLEY":" ","HOUSE_NO":"９５號","E_COORD97":172210.10000000001,"N_COORD97":2542931.1699999999,"ADDRESS":"裕和二街９５號","OBJECTID":296877},"geometry":{"x":172210.10000000056,"y":2542931.1699999981}},{"attributes":{"ID":296886,"DIS_CODE":0,"TOWNNAME":"東區","LI":"關聖里","LIN":"14鄰","STREET":"裕和二街","SECT":" ","MAREA":" ","LANE":" ","ALLEY":" ","HOUSE_NO":"９７號","E_COORD97":172210.10000000001,"N_COORD97":2542926.9199999999,"ADDRESS":"裕和二街９７號","OBJECTID":296878},"geometry":{"x":172210.10000000056,"y":2542926.9200000018}},{"attributes":{"ID":296887,"DIS_CODE":0,"TOWNNAME":"東區","LI":"關聖里","LIN":"14鄰","STREET":"裕和二街","SECT":" ","MAREA":" ","LANE":" ","ALLEY":" ","HOUSE_NO":"９９號","E_COORD97":172210.60999999999,"N_COORD97":2542921.48,"ADDRESS":"裕和二街９９號","OBJECTID":296879},"geometry":{"x":172210.61000000127,"y":2542921.4800000004}},{"attributes":{"ID":296888,"DIS_CODE":0,"TOWNNAME":"東區","LI":"關聖里","LIN":"14鄰","STREET":"裕忠路","SECT":" ","MAREA":" ","LANE":" ","ALLEY":" ","HOUSE_NO":"１３８號","E_COORD97":172238.22,"N_COORD97":2543002.0699999998,"ADDRESS":"裕忠路１３８號","OBJECTID":296880},"geometry":{"x":172238.22000000067,"y":2543002.0700000003}},{"attributes":{"ID":296889,"DIS_CODE":0,"TOWNNAME":"東區","LI":"南聖里","LIN":"14鄰","STREET":"裕誠街","SECT":" ","MAREA":" ","LANE":" ","ALLEY":" ","HOUSE_NO":"１２３號","E_COORD97":172441.54000000001,"N_COORD97":2543307.6800000002,"ADDRESS":"裕誠街１２３號","OBJECTID":296881},"geometry":{"x":172441.54000000097,"y":2543307.6800000016}},{"attributes":{"ID":296890,"DIS_CODE":0,"TOWNNAME":"東區","LI":"南聖里","LIN":"14鄰","STREET":"裕誠街","SECT":" ","MAREA":" ","LANE":" ","ALLEY":" ","HOUSE_NO":"１７９號","E_COORD97":172572.04000000001,"N_COORD97":2543330.52,"ADDRESS":"裕誠街１７９號","OBJECTID":296882},"geometry":{"x":172572.04000000097,"y":2543330.5199999996}},{"attributes":{"ID":296891,"DIS_CODE":0,"TOWNNAME":"東區","LI":"南聖里","LIN":"14鄰","STREET":"裕誠街","SECT":" ","MAREA":" ","LANE":" ","ALLEY":" ","HOUSE_NO":"１８１號","E_COORD97":172577.51999999999,"N_COORD97":2543331.96,"ADDRESS":"裕誠街１８１號","OBJECTID":296883},"geometry":{"x":172577.51999999955,"y":2543331.9600000028}},{"attributes":{"ID":296892,"DIS_CODE":0,"TOWNNAME":"東區","LI":"南聖里","LIN":"14鄰","STREET":"裕誠街","SECT":" ","MAREA":" ","LANE":" ","ALLEY":" ","HOUSE_NO":"１８３號","E_COORD97":172582.81,"N_COORD97":2543331.96,"ADDRESS":"裕誠街１８３號","OBJECTID":296884},"geometry":{"x":172582.81000000052,"y":2543331.9600000028}},{"attributes":{"ID":296893,"DIS_CODE":0,"TOWNNAME":"西港區","LI":"西港里","LIN":"17鄰","STREET":"中山路","SECT":" ","MAREA":" ","LANE":"２８２巷","ALLEY":" ","HOUSE_NO":"１６號","E_COORD97":168469.25,"N_COORD97":2557850.3500000001,"ADDRESS":"中山路２８２巷１６號","OBJECTID":296885},"geometry":{"x":168469.25000000186,"y":2557850.3499999996}},{"attributes":{"ID":296894,"DIS_CODE":0,"TOWNNAME":"東區","LI":"大德里","LIN":"17鄰","STREET":"立德十一路","SECT":" ","MAREA":" ","LANE":"８１巷","ALLEY":" ","HOUSE_NO":"１０號","E_COORD97":169561.37,"N_COORD97":2542141.2200000002,"ADDRESS":"立德十一路８１巷１０號","OBJECTID":296886},"geometry":{"x":169561.37000000011,"y":2542141.2200000007}},{"attributes":{"ID":296895,"DIS_CODE":0,"TOWNNAME":"東區","LI":"大德里","LIN":"17鄰","STREET":"立德十一路","SECT":" ","MAREA":" ","LANE":"８１巷","ALLEY":" ","HOUSE_NO":"１４號","E_COORD97":169559.12,"N_COORD97":2542149.04,"ADDRESS":"立德十一路８１巷１４號","OBJECTID":296887},"geometry":{"x":169559.12000000104,"y":2542149.040000001}},{"attributes":{"ID":296896,"DIS_CODE":0,"TOWNNAME":"東區","LI":"大德里","LIN":"17鄰","STREET":"立德十一路","SECT":" ","MAREA":" ","LANE":"８１巷","ALLEY":" ","HOUSE_NO":"１６號","E_COORD97":169558.07000000001,"N_COORD97":2542152.5699999998,"ADDRESS":"立德十一路８１巷１６號","OBJECTID":296888},"geometry":{"x":169558.07000000123,"y":2542152.570000004}},{"attributes":{"ID":296897,"DIS_CODE":0,"TOWNNAME":"東區","LI":"大德里","LIN":"17鄰","STREET":"立德十一路","SECT":" ","MAREA":" ","LANE":"８１巷","ALLEY":" ","HOUSE_NO":"１８號","E_COORD97":169556.94,"N_COORD97":2542155.9500000002,"ADDRESS":"立德十一路８１巷１８號","OBJECTID":296889},"geometry":{"x":169556.94000000134,"y":2542155.950000003}},{"attributes":{"ID":296898,"DIS_CODE":0,"TOWNNAME":"東區","LI":"大德里","LIN":"17鄰","STREET":"立德十一路","SECT":" ","MAREA":" ","LANE":"８１巷","ALLEY":" ","HOUSE_NO":"２０號","E_COORD97":169555.89000000001,"N_COORD97":2542159.5499999998,"ADDRESS":"立德十一路８１巷２０號","OBJECTID":296890},"geometry":{"x":169555.88999999966,"y":2542159.5500000007}},{"attributes":{"ID":296899,"DIS_CODE":0,"TOWNNAME":"東區","LI":"大德里","LIN":"17鄰","STREET":"立德十一路","SECT":" ","MAREA":" ","LANE":"８１巷","ALLEY":" ","HOUSE_NO":"２２號","E_COORD97":169554.98999999999,"N_COORD97":2542162.9300000002,"ADDRESS":"立德十一路８１巷２２號","OBJECTID":296891},"geometry":{"x":169554.99000000115,"y":2542162.9299999978}},{"attributes":{"ID":296900,"DIS_CODE":0,"TOWNNAME":"歸仁區","LI":"西埔里","LIN":"5鄰","STREET":"保大路","SECT":"二段","MAREA":" ","LANE":"１７０巷","ALLEY":" ","HOUSE_NO":"２０號","E_COORD97":176957.22,"N_COORD97":2544209.2799999998,"ADDRESS":"保大路二段１７０巷２０號","OBJECTID":296892},"geometry":{"x":176957.22000000067,"y":2544209.2800000012}},{"attributes":{"ID":296901,"DIS_CODE":0,"TOWNNAME":"東區","LI":"大德里","LIN":"17鄰","STREET":"立德十一路","SECT":" ","MAREA":" ","LANE":"８１巷","ALLEY":" ","HOUSE_NO":"２６號","E_COORD97":169552.13,"N_COORD97":2542169.3399999999,"ADDRESS":"立德十一路８１巷２６號","OBJECTID":296893},"geometry":{"x":169552.13000000082,"y":2542169.3399999999}},{"attributes":{"ID":296902,"DIS_CODE":0,"TOWNNAME":"東區","LI":"大德里","LIN":"17鄰","STREET":"立德十一路","SECT":" ","MAREA":" ","LANE":"８１巷","ALLEY":" ","HOUSE_NO":"２８號","E_COORD97":169550.70000000001,"N_COORD97":2542173.2400000002,"ADDRESS":"立德十一路８１巷２８號","OBJECTID":296894},"geometry":{"x":169550.70000000019,"y":2542173.2400000021}},{"attributes":{"ID":296903,"DIS_CODE":0,"TOWNNAME":"東區","LI":"大德里","LIN":"17鄰","STREET":"立德十一路","SECT":" ","MAREA":" ","LANE":"８１巷","ALLEY":" ","HOUSE_NO":"３４號","E_COORD97":169547.54999999999,"N_COORD97":2542184.46,"ADDRESS":"立德十一路８１巷３４號","OBJECTID":296895},"geometry":{"x":169547.55000000075,"y":2542184.4600000046}},{"attributes":{"ID":296904,"DIS_CODE":0,"TOWNNAME":"東區","LI":"大德里","LIN":"17鄰","STREET":"立德十一路","SECT":" ","MAREA":" ","LANE":"８１巷","ALLEY":" ","HOUSE_NO":"３６號","E_COORD97":169547.17000000001,"N_COORD97":2542187.9100000001,"ADDRESS":"立德十一路８１巷３６號","OBJECTID":296896},"geometry":{"x":169547.16999999993,"y":2542187.910000002}},{"attributes":{"ID":296905,"DIS_CODE":0,"TOWNNAME":"東區","LI":"大德里","LIN":"17鄰","STREET":"立德十一路","SECT":" ","MAREA":" ","LANE":"８１巷","ALLEY":" ","HOUSE_NO":"４０號","E_COORD97":169544.98999999999,"N_COORD97":2542194.5899999999,"ADDRESS":"立德十一路８１巷４０號","OBJECTID":296897},"geometry":{"x":169544.99000000115,"y":2542194.5899999999}},{"attributes":{"ID":296906,"DIS_CODE":0,"TOWNNAME":"東區","LI":"大德里","LIN":"17鄰","STREET":"立德十一路","SECT":" ","MAREA":" ","LANE":"８１巷","ALLEY":" ","HOUSE_NO":"４２號","E_COORD97":169543.26000000001,"N_COORD97":2542197.2200000002,"ADDRESS":"立德十一路８１巷４２號","OBJECTID":296898},"geometry":{"x":169543.25999999978,"y":2542197.2200000025}},{"attributes":{"ID":296907,"DIS_CODE":0,"TOWNNAME":"東區","LI":"大德里","LIN":"17鄰","STREET":"立德十一路","SECT":" ","MAREA":" ","LANE":"８１巷","ALLEY":" ","HOUSE_NO":"５０號","E_COORD97":169539.04999999999,"N_COORD97":2542209.1200000001,"ADDRESS":"立德十一路８１巷５０號","OBJECTID":296899},"geometry":{"x":169539.05000000075,"y":2542209.120000001}},{"attributes":{"ID":296908,"DIS_CODE":0,"TOWNNAME":"東區","LI":"大德里","LIN":"17鄰","STREET":"立德十一路","SECT":" ","MAREA":" ","LANE":"８１巷","ALLEY":" ","HOUSE_NO":"５４號","E_COORD97":169536.35000000001,"N_COORD97":2542218.7400000002,"ADDRESS":"立德十一路８１巷５４號","OBJECTID":296900},"geometry":{"x":169536.35000000056,"y":2542218.7400000002}},{"attributes":{"ID":296909,"DIS_CODE":0,"TOWNNAME":"東區","LI":"東安里","LIN":"17鄰","STREET":"衛國街","SECT":" ","MAREA":" ","LANE":"１３巷","ALLEY":" ","HOUSE_NO":"１７號","E_COORD97":170195.79999999999,"N_COORD97":2542975.3100000001,"ADDRESS":"衛國街１３巷１７號","OBJECTID":296901},"geometry":{"x":170195.79999999981,"y":2542975.3100000042}},{"attributes":{"ID":296910,"DIS_CODE":0,"TOWNNAME":"東區","LI":"東安里","LIN":"17鄰","STREET":"衛國街","SECT":" ","MAREA":" ","LANE":"１３巷","ALLEY":" ","HOUSE_NO":"１９號","E_COORD97":170197.34,"N_COORD97":2542980.21,"ADDRESS":"衛國街１３巷１９號","OBJECTID":296902},"geometry":{"x":170197.33999999985,"y":2542980.2100000028}},{"attributes":{"ID":296911,"DIS_CODE":0,"TOWNNAME":"東區","LI":"虎尾里","LIN":"17鄰","STREET":"富農街","SECT":"一段","MAREA":" ","LANE":"２９巷","ALLEY":" ","HOUSE_NO":"１０號","E_COORD97":171498.88,"N_COORD97":2542213.3900000001,"ADDRESS":"富農街一段２９巷１０號","OBJECTID":296903},"geometry":{"x":171498.87999999989,"y":2542213.3900000025}},{"attributes":{"ID":296912,"DIS_CODE":0,"TOWNNAME":"東區","LI":"虎尾里","LIN":"17鄰","STREET":"富農街","SECT":"一段","MAREA":" ","LANE":"２９巷","ALLEY":" ","HOUSE_NO":"１２號","E_COORD97":171498.07000000001,"N_COORD97":2542218.4300000002,"ADDRESS":"富農街一段２９巷１２號","OBJECTID":296904},"geometry":{"x":171498.0700000003,"y":2542218.4300000016}},{"attributes":{"ID":296913,"DIS_CODE":0,"TOWNNAME":"東區","LI":"虎尾里","LIN":"17鄰","STREET":"富農街","SECT":"一段","MAREA":" ","LANE":"２９巷","ALLEY":" ","HOUSE_NO":"１４號","E_COORD97":171497.67000000001,"N_COORD97":2542221.6499999999,"ADDRESS":"富農街一段２９巷１４號","OBJECTID":296905},"geometry":{"x":171497.67000000086,"y":2542221.6500000004}},{"attributes":{"ID":296914,"DIS_CODE":0,"TOWNNAME":"永康區","LI":"埔園里","LIN":"17鄰","STREET":"中山路","SECT":" ","MAREA":" ","LANE":"３８３巷","ALLEY":" ","HOUSE_NO":"５號之７","E_COORD97":173480.79999999999,"N_COORD97":2548471.54,"ADDRESS":"中山路３８３巷５號之７","OBJECTID":296906},"geometry":{"x":173480.79999999981,"y":2548471.540000001}},{"attributes":{"ID":296915,"DIS_CODE":0,"TOWNNAME":"永康區","LI":"埔園里","LIN":"17鄰","STREET":"中山路","SECT":" ","MAREA":" ","LANE":"３８３巷","ALLEY":" ","HOUSE_NO":"３號之１０","E_COORD97":173496.82000000001,"N_COORD97":2548458.54,"ADDRESS":"中山路３８３巷３號之１０","OBJECTID":296907},"geometry":{"x":173496.8200000003,"y":2548458.540000001}},{"attributes":{"ID":296916,"DIS_CODE":0,"TOWNNAME":"永康區","LI":"埔園里","LIN":"17鄰","STREET":"中山路","SECT":" ","MAREA":" ","LANE":"３８３巷","ALLEY":" ","HOUSE_NO":"３號之１１","E_COORD97":173498.37,"N_COORD97":2548453.04,"ADDRESS":"中山路３８３巷３號之１１","OBJECTID":296908},"geometry":{"x":173498.37000000104,"y":2548453.0399999991}},{"attributes":{"ID":296917,"DIS_CODE":0,"TOWNNAME":"永康區","LI":"埔園里","LIN":"17鄰","STREET":"中山路","SECT":" ","MAREA":" ","LANE":"３８３巷","ALLEY":" ","HOUSE_NO":"５號之８","E_COORD97":173482.07999999999,"N_COORD97":2548466.04,"ADDRESS":"中山路３８３巷５號之８","OBJECTID":296909},"geometry":{"x":173482.08000000101,"y":2548466.040000001}},{"attributes":{"ID":296918,"DIS_CODE":0,"TOWNNAME":"永康區","LI":"埔園里","LIN":"17鄰","STREET":"中山路","SECT":" ","MAREA":" ","LANE":"３８３巷","ALLEY":" ","HOUSE_NO":"５號之１","E_COORD97":173473.85000000001,"N_COORD97":2548502.5499999998,"ADDRESS":"中山路３８３巷５號之１","OBJECTID":296910},"geometry":{"x":173473.84999999963,"y":2548502.5500000007}},{"attributes":{"ID":296919,"DIS_CODE":0,"TOWNNAME":"永康區","LI":"埔園里","LIN":"17鄰","STREET":"龍埔街","SECT":" ","MAREA":" ","LANE":"５６２巷","ALLEY":" ","HOUSE_NO":"１號","E_COORD97":173446.75,"N_COORD97":2548416.25,"ADDRESS":"龍埔街５６２巷１號","OBJECTID":296911},"geometry":{"x":173446.75000000093,"y":2548416.2499999981}},{"attributes":{"ID":296920,"DIS_CODE":0,"TOWNNAME":"永康區","LI":"埔園里","LIN":"17鄰","STREET":"龍埔街","SECT":" ","MAREA":" ","LANE":"５６２巷","ALLEY":" ","HOUSE_NO":"２２號","E_COORD97":173455.37,"N_COORD97":2548455.7400000002,"ADDRESS":"龍埔街５６２巷２２號","OBJECTID":296912},"geometry":{"x":173455.37000000011,"y":2548455.7400000021}},{"attributes":{"ID":296921,"DIS_CODE":0,"TOWNNAME":"永康區","LI":"埔園里","LIN":"17鄰","STREET":"龍埔街","SECT":" ","MAREA":" ","LANE":"５６２巷","ALLEY":" ","HOUSE_NO":"２８號","E_COORD97":173451.92999999999,"N_COORD97":2548468.3399999999,"ADDRESS":"龍埔街５６２巷２８號","OBJECTID":296913},"geometry":{"x":173451.93000000063,"y":2548468.3399999999}},{"attributes":{"ID":296922,"DIS_CODE":0,"TOWNNAME":"永康區","LI":"埔園里","LIN":"17鄰","STREET":"中山路","SECT":" ","MAREA":" ","LANE":"３８３巷","ALLEY":" ","HOUSE_NO":"５號之１１","E_COORD97":173486.57000000001,"N_COORD97":2548450.54,"ADDRESS":"中山路３８３巷５號之１１","OBJECTID":296914},"geometry":{"x":173486.5700000003,"y":2548450.5399999991}},{"attributes":{"ID":296923,"DIS_CODE":0,"TOWNNAME":"永康區","LI":"埔園里","LIN":"17鄰","STREET":"中山路","SECT":" ","MAREA":" ","LANE":"３８３巷","ALLEY":" ","HOUSE_NO":"５號之２","E_COORD97":173474.81,"N_COORD97":2548496.7999999998,"ADDRESS":"中山路３８３巷５號之２","OBJECTID":296915},"geometry":{"x":173474.81000000052,"y":2548496.8000000007}},{"attributes":{"ID":296924,"DIS_CODE":0,"TOWNNAME":"永康區","LI":"埔園里","LIN":"17鄰","STREET":"中山路","SECT":" ","MAREA":" ","LANE":"３８３巷","ALLEY":" ","HOUSE_NO":"５號之９","E_COORD97":173483.19,"N_COORD97":2548460.29,"ADDRESS":"中山路３８３巷５號之９","OBJECTID":296916},"geometry":{"x":173483.19000000134,"y":2548460.290000001}},{"attributes":{"ID":296925,"DIS_CODE":0,"TOWNNAME":"永康區","LI":"埔園里","LIN":"17鄰","STREET":"中山路","SECT":" ","MAREA":" ","LANE":"３８３巷","ALLEY":" ","HOUSE_NO":"５號之５","E_COORD97":173478.37,"N_COORD97":2548482.2999999998,"ADDRESS":"中山路３８３巷５號之５","OBJECTID":296917},"geometry":{"x":173478.37000000104,"y":2548482.3000000026}},{"attributes":{"ID":296926,"DIS_CODE":0,"TOWNNAME":"永康區","LI":"埔園里","LIN":"17鄰","STREET":"龍埔街","SECT":" ","MAREA":" ","LANE":"５６２巷","ALLEY":" ","HOUSE_NO":"３６號","E_COORD97":173446.92000000001,"N_COORD97":2548488.75,"ADDRESS":"龍埔街５６２巷３６號","OBJECTID":296918},"geometry":{"x":173446.92000000179,"y":2548488.7500000019}},{"attributes":{"ID":296927,"DIS_CODE":0,"TOWNNAME":"安南區","LI":"學東里","LIN":"17鄰","STREET":"城北路","SECT":" ","MAREA":" ","LANE":"７３６巷","ALLEY":" ","HOUSE_NO":"１７號","E_COORD97":160967.03,"N_COORD97":2553022.23,"ADDRESS":"城北路７３６巷１７號","OBJECTID":296919},"geometry":{"x":160967.03000000119,"y":2553022.2300000023}},{"attributes":{"ID":296928,"DIS_CODE":0,"TOWNNAME":"安南區","LI":"學東里","LIN":"17鄰","STREET":"城北路","SECT":" ","MAREA":" ","LANE":"７３６巷","ALLEY":" ","HOUSE_NO":"１８號","E_COORD97":160984.63,"N_COORD97":2552991.73,"ADDRESS":"城北路７３６巷１８號","OBJECTID":296920},"geometry":{"x":160984.63000000082,"y":2552991.7300000023}},{"attributes":{"ID":296929,"DIS_CODE":0,"TOWNNAME":"安南區","LI":"學東里","LIN":"17鄰","STREET":"城北路","SECT":" ","MAREA":" ","LANE":"７３６巷","ALLEY":" ","HOUSE_NO":"１９號","E_COORD97":160972.20000000001,"N_COORD97":2553037.7400000002,"ADDRESS":"城北路７３６巷１９號","OBJECTID":296921},"geometry":{"x":160972.20000000112,"y":2553037.7400000039}},{"attributes":{"ID":296930,"DIS_CODE":0,"TOWNNAME":"安南區","LI":"學東里","LIN":"17鄰","STREET":"城北路","SECT":" ","MAREA":" ","LANE":"７３６巷","ALLEY":" ","HOUSE_NO":"２０號","E_COORD97":160980.37,"N_COORD97":2553002.7400000002,"ADDRESS":"城北路７３６巷２０號","OBJECTID":296922},"geometry":{"x":160980.37000000011,"y":2553002.7400000002}},{"attributes":{"ID":296931,"DIS_CODE":0,"TOWNNAME":"中西區","LI":"中正里","LIN":"8鄰","STREET":"國華街","SECT":"三段","MAREA":" ","LANE":"９巷","ALLEY":" ","HOUSE_NO":"８號","E_COORD97":167712.67000000001,"N_COORD97":2543807.9399999999,"ADDRESS":"國華街三段９巷８號","OBJECTID":296923},"geometry":{"x":167712.67000000086,"y":2543807.9400000013}},{"attributes":{"ID":296932,"DIS_CODE":0,"TOWNNAME":"安南區","LI":"學東里","LIN":"17鄰","STREET":"城北路","SECT":" ","MAREA":" ","LANE":"８６６巷","ALLEY":" ","HOUSE_NO":"１０１號","E_COORD97":161080.01999999999,"N_COORD97":2553167.3900000001,"ADDRESS":"城北路８６６巷１０１號","OBJECTID":296924},"geometry":{"x":161080.02000000048,"y":2553167.3900000025}},{"attributes":{"ID":296933,"DIS_CODE":0,"TOWNNAME":"安南區","LI":"學東里","LIN":"17鄰","STREET":"城北路","SECT":" ","MAREA":" ","LANE":"８６６巷","ALLEY":" ","HOUSE_NO":"１２２號","E_COORD97":161044.07000000001,"N_COORD97":2553121.52,"ADDRESS":"城北路８６６巷１２２號","OBJECTID":296925},"geometry":{"x":161044.06999999937,"y":2553121.5200000014}},{"attributes":{"ID":296934,"DIS_CODE":0,"TOWNNAME":"安南區","LI":"學東里","LIN":"17鄰","STREET":"城北路","SECT":" ","MAREA":" ","LANE":"８６６巷","ALLEY":" ","HOUSE_NO":"１２３號","E_COORD97":161067.98999999999,"N_COORD97":2553098.73,"ADDRESS":"城北路８６６巷１２３號","OBJECTID":296926},"geometry":{"x":161067.99000000022,"y":2553098.7300000004}},{"attributes":{"ID":296935,"DIS_CODE":0,"TOWNNAME":"安南區","LI":"學東里","LIN":"17鄰","STREET":"城北路","SECT":" ","MAREA":" ","LANE":"８６６巷","ALLEY":" ","HOUSE_NO":"１２９號","E_COORD97":161065.94,"N_COORD97":2553095.0600000001,"ADDRESS":"城北路８６６巷１２９號","OBJECTID":296927},"geometry":{"x":161065.94000000134,"y":2553095.0600000024}},{"attributes":{"ID":296936,"DIS_CODE":0,"TOWNNAME":"安南區","LI":"學東里","LIN":"17鄰","STREET":"城北路","SECT":" ","MAREA":" ","LANE":"８６６巷","ALLEY":" ","HOUSE_NO":"１３１號","E_COORD97":161065.92999999999,"N_COORD97":2553092.6400000001,"ADDRESS":"城北路８６６巷１３１號","OBJECTID":296928},"geometry":{"x":161065.9299999997,"y":2553092.6400000006}},{"attributes":{"ID":296937,"DIS_CODE":0,"TOWNNAME":"安南區","LI":"學東里","LIN":"17鄰","STREET":"城北路","SECT":" ","MAREA":" ","LANE":"８６６巷","ALLEY":" ","HOUSE_NO":"１３３號","E_COORD97":161064.72,"N_COORD97":2553088.5099999998,"ADDRESS":"城北路８６６巷１３３號","OBJECTID":296929},"geometry":{"x":161064.7200000016,"y":2553088.5099999998}},{"attributes":{"ID":296938,"DIS_CODE":0,"TOWNNAME":"安南區","LI":"學東里","LIN":"17鄰","STREET":"城北路","SECT":" ","MAREA":" ","LANE":"８６６巷","ALLEY":" ","HOUSE_NO":"１３５號","E_COORD97":161063.5,"N_COORD97":2553084.1299999999,"ADDRESS":"城北路８６６巷１３５號","OBJECTID":296930},"geometry":{"x":161063.50000000093,"y":2553084.129999999}},{"attributes":{"ID":296939,"DIS_CODE":0,"TOWNNAME":"安南區","LI":"學東里","LIN":"17鄰","STREET":"城北路","SECT":" ","MAREA":" ","LANE":"８６６巷","ALLEY":" ","HOUSE_NO":"１４２號","E_COORD97":161026.22,"N_COORD97":2553073.8599999999,"ADDRESS":"城北路８６６巷１４２號","OBJECTID":296931},"geometry":{"x":161026.22000000067,"y":2553073.8600000013}},{"attributes":{"ID":296940,"DIS_CODE":0,"TOWNNAME":"東區","LI":"大智里","LIN":"17鄰","STREET":"崇善十六街","SECT":" ","MAREA":" ","LANE":"１５１巷","ALLEY":" ","HOUSE_NO":"１２號","E_COORD97":171230.25,"N_COORD97":2540363.6800000002,"ADDRESS":"崇善十六街１５１巷１２號","OBJECTID":296932},"geometry":{"x":171230.25,"y":2540363.6799999997}},{"attributes":{"ID":296941,"DIS_CODE":0,"TOWNNAME":"東區","LI":"大智里","LIN":"17鄰","STREET":"崇善十六街","SECT":" ","MAREA":" ","LANE":"１５１巷","ALLEY":" ","HOUSE_NO":"１０號","E_COORD97":171228.94,"N_COORD97":2540375.7999999998,"ADDRESS":"崇善十六街１５１巷１０號","OBJECTID":296933},"geometry":{"x":171228.94000000134,"y":2540375.8000000026}},{"attributes":{"ID":296942,"DIS_CODE":0,"TOWNNAME":"歸仁區","LI":"南保里","LIN":"60鄰","STREET":"中山七街","SECT":" ","MAREA":" ","LANE":"１１巷","ALLEY":" ","HOUSE_NO":"６１號","E_COORD97":176767.39000000001,"N_COORD97":2540815.2599999998,"ADDRESS":"中山七街１１巷６１號","OBJECTID":296934},"geometry":{"x":176767.38999999966,"y":2540815.2600000016}},{"attributes":{"ID":296943,"DIS_CODE":0,"TOWNNAME":"東區","LI":"大智里","LIN":"17鄰","STREET":"崇善十六街","SECT":" ","MAREA":" ","LANE":"１５１巷","ALLEY":" ","HOUSE_NO":"８號","E_COORD97":171233.35000000001,"N_COORD97":2540373.96,"ADDRESS":"崇善十六街１５１巷８號","OBJECTID":296935},"geometry":{"x":171233.35000000056,"y":2540373.9600000046}},{"attributes":{"ID":296944,"DIS_CODE":0,"TOWNNAME":"東區","LI":"大智里","LIN":"17鄰","STREET":"崇善十六街","SECT":" ","MAREA":" ","LANE":"１５１巷","ALLEY":" ","HOUSE_NO":"１６號","E_COORD97":171234.5,"N_COORD97":2540362.3700000001,"ADDRESS":"崇善十六街１５１巷１６號","OBJECTID":296936},"geometry":{"x":171234.50000000093,"y":2540362.3700000029}},{"attributes":{"ID":296945,"DIS_CODE":0,"TOWNNAME":"歸仁區","LI":"七甲里","LIN":"5鄰","STREET":"中正北路","SECT":"二段","MAREA":" ","LANE":"４３２巷","ALLEY":" ","HOUSE_NO":"１０號","E_COORD97":177522.76999999999,"N_COORD97":2543069.2599999998,"ADDRESS":"中正北路二段４３２巷１０號","OBJECTID":296937},"geometry":{"x":177522.77000000142,"y":2543069.2599999998}},{"attributes":{"ID":296946,"DIS_CODE":0,"TOWNNAME":"仁德區","LI":"太子里","LIN":"17鄰","STREET":"太興路","SECT":" ","MAREA":" ","LANE":"１１７巷","ALLEY":" ","HOUSE_NO":"１６號","E_COORD97":174043.47,"N_COORD97":2543585.25,"ADDRESS":"太興路１１７巷１６號","OBJECTID":296938},"geometry":{"x":174043.47000000067,"y":2543585.2500000037}},{"attributes":{"ID":296947,"DIS_CODE":0,"TOWNNAME":"仁德區","LI":"土庫里","LIN":"17鄰","STREET":"土庫一街","SECT":" ","MAREA":" ","LANE":"２２巷","ALLEY":" ","HOUSE_NO":"２１號","E_COORD97":174484.48999999999,"N_COORD97":2543015.5,"ADDRESS":"土庫一街２２巷２１號","OBJECTID":296939},"geometry":{"x":174484.49000000115,"y":2543015.5000000019}},{"attributes":{"ID":296948,"DIS_CODE":0,"TOWNNAME":"仁德區","LI":"一甲里","LIN":"17鄰","STREET":"忠義路","SECT":" ","MAREA":" ","LANE":"２５１巷","ALLEY":" ","HOUSE_NO":"７２號","E_COORD97":173812.69,"N_COORD97":2541654.1800000002,"ADDRESS":"忠義路２５１巷７２號","OBJECTID":296940},"geometry":{"x":173812.69000000041,"y":2541654.1800000016}},{"attributes":{"ID":296949,"DIS_CODE":0,"TOWNNAME":"仁德區","LI":"一甲里","LIN":"17鄰","STREET":"忠義路","SECT":" ","MAREA":" ","LANE":"２５１巷","ALLEY":" ","HOUSE_NO":"６７號","E_COORD97":173830.06,"N_COORD97":2541667.77,"ADDRESS":"忠義路２５１巷６７號","OBJECTID":296941},"geometry":{"x":173830.05999999959,"y":2541667.7699999996}},{"attributes":{"ID":296950,"DIS_CODE":0,"TOWNNAME":"仁德區","LI":"一甲里","LIN":"17鄰","STREET":"忠義路","SECT":" ","MAREA":" ","LANE":"２５１巷","ALLEY":" ","HOUSE_NO":"６２號","E_COORD97":173814.04000000001,"N_COORD97":2541674.4300000002,"ADDRESS":"忠義路２５１巷６２號","OBJECTID":296942},"geometry":{"x":173814.0400000019,"y":2541674.4299999997}},{"attributes":{"ID":296951,"DIS_CODE":0,"TOWNNAME":"仁德區","LI":"一甲里","LIN":"17鄰","STREET":"中清路","SECT":" ","MAREA":" ","LANE":"２４８巷","ALLEY":" ","HOUSE_NO":"４２號","E_COORD97":173905.16,"N_COORD97":2541718.29,"ADDRESS":"中清路２４８巷４２號","OBJECTID":296943},"geometry":{"x":173905.16000000108,"y":2541718.2899999991}},{"attributes":{"ID":296952,"DIS_CODE":0,"TOWNNAME":"仁德區","LI":"一甲里","LIN":"17鄰","STREET":"忠義路","SECT":" ","MAREA":" ","LANE":"２５１巷","ALLEY":" ","HOUSE_NO":"７３號","E_COORD97":173829.07999999999,"N_COORD97":2541655.02,"ADDRESS":"忠義路２５１巷７３號","OBJECTID":296944},"geometry":{"x":173829.08000000194,"y":2541655.0200000014}},{"attributes":{"ID":296953,"DIS_CODE":0,"TOWNNAME":"仁德區","LI":"一甲里","LIN":"17鄰","STREET":"忠義路","SECT":" ","MAREA":" ","LANE":"２５１巷","ALLEY":" ","HOUSE_NO":"７０號","E_COORD97":173813.14999999999,"N_COORD97":2541658.4300000002,"ADDRESS":"忠義路２５１巷７０號","OBJECTID":296945},"geometry":{"x":173813.15000000037,"y":2541658.4300000016}},{"attributes":{"ID":296954,"DIS_CODE":0,"TOWNNAME":"仁德區","LI":"一甲里","LIN":"17鄰","STREET":"忠義路","SECT":" ","MAREA":" ","LANE":"２５１巷","ALLEY":" ","HOUSE_NO":"４９號","E_COORD97":173833.31,"N_COORD97":2541701.2599999998,"ADDRESS":"忠義路２５１巷４９號","OBJECTID":296946},"geometry":{"x":173833.30999999959,"y":2541701.2600000016}},{"attributes":{"ID":296955,"DIS_CODE":0,"TOWNNAME":"仁德區","LI":"一甲里","LIN":"17鄰","STREET":"忠義路","SECT":" ","MAREA":" ","LANE":"２５１巷","ALLEY":" ","HOUSE_NO":"６９號","E_COORD97":173830.07000000001,"N_COORD97":2541663.52,"ADDRESS":"忠義路２５１巷６９號","OBJECTID":296947},"geometry":{"x":173830.07000000123,"y":2541663.5199999996}},{"attributes":{"ID":296956,"DIS_CODE":0,"TOWNNAME":"仁德區","LI":"一甲里","LIN":"17鄰","STREET":"忠義路","SECT":" ","MAREA":" ","LANE":"２５１巷","ALLEY":" ","HOUSE_NO":"７４號","E_COORD97":173808.75,"N_COORD97":2541650.6800000002,"ADDRESS":"忠義路２５１巷７４號","OBJECTID":296948},"geometry":{"x":173808.75,"y":2541650.6800000016}},{"attributes":{"ID":296957,"DIS_CODE":0,"TOWNNAME":"仁德區","LI":"一甲里","LIN":"17鄰","STREET":"忠義路","SECT":" ","MAREA":" ","LANE":"２５１巷","ALLEY":" ","HOUSE_NO":"４５號","E_COORD97":173834.12,"N_COORD97":2541709.7599999998,"ADDRESS":"忠義路２５１巷４５號","OBJECTID":296949},"geometry":{"x":173834.12000000104,"y":2541709.7599999979}},{"attributes":{"ID":296958,"DIS_CODE":0,"TOWNNAME":"仁德區","LI":"一甲里","LIN":"17鄰","STREET":"忠義路","SECT":" ","MAREA":" ","LANE":"２５１巷","ALLEY":" ","HOUSE_NO":"６５號","E_COORD97":173831.01999999999,"N_COORD97":2541672.02,"ADDRESS":"忠義路２５１巷６５號","OBJECTID":296950},"geometry":{"x":173831.02000000048,"y":2541672.0200000014}},{"attributes":{"ID":296959,"DIS_CODE":0,"TOWNNAME":"麻豆區","LI":"東角里","LIN":"5鄰","STREET":"忠孝路","SECT":" ","MAREA":" ","LANE":"３１巷","ALLEY":" ","HOUSE_NO":"１５號之１","E_COORD97":173751.98000000001,"N_COORD97":2565087.73,"ADDRESS":"忠孝路３１巷１５號之１","OBJECTID":296951},"geometry":{"x":173751.97999999952,"y":2565087.7300000042}},{"attributes":{"ID":296960,"DIS_CODE":0,"TOWNNAME":"東區","LI":"關聖里","LIN":"14鄰","STREET":"裕農三街","SECT":" ","MAREA":" ","LANE":" ","ALLEY":" ","HOUSE_NO":"６９號","E_COORD97":172052.42999999999,"N_COORD97":2542977.2799999998,"ADDRESS":"裕農三街６９號","OBJECTID":296952},"geometry":{"x":172052.4299999997,"y":2542977.2800000031}},{"attributes":{"ID":296961,"DIS_CODE":0,"TOWNNAME":"永康區","LI":"東橋里","LIN":"5鄰","STREET":"中山南路","SECT":" ","MAREA":" ","LANE":"１９５巷","ALLEY":" ","HOUSE_NO":"３２之７號二樓之２","E_COORD97":171459.98000000001,"N_COORD97":2546395.8999999999,"ADDRESS":"中山南路１９５巷３２之７號二樓之２","OBJECTID":296953},"geometry":{"x":171459.98000000045,"y":2546395.9000000022}},{"attributes":{"ID":296962,"DIS_CODE":0,"TOWNNAME":"永康區","LI":"東灣里","LIN":"18鄰","STREET":"大灣三街","SECT":" ","MAREA":" ","LANE":"５７巷","ALLEY":" ","HOUSE_NO":"１３號二樓","E_COORD97":174968.32999999999,"N_COORD97":2544885.0099999998,"ADDRESS":"大灣三街５７巷１３號二樓","OBJECTID":296954},"geometry":{"x":174968.33000000101,"y":2544885.0100000035}},{"attributes":{"ID":296963,"DIS_CODE":0,"TOWNNAME":"永康區","LI":"西灣里","LIN":"39鄰","STREET":"永華路","SECT":" ","MAREA":" ","LANE":"２１２巷","ALLEY":" ","HOUSE_NO":"１４號六樓","E_COORD97":174155.12,"N_COORD97":2545450.5,"ADDRESS":"永華路２１２巷１４號六樓","OBJECTID":296955},"geometry":{"x":174155.12000000011,"y":2545450.5}},{"attributes":{"ID":296964,"DIS_CODE":0,"TOWNNAME":"永康區","LI":"西灣里","LIN":"39鄰","STREET":"永華路","SECT":" ","MAREA":" ","LANE":"２１２巷","ALLEY":" ","HOUSE_NO":"１４號三樓","E_COORD97":174155.12,"N_COORD97":2545450.5,"ADDRESS":"永華路２１２巷１４號三樓","OBJECTID":296956},"geometry":{"x":174155.12000000011,"y":2545450.5}},{"attributes":{"ID":296965,"DIS_CODE":0,"TOWNNAME":"永康區","LI":"西橋里","LIN":"4鄰","STREET":"中華西街","SECT":" ","MAREA":" ","LANE":"２１巷","ALLEY":" ","HOUSE_NO":"１５號四樓","E_COORD97":170766.26000000001,"N_COORD97":2545930.2599999998,"ADDRESS":"中華西街２１巷１５號四樓","OBJECTID":296957},"geometry":{"x":170766.26000000071,"y":2545930.2599999998}},{"attributes":{"ID":296966,"DIS_CODE":0,"TOWNNAME":"永康區","LI":"西勢里","LIN":"26鄰","STREET":"廣興街","SECT":" ","MAREA":" ","LANE":"３８巷","ALLEY":" ","HOUSE_NO":"２０號五樓","E_COORD97":175981.51000000001,"N_COORD97":2546478.25,"ADDRESS":"廣興街３８巷２０號五樓","OBJECTID":296958},"geometry":{"x":175981.50999999978,"y":2546478.2500000019}},{"attributes":{"ID":296967,"DIS_CODE":0,"TOWNNAME":"麻豆區","LI":"東角里","LIN":"5鄰","STREET":"忠孝路","SECT":" ","MAREA":" ","LANE":"３１巷","ALLEY":" ","HOUSE_NO":"１５號","E_COORD97":173760.31,"N_COORD97":2565090.3300000001,"ADDRESS":"忠孝路３１巷１５號","OBJECTID":296959},"geometry":{"x":173760.30999999959,"y":2565090.3300000019}},{"attributes":{"ID":296968,"DIS_CODE":0,"TOWNNAME":"仁德區","LI":"一甲里","LIN":"17鄰","STREET":"中清路","SECT":" ","MAREA":" ","LANE":"２４８巷","ALLEY":" ","HOUSE_NO":"４０號","E_COORD97":173879.88,"N_COORD97":2541709.04,"ADDRESS":"中清路２４８巷４０號","OBJECTID":296960},"geometry":{"x":173879.88000000082,"y":2541709.040000001}},{"attributes":{"ID":296969,"DIS_CODE":0,"TOWNNAME":"新化區","LI":"東榮里","LIN":"17鄰","STREET":"中興路","SECT":" ","MAREA":" ","LANE":"６７７巷","ALLEY":" ","HOUSE_NO":"４１號","E_COORD97":179610.26000000001,"N_COORD97":2547941.25,"ADDRESS":"中興路６７７巷４１號","OBJECTID":296961},"geometry":{"x":179610.26000000071,"y":2547941.25}},{"attributes":{"ID":296970,"DIS_CODE":0,"TOWNNAME":"南區","LI":"新昌里","LIN":"17鄰","STREET":"大德街","SECT":" ","MAREA":" ","LANE":"１４１巷","ALLEY":" ","HOUSE_NO":"４７號","E_COORD97":167553.95999999999,"N_COORD97":2542863.7999999998,"ADDRESS":"大德街１４１巷４７號","OBJECTID":296962},"geometry":{"x":167553.95999999996,"y":2542863.8000000026}},{"attributes":{"ID":296971,"DIS_CODE":0,"TOWNNAME":"南區","LI":"新昌里","LIN":"17鄰","STREET":"大德街","SECT":" ","MAREA":" ","LANE":"１４１巷","ALLEY":" ","HOUSE_NO":"４７號之１","E_COORD97":167553.66,"N_COORD97":2542867.2999999998,"ADDRESS":"大德街１４１巷４７號之１","OBJECTID":296963},"geometry":{"x":167553.66000000108,"y":2542867.3000000026}},{"attributes":{"ID":296972,"DIS_CODE":0,"TOWNNAME":"南區","LI":"新昌里","LIN":"17鄰","STREET":"大德街","SECT":" ","MAREA":" ","LANE":"１４１巷","ALLEY":" ","HOUSE_NO":"４９號","E_COORD97":167548.79999999999,"N_COORD97":2542857.6000000001,"ADDRESS":"大德街１４１巷４９號","OBJECTID":296964},"geometry":{"x":167548.80000000075,"y":2542857.6000000015}},{"attributes":{"ID":296973,"DIS_CODE":0,"TOWNNAME":"南區","LI":"新昌里","LIN":"17鄰","STREET":"大德街","SECT":" ","MAREA":" ","LANE":"１４１巷","ALLEY":" ","HOUSE_NO":"４９號之１","E_COORD97":167548.79999999999,"N_COORD97":2542852.5699999998,"ADDRESS":"大德街１４１巷４９號之１","OBJECTID":296965},"geometry":{"x":167548.80000000075,"y":2542852.5700000022}},{"attributes":{"ID":296974,"DIS_CODE":0,"TOWNNAME":"南區","LI":"新昌里","LIN":"17鄰","STREET":"大德街","SECT":" ","MAREA":" ","LANE":"１４１巷","ALLEY":" ","HOUSE_NO":"４９號之２","E_COORD97":167548.48000000001,"N_COORD97":2542848.8500000001,"ADDRESS":"大德街１４１巷４９號之２","OBJECTID":296966},"geometry":{"x":167548.48000000138,"y":2542848.8500000015}},{"attributes":{"ID":296975,"DIS_CODE":0,"TOWNNAME":"南區","LI":"新昌里","LIN":"17鄰","STREET":"大德街","SECT":" ","MAREA":" ","LANE":"１４１巷","ALLEY":" ","HOUSE_NO":"４９號之３","E_COORD97":167547.5,"N_COORD97":2542844.96,"ADDRESS":"大德街１４１巷４９號之３","OBJECTID":296967},"geometry":{"x":167547.50000000093,"y":2542844.9600000009}},{"attributes":{"ID":296976,"DIS_CODE":0,"TOWNNAME":"南區","LI":"新昌里","LIN":"17鄰","STREET":"大德街","SECT":" ","MAREA":" ","LANE":"１４１巷","ALLEY":" ","HOUSE_NO":"４９號之４","E_COORD97":167559.51000000001,"N_COORD97":2542849.98,"ADDRESS":"大德街１４１巷４９號之４","OBJECTID":296968},"geometry":{"x":167559.50999999978,"y":2542849.9800000023}},{"attributes":{"ID":296977,"DIS_CODE":0,"TOWNNAME":"南區","LI":"新昌里","LIN":"17鄰","STREET":"大德街","SECT":" ","MAREA":" ","LANE":"１４１巷","ALLEY":" ","HOUSE_NO":"４９號之５","E_COORD97":167559.19,"N_COORD97":2542845.77,"ADDRESS":"大德街１４１巷４９號之５","OBJECTID":296969},"geometry":{"x":167559.19000000041,"y":2542845.7700000014}},{"attributes":{"ID":296978,"DIS_CODE":0,"TOWNNAME":"南區","LI":"新昌里","LIN":"17鄰","STREET":"大德街","SECT":" ","MAREA":" ","LANE":"１４１巷","ALLEY":" ","HOUSE_NO":"４９號之６","E_COORD97":167557.73000000001,"N_COORD97":2542841.71,"ADDRESS":"大德街１４１巷４９號之６","OBJECTID":296970},"geometry":{"x":167557.73000000045,"y":2542841.7100000028}},{"attributes":{"ID":296979,"DIS_CODE":0,"TOWNNAME":"南區","LI":"新昌里","LIN":"17鄰","STREET":"大德街","SECT":" ","MAREA":" ","LANE":"１４１巷","ALLEY":" ","HOUSE_NO":"４９號之７","E_COORD97":167555.45999999999,"N_COORD97":2542828.8300000001,"ADDRESS":"大德街１４１巷４９號之７","OBJECTID":296971},"geometry":{"x":167555.45999999996,"y":2542828.8300000038}},{"attributes":{"ID":296980,"DIS_CODE":0,"TOWNNAME":"南區","LI":"新昌里","LIN":"17鄰","STREET":"大德街","SECT":" ","MAREA":" ","LANE":"１４１巷","ALLEY":" ","HOUSE_NO":"４９號之８","E_COORD97":167551.39999999999,"N_COORD97":2542830.1200000001,"ADDRESS":"大德街１４１巷４９號之８","OBJECTID":296972},"geometry":{"x":167551.40000000037,"y":2542830.120000001}},{"attributes":{"ID":296981,"DIS_CODE":0,"TOWNNAME":"東區","LI":"南聖里","LIN":"14鄰","STREET":"裕農路","SECT":" ","MAREA":" ","LANE":" ","ALLEY":" ","HOUSE_NO":"８８６號","E_COORD97":172416.57000000001,"N_COORD97":2543330.98,"ADDRESS":"裕農路８８６號","OBJECTID":296973},"geometry":{"x":172416.5700000003,"y":2543330.9800000023}},{"attributes":{"ID":296982,"DIS_CODE":0,"TOWNNAME":"東區","LI":"南聖里","LIN":"14鄰","STREET":"裕農路","SECT":" ","MAREA":" ","LANE":" ","ALLEY":" ","HOUSE_NO":"９００號","E_COORD97":172468.73000000001,"N_COORD97":2543345.9700000002,"ADDRESS":"裕農路９００號","OBJECTID":296974},"geometry":{"x":172468.72999999952,"y":2543345.9700000007}},{"attributes":{"ID":296983,"DIS_CODE":0,"TOWNNAME":"東區","LI":"南聖里","LIN":"14鄰","STREET":"裕農路","SECT":" ","MAREA":" ","LANE":" ","ALLEY":" ","HOUSE_NO":"９０４號","E_COORD97":172507.04999999999,"N_COORD97":2543328.1800000002,"ADDRESS":"裕農路９０４號","OBJECTID":296975},"geometry":{"x":172507.05000000075,"y":2543328.1800000016}},{"attributes":{"ID":296984,"DIS_CODE":0,"TOWNNAME":"東區","LI":"南聖里","LIN":"14鄰","STREET":"裕誠街","SECT":" ","MAREA":" ","LANE":" ","ALLEY":" ","HOUSE_NO":"１６７號","E_COORD97":172531.45000000001,"N_COORD97":2543322.0099999998,"ADDRESS":"裕誠街１６７號","OBJECTID":296976},"geometry":{"x":172531.45000000205,"y":2543322.0100000035}},{"attributes":{"ID":296985,"DIS_CODE":0,"TOWNNAME":"東區","LI":"南聖里","LIN":"14鄰","STREET":"裕誠街","SECT":" ","MAREA":" ","LANE":" ","ALLEY":" ","HOUSE_NO":"１６９號","E_COORD97":172536.82000000001,"N_COORD97":2543323.1200000001,"ADDRESS":"裕誠街１６９號","OBJECTID":296977},"geometry":{"x":172536.8200000003,"y":2543323.1200000029}},{"attributes":{"ID":296986,"DIS_CODE":0,"TOWNNAME":"東區","LI":"南聖里","LIN":"14鄰","STREET":"裕誠街","SECT":" ","MAREA":" ","LANE":" ","ALLEY":" ","HOUSE_NO":"１７１號","E_COORD97":172543.59,"N_COORD97":2543324.1800000002,"ADDRESS":"裕誠街１７１號","OBJECTID":296978},"geometry":{"x":172543.58999999985,"y":2543324.1800000034}},{"attributes":{"ID":296987,"DIS_CODE":0,"TOWNNAME":"東區","LI":"南聖里","LIN":"14鄰","STREET":"裕誠街","SECT":" ","MAREA":" ","LANE":" ","ALLEY":" ","HOUSE_NO":"１７３號","E_COORD97":172550.10000000001,"N_COORD97":2543325.04,"ADDRESS":"裕誠街１７３號","OBJECTID":296979},"geometry":{"x":172550.0999999987,"y":2543325.040000001}},{"attributes":{"ID":296988,"DIS_CODE":0,"TOWNNAME":"東區","LI":"南聖里","LIN":"14鄰","STREET":"裕誠街","SECT":" ","MAREA":" ","LANE":" ","ALLEY":" ","HOUSE_NO":"１７５號","E_COORD97":172557.60000000001,"N_COORD97":2543326.1899999999,"ADDRESS":"裕誠街１７５號","OBJECTID":296980},"geometry":{"x":172557.60000000056,"y":2543326.1899999995}},{"attributes":{"ID":296989,"DIS_CODE":0,"TOWNNAME":"永康區","LI":"西灣里","LIN":"39鄰","STREET":"永華路","SECT":" ","MAREA":" ","LANE":"２１２巷","ALLEY":" ","HOUSE_NO":"２６號五樓","E_COORD97":174167.07999999999,"N_COORD97":2545455.75,"ADDRESS":"永華路２１２巷２６號五樓","OBJECTID":296981},"geometry":{"x":174167.08000000101,"y":2545455.75}},{"attributes":{"ID":296990,"DIS_CODE":0,"TOWNNAME":"南區","LI":"新昌里","LIN":"17鄰","STREET":"大德街","SECT":" ","MAREA":" ","LANE":"１４１巷","ALLEY":" ","HOUSE_NO":"４９號之９","E_COORD97":167544.26000000001,"N_COORD97":2542834.5,"ADDRESS":"大德街１４１巷４９號之９","OBJECTID":296982},"geometry":{"x":167544.25999999978,"y":2542834.5000000019}},{"attributes":{"ID":296991,"DIS_CODE":0,"TOWNNAME":"南區","LI":"新昌里","LIN":"17鄰","STREET":"大德街","SECT":" ","MAREA":" ","LANE":"１４１巷","ALLEY":" ","HOUSE_NO":"４９號之１０","E_COORD97":167543.60999999999,"N_COORD97":2542830.1200000001,"ADDRESS":"大德街１４１巷４９號之１０","OBJECTID":296983},"geometry":{"x":167543.61000000127,"y":2542830.120000001}},{"attributes":{"ID":296992,"DIS_CODE":0,"TOWNNAME":"南區","LI":"新昌里","LIN":"17鄰","STREET":"大德街","SECT":" ","MAREA":" ","LANE":"１４１巷","ALLEY":" ","HOUSE_NO":"５１號","E_COORD97":167541.98999999999,"N_COORD97":2542822.02,"ADDRESS":"大德街１４１巷５１號","OBJECTID":296984},"geometry":{"x":167541.99000000022,"y":2542822.0199999996}},{"attributes":{"ID":296993,"DIS_CODE":0,"TOWNNAME":"南區","LI":"新昌里","LIN":"17鄰","STREET":"大德街","SECT":" ","MAREA":" ","LANE":"１４１巷","ALLEY":" ","HOUSE_NO":"５３號","E_COORD97":167542.14999999999,"N_COORD97":2542818.1299999999,"ADDRESS":"大德街１４１巷５３號","OBJECTID":296985},"geometry":{"x":167542.1500000013,"y":2542818.129999999}},{"attributes":{"ID":296994,"DIS_CODE":0,"TOWNNAME":"南區","LI":"新昌里","LIN":"17鄰","STREET":"大德街","SECT":" ","MAREA":" ","LANE":"１４１巷","ALLEY":" ","HOUSE_NO":"６１號","E_COORD97":167577.20000000001,"N_COORD97":2542797.9500000002,"ADDRESS":"大德街１４１巷６１號","OBJECTID":296986},"geometry":{"x":167577.20000000112,"y":2542797.9500000011}},{"attributes":{"ID":296995,"DIS_CODE":0,"TOWNNAME":"南區","LI":"新昌里","LIN":"17鄰","STREET":"大德街","SECT":" ","MAREA":" ","LANE":"１４１巷","ALLEY":" ","HOUSE_NO":"６３號","E_COORD97":167570.54999999999,"N_COORD97":2542796.8100000001,"ADDRESS":"大德街１４１巷６３號","OBJECTID":296987},"geometry":{"x":167570.55000000075,"y":2542796.8100000024}},{"attributes":{"ID":296996,"DIS_CODE":0,"TOWNNAME":"南區","LI":"新昌里","LIN":"17鄰","STREET":"大德街","SECT":" ","MAREA":" ","LANE":"１４１巷","ALLEY":" ","HOUSE_NO":"６７號之３","E_COORD97":167552.04999999999,"N_COORD97":2542806.46,"ADDRESS":"大德街１４１巷６７號之３","OBJECTID":296988},"geometry":{"x":167552.05000000075,"y":2542806.4600000028}},{"attributes":{"ID":296997,"DIS_CODE":0,"TOWNNAME":"南區","LI":"新昌里","LIN":"17鄰","STREET":"大德街","SECT":" ","MAREA":" ","LANE":"１４１巷","ALLEY":" ","HOUSE_NO":"６７號之４","E_COORD97":167557.57000000001,"N_COORD97":2542805.3199999998,"ADDRESS":"大德街１４１巷６７號之４","OBJECTID":296989},"geometry":{"x":167557.57000000123,"y":2542805.320000004}},{"attributes":{"ID":296998,"DIS_CODE":0,"TOWNNAME":"南區","LI":"新昌里","LIN":"17鄰","STREET":"大德街","SECT":" ","MAREA":" ","LANE":"１４１巷","ALLEY":" ","HOUSE_NO":"７１號","E_COORD97":167543.45000000001,"N_COORD97":2542789.3500000001,"ADDRESS":"大德街１４１巷７１號","OBJECTID":296990},"geometry":{"x":167543.45000000019,"y":2542789.3499999996}},{"attributes":{"ID":296999,"DIS_CODE":0,"TOWNNAME":"南區","LI":"新昌里","LIN":"17鄰","STREET":"大德街","SECT":" ","MAREA":" ","LANE":"１４１巷","ALLEY":" ","HOUSE_NO":"７３號","E_COORD97":167552.04999999999,"N_COORD97":2542788.2200000002,"ADDRESS":"大德街１４１巷７３號","OBJECTID":296991},"geometry":{"x":167552.05000000075,"y":2542788.2200000007}},{"attributes":{"ID":297000,"DIS_CODE":0,"TOWNNAME":"南區","LI":"新昌里","LIN":"17鄰","STREET":"大德街","SECT":" ","MAREA":" ","LANE":"１４１巷","ALLEY":" ","HOUSE_NO":"７５號","E_COORD97":167559.35000000001,"N_COORD97":2542786.7599999998,"ADDRESS":"大德街１４１巷７５號","OBJECTID":296992},"geometry":{"x":167559.34999999963,"y":2542786.7599999998}},{"attributes":{"ID":297001,"DIS_CODE":0,"TOWNNAME":"南區","LI":"新昌里","LIN":"17鄰","STREET":"大德街","SECT":" ","MAREA":" ","LANE":"１４１巷","ALLEY":" ","HOUSE_NO":"７９號","E_COORD97":167565.35000000001,"N_COORD97":2542781.25,"ADDRESS":"大德街１４１巷７９號","OBJECTID":296993},"geometry":{"x":167565.35000000056,"y":2542781.25}},{"attributes":{"ID":297002,"DIS_CODE":0,"TOWNNAME":"南區","LI":"新昌里","LIN":"17鄰","STREET":"大德街","SECT":" ","MAREA":" ","LANE":"１４１巷","ALLEY":" ","HOUSE_NO":"６７號","E_COORD97":167540.85000000001,"N_COORD97":2542808.2400000002,"ADDRESS":"大德街１４１巷６７號","OBJECTID":296994},"geometry":{"x":167540.8499999987,"y":2542808.2400000002}},{"attributes":{"ID":297003,"DIS_CODE":0,"TOWNNAME":"安南區","LI":"大安里","LIN":"17鄰","STREET":"義安街","SECT":" ","MAREA":" ","LANE":"１４２巷","ALLEY":" ","HOUSE_NO":"１０號","E_COORD97":167550.57000000001,"N_COORD97":2548155.0600000001,"ADDRESS":"義安街１４２巷１０號","OBJECTID":296995},"geometry":{"x":167550.57000000123,"y":2548155.0600000024}},{"attributes":{"ID":297004,"DIS_CODE":0,"TOWNNAME":"安南區","LI":"大安里","LIN":"17鄰","STREET":"義安街","SECT":" ","MAREA":" ","LANE":"１４２巷","ALLEY":" ","HOUSE_NO":"１１號","E_COORD97":167566.16,"N_COORD97":2548173.5800000001,"ADDRESS":"義安街１４２巷１１號","OBJECTID":296996},"geometry":{"x":167566.16000000015,"y":2548173.5800000038}},{"attributes":{"ID":297005,"DIS_CODE":0,"TOWNNAME":"安南區","LI":"大安里","LIN":"17鄰","STREET":"義安街","SECT":" ","MAREA":" ","LANE":"１４２巷","ALLEY":" ","HOUSE_NO":"１２號","E_COORD97":167553.64999999999,"N_COORD97":2548153.7999999998,"ADDRESS":"義安街１４２巷１２號","OBJECTID":296997},"geometry":{"x":167553.6500000013,"y":2548153.8000000026}},{"attributes":{"ID":297006,"DIS_CODE":0,"TOWNNAME":"安南區","LI":"大安里","LIN":"17鄰","STREET":"義安街","SECT":" ","MAREA":" ","LANE":"１４２巷","ALLEY":" ","HOUSE_NO":"１３號","E_COORD97":167569.26999999999,"N_COORD97":2548170.75,"ADDRESS":"義安街１４２巷１３號","OBJECTID":296998},"geometry":{"x":167569.27000000048,"y":2548170.75}},{"attributes":{"ID":297007,"DIS_CODE":0,"TOWNNAME":"安南區","LI":"大安里","LIN":"17鄰","STREET":"義安街","SECT":" ","MAREA":" ","LANE":"１４２巷","ALLEY":" ","HOUSE_NO":"１４號","E_COORD97":167556.81,"N_COORD97":2548151.7000000002,"ADDRESS":"義安街１４２巷１４號","OBJECTID":296999},"geometry":{"x":167556.81000000052,"y":2548151.700000003}},{"attributes":{"ID":297008,"DIS_CODE":0,"TOWNNAME":"安南區","LI":"大安里","LIN":"17鄰","STREET":"義安街","SECT":" ","MAREA":" ","LANE":"１４２巷","ALLEY":" ","HOUSE_NO":"１５號","E_COORD97":167572.85000000001,"N_COORD97":2548168.5099999998,"ADDRESS":"義安街１４２巷１５號","OBJECTID":297000},"geometry":{"x":167572.84999999963,"y":2548168.5100000016}}]}