{"displayFieldName":"TOWNNAME","fieldAliases":{"ID":"ID","DIS_CODE":"DIS_CODE","TOWNNAME":"TOWNNAME","LI":"LI","LIN":"LIN","STREET":"STREET","SECT":"SECT","MAREA":"MAREA","LANE":"LANE","ALLEY":"ALLEY","HOUSE_NO":"HOUSE_NO","E_COORD97":"E_COORD97","N_COORD97":"N_COORD97","ADDRESS":"ADDRESS","OBJECTID":"OBJECTID"},"geometryType":"esriGeometryPoint","spatialReference":{"wkid":102443,"latestWkid":3826},"fields":[{"name":"ID","type":"esriFieldTypeDouble","alias":"ID"},{"name":"DIS_CODE","type":"esriFieldTypeInteger","alias":"DIS_CODE"},{"name":"TOWNNAME","type":"esriFieldTypeString","alias":"TOWNNAME","length":8},{"name":"LI","type":"esriFieldTypeString","alias":"LI","length":8},{"name":"LIN","type":"esriFieldTypeString","alias":"LIN","length":12},{"name":"STREET","type":"esriFieldTypeString","alias":"STREET","length":20},{"name":"SECT","type":"esriFieldTypeString","alias":"SECT","length":8},{"name":"MAREA","type":"esriFieldTypeString","alias":"MAREA","length":12},{"name":"LANE","type":"esriFieldTypeString","alias":"LANE","length":10},{"name":"ALLEY","type":"esriFieldTypeString","alias":"ALLEY","length":10},{"name":"HOUSE_NO","type":"esriFieldTypeString","alias":"HOUSE_NO","length":20},{"name":"E_COORD97","type":"esriFieldTypeDouble","alias":"E_COORD97"},{"name":"N_COORD97","type":"esriFieldTypeDouble","alias":"N_COORD97"},{"name":"ADDRESS","type":"esriFieldTypeString","alias":"ADDRESS","length":50},{"name":"OBJECTID","type":"esriFieldTypeOID","alias":"OBJECTID"}],"features":[{"attributes":{"ID":306009,"DIS_CODE":0,"TOWNNAME":"新化區","LI":"東榮里","LIN":"8鄰","STREET":"信義路","SECT":" ","MAREA":" ","LANE":"１３１巷","ALLEY":" ","HOUSE_NO":"２７號","E_COORD97":179671.98000000001,"N_COORD97":2548336.25,"ADDRESS":"信義路１３１巷２７號","OBJECTID":306001},"geometry":{"x":179671.98000000138,"y":2548336.2500000019}},{"attributes":{"ID":306010,"DIS_CODE":0,"TOWNNAME":"新化區","LI":"東榮里","LIN":"8鄰","STREET":"信義路","SECT":" ","MAREA":" ","LANE":"１１７巷","ALLEY":" ","HOUSE_NO":"２６號之４","E_COORD97":179711.70999999999,"N_COORD97":2548318.2599999998,"ADDRESS":"信義路１１７巷２６號之４","OBJECTID":306002},"geometry":{"x":179711.70999999996,"y":2548318.2600000016}},{"attributes":{"ID":306011,"DIS_CODE":0,"TOWNNAME":"新化區","LI":"豐榮里","LIN":"8鄰","STREET":"大智路","SECT":" ","MAREA":" ","LANE":"７７巷","ALLEY":" ","HOUSE_NO":"１４號","E_COORD97":178272.73000000001,"N_COORD97":2548271.25,"ADDRESS":"大智路７７巷１４號","OBJECTID":306003},"geometry":{"x":178272.73000000045,"y":2548271.2500000019}},{"attributes":{"ID":306012,"DIS_CODE":0,"TOWNNAME":"新化區","LI":"東榮里","LIN":"8鄰","STREET":"信義路","SECT":" ","MAREA":" ","LANE":"１１７巷","ALLEY":" ","HOUSE_NO":"３０號之２","E_COORD97":179706.63,"N_COORD97":2548270.2599999998,"ADDRESS":"信義路１１７巷３０號之２","OBJECTID":306004},"geometry":{"x":179706.62999999989,"y":2548270.2600000035}},{"attributes":{"ID":306013,"DIS_CODE":0,"TOWNNAME":"新化區","LI":"豐榮里","LIN":"8鄰","STREET":"大智路","SECT":" ","MAREA":" ","LANE":"７７巷","ALLEY":" ","HOUSE_NO":"１０號","E_COORD97":178264.53,"N_COORD97":2548269.25,"ADDRESS":"大智路７７巷１０號","OBJECTID":306005},"geometry":{"x":178264.53000000119,"y":2548269.25}},{"attributes":{"ID":306014,"DIS_CODE":0,"TOWNNAME":"新化區","LI":"東榮里","LIN":"8鄰","STREET":"信義路","SECT":" ","MAREA":" ","LANE":"１１７巷","ALLEY":" ","HOUSE_NO":"２８號之７８","E_COORD97":179827.09,"N_COORD97":2548272.2599999998,"ADDRESS":"信義路１１７巷２８號之７８","OBJECTID":306006},"geometry":{"x":179827.09000000078,"y":2548272.2599999998}},{"attributes":{"ID":306015,"DIS_CODE":0,"TOWNNAME":"永康區","LI":"東橋里","LIN":"17鄰","STREET":"東橋一路","SECT":" ","MAREA":" ","LANE":" ","ALLEY":" ","HOUSE_NO":"３７２號","E_COORD97":171298.04999999999,"N_COORD97":2546780.9900000002,"ADDRESS":"東橋一路３７２號","OBJECTID":306007},"geometry":{"x":171298.05000000168,"y":2546780.9900000039}},{"attributes":{"ID":306016,"DIS_CODE":0,"TOWNNAME":"永康區","LI":"東橋里","LIN":"17鄰","STREET":"東橋一路","SECT":" ","MAREA":" ","LANE":" ","ALLEY":" ","HOUSE_NO":"３７６號","E_COORD97":171297.66,"N_COORD97":2546785.6099999999,"ADDRESS":"東橋一路３７６號","OBJECTID":306008},"geometry":{"x":171297.66000000201,"y":2546785.6099999994}},{"attributes":{"ID":306017,"DIS_CODE":0,"TOWNNAME":"楠西區","LI":"鹿田里","LIN":"4鄰","STREET":" ","SECT":" ","MAREA":"鹿陶洋","LANE":" ","ALLEY":" ","HOUSE_NO":"４３號","E_COORD97":197813.82000000001,"N_COORD97":2561544.25,"ADDRESS":"鹿陶洋４３號","OBJECTID":306009},"geometry":{"x":197813.8200000003,"y":2561544.2500000037}},{"attributes":{"ID":306018,"DIS_CODE":0,"TOWNNAME":"永康區","LI":"東橋里","LIN":"17鄰","STREET":"東橋一路","SECT":" ","MAREA":" ","LANE":" ","ALLEY":" ","HOUSE_NO":"３７８號","E_COORD97":171293.12,"N_COORD97":2546788.0499999998,"ADDRESS":"東橋一路３７８號","OBJECTID":306010},"geometry":{"x":171293.12000000104,"y":2546788.0500000045}},{"attributes":{"ID":306019,"DIS_CODE":0,"TOWNNAME":"永康區","LI":"東橋里","LIN":"17鄰","STREET":"東橋三路","SECT":" ","MAREA":" ","LANE":" ","ALLEY":" ","HOUSE_NO":"４０６號","E_COORD97":171406.20000000001,"N_COORD97":2547022.8900000001,"ADDRESS":"東橋三路４０６號","OBJECTID":306011},"geometry":{"x":171406.20000000112,"y":2547022.8900000043}},{"attributes":{"ID":306020,"DIS_CODE":0,"TOWNNAME":"永康區","LI":"東橋里","LIN":"17鄰","STREET":"東橋三路","SECT":" ","MAREA":" ","LANE":" ","ALLEY":" ","HOUSE_NO":"４０８號","E_COORD97":171402.04999999999,"N_COORD97":2547026.9700000002,"ADDRESS":"東橋三路４０８號","OBJECTID":306012},"geometry":{"x":171402.05000000075,"y":2547026.9700000025}},{"attributes":{"ID":306021,"DIS_CODE":0,"TOWNNAME":"永康區","LI":"東橋里","LIN":"17鄰","STREET":"東橋三路","SECT":" ","MAREA":" ","LANE":" ","ALLEY":" ","HOUSE_NO":"４１０號","E_COORD97":171399.59,"N_COORD97":2547031.21,"ADDRESS":"東橋三路４１０號","OBJECTID":306013},"geometry":{"x":171399.59000000171,"y":2547031.2100000046}},{"attributes":{"ID":306022,"DIS_CODE":0,"TOWNNAME":"永康區","LI":"東橋里","LIN":"17鄰","STREET":"東橋十街","SECT":" ","MAREA":" ","LANE":" ","ALLEY":" ","HOUSE_NO":"１５號","E_COORD97":171438.10999999999,"N_COORD97":2547027.6600000001,"ADDRESS":"東橋十街１５號","OBJECTID":306014},"geometry":{"x":171438.11000000034,"y":2547027.660000002}},{"attributes":{"ID":306023,"DIS_CODE":0,"TOWNNAME":"永康區","LI":"東橋里","LIN":"17鄰","STREET":"東橋十街","SECT":" ","MAREA":" ","LANE":" ","ALLEY":" ","HOUSE_NO":"２１號","E_COORD97":171451.41,"N_COORD97":2547035.9100000001,"ADDRESS":"東橋十街２１號","OBJECTID":306015},"geometry":{"x":171451.41000000015,"y":2547035.9100000039}},{"attributes":{"ID":306024,"DIS_CODE":0,"TOWNNAME":"北區","LI":"大豐里","LIN":"3鄰","STREET":"武聖路","SECT":" ","MAREA":" ","LANE":"３６巷","ALLEY":" ","HOUSE_NO":"６１號","E_COORD97":167112.32000000001,"N_COORD97":2545219.3100000001,"ADDRESS":"武聖路３６巷６１號","OBJECTID":306016},"geometry":{"x":167112.3200000003,"y":2545219.3099999987}},{"attributes":{"ID":306025,"DIS_CODE":0,"TOWNNAME":"新化區","LI":"豐榮里","LIN":"8鄰","STREET":"大智路","SECT":" ","MAREA":" ","LANE":"７７巷","ALLEY":" ","HOUSE_NO":"１６號","E_COORD97":178276.82999999999,"N_COORD97":2548273.25,"ADDRESS":"大智路７７巷１６號","OBJECTID":306017},"geometry":{"x":178276.83000000007,"y":2548273.25}},{"attributes":{"ID":306026,"DIS_CODE":0,"TOWNNAME":"新化區","LI":"東榮里","LIN":"8鄰","STREET":"信義路","SECT":" ","MAREA":" ","LANE":"１１７巷","ALLEY":" ","HOUSE_NO":"３０號之１０","E_COORD97":179747.47,"N_COORD97":2548269.2599999998,"ADDRESS":"信義路１１７巷３０號之１０","OBJECTID":306018},"geometry":{"x":179747.47000000067,"y":2548269.2599999998}},{"attributes":{"ID":306027,"DIS_CODE":0,"TOWNNAME":"新化區","LI":"護國里","LIN":"8鄰","STREET":"信義路","SECT":" ","MAREA":" ","LANE":"８６巷","ALLEY":" ","HOUSE_NO":"３３號","E_COORD97":179820.53,"N_COORD97":2548775.25,"ADDRESS":"信義路８６巷３３號","OBJECTID":306019},"geometry":{"x":179820.53000000119,"y":2548775.25}},{"attributes":{"ID":306028,"DIS_CODE":0,"TOWNNAME":"新化區","LI":"護國里","LIN":"8鄰","STREET":"信義路","SECT":" ","MAREA":" ","LANE":"８６巷","ALLEY":" ","HOUSE_NO":"３５號","E_COORD97":179817.03,"N_COORD97":2548775.25,"ADDRESS":"信義路８６巷３５號","OBJECTID":306020},"geometry":{"x":179817.03000000212,"y":2548775.25}},{"attributes":{"ID":306029,"DIS_CODE":0,"TOWNNAME":"新化區","LI":"協興里","LIN":"8鄰","STREET":"太平街","SECT":" ","MAREA":" ","LANE":"１５０巷","ALLEY":" ","HOUSE_NO":"４號","E_COORD97":178351.22,"N_COORD97":2548716.25,"ADDRESS":"太平街１５０巷４號","OBJECTID":306021},"geometry":{"x":178351.22000000067,"y":2548716.2500000019}},{"attributes":{"ID":306030,"DIS_CODE":0,"TOWNNAME":"新化區","LI":"護國里","LIN":"8鄰","STREET":"信義路","SECT":" ","MAREA":" ","LANE":"８６巷","ALLEY":" ","HOUSE_NO":"１４號","E_COORD97":179840.73000000001,"N_COORD97":2548786.25,"ADDRESS":"信義路８６巷１４號","OBJECTID":306022},"geometry":{"x":179840.73000000045,"y":2548786.2500000037}},{"attributes":{"ID":306031,"DIS_CODE":0,"TOWNNAME":"新化區","LI":"清水里","LIN":"8鄰","STREET":"民權街","SECT":" ","MAREA":" ","LANE":"６１巷","ALLEY":" ","HOUSE_NO":"２７號","E_COORD97":178712.10999999999,"N_COORD97":2548570.25,"ADDRESS":"民權街６１巷２７號","OBJECTID":306023},"geometry":{"x":178712.11000000034,"y":2548570.2500000019}},{"attributes":{"ID":306032,"DIS_CODE":0,"TOWNNAME":"新化區","LI":"護國里","LIN":"8鄰","STREET":"信義路","SECT":" ","MAREA":" ","LANE":"４０巷","ALLEY":" ","HOUSE_NO":"２６號之２","E_COORD97":180717.07999999999,"N_COORD97":2548827.2599999998,"ADDRESS":"信義路４０巷２６號之２","OBJECTID":306024},"geometry":{"x":180717.08000000101,"y":2548827.2600000016}},{"attributes":{"ID":306033,"DIS_CODE":0,"TOWNNAME":"新化區","LI":"清水里","LIN":"8鄰","STREET":"民權街","SECT":" ","MAREA":" ","LANE":"６１巷","ALLEY":" ","HOUSE_NO":"７號之１","E_COORD97":178740.59,"N_COORD97":2548542.2599999998,"ADDRESS":"民權街６１巷７號之１","OBJECTID":306025},"geometry":{"x":178740.58999999985,"y":2548542.2600000016}},{"attributes":{"ID":306034,"DIS_CODE":0,"TOWNNAME":"新化區","LI":"清水里","LIN":"8鄰","STREET":"民權街","SECT":" ","MAREA":" ","LANE":"６１巷","ALLEY":" ","HOUSE_NO":"１２號之１","E_COORD97":178685.94,"N_COORD97":2548572.2599999998,"ADDRESS":"民權街６１巷１２號之１","OBJECTID":306026},"geometry":{"x":178685.94000000134,"y":2548572.2600000035}},{"attributes":{"ID":306035,"DIS_CODE":0,"TOWNNAME":"新化區","LI":"清水里","LIN":"8鄰","STREET":"民權街","SECT":" ","MAREA":" ","LANE":"６１巷","ALLEY":" ","HOUSE_NO":"３３號","E_COORD97":178698.01000000001,"N_COORD97":2548567.25,"ADDRESS":"民權街６１巷３３號","OBJECTID":306027},"geometry":{"x":178698.01000000071,"y":2548567.2500000019}},{"attributes":{"ID":306036,"DIS_CODE":0,"TOWNNAME":"新化區","LI":"護國里","LIN":"8鄰","STREET":"信義路","SECT":" ","MAREA":" ","LANE":"１４巷","ALLEY":" ","HOUSE_NO":"２３號","E_COORD97":180973.63,"N_COORD97":2548944.25,"ADDRESS":"信義路１４巷２３號","OBJECTID":306028},"geometry":{"x":180973.63000000175,"y":2548944.25}},{"attributes":{"ID":306037,"DIS_CODE":0,"TOWNNAME":"新化區","LI":"唪口里","LIN":"8鄰","STREET":"大德路","SECT":" ","MAREA":" ","LANE":"１６１巷","ALLEY":" ","HOUSE_NO":"３８號","E_COORD97":177890.17999999999,"N_COORD97":2549185.25,"ADDRESS":"大德路１６１巷３８號","OBJECTID":306029},"geometry":{"x":177890.18000000063,"y":2549185.25}},{"attributes":{"ID":306038,"DIS_CODE":0,"TOWNNAME":"新化區","LI":"護國里","LIN":"8鄰","STREET":"信義路","SECT":" ","MAREA":" ","LANE":"８６巷","ALLEY":" ","HOUSE_NO":"３９號","E_COORD97":179806.53,"N_COORD97":2548775.25,"ADDRESS":"信義路８６巷３９號","OBJECTID":306030},"geometry":{"x":179806.53000000026,"y":2548775.25}},{"attributes":{"ID":306039,"DIS_CODE":0,"TOWNNAME":"新化區","LI":"護國里","LIN":"8鄰","STREET":"信義路","SECT":" ","MAREA":" ","LANE":"８６巷","ALLEY":" ","HOUSE_NO":"１７號","E_COORD97":179773.03,"N_COORD97":2548760.2000000002,"ADDRESS":"信義路８６巷１７號","OBJECTID":306031},"geometry":{"x":179773.03000000119,"y":2548760.1999999993}},{"attributes":{"ID":306040,"DIS_CODE":0,"TOWNNAME":"安平區","LI":"億載里","LIN":"8鄰","STREET":"永華十一街","SECT":" ","MAREA":" ","LANE":"４９巷","ALLEY":" ","HOUSE_NO":"９號","E_COORD97":164075.51999999999,"N_COORD97":2543471.4100000001,"ADDRESS":"永華十一街４９巷９號","OBJECTID":306032},"geometry":{"x":164075.52000000048,"y":2543471.4100000001}},{"attributes":{"ID":306041,"DIS_CODE":0,"TOWNNAME":"安平區","LI":"億載里","LIN":"8鄰","STREET":"永華十一街","SECT":" ","MAREA":" ","LANE":"４９巷","ALLEY":" ","HOUSE_NO":"１１號","E_COORD97":164069.98999999999,"N_COORD97":2543468.75,"ADDRESS":"永華十一街４９巷１１號","OBJECTID":306033},"geometry":{"x":164069.99000000022,"y":2543468.75}},{"attributes":{"ID":306042,"DIS_CODE":0,"TOWNNAME":"永康區","LI":"大橋里","LIN":"8鄰","STREET":"大橋三街","SECT":" ","MAREA":" ","LANE":"１９９巷","ALLEY":" ","HOUSE_NO":"１８號","E_COORD97":170881.53,"N_COORD97":2546830.52,"ADDRESS":"大橋三街１９９巷１８號","OBJECTID":306034},"geometry":{"x":170881.52999999933,"y":2546830.5199999996}},{"attributes":{"ID":306043,"DIS_CODE":0,"TOWNNAME":"永康區","LI":"南灣里","LIN":"8鄰","STREET":"南興路","SECT":" ","MAREA":" ","LANE":"４８巷","ALLEY":" ","HOUSE_NO":"５８號","E_COORD97":174641.22,"N_COORD97":2544163.9300000002,"ADDRESS":"南興路４８巷５８號","OBJECTID":306035},"geometry":{"x":174641.21999999974,"y":2544163.9300000016}},{"attributes":{"ID":306044,"DIS_CODE":0,"TOWNNAME":"永康區","LI":"西灣里","LIN":"8鄰","STREET":"大灣五街","SECT":" ","MAREA":" ","LANE":"９３巷","ALLEY":" ","HOUSE_NO":"９２號","E_COORD97":174513.22,"N_COORD97":2545225.3500000001,"ADDRESS":"大灣五街９３巷９２號","OBJECTID":306036},"geometry":{"x":174513.22000000067,"y":2545225.3500000015}},{"attributes":{"ID":306045,"DIS_CODE":0,"TOWNNAME":"善化區","LI":"南關里","LIN":"8鄰","STREET":"光復路","SECT":" ","MAREA":" ","LANE":"５１０巷","ALLEY":" ","HOUSE_NO":"５號","E_COORD97":176837.81,"N_COORD97":2558878.5099999998,"ADDRESS":"光復路５１０巷５號","OBJECTID":306037},"geometry":{"x":176837.81000000052,"y":2558878.5100000016}},{"attributes":{"ID":306046,"DIS_CODE":0,"TOWNNAME":"永康區","LI":"東橋里","LIN":"17鄰","STREET":"東橋三路","SECT":" ","MAREA":" ","LANE":" ","ALLEY":" ","HOUSE_NO":"４１６號","E_COORD97":171393.72,"N_COORD97":2547041.3300000001,"ADDRESS":"東橋三路４１６號","OBJECTID":306038},"geometry":{"x":171393.72000000067,"y":2547041.3300000001}},{"attributes":{"ID":306047,"DIS_CODE":0,"TOWNNAME":"北區","LI":"大豐里","LIN":"1鄰","STREET":"文賢路","SECT":" ","MAREA":" ","LANE":" ","ALLEY":" ","HOUSE_NO":"３１１號","E_COORD97":167323.56,"N_COORD97":2545238.6699999999,"ADDRESS":"文賢路３１１號","OBJECTID":306039},"geometry":{"x":167323.55999999959,"y":2545238.6699999999}},{"attributes":{"ID":306048,"DIS_CODE":0,"TOWNNAME":"北區","LI":"和順里","LIN":"25鄰","STREET":"西門路","SECT":"三段","MAREA":" ","LANE":"４５巷","ALLEY":" ","HOUSE_NO":"２０號","E_COORD97":168188.26000000001,"N_COORD97":2544742.54,"ADDRESS":"西門路三段４５巷２０號","OBJECTID":306040},"geometry":{"x":168188.26000000071,"y":2544742.540000001}},{"attributes":{"ID":306049,"DIS_CODE":0,"TOWNNAME":"北區","LI":"和順里","LIN":"25鄰","STREET":"西門路","SECT":"三段","MAREA":" ","LANE":"４５巷","ALLEY":" ","HOUSE_NO":"２２號","E_COORD97":168183.88,"N_COORD97":2544741.75,"ADDRESS":"西門路三段４５巷２２號","OBJECTID":306041},"geometry":{"x":168183.88000000082,"y":2544741.7500000019}},{"attributes":{"ID":306050,"DIS_CODE":0,"TOWNNAME":"北區","LI":"文元里","LIN":"17鄰","STREET":"文賢路","SECT":" ","MAREA":" ","LANE":"１０３０巷","ALLEY":" ","HOUSE_NO":"３３號","E_COORD97":167501.75,"N_COORD97":2546086.6299999999,"ADDRESS":"文賢路１０３０巷３３號","OBJECTID":306042},"geometry":{"x":167501.75000000093,"y":2546086.629999999}},{"attributes":{"ID":306051,"DIS_CODE":0,"TOWNNAME":"歸仁區","LI":"後市里","LIN":"43鄰","STREET":"中山八街","SECT":" ","MAREA":" ","LANE":"１５巷","ALLEY":" ","HOUSE_NO":"１４號","E_COORD97":177197.28,"N_COORD97":2540979.7400000002,"ADDRESS":"中山八街１５巷１４號","OBJECTID":306043},"geometry":{"x":177197.28000000026,"y":2540979.7400000021}},{"attributes":{"ID":306052,"DIS_CODE":0,"TOWNNAME":"南區","LI":"日新里","LIN":"8鄰","STREET":"金華路","SECT":"一段","MAREA":" ","LANE":"５０３巷","ALLEY":" ","HOUSE_NO":"３５號","E_COORD97":166949.19,"N_COORD97":2541654.2799999998,"ADDRESS":"金華路一段５０３巷３５號","OBJECTID":306044},"geometry":{"x":166949.19000000041,"y":2541654.2799999993}},{"attributes":{"ID":306053,"DIS_CODE":0,"TOWNNAME":"南區","LI":"日新里","LIN":"8鄰","STREET":"金華路","SECT":"一段","MAREA":" ","LANE":"５０３巷","ALLEY":" ","HOUSE_NO":"４１號","E_COORD97":166930.37,"N_COORD97":2541648.4900000002,"ADDRESS":"金華路一段５０３巷４１號","OBJECTID":306045},"geometry":{"x":166930.37000000011,"y":2541648.4900000021}},{"attributes":{"ID":306054,"DIS_CODE":0,"TOWNNAME":"南區","LI":"日新里","LIN":"8鄰","STREET":"金華路","SECT":"一段","MAREA":" ","LANE":"５０３巷","ALLEY":" ","HOUSE_NO":"５５號","E_COORD97":166907.45000000001,"N_COORD97":2541619.2599999998,"ADDRESS":"金華路一段５０３巷５５號","OBJECTID":306046},"geometry":{"x":166907.45000000112,"y":2541619.2600000016}},{"attributes":{"ID":306055,"DIS_CODE":0,"TOWNNAME":"南區","LI":"日新里","LIN":"8鄰","STREET":"金華路","SECT":"一段","MAREA":" ","LANE":"５０３巷","ALLEY":" ","HOUSE_NO":"５９號","E_COORD97":166900.45000000001,"N_COORD97":2541612.5099999998,"ADDRESS":"金華路一段５０３巷５９號","OBJECTID":306047},"geometry":{"x":166900.45000000112,"y":2541612.5099999998}},{"attributes":{"ID":306056,"DIS_CODE":0,"TOWNNAME":"南區","LI":"日新里","LIN":"8鄰","STREET":"金華路","SECT":"一段","MAREA":" ","LANE":"５０３巷","ALLEY":" ","HOUSE_NO":"６１號","E_COORD97":166917.03,"N_COORD97":2541589.9399999999,"ADDRESS":"金華路一段５０３巷６１號","OBJECTID":306048},"geometry":{"x":166917.03000000119,"y":2541589.9400000032}},{"attributes":{"ID":306057,"DIS_CODE":0,"TOWNNAME":"南區","LI":"日新里","LIN":"8鄰","STREET":"金華路","SECT":"一段","MAREA":" ","LANE":"５０３巷","ALLEY":" ","HOUSE_NO":"６３號","E_COORD97":166894.45000000001,"N_COORD97":2541606.8900000001,"ADDRESS":"金華路一段５０３巷６３號","OBJECTID":306049},"geometry":{"x":166894.45000000019,"y":2541606.8900000006}},{"attributes":{"ID":306058,"DIS_CODE":0,"TOWNNAME":"永康區","LI":"東橋里","LIN":"17鄰","STREET":"東橋三路","SECT":" ","MAREA":" ","LANE":" ","ALLEY":" ","HOUSE_NO":"４１８號","E_COORD97":171391.54000000001,"N_COORD97":2547045.1000000001,"ADDRESS":"東橋三路４１８號","OBJECTID":306050},"geometry":{"x":171391.5400000019,"y":2547045.1000000015}},{"attributes":{"ID":306059,"DIS_CODE":0,"TOWNNAME":"永康區","LI":"東橋里","LIN":"17鄰","STREET":"東橋三路","SECT":" ","MAREA":" ","LANE":" ","ALLEY":" ","HOUSE_NO":"４２０號","E_COORD97":171389.41,"N_COORD97":2547048.7799999998,"ADDRESS":"東橋三路４２０號","OBJECTID":306051},"geometry":{"x":171389.41000000108,"y":2547048.7799999993}},{"attributes":{"ID":306060,"DIS_CODE":0,"TOWNNAME":"永康區","LI":"東橋里","LIN":"17鄰","STREET":"東橋三路","SECT":" ","MAREA":" ","LANE":" ","ALLEY":" ","HOUSE_NO":"４２２號","E_COORD97":171389.48000000001,"N_COORD97":2547053.3199999998,"ADDRESS":"東橋三路４２２號","OBJECTID":306052},"geometry":{"x":171389.48000000138,"y":2547053.320000004}},{"attributes":{"ID":306061,"DIS_CODE":0,"TOWNNAME":"永康區","LI":"東橋里","LIN":"17鄰","STREET":"東橋三路","SECT":" ","MAREA":" ","LANE":" ","ALLEY":" ","HOUSE_NO":"４２６號","E_COORD97":171385.72,"N_COORD97":2547056.4900000002,"ADDRESS":"東橋三路４２６號","OBJECTID":306053},"geometry":{"x":171385.72000000067,"y":2547056.4900000021}},{"attributes":{"ID":306062,"DIS_CODE":0,"TOWNNAME":"歸仁區","LI":"武東里","LIN":"13鄰","STREET":" ","SECT":" ","MAREA":"明德新村","LANE":" ","ALLEY":" ","HOUSE_NO":"２３６號","E_COORD97":175079.73999999999,"N_COORD97":2536092.27,"ADDRESS":"明德新村２３６號","OBJECTID":306054},"geometry":{"x":175079.74000000115,"y":2536092.2700000014}},{"attributes":{"ID":306063,"DIS_CODE":0,"TOWNNAME":"歸仁區","LI":"武東里","LIN":"4鄰","STREET":"武東二街","SECT":" ","MAREA":" ","LANE":"４２巷","ALLEY":" ","HOUSE_NO":"１２號","E_COORD97":175538.89000000001,"N_COORD97":2535288.25,"ADDRESS":"武東二街４２巷１２號","OBJECTID":306055},"geometry":{"x":175538.8900000006,"y":2535288.25}},{"attributes":{"ID":306064,"DIS_CODE":0,"TOWNNAME":"楠西區","LI":"灣丘里","LIN":"13鄰","STREET":" ","SECT":" ","MAREA":"鳳興","LANE":" ","ALLEY":" ","HOUSE_NO":"４號","E_COORD97":198599.42000000001,"N_COORD97":2562746.25,"ADDRESS":"鳳興４號","OBJECTID":306056},"geometry":{"x":198599.41999999993,"y":2562746.25}},{"attributes":{"ID":306065,"DIS_CODE":0,"TOWNNAME":"歸仁區","LI":"六甲里","LIN":"26鄰","STREET":"六甲路","SECT":" ","MAREA":" ","LANE":"２２６巷","ALLEY":" ","HOUSE_NO":"３４號","E_COORD97":175984.01999999999,"N_COORD97":2539238.25,"ADDRESS":"六甲路２２６巷３４號","OBJECTID":306057},"geometry":{"x":175984.02000000048,"y":2539238.25}},{"attributes":{"ID":306066,"DIS_CODE":0,"TOWNNAME":"歸仁區","LI":"南興里","LIN":"4鄰","STREET":"文化十二街","SECT":" ","MAREA":" ","LANE":"３３巷","ALLEY":" ","HOUSE_NO":"５號","E_COORD97":176420.69,"N_COORD97":2541304.3300000001,"ADDRESS":"文化十二街３３巷５號","OBJECTID":306058},"geometry":{"x":176420.69000000227,"y":2541304.3300000019}},{"attributes":{"ID":306067,"DIS_CODE":0,"TOWNNAME":"歸仁區","LI":"八甲里","LIN":"4鄰","STREET":"大光街","SECT":" ","MAREA":" ","LANE":"９０巷","ALLEY":" ","HOUSE_NO":"２６號","E_COORD97":178027.82000000001,"N_COORD97":2541750.6099999999,"ADDRESS":"大光街９０巷２６號","OBJECTID":306059},"geometry":{"x":178027.8200000003,"y":2541750.6099999994}},{"attributes":{"ID":306068,"DIS_CODE":0,"TOWNNAME":"歸仁區","LI":"南保里","LIN":"47鄰","STREET":"民權十街","SECT":" ","MAREA":" ","LANE":"１２３巷","ALLEY":" ","HOUSE_NO":"８號","E_COORD97":176753.84,"N_COORD97":2540657.29,"ADDRESS":"民權十街１２３巷８號","OBJECTID":306060},"geometry":{"x":176753.83999999985,"y":2540657.2899999991}},{"attributes":{"ID":306069,"DIS_CODE":0,"TOWNNAME":"歸仁區","LI":"六甲里","LIN":"41鄰","STREET":"民生十二街","SECT":" ","MAREA":" ","LANE":"２７巷","ALLEY":" ","HOUSE_NO":"８號","E_COORD97":176032.35999999999,"N_COORD97":2539411.77,"ADDRESS":"民生十二街２７巷８號","OBJECTID":306061},"geometry":{"x":176032.36000000034,"y":2539411.7700000014}},{"attributes":{"ID":306070,"DIS_CODE":0,"TOWNNAME":"南區","LI":"日新里","LIN":"8鄰","STREET":"金華路","SECT":"一段","MAREA":" ","LANE":"５０３巷","ALLEY":" ","HOUSE_NO":"６７號","E_COORD97":166890.14000000001,"N_COORD97":2541600.6600000001,"ADDRESS":"金華路一段５０３巷６７號","OBJECTID":306062},"geometry":{"x":166890.1400000006,"y":2541600.660000002}},{"attributes":{"ID":306071,"DIS_CODE":0,"TOWNNAME":"南區","LI":"日新里","LIN":"8鄰","STREET":"金華路","SECT":"一段","MAREA":" ","LANE":"５０３巷","ALLEY":" ","HOUSE_NO":"６９號","E_COORD97":166885.66,"N_COORD97":2541597.5099999998,"ADDRESS":"金華路一段５０３巷６９號","OBJECTID":306063},"geometry":{"x":166885.66000000108,"y":2541597.5100000016}},{"attributes":{"ID":306072,"DIS_CODE":0,"TOWNNAME":"永康區","LI":"東橋里","LIN":"17鄰","STREET":"東橋三路","SECT":" ","MAREA":" ","LANE":" ","ALLEY":" ","HOUSE_NO":"４２８號","E_COORD97":171383.51999999999,"N_COORD97":2547060.2999999998,"ADDRESS":"東橋三路４２８號","OBJECTID":306064},"geometry":{"x":171383.52000000048,"y":2547060.3000000007}},{"attributes":{"ID":306073,"DIS_CODE":0,"TOWNNAME":"麻豆區","LI":"油車里","LIN":"1鄰","STREET":"自強街","SECT":" ","MAREA":" ","LANE":" ","ALLEY":" ","HOUSE_NO":"１號","E_COORD97":172598.44,"N_COORD97":2565054.25,"ADDRESS":"自強街１號","OBJECTID":306065},"geometry":{"x":172598.44000000134,"y":2565054.2500000019}},{"attributes":{"ID":306074,"DIS_CODE":0,"TOWNNAME":"永康區","LI":"東橋里","LIN":"17鄰","STREET":"東橋三路","SECT":" ","MAREA":" ","LANE":" ","ALLEY":" ","HOUSE_NO":"４３２號","E_COORD97":171377.51000000001,"N_COORD97":2547070.6699999999,"ADDRESS":"東橋三路４３２號","OBJECTID":306066},"geometry":{"x":171377.50999999978,"y":2547070.6699999999}},{"attributes":{"ID":306075,"DIS_CODE":0,"TOWNNAME":"永康區","LI":"東橋里","LIN":"17鄰","STREET":"東橋三路","SECT":" ","MAREA":" ","LANE":" ","ALLEY":" ","HOUSE_NO":"４３６號","E_COORD97":171374.92000000001,"N_COORD97":2547075.1299999999,"ADDRESS":"東橋三路４３６號","OBJECTID":306067},"geometry":{"x":171374.91999999993,"y":2547075.1300000008}},{"attributes":{"ID":306076,"DIS_CODE":0,"TOWNNAME":"永康區","LI":"東橋里","LIN":"17鄰","STREET":"東橋三路","SECT":" ","MAREA":" ","LANE":" ","ALLEY":" ","HOUSE_NO":"４３８號","E_COORD97":171372.39000000001,"N_COORD97":2547079.5,"ADDRESS":"東橋三路４３８號","OBJECTID":306068},"geometry":{"x":171372.3900000006,"y":2547079.5000000019}},{"attributes":{"ID":306077,"DIS_CODE":0,"TOWNNAME":"永康區","LI":"東橋里","LIN":"17鄰","STREET":"東橋三路","SECT":" ","MAREA":" ","LANE":" ","ALLEY":" ","HOUSE_NO":"４４０號","E_COORD97":171372.23000000001,"N_COORD97":2547084.75,"ADDRESS":"東橋三路４４０號","OBJECTID":306069},"geometry":{"x":171372.23000000138,"y":2547084.7500000019}},{"attributes":{"ID":306078,"DIS_CODE":0,"TOWNNAME":"歸仁區","LI":"大潭里","LIN":"18鄰","STREET":"中正南路","SECT":"三段","MAREA":" ","LANE":" ","ALLEY":" ","HOUSE_NO":"２２６號","E_COORD97":175175.20000000001,"N_COORD97":2534794.2799999998,"ADDRESS":"中正南路三段２２６號","OBJECTID":306070},"geometry":{"x":175175.20000000019,"y":2534794.2800000012}},{"attributes":{"ID":306079,"DIS_CODE":0,"TOWNNAME":"歸仁區","LI":"七甲里","LIN":"20鄰","STREET":"南丁路","SECT":" ","MAREA":" ","LANE":"７０２巷","ALLEY":" ","HOUSE_NO":"４３６號","E_COORD97":176782.69,"N_COORD97":2543385.25,"ADDRESS":"南丁路７０２巷４３６號","OBJECTID":306071},"geometry":{"x":176782.69000000041,"y":2543385.2500000037}},{"attributes":{"ID":306080,"DIS_CODE":0,"TOWNNAME":"歸仁區","LI":"七甲里","LIN":"13鄰","STREET":"南潭一街","SECT":" ","MAREA":" ","LANE":"４２巷","ALLEY":" ","HOUSE_NO":"１６號","E_COORD97":175870.34,"N_COORD97":2543044.25,"ADDRESS":"南潭一街４２巷１６號","OBJECTID":306072},"geometry":{"x":175870.34000000078,"y":2543044.2500000019}},{"attributes":{"ID":306081,"DIS_CODE":0,"TOWNNAME":"歸仁區","LI":"七甲里","LIN":"13鄰","STREET":"南潭一街","SECT":" ","MAREA":" ","LANE":"４２巷","ALLEY":" ","HOUSE_NO":"２１號","E_COORD97":175863.23999999999,"N_COORD97":2543055.25,"ADDRESS":"南潭一街４２巷２１號","OBJECTID":306073},"geometry":{"x":175863.24000000022,"y":2543055.25}},{"attributes":{"ID":306082,"DIS_CODE":0,"TOWNNAME":"歸仁區","LI":"八甲里","LIN":"14鄰","STREET":"大明街","SECT":" ","MAREA":" ","LANE":"１３９巷","ALLEY":" ","HOUSE_NO":"５號","E_COORD97":178137.23000000001,"N_COORD97":2541935.25,"ADDRESS":"大明街１３９巷５號","OBJECTID":306074},"geometry":{"x":178137.23000000045,"y":2541935.2500000019}},{"attributes":{"ID":306083,"DIS_CODE":0,"TOWNNAME":"南區","LI":"日新里","LIN":"8鄰","STREET":"金華路","SECT":"一段","MAREA":" ","LANE":"５０３巷","ALLEY":" ","HOUSE_NO":"７１號","E_COORD97":166881.84,"N_COORD97":2541593.3199999998,"ADDRESS":"金華路一段５０３巷７１號","OBJECTID":306075},"geometry":{"x":166881.84000000171,"y":2541593.3200000003}},{"attributes":{"ID":306084,"DIS_CODE":0,"TOWNNAME":"南區","LI":"日新里","LIN":"8鄰","STREET":"金華路","SECT":"一段","MAREA":" ","LANE":"５０３巷","ALLEY":" ","HOUSE_NO":"７３號","E_COORD97":166888.32000000001,"N_COORD97":2541586.5099999998,"ADDRESS":"金華路一段５０３巷７３號","OBJECTID":306076},"geometry":{"x":166888.32000000123,"y":2541586.5100000035}},{"attributes":{"ID":306085,"DIS_CODE":0,"TOWNNAME":"南區","LI":"日新里","LIN":"8鄰","STREET":"金華路","SECT":"一段","MAREA":" ","LANE":"５０３巷","ALLEY":" ","HOUSE_NO":"７５號","E_COORD97":166891.35000000001,"N_COORD97":2541583.3100000001,"ADDRESS":"金華路一段５０３巷７５號","OBJECTID":306077},"geometry":{"x":166891.34999999963,"y":2541583.3100000024}},{"attributes":{"ID":306086,"DIS_CODE":0,"TOWNNAME":"南區","LI":"日新里","LIN":"8鄰","STREET":"金華路","SECT":"一段","MAREA":" ","LANE":"５０３巷","ALLEY":" ","HOUSE_NO":"７７號","E_COORD97":166894.81,"N_COORD97":2541580.1299999999,"ADDRESS":"金華路一段５０３巷７７號","OBJECTID":306078},"geometry":{"x":166894.80999999959,"y":2541580.129999999}},{"attributes":{"ID":306087,"DIS_CODE":0,"TOWNNAME":"南區","LI":"日新里","LIN":"8鄰","STREET":"金華路","SECT":"一段","MAREA":" ","LANE":"５０３巷","ALLEY":" ","HOUSE_NO":"７９號","E_COORD97":166898.16,"N_COORD97":2541577.27,"ADDRESS":"金華路一段５０３巷７９號","OBJECTID":306079},"geometry":{"x":166898.16000000015,"y":2541577.2699999977}},{"attributes":{"ID":306088,"DIS_CODE":0,"TOWNNAME":"永康區","LI":"東橋里","LIN":"17鄰","STREET":"東橋三路","SECT":" ","MAREA":" ","LANE":" ","ALLEY":" ","HOUSE_NO":"４４２號","E_COORD97":171368.07000000001,"N_COORD97":2547088.71,"ADDRESS":"東橋三路４４２號","OBJECTID":306080},"geometry":{"x":171368.07000000123,"y":2547088.7100000046}},{"attributes":{"ID":306089,"DIS_CODE":0,"TOWNNAME":"永康區","LI":"東橋里","LIN":"17鄰","STREET":"東橋五路","SECT":" ","MAREA":" ","LANE":" ","ALLEY":" ","HOUSE_NO":"３１９號","E_COORD97":171502.20000000001,"N_COORD97":2547081.8799999999,"ADDRESS":"東橋五路３１９號","OBJECTID":306081},"geometry":{"x":171502.20000000019,"y":2547081.8799999971}},{"attributes":{"ID":306090,"DIS_CODE":0,"TOWNNAME":"永康區","LI":"東橋里","LIN":"17鄰","STREET":"東橋五路","SECT":" ","MAREA":" ","LANE":" ","ALLEY":" ","HOUSE_NO":"３２１號","E_COORD97":171502.45000000001,"N_COORD97":2547088.1099999999,"ADDRESS":"東橋五路３２１號","OBJECTID":306082},"geometry":{"x":171502.45000000205,"y":2547088.1100000013}},{"attributes":{"ID":306091,"DIS_CODE":0,"TOWNNAME":"永康區","LI":"東橋里","LIN":"17鄰","STREET":"東橋五路","SECT":" ","MAREA":" ","LANE":" ","ALLEY":" ","HOUSE_NO":"３２３號","E_COORD97":171500.06,"N_COORD97":2547092.3399999999,"ADDRESS":"東橋五路３２３號","OBJECTID":306083},"geometry":{"x":171500.06000000052,"y":2547092.3399999999}},{"attributes":{"ID":306092,"DIS_CODE":0,"TOWNNAME":"永康區","LI":"東橋里","LIN":"17鄰","STREET":"東橋五路","SECT":" ","MAREA":" ","LANE":" ","ALLEY":" ","HOUSE_NO":"３２５號","E_COORD97":171494.25,"N_COORD97":2547102.6200000001,"ADDRESS":"東橋五路３２５號","OBJECTID":306084},"geometry":{"x":171494.25000000093,"y":2547102.620000001}},{"attributes":{"ID":306093,"DIS_CODE":0,"TOWNNAME":"永康區","LI":"東橋里","LIN":"17鄰","STREET":"東橋五路","SECT":" ","MAREA":" ","LANE":" ","ALLEY":" ","HOUSE_NO":"３２７號","E_COORD97":171492.07999999999,"N_COORD97":2547106.4500000002,"ADDRESS":"東橋五路３２７號","OBJECTID":306085},"geometry":{"x":171492.08000000101,"y":2547106.4500000011}},{"attributes":{"ID":306094,"DIS_CODE":0,"TOWNNAME":"歸仁區","LI":"看西里","LIN":"3鄰","STREET":"仁愛五街","SECT":" ","MAREA":" ","LANE":" ","ALLEY":" ","HOUSE_NO":"５號","E_COORD97":178318.389612,"N_COORD97":2540325.3142499998,"ADDRESS":"仁愛五街５號","OBJECTID":306086},"geometry":{"x":178318.38961200044,"y":2540325.3142520022}},{"attributes":{"ID":306095,"DIS_CODE":0,"TOWNNAME":"歸仁區","LI":"六甲里","LIN":"41鄰","STREET":"民生十二街","SECT":" ","MAREA":" ","LANE":"２７巷","ALLEY":" ","HOUSE_NO":"６號","E_COORD97":176032.35999999999,"N_COORD97":2539417.77,"ADDRESS":"民生十二街２７巷６號","OBJECTID":306087},"geometry":{"x":176032.36000000034,"y":2539417.7700000033}},{"attributes":{"ID":306096,"DIS_CODE":0,"TOWNNAME":"歸仁區","LI":"大廟里","LIN":"17鄰","STREET":"大廟五街","SECT":" ","MAREA":" ","LANE":"１７９巷","ALLEY":" ","HOUSE_NO":"２號","E_COORD97":176178.72,"N_COORD97":2544645.25,"ADDRESS":"大廟五街１７９巷２號","OBJECTID":306088},"geometry":{"x":176178.71999999974,"y":2544645.25}},{"attributes":{"ID":306097,"DIS_CODE":0,"TOWNNAME":"歸仁區","LI":"大廟里","LIN":"17鄰","STREET":"大廟五街","SECT":" ","MAREA":" ","LANE":"７３巷","ALLEY":" ","HOUSE_NO":"２８號","E_COORD97":175945.42999999999,"N_COORD97":2544362.0899999999,"ADDRESS":"大廟五街７３巷２８號","OBJECTID":306089},"geometry":{"x":175945.43000000063,"y":2544362.0899999999}},{"attributes":{"ID":306098,"DIS_CODE":0,"TOWNNAME":"歸仁區","LI":"大廟里","LIN":"17鄰","STREET":"大廟五街","SECT":" ","MAREA":" ","LANE":"７３巷","ALLEY":" ","HOUSE_NO":"２號","E_COORD97":176008.67999999999,"N_COORD97":2544337.0899999999,"ADDRESS":"大廟五街７３巷２號","OBJECTID":306090},"geometry":{"x":176008.68000000063,"y":2544337.0899999999}},{"attributes":{"ID":306099,"DIS_CODE":0,"TOWNNAME":"歸仁區","LI":"大廟里","LIN":"17鄰","STREET":"大廟五街","SECT":" ","MAREA":" ","LANE":"７３巷","ALLEY":" ","HOUSE_NO":"８號","E_COORD97":175996.38,"N_COORD97":2544341.0899999999,"ADDRESS":"大廟五街７３巷８號","OBJECTID":306091},"geometry":{"x":175996.37999999989,"y":2544341.0899999999}},{"attributes":{"ID":306100,"DIS_CODE":0,"TOWNNAME":"歸仁區","LI":"文化里","LIN":"4鄰","STREET":"文化三街","SECT":" ","MAREA":" ","LANE":"５６巷","ALLEY":" ","HOUSE_NO":"１號","E_COORD97":177244.06,"N_COORD97":2541340.3399999999,"ADDRESS":"文化三街５６巷１號","OBJECTID":306092},"geometry":{"x":177244.05999999959,"y":2541340.3400000017}},{"attributes":{"ID":306101,"DIS_CODE":0,"TOWNNAME":"歸仁區","LI":"大廟里","LIN":"17鄰","STREET":"大廟五街","SECT":" ","MAREA":" ","LANE":"１３１巷","ALLEY":" ","HOUSE_NO":"８７號","E_COORD97":175778.17000000001,"N_COORD97":2544656.25,"ADDRESS":"大廟五街１３１巷８７號","OBJECTID":306093},"geometry":{"x":175778.17000000086,"y":2544656.25}},{"attributes":{"ID":306102,"DIS_CODE":0,"TOWNNAME":"南區","LI":"日新里","LIN":"8鄰","STREET":"金華路","SECT":"一段","MAREA":" ","LANE":"５０３巷","ALLEY":" ","HOUSE_NO":"８１號","E_COORD97":166901.29999999999,"N_COORD97":2541574.3199999998,"ADDRESS":"金華路一段５０３巷８１號","OBJECTID":306094},"geometry":{"x":166901.30000000075,"y":2541574.3199999984}},{"attributes":{"ID":306103,"DIS_CODE":0,"TOWNNAME":"南區","LI":"日新里","LIN":"8鄰","STREET":"金華路","SECT":"一段","MAREA":" ","LANE":"５０３巷","ALLEY":" ","HOUSE_NO":"８３號","E_COORD97":166904.44,"N_COORD97":2541571.1600000001,"ADDRESS":"金華路一段５０３巷８３號","OBJECTID":306095},"geometry":{"x":166904.44000000134,"y":2541571.1600000001}},{"attributes":{"ID":306104,"DIS_CODE":0,"TOWNNAME":"永康區","LI":"東橋里","LIN":"17鄰","STREET":"東橋五路","SECT":" ","MAREA":" ","LANE":" ","ALLEY":" ","HOUSE_NO":"３２９號","E_COORD97":171488.29999999999,"N_COORD97":2547109.6099999999,"ADDRESS":"東橋五路３２９號","OBJECTID":306096},"geometry":{"x":171488.30000000075,"y":2547109.6100000013}},{"attributes":{"ID":306105,"DIS_CODE":0,"TOWNNAME":"永康區","LI":"東橋里","LIN":"17鄰","STREET":"東橋五路","SECT":" ","MAREA":" ","LANE":" ","ALLEY":" ","HOUSE_NO":"３３１號","E_COORD97":171488.20000000001,"N_COORD97":2547114.0499999998,"ADDRESS":"東橋五路３３１號","OBJECTID":306097},"geometry":{"x":171488.20000000019,"y":2547114.0500000026}},{"attributes":{"ID":306106,"DIS_CODE":0,"TOWNNAME":"永康區","LI":"東橋里","LIN":"17鄰","STREET":"東橋五路","SECT":" ","MAREA":" ","LANE":" ","ALLEY":" ","HOUSE_NO":"３３３號","E_COORD97":171486.10999999999,"N_COORD97":2547117.75,"ADDRESS":"東橋五路３３３號","OBJECTID":306098},"geometry":{"x":171486.11000000034,"y":2547117.7499999981}},{"attributes":{"ID":306107,"DIS_CODE":0,"TOWNNAME":"永康區","LI":"東橋里","LIN":"17鄰","STREET":"東橋五路","SECT":" ","MAREA":" ","LANE":" ","ALLEY":" ","HOUSE_NO":"３３５號","E_COORD97":171483.95999999999,"N_COORD97":2547121.54,"ADDRESS":"東橋五路３３５號","OBJECTID":306099},"geometry":{"x":171483.96000000089,"y":2547121.5399999991}},{"attributes":{"ID":306108,"DIS_CODE":0,"TOWNNAME":"永康區","LI":"東橋里","LIN":"17鄰","STREET":"東橋五路","SECT":" ","MAREA":" ","LANE":" ","ALLEY":" ","HOUSE_NO":"３３７號","E_COORD97":171478.14000000001,"N_COORD97":2547131.8399999999,"ADDRESS":"東橋五路３３７號","OBJECTID":306100},"geometry":{"x":171478.13999999966,"y":2547131.8400000017}},{"attributes":{"ID":306109,"DIS_CODE":0,"TOWNNAME":"永康區","LI":"東橋里","LIN":"17鄰","STREET":"東橋五路","SECT":" ","MAREA":" ","LANE":" ","ALLEY":" ","HOUSE_NO":"３３９號","E_COORD97":171473.92999999999,"N_COORD97":2547135.9399999999,"ADDRESS":"東橋五路３３９號","OBJECTID":306101},"geometry":{"x":171473.93000000063,"y":2547135.9399999995}},{"attributes":{"ID":306110,"DIS_CODE":0,"TOWNNAME":"永康區","LI":"東橋里","LIN":"17鄰","STREET":"東橋五路","SECT":" ","MAREA":" ","LANE":" ","ALLEY":" ","HOUSE_NO":"３４１號","E_COORD97":171473.81,"N_COORD97":2547141.21,"ADDRESS":"東橋五路３４１號","OBJECTID":306102},"geometry":{"x":171473.80999999959,"y":2547141.2100000028}},{"attributes":{"ID":306111,"DIS_CODE":0,"TOWNNAME":"永康區","LI":"東橋里","LIN":"17鄰","STREET":"東橋五路","SECT":" ","MAREA":" ","LANE":" ","ALLEY":" ","HOUSE_NO":"３４３號","E_COORD97":171471.32000000001,"N_COORD97":2547145.6099999999,"ADDRESS":"東橋五路３４３號","OBJECTID":306103},"geometry":{"x":171471.32000000216,"y":2547145.6100000031}},{"attributes":{"ID":306112,"DIS_CODE":0,"TOWNNAME":"歸仁區","LI":"大廟里","LIN":"24鄰","STREET":"大廟一街","SECT":" ","MAREA":" ","LANE":"２２２巷","ALLEY":" ","HOUSE_NO":"１３號","E_COORD97":175537.17000000001,"N_COORD97":2543613.25,"ADDRESS":"大廟一街２２２巷１３號","OBJECTID":306104},"geometry":{"x":175537.17000000086,"y":2543613.2500000019}},{"attributes":{"ID":306113,"DIS_CODE":0,"TOWNNAME":"歸仁區","LI":"文化里","LIN":"4鄰","STREET":"民權一街","SECT":" ","MAREA":" ","LANE":"３８巷","ALLEY":" ","HOUSE_NO":"１６號","E_COORD97":177256.39999999999,"N_COORD97":2541309.3300000001,"ADDRESS":"民權一街３８巷１６號","OBJECTID":306105},"geometry":{"x":177256.39999999944,"y":2541309.3300000001}},{"attributes":{"ID":306114,"DIS_CODE":0,"TOWNNAME":"歸仁區","LI":"七甲里","LIN":"4鄰","STREET":"中正北路","SECT":"二段","MAREA":" ","LANE":"４７０巷","ALLEY":" ","HOUSE_NO":"２９號","E_COORD97":177508.87,"N_COORD97":2543168.2599999998,"ADDRESS":"中正北路二段４７０巷２９號","OBJECTID":306106},"geometry":{"x":177508.87000000011,"y":2543168.2600000016}},{"attributes":{"ID":306115,"DIS_CODE":0,"TOWNNAME":"歸仁區","LI":"大廟里","LIN":"4鄰","STREET":"和順路","SECT":"二段","MAREA":" ","LANE":"４１巷","ALLEY":" ","HOUSE_NO":"３２號","E_COORD97":176496.23999999999,"N_COORD97":2543503.2799999998,"ADDRESS":"和順路二段４１巷３２號","OBJECTID":306107},"geometry":{"x":176496.24000000209,"y":2543503.2800000012}},{"attributes":{"ID":306116,"DIS_CODE":0,"TOWNNAME":"歸仁區","LI":"大廟里","LIN":"24鄰","STREET":"大廟一街","SECT":" ","MAREA":" ","LANE":"２２２巷","ALLEY":" ","HOUSE_NO":"９號","E_COORD97":175545.22,"N_COORD97":2543613.25,"ADDRESS":"大廟一街２２２巷９號","OBJECTID":306108},"geometry":{"x":175545.22000000067,"y":2543613.2500000019}},{"attributes":{"ID":306117,"DIS_CODE":0,"TOWNNAME":"歸仁區","LI":"大廟里","LIN":"17鄰","STREET":"大廟五街","SECT":" ","MAREA":" ","LANE":"１８９巷","ALLEY":" ","HOUSE_NO":"４７號","E_COORD97":176146.26999999999,"N_COORD97":2544881.25,"ADDRESS":"大廟五街１８９巷４７號","OBJECTID":306109},"geometry":{"x":176146.27000000142,"y":2544881.2500000019}},{"attributes":{"ID":306118,"DIS_CODE":0,"TOWNNAME":"歸仁區","LI":"七甲里","LIN":"8鄰","STREET":"七甲二街","SECT":" ","MAREA":" ","LANE":"５７巷","ALLEY":" ","HOUSE_NO":"２２號","E_COORD97":177687.44,"N_COORD97":2542715.6600000001,"ADDRESS":"七甲二街５７巷２２號","OBJECTID":306110},"geometry":{"x":177687.44000000134,"y":2542715.660000002}},{"attributes":{"ID":306119,"DIS_CODE":0,"TOWNNAME":"歸仁區","LI":"七甲里","LIN":"4鄰","STREET":"中正北路","SECT":"二段","MAREA":" ","LANE":"４７０巷","ALLEY":" ","HOUSE_NO":"２５號","E_COORD97":177510.97,"N_COORD97":2543179.2599999998,"ADDRESS":"中正北路二段４７０巷２５號","OBJECTID":306111},"geometry":{"x":177510.96999999974,"y":2543179.2600000016}},{"attributes":{"ID":306120,"DIS_CODE":0,"TOWNNAME":"歸仁區","LI":"大潭里","LIN":"5鄰","STREET":"長榮路","SECT":"一段","MAREA":" ","LANE":"２４５巷","ALLEY":" ","HOUSE_NO":"３０號","E_COORD97":175228.42000000001,"N_COORD97":2534646.2799999998,"ADDRESS":"長榮路一段２４５巷３０號","OBJECTID":306112},"geometry":{"x":175228.42000000179,"y":2534646.2799999993}},{"attributes":{"ID":306121,"DIS_CODE":0,"TOWNNAME":"歸仁區","LI":"八甲里","LIN":"20鄰","STREET":"大仁三街","SECT":" ","MAREA":" ","LANE":"２３巷","ALLEY":" ","HOUSE_NO":"６號","E_COORD97":178321.19,"N_COORD97":2541352.25,"ADDRESS":"大仁三街２３巷６號","OBJECTID":306113},"geometry":{"x":178321.19000000134,"y":2541352.2500000019}},{"attributes":{"ID":306122,"DIS_CODE":0,"TOWNNAME":"歸仁區","LI":"大廟里","LIN":"24鄰","STREET":"大廟一街","SECT":" ","MAREA":" ","LANE":"２２２巷","ALLEY":" ","HOUSE_NO":"５號","E_COORD97":175554.42000000001,"N_COORD97":2543613.25,"ADDRESS":"大廟一街２２２巷５號","OBJECTID":306114},"geometry":{"x":175554.42000000086,"y":2543613.2500000019}},{"attributes":{"ID":306123,"DIS_CODE":0,"TOWNNAME":"永康區","LI":"東橋里","LIN":"17鄰","STREET":"東橋五路","SECT":" ","MAREA":" ","LANE":" ","ALLEY":" ","HOUSE_NO":"３４５號","E_COORD97":171468.82999999999,"N_COORD97":2547150.0099999998,"ADDRESS":"東橋五路３４５號","OBJECTID":306115},"geometry":{"x":171468.83000000007,"y":2547150.0100000035}},{"attributes":{"ID":306124,"DIS_CODE":0,"TOWNNAME":"永康區","LI":"東橋里","LIN":"17鄰","STREET":"東橋十街","SECT":" ","MAREA":" ","LANE":" ","ALLEY":" ","HOUSE_NO":"５號","E_COORD97":171417.37,"N_COORD97":2547011.1000000001,"ADDRESS":"東橋十街５號","OBJECTID":306116},"geometry":{"x":171417.37000000011,"y":2547011.1000000015}},{"attributes":{"ID":306125,"DIS_CODE":0,"TOWNNAME":"永康區","LI":"東橋里","LIN":"17鄰","STREET":"東橋十街","SECT":" ","MAREA":" ","LANE":" ","ALLEY":" ","HOUSE_NO":"９號","E_COORD97":171423.72,"N_COORD97":2547020.52,"ADDRESS":"東橋十街９號","OBJECTID":306117},"geometry":{"x":171423.71999999974,"y":2547020.5199999977}},{"attributes":{"ID":306126,"DIS_CODE":0,"TOWNNAME":"永康區","LI":"東橋里","LIN":"17鄰","STREET":"東橋十街","SECT":" ","MAREA":" ","LANE":" ","ALLEY":" ","HOUSE_NO":"１１號","E_COORD97":171429.25,"N_COORD97":2547022.1499999999,"ADDRESS":"東橋十街１１號","OBJECTID":306118},"geometry":{"x":171429.25000000093,"y":2547022.1500000022}},{"attributes":{"ID":306127,"DIS_CODE":0,"TOWNNAME":"永康區","LI":"東橋里","LIN":"17鄰","STREET":"東橋十街","SECT":" ","MAREA":" ","LANE":" ","ALLEY":" ","HOUSE_NO":"１３號","E_COORD97":171433.67999999999,"N_COORD97":2547024.9100000001,"ADDRESS":"東橋十街１３號","OBJECTID":306119},"geometry":{"x":171433.6799999997,"y":2547024.9100000001}},{"attributes":{"ID":306128,"DIS_CODE":0,"TOWNNAME":"永康區","LI":"東橋里","LIN":"17鄰","STREET":"東橋十街","SECT":" ","MAREA":" ","LANE":" ","ALLEY":" ","HOUSE_NO":"１７號","E_COORD97":171442.54999999999,"N_COORD97":2547030.4100000001,"ADDRESS":"東橋十街１７號","OBJECTID":306120},"geometry":{"x":171442.55000000075,"y":2547030.410000002}},{"attributes":{"ID":306129,"DIS_CODE":0,"TOWNNAME":"永康區","LI":"東橋里","LIN":"17鄰","STREET":"東橋十街","SECT":" ","MAREA":" ","LANE":" ","ALLEY":" ","HOUSE_NO":"１９號","E_COORD97":171446.98000000001,"N_COORD97":2547033.1600000001,"ADDRESS":"東橋十街１９號","OBJECTID":306121},"geometry":{"x":171446.98000000138,"y":2547033.1600000001}},{"attributes":{"ID":306130,"DIS_CODE":0,"TOWNNAME":"柳營區","LI":"旭山里","LIN":"13鄰","STREET":" ","SECT":" ","MAREA":"匏子園","LANE":" ","ALLEY":" ","HOUSE_NO":"６號","E_COORD97":189612.07000000001,"N_COORD97":2572115.8700000001,"ADDRESS":"匏子園６號","OBJECTID":306122},"geometry":{"x":189612.07000000123,"y":2572115.8700000029}},{"attributes":{"ID":306131,"DIS_CODE":0,"TOWNNAME":"永康區","LI":"東橋里","LIN":"17鄰","STREET":"東橋十街","SECT":" ","MAREA":" ","LANE":" ","ALLEY":" ","HOUSE_NO":"２５號","E_COORD97":171460.31,"N_COORD97":2547041.4300000002,"ADDRESS":"東橋十街２５號","OBJECTID":306123},"geometry":{"x":171460.30999999866,"y":2547041.4299999997}},{"attributes":{"ID":306132,"DIS_CODE":0,"TOWNNAME":"永康區","LI":"東橋里","LIN":"17鄰","STREET":"東橋十街","SECT":" ","MAREA":" ","LANE":" ","ALLEY":" ","HOUSE_NO":"２７號","E_COORD97":171464.85000000001,"N_COORD97":2547044.25,"ADDRESS":"東橋十街２７號","OBJECTID":306124},"geometry":{"x":171464.84999999963,"y":2547044.2500000019}},{"attributes":{"ID":306133,"DIS_CODE":0,"TOWNNAME":"永康區","LI":"東橋里","LIN":"17鄰","STREET":"東橋十街","SECT":" ","MAREA":" ","LANE":" ","ALLEY":" ","HOUSE_NO":"２９號","E_COORD97":171469.35000000001,"N_COORD97":2547047.04,"ADDRESS":"東橋十街２９號","OBJECTID":306125},"geometry":{"x":171469.35000000056,"y":2547047.0399999972}},{"attributes":{"ID":306134,"DIS_CODE":0,"TOWNNAME":"永康區","LI":"東橋里","LIN":"17鄰","STREET":"東橋十街","SECT":" ","MAREA":" ","LANE":" ","ALLEY":" ","HOUSE_NO":"３１號","E_COORD97":171473.79000000001,"N_COORD97":2547049.79,"ADDRESS":"東橋十街３１號","OBJECTID":306126},"geometry":{"x":171473.79000000004,"y":2547049.790000001}},{"attributes":{"ID":306135,"DIS_CODE":0,"TOWNNAME":"永康區","LI":"東橋里","LIN":"17鄰","STREET":"東橋十街","SECT":" ","MAREA":" ","LANE":" ","ALLEY":" ","HOUSE_NO":"３３號","E_COORD97":171478.22,"N_COORD97":2547052.54,"ADDRESS":"東橋十街３３號","OBJECTID":306127},"geometry":{"x":171478.2200000016,"y":2547052.5399999991}},{"attributes":{"ID":306136,"DIS_CODE":0,"TOWNNAME":"歸仁區","LI":"文化里","LIN":"4鄰","STREET":"民權一街","SECT":" ","MAREA":" ","LANE":"３８巷","ALLEY":" ","HOUSE_NO":"１０號","E_COORD97":177268.70000000001,"N_COORD97":2541309.3300000001,"ADDRESS":"民權一街３８巷１０號","OBJECTID":306128},"geometry":{"x":177268.70000000019,"y":2541309.3300000001}},{"attributes":{"ID":306137,"DIS_CODE":0,"TOWNNAME":"歸仁區","LI":"文化里","LIN":"13鄰","STREET":"大德路","SECT":" ","MAREA":" ","LANE":"１９３巷","ALLEY":" ","HOUSE_NO":"３９號","E_COORD97":177415.22,"N_COORD97":2541482.3300000001,"ADDRESS":"大德路１９３巷３９號","OBJECTID":306129},"geometry":{"x":177415.22000000067,"y":2541482.3300000001}},{"attributes":{"ID":306138,"DIS_CODE":0,"TOWNNAME":"歸仁區","LI":"七甲里","LIN":"5鄰","STREET":"中正北路","SECT":"二段","MAREA":" ","LANE":"４３２巷","ALLEY":" ","HOUSE_NO":"７號","E_COORD97":177524.62,"N_COORD97":2543086.2599999998,"ADDRESS":"中正北路二段４３２巷７號","OBJECTID":306130},"geometry":{"x":177524.62000000104,"y":2543086.2599999979}},{"attributes":{"ID":306139,"DIS_CODE":0,"TOWNNAME":"南區","LI":"鯤鯓里","LIN":"14鄰","STREET":"鯤鯓路","SECT":" ","MAREA":" ","LANE":"１９４巷","ALLEY":" ","HOUSE_NO":"４６號","E_COORD97":165052.92999999999,"N_COORD97":2540308.52,"ADDRESS":"鯤鯓路１９４巷４６號","OBJECTID":306131},"geometry":{"x":165052.9299999997,"y":2540308.5200000014}},{"attributes":{"ID":306140,"DIS_CODE":0,"TOWNNAME":"南區","LI":"鯤鯓里","LIN":"17鄰","STREET":"鯤鯓路","SECT":" ","MAREA":" ","LANE":"２０８巷","ALLEY":" ","HOUSE_NO":"８號","E_COORD97":164882.12,"N_COORD97":2540307.29,"ADDRESS":"鯤鯓路２０８巷８號","OBJECTID":306132},"geometry":{"x":164882.12000000104,"y":2540307.2899999991}},{"attributes":{"ID":306141,"DIS_CODE":0,"TOWNNAME":"南區","LI":"鯤鯓里","LIN":"19鄰","STREET":"鯤鯓路","SECT":" ","MAREA":" ","LANE":"１０２巷","ALLEY":" ","HOUSE_NO":"１００號","E_COORD97":165082.92999999999,"N_COORD97":2540180.4700000002,"ADDRESS":"鯤鯓路１０２巷１００號","OBJECTID":306133},"geometry":{"x":165082.93000000063,"y":2540180.4700000044}},{"attributes":{"ID":306142,"DIS_CODE":0,"TOWNNAME":"南區","LI":"鯤鯓里","LIN":"19鄰","STREET":"鯤鯓路","SECT":" ","MAREA":" ","LANE":"１０２巷","ALLEY":" ","HOUSE_NO":"１０８號","E_COORD97":165108.76999999999,"N_COORD97":2540186.5099999998,"ADDRESS":"鯤鯓路１０２巷１０８號","OBJECTID":306134},"geometry":{"x":165108.77000000142,"y":2540186.5100000016}},{"attributes":{"ID":306143,"DIS_CODE":0,"TOWNNAME":"南區","LI":"鯤鯓里","LIN":"19鄰","STREET":"鯤鯓路","SECT":" ","MAREA":" ","LANE":"１０２巷","ALLEY":" ","HOUSE_NO":"１１０號","E_COORD97":165087.76000000001,"N_COORD97":2540187.71,"ADDRESS":"鯤鯓路１０２巷１１０號","OBJECTID":306135},"geometry":{"x":165087.76000000071,"y":2540187.7100000009}},{"attributes":{"ID":306144,"DIS_CODE":0,"TOWNNAME":"歸仁區","LI":"八甲里","LIN":"20鄰","STREET":"大仁三街","SECT":" ","MAREA":" ","LANE":" ","ALLEY":" ","HOUSE_NO":"９０號","E_COORD97":178262.59,"N_COORD97":2541428.25,"ADDRESS":"大仁三街９０號","OBJECTID":306136},"geometry":{"x":178262.58999999985,"y":2541428.25}},{"attributes":{"ID":306145,"DIS_CODE":0,"TOWNNAME":"南區","LI":"鯤鯓里","LIN":"19鄰","STREET":"鯤鯓路","SECT":" ","MAREA":" ","LANE":"１０２巷","ALLEY":" ","HOUSE_NO":"２９號","E_COORD97":165042.82000000001,"N_COORD97":2540176.2000000002,"ADDRESS":"鯤鯓路１０２巷２９號","OBJECTID":306137},"geometry":{"x":165042.8200000003,"y":2540176.1999999993}},{"attributes":{"ID":306146,"DIS_CODE":0,"TOWNNAME":"南區","LI":"鯤鯓里","LIN":"19鄰","STREET":"鯤鯓路","SECT":" ","MAREA":" ","LANE":"１０２巷","ALLEY":" ","HOUSE_NO":"３１號","E_COORD97":165057.31,"N_COORD97":2540168.96,"ADDRESS":"鯤鯓路１０２巷３１號","OBJECTID":306138},"geometry":{"x":165057.30999999959,"y":2540168.9600000009}},{"attributes":{"ID":306147,"DIS_CODE":0,"TOWNNAME":"南區","LI":"鯤鯓里","LIN":"19鄰","STREET":"鯤鯓路","SECT":" ","MAREA":" ","LANE":"１０２巷","ALLEY":" ","HOUSE_NO":"３３號","E_COORD97":165059,"N_COORD97":2540175.96,"ADDRESS":"鯤鯓路１０２巷３３號","OBJECTID":306139},"geometry":{"x":165059.00000000093,"y":2540175.9600000009}},{"attributes":{"ID":306148,"DIS_CODE":0,"TOWNNAME":"南區","LI":"鯤鯓里","LIN":"19鄰","STREET":"鯤鯓路","SECT":" ","MAREA":" ","LANE":"１０２巷","ALLEY":" ","HOUSE_NO":"３５號","E_COORD97":165061.54000000001,"N_COORD97":2540182,"ADDRESS":"鯤鯓路１０２巷３５號","OBJECTID":306140},"geometry":{"x":165061.54000000004,"y":2540182}},{"attributes":{"ID":306149,"DIS_CODE":0,"TOWNNAME":"楠西區","LI":"東勢里","LIN":"14鄰","STREET":"民生路","SECT":" ","MAREA":" ","LANE":" ","ALLEY":" ","HOUSE_NO":"１號","E_COORD97":197373.48999999999,"N_COORD97":2563858.29,"ADDRESS":"民生路１號","OBJECTID":306141},"geometry":{"x":197373.49000000022,"y":2563858.2899999972}},{"attributes":{"ID":306150,"DIS_CODE":0,"TOWNNAME":"南區","LI":"鯤鯓里","LIN":"21鄰","STREET":"鯤鯓路","SECT":" ","MAREA":" ","LANE":" ","ALLEY":" ","HOUSE_NO":"１４７號","E_COORD97":164843.17999999999,"N_COORD97":2540247.25,"ADDRESS":"鯤鯓路１４７號","OBJECTID":306142},"geometry":{"x":164843.1799999997,"y":2540247.2500000019}},{"attributes":{"ID":306151,"DIS_CODE":0,"TOWNNAME":"南區","LI":"鯤鯓里","LIN":"21鄰","STREET":"鯤鯓路","SECT":" ","MAREA":" ","LANE":" ","ALLEY":" ","HOUSE_NO":"１４７號之１","E_COORD97":164874.5,"N_COORD97":2540122.9199999999,"ADDRESS":"鯤鯓路１４７號之１","OBJECTID":306143},"geometry":{"x":164874.50000000093,"y":2540122.9200000018}},{"attributes":{"ID":306152,"DIS_CODE":0,"TOWNNAME":"南區","LI":"鯤鯓里","LIN":"21鄰","STREET":"鯤鯓路","SECT":" ","MAREA":" ","LANE":" ","ALLEY":" ","HOUSE_NO":"１４９號","E_COORD97":164753.25,"N_COORD97":2540243.6000000001,"ADDRESS":"鯤鯓路１４９號","OBJECTID":306144},"geometry":{"x":164753.25,"y":2540243.6000000015}},{"attributes":{"ID":306153,"DIS_CODE":0,"TOWNNAME":"南區","LI":"鯤鯓里","LIN":"21鄰","STREET":"鯤鯓路","SECT":" ","MAREA":" ","LANE":" ","ALLEY":" ","HOUSE_NO":"１７４號","E_COORD97":164889.5,"N_COORD97":2540217.2000000002,"ADDRESS":"鯤鯓路１７４號","OBJECTID":306145},"geometry":{"x":164889.50000000093,"y":2540217.1999999993}},{"attributes":{"ID":306154,"DIS_CODE":0,"TOWNNAME":"南區","LI":"鯤鯓里","LIN":"21鄰","STREET":"鯤鯓路","SECT":" ","MAREA":" ","LANE":" ","ALLEY":" ","HOUSE_NO":"１８０號","E_COORD97":164903.75,"N_COORD97":2540239.4700000002,"ADDRESS":"鯤鯓路１８０號","OBJECTID":306146},"geometry":{"x":164903.75,"y":2540239.4700000025}},{"attributes":{"ID":306155,"DIS_CODE":0,"TOWNNAME":"南區","LI":"鯤鯓里","LIN":"21鄰","STREET":"鯤鯓路","SECT":" ","MAREA":" ","LANE":" ","ALLEY":" ","HOUSE_NO":"１８２號","E_COORD97":164878.39000000001,"N_COORD97":2540244.5699999998,"ADDRESS":"鯤鯓路１８２號","OBJECTID":306147},"geometry":{"x":164878.3900000006,"y":2540244.5700000022}},{"attributes":{"ID":306156,"DIS_CODE":0,"TOWNNAME":"仁德區","LI":"仁德里","LIN":"4鄰","STREET":"仁中一街","SECT":" ","MAREA":" ","LANE":" ","ALLEY":" ","HOUSE_NO":"８７號","E_COORD97":173269.10999999999,"N_COORD97":2540596.9900000002,"ADDRESS":"仁中一街８７號","OBJECTID":306148},"geometry":{"x":173269.11000000034,"y":2540596.9900000039}},{"attributes":{"ID":306157,"DIS_CODE":0,"TOWNNAME":"仁德區","LI":"仁德里","LIN":"4鄰","STREET":"仁中一街","SECT":" ","MAREA":" ","LANE":" ","ALLEY":" ","HOUSE_NO":"８３號","E_COORD97":173279.14000000001,"N_COORD97":2540596.9900000002,"ADDRESS":"仁中一街８３號","OBJECTID":306149},"geometry":{"x":173279.1400000006,"y":2540596.9900000039}},{"attributes":{"ID":306158,"DIS_CODE":0,"TOWNNAME":"仁德區","LI":"仁義里","LIN":"36鄰","STREET":"勝利路","SECT":" ","MAREA":" ","LANE":" ","ALLEY":" ","HOUSE_NO":"３３號","E_COORD97":173492.95999999999,"N_COORD97":2539978.5,"ADDRESS":"勝利路３３號","OBJECTID":306150},"geometry":{"x":173492.96000000089,"y":2539978.5}},{"attributes":{"ID":306159,"DIS_CODE":0,"TOWNNAME":"仁德區","LI":"仁義里","LIN":"5鄰","STREET":"中山路","SECT":" ","MAREA":" ","LANE":" ","ALLEY":" ","HOUSE_NO":"３６３號","E_COORD97":173909.92999999999,"N_COORD97":2541240.25,"ADDRESS":"中山路３６３號","OBJECTID":306151},"geometry":{"x":173909.93000000063,"y":2541240.2500000019}},{"attributes":{"ID":306160,"DIS_CODE":0,"TOWNNAME":"仁德區","LI":"仁德里","LIN":"20鄰","STREET":"中山路","SECT":" ","MAREA":" ","LANE":" ","ALLEY":" ","HOUSE_NO":"８７９號","E_COORD97":172412.01000000001,"N_COORD97":2541585,"ADDRESS":"中山路８７９號","OBJECTID":306152},"geometry":{"x":172412.01000000164,"y":2541585}},{"attributes":{"ID":306161,"DIS_CODE":0,"TOWNNAME":"仁德區","LI":"仁德里","LIN":"39鄰","STREET":"文山路","SECT":" ","MAREA":" ","LANE":" ","ALLEY":" ","HOUSE_NO":"２５５號","E_COORD97":172637.25,"N_COORD97":2541792.0800000001,"ADDRESS":"文山路２５５號","OBJECTID":306153},"geometry":{"x":172637.25,"y":2541792.0800000001}},{"attributes":{"ID":306162,"DIS_CODE":0,"TOWNNAME":"仁德區","LI":"仁德里","LIN":"4鄰","STREET":"仁中三街","SECT":" ","MAREA":" ","LANE":" ","ALLEY":" ","HOUSE_NO":"４０號","E_COORD97":173348.82999999999,"N_COORD97":2540429,"ADDRESS":"仁中三街４０號","OBJECTID":306154},"geometry":{"x":173348.83000000007,"y":2540429}},{"attributes":{"ID":306163,"DIS_CODE":0,"TOWNNAME":"楠西區","LI":"照興里","LIN":"6鄰","STREET":" ","SECT":" ","MAREA":"興北","LANE":" ","ALLEY":" ","HOUSE_NO":"８３號","E_COORD97":196637.26999999999,"N_COORD97":2566706.25,"ADDRESS":"興北８３號","OBJECTID":306155},"geometry":{"x":196637.26999999955,"y":2566706.25}},{"attributes":{"ID":306164,"DIS_CODE":0,"TOWNNAME":"歸仁區","LI":"看西里","LIN":"3鄰","STREET":"仁愛五街","SECT":" ","MAREA":" ","LANE":" ","ALLEY":" ","HOUSE_NO":"７號","E_COORD97":178323.47443,"N_COORD97":2540325.1025899998,"ADDRESS":"仁愛五街７號","OBJECTID":306156},"geometry":{"x":178323.47443000041,"y":2540325.1025850009}},{"attributes":{"ID":306165,"DIS_CODE":0,"TOWNNAME":"楠西區","LI":"龜丹里","LIN":"8鄰","STREET":" ","SECT":" ","MAREA":"龜丹","LANE":" ","ALLEY":" ","HOUSE_NO":"１０５號","E_COORD97":198246.48999999999,"N_COORD97":2560358.25,"ADDRESS":"龜丹１０５號","OBJECTID":306157},"geometry":{"x":198246.49000000022,"y":2560358.2500000019}},{"attributes":{"ID":306166,"DIS_CODE":0,"TOWNNAME":"柳營區","LI":"旭山里","LIN":"13鄰","STREET":" ","SECT":" ","MAREA":"匏子園","LANE":" ","ALLEY":" ","HOUSE_NO":"７號","E_COORD97":189644.20000000001,"N_COORD97":2572119.1499999999,"ADDRESS":"匏子園７號","OBJECTID":306158},"geometry":{"x":189644.20000000019,"y":2572119.1500000004}},{"attributes":{"ID":306167,"DIS_CODE":0,"TOWNNAME":"南區","LI":"日新里","LIN":"8鄰","STREET":"金華路","SECT":"一段","MAREA":" ","LANE":"５０３巷","ALLEY":" ","HOUSE_NO":"８５號","E_COORD97":166907.67000000001,"N_COORD97":2541568.5299999998,"ADDRESS":"金華路一段５０３巷８５號","OBJECTID":306159},"geometry":{"x":166907.66999999993,"y":2541568.5299999975}},{"attributes":{"ID":306168,"DIS_CODE":0,"TOWNNAME":"南區","LI":"日新里","LIN":"8鄰","STREET":"金華路","SECT":"一段","MAREA":" ","LANE":"５０３巷","ALLEY":" ","HOUSE_NO":"８７號","E_COORD97":166911.07000000001,"N_COORD97":2541565.2000000002,"ADDRESS":"金華路一段５０３巷８７號","OBJECTID":306160},"geometry":{"x":166911.0700000003,"y":2541565.2000000011}},{"attributes":{"ID":306169,"DIS_CODE":0,"TOWNNAME":"南區","LI":"松安里","LIN":"8鄰","STREET":"灣裡路","SECT":" ","MAREA":" ","LANE":"２８２巷","ALLEY":" ","HOUSE_NO":"２３號","E_COORD97":166046.42999999999,"N_COORD97":2536388.3900000001,"ADDRESS":"灣裡路２８２巷２３號","OBJECTID":306161},"geometry":{"x":166046.4299999997,"y":2536388.3900000025}},{"attributes":{"ID":306170,"DIS_CODE":0,"TOWNNAME":"南區","LI":"松安里","LIN":"8鄰","STREET":"灣裡路","SECT":" ","MAREA":" ","LANE":"２８２巷","ALLEY":" ","HOUSE_NO":"２５號","E_COORD97":166041.85000000001,"N_COORD97":2536386.1000000001,"ADDRESS":"灣裡路２８２巷２５號","OBJECTID":306162},"geometry":{"x":166041.84999999963,"y":2536386.1000000015}},{"attributes":{"ID":306171,"DIS_CODE":0,"TOWNNAME":"南區","LI":"松安里","LIN":"8鄰","STREET":"灣裡路","SECT":" ","MAREA":" ","LANE":"２８２巷","ALLEY":" ","HOUSE_NO":"２７號","E_COORD97":166037.26999999999,"N_COORD97":2536384.8300000001,"ADDRESS":"灣裡路２８２巷２７號","OBJECTID":306163},"geometry":{"x":166037.26999999955,"y":2536384.8300000019}},{"attributes":{"ID":306172,"DIS_CODE":0,"TOWNNAME":"安南區","LI":"大安里","LIN":"8鄰","STREET":"理安街","SECT":" ","MAREA":" ","LANE":"１３４巷","ALLEY":" ","HOUSE_NO":"３號","E_COORD97":167475.17000000001,"N_COORD97":2548153.77,"ADDRESS":"理安街１３４巷３號","OBJECTID":306164},"geometry":{"x":167475.17000000086,"y":2548153.7699999996}},{"attributes":{"ID":306173,"DIS_CODE":0,"TOWNNAME":"南區","LI":"田寮里","LIN":"8鄰","STREET":"新興路","SECT":" ","MAREA":" ","LANE":"１８３巷","ALLEY":" ","HOUSE_NO":"１８號","E_COORD97":167427,"N_COORD97":2541976.46,"ADDRESS":"新興路１８３巷１８號","OBJECTID":306165},"geometry":{"x":167427.00000000093,"y":2541976.4600000009}},{"attributes":{"ID":306174,"DIS_CODE":0,"TOWNNAME":"中西區","LI":"中正里","LIN":"8鄰","STREET":"國華街","SECT":"三段","MAREA":" ","LANE":"３巷","ALLEY":" ","HOUSE_NO":"１０號","E_COORD97":167678.35999999999,"N_COORD97":2543786.52,"ADDRESS":"國華街三段３巷１０號","OBJECTID":306166},"geometry":{"x":167678.36000000034,"y":2543786.5200000033}},{"attributes":{"ID":306175,"DIS_CODE":0,"TOWNNAME":"中西區","LI":"中正里","LIN":"8鄰","STREET":"國華街","SECT":"三段","MAREA":" ","LANE":"３巷","ALLEY":" ","HOUSE_NO":"７號","E_COORD97":167676.31,"N_COORD97":2543771.3199999998,"ADDRESS":"國華街三段３巷７號","OBJECTID":306167},"geometry":{"x":167676.30999999959,"y":2543771.3199999984}},{"attributes":{"ID":306176,"DIS_CODE":0,"TOWNNAME":"中西區","LI":"中正里","LIN":"8鄰","STREET":"國華街","SECT":"三段","MAREA":" ","LANE":"３巷","ALLEY":" ","HOUSE_NO":"８號","E_COORD97":167671.64999999999,"N_COORD97":2543772.1400000001,"ADDRESS":"國華街三段３巷８號","OBJECTID":306168},"geometry":{"x":167671.65000000037,"y":2543772.1400000006}},{"attributes":{"ID":306177,"DIS_CODE":0,"TOWNNAME":"中西區","LI":"中正里","LIN":"8鄰","STREET":"國華街","SECT":"三段","MAREA":" ","LANE":"９巷","ALLEY":" ","HOUSE_NO":"１１號","E_COORD97":167692.76000000001,"N_COORD97":2543797.9100000001,"ADDRESS":"國華街三段９巷１１號","OBJECTID":306169},"geometry":{"x":167692.76000000071,"y":2543797.9100000039}},{"attributes":{"ID":306178,"DIS_CODE":0,"TOWNNAME":"中西區","LI":"中正里","LIN":"8鄰","STREET":"國華街","SECT":"三段","MAREA":" ","LANE":"９巷","ALLEY":" ","HOUSE_NO":"１３號","E_COORD97":167690.32000000001,"N_COORD97":2543798.04,"ADDRESS":"國華街三段９巷１３號","OBJECTID":306170},"geometry":{"x":167690.3200000003,"y":2543798.0399999991}},{"attributes":{"ID":306179,"DIS_CODE":0,"TOWNNAME":"中西區","LI":"中正里","LIN":"8鄰","STREET":"國華街","SECT":"三段","MAREA":" ","LANE":"９巷","ALLEY":" ","HOUSE_NO":"１５號","E_COORD97":167683.69,"N_COORD97":2543798.4199999999,"ADDRESS":"國華街三段９巷１５號","OBJECTID":306171},"geometry":{"x":167683.69000000134,"y":2543798.4200000018}},{"attributes":{"ID":306180,"DIS_CODE":0,"TOWNNAME":"中西區","LI":"中正里","LIN":"8鄰","STREET":"國華街","SECT":"三段","MAREA":" ","LANE":"９巷","ALLEY":" ","HOUSE_NO":"５號","E_COORD97":167701.64000000001,"N_COORD97":2543778.2999999998,"ADDRESS":"國華街三段９巷５號","OBJECTID":306172},"geometry":{"x":167701.63999999873,"y":2543778.3000000007}},{"attributes":{"ID":306181,"DIS_CODE":0,"TOWNNAME":"中西區","LI":"中正里","LIN":"8鄰","STREET":"國華街","SECT":"三段","MAREA":" ","LANE":"９巷","ALLEY":" ","HOUSE_NO":"７號","E_COORD97":167702.75,"N_COORD97":2543786.6899999999,"ADDRESS":"國華街三段９巷７號","OBJECTID":306173},"geometry":{"x":167702.75,"y":2543786.6900000013}},{"attributes":{"ID":306182,"DIS_CODE":0,"TOWNNAME":"中西區","LI":"中正里","LIN":"8鄰","STREET":"國華街","SECT":"三段","MAREA":" ","LANE":"９巷","ALLEY":" ","HOUSE_NO":"９號","E_COORD97":167697.17000000001,"N_COORD97":2543797.5499999998,"ADDRESS":"國華街三段９巷９號","OBJECTID":306174},"geometry":{"x":167697.17000000086,"y":2543797.5500000045}},{"attributes":{"ID":306183,"DIS_CODE":0,"TOWNNAME":"中西區","LI":"中正里","LIN":"8鄰","STREET":"國華街","SECT":"三段","MAREA":" ","LANE":"９巷","ALLEY":" ","HOUSE_NO":"１０號","E_COORD97":167708.35999999999,"N_COORD97":2543808.2599999998,"ADDRESS":"國華街三段９巷１０號","OBJECTID":306175},"geometry":{"x":167708.36000000127,"y":2543808.2599999998}},{"attributes":{"ID":306184,"DIS_CODE":0,"TOWNNAME":"中西區","LI":"中正里","LIN":"8鄰","STREET":"國華街","SECT":"三段","MAREA":" ","LANE":"９巷","ALLEY":" ","HOUSE_NO":"１２號","E_COORD97":167702.63,"N_COORD97":2543809.9900000002,"ADDRESS":"國華街三段９巷１２號","OBJECTID":306176},"geometry":{"x":167702.63000000082,"y":2543809.9900000002}},{"attributes":{"ID":306185,"DIS_CODE":0,"TOWNNAME":"中西區","LI":"中正里","LIN":"8鄰","STREET":"國華街","SECT":"三段","MAREA":" ","LANE":"９巷","ALLEY":" ","HOUSE_NO":"１４號","E_COORD97":167696.32000000001,"N_COORD97":2543808.8399999999,"ADDRESS":"國華街三段９巷１４號","OBJECTID":306177},"geometry":{"x":167696.32000000123,"y":2543808.8400000017}},{"attributes":{"ID":306186,"DIS_CODE":0,"TOWNNAME":"中西區","LI":"中正里","LIN":"8鄰","STREET":"國華街","SECT":"三段","MAREA":" ","LANE":"９巷","ALLEY":" ","HOUSE_NO":"１６號","E_COORD97":167691.60000000001,"N_COORD97":2543809.6699999999,"ADDRESS":"國華街三段９巷１６號","OBJECTID":306178},"geometry":{"x":167691.59999999963,"y":2543809.6700000037}},{"attributes":{"ID":306187,"DIS_CODE":0,"TOWNNAME":"中西區","LI":"中正里","LIN":"8鄰","STREET":"國華街","SECT":"三段","MAREA":" ","LANE":"９巷","ALLEY":" ","HOUSE_NO":"１８號","E_COORD97":167685.23000000001,"N_COORD97":2543807.8100000001,"ADDRESS":"國華街三段９巷１８號","OBJECTID":306179},"geometry":{"x":167685.23000000138,"y":2543807.8100000005}},{"attributes":{"ID":306188,"DIS_CODE":0,"TOWNNAME":"中西區","LI":"中正里","LIN":"8鄰","STREET":"國華街","SECT":"三段","MAREA":" ","LANE":"９巷","ALLEY":" ","HOUSE_NO":"２０號","E_COORD97":167681.31,"N_COORD97":2543807.6200000001,"ADDRESS":"國華街三段９巷２０號","OBJECTID":306180},"geometry":{"x":167681.30999999959,"y":2543807.6200000048}},{"attributes":{"ID":306189,"DIS_CODE":0,"TOWNNAME":"中西區","LI":"中正里","LIN":"8鄰","STREET":"國華街","SECT":"三段","MAREA":" ","LANE":"９巷","ALLEY":" ","HOUSE_NO":"２２號","E_COORD97":167677.57999999999,"N_COORD97":2543806.9700000002,"ADDRESS":"國華街三段９巷２２號","OBJECTID":306181},"geometry":{"x":167677.58000000101,"y":2543806.9700000007}},{"attributes":{"ID":306190,"DIS_CODE":0,"TOWNNAME":"中西區","LI":"中正里","LIN":"8鄰","STREET":"國華街","SECT":"三段","MAREA":" ","LANE":"９巷","ALLEY":" ","HOUSE_NO":"２４號","E_COORD97":167673.78,"N_COORD97":2543807.1699999999,"ADDRESS":"國華街三段９巷２４號","OBJECTID":306182},"geometry":{"x":167673.78000000026,"y":2543807.1700000018}},{"attributes":{"ID":306191,"DIS_CODE":0,"TOWNNAME":"中西區","LI":"中正里","LIN":"8鄰","STREET":"國華街","SECT":"三段","MAREA":" ","LANE":"９巷","ALLEY":" ","HOUSE_NO":"２６號","E_COORD97":167670.10999999999,"N_COORD97":2543806.7799999998,"ADDRESS":"國華街三段９巷２６號","OBJECTID":306183},"geometry":{"x":167670.11000000034,"y":2543806.7799999993}},{"attributes":{"ID":306192,"DIS_CODE":0,"TOWNNAME":"中西區","LI":"中正里","LIN":"8鄰","STREET":"國華街","SECT":"三段","MAREA":" ","LANE":"９巷","ALLEY":" ","HOUSE_NO":"２８號","E_COORD97":167666.57000000001,"N_COORD97":2543806.8399999999,"ADDRESS":"國華街三段９巷２８號","OBJECTID":306184},"geometry":{"x":167666.5700000003,"y":2543806.8399999999}},{"attributes":{"ID":306193,"DIS_CODE":0,"TOWNNAME":"永康區","LI":"永康里","LIN":"8鄰","STREET":"永中街","SECT":" ","MAREA":" ","LANE":"５３巷","ALLEY":" ","HOUSE_NO":"９號","E_COORD97":173882.39999999999,"N_COORD97":2547228.9900000002,"ADDRESS":"永中街５３巷９號","OBJECTID":306185},"geometry":{"x":173882.40000000037,"y":2547228.9900000021}},{"attributes":{"ID":306194,"DIS_CODE":0,"TOWNNAME":"中西區","LI":"中正里","LIN":"8鄰","STREET":"國華街","SECT":"三段","MAREA":" ","LANE":"９巷","ALLEY":" ","HOUSE_NO":"３０號","E_COORD97":167663.16,"N_COORD97":2543806.8399999999,"ADDRESS":"國華街三段９巷３０號","OBJECTID":306186},"geometry":{"x":167663.16000000201,"y":2543806.8399999999}},{"attributes":{"ID":306195,"DIS_CODE":0,"TOWNNAME":"永康區","LI":"甲頂里","LIN":"8鄰","STREET":"中華路","SECT":" ","MAREA":" ","LANE":"８９５巷","ALLEY":" ","HOUSE_NO":"１１號","E_COORD97":170439.91,"N_COORD97":2546666.8500000001,"ADDRESS":"中華路８９５巷１１號","OBJECTID":306187},"geometry":{"x":170439.91000000201,"y":2546666.8500000015}},{"attributes":{"ID":306196,"DIS_CODE":0,"TOWNNAME":"永康區","LI":"永康里","LIN":"8鄰","STREET":"永中街","SECT":" ","MAREA":" ","LANE":"５３巷","ALLEY":" ","HOUSE_NO":"３號","E_COORD97":173897.20000000001,"N_COORD97":2547216.96,"ADDRESS":"永中街５３巷３號","OBJECTID":306188},"geometry":{"x":173897.20000000019,"y":2547216.9600000028}},{"attributes":{"ID":306197,"DIS_CODE":0,"TOWNNAME":"永康區","LI":"安康里","LIN":"8鄰","STREET":"中山南路","SECT":" ","MAREA":" ","LANE":"１１９巷","ALLEY":" ","HOUSE_NO":"２號","E_COORD97":170971.20000000001,"N_COORD97":2545942.9900000002,"ADDRESS":"中山南路１１９巷２號","OBJECTID":306189},"geometry":{"x":170971.20000000019,"y":2545942.9900000002}},{"attributes":{"ID":306198,"DIS_CODE":0,"TOWNNAME":"永康區","LI":"東橋里","LIN":"17鄰","STREET":"東橋十街","SECT":" ","MAREA":" ","LANE":" ","ALLEY":" ","HOUSE_NO":"４３號","E_COORD97":171499.25,"N_COORD97":2547067.3799999999,"ADDRESS":"東橋十街４３號","OBJECTID":306190},"geometry":{"x":171499.25000000093,"y":2547067.379999999}},{"attributes":{"ID":306199,"DIS_CODE":0,"TOWNNAME":"南區","LI":"永寧里","LIN":"6鄰","STREET":"灣裡路","SECT":" ","MAREA":" ","LANE":"８８巷","ALLEY":" ","HOUSE_NO":"１３６之１號","E_COORD97":165874.67000000001,"N_COORD97":2536549.3500000001,"ADDRESS":"灣裡路８８巷１３６之１號","OBJECTID":306191},"geometry":{"x":165874.67000000086,"y":2536549.3500000034}},{"attributes":{"ID":306200,"DIS_CODE":0,"TOWNNAME":"南區","LI":"同安里","LIN":"8鄰","STREET":"灣裡路","SECT":" ","MAREA":" ","LANE":"３５１巷","ALLEY":" ","HOUSE_NO":"７號","E_COORD97":166207.81,"N_COORD97":2536191.4100000001,"ADDRESS":"灣裡路３５１巷７號","OBJECTID":306192},"geometry":{"x":166207.81000000052,"y":2536191.410000002}},{"attributes":{"ID":306201,"DIS_CODE":0,"TOWNNAME":"南區","LI":"同安里","LIN":"14鄰","STREET":"明興路","SECT":" ","MAREA":" ","LANE":"１３６５巷","ALLEY":" ","HOUSE_NO":"２１號","E_COORD97":166450,"N_COORD97":2535900.5,"ADDRESS":"明興路１３６５巷２１號","OBJECTID":306193},"geometry":{"x":166450,"y":2535900.5}},{"attributes":{"ID":306202,"DIS_CODE":0,"TOWNNAME":"南區","LI":"大成里","LIN":"4鄰","STREET":"西門路","SECT":"一段","MAREA":" ","LANE":"３８０巷","ALLEY":" ","HOUSE_NO":"１０號","E_COORD97":167804.14999999999,"N_COORD97":2542381.4900000002,"ADDRESS":"西門路一段３８０巷１０號","OBJECTID":306194},"geometry":{"x":167804.15000000224,"y":2542381.4900000021}},{"attributes":{"ID":306203,"DIS_CODE":0,"TOWNNAME":"南區","LI":"大成里","LIN":"4鄰","STREET":"西門路","SECT":"一段","MAREA":" ","LANE":"３８０巷","ALLEY":" ","HOUSE_NO":"１１號","E_COORD97":167808.56,"N_COORD97":2542400.8300000001,"ADDRESS":"西門路一段３８０巷１１號","OBJECTID":306195},"geometry":{"x":167808.55999999959,"y":2542400.8300000001}},{"attributes":{"ID":306204,"DIS_CODE":0,"TOWNNAME":"南區","LI":"大成里","LIN":"4鄰","STREET":"西門路","SECT":"一段","MAREA":" ","LANE":"３８０巷","ALLEY":" ","HOUSE_NO":"１２號","E_COORD97":167808.56,"N_COORD97":2542381.4900000002,"ADDRESS":"西門路一段３８０巷１２號","OBJECTID":306196},"geometry":{"x":167808.55999999959,"y":2542381.4900000021}},{"attributes":{"ID":306205,"DIS_CODE":0,"TOWNNAME":"南區","LI":"大成里","LIN":"4鄰","STREET":"西門路","SECT":"一段","MAREA":" ","LANE":"３８０巷","ALLEY":" ","HOUSE_NO":"１３號","E_COORD97":167812.62,"N_COORD97":2542400.8300000001,"ADDRESS":"西門路一段３８０巷１３號","OBJECTID":306197},"geometry":{"x":167812.62000000197,"y":2542400.8300000001}},{"attributes":{"ID":306206,"DIS_CODE":0,"TOWNNAME":"南區","LI":"大成里","LIN":"4鄰","STREET":"西門路","SECT":"一段","MAREA":" ","LANE":"３８０巷","ALLEY":" ","HOUSE_NO":"１４號","E_COORD97":167813.14999999999,"N_COORD97":2542381.4900000002,"ADDRESS":"西門路一段３８０巷１４號","OBJECTID":306198},"geometry":{"x":167813.1500000013,"y":2542381.4900000021}},{"attributes":{"ID":306207,"DIS_CODE":0,"TOWNNAME":"南區","LI":"大成里","LIN":"4鄰","STREET":"西門路","SECT":"一段","MAREA":" ","LANE":"３８０巷","ALLEY":" ","HOUSE_NO":"１５號","E_COORD97":167817.54999999999,"N_COORD97":2542401.0099999998,"ADDRESS":"西門路一段３８０巷１５號","OBJECTID":306199},"geometry":{"x":167817.54999999981,"y":2542401.0100000016}},{"attributes":{"ID":306208,"DIS_CODE":0,"TOWNNAME":"南區","LI":"大成里","LIN":"4鄰","STREET":"西門路","SECT":"一段","MAREA":" ","LANE":"３８０巷","ALLEY":" ","HOUSE_NO":"１６號","E_COORD97":167817.91,"N_COORD97":2542381.4900000002,"ADDRESS":"西門路一段３８０巷１６號","OBJECTID":306200},"geometry":{"x":167817.91000000108,"y":2542381.4900000021}}]}