{"displayFieldName":"TOWNNAME","fieldAliases":{"ID":"ID","DIS_CODE":"DIS_CODE","TOWNNAME":"TOWNNAME","LI":"LI","LIN":"LIN","STREET":"STREET","SECT":"SECT","MAREA":"MAREA","LANE":"LANE","ALLEY":"ALLEY","HOUSE_NO":"HOUSE_NO","E_COORD97":"E_COORD97","N_COORD97":"N_COORD97","ADDRESS":"ADDRESS","OBJECTID":"OBJECTID"},"geometryType":"esriGeometryPoint","spatialReference":{"wkid":102443,"latestWkid":3826},"fields":[{"name":"ID","type":"esriFieldTypeDouble","alias":"ID"},{"name":"DIS_CODE","type":"esriFieldTypeInteger","alias":"DIS_CODE"},{"name":"TOWNNAME","type":"esriFieldTypeString","alias":"TOWNNAME","length":8},{"name":"LI","type":"esriFieldTypeString","alias":"LI","length":8},{"name":"LIN","type":"esriFieldTypeString","alias":"LIN","length":12},{"name":"STREET","type":"esriFieldTypeString","alias":"STREET","length":20},{"name":"SECT","type":"esriFieldTypeString","alias":"SECT","length":8},{"name":"MAREA","type":"esriFieldTypeString","alias":"MAREA","length":12},{"name":"LANE","type":"esriFieldTypeString","alias":"LANE","length":10},{"name":"ALLEY","type":"esriFieldTypeString","alias":"ALLEY","length":10},{"name":"HOUSE_NO","type":"esriFieldTypeString","alias":"HOUSE_NO","length":20},{"name":"E_COORD97","type":"esriFieldTypeDouble","alias":"E_COORD97"},{"name":"N_COORD97","type":"esriFieldTypeDouble","alias":"N_COORD97"},{"name":"ADDRESS","type":"esriFieldTypeString","alias":"ADDRESS","length":50},{"name":"OBJECTID","type":"esriFieldTypeOID","alias":"OBJECTID"}],"features":[{"attributes":{"ID":11401,"DIS_CODE":0,"TOWNNAME":"七股區","LI":"?榔里","LIN":"7鄰","STREET":" ","SECT":" ","MAREA":"?榔","LANE":" ","ALLEY":" ","HOUSE_NO":"６３號之１","E_COORD97":162269.73999999999,"N_COORD97":2555212.6699999999,"ADDRESS":"?榔６３號之１","OBJECTID":11401},"geometry":{"x":162269.74000000022,"y":2555212.6700000018}},{"attributes":{"ID":11402,"DIS_CODE":0,"TOWNNAME":"七股區","LI":"?榔里","LIN":"7鄰","STREET":" ","SECT":" ","MAREA":"?榔","LANE":" ","ALLEY":" ","HOUSE_NO":"６４號之１０","E_COORD97":162221.23000000001,"N_COORD97":2555189.8999999999,"ADDRESS":"?榔６４號之１０","OBJECTID":11402},"geometry":{"x":162221.23000000045,"y":2555189.9000000041}},{"attributes":{"ID":11403,"DIS_CODE":0,"TOWNNAME":"安南區","LI":"溪北里","LIN":"13鄰","STREET":"府安路","SECT":"四段","MAREA":" ","LANE":"９１巷","ALLEY":"２２弄","HOUSE_NO":"３１號","E_COORD97":169200.16,"N_COORD97":2547399.9399999999,"ADDRESS":"府安路四段９１巷２２弄３１號","OBJECTID":11403},"geometry":{"x":169200.16000000015,"y":2547399.9399999995}},{"attributes":{"ID":11404,"DIS_CODE":0,"TOWNNAME":"安南區","LI":"溪北里","LIN":"13鄰","STREET":"府安路","SECT":"四段","MAREA":" ","LANE":"９１巷","ALLEY":"２２弄","HOUSE_NO":"３３號","E_COORD97":169203.63,"N_COORD97":2547400.1800000002,"ADDRESS":"府安路四段９１巷２２弄３３號","OBJECTID":11404},"geometry":{"x":169203.62999999989,"y":2547400.1800000016}},{"attributes":{"ID":11405,"DIS_CODE":0,"TOWNNAME":"安南區","LI":"溪北里","LIN":"13鄰","STREET":"府安路","SECT":"四段","MAREA":" ","LANE":"９１巷","ALLEY":"２２弄","HOUSE_NO":"３５號","E_COORD97":169208.48000000001,"N_COORD97":2547400.4300000002,"ADDRESS":"府安路四段９１巷２２弄３５號","OBJECTID":11405},"geometry":{"x":169208.48000000045,"y":2547400.4299999997}},{"attributes":{"ID":11406,"DIS_CODE":0,"TOWNNAME":"七股區","LI":"?榔里","LIN":"7鄰","STREET":" ","SECT":" ","MAREA":"?榔","LANE":" ","ALLEY":" ","HOUSE_NO":"６４號之３","E_COORD97":162260.70999999999,"N_COORD97":2555205.3999999999,"ADDRESS":"?榔６４號之３","OBJECTID":11406},"geometry":{"x":162260.71000000089,"y":2555205.4000000004}},{"attributes":{"ID":11407,"DIS_CODE":0,"TOWNNAME":"安南區","LI":"溪北里","LIN":"13鄰","STREET":"府安路","SECT":"四段","MAREA":" ","LANE":"９１巷","ALLEY":"２２弄","HOUSE_NO":"３９號","E_COORD97":169216.88,"N_COORD97":2547401.4700000002,"ADDRESS":"府安路四段９１巷２２弄３９號","OBJECTID":11407},"geometry":{"x":169216.87999999989,"y":2547401.4700000007}},{"attributes":{"ID":11408,"DIS_CODE":0,"TOWNNAME":"安南區","LI":"溪北里","LIN":"13鄰","STREET":"府安路","SECT":"四段","MAREA":" ","LANE":"９１巷","ALLEY":"２２弄","HOUSE_NO":"４３號","E_COORD97":169225.41,"N_COORD97":2547401.4500000002,"ADDRESS":"府安路四段９１巷２２弄４３號","OBJECTID":11408},"geometry":{"x":169225.41000000015,"y":2547401.4500000011}},{"attributes":{"ID":11409,"DIS_CODE":0,"TOWNNAME":"安平區","LI":"港仔里","LIN":"14鄰","STREET":"運河路","SECT":" ","MAREA":" ","LANE":"２３巷","ALLEY":"１弄","HOUSE_NO":"４號","E_COORD97":164065.69,"N_COORD97":2544432,"ADDRESS":"運河路２３巷１弄４號","OBJECTID":11409},"geometry":{"x":164065.69000000041,"y":2544432.0000000019}},{"attributes":{"ID":11410,"DIS_CODE":0,"TOWNNAME":"安南區","LI":"溪北里","LIN":"13鄰","STREET":"府安路","SECT":"四段","MAREA":" ","LANE":"９１巷","ALLEY":"２２弄","HOUSE_NO":"４５號","E_COORD97":169230.94,"N_COORD97":2547402.0699999998,"ADDRESS":"府安路四段９１巷２２弄４５號","OBJECTID":11410},"geometry":{"x":169230.94000000041,"y":2547402.0700000022}},{"attributes":{"ID":11411,"DIS_CODE":0,"TOWNNAME":"安南區","LI":"溪北里","LIN":"13鄰","STREET":"府安路","SECT":"四段","MAREA":" ","LANE":"９１巷","ALLEY":"２２弄","HOUSE_NO":"４７號","E_COORD97":169234.10000000001,"N_COORD97":2547403.1299999999,"ADDRESS":"府安路四段９１巷２２弄４７號","OBJECTID":11411},"geometry":{"x":169234.09999999963,"y":2547403.1300000008}},{"attributes":{"ID":11412,"DIS_CODE":0,"TOWNNAME":"安南區","LI":"溪北里","LIN":"13鄰","STREET":"府安路","SECT":"四段","MAREA":" ","LANE":"９１巷","ALLEY":"２２弄","HOUSE_NO":"４９號","E_COORD97":169237.64000000001,"N_COORD97":2547403.9700000002,"ADDRESS":"府安路四段９１巷２２弄４９號","OBJECTID":11412},"geometry":{"x":169237.64000000153,"y":2547403.9700000007}},{"attributes":{"ID":11413,"DIS_CODE":0,"TOWNNAME":"安南區","LI":"溪北里","LIN":"13鄰","STREET":"府安路","SECT":"四段","MAREA":" ","LANE":"９１巷","ALLEY":"２２弄","HOUSE_NO":"５１號","E_COORD97":169241.60999999999,"N_COORD97":2547404.5600000001,"ADDRESS":"府安路四段９１巷２２弄５１號","OBJECTID":11413},"geometry":{"x":169241.61000000034,"y":2547404.5600000042}},{"attributes":{"ID":11414,"DIS_CODE":0,"TOWNNAME":"安南區","LI":"溪北里","LIN":"13鄰","STREET":"府安路","SECT":"四段","MAREA":" ","LANE":"９１巷","ALLEY":"２２弄","HOUSE_NO":"５３號","E_COORD97":169245.75,"N_COORD97":2547406.4199999999,"ADDRESS":"府安路四段９１巷２２弄５３號","OBJECTID":11414},"geometry":{"x":169245.75000000186,"y":2547406.4200000018}},{"attributes":{"ID":11415,"DIS_CODE":0,"TOWNNAME":"安南區","LI":"溪北里","LIN":"13鄰","STREET":"府安路","SECT":"四段","MAREA":" ","LANE":"９１巷","ALLEY":"２２弄","HOUSE_NO":"５５號","E_COORD97":169248.87,"N_COORD97":2547407.7599999998,"ADDRESS":"府安路四段９１巷２２弄５５號","OBJECTID":11415},"geometry":{"x":169248.87000000104,"y":2547407.7599999998}},{"attributes":{"ID":11416,"DIS_CODE":0,"TOWNNAME":"安南區","LI":"溪北里","LIN":"13鄰","STREET":"府安路","SECT":"四段","MAREA":" ","LANE":"９１巷","ALLEY":"２２弄","HOUSE_NO":"５７號","E_COORD97":169253.09,"N_COORD97":2547408.9399999999,"ADDRESS":"府安路四段９１巷２２弄５７號","OBJECTID":11416},"geometry":{"x":169253.08999999985,"y":2547408.9400000013}},{"attributes":{"ID":11417,"DIS_CODE":0,"TOWNNAME":"安南區","LI":"溪北里","LIN":"13鄰","STREET":"府安路","SECT":"四段","MAREA":" ","LANE":"９１巷","ALLEY":"２２弄","HOUSE_NO":"５９號","E_COORD97":169257.39000000001,"N_COORD97":2547410.1200000001,"ADDRESS":"府安路四段９１巷２２弄５９號","OBJECTID":11417},"geometry":{"x":169257.38999999966,"y":2547410.120000001}},{"attributes":{"ID":11418,"DIS_CODE":0,"TOWNNAME":"安南區","LI":"溪北里","LIN":"13鄰","STREET":"府安路","SECT":"四段","MAREA":" ","LANE":"９１巷","ALLEY":"２２弄","HOUSE_NO":"６１號","E_COORD97":169260.94,"N_COORD97":2547411.2999999998,"ADDRESS":"府安路四段９１巷２２弄６１號","OBJECTID":11418},"geometry":{"x":169260.94000000041,"y":2547411.3000000026}},{"attributes":{"ID":11419,"DIS_CODE":0,"TOWNNAME":"安南區","LI":"溪北里","LIN":"13鄰","STREET":"府安路","SECT":"四段","MAREA":" ","LANE":"９１巷","ALLEY":"２２弄","HOUSE_NO":"６３號","E_COORD97":169264.23000000001,"N_COORD97":2547411.8900000001,"ADDRESS":"府安路四段９１巷２２弄６３號","OBJECTID":11419},"geometry":{"x":169264.23000000045,"y":2547411.8900000006}},{"attributes":{"ID":11420,"DIS_CODE":0,"TOWNNAME":"安南區","LI":"溪北里","LIN":"13鄰","STREET":"府安路","SECT":"四段","MAREA":" ","LANE":"９１巷","ALLEY":"２２弄","HOUSE_NO":"６５號","E_COORD97":169268.39000000001,"N_COORD97":2547413.9399999999,"ADDRESS":"府安路四段９１巷２２弄６５號","OBJECTID":11420},"geometry":{"x":169268.3900000006,"y":2547413.9399999995}},{"attributes":{"ID":11421,"DIS_CODE":0,"TOWNNAME":"安南區","LI":"溪北里","LIN":"13鄰","STREET":"府安路","SECT":"四段","MAREA":" ","LANE":"９１巷","ALLEY":"２２弄","HOUSE_NO":"６７號","E_COORD97":169272.35000000001,"N_COORD97":2547415.2000000002,"ADDRESS":"府安路四段９１巷２２弄６７號","OBJECTID":11421},"geometry":{"x":169272.35000000056,"y":2547415.1999999993}},{"attributes":{"ID":11422,"DIS_CODE":0,"TOWNNAME":"安南區","LI":"溪北里","LIN":"13鄰","STREET":"府安路","SECT":"四段","MAREA":" ","LANE":"９１巷","ALLEY":"２２弄","HOUSE_NO":"６９號","E_COORD97":169276.91,"N_COORD97":2547416.21,"ADDRESS":"府安路四段９１巷２２弄６９號","OBJECTID":11422},"geometry":{"x":169276.91000000201,"y":2547416.2100000009}},{"attributes":{"ID":11423,"DIS_CODE":0,"TOWNNAME":"安南區","LI":"溪北里","LIN":"13鄰","STREET":"府安路","SECT":"四段","MAREA":" ","LANE":"９１巷","ALLEY":"２２弄","HOUSE_NO":"７１號","E_COORD97":169285.04999999999,"N_COORD97":2547419.6899999999,"ADDRESS":"府安路四段９１巷２２弄７１號","OBJECTID":11423},"geometry":{"x":169285.04999999981,"y":2547419.6900000032}},{"attributes":{"ID":11424,"DIS_CODE":0,"TOWNNAME":"安南區","LI":"溪北里","LIN":"13鄰","STREET":"府安路","SECT":"四段","MAREA":" ","LANE":"９１巷","ALLEY":"２２弄","HOUSE_NO":"７５號","E_COORD97":169295.94,"N_COORD97":2547424.4900000002,"ADDRESS":"府安路四段９１巷２２弄７５號","OBJECTID":11424},"geometry":{"x":169295.94000000134,"y":2547424.4900000002}},{"attributes":{"ID":11425,"DIS_CODE":0,"TOWNNAME":"安南區","LI":"溪北里","LIN":"13鄰","STREET":"府安路","SECT":"四段","MAREA":" ","LANE":"９１巷","ALLEY":"２２弄","HOUSE_NO":"７７號","E_COORD97":169302.07000000001,"N_COORD97":2547426.98,"ADDRESS":"府安路四段９１巷２２弄７７號","OBJECTID":11425},"geometry":{"x":169302.07000000123,"y":2547426.9800000023}},{"attributes":{"ID":11426,"DIS_CODE":0,"TOWNNAME":"安南區","LI":"溪北里","LIN":"13鄰","STREET":"府安路","SECT":"四段","MAREA":" ","LANE":"９１巷","ALLEY":"２２弄","HOUSE_NO":"７９號","E_COORD97":169309.59,"N_COORD97":2547430.1800000002,"ADDRESS":"府安路四段９１巷２２弄７９號","OBJECTID":11426},"geometry":{"x":169309.59000000078,"y":2547430.1800000034}},{"attributes":{"ID":11427,"DIS_CODE":0,"TOWNNAME":"安南區","LI":"溪北里","LIN":"13鄰","STREET":"府安路","SECT":"四段","MAREA":" ","LANE":"９１巷","ALLEY":"２２弄","HOUSE_NO":"８３號","E_COORD97":169320.57000000001,"N_COORD97":2547434.21,"ADDRESS":"府安路四段９１巷２２弄８３號","OBJECTID":11427},"geometry":{"x":169320.57000000123,"y":2547434.2100000009}},{"attributes":{"ID":11428,"DIS_CODE":0,"TOWNNAME":"歸仁區","LI":"七甲里","LIN":"13鄰","STREET":"南潭一街","SECT":" ","MAREA":" ","LANE":" ","ALLEY":" ","HOUSE_NO":"９９號","E_COORD97":175711.48999999999,"N_COORD97":2542991.25,"ADDRESS":"南潭一街９９號","OBJECTID":11428},"geometry":{"x":175711.49000000209,"y":2542991.25}},{"attributes":{"ID":11429,"DIS_CODE":0,"TOWNNAME":"歸仁區","LI":"大廟里","LIN":"13鄰","STREET":"大廟六街","SECT":" ","MAREA":" ","LANE":" ","ALLEY":" ","HOUSE_NO":"９２號","E_COORD97":176146.37,"N_COORD97":2544241.25,"ADDRESS":"大廟六街９２號","OBJECTID":11429},"geometry":{"x":176146.37000000104,"y":2544241.25}},{"attributes":{"ID":11430,"DIS_CODE":0,"TOWNNAME":"歸仁區","LI":"大廟里","LIN":"13鄰","STREET":"大廟六街","SECT":" ","MAREA":" ","LANE":" ","ALLEY":" ","HOUSE_NO":"１０６號","E_COORD97":176171.22,"N_COORD97":2544261.25,"ADDRESS":"大廟六街１０６號","OBJECTID":11430},"geometry":{"x":176171.22000000067,"y":2544261.2500000019}},{"attributes":{"ID":11431,"DIS_CODE":0,"TOWNNAME":"歸仁區","LI":"武東里","LIN":"13鄰","STREET":" ","SECT":" ","MAREA":"明德新村","LANE":" ","ALLEY":" ","HOUSE_NO":"２０２號","E_COORD97":175065.44,"N_COORD97":2536117.27,"ADDRESS":"明德新村２０２號","OBJECTID":11431},"geometry":{"x":175065.44000000041,"y":2536117.2700000014}},{"attributes":{"ID":11432,"DIS_CODE":0,"TOWNNAME":"東山區","LI":"三榮里","LIN":"13鄰","STREET":" ","SECT":" ","MAREA":"下寮子","LANE":" ","ALLEY":" ","HOUSE_NO":"９號之２","E_COORD97":187387.94,"N_COORD97":2581207.6099999999,"ADDRESS":"下寮子９號之２","OBJECTID":11432},"geometry":{"x":187387.94000000041,"y":2581207.6099999994}},{"attributes":{"ID":11433,"DIS_CODE":0,"TOWNNAME":"東山區","LI":"三榮里","LIN":"13鄰","STREET":" ","SECT":" ","MAREA":"下寮子","LANE":" ","ALLEY":" ","HOUSE_NO":"９號","E_COORD97":187378.34,"N_COORD97":2581186.5899999999,"ADDRESS":"下寮子９號","OBJECTID":11433},"geometry":{"x":187378.34000000171,"y":2581186.5900000017}},{"attributes":{"ID":11434,"DIS_CODE":0,"TOWNNAME":"七股區","LI":"?榔里","LIN":"7鄰","STREET":" ","SECT":" ","MAREA":"?榔","LANE":" ","ALLEY":" ","HOUSE_NO":"６４號之１１","E_COORD97":162216.84,"N_COORD97":2555189.02,"ADDRESS":"?榔６４號之１１","OBJECTID":11434},"geometry":{"x":162216.84000000078,"y":2555189.0200000014}},{"attributes":{"ID":11435,"DIS_CODE":0,"TOWNNAME":"七股區","LI":"?榔里","LIN":"7鄰","STREET":" ","SECT":" ","MAREA":"?榔","LANE":" ","ALLEY":" ","HOUSE_NO":"６４號之１２","E_COORD97":162212.45000000001,"N_COORD97":2555188.1400000001,"ADDRESS":"?榔６４號之１２","OBJECTID":11435},"geometry":{"x":162212.45000000019,"y":2555188.1400000006}},{"attributes":{"ID":11436,"DIS_CODE":0,"TOWNNAME":"七股區","LI":"?榔里","LIN":"7鄰","STREET":" ","SECT":" ","MAREA":"?榔","LANE":" ","ALLEY":" ","HOUSE_NO":"６４號之１","E_COORD97":162222.98999999999,"N_COORD97":2555214.48,"ADDRESS":"?榔６４號之１","OBJECTID":11436},"geometry":{"x":162222.99000000115,"y":2555214.4800000023}},{"attributes":{"ID":11437,"DIS_CODE":0,"TOWNNAME":"七股區","LI":"?榔里","LIN":"7鄰","STREET":" ","SECT":" ","MAREA":"?榔","LANE":" ","ALLEY":" ","HOUSE_NO":"６４號之２","E_COORD97":162253.97,"N_COORD97":2555209.23,"ADDRESS":"?榔６４號之２","OBJECTID":11437},"geometry":{"x":162253.96999999974,"y":2555209.2300000023}},{"attributes":{"ID":11438,"DIS_CODE":0,"TOWNNAME":"七股區","LI":"?榔里","LIN":"7鄰","STREET":" ","SECT":" ","MAREA":"?榔","LANE":" ","ALLEY":" ","HOUSE_NO":"６４號之４","E_COORD97":162264.84,"N_COORD97":2555199.6299999999,"ADDRESS":"?榔６４號之４","OBJECTID":11438},"geometry":{"x":162264.84000000078,"y":2555199.629999999}},{"attributes":{"ID":11439,"DIS_CODE":0,"TOWNNAME":"七股區","LI":"?榔里","LIN":"7鄰","STREET":" ","SECT":" ","MAREA":"?榔","LANE":" ","ALLEY":" ","HOUSE_NO":"６４號之５","E_COORD97":162241.17999999999,"N_COORD97":2555194.3199999998,"ADDRESS":"?榔６４號之５","OBJECTID":11439},"geometry":{"x":162241.17999999877,"y":2555194.3200000022}},{"attributes":{"ID":11440,"DIS_CODE":0,"TOWNNAME":"安南區","LI":"溪北里","LIN":"13鄰","STREET":"府安路","SECT":"四段","MAREA":" ","LANE":"９１巷","ALLEY":"２２弄","HOUSE_NO":"８５號","E_COORD97":169327.10999999999,"N_COORD97":2547436.2999999998,"ADDRESS":"府安路四段９１巷２２弄８５號","OBJECTID":11440},"geometry":{"x":169327.11000000127,"y":2547436.3000000007}},{"attributes":{"ID":11441,"DIS_CODE":0,"TOWNNAME":"安南區","LI":"溪北里","LIN":"13鄰","STREET":"府安路","SECT":"四段","MAREA":" ","LANE":"９１巷","ALLEY":"２２弄","HOUSE_NO":"４１號","E_COORD97":169219.62,"N_COORD97":2547401.7999999998,"ADDRESS":"府安路四段９１巷２２弄４１號","OBJECTID":11441},"geometry":{"x":169219.62000000197,"y":2547401.8000000007}},{"attributes":{"ID":11442,"DIS_CODE":0,"TOWNNAME":"仁德區","LI":"土庫里","LIN":"13鄰","STREET":"土庫路","SECT":" ","MAREA":" ","LANE":"２１１巷","ALLEY":"１６弄","HOUSE_NO":"１號","E_COORD97":174341.57999999999,"N_COORD97":2542877.7400000002,"ADDRESS":"土庫路２１１巷１６弄１號","OBJECTID":11442},"geometry":{"x":174341.58000000101,"y":2542877.7400000021}},{"attributes":{"ID":11443,"DIS_CODE":0,"TOWNNAME":"仁德區","LI":"土庫里","LIN":"13鄰","STREET":"土庫路","SECT":" ","MAREA":" ","LANE":"２１１巷","ALLEY":"１６弄","HOUSE_NO":"６號","E_COORD97":174302.59,"N_COORD97":2542851.52,"ADDRESS":"土庫路２１１巷１６弄６號","OBJECTID":11443},"geometry":{"x":174302.58999999985,"y":2542851.5200000014}},{"attributes":{"ID":11444,"DIS_CODE":0,"TOWNNAME":"仁德區","LI":"上崙里","LIN":"13鄰","STREET":"德崙路","SECT":" ","MAREA":" ","LANE":"４５０巷","ALLEY":"４５弄","HOUSE_NO":"１６號","E_COORD97":174227.35999999999,"N_COORD97":2537953.02,"ADDRESS":"德崙路４５０巷４５弄１６號","OBJECTID":11444},"geometry":{"x":174227.3599999994,"y":2537953.0200000014}},{"attributes":{"ID":11445,"DIS_CODE":0,"TOWNNAME":"仁德區","LI":"土庫里","LIN":"13鄰","STREET":"土庫路","SECT":" ","MAREA":" ","LANE":"２１１巷","ALLEY":"１６弄","HOUSE_NO":"１１號","E_COORD97":174329.32000000001,"N_COORD97":2542860.7400000002,"ADDRESS":"土庫路２１１巷１６弄１１號","OBJECTID":11445},"geometry":{"x":174329.32000000216,"y":2542860.7400000021}},{"attributes":{"ID":11446,"DIS_CODE":0,"TOWNNAME":"仁德區","LI":"上崙里","LIN":"13鄰","STREET":"德崙路","SECT":" ","MAREA":" ","LANE":"４５０巷","ALLEY":"４５弄","HOUSE_NO":"７號","E_COORD97":174215.28,"N_COORD97":2537963.5099999998,"ADDRESS":"德崙路４５０巷４５弄７號","OBJECTID":11446},"geometry":{"x":174215.28000000026,"y":2537963.5100000016}},{"attributes":{"ID":11447,"DIS_CODE":0,"TOWNNAME":"仁德區","LI":"上崙里","LIN":"13鄰","STREET":"德崙路","SECT":" ","MAREA":" ","LANE":"４５０巷","ALLEY":"４５弄","HOUSE_NO":"８號","E_COORD97":174210.53,"N_COORD97":2537951.02,"ADDRESS":"德崙路４５０巷４５弄８號","OBJECTID":11447},"geometry":{"x":174210.53000000026,"y":2537951.0199999996}},{"attributes":{"ID":11448,"DIS_CODE":0,"TOWNNAME":"仁德區","LI":"上崙里","LIN":"13鄰","STREET":"德崙路","SECT":" ","MAREA":" ","LANE":"４５０巷","ALLEY":"４５弄","HOUSE_NO":"１０號","E_COORD97":174215.63,"N_COORD97":2537951.77,"ADDRESS":"德崙路４５０巷４５弄１０號","OBJECTID":11448},"geometry":{"x":174215.63000000082,"y":2537951.7699999996}},{"attributes":{"ID":11449,"DIS_CODE":0,"TOWNNAME":"七股區","LI":"?榔里","LIN":"7鄰","STREET":" ","SECT":" ","MAREA":"?榔","LANE":" ","ALLEY":" ","HOUSE_NO":"６４號之６","E_COORD97":162237.04999999999,"N_COORD97":2555193.3700000001,"ADDRESS":"?榔６４號之６","OBJECTID":11449},"geometry":{"x":162237.04999999981,"y":2555193.370000001}},{"attributes":{"ID":11450,"DIS_CODE":0,"TOWNNAME":"七股區","LI":"?榔里","LIN":"7鄰","STREET":" ","SECT":" ","MAREA":"?榔","LANE":" ","ALLEY":" ","HOUSE_NO":"６４號之７","E_COORD97":162232.92000000001,"N_COORD97":2555192.4300000002,"ADDRESS":"?榔６４號之７","OBJECTID":11450},"geometry":{"x":162232.91999999993,"y":2555192.4300000034}},{"attributes":{"ID":11451,"DIS_CODE":0,"TOWNNAME":"七股區","LI":"?榔里","LIN":"7鄰","STREET":" ","SECT":" ","MAREA":"?榔","LANE":" ","ALLEY":" ","HOUSE_NO":"６４號之８","E_COORD97":162228.79000000001,"N_COORD97":2555191.48,"ADDRESS":"?榔６４號之８","OBJECTID":11451},"geometry":{"x":162228.79000000004,"y":2555191.4800000004}},{"attributes":{"ID":11452,"DIS_CODE":0,"TOWNNAME":"七股區","LI":"?榔里","LIN":"7鄰","STREET":" ","SECT":" ","MAREA":"?榔","LANE":" ","ALLEY":" ","HOUSE_NO":"６５號之１０","E_COORD97":162223.19,"N_COORD97":2555236.8599999999,"ADDRESS":"?榔６５號之１０","OBJECTID":11452},"geometry":{"x":162223.19000000041,"y":2555236.8600000013}},{"attributes":{"ID":11453,"DIS_CODE":0,"TOWNNAME":"七股區","LI":"?榔里","LIN":"7鄰","STREET":" ","SECT":" ","MAREA":"?榔","LANE":" ","ALLEY":" ","HOUSE_NO":"６５號之１１","E_COORD97":162221.45000000001,"N_COORD97":2555233.29,"ADDRESS":"?榔６５號之１１","OBJECTID":11453},"geometry":{"x":162221.45000000205,"y":2555233.2900000028}},{"attributes":{"ID":11454,"DIS_CODE":0,"TOWNNAME":"七股區","LI":"?榔里","LIN":"7鄰","STREET":" ","SECT":" ","MAREA":"?榔","LANE":" ","ALLEY":" ","HOUSE_NO":"６５號之１２","E_COORD97":162219.45000000001,"N_COORD97":2555227.98,"ADDRESS":"?榔６５號之１２","OBJECTID":11454},"geometry":{"x":162219.45000000019,"y":2555227.9800000023}},{"attributes":{"ID":11455,"DIS_CODE":0,"TOWNNAME":"七股區","LI":"?榔里","LIN":"7鄰","STREET":" ","SECT":" ","MAREA":"?榔","LANE":" ","ALLEY":" ","HOUSE_NO":"６５號之１","E_COORD97":162237.54000000001,"N_COORD97":2555275.6200000001,"ADDRESS":"?榔６５號之１","OBJECTID":11455},"geometry":{"x":162237.5400000019,"y":2555275.620000001}},{"attributes":{"ID":11456,"DIS_CODE":0,"TOWNNAME":"七股區","LI":"?榔里","LIN":"7鄰","STREET":" ","SECT":" ","MAREA":"?榔","LANE":" ","ALLEY":" ","HOUSE_NO":"６５號之２","E_COORD97":162235.45000000001,"N_COORD97":2555270.7599999998,"ADDRESS":"?榔６５號之２","OBJECTID":11456},"geometry":{"x":162235.45000000112,"y":2555270.7599999998}},{"attributes":{"ID":11457,"DIS_CODE":0,"TOWNNAME":"七股區","LI":"?榔里","LIN":"7鄰","STREET":" ","SECT":" ","MAREA":"?榔","LANE":" ","ALLEY":" ","HOUSE_NO":"６５號之３","E_COORD97":162234.35999999999,"N_COORD97":2555266.21,"ADDRESS":"?榔６５號之３","OBJECTID":11457},"geometry":{"x":162234.36000000127,"y":2555266.2100000046}},{"attributes":{"ID":11458,"DIS_CODE":0,"TOWNNAME":"七股區","LI":"?榔里","LIN":"7鄰","STREET":" ","SECT":" ","MAREA":"?榔","LANE":" ","ALLEY":" ","HOUSE_NO":"６５號之４","E_COORD97":162232.42999999999,"N_COORD97":2555261.7000000002,"ADDRESS":"?榔６５號之４","OBJECTID":11458},"geometry":{"x":162232.4299999997,"y":2555261.7000000011}},{"attributes":{"ID":11459,"DIS_CODE":0,"TOWNNAME":"歸仁區","LI":"七甲里","LIN":"13鄰","STREET":"南丁路","SECT":" ","MAREA":" ","LANE":" ","ALLEY":" ","HOUSE_NO":"５２６號","E_COORD97":176054.98999999999,"N_COORD97":2542986.25,"ADDRESS":"南丁路５２６號","OBJECTID":11459},"geometry":{"x":176054.99000000022,"y":2542986.2500000019}},{"attributes":{"ID":11460,"DIS_CODE":0,"TOWNNAME":"歸仁區","LI":"八甲里","LIN":"13鄰","STREET":"大明二街","SECT":" ","MAREA":" ","LANE":" ","ALLEY":" ","HOUSE_NO":"２１號","E_COORD97":178007.62,"N_COORD97":2541922.6099999999,"ADDRESS":"大明二街２１號","OBJECTID":11460},"geometry":{"x":178007.62000000104,"y":2541922.6099999994}},{"attributes":{"ID":11461,"DIS_CODE":0,"TOWNNAME":"歸仁區","LI":"六甲里","LIN":"13鄰","STREET":"中正二十街","SECT":" ","MAREA":" ","LANE":" ","ALLEY":" ","HOUSE_NO":"６１號","E_COORD97":175839.10999999999,"N_COORD97":2539093.25,"ADDRESS":"中正二十街６１號","OBJECTID":11461},"geometry":{"x":175839.11000000034,"y":2539093.2500000019}},{"attributes":{"ID":11462,"DIS_CODE":0,"TOWNNAME":"仁德區","LI":"上崙里","LIN":"13鄰","STREET":"德崙路","SECT":" ","MAREA":" ","LANE":"３７０巷","ALLEY":"２１弄","HOUSE_NO":"５９號","E_COORD97":174211.79000000001,"N_COORD97":2538054.1899999999,"ADDRESS":"德崙路３７０巷２１弄５９號","OBJECTID":11462},"geometry":{"x":174211.79000000004,"y":2538054.1899999995}},{"attributes":{"ID":11463,"DIS_CODE":0,"TOWNNAME":"仁德區","LI":"太子里","LIN":"13鄰","STREET":"長興二街","SECT":" ","MAREA":" ","LANE":"７０巷","ALLEY":"６弄","HOUSE_NO":"７號","E_COORD97":174291.16,"N_COORD97":2543734.6699999999,"ADDRESS":"長興二街７０巷６弄７號","OBJECTID":11463},"geometry":{"x":174291.16000000015,"y":2543734.6699999981}},{"attributes":{"ID":11464,"DIS_CODE":0,"TOWNNAME":"仁德區","LI":"太子里","LIN":"13鄰","STREET":"長興二街","SECT":" ","MAREA":" ","LANE":"７０巷","ALLEY":"６弄","HOUSE_NO":"１１號","E_COORD97":174283.73999999999,"N_COORD97":2543737.6699999999,"ADDRESS":"長興二街７０巷６弄１１號","OBJECTID":11464},"geometry":{"x":174283.74000000022,"y":2543737.6699999999}},{"attributes":{"ID":11465,"DIS_CODE":0,"TOWNNAME":"仁德區","LI":"太子里","LIN":"13鄰","STREET":"長興二街","SECT":" ","MAREA":" ","LANE":"７０巷","ALLEY":"６弄","HOUSE_NO":"９號","E_COORD97":174287.10999999999,"N_COORD97":2543735.1699999999,"ADDRESS":"長興二街７０巷６弄９號","OBJECTID":11465},"geometry":{"x":174287.11000000127,"y":2543735.1700000018}},{"attributes":{"ID":11466,"DIS_CODE":0,"TOWNNAME":"南區","LI":"新生里","LIN":"5鄰","STREET":"大同路","SECT":"二段","MAREA":" ","LANE":"１６４巷","ALLEY":"５弄","HOUSE_NO":"７號","E_COORD97":169309.37,"N_COORD97":2541958.5299999998,"ADDRESS":"大同路二段１６４巷５弄７號","OBJECTID":11466},"geometry":{"x":169309.37000000197,"y":2541958.5300000031}},{"attributes":{"ID":11467,"DIS_CODE":0,"TOWNNAME":"南區","LI":"新生里","LIN":"5鄰","STREET":"大同路","SECT":"二段","MAREA":" ","LANE":"１６４巷","ALLEY":"５弄","HOUSE_NO":"９號","E_COORD97":169311.06,"N_COORD97":2541952.8500000001,"ADDRESS":"大同路二段１６４巷５弄９號","OBJECTID":11467},"geometry":{"x":169311.06000000145,"y":2541952.8499999996}},{"attributes":{"ID":11468,"DIS_CODE":0,"TOWNNAME":"南區","LI":"新生里","LIN":"5鄰","STREET":"大同路","SECT":"二段","MAREA":" ","LANE":"１６４巷","ALLEY":"５弄","HOUSE_NO":"１１號","E_COORD97":169312.47,"N_COORD97":2541947.21,"ADDRESS":"大同路二段１６４巷５弄１１號","OBJECTID":11468},"geometry":{"x":169312.47000000067,"y":2541947.2100000009}},{"attributes":{"ID":11469,"DIS_CODE":0,"TOWNNAME":"安南區","LI":"安慶里","LIN":"13鄰","STREET":"怡安路","SECT":"一段","MAREA":" ","LANE":"１３巷","ALLEY":"１０弄","HOUSE_NO":"２號","E_COORD97":169489.32000000001,"N_COORD97":2548909.8500000001,"ADDRESS":"怡安路一段１３巷１０弄２號","OBJECTID":11469},"geometry":{"x":169489.3200000003,"y":2548909.8499999996}},{"attributes":{"ID":11470,"DIS_CODE":0,"TOWNNAME":"安南區","LI":"安慶里","LIN":"13鄰","STREET":"怡安路","SECT":"一段","MAREA":" ","LANE":"１３巷","ALLEY":"１０弄","HOUSE_NO":"６號","E_COORD97":169479,"N_COORD97":2548913.23,"ADDRESS":"怡安路一段１３巷１０弄６號","OBJECTID":11470},"geometry":{"x":169479,"y":2548913.2300000023}},{"attributes":{"ID":11471,"DIS_CODE":0,"TOWNNAME":"安南區","LI":"安慶里","LIN":"13鄰","STREET":"怡安路","SECT":"一段","MAREA":" ","LANE":"１３巷","ALLEY":"１０弄","HOUSE_NO":"８號","E_COORD97":169474.17999999999,"N_COORD97":2548911.52,"ADDRESS":"怡安路一段１３巷１０弄８號","OBJECTID":11471},"geometry":{"x":169474.1799999997,"y":2548911.5199999996}},{"attributes":{"ID":11472,"DIS_CODE":0,"TOWNNAME":"安南區","LI":"安慶里","LIN":"13鄰","STREET":"怡安路","SECT":"一段","MAREA":" ","LANE":"１３巷","ALLEY":"１０弄","HOUSE_NO":"１０號","E_COORD97":169468.06,"N_COORD97":2548914.2599999998,"ADDRESS":"怡安路一段１３巷１０弄１０號","OBJECTID":11472},"geometry":{"x":169468.05999999959,"y":2548914.2599999998}},{"attributes":{"ID":11473,"DIS_CODE":0,"TOWNNAME":"安南區","LI":"安慶里","LIN":"13鄰","STREET":"怡安路","SECT":"一段","MAREA":" ","LANE":"１３巷","ALLEY":"１０弄","HOUSE_NO":"１８號","E_COORD97":169478.42999999999,"N_COORD97":2548936.7999999998,"ADDRESS":"怡安路一段１３巷１０弄１８號","OBJECTID":11473},"geometry":{"x":169478.43000000063,"y":2548936.8000000026}},{"attributes":{"ID":11474,"DIS_CODE":0,"TOWNNAME":"安南區","LI":"安慶里","LIN":"13鄰","STREET":"怡安路","SECT":"一段","MAREA":" ","LANE":"１３巷","ALLEY":"１０弄","HOUSE_NO":"２０號","E_COORD97":169459.94,"N_COORD97":2548941.4100000001,"ADDRESS":"怡安路一段１３巷１０弄２０號","OBJECTID":11474},"geometry":{"x":169459.94000000041,"y":2548941.410000002}},{"attributes":{"ID":11475,"DIS_CODE":0,"TOWNNAME":"安南區","LI":"安慶里","LIN":"13鄰","STREET":"怡安路","SECT":"一段","MAREA":" ","LANE":"１３巷","ALLEY":"１０弄","HOUSE_NO":"２２號","E_COORD97":169457.48999999999,"N_COORD97":2548935.8900000001,"ADDRESS":"怡安路一段１３巷１０弄２２號","OBJECTID":11475},"geometry":{"x":169457.49000000022,"y":2548935.8900000025}},{"attributes":{"ID":11476,"DIS_CODE":0,"TOWNNAME":"安南區","LI":"安慶里","LIN":"13鄰","STREET":"怡安路","SECT":"一段","MAREA":" ","LANE":"１３巷","ALLEY":"１０弄","HOUSE_NO":"２６號","E_COORD97":169456.32000000001,"N_COORD97":2548930.48,"ADDRESS":"怡安路一段１３巷１０弄２６號","OBJECTID":11476},"geometry":{"x":169456.32000000123,"y":2548930.4799999986}},{"attributes":{"ID":11477,"DIS_CODE":0,"TOWNNAME":"安南區","LI":"安慶里","LIN":"13鄰","STREET":"怡安路","SECT":"一段","MAREA":" ","LANE":"１３巷","ALLEY":"１０弄","HOUSE_NO":"２８號","E_COORD97":169456.78,"N_COORD97":2548915.96,"ADDRESS":"怡安路一段１３巷１０弄２８號","OBJECTID":11477},"geometry":{"x":169456.78000000119,"y":2548915.9600000028}},{"attributes":{"ID":11478,"DIS_CODE":0,"TOWNNAME":"安南區","LI":"安慶里","LIN":"13鄰","STREET":"怡安路","SECT":"一段","MAREA":" ","LANE":"１３巷","ALLEY":"１０弄","HOUSE_NO":"３０號","E_COORD97":169451.25,"N_COORD97":2548917.3700000001,"ADDRESS":"怡安路一段１３巷１０弄３０號","OBJECTID":11478},"geometry":{"x":169451.25000000093,"y":2548917.370000001}},{"attributes":{"ID":11479,"DIS_CODE":0,"TOWNNAME":"安南區","LI":"安慶里","LIN":"13鄰","STREET":"怡安路","SECT":"一段","MAREA":" ","LANE":"１３巷","ALLEY":"１０弄","HOUSE_NO":"３２號","E_COORD97":169429.45999999999,"N_COORD97":2548922.79,"ADDRESS":"怡安路一段１３巷１０弄３２號","OBJECTID":11479},"geometry":{"x":169429.46000000089,"y":2548922.7899999991}},{"attributes":{"ID":11480,"DIS_CODE":0,"TOWNNAME":"安南區","LI":"安慶里","LIN":"13鄰","STREET":"怡安路","SECT":"一段","MAREA":" ","LANE":"１３巷","ALLEY":"１０弄","HOUSE_NO":"３６號","E_COORD97":169423.32999999999,"N_COORD97":2548924.3500000001,"ADDRESS":"怡安路一段１３巷１０弄３６號","OBJECTID":11480},"geometry":{"x":169423.33000000194,"y":2548924.3500000015}},{"attributes":{"ID":11481,"DIS_CODE":0,"TOWNNAME":"安南區","LI":"安慶里","LIN":"13鄰","STREET":"怡安路","SECT":"一段","MAREA":" ","LANE":"１３巷","ALLEY":"１０弄","HOUSE_NO":"３８號","E_COORD97":169413.60000000001,"N_COORD97":2548927.4700000002,"ADDRESS":"怡安路一段１３巷１０弄３８號","OBJECTID":11481},"geometry":{"x":169413.59999999963,"y":2548927.4699999988}},{"attributes":{"ID":11482,"DIS_CODE":0,"TOWNNAME":"安南區","LI":"長安里","LIN":"13鄰","STREET":"長溪路","SECT":"三段","MAREA":" ","LANE":"３８０巷","ALLEY":"７７弄","HOUSE_NO":"１號","E_COORD97":167914.89000000001,"N_COORD97":2552102.02,"ADDRESS":"長溪路三段３８０巷７７弄１號","OBJECTID":11482},"geometry":{"x":167914.88999999966,"y":2552102.0199999996}},{"attributes":{"ID":11483,"DIS_CODE":0,"TOWNNAME":"安南區","LI":"長安里","LIN":"13鄰","STREET":"長溪路","SECT":"三段","MAREA":" ","LANE":"３８０巷","ALLEY":"７７弄","HOUSE_NO":"２號","E_COORD97":167931.10000000001,"N_COORD97":2552120.5299999998,"ADDRESS":"長溪路三段３８０巷７７弄２號","OBJECTID":11483},"geometry":{"x":167931.10000000056,"y":2552120.5300000012}},{"attributes":{"ID":11484,"DIS_CODE":0,"TOWNNAME":"安南區","LI":"長安里","LIN":"13鄰","STREET":"長溪路","SECT":"三段","MAREA":" ","LANE":"３８０巷","ALLEY":"７７弄","HOUSE_NO":"３號","E_COORD97":167909.39999999999,"N_COORD97":2552105.8100000001,"ADDRESS":"長溪路三段３８０巷７７弄３號","OBJECTID":11484},"geometry":{"x":167909.4000000013,"y":2552105.8100000024}},{"attributes":{"ID":11485,"DIS_CODE":0,"TOWNNAME":"安南區","LI":"長安里","LIN":"13鄰","STREET":"長溪路","SECT":"三段","MAREA":" ","LANE":"３８０巷","ALLEY":"７７弄","HOUSE_NO":"５號","E_COORD97":167906.51000000001,"N_COORD97":2552110.0800000001,"ADDRESS":"長溪路三段３８０巷７７弄５號","OBJECTID":11485},"geometry":{"x":167906.51000000071,"y":2552110.0800000038}},{"attributes":{"ID":11486,"DIS_CODE":0,"TOWNNAME":"安南區","LI":"長安里","LIN":"13鄰","STREET":"長溪路","SECT":"三段","MAREA":" ","LANE":"３８０巷","ALLEY":"７７弄","HOUSE_NO":"６號","E_COORD97":167927.62,"N_COORD97":2552125.6400000001,"ADDRESS":"長溪路三段３８０巷７７弄６號","OBJECTID":11486},"geometry":{"x":167927.62000000011,"y":2552125.6400000006}},{"attributes":{"ID":11487,"DIS_CODE":0,"TOWNNAME":"安南區","LI":"長安里","LIN":"13鄰","STREET":"長溪路","SECT":"三段","MAREA":" ","LANE":"３８０巷","ALLEY":"７７弄","HOUSE_NO":"７號","E_COORD97":167902.67000000001,"N_COORD97":2552113.7400000002,"ADDRESS":"長溪路三段３８０巷７７弄７號","OBJECTID":11487},"geometry":{"x":167902.67000000086,"y":2552113.7400000021}},{"attributes":{"ID":11488,"DIS_CODE":0,"TOWNNAME":"安南區","LI":"長安里","LIN":"13鄰","STREET":"長溪路","SECT":"三段","MAREA":" ","LANE":"３８０巷","ALLEY":"７７弄","HOUSE_NO":"８號","E_COORD97":167924.73000000001,"N_COORD97":2552129.9100000001,"ADDRESS":"長溪路三段３８０巷７７弄８號","OBJECTID":11488},"geometry":{"x":167924.73000000138,"y":2552129.9100000001}},{"attributes":{"ID":11489,"DIS_CODE":0,"TOWNNAME":"安南區","LI":"長安里","LIN":"13鄰","STREET":"長溪路","SECT":"三段","MAREA":" ","LANE":"３８０巷","ALLEY":"７７弄","HOUSE_NO":"９號","E_COORD97":167899.67000000001,"N_COORD97":2552118.1699999999,"ADDRESS":"長溪路三段３８０巷７７弄９號","OBJECTID":11489},"geometry":{"x":167899.66999999993,"y":2552118.1699999999}},{"attributes":{"ID":11490,"DIS_CODE":0,"TOWNNAME":"安南區","LI":"長安里","LIN":"13鄰","STREET":"長溪路","SECT":"三段","MAREA":" ","LANE":"３８０巷","ALLEY":"７７弄","HOUSE_NO":"１０號","E_COORD97":167921.84,"N_COORD97":2552134.1699999999,"ADDRESS":"長溪路三段３８０巷７７弄１０號","OBJECTID":11490},"geometry":{"x":167921.83999999985,"y":2552134.1700000018}},{"attributes":{"ID":11491,"DIS_CODE":0,"TOWNNAME":"安南區","LI":"長安里","LIN":"13鄰","STREET":"長溪路","SECT":"三段","MAREA":" ","LANE":"３８０巷","ALLEY":"７７弄","HOUSE_NO":"１１號","E_COORD97":167897.84,"N_COORD97":2552122.8599999999,"ADDRESS":"長溪路三段３８０巷７７弄１１號","OBJECTID":11491},"geometry":{"x":167897.84000000078,"y":2552122.8599999994}},{"attributes":{"ID":11492,"DIS_CODE":0,"TOWNNAME":"安南區","LI":"長安里","LIN":"13鄰","STREET":"長溪路","SECT":"三段","MAREA":" ","LANE":"３８０巷","ALLEY":"７７弄","HOUSE_NO":"１２號","E_COORD97":167918.95000000001,"N_COORD97":2552138.4300000002,"ADDRESS":"長溪路三段３８０巷７７弄１２號","OBJECTID":11492},"geometry":{"x":167918.95000000205,"y":2552138.4300000016}},{"attributes":{"ID":11493,"DIS_CODE":0,"TOWNNAME":"安南區","LI":"長安里","LIN":"13鄰","STREET":"長溪路","SECT":"三段","MAREA":" ","LANE":"３８０巷","ALLEY":"７７弄","HOUSE_NO":"１３號","E_COORD97":167894.01000000001,"N_COORD97":2552126.52,"ADDRESS":"長溪路三段３８０巷７７弄１３號","OBJECTID":11493},"geometry":{"x":167894.00999999978,"y":2552126.5200000033}},{"attributes":{"ID":11494,"DIS_CODE":0,"TOWNNAME":"安南區","LI":"長安里","LIN":"13鄰","STREET":"長溪路","SECT":"三段","MAREA":" ","LANE":"３８０巷","ALLEY":"７７弄","HOUSE_NO":"１５號","E_COORD97":167892.23000000001,"N_COORD97":2552131.1400000001,"ADDRESS":"長溪路三段３８０巷７７弄１５號","OBJECTID":11494},"geometry":{"x":167892.23000000138,"y":2552131.1400000025}},{"attributes":{"ID":11495,"DIS_CODE":0,"TOWNNAME":"安南區","LI":"長安里","LIN":"13鄰","STREET":"長溪路","SECT":"三段","MAREA":" ","LANE":"３８０巷","ALLEY":"７７弄","HOUSE_NO":"１６號","E_COORD97":167916.06,"N_COORD97":2552142.6899999999,"ADDRESS":"長溪路三段３８０巷７７弄１６號","OBJECTID":11495},"geometry":{"x":167916.06000000052,"y":2552142.6900000013}},{"attributes":{"ID":11496,"DIS_CODE":0,"TOWNNAME":"安南區","LI":"長安里","LIN":"13鄰","STREET":"長溪路","SECT":"三段","MAREA":" ","LANE":"３８０巷","ALLEY":"７７弄","HOUSE_NO":"１７號","E_COORD97":167889.76000000001,"N_COORD97":2552134.7799999998,"ADDRESS":"長溪路三段３８０巷７７弄１７號","OBJECTID":11496},"geometry":{"x":167889.76000000071,"y":2552134.7800000031}},{"attributes":{"ID":11497,"DIS_CODE":0,"TOWNNAME":"安南區","LI":"長安里","LIN":"13鄰","STREET":"長溪路","SECT":"三段","MAREA":" ","LANE":"３８０巷","ALLEY":"７７弄","HOUSE_NO":"１８號","E_COORD97":167913.42000000001,"N_COORD97":2552146.5800000001,"ADDRESS":"長溪路三段３８０巷７７弄１８號","OBJECTID":11497},"geometry":{"x":167913.41999999993,"y":2552146.5800000001}},{"attributes":{"ID":11498,"DIS_CODE":0,"TOWNNAME":"安南區","LI":"長安里","LIN":"13鄰","STREET":"長溪路","SECT":"三段","MAREA":" ","LANE":"３８０巷","ALLEY":"７７弄","HOUSE_NO":"１９號","E_COORD97":167885.85000000001,"N_COORD97":2552137.6099999999,"ADDRESS":"長溪路三段３８０巷７７弄１９號","OBJECTID":11498},"geometry":{"x":167885.85000000056,"y":2552137.6100000013}},{"attributes":{"ID":11499,"DIS_CODE":0,"TOWNNAME":"七股區","LI":"?榔里","LIN":"7鄰","STREET":" ","SECT":" ","MAREA":"?榔","LANE":" ","ALLEY":" ","HOUSE_NO":"６５號之５","E_COORD97":162230.82999999999,"N_COORD97":2555257.8700000001,"ADDRESS":"?榔６５號之５","OBJECTID":11499},"geometry":{"x":162230.83000000101,"y":2555257.870000001}},{"attributes":{"ID":11500,"DIS_CODE":0,"TOWNNAME":"七股區","LI":"?榔里","LIN":"7鄰","STREET":" ","SECT":" ","MAREA":"?榔","LANE":" ","ALLEY":" ","HOUSE_NO":"６５號之６","E_COORD97":162229.01999999999,"N_COORD97":2555253.8700000001,"ADDRESS":"?榔６５號之６","OBJECTID":11500},"geometry":{"x":162229.02000000048,"y":2555253.870000001}},{"attributes":{"ID":11501,"DIS_CODE":0,"TOWNNAME":"七股區","LI":"?榔里","LIN":"7鄰","STREET":" ","SECT":" ","MAREA":"?榔","LANE":" ","ALLEY":" ","HOUSE_NO":"６５號之７","E_COORD97":162228.20000000001,"N_COORD97":2555249.1200000001,"ADDRESS":"?榔６５號之７","OBJECTID":11501},"geometry":{"x":162228.20000000205,"y":2555249.120000001}},{"attributes":{"ID":11502,"DIS_CODE":0,"TOWNNAME":"七股區","LI":"?榔里","LIN":"7鄰","STREET":" ","SECT":" ","MAREA":"?榔","LANE":" ","ALLEY":" ","HOUSE_NO":"６５號之８","E_COORD97":162226.67000000001,"N_COORD97":2555245.3599999999,"ADDRESS":"?榔６５號之８","OBJECTID":11502},"geometry":{"x":162226.67000000086,"y":2555245.3599999994}},{"attributes":{"ID":11503,"DIS_CODE":0,"TOWNNAME":"七股區","LI":"?榔里","LIN":"7鄰","STREET":" ","SECT":" ","MAREA":"?榔","LANE":" ","ALLEY":" ","HOUSE_NO":"６５號之９","E_COORD97":162224.29000000001,"N_COORD97":2555241.8799999999,"ADDRESS":"?榔６５號之９","OBJECTID":11503},"geometry":{"x":162224.29000000097,"y":2555241.879999999}},{"attributes":{"ID":11504,"DIS_CODE":0,"TOWNNAME":"七股區","LI":"?榔里","LIN":"7鄰","STREET":" ","SECT":" ","MAREA":"?榔","LANE":" ","ALLEY":" ","HOUSE_NO":"６５號","E_COORD97":162239.28,"N_COORD97":2555279.9900000002,"ADDRESS":"?榔６５號","OBJECTID":11504},"geometry":{"x":162239.28000000026,"y":2555279.9900000002}},{"attributes":{"ID":11505,"DIS_CODE":0,"TOWNNAME":"七股區","LI":"?榔里","LIN":"7鄰","STREET":" ","SECT":" ","MAREA":"?榔","LANE":" ","ALLEY":" ","HOUSE_NO":"６６號之１０","E_COORD97":162240.17000000001,"N_COORD97":2555283.5299999998,"ADDRESS":"?榔６６號之１０","OBJECTID":11505},"geometry":{"x":162240.17000000086,"y":2555283.5300000012}},{"attributes":{"ID":11506,"DIS_CODE":0,"TOWNNAME":"安南區","LI":"長安里","LIN":"13鄰","STREET":"長溪路","SECT":"三段","MAREA":" ","LANE":"３８０巷","ALLEY":"７７弄","HOUSE_NO":"２０號","E_COORD97":167910.95000000001,"N_COORD97":2552150.2200000002,"ADDRESS":"長溪路三段３８０巷７７弄２０號","OBJECTID":11506},"geometry":{"x":167910.95000000112,"y":2552150.2200000044}},{"attributes":{"ID":11507,"DIS_CODE":0,"TOWNNAME":"安南區","LI":"長安里","LIN":"13鄰","STREET":"長溪路","SECT":"三段","MAREA":" ","LANE":"３８０巷","ALLEY":"７７弄","HOUSE_NO":"２１號","E_COORD97":167884.67999999999,"N_COORD97":2552144.7999999998,"ADDRESS":"長溪路三段３８０巷７７弄２１號","OBJECTID":11507},"geometry":{"x":167884.68000000156,"y":2552144.8000000007}},{"attributes":{"ID":11508,"DIS_CODE":0,"TOWNNAME":"南區","LI":"府南里","LIN":"13鄰","STREET":"永成路","SECT":"三段","MAREA":" ","LANE":"３７２巷","ALLEY":"５１弄","HOUSE_NO":"１８號","E_COORD97":167639.95652800001,"N_COORD97":2541044.3645799998,"ADDRESS":"永成路三段３７２巷５１弄１８號","OBJECTID":11508},"geometry":{"x":167639.9565279996,"y":2541044.3645779993}},{"attributes":{"ID":11509,"DIS_CODE":0,"TOWNNAME":"安南區","LI":"長安里","LIN":"13鄰","STREET":"長溪路","SECT":"三段","MAREA":" ","LANE":"３８０巷","ALLEY":"７７弄","HOUSE_NO":"２２號","E_COORD97":167908.48000000001,"N_COORD97":2552153.8599999999,"ADDRESS":"長溪路三段３８０巷７７弄２２號","OBJECTID":11509},"geometry":{"x":167908.48000000045,"y":2552153.8599999994}},{"attributes":{"ID":11510,"DIS_CODE":0,"TOWNNAME":"安南區","LI":"長安里","LIN":"13鄰","STREET":"長溪路","SECT":"三段","MAREA":" ","LANE":"３８０巷","ALLEY":"７７弄","HOUSE_NO":"２３號","E_COORD97":167875.92000000001,"N_COORD97":2552154.7999999998,"ADDRESS":"長溪路三段３８０巷７７弄２３號","OBJECTID":11510},"geometry":{"x":167875.91999999993,"y":2552154.8000000026}},{"attributes":{"ID":11511,"DIS_CODE":0,"TOWNNAME":"安南區","LI":"長安里","LIN":"13鄰","STREET":"長溪路","SECT":"三段","MAREA":" ","LANE":"３８０巷","ALLEY":"７７弄","HOUSE_NO":"２５號","E_COORD97":167872.03,"N_COORD97":2552159.3599999999,"ADDRESS":"長溪路三段３８０巷７７弄２５號","OBJECTID":11511},"geometry":{"x":167872.03000000026,"y":2552159.3600000013}},{"attributes":{"ID":11512,"DIS_CODE":0,"TOWNNAME":"安南區","LI":"長安里","LIN":"13鄰","STREET":"長溪路","SECT":"三段","MAREA":" ","LANE":"３８０巷","ALLEY":"７７弄","HOUSE_NO":"２６號","E_COORD97":167906.01000000001,"N_COORD97":2552157.5,"ADDRESS":"長溪路三段３８０巷７７弄２６號","OBJECTID":11512},"geometry":{"x":167906.00999999978,"y":2552157.4999999981}},{"attributes":{"ID":11513,"DIS_CODE":0,"TOWNNAME":"安南區","LI":"長安里","LIN":"13鄰","STREET":"長溪路","SECT":"三段","MAREA":" ","LANE":"３８０巷","ALLEY":"７７弄","HOUSE_NO":"２７號","E_COORD97":167869.51999999999,"N_COORD97":2552163,"ADDRESS":"長溪路三段３８０巷７７弄２７號","OBJECTID":11513},"geometry":{"x":167869.51999999955,"y":2552163}},{"attributes":{"ID":11514,"DIS_CODE":0,"TOWNNAME":"安南區","LI":"長安里","LIN":"13鄰","STREET":"長溪路","SECT":"三段","MAREA":" ","LANE":"３８０巷","ALLEY":"７７弄","HOUSE_NO":"２８號","E_COORD97":167899.42999999999,"N_COORD97":2552159.25,"ADDRESS":"長溪路三段３８０巷７７弄２８號","OBJECTID":11514},"geometry":{"x":167899.4299999997,"y":2552159.2499999981}},{"attributes":{"ID":11515,"DIS_CODE":0,"TOWNNAME":"北區","LI":"華興里","LIN":"13鄰","STREET":"南園街","SECT":" ","MAREA":" ","LANE":" ","ALLEY":" ","HOUSE_NO":"１０７號之３","E_COORD97":170626.39000000001,"N_COORD97":2545343.9700000002,"ADDRESS":"南園街１０７號之３","OBJECTID":11515},"geometry":{"x":170626.3900000006,"y":2545343.9700000044}},{"attributes":{"ID":11516,"DIS_CODE":0,"TOWNNAME":"北區","LI":"華興里","LIN":"13鄰","STREET":"南園街","SECT":" ","MAREA":" ","LANE":" ","ALLEY":" ","HOUSE_NO":"１０７號之４","E_COORD97":170640.38,"N_COORD97":2545347.3700000001,"ADDRESS":"南園街１０７號之４","OBJECTID":11516},"geometry":{"x":170640.38000000082,"y":2545347.370000001}},{"attributes":{"ID":11517,"DIS_CODE":0,"TOWNNAME":"北區","LI":"華興里","LIN":"13鄰","STREET":"南園街","SECT":" ","MAREA":" ","LANE":" ","ALLEY":" ","HOUSE_NO":"１０７號之５","E_COORD97":170645.23000000001,"N_COORD97":2545348.4199999999,"ADDRESS":"南園街１０７號之５","OBJECTID":11517},"geometry":{"x":170645.23000000138,"y":2545348.4200000018}},{"attributes":{"ID":11518,"DIS_CODE":0,"TOWNNAME":"北區","LI":"華興里","LIN":"13鄰","STREET":"南園街","SECT":" ","MAREA":" ","LANE":" ","ALLEY":" ","HOUSE_NO":"１０７號之６","E_COORD97":170649.67000000001,"N_COORD97":2545349.5499999998,"ADDRESS":"南園街１０７號之６","OBJECTID":11518},"geometry":{"x":170649.66999999899,"y":2545349.5500000007}},{"attributes":{"ID":11519,"DIS_CODE":0,"TOWNNAME":"北區","LI":"華興里","LIN":"13鄰","STREET":"南園街","SECT":" ","MAREA":" ","LANE":" ","ALLEY":" ","HOUSE_NO":"１０７號之７","E_COORD97":170654.35999999999,"N_COORD97":2545351.25,"ADDRESS":"南園街１０７號之７","OBJECTID":11519},"geometry":{"x":170654.36000000127,"y":2545351.25}},{"attributes":{"ID":11520,"DIS_CODE":0,"TOWNNAME":"北區","LI":"華興里","LIN":"13鄰","STREET":"南園街","SECT":" ","MAREA":" ","LANE":" ","ALLEY":" ","HOUSE_NO":"１０７號之８","E_COORD97":170658.16,"N_COORD97":2545352.2999999998,"ADDRESS":"南園街１０７號之８","OBJECTID":11520},"geometry":{"x":170658.16000000015,"y":2545352.3000000045}},{"attributes":{"ID":11521,"DIS_CODE":0,"TOWNNAME":"北區","LI":"華興里","LIN":"13鄰","STREET":"南園街","SECT":" ","MAREA":" ","LANE":" ","ALLEY":" ","HOUSE_NO":"１０７號之９","E_COORD97":170662.44,"N_COORD97":2545353.6699999999,"ADDRESS":"南園街１０７號之９","OBJECTID":11521},"geometry":{"x":170662.44000000134,"y":2545353.6700000018}},{"attributes":{"ID":11522,"DIS_CODE":0,"TOWNNAME":"仁德區","LI":"一甲里","LIN":"20鄰","STREET":"太乙七街","SECT":" ","MAREA":" ","LANE":" ","ALLEY":" ","HOUSE_NO":"８２號","E_COORD97":173048.14000000001,"N_COORD97":2541964.2599999998,"ADDRESS":"太乙七街８２號","OBJECTID":11522},"geometry":{"x":173048.13999999966,"y":2541964.2600000035}},{"attributes":{"ID":11523,"DIS_CODE":0,"TOWNNAME":"安南區","LI":"長安里","LIN":"13鄰","STREET":"長溪路","SECT":"三段","MAREA":" ","LANE":"３８０巷","ALLEY":"７７弄","HOUSE_NO":"２９號","E_COORD97":167867,"N_COORD97":2552166.6400000001,"ADDRESS":"長溪路三段３８０巷７７弄２９號","OBJECTID":11523},"geometry":{"x":167867,"y":2552166.6400000006}},{"attributes":{"ID":11524,"DIS_CODE":0,"TOWNNAME":"安南區","LI":"長安里","LIN":"13鄰","STREET":"長溪路","SECT":"三段","MAREA":" ","LANE":"３８０巷","ALLEY":"７７弄","HOUSE_NO":"３０號","E_COORD97":167892.73000000001,"N_COORD97":2552172.5600000001,"ADDRESS":"長溪路三段３８０巷７７弄３０號","OBJECTID":11524},"geometry":{"x":167892.73000000045,"y":2552172.5600000024}},{"attributes":{"ID":11525,"DIS_CODE":0,"TOWNNAME":"安南區","LI":"長安里","LIN":"13鄰","STREET":"長溪路","SECT":"三段","MAREA":" ","LANE":"３８０巷","ALLEY":"７７弄","HOUSE_NO":"３１號","E_COORD97":167864.48999999999,"N_COORD97":2552170.2799999998,"ADDRESS":"長溪路三段３８０巷７７弄３１號","OBJECTID":11525},"geometry":{"x":167864.49000000209,"y":2552170.2800000012}},{"attributes":{"ID":11526,"DIS_CODE":0,"TOWNNAME":"安南區","LI":"長安里","LIN":"13鄰","STREET":"長溪路","SECT":"三段","MAREA":" ","LANE":"３８０巷","ALLEY":"７７弄","HOUSE_NO":"３２號","E_COORD97":167889.51000000001,"N_COORD97":2552177.1000000001,"ADDRESS":"長溪路三段３８０巷７７弄３２號","OBJECTID":11526},"geometry":{"x":167889.51000000071,"y":2552177.1000000034}},{"attributes":{"ID":11527,"DIS_CODE":0,"TOWNNAME":"安南區","LI":"長安里","LIN":"13鄰","STREET":"長溪路","SECT":"三段","MAREA":" ","LANE":"３８０巷","ALLEY":"７７弄","HOUSE_NO":"３３號","E_COORD97":167861.97,"N_COORD97":2552173.9199999999,"ADDRESS":"長溪路三段３８０巷７７弄３３號","OBJECTID":11527},"geometry":{"x":167861.96999999974,"y":2552173.9199999999}},{"attributes":{"ID":11528,"DIS_CODE":0,"TOWNNAME":"安南區","LI":"長安里","LIN":"13鄰","STREET":"長溪路","SECT":"三段","MAREA":" ","LANE":"３８０巷","ALLEY":"７７弄","HOUSE_NO":"３５號","E_COORD97":167859.45999999999,"N_COORD97":2552177.5600000001,"ADDRESS":"長溪路三段３８０巷７７弄３５號","OBJECTID":11528},"geometry":{"x":167859.46000000089,"y":2552177.5600000005}},{"attributes":{"ID":11529,"DIS_CODE":0,"TOWNNAME":"安南區","LI":"長安里","LIN":"13鄰","STREET":"長溪路","SECT":"三段","MAREA":" ","LANE":"３８０巷","ALLEY":"７７弄","HOUSE_NO":"３６號","E_COORD97":167886.95999999999,"N_COORD97":2552180.7000000002,"ADDRESS":"長溪路三段３８０巷７７弄３６號","OBJECTID":11529},"geometry":{"x":167886.96000000089,"y":2552180.7000000011}},{"attributes":{"ID":11530,"DIS_CODE":0,"TOWNNAME":"安南區","LI":"長安里","LIN":"13鄰","STREET":"長溪路","SECT":"三段","MAREA":" ","LANE":"３８０巷","ALLEY":"７７弄","HOUSE_NO":"３７號","E_COORD97":167858.23000000001,"N_COORD97":2552182.23,"ADDRESS":"長溪路三段３８０巷７７弄３７號","OBJECTID":11530},"geometry":{"x":167858.23000000138,"y":2552182.2300000004}},{"attributes":{"ID":11531,"DIS_CODE":0,"TOWNNAME":"安南區","LI":"長安里","LIN":"13鄰","STREET":"長溪路","SECT":"三段","MAREA":" ","LANE":"３８０巷","ALLEY":"７７弄","HOUSE_NO":"３８號","E_COORD97":167884.41,"N_COORD97":2552184.2999999998,"ADDRESS":"長溪路三段３８０巷７７弄３８號","OBJECTID":11531},"geometry":{"x":167884.41000000015,"y":2552184.3000000026}},{"attributes":{"ID":11532,"DIS_CODE":0,"TOWNNAME":"安南區","LI":"長安里","LIN":"13鄰","STREET":"長溪路","SECT":"三段","MAREA":" ","LANE":"３８０巷","ALLEY":"７７弄","HOUSE_NO":"３９號","E_COORD97":167857.97,"N_COORD97":2552188.0099999998,"ADDRESS":"長溪路三段３８０巷７７弄３９號","OBJECTID":11532},"geometry":{"x":167857.97000000067,"y":2552188.0100000035}},{"attributes":{"ID":11533,"DIS_CODE":0,"TOWNNAME":"安南區","LI":"長安里","LIN":"13鄰","STREET":"長溪路","SECT":"三段","MAREA":" ","LANE":"３８０巷","ALLEY":"７７弄","HOUSE_NO":"４０號","E_COORD97":167881.85999999999,"N_COORD97":2552187.8900000001,"ADDRESS":"長溪路三段３８０巷７７弄４０號","OBJECTID":11533},"geometry":{"x":167881.86000000034,"y":2552187.8900000025}},{"attributes":{"ID":11534,"DIS_CODE":0,"TOWNNAME":"安南區","LI":"長安里","LIN":"13鄰","STREET":"長溪路","SECT":"三段","MAREA":" ","LANE":"３８０巷","ALLEY":"７７弄","HOUSE_NO":"４２號","E_COORD97":167879.31,"N_COORD97":2552191.4900000002,"ADDRESS":"長溪路三段３８０巷７７弄４２號","OBJECTID":11534},"geometry":{"x":167879.31000000052,"y":2552191.4900000002}},{"attributes":{"ID":11535,"DIS_CODE":0,"TOWNNAME":"安南區","LI":"長安里","LIN":"13鄰","STREET":"長溪路","SECT":"三段","MAREA":" ","LANE":"３８０巷","ALLEY":"７７弄","HOUSE_NO":"４６號","E_COORD97":167877.97,"N_COORD97":2552196.2999999998,"ADDRESS":"長溪路三段３８０巷７７弄４６號","OBJECTID":11535},"geometry":{"x":167877.97000000067,"y":2552196.3000000007}},{"attributes":{"ID":11536,"DIS_CODE":0,"TOWNNAME":"安南區","LI":"長安里","LIN":"13鄰","STREET":"長溪路","SECT":"三段","MAREA":" ","LANE":"３８０巷","ALLEY":"７７弄","HOUSE_NO":"４８號","E_COORD97":167876.79999999999,"N_COORD97":2552200.8500000001,"ADDRESS":"長溪路三段３８０巷７７弄４８號","OBJECTID":11536},"geometry":{"x":167876.79999999981,"y":2552200.8499999996}},{"attributes":{"ID":11537,"DIS_CODE":0,"TOWNNAME":"永康區","LI":"神洲里","LIN":"13鄰","STREET":"忠孝路","SECT":" ","MAREA":" ","LANE":"７６巷","ALLEY":"６３弄","HOUSE_NO":"１號","E_COORD97":172254.45999999999,"N_COORD97":2545020.2400000002,"ADDRESS":"忠孝路７６巷６３弄１號","OBJECTID":11537},"geometry":{"x":172254.45999999996,"y":2545020.2400000021}},{"attributes":{"ID":11538,"DIS_CODE":0,"TOWNNAME":"六甲區","LI":"龜港里","LIN":"13鄰","STREET":" ","SECT":" ","MAREA":"龜子港","LANE":" ","ALLEY":" ","HOUSE_NO":"２４８號","E_COORD97":179672.64999999999,"N_COORD97":2572901.5,"ADDRESS":"龜子港２４８號","OBJECTID":11538},"geometry":{"x":179672.6500000013,"y":2572901.5000000019}},{"attributes":{"ID":11539,"DIS_CODE":0,"TOWNNAME":"六甲區","LI":"龜港里","LIN":"13鄰","STREET":" ","SECT":" ","MAREA":"龜子港","LANE":" ","ALLEY":" ","HOUSE_NO":"２５０號","E_COORD97":179676.06,"N_COORD97":2572918.9399999999,"ADDRESS":"龜子港２５０號","OBJECTID":11539},"geometry":{"x":179676.06000000052,"y":2572918.9399999995}},{"attributes":{"ID":11540,"DIS_CODE":0,"TOWNNAME":"六甲區","LI":"龜港里","LIN":"13鄰","STREET":" ","SECT":" ","MAREA":"龜子港","LANE":"１４０巷","ALLEY":" ","HOUSE_NO":"１０號","E_COORD97":179687.54000000001,"N_COORD97":2572575.25,"ADDRESS":"龜子港１４０巷１０號","OBJECTID":11540},"geometry":{"x":179687.54000000004,"y":2572575.25}},{"attributes":{"ID":11541,"DIS_CODE":0,"TOWNNAME":"六甲區","LI":"龜港里","LIN":"13鄰","STREET":" ","SECT":" ","MAREA":"龜子港","LANE":"２８１巷","ALLEY":" ","HOUSE_NO":"１２號","E_COORD97":179568.10999999999,"N_COORD97":2572415.7000000002,"ADDRESS":"龜子港２８１巷１２號","OBJECTID":11541},"geometry":{"x":179568.11000000127,"y":2572415.6999999993}},{"attributes":{"ID":11542,"DIS_CODE":0,"TOWNNAME":"六甲區","LI":"龜港里","LIN":"13鄰","STREET":" ","SECT":" ","MAREA":"龜子港","LANE":"２８１巷","ALLEY":" ","HOUSE_NO":"２２號","E_COORD97":179539.5,"N_COORD97":2572385.27,"ADDRESS":"龜子港２８１巷２２號","OBJECTID":11542},"geometry":{"x":179539.50000000093,"y":2572385.2699999996}},{"attributes":{"ID":11543,"DIS_CODE":0,"TOWNNAME":"六甲區","LI":"龜港里","LIN":"13鄰","STREET":" ","SECT":" ","MAREA":"龜子港","LANE":"２８１巷","ALLEY":" ","HOUSE_NO":"２８號","E_COORD97":179528.54000000001,"N_COORD97":2572369.7200000002,"ADDRESS":"龜子港２８１巷２８號","OBJECTID":11543},"geometry":{"x":179528.5400000019,"y":2572369.7200000007}},{"attributes":{"ID":11544,"DIS_CODE":0,"TOWNNAME":"東山區","LI":"聖賢里","LIN":"14鄰","STREET":" ","SECT":" ","MAREA":"田尾","LANE":" ","ALLEY":" ","HOUSE_NO":"６１號","E_COORD97":184811.12,"N_COORD97":2578413.27,"ADDRESS":"田尾６１號","OBJECTID":11544},"geometry":{"x":184811.12000000011,"y":2578413.2699999996}},{"attributes":{"ID":11545,"DIS_CODE":0,"TOWNNAME":"六甲區","LI":"龜港里","LIN":"13鄰","STREET":" ","SECT":" ","MAREA":"龜子港","LANE":"２８８巷","ALLEY":" ","HOUSE_NO":"１０號","E_COORD97":179703.45999999999,"N_COORD97":2573006.0699999998,"ADDRESS":"龜子港２８８巷１０號","OBJECTID":11545},"geometry":{"x":179703.46000000183,"y":2573006.0700000022}},{"attributes":{"ID":11546,"DIS_CODE":0,"TOWNNAME":"六甲區","LI":"龜港里","LIN":"13鄰","STREET":" ","SECT":" ","MAREA":"龜子港","LANE":"２８８巷","ALLEY":" ","HOUSE_NO":"１１號","E_COORD97":179713.23999999999,"N_COORD97":2573026.6600000001,"ADDRESS":"龜子港２８８巷１１號","OBJECTID":11546},"geometry":{"x":179713.24000000022,"y":2573026.6600000001}},{"attributes":{"ID":11547,"DIS_CODE":0,"TOWNNAME":"六甲區","LI":"龜港里","LIN":"13鄰","STREET":" ","SECT":" ","MAREA":"龜子港","LANE":"２８８巷","ALLEY":" ","HOUSE_NO":"１２號","E_COORD97":179707.48000000001,"N_COORD97":2573005.8799999999,"ADDRESS":"龜子港２８８巷１２號","OBJECTID":11547},"geometry":{"x":179707.48000000138,"y":2573005.8800000008}},{"attributes":{"ID":11548,"DIS_CODE":0,"TOWNNAME":"六甲區","LI":"龜港里","LIN":"13鄰","STREET":" ","SECT":" ","MAREA":"龜子港","LANE":"２８８巷","ALLEY":" ","HOUSE_NO":"１３號","E_COORD97":179717.01000000001,"N_COORD97":2573026.2400000002,"ADDRESS":"龜子港２８８巷１３號","OBJECTID":11548},"geometry":{"x":179717.01000000071,"y":2573026.2400000002}},{"attributes":{"ID":11549,"DIS_CODE":0,"TOWNNAME":"六甲區","LI":"龜港里","LIN":"13鄰","STREET":" ","SECT":" ","MAREA":"龜子港","LANE":"２８８巷","ALLEY":" ","HOUSE_NO":"１５號","E_COORD97":179720.89999999999,"N_COORD97":2573025.9399999999,"ADDRESS":"龜子港２８８巷１５號","OBJECTID":11549},"geometry":{"x":179720.90000000037,"y":2573025.9400000013}},{"attributes":{"ID":11550,"DIS_CODE":0,"TOWNNAME":"六甲區","LI":"龜港里","LIN":"13鄰","STREET":" ","SECT":" ","MAREA":"龜子港","LANE":" ","ALLEY":" ","HOUSE_NO":"１１８號","E_COORD97":179673.60999999999,"N_COORD97":2572485.4100000001,"ADDRESS":"龜子港１１８號","OBJECTID":11550},"geometry":{"x":179673.61000000034,"y":2572485.410000002}},{"attributes":{"ID":11551,"DIS_CODE":0,"TOWNNAME":"六甲區","LI":"龜港里","LIN":"13鄰","STREET":" ","SECT":" ","MAREA":"龜子港","LANE":" ","ALLEY":" ","HOUSE_NO":"１２２號","E_COORD97":179692.07000000001,"N_COORD97":2572514.7000000002,"ADDRESS":"龜子港１２２號","OBJECTID":11551},"geometry":{"x":179692.07000000123,"y":2572514.6999999974}},{"attributes":{"ID":11552,"DIS_CODE":0,"TOWNNAME":"六甲區","LI":"龜港里","LIN":"13鄰","STREET":" ","SECT":" ","MAREA":"龜子港","LANE":" ","ALLEY":" ","HOUSE_NO":"１３４號","E_COORD97":179671.95000000001,"N_COORD97":2572540.04,"ADDRESS":"龜子港１３４號","OBJECTID":11552},"geometry":{"x":179671.95000000112,"y":2572540.040000001}},{"attributes":{"ID":11553,"DIS_CODE":0,"TOWNNAME":"六甲區","LI":"龜港里","LIN":"13鄰","STREET":" ","SECT":" ","MAREA":"龜子港","LANE":" ","ALLEY":" ","HOUSE_NO":"１３６號","E_COORD97":179670.98000000001,"N_COORD97":2572545.2000000002,"ADDRESS":"龜子港１３６號","OBJECTID":11553},"geometry":{"x":179670.98000000045,"y":2572545.1999999974}},{"attributes":{"ID":11554,"DIS_CODE":0,"TOWNNAME":"六甲區","LI":"龜港里","LIN":"13鄰","STREET":" ","SECT":" ","MAREA":"龜子港","LANE":" ","ALLEY":" ","HOUSE_NO":"１４２號","E_COORD97":179670.04999999999,"N_COORD97":2572579.5,"ADDRESS":"龜子港１４２號","OBJECTID":11554},"geometry":{"x":179670.04999999981,"y":2572579.5000000019}},{"attributes":{"ID":11555,"DIS_CODE":0,"TOWNNAME":"六甲區","LI":"龜港里","LIN":"13鄰","STREET":" ","SECT":" ","MAREA":"龜子港","LANE":" ","ALLEY":" ","HOUSE_NO":"１４６號","E_COORD97":179650.09,"N_COORD97":2572594.2200000002,"ADDRESS":"龜子港１４６號","OBJECTID":11555},"geometry":{"x":179650.09000000171,"y":2572594.2200000044}},{"attributes":{"ID":11556,"DIS_CODE":0,"TOWNNAME":"六甲區","LI":"龜港里","LIN":"13鄰","STREET":" ","SECT":" ","MAREA":"龜子港","LANE":" ","ALLEY":" ","HOUSE_NO":"１５４號","E_COORD97":179675.09,"N_COORD97":2572605.0600000001,"ADDRESS":"龜子港１５４號","OBJECTID":11556},"geometry":{"x":179675.08999999985,"y":2572605.0599999987}},{"attributes":{"ID":11557,"DIS_CODE":0,"TOWNNAME":"六甲區","LI":"龜港里","LIN":"13鄰","STREET":" ","SECT":" ","MAREA":"龜子港","LANE":" ","ALLEY":" ","HOUSE_NO":"１５６號","E_COORD97":179675.67000000001,"N_COORD97":2572608.9900000002,"ADDRESS":"龜子港１５６號","OBJECTID":11557},"geometry":{"x":179675.67000000086,"y":2572608.9900000039}},{"attributes":{"ID":11558,"DIS_CODE":0,"TOWNNAME":"六甲區","LI":"龜港里","LIN":"13鄰","STREET":" ","SECT":" ","MAREA":"龜子港","LANE":" ","ALLEY":" ","HOUSE_NO":"２００號","E_COORD97":179660.54999999999,"N_COORD97":2572822.02,"ADDRESS":"龜子港２００號","OBJECTID":11558},"geometry":{"x":179660.55000000075,"y":2572822.0200000014}},{"attributes":{"ID":11559,"DIS_CODE":0,"TOWNNAME":"六甲區","LI":"龜港里","LIN":"13鄰","STREET":" ","SECT":" ","MAREA":"龜子港","LANE":" ","ALLEY":" ","HOUSE_NO":"２０６號之１２","E_COORD97":179665.29999999999,"N_COORD97":2572857.5299999998,"ADDRESS":"龜子港２０６號之１２","OBJECTID":11559},"geometry":{"x":179665.29999999981,"y":2572857.5299999993}},{"attributes":{"ID":11560,"DIS_CODE":0,"TOWNNAME":"六甲區","LI":"龜港里","LIN":"13鄰","STREET":" ","SECT":" ","MAREA":"龜子港","LANE":" ","ALLEY":" ","HOUSE_NO":"２０６號","E_COORD97":179660.17999999999,"N_COORD97":2572835.1699999999,"ADDRESS":"龜子港２０６號","OBJECTID":11560},"geometry":{"x":179660.18000000063,"y":2572835.1700000018}},{"attributes":{"ID":11561,"DIS_CODE":0,"TOWNNAME":"六甲區","LI":"龜港里","LIN":"13鄰","STREET":" ","SECT":" ","MAREA":"龜子港","LANE":" ","ALLEY":" ","HOUSE_NO":"２１０號","E_COORD97":179668.14000000001,"N_COORD97":2572873.9399999999,"ADDRESS":"龜子港２１０號","OBJECTID":11561},"geometry":{"x":179668.14000000153,"y":2572873.9400000013}},{"attributes":{"ID":11562,"DIS_CODE":0,"TOWNNAME":"六甲區","LI":"龜港里","LIN":"13鄰","STREET":" ","SECT":" ","MAREA":"龜子港","LANE":" ","ALLEY":" ","HOUSE_NO":"２８４號","E_COORD97":179676.56,"N_COORD97":2573008.1800000002,"ADDRESS":"龜子港２８４號","OBJECTID":11562},"geometry":{"x":179676.55999999959,"y":2573008.1800000016}},{"attributes":{"ID":11563,"DIS_CODE":0,"TOWNNAME":"六甲區","LI":"龜港里","LIN":"13鄰","STREET":" ","SECT":" ","MAREA":"龜子港","LANE":"２８８巷","ALLEY":" ","HOUSE_NO":"２２號","E_COORD97":179723.60999999999,"N_COORD97":2573004.6699999999,"ADDRESS":"龜子港２８８巷２２號","OBJECTID":11563},"geometry":{"x":179723.61000000127,"y":2573004.6700000018}},{"attributes":{"ID":11564,"DIS_CODE":0,"TOWNNAME":"學甲區","LI":"中洲里","LIN":" ","STREET":" ","SECT":" ","MAREA":"中洲","LANE":" ","ALLEY":" ","HOUSE_NO":"３號","E_COORD97":164246.51999999999,"N_COORD97":2570940.5899999999,"ADDRESS":"中洲３號","OBJECTID":11564},"geometry":{"x":164246.52000000048,"y":2570940.5900000017}},{"attributes":{"ID":11565,"DIS_CODE":0,"TOWNNAME":"六甲區","LI":"龜港里","LIN":"13鄰","STREET":" ","SECT":" ","MAREA":"龜子港","LANE":" ","ALLEY":" ","HOUSE_NO":"３４２號","E_COORD97":179685.26000000001,"N_COORD97":2573145.75,"ADDRESS":"龜子港３４２號","OBJECTID":11565},"geometry":{"x":179685.25999999978,"y":2573145.7499999981}},{"attributes":{"ID":11566,"DIS_CODE":0,"TOWNNAME":"六甲區","LI":"龜港里","LIN":"13鄰","STREET":" ","SECT":" ","MAREA":"龜子港","LANE":"２８８巷","ALLEY":" ","HOUSE_NO":"２４號","E_COORD97":179727.69,"N_COORD97":2573004.3599999999,"ADDRESS":"龜子港２８８巷２４號","OBJECTID":11566},"geometry":{"x":179727.69000000041,"y":2573004.3599999994}},{"attributes":{"ID":11567,"DIS_CODE":0,"TOWNNAME":"六甲區","LI":"龜港里","LIN":"13鄰","STREET":" ","SECT":" ","MAREA":"龜子港","LANE":"２８８巷","ALLEY":" ","HOUSE_NO":"２號","E_COORD97":179691.32999999999,"N_COORD97":2573007.1899999999,"ADDRESS":"龜子港２８８巷２號","OBJECTID":11567},"geometry":{"x":179691.33000000101,"y":2573007.1900000013}},{"attributes":{"ID":11568,"DIS_CODE":0,"TOWNNAME":"六甲區","LI":"龜港里","LIN":"13鄰","STREET":" ","SECT":" ","MAREA":"龜子港","LANE":"２８８巷","ALLEY":" ","HOUSE_NO":"３號","E_COORD97":179696.57999999999,"N_COORD97":2573027.5899999999,"ADDRESS":"龜子港２８８巷３號","OBJECTID":11568},"geometry":{"x":179696.58000000101,"y":2573027.5899999999}},{"attributes":{"ID":11569,"DIS_CODE":0,"TOWNNAME":"六甲區","LI":"龜港里","LIN":"13鄰","STREET":" ","SECT":" ","MAREA":"龜子港","LANE":"２８８巷","ALLEY":" ","HOUSE_NO":"５號","E_COORD97":179700.31,"N_COORD97":2573027.3700000001,"ADDRESS":"龜子港２８８巷５號","OBJECTID":11569},"geometry":{"x":179700.30999999959,"y":2573027.3699999992}},{"attributes":{"ID":11570,"DIS_CODE":0,"TOWNNAME":"六甲區","LI":"龜港里","LIN":"13鄰","STREET":" ","SECT":" ","MAREA":"龜子港","LANE":" ","ALLEY":" ","HOUSE_NO":"２９０之１號","E_COORD97":179676.85000000001,"N_COORD97":2573029.6499999999,"ADDRESS":"龜子港２９０之１號","OBJECTID":11570},"geometry":{"x":179676.85000000149,"y":2573029.6500000022}},{"attributes":{"ID":11571,"DIS_CODE":0,"TOWNNAME":"六甲區","LI":"龜港里","LIN":"13鄰","STREET":" ","SECT":" ","MAREA":"龜子港","LANE":" ","ALLEY":" ","HOUSE_NO":"２９０號","E_COORD97":179676.57000000001,"N_COORD97":2573024.9700000002,"ADDRESS":"龜子港２９０號","OBJECTID":11571},"geometry":{"x":179676.57000000123,"y":2573024.9700000007}},{"attributes":{"ID":11572,"DIS_CODE":0,"TOWNNAME":"六甲區","LI":"龜港里","LIN":"13鄰","STREET":" ","SECT":" ","MAREA":"龜子港","LANE":" ","ALLEY":" ","HOUSE_NO":"２９１號","E_COORD97":179637.79000000001,"N_COORD97":2572437.9900000002,"ADDRESS":"龜子港２９１號","OBJECTID":11572},"geometry":{"x":179637.79000000097,"y":2572437.9900000002}},{"attributes":{"ID":11573,"DIS_CODE":0,"TOWNNAME":"六甲區","LI":"龜港里","LIN":"13鄰","STREET":" ","SECT":" ","MAREA":"龜子港","LANE":" ","ALLEY":" ","HOUSE_NO":"２９２號","E_COORD97":179677.07000000001,"N_COORD97":2573034.04,"ADDRESS":"龜子港２９２號","OBJECTID":11573},"geometry":{"x":179677.0700000003,"y":2573034.0399999991}},{"attributes":{"ID":11574,"DIS_CODE":0,"TOWNNAME":"六甲區","LI":"龜港里","LIN":"13鄰","STREET":" ","SECT":" ","MAREA":"龜子港","LANE":" ","ALLEY":" ","HOUSE_NO":"２９４號","E_COORD97":179677.48000000001,"N_COORD97":2573038.4100000001,"ADDRESS":"龜子港２９４號","OBJECTID":11574},"geometry":{"x":179677.48000000138,"y":2573038.4100000001}},{"attributes":{"ID":11575,"DIS_CODE":0,"TOWNNAME":"六甲區","LI":"龜港里","LIN":"13鄰","STREET":" ","SECT":" ","MAREA":"龜子港","LANE":" ","ALLEY":" ","HOUSE_NO":"２９６號","E_COORD97":179677.81,"N_COORD97":2573042.8100000001,"ADDRESS":"龜子港２９６號","OBJECTID":11575},"geometry":{"x":179677.81000000052,"y":2573042.8100000005}},{"attributes":{"ID":11576,"DIS_CODE":0,"TOWNNAME":"六甲區","LI":"龜港里","LIN":"13鄰","STREET":" ","SECT":" ","MAREA":"龜子港","LANE":" ","ALLEY":" ","HOUSE_NO":"２９７號","E_COORD97":179619.85000000001,"N_COORD97":2572474.6400000001,"ADDRESS":"龜子港２９７號","OBJECTID":11576},"geometry":{"x":179619.85000000056,"y":2572474.6400000006}},{"attributes":{"ID":11577,"DIS_CODE":0,"TOWNNAME":"六甲區","LI":"龜港里","LIN":"13鄰","STREET":" ","SECT":" ","MAREA":"龜子港","LANE":" ","ALLEY":" ","HOUSE_NO":"２９８號","E_COORD97":179678.07999999999,"N_COORD97":2573047.0600000001,"ADDRESS":"龜子港２９８號","OBJECTID":11577},"geometry":{"x":179678.08000000101,"y":2573047.0600000024}},{"attributes":{"ID":11578,"DIS_CODE":0,"TOWNNAME":"六甲區","LI":"龜港里","LIN":"13鄰","STREET":" ","SECT":" ","MAREA":"龜子港","LANE":" ","ALLEY":" ","HOUSE_NO":"２９９號","E_COORD97":179618.39999999999,"N_COORD97":2572479.9100000001,"ADDRESS":"龜子港２９９號","OBJECTID":11578},"geometry":{"x":179618.4000000013,"y":2572479.9100000001}},{"attributes":{"ID":11579,"DIS_CODE":0,"TOWNNAME":"六甲區","LI":"龜港里","LIN":"13鄰","STREET":" ","SECT":" ","MAREA":"龜子港","LANE":" ","ALLEY":" ","HOUSE_NO":"３００之１號","E_COORD97":179678.92000000001,"N_COORD97":2573055.6099999999,"ADDRESS":"龜子港３００之１號","OBJECTID":11579},"geometry":{"x":179678.92000000086,"y":2573055.6100000013}},{"attributes":{"ID":11580,"DIS_CODE":0,"TOWNNAME":"將軍區","LI":"西和里","LIN":"24鄰","STREET":" ","SECT":" ","MAREA":"西湖","LANE":" ","ALLEY":" ","HOUSE_NO":"８９號","E_COORD97":162150.51000000001,"N_COORD97":2566214.6800000002,"ADDRESS":"西湖８９號","OBJECTID":11580},"geometry":{"x":162150.50999999978,"y":2566214.6799999997}},{"attributes":{"ID":11581,"DIS_CODE":0,"TOWNNAME":"六甲區","LI":"龜港里","LIN":"13鄰","STREET":" ","SECT":" ","MAREA":"龜子港","LANE":" ","ALLEY":" ","HOUSE_NO":"３００號","E_COORD97":179678.42000000001,"N_COORD97":2573051.27,"ADDRESS":"龜子港３００號","OBJECTID":11581},"geometry":{"x":179678.42000000179,"y":2573051.2700000014}},{"attributes":{"ID":11582,"DIS_CODE":0,"TOWNNAME":"六甲區","LI":"龜港里","LIN":"13鄰","STREET":" ","SECT":" ","MAREA":"龜子港","LANE":" ","ALLEY":" ","HOUSE_NO":"３０１號","E_COORD97":179614.73999999999,"N_COORD97":2572493.2599999998,"ADDRESS":"龜子港３０１號","OBJECTID":11582},"geometry":{"x":179614.74000000022,"y":2572493.2599999998}},{"attributes":{"ID":11583,"DIS_CODE":0,"TOWNNAME":"六甲區","LI":"龜港里","LIN":"13鄰","STREET":" ","SECT":" ","MAREA":"龜子港","LANE":" ","ALLEY":" ","HOUSE_NO":"３０２號","E_COORD97":179679.32999999999,"N_COORD97":2573060.02,"ADDRESS":"龜子港３０２號","OBJECTID":11583},"geometry":{"x":179679.33000000101,"y":2573060.0200000014}},{"attributes":{"ID":11584,"DIS_CODE":0,"TOWNNAME":"六甲區","LI":"龜港里","LIN":"13鄰","STREET":" ","SECT":" ","MAREA":"龜子港","LANE":" ","ALLEY":" ","HOUSE_NO":"３０４號","E_COORD97":179679.78,"N_COORD97":2573064.3700000001,"ADDRESS":"龜子港３０４號","OBJECTID":11584},"geometry":{"x":179679.78000000119,"y":2573064.370000001}},{"attributes":{"ID":11585,"DIS_CODE":0,"TOWNNAME":"六甲區","LI":"龜港里","LIN":"13鄰","STREET":" ","SECT":" ","MAREA":"龜子港","LANE":" ","ALLEY":" ","HOUSE_NO":"３０５號","E_COORD97":179609.04000000001,"N_COORD97":2572527.5600000001,"ADDRESS":"龜子港３０５號","OBJECTID":11585},"geometry":{"x":179609.04000000004,"y":2572527.5600000042}},{"attributes":{"ID":11586,"DIS_CODE":0,"TOWNNAME":"六甲區","LI":"龜港里","LIN":"13鄰","STREET":" ","SECT":" ","MAREA":"龜子港","LANE":" ","ALLEY":" ","HOUSE_NO":"３０６號","E_COORD97":179680.07000000001,"N_COORD97":2573068.6000000001,"ADDRESS":"龜子港３０６號","OBJECTID":11586},"geometry":{"x":179680.07000000123,"y":2573068.6000000034}},{"attributes":{"ID":11587,"DIS_CODE":0,"TOWNNAME":"六甲區","LI":"龜港里","LIN":"13鄰","STREET":" ","SECT":" ","MAREA":"龜子港","LANE":"３０７巷","ALLEY":" ","HOUSE_NO":"５號","E_COORD97":179590.5,"N_COORD97":2572545.6899999999,"ADDRESS":"龜子港３０７巷５號","OBJECTID":11587},"geometry":{"x":179590.50000000093,"y":2572545.6900000032}},{"attributes":{"ID":11588,"DIS_CODE":0,"TOWNNAME":"六甲區","LI":"龜港里","LIN":"13鄰","STREET":" ","SECT":" ","MAREA":"龜子港","LANE":"３０７巷","ALLEY":" ","HOUSE_NO":"６號","E_COORD97":179582.51000000001,"N_COORD97":2572556.75,"ADDRESS":"龜子港３０７巷６號","OBJECTID":11588},"geometry":{"x":179582.50999999885,"y":2572556.7500000019}},{"attributes":{"ID":11589,"DIS_CODE":0,"TOWNNAME":"六甲區","LI":"龜港里","LIN":"13鄰","STREET":" ","SECT":" ","MAREA":"龜子港","LANE":"８０巷","ALLEY":" ","HOUSE_NO":"１００號","E_COORD97":180177.82999999999,"N_COORD97":2572940.1699999999,"ADDRESS":"龜子港８０巷１００號","OBJECTID":11589},"geometry":{"x":180177.83000000101,"y":2572940.1700000018}},{"attributes":{"ID":11590,"DIS_CODE":0,"TOWNNAME":"六甲區","LI":"龜港里","LIN":"13鄰","STREET":" ","SECT":" ","MAREA":"龜子港","LANE":"８０巷","ALLEY":" ","HOUSE_NO":"２１號","E_COORD97":179744.98999999999,"N_COORD97":2572402.6600000001,"ADDRESS":"龜子港８０巷２１號","OBJECTID":11590},"geometry":{"x":179744.99000000115,"y":2572402.6600000001}},{"attributes":{"ID":11591,"DIS_CODE":0,"TOWNNAME":"六甲區","LI":"龜港里","LIN":"13鄰","STREET":" ","SECT":" ","MAREA":"龜子港","LANE":"８０巷","ALLEY":" ","HOUSE_NO":"２３號","E_COORD97":179751.69,"N_COORD97":2572461.54,"ADDRESS":"龜子港８０巷２３號","OBJECTID":11591},"geometry":{"x":179751.69000000227,"y":2572461.5400000028}},{"attributes":{"ID":11592,"DIS_CODE":0,"TOWNNAME":"六甲區","LI":"龜港里","LIN":"13鄰","STREET":" ","SECT":" ","MAREA":"龜子港","LANE":"８０巷","ALLEY":" ","HOUSE_NO":"２５號","E_COORD97":179797.73000000001,"N_COORD97":2572402.8100000001,"ADDRESS":"龜子港８０巷２５號","OBJECTID":11592},"geometry":{"x":179797.73000000138,"y":2572402.8100000005}},{"attributes":{"ID":11593,"DIS_CODE":0,"TOWNNAME":"六甲區","LI":"龜港里","LIN":"13鄰","STREET":" ","SECT":" ","MAREA":"龜子港","LANE":"８０巷","ALLEY":" ","HOUSE_NO":"２７之１號","E_COORD97":179825.70999999999,"N_COORD97":2572384.1200000001,"ADDRESS":"龜子港８０巷２７之１號","OBJECTID":11593},"geometry":{"x":179825.71000000183,"y":2572384.120000001}},{"attributes":{"ID":11594,"DIS_CODE":0,"TOWNNAME":"六甲區","LI":"龜港里","LIN":"13鄰","STREET":" ","SECT":" ","MAREA":"龜子港","LANE":"８０巷","ALLEY":" ","HOUSE_NO":"２７之２號","E_COORD97":179830.82999999999,"N_COORD97":2572384.8300000001,"ADDRESS":"龜子港８０巷２７之２號","OBJECTID":11594},"geometry":{"x":179830.83000000007,"y":2572384.8300000001}},{"attributes":{"ID":11595,"DIS_CODE":0,"TOWNNAME":"六甲區","LI":"龜港里","LIN":"13鄰","STREET":" ","SECT":" ","MAREA":"龜子港","LANE":"８０巷","ALLEY":" ","HOUSE_NO":"２７之３號","E_COORD97":179834.91,"N_COORD97":2572385.5800000001,"ADDRESS":"龜子港８０巷２７之３號","OBJECTID":11595},"geometry":{"x":179834.91000000108,"y":2572385.5800000019}},{"attributes":{"ID":11596,"DIS_CODE":0,"TOWNNAME":"六甲區","LI":"龜港里","LIN":"13鄰","STREET":" ","SECT":" ","MAREA":"龜子港","LANE":" ","ALLEY":" ","HOUSE_NO":"３０８號","E_COORD97":179680.48999999999,"N_COORD97":2573072.9900000002,"ADDRESS":"龜子港３０８號","OBJECTID":11596},"geometry":{"x":179680.49000000115,"y":2573072.9900000002}},{"attributes":{"ID":11597,"DIS_CODE":0,"TOWNNAME":"六甲區","LI":"龜港里","LIN":"13鄰","STREET":" ","SECT":" ","MAREA":"龜子港","LANE":" ","ALLEY":" ","HOUSE_NO":"３１０號","E_COORD97":179680.70999999999,"N_COORD97":2573077.1800000002,"ADDRESS":"龜子港３１０號","OBJECTID":11597},"geometry":{"x":179680.70999999996,"y":2573077.1799999997}},{"attributes":{"ID":11598,"DIS_CODE":0,"TOWNNAME":"六甲區","LI":"龜港里","LIN":"13鄰","STREET":" ","SECT":" ","MAREA":"龜子港","LANE":" ","ALLEY":" ","HOUSE_NO":"３３４號","E_COORD97":179683.95999999999,"N_COORD97":2573128.6800000002,"ADDRESS":"龜子港３３４號","OBJECTID":11598},"geometry":{"x":179683.96000000089,"y":2573128.6799999997}},{"attributes":{"ID":11599,"DIS_CODE":0,"TOWNNAME":"六甲區","LI":"龜港里","LIN":"13鄰","STREET":" ","SECT":" ","MAREA":"龜子港","LANE":" ","ALLEY":" ","HOUSE_NO":"３３６號","E_COORD97":179684.29999999999,"N_COORD97":2573133.2799999998,"ADDRESS":"龜子港３３６號","OBJECTID":11599},"geometry":{"x":179684.30000000075,"y":2573133.2799999993}},{"attributes":{"ID":11600,"DIS_CODE":0,"TOWNNAME":"六甲區","LI":"龜港里","LIN":"13鄰","STREET":" ","SECT":" ","MAREA":"龜子港","LANE":" ","ALLEY":" ","HOUSE_NO":"３３８號","E_COORD97":179684.79000000001,"N_COORD97":2573137.3500000001,"ADDRESS":"龜子港３３８號","OBJECTID":11600},"geometry":{"x":179684.79000000097,"y":2573137.3499999996}}]}