{"displayFieldName":"TOWNNAME","fieldAliases":{"ID":"ID","DIS_CODE":"DIS_CODE","TOWNNAME":"TOWNNAME","LI":"LI","LIN":"LIN","STREET":"STREET","SECT":"SECT","MAREA":"MAREA","LANE":"LANE","ALLEY":"ALLEY","HOUSE_NO":"HOUSE_NO","E_COORD97":"E_COORD97","N_COORD97":"N_COORD97","ADDRESS":"ADDRESS","OBJECTID":"OBJECTID"},"geometryType":"esriGeometryPoint","spatialReference":{"wkid":102443,"latestWkid":3826},"fields":[{"name":"ID","type":"esriFieldTypeDouble","alias":"ID"},{"name":"DIS_CODE","type":"esriFieldTypeInteger","alias":"DIS_CODE"},{"name":"TOWNNAME","type":"esriFieldTypeString","alias":"TOWNNAME","length":8},{"name":"LI","type":"esriFieldTypeString","alias":"LI","length":8},{"name":"LIN","type":"esriFieldTypeString","alias":"LIN","length":12},{"name":"STREET","type":"esriFieldTypeString","alias":"STREET","length":20},{"name":"SECT","type":"esriFieldTypeString","alias":"SECT","length":8},{"name":"MAREA","type":"esriFieldTypeString","alias":"MAREA","length":12},{"name":"LANE","type":"esriFieldTypeString","alias":"LANE","length":10},{"name":"ALLEY","type":"esriFieldTypeString","alias":"ALLEY","length":10},{"name":"HOUSE_NO","type":"esriFieldTypeString","alias":"HOUSE_NO","length":20},{"name":"E_COORD97","type":"esriFieldTypeDouble","alias":"E_COORD97"},{"name":"N_COORD97","type":"esriFieldTypeDouble","alias":"N_COORD97"},{"name":"ADDRESS","type":"esriFieldTypeString","alias":"ADDRESS","length":50},{"name":"OBJECTID","type":"esriFieldTypeOID","alias":"OBJECTID"}],"features":[{"attributes":{"ID":274806,"DIS_CODE":0,"TOWNNAME":"佳里區","LI":"鎮山里","LIN":"20鄰","STREET":"鎮山街","SECT":" ","MAREA":" ","LANE":"３４６巷","ALLEY":" ","HOUSE_NO":"２７號","E_COORD97":166133.64000000001,"N_COORD97":2560862.3999999999,"ADDRESS":"鎮山街３４６巷２７號","OBJECTID":274801},"geometry":{"x":166133.64000000153,"y":2560862.4000000022}},{"attributes":{"ID":274807,"DIS_CODE":0,"TOWNNAME":"佳里區","LI":"鎮山里","LIN":"20鄰","STREET":"鎮山街","SECT":" ","MAREA":" ","LANE":"３４６巷","ALLEY":" ","HOUSE_NO":"２號","E_COORD97":166161.45000000001,"N_COORD97":2560773.6699999999,"ADDRESS":"鎮山街３４６巷２號","OBJECTID":274802},"geometry":{"x":166161.45000000112,"y":2560773.6699999999}},{"attributes":{"ID":274808,"DIS_CODE":0,"TOWNNAME":"佳里區","LI":"鎮山里","LIN":"20鄰","STREET":"鎮山街","SECT":" ","MAREA":" ","LANE":"３４６巷","ALLEY":" ","HOUSE_NO":"５號","E_COORD97":166149.75,"N_COORD97":2560778.3500000001,"ADDRESS":"鎮山街３４６巷５號","OBJECTID":274803},"geometry":{"x":166149.75,"y":2560778.3500000015}},{"attributes":{"ID":274809,"DIS_CODE":0,"TOWNNAME":"佳里區","LI":"鎮山里","LIN":"20鄰","STREET":"鎮山街","SECT":" ","MAREA":" ","LANE":"３４６巷","ALLEY":" ","HOUSE_NO":"６號","E_COORD97":166161.5,"N_COORD97":2560778.23,"ADDRESS":"鎮山街３４６巷６號","OBJECTID":274804},"geometry":{"x":166161.5,"y":2560778.2299999986}},{"attributes":{"ID":274810,"DIS_CODE":0,"TOWNNAME":"佳里區","LI":"鎮山里","LIN":"20鄰","STREET":"鎮山街","SECT":" ","MAREA":" ","LANE":"３４６巷","ALLEY":" ","HOUSE_NO":"７號","E_COORD97":166149.67000000001,"N_COORD97":2560783.2400000002,"ADDRESS":"鎮山街３４６巷７號","OBJECTID":274805},"geometry":{"x":166149.67000000086,"y":2560783.2400000002}},{"attributes":{"ID":274811,"DIS_CODE":0,"TOWNNAME":"佳里區","LI":"鎮山里","LIN":"20鄰","STREET":"鎮山街","SECT":" ","MAREA":" ","LANE":"３４６巷","ALLEY":" ","HOUSE_NO":"８號","E_COORD97":166160.95999999999,"N_COORD97":2560782.02,"ADDRESS":"鎮山街３４６巷８號","OBJECTID":274806},"geometry":{"x":166160.96000000089,"y":2560782.0199999977}},{"attributes":{"ID":274812,"DIS_CODE":0,"TOWNNAME":"佳里區","LI":"鎮山里","LIN":"20鄰","STREET":"鎮山街","SECT":" ","MAREA":" ","LANE":"３４６巷","ALLEY":" ","HOUSE_NO":"９號","E_COORD97":166149.13,"N_COORD97":2560787.1499999999,"ADDRESS":"鎮山街３４６巷９號","OBJECTID":274807},"geometry":{"x":166149.12999999896,"y":2560787.1500000022}},{"attributes":{"ID":274813,"DIS_CODE":0,"TOWNNAME":"安南區","LI":"新順里","LIN":"20鄰","STREET":"慶安路","SECT":" ","MAREA":" ","LANE":"１１５巷","ALLEY":" ","HOUSE_NO":"１０２號","E_COORD97":169242.14000000001,"N_COORD97":2549273.71,"ADDRESS":"慶安路１１５巷１０２號","OBJECTID":274808},"geometry":{"x":169242.13999999966,"y":2549273.7100000028}},{"attributes":{"ID":274814,"DIS_CODE":0,"TOWNNAME":"安南區","LI":"新順里","LIN":"20鄰","STREET":"慶安路","SECT":" ","MAREA":" ","LANE":"１１５巷","ALLEY":" ","HOUSE_NO":"９８號","E_COORD97":169251.10999999999,"N_COORD97":2549273.6200000001,"ADDRESS":"慶安路１１５巷９８號","OBJECTID":274809},"geometry":{"x":169251.11000000127,"y":2549273.6200000029}},{"attributes":{"ID":274815,"DIS_CODE":0,"TOWNNAME":"安南區","LI":"新順里","LIN":"20鄰","STREET":"慶安路","SECT":" ","MAREA":" ","LANE":"１１５巷","ALLEY":" ","HOUSE_NO":"９６號","E_COORD97":169255.59,"N_COORD97":2549273.7999999998,"ADDRESS":"慶安路１１５巷９６號","OBJECTID":274810},"geometry":{"x":169255.59000000078,"y":2549273.8000000007}},{"attributes":{"ID":274816,"DIS_CODE":0,"TOWNNAME":"安南區","LI":"新順里","LIN":"20鄰","STREET":"慶安路","SECT":" ","MAREA":" ","LANE":"１１５巷","ALLEY":" ","HOUSE_NO":"９２號","E_COORD97":169259.37,"N_COORD97":2549273.6200000001,"ADDRESS":"慶安路１１５巷９２號","OBJECTID":274811},"geometry":{"x":169259.37000000104,"y":2549273.6200000029}},{"attributes":{"ID":274817,"DIS_CODE":0,"TOWNNAME":"安南區","LI":"新順里","LIN":"20鄰","STREET":"慶安路","SECT":" ","MAREA":" ","LANE":"１１５巷","ALLEY":" ","HOUSE_NO":"９０號","E_COORD97":169263.14999999999,"N_COORD97":2549273.5299999998,"ADDRESS":"慶安路１１５巷９０號","OBJECTID":274812},"geometry":{"x":169263.15000000037,"y":2549273.5299999993}},{"attributes":{"ID":274818,"DIS_CODE":0,"TOWNNAME":"南區","LI":"明興里","LIN":"20鄰","STREET":"金華路","SECT":"一段","MAREA":" ","LANE":"６０巷","ALLEY":" ","HOUSE_NO":"３９號","E_COORD97":167017.45999999999,"N_COORD97":2540387.1699999999,"ADDRESS":"金華路一段６０巷３９號","OBJECTID":274813},"geometry":{"x":167017.46000000089,"y":2540387.1699999999}},{"attributes":{"ID":274819,"DIS_CODE":0,"TOWNNAME":"南區","LI":"明興里","LIN":"20鄰","STREET":"金華路","SECT":"一段","MAREA":" ","LANE":"６０巷","ALLEY":" ","HOUSE_NO":"４３號","E_COORD97":167019.19,"N_COORD97":2540396.0800000001,"ADDRESS":"金華路一段６０巷４３號","OBJECTID":274814},"geometry":{"x":167019.19000000134,"y":2540396.0800000038}},{"attributes":{"ID":274820,"DIS_CODE":0,"TOWNNAME":"南區","LI":"明興里","LIN":"20鄰","STREET":"金華路","SECT":"一段","MAREA":" ","LANE":"６０巷","ALLEY":" ","HOUSE_NO":"４５號","E_COORD97":167018.62,"N_COORD97":2540399.4300000002,"ADDRESS":"金華路一段６０巷４５號","OBJECTID":274815},"geometry":{"x":167018.62000000011,"y":2540399.4299999997}},{"attributes":{"ID":274821,"DIS_CODE":0,"TOWNNAME":"南區","LI":"明興里","LIN":"20鄰","STREET":"金華路","SECT":"一段","MAREA":" ","LANE":"６０巷","ALLEY":" ","HOUSE_NO":"４７號","E_COORD97":167018.12,"N_COORD97":2540403.3100000001,"ADDRESS":"金華路一段６０巷４７號","OBJECTID":274816},"geometry":{"x":167018.12000000104,"y":2540403.3100000024}},{"attributes":{"ID":274822,"DIS_CODE":0,"TOWNNAME":"南區","LI":"明興里","LIN":"20鄰","STREET":"金華路","SECT":"一段","MAREA":" ","LANE":"６０巷","ALLEY":" ","HOUSE_NO":"４９號","E_COORD97":167017.95999999999,"N_COORD97":2540407.4399999999,"ADDRESS":"金華路一段６０巷４９號","OBJECTID":274817},"geometry":{"x":167017.95999999996,"y":2540407.4400000013}},{"attributes":{"ID":274823,"DIS_CODE":0,"TOWNNAME":"南區","LI":"明興里","LIN":"20鄰","STREET":"金華路","SECT":"一段","MAREA":" ","LANE":"６０巷","ALLEY":" ","HOUSE_NO":"５１號","E_COORD97":167018.04000000001,"N_COORD97":2540412.6299999999,"ADDRESS":"金華路一段６０巷５１號","OBJECTID":274818},"geometry":{"x":167018.0400000019,"y":2540412.6300000008}},{"attributes":{"ID":274824,"DIS_CODE":0,"TOWNNAME":"南區","LI":"明興里","LIN":"20鄰","STREET":"金華路","SECT":"一段","MAREA":" ","LANE":"６０巷","ALLEY":" ","HOUSE_NO":"５３號","E_COORD97":167020.67999999999,"N_COORD97":2540418.5600000001,"ADDRESS":"金華路一段６０巷５３號","OBJECTID":274819},"geometry":{"x":167020.68000000063,"y":2540418.5600000024}},{"attributes":{"ID":274825,"DIS_CODE":0,"TOWNNAME":"南區","LI":"明興里","LIN":"20鄰","STREET":"金華路","SECT":"一段","MAREA":" ","LANE":"６０巷","ALLEY":" ","HOUSE_NO":"５５號","E_COORD97":167022,"N_COORD97":2540425.4900000002,"ADDRESS":"金華路一段６０巷５５號","OBJECTID":274820},"geometry":{"x":167022.00000000093,"y":2540425.4900000021}},{"attributes":{"ID":274826,"DIS_CODE":0,"TOWNNAME":"南區","LI":"明興里","LIN":"20鄰","STREET":"金華路","SECT":"一段","MAREA":" ","LANE":"８４巷","ALLEY":" ","HOUSE_NO":"２號","E_COORD97":166924.26000000001,"N_COORD97":2540424.5899999999,"ADDRESS":"金華路一段８４巷２號","OBJECTID":274821},"geometry":{"x":166924.25999999978,"y":2540424.5900000017}},{"attributes":{"ID":274827,"DIS_CODE":0,"TOWNNAME":"後壁區","LI":"墨林里","LIN":"3鄰","STREET":" ","SECT":" ","MAREA":"菁寮","LANE":" ","ALLEY":" ","HOUSE_NO":"１６５號","E_COORD97":182117.63,"N_COORD97":2586624.3599999999,"ADDRESS":"菁寮１６５號","OBJECTID":274822},"geometry":{"x":182117.62999999989,"y":2586624.3599999994}},{"attributes":{"ID":274828,"DIS_CODE":0,"TOWNNAME":"後壁區","LI":"墨林里","LIN":"3鄰","STREET":" ","SECT":" ","MAREA":"菁寮","LANE":" ","ALLEY":" ","HOUSE_NO":"１６６號","E_COORD97":182096.07999999999,"N_COORD97":2586613.5499999998,"ADDRESS":"菁寮１６６號","OBJECTID":274823},"geometry":{"x":182096.08000000007,"y":2586613.5500000007}},{"attributes":{"ID":274829,"DIS_CODE":0,"TOWNNAME":"後壁區","LI":"墨林里","LIN":"3鄰","STREET":" ","SECT":" ","MAREA":"菁寮","LANE":" ","ALLEY":" ","HOUSE_NO":"１６７號","E_COORD97":182097.85000000001,"N_COORD97":2586600.0299999998,"ADDRESS":"菁寮１６７號","OBJECTID":274824},"geometry":{"x":182097.85000000056,"y":2586600.0300000012}},{"attributes":{"ID":274830,"DIS_CODE":0,"TOWNNAME":"後壁區","LI":"墨林里","LIN":"3鄰","STREET":" ","SECT":" ","MAREA":"菁寮","LANE":" ","ALLEY":" ","HOUSE_NO":"１６８號","E_COORD97":182122.44,"N_COORD97":2586607.1800000002,"ADDRESS":"菁寮１６８號","OBJECTID":274825},"geometry":{"x":182122.44000000041,"y":2586607.1800000016}},{"attributes":{"ID":274831,"DIS_CODE":0,"TOWNNAME":"後壁區","LI":"墨林里","LIN":"3鄰","STREET":" ","SECT":" ","MAREA":"菁寮","LANE":" ","ALLEY":" ","HOUSE_NO":"１６９號","E_COORD97":182120.60000000001,"N_COORD97":2586590.6299999999,"ADDRESS":"菁寮１６９號","OBJECTID":274826},"geometry":{"x":182120.59999999963,"y":2586590.629999999}},{"attributes":{"ID":274832,"DIS_CODE":0,"TOWNNAME":"後壁區","LI":"墨林里","LIN":"3鄰","STREET":" ","SECT":" ","MAREA":"菁寮","LANE":" ","ALLEY":" ","HOUSE_NO":"１７２號之１","E_COORD97":182192.32000000001,"N_COORD97":2586587.0600000001,"ADDRESS":"菁寮１７２號之１","OBJECTID":274827},"geometry":{"x":182192.32000000123,"y":2586587.0599999987}},{"attributes":{"ID":274833,"DIS_CODE":0,"TOWNNAME":"南區","LI":"明興里","LIN":"20鄰","STREET":"金華路","SECT":"一段","MAREA":" ","LANE":"８４巷","ALLEY":" ","HOUSE_NO":"３號","E_COORD97":166933.10000000001,"N_COORD97":2540434.8399999999,"ADDRESS":"金華路一段８４巷３號","OBJECTID":274828},"geometry":{"x":166933.10000000056,"y":2540434.8400000036}},{"attributes":{"ID":274834,"DIS_CODE":0,"TOWNNAME":"後壁區","LI":"新東里","LIN":"3鄰","STREET":" ","SECT":" ","MAREA":"新港東","LANE":" ","ALLEY":" ","HOUSE_NO":"３６號","E_COORD97":181420.03,"N_COORD97":2581934.5299999998,"ADDRESS":"新港東３６號","OBJECTID":274829},"geometry":{"x":181420.03000000026,"y":2581934.5300000031}},{"attributes":{"ID":274835,"DIS_CODE":0,"TOWNNAME":"後壁區","LI":"新東里","LIN":"3鄰","STREET":" ","SECT":" ","MAREA":"新港東","LANE":" ","ALLEY":" ","HOUSE_NO":"２２號","E_COORD97":181345.92000000001,"N_COORD97":2581873.96,"ADDRESS":"新港東２２號","OBJECTID":274830},"geometry":{"x":181345.91999999993,"y":2581873.9600000009}},{"attributes":{"ID":274836,"DIS_CODE":0,"TOWNNAME":"善化區","LI":"坐駕里","LIN":"15鄰","STREET":"大成路","SECT":" ","MAREA":" ","LANE":" ","ALLEY":" ","HOUSE_NO":"１９５號","E_COORD97":178409.10000000001,"N_COORD97":2558804.5,"ADDRESS":"大成路１９５號","OBJECTID":274831},"geometry":{"x":178409.10000000056,"y":2558804.5000000019}},{"attributes":{"ID":274837,"DIS_CODE":0,"TOWNNAME":"仁德區","LI":"大甲里","LIN":"18鄰","STREET":"行大一街","SECT":" ","MAREA":" ","LANE":" ","ALLEY":" ","HOUSE_NO":"４７１號","E_COORD97":169271.35999999999,"N_COORD97":2535250.5,"ADDRESS":"行大一街４７１號","OBJECTID":274832},"geometry":{"x":169271.36000000127,"y":2535250.5000000019}},{"attributes":{"ID":274838,"DIS_CODE":0,"TOWNNAME":"仁德區","LI":"土庫里","LIN":"17鄰","STREET":"土庫一街","SECT":" ","MAREA":" ","LANE":" ","ALLEY":" ","HOUSE_NO":"９３號","E_COORD97":174604.73000000001,"N_COORD97":2543049.9900000002,"ADDRESS":"土庫一街９３號","OBJECTID":274833},"geometry":{"x":174604.73000000231,"y":2543049.9900000002}},{"attributes":{"ID":274839,"DIS_CODE":0,"TOWNNAME":"仁德區","LI":"仁義里","LIN":"17鄰","STREET":"義林二街","SECT":" ","MAREA":" ","LANE":" ","ALLEY":" ","HOUSE_NO":"１４６號","E_COORD97":174159.81,"N_COORD97":2541335.77,"ADDRESS":"義林二街１４６號","OBJECTID":274834},"geometry":{"x":174159.81000000052,"y":2541335.7699999996}},{"attributes":{"ID":274840,"DIS_CODE":0,"TOWNNAME":"仁德區","LI":"仁義里","LIN":"26鄰","STREET":"中清五街","SECT":" ","MAREA":" ","LANE":" ","ALLEY":" ","HOUSE_NO":"９號","E_COORD97":173390.98000000001,"N_COORD97":2541420.04,"ADDRESS":"中清五街９號","OBJECTID":274835},"geometry":{"x":173390.98000000231,"y":2541420.040000001}},{"attributes":{"ID":274841,"DIS_CODE":0,"TOWNNAME":"仁德區","LI":"仁義里","LIN":"4鄰","STREET":"仁義四街","SECT":" ","MAREA":" ","LANE":" ","ALLEY":" ","HOUSE_NO":"４９號","E_COORD97":173818.28,"N_COORD97":2541061.27,"ADDRESS":"仁義四街４９號","OBJECTID":274836},"geometry":{"x":173818.28000000119,"y":2541061.2699999996}},{"attributes":{"ID":274842,"DIS_CODE":0,"TOWNNAME":"仁德區","LI":"土庫里","LIN":"4鄰","STREET":"中正路","SECT":"三段","MAREA":" ","LANE":" ","ALLEY":" ","HOUSE_NO":"４９２號","E_COORD97":174026.82000000001,"N_COORD97":2543006.0299999998,"ADDRESS":"中正路三段４９２號","OBJECTID":274837},"geometry":{"x":174026.8200000003,"y":2543006.0299999975}},{"attributes":{"ID":274843,"DIS_CODE":0,"TOWNNAME":"仁德區","LI":"大甲里","LIN":"18鄰","STREET":"行大一街","SECT":" ","MAREA":" ","LANE":" ","ALLEY":" ","HOUSE_NO":"４８８號","E_COORD97":169331.64000000001,"N_COORD97":2535245.75,"ADDRESS":"行大一街４８８號","OBJECTID":274838},"geometry":{"x":169331.6400000006,"y":2535245.7500000019}},{"attributes":{"ID":274844,"DIS_CODE":0,"TOWNNAME":"仁德區","LI":"大甲里","LIN":"18鄰","STREET":"中正西路","SECT":" ","MAREA":" ","LANE":" ","ALLEY":" ","HOUSE_NO":"４１０號","E_COORD97":169527.70999999999,"N_COORD97":2535437.75,"ADDRESS":"中正西路４１０號","OBJECTID":274839},"geometry":{"x":169527.71000000089,"y":2535437.75}},{"attributes":{"ID":274845,"DIS_CODE":0,"TOWNNAME":"仁德區","LI":"仁義里","LIN":"26鄰","STREET":"中清五街","SECT":" ","MAREA":" ","LANE":" ","ALLEY":" ","HOUSE_NO":"３號","E_COORD97":173387.38,"N_COORD97":2541404.04,"ADDRESS":"中清五街３號","OBJECTID":274840},"geometry":{"x":173387.37999999989,"y":2541404.0399999991}},{"attributes":{"ID":274846,"DIS_CODE":0,"TOWNNAME":"仁德區","LI":"仁義里","LIN":"32鄰","STREET":"中清三街","SECT":" ","MAREA":" ","LANE":" ","ALLEY":" ","HOUSE_NO":"３２號","E_COORD97":173508.42999999999,"N_COORD97":2541542.0499999998,"ADDRESS":"中清三街３２號","OBJECTID":274841},"geometry":{"x":173508.4299999997,"y":2541542.0500000007}},{"attributes":{"ID":274847,"DIS_CODE":0,"TOWNNAME":"南區","LI":"明興里","LIN":"20鄰","STREET":"金華路","SECT":"一段","MAREA":" ","LANE":"８４巷","ALLEY":" ","HOUSE_NO":"２０號","E_COORD97":166966.70000000001,"N_COORD97":2540428.5499999998,"ADDRESS":"金華路一段８４巷２０號","OBJECTID":274842},"geometry":{"x":166966.70000000112,"y":2540428.5500000026}},{"attributes":{"ID":274848,"DIS_CODE":0,"TOWNNAME":"南區","LI":"明興里","LIN":"20鄰","STREET":"金華路","SECT":"一段","MAREA":" ","LANE":"８４巷","ALLEY":" ","HOUSE_NO":"２１號","E_COORD97":166969.54999999999,"N_COORD97":2540437.0699999998,"ADDRESS":"金華路一段８４巷２１號","OBJECTID":274843},"geometry":{"x":166969.54999999981,"y":2540437.070000004}},{"attributes":{"ID":274849,"DIS_CODE":0,"TOWNNAME":"南區","LI":"明興里","LIN":"20鄰","STREET":"金華路","SECT":"一段","MAREA":" ","LANE":"８４巷","ALLEY":" ","HOUSE_NO":"４５號","E_COORD97":167031.42999999999,"N_COORD97":2540442.7599999998,"ADDRESS":"金華路一段８４巷４５號","OBJECTID":274844},"geometry":{"x":167031.4299999997,"y":2540442.7600000016}},{"attributes":{"ID":274850,"DIS_CODE":0,"TOWNNAME":"南區","LI":"明興里","LIN":"20鄰","STREET":"金華路","SECT":"一段","MAREA":" ","LANE":"８４巷","ALLEY":" ","HOUSE_NO":"４６號","E_COORD97":167056.95000000001,"N_COORD97":2540430.6299999999,"ADDRESS":"金華路一段８４巷４６號","OBJECTID":274845},"geometry":{"x":167056.95000000019,"y":2540430.629999999}},{"attributes":{"ID":274851,"DIS_CODE":0,"TOWNNAME":"南區","LI":"明興里","LIN":"20鄰","STREET":"金華路","SECT":"一段","MAREA":" ","LANE":"８４巷","ALLEY":" ","HOUSE_NO":"４７號","E_COORD97":167036.29999999999,"N_COORD97":2540442.5099999998,"ADDRESS":"金華路一段８４巷４７號","OBJECTID":274846},"geometry":{"x":167036.30000000168,"y":2540442.5099999998}},{"attributes":{"ID":274852,"DIS_CODE":0,"TOWNNAME":"東區","LI":"東安里","LIN":"20鄰","STREET":"衛國街","SECT":" ","MAREA":" ","LANE":"３６巷","ALLEY":" ","HOUSE_NO":"２號","E_COORD97":170277.01000000001,"N_COORD97":2543037.6800000002,"ADDRESS":"衛國街３６巷２號","OBJECTID":274847},"geometry":{"x":170277.00999999978,"y":2543037.6800000016}},{"attributes":{"ID":274853,"DIS_CODE":0,"TOWNNAME":"東區","LI":"東安里","LIN":"20鄰","STREET":"衛國街","SECT":" ","MAREA":" ","LANE":"３６巷","ALLEY":" ","HOUSE_NO":"３號","E_COORD97":170281.37,"N_COORD97":2543043.7599999998,"ADDRESS":"衛國街３６巷３號","OBJECTID":274848},"geometry":{"x":170281.37000000104,"y":2543043.7600000016}},{"attributes":{"ID":274854,"DIS_CODE":0,"TOWNNAME":"東區","LI":"東安里","LIN":"20鄰","STREET":"衛國街","SECT":" ","MAREA":" ","LANE":"３６巷","ALLEY":" ","HOUSE_NO":"４號","E_COORD97":170280.37,"N_COORD97":2543036.96,"ADDRESS":"衛國街３６巷４號","OBJECTID":274849},"geometry":{"x":170280.37000000011,"y":2543036.9600000028}},{"attributes":{"ID":274855,"DIS_CODE":0,"TOWNNAME":"東區","LI":"東安里","LIN":"20鄰","STREET":"衛國街","SECT":" ","MAREA":" ","LANE":"３６巷","ALLEY":" ","HOUSE_NO":"５號","E_COORD97":170284.64000000001,"N_COORD97":2543043.04,"ADDRESS":"衛國街３６巷５號","OBJECTID":274850},"geometry":{"x":170284.63999999966,"y":2543043.0399999972}},{"attributes":{"ID":274856,"DIS_CODE":0,"TOWNNAME":"東區","LI":"東安里","LIN":"20鄰","STREET":"衛國街","SECT":" ","MAREA":" ","LANE":"３６巷","ALLEY":" ","HOUSE_NO":"６號","E_COORD97":170283.37,"N_COORD97":2543036.3300000001,"ADDRESS":"衛國街３６巷６號","OBJECTID":274851},"geometry":{"x":170283.37000000011,"y":2543036.3300000019}},{"attributes":{"ID":274857,"DIS_CODE":0,"TOWNNAME":"東區","LI":"東安里","LIN":"20鄰","STREET":"衛國街","SECT":" ","MAREA":" ","LANE":"３６巷","ALLEY":" ","HOUSE_NO":"７號","E_COORD97":170288.45000000001,"N_COORD97":2543042.6800000002,"ADDRESS":"衛國街３６巷７號","OBJECTID":274852},"geometry":{"x":170288.45000000019,"y":2543042.6799999978}},{"attributes":{"ID":274858,"DIS_CODE":0,"TOWNNAME":"東區","LI":"東安里","LIN":"20鄰","STREET":"衛國街","SECT":" ","MAREA":" ","LANE":"３６巷","ALLEY":" ","HOUSE_NO":"８號","E_COORD97":170286.82000000001,"N_COORD97":2543035.5099999998,"ADDRESS":"衛國街３６巷８號","OBJECTID":274853},"geometry":{"x":170286.82000000123,"y":2543035.5100000016}},{"attributes":{"ID":274859,"DIS_CODE":0,"TOWNNAME":"東區","LI":"後甲里","LIN":"20鄰","STREET":"裕農路","SECT":" ","MAREA":" ","LANE":"７７１巷","ALLEY":" ","HOUSE_NO":"３０號","E_COORD97":171898.67999999999,"N_COORD97":2543345.6299999999,"ADDRESS":"裕農路７７１巷３０號","OBJECTID":274854},"geometry":{"x":171898.67999999877,"y":2543345.6300000008}},{"attributes":{"ID":274860,"DIS_CODE":0,"TOWNNAME":"東區","LI":"後甲里","LIN":"20鄰","STREET":"裕農路","SECT":" ","MAREA":" ","LANE":"７７１巷","ALLEY":" ","HOUSE_NO":"２８號","E_COORD97":171899.20999999999,"N_COORD97":2543341.3999999999,"ADDRESS":"裕農路７７１巷２８號","OBJECTID":274855},"geometry":{"x":171899.21000000089,"y":2543341.4000000022}},{"attributes":{"ID":274861,"DIS_CODE":0,"TOWNNAME":"東區","LI":"後甲里","LIN":"20鄰","STREET":"裕農路","SECT":" ","MAREA":" ","LANE":"７７１巷","ALLEY":" ","HOUSE_NO":"２６號","E_COORD97":171899.47,"N_COORD97":2543337.1600000001,"ADDRESS":"裕農路７７１巷２６號","OBJECTID":274856},"geometry":{"x":171899.46999999974,"y":2543337.1600000001}},{"attributes":{"ID":274862,"DIS_CODE":0,"TOWNNAME":"東區","LI":"後甲里","LIN":"20鄰","STREET":"裕農路","SECT":" ","MAREA":" ","LANE":"７７１巷","ALLEY":" ","HOUSE_NO":"２４號","E_COORD97":171900.26999999999,"N_COORD97":2543333.1899999999,"ADDRESS":"裕農路７７１巷２４號","OBJECTID":274857},"geometry":{"x":171900.27000000048,"y":2543333.1899999995}},{"attributes":{"ID":274863,"DIS_CODE":0,"TOWNNAME":"東區","LI":"後甲里","LIN":"20鄰","STREET":"裕農路","SECT":" ","MAREA":" ","LANE":"７７１巷","ALLEY":" ","HOUSE_NO":"８號","E_COORD97":171903.98000000001,"N_COORD97":2543300.3199999998,"ADDRESS":"裕農路７７１巷８號","OBJECTID":274858},"geometry":{"x":171903.98000000045,"y":2543300.320000004}},{"attributes":{"ID":274864,"DIS_CODE":0,"TOWNNAME":"安南區","LI":"海東里","LIN":"20鄰","STREET":"海佃路","SECT":"二段","MAREA":" ","LANE":"２２５巷","ALLEY":" ","HOUSE_NO":"７號","E_COORD97":166869.07000000001,"N_COORD97":2548424.52,"ADDRESS":"海佃路二段２２５巷７號","OBJECTID":274859},"geometry":{"x":166869.07000000123,"y":2548424.5200000033}},{"attributes":{"ID":274865,"DIS_CODE":0,"TOWNNAME":"安南區","LI":"\u25A0南里","LIN":"20鄰","STREET":"環福街","SECT":" ","MAREA":" ","LANE":"１４０巷","ALLEY":" ","HOUSE_NO":"２７號","E_COORD97":170443.72,"N_COORD97":2552546.6600000001,"ADDRESS":"環福街１４０巷２７號","OBJECTID":274860},"geometry":{"x":170443.71999999974,"y":2552546.6600000039}},{"attributes":{"ID":274866,"DIS_CODE":0,"TOWNNAME":"安南區","LI":"\u25A0南里","LIN":"20鄰","STREET":"環福街","SECT":" ","MAREA":" ","LANE":"１４０巷","ALLEY":" ","HOUSE_NO":"９號","E_COORD97":170396.17999999999,"N_COORD97":2552543.96,"ADDRESS":"環福街１４０巷９號","OBJECTID":274861},"geometry":{"x":170396.1799999997,"y":2552543.9600000009}},{"attributes":{"ID":274867,"DIS_CODE":0,"TOWNNAME":"永康區","LI":"東橋里","LIN":"20鄰","STREET":"自強路","SECT":" ","MAREA":" ","LANE":"２２巷","ALLEY":" ","HOUSE_NO":"７號","E_COORD97":172760.23999999999,"N_COORD97":2547123.2400000002,"ADDRESS":"自強路２２巷７號","OBJECTID":274862},"geometry":{"x":172760.24000000209,"y":2547123.2400000021}},{"attributes":{"ID":274868,"DIS_CODE":0,"TOWNNAME":"永康區","LI":"崑山里","LIN":"20鄰","STREET":"崑山街","SECT":" ","MAREA":" ","LANE":"２１巷","ALLEY":" ","HOUSE_NO":"２９號","E_COORD97":173839.09,"N_COORD97":2544572.4199999999,"ADDRESS":"崑山街２１巷２９號","OBJECTID":274863},"geometry":{"x":173839.09000000078,"y":2544572.4199999999}},{"attributes":{"ID":274869,"DIS_CODE":0,"TOWNNAME":"永康區","LI":"南灣里","LIN":"20鄰","STREET":"立興街","SECT":" ","MAREA":" ","LANE":"１７６巷","ALLEY":" ","HOUSE_NO":"５之７號","E_COORD97":174283.07000000001,"N_COORD97":2544618.3999999999,"ADDRESS":"立興街１７６巷５之７號","OBJECTID":274864},"geometry":{"x":174283.0700000003,"y":2544618.3999999985}},{"attributes":{"ID":274870,"DIS_CODE":0,"TOWNNAME":"永康區","LI":"南灣里","LIN":"20鄰","STREET":"立興街","SECT":" ","MAREA":" ","LANE":"１７６巷","ALLEY":" ","HOUSE_NO":"７號","E_COORD97":174286.59,"N_COORD97":2544636.71,"ADDRESS":"立興街１７６巷７號","OBJECTID":274865},"geometry":{"x":174286.59000000078,"y":2544636.7100000009}},{"attributes":{"ID":274871,"DIS_CODE":0,"TOWNNAME":"安南區","LI":"四草里","LIN":"7鄰","STREET":"四草大道","SECT":" ","MAREA":" ","LANE":" ","ALLEY":" ","HOUSE_NO":"４８０號","E_COORD97":161151.135771,"N_COORD97":2545643.4212500001,"ADDRESS":"四草大道４８０號","OBJECTID":274866},"geometry":{"x":161151.13577100169,"y":2545643.4212520048}},{"attributes":{"ID":274872,"DIS_CODE":0,"TOWNNAME":"永康區","LI":"龍潭里","LIN":"3鄰","STREET":"龍國街","SECT":" ","MAREA":" ","LANE":" ","ALLEY":" ","HOUSE_NO":"２１７號","E_COORD97":174464.22,"N_COORD97":2548063.0600000001,"ADDRESS":"龍國街２１７號","OBJECTID":274867},"geometry":{"x":174464.22000000067,"y":2548063.0600000024}},{"attributes":{"ID":274873,"DIS_CODE":0,"TOWNNAME":"永康區","LI":"南灣里","LIN":"20鄰","STREET":"立興街","SECT":" ","MAREA":" ","LANE":"１７６巷","ALLEY":" ","HOUSE_NO":"１號","E_COORD97":174255.34,"N_COORD97":2544654,"ADDRESS":"立興街１７６巷１號","OBJECTID":274868},"geometry":{"x":174255.33999999985,"y":2544654}},{"attributes":{"ID":274874,"DIS_CODE":0,"TOWNNAME":"永康區","LI":"東橋里","LIN":"20鄰","STREET":"中山南路","SECT":" ","MAREA":" ","LANE":"３６５巷","ALLEY":" ","HOUSE_NO":"２號之４５","E_COORD97":172810.41,"N_COORD97":2547070.1400000001,"ADDRESS":"中山南路３６５巷２號之４５","OBJECTID":274869},"geometry":{"x":172810.41000000108,"y":2547070.1400000025}},{"attributes":{"ID":274875,"DIS_CODE":0,"TOWNNAME":"永康區","LI":"南灣里","LIN":"20鄰","STREET":"大灣路","SECT":" ","MAREA":" ","LANE":"７６４巷","ALLEY":" ","HOUSE_NO":"１００號","E_COORD97":174249.54999999999,"N_COORD97":2544702.4700000002,"ADDRESS":"大灣路７６４巷１００號","OBJECTID":274870},"geometry":{"x":174249.55000000075,"y":2544702.4700000007}},{"attributes":{"ID":274876,"DIS_CODE":0,"TOWNNAME":"安南區","LI":"理想里","LIN":"20鄰","STREET":"同安路","SECT":" ","MAREA":" ","LANE":"８０巷","ALLEY":" ","HOUSE_NO":"６０號","E_COORD97":167046.35999999999,"N_COORD97":2548808.8100000001,"ADDRESS":"同安路８０巷６０號","OBJECTID":274871},"geometry":{"x":167046.36000000034,"y":2548808.8100000005}},{"attributes":{"ID":274877,"DIS_CODE":0,"TOWNNAME":"安南區","LI":"理想里","LIN":"20鄰","STREET":"同安路","SECT":" ","MAREA":" ","LANE":"８０巷","ALLEY":" ","HOUSE_NO":"６６號","E_COORD97":167065.79999999999,"N_COORD97":2548792.7400000002,"ADDRESS":"同安路８０巷６６號","OBJECTID":274872},"geometry":{"x":167065.80000000075,"y":2548792.7400000002}},{"attributes":{"ID":274878,"DIS_CODE":0,"TOWNNAME":"安南區","LI":"理想里","LIN":"20鄰","STREET":"同安路","SECT":" ","MAREA":" ","LANE":"６８巷","ALLEY":" ","HOUSE_NO":"１０號","E_COORD97":166914.48000000001,"N_COORD97":2548862.4300000002,"ADDRESS":"同安路６８巷１０號","OBJECTID":274873},"geometry":{"x":166914.48000000138,"y":2548862.4300000034}},{"attributes":{"ID":274879,"DIS_CODE":0,"TOWNNAME":"安南區","LI":"理想里","LIN":"20鄰","STREET":"同安路","SECT":" ","MAREA":" ","LANE":"６８巷","ALLEY":" ","HOUSE_NO":"１２號","E_COORD97":166917.07999999999,"N_COORD97":2548858.9700000002,"ADDRESS":"同安路６８巷１２號","OBJECTID":274874},"geometry":{"x":166917.08000000007,"y":2548858.9700000007}},{"attributes":{"ID":274880,"DIS_CODE":0,"TOWNNAME":"安南區","LI":"理想里","LIN":"20鄰","STREET":"同安路","SECT":" ","MAREA":" ","LANE":"６８巷","ALLEY":" ","HOUSE_NO":"１６號","E_COORD97":166919.39999999999,"N_COORD97":2548854.9199999999,"ADDRESS":"同安路６８巷１６號","OBJECTID":274875},"geometry":{"x":166919.4000000013,"y":2548854.9199999999}},{"attributes":{"ID":274881,"DIS_CODE":0,"TOWNNAME":"安南區","LI":"理想里","LIN":"20鄰","STREET":"同安路","SECT":" ","MAREA":" ","LANE":"６８巷","ALLEY":" ","HOUSE_NO":"１８號","E_COORD97":166922.29000000001,"N_COORD97":2548852.0299999998,"ADDRESS":"同安路６８巷１８號","OBJECTID":274876},"geometry":{"x":166922.29000000004,"y":2548852.0300000012}},{"attributes":{"ID":274882,"DIS_CODE":0,"TOWNNAME":"安南區","LI":"理想里","LIN":"20鄰","STREET":"同安路","SECT":" ","MAREA":" ","LANE":"６８巷","ALLEY":" ","HOUSE_NO":"２０號","E_COORD97":166924.01999999999,"N_COORD97":2548847.6899999999,"ADDRESS":"同安路６８巷２０號","OBJECTID":274877},"geometry":{"x":166924.01999999955,"y":2548847.6900000013}},{"attributes":{"ID":274883,"DIS_CODE":0,"TOWNNAME":"安南區","LI":"理想里","LIN":"20鄰","STREET":"同安路","SECT":" ","MAREA":" ","LANE":"６８巷","ALLEY":" ","HOUSE_NO":"２２號","E_COORD97":166926.34,"N_COORD97":2548844.2200000002,"ADDRESS":"同安路６８巷２２號","OBJECTID":274878},"geometry":{"x":166926.34000000078,"y":2548844.2200000007}},{"attributes":{"ID":274884,"DIS_CODE":0,"TOWNNAME":"安南區","LI":"理想里","LIN":"20鄰","STREET":"同安路","SECT":" ","MAREA":" ","LANE":"６８巷","ALLEY":" ","HOUSE_NO":"２３號","E_COORD97":166959.01000000001,"N_COORD97":2548852.27,"ADDRESS":"同安路６８巷２３號","OBJECTID":274879},"geometry":{"x":166959.01000000071,"y":2548852.2699999996}},{"attributes":{"ID":274885,"DIS_CODE":0,"TOWNNAME":"安南區","LI":"理想里","LIN":"20鄰","STREET":"同安路","SECT":" ","MAREA":" ","LANE":"６８巷","ALLEY":" ","HOUSE_NO":"２５號","E_COORD97":166962.09,"N_COORD97":2548848.6699999999,"ADDRESS":"同安路６８巷２５號","OBJECTID":274880},"geometry":{"x":166962.09000000078,"y":2548848.6700000018}},{"attributes":{"ID":274886,"DIS_CODE":0,"TOWNNAME":"安南區","LI":"理想里","LIN":"20鄰","STREET":"同安路","SECT":" ","MAREA":" ","LANE":"６８巷","ALLEY":" ","HOUSE_NO":"２６號","E_COORD97":166928.94,"N_COORD97":2548840.1800000002,"ADDRESS":"同安路６８巷２６號","OBJECTID":274881},"geometry":{"x":166928.94000000041,"y":2548840.1799999978}},{"attributes":{"ID":274887,"DIS_CODE":0,"TOWNNAME":"安南區","LI":"理想里","LIN":"20鄰","STREET":"同安路","SECT":" ","MAREA":" ","LANE":"６８巷","ALLEY":" ","HOUSE_NO":"２７號","E_COORD97":166965.17999999999,"N_COORD97":2548844.8100000001,"ADDRESS":"同安路６８巷２７號","OBJECTID":274882},"geometry":{"x":166965.1799999997,"y":2548844.8100000024}},{"attributes":{"ID":274888,"DIS_CODE":0,"TOWNNAME":"安南區","LI":"理想里","LIN":"20鄰","STREET":"同安路","SECT":" ","MAREA":" ","LANE":"６８巷","ALLEY":" ","HOUSE_NO":"２８號","E_COORD97":166930.97,"N_COORD97":2548836.71,"ADDRESS":"同安路６８巷２８號","OBJECTID":274883},"geometry":{"x":166930.96999999974,"y":2548836.7100000009}},{"attributes":{"ID":274889,"DIS_CODE":0,"TOWNNAME":"佳里區","LI":"子龍里","LIN":"3鄰","STREET":" ","SECT":" ","MAREA":"子良廟","LANE":" ","ALLEY":" ","HOUSE_NO":"２５號之１","E_COORD97":168890.45000000001,"N_COORD97":2563990.21,"ADDRESS":"子良廟２５號之１","OBJECTID":274884},"geometry":{"x":168890.45000000112,"y":2563990.2100000028}},{"attributes":{"ID":274890,"DIS_CODE":0,"TOWNNAME":"佳里區","LI":"子龍里","LIN":"3鄰","STREET":" ","SECT":" ","MAREA":"子良廟","LANE":" ","ALLEY":" ","HOUSE_NO":"２５號","E_COORD97":168913.51000000001,"N_COORD97":2563979.9399999999,"ADDRESS":"子良廟２５號","OBJECTID":274885},"geometry":{"x":168913.51000000071,"y":2563979.9400000032}},{"attributes":{"ID":274891,"DIS_CODE":0,"TOWNNAME":"安南區","LI":"理想里","LIN":"20鄰","STREET":"同安路","SECT":" ","MAREA":" ","LANE":"６８巷","ALLEY":" ","HOUSE_NO":"２９號","E_COORD97":166968.01000000001,"N_COORD97":2548842.2400000002,"ADDRESS":"同安路６８巷２９號","OBJECTID":274886},"geometry":{"x":166968.00999999978,"y":2548842.2400000021}},{"attributes":{"ID":274892,"DIS_CODE":0,"TOWNNAME":"安南區","LI":"理想里","LIN":"20鄰","STREET":"同安路","SECT":" ","MAREA":" ","LANE":"６８巷","ALLEY":" ","HOUSE_NO":"２號","E_COORD97":166907.54000000001,"N_COORD97":2548871.9700000002,"ADDRESS":"同安路６８巷２號","OBJECTID":274887},"geometry":{"x":166907.54000000004,"y":2548871.9700000007}},{"attributes":{"ID":274893,"DIS_CODE":0,"TOWNNAME":"安南區","LI":"理想里","LIN":"20鄰","STREET":"同安路","SECT":" ","MAREA":" ","LANE":"６８巷","ALLEY":" ","HOUSE_NO":"３０號","E_COORD97":166933.28,"N_COORD97":2548833.8199999998,"ADDRESS":"同安路６８巷３０號","OBJECTID":274888},"geometry":{"x":166933.28000000026,"y":2548833.8200000022}},{"attributes":{"ID":274894,"DIS_CODE":0,"TOWNNAME":"安南區","LI":"理想里","LIN":"20鄰","STREET":"同安路","SECT":" ","MAREA":" ","LANE":"６８巷","ALLEY":" ","HOUSE_NO":"３１號","E_COORD97":166970.57999999999,"N_COORD97":2548838.3799999999,"ADDRESS":"同安路６８巷３１號","OBJECTID":274889},"geometry":{"x":166970.58000000101,"y":2548838.3800000027}},{"attributes":{"ID":274895,"DIS_CODE":0,"TOWNNAME":"安南區","LI":"理想里","LIN":"20鄰","STREET":"同安路","SECT":" ","MAREA":" ","LANE":"６８巷","ALLEY":" ","HOUSE_NO":"３２號","E_COORD97":166936.17000000001,"N_COORD97":2548829.77,"ADDRESS":"同安路６８巷３２號","OBJECTID":274890},"geometry":{"x":166936.17000000086,"y":2548829.7700000033}},{"attributes":{"ID":274896,"DIS_CODE":0,"TOWNNAME":"安南區","LI":"理想里","LIN":"20鄰","STREET":"同安路","SECT":" ","MAREA":" ","LANE":"６８巷","ALLEY":" ","HOUSE_NO":"３３號","E_COORD97":166972.89999999999,"N_COORD97":2548836.0800000001,"ADDRESS":"同安路６８巷３３號","OBJECTID":274891},"geometry":{"x":166972.90000000037,"y":2548836.0800000019}},{"attributes":{"ID":274897,"DIS_CODE":0,"TOWNNAME":"安南區","LI":"理想里","LIN":"20鄰","STREET":"同安路","SECT":" ","MAREA":" ","LANE":"６８巷","ALLEY":" ","HOUSE_NO":"３５號","E_COORD97":166974.95000000001,"N_COORD97":2548831.71,"ADDRESS":"同安路６８巷３５號","OBJECTID":274892},"geometry":{"x":166974.95000000112,"y":2548831.7100000028}},{"attributes":{"ID":274898,"DIS_CODE":0,"TOWNNAME":"永康區","LI":"龍潭里","LIN":"3鄰","STREET":"龍安街","SECT":" ","MAREA":" ","LANE":"１７巷","ALLEY":" ","HOUSE_NO":"７號","E_COORD97":174520.64999999999,"N_COORD97":2548072.9100000001,"ADDRESS":"龍安街１７巷７號","OBJECTID":274893},"geometry":{"x":174520.6500000013,"y":2548072.9099999983}},{"attributes":{"ID":274899,"DIS_CODE":0,"TOWNNAME":"永康區","LI":"龍潭里","LIN":"3鄰","STREET":"龍國街","SECT":" ","MAREA":" ","LANE":" ","ALLEY":" ","HOUSE_NO":"２１９號","E_COORD97":174468.98999999999,"N_COORD97":2548057.3100000001,"ADDRESS":"龍國街２１９號","OBJECTID":274894},"geometry":{"x":174468.99000000209,"y":2548057.3100000042}},{"attributes":{"ID":274900,"DIS_CODE":0,"TOWNNAME":"佳里區","LI":"子龍里","LIN":"3鄰","STREET":" ","SECT":" ","MAREA":"子良廟","LANE":" ","ALLEY":" ","HOUSE_NO":"２６號","E_COORD97":168915.79999999999,"N_COORD97":2564016.5800000001,"ADDRESS":"子良廟２６號","OBJECTID":274895},"geometry":{"x":168915.79999999981,"y":2564016.5799999982}},{"attributes":{"ID":274901,"DIS_CODE":0,"TOWNNAME":"佳里區","LI":"子龍里","LIN":"3鄰","STREET":" ","SECT":" ","MAREA":"子良廟","LANE":" ","ALLEY":" ","HOUSE_NO":"２７號","E_COORD97":168878.87,"N_COORD97":2564047.1299999999,"ADDRESS":"子良廟２７號","OBJECTID":274896},"geometry":{"x":168878.87000000197,"y":2564047.1300000008}},{"attributes":{"ID":274902,"DIS_CODE":0,"TOWNNAME":"佳里區","LI":"子龍里","LIN":"3鄰","STREET":" ","SECT":" ","MAREA":"子良廟","LANE":" ","ALLEY":" ","HOUSE_NO":"２８號","E_COORD97":168905.31,"N_COORD97":2564075.23,"ADDRESS":"子良廟２８號","OBJECTID":274897},"geometry":{"x":168905.30999999959,"y":2564075.2300000023}},{"attributes":{"ID":274903,"DIS_CODE":0,"TOWNNAME":"佳里區","LI":"子龍里","LIN":"3鄰","STREET":" ","SECT":" ","MAREA":"子良廟","LANE":" ","ALLEY":" ","HOUSE_NO":"２９號","E_COORD97":168910.26999999999,"N_COORD97":2564108.6299999999,"ADDRESS":"子良廟２９號","OBJECTID":274898},"geometry":{"x":168910.26999999955,"y":2564108.629999999}},{"attributes":{"ID":274904,"DIS_CODE":0,"TOWNNAME":"佳里區","LI":"子龍里","LIN":"3鄰","STREET":" ","SECT":" ","MAREA":"子良廟","LANE":" ","ALLEY":" ","HOUSE_NO":"３０號之１","E_COORD97":168995.45999999999,"N_COORD97":2564112.9100000001,"ADDRESS":"子良廟３０號之１","OBJECTID":274899},"geometry":{"x":168995.46000000089,"y":2564112.9100000039}},{"attributes":{"ID":274905,"DIS_CODE":0,"TOWNNAME":"佳里區","LI":"子龍里","LIN":"3鄰","STREET":" ","SECT":" ","MAREA":"子良廟","LANE":" ","ALLEY":" ","HOUSE_NO":"３０號","E_COORD97":168944.35000000001,"N_COORD97":2564048.2400000002,"ADDRESS":"子良廟３０號","OBJECTID":274900},"geometry":{"x":168944.34999999963,"y":2564048.2400000002}},{"attributes":{"ID":274906,"DIS_CODE":0,"TOWNNAME":"佳里區","LI":"子龍里","LIN":"3鄰","STREET":" ","SECT":" ","MAREA":"子良廟","LANE":" ","ALLEY":" ","HOUSE_NO":"３１號","E_COORD97":168943.20999999999,"N_COORD97":2564029.0800000001,"ADDRESS":"子良廟３１號","OBJECTID":274901},"geometry":{"x":168943.21000000089,"y":2564029.0800000001}},{"attributes":{"ID":274907,"DIS_CODE":0,"TOWNNAME":"佳里區","LI":"子龍里","LIN":"3鄰","STREET":" ","SECT":" ","MAREA":"子良廟","LANE":" ","ALLEY":" ","HOUSE_NO":"３２號","E_COORD97":168940.73999999999,"N_COORD97":2563989.2599999998,"ADDRESS":"子良廟３２號","OBJECTID":274902},"geometry":{"x":168940.73999999929,"y":2563989.2600000016}},{"attributes":{"ID":274908,"DIS_CODE":0,"TOWNNAME":"七股區","LI":"竹橋里","LIN":"1鄰","STREET":" ","SECT":" ","MAREA":"竹橋","LANE":" ","ALLEY":" ","HOUSE_NO":"７號","E_COORD97":164478.53,"N_COORD97":2556118.8199999998,"ADDRESS":"竹橋７號","OBJECTID":274903},"geometry":{"x":164478.53000000026,"y":2556118.8200000003}},{"attributes":{"ID":274909,"DIS_CODE":0,"TOWNNAME":"佳里區","LI":"子龍里","LIN":"3鄰","STREET":" ","SECT":" ","MAREA":"子良廟","LANE":" ","ALLEY":" ","HOUSE_NO":"３４號之１","E_COORD97":168956.39000000001,"N_COORD97":2563956.2799999998,"ADDRESS":"子良廟３４號之１","OBJECTID":274904},"geometry":{"x":168956.3900000006,"y":2563956.2799999993}},{"attributes":{"ID":274910,"DIS_CODE":0,"TOWNNAME":"佳里區","LI":"子龍里","LIN":"3鄰","STREET":" ","SECT":" ","MAREA":"子良廟","LANE":" ","ALLEY":" ","HOUSE_NO":"３４號","E_COORD97":168940.82999999999,"N_COORD97":2563961.46,"ADDRESS":"子良廟３４號","OBJECTID":274905},"geometry":{"x":168940.83000000101,"y":2563961.4600000028}},{"attributes":{"ID":274911,"DIS_CODE":0,"TOWNNAME":"佳里區","LI":"子龍里","LIN":"3鄰","STREET":" ","SECT":" ","MAREA":"子良廟","LANE":" ","ALLEY":" ","HOUSE_NO":"３５號之１","E_COORD97":168953.82000000001,"N_COORD97":2563978.8599999999,"ADDRESS":"子良廟３５號之１","OBJECTID":274906},"geometry":{"x":168953.81999999937,"y":2563978.8599999994}},{"attributes":{"ID":274912,"DIS_CODE":0,"TOWNNAME":"佳里區","LI":"子龍里","LIN":"3鄰","STREET":" ","SECT":" ","MAREA":"子良廟","LANE":" ","ALLEY":" ","HOUSE_NO":"３５號","E_COORD97":168960.01999999999,"N_COORD97":2563964.1200000001,"ADDRESS":"子良廟３５號","OBJECTID":274907},"geometry":{"x":168960.01999999955,"y":2563964.1200000029}},{"attributes":{"ID":274913,"DIS_CODE":0,"TOWNNAME":"佳里區","LI":"子龍里","LIN":"3鄰","STREET":" ","SECT":" ","MAREA":"子良廟","LANE":" ","ALLEY":" ","HOUSE_NO":"３６號之１","E_COORD97":169039.79999999999,"N_COORD97":2564095.3900000001,"ADDRESS":"子良廟３６號之１","OBJECTID":274908},"geometry":{"x":169039.79999999981,"y":2564095.3900000006}},{"attributes":{"ID":274914,"DIS_CODE":0,"TOWNNAME":"佳里區","LI":"子龍里","LIN":"3鄰","STREET":" ","SECT":" ","MAREA":"子良廟","LANE":" ","ALLEY":" ","HOUSE_NO":"３６號之２","E_COORD97":169051.45000000001,"N_COORD97":2564298.9300000002,"ADDRESS":"子良廟３６號之２","OBJECTID":274909},"geometry":{"x":169051.45000000112,"y":2564298.9300000034}},{"attributes":{"ID":274915,"DIS_CODE":0,"TOWNNAME":"佳里區","LI":"子龍里","LIN":"3鄰","STREET":" ","SECT":" ","MAREA":"子良廟","LANE":" ","ALLEY":" ","HOUSE_NO":"３６號之３","E_COORD97":169002.39999999999,"N_COORD97":2564180.5,"ADDRESS":"子良廟３６號之３","OBJECTID":274910},"geometry":{"x":169002.40000000037,"y":2564180.5000000019}},{"attributes":{"ID":274916,"DIS_CODE":0,"TOWNNAME":"佳里區","LI":"子龍里","LIN":"3鄰","STREET":" ","SECT":" ","MAREA":"子良廟","LANE":" ","ALLEY":" ","HOUSE_NO":"３６號之４","E_COORD97":169045.10999999999,"N_COORD97":2564140.4500000002,"ADDRESS":"子良廟３６號之４","OBJECTID":274911},"geometry":{"x":169045.11000000034,"y":2564140.4500000011}},{"attributes":{"ID":274917,"DIS_CODE":0,"TOWNNAME":"佳里區","LI":"子龍里","LIN":"3鄰","STREET":" ","SECT":" ","MAREA":"子良廟","LANE":" ","ALLEY":" ","HOUSE_NO":"３６號之５","E_COORD97":168953.5,"N_COORD97":2564204.3599999999,"ADDRESS":"子良廟３６號之５","OBJECTID":274912},"geometry":{"x":168953.5,"y":2564204.3600000031}},{"attributes":{"ID":274918,"DIS_CODE":0,"TOWNNAME":"佳里區","LI":"子龍里","LIN":"3鄰","STREET":" ","SECT":" ","MAREA":"子良廟","LANE":" ","ALLEY":" ","HOUSE_NO":"３６號","E_COORD97":168970.10000000001,"N_COORD97":2563997.8700000001,"ADDRESS":"子良廟３６號","OBJECTID":274913},"geometry":{"x":168970.10000000149,"y":2563997.870000001}},{"attributes":{"ID":274919,"DIS_CODE":0,"TOWNNAME":"安南區","LI":"理想里","LIN":"20鄰","STREET":"同安路","SECT":" ","MAREA":" ","LANE":"６８巷","ALLEY":" ","HOUSE_NO":"３６號","E_COORD97":166938.48999999999,"N_COORD97":2548826.0099999998,"ADDRESS":"同安路６８巷３６號","OBJECTID":274914},"geometry":{"x":166938.49000000022,"y":2548826.0100000016}},{"attributes":{"ID":274920,"DIS_CODE":0,"TOWNNAME":"永康區","LI":"西勢里","LIN":"20鄰","STREET":"富強路","SECT":"一段","MAREA":" ","LANE":"１８５巷","ALLEY":" ","HOUSE_NO":"８３號","E_COORD97":175394.26000000001,"N_COORD97":2546524.0299999998,"ADDRESS":"富強路一段１８５巷８３號","OBJECTID":274915},"geometry":{"x":175394.26000000071,"y":2546524.0299999993}},{"attributes":{"ID":274921,"DIS_CODE":0,"TOWNNAME":"永康區","LI":"西勢里","LIN":"20鄰","STREET":"富強路","SECT":"一段","MAREA":" ","LANE":"１８５巷","ALLEY":" ","HOUSE_NO":"４號","E_COORD97":175536.14999999999,"N_COORD97":2546429.2799999998,"ADDRESS":"富強路一段１８５巷４號","OBJECTID":274916},"geometry":{"x":175536.1500000013,"y":2546429.2800000012}},{"attributes":{"ID":274922,"DIS_CODE":0,"TOWNNAME":"永康區","LI":"西勢里","LIN":"20鄰","STREET":"富強路","SECT":"一段","MAREA":" ","LANE":"１８５巷","ALLEY":" ","HOUSE_NO":"１４號","E_COORD97":175540.56,"N_COORD97":2546542.2799999998,"ADDRESS":"富強路一段１８５巷１４號","OBJECTID":274917},"geometry":{"x":175540.55999999959,"y":2546542.2800000012}},{"attributes":{"ID":274923,"DIS_CODE":0,"TOWNNAME":"東區","LI":"和平里","LIN":"20鄰","STREET":"仁和路","SECT":" ","MAREA":" ","LANE":"６９巷","ALLEY":" ","HOUSE_NO":"７號","E_COORD97":171232.29999999999,"N_COORD97":2541643.2799999998,"ADDRESS":"仁和路６９巷７號","OBJECTID":274918},"geometry":{"x":171232.30000000075,"y":2541643.2800000012}},{"attributes":{"ID":274924,"DIS_CODE":0,"TOWNNAME":"東區","LI":"和平里","LIN":"20鄰","STREET":"仁和路","SECT":" ","MAREA":" ","LANE":"６９巷","ALLEY":" ","HOUSE_NO":"１０號","E_COORD97":171237.54000000001,"N_COORD97":2541627.23,"ADDRESS":"仁和路６９巷１０號","OBJECTID":274919},"geometry":{"x":171237.54000000097,"y":2541627.2300000023}},{"attributes":{"ID":274925,"DIS_CODE":0,"TOWNNAME":"東區","LI":"和平里","LIN":"20鄰","STREET":"仁和路","SECT":" ","MAREA":" ","LANE":"６９巷","ALLEY":" ","HOUSE_NO":"１２號","E_COORD97":171242.45000000001,"N_COORD97":2541628.71,"ADDRESS":"仁和路６９巷１２號","OBJECTID":274920},"geometry":{"x":171242.45000000019,"y":2541628.7100000009}},{"attributes":{"ID":274926,"DIS_CODE":0,"TOWNNAME":"東區","LI":"和平里","LIN":"20鄰","STREET":"仁和路","SECT":" ","MAREA":" ","LANE":"６９巷","ALLEY":" ","HOUSE_NO":"１５號","E_COORD97":171253.10000000001,"N_COORD97":2541652.2799999998,"ADDRESS":"仁和路６９巷１５號","OBJECTID":274921},"geometry":{"x":171253.09999999963,"y":2541652.2800000012}},{"attributes":{"ID":274927,"DIS_CODE":0,"TOWNNAME":"東區","LI":"和平里","LIN":"20鄰","STREET":"仁和路","SECT":" ","MAREA":" ","LANE":"６９巷","ALLEY":" ","HOUSE_NO":"１８號","E_COORD97":171252.60999999999,"N_COORD97":2541632.6400000001,"ADDRESS":"仁和路６９巷１８號","OBJECTID":274922},"geometry":{"x":171252.61000000127,"y":2541632.6400000006}},{"attributes":{"ID":274928,"DIS_CODE":0,"TOWNNAME":"南區","LI":"明興里","LIN":"20鄰","STREET":"金華路","SECT":"一段","MAREA":" ","LANE":"８４巷","ALLEY":" ","HOUSE_NO":"１０號","E_COORD97":166945.10000000001,"N_COORD97":2540411.54,"ADDRESS":"金華路一段８４巷１０號","OBJECTID":274923},"geometry":{"x":166945.09999999963,"y":2540411.5399999991}},{"attributes":{"ID":274929,"DIS_CODE":0,"TOWNNAME":"東區","LI":"忠孝里","LIN":"20鄰","STREET":"榮譽街","SECT":" ","MAREA":" ","LANE":"１２７巷","ALLEY":" ","HOUSE_NO":"２１號","E_COORD97":169892.06,"N_COORD97":2541998.6200000001,"ADDRESS":"榮譽街１２７巷２１號","OBJECTID":274924},"geometry":{"x":169892.05999999959,"y":2541998.6200000029}},{"attributes":{"ID":274930,"DIS_CODE":0,"TOWNNAME":"東區","LI":"忠孝里","LIN":"20鄰","STREET":"榮譽街","SECT":" ","MAREA":" ","LANE":"１２７巷","ALLEY":" ","HOUSE_NO":"２３號","E_COORD97":169880.85000000001,"N_COORD97":2542004.96,"ADDRESS":"榮譽街１２７巷２３號","OBJECTID":274925},"geometry":{"x":169880.85000000056,"y":2542004.9600000046}},{"attributes":{"ID":274931,"DIS_CODE":0,"TOWNNAME":"北區","LI":"賢北里","LIN":"15鄰","STREET":"大興街","SECT":" ","MAREA":" ","LANE":"５６５巷","ALLEY":" ","HOUSE_NO":"１號","E_COORD97":166036.01000000001,"N_COORD97":2545428.71,"ADDRESS":"大興街５６５巷１號","OBJECTID":274926},"geometry":{"x":166036.00999999978,"y":2545428.7100000028}},{"attributes":{"ID":274932,"DIS_CODE":0,"TOWNNAME":"東區","LI":"忠孝里","LIN":"20鄰","STREET":"榮譽街","SECT":" ","MAREA":" ","LANE":"１２７巷","ALLEY":" ","HOUSE_NO":"２５號","E_COORD97":169879.73000000001,"N_COORD97":2541998.1299999999,"ADDRESS":"榮譽街１２７巷２５號","OBJECTID":274927},"geometry":{"x":169879.73000000045,"y":2541998.1300000027}},{"attributes":{"ID":274933,"DIS_CODE":0,"TOWNNAME":"安南區","LI":"佃東里","LIN":"20鄰","STREET":"公學路","SECT":"四段","MAREA":" ","LANE":"５４巷","ALLEY":" ","HOUSE_NO":"２５號","E_COORD97":165793.73999999999,"N_COORD97":2552135.23,"ADDRESS":"公學路四段５４巷２５號","OBJECTID":274928},"geometry":{"x":165793.74000000022,"y":2552135.2300000004}},{"attributes":{"ID":274934,"DIS_CODE":0,"TOWNNAME":"安南區","LI":"佃東里","LIN":"20鄰","STREET":"公學路","SECT":"四段","MAREA":" ","LANE":"５４巷","ALLEY":" ","HOUSE_NO":"２７號","E_COORD97":165794.82999999999,"N_COORD97":2552139.6000000001,"ADDRESS":"公學路四段５４巷２７號","OBJECTID":274929},"geometry":{"x":165794.83000000007,"y":2552139.5999999978}},{"attributes":{"ID":274935,"DIS_CODE":0,"TOWNNAME":"新化區","LI":"\u25A0拔里","LIN":"3鄰","STREET":" ","SECT":" ","MAREA":"\u25A0拔林","LANE":" ","ALLEY":" ","HOUSE_NO":"１６０號","E_COORD97":184011.92000000001,"N_COORD97":2552218.25,"ADDRESS":"\u25A0拔林１６０號","OBJECTID":274930},"geometry":{"x":184011.92000000086,"y":2552218.2500000019}},{"attributes":{"ID":274936,"DIS_CODE":0,"TOWNNAME":"新化區","LI":"大坑里","LIN":"3鄰","STREET":" ","SECT":" ","MAREA":"大坑尾","LANE":" ","ALLEY":" ","HOUSE_NO":"１０２號之１","E_COORD97":187186.35999999999,"N_COORD97":2545507.2599999998,"ADDRESS":"大坑尾１０２號之１","OBJECTID":274931},"geometry":{"x":187186.36000000034,"y":2545507.2600000035}},{"attributes":{"ID":274937,"DIS_CODE":0,"TOWNNAME":"新化區","LI":"礁坑里","LIN":"3鄰","STREET":" ","SECT":" ","MAREA":"九層嶺","LANE":" ","ALLEY":" ","HOUSE_NO":"３５號","E_COORD97":185529.406942,"N_COORD97":2548400.8212299999,"ADDRESS":"九層嶺３５號","OBJECTID":274932},"geometry":{"x":185529.40694199968,"y":2548400.8212279994}},{"attributes":{"ID":274938,"DIS_CODE":0,"TOWNNAME":"安南區","LI":"佃東里","LIN":"20鄰","STREET":"公學路","SECT":"四段","MAREA":" ","LANE":"５４巷","ALLEY":" ","HOUSE_NO":"２９號","E_COORD97":165794.42000000001,"N_COORD97":2552143.6899999999,"ADDRESS":"公學路四段５４巷２９號","OBJECTID":274933},"geometry":{"x":165794.41999999993,"y":2552143.6900000013}},{"attributes":{"ID":274939,"DIS_CODE":0,"TOWNNAME":"新化區","LI":"\u25A0拔里","LIN":"3鄰","STREET":" ","SECT":" ","MAREA":"\u25A0拔林","LANE":" ","ALLEY":" ","HOUSE_NO":"１１１號","E_COORD97":183589.82000000001,"N_COORD97":2552010.25,"ADDRESS":"\u25A0拔林１１１號","OBJECTID":274934},"geometry":{"x":183589.8200000003,"y":2552010.2500000037}},{"attributes":{"ID":274940,"DIS_CODE":0,"TOWNNAME":"安南區","LI":"佃東里","LIN":"20鄰","STREET":"公學路","SECT":"四段","MAREA":" ","LANE":"５４巷","ALLEY":" ","HOUSE_NO":"３１號","E_COORD97":165796.73999999999,"N_COORD97":2552148.7400000002,"ADDRESS":"公學路四段５４巷３１號","OBJECTID":274935},"geometry":{"x":165796.74000000115,"y":2552148.7400000002}},{"attributes":{"ID":274941,"DIS_CODE":0,"TOWNNAME":"新化區","LI":"知義里","LIN":"3鄰","STREET":" ","SECT":" ","MAREA":"知母義","LANE":" ","ALLEY":" ","HOUSE_NO":"１１８號之１","E_COORD97":179822.85000000001,"N_COORD97":2547171.2599999998,"ADDRESS":"知母義１１８號之１","OBJECTID":274936},"geometry":{"x":179822.85000000056,"y":2547171.2599999998}},{"attributes":{"ID":274942,"DIS_CODE":0,"TOWNNAME":"安南區","LI":"佃東里","LIN":"20鄰","STREET":"公學路","SECT":"四段","MAREA":" ","LANE":"５４巷","ALLEY":" ","HOUSE_NO":"３３號","E_COORD97":165796.32999999999,"N_COORD97":2552152.6899999999,"ADDRESS":"公學路四段５４巷３３號","OBJECTID":274937},"geometry":{"x":165796.33000000101,"y":2552152.6900000032}},{"attributes":{"ID":274943,"DIS_CODE":0,"TOWNNAME":"安南區","LI":"佃東里","LIN":"20鄰","STREET":"公學路","SECT":"四段","MAREA":" ","LANE":"５４巷","ALLEY":" ","HOUSE_NO":"３５號","E_COORD97":165796.88,"N_COORD97":2552157.8799999999,"ADDRESS":"公學路四段５４巷３５號","OBJECTID":274938},"geometry":{"x":165796.88000000082,"y":2552157.8800000008}},{"attributes":{"ID":274944,"DIS_CODE":0,"TOWNNAME":"安南區","LI":"佃東里","LIN":"20鄰","STREET":"公學路","SECT":"四段","MAREA":" ","LANE":"５４巷","ALLEY":" ","HOUSE_NO":"３７號","E_COORD97":165796.73999999999,"N_COORD97":2552160.79,"ADDRESS":"公學路四段５４巷３７號","OBJECTID":274939},"geometry":{"x":165796.74000000115,"y":2552160.7899999991}},{"attributes":{"ID":274945,"DIS_CODE":0,"TOWNNAME":"新化區","LI":"北勢里","LIN":"3鄰","STREET":" ","SECT":" ","MAREA":"北勢","LANE":" ","ALLEY":" ","HOUSE_NO":"６４號","E_COORD97":177409.42999999999,"N_COORD97":2549634.2599999998,"ADDRESS":"北勢６４號","OBJECTID":274940},"geometry":{"x":177409.4299999997,"y":2549634.2600000016}},{"attributes":{"ID":274946,"DIS_CODE":0,"TOWNNAME":"新化區","LI":"北勢里","LIN":"3鄰","STREET":" ","SECT":" ","MAREA":"北勢","LANE":" ","ALLEY":" ","HOUSE_NO":"５９號之２","E_COORD97":177397.19,"N_COORD97":2549594.2599999998,"ADDRESS":"北勢５９號之２","OBJECTID":274941},"geometry":{"x":177397.19000000134,"y":2549594.2600000016}},{"attributes":{"ID":274947,"DIS_CODE":0,"TOWNNAME":"新化區","LI":"崙頂里","LIN":"3鄰","STREET":" ","SECT":" ","MAREA":"崙子頂","LANE":" ","ALLEY":" ","HOUSE_NO":"１２０號之２","E_COORD97":176790.98000000001,"N_COORD97":2546638.2599999998,"ADDRESS":"崙子頂１２０號之２","OBJECTID":274942},"geometry":{"x":176790.98000000045,"y":2546638.2599999998}},{"attributes":{"ID":274948,"DIS_CODE":0,"TOWNNAME":"安南區","LI":"佃東里","LIN":"20鄰","STREET":"公學路","SECT":"四段","MAREA":" ","LANE":"５４巷","ALLEY":" ","HOUSE_NO":"３９號","E_COORD97":165796.32999999999,"N_COORD97":2552164.8799999999,"ADDRESS":"公學路四段５４巷３９號","OBJECTID":274943},"geometry":{"x":165796.33000000101,"y":2552164.8800000008}},{"attributes":{"ID":274949,"DIS_CODE":0,"TOWNNAME":"安南區","LI":"佃東里","LIN":"20鄰","STREET":"公學路","SECT":"四段","MAREA":" ","LANE":"５４巷","ALLEY":" ","HOUSE_NO":"４１號","E_COORD97":165796.06,"N_COORD97":2552172.52,"ADDRESS":"公學路四段５４巷４１號","OBJECTID":274944},"geometry":{"x":165796.05999999959,"y":2552172.5199999996}},{"attributes":{"ID":274950,"DIS_CODE":0,"TOWNNAME":"安南區","LI":"梅花里","LIN":"20鄰","STREET":"安中路","SECT":"一段","MAREA":" ","LANE":"７５７巷","ALLEY":" ","HOUSE_NO":"１３號","E_COORD97":167415.95999999999,"N_COORD97":2549279.77,"ADDRESS":"安中路一段７５７巷１３號","OBJECTID":274945},"geometry":{"x":167415.95999999996,"y":2549279.7699999996}},{"attributes":{"ID":274951,"DIS_CODE":0,"TOWNNAME":"安南區","LI":"梅花里","LIN":"20鄰","STREET":"安中路","SECT":"一段","MAREA":" ","LANE":"７５７巷","ALLEY":" ","HOUSE_NO":"１５號","E_COORD97":167415.10999999999,"N_COORD97":2549274.8799999999,"ADDRESS":"安中路一段７５７巷１５號","OBJECTID":274946},"geometry":{"x":167415.11000000127,"y":2549274.879999999}},{"attributes":{"ID":274952,"DIS_CODE":0,"TOWNNAME":"新化區","LI":"\u25A0拔里","LIN":"3鄰","STREET":" ","SECT":" ","MAREA":"\u25A0拔林","LANE":" ","ALLEY":" ","HOUSE_NO":"１２５號之１","E_COORD97":183635.35000000001,"N_COORD97":2552055.2599999998,"ADDRESS":"\u25A0拔林１２５號之１","OBJECTID":274947},"geometry":{"x":183635.35000000056,"y":2552055.2600000016}},{"attributes":{"ID":274953,"DIS_CODE":0,"TOWNNAME":"安南區","LI":"梅花里","LIN":"20鄰","STREET":"安中路","SECT":"一段","MAREA":" ","LANE":"７５７巷","ALLEY":" ","HOUSE_NO":"１７號","E_COORD97":167412.54999999999,"N_COORD97":2549271.4700000002,"ADDRESS":"安中路一段７５７巷１７號","OBJECTID":274948},"geometry":{"x":167412.54999999888,"y":2549271.4700000025}},{"attributes":{"ID":274954,"DIS_CODE":0,"TOWNNAME":"新化區","LI":"北勢里","LIN":"3鄰","STREET":" ","SECT":" ","MAREA":"北勢","LANE":" ","ALLEY":" ","HOUSE_NO":"６１號之１","E_COORD97":177360.66,"N_COORD97":2549620.2599999998,"ADDRESS":"北勢６１號之１","OBJECTID":274949},"geometry":{"x":177360.66000000015,"y":2549620.2600000016}},{"attributes":{"ID":274955,"DIS_CODE":0,"TOWNNAME":"新化區","LI":"\u25A0拔里","LIN":"3鄰","STREET":" ","SECT":" ","MAREA":"\u25A0拔林","LANE":" ","ALLEY":" ","HOUSE_NO":"１３２號之３","E_COORD97":183734.87,"N_COORD97":2552135.2599999998,"ADDRESS":"\u25A0拔林１３２號之３","OBJECTID":274950},"geometry":{"x":183734.87000000011,"y":2552135.2599999979}},{"attributes":{"ID":274956,"DIS_CODE":0,"TOWNNAME":"新化區","LI":"北勢里","LIN":"3鄰","STREET":" ","SECT":" ","MAREA":"北勢","LANE":" ","ALLEY":" ","HOUSE_NO":"６６號之１","E_COORD97":177394.95999999999,"N_COORD97":2549717.2599999998,"ADDRESS":"北勢６６號之１","OBJECTID":274951},"geometry":{"x":177394.96000000089,"y":2549717.2599999998}},{"attributes":{"ID":274957,"DIS_CODE":0,"TOWNNAME":"新化區","LI":"協興里","LIN":"3鄰","STREET":"忠孝路","SECT":" ","MAREA":" ","LANE":" ","ALLEY":" ","HOUSE_NO":"１９９號","E_COORD97":178536.72,"N_COORD97":2548564.25,"ADDRESS":"忠孝路１９９號","OBJECTID":274952},"geometry":{"x":178536.71999999974,"y":2548564.25}},{"attributes":{"ID":274958,"DIS_CODE":0,"TOWNNAME":"新化區","LI":"\u25A0拔里","LIN":"3鄰","STREET":" ","SECT":" ","MAREA":"\u25A0拔林","LANE":" ","ALLEY":" ","HOUSE_NO":"１５６號之１５","E_COORD97":183958.92999999999,"N_COORD97":2552253.2599999998,"ADDRESS":"\u25A0拔林１５６號之１５","OBJECTID":274953},"geometry":{"x":183958.93000000063,"y":2552253.2599999998}},{"attributes":{"ID":274959,"DIS_CODE":0,"TOWNNAME":"新化區","LI":"北勢里","LIN":"3鄰","STREET":" ","SECT":" ","MAREA":"北勢","LANE":" ","ALLEY":" ","HOUSE_NO":"６３號之１","E_COORD97":177403.16,"N_COORD97":2549663.2599999998,"ADDRESS":"北勢６３號之１","OBJECTID":274954},"geometry":{"x":177403.16000000015,"y":2549663.2599999998}},{"attributes":{"ID":274960,"DIS_CODE":0,"TOWNNAME":"新化區","LI":"知義里","LIN":"3鄰","STREET":" ","SECT":" ","MAREA":"知母義","LANE":" ","ALLEY":" ","HOUSE_NO":"１４７號","E_COORD97":179766.62,"N_COORD97":2547068.25,"ADDRESS":"知母義１４７號","OBJECTID":274955},"geometry":{"x":179766.62000000011,"y":2547068.2500000019}},{"attributes":{"ID":274961,"DIS_CODE":0,"TOWNNAME":"新化區","LI":"竹林里","LIN":"3鄰","STREET":"中山路","SECT":" ","MAREA":" ","LANE":" ","ALLEY":" ","HOUSE_NO":"３８０號","E_COORD97":178834.51000000001,"N_COORD97":2548423.25,"ADDRESS":"中山路３８０號","OBJECTID":274956},"geometry":{"x":178834.50999999978,"y":2548423.2500000037}},{"attributes":{"ID":274962,"DIS_CODE":0,"TOWNNAME":"新化區","LI":"護國里","LIN":"3鄰","STREET":"建國街","SECT":" ","MAREA":" ","LANE":" ","ALLEY":" ","HOUSE_NO":"２３之１號","E_COORD97":179205.98000000001,"N_COORD97":2548572.2599999998,"ADDRESS":"建國街２３之１號","OBJECTID":274957},"geometry":{"x":179205.98000000138,"y":2548572.2600000035}},{"attributes":{"ID":274963,"DIS_CODE":0,"TOWNNAME":"安南區","LI":"新順里","LIN":"3鄰","STREET":"安和路","SECT":"二段","MAREA":" ","LANE":" ","ALLEY":" ","HOUSE_NO":"２７５號之１","E_COORD97":169671.73000000001,"N_COORD97":2549226.2200000002,"ADDRESS":"安和路二段２７５號之１","OBJECTID":274958},"geometry":{"x":169671.73000000231,"y":2549226.2200000007}},{"attributes":{"ID":274964,"DIS_CODE":0,"TOWNNAME":"安南區","LI":"公\u25A0里","LIN":"3鄰","STREET":"安興街","SECT":" ","MAREA":" ","LANE":" ","ALLEY":" ","HOUSE_NO":"７５號","E_COORD97":164274.38,"N_COORD97":2552210.6099999999,"ADDRESS":"安興街７５號","OBJECTID":274959},"geometry":{"x":164274.38000000175,"y":2552210.6100000031}},{"attributes":{"ID":274965,"DIS_CODE":0,"TOWNNAME":"安南區","LI":"鳳凰里","LIN":"3鄰","STREET":"安中路","SECT":"一段","MAREA":" ","LANE":" ","ALLEY":" ","HOUSE_NO":"５９４號","E_COORD97":167873.62083299999,"N_COORD97":2549089.40857,"ADDRESS":"安中路一段５９４號","OBJECTID":274960},"geometry":{"x":167873.62083300017,"y":2549089.408569999}},{"attributes":{"ID":274966,"DIS_CODE":0,"TOWNNAME":"安南區","LI":"顯宮里","LIN":"3鄰","STREET":"安明路","SECT":"三段","MAREA":" ","LANE":" ","ALLEY":" ","HOUSE_NO":"９９９號","E_COORD97":161845.20999999999,"N_COORD97":2550500.2799999998,"ADDRESS":"安明路三段９９９號","OBJECTID":274961},"geometry":{"x":161845.21000000089,"y":2550500.2799999993}},{"attributes":{"ID":274967,"DIS_CODE":0,"TOWNNAME":"仁德區","LI":"仁義里","LIN":"14鄰","STREET":"林頂街","SECT":" ","MAREA":" ","LANE":" ","ALLEY":" ","HOUSE_NO":"２６５號","E_COORD97":174917.27884399999,"N_COORD97":2541371.11583,"ADDRESS":"林頂街２６５號","OBJECTID":274962},"geometry":{"x":174917.27884399984,"y":2541371.1158300042}},{"attributes":{"ID":274968,"DIS_CODE":0,"TOWNNAME":"安南區","LI":"梅花里","LIN":"20鄰","STREET":"安中路","SECT":"一段","MAREA":" ","LANE":"７５７巷","ALLEY":" ","HOUSE_NO":"２１號","E_COORD97":167407.87,"N_COORD97":2549264.0299999998,"ADDRESS":"安中路一段７５７巷２１號","OBJECTID":274963},"geometry":{"x":167407.87000000104,"y":2549264.0299999993}},{"attributes":{"ID":274969,"DIS_CODE":0,"TOWNNAME":"安南區","LI":"梅花里","LIN":"20鄰","STREET":"安中路","SECT":"一段","MAREA":" ","LANE":"７５７巷","ALLEY":" ","HOUSE_NO":"３號","E_COORD97":167432.34,"N_COORD97":2549305.6099999999,"ADDRESS":"安中路一段７５７巷３號","OBJECTID":274964},"geometry":{"x":167432.33999999985,"y":2549305.6100000013}},{"attributes":{"ID":274970,"DIS_CODE":0,"TOWNNAME":"安南區","LI":"梅花里","LIN":"20鄰","STREET":"安中路","SECT":"一段","MAREA":" ","LANE":"７５７巷","ALLEY":" ","HOUSE_NO":"１９號","E_COORD97":167410.64000000001,"N_COORD97":2549266.5800000001,"ADDRESS":"安中路一段７５７巷１９號","OBJECTID":274965},"geometry":{"x":167410.6400000006,"y":2549266.5800000019}},{"attributes":{"ID":274971,"DIS_CODE":0,"TOWNNAME":"善化區","LI":"文昌里","LIN":"20鄰","STREET":"中正路","SECT":" ","MAREA":" ","LANE":"２１２巷","ALLEY":" ","HOUSE_NO":"４５號","E_COORD97":177784.01999999999,"N_COORD97":2558256.75,"ADDRESS":"中正路２１２巷４５號","OBJECTID":274966},"geometry":{"x":177784.02000000048,"y":2558256.7500000019}},{"attributes":{"ID":274972,"DIS_CODE":0,"TOWNNAME":"善化區","LI":"文昌里","LIN":"20鄰","STREET":"中正路","SECT":" ","MAREA":" ","LANE":"２１２巷","ALLEY":" ","HOUSE_NO":"９號","E_COORD97":177777.23000000001,"N_COORD97":2558306,"ADDRESS":"中正路２１２巷９號","OBJECTID":274967},"geometry":{"x":177777.23000000138,"y":2558306.0000000019}},{"attributes":{"ID":274973,"DIS_CODE":0,"TOWNNAME":"善化區","LI":"文昌里","LIN":"20鄰","STREET":"中正路","SECT":" ","MAREA":" ","LANE":"２１２巷","ALLEY":" ","HOUSE_NO":"２號","E_COORD97":177748.19,"N_COORD97":2558300.5,"ADDRESS":"中正路２１２巷２號","OBJECTID":274968},"geometry":{"x":177748.19000000134,"y":2558300.5}},{"attributes":{"ID":274974,"DIS_CODE":0,"TOWNNAME":"善化區","LI":"文昌里","LIN":"20鄰","STREET":"中正路","SECT":" ","MAREA":" ","LANE":"２１２巷","ALLEY":" ","HOUSE_NO":"６號","E_COORD97":177764.78,"N_COORD97":2558303.75,"ADDRESS":"中正路２１２巷６號","OBJECTID":274969},"geometry":{"x":177764.78000000119,"y":2558303.7500000019}},{"attributes":{"ID":274975,"DIS_CODE":0,"TOWNNAME":"善化區","LI":"文昌里","LIN":"20鄰","STREET":"中正路","SECT":" ","MAREA":" ","LANE":"２１２巷","ALLEY":" ","HOUSE_NO":"８號","E_COORD97":177773.07000000001,"N_COORD97":2558305.25,"ADDRESS":"中正路２１２巷８號","OBJECTID":274970},"geometry":{"x":177773.07000000123,"y":2558305.25}},{"attributes":{"ID":274976,"DIS_CODE":0,"TOWNNAME":"官田區","LI":"隆田里","LIN":"20鄰","STREET":"中興路","SECT":" ","MAREA":" ","LANE":"１巷","ALLEY":" ","HOUSE_NO":"５９號","E_COORD97":180407.70999999999,"N_COORD97":2565535.8399999999,"ADDRESS":"中興路１巷５９號","OBJECTID":274971},"geometry":{"x":180407.71000000089,"y":2565535.8399999999}},{"attributes":{"ID":274977,"DIS_CODE":0,"TOWNNAME":"官田區","LI":"隆田里","LIN":"20鄰","STREET":"中興路","SECT":" ","MAREA":" ","LANE":"１巷","ALLEY":" ","HOUSE_NO":"４５號","E_COORD97":180425.23999999999,"N_COORD97":2565615.0299999998,"ADDRESS":"中興路１巷４５號","OBJECTID":274972},"geometry":{"x":180425.24000000022,"y":2565615.0299999993}},{"attributes":{"ID":274978,"DIS_CODE":0,"TOWNNAME":"官田區","LI":"隆田里","LIN":"20鄰","STREET":"中興路","SECT":" ","MAREA":" ","LANE":"１巷","ALLEY":" ","HOUSE_NO":"４７號","E_COORD97":180437.31,"N_COORD97":2565598.0600000001,"ADDRESS":"中興路１巷４７號","OBJECTID":274973},"geometry":{"x":180437.31000000052,"y":2565598.0600000024}},{"attributes":{"ID":274979,"DIS_CODE":0,"TOWNNAME":"官田區","LI":"隆田里","LIN":"20鄰","STREET":"中興路","SECT":" ","MAREA":" ","LANE":"１巷","ALLEY":" ","HOUSE_NO":"４９號","E_COORD97":180402.5,"N_COORD97":2565569.29,"ADDRESS":"中興路１巷４９號","OBJECTID":274974},"geometry":{"x":180402.50000000093,"y":2565569.2899999991}},{"attributes":{"ID":274980,"DIS_CODE":0,"TOWNNAME":"官田區","LI":"隆田里","LIN":"20鄰","STREET":"中興路","SECT":" ","MAREA":" ","LANE":"１巷","ALLEY":" ","HOUSE_NO":"５１號","E_COORD97":180403.12,"N_COORD97":2565562.4900000002,"ADDRESS":"中興路１巷５１號","OBJECTID":274975},"geometry":{"x":180403.12000000104,"y":2565562.4900000002}},{"attributes":{"ID":274981,"DIS_CODE":0,"TOWNNAME":"官田區","LI":"隆田里","LIN":"20鄰","STREET":"中興路","SECT":" ","MAREA":" ","LANE":"１巷","ALLEY":" ","HOUSE_NO":"５３號","E_COORD97":180404.73000000001,"N_COORD97":2565556.0099999998,"ADDRESS":"中興路１巷５３號","OBJECTID":274976},"geometry":{"x":180404.73000000138,"y":2565556.0099999979}},{"attributes":{"ID":274982,"DIS_CODE":0,"TOWNNAME":"官田區","LI":"隆田里","LIN":"20鄰","STREET":"中興路","SECT":" ","MAREA":" ","LANE":"１巷","ALLEY":" ","HOUSE_NO":"５５號","E_COORD97":180405.45000000001,"N_COORD97":2565548.6499999999,"ADDRESS":"中興路１巷５５號","OBJECTID":274977},"geometry":{"x":180405.45000000019,"y":2565548.6500000004}},{"attributes":{"ID":274983,"DIS_CODE":0,"TOWNNAME":"官田區","LI":"隆田里","LIN":"20鄰","STREET":"中興路","SECT":" ","MAREA":" ","LANE":"１巷","ALLEY":" ","HOUSE_NO":"５７號","E_COORD97":180406.22,"N_COORD97":2565541.9300000002,"ADDRESS":"中興路１巷５７號","OBJECTID":274978},"geometry":{"x":180406.21999999974,"y":2565541.9299999997}},{"attributes":{"ID":274984,"DIS_CODE":0,"TOWNNAME":"官田區","LI":"隆田里","LIN":"20鄰","STREET":"中興路","SECT":" ","MAREA":" ","LANE":"１巷","ALLEY":" ","HOUSE_NO":"６１號","E_COORD97":180408.48999999999,"N_COORD97":2565528.48,"ADDRESS":"中興路１巷６１號","OBJECTID":274979},"geometry":{"x":180408.49000000022,"y":2565528.4800000004}},{"attributes":{"ID":274985,"DIS_CODE":0,"TOWNNAME":"安南區","LI":"州南里","LIN":"3鄰","STREET":"北安路","SECT":"四段","MAREA":" ","LANE":" ","ALLEY":" ","HOUSE_NO":"１７１號","E_COORD97":169446.09656800001,"N_COORD97":2551315.3676,"ADDRESS":"北安路四段１７１號","OBJECTID":274980},"geometry":{"x":169446.0965680005,"y":2551315.3676010016}},{"attributes":{"ID":274986,"DIS_CODE":0,"TOWNNAME":"新化區","LI":"北勢里","LIN":"3鄰","STREET":" ","SECT":" ","MAREA":"北勢","LANE":" ","ALLEY":" ","HOUSE_NO":"６２號之６","E_COORD97":177383.67999999999,"N_COORD97":2549671.2599999998,"ADDRESS":"北勢６２號之６","OBJECTID":274981},"geometry":{"x":177383.6799999997,"y":2549671.2600000016}},{"attributes":{"ID":274987,"DIS_CODE":0,"TOWNNAME":"新化區","LI":"\u25A0拔里","LIN":"3鄰","STREET":" ","SECT":" ","MAREA":"\u25A0拔林","LANE":" ","ALLEY":" ","HOUSE_NO":"１５５號之２","E_COORD97":183966.88,"N_COORD97":2552207.2599999998,"ADDRESS":"\u25A0拔林１５５號之２","OBJECTID":274982},"geometry":{"x":183966.87999999989,"y":2552207.2600000016}},{"attributes":{"ID":274988,"DIS_CODE":0,"TOWNNAME":"新化區","LI":"\u25A0拔里","LIN":"3鄰","STREET":" ","SECT":" ","MAREA":"\u25A0拔林","LANE":" ","ALLEY":" ","HOUSE_NO":"１４７號之１","E_COORD97":183763.25,"N_COORD97":2552123.2599999998,"ADDRESS":"\u25A0拔林１４７號之１","OBJECTID":274983},"geometry":{"x":183763.25000000186,"y":2552123.2600000016}},{"attributes":{"ID":274989,"DIS_CODE":0,"TOWNNAME":"永康區","LI":"北灣里","LIN":"3鄰","STREET":"文賢街","SECT":" ","MAREA":" ","LANE":" ","ALLEY":" ","HOUSE_NO":"１３０號","E_COORD97":175385.56,"N_COORD97":2545545.0099999998,"ADDRESS":"文賢街１３０號","OBJECTID":274984},"geometry":{"x":175385.56000000052,"y":2545545.0099999998}},{"attributes":{"ID":274990,"DIS_CODE":0,"TOWNNAME":"永康區","LI":"南灣里","LIN":"3鄰","STREET":"大灣路","SECT":" ","MAREA":" ","LANE":" ","ALLEY":" ","HOUSE_NO":"５０３號","E_COORD97":174573.14000000001,"N_COORD97":2544595.7400000002,"ADDRESS":"大灣路５０３號","OBJECTID":274985},"geometry":{"x":174573.1400000006,"y":2544595.7400000039}},{"attributes":{"ID":274991,"DIS_CODE":0,"TOWNNAME":"官田區","LI":"隆田里","LIN":"20鄰","STREET":"中興路","SECT":" ","MAREA":" ","LANE":"１巷","ALLEY":" ","HOUSE_NO":"６５號","E_COORD97":180410.79000000001,"N_COORD97":2565515.3100000001,"ADDRESS":"中興路１巷６５號","OBJECTID":274986},"geometry":{"x":180410.79000000097,"y":2565515.3100000024}},{"attributes":{"ID":274992,"DIS_CODE":0,"TOWNNAME":"官田區","LI":"隆田里","LIN":"20鄰","STREET":"中興路","SECT":" ","MAREA":" ","LANE":"１巷","ALLEY":" ","HOUSE_NO":"６７號","E_COORD97":180412.09,"N_COORD97":2565508.8199999998,"ADDRESS":"中興路１巷６７號","OBJECTID":274987},"geometry":{"x":180412.08999999985,"y":2565508.8200000022}},{"attributes":{"ID":274993,"DIS_CODE":0,"TOWNNAME":"東區","LI":"和平里","LIN":"20鄰","STREET":"文化一街","SECT":" ","MAREA":" ","LANE":"１６８巷","ALLEY":" ","HOUSE_NO":"１５號","E_COORD97":171218.63,"N_COORD97":2541851.9100000001,"ADDRESS":"文化一街１６８巷１５號","OBJECTID":274988},"geometry":{"x":171218.63000000082,"y":2541851.9100000039}},{"attributes":{"ID":274994,"DIS_CODE":0,"TOWNNAME":"東區","LI":"大學里","LIN":"20鄰","STREET":"大學路","SECT":" ","MAREA":" ","LANE":"２２巷","ALLEY":" ","HOUSE_NO":"２５號之１","E_COORD97":170184.28,"N_COORD97":2543924.7200000002,"ADDRESS":"大學路２２巷２５號之１","OBJECTID":274989},"geometry":{"x":170184.28000000026,"y":2543924.7200000007}},{"attributes":{"ID":274995,"DIS_CODE":0,"TOWNNAME":"東區","LI":"後甲里","LIN":"20鄰","STREET":"裕農路","SECT":" ","MAREA":" ","LANE":"７７１巷","ALLEY":" ","HOUSE_NO":"１４號","E_COORD97":171902.39000000001,"N_COORD97":2543311.96,"ADDRESS":"裕農路７７１巷１４號","OBJECTID":274990},"geometry":{"x":171902.39000000153,"y":2543311.9600000009}},{"attributes":{"ID":274996,"DIS_CODE":0,"TOWNNAME":"仁德區","LI":"一甲里","LIN":"15鄰","STREET":"忠義路","SECT":" ","MAREA":" ","LANE":"７５巷","ALLEY":" ","HOUSE_NO":"６號","E_COORD97":174370.23000000001,"N_COORD97":2541670.27,"ADDRESS":"忠義路７５巷６號","OBJECTID":274991},"geometry":{"x":174370.23000000045,"y":2541670.2700000014}},{"attributes":{"ID":274997,"DIS_CODE":0,"TOWNNAME":"下營區","LI":"新興里","LIN":"15鄰","STREET":"寮前二街","SECT":" ","MAREA":" ","LANE":"２１巷","ALLEY":" ","HOUSE_NO":"２０號","E_COORD97":175145.01999999999,"N_COORD97":2570372.8199999998,"ADDRESS":"寮前二街２１巷２０號","OBJECTID":274992},"geometry":{"x":175145.02000000048,"y":2570372.8200000022}},{"attributes":{"ID":274998,"DIS_CODE":0,"TOWNNAME":"歸仁區","LI":"後市里","LIN":"15鄰","STREET":"民族南街","SECT":" ","MAREA":" ","LANE":"１８巷","ALLEY":" ","HOUSE_NO":"６２號","E_COORD97":177294.44,"N_COORD97":2540760.5499999998,"ADDRESS":"民族南街１８巷６２號","OBJECTID":274993},"geometry":{"x":177294.44000000041,"y":2540760.5500000026}},{"attributes":{"ID":274999,"DIS_CODE":0,"TOWNNAME":"北區","LI":"賢北里","LIN":"15鄰","STREET":"大興街","SECT":" ","MAREA":" ","LANE":"５６５巷","ALLEY":" ","HOUSE_NO":"１７號","E_COORD97":166049.97,"N_COORD97":2545397.9700000002,"ADDRESS":"大興街５６５巷１７號","OBJECTID":274994},"geometry":{"x":166049.96999999974,"y":2545397.9700000007}},{"attributes":{"ID":275000,"DIS_CODE":0,"TOWNNAME":"北區","LI":"賢北里","LIN":"15鄰","STREET":"大興街","SECT":" ","MAREA":" ","LANE":"５６５巷","ALLEY":" ","HOUSE_NO":"１９號","E_COORD97":166051.60999999999,"N_COORD97":2545395.1000000001,"ADDRESS":"大興街５６５巷１９號","OBJECTID":274995},"geometry":{"x":166051.6100000022,"y":2545395.0999999996}},{"attributes":{"ID":275001,"DIS_CODE":0,"TOWNNAME":"北區","LI":"賢北里","LIN":"15鄰","STREET":"大興街","SECT":" ","MAREA":" ","LANE":"５６５巷","ALLEY":" ","HOUSE_NO":"３號","E_COORD97":166038.47,"N_COORD97":2545424.8900000001,"ADDRESS":"大興街５６５巷３號","OBJECTID":274996},"geometry":{"x":166038.47000000067,"y":2545424.8900000006}},{"attributes":{"ID":275002,"DIS_CODE":0,"TOWNNAME":"北區","LI":"賢北里","LIN":"15鄰","STREET":"大興街","SECT":" ","MAREA":" ","LANE":"５６５巷","ALLEY":" ","HOUSE_NO":"５號","E_COORD97":166040.10999999999,"N_COORD97":2545421.3300000001,"ADDRESS":"大興街５６５巷５號","OBJECTID":274997},"geometry":{"x":166040.11000000127,"y":2545421.3300000001}},{"attributes":{"ID":275003,"DIS_CODE":0,"TOWNNAME":"北區","LI":"賢北里","LIN":"15鄰","STREET":"大興街","SECT":" ","MAREA":" ","LANE":"５６５巷","ALLEY":" ","HOUSE_NO":"６號","E_COORD97":166021.28,"N_COORD97":2545412.7000000002,"ADDRESS":"大興街５６５巷６號","OBJECTID":274998},"geometry":{"x":166021.28000000026,"y":2545412.7000000011}},{"attributes":{"ID":275004,"DIS_CODE":0,"TOWNNAME":"北區","LI":"賢北里","LIN":"15鄰","STREET":"大興街","SECT":" ","MAREA":" ","LANE":"５６５巷","ALLEY":" ","HOUSE_NO":"７號","E_COORD97":166041.35000000001,"N_COORD97":2545417.1000000001,"ADDRESS":"大興街５６５巷７號","OBJECTID":274999},"geometry":{"x":166041.35000000056,"y":2545417.1000000015}},{"attributes":{"ID":275005,"DIS_CODE":0,"TOWNNAME":"北區","LI":"賢北里","LIN":"15鄰","STREET":"大興街","SECT":" ","MAREA":" ","LANE":"５６５巷","ALLEY":" ","HOUSE_NO":"８號","E_COORD97":166025.01000000001,"N_COORD97":2545404.6899999999,"ADDRESS":"大興街５６５巷８號","OBJECTID":275000},"geometry":{"x":166025.01000000071,"y":2545404.6899999995}}]}