{"displayFieldName":"TOWNNAME","fieldAliases":{"ID":"ID","DIS_CODE":"DIS_CODE","TOWNNAME":"TOWNNAME","LI":"LI","LIN":"LIN","STREET":"STREET","SECT":"SECT","MAREA":"MAREA","LANE":"LANE","ALLEY":"ALLEY","HOUSE_NO":"HOUSE_NO","E_COORD97":"E_COORD97","N_COORD97":"N_COORD97","ADDRESS":"ADDRESS","OBJECTID":"OBJECTID"},"geometryType":"esriGeometryPoint","spatialReference":{"wkid":102443,"latestWkid":3826},"fields":[{"name":"ID","type":"esriFieldTypeDouble","alias":"ID"},{"name":"DIS_CODE","type":"esriFieldTypeInteger","alias":"DIS_CODE"},{"name":"TOWNNAME","type":"esriFieldTypeString","alias":"TOWNNAME","length":8},{"name":"LI","type":"esriFieldTypeString","alias":"LI","length":8},{"name":"LIN","type":"esriFieldTypeString","alias":"LIN","length":12},{"name":"STREET","type":"esriFieldTypeString","alias":"STREET","length":20},{"name":"SECT","type":"esriFieldTypeString","alias":"SECT","length":8},{"name":"MAREA","type":"esriFieldTypeString","alias":"MAREA","length":12},{"name":"LANE","type":"esriFieldTypeString","alias":"LANE","length":10},{"name":"ALLEY","type":"esriFieldTypeString","alias":"ALLEY","length":10},{"name":"HOUSE_NO","type":"esriFieldTypeString","alias":"HOUSE_NO","length":20},{"name":"E_COORD97","type":"esriFieldTypeDouble","alias":"E_COORD97"},{"name":"N_COORD97","type":"esriFieldTypeDouble","alias":"N_COORD97"},{"name":"ADDRESS","type":"esriFieldTypeString","alias":"ADDRESS","length":50},{"name":"OBJECTID","type":"esriFieldTypeOID","alias":"OBJECTID"}],"features":[{"attributes":{"ID":327010,"DIS_CODE":0,"TOWNNAME":"南區","LI":"省躬里","LIN":"14鄰","STREET":"萬年五街","SECT":" ","MAREA":" ","LANE":"４００巷","ALLEY":" ","HOUSE_NO":"３３號","E_COORD97":166543.98000000001,"N_COORD97":2537315.1400000001,"ADDRESS":"萬年五街４００巷３３號","OBJECTID":327001},"geometry":{"x":166543.98000000045,"y":2537315.1400000025}},{"attributes":{"ID":327011,"DIS_CODE":0,"TOWNNAME":"南區","LI":"喜南里","LIN":"8鄰","STREET":"喜樹路","SECT":" ","MAREA":" ","LANE":"２７０巷","ALLEY":" ","HOUSE_NO":"４８之１號","E_COORD97":165507.88,"N_COORD97":2537841.9900000002,"ADDRESS":"喜樹路２７０巷４８之１號","OBJECTID":327002},"geometry":{"x":165507.87999999989,"y":2537841.9900000021}},{"attributes":{"ID":327012,"DIS_CODE":0,"TOWNNAME":"南區","LI":"金華里","LIN":"11鄰","STREET":"金華路","SECT":"二段","MAREA":" ","LANE":"１４７巷","ALLEY":" ","HOUSE_NO":"４１號","E_COORD97":166894.04999999999,"N_COORD97":2542370.8300000001,"ADDRESS":"金華路二段１４７巷４１號","OBJECTID":327003},"geometry":{"x":166894.05000000075,"y":2542370.8299999982}},{"attributes":{"ID":327013,"DIS_CODE":0,"TOWNNAME":"南區","LI":"彰南里","LIN":"18鄰","STREET":"新和一路","SECT":" ","MAREA":" ","LANE":"１巷","ALLEY":" ","HOUSE_NO":"６號","E_COORD97":166127.5,"N_COORD97":2540773.1299999999,"ADDRESS":"新和一路１巷６號","OBJECTID":327004},"geometry":{"x":166127.5,"y":2540773.129999999}},{"attributes":{"ID":327014,"DIS_CODE":0,"TOWNNAME":"南區","LI":"永寧里","LIN":"6鄰","STREET":"灣裡路","SECT":" ","MAREA":" ","LANE":"８８巷","ALLEY":" ","HOUSE_NO":"１５２號之１","E_COORD97":165791.32999999999,"N_COORD97":2536514.7999999998,"ADDRESS":"灣裡路８８巷１５２號之１","OBJECTID":327005},"geometry":{"x":165791.33000000007,"y":2536514.8000000026}},{"attributes":{"ID":327015,"DIS_CODE":0,"TOWNNAME":"南區","LI":"郡南里","LIN":"17鄰","STREET":"永成路","SECT":"三段","MAREA":" ","LANE":"２５巷","ALLEY":" ","HOUSE_NO":"２３號","E_COORD97":167433.82000000001,"N_COORD97":2540396.8500000001,"ADDRESS":"永成路三段２５巷２３號","OBJECTID":327006},"geometry":{"x":167433.82000000123,"y":2540396.8499999996}},{"attributes":{"ID":327016,"DIS_CODE":0,"TOWNNAME":"南區","LI":"郡南里","LIN":"17鄰","STREET":"永成路","SECT":"三段","MAREA":" ","LANE":"２５巷","ALLEY":" ","HOUSE_NO":"３１號","E_COORD97":167415.76999999999,"N_COORD97":2540395.8900000001,"ADDRESS":"永成路三段２５巷３１號","OBJECTID":327007},"geometry":{"x":167415.76999999955,"y":2540395.8900000025}},{"attributes":{"ID":327017,"DIS_CODE":0,"TOWNNAME":"南區","LI":"明興里","LIN":"20鄰","STREET":"金華路","SECT":"一段","MAREA":" ","LANE":"８４巷","ALLEY":" ","HOUSE_NO":"３２號","E_COORD97":167000.88,"N_COORD97":2540416.0499999998,"ADDRESS":"金華路一段８４巷３２號","OBJECTID":327008},"geometry":{"x":167000.88000000082,"y":2540416.0500000007}},{"attributes":{"ID":327018,"DIS_CODE":0,"TOWNNAME":"南區","LI":"佛壇里","LIN":"15鄰","STREET":"灣裡路","SECT":" ","MAREA":" ","LANE":"６４０巷","ALLEY":" ","HOUSE_NO":"２８號","E_COORD97":166087.53,"N_COORD97":2535677.27,"ADDRESS":"灣裡路６４０巷２８號","OBJECTID":327009},"geometry":{"x":166087.52999999933,"y":2535677.2699999996}},{"attributes":{"ID":327019,"DIS_CODE":0,"TOWNNAME":"南區","LI":"佛壇里","LIN":"15鄰","STREET":"灣裡路","SECT":" ","MAREA":" ","LANE":"６４０巷","ALLEY":" ","HOUSE_NO":"３０號","E_COORD97":166083.37,"N_COORD97":2535673.7999999998,"ADDRESS":"灣裡路６４０巷３０號","OBJECTID":327010},"geometry":{"x":166083.36999999918,"y":2535673.8000000026}},{"attributes":{"ID":327020,"DIS_CODE":0,"TOWNNAME":"北區","LI":"大道里","LIN":"15鄰","STREET":"北門路","SECT":"二段","MAREA":" ","LANE":"５２７巷","ALLEY":" ","HOUSE_NO":"２９號三樓之１","E_COORD97":169516.14999999999,"N_COORD97":2545639.9399999999,"ADDRESS":"北門路二段５２７巷２９號三樓之１","OBJECTID":327011},"geometry":{"x":169516.14999999944,"y":2545639.9399999995}},{"attributes":{"ID":327021,"DIS_CODE":0,"TOWNNAME":"北區","LI":"大道里","LIN":"15鄰","STREET":"北門路","SECT":"二段","MAREA":" ","LANE":"５２７巷","ALLEY":" ","HOUSE_NO":"２９號四樓之２","E_COORD97":169516.14999999999,"N_COORD97":2545639.9399999999,"ADDRESS":"北門路二段５２７巷２９號四樓之２","OBJECTID":327012},"geometry":{"x":169516.14999999944,"y":2545639.9399999995}},{"attributes":{"ID":327022,"DIS_CODE":0,"TOWNNAME":"北區","LI":"大道里","LIN":"15鄰","STREET":"北門路","SECT":"二段","MAREA":" ","LANE":"５２７巷","ALLEY":" ","HOUSE_NO":"２９號四樓之１","E_COORD97":169516.14999999999,"N_COORD97":2545639.9399999999,"ADDRESS":"北門路二段５２７巷２９號四樓之１","OBJECTID":327013},"geometry":{"x":169516.14999999944,"y":2545639.9399999995}},{"attributes":{"ID":327023,"DIS_CODE":0,"TOWNNAME":"北區","LI":"大道里","LIN":"15鄰","STREET":"北門路","SECT":"二段","MAREA":" ","LANE":"５２７巷","ALLEY":" ","HOUSE_NO":"２９號五樓之２","E_COORD97":169516.14999999999,"N_COORD97":2545639.9399999999,"ADDRESS":"北門路二段５２７巷２９號五樓之２","OBJECTID":327014},"geometry":{"x":169516.14999999944,"y":2545639.9399999995}},{"attributes":{"ID":327024,"DIS_CODE":0,"TOWNNAME":"北區","LI":"六甲里","LIN":"17鄰","STREET":"公園路","SECT":" ","MAREA":" ","LANE":" ","ALLEY":" ","HOUSE_NO":"５８５號之１２","E_COORD97":169065.51999999999,"N_COORD97":2545733.7400000002,"ADDRESS":"公園路５８５號之１２","OBJECTID":327015},"geometry":{"x":169065.52000000048,"y":2545733.7400000002}},{"attributes":{"ID":327025,"DIS_CODE":0,"TOWNNAME":"北區","LI":"六甲里","LIN":"17鄰","STREET":"公園路","SECT":" ","MAREA":" ","LANE":" ","ALLEY":" ","HOUSE_NO":"５８５號之１３","E_COORD97":169066.56,"N_COORD97":2545738.04,"ADDRESS":"公園路５８５號之１３","OBJECTID":327016},"geometry":{"x":169066.55999999959,"y":2545738.0399999991}},{"attributes":{"ID":327026,"DIS_CODE":0,"TOWNNAME":"北區","LI":"六甲里","LIN":"17鄰","STREET":"公園路","SECT":" ","MAREA":" ","LANE":" ","ALLEY":" ","HOUSE_NO":"５８５號之１４","E_COORD97":169068.48999999999,"N_COORD97":2545742.7799999998,"ADDRESS":"公園路５８５號之１４","OBJECTID":327017},"geometry":{"x":169068.49000000115,"y":2545742.7799999993}},{"attributes":{"ID":327027,"DIS_CODE":0,"TOWNNAME":"北區","LI":"六甲里","LIN":"17鄰","STREET":"公園路","SECT":" ","MAREA":" ","LANE":" ","ALLEY":" ","HOUSE_NO":"５８５號之１５","E_COORD97":169069.07999999999,"N_COORD97":2545747.3700000001,"ADDRESS":"公園路５８５號之１５","OBJECTID":327018},"geometry":{"x":169069.08000000101,"y":2545747.370000001}},{"attributes":{"ID":327028,"DIS_CODE":0,"TOWNNAME":"北區","LI":"六甲里","LIN":"17鄰","STREET":"公園路","SECT":" ","MAREA":" ","LANE":" ","ALLEY":" ","HOUSE_NO":"５８５號之１６","E_COORD97":169070.56,"N_COORD97":2545751.6600000001,"ADDRESS":"公園路５８５號之１６","OBJECTID":327019},"geometry":{"x":169070.56000000052,"y":2545751.6600000001}},{"attributes":{"ID":327029,"DIS_CODE":0,"TOWNNAME":"北區","LI":"六甲里","LIN":"17鄰","STREET":"公園路","SECT":" ","MAREA":" ","LANE":" ","ALLEY":" ","HOUSE_NO":"５８５號之１７","E_COORD97":169071.45000000001,"N_COORD97":2545756.6899999999,"ADDRESS":"公園路５８５號之１７","OBJECTID":327020},"geometry":{"x":169071.45000000019,"y":2545756.6899999995}},{"attributes":{"ID":327030,"DIS_CODE":0,"TOWNNAME":"北區","LI":"六甲里","LIN":"17鄰","STREET":"公園路","SECT":" ","MAREA":" ","LANE":" ","ALLEY":" ","HOUSE_NO":"５８５號之１８","E_COORD97":169070.85999999999,"N_COORD97":2545763.7200000002,"ADDRESS":"公園路５８５號之１８","OBJECTID":327021},"geometry":{"x":169070.86000000127,"y":2545763.7200000025}},{"attributes":{"ID":327031,"DIS_CODE":0,"TOWNNAME":"北區","LI":"六甲里","LIN":"17鄰","STREET":"公園路","SECT":" ","MAREA":" ","LANE":" ","ALLEY":" ","HOUSE_NO":"５８５號之１９","E_COORD97":169072.94,"N_COORD97":2545768.6099999999,"ADDRESS":"公園路５８５號之１９","OBJECTID":327022},"geometry":{"x":169072.94000000041,"y":2545768.6099999994}},{"attributes":{"ID":327032,"DIS_CODE":0,"TOWNNAME":"北區","LI":"六甲里","LIN":"17鄰","STREET":"公園路","SECT":" ","MAREA":" ","LANE":" ","ALLEY":" ","HOUSE_NO":"５８５號之２０","E_COORD97":169074.13,"N_COORD97":2545773.0499999998,"ADDRESS":"公園路５８５號之２０","OBJECTID":327023},"geometry":{"x":169074.13000000082,"y":2545773.0500000007}},{"attributes":{"ID":327033,"DIS_CODE":0,"TOWNNAME":"北區","LI":"六甲里","LIN":"17鄰","STREET":"公園路","SECT":" ","MAREA":" ","LANE":" ","ALLEY":" ","HOUSE_NO":"５８５號之２１","E_COORD97":169075.31,"N_COORD97":2545778.3799999999,"ADDRESS":"公園路５８５號之２１","OBJECTID":327024},"geometry":{"x":169075.31000000145,"y":2545778.3800000008}},{"attributes":{"ID":327034,"DIS_CODE":0,"TOWNNAME":"北區","LI":"六甲里","LIN":"17鄰","STREET":"公園路","SECT":" ","MAREA":" ","LANE":" ","ALLEY":" ","HOUSE_NO":"５８５號之２２","E_COORD97":169076.64999999999,"N_COORD97":2545782.0899999999,"ADDRESS":"公園路５８５號之２２","OBJECTID":327025},"geometry":{"x":169076.65000000037,"y":2545782.0899999999}},{"attributes":{"ID":327035,"DIS_CODE":0,"TOWNNAME":"南區","LI":"彰南里","LIN":"18鄰","STREET":"新和路","SECT":" ","MAREA":" ","LANE":" ","ALLEY":" ","HOUSE_NO":"７號","E_COORD97":166047.39999999999,"N_COORD97":2540875.3300000001,"ADDRESS":"新和路７號","OBJECTID":327026},"geometry":{"x":166047.40000000037,"y":2540875.3300000001}},{"attributes":{"ID":327036,"DIS_CODE":0,"TOWNNAME":"南區","LI":"建南里","LIN":"4鄰","STREET":"德興路","SECT":" ","MAREA":" ","LANE":"２６５巷","ALLEY":" ","HOUSE_NO":"２９號","E_COORD97":167298.04000000001,"N_COORD97":2540026.4300000002,"ADDRESS":"德興路２６５巷２９號","OBJECTID":327027},"geometry":{"x":167298.04000000097,"y":2540026.4299999997}},{"attributes":{"ID":327037,"DIS_CODE":0,"TOWNNAME":"南區","LI":"建南里","LIN":"4鄰","STREET":"德興路","SECT":" ","MAREA":" ","LANE":"２６５巷","ALLEY":" ","HOUSE_NO":"３１號","E_COORD97":167302.54000000001,"N_COORD97":2540027.4300000002,"ADDRESS":"德興路２６５巷３１號","OBJECTID":327028},"geometry":{"x":167302.54000000004,"y":2540027.4300000016}},{"attributes":{"ID":327038,"DIS_CODE":0,"TOWNNAME":"南區","LI":"建南里","LIN":"4鄰","STREET":"德興路","SECT":" ","MAREA":" ","LANE":"２６５巷","ALLEY":" ","HOUSE_NO":"３３號","E_COORD97":167307.16,"N_COORD97":2540029.1499999999,"ADDRESS":"德興路２６５巷３３號","OBJECTID":327029},"geometry":{"x":167307.16000000201,"y":2540029.1500000004}},{"attributes":{"ID":327039,"DIS_CODE":0,"TOWNNAME":"北區","LI":"大道里","LIN":"15鄰","STREET":"北門路","SECT":"二段","MAREA":" ","LANE":"５２７巷","ALLEY":" ","HOUSE_NO":"２９號五樓之１","E_COORD97":169516.14999999999,"N_COORD97":2545639.9399999999,"ADDRESS":"北門路二段５２７巷２９號五樓之１","OBJECTID":327030},"geometry":{"x":169516.14999999944,"y":2545639.9399999995}},{"attributes":{"ID":327040,"DIS_CODE":0,"TOWNNAME":"北區","LI":"大道里","LIN":"15鄰","STREET":"北門路","SECT":"二段","MAREA":" ","LANE":"５２７巷","ALLEY":" ","HOUSE_NO":"２９號六樓之２","E_COORD97":169516.14999999999,"N_COORD97":2545639.9399999999,"ADDRESS":"北門路二段５２７巷２９號六樓之２","OBJECTID":327031},"geometry":{"x":169516.14999999944,"y":2545639.9399999995}},{"attributes":{"ID":327041,"DIS_CODE":0,"TOWNNAME":"北區","LI":"大道里","LIN":"15鄰","STREET":"北門路","SECT":"二段","MAREA":" ","LANE":"５２７巷","ALLEY":" ","HOUSE_NO":"２９號六樓之１","E_COORD97":169516.14999999999,"N_COORD97":2545639.9399999999,"ADDRESS":"北門路二段５２７巷２９號六樓之１","OBJECTID":327032},"geometry":{"x":169516.14999999944,"y":2545639.9399999995}},{"attributes":{"ID":327042,"DIS_CODE":0,"TOWNNAME":"北區","LI":"大道里","LIN":"15鄰","STREET":"北門路","SECT":"二段","MAREA":" ","LANE":"５２７巷","ALLEY":" ","HOUSE_NO":"２９號七樓之２","E_COORD97":169516.14999999999,"N_COORD97":2545639.9399999999,"ADDRESS":"北門路二段５２７巷２９號七樓之２","OBJECTID":327033},"geometry":{"x":169516.14999999944,"y":2545639.9399999995}},{"attributes":{"ID":327043,"DIS_CODE":0,"TOWNNAME":"北區","LI":"大道里","LIN":"15鄰","STREET":"北門路","SECT":"二段","MAREA":" ","LANE":"５２７巷","ALLEY":" ","HOUSE_NO":"２９號七樓之１","E_COORD97":169516.14999999999,"N_COORD97":2545639.9399999999,"ADDRESS":"北門路二段５２７巷２９號七樓之１","OBJECTID":327034},"geometry":{"x":169516.14999999944,"y":2545639.9399999995}},{"attributes":{"ID":327044,"DIS_CODE":0,"TOWNNAME":"北區","LI":"大道里","LIN":"15鄰","STREET":"北門路","SECT":"二段","MAREA":" ","LANE":"５２７巷","ALLEY":" ","HOUSE_NO":"２９號八樓之２","E_COORD97":169516.14999999999,"N_COORD97":2545639.9399999999,"ADDRESS":"北門路二段５２７巷２９號八樓之２","OBJECTID":327035},"geometry":{"x":169516.14999999944,"y":2545639.9399999995}},{"attributes":{"ID":327045,"DIS_CODE":0,"TOWNNAME":"東區","LI":"後甲里","LIN":"32鄰","STREET":" ","SECT":" ","MAREA":"精忠三村","LANE":" ","ALLEY":" ","HOUSE_NO":"２號之６","E_COORD97":171757.35000000001,"N_COORD97":2543521.1000000001,"ADDRESS":"精忠三村２號之６","OBJECTID":327036},"geometry":{"x":171757.35000000056,"y":2543521.0999999996}},{"attributes":{"ID":327046,"DIS_CODE":0,"TOWNNAME":"北區","LI":"大道里","LIN":"15鄰","STREET":"北門路","SECT":"二段","MAREA":" ","LANE":"５２７巷","ALLEY":" ","HOUSE_NO":"２９號八樓之１","E_COORD97":169516.14999999999,"N_COORD97":2545639.9399999999,"ADDRESS":"北門路二段５２７巷２９號八樓之１","OBJECTID":327037},"geometry":{"x":169516.14999999944,"y":2545639.9399999995}},{"attributes":{"ID":327047,"DIS_CODE":0,"TOWNNAME":"北區","LI":"大道里","LIN":"15鄰","STREET":"北門路","SECT":"二段","MAREA":" ","LANE":"５２７巷","ALLEY":" ","HOUSE_NO":"２９號九樓之２","E_COORD97":169516.14999999999,"N_COORD97":2545639.9399999999,"ADDRESS":"北門路二段５２７巷２９號九樓之２","OBJECTID":327038},"geometry":{"x":169516.14999999944,"y":2545639.9399999995}},{"attributes":{"ID":327048,"DIS_CODE":0,"TOWNNAME":"北區","LI":"大道里","LIN":"15鄰","STREET":"北門路","SECT":"二段","MAREA":" ","LANE":"５２７巷","ALLEY":" ","HOUSE_NO":"２９號九樓之１","E_COORD97":169516.14999999999,"N_COORD97":2545639.9399999999,"ADDRESS":"北門路二段５２７巷２９號九樓之１","OBJECTID":327039},"geometry":{"x":169516.14999999944,"y":2545639.9399999995}},{"attributes":{"ID":327049,"DIS_CODE":0,"TOWNNAME":"北區","LI":"大道里","LIN":"15鄰","STREET":"北門路","SECT":"二段","MAREA":" ","LANE":"５２７巷","ALLEY":" ","HOUSE_NO":"２９號十樓之２","E_COORD97":169516.14999999999,"N_COORD97":2545639.9399999999,"ADDRESS":"北門路二段５２７巷２９號十樓之２","OBJECTID":327040},"geometry":{"x":169516.14999999944,"y":2545639.9399999995}},{"attributes":{"ID":327050,"DIS_CODE":0,"TOWNNAME":"北區","LI":"六甲里","LIN":"17鄰","STREET":"公園路","SECT":" ","MAREA":" ","LANE":" ","ALLEY":" ","HOUSE_NO":"５８５號之２３","E_COORD97":169077.39000000001,"N_COORD97":2545786.8199999998,"ADDRESS":"公園路５８５號之２３","OBJECTID":327041},"geometry":{"x":169077.3900000006,"y":2545786.8200000022}},{"attributes":{"ID":327051,"DIS_CODE":0,"TOWNNAME":"北區","LI":"六甲里","LIN":"17鄰","STREET":"公園路","SECT":" ","MAREA":" ","LANE":" ","ALLEY":" ","HOUSE_NO":"５８５號之２４","E_COORD97":169077.98000000001,"N_COORD97":2545788.75,"ADDRESS":"公園路５８５號之２４","OBJECTID":327042},"geometry":{"x":169077.98000000045,"y":2545788.7499999981}},{"attributes":{"ID":327052,"DIS_CODE":0,"TOWNNAME":"北區","LI":"六甲里","LIN":"17鄰","STREET":"公園路","SECT":" ","MAREA":" ","LANE":" ","ALLEY":" ","HOUSE_NO":"５８５號之２５","E_COORD97":169078.57000000001,"N_COORD97":2545793.4900000002,"ADDRESS":"公園路５８５號之２５","OBJECTID":327043},"geometry":{"x":169078.5700000003,"y":2545793.4900000002}},{"attributes":{"ID":327053,"DIS_CODE":0,"TOWNNAME":"北區","LI":"大道里","LIN":"15鄰","STREET":"北門路","SECT":"二段","MAREA":" ","LANE":"５２７巷","ALLEY":" ","HOUSE_NO":"２９號十樓之１","E_COORD97":169516.14999999999,"N_COORD97":2545639.9399999999,"ADDRESS":"北門路二段５２７巷２９號十樓之１","OBJECTID":327044},"geometry":{"x":169516.14999999944,"y":2545639.9399999995}},{"attributes":{"ID":327054,"DIS_CODE":0,"TOWNNAME":"新營區","LI":"忠政里","LIN":"15鄰","STREET":"府西路","SECT":" ","MAREA":" ","LANE":"２３０巷","ALLEY":" ","HOUSE_NO":"２０號六樓之４","E_COORD97":179870.28,"N_COORD97":2579590.04,"ADDRESS":"府西路２３０巷２０號六樓之４","OBJECTID":327045},"geometry":{"x":179870.28000000119,"y":2579590.0399999991}},{"attributes":{"ID":327055,"DIS_CODE":0,"TOWNNAME":"新營區","LI":"忠政里","LIN":"15鄰","STREET":"府西路","SECT":" ","MAREA":" ","LANE":"２３０巷","ALLEY":" ","HOUSE_NO":"２０號二樓之３","E_COORD97":179870.35000000001,"N_COORD97":2579590.04,"ADDRESS":"府西路２３０巷２０號二樓之３","OBJECTID":327046},"geometry":{"x":179870.35000000056,"y":2579590.0399999991}},{"attributes":{"ID":327056,"DIS_CODE":0,"TOWNNAME":"新營區","LI":"忠政里","LIN":"15鄰","STREET":"府西路","SECT":" ","MAREA":" ","LANE":"２３０巷","ALLEY":" ","HOUSE_NO":"２０號六樓之１","E_COORD97":179870.25,"N_COORD97":2579590.04,"ADDRESS":"府西路２３０巷２０號六樓之１","OBJECTID":327047},"geometry":{"x":179870.25000000093,"y":2579590.0399999991}},{"attributes":{"ID":327057,"DIS_CODE":0,"TOWNNAME":"新營區","LI":"嘉芳里","LIN":"15鄰","STREET":"復興路","SECT":" ","MAREA":" ","LANE":"１０７４巷","ALLEY":" ","HOUSE_NO":"２２號四樓","E_COORD97":176140.06,"N_COORD97":2578918.25,"ADDRESS":"復興路１０７４巷２２號四樓","OBJECTID":327048},"geometry":{"x":176140.05999999959,"y":2578918.25}},{"attributes":{"ID":327058,"DIS_CODE":0,"TOWNNAME":"南區","LI":"文南里","LIN":"15鄰","STREET":"美南街","SECT":" ","MAREA":" ","LANE":"１８２巷","ALLEY":" ","HOUSE_NO":"６號二樓","E_COORD97":166677.84,"N_COORD97":2542717.1499999999,"ADDRESS":"美南街１８２巷６號二樓","OBJECTID":327049},"geometry":{"x":166677.83999999985,"y":2542717.1500000004}},{"attributes":{"ID":327059,"DIS_CODE":0,"TOWNNAME":"南區","LI":"文南里","LIN":"15鄰","STREET":"美南街","SECT":" ","MAREA":" ","LANE":"１８２巷","ALLEY":" ","HOUSE_NO":"６號三樓","E_COORD97":166677.84,"N_COORD97":2542717.1499999999,"ADDRESS":"美南街１８２巷６號三樓","OBJECTID":327050},"geometry":{"x":166677.83999999985,"y":2542717.1500000004}},{"attributes":{"ID":327060,"DIS_CODE":0,"TOWNNAME":"南區","LI":"明興里","LIN":"15鄰","STREET":"德興路","SECT":" ","MAREA":" ","LANE":"１３０巷","ALLEY":" ","HOUSE_NO":"６８號二樓","E_COORD97":167082.45999999999,"N_COORD97":2540401.79,"ADDRESS":"德興路１３０巷６８號二樓","OBJECTID":327051},"geometry":{"x":167082.45999999996,"y":2540401.790000001}},{"attributes":{"ID":327061,"DIS_CODE":0,"TOWNNAME":"南區","LI":"明興里","LIN":"15鄰","STREET":"德興路","SECT":" ","MAREA":" ","LANE":"１３０巷","ALLEY":" ","HOUSE_NO":"６８號三樓","E_COORD97":167082.45999999999,"N_COORD97":2540401.79,"ADDRESS":"德興路１３０巷６８號三樓","OBJECTID":327052},"geometry":{"x":167082.45999999996,"y":2540401.790000001}},{"attributes":{"ID":327062,"DIS_CODE":0,"TOWNNAME":"南區","LI":"明興里","LIN":"15鄰","STREET":"德興路","SECT":" ","MAREA":" ","LANE":"１３０巷","ALLEY":" ","HOUSE_NO":"６８號四樓","E_COORD97":167082.45999999999,"N_COORD97":2540401.79,"ADDRESS":"德興路１３０巷６８號四樓","OBJECTID":327053},"geometry":{"x":167082.45999999996,"y":2540401.790000001}},{"attributes":{"ID":327063,"DIS_CODE":0,"TOWNNAME":"南區","LI":"明興里","LIN":"15鄰","STREET":"德興路","SECT":" ","MAREA":" ","LANE":"１３０巷","ALLEY":" ","HOUSE_NO":"６８號五樓","E_COORD97":167082.45999999999,"N_COORD97":2540401.79,"ADDRESS":"德興路１３０巷６８號五樓","OBJECTID":327054},"geometry":{"x":167082.45999999996,"y":2540401.790000001}},{"attributes":{"ID":327064,"DIS_CODE":0,"TOWNNAME":"南區","LI":"明興里","LIN":"15鄰","STREET":"德興路","SECT":" ","MAREA":" ","LANE":"１３０巷","ALLEY":" ","HOUSE_NO":"６８號六樓","E_COORD97":167082.45999999999,"N_COORD97":2540401.79,"ADDRESS":"德興路１３０巷６８號六樓","OBJECTID":327055},"geometry":{"x":167082.45999999996,"y":2540401.790000001}},{"attributes":{"ID":327065,"DIS_CODE":0,"TOWNNAME":"歸仁區","LI":"歸仁里","LIN":"15鄰","STREET":"信義北路","SECT":" ","MAREA":" ","LANE":"９６巷","ALLEY":" ","HOUSE_NO":"２２號七樓","E_COORD97":178035.42000000001,"N_COORD97":2541026.1099999999,"ADDRESS":"信義北路９６巷２２號七樓","OBJECTID":327056},"geometry":{"x":178035.41999999993,"y":2541026.1100000013}},{"attributes":{"ID":327066,"DIS_CODE":0,"TOWNNAME":"下營區","LI":"營前里","LIN":"5鄰","STREET":"文明街","SECT":" ","MAREA":" ","LANE":" ","ALLEY":" ","HOUSE_NO":"９７號","E_COORD97":174498.342894,"N_COORD97":2570300.0483900001,"ADDRESS":"文明街９７號","OBJECTID":327057},"geometry":{"x":174498.34289400093,"y":2570300.0483940002}},{"attributes":{"ID":327067,"DIS_CODE":0,"TOWNNAME":"歸仁區","LI":"歸仁里","LIN":"15鄰","STREET":"信義北路","SECT":" ","MAREA":" ","LANE":"９６巷","ALLEY":" ","HOUSE_NO":"２２號三樓","E_COORD97":178035.42000000001,"N_COORD97":2541026.1099999999,"ADDRESS":"信義北路９６巷２２號三樓","OBJECTID":327058},"geometry":{"x":178035.41999999993,"y":2541026.1100000013}},{"attributes":{"ID":327068,"DIS_CODE":0,"TOWNNAME":"歸仁區","LI":"歸仁里","LIN":"15鄰","STREET":"信義北路","SECT":" ","MAREA":" ","LANE":"９６巷","ALLEY":" ","HOUSE_NO":"２０號五樓","E_COORD97":178034.32000000001,"N_COORD97":2541021.1099999999,"ADDRESS":"信義北路９６巷２０號五樓","OBJECTID":327059},"geometry":{"x":178034.3200000003,"y":2541021.1099999994}},{"attributes":{"ID":327069,"DIS_CODE":0,"TOWNNAME":"歸仁區","LI":"文化里","LIN":"15鄰","STREET":"大德路","SECT":" ","MAREA":" ","LANE":"１９３巷","ALLEY":" ","HOUSE_NO":"２號三樓之５","E_COORD97":177272.53,"N_COORD97":2541511.3399999999,"ADDRESS":"大德路１９３巷２號三樓之５","OBJECTID":327060},"geometry":{"x":177272.53000000212,"y":2541511.3399999999}},{"attributes":{"ID":327070,"DIS_CODE":0,"TOWNNAME":"歸仁區","LI":"文化里","LIN":"15鄰","STREET":"大德路","SECT":" ","MAREA":" ","LANE":"１９３巷","ALLEY":" ","HOUSE_NO":"２號四樓之１","E_COORD97":177272.5,"N_COORD97":2541511.3399999999,"ADDRESS":"大德路１９３巷２號四樓之１","OBJECTID":327061},"geometry":{"x":177272.50000000186,"y":2541511.3399999999}},{"attributes":{"ID":327071,"DIS_CODE":0,"TOWNNAME":"山上區","LI":"明和里","LIN":"22鄰","STREET":" ","SECT":" ","MAREA":"北勢洲","LANE":" ","ALLEY":" ","HOUSE_NO":"３０之１８號","E_COORD97":181653.46744199999,"N_COORD97":2556754.8506499999,"ADDRESS":"北勢洲３０之１８號","OBJECTID":327062},"geometry":{"x":181653.46744200028,"y":2556754.8506450038}},{"attributes":{"ID":327072,"DIS_CODE":0,"TOWNNAME":"東區","LI":"後甲里","LIN":"32鄰","STREET":" ","SECT":" ","MAREA":"精忠三村","LANE":" ","ALLEY":" ","HOUSE_NO":"２號之５","E_COORD97":171757.35000000001,"N_COORD97":2543517.8199999998,"ADDRESS":"精忠三村２號之５","OBJECTID":327063},"geometry":{"x":171757.35000000056,"y":2543517.8200000022}},{"attributes":{"ID":327073,"DIS_CODE":0,"TOWNNAME":"東區","LI":"忠孝里","LIN":"15鄰","STREET":"榮譽街","SECT":" ","MAREA":" ","LANE":"８７巷","ALLEY":" ","HOUSE_NO":"２號","E_COORD97":169793.27247,"N_COORD97":2541729.97951,"ADDRESS":"榮譽街８７巷２號","OBJECTID":327064},"geometry":{"x":169793.27247000113,"y":2541729.9795079995}},{"attributes":{"ID":327074,"DIS_CODE":0,"TOWNNAME":"東區","LI":"忠孝里","LIN":"20鄰","STREET":"榮譽街","SECT":" ","MAREA":" ","LANE":"１２７巷","ALLEY":" ","HOUSE_NO":"３１號","E_COORD97":169858.07000000001,"N_COORD97":2542025.48,"ADDRESS":"榮譽街１２７巷３１號","OBJECTID":327065},"geometry":{"x":169858.07000000123,"y":2542025.4800000023}},{"attributes":{"ID":327075,"DIS_CODE":0,"TOWNNAME":"東區","LI":"忠孝里","LIN":"20鄰","STREET":"榮譽街","SECT":" ","MAREA":" ","LANE":"１２７巷","ALLEY":" ","HOUSE_NO":"１３號","E_COORD97":169895.07999999999,"N_COORD97":2542024.5299999998,"ADDRESS":"榮譽街１２７巷１３號","OBJECTID":327066},"geometry":{"x":169895.08000000101,"y":2542024.5300000012}},{"attributes":{"ID":327076,"DIS_CODE":0,"TOWNNAME":"東區","LI":"忠孝里","LIN":"13鄰","STREET":"榮譽街","SECT":" ","MAREA":" ","LANE":"８７巷","ALLEY":" ","HOUSE_NO":"３９號之３","E_COORD97":169762.13,"N_COORD97":2541764.8199999998,"ADDRESS":"榮譽街８７巷３９號之３","OBJECTID":327067},"geometry":{"x":169762.13000000082,"y":2541764.8200000022}},{"attributes":{"ID":327077,"DIS_CODE":0,"TOWNNAME":"東區","LI":"忠孝里","LIN":"13鄰","STREET":"榮譽街","SECT":" ","MAREA":" ","LANE":"８７巷","ALLEY":" ","HOUSE_NO":"２５號","E_COORD97":169751.26999999999,"N_COORD97":2541765.27,"ADDRESS":"榮譽街８７巷２５號","OBJECTID":327068},"geometry":{"x":169751.26999999955,"y":2541765.2700000014}},{"attributes":{"ID":327078,"DIS_CODE":0,"TOWNNAME":"歸仁區","LI":"文化里","LIN":"15鄰","STREET":"大德路","SECT":" ","MAREA":" ","LANE":"１９３巷","ALLEY":" ","HOUSE_NO":"２號四樓之３","E_COORD97":177272.51999999999,"N_COORD97":2541511.3399999999,"ADDRESS":"大德路１９３巷２號四樓之３","OBJECTID":327069},"geometry":{"x":177272.52000000048,"y":2541511.3399999999}},{"attributes":{"ID":327079,"DIS_CODE":0,"TOWNNAME":"歸仁區","LI":"文化里","LIN":"15鄰","STREET":"大德路","SECT":" ","MAREA":" ","LANE":"１９３巷","ALLEY":" ","HOUSE_NO":"２號三樓之２","E_COORD97":177272.51999999999,"N_COORD97":2541511.3399999999,"ADDRESS":"大德路１９３巷２號三樓之２","OBJECTID":327070},"geometry":{"x":177272.52000000048,"y":2541511.3399999999}},{"attributes":{"ID":327080,"DIS_CODE":0,"TOWNNAME":"歸仁區","LI":"文化里","LIN":"15鄰","STREET":"大德路","SECT":" ","MAREA":" ","LANE":"１９３巷","ALLEY":" ","HOUSE_NO":"２號七樓之２","E_COORD97":177272.51999999999,"N_COORD97":2541511.3399999999,"ADDRESS":"大德路１９３巷２號七樓之２","OBJECTID":327071},"geometry":{"x":177272.52000000048,"y":2541511.3399999999}},{"attributes":{"ID":327081,"DIS_CODE":0,"TOWNNAME":"歸仁區","LI":"文化里","LIN":"15鄰","STREET":"大德路","SECT":" ","MAREA":" ","LANE":"１９３巷","ALLEY":" ","HOUSE_NO":"２號七樓之６","E_COORD97":177272.51999999999,"N_COORD97":2541511.3399999999,"ADDRESS":"大德路１９３巷２號七樓之６","OBJECTID":327072},"geometry":{"x":177272.52000000048,"y":2541511.3399999999}},{"attributes":{"ID":327082,"DIS_CODE":0,"TOWNNAME":"歸仁區","LI":"文化里","LIN":"15鄰","STREET":"大德路","SECT":" ","MAREA":" ","LANE":"１９３巷","ALLEY":" ","HOUSE_NO":"２號二樓之７","E_COORD97":177272.51000000001,"N_COORD97":2541511.3399999999,"ADDRESS":"大德路１９３巷２號二樓之７","OBJECTID":327073},"geometry":{"x":177272.51000000071,"y":2541511.3399999999}},{"attributes":{"ID":327083,"DIS_CODE":0,"TOWNNAME":"北區","LI":"六甲里","LIN":"17鄰","STREET":"公園路","SECT":" ","MAREA":" ","LANE":" ","ALLEY":" ","HOUSE_NO":"５８５號之２６","E_COORD97":169080.64999999999,"N_COORD97":2545797.6299999999,"ADDRESS":"公園路５８５號之２６","OBJECTID":327074},"geometry":{"x":169080.65000000224,"y":2545797.629999999}},{"attributes":{"ID":327084,"DIS_CODE":0,"TOWNNAME":"北區","LI":"六甲里","LIN":"17鄰","STREET":"公園路","SECT":" ","MAREA":" ","LANE":" ","ALLEY":" ","HOUSE_NO":"５８５號之２７","E_COORD97":169080.95999999999,"N_COORD97":2545801.4500000002,"ADDRESS":"公園路５８５號之２７","OBJECTID":327075},"geometry":{"x":169080.95999999996,"y":2545801.4500000011}},{"attributes":{"ID":327085,"DIS_CODE":0,"TOWNNAME":"北區","LI":"六甲里","LIN":"17鄰","STREET":"公園路","SECT":" ","MAREA":" ","LANE":" ","ALLEY":" ","HOUSE_NO":"５８５號之２８","E_COORD97":169082.29000000001,"N_COORD97":2545806.04,"ADDRESS":"公園路５８５號之２８","OBJECTID":327076},"geometry":{"x":169082.29000000004,"y":2545806.0399999991}},{"attributes":{"ID":327086,"DIS_CODE":0,"TOWNNAME":"北區","LI":"六甲里","LIN":"17鄰","STREET":"公園路","SECT":" ","MAREA":" ","LANE":" ","ALLEY":" ","HOUSE_NO":"５８５號之２９","E_COORD97":169083.48000000001,"N_COORD97":2545810.04,"ADDRESS":"公園路５８５號之２９","OBJECTID":327077},"geometry":{"x":169083.48000000231,"y":2545810.040000001}},{"attributes":{"ID":327087,"DIS_CODE":0,"TOWNNAME":"北區","LI":"六甲里","LIN":"17鄰","STREET":"公園路","SECT":" ","MAREA":" ","LANE":" ","ALLEY":" ","HOUSE_NO":"５８５號之３０","E_COORD97":169084.07000000001,"N_COORD97":2545813,"ADDRESS":"公園路５８５號之３０","OBJECTID":327078},"geometry":{"x":169084.0700000003,"y":2545813}},{"attributes":{"ID":327088,"DIS_CODE":0,"TOWNNAME":"東區","LI":"虎尾里","LIN":"16鄰","STREET":"東成街","SECT":" ","MAREA":" ","LANE":"４６巷","ALLEY":" ","HOUSE_NO":"３７號","E_COORD97":171364.35000000001,"N_COORD97":2542157.23,"ADDRESS":"東成街４６巷３７號","OBJECTID":327079},"geometry":{"x":171364.35000000056,"y":2542157.2300000004}},{"attributes":{"ID":327089,"DIS_CODE":0,"TOWNNAME":"安南區","LI":"溪頂里","LIN":"24鄰","STREET":"惠安街","SECT":" ","MAREA":" ","LANE":"２４巷","ALLEY":" ","HOUSE_NO":"９號","E_COORD97":169078.75,"N_COORD97":2547509.3100000001,"ADDRESS":"惠安街２４巷９號","OBJECTID":327080},"geometry":{"x":169078.75,"y":2547509.3100000024}},{"attributes":{"ID":327090,"DIS_CODE":0,"TOWNNAME":"安南區","LI":"梅花里","LIN":"19鄰","STREET":"安中路","SECT":"一段","MAREA":" ","LANE":"７０５巷","ALLEY":" ","HOUSE_NO":"４號","E_COORD97":167504.04000000001,"N_COORD97":2549258.6299999999,"ADDRESS":"安中路一段７０５巷４號","OBJECTID":327081},"geometry":{"x":167504.04000000004,"y":2549258.6300000008}},{"attributes":{"ID":327091,"DIS_CODE":0,"TOWNNAME":"安南區","LI":"梅花里","LIN":"19鄰","STREET":"安中路","SECT":"一段","MAREA":" ","LANE":"７０５巷","ALLEY":" ","HOUSE_NO":"６號","E_COORD97":167498.92999999999,"N_COORD97":2549261.6000000001,"ADDRESS":"安中路一段７０５巷６號","OBJECTID":327082},"geometry":{"x":167498.93000000063,"y":2549261.6000000015}},{"attributes":{"ID":327092,"DIS_CODE":0,"TOWNNAME":"安南區","LI":"梅花里","LIN":"19鄰","STREET":"安中路","SECT":"一段","MAREA":" ","LANE":"７０５巷","ALLEY":" ","HOUSE_NO":"８號","E_COORD97":167493.39999999999,"N_COORD97":2549265,"ADDRESS":"安中路一段７０５巷８號","OBJECTID":327083},"geometry":{"x":167493.40000000037,"y":2549265}},{"attributes":{"ID":327093,"DIS_CODE":0,"TOWNNAME":"安南區","LI":"梅花里","LIN":"21鄰","STREET":"同安路","SECT":" ","MAREA":" ","LANE":"２６２巷","ALLEY":" ","HOUSE_NO":"１５號","E_COORD97":167216.25,"N_COORD97":2549111.5699999998,"ADDRESS":"同安路２６２巷１５號","OBJECTID":327084},"geometry":{"x":167216.25,"y":2549111.5700000003}},{"attributes":{"ID":327094,"DIS_CODE":0,"TOWNNAME":"歸仁區","LI":"文化里","LIN":"15鄰","STREET":"大德路","SECT":" ","MAREA":" ","LANE":"１９３巷","ALLEY":" ","HOUSE_NO":"２號三樓之６","E_COORD97":177272.51999999999,"N_COORD97":2541511.3399999999,"ADDRESS":"大德路１９３巷２號三樓之６","OBJECTID":327085},"geometry":{"x":177272.52000000048,"y":2541511.3399999999}},{"attributes":{"ID":327095,"DIS_CODE":0,"TOWNNAME":"歸仁區","LI":"文化里","LIN":"15鄰","STREET":"大德路","SECT":" ","MAREA":" ","LANE":"１９３巷","ALLEY":" ","HOUSE_NO":"２號七樓之１","E_COORD97":177272.5,"N_COORD97":2541511.3399999999,"ADDRESS":"大德路１９３巷２號七樓之１","OBJECTID":327086},"geometry":{"x":177272.50000000186,"y":2541511.3399999999}},{"attributes":{"ID":327096,"DIS_CODE":0,"TOWNNAME":"歸仁區","LI":"文化里","LIN":"15鄰","STREET":"大德路","SECT":" ","MAREA":" ","LANE":"１９３巷","ALLEY":" ","HOUSE_NO":"２號六樓之７","E_COORD97":177272.51000000001,"N_COORD97":2541511.3399999999,"ADDRESS":"大德路１９３巷２號六樓之７","OBJECTID":327087},"geometry":{"x":177272.51000000071,"y":2541511.3399999999}},{"attributes":{"ID":327097,"DIS_CODE":0,"TOWNNAME":"歸仁區","LI":"文化里","LIN":"15鄰","STREET":"大德路","SECT":" ","MAREA":" ","LANE":"１９３巷","ALLEY":" ","HOUSE_NO":"２號七樓之３","E_COORD97":177272.51999999999,"N_COORD97":2541511.3399999999,"ADDRESS":"大德路１９３巷２號七樓之３","OBJECTID":327088},"geometry":{"x":177272.52000000048,"y":2541511.3399999999}},{"attributes":{"ID":327098,"DIS_CODE":0,"TOWNNAME":"歸仁區","LI":"文化里","LIN":"15鄰","STREET":"大德路","SECT":" ","MAREA":" ","LANE":"１９３巷","ALLEY":" ","HOUSE_NO":"２號五樓之５","E_COORD97":177272.53,"N_COORD97":2541511.3399999999,"ADDRESS":"大德路１９３巷２號五樓之５","OBJECTID":327089},"geometry":{"x":177272.53000000212,"y":2541511.3399999999}},{"attributes":{"ID":327099,"DIS_CODE":0,"TOWNNAME":"歸仁區","LI":"文化里","LIN":"15鄰","STREET":"大德路","SECT":" ","MAREA":" ","LANE":"１９３巷","ALLEY":" ","HOUSE_NO":"２號六樓之３","E_COORD97":177272.51999999999,"N_COORD97":2541511.3399999999,"ADDRESS":"大德路１９３巷２號六樓之３","OBJECTID":327090},"geometry":{"x":177272.52000000048,"y":2541511.3399999999}},{"attributes":{"ID":327100,"DIS_CODE":0,"TOWNNAME":"歸仁區","LI":"文化里","LIN":"15鄰","STREET":"大德路","SECT":" ","MAREA":" ","LANE":"１９３巷","ALLEY":" ","HOUSE_NO":"２號六樓之２","E_COORD97":177272.51999999999,"N_COORD97":2541511.3399999999,"ADDRESS":"大德路１９３巷２號六樓之２","OBJECTID":327091},"geometry":{"x":177272.52000000048,"y":2541511.3399999999}},{"attributes":{"ID":327101,"DIS_CODE":0,"TOWNNAME":"歸仁區","LI":"文化里","LIN":"15鄰","STREET":"大德路","SECT":" ","MAREA":" ","LANE":"１９３巷","ALLEY":" ","HOUSE_NO":"２號二樓之３","E_COORD97":177272.51999999999,"N_COORD97":2541511.3399999999,"ADDRESS":"大德路１９３巷２號二樓之３","OBJECTID":327092},"geometry":{"x":177272.52000000048,"y":2541511.3399999999}},{"attributes":{"ID":327102,"DIS_CODE":0,"TOWNNAME":"歸仁區","LI":"文化里","LIN":"15鄰","STREET":"大德路","SECT":" ","MAREA":" ","LANE":"１９３巷","ALLEY":" ","HOUSE_NO":"２號二樓之５","E_COORD97":177272.53,"N_COORD97":2541511.3399999999,"ADDRESS":"大德路１９３巷２號二樓之５","OBJECTID":327093},"geometry":{"x":177272.53000000212,"y":2541511.3399999999}},{"attributes":{"ID":327103,"DIS_CODE":0,"TOWNNAME":"歸仁區","LI":"文化里","LIN":"15鄰","STREET":"大德路","SECT":" ","MAREA":" ","LANE":"１９３巷","ALLEY":" ","HOUSE_NO":"２號四樓之６","E_COORD97":177272.51999999999,"N_COORD97":2541511.3399999999,"ADDRESS":"大德路１９３巷２號四樓之６","OBJECTID":327094},"geometry":{"x":177272.52000000048,"y":2541511.3399999999}},{"attributes":{"ID":327104,"DIS_CODE":0,"TOWNNAME":"歸仁區","LI":"文化里","LIN":"15鄰","STREET":"大德路","SECT":" ","MAREA":" ","LANE":"１９３巷","ALLEY":" ","HOUSE_NO":"２號七樓之５","E_COORD97":177272.53,"N_COORD97":2541511.3399999999,"ADDRESS":"大德路１９３巷２號七樓之５","OBJECTID":327095},"geometry":{"x":177272.53000000212,"y":2541511.3399999999}},{"attributes":{"ID":327105,"DIS_CODE":0,"TOWNNAME":"歸仁區","LI":"文化里","LIN":"15鄰","STREET":"大德路","SECT":" ","MAREA":" ","LANE":"１９３巷","ALLEY":" ","HOUSE_NO":"２號五樓之２","E_COORD97":177272.51999999999,"N_COORD97":2541511.3399999999,"ADDRESS":"大德路１９３巷２號五樓之２","OBJECTID":327096},"geometry":{"x":177272.52000000048,"y":2541511.3399999999}},{"attributes":{"ID":327106,"DIS_CODE":0,"TOWNNAME":"歸仁區","LI":"文化里","LIN":"15鄰","STREET":"大德路","SECT":" ","MAREA":" ","LANE":"１９３巷","ALLEY":" ","HOUSE_NO":"２號三樓之３","E_COORD97":177272.51999999999,"N_COORD97":2541511.3399999999,"ADDRESS":"大德路１９３巷２號三樓之３","OBJECTID":327097},"geometry":{"x":177272.52000000048,"y":2541511.3399999999}},{"attributes":{"ID":327107,"DIS_CODE":0,"TOWNNAME":"歸仁區","LI":"文化里","LIN":"15鄰","STREET":"大德路","SECT":" ","MAREA":" ","LANE":"１９３巷","ALLEY":" ","HOUSE_NO":"２號四樓之７","E_COORD97":177272.51000000001,"N_COORD97":2541511.3399999999,"ADDRESS":"大德路１９３巷２號四樓之７","OBJECTID":327098},"geometry":{"x":177272.51000000071,"y":2541511.3399999999}},{"attributes":{"ID":327108,"DIS_CODE":0,"TOWNNAME":"歸仁區","LI":"歸仁里","LIN":"15鄰","STREET":"信義北路","SECT":" ","MAREA":" ","LANE":"９６巷","ALLEY":" ","HOUSE_NO":"１２號七樓","E_COORD97":178022.01999999999,"N_COORD97":2541018.1099999999,"ADDRESS":"信義北路９６巷１２號七樓","OBJECTID":327099},"geometry":{"x":178022.01999999955,"y":2541018.1099999994}},{"attributes":{"ID":327109,"DIS_CODE":0,"TOWNNAME":"歸仁區","LI":"文化里","LIN":"15鄰","STREET":"大德路","SECT":" ","MAREA":" ","LANE":"１９３巷","ALLEY":" ","HOUSE_NO":"２號五樓之７","E_COORD97":177272.51000000001,"N_COORD97":2541511.3399999999,"ADDRESS":"大德路１９３巷２號五樓之７","OBJECTID":327100},"geometry":{"x":177272.51000000071,"y":2541511.3399999999}},{"attributes":{"ID":327110,"DIS_CODE":0,"TOWNNAME":"歸仁區","LI":"歸仁里","LIN":"15鄰","STREET":"信義北路","SECT":" ","MAREA":" ","LANE":"９６巷","ALLEY":" ","HOUSE_NO":"８號三樓","E_COORD97":178024.97,"N_COORD97":2541030.1099999999,"ADDRESS":"信義北路９６巷８號三樓","OBJECTID":327101},"geometry":{"x":178024.9700000016,"y":2541030.1100000013}},{"attributes":{"ID":327111,"DIS_CODE":0,"TOWNNAME":"北區","LI":"六甲里","LIN":"17鄰","STREET":"公園路","SECT":" ","MAREA":" ","LANE":" ","ALLEY":" ","HOUSE_NO":"５８５號之３１","E_COORD97":169085.26000000001,"N_COORD97":2545817.4399999999,"ADDRESS":"公園路５８５號之３１","OBJECTID":327102},"geometry":{"x":169085.25999999978,"y":2545817.4399999976}},{"attributes":{"ID":327112,"DIS_CODE":0,"TOWNNAME":"北區","LI":"六甲里","LIN":"17鄰","STREET":"公園路","SECT":" ","MAREA":" ","LANE":" ","ALLEY":" ","HOUSE_NO":"５８５號之３２","E_COORD97":169086.44,"N_COORD97":2545821.8900000001,"ADDRESS":"公園路５８５號之３２","OBJECTID":327103},"geometry":{"x":169086.44000000041,"y":2545821.8900000006}},{"attributes":{"ID":327113,"DIS_CODE":0,"TOWNNAME":"北區","LI":"六甲里","LIN":"17鄰","STREET":"公園路","SECT":" ","MAREA":" ","LANE":" ","ALLEY":" ","HOUSE_NO":"５８５號之３３","E_COORD97":169087.78,"N_COORD97":2545826.77,"ADDRESS":"公園路５８５號之３３","OBJECTID":327104},"geometry":{"x":169087.78000000026,"y":2545826.7700000014}},{"attributes":{"ID":327114,"DIS_CODE":0,"TOWNNAME":"新營區","LI":"民榮里","LIN":"17鄰","STREET":"新榮五街","SECT":" ","MAREA":" ","LANE":" ","ALLEY":" ","HOUSE_NO":"１００號","E_COORD97":178431.32000000001,"N_COORD97":2577579.0699999998,"ADDRESS":"新榮五街１００號","OBJECTID":327105},"geometry":{"x":178431.3200000003,"y":2577579.0700000022}},{"attributes":{"ID":327115,"DIS_CODE":0,"TOWNNAME":"新營區","LI":"民榮里","LIN":"17鄰","STREET":"新進路","SECT":"二段","MAREA":" ","LANE":" ","ALLEY":" ","HOUSE_NO":"３００號","E_COORD97":178829.19,"N_COORD97":2577763.21,"ADDRESS":"新進路二段３００號","OBJECTID":327106},"geometry":{"x":178829.19000000041,"y":2577763.2100000009}},{"attributes":{"ID":327116,"DIS_CODE":0,"TOWNNAME":"南區","LI":"南華里","LIN":"5鄰","STREET":"中華南路","SECT":"二段","MAREA":" ","LANE":" ","ALLEY":" ","HOUSE_NO":"３９６號","E_COORD97":166423.67000000001,"N_COORD97":2540298.7400000002,"ADDRESS":"中華南路二段３９６號","OBJECTID":327107},"geometry":{"x":166423.67000000179,"y":2540298.7400000002}},{"attributes":{"ID":327117,"DIS_CODE":0,"TOWNNAME":"安南區","LI":"海東里","LIN":"23鄰","STREET":"同安路","SECT":" ","MAREA":" ","LANE":"１６７巷","ALLEY":" ","HOUSE_NO":"７號","E_COORD97":167049.39999999999,"N_COORD97":2549115.1699999999,"ADDRESS":"同安路１６７巷７號","OBJECTID":327108},"geometry":{"x":167049.40000000037,"y":2549115.1699999981}},{"attributes":{"ID":327118,"DIS_CODE":0,"TOWNNAME":"安南區","LI":"安順里","LIN":"18鄰","STREET":"育安二街","SECT":" ","MAREA":" ","LANE":"１３５巷","ALLEY":" ","HOUSE_NO":"７號","E_COORD97":169647.82000000001,"N_COORD97":2550010.8399999999,"ADDRESS":"育安二街１３５巷７號","OBJECTID":327109},"geometry":{"x":169647.82000000123,"y":2550010.8400000017}},{"attributes":{"ID":327119,"DIS_CODE":0,"TOWNNAME":"安南區","LI":"新順里","LIN":"14鄰","STREET":"安和路","SECT":"二段","MAREA":" ","LANE":"３１８巷","ALLEY":" ","HOUSE_NO":"１３７號","E_COORD97":170150.89000000001,"N_COORD97":2549296.52,"ADDRESS":"安和路二段３１８巷１３７號","OBJECTID":327110},"geometry":{"x":170150.88999999966,"y":2549296.5200000014}},{"attributes":{"ID":327120,"DIS_CODE":0,"TOWNNAME":"安南區","LI":"城南里","LIN":"14鄰","STREET":"城西街","SECT":"二段","MAREA":" ","LANE":"１巷","ALLEY":" ","HOUSE_NO":"６之１５０號","E_COORD97":159919.10000000001,"N_COORD97":2550830,"ADDRESS":"城西街二段１巷６之１５０號","OBJECTID":327111},"geometry":{"x":159919.09999999963,"y":2550830.0000000019}},{"attributes":{"ID":327121,"DIS_CODE":0,"TOWNNAME":"安南區","LI":"海東里","LIN":"24鄰","STREET":"同安路","SECT":" ","MAREA":" ","LANE":"２２５巷","ALLEY":" ","HOUSE_NO":"１號","E_COORD97":167164.95000000001,"N_COORD97":2549193.3100000001,"ADDRESS":"同安路２２５巷１號","OBJECTID":327112},"geometry":{"x":167164.95000000112,"y":2549193.3100000024}},{"attributes":{"ID":327122,"DIS_CODE":0,"TOWNNAME":"安南區","LI":"海東里","LIN":"24鄰","STREET":"同安路","SECT":" ","MAREA":" ","LANE":"２２５巷","ALLEY":" ","HOUSE_NO":"４７號","E_COORD97":167111.66,"N_COORD97":2549225.25,"ADDRESS":"同安路２２５巷４７號","OBJECTID":327113},"geometry":{"x":167111.66000000015,"y":2549225.25}},{"attributes":{"ID":327123,"DIS_CODE":0,"TOWNNAME":"安南區","LI":"總頭里","LIN":"1鄰","STREET":"長溪路","SECT":"二段","MAREA":" ","LANE":"４７０巷","ALLEY":" ","HOUSE_NO":"１號","E_COORD97":168286.73999999999,"N_COORD97":2550379.9100000001,"ADDRESS":"長溪路二段４７０巷１號","OBJECTID":327114},"geometry":{"x":168286.74000000115,"y":2550379.910000002}},{"attributes":{"ID":327124,"DIS_CODE":0,"TOWNNAME":"安南區","LI":"安東里","LIN":"4鄰","STREET":"安和路","SECT":"一段","MAREA":" ","LANE":"２８８巷","ALLEY":" ","HOUSE_NO":"１６９號","E_COORD97":169813.79000000001,"N_COORD97":2548245.5099999998,"ADDRESS":"安和路一段２８８巷１６９號","OBJECTID":327115},"geometry":{"x":169813.79000000097,"y":2548245.5100000016}},{"attributes":{"ID":327125,"DIS_CODE":0,"TOWNNAME":"歸仁區","LI":"歸仁里","LIN":"15鄰","STREET":"信義北路","SECT":" ","MAREA":" ","LANE":"９６巷","ALLEY":" ","HOUSE_NO":"１６號四樓","E_COORD97":178032.22,"N_COORD97":2541009.1099999999,"ADDRESS":"信義北路９６巷１６號四樓","OBJECTID":327116},"geometry":{"x":178032.22000000067,"y":2541009.1100000013}},{"attributes":{"ID":327126,"DIS_CODE":0,"TOWNNAME":"新營區","LI":"民榮里","LIN":"17鄰","STREET":"新進路","SECT":"二段","MAREA":" ","LANE":" ","ALLEY":" ","HOUSE_NO":"３１４之２號","E_COORD97":178792.84,"N_COORD97":2577767.8799999999,"ADDRESS":"新進路二段３１４之２號","OBJECTID":327117},"geometry":{"x":178792.84000000078,"y":2577767.879999999}},{"attributes":{"ID":327127,"DIS_CODE":0,"TOWNNAME":"善化區","LI":"什乃里","LIN":"8鄰","STREET":" ","SECT":" ","MAREA":"什乃","LANE":" ","ALLEY":" ","HOUSE_NO":"６７號","E_COORD97":176177.85000000001,"N_COORD97":2560433,"ADDRESS":"什乃６７號","OBJECTID":327118},"geometry":{"x":176177.8499999987,"y":2560433}},{"attributes":{"ID":327128,"DIS_CODE":0,"TOWNNAME":"善化區","LI":"小新里","LIN":"20鄰","STREET":" ","SECT":" ","MAREA":"小新營","LANE":" ","ALLEY":" ","HOUSE_NO":"３６１號","E_COORD97":180237.42999999999,"N_COORD97":2557344.5,"ADDRESS":"小新營３６１號","OBJECTID":327119},"geometry":{"x":180237.43000000156,"y":2557344.5}},{"attributes":{"ID":327129,"DIS_CODE":0,"TOWNNAME":"新營區","LI":"民榮里","LIN":"17鄰","STREET":"新進路","SECT":"二段","MAREA":" ","LANE":" ","ALLEY":" ","HOUSE_NO":"３１８號","E_COORD97":178762.79999999999,"N_COORD97":2577784.5699999998,"ADDRESS":"新進路二段３１８號","OBJECTID":327120},"geometry":{"x":178762.79999999981,"y":2577784.5700000003}},{"attributes":{"ID":327130,"DIS_CODE":0,"TOWNNAME":"新營區","LI":"民權里","LIN":"17鄰","STREET":"文化街","SECT":" ","MAREA":" ","LANE":" ","ALLEY":" ","HOUSE_NO":"２７號之２","E_COORD97":179797.37,"N_COORD97":2578090.8799999999,"ADDRESS":"文化街２７號之２","OBJECTID":327121},"geometry":{"x":179797.37000000011,"y":2578090.8800000008}},{"attributes":{"ID":327131,"DIS_CODE":0,"TOWNNAME":"新營區","LI":"民榮里","LIN":"17鄰","STREET":"新榮四街","SECT":" ","MAREA":" ","LANE":" ","ALLEY":" ","HOUSE_NO":"１０５號","E_COORD97":178572.64000000001,"N_COORD97":2577612.73,"ADDRESS":"新榮四街１０５號","OBJECTID":327122},"geometry":{"x":178572.63999999966,"y":2577612.7300000023}},{"attributes":{"ID":327132,"DIS_CODE":0,"TOWNNAME":"新營區","LI":"大宏里","LIN":"17鄰","STREET":"三民路","SECT":" ","MAREA":" ","LANE":" ","ALLEY":" ","HOUSE_NO":"４８之６號","E_COORD97":180334.72,"N_COORD97":2578544.6200000001,"ADDRESS":"三民路４８之６號","OBJECTID":327123},"geometry":{"x":180334.71999999974,"y":2578544.620000001}},{"attributes":{"ID":327133,"DIS_CODE":0,"TOWNNAME":"新營區","LI":"民榮里","LIN":"17鄰","STREET":"新進路","SECT":"二段","MAREA":" ","LANE":" ","ALLEY":" ","HOUSE_NO":"２９４號","E_COORD97":178841.44,"N_COORD97":2577763.1499999999,"ADDRESS":"新進路二段２９４號","OBJECTID":327124},"geometry":{"x":178841.44000000134,"y":2577763.1500000004}},{"attributes":{"ID":327134,"DIS_CODE":0,"TOWNNAME":"新營區","LI":"大宏里","LIN":"17鄰","STREET":"三民路","SECT":" ","MAREA":" ","LANE":" ","ALLEY":" ","HOUSE_NO":"４６之７０號","E_COORD97":180346.14999999999,"N_COORD97":2578536.8199999998,"ADDRESS":"三民路４６之７０號","OBJECTID":327125},"geometry":{"x":180346.15000000037,"y":2578536.8200000022}},{"attributes":{"ID":327135,"DIS_CODE":0,"TOWNNAME":"新營區","LI":"民榮里","LIN":"17鄰","STREET":"新進路","SECT":"二段","MAREA":" ","LANE":" ","ALLEY":" ","HOUSE_NO":"３１０號","E_COORD97":178807.72,"N_COORD97":2577765.5299999998,"ADDRESS":"新進路二段３１０號","OBJECTID":327126},"geometry":{"x":178807.71999999974,"y":2577765.5300000012}},{"attributes":{"ID":327136,"DIS_CODE":0,"TOWNNAME":"新營區","LI":"民生里","LIN":"17鄰","STREET":"三民路","SECT":" ","MAREA":" ","LANE":" ","ALLEY":" ","HOUSE_NO":"２２４號","E_COORD97":179138.31,"N_COORD97":2578024.2000000002,"ADDRESS":"三民路２２４號","OBJECTID":327127},"geometry":{"x":179138.31000000052,"y":2578024.200000003}},{"attributes":{"ID":327137,"DIS_CODE":0,"TOWNNAME":"新營區","LI":"民榮里","LIN":"17鄰","STREET":"新榮三街","SECT":" ","MAREA":" ","LANE":" ","ALLEY":" ","HOUSE_NO":"２８號","E_COORD97":178499.32999999999,"N_COORD97":2577727.1000000001,"ADDRESS":"新榮三街２８號","OBJECTID":327128},"geometry":{"x":178499.33000000194,"y":2577727.1000000034}},{"attributes":{"ID":327138,"DIS_CODE":0,"TOWNNAME":"安南區","LI":"四草里","LIN":"4鄰","STREET":"大眾三街","SECT":" ","MAREA":" ","LANE":" ","ALLEY":" ","HOUSE_NO":"１０號","E_COORD97":160755.87,"N_COORD97":2546455.1800000002,"ADDRESS":"大眾三街１０號","OBJECTID":327129},"geometry":{"x":160755.87000000104,"y":2546455.1800000016}},{"attributes":{"ID":327139,"DIS_CODE":0,"TOWNNAME":"善化區","LI":"胡厝里","LIN":"18鄰","STREET":" ","SECT":" ","MAREA":"西衛","LANE":" ","ALLEY":" ","HOUSE_NO":"１３號","E_COORD97":174406.42000000001,"N_COORD97":2559351.75,"ADDRESS":"西衛１３號","OBJECTID":327130},"geometry":{"x":174406.42000000179,"y":2559351.7500000019}},{"attributes":{"ID":327140,"DIS_CODE":0,"TOWNNAME":"善化區","LI":"牛庄里","LIN":" ","STREET":" ","SECT":" ","MAREA":"牛庄","LANE":" ","ALLEY":" ","HOUSE_NO":"４８之１號","E_COORD97":180244.26999999999,"N_COORD97":2559870.02,"ADDRESS":"牛庄４８之１號","OBJECTID":327131},"geometry":{"x":180244.27000000048,"y":2559870.0199999977}},{"attributes":{"ID":327141,"DIS_CODE":0,"TOWNNAME":"安南區","LI":"四草里","LIN":"4鄰","STREET":"大眾三街","SECT":" ","MAREA":" ","LANE":" ","ALLEY":" ","HOUSE_NO":"１２號","E_COORD97":160757.89000000001,"N_COORD97":2546451.1400000001,"ADDRESS":"大眾三街１２號","OBJECTID":327132},"geometry":{"x":160757.88999999966,"y":2546451.1400000006}},{"attributes":{"ID":327142,"DIS_CODE":0,"TOWNNAME":"安南區","LI":"四草里","LIN":"4鄰","STREET":"大眾三街","SECT":" ","MAREA":" ","LANE":" ","ALLEY":" ","HOUSE_NO":"６號","E_COORD97":160752.60999999999,"N_COORD97":2546462.9300000002,"ADDRESS":"大眾三街６號","OBJECTID":327133},"geometry":{"x":160752.61000000127,"y":2546462.9300000016}},{"attributes":{"ID":327143,"DIS_CODE":0,"TOWNNAME":"安南區","LI":"四草里","LIN":"4鄰","STREET":"大眾三街","SECT":" ","MAREA":" ","LANE":" ","ALLEY":" ","HOUSE_NO":"２號","E_COORD97":160751.37,"N_COORD97":2546467.0899999999,"ADDRESS":"大眾三街２號","OBJECTID":327134},"geometry":{"x":160751.37000000011,"y":2546467.0899999999}},{"attributes":{"ID":327144,"DIS_CODE":0,"TOWNNAME":"安南區","LI":"四草里","LIN":"4鄰","STREET":"大眾三街","SECT":" ","MAREA":" ","LANE":" ","ALLEY":" ","HOUSE_NO":"８號","E_COORD97":160753.95999999999,"N_COORD97":2546458.7799999998,"ADDRESS":"大眾三街８號","OBJECTID":327135},"geometry":{"x":160753.95999999996,"y":2546458.7799999993}},{"attributes":{"ID":327145,"DIS_CODE":0,"TOWNNAME":"安南區","LI":"州南里","LIN":"18鄰","STREET":"安和路","SECT":"四段","MAREA":" ","LANE":"２７４巷","ALLEY":" ","HOUSE_NO":"４２之１號","E_COORD97":170045.17000000001,"N_COORD97":2550741.3599999999,"ADDRESS":"安和路四段２７４巷４２之１號","OBJECTID":327136},"geometry":{"x":170045.17000000086,"y":2550741.3600000013}},{"attributes":{"ID":327146,"DIS_CODE":0,"TOWNNAME":"安南區","LI":"州北里","LIN":"25鄰","STREET":"安和路","SECT":"五段","MAREA":" ","LANE":"１７１巷","ALLEY":" ","HOUSE_NO":"１３號之１","E_COORD97":169800.79999999999,"N_COORD97":2551818.6499999999,"ADDRESS":"安和路五段１７１巷１３號之１","OBJECTID":327137},"geometry":{"x":169800.79999999981,"y":2551818.6500000022}},{"attributes":{"ID":327147,"DIS_CODE":0,"TOWNNAME":"新營區","LI":"民榮里","LIN":"17鄰","STREET":"新榮三街","SECT":" ","MAREA":" ","LANE":" ","ALLEY":" ","HOUSE_NO":"４２號","E_COORD97":178521.75,"N_COORD97":2577694.5899999999,"ADDRESS":"新榮三街４２號","OBJECTID":327138},"geometry":{"x":178521.75000000186,"y":2577694.5900000017}},{"attributes":{"ID":327148,"DIS_CODE":0,"TOWNNAME":"新營區","LI":"民榮里","LIN":"17鄰","STREET":"新榮三街","SECT":" ","MAREA":" ","LANE":" ","ALLEY":" ","HOUSE_NO":"４６號","E_COORD97":178531.87,"N_COORD97":2577685.6200000001,"ADDRESS":"新榮三街４６號","OBJECTID":327139},"geometry":{"x":178531.87000000104,"y":2577685.6200000029}},{"attributes":{"ID":327149,"DIS_CODE":0,"TOWNNAME":"新營區","LI":"民榮里","LIN":"17鄰","STREET":"新榮三街","SECT":" ","MAREA":" ","LANE":" ","ALLEY":" ","HOUSE_NO":"４８號","E_COORD97":178540.26000000001,"N_COORD97":2577678.3900000001,"ADDRESS":"新榮三街４８號","OBJECTID":327140},"geometry":{"x":178540.26000000071,"y":2577678.3900000043}},{"attributes":{"ID":327150,"DIS_CODE":0,"TOWNNAME":"安南區","LI":"溪墘里","LIN":"20鄰","STREET":"海佃路","SECT":"一段","MAREA":" ","LANE":"４００巷","ALLEY":" ","HOUSE_NO":"４５號","E_COORD97":167198.73000000001,"N_COORD97":2547703.2599999998,"ADDRESS":"海佃路一段４００巷４５號","OBJECTID":327141},"geometry":{"x":167198.73000000138,"y":2547703.2599999998}},{"attributes":{"ID":327151,"DIS_CODE":0,"TOWNNAME":"歸仁區","LI":"歸仁里","LIN":"15鄰","STREET":"信義北路","SECT":" ","MAREA":" ","LANE":"９６巷","ALLEY":" ","HOUSE_NO":"６號七樓","E_COORD97":178023.97,"N_COORD97":2541040.1099999999,"ADDRESS":"信義北路９６巷６號七樓","OBJECTID":327142},"geometry":{"x":178023.97000000067,"y":2541040.1100000013}},{"attributes":{"ID":327152,"DIS_CODE":0,"TOWNNAME":"歸仁區","LI":"歸仁里","LIN":"15鄰","STREET":"信義北路","SECT":" ","MAREA":" ","LANE":"９６巷","ALLEY":" ","HOUSE_NO":"１６號五樓","E_COORD97":178032.22,"N_COORD97":2541009.1099999999,"ADDRESS":"信義北路９６巷１６號五樓","OBJECTID":327143},"geometry":{"x":178032.22000000067,"y":2541009.1100000013}},{"attributes":{"ID":327153,"DIS_CODE":0,"TOWNNAME":"新營區","LI":"民榮里","LIN":"17鄰","STREET":"新榮三街","SECT":" ","MAREA":" ","LANE":" ","ALLEY":" ","HOUSE_NO":"５０號","E_COORD97":178549.04999999999,"N_COORD97":2577671.3799999999,"ADDRESS":"新榮三街５０號","OBJECTID":327144},"geometry":{"x":178549.05000000075,"y":2577671.3800000008}},{"attributes":{"ID":327154,"DIS_CODE":0,"TOWNNAME":"善化區","LI":"光文里","LIN":"20鄰","STREET":"大成路","SECT":" ","MAREA":" ","LANE":"３１６巷","ALLEY":" ","HOUSE_NO":"１０號","E_COORD97":178091.35999999999,"N_COORD97":2558870.75,"ADDRESS":"大成路３１６巷１０號","OBJECTID":327145},"geometry":{"x":178091.36000000127,"y":2558870.75}},{"attributes":{"ID":327155,"DIS_CODE":0,"TOWNNAME":"善化區","LI":"嘉南里","LIN":"4鄰","STREET":" ","SECT":" ","MAREA":"茄拔","LANE":" ","ALLEY":" ","HOUSE_NO":"８９號","E_COORD97":180964.23999999999,"N_COORD97":2559449.2599999998,"ADDRESS":"茄拔８９號","OBJECTID":327146},"geometry":{"x":180964.24000000022,"y":2559449.2600000016}},{"attributes":{"ID":327156,"DIS_CODE":0,"TOWNNAME":"善化區","LI":"光文里","LIN":"18鄰","STREET":"和平路","SECT":" ","MAREA":" ","LANE":"１４６巷","ALLEY":" ","HOUSE_NO":"１６號","E_COORD97":178226.16,"N_COORD97":2558974,"ADDRESS":"和平路１４６巷１６號","OBJECTID":327147},"geometry":{"x":178226.16000000108,"y":2558974.0000000019}},{"attributes":{"ID":327157,"DIS_CODE":0,"TOWNNAME":"善化區","LI":"東昌里","LIN":"4鄰","STREET":" ","SECT":" ","MAREA":"東勢寮","LANE":" ","ALLEY":" ","HOUSE_NO":"４１號","E_COORD97":180691.48000000001,"N_COORD97":2561885.7599999998,"ADDRESS":"東勢寮４１號","OBJECTID":327148},"geometry":{"x":180691.48000000045,"y":2561885.7599999998}},{"attributes":{"ID":327158,"DIS_CODE":0,"TOWNNAME":"善化區","LI":"牛庄里","LIN":"13鄰","STREET":" ","SECT":" ","MAREA":"牛庄","LANE":" ","ALLEY":" ","HOUSE_NO":"１號之３","E_COORD97":180080.94,"N_COORD97":2559714.52,"ADDRESS":"牛庄１號之３","OBJECTID":327149},"geometry":{"x":180080.94000000134,"y":2559714.5200000033}},{"attributes":{"ID":327159,"DIS_CODE":0,"TOWNNAME":"善化區","LI":"胡厝里","LIN":"17鄰","STREET":" ","SECT":" ","MAREA":"西衛","LANE":" ","ALLEY":" ","HOUSE_NO":"３號","E_COORD97":174488.87,"N_COORD97":2559491.5,"ADDRESS":"西衛３號","OBJECTID":327150},"geometry":{"x":174488.87000000104,"y":2559491.5000000019}},{"attributes":{"ID":327160,"DIS_CODE":0,"TOWNNAME":"善化區","LI":"牛庄里","LIN":"13鄰","STREET":" ","SECT":" ","MAREA":"牛庄","LANE":" ","ALLEY":" ","HOUSE_NO":"１號之２","E_COORD97":180085.76999999999,"N_COORD97":2559714.52,"ADDRESS":"牛庄１號之２","OBJECTID":327151},"geometry":{"x":180085.77000000142,"y":2559714.5200000033}},{"attributes":{"ID":327161,"DIS_CODE":0,"TOWNNAME":"善化區","LI":"嘉南里","LIN":"4鄰","STREET":" ","SECT":" ","MAREA":"茄拔","LANE":" ","ALLEY":" ","HOUSE_NO":"８６之６號","E_COORD97":181005.20000000001,"N_COORD97":2559468.52,"ADDRESS":"茄拔８６之６號","OBJECTID":327152},"geometry":{"x":181005.20000000019,"y":2559468.5199999996}},{"attributes":{"ID":327162,"DIS_CODE":0,"TOWNNAME":"善化區","LI":"嘉南里","LIN":" ","STREET":" ","SECT":" ","MAREA":"茄拔","LANE":" ","ALLEY":" ","HOUSE_NO":"５２之５號","E_COORD97":180833.89000000001,"N_COORD97":2558920.27,"ADDRESS":"茄拔５２之５號","OBJECTID":327153},"geometry":{"x":180833.88999999966,"y":2558920.2700000014}},{"attributes":{"ID":327163,"DIS_CODE":0,"TOWNNAME":"善化區","LI":"坐駕里","LIN":"20鄰","STREET":" ","SECT":" ","MAREA":"坐駕","LANE":" ","ALLEY":" ","HOUSE_NO":"８３號","E_COORD97":178259.79000000001,"N_COORD97":2558345.25,"ADDRESS":"坐駕８３號","OBJECTID":327154},"geometry":{"x":178259.79000000004,"y":2558345.25}},{"attributes":{"ID":327164,"DIS_CODE":0,"TOWNNAME":"歸仁區","LI":"歸仁里","LIN":"15鄰","STREET":"信義北路","SECT":" ","MAREA":" ","LANE":"９６巷","ALLEY":" ","HOUSE_NO":"６號三樓","E_COORD97":178023.97,"N_COORD97":2541040.1099999999,"ADDRESS":"信義北路９６巷６號三樓","OBJECTID":327155},"geometry":{"x":178023.97000000067,"y":2541040.1100000013}},{"attributes":{"ID":327165,"DIS_CODE":0,"TOWNNAME":"歸仁區","LI":"歸仁里","LIN":"15鄰","STREET":"信義北路","SECT":" ","MAREA":" ","LANE":"９６巷","ALLEY":" ","HOUSE_NO":"１８號四樓","E_COORD97":178033.32000000001,"N_COORD97":2541016.1099999999,"ADDRESS":"信義北路９６巷１８號四樓","OBJECTID":327156},"geometry":{"x":178033.32000000216,"y":2541016.1100000013}},{"attributes":{"ID":327166,"DIS_CODE":0,"TOWNNAME":"善化區","LI":"小新里","LIN":" ","STREET":" ","SECT":" ","MAREA":"茄拔","LANE":" ","ALLEY":" ","HOUSE_NO":"１０之５號","E_COORD97":181149.76999999999,"N_COORD97":2558159.02,"ADDRESS":"茄拔１０之５號","OBJECTID":327157},"geometry":{"x":181149.76999999955,"y":2558159.0200000014}},{"attributes":{"ID":327167,"DIS_CODE":0,"TOWNNAME":"善化區","LI":"六德里","LIN":"13鄰","STREET":" ","SECT":" ","MAREA":"六分寮","LANE":" ","ALLEY":" ","HOUSE_NO":"３０９號","E_COORD97":178543.26000000001,"N_COORD97":2561475.7400000002,"ADDRESS":"六分寮３０９號","OBJECTID":327158},"geometry":{"x":178543.25999999978,"y":2561475.7400000002}},{"attributes":{"ID":327168,"DIS_CODE":0,"TOWNNAME":"善化區","LI":"田寮里","LIN":"4鄰","STREET":" ","SECT":" ","MAREA":"六分寮","LANE":" ","ALLEY":" ","HOUSE_NO":"４９號之１","E_COORD97":178426.94,"N_COORD97":2561214.77,"ADDRESS":"六分寮４９號之１","OBJECTID":327159},"geometry":{"x":178426.94000000041,"y":2561214.7700000033}},{"attributes":{"ID":327169,"DIS_CODE":0,"TOWNNAME":"善化區","LI":"東隆里","LIN":"4鄰","STREET":" ","SECT":" ","MAREA":"東勢寮","LANE":" ","ALLEY":" ","HOUSE_NO":"１６５號","E_COORD97":180134.10000000001,"N_COORD97":2561951.0099999998,"ADDRESS":"東勢寮１６５號","OBJECTID":327160},"geometry":{"x":180134.09999999963,"y":2561951.0099999998}},{"attributes":{"ID":327170,"DIS_CODE":0,"TOWNNAME":"新營區","LI":"嘉芳里","LIN":"15鄰","STREET":"復興路","SECT":" ","MAREA":" ","LANE":"１０７４巷","ALLEY":" ","HOUSE_NO":"６號五樓","E_COORD97":176138.45999999999,"N_COORD97":2578918.1899999999,"ADDRESS":"復興路１０７４巷６號五樓","OBJECTID":327161},"geometry":{"x":176138.45999999903,"y":2578918.1899999995}},{"attributes":{"ID":327171,"DIS_CODE":0,"TOWNNAME":"新營區","LI":"嘉芳里","LIN":"15鄰","STREET":"復興路","SECT":" ","MAREA":" ","LANE":"１０７４巷","ALLEY":" ","HOUSE_NO":"１８號五樓","E_COORD97":176139.70999999999,"N_COORD97":2578918.1899999999,"ADDRESS":"復興路１０７４巷１８號五樓","OBJECTID":327162},"geometry":{"x":176139.70999999996,"y":2578918.1899999995}},{"attributes":{"ID":327172,"DIS_CODE":0,"TOWNNAME":"新營區","LI":"民榮里","LIN":"17鄰","STREET":"新榮四街","SECT":" ","MAREA":" ","LANE":" ","ALLEY":" ","HOUSE_NO":"２８號","E_COORD97":178409.98999999999,"N_COORD97":2577707.04,"ADDRESS":"新榮四街２８號","OBJECTID":327163},"geometry":{"x":178409.99000000022,"y":2577707.040000001}},{"attributes":{"ID":327173,"DIS_CODE":0,"TOWNNAME":"善化區","LI":"胡家里","LIN":" ","STREET":" ","SECT":" ","MAREA":"胡厝寮","LANE":" ","ALLEY":" ","HOUSE_NO":"７５之１號","E_COORD97":175393,"N_COORD97":2560677.52,"ADDRESS":"胡厝寮７５之１號","OBJECTID":327164},"geometry":{"x":175393.00000000093,"y":2560677.5200000014}},{"attributes":{"ID":327174,"DIS_CODE":0,"TOWNNAME":"新營區","LI":"民榮里","LIN":"17鄰","STREET":"新榮四街","SECT":" ","MAREA":" ","LANE":" ","ALLEY":" ","HOUSE_NO":"７２號","E_COORD97":178432.23999999999,"N_COORD97":2577676.6499999999,"ADDRESS":"新榮四街７２號","OBJECTID":327165},"geometry":{"x":178432.24000000209,"y":2577676.6500000041}},{"attributes":{"ID":327175,"DIS_CODE":0,"TOWNNAME":"善化區","LI":"文昌里","LIN":"20鄰","STREET":"中正路","SECT":" ","MAREA":" ","LANE":"２１２巷","ALLEY":" ","HOUSE_NO":"５２號","E_COORD97":177755.07000000001,"N_COORD97":2558251.25,"ADDRESS":"中正路２１２巷５２號","OBJECTID":327166},"geometry":{"x":177755.0700000003,"y":2558251.25}},{"attributes":{"ID":327176,"DIS_CODE":0,"TOWNNAME":"善化區","LI":"溪美里","LIN":"18鄰","STREET":" ","SECT":" ","MAREA":"溪尾","LANE":" ","ALLEY":" ","HOUSE_NO":"２１１號之２０","E_COORD97":177214.67999999999,"N_COORD97":2561294.77,"ADDRESS":"溪尾２１１號之２０","OBJECTID":327167},"geometry":{"x":177214.6799999997,"y":2561294.7699999996}},{"attributes":{"ID":327177,"DIS_CODE":0,"TOWNNAME":"善化區","LI":"田寮里","LIN":"4鄰","STREET":" ","SECT":" ","MAREA":"六分寮","LANE":" ","ALLEY":" ","HOUSE_NO":"５３號之５","E_COORD97":178423.85000000001,"N_COORD97":2561062.27,"ADDRESS":"六分寮５３號之５","OBJECTID":327168},"geometry":{"x":178423.84999999963,"y":2561062.2700000014}},{"attributes":{"ID":327178,"DIS_CODE":0,"TOWNNAME":"善化區","LI":"小新里","LIN":"20鄰","STREET":" ","SECT":" ","MAREA":"小新營","LANE":" ","ALLEY":" ","HOUSE_NO":"４０９號","E_COORD97":180159.35000000001,"N_COORD97":2557695.5,"ADDRESS":"小新營４０９號","OBJECTID":327169},"geometry":{"x":180159.34999999963,"y":2557695.5000000019}},{"attributes":{"ID":327179,"DIS_CODE":0,"TOWNNAME":"善化區","LI":"嘉北里","LIN":"13鄰","STREET":" ","SECT":" ","MAREA":"茄拔","LANE":" ","ALLEY":" ","HOUSE_NO":"３０５之１號","E_COORD97":180862.39000000001,"N_COORD97":2559643.02,"ADDRESS":"茄拔３０５之１號","OBJECTID":327170},"geometry":{"x":180862.38999999966,"y":2559643.0200000033}},{"attributes":{"ID":327180,"DIS_CODE":0,"TOWNNAME":"善化區","LI":"胡厝里","LIN":"18鄰","STREET":" ","SECT":" ","MAREA":"西衛","LANE":" ","ALLEY":" ","HOUSE_NO":"８號","E_COORD97":174445.20999999999,"N_COORD97":2559469.5,"ADDRESS":"西衛８號","OBJECTID":327171},"geometry":{"x":174445.21000000089,"y":2559469.5}},{"attributes":{"ID":327181,"DIS_CODE":0,"TOWNNAME":"善化區","LI":"小新里","LIN":"20鄰","STREET":" ","SECT":" ","MAREA":"小新營","LANE":" ","ALLEY":" ","HOUSE_NO":"１６６號之１９","E_COORD97":180108.87,"N_COORD97":2558284.02,"ADDRESS":"小新營１６６號之１９","OBJECTID":327172},"geometry":{"x":180108.87000000011,"y":2558284.0200000014}},{"attributes":{"ID":327182,"DIS_CODE":0,"TOWNNAME":"新營區","LI":"嘉芳里","LIN":"15鄰","STREET":"復興路","SECT":" ","MAREA":" ","LANE":"１０７４巷","ALLEY":" ","HOUSE_NO":"６號四樓","E_COORD97":176138.45999999999,"N_COORD97":2578918.1899999999,"ADDRESS":"復興路１０７４巷６號四樓","OBJECTID":327173},"geometry":{"x":176138.45999999903,"y":2578918.1899999995}},{"attributes":{"ID":327183,"DIS_CODE":0,"TOWNNAME":"善化區","LI":"小新里","LIN":"13鄰","STREET":" ","SECT":" ","MAREA":"小新營","LANE":" ","ALLEY":" ","HOUSE_NO":"１０７號之１３","E_COORD97":179714.57999999999,"N_COORD97":2558066.52,"ADDRESS":"小新營１０７號之１３","OBJECTID":327174},"geometry":{"x":179714.57999999914,"y":2558066.5200000033}},{"attributes":{"ID":327184,"DIS_CODE":0,"TOWNNAME":"新營區","LI":"嘉芳里","LIN":"15鄰","STREET":"復興路","SECT":" ","MAREA":" ","LANE":"１０７４巷","ALLEY":" ","HOUSE_NO":"２６號三樓","E_COORD97":176140.23000000001,"N_COORD97":2578918.1099999999,"ADDRESS":"復興路１０７４巷２６號三樓","OBJECTID":327175},"geometry":{"x":176140.23000000045,"y":2578918.1100000013}},{"attributes":{"ID":327185,"DIS_CODE":0,"TOWNNAME":"善化區","LI":"田寮里","LIN":" ","STREET":" ","SECT":" ","MAREA":"六分寮","LANE":" ","ALLEY":" ","HOUSE_NO":"１１７之３號","E_COORD97":178614.89999999999,"N_COORD97":2561383.77,"ADDRESS":"六分寮１１７之３號","OBJECTID":327176},"geometry":{"x":178614.9000000013,"y":2561383.7699999996}},{"attributes":{"ID":327186,"DIS_CODE":0,"TOWNNAME":"新營區","LI":"嘉芳里","LIN":"15鄰","STREET":"復興路","SECT":" ","MAREA":" ","LANE":"１０７４巷","ALLEY":" ","HOUSE_NO":"１８號六樓","E_COORD97":176139.70999999999,"N_COORD97":2578918.1899999999,"ADDRESS":"復興路１０７４巷１８號六樓","OBJECTID":327177},"geometry":{"x":176139.70999999996,"y":2578918.1899999995}},{"attributes":{"ID":327187,"DIS_CODE":0,"TOWNNAME":"善化區","LI":"胡厝里","LIN":" ","STREET":" ","SECT":" ","MAREA":"百二甲","LANE":" ","ALLEY":" ","HOUSE_NO":"４２之１８號","E_COORD97":175338.82999999999,"N_COORD97":2558984.02,"ADDRESS":"百二甲４２之１８號","OBJECTID":327178},"geometry":{"x":175338.83000000007,"y":2558984.0199999996}},{"attributes":{"ID":327188,"DIS_CODE":0,"TOWNNAME":"新營區","LI":"民榮里","LIN":"17鄰","STREET":"新榮四街","SECT":" ","MAREA":" ","LANE":" ","ALLEY":" ","HOUSE_NO":"７６號","E_COORD97":178452.67999999999,"N_COORD97":2577662.9399999999,"ADDRESS":"新榮四街７６號","OBJECTID":327179},"geometry":{"x":178452.68000000063,"y":2577662.9399999995}},{"attributes":{"ID":327189,"DIS_CODE":0,"TOWNNAME":"善化區","LI":"小新里","LIN":" ","STREET":" ","SECT":" ","MAREA":" ","LANE":"苗圃巷","ALLEY":" ","HOUSE_NO":"１號","E_COORD97":180303.75,"N_COORD97":2556792,"ADDRESS":"苗圃巷１號","OBJECTID":327180},"geometry":{"x":180303.75000000093,"y":2556792}},{"attributes":{"ID":327190,"DIS_CODE":0,"TOWNNAME":"新營區","LI":"民榮里","LIN":"17鄰","STREET":"新榮四街","SECT":" ","MAREA":" ","LANE":" ","ALLEY":" ","HOUSE_NO":"７８號","E_COORD97":178460.01999999999,"N_COORD97":2577656.2000000002,"ADDRESS":"新榮四街７８號","OBJECTID":327181},"geometry":{"x":178460.01999999862,"y":2577656.2000000011}},{"attributes":{"ID":327191,"DIS_CODE":0,"TOWNNAME":"善化區","LI":"光文里","LIN":"4鄰","STREET":" ","SECT":" ","MAREA":"北子店","LANE":"１６０巷","ALLEY":" ","HOUSE_NO":"３號","E_COORD97":179435.16,"N_COORD97":2559610,"ADDRESS":"北子店１６０巷３號","OBJECTID":327182},"geometry":{"x":179435.16000000108,"y":2559610.0000000037}},{"attributes":{"ID":327192,"DIS_CODE":0,"TOWNNAME":"善化區","LI":"田寮里","LIN":"13鄰","STREET":" ","SECT":" ","MAREA":"六分寮","LANE":" ","ALLEY":" ","HOUSE_NO":"１４１號之１４","E_COORD97":178686.60000000001,"N_COORD97":2561256.77,"ADDRESS":"六分寮１４１號之１４","OBJECTID":327183},"geometry":{"x":178686.59999999963,"y":2561256.7700000014}},{"attributes":{"ID":327193,"DIS_CODE":0,"TOWNNAME":"善化區","LI":"胡家里","LIN":"17鄰","STREET":" ","SECT":" ","MAREA":"胡厝寮","LANE":" ","ALLEY":" ","HOUSE_NO":"１６５號","E_COORD97":175173.41,"N_COORD97":2560675.25,"ADDRESS":"胡厝寮１６５號","OBJECTID":327184},"geometry":{"x":175173.41000000108,"y":2560675.25}},{"attributes":{"ID":327194,"DIS_CODE":0,"TOWNNAME":"善化區","LI":"小新里","LIN":"17鄰","STREET":" ","SECT":" ","MAREA":"小新營","LANE":" ","ALLEY":" ","HOUSE_NO":"１４１號","E_COORD97":179912.45999999999,"N_COORD97":2558147.25,"ADDRESS":"小新營１４１號","OBJECTID":327185},"geometry":{"x":179912.46000000089,"y":2558147.2500000019}},{"attributes":{"ID":327195,"DIS_CODE":0,"TOWNNAME":"善化區","LI":"嘉北里","LIN":"8鄰","STREET":" ","SECT":" ","MAREA":"茄拔","LANE":" ","ALLEY":" ","HOUSE_NO":"１７７號之１","E_COORD97":181124.29000000001,"N_COORD97":2559994.52,"ADDRESS":"茄拔１７７號之１","OBJECTID":327186},"geometry":{"x":181124.29000000097,"y":2559994.5199999996}},{"attributes":{"ID":327196,"DIS_CODE":0,"TOWNNAME":"善化區","LI":"溪美里","LIN":"18鄰","STREET":" ","SECT":" ","MAREA":"溪尾","LANE":" ","ALLEY":" ","HOUSE_NO":"２１１號之６","E_COORD97":177237.48999999999,"N_COORD97":2561354.02,"ADDRESS":"溪尾２１１號之６","OBJECTID":327187},"geometry":{"x":177237.49000000115,"y":2561354.0199999996}},{"attributes":{"ID":327197,"DIS_CODE":0,"TOWNNAME":"善化區","LI":"嘉北里","LIN":"4鄰","STREET":" ","SECT":" ","MAREA":"茄拔","LANE":" ","ALLEY":" ","HOUSE_NO":"３８號之５","E_COORD97":181090.03,"N_COORD97":2559686.27,"ADDRESS":"茄拔３８號之５","OBJECTID":327188},"geometry":{"x":181090.03000000212,"y":2559686.2700000014}},{"attributes":{"ID":327198,"DIS_CODE":0,"TOWNNAME":"善化區","LI":"胡厝里","LIN":"18鄰","STREET":" ","SECT":" ","MAREA":"西衛","LANE":" ","ALLEY":" ","HOUSE_NO":"１２號之１","E_COORD97":174434.48000000001,"N_COORD97":2559318.27,"ADDRESS":"西衛１２號之１","OBJECTID":327189},"geometry":{"x":174434.48000000045,"y":2559318.2699999996}},{"attributes":{"ID":327199,"DIS_CODE":0,"TOWNNAME":"善化區","LI":"六德里","LIN":"13鄰","STREET":" ","SECT":" ","MAREA":"六分寮","LANE":" ","ALLEY":" ","HOUSE_NO":"３０８號之１","E_COORD97":178579.64999999999,"N_COORD97":2561494.27,"ADDRESS":"六分寮３０８號之１","OBJECTID":327190},"geometry":{"x":178579.65000000037,"y":2561494.2699999996}},{"attributes":{"ID":327200,"DIS_CODE":0,"TOWNNAME":"歸仁區","LI":"文化里","LIN":"15鄰","STREET":"大德路","SECT":" ","MAREA":" ","LANE":"１９３巷","ALLEY":" ","HOUSE_NO":"２號五樓之１","E_COORD97":177272.5,"N_COORD97":2541511.3399999999,"ADDRESS":"大德路１９３巷２號五樓之１","OBJECTID":327191},"geometry":{"x":177272.50000000186,"y":2541511.3399999999}},{"attributes":{"ID":327201,"DIS_CODE":0,"TOWNNAME":"安平區","LI":"平通里","LIN":"15鄰","STREET":"健康三街","SECT":" ","MAREA":" ","LANE":"４６０巷","ALLEY":" ","HOUSE_NO":"１０號二樓","E_COORD97":164872.29000000001,"N_COORD97":2543880.1600000001,"ADDRESS":"健康三街４６０巷１０號二樓","OBJECTID":327192},"geometry":{"x":164872.29000000097,"y":2543880.1600000001}},{"attributes":{"ID":327202,"DIS_CODE":0,"TOWNNAME":"善化區","LI":"嘉北里","LIN":"13鄰","STREET":" ","SECT":" ","MAREA":"茄拔","LANE":" ","ALLEY":" ","HOUSE_NO":"３００號之２","E_COORD97":180949.31,"N_COORD97":2559700.77,"ADDRESS":"茄拔３００號之２","OBJECTID":327193},"geometry":{"x":180949.30999999959,"y":2559700.7699999996}},{"attributes":{"ID":327203,"DIS_CODE":0,"TOWNNAME":"善化區","LI":"田寮里","LIN":"13鄰","STREET":" ","SECT":" ","MAREA":"六分寮","LANE":" ","ALLEY":" ","HOUSE_NO":"１４１號之１１","E_COORD97":178680.37,"N_COORD97":2561229.77,"ADDRESS":"六分寮１４１號之１１","OBJECTID":327194},"geometry":{"x":178680.37000000197,"y":2561229.7700000014}},{"attributes":{"ID":327204,"DIS_CODE":0,"TOWNNAME":"善化區","LI":"嘉北里","LIN":"13鄰","STREET":" ","SECT":" ","MAREA":"茄拔","LANE":" ","ALLEY":" ","HOUSE_NO":"３５２號之４","E_COORD97":180633.06,"N_COORD97":2559694.52,"ADDRESS":"茄拔３５２號之４","OBJECTID":327195},"geometry":{"x":180633.06000000145,"y":2559694.5200000014}},{"attributes":{"ID":327205,"DIS_CODE":0,"TOWNNAME":"善化區","LI":"什乃里","LIN":"4鄰","STREET":" ","SECT":" ","MAREA":"什乃","LANE":" ","ALLEY":" ","HOUSE_NO":"３６號","E_COORD97":176068.03,"N_COORD97":2560466.25,"ADDRESS":"什乃３６號","OBJECTID":327196},"geometry":{"x":176068.03000000119,"y":2560466.2500000019}},{"attributes":{"ID":327206,"DIS_CODE":0,"TOWNNAME":"善化區","LI":"胡家里","LIN":"4鄰","STREET":" ","SECT":" ","MAREA":"胡厝寮","LANE":" ","ALLEY":" ","HOUSE_NO":"３９９之５號","E_COORD97":175689.35000000001,"N_COORD97":2560107.52,"ADDRESS":"胡厝寮３９９之５號","OBJECTID":327197},"geometry":{"x":175689.34999999963,"y":2560107.5200000033}},{"attributes":{"ID":327207,"DIS_CODE":0,"TOWNNAME":"善化區","LI":"牛庄里","LIN":" ","STREET":" ","SECT":" ","MAREA":"牛庄","LANE":" ","ALLEY":" ","HOUSE_NO":"６４之１號","E_COORD97":180190.76999999999,"N_COORD97":2560015.77,"ADDRESS":"牛庄６４之１號","OBJECTID":327198},"geometry":{"x":180190.76999999862,"y":2560015.7700000014}},{"attributes":{"ID":327208,"DIS_CODE":0,"TOWNNAME":"善化區","LI":"牛庄里","LIN":"13鄰","STREET":" ","SECT":" ","MAREA":"牛庄","LANE":" ","ALLEY":" ","HOUSE_NO":"１之１７號","E_COORD97":180121.92999999999,"N_COORD97":2559422.77,"ADDRESS":"牛庄１之１７號","OBJECTID":327199},"geometry":{"x":180121.9299999997,"y":2559422.7699999996}},{"attributes":{"ID":327209,"DIS_CODE":0,"TOWNNAME":"安平區","LI":"平通里","LIN":"15鄰","STREET":"健康三街","SECT":" ","MAREA":" ","LANE":"４６０巷","ALLEY":" ","HOUSE_NO":"１０號三樓","E_COORD97":164872.29000000001,"N_COORD97":2543880.1600000001,"ADDRESS":"健康三街４６０巷１０號三樓","OBJECTID":327200},"geometry":{"x":164872.29000000097,"y":2543880.1600000001}}]}