{"displayFieldName":"TOWNNAME","fieldAliases":{"ID":"ID","DIS_CODE":"DIS_CODE","TOWNNAME":"TOWNNAME","LI":"LI","LIN":"LIN","STREET":"STREET","SECT":"SECT","MAREA":"MAREA","LANE":"LANE","ALLEY":"ALLEY","HOUSE_NO":"HOUSE_NO","E_COORD97":"E_COORD97","N_COORD97":"N_COORD97","ADDRESS":"ADDRESS","OBJECTID":"OBJECTID"},"geometryType":"esriGeometryPoint","spatialReference":{"wkid":102443,"latestWkid":3826},"fields":[{"name":"ID","type":"esriFieldTypeDouble","alias":"ID"},{"name":"DIS_CODE","type":"esriFieldTypeInteger","alias":"DIS_CODE"},{"name":"TOWNNAME","type":"esriFieldTypeString","alias":"TOWNNAME","length":8},{"name":"LI","type":"esriFieldTypeString","alias":"LI","length":8},{"name":"LIN","type":"esriFieldTypeString","alias":"LIN","length":12},{"name":"STREET","type":"esriFieldTypeString","alias":"STREET","length":20},{"name":"SECT","type":"esriFieldTypeString","alias":"SECT","length":8},{"name":"MAREA","type":"esriFieldTypeString","alias":"MAREA","length":12},{"name":"LANE","type":"esriFieldTypeString","alias":"LANE","length":10},{"name":"ALLEY","type":"esriFieldTypeString","alias":"ALLEY","length":10},{"name":"HOUSE_NO","type":"esriFieldTypeString","alias":"HOUSE_NO","length":20},{"name":"E_COORD97","type":"esriFieldTypeDouble","alias":"E_COORD97"},{"name":"N_COORD97","type":"esriFieldTypeDouble","alias":"N_COORD97"},{"name":"ADDRESS","type":"esriFieldTypeString","alias":"ADDRESS","length":50},{"name":"OBJECTID","type":"esriFieldTypeOID","alias":"OBJECTID"}],"features":[{"attributes":{"ID":12201,"DIS_CODE":0,"TOWNNAME":"後壁區","LI":"後部里","LIN":"7鄰","STREET":" ","SECT":" ","MAREA":"後部","LANE":" ","ALLEY":" ","HOUSE_NO":"６６號之１０","E_COORD97":182152.78,"N_COORD97":2587037.6899999999,"ADDRESS":"後部６６號之１０","OBJECTID":12201},"geometry":{"x":182152.78000000026,"y":2587037.6900000013}},{"attributes":{"ID":12202,"DIS_CODE":0,"TOWNNAME":"後壁區","LI":"後部里","LIN":"7鄰","STREET":" ","SECT":" ","MAREA":"後部","LANE":" ","ALLEY":" ","HOUSE_NO":"６６號之１２","E_COORD97":182174.20999999999,"N_COORD97":2587051.5,"ADDRESS":"後部６６號之１２","OBJECTID":12202},"geometry":{"x":182174.21000000089,"y":2587051.5000000037}},{"attributes":{"ID":12203,"DIS_CODE":0,"TOWNNAME":"後壁區","LI":"後部里","LIN":"7鄰","STREET":" ","SECT":" ","MAREA":"後部","LANE":" ","ALLEY":" ","HOUSE_NO":"６６號之６","E_COORD97":182165.60999999999,"N_COORD97":2587013.02,"ADDRESS":"後部６６號之６","OBJECTID":12203},"geometry":{"x":182165.61000000034,"y":2587013.0199999996}},{"attributes":{"ID":12204,"DIS_CODE":0,"TOWNNAME":"後壁區","LI":"後部里","LIN":"7鄰","STREET":" ","SECT":" ","MAREA":"後部","LANE":" ","ALLEY":" ","HOUSE_NO":"６６號","E_COORD97":182180.97,"N_COORD97":2587003.04,"ADDRESS":"後部６６號","OBJECTID":12204},"geometry":{"x":182180.96999999974,"y":2587003.0400000028}},{"attributes":{"ID":12205,"DIS_CODE":0,"TOWNNAME":"永康區","LI":"\u25A0行里","LIN":"40鄰","STREET":"永安路","SECT":" ","MAREA":" ","LANE":"１０５巷","ALLEY":"４６弄","HOUSE_NO":"１１號","E_COORD97":172574.23000000001,"N_COORD97":2549332.7200000002,"ADDRESS":"永安路１０５巷４６弄１１號","OBJECTID":12205},"geometry":{"x":172574.23000000138,"y":2549332.7200000044}},{"attributes":{"ID":12206,"DIS_CODE":0,"TOWNNAME":"永康區","LI":"\u25A0行里","LIN":"40鄰","STREET":"永安路","SECT":" ","MAREA":" ","LANE":"１０５巷","ALLEY":"４０弄","HOUSE_NO":"１４號","E_COORD97":172641.51000000001,"N_COORD97":2549335.0699999998,"ADDRESS":"永安路１０５巷４０弄１４號","OBJECTID":12206},"geometry":{"x":172641.51000000071,"y":2549335.0700000022}},{"attributes":{"ID":12207,"DIS_CODE":0,"TOWNNAME":"永康區","LI":"\u25A0行里","LIN":"40鄰","STREET":"永安路","SECT":" ","MAREA":" ","LANE":"１０５巷","ALLEY":"４６弄","HOUSE_NO":"１０號","E_COORD97":172605.01000000001,"N_COORD97":2549334.1800000002,"ADDRESS":"永安路１０５巷４６弄１０號","OBJECTID":12207},"geometry":{"x":172605.00999999978,"y":2549334.1799999997}},{"attributes":{"ID":12208,"DIS_CODE":0,"TOWNNAME":"永康區","LI":"龍潭里","LIN":"40鄰","STREET":"永明街","SECT":" ","MAREA":" ","LANE":"３０２巷","ALLEY":"２弄","HOUSE_NO":"１０號","E_COORD97":174515.16,"N_COORD97":2547153.2599999998,"ADDRESS":"永明街３０２巷２弄１０號","OBJECTID":12208},"geometry":{"x":174515.16000000201,"y":2547153.2600000016}},{"attributes":{"ID":12209,"DIS_CODE":0,"TOWNNAME":"永康區","LI":"復華里","LIN":"40鄰","STREET":"復華七街","SECT":" ","MAREA":" ","LANE":"３２巷","ALLEY":"２２弄","HOUSE_NO":"１８號","E_COORD97":172649.23000000001,"N_COORD97":2545921.7799999998,"ADDRESS":"復華七街３２巷２２弄１８號","OBJECTID":12209},"geometry":{"x":172649.23000000138,"y":2545921.7800000012}},{"attributes":{"ID":12210,"DIS_CODE":0,"TOWNNAME":"永康區","LI":"復華里","LIN":"40鄰","STREET":"復華七街","SECT":" ","MAREA":" ","LANE":"３２巷","ALLEY":"２２弄","HOUSE_NO":"２２號","E_COORD97":172641.14000000001,"N_COORD97":2545922.2799999998,"ADDRESS":"復華七街３２巷２２弄２２號","OBJECTID":12210},"geometry":{"x":172641.13999999966,"y":2545922.2799999993}},{"attributes":{"ID":12211,"DIS_CODE":0,"TOWNNAME":"永康區","LI":"復華里","LIN":"40鄰","STREET":"復華七街","SECT":" ","MAREA":" ","LANE":"３２巷","ALLEY":"２２弄","HOUSE_NO":"３４號","E_COORD97":172606.64000000001,"N_COORD97":2545924.1899999999,"ADDRESS":"復華七街３２巷２２弄３４號","OBJECTID":12211},"geometry":{"x":172606.6400000006,"y":2545924.1899999976}},{"attributes":{"ID":12212,"DIS_CODE":0,"TOWNNAME":"永康區","LI":"復華里","LIN":"40鄰","STREET":"復華七街","SECT":" ","MAREA":" ","LANE":"３２巷","ALLEY":"２２弄","HOUSE_NO":"５號","E_COORD97":172672.67000000001,"N_COORD97":2545902.4100000001,"ADDRESS":"復華七街３２巷２２弄５號","OBJECTID":12212},"geometry":{"x":172672.67000000086,"y":2545902.4100000001}},{"attributes":{"ID":12213,"DIS_CODE":0,"TOWNNAME":"永康區","LI":"復華里","LIN":"40鄰","STREET":"復華七街","SECT":" ","MAREA":" ","LANE":"３２巷","ALLEY":"２２弄","HOUSE_NO":"１０號","E_COORD97":172665.48000000001,"N_COORD97":2545921.5299999998,"ADDRESS":"復華七街３２巷２２弄１０號","OBJECTID":12213},"geometry":{"x":172665.48000000231,"y":2545921.5299999993}},{"attributes":{"ID":12214,"DIS_CODE":0,"TOWNNAME":"永康區","LI":"復華里","LIN":"40鄰","STREET":"復華七街","SECT":" ","MAREA":" ","LANE":"３２巷","ALLEY":"２２弄","HOUSE_NO":"２６號","E_COORD97":172632.10999999999,"N_COORD97":2545922.2799999998,"ADDRESS":"復華七街３２巷２２弄２６號","OBJECTID":12214},"geometry":{"x":172632.11000000034,"y":2545922.2799999993}},{"attributes":{"ID":12215,"DIS_CODE":0,"TOWNNAME":"仁德區","LI":"仁義里","LIN":"40鄰","STREET":"仁義五街","SECT":" ","MAREA":" ","LANE":"５７巷","ALLEY":"１弄","HOUSE_NO":"２７號","E_COORD97":173538.69,"N_COORD97":2540463.7599999998,"ADDRESS":"仁義五街５７巷１弄２７號","OBJECTID":12215},"geometry":{"x":173538.69000000227,"y":2540463.7600000016}},{"attributes":{"ID":12216,"DIS_CODE":0,"TOWNNAME":"仁德區","LI":"仁義里","LIN":"40鄰","STREET":"仁義五街","SECT":" ","MAREA":" ","LANE":"５７巷","ALLEY":"１弄","HOUSE_NO":"２０號","E_COORD97":173564.79999999999,"N_COORD97":2540479.7799999998,"ADDRESS":"仁義五街５７巷１弄２０號","OBJECTID":12216},"geometry":{"x":173564.80000000075,"y":2540479.7800000012}},{"attributes":{"ID":12217,"DIS_CODE":0,"TOWNNAME":"仁德區","LI":"仁義里","LIN":"40鄰","STREET":"仁義五街","SECT":" ","MAREA":" ","LANE":"５７巷","ALLEY":"１弄","HOUSE_NO":"３４號","E_COORD97":173492.42999999999,"N_COORD97":2540474.7799999998,"ADDRESS":"仁義五街５７巷１弄３４號","OBJECTID":12217},"geometry":{"x":173492.43000000063,"y":2540474.7799999993}},{"attributes":{"ID":12218,"DIS_CODE":0,"TOWNNAME":"安平區","LI":"建平里","LIN":"13鄰","STREET":"建平十四街","SECT":" ","MAREA":" ","LANE":" ","ALLEY":" ","HOUSE_NO":"１２３號","E_COORD97":166063,"N_COORD97":2544069.3199999998,"ADDRESS":"建平十四街１２３號","OBJECTID":12218},"geometry":{"x":166063,"y":2544069.3200000003}},{"attributes":{"ID":12219,"DIS_CODE":0,"TOWNNAME":"安平區","LI":"建平里","LIN":"13鄰","STREET":"建平十四街","SECT":" ","MAREA":" ","LANE":" ","ALLEY":" ","HOUSE_NO":"１２１號","E_COORD97":166067.01000000001,"N_COORD97":2544069.02,"ADDRESS":"建平十四街１２１號","OBJECTID":12219},"geometry":{"x":166067.01000000164,"y":2544069.0200000014}},{"attributes":{"ID":12220,"DIS_CODE":0,"TOWNNAME":"安平區","LI":"建平里","LIN":"13鄰","STREET":"建平十四街","SECT":" ","MAREA":" ","LANE":" ","ALLEY":" ","HOUSE_NO":"１５號","E_COORD97":166302.48999999999,"N_COORD97":2544039.1200000001,"ADDRESS":"建平十四街１５號","OBJECTID":12220},"geometry":{"x":166302.49000000022,"y":2544039.1200000029}},{"attributes":{"ID":12221,"DIS_CODE":0,"TOWNNAME":"安平區","LI":"建平里","LIN":"13鄰","STREET":"建平十四街","SECT":" ","MAREA":" ","LANE":" ","ALLEY":" ","HOUSE_NO":"６１號","E_COORD97":166191.97,"N_COORD97":2544053.7000000002,"ADDRESS":"建平十四街６１號","OBJECTID":12221},"geometry":{"x":166191.96999999974,"y":2544053.7000000011}},{"attributes":{"ID":12222,"DIS_CODE":0,"TOWNNAME":"安平區","LI":"建平里","LIN":"13鄰","STREET":"建平十四街","SECT":" ","MAREA":" ","LANE":" ","ALLEY":" ","HOUSE_NO":"４７號","E_COORD97":166223.35999999999,"N_COORD97":2544049.98,"ADDRESS":"建平十四街４７號","OBJECTID":12222},"geometry":{"x":166223.36000000127,"y":2544049.9800000023}},{"attributes":{"ID":12223,"DIS_CODE":0,"TOWNNAME":"安平區","LI":"建平里","LIN":"13鄰","STREET":"建平十四街","SECT":" ","MAREA":" ","LANE":" ","ALLEY":" ","HOUSE_NO":"４５號","E_COORD97":166226.78,"N_COORD97":2544049.5299999998,"ADDRESS":"建平十四街４５號","OBJECTID":12223},"geometry":{"x":166226.78000000119,"y":2544049.5299999993}},{"attributes":{"ID":12224,"DIS_CODE":0,"TOWNNAME":"安平區","LI":"石門里","LIN":"13鄰","STREET":"平生路","SECT":" ","MAREA":" ","LANE":" ","ALLEY":" ","HOUSE_NO":"４５號","E_COORD97":164326.67999999999,"N_COORD97":2544558.1400000001,"ADDRESS":"平生路４５號","OBJECTID":12224},"geometry":{"x":164326.68000000063,"y":2544558.1400000006}},{"attributes":{"ID":12225,"DIS_CODE":0,"TOWNNAME":"學甲區","LI":"新達里","LIN":"24鄰","STREET":" ","SECT":" ","MAREA":"瓦寮","LANE":" ","ALLEY":" ","HOUSE_NO":"１２號","E_COORD97":169461.70999999999,"N_COORD97":2570387.0800000001,"ADDRESS":"瓦寮１２號","OBJECTID":12225},"geometry":{"x":169461.71000000089,"y":2570387.0800000001}},{"attributes":{"ID":12226,"DIS_CODE":0,"TOWNNAME":"學甲區","LI":"新達里","LIN":"24鄰","STREET":" ","SECT":" ","MAREA":"瓦寮","LANE":" ","ALLEY":" ","HOUSE_NO":"１３號之１","E_COORD97":169474.34,"N_COORD97":2570373.9300000002,"ADDRESS":"瓦寮１３號之１","OBJECTID":12226},"geometry":{"x":169474.34000000078,"y":2570373.9299999997}},{"attributes":{"ID":12227,"DIS_CODE":0,"TOWNNAME":"仁德區","LI":"仁義里","LIN":"40鄰","STREET":"仁義五街","SECT":" ","MAREA":" ","LANE":"５７巷","ALLEY":"１弄","HOUSE_NO":"１５號","E_COORD97":173583.75,"N_COORD97":2540467.2599999998,"ADDRESS":"仁義五街５７巷１弄１５號","OBJECTID":12227},"geometry":{"x":173583.75000000186,"y":2540467.2600000016}},{"attributes":{"ID":12228,"DIS_CODE":0,"TOWNNAME":"南區","LI":"廣州里","LIN":"20鄰","STREET":"福吉四街","SECT":" ","MAREA":" ","LANE":" ","ALLEY":" ","HOUSE_NO":"７號","E_COORD97":167300.04999999999,"N_COORD97":2542600.6000000001,"ADDRESS":"福吉四街７號","OBJECTID":12228},"geometry":{"x":167300.04999999981,"y":2542600.6000000015}},{"attributes":{"ID":12229,"DIS_CODE":0,"TOWNNAME":"南區","LI":"廣州里","LIN":"20鄰","STREET":"福吉四街","SECT":" ","MAREA":" ","LANE":" ","ALLEY":" ","HOUSE_NO":"９號","E_COORD97":167296.67000000001,"N_COORD97":2542606.0800000001,"ADDRESS":"福吉四街９號","OBJECTID":12229},"geometry":{"x":167296.67000000179,"y":2542606.0800000001}},{"attributes":{"ID":12230,"DIS_CODE":0,"TOWNNAME":"南區","LI":"廣州里","LIN":"20鄰","STREET":"福吉四街","SECT":" ","MAREA":" ","LANE":" ","ALLEY":" ","HOUSE_NO":"１１號","E_COORD97":167292.87,"N_COORD97":2542607.77,"ADDRESS":"福吉四街１１號","OBJECTID":12230},"geometry":{"x":167292.87000000104,"y":2542607.7699999996}},{"attributes":{"ID":12231,"DIS_CODE":0,"TOWNNAME":"仁德區","LI":"仁義里","LIN":"40鄰","STREET":"仁義五街","SECT":" ","MAREA":" ","LANE":"５７巷","ALLEY":"１弄","HOUSE_NO":"３１號","E_COORD97":173526.29999999999,"N_COORD97":2540462.7599999998,"ADDRESS":"仁義五街５７巷１弄３１號","OBJECTID":12231},"geometry":{"x":173526.30000000075,"y":2540462.7600000016}},{"attributes":{"ID":12232,"DIS_CODE":0,"TOWNNAME":"仁德區","LI":"仁義里","LIN":"40鄰","STREET":"仁義五街","SECT":" ","MAREA":" ","LANE":"５７巷","ALLEY":"１弄","HOUSE_NO":"２５號","E_COORD97":173551.44,"N_COORD97":2540464.2599999998,"ADDRESS":"仁義五街５７巷１弄２５號","OBJECTID":12232},"geometry":{"x":173551.44000000134,"y":2540464.2599999998}},{"attributes":{"ID":12233,"DIS_CODE":0,"TOWNNAME":"仁德區","LI":"仁義里","LIN":"40鄰","STREET":"仁義五街","SECT":" ","MAREA":" ","LANE":"５７巷","ALLEY":"１弄","HOUSE_NO":"３０號","E_COORD97":173516.51000000001,"N_COORD97":2540474.0299999998,"ADDRESS":"仁義五街５７巷１弄３０號","OBJECTID":12233},"geometry":{"x":173516.50999999978,"y":2540474.0300000012}},{"attributes":{"ID":12234,"DIS_CODE":0,"TOWNNAME":"仁德區","LI":"仁義里","LIN":"40鄰","STREET":"仁義五街","SECT":" ","MAREA":" ","LANE":"５７巷","ALLEY":"１弄","HOUSE_NO":"３７號","E_COORD97":173507.09,"N_COORD97":2540461.2599999998,"ADDRESS":"仁義五街５７巷１弄３７號","OBJECTID":12234},"geometry":{"x":173507.09000000078,"y":2540461.2599999998}},{"attributes":{"ID":12235,"DIS_CODE":0,"TOWNNAME":"仁德區","LI":"仁義里","LIN":"40鄰","STREET":"仁義五街","SECT":" ","MAREA":" ","LANE":"５７巷","ALLEY":"１弄","HOUSE_NO":"１７號","E_COORD97":173577.64000000001,"N_COORD97":2540466.7599999998,"ADDRESS":"仁義五街５７巷１弄１７號","OBJECTID":12235},"geometry":{"x":173577.6400000006,"y":2540466.7600000016}},{"attributes":{"ID":12236,"DIS_CODE":0,"TOWNNAME":"仁德區","LI":"仁義里","LIN":"40鄰","STREET":"仁義五街","SECT":" ","MAREA":" ","LANE":"５７巷","ALLEY":"１弄","HOUSE_NO":"３５號","E_COORD97":173513.53,"N_COORD97":2540461.7599999998,"ADDRESS":"仁義五街５７巷１弄３５號","OBJECTID":12236},"geometry":{"x":173513.53000000026,"y":2540461.7599999998}},{"attributes":{"ID":12237,"DIS_CODE":0,"TOWNNAME":"仁德區","LI":"仁義里","LIN":"40鄰","STREET":"仁義五街","SECT":" ","MAREA":" ","LANE":"５７巷","ALLEY":"１弄","HOUSE_NO":"２４號","E_COORD97":173547.28,"N_COORD97":2540479.0299999998,"ADDRESS":"仁義五街５７巷１弄２４號","OBJECTID":12237},"geometry":{"x":173547.28000000119,"y":2540479.0299999993}},{"attributes":{"ID":12238,"DIS_CODE":0,"TOWNNAME":"仁德區","LI":"仁義里","LIN":"40鄰","STREET":"仁義五街","SECT":" ","MAREA":" ","LANE":"５７巷","ALLEY":"１弄","HOUSE_NO":"２９號","E_COORD97":173532.66,"N_COORD97":2540463.2599999998,"ADDRESS":"仁義五街５７巷１弄２９號","OBJECTID":12238},"geometry":{"x":173532.66000000108,"y":2540463.2600000016}},{"attributes":{"ID":12239,"DIS_CODE":0,"TOWNNAME":"南區","LI":"廣州里","LIN":"20鄰","STREET":"福吉四街","SECT":" ","MAREA":" ","LANE":" ","ALLEY":" ","HOUSE_NO":"１３號","E_COORD97":167289.92000000001,"N_COORD97":2542609.8799999999,"ADDRESS":"福吉四街１３號","OBJECTID":12239},"geometry":{"x":167289.92000000179,"y":2542609.879999999}},{"attributes":{"ID":12240,"DIS_CODE":0,"TOWNNAME":"仁德區","LI":"仁義里","LIN":"40鄰","STREET":"仁義五街","SECT":" ","MAREA":" ","LANE":"５７巷","ALLEY":"１弄","HOUSE_NO":"６號","E_COORD97":173617.82999999999,"N_COORD97":2540480.5299999998,"ADDRESS":"仁義五街５７巷１弄６號","OBJECTID":12240},"geometry":{"x":173617.83000000101,"y":2540480.5300000031}},{"attributes":{"ID":12241,"DIS_CODE":0,"TOWNNAME":"永康區","LI":"復華里","LIN":"40鄰","STREET":"復華七街","SECT":" ","MAREA":" ","LANE":"３２巷","ALLEY":"２２弄","HOUSE_NO":"６號","E_COORD97":172672.57999999999,"N_COORD97":2545921.0299999998,"ADDRESS":"復華七街３２巷２２弄６號","OBJECTID":12241},"geometry":{"x":172672.58000000007,"y":2545921.0299999993}},{"attributes":{"ID":12242,"DIS_CODE":0,"TOWNNAME":"南區","LI":"廣州里","LIN":"20鄰","STREET":"福吉四街","SECT":" ","MAREA":" ","LANE":" ","ALLEY":" ","HOUSE_NO":"１５號","E_COORD97":167286.54000000001,"N_COORD97":2542613.25,"ADDRESS":"福吉四街１５號","OBJECTID":12242},"geometry":{"x":167286.54000000097,"y":2542613.2500000019}},{"attributes":{"ID":12243,"DIS_CODE":0,"TOWNNAME":"南區","LI":"廣州里","LIN":"20鄰","STREET":"福吉四街","SECT":" ","MAREA":" ","LANE":" ","ALLEY":" ","HOUSE_NO":"１７號","E_COORD97":167281.47,"N_COORD97":2542614.9399999999,"ADDRESS":"福吉四街１７號","OBJECTID":12243},"geometry":{"x":167281.47000000067,"y":2542614.9400000013}},{"attributes":{"ID":12244,"DIS_CODE":0,"TOWNNAME":"南區","LI":"廣州里","LIN":"20鄰","STREET":"福吉四街","SECT":" ","MAREA":" ","LANE":" ","ALLEY":" ","HOUSE_NO":"１９號","E_COORD97":167277.67000000001,"N_COORD97":2542619.1499999999,"ADDRESS":"福吉四街１９號","OBJECTID":12244},"geometry":{"x":167277.66999999993,"y":2542619.1500000004}},{"attributes":{"ID":12245,"DIS_CODE":0,"TOWNNAME":"學甲區","LI":"新達里","LIN":"24鄰","STREET":" ","SECT":" ","MAREA":"瓦寮","LANE":" ","ALLEY":" ","HOUSE_NO":"１３號","E_COORD97":169473,"N_COORD97":2570406.0099999998,"ADDRESS":"瓦寮１３號","OBJECTID":12245},"geometry":{"x":169473.00000000093,"y":2570406.0100000016}},{"attributes":{"ID":12246,"DIS_CODE":0,"TOWNNAME":"學甲區","LI":"新達里","LIN":"24鄰","STREET":" ","SECT":" ","MAREA":"瓦寮","LANE":" ","ALLEY":" ","HOUSE_NO":"１４號","E_COORD97":169489.5,"N_COORD97":2570401.8700000001,"ADDRESS":"瓦寮１４號","OBJECTID":12246},"geometry":{"x":169489.5,"y":2570401.870000001}},{"attributes":{"ID":12247,"DIS_CODE":0,"TOWNNAME":"永康區","LI":"復華里","LIN":"40鄰","STREET":"復華七街","SECT":" ","MAREA":" ","LANE":"３２巷","ALLEY":"２２弄","HOUSE_NO":"３２號","E_COORD97":172611.28,"N_COORD97":2545923.6899999999,"ADDRESS":"復華七街３２巷２２弄３２號","OBJECTID":12247},"geometry":{"x":172611.28000000119,"y":2545923.6899999995}},{"attributes":{"ID":12248,"DIS_CODE":0,"TOWNNAME":"學甲區","LI":"新達里","LIN":"24鄰","STREET":" ","SECT":" ","MAREA":"瓦寮","LANE":" ","ALLEY":" ","HOUSE_NO":"１６號之１５","E_COORD97":169512.04000000001,"N_COORD97":2570353.9399999999,"ADDRESS":"瓦寮１６號之１５","OBJECTID":12248},"geometry":{"x":169512.04000000097,"y":2570353.9400000032}},{"attributes":{"ID":12249,"DIS_CODE":0,"TOWNNAME":"學甲區","LI":"新達里","LIN":"24鄰","STREET":" ","SECT":" ","MAREA":"瓦寮","LANE":" ","ALLEY":" ","HOUSE_NO":"１６號之１７","E_COORD97":169489.62,"N_COORD97":2570353.1400000001,"ADDRESS":"瓦寮１６號之１７","OBJECTID":12249},"geometry":{"x":169489.62000000104,"y":2570353.1400000006}},{"attributes":{"ID":12250,"DIS_CODE":0,"TOWNNAME":"學甲區","LI":"新達里","LIN":"24鄰","STREET":" ","SECT":" ","MAREA":"瓦寮","LANE":" ","ALLEY":" ","HOUSE_NO":"１６號之１","E_COORD97":169526.85000000001,"N_COORD97":2570284.9100000001,"ADDRESS":"瓦寮１６號之１","OBJECTID":12250},"geometry":{"x":169526.85000000056,"y":2570284.910000002}},{"attributes":{"ID":12251,"DIS_CODE":0,"TOWNNAME":"永康區","LI":"復華里","LIN":"40鄰","STREET":"復華七街","SECT":" ","MAREA":" ","LANE":"３２巷","ALLEY":"２２弄","HOUSE_NO":"８號","E_COORD97":172668.48000000001,"N_COORD97":2545921.5299999998,"ADDRESS":"復華七街３２巷２２弄８號","OBJECTID":12251},"geometry":{"x":172668.48000000045,"y":2545921.5299999993}},{"attributes":{"ID":12252,"DIS_CODE":0,"TOWNNAME":"南區","LI":"新生里","LIN":"20鄰","STREET":"大同路","SECT":"二段","MAREA":" ","LANE":" ","ALLEY":" ","HOUSE_NO":"１０２號","E_COORD97":169223.04999999999,"N_COORD97":2542324.8500000001,"ADDRESS":"大同路二段１０２號","OBJECTID":12252},"geometry":{"x":169223.05000000168,"y":2542324.8499999996}},{"attributes":{"ID":12253,"DIS_CODE":0,"TOWNNAME":"南區","LI":"新生里","LIN":"20鄰","STREET":"大同路","SECT":"二段","MAREA":" ","LANE":" ","ALLEY":" ","HOUSE_NO":"１０４號","E_COORD97":169224.54999999999,"N_COORD97":2542318.7000000002,"ADDRESS":"大同路二段１０４號","OBJECTID":12253},"geometry":{"x":169224.54999999981,"y":2542318.6999999993}},{"attributes":{"ID":12254,"DIS_CODE":0,"TOWNNAME":"北區","LI":"振興里","LIN":"13鄰","STREET":"長榮路","SECT":"四段","MAREA":" ","LANE":" ","ALLEY":" ","HOUSE_NO":"１４２號","E_COORD97":170240.72,"N_COORD97":2545192.1000000001,"ADDRESS":"長榮路四段１４２號","OBJECTID":12254},"geometry":{"x":170240.7200000016,"y":2545192.0999999996}},{"attributes":{"ID":12255,"DIS_CODE":0,"TOWNNAME":"南區","LI":"佛壇里","LIN":"13鄰","STREET":"灣裡路","SECT":" ","MAREA":" ","LANE":" ","ALLEY":" ","HOUSE_NO":"５３８號","E_COORD97":166267.94,"N_COORD97":2535765.8199999998,"ADDRESS":"灣裡路５３８號","OBJECTID":12255},"geometry":{"x":166267.93999999948,"y":2535765.8200000003}},{"attributes":{"ID":12256,"DIS_CODE":0,"TOWNNAME":"南區","LI":"明興里","LIN":"14鄰","STREET":"金華路","SECT":"一段","MAREA":" ","LANE":" ","ALLEY":" ","HOUSE_NO":"３２號","E_COORD97":166890.51999999999,"N_COORD97":2540322.52,"ADDRESS":"金華路一段３２號","OBJECTID":12256},"geometry":{"x":166890.52000000142,"y":2540322.5200000014}},{"attributes":{"ID":12257,"DIS_CODE":0,"TOWNNAME":"南區","LI":"新昌里","LIN":"13鄰","STREET":"國華街","SECT":"一段","MAREA":" ","LANE":" ","ALLEY":" ","HOUSE_NO":"７５號之３","E_COORD97":167598.29999999999,"N_COORD97":2542758.7999999998,"ADDRESS":"國華街一段７５號之３","OBJECTID":12257},"geometry":{"x":167598.29999999981,"y":2542758.8000000026}},{"attributes":{"ID":12258,"DIS_CODE":0,"TOWNNAME":"關廟區","LI":"南花里","LIN":"13鄰","STREET":"和平路","SECT":" ","MAREA":" ","LANE":" ","ALLEY":" ","HOUSE_NO":"３６０號","E_COORD97":181623.34,"N_COORD97":2540198.25,"ADDRESS":"和平路３６０號","OBJECTID":12258},"geometry":{"x":181623.34000000078,"y":2540198.2500000037}},{"attributes":{"ID":12259,"DIS_CODE":0,"TOWNNAME":"學甲區","LI":"新達里","LIN":"24鄰","STREET":" ","SECT":" ","MAREA":"瓦寮","LANE":" ","ALLEY":" ","HOUSE_NO":"１６號之２","E_COORD97":169494.67000000001,"N_COORD97":2570298.46,"ADDRESS":"瓦寮１６號之２","OBJECTID":12259},"geometry":{"x":169494.66999999993,"y":2570298.4600000028}},{"attributes":{"ID":12260,"DIS_CODE":0,"TOWNNAME":"學甲區","LI":"新達里","LIN":"24鄰","STREET":" ","SECT":" ","MAREA":"瓦寮","LANE":" ","ALLEY":" ","HOUSE_NO":"１６號之３","E_COORD97":169539.73999999999,"N_COORD97":2570242.4900000002,"ADDRESS":"瓦寮１６號之３","OBJECTID":12260},"geometry":{"x":169539.74000000115,"y":2570242.4900000039}},{"attributes":{"ID":12261,"DIS_CODE":0,"TOWNNAME":"官田區","LI":"二鎮里","LIN":"14鄰","STREET":" ","SECT":" ","MAREA":"程泰","LANE":" ","ALLEY":" ","HOUSE_NO":"５０號","E_COORD97":181755.79000000001,"N_COORD97":2566504.0499999998,"ADDRESS":"程泰５０號","OBJECTID":12261},"geometry":{"x":181755.79000000004,"y":2566504.0500000026}},{"attributes":{"ID":12262,"DIS_CODE":0,"TOWNNAME":"永康區","LI":"復華里","LIN":"40鄰","STREET":"復華七街","SECT":" ","MAREA":" ","LANE":"３２巷","ALLEY":"２２弄","HOUSE_NO":"３號","E_COORD97":172676.95999999999,"N_COORD97":2545902.4100000001,"ADDRESS":"復華七街３２巷２２弄３號","OBJECTID":12262},"geometry":{"x":172676.96000000183,"y":2545902.4100000001}},{"attributes":{"ID":12263,"DIS_CODE":0,"TOWNNAME":"永康區","LI":"復華里","LIN":"40鄰","STREET":"復華七街","SECT":" ","MAREA":" ","LANE":"３２巷","ALLEY":"２２弄","HOUSE_NO":"３８號","E_COORD97":172589.23999999999,"N_COORD97":2545925.7799999998,"ADDRESS":"復華七街３２巷２２弄３８號","OBJECTID":12263},"geometry":{"x":172589.24000000115,"y":2545925.7799999993}},{"attributes":{"ID":12264,"DIS_CODE":0,"TOWNNAME":"永康區","LI":"復華里","LIN":"40鄰","STREET":"復華七街","SECT":" ","MAREA":" ","LANE":"３２巷","ALLEY":"２２弄","HOUSE_NO":"２８號","E_COORD97":172628.53,"N_COORD97":2545922.5299999998,"ADDRESS":"復華七街３２巷２２弄２８號","OBJECTID":12264},"geometry":{"x":172628.53000000026,"y":2545922.5300000012}},{"attributes":{"ID":12265,"DIS_CODE":0,"TOWNNAME":"永康區","LI":"復華里","LIN":"40鄰","STREET":"復華七街","SECT":" ","MAREA":" ","LANE":"３２巷","ALLEY":"２２弄","HOUSE_NO":"２４號","E_COORD97":172636.89000000001,"N_COORD97":2545922.5299999998,"ADDRESS":"復華七街３２巷２２弄２４號","OBJECTID":12265},"geometry":{"x":172636.8900000006,"y":2545922.5300000012}},{"attributes":{"ID":12266,"DIS_CODE":0,"TOWNNAME":"永康區","LI":"復華里","LIN":"40鄰","STREET":"復華七街","SECT":" ","MAREA":" ","LANE":"３２巷","ALLEY":"２２弄","HOUSE_NO":"３０號","E_COORD97":172615.67999999999,"N_COORD97":2545923.4399999999,"ADDRESS":"復華七街３２巷２２弄３０號","OBJECTID":12266},"geometry":{"x":172615.6799999997,"y":2545923.4400000013}},{"attributes":{"ID":12267,"DIS_CODE":0,"TOWNNAME":"永康區","LI":"復華里","LIN":"40鄰","STREET":"復華七街","SECT":" ","MAREA":" ","LANE":"３２巷","ALLEY":"２２弄","HOUSE_NO":"３６號","E_COORD97":172593.12,"N_COORD97":2545925.2799999998,"ADDRESS":"復華七街３２巷２２弄３６號","OBJECTID":12267},"geometry":{"x":172593.12000000104,"y":2545925.2800000012}},{"attributes":{"ID":12268,"DIS_CODE":0,"TOWNNAME":"永康區","LI":"復華里","LIN":"40鄰","STREET":"復華七街","SECT":" ","MAREA":" ","LANE":"３２巷","ALLEY":"２０弄","HOUSE_NO":"７號","E_COORD97":172619.32999999999,"N_COORD97":2545942.27,"ADDRESS":"復華七街３２巷２０弄７號","OBJECTID":12268},"geometry":{"x":172619.33000000101,"y":2545942.2700000014}},{"attributes":{"ID":12269,"DIS_CODE":0,"TOWNNAME":"永康區","LI":"\u25A0行里","LIN":"40鄰","STREET":"永安路","SECT":" ","MAREA":" ","LANE":"１０５巷","ALLEY":"４６弄","HOUSE_NO":"７號","E_COORD97":172574.23999999999,"N_COORD97":2549316.8700000001,"ADDRESS":"永安路１０５巷４６弄７號","OBJECTID":12269},"geometry":{"x":172574.24000000115,"y":2549316.8700000029}},{"attributes":{"ID":12270,"DIS_CODE":0,"TOWNNAME":"永康區","LI":"\u25A0行里","LIN":"40鄰","STREET":"永安路","SECT":" ","MAREA":" ","LANE":"１０５巷","ALLEY":"４６弄","HOUSE_NO":"３２號","E_COORD97":172618.95999999999,"N_COORD97":2549377.5600000001,"ADDRESS":"永安路１０５巷４６弄３２號","OBJECTID":12270},"geometry":{"x":172618.95999999996,"y":2549377.5599999987}},{"attributes":{"ID":12271,"DIS_CODE":0,"TOWNNAME":"永康區","LI":"北灣里","LIN":"40鄰","STREET":"大同街","SECT":" ","MAREA":" ","LANE":"４１３巷","ALLEY":"１８弄","HOUSE_NO":"９號","E_COORD97":174597.73999999999,"N_COORD97":2546243.2000000002,"ADDRESS":"大同街４１３巷１８弄９號","OBJECTID":12271},"geometry":{"x":174597.74000000209,"y":2546243.2000000011}},{"attributes":{"ID":12272,"DIS_CODE":0,"TOWNNAME":"永康區","LI":"北灣里","LIN":"40鄰","STREET":"大同街","SECT":" ","MAREA":" ","LANE":"４１３巷","ALLEY":"１８弄","HOUSE_NO":"２號","E_COORD97":174618.17000000001,"N_COORD97":2546233.1000000001,"ADDRESS":"大同街４１３巷１８弄２號","OBJECTID":12272},"geometry":{"x":174618.17000000179,"y":2546233.0999999996}},{"attributes":{"ID":12273,"DIS_CODE":0,"TOWNNAME":"永康區","LI":"成功里","LIN":"40鄰","STREET":"中華路","SECT":" ","MAREA":" ","LANE":"１５４巷","ALLEY":"６９弄","HOUSE_NO":"３號","E_COORD97":171773.85000000001,"N_COORD97":2544906.3100000001,"ADDRESS":"中華路１５４巷６９弄３號","OBJECTID":12273},"geometry":{"x":171773.85000000149,"y":2544906.3100000005}},{"attributes":{"ID":12274,"DIS_CODE":0,"TOWNNAME":"佳里區","LI":"安西里","LIN":"40鄰","STREET":"文化路","SECT":" ","MAREA":" ","LANE":"６１２巷","ALLEY":"１２弄","HOUSE_NO":"１０號","E_COORD97":164699.45999999999,"N_COORD97":2562632.5499999998,"ADDRESS":"文化路６１２巷１２弄１０號","OBJECTID":12274},"geometry":{"x":164699.46000000183,"y":2562632.5500000026}},{"attributes":{"ID":12275,"DIS_CODE":0,"TOWNNAME":"佳里區","LI":"安西里","LIN":"40鄰","STREET":"文化路","SECT":" ","MAREA":" ","LANE":"６１２巷","ALLEY":"１２弄","HOUSE_NO":"１１號","E_COORD97":164701.13,"N_COORD97":2562649.5299999998,"ADDRESS":"文化路６１２巷１２弄１１號","OBJECTID":12275},"geometry":{"x":164701.12999999989,"y":2562649.5299999993}},{"attributes":{"ID":12276,"DIS_CODE":0,"TOWNNAME":"佳里區","LI":"安西里","LIN":"40鄰","STREET":"文化路","SECT":" ","MAREA":" ","LANE":"６１２巷","ALLEY":"１２弄","HOUSE_NO":"１２號","E_COORD97":164703.79999999999,"N_COORD97":2562632.8900000001,"ADDRESS":"文化路６１２巷１２弄１２號","OBJECTID":12276},"geometry":{"x":164703.80000000168,"y":2562632.8900000025}},{"attributes":{"ID":12277,"DIS_CODE":0,"TOWNNAME":"佳里區","LI":"安西里","LIN":"40鄰","STREET":"文化路","SECT":" ","MAREA":" ","LANE":"６１２巷","ALLEY":"１２弄","HOUSE_NO":"１４號","E_COORD97":164707.85000000001,"N_COORD97":2562633.2999999998,"ADDRESS":"文化路６１２巷１２弄１４號","OBJECTID":12277},"geometry":{"x":164707.84999999963,"y":2562633.3000000026}},{"attributes":{"ID":12278,"DIS_CODE":0,"TOWNNAME":"佳里區","LI":"安西里","LIN":"40鄰","STREET":"文化路","SECT":" ","MAREA":" ","LANE":"６１２巷","ALLEY":"１２弄","HOUSE_NO":"１５號","E_COORD97":164709.37,"N_COORD97":2562650.3199999998,"ADDRESS":"文化路６１２巷１２弄１５號","OBJECTID":12278},"geometry":{"x":164709.37000000104,"y":2562650.3200000022}},{"attributes":{"ID":12279,"DIS_CODE":0,"TOWNNAME":"佳里區","LI":"安西里","LIN":"40鄰","STREET":"文化路","SECT":" ","MAREA":" ","LANE":"６１２巷","ALLEY":"１２弄","HOUSE_NO":"１６號","E_COORD97":164711.60999999999,"N_COORD97":2562634.2400000002,"ADDRESS":"文化路６１２巷１２弄１６號","OBJECTID":12279},"geometry":{"x":164711.61000000034,"y":2562634.2400000021}},{"attributes":{"ID":12280,"DIS_CODE":0,"TOWNNAME":"佳里區","LI":"安西里","LIN":"40鄰","STREET":"文化路","SECT":" ","MAREA":" ","LANE":"６１２巷","ALLEY":"１２弄","HOUSE_NO":"１７號","E_COORD97":164713.13,"N_COORD97":2562651.3199999998,"ADDRESS":"文化路６１２巷１２弄１７號","OBJECTID":12280},"geometry":{"x":164713.12999999989,"y":2562651.3200000003}},{"attributes":{"ID":12281,"DIS_CODE":0,"TOWNNAME":"佳里區","LI":"安西里","LIN":"40鄰","STREET":"文化路","SECT":" ","MAREA":" ","LANE":"６１２巷","ALLEY":"１２弄","HOUSE_NO":"１８號","E_COORD97":164715.42000000001,"N_COORD97":2562634.8300000001,"ADDRESS":"文化路６１２巷１２弄１８號","OBJECTID":12281},"geometry":{"x":164715.42000000086,"y":2562634.8300000001}},{"attributes":{"ID":12282,"DIS_CODE":0,"TOWNNAME":"佳里區","LI":"安西里","LIN":"40鄰","STREET":"文化路","SECT":" ","MAREA":" ","LANE":"６１２巷","ALLEY":"１２弄","HOUSE_NO":"１號","E_COORD97":164681.35000000001,"N_COORD97":2562645.9700000002,"ADDRESS":"文化路６１２巷１２弄１號","OBJECTID":12282},"geometry":{"x":164681.35000000056,"y":2562645.9700000025}},{"attributes":{"ID":12283,"DIS_CODE":0,"TOWNNAME":"佳里區","LI":"安西里","LIN":"40鄰","STREET":"文化路","SECT":" ","MAREA":" ","LANE":"６１２巷","ALLEY":"１２弄","HOUSE_NO":"２０號","E_COORD97":164726.89999999999,"N_COORD97":2562631.79,"ADDRESS":"文化路６１２巷１２弄２０號","OBJECTID":12283},"geometry":{"x":164726.90000000037,"y":2562631.790000001}},{"attributes":{"ID":12284,"DIS_CODE":0,"TOWNNAME":"佳里區","LI":"安西里","LIN":"40鄰","STREET":"文化路","SECT":" ","MAREA":" ","LANE":"６１２巷","ALLEY":"１２弄","HOUSE_NO":"２２號","E_COORD97":164726.64999999999,"N_COORD97":2562635.75,"ADDRESS":"文化路６１２巷１２弄２２號","OBJECTID":12284},"geometry":{"x":164726.65000000037,"y":2562635.7500000037}},{"attributes":{"ID":12285,"DIS_CODE":0,"TOWNNAME":"佳里區","LI":"安西里","LIN":"40鄰","STREET":"文化路","SECT":" ","MAREA":" ","LANE":"６１２巷","ALLEY":"１２弄","HOUSE_NO":"２４號","E_COORD97":164725.31,"N_COORD97":2562639.4500000002,"ADDRESS":"文化路６１２巷１２弄２４號","OBJECTID":12285},"geometry":{"x":164725.30999999959,"y":2562639.4499999993}},{"attributes":{"ID":12286,"DIS_CODE":0,"TOWNNAME":"佳里區","LI":"安西里","LIN":"40鄰","STREET":"文化路","SECT":" ","MAREA":" ","LANE":"６１２巷","ALLEY":"１２弄","HOUSE_NO":"２６號","E_COORD97":164724.70999999999,"N_COORD97":2562643.5499999998,"ADDRESS":"文化路６１２巷１２弄２６號","OBJECTID":12286},"geometry":{"x":164724.70999999903,"y":2562643.5500000007}},{"attributes":{"ID":12287,"DIS_CODE":0,"TOWNNAME":"佳里區","LI":"安西里","LIN":"40鄰","STREET":"文化路","SECT":" ","MAREA":" ","LANE":"６１２巷","ALLEY":"１２弄","HOUSE_NO":"２８號","E_COORD97":164724.01000000001,"N_COORD97":2562647.3700000001,"ADDRESS":"文化路６１２巷１２弄２８號","OBJECTID":12287},"geometry":{"x":164724.00999999978,"y":2562647.3700000029}},{"attributes":{"ID":12288,"DIS_CODE":0,"TOWNNAME":"佳里區","LI":"安西里","LIN":"40鄰","STREET":"文化路","SECT":" ","MAREA":" ","LANE":"６１２巷","ALLEY":"１２弄","HOUSE_NO":"２號","E_COORD97":164683.47,"N_COORD97":2562630.2200000002,"ADDRESS":"文化路６１２巷１２弄２號","OBJECTID":12288},"geometry":{"x":164683.46999999974,"y":2562630.2200000025}},{"attributes":{"ID":12289,"DIS_CODE":0,"TOWNNAME":"佳里區","LI":"安西里","LIN":"40鄰","STREET":"文化路","SECT":" ","MAREA":" ","LANE":"６１２巷","ALLEY":"１２弄","HOUSE_NO":"３０號","E_COORD97":164723.60999999999,"N_COORD97":2562651.3900000001,"ADDRESS":"文化路６１２巷１２弄３０號","OBJECTID":12289},"geometry":{"x":164723.61000000034,"y":2562651.3900000006}},{"attributes":{"ID":12290,"DIS_CODE":0,"TOWNNAME":"佳里區","LI":"安西里","LIN":"40鄰","STREET":"文化路","SECT":" ","MAREA":" ","LANE":"６１２巷","ALLEY":"１２弄","HOUSE_NO":"３２號","E_COORD97":164723.01000000001,"N_COORD97":2562655.1699999999,"ADDRESS":"文化路６１２巷１２弄３２號","OBJECTID":12290},"geometry":{"x":164723.01000000071,"y":2562655.1699999999}},{"attributes":{"ID":12291,"DIS_CODE":0,"TOWNNAME":"佳里區","LI":"安西里","LIN":"40鄰","STREET":"文化路","SECT":" ","MAREA":" ","LANE":"６１２巷","ALLEY":"１２弄","HOUSE_NO":"３４號","E_COORD97":164722.25,"N_COORD97":2562659.1299999999,"ADDRESS":"文化路６１２巷１２弄３４號","OBJECTID":12291},"geometry":{"x":164722.25,"y":2562659.1300000027}},{"attributes":{"ID":12292,"DIS_CODE":0,"TOWNNAME":"南區","LI":"廣州里","LIN":"20鄰","STREET":"福吉四街","SECT":" ","MAREA":" ","LANE":" ","ALLEY":" ","HOUSE_NO":"２１號","E_COORD97":167272.60999999999,"N_COORD97":2542622.5299999998,"ADDRESS":"福吉四街２１號","OBJECTID":12292},"geometry":{"x":167272.61000000127,"y":2542622.5299999993}},{"attributes":{"ID":12293,"DIS_CODE":0,"TOWNNAME":"南區","LI":"廣州里","LIN":"20鄰","STREET":"福吉四街","SECT":" ","MAREA":" ","LANE":" ","ALLEY":" ","HOUSE_NO":"２３號","E_COORD97":167265.85000000001,"N_COORD97":2542627.1699999999,"ADDRESS":"福吉四街２３號","OBJECTID":12293},"geometry":{"x":167265.84999999963,"y":2542627.1700000018}},{"attributes":{"ID":12294,"DIS_CODE":0,"TOWNNAME":"南區","LI":"廣州里","LIN":"20鄰","STREET":"福吉四街","SECT":" ","MAREA":" ","LANE":" ","ALLEY":" ","HOUSE_NO":"２５號","E_COORD97":167263.73999999999,"N_COORD97":2542631.3799999999,"ADDRESS":"福吉四街２５號","OBJECTID":12294},"geometry":{"x":167263.74000000022,"y":2542631.3800000008}},{"attributes":{"ID":12295,"DIS_CODE":0,"TOWNNAME":"南區","LI":"廣州里","LIN":"20鄰","STREET":"福吉四街","SECT":" ","MAREA":" ","LANE":" ","ALLEY":" ","HOUSE_NO":"２９號","E_COORD97":167254.03,"N_COORD97":2542639.3900000001,"ADDRESS":"福吉四街２９號","OBJECTID":12295},"geometry":{"x":167254.03000000212,"y":2542639.3900000025}},{"attributes":{"ID":12296,"DIS_CODE":0,"TOWNNAME":"南區","LI":"廣州里","LIN":"20鄰","STREET":"福吉四街","SECT":" ","MAREA":" ","LANE":" ","ALLEY":" ","HOUSE_NO":"３１號","E_COORD97":167250.64999999999,"N_COORD97":2542642.3500000001,"ADDRESS":"福吉四街３１號","OBJECTID":12296},"geometry":{"x":167250.6500000013,"y":2542642.3500000015}},{"attributes":{"ID":12297,"DIS_CODE":0,"TOWNNAME":"南區","LI":"廣州里","LIN":"20鄰","STREET":"福吉四街","SECT":" ","MAREA":" ","LANE":" ","ALLEY":" ","HOUSE_NO":"３３號","E_COORD97":167249.39000000001,"N_COORD97":2542647.4100000001,"ADDRESS":"福吉四街３３號","OBJECTID":12297},"geometry":{"x":167249.3900000006,"y":2542647.4100000001}},{"attributes":{"ID":12298,"DIS_CODE":0,"TOWNNAME":"南區","LI":"廣州里","LIN":"20鄰","STREET":"福吉四街","SECT":" ","MAREA":" ","LANE":" ","ALLEY":" ","HOUSE_NO":"３５號","E_COORD97":167245.59,"N_COORD97":2542649.0899999999,"ADDRESS":"福吉四街３５號","OBJECTID":12298},"geometry":{"x":167245.58999999985,"y":2542649.0899999999}},{"attributes":{"ID":12299,"DIS_CODE":0,"TOWNNAME":"南區","LI":"廣州里","LIN":"20鄰","STREET":"福吉四街","SECT":" ","MAREA":" ","LANE":" ","ALLEY":" ","HOUSE_NO":"３７號","E_COORD97":167243.04999999999,"N_COORD97":2542653.73,"ADDRESS":"福吉四街３７號","OBJECTID":12299},"geometry":{"x":167243.04999999888,"y":2542653.7300000023}},{"attributes":{"ID":12300,"DIS_CODE":0,"TOWNNAME":"南區","LI":"廣州里","LIN":"20鄰","STREET":"福吉四街","SECT":" ","MAREA":" ","LANE":" ","ALLEY":" ","HOUSE_NO":"３９號","E_COORD97":167240.10000000001,"N_COORD97":2542655.8399999999,"ADDRESS":"福吉四街３９號","OBJECTID":12300},"geometry":{"x":167240.09999999963,"y":2542655.8400000017}},{"attributes":{"ID":12301,"DIS_CODE":0,"TOWNNAME":"佳里區","LI":"安西里","LIN":"40鄰","STREET":"文化路","SECT":" ","MAREA":" ","LANE":"６１２巷","ALLEY":"１２弄","HOUSE_NO":"３６號","E_COORD97":164721.87,"N_COORD97":2562663.6000000001,"ADDRESS":"文化路６１２巷１２弄３６號","OBJECTID":12301},"geometry":{"x":164721.87000000011,"y":2562663.6000000034}},{"attributes":{"ID":12302,"DIS_CODE":0,"TOWNNAME":"佳里區","LI":"安西里","LIN":"40鄰","STREET":"文化路","SECT":" ","MAREA":" ","LANE":"６１２巷","ALLEY":"１２弄","HOUSE_NO":"３８號","E_COORD97":164721.17000000001,"N_COORD97":2562667.1099999999,"ADDRESS":"文化路６１２巷１２弄３８號","OBJECTID":12302},"geometry":{"x":164721.16999999993,"y":2562667.1100000013}},{"attributes":{"ID":12303,"DIS_CODE":0,"TOWNNAME":"佳里區","LI":"安西里","LIN":"40鄰","STREET":"文化路","SECT":" ","MAREA":" ","LANE":"６１２巷","ALLEY":"１２弄","HOUSE_NO":"３號","E_COORD97":164685.45000000001,"N_COORD97":2562646.5899999999,"ADDRESS":"文化路６１２巷１２弄３號","OBJECTID":12303},"geometry":{"x":164685.45000000019,"y":2562646.589999998}},{"attributes":{"ID":12304,"DIS_CODE":0,"TOWNNAME":"佳里區","LI":"安西里","LIN":"40鄰","STREET":"文化路","SECT":" ","MAREA":" ","LANE":"６１２巷","ALLEY":"１２弄","HOUSE_NO":"４０號","E_COORD97":164720.78,"N_COORD97":2562671.3799999999,"ADDRESS":"文化路６１２巷１２弄４０號","OBJECTID":12304},"geometry":{"x":164720.78000000026,"y":2562671.3800000008}},{"attributes":{"ID":12305,"DIS_CODE":0,"TOWNNAME":"佳里區","LI":"安西里","LIN":"40鄰","STREET":"文化路","SECT":" ","MAREA":" ","LANE":"６１２巷","ALLEY":"１２弄","HOUSE_NO":"４２號","E_COORD97":164720.13,"N_COORD97":2562675.6800000002,"ADDRESS":"文化路６１２巷１２弄４２號","OBJECTID":12305},"geometry":{"x":164720.12999999896,"y":2562675.6799999997}},{"attributes":{"ID":12306,"DIS_CODE":0,"TOWNNAME":"佳里區","LI":"安西里","LIN":"40鄰","STREET":"文化路","SECT":" ","MAREA":" ","LANE":"６１２巷","ALLEY":"１２弄","HOUSE_NO":"４４號","E_COORD97":164719.57999999999,"N_COORD97":2562679.2200000002,"ADDRESS":"文化路６１２巷１２弄４４號","OBJECTID":12306},"geometry":{"x":164719.58000000101,"y":2562679.2200000007}},{"attributes":{"ID":12307,"DIS_CODE":0,"TOWNNAME":"南區","LI":"廣州里","LIN":"20鄰","STREET":"福吉四街","SECT":" ","MAREA":" ","LANE":" ","ALLEY":" ","HOUSE_NO":"４１號","E_COORD97":167235.88,"N_COORD97":2542660.0499999998,"ADDRESS":"福吉四街４１號","OBJECTID":12307},"geometry":{"x":167235.88000000175,"y":2542660.0500000026}},{"attributes":{"ID":12308,"DIS_CODE":0,"TOWNNAME":"南區","LI":"廣州里","LIN":"20鄰","STREET":"福吉四街","SECT":" ","MAREA":" ","LANE":" ","ALLEY":" ","HOUSE_NO":"４３號","E_COORD97":167232.92000000001,"N_COORD97":2542662.5800000001,"ADDRESS":"福吉四街４３號","OBJECTID":12308},"geometry":{"x":167232.92000000086,"y":2542662.5800000001}},{"attributes":{"ID":12309,"DIS_CODE":0,"TOWNNAME":"南區","LI":"廣州里","LIN":"20鄰","STREET":"福吉四街","SECT":" ","MAREA":" ","LANE":" ","ALLEY":" ","HOUSE_NO":"４５號","E_COORD97":167229.54000000001,"N_COORD97":2542665.54,"ADDRESS":"福吉四街４５號","OBJECTID":12309},"geometry":{"x":167229.54000000004,"y":2542665.5399999991}},{"attributes":{"ID":12310,"DIS_CODE":0,"TOWNNAME":"南區","LI":"廣州里","LIN":"20鄰","STREET":"福吉路","SECT":" ","MAREA":" ","LANE":" ","ALLEY":" ","HOUSE_NO":"３６號","E_COORD97":167320.57999999999,"N_COORD97":2542585.96,"ADDRESS":"福吉路３６號","OBJECTID":12310},"geometry":{"x":167320.58000000007,"y":2542585.9600000028}},{"attributes":{"ID":12311,"DIS_CODE":0,"TOWNNAME":"南區","LI":"廣州里","LIN":"20鄰","STREET":"福吉路","SECT":" ","MAREA":" ","LANE":" ","ALLEY":" ","HOUSE_NO":"３８號","E_COORD97":167319.32000000001,"N_COORD97":2542579.6400000001,"ADDRESS":"福吉路３８號","OBJECTID":12311},"geometry":{"x":167319.3200000003,"y":2542579.6400000043}},{"attributes":{"ID":12312,"DIS_CODE":0,"TOWNNAME":"南區","LI":"廣州里","LIN":"20鄰","STREET":"福吉路","SECT":" ","MAREA":" ","LANE":" ","ALLEY":" ","HOUSE_NO":"４０號","E_COORD97":167315.94,"N_COORD97":2542576.6899999999,"ADDRESS":"福吉路４０號","OBJECTID":12312},"geometry":{"x":167315.94000000134,"y":2542576.6899999995}},{"attributes":{"ID":12313,"DIS_CODE":0,"TOWNNAME":"佳里區","LI":"安西里","LIN":"40鄰","STREET":"文化路","SECT":" ","MAREA":" ","LANE":"６１２巷","ALLEY":"１２弄","HOUSE_NO":"４６號","E_COORD97":164719.10000000001,"N_COORD97":2562683.1600000001,"ADDRESS":"文化路６１２巷１２弄４６號","OBJECTID":12313},"geometry":{"x":164719.10000000056,"y":2562683.1600000001}},{"attributes":{"ID":12314,"DIS_CODE":0,"TOWNNAME":"佳里區","LI":"安西里","LIN":"40鄰","STREET":"文化路","SECT":" ","MAREA":" ","LANE":"６１２巷","ALLEY":"１２弄","HOUSE_NO":"４８號","E_COORD97":164718.35000000001,"N_COORD97":2562687.4300000002,"ADDRESS":"文化路６１２巷１２弄４８號","OBJECTID":12314},"geometry":{"x":164718.3499999987,"y":2562687.4299999997}},{"attributes":{"ID":12315,"DIS_CODE":0,"TOWNNAME":"佳里區","LI":"安西里","LIN":"40鄰","STREET":"文化路","SECT":" ","MAREA":" ","LANE":"６１２巷","ALLEY":"１２弄","HOUSE_NO":"４號","E_COORD97":164687.09,"N_COORD97":2562630.8100000001,"ADDRESS":"文化路６１２巷１２弄４號","OBJECTID":12315},"geometry":{"x":164687.09000000078,"y":2562630.8100000005}},{"attributes":{"ID":12316,"DIS_CODE":0,"TOWNNAME":"佳里區","LI":"安西里","LIN":"40鄰","STREET":"文化路","SECT":" ","MAREA":" ","LANE":"６１２巷","ALLEY":"１２弄","HOUSE_NO":"５０號","E_COORD97":164717.64000000001,"N_COORD97":2562691.2000000002,"ADDRESS":"文化路６１２巷１２弄５０號","OBJECTID":12316},"geometry":{"x":164717.63999999966,"y":2562691.2000000011}},{"attributes":{"ID":12317,"DIS_CODE":0,"TOWNNAME":"學甲區","LI":"新達里","LIN":"24鄰","STREET":" ","SECT":" ","MAREA":"瓦寮","LANE":" ","ALLEY":" ","HOUSE_NO":"１６號之４","E_COORD97":169516.42000000001,"N_COORD97":2570229.4300000002,"ADDRESS":"瓦寮１６號之４","OBJECTID":12317},"geometry":{"x":169516.42000000086,"y":2570229.4300000016}},{"attributes":{"ID":12318,"DIS_CODE":0,"TOWNNAME":"佳里區","LI":"安西里","LIN":"40鄰","STREET":"文化路","SECT":" ","MAREA":" ","LANE":"６１２巷","ALLEY":"１２弄","HOUSE_NO":"５２號","E_COORD97":164717.09,"N_COORD97":2562695.4300000002,"ADDRESS":"文化路６１２巷１２弄５２號","OBJECTID":12318},"geometry":{"x":164717.09000000171,"y":2562695.4300000034}},{"attributes":{"ID":12319,"DIS_CODE":0,"TOWNNAME":"佳里區","LI":"安西里","LIN":"40鄰","STREET":"文化路","SECT":" ","MAREA":" ","LANE":"６１２巷","ALLEY":"１２弄","HOUSE_NO":"５４號","E_COORD97":164716.57999999999,"N_COORD97":2562699.27,"ADDRESS":"文化路６１２巷１２弄５４號","OBJECTID":12319},"geometry":{"x":164716.58000000007,"y":2562699.2699999977}},{"attributes":{"ID":12320,"DIS_CODE":0,"TOWNNAME":"佳里區","LI":"安西里","LIN":"40鄰","STREET":"文化路","SECT":" ","MAREA":" ","LANE":"６１２巷","ALLEY":"１２弄","HOUSE_NO":"５６號","E_COORD97":164715.89000000001,"N_COORD97":2562703.1000000001,"ADDRESS":"文化路６１２巷１２弄５６號","OBJECTID":12320},"geometry":{"x":164715.88999999966,"y":2562703.0999999996}},{"attributes":{"ID":12321,"DIS_CODE":0,"TOWNNAME":"佳里區","LI":"安西里","LIN":"40鄰","STREET":"文化路","SECT":" ","MAREA":" ","LANE":"６１２巷","ALLEY":"１２弄","HOUSE_NO":"５８號","E_COORD97":164715.44,"N_COORD97":2562707.2599999998,"ADDRESS":"文化路６１２巷１２弄５８號","OBJECTID":12321},"geometry":{"x":164715.44000000134,"y":2562707.2600000016}},{"attributes":{"ID":12322,"DIS_CODE":0,"TOWNNAME":"南區","LI":"彰南里","LIN":"13鄰","STREET":"新樂路","SECT":" ","MAREA":" ","LANE":" ","ALLEY":" ","HOUSE_NO":"２３號","E_COORD97":165698.57000000001,"N_COORD97":2541754.7599999998,"ADDRESS":"新樂路２３號","OBJECTID":12322},"geometry":{"x":165698.5700000003,"y":2541754.7600000016}},{"attributes":{"ID":12323,"DIS_CODE":0,"TOWNNAME":"新化區","LI":"太平里","LIN":"13鄰","STREET":"太平街","SECT":" ","MAREA":" ","LANE":" ","ALLEY":" ","HOUSE_NO":"２４號之１","E_COORD97":178919.70000000001,"N_COORD97":2548814.2599999998,"ADDRESS":"太平街２４號之１","OBJECTID":12323},"geometry":{"x":178919.70000000112,"y":2548814.2600000016}},{"attributes":{"ID":12324,"DIS_CODE":0,"TOWNNAME":"北區","LI":"成功里","LIN":"13鄰","STREET":"北成路","SECT":" ","MAREA":" ","LANE":" ","ALLEY":" ","HOUSE_NO":"７８號","E_COORD97":169005.38,"N_COORD97":2546634.6200000001,"ADDRESS":"北成路７８號","OBJECTID":12324},"geometry":{"x":169005.37999999989,"y":2546634.620000001}},{"attributes":{"ID":12325,"DIS_CODE":0,"TOWNNAME":"學甲區","LI":"新達里","LIN":"24鄰","STREET":" ","SECT":" ","MAREA":"瓦寮","LANE":" ","ALLEY":" ","HOUSE_NO":"１６號之５","E_COORD97":169094.04999999999,"N_COORD97":2570368.8700000001,"ADDRESS":"瓦寮１６號之５","OBJECTID":12325},"geometry":{"x":169094.04999999981,"y":2570368.870000001}},{"attributes":{"ID":12326,"DIS_CODE":0,"TOWNNAME":"學甲區","LI":"新達里","LIN":"24鄰","STREET":" ","SECT":" ","MAREA":"瓦寮","LANE":" ","ALLEY":" ","HOUSE_NO":"１６號之６","E_COORD97":169499.35000000001,"N_COORD97":2570218.02,"ADDRESS":"瓦寮１６號之６","OBJECTID":12326},"geometry":{"x":169499.35000000056,"y":2570218.0200000014}},{"attributes":{"ID":12327,"DIS_CODE":0,"TOWNNAME":"佳里區","LI":"安西里","LIN":"40鄰","STREET":"文化路","SECT":" ","MAREA":" ","LANE":"６１２巷","ALLEY":"１２弄","HOUSE_NO":"５號","E_COORD97":164689.45000000001,"N_COORD97":2562647.1400000001,"ADDRESS":"文化路６１２巷１２弄５號","OBJECTID":12327},"geometry":{"x":164689.44999999925,"y":2562647.1399999987}},{"attributes":{"ID":12328,"DIS_CODE":0,"TOWNNAME":"佳里區","LI":"安西里","LIN":"40鄰","STREET":"文化路","SECT":" ","MAREA":" ","LANE":"６１２巷","ALLEY":"１２弄","HOUSE_NO":"６０號","E_COORD97":164714.69,"N_COORD97":2562711.3799999999,"ADDRESS":"文化路６１２巷１２弄６０號","OBJECTID":12328},"geometry":{"x":164714.69000000041,"y":2562711.379999999}},{"attributes":{"ID":12329,"DIS_CODE":0,"TOWNNAME":"南區","LI":"廣州里","LIN":"20鄰","STREET":"福吉路","SECT":" ","MAREA":" ","LANE":" ","ALLEY":" ","HOUSE_NO":"４２號","E_COORD97":167314.67000000001,"N_COORD97":2542572.4700000002,"ADDRESS":"福吉路４２號","OBJECTID":12329},"geometry":{"x":167314.66999999993,"y":2542572.4700000007}},{"attributes":{"ID":12330,"DIS_CODE":0,"TOWNNAME":"佳里區","LI":"安西里","LIN":"40鄰","STREET":"文化路","SECT":" ","MAREA":" ","LANE":"６１２巷","ALLEY":"１２弄","HOUSE_NO":"６２號","E_COORD97":164713.84,"N_COORD97":2562715.71,"ADDRESS":"文化路６１２巷１２弄６２號","OBJECTID":12330},"geometry":{"x":164713.84000000078,"y":2562715.7100000028}},{"attributes":{"ID":12331,"DIS_CODE":0,"TOWNNAME":"佳里區","LI":"安西里","LIN":"40鄰","STREET":"文化路","SECT":" ","MAREA":" ","LANE":"６１２巷","ALLEY":"１２弄","HOUSE_NO":"６號","E_COORD97":164691.51999999999,"N_COORD97":2562631.23,"ADDRESS":"文化路６１２巷１２弄６號","OBJECTID":12331},"geometry":{"x":164691.51999999955,"y":2562631.2300000023}},{"attributes":{"ID":12332,"DIS_CODE":0,"TOWNNAME":"佳里區","LI":"安西里","LIN":"40鄰","STREET":"文化路","SECT":" ","MAREA":" ","LANE":"６１２巷","ALLEY":"１２弄","HOUSE_NO":"７號","E_COORD97":164693.60000000001,"N_COORD97":2562647.6600000001,"ADDRESS":"文化路６１２巷１２弄７號","OBJECTID":12332},"geometry":{"x":164693.60000000056,"y":2562647.660000002}},{"attributes":{"ID":12333,"DIS_CODE":0,"TOWNNAME":"佳里區","LI":"安西里","LIN":"40鄰","STREET":"文化路","SECT":" ","MAREA":" ","LANE":"６１２巷","ALLEY":"１２弄","HOUSE_NO":"８號","E_COORD97":164695.73000000001,"N_COORD97":2562631.4199999999,"ADDRESS":"文化路６１２巷１２弄８號","OBJECTID":12333},"geometry":{"x":164695.73000000045,"y":2562631.4200000018}},{"attributes":{"ID":12334,"DIS_CODE":0,"TOWNNAME":"南區","LI":"廣州里","LIN":"20鄰","STREET":"福吉路","SECT":" ","MAREA":" ","LANE":" ","ALLEY":" ","HOUSE_NO":"４４號","E_COORD97":167312.14000000001,"N_COORD97":2542568.25,"ADDRESS":"福吉路４４號","OBJECTID":12334},"geometry":{"x":167312.1400000006,"y":2542568.2500000037}},{"attributes":{"ID":12335,"DIS_CODE":0,"TOWNNAME":"南區","LI":"廣州里","LIN":"20鄰","STREET":"福吉路","SECT":" ","MAREA":" ","LANE":" ","ALLEY":" ","HOUSE_NO":"４６號","E_COORD97":167309.60000000001,"N_COORD97":2542565.2999999998,"ADDRESS":"福吉路４６號","OBJECTID":12335},"geometry":{"x":167309.59999999963,"y":2542565.3000000045}},{"attributes":{"ID":12336,"DIS_CODE":0,"TOWNNAME":"南區","LI":"廣州里","LIN":"20鄰","STREET":"福吉路","SECT":" ","MAREA":" ","LANE":" ","ALLEY":" ","HOUSE_NO":"４８號","E_COORD97":167306.64999999999,"N_COORD97":2542561.0899999999,"ADDRESS":"福吉路４８號","OBJECTID":12336},"geometry":{"x":167306.65000000037,"y":2542561.0899999999}},{"attributes":{"ID":12337,"DIS_CODE":0,"TOWNNAME":"南區","LI":"廣州里","LIN":"20鄰","STREET":"福吉路","SECT":" ","MAREA":" ","LANE":" ","ALLEY":" ","HOUSE_NO":"５０號","E_COORD97":167302.85000000001,"N_COORD97":2542558.1299999999,"ADDRESS":"福吉路５０號","OBJECTID":12337},"geometry":{"x":167302.84999999963,"y":2542558.1300000008}},{"attributes":{"ID":12338,"DIS_CODE":0,"TOWNNAME":"南區","LI":"廣州里","LIN":"20鄰","STREET":"福吉路","SECT":" ","MAREA":" ","LANE":" ","ALLEY":" ","HOUSE_NO":"５２號","E_COORD97":167297.78,"N_COORD97":2542556.8700000001,"ADDRESS":"福吉路５２號","OBJECTID":12338},"geometry":{"x":167297.78000000026,"y":2542556.870000001}},{"attributes":{"ID":12339,"DIS_CODE":0,"TOWNNAME":"南區","LI":"郡南里","LIN":"20鄰","STREET":"中華南路","SECT":"二段","MAREA":" ","LANE":" ","ALLEY":" ","HOUSE_NO":"６號","E_COORD97":167476.81,"N_COORD97":2540350.8700000001,"ADDRESS":"中華南路二段６號","OBJECTID":12339},"geometry":{"x":167476.81000000145,"y":2540350.8699999992}},{"attributes":{"ID":12340,"DIS_CODE":0,"TOWNNAME":"學甲區","LI":"新達里","LIN":"24鄰","STREET":" ","SECT":" ","MAREA":"瓦寮","LANE":" ","ALLEY":" ","HOUSE_NO":"１６號之７","E_COORD97":169494.45999999999,"N_COORD97":2570217.1800000002,"ADDRESS":"瓦寮１６號之７","OBJECTID":12340},"geometry":{"x":169494.45999999996,"y":2570217.1800000016}},{"attributes":{"ID":12341,"DIS_CODE":0,"TOWNNAME":"佳里區","LI":"安西里","LIN":"40鄰","STREET":"文化路","SECT":" ","MAREA":" ","LANE":"６１２巷","ALLEY":"１２弄","HOUSE_NO":"９號","E_COORD97":164696.95999999999,"N_COORD97":2562648.8399999999,"ADDRESS":"文化路６１２巷１２弄９號","OBJECTID":12341},"geometry":{"x":164696.95999999996,"y":2562648.8400000017}},{"attributes":{"ID":12342,"DIS_CODE":0,"TOWNNAME":"佳里區","LI":"安西里","LIN":"40鄰","STREET":"文化路","SECT":" ","MAREA":" ","LANE":"６１２巷","ALLEY":"１４弄","HOUSE_NO":"１０號","E_COORD97":164702.14000000001,"N_COORD97":2562671.5800000001,"ADDRESS":"文化路６１２巷１４弄１０號","OBJECTID":12342},"geometry":{"x":164702.13999999966,"y":2562671.5800000019}},{"attributes":{"ID":12343,"DIS_CODE":0,"TOWNNAME":"關廟區","LI":"埤頭里","LIN":"13鄰","STREET":"關新路","SECT":"二段","MAREA":" ","LANE":"４６２巷","ALLEY":"１８弄","HOUSE_NO":"２５號","E_COORD97":179259.76990099999,"N_COORD97":2545038.7602200001,"ADDRESS":"關新路二段４６２巷１８弄２５號","OBJECTID":12343},"geometry":{"x":179259.76990100089,"y":2545038.7602160014}},{"attributes":{"ID":12344,"DIS_CODE":0,"TOWNNAME":"佳里區","LI":"安西里","LIN":"40鄰","STREET":"文化路","SECT":" ","MAREA":" ","LANE":"６１２巷","ALLEY":"１４弄","HOUSE_NO":"１２號","E_COORD97":164706.20000000001,"N_COORD97":2562672.1600000001,"ADDRESS":"文化路６１２巷１４弄１２號","OBJECTID":12344},"geometry":{"x":164706.20000000019,"y":2562672.1600000001}},{"attributes":{"ID":12345,"DIS_CODE":0,"TOWNNAME":"佳里區","LI":"安西里","LIN":"40鄰","STREET":"文化路","SECT":" ","MAREA":" ","LANE":"６１２巷","ALLEY":"１４弄","HOUSE_NO":"１４號","E_COORD97":164710.73000000001,"N_COORD97":2562672.6800000002,"ADDRESS":"文化路６１２巷１４弄１４號","OBJECTID":12345},"geometry":{"x":164710.73000000138,"y":2562672.6799999997}},{"attributes":{"ID":12346,"DIS_CODE":0,"TOWNNAME":"佳里區","LI":"安西里","LIN":"40鄰","STREET":"文化路","SECT":" ","MAREA":" ","LANE":"６１２巷","ALLEY":"１４弄","HOUSE_NO":"１號","E_COORD97":164695.03,"N_COORD97":2562685.4199999999,"ADDRESS":"文化路６１２巷１４弄１號","OBJECTID":12346},"geometry":{"x":164695.03000000026,"y":2562685.4200000037}},{"attributes":{"ID":12347,"DIS_CODE":0,"TOWNNAME":"佳里區","LI":"安西里","LIN":"40鄰","STREET":"文化路","SECT":" ","MAREA":" ","LANE":"６１２巷","ALLEY":"１４弄","HOUSE_NO":"２號","E_COORD97":164686.01999999999,"N_COORD97":2562669.0699999998,"ADDRESS":"文化路６１２巷１４弄２號","OBJECTID":12347},"geometry":{"x":164686.01999999955,"y":2562669.0700000022}},{"attributes":{"ID":12348,"DIS_CODE":0,"TOWNNAME":"佳里區","LI":"安西里","LIN":"40鄰","STREET":"文化路","SECT":" ","MAREA":" ","LANE":"６１２巷","ALLEY":"１４弄","HOUSE_NO":"３號","E_COORD97":164699.60999999999,"N_COORD97":2562685.8799999999,"ADDRESS":"文化路６１２巷１４弄３號","OBJECTID":12348},"geometry":{"x":164699.61000000127,"y":2562685.8800000008}},{"attributes":{"ID":12349,"DIS_CODE":0,"TOWNNAME":"佳里區","LI":"安西里","LIN":"40鄰","STREET":"文化路","SECT":" ","MAREA":" ","LANE":"６１２巷","ALLEY":"１４弄","HOUSE_NO":"４號","E_COORD97":164690.34,"N_COORD97":2562669.8799999999,"ADDRESS":"文化路６１２巷１４弄４號","OBJECTID":12349},"geometry":{"x":164690.34000000078,"y":2562669.879999999}},{"attributes":{"ID":12350,"DIS_CODE":0,"TOWNNAME":"佳里區","LI":"安西里","LIN":"40鄰","STREET":"文化路","SECT":" ","MAREA":" ","LANE":"６１２巷","ALLEY":"１４弄","HOUSE_NO":"５號","E_COORD97":164704.01999999999,"N_COORD97":2562687.04,"ADDRESS":"文化路６１２巷１４弄５號","OBJECTID":12350},"geometry":{"x":164704.02000000048,"y":2562687.0400000028}},{"attributes":{"ID":12351,"DIS_CODE":0,"TOWNNAME":"佳里區","LI":"安西里","LIN":"40鄰","STREET":"文化路","SECT":" ","MAREA":" ","LANE":"６１２巷","ALLEY":"１４弄","HOUSE_NO":"６號","E_COORD97":164694.13,"N_COORD97":2562670.27,"ADDRESS":"文化路６１２巷１４弄６號","OBJECTID":12351},"geometry":{"x":164694.12999999989,"y":2562670.2700000014}},{"attributes":{"ID":12352,"DIS_CODE":0,"TOWNNAME":"佳里區","LI":"安西里","LIN":"40鄰","STREET":"文化路","SECT":" ","MAREA":" ","LANE":"６１２巷","ALLEY":"１４弄","HOUSE_NO":"７號","E_COORD97":164708.45000000001,"N_COORD97":2562687.48,"ADDRESS":"文化路６１２巷１４弄７號","OBJECTID":12352},"geometry":{"x":164708.45000000112,"y":2562687.4800000004}},{"attributes":{"ID":12353,"DIS_CODE":0,"TOWNNAME":"佳里區","LI":"安西里","LIN":"40鄰","STREET":"文化路","SECT":" ","MAREA":" ","LANE":"６１２巷","ALLEY":"１４弄","HOUSE_NO":"８號","E_COORD97":164698.23999999999,"N_COORD97":2562670.7999999998,"ADDRESS":"文化路６１２巷１４弄８號","OBJECTID":12353},"geometry":{"x":164698.24000000115,"y":2562670.8000000026}},{"attributes":{"ID":12354,"DIS_CODE":0,"TOWNNAME":"永康區","LI":"北灣里","LIN":"40鄰","STREET":"大同街","SECT":" ","MAREA":" ","LANE":"４１３巷","ALLEY":"１８弄","HOUSE_NO":"１６號","E_COORD97":174619.32999999999,"N_COORD97":2546259.0899999999,"ADDRESS":"大同街４１３巷１８弄１６號","OBJECTID":12354},"geometry":{"x":174619.33000000101,"y":2546259.0900000017}},{"attributes":{"ID":12355,"DIS_CODE":0,"TOWNNAME":"永康區","LI":"北灣里","LIN":"40鄰","STREET":"大同街","SECT":" ","MAREA":" ","LANE":"４１３巷","ALLEY":"１８弄","HOUSE_NO":"３號","E_COORD97":174603.57000000001,"N_COORD97":2546209.2400000002,"ADDRESS":"大同街４１３巷１８弄３號","OBJECTID":12355},"geometry":{"x":174603.5700000003,"y":2546209.2400000002}},{"attributes":{"ID":12356,"DIS_CODE":0,"TOWNNAME":"永康區","LI":"北灣里","LIN":"40鄰","STREET":"大同街","SECT":" ","MAREA":" ","LANE":"４１３巷","ALLEY":"１８弄","HOUSE_NO":"１１號","E_COORD97":174598.45999999999,"N_COORD97":2546249.1899999999,"ADDRESS":"大同街４１３巷１８弄１１號","OBJECTID":12356},"geometry":{"x":174598.46000000089,"y":2546249.1899999995}},{"attributes":{"ID":12357,"DIS_CODE":0,"TOWNNAME":"北區","LI":"三德里","LIN":"5鄰","STREET":"裕民街","SECT":" ","MAREA":" ","LANE":" ","ALLEY":" ","HOUSE_NO":"５２號","E_COORD97":168478.14000000001,"N_COORD97":2544467.2599999998,"ADDRESS":"裕民街５２號","OBJECTID":12357},"geometry":{"x":168478.14000000153,"y":2544467.2600000016}},{"attributes":{"ID":12358,"DIS_CODE":0,"TOWNNAME":"新營區","LI":"民權里","LIN":"13鄰","STREET":"信義街","SECT":" ","MAREA":" ","LANE":" ","ALLEY":" ","HOUSE_NO":"６５號","E_COORD97":179910.20000000001,"N_COORD97":2578433.6000000001,"ADDRESS":"信義街６５號","OBJECTID":12358},"geometry":{"x":179910.20000000019,"y":2578433.6000000015}},{"attributes":{"ID":12359,"DIS_CODE":0,"TOWNNAME":"學甲區","LI":"新達里","LIN":"24鄰","STREET":" ","SECT":" ","MAREA":"瓦寮","LANE":" ","ALLEY":" ","HOUSE_NO":"１６號之８","E_COORD97":169481.39999999999,"N_COORD97":2570214.52,"ADDRESS":"瓦寮１６號之８","OBJECTID":12359},"geometry":{"x":169481.4000000013,"y":2570214.5200000033}},{"attributes":{"ID":12360,"DIS_CODE":0,"TOWNNAME":"西港區","LI":"\u25A0林里","LIN":"13鄰","STREET":" ","SECT":" ","MAREA":"太西","LANE":" ","ALLEY":" ","HOUSE_NO":"３號","E_COORD97":171004.70999999999,"N_COORD97":2560203.1499999999,"ADDRESS":"太西３號","OBJECTID":12360},"geometry":{"x":171004.70999999996,"y":2560203.1500000022}},{"attributes":{"ID":12361,"DIS_CODE":0,"TOWNNAME":"永康區","LI":"北灣里","LIN":"40鄰","STREET":"大同街","SECT":" ","MAREA":" ","LANE":"４１３巷","ALLEY":"１８弄","HOUSE_NO":"２０號","E_COORD97":174612.82999999999,"N_COORD97":2546266.3399999999,"ADDRESS":"大同街４１３巷１８弄２０號","OBJECTID":12361},"geometry":{"x":174612.83000000101,"y":2546266.3400000036}},{"attributes":{"ID":12362,"DIS_CODE":0,"TOWNNAME":"永康區","LI":"北灣里","LIN":"40鄰","STREET":"大同街","SECT":" ","MAREA":" ","LANE":"４１３巷","ALLEY":"１８弄","HOUSE_NO":"８號","E_COORD97":174618.17000000001,"N_COORD97":2546243.1000000001,"ADDRESS":"大同街４１３巷１８弄８號","OBJECTID":12362},"geometry":{"x":174618.17000000179,"y":2546243.0999999996}},{"attributes":{"ID":12363,"DIS_CODE":0,"TOWNNAME":"永康區","LI":"北灣里","LIN":"40鄰","STREET":"大同街","SECT":" ","MAREA":" ","LANE":"４１３巷","ALLEY":"１８弄","HOUSE_NO":"６號","E_COORD97":174617.72,"N_COORD97":2546238.3500000001,"ADDRESS":"大同街４１３巷１８弄６號","OBJECTID":12363},"geometry":{"x":174617.7200000016,"y":2546238.3499999996}},{"attributes":{"ID":12364,"DIS_CODE":0,"TOWNNAME":"永康區","LI":"北灣里","LIN":"40鄰","STREET":"大同街","SECT":" ","MAREA":" ","LANE":"４１３巷","ALLEY":"３０弄","HOUSE_NO":"３號","E_COORD97":174596.75,"N_COORD97":2546172.54,"ADDRESS":"大同街４１３巷３０弄３號","OBJECTID":12364},"geometry":{"x":174596.75,"y":2546172.5400000028}},{"attributes":{"ID":12365,"DIS_CODE":0,"TOWNNAME":"永康區","LI":"北灣里","LIN":"40鄰","STREET":"大同街","SECT":" ","MAREA":" ","LANE":"４１３巷","ALLEY":"３０弄","HOUSE_NO":"７號","E_COORD97":174594.66,"N_COORD97":2546181.29,"ADDRESS":"大同街４１３巷３０弄７號","OBJECTID":12365},"geometry":{"x":174594.65999999922,"y":2546181.290000001}},{"attributes":{"ID":12366,"DIS_CODE":0,"TOWNNAME":"南化區","LI":"玉山里","LIN":"13鄰","STREET":" ","SECT":" ","MAREA":"玉山","LANE":" ","ALLEY":" ","HOUSE_NO":"１４９號之３","E_COORD97":202329.14999999999,"N_COORD97":2552633.7999999998,"ADDRESS":"玉山１４９號之３","OBJECTID":12366},"geometry":{"x":202329.1500000013,"y":2552633.8000000007}},{"attributes":{"ID":12367,"DIS_CODE":0,"TOWNNAME":"東區","LI":"泉南里","LIN":"40鄰","STREET":"林森路","SECT":"一段","MAREA":" ","LANE":"１５３巷","ALLEY":"１５弄","HOUSE_NO":"１１號二樓","E_COORD97":169456.82999999999,"N_COORD97":2542698.3700000001,"ADDRESS":"林森路一段１５３巷１５弄１１號二樓","OBJECTID":12367},"geometry":{"x":169456.83000000007,"y":2542698.3700000029}},{"attributes":{"ID":12368,"DIS_CODE":0,"TOWNNAME":"東區","LI":"泉南里","LIN":"40鄰","STREET":"林森路","SECT":"一段","MAREA":" ","LANE":"１５３巷","ALLEY":"１５弄","HOUSE_NO":"１３號二樓","E_COORD97":169471.47,"N_COORD97":2542701.98,"ADDRESS":"林森路一段１５３巷１５弄１３號二樓","OBJECTID":12368},"geometry":{"x":169471.47000000067,"y":2542701.9800000004}},{"attributes":{"ID":12369,"DIS_CODE":0,"TOWNNAME":"東區","LI":"泉南里","LIN":"40鄰","STREET":"林森路","SECT":"一段","MAREA":" ","LANE":"１５３巷","ALLEY":"１５弄","HOUSE_NO":"１９號二樓","E_COORD97":169524.70000000001,"N_COORD97":2542744.3300000001,"ADDRESS":"林森路一段１５３巷１５弄１９號二樓","OBJECTID":12369},"geometry":{"x":169524.70000000112,"y":2542744.3300000019}},{"attributes":{"ID":12370,"DIS_CODE":0,"TOWNNAME":"永康區","LI":"\u25A0行里","LIN":"40鄰","STREET":"永安路","SECT":" ","MAREA":" ","LANE":"１０５巷","ALLEY":"４６弄","HOUSE_NO":"１８號五樓之１","E_COORD97":172608.19,"N_COORD97":2549360.0600000001,"ADDRESS":"永安路１０５巷４６弄１８號五樓之１","OBJECTID":12370},"geometry":{"x":172608.19000000227,"y":2549360.0600000005}},{"attributes":{"ID":12371,"DIS_CODE":0,"TOWNNAME":"永康區","LI":"\u25A0行里","LIN":"40鄰","STREET":"永安路","SECT":" ","MAREA":" ","LANE":"１０５巷","ALLEY":"４６弄","HOUSE_NO":"２４號二樓之３","E_COORD97":172618.26999999999,"N_COORD97":2549372.0600000001,"ADDRESS":"永安路１０５巷４６弄２４號二樓之３","OBJECTID":12371},"geometry":{"x":172618.26999999955,"y":2549372.0600000024}},{"attributes":{"ID":12372,"DIS_CODE":0,"TOWNNAME":"新營區","LI":"鐵線里","LIN":"13鄰","STREET":" ","SECT":" ","MAREA":"秀才","LANE":" ","ALLEY":" ","HOUSE_NO":"１號","E_COORD97":175139.16,"N_COORD97":2573746.9100000001,"ADDRESS":"秀才１號","OBJECTID":12372},"geometry":{"x":175139.16000000108,"y":2573746.9100000001}},{"attributes":{"ID":12373,"DIS_CODE":0,"TOWNNAME":"永康區","LI":"\u25A0行里","LIN":"40鄰","STREET":"永安路","SECT":" ","MAREA":" ","LANE":"１０５巷","ALLEY":"４６弄","HOUSE_NO":"２１號七樓之３","E_COORD97":172590.76999999999,"N_COORD97":2549371.3100000001,"ADDRESS":"永安路１０５巷４６弄２１號七樓之３","OBJECTID":12373},"geometry":{"x":172590.76999999955,"y":2549371.3100000005}},{"attributes":{"ID":12374,"DIS_CODE":0,"TOWNNAME":"永康區","LI":"\u25A0行里","LIN":"40鄰","STREET":"永安路","SECT":" ","MAREA":" ","LANE":"１０５巷","ALLEY":"４６弄","HOUSE_NO":"１９號六樓之３","E_COORD97":172581.01999999999,"N_COORD97":2549358.5600000001,"ADDRESS":"永安路１０５巷４６弄１９號六樓之３","OBJECTID":12374},"geometry":{"x":172581.01999999955,"y":2549358.5600000024}},{"attributes":{"ID":12375,"DIS_CODE":0,"TOWNNAME":"永康區","LI":"\u25A0行里","LIN":"40鄰","STREET":"永安路","SECT":" ","MAREA":" ","LANE":"１０５巷","ALLEY":"４６弄","HOUSE_NO":"２３號五樓之３","E_COORD97":172576.56,"N_COORD97":2549371.8100000001,"ADDRESS":"永安路１０５巷４６弄２３號五樓之３","OBJECTID":12375},"geometry":{"x":172576.56000000052,"y":2549371.8100000005}},{"attributes":{"ID":12376,"DIS_CODE":0,"TOWNNAME":"永康區","LI":"\u25A0行里","LIN":"40鄰","STREET":"永安路","SECT":" ","MAREA":" ","LANE":"１０５巷","ALLEY":"４６弄","HOUSE_NO":"２４號五樓之２","E_COORD97":172618.29999999999,"N_COORD97":2549372.0600000001,"ADDRESS":"永安路１０５巷４６弄２４號五樓之２","OBJECTID":12376},"geometry":{"x":172618.29999999981,"y":2549372.0600000024}},{"attributes":{"ID":12377,"DIS_CODE":0,"TOWNNAME":"永康區","LI":"\u25A0行里","LIN":"40鄰","STREET":"永安路","SECT":" ","MAREA":" ","LANE":"１０５巷","ALLEY":"４６弄","HOUSE_NO":"２３號三樓之１","E_COORD97":172576.45999999999,"N_COORD97":2549371.8100000001,"ADDRESS":"永安路１０５巷４６弄２３號三樓之１","OBJECTID":12377},"geometry":{"x":172576.45999999996,"y":2549371.8100000005}},{"attributes":{"ID":12378,"DIS_CODE":0,"TOWNNAME":"永康區","LI":"\u25A0行里","LIN":"40鄰","STREET":"永安路","SECT":" ","MAREA":" ","LANE":"１０５巷","ALLEY":"４６弄","HOUSE_NO":"２１號三樓之１","E_COORD97":172590.67000000001,"N_COORD97":2549371.3100000001,"ADDRESS":"永安路１０５巷４６弄２１號三樓之１","OBJECTID":12378},"geometry":{"x":172590.66999999899,"y":2549371.3100000005}},{"attributes":{"ID":12379,"DIS_CODE":0,"TOWNNAME":"永康區","LI":"\u25A0行里","LIN":"40鄰","STREET":"永安路","SECT":" ","MAREA":" ","LANE":"１０５巷","ALLEY":"４６弄","HOUSE_NO":"２１號二樓之１","E_COORD97":172590.67000000001,"N_COORD97":2549371.3100000001,"ADDRESS":"永安路１０５巷４６弄２１號二樓之１","OBJECTID":12379},"geometry":{"x":172590.66999999899,"y":2549371.3100000005}},{"attributes":{"ID":12380,"DIS_CODE":0,"TOWNNAME":"北區","LI":"仁愛里","LIN":"10鄰","STREET":"長榮路","SECT":"四段","MAREA":" ","LANE":" ","ALLEY":" ","HOUSE_NO":"７３號","E_COORD97":170292.48000000001,"N_COORD97":2544989.4300000002,"ADDRESS":"長榮路四段７３號","OBJECTID":12380},"geometry":{"x":170292.48000000138,"y":2544989.4299999997}},{"attributes":{"ID":12381,"DIS_CODE":0,"TOWNNAME":"北區","LI":"成功里","LIN":"13鄰","STREET":"北成路","SECT":" ","MAREA":" ","LANE":" ","ALLEY":" ","HOUSE_NO":"６０號","E_COORD97":169041.26000000001,"N_COORD97":2546614.23,"ADDRESS":"北成路６０號","OBJECTID":12381},"geometry":{"x":169041.25999999978,"y":2546614.2300000023}},{"attributes":{"ID":12382,"DIS_CODE":0,"TOWNNAME":"學甲區","LI":"新達里","LIN":"24鄰","STREET":" ","SECT":" ","MAREA":"瓦寮","LANE":" ","ALLEY":" ","HOUSE_NO":"１６號","E_COORD97":169524.79999999999,"N_COORD97":2570343.3100000001,"ADDRESS":"瓦寮１６號","OBJECTID":12382},"geometry":{"x":169524.80000000168,"y":2570343.3100000024}},{"attributes":{"ID":12383,"DIS_CODE":0,"TOWNNAME":"學甲區","LI":"新達里","LIN":"24鄰","STREET":" ","SECT":" ","MAREA":"瓦寮","LANE":" ","ALLEY":" ","HOUSE_NO":"１７號之１","E_COORD97":169447.82000000001,"N_COORD97":2570198.25,"ADDRESS":"瓦寮１７號之１","OBJECTID":12383},"geometry":{"x":169447.82000000123,"y":2570198.25}},{"attributes":{"ID":12384,"DIS_CODE":0,"TOWNNAME":"學甲區","LI":"新達里","LIN":"24鄰","STREET":" ","SECT":" ","MAREA":"瓦寮","LANE":" ","ALLEY":" ","HOUSE_NO":"１８號","E_COORD97":169369.60000000001,"N_COORD97":2570257.6099999999,"ADDRESS":"瓦寮１８號","OBJECTID":12384},"geometry":{"x":169369.59999999963,"y":2570257.6100000031}},{"attributes":{"ID":12385,"DIS_CODE":0,"TOWNNAME":"學甲區","LI":"新達里","LIN":"24鄰","STREET":" ","SECT":" ","MAREA":"瓦寮","LANE":" ","ALLEY":" ","HOUSE_NO":"２２號之３","E_COORD97":169061.42999999999,"N_COORD97":2570035.2999999998,"ADDRESS":"瓦寮２２號之３","OBJECTID":12385},"geometry":{"x":169061.43000000063,"y":2570035.3000000026}},{"attributes":{"ID":12386,"DIS_CODE":0,"TOWNNAME":"學甲區","LI":"新達里","LIN":"24鄰","STREET":" ","SECT":" ","MAREA":"瓦寮","LANE":" ","ALLEY":" ","HOUSE_NO":"２３號","E_COORD97":169366.39999999999,"N_COORD97":2569892.46,"ADDRESS":"瓦寮２３號","OBJECTID":12386},"geometry":{"x":169366.40000000037,"y":2569892.4600000009}},{"attributes":{"ID":12387,"DIS_CODE":0,"TOWNNAME":"學甲區","LI":"平和里","LIN":"24鄰","STREET":" ","SECT":" ","MAREA":"西平寮","LANE":" ","ALLEY":" ","HOUSE_NO":"４１號之３","E_COORD97":169104.19,"N_COORD97":2573222.7000000002,"ADDRESS":"西平寮４１號之３","OBJECTID":12387},"geometry":{"x":169104.19000000227,"y":2573222.6999999993}},{"attributes":{"ID":12388,"DIS_CODE":0,"TOWNNAME":"學甲區","LI":"平和里","LIN":"24鄰","STREET":" ","SECT":" ","MAREA":"西平寮","LANE":" ","ALLEY":" ","HOUSE_NO":"４１號之４","E_COORD97":169100.10999999999,"N_COORD97":2573222.7000000002,"ADDRESS":"西平寮４１號之４","OBJECTID":12388},"geometry":{"x":169100.11000000127,"y":2573222.6999999993}},{"attributes":{"ID":12389,"DIS_CODE":0,"TOWNNAME":"學甲區","LI":"平和里","LIN":"24鄰","STREET":" ","SECT":" ","MAREA":"西平寮","LANE":" ","ALLEY":" ","HOUSE_NO":"４１號之５","E_COORD97":169095.70000000001,"N_COORD97":2573222.4500000002,"ADDRESS":"西平寮４１號之５","OBJECTID":12389},"geometry":{"x":169095.70000000112,"y":2573222.4500000011}},{"attributes":{"ID":12390,"DIS_CODE":0,"TOWNNAME":"學甲區","LI":"平和里","LIN":"24鄰","STREET":" ","SECT":" ","MAREA":"西平寮","LANE":" ","ALLEY":" ","HOUSE_NO":"４１號","E_COORD97":169117.76999999999,"N_COORD97":2573223.1600000001,"ADDRESS":"西平寮４１號","OBJECTID":12390},"geometry":{"x":169117.76999999955,"y":2573223.1600000001}},{"attributes":{"ID":12391,"DIS_CODE":0,"TOWNNAME":"永康區","LI":"\u25A0行里","LIN":"40鄰","STREET":"永安路","SECT":" ","MAREA":" ","LANE":"１０５巷","ALLEY":"４６弄","HOUSE_NO":"２３號六樓之２","E_COORD97":172576.59,"N_COORD97":2549371.8100000001,"ADDRESS":"永安路１０５巷４６弄２３號六樓之２","OBJECTID":12391},"geometry":{"x":172576.59000000078,"y":2549371.8100000005}},{"attributes":{"ID":12392,"DIS_CODE":0,"TOWNNAME":"南化區","LI":"玉山里","LIN":"13鄰","STREET":" ","SECT":" ","MAREA":"玉山","LANE":" ","ALLEY":" ","HOUSE_NO":"１４２號","E_COORD97":202333.82000000001,"N_COORD97":2552537.75,"ADDRESS":"玉山１４２號","OBJECTID":12392},"geometry":{"x":202333.81999999937,"y":2552537.75}},{"attributes":{"ID":12393,"DIS_CODE":0,"TOWNNAME":"南化區","LI":"北寮里","LIN":"13鄰","STREET":" ","SECT":" ","MAREA":"北寮","LANE":" ","ALLEY":" ","HOUSE_NO":"１８１之２號","E_COORD97":198741.73999999999,"N_COORD97":2552568.7999999998,"ADDRESS":"北寮１８１之２號","OBJECTID":12393},"geometry":{"x":198741.74000000022,"y":2552568.8000000007}},{"attributes":{"ID":12394,"DIS_CODE":0,"TOWNNAME":"南化區","LI":"北寮里","LIN":"13鄰","STREET":" ","SECT":" ","MAREA":"北寮","LANE":" ","ALLEY":" ","HOUSE_NO":"１８０號","E_COORD97":198696.73999999999,"N_COORD97":2552581.75,"ADDRESS":"北寮１８０號","OBJECTID":12394},"geometry":{"x":198696.74000000115,"y":2552581.75}},{"attributes":{"ID":12395,"DIS_CODE":0,"TOWNNAME":"南化區","LI":"南化里","LIN":"13鄰","STREET":" ","SECT":" ","MAREA":"南化","LANE":" ","ALLEY":" ","HOUSE_NO":"２８３號之１","E_COORD97":197733.17000000001,"N_COORD97":2548650.7999999998,"ADDRESS":"南化２８３號之１","OBJECTID":12395},"geometry":{"x":197733.16999999993,"y":2548650.8000000045}},{"attributes":{"ID":12396,"DIS_CODE":0,"TOWNNAME":"永康區","LI":"\u25A0行里","LIN":"40鄰","STREET":"永安路","SECT":" ","MAREA":" ","LANE":"１０５巷","ALLEY":"４６弄","HOUSE_NO":"２１號四樓之３","E_COORD97":172590.76999999999,"N_COORD97":2549371.3100000001,"ADDRESS":"永安路１０５巷４６弄２１號四樓之３","OBJECTID":12396},"geometry":{"x":172590.76999999955,"y":2549371.3100000005}},{"attributes":{"ID":12397,"DIS_CODE":0,"TOWNNAME":"南化區","LI":"玉山里","LIN":"13鄰","STREET":" ","SECT":" ","MAREA":"玉山","LANE":" ","ALLEY":" ","HOUSE_NO":"１４５號之３","E_COORD97":202477.14999999999,"N_COORD97":2552477.7999999998,"ADDRESS":"玉山１４５號之３","OBJECTID":12397},"geometry":{"x":202477.15000000037,"y":2552477.8000000007}},{"attributes":{"ID":12398,"DIS_CODE":0,"TOWNNAME":"永康區","LI":"大橋里","LIN":"24鄰","STREET":"大橋一街","SECT":" ","MAREA":" ","LANE":"２２３巷","ALLEY":"６弄","HOUSE_NO":"１５號","E_COORD97":171214,"N_COORD97":2546743,"ADDRESS":"大橋一街２２３巷６弄１５號","OBJECTID":12398},"geometry":{"x":171214.00000000093,"y":2546743}},{"attributes":{"ID":12399,"DIS_CODE":0,"TOWNNAME":"永康區","LI":"\u25A0行里","LIN":"40鄰","STREET":"永安路","SECT":" ","MAREA":" ","LANE":"１０５巷","ALLEY":"４６弄","HOUSE_NO":"１８號七樓之１","E_COORD97":172608.19,"N_COORD97":2549360.0600000001,"ADDRESS":"永安路１０５巷４６弄１８號七樓之１","OBJECTID":12399},"geometry":{"x":172608.19000000227,"y":2549360.0600000005}},{"attributes":{"ID":12400,"DIS_CODE":0,"TOWNNAME":"永康區","LI":"\u25A0行里","LIN":"40鄰","STREET":"永安路","SECT":" ","MAREA":" ","LANE":"１０５巷","ALLEY":"４６弄","HOUSE_NO":"２４號二樓之２","E_COORD97":172618.29999999999,"N_COORD97":2549372.0600000001,"ADDRESS":"永安路１０５巷４６弄２４號二樓之２","OBJECTID":12400},"geometry":{"x":172618.29999999981,"y":2549372.0600000024}}]}