{"displayFieldName":"TOWNNAME","fieldAliases":{"ID":"ID","DIS_CODE":"DIS_CODE","TOWNNAME":"TOWNNAME","LI":"LI","LIN":"LIN","STREET":"STREET","SECT":"SECT","MAREA":"MAREA","LANE":"LANE","ALLEY":"ALLEY","HOUSE_NO":"HOUSE_NO","E_COORD97":"E_COORD97","N_COORD97":"N_COORD97","ADDRESS":"ADDRESS","OBJECTID":"OBJECTID"},"geometryType":"esriGeometryPoint","spatialReference":{"wkid":102443,"latestWkid":3826},"fields":[{"name":"ID","type":"esriFieldTypeDouble","alias":"ID"},{"name":"DIS_CODE","type":"esriFieldTypeInteger","alias":"DIS_CODE"},{"name":"TOWNNAME","type":"esriFieldTypeString","alias":"TOWNNAME","length":8},{"name":"LI","type":"esriFieldTypeString","alias":"LI","length":8},{"name":"LIN","type":"esriFieldTypeString","alias":"LIN","length":12},{"name":"STREET","type":"esriFieldTypeString","alias":"STREET","length":20},{"name":"SECT","type":"esriFieldTypeString","alias":"SECT","length":8},{"name":"MAREA","type":"esriFieldTypeString","alias":"MAREA","length":12},{"name":"LANE","type":"esriFieldTypeString","alias":"LANE","length":10},{"name":"ALLEY","type":"esriFieldTypeString","alias":"ALLEY","length":10},{"name":"HOUSE_NO","type":"esriFieldTypeString","alias":"HOUSE_NO","length":20},{"name":"E_COORD97","type":"esriFieldTypeDouble","alias":"E_COORD97"},{"name":"N_COORD97","type":"esriFieldTypeDouble","alias":"N_COORD97"},{"name":"ADDRESS","type":"esriFieldTypeString","alias":"ADDRESS","length":50},{"name":"OBJECTID","type":"esriFieldTypeOID","alias":"OBJECTID"}],"features":[{"attributes":{"ID":435826,"DIS_CODE":0,"TOWNNAME":"關廟區","LI":"東勢里","LIN":"24鄰","STREET":"東安街","SECT":" ","MAREA":" ","LANE":"２４１巷","ALLEY":" ","HOUSE_NO":"２７號","E_COORD97":181636.32000000001,"N_COORD97":2539427.3199999998,"ADDRESS":"東安街２４１巷２７號","OBJECTID":435801},"geometry":{"x":181636.32000000123,"y":2539427.3200000003}},{"attributes":{"ID":435827,"DIS_CODE":0,"TOWNNAME":"關廟區","LI":"五甲里","LIN":"13鄰","STREET":"光復街","SECT":" ","MAREA":" ","LANE":"９１巷","ALLEY":" ","HOUSE_NO":"３９號","E_COORD97":181415.84,"N_COORD97":2539357.2799999998,"ADDRESS":"光復街９１巷３９號","OBJECTID":435802},"geometry":{"x":181415.83999999985,"y":2539357.2800000012}},{"attributes":{"ID":435828,"DIS_CODE":0,"TOWNNAME":"關廟區","LI":"深坑里","LIN":"13鄰","STREET":"南雄路","SECT":"一段","MAREA":" ","LANE":"９８巷","ALLEY":" ","HOUSE_NO":"２１０號","E_COORD97":183025.01999999999,"N_COORD97":2537026.2999999998,"ADDRESS":"南雄路一段９８巷２１０號","OBJECTID":435803},"geometry":{"x":183025.01999999955,"y":2537026.3000000026}},{"attributes":{"ID":435829,"DIS_CODE":0,"TOWNNAME":"關廟區","LI":"山西里","LIN":"13鄰","STREET":"文衡路","SECT":" ","MAREA":" ","LANE":"１３３巷","ALLEY":" ","HOUSE_NO":"１０號","E_COORD97":180866.82999999999,"N_COORD97":2540557.0099999998,"ADDRESS":"文衡路１３３巷１０號","OBJECTID":435804},"geometry":{"x":180866.83000000007,"y":2540557.0100000016}},{"attributes":{"ID":435830,"DIS_CODE":0,"TOWNNAME":"關廟區","LI":"東勢里","LIN":"25鄰","STREET":"東興路","SECT":" ","MAREA":" ","LANE":"１４８巷","ALLEY":" ","HOUSE_NO":"２號","E_COORD97":181546.37,"N_COORD97":2539528.25,"ADDRESS":"東興路１４８巷２號","OBJECTID":435805},"geometry":{"x":181546.37000000011,"y":2539528.2500000019}},{"attributes":{"ID":435831,"DIS_CODE":0,"TOWNNAME":"關廟區","LI":"東勢里","LIN":"4鄰","STREET":"和平路","SECT":" ","MAREA":" ","LANE":"１００巷","ALLEY":" ","HOUSE_NO":"２號","E_COORD97":181765.14000000001,"N_COORD97":2539471.25,"ADDRESS":"和平路１００巷２號","OBJECTID":435806},"geometry":{"x":181765.14000000153,"y":2539471.25}},{"attributes":{"ID":435832,"DIS_CODE":0,"TOWNNAME":"關廟區","LI":"松腳里","LIN":"18鄰","STREET":"中山路","SECT":"一段","MAREA":" ","LANE":"８９巷","ALLEY":" ","HOUSE_NO":"５號","E_COORD97":181928.70999999999,"N_COORD97":2539928.2799999998,"ADDRESS":"中山路一段８９巷５號","OBJECTID":435807},"geometry":{"x":181928.70999999996,"y":2539928.2799999993}},{"attributes":{"ID":435833,"DIS_CODE":0,"TOWNNAME":"關廟區","LI":"五甲里","LIN":"20鄰","STREET":"五智街","SECT":" ","MAREA":" ","LANE":"５０巷","ALLEY":" ","HOUSE_NO":"３號","E_COORD97":181151.32000000001,"N_COORD97":2539180.25,"ADDRESS":"五智街５０巷３號","OBJECTID":435808},"geometry":{"x":181151.32000000123,"y":2539180.25}},{"attributes":{"ID":435834,"DIS_CODE":0,"TOWNNAME":"關廟區","LI":"五甲里","LIN":"13鄰","STREET":"光復街","SECT":" ","MAREA":" ","LANE":"９１巷","ALLEY":" ","HOUSE_NO":"２９號","E_COORD97":181439.64000000001,"N_COORD97":2539363.2799999998,"ADDRESS":"光復街９１巷２９號","OBJECTID":435809},"geometry":{"x":181439.64000000153,"y":2539363.2800000031}},{"attributes":{"ID":435835,"DIS_CODE":0,"TOWNNAME":"關廟區","LI":"東勢里","LIN":"13鄰","STREET":"東榮街","SECT":" ","MAREA":" ","LANE":"９９巷","ALLEY":" ","HOUSE_NO":"１號","E_COORD97":182127.82000000001,"N_COORD97":2539401.25,"ADDRESS":"東榮街９９巷１號","OBJECTID":435810},"geometry":{"x":182127.82000000123,"y":2539401.2499999981}},{"attributes":{"ID":435836,"DIS_CODE":0,"TOWNNAME":"關廟區","LI":"五甲里","LIN":"18鄰","STREET":"五權街","SECT":" ","MAREA":" ","LANE":"２巷","ALLEY":" ","HOUSE_NO":"７０號","E_COORD97":180944.82000000001,"N_COORD97":2539114.25,"ADDRESS":"五權街２巷７０號","OBJECTID":435811},"geometry":{"x":180944.82000000123,"y":2539114.2500000019}},{"attributes":{"ID":435837,"DIS_CODE":0,"TOWNNAME":"關廟區","LI":"香洋里","LIN":"26鄰","STREET":"南雄路","SECT":"一段","MAREA":" ","LANE":"１１３０巷","ALLEY":" ","HOUSE_NO":"７號","E_COORD97":181107.14000000001,"N_COORD97":2539848.2799999998,"ADDRESS":"南雄路一段１１３０巷７號","OBJECTID":435812},"geometry":{"x":181107.13999999966,"y":2539848.2800000031}},{"attributes":{"ID":435838,"DIS_CODE":0,"TOWNNAME":"關廟區","LI":"東勢里","LIN":"24鄰","STREET":"東安街","SECT":" ","MAREA":" ","LANE":"２４１巷","ALLEY":" ","HOUSE_NO":"１８號","E_COORD97":181651.72,"N_COORD97":2539389.3199999998,"ADDRESS":"東安街２４１巷１８號","OBJECTID":435813},"geometry":{"x":181651.72000000067,"y":2539389.3200000022}},{"attributes":{"ID":435839,"DIS_CODE":0,"TOWNNAME":"關廟區","LI":"東勢里","LIN":"24鄰","STREET":"東安街","SECT":" ","MAREA":" ","LANE":"２４１巷","ALLEY":" ","HOUSE_NO":"７號","E_COORD97":181635.07000000001,"N_COORD97":2539379.3199999998,"ADDRESS":"東安街２４１巷７號","OBJECTID":435814},"geometry":{"x":181635.0700000003,"y":2539379.3200000003}},{"attributes":{"ID":435840,"DIS_CODE":0,"TOWNNAME":"關廟區","LI":"田中里","LIN":"4鄰","STREET":"南雄南路","SECT":" ","MAREA":" ","LANE":"５１５巷","ALLEY":" ","HOUSE_NO":"２９號","E_COORD97":183986.89000000001,"N_COORD97":2533822.25,"ADDRESS":"南雄南路５１５巷２９號","OBJECTID":435815},"geometry":{"x":183986.88999999966,"y":2533822.2500000019}},{"attributes":{"ID":435841,"DIS_CODE":0,"TOWNNAME":"關廟區","LI":"山西里","LIN":"20鄰","STREET":"崇平路","SECT":" ","MAREA":" ","LANE":"８３巷","ALLEY":" ","HOUSE_NO":"２號","E_COORD97":180759.32000000001,"N_COORD97":2540360.46,"ADDRESS":"崇平路８３巷２號","OBJECTID":435816},"geometry":{"x":180759.32000000216,"y":2540360.4600000046}},{"attributes":{"ID":435842,"DIS_CODE":0,"TOWNNAME":"關廟區","LI":"山西里","LIN":"20鄰","STREET":"崇平路","SECT":" ","MAREA":" ","LANE":"８３巷","ALLEY":" ","HOUSE_NO":"１２號","E_COORD97":180755.17000000001,"N_COORD97":2540336.46,"ADDRESS":"崇平路８３巷１２號","OBJECTID":435817},"geometry":{"x":180755.17000000086,"y":2540336.459999999}},{"attributes":{"ID":435843,"DIS_CODE":0,"TOWNNAME":"關廟區","LI":"東勢里","LIN":"13鄰","STREET":"東榮街","SECT":" ","MAREA":" ","LANE":"９９巷","ALLEY":" ","HOUSE_NO":"３號","E_COORD97":182131.63910599999,"N_COORD97":2539413.5095099998,"ADDRESS":"東榮街９９巷３號","OBJECTID":435818},"geometry":{"x":182131.63910599984,"y":2539413.5095060002}},{"attributes":{"ID":435844,"DIS_CODE":0,"TOWNNAME":"關廟區","LI":"埤頭里","LIN":"4鄰","STREET":"保東路","SECT":" ","MAREA":" ","LANE":"１１５巷","ALLEY":" ","HOUSE_NO":"１２８號","E_COORD97":178740.72,"N_COORD97":2543941.2999999998,"ADDRESS":"保東路１１５巷１２８號","OBJECTID":435819},"geometry":{"x":178740.72000000067,"y":2543941.3000000007}},{"attributes":{"ID":435845,"DIS_CODE":0,"TOWNNAME":"關廟區","LI":"五甲里","LIN":"4鄰","STREET":"南雄路","SECT":"一段","MAREA":" ","LANE":"８１８巷","ALLEY":" ","HOUSE_NO":"３號","E_COORD97":181408.69,"N_COORD97":2539129.2799999998,"ADDRESS":"南雄路一段８１８巷３號","OBJECTID":435820},"geometry":{"x":181408.69000000041,"y":2539129.2800000031}},{"attributes":{"ID":435846,"DIS_CODE":0,"TOWNNAME":"關廟區","LI":"深坑里","LIN":"4鄰","STREET":"深坑三街","SECT":" ","MAREA":" ","LANE":"８３巷","ALLEY":" ","HOUSE_NO":"３號","E_COORD97":181887.47,"N_COORD97":2537630.2999999998,"ADDRESS":"深坑三街８３巷３號","OBJECTID":435821},"geometry":{"x":181887.47000000067,"y":2537630.3000000026}},{"attributes":{"ID":435847,"DIS_CODE":0,"TOWNNAME":"關廟區","LI":"南花里","LIN":"4鄰","STREET":"園東街","SECT":" ","MAREA":" ","LANE":"１巷","ALLEY":" ","HOUSE_NO":"１３號","E_COORD97":182116.66,"N_COORD97":2540039.25,"ADDRESS":"園東街１巷１３號","OBJECTID":435822},"geometry":{"x":182116.66000000108,"y":2540039.2500000019}},{"attributes":{"ID":435848,"DIS_CODE":0,"TOWNNAME":"關廟區","LI":"東勢里","LIN":"26鄰","STREET":"東安街","SECT":" ","MAREA":" ","LANE":"９５巷","ALLEY":" ","HOUSE_NO":"８號","E_COORD97":181466.82000000001,"N_COORD97":2539658.3199999998,"ADDRESS":"東安街９５巷８號","OBJECTID":435823},"geometry":{"x":181466.82000000123,"y":2539658.3200000003}},{"attributes":{"ID":435849,"DIS_CODE":0,"TOWNNAME":"關廟區","LI":"北花里","LIN":"20鄰","STREET":"中正路","SECT":" ","MAREA":" ","LANE":"１２７巷","ALLEY":" ","HOUSE_NO":"１７號","E_COORD97":183568.85999999999,"N_COORD97":2540859.6200000001,"ADDRESS":"中正路１２７巷１７號","OBJECTID":435824},"geometry":{"x":183568.86000000034,"y":2540859.620000001}},{"attributes":{"ID":435850,"DIS_CODE":0,"TOWNNAME":"關廟區","LI":"關廟里","LIN":"14鄰","STREET":"大仁街","SECT":" ","MAREA":" ","LANE":"３４６巷","ALLEY":" ","HOUSE_NO":"５號","E_COORD97":180863.97,"N_COORD97":2539696.25,"ADDRESS":"大仁街３４６巷５號","OBJECTID":435825},"geometry":{"x":180863.96999999974,"y":2539696.2499999981}},{"attributes":{"ID":435851,"DIS_CODE":0,"TOWNNAME":"關廟區","LI":"北花里","LIN":"4鄰","STREET":"中正路","SECT":" ","MAREA":" ","LANE":"６８１巷","ALLEY":" ","HOUSE_NO":"１號","E_COORD97":181991.95999999999,"N_COORD97":2540362.25,"ADDRESS":"中正路６８１巷１號","OBJECTID":435826},"geometry":{"x":181991.95999999903,"y":2540362.2500000019}},{"attributes":{"ID":435852,"DIS_CODE":0,"TOWNNAME":"關廟區","LI":"香洋里","LIN":"26鄰","STREET":"民權街","SECT":" ","MAREA":" ","LANE":"２２８巷","ALLEY":" ","HOUSE_NO":"２３號","E_COORD97":181128.04000000001,"N_COORD97":2539830.29,"ADDRESS":"民權街２２８巷２３號","OBJECTID":435827},"geometry":{"x":181128.04000000004,"y":2539830.2899999991}},{"attributes":{"ID":435853,"DIS_CODE":0,"TOWNNAME":"關廟區","LI":"香洋里","LIN":"14鄰","STREET":"仁愛路","SECT":" ","MAREA":" ","LANE":"２０巷","ALLEY":" ","HOUSE_NO":"１８號","E_COORD97":181315.29000000001,"N_COORD97":2540097.2799999998,"ADDRESS":"仁愛路２０巷１８號","OBJECTID":435828},"geometry":{"x":181315.2900000019,"y":2540097.2799999993}},{"attributes":{"ID":435854,"DIS_CODE":0,"TOWNNAME":"關廟區","LI":"香洋里","LIN":"18鄰","STREET":"中央路","SECT":" ","MAREA":" ","LANE":"２２巷","ALLEY":" ","HOUSE_NO":"２６號","E_COORD97":181615.35999999999,"N_COORD97":2540028.3199999998,"ADDRESS":"中央路２２巷２６號","OBJECTID":435829},"geometry":{"x":181615.36000000127,"y":2540028.3199999984}},{"attributes":{"ID":435855,"DIS_CODE":0,"TOWNNAME":"關廟區","LI":"香洋里","LIN":"14鄰","STREET":"仁愛路","SECT":" ","MAREA":" ","LANE":"１８巷","ALLEY":" ","HOUSE_NO":"１１號","E_COORD97":181309.59,"N_COORD97":2540090.2799999998,"ADDRESS":"仁愛路１８巷１１號","OBJECTID":435830},"geometry":{"x":181309.59000000171,"y":2540090.2800000012}},{"attributes":{"ID":435856,"DIS_CODE":0,"TOWNNAME":"關廟區","LI":"松腳里","LIN":"4鄰","STREET":"松平街","SECT":" ","MAREA":" ","LANE":"５６巷","ALLEY":" ","HOUSE_NO":"１６號","E_COORD97":182026.57000000001,"N_COORD97":2539769.25,"ADDRESS":"松平街５６巷１６號","OBJECTID":435831},"geometry":{"x":182026.5700000003,"y":2539769.2500000019}},{"attributes":{"ID":435857,"DIS_CODE":0,"TOWNNAME":"關廟區","LI":"香洋里","LIN":"25鄰","STREET":"民生街","SECT":" ","MAREA":" ","LANE":"２１８巷","ALLEY":" ","HOUSE_NO":"１７號","E_COORD97":180959.84,"N_COORD97":2539960.29,"ADDRESS":"民生街２１８巷１７號","OBJECTID":435832},"geometry":{"x":180959.83999999985,"y":2539960.290000001}},{"attributes":{"ID":435858,"DIS_CODE":0,"TOWNNAME":"關廟區","LI":"松腳里","LIN":"4鄰","STREET":"松平街","SECT":" ","MAREA":" ","LANE":"５６巷","ALLEY":" ","HOUSE_NO":"１２號","E_COORD97":182027.37,"N_COORD97":2539764.25,"ADDRESS":"松平街５６巷１２號","OBJECTID":435833},"geometry":{"x":182027.37000000104,"y":2539764.2500000037}},{"attributes":{"ID":435859,"DIS_CODE":0,"TOWNNAME":"關廟區","LI":"埤頭里","LIN":"1鄰","STREET":"保東一街","SECT":" ","MAREA":" ","LANE":"１６１巷","ALLEY":" ","HOUSE_NO":"６８號","E_COORD97":179000.01999999999,"N_COORD97":2543590.2999999998,"ADDRESS":"保東一街１６１巷６８號","OBJECTID":435834},"geometry":{"x":179000.02000000048,"y":2543590.3000000026}},{"attributes":{"ID":435860,"DIS_CODE":0,"TOWNNAME":"關廟區","LI":"香洋里","LIN":"18鄰","STREET":"中央路","SECT":" ","MAREA":" ","LANE":"２２巷","ALLEY":" ","HOUSE_NO":"２０號","E_COORD97":181615.76000000001,"N_COORD97":2540020.3199999998,"ADDRESS":"中央路２２巷２０號","OBJECTID":435835},"geometry":{"x":181615.76000000071,"y":2540020.3200000003}},{"attributes":{"ID":435861,"DIS_CODE":0,"TOWNNAME":"關廟區","LI":"深坑里","LIN":"14鄰","STREET":"深坑二街","SECT":" ","MAREA":" ","LANE":"６３巷","ALLEY":" ","HOUSE_NO":"１７號","E_COORD97":181701.42000000001,"N_COORD97":2537491.2999999998,"ADDRESS":"深坑二街６３巷１７號","OBJECTID":435836},"geometry":{"x":181701.42000000086,"y":2537491.3000000026}},{"attributes":{"ID":435862,"DIS_CODE":0,"TOWNNAME":"關廟區","LI":"新埔里","LIN":"4鄰","STREET":"新埔三街","SECT":" ","MAREA":" ","LANE":"２７巷","ALLEY":" ","HOUSE_NO":"１３號","E_COORD97":181147.72,"N_COORD97":2540910.25,"ADDRESS":"新埔三街２７巷１３號","OBJECTID":435837},"geometry":{"x":181147.72000000067,"y":2540910.2500000037}},{"attributes":{"ID":435863,"DIS_CODE":0,"TOWNNAME":"關廟區","LI":"北花里","LIN":"4鄰","STREET":"中正路","SECT":" ","MAREA":" ","LANE":"６９７巷","ALLEY":" ","HOUSE_NO":"８號","E_COORD97":181926.26000000001,"N_COORD97":2540363.25,"ADDRESS":"中正路６９７巷８號","OBJECTID":435838},"geometry":{"x":181926.25999999978,"y":2540363.25}},{"attributes":{"ID":435864,"DIS_CODE":0,"TOWNNAME":"關廟區","LI":"南花里","LIN":"4鄰","STREET":"中山路","SECT":"一段","MAREA":" ","LANE":"２００巷","ALLEY":" ","HOUSE_NO":"１９號","E_COORD97":182011.41,"N_COORD97":2539998.2799999998,"ADDRESS":"中山路一段２００巷１９號","OBJECTID":435839},"geometry":{"x":182011.41000000108,"y":2539998.2800000012}},{"attributes":{"ID":435865,"DIS_CODE":0,"TOWNNAME":"將軍區","LI":"廣山里","LIN":"5鄰","STREET":" ","SECT":" ","MAREA":"廣山","LANE":" ","ALLEY":" ","HOUSE_NO":"４８號","E_COORD97":159760.13874200001,"N_COORD97":2568836.35139,"ADDRESS":"廣山４８號","OBJECTID":435840},"geometry":{"x":159760.13874199986,"y":2568836.3513939995}},{"attributes":{"ID":435866,"DIS_CODE":0,"TOWNNAME":"關廟區","LI":"深坑里","LIN":"14鄰","STREET":"南雄路","SECT":"一段","MAREA":" ","LANE":"３７７巷","ALLEY":" ","HOUSE_NO":"１７號","E_COORD97":181726.72,"N_COORD97":2537479.2999999998,"ADDRESS":"南雄路一段３７７巷１７號","OBJECTID":435841},"geometry":{"x":181726.71999999974,"y":2537479.2999999989}},{"attributes":{"ID":435867,"DIS_CODE":0,"TOWNNAME":"關廟區","LI":"香洋里","LIN":"26鄰","STREET":"民權街","SECT":" ","MAREA":" ","LANE":"２２８巷","ALLEY":" ","HOUSE_NO":"２０號","E_COORD97":181144.54000000001,"N_COORD97":2539818.29,"ADDRESS":"民權街２２８巷２０號","OBJECTID":435842},"geometry":{"x":181144.54000000097,"y":2539818.290000001}},{"attributes":{"ID":435868,"DIS_CODE":0,"TOWNNAME":"關廟區","LI":"南花里","LIN":"4鄰","STREET":"中山路","SECT":"一段","MAREA":" ","LANE":"２００巷","ALLEY":" ","HOUSE_NO":"２３號","E_COORD97":182019.81,"N_COORD97":2539998.2799999998,"ADDRESS":"中山路一段２００巷２３號","OBJECTID":435843},"geometry":{"x":182019.81000000145,"y":2539998.2800000012}},{"attributes":{"ID":435869,"DIS_CODE":0,"TOWNNAME":"關廟區","LI":"埤頭里","LIN":"4鄰","STREET":"保東路","SECT":" ","MAREA":" ","LANE":"１１５巷","ALLEY":" ","HOUSE_NO":"１０６號","E_COORD97":178780.72,"N_COORD97":2543944.2999999998,"ADDRESS":"保東路１１５巷１０６號","OBJECTID":435844},"geometry":{"x":178780.71999999974,"y":2543944.3000000007}},{"attributes":{"ID":435870,"DIS_CODE":0,"TOWNNAME":"關廟區","LI":"香洋里","LIN":"18鄰","STREET":"中央路","SECT":" ","MAREA":" ","LANE":"２２巷","ALLEY":" ","HOUSE_NO":"２８號","E_COORD97":181616.95999999999,"N_COORD97":2540063.3199999998,"ADDRESS":"中央路２２巷２８號","OBJECTID":435845},"geometry":{"x":181616.95999999996,"y":2540063.3200000022}},{"attributes":{"ID":435871,"DIS_CODE":0,"TOWNNAME":"關廟區","LI":"香洋里","LIN":"20鄰","STREET":"中央路","SECT":" ","MAREA":" ","LANE":"５１巷","ALLEY":" ","HOUSE_NO":"２３號","E_COORD97":181553.56,"N_COORD97":2539899.3199999998,"ADDRESS":"中央路５１巷２３號","OBJECTID":435846},"geometry":{"x":181553.56000000145,"y":2539899.3200000003}},{"attributes":{"ID":435872,"DIS_CODE":0,"TOWNNAME":"關廟區","LI":"新埔里","LIN":"4鄰","STREET":"新埔三街","SECT":" ","MAREA":" ","LANE":"２７巷","ALLEY":" ","HOUSE_NO":"４１號","E_COORD97":181135.42000000001,"N_COORD97":2540837.25,"ADDRESS":"新埔三街２７巷４１號","OBJECTID":435847},"geometry":{"x":181135.41999999993,"y":2540837.2500000019}},{"attributes":{"ID":435873,"DIS_CODE":0,"TOWNNAME":"關廟區","LI":"埤頭里","LIN":"4鄰","STREET":"保東路","SECT":" ","MAREA":" ","LANE":"１１５巷","ALLEY":" ","HOUSE_NO":"２８號","E_COORD97":178746.44,"N_COORD97":2543988.23,"ADDRESS":"保東路１１５巷２８號","OBJECTID":435848},"geometry":{"x":178746.44000000227,"y":2543988.2300000004}},{"attributes":{"ID":435874,"DIS_CODE":0,"TOWNNAME":"關廟區","LI":"埤頭里","LIN":"4鄰","STREET":"保東路","SECT":" ","MAREA":" ","LANE":"１１５巷","ALLEY":" ","HOUSE_NO":"６０號","E_COORD97":178746.04000000001,"N_COORD97":2543974.23,"ADDRESS":"保東路１１５巷６０號","OBJECTID":435849},"geometry":{"x":178746.04000000097,"y":2543974.2300000004}},{"attributes":{"ID":435875,"DIS_CODE":0,"TOWNNAME":"關廟區","LI":"香洋里","LIN":"18鄰","STREET":"中央路","SECT":" ","MAREA":" ","LANE":"２２巷","ALLEY":" ","HOUSE_NO":"４８號","E_COORD97":181604.89000000001,"N_COORD97":2540099.96,"ADDRESS":"中央路２２巷４８號","OBJECTID":435850},"geometry":{"x":181604.88999999966,"y":2540099.9600000028}},{"attributes":{"ID":435876,"DIS_CODE":0,"TOWNNAME":"關廟區","LI":"埤頭里","LIN":"4鄰","STREET":"保東路","SECT":" ","MAREA":" ","LANE":"１１５巷","ALLEY":" ","HOUSE_NO":"１８號","E_COORD97":178763.23999999999,"N_COORD97":2543986.23,"ADDRESS":"保東路１１５巷１８號","OBJECTID":435851},"geometry":{"x":178763.24000000115,"y":2543986.2300000023}},{"attributes":{"ID":435877,"DIS_CODE":0,"TOWNNAME":"關廟區","LI":"北花里","LIN":"20鄰","STREET":"中正路","SECT":" ","MAREA":" ","LANE":"１１３巷","ALLEY":" ","HOUSE_NO":"８號","E_COORD97":183586.41,"N_COORD97":2540891.6200000001,"ADDRESS":"中正路１１３巷８號","OBJECTID":435852},"geometry":{"x":183586.41000000108,"y":2540891.6199999992}},{"attributes":{"ID":435878,"DIS_CODE":0,"TOWNNAME":"關廟區","LI":"北花里","LIN":"13鄰","STREET":"中正路","SECT":" ","MAREA":" ","LANE":"２６５巷","ALLEY":" ","HOUSE_NO":"１３號","E_COORD97":183283.70999999999,"N_COORD97":2540819.25,"ADDRESS":"中正路２６５巷１３號","OBJECTID":435853},"geometry":{"x":183283.71000000183,"y":2540819.2500000019}},{"attributes":{"ID":435879,"DIS_CODE":0,"TOWNNAME":"關廟區","LI":"關廟里","LIN":"4鄰","STREET":"中山路","SECT":"二段","MAREA":" ","LANE":"１７０巷","ALLEY":" ","HOUSE_NO":"２０號","E_COORD97":180789.60999999999,"N_COORD97":2540140.2799999998,"ADDRESS":"中山路二段１７０巷２０號","OBJECTID":435854},"geometry":{"x":180789.6100000022,"y":2540140.2800000012}},{"attributes":{"ID":435880,"DIS_CODE":0,"TOWNNAME":"關廟區","LI":"松腳里","LIN":"4鄰","STREET":"松平街","SECT":" ","MAREA":" ","LANE":"５６巷","ALLEY":" ","HOUSE_NO":"８號","E_COORD97":182025.72,"N_COORD97":2539755.25,"ADDRESS":"松平街５６巷８號","OBJECTID":435855},"geometry":{"x":182025.7200000016,"y":2539755.2500000019}},{"attributes":{"ID":435881,"DIS_CODE":0,"TOWNNAME":"關廟區","LI":"埤頭里","LIN":"4鄰","STREET":"保東路","SECT":" ","MAREA":" ","LANE":"１１５巷","ALLEY":" ","HOUSE_NO":"２６號","E_COORD97":178750.64000000001,"N_COORD97":2543987.23,"ADDRESS":"保東路１１５巷２６號","OBJECTID":435856},"geometry":{"x":178750.63999999966,"y":2543987.2300000023}},{"attributes":{"ID":435882,"DIS_CODE":0,"TOWNNAME":"關廟區","LI":"東勢里","LIN":"26鄰","STREET":"東安街","SECT":" ","MAREA":" ","LANE":"９５巷","ALLEY":" ","HOUSE_NO":"１０號","E_COORD97":181473.07000000001,"N_COORD97":2539657.3199999998,"ADDRESS":"東安街９５巷１０號","OBJECTID":435857},"geometry":{"x":181473.07000000123,"y":2539657.3200000003}},{"attributes":{"ID":435883,"DIS_CODE":0,"TOWNNAME":"關廟區","LI":"北花里","LIN":"13鄰","STREET":"中正路","SECT":" ","MAREA":" ","LANE":"２４５巷","ALLEY":" ","HOUSE_NO":"２１號","E_COORD97":183330.51000000001,"N_COORD97":2540837.25,"ADDRESS":"中正路２４５巷２１號","OBJECTID":435858},"geometry":{"x":183330.50999999978,"y":2540837.2500000019}},{"attributes":{"ID":435884,"DIS_CODE":0,"TOWNNAME":"關廟區","LI":"埤頭里","LIN":"4鄰","STREET":"保東路","SECT":" ","MAREA":" ","LANE":"１１５巷","ALLEY":" ","HOUSE_NO":"７８號","E_COORD97":178773.01999999999,"N_COORD97":2543956.2999999998,"ADDRESS":"保東路１１５巷７８號","OBJECTID":435859},"geometry":{"x":178773.01999999955,"y":2543956.3000000026}},{"attributes":{"ID":435885,"DIS_CODE":0,"TOWNNAME":"關廟區","LI":"松腳里","LIN":"18鄰","STREET":"松平街","SECT":" ","MAREA":" ","LANE":"５６巷","ALLEY":" ","HOUSE_NO":"７０號","E_COORD97":182020.07000000001,"N_COORD97":2539865.25,"ADDRESS":"松平街５６巷７０號","OBJECTID":435860},"geometry":{"x":182020.0700000003,"y":2539865.25}},{"attributes":{"ID":435886,"DIS_CODE":0,"TOWNNAME":"關廟區","LI":"埤頭里","LIN":"4鄰","STREET":"保東路","SECT":" ","MAREA":" ","LANE":"１１５巷","ALLEY":" ","HOUSE_NO":"２號","E_COORD97":178789.34,"N_COORD97":2543987.23,"ADDRESS":"保東路１１５巷２號","OBJECTID":435861},"geometry":{"x":178789.34000000078,"y":2543987.2300000023}},{"attributes":{"ID":435887,"DIS_CODE":0,"TOWNNAME":"關廟區","LI":"埤頭里","LIN":"4鄰","STREET":"保東路","SECT":" ","MAREA":" ","LANE":"１１５巷","ALLEY":" ","HOUSE_NO":"６２號","E_COORD97":178740.64000000001,"N_COORD97":2543975.23,"ADDRESS":"保東路１１５巷６２號","OBJECTID":435862},"geometry":{"x":178740.63999999966,"y":2543975.2300000004}},{"attributes":{"ID":435888,"DIS_CODE":0,"TOWNNAME":"關廟區","LI":"埤頭里","LIN":"4鄰","STREET":"保東路","SECT":" ","MAREA":" ","LANE":"１１５巷","ALLEY":" ","HOUSE_NO":"３０號","E_COORD97":178742.54000000001,"N_COORD97":2543988.23,"ADDRESS":"保東路１１５巷３０號","OBJECTID":435863},"geometry":{"x":178742.54000000097,"y":2543988.2300000004}},{"attributes":{"ID":435889,"DIS_CODE":0,"TOWNNAME":"關廟區","LI":"松腳里","LIN":"18鄰","STREET":"松平街","SECT":" ","MAREA":" ","LANE":"５６巷","ALLEY":" ","HOUSE_NO":"６１號","E_COORD97":182002.76999999999,"N_COORD97":2539854.25,"ADDRESS":"松平街５６巷６１號","OBJECTID":435864},"geometry":{"x":182002.76999999955,"y":2539854.25}},{"attributes":{"ID":435890,"DIS_CODE":0,"TOWNNAME":"關廟區","LI":"香洋里","LIN":"20鄰","STREET":"中央路","SECT":" ","MAREA":" ","LANE":"５１巷","ALLEY":" ","HOUSE_NO":"２號","E_COORD97":181516.20999999999,"N_COORD97":2539954.3199999998,"ADDRESS":"中央路５１巷２號","OBJECTID":435865},"geometry":{"x":181516.21000000089,"y":2539954.3200000022}},{"attributes":{"ID":435891,"DIS_CODE":0,"TOWNNAME":"關廟區","LI":"松腳里","LIN":"4鄰","STREET":"松平街","SECT":" ","MAREA":" ","LANE":"５６巷","ALLEY":" ","HOUSE_NO":"３３號","E_COORD97":182011.67000000001,"N_COORD97":2539800.25,"ADDRESS":"松平街５６巷３３號","OBJECTID":435866},"geometry":{"x":182011.67000000086,"y":2539800.25}},{"attributes":{"ID":435892,"DIS_CODE":0,"TOWNNAME":"關廟區","LI":"南花里","LIN":"4鄰","STREET":"中山路","SECT":"一段","MAREA":" ","LANE":"２００巷","ALLEY":" ","HOUSE_NO":"２５號","E_COORD97":182024.51000000001,"N_COORD97":2539998.2799999998,"ADDRESS":"中山路一段２００巷２５號","OBJECTID":435867},"geometry":{"x":182024.51000000071,"y":2539998.2800000012}},{"attributes":{"ID":435893,"DIS_CODE":0,"TOWNNAME":"關廟區","LI":"埤頭里","LIN":"4鄰","STREET":"保東路","SECT":" ","MAREA":" ","LANE":"１１５巷","ALLEY":" ","HOUSE_NO":"６號","E_COORD97":178784.73999999999,"N_COORD97":2543986.23,"ADDRESS":"保東路１１５巷６號","OBJECTID":435868},"geometry":{"x":178784.74000000209,"y":2543986.2300000023}},{"attributes":{"ID":435894,"DIS_CODE":0,"TOWNNAME":"關廟區","LI":"埤頭里","LIN":"4鄰","STREET":"保東路","SECT":" ","MAREA":" ","LANE":"１１５巷","ALLEY":" ","HOUSE_NO":"６８號","E_COORD97":178791.01999999999,"N_COORD97":2543955.2999999998,"ADDRESS":"保東路１１５巷６８號","OBJECTID":435869},"geometry":{"x":178791.02000000048,"y":2543955.3000000045}},{"attributes":{"ID":435895,"DIS_CODE":0,"TOWNNAME":"關廟區","LI":"香洋里","LIN":"20鄰","STREET":"中央路","SECT":" ","MAREA":" ","LANE":"５１巷","ALLEY":" ","HOUSE_NO":"１號","E_COORD97":181543.91,"N_COORD97":2539937.3199999998,"ADDRESS":"中央路５１巷１號","OBJECTID":435870},"geometry":{"x":181543.91000000108,"y":2539937.3200000022}},{"attributes":{"ID":435896,"DIS_CODE":0,"TOWNNAME":"關廟區","LI":"埤頭里","LIN":"4鄰","STREET":"保東路","SECT":" ","MAREA":" ","LANE":"１１５巷","ALLEY":" ","HOUSE_NO":"８６號","E_COORD97":178761.12,"N_COORD97":2543956.2999999998,"ADDRESS":"保東路１１５巷８６號","OBJECTID":435871},"geometry":{"x":178761.12000000011,"y":2543956.3000000026}},{"attributes":{"ID":435897,"DIS_CODE":0,"TOWNNAME":"關廟區","LI":"南花里","LIN":"4鄰","STREET":"中山路","SECT":"一段","MAREA":" ","LANE":"２００巷","ALLEY":" ","HOUSE_NO":"２７號","E_COORD97":182028.70999999999,"N_COORD97":2539998.2799999998,"ADDRESS":"中山路一段２００巷２７號","OBJECTID":435872},"geometry":{"x":182028.70999999996,"y":2539998.2800000012}},{"attributes":{"ID":435898,"DIS_CODE":0,"TOWNNAME":"關廟區","LI":"關廟里","LIN":"4鄰","STREET":"文衡路","SECT":" ","MAREA":" ","LANE":"２３巷","ALLEY":" ","HOUSE_NO":"６號","E_COORD97":180858.79000000001,"N_COORD97":2540134.3300000001,"ADDRESS":"文衡路２３巷６號","OBJECTID":435873},"geometry":{"x":180858.79000000004,"y":2540134.3300000019}},{"attributes":{"ID":435899,"DIS_CODE":0,"TOWNNAME":"鹽水區","LI":"水正里","LIN":"17鄰","STREET":"西門路","SECT":" ","MAREA":" ","LANE":"１２巷","ALLEY":" ","HOUSE_NO":"４號","E_COORD97":175028.75,"N_COORD97":2579710.4100000001,"ADDRESS":"西門路１２巷４號","OBJECTID":435874},"geometry":{"x":175028.75000000093,"y":2579710.410000002}},{"attributes":{"ID":435900,"DIS_CODE":0,"TOWNNAME":"關廟區","LI":"埤頭里","LIN":"4鄰","STREET":"保東路","SECT":" ","MAREA":" ","LANE":"１１５巷","ALLEY":" ","HOUSE_NO":"１０２號","E_COORD97":178785.72,"N_COORD97":2543944.2999999998,"ADDRESS":"保東路１１５巷１０２號","OBJECTID":435875},"geometry":{"x":178785.71999999974,"y":2543944.3000000007}},{"attributes":{"ID":435901,"DIS_CODE":0,"TOWNNAME":"關廟區","LI":"龜洞里","LIN":"8鄰","STREET":"官崙街","SECT":" ","MAREA":" ","LANE":"５６巷","ALLEY":" ","HOUSE_NO":"３０號","E_COORD97":183413.69,"N_COORD97":2533364.2999999998,"ADDRESS":"官崙街５６巷３０號","OBJECTID":435876},"geometry":{"x":183413.69000000134,"y":2533364.3000000026}},{"attributes":{"ID":435902,"DIS_CODE":0,"TOWNNAME":"關廟區","LI":"埤頭里","LIN":"4鄰","STREET":"保東路","SECT":" ","MAREA":" ","LANE":"８５巷","ALLEY":" ","HOUSE_NO":"３５號","E_COORD97":178956.57000000001,"N_COORD97":2543950.25,"ADDRESS":"保東路８５巷３５號","OBJECTID":435877},"geometry":{"x":178956.5700000003,"y":2543950.25}},{"attributes":{"ID":435903,"DIS_CODE":0,"TOWNNAME":"關廟區","LI":"關廟里","LIN":"4鄰","STREET":"文衡路","SECT":" ","MAREA":" ","LANE":"２３巷","ALLEY":" ","HOUSE_NO":"１０號","E_COORD97":180848.54000000001,"N_COORD97":2540135.3300000001,"ADDRESS":"文衡路２３巷１０號","OBJECTID":435878},"geometry":{"x":180848.54000000004,"y":2540135.3300000001}},{"attributes":{"ID":435904,"DIS_CODE":0,"TOWNNAME":"關廟區","LI":"埤頭里","LIN":"4鄰","STREET":"保東路","SECT":" ","MAREA":" ","LANE":"１１５巷","ALLEY":" ","HOUSE_NO":"８２號","E_COORD97":178764.92000000001,"N_COORD97":2543956.2999999998,"ADDRESS":"保東路１１５巷８２號","OBJECTID":435879},"geometry":{"x":178764.92000000086,"y":2543956.3000000026}},{"attributes":{"ID":435905,"DIS_CODE":0,"TOWNNAME":"關廟區","LI":"埤頭里","LIN":"4鄰","STREET":"保東路","SECT":" ","MAREA":" ","LANE":"１１５巷","ALLEY":" ","HOUSE_NO":"５６號","E_COORD97":178754.84,"N_COORD97":2543975.23,"ADDRESS":"保東路１１５巷５６號","OBJECTID":435880},"geometry":{"x":178754.83999999892,"y":2543975.2300000004}},{"attributes":{"ID":435906,"DIS_CODE":0,"TOWNNAME":"關廟區","LI":"南花里","LIN":"4鄰","STREET":"中山路","SECT":"一段","MAREA":" ","LANE":"２００巷","ALLEY":" ","HOUSE_NO":"１７號","E_COORD97":182007.20999999999,"N_COORD97":2539998.2799999998,"ADDRESS":"中山路一段２００巷１７號","OBJECTID":435881},"geometry":{"x":182007.20999999903,"y":2539998.2800000012}},{"attributes":{"ID":435907,"DIS_CODE":0,"TOWNNAME":"關廟區","LI":"香洋里","LIN":"14鄰","STREET":"中正路","SECT":" ","MAREA":" ","LANE":"９０７巷","ALLEY":" ","HOUSE_NO":"１６號","E_COORD97":181346.41,"N_COORD97":2540162.25,"ADDRESS":"中正路９０７巷１６號","OBJECTID":435882},"geometry":{"x":181346.41000000015,"y":2540162.2500000019}},{"attributes":{"ID":435908,"DIS_CODE":0,"TOWNNAME":"關廟區","LI":"埤頭里","LIN":"4鄰","STREET":"保東路","SECT":" ","MAREA":" ","LANE":"１１５巷","ALLEY":" ","HOUSE_NO":"１１８號","E_COORD97":178760.32000000001,"N_COORD97":2543944.2999999998,"ADDRESS":"保東路１１５巷１１８號","OBJECTID":435883},"geometry":{"x":178760.3200000003,"y":2543944.3000000007}},{"attributes":{"ID":435909,"DIS_CODE":0,"TOWNNAME":"關廟區","LI":"埤頭里","LIN":"4鄰","STREET":"保東路","SECT":" ","MAREA":" ","LANE":"１１５巷","ALLEY":" ","HOUSE_NO":"１６號","E_COORD97":178767.54000000001,"N_COORD97":2543986.23,"ADDRESS":"保東路１１５巷１６號","OBJECTID":435884},"geometry":{"x":178767.54000000097,"y":2543986.2300000023}},{"attributes":{"ID":435910,"DIS_CODE":0,"TOWNNAME":"關廟區","LI":"香洋里","LIN":"20鄰","STREET":"中央路","SECT":" ","MAREA":" ","LANE":"７３巷","ALLEY":" ","HOUSE_NO":"１號","E_COORD97":181476.31,"N_COORD97":2539959.3199999998,"ADDRESS":"中央路７３巷１號","OBJECTID":435885},"geometry":{"x":181476.31000000052,"y":2539959.3200000003}},{"attributes":{"ID":435911,"DIS_CODE":0,"TOWNNAME":"關廟區","LI":"南花里","LIN":"8鄰","STREET":"四維街","SECT":" ","MAREA":" ","LANE":"２３１巷","ALLEY":" ","HOUSE_NO":"１０號","E_COORD97":181830.41,"N_COORD97":2540225.25,"ADDRESS":"四維街２３１巷１０號","OBJECTID":435886},"geometry":{"x":181830.41000000108,"y":2540225.2500000037}},{"attributes":{"ID":435912,"DIS_CODE":0,"TOWNNAME":"關廟區","LI":"埤頭里","LIN":"4鄰","STREET":"保東路","SECT":" ","MAREA":" ","LANE":"１１５巷","ALLEY":" ","HOUSE_NO":"５０號","E_COORD97":178763.23999999999,"N_COORD97":2543975.23,"ADDRESS":"保東路１１５巷５０號","OBJECTID":435887},"geometry":{"x":178763.24000000115,"y":2543975.2300000004}},{"attributes":{"ID":435913,"DIS_CODE":0,"TOWNNAME":"關廟區","LI":"埤頭里","LIN":"4鄰","STREET":"保東路","SECT":" ","MAREA":" ","LANE":"８５巷","ALLEY":" ","HOUSE_NO":"３２號","E_COORD97":178934.22,"N_COORD97":2543981.29,"ADDRESS":"保東路８５巷３２號","OBJECTID":435888},"geometry":{"x":178934.22000000067,"y":2543981.290000001}},{"attributes":{"ID":435914,"DIS_CODE":0,"TOWNNAME":"關廟區","LI":"埤頭里","LIN":"4鄰","STREET":"保東路","SECT":" ","MAREA":" ","LANE":"１１５巷","ALLEY":" ","HOUSE_NO":"７０號","E_COORD97":178786.01999999999,"N_COORD97":2543955.2999999998,"ADDRESS":"保東路１１５巷７０號","OBJECTID":435889},"geometry":{"x":178786.02000000048,"y":2543955.3000000045}},{"attributes":{"ID":435915,"DIS_CODE":0,"TOWNNAME":"關廟區","LI":"香洋里","LIN":"18鄰","STREET":"中央路","SECT":" ","MAREA":" ","LANE":"２２巷","ALLEY":" ","HOUSE_NO":"４６號","E_COORD97":181604.19,"N_COORD97":2540093.96,"ADDRESS":"中央路２２巷４６號","OBJECTID":435890},"geometry":{"x":181604.19000000041,"y":2540093.9600000028}},{"attributes":{"ID":435916,"DIS_CODE":0,"TOWNNAME":"關廟區","LI":"新光里","LIN":"13鄰","STREET":"南寮街","SECT":" ","MAREA":" ","LANE":"２９巷","ALLEY":" ","HOUSE_NO":"６號","E_COORD97":184343.62,"N_COORD97":2541591.25,"ADDRESS":"南寮街２９巷６號","OBJECTID":435891},"geometry":{"x":184343.62000000011,"y":2541591.25}},{"attributes":{"ID":435917,"DIS_CODE":0,"TOWNNAME":"關廟區","LI":"深坑里","LIN":"14鄰","STREET":"南雄路","SECT":"一段","MAREA":" ","LANE":"３５９巷","ALLEY":" ","HOUSE_NO":"１６號","E_COORD97":181757.47,"N_COORD97":2537463.2799999998,"ADDRESS":"南雄路一段３５９巷１６號","OBJECTID":435892},"geometry":{"x":181757.46999999974,"y":2537463.2799999993}},{"attributes":{"ID":435918,"DIS_CODE":0,"TOWNNAME":"關廟區","LI":"龜洞里","LIN":"7鄰","STREET":"南雄南路","SECT":" ","MAREA":" ","LANE":"７０１巷","ALLEY":" ","HOUSE_NO":"２２號","E_COORD97":183378.79000000001,"N_COORD97":2533386.2999999998,"ADDRESS":"南雄南路７０１巷２２號","OBJECTID":435893},"geometry":{"x":183378.79000000097,"y":2533386.3000000007}},{"attributes":{"ID":435919,"DIS_CODE":0,"TOWNNAME":"關廟區","LI":"埤頭里","LIN":"4鄰","STREET":"保東路","SECT":" ","MAREA":" ","LANE":"１１５巷","ALLEY":" ","HOUSE_NO":"３８號","E_COORD97":178784.73999999999,"N_COORD97":2543976.23,"ADDRESS":"保東路１１５巷３８號","OBJECTID":435894},"geometry":{"x":178784.74000000209,"y":2543976.2300000023}},{"attributes":{"ID":435920,"DIS_CODE":0,"TOWNNAME":"關廟區","LI":"埤頭里","LIN":"4鄰","STREET":"保東路","SECT":" ","MAREA":" ","LANE":"１１５巷","ALLEY":" ","HOUSE_NO":"４８號","E_COORD97":178767.14000000001,"N_COORD97":2543976.23,"ADDRESS":"保東路１１５巷４８號","OBJECTID":435895},"geometry":{"x":178767.13999999966,"y":2543976.2300000023}},{"attributes":{"ID":435921,"DIS_CODE":0,"TOWNNAME":"關廟區","LI":"埤頭里","LIN":"4鄰","STREET":"保東路","SECT":" ","MAREA":" ","LANE":"１１５巷","ALLEY":" ","HOUSE_NO":"３６號","E_COORD97":178789.34,"N_COORD97":2543975.23,"ADDRESS":"保東路１１５巷３６號","OBJECTID":435896},"geometry":{"x":178789.34000000078,"y":2543975.2300000004}},{"attributes":{"ID":435922,"DIS_CODE":0,"TOWNNAME":"關廟區","LI":"埤頭里","LIN":"4鄰","STREET":"保東路","SECT":" ","MAREA":" ","LANE":"１１５巷","ALLEY":" ","HOUSE_NO":"２２號","E_COORD97":178754.84,"N_COORD97":2543986.23,"ADDRESS":"保東路１１５巷２２號","OBJECTID":435897},"geometry":{"x":178754.83999999892,"y":2543986.2300000023}},{"attributes":{"ID":435923,"DIS_CODE":0,"TOWNNAME":"關廟區","LI":"埤頭里","LIN":"4鄰","STREET":"保東路","SECT":" ","MAREA":" ","LANE":"１１５巷","ALLEY":" ","HOUSE_NO":"１２６號","E_COORD97":178747.32000000001,"N_COORD97":2543942.2999999998,"ADDRESS":"保東路１１５巷１２６號","OBJECTID":435898},"geometry":{"x":178747.32000000123,"y":2543942.3000000026}},{"attributes":{"ID":435924,"DIS_CODE":0,"TOWNNAME":"關廟區","LI":"香洋里","LIN":"20鄰","STREET":"中央路","SECT":" ","MAREA":" ","LANE":"５１巷","ALLEY":" ","HOUSE_NO":"８號","E_COORD97":181525.41,"N_COORD97":2539944.3199999998,"ADDRESS":"中央路５１巷８號","OBJECTID":435899},"geometry":{"x":181525.41000000108,"y":2539944.3200000022}},{"attributes":{"ID":435925,"DIS_CODE":0,"TOWNNAME":"關廟區","LI":"香洋里","LIN":"14鄰","STREET":"仁愛路","SECT":" ","MAREA":" ","LANE":"１８巷","ALLEY":" ","HOUSE_NO":"３號","E_COORD97":181292.23999999999,"N_COORD97":2540096.2799999998,"ADDRESS":"仁愛路１８巷３號","OBJECTID":435900},"geometry":{"x":181292.24000000115,"y":2540096.2800000012}},{"attributes":{"ID":435926,"DIS_CODE":0,"TOWNNAME":"關廟區","LI":"北花里","LIN":"20鄰","STREET":"中正路","SECT":" ","MAREA":" ","LANE":"１１３巷","ALLEY":" ","HOUSE_NO":"５０號","E_COORD97":183595.35999999999,"N_COORD97":2540791.6200000001,"ADDRESS":"中正路１１３巷５０號","OBJECTID":435901},"geometry":{"x":183595.36000000127,"y":2540791.6200000029}},{"attributes":{"ID":435927,"DIS_CODE":0,"TOWNNAME":"關廟區","LI":"香洋里","LIN":"26鄰","STREET":"南雄路","SECT":"一段","MAREA":" ","LANE":"１１３０巷","ALLEY":" ","HOUSE_NO":"５號","E_COORD97":181102.84,"N_COORD97":2539849.2799999998,"ADDRESS":"南雄路一段１１３０巷５號","OBJECTID":435902},"geometry":{"x":181102.84000000171,"y":2539849.2800000012}},{"attributes":{"ID":435928,"DIS_CODE":0,"TOWNNAME":"關廟區","LI":"北花里","LIN":"20鄰","STREET":"中正路","SECT":" ","MAREA":" ","LANE":"１１３巷","ALLEY":" ","HOUSE_NO":"４０號","E_COORD97":183593.45999999999,"N_COORD97":2540815.6200000001,"ADDRESS":"中正路１１３巷４０號","OBJECTID":435903},"geometry":{"x":183593.45999999996,"y":2540815.620000001}},{"attributes":{"ID":435929,"DIS_CODE":0,"TOWNNAME":"關廟區","LI":"香洋里","LIN":"25鄰","STREET":"民生街","SECT":" ","MAREA":" ","LANE":"２１８巷","ALLEY":" ","HOUSE_NO":"１１號","E_COORD97":180946.84,"N_COORD97":2539963.29,"ADDRESS":"民生街２１８巷１１號","OBJECTID":435904},"geometry":{"x":180946.84000000171,"y":2539963.2900000028}},{"attributes":{"ID":435930,"DIS_CODE":0,"TOWNNAME":"關廟區","LI":"南花里","LIN":"4鄰","STREET":"園東街","SECT":" ","MAREA":" ","LANE":"５１巷","ALLEY":" ","HOUSE_NO":"８號","E_COORD97":182036.35999999999,"N_COORD97":2540038.25,"ADDRESS":"園東街５１巷８號","OBJECTID":435905},"geometry":{"x":182036.36000000034,"y":2540038.25}},{"attributes":{"ID":435931,"DIS_CODE":0,"TOWNNAME":"關廟區","LI":"香洋里","LIN":"26鄰","STREET":"民權街","SECT":" ","MAREA":" ","LANE":"２２８巷","ALLEY":" ","HOUSE_NO":"１３號","E_COORD97":181134.54000000001,"N_COORD97":2539812.29,"ADDRESS":"民權街２２８巷１３號","OBJECTID":435906},"geometry":{"x":181134.54000000097,"y":2539812.2899999991}},{"attributes":{"ID":435932,"DIS_CODE":0,"TOWNNAME":"關廟區","LI":"深坑里","LIN":"14鄰","STREET":"南雄路","SECT":"一段","MAREA":" ","LANE":"３７７巷","ALLEY":" ","HOUSE_NO":"１９號","E_COORD97":181723.62,"N_COORD97":2537483.2999999998,"ADDRESS":"南雄路一段３７７巷１９號","OBJECTID":435907},"geometry":{"x":181723.62000000104,"y":2537483.3000000026}},{"attributes":{"ID":435933,"DIS_CODE":0,"TOWNNAME":"麻豆區","LI":"大埕里","LIN":"8鄰","STREET":" ","SECT":" ","MAREA":"大埕","LANE":" ","ALLEY":" ","HOUSE_NO":"１５號之１２","E_COORD97":173176.28868,"N_COORD97":2565318.3930100002,"ADDRESS":"大埕１５號之１２","OBJECTID":435908},"geometry":{"x":173176.28868000116,"y":2565318.3930100016}},{"attributes":{"ID":435934,"DIS_CODE":0,"TOWNNAME":"關廟區","LI":"北花里","LIN":"20鄰","STREET":"中正路","SECT":" ","MAREA":" ","LANE":"１１３巷","ALLEY":" ","HOUSE_NO":"１７號","E_COORD97":183601.16,"N_COORD97":2540862.6099999999,"ADDRESS":"中正路１１３巷１７號","OBJECTID":435909},"geometry":{"x":183601.16000000015,"y":2540862.6099999994}},{"attributes":{"ID":435935,"DIS_CODE":0,"TOWNNAME":"關廟區","LI":"南花里","LIN":"5鄰","STREET":"旺萊路","SECT":" ","MAREA":" ","LANE":"５６２巷","ALLEY":" ","HOUSE_NO":"７０號","E_COORD97":182230.89000000001,"N_COORD97":2540026.25,"ADDRESS":"旺萊路５６２巷７０號","OBJECTID":435910},"geometry":{"x":182230.88999999966,"y":2540026.2500000019}},{"attributes":{"ID":435936,"DIS_CODE":0,"TOWNNAME":"關廟區","LI":"北花里","LIN":"20鄰","STREET":"中正路","SECT":" ","MAREA":" ","LANE":"１１３巷","ALLEY":" ","HOUSE_NO":"３５號","E_COORD97":183609.16,"N_COORD97":2540823.6200000001,"ADDRESS":"中正路１１３巷３５號","OBJECTID":435911},"geometry":{"x":183609.16000000015,"y":2540823.620000001}},{"attributes":{"ID":435937,"DIS_CODE":0,"TOWNNAME":"關廟區","LI":"北花里","LIN":"13鄰","STREET":"中正路","SECT":" ","MAREA":" ","LANE":"２２１巷","ALLEY":" ","HOUSE_NO":"３０號","E_COORD97":183362.73000000001,"N_COORD97":2540738.73,"ADDRESS":"中正路２２１巷３０號","OBJECTID":435912},"geometry":{"x":183362.73000000138,"y":2540738.7300000023}},{"attributes":{"ID":435938,"DIS_CODE":0,"TOWNNAME":"關廟區","LI":"關廟里","LIN":"14鄰","STREET":"大仁街","SECT":" ","MAREA":" ","LANE":"３４６巷","ALLEY":" ","HOUSE_NO":"３２號","E_COORD97":180839.01999999999,"N_COORD97":2539630.25,"ADDRESS":"大仁街３４６巷３２號","OBJECTID":435913},"geometry":{"x":180839.02000000048,"y":2539630.2500000019}},{"attributes":{"ID":435939,"DIS_CODE":0,"TOWNNAME":"關廟區","LI":"南花里","LIN":"4鄰","STREET":"園東街","SECT":" ","MAREA":" ","LANE":"５１巷","ALLEY":" ","HOUSE_NO":"２０號","E_COORD97":182032.31,"N_COORD97":2540018.25,"ADDRESS":"園東街５１巷２０號","OBJECTID":435914},"geometry":{"x":182032.31000000052,"y":2540018.2499999981}},{"attributes":{"ID":435940,"DIS_CODE":0,"TOWNNAME":"關廟區","LI":"南花里","LIN":"4鄰","STREET":"花園一街","SECT":" ","MAREA":" ","LANE":"７１巷","ALLEY":" ","HOUSE_NO":"１９號","E_COORD97":181976.79000000001,"N_COORD97":2540116.25,"ADDRESS":"花園一街７１巷１９號","OBJECTID":435915},"geometry":{"x":181976.79000000097,"y":2540116.25}},{"attributes":{"ID":435941,"DIS_CODE":0,"TOWNNAME":"關廟區","LI":"松腳里","LIN":"18鄰","STREET":"中山路","SECT":"一段","MAREA":" ","LANE":"８９巷","ALLEY":" ","HOUSE_NO":"２７號","E_COORD97":181933.76000000001,"N_COORD97":2539872.2799999998,"ADDRESS":"中山路一段８９巷２７號","OBJECTID":435916},"geometry":{"x":181933.75999999885,"y":2539872.2800000012}},{"attributes":{"ID":435942,"DIS_CODE":0,"TOWNNAME":"關廟區","LI":"關廟里","LIN":"14鄰","STREET":"大仁街","SECT":" ","MAREA":" ","LANE":"３４６巷","ALLEY":" ","HOUSE_NO":"１號","E_COORD97":180864.26999999999,"N_COORD97":2539705.25,"ADDRESS":"大仁街３４６巷１號","OBJECTID":435917},"geometry":{"x":180864.27000000048,"y":2539705.25}},{"attributes":{"ID":435943,"DIS_CODE":0,"TOWNNAME":"關廟區","LI":"新埔里","LIN":"4鄰","STREET":"新埔三街","SECT":" ","MAREA":" ","LANE":"２７巷","ALLEY":" ","HOUSE_NO":"３７號","E_COORD97":181151.51999999999,"N_COORD97":2540876.25,"ADDRESS":"新埔三街２７巷３７號","OBJECTID":435918},"geometry":{"x":181151.51999999955,"y":2540876.2500000037}},{"attributes":{"ID":435944,"DIS_CODE":0,"TOWNNAME":"關廟區","LI":"新埔里","LIN":"8鄰","STREET":"新埔三街","SECT":" ","MAREA":" ","LANE":"１１９巷","ALLEY":" ","HOUSE_NO":"９號","E_COORD97":181203.72,"N_COORD97":2541142.25,"ADDRESS":"新埔三街１１９巷９號","OBJECTID":435919},"geometry":{"x":181203.72000000067,"y":2541142.2500000019}},{"attributes":{"ID":435945,"DIS_CODE":0,"TOWNNAME":"關廟區","LI":"北花里","LIN":"20鄰","STREET":"中正路","SECT":" ","MAREA":" ","LANE":"１１３巷","ALLEY":" ","HOUSE_NO":"２０號","E_COORD97":183589.66,"N_COORD97":2540870.6200000001,"ADDRESS":"中正路１１３巷２０號","OBJECTID":435920},"geometry":{"x":183589.66000000108,"y":2540870.620000001}},{"attributes":{"ID":435946,"DIS_CODE":0,"TOWNNAME":"關廟區","LI":"南花里","LIN":"13鄰","STREET":"花園一街","SECT":" ","MAREA":" ","LANE":"１８０巷","ALLEY":" ","HOUSE_NO":"３號","E_COORD97":181676.19,"N_COORD97":2540184.25,"ADDRESS":"花園一街１８０巷３號","OBJECTID":435921},"geometry":{"x":181676.19000000134,"y":2540184.25}},{"attributes":{"ID":435947,"DIS_CODE":0,"TOWNNAME":"關廟區","LI":"南花里","LIN":"4鄰","STREET":"園東街","SECT":" ","MAREA":" ","LANE":"５１巷","ALLEY":" ","HOUSE_NO":"２號","E_COORD97":182038.35999999999,"N_COORD97":2540047.25,"ADDRESS":"園東街５１巷２號","OBJECTID":435922},"geometry":{"x":182038.36000000034,"y":2540047.2500000019}},{"attributes":{"ID":435948,"DIS_CODE":0,"TOWNNAME":"關廟區","LI":"東勢里","LIN":"26鄰","STREET":"東安街","SECT":" ","MAREA":" ","LANE":"１０９巷","ALLEY":" ","HOUSE_NO":"１號","E_COORD97":181457.37,"N_COORD97":2539637.3199999998,"ADDRESS":"東安街１０９巷１號","OBJECTID":435923},"geometry":{"x":181457.37000000104,"y":2539637.3200000003}},{"attributes":{"ID":435949,"DIS_CODE":0,"TOWNNAME":"關廟區","LI":"深坑里","LIN":"4鄰","STREET":"深坑三街","SECT":" ","MAREA":" ","LANE":"８３巷","ALLEY":" ","HOUSE_NO":"２５號","E_COORD97":181924.87,"N_COORD97":2537592.2799999998,"ADDRESS":"深坑三街８３巷２５號","OBJECTID":435924},"geometry":{"x":181924.86999999918,"y":2537592.2799999993}},{"attributes":{"ID":435950,"DIS_CODE":0,"TOWNNAME":"關廟區","LI":"五甲里","LIN":"4鄰","STREET":"南雄路","SECT":"一段","MAREA":" ","LANE":"８１８巷","ALLEY":" ","HOUSE_NO":"８號","E_COORD97":181419.48999999999,"N_COORD97":2539132.2799999998,"ADDRESS":"南雄路一段８１８巷８號","OBJECTID":435925},"geometry":{"x":181419.49000000115,"y":2539132.2799999993}},{"attributes":{"ID":435951,"DIS_CODE":0,"TOWNNAME":"關廟區","LI":"香洋里","LIN":"26鄰","STREET":"民權街","SECT":" ","MAREA":" ","LANE":"２２８巷","ALLEY":" ","HOUSE_NO":"１５號","E_COORD97":181133.04000000001,"N_COORD97":2539815.29,"ADDRESS":"民權街２２８巷１５號","OBJECTID":435926},"geometry":{"x":181133.04000000004,"y":2539815.290000001}},{"attributes":{"ID":435952,"DIS_CODE":0,"TOWNNAME":"關廟區","LI":"松腳里","LIN":"13鄰","STREET":"東興路","SECT":" ","MAREA":" ","LANE":"２０５巷","ALLEY":" ","HOUSE_NO":"６號","E_COORD97":181718.76999999999,"N_COORD97":2539576.25,"ADDRESS":"東興路２０５巷６號","OBJECTID":435927},"geometry":{"x":181718.77000000048,"y":2539576.25}},{"attributes":{"ID":435953,"DIS_CODE":0,"TOWNNAME":"新化區","LI":"太平里","LIN":"13鄰","STREET":"太平街","SECT":" ","MAREA":" ","LANE":"２２巷","ALLEY":" ","HOUSE_NO":"１０號之６","E_COORD97":178875.67000000001,"N_COORD97":2548866.2599999998,"ADDRESS":"太平街２２巷１０號之６","OBJECTID":435928},"geometry":{"x":178875.66999999993,"y":2548866.2599999998}},{"attributes":{"ID":435954,"DIS_CODE":0,"TOWNNAME":"新化區","LI":"觀音里","LIN":"4鄰","STREET":"仁愛街","SECT":" ","MAREA":" ","LANE":"６５巷","ALLEY":" ","HOUSE_NO":"２９號","E_COORD97":178972.03,"N_COORD97":2548516.25,"ADDRESS":"仁愛街６５巷２９號","OBJECTID":435929},"geometry":{"x":178972.03000000026,"y":2548516.2500000019}},{"attributes":{"ID":435955,"DIS_CODE":0,"TOWNNAME":"新化區","LI":"武安里","LIN":"4鄰","STREET":"中正路","SECT":" ","MAREA":" ","LANE":"３４１巷","ALLEY":" ","HOUSE_NO":"１７號之３","E_COORD97":179082.31,"N_COORD97":2548178.2599999998,"ADDRESS":"中正路３４１巷１７號之３","OBJECTID":435930},"geometry":{"x":179082.31000000052,"y":2548178.2599999998}},{"attributes":{"ID":435956,"DIS_CODE":0,"TOWNNAME":"新化區","LI":"太平里","LIN":"13鄰","STREET":"太平街","SECT":" ","MAREA":" ","LANE":"２２巷","ALLEY":" ","HOUSE_NO":"１５號","E_COORD97":178842.12,"N_COORD97":2548856.25,"ADDRESS":"太平街２２巷１５號","OBJECTID":435931},"geometry":{"x":178842.12000000104,"y":2548856.25}},{"attributes":{"ID":435957,"DIS_CODE":0,"TOWNNAME":"新化區","LI":"太平里","LIN":"13鄰","STREET":"太平街","SECT":" ","MAREA":" ","LANE":"２２巷","ALLEY":" ","HOUSE_NO":"７號之１","E_COORD97":178873.39999999999,"N_COORD97":2548827.2599999998,"ADDRESS":"太平街２２巷７號之１","OBJECTID":435932},"geometry":{"x":178873.40000000037,"y":2548827.2600000016}},{"attributes":{"ID":435958,"DIS_CODE":0,"TOWNNAME":"新化區","LI":"協興里","LIN":"13鄰","STREET":"太平街","SECT":" ","MAREA":" ","LANE":"１５０巷","ALLEY":" ","HOUSE_NO":"５１號","E_COORD97":178312.17000000001,"N_COORD97":2548817.25,"ADDRESS":"太平街１５０巷５１號","OBJECTID":435933},"geometry":{"x":178312.17000000086,"y":2548817.2500000019}},{"attributes":{"ID":435959,"DIS_CODE":0,"TOWNNAME":"新化區","LI":"東榮里","LIN":"18鄰","STREET":"中興路","SECT":" ","MAREA":" ","LANE":"６８５巷","ALLEY":" ","HOUSE_NO":"５１號","E_COORD97":179576.76000000001,"N_COORD97":2548019.25,"ADDRESS":"中興路６８５巷５１號","OBJECTID":435934},"geometry":{"x":179576.75999999978,"y":2548019.25}},{"attributes":{"ID":435960,"DIS_CODE":0,"TOWNNAME":"新化區","LI":"東榮里","LIN":"18鄰","STREET":"中興路","SECT":" ","MAREA":" ","LANE":"６８５巷","ALLEY":" ","HOUSE_NO":"６５號","E_COORD97":179545.85999999999,"N_COORD97":2547992.25,"ADDRESS":"中興路６８５巷６５號","OBJECTID":435935},"geometry":{"x":179545.86000000127,"y":2547992.25}},{"attributes":{"ID":435961,"DIS_CODE":0,"TOWNNAME":"新化區","LI":"東榮里","LIN":"18鄰","STREET":"中興路","SECT":" ","MAREA":" ","LANE":"６８５巷","ALLEY":" ","HOUSE_NO":"３５號","E_COORD97":179577.45999999999,"N_COORD97":2547985.25,"ADDRESS":"中興路６８５巷３５號","OBJECTID":435936},"geometry":{"x":179577.45999999996,"y":2547985.25}},{"attributes":{"ID":435962,"DIS_CODE":0,"TOWNNAME":"新化區","LI":"東榮里","LIN":"13鄰","STREET":"中興路","SECT":" ","MAREA":" ","LANE":"５７０巷","ALLEY":" ","HOUSE_NO":"１２號","E_COORD97":179883.35999999999,"N_COORD97":2547993.25,"ADDRESS":"中興路５７０巷１２號","OBJECTID":435937},"geometry":{"x":179883.36000000127,"y":2547993.2500000019}},{"attributes":{"ID":435963,"DIS_CODE":0,"TOWNNAME":"玉井區","LI":"玉田里","LIN":"40鄰","STREET":"和平街","SECT":" ","MAREA":" ","LANE":" ","ALLEY":" ","HOUSE_NO":"１７０號","E_COORD97":195248.64000000001,"N_COORD97":2557506.25,"ADDRESS":"和平街１７０號","OBJECTID":435938},"geometry":{"x":195248.64000000153,"y":2557506.2500000037}},{"attributes":{"ID":435964,"DIS_CODE":0,"TOWNNAME":"關廟區","LI":"布袋里","LIN":"11鄰","STREET":"南雄南路","SECT":" ","MAREA":" ","LANE":"８５２巷","ALLEY":"１３８弄","HOUSE_NO":"２８號","E_COORD97":182365.10929399999,"N_COORD97":2533723.9523900002,"ADDRESS":"南雄南路８５２巷１３８弄２８號","OBJECTID":435939},"geometry":{"x":182365.10929400101,"y":2533723.9523860011}},{"attributes":{"ID":435965,"DIS_CODE":0,"TOWNNAME":"新化區","LI":"東榮里","LIN":"8鄰","STREET":"信義路","SECT":" ","MAREA":" ","LANE":"１１７巷","ALLEY":" ","HOUSE_NO":"２８號之５７","E_COORD97":179776.57000000001,"N_COORD97":2548265.2599999998,"ADDRESS":"信義路１１７巷２８號之５７","OBJECTID":435940},"geometry":{"x":179776.57000000123,"y":2548265.2600000016}},{"attributes":{"ID":435966,"DIS_CODE":0,"TOWNNAME":"南區","LI":"金華里","LIN":"4鄰","STREET":"金華路","SECT":"二段","MAREA":" ","LANE":"８１巷","ALLEY":" ","HOUSE_NO":"２號","E_COORD97":167051.32000000001,"N_COORD97":2542217.0899999999,"ADDRESS":"金華路二段８１巷２號","OBJECTID":435941},"geometry":{"x":167051.3200000003,"y":2542217.0900000017}},{"attributes":{"ID":435967,"DIS_CODE":0,"TOWNNAME":"南區","LI":"府南里","LIN":"26鄰","STREET":"大成路","SECT":"二段","MAREA":" ","LANE":"８１巷","ALLEY":" ","HOUSE_NO":"４０號","E_COORD97":167378.67000000001,"N_COORD97":2541624.9399999999,"ADDRESS":"大成路二段８１巷４０號","OBJECTID":435942},"geometry":{"x":167378.67000000086,"y":2541624.9400000013}},{"attributes":{"ID":435968,"DIS_CODE":0,"TOWNNAME":"南區","LI":"光明里","LIN":"12鄰","STREET":"鹽埕路","SECT":" ","MAREA":" ","LANE":"２９１巷","ALLEY":" ","HOUSE_NO":"１１１號","E_COORD97":166707.10999999999,"N_COORD97":2541214.02,"ADDRESS":"鹽埕路２９１巷１１１號","OBJECTID":435943},"geometry":{"x":166707.11000000034,"y":2541214.0200000014}},{"attributes":{"ID":435969,"DIS_CODE":0,"TOWNNAME":"南區","LI":"光明里","LIN":"12鄰","STREET":"鹽埕路","SECT":" ","MAREA":" ","LANE":"２９１巷","ALLEY":" ","HOUSE_NO":"１１１號之１","E_COORD97":166706,"N_COORD97":2541207.8900000001,"ADDRESS":"鹽埕路２９１巷１１１號之１","OBJECTID":435944},"geometry":{"x":166706,"y":2541207.8900000006}},{"attributes":{"ID":435970,"DIS_CODE":0,"TOWNNAME":"南區","LI":"大忠里","LIN":"24鄰","STREET":"中華南路","SECT":"一段","MAREA":" ","LANE":"９７巷","ALLEY":" ","HOUSE_NO":"１０號","E_COORD97":169244.20000000001,"N_COORD97":2541248.3399999999,"ADDRESS":"中華南路一段９７巷１０號","OBJECTID":435945},"geometry":{"x":169244.20000000019,"y":2541248.3400000036}},{"attributes":{"ID":435971,"DIS_CODE":0,"TOWNNAME":"南區","LI":"大忠里","LIN":"24鄰","STREET":"中華南路","SECT":"一段","MAREA":" ","LANE":"９７巷","ALLEY":" ","HOUSE_NO":"１２號","E_COORD97":169244.48000000001,"N_COORD97":2541244.5099999998,"ADDRESS":"中華南路一段９７巷１２號","OBJECTID":435946},"geometry":{"x":169244.47999999952,"y":2541244.5100000016}},{"attributes":{"ID":435972,"DIS_CODE":0,"TOWNNAME":"南區","LI":"大忠里","LIN":"24鄰","STREET":"中華南路","SECT":"一段","MAREA":" ","LANE":"９７巷","ALLEY":" ","HOUSE_NO":"１４號","E_COORD97":169245.03,"N_COORD97":2541240.6899999999,"ADDRESS":"中華南路一段９７巷１４號","OBJECTID":435947},"geometry":{"x":169245.03000000026,"y":2541240.6899999995}},{"attributes":{"ID":435973,"DIS_CODE":0,"TOWNNAME":"南區","LI":"大忠里","LIN":"24鄰","STREET":"中華南路","SECT":"一段","MAREA":" ","LANE":"９７巷","ALLEY":" ","HOUSE_NO":"１６號","E_COORD97":169245.29999999999,"N_COORD97":2541236.8599999999,"ADDRESS":"中華南路一段９７巷１６號","OBJECTID":435948},"geometry":{"x":169245.30000000075,"y":2541236.8599999994}},{"attributes":{"ID":435974,"DIS_CODE":0,"TOWNNAME":"南區","LI":"田寮里","LIN":"14鄰","STREET":"西門路","SECT":"一段","MAREA":" ","LANE":"３６１巷","ALLEY":" ","HOUSE_NO":"１２號","E_COORD97":167684.91,"N_COORD97":2542124.73,"ADDRESS":"西門路一段３６１巷１２號","OBJECTID":435949},"geometry":{"x":167684.91000000015,"y":2542124.7300000042}},{"attributes":{"ID":435975,"DIS_CODE":0,"TOWNNAME":"南區","LI":"喜南里","LIN":"7鄰","STREET":"喜樹路","SECT":" ","MAREA":" ","LANE":"３４０巷","ALLEY":" ","HOUSE_NO":"４９號","E_COORD97":165540.17999999999,"N_COORD97":2537705.5800000001,"ADDRESS":"喜樹路３４０巷４９號","OBJECTID":435950},"geometry":{"x":165540.18000000156,"y":2537705.5800000019}},{"attributes":{"ID":435976,"DIS_CODE":0,"TOWNNAME":"南區","LI":"再興里","LIN":"15鄰","STREET":"三官路","SECT":" ","MAREA":" ","LANE":"２２２巷","ALLEY":" ","HOUSE_NO":"４１號","E_COORD97":167117.19,"N_COORD97":2542083.7200000002,"ADDRESS":"三官路２２２巷４１號","OBJECTID":435951},"geometry":{"x":167117.19000000041,"y":2542083.7200000007}},{"attributes":{"ID":435977,"DIS_CODE":0,"TOWNNAME":"南區","LI":"喜東里","LIN":"1鄰","STREET":"明興路","SECT":" ","MAREA":" ","LANE":"３２１巷","ALLEY":" ","HOUSE_NO":"２８號","E_COORD97":166638.53,"N_COORD97":2538832.8100000001,"ADDRESS":"明興路３２１巷２８號","OBJECTID":435952},"geometry":{"x":166638.53000000212,"y":2538832.8100000024}},{"attributes":{"ID":435978,"DIS_CODE":0,"TOWNNAME":"南區","LI":"建南里","LIN":"1鄰","STREET":"中華南路","SECT":"二段","MAREA":" ","LANE":"５３巷","ALLEY":" ","HOUSE_NO":"９６號","E_COORD97":167354.85999999999,"N_COORD97":2540097.1699999999,"ADDRESS":"中華南路二段５３巷９６號","OBJECTID":435953},"geometry":{"x":167354.86000000034,"y":2540097.1700000037}},{"attributes":{"ID":435979,"DIS_CODE":0,"TOWNNAME":"南區","LI":"建南里","LIN":"1鄰","STREET":"中華南路","SECT":"二段","MAREA":" ","LANE":"５３巷","ALLEY":" ","HOUSE_NO":"９８號","E_COORD97":167355.04999999999,"N_COORD97":2540092.4700000002,"ADDRESS":"中華南路二段５３巷９８號","OBJECTID":435954},"geometry":{"x":167355.05000000168,"y":2540092.4700000044}},{"attributes":{"ID":435980,"DIS_CODE":0,"TOWNNAME":"南區","LI":"建南里","LIN":"3鄰","STREET":"德興路","SECT":" ","MAREA":" ","LANE":"２３７巷","ALLEY":" ","HOUSE_NO":"４１號","E_COORD97":167327.48000000001,"N_COORD97":2540121.5499999998,"ADDRESS":"德興路２３７巷４１號","OBJECTID":435955},"geometry":{"x":167327.48000000138,"y":2540121.5500000007}},{"attributes":{"ID":435981,"DIS_CODE":0,"TOWNNAME":"南區","LI":"建南里","LIN":"3鄰","STREET":"德興路","SECT":" ","MAREA":" ","LANE":"２３７巷","ALLEY":" ","HOUSE_NO":"４３號","E_COORD97":167331.54000000001,"N_COORD97":2540121.7999999998,"ADDRESS":"德興路２３７巷４３號","OBJECTID":435956},"geometry":{"x":167331.5400000019,"y":2540121.8000000026}},{"attributes":{"ID":435982,"DIS_CODE":0,"TOWNNAME":"南區","LI":"建南里","LIN":"3鄰","STREET":"德興路","SECT":" ","MAREA":" ","LANE":"２３７巷","ALLEY":" ","HOUSE_NO":"４５號","E_COORD97":167336.87,"N_COORD97":2540121.4199999999,"ADDRESS":"德興路２３７巷４５號","OBJECTID":435957},"geometry":{"x":167336.87000000104,"y":2540121.4199999999}},{"attributes":{"ID":435983,"DIS_CODE":0,"TOWNNAME":"南區","LI":"建南里","LIN":"3鄰","STREET":"德興路","SECT":" ","MAREA":" ","LANE":"２３７巷","ALLEY":" ","HOUSE_NO":"４７號","E_COORD97":167340.67999999999,"N_COORD97":2540121.5499999998,"ADDRESS":"德興路２３７巷４７號","OBJECTID":435958},"geometry":{"x":167340.68000000063,"y":2540121.5500000007}},{"attributes":{"ID":435984,"DIS_CODE":0,"TOWNNAME":"南區","LI":"建南里","LIN":"3鄰","STREET":"德興路","SECT":" ","MAREA":" ","LANE":"２３７巷","ALLEY":" ","HOUSE_NO":"４９號","E_COORD97":167334.01999999999,"N_COORD97":2540102.4900000002,"ADDRESS":"德興路２３７巷４９號","OBJECTID":435959},"geometry":{"x":167334.01999999955,"y":2540102.4900000021}},{"attributes":{"ID":435985,"DIS_CODE":0,"TOWNNAME":"南區","LI":"大林里","LIN":"13鄰","STREET":"國民路","SECT":" ","MAREA":" ","LANE":"５１１巷","ALLEY":" ","HOUSE_NO":"４８號之１","E_COORD97":168558.62,"N_COORD97":2541284.46,"ADDRESS":"國民路５１１巷４８號之１","OBJECTID":435960},"geometry":{"x":168558.62000000104,"y":2541284.4600000009}},{"attributes":{"ID":435986,"DIS_CODE":0,"TOWNNAME":"南區","LI":"大林里","LIN":"13鄰","STREET":"國民路","SECT":" ","MAREA":" ","LANE":"５１１巷","ALLEY":" ","HOUSE_NO":"４２號","E_COORD97":168495.51999999999,"N_COORD97":2541303.8700000001,"ADDRESS":"國民路５１１巷４２號","OBJECTID":435961},"geometry":{"x":168495.51999999955,"y":2541303.8700000048}},{"attributes":{"ID":435987,"DIS_CODE":0,"TOWNNAME":"南區","LI":"光明里","LIN":"17鄰","STREET":"新建路","SECT":" ","MAREA":" ","LANE":"１７巷","ALLEY":" ","HOUSE_NO":"１３號","E_COORD97":166540.38,"N_COORD97":2541533.21,"ADDRESS":"新建路１７巷１３號","OBJECTID":435962},"geometry":{"x":166540.37999999989,"y":2541533.2100000028}},{"attributes":{"ID":435988,"DIS_CODE":0,"TOWNNAME":"南區","LI":"再興里","LIN":"4鄰","STREET":"新慶街","SECT":" ","MAREA":" ","LANE":"１０巷","ALLEY":" ","HOUSE_NO":"９號","E_COORD97":167268.06,"N_COORD97":2542372.7400000002,"ADDRESS":"新慶街１０巷９號","OBJECTID":435963},"geometry":{"x":167268.05999999959,"y":2542372.7400000021}},{"attributes":{"ID":435989,"DIS_CODE":0,"TOWNNAME":"南區","LI":"白雪里","LIN":"18鄰","STREET":"新都路","SECT":" ","MAREA":" ","LANE":"６１２巷","ALLEY":" ","HOUSE_NO":"２４號","E_COORD97":166880.54000000001,"N_COORD97":2540979.2400000002,"ADDRESS":"新都路６１２巷２４號","OBJECTID":435964},"geometry":{"x":166880.53999999911,"y":2540979.2400000021}},{"attributes":{"ID":435990,"DIS_CODE":0,"TOWNNAME":"南區","LI":"白雪里","LIN":"18鄰","STREET":"新都路","SECT":" ","MAREA":" ","LANE":"６１２巷","ALLEY":" ","HOUSE_NO":"２６號","E_COORD97":166884.79999999999,"N_COORD97":2540978.5299999998,"ADDRESS":"新都路６１２巷２６號","OBJECTID":435965},"geometry":{"x":166884.79999999981,"y":2540978.5299999975}},{"attributes":{"ID":435991,"DIS_CODE":0,"TOWNNAME":"鹽水區","LI":"橋南里","LIN":"4鄰","STREET":"行昌路","SECT":" ","MAREA":" ","LANE":"４５巷","ALLEY":" ","HOUSE_NO":"１號","E_COORD97":175213.92000000001,"N_COORD97":2579391.71,"ADDRESS":"行昌路４５巷１號","OBJECTID":435966},"geometry":{"x":175213.92000000086,"y":2579391.7100000009}},{"attributes":{"ID":435992,"DIS_CODE":0,"TOWNNAME":"歸仁區","LI":"南興里","LIN":"40鄰","STREET":"民生南街","SECT":"一段","MAREA":" ","LANE":" ","ALLEY":" ","HOUSE_NO":"５０號","E_COORD97":176263.98999999999,"N_COORD97":2540776.29,"ADDRESS":"民生南街一段５０號","OBJECTID":435967},"geometry":{"x":176263.98999999929,"y":2540776.2899999991}},{"attributes":{"ID":435993,"DIS_CODE":0,"TOWNNAME":"鹽水區","LI":"橋南里","LIN":"4鄰","STREET":"行昌路","SECT":" ","MAREA":" ","LANE":"４５巷","ALLEY":" ","HOUSE_NO":"２號","E_COORD97":175198.70999999999,"N_COORD97":2579386.0499999998,"ADDRESS":"行昌路４５巷２號","OBJECTID":435968},"geometry":{"x":175198.70999999996,"y":2579386.0500000007}},{"attributes":{"ID":435994,"DIS_CODE":0,"TOWNNAME":"鹽水區","LI":"橋南里","LIN":"4鄰","STREET":"行昌路","SECT":" ","MAREA":" ","LANE":"４５巷","ALLEY":" ","HOUSE_NO":"３號","E_COORD97":175216.37,"N_COORD97":2579385.46,"ADDRESS":"行昌路４５巷３號","OBJECTID":435969},"geometry":{"x":175216.37000000011,"y":2579385.4600000009}},{"attributes":{"ID":435995,"DIS_CODE":0,"TOWNNAME":"鹽水區","LI":"橋南里","LIN":"4鄰","STREET":"行昌路","SECT":" ","MAREA":" ","LANE":"４５巷","ALLEY":" ","HOUSE_NO":"７號","E_COORD97":175225.62,"N_COORD97":2579373.2799999998,"ADDRESS":"行昌路４５巷７號","OBJECTID":435970},"geometry":{"x":175225.62000000197,"y":2579373.2800000031}},{"attributes":{"ID":435996,"DIS_CODE":0,"TOWNNAME":"鹽水區","LI":"橋南里","LIN":"4鄰","STREET":"行昌路","SECT":" ","MAREA":" ","LANE":"４５巷","ALLEY":" ","HOUSE_NO":"８號","E_COORD97":175203.42999999999,"N_COORD97":2579373.6899999999,"ADDRESS":"行昌路４５巷８號","OBJECTID":435971},"geometry":{"x":175203.43000000063,"y":2579373.6899999976}},{"attributes":{"ID":435997,"DIS_CODE":0,"TOWNNAME":"鹽水區","LI":"橋南里","LIN":"3鄰","STREET":"行昌路","SECT":" ","MAREA":" ","LANE":"６８巷","ALLEY":" ","HOUSE_NO":"１號","E_COORD97":175183.31,"N_COORD97":2579436.29,"ADDRESS":"行昌路６８巷１號","OBJECTID":435972},"geometry":{"x":175183.31000000052,"y":2579436.2899999991}},{"attributes":{"ID":435998,"DIS_CODE":0,"TOWNNAME":"鹽水區","LI":"橋南里","LIN":"2鄰","STREET":"行昌路","SECT":" ","MAREA":" ","LANE":"６８巷","ALLEY":" ","HOUSE_NO":"１０號","E_COORD97":175187.88,"N_COORD97":2579483.25,"ADDRESS":"行昌路６８巷１０號","OBJECTID":435973},"geometry":{"x":175187.87999999896,"y":2579483.2500000019}},{"attributes":{"ID":435999,"DIS_CODE":0,"TOWNNAME":"鹽水區","LI":"橋南里","LIN":"2鄰","STREET":"行昌路","SECT":" ","MAREA":" ","LANE":"６８巷","ALLEY":" ","HOUSE_NO":"１２號","E_COORD97":175200.82000000001,"N_COORD97":2579486.3399999999,"ADDRESS":"行昌路６８巷１２號","OBJECTID":435974},"geometry":{"x":175200.82000000216,"y":2579486.3400000017}},{"attributes":{"ID":436000,"DIS_CODE":0,"TOWNNAME":"鹽水區","LI":"水正里","LIN":"17鄰","STREET":"西門路","SECT":" ","MAREA":" ","LANE":"１２巷","ALLEY":" ","HOUSE_NO":"２號","E_COORD97":175015.35000000001,"N_COORD97":2579707.1200000001,"ADDRESS":"西門路１２巷２號","OBJECTID":435975},"geometry":{"x":175015.35000000056,"y":2579707.120000001}},{"attributes":{"ID":436001,"DIS_CODE":0,"TOWNNAME":"鹽水區","LI":"水正里","LIN":"17鄰","STREET":"西門路","SECT":" ","MAREA":" ","LANE":"１２巷","ALLEY":" ","HOUSE_NO":"３號","E_COORD97":175018.09,"N_COORD97":2579713.8700000001,"ADDRESS":"西門路１２巷３號","OBJECTID":435976},"geometry":{"x":175018.08999999985,"y":2579713.8700000029}},{"attributes":{"ID":436002,"DIS_CODE":0,"TOWNNAME":"鹽水區","LI":"水仙里","LIN":"4鄰","STREET":"西門路","SECT":" ","MAREA":" ","LANE":"１８巷","ALLEY":" ","HOUSE_NO":"２號","E_COORD97":175007.32000000001,"N_COORD97":2579777.5899999999,"ADDRESS":"西門路１８巷２號","OBJECTID":435977},"geometry":{"x":175007.3200000003,"y":2579777.5899999999}},{"attributes":{"ID":436003,"DIS_CODE":0,"TOWNNAME":"鹽水區","LI":"水仙里","LIN":"4鄰","STREET":"西門路","SECT":" ","MAREA":" ","LANE":"１８巷","ALLEY":" ","HOUSE_NO":"５號","E_COORD97":175020.60999999999,"N_COORD97":2579780.5699999998,"ADDRESS":"西門路１８巷５號","OBJECTID":435978},"geometry":{"x":175020.61000000034,"y":2579780.5700000022}},{"attributes":{"ID":436004,"DIS_CODE":0,"TOWNNAME":"鹽水區","LI":"水仙里","LIN":"7鄰","STREET":"西門路","SECT":" ","MAREA":" ","LANE":"２４巷","ALLEY":" ","HOUSE_NO":"１０號","E_COORD97":175015.73000000001,"N_COORD97":2579830.9300000002,"ADDRESS":"西門路２４巷１０號","OBJECTID":435979},"geometry":{"x":175015.73000000138,"y":2579830.9300000016}},{"attributes":{"ID":436005,"DIS_CODE":0,"TOWNNAME":"安平區","LI":"育平里","LIN":"38鄰","STREET":"育平一街","SECT":" ","MAREA":" ","LANE":"１４巷","ALLEY":" ","HOUSE_NO":"１８號","E_COORD97":164470.73000000001,"N_COORD97":2543038.0600000001,"ADDRESS":"育平一街１４巷１８號","OBJECTID":435980},"geometry":{"x":164470.73000000045,"y":2543038.0600000042}},{"attributes":{"ID":436006,"DIS_CODE":0,"TOWNNAME":"安平區","LI":"育平里","LIN":"38鄰","STREET":"育平一街","SECT":" ","MAREA":" ","LANE":"１４巷","ALLEY":" ","HOUSE_NO":"１９號","E_COORD97":164455.75,"N_COORD97":2543042.5299999998,"ADDRESS":"育平一街１４巷１９號","OBJECTID":435981},"geometry":{"x":164455.75000000093,"y":2543042.5299999993}},{"attributes":{"ID":436007,"DIS_CODE":0,"TOWNNAME":"安平區","LI":"育平里","LIN":"38鄰","STREET":"育平一街","SECT":" ","MAREA":" ","LANE":"１４巷","ALLEY":" ","HOUSE_NO":"２０號","E_COORD97":164470.73000000001,"N_COORD97":2543041.9900000002,"ADDRESS":"育平一街１４巷２０號","OBJECTID":435982},"geometry":{"x":164470.73000000045,"y":2543041.9900000021}},{"attributes":{"ID":436008,"DIS_CODE":0,"TOWNNAME":"安平區","LI":"石門里","LIN":"14鄰","STREET":"延平街","SECT":" ","MAREA":" ","LANE":"３０巷","ALLEY":" ","HOUSE_NO":"９號","E_COORD97":164289.87,"N_COORD97":2544606.7200000002,"ADDRESS":"延平街３０巷９號","OBJECTID":435983},"geometry":{"x":164289.86999999918,"y":2544606.7200000044}},{"attributes":{"ID":436009,"DIS_CODE":0,"TOWNNAME":"安平區","LI":"漁光里","LIN":"4鄰","STREET":"漁光路","SECT":" ","MAREA":" ","LANE":"８９巷","ALLEY":" ","HOUSE_NO":"３６號","E_COORD97":163903.64000000001,"N_COORD97":2541985.5099999998,"ADDRESS":"漁光路８９巷３６號","OBJECTID":435984},"geometry":{"x":163903.6400000006,"y":2541985.5099999998}},{"attributes":{"ID":436010,"DIS_CODE":0,"TOWNNAME":"安平區","LI":"漁光里","LIN":"5鄰","STREET":"漁光路","SECT":" ","MAREA":" ","LANE":"８９巷","ALLEY":" ","HOUSE_NO":"４３號之２","E_COORD97":163836.31,"N_COORD97":2541984.6800000002,"ADDRESS":"漁光路８９巷４３號之２","OBJECTID":435985},"geometry":{"x":163836.31000000052,"y":2541984.6799999997}},{"attributes":{"ID":436011,"DIS_CODE":0,"TOWNNAME":"安平區","LI":"漁光里","LIN":"5鄰","STREET":"漁光路","SECT":" ","MAREA":" ","LANE":"８９巷","ALLEY":" ","HOUSE_NO":"４３號之３","E_COORD97":163833.14000000001,"N_COORD97":2541990.52,"ADDRESS":"漁光路８９巷４３號之３","OBJECTID":435986},"geometry":{"x":163833.13999999966,"y":2541990.5200000014}},{"attributes":{"ID":436012,"DIS_CODE":0,"TOWNNAME":"安平區","LI":"漁光里","LIN":"4鄰","STREET":"漁光路","SECT":" ","MAREA":" ","LANE":"１１９巷","ALLEY":" ","HOUSE_NO":"２號","E_COORD97":163970.94,"N_COORD97":2541970.4700000002,"ADDRESS":"漁光路１１９巷２號","OBJECTID":435987},"geometry":{"x":163970.94000000041,"y":2541970.4700000044}},{"attributes":{"ID":436013,"DIS_CODE":0,"TOWNNAME":"安平區","LI":"漁光里","LIN":"4鄰","STREET":"漁光路","SECT":" ","MAREA":" ","LANE":"１１９巷","ALLEY":" ","HOUSE_NO":"２之１號","E_COORD97":163970.17176900001,"N_COORD97":2541966.5628,"ADDRESS":"漁光路１１９巷２之１號","OBJECTID":435988},"geometry":{"x":163970.17176899966,"y":2541966.5628040023}},{"attributes":{"ID":436014,"DIS_CODE":0,"TOWNNAME":"安平區","LI":"漁光里","LIN":"4鄰","STREET":"漁光路","SECT":" ","MAREA":" ","LANE":"８９巷","ALLEY":" ","HOUSE_NO":"３２號之１","E_COORD97":163913.48999999999,"N_COORD97":2541960.98,"ADDRESS":"漁光路８９巷３２號之１","OBJECTID":435989},"geometry":{"x":163913.49000000115,"y":2541960.9800000023}},{"attributes":{"ID":436015,"DIS_CODE":0,"TOWNNAME":"安平區","LI":"漁光里","LIN":"3鄰","STREET":"漁光路","SECT":" ","MAREA":" ","LANE":"８９巷","ALLEY":" ","HOUSE_NO":"１６號之１","E_COORD97":163976.48999999999,"N_COORD97":2541853.77,"ADDRESS":"漁光路８９巷１６號之１","OBJECTID":435990},"geometry":{"x":163976.49000000022,"y":2541853.7700000014}},{"attributes":{"ID":436016,"DIS_CODE":0,"TOWNNAME":"安平區","LI":"漁光里","LIN":"3鄰","STREET":"漁光路","SECT":" ","MAREA":" ","LANE":"８９巷","ALLEY":" ","HOUSE_NO":"２６號之１","E_COORD97":163908.82000000001,"N_COORD97":2541923.6000000001,"ADDRESS":"漁光路８９巷２６號之１","OBJECTID":435991},"geometry":{"x":163908.8200000003,"y":2541923.5999999996}},{"attributes":{"ID":436017,"DIS_CODE":0,"TOWNNAME":"安平區","LI":"漁光里","LIN":"3鄰","STREET":"漁光路","SECT":" ","MAREA":" ","LANE":"８９巷","ALLEY":" ","HOUSE_NO":"１９號之１","E_COORD97":163904.81,"N_COORD97":2541818.8599999999,"ADDRESS":"漁光路８９巷１９號之１","OBJECTID":435992},"geometry":{"x":163904.80999999959,"y":2541818.8600000013}},{"attributes":{"ID":436018,"DIS_CODE":0,"TOWNNAME":"安平區","LI":"金城里","LIN":" ","STREET":"同平路","SECT":" ","MAREA":" ","LANE":"９６巷","ALLEY":" ","HOUSE_NO":"５５號","E_COORD97":163003.32000000001,"N_COORD97":2544206.7999999998,"ADDRESS":"同平路９６巷５５號","OBJECTID":435993},"geometry":{"x":163003.3200000003,"y":2544206.8000000026}},{"attributes":{"ID":436019,"DIS_CODE":0,"TOWNNAME":"安平區","LI":"海頭里","LIN":" ","STREET":"安北路","SECT":" ","MAREA":" ","LANE":"１２１巷","ALLEY":" ","HOUSE_NO":"３號","E_COORD97":164221.67000000001,"N_COORD97":2544796.9500000002,"ADDRESS":"安北路１２１巷３號","OBJECTID":435994},"geometry":{"x":164221.67000000179,"y":2544796.950000003}},{"attributes":{"ID":436020,"DIS_CODE":0,"TOWNNAME":"安平區","LI":"億載里","LIN":" ","STREET":"健康四街","SECT":" ","MAREA":" ","LANE":"９５巷","ALLEY":" ","HOUSE_NO":"１４號","E_COORD97":164135.47,"N_COORD97":2543261.7200000002,"ADDRESS":"健康四街９５巷１４號","OBJECTID":435995},"geometry":{"x":164135.46999999974,"y":2543261.7200000025}},{"attributes":{"ID":436021,"DIS_CODE":0,"TOWNNAME":"安平區","LI":"億載里","LIN":"13鄰","STREET":"健康四街","SECT":" ","MAREA":" ","LANE":"９５巷","ALLEY":" ","HOUSE_NO":"１２號","E_COORD97":164140.29999999999,"N_COORD97":2543261.7200000002,"ADDRESS":"健康四街９５巷１２號","OBJECTID":435996},"geometry":{"x":164140.29999999981,"y":2543261.7200000025}},{"attributes":{"ID":436022,"DIS_CODE":0,"TOWNNAME":"安平區","LI":"平通里","LIN":"13鄰","STREET":"育平九街","SECT":" ","MAREA":" ","LANE":"１９２巷","ALLEY":" ","HOUSE_NO":"６號","E_COORD97":165016.60999999999,"N_COORD97":2543918.71,"ADDRESS":"育平九街１９２巷６號","OBJECTID":435997},"geometry":{"x":165016.61000000127,"y":2543918.7100000046}},{"attributes":{"ID":436023,"DIS_CODE":0,"TOWNNAME":"安平區","LI":"平安里","LIN":"15鄰","STREET":"安平路","SECT":" ","MAREA":" ","LANE":"５５０巷","ALLEY":" ","HOUSE_NO":"３６號","E_COORD97":165030.76999999999,"N_COORD97":2544486.2400000002,"ADDRESS":"安平路５５０巷３６號","OBJECTID":435998},"geometry":{"x":165030.77000000142,"y":2544486.2400000002}},{"attributes":{"ID":436024,"DIS_CODE":0,"TOWNNAME":"安平區","LI":"育平里","LIN":"38鄰","STREET":"育平一街","SECT":" ","MAREA":" ","LANE":"１４巷","ALLEY":" ","HOUSE_NO":"２號","E_COORD97":164466.92999999999,"N_COORD97":2543002.6600000001,"ADDRESS":"育平一街１４巷２號","OBJECTID":435999},"geometry":{"x":164466.9299999997,"y":2543002.6599999983}},{"attributes":{"ID":436025,"DIS_CODE":0,"TOWNNAME":"安平區","LI":"國平里","LIN":"13鄰","STREET":"建平一街","SECT":" ","MAREA":" ","LANE":"１８９巷","ALLEY":" ","HOUSE_NO":"３２號","E_COORD97":165570.01999999999,"N_COORD97":2542753.6200000001,"ADDRESS":"建平一街１８９巷３２號","OBJECTID":436000},"geometry":{"x":165570.02000000142,"y":2542753.6200000029}}]}