{"displayFieldName":"TOWNNAME","fieldAliases":{"ID":"ID","DIS_CODE":"DIS_CODE","TOWNNAME":"TOWNNAME","LI":"LI","LIN":"LIN","STREET":"STREET","SECT":"SECT","MAREA":"MAREA","LANE":"LANE","ALLEY":"ALLEY","HOUSE_NO":"HOUSE_NO","E_COORD97":"E_COORD97","N_COORD97":"N_COORD97","ADDRESS":"ADDRESS","OBJECTID":"OBJECTID"},"geometryType":"esriGeometryPoint","spatialReference":{"wkid":102443,"latestWkid":3826},"fields":[{"name":"ID","type":"esriFieldTypeDouble","alias":"ID"},{"name":"DIS_CODE","type":"esriFieldTypeInteger","alias":"DIS_CODE"},{"name":"TOWNNAME","type":"esriFieldTypeString","alias":"TOWNNAME","length":8},{"name":"LI","type":"esriFieldTypeString","alias":"LI","length":8},{"name":"LIN","type":"esriFieldTypeString","alias":"LIN","length":12},{"name":"STREET","type":"esriFieldTypeString","alias":"STREET","length":20},{"name":"SECT","type":"esriFieldTypeString","alias":"SECT","length":8},{"name":"MAREA","type":"esriFieldTypeString","alias":"MAREA","length":12},{"name":"LANE","type":"esriFieldTypeString","alias":"LANE","length":10},{"name":"ALLEY","type":"esriFieldTypeString","alias":"ALLEY","length":10},{"name":"HOUSE_NO","type":"esriFieldTypeString","alias":"HOUSE_NO","length":20},{"name":"E_COORD97","type":"esriFieldTypeDouble","alias":"E_COORD97"},{"name":"N_COORD97","type":"esriFieldTypeDouble","alias":"N_COORD97"},{"name":"ADDRESS","type":"esriFieldTypeString","alias":"ADDRESS","length":50},{"name":"OBJECTID","type":"esriFieldTypeOID","alias":"OBJECTID"}],"features":[{"attributes":{"ID":465026,"DIS_CODE":0,"TOWNNAME":"永康區","LI":"二王里","LIN":" ","STREET":"中山南路","SECT":" ","MAREA":" ","LANE":" ","ALLEY":" ","HOUSE_NO":"７８０號","E_COORD97":172757.12,"N_COORD97":2546781.1400000001,"ADDRESS":"中山南路７８０號","OBJECTID":465001},"geometry":{"x":172757.12000000011,"y":2546781.1400000025}},{"attributes":{"ID":465027,"DIS_CODE":0,"TOWNNAME":"永康區","LI":"崑山里","LIN":"25鄰","STREET":"大仁街","SECT":" ","MAREA":" ","LANE":" ","ALLEY":" ","HOUSE_NO":"７５號","E_COORD97":173803.63,"N_COORD97":2544719.3700000001,"ADDRESS":"大仁街７５號","OBJECTID":465002},"geometry":{"x":173803.63000000082,"y":2544719.3700000029}},{"attributes":{"ID":465028,"DIS_CODE":0,"TOWNNAME":"永康區","LI":"勝利里","LIN":"6鄰","STREET":"勝學路","SECT":" ","MAREA":" ","LANE":" ","ALLEY":" ","HOUSE_NO":"４５號","E_COORD97":171140.98999999999,"N_COORD97":2544677.2599999998,"ADDRESS":"勝學路４５號","OBJECTID":465003},"geometry":{"x":171140.99000000022,"y":2544677.2600000016}},{"attributes":{"ID":465029,"DIS_CODE":0,"TOWNNAME":"永康區","LI":"\u25A0行里","LIN":"4鄰","STREET":"新行街","SECT":" ","MAREA":" ","LANE":" ","ALLEY":" ","HOUSE_NO":"１６號","E_COORD97":172232.37,"N_COORD97":2548768.7400000002,"ADDRESS":"新行街１６號","OBJECTID":465004},"geometry":{"x":172232.37000000104,"y":2548768.7400000002}},{"attributes":{"ID":465030,"DIS_CODE":0,"TOWNNAME":"永康區","LI":"\u25A0行里","LIN":"4鄰","STREET":"新行街","SECT":" ","MAREA":" ","LANE":" ","ALLEY":" ","HOUSE_NO":"１２號","E_COORD97":172225.89999999999,"N_COORD97":2548762.9900000002,"ADDRESS":"新行街１２號","OBJECTID":465005},"geometry":{"x":172225.9000000013,"y":2548762.9900000002}},{"attributes":{"ID":465031,"DIS_CODE":0,"TOWNNAME":"永康區","LI":"復國里","LIN":"13鄰","STREET":"復華三街","SECT":" ","MAREA":" ","LANE":" ","ALLEY":" ","HOUSE_NO":"９號","E_COORD97":172912.76000000001,"N_COORD97":2545526.6899999999,"ADDRESS":"復華三街９號","OBJECTID":465006},"geometry":{"x":172912.76000000071,"y":2545526.6899999995}},{"attributes":{"ID":465032,"DIS_CODE":0,"TOWNNAME":"永康區","LI":"東灣里","LIN":" ","STREET":"大灣一街","SECT":" ","MAREA":" ","LANE":" ","ALLEY":" ","HOUSE_NO":"１９２號","E_COORD97":174820.19,"N_COORD97":2544570.25,"ADDRESS":"大灣一街１９２號","OBJECTID":465007},"geometry":{"x":174820.18999999948,"y":2544570.25}},{"attributes":{"ID":465033,"DIS_CODE":0,"TOWNNAME":"永康區","LI":"五王里","LIN":" ","STREET":"中山南路","SECT":" ","MAREA":" ","LANE":" ","ALLEY":" ","HOUSE_NO":"１８４號","E_COORD97":171332.29000000001,"N_COORD97":2546028.5,"ADDRESS":"中山南路１８４號","OBJECTID":465008},"geometry":{"x":171332.2900000019,"y":2546028.5000000019}},{"attributes":{"ID":465034,"DIS_CODE":0,"TOWNNAME":"永康區","LI":"埔園里","LIN":"13鄰","STREET":"中山路","SECT":" ","MAREA":" ","LANE":" ","ALLEY":" ","HOUSE_NO":"２３１號","E_COORD97":173651.85000000001,"N_COORD97":2548146.7400000002,"ADDRESS":"中山路２３１號","OBJECTID":465009},"geometry":{"x":173651.84999999963,"y":2548146.7400000021}},{"attributes":{"ID":465035,"DIS_CODE":0,"TOWNNAME":"永康區","LI":"復興里","LIN":"8鄰","STREET":"復興路","SECT":" ","MAREA":" ","LANE":" ","ALLEY":" ","HOUSE_NO":"３１３號","E_COORD97":172268.04000000001,"N_COORD97":2544315.9399999999,"ADDRESS":"復興路３１３號","OBJECTID":465010},"geometry":{"x":172268.0400000019,"y":2544315.9400000032}},{"attributes":{"ID":465036,"DIS_CODE":0,"TOWNNAME":"永康區","LI":"勝利里","LIN":"33鄰","STREET":"中華路","SECT":" ","MAREA":" ","LANE":" ","ALLEY":" ","HOUSE_NO":"１號之８７","E_COORD97":171501.94,"N_COORD97":2544353.0499999998,"ADDRESS":"中華路１號之８７","OBJECTID":465011},"geometry":{"x":171501.94000000134,"y":2544353.0500000007}},{"attributes":{"ID":465037,"DIS_CODE":0,"TOWNNAME":"永康區","LI":"大灣里","LIN":" ","STREET":"大灣路","SECT":" ","MAREA":" ","LANE":" ","ALLEY":" ","HOUSE_NO":"３７０號","E_COORD97":174825.13,"N_COORD97":2545094.2200000002,"ADDRESS":"大灣路３７０號","OBJECTID":465012},"geometry":{"x":174825.12999999896,"y":2545094.2200000007}},{"attributes":{"ID":465038,"DIS_CODE":0,"TOWNNAME":"永康區","LI":"崑山里","LIN":"18鄰","STREET":"大灣路","SECT":" ","MAREA":" ","LANE":" ","ALLEY":" ","HOUSE_NO":"９０４號","E_COORD97":173713.92999999999,"N_COORD97":2544446.27,"ADDRESS":"大灣路９０４號","OBJECTID":465013},"geometry":{"x":173713.9299999997,"y":2544446.2700000014}},{"attributes":{"ID":465039,"DIS_CODE":0,"TOWNNAME":"永康區","LI":"埔園里","LIN":"25鄰","STREET":"埔東街","SECT":" ","MAREA":" ","LANE":" ","ALLEY":" ","HOUSE_NO":"４５號","E_COORD97":173767.76999999999,"N_COORD97":2548145.7400000002,"ADDRESS":"埔東街４５號","OBJECTID":465014},"geometry":{"x":173767.77000000142,"y":2548145.7400000039}},{"attributes":{"ID":465040,"DIS_CODE":0,"TOWNNAME":"永康區","LI":"龍潭里","LIN":"5鄰","STREET":"龍埔街","SECT":" ","MAREA":" ","LANE":" ","ALLEY":" ","HOUSE_NO":"８５號八樓之１１","E_COORD97":174620.94,"N_COORD97":2548225.75,"ADDRESS":"龍埔街８５號八樓之１１","OBJECTID":465015},"geometry":{"x":174620.94000000134,"y":2548225.75}},{"attributes":{"ID":465041,"DIS_CODE":0,"TOWNNAME":"永康區","LI":"龍潭里","LIN":"5鄰","STREET":"龍埔街","SECT":" ","MAREA":" ","LANE":" ","ALLEY":" ","HOUSE_NO":"８５號八樓之１０","E_COORD97":174620.98999999999,"N_COORD97":2548225.75,"ADDRESS":"龍埔街８５號八樓之１０","OBJECTID":465016},"geometry":{"x":174620.99000000022,"y":2548225.75}},{"attributes":{"ID":465042,"DIS_CODE":0,"TOWNNAME":"中西區","LI":"公正里","LIN":"5鄰","STREET":"民族路","SECT":"二段","MAREA":" ","LANE":" ","ALLEY":" ","HOUSE_NO":"６６號七樓之１","E_COORD97":169028.42000000001,"N_COORD97":2543909.3999999999,"ADDRESS":"民族路二段６６號七樓之１","OBJECTID":465017},"geometry":{"x":169028.41999999993,"y":2543909.4000000004}},{"attributes":{"ID":465043,"DIS_CODE":0,"TOWNNAME":"中西區","LI":"公正里","LIN":"5鄰","STREET":"民族路","SECT":"二段","MAREA":" ","LANE":" ","ALLEY":" ","HOUSE_NO":"６６號七樓之２","E_COORD97":169028.42000000001,"N_COORD97":2543909.3999999999,"ADDRESS":"民族路二段６６號七樓之２","OBJECTID":465018},"geometry":{"x":169028.41999999993,"y":2543909.4000000004}},{"attributes":{"ID":465044,"DIS_CODE":0,"TOWNNAME":"中西區","LI":"公正里","LIN":"5鄰","STREET":"民族路","SECT":"二段","MAREA":" ","LANE":" ","ALLEY":" ","HOUSE_NO":"６６號七樓之３","E_COORD97":169028.42000000001,"N_COORD97":2543909.3999999999,"ADDRESS":"民族路二段６６號七樓之３","OBJECTID":465019},"geometry":{"x":169028.41999999993,"y":2543909.4000000004}},{"attributes":{"ID":465045,"DIS_CODE":0,"TOWNNAME":"中西區","LI":"公正里","LIN":"5鄰","STREET":"民族路","SECT":"二段","MAREA":" ","LANE":" ","ALLEY":" ","HOUSE_NO":"６６號七樓之４","E_COORD97":169028.42000000001,"N_COORD97":2543909.3999999999,"ADDRESS":"民族路二段６６號七樓之４","OBJECTID":465020},"geometry":{"x":169028.41999999993,"y":2543909.4000000004}},{"attributes":{"ID":465046,"DIS_CODE":0,"TOWNNAME":"中西區","LI":"公正里","LIN":"5鄰","STREET":"民族路","SECT":"二段","MAREA":" ","LANE":" ","ALLEY":" ","HOUSE_NO":"６６號七樓之５","E_COORD97":169028.42000000001,"N_COORD97":2543909.3999999999,"ADDRESS":"民族路二段６６號七樓之５","OBJECTID":465021},"geometry":{"x":169028.41999999993,"y":2543909.4000000004}},{"attributes":{"ID":465047,"DIS_CODE":0,"TOWNNAME":"中西區","LI":"公正里","LIN":"5鄰","STREET":"民族路","SECT":"二段","MAREA":" ","LANE":" ","ALLEY":" ","HOUSE_NO":"６６號九樓之１","E_COORD97":169028.42000000001,"N_COORD97":2543909.3999999999,"ADDRESS":"民族路二段６６號九樓之１","OBJECTID":465022},"geometry":{"x":169028.41999999993,"y":2543909.4000000004}},{"attributes":{"ID":465048,"DIS_CODE":0,"TOWNNAME":"中西區","LI":"公正里","LIN":"5鄰","STREET":"民族路","SECT":"二段","MAREA":" ","LANE":" ","ALLEY":" ","HOUSE_NO":"６６號九樓之２","E_COORD97":169028.42000000001,"N_COORD97":2543909.3999999999,"ADDRESS":"民族路二段６６號九樓之２","OBJECTID":465023},"geometry":{"x":169028.41999999993,"y":2543909.4000000004}},{"attributes":{"ID":465049,"DIS_CODE":0,"TOWNNAME":"中西區","LI":"公正里","LIN":"5鄰","STREET":"民族路","SECT":"二段","MAREA":" ","LANE":" ","ALLEY":" ","HOUSE_NO":"６６號九樓之３","E_COORD97":169028.42000000001,"N_COORD97":2543909.3999999999,"ADDRESS":"民族路二段６６號九樓之３","OBJECTID":465024},"geometry":{"x":169028.41999999993,"y":2543909.4000000004}},{"attributes":{"ID":465050,"DIS_CODE":0,"TOWNNAME":"中西區","LI":"公正里","LIN":"5鄰","STREET":"民族路","SECT":"二段","MAREA":" ","LANE":" ","ALLEY":" ","HOUSE_NO":"６６號九樓之４","E_COORD97":169028.42000000001,"N_COORD97":2543909.3999999999,"ADDRESS":"民族路二段６６號九樓之４","OBJECTID":465025},"geometry":{"x":169028.41999999993,"y":2543909.4000000004}},{"attributes":{"ID":465051,"DIS_CODE":0,"TOWNNAME":"永康區","LI":"崑山里","LIN":"1鄰","STREET":"大灣路","SECT":" ","MAREA":" ","LANE":" ","ALLEY":" ","HOUSE_NO":"８１３號","E_COORD97":173736.91,"N_COORD97":2544425.1800000002,"ADDRESS":"大灣路８１３號","OBJECTID":465026},"geometry":{"x":173736.90999999922,"y":2544425.1799999997}},{"attributes":{"ID":465052,"DIS_CODE":0,"TOWNNAME":"中西區","LI":"公正里","LIN":"5鄰","STREET":"民族路","SECT":"二段","MAREA":" ","LANE":" ","ALLEY":" ","HOUSE_NO":"６６號九樓之５","E_COORD97":169028.42000000001,"N_COORD97":2543909.3999999999,"ADDRESS":"民族路二段６６號九樓之５","OBJECTID":465027},"geometry":{"x":169028.41999999993,"y":2543909.4000000004}},{"attributes":{"ID":465053,"DIS_CODE":0,"TOWNNAME":"中西區","LI":"公正里","LIN":"5鄰","STREET":"民族路","SECT":"二段","MAREA":" ","LANE":" ","ALLEY":" ","HOUSE_NO":"６６號二樓","E_COORD97":169028.42000000001,"N_COORD97":2543909.3999999999,"ADDRESS":"民族路二段６６號二樓","OBJECTID":465028},"geometry":{"x":169028.41999999993,"y":2543909.4000000004}},{"attributes":{"ID":465054,"DIS_CODE":0,"TOWNNAME":"中西區","LI":"公正里","LIN":"5鄰","STREET":"民族路","SECT":"二段","MAREA":" ","LANE":" ","ALLEY":" ","HOUSE_NO":"６６號八樓之１","E_COORD97":169028.42000000001,"N_COORD97":2543909.3999999999,"ADDRESS":"民族路二段６６號八樓之１","OBJECTID":465029},"geometry":{"x":169028.41999999993,"y":2543909.4000000004}},{"attributes":{"ID":465055,"DIS_CODE":0,"TOWNNAME":"中西區","LI":"公正里","LIN":"5鄰","STREET":"民族路","SECT":"二段","MAREA":" ","LANE":" ","ALLEY":" ","HOUSE_NO":"６６號八樓之２","E_COORD97":169028.42000000001,"N_COORD97":2543909.3999999999,"ADDRESS":"民族路二段６６號八樓之２","OBJECTID":465030},"geometry":{"x":169028.41999999993,"y":2543909.4000000004}},{"attributes":{"ID":465056,"DIS_CODE":0,"TOWNNAME":"中西區","LI":"公正里","LIN":"5鄰","STREET":"民族路","SECT":"二段","MAREA":" ","LANE":" ","ALLEY":" ","HOUSE_NO":"６６號八樓之３","E_COORD97":169028.42000000001,"N_COORD97":2543909.3999999999,"ADDRESS":"民族路二段６６號八樓之３","OBJECTID":465031},"geometry":{"x":169028.41999999993,"y":2543909.4000000004}},{"attributes":{"ID":465057,"DIS_CODE":0,"TOWNNAME":"中西區","LI":"公正里","LIN":"5鄰","STREET":"民族路","SECT":"二段","MAREA":" ","LANE":" ","ALLEY":" ","HOUSE_NO":"６６號八樓之４","E_COORD97":169028.42000000001,"N_COORD97":2543909.3999999999,"ADDRESS":"民族路二段６６號八樓之４","OBJECTID":465032},"geometry":{"x":169028.41999999993,"y":2543909.4000000004}},{"attributes":{"ID":465058,"DIS_CODE":0,"TOWNNAME":"中西區","LI":"公正里","LIN":"5鄰","STREET":"民族路","SECT":"二段","MAREA":" ","LANE":" ","ALLEY":" ","HOUSE_NO":"６６號八樓之５","E_COORD97":169028.42000000001,"N_COORD97":2543909.3999999999,"ADDRESS":"民族路二段６６號八樓之５","OBJECTID":465033},"geometry":{"x":169028.41999999993,"y":2543909.4000000004}},{"attributes":{"ID":465059,"DIS_CODE":0,"TOWNNAME":"中西區","LI":"公正里","LIN":"5鄰","STREET":"民族路","SECT":"二段","MAREA":" ","LANE":" ","ALLEY":" ","HOUSE_NO":"６６號十一樓之１","E_COORD97":169028.42000000001,"N_COORD97":2543909.3999999999,"ADDRESS":"民族路二段６６號十一樓之１","OBJECTID":465034},"geometry":{"x":169028.41999999993,"y":2543909.4000000004}},{"attributes":{"ID":465060,"DIS_CODE":0,"TOWNNAME":"中西區","LI":"公正里","LIN":"5鄰","STREET":"民族路","SECT":"二段","MAREA":" ","LANE":" ","ALLEY":" ","HOUSE_NO":"６６號十一樓之２","E_COORD97":169028.42000000001,"N_COORD97":2543909.3999999999,"ADDRESS":"民族路二段６６號十一樓之２","OBJECTID":465035},"geometry":{"x":169028.41999999993,"y":2543909.4000000004}},{"attributes":{"ID":465061,"DIS_CODE":0,"TOWNNAME":"中西區","LI":"公正里","LIN":"5鄰","STREET":"民族路","SECT":"二段","MAREA":" ","LANE":" ","ALLEY":" ","HOUSE_NO":"６６號十一樓之３","E_COORD97":169028.42000000001,"N_COORD97":2543909.3999999999,"ADDRESS":"民族路二段６６號十一樓之３","OBJECTID":465036},"geometry":{"x":169028.41999999993,"y":2543909.4000000004}},{"attributes":{"ID":465062,"DIS_CODE":0,"TOWNNAME":"中西區","LI":"公正里","LIN":"5鄰","STREET":"民族路","SECT":"二段","MAREA":" ","LANE":" ","ALLEY":" ","HOUSE_NO":"６６號十一樓之４","E_COORD97":169028.42000000001,"N_COORD97":2543909.3999999999,"ADDRESS":"民族路二段６６號十一樓之４","OBJECTID":465037},"geometry":{"x":169028.41999999993,"y":2543909.4000000004}},{"attributes":{"ID":465063,"DIS_CODE":0,"TOWNNAME":"中西區","LI":"公正里","LIN":"5鄰","STREET":"民族路","SECT":"二段","MAREA":" ","LANE":" ","ALLEY":" ","HOUSE_NO":"６６號十一樓之５","E_COORD97":169028.42000000001,"N_COORD97":2543909.3999999999,"ADDRESS":"民族路二段６６號十一樓之５","OBJECTID":465038},"geometry":{"x":169028.41999999993,"y":2543909.4000000004}},{"attributes":{"ID":465064,"DIS_CODE":0,"TOWNNAME":"中西區","LI":"公正里","LIN":"5鄰","STREET":"民族路","SECT":"二段","MAREA":" ","LANE":" ","ALLEY":" ","HOUSE_NO":"６６號十二樓之１","E_COORD97":169028.42000000001,"N_COORD97":2543909.3999999999,"ADDRESS":"民族路二段６６號十二樓之１","OBJECTID":465039},"geometry":{"x":169028.41999999993,"y":2543909.4000000004}},{"attributes":{"ID":465065,"DIS_CODE":0,"TOWNNAME":"中西區","LI":"公正里","LIN":"5鄰","STREET":"民族路","SECT":"二段","MAREA":" ","LANE":" ","ALLEY":" ","HOUSE_NO":"６６號十二樓之２","E_COORD97":169028.42000000001,"N_COORD97":2543909.3999999999,"ADDRESS":"民族路二段６６號十二樓之２","OBJECTID":465040},"geometry":{"x":169028.41999999993,"y":2543909.4000000004}},{"attributes":{"ID":465066,"DIS_CODE":0,"TOWNNAME":"中西區","LI":"公正里","LIN":"5鄰","STREET":"民族路","SECT":"二段","MAREA":" ","LANE":" ","ALLEY":" ","HOUSE_NO":"６６號十二樓之３","E_COORD97":169028.42000000001,"N_COORD97":2543909.3999999999,"ADDRESS":"民族路二段６６號十二樓之３","OBJECTID":465041},"geometry":{"x":169028.41999999993,"y":2543909.4000000004}},{"attributes":{"ID":465067,"DIS_CODE":0,"TOWNNAME":"中西區","LI":"公正里","LIN":"5鄰","STREET":"民族路","SECT":"二段","MAREA":" ","LANE":" ","ALLEY":" ","HOUSE_NO":"６６號十二樓之４","E_COORD97":169028.42000000001,"N_COORD97":2543909.3999999999,"ADDRESS":"民族路二段６６號十二樓之４","OBJECTID":465042},"geometry":{"x":169028.41999999993,"y":2543909.4000000004}},{"attributes":{"ID":465068,"DIS_CODE":0,"TOWNNAME":"中西區","LI":"公正里","LIN":"5鄰","STREET":"民族路","SECT":"二段","MAREA":" ","LANE":" ","ALLEY":" ","HOUSE_NO":"６６號十三樓之１","E_COORD97":169028.42000000001,"N_COORD97":2543909.3999999999,"ADDRESS":"民族路二段６６號十三樓之１","OBJECTID":465043},"geometry":{"x":169028.41999999993,"y":2543909.4000000004}},{"attributes":{"ID":465069,"DIS_CODE":0,"TOWNNAME":"中西區","LI":"公正里","LIN":"5鄰","STREET":"民族路","SECT":"二段","MAREA":" ","LANE":" ","ALLEY":" ","HOUSE_NO":"６６號十三樓之２","E_COORD97":169028.42000000001,"N_COORD97":2543909.3999999999,"ADDRESS":"民族路二段６６號十三樓之２","OBJECTID":465044},"geometry":{"x":169028.41999999993,"y":2543909.4000000004}},{"attributes":{"ID":465070,"DIS_CODE":0,"TOWNNAME":"中西區","LI":"公正里","LIN":"5鄰","STREET":"民族路","SECT":"二段","MAREA":" ","LANE":" ","ALLEY":" ","HOUSE_NO":"６６號十三樓之３","E_COORD97":169028.42000000001,"N_COORD97":2543909.3999999999,"ADDRESS":"民族路二段６６號十三樓之３","OBJECTID":465045},"geometry":{"x":169028.41999999993,"y":2543909.4000000004}},{"attributes":{"ID":465071,"DIS_CODE":0,"TOWNNAME":"中西區","LI":"公正里","LIN":"5鄰","STREET":"民族路","SECT":"二段","MAREA":" ","LANE":" ","ALLEY":" ","HOUSE_NO":"６６號十三樓之４","E_COORD97":169028.42000000001,"N_COORD97":2543909.3999999999,"ADDRESS":"民族路二段６６號十三樓之４","OBJECTID":465046},"geometry":{"x":169028.41999999993,"y":2543909.4000000004}},{"attributes":{"ID":465072,"DIS_CODE":0,"TOWNNAME":"中西區","LI":"公正里","LIN":"5鄰","STREET":"民族路","SECT":"二段","MAREA":" ","LANE":" ","ALLEY":" ","HOUSE_NO":"６６號十樓之１","E_COORD97":169028.42000000001,"N_COORD97":2543909.3999999999,"ADDRESS":"民族路二段６６號十樓之１","OBJECTID":465047},"geometry":{"x":169028.41999999993,"y":2543909.4000000004}},{"attributes":{"ID":465073,"DIS_CODE":0,"TOWNNAME":"中西區","LI":"公正里","LIN":"5鄰","STREET":"民族路","SECT":"二段","MAREA":" ","LANE":" ","ALLEY":" ","HOUSE_NO":"６６號十樓之２","E_COORD97":169028.42000000001,"N_COORD97":2543909.3999999999,"ADDRESS":"民族路二段６６號十樓之２","OBJECTID":465048},"geometry":{"x":169028.41999999993,"y":2543909.4000000004}},{"attributes":{"ID":465074,"DIS_CODE":0,"TOWNNAME":"中西區","LI":"公正里","LIN":"5鄰","STREET":"民族路","SECT":"二段","MAREA":" ","LANE":" ","ALLEY":" ","HOUSE_NO":"６６號三樓之１","E_COORD97":169028.42000000001,"N_COORD97":2543909.3999999999,"ADDRESS":"民族路二段６６號三樓之１","OBJECTID":465049},"geometry":{"x":169028.41999999993,"y":2543909.4000000004}},{"attributes":{"ID":465075,"DIS_CODE":0,"TOWNNAME":"中西區","LI":"公正里","LIN":"5鄰","STREET":"民族路","SECT":"二段","MAREA":" ","LANE":" ","ALLEY":" ","HOUSE_NO":"６６號三樓之２","E_COORD97":169028.42000000001,"N_COORD97":2543909.3999999999,"ADDRESS":"民族路二段６６號三樓之２","OBJECTID":465050},"geometry":{"x":169028.41999999993,"y":2543909.4000000004}},{"attributes":{"ID":465076,"DIS_CODE":0,"TOWNNAME":"中西區","LI":"公正里","LIN":"5鄰","STREET":"民族路","SECT":"二段","MAREA":" ","LANE":" ","ALLEY":" ","HOUSE_NO":"６６號五樓","E_COORD97":169028.42000000001,"N_COORD97":2543909.3999999999,"ADDRESS":"民族路二段６６號五樓","OBJECTID":465051},"geometry":{"x":169028.41999999993,"y":2543909.4000000004}},{"attributes":{"ID":465077,"DIS_CODE":0,"TOWNNAME":"中西區","LI":"公正里","LIN":"5鄰","STREET":"民族路","SECT":"二段","MAREA":" ","LANE":" ","ALLEY":" ","HOUSE_NO":"６６號六樓之１","E_COORD97":169028.42000000001,"N_COORD97":2543909.3999999999,"ADDRESS":"民族路二段６６號六樓之１","OBJECTID":465052},"geometry":{"x":169028.41999999993,"y":2543909.4000000004}},{"attributes":{"ID":465078,"DIS_CODE":0,"TOWNNAME":"中西區","LI":"公正里","LIN":"5鄰","STREET":"民族路","SECT":"二段","MAREA":" ","LANE":" ","ALLEY":" ","HOUSE_NO":"６６號六樓之２","E_COORD97":169028.42000000001,"N_COORD97":2543909.3999999999,"ADDRESS":"民族路二段６６號六樓之２","OBJECTID":465053},"geometry":{"x":169028.41999999993,"y":2543909.4000000004}},{"attributes":{"ID":465079,"DIS_CODE":0,"TOWNNAME":"中西區","LI":"公正里","LIN":"5鄰","STREET":"民族路","SECT":"二段","MAREA":" ","LANE":" ","ALLEY":" ","HOUSE_NO":"６６號六樓之３","E_COORD97":169028.42000000001,"N_COORD97":2543909.3999999999,"ADDRESS":"民族路二段６６號六樓之３","OBJECTID":465054},"geometry":{"x":169028.41999999993,"y":2543909.4000000004}},{"attributes":{"ID":465080,"DIS_CODE":0,"TOWNNAME":"中西區","LI":"公正里","LIN":"5鄰","STREET":"民族路","SECT":"二段","MAREA":" ","LANE":" ","ALLEY":" ","HOUSE_NO":"６６號六樓之４","E_COORD97":169028.42000000001,"N_COORD97":2543909.3999999999,"ADDRESS":"民族路二段６６號六樓之４","OBJECTID":465055},"geometry":{"x":169028.41999999993,"y":2543909.4000000004}},{"attributes":{"ID":465081,"DIS_CODE":0,"TOWNNAME":"中西區","LI":"公正里","LIN":"5鄰","STREET":"民族路","SECT":"二段","MAREA":" ","LANE":" ","ALLEY":" ","HOUSE_NO":"６６號四樓之１","E_COORD97":169028.42000000001,"N_COORD97":2543909.3999999999,"ADDRESS":"民族路二段６６號四樓之１","OBJECTID":465056},"geometry":{"x":169028.41999999993,"y":2543909.4000000004}},{"attributes":{"ID":465082,"DIS_CODE":0,"TOWNNAME":"中西區","LI":"公正里","LIN":"5鄰","STREET":"民族路","SECT":"二段","MAREA":" ","LANE":" ","ALLEY":" ","HOUSE_NO":"６６號四樓之２","E_COORD97":169028.42000000001,"N_COORD97":2543909.3999999999,"ADDRESS":"民族路二段６６號四樓之２","OBJECTID":465057},"geometry":{"x":169028.41999999993,"y":2543909.4000000004}},{"attributes":{"ID":465083,"DIS_CODE":0,"TOWNNAME":"中西區","LI":"公正里","LIN":"5鄰","STREET":"民族路","SECT":"二段","MAREA":" ","LANE":" ","ALLEY":" ","HOUSE_NO":"６６號四樓之３","E_COORD97":169028.42000000001,"N_COORD97":2543909.3999999999,"ADDRESS":"民族路二段６６號四樓之３","OBJECTID":465058},"geometry":{"x":169028.41999999993,"y":2543909.4000000004}},{"attributes":{"ID":465084,"DIS_CODE":0,"TOWNNAME":"中西區","LI":"公正里","LIN":"5鄰","STREET":"民族路","SECT":"二段","MAREA":" ","LANE":" ","ALLEY":" ","HOUSE_NO":"６６號四樓之６","E_COORD97":169028.42000000001,"N_COORD97":2543909.3999999999,"ADDRESS":"民族路二段６６號四樓之６","OBJECTID":465059},"geometry":{"x":169028.41999999993,"y":2543909.4000000004}},{"attributes":{"ID":465085,"DIS_CODE":0,"TOWNNAME":"中西區","LI":"公正里","LIN":"5鄰","STREET":"民族路","SECT":"二段","MAREA":" ","LANE":" ","ALLEY":" ","HOUSE_NO":"６６號四樓之５","E_COORD97":169028.42000000001,"N_COORD97":2543909.3999999999,"ADDRESS":"民族路二段６６號四樓之５","OBJECTID":465060},"geometry":{"x":169028.41999999993,"y":2543909.4000000004}},{"attributes":{"ID":465086,"DIS_CODE":0,"TOWNNAME":"新化區","LI":"協興里","LIN":"5鄰","STREET":"中山路","SECT":" ","MAREA":" ","LANE":" ","ALLEY":" ","HOUSE_NO":"５８６號四樓之２","E_COORD97":178374.16,"N_COORD97":2548478.2599999998,"ADDRESS":"中山路５８６號四樓之２","OBJECTID":465061},"geometry":{"x":178374.16000000108,"y":2548478.2600000016}},{"attributes":{"ID":465087,"DIS_CODE":0,"TOWNNAME":"新化區","LI":"協興里","LIN":"5鄰","STREET":"中山路","SECT":" ","MAREA":" ","LANE":" ","ALLEY":" ","HOUSE_NO":"５８６號四樓之１","E_COORD97":178374.14000000001,"N_COORD97":2548478.2599999998,"ADDRESS":"中山路５８６號四樓之１","OBJECTID":465062},"geometry":{"x":178374.13999999966,"y":2548478.2600000016}},{"attributes":{"ID":465088,"DIS_CODE":0,"TOWNNAME":"新化區","LI":"協興里","LIN":"5鄰","STREET":"中山路","SECT":" ","MAREA":" ","LANE":" ","ALLEY":" ","HOUSE_NO":"５８６號六樓之１","E_COORD97":178374.14000000001,"N_COORD97":2548478.2599999998,"ADDRESS":"中山路５８６號六樓之１","OBJECTID":465063},"geometry":{"x":178374.13999999966,"y":2548478.2600000016}},{"attributes":{"ID":465089,"DIS_CODE":0,"TOWNNAME":"永康區","LI":"龍潭里","LIN":"5鄰","STREET":"龍埔街","SECT":" ","MAREA":" ","LANE":" ","ALLEY":" ","HOUSE_NO":"８５號八樓之１４","E_COORD97":174620.97,"N_COORD97":2548225.75,"ADDRESS":"龍埔街８５號八樓之１４","OBJECTID":465064},"geometry":{"x":174620.96999999881,"y":2548225.75}},{"attributes":{"ID":465090,"DIS_CODE":0,"TOWNNAME":"永康區","LI":"龍潭里","LIN":"5鄰","STREET":"龍埔街","SECT":" ","MAREA":" ","LANE":" ","ALLEY":" ","HOUSE_NO":"８５號八樓之８","E_COORD97":174619.84,"N_COORD97":2548225.75,"ADDRESS":"龍埔街８５號八樓之８","OBJECTID":465065},"geometry":{"x":174619.83999999985,"y":2548225.75}},{"attributes":{"ID":465091,"DIS_CODE":0,"TOWNNAME":"永康區","LI":"龍潭里","LIN":"5鄰","STREET":"龍埔街","SECT":" ","MAREA":" ","LANE":" ","ALLEY":" ","HOUSE_NO":"８５號八樓之６","E_COORD97":174619.79999999999,"N_COORD97":2548225.75,"ADDRESS":"龍埔街８５號八樓之６","OBJECTID":465066},"geometry":{"x":174619.79999999981,"y":2548225.75}},{"attributes":{"ID":465092,"DIS_CODE":0,"TOWNNAME":"永康區","LI":"龍潭里","LIN":"5鄰","STREET":"龍埔街","SECT":" ","MAREA":" ","LANE":" ","ALLEY":" ","HOUSE_NO":"８５號八樓之２","E_COORD97":174619.82999999999,"N_COORD97":2548225.75,"ADDRESS":"龍埔街８５號八樓之２","OBJECTID":465067},"geometry":{"x":174619.83000000007,"y":2548225.75}},{"attributes":{"ID":465093,"DIS_CODE":0,"TOWNNAME":"永康區","LI":"龍潭里","LIN":"5鄰","STREET":"龍埔街","SECT":" ","MAREA":" ","LANE":" ","ALLEY":" ","HOUSE_NO":"８５號六樓之１１","E_COORD97":174620.94,"N_COORD97":2548225.75,"ADDRESS":"龍埔街８５號六樓之１１","OBJECTID":465068},"geometry":{"x":174620.94000000134,"y":2548225.75}},{"attributes":{"ID":465094,"DIS_CODE":0,"TOWNNAME":"永康區","LI":"\u25A0行里","LIN":"25鄰","STREET":"\u25A0和街","SECT":" ","MAREA":" ","LANE":" ","ALLEY":" ","HOUSE_NO":"２５８號","E_COORD97":171608.39999999999,"N_COORD97":2548364.2400000002,"ADDRESS":"\u25A0和街２５８號","OBJECTID":465069},"geometry":{"x":171608.4000000013,"y":2548364.2400000002}},{"attributes":{"ID":465095,"DIS_CODE":0,"TOWNNAME":"永康區","LI":"永康里","LIN":" ","STREET":"中山路","SECT":" ","MAREA":" ","LANE":" ","ALLEY":" ","HOUSE_NO":"３４號","E_COORD97":173857.70999999999,"N_COORD97":2547469.4100000001,"ADDRESS":"中山路３４號","OBJECTID":465070},"geometry":{"x":173857.70999999996,"y":2547469.4099999983}},{"attributes":{"ID":465096,"DIS_CODE":0,"TOWNNAME":"永康區","LI":"龍潭里","LIN":"5鄰","STREET":"龍埔街","SECT":" ","MAREA":" ","LANE":" ","ALLEY":" ","HOUSE_NO":"８５號十樓之１２","E_COORD97":174621.07999999999,"N_COORD97":2548225.75,"ADDRESS":"龍埔街８５號十樓之１２","OBJECTID":465071},"geometry":{"x":174621.08000000101,"y":2548225.75}},{"attributes":{"ID":465097,"DIS_CODE":0,"TOWNNAME":"永康區","LI":"龍潭里","LIN":"5鄰","STREET":"龍埔街","SECT":" ","MAREA":" ","LANE":" ","ALLEY":" ","HOUSE_NO":"８５號四樓之１","E_COORD97":174619.69,"N_COORD97":2548225.75,"ADDRESS":"龍埔街８５號四樓之１","OBJECTID":465072},"geometry":{"x":174619.69000000041,"y":2548225.75}},{"attributes":{"ID":465098,"DIS_CODE":0,"TOWNNAME":"永康區","LI":"龍潭里","LIN":"5鄰","STREET":"龍埔街","SECT":" ","MAREA":" ","LANE":" ","ALLEY":" ","HOUSE_NO":"８５號十樓之１","E_COORD97":174619.69,"N_COORD97":2548225.75,"ADDRESS":"龍埔街８５號十樓之１","OBJECTID":465073},"geometry":{"x":174619.69000000041,"y":2548225.75}},{"attributes":{"ID":465099,"DIS_CODE":0,"TOWNNAME":"永康區","LI":"龍潭里","LIN":"5鄰","STREET":"龍埔街","SECT":" ","MAREA":" ","LANE":" ","ALLEY":" ","HOUSE_NO":"８５號八樓之１","E_COORD97":174619.69,"N_COORD97":2548225.75,"ADDRESS":"龍埔街８５號八樓之１","OBJECTID":465074},"geometry":{"x":174619.69000000041,"y":2548225.75}},{"attributes":{"ID":465100,"DIS_CODE":0,"TOWNNAME":"永康區","LI":"龍潭里","LIN":"5鄰","STREET":"龍埔街","SECT":" ","MAREA":" ","LANE":" ","ALLEY":" ","HOUSE_NO":"８５號五樓之９","E_COORD97":174619.78,"N_COORD97":2548225.75,"ADDRESS":"龍埔街８５號五樓之９","OBJECTID":465075},"geometry":{"x":174619.78000000119,"y":2548225.75}},{"attributes":{"ID":465101,"DIS_CODE":0,"TOWNNAME":"永康區","LI":"龍潭里","LIN":"5鄰","STREET":"龍埔街","SECT":" ","MAREA":" ","LANE":" ","ALLEY":" ","HOUSE_NO":"８５號二樓","E_COORD97":174617.56,"N_COORD97":2548225.71,"ADDRESS":"龍埔街８５號二樓","OBJECTID":465076},"geometry":{"x":174617.56000000052,"y":2548225.7100000028}},{"attributes":{"ID":465102,"DIS_CODE":0,"TOWNNAME":"永康區","LI":"龍潭里","LIN":"5鄰","STREET":"龍埔街","SECT":" ","MAREA":" ","LANE":" ","ALLEY":" ","HOUSE_NO":"８５號四樓之３","E_COORD97":174619.79000000001,"N_COORD97":2548225.75,"ADDRESS":"龍埔街８５號四樓之３","OBJECTID":465077},"geometry":{"x":174619.79000000097,"y":2548225.75}},{"attributes":{"ID":465103,"DIS_CODE":0,"TOWNNAME":"永康區","LI":"龍潭里","LIN":"5鄰","STREET":"龍埔街","SECT":" ","MAREA":" ","LANE":" ","ALLEY":" ","HOUSE_NO":"８５號四樓之１１","E_COORD97":174620.94,"N_COORD97":2548225.75,"ADDRESS":"龍埔街８５號四樓之１１","OBJECTID":465078},"geometry":{"x":174620.94000000134,"y":2548225.75}},{"attributes":{"ID":465104,"DIS_CODE":0,"TOWNNAME":"永康區","LI":"龍潭里","LIN":"5鄰","STREET":"龍埔街","SECT":" ","MAREA":" ","LANE":" ","ALLEY":" ","HOUSE_NO":"８５號十一樓之８","E_COORD97":174621.09,"N_COORD97":2548225.75,"ADDRESS":"龍埔街８５號十一樓之８","OBJECTID":465079},"geometry":{"x":174621.09000000078,"y":2548225.75}},{"attributes":{"ID":465105,"DIS_CODE":0,"TOWNNAME":"永康區","LI":"龍潭里","LIN":"5鄰","STREET":"龍埔街","SECT":" ","MAREA":" ","LANE":" ","ALLEY":" ","HOUSE_NO":"８５號十一樓之１５","E_COORD97":174622.35000000001,"N_COORD97":2548225.75,"ADDRESS":"龍埔街８５號十一樓之１５","OBJECTID":465080},"geometry":{"x":174622.35000000056,"y":2548225.75}},{"attributes":{"ID":465106,"DIS_CODE":0,"TOWNNAME":"永康區","LI":"龍潭里","LIN":"5鄰","STREET":"龍埔街","SECT":" ","MAREA":" ","LANE":" ","ALLEY":" ","HOUSE_NO":"８５號七樓之５","E_COORD97":174619.85000000001,"N_COORD97":2548225.75,"ADDRESS":"龍埔街８５號七樓之５","OBJECTID":465081},"geometry":{"x":174619.84999999963,"y":2548225.75}},{"attributes":{"ID":465107,"DIS_CODE":0,"TOWNNAME":"永康區","LI":"龍潭里","LIN":"5鄰","STREET":"龍埔街","SECT":" ","MAREA":" ","LANE":" ","ALLEY":" ","HOUSE_NO":"８５號九樓之８","E_COORD97":174619.84,"N_COORD97":2548225.75,"ADDRESS":"龍埔街８５號九樓之８","OBJECTID":465082},"geometry":{"x":174619.83999999985,"y":2548225.75}},{"attributes":{"ID":465108,"DIS_CODE":0,"TOWNNAME":"永康區","LI":"龍潭里","LIN":"5鄰","STREET":"龍埔街","SECT":" ","MAREA":" ","LANE":" ","ALLEY":" ","HOUSE_NO":"８５號四樓之１２","E_COORD97":174621.07999999999,"N_COORD97":2548225.75,"ADDRESS":"龍埔街８５號四樓之１２","OBJECTID":465083},"geometry":{"x":174621.08000000101,"y":2548225.75}},{"attributes":{"ID":465109,"DIS_CODE":0,"TOWNNAME":"永康區","LI":"龍潭里","LIN":"5鄰","STREET":"龍埔街","SECT":" ","MAREA":" ","LANE":" ","ALLEY":" ","HOUSE_NO":"８５號五樓之２","E_COORD97":174619.82999999999,"N_COORD97":2548225.75,"ADDRESS":"龍埔街８５號五樓之２","OBJECTID":465084},"geometry":{"x":174619.83000000007,"y":2548225.75}},{"attributes":{"ID":465110,"DIS_CODE":0,"TOWNNAME":"永康區","LI":"龍潭里","LIN":"5鄰","STREET":"龍埔街","SECT":" ","MAREA":" ","LANE":" ","ALLEY":" ","HOUSE_NO":"８５號十樓之８","E_COORD97":174619.84,"N_COORD97":2548225.75,"ADDRESS":"龍埔街８５號十樓之８","OBJECTID":465085},"geometry":{"x":174619.83999999985,"y":2548225.75}},{"attributes":{"ID":465111,"DIS_CODE":0,"TOWNNAME":"永康區","LI":"龍潭里","LIN":"5鄰","STREET":"龍埔街","SECT":" ","MAREA":" ","LANE":" ","ALLEY":" ","HOUSE_NO":"８５號五樓之１１","E_COORD97":174620.94,"N_COORD97":2548225.75,"ADDRESS":"龍埔街８５號五樓之１１","OBJECTID":465086},"geometry":{"x":174620.94000000134,"y":2548225.75}},{"attributes":{"ID":465112,"DIS_CODE":0,"TOWNNAME":"永康區","LI":"龍潭里","LIN":"5鄰","STREET":"龍埔街","SECT":" ","MAREA":" ","LANE":" ","ALLEY":" ","HOUSE_NO":"８５號七樓之１５","E_COORD97":174621.10000000001,"N_COORD97":2548225.75,"ADDRESS":"龍埔街８５號七樓之１５","OBJECTID":465087},"geometry":{"x":174621.09999999963,"y":2548225.75}},{"attributes":{"ID":465113,"DIS_CODE":0,"TOWNNAME":"永康區","LI":"龍潭里","LIN":"5鄰","STREET":"龍埔街","SECT":" ","MAREA":" ","LANE":" ","ALLEY":" ","HOUSE_NO":"８５號九樓之１１","E_COORD97":174620.94,"N_COORD97":2548225.75,"ADDRESS":"龍埔街８５號九樓之１１","OBJECTID":465088},"geometry":{"x":174620.94000000134,"y":2548225.75}},{"attributes":{"ID":465114,"DIS_CODE":0,"TOWNNAME":"永康區","LI":"龍潭里","LIN":"5鄰","STREET":"龍埔街","SECT":" ","MAREA":" ","LANE":" ","ALLEY":" ","HOUSE_NO":"８５號十一樓之１２","E_COORD97":174622.32999999999,"N_COORD97":2548225.75,"ADDRESS":"龍埔街８５號十一樓之１２","OBJECTID":465089},"geometry":{"x":174622.33000000194,"y":2548225.75}},{"attributes":{"ID":465115,"DIS_CODE":0,"TOWNNAME":"永康區","LI":"龍潭里","LIN":"5鄰","STREET":"龍埔街","SECT":" ","MAREA":" ","LANE":" ","ALLEY":" ","HOUSE_NO":"８５號七樓之７","E_COORD97":174619.76999999999,"N_COORD97":2548225.75,"ADDRESS":"龍埔街８５號七樓之７","OBJECTID":465090},"geometry":{"x":174619.76999999955,"y":2548225.75}},{"attributes":{"ID":465116,"DIS_CODE":0,"TOWNNAME":"永康區","LI":"龍潭里","LIN":"5鄰","STREET":"龍埔街","SECT":" ","MAREA":" ","LANE":" ","ALLEY":" ","HOUSE_NO":"８５號七樓之２","E_COORD97":174619.82999999999,"N_COORD97":2548225.75,"ADDRESS":"龍埔街８５號七樓之２","OBJECTID":465091},"geometry":{"x":174619.83000000007,"y":2548225.75}},{"attributes":{"ID":465117,"DIS_CODE":0,"TOWNNAME":"永康區","LI":"龍潭里","LIN":"5鄰","STREET":"龍埔街","SECT":" ","MAREA":" ","LANE":" ","ALLEY":" ","HOUSE_NO":"８５號三樓之１２","E_COORD97":174621.07999999999,"N_COORD97":2548225.75,"ADDRESS":"龍埔街８５號三樓之１２","OBJECTID":465092},"geometry":{"x":174621.08000000101,"y":2548225.75}},{"attributes":{"ID":465118,"DIS_CODE":0,"TOWNNAME":"永康區","LI":"龍潭里","LIN":"5鄰","STREET":"龍埔街","SECT":" ","MAREA":" ","LANE":" ","ALLEY":" ","HOUSE_NO":"８５號十一樓之３","E_COORD97":174621.04000000001,"N_COORD97":2548225.75,"ADDRESS":"龍埔街８５號十一樓之３","OBJECTID":465093},"geometry":{"x":174621.04000000097,"y":2548225.75}},{"attributes":{"ID":465119,"DIS_CODE":0,"TOWNNAME":"永康區","LI":"龍潭里","LIN":"5鄰","STREET":"龍埔街","SECT":" ","MAREA":" ","LANE":" ","ALLEY":" ","HOUSE_NO":"８５號九樓之５","E_COORD97":174619.85000000001,"N_COORD97":2548225.75,"ADDRESS":"龍埔街８５號九樓之５","OBJECTID":465094},"geometry":{"x":174619.84999999963,"y":2548225.75}},{"attributes":{"ID":465120,"DIS_CODE":0,"TOWNNAME":"永康區","LI":"龍潭里","LIN":"5鄰","STREET":"龍埔街","SECT":" ","MAREA":" ","LANE":" ","ALLEY":" ","HOUSE_NO":"８５號三樓之１３","E_COORD97":174621.04000000001,"N_COORD97":2548225.75,"ADDRESS":"龍埔街８５號三樓之１３","OBJECTID":465095},"geometry":{"x":174621.04000000097,"y":2548225.75}},{"attributes":{"ID":465121,"DIS_CODE":0,"TOWNNAME":"永康區","LI":"勝利里","LIN":"20鄰","STREET":"勝華街","SECT":" ","MAREA":" ","LANE":" ","ALLEY":" ","HOUSE_NO":"９５號","E_COORD97":171257.23000000001,"N_COORD97":2545205.0099999998,"ADDRESS":"勝華街９５號","OBJECTID":465096},"geometry":{"x":171257.23000000138,"y":2545205.0100000016}},{"attributes":{"ID":465122,"DIS_CODE":0,"TOWNNAME":"永康區","LI":"龍潭里","LIN":"5鄰","STREET":"龍埔街","SECT":" ","MAREA":" ","LANE":" ","ALLEY":" ","HOUSE_NO":"８５號七樓之３","E_COORD97":174619.79000000001,"N_COORD97":2548225.75,"ADDRESS":"龍埔街８５號七樓之３","OBJECTID":465097},"geometry":{"x":174619.79000000097,"y":2548225.75}},{"attributes":{"ID":465123,"DIS_CODE":0,"TOWNNAME":"永康區","LI":"龍潭里","LIN":"5鄰","STREET":"龍埔街","SECT":" ","MAREA":" ","LANE":" ","ALLEY":" ","HOUSE_NO":"８５號十一樓之１３","E_COORD97":174622.29000000001,"N_COORD97":2548225.75,"ADDRESS":"龍埔街８５號十一樓之１３","OBJECTID":465098},"geometry":{"x":174622.29000000004,"y":2548225.75}},{"attributes":{"ID":465124,"DIS_CODE":0,"TOWNNAME":"永康區","LI":"龍潭里","LIN":"5鄰","STREET":"龍埔街","SECT":" ","MAREA":" ","LANE":" ","ALLEY":" ","HOUSE_NO":"８５號十二樓之１","E_COORD97":174620.94,"N_COORD97":2548225.75,"ADDRESS":"龍埔街８５號十二樓之１","OBJECTID":465099},"geometry":{"x":174620.94000000134,"y":2548225.75}},{"attributes":{"ID":465125,"DIS_CODE":0,"TOWNNAME":"永康區","LI":"龍潭里","LIN":"5鄰","STREET":"龍埔街","SECT":" ","MAREA":" ","LANE":" ","ALLEY":" ","HOUSE_NO":"８５號五樓之１０","E_COORD97":174620.98999999999,"N_COORD97":2548225.75,"ADDRESS":"龍埔街８５號五樓之１０","OBJECTID":465100},"geometry":{"x":174620.99000000022,"y":2548225.75}},{"attributes":{"ID":465126,"DIS_CODE":0,"TOWNNAME":"永康區","LI":"龍潭里","LIN":"5鄰","STREET":"龍埔街","SECT":" ","MAREA":" ","LANE":" ","ALLEY":" ","HOUSE_NO":"８５號五樓之１","E_COORD97":174619.69,"N_COORD97":2548225.75,"ADDRESS":"龍埔街８５號五樓之１","OBJECTID":465101},"geometry":{"x":174619.69000000041,"y":2548225.75}},{"attributes":{"ID":465127,"DIS_CODE":0,"TOWNNAME":"永康區","LI":"龍潭里","LIN":"5鄰","STREET":"龍埔街","SECT":" ","MAREA":" ","LANE":" ","ALLEY":" ","HOUSE_NO":"８５號十樓之１４","E_COORD97":174620.97,"N_COORD97":2548225.75,"ADDRESS":"龍埔街８５號十樓之１４","OBJECTID":465102},"geometry":{"x":174620.96999999881,"y":2548225.75}},{"attributes":{"ID":465128,"DIS_CODE":0,"TOWNNAME":"永康區","LI":"龍潭里","LIN":"5鄰","STREET":"龍埔街","SECT":" ","MAREA":" ","LANE":" ","ALLEY":" ","HOUSE_NO":"８５號七樓之９","E_COORD97":174619.78,"N_COORD97":2548225.75,"ADDRESS":"龍埔街８５號七樓之９","OBJECTID":465103},"geometry":{"x":174619.78000000119,"y":2548225.75}},{"attributes":{"ID":465129,"DIS_CODE":0,"TOWNNAME":"永康區","LI":"龍潭里","LIN":"5鄰","STREET":"龍埔街","SECT":" ","MAREA":" ","LANE":" ","ALLEY":" ","HOUSE_NO":"８５號十樓之３","E_COORD97":174619.79000000001,"N_COORD97":2548225.75,"ADDRESS":"龍埔街８５號十樓之３","OBJECTID":465104},"geometry":{"x":174619.79000000097,"y":2548225.75}},{"attributes":{"ID":465130,"DIS_CODE":0,"TOWNNAME":"永康區","LI":"龍潭里","LIN":"5鄰","STREET":"龍埔街","SECT":" ","MAREA":" ","LANE":" ","ALLEY":" ","HOUSE_NO":"８５號三樓之２","E_COORD97":174619.82999999999,"N_COORD97":2548225.75,"ADDRESS":"龍埔街８５號三樓之２","OBJECTID":465105},"geometry":{"x":174619.83000000007,"y":2548225.75}},{"attributes":{"ID":465131,"DIS_CODE":0,"TOWNNAME":"永康區","LI":"龍潭里","LIN":"5鄰","STREET":"龍埔街","SECT":" ","MAREA":" ","LANE":" ","ALLEY":" ","HOUSE_NO":"８５號十一樓之５","E_COORD97":174621.10000000001,"N_COORD97":2548225.75,"ADDRESS":"龍埔街８５號十一樓之５","OBJECTID":465106},"geometry":{"x":174621.09999999963,"y":2548225.75}},{"attributes":{"ID":465132,"DIS_CODE":0,"TOWNNAME":"永康區","LI":"龍潭里","LIN":"5鄰","STREET":"龍埔街","SECT":" ","MAREA":" ","LANE":" ","ALLEY":" ","HOUSE_NO":"８５號三樓之１１","E_COORD97":174620.94,"N_COORD97":2548225.75,"ADDRESS":"龍埔街８５號三樓之１１","OBJECTID":465107},"geometry":{"x":174620.94000000134,"y":2548225.75}},{"attributes":{"ID":465133,"DIS_CODE":0,"TOWNNAME":"永康區","LI":"龍潭里","LIN":"5鄰","STREET":"龍埔街","SECT":" ","MAREA":" ","LANE":" ","ALLEY":" ","HOUSE_NO":"８５號七樓之１０","E_COORD97":174620.98999999999,"N_COORD97":2548225.75,"ADDRESS":"龍埔街８５號七樓之１０","OBJECTID":465108},"geometry":{"x":174620.99000000022,"y":2548225.75}},{"attributes":{"ID":465134,"DIS_CODE":0,"TOWNNAME":"永康區","LI":"龍潭里","LIN":"5鄰","STREET":"龍埔街","SECT":" ","MAREA":" ","LANE":" ","ALLEY":" ","HOUSE_NO":"８５號三樓之１４","E_COORD97":174620.97,"N_COORD97":2548225.75,"ADDRESS":"龍埔街８５號三樓之１４","OBJECTID":465109},"geometry":{"x":174620.96999999881,"y":2548225.75}},{"attributes":{"ID":465135,"DIS_CODE":0,"TOWNNAME":"永康區","LI":"龍潭里","LIN":"5鄰","STREET":"龍埔街","SECT":" ","MAREA":" ","LANE":" ","ALLEY":" ","HOUSE_NO":"８５號三樓之１０","E_COORD97":174620.98999999999,"N_COORD97":2548225.75,"ADDRESS":"龍埔街８５號三樓之１０","OBJECTID":465110},"geometry":{"x":174620.99000000022,"y":2548225.75}},{"attributes":{"ID":465136,"DIS_CODE":0,"TOWNNAME":"永康區","LI":"龍潭里","LIN":"5鄰","STREET":"龍埔街","SECT":" ","MAREA":" ","LANE":" ","ALLEY":" ","HOUSE_NO":"８５號八樓之１３","E_COORD97":174621.04000000001,"N_COORD97":2548225.75,"ADDRESS":"龍埔街８５號八樓之１３","OBJECTID":465111},"geometry":{"x":174621.04000000097,"y":2548225.75}},{"attributes":{"ID":465137,"DIS_CODE":0,"TOWNNAME":"永康區","LI":"龍潭里","LIN":"5鄰","STREET":"龍埔街","SECT":" ","MAREA":" ","LANE":" ","ALLEY":" ","HOUSE_NO":"８５號五樓之１３","E_COORD97":174621.04000000001,"N_COORD97":2548225.75,"ADDRESS":"龍埔街８５號五樓之１３","OBJECTID":465112},"geometry":{"x":174621.04000000097,"y":2548225.75}},{"attributes":{"ID":465138,"DIS_CODE":0,"TOWNNAME":"永康區","LI":"龍潭里","LIN":"5鄰","STREET":"龍埔街","SECT":" ","MAREA":" ","LANE":" ","ALLEY":" ","HOUSE_NO":"８５號三樓之３","E_COORD97":174619.79000000001,"N_COORD97":2548225.75,"ADDRESS":"龍埔街８５號三樓之３","OBJECTID":465113},"geometry":{"x":174619.79000000097,"y":2548225.75}},{"attributes":{"ID":465139,"DIS_CODE":0,"TOWNNAME":"永康區","LI":"龍潭里","LIN":"5鄰","STREET":"龍埔街","SECT":" ","MAREA":" ","LANE":" ","ALLEY":" ","HOUSE_NO":"８５號三樓之５","E_COORD97":174619.85000000001,"N_COORD97":2548225.75,"ADDRESS":"龍埔街８５號三樓之５","OBJECTID":465114},"geometry":{"x":174619.84999999963,"y":2548225.75}},{"attributes":{"ID":465140,"DIS_CODE":0,"TOWNNAME":"永康區","LI":"龍潭里","LIN":"5鄰","STREET":"龍埔街","SECT":" ","MAREA":" ","LANE":" ","ALLEY":" ","HOUSE_NO":"８５號十一樓之１４","E_COORD97":174622.22,"N_COORD97":2548225.75,"ADDRESS":"龍埔街８５號十一樓之１４","OBJECTID":465115},"geometry":{"x":174622.21999999974,"y":2548225.75}},{"attributes":{"ID":465141,"DIS_CODE":0,"TOWNNAME":"永康區","LI":"龍潭里","LIN":"5鄰","STREET":"龍埔街","SECT":" ","MAREA":" ","LANE":" ","ALLEY":" ","HOUSE_NO":"８５號九樓之１３","E_COORD97":174621.04000000001,"N_COORD97":2548225.75,"ADDRESS":"龍埔街８５號九樓之１３","OBJECTID":465116},"geometry":{"x":174621.04000000097,"y":2548225.75}},{"attributes":{"ID":465142,"DIS_CODE":0,"TOWNNAME":"永康區","LI":"龍潭里","LIN":"5鄰","STREET":"龍埔街","SECT":" ","MAREA":" ","LANE":" ","ALLEY":" ","HOUSE_NO":"８５號三樓之９","E_COORD97":174619.78,"N_COORD97":2548225.75,"ADDRESS":"龍埔街８５號三樓之９","OBJECTID":465117},"geometry":{"x":174619.78000000119,"y":2548225.75}},{"attributes":{"ID":465143,"DIS_CODE":0,"TOWNNAME":"永康區","LI":"龍潭里","LIN":"5鄰","STREET":"龍埔街","SECT":" ","MAREA":" ","LANE":" ","ALLEY":" ","HOUSE_NO":"８５號七樓之１１","E_COORD97":174620.94,"N_COORD97":2548225.75,"ADDRESS":"龍埔街８５號七樓之１１","OBJECTID":465118},"geometry":{"x":174620.94000000134,"y":2548225.75}},{"attributes":{"ID":465144,"DIS_CODE":0,"TOWNNAME":"永康區","LI":"龍潭里","LIN":"5鄰","STREET":"龍埔街","SECT":" ","MAREA":" ","LANE":" ","ALLEY":" ","HOUSE_NO":"８５號十樓之９","E_COORD97":174619.78,"N_COORD97":2548225.75,"ADDRESS":"龍埔街８５號十樓之９","OBJECTID":465119},"geometry":{"x":174619.78000000119,"y":2548225.75}},{"attributes":{"ID":465145,"DIS_CODE":0,"TOWNNAME":"永康區","LI":"龍潭里","LIN":"5鄰","STREET":"龍埔街","SECT":" ","MAREA":" ","LANE":" ","ALLEY":" ","HOUSE_NO":"８５號九樓之１２","E_COORD97":174621.07999999999,"N_COORD97":2548225.75,"ADDRESS":"龍埔街８５號九樓之１２","OBJECTID":465120},"geometry":{"x":174621.08000000101,"y":2548225.75}},{"attributes":{"ID":465146,"DIS_CODE":0,"TOWNNAME":"永康區","LI":"龍潭里","LIN":"5鄰","STREET":"龍埔街","SECT":" ","MAREA":" ","LANE":" ","ALLEY":" ","HOUSE_NO":"８５號十樓之６","E_COORD97":174619.79999999999,"N_COORD97":2548225.75,"ADDRESS":"龍埔街８５號十樓之６","OBJECTID":465121},"geometry":{"x":174619.79999999981,"y":2548225.75}},{"attributes":{"ID":465147,"DIS_CODE":0,"TOWNNAME":"麻豆區","LI":"穀興里","LIN":"5鄰","STREET":"振興街","SECT":" ","MAREA":" ","LANE":" ","ALLEY":" ","HOUSE_NO":"２８號之３三樓","E_COORD97":172830.01999999999,"N_COORD97":2565029.6200000001,"ADDRESS":"振興街２８號之３三樓","OBJECTID":465122},"geometry":{"x":172830.01999999955,"y":2565029.6200000029}},{"attributes":{"ID":465148,"DIS_CODE":0,"TOWNNAME":"麻豆區","LI":"穀興里","LIN":"5鄰","STREET":"振興街","SECT":" ","MAREA":" ","LANE":" ","ALLEY":" ","HOUSE_NO":"２８號之３五樓","E_COORD97":172830.01999999999,"N_COORD97":2565029.6200000001,"ADDRESS":"振興街２８號之３五樓","OBJECTID":465123},"geometry":{"x":172830.01999999955,"y":2565029.6200000029}},{"attributes":{"ID":465149,"DIS_CODE":0,"TOWNNAME":"麻豆區","LI":"穀興里","LIN":"5鄰","STREET":"振興街","SECT":" ","MAREA":" ","LANE":" ","ALLEY":" ","HOUSE_NO":"２８號之３四樓","E_COORD97":172830.01999999999,"N_COORD97":2565029.6200000001,"ADDRESS":"振興街２８號之３四樓","OBJECTID":465124},"geometry":{"x":172830.01999999955,"y":2565029.6200000029}},{"attributes":{"ID":465150,"DIS_CODE":0,"TOWNNAME":"麻豆區","LI":"穀興里","LIN":"5鄰","STREET":"振興街","SECT":" ","MAREA":" ","LANE":" ","ALLEY":" ","HOUSE_NO":"２８號之４二樓","E_COORD97":172825.76999999999,"N_COORD97":2565029.23,"ADDRESS":"振興街２８號之４二樓","OBJECTID":465125},"geometry":{"x":172825.77000000048,"y":2565029.2300000004}},{"attributes":{"ID":465151,"DIS_CODE":0,"TOWNNAME":"麻豆區","LI":"穀興里","LIN":"5鄰","STREET":"振興街","SECT":" ","MAREA":" ","LANE":" ","ALLEY":" ","HOUSE_NO":"２８號之４三樓","E_COORD97":172825.76999999999,"N_COORD97":2565029.23,"ADDRESS":"振興街２８號之４三樓","OBJECTID":465126},"geometry":{"x":172825.77000000048,"y":2565029.2300000004}},{"attributes":{"ID":465152,"DIS_CODE":0,"TOWNNAME":"麻豆區","LI":"穀興里","LIN":"5鄰","STREET":"振興街","SECT":" ","MAREA":" ","LANE":" ","ALLEY":" ","HOUSE_NO":"２８號之４五樓","E_COORD97":172825.76999999999,"N_COORD97":2565029.23,"ADDRESS":"振興街２８號之４五樓","OBJECTID":465127},"geometry":{"x":172825.77000000048,"y":2565029.2300000004}},{"attributes":{"ID":465153,"DIS_CODE":0,"TOWNNAME":"麻豆區","LI":"穀興里","LIN":"5鄰","STREET":"振興街","SECT":" ","MAREA":" ","LANE":" ","ALLEY":" ","HOUSE_NO":"２８號之４四樓","E_COORD97":172825.76999999999,"N_COORD97":2565029.23,"ADDRESS":"振興街２８號之４四樓","OBJECTID":465128},"geometry":{"x":172825.77000000048,"y":2565029.2300000004}},{"attributes":{"ID":465154,"DIS_CODE":0,"TOWNNAME":"永康區","LI":"龍潭里","LIN":"5鄰","STREET":"龍埔街","SECT":" ","MAREA":" ","LANE":" ","ALLEY":" ","HOUSE_NO":"８５號三樓之８","E_COORD97":174619.84,"N_COORD97":2548225.75,"ADDRESS":"龍埔街８５號三樓之８","OBJECTID":465129},"geometry":{"x":174619.83999999985,"y":2548225.75}},{"attributes":{"ID":465155,"DIS_CODE":0,"TOWNNAME":"永康區","LI":"龍潭里","LIN":"5鄰","STREET":"龍埔街","SECT":" ","MAREA":" ","LANE":" ","ALLEY":" ","HOUSE_NO":"８５號三樓之１","E_COORD97":174619.69,"N_COORD97":2548225.75,"ADDRESS":"龍埔街８５號三樓之１","OBJECTID":465130},"geometry":{"x":174619.69000000041,"y":2548225.75}},{"attributes":{"ID":465156,"DIS_CODE":0,"TOWNNAME":"永康區","LI":"龍潭里","LIN":"5鄰","STREET":"龍埔街","SECT":" ","MAREA":" ","LANE":" ","ALLEY":" ","HOUSE_NO":"８５號三樓之６","E_COORD97":174619.79999999999,"N_COORD97":2548225.75,"ADDRESS":"龍埔街８５號三樓之６","OBJECTID":465131},"geometry":{"x":174619.79999999981,"y":2548225.75}},{"attributes":{"ID":465157,"DIS_CODE":0,"TOWNNAME":"永康區","LI":"龍潭里","LIN":"5鄰","STREET":"龍埔街","SECT":" ","MAREA":" ","LANE":" ","ALLEY":" ","HOUSE_NO":"８５號七樓之１３","E_COORD97":174621.04000000001,"N_COORD97":2548225.75,"ADDRESS":"龍埔街８５號七樓之１３","OBJECTID":465132},"geometry":{"x":174621.04000000097,"y":2548225.75}},{"attributes":{"ID":465158,"DIS_CODE":0,"TOWNNAME":"永康區","LI":"龍潭里","LIN":"5鄰","STREET":"龍埔街","SECT":" ","MAREA":" ","LANE":" ","ALLEY":" ","HOUSE_NO":"８５號九樓之７","E_COORD97":174619.76999999999,"N_COORD97":2548225.75,"ADDRESS":"龍埔街８５號九樓之７","OBJECTID":465133},"geometry":{"x":174619.76999999955,"y":2548225.75}},{"attributes":{"ID":465159,"DIS_CODE":0,"TOWNNAME":"永康區","LI":"龍潭里","LIN":"5鄰","STREET":"龍埔街","SECT":" ","MAREA":" ","LANE":" ","ALLEY":" ","HOUSE_NO":"８５號十一樓之７","E_COORD97":174621.01999999999,"N_COORD97":2548225.75,"ADDRESS":"龍埔街８５號十一樓之７","OBJECTID":465134},"geometry":{"x":174621.02000000048,"y":2548225.75}},{"attributes":{"ID":465160,"DIS_CODE":0,"TOWNNAME":"永康區","LI":"龍潭里","LIN":"5鄰","STREET":"龍埔街","SECT":" ","MAREA":" ","LANE":" ","ALLEY":" ","HOUSE_NO":"８５號十樓之１１","E_COORD97":174620.94,"N_COORD97":2548225.75,"ADDRESS":"龍埔街８５號十樓之１１","OBJECTID":465135},"geometry":{"x":174620.94000000134,"y":2548225.75}},{"attributes":{"ID":465161,"DIS_CODE":0,"TOWNNAME":"永康區","LI":"龍潭里","LIN":"5鄰","STREET":"龍埔街","SECT":" ","MAREA":" ","LANE":" ","ALLEY":" ","HOUSE_NO":"８５號十一樓之９","E_COORD97":174621.03,"N_COORD97":2548225.75,"ADDRESS":"龍埔街８５號十一樓之９","OBJECTID":465136},"geometry":{"x":174621.03000000026,"y":2548225.75}},{"attributes":{"ID":465162,"DIS_CODE":0,"TOWNNAME":"永康區","LI":"龍潭里","LIN":"5鄰","STREET":"龍埔街","SECT":" ","MAREA":" ","LANE":" ","ALLEY":" ","HOUSE_NO":"８５號四樓之７","E_COORD97":174619.76999999999,"N_COORD97":2548225.75,"ADDRESS":"龍埔街８５號四樓之７","OBJECTID":465137},"geometry":{"x":174619.76999999955,"y":2548225.75}},{"attributes":{"ID":465163,"DIS_CODE":0,"TOWNNAME":"東區","LI":"東明里","LIN":"5鄰","STREET":"怡東路","SECT":" ","MAREA":" ","LANE":" ","ALLEY":" ","HOUSE_NO":"６８號五樓","E_COORD97":170857.45999999999,"N_COORD97":2543622.8399999999,"ADDRESS":"怡東路６８號五樓","OBJECTID":465138},"geometry":{"x":170857.45999999996,"y":2543622.8400000017}},{"attributes":{"ID":465164,"DIS_CODE":0,"TOWNNAME":"永康區","LI":"龍潭里","LIN":"5鄰","STREET":"龍埔街","SECT":" ","MAREA":" ","LANE":" ","ALLEY":" ","HOUSE_NO":"８５號五樓之８","E_COORD97":174619.84,"N_COORD97":2548225.75,"ADDRESS":"龍埔街８５號五樓之８","OBJECTID":465139},"geometry":{"x":174619.83999999985,"y":2548225.75}},{"attributes":{"ID":465165,"DIS_CODE":0,"TOWNNAME":"永康區","LI":"龍潭里","LIN":"5鄰","STREET":"龍埔街","SECT":" ","MAREA":" ","LANE":" ","ALLEY":" ","HOUSE_NO":"８５號十一樓之１１","E_COORD97":174622.19,"N_COORD97":2548225.75,"ADDRESS":"龍埔街８５號十一樓之１１","OBJECTID":465140},"geometry":{"x":174622.19000000134,"y":2548225.75}},{"attributes":{"ID":465166,"DIS_CODE":0,"TOWNNAME":"永康區","LI":"龍潭里","LIN":"5鄰","STREET":"龍埔街","SECT":" ","MAREA":" ","LANE":" ","ALLEY":" ","HOUSE_NO":"８５號十樓之２","E_COORD97":174619.82999999999,"N_COORD97":2548225.75,"ADDRESS":"龍埔街８５號十樓之２","OBJECTID":465141},"geometry":{"x":174619.83000000007,"y":2548225.75}},{"attributes":{"ID":465167,"DIS_CODE":0,"TOWNNAME":"永康區","LI":"龍潭里","LIN":"5鄰","STREET":"龍埔街","SECT":" ","MAREA":" ","LANE":" ","ALLEY":" ","HOUSE_NO":"８５號四樓之１０","E_COORD97":174620.98999999999,"N_COORD97":2548225.75,"ADDRESS":"龍埔街８５號四樓之１０","OBJECTID":465142},"geometry":{"x":174620.99000000022,"y":2548225.75}},{"attributes":{"ID":465168,"DIS_CODE":0,"TOWNNAME":"永康區","LI":"龍潭里","LIN":"5鄰","STREET":"龍埔街","SECT":" ","MAREA":" ","LANE":" ","ALLEY":" ","HOUSE_NO":"８５號五樓之１２","E_COORD97":174621.07999999999,"N_COORD97":2548225.75,"ADDRESS":"龍埔街８５號五樓之１２","OBJECTID":465143},"geometry":{"x":174621.08000000101,"y":2548225.75}},{"attributes":{"ID":465169,"DIS_CODE":0,"TOWNNAME":"永康區","LI":"龍潭里","LIN":"5鄰","STREET":"龍埔街","SECT":" ","MAREA":" ","LANE":" ","ALLEY":" ","HOUSE_NO":"８５號六樓之１５","E_COORD97":174621.10000000001,"N_COORD97":2548225.75,"ADDRESS":"龍埔街８５號六樓之１５","OBJECTID":465144},"geometry":{"x":174621.09999999963,"y":2548225.75}},{"attributes":{"ID":465170,"DIS_CODE":0,"TOWNNAME":"永康區","LI":"龍潭里","LIN":"5鄰","STREET":"龍埔街","SECT":" ","MAREA":" ","LANE":" ","ALLEY":" ","HOUSE_NO":"８５號四樓之１５","E_COORD97":174621.10000000001,"N_COORD97":2548225.75,"ADDRESS":"龍埔街８５號四樓之１５","OBJECTID":465145},"geometry":{"x":174621.09999999963,"y":2548225.75}},{"attributes":{"ID":465171,"DIS_CODE":0,"TOWNNAME":"永康區","LI":"龍潭里","LIN":"5鄰","STREET":"龍埔街","SECT":" ","MAREA":" ","LANE":" ","ALLEY":" ","HOUSE_NO":"８５號六樓之５","E_COORD97":174619.85000000001,"N_COORD97":2548225.75,"ADDRESS":"龍埔街８５號六樓之５","OBJECTID":465146},"geometry":{"x":174619.84999999963,"y":2548225.75}},{"attributes":{"ID":465172,"DIS_CODE":0,"TOWNNAME":"永康區","LI":"龍潭里","LIN":"5鄰","STREET":"龍埔街","SECT":" ","MAREA":" ","LANE":" ","ALLEY":" ","HOUSE_NO":"８５號六樓之６","E_COORD97":174619.79999999999,"N_COORD97":2548225.75,"ADDRESS":"龍埔街８５號六樓之６","OBJECTID":465147},"geometry":{"x":174619.79999999981,"y":2548225.75}},{"attributes":{"ID":465173,"DIS_CODE":0,"TOWNNAME":"永康區","LI":"龍潭里","LIN":"5鄰","STREET":"龍埔街","SECT":" ","MAREA":" ","LANE":" ","ALLEY":" ","HOUSE_NO":"８５號五樓之５","E_COORD97":174619.85000000001,"N_COORD97":2548225.75,"ADDRESS":"龍埔街８５號五樓之５","OBJECTID":465148},"geometry":{"x":174619.84999999963,"y":2548225.75}},{"attributes":{"ID":465174,"DIS_CODE":0,"TOWNNAME":"永康區","LI":"龍潭里","LIN":"5鄰","STREET":"龍埔街","SECT":" ","MAREA":" ","LANE":" ","ALLEY":" ","HOUSE_NO":"８５號四樓之９","E_COORD97":174619.78,"N_COORD97":2548225.75,"ADDRESS":"龍埔街８５號四樓之９","OBJECTID":465149},"geometry":{"x":174619.78000000119,"y":2548225.75}},{"attributes":{"ID":465175,"DIS_CODE":0,"TOWNNAME":"永康區","LI":"龍潭里","LIN":"5鄰","STREET":"龍埔街","SECT":" ","MAREA":" ","LANE":" ","ALLEY":" ","HOUSE_NO":"８５號五樓之７","E_COORD97":174619.76999999999,"N_COORD97":2548225.75,"ADDRESS":"龍埔街８５號五樓之７","OBJECTID":465150},"geometry":{"x":174619.76999999955,"y":2548225.75}},{"attributes":{"ID":465176,"DIS_CODE":0,"TOWNNAME":"永康區","LI":"龍潭里","LIN":"5鄰","STREET":"龍埔街","SECT":" ","MAREA":" ","LANE":" ","ALLEY":" ","HOUSE_NO":"８５號五樓之６","E_COORD97":174619.79999999999,"N_COORD97":2548225.75,"ADDRESS":"龍埔街８５號五樓之６","OBJECTID":465151},"geometry":{"x":174619.79999999981,"y":2548225.75}},{"attributes":{"ID":465177,"DIS_CODE":0,"TOWNNAME":"永康區","LI":"龍潭里","LIN":"5鄰","STREET":"龍埔街","SECT":" ","MAREA":" ","LANE":" ","ALLEY":" ","HOUSE_NO":"８５號十二樓之５","E_COORD97":174621.10000000001,"N_COORD97":2548225.75,"ADDRESS":"龍埔街８５號十二樓之５","OBJECTID":465152},"geometry":{"x":174621.09999999963,"y":2548225.75}},{"attributes":{"ID":465178,"DIS_CODE":0,"TOWNNAME":"永康區","LI":"龍潭里","LIN":"5鄰","STREET":"龍埔街","SECT":" ","MAREA":" ","LANE":" ","ALLEY":" ","HOUSE_NO":"８５號四樓之８","E_COORD97":174619.84,"N_COORD97":2548225.75,"ADDRESS":"龍埔街８５號四樓之８","OBJECTID":465153},"geometry":{"x":174619.83999999985,"y":2548225.75}},{"attributes":{"ID":465179,"DIS_CODE":0,"TOWNNAME":"永康區","LI":"龍潭里","LIN":"5鄰","STREET":"龍埔街","SECT":" ","MAREA":" ","LANE":" ","ALLEY":" ","HOUSE_NO":"８５號四樓之５","E_COORD97":174619.85000000001,"N_COORD97":2548225.75,"ADDRESS":"龍埔街８５號四樓之５","OBJECTID":465154},"geometry":{"x":174619.84999999963,"y":2548225.75}},{"attributes":{"ID":465180,"DIS_CODE":0,"TOWNNAME":"永康區","LI":"龍潭里","LIN":"5鄰","STREET":"龍埔街","SECT":" ","MAREA":" ","LANE":" ","ALLEY":" ","HOUSE_NO":"８５號六樓之１３","E_COORD97":174621.04000000001,"N_COORD97":2548225.75,"ADDRESS":"龍埔街８５號六樓之１３","OBJECTID":465155},"geometry":{"x":174621.04000000097,"y":2548225.75}},{"attributes":{"ID":465181,"DIS_CODE":0,"TOWNNAME":"永康區","LI":"龍潭里","LIN":"5鄰","STREET":"龍埔街","SECT":" ","MAREA":" ","LANE":" ","ALLEY":" ","HOUSE_NO":"８５號六樓之７","E_COORD97":174619.76999999999,"N_COORD97":2548225.75,"ADDRESS":"龍埔街８５號六樓之７","OBJECTID":465156},"geometry":{"x":174619.76999999955,"y":2548225.75}},{"attributes":{"ID":465182,"DIS_CODE":0,"TOWNNAME":"永康區","LI":"龍潭里","LIN":"5鄰","STREET":"龍埔街","SECT":" ","MAREA":" ","LANE":" ","ALLEY":" ","HOUSE_NO":"８５號九樓之９","E_COORD97":174619.78,"N_COORD97":2548225.75,"ADDRESS":"龍埔街８５號九樓之９","OBJECTID":465157},"geometry":{"x":174619.78000000119,"y":2548225.75}},{"attributes":{"ID":465183,"DIS_CODE":0,"TOWNNAME":"永康區","LI":"龍潭里","LIN":"5鄰","STREET":"龍埔街","SECT":" ","MAREA":" ","LANE":" ","ALLEY":" ","HOUSE_NO":"８５號四樓之２","E_COORD97":174619.82999999999,"N_COORD97":2548225.75,"ADDRESS":"龍埔街８５號四樓之２","OBJECTID":465158},"geometry":{"x":174619.83000000007,"y":2548225.75}},{"attributes":{"ID":465184,"DIS_CODE":0,"TOWNNAME":"永康區","LI":"龍潭里","LIN":"5鄰","STREET":"龍埔街","SECT":" ","MAREA":" ","LANE":" ","ALLEY":" ","HOUSE_NO":"８５號六樓之１０","E_COORD97":174620.98999999999,"N_COORD97":2548225.75,"ADDRESS":"龍埔街８５號六樓之１０","OBJECTID":465159},"geometry":{"x":174620.99000000022,"y":2548225.75}},{"attributes":{"ID":465185,"DIS_CODE":0,"TOWNNAME":"永康區","LI":"龍潭里","LIN":"5鄰","STREET":"龍埔街","SECT":" ","MAREA":" ","LANE":" ","ALLEY":" ","HOUSE_NO":"８５號四樓之１３","E_COORD97":174621.04000000001,"N_COORD97":2548225.75,"ADDRESS":"龍埔街８５號四樓之１３","OBJECTID":465160},"geometry":{"x":174621.04000000097,"y":2548225.75}},{"attributes":{"ID":465186,"DIS_CODE":0,"TOWNNAME":"永康區","LI":"龍潭里","LIN":"5鄰","STREET":"龍埔街","SECT":" ","MAREA":" ","LANE":" ","ALLEY":" ","HOUSE_NO":"８５號六樓之１２","E_COORD97":174621.07999999999,"N_COORD97":2548225.75,"ADDRESS":"龍埔街８５號六樓之１２","OBJECTID":465161},"geometry":{"x":174621.08000000101,"y":2548225.75}},{"attributes":{"ID":465187,"DIS_CODE":0,"TOWNNAME":"永康區","LI":"龍潭里","LIN":"5鄰","STREET":"龍埔街","SECT":" ","MAREA":" ","LANE":" ","ALLEY":" ","HOUSE_NO":"８５號八樓之１５","E_COORD97":174621.10000000001,"N_COORD97":2548225.75,"ADDRESS":"龍埔街８５號八樓之１５","OBJECTID":465162},"geometry":{"x":174621.09999999963,"y":2548225.75}},{"attributes":{"ID":465188,"DIS_CODE":0,"TOWNNAME":"永康區","LI":"龍潭里","LIN":"5鄰","STREET":"龍埔街","SECT":" ","MAREA":" ","LANE":" ","ALLEY":" ","HOUSE_NO":"８５號八樓之３","E_COORD97":174619.79000000001,"N_COORD97":2548225.75,"ADDRESS":"龍埔街８５號八樓之３","OBJECTID":465163},"geometry":{"x":174619.79000000097,"y":2548225.75}},{"attributes":{"ID":465189,"DIS_CODE":0,"TOWNNAME":"永康區","LI":"龍潭里","LIN":"5鄰","STREET":"龍埔街","SECT":" ","MAREA":" ","LANE":" ","ALLEY":" ","HOUSE_NO":"８５號五樓之３","E_COORD97":174619.79000000001,"N_COORD97":2548225.75,"ADDRESS":"龍埔街８５號五樓之３","OBJECTID":465164},"geometry":{"x":174619.79000000097,"y":2548225.75}},{"attributes":{"ID":465190,"DIS_CODE":0,"TOWNNAME":"仁德區","LI":"成功里","LIN":"5鄰","STREET":"成功三街","SECT":" ","MAREA":" ","LANE":" ","ALLEY":" ","HOUSE_NO":"３４號二樓","E_COORD97":171166.04000000001,"N_COORD97":2539953.0099999998,"ADDRESS":"成功三街３４號二樓","OBJECTID":465165},"geometry":{"x":171166.0400000019,"y":2539953.0100000016}},{"attributes":{"ID":465191,"DIS_CODE":0,"TOWNNAME":"東區","LI":"東明里","LIN":"5鄰","STREET":"怡東路","SECT":" ","MAREA":" ","LANE":" ","ALLEY":" ","HOUSE_NO":"６６號二樓","E_COORD97":170856.35000000001,"N_COORD97":2543616.1499999999,"ADDRESS":"怡東路６６號二樓","OBJECTID":465166},"geometry":{"x":170856.34999999963,"y":2543616.1500000004}},{"attributes":{"ID":465192,"DIS_CODE":0,"TOWNNAME":"東區","LI":"東明里","LIN":"5鄰","STREET":"怡東路","SECT":" ","MAREA":" ","LANE":" ","ALLEY":" ","HOUSE_NO":"６６號三樓","E_COORD97":170856.35000000001,"N_COORD97":2543616.1499999999,"ADDRESS":"怡東路６６號三樓","OBJECTID":465167},"geometry":{"x":170856.34999999963,"y":2543616.1500000004}},{"attributes":{"ID":465193,"DIS_CODE":0,"TOWNNAME":"東區","LI":"東明里","LIN":"5鄰","STREET":"怡東路","SECT":" ","MAREA":" ","LANE":" ","ALLEY":" ","HOUSE_NO":"６６號五樓","E_COORD97":170856.35000000001,"N_COORD97":2543616.1499999999,"ADDRESS":"怡東路６６號五樓","OBJECTID":465168},"geometry":{"x":170856.34999999963,"y":2543616.1500000004}},{"attributes":{"ID":465194,"DIS_CODE":0,"TOWNNAME":"東區","LI":"東明里","LIN":"5鄰","STREET":"怡東路","SECT":" ","MAREA":" ","LANE":" ","ALLEY":" ","HOUSE_NO":"６６號四樓","E_COORD97":170856.35000000001,"N_COORD97":2543616.1499999999,"ADDRESS":"怡東路６６號四樓","OBJECTID":465169},"geometry":{"x":170856.34999999963,"y":2543616.1500000004}},{"attributes":{"ID":465195,"DIS_CODE":0,"TOWNNAME":"東區","LI":"東明里","LIN":"5鄰","STREET":"怡東路","SECT":" ","MAREA":" ","LANE":" ","ALLEY":" ","HOUSE_NO":"６８號二樓","E_COORD97":170857.45999999999,"N_COORD97":2543622.8399999999,"ADDRESS":"怡東路６８號二樓","OBJECTID":465170},"geometry":{"x":170857.45999999996,"y":2543622.8400000017}},{"attributes":{"ID":465196,"DIS_CODE":0,"TOWNNAME":"東區","LI":"東明里","LIN":"5鄰","STREET":"怡東路","SECT":" ","MAREA":" ","LANE":" ","ALLEY":" ","HOUSE_NO":"６８號三樓","E_COORD97":170857.45999999999,"N_COORD97":2543622.8399999999,"ADDRESS":"怡東路６８號三樓","OBJECTID":465171},"geometry":{"x":170857.45999999996,"y":2543622.8400000017}},{"attributes":{"ID":465197,"DIS_CODE":0,"TOWNNAME":"東區","LI":"東明里","LIN":"5鄰","STREET":"怡東路","SECT":" ","MAREA":" ","LANE":" ","ALLEY":" ","HOUSE_NO":"６８號四樓","E_COORD97":170857.45999999999,"N_COORD97":2543622.8399999999,"ADDRESS":"怡東路６８號四樓","OBJECTID":465172},"geometry":{"x":170857.45999999996,"y":2543622.8400000017}},{"attributes":{"ID":465198,"DIS_CODE":0,"TOWNNAME":"東區","LI":"東明里","LIN":"5鄰","STREET":"怡東路","SECT":" ","MAREA":" ","LANE":" ","ALLEY":" ","HOUSE_NO":"７０號二樓","E_COORD97":170860.25,"N_COORD97":2543630.0699999998,"ADDRESS":"怡東路７０號二樓","OBJECTID":465173},"geometry":{"x":170860.25000000093,"y":2543630.0700000003}},{"attributes":{"ID":465199,"DIS_CODE":0,"TOWNNAME":"東區","LI":"東明里","LIN":"5鄰","STREET":"怡東路","SECT":" ","MAREA":" ","LANE":" ","ALLEY":" ","HOUSE_NO":"７０號五樓","E_COORD97":170860.25,"N_COORD97":2543630.0699999998,"ADDRESS":"怡東路７０號五樓","OBJECTID":465174},"geometry":{"x":170860.25000000093,"y":2543630.0700000003}},{"attributes":{"ID":465200,"DIS_CODE":0,"TOWNNAME":"東區","LI":"東明里","LIN":"5鄰","STREET":"怡東路","SECT":" ","MAREA":" ","LANE":" ","ALLEY":" ","HOUSE_NO":"７０號四樓","E_COORD97":170860.25,"N_COORD97":2543630.0699999998,"ADDRESS":"怡東路７０號四樓","OBJECTID":465175},"geometry":{"x":170860.25000000093,"y":2543630.0700000003}},{"attributes":{"ID":465201,"DIS_CODE":0,"TOWNNAME":"永康區","LI":"勝利里","LIN":"18鄰","STREET":"中華一路","SECT":" ","MAREA":" ","LANE":" ","ALLEY":" ","HOUSE_NO":"３４６號","E_COORD97":171140.35000000001,"N_COORD97":2545006.7400000002,"ADDRESS":"中華一路３４６號","OBJECTID":465176},"geometry":{"x":171140.35000000056,"y":2545006.7400000021}},{"attributes":{"ID":465202,"DIS_CODE":0,"TOWNNAME":"永康區","LI":"埔園里","LIN":"14鄰","STREET":"中山路","SECT":" ","MAREA":" ","LANE":" ","ALLEY":" ","HOUSE_NO":"２６７號","E_COORD97":173641.06,"N_COORD97":2548220.9900000002,"ADDRESS":"中山路２６７號","OBJECTID":465177},"geometry":{"x":173641.06000000052,"y":2548220.9900000002}},{"attributes":{"ID":465203,"DIS_CODE":0,"TOWNNAME":"永康區","LI":"龍潭里","LIN":"5鄰","STREET":"龍埔街","SECT":" ","MAREA":" ","LANE":" ","ALLEY":" ","HOUSE_NO":"８５號九樓之１","E_COORD97":174619.69,"N_COORD97":2548225.75,"ADDRESS":"龍埔街８５號九樓之１","OBJECTID":465178},"geometry":{"x":174619.69000000041,"y":2548225.75}},{"attributes":{"ID":465204,"DIS_CODE":0,"TOWNNAME":"善化區","LI":"西關里","LIN":"5鄰","STREET":"三民路","SECT":" ","MAREA":" ","LANE":" ","ALLEY":" ","HOUSE_NO":"７６號二樓","E_COORD97":177128.47,"N_COORD97":2559137.5099999998,"ADDRESS":"三民路７６號二樓","OBJECTID":465179},"geometry":{"x":177128.47000000067,"y":2559137.5099999998}},{"attributes":{"ID":465205,"DIS_CODE":0,"TOWNNAME":"永康區","LI":"大灣里","LIN":" ","STREET":"大灣路","SECT":" ","MAREA":" ","LANE":" ","ALLEY":" ","HOUSE_NO":"２３０之８號","E_COORD97":173399.89999999999,"N_COORD97":2545183.1600000001,"ADDRESS":"大灣路２３０之８號","OBJECTID":465180},"geometry":{"x":173399.90000000224,"y":2545183.160000002}},{"attributes":{"ID":465206,"DIS_CODE":0,"TOWNNAME":"麻豆區","LI":"新建里","LIN":"5鄰","STREET":"中山路","SECT":" ","MAREA":" ","LANE":" ","ALLEY":" ","HOUSE_NO":"１５９號之１一樓","E_COORD97":172564.35999999999,"N_COORD97":2564801.3900000001,"ADDRESS":"中山路１５９號之１一樓","OBJECTID":465181},"geometry":{"x":172564.3599999994,"y":2564801.3900000006}},{"attributes":{"ID":465207,"DIS_CODE":0,"TOWNNAME":"麻豆區","LI":"新建里","LIN":"5鄰","STREET":"中山路","SECT":" ","MAREA":" ","LANE":" ","ALLEY":" ","HOUSE_NO":"１５９號之１二樓","E_COORD97":172564.35999999999,"N_COORD97":2564801.3900000001,"ADDRESS":"中山路１５９號之１二樓","OBJECTID":465182},"geometry":{"x":172564.3599999994,"y":2564801.3900000006}},{"attributes":{"ID":465208,"DIS_CODE":0,"TOWNNAME":"麻豆區","LI":"新建里","LIN":"5鄰","STREET":"中山路","SECT":" ","MAREA":" ","LANE":" ","ALLEY":" ","HOUSE_NO":"１５９號之１三樓","E_COORD97":172564.35999999999,"N_COORD97":2564801.3900000001,"ADDRESS":"中山路１５９號之１三樓","OBJECTID":465183},"geometry":{"x":172564.3599999994,"y":2564801.3900000006}},{"attributes":{"ID":465209,"DIS_CODE":0,"TOWNNAME":"麻豆區","LI":"新建里","LIN":"5鄰","STREET":"中山路","SECT":" ","MAREA":" ","LANE":" ","ALLEY":" ","HOUSE_NO":"１６３號二樓","E_COORD97":172554.32999999999,"N_COORD97":2564841.1200000001,"ADDRESS":"中山路１６３號二樓","OBJECTID":465184},"geometry":{"x":172554.33000000194,"y":2564841.120000001}},{"attributes":{"ID":465210,"DIS_CODE":0,"TOWNNAME":"麻豆區","LI":"新建里","LIN":"5鄰","STREET":"中山路","SECT":" ","MAREA":" ","LANE":" ","ALLEY":" ","HOUSE_NO":"１６３號三樓","E_COORD97":172554.32999999999,"N_COORD97":2564841.1200000001,"ADDRESS":"中山路１６３號三樓","OBJECTID":465185},"geometry":{"x":172554.33000000194,"y":2564841.120000001}},{"attributes":{"ID":465211,"DIS_CODE":0,"TOWNNAME":"麻豆區","LI":"新建里","LIN":"5鄰","STREET":"中山路","SECT":" ","MAREA":" ","LANE":" ","ALLEY":" ","HOUSE_NO":"１６３號五樓","E_COORD97":172554.32999999999,"N_COORD97":2564841.1200000001,"ADDRESS":"中山路１６３號五樓","OBJECTID":465186},"geometry":{"x":172554.33000000194,"y":2564841.120000001}},{"attributes":{"ID":465212,"DIS_CODE":0,"TOWNNAME":"麻豆區","LI":"新建里","LIN":"5鄰","STREET":"中山路","SECT":" ","MAREA":" ","LANE":" ","ALLEY":" ","HOUSE_NO":"１６３號四樓","E_COORD97":172554.32999999999,"N_COORD97":2564841.1200000001,"ADDRESS":"中山路１６３號四樓","OBJECTID":465187},"geometry":{"x":172554.33000000194,"y":2564841.120000001}},{"attributes":{"ID":465213,"DIS_CODE":0,"TOWNNAME":"中西區","LI":"五妃里","LIN":"5鄰","STREET":"慶中街","SECT":" ","MAREA":" ","LANE":" ","ALLEY":" ","HOUSE_NO":"１０６號一樓","E_COORD97":168566.82000000001,"N_COORD97":2542668.3300000001,"ADDRESS":"慶中街１０６號一樓","OBJECTID":465188},"geometry":{"x":168566.8200000003,"y":2542668.3300000001}},{"attributes":{"ID":465214,"DIS_CODE":0,"TOWNNAME":"中西區","LI":"五妃里","LIN":"5鄰","STREET":"慶中街","SECT":" ","MAREA":" ","LANE":" ","ALLEY":" ","HOUSE_NO":"１０６號三樓","E_COORD97":168566.82000000001,"N_COORD97":2542668.3300000001,"ADDRESS":"慶中街１０６號三樓","OBJECTID":465189},"geometry":{"x":168566.8200000003,"y":2542668.3300000001}},{"attributes":{"ID":465215,"DIS_CODE":0,"TOWNNAME":"中西區","LI":"五妃里","LIN":"5鄰","STREET":"慶中街","SECT":" ","MAREA":" ","LANE":" ","ALLEY":" ","HOUSE_NO":"１０６號四樓","E_COORD97":168566.82000000001,"N_COORD97":2542668.3300000001,"ADDRESS":"慶中街１０６號四樓","OBJECTID":465190},"geometry":{"x":168566.8200000003,"y":2542668.3300000001}},{"attributes":{"ID":465216,"DIS_CODE":0,"TOWNNAME":"中西區","LI":"五妃里","LIN":"5鄰","STREET":"慶中街","SECT":" ","MAREA":" ","LANE":" ","ALLEY":" ","HOUSE_NO":"６２號一樓","E_COORD97":168550.98000000001,"N_COORD97":2542597.79,"ADDRESS":"慶中街６２號一樓","OBJECTID":465191},"geometry":{"x":168550.98000000045,"y":2542597.790000001}},{"attributes":{"ID":465217,"DIS_CODE":0,"TOWNNAME":"中西區","LI":"五妃里","LIN":"5鄰","STREET":"慶中街","SECT":" ","MAREA":" ","LANE":" ","ALLEY":" ","HOUSE_NO":"６２號二樓","E_COORD97":168554.69,"N_COORD97":2542595.3700000001,"ADDRESS":"慶中街６２號二樓","OBJECTID":465192},"geometry":{"x":168554.69000000041,"y":2542595.3700000048}},{"attributes":{"ID":465218,"DIS_CODE":0,"TOWNNAME":"中西區","LI":"五妃里","LIN":"5鄰","STREET":"慶中街","SECT":" ","MAREA":" ","LANE":" ","ALLEY":" ","HOUSE_NO":"６２號三樓之１","E_COORD97":168554.69,"N_COORD97":2542595.3700000001,"ADDRESS":"慶中街６２號三樓之１","OBJECTID":465193},"geometry":{"x":168554.69000000041,"y":2542595.3700000048}},{"attributes":{"ID":465219,"DIS_CODE":0,"TOWNNAME":"中西區","LI":"五妃里","LIN":"5鄰","STREET":"慶中街","SECT":" ","MAREA":" ","LANE":" ","ALLEY":" ","HOUSE_NO":"６２號三樓之２","E_COORD97":168554.69,"N_COORD97":2542595.3700000001,"ADDRESS":"慶中街６２號三樓之２","OBJECTID":465194},"geometry":{"x":168554.69000000041,"y":2542595.3700000048}},{"attributes":{"ID":465220,"DIS_CODE":0,"TOWNNAME":"中西區","LI":"五妃里","LIN":"5鄰","STREET":"慶中街","SECT":" ","MAREA":" ","LANE":" ","ALLEY":" ","HOUSE_NO":"６２號五樓之１","E_COORD97":168554.69,"N_COORD97":2542595.3700000001,"ADDRESS":"慶中街６２號五樓之１","OBJECTID":465195},"geometry":{"x":168554.69000000041,"y":2542595.3700000048}},{"attributes":{"ID":465221,"DIS_CODE":0,"TOWNNAME":"中西區","LI":"五妃里","LIN":"5鄰","STREET":"慶中街","SECT":" ","MAREA":" ","LANE":" ","ALLEY":" ","HOUSE_NO":"６２號五樓之２","E_COORD97":168554.69,"N_COORD97":2542595.3700000001,"ADDRESS":"慶中街６２號五樓之２","OBJECTID":465196},"geometry":{"x":168554.69000000041,"y":2542595.3700000048}},{"attributes":{"ID":465222,"DIS_CODE":0,"TOWNNAME":"中西區","LI":"五妃里","LIN":"5鄰","STREET":"慶中街","SECT":" ","MAREA":" ","LANE":" ","ALLEY":" ","HOUSE_NO":"６２號四樓之１","E_COORD97":168554.69,"N_COORD97":2542595.3700000001,"ADDRESS":"慶中街６２號四樓之１","OBJECTID":465197},"geometry":{"x":168554.69000000041,"y":2542595.3700000048}},{"attributes":{"ID":465223,"DIS_CODE":0,"TOWNNAME":"中西區","LI":"五妃里","LIN":"5鄰","STREET":"慶中街","SECT":" ","MAREA":" ","LANE":" ","ALLEY":" ","HOUSE_NO":"６２號四樓之２","E_COORD97":168554.69,"N_COORD97":2542595.3700000001,"ADDRESS":"慶中街６２號四樓之２","OBJECTID":465198},"geometry":{"x":168554.69000000041,"y":2542595.3700000048}},{"attributes":{"ID":465224,"DIS_CODE":0,"TOWNNAME":"中西區","LI":"五妃里","LIN":"5鄰","STREET":"慶中街","SECT":" ","MAREA":" ","LANE":" ","ALLEY":" ","HOUSE_NO":"７２號一樓","E_COORD97":168571.67000000001,"N_COORD97":2542619.98,"ADDRESS":"慶中街７２號一樓","OBJECTID":465199},"geometry":{"x":168571.67000000086,"y":2542619.9800000004}},{"attributes":{"ID":465225,"DIS_CODE":0,"TOWNNAME":"中西區","LI":"五妃里","LIN":"5鄰","STREET":"慶中街","SECT":" ","MAREA":" ","LANE":" ","ALLEY":" ","HOUSE_NO":"７２號二樓","E_COORD97":168571.67000000001,"N_COORD97":2542619.98,"ADDRESS":"慶中街７２號二樓","OBJECTID":465200},"geometry":{"x":168571.67000000086,"y":2542619.9800000004}}]}