{"displayFieldName":"TOWNNAME","fieldAliases":{"ID":"ID","DIS_CODE":"DIS_CODE","TOWNNAME":"TOWNNAME","LI":"LI","LIN":"LIN","STREET":"STREET","SECT":"SECT","MAREA":"MAREA","LANE":"LANE","ALLEY":"ALLEY","HOUSE_NO":"HOUSE_NO","E_COORD97":"E_COORD97","N_COORD97":"N_COORD97","ADDRESS":"ADDRESS","OBJECTID":"OBJECTID"},"geometryType":"esriGeometryPoint","spatialReference":{"wkid":102443,"latestWkid":3826},"fields":[{"name":"ID","type":"esriFieldTypeDouble","alias":"ID"},{"name":"DIS_CODE","type":"esriFieldTypeInteger","alias":"DIS_CODE"},{"name":"TOWNNAME","type":"esriFieldTypeString","alias":"TOWNNAME","length":8},{"name":"LI","type":"esriFieldTypeString","alias":"LI","length":8},{"name":"LIN","type":"esriFieldTypeString","alias":"LIN","length":12},{"name":"STREET","type":"esriFieldTypeString","alias":"STREET","length":20},{"name":"SECT","type":"esriFieldTypeString","alias":"SECT","length":8},{"name":"MAREA","type":"esriFieldTypeString","alias":"MAREA","length":12},{"name":"LANE","type":"esriFieldTypeString","alias":"LANE","length":10},{"name":"ALLEY","type":"esriFieldTypeString","alias":"ALLEY","length":10},{"name":"HOUSE_NO","type":"esriFieldTypeString","alias":"HOUSE_NO","length":20},{"name":"E_COORD97","type":"esriFieldTypeDouble","alias":"E_COORD97"},{"name":"N_COORD97","type":"esriFieldTypeDouble","alias":"N_COORD97"},{"name":"ADDRESS","type":"esriFieldTypeString","alias":"ADDRESS","length":50},{"name":"OBJECTID","type":"esriFieldTypeOID","alias":"OBJECTID"}],"features":[{"attributes":{"ID":354810,"DIS_CODE":0,"TOWNNAME":"東區","LI":"中西里","LIN":"8鄰","STREET":"勝利路","SECT":" ","MAREA":" ","LANE":" ","ALLEY":" ","HOUSE_NO":"５０號六樓之１６","E_COORD97":169830.25,"N_COORD97":2543536.9100000001,"ADDRESS":"勝利路５０號六樓之１６","OBJECTID":354801},"geometry":{"x":169830.25,"y":2543536.9100000039}},{"attributes":{"ID":354811,"DIS_CODE":0,"TOWNNAME":"東區","LI":"中西里","LIN":"8鄰","STREET":"勝利路","SECT":" ","MAREA":" ","LANE":" ","ALLEY":" ","HOUSE_NO":"５０號六樓之１７","E_COORD97":169830.25,"N_COORD97":2543536.9100000001,"ADDRESS":"勝利路５０號六樓之１７","OBJECTID":354802},"geometry":{"x":169830.25,"y":2543536.9100000039}},{"attributes":{"ID":354812,"DIS_CODE":0,"TOWNNAME":"東區","LI":"中西里","LIN":"8鄰","STREET":"勝利路","SECT":" ","MAREA":" ","LANE":" ","ALLEY":" ","HOUSE_NO":"５０號七樓之１","E_COORD97":169830.25,"N_COORD97":2543536.9100000001,"ADDRESS":"勝利路５０號七樓之１","OBJECTID":354803},"geometry":{"x":169830.25,"y":2543536.9100000039}},{"attributes":{"ID":354813,"DIS_CODE":0,"TOWNNAME":"東區","LI":"中西里","LIN":"8鄰","STREET":"勝利路","SECT":" ","MAREA":" ","LANE":" ","ALLEY":" ","HOUSE_NO":"５０號七樓之２","E_COORD97":169830.25,"N_COORD97":2543536.9100000001,"ADDRESS":"勝利路５０號七樓之２","OBJECTID":354804},"geometry":{"x":169830.25,"y":2543536.9100000039}},{"attributes":{"ID":354814,"DIS_CODE":0,"TOWNNAME":"永康區","LI":"安康里","LIN":"6鄰","STREET":"中華西街","SECT":" ","MAREA":" ","LANE":"１９６巷","ALLEY":" ","HOUSE_NO":"２２號","E_COORD97":170698.76000000001,"N_COORD97":2546385,"ADDRESS":"中華西街１９６巷２２號","OBJECTID":354805},"geometry":{"x":170698.76000000071,"y":2546385.0000000019}},{"attributes":{"ID":354815,"DIS_CODE":0,"TOWNNAME":"永康區","LI":"尚頂里","LIN":"6鄰","STREET":"中正二街","SECT":" ","MAREA":" ","LANE":"９６巷","ALLEY":" ","HOUSE_NO":"６號","E_COORD97":171064.63,"N_COORD97":2547482.7200000002,"ADDRESS":"中正二街９６巷６號","OBJECTID":354806},"geometry":{"x":171064.62999999989,"y":2547482.7200000025}},{"attributes":{"ID":354816,"DIS_CODE":0,"TOWNNAME":"永康區","LI":"\u25A0行里","LIN":"6鄰","STREET":"新行街","SECT":" ","MAREA":" ","LANE":"２１巷","ALLEY":" ","HOUSE_NO":"２號","E_COORD97":172211.98999999999,"N_COORD97":2548797.4700000002,"ADDRESS":"新行街２１巷２號","OBJECTID":354807},"geometry":{"x":172211.99000000022,"y":2548797.4700000007}},{"attributes":{"ID":354817,"DIS_CODE":0,"TOWNNAME":"永康區","LI":"\u25A0行里","LIN":"6鄰","STREET":"新行街","SECT":" ","MAREA":" ","LANE":"３３巷","ALLEY":" ","HOUSE_NO":"１５號","E_COORD97":172213.14000000001,"N_COORD97":2548834.3900000001,"ADDRESS":"新行街３３巷１５號","OBJECTID":354808},"geometry":{"x":172213.1400000006,"y":2548834.3900000025}},{"attributes":{"ID":354818,"DIS_CODE":0,"TOWNNAME":"永康區","LI":"\u25A0行里","LIN":"6鄰","STREET":"新行街","SECT":" ","MAREA":" ","LANE":"３３巷","ALLEY":" ","HOUSE_NO":"２２號","E_COORD97":172225.92999999999,"N_COORD97":2548873.3799999999,"ADDRESS":"新行街３３巷２２號","OBJECTID":354809},"geometry":{"x":172225.93000000156,"y":2548873.3800000008}},{"attributes":{"ID":354819,"DIS_CODE":0,"TOWNNAME":"永康區","LI":"\u25A0行里","LIN":"6鄰","STREET":"新行街","SECT":" ","MAREA":" ","LANE":"２１巷","ALLEY":" ","HOUSE_NO":"８號","E_COORD97":172202.14999999999,"N_COORD97":2548804.9700000002,"ADDRESS":"新行街２１巷８號","OBJECTID":354810},"geometry":{"x":172202.1500000013,"y":2548804.9700000007}},{"attributes":{"ID":354820,"DIS_CODE":0,"TOWNNAME":"中西區","LI":"三民里","LIN":"6鄰","STREET":"民權路","SECT":"二段","MAREA":" ","LANE":"８３巷","ALLEY":" ","HOUSE_NO":"１１號","E_COORD97":168468.97,"N_COORD97":2543848.5299999998,"ADDRESS":"民權路二段８３巷１１號","OBJECTID":354811},"geometry":{"x":168468.96999999974,"y":2543848.5300000012}},{"attributes":{"ID":354821,"DIS_CODE":0,"TOWNNAME":"中西區","LI":"三民里","LIN":"6鄰","STREET":"民權路","SECT":"二段","MAREA":" ","LANE":"８３巷","ALLEY":" ","HOUSE_NO":"１３號","E_COORD97":168465.60000000001,"N_COORD97":2543841.4500000002,"ADDRESS":"民權路二段８３巷１３號","OBJECTID":354812},"geometry":{"x":168465.60000000056,"y":2543841.4500000011}},{"attributes":{"ID":354822,"DIS_CODE":0,"TOWNNAME":"中西區","LI":"三民里","LIN":"6鄰","STREET":"民權路","SECT":"二段","MAREA":" ","LANE":"８３巷","ALLEY":" ","HOUSE_NO":"１５號","E_COORD97":168470.38,"N_COORD97":2543838.0600000001,"ADDRESS":"民權路二段８３巷１５號","OBJECTID":354813},"geometry":{"x":168470.38000000082,"y":2543838.0600000042}},{"attributes":{"ID":354823,"DIS_CODE":0,"TOWNNAME":"中西區","LI":"三民里","LIN":"6鄰","STREET":"民權路","SECT":"二段","MAREA":" ","LANE":"８３巷","ALLEY":" ","HOUSE_NO":"１號","E_COORD97":168478.37,"N_COORD97":2543874.2999999998,"ADDRESS":"民權路二段８３巷１號","OBJECTID":354814},"geometry":{"x":168478.37000000011,"y":2543874.3000000026}},{"attributes":{"ID":354824,"DIS_CODE":0,"TOWNNAME":"中西區","LI":"三民里","LIN":"6鄰","STREET":"民權路","SECT":"二段","MAREA":" ","LANE":"８３巷","ALLEY":" ","HOUSE_NO":"３號","E_COORD97":168476.17999999999,"N_COORD97":2543867.3100000001,"ADDRESS":"民權路二段８３巷３號","OBJECTID":354815},"geometry":{"x":168476.18000000156,"y":2543867.3100000024}},{"attributes":{"ID":354825,"DIS_CODE":0,"TOWNNAME":"中西區","LI":"三民里","LIN":"6鄰","STREET":"民權路","SECT":"二段","MAREA":" ","LANE":"８３巷","ALLEY":" ","HOUSE_NO":"５號","E_COORD97":168475.39999999999,"N_COORD97":2543863.5600000001,"ADDRESS":"民權路二段８３巷５號","OBJECTID":354816},"geometry":{"x":168475.40000000224,"y":2543863.5600000005}},{"attributes":{"ID":354826,"DIS_CODE":0,"TOWNNAME":"東區","LI":"德光里","LIN":"7鄰","STREET":"崇明路","SECT":" ","MAREA":" ","LANE":"１５５巷","ALLEY":" ","HOUSE_NO":"７號","E_COORD97":169947.57000000001,"N_COORD97":2542197.8900000001,"ADDRESS":"崇明路１５５巷７號","OBJECTID":354817},"geometry":{"x":169947.57000000123,"y":2542197.8900000006}},{"attributes":{"ID":354827,"DIS_CODE":0,"TOWNNAME":"中西區","LI":"三民里","LIN":"6鄰","STREET":"民權路","SECT":"二段","MAREA":" ","LANE":"８３巷","ALLEY":" ","HOUSE_NO":"５號之１","E_COORD97":168489.01000000001,"N_COORD97":2543859.5299999998,"ADDRESS":"民權路二段８３巷５號之１","OBJECTID":354818},"geometry":{"x":168489.00999999978,"y":2543859.5299999993}},{"attributes":{"ID":354828,"DIS_CODE":0,"TOWNNAME":"中西區","LI":"三民里","LIN":"6鄰","STREET":"民權路","SECT":"二段","MAREA":" ","LANE":"８３巷","ALLEY":" ","HOUSE_NO":"７號","E_COORD97":168513.10000000001,"N_COORD97":2543848.0800000001,"ADDRESS":"民權路二段８３巷７號","OBJECTID":354819},"geometry":{"x":168513.10000000056,"y":2543848.0800000019}},{"attributes":{"ID":354829,"DIS_CODE":0,"TOWNNAME":"中西區","LI":"三民里","LIN":"6鄰","STREET":"民權路","SECT":"二段","MAREA":" ","LANE":"８３巷","ALLEY":" ","HOUSE_NO":"９號","E_COORD97":168471.79000000001,"N_COORD97":2543856.98,"ADDRESS":"民權路二段８３巷９號","OBJECTID":354820},"geometry":{"x":168471.79000000004,"y":2543856.9800000023}},{"attributes":{"ID":354830,"DIS_CODE":0,"TOWNNAME":"中西區","LI":"三民里","LIN":"6鄰","STREET":"忠義路","SECT":"二段","MAREA":" ","LANE":"８４巷","ALLEY":" ","HOUSE_NO":"４９號","E_COORD97":168459.73000000001,"N_COORD97":2543820.0699999998,"ADDRESS":"忠義路二段８４巷４９號","OBJECTID":354821},"geometry":{"x":168459.73000000231,"y":2543820.0700000003}},{"attributes":{"ID":354831,"DIS_CODE":0,"TOWNNAME":"南區","LI":"大恩里","LIN":"20鄰","STREET":"國民路","SECT":" ","MAREA":" ","LANE":"２１７巷","ALLEY":" ","HOUSE_NO":"２５號","E_COORD97":169043.39999999999,"N_COORD97":2540798.48,"ADDRESS":"國民路２１７巷２５號","OBJECTID":354822},"geometry":{"x":169043.40000000224,"y":2540798.4800000023}},{"attributes":{"ID":354832,"DIS_CODE":0,"TOWNNAME":"南區","LI":"大恩里","LIN":"20鄰","STREET":"國民路","SECT":" ","MAREA":" ","LANE":"２１７巷","ALLEY":" ","HOUSE_NO":"２７號","E_COORD97":169047.34,"N_COORD97":2540791.6000000001,"ADDRESS":"國民路２１７巷２７號","OBJECTID":354823},"geometry":{"x":169047.34000000078,"y":2540791.5999999996}},{"attributes":{"ID":354833,"DIS_CODE":0,"TOWNNAME":"中西區","LI":"三民里","LIN":"6鄰","STREET":"忠義路","SECT":"二段","MAREA":" ","LANE":"８４巷","ALLEY":" ","HOUSE_NO":"５１號","E_COORD97":168464.42999999999,"N_COORD97":2543819.29,"ADDRESS":"忠義路二段８４巷５１號","OBJECTID":354824},"geometry":{"x":168464.43000000156,"y":2543819.290000001}},{"attributes":{"ID":354834,"DIS_CODE":0,"TOWNNAME":"中西區","LI":"三民里","LIN":"6鄰","STREET":"忠義路","SECT":"二段","MAREA":" ","LANE":"８４巷","ALLEY":" ","HOUSE_NO":"５５號","E_COORD97":168473.35000000001,"N_COORD97":2543818.8199999998,"ADDRESS":"忠義路二段８４巷５５號","OBJECTID":354825},"geometry":{"x":168473.35000000149,"y":2543818.8199999984}},{"attributes":{"ID":354835,"DIS_CODE":0,"TOWNNAME":"中西區","LI":"三民里","LIN":"6鄰","STREET":"忠義路","SECT":"二段","MAREA":" ","LANE":"８４巷","ALLEY":" ","HOUSE_NO":"５７號","E_COORD97":168477.57999999999,"N_COORD97":2543827.5800000001,"ADDRESS":"忠義路二段８４巷５７號","OBJECTID":354826},"geometry":{"x":168477.58000000101,"y":2543827.5800000019}},{"attributes":{"ID":354836,"DIS_CODE":0,"TOWNNAME":"中西區","LI":"三民里","LIN":"6鄰","STREET":"忠義路","SECT":"二段","MAREA":" ","LANE":"８４巷","ALLEY":" ","HOUSE_NO":"６３號","E_COORD97":168483.53,"N_COORD97":2543851.9700000002,"ADDRESS":"忠義路二段８４巷６３號","OBJECTID":354827},"geometry":{"x":168483.53000000119,"y":2543851.9700000007}},{"attributes":{"ID":354837,"DIS_CODE":0,"TOWNNAME":"中西區","LI":"萬昌里","LIN":"6鄰","STREET":"府前路","SECT":"一段","MAREA":" ","LANE":"９０巷","ALLEY":" ","HOUSE_NO":"３６號","E_COORD97":168903.95000000001,"N_COORD97":2543364.9900000002,"ADDRESS":"府前路一段９０巷３６號","OBJECTID":354828},"geometry":{"x":168903.95000000112,"y":2543364.9900000021}},{"attributes":{"ID":354838,"DIS_CODE":0,"TOWNNAME":"中西區","LI":"萬昌里","LIN":"6鄰","STREET":"府前路","SECT":"一段","MAREA":" ","LANE":"９０巷","ALLEY":" ","HOUSE_NO":"３８號","E_COORD97":168906.98000000001,"N_COORD97":2543369.2999999998,"ADDRESS":"府前路一段９０巷３８號","OBJECTID":354829},"geometry":{"x":168906.98000000045,"y":2543369.3000000026}},{"attributes":{"ID":354839,"DIS_CODE":0,"TOWNNAME":"中西區","LI":"萬昌里","LIN":"6鄰","STREET":"府前路","SECT":"一段","MAREA":" ","LANE":"９０巷","ALLEY":" ","HOUSE_NO":"４０號","E_COORD97":168912.10999999999,"N_COORD97":2543374.1499999999,"ADDRESS":"府前路一段９０巷４０號","OBJECTID":354830},"geometry":{"x":168912.11000000127,"y":2543374.1500000022}},{"attributes":{"ID":354840,"DIS_CODE":0,"TOWNNAME":"中西區","LI":"萬昌里","LIN":"6鄰","STREET":"府前路","SECT":"一段","MAREA":" ","LANE":"９０巷","ALLEY":" ","HOUSE_NO":"４２號","E_COORD97":168913.04999999999,"N_COORD97":2543377.7200000002,"ADDRESS":"府前路一段９０巷４２號","OBJECTID":354831},"geometry":{"x":168913.05000000075,"y":2543377.7200000007}},{"attributes":{"ID":354841,"DIS_CODE":0,"TOWNNAME":"中西區","LI":"萬昌里","LIN":"6鄰","STREET":"府前路","SECT":"一段","MAREA":" ","LANE":"９０巷","ALLEY":" ","HOUSE_NO":"４６號","E_COORD97":168913.32000000001,"N_COORD97":2543380.4199999999,"ADDRESS":"府前路一段９０巷４６號","OBJECTID":354832},"geometry":{"x":168913.32000000216,"y":2543380.4200000037}},{"attributes":{"ID":354842,"DIS_CODE":0,"TOWNNAME":"中西區","LI":"萬昌里","LIN":"6鄰","STREET":"府前路","SECT":"一段","MAREA":" ","LANE":"９０巷","ALLEY":" ","HOUSE_NO":"４８號","E_COORD97":168916.16,"N_COORD97":2543385.8100000001,"ADDRESS":"府前路一段９０巷４８號","OBJECTID":354833},"geometry":{"x":168916.16000000108,"y":2543385.8100000024}},{"attributes":{"ID":354843,"DIS_CODE":0,"TOWNNAME":"中西區","LI":"萬昌里","LIN":"6鄰","STREET":"府前路","SECT":"一段","MAREA":" ","LANE":"９０巷","ALLEY":" ","HOUSE_NO":"５０號","E_COORD97":168917.91,"N_COORD97":2543389.1800000002,"ADDRESS":"府前路一段９０巷５０號","OBJECTID":354834},"geometry":{"x":168917.91000000108,"y":2543389.1800000016}},{"attributes":{"ID":354844,"DIS_CODE":0,"TOWNNAME":"中西區","LI":"萬昌里","LIN":"6鄰","STREET":"府前路","SECT":"一段","MAREA":" ","LANE":"９０巷","ALLEY":" ","HOUSE_NO":"５２號","E_COORD97":168918.45000000001,"N_COORD97":2543395.71,"ADDRESS":"府前路一段９０巷５２號","OBJECTID":354835},"geometry":{"x":168918.45000000019,"y":2543395.7100000009}},{"attributes":{"ID":354845,"DIS_CODE":0,"TOWNNAME":"中西區","LI":"萬昌里","LIN":"6鄰","STREET":"府前路","SECT":"一段","MAREA":" ","LANE":"９０巷","ALLEY":" ","HOUSE_NO":"５４號","E_COORD97":168920.88,"N_COORD97":2543398.8100000001,"ADDRESS":"府前路一段９０巷５４號","OBJECTID":354836},"geometry":{"x":168920.88000000175,"y":2543398.8100000042}},{"attributes":{"ID":354846,"DIS_CODE":0,"TOWNNAME":"中西區","LI":"萬昌里","LIN":"6鄰","STREET":"府前路","SECT":"一段","MAREA":" ","LANE":"９０巷","ALLEY":" ","HOUSE_NO":"５６號","E_COORD97":168924.79000000001,"N_COORD97":2543401.23,"ADDRESS":"府前路一段９０巷５６號","OBJECTID":354837},"geometry":{"x":168924.79000000004,"y":2543401.2300000004}},{"attributes":{"ID":354847,"DIS_CODE":0,"TOWNNAME":"中西區","LI":"萬昌里","LIN":"6鄰","STREET":"府前路","SECT":"一段","MAREA":" ","LANE":"９０巷","ALLEY":" ","HOUSE_NO":"５８號","E_COORD97":168926.14000000001,"N_COORD97":2543405.27,"ADDRESS":"府前路一段９０巷５８號","OBJECTID":354838},"geometry":{"x":168926.1400000006,"y":2543405.2700000014}},{"attributes":{"ID":354848,"DIS_CODE":0,"TOWNNAME":"中西區","LI":"萬昌里","LIN":"6鄰","STREET":"府前路","SECT":"一段","MAREA":" ","LANE":"９０巷","ALLEY":" ","HOUSE_NO":"６０號","E_COORD97":168934.37,"N_COORD97":2543417.7999999998,"ADDRESS":"府前路一段９０巷６０號","OBJECTID":354839},"geometry":{"x":168934.37000000011,"y":2543417.8000000026}},{"attributes":{"ID":354849,"DIS_CODE":0,"TOWNNAME":"中西區","LI":"萬昌里","LIN":"6鄰","STREET":"府前路","SECT":"一段","MAREA":" ","LANE":"９０巷","ALLEY":" ","HOUSE_NO":"６２號","E_COORD97":168936.12,"N_COORD97":2543421.98,"ADDRESS":"府前路一段９０巷６２號","OBJECTID":354840},"geometry":{"x":168936.12000000011,"y":2543421.9800000023}},{"attributes":{"ID":354850,"DIS_CODE":0,"TOWNNAME":"中西區","LI":"萬昌里","LIN":"6鄰","STREET":"府前路","SECT":"一段","MAREA":" ","LANE":"９０巷","ALLEY":" ","HOUSE_NO":"６４號","E_COORD97":168937.07000000001,"N_COORD97":2543424.1400000001,"ADDRESS":"府前路一段９０巷６４號","OBJECTID":354841},"geometry":{"x":168937.07000000216,"y":2543424.1400000025}},{"attributes":{"ID":354851,"DIS_CODE":0,"TOWNNAME":"新化區","LI":"東榮里","LIN":"6鄰","STREET":"信義路","SECT":" ","MAREA":" ","LANE":"１１７巷","ALLEY":" ","HOUSE_NO":"１１號之１","E_COORD97":179707.41,"N_COORD97":2548403.2599999998,"ADDRESS":"信義路１１７巷１１號之１","OBJECTID":354842},"geometry":{"x":179707.41000000201,"y":2548403.2600000016}},{"attributes":{"ID":354852,"DIS_CODE":0,"TOWNNAME":"新化區","LI":"東榮里","LIN":"6鄰","STREET":"信義路","SECT":" ","MAREA":" ","LANE":"１１７巷","ALLEY":" ","HOUSE_NO":"１１號","E_COORD97":179707.48000000001,"N_COORD97":2548399.25,"ADDRESS":"信義路１１７巷１１號","OBJECTID":354843},"geometry":{"x":179707.48000000138,"y":2548399.25}},{"attributes":{"ID":354853,"DIS_CODE":0,"TOWNNAME":"安南區","LI":"淵中里","LIN":"6鄰","STREET":"安中路","SECT":"四段","MAREA":" ","LANE":"１２２巷","ALLEY":" ","HOUSE_NO":"１０號","E_COORD97":165054.26000000001,"N_COORD97":2550034.1499999999,"ADDRESS":"安中路四段１２２巷１０號","OBJECTID":354844},"geometry":{"x":165054.25999999978,"y":2550034.1500000004}},{"attributes":{"ID":354854,"DIS_CODE":0,"TOWNNAME":"安南區","LI":"淵中里","LIN":"6鄰","STREET":"安中路","SECT":"四段","MAREA":" ","LANE":"１２２巷","ALLEY":" ","HOUSE_NO":"１５號","E_COORD97":165010.54000000001,"N_COORD97":2550052.3900000001,"ADDRESS":"安中路四段１２２巷１５號","OBJECTID":354845},"geometry":{"x":165010.54000000004,"y":2550052.3900000006}},{"attributes":{"ID":354855,"DIS_CODE":0,"TOWNNAME":"安南區","LI":"淵中里","LIN":"6鄰","STREET":"安中路","SECT":"四段","MAREA":" ","LANE":"１２２巷","ALLEY":" ","HOUSE_NO":"１８號","E_COORD97":165048.75,"N_COORD97":2550054.3799999999,"ADDRESS":"安中路四段１２２巷１８號","OBJECTID":354846},"geometry":{"x":165048.75000000093,"y":2550054.379999999}},{"attributes":{"ID":354856,"DIS_CODE":0,"TOWNNAME":"安南區","LI":"淵中里","LIN":"6鄰","STREET":"安中路","SECT":"四段","MAREA":" ","LANE":"１２２巷","ALLEY":" ","HOUSE_NO":"２３號","E_COORD97":165023.97,"N_COORD97":2550076.3700000001,"ADDRESS":"安中路四段１２２巷２３號","OBJECTID":354847},"geometry":{"x":165023.96999999974,"y":2550076.370000001}},{"attributes":{"ID":354857,"DIS_CODE":0,"TOWNNAME":"安南區","LI":"淵中里","LIN":"6鄰","STREET":"安中路","SECT":"四段","MAREA":" ","LANE":"１２２巷","ALLEY":" ","HOUSE_NO":"２７號","E_COORD97":165039.29000000001,"N_COORD97":2550077.8700000001,"ADDRESS":"安中路四段１２２巷２７號","OBJECTID":354848},"geometry":{"x":165039.29000000004,"y":2550077.8699999992}},{"attributes":{"ID":354858,"DIS_CODE":0,"TOWNNAME":"東區","LI":"中西里","LIN":"8鄰","STREET":"勝利路","SECT":" ","MAREA":" ","LANE":" ","ALLEY":" ","HOUSE_NO":"５０號七樓之３","E_COORD97":169830.25,"N_COORD97":2543536.9100000001,"ADDRESS":"勝利路５０號七樓之３","OBJECTID":354849},"geometry":{"x":169830.25,"y":2543536.9100000039}},{"attributes":{"ID":354859,"DIS_CODE":0,"TOWNNAME":"東區","LI":"中西里","LIN":"8鄰","STREET":"勝利路","SECT":" ","MAREA":" ","LANE":" ","ALLEY":" ","HOUSE_NO":"５０號七樓之４","E_COORD97":169830.25,"N_COORD97":2543536.9100000001,"ADDRESS":"勝利路５０號七樓之４","OBJECTID":354850},"geometry":{"x":169830.25,"y":2543536.9100000039}},{"attributes":{"ID":354860,"DIS_CODE":0,"TOWNNAME":"安南區","LI":"淵中里","LIN":"6鄰","STREET":"安中路","SECT":"四段","MAREA":" ","LANE":"１２２巷","ALLEY":" ","HOUSE_NO":"７號","E_COORD97":165038.72,"N_COORD97":2550022.1600000001,"ADDRESS":"安中路四段１２２巷７號","OBJECTID":354851},"geometry":{"x":165038.72000000067,"y":2550022.160000002}},{"attributes":{"ID":354861,"DIS_CODE":0,"TOWNNAME":"安南區","LI":"淵中里","LIN":"6鄰","STREET":"安中路","SECT":"四段","MAREA":" ","LANE":"９８巷","ALLEY":" ","HOUSE_NO":"３７號","E_COORD97":165085.75,"N_COORD97":2550031.9199999999,"ADDRESS":"安中路四段９８巷３７號","OBJECTID":354852},"geometry":{"x":165085.75000000186,"y":2550031.9199999999}},{"attributes":{"ID":354862,"DIS_CODE":0,"TOWNNAME":"安南區","LI":"淵中里","LIN":"6鄰","STREET":"安中路","SECT":"四段","MAREA":" ","LANE":"９８巷","ALLEY":" ","HOUSE_NO":"３９號","E_COORD97":165077.34,"N_COORD97":2550015.98,"ADDRESS":"安中路四段９８巷３９號","OBJECTID":354853},"geometry":{"x":165077.33999999985,"y":2550015.9800000023}},{"attributes":{"ID":354863,"DIS_CODE":0,"TOWNNAME":"安南區","LI":"淵中里","LIN":"6鄰","STREET":"安中路","SECT":"四段","MAREA":" ","LANE":"９８巷","ALLEY":" ","HOUSE_NO":"４１號","E_COORD97":165074.42999999999,"N_COORD97":2550012.98,"ADDRESS":"安中路四段９８巷４１號","OBJECTID":354854},"geometry":{"x":165074.43000000063,"y":2550012.9800000023}},{"attributes":{"ID":354864,"DIS_CODE":0,"TOWNNAME":"安南區","LI":"安東里","LIN":"6鄰","STREET":"安和路","SECT":"一段","MAREA":" ","LANE":"２８８巷","ALLEY":" ","HOUSE_NO":"４１號之１","E_COORD97":169399.10000000001,"N_COORD97":2548119.21,"ADDRESS":"安和路一段２８８巷４１號之１","OBJECTID":354855},"geometry":{"x":169399.10000000056,"y":2548119.2100000046}},{"attributes":{"ID":354865,"DIS_CODE":0,"TOWNNAME":"安南區","LI":"安東里","LIN":"6鄰","STREET":"安和路","SECT":"一段","MAREA":" ","LANE":"２８８巷","ALLEY":" ","HOUSE_NO":"４３號","E_COORD97":169402.45000000001,"N_COORD97":2548120.75,"ADDRESS":"安和路一段２８８巷４３號","OBJECTID":354856},"geometry":{"x":169402.45000000112,"y":2548120.75}},{"attributes":{"ID":354866,"DIS_CODE":0,"TOWNNAME":"善化區","LI":"文正里","LIN":"6鄰","STREET":"文正路","SECT":" ","MAREA":" ","LANE":"７９巷","ALLEY":" ","HOUSE_NO":"１３號之１","E_COORD97":177038.29999999999,"N_COORD97":2559341.7799999998,"ADDRESS":"文正路７９巷１３號之１","OBJECTID":354857},"geometry":{"x":177038.30000000075,"y":2559341.7799999993}},{"attributes":{"ID":354867,"DIS_CODE":0,"TOWNNAME":"善化區","LI":"坐駕里","LIN":"6鄰","STREET":"民權路","SECT":" ","MAREA":" ","LANE":"２８５巷","ALLEY":" ","HOUSE_NO":"５號","E_COORD97":177912.29000000001,"N_COORD97":2558924.7599999998,"ADDRESS":"民權路２８５巷５號","OBJECTID":354858},"geometry":{"x":177912.29000000004,"y":2558924.7599999998}},{"attributes":{"ID":354868,"DIS_CODE":0,"TOWNNAME":"善化區","LI":"坐駕里","LIN":"6鄰","STREET":"民生路","SECT":" ","MAREA":" ","LANE":"３８２巷","ALLEY":" ","HOUSE_NO":"８號","E_COORD97":177921.73999999999,"N_COORD97":2558912.0099999998,"ADDRESS":"民生路３８２巷８號","OBJECTID":354859},"geometry":{"x":177921.74000000022,"y":2558912.0100000016}},{"attributes":{"ID":354869,"DIS_CODE":0,"TOWNNAME":"善化區","LI":"坐駕里","LIN":"6鄰","STREET":"民生路","SECT":" ","MAREA":" ","LANE":"３８２巷","ALLEY":" ","HOUSE_NO":"１１號","E_COORD97":177907.81,"N_COORD97":2558909.5099999998,"ADDRESS":"民生路３８２巷１１號","OBJECTID":354860},"geometry":{"x":177907.81000000052,"y":2558909.5099999998}},{"attributes":{"ID":354870,"DIS_CODE":0,"TOWNNAME":"善化區","LI":"文昌里","LIN":"6鄰","STREET":"永福路","SECT":" ","MAREA":" ","LANE":"１５６巷","ALLEY":" ","HOUSE_NO":"６號","E_COORD97":177215.66,"N_COORD97":2558793.5,"ADDRESS":"永福路１５６巷６號","OBJECTID":354861},"geometry":{"x":177215.66000000201,"y":2558793.5000000019}},{"attributes":{"ID":354871,"DIS_CODE":0,"TOWNNAME":"善化區","LI":"坐駕里","LIN":"6鄰","STREET":"民權路","SECT":" ","MAREA":" ","LANE":"２８５巷","ALLEY":" ","HOUSE_NO":"４號","E_COORD97":177917.48000000001,"N_COORD97":2558925.5099999998,"ADDRESS":"民權路２８５巷４號","OBJECTID":354862},"geometry":{"x":177917.48000000138,"y":2558925.5100000016}},{"attributes":{"ID":354872,"DIS_CODE":0,"TOWNNAME":"學甲區","LI":"光華里","LIN":"20鄰","STREET":" ","SECT":" ","MAREA":"頭港子","LANE":" ","ALLEY":" ","HOUSE_NO":"２４號","E_COORD97":163043.39999999999,"N_COORD97":2573111.9199999999,"ADDRESS":"頭港子２４號","OBJECTID":354863},"geometry":{"x":163043.40000000037,"y":2573111.9200000018}},{"attributes":{"ID":354873,"DIS_CODE":0,"TOWNNAME":"學甲區","LI":"平和里","LIN":"20鄰","STREET":" ","SECT":" ","MAREA":"西平寮","LANE":" ","ALLEY":" ","HOUSE_NO":"９號","E_COORD97":169269.82000000001,"N_COORD97":2573345.4900000002,"ADDRESS":"西平寮９號","OBJECTID":354864},"geometry":{"x":169269.82000000123,"y":2573345.4900000021}},{"attributes":{"ID":354874,"DIS_CODE":0,"TOWNNAME":"善化區","LI":"坐駕里","LIN":"6鄰","STREET":"民生路","SECT":" ","MAREA":" ","LANE":"３８２巷","ALLEY":" ","HOUSE_NO":"７號","E_COORD97":177926.63,"N_COORD97":2558912.7599999998,"ADDRESS":"民生路３８２巷７號","OBJECTID":354865},"geometry":{"x":177926.62999999989,"y":2558912.7600000035}},{"attributes":{"ID":354875,"DIS_CODE":0,"TOWNNAME":"善化區","LI":"坐駕里","LIN":"6鄰","STREET":"民生路","SECT":" ","MAREA":" ","LANE":"３８２巷","ALLEY":" ","HOUSE_NO":"１號","E_COORD97":177946.48999999999,"N_COORD97":2558905.5099999998,"ADDRESS":"民生路３８２巷１號","OBJECTID":354866},"geometry":{"x":177946.49000000115,"y":2558905.5100000016}},{"attributes":{"ID":354876,"DIS_CODE":0,"TOWNNAME":"善化區","LI":"北關里","LIN":"6鄰","STREET":"中山路","SECT":" ","MAREA":" ","LANE":"５００巷","ALLEY":" ","HOUSE_NO":"２號","E_COORD97":177211.37,"N_COORD97":2559155.75,"ADDRESS":"中山路５００巷２號","OBJECTID":354867},"geometry":{"x":177211.37000000104,"y":2559155.75}},{"attributes":{"ID":354877,"DIS_CODE":0,"TOWNNAME":"東區","LI":"虎尾里","LIN":"6鄰","STREET":"富農街","SECT":"一段","MAREA":" ","LANE":"７２巷","ALLEY":" ","HOUSE_NO":"２５號","E_COORD97":171589.45999999999,"N_COORD97":2542216.9100000001,"ADDRESS":"富農街一段７２巷２５號","OBJECTID":354868},"geometry":{"x":171589.46000000089,"y":2542216.9100000001}},{"attributes":{"ID":354878,"DIS_CODE":0,"TOWNNAME":"東區","LI":"虎尾里","LIN":"6鄰","STREET":"富農街","SECT":"一段","MAREA":" ","LANE":"７２巷","ALLEY":" ","HOUSE_NO":"２７號","E_COORD97":171593.67999999999,"N_COORD97":2542216.7000000002,"ADDRESS":"富農街一段７２巷２７號","OBJECTID":354869},"geometry":{"x":171593.68000000156,"y":2542216.7000000011}},{"attributes":{"ID":354879,"DIS_CODE":0,"TOWNNAME":"東區","LI":"虎尾里","LIN":"6鄰","STREET":"富農街","SECT":"一段","MAREA":" ","LANE":"７２巷","ALLEY":" ","HOUSE_NO":"２９號","E_COORD97":171597.91,"N_COORD97":2542216.9100000001,"ADDRESS":"富農街一段７２巷２９號","OBJECTID":354870},"geometry":{"x":171597.91000000108,"y":2542216.9100000001}},{"attributes":{"ID":354880,"DIS_CODE":0,"TOWNNAME":"東區","LI":"虎尾里","LIN":"6鄰","STREET":"富農街","SECT":"一段","MAREA":" ","LANE":"７２巷","ALLEY":" ","HOUSE_NO":"３１號","E_COORD97":171601.29000000001,"N_COORD97":2542217.9700000002,"ADDRESS":"富農街一段７２巷３１號","OBJECTID":354871},"geometry":{"x":171601.29000000004,"y":2542217.9700000044}},{"attributes":{"ID":354881,"DIS_CODE":0,"TOWNNAME":"東區","LI":"虎尾里","LIN":"6鄰","STREET":"富農街","SECT":"一段","MAREA":" ","LANE":"７２巷","ALLEY":" ","HOUSE_NO":"３號","E_COORD97":171542.91,"N_COORD97":2542216.2999999998,"ADDRESS":"富農街一段７２巷３號","OBJECTID":354872},"geometry":{"x":171542.91000000015,"y":2542216.3000000026}},{"attributes":{"ID":354882,"DIS_CODE":0,"TOWNNAME":"東區","LI":"德光里","LIN":"14鄰","STREET":"崇德二街","SECT":" ","MAREA":" ","LANE":"６巷","ALLEY":" ","HOUSE_NO":"２６號","E_COORD97":170173.26000000001,"N_COORD97":2542327.5499999998,"ADDRESS":"崇德二街６巷２６號","OBJECTID":354873},"geometry":{"x":170173.26000000071,"y":2542327.5500000026}},{"attributes":{"ID":354883,"DIS_CODE":0,"TOWNNAME":"東區","LI":"德光里","LIN":"14鄰","STREET":"崇德二街","SECT":" ","MAREA":" ","LANE":"６巷","ALLEY":" ","HOUSE_NO":"２８號","E_COORD97":170177.39999999999,"N_COORD97":2542324.1699999999,"ADDRESS":"崇德二街６巷２８號","OBJECTID":354874},"geometry":{"x":170177.40000000224,"y":2542324.1699999981}},{"attributes":{"ID":354884,"DIS_CODE":0,"TOWNNAME":"東區","LI":"德光里","LIN":"14鄰","STREET":"崇德二街","SECT":" ","MAREA":" ","LANE":"６巷","ALLEY":" ","HOUSE_NO":"３４號","E_COORD97":170184.06,"N_COORD97":2542336.8300000001,"ADDRESS":"崇德二街６巷３４號","OBJECTID":354875},"geometry":{"x":170184.06000000145,"y":2542336.8299999982}},{"attributes":{"ID":354885,"DIS_CODE":0,"TOWNNAME":"東區","LI":"德光里","LIN":"14鄰","STREET":"崇德二街","SECT":" ","MAREA":" ","LANE":"６巷","ALLEY":" ","HOUSE_NO":"３６號","E_COORD97":170187.84,"N_COORD97":2542341.8700000001,"ADDRESS":"崇德二街６巷３６號","OBJECTID":354876},"geometry":{"x":170187.84000000078,"y":2542341.8700000029}},{"attributes":{"ID":354886,"DIS_CODE":0,"TOWNNAME":"東區","LI":"德光里","LIN":"14鄰","STREET":"崇德二街","SECT":" ","MAREA":" ","LANE":"６巷","ALLEY":" ","HOUSE_NO":"３８號","E_COORD97":170190.62,"N_COORD97":2542346.1499999999,"ADDRESS":"崇德二街６巷３８號","OBJECTID":354877},"geometry":{"x":170190.62000000011,"y":2542346.1500000022}},{"attributes":{"ID":354887,"DIS_CODE":0,"TOWNNAME":"東區","LI":"德光里","LIN":"15鄰","STREET":"崇德二街","SECT":" ","MAREA":" ","LANE":"６巷","ALLEY":" ","HOUSE_NO":"２５號","E_COORD97":170111.48999999999,"N_COORD97":2542272.8500000001,"ADDRESS":"崇德二街６巷２５號","OBJECTID":354878},"geometry":{"x":170111.49000000022,"y":2542272.8500000015}},{"attributes":{"ID":354888,"DIS_CODE":0,"TOWNNAME":"東區","LI":"德光里","LIN":"15鄰","STREET":"崇德二街","SECT":" ","MAREA":" ","LANE":"６巷","ALLEY":" ","HOUSE_NO":"２７號","E_COORD97":170117.60000000001,"N_COORD97":2542278.0099999998,"ADDRESS":"崇德二街６巷２７號","OBJECTID":354879},"geometry":{"x":170117.60000000149,"y":2542278.0100000035}},{"attributes":{"ID":354889,"DIS_CODE":0,"TOWNNAME":"東區","LI":"德光里","LIN":"15鄰","STREET":"崇德二街","SECT":" ","MAREA":" ","LANE":"６巷","ALLEY":" ","HOUSE_NO":"２９號","E_COORD97":170112.22,"N_COORD97":2542282.46,"ADDRESS":"崇德二街６巷２９號","OBJECTID":354880},"geometry":{"x":170112.22000000067,"y":2542282.4600000009}},{"attributes":{"ID":354890,"DIS_CODE":0,"TOWNNAME":"東區","LI":"德光里","LIN":"15鄰","STREET":"崇德二街","SECT":" ","MAREA":" ","LANE":"６巷","ALLEY":" ","HOUSE_NO":"３１號","E_COORD97":170106.10000000001,"N_COORD97":2542286.71,"ADDRESS":"崇德二街６巷３１號","OBJECTID":354881},"geometry":{"x":170106.10000000056,"y":2542286.7100000009}},{"attributes":{"ID":354891,"DIS_CODE":0,"TOWNNAME":"東區","LI":"德光里","LIN":"15鄰","STREET":"崇德二街","SECT":" ","MAREA":" ","LANE":"６巷","ALLEY":" ","HOUSE_NO":"３３號","E_COORD97":170101.84,"N_COORD97":2542290.6000000001,"ADDRESS":"崇德二街６巷３３號","OBJECTID":354882},"geometry":{"x":170101.83999999985,"y":2542290.6000000034}},{"attributes":{"ID":354892,"DIS_CODE":0,"TOWNNAME":"東區","LI":"德光里","LIN":"15鄰","STREET":"崇德二街","SECT":" ","MAREA":" ","LANE":"６巷","ALLEY":" ","HOUSE_NO":"３５號","E_COORD97":170112.78,"N_COORD97":2542307.0800000001,"ADDRESS":"崇德二街６巷３５號","OBJECTID":354883},"geometry":{"x":170112.78000000119,"y":2542307.0800000001}},{"attributes":{"ID":354893,"DIS_CODE":0,"TOWNNAME":"東區","LI":"德光里","LIN":"15鄰","STREET":"崇德二街","SECT":" ","MAREA":" ","LANE":"６巷","ALLEY":" ","HOUSE_NO":"３７號","E_COORD97":170118.89999999999,"N_COORD97":2542302.8199999998,"ADDRESS":"崇德二街６巷３７號","OBJECTID":354884},"geometry":{"x":170118.9000000013,"y":2542302.8200000003}},{"attributes":{"ID":354894,"DIS_CODE":0,"TOWNNAME":"東區","LI":"德光里","LIN":"15鄰","STREET":"崇德二街","SECT":" ","MAREA":" ","LANE":"６巷","ALLEY":" ","HOUSE_NO":"３９號","E_COORD97":170125.01000000001,"N_COORD97":2542298.5600000001,"ADDRESS":"崇德二街６巷３９號","OBJECTID":354885},"geometry":{"x":170125.00999999978,"y":2542298.5600000042}},{"attributes":{"ID":354895,"DIS_CODE":0,"TOWNNAME":"東區","LI":"德光里","LIN":"15鄰","STREET":"崇德二街","SECT":" ","MAREA":" ","LANE":"６巷","ALLEY":" ","HOUSE_NO":"３號","E_COORD97":170071.60999999999,"N_COORD97":2542294.46,"ADDRESS":"崇德二街６巷３號","OBJECTID":354886},"geometry":{"x":170071.61000000127,"y":2542294.4600000028}},{"attributes":{"ID":354896,"DIS_CODE":0,"TOWNNAME":"東區","LI":"德光里","LIN":"15鄰","STREET":"崇德二街","SECT":" ","MAREA":" ","LANE":"６巷","ALLEY":" ","HOUSE_NO":"４１號","E_COORD97":170130.01999999999,"N_COORD97":2542294.2999999998,"ADDRESS":"崇德二街６巷４１號","OBJECTID":354887},"geometry":{"x":170130.02000000142,"y":2542294.3000000026}},{"attributes":{"ID":354897,"DIS_CODE":0,"TOWNNAME":"東區","LI":"德光里","LIN":"15鄰","STREET":"崇德二街","SECT":" ","MAREA":" ","LANE":"６巷","ALLEY":" ","HOUSE_NO":"４３號","E_COORD97":170137.29000000001,"N_COORD97":2542305.5099999998,"ADDRESS":"崇德二街６巷４３號","OBJECTID":354888},"geometry":{"x":170137.29000000097,"y":2542305.5100000016}},{"attributes":{"ID":354898,"DIS_CODE":0,"TOWNNAME":"東區","LI":"虎尾里","LIN":"6鄰","STREET":"富農街","SECT":"一段","MAREA":" ","LANE":"７２巷","ALLEY":" ","HOUSE_NO":"５號","E_COORD97":171550.67000000001,"N_COORD97":2542217.5699999998,"ADDRESS":"富農街一段７２巷５號","OBJECTID":354889},"geometry":{"x":171550.67000000086,"y":2542217.5700000022}},{"attributes":{"ID":354899,"DIS_CODE":0,"TOWNNAME":"東區","LI":"虎尾里","LIN":"6鄰","STREET":"富農街","SECT":"一段","MAREA":" ","LANE":"７２巷","ALLEY":" ","HOUSE_NO":"９號","E_COORD97":171572.04000000001,"N_COORD97":2542220.8900000001,"ADDRESS":"富農街一段７２巷９號","OBJECTID":354890},"geometry":{"x":171572.04000000097,"y":2542220.8900000006}},{"attributes":{"ID":354900,"DIS_CODE":0,"TOWNNAME":"東區","LI":"德光里","LIN":"24鄰","STREET":"崇德二街","SECT":" ","MAREA":" ","LANE":"６巷","ALLEY":" ","HOUSE_NO":"５７號","E_COORD97":170154.20999999999,"N_COORD97":2542331.1000000001,"ADDRESS":"崇德二街６巷５７號","OBJECTID":354891},"geometry":{"x":170154.20999999996,"y":2542331.0999999996}},{"attributes":{"ID":354901,"DIS_CODE":0,"TOWNNAME":"東區","LI":"德光里","LIN":"24鄰","STREET":"崇德二街","SECT":" ","MAREA":" ","LANE":"６巷","ALLEY":" ","HOUSE_NO":"５９號","E_COORD97":170162.91,"N_COORD97":2542336.8500000001,"ADDRESS":"崇德二街６巷５９號","OBJECTID":354892},"geometry":{"x":170162.91000000015,"y":2542336.8500000015}},{"attributes":{"ID":354902,"DIS_CODE":0,"TOWNNAME":"東區","LI":"德光里","LIN":"24鄰","STREET":"崇德二街","SECT":" ","MAREA":" ","LANE":"６巷","ALLEY":" ","HOUSE_NO":"６１號","E_COORD97":170156.42000000001,"N_COORD97":2542341.48,"ADDRESS":"崇德二街６巷６１號","OBJECTID":354893},"geometry":{"x":170156.42000000179,"y":2542341.4800000023}},{"attributes":{"ID":354903,"DIS_CODE":0,"TOWNNAME":"東區","LI":"德光里","LIN":"24鄰","STREET":"崇德二街","SECT":" ","MAREA":" ","LANE":"６巷","ALLEY":" ","HOUSE_NO":"６３號","E_COORD97":170150.85999999999,"N_COORD97":2542346.1099999999,"ADDRESS":"崇德二街６巷６３號","OBJECTID":354894},"geometry":{"x":170150.86000000127,"y":2542346.1100000013}},{"attributes":{"ID":354904,"DIS_CODE":0,"TOWNNAME":"東區","LI":"德光里","LIN":"24鄰","STREET":"崇德二街","SECT":" ","MAREA":" ","LANE":"６巷","ALLEY":" ","HOUSE_NO":"６５號","E_COORD97":170145.85000000001,"N_COORD97":2542349.8100000001,"ADDRESS":"崇德二街６巷６５號","OBJECTID":354895},"geometry":{"x":170145.84999999963,"y":2542349.8100000005}},{"attributes":{"ID":354905,"DIS_CODE":0,"TOWNNAME":"東區","LI":"德光里","LIN":"24鄰","STREET":"崇德二街","SECT":" ","MAREA":" ","LANE":"６巷","ALLEY":" ","HOUSE_NO":"６７號","E_COORD97":170138.44,"N_COORD97":2542354.25,"ADDRESS":"崇德二街６巷６７號","OBJECTID":354896},"geometry":{"x":170138.44000000134,"y":2542354.2499999981}},{"attributes":{"ID":354906,"DIS_CODE":0,"TOWNNAME":"東區","LI":"德光里","LIN":"24鄰","STREET":"崇德二街","SECT":" ","MAREA":" ","LANE":"６巷","ALLEY":" ","HOUSE_NO":"６９號","E_COORD97":170133.06,"N_COORD97":2542359.25,"ADDRESS":"崇德二街６巷６９號","OBJECTID":354897},"geometry":{"x":170133.06000000145,"y":2542359.2500000019}},{"attributes":{"ID":354907,"DIS_CODE":0,"TOWNNAME":"東區","LI":"德光里","LIN":"24鄰","STREET":"崇德二街","SECT":" ","MAREA":" ","LANE":"６巷","ALLEY":" ","HOUSE_NO":"７１號","E_COORD97":170142.51000000001,"N_COORD97":2542371.1000000001,"ADDRESS":"崇德二街６巷７１號","OBJECTID":354898},"geometry":{"x":170142.51000000071,"y":2542371.0999999996}},{"attributes":{"ID":354908,"DIS_CODE":0,"TOWNNAME":"東區","LI":"德光里","LIN":"24鄰","STREET":"崇德二街","SECT":" ","MAREA":" ","LANE":"６巷","ALLEY":" ","HOUSE_NO":"７３號","E_COORD97":170148.07999999999,"N_COORD97":2542366.29,"ADDRESS":"崇德二街６巷７３號","OBJECTID":354899},"geometry":{"x":170148.08000000007,"y":2542366.2899999991}},{"attributes":{"ID":354909,"DIS_CODE":0,"TOWNNAME":"東區","LI":"德光里","LIN":"15鄰","STREET":"崇德二街","SECT":" ","MAREA":" ","LANE":"６巷","ALLEY":" ","HOUSE_NO":"５１號","E_COORD97":170141.37,"N_COORD97":2542315.6899999999,"ADDRESS":"崇德二街６巷５１號","OBJECTID":354900},"geometry":{"x":170141.37000000011,"y":2542315.6899999995}},{"attributes":{"ID":354910,"DIS_CODE":0,"TOWNNAME":"東區","LI":"德光里","LIN":"15鄰","STREET":"崇德二街","SECT":" ","MAREA":" ","LANE":"６巷","ALLEY":" ","HOUSE_NO":"５３號","E_COORD97":170144.73999999999,"N_COORD97":2542319.5699999998,"ADDRESS":"崇德二街６巷５３號","OBJECTID":354901},"geometry":{"x":170144.74000000115,"y":2542319.5700000022}},{"attributes":{"ID":354911,"DIS_CODE":0,"TOWNNAME":"東區","LI":"德光里","LIN":"15鄰","STREET":"崇德二街","SECT":" ","MAREA":" ","LANE":"６巷","ALLEY":" ","HOUSE_NO":"５５號","E_COORD97":170150.45000000001,"N_COORD97":2542326.7000000002,"ADDRESS":"崇德二街６巷５５號","OBJECTID":354902},"geometry":{"x":170150.45000000112,"y":2542326.6999999974}},{"attributes":{"ID":354912,"DIS_CODE":0,"TOWNNAME":"東區","LI":"德光里","LIN":"15鄰","STREET":"崇德二街","SECT":" ","MAREA":" ","LANE":"６巷","ALLEY":" ","HOUSE_NO":"５號","E_COORD97":170075.13,"N_COORD97":2542290.9399999999,"ADDRESS":"崇德二街６巷５號","OBJECTID":354903},"geometry":{"x":170075.12999999989,"y":2542290.9399999995}},{"attributes":{"ID":354913,"DIS_CODE":0,"TOWNNAME":"東區","LI":"虎尾里","LIN":"6鄰","STREET":"富農街","SECT":"一段","MAREA":" ","LANE":"７２巷","ALLEY":" ","HOUSE_NO":"７號","E_COORD97":171557.16,"N_COORD97":2542218.3599999999,"ADDRESS":"富農街一段７２巷７號","OBJECTID":354904},"geometry":{"x":171557.16000000108,"y":2542218.3600000013}},{"attributes":{"ID":354914,"DIS_CODE":0,"TOWNNAME":"東區","LI":"德光里","LIN":"24鄰","STREET":"崇德二街","SECT":" ","MAREA":" ","LANE":"７６巷","ALLEY":" ","HOUSE_NO":"４號","E_COORD97":170146.60000000001,"N_COORD97":2542386.3500000001,"ADDRESS":"崇德二街７６巷４號","OBJECTID":354905},"geometry":{"x":170146.60000000056,"y":2542386.3499999996}},{"attributes":{"ID":354915,"DIS_CODE":0,"TOWNNAME":"東區","LI":"德光里","LIN":"24鄰","STREET":"崇德二街","SECT":" ","MAREA":" ","LANE":"７６巷","ALLEY":" ","HOUSE_NO":"６號","E_COORD97":170152.53,"N_COORD97":2542382.0899999999,"ADDRESS":"崇德二街７６巷６號","OBJECTID":354906},"geometry":{"x":170152.53000000026,"y":2542382.0899999999}},{"attributes":{"ID":354916,"DIS_CODE":0,"TOWNNAME":"東區","LI":"德光里","LIN":"24鄰","STREET":"崇德二街","SECT":" ","MAREA":" ","LANE":"７６巷","ALLEY":" ","HOUSE_NO":"８號","E_COORD97":170157.54000000001,"N_COORD97":2542379.3100000001,"ADDRESS":"崇德二街７６巷８號","OBJECTID":354907},"geometry":{"x":170157.5400000019,"y":2542379.3100000024}},{"attributes":{"ID":354917,"DIS_CODE":0,"TOWNNAME":"東區","LI":"德光里","LIN":"14鄰","STREET":"崇學路","SECT":" ","MAREA":" ","LANE":"１３５巷","ALLEY":" ","HOUSE_NO":"３２號","E_COORD97":170178.32000000001,"N_COORD97":2542293.8900000001,"ADDRESS":"崇學路１３５巷３２號","OBJECTID":354908},"geometry":{"x":170178.32000000123,"y":2542293.8900000025}},{"attributes":{"ID":354918,"DIS_CODE":0,"TOWNNAME":"東區","LI":"德光里","LIN":"14鄰","STREET":"崇學路","SECT":" ","MAREA":" ","LANE":"１３５巷","ALLEY":" ","HOUSE_NO":"３４號","E_COORD97":170174.63,"N_COORD97":2542296.8300000001,"ADDRESS":"崇學路１３５巷３４號","OBJECTID":354909},"geometry":{"x":170174.62999999989,"y":2542296.8300000019}},{"attributes":{"ID":354919,"DIS_CODE":0,"TOWNNAME":"東區","LI":"德光里","LIN":"14鄰","STREET":"崇學路","SECT":" ","MAREA":" ","LANE":"１３５巷","ALLEY":" ","HOUSE_NO":"３６號","E_COORD97":170171.62,"N_COORD97":2542298.9900000002,"ADDRESS":"崇學路１３５巷３６號","OBJECTID":354910},"geometry":{"x":170171.62000000011,"y":2542298.9900000039}},{"attributes":{"ID":354920,"DIS_CODE":0,"TOWNNAME":"東區","LI":"德光里","LIN":"14鄰","STREET":"崇學路","SECT":" ","MAREA":" ","LANE":"１３５巷","ALLEY":" ","HOUSE_NO":"３８號","E_COORD97":170167.10999999999,"N_COORD97":2542302.0899999999,"ADDRESS":"崇學路１３５巷３８號","OBJECTID":354911},"geometry":{"x":170167.11000000034,"y":2542302.0900000017}},{"attributes":{"ID":354921,"DIS_CODE":0,"TOWNNAME":"東區","LI":"德光里","LIN":"14鄰","STREET":"崇學路","SECT":" ","MAREA":" ","LANE":"１３５巷","ALLEY":" ","HOUSE_NO":"４０號","E_COORD97":170162.79000000001,"N_COORD97":2542305.6600000001,"ADDRESS":"崇學路１３５巷４０號","OBJECTID":354912},"geometry":{"x":170162.79000000097,"y":2542305.660000002}},{"attributes":{"ID":354922,"DIS_CODE":0,"TOWNNAME":"東區","LI":"德光里","LIN":"14鄰","STREET":"崇學路","SECT":" ","MAREA":" ","LANE":"１３５巷","ALLEY":" ","HOUSE_NO":"４２號","E_COORD97":170159.31,"N_COORD97":2542308.6600000001,"ADDRESS":"崇學路１３５巷４２號","OBJECTID":354913},"geometry":{"x":170159.31000000052,"y":2542308.660000002}},{"attributes":{"ID":354923,"DIS_CODE":0,"TOWNNAME":"北區","LI":"成德里","LIN":"20鄰","STREET":"文成一路","SECT":" ","MAREA":" ","LANE":"１５８巷","ALLEY":" ","HOUSE_NO":"７號","E_COORD97":168397.63,"N_COORD97":2546088.1099999999,"ADDRESS":"文成一路１５８巷７號","OBJECTID":354914},"geometry":{"x":168397.63000000082,"y":2546088.1100000013}},{"attributes":{"ID":354924,"DIS_CODE":0,"TOWNNAME":"東區","LI":"大福里","LIN":"6鄰","STREET":"立德八路","SECT":" ","MAREA":" ","LANE":"１４巷","ALLEY":" ","HOUSE_NO":"２１號","E_COORD97":169450.56,"N_COORD97":2541822.2000000002,"ADDRESS":"立德八路１４巷２１號","OBJECTID":354915},"geometry":{"x":169450.56000000052,"y":2541822.2000000011}},{"attributes":{"ID":354925,"DIS_CODE":0,"TOWNNAME":"東區","LI":"大福里","LIN":"6鄰","STREET":"立德八路","SECT":" ","MAREA":" ","LANE":"１４巷","ALLEY":" ","HOUSE_NO":"２２號","E_COORD97":169451.25,"N_COORD97":2541814.1899999999,"ADDRESS":"立德八路１４巷２２號","OBJECTID":354916},"geometry":{"x":169451.25000000093,"y":2541814.1899999995}},{"attributes":{"ID":354926,"DIS_CODE":0,"TOWNNAME":"東區","LI":"東安里","LIN":"6鄰","STREET":"長榮路","SECT":"二段","MAREA":" ","LANE":"２４巷","ALLEY":" ","HOUSE_NO":"４７號","E_COORD97":170076,"N_COORD97":2543047.7999999998,"ADDRESS":"長榮路二段２４巷４７號","OBJECTID":354917},"geometry":{"x":170076,"y":2543047.8000000026}},{"attributes":{"ID":354927,"DIS_CODE":0,"TOWNNAME":"東區","LI":"德光里","LIN":"8鄰","STREET":"崇明路","SECT":" ","MAREA":" ","LANE":"１８７巷","ALLEY":" ","HOUSE_NO":"２號","E_COORD97":169977.25,"N_COORD97":2542117.75,"ADDRESS":"崇明路１８７巷２號","OBJECTID":354918},"geometry":{"x":169977.25,"y":2542117.7500000019}},{"attributes":{"ID":354928,"DIS_CODE":0,"TOWNNAME":"東區","LI":"德光里","LIN":"8鄰","STREET":"崇明路","SECT":" ","MAREA":" ","LANE":"１８７巷","ALLEY":" ","HOUSE_NO":"６號","E_COORD97":169984.98000000001,"N_COORD97":2542123.8599999999,"ADDRESS":"崇明路１８７巷６號","OBJECTID":354919},"geometry":{"x":169984.98000000045,"y":2542123.8600000013}},{"attributes":{"ID":354929,"DIS_CODE":0,"TOWNNAME":"東區","LI":"德光里","LIN":"8鄰","STREET":"崇明路","SECT":" ","MAREA":" ","LANE":"１８７巷","ALLEY":" ","HOUSE_NO":"８號","E_COORD97":169991.42000000001,"N_COORD97":2542128.6899999999,"ADDRESS":"崇明路１８７巷８號","OBJECTID":354920},"geometry":{"x":169991.41999999993,"y":2542128.6900000013}},{"attributes":{"ID":354930,"DIS_CODE":0,"TOWNNAME":"永康區","LI":"\u25A0行里","LIN":"6鄰","STREET":"新行街","SECT":" ","MAREA":" ","LANE":"２１巷","ALLEY":" ","HOUSE_NO":"６號","E_COORD97":172205.56,"N_COORD97":2548802.4700000002,"ADDRESS":"新行街２１巷６號","OBJECTID":354921},"geometry":{"x":172205.55999999959,"y":2548802.4700000044}},{"attributes":{"ID":354931,"DIS_CODE":0,"TOWNNAME":"永康區","LI":"\u25A0行里","LIN":"6鄰","STREET":"新行街","SECT":" ","MAREA":" ","LANE":"３３巷","ALLEY":" ","HOUSE_NO":"１４號","E_COORD97":172222.95999999999,"N_COORD97":2548845.9100000001,"ADDRESS":"新行街３３巷１４號","OBJECTID":354922},"geometry":{"x":172222.96000000089,"y":2548845.9099999983}},{"attributes":{"ID":354932,"DIS_CODE":0,"TOWNNAME":"永康區","LI":"\u25A0行里","LIN":"6鄰","STREET":"新行街","SECT":" ","MAREA":" ","LANE":"３３巷","ALLEY":" ","HOUSE_NO":"１３號","E_COORD97":172215.47,"N_COORD97":2548831.1400000001,"ADDRESS":"新行街３３巷１３號","OBJECTID":354923},"geometry":{"x":172215.46999999881,"y":2548831.1400000006}},{"attributes":{"ID":354933,"DIS_CODE":0,"TOWNNAME":"永康區","LI":"\u25A0行里","LIN":"6鄰","STREET":"新行街","SECT":" ","MAREA":" ","LANE":"３３巷","ALLEY":" ","HOUSE_NO":"１７號","E_COORD97":172210.76999999999,"N_COORD97":2548837.6299999999,"ADDRESS":"新行街３３巷１７號","OBJECTID":354924},"geometry":{"x":172210.77000000048,"y":2548837.6300000008}},{"attributes":{"ID":354934,"DIS_CODE":0,"TOWNNAME":"永康區","LI":"\u25A0行里","LIN":"6鄰","STREET":"新行街","SECT":" ","MAREA":" ","LANE":"３３巷","ALLEY":" ","HOUSE_NO":"１９號","E_COORD97":172208.53,"N_COORD97":2548841.1299999999,"ADDRESS":"新行街３３巷１９號","OBJECTID":354925},"geometry":{"x":172208.53000000026,"y":2548841.1300000008}},{"attributes":{"ID":354935,"DIS_CODE":0,"TOWNNAME":"永康區","LI":"\u25A0行里","LIN":"6鄰","STREET":"新行街","SECT":" ","MAREA":" ","LANE":"３３巷","ALLEY":" ","HOUSE_NO":"３３號","E_COORD97":172178.34,"N_COORD97":2548842.77,"ADDRESS":"新行街３３巷３３號","OBJECTID":354926},"geometry":{"x":172178.34000000078,"y":2548842.7699999996}},{"attributes":{"ID":354936,"DIS_CODE":0,"TOWNNAME":"永康區","LI":"\u25A0行里","LIN":"6鄰","STREET":"新行街","SECT":" ","MAREA":" ","LANE":"３３巷","ALLEY":" ","HOUSE_NO":"３１號","E_COORD97":172181.64999999999,"N_COORD97":2548844.77,"ADDRESS":"新行街３３巷３１號","OBJECTID":354927},"geometry":{"x":172181.6500000013,"y":2548844.7699999996}},{"attributes":{"ID":354937,"DIS_CODE":0,"TOWNNAME":"永康區","LI":"\u25A0行里","LIN":"6鄰","STREET":"新行街","SECT":" ","MAREA":" ","LANE":"３３巷","ALLEY":" ","HOUSE_NO":"１８號","E_COORD97":172218.17999999999,"N_COORD97":2548869.4900000002,"ADDRESS":"新行街３３巷１８號","OBJECTID":354928},"geometry":{"x":172218.18000000063,"y":2548869.4900000039}},{"attributes":{"ID":354938,"DIS_CODE":0,"TOWNNAME":"永康區","LI":"\u25A0行里","LIN":"6鄰","STREET":"新行街","SECT":" ","MAREA":" ","LANE":"３３巷","ALLEY":" ","HOUSE_NO":"９號","E_COORD97":172219.62,"N_COORD97":2548824.8900000001,"ADDRESS":"新行街３３巷９號","OBJECTID":354929},"geometry":{"x":172219.62000000011,"y":2548824.8900000006}},{"attributes":{"ID":354939,"DIS_CODE":0,"TOWNNAME":"永康區","LI":"\u25A0行里","LIN":"6鄰","STREET":"新行街","SECT":" ","MAREA":" ","LANE":"３３巷","ALLEY":" ","HOUSE_NO":"２５號","E_COORD97":172191.73999999999,"N_COORD97":2548850.52,"ADDRESS":"新行街３３巷２５號","OBJECTID":354930},"geometry":{"x":172191.74000000022,"y":2548850.5199999996}},{"attributes":{"ID":354940,"DIS_CODE":0,"TOWNNAME":"永康區","LI":"\u25A0行里","LIN":"6鄰","STREET":"新行街","SECT":" ","MAREA":" ","LANE":"３３巷","ALLEY":" ","HOUSE_NO":"３號","E_COORD97":172228.28,"N_COORD97":2548816.8900000001,"ADDRESS":"新行街３３巷３號","OBJECTID":354931},"geometry":{"x":172228.28000000119,"y":2548816.8900000025}},{"attributes":{"ID":354941,"DIS_CODE":0,"TOWNNAME":"永康區","LI":"\u25A0行里","LIN":"6鄰","STREET":"新行街","SECT":" ","MAREA":" ","LANE":"３３巷","ALLEY":" ","HOUSE_NO":"８號","E_COORD97":172229.69,"N_COORD97":2548836.6699999999,"ADDRESS":"新行街３３巷８號","OBJECTID":354932},"geometry":{"x":172229.69000000041,"y":2548836.6699999999}},{"attributes":{"ID":354942,"DIS_CODE":0,"TOWNNAME":"永康區","LI":"\u25A0行里","LIN":"6鄰","STREET":"新行街","SECT":" ","MAREA":" ","LANE":"３３巷","ALLEY":" ","HOUSE_NO":"２號","E_COORD97":172238.38,"N_COORD97":2548827.9199999999,"ADDRESS":"新行街３３巷２號","OBJECTID":354933},"geometry":{"x":172238.38000000175,"y":2548827.9199999999}},{"attributes":{"ID":354943,"DIS_CODE":0,"TOWNNAME":"永康區","LI":"蔦松里","LIN":"6鄰","STREET":"蔦松一街","SECT":" ","MAREA":" ","LANE":"７４巷","ALLEY":" ","HOUSE_NO":"１９號","E_COORD97":173889.81,"N_COORD97":2549564.7400000002,"ADDRESS":"蔦松一街７４巷１９號","OBJECTID":354934},"geometry":{"x":173889.81000000052,"y":2549564.7400000002}},{"attributes":{"ID":354944,"DIS_CODE":0,"TOWNNAME":"永康區","LI":"蔦松里","LIN":"6鄰","STREET":"蔦松一街","SECT":" ","MAREA":" ","LANE":"７４巷","ALLEY":" ","HOUSE_NO":"１９之６號","E_COORD97":173842.87,"N_COORD97":2549519.5499999998,"ADDRESS":"蔦松一街７４巷１９之６號","OBJECTID":354935},"geometry":{"x":173842.87000000104,"y":2549519.5500000007}},{"attributes":{"ID":354945,"DIS_CODE":0,"TOWNNAME":"永康區","LI":"蔦松里","LIN":"6鄰","STREET":"蔦松一街","SECT":" ","MAREA":" ","LANE":"７４巷","ALLEY":" ","HOUSE_NO":"２１號","E_COORD97":173894.38,"N_COORD97":2549565.9900000002,"ADDRESS":"蔦松一街７４巷２１號","OBJECTID":354936},"geometry":{"x":173894.37999999989,"y":2549565.9900000021}},{"attributes":{"ID":354946,"DIS_CODE":0,"TOWNNAME":"永康區","LI":"蔦松里","LIN":"6鄰","STREET":"蔦松一街","SECT":" ","MAREA":" ","LANE":"７４巷","ALLEY":" ","HOUSE_NO":"２６之２號","E_COORD97":173893,"N_COORD97":2549554.1099999999,"ADDRESS":"蔦松一街７４巷２６之２號","OBJECTID":354937},"geometry":{"x":173893.00000000093,"y":2549554.1100000013}},{"attributes":{"ID":354947,"DIS_CODE":0,"TOWNNAME":"永康區","LI":"蔦松里","LIN":"6鄰","STREET":"蔦松一街","SECT":" ","MAREA":" ","LANE":"７４巷","ALLEY":" ","HOUSE_NO":"６號","E_COORD97":173892.85000000001,"N_COORD97":2549488,"ADDRESS":"蔦松一街７４巷６號","OBJECTID":354938},"geometry":{"x":173892.85000000149,"y":2549488}},{"attributes":{"ID":354948,"DIS_CODE":0,"TOWNNAME":"永康區","LI":"蔦松里","LIN":"6鄰","STREET":"蔦松一街","SECT":" ","MAREA":" ","LANE":"７４巷","ALLEY":" ","HOUSE_NO":"３３號","E_COORD97":173920.54000000001,"N_COORD97":2549564.2400000002,"ADDRESS":"蔦松一街７４巷３３號","OBJECTID":354939},"geometry":{"x":173920.54000000004,"y":2549564.2400000021}},{"attributes":{"ID":354949,"DIS_CODE":0,"TOWNNAME":"永康區","LI":"蔦松里","LIN":"6鄰","STREET":"蔦松一街","SECT":" ","MAREA":" ","LANE":"７４巷","ALLEY":" ","HOUSE_NO":"２９號","E_COORD97":173909.88,"N_COORD97":2549570.2400000002,"ADDRESS":"蔦松一街７４巷２９號","OBJECTID":354940},"geometry":{"x":173909.88000000175,"y":2549570.2400000021}},{"attributes":{"ID":354950,"DIS_CODE":0,"TOWNNAME":"永康區","LI":"蔦松里","LIN":"6鄰","STREET":"蔦松一街","SECT":" ","MAREA":" ","LANE":"７４巷","ALLEY":" ","HOUSE_NO":"１９號之３","E_COORD97":173852.28,"N_COORD97":2549522.0499999998,"ADDRESS":"蔦松一街７４巷１９號之３","OBJECTID":354941},"geometry":{"x":173852.28000000119,"y":2549522.0500000026}},{"attributes":{"ID":354951,"DIS_CODE":0,"TOWNNAME":"永康區","LI":"蔦松里","LIN":"6鄰","STREET":"蔦松一街","SECT":" ","MAREA":" ","LANE":"７４巷","ALLEY":" ","HOUSE_NO":"２６號","E_COORD97":173889.45999999999,"N_COORD97":2549541.3799999999,"ADDRESS":"蔦松一街７４巷２６號","OBJECTID":354942},"geometry":{"x":173889.46000000089,"y":2549541.3800000008}},{"attributes":{"ID":354952,"DIS_CODE":0,"TOWNNAME":"永康區","LI":"蔦松里","LIN":"6鄰","STREET":"蔦松一街","SECT":" ","MAREA":" ","LANE":"７４巷","ALLEY":" ","HOUSE_NO":"２６之１號","E_COORD97":173892.31,"N_COORD97":2549548.1200000001,"ADDRESS":"蔦松一街７４巷２６之１號","OBJECTID":354943},"geometry":{"x":173892.30999999959,"y":2549548.1200000029}},{"attributes":{"ID":354953,"DIS_CODE":0,"TOWNNAME":"東區","LI":"中西里","LIN":"8鄰","STREET":"勝利路","SECT":" ","MAREA":" ","LANE":" ","ALLEY":" ","HOUSE_NO":"５０號七樓之５","E_COORD97":169830.25,"N_COORD97":2543536.9100000001,"ADDRESS":"勝利路５０號七樓之５","OBJECTID":354944},"geometry":{"x":169830.25,"y":2543536.9100000039}},{"attributes":{"ID":354954,"DIS_CODE":0,"TOWNNAME":"永康區","LI":"蔦松里","LIN":"6鄰","STREET":"蔦松一街","SECT":" ","MAREA":" ","LANE":"７４巷","ALLEY":" ","HOUSE_NO":"３７號","E_COORD97":173930.07999999999,"N_COORD97":2549564.2400000002,"ADDRESS":"蔦松一街７４巷３７號","OBJECTID":354945},"geometry":{"x":173930.08000000007,"y":2549564.2400000021}},{"attributes":{"ID":354955,"DIS_CODE":0,"TOWNNAME":"北區","LI":"文成里","LIN":"20鄰","STREET":"海安路","SECT":"三段","MAREA":" ","LANE":"１３５巷","ALLEY":" ","HOUSE_NO":"１２５號","E_COORD97":167638.38,"N_COORD97":2545005.6000000001,"ADDRESS":"海安路三段１３５巷１２５號","OBJECTID":354946},"geometry":{"x":167638.38000000082,"y":2545005.5999999996}},{"attributes":{"ID":354956,"DIS_CODE":0,"TOWNNAME":"北區","LI":"文成里","LIN":"20鄰","STREET":"海安路","SECT":"三段","MAREA":" ","LANE":"１３５巷","ALLEY":" ","HOUSE_NO":"１２７號","E_COORD97":167633.84,"N_COORD97":2545008.2599999998,"ADDRESS":"海安路三段１３５巷１２７號","OBJECTID":354947},"geometry":{"x":167633.83999999985,"y":2545008.2599999998}},{"attributes":{"ID":354957,"DIS_CODE":0,"TOWNNAME":"北區","LI":"文成里","LIN":"20鄰","STREET":"海安路","SECT":"三段","MAREA":" ","LANE":"１３５巷","ALLEY":" ","HOUSE_NO":"１２９號","E_COORD97":167629.12,"N_COORD97":2545008.2599999998,"ADDRESS":"海安路三段１３５巷１２９號","OBJECTID":354948},"geometry":{"x":167629.12000000011,"y":2545008.2599999998}},{"attributes":{"ID":354958,"DIS_CODE":0,"TOWNNAME":"北區","LI":"文成里","LIN":"20鄰","STREET":"海安路","SECT":"三段","MAREA":" ","LANE":"１３５巷","ALLEY":" ","HOUSE_NO":"１３１號","E_COORD97":167624.09,"N_COORD97":2545006.9399999999,"ADDRESS":"海安路三段１３５巷１３１號","OBJECTID":354949},"geometry":{"x":167624.08999999985,"y":2545006.9399999995}},{"attributes":{"ID":354959,"DIS_CODE":0,"TOWNNAME":"北區","LI":"文成里","LIN":"20鄰","STREET":"海安路","SECT":"三段","MAREA":" ","LANE":"１３５巷","ALLEY":" ","HOUSE_NO":"１３３號","E_COORD97":167619.82000000001,"N_COORD97":2545007.1600000001,"ADDRESS":"海安路三段１３５巷１３３號","OBJECTID":354950},"geometry":{"x":167619.82000000216,"y":2545007.160000002}},{"attributes":{"ID":354960,"DIS_CODE":0,"TOWNNAME":"北區","LI":"文成里","LIN":"20鄰","STREET":"海安路","SECT":"三段","MAREA":" ","LANE":"１３５巷","ALLEY":" ","HOUSE_NO":"１３５號","E_COORD97":167616.44,"N_COORD97":2545006.71,"ADDRESS":"海安路三段１３５巷１３５號","OBJECTID":354951},"geometry":{"x":167616.44000000134,"y":2545006.709999999}},{"attributes":{"ID":354961,"DIS_CODE":0,"TOWNNAME":"北區","LI":"文成里","LIN":"20鄰","STREET":"海安路","SECT":"三段","MAREA":" ","LANE":"１３５巷","ALLEY":" ","HOUSE_NO":"１３７號","E_COORD97":167611.26999999999,"N_COORD97":2545007.6099999999,"ADDRESS":"海安路三段１３５巷１３７號","OBJECTID":354952},"geometry":{"x":167611.27000000048,"y":2545007.6100000013}},{"attributes":{"ID":354962,"DIS_CODE":0,"TOWNNAME":"北區","LI":"文成里","LIN":"20鄰","STREET":"海安路","SECT":"三段","MAREA":" ","LANE":"１３５巷","ALLEY":" ","HOUSE_NO":"１３９號","E_COORD97":167607.45000000001,"N_COORD97":2545007.8399999999,"ADDRESS":"海安路三段１３５巷１３９號","OBJECTID":354953},"geometry":{"x":167607.45000000112,"y":2545007.8399999999}},{"attributes":{"ID":354963,"DIS_CODE":0,"TOWNNAME":"北區","LI":"文成里","LIN":"20鄰","STREET":"海安路","SECT":"三段","MAREA":" ","LANE":"１３５巷","ALLEY":" ","HOUSE_NO":"１４１號","E_COORD97":167603.17999999999,"N_COORD97":2545007.8399999999,"ADDRESS":"海安路三段１３５巷１４１號","OBJECTID":354954},"geometry":{"x":167603.18000000156,"y":2545007.8399999999}},{"attributes":{"ID":354964,"DIS_CODE":0,"TOWNNAME":"北區","LI":"文成里","LIN":"20鄰","STREET":"海安路","SECT":"三段","MAREA":" ","LANE":"１３５巷","ALLEY":" ","HOUSE_NO":"１４３號","E_COORD97":167599.13,"N_COORD97":2545008.5099999998,"ADDRESS":"海安路三段１３５巷１４３號","OBJECTID":354955},"geometry":{"x":167599.13000000082,"y":2545008.5100000016}},{"attributes":{"ID":354965,"DIS_CODE":0,"TOWNNAME":"仁德區","LI":"土庫里","LIN":"6鄰","STREET":"土庫三街","SECT":" ","MAREA":" ","LANE":"６１巷","ALLEY":" ","HOUSE_NO":"１２號","E_COORD97":174288.29000000001,"N_COORD97":2543134.75,"ADDRESS":"土庫三街６１巷１２號","OBJECTID":354956},"geometry":{"x":174288.29000000004,"y":2543134.7500000019}},{"attributes":{"ID":354966,"DIS_CODE":0,"TOWNNAME":"北區","LI":"文成里","LIN":"20鄰","STREET":"海安路","SECT":"三段","MAREA":" ","LANE":"１３５巷","ALLEY":" ","HOUSE_NO":"１４５號","E_COORD97":167594.19,"N_COORD97":2545009.1800000002,"ADDRESS":"海安路三段１３５巷１４５號","OBJECTID":354957},"geometry":{"x":167594.19000000134,"y":2545009.1800000034}},{"attributes":{"ID":354967,"DIS_CODE":0,"TOWNNAME":"北區","LI":"文成里","LIN":"20鄰","STREET":"海安路","SECT":"三段","MAREA":" ","LANE":"１３５巷","ALLEY":" ","HOUSE_NO":"１４７號","E_COORD97":167589.01999999999,"N_COORD97":2545008.73,"ADDRESS":"海安路三段１３５巷１４７號","OBJECTID":354958},"geometry":{"x":167589.02000000048,"y":2545008.7300000004}},{"attributes":{"ID":354968,"DIS_CODE":0,"TOWNNAME":"永康區","LI":"蔦松里","LIN":"6鄰","STREET":"蔦松一街","SECT":" ","MAREA":" ","LANE":"７４巷","ALLEY":" ","HOUSE_NO":"３９號","E_COORD97":173934.54000000001,"N_COORD97":2549564.2400000002,"ADDRESS":"蔦松一街７４巷３９號","OBJECTID":354959},"geometry":{"x":173934.54000000097,"y":2549564.2400000021}},{"attributes":{"ID":354969,"DIS_CODE":0,"TOWNNAME":"麻豆區","LI":"巷口里","LIN":"6鄰","STREET":"建南街","SECT":" ","MAREA":" ","LANE":"７４巷","ALLEY":" ","HOUSE_NO":"１２號","E_COORD97":173159.01999999999,"N_COORD97":2564205.4300000002,"ADDRESS":"建南街７４巷１２號","OBJECTID":354960},"geometry":{"x":173159.01999999955,"y":2564205.4300000016}},{"attributes":{"ID":354970,"DIS_CODE":0,"TOWNNAME":"麻豆區","LI":"巷口里","LIN":"6鄰","STREET":"建南街","SECT":" ","MAREA":" ","LANE":"７４巷","ALLEY":" ","HOUSE_NO":"１６號","E_COORD97":173158.51999999999,"N_COORD97":2564191.73,"ADDRESS":"建南街７４巷１６號","OBJECTID":354961},"geometry":{"x":173158.51999999955,"y":2564191.7300000004}},{"attributes":{"ID":354971,"DIS_CODE":0,"TOWNNAME":"麻豆區","LI":"巷口里","LIN":"6鄰","STREET":"建南街","SECT":" ","MAREA":" ","LANE":"７４巷","ALLEY":" ","HOUSE_NO":"２號","E_COORD97":173159.31,"N_COORD97":2564220.7799999998,"ADDRESS":"建南街７４巷２號","OBJECTID":354962},"geometry":{"x":173159.31000000052,"y":2564220.7799999993}},{"attributes":{"ID":354972,"DIS_CODE":0,"TOWNNAME":"麻豆區","LI":"巷口里","LIN":"6鄰","STREET":"建南街","SECT":" ","MAREA":" ","LANE":"７４巷","ALLEY":" ","HOUSE_NO":"５０號","E_COORD97":173232.67999999999,"N_COORD97":2564222.1099999999,"ADDRESS":"建南街７４巷５０號","OBJECTID":354963},"geometry":{"x":173232.6799999997,"y":2564222.1099999994}},{"attributes":{"ID":354973,"DIS_CODE":0,"TOWNNAME":"仁德區","LI":"二行里","LIN":"6鄰","STREET":"二仁路","SECT":"一段","MAREA":" ","LANE":"６３巷","ALLEY":" ","HOUSE_NO":"９號","E_COORD97":170527.20000000001,"N_COORD97":2535375.77,"ADDRESS":"二仁路一段６３巷９號","OBJECTID":354964},"geometry":{"x":170527.20000000019,"y":2535375.7699999996}},{"attributes":{"ID":354974,"DIS_CODE":0,"TOWNNAME":"東區","LI":"中西里","LIN":"8鄰","STREET":"勝利路","SECT":" ","MAREA":" ","LANE":" ","ALLEY":" ","HOUSE_NO":"５０號七樓之６","E_COORD97":169830.25,"N_COORD97":2543536.9100000001,"ADDRESS":"勝利路５０號七樓之６","OBJECTID":354965},"geometry":{"x":169830.25,"y":2543536.9100000039}},{"attributes":{"ID":354975,"DIS_CODE":0,"TOWNNAME":"東區","LI":"中西里","LIN":"8鄰","STREET":"勝利路","SECT":" ","MAREA":" ","LANE":" ","ALLEY":" ","HOUSE_NO":"５０號七樓之７","E_COORD97":169830.25,"N_COORD97":2543536.9100000001,"ADDRESS":"勝利路５０號七樓之７","OBJECTID":354966},"geometry":{"x":169830.25,"y":2543536.9100000039}},{"attributes":{"ID":354976,"DIS_CODE":0,"TOWNNAME":"東區","LI":"中西里","LIN":"8鄰","STREET":"勝利路","SECT":" ","MAREA":" ","LANE":" ","ALLEY":" ","HOUSE_NO":"５０號七樓之８","E_COORD97":169830.25,"N_COORD97":2543536.9100000001,"ADDRESS":"勝利路５０號七樓之８","OBJECTID":354967},"geometry":{"x":169830.25,"y":2543536.9100000039}},{"attributes":{"ID":354977,"DIS_CODE":0,"TOWNNAME":"東區","LI":"中西里","LIN":"8鄰","STREET":"勝利路","SECT":" ","MAREA":" ","LANE":" ","ALLEY":" ","HOUSE_NO":"５０號七樓之９","E_COORD97":169830.25,"N_COORD97":2543536.9100000001,"ADDRESS":"勝利路５０號七樓之９","OBJECTID":354968},"geometry":{"x":169830.25,"y":2543536.9100000039}},{"attributes":{"ID":354978,"DIS_CODE":0,"TOWNNAME":"東區","LI":"中西里","LIN":"8鄰","STREET":"勝利路","SECT":" ","MAREA":" ","LANE":" ","ALLEY":" ","HOUSE_NO":"５０號七樓之１０","E_COORD97":169830.25,"N_COORD97":2543536.9100000001,"ADDRESS":"勝利路５０號七樓之１０","OBJECTID":354969},"geometry":{"x":169830.25,"y":2543536.9100000039}},{"attributes":{"ID":354979,"DIS_CODE":0,"TOWNNAME":"東區","LI":"中西里","LIN":"8鄰","STREET":"勝利路","SECT":" ","MAREA":" ","LANE":" ","ALLEY":" ","HOUSE_NO":"５０號七樓之１１","E_COORD97":169830.25,"N_COORD97":2543536.9100000001,"ADDRESS":"勝利路５０號七樓之１１","OBJECTID":354970},"geometry":{"x":169830.25,"y":2543536.9100000039}},{"attributes":{"ID":354980,"DIS_CODE":0,"TOWNNAME":"東區","LI":"中西里","LIN":"8鄰","STREET":"勝利路","SECT":" ","MAREA":" ","LANE":" ","ALLEY":" ","HOUSE_NO":"５０號七樓之１２","E_COORD97":169830.25,"N_COORD97":2543536.9100000001,"ADDRESS":"勝利路５０號七樓之１２","OBJECTID":354971},"geometry":{"x":169830.25,"y":2543536.9100000039}},{"attributes":{"ID":354981,"DIS_CODE":0,"TOWNNAME":"東區","LI":"中西里","LIN":"8鄰","STREET":"勝利路","SECT":" ","MAREA":" ","LANE":" ","ALLEY":" ","HOUSE_NO":"５０號七樓之１３","E_COORD97":169830.25,"N_COORD97":2543536.9100000001,"ADDRESS":"勝利路５０號七樓之１３","OBJECTID":354972},"geometry":{"x":169830.25,"y":2543536.9100000039}},{"attributes":{"ID":354982,"DIS_CODE":0,"TOWNNAME":"東區","LI":"中西里","LIN":"8鄰","STREET":"勝利路","SECT":" ","MAREA":" ","LANE":" ","ALLEY":" ","HOUSE_NO":"５０號七樓之１４","E_COORD97":169830.25,"N_COORD97":2543536.9100000001,"ADDRESS":"勝利路５０號七樓之１４","OBJECTID":354973},"geometry":{"x":169830.25,"y":2543536.9100000039}},{"attributes":{"ID":354983,"DIS_CODE":0,"TOWNNAME":"東區","LI":"中西里","LIN":"8鄰","STREET":"勝利路","SECT":" ","MAREA":" ","LANE":" ","ALLEY":" ","HOUSE_NO":"５０號七樓之１５","E_COORD97":169830.25,"N_COORD97":2543536.9100000001,"ADDRESS":"勝利路５０號七樓之１５","OBJECTID":354974},"geometry":{"x":169830.25,"y":2543536.9100000039}},{"attributes":{"ID":354984,"DIS_CODE":0,"TOWNNAME":"東區","LI":"中西里","LIN":"8鄰","STREET":"勝利路","SECT":" ","MAREA":" ","LANE":" ","ALLEY":" ","HOUSE_NO":"５０號七樓之１６","E_COORD97":169830.25,"N_COORD97":2543536.9100000001,"ADDRESS":"勝利路５０號七樓之１６","OBJECTID":354975},"geometry":{"x":169830.25,"y":2543536.9100000039}},{"attributes":{"ID":354985,"DIS_CODE":0,"TOWNNAME":"南區","LI":"金華里","LIN":"6鄰","STREET":"聖南街","SECT":" ","MAREA":" ","LANE":" ","ALLEY":" ","HOUSE_NO":"２８號","E_COORD97":167022.95999999999,"N_COORD97":2542337,"ADDRESS":"聖南街２８號","OBJECTID":354976},"geometry":{"x":167022.95999999996,"y":2542337.0000000019}},{"attributes":{"ID":354986,"DIS_CODE":0,"TOWNNAME":"東區","LI":"中西里","LIN":"8鄰","STREET":"勝利路","SECT":" ","MAREA":" ","LANE":" ","ALLEY":" ","HOUSE_NO":"５０號七樓之１７","E_COORD97":169830.25,"N_COORD97":2543536.9100000001,"ADDRESS":"勝利路５０號七樓之１７","OBJECTID":354977},"geometry":{"x":169830.25,"y":2543536.9100000039}},{"attributes":{"ID":354987,"DIS_CODE":0,"TOWNNAME":"北區","LI":"中樓里","LIN":"20鄰","STREET":"勝利路","SECT":" ","MAREA":" ","LANE":"４６７巷","ALLEY":" ","HOUSE_NO":"２１號","E_COORD97":169844.17999999999,"N_COORD97":2545122.6899999999,"ADDRESS":"勝利路４６７巷２１號","OBJECTID":354978},"geometry":{"x":169844.18000000156,"y":2545122.6899999995}},{"attributes":{"ID":354988,"DIS_CODE":0,"TOWNNAME":"北區","LI":"中樓里","LIN":"20鄰","STREET":"勝利路","SECT":" ","MAREA":" ","LANE":"４６７巷","ALLEY":" ","HOUSE_NO":"２３號","E_COORD97":169840.17000000001,"N_COORD97":2545122.0699999998,"ADDRESS":"勝利路４６７巷２３號","OBJECTID":354979},"geometry":{"x":169840.17000000086,"y":2545122.0700000003}},{"attributes":{"ID":354989,"DIS_CODE":0,"TOWNNAME":"北區","LI":"中樓里","LIN":"20鄰","STREET":"勝利路","SECT":" ","MAREA":" ","LANE":"４６７巷","ALLEY":" ","HOUSE_NO":"２５號","E_COORD97":169836.56,"N_COORD97":2545120.73,"ADDRESS":"勝利路４６７巷２５號","OBJECTID":354980},"geometry":{"x":169836.56000000145,"y":2545120.7300000004}},{"attributes":{"ID":354990,"DIS_CODE":0,"TOWNNAME":"北區","LI":"中樓里","LIN":"20鄰","STREET":"勝利路","SECT":" ","MAREA":" ","LANE":"４６７巷","ALLEY":" ","HOUSE_NO":"７號","E_COORD97":169874.14000000001,"N_COORD97":2545128.8599999999,"ADDRESS":"勝利路４６７巷７號","OBJECTID":354981},"geometry":{"x":169874.13999999966,"y":2545128.8599999994}},{"attributes":{"ID":354991,"DIS_CODE":0,"TOWNNAME":"北區","LI":"中樓里","LIN":"20鄰","STREET":"勝利路","SECT":" ","MAREA":" ","LANE":"４６７巷","ALLEY":" ","HOUSE_NO":"９號","E_COORD97":169870.01999999999,"N_COORD97":2545127.9300000002,"ADDRESS":"勝利路４６７巷９號","OBJECTID":354982},"geometry":{"x":169870.01999999955,"y":2545127.9300000016}},{"attributes":{"ID":354992,"DIS_CODE":0,"TOWNNAME":"仁德區","LI":"二行里","LIN":"6鄰","STREET":"二仁路","SECT":"一段","MAREA":" ","LANE":"６３巷","ALLEY":" ","HOUSE_NO":"１０號","E_COORD97":170534.22,"N_COORD97":2535386.52,"ADDRESS":"二仁路一段６３巷１０號","OBJECTID":354983},"geometry":{"x":170534.22000000067,"y":2535386.5200000014}},{"attributes":{"ID":354993,"DIS_CODE":0,"TOWNNAME":"仁德區","LI":"二行里","LIN":"6鄰","STREET":"二仁路","SECT":"一段","MAREA":" ","LANE":"６３巷","ALLEY":" ","HOUSE_NO":"１１號","E_COORD97":170524.19,"N_COORD97":2535375.27,"ADDRESS":"二仁路一段６３巷１１號","OBJECTID":354984},"geometry":{"x":170524.19000000041,"y":2535375.2699999996}},{"attributes":{"ID":354994,"DIS_CODE":0,"TOWNNAME":"仁德區","LI":"土庫里","LIN":"6鄰","STREET":"土庫三街","SECT":" ","MAREA":" ","LANE":"６１巷","ALLEY":" ","HOUSE_NO":"１０號","E_COORD97":174303.38,"N_COORD97":2543121.25,"ADDRESS":"土庫三街６１巷１０號","OBJECTID":354985},"geometry":{"x":174303.38000000082,"y":2543121.2500000019}},{"attributes":{"ID":354995,"DIS_CODE":0,"TOWNNAME":"仁德區","LI":"二行里","LIN":"6鄰","STREET":"二仁路","SECT":"一段","MAREA":" ","LANE":"６３巷","ALLEY":" ","HOUSE_NO":"１２號","E_COORD97":170529.95000000001,"N_COORD97":2535386.52,"ADDRESS":"二仁路一段６３巷１２號","OBJECTID":354986},"geometry":{"x":170529.95000000112,"y":2535386.5200000014}},{"attributes":{"ID":354996,"DIS_CODE":0,"TOWNNAME":"仁德區","LI":"二行里","LIN":"6鄰","STREET":"二仁路","SECT":"一段","MAREA":" ","LANE":"６３巷","ALLEY":" ","HOUSE_NO":"８號","E_COORD97":170537.53,"N_COORD97":2535386.77,"ADDRESS":"二仁路一段６３巷８號","OBJECTID":354987},"geometry":{"x":170537.53000000212,"y":2535386.7700000033}},{"attributes":{"ID":354997,"DIS_CODE":0,"TOWNNAME":"仁德區","LI":"二行里","LIN":"6鄰","STREET":"二仁路","SECT":"一段","MAREA":" ","LANE":"６３巷","ALLEY":" ","HOUSE_NO":"６號","E_COORD97":170541.12,"N_COORD97":2535387.02,"ADDRESS":"二仁路一段６３巷６號","OBJECTID":354988},"geometry":{"x":170541.12000000011,"y":2535387.0199999996}},{"attributes":{"ID":354998,"DIS_CODE":0,"TOWNNAME":"仁德區","LI":"上崙里","LIN":"6鄰","STREET":"德南路","SECT":" ","MAREA":" ","LANE":"３９９巷","ALLEY":" ","HOUSE_NO":"１０號","E_COORD97":173955.88,"N_COORD97":2538259.52,"ADDRESS":"德南路３９９巷１０號","OBJECTID":354989},"geometry":{"x":173955.88000000082,"y":2538259.5199999996}},{"attributes":{"ID":354999,"DIS_CODE":0,"TOWNNAME":"仁德區","LI":"二行里","LIN":"6鄰","STREET":"二仁路","SECT":"一段","MAREA":" ","LANE":"６３巷","ALLEY":" ","HOUSE_NO":"２號","E_COORD97":170545.10999999999,"N_COORD97":2535386.77,"ADDRESS":"二仁路一段６３巷２號","OBJECTID":354990},"geometry":{"x":170545.11000000034,"y":2535386.7700000033}},{"attributes":{"ID":355000,"DIS_CODE":0,"TOWNNAME":"仁德區","LI":"上崙里","LIN":"6鄰","STREET":"德南路","SECT":" ","MAREA":" ","LANE":"３９９巷","ALLEY":" ","HOUSE_NO":"１２號","E_COORD97":173959.95000000001,"N_COORD97":2538260.52,"ADDRESS":"德南路３９９巷１２號","OBJECTID":354991},"geometry":{"x":173959.95000000019,"y":2538260.5200000014}},{"attributes":{"ID":355001,"DIS_CODE":0,"TOWNNAME":"仁德區","LI":"仁德里","LIN":"6鄰","STREET":"仁德三街","SECT":" ","MAREA":" ","LANE":"３５巷","ALLEY":" ","HOUSE_NO":"３號","E_COORD97":173253,"N_COORD97":2540962.02,"ADDRESS":"仁德三街３５巷３號","OBJECTID":354992},"geometry":{"x":173252.99999999907,"y":2540962.0200000033}},{"attributes":{"ID":355002,"DIS_CODE":0,"TOWNNAME":"仁德區","LI":"仁德里","LIN":"6鄰","STREET":"仁德三街","SECT":" ","MAREA":" ","LANE":"４７巷","ALLEY":" ","HOUSE_NO":"６號","E_COORD97":173191.79000000001,"N_COORD97":2540956.02,"ADDRESS":"仁德三街４７巷６號","OBJECTID":354993},"geometry":{"x":173191.7900000019,"y":2540956.0200000014}},{"attributes":{"ID":355003,"DIS_CODE":0,"TOWNNAME":"仁德區","LI":"仁德里","LIN":"6鄰","STREET":"仁德三街","SECT":" ","MAREA":" ","LANE":"９巷","ALLEY":" ","HOUSE_NO":"２號","E_COORD97":173309.87,"N_COORD97":2540969.0099999998,"ADDRESS":"仁德三街９巷２號","OBJECTID":354994},"geometry":{"x":173309.87000000011,"y":2540969.0099999979}},{"attributes":{"ID":355004,"DIS_CODE":0,"TOWNNAME":"仁德區","LI":"仁德里","LIN":"6鄰","STREET":"仁德三街","SECT":" ","MAREA":" ","LANE":"５５巷","ALLEY":" ","HOUSE_NO":"５號","E_COORD97":173186.03,"N_COORD97":2540930.77,"ADDRESS":"仁德三街５５巷５號","OBJECTID":354995},"geometry":{"x":173186.03000000119,"y":2540930.7700000014}},{"attributes":{"ID":355005,"DIS_CODE":0,"TOWNNAME":"安南區","LI":"布袋里","LIN":"6鄰","STREET":"長和路","SECT":"四段","MAREA":" ","LANE":"１６０巷","ALLEY":" ","HOUSE_NO":"１１號","E_COORD97":168959.62,"N_COORD97":2551714.1499999999,"ADDRESS":"長和路四段１６０巷１１號","OBJECTID":354996},"geometry":{"x":168959.62000000011,"y":2551714.1500000022}},{"attributes":{"ID":355006,"DIS_CODE":0,"TOWNNAME":"東區","LI":"中西里","LIN":"6鄰","STREET":"勝利路","SECT":" ","MAREA":" ","LANE":"１２巷","ALLEY":" ","HOUSE_NO":"６１號","E_COORD97":169930.57999999999,"N_COORD97":2543380.9500000002,"ADDRESS":"勝利路１２巷６１號","OBJECTID":354997},"geometry":{"x":169930.58000000101,"y":2543380.9500000011}},{"attributes":{"ID":355007,"DIS_CODE":0,"TOWNNAME":"東區","LI":"中西里","LIN":"6鄰","STREET":"勝利路","SECT":" ","MAREA":" ","LANE":"１２巷","ALLEY":" ","HOUSE_NO":"６５號","E_COORD97":169931.31,"N_COORD97":2543373.98,"ADDRESS":"勝利路１２巷６５號","OBJECTID":354998},"geometry":{"x":169931.30999999866,"y":2543373.9800000042}},{"attributes":{"ID":355008,"DIS_CODE":0,"TOWNNAME":"東區","LI":"中西里","LIN":"6鄰","STREET":"勝利路","SECT":" ","MAREA":" ","LANE":"１２巷","ALLEY":" ","HOUSE_NO":"６７號","E_COORD97":169931.67999999999,"N_COORD97":2543370.5,"ADDRESS":"勝利路１２巷６７號","OBJECTID":354999},"geometry":{"x":169931.6799999997,"y":2543370.5000000019}},{"attributes":{"ID":355009,"DIS_CODE":0,"TOWNNAME":"東區","LI":"中西里","LIN":"8鄰","STREET":"勝利路","SECT":" ","MAREA":" ","LANE":" ","ALLEY":" ","HOUSE_NO":"５０號八樓","E_COORD97":169830.25,"N_COORD97":2543536.9100000001,"ADDRESS":"勝利路５０號八樓","OBJECTID":355000},"geometry":{"x":169830.25,"y":2543536.9100000039}}]}