{"displayFieldName":"TOWNNAME","fieldAliases":{"ID":"ID","DIS_CODE":"DIS_CODE","TOWNNAME":"TOWNNAME","LI":"LI","LIN":"LIN","STREET":"STREET","SECT":"SECT","MAREA":"MAREA","LANE":"LANE","ALLEY":"ALLEY","HOUSE_NO":"HOUSE_NO","E_COORD97":"E_COORD97","N_COORD97":"N_COORD97","ADDRESS":"ADDRESS","OBJECTID":"OBJECTID"},"geometryType":"esriGeometryPoint","spatialReference":{"wkid":102443,"latestWkid":3826},"fields":[{"name":"ID","type":"esriFieldTypeDouble","alias":"ID"},{"name":"DIS_CODE","type":"esriFieldTypeInteger","alias":"DIS_CODE"},{"name":"TOWNNAME","type":"esriFieldTypeString","alias":"TOWNNAME","length":8},{"name":"LI","type":"esriFieldTypeString","alias":"LI","length":8},{"name":"LIN","type":"esriFieldTypeString","alias":"LIN","length":12},{"name":"STREET","type":"esriFieldTypeString","alias":"STREET","length":20},{"name":"SECT","type":"esriFieldTypeString","alias":"SECT","length":8},{"name":"MAREA","type":"esriFieldTypeString","alias":"MAREA","length":12},{"name":"LANE","type":"esriFieldTypeString","alias":"LANE","length":10},{"name":"ALLEY","type":"esriFieldTypeString","alias":"ALLEY","length":10},{"name":"HOUSE_NO","type":"esriFieldTypeString","alias":"HOUSE_NO","length":20},{"name":"E_COORD97","type":"esriFieldTypeDouble","alias":"E_COORD97"},{"name":"N_COORD97","type":"esriFieldTypeDouble","alias":"N_COORD97"},{"name":"ADDRESS","type":"esriFieldTypeString","alias":"ADDRESS","length":50},{"name":"OBJECTID","type":"esriFieldTypeOID","alias":"OBJECTID"}],"features":[{"attributes":{"ID":394025,"DIS_CODE":0,"TOWNNAME":"東區","LI":"虎尾里","LIN":"17鄰","STREET":"富農街","SECT":"一段","MAREA":" ","LANE":"２９巷","ALLEY":" ","HOUSE_NO":"１９號","E_COORD97":171472.28,"N_COORD97":2542214.1000000001,"ADDRESS":"富農街一段２９巷１９號","OBJECTID":394001},"geometry":{"x":171472.28000000119,"y":2542214.1000000015}},{"attributes":{"ID":394026,"DIS_CODE":0,"TOWNNAME":"東區","LI":"虎尾里","LIN":"17鄰","STREET":"富農街","SECT":"一段","MAREA":" ","LANE":"２９巷","ALLEY":" ","HOUSE_NO":"２３號","E_COORD97":171470.67000000001,"N_COORD97":2542222.5499999998,"ADDRESS":"富農街一段２９巷２３號","OBJECTID":394002},"geometry":{"x":171470.67000000086,"y":2542222.5500000026}},{"attributes":{"ID":394027,"DIS_CODE":0,"TOWNNAME":"東區","LI":"莊敬里","LIN":"8鄰","STREET":"東光路","SECT":"二段","MAREA":" ","LANE":"７７巷","ALLEY":" ","HOUSE_NO":"１號之１","E_COORD97":171190.48000000001,"N_COORD97":2544136.8199999998,"ADDRESS":"東光路二段７７巷１號之１","OBJECTID":394003},"geometry":{"x":171190.48000000045,"y":2544136.8200000003}},{"attributes":{"ID":394028,"DIS_CODE":0,"TOWNNAME":"關廟區","LI":"北勢里","LIN":"16鄰","STREET":"成功路","SECT":" ","MAREA":" ","LANE":"３２８巷","ALLEY":" ","HOUSE_NO":"９號","E_COORD97":181309.17000000001,"N_COORD97":2540574.27,"ADDRESS":"成功路３２８巷９號","OBJECTID":394004},"geometry":{"x":181309.17000000179,"y":2540574.2700000014}},{"attributes":{"ID":394029,"DIS_CODE":0,"TOWNNAME":"東區","LI":"虎尾里","LIN":"17鄰","STREET":"富農街","SECT":"一段","MAREA":" ","LANE":"２９巷","ALLEY":" ","HOUSE_NO":"２５號","E_COORD97":171469.66,"N_COORD97":2542226.5800000001,"ADDRESS":"富農街一段２９巷２５號","OBJECTID":394005},"geometry":{"x":171469.66000000108,"y":2542226.5800000001}},{"attributes":{"ID":394030,"DIS_CODE":0,"TOWNNAME":"東區","LI":"虎尾里","LIN":"17鄰","STREET":"富農街","SECT":"一段","MAREA":" ","LANE":"２９巷","ALLEY":" ","HOUSE_NO":"２７號","E_COORD97":171468.85000000001,"N_COORD97":2542231.21,"ADDRESS":"富農街一段２９巷２７號","OBJECTID":394006},"geometry":{"x":171468.85000000056,"y":2542231.2100000028}},{"attributes":{"ID":394031,"DIS_CODE":0,"TOWNNAME":"東區","LI":"虎尾里","LIN":"17鄰","STREET":"富農街","SECT":"一段","MAREA":" ","LANE":"２９巷","ALLEY":" ","HOUSE_NO":"２９號","E_COORD97":171468.64999999999,"N_COORD97":2542235.4399999999,"ADDRESS":"富農街一段２９巷２９號","OBJECTID":394007},"geometry":{"x":171468.65000000037,"y":2542235.4400000013}},{"attributes":{"ID":394032,"DIS_CODE":0,"TOWNNAME":"東區","LI":"虎尾里","LIN":"17鄰","STREET":"富農街","SECT":"一段","MAREA":" ","LANE":"２９巷","ALLEY":" ","HOUSE_NO":"３１號","E_COORD97":171467.64999999999,"N_COORD97":2542239.8700000001,"ADDRESS":"富農街一段２９巷３１號","OBJECTID":394008},"geometry":{"x":171467.6500000013,"y":2542239.8700000029}},{"attributes":{"ID":394033,"DIS_CODE":0,"TOWNNAME":"東區","LI":"虎尾里","LIN":"17鄰","STREET":"富農街","SECT":"一段","MAREA":" ","LANE":"２９巷","ALLEY":" ","HOUSE_NO":"３３號","E_COORD97":171466.84,"N_COORD97":2542244.0899999999,"ADDRESS":"富農街一段２９巷３３號","OBJECTID":394009},"geometry":{"x":171466.83999999985,"y":2542244.0900000017}},{"attributes":{"ID":394034,"DIS_CODE":0,"TOWNNAME":"東區","LI":"虎尾里","LIN":"17鄰","STREET":"富農街","SECT":"一段","MAREA":" ","LANE":"２９巷","ALLEY":" ","HOUSE_NO":"３５號","E_COORD97":171466.03,"N_COORD97":2542248.4199999999,"ADDRESS":"富農街一段２９巷３５號","OBJECTID":394010},"geometry":{"x":171466.03000000026,"y":2542248.4200000037}},{"attributes":{"ID":394035,"DIS_CODE":0,"TOWNNAME":"東區","LI":"崇明里","LIN":"8鄰","STREET":"大同路","SECT":"二段","MAREA":" ","LANE":"４４９巷","ALLEY":" ","HOUSE_NO":"３號之１","E_COORD97":169576.35000000001,"N_COORD97":2541284.0600000001,"ADDRESS":"大同路二段４４９巷３號之１","OBJECTID":394011},"geometry":{"x":169576.34999999963,"y":2541284.0600000005}},{"attributes":{"ID":394036,"DIS_CODE":0,"TOWNNAME":"東區","LI":"崇明里","LIN":"8鄰","STREET":"大同路","SECT":"二段","MAREA":" ","LANE":"４４９巷","ALLEY":" ","HOUSE_NO":"３號之２","E_COORD97":169582.87,"N_COORD97":2541287.4199999999,"ADDRESS":"大同路二段４４９巷３號之２","OBJECTID":394012},"geometry":{"x":169582.87000000104,"y":2541287.4199999999}},{"attributes":{"ID":394037,"DIS_CODE":0,"TOWNNAME":"東區","LI":"崇明里","LIN":"8鄰","STREET":"大同路","SECT":"二段","MAREA":" ","LANE":"４４９巷","ALLEY":" ","HOUSE_NO":"３號之３","E_COORD97":169577.14000000001,"N_COORD97":2541311.1000000001,"ADDRESS":"大同路二段４４９巷３號之３","OBJECTID":394013},"geometry":{"x":169577.1400000006,"y":2541311.1000000034}},{"attributes":{"ID":394038,"DIS_CODE":0,"TOWNNAME":"東區","LI":"新東里","LIN":"23鄰","STREET":"裕豐街","SECT":" ","MAREA":" ","LANE":"９９巷","ALLEY":" ","HOUSE_NO":"１１號","E_COORD97":170713.09,"N_COORD97":2542949.96,"ADDRESS":"裕豐街９９巷１１號","OBJECTID":394014},"geometry":{"x":170713.09000000078,"y":2542949.9600000009}},{"attributes":{"ID":394039,"DIS_CODE":0,"TOWNNAME":"東區","LI":"新東里","LIN":"23鄰","STREET":"裕豐街","SECT":" ","MAREA":" ","LANE":"９９巷","ALLEY":" ","HOUSE_NO":"９號","E_COORD97":170717.20000000001,"N_COORD97":2542951.1000000001,"ADDRESS":"裕豐街９９巷９號","OBJECTID":394015},"geometry":{"x":170717.20000000019,"y":2542951.0999999996}},{"attributes":{"ID":394040,"DIS_CODE":0,"TOWNNAME":"關廟區","LI":"北勢里","LIN":"16鄰","STREET":"成功路","SECT":" ","MAREA":" ","LANE":"３４６巷","ALLEY":" ","HOUSE_NO":"１８號","E_COORD97":181299.32000000001,"N_COORD97":2540573.27,"ADDRESS":"成功路３４６巷１８號","OBJECTID":394016},"geometry":{"x":181299.3200000003,"y":2540573.2699999996}},{"attributes":{"ID":394041,"DIS_CODE":0,"TOWNNAME":"關廟區","LI":"香洋里","LIN":"16鄰","STREET":"中央路","SECT":" ","MAREA":" ","LANE":"８２巷","ALLEY":" ","HOUSE_NO":"５０號","E_COORD97":181531.54000000001,"N_COORD97":2540122.1000000001,"ADDRESS":"中央路８２巷５０號","OBJECTID":394017},"geometry":{"x":181531.54000000004,"y":2540122.1000000015}},{"attributes":{"ID":394042,"DIS_CODE":0,"TOWNNAME":"關廟區","LI":"香洋里","LIN":"16鄰","STREET":"中央路","SECT":" ","MAREA":" ","LANE":"８２巷","ALLEY":" ","HOUSE_NO":"３７號","E_COORD97":181523.63,"N_COORD97":2540129.04,"ADDRESS":"中央路８２巷３７號","OBJECTID":394018},"geometry":{"x":181523.63000000082,"y":2540129.040000001}},{"attributes":{"ID":394043,"DIS_CODE":0,"TOWNNAME":"關廟區","LI":"北勢里","LIN":"16鄰","STREET":"成功路","SECT":" ","MAREA":" ","LANE":"３４６巷","ALLEY":" ","HOUSE_NO":"２６號","E_COORD97":181303.92000000001,"N_COORD97":2540594.27,"ADDRESS":"成功路３４６巷２６號","OBJECTID":394019},"geometry":{"x":181303.91999999899,"y":2540594.2700000033}},{"attributes":{"ID":394044,"DIS_CODE":0,"TOWNNAME":"東區","LI":"大學里","LIN":"15鄰","STREET":"長榮路","SECT":"三段","MAREA":" ","LANE":"２４巷","ALLEY":" ","HOUSE_NO":"９號","E_COORD97":170241.33909299999,"N_COORD97":2543682.7887800001,"ADDRESS":"長榮路三段２４巷９號","OBJECTID":394020},"geometry":{"x":170241.33909300063,"y":2543682.7887849994}},{"attributes":{"ID":394045,"DIS_CODE":0,"TOWNNAME":"東區","LI":"莊敬里","LIN":"15鄰","STREET":"東光路","SECT":"二段","MAREA":" ","LANE":"５５巷","ALLEY":" ","HOUSE_NO":"２４號","E_COORD97":171135.76000000001,"N_COORD97":2544106.6099999999,"ADDRESS":"東光路二段５５巷２４號","OBJECTID":394021},"geometry":{"x":171135.76000000071,"y":2544106.6099999994}},{"attributes":{"ID":394046,"DIS_CODE":0,"TOWNNAME":"東區","LI":"忠孝里","LIN":"12鄰","STREET":"榮譽街","SECT":" ","MAREA":" ","LANE":"８７巷","ALLEY":" ","HOUSE_NO":"９號之１","E_COORD97":169747.95000000001,"N_COORD97":2541727.5600000001,"ADDRESS":"榮譽街８７巷９號之１","OBJECTID":394022},"geometry":{"x":169747.95000000205,"y":2541727.5600000005}},{"attributes":{"ID":394047,"DIS_CODE":0,"TOWNNAME":"東區","LI":"新東里","LIN":"23鄰","STREET":"裕豐街","SECT":" ","MAREA":" ","LANE":"９９巷","ALLEY":" ","HOUSE_NO":"５號","E_COORD97":170725.76999999999,"N_COORD97":2542954.5299999998,"ADDRESS":"裕豐街９９巷５號","OBJECTID":394023},"geometry":{"x":170725.77000000048,"y":2542954.5299999993}},{"attributes":{"ID":394048,"DIS_CODE":0,"TOWNNAME":"關廟區","LI":"北勢里","LIN":"16鄰","STREET":"成功路","SECT":" ","MAREA":" ","LANE":"３４６巷","ALLEY":" ","HOUSE_NO":"１２號","E_COORD97":181296.62,"N_COORD97":2540557.27,"ADDRESS":"成功路３４６巷１２號","OBJECTID":394024},"geometry":{"x":181296.62000000104,"y":2540557.2700000014}},{"attributes":{"ID":394049,"DIS_CODE":0,"TOWNNAME":"關廟區","LI":"香洋里","LIN":"16鄰","STREET":"中央路","SECT":" ","MAREA":" ","LANE":"８２巷","ALLEY":" ","HOUSE_NO":"５６號","E_COORD97":181534.64000000001,"N_COORD97":2540130.1000000001,"ADDRESS":"中央路８２巷５６號","OBJECTID":394025},"geometry":{"x":181534.6400000006,"y":2540130.0999999996}},{"attributes":{"ID":394050,"DIS_CODE":0,"TOWNNAME":"關廟區","LI":"北勢里","LIN":"16鄰","STREET":"成功路","SECT":" ","MAREA":" ","LANE":"３４６巷","ALLEY":" ","HOUSE_NO":"８號","E_COORD97":181288.87,"N_COORD97":2540544.27,"ADDRESS":"成功路３４６巷８號","OBJECTID":394026},"geometry":{"x":181288.87000000011,"y":2540544.2700000014}},{"attributes":{"ID":394051,"DIS_CODE":0,"TOWNNAME":"關廟區","LI":"香洋里","LIN":"16鄰","STREET":"花園一街","SECT":" ","MAREA":" ","LANE":"２７９巷","ALLEY":" ","HOUSE_NO":"２９號","E_COORD97":181445.14999999999,"N_COORD97":2540094.46,"ADDRESS":"花園一街２７９巷２９號","OBJECTID":394027},"geometry":{"x":181445.15000000037,"y":2540094.4600000009}},{"attributes":{"ID":394052,"DIS_CODE":0,"TOWNNAME":"關廟區","LI":"松腳里","LIN":"16鄰","STREET":"民族街","SECT":" ","MAREA":" ","LANE":"１６巷","ALLEY":" ","HOUSE_NO":"１６號","E_COORD97":181640.79000000001,"N_COORD97":2539808.29,"ADDRESS":"民族街１６巷１６號","OBJECTID":394028},"geometry":{"x":181640.7900000019,"y":2539808.290000001}},{"attributes":{"ID":394053,"DIS_CODE":0,"TOWNNAME":"關廟區","LI":"松腳里","LIN":"16鄰","STREET":"民族街","SECT":" ","MAREA":" ","LANE":"７６巷","ALLEY":" ","HOUSE_NO":"２３號","E_COORD97":181568.98999999999,"N_COORD97":2539830.29,"ADDRESS":"民族街７６巷２３號","OBJECTID":394029},"geometry":{"x":181568.99000000115,"y":2539830.2899999991}},{"attributes":{"ID":394054,"DIS_CODE":0,"TOWNNAME":"關廟區","LI":"五甲里","LIN":"16鄰","STREET":"光復街","SECT":" ","MAREA":" ","LANE":"９３巷","ALLEY":" ","HOUSE_NO":"１１號","E_COORD97":181454.64000000001,"N_COORD97":2539394.2799999998,"ADDRESS":"光復街９３巷１１號","OBJECTID":394030},"geometry":{"x":181454.63999999966,"y":2539394.2800000012}},{"attributes":{"ID":394055,"DIS_CODE":0,"TOWNNAME":"安平區","LI":"石門里","LIN":"16鄰","STREET":"安北路","SECT":" ","MAREA":" ","LANE":"１００巷","ALLEY":" ","HOUSE_NO":"３號","E_COORD97":164433.79999999999,"N_COORD97":2544763.2999999998,"ADDRESS":"安北路１００巷３號","OBJECTID":394031},"geometry":{"x":164433.79999999981,"y":2544763.3000000026}},{"attributes":{"ID":394056,"DIS_CODE":0,"TOWNNAME":"安平區","LI":"石門里","LIN":"16鄰","STREET":"安北路","SECT":" ","MAREA":" ","LANE":"１００巷","ALLEY":" ","HOUSE_NO":"５號","E_COORD97":164435.22,"N_COORD97":2544767.2000000002,"ADDRESS":"安北路１００巷５號","OBJECTID":394032},"geometry":{"x":164435.22000000067,"y":2544767.1999999993}},{"attributes":{"ID":394057,"DIS_CODE":0,"TOWNNAME":"安平區","LI":"石門里","LIN":"16鄰","STREET":"安北路","SECT":" ","MAREA":" ","LANE":"１００巷","ALLEY":" ","HOUSE_NO":"７號","E_COORD97":164437,"N_COORD97":2544770.3999999999,"ADDRESS":"安北路１００巷７號","OBJECTID":394033},"geometry":{"x":164437.00000000093,"y":2544770.4000000004}},{"attributes":{"ID":394058,"DIS_CODE":0,"TOWNNAME":"安平區","LI":"石門里","LIN":"16鄰","STREET":"安北路","SECT":" ","MAREA":" ","LANE":"８６巷","ALLEY":" ","HOUSE_NO":"１０號","E_COORD97":164492.09,"N_COORD97":2544724.9700000002,"ADDRESS":"安北路８６巷１０號","OBJECTID":394034},"geometry":{"x":164492.09000000078,"y":2544724.9700000025}},{"attributes":{"ID":394059,"DIS_CODE":0,"TOWNNAME":"安平區","LI":"石門里","LIN":"16鄰","STREET":"安北路","SECT":" ","MAREA":" ","LANE":"８６巷","ALLEY":" ","HOUSE_NO":"１２號","E_COORD97":164486.39999999999,"N_COORD97":2544736.6800000002,"ADDRESS":"安北路８６巷１２號","OBJECTID":394035},"geometry":{"x":164486.40000000037,"y":2544736.6799999997}},{"attributes":{"ID":394060,"DIS_CODE":0,"TOWNNAME":"安平區","LI":"石門里","LIN":"16鄰","STREET":"安北路","SECT":" ","MAREA":" ","LANE":"８６巷","ALLEY":" ","HOUSE_NO":"１４號","E_COORD97":164490.66,"N_COORD97":2544742.3599999999,"ADDRESS":"安北路８６巷１４號","OBJECTID":394036},"geometry":{"x":164490.66000000015,"y":2544742.3599999994}},{"attributes":{"ID":394061,"DIS_CODE":0,"TOWNNAME":"安平區","LI":"石門里","LIN":"16鄰","STREET":"安北路","SECT":" ","MAREA":" ","LANE":"８６巷","ALLEY":" ","HOUSE_NO":"１６號之１","E_COORD97":164503.81,"N_COORD97":2544735.9700000002,"ADDRESS":"安北路８６巷１６號之１","OBJECTID":394037},"geometry":{"x":164503.81000000052,"y":2544735.9700000007}},{"attributes":{"ID":394062,"DIS_CODE":0,"TOWNNAME":"歸仁區","LI":"南保里","LIN":"16鄰","STREET":"文化十街","SECT":" ","MAREA":" ","LANE":"２８巷","ALLEY":" ","HOUSE_NO":"５號","E_COORD97":176588.84,"N_COORD97":2541342.3300000001,"ADDRESS":"文化十街２８巷５號","OBJECTID":394038},"geometry":{"x":176588.84000000078,"y":2541342.3300000001}},{"attributes":{"ID":394063,"DIS_CODE":0,"TOWNNAME":"歸仁區","LI":"南保里","LIN":"16鄰","STREET":"文化十街","SECT":" ","MAREA":" ","LANE":"２８巷","ALLEY":" ","HOUSE_NO":"２９號","E_COORD97":176663.89000000001,"N_COORD97":2541341.3300000001,"ADDRESS":"文化十街２８巷２９號","OBJECTID":394039},"geometry":{"x":176663.88999999966,"y":2541341.3300000019}},{"attributes":{"ID":394064,"DIS_CODE":0,"TOWNNAME":"歸仁區","LI":"後市里","LIN":"16鄰","STREET":"民族南街","SECT":" ","MAREA":" ","LANE":"１８巷","ALLEY":" ","HOUSE_NO":"１２號","E_COORD97":177375.44,"N_COORD97":2540750.5499999998,"ADDRESS":"民族南街１８巷１２號","OBJECTID":394040},"geometry":{"x":177375.44000000134,"y":2540750.5500000026}},{"attributes":{"ID":394065,"DIS_CODE":0,"TOWNNAME":"歸仁區","LI":"後市里","LIN":"16鄰","STREET":"民族南街","SECT":" ","MAREA":" ","LANE":"１８巷","ALLEY":" ","HOUSE_NO":"２號","E_COORD97":177390.48999999999,"N_COORD97":2540747.5499999998,"ADDRESS":"民族南街１８巷２號","OBJECTID":394041},"geometry":{"x":177390.49000000115,"y":2540747.5500000026}},{"attributes":{"ID":394066,"DIS_CODE":0,"TOWNNAME":"歸仁區","LI":"南保里","LIN":"16鄰","STREET":"文化十街","SECT":" ","MAREA":" ","LANE":"２８巷","ALLEY":" ","HOUSE_NO":"２３號","E_COORD97":176657.89000000001,"N_COORD97":2541363.3300000001,"ADDRESS":"文化十街２８巷２３號","OBJECTID":394042},"geometry":{"x":176657.8900000006,"y":2541363.3300000001}},{"attributes":{"ID":394067,"DIS_CODE":0,"TOWNNAME":"歸仁區","LI":"南保里","LIN":"16鄰","STREET":"文化十街","SECT":" ","MAREA":" ","LANE":"２８巷","ALLEY":" ","HOUSE_NO":"３號","E_COORD97":176577.54000000001,"N_COORD97":2541343.3300000001,"ADDRESS":"文化十街２８巷３號","OBJECTID":394043},"geometry":{"x":176577.54000000097,"y":2541343.3300000001}},{"attributes":{"ID":394068,"DIS_CODE":0,"TOWNNAME":"歸仁區","LI":"媽廟里","LIN":"16鄰","STREET":"媽廟二街","SECT":" ","MAREA":" ","LANE":"４５巷","ALLEY":" ","HOUSE_NO":"２８號","E_COORD97":177792.38,"N_COORD97":2543817.7200000002,"ADDRESS":"媽廟二街４５巷２８號","OBJECTID":394044},"geometry":{"x":177792.38000000082,"y":2543817.7200000025}},{"attributes":{"ID":394069,"DIS_CODE":0,"TOWNNAME":"歸仁區","LI":"媽廟里","LIN":"16鄰","STREET":"媽廟二街","SECT":" ","MAREA":" ","LANE":"３１巷","ALLEY":" ","HOUSE_NO":"２２號","E_COORD97":177714.17999999999,"N_COORD97":2543771.7200000002,"ADDRESS":"媽廟二街３１巷２２號","OBJECTID":394045},"geometry":{"x":177714.1799999997,"y":2543771.7200000007}},{"attributes":{"ID":394070,"DIS_CODE":0,"TOWNNAME":"歸仁區","LI":"媽廟里","LIN":"16鄰","STREET":"媽廟二街","SECT":" ","MAREA":" ","LANE":"３１巷","ALLEY":" ","HOUSE_NO":"１０號","E_COORD97":177713.07999999999,"N_COORD97":2543746.7200000002,"ADDRESS":"媽廟二街３１巷１０號","OBJECTID":394046},"geometry":{"x":177713.08000000101,"y":2543746.7200000025}},{"attributes":{"ID":394071,"DIS_CODE":0,"TOWNNAME":"歸仁區","LI":"新厝里","LIN":"16鄰","STREET":"中正南路","SECT":"一段","MAREA":" ","LANE":"１３１巷","ALLEY":" ","HOUSE_NO":"１７號","E_COORD97":177554.76999999999,"N_COORD97":2540413.3999999999,"ADDRESS":"中正南路一段１３１巷１７號","OBJECTID":394047},"geometry":{"x":177554.76999999862,"y":2540413.4000000004}},{"attributes":{"ID":394072,"DIS_CODE":0,"TOWNNAME":"歸仁區","LI":"歸仁里","LIN":"16鄰","STREET":"信義北路","SECT":" ","MAREA":" ","LANE":"８２巷","ALLEY":" ","HOUSE_NO":"１２號","E_COORD97":178047.06,"N_COORD97":2540965.6800000002,"ADDRESS":"信義北路８２巷１２號","OBJECTID":394048},"geometry":{"x":178047.06000000052,"y":2540965.6800000016}},{"attributes":{"ID":394073,"DIS_CODE":0,"TOWNNAME":"歸仁區","LI":"媽廟里","LIN":"16鄰","STREET":"媽廟二街","SECT":" ","MAREA":" ","LANE":"３１巷","ALLEY":" ","HOUSE_NO":"２４號","E_COORD97":177714.17999999999,"N_COORD97":2543774.7200000002,"ADDRESS":"媽廟二街３１巷２４號","OBJECTID":394049},"geometry":{"x":177714.1799999997,"y":2543774.7200000007}},{"attributes":{"ID":394074,"DIS_CODE":0,"TOWNNAME":"歸仁區","LI":"媽廟里","LIN":"16鄰","STREET":"媽廟二街","SECT":" ","MAREA":" ","LANE":"３１巷","ALLEY":" ","HOUSE_NO":"２號","E_COORD97":177713.73000000001,"N_COORD97":2543734.7200000002,"ADDRESS":"媽廟二街３１巷２號","OBJECTID":394050},"geometry":{"x":177713.73000000231,"y":2543734.7200000007}},{"attributes":{"ID":394075,"DIS_CODE":0,"TOWNNAME":"歸仁區","LI":"媽廟里","LIN":"16鄰","STREET":"媽廟二街","SECT":" ","MAREA":" ","LANE":"３１巷","ALLEY":" ","HOUSE_NO":"２８號","E_COORD97":177714.28,"N_COORD97":2543782.7200000002,"ADDRESS":"媽廟二街３１巷２８號","OBJECTID":394051},"geometry":{"x":177714.28000000026,"y":2543782.7200000044}},{"attributes":{"ID":394076,"DIS_CODE":0,"TOWNNAME":"歸仁區","LI":"媽廟里","LIN":"16鄰","STREET":"媽廟二街","SECT":" ","MAREA":" ","LANE":"３１巷","ALLEY":" ","HOUSE_NO":"１２號","E_COORD97":177713.07999999999,"N_COORD97":2543751.7200000002,"ADDRESS":"媽廟二街３１巷１２號","OBJECTID":394052},"geometry":{"x":177713.08000000101,"y":2543751.7200000007}},{"attributes":{"ID":394077,"DIS_CODE":0,"TOWNNAME":"歸仁區","LI":"媽廟里","LIN":"16鄰","STREET":"媽廟二街","SECT":" ","MAREA":" ","LANE":"４５巷","ALLEY":" ","HOUSE_NO":"２６號","E_COORD97":177794.38,"N_COORD97":2543808.7200000002,"ADDRESS":"媽廟二街４５巷２６號","OBJECTID":394053},"geometry":{"x":177794.37999999989,"y":2543808.7200000007}},{"attributes":{"ID":394078,"DIS_CODE":0,"TOWNNAME":"歸仁區","LI":"歸南里","LIN":"16鄰","STREET":"民生十一街","SECT":" ","MAREA":" ","LANE":"３１巷","ALLEY":" ","HOUSE_NO":"１８號","E_COORD97":176174.91,"N_COORD97":2539794.25,"ADDRESS":"民生十一街３１巷１８號","OBJECTID":394054},"geometry":{"x":176174.91000000108,"y":2539794.25}},{"attributes":{"ID":394079,"DIS_CODE":0,"TOWNNAME":"歸仁區","LI":"媽廟里","LIN":"16鄰","STREET":"媽廟二街","SECT":" ","MAREA":" ","LANE":"３１巷","ALLEY":" ","HOUSE_NO":"３０號","E_COORD97":177717.38,"N_COORD97":2543788.7200000002,"ADDRESS":"媽廟二街３１巷３０號","OBJECTID":394055},"geometry":{"x":177717.38000000082,"y":2543788.7200000007}},{"attributes":{"ID":394080,"DIS_CODE":0,"TOWNNAME":"歸仁區","LI":"歸南里","LIN":"16鄰","STREET":"民生十一街","SECT":" ","MAREA":" ","LANE":"３１巷","ALLEY":" ","HOUSE_NO":"２號","E_COORD97":176181.66,"N_COORD97":2539748.25,"ADDRESS":"民生十一街３１巷２號","OBJECTID":394056},"geometry":{"x":176181.66000000108,"y":2539748.2500000019}},{"attributes":{"ID":394081,"DIS_CODE":0,"TOWNNAME":"歸仁區","LI":"歸南里","LIN":"16鄰","STREET":"民生十一街","SECT":" ","MAREA":" ","LANE":"３１巷","ALLEY":" ","HOUSE_NO":"８號","E_COORD97":176179.66,"N_COORD97":2539763.25,"ADDRESS":"民生十一街３１巷８號","OBJECTID":394057},"geometry":{"x":176179.65999999922,"y":2539763.25}},{"attributes":{"ID":394082,"DIS_CODE":0,"TOWNNAME":"歸仁區","LI":"媽廟里","LIN":"16鄰","STREET":"媽廟二街","SECT":" ","MAREA":" ","LANE":"３１巷","ALLEY":" ","HOUSE_NO":"２０號","E_COORD97":177713.17999999999,"N_COORD97":2543766.7200000002,"ADDRESS":"媽廟二街３１巷２０號","OBJECTID":394058},"geometry":{"x":177713.17999999877,"y":2543766.7200000025}},{"attributes":{"ID":394083,"DIS_CODE":0,"TOWNNAME":"歸仁區","LI":"歸南里","LIN":"16鄰","STREET":"民生十一街","SECT":" ","MAREA":" ","LANE":"３１巷","ALLEY":" ","HOUSE_NO":"２０號","E_COORD97":176174.01000000001,"N_COORD97":2539800.25,"ADDRESS":"民生十一街３１巷２０號","OBJECTID":394059},"geometry":{"x":176174.01000000071,"y":2539800.25}},{"attributes":{"ID":394084,"DIS_CODE":0,"TOWNNAME":"歸仁區","LI":"歸仁里","LIN":"16鄰","STREET":"信義北路","SECT":" ","MAREA":" ","LANE":"８２巷","ALLEY":" ","HOUSE_NO":"８號","E_COORD97":178035.60999999999,"N_COORD97":2540967.6800000002,"ADDRESS":"信義北路８２巷８號","OBJECTID":394060},"geometry":{"x":178035.61000000127,"y":2540967.6799999997}},{"attributes":{"ID":394085,"DIS_CODE":0,"TOWNNAME":"歸仁區","LI":"媽廟里","LIN":"16鄰","STREET":"媽廟二街","SECT":" ","MAREA":" ","LANE":"４５巷","ALLEY":" ","HOUSE_NO":"３１號","E_COORD97":177741.07999999999,"N_COORD97":2543816.7200000002,"ADDRESS":"媽廟二街４５巷３１號","OBJECTID":394061},"geometry":{"x":177741.08000000007,"y":2543816.7200000044}},{"attributes":{"ID":394086,"DIS_CODE":0,"TOWNNAME":"歸仁區","LI":"南保里","LIN":"16鄰","STREET":"文化十街","SECT":" ","MAREA":" ","LANE":"２８巷","ALLEY":" ","HOUSE_NO":"７號","E_COORD97":176591.22,"N_COORD97":2541340.2599999998,"ADDRESS":"文化十街２８巷７號","OBJECTID":394062},"geometry":{"x":176591.22000000067,"y":2541340.2599999979}},{"attributes":{"ID":394087,"DIS_CODE":0,"TOWNNAME":"歸仁區","LI":"南保里","LIN":"16鄰","STREET":"文化十街","SECT":" ","MAREA":" ","LANE":"２８巷","ALLEY":" ","HOUSE_NO":"３７號","E_COORD97":176667.37,"N_COORD97":2541360.2599999998,"ADDRESS":"文化十街２８巷３７號","OBJECTID":394063},"geometry":{"x":176667.37000000011,"y":2541360.2599999998}},{"attributes":{"ID":394088,"DIS_CODE":0,"TOWNNAME":"歸仁區","LI":"歸仁里","LIN":"16鄰","STREET":"信義北路","SECT":" ","MAREA":" ","LANE":"８２巷","ALLEY":" ","HOUSE_NO":"２號","E_COORD97":178026.31,"N_COORD97":2540967.6800000002,"ADDRESS":"信義北路８２巷２號","OBJECTID":394064},"geometry":{"x":178026.31000000052,"y":2540967.6799999997}},{"attributes":{"ID":394089,"DIS_CODE":0,"TOWNNAME":"歸仁區","LI":"歸南里","LIN":"16鄰","STREET":"民生十一街","SECT":" ","MAREA":" ","LANE":"３１巷","ALLEY":" ","HOUSE_NO":"１４號","E_COORD97":176176.91,"N_COORD97":2539781.25,"ADDRESS":"民生十一街３１巷１４號","OBJECTID":394065},"geometry":{"x":176176.91000000108,"y":2539781.2500000037}},{"attributes":{"ID":394090,"DIS_CODE":0,"TOWNNAME":"歸仁區","LI":"看西里","LIN":"16鄰","STREET":"仁愛南街","SECT":" ","MAREA":" ","LANE":"２７７巷","ALLEY":" ","HOUSE_NO":"２６號","E_COORD97":178297.51000000001,"N_COORD97":2540032.1200000001,"ADDRESS":"仁愛南街２７７巷２６號","OBJECTID":394066},"geometry":{"x":178297.50999999978,"y":2540032.1200000029}},{"attributes":{"ID":394091,"DIS_CODE":0,"TOWNNAME":"歸仁區","LI":"南保里","LIN":"16鄰","STREET":"文化十街","SECT":" ","MAREA":" ","LANE":"２８巷","ALLEY":" ","HOUSE_NO":"２７號","E_COORD97":176657.79000000001,"N_COORD97":2541341.3300000001,"ADDRESS":"文化十街２８巷２７號","OBJECTID":394067},"geometry":{"x":176657.79000000004,"y":2541341.3300000019}},{"attributes":{"ID":394092,"DIS_CODE":0,"TOWNNAME":"歸仁區","LI":"後市里","LIN":"16鄰","STREET":"民族南街","SECT":" ","MAREA":" ","LANE":"１８巷","ALLEY":" ","HOUSE_NO":"３４號","E_COORD97":177340.54000000001,"N_COORD97":2540756.5499999998,"ADDRESS":"民族南街１８巷３４號","OBJECTID":394068},"geometry":{"x":177340.54000000097,"y":2540756.5500000045}},{"attributes":{"ID":394093,"DIS_CODE":0,"TOWNNAME":"歸仁區","LI":"南保里","LIN":"16鄰","STREET":"文化十街","SECT":" ","MAREA":" ","LANE":"２８巷","ALLEY":" ","HOUSE_NO":"２１號","E_COORD97":176647.59,"N_COORD97":2541363.3300000001,"ADDRESS":"文化十街２８巷２１號","OBJECTID":394069},"geometry":{"x":176647.58999999985,"y":2541363.3300000001}},{"attributes":{"ID":394094,"DIS_CODE":0,"TOWNNAME":"歸仁區","LI":"南保里","LIN":"16鄰","STREET":"文化十街","SECT":" ","MAREA":" ","LANE":"２８巷","ALLEY":" ","HOUSE_NO":"３３號","E_COORD97":176677.19,"N_COORD97":2541341.3300000001,"ADDRESS":"文化十街２８巷３３號","OBJECTID":394070},"geometry":{"x":176677.19000000134,"y":2541341.3300000019}},{"attributes":{"ID":394095,"DIS_CODE":0,"TOWNNAME":"新營區","LI":"新東里","LIN":"16鄰","STREET":"東智街","SECT":" ","MAREA":" ","LANE":"４６巷","ALLEY":" ","HOUSE_NO":"２３號","E_COORD97":181041.38,"N_COORD97":2579715.1499999999,"ADDRESS":"東智街４６巷２３號","OBJECTID":394071},"geometry":{"x":181041.37999999896,"y":2579715.1500000022}},{"attributes":{"ID":394096,"DIS_CODE":0,"TOWNNAME":"新營區","LI":"新東里","LIN":"16鄰","STREET":"東智街","SECT":" ","MAREA":" ","LANE":"４６巷","ALLEY":" ","HOUSE_NO":"１８號","E_COORD97":181035.07999999999,"N_COORD97":2579696.3500000001,"ADDRESS":"東智街４６巷１８號","OBJECTID":394072},"geometry":{"x":181035.08000000007,"y":2579696.3500000015}},{"attributes":{"ID":394097,"DIS_CODE":0,"TOWNNAME":"新營區","LI":"新東里","LIN":"16鄰","STREET":"東智街","SECT":" ","MAREA":" ","LANE":"４６巷","ALLEY":" ","HOUSE_NO":"２５號","E_COORD97":181045.47,"N_COORD97":2579715.1299999999,"ADDRESS":"東智街４６巷２５號","OBJECTID":394073},"geometry":{"x":181045.46999999974,"y":2579715.129999999}},{"attributes":{"ID":394098,"DIS_CODE":0,"TOWNNAME":"新營區","LI":"新東里","LIN":"16鄰","STREET":"東智街","SECT":" ","MAREA":" ","LANE":"４６巷","ALLEY":" ","HOUSE_NO":"２１號","E_COORD97":181036.26999999999,"N_COORD97":2579715.1699999999,"ADDRESS":"東智街４６巷２１號","OBJECTID":394074},"geometry":{"x":181036.26999999955,"y":2579715.1700000018}},{"attributes":{"ID":394099,"DIS_CODE":0,"TOWNNAME":"新營區","LI":"大宏里","LIN":"16鄰","STREET":"開元路","SECT":" ","MAREA":" ","LANE":"５９巷","ALLEY":" ","HOUSE_NO":"８０號","E_COORD97":180798.07000000001,"N_COORD97":2578864.6600000001,"ADDRESS":"開元路５９巷８０號","OBJECTID":394075},"geometry":{"x":180798.0700000003,"y":2578864.6600000001}},{"attributes":{"ID":394100,"DIS_CODE":0,"TOWNNAME":"新營區","LI":"南紙里","LIN":"16鄰","STREET":"南紙街","SECT":" ","MAREA":" ","LANE":"１６２巷","ALLEY":" ","HOUSE_NO":"３８號","E_COORD97":177828.38,"N_COORD97":2577309.5699999998,"ADDRESS":"南紙街１６２巷３８號","OBJECTID":394076},"geometry":{"x":177828.37999999989,"y":2577309.5700000003}},{"attributes":{"ID":394101,"DIS_CODE":0,"TOWNNAME":"新營區","LI":"大宏里","LIN":"16鄰","STREET":"開元路","SECT":" ","MAREA":" ","LANE":"５９巷","ALLEY":" ","HOUSE_NO":"８４號","E_COORD97":180798.03,"N_COORD97":2578855.7999999998,"ADDRESS":"開元路５９巷８４號","OBJECTID":394077},"geometry":{"x":180798.03000000026,"y":2578855.8000000045}},{"attributes":{"ID":394102,"DIS_CODE":0,"TOWNNAME":"新營區","LI":"南紙里","LIN":"16鄰","STREET":"南紙街","SECT":" ","MAREA":" ","LANE":"１６２巷","ALLEY":" ","HOUSE_NO":"３０號","E_COORD97":177815.06,"N_COORD97":2577305.2000000002,"ADDRESS":"南紙街１６２巷３０號","OBJECTID":394078},"geometry":{"x":177815.05999999959,"y":2577305.1999999974}},{"attributes":{"ID":394103,"DIS_CODE":0,"TOWNNAME":"新營區","LI":"大宏里","LIN":"16鄰","STREET":"開元路","SECT":" ","MAREA":" ","LANE":"５９巷","ALLEY":" ","HOUSE_NO":"８２號","E_COORD97":180798.06,"N_COORD97":2578860.23,"ADDRESS":"開元路５９巷８２號","OBJECTID":394079},"geometry":{"x":180798.06000000052,"y":2578860.2300000023}},{"attributes":{"ID":394104,"DIS_CODE":0,"TOWNNAME":"新營區","LI":"南紙里","LIN":"16鄰","STREET":"南紙街","SECT":" ","MAREA":" ","LANE":"１６２巷","ALLEY":" ","HOUSE_NO":"１６號","E_COORD97":177782.20999999999,"N_COORD97":2577298.7200000002,"ADDRESS":"南紙街１６２巷１６號","OBJECTID":394080},"geometry":{"x":177782.20999999996,"y":2577298.7200000007}},{"attributes":{"ID":394105,"DIS_CODE":0,"TOWNNAME":"新營區","LI":"南紙里","LIN":"16鄰","STREET":"南紙街","SECT":" ","MAREA":" ","LANE":"１６２巷","ALLEY":" ","HOUSE_NO":"２０號","E_COORD97":177798.67999999999,"N_COORD97":2577304.1699999999,"ADDRESS":"南紙街１６２巷２０號","OBJECTID":394081},"geometry":{"x":177798.68000000063,"y":2577304.1700000018}},{"attributes":{"ID":394106,"DIS_CODE":0,"TOWNNAME":"新營區","LI":"忠政里","LIN":"16鄰","STREET":"府西路","SECT":" ","MAREA":" ","LANE":"２５９巷","ALLEY":" ","HOUSE_NO":"７號","E_COORD97":179770.87,"N_COORD97":2579725.54,"ADDRESS":"府西路２５９巷７號","OBJECTID":394082},"geometry":{"x":179770.87000000104,"y":2579725.5399999991}},{"attributes":{"ID":394107,"DIS_CODE":0,"TOWNNAME":"新營區","LI":"忠政里","LIN":"16鄰","STREET":"府西路","SECT":" ","MAREA":" ","LANE":"２６１巷","ALLEY":" ","HOUSE_NO":"５號","E_COORD97":179774.14000000001,"N_COORD97":2579768.7200000002,"ADDRESS":"府西路２６１巷５號","OBJECTID":394083},"geometry":{"x":179774.13999999966,"y":2579768.7200000025}},{"attributes":{"ID":394108,"DIS_CODE":0,"TOWNNAME":"新營區","LI":"民榮里","LIN":"16鄰","STREET":"太子路","SECT":" ","MAREA":" ","LANE":"１９巷","ALLEY":" ","HOUSE_NO":"６號","E_COORD97":178428.20000000001,"N_COORD97":2578085.1899999999,"ADDRESS":"太子路１９巷６號","OBJECTID":394084},"geometry":{"x":178428.20000000112,"y":2578085.1899999995}},{"attributes":{"ID":394109,"DIS_CODE":0,"TOWNNAME":"新營區","LI":"忠政里","LIN":"16鄰","STREET":"府西路","SECT":" ","MAREA":" ","LANE":"２５９巷","ALLEY":" ","HOUSE_NO":"２１號","E_COORD97":179743.51000000001,"N_COORD97":2579721.25,"ADDRESS":"府西路２５９巷２１號","OBJECTID":394085},"geometry":{"x":179743.50999999978,"y":2579721.2500000019}},{"attributes":{"ID":394110,"DIS_CODE":0,"TOWNNAME":"新營區","LI":"忠政里","LIN":"16鄰","STREET":"府西路","SECT":" ","MAREA":" ","LANE":"２６１巷","ALLEY":" ","HOUSE_NO":"２號","E_COORD97":179783.45999999999,"N_COORD97":2579781.9700000002,"ADDRESS":"府西路２６１巷２號","OBJECTID":394086},"geometry":{"x":179783.46000000089,"y":2579781.9700000007}},{"attributes":{"ID":394111,"DIS_CODE":0,"TOWNNAME":"新營區","LI":"忠政里","LIN":"16鄰","STREET":"府西路","SECT":" ","MAREA":" ","LANE":"２６１巷","ALLEY":" ","HOUSE_NO":"１５號","E_COORD97":179755.92999999999,"N_COORD97":2579767.71,"ADDRESS":"府西路２６１巷１５號","OBJECTID":394087},"geometry":{"x":179755.92999999877,"y":2579767.7100000009}},{"attributes":{"ID":394112,"DIS_CODE":0,"TOWNNAME":"新營區","LI":"新南里","LIN":"16鄰","STREET":"隋唐街","SECT":" ","MAREA":" ","LANE":"３１巷","ALLEY":" ","HOUSE_NO":"４３號","E_COORD97":178697.82000000001,"N_COORD97":2578360.7599999998,"ADDRESS":"隋唐街３１巷４３號","OBJECTID":394088},"geometry":{"x":178697.81999999937,"y":2578360.7600000016}},{"attributes":{"ID":394113,"DIS_CODE":0,"TOWNNAME":"新營區","LI":"忠政里","LIN":"16鄰","STREET":"府西路","SECT":" ","MAREA":" ","LANE":"２６１巷","ALLEY":" ","HOUSE_NO":"１１號","E_COORD97":179764.12,"N_COORD97":2579767.6699999999,"ADDRESS":"府西路２６１巷１１號","OBJECTID":394089},"geometry":{"x":179764.12000000104,"y":2579767.6700000037}},{"attributes":{"ID":394114,"DIS_CODE":0,"TOWNNAME":"新營區","LI":"忠政里","LIN":"16鄰","STREET":"府西路","SECT":" ","MAREA":" ","LANE":"２５９巷","ALLEY":" ","HOUSE_NO":"２號","E_COORD97":179778.14999999999,"N_COORD97":2579739.8999999999,"ADDRESS":"府西路２５９巷２號","OBJECTID":394090},"geometry":{"x":179778.15000000037,"y":2579739.9000000022}},{"attributes":{"ID":394115,"DIS_CODE":0,"TOWNNAME":"新營區","LI":"忠政里","LIN":"16鄰","STREET":"府西路","SECT":" ","MAREA":" ","LANE":"２５９巷","ALLEY":" ","HOUSE_NO":"６號","E_COORD97":179769.89000000001,"N_COORD97":2579737.73,"ADDRESS":"府西路２５９巷６號","OBJECTID":394091},"geometry":{"x":179769.89000000153,"y":2579737.7300000023}},{"attributes":{"ID":394116,"DIS_CODE":0,"TOWNNAME":"新營區","LI":"新東里","LIN":"16鄰","STREET":"東明街","SECT":" ","MAREA":" ","LANE":"９６巷","ALLEY":" ","HOUSE_NO":"８１號","E_COORD97":181038.95999999999,"N_COORD97":2579855.7999999998,"ADDRESS":"東明街９６巷８１號","OBJECTID":394092},"geometry":{"x":181038.95999999996,"y":2579855.8000000045}},{"attributes":{"ID":394117,"DIS_CODE":0,"TOWNNAME":"新營區","LI":"忠政里","LIN":"16鄰","STREET":"府西路","SECT":" ","MAREA":" ","LANE":"２５９巷","ALLEY":" ","HOUSE_NO":"１８號","E_COORD97":179747.60000000001,"N_COORD97":2579737.8399999999,"ADDRESS":"府西路２５９巷１８號","OBJECTID":394093},"geometry":{"x":179747.59999999963,"y":2579737.8399999999}},{"attributes":{"ID":394118,"DIS_CODE":0,"TOWNNAME":"歸仁區","LI":"南保里","LIN":"16鄰","STREET":"文化十街","SECT":" ","MAREA":" ","LANE":"２８巷","ALLEY":" ","HOUSE_NO":"４１號","E_COORD97":176690.59,"N_COORD97":2541352.3300000001,"ADDRESS":"文化十街２８巷４１號","OBJECTID":394094},"geometry":{"x":176690.59000000078,"y":2541352.3300000001}},{"attributes":{"ID":394119,"DIS_CODE":0,"TOWNNAME":"歸仁區","LI":"武東里","LIN":"16鄰","STREET":"光明街","SECT":" ","MAREA":" ","LANE":"３６巷","ALLEY":" ","HOUSE_NO":"７號","E_COORD97":175728.59,"N_COORD97":2536617.25,"ADDRESS":"光明街３６巷７號","OBJECTID":394095},"geometry":{"x":175728.58999999985,"y":2536617.25}},{"attributes":{"ID":394120,"DIS_CODE":0,"TOWNNAME":"歸仁區","LI":"南保里","LIN":"16鄰","STREET":"文化十街","SECT":" ","MAREA":" ","LANE":"２８巷","ALLEY":" ","HOUSE_NO":"３１號","E_COORD97":176671.09,"N_COORD97":2541341.3300000001,"ADDRESS":"文化十街２８巷３１號","OBJECTID":394096},"geometry":{"x":176671.08999999985,"y":2541341.3300000019}},{"attributes":{"ID":394121,"DIS_CODE":0,"TOWNNAME":"關廟區","LI":"山西里","LIN":"16鄰","STREET":"中正路","SECT":" ","MAREA":" ","LANE":"１０１０巷","ALLEY":" ","HOUSE_NO":"１號","E_COORD97":180994.01000000001,"N_COORD97":2540371.25,"ADDRESS":"中正路１０１０巷１號","OBJECTID":394097},"geometry":{"x":180994.00999999978,"y":2540371.2500000037}},{"attributes":{"ID":394122,"DIS_CODE":0,"TOWNNAME":"關廟區","LI":"松腳里","LIN":"16鄰","STREET":"民族街","SECT":" ","MAREA":" ","LANE":"１６巷","ALLEY":" ","HOUSE_NO":"２８號","E_COORD97":181634.19,"N_COORD97":2539829.29,"ADDRESS":"民族街１６巷２８號","OBJECTID":394098},"geometry":{"x":181634.19000000041,"y":2539829.2899999991}},{"attributes":{"ID":394123,"DIS_CODE":0,"TOWNNAME":"關廟區","LI":"五甲里","LIN":"16鄰","STREET":"光復街","SECT":" ","MAREA":" ","LANE":"９１巷","ALLEY":" ","HOUSE_NO":"６號","E_COORD97":181494.79000000001,"N_COORD97":2539353.2799999998,"ADDRESS":"光復街９１巷６號","OBJECTID":394099},"geometry":{"x":181494.78999999911,"y":2539353.2800000031}},{"attributes":{"ID":394124,"DIS_CODE":0,"TOWNNAME":"關廟區","LI":"五甲里","LIN":"16鄰","STREET":"光復街","SECT":" ","MAREA":" ","LANE":"９１巷","ALLEY":" ","HOUSE_NO":"８號","E_COORD97":181490.98999999999,"N_COORD97":2539355.2799999998,"ADDRESS":"光復街９１巷８號","OBJECTID":394100},"geometry":{"x":181490.99000000115,"y":2539355.2799999993}},{"attributes":{"ID":394125,"DIS_CODE":0,"TOWNNAME":"關廟區","LI":"山西里","LIN":"16鄰","STREET":"中正路","SECT":" ","MAREA":" ","LANE":"１０１０巷","ALLEY":" ","HOUSE_NO":"５號","E_COORD97":180997.10999999999,"N_COORD97":2540378.25,"ADDRESS":"中正路１０１０巷５號","OBJECTID":394101},"geometry":{"x":180997.11000000127,"y":2540378.2500000019}},{"attributes":{"ID":394126,"DIS_CODE":0,"TOWNNAME":"關廟區","LI":"東勢里","LIN":"16鄰","STREET":"東安街","SECT":" ","MAREA":" ","LANE":"２４５巷","ALLEY":" ","HOUSE_NO":"６２號","E_COORD97":181677.42000000001,"N_COORD97":2539493.3199999998,"ADDRESS":"東安街２４５巷６２號","OBJECTID":394102},"geometry":{"x":181677.42000000086,"y":2539493.3200000022}},{"attributes":{"ID":394127,"DIS_CODE":0,"TOWNNAME":"關廟區","LI":"五甲里","LIN":"16鄰","STREET":"光復街","SECT":" ","MAREA":" ","LANE":"９１巷","ALLEY":" ","HOUSE_NO":"２６號","E_COORD97":181466.54000000001,"N_COORD97":2539365.2799999998,"ADDRESS":"光復街９１巷２６號","OBJECTID":394103},"geometry":{"x":181466.54000000097,"y":2539365.2799999993}},{"attributes":{"ID":394128,"DIS_CODE":0,"TOWNNAME":"關廟區","LI":"五甲里","LIN":"16鄰","STREET":"光復街","SECT":" ","MAREA":" ","LANE":"９１巷","ALLEY":" ","HOUSE_NO":"１６號","E_COORD97":181481.14000000001,"N_COORD97":2539359.2799999998,"ADDRESS":"光復街９１巷１６號","OBJECTID":394104},"geometry":{"x":181481.13999999966,"y":2539359.2799999993}},{"attributes":{"ID":394129,"DIS_CODE":0,"TOWNNAME":"關廟區","LI":"五甲里","LIN":"16鄰","STREET":"光復街","SECT":" ","MAREA":" ","LANE":"９１巷","ALLEY":" ","HOUSE_NO":"１２號","E_COORD97":181484.94,"N_COORD97":2539358.2799999998,"ADDRESS":"光復街９１巷１２號","OBJECTID":394105},"geometry":{"x":181484.94000000041,"y":2539358.2799999993}},{"attributes":{"ID":394130,"DIS_CODE":0,"TOWNNAME":"關廟區","LI":"松腳里","LIN":"16鄰","STREET":"民族街","SECT":" ","MAREA":" ","LANE":"７６巷","ALLEY":" ","HOUSE_NO":"２２號","E_COORD97":181582.39000000001,"N_COORD97":2539824.29,"ADDRESS":"民族街７６巷２２號","OBJECTID":394106},"geometry":{"x":181582.3900000006,"y":2539824.2900000028}},{"attributes":{"ID":394131,"DIS_CODE":0,"TOWNNAME":"關廟區","LI":"山西里","LIN":"16鄰","STREET":"中正路","SECT":" ","MAREA":" ","LANE":"１０１０巷","ALLEY":" ","HOUSE_NO":"３號","E_COORD97":180995.60999999999,"N_COORD97":2540375.25,"ADDRESS":"中正路１０１０巷３號","OBJECTID":394107},"geometry":{"x":180995.61000000034,"y":2540375.2500000019}},{"attributes":{"ID":394132,"DIS_CODE":0,"TOWNNAME":"關廟區","LI":"松腳里","LIN":"16鄰","STREET":"民族街","SECT":" ","MAREA":" ","LANE":"７６巷","ALLEY":" ","HOUSE_NO":"５號","E_COORD97":181501.34,"N_COORD97":2539800.29,"ADDRESS":"民族街７６巷５號","OBJECTID":394108},"geometry":{"x":181501.34000000078,"y":2539800.2900000028}},{"attributes":{"ID":394133,"DIS_CODE":0,"TOWNNAME":"關廟區","LI":"松腳里","LIN":"16鄰","STREET":"民族街","SECT":" ","MAREA":" ","LANE":"７６巷","ALLEY":" ","HOUSE_NO":"１５號","E_COORD97":181535.59,"N_COORD97":2539813.29,"ADDRESS":"民族街７６巷１５號","OBJECTID":394109},"geometry":{"x":181535.59000000078,"y":2539813.2899999991}},{"attributes":{"ID":394134,"DIS_CODE":0,"TOWNNAME":"關廟區","LI":"松腳里","LIN":"16鄰","STREET":"民族街","SECT":" ","MAREA":" ","LANE":"７６巷","ALLEY":" ","HOUSE_NO":"３號","E_COORD97":181500.94,"N_COORD97":2539795.29,"ADDRESS":"民族街７６巷３號","OBJECTID":394110},"geometry":{"x":181500.93999999948,"y":2539795.2899999991}},{"attributes":{"ID":394135,"DIS_CODE":0,"TOWNNAME":"關廟區","LI":"松腳里","LIN":"16鄰","STREET":"民族街","SECT":" ","MAREA":" ","LANE":"７６巷","ALLEY":" ","HOUSE_NO":"２號","E_COORD97":181515.14000000001,"N_COORD97":2539793.29,"ADDRESS":"民族街７６巷２號","OBJECTID":394111},"geometry":{"x":181515.13999999966,"y":2539793.2899999972}},{"attributes":{"ID":394136,"DIS_CODE":0,"TOWNNAME":"關廟區","LI":"松腳里","LIN":"16鄰","STREET":"民族街","SECT":" ","MAREA":" ","LANE":"１６巷","ALLEY":" ","HOUSE_NO":"１２號","E_COORD97":181640.79000000001,"N_COORD97":2539805.29,"ADDRESS":"民族街１６巷１２號","OBJECTID":394112},"geometry":{"x":181640.7900000019,"y":2539805.290000001}},{"attributes":{"ID":394137,"DIS_CODE":0,"TOWNNAME":"關廟區","LI":"松腳里","LIN":"16鄰","STREET":"民族街","SECT":" ","MAREA":" ","LANE":"１６巷","ALLEY":" ","HOUSE_NO":"６號","E_COORD97":181638.73999999999,"N_COORD97":2539793.29,"ADDRESS":"民族街１６巷６號","OBJECTID":394113},"geometry":{"x":181638.74000000022,"y":2539793.2899999972}},{"attributes":{"ID":394138,"DIS_CODE":0,"TOWNNAME":"關廟區","LI":"東勢里","LIN":"16鄰","STREET":"東安街","SECT":" ","MAREA":" ","LANE":"２４５巷","ALLEY":" ","HOUSE_NO":"５０號","E_COORD97":181670.82000000001,"N_COORD97":2539457.3199999998,"ADDRESS":"東安街２４５巷５０號","OBJECTID":394114},"geometry":{"x":181670.8200000003,"y":2539457.3200000003}},{"attributes":{"ID":394139,"DIS_CODE":0,"TOWNNAME":"關廟區","LI":"松腳里","LIN":"16鄰","STREET":"民族街","SECT":" ","MAREA":" ","LANE":"７６巷","ALLEY":" ","HOUSE_NO":"２５號","E_COORD97":181589.29000000001,"N_COORD97":2539831.29,"ADDRESS":"民族街７６巷２５號","OBJECTID":394115},"geometry":{"x":181589.29000000004,"y":2539831.290000001}},{"attributes":{"ID":394140,"DIS_CODE":0,"TOWNNAME":"關廟區","LI":"松腳里","LIN":"16鄰","STREET":"民族街","SECT":" ","MAREA":" ","LANE":"７６巷","ALLEY":" ","HOUSE_NO":"７號","E_COORD97":181501.64000000001,"N_COORD97":2539804.29,"ADDRESS":"民族街７６巷７號","OBJECTID":394116},"geometry":{"x":181501.63999999966,"y":2539804.290000001}},{"attributes":{"ID":394141,"DIS_CODE":0,"TOWNNAME":"關廟區","LI":"松腳里","LIN":"16鄰","STREET":"民族街","SECT":" ","MAREA":" ","LANE":"７６巷","ALLEY":" ","HOUSE_NO":"８號","E_COORD97":181513.23999999999,"N_COORD97":2539808.29,"ADDRESS":"民族街７６巷８號","OBJECTID":394117},"geometry":{"x":181513.24000000022,"y":2539808.290000001}},{"attributes":{"ID":394142,"DIS_CODE":0,"TOWNNAME":"關廟區","LI":"松腳里","LIN":"16鄰","STREET":"民族街","SECT":" ","MAREA":" ","LANE":"７６巷","ALLEY":" ","HOUSE_NO":"６號","E_COORD97":181515.54000000001,"N_COORD97":2539800.29,"ADDRESS":"民族街７６巷６號","OBJECTID":394118},"geometry":{"x":181515.54000000097,"y":2539800.2900000028}},{"attributes":{"ID":394143,"DIS_CODE":0,"TOWNNAME":"關廟區","LI":"山西里","LIN":"16鄰","STREET":"中正路","SECT":" ","MAREA":" ","LANE":"１０１０巷","ALLEY":" ","HOUSE_NO":"７號","E_COORD97":180998.20999999999,"N_COORD97":2540383.25,"ADDRESS":"中正路１０１０巷７號","OBJECTID":394119},"geometry":{"x":180998.20999999996,"y":2540383.25}},{"attributes":{"ID":394144,"DIS_CODE":0,"TOWNNAME":"關廟區","LI":"五甲里","LIN":"16鄰","STREET":"光復街","SECT":" ","MAREA":" ","LANE":"９１巷","ALLEY":" ","HOUSE_NO":"２２號","E_COORD97":181469.94,"N_COORD97":2539364.2799999998,"ADDRESS":"光復街９１巷２２號","OBJECTID":394120},"geometry":{"x":181469.94000000041,"y":2539364.2800000012}},{"attributes":{"ID":394145,"DIS_CODE":0,"TOWNNAME":"關廟區","LI":"松腳里","LIN":"16鄰","STREET":"民族街","SECT":" ","MAREA":" ","LANE":"７６巷","ALLEY":" ","HOUSE_NO":"９號","E_COORD97":181502.04000000001,"N_COORD97":2539809.29,"ADDRESS":"民族街７６巷９號","OBJECTID":394121},"geometry":{"x":181502.04000000097,"y":2539809.2899999991}},{"attributes":{"ID":394146,"DIS_CODE":0,"TOWNNAME":"關廟區","LI":"東勢里","LIN":"16鄰","STREET":"東安街","SECT":" ","MAREA":" ","LANE":"２４５巷","ALLEY":" ","HOUSE_NO":"４６號","E_COORD97":181677.01999999999,"N_COORD97":2539445.3199999998,"ADDRESS":"東安街２４５巷４６號","OBJECTID":394122},"geometry":{"x":181677.01999999955,"y":2539445.320000004}},{"attributes":{"ID":394147,"DIS_CODE":0,"TOWNNAME":"關廟區","LI":"五甲里","LIN":"16鄰","STREET":"光復街","SECT":" ","MAREA":" ","LANE":"９１巷","ALLEY":" ","HOUSE_NO":"３０號","E_COORD97":181458.44,"N_COORD97":2539368.2799999998,"ADDRESS":"光復街９１巷３０號","OBJECTID":394123},"geometry":{"x":181458.44000000041,"y":2539368.2800000012}},{"attributes":{"ID":394148,"DIS_CODE":0,"TOWNNAME":"關廟區","LI":"五甲里","LIN":"16鄰","STREET":"光復街","SECT":" ","MAREA":" ","LANE":"９１巷","ALLEY":" ","HOUSE_NO":"１０號","E_COORD97":181488.73999999999,"N_COORD97":2539356.2799999998,"ADDRESS":"光復街９１巷１０號","OBJECTID":394124},"geometry":{"x":181488.74000000209,"y":2539356.2799999975}},{"attributes":{"ID":394149,"DIS_CODE":0,"TOWNNAME":"關廟區","LI":"北花里","LIN":"16鄰","STREET":"中正路","SECT":" ","MAREA":" ","LANE":"２４０巷","ALLEY":" ","HOUSE_NO":"１０號","E_COORD97":183216.10999999999,"N_COORD97":2540914.25,"ADDRESS":"中正路２４０巷１０號","OBJECTID":394125},"geometry":{"x":183216.11000000127,"y":2540914.2500000019}},{"attributes":{"ID":394150,"DIS_CODE":0,"TOWNNAME":"關廟區","LI":"香洋里","LIN":"16鄰","STREET":"花園一街","SECT":" ","MAREA":" ","LANE":"２７９巷","ALLEY":" ","HOUSE_NO":"２３號","E_COORD97":181450.14999999999,"N_COORD97":2540110.46,"ADDRESS":"花園一街２７９巷２３號","OBJECTID":394126},"geometry":{"x":181450.15000000037,"y":2540110.4600000028}},{"attributes":{"ID":394151,"DIS_CODE":0,"TOWNNAME":"關廟區","LI":"香洋里","LIN":"16鄰","STREET":"中央路","SECT":" ","MAREA":" ","LANE":"８２巷","ALLEY":" ","HOUSE_NO":"３號","E_COORD97":181481.70999999999,"N_COORD97":2540031.3199999998,"ADDRESS":"中央路８２巷３號","OBJECTID":394127},"geometry":{"x":181481.70999999903,"y":2540031.3200000003}},{"attributes":{"ID":394152,"DIS_CODE":0,"TOWNNAME":"關廟區","LI":"香洋里","LIN":"16鄰","STREET":"中央路","SECT":" ","MAREA":" ","LANE":"８２巷","ALLEY":" ","HOUSE_NO":"１號","E_COORD97":181489.81,"N_COORD97":2540029.3199999998,"ADDRESS":"中央路８２巷１號","OBJECTID":394128},"geometry":{"x":181489.81000000052,"y":2540029.3200000022}},{"attributes":{"ID":394153,"DIS_CODE":0,"TOWNNAME":"關廟區","LI":"香洋里","LIN":"16鄰","STREET":"中央路","SECT":" ","MAREA":" ","LANE":"８２巷","ALLEY":" ","HOUSE_NO":"７號","E_COORD97":181466.01000000001,"N_COORD97":2540036.3199999998,"ADDRESS":"中央路８２巷７號","OBJECTID":394129},"geometry":{"x":181466.01000000164,"y":2540036.3200000022}},{"attributes":{"ID":394154,"DIS_CODE":0,"TOWNNAME":"關廟區","LI":"香洋里","LIN":"16鄰","STREET":"中央路","SECT":" ","MAREA":" ","LANE":"８２巷","ALLEY":" ","HOUSE_NO":"９號","E_COORD97":181494.34,"N_COORD97":2540045.96,"ADDRESS":"中央路８２巷９號","OBJECTID":394130},"geometry":{"x":181494.34000000171,"y":2540045.9600000028}},{"attributes":{"ID":394155,"DIS_CODE":0,"TOWNNAME":"關廟區","LI":"香洋里","LIN":"16鄰","STREET":"中央路","SECT":" ","MAREA":" ","LANE":"８２巷","ALLEY":" ","HOUSE_NO":"２５號","E_COORD97":181511.88,"N_COORD97":2540091.8900000001,"ADDRESS":"中央路８２巷２５號","OBJECTID":394131},"geometry":{"x":181511.88000000082,"y":2540091.8900000006}},{"attributes":{"ID":394156,"DIS_CODE":0,"TOWNNAME":"關廟區","LI":"香洋里","LIN":"16鄰","STREET":"中央路","SECT":" ","MAREA":" ","LANE":"８２巷","ALLEY":" ","HOUSE_NO":"１９號","E_COORD97":181510.89000000001,"N_COORD97":2540077.96,"ADDRESS":"中央路８２巷１９號","OBJECTID":394132},"geometry":{"x":181510.89000000153,"y":2540077.9600000009}},{"attributes":{"ID":394157,"DIS_CODE":0,"TOWNNAME":"關廟區","LI":"東勢里","LIN":"16鄰","STREET":"東安街","SECT":" ","MAREA":" ","LANE":"２４５巷","ALLEY":" ","HOUSE_NO":"９６號","E_COORD97":181667.42000000001,"N_COORD97":2539535.3199999998,"ADDRESS":"東安街２４５巷９６號","OBJECTID":394133},"geometry":{"x":181667.42000000086,"y":2539535.3200000003}},{"attributes":{"ID":394158,"DIS_CODE":0,"TOWNNAME":"關廟區","LI":"北花里","LIN":"16鄰","STREET":"中正路","SECT":" ","MAREA":" ","LANE":"２４０巷","ALLEY":" ","HOUSE_NO":"８號","E_COORD97":183216.35999999999,"N_COORD97":2540910.25,"ADDRESS":"中正路２４０巷８號","OBJECTID":394134},"geometry":{"x":183216.36000000034,"y":2540910.2500000037}},{"attributes":{"ID":394159,"DIS_CODE":0,"TOWNNAME":"關廟區","LI":"香洋里","LIN":"16鄰","STREET":"花園一街","SECT":" ","MAREA":" ","LANE":"２７９巷","ALLEY":" ","HOUSE_NO":"９號","E_COORD97":181464.88,"N_COORD97":2540145.1899999999,"ADDRESS":"花園一街２７９巷９號","OBJECTID":394135},"geometry":{"x":181464.87999999989,"y":2540145.1900000013}},{"attributes":{"ID":394160,"DIS_CODE":0,"TOWNNAME":"關廟區","LI":"香洋里","LIN":"16鄰","STREET":"花園一街","SECT":" ","MAREA":" ","LANE":"２７９巷","ALLEY":" ","HOUSE_NO":"１１號","E_COORD97":181464.63,"N_COORD97":2540142.1899999999,"ADDRESS":"花園一街２７９巷１１號","OBJECTID":394136},"geometry":{"x":181464.62999999989,"y":2540142.1899999995}},{"attributes":{"ID":394161,"DIS_CODE":0,"TOWNNAME":"東區","LI":"裕農里","LIN":"14鄰","STREET":"裕豐街","SECT":" ","MAREA":" ","LANE":"２１４巷","ALLEY":" ","HOUSE_NO":"１１號","E_COORD97":170845.94,"N_COORD97":2543182.7999999998,"ADDRESS":"裕豐街２１４巷１１號","OBJECTID":394137},"geometry":{"x":170845.94000000041,"y":2543182.8000000026}},{"attributes":{"ID":394162,"DIS_CODE":0,"TOWNNAME":"新化區","LI":"協興里","LIN":"16鄰","STREET":"中山路","SECT":" ","MAREA":" ","LANE":"８９８巷","ALLEY":" ","HOUSE_NO":"１７號","E_COORD97":177201.85999999999,"N_COORD97":2548618.25,"ADDRESS":"中山路８９８巷１７號","OBJECTID":394138},"geometry":{"x":177201.86000000034,"y":2548618.25}},{"attributes":{"ID":394163,"DIS_CODE":0,"TOWNNAME":"東區","LI":"中西里","LIN":"37鄰","STREET":"林森路","SECT":"二段","MAREA":" ","LANE":"９１巷","ALLEY":" ","HOUSE_NO":"１７號","E_COORD97":170375.17999999999,"N_COORD97":2543345.1499999999,"ADDRESS":"林森路二段９１巷１７號","OBJECTID":394139},"geometry":{"x":170375.18000000063,"y":2543345.1500000004}},{"attributes":{"ID":394164,"DIS_CODE":0,"TOWNNAME":"東區","LI":"富強里","LIN":"23鄰","STREET":"裕農路","SECT":" ","MAREA":" ","LANE":"４４６巷","ALLEY":" ","HOUSE_NO":"２５號之１","E_COORD97":171259.26999999999,"N_COORD97":2543075.3900000001,"ADDRESS":"裕農路４４６巷２５號之１","OBJECTID":394140},"geometry":{"x":171259.27000000048,"y":2543075.3900000006}},{"attributes":{"ID":394165,"DIS_CODE":0,"TOWNNAME":"東區","LI":"富強里","LIN":"23鄰","STREET":"裕農路","SECT":" ","MAREA":" ","LANE":"４４６巷","ALLEY":" ","HOUSE_NO":"２５號之２","E_COORD97":171260.28,"N_COORD97":2543070.3300000001,"ADDRESS":"裕農路４４６巷２５號之２","OBJECTID":394141},"geometry":{"x":171260.28000000119,"y":2543070.3300000019}},{"attributes":{"ID":394166,"DIS_CODE":0,"TOWNNAME":"東區","LI":"崇德里","LIN":"23鄰","STREET":"崇德路","SECT":" ","MAREA":" ","LANE":"５３０巷","ALLEY":" ","HOUSE_NO":"２７號","E_COORD97":170667.23999999999,"N_COORD97":2541498.4399999999,"ADDRESS":"崇德路５３０巷２７號","OBJECTID":394142},"geometry":{"x":170667.24000000115,"y":2541498.4400000032}},{"attributes":{"ID":394167,"DIS_CODE":0,"TOWNNAME":"東區","LI":"崇德里","LIN":"23鄰","STREET":"崇德路","SECT":" ","MAREA":" ","LANE":"５３０巷","ALLEY":" ","HOUSE_NO":"２９號","E_COORD97":170660.01000000001,"N_COORD97":2541498.71,"ADDRESS":"崇德路５３０巷２９號","OBJECTID":394143},"geometry":{"x":170660.00999999978,"y":2541498.7100000028}},{"attributes":{"ID":394168,"DIS_CODE":0,"TOWNNAME":"東區","LI":"崇德里","LIN":"23鄰","STREET":"崇德路","SECT":" ","MAREA":" ","LANE":"５３０巷","ALLEY":" ","HOUSE_NO":"３１號","E_COORD97":170652.13,"N_COORD97":2541496.7400000002,"ADDRESS":"崇德路５３０巷３１號","OBJECTID":394144},"geometry":{"x":170652.13000000082,"y":2541496.7400000002}},{"attributes":{"ID":394169,"DIS_CODE":0,"TOWNNAME":"東區","LI":"崇德里","LIN":"23鄰","STREET":"崇德路","SECT":" ","MAREA":" ","LANE":"５３０巷","ALLEY":" ","HOUSE_NO":"３３號","E_COORD97":170645.56,"N_COORD97":2541496.7400000002,"ADDRESS":"崇德路５３０巷３３號","OBJECTID":394145},"geometry":{"x":170645.56000000052,"y":2541496.7400000002}},{"attributes":{"ID":394170,"DIS_CODE":0,"TOWNNAME":"新化區","LI":"協興里","LIN":"16鄰","STREET":"中山路","SECT":" ","MAREA":" ","LANE":"６６０巷","ALLEY":" ","HOUSE_NO":"４７號","E_COORD97":178077.76000000001,"N_COORD97":2548616.25,"ADDRESS":"中山路６６０巷４７號","OBJECTID":394146},"geometry":{"x":178077.76000000071,"y":2548616.2499999981}},{"attributes":{"ID":394171,"DIS_CODE":0,"TOWNNAME":"北區","LI":"新勝里","LIN":"16鄰","STREET":"長榮路","SECT":"五段","MAREA":" ","LANE":"２１１巷","ALLEY":" ","HOUSE_NO":"１０號","E_COORD97":170017.91,"N_COORD97":2545877.2000000002,"ADDRESS":"長榮路五段２１１巷１０號","OBJECTID":394147},"geometry":{"x":170017.91000000108,"y":2545877.2000000011}},{"attributes":{"ID":394172,"DIS_CODE":0,"TOWNNAME":"北區","LI":"新勝里","LIN":"16鄰","STREET":"長榮路","SECT":"五段","MAREA":" ","LANE":"２１１巷","ALLEY":" ","HOUSE_NO":"２號","E_COORD97":170040.60999999999,"N_COORD97":2545879.2000000002,"ADDRESS":"長榮路五段２１１巷２號","OBJECTID":394148},"geometry":{"x":170040.61000000127,"y":2545879.1999999993}},{"attributes":{"ID":394173,"DIS_CODE":0,"TOWNNAME":"北區","LI":"新勝里","LIN":"16鄰","STREET":"長榮路","SECT":"五段","MAREA":" ","LANE":"２１１巷","ALLEY":" ","HOUSE_NO":"４號","E_COORD97":170035.17000000001,"N_COORD97":2545879.2999999998,"ADDRESS":"長榮路五段２１１巷４號","OBJECTID":394149},"geometry":{"x":170035.17000000086,"y":2545879.3000000007}},{"attributes":{"ID":394174,"DIS_CODE":0,"TOWNNAME":"東區","LI":"富強里","LIN":"23鄰","STREET":"裕農路","SECT":" ","MAREA":" ","LANE":"４４６巷","ALLEY":" ","HOUSE_NO":"２５號","E_COORD97":171259.67000000001,"N_COORD97":2543079.23,"ADDRESS":"裕農路４４６巷２５號","OBJECTID":394150},"geometry":{"x":171259.66999999993,"y":2543079.2300000004}},{"attributes":{"ID":394175,"DIS_CODE":0,"TOWNNAME":"北區","LI":"新勝里","LIN":"16鄰","STREET":"長榮路","SECT":"五段","MAREA":" ","LANE":"２１１巷","ALLEY":" ","HOUSE_NO":"６號","E_COORD97":170029.82999999999,"N_COORD97":2545879.1099999999,"ADDRESS":"長榮路五段２１１巷６號","OBJECTID":394151},"geometry":{"x":170029.83000000007,"y":2545879.1099999994}},{"attributes":{"ID":394176,"DIS_CODE":0,"TOWNNAME":"南區","LI":"郡南里","LIN":"16鄰","STREET":"德興路","SECT":" ","MAREA":" ","LANE":"１３９巷","ALLEY":" ","HOUSE_NO":"５４號","E_COORD97":167460.82999999999,"N_COORD97":2540443.5800000001,"ADDRESS":"德興路１３９巷５４號","OBJECTID":394152},"geometry":{"x":167460.83000000101,"y":2540443.5800000038}},{"attributes":{"ID":394177,"DIS_CODE":0,"TOWNNAME":"南區","LI":"郡南里","LIN":"16鄰","STREET":"德興路","SECT":" ","MAREA":" ","LANE":"１３９巷","ALLEY":" ","HOUSE_NO":"５６號","E_COORD97":167464.82999999999,"N_COORD97":2540445.1200000001,"ADDRESS":"德興路１３９巷５６號","OBJECTID":394153},"geometry":{"x":167464.83000000007,"y":2540445.1200000029}},{"attributes":{"ID":394178,"DIS_CODE":0,"TOWNNAME":"南區","LI":"郡南里","LIN":"16鄰","STREET":"德興路","SECT":" ","MAREA":" ","LANE":"１３９巷","ALLEY":" ","HOUSE_NO":"５８號","E_COORD97":167469.14999999999,"N_COORD97":2540445.2799999998,"ADDRESS":"德興路１３９巷５８號","OBJECTID":394154},"geometry":{"x":167469.1500000013,"y":2540445.2800000012}},{"attributes":{"ID":394179,"DIS_CODE":0,"TOWNNAME":"南區","LI":"郡南里","LIN":"16鄰","STREET":"德興路","SECT":" ","MAREA":" ","LANE":"１３９巷","ALLEY":" ","HOUSE_NO":"５２號","E_COORD97":167456.35999999999,"N_COORD97":2540447.4300000002,"ADDRESS":"德興路１３９巷５２號","OBJECTID":394155},"geometry":{"x":167456.36000000034,"y":2540447.4300000034}},{"attributes":{"ID":394180,"DIS_CODE":0,"TOWNNAME":"南區","LI":"建南里","LIN":"16鄰","STREET":"中華南路","SECT":"二段","MAREA":" ","LANE":"２３３巷","ALLEY":" ","HOUSE_NO":"５５號","E_COORD97":166954.01000000001,"N_COORD97":2540055.3399999999,"ADDRESS":"中華南路二段２３３巷５５號","OBJECTID":394156},"geometry":{"x":166954.01000000071,"y":2540055.3400000017}},{"attributes":{"ID":394181,"DIS_CODE":0,"TOWNNAME":"安平區","LI":"西門里","LIN":"16鄰","STREET":"安北路","SECT":" ","MAREA":" ","LANE":"４１６巷","ALLEY":" ","HOUSE_NO":"１０號","E_COORD97":163150.06,"N_COORD97":2544559.6400000001,"ADDRESS":"安北路４１６巷１０號","OBJECTID":394157},"geometry":{"x":163150.05999999959,"y":2544559.6400000043}},{"attributes":{"ID":394182,"DIS_CODE":0,"TOWNNAME":"安平區","LI":"西門里","LIN":"16鄰","STREET":"安北路","SECT":" ","MAREA":" ","LANE":"４１６巷","ALLEY":" ","HOUSE_NO":"１１號","E_COORD97":163123.75,"N_COORD97":2544552.4700000002,"ADDRESS":"安北路４１６巷１１號","OBJECTID":394158},"geometry":{"x":163123.75,"y":2544552.4700000007}},{"attributes":{"ID":394183,"DIS_CODE":0,"TOWNNAME":"安平區","LI":"西門里","LIN":"16鄰","STREET":"安北路","SECT":" ","MAREA":" ","LANE":"４１６巷","ALLEY":" ","HOUSE_NO":"１２號","E_COORD97":163149.35000000001,"N_COORD97":2544563.5600000001,"ADDRESS":"安北路４１６巷１２號","OBJECTID":394159},"geometry":{"x":163149.35000000056,"y":2544563.5600000042}},{"attributes":{"ID":394184,"DIS_CODE":0,"TOWNNAME":"安平區","LI":"西門里","LIN":"16鄰","STREET":"安北路","SECT":" ","MAREA":" ","LANE":"４１６巷","ALLEY":" ","HOUSE_NO":"１３號","E_COORD97":163122.01000000001,"N_COORD97":2544556.9399999999,"ADDRESS":"安北路４１６巷１３號","OBJECTID":394160},"geometry":{"x":163122.00999999978,"y":2544556.9400000013}},{"attributes":{"ID":394185,"DIS_CODE":0,"TOWNNAME":"安平區","LI":"西門里","LIN":"16鄰","STREET":"安北路","SECT":" ","MAREA":" ","LANE":"４１６巷","ALLEY":" ","HOUSE_NO":"１４號","E_COORD97":163147.56,"N_COORD97":2544566.4100000001,"ADDRESS":"安北路４１６巷１４號","OBJECTID":394161},"geometry":{"x":163147.56000000052,"y":2544566.4100000001}},{"attributes":{"ID":394186,"DIS_CODE":0,"TOWNNAME":"安平區","LI":"西門里","LIN":"16鄰","STREET":"安北路","SECT":" ","MAREA":" ","LANE":"４１６巷","ALLEY":" ","HOUSE_NO":"１５號","E_COORD97":163120.95000000001,"N_COORD97":2544560.4199999999,"ADDRESS":"安北路４１６巷１５號","OBJECTID":394162},"geometry":{"x":163120.95000000019,"y":2544560.4200000037}},{"attributes":{"ID":394187,"DIS_CODE":0,"TOWNNAME":"安平區","LI":"西門里","LIN":"16鄰","STREET":"安北路","SECT":" ","MAREA":" ","LANE":"４１６巷","ALLEY":" ","HOUSE_NO":"１６號","E_COORD97":163145.07000000001,"N_COORD97":2544570.6800000002,"ADDRESS":"安北路４１６巷１６號","OBJECTID":394163},"geometry":{"x":163145.07000000123,"y":2544570.6799999997}},{"attributes":{"ID":394188,"DIS_CODE":0,"TOWNNAME":"安平區","LI":"西門里","LIN":"16鄰","STREET":"安北路","SECT":" ","MAREA":" ","LANE":"４１６巷","ALLEY":" ","HOUSE_NO":"１７號","E_COORD97":163119.66,"N_COORD97":2544564.2000000002,"ADDRESS":"安北路４１６巷１７號","OBJECTID":394164},"geometry":{"x":163119.66000000015,"y":2544564.1999999993}},{"attributes":{"ID":394189,"DIS_CODE":0,"TOWNNAME":"安平區","LI":"西門里","LIN":"16鄰","STREET":"安北路","SECT":" ","MAREA":" ","LANE":"４１６巷","ALLEY":" ","HOUSE_NO":"１８號","E_COORD97":163144.70999999999,"N_COORD97":2544574.2400000002,"ADDRESS":"安北路４１６巷１８號","OBJECTID":394165},"geometry":{"x":163144.70999999996,"y":2544574.2400000002}},{"attributes":{"ID":394190,"DIS_CODE":0,"TOWNNAME":"安平區","LI":"西門里","LIN":"16鄰","STREET":"安北路","SECT":" ","MAREA":" ","LANE":"４１６巷","ALLEY":" ","HOUSE_NO":"１９號","E_COORD97":163118.37,"N_COORD97":2544567.5299999998,"ADDRESS":"安北路４１６巷１９號","OBJECTID":394166},"geometry":{"x":163118.37000000011,"y":2544567.5299999993}},{"attributes":{"ID":394191,"DIS_CODE":0,"TOWNNAME":"東區","LI":"德高里","LIN":"14鄰","STREET":"仁和路","SECT":" ","MAREA":" ","LANE":"１９９巷","ALLEY":" ","HOUSE_NO":"４號","E_COORD97":171677.56,"N_COORD97":2540842.8399999999,"ADDRESS":"仁和路１９９巷４號","OBJECTID":394167},"geometry":{"x":171677.56000000145,"y":2540842.8400000017}},{"attributes":{"ID":394192,"DIS_CODE":0,"TOWNNAME":"東區","LI":"德高里","LIN":"14鄰","STREET":"仁和路","SECT":" ","MAREA":" ","LANE":"１９９巷","ALLEY":" ","HOUSE_NO":"２號","E_COORD97":171683.41,"N_COORD97":2540831,"ADDRESS":"仁和路１９９巷２號","OBJECTID":394168},"geometry":{"x":171683.41000000015,"y":2540831.0000000019}},{"attributes":{"ID":394193,"DIS_CODE":0,"TOWNNAME":"東區","LI":"中西里","LIN":"10鄰","STREET":"勝利路","SECT":" ","MAREA":" ","LANE":"５２巷","ALLEY":" ","HOUSE_NO":"１６號","E_COORD97":169867.60000000001,"N_COORD97":2543527.0600000001,"ADDRESS":"勝利路５２巷１６號","OBJECTID":394169},"geometry":{"x":169867.59999999963,"y":2543527.0600000024}},{"attributes":{"ID":394194,"DIS_CODE":0,"TOWNNAME":"東區","LI":"中西里","LIN":"10鄰","STREET":"勝利路","SECT":" ","MAREA":" ","LANE":"５２巷","ALLEY":" ","HOUSE_NO":"６號","E_COORD97":169859.82999999999,"N_COORD97":2543558.1000000001,"ADDRESS":"勝利路５２巷６號","OBJECTID":394170},"geometry":{"x":169859.83000000007,"y":2543558.0999999996}},{"attributes":{"ID":394195,"DIS_CODE":0,"TOWNNAME":"安平區","LI":"西門里","LIN":"16鄰","STREET":"安北路","SECT":" ","MAREA":" ","LANE":"４１６巷","ALLEY":" ","HOUSE_NO":"１號","E_COORD97":163131.41,"N_COORD97":2544533.23,"ADDRESS":"安北路４１６巷１號","OBJECTID":394171},"geometry":{"x":163131.41000000015,"y":2544533.2300000023}},{"attributes":{"ID":394196,"DIS_CODE":0,"TOWNNAME":"安平區","LI":"西門里","LIN":"16鄰","STREET":"安北路","SECT":" ","MAREA":" ","LANE":"４１６巷","ALLEY":" ","HOUSE_NO":"２０號","E_COORD97":163142.57000000001,"N_COORD97":2544577.7999999998,"ADDRESS":"安北路４１６巷２０號","OBJECTID":394172},"geometry":{"x":163142.5700000003,"y":2544577.8000000007}},{"attributes":{"ID":394197,"DIS_CODE":0,"TOWNNAME":"安平區","LI":"西門里","LIN":"16鄰","STREET":"安北路","SECT":" ","MAREA":" ","LANE":"４１６巷","ALLEY":" ","HOUSE_NO":"２１號","E_COORD97":163116.70000000001,"N_COORD97":2544571.4700000002,"ADDRESS":"安北路４１６巷２１號","OBJECTID":394173},"geometry":{"x":163116.70000000112,"y":2544571.4700000025}},{"attributes":{"ID":394198,"DIS_CODE":0,"TOWNNAME":"安平區","LI":"西門里","LIN":"16鄰","STREET":"安北路","SECT":" ","MAREA":" ","LANE":"４１６巷","ALLEY":" ","HOUSE_NO":"２２號","E_COORD97":163141.5,"N_COORD97":2544581.3700000001,"ADDRESS":"安北路４１６巷２２號","OBJECTID":394174},"geometry":{"x":163141.50000000093,"y":2544581.370000001}},{"attributes":{"ID":394199,"DIS_CODE":0,"TOWNNAME":"安平區","LI":"西門里","LIN":"16鄰","STREET":"安北路","SECT":" ","MAREA":" ","LANE":"４１６巷","ALLEY":" ","HOUSE_NO":"２３號","E_COORD97":163115.26000000001,"N_COORD97":2544574.7999999998,"ADDRESS":"安北路４１６巷２３號","OBJECTID":394175},"geometry":{"x":163115.25999999978,"y":2544574.8000000007}},{"attributes":{"ID":394200,"DIS_CODE":0,"TOWNNAME":"安平區","LI":"西門里","LIN":"16鄰","STREET":"安北路","SECT":" ","MAREA":" ","LANE":"４１６巷","ALLEY":" ","HOUSE_NO":"２４號","E_COORD97":163140.07999999999,"N_COORD97":2544585.2799999998,"ADDRESS":"安北路４１６巷２４號","OBJECTID":394176},"geometry":{"x":163140.08000000007,"y":2544585.2800000012}},{"attributes":{"ID":394201,"DIS_CODE":0,"TOWNNAME":"安平區","LI":"西門里","LIN":"16鄰","STREET":"安北路","SECT":" ","MAREA":" ","LANE":"４１６巷","ALLEY":" ","HOUSE_NO":"２５號","E_COORD97":163114.04999999999,"N_COORD97":2544578.3599999999,"ADDRESS":"安北路４１６巷２５號","OBJECTID":394177},"geometry":{"x":163114.05000000075,"y":2544578.3600000013}},{"attributes":{"ID":394202,"DIS_CODE":0,"TOWNNAME":"安平區","LI":"西門里","LIN":"16鄰","STREET":"安北路","SECT":" ","MAREA":" ","LANE":"４１６巷","ALLEY":" ","HOUSE_NO":"２６號","E_COORD97":163138.29999999999,"N_COORD97":2544589.2000000002,"ADDRESS":"安北路４１６巷２６號","OBJECTID":394178},"geometry":{"x":163138.29999999981,"y":2544589.2000000011}},{"attributes":{"ID":394203,"DIS_CODE":0,"TOWNNAME":"安平區","LI":"西門里","LIN":"16鄰","STREET":"安北路","SECT":" ","MAREA":" ","LANE":"４１６巷","ALLEY":" ","HOUSE_NO":"２７號","E_COORD97":163111.47,"N_COORD97":2544582.0699999998,"ADDRESS":"安北路４１６巷２７號","OBJECTID":394179},"geometry":{"x":163111.47000000067,"y":2544582.0700000003}},{"attributes":{"ID":394204,"DIS_CODE":0,"TOWNNAME":"安平區","LI":"西門里","LIN":"16鄰","STREET":"安北路","SECT":" ","MAREA":" ","LANE":"４１６巷","ALLEY":" ","HOUSE_NO":"２８號","E_COORD97":163136.87,"N_COORD97":2544592.4100000001,"ADDRESS":"安北路４１６巷２８號","OBJECTID":394180},"geometry":{"x":163136.87000000011,"y":2544592.410000002}},{"attributes":{"ID":394205,"DIS_CODE":0,"TOWNNAME":"安平區","LI":"西門里","LIN":"16鄰","STREET":"安北路","SECT":" ","MAREA":" ","LANE":"４１６巷","ALLEY":" ","HOUSE_NO":"２９號","E_COORD97":163110.26000000001,"N_COORD97":2544586.0099999998,"ADDRESS":"安北路４１６巷２９號","OBJECTID":394181},"geometry":{"x":163110.25999999978,"y":2544586.0099999998}},{"attributes":{"ID":394206,"DIS_CODE":0,"TOWNNAME":"安平區","LI":"西門里","LIN":"16鄰","STREET":"安北路","SECT":" ","MAREA":" ","LANE":"４１６巷","ALLEY":" ","HOUSE_NO":"２號","E_COORD97":163156.12,"N_COORD97":2544543.9700000002,"ADDRESS":"安北路４１６巷２號","OBJECTID":394182},"geometry":{"x":163156.12000000104,"y":2544543.9700000044}},{"attributes":{"ID":394207,"DIS_CODE":0,"TOWNNAME":"安平區","LI":"西門里","LIN":"16鄰","STREET":"安北路","SECT":" ","MAREA":" ","LANE":"４１６巷","ALLEY":" ","HOUSE_NO":"３０號","E_COORD97":163135.09,"N_COORD97":2544596.3199999998,"ADDRESS":"安北路４１６巷３０號","OBJECTID":394183},"geometry":{"x":163135.08999999985,"y":2544596.3200000022}},{"attributes":{"ID":394208,"DIS_CODE":0,"TOWNNAME":"安平區","LI":"西門里","LIN":"16鄰","STREET":"安北路","SECT":" ","MAREA":" ","LANE":"４１６巷","ALLEY":" ","HOUSE_NO":"３１號","E_COORD97":163108.59,"N_COORD97":2544590.02,"ADDRESS":"安北路４１６巷３１號","OBJECTID":394184},"geometry":{"x":163108.59000000078,"y":2544590.0200000033}},{"attributes":{"ID":394209,"DIS_CODE":0,"TOWNNAME":"安平區","LI":"西門里","LIN":"16鄰","STREET":"安北路","SECT":" ","MAREA":" ","LANE":"４１６巷","ALLEY":" ","HOUSE_NO":"３２號","E_COORD97":163133.66,"N_COORD97":2544599.5299999998,"ADDRESS":"安北路４１６巷３２號","OBJECTID":394185},"geometry":{"x":163133.66000000201,"y":2544599.5299999975}},{"attributes":{"ID":394210,"DIS_CODE":0,"TOWNNAME":"安平區","LI":"西門里","LIN":"16鄰","STREET":"安北路","SECT":" ","MAREA":" ","LANE":"４１６巷","ALLEY":" ","HOUSE_NO":"３３號","E_COORD97":163107.14999999999,"N_COORD97":2544593.3599999999,"ADDRESS":"安北路４１６巷３３號","OBJECTID":394186},"geometry":{"x":163107.1500000013,"y":2544593.3599999994}},{"attributes":{"ID":394211,"DIS_CODE":0,"TOWNNAME":"安平區","LI":"西門里","LIN":"16鄰","STREET":"安北路","SECT":" ","MAREA":" ","LANE":"４１６巷","ALLEY":" ","HOUSE_NO":"３４號","E_COORD97":163132.59,"N_COORD97":2544603.4500000002,"ADDRESS":"安北路４１６巷３４號","OBJECTID":394187},"geometry":{"x":163132.59000000078,"y":2544603.450000003}},{"attributes":{"ID":394212,"DIS_CODE":0,"TOWNNAME":"安平區","LI":"西門里","LIN":"16鄰","STREET":"安北路","SECT":" ","MAREA":" ","LANE":"４１６巷","ALLEY":" ","HOUSE_NO":"３５號","E_COORD97":163105.70999999999,"N_COORD97":2544597.3500000001,"ADDRESS":"安北路４１６巷３５號","OBJECTID":394188},"geometry":{"x":163105.70999999996,"y":2544597.3499999996}},{"attributes":{"ID":394213,"DIS_CODE":0,"TOWNNAME":"安平區","LI":"西門里","LIN":"16鄰","STREET":"安北路","SECT":" ","MAREA":" ","LANE":"４１６巷","ALLEY":" ","HOUSE_NO":"３６號","E_COORD97":163130.81,"N_COORD97":2544608.0800000001,"ADDRESS":"安北路４１６巷３６號","OBJECTID":394189},"geometry":{"x":163130.81000000052,"y":2544608.0800000019}},{"attributes":{"ID":394214,"DIS_CODE":0,"TOWNNAME":"安平區","LI":"西門里","LIN":"16鄰","STREET":"安北路","SECT":" ","MAREA":" ","LANE":"４１６巷","ALLEY":" ","HOUSE_NO":"３７號","E_COORD97":163104.76000000001,"N_COORD97":2544601.2400000002,"ADDRESS":"安北路４１６巷３７號","OBJECTID":394190},"geometry":{"x":163104.75999999978,"y":2544601.2400000002}},{"attributes":{"ID":394215,"DIS_CODE":0,"TOWNNAME":"安平區","LI":"西門里","LIN":"16鄰","STREET":"安北路","SECT":" ","MAREA":" ","LANE":"４１６巷","ALLEY":" ","HOUSE_NO":"３８號","E_COORD97":163129.38,"N_COORD97":2544610.9300000002,"ADDRESS":"安北路４１６巷３８號","OBJECTID":394191},"geometry":{"x":163129.37999999989,"y":2544610.9300000034}},{"attributes":{"ID":394216,"DIS_CODE":0,"TOWNNAME":"安平區","LI":"西門里","LIN":"16鄰","STREET":"安北路","SECT":" ","MAREA":" ","LANE":"４１６巷","ALLEY":" ","HOUSE_NO":"３９號","E_COORD97":163103.62,"N_COORD97":2544605.0299999998,"ADDRESS":"安北路４１６巷３９號","OBJECTID":394192},"geometry":{"x":163103.62000000104,"y":2544605.0299999993}},{"attributes":{"ID":394217,"DIS_CODE":0,"TOWNNAME":"東區","LI":"東明里","LIN":"1鄰","STREET":"東興路","SECT":" ","MAREA":" ","LANE":"３１巷","ALLEY":" ","HOUSE_NO":"１號","E_COORD97":170894.54000000001,"N_COORD97":2543466.3100000001,"ADDRESS":"東興路３１巷１號","OBJECTID":394193},"geometry":{"x":170894.54000000004,"y":2543466.3100000005}},{"attributes":{"ID":394218,"DIS_CODE":0,"TOWNNAME":"安平區","LI":"西門里","LIN":"16鄰","STREET":"安北路","SECT":" ","MAREA":" ","LANE":"４１６巷","ALLEY":" ","HOUSE_NO":"３號","E_COORD97":163130.26999999999,"N_COORD97":2544536.6400000001,"ADDRESS":"安北路４１６巷３號","OBJECTID":394194},"geometry":{"x":163130.26999999955,"y":2544536.6400000025}},{"attributes":{"ID":394219,"DIS_CODE":0,"TOWNNAME":"安平區","LI":"西門里","LIN":"16鄰","STREET":"安北路","SECT":" ","MAREA":" ","LANE":"４１６巷","ALLEY":" ","HOUSE_NO":"４０號","E_COORD97":163127.60000000001,"N_COORD97":2544615.2000000002,"ADDRESS":"安北路４１６巷４０號","OBJECTID":394195},"geometry":{"x":163127.59999999963,"y":2544615.1999999974}},{"attributes":{"ID":394220,"DIS_CODE":0,"TOWNNAME":"安平區","LI":"西門里","LIN":"16鄰","STREET":"安北路","SECT":" ","MAREA":" ","LANE":"４１６巷","ALLEY":" ","HOUSE_NO":"４１號","E_COORD97":163102.03,"N_COORD97":2544608.7400000002,"ADDRESS":"安北路４１６巷４１號","OBJECTID":394196},"geometry":{"x":163102.03000000026,"y":2544608.7400000002}},{"attributes":{"ID":394221,"DIS_CODE":0,"TOWNNAME":"安平區","LI":"西門里","LIN":"16鄰","STREET":"安北路","SECT":" ","MAREA":" ","LANE":"４１６巷","ALLEY":" ","HOUSE_NO":"４２號","E_COORD97":163126.17999999999,"N_COORD97":2544618.4100000001,"ADDRESS":"安北路４１６巷４２號","OBJECTID":394197},"geometry":{"x":163126.18000000156,"y":2544618.4100000039}},{"attributes":{"ID":394222,"DIS_CODE":0,"TOWNNAME":"安平區","LI":"西門里","LIN":"16鄰","STREET":"安北路","SECT":" ","MAREA":" ","LANE":"４１６巷","ALLEY":" ","HOUSE_NO":"４３號","E_COORD97":163100.44,"N_COORD97":2544611.8500000001,"ADDRESS":"安北路４１６巷４３號","OBJECTID":394198},"geometry":{"x":163100.44000000134,"y":2544611.8500000015}},{"attributes":{"ID":394223,"DIS_CODE":0,"TOWNNAME":"安平區","LI":"西門里","LIN":"16鄰","STREET":"安北路","SECT":" ","MAREA":" ","LANE":"４１６巷","ALLEY":" ","HOUSE_NO":"４４號","E_COORD97":163124.04000000001,"N_COORD97":2544621.9700000002,"ADDRESS":"安北路４１６巷４４號","OBJECTID":394199},"geometry":{"x":163124.03999999911,"y":2544621.9700000044}},{"attributes":{"ID":394224,"DIS_CODE":0,"TOWNNAME":"安平區","LI":"西門里","LIN":"16鄰","STREET":"安北路","SECT":" ","MAREA":" ","LANE":"４１６巷","ALLEY":" ","HOUSE_NO":"４５號","E_COORD97":163099.14999999999,"N_COORD97":2544616.1699999999,"ADDRESS":"安北路４１６巷４５號","OBJECTID":394200},"geometry":{"x":163099.15000000037,"y":2544616.1699999981}}]}