{"displayFieldName":"TOWNNAME","fieldAliases":{"ID":"ID","DIS_CODE":"DIS_CODE","TOWNNAME":"TOWNNAME","LI":"LI","LIN":"LIN","STREET":"STREET","SECT":"SECT","MAREA":"MAREA","LANE":"LANE","ALLEY":"ALLEY","HOUSE_NO":"HOUSE_NO","E_COORD97":"E_COORD97","N_COORD97":"N_COORD97","ADDRESS":"ADDRESS","OBJECTID":"OBJECTID"},"geometryType":"esriGeometryPoint","spatialReference":{"wkid":102443,"latestWkid":3826},"fields":[{"name":"ID","type":"esriFieldTypeDouble","alias":"ID"},{"name":"DIS_CODE","type":"esriFieldTypeInteger","alias":"DIS_CODE"},{"name":"TOWNNAME","type":"esriFieldTypeString","alias":"TOWNNAME","length":8},{"name":"LI","type":"esriFieldTypeString","alias":"LI","length":8},{"name":"LIN","type":"esriFieldTypeString","alias":"LIN","length":12},{"name":"STREET","type":"esriFieldTypeString","alias":"STREET","length":20},{"name":"SECT","type":"esriFieldTypeString","alias":"SECT","length":8},{"name":"MAREA","type":"esriFieldTypeString","alias":"MAREA","length":12},{"name":"LANE","type":"esriFieldTypeString","alias":"LANE","length":10},{"name":"ALLEY","type":"esriFieldTypeString","alias":"ALLEY","length":10},{"name":"HOUSE_NO","type":"esriFieldTypeString","alias":"HOUSE_NO","length":20},{"name":"E_COORD97","type":"esriFieldTypeDouble","alias":"E_COORD97"},{"name":"N_COORD97","type":"esriFieldTypeDouble","alias":"N_COORD97"},{"name":"ADDRESS","type":"esriFieldTypeString","alias":"ADDRESS","length":50},{"name":"OBJECTID","type":"esriFieldTypeOID","alias":"OBJECTID"}],"features":[{"attributes":{"ID":610628,"DIS_CODE":0,"TOWNNAME":"新市區","LI":"新和里","LIN":"3鄰","STREET":"延平街","SECT":" ","MAREA":" ","LANE":" ","ALLEY":" ","HOUSE_NO":"３８之１號","E_COORD97":177459.63,"N_COORD97":2552096.3300000001,"ADDRESS":"延平街３８之１號","OBJECTID":610601},"geometry":{"x":177459.63000000175,"y":2552096.3300000001}},{"attributes":{"ID":610629,"DIS_CODE":0,"TOWNNAME":"新市區","LI":"新和里","LIN":"3鄰","STREET":"仁愛街","SECT":" ","MAREA":" ","LANE":" ","ALLEY":" ","HOUSE_NO":"１７號","E_COORD97":177395.28,"N_COORD97":2552087.0299999998,"ADDRESS":"仁愛街１７號","OBJECTID":610602},"geometry":{"x":177395.28000000119,"y":2552087.0300000012}},{"attributes":{"ID":610630,"DIS_CODE":0,"TOWNNAME":"新市區","LI":"新和里","LIN":"3鄰","STREET":"仁愛街","SECT":" ","MAREA":" ","LANE":" ","ALLEY":" ","HOUSE_NO":"４０號","E_COORD97":177470.89000000001,"N_COORD97":2552181.2799999998,"ADDRESS":"仁愛街４０號","OBJECTID":610603},"geometry":{"x":177470.88999999966,"y":2552181.2799999993}},{"attributes":{"ID":610631,"DIS_CODE":0,"TOWNNAME":"新市區","LI":"新和里","LIN":"3鄰","STREET":"仁愛街","SECT":" ","MAREA":" ","LANE":" ","ALLEY":" ","HOUSE_NO":"１４號","E_COORD97":177440.73000000001,"N_COORD97":2552124.2799999998,"ADDRESS":"仁愛街１４號","OBJECTID":610604},"geometry":{"x":177440.72999999952,"y":2552124.2799999993}},{"attributes":{"ID":610632,"DIS_CODE":0,"TOWNNAME":"新市區","LI":"新和里","LIN":"3鄰","STREET":"仁愛街","SECT":" ","MAREA":" ","LANE":" ","ALLEY":" ","HOUSE_NO":"３４號","E_COORD97":177465,"N_COORD97":2552170.2799999998,"ADDRESS":"仁愛街３４號","OBJECTID":610605},"geometry":{"x":177465,"y":2552170.2800000012}},{"attributes":{"ID":610633,"DIS_CODE":0,"TOWNNAME":"新市區","LI":"新和里","LIN":"3鄰","STREET":"仁愛街","SECT":" ","MAREA":" ","LANE":" ","ALLEY":" ","HOUSE_NO":"４２號","E_COORD97":177473,"N_COORD97":2552185.0299999998,"ADDRESS":"仁愛街４２號","OBJECTID":610606},"geometry":{"x":177473.00000000093,"y":2552185.0300000012}},{"attributes":{"ID":610634,"DIS_CODE":0,"TOWNNAME":"新市區","LI":"新和里","LIN":"3鄰","STREET":"仁愛街","SECT":" ","MAREA":" ","LANE":" ","ALLEY":" ","HOUSE_NO":"３７號","E_COORD97":177435.60999999999,"N_COORD97":2552156.5299999998,"ADDRESS":"仁愛街３７號","OBJECTID":610607},"geometry":{"x":177435.61000000034,"y":2552156.5299999993}},{"attributes":{"ID":610635,"DIS_CODE":0,"TOWNNAME":"新市區","LI":"新和里","LIN":"3鄰","STREET":"仁愛街","SECT":" ","MAREA":" ","LANE":" ","ALLEY":" ","HOUSE_NO":"１２號","E_COORD97":177436.44,"N_COORD97":2552120.7799999998,"ADDRESS":"仁愛街１２號","OBJECTID":610608},"geometry":{"x":177436.44000000134,"y":2552120.7799999993}},{"attributes":{"ID":610636,"DIS_CODE":0,"TOWNNAME":"新市區","LI":"新和里","LIN":"3鄰","STREET":"延平街","SECT":" ","MAREA":" ","LANE":" ","ALLEY":" ","HOUSE_NO":"８之１號","E_COORD97":177320.51999999999,"N_COORD97":2551985.5800000001,"ADDRESS":"延平街８之１號","OBJECTID":610609},"geometry":{"x":177320.51999999955,"y":2551985.5800000019}},{"attributes":{"ID":610637,"DIS_CODE":0,"TOWNNAME":"新市區","LI":"新和里","LIN":"3鄰","STREET":"仁愛街","SECT":" ","MAREA":" ","LANE":" ","ALLEY":" ","HOUSE_NO":"３號","E_COORD97":177325.32999999999,"N_COORD97":2551978.0299999998,"ADDRESS":"仁愛街３號","OBJECTID":610610},"geometry":{"x":177325.33000000007,"y":2551978.0300000012}},{"attributes":{"ID":610638,"DIS_CODE":0,"TOWNNAME":"新市區","LI":"新和里","LIN":"3鄰","STREET":"仁愛街","SECT":" ","MAREA":" ","LANE":" ","ALLEY":" ","HOUSE_NO":"２２號","E_COORD97":177450.78,"N_COORD97":2552141.0299999998,"ADDRESS":"仁愛街２２號","OBJECTID":610611},"geometry":{"x":177450.78000000119,"y":2552141.0300000012}},{"attributes":{"ID":610639,"DIS_CODE":0,"TOWNNAME":"新市區","LI":"新和里","LIN":"3鄰","STREET":"仁愛街","SECT":" ","MAREA":" ","LANE":" ","ALLEY":" ","HOUSE_NO":"２１號","E_COORD97":177413.03,"N_COORD97":2552115.0299999998,"ADDRESS":"仁愛街２１號","OBJECTID":610612},"geometry":{"x":177413.03000000026,"y":2552115.0299999993}},{"attributes":{"ID":610640,"DIS_CODE":0,"TOWNNAME":"新市區","LI":"新和里","LIN":"3鄰","STREET":"延平街","SECT":" ","MAREA":" ","LANE":" ","ALLEY":" ","HOUSE_NO":"３９號","E_COORD97":177483.94,"N_COORD97":2552134.3300000001,"ADDRESS":"延平街３９號","OBJECTID":610613},"geometry":{"x":177483.94000000134,"y":2552134.3300000001}},{"attributes":{"ID":610641,"DIS_CODE":0,"TOWNNAME":"永康區","LI":"北灣里","LIN":"3鄰","STREET":"文賢街","SECT":" ","MAREA":" ","LANE":" ","ALLEY":" ","HOUSE_NO":"２０３號","E_COORD97":175360.95999999999,"N_COORD97":2545532.5899999999,"ADDRESS":"文賢街２０３號","OBJECTID":610614},"geometry":{"x":175360.96000000089,"y":2545532.5900000017}},{"attributes":{"ID":610642,"DIS_CODE":0,"TOWNNAME":"永康區","LI":"北灣里","LIN":"3鄰","STREET":"文賢街","SECT":" ","MAREA":" ","LANE":" ","ALLEY":" ","HOUSE_NO":"１２６號","E_COORD97":175384.64999999999,"N_COORD97":2545529.7599999998,"ADDRESS":"文賢街１２６號","OBJECTID":610615},"geometry":{"x":175384.65000000037,"y":2545529.7599999998}},{"attributes":{"ID":610643,"DIS_CODE":0,"TOWNNAME":"永康區","LI":"北灣里","LIN":"3鄰","STREET":"文賢街","SECT":" ","MAREA":" ","LANE":" ","ALLEY":" ","HOUSE_NO":"１６２號","E_COORD97":175381.26000000001,"N_COORD97":2545632.71,"ADDRESS":"文賢街１６２號","OBJECTID":610616},"geometry":{"x":175381.25999999978,"y":2545632.7100000009}},{"attributes":{"ID":610644,"DIS_CODE":0,"TOWNNAME":"永康區","LI":"北灣里","LIN":"3鄰","STREET":"文賢街","SECT":" ","MAREA":" ","LANE":" ","ALLEY":" ","HOUSE_NO":"２０７號","E_COORD97":175362.14999999999,"N_COORD97":2545541.8399999999,"ADDRESS":"文賢街２０７號","OBJECTID":610617},"geometry":{"x":175362.15000000037,"y":2545541.8400000017}},{"attributes":{"ID":610645,"DIS_CODE":0,"TOWNNAME":"永康區","LI":"北灣里","LIN":"3鄰","STREET":"文賢街","SECT":" ","MAREA":" ","LANE":" ","ALLEY":" ","HOUSE_NO":"１３２號","E_COORD97":175385.95999999999,"N_COORD97":2545553.5099999998,"ADDRESS":"文賢街１３２號","OBJECTID":610618},"geometry":{"x":175385.96000000183,"y":2545553.5100000016}},{"attributes":{"ID":610646,"DIS_CODE":0,"TOWNNAME":"永康區","LI":"北灣里","LIN":"3鄰","STREET":"文賢街","SECT":" ","MAREA":" ","LANE":" ","ALLEY":" ","HOUSE_NO":"１２８號","E_COORD97":175385.04999999999,"N_COORD97":2545538.2599999998,"ADDRESS":"文賢街１２８號","OBJECTID":610619},"geometry":{"x":175385.05000000168,"y":2545538.2600000016}},{"attributes":{"ID":610647,"DIS_CODE":0,"TOWNNAME":"永康區","LI":"北灣里","LIN":"3鄰","STREET":"文賢街","SECT":" ","MAREA":" ","LANE":" ","ALLEY":" ","HOUSE_NO":"２３９號","E_COORD97":175364.51999999999,"N_COORD97":2545643.21,"ADDRESS":"文賢街２３９號","OBJECTID":610620},"geometry":{"x":175364.51999999955,"y":2545643.2100000009}},{"attributes":{"ID":610648,"DIS_CODE":0,"TOWNNAME":"永康區","LI":"北灣里","LIN":"3鄰","STREET":"文賢街","SECT":" ","MAREA":" ","LANE":" ","ALLEY":" ","HOUSE_NO":"１５０號","E_COORD97":175387.82999999999,"N_COORD97":2545599.5299999998,"ADDRESS":"文賢街１５０號","OBJECTID":610621},"geometry":{"x":175387.83000000007,"y":2545599.5299999993}},{"attributes":{"ID":610649,"DIS_CODE":0,"TOWNNAME":"永康區","LI":"北灣里","LIN":"3鄰","STREET":"文賢街","SECT":" ","MAREA":" ","LANE":" ","ALLEY":" ","HOUSE_NO":"２１１號","E_COORD97":175363.23999999999,"N_COORD97":2545550.3399999999,"ADDRESS":"文賢街２１１號","OBJECTID":610622},"geometry":{"x":175363.24000000022,"y":2545550.3399999999}},{"attributes":{"ID":610650,"DIS_CODE":0,"TOWNNAME":"永康區","LI":"北灣里","LIN":"3鄰","STREET":"文賢街","SECT":" ","MAREA":" ","LANE":" ","ALLEY":" ","HOUSE_NO":"１６８號","E_COORD97":175380.20999999999,"N_COORD97":2545640.71,"ADDRESS":"文賢街１６８號","OBJECTID":610623},"geometry":{"x":175380.20999999996,"y":2545640.709999999}},{"attributes":{"ID":610651,"DIS_CODE":0,"TOWNNAME":"永康區","LI":"北灣里","LIN":"3鄰","STREET":"文賢街","SECT":" ","MAREA":" ","LANE":" ","ALLEY":" ","HOUSE_NO":"１７０號","E_COORD97":175379.87,"N_COORD97":2545644.96,"ADDRESS":"文賢街１７０號","OBJECTID":610624},"geometry":{"x":175379.87000000197,"y":2545644.9600000009}},{"attributes":{"ID":610652,"DIS_CODE":0,"TOWNNAME":"永康區","LI":"北灣里","LIN":"3鄰","STREET":"文賢街","SECT":" ","MAREA":" ","LANE":" ","ALLEY":" ","HOUSE_NO":"２３１號","E_COORD97":175366.39000000001,"N_COORD97":2545627.4700000002,"ADDRESS":"文賢街２３１號","OBJECTID":610625},"geometry":{"x":175366.3900000006,"y":2545627.4700000007}},{"attributes":{"ID":610653,"DIS_CODE":0,"TOWNNAME":"新市區","LI":"新和里","LIN":"3鄰","STREET":"仁愛街","SECT":" ","MAREA":" ","LANE":" ","ALLEY":" ","HOUSE_NO":"７之２號","E_COORD97":177345.12,"N_COORD97":2551995.2999999998,"ADDRESS":"仁愛街７之２號","OBJECTID":610626},"geometry":{"x":177345.12000000104,"y":2551995.3000000026}},{"attributes":{"ID":610654,"DIS_CODE":0,"TOWNNAME":"新市區","LI":"新和里","LIN":"3鄰","STREET":"仁愛街","SECT":" ","MAREA":" ","LANE":" ","ALLEY":" ","HOUSE_NO":"３５號","E_COORD97":177422.84,"N_COORD97":2552138.2799999998,"ADDRESS":"仁愛街３５號","OBJECTID":610627},"geometry":{"x":177422.84000000078,"y":2552138.2800000031}},{"attributes":{"ID":610655,"DIS_CODE":0,"TOWNNAME":"新市區","LI":"新和里","LIN":"3鄰","STREET":"延平街","SECT":" ","MAREA":" ","LANE":" ","ALLEY":" ","HOUSE_NO":"３７號","E_COORD97":177480.29999999999,"N_COORD97":2552132.0800000001,"ADDRESS":"延平街３７號","OBJECTID":610628},"geometry":{"x":177480.30000000168,"y":2552132.0800000001}},{"attributes":{"ID":610656,"DIS_CODE":0,"TOWNNAME":"新市區","LI":"新和里","LIN":"3鄰","STREET":"仁愛街","SECT":" ","MAREA":" ","LANE":" ","ALLEY":" ","HOUSE_NO":"２４號","E_COORD97":177455.69,"N_COORD97":2552151.0299999998,"ADDRESS":"仁愛街２４號","OBJECTID":610629},"geometry":{"x":177455.69000000041,"y":2552151.0300000012}},{"attributes":{"ID":610657,"DIS_CODE":0,"TOWNNAME":"新市區","LI":"新和里","LIN":"3鄰","STREET":"仁愛街","SECT":" ","MAREA":" ","LANE":" ","ALLEY":" ","HOUSE_NO":"２６號","E_COORD97":177457.14000000001,"N_COORD97":2552155.0299999998,"ADDRESS":"仁愛街２６號","OBJECTID":610630},"geometry":{"x":177457.13999999966,"y":2552155.0300000012}},{"attributes":{"ID":610658,"DIS_CODE":0,"TOWNNAME":"新市區","LI":"新和里","LIN":"3鄰","STREET":"仁愛街","SECT":" ","MAREA":" ","LANE":" ","ALLEY":" ","HOUSE_NO":"１號","E_COORD97":177328.37,"N_COORD97":2551971.5299999998,"ADDRESS":"仁愛街１號","OBJECTID":610631},"geometry":{"x":177328.37000000104,"y":2551971.5300000012}},{"attributes":{"ID":610659,"DIS_CODE":0,"TOWNNAME":"新市區","LI":"新和里","LIN":"3鄰","STREET":"仁愛街","SECT":" ","MAREA":" ","LANE":" ","ALLEY":" ","HOUSE_NO":"１３號","E_COORD97":177389.87,"N_COORD97":2552077.2799999998,"ADDRESS":"仁愛街１３號","OBJECTID":610632},"geometry":{"x":177389.87000000011,"y":2552077.2800000031}},{"attributes":{"ID":610660,"DIS_CODE":0,"TOWNNAME":"新市區","LI":"新和里","LIN":"3鄰","STREET":"仁愛街","SECT":" ","MAREA":" ","LANE":" ","ALLEY":" ","HOUSE_NO":"１６號","E_COORD97":177452.69,"N_COORD97":2552129.2799999998,"ADDRESS":"仁愛街１６號","OBJECTID":610633},"geometry":{"x":177452.69000000041,"y":2552129.2800000012}},{"attributes":{"ID":610661,"DIS_CODE":0,"TOWNNAME":"新市區","LI":"新和里","LIN":"3鄰","STREET":"仁愛街","SECT":" ","MAREA":" ","LANE":" ","ALLEY":" ","HOUSE_NO":"３０號","E_COORD97":177460.75,"N_COORD97":2552163.0299999998,"ADDRESS":"仁愛街３０號","OBJECTID":610634},"geometry":{"x":177460.75000000093,"y":2552163.0299999993}},{"attributes":{"ID":610662,"DIS_CODE":0,"TOWNNAME":"新市區","LI":"新和里","LIN":"3鄰","STREET":"延平街","SECT":" ","MAREA":" ","LANE":" ","ALLEY":" ","HOUSE_NO":"８之３號","E_COORD97":177324.17999999999,"N_COORD97":2552005.5800000001,"ADDRESS":"延平街８之３號","OBJECTID":610635},"geometry":{"x":177324.18000000063,"y":2552005.5800000019}},{"attributes":{"ID":610663,"DIS_CODE":0,"TOWNNAME":"新市區","LI":"新和里","LIN":"3鄰","STREET":"仁愛街","SECT":" ","MAREA":" ","LANE":" ","ALLEY":" ","HOUSE_NO":"２３號","E_COORD97":177414.84,"N_COORD97":2552119.7799999998,"ADDRESS":"仁愛街２３號","OBJECTID":610636},"geometry":{"x":177414.84000000078,"y":2552119.7799999993}},{"attributes":{"ID":610664,"DIS_CODE":0,"TOWNNAME":"新市區","LI":"新和里","LIN":"3鄰","STREET":"延平街","SECT":" ","MAREA":" ","LANE":" ","ALLEY":" ","HOUSE_NO":"１８號","E_COORD97":177403.38,"N_COORD97":2552057.5800000001,"ADDRESS":"延平街１８號","OBJECTID":610637},"geometry":{"x":177403.37999999989,"y":2552057.5800000001}},{"attributes":{"ID":610665,"DIS_CODE":0,"TOWNNAME":"新市區","LI":"新和里","LIN":"3鄰","STREET":"仁愛街","SECT":" ","MAREA":" ","LANE":" ","ALLEY":" ","HOUSE_NO":"３６號","E_COORD97":177466.84,"N_COORD97":2552174.0299999998,"ADDRESS":"仁愛街３６號","OBJECTID":610638},"geometry":{"x":177466.84000000078,"y":2552174.0300000031}},{"attributes":{"ID":610666,"DIS_CODE":0,"TOWNNAME":"新市區","LI":"新和里","LIN":"3鄰","STREET":"仁愛街","SECT":" ","MAREA":" ","LANE":" ","ALLEY":" ","HOUSE_NO":"４２之１號","E_COORD97":177482.31,"N_COORD97":2552192.2999999998,"ADDRESS":"仁愛街４２之１號","OBJECTID":610639},"geometry":{"x":177482.31000000052,"y":2552192.3000000007}},{"attributes":{"ID":610667,"DIS_CODE":0,"TOWNNAME":"新市區","LI":"新和里","LIN":"3鄰","STREET":"仁愛街","SECT":" ","MAREA":" ","LANE":" ","ALLEY":" ","HOUSE_NO":"１９號","E_COORD97":177403.72,"N_COORD97":2552100.0299999998,"ADDRESS":"仁愛街１９號","OBJECTID":610640},"geometry":{"x":177403.71999999974,"y":2552100.0300000012}},{"attributes":{"ID":610668,"DIS_CODE":0,"TOWNNAME":"新市區","LI":"新和里","LIN":"3鄰","STREET":"延平街","SECT":" ","MAREA":" ","LANE":" ","ALLEY":" ","HOUSE_NO":"８之６號","E_COORD97":177340.44,"N_COORD97":2552016.0800000001,"ADDRESS":"延平街８之６號","OBJECTID":610641},"geometry":{"x":177340.44000000041,"y":2552016.0800000019}},{"attributes":{"ID":610669,"DIS_CODE":0,"TOWNNAME":"新市區","LI":"新和里","LIN":"3鄰","STREET":"仁愛街","SECT":" ","MAREA":" ","LANE":" ","ALLEY":" ","HOUSE_NO":"１９之１號","E_COORD97":177409.81,"N_COORD97":2552107.2999999998,"ADDRESS":"仁愛街１９之１號","OBJECTID":610642},"geometry":{"x":177409.80999999959,"y":2552107.3000000026}},{"attributes":{"ID":610670,"DIS_CODE":0,"TOWNNAME":"新市區","LI":"新和里","LIN":"3鄰","STREET":"仁愛街","SECT":" ","MAREA":" ","LANE":" ","ALLEY":" ","HOUSE_NO":"２３之１號","E_COORD97":177419.64000000001,"N_COORD97":2552123.5499999998,"ADDRESS":"仁愛街２３之１號","OBJECTID":610643},"geometry":{"x":177419.63999999966,"y":2552123.5500000007}},{"attributes":{"ID":610671,"DIS_CODE":0,"TOWNNAME":"新市區","LI":"社內里","LIN":"3鄰","STREET":"富強路","SECT":" ","MAREA":" ","LANE":" ","ALLEY":" ","HOUSE_NO":"１８１之３號","E_COORD97":176902.16,"N_COORD97":2551948.73,"ADDRESS":"富強路１８１之３號","OBJECTID":610644},"geometry":{"x":176902.16000000108,"y":2551948.7300000004}},{"attributes":{"ID":610672,"DIS_CODE":0,"TOWNNAME":"東區","LI":"東光里","LIN":"3鄰","STREET":"東興路","SECT":" ","MAREA":" ","LANE":" ","ALLEY":" ","HOUSE_NO":"５２號","E_COORD97":170968.82000000001,"N_COORD97":2543543.8900000001,"ADDRESS":"東興路５２號","OBJECTID":610645},"geometry":{"x":170968.8200000003,"y":2543543.8900000006}},{"attributes":{"ID":610673,"DIS_CODE":0,"TOWNNAME":"東區","LI":"東門里","LIN":"3鄰","STREET":"北門路","SECT":"一段","MAREA":" ","LANE":" ","ALLEY":" ","HOUSE_NO":"３２號","E_COORD97":169175.14999999999,"N_COORD97":2543411.2200000002,"ADDRESS":"北門路一段３２號","OBJECTID":610646},"geometry":{"x":169175.15000000037,"y":2543411.2200000025}},{"attributes":{"ID":610674,"DIS_CODE":0,"TOWNNAME":"東區","LI":"東門里","LIN":"3鄰","STREET":"北門路","SECT":"一段","MAREA":" ","LANE":" ","ALLEY":" ","HOUSE_NO":"３４號","E_COORD97":169176.63,"N_COORD97":2543419.1299999999,"ADDRESS":"北門路一段３４號","OBJECTID":610647},"geometry":{"x":169176.62999999989,"y":2543419.1300000008}},{"attributes":{"ID":610675,"DIS_CODE":0,"TOWNNAME":"東區","LI":"東門里","LIN":"3鄰","STREET":"北門路","SECT":"一段","MAREA":" ","LANE":" ","ALLEY":" ","HOUSE_NO":"３８號","E_COORD97":169176.95999999999,"N_COORD97":2543426.98,"ADDRESS":"北門路一段３８號","OBJECTID":610648},"geometry":{"x":169176.96000000089,"y":2543426.9800000004}},{"attributes":{"ID":610676,"DIS_CODE":0,"TOWNNAME":"東區","LI":"東門里","LIN":"3鄰","STREET":"北門路","SECT":"一段","MAREA":" ","LANE":" ","ALLEY":" ","HOUSE_NO":"４２號","E_COORD97":169177.54000000001,"N_COORD97":2543437.96,"ADDRESS":"北門路一段４２號","OBJECTID":610649},"geometry":{"x":169177.53999999911,"y":2543437.9600000009}},{"attributes":{"ID":610677,"DIS_CODE":0,"TOWNNAME":"東區","LI":"東門里","LIN":"3鄰","STREET":"北門路","SECT":"一段","MAREA":" ","LANE":" ","ALLEY":" ","HOUSE_NO":"５０號","E_COORD97":169178.12,"N_COORD97":2543450.0899999999,"ADDRESS":"北門路一段５０號","OBJECTID":610650},"geometry":{"x":169178.12000000011,"y":2543450.0899999999}},{"attributes":{"ID":610678,"DIS_CODE":0,"TOWNNAME":"東區","LI":"東門里","LIN":"3鄰","STREET":"北門路","SECT":"一段","MAREA":" ","LANE":" ","ALLEY":" ","HOUSE_NO":"５０號地下一層","E_COORD97":169178.12,"N_COORD97":2543450.0899999999,"ADDRESS":"北門路一段５０號地下一層","OBJECTID":610651},"geometry":{"x":169178.12000000011,"y":2543450.0899999999}},{"attributes":{"ID":610679,"DIS_CODE":0,"TOWNNAME":"東區","LI":"東門里","LIN":"3鄰","STREET":"北門路","SECT":"一段","MAREA":" ","LANE":" ","ALLEY":" ","HOUSE_NO":"５２號","E_COORD97":169179.13,"N_COORD97":2543454.3399999999,"ADDRESS":"北門路一段５２號","OBJECTID":610652},"geometry":{"x":169179.13000000082,"y":2543454.3399999999}},{"attributes":{"ID":610680,"DIS_CODE":0,"TOWNNAME":"東區","LI":"東門里","LIN":"3鄰","STREET":"北門路","SECT":"一段","MAREA":" ","LANE":" ","ALLEY":" ","HOUSE_NO":"５４號","E_COORD97":169179.31,"N_COORD97":2543459.54,"ADDRESS":"北門路一段５４號","OBJECTID":610653},"geometry":{"x":169179.31000000052,"y":2543459.5399999991}},{"attributes":{"ID":610681,"DIS_CODE":0,"TOWNNAME":"東區","LI":"東門里","LIN":"3鄰","STREET":"北門路","SECT":"一段","MAREA":" ","LANE":" ","ALLEY":" ","HOUSE_NO":"５６號","E_COORD97":169179.10999999999,"N_COORD97":2543465.7599999998,"ADDRESS":"北門路一段５６號","OBJECTID":610654},"geometry":{"x":169179.1100000022,"y":2543465.7599999998}},{"attributes":{"ID":610682,"DIS_CODE":0,"TOWNNAME":"東區","LI":"東門里","LIN":"3鄰","STREET":"北門路","SECT":"一段","MAREA":" ","LANE":" ","ALLEY":" ","HOUSE_NO":"５８號","E_COORD97":169179.44,"N_COORD97":2543471.5299999998,"ADDRESS":"北門路一段５８號","OBJECTID":610655},"geometry":{"x":169179.44000000134,"y":2543471.5300000012}},{"attributes":{"ID":610683,"DIS_CODE":0,"TOWNNAME":"東區","LI":"東門里","LIN":"3鄰","STREET":"北門路","SECT":"一段","MAREA":" ","LANE":" ","ALLEY":" ","HOUSE_NO":"６０號","E_COORD97":169179.85000000001,"N_COORD97":2543476.2200000002,"ADDRESS":"北門路一段６０號","OBJECTID":610656},"geometry":{"x":169179.84999999963,"y":2543476.2200000007}},{"attributes":{"ID":610684,"DIS_CODE":0,"TOWNNAME":"東區","LI":"東門里","LIN":"3鄰","STREET":"北門路","SECT":"一段","MAREA":" ","LANE":" ","ALLEY":" ","HOUSE_NO":"６２號","E_COORD97":169179.94,"N_COORD97":2543481.1600000001,"ADDRESS":"北門路一段６２號","OBJECTID":610657},"geometry":{"x":169179.94000000041,"y":2543481.160000002}},{"attributes":{"ID":610685,"DIS_CODE":0,"TOWNNAME":"東區","LI":"東門里","LIN":"3鄰","STREET":"北門路","SECT":"一段","MAREA":" ","LANE":" ","ALLEY":" ","HOUSE_NO":"６６號","E_COORD97":169180.51000000001,"N_COORD97":2543486.3300000001,"ADDRESS":"北門路一段６６號","OBJECTID":610658},"geometry":{"x":169180.50999999978,"y":2543486.3300000038}},{"attributes":{"ID":610686,"DIS_CODE":0,"TOWNNAME":"東區","LI":"東門里","LIN":"3鄰","STREET":"北門路","SECT":"一段","MAREA":" ","LANE":" ","ALLEY":" ","HOUSE_NO":"６８號","E_COORD97":169181.04000000001,"N_COORD97":2543492.9300000002,"ADDRESS":"北門路一段６８號","OBJECTID":610659},"geometry":{"x":169181.0400000019,"y":2543492.9300000016}},{"attributes":{"ID":610687,"DIS_CODE":0,"TOWNNAME":"東區","LI":"東門里","LIN":"3鄰","STREET":"北門路","SECT":"一段","MAREA":" ","LANE":" ","ALLEY":" ","HOUSE_NO":"７０號","E_COORD97":169181.64000000001,"N_COORD97":2543498.1400000001,"ADDRESS":"北門路一段７０號","OBJECTID":610660},"geometry":{"x":169181.64000000153,"y":2543498.1400000006}},{"attributes":{"ID":610688,"DIS_CODE":0,"TOWNNAME":"東區","LI":"東門里","LIN":"3鄰","STREET":"北門路","SECT":"一段","MAREA":" ","LANE":" ","ALLEY":" ","HOUSE_NO":"７２號","E_COORD97":169182.34,"N_COORD97":2543504.9199999999,"ADDRESS":"北門路一段７２號","OBJECTID":610661},"geometry":{"x":169182.34000000078,"y":2543504.9199999999}},{"attributes":{"ID":610689,"DIS_CODE":0,"TOWNNAME":"東區","LI":"東門里","LIN":"3鄰","STREET":"北門路","SECT":"一段","MAREA":" ","LANE":" ","ALLEY":" ","HOUSE_NO":"７４號","E_COORD97":169182.26000000001,"N_COORD97":2543512.6899999999,"ADDRESS":"北門路一段７４號","OBJECTID":610662},"geometry":{"x":169182.25999999978,"y":2543512.6899999995}},{"attributes":{"ID":610690,"DIS_CODE":0,"TOWNNAME":"東區","LI":"東門里","LIN":"3鄰","STREET":"北門路","SECT":"一段","MAREA":" ","LANE":" ","ALLEY":" ","HOUSE_NO":"７６號","E_COORD97":169182.95999999999,"N_COORD97":2543522.52,"ADDRESS":"北門路一段７６號","OBJECTID":610663},"geometry":{"x":169182.95999999996,"y":2543522.5200000014}},{"attributes":{"ID":610691,"DIS_CODE":0,"TOWNNAME":"東區","LI":"東門里","LIN":"3鄰","STREET":"北門路","SECT":"一段","MAREA":" ","LANE":" ","ALLEY":" ","HOUSE_NO":"７８號","E_COORD97":169183.73999999999,"N_COORD97":2543531.29,"ADDRESS":"北門路一段７８號","OBJECTID":610664},"geometry":{"x":169183.74000000115,"y":2543531.290000001}},{"attributes":{"ID":610692,"DIS_CODE":0,"TOWNNAME":"東區","LI":"東門里","LIN":"3鄰","STREET":"北門路","SECT":"一段","MAREA":" ","LANE":" ","ALLEY":" ","HOUSE_NO":"８０號","E_COORD97":169184.78,"N_COORD97":2543538.1499999999,"ADDRESS":"北門路一段８０號","OBJECTID":610665},"geometry":{"x":169184.78000000212,"y":2543538.1500000004}},{"attributes":{"ID":610693,"DIS_CODE":0,"TOWNNAME":"東區","LI":"東門里","LIN":"3鄰","STREET":"北門路","SECT":"一段","MAREA":" ","LANE":" ","ALLEY":" ","HOUSE_NO":"８２號","E_COORD97":169184.60999999999,"N_COORD97":2543542.8399999999,"ADDRESS":"北門路一段８２號","OBJECTID":610666},"geometry":{"x":169184.61000000127,"y":2543542.8399999999}},{"attributes":{"ID":610694,"DIS_CODE":0,"TOWNNAME":"東區","LI":"東門里","LIN":"3鄰","STREET":"北門路","SECT":"一段","MAREA":" ","LANE":" ","ALLEY":" ","HOUSE_NO":"８４號","E_COORD97":169184.57000000001,"N_COORD97":2543547.2999999998,"ADDRESS":"北門路一段８４號","OBJECTID":610667},"geometry":{"x":169184.57000000216,"y":2543547.3000000007}},{"attributes":{"ID":610695,"DIS_CODE":0,"TOWNNAME":"東區","LI":"大學里","LIN":"3鄰","STREET":"長榮路","SECT":"三段","MAREA":" ","LANE":" ","ALLEY":" ","HOUSE_NO":"２９０號","E_COORD97":170260.75,"N_COORD97":2544033.5299999998,"ADDRESS":"長榮路三段２９０號","OBJECTID":610668},"geometry":{"x":170260.75,"y":2544033.5300000031}},{"attributes":{"ID":610696,"DIS_CODE":0,"TOWNNAME":"中西區","LI":"協進里","LIN":"3鄰","STREET":"濟生街","SECT":" ","MAREA":" ","LANE":" ","ALLEY":" ","HOUSE_NO":"２６號","E_COORD97":167100.95999999999,"N_COORD97":2544264.5099999998,"ADDRESS":"濟生街２６號","OBJECTID":610669},"geometry":{"x":167100.95999999996,"y":2544264.5099999979}},{"attributes":{"ID":610697,"DIS_CODE":0,"TOWNNAME":"中西區","LI":"民權里","LIN":"3鄰","STREET":"康樂街","SECT":" ","MAREA":" ","LANE":" ","ALLEY":" ","HOUSE_NO":"２６９號","E_COORD97":167529.57000000001,"N_COORD97":2544124.1000000001,"ADDRESS":"康樂街２６９號","OBJECTID":610670},"geometry":{"x":167529.5700000003,"y":2544124.0999999996}},{"attributes":{"ID":610698,"DIS_CODE":0,"TOWNNAME":"中西區","LI":"民權里","LIN":"3鄰","STREET":"康樂街","SECT":" ","MAREA":" ","LANE":" ","ALLEY":" ","HOUSE_NO":"２５０號","E_COORD97":167542.98000000001,"N_COORD97":2544108.7999999998,"ADDRESS":"康樂街２５０號","OBJECTID":610671},"geometry":{"x":167542.98000000138,"y":2544108.8000000026}},{"attributes":{"ID":610699,"DIS_CODE":0,"TOWNNAME":"中西區","LI":"民權里","LIN":"3鄰","STREET":"康樂街","SECT":" ","MAREA":" ","LANE":" ","ALLEY":" ","HOUSE_NO":"２５３號","E_COORD97":167515.95999999999,"N_COORD97":2544087.4500000002,"ADDRESS":"康樂街２５３號","OBJECTID":610672},"geometry":{"x":167515.96000000089,"y":2544087.4499999993}},{"attributes":{"ID":610700,"DIS_CODE":0,"TOWNNAME":"中西區","LI":"民權里","LIN":"3鄰","STREET":"康樂街","SECT":" ","MAREA":" ","LANE":" ","ALLEY":" ","HOUSE_NO":"２５７號","E_COORD97":167516.73000000001,"N_COORD97":2544097.54,"ADDRESS":"康樂街２５７號","OBJECTID":610673},"geometry":{"x":167516.73000000045,"y":2544097.5400000028}},{"attributes":{"ID":610701,"DIS_CODE":0,"TOWNNAME":"中西區","LI":"民權里","LIN":"3鄰","STREET":"康樂街","SECT":" ","MAREA":" ","LANE":" ","ALLEY":" ","HOUSE_NO":"２５９號","E_COORD97":167517.79000000001,"N_COORD97":2544100.5699999998,"ADDRESS":"康樂街２５９號","OBJECTID":610674},"geometry":{"x":167517.79000000004,"y":2544100.5700000003}},{"attributes":{"ID":610702,"DIS_CODE":0,"TOWNNAME":"中西區","LI":"民權里","LIN":"3鄰","STREET":"康樂街","SECT":" ","MAREA":" ","LANE":" ","ALLEY":" ","HOUSE_NO":"２６１號","E_COORD97":167518.5,"N_COORD97":2544104.23,"ADDRESS":"康樂街２６１號","OBJECTID":610675},"geometry":{"x":167518.50000000093,"y":2544104.2300000004}},{"attributes":{"ID":610703,"DIS_CODE":0,"TOWNNAME":"中西區","LI":"民權里","LIN":"3鄰","STREET":"康樂街","SECT":" ","MAREA":" ","LANE":" ","ALLEY":" ","HOUSE_NO":"２６３號","E_COORD97":167520.60999999999,"N_COORD97":2544109.73,"ADDRESS":"康樂街２６３號","OBJECTID":610676},"geometry":{"x":167520.61000000034,"y":2544109.7300000004}},{"attributes":{"ID":610704,"DIS_CODE":0,"TOWNNAME":"中西區","LI":"民權里","LIN":"3鄰","STREET":"民生路","SECT":"二段","MAREA":" ","LANE":" ","ALLEY":" ","HOUSE_NO":"１４６號","E_COORD97":167500.5,"N_COORD97":2544052.5899999999,"ADDRESS":"民生路二段１４６號","OBJECTID":610677},"geometry":{"x":167500.5,"y":2544052.5899999999}},{"attributes":{"ID":610705,"DIS_CODE":0,"TOWNNAME":"中西區","LI":"民權里","LIN":"3鄰","STREET":"民生路","SECT":"二段","MAREA":" ","LANE":" ","ALLEY":" ","HOUSE_NO":"１４８號","E_COORD97":167496.12,"N_COORD97":2544053.0800000001,"ADDRESS":"民生路二段１４８號","OBJECTID":610678},"geometry":{"x":167496.12000000104,"y":2544053.0800000001}},{"attributes":{"ID":610706,"DIS_CODE":0,"TOWNNAME":"中西區","LI":"民權里","LIN":"3鄰","STREET":"民生路","SECT":"二段","MAREA":" ","LANE":" ","ALLEY":" ","HOUSE_NO":"１５０號","E_COORD97":167491.35999999999,"N_COORD97":2544053.7999999998,"ADDRESS":"民生路二段１５０號","OBJECTID":610679},"geometry":{"x":167491.36000000127,"y":2544053.8000000026}},{"attributes":{"ID":610707,"DIS_CODE":0,"TOWNNAME":"中西區","LI":"民權里","LIN":"3鄰","STREET":"民生路","SECT":"二段","MAREA":" ","LANE":" ","ALLEY":" ","HOUSE_NO":"１５２號","E_COORD97":167487.32999999999,"N_COORD97":2544055.98,"ADDRESS":"民生路二段１５２號","OBJECTID":610680},"geometry":{"x":167487.33000000194,"y":2544055.9800000023}},{"attributes":{"ID":610708,"DIS_CODE":0,"TOWNNAME":"中西區","LI":"民權里","LIN":"3鄰","STREET":"民生路","SECT":"二段","MAREA":" ","LANE":" ","ALLEY":" ","HOUSE_NO":"１５４號","E_COORD97":167482.60000000001,"N_COORD97":2544057.3900000001,"ADDRESS":"民生路二段１５４號","OBJECTID":610681},"geometry":{"x":167482.59999999963,"y":2544057.3900000025}},{"attributes":{"ID":610709,"DIS_CODE":0,"TOWNNAME":"中西區","LI":"民權里","LIN":"3鄰","STREET":"民生路","SECT":"二段","MAREA":" ","LANE":" ","ALLEY":" ","HOUSE_NO":"１５６號","E_COORD97":167476.04000000001,"N_COORD97":2544059.7599999998,"ADDRESS":"民生路二段１５６號","OBJECTID":610682},"geometry":{"x":167476.04000000097,"y":2544059.7600000035}},{"attributes":{"ID":610710,"DIS_CODE":0,"TOWNNAME":"中西區","LI":"民權里","LIN":"3鄰","STREET":"民生路","SECT":"二段","MAREA":" ","LANE":" ","ALLEY":" ","HOUSE_NO":"１５８號","E_COORD97":167471.81,"N_COORD97":2544060.46,"ADDRESS":"民生路二段１５８號","OBJECTID":610683},"geometry":{"x":167471.81000000052,"y":2544060.4600000028}},{"attributes":{"ID":610711,"DIS_CODE":0,"TOWNNAME":"中西區","LI":"民權里","LIN":"3鄰","STREET":"民生路","SECT":"二段","MAREA":" ","LANE":" ","ALLEY":" ","HOUSE_NO":"１６０號","E_COORD97":167461,"N_COORD97":2544066.5800000001,"ADDRESS":"民生路二段１６０號","OBJECTID":610684},"geometry":{"x":167461.00000000093,"y":2544066.5800000001}},{"attributes":{"ID":610712,"DIS_CODE":0,"TOWNNAME":"中西區","LI":"民權里","LIN":"3鄰","STREET":"民生路","SECT":"二段","MAREA":" ","LANE":" ","ALLEY":" ","HOUSE_NO":"１６４號","E_COORD97":167450.04000000001,"N_COORD97":2544071.8399999999,"ADDRESS":"民生路二段１６４號","OBJECTID":610685},"geometry":{"x":167450.04000000004,"y":2544071.8399999999}},{"attributes":{"ID":610713,"DIS_CODE":0,"TOWNNAME":"中西區","LI":"民權里","LIN":"3鄰","STREET":"民生路","SECT":"二段","MAREA":" ","LANE":" ","ALLEY":" ","HOUSE_NO":"１６６號","E_COORD97":167440.37,"N_COORD97":2544074.5899999999,"ADDRESS":"民生路二段１６６號","OBJECTID":610686},"geometry":{"x":167440.37000000104,"y":2544074.5900000036}},{"attributes":{"ID":610714,"DIS_CODE":0,"TOWNNAME":"中西區","LI":"民權里","LIN":"3鄰","STREET":"民生路","SECT":"二段","MAREA":" ","LANE":" ","ALLEY":" ","HOUSE_NO":"１６８號","E_COORD97":167432.28,"N_COORD97":2544075.2999999998,"ADDRESS":"民生路二段１６８號","OBJECTID":610687},"geometry":{"x":167432.28000000119,"y":2544075.3000000026}},{"attributes":{"ID":610715,"DIS_CODE":0,"TOWNNAME":"中西區","LI":"民權里","LIN":"3鄰","STREET":"民生路","SECT":"二段","MAREA":" ","LANE":" ","ALLEY":" ","HOUSE_NO":"１７０號","E_COORD97":167427.97,"N_COORD97":2544076.29,"ADDRESS":"民生路二段１７０號","OBJECTID":610688},"geometry":{"x":167427.96999999974,"y":2544076.290000001}},{"attributes":{"ID":610716,"DIS_CODE":0,"TOWNNAME":"中西區","LI":"民權里","LIN":"3鄰","STREET":"民生路","SECT":"二段","MAREA":" ","LANE":" ","ALLEY":" ","HOUSE_NO":"１７２號","E_COORD97":167424.57999999999,"N_COORD97":2544077.2799999998,"ADDRESS":"民生路二段１７２號","OBJECTID":610689},"geometry":{"x":167424.58000000194,"y":2544077.2800000012}},{"attributes":{"ID":610717,"DIS_CODE":0,"TOWNNAME":"中西區","LI":"民權里","LIN":"3鄰","STREET":"民生路","SECT":"二段","MAREA":" ","LANE":" ","ALLEY":" ","HOUSE_NO":"１７４號","E_COORD97":167421.97,"N_COORD97":2544078.7599999998,"ADDRESS":"民生路二段１７４號","OBJECTID":610690},"geometry":{"x":167421.97000000067,"y":2544078.7599999998}},{"attributes":{"ID":610718,"DIS_CODE":0,"TOWNNAME":"中西區","LI":"民權里","LIN":"3鄰","STREET":"民生路","SECT":"二段","MAREA":" ","LANE":" ","ALLEY":" ","HOUSE_NO":"１７６號","E_COORD97":167418.72,"N_COORD97":2544078.8300000001,"ADDRESS":"民生路二段１７６號","OBJECTID":610691},"geometry":{"x":167418.72000000067,"y":2544078.8300000001}},{"attributes":{"ID":610719,"DIS_CODE":0,"TOWNNAME":"中西區","LI":"民權里","LIN":"3鄰","STREET":"民生路","SECT":"二段","MAREA":" ","LANE":" ","ALLEY":" ","HOUSE_NO":"１７８號","E_COORD97":167410.38,"N_COORD97":2544083.1499999999,"ADDRESS":"民生路二段１７８號","OBJECTID":610692},"geometry":{"x":167410.37999999896,"y":2544083.1500000004}},{"attributes":{"ID":610720,"DIS_CODE":0,"TOWNNAME":"中西區","LI":"民權里","LIN":"3鄰","STREET":"民生路","SECT":"二段","MAREA":" ","LANE":" ","ALLEY":" ","HOUSE_NO":"１８２號","E_COORD97":167405.72,"N_COORD97":2544085.6200000001,"ADDRESS":"民生路二段１８２號","OBJECTID":610693},"geometry":{"x":167405.71999999974,"y":2544085.6200000048}},{"attributes":{"ID":610721,"DIS_CODE":0,"TOWNNAME":"中西區","LI":"民權里","LIN":"3鄰","STREET":"民生路","SECT":"二段","MAREA":" ","LANE":" ","ALLEY":" ","HOUSE_NO":"１８４號","E_COORD97":167401.63,"N_COORD97":2544086.6800000002,"ADDRESS":"民生路二段１８４號","OBJECTID":610694},"geometry":{"x":167401.62999999989,"y":2544086.6799999997}},{"attributes":{"ID":610722,"DIS_CODE":0,"TOWNNAME":"中西區","LI":"民權里","LIN":"3鄰","STREET":"民生路","SECT":"二段","MAREA":" ","LANE":" ","ALLEY":" ","HOUSE_NO":"１８６號","E_COORD97":167396.32999999999,"N_COORD97":2544088.1600000001,"ADDRESS":"民生路二段１８６號","OBJECTID":610695},"geometry":{"x":167396.33000000101,"y":2544088.160000002}},{"attributes":{"ID":610723,"DIS_CODE":0,"TOWNNAME":"中西區","LI":"民權里","LIN":"3鄰","STREET":"民生路","SECT":"二段","MAREA":" ","LANE":" ","ALLEY":" ","HOUSE_NO":"１８８號","E_COORD97":167383.56,"N_COORD97":2544090.2000000002,"ADDRESS":"民生路二段１８８號","OBJECTID":610696},"geometry":{"x":167383.56000000145,"y":2544090.2000000011}},{"attributes":{"ID":610724,"DIS_CODE":0,"TOWNNAME":"中西區","LI":"協進里","LIN":"3鄰","STREET":"西寧街","SECT":" ","MAREA":" ","LANE":" ","ALLEY":" ","HOUSE_NO":"１８號","E_COORD97":167146.26999999999,"N_COORD97":2544214.8399999999,"ADDRESS":"西寧街１８號","OBJECTID":610697},"geometry":{"x":167146.26999999955,"y":2544214.839999998}},{"attributes":{"ID":610725,"DIS_CODE":0,"TOWNNAME":"中西區","LI":"協進里","LIN":"3鄰","STREET":"西寧街","SECT":" ","MAREA":" ","LANE":" ","ALLEY":" ","HOUSE_NO":"２０號","E_COORD97":167147.01000000001,"N_COORD97":2544219,"ADDRESS":"西寧街２０號","OBJECTID":610698},"geometry":{"x":167147.01000000071,"y":2544219.0000000019}},{"attributes":{"ID":610726,"DIS_CODE":0,"TOWNNAME":"中西區","LI":"協進里","LIN":"3鄰","STREET":"濟生街","SECT":" ","MAREA":" ","LANE":" ","ALLEY":" ","HOUSE_NO":"３０號","E_COORD97":167084,"N_COORD97":2544274.7999999998,"ADDRESS":"濟生街３０號","OBJECTID":610699},"geometry":{"x":167084,"y":2544274.8000000026}},{"attributes":{"ID":610727,"DIS_CODE":0,"TOWNNAME":"中西區","LI":"協進里","LIN":"3鄰","STREET":"濟生街","SECT":" ","MAREA":" ","LANE":" ","ALLEY":" ","HOUSE_NO":"３號","E_COORD97":167171.45000000001,"N_COORD97":2544235.2200000002,"ADDRESS":"濟生街３號","OBJECTID":610700},"geometry":{"x":167171.45000000112,"y":2544235.2200000025}},{"attributes":{"ID":610728,"DIS_CODE":0,"TOWNNAME":"中西區","LI":"協進里","LIN":"3鄰","STREET":"民權路","SECT":"三段","MAREA":" ","LANE":" ","ALLEY":" ","HOUSE_NO":"２９７號","E_COORD97":167111.81,"N_COORD97":2544275.6600000001,"ADDRESS":"民權路三段２９７號","OBJECTID":610701},"geometry":{"x":167111.80999999959,"y":2544275.660000002}},{"attributes":{"ID":610729,"DIS_CODE":0,"TOWNNAME":"中西區","LI":"協進里","LIN":"3鄰","STREET":"民權路","SECT":"三段","MAREA":" ","LANE":" ","ALLEY":" ","HOUSE_NO":"２９９號","E_COORD97":167107.73000000001,"N_COORD97":2544274.9100000001,"ADDRESS":"民權路三段２９９號","OBJECTID":610702},"geometry":{"x":167107.73000000138,"y":2544274.9100000001}},{"attributes":{"ID":610730,"DIS_CODE":0,"TOWNNAME":"中西區","LI":"協進里","LIN":"3鄰","STREET":"民權路","SECT":"三段","MAREA":" ","LANE":" ","ALLEY":" ","HOUSE_NO":"３０１號","E_COORD97":167104.62,"N_COORD97":2544275.7599999998,"ADDRESS":"民權路三段３０１號","OBJECTID":610703},"geometry":{"x":167104.62000000104,"y":2544275.7599999998}},{"attributes":{"ID":610731,"DIS_CODE":0,"TOWNNAME":"中西區","LI":"協進里","LIN":"3鄰","STREET":"民權路","SECT":"三段","MAREA":" ","LANE":" ","ALLEY":" ","HOUSE_NO":"３０３號","E_COORD97":167101.60999999999,"N_COORD97":2544278.1200000001,"ADDRESS":"民權路三段３０３號","OBJECTID":610704},"geometry":{"x":167101.61000000127,"y":2544278.120000001}},{"attributes":{"ID":610732,"DIS_CODE":0,"TOWNNAME":"中西區","LI":"協進里","LIN":"3鄰","STREET":"民權路","SECT":"三段","MAREA":" ","LANE":" ","ALLEY":" ","HOUSE_NO":"３０５號","E_COORD97":167098.60000000001,"N_COORD97":2544278.98,"ADDRESS":"民權路三段３０５號","OBJECTID":610705},"geometry":{"x":167098.60000000149,"y":2544278.9799999986}},{"attributes":{"ID":610733,"DIS_CODE":0,"TOWNNAME":"中西區","LI":"協進里","LIN":"3鄰","STREET":"西寧街","SECT":" ","MAREA":" ","LANE":" ","ALLEY":" ","HOUSE_NO":"８號","E_COORD97":167175.62,"N_COORD97":2544209.6299999999,"ADDRESS":"西寧街８號","OBJECTID":610706},"geometry":{"x":167175.62000000104,"y":2544209.6300000008}},{"attributes":{"ID":610734,"DIS_CODE":0,"TOWNNAME":"中西區","LI":"協進里","LIN":"3鄰","STREET":"濟生街","SECT":" ","MAREA":" ","LANE":" ","ALLEY":" ","HOUSE_NO":"１０號","E_COORD97":167141.64999999999,"N_COORD97":2544252.1400000001,"ADDRESS":"濟生街１０號","OBJECTID":610707},"geometry":{"x":167141.6500000013,"y":2544252.1400000025}},{"attributes":{"ID":610735,"DIS_CODE":0,"TOWNNAME":"中西區","LI":"協進里","LIN":"3鄰","STREET":"濟生街","SECT":" ","MAREA":" ","LANE":" ","ALLEY":" ","HOUSE_NO":"１０號之１","E_COORD97":167138.07000000001,"N_COORD97":2544252.7400000002,"ADDRESS":"濟生街１０號之１","OBJECTID":610708},"geometry":{"x":167138.0700000003,"y":2544252.7400000002}},{"attributes":{"ID":610736,"DIS_CODE":0,"TOWNNAME":"中西區","LI":"協進里","LIN":"3鄰","STREET":"濟生街","SECT":" ","MAREA":" ","LANE":" ","ALLEY":" ","HOUSE_NO":"１０號之２","E_COORD97":167134.42000000001,"N_COORD97":2544253.98,"ADDRESS":"濟生街１０號之２","OBJECTID":610709},"geometry":{"x":167134.42000000086,"y":2544253.9800000004}},{"attributes":{"ID":610737,"DIS_CODE":0,"TOWNNAME":"中西區","LI":"協進里","LIN":"3鄰","STREET":"濟生街","SECT":" ","MAREA":" ","LANE":" ","ALLEY":" ","HOUSE_NO":"１０號之３","E_COORD97":167131.28,"N_COORD97":2544254.7999999998,"ADDRESS":"濟生街１０號之３","OBJECTID":610710},"geometry":{"x":167131.28000000026,"y":2544254.8000000026}},{"attributes":{"ID":610738,"DIS_CODE":0,"TOWNNAME":"中西區","LI":"協進里","LIN":"3鄰","STREET":"濟生街","SECT":" ","MAREA":" ","LANE":" ","ALLEY":" ","HOUSE_NO":"１２號","E_COORD97":167127.89000000001,"N_COORD97":2544255.6099999999,"ADDRESS":"濟生街１２號","OBJECTID":610711},"geometry":{"x":167127.8900000006,"y":2544255.6099999994}},{"attributes":{"ID":610739,"DIS_CODE":0,"TOWNNAME":"中西區","LI":"協進里","LIN":"3鄰","STREET":"濟生街","SECT":" ","MAREA":" ","LANE":" ","ALLEY":" ","HOUSE_NO":"１４號","E_COORD97":167124.42000000001,"N_COORD97":2544256.9100000001,"ADDRESS":"濟生街１４號","OBJECTID":610712},"geometry":{"x":167124.42000000086,"y":2544256.910000002}},{"attributes":{"ID":610740,"DIS_CODE":0,"TOWNNAME":"中西區","LI":"協進里","LIN":"3鄰","STREET":"濟生街","SECT":" ","MAREA":" ","LANE":" ","ALLEY":" ","HOUSE_NO":"１６號","E_COORD97":167120.73000000001,"N_COORD97":2544257.6099999999,"ADDRESS":"濟生街１６號","OBJECTID":610713},"geometry":{"x":167120.73000000138,"y":2544257.6100000013}},{"attributes":{"ID":610741,"DIS_CODE":0,"TOWNNAME":"中西區","LI":"協進里","LIN":"3鄰","STREET":"濟生街","SECT":" ","MAREA":" ","LANE":" ","ALLEY":" ","HOUSE_NO":"１８號","E_COORD97":167117.17999999999,"N_COORD97":2544258.5,"ADDRESS":"濟生街１８號","OBJECTID":610714},"geometry":{"x":167117.18000000063,"y":2544258.5000000019}},{"attributes":{"ID":610742,"DIS_CODE":0,"TOWNNAME":"中西區","LI":"協進里","LIN":"3鄰","STREET":"濟生街","SECT":" ","MAREA":" ","LANE":" ","ALLEY":" ","HOUSE_NO":"１號","E_COORD97":167177.70999999999,"N_COORD97":2544225.5499999998,"ADDRESS":"濟生街１號","OBJECTID":610715},"geometry":{"x":167177.71000000183,"y":2544225.5500000026}},{"attributes":{"ID":610743,"DIS_CODE":0,"TOWNNAME":"中西區","LI":"協進里","LIN":"3鄰","STREET":"濟生街","SECT":" ","MAREA":" ","LANE":" ","ALLEY":" ","HOUSE_NO":"２０號","E_COORD97":167113.95000000001,"N_COORD97":2544259.2200000002,"ADDRESS":"濟生街２０號","OBJECTID":610716},"geometry":{"x":167113.95000000112,"y":2544259.2200000007}},{"attributes":{"ID":610744,"DIS_CODE":0,"TOWNNAME":"中西區","LI":"協進里","LIN":"3鄰","STREET":"濟生街","SECT":" ","MAREA":" ","LANE":" ","ALLEY":" ","HOUSE_NO":"２２號","E_COORD97":167108.04999999999,"N_COORD97":2544262.04,"ADDRESS":"濟生街２２號","OBJECTID":610717},"geometry":{"x":167108.05000000075,"y":2544262.040000001}},{"attributes":{"ID":610745,"DIS_CODE":0,"TOWNNAME":"中西區","LI":"協進里","LIN":"3鄰","STREET":"濟生街","SECT":" ","MAREA":" ","LANE":" ","ALLEY":" ","HOUSE_NO":"２４號","E_COORD97":167104.39999999999,"N_COORD97":2544263.3300000001,"ADDRESS":"濟生街２４號","OBJECTID":610718},"geometry":{"x":167104.4000000013,"y":2544263.3300000019}},{"attributes":{"ID":610746,"DIS_CODE":0,"TOWNNAME":"中西區","LI":"協進里","LIN":"3鄰","STREET":"濟生街","SECT":" ","MAREA":" ","LANE":" ","ALLEY":" ","HOUSE_NO":"２８號之１","E_COORD97":167093.98999999999,"N_COORD97":2544267.3999999999,"ADDRESS":"濟生街２８號之１","OBJECTID":610719},"geometry":{"x":167093.99000000022,"y":2544267.4000000022}},{"attributes":{"ID":610747,"DIS_CODE":0,"TOWNNAME":"中西區","LI":"協進里","LIN":"3鄰","STREET":"濟生街","SECT":" ","MAREA":" ","LANE":" ","ALLEY":" ","HOUSE_NO":"２８號之２","E_COORD97":167090.12,"N_COORD97":2544268.1499999999,"ADDRESS":"濟生街２８號之２","OBJECTID":610720},"geometry":{"x":167090.12000000011,"y":2544268.1500000022}},{"attributes":{"ID":610748,"DIS_CODE":0,"TOWNNAME":"中西區","LI":"協進里","LIN":"3鄰","STREET":"濟生街","SECT":" ","MAREA":" ","LANE":" ","ALLEY":" ","HOUSE_NO":"２號","E_COORD97":167163.25,"N_COORD97":2544246.9300000002,"ADDRESS":"濟生街２號","OBJECTID":610721},"geometry":{"x":167163.25,"y":2544246.9299999997}},{"attributes":{"ID":610749,"DIS_CODE":0,"TOWNNAME":"中西區","LI":"協進里","LIN":"3鄰","STREET":"濟生街","SECT":" ","MAREA":" ","LANE":" ","ALLEY":" ","HOUSE_NO":"２號之１","E_COORD97":167166.67999999999,"N_COORD97":2544244.96,"ADDRESS":"濟生街２號之１","OBJECTID":610722},"geometry":{"x":167166.68000000063,"y":2544244.9600000009}},{"attributes":{"ID":610750,"DIS_CODE":0,"TOWNNAME":"中西區","LI":"協進里","LIN":"3鄰","STREET":"濟生街","SECT":" ","MAREA":" ","LANE":" ","ALLEY":" ","HOUSE_NO":"４號","E_COORD97":167159.82999999999,"N_COORD97":2544248.7200000002,"ADDRESS":"濟生街４號","OBJECTID":610723},"geometry":{"x":167159.83000000007,"y":2544248.7200000025}},{"attributes":{"ID":610751,"DIS_CODE":0,"TOWNNAME":"中西區","LI":"協進里","LIN":"3鄰","STREET":"濟生街","SECT":" ","MAREA":" ","LANE":" ","ALLEY":" ","HOUSE_NO":"６號","E_COORD97":167155.79999999999,"N_COORD97":2544249.46,"ADDRESS":"濟生街６號","OBJECTID":610724},"geometry":{"x":167155.80000000075,"y":2544249.4600000046}},{"attributes":{"ID":610752,"DIS_CODE":0,"TOWNNAME":"中西區","LI":"協進里","LIN":"3鄰","STREET":"濟生街","SECT":" ","MAREA":" ","LANE":" ","ALLEY":" ","HOUSE_NO":"８號之１","E_COORD97":167148.20000000001,"N_COORD97":2544251.1000000001,"ADDRESS":"濟生街８號之１","OBJECTID":610725},"geometry":{"x":167148.20000000112,"y":2544251.1000000015}},{"attributes":{"ID":610753,"DIS_CODE":0,"TOWNNAME":"中西區","LI":"協進里","LIN":"3鄰","STREET":"濟生街","SECT":" ","MAREA":" ","LANE":" ","ALLEY":" ","HOUSE_NO":"９號","E_COORD97":167154.45999999999,"N_COORD97":2544232.8399999999,"ADDRESS":"濟生街９號","OBJECTID":610726},"geometry":{"x":167154.46000000089,"y":2544232.8400000017}},{"attributes":{"ID":610754,"DIS_CODE":0,"TOWNNAME":"永康區","LI":"正強里","LIN":"3鄰","STREET":"永正路","SECT":" ","MAREA":" ","LANE":" ","ALLEY":" ","HOUSE_NO":"１０３號","E_COORD97":173494.12,"N_COORD97":2547572.6200000001,"ADDRESS":"永正路１０３號","OBJECTID":610727},"geometry":{"x":173494.12000000011,"y":2547572.620000001}},{"attributes":{"ID":610755,"DIS_CODE":0,"TOWNNAME":"永康區","LI":"三民里","LIN":"3鄰","STREET":"三民街","SECT":" ","MAREA":" ","LANE":" ","ALLEY":" ","HOUSE_NO":"７２號","E_COORD97":172932.45999999999,"N_COORD97":2550255.5299999998,"ADDRESS":"三民街７２號","OBJECTID":610728},"geometry":{"x":172932.45999999996,"y":2550255.5300000012}},{"attributes":{"ID":610756,"DIS_CODE":0,"TOWNNAME":"永康區","LI":"新樹里","LIN":"3鄰","STREET":"中山北路","SECT":" ","MAREA":" ","LANE":" ","ALLEY":" ","HOUSE_NO":"５７２號","E_COORD97":175655.82999999999,"N_COORD97":2547779.02,"ADDRESS":"中山北路５７２號","OBJECTID":610729},"geometry":{"x":175655.83000000007,"y":2547779.0199999996}},{"attributes":{"ID":610757,"DIS_CODE":0,"TOWNNAME":"永康區","LI":"龍潭里","LIN":"3鄰","STREET":"龍國街","SECT":" ","MAREA":" ","LANE":" ","ALLEY":" ","HOUSE_NO":"２３９之１號","E_COORD97":174513.38,"N_COORD97":2548057.7999999998,"ADDRESS":"龍國街２３９之１號","OBJECTID":610730},"geometry":{"x":174513.38000000175,"y":2548057.8000000045}},{"attributes":{"ID":610758,"DIS_CODE":0,"TOWNNAME":"永康區","LI":"龍潭里","LIN":"3鄰","STREET":"龍國街","SECT":" ","MAREA":" ","LANE":" ","ALLEY":" ","HOUSE_NO":"２３９之２號","E_COORD97":174518.39000000001,"N_COORD97":2548050.54,"ADDRESS":"龍國街２３９之２號","OBJECTID":610731},"geometry":{"x":174518.3900000006,"y":2548050.5399999972}},{"attributes":{"ID":610759,"DIS_CODE":0,"TOWNNAME":"佳里區","LI":"鎮山里","LIN":"3鄰","STREET":"中山路","SECT":" ","MAREA":" ","LANE":" ","ALLEY":" ","HOUSE_NO":"３４號","E_COORD97":165844.25,"N_COORD97":2561665.9500000002,"ADDRESS":"中山路３４號","OBJECTID":610732},"geometry":{"x":165844.25000000093,"y":2561665.9499999993}},{"attributes":{"ID":610760,"DIS_CODE":0,"TOWNNAME":"永康區","LI":"尚頂里","LIN":"3鄰","STREET":"中正二街","SECT":" ","MAREA":" ","LANE":" ","ALLEY":" ","HOUSE_NO":"１８８號","E_COORD97":171460.62,"N_COORD97":2547742.5299999998,"ADDRESS":"中正二街１８８號","OBJECTID":610733},"geometry":{"x":171460.62000000197,"y":2547742.5300000031}},{"attributes":{"ID":610761,"DIS_CODE":0,"TOWNNAME":"佳里區","LI":"鎮山里","LIN":"3鄰","STREET":"中山路","SECT":" ","MAREA":" ","LANE":" ","ALLEY":" ","HOUSE_NO":"１８號","E_COORD97":165851.79000000001,"N_COORD97":2561627.79,"ADDRESS":"中山路１８號","OBJECTID":610734},"geometry":{"x":165851.7900000019,"y":2561627.7900000028}},{"attributes":{"ID":610762,"DIS_CODE":0,"TOWNNAME":"佳里區","LI":"忠仁里","LIN":"3鄰","STREET":"中山路","SECT":" ","MAREA":" ","LANE":" ","ALLEY":" ","HOUSE_NO":"２０４號","E_COORD97":165746.70000000001,"N_COORD97":2562175.8900000001,"ADDRESS":"中山路２０４號","OBJECTID":610735},"geometry":{"x":165746.70000000019,"y":2562175.8900000025}},{"attributes":{"ID":610763,"DIS_CODE":0,"TOWNNAME":"佳里區","LI":"忠仁里","LIN":"3鄰","STREET":"中山路","SECT":" ","MAREA":" ","LANE":" ","ALLEY":" ","HOUSE_NO":"２０８號","E_COORD97":165746.17999999999,"N_COORD97":2562181.3599999999,"ADDRESS":"中山路２０８號","OBJECTID":610736},"geometry":{"x":165746.1799999997,"y":2562181.3600000013}},{"attributes":{"ID":610764,"DIS_CODE":0,"TOWNNAME":"佳里區","LI":"鎮山里","LIN":"3鄰","STREET":"中山路","SECT":" ","MAREA":" ","LANE":" ","ALLEY":" ","HOUSE_NO":"２０號","E_COORD97":165850.85999999999,"N_COORD97":2561632.1600000001,"ADDRESS":"中山路２０號","OBJECTID":610737},"geometry":{"x":165850.86000000034,"y":2561632.1600000001}},{"attributes":{"ID":610765,"DIS_CODE":0,"TOWNNAME":"佳里區","LI":"忠仁里","LIN":"3鄰","STREET":"中山路","SECT":" ","MAREA":" ","LANE":" ","ALLEY":" ","HOUSE_NO":"２１０號","E_COORD97":165745.42999999999,"N_COORD97":2562185.6800000002,"ADDRESS":"中山路２１０號","OBJECTID":610738},"geometry":{"x":165745.43000000063,"y":2562185.6800000016}},{"attributes":{"ID":610766,"DIS_CODE":0,"TOWNNAME":"佳里區","LI":"忠仁里","LIN":"3鄰","STREET":"中山路","SECT":" ","MAREA":" ","LANE":" ","ALLEY":" ","HOUSE_NO":"２１２號","E_COORD97":165744.59,"N_COORD97":2562190.23,"ADDRESS":"中山路２１２號","OBJECTID":610739},"geometry":{"x":165744.59000000078,"y":2562190.2300000023}},{"attributes":{"ID":610767,"DIS_CODE":0,"TOWNNAME":"佳里區","LI":"忠仁里","LIN":"3鄰","STREET":"中山路","SECT":" ","MAREA":" ","LANE":" ","ALLEY":" ","HOUSE_NO":"２１４號","E_COORD97":165744.07000000001,"N_COORD97":2562194.2799999998,"ADDRESS":"中山路２１４號","OBJECTID":610740},"geometry":{"x":165744.07000000123,"y":2562194.2800000031}},{"attributes":{"ID":610768,"DIS_CODE":0,"TOWNNAME":"佳里區","LI":"忠仁里","LIN":"3鄰","STREET":"中山路","SECT":" ","MAREA":" ","LANE":" ","ALLEY":" ","HOUSE_NO":"２１６號","E_COORD97":165743.44,"N_COORD97":2562198.5499999998,"ADDRESS":"中山路２１６號","OBJECTID":610741},"geometry":{"x":165743.44000000041,"y":2562198.5500000026}},{"attributes":{"ID":610769,"DIS_CODE":0,"TOWNNAME":"佳里區","LI":"忠仁里","LIN":"3鄰","STREET":"中山路","SECT":" ","MAREA":" ","LANE":" ","ALLEY":" ","HOUSE_NO":"２１８號","E_COORD97":165742.92000000001,"N_COORD97":2562201.9399999999,"ADDRESS":"中山路２１８號","OBJECTID":610742},"geometry":{"x":165742.92000000086,"y":2562201.9399999995}},{"attributes":{"ID":610770,"DIS_CODE":0,"TOWNNAME":"佳里區","LI":"忠仁里","LIN":"3鄰","STREET":"中山路","SECT":" ","MAREA":" ","LANE":" ","ALLEY":" ","HOUSE_NO":"２２０號","E_COORD97":165742.12,"N_COORD97":2562205.6699999999,"ADDRESS":"中山路２２０號","OBJECTID":610743},"geometry":{"x":165742.12000000011,"y":2562205.6700000037}},{"attributes":{"ID":610771,"DIS_CODE":0,"TOWNNAME":"佳里區","LI":"忠仁里","LIN":"3鄰","STREET":"中山路","SECT":" ","MAREA":" ","LANE":" ","ALLEY":" ","HOUSE_NO":"２２２號","E_COORD97":165741.14999999999,"N_COORD97":2562210.48,"ADDRESS":"中山路２２２號","OBJECTID":610744},"geometry":{"x":165741.15000000224,"y":2562210.4800000004}},{"attributes":{"ID":610772,"DIS_CODE":0,"TOWNNAME":"佳里區","LI":"忠仁里","LIN":"3鄰","STREET":"中山路","SECT":" ","MAREA":" ","LANE":" ","ALLEY":" ","HOUSE_NO":"２２６號","E_COORD97":165740.44,"N_COORD97":2562215.4100000001,"ADDRESS":"中山路２２６號","OBJECTID":610745},"geometry":{"x":165740.44000000041,"y":2562215.410000002}},{"attributes":{"ID":610773,"DIS_CODE":0,"TOWNNAME":"佳里區","LI":"忠仁里","LIN":"3鄰","STREET":"中山路","SECT":" ","MAREA":" ","LANE":" ","ALLEY":" ","HOUSE_NO":"２２８號","E_COORD97":165737.17999999999,"N_COORD97":2562218.6800000002,"ADDRESS":"中山路２２８號","OBJECTID":610746},"geometry":{"x":165737.18000000063,"y":2562218.6799999978}},{"attributes":{"ID":610774,"DIS_CODE":0,"TOWNNAME":"佳里區","LI":"鎮山里","LIN":"3鄰","STREET":"中山路","SECT":" ","MAREA":" ","LANE":" ","ALLEY":" ","HOUSE_NO":"２２號","E_COORD97":165850.04999999999,"N_COORD97":2561635.8300000001,"ADDRESS":"中山路２２號","OBJECTID":610747},"geometry":{"x":165850.05000000075,"y":2561635.8300000019}},{"attributes":{"ID":610775,"DIS_CODE":0,"TOWNNAME":"佳里區","LI":"忠仁里","LIN":"3鄰","STREET":"中山路","SECT":" ","MAREA":" ","LANE":" ","ALLEY":" ","HOUSE_NO":"２３０號","E_COORD97":165736.48999999999,"N_COORD97":2562222.23,"ADDRESS":"中山路２３０號","OBJECTID":610748},"geometry":{"x":165736.49000000022,"y":2562222.2300000004}},{"attributes":{"ID":610776,"DIS_CODE":0,"TOWNNAME":"佳里區","LI":"忠仁里","LIN":"3鄰","STREET":"中山路","SECT":" ","MAREA":" ","LANE":" ","ALLEY":" ","HOUSE_NO":"２３２號","E_COORD97":165736.03,"N_COORD97":2562225.8999999999,"ADDRESS":"中山路２３２號","OBJECTID":610749},"geometry":{"x":165736.03000000026,"y":2562225.9000000022}},{"attributes":{"ID":610777,"DIS_CODE":0,"TOWNNAME":"佳里區","LI":"忠仁里","LIN":"3鄰","STREET":"中山路","SECT":" ","MAREA":" ","LANE":" ","ALLEY":" ","HOUSE_NO":"２３４號","E_COORD97":165735.38,"N_COORD97":2562229.48,"ADDRESS":"中山路２３４號","OBJECTID":610750},"geometry":{"x":165735.37999999989,"y":2562229.4800000023}},{"attributes":{"ID":610778,"DIS_CODE":0,"TOWNNAME":"佳里區","LI":"忠仁里","LIN":"3鄰","STREET":"中山路","SECT":" ","MAREA":" ","LANE":" ","ALLEY":" ","HOUSE_NO":"２３６號","E_COORD97":165734.51000000001,"N_COORD97":2562233.6299999999,"ADDRESS":"中山路２３６號","OBJECTID":610751},"geometry":{"x":165734.50999999885,"y":2562233.6300000008}},{"attributes":{"ID":610779,"DIS_CODE":0,"TOWNNAME":"佳里區","LI":"忠仁里","LIN":"3鄰","STREET":"中山路","SECT":" ","MAREA":" ","LANE":" ","ALLEY":" ","HOUSE_NO":"２３８號","E_COORD97":165733.95000000001,"N_COORD97":2562236.8599999999,"ADDRESS":"中山路２３８號","OBJECTID":610752},"geometry":{"x":165733.95000000112,"y":2562236.8599999994}},{"attributes":{"ID":610780,"DIS_CODE":0,"TOWNNAME":"佳里區","LI":"忠仁里","LIN":"3鄰","STREET":"中山路","SECT":" ","MAREA":" ","LANE":" ","ALLEY":" ","HOUSE_NO":"２４０號","E_COORD97":165733.29999999999,"N_COORD97":2562240.6400000001,"ADDRESS":"中山路２４０號","OBJECTID":610753},"geometry":{"x":165733.30000000075,"y":2562240.6400000043}},{"attributes":{"ID":610781,"DIS_CODE":0,"TOWNNAME":"佳里區","LI":"鎮山里","LIN":"3鄰","STREET":"中山路","SECT":" ","MAREA":" ","LANE":" ","ALLEY":" ","HOUSE_NO":"２４號","E_COORD97":165849.34,"N_COORD97":2561640.25,"ADDRESS":"中山路２４號","OBJECTID":610754},"geometry":{"x":165849.33999999892,"y":2561640.2500000019}},{"attributes":{"ID":610782,"DIS_CODE":0,"TOWNNAME":"佳里區","LI":"鎮山里","LIN":"3鄰","STREET":"中山路","SECT":" ","MAREA":" ","LANE":" ","ALLEY":" ","HOUSE_NO":"２６號","E_COORD97":165848.28,"N_COORD97":2561644.2200000002,"ADDRESS":"中山路２６號","OBJECTID":610755},"geometry":{"x":165848.28000000026,"y":2561644.2200000025}},{"attributes":{"ID":610783,"DIS_CODE":0,"TOWNNAME":"佳里區","LI":"鎮山里","LIN":"3鄰","STREET":"中山路","SECT":" ","MAREA":" ","LANE":" ","ALLEY":" ","HOUSE_NO":"３２號之１","E_COORD97":165845.12,"N_COORD97":2561660.9700000002,"ADDRESS":"中山路３２號之１","OBJECTID":610756},"geometry":{"x":165845.12000000104,"y":2561660.9700000007}},{"attributes":{"ID":610784,"DIS_CODE":0,"TOWNNAME":"佳里區","LI":"鎮山里","LIN":"3鄰","STREET":"中山路","SECT":" ","MAREA":" ","LANE":" ","ALLEY":" ","HOUSE_NO":"３２號","E_COORD97":165846.70000000001,"N_COORD97":2561652.8300000001,"ADDRESS":"中山路３２號","OBJECTID":610757},"geometry":{"x":165846.70000000019,"y":2561652.8300000019}},{"attributes":{"ID":610785,"DIS_CODE":0,"TOWNNAME":"佳里區","LI":"鎮山里","LIN":"3鄰","STREET":"中山路","SECT":" ","MAREA":" ","LANE":" ","ALLEY":" ","HOUSE_NO":"３８號","E_COORD97":165842.20999999999,"N_COORD97":2561679.0699999998,"ADDRESS":"中山路３８號","OBJECTID":610758},"geometry":{"x":165842.21000000089,"y":2561679.0700000022}},{"attributes":{"ID":610786,"DIS_CODE":0,"TOWNNAME":"佳里區","LI":"鎮山里","LIN":"3鄰","STREET":"中山路","SECT":" ","MAREA":" ","LANE":" ","ALLEY":" ","HOUSE_NO":"４２號","E_COORD97":165836.92999999999,"N_COORD97":2561691.7400000002,"ADDRESS":"中山路４２號","OBJECTID":610759},"geometry":{"x":165836.93000000156,"y":2561691.7400000021}},{"attributes":{"ID":610787,"DIS_CODE":0,"TOWNNAME":"佳里區","LI":"鎮山里","LIN":"3鄰","STREET":"中山路","SECT":" ","MAREA":" ","LANE":" ","ALLEY":" ","HOUSE_NO":"４６號","E_COORD97":165836.12,"N_COORD97":2561696.9500000002,"ADDRESS":"中山路４６號","OBJECTID":610760},"geometry":{"x":165836.12000000104,"y":2561696.9499999993}},{"attributes":{"ID":610788,"DIS_CODE":0,"TOWNNAME":"佳里區","LI":"鎮山里","LIN":"3鄰","STREET":"中山路","SECT":" ","MAREA":" ","LANE":" ","ALLEY":" ","HOUSE_NO":"４８號","E_COORD97":165834.79000000001,"N_COORD97":2561701.1000000001,"ADDRESS":"中山路４８號","OBJECTID":610761},"geometry":{"x":165834.7900000019,"y":2561701.1000000015}},{"attributes":{"ID":610789,"DIS_CODE":0,"TOWNNAME":"佳里區","LI":"鎮山里","LIN":"3鄰","STREET":"中山路","SECT":" ","MAREA":" ","LANE":" ","ALLEY":" ","HOUSE_NO":"５０號","E_COORD97":165834.54000000001,"N_COORD97":2561705.3700000001,"ADDRESS":"中山路５０號","OBJECTID":610762},"geometry":{"x":165834.54000000004,"y":2561705.370000001}},{"attributes":{"ID":610790,"DIS_CODE":0,"TOWNNAME":"佳里區","LI":"鎮山里","LIN":"3鄰","STREET":"中山路","SECT":" ","MAREA":" ","LANE":" ","ALLEY":" ","HOUSE_NO":"５２號","E_COORD97":165846.89000000001,"N_COORD97":2561713.3700000001,"ADDRESS":"中山路５２號","OBJECTID":610763},"geometry":{"x":165846.88999999966,"y":2561713.370000001}},{"attributes":{"ID":610791,"DIS_CODE":0,"TOWNNAME":"佳里區","LI":"建南里","LIN":"3鄰","STREET":"中和街","SECT":" ","MAREA":" ","LANE":" ","ALLEY":" ","HOUSE_NO":"６２號","E_COORD97":165604.17999999999,"N_COORD97":2562284.5699999998,"ADDRESS":"中和街６２號","OBJECTID":610764},"geometry":{"x":165604.1799999997,"y":2562284.570000004}},{"attributes":{"ID":610792,"DIS_CODE":0,"TOWNNAME":"佳里區","LI":"建南里","LIN":"3鄰","STREET":"中和街","SECT":" ","MAREA":" ","LANE":" ","ALLEY":" ","HOUSE_NO":"６４號","E_COORD97":165602.85999999999,"N_COORD97":2562288.9199999999,"ADDRESS":"中和街６４號","OBJECTID":610765},"geometry":{"x":165602.86000000127,"y":2562288.9200000037}},{"attributes":{"ID":610793,"DIS_CODE":0,"TOWNNAME":"佳里區","LI":"建南里","LIN":"3鄰","STREET":"中和街","SECT":" ","MAREA":" ","LANE":" ","ALLEY":" ","HOUSE_NO":"６６號","E_COORD97":165603.59,"N_COORD97":2562298.3599999999,"ADDRESS":"中和街６６號","OBJECTID":610766},"geometry":{"x":165603.59000000171,"y":2562298.3599999994}},{"attributes":{"ID":610794,"DIS_CODE":0,"TOWNNAME":"佳里區","LI":"建南里","LIN":"3鄰","STREET":"中和街","SECT":" ","MAREA":" ","LANE":" ","ALLEY":" ","HOUSE_NO":"７２號","E_COORD97":165602.85999999999,"N_COORD97":2562307.1400000001,"ADDRESS":"中和街７２號","OBJECTID":610767},"geometry":{"x":165602.86000000127,"y":2562307.1400000006}},{"attributes":{"ID":610795,"DIS_CODE":0,"TOWNNAME":"佳里區","LI":"建南里","LIN":"3鄰","STREET":"中和街","SECT":" ","MAREA":" ","LANE":" ","ALLEY":" ","HOUSE_NO":"７４號","E_COORD97":165602.70999999999,"N_COORD97":2562311.3700000001,"ADDRESS":"中和街７４號","OBJECTID":610768},"geometry":{"x":165602.70999999996,"y":2562311.3700000029}},{"attributes":{"ID":610796,"DIS_CODE":0,"TOWNNAME":"佳里區","LI":"建南里","LIN":"3鄰","STREET":"中和街","SECT":" ","MAREA":" ","LANE":" ","ALLEY":" ","HOUSE_NO":"７６號","E_COORD97":165602.54999999999,"N_COORD97":2562315.5899999999,"ADDRESS":"中和街７６號","OBJECTID":610769},"geometry":{"x":165602.55000000075,"y":2562315.5900000017}},{"attributes":{"ID":610797,"DIS_CODE":0,"TOWNNAME":"佳里區","LI":"建南里","LIN":"3鄰","STREET":"中和街","SECT":" ","MAREA":" ","LANE":" ","ALLEY":" ","HOUSE_NO":"７８號","E_COORD97":165602.39999999999,"N_COORD97":2562319.8199999998,"ADDRESS":"中和街７８號","OBJECTID":610770},"geometry":{"x":165602.4000000013,"y":2562319.8200000003}},{"attributes":{"ID":610798,"DIS_CODE":0,"TOWNNAME":"佳里區","LI":"建南里","LIN":"3鄰","STREET":"中和街","SECT":" ","MAREA":" ","LANE":" ","ALLEY":" ","HOUSE_NO":"８０號","E_COORD97":165602.23999999999,"N_COORD97":2562324.0499999998,"ADDRESS":"中和街８０號","OBJECTID":610771},"geometry":{"x":165602.24000000022,"y":2562324.0500000026}},{"attributes":{"ID":610799,"DIS_CODE":0,"TOWNNAME":"佳里區","LI":"建南里","LIN":"3鄰","STREET":"中和街","SECT":" ","MAREA":" ","LANE":" ","ALLEY":" ","HOUSE_NO":"８２號","E_COORD97":165602.09,"N_COORD97":2562328.27,"ADDRESS":"中和街８２號","OBJECTID":610772},"geometry":{"x":165602.09000000078,"y":2562328.2700000014}},{"attributes":{"ID":610800,"DIS_CODE":0,"TOWNNAME":"佳里區","LI":"建南里","LIN":"3鄰","STREET":"中和街","SECT":" ","MAREA":" ","LANE":" ","ALLEY":" ","HOUSE_NO":"８４號","E_COORD97":165601.92999999999,"N_COORD97":2562332.5,"ADDRESS":"中和街８４號","OBJECTID":610773},"geometry":{"x":165601.93000000063,"y":2562332.5000000037}},{"attributes":{"ID":610801,"DIS_CODE":0,"TOWNNAME":"佳里區","LI":"建南里","LIN":"3鄰","STREET":"中和街","SECT":" ","MAREA":" ","LANE":" ","ALLEY":" ","HOUSE_NO":"８６號","E_COORD97":165601.78,"N_COORD97":2562336.73,"ADDRESS":"中和街８６號","OBJECTID":610774},"geometry":{"x":165601.78000000119,"y":2562336.7300000004}},{"attributes":{"ID":610802,"DIS_CODE":0,"TOWNNAME":"佳里區","LI":"建南里","LIN":"3鄰","STREET":"中和街","SECT":" ","MAREA":" ","LANE":" ","ALLEY":" ","HOUSE_NO":"８８號","E_COORD97":165601.62,"N_COORD97":2562340.9500000002,"ADDRESS":"中和街８８號","OBJECTID":610775},"geometry":{"x":165601.62000000011,"y":2562340.9499999993}},{"attributes":{"ID":610803,"DIS_CODE":0,"TOWNNAME":"新化區","LI":"唪口里","LIN":"3鄰","STREET":"大德路","SECT":" ","MAREA":" ","LANE":" ","ALLEY":" ","HOUSE_NO":"８２號之９","E_COORD97":178241.72,"N_COORD97":2549462.2599999998,"ADDRESS":"大德路８２號之９","OBJECTID":610776},"geometry":{"x":178241.71999999974,"y":2549462.2599999998}},{"attributes":{"ID":610804,"DIS_CODE":0,"TOWNNAME":"新化區","LI":"東榮里","LIN":"3鄰","STREET":"中興路","SECT":" ","MAREA":" ","LANE":" ","ALLEY":" ","HOUSE_NO":"１２號之２","E_COORD97":181990.31,"N_COORD97":2547360.2599999998,"ADDRESS":"中興路１２號之２","OBJECTID":610777},"geometry":{"x":181990.30999999959,"y":2547360.2599999998}},{"attributes":{"ID":610805,"DIS_CODE":0,"TOWNNAME":"新化區","LI":"太平里","LIN":"3鄰","STREET":"中正路","SECT":" ","MAREA":" ","LANE":" ","ALLEY":" ","HOUSE_NO":"５１６號之２","E_COORD97":179001.76000000001,"N_COORD97":2548766.2599999998,"ADDRESS":"中正路５１６號之２","OBJECTID":610778},"geometry":{"x":179001.76000000071,"y":2548766.2600000016}},{"attributes":{"ID":610806,"DIS_CODE":0,"TOWNNAME":"新化區","LI":"清水里","LIN":"3鄰","STREET":"民治路","SECT":" ","MAREA":" ","LANE":" ","ALLEY":" ","HOUSE_NO":"１５１號","E_COORD97":178654.10999999999,"N_COORD97":2548371.25,"ADDRESS":"民治路１５１號","OBJECTID":610779},"geometry":{"x":178654.11000000127,"y":2548371.25}},{"attributes":{"ID":610807,"DIS_CODE":0,"TOWNNAME":"新化區","LI":"清水里","LIN":"3鄰","STREET":"中山路","SECT":" ","MAREA":" ","LANE":" ","ALLEY":" ","HOUSE_NO":"４６９號之１","E_COORD97":178629.54000000001,"N_COORD97":2548388.2599999998,"ADDRESS":"中山路４６９號之１","OBJECTID":610780},"geometry":{"x":178629.54000000004,"y":2548388.2599999998}},{"attributes":{"ID":610808,"DIS_CODE":0,"TOWNNAME":"新化區","LI":"太平里","LIN":"3鄰","STREET":"中正路","SECT":" ","MAREA":" ","LANE":" ","ALLEY":" ","HOUSE_NO":"５２４號","E_COORD97":178980.01000000001,"N_COORD97":2548792.25,"ADDRESS":"中正路５２４號","OBJECTID":610781},"geometry":{"x":178980.00999999978,"y":2548792.25}},{"attributes":{"ID":610809,"DIS_CODE":0,"TOWNNAME":"新化區","LI":"清水里","LIN":"3鄰","STREET":"中山路","SECT":" ","MAREA":" ","LANE":" ","ALLEY":" ","HOUSE_NO":"４６９號之３","E_COORD97":178630.76000000001,"N_COORD97":2548379.2599999998,"ADDRESS":"中山路４６９號之３","OBJECTID":610782},"geometry":{"x":178630.76000000071,"y":2548379.2600000016}},{"attributes":{"ID":610810,"DIS_CODE":0,"TOWNNAME":"新化區","LI":"協興里","LIN":"3鄰","STREET":"忠孝路","SECT":" ","MAREA":" ","LANE":" ","ALLEY":" ","HOUSE_NO":"２５１號","E_COORD97":178457.72,"N_COORD97":2548572.25,"ADDRESS":"忠孝路２５１號","OBJECTID":610783},"geometry":{"x":178457.72000000067,"y":2548572.2499999981}},{"attributes":{"ID":610811,"DIS_CODE":0,"TOWNNAME":"新化區","LI":"協興里","LIN":"3鄰","STREET":"忠孝路","SECT":" ","MAREA":" ","LANE":" ","ALLEY":" ","HOUSE_NO":"１９３號","E_COORD97":178538.42000000001,"N_COORD97":2548597.25,"ADDRESS":"忠孝路１９３號","OBJECTID":610784},"geometry":{"x":178538.41999999993,"y":2548597.2500000019}},{"attributes":{"ID":610812,"DIS_CODE":0,"TOWNNAME":"新化區","LI":"竹林里","LIN":"3鄰","STREET":"中山路","SECT":" ","MAREA":" ","LANE":" ","ALLEY":" ","HOUSE_NO":"３９４號","E_COORD97":178808.10999999999,"N_COORD97":2548420.25,"ADDRESS":"中山路３９４號","OBJECTID":610785},"geometry":{"x":178808.11000000127,"y":2548420.2500000019}},{"attributes":{"ID":610813,"DIS_CODE":0,"TOWNNAME":"新化區","LI":"豐榮里","LIN":"3鄰","STREET":"大智路","SECT":" ","MAREA":" ","LANE":" ","ALLEY":" ","HOUSE_NO":"１４７號","E_COORD97":178105.53,"N_COORD97":2548143.25,"ADDRESS":"大智路１４７號","OBJECTID":610786},"geometry":{"x":178105.53000000119,"y":2548143.2500000019}},{"attributes":{"ID":610814,"DIS_CODE":0,"TOWNNAME":"新化區","LI":"清水里","LIN":"3鄰","STREET":"中山路","SECT":" ","MAREA":" ","LANE":" ","ALLEY":" ","HOUSE_NO":"４７３號","E_COORD97":178619.41,"N_COORD97":2548400.25,"ADDRESS":"中山路４７３號","OBJECTID":610787},"geometry":{"x":178619.41000000108,"y":2548400.2500000019}},{"attributes":{"ID":610815,"DIS_CODE":0,"TOWNNAME":"新化區","LI":"協興里","LIN":"3鄰","STREET":"正新路","SECT":" ","MAREA":" ","LANE":" ","ALLEY":" ","HOUSE_NO":"２６７號","E_COORD97":178558.72,"N_COORD97":2548564.25,"ADDRESS":"正新路２６７號","OBJECTID":610788},"geometry":{"x":178558.71999999974,"y":2548564.25}},{"attributes":{"ID":610816,"DIS_CODE":0,"TOWNNAME":"新化區","LI":"清水里","LIN":"3鄰","STREET":"正新路","SECT":" ","MAREA":" ","LANE":" ","ALLEY":" ","HOUSE_NO":"１８８號","E_COORD97":178569.32000000001,"N_COORD97":2548354.25,"ADDRESS":"正新路１８８號","OBJECTID":610789},"geometry":{"x":178569.32000000123,"y":2548354.25}},{"attributes":{"ID":610817,"DIS_CODE":0,"TOWNNAME":"新化區","LI":"護國里","LIN":"3鄰","STREET":"建國街","SECT":" ","MAREA":" ","LANE":" ","ALLEY":" ","HOUSE_NO":"１７號之１","E_COORD97":179210.60999999999,"N_COORD97":2548552.2599999998,"ADDRESS":"建國街１７號之１","OBJECTID":610790},"geometry":{"x":179210.61000000034,"y":2548552.2600000016}},{"attributes":{"ID":610818,"DIS_CODE":0,"TOWNNAME":"新化區","LI":"武安里","LIN":"3鄰","STREET":"正新南路","SECT":" ","MAREA":" ","LANE":" ","ALLEY":" ","HOUSE_NO":"６號","E_COORD97":179131.37,"N_COORD97":2548052.25,"ADDRESS":"正新南路６號","OBJECTID":610791},"geometry":{"x":179131.37000000197,"y":2548052.25}},{"attributes":{"ID":610819,"DIS_CODE":0,"TOWNNAME":"永康區","LI":"北灣里","LIN":"3鄰","STREET":"信義街","SECT":" ","MAREA":" ","LANE":" ","ALLEY":" ","HOUSE_NO":"１號","E_COORD97":175639.32000000001,"N_COORD97":2545675.6600000001,"ADDRESS":"信義街１號","OBJECTID":610792},"geometry":{"x":175639.3200000003,"y":2545675.660000002}},{"attributes":{"ID":610820,"DIS_CODE":0,"TOWNNAME":"永康區","LI":"北灣里","LIN":"3鄰","STREET":"文賢街","SECT":" ","MAREA":" ","LANE":" ","ALLEY":" ","HOUSE_NO":"１４２號","E_COORD97":175387.82999999999,"N_COORD97":2545585.0299999998,"ADDRESS":"文賢街１４２號","OBJECTID":610793},"geometry":{"x":175387.83000000007,"y":2545585.0299999993}},{"attributes":{"ID":610821,"DIS_CODE":0,"TOWNNAME":"永康區","LI":"甲頂里","LIN":"3鄰","STREET":"中正南路","SECT":" ","MAREA":" ","LANE":" ","ALLEY":" ","HOUSE_NO":"１２４號","E_COORD97":169680.23999999999,"N_COORD97":2546926.8999999999,"ADDRESS":"中正南路１２４號","OBJECTID":610794},"geometry":{"x":169680.24000000115,"y":2546926.9000000004}},{"attributes":{"ID":610822,"DIS_CODE":0,"TOWNNAME":"永康區","LI":"北灣里","LIN":"3鄰","STREET":"文賢街","SECT":" ","MAREA":" ","LANE":" ","ALLEY":" ","HOUSE_NO":"１５８號","E_COORD97":175381.62,"N_COORD97":2545622.4700000002,"ADDRESS":"文賢街１５８號","OBJECTID":610795},"geometry":{"x":175381.62000000197,"y":2545622.4700000025}},{"attributes":{"ID":610823,"DIS_CODE":0,"TOWNNAME":"永康區","LI":"大橋里","LIN":"3鄰","STREET":"大橋二街","SECT":" ","MAREA":" ","LANE":" ","ALLEY":" ","HOUSE_NO":"８９號","E_COORD97":170794.31,"N_COORD97":2546586.0600000001,"ADDRESS":"大橋二街８９號","OBJECTID":610796},"geometry":{"x":170794.31000000145,"y":2546586.0600000005}},{"attributes":{"ID":610824,"DIS_CODE":0,"TOWNNAME":"永康區","LI":"北灣里","LIN":"3鄰","STREET":"信義街","SECT":" ","MAREA":" ","LANE":" ","ALLEY":" ","HOUSE_NO":"８７號之５","E_COORD97":175295.60000000001,"N_COORD97":2545624.9900000002,"ADDRESS":"信義街８７號之５","OBJECTID":610797},"geometry":{"x":175295.59999999963,"y":2545624.9900000039}},{"attributes":{"ID":610825,"DIS_CODE":0,"TOWNNAME":"永康區","LI":"大橋里","LIN":"3鄰","STREET":"大橋二街","SECT":" ","MAREA":" ","LANE":" ","ALLEY":" ","HOUSE_NO":"８５號","E_COORD97":170787.76999999999,"N_COORD97":2546579.8100000001,"ADDRESS":"大橋二街８５號","OBJECTID":610798},"geometry":{"x":170787.77000000142,"y":2546579.8100000024}},{"attributes":{"ID":610826,"DIS_CODE":0,"TOWNNAME":"永康區","LI":"大橋里","LIN":"3鄰","STREET":"大橋二街","SECT":" ","MAREA":" ","LANE":" ","ALLEY":" ","HOUSE_NO":"９９號","E_COORD97":170811.91,"N_COORD97":2546602.8100000001,"ADDRESS":"大橋二街９９號","OBJECTID":610799},"geometry":{"x":170811.91000000108,"y":2546602.8100000042}},{"attributes":{"ID":610827,"DIS_CODE":0,"TOWNNAME":"東區","LI":"大同里","LIN":"3鄰","STREET":"府東街","SECT":" ","MAREA":" ","LANE":" ","ALLEY":" ","HOUSE_NO":"２６０號","E_COORD97":169274.38,"N_COORD97":2543136.5499999998,"ADDRESS":"府東街２６０號","OBJECTID":610800},"geometry":{"x":169274.37999999989,"y":2543136.5500000045}}]}