{"displayFieldName":"TOWNNAME","fieldAliases":{"ID":"ID","DIS_CODE":"DIS_CODE","TOWNNAME":"TOWNNAME","LI":"LI","LIN":"LIN","STREET":"STREET","SECT":"SECT","MAREA":"MAREA","LANE":"LANE","ALLEY":"ALLEY","HOUSE_NO":"HOUSE_NO","E_COORD97":"E_COORD97","N_COORD97":"N_COORD97","ADDRESS":"ADDRESS","OBJECTID":"OBJECTID"},"geometryType":"esriGeometryPoint","spatialReference":{"wkid":102443,"latestWkid":3826},"fields":[{"name":"ID","type":"esriFieldTypeDouble","alias":"ID"},{"name":"DIS_CODE","type":"esriFieldTypeInteger","alias":"DIS_CODE"},{"name":"TOWNNAME","type":"esriFieldTypeString","alias":"TOWNNAME","length":8},{"name":"LI","type":"esriFieldTypeString","alias":"LI","length":8},{"name":"LIN","type":"esriFieldTypeString","alias":"LIN","length":12},{"name":"STREET","type":"esriFieldTypeString","alias":"STREET","length":20},{"name":"SECT","type":"esriFieldTypeString","alias":"SECT","length":8},{"name":"MAREA","type":"esriFieldTypeString","alias":"MAREA","length":12},{"name":"LANE","type":"esriFieldTypeString","alias":"LANE","length":10},{"name":"ALLEY","type":"esriFieldTypeString","alias":"ALLEY","length":10},{"name":"HOUSE_NO","type":"esriFieldTypeString","alias":"HOUSE_NO","length":20},{"name":"E_COORD97","type":"esriFieldTypeDouble","alias":"E_COORD97"},{"name":"N_COORD97","type":"esriFieldTypeDouble","alias":"N_COORD97"},{"name":"ADDRESS","type":"esriFieldTypeString","alias":"ADDRESS","length":50},{"name":"OBJECTID","type":"esriFieldTypeOID","alias":"OBJECTID"}],"features":[{"attributes":{"ID":344610,"DIS_CODE":0,"TOWNNAME":"永康區","LI":"二王里","LIN":"31鄰","STREET":"中山南路","SECT":" ","MAREA":" ","LANE":"５１０巷","ALLEY":" ","HOUSE_NO":"２４號","E_COORD97":172155.23999999999,"N_COORD97":2546435.3799999999,"ADDRESS":"中山南路５１０巷２４號","OBJECTID":344601},"geometry":{"x":172155.24000000115,"y":2546435.3800000008}},{"attributes":{"ID":344611,"DIS_CODE":0,"TOWNNAME":"永康區","LI":"崑山里","LIN":"31鄰","STREET":"崑山街","SECT":" ","MAREA":" ","LANE":"９６巷","ALLEY":" ","HOUSE_NO":"３１號","E_COORD97":174063.78,"N_COORD97":2544726.7200000002,"ADDRESS":"崑山街９６巷３１號","OBJECTID":344602},"geometry":{"x":174063.78000000119,"y":2544726.7200000025}},{"attributes":{"ID":344612,"DIS_CODE":0,"TOWNNAME":"永康區","LI":"復國里","LIN":"31鄰","STREET":"復國一路","SECT":" ","MAREA":" ","LANE":"１４１巷","ALLEY":" ","HOUSE_NO":"１２號","E_COORD97":172675.32000000001,"N_COORD97":2545147.0099999998,"ADDRESS":"復國一路１４１巷１２號","OBJECTID":344603},"geometry":{"x":172675.32000000123,"y":2545147.0100000016}},{"attributes":{"ID":344613,"DIS_CODE":0,"TOWNNAME":"新市區","LI":"新和里","LIN":"31鄰","STREET":"光華街","SECT":" ","MAREA":" ","LANE":"２３４巷","ALLEY":" ","HOUSE_NO":"４號","E_COORD97":177854.17999999999,"N_COORD97":2553057.5,"ADDRESS":"光華街２３４巷４號","OBJECTID":344604},"geometry":{"x":177854.18000000063,"y":2553057.5000000019}},{"attributes":{"ID":344614,"DIS_CODE":0,"TOWNNAME":"新市區","LI":"新和里","LIN":"31鄰","STREET":"光華街","SECT":" ","MAREA":" ","LANE":"２３４巷","ALLEY":" ","HOUSE_NO":"６號","E_COORD97":177859.57000000001,"N_COORD97":2553059,"ADDRESS":"光華街２３４巷６號","OBJECTID":344605},"geometry":{"x":177859.57000000123,"y":2553059}},{"attributes":{"ID":344615,"DIS_CODE":0,"TOWNNAME":"新市區","LI":"新和里","LIN":"31鄰","STREET":"光華街","SECT":" ","MAREA":" ","LANE":"２３４巷","ALLEY":" ","HOUSE_NO":"１２號","E_COORD97":177878.62,"N_COORD97":2553056.5,"ADDRESS":"光華街２３４巷１２號","OBJECTID":344606},"geometry":{"x":177878.62000000197,"y":2553056.5000000019}},{"attributes":{"ID":344616,"DIS_CODE":0,"TOWNNAME":"新市區","LI":"新和里","LIN":"31鄰","STREET":"光華街","SECT":" ","MAREA":" ","LANE":"２３４巷","ALLEY":" ","HOUSE_NO":"２２號","E_COORD97":177908.37,"N_COORD97":2553055.75,"ADDRESS":"光華街２３４巷２２號","OBJECTID":344607},"geometry":{"x":177908.37000000011,"y":2553055.7500000019}},{"attributes":{"ID":344617,"DIS_CODE":0,"TOWNNAME":"新市區","LI":"新和里","LIN":"31鄰","STREET":"光華街","SECT":" ","MAREA":" ","LANE":"２３４巷","ALLEY":" ","HOUSE_NO":"２號","E_COORD97":177847.82000000001,"N_COORD97":2553057.25,"ADDRESS":"光華街２３４巷２號","OBJECTID":344608},"geometry":{"x":177847.8200000003,"y":2553057.25}},{"attributes":{"ID":344618,"DIS_CODE":0,"TOWNNAME":"佳里區","LI":"安西里","LIN":"31鄰","STREET":"安西路","SECT":" ","MAREA":" ","LANE":"３１１巷","ALLEY":" ","HOUSE_NO":"７號","E_COORD97":165163.38,"N_COORD97":2562963.9199999999,"ADDRESS":"安西路３１１巷７號","OBJECTID":344609},"geometry":{"x":165163.38000000082,"y":2562963.9200000018}},{"attributes":{"ID":344619,"DIS_CODE":0,"TOWNNAME":"永康區","LI":"北灣里","LIN":"31鄰","STREET":"大灣六街","SECT":" ","MAREA":" ","LANE":"８０巷","ALLEY":" ","HOUSE_NO":"５７號","E_COORD97":175226,"N_COORD97":2545319.27,"ADDRESS":"大灣六街８０巷５７號","OBJECTID":344610},"geometry":{"x":175226,"y":2545319.2699999996}},{"attributes":{"ID":344620,"DIS_CODE":0,"TOWNNAME":"永康區","LI":"北灣里","LIN":"31鄰","STREET":"大灣六街","SECT":" ","MAREA":" ","LANE":"８０巷","ALLEY":" ","HOUSE_NO":"５５號","E_COORD97":175222.31,"N_COORD97":2545319.27,"ADDRESS":"大灣六街８０巷５５號","OBJECTID":344611},"geometry":{"x":175222.31000000052,"y":2545319.2699999996}},{"attributes":{"ID":344621,"DIS_CODE":0,"TOWNNAME":"永康區","LI":"北灣里","LIN":"31鄰","STREET":"大灣六街","SECT":" ","MAREA":" ","LANE":"８０巷","ALLEY":" ","HOUSE_NO":"５１號","E_COORD97":175214.14999999999,"N_COORD97":2545319.27,"ADDRESS":"大灣六街８０巷５１號","OBJECTID":344612},"geometry":{"x":175214.1500000013,"y":2545319.2699999996}},{"attributes":{"ID":344622,"DIS_CODE":0,"TOWNNAME":"中西區","LI":"五妃里","LIN":"8鄰","STREET":"南寧街","SECT":" ","MAREA":" ","LANE":" ","ALLEY":" ","HOUSE_NO":"１５號四樓之２","E_COORD97":168517.39000000001,"N_COORD97":2542774.6200000001,"ADDRESS":"南寧街１５號四樓之２","OBJECTID":344613},"geometry":{"x":168517.3900000006,"y":2542774.6200000029}},{"attributes":{"ID":344623,"DIS_CODE":0,"TOWNNAME":"善化區","LI":"北關里","LIN":"8鄰","STREET":"裕民街","SECT":" ","MAREA":" ","LANE":" ","ALLEY":" ","HOUSE_NO":"１２９號","E_COORD97":177327.37,"N_COORD97":2559328.6899999999,"ADDRESS":"裕民街１２９號","OBJECTID":344614},"geometry":{"x":177327.37000000011,"y":2559328.6899999995}},{"attributes":{"ID":344624,"DIS_CODE":0,"TOWNNAME":"南區","LI":"再興里","LIN":"5鄰","STREET":"新城街","SECT":" ","MAREA":" ","LANE":"７１巷","ALLEY":" ","HOUSE_NO":"３號","E_COORD97":167147.25,"N_COORD97":2542342.6000000001,"ADDRESS":"新城街７１巷３號","OBJECTID":344615},"geometry":{"x":167147.25000000093,"y":2542342.6000000015}},{"attributes":{"ID":344625,"DIS_CODE":0,"TOWNNAME":"南區","LI":"再興里","LIN":"5鄰","STREET":"新城街","SECT":" ","MAREA":" ","LANE":"７１巷","ALLEY":" ","HOUSE_NO":"４號","E_COORD97":167144.16,"N_COORD97":2542351.1000000001,"ADDRESS":"新城街７１巷４號","OBJECTID":344616},"geometry":{"x":167144.16000000015,"y":2542351.0999999996}},{"attributes":{"ID":344626,"DIS_CODE":0,"TOWNNAME":"南區","LI":"再興里","LIN":"5鄰","STREET":"新城街","SECT":" ","MAREA":" ","LANE":"７１巷","ALLEY":" ","HOUSE_NO":"５號","E_COORD97":167142.84,"N_COORD97":2542342.2999999998,"ADDRESS":"新城街７１巷５號","OBJECTID":344617},"geometry":{"x":167142.84000000171,"y":2542342.3000000026}},{"attributes":{"ID":344627,"DIS_CODE":0,"TOWNNAME":"南區","LI":"再興里","LIN":"5鄰","STREET":"新城街","SECT":" ","MAREA":" ","LANE":"７１巷","ALLEY":" ","HOUSE_NO":"６號","E_COORD97":167139.89999999999,"N_COORD97":2542351.3999999999,"ADDRESS":"新城街７１巷６號","OBJECTID":344618},"geometry":{"x":167139.9000000013,"y":2542351.4000000022}},{"attributes":{"ID":344628,"DIS_CODE":0,"TOWNNAME":"永康區","LI":"北灣里","LIN":"31鄰","STREET":"大灣六街","SECT":" ","MAREA":" ","LANE":"８０巷","ALLEY":" ","HOUSE_NO":"５９號","E_COORD97":175229.54000000001,"N_COORD97":2545319.27,"ADDRESS":"大灣六街８０巷５９號","OBJECTID":344619},"geometry":{"x":175229.5400000019,"y":2545319.2699999996}},{"attributes":{"ID":344629,"DIS_CODE":0,"TOWNNAME":"新市區","LI":"新和里","LIN":"31鄰","STREET":"光華街","SECT":" ","MAREA":" ","LANE":"２３４巷","ALLEY":" ","HOUSE_NO":"１５號","E_COORD97":177885.17000000001,"N_COORD97":2553064.5,"ADDRESS":"光華街２３４巷１５號","OBJECTID":344620},"geometry":{"x":177885.17000000086,"y":2553064.5000000019}},{"attributes":{"ID":344630,"DIS_CODE":0,"TOWNNAME":"新市區","LI":"新和里","LIN":"31鄰","STREET":"光華街","SECT":" ","MAREA":" ","LANE":"２３４巷","ALLEY":" ","HOUSE_NO":"２３號","E_COORD97":177908.45999999999,"N_COORD97":2553064,"ADDRESS":"光華街２３４巷２３號","OBJECTID":344621},"geometry":{"x":177908.46000000089,"y":2553064.0000000019}},{"attributes":{"ID":344631,"DIS_CODE":0,"TOWNNAME":"新市區","LI":"新和里","LIN":"31鄰","STREET":"光華街","SECT":" ","MAREA":" ","LANE":"２３４巷","ALLEY":" ","HOUSE_NO":"１３號","E_COORD97":177879.32000000001,"N_COORD97":2553064.75,"ADDRESS":"光華街２３４巷１３號","OBJECTID":344622},"geometry":{"x":177879.32000000123,"y":2553064.7500000037}},{"attributes":{"ID":344632,"DIS_CODE":0,"TOWNNAME":"新市區","LI":"新和里","LIN":"31鄰","STREET":"光華街","SECT":" ","MAREA":" ","LANE":"２３４巷","ALLEY":" ","HOUSE_NO":"２４號","E_COORD97":177913.82000000001,"N_COORD97":2553055.75,"ADDRESS":"光華街２３４巷２４號","OBJECTID":344623},"geometry":{"x":177913.82000000123,"y":2553055.7500000019}},{"attributes":{"ID":344633,"DIS_CODE":0,"TOWNNAME":"新市區","LI":"新和里","LIN":"31鄰","STREET":"光華街","SECT":" ","MAREA":" ","LANE":"２３４巷","ALLEY":" ","HOUSE_NO":"２０號","E_COORD97":177902.82000000001,"N_COORD97":2553056,"ADDRESS":"光華街２３４巷２０號","OBJECTID":344624},"geometry":{"x":177902.82000000216,"y":2553055.9999999981}},{"attributes":{"ID":344634,"DIS_CODE":0,"TOWNNAME":"東區","LI":"大智里","LIN":"31鄰","STREET":"德東街","SECT":" ","MAREA":" ","LANE":"１８９巷","ALLEY":" ","HOUSE_NO":"５１號","E_COORD97":171281.53,"N_COORD97":2540327.3900000001,"ADDRESS":"德東街１８９巷５１號","OBJECTID":344625},"geometry":{"x":171281.53000000026,"y":2540327.3900000025}},{"attributes":{"ID":344635,"DIS_CODE":0,"TOWNNAME":"中西區","LI":"五妃里","LIN":"8鄰","STREET":"南寧街","SECT":" ","MAREA":" ","LANE":" ","ALLEY":" ","HOUSE_NO":"１５號四樓之３","E_COORD97":168517.39000000001,"N_COORD97":2542774.6200000001,"ADDRESS":"南寧街１５號四樓之３","OBJECTID":344626},"geometry":{"x":168517.3900000006,"y":2542774.6200000029}},{"attributes":{"ID":344636,"DIS_CODE":0,"TOWNNAME":"中西區","LI":"仙草里","LIN":"8鄰","STREET":"永福路","SECT":"一段","MAREA":" ","LANE":" ","ALLEY":" ","HOUSE_NO":"９９號三樓","E_COORD97":167982.37,"N_COORD97":2542734.1699999999,"ADDRESS":"永福路一段９９號三樓","OBJECTID":344627},"geometry":{"x":167982.37000000104,"y":2542734.1699999999}},{"attributes":{"ID":344637,"DIS_CODE":0,"TOWNNAME":"中西區","LI":"五妃里","LIN":"8鄰","STREET":"南寧街","SECT":" ","MAREA":" ","LANE":" ","ALLEY":" ","HOUSE_NO":"２５號之１三樓","E_COORD97":168482.45999999999,"N_COORD97":2542746.8700000001,"ADDRESS":"南寧街２５號之１三樓","OBJECTID":344628},"geometry":{"x":168482.45999999996,"y":2542746.870000001}},{"attributes":{"ID":344638,"DIS_CODE":0,"TOWNNAME":"中西區","LI":"五妃里","LIN":"8鄰","STREET":"南寧街","SECT":" ","MAREA":" ","LANE":" ","ALLEY":" ","HOUSE_NO":"２５號一樓","E_COORD97":168480.92000000001,"N_COORD97":2542739.48,"ADDRESS":"南寧街２５號一樓","OBJECTID":344629},"geometry":{"x":168480.91999999993,"y":2542739.4800000004}},{"attributes":{"ID":344639,"DIS_CODE":0,"TOWNNAME":"南區","LI":"同安里","LIN":"5鄰","STREET":"灣裡路","SECT":" ","MAREA":" ","LANE":"３６９巷","ALLEY":" ","HOUSE_NO":"７號","E_COORD97":166243.37,"N_COORD97":2536156.4500000002,"ADDRESS":"灣裡路３６９巷７號","OBJECTID":344630},"geometry":{"x":166243.37000000104,"y":2536156.4499999993}},{"attributes":{"ID":344640,"DIS_CODE":0,"TOWNNAME":"南區","LI":"同安里","LIN":"5鄰","STREET":"灣裡路","SECT":" ","MAREA":" ","LANE":"３６９巷","ALLEY":" ","HOUSE_NO":"９號","E_COORD97":166254.42999999999,"N_COORD97":2536137.46,"ADDRESS":"灣裡路３６９巷９號","OBJECTID":344631},"geometry":{"x":166254.43000000063,"y":2536137.4600000028}},{"attributes":{"ID":344641,"DIS_CODE":0,"TOWNNAME":"南區","LI":"同安里","LIN":"5鄰","STREET":"灣裡路","SECT":" ","MAREA":" ","LANE":"３６９巷","ALLEY":" ","HOUSE_NO":"１１號","E_COORD97":166262.04000000001,"N_COORD97":2536134.71,"ADDRESS":"灣裡路３６９巷１１號","OBJECTID":344632},"geometry":{"x":166262.0400000019,"y":2536134.7100000028}},{"attributes":{"ID":344642,"DIS_CODE":0,"TOWNNAME":"南區","LI":"同安里","LIN":"5鄰","STREET":"灣裡路","SECT":" ","MAREA":" ","LANE":"３６９巷","ALLEY":" ","HOUSE_NO":"１３號","E_COORD97":166270.70000000001,"N_COORD97":2536134.71,"ADDRESS":"灣裡路３６９巷１３號","OBJECTID":344633},"geometry":{"x":166270.70000000019,"y":2536134.7100000028}},{"attributes":{"ID":344643,"DIS_CODE":0,"TOWNNAME":"南區","LI":"松安里","LIN":"5鄰","STREET":"灣裡路","SECT":" ","MAREA":" ","LANE":"３７２巷","ALLEY":" ","HOUSE_NO":"１２號","E_COORD97":166117.67000000001,"N_COORD97":2536217.1299999999,"ADDRESS":"灣裡路３７２巷１２號","OBJECTID":344634},"geometry":{"x":166117.66999999993,"y":2536217.129999999}},{"attributes":{"ID":344644,"DIS_CODE":0,"TOWNNAME":"南區","LI":"竹溪里","LIN":"5鄰","STREET":"健康路","SECT":"一段","MAREA":" ","LANE":"１３３巷","ALLEY":" ","HOUSE_NO":"３６號","E_COORD97":168868.78,"N_COORD97":2542283.9300000002,"ADDRESS":"健康路一段１３３巷３６號","OBJECTID":344635},"geometry":{"x":168868.78000000026,"y":2542283.9299999997}},{"attributes":{"ID":344645,"DIS_CODE":0,"TOWNNAME":"南區","LI":"竹溪里","LIN":"5鄰","STREET":"健康路","SECT":"一段","MAREA":" ","LANE":"１３３巷","ALLEY":" ","HOUSE_NO":"３８號","E_COORD97":168868.35999999999,"N_COORD97":2542276.02,"ADDRESS":"健康路一段１３３巷３８號","OBJECTID":344636},"geometry":{"x":168868.36000000034,"y":2542276.0199999996}},{"attributes":{"ID":344646,"DIS_CODE":0,"TOWNNAME":"南區","LI":"竹溪里","LIN":"5鄰","STREET":"體育路","SECT":" ","MAREA":" ","LANE":"４１巷","ALLEY":" ","HOUSE_NO":"３１號","E_COORD97":168860.47,"N_COORD97":2542259.75,"ADDRESS":"體育路４１巷３１號","OBJECTID":344637},"geometry":{"x":168860.46999999974,"y":2542259.7500000037}},{"attributes":{"ID":344647,"DIS_CODE":0,"TOWNNAME":"南區","LI":"佛壇里","LIN":"5鄰","STREET":"興南街","SECT":" ","MAREA":" ","LANE":"１２４巷","ALLEY":" ","HOUSE_NO":"１９號","E_COORD97":166092.98000000001,"N_COORD97":2535973.8999999999,"ADDRESS":"興南街１２４巷１９號","OBJECTID":344638},"geometry":{"x":166092.98000000045,"y":2535973.9000000022}},{"attributes":{"ID":344648,"DIS_CODE":0,"TOWNNAME":"南區","LI":"佛壇里","LIN":"5鄰","STREET":"灣裡路","SECT":" ","MAREA":" ","LANE":"２８２巷","ALLEY":" ","HOUSE_NO":"１０７號","E_COORD97":166040.98000000001,"N_COORD97":2536008.1299999999,"ADDRESS":"灣裡路２８２巷１０７號","OBJECTID":344639},"geometry":{"x":166040.98000000138,"y":2536008.1300000008}},{"attributes":{"ID":344649,"DIS_CODE":0,"TOWNNAME":"南區","LI":"佛壇里","LIN":"5鄰","STREET":"灣裡路","SECT":" ","MAREA":" ","LANE":"２８２巷","ALLEY":" ","HOUSE_NO":"１０９號","E_COORD97":166036.81,"N_COORD97":2535990,"ADDRESS":"灣裡路２８２巷１０９號","OBJECTID":344640},"geometry":{"x":166036.80999999959,"y":2535990.0000000019}},{"attributes":{"ID":344650,"DIS_CODE":0,"TOWNNAME":"南區","LI":"佛壇里","LIN":"5鄰","STREET":"灣裡路","SECT":" ","MAREA":" ","LANE":"２８２巷","ALLEY":" ","HOUSE_NO":"１１１號","E_COORD97":166036.60999999999,"N_COORD97":2535993.2000000002,"ADDRESS":"灣裡路２８２巷１１１號","OBJECTID":344641},"geometry":{"x":166036.61000000127,"y":2535993.1999999993}},{"attributes":{"ID":344651,"DIS_CODE":0,"TOWNNAME":"南區","LI":"佛壇里","LIN":"5鄰","STREET":"灣裡路","SECT":" ","MAREA":" ","LANE":"２８２巷","ALLEY":" ","HOUSE_NO":"１１１號之１","E_COORD97":166040.88,"N_COORD97":2535984.9300000002,"ADDRESS":"灣裡路２８２巷１１１號之１","OBJECTID":344642},"geometry":{"x":166040.88000000175,"y":2535984.9299999997}},{"attributes":{"ID":344652,"DIS_CODE":0,"TOWNNAME":"東區","LI":"大智里","LIN":"31鄰","STREET":"德東街","SECT":" ","MAREA":" ","LANE":"１８９巷","ALLEY":" ","HOUSE_NO":"５３號","E_COORD97":171281.10999999999,"N_COORD97":2540333.0899999999,"ADDRESS":"德東街１８９巷５３號","OBJECTID":344643},"geometry":{"x":171281.1099999994,"y":2540333.0899999999}},{"attributes":{"ID":344653,"DIS_CODE":0,"TOWNNAME":"東區","LI":"大智里","LIN":"31鄰","STREET":"德東街","SECT":" ","MAREA":" ","LANE":"１８９巷","ALLEY":" ","HOUSE_NO":"５５號","E_COORD97":171280.47,"N_COORD97":2540337.9500000002,"ADDRESS":"德東街１８９巷５５號","OBJECTID":344644},"geometry":{"x":171280.47000000067,"y":2540337.9499999993}},{"attributes":{"ID":344654,"DIS_CODE":0,"TOWNNAME":"東區","LI":"大智里","LIN":"31鄰","STREET":"德東街","SECT":" ","MAREA":" ","LANE":"１８９巷","ALLEY":" ","HOUSE_NO":"５號","E_COORD97":171283.64000000001,"N_COORD97":2540294.2599999998,"ADDRESS":"德東街１８９巷５號","OBJECTID":344645},"geometry":{"x":171283.64000000153,"y":2540294.2600000016}},{"attributes":{"ID":344655,"DIS_CODE":0,"TOWNNAME":"東區","LI":"大智里","LIN":"31鄰","STREET":"德東街","SECT":" ","MAREA":" ","LANE":"１８９巷","ALLEY":" ","HOUSE_NO":"６號","E_COORD97":171299.69,"N_COORD97":2540295.1000000001,"ADDRESS":"德東街１８９巷６號","OBJECTID":344646},"geometry":{"x":171299.69000000134,"y":2540295.1000000015}},{"attributes":{"ID":344656,"DIS_CODE":0,"TOWNNAME":"東區","LI":"大智里","LIN":"31鄰","STREET":"德東街","SECT":" ","MAREA":" ","LANE":"１８９巷","ALLEY":" ","HOUSE_NO":"７號","E_COORD97":171283.42999999999,"N_COORD97":2540299.3199999998,"ADDRESS":"德東街１８９巷７號","OBJECTID":344647},"geometry":{"x":171283.43000000156,"y":2540299.3200000003}},{"attributes":{"ID":344657,"DIS_CODE":0,"TOWNNAME":"中西區","LI":"五妃里","LIN":"8鄰","STREET":"南寧街","SECT":" ","MAREA":" ","LANE":" ","ALLEY":" ","HOUSE_NO":"２５號二樓","E_COORD97":168475.56,"N_COORD97":2542743.5600000001,"ADDRESS":"南寧街２５號二樓","OBJECTID":344648},"geometry":{"x":168475.56000000052,"y":2542743.5600000024}},{"attributes":{"ID":344658,"DIS_CODE":0,"TOWNNAME":"中西區","LI":"五妃里","LIN":"8鄰","STREET":"南寧街","SECT":" ","MAREA":" ","LANE":" ","ALLEY":" ","HOUSE_NO":"２５號三樓","E_COORD97":168475.56,"N_COORD97":2542743.5600000001,"ADDRESS":"南寧街２５號三樓","OBJECTID":344649},"geometry":{"x":168475.56000000052,"y":2542743.5600000024}},{"attributes":{"ID":344659,"DIS_CODE":0,"TOWNNAME":"中西區","LI":"五妃里","LIN":"8鄰","STREET":"南寧街","SECT":" ","MAREA":" ","LANE":" ","ALLEY":" ","HOUSE_NO":"２５號三樓之１","E_COORD97":168475.56,"N_COORD97":2542743.5600000001,"ADDRESS":"南寧街２５號三樓之１","OBJECTID":344650},"geometry":{"x":168475.56000000052,"y":2542743.5600000024}},{"attributes":{"ID":344660,"DIS_CODE":0,"TOWNNAME":"中西區","LI":"五妃里","LIN":"8鄰","STREET":"南寧街","SECT":" ","MAREA":" ","LANE":" ","ALLEY":" ","HOUSE_NO":"２５號之１一樓","E_COORD97":168482.45999999999,"N_COORD97":2542746.8700000001,"ADDRESS":"南寧街２５號之１一樓","OBJECTID":344651},"geometry":{"x":168482.45999999996,"y":2542746.870000001}},{"attributes":{"ID":344661,"DIS_CODE":0,"TOWNNAME":"中西區","LI":"五妃里","LIN":"8鄰","STREET":"南寧街","SECT":" ","MAREA":" ","LANE":" ","ALLEY":" ","HOUSE_NO":"２５號之１二樓","E_COORD97":168482.45999999999,"N_COORD97":2542746.8700000001,"ADDRESS":"南寧街２５號之１二樓","OBJECTID":344652},"geometry":{"x":168482.45999999996,"y":2542746.870000001}},{"attributes":{"ID":344662,"DIS_CODE":0,"TOWNNAME":"中西區","LI":"五妃里","LIN":"8鄰","STREET":"南寧街","SECT":" ","MAREA":" ","LANE":" ","ALLEY":" ","HOUSE_NO":"２５號之１四樓","E_COORD97":168482.45999999999,"N_COORD97":2542746.8700000001,"ADDRESS":"南寧街２５號之１四樓","OBJECTID":344653},"geometry":{"x":168482.45999999996,"y":2542746.870000001}},{"attributes":{"ID":344663,"DIS_CODE":0,"TOWNNAME":"中西區","LI":"五妃里","LIN":"8鄰","STREET":"南寧街","SECT":" ","MAREA":" ","LANE":" ","ALLEY":" ","HOUSE_NO":"２５號之２一樓","E_COORD97":168482.97,"N_COORD97":2542755.6699999999,"ADDRESS":"南寧街２５號之２一樓","OBJECTID":344654},"geometry":{"x":168482.97000000067,"y":2542755.6700000018}},{"attributes":{"ID":344664,"DIS_CODE":0,"TOWNNAME":"中西區","LI":"五妃里","LIN":"8鄰","STREET":"南寧街","SECT":" ","MAREA":" ","LANE":" ","ALLEY":" ","HOUSE_NO":"２５號之２二樓","E_COORD97":168482.97,"N_COORD97":2542755.6699999999,"ADDRESS":"南寧街２５號之２二樓","OBJECTID":344655},"geometry":{"x":168482.97000000067,"y":2542755.6700000018}},{"attributes":{"ID":344665,"DIS_CODE":0,"TOWNNAME":"中西區","LI":"五妃里","LIN":"8鄰","STREET":"南寧街","SECT":" ","MAREA":" ","LANE":" ","ALLEY":" ","HOUSE_NO":"２５號之２三樓","E_COORD97":168482.97,"N_COORD97":2542755.6699999999,"ADDRESS":"南寧街２５號之２三樓","OBJECTID":344656},"geometry":{"x":168482.97000000067,"y":2542755.6700000018}},{"attributes":{"ID":344666,"DIS_CODE":0,"TOWNNAME":"中西區","LI":"五妃里","LIN":"8鄰","STREET":"南寧街","SECT":" ","MAREA":" ","LANE":" ","ALLEY":" ","HOUSE_NO":"２５號之２四樓","E_COORD97":168482.97,"N_COORD97":2542755.6699999999,"ADDRESS":"南寧街２５號之２四樓","OBJECTID":344657},"geometry":{"x":168482.97000000067,"y":2542755.6700000018}},{"attributes":{"ID":344667,"DIS_CODE":0,"TOWNNAME":"中西區","LI":"五妃里","LIN":"8鄰","STREET":"南寧街","SECT":" ","MAREA":" ","LANE":" ","ALLEY":" ","HOUSE_NO":"２５號之３一樓","E_COORD97":168483.22,"N_COORD97":2542763.3199999998,"ADDRESS":"南寧街２５號之３一樓","OBJECTID":344658},"geometry":{"x":168483.22000000067,"y":2542763.3200000003}},{"attributes":{"ID":344668,"DIS_CODE":0,"TOWNNAME":"中西區","LI":"五妃里","LIN":"8鄰","STREET":"南寧街","SECT":" ","MAREA":" ","LANE":" ","ALLEY":" ","HOUSE_NO":"２５號之３二樓","E_COORD97":168483.22,"N_COORD97":2542763.3199999998,"ADDRESS":"南寧街２５號之３二樓","OBJECTID":344659},"geometry":{"x":168483.22000000067,"y":2542763.3200000003}},{"attributes":{"ID":344669,"DIS_CODE":0,"TOWNNAME":"中西區","LI":"五妃里","LIN":"8鄰","STREET":"南寧街","SECT":" ","MAREA":" ","LANE":" ","ALLEY":" ","HOUSE_NO":"２５號之３三樓","E_COORD97":168483.22,"N_COORD97":2542763.3199999998,"ADDRESS":"南寧街２５號之３三樓","OBJECTID":344660},"geometry":{"x":168483.22000000067,"y":2542763.3200000003}},{"attributes":{"ID":344670,"DIS_CODE":0,"TOWNNAME":"中西區","LI":"五妃里","LIN":"8鄰","STREET":"慶中街","SECT":" ","MAREA":" ","LANE":" ","ALLEY":" ","HOUSE_NO":"４１號四樓之２","E_COORD97":168532.14000000001,"N_COORD97":2542767.1600000001,"ADDRESS":"慶中街４１號四樓之２","OBJECTID":344661},"geometry":{"x":168532.13999999966,"y":2542767.160000002}},{"attributes":{"ID":344671,"DIS_CODE":0,"TOWNNAME":"東區","LI":"大福里","LIN":"5鄰","STREET":"立德二路","SECT":" ","MAREA":" ","LANE":"５４巷","ALLEY":" ","HOUSE_NO":"２０號","E_COORD97":169604.37,"N_COORD97":2541710.6899999999,"ADDRESS":"立德二路５４巷２０號","OBJECTID":344662},"geometry":{"x":169604.37000000197,"y":2541710.6900000013}},{"attributes":{"ID":344672,"DIS_CODE":0,"TOWNNAME":"東區","LI":"大福里","LIN":"5鄰","STREET":"立德二路","SECT":" ","MAREA":" ","LANE":"５４巷","ALLEY":" ","HOUSE_NO":"１８號","E_COORD97":169611.35000000001,"N_COORD97":2541713.8199999998,"ADDRESS":"立德二路５４巷１８號","OBJECTID":344663},"geometry":{"x":169611.35000000056,"y":2541713.8200000022}},{"attributes":{"ID":344673,"DIS_CODE":0,"TOWNNAME":"東區","LI":"大福里","LIN":"5鄰","STREET":"立德二路","SECT":" ","MAREA":" ","LANE":"５４巷","ALLEY":" ","HOUSE_NO":"１６號","E_COORD97":169617.97,"N_COORD97":2541714.8700000001,"ADDRESS":"立德二路５４巷１６號","OBJECTID":344664},"geometry":{"x":169617.96999999974,"y":2541714.8700000029}},{"attributes":{"ID":344674,"DIS_CODE":0,"TOWNNAME":"東區","LI":"大福里","LIN":"5鄰","STREET":"立德二路","SECT":" ","MAREA":" ","LANE":"５４巷","ALLEY":" ","HOUSE_NO":"１４號","E_COORD97":169625.29999999999,"N_COORD97":2541718,"ADDRESS":"立德二路５４巷１４號","OBJECTID":344665},"geometry":{"x":169625.30000000075,"y":2541718}},{"attributes":{"ID":344675,"DIS_CODE":0,"TOWNNAME":"東區","LI":"大福里","LIN":"5鄰","STREET":"立德二路","SECT":" ","MAREA":" ","LANE":"５４巷","ALLEY":" ","HOUSE_NO":"１２號","E_COORD97":169631.39999999999,"N_COORD97":2541719.77,"ADDRESS":"立德二路５４巷１２號","OBJECTID":344666},"geometry":{"x":169631.40000000037,"y":2541719.7700000033}},{"attributes":{"ID":344676,"DIS_CODE":0,"TOWNNAME":"東區","LI":"大福里","LIN":"5鄰","STREET":"立德二路","SECT":" ","MAREA":" ","LANE":"５４巷","ALLEY":" ","HOUSE_NO":"１０號","E_COORD97":169640.39000000001,"N_COORD97":2541723.21,"ADDRESS":"立德二路５４巷１０號","OBJECTID":344667},"geometry":{"x":169640.38999999966,"y":2541723.2100000028}},{"attributes":{"ID":344677,"DIS_CODE":0,"TOWNNAME":"東區","LI":"大福里","LIN":"5鄰","STREET":"立德二路","SECT":" ","MAREA":" ","LANE":"５４巷","ALLEY":" ","HOUSE_NO":"８號","E_COORD97":169648.32999999999,"N_COORD97":2541725.3199999998,"ADDRESS":"立德二路５４巷８號","OBJECTID":344668},"geometry":{"x":169648.33000000007,"y":2541725.3200000022}},{"attributes":{"ID":344678,"DIS_CODE":0,"TOWNNAME":"東區","LI":"大福里","LIN":"5鄰","STREET":"立德二路","SECT":" ","MAREA":" ","LANE":"５４巷","ALLEY":" ","HOUSE_NO":"６號","E_COORD97":169657.85000000001,"N_COORD97":2541727.1699999999,"ADDRESS":"立德二路５４巷６號","OBJECTID":344669},"geometry":{"x":169657.84999999963,"y":2541727.1699999999}},{"attributes":{"ID":344679,"DIS_CODE":0,"TOWNNAME":"東區","LI":"大福里","LIN":"5鄰","STREET":"立德二路","SECT":" ","MAREA":" ","LANE":"５４巷","ALLEY":" ","HOUSE_NO":"４號","E_COORD97":169667.89999999999,"N_COORD97":2541730.6000000001,"ADDRESS":"立德二路５４巷４號","OBJECTID":344670},"geometry":{"x":169667.9000000013,"y":2541730.5999999996}},{"attributes":{"ID":344680,"DIS_CODE":0,"TOWNNAME":"東區","LI":"大福里","LIN":"5鄰","STREET":"立德二路","SECT":" ","MAREA":" ","LANE":"５４巷","ALLEY":" ","HOUSE_NO":"５號","E_COORD97":169654.94,"N_COORD97":2541736.73,"ADDRESS":"立德二路５４巷５號","OBJECTID":344671},"geometry":{"x":169654.93999999948,"y":2541736.7300000004}},{"attributes":{"ID":344681,"DIS_CODE":0,"TOWNNAME":"東區","LI":"大福里","LIN":"5鄰","STREET":"立德二路","SECT":" ","MAREA":" ","LANE":"５４巷","ALLEY":" ","HOUSE_NO":"７號","E_COORD97":169644.62,"N_COORD97":2541735.4100000001,"ADDRESS":"立德二路５４巷７號","OBJECTID":344672},"geometry":{"x":169644.62000000011,"y":2541735.4100000001}},{"attributes":{"ID":344682,"DIS_CODE":0,"TOWNNAME":"東區","LI":"大福里","LIN":"5鄰","STREET":"立德二路","SECT":" ","MAREA":" ","LANE":"５４巷","ALLEY":" ","HOUSE_NO":"９號","E_COORD97":169639.07000000001,"N_COORD97":2541734.3500000001,"ADDRESS":"立德二路５４巷９號","OBJECTID":344673},"geometry":{"x":169639.07000000123,"y":2541734.3500000015}},{"attributes":{"ID":344683,"DIS_CODE":0,"TOWNNAME":"東區","LI":"大福里","LIN":"5鄰","STREET":"立德二路","SECT":" ","MAREA":" ","LANE":"５４巷","ALLEY":" ","HOUSE_NO":"１１號","E_COORD97":169632.19,"N_COORD97":2541732.5,"ADDRESS":"立德二路５４巷１１號","OBJECTID":344674},"geometry":{"x":169632.19000000041,"y":2541732.5000000037}},{"attributes":{"ID":344684,"DIS_CODE":0,"TOWNNAME":"東區","LI":"大福里","LIN":"5鄰","STREET":"立德二路","SECT":" ","MAREA":" ","LANE":"５４巷","ALLEY":" ","HOUSE_NO":"１３號","E_COORD97":169621.45999999999,"N_COORD97":2541729.9900000002,"ADDRESS":"立德二路５４巷１３號","OBJECTID":344675},"geometry":{"x":169621.45999999996,"y":2541729.9900000021}},{"attributes":{"ID":344685,"DIS_CODE":0,"TOWNNAME":"麻豆區","LI":"小埤里","LIN":"5鄰","STREET":" ","SECT":" ","MAREA":"小埤頭","LANE":" ","ALLEY":" ","HOUSE_NO":"２０號之３","E_COORD97":171425.32000000001,"N_COORD97":2566039.46,"ADDRESS":"小埤頭２０號之３","OBJECTID":344676},"geometry":{"x":171425.3200000003,"y":2566039.4600000046}},{"attributes":{"ID":344686,"DIS_CODE":0,"TOWNNAME":"東區","LI":"大福里","LIN":"5鄰","STREET":"立德二路","SECT":" ","MAREA":" ","LANE":"５４巷","ALLEY":" ","HOUSE_NO":"１５號","E_COORD97":169611,"N_COORD97":2541728.2400000002,"ADDRESS":"立德二路５４巷１５號","OBJECTID":344677},"geometry":{"x":169611,"y":2541728.2400000021}},{"attributes":{"ID":344687,"DIS_CODE":0,"TOWNNAME":"中西區","LI":"五妃里","LIN":"8鄰","STREET":"慶中街","SECT":" ","MAREA":" ","LANE":" ","ALLEY":" ","HOUSE_NO":"４１號一樓","E_COORD97":168536.60999999999,"N_COORD97":2542761.4300000002,"ADDRESS":"慶中街４１號一樓","OBJECTID":344678},"geometry":{"x":168536.6099999994,"y":2542761.4300000016}},{"attributes":{"ID":344688,"DIS_CODE":0,"TOWNNAME":"中西區","LI":"五妃里","LIN":"8鄰","STREET":"慶中街","SECT":" ","MAREA":" ","LANE":" ","ALLEY":" ","HOUSE_NO":"４１號七樓之１","E_COORD97":168532.14000000001,"N_COORD97":2542767.1600000001,"ADDRESS":"慶中街４１號七樓之１","OBJECTID":344679},"geometry":{"x":168532.13999999966,"y":2542767.160000002}},{"attributes":{"ID":344689,"DIS_CODE":0,"TOWNNAME":"中西區","LI":"五妃里","LIN":"8鄰","STREET":"慶中街","SECT":" ","MAREA":" ","LANE":" ","ALLEY":" ","HOUSE_NO":"４１號七樓之２","E_COORD97":168532.14000000001,"N_COORD97":2542767.1600000001,"ADDRESS":"慶中街４１號七樓之２","OBJECTID":344680},"geometry":{"x":168532.13999999966,"y":2542767.160000002}},{"attributes":{"ID":344690,"DIS_CODE":0,"TOWNNAME":"中西區","LI":"五妃里","LIN":"8鄰","STREET":"慶中街","SECT":" ","MAREA":" ","LANE":" ","ALLEY":" ","HOUSE_NO":"４１號七樓之３","E_COORD97":168532.14000000001,"N_COORD97":2542767.1600000001,"ADDRESS":"慶中街４１號七樓之３","OBJECTID":344681},"geometry":{"x":168532.13999999966,"y":2542767.160000002}},{"attributes":{"ID":344691,"DIS_CODE":0,"TOWNNAME":"中西區","LI":"五妃里","LIN":"8鄰","STREET":"慶中街","SECT":" ","MAREA":" ","LANE":" ","ALLEY":" ","HOUSE_NO":"４１號二樓","E_COORD97":168532.14000000001,"N_COORD97":2542767.1600000001,"ADDRESS":"慶中街４１號二樓","OBJECTID":344682},"geometry":{"x":168532.13999999966,"y":2542767.160000002}},{"attributes":{"ID":344692,"DIS_CODE":0,"TOWNNAME":"中西區","LI":"五妃里","LIN":"8鄰","STREET":"慶中街","SECT":" ","MAREA":" ","LANE":" ","ALLEY":" ","HOUSE_NO":"４１號三樓之１","E_COORD97":168532.14000000001,"N_COORD97":2542767.1600000001,"ADDRESS":"慶中街４１號三樓之１","OBJECTID":344683},"geometry":{"x":168532.13999999966,"y":2542767.160000002}},{"attributes":{"ID":344693,"DIS_CODE":0,"TOWNNAME":"中西區","LI":"五妃里","LIN":"8鄰","STREET":"慶中街","SECT":" ","MAREA":" ","LANE":" ","ALLEY":" ","HOUSE_NO":"４１號三樓之２","E_COORD97":168532.14000000001,"N_COORD97":2542767.1600000001,"ADDRESS":"慶中街４１號三樓之２","OBJECTID":344684},"geometry":{"x":168532.13999999966,"y":2542767.160000002}},{"attributes":{"ID":344694,"DIS_CODE":0,"TOWNNAME":"中西區","LI":"五妃里","LIN":"8鄰","STREET":"慶中街","SECT":" ","MAREA":" ","LANE":" ","ALLEY":" ","HOUSE_NO":"４１號三樓之３","E_COORD97":168532.14000000001,"N_COORD97":2542767.1600000001,"ADDRESS":"慶中街４１號三樓之３","OBJECTID":344685},"geometry":{"x":168532.13999999966,"y":2542767.160000002}},{"attributes":{"ID":344695,"DIS_CODE":0,"TOWNNAME":"中西區","LI":"五妃里","LIN":"8鄰","STREET":"慶中街","SECT":" ","MAREA":" ","LANE":" ","ALLEY":" ","HOUSE_NO":"４１號五樓之１","E_COORD97":168532.14000000001,"N_COORD97":2542767.1600000001,"ADDRESS":"慶中街４１號五樓之１","OBJECTID":344686},"geometry":{"x":168532.13999999966,"y":2542767.160000002}},{"attributes":{"ID":344696,"DIS_CODE":0,"TOWNNAME":"中西區","LI":"五妃里","LIN":"8鄰","STREET":"慶中街","SECT":" ","MAREA":" ","LANE":" ","ALLEY":" ","HOUSE_NO":"４１號五樓之２","E_COORD97":168532.14000000001,"N_COORD97":2542767.1600000001,"ADDRESS":"慶中街４１號五樓之２","OBJECTID":344687},"geometry":{"x":168532.13999999966,"y":2542767.160000002}},{"attributes":{"ID":344697,"DIS_CODE":0,"TOWNNAME":"中西區","LI":"五妃里","LIN":"8鄰","STREET":"慶中街","SECT":" ","MAREA":" ","LANE":" ","ALLEY":" ","HOUSE_NO":"４１號五樓之３","E_COORD97":168532.14000000001,"N_COORD97":2542767.1600000001,"ADDRESS":"慶中街４１號五樓之３","OBJECTID":344688},"geometry":{"x":168532.13999999966,"y":2542767.160000002}},{"attributes":{"ID":344698,"DIS_CODE":0,"TOWNNAME":"中西區","LI":"五妃里","LIN":"8鄰","STREET":"慶中街","SECT":" ","MAREA":" ","LANE":" ","ALLEY":" ","HOUSE_NO":"４１號六樓之１","E_COORD97":168532.14000000001,"N_COORD97":2542767.1600000001,"ADDRESS":"慶中街４１號六樓之１","OBJECTID":344689},"geometry":{"x":168532.13999999966,"y":2542767.160000002}},{"attributes":{"ID":344699,"DIS_CODE":0,"TOWNNAME":"中西區","LI":"五妃里","LIN":"8鄰","STREET":"慶中街","SECT":" ","MAREA":" ","LANE":" ","ALLEY":" ","HOUSE_NO":"４１號六樓之２","E_COORD97":168532.14000000001,"N_COORD97":2542767.1600000001,"ADDRESS":"慶中街４１號六樓之２","OBJECTID":344690},"geometry":{"x":168532.13999999966,"y":2542767.160000002}},{"attributes":{"ID":344700,"DIS_CODE":0,"TOWNNAME":"中西區","LI":"五妃里","LIN":"8鄰","STREET":"慶中街","SECT":" ","MAREA":" ","LANE":" ","ALLEY":" ","HOUSE_NO":"４１號六樓之３","E_COORD97":168532.14000000001,"N_COORD97":2542767.1600000001,"ADDRESS":"慶中街４１號六樓之３","OBJECTID":344691},"geometry":{"x":168532.13999999966,"y":2542767.160000002}},{"attributes":{"ID":344701,"DIS_CODE":0,"TOWNNAME":"中西區","LI":"五妃里","LIN":"8鄰","STREET":"慶中街","SECT":" ","MAREA":" ","LANE":" ","ALLEY":" ","HOUSE_NO":"４１號四樓之１","E_COORD97":168532.14000000001,"N_COORD97":2542767.1600000001,"ADDRESS":"慶中街４１號四樓之１","OBJECTID":344692},"geometry":{"x":168532.13999999966,"y":2542767.160000002}},{"attributes":{"ID":344702,"DIS_CODE":0,"TOWNNAME":"麻豆區","LI":"小埤里","LIN":"5鄰","STREET":" ","SECT":" ","MAREA":"小埤頭","LANE":" ","ALLEY":" ","HOUSE_NO":"２０號之５","E_COORD97":171421.10000000001,"N_COORD97":2566054.4700000002,"ADDRESS":"小埤頭２０號之５","OBJECTID":344693},"geometry":{"x":171421.0999999987,"y":2566054.4700000007}},{"attributes":{"ID":344703,"DIS_CODE":0,"TOWNNAME":"麻豆區","LI":"小埤里","LIN":"5鄰","STREET":" ","SECT":" ","MAREA":"小埤頭","LANE":" ","ALLEY":" ","HOUSE_NO":"２１號","E_COORD97":171418.53,"N_COORD97":2566085.3399999999,"ADDRESS":"小埤頭２１號","OBJECTID":344694},"geometry":{"x":171418.53000000026,"y":2566085.3399999999}},{"attributes":{"ID":344704,"DIS_CODE":0,"TOWNNAME":"麻豆區","LI":"小埤里","LIN":"5鄰","STREET":" ","SECT":" ","MAREA":"小埤頭","LANE":" ","ALLEY":" ","HOUSE_NO":"２２號之１","E_COORD97":171418.54000000001,"N_COORD97":2566065.7200000002,"ADDRESS":"小埤頭２２號之１","OBJECTID":344695},"geometry":{"x":171418.53999999911,"y":2566065.7200000025}},{"attributes":{"ID":344705,"DIS_CODE":0,"TOWNNAME":"麻豆區","LI":"小埤里","LIN":"5鄰","STREET":" ","SECT":" ","MAREA":"小埤頭","LANE":" ","ALLEY":" ","HOUSE_NO":"２２號","E_COORD97":171417.34,"N_COORD97":2566073.4100000001,"ADDRESS":"小埤頭２２號","OBJECTID":344696},"geometry":{"x":171417.33999999985,"y":2566073.410000002}},{"attributes":{"ID":344706,"DIS_CODE":0,"TOWNNAME":"麻豆區","LI":"小埤里","LIN":"5鄰","STREET":" ","SECT":" ","MAREA":"小埤頭","LANE":" ","ALLEY":" ","HOUSE_NO":"２３號之１","E_COORD97":171465.98000000001,"N_COORD97":2566202.1800000002,"ADDRESS":"小埤頭２３號之１","OBJECTID":344697},"geometry":{"x":171465.98000000138,"y":2566202.1799999997}},{"attributes":{"ID":344707,"DIS_CODE":0,"TOWNNAME":"安南區","LI":"學東里","LIN":"5鄰","STREET":"公學路","SECT":"六段","MAREA":" ","LANE":"４６９巷","ALLEY":" ","HOUSE_NO":"５６號","E_COORD97":162584.17000000001,"N_COORD97":2553068.9700000002,"ADDRESS":"公學路六段４６９巷５６號","OBJECTID":344698},"geometry":{"x":162584.17000000179,"y":2553068.9700000025}},{"attributes":{"ID":344708,"DIS_CODE":0,"TOWNNAME":"佳里區","LI":"溪州里","LIN":"5鄰","STREET":" ","SECT":" ","MAREA":"溪州","LANE":" ","ALLEY":" ","HOUSE_NO":"４０號之１","E_COORD97":166421.20000000001,"N_COORD97":2567293.5699999998,"ADDRESS":"溪州４０號之１","OBJECTID":344699},"geometry":{"x":166421.20000000019,"y":2567293.5700000022}},{"attributes":{"ID":344709,"DIS_CODE":0,"TOWNNAME":"安南區","LI":"城西里","LIN":"5鄰","STREET":"城西街","SECT":"三段","MAREA":" ","LANE":"５０１巷","ALLEY":" ","HOUSE_NO":"４６之１號","E_COORD97":157139.81,"N_COORD97":2550771.0299999998,"ADDRESS":"城西街三段５０１巷４６之１號","OBJECTID":344700},"geometry":{"x":157139.81000000052,"y":2550771.0300000012}},{"attributes":{"ID":344710,"DIS_CODE":0,"TOWNNAME":"安南區","LI":"安慶里","LIN":"5鄰","STREET":"頂安街","SECT":" ","MAREA":" ","LANE":"３３９巷","ALLEY":" ","HOUSE_NO":"２號","E_COORD97":169139.07000000001,"N_COORD97":2549374.1499999999,"ADDRESS":"頂安街３３９巷２號","OBJECTID":344701},"geometry":{"x":169139.07000000123,"y":2549374.1500000022}},{"attributes":{"ID":344711,"DIS_CODE":0,"TOWNNAME":"安南區","LI":"安慶里","LIN":"5鄰","STREET":"頂安街","SECT":" ","MAREA":" ","LANE":"３３９巷","ALLEY":" ","HOUSE_NO":"８號","E_COORD97":169140.17999999999,"N_COORD97":2549367.7999999998,"ADDRESS":"頂安街３３９巷８號","OBJECTID":344702},"geometry":{"x":169140.1799999997,"y":2549367.8000000026}},{"attributes":{"ID":344712,"DIS_CODE":0,"TOWNNAME":"安南區","LI":"安慶里","LIN":"5鄰","STREET":"頂安街","SECT":" ","MAREA":" ","LANE":"３３９巷","ALLEY":" ","HOUSE_NO":"１０號","E_COORD97":169140.98000000001,"N_COORD97":2549364.1499999999,"ADDRESS":"頂安街３３９巷１０號","OBJECTID":344703},"geometry":{"x":169140.98000000045,"y":2549364.1500000022}},{"attributes":{"ID":344713,"DIS_CODE":0,"TOWNNAME":"仁德區","LI":"一甲里","LIN":"5鄰","STREET":"中正路","SECT":"三段","MAREA":" ","LANE":"１６２巷","ALLEY":" ","HOUSE_NO":"６６號","E_COORD97":173624.22,"N_COORD97":2541717.6099999999,"ADDRESS":"中正路三段１６２巷６６號","OBJECTID":344704},"geometry":{"x":173624.2200000016,"y":2541717.6100000031}},{"attributes":{"ID":344714,"DIS_CODE":0,"TOWNNAME":"東區","LI":"大智里","LIN":"31鄰","STREET":"德東街","SECT":" ","MAREA":" ","LANE":"１８９巷","ALLEY":" ","HOUSE_NO":"８號","E_COORD97":171299.26999999999,"N_COORD97":2540300.3799999999,"ADDRESS":"德東街１８９巷８號","OBJECTID":344705},"geometry":{"x":171299.26999999955,"y":2540300.379999999}},{"attributes":{"ID":344715,"DIS_CODE":0,"TOWNNAME":"東區","LI":"大智里","LIN":"31鄰","STREET":"德東街","SECT":" ","MAREA":" ","LANE":"１８９巷","ALLEY":" ","HOUSE_NO":"９號","E_COORD97":171267.51999999999,"N_COORD97":2540301.3799999999,"ADDRESS":"德東街１８９巷９號","OBJECTID":344706},"geometry":{"x":171267.52000000142,"y":2540301.3800000027}},{"attributes":{"ID":344716,"DIS_CODE":0,"TOWNNAME":"中西區","LI":"西賢里","LIN":"31鄰","STREET":"西賢六街","SECT":" ","MAREA":" ","LANE":"１３巷","ALLEY":" ","HOUSE_NO":"１０號","E_COORD97":165030.78,"N_COORD97":2544662.6400000001,"ADDRESS":"西賢六街１３巷１０號","OBJECTID":344707},"geometry":{"x":165030.78000000026,"y":2544662.6400000025}},{"attributes":{"ID":344717,"DIS_CODE":0,"TOWNNAME":"中西區","LI":"西賢里","LIN":"31鄰","STREET":"西賢六街","SECT":" ","MAREA":" ","LANE":"１３巷","ALLEY":" ","HOUSE_NO":"１１號","E_COORD97":165010.32999999999,"N_COORD97":2544628.5600000001,"ADDRESS":"西賢六街１３巷１１號","OBJECTID":344708},"geometry":{"x":165010.33000000007,"y":2544628.5600000024}},{"attributes":{"ID":344718,"DIS_CODE":0,"TOWNNAME":"中西區","LI":"西賢里","LIN":"31鄰","STREET":"西賢六街","SECT":" ","MAREA":" ","LANE":"１３巷","ALLEY":" ","HOUSE_NO":"１２號","E_COORD97":165027.13,"N_COORD97":2544663.1099999999,"ADDRESS":"西賢六街１３巷１２號","OBJECTID":344709},"geometry":{"x":165027.13000000175,"y":2544663.1099999994}},{"attributes":{"ID":344719,"DIS_CODE":0,"TOWNNAME":"中西區","LI":"五妃里","LIN":"8鄰","STREET":"慶中街","SECT":" ","MAREA":" ","LANE":" ","ALLEY":" ","HOUSE_NO":"４１號四樓之３","E_COORD97":168532.14000000001,"N_COORD97":2542767.1600000001,"ADDRESS":"慶中街４１號四樓之３","OBJECTID":344710},"geometry":{"x":168532.13999999966,"y":2542767.160000002}},{"attributes":{"ID":344720,"DIS_CODE":0,"TOWNNAME":"中西區","LI":"仙草里","LIN":"8鄰","STREET":"永福路","SECT":"一段","MAREA":" ","LANE":" ","ALLEY":" ","HOUSE_NO":"１１５號五樓之２","E_COORD97":167977.14999999999,"N_COORD97":2542776.2999999998,"ADDRESS":"永福路一段１１５號五樓之２","OBJECTID":344711},"geometry":{"x":167977.15000000224,"y":2542776.3000000026}},{"attributes":{"ID":344721,"DIS_CODE":0,"TOWNNAME":"中西區","LI":"仙草里","LIN":"8鄰","STREET":"永福路","SECT":"一段","MAREA":" ","LANE":" ","ALLEY":" ","HOUSE_NO":"１１５號五樓之３","E_COORD97":167977.14999999999,"N_COORD97":2542776.2999999998,"ADDRESS":"永福路一段１１５號五樓之３","OBJECTID":344712},"geometry":{"x":167977.15000000224,"y":2542776.3000000026}},{"attributes":{"ID":344722,"DIS_CODE":0,"TOWNNAME":"中西區","LI":"仙草里","LIN":"8鄰","STREET":"永福路","SECT":"一段","MAREA":" ","LANE":" ","ALLEY":" ","HOUSE_NO":"１１５號六樓之１","E_COORD97":167977.14999999999,"N_COORD97":2542776.2999999998,"ADDRESS":"永福路一段１１５號六樓之１","OBJECTID":344713},"geometry":{"x":167977.15000000224,"y":2542776.3000000026}},{"attributes":{"ID":344723,"DIS_CODE":0,"TOWNNAME":"中西區","LI":"仙草里","LIN":"8鄰","STREET":"永福路","SECT":"一段","MAREA":" ","LANE":" ","ALLEY":" ","HOUSE_NO":"１１５號六樓之２","E_COORD97":167977.14999999999,"N_COORD97":2542776.2999999998,"ADDRESS":"永福路一段１１５號六樓之２","OBJECTID":344714},"geometry":{"x":167977.15000000224,"y":2542776.3000000026}},{"attributes":{"ID":344724,"DIS_CODE":0,"TOWNNAME":"東區","LI":"大福里","LIN":"5鄰","STREET":"立德二路","SECT":" ","MAREA":" ","LANE":" ","ALLEY":" ","HOUSE_NO":"６０號","E_COORD97":169603.32999999999,"N_COORD97":2541738.3500000001,"ADDRESS":"立德二路６０號","OBJECTID":344715},"geometry":{"x":169603.33000000101,"y":2541738.3499999996}},{"attributes":{"ID":344725,"DIS_CODE":0,"TOWNNAME":"仁德區","LI":"保安里","LIN":"5鄰","STREET":"中正路","SECT":"一段","MAREA":" ","LANE":"２００巷","ALLEY":" ","HOUSE_NO":"６號","E_COORD97":171599.98999999999,"N_COORD97":2535754.2799999998,"ADDRESS":"中正路一段２００巷６號","OBJECTID":344716},"geometry":{"x":171599.99000000022,"y":2535754.2799999993}},{"attributes":{"ID":344726,"DIS_CODE":0,"TOWNNAME":"麻豆區","LI":"小埤里","LIN":"5鄰","STREET":" ","SECT":" ","MAREA":"小埤頭","LANE":" ","ALLEY":" ","HOUSE_NO":"２３號之３","E_COORD97":171469.98999999999,"N_COORD97":2566130.0800000001,"ADDRESS":"小埤頭２３號之３","OBJECTID":344717},"geometry":{"x":171469.98999999929,"y":2566130.0800000019}},{"attributes":{"ID":344727,"DIS_CODE":0,"TOWNNAME":"仁德區","LI":"田厝里","LIN":"5鄰","STREET":"田厝三街","SECT":" ","MAREA":" ","LANE":"３５巷","ALLEY":" ","HOUSE_NO":"１２號","E_COORD97":172465.51999999999,"N_COORD97":2537436.25,"ADDRESS":"田厝三街３５巷１２號","OBJECTID":344718},"geometry":{"x":172465.51999999955,"y":2537436.2500000019}},{"attributes":{"ID":344728,"DIS_CODE":0,"TOWNNAME":"仁德區","LI":"成功里","LIN":"5鄰","STREET":"成功三街","SECT":" ","MAREA":" ","LANE":"８１巷","ALLEY":" ","HOUSE_NO":"１１號","E_COORD97":171236.04000000001,"N_COORD97":2539839.7599999998,"ADDRESS":"成功三街８１巷１１號","OBJECTID":344719},"geometry":{"x":171236.04000000097,"y":2539839.7600000016}},{"attributes":{"ID":344729,"DIS_CODE":0,"TOWNNAME":"麻豆區","LI":"小埤里","LIN":"5鄰","STREET":" ","SECT":" ","MAREA":"小埤頭","LANE":" ","ALLEY":" ","HOUSE_NO":"２３號之５","E_COORD97":171470.07000000001,"N_COORD97":2566138.1000000001,"ADDRESS":"小埤頭２３號之５","OBJECTID":344720},"geometry":{"x":171470.07000000123,"y":2566138.0999999996}},{"attributes":{"ID":344730,"DIS_CODE":0,"TOWNNAME":"中西區","LI":"西賢里","LIN":"31鄰","STREET":"西賢六街","SECT":" ","MAREA":" ","LANE":"１３巷","ALLEY":" ","HOUSE_NO":"１３號","E_COORD97":165014.56,"N_COORD97":2544633.1200000001,"ADDRESS":"西賢六街１３巷１３號","OBJECTID":344721},"geometry":{"x":165014.55999999959,"y":2544633.120000001}},{"attributes":{"ID":344731,"DIS_CODE":0,"TOWNNAME":"佳里區","LI":"龍安里","LIN":"5鄰","STREET":" ","SECT":" ","MAREA":"塭子內","LANE":" ","ALLEY":" ","HOUSE_NO":"５４號","E_COORD97":164829.45000000001,"N_COORD97":2558360.7799999998,"ADDRESS":"塭子內５４號","OBJECTID":344722},"geometry":{"x":164829.45000000019,"y":2558360.7800000012}},{"attributes":{"ID":344732,"DIS_CODE":0,"TOWNNAME":"中西區","LI":"西賢里","LIN":"31鄰","STREET":"西賢六街","SECT":" ","MAREA":" ","LANE":"１３巷","ALLEY":" ","HOUSE_NO":"１５號","E_COORD97":165020.48999999999,"N_COORD97":2544642.4900000002,"ADDRESS":"西賢六街１３巷１５號","OBJECTID":344723},"geometry":{"x":165020.49000000115,"y":2544642.4900000021}},{"attributes":{"ID":344733,"DIS_CODE":0,"TOWNNAME":"中西區","LI":"西賢里","LIN":"31鄰","STREET":"西賢六街","SECT":" ","MAREA":" ","LANE":"１３巷","ALLEY":" ","HOUSE_NO":"１６號","E_COORD97":165023.82999999999,"N_COORD97":2544663.9300000002,"ADDRESS":"西賢六街１３巷１６號","OBJECTID":344724},"geometry":{"x":165023.83000000007,"y":2544663.9299999997}},{"attributes":{"ID":344734,"DIS_CODE":0,"TOWNNAME":"中西區","LI":"西賢里","LIN":"31鄰","STREET":"西賢六街","SECT":" ","MAREA":" ","LANE":"１３巷","ALLEY":" ","HOUSE_NO":"１７號","E_COORD97":165015.75,"N_COORD97":2544643.1699999999,"ADDRESS":"西賢六街１３巷１７號","OBJECTID":344725},"geometry":{"x":165015.75,"y":2544643.1699999999}},{"attributes":{"ID":344735,"DIS_CODE":0,"TOWNNAME":"仁德區","LI":"中生里","LIN":"5鄰","STREET":" ","SECT":" ","MAREA":"中洲","LANE":" ","ALLEY":" ","HOUSE_NO":"１３０號之１２","E_COORD97":172746.67999999999,"N_COORD97":2534455.29,"ADDRESS":"中洲１３０號之１２","OBJECTID":344726},"geometry":{"x":172746.68000000063,"y":2534455.290000001}},{"attributes":{"ID":344736,"DIS_CODE":0,"TOWNNAME":"仁德區","LI":"中洲里","LIN":"5鄰","STREET":" ","SECT":" ","MAREA":"中洲","LANE":" ","ALLEY":" ","HOUSE_NO":"２６０號","E_COORD97":173214.95000000001,"N_COORD97":2534084.75,"ADDRESS":"中洲２６０號","OBJECTID":344727},"geometry":{"x":173214.95000000112,"y":2534084.75}},{"attributes":{"ID":344737,"DIS_CODE":0,"TOWNNAME":"仁德區","LI":"中洲里","LIN":"5鄰","STREET":" ","SECT":" ","MAREA":"中洲","LANE":" ","ALLEY":" ","HOUSE_NO":"２６０號之１","E_COORD97":173204.54999999999,"N_COORD97":2534080.7999999998,"ADDRESS":"中洲２６０號之１","OBJECTID":344728},"geometry":{"x":173204.54999999981,"y":2534080.8000000007}},{"attributes":{"ID":344738,"DIS_CODE":0,"TOWNNAME":"中西區","LI":"仙草里","LIN":"8鄰","STREET":"永福路","SECT":"一段","MAREA":" ","LANE":" ","ALLEY":" ","HOUSE_NO":"１１５號五樓之１","E_COORD97":167977.14999999999,"N_COORD97":2542776.2999999998,"ADDRESS":"永福路一段１１５號五樓之１","OBJECTID":344729},"geometry":{"x":167977.15000000224,"y":2542776.3000000026}},{"attributes":{"ID":344739,"DIS_CODE":0,"TOWNNAME":"中西區","LI":"仙草里","LIN":"8鄰","STREET":"永福路","SECT":"一段","MAREA":" ","LANE":" ","ALLEY":" ","HOUSE_NO":"１１５號四樓","E_COORD97":167977.14999999999,"N_COORD97":2542776.2999999998,"ADDRESS":"永福路一段１１５號四樓","OBJECTID":344730},"geometry":{"x":167977.15000000224,"y":2542776.3000000026}},{"attributes":{"ID":344740,"DIS_CODE":0,"TOWNNAME":"中西區","LI":"仙草里","LIN":"8鄰","STREET":"永福路","SECT":"一段","MAREA":" ","LANE":" ","ALLEY":" ","HOUSE_NO":"７７號五樓之２","E_COORD97":167976.97,"N_COORD97":2542680.1000000001,"ADDRESS":"永福路一段７７號五樓之２","OBJECTID":344731},"geometry":{"x":167976.96999999974,"y":2542680.0999999996}},{"attributes":{"ID":344741,"DIS_CODE":0,"TOWNNAME":"佳里區","LI":"龍安里","LIN":"5鄰","STREET":" ","SECT":" ","MAREA":"塭子內","LANE":" ","ALLEY":" ","HOUSE_NO":"６０號","E_COORD97":164592.07000000001,"N_COORD97":2558345.71,"ADDRESS":"塭子內６０號","OBJECTID":344732},"geometry":{"x":164592.0700000003,"y":2558345.7100000028}},{"attributes":{"ID":344742,"DIS_CODE":0,"TOWNNAME":"佳里區","LI":"溪州里","LIN":"5鄰","STREET":" ","SECT":" ","MAREA":"溪州","LANE":" ","ALLEY":" ","HOUSE_NO":"４５號之１","E_COORD97":166487.54000000001,"N_COORD97":2567321.2000000002,"ADDRESS":"溪州４５號之１","OBJECTID":344733},"geometry":{"x":166487.54000000097,"y":2567321.2000000011}},{"attributes":{"ID":344743,"DIS_CODE":0,"TOWNNAME":"佳里區","LI":"溪州里","LIN":"5鄰","STREET":" ","SECT":" ","MAREA":"溪州","LANE":" ","ALLEY":" ","HOUSE_NO":"４５號之２","E_COORD97":166540.63,"N_COORD97":2567291.3900000001,"ADDRESS":"溪州４５號之２","OBJECTID":344734},"geometry":{"x":166540.62999999989,"y":2567291.3900000025}},{"attributes":{"ID":344744,"DIS_CODE":0,"TOWNNAME":"佳里區","LI":"溪州里","LIN":"5鄰","STREET":" ","SECT":" ","MAREA":"溪州","LANE":" ","ALLEY":" ","HOUSE_NO":"４５號之３","E_COORD97":166442.70000000001,"N_COORD97":2567308.8199999998,"ADDRESS":"溪州４５號之３","OBJECTID":344735},"geometry":{"x":166442.70000000112,"y":2567308.8200000022}},{"attributes":{"ID":344745,"DIS_CODE":0,"TOWNNAME":"佳里區","LI":"溪州里","LIN":"5鄰","STREET":" ","SECT":" ","MAREA":"溪州","LANE":" ","ALLEY":" ","HOUSE_NO":"４５號","E_COORD97":166448.10000000001,"N_COORD97":2567314.6600000001,"ADDRESS":"溪州４５號","OBJECTID":344736},"geometry":{"x":166448.10000000056,"y":2567314.6600000001}},{"attributes":{"ID":344746,"DIS_CODE":0,"TOWNNAME":"永康區","LI":"西灣里","LIN":"5鄰","STREET":"大灣五街","SECT":" ","MAREA":" ","LANE":"６９巷","ALLEY":" ","HOUSE_NO":"１２之１號","E_COORD97":174656.29000000001,"N_COORD97":2545242.4700000002,"ADDRESS":"大灣五街６９巷１２之１號","OBJECTID":344737},"geometry":{"x":174656.29000000004,"y":2545242.4700000044}},{"attributes":{"ID":344747,"DIS_CODE":0,"TOWNNAME":"佳里區","LI":"三協里","LIN":"5鄰","STREET":" ","SECT":" ","MAREA":"潭墘","LANE":" ","ALLEY":" ","HOUSE_NO":"１０號之１","E_COORD97":168247.17999999999,"N_COORD97":2563987.96,"ADDRESS":"潭墘１０號之１","OBJECTID":344738},"geometry":{"x":168247.1799999997,"y":2563987.9600000046}},{"attributes":{"ID":344748,"DIS_CODE":0,"TOWNNAME":"中西區","LI":"西賢里","LIN":"31鄰","STREET":"西賢六街","SECT":" ","MAREA":" ","LANE":"１３巷","ALLEY":" ","HOUSE_NO":"１８號","E_COORD97":165017.82999999999,"N_COORD97":2544664.75,"ADDRESS":"西賢六街１３巷１８號","OBJECTID":344739},"geometry":{"x":165017.83000000101,"y":2544664.7500000019}},{"attributes":{"ID":344749,"DIS_CODE":0,"TOWNNAME":"中西區","LI":"西賢里","LIN":"31鄰","STREET":"西賢六街","SECT":" ","MAREA":" ","LANE":"１３巷","ALLEY":" ","HOUSE_NO":"１９號","E_COORD97":165010.5,"N_COORD97":2544644.6899999999,"ADDRESS":"西賢六街１３巷１９號","OBJECTID":344740},"geometry":{"x":165010.5,"y":2544644.6899999995}},{"attributes":{"ID":344750,"DIS_CODE":0,"TOWNNAME":"佳里區","LI":"三協里","LIN":"5鄰","STREET":" ","SECT":" ","MAREA":"潭墘","LANE":" ","ALLEY":" ","HOUSE_NO":"１０號","E_COORD97":168237.19,"N_COORD97":2563997.6400000001,"ADDRESS":"潭墘１０號","OBJECTID":344741},"geometry":{"x":168237.19000000041,"y":2563997.6400000025}},{"attributes":{"ID":344751,"DIS_CODE":0,"TOWNNAME":"中西區","LI":"西賢里","LIN":"31鄰","STREET":"西賢六街","SECT":" ","MAREA":" ","LANE":"１３巷","ALLEY":" ","HOUSE_NO":"２０號","E_COORD97":165013.94,"N_COORD97":2544665.46,"ADDRESS":"西賢六街１３巷２０號","OBJECTID":344742},"geometry":{"x":165013.94000000134,"y":2544665.4600000009}},{"attributes":{"ID":344752,"DIS_CODE":0,"TOWNNAME":"中西區","LI":"西賢里","LIN":"31鄰","STREET":"西賢六街","SECT":" ","MAREA":" ","LANE":"１３巷","ALLEY":" ","HOUSE_NO":"２１號","E_COORD97":164991.37,"N_COORD97":2544665.1899999999,"ADDRESS":"西賢六街１３巷２１號","OBJECTID":344743},"geometry":{"x":164991.37000000011,"y":2544665.1899999995}},{"attributes":{"ID":344753,"DIS_CODE":0,"TOWNNAME":"中西區","LI":"西賢里","LIN":"31鄰","STREET":"西賢六街","SECT":" ","MAREA":" ","LANE":"１３巷","ALLEY":" ","HOUSE_NO":"２２號","E_COORD97":165009.82000000001,"N_COORD97":2544666.1600000001,"ADDRESS":"西賢六街１３巷２２號","OBJECTID":344744},"geometry":{"x":165009.82000000123,"y":2544666.1600000001}},{"attributes":{"ID":344754,"DIS_CODE":0,"TOWNNAME":"中西區","LI":"西賢里","LIN":"31鄰","STREET":"西賢六街","SECT":" ","MAREA":" ","LANE":"１３巷","ALLEY":" ","HOUSE_NO":"２號","E_COORD97":165044.42999999999,"N_COORD97":2544660.2799999998,"ADDRESS":"西賢六街１３巷２號","OBJECTID":344745},"geometry":{"x":165044.4299999997,"y":2544660.2800000012}},{"attributes":{"ID":344755,"DIS_CODE":0,"TOWNNAME":"佳里區","LI":"三協里","LIN":"5鄰","STREET":" ","SECT":" ","MAREA":"潭墘","LANE":" ","ALLEY":" ","HOUSE_NO":"１１號","E_COORD97":168292.22,"N_COORD97":2563990.9900000002,"ADDRESS":"潭墘１１號","OBJECTID":344746},"geometry":{"x":168292.21999999974,"y":2563990.9900000021}},{"attributes":{"ID":344756,"DIS_CODE":0,"TOWNNAME":"佳里區","LI":"三協里","LIN":"5鄰","STREET":" ","SECT":" ","MAREA":"潭墘","LANE":" ","ALLEY":" ","HOUSE_NO":"１２號","E_COORD97":168390.98000000001,"N_COORD97":2564065.3999999999,"ADDRESS":"潭墘１２號","OBJECTID":344747},"geometry":{"x":168390.98000000138,"y":2564065.4000000004}},{"attributes":{"ID":344757,"DIS_CODE":0,"TOWNNAME":"佳里區","LI":"三協里","LIN":"5鄰","STREET":" ","SECT":" ","MAREA":"潭墘","LANE":" ","ALLEY":" ","HOUSE_NO":"１號之１","E_COORD97":168183.32999999999,"N_COORD97":2564014.4300000002,"ADDRESS":"潭墘１號之１","OBJECTID":344748},"geometry":{"x":168183.33000000007,"y":2564014.4300000016}},{"attributes":{"ID":344758,"DIS_CODE":0,"TOWNNAME":"中西區","LI":"西賢里","LIN":"31鄰","STREET":"西賢六街","SECT":" ","MAREA":" ","LANE":"１３巷","ALLEY":" ","HOUSE_NO":"３號","E_COORD97":165036.73999999999,"N_COORD97":2544639.4500000002,"ADDRESS":"西賢六街１３巷３號","OBJECTID":344749},"geometry":{"x":165036.73999999929,"y":2544639.4499999993}},{"attributes":{"ID":344759,"DIS_CODE":0,"TOWNNAME":"中西區","LI":"西賢里","LIN":"31鄰","STREET":"西賢六街","SECT":" ","MAREA":" ","LANE":"１３巷","ALLEY":" ","HOUSE_NO":"５號","E_COORD97":165032.17000000001,"N_COORD97":2544640.9700000002,"ADDRESS":"西賢六街１３巷５號","OBJECTID":344750},"geometry":{"x":165032.17000000086,"y":2544640.9700000007}},{"attributes":{"ID":344760,"DIS_CODE":0,"TOWNNAME":"中西區","LI":"西賢里","LIN":"31鄰","STREET":"西賢六街","SECT":" ","MAREA":" ","LANE":"１３巷","ALLEY":" ","HOUSE_NO":"６號","E_COORD97":165039.72,"N_COORD97":2544661.7000000002,"ADDRESS":"西賢六街１３巷６號","OBJECTID":344751},"geometry":{"x":165039.71999999881,"y":2544661.6999999993}},{"attributes":{"ID":344761,"DIS_CODE":0,"TOWNNAME":"楠西區","LI":"楠西里","LIN":" ","STREET":"中興路","SECT":" ","MAREA":" ","LANE":"７７巷","ALLEY":" ","HOUSE_NO":"１５號","E_COORD97":197157.16,"N_COORD97":2564415.25,"ADDRESS":"中興路７７巷１５號","OBJECTID":344752},"geometry":{"x":197157.16000000015,"y":2564415.25}},{"attributes":{"ID":344762,"DIS_CODE":0,"TOWNNAME":"中西區","LI":"仙草里","LIN":"8鄰","STREET":"永福路","SECT":"一段","MAREA":" ","LANE":" ","ALLEY":" ","HOUSE_NO":"７７號七樓之１","E_COORD97":167976.97,"N_COORD97":2542680.1000000001,"ADDRESS":"永福路一段７７號七樓之１","OBJECTID":344753},"geometry":{"x":167976.96999999974,"y":2542680.0999999996}},{"attributes":{"ID":344763,"DIS_CODE":0,"TOWNNAME":"永康區","LI":"東灣里","LIN":"5鄰","STREET":"大灣路","SECT":" ","MAREA":" ","LANE":"４３６巷","ALLEY":" ","HOUSE_NO":"２４號","E_COORD97":174678.64999999999,"N_COORD97":2545027.0800000001,"ADDRESS":"大灣路４３６巷２４號","OBJECTID":344754},"geometry":{"x":174678.6500000013,"y":2545027.0799999982}},{"attributes":{"ID":344764,"DIS_CODE":0,"TOWNNAME":"永康區","LI":"東橋里","LIN":"5鄰","STREET":"中山南路","SECT":" ","MAREA":" ","LANE":"１９５巷","ALLEY":" ","HOUSE_NO":"３２之１號","E_COORD97":171474.70999999999,"N_COORD97":2546392.6800000002,"ADDRESS":"中山南路１９５巷３２之１號","OBJECTID":344755},"geometry":{"x":171474.70999999996,"y":2546392.6800000034}},{"attributes":{"ID":344765,"DIS_CODE":0,"TOWNNAME":"中西區","LI":"西賢里","LIN":"31鄰","STREET":"西賢六街","SECT":" ","MAREA":" ","LANE":"１３巷","ALLEY":" ","HOUSE_NO":"７號","E_COORD97":165033.01000000001,"N_COORD97":2544629.7400000002,"ADDRESS":"西賢六街１３巷７號","OBJECTID":344756},"geometry":{"x":165033.01000000071,"y":2544629.7400000039}},{"attributes":{"ID":344766,"DIS_CODE":0,"TOWNNAME":"麻豆區","LI":"小埤里","LIN":"5鄰","STREET":" ","SECT":" ","MAREA":"小埤頭","LANE":" ","ALLEY":" ","HOUSE_NO":"３０號之５","E_COORD97":171536.06,"N_COORD97":2566055.3100000001,"ADDRESS":"小埤頭３０號之５","OBJECTID":344757},"geometry":{"x":171536.05999999959,"y":2566055.3100000005}},{"attributes":{"ID":344767,"DIS_CODE":0,"TOWNNAME":"中西區","LI":"西賢里","LIN":"31鄰","STREET":"西賢六街","SECT":" ","MAREA":" ","LANE":"１３巷","ALLEY":" ","HOUSE_NO":"８號","E_COORD97":165036.54000000001,"N_COORD97":2544661.8100000001,"ADDRESS":"西賢六街１３巷８號","OBJECTID":344758},"geometry":{"x":165036.54000000097,"y":2544661.8100000005}},{"attributes":{"ID":344768,"DIS_CODE":0,"TOWNNAME":"佳里區","LI":"鎮山里","LIN":"5鄰","STREET":" ","SECT":" ","MAREA":"鎮山","LANE":" ","ALLEY":" ","HOUSE_NO":"３５號之１","E_COORD97":166045.94,"N_COORD97":2561835.3599999999,"ADDRESS":"鎮山３５號之１","OBJECTID":344759},"geometry":{"x":166045.94000000227,"y":2561835.3600000013}},{"attributes":{"ID":344769,"DIS_CODE":0,"TOWNNAME":"佳里區","LI":"鎮山里","LIN":"5鄰","STREET":" ","SECT":" ","MAREA":"鎮山","LANE":" ","ALLEY":" ","HOUSE_NO":"３７號","E_COORD97":166046.17000000001,"N_COORD97":2561871.04,"ADDRESS":"鎮山３７號","OBJECTID":344760},"geometry":{"x":166046.17000000086,"y":2561871.040000001}},{"attributes":{"ID":344770,"DIS_CODE":0,"TOWNNAME":"中西區","LI":"西賢里","LIN":"31鄰","STREET":"西賢六街","SECT":" ","MAREA":" ","LANE":"１３巷","ALLEY":" ","HOUSE_NO":"９號","E_COORD97":165033.85999999999,"N_COORD97":2544622.2999999998,"ADDRESS":"西賢六街１３巷９號","OBJECTID":344761},"geometry":{"x":165033.86000000034,"y":2544622.3000000007}},{"attributes":{"ID":344771,"DIS_CODE":0,"TOWNNAME":"佳里區","LI":"鎮山里","LIN":"5鄰","STREET":" ","SECT":" ","MAREA":"鎮山","LANE":" ","ALLEY":" ","HOUSE_NO":"３８號之１","E_COORD97":166106.97,"N_COORD97":2561904.6899999999,"ADDRESS":"鎮山３８號之１","OBJECTID":344762},"geometry":{"x":166106.96999999974,"y":2561904.6900000013}},{"attributes":{"ID":344772,"DIS_CODE":0,"TOWNNAME":"佳里區","LI":"鎮山里","LIN":"5鄰","STREET":" ","SECT":" ","MAREA":"鎮山","LANE":" ","ALLEY":" ","HOUSE_NO":"３８號","E_COORD97":166109.70000000001,"N_COORD97":2561911.7000000002,"ADDRESS":"鎮山３８號","OBJECTID":344763},"geometry":{"x":166109.70000000019,"y":2561911.6999999993}},{"attributes":{"ID":344773,"DIS_CODE":0,"TOWNNAME":"永康區","LI":"埔園里","LIN":"31鄰","STREET":"八德街","SECT":" ","MAREA":" ","LANE":"１４０巷","ALLEY":" ","HOUSE_NO":"９６號","E_COORD97":174007.34,"N_COORD97":2548692.4100000001,"ADDRESS":"八德街１４０巷９６號","OBJECTID":344764},"geometry":{"x":174007.34000000078,"y":2548692.4100000001}},{"attributes":{"ID":344774,"DIS_CODE":0,"TOWNNAME":"佳里區","LI":"鎮山里","LIN":"5鄰","STREET":" ","SECT":" ","MAREA":"鎮山","LANE":" ","ALLEY":" ","HOUSE_NO":"３９號","E_COORD97":166022.19,"N_COORD97":2561847.2000000002,"ADDRESS":"鎮山３９號","OBJECTID":344765},"geometry":{"x":166022.18999999948,"y":2561847.1999999993}},{"attributes":{"ID":344775,"DIS_CODE":0,"TOWNNAME":"佳里區","LI":"鎮山里","LIN":"5鄰","STREET":" ","SECT":" ","MAREA":"鎮山","LANE":" ","ALLEY":" ","HOUSE_NO":"４１號","E_COORD97":166140.67999999999,"N_COORD97":2561851.4199999999,"ADDRESS":"鎮山４１號","OBJECTID":344766},"geometry":{"x":166140.68000000063,"y":2561851.4200000037}},{"attributes":{"ID":344776,"DIS_CODE":0,"TOWNNAME":"永康區","LI":"埔園里","LIN":"31鄰","STREET":"八德街","SECT":" ","MAREA":" ","LANE":"２３０巷","ALLEY":" ","HOUSE_NO":"６０號","E_COORD97":173807.51000000001,"N_COORD97":2548676.6600000001,"ADDRESS":"八德街２３０巷６０號","OBJECTID":344767},"geometry":{"x":173807.51000000071,"y":2548676.6600000001}},{"attributes":{"ID":344777,"DIS_CODE":0,"TOWNNAME":"麻豆區","LI":"小埤里","LIN":"5鄰","STREET":" ","SECT":" ","MAREA":"小埤頭","LANE":" ","ALLEY":" ","HOUSE_NO":"３０號之６","E_COORD97":171540.14000000001,"N_COORD97":2566055.5899999999,"ADDRESS":"小埤頭３０號之６","OBJECTID":344768},"geometry":{"x":171540.1400000006,"y":2566055.5900000017}},{"attributes":{"ID":344778,"DIS_CODE":0,"TOWNNAME":"佳里區","LI":"子龍里","LIN":"5鄰","STREET":" ","SECT":" ","MAREA":"子良廟","LANE":" ","ALLEY":" ","HOUSE_NO":"５４號","E_COORD97":168787.81,"N_COORD97":2563892.0600000001,"ADDRESS":"子良廟５４號","OBJECTID":344769},"geometry":{"x":168787.81000000052,"y":2563892.0600000042}},{"attributes":{"ID":344779,"DIS_CODE":0,"TOWNNAME":"麻豆區","LI":"小埤里","LIN":"5鄰","STREET":" ","SECT":" ","MAREA":"小埤頭","LANE":" ","ALLEY":" ","HOUSE_NO":"３０號之７","E_COORD97":171544.22,"N_COORD97":2566055.8599999999,"ADDRESS":"小埤頭３０號之７","OBJECTID":344770},"geometry":{"x":171544.2200000016,"y":2566055.8600000013}},{"attributes":{"ID":344780,"DIS_CODE":0,"TOWNNAME":"山上區","LI":"南洲里","LIN":"5鄰","STREET":" ","SECT":" ","MAREA":"南洲","LANE":" ","ALLEY":" ","HOUSE_NO":"１８０號","E_COORD97":183808.14000000001,"N_COORD97":2555632.25,"ADDRESS":"南洲１８０號","OBJECTID":344771},"geometry":{"x":183808.1400000006,"y":2555632.2500000019}},{"attributes":{"ID":344781,"DIS_CODE":0,"TOWNNAME":"山上區","LI":"明和里","LIN":"5鄰","STREET":" ","SECT":" ","MAREA":"明和","LANE":" ","ALLEY":" ","HOUSE_NO":"１４１號","E_COORD97":183192.44,"N_COORD97":2556119.25,"ADDRESS":"明和１４１號","OBJECTID":344772},"geometry":{"x":183192.44000000041,"y":2556119.2499999981}},{"attributes":{"ID":344782,"DIS_CODE":0,"TOWNNAME":"山上區","LI":"明和里","LIN":"5鄰","STREET":" ","SECT":" ","MAREA":"明和","LANE":" ","ALLEY":" ","HOUSE_NO":"１３９之１號","E_COORD97":183141.84,"N_COORD97":2556113.2999999998,"ADDRESS":"明和１３９之１號","OBJECTID":344773},"geometry":{"x":183141.83999999985,"y":2556113.3000000045}},{"attributes":{"ID":344783,"DIS_CODE":0,"TOWNNAME":"中西區","LI":"仙草里","LIN":"8鄰","STREET":"永福路","SECT":"一段","MAREA":" ","LANE":" ","ALLEY":" ","HOUSE_NO":"７７號七樓之２","E_COORD97":167976.97,"N_COORD97":2542680.1000000001,"ADDRESS":"永福路一段７７號七樓之２","OBJECTID":344774},"geometry":{"x":167976.96999999974,"y":2542680.0999999996}},{"attributes":{"ID":344784,"DIS_CODE":0,"TOWNNAME":"中西區","LI":"仙草里","LIN":"8鄰","STREET":"永福路","SECT":"一段","MAREA":" ","LANE":" ","ALLEY":" ","HOUSE_NO":"７７號三樓之１","E_COORD97":167976.97,"N_COORD97":2542680.1000000001,"ADDRESS":"永福路一段７７號三樓之１","OBJECTID":344775},"geometry":{"x":167976.96999999974,"y":2542680.0999999996}},{"attributes":{"ID":344785,"DIS_CODE":0,"TOWNNAME":"永康區","LI":"烏竹里","LIN":"5鄰","STREET":"烏竹街","SECT":" ","MAREA":" ","LANE":" ","ALLEY":" ","HOUSE_NO":"５４號","E_COORD97":174520.91,"N_COORD97":2549336.75,"ADDRESS":"烏竹街５４號","OBJECTID":344776},"geometry":{"x":174520.91000000108,"y":2549336.7500000019}},{"attributes":{"ID":344786,"DIS_CODE":0,"TOWNNAME":"安南區","LI":"總頭里","LIN":"10鄰","STREET":"本原街","SECT":"一段","MAREA":" ","LANE":"２５０巷","ALLEY":" ","HOUSE_NO":"３６號","E_COORD97":167794.88,"N_COORD97":2550577.8799999999,"ADDRESS":"本原街一段２５０巷３６號","OBJECTID":344777},"geometry":{"x":167794.87999999989,"y":2550577.8800000008}},{"attributes":{"ID":344787,"DIS_CODE":0,"TOWNNAME":"永康區","LI":"埔園里","LIN":"31鄰","STREET":"八德街","SECT":" ","MAREA":" ","LANE":"２３０巷","ALLEY":" ","HOUSE_NO":"６２號","E_COORD97":173810.45000000001,"N_COORD97":2548681.2200000002,"ADDRESS":"八德街２３０巷６２號","OBJECTID":344778},"geometry":{"x":173810.45000000112,"y":2548681.2200000007}},{"attributes":{"ID":344788,"DIS_CODE":0,"TOWNNAME":"永康區","LI":"埔園里","LIN":"31鄰","STREET":"八德街","SECT":" ","MAREA":" ","LANE":"２３０巷","ALLEY":" ","HOUSE_NO":"６６號","E_COORD97":173810.98999999999,"N_COORD97":2548685.3500000001,"ADDRESS":"八德街２３０巷６６號","OBJECTID":344779},"geometry":{"x":173810.98999999929,"y":2548685.3499999996}},{"attributes":{"ID":344789,"DIS_CODE":0,"TOWNNAME":"永康區","LI":"埔園里","LIN":"31鄰","STREET":"八德街","SECT":" ","MAREA":" ","LANE":"２３０巷","ALLEY":" ","HOUSE_NO":"６８號","E_COORD97":173811.54000000001,"N_COORD97":2548689.48,"ADDRESS":"八德街２３０巷６８號","OBJECTID":344780},"geometry":{"x":173811.54000000004,"y":2548689.4800000004}},{"attributes":{"ID":344790,"DIS_CODE":0,"TOWNNAME":"永康區","LI":"埔園里","LIN":"31鄰","STREET":"八德街","SECT":" ","MAREA":" ","LANE":"２３０巷","ALLEY":" ","HOUSE_NO":"７０號","E_COORD97":173812.09,"N_COORD97":2548693.6099999999,"ADDRESS":"八德街２３０巷７０號","OBJECTID":344781},"geometry":{"x":173812.09000000078,"y":2548693.6099999994}},{"attributes":{"ID":344791,"DIS_CODE":0,"TOWNNAME":"永康區","LI":"埔園里","LIN":"31鄰","STREET":"八德街","SECT":" ","MAREA":" ","LANE":"２３０巷","ALLEY":" ","HOUSE_NO":"７２號","E_COORD97":173817.78,"N_COORD97":2548696.04,"ADDRESS":"八德街２３０巷７２號","OBJECTID":344782},"geometry":{"x":173817.78000000212,"y":2548696.040000001}},{"attributes":{"ID":344792,"DIS_CODE":0,"TOWNNAME":"佳里區","LI":"鎮山里","LIN":"1鄰","STREET":"四安街","SECT":" ","MAREA":" ","LANE":" ","ALLEY":" ","HOUSE_NO":"４３號","E_COORD97":165846.04999999999,"N_COORD97":2561836.4300000002,"ADDRESS":"四安街４３號","OBJECTID":344783},"geometry":{"x":165846.04999999981,"y":2561836.4299999997}},{"attributes":{"ID":344793,"DIS_CODE":0,"TOWNNAME":"永康區","LI":"埔園里","LIN":"31鄰","STREET":"八德街","SECT":" ","MAREA":" ","LANE":"２３０巷","ALLEY":" ","HOUSE_NO":"７６號","E_COORD97":173813.17999999999,"N_COORD97":2548701.8700000001,"ADDRESS":"八德街２３０巷７６號","OBJECTID":344784},"geometry":{"x":173813.18000000063,"y":2548701.8700000029}},{"attributes":{"ID":344794,"DIS_CODE":0,"TOWNNAME":"永康區","LI":"埔園里","LIN":"31鄰","STREET":"八德街","SECT":" ","MAREA":" ","LANE":"２３０巷","ALLEY":" ","HOUSE_NO":"７８號","E_COORD97":173813.72,"N_COORD97":2548706.0099999998,"ADDRESS":"八德街２３０巷７８號","OBJECTID":344785},"geometry":{"x":173813.71999999974,"y":2548706.0100000035}},{"attributes":{"ID":344795,"DIS_CODE":0,"TOWNNAME":"永康區","LI":"埔園里","LIN":"31鄰","STREET":"八德街","SECT":" ","MAREA":" ","LANE":"２３０巷","ALLEY":" ","HOUSE_NO":"８０號","E_COORD97":173814.26999999999,"N_COORD97":2548710.1400000001,"ADDRESS":"八德街２３０巷８０號","OBJECTID":344786},"geometry":{"x":173814.27000000048,"y":2548710.1400000025}},{"attributes":{"ID":344796,"DIS_CODE":0,"TOWNNAME":"永康區","LI":"埔園里","LIN":"31鄰","STREET":"八德街","SECT":" ","MAREA":" ","LANE":"２３０巷","ALLEY":" ","HOUSE_NO":"８２號","E_COORD97":173812.60999999999,"N_COORD97":2548714.7799999998,"ADDRESS":"八德街２３０巷８２號","OBJECTID":344787},"geometry":{"x":173812.61000000127,"y":2548714.7800000012}},{"attributes":{"ID":344797,"DIS_CODE":0,"TOWNNAME":"東區","LI":"大同里","LIN":"31鄰","STREET":"大同路","SECT":"一段","MAREA":" ","LANE":"１７５巷","ALLEY":" ","HOUSE_NO":"１８４號","E_COORD97":169340.39999999999,"N_COORD97":2542561.04,"ADDRESS":"大同路一段１７５巷１８４號","OBJECTID":344788},"geometry":{"x":169340.4000000013,"y":2542561.0399999991}},{"attributes":{"ID":344798,"DIS_CODE":0,"TOWNNAME":"東區","LI":"大同里","LIN":"31鄰","STREET":"大同路","SECT":"一段","MAREA":" ","LANE":"１７５巷","ALLEY":" ","HOUSE_NO":"１８６號","E_COORD97":169337.82000000001,"N_COORD97":2542563.73,"ADDRESS":"大同路一段１７５巷１８６號","OBJECTID":344789},"geometry":{"x":169337.82000000123,"y":2542563.7300000004}},{"attributes":{"ID":344799,"DIS_CODE":0,"TOWNNAME":"永康區","LI":"五王里","LIN":"31鄰","STREET":"五福街","SECT":" ","MAREA":" ","LANE":"９巷","ALLEY":" ","HOUSE_NO":"１號","E_COORD97":171263.89999999999,"N_COORD97":2545879.23,"ADDRESS":"五福街９巷１號","OBJECTID":344790},"geometry":{"x":171263.89999999944,"y":2545879.2300000023}},{"attributes":{"ID":344800,"DIS_CODE":0,"TOWNNAME":"永康區","LI":"北灣里","LIN":"31鄰","STREET":"大同街","SECT":" ","MAREA":" ","LANE":"３３巷","ALLEY":" ","HOUSE_NO":"２０號","E_COORD97":175251.45000000001,"N_COORD97":2545345.3100000001,"ADDRESS":"大同街３３巷２０號","OBJECTID":344791},"geometry":{"x":175251.45000000019,"y":2545345.3100000024}},{"attributes":{"ID":344801,"DIS_CODE":0,"TOWNNAME":"永康區","LI":"北灣里","LIN":"31鄰","STREET":"大同街","SECT":" ","MAREA":" ","LANE":"３３巷","ALLEY":" ","HOUSE_NO":"６號","E_COORD97":175251.42999999999,"N_COORD97":2545392.25,"ADDRESS":"大同街３３巷６號","OBJECTID":344792},"geometry":{"x":175251.4299999997,"y":2545392.2500000037}},{"attributes":{"ID":344802,"DIS_CODE":0,"TOWNNAME":"永康區","LI":"正強里","LIN":"31鄰","STREET":"自強路","SECT":" ","MAREA":" ","LANE":"２５５巷","ALLEY":" ","HOUSE_NO":"３６號","E_COORD97":173155.95000000001,"N_COORD97":2547615.7400000002,"ADDRESS":"自強路２５５巷３６號","OBJECTID":344793},"geometry":{"x":173155.95000000112,"y":2547615.7400000002}},{"attributes":{"ID":344803,"DIS_CODE":0,"TOWNNAME":"永康區","LI":"西灣里","LIN":"31鄰","STREET":"公園路","SECT":" ","MAREA":" ","LANE":"１１７巷","ALLEY":" ","HOUSE_NO":"１７號","E_COORD97":174185.88,"N_COORD97":2545899.4900000002,"ADDRESS":"公園路１１７巷１７號","OBJECTID":344794},"geometry":{"x":174185.87999999989,"y":2545899.4900000039}},{"attributes":{"ID":344804,"DIS_CODE":0,"TOWNNAME":"永康區","LI":"埔園里","LIN":"31鄰","STREET":"八德街","SECT":" ","MAREA":" ","LANE":"１９６巷","ALLEY":" ","HOUSE_NO":"２號","E_COORD97":173896.29000000001,"N_COORD97":2548570.0099999998,"ADDRESS":"八德街１９６巷２號","OBJECTID":344795},"geometry":{"x":173896.29000000004,"y":2548570.0099999998}},{"attributes":{"ID":344805,"DIS_CODE":0,"TOWNNAME":"中西區","LI":"西湖里","LIN":"31鄰","STREET":"湖美二街","SECT":" ","MAREA":" ","LANE":"１０６巷","ALLEY":" ","HOUSE_NO":"５７號","E_COORD97":166265.23000000001,"N_COORD97":2544856.23,"ADDRESS":"湖美二街１０６巷５７號","OBJECTID":344796},"geometry":{"x":166265.23000000138,"y":2544856.2300000004}},{"attributes":{"ID":344806,"DIS_CODE":0,"TOWNNAME":"中西區","LI":"西湖里","LIN":"31鄰","STREET":"湖美二街","SECT":" ","MAREA":" ","LANE":"１０６巷","ALLEY":" ","HOUSE_NO":"５９號","E_COORD97":166267.92999999999,"N_COORD97":2544856.0699999998,"ADDRESS":"湖美二街１０６巷５９號","OBJECTID":344797},"geometry":{"x":166267.93000000063,"y":2544856.0700000022}},{"attributes":{"ID":344807,"DIS_CODE":0,"TOWNNAME":"中西區","LI":"西湖里","LIN":"31鄰","STREET":"湖美二街","SECT":" ","MAREA":" ","LANE":"１０６巷","ALLEY":" ","HOUSE_NO":"６１號","E_COORD97":166270.95000000001,"N_COORD97":2544855.9100000001,"ADDRESS":"湖美二街１０６巷６１號","OBJECTID":344798},"geometry":{"x":166270.95000000019,"y":2544855.9100000039}},{"attributes":{"ID":344808,"DIS_CODE":0,"TOWNNAME":"中西區","LI":"西湖里","LIN":"31鄰","STREET":"湖美二街","SECT":" ","MAREA":" ","LANE":"１０６巷","ALLEY":" ","HOUSE_NO":"６３號","E_COORD97":166273.95999999999,"N_COORD97":2544855.6000000001,"ADDRESS":"湖美二街１０６巷６３號","OBJECTID":344799},"geometry":{"x":166273.95999999996,"y":2544855.5999999996}},{"attributes":{"ID":344809,"DIS_CODE":0,"TOWNNAME":"中西區","LI":"西湖里","LIN":"31鄰","STREET":"湖美二街","SECT":" ","MAREA":" ","LANE":"１０６巷","ALLEY":" ","HOUSE_NO":"６５號","E_COORD97":166276.98000000001,"N_COORD97":2544855.4399999999,"ADDRESS":"湖美二街１０６巷６５號","OBJECTID":344800},"geometry":{"x":166276.98000000138,"y":2544855.4400000013}}]}