{"displayFieldName":"TOWNNAME","fieldAliases":{"ID":"ID","DIS_CODE":"DIS_CODE","TOWNNAME":"TOWNNAME","LI":"LI","LIN":"LIN","STREET":"STREET","SECT":"SECT","MAREA":"MAREA","LANE":"LANE","ALLEY":"ALLEY","HOUSE_NO":"HOUSE_NO","E_COORD97":"E_COORD97","N_COORD97":"N_COORD97","ADDRESS":"ADDRESS","OBJECTID":"OBJECTID"},"geometryType":"esriGeometryPoint","spatialReference":{"wkid":102443,"latestWkid":3826},"fields":[{"name":"ID","type":"esriFieldTypeDouble","alias":"ID"},{"name":"DIS_CODE","type":"esriFieldTypeInteger","alias":"DIS_CODE"},{"name":"TOWNNAME","type":"esriFieldTypeString","alias":"TOWNNAME","length":8},{"name":"LI","type":"esriFieldTypeString","alias":"LI","length":8},{"name":"LIN","type":"esriFieldTypeString","alias":"LIN","length":12},{"name":"STREET","type":"esriFieldTypeString","alias":"STREET","length":20},{"name":"SECT","type":"esriFieldTypeString","alias":"SECT","length":8},{"name":"MAREA","type":"esriFieldTypeString","alias":"MAREA","length":12},{"name":"LANE","type":"esriFieldTypeString","alias":"LANE","length":10},{"name":"ALLEY","type":"esriFieldTypeString","alias":"ALLEY","length":10},{"name":"HOUSE_NO","type":"esriFieldTypeString","alias":"HOUSE_NO","length":20},{"name":"E_COORD97","type":"esriFieldTypeDouble","alias":"E_COORD97"},{"name":"N_COORD97","type":"esriFieldTypeDouble","alias":"N_COORD97"},{"name":"ADDRESS","type":"esriFieldTypeString","alias":"ADDRESS","length":50},{"name":"OBJECTID","type":"esriFieldTypeOID","alias":"OBJECTID"}],"features":[{"attributes":{"ID":133601,"DIS_CODE":0,"TOWNNAME":"北區","LI":"興南里","LIN":"11鄰","STREET":"西門路","SECT":"四段","MAREA":" ","LANE":"１６巷","ALLEY":"３１弄","HOUSE_NO":"１４６號","E_COORD97":168957.92999999999,"N_COORD97":2545186.5,"ADDRESS":"西門路四段１６巷３１弄１４６號","OBJECTID":133601},"geometry":{"x":168957.93000000063,"y":2545186.5}},{"attributes":{"ID":133602,"DIS_CODE":0,"TOWNNAME":"北區","LI":"興南里","LIN":"11鄰","STREET":"西門路","SECT":"四段","MAREA":" ","LANE":"１６巷","ALLEY":"３１弄","HOUSE_NO":"１４８號","E_COORD97":168966.19,"N_COORD97":2545186.3399999999,"ADDRESS":"西門路四段１６巷３１弄１４８號","OBJECTID":133602},"geometry":{"x":168966.19000000041,"y":2545186.3400000017}},{"attributes":{"ID":133603,"DIS_CODE":0,"TOWNNAME":"北區","LI":"興南里","LIN":"11鄰","STREET":"西門路","SECT":"四段","MAREA":" ","LANE":"１６巷","ALLEY":"３１弄","HOUSE_NO":"１５０號","E_COORD97":168975.07999999999,"N_COORD97":2545186.0299999998,"ADDRESS":"西門路四段１６巷３１弄１５０號","OBJECTID":133603},"geometry":{"x":168975.08000000007,"y":2545186.0299999975}},{"attributes":{"ID":133604,"DIS_CODE":0,"TOWNNAME":"北區","LI":"興南里","LIN":"11鄰","STREET":"西門路","SECT":"四段","MAREA":" ","LANE":"１６巷","ALLEY":"３１弄","HOUSE_NO":"１５２號","E_COORD97":168983.81,"N_COORD97":2545186.0299999998,"ADDRESS":"西門路四段１６巷３１弄１５２號","OBJECTID":133604},"geometry":{"x":168983.81000000145,"y":2545186.0299999975}},{"attributes":{"ID":133605,"DIS_CODE":0,"TOWNNAME":"北區","LI":"興南里","LIN":"11鄰","STREET":"西門路","SECT":"四段","MAREA":" ","LANE":"１６巷","ALLEY":"３１弄","HOUSE_NO":"１５６號","E_COORD97":168992.06,"N_COORD97":2545186.0299999998,"ADDRESS":"西門路四段１６巷３１弄１５６號","OBJECTID":133605},"geometry":{"x":168992.05999999959,"y":2545186.0299999975}},{"attributes":{"ID":133606,"DIS_CODE":0,"TOWNNAME":"北區","LI":"興南里","LIN":"11鄰","STREET":"西門路","SECT":"四段","MAREA":" ","LANE":"１６巷","ALLEY":"３１弄","HOUSE_NO":"１５８號","E_COORD97":169001.10999999999,"N_COORD97":2545185.71,"ADDRESS":"西門路四段１６巷３１弄１５８號","OBJECTID":133606},"geometry":{"x":169001.1100000022,"y":2545185.7100000009}},{"attributes":{"ID":133607,"DIS_CODE":0,"TOWNNAME":"北區","LI":"興南里","LIN":"11鄰","STREET":"西門路","SECT":"四段","MAREA":" ","LANE":"１６巷","ALLEY":"３１弄","HOUSE_NO":"１６０號","E_COORD97":169001.10999999999,"N_COORD97":2545180.23,"ADDRESS":"西門路四段１６巷３１弄１６０號","OBJECTID":133607},"geometry":{"x":169001.1100000022,"y":2545180.2300000023}},{"attributes":{"ID":133608,"DIS_CODE":0,"TOWNNAME":"北區","LI":"興南里","LIN":"11鄰","STREET":"西門路","SECT":"四段","MAREA":" ","LANE":"１６巷","ALLEY":"３１弄","HOUSE_NO":"１６２號","E_COORD97":169001.42999999999,"N_COORD97":2545176.4199999999,"ADDRESS":"西門路四段１６巷３１弄１６２號","OBJECTID":133608},"geometry":{"x":169001.4299999997,"y":2545176.4199999999}},{"attributes":{"ID":133609,"DIS_CODE":0,"TOWNNAME":"北區","LI":"興南里","LIN":"11鄰","STREET":"西門路","SECT":"四段","MAREA":" ","LANE":"１６巷","ALLEY":"３１弄","HOUSE_NO":"１６６號","E_COORD97":169001.42999999999,"N_COORD97":2545172.29,"ADDRESS":"西門路四段１６巷３１弄１６６號","OBJECTID":133609},"geometry":{"x":169001.4299999997,"y":2545172.290000001}},{"attributes":{"ID":133610,"DIS_CODE":0,"TOWNNAME":"北區","LI":"興南里","LIN":"11鄰","STREET":"西門路","SECT":"四段","MAREA":" ","LANE":"１６巷","ALLEY":"３１弄","HOUSE_NO":"１６８號","E_COORD97":169001.59,"N_COORD97":2545168.25,"ADDRESS":"西門路四段１６巷３１弄１６８號","OBJECTID":133610},"geometry":{"x":169001.59000000078,"y":2545168.2499999981}},{"attributes":{"ID":133611,"DIS_CODE":0,"TOWNNAME":"北區","LI":"興南里","LIN":"11鄰","STREET":"西門路","SECT":"四段","MAREA":" ","LANE":"１６巷","ALLEY":"３１弄","HOUSE_NO":"１７０號","E_COORD97":169001.75,"N_COORD97":2545163.3999999999,"ADDRESS":"西門路四段１６巷３１弄１７０號","OBJECTID":133611},"geometry":{"x":169001.75000000093,"y":2545163.4000000004}},{"attributes":{"ID":133612,"DIS_CODE":0,"TOWNNAME":"北區","LI":"興南里","LIN":"11鄰","STREET":"西門路","SECT":"四段","MAREA":" ","LANE":"１６巷","ALLEY":"３１弄","HOUSE_NO":"１７２號","E_COORD97":169001.91,"N_COORD97":2545158.3999999999,"ADDRESS":"西門路四段１６巷３１弄１７２號","OBJECTID":133612},"geometry":{"x":169001.91000000015,"y":2545158.4000000022}},{"attributes":{"ID":133613,"DIS_CODE":0,"TOWNNAME":"南區","LI":"金華里","LIN":"6鄰","STREET":"聖南街","SECT":" ","MAREA":" ","LANE":" ","ALLEY":" ","HOUSE_NO":"４６號七樓之１","E_COORD97":167021.13,"N_COORD97":2542282.8700000001,"ADDRESS":"聖南街４６號七樓之１","OBJECTID":133613},"geometry":{"x":167021.13000000082,"y":2542282.870000001}},{"attributes":{"ID":133614,"DIS_CODE":0,"TOWNNAME":"南區","LI":"金華里","LIN":"6鄰","STREET":"聖南街","SECT":" ","MAREA":" ","LANE":" ","ALLEY":" ","HOUSE_NO":"４６號二樓之１","E_COORD97":167021.13,"N_COORD97":2542282.8700000001,"ADDRESS":"聖南街４６號二樓之１","OBJECTID":133614},"geometry":{"x":167021.13000000082,"y":2542282.870000001}},{"attributes":{"ID":133615,"DIS_CODE":0,"TOWNNAME":"將軍區","LI":"苓和里","LIN":"5鄰","STREET":" ","SECT":" ","MAREA":"苓和","LANE":" ","ALLEY":" ","HOUSE_NO":"５２號","E_COORD97":164597.03,"N_COORD97":2568979.02,"ADDRESS":"苓和５２號","OBJECTID":133615},"geometry":{"x":164597.03000000026,"y":2568979.0199999996}},{"attributes":{"ID":133616,"DIS_CODE":0,"TOWNNAME":"南區","LI":"金華里","LIN":"6鄰","STREET":"聖南街","SECT":" ","MAREA":" ","LANE":" ","ALLEY":" ","HOUSE_NO":"４６號三樓之１","E_COORD97":167021.13,"N_COORD97":2542282.8700000001,"ADDRESS":"聖南街４６號三樓之１","OBJECTID":133616},"geometry":{"x":167021.13000000082,"y":2542282.870000001}},{"attributes":{"ID":133617,"DIS_CODE":0,"TOWNNAME":"南區","LI":"金華里","LIN":"6鄰","STREET":"聖南街","SECT":" ","MAREA":" ","LANE":" ","ALLEY":" ","HOUSE_NO":"４６號五樓之１","E_COORD97":167021.13,"N_COORD97":2542282.8700000001,"ADDRESS":"聖南街４６號五樓之１","OBJECTID":133617},"geometry":{"x":167021.13000000082,"y":2542282.870000001}},{"attributes":{"ID":133618,"DIS_CODE":0,"TOWNNAME":"南區","LI":"金華里","LIN":"6鄰","STREET":"聖南街","SECT":" ","MAREA":" ","LANE":" ","ALLEY":" ","HOUSE_NO":"４６號六樓之１","E_COORD97":167021.13,"N_COORD97":2542282.8700000001,"ADDRESS":"聖南街４６號六樓之１","OBJECTID":133618},"geometry":{"x":167021.13000000082,"y":2542282.870000001}},{"attributes":{"ID":133619,"DIS_CODE":0,"TOWNNAME":"南區","LI":"金華里","LIN":"6鄰","STREET":"聖南街","SECT":" ","MAREA":" ","LANE":" ","ALLEY":" ","HOUSE_NO":"４６號四樓之１","E_COORD97":167021.13,"N_COORD97":2542282.8700000001,"ADDRESS":"聖南街４６號四樓之１","OBJECTID":133619},"geometry":{"x":167021.13000000082,"y":2542282.870000001}},{"attributes":{"ID":133620,"DIS_CODE":0,"TOWNNAME":"南區","LI":"金華里","LIN":"6鄰","STREET":"聖南街","SECT":" ","MAREA":" ","LANE":" ","ALLEY":" ","HOUSE_NO":"４６號七樓之２","E_COORD97":167007.97,"N_COORD97":2542283.3900000001,"ADDRESS":"聖南街４６號七樓之２","OBJECTID":133620},"geometry":{"x":167007.9700000016,"y":2542283.3900000025}},{"attributes":{"ID":133621,"DIS_CODE":0,"TOWNNAME":"佳里區","LI":"鎮山里","LIN":"23鄰","STREET":"鎮山街","SECT":" ","MAREA":" ","LANE":" ","ALLEY":" ","HOUSE_NO":"４９號","E_COORD97":166314.79000000001,"N_COORD97":2561238.1899999999,"ADDRESS":"鎮山街４９號","OBJECTID":133621},"geometry":{"x":166314.79000000097,"y":2561238.1899999995}},{"attributes":{"ID":133622,"DIS_CODE":0,"TOWNNAME":"佳里區","LI":"鎮山里","LIN":"23鄰","STREET":"鎮山街","SECT":" ","MAREA":" ","LANE":" ","ALLEY":" ","HOUSE_NO":"５５號","E_COORD97":166311.98999999999,"N_COORD97":2561219.8300000001,"ADDRESS":"鎮山街５５號","OBJECTID":133622},"geometry":{"x":166311.99000000115,"y":2561219.8300000001}},{"attributes":{"ID":133623,"DIS_CODE":0,"TOWNNAME":"佳里區","LI":"鎮山里","LIN":"23鄰","STREET":"鎮山街","SECT":" ","MAREA":" ","LANE":" ","ALLEY":" ","HOUSE_NO":"５７號","E_COORD97":166312.09,"N_COORD97":2561216.3599999999,"ADDRESS":"鎮山街５７號","OBJECTID":133623},"geometry":{"x":166312.08999999985,"y":2561216.3599999994}},{"attributes":{"ID":133624,"DIS_CODE":0,"TOWNNAME":"北區","LI":"興南里","LIN":"11鄰","STREET":"西門路","SECT":"四段","MAREA":" ","LANE":"１６巷","ALLEY":"３１弄","HOUSE_NO":"１７６號","E_COORD97":169002.06,"N_COORD97":2545153.5600000001,"ADDRESS":"西門路四段１６巷３１弄１７６號","OBJECTID":133624},"geometry":{"x":169002.05999999959,"y":2545153.5600000042}},{"attributes":{"ID":133625,"DIS_CODE":0,"TOWNNAME":"北區","LI":"興南里","LIN":"11鄰","STREET":"西門路","SECT":"四段","MAREA":" ","LANE":"１６巷","ALLEY":"３１弄","HOUSE_NO":"１７８號","E_COORD97":169001.75,"N_COORD97":2545148.48,"ADDRESS":"西門路四段１６巷３１弄１７８號","OBJECTID":133625},"geometry":{"x":169001.75000000093,"y":2545148.4800000023}},{"attributes":{"ID":133626,"DIS_CODE":0,"TOWNNAME":"北區","LI":"興南里","LIN":"11鄰","STREET":"西門路","SECT":"四段","MAREA":" ","LANE":"１６巷","ALLEY":"３１弄","HOUSE_NO":"１８０號","E_COORD97":169002.06,"N_COORD97":2545143.0800000001,"ADDRESS":"西門路四段１６巷３１弄１８０號","OBJECTID":133626},"geometry":{"x":169002.05999999959,"y":2545143.0800000019}},{"attributes":{"ID":133627,"DIS_CODE":0,"TOWNNAME":"北區","LI":"興南里","LIN":"11鄰","STREET":"西門路","SECT":"四段","MAREA":" ","LANE":"１６巷","ALLEY":"３１弄","HOUSE_NO":"１８２號","E_COORD97":169001.75,"N_COORD97":2545138,"ADDRESS":"西門路四段１６巷３１弄１８２號","OBJECTID":133627},"geometry":{"x":169001.75000000093,"y":2545138}},{"attributes":{"ID":133628,"DIS_CODE":0,"TOWNNAME":"安南區","LI":"安東里","LIN":"10鄰","STREET":"安和路","SECT":"一段","MAREA":" ","LANE":"２２０巷","ALLEY":"４７弄","HOUSE_NO":"２０號","E_COORD97":169417.41403000001,"N_COORD97":2548038.2782700001,"ADDRESS":"安和路一段２２０巷４７弄２０號","OBJECTID":133628},"geometry":{"x":169417.41402999964,"y":2548038.2782659996}},{"attributes":{"ID":133629,"DIS_CODE":0,"TOWNNAME":"東區","LI":"東聖里","LIN":"18鄰","STREET":"中華東路","SECT":"二段","MAREA":" ","LANE":"１３３巷","ALLEY":"３９弄","HOUSE_NO":"１９號","E_COORD97":171476.73999999999,"N_COORD97":2542891.8100000001,"ADDRESS":"中華東路二段１３３巷３９弄１９號","OBJECTID":133629},"geometry":{"x":171476.73999999929,"y":2542891.8100000024}},{"attributes":{"ID":133630,"DIS_CODE":0,"TOWNNAME":"東區","LI":"東聖里","LIN":"18鄰","STREET":"中華東路","SECT":"二段","MAREA":" ","LANE":"１３３巷","ALLEY":"３９弄","HOUSE_NO":"１號","E_COORD97":171493.72,"N_COORD97":2542867.48,"ADDRESS":"中華東路二段１３３巷３９弄１號","OBJECTID":133630},"geometry":{"x":171493.72000000067,"y":2542867.4800000004}},{"attributes":{"ID":133631,"DIS_CODE":0,"TOWNNAME":"東區","LI":"東聖里","LIN":"18鄰","STREET":"中華東路","SECT":"二段","MAREA":" ","LANE":"１３３巷","ALLEY":"３９弄","HOUSE_NO":"２１號","E_COORD97":171481.09,"N_COORD97":2542890.7200000002,"ADDRESS":"中華東路二段１３３巷３９弄２１號","OBJECTID":133631},"geometry":{"x":171481.09000000078,"y":2542890.7200000007}},{"attributes":{"ID":133632,"DIS_CODE":0,"TOWNNAME":"東區","LI":"東聖里","LIN":"18鄰","STREET":"中華東路","SECT":"二段","MAREA":" ","LANE":"１３３巷","ALLEY":"３９弄","HOUSE_NO":"２３號","E_COORD97":171484.51999999999,"N_COORD97":2542891.8900000001,"ADDRESS":"中華東路二段１３３巷３９弄２３號","OBJECTID":133632},"geometry":{"x":171484.52000000142,"y":2542891.8900000006}},{"attributes":{"ID":133633,"DIS_CODE":0,"TOWNNAME":"東區","LI":"東聖里","LIN":"18鄰","STREET":"中華東路","SECT":"二段","MAREA":" ","LANE":"１３３巷","ALLEY":"３９弄","HOUSE_NO":"２５號","E_COORD97":171488.35999999999,"N_COORD97":2542890.8900000001,"ADDRESS":"中華東路二段１３３巷３９弄２５號","OBJECTID":133633},"geometry":{"x":171488.36000000127,"y":2542890.8900000025}},{"attributes":{"ID":133634,"DIS_CODE":0,"TOWNNAME":"東區","LI":"東聖里","LIN":"18鄰","STREET":"中華東路","SECT":"二段","MAREA":" ","LANE":"１３３巷","ALLEY":"３９弄","HOUSE_NO":"２７號","E_COORD97":171493.29999999999,"N_COORD97":2542891.3900000001,"ADDRESS":"中華東路二段１３３巷３９弄２７號","OBJECTID":133634},"geometry":{"x":171493.30000000075,"y":2542891.3900000025}},{"attributes":{"ID":133635,"DIS_CODE":0,"TOWNNAME":"東區","LI":"東聖里","LIN":"18鄰","STREET":"中華東路","SECT":"二段","MAREA":" ","LANE":"１３３巷","ALLEY":"３９弄","HOUSE_NO":"２９號","E_COORD97":171492.97,"N_COORD97":2542907.1699999999,"ADDRESS":"中華東路二段１３３巷３９弄２９號","OBJECTID":133635},"geometry":{"x":171492.96999999974,"y":2542907.1699999999}},{"attributes":{"ID":133636,"DIS_CODE":0,"TOWNNAME":"佳里區","LI":"鎮山里","LIN":"23鄰","STREET":"鎮山街","SECT":" ","MAREA":" ","LANE":" ","ALLEY":" ","HOUSE_NO":"５９號","E_COORD97":166311.66,"N_COORD97":2561212.6899999999,"ADDRESS":"鎮山街５９號","OBJECTID":133636},"geometry":{"x":166311.66000000015,"y":2561212.6900000013}},{"attributes":{"ID":133637,"DIS_CODE":0,"TOWNNAME":"佳里區","LI":"鎮山里","LIN":"23鄰","STREET":"鎮山街","SECT":" ","MAREA":" ","LANE":" ","ALLEY":" ","HOUSE_NO":"５號","E_COORD97":166329.75,"N_COORD97":2561337.23,"ADDRESS":"鎮山街５號","OBJECTID":133637},"geometry":{"x":166329.75,"y":2561337.2300000004}},{"attributes":{"ID":133638,"DIS_CODE":0,"TOWNNAME":"佳里區","LI":"鎮山里","LIN":"23鄰","STREET":"鎮山街","SECT":" ","MAREA":" ","LANE":" ","ALLEY":" ","HOUSE_NO":"６１號","E_COORD97":166311.25,"N_COORD97":2561208.6600000001,"ADDRESS":"鎮山街６１號","OBJECTID":133638},"geometry":{"x":166311.25000000186,"y":2561208.6600000001}},{"attributes":{"ID":133639,"DIS_CODE":0,"TOWNNAME":"東山區","LI":"東山里","LIN":"24鄰","STREET":" ","SECT":" ","MAREA":"東山","LANE":" ","ALLEY":" ","HOUSE_NO":"２９６號","E_COORD97":188892.37,"N_COORD97":2580519.27,"ADDRESS":"東山２９６號","OBJECTID":133639},"geometry":{"x":188892.37000000104,"y":2580519.2700000033}},{"attributes":{"ID":133640,"DIS_CODE":0,"TOWNNAME":"東山區","LI":"東山里","LIN":"27鄰","STREET":" ","SECT":" ","MAREA":"東山","LANE":" ","ALLEY":" ","HOUSE_NO":"４８１號","E_COORD97":188794.91,"N_COORD97":2580351.5099999998,"ADDRESS":"東山４８１號","OBJECTID":133640},"geometry":{"x":188794.91000000015,"y":2580351.5099999998}},{"attributes":{"ID":133641,"DIS_CODE":0,"TOWNNAME":"東山區","LI":"東山里","LIN":"27鄰","STREET":" ","SECT":" ","MAREA":"東山","LANE":" ","ALLEY":" ","HOUSE_NO":"４８２號","E_COORD97":188794.63,"N_COORD97":2580357.2200000002,"ADDRESS":"東山４８２號","OBJECTID":133641},"geometry":{"x":188794.62999999989,"y":2580357.2200000007}},{"attributes":{"ID":133642,"DIS_CODE":0,"TOWNNAME":"東山區","LI":"東山里","LIN":"27鄰","STREET":" ","SECT":" ","MAREA":"東山","LANE":" ","ALLEY":" ","HOUSE_NO":"４８４號","E_COORD97":188780.39000000001,"N_COORD97":2580358.6899999999,"ADDRESS":"東山４８４號","OBJECTID":133642},"geometry":{"x":188780.3900000006,"y":2580358.6900000013}},{"attributes":{"ID":133643,"DIS_CODE":0,"TOWNNAME":"東山區","LI":"東正里","LIN":"20鄰","STREET":" ","SECT":" ","MAREA":"東勢","LANE":" ","ALLEY":" ","HOUSE_NO":"１３１號之１","E_COORD97":189286.79000000001,"N_COORD97":2580351.2000000002,"ADDRESS":"東勢１３１號之１","OBJECTID":133643},"geometry":{"x":189286.79000000097,"y":2580351.2000000011}},{"attributes":{"ID":133644,"DIS_CODE":0,"TOWNNAME":"東山區","LI":"東正里","LIN":"20鄰","STREET":" ","SECT":" ","MAREA":"東勢","LANE":" ","ALLEY":" ","HOUSE_NO":"１３１號之２","E_COORD97":189286.87,"N_COORD97":2580355.0899999999,"ADDRESS":"東勢１３１號之２","OBJECTID":133644},"geometry":{"x":189286.87000000011,"y":2580355.0900000017}},{"attributes":{"ID":133645,"DIS_CODE":0,"TOWNNAME":"東山區","LI":"東正里","LIN":"20鄰","STREET":" ","SECT":" ","MAREA":"東勢","LANE":" ","ALLEY":" ","HOUSE_NO":"１３１號","E_COORD97":189286.41,"N_COORD97":2580346.21,"ADDRESS":"東勢１３１號","OBJECTID":133645},"geometry":{"x":189286.41000000015,"y":2580346.2100000028}},{"attributes":{"ID":133646,"DIS_CODE":0,"TOWNNAME":"東區","LI":"東聖里","LIN":"18鄰","STREET":"中華東路","SECT":"二段","MAREA":" ","LANE":"１３３巷","ALLEY":"３９弄","HOUSE_NO":"３１號","E_COORD97":171488.32000000001,"N_COORD97":2542906.98,"ADDRESS":"中華東路二段１３３巷３９弄３１號","OBJECTID":133646},"geometry":{"x":171488.32000000216,"y":2542906.9800000023}},{"attributes":{"ID":133647,"DIS_CODE":0,"TOWNNAME":"佳里區","LI":"鎮山里","LIN":" ","STREET":"仁愛路","SECT":" ","MAREA":" ","LANE":" ","ALLEY":" ","HOUSE_NO":"１８６號","E_COORD97":166278.01999999999,"N_COORD97":2561427.7999999998,"ADDRESS":"仁愛路１８６號","OBJECTID":133647},"geometry":{"x":166278.01999999955,"y":2561427.8000000007}},{"attributes":{"ID":133648,"DIS_CODE":0,"TOWNNAME":"東區","LI":"東聖里","LIN":"18鄰","STREET":"中華東路","SECT":"二段","MAREA":" ","LANE":"１３３巷","ALLEY":"３９弄","HOUSE_NO":"３５號","E_COORD97":171479.94,"N_COORD97":2542907.3599999999,"ADDRESS":"中華東路二段１３３巷３９弄３５號","OBJECTID":133648},"geometry":{"x":171479.94000000041,"y":2542907.3600000013}},{"attributes":{"ID":133649,"DIS_CODE":0,"TOWNNAME":"東區","LI":"東聖里","LIN":"18鄰","STREET":"中華東路","SECT":"二段","MAREA":" ","LANE":"１３３巷","ALLEY":"３９弄","HOUSE_NO":"３７號","E_COORD97":171476.04000000001,"N_COORD97":2542907.73,"ADDRESS":"中華東路二段１３３巷３９弄３７號","OBJECTID":133649},"geometry":{"x":171476.04000000004,"y":2542907.7300000042}},{"attributes":{"ID":133650,"DIS_CODE":0,"TOWNNAME":"東區","LI":"東聖里","LIN":"18鄰","STREET":"中華東路","SECT":"二段","MAREA":" ","LANE":"１３３巷","ALLEY":"３９弄","HOUSE_NO":"３９號","E_COORD97":171472.13,"N_COORD97":2542907.73,"ADDRESS":"中華東路二段１３３巷３９弄３９號","OBJECTID":133650},"geometry":{"x":171472.13000000175,"y":2542907.7300000042}},{"attributes":{"ID":133651,"DIS_CODE":0,"TOWNNAME":"東區","LI":"東聖里","LIN":"18鄰","STREET":"中華東路","SECT":"二段","MAREA":" ","LANE":"１３３巷","ALLEY":"３９弄","HOUSE_NO":"３號","E_COORD97":171488.87,"N_COORD97":2542869.1499999999,"ADDRESS":"中華東路二段１３３巷３９弄３號","OBJECTID":133651},"geometry":{"x":171488.87000000011,"y":2542869.1500000022}},{"attributes":{"ID":133652,"DIS_CODE":0,"TOWNNAME":"東區","LI":"東聖里","LIN":"18鄰","STREET":"中華東路","SECT":"二段","MAREA":" ","LANE":"１３３巷","ALLEY":"３９弄","HOUSE_NO":"５號","E_COORD97":171485.10000000001,"N_COORD97":2542870.2400000002,"ADDRESS":"中華東路二段１３３巷３９弄５號","OBJECTID":133652},"geometry":{"x":171485.09999999963,"y":2542870.2400000039}},{"attributes":{"ID":133653,"DIS_CODE":0,"TOWNNAME":"東區","LI":"東聖里","LIN":"18鄰","STREET":"中華東路","SECT":"二段","MAREA":" ","LANE":"１３３巷","ALLEY":"３９弄","HOUSE_NO":"７號","E_COORD97":171481.25,"N_COORD97":2542870.9900000002,"ADDRESS":"中華東路二段１３３巷３９弄７號","OBJECTID":133653},"geometry":{"x":171481.25,"y":2542870.9900000002}},{"attributes":{"ID":133654,"DIS_CODE":0,"TOWNNAME":"東區","LI":"東聖里","LIN":"18鄰","STREET":"中華東路","SECT":"二段","MAREA":" ","LANE":"１３３巷","ALLEY":"３９弄","HOUSE_NO":"９號","E_COORD97":171476.66,"N_COORD97":2542871.5800000001,"ADDRESS":"中華東路二段１３３巷３９弄９號","OBJECTID":133654},"geometry":{"x":171476.66000000015,"y":2542871.5800000019}},{"attributes":{"ID":133655,"DIS_CODE":0,"TOWNNAME":"東區","LI":"東聖里","LIN":"19鄰","STREET":"中華東路","SECT":"二段","MAREA":" ","LANE":"１３３巷","ALLEY":"１７弄","HOUSE_NO":"３號","E_COORD97":171433.23000000001,"N_COORD97":2542894.2400000002,"ADDRESS":"中華東路二段１３３巷１７弄３號","OBJECTID":133655},"geometry":{"x":171433.23000000138,"y":2542894.2400000021}},{"attributes":{"ID":133656,"DIS_CODE":0,"TOWNNAME":"東區","LI":"東聖里","LIN":"18鄰","STREET":"中華東路","SECT":"二段","MAREA":" ","LANE":"１３３巷","ALLEY":"１７弄","HOUSE_NO":"１０號","E_COORD97":171457.62,"N_COORD97":2542890.6299999999,"ADDRESS":"中華東路二段１３３巷１７弄１０號","OBJECTID":133656},"geometry":{"x":171457.62000000104,"y":2542890.6300000008}},{"attributes":{"ID":133657,"DIS_CODE":0,"TOWNNAME":"仁德區","LI":"仁愛里","LIN":"28鄰","STREET":"大同路","SECT":"三段","MAREA":" ","LANE":"３５８巷","ALLEY":" ","HOUSE_NO":"６０號","E_COORD97":169717.65700000001,"N_COORD97":2539414.6570000001,"ADDRESS":"大同路三段３５８巷６０號","OBJECTID":133657},"geometry":{"x":169717.65700000059,"y":2539414.6569999997}},{"attributes":{"ID":133658,"DIS_CODE":0,"TOWNNAME":"鹽水區","LI":"水秀里","LIN":"6鄰","STREET":" ","SECT":" ","MAREA":"土庫","LANE":" ","ALLEY":" ","HOUSE_NO":"８３號三樓之６","E_COORD97":176003.26000000001,"N_COORD97":2580167.5600000001,"ADDRESS":"土庫８３號三樓之６","OBJECTID":133658},"geometry":{"x":176003.25999999978,"y":2580167.5600000005}},{"attributes":{"ID":133659,"DIS_CODE":0,"TOWNNAME":"鹽水區","LI":"水秀里","LIN":"6鄰","STREET":" ","SECT":" ","MAREA":"土庫","LANE":" ","ALLEY":" ","HOUSE_NO":"８３號三樓之７","E_COORD97":176003.26000000001,"N_COORD97":2580167.5600000001,"ADDRESS":"土庫８３號三樓之７","OBJECTID":133659},"geometry":{"x":176003.25999999978,"y":2580167.5600000005}},{"attributes":{"ID":133660,"DIS_CODE":0,"TOWNNAME":"東區","LI":"東聖里","LIN":"18鄰","STREET":"中華東路","SECT":"二段","MAREA":" ","LANE":"１３３巷","ALLEY":"１７弄","HOUSE_NO":"１４號","E_COORD97":171459.29000000001,"N_COORD97":2542898.7999999998,"ADDRESS":"中華東路二段１３３巷１７弄１４號","OBJECTID":133660},"geometry":{"x":171459.28999999911,"y":2542898.8000000026}},{"attributes":{"ID":133661,"DIS_CODE":0,"TOWNNAME":"東區","LI":"東聖里","LIN":"18鄰","STREET":"中華東路","SECT":"二段","MAREA":" ","LANE":"１３３巷","ALLEY":"１７弄","HOUSE_NO":"１８號","E_COORD97":171460.22,"N_COORD97":2542906.0499999998,"ADDRESS":"中華東路二段１３３巷１７弄１８號","OBJECTID":133661},"geometry":{"x":171460.22000000067,"y":2542906.0500000045}},{"attributes":{"ID":133662,"DIS_CODE":0,"TOWNNAME":"東區","LI":"後甲里","LIN":"11鄰","STREET":"建東街","SECT":" ","MAREA":" ","LANE":"４３巷","ALLEY":"１４弄","HOUSE_NO":"７號","E_COORD97":171702.38,"N_COORD97":2543434.2000000002,"ADDRESS":"建東街４３巷１４弄７號","OBJECTID":133662},"geometry":{"x":171702.37999999989,"y":2543434.1999999993}},{"attributes":{"ID":133663,"DIS_CODE":0,"TOWNNAME":"東區","LI":"東聖里","LIN":"20鄰","STREET":"中華東路","SECT":"二段","MAREA":" ","LANE":"１３３巷","ALLEY":"１７弄","HOUSE_NO":"１１號","E_COORD97":171437.75,"N_COORD97":2542911.2999999998,"ADDRESS":"中華東路二段１３３巷１７弄１１號","OBJECTID":133663},"geometry":{"x":171437.75000000093,"y":2542911.3000000026}},{"attributes":{"ID":133664,"DIS_CODE":0,"TOWNNAME":"東區","LI":"東聖里","LIN":"20鄰","STREET":"中華東路","SECT":"二段","MAREA":" ","LANE":"１３３巷","ALLEY":"１７弄","HOUSE_NO":"１３號","E_COORD97":171438.87,"N_COORD97":2542916.1299999999,"ADDRESS":"中華東路二段１３３巷１７弄１３號","OBJECTID":133664},"geometry":{"x":171438.87000000104,"y":2542916.129999999}},{"attributes":{"ID":133665,"DIS_CODE":0,"TOWNNAME":"東區","LI":"東聖里","LIN":"20鄰","STREET":"中華東路","SECT":"二段","MAREA":" ","LANE":"１３３巷","ALLEY":"１７弄","HOUSE_NO":"１５號","E_COORD97":171439.84,"N_COORD97":2542920.3100000001,"ADDRESS":"中華東路二段１３３巷１７弄１５號","OBJECTID":133665},"geometry":{"x":171439.83999999985,"y":2542920.3100000005}},{"attributes":{"ID":133666,"DIS_CODE":0,"TOWNNAME":"東區","LI":"東聖里","LIN":"20鄰","STREET":"中華東路","SECT":"二段","MAREA":" ","LANE":"１３３巷","ALLEY":"１７弄","HOUSE_NO":"９號","E_COORD97":171436.62,"N_COORD97":2542906.3100000001,"ADDRESS":"中華東路二段１３３巷１７弄９號","OBJECTID":133666},"geometry":{"x":171436.62000000011,"y":2542906.3100000005}},{"attributes":{"ID":133667,"DIS_CODE":0,"TOWNNAME":"東區","LI":"東聖里","LIN":"17鄰","STREET":"中華東路","SECT":"二段","MAREA":" ","LANE":"１３３巷","ALLEY":"１７弄","HOUSE_NO":"４９號","E_COORD97":171556.39000000001,"N_COORD97":2542957.46,"ADDRESS":"中華東路二段１３３巷１７弄４９號","OBJECTID":133667},"geometry":{"x":171556.38999999966,"y":2542957.4600000046}},{"attributes":{"ID":133668,"DIS_CODE":0,"TOWNNAME":"東區","LI":"東聖里","LIN":"17鄰","STREET":"中華東路","SECT":"二段","MAREA":" ","LANE":"１３３巷","ALLEY":"１７弄","HOUSE_NO":"５１號","E_COORD97":171561.04000000001,"N_COORD97":2542957.0800000001,"ADDRESS":"中華東路二段１３３巷１７弄５１號","OBJECTID":133668},"geometry":{"x":171561.0400000019,"y":2542957.0800000019}},{"attributes":{"ID":133669,"DIS_CODE":0,"TOWNNAME":"永康區","LI":"西橋里","LIN":"22鄰","STREET":"大橋三街","SECT":" ","MAREA":" ","LANE":"５７巷","ALLEY":"１９弄","HOUSE_NO":"３１號","E_COORD97":170482.20999999999,"N_COORD97":2546508.7599999998,"ADDRESS":"大橋三街５７巷１９弄３１號","OBJECTID":133669},"geometry":{"x":170482.21000000089,"y":2546508.7600000016}},{"attributes":{"ID":133670,"DIS_CODE":0,"TOWNNAME":"東區","LI":"東聖里","LIN":"18鄰","STREET":"中華東路","SECT":"二段","MAREA":" ","LANE":"１３３巷","ALLEY":"１７弄","HOUSE_NO":"１６號","E_COORD97":171459.48000000001,"N_COORD97":2542901.9700000002,"ADDRESS":"中華東路二段１３３巷１７弄１６號","OBJECTID":133670},"geometry":{"x":171459.48000000045,"y":2542901.9700000007}},{"attributes":{"ID":133671,"DIS_CODE":0,"TOWNNAME":"東區","LI":"東聖里","LIN":"13鄰","STREET":"中華東路","SECT":"二段","MAREA":" ","LANE":"４１巷","ALLEY":"４７弄","HOUSE_NO":"１０號","E_COORD97":171589.35000000001,"N_COORD97":2543130.71,"ADDRESS":"中華東路二段４１巷４７弄１０號","OBJECTID":133671},"geometry":{"x":171589.35000000056,"y":2543130.7100000009}},{"attributes":{"ID":133672,"DIS_CODE":0,"TOWNNAME":"東區","LI":"東聖里","LIN":"13鄰","STREET":"中華東路","SECT":"二段","MAREA":" ","LANE":"４１巷","ALLEY":"４７弄","HOUSE_NO":"３號之１","E_COORD97":171565.35000000001,"N_COORD97":2543129.5499999998,"ADDRESS":"中華東路二段４１巷４７弄３號之１","OBJECTID":133672},"geometry":{"x":171565.35000000149,"y":2543129.5500000045}},{"attributes":{"ID":133673,"DIS_CODE":0,"TOWNNAME":"東區","LI":"東聖里","LIN":"19鄰","STREET":"中華東路","SECT":"二段","MAREA":" ","LANE":"１３３巷","ALLEY":"１７弄","HOUSE_NO":"５號","E_COORD97":171434.20000000001,"N_COORD97":2542898.5800000001,"ADDRESS":"中華東路二段１３３巷１７弄５號","OBJECTID":133673},"geometry":{"x":171434.20000000019,"y":2542898.5800000019}},{"attributes":{"ID":133674,"DIS_CODE":0,"TOWNNAME":"東區","LI":"東聖里","LIN":"11鄰","STREET":"中華東路","SECT":"二段","MAREA":" ","LANE":"１３３巷","ALLEY":"５７弄","HOUSE_NO":"２號","E_COORD97":171556.54999999999,"N_COORD97":2542847.75,"ADDRESS":"中華東路二段１３３巷５７弄２號","OBJECTID":133674},"geometry":{"x":171556.54999999981,"y":2542847.7500000019}},{"attributes":{"ID":133675,"DIS_CODE":0,"TOWNNAME":"東區","LI":"東聖里","LIN":"3鄰","STREET":"中華東路","SECT":"二段","MAREA":" ","LANE":"７巷","ALLEY":"１３弄","HOUSE_NO":"６號","E_COORD97":171484.45000000001,"N_COORD97":2543132.5299999998,"ADDRESS":"中華東路二段７巷１３弄６號","OBJECTID":133675},"geometry":{"x":171484.45000000112,"y":2543132.5300000012}},{"attributes":{"ID":133676,"DIS_CODE":0,"TOWNNAME":"東區","LI":"東聖里","LIN":"9鄰","STREET":"富農街","SECT":"二段","MAREA":" ","LANE":"６５巷","ALLEY":"１９弄","HOUSE_NO":"１號","E_COORD97":171564.54000000001,"N_COORD97":2542994.8199999998,"ADDRESS":"富農街二段６５巷１９弄１號","OBJECTID":133676},"geometry":{"x":171564.5400000019,"y":2542994.8200000003}},{"attributes":{"ID":133677,"DIS_CODE":0,"TOWNNAME":"東區","LI":"東聖里","LIN":"20鄰","STREET":"中華東路","SECT":"二段","MAREA":" ","LANE":"１３３巷","ALLEY":"１７弄","HOUSE_NO":"７號","E_COORD97":171435.48999999999,"N_COORD97":2542902.4399999999,"ADDRESS":"中華東路二段１３３巷１７弄７號","OBJECTID":133677},"geometry":{"x":171435.49000000022,"y":2542902.4400000013}},{"attributes":{"ID":133678,"DIS_CODE":0,"TOWNNAME":"東區","LI":"東聖里","LIN":"11鄰","STREET":"中華東路","SECT":"二段","MAREA":" ","LANE":"１３３巷","ALLEY":"３９弄","HOUSE_NO":"１４號","E_COORD97":171512.14999999999,"N_COORD97":2542887.1400000001,"ADDRESS":"中華東路二段１３３巷３９弄１４號","OBJECTID":133678},"geometry":{"x":171512.1500000013,"y":2542887.1400000006}},{"attributes":{"ID":133679,"DIS_CODE":0,"TOWNNAME":"東區","LI":"自強里","LIN":"11鄰","STREET":"東門路","SECT":"三段","MAREA":" ","LANE":"３７巷","ALLEY":"７５弄","HOUSE_NO":"５１號七樓","E_COORD97":171134.20999999999,"N_COORD97":2542398.54,"ADDRESS":"東門路三段３７巷７５弄５１號七樓","OBJECTID":133679},"geometry":{"x":171134.20999999903,"y":2542398.5399999991}},{"attributes":{"ID":133680,"DIS_CODE":0,"TOWNNAME":"東區","LI":"自強里","LIN":"11鄰","STREET":"東門路","SECT":"三段","MAREA":" ","LANE":"３７巷","ALLEY":"７５弄","HOUSE_NO":"５１號九樓","E_COORD97":171134.20999999999,"N_COORD97":2542398.54,"ADDRESS":"東門路三段３７巷７５弄５１號九樓","OBJECTID":133680},"geometry":{"x":171134.20999999903,"y":2542398.5399999991}},{"attributes":{"ID":133681,"DIS_CODE":0,"TOWNNAME":"東區","LI":"自強里","LIN":"11鄰","STREET":"東門路","SECT":"三段","MAREA":" ","LANE":"３７巷","ALLEY":"７５弄","HOUSE_NO":"５１號八樓","E_COORD97":171134.20999999999,"N_COORD97":2542398.54,"ADDRESS":"東門路三段３７巷７５弄５１號八樓","OBJECTID":133681},"geometry":{"x":171134.20999999903,"y":2542398.5399999991}},{"attributes":{"ID":133682,"DIS_CODE":0,"TOWNNAME":"東區","LI":"東聖里","LIN":"12鄰","STREET":"中華東路","SECT":"二段","MAREA":" ","LANE":"１３３巷","ALLEY":"１７弄","HOUSE_NO":"２８號","E_COORD97":171481.14999999999,"N_COORD97":2542931.2000000002,"ADDRESS":"中華東路二段１３３巷１７弄２８號","OBJECTID":133682},"geometry":{"x":171481.1500000013,"y":2542931.2000000011}},{"attributes":{"ID":133683,"DIS_CODE":0,"TOWNNAME":"東區","LI":"東聖里","LIN":"12鄰","STREET":"中華東路","SECT":"二段","MAREA":" ","LANE":"１３３巷","ALLEY":"５７弄","HOUSE_NO":"２９號","E_COORD97":171526.66,"N_COORD97":2542933.6499999999,"ADDRESS":"中華東路二段１３３巷５７弄２９號","OBJECTID":133683},"geometry":{"x":171526.66000000108,"y":2542933.6500000004}},{"attributes":{"ID":133684,"DIS_CODE":0,"TOWNNAME":"東區","LI":"東聖里","LIN":"11鄰","STREET":"中華東路","SECT":"二段","MAREA":" ","LANE":"１３３巷","ALLEY":"５７弄","HOUSE_NO":"５號","E_COORD97":171531.47,"N_COORD97":2542863.1499999999,"ADDRESS":"中華東路二段１３３巷５７弄５號","OBJECTID":133684},"geometry":{"x":171531.47000000067,"y":2542863.1500000004}},{"attributes":{"ID":133685,"DIS_CODE":0,"TOWNNAME":"東區","LI":"東聖里","LIN":"11鄰","STREET":"中華東路","SECT":"二段","MAREA":" ","LANE":"１３３巷","ALLEY":"５７弄","HOUSE_NO":"３４號","E_COORD97":171553.07999999999,"N_COORD97":2542918.71,"ADDRESS":"中華東路二段１３３巷５７弄３４號","OBJECTID":133685},"geometry":{"x":171553.08000000101,"y":2542918.7100000046}},{"attributes":{"ID":133686,"DIS_CODE":0,"TOWNNAME":"東區","LI":"自強里","LIN":"11鄰","STREET":"東門路","SECT":"三段","MAREA":" ","LANE":"３７巷","ALLEY":"７５弄","HOUSE_NO":"５１號十一樓","E_COORD97":171134.20999999999,"N_COORD97":2542398.54,"ADDRESS":"東門路三段３７巷７５弄５１號十一樓","OBJECTID":133686},"geometry":{"x":171134.20999999903,"y":2542398.5399999991}},{"attributes":{"ID":133687,"DIS_CODE":0,"TOWNNAME":"東區","LI":"自強里","LIN":"11鄰","STREET":"東門路","SECT":"三段","MAREA":" ","LANE":"３７巷","ALLEY":"７５弄","HOUSE_NO":"５１號十二樓","E_COORD97":171134.20999999999,"N_COORD97":2542398.54,"ADDRESS":"東門路三段３７巷７５弄５１號十二樓","OBJECTID":133687},"geometry":{"x":171134.20999999903,"y":2542398.5399999991}},{"attributes":{"ID":133688,"DIS_CODE":0,"TOWNNAME":"東區","LI":"自強里","LIN":"11鄰","STREET":"東門路","SECT":"三段","MAREA":" ","LANE":"３７巷","ALLEY":"７５弄","HOUSE_NO":"５１號十三樓","E_COORD97":171134.20999999999,"N_COORD97":2542398.54,"ADDRESS":"東門路三段３７巷７５弄５１號十三樓","OBJECTID":133688},"geometry":{"x":171134.20999999903,"y":2542398.5399999991}},{"attributes":{"ID":133689,"DIS_CODE":0,"TOWNNAME":"東區","LI":"自強里","LIN":"11鄰","STREET":"東門路","SECT":"三段","MAREA":" ","LANE":"３７巷","ALLEY":"７５弄","HOUSE_NO":"５１號十四樓","E_COORD97":171134.20999999999,"N_COORD97":2542398.54,"ADDRESS":"東門路三段３７巷７５弄５１號十四樓","OBJECTID":133689},"geometry":{"x":171134.20999999903,"y":2542398.5399999991}},{"attributes":{"ID":133690,"DIS_CODE":0,"TOWNNAME":"東區","LI":"自強里","LIN":"11鄰","STREET":"東門路","SECT":"三段","MAREA":" ","LANE":"３７巷","ALLEY":"７５弄","HOUSE_NO":"５１號十樓","E_COORD97":171134.20999999999,"N_COORD97":2542398.54,"ADDRESS":"東門路三段３７巷７５弄５１號十樓","OBJECTID":133690},"geometry":{"x":171134.20999999903,"y":2542398.5399999991}},{"attributes":{"ID":133691,"DIS_CODE":0,"TOWNNAME":"東區","LI":"東聖里","LIN":"10鄰","STREET":"中華東路","SECT":"二段","MAREA":" ","LANE":"１３３巷","ALLEY":"７７弄","HOUSE_NO":"１３號","E_COORD97":171575.66,"N_COORD97":2542868.4700000002,"ADDRESS":"中華東路二段１３３巷７７弄１３號","OBJECTID":133691},"geometry":{"x":171575.66000000201,"y":2542868.4700000007}},{"attributes":{"ID":133692,"DIS_CODE":0,"TOWNNAME":"永康區","LI":"正強里","LIN":"6鄰","STREET":"自強路","SECT":" ","MAREA":" ","LANE":" ","ALLEY":" ","HOUSE_NO":"３４６號","E_COORD97":173447.67000000001,"N_COORD97":2547715.4900000002,"ADDRESS":"自強路３４６號","OBJECTID":133692},"geometry":{"x":173447.66999999993,"y":2547715.4900000002}},{"attributes":{"ID":133693,"DIS_CODE":0,"TOWNNAME":"佳里區","LI":"鎮山里","LIN":" ","STREET":"中山路","SECT":" ","MAREA":" ","LANE":" ","ALLEY":" ","HOUSE_NO":"１００號","E_COORD97":165800.31,"N_COORD97":2561834.48,"ADDRESS":"中山路１００號","OBJECTID":133693},"geometry":{"x":165800.31000000145,"y":2561834.4800000042}},{"attributes":{"ID":133694,"DIS_CODE":0,"TOWNNAME":"佳里區","LI":"建南里","LIN":" ","STREET":"中山路","SECT":" ","MAREA":" ","LANE":" ","ALLEY":" ","HOUSE_NO":"１５５號","E_COORD97":165721.10999999999,"N_COORD97":2562040.1499999999,"ADDRESS":"中山路１５５號","OBJECTID":133694},"geometry":{"x":165721.1100000022,"y":2562040.1500000041}},{"attributes":{"ID":133695,"DIS_CODE":0,"TOWNNAME":"佳里區","LI":"忠仁里","LIN":" ","STREET":"中山路","SECT":" ","MAREA":" ","LANE":" ","ALLEY":" ","HOUSE_NO":"２００號","E_COORD97":165756.91,"N_COORD97":2562159.5499999998,"ADDRESS":"中山路２００號","OBJECTID":133695},"geometry":{"x":165756.91000000015,"y":2562159.5500000007}},{"attributes":{"ID":133696,"DIS_CODE":0,"TOWNNAME":"佳里區","LI":"忠仁里","LIN":" ","STREET":"中山路","SECT":" ","MAREA":" ","LANE":" ","ALLEY":" ","HOUSE_NO":"２４２之１號","E_COORD97":165732.53,"N_COORD97":2562248.2000000002,"ADDRESS":"中山路２４２之１號","OBJECTID":133696},"geometry":{"x":165732.53000000026,"y":2562248.1999999993}},{"attributes":{"ID":133697,"DIS_CODE":0,"TOWNNAME":"佳里區","LI":"東寧里","LIN":" ","STREET":"中山路","SECT":" ","MAREA":" ","LANE":" ","ALLEY":" ","HOUSE_NO":"２６８號","E_COORD97":165727.45999999999,"N_COORD97":2562291.5800000001,"ADDRESS":"中山路２６８號","OBJECTID":133697},"geometry":{"x":165727.46000000089,"y":2562291.5800000019}},{"attributes":{"ID":133698,"DIS_CODE":0,"TOWNNAME":"佳里區","LI":"東寧里","LIN":" ","STREET":"中山路","SECT":" ","MAREA":" ","LANE":" ","ALLEY":" ","HOUSE_NO":"３００號","E_COORD97":165775.98999999999,"N_COORD97":2562367.98,"ADDRESS":"中山路３００號","OBJECTID":133698},"geometry":{"x":165775.99000000209,"y":2562367.9800000023}},{"attributes":{"ID":133699,"DIS_CODE":0,"TOWNNAME":"佳里區","LI":"六安里","LIN":" ","STREET":"中山路","SECT":" ","MAREA":" ","LANE":" ","ALLEY":" ","HOUSE_NO":"４３９號","E_COORD97":165799.60000000001,"N_COORD97":2562829.3199999998,"ADDRESS":"中山路４３９號","OBJECTID":133699},"geometry":{"x":165799.59999999963,"y":2562829.3200000022}},{"attributes":{"ID":133700,"DIS_CODE":0,"TOWNNAME":"佳里區","LI":"六安里","LIN":" ","STREET":"中山路","SECT":" ","MAREA":" ","LANE":" ","ALLEY":" ","HOUSE_NO":"４５８號","E_COORD97":165801.98999999999,"N_COORD97":2562753.6000000001,"ADDRESS":"中山路４５８號","OBJECTID":133700},"geometry":{"x":165801.99000000115,"y":2562753.5999999996}},{"attributes":{"ID":133701,"DIS_CODE":0,"TOWNNAME":"佳里區","LI":"六安里","LIN":" ","STREET":"中山路","SECT":" ","MAREA":" ","LANE":" ","ALLEY":" ","HOUSE_NO":"４８０號","E_COORD97":165824.56,"N_COORD97":2562821.8500000001,"ADDRESS":"中山路４８０號","OBJECTID":133701},"geometry":{"x":165824.56000000052,"y":2562821.8500000015}},{"attributes":{"ID":133702,"DIS_CODE":0,"TOWNNAME":"佳里區","LI":"建南里","LIN":" ","STREET":"中和街","SECT":" ","MAREA":" ","LANE":" ","ALLEY":" ","HOUSE_NO":"３２號","E_COORD97":165617.64000000001,"N_COORD97":2562154.3399999999,"ADDRESS":"中和街３２號","OBJECTID":133702},"geometry":{"x":165617.63999999966,"y":2562154.3400000017}},{"attributes":{"ID":133703,"DIS_CODE":0,"TOWNNAME":"佳里區","LI":"建南里","LIN":" ","STREET":"中和街","SECT":" ","MAREA":" ","LANE":" ","ALLEY":" ","HOUSE_NO":"５５號","E_COORD97":165593.26000000001,"N_COORD97":2562197.1899999999,"ADDRESS":"中和街５５號","OBJECTID":133703},"geometry":{"x":165593.25999999978,"y":2562197.1899999995}},{"attributes":{"ID":133704,"DIS_CODE":0,"TOWNNAME":"佳里區","LI":"鎮山里","LIN":" ","STREET":"仁愛路","SECT":" ","MAREA":" ","LANE":" ","ALLEY":" ","HOUSE_NO":"１３８號","E_COORD97":166433.64999999999,"N_COORD97":2561369.7799999998,"ADDRESS":"仁愛路１３８號","OBJECTID":133704},"geometry":{"x":166433.65000000037,"y":2561369.7799999993}},{"attributes":{"ID":133705,"DIS_CODE":0,"TOWNNAME":"佳里區","LI":"鎮山里","LIN":" ","STREET":"仁愛路","SECT":" ","MAREA":" ","LANE":" ","ALLEY":" ","HOUSE_NO":"１５６號","E_COORD97":166339,"N_COORD97":2561401.5600000001,"ADDRESS":"仁愛路１５６號","OBJECTID":133705},"geometry":{"x":166339.00000000093,"y":2561401.5600000024}},{"attributes":{"ID":133706,"DIS_CODE":0,"TOWNNAME":"佳里區","LI":"鎮山里","LIN":" ","STREET":"仁愛路","SECT":" ","MAREA":" ","LANE":" ","ALLEY":" ","HOUSE_NO":"１６８之２號","E_COORD97":166261.45000000001,"N_COORD97":2561377.1699999999,"ADDRESS":"仁愛路１６８之２號","OBJECTID":133706},"geometry":{"x":166261.45000000112,"y":2561377.1699999999}},{"attributes":{"ID":133707,"DIS_CODE":0,"TOWNNAME":"佳里區","LI":"鎮山里","LIN":" ","STREET":"仁愛路","SECT":" ","MAREA":" ","LANE":" ","ALLEY":" ","HOUSE_NO":"２２１號","E_COORD97":166216.48999999999,"N_COORD97":2561412.2400000002,"ADDRESS":"仁愛路２２１號","OBJECTID":133707},"geometry":{"x":166216.49000000022,"y":2561412.2400000039}},{"attributes":{"ID":133708,"DIS_CODE":0,"TOWNNAME":"東山區","LI":"東正里","LIN":"20鄰","STREET":" ","SECT":" ","MAREA":"東勢","LANE":" ","ALLEY":" ","HOUSE_NO":"１３６號","E_COORD97":189317.29000000001,"N_COORD97":2580313.3900000001,"ADDRESS":"東勢１３６號","OBJECTID":133708},"geometry":{"x":189317.29000000097,"y":2580313.3900000025}},{"attributes":{"ID":133709,"DIS_CODE":0,"TOWNNAME":"永康區","LI":"正強里","LIN":"6鄰","STREET":"自強路","SECT":" ","MAREA":" ","LANE":" ","ALLEY":" ","HOUSE_NO":"３５２號","E_COORD97":173457.84,"N_COORD97":2547723.7400000002,"ADDRESS":"自強路３５２號","OBJECTID":133709},"geometry":{"x":173457.84000000078,"y":2547723.7400000002}},{"attributes":{"ID":133710,"DIS_CODE":0,"TOWNNAME":"永康區","LI":"正強里","LIN":"6鄰","STREET":"自強路","SECT":" ","MAREA":" ","LANE":" ","ALLEY":" ","HOUSE_NO":"３３２號","E_COORD97":173422.98999999999,"N_COORD97":2547696.5,"ADDRESS":"自強路３３２號","OBJECTID":133710},"geometry":{"x":173422.99000000209,"y":2547696.5000000019}},{"attributes":{"ID":133711,"DIS_CODE":0,"TOWNNAME":"永康區","LI":"正強里","LIN":"6鄰","STREET":"自強路","SECT":" ","MAREA":" ","LANE":" ","ALLEY":" ","HOUSE_NO":"３４４號","E_COORD97":173444.32000000001,"N_COORD97":2547713.2400000002,"ADDRESS":"自強路３４４號","OBJECTID":133711},"geometry":{"x":173444.3200000003,"y":2547713.2400000021}},{"attributes":{"ID":133712,"DIS_CODE":0,"TOWNNAME":"安南區","LI":"頂安里","LIN":"6鄰","STREET":"怡安路","SECT":"一段","MAREA":" ","LANE":" ","ALLEY":" ","HOUSE_NO":"４１０號","E_COORD97":168682.23000000001,"N_COORD97":2549183.8100000001,"ADDRESS":"怡安路一段４１０號","OBJECTID":133712},"geometry":{"x":168682.23000000138,"y":2549183.8100000024}},{"attributes":{"ID":133713,"DIS_CODE":0,"TOWNNAME":"佳里區","LI":"建南里","LIN":" ","STREET":"仁愛路","SECT":" ","MAREA":" ","LANE":" ","ALLEY":" ","HOUSE_NO":"３９７之１號","E_COORD97":165679.12,"N_COORD97":2561624.9100000001,"ADDRESS":"仁愛路３９７之１號","OBJECTID":133713},"geometry":{"x":165679.12000000104,"y":2561624.910000002}},{"attributes":{"ID":133714,"DIS_CODE":0,"TOWNNAME":"東區","LI":"自強里","LIN":"11鄰","STREET":"東門路","SECT":"三段","MAREA":" ","LANE":"３７巷","ALLEY":"７５弄","HOUSE_NO":"５１號三樓","E_COORD97":171134.20999999999,"N_COORD97":2542398.54,"ADDRESS":"東門路三段３７巷７５弄５１號三樓","OBJECTID":133714},"geometry":{"x":171134.20999999903,"y":2542398.5399999991}},{"attributes":{"ID":133715,"DIS_CODE":0,"TOWNNAME":"佳里區","LI":"建南里","LIN":" ","STREET":"仁愛路","SECT":" ","MAREA":" ","LANE":" ","ALLEY":" ","HOUSE_NO":"４３６號","E_COORD97":165579.70999999999,"N_COORD97":2561709.52,"ADDRESS":"仁愛路４３６號","OBJECTID":133715},"geometry":{"x":165579.71000000089,"y":2561709.5200000014}},{"attributes":{"ID":133716,"DIS_CODE":0,"TOWNNAME":"東區","LI":"自強里","LIN":"11鄰","STREET":"東門路","SECT":"三段","MAREA":" ","LANE":"３７巷","ALLEY":"７５弄","HOUSE_NO":"５１號五樓","E_COORD97":171134.20999999999,"N_COORD97":2542398.54,"ADDRESS":"東門路三段３７巷７５弄５１號五樓","OBJECTID":133716},"geometry":{"x":171134.20999999903,"y":2542398.5399999991}},{"attributes":{"ID":133717,"DIS_CODE":0,"TOWNNAME":"東區","LI":"自強里","LIN":"11鄰","STREET":"東門路","SECT":"三段","MAREA":" ","LANE":"３７巷","ALLEY":"７５弄","HOUSE_NO":"５１號六樓","E_COORD97":171134.20999999999,"N_COORD97":2542398.54,"ADDRESS":"東門路三段３７巷７５弄５１號六樓","OBJECTID":133717},"geometry":{"x":171134.20999999903,"y":2542398.5399999991}},{"attributes":{"ID":133718,"DIS_CODE":0,"TOWNNAME":"佳里區","LI":"鎮山里","LIN":" ","STREET":"仁愛路","SECT":" ","MAREA":" ","LANE":" ","ALLEY":" ","HOUSE_NO":"６７之２號","E_COORD97":166547.51000000001,"N_COORD97":2561210.7799999998,"ADDRESS":"仁愛路６７之２號","OBJECTID":133718},"geometry":{"x":166547.50999999978,"y":2561210.7800000031}},{"attributes":{"ID":133719,"DIS_CODE":0,"TOWNNAME":"佳里區","LI":"六安里","LIN":" ","STREET":"六安街","SECT":" ","MAREA":" ","LANE":" ","ALLEY":" ","HOUSE_NO":"４２號","E_COORD97":166115.67999999999,"N_COORD97":2562884.52,"ADDRESS":"六安街４２號","OBJECTID":133719},"geometry":{"x":166115.6799999997,"y":2562884.5200000033}},{"attributes":{"ID":133720,"DIS_CODE":0,"TOWNNAME":"佳里區","LI":"建南里","LIN":"35鄰","STREET":"公園路","SECT":" ","MAREA":" ","LANE":" ","ALLEY":" ","HOUSE_NO":"２７１號","E_COORD97":165252.94,"N_COORD97":2562064.3799999999,"ADDRESS":"公園路２７１號","OBJECTID":133720},"geometry":{"x":165252.94000000134,"y":2562064.3800000027}},{"attributes":{"ID":133721,"DIS_CODE":0,"TOWNNAME":"佳里區","LI":"安西里","LIN":" ","STREET":"公園路","SECT":" ","MAREA":" ","LANE":" ","ALLEY":" ","HOUSE_NO":"３８１號","E_COORD97":165239.76999999999,"N_COORD97":2562375.1499999999,"ADDRESS":"公園路３８１號","OBJECTID":133721},"geometry":{"x":165239.77000000048,"y":2562375.1500000004}},{"attributes":{"ID":133722,"DIS_CODE":0,"TOWNNAME":"東區","LI":"自強里","LIN":"11鄰","STREET":"東門路","SECT":"三段","MAREA":" ","LANE":"３７巷","ALLEY":"７５弄","HOUSE_NO":"５１號四樓","E_COORD97":171134.20999999999,"N_COORD97":2542398.54,"ADDRESS":"東門路三段３７巷７５弄５１號四樓","OBJECTID":133722},"geometry":{"x":171134.20999999903,"y":2542398.5399999991}},{"attributes":{"ID":133723,"DIS_CODE":0,"TOWNNAME":"永康區","LI":"西橋里","LIN":"22鄰","STREET":"大橋三街","SECT":" ","MAREA":" ","LANE":"５７巷","ALLEY":"７弄","HOUSE_NO":"１０號","E_COORD97":170522.89999999999,"N_COORD97":2546533.5,"ADDRESS":"大橋三街５７巷７弄１０號","OBJECTID":133723},"geometry":{"x":170522.90000000037,"y":2546533.5000000019}},{"attributes":{"ID":133724,"DIS_CODE":0,"TOWNNAME":"東區","LI":"南聖里","LIN":"6鄰","STREET":"裕農路","SECT":" ","MAREA":" ","LANE":"７２６巷","ALLEY":"２弄","HOUSE_NO":"１７號","E_COORD97":171797.07000000001,"N_COORD97":2543172.3500000001,"ADDRESS":"裕農路７２６巷２弄１７號","OBJECTID":133724},"geometry":{"x":171797.07000000123,"y":2543172.3499999996}},{"attributes":{"ID":133725,"DIS_CODE":0,"TOWNNAME":"東區","LI":"崇善里","LIN":"24鄰","STREET":"崇善十二街","SECT":" ","MAREA":" ","LANE":"６巷","ALLEY":"１５弄","HOUSE_NO":"２號","E_COORD97":171259.374373,"N_COORD97":2541044.50092,"ADDRESS":"崇善十二街６巷１５弄２號","OBJECTID":133725},"geometry":{"x":171259.37437300012,"y":2541044.5009210035}},{"attributes":{"ID":133726,"DIS_CODE":0,"TOWNNAME":"東區","LI":"崇善里","LIN":"21鄰","STREET":"崇善十一街","SECT":" ","MAREA":" ","LANE":"１２巷","ALLEY":"１７弄","HOUSE_NO":"３２號","E_COORD97":171280.23999999999,"N_COORD97":2541170.77,"ADDRESS":"崇善十一街１２巷１７弄３２號","OBJECTID":133726},"geometry":{"x":171280.24000000209,"y":2541170.7700000033}},{"attributes":{"ID":133727,"DIS_CODE":0,"TOWNNAME":"東區","LI":"崇善里","LIN":"21鄰","STREET":"崇善十一街","SECT":" ","MAREA":" ","LANE":"１２巷","ALLEY":"１７弄","HOUSE_NO":"３號","E_COORD97":171214.32000000001,"N_COORD97":2541159.4900000002,"ADDRESS":"崇善十一街１２巷１７弄３號","OBJECTID":133727},"geometry":{"x":171214.32000000123,"y":2541159.4899999984}},{"attributes":{"ID":133728,"DIS_CODE":0,"TOWNNAME":"永康區","LI":"三合里","LIN":"11鄰","STREET":"南工街","SECT":" ","MAREA":" ","LANE":"２４７巷","ALLEY":"６４弄","HOUSE_NO":"８號二樓之２","E_COORD97":171925.62,"N_COORD97":2545775.4399999999,"ADDRESS":"南工街２４７巷６４弄８號二樓之２","OBJECTID":133728},"geometry":{"x":171925.62000000104,"y":2545775.4399999995}},{"attributes":{"ID":133729,"DIS_CODE":0,"TOWNNAME":"永康區","LI":"三合里","LIN":"11鄰","STREET":"南工街","SECT":" ","MAREA":" ","LANE":"２４７巷","ALLEY":"６４弄","HOUSE_NO":"８號三樓之３","E_COORD97":171925.57999999999,"N_COORD97":2545775.4399999999,"ADDRESS":"南工街２４７巷６４弄８號三樓之３","OBJECTID":133729},"geometry":{"x":171925.58000000101,"y":2545775.4399999995}},{"attributes":{"ID":133730,"DIS_CODE":0,"TOWNNAME":"永康區","LI":"三合里","LIN":"11鄰","STREET":"南工街","SECT":" ","MAREA":" ","LANE":"２４７巷","ALLEY":"６４弄","HOUSE_NO":"８號四樓之２","E_COORD97":171925.62,"N_COORD97":2545775.4399999999,"ADDRESS":"南工街２４７巷６４弄８號四樓之２","OBJECTID":133730},"geometry":{"x":171925.62000000104,"y":2545775.4399999995}},{"attributes":{"ID":133731,"DIS_CODE":0,"TOWNNAME":"北區","LI":"小康里","LIN":"11鄰","STREET":"公園路","SECT":" ","MAREA":" ","LANE":"９９４巷","ALLEY":"２２弄","HOUSE_NO":"５４號二樓","E_COORD97":169573.98000000001,"N_COORD97":2546144.48,"ADDRESS":"公園路９９４巷２２弄５４號二樓","OBJECTID":133731},"geometry":{"x":169573.98000000138,"y":2546144.4800000023}},{"attributes":{"ID":133732,"DIS_CODE":0,"TOWNNAME":"北區","LI":"小康里","LIN":"11鄰","STREET":"公園路","SECT":" ","MAREA":" ","LANE":"９９４巷","ALLEY":"２２弄","HOUSE_NO":"５４號三樓","E_COORD97":169573.98000000001,"N_COORD97":2546144.48,"ADDRESS":"公園路９９４巷２２弄５４號三樓","OBJECTID":133732},"geometry":{"x":169573.98000000138,"y":2546144.4800000023}},{"attributes":{"ID":133733,"DIS_CODE":0,"TOWNNAME":"北區","LI":"小康里","LIN":"11鄰","STREET":"公園路","SECT":" ","MAREA":" ","LANE":"９９４巷","ALLEY":"２２弄","HOUSE_NO":"５４號四樓","E_COORD97":169573.98000000001,"N_COORD97":2546144.48,"ADDRESS":"公園路９９４巷２２弄５４號四樓","OBJECTID":133733},"geometry":{"x":169573.98000000138,"y":2546144.4800000023}},{"attributes":{"ID":133734,"DIS_CODE":0,"TOWNNAME":"北區","LI":"小康里","LIN":"11鄰","STREET":"公園路","SECT":" ","MAREA":" ","LANE":"９９４巷","ALLEY":"２２弄","HOUSE_NO":"５６號二樓","E_COORD97":169562.23999999999,"N_COORD97":2546147.8900000001,"ADDRESS":"公園路９９４巷２２弄５６號二樓","OBJECTID":133734},"geometry":{"x":169562.24000000022,"y":2546147.8900000043}},{"attributes":{"ID":133735,"DIS_CODE":0,"TOWNNAME":"佳里區","LI":"安西里","LIN":" ","STREET":"文化西路","SECT":" ","MAREA":" ","LANE":" ","ALLEY":" ","HOUSE_NO":"１３２號","E_COORD97":163858.48999999999,"N_COORD97":2562462.6299999999,"ADDRESS":"文化西路１３２號","OBJECTID":133735},"geometry":{"x":163858.49000000022,"y":2562462.6300000027}},{"attributes":{"ID":133736,"DIS_CODE":0,"TOWNNAME":"南區","LI":"廣州里","LIN":"15鄰","STREET":"福吉二街","SECT":" ","MAREA":" ","LANE":" ","ALLEY":" ","HOUSE_NO":"９號","E_COORD97":167357.29999999999,"N_COORD97":2542674.71,"ADDRESS":"福吉二街９號","OBJECTID":133736},"geometry":{"x":167357.30000000075,"y":2542674.7100000028}},{"attributes":{"ID":133737,"DIS_CODE":0,"TOWNNAME":"佳里區","LI":"安西里","LIN":" ","STREET":"文化西路","SECT":" ","MAREA":" ","LANE":" ","ALLEY":" ","HOUSE_NO":"１５５之１號","E_COORD97":164241.10999999999,"N_COORD97":2562336.5899999999,"ADDRESS":"文化西路１５５之１號","OBJECTID":133737},"geometry":{"x":164241.1100000022,"y":2562336.5900000017}},{"attributes":{"ID":133738,"DIS_CODE":0,"TOWNNAME":"東山區","LI":"東正里","LIN":"20鄰","STREET":" ","SECT":" ","MAREA":"東勢","LANE":" ","ALLEY":" ","HOUSE_NO":"１３８號之１","E_COORD97":189325.85999999999,"N_COORD97":2580356.9700000002,"ADDRESS":"東勢１３８號之１","OBJECTID":133738},"geometry":{"x":189325.86000000034,"y":2580356.9700000025}},{"attributes":{"ID":133739,"DIS_CODE":0,"TOWNNAME":"東山區","LI":"東正里","LIN":"17鄰","STREET":" ","SECT":" ","MAREA":"東勢","LANE":" ","ALLEY":" ","HOUSE_NO":"１２７號","E_COORD97":189222.23999999999,"N_COORD97":2580325.4100000001,"ADDRESS":"東勢１２７號","OBJECTID":133739},"geometry":{"x":189222.24000000115,"y":2580325.4100000001}},{"attributes":{"ID":133740,"DIS_CODE":0,"TOWNNAME":"東山區","LI":"東正里","LIN":"19鄰","STREET":" ","SECT":" ","MAREA":"東勢","LANE":" ","ALLEY":" ","HOUSE_NO":"１２６號之１","E_COORD97":189261.01000000001,"N_COORD97":2580350.27,"ADDRESS":"東勢１２６號之１","OBJECTID":133740},"geometry":{"x":189261.01000000071,"y":2580350.2700000014}},{"attributes":{"ID":133741,"DIS_CODE":0,"TOWNNAME":"佳里區","LI":"東寧里","LIN":" ","STREET":"文化路","SECT":" ","MAREA":" ","LANE":" ","ALLEY":" ","HOUSE_NO":"１７２號","E_COORD97":165834.48999999999,"N_COORD97":2562598.1400000001,"ADDRESS":"文化路１７２號","OBJECTID":133741},"geometry":{"x":165834.49000000022,"y":2562598.1400000006}},{"attributes":{"ID":133742,"DIS_CODE":0,"TOWNNAME":"佳里區","LI":"安西里","LIN":" ","STREET":"文化路","SECT":" ","MAREA":" ","LANE":" ","ALLEY":" ","HOUSE_NO":"２６３號","E_COORD97":165582.5,"N_COORD97":2562574.3199999998,"ADDRESS":"文化路２６３號","OBJECTID":133742},"geometry":{"x":165582.50000000186,"y":2562574.3199999984}},{"attributes":{"ID":133743,"DIS_CODE":0,"TOWNNAME":"佳里區","LI":"安西里","LIN":" ","STREET":"文化路","SECT":" ","MAREA":" ","LANE":" ","ALLEY":" ","HOUSE_NO":"４８０號","E_COORD97":165000.78,"N_COORD97":2562592.6099999999,"ADDRESS":"文化路４８０號","OBJECTID":133743},"geometry":{"x":165000.78000000026,"y":2562592.6100000013}},{"attributes":{"ID":133744,"DIS_CODE":0,"TOWNNAME":"佳里區","LI":"東寧里","LIN":" ","STREET":"文化路","SECT":" ","MAREA":" ","LANE":" ","ALLEY":" ","HOUSE_NO":"５０號","E_COORD97":166146.45000000001,"N_COORD97":2562598.4399999999,"ADDRESS":"文化路５０號","OBJECTID":133744},"geometry":{"x":166146.45000000112,"y":2562598.4399999995}},{"attributes":{"ID":133745,"DIS_CODE":0,"TOWNNAME":"佳里區","LI":"安西里","LIN":" ","STREET":"文化路","SECT":" ","MAREA":" ","LANE":" ","ALLEY":" ","HOUSE_NO":"５５３號","E_COORD97":164758.67999999999,"N_COORD97":2562557.7400000002,"ADDRESS":"文化路５５３號","OBJECTID":133745},"geometry":{"x":164758.68000000156,"y":2562557.7400000002}},{"attributes":{"ID":133746,"DIS_CODE":0,"TOWNNAME":"佳里區","LI":"安西里","LIN":" ","STREET":"文化路","SECT":" ","MAREA":" ","LANE":" ","ALLEY":" ","HOUSE_NO":"５８８號","E_COORD97":164732.56,"N_COORD97":2562597,"ADDRESS":"文化路５８８號","OBJECTID":133746},"geometry":{"x":164732.56000000052,"y":2562597.0000000037}},{"attributes":{"ID":133747,"DIS_CODE":0,"TOWNNAME":"佳里區","LI":"安西里","LIN":" ","STREET":"文化路","SECT":" ","MAREA":" ","LANE":" ","ALLEY":" ","HOUSE_NO":"６１０號","E_COORD97":164679.60000000001,"N_COORD97":2562581.8799999999,"ADDRESS":"文化路６１０號","OBJECTID":133747},"geometry":{"x":164679.60000000056,"y":2562581.879999999}},{"attributes":{"ID":133748,"DIS_CODE":0,"TOWNNAME":"北區","LI":"小康里","LIN":"11鄰","STREET":"公園路","SECT":" ","MAREA":" ","LANE":"９９４巷","ALLEY":"２２弄","HOUSE_NO":"５６號三樓","E_COORD97":169562.23999999999,"N_COORD97":2546147.8900000001,"ADDRESS":"公園路９９４巷２２弄５６號三樓","OBJECTID":133748},"geometry":{"x":169562.24000000022,"y":2546147.8900000043}},{"attributes":{"ID":133749,"DIS_CODE":0,"TOWNNAME":"北區","LI":"小康里","LIN":"11鄰","STREET":"公園路","SECT":" ","MAREA":" ","LANE":"９９４巷","ALLEY":"２２弄","HOUSE_NO":"５６號四樓","E_COORD97":169562.23999999999,"N_COORD97":2546147.8900000001,"ADDRESS":"公園路９９４巷２２弄５６號四樓","OBJECTID":133749},"geometry":{"x":169562.24000000022,"y":2546147.8900000043}},{"attributes":{"ID":133750,"DIS_CODE":0,"TOWNNAME":"東區","LI":"文聖里","LIN":"4鄰","STREET":"裕農路","SECT":" ","MAREA":" ","LANE":"６６８巷","ALLEY":"７５弄","HOUSE_NO":"２９號","E_COORD97":171810.01000000001,"N_COORD97":2542764.5600000001,"ADDRESS":"裕農路６６８巷７５弄２９號","OBJECTID":133750},"geometry":{"x":171810.00999999978,"y":2542764.5600000024}},{"attributes":{"ID":133751,"DIS_CODE":0,"TOWNNAME":"南區","LI":"南都里","LIN":"11鄰","STREET":"中華南路","SECT":"二段","MAREA":" ","LANE":"３１５巷","ALLEY":"１弄","HOUSE_NO":"１８號二樓","E_COORD97":166556.01999999999,"N_COORD97":2540225.8199999998,"ADDRESS":"中華南路二段３１５巷１弄１８號二樓","OBJECTID":133751},"geometry":{"x":166556.01999999955,"y":2540225.8200000022}},{"attributes":{"ID":133752,"DIS_CODE":0,"TOWNNAME":"南區","LI":"南都里","LIN":"11鄰","STREET":"中華南路","SECT":"二段","MAREA":" ","LANE":"３１５巷","ALLEY":"１弄","HOUSE_NO":"１８號三樓","E_COORD97":166556.01999999999,"N_COORD97":2540225.8199999998,"ADDRESS":"中華南路二段３１５巷１弄１８號三樓","OBJECTID":133752},"geometry":{"x":166556.01999999955,"y":2540225.8200000022}},{"attributes":{"ID":133753,"DIS_CODE":0,"TOWNNAME":"南區","LI":"南都里","LIN":"11鄰","STREET":"中華南路","SECT":"二段","MAREA":" ","LANE":"３１５巷","ALLEY":"１弄","HOUSE_NO":"１８號五樓","E_COORD97":166556.01999999999,"N_COORD97":2540225.8199999998,"ADDRESS":"中華南路二段３１５巷１弄１８號五樓","OBJECTID":133753},"geometry":{"x":166556.01999999955,"y":2540225.8200000022}},{"attributes":{"ID":133754,"DIS_CODE":0,"TOWNNAME":"南區","LI":"南都里","LIN":"11鄰","STREET":"中華南路","SECT":"二段","MAREA":" ","LANE":"３１５巷","ALLEY":"１弄","HOUSE_NO":"１８號四樓","E_COORD97":166556.01999999999,"N_COORD97":2540225.8199999998,"ADDRESS":"中華南路二段３１５巷１弄１８號四樓","OBJECTID":133754},"geometry":{"x":166556.01999999955,"y":2540225.8200000022}},{"attributes":{"ID":133755,"DIS_CODE":0,"TOWNNAME":"南區","LI":"南都里","LIN":"11鄰","STREET":"中華南路","SECT":"二段","MAREA":" ","LANE":"３１５巷","ALLEY":"１弄","HOUSE_NO":"２０號二樓","E_COORD97":166562.81,"N_COORD97":2540225.8199999998,"ADDRESS":"中華南路二段３１５巷１弄２０號二樓","OBJECTID":133755},"geometry":{"x":166562.80999999959,"y":2540225.8200000022}},{"attributes":{"ID":133756,"DIS_CODE":0,"TOWNNAME":"南區","LI":"南都里","LIN":"11鄰","STREET":"中華南路","SECT":"二段","MAREA":" ","LANE":"３１５巷","ALLEY":"１弄","HOUSE_NO":"２０號三樓","E_COORD97":166562.81,"N_COORD97":2540225.8199999998,"ADDRESS":"中華南路二段３１５巷１弄２０號三樓","OBJECTID":133756},"geometry":{"x":166562.80999999959,"y":2540225.8200000022}},{"attributes":{"ID":133757,"DIS_CODE":0,"TOWNNAME":"南區","LI":"南都里","LIN":"11鄰","STREET":"中華南路","SECT":"二段","MAREA":" ","LANE":"３１５巷","ALLEY":"１弄","HOUSE_NO":"２０號五樓","E_COORD97":166562.81,"N_COORD97":2540225.8199999998,"ADDRESS":"中華南路二段３１５巷１弄２０號五樓","OBJECTID":133757},"geometry":{"x":166562.80999999959,"y":2540225.8200000022}},{"attributes":{"ID":133758,"DIS_CODE":0,"TOWNNAME":"佳里區","LI":"安西里","LIN":" ","STREET":"文化路","SECT":" ","MAREA":" ","LANE":" ","ALLEY":" ","HOUSE_NO":"６４９號","E_COORD97":164522.85999999999,"N_COORD97":2562555.4700000002,"ADDRESS":"文化路６４９號","OBJECTID":133758},"geometry":{"x":164522.86000000127,"y":2562555.4700000007}},{"attributes":{"ID":133759,"DIS_CODE":0,"TOWNNAME":"南區","LI":"南都里","LIN":"11鄰","STREET":"中華南路","SECT":"二段","MAREA":" ","LANE":"３１５巷","ALLEY":"１弄","HOUSE_NO":"２０號四樓","E_COORD97":166562.81,"N_COORD97":2540225.8199999998,"ADDRESS":"中華南路二段３１５巷１弄２０號四樓","OBJECTID":133759},"geometry":{"x":166562.80999999959,"y":2540225.8200000022}},{"attributes":{"ID":133760,"DIS_CODE":0,"TOWNNAME":"佳里區","LI":"安西里","LIN":" ","STREET":"文化路","SECT":" ","MAREA":" ","LANE":" ","ALLEY":" ","HOUSE_NO":"６６６之２號","E_COORD97":164565.14999999999,"N_COORD97":2562616.2999999998,"ADDRESS":"文化路６６６之２號","OBJECTID":133760},"geometry":{"x":164565.1500000013,"y":2562616.3000000026}},{"attributes":{"ID":133761,"DIS_CODE":0,"TOWNNAME":"佳里區","LI":"東寧里","LIN":" ","STREET":"文化路","SECT":" ","MAREA":" ","LANE":" ","ALLEY":" ","HOUSE_NO":"９０號","E_COORD97":166062.59,"N_COORD97":2562601.2799999998,"ADDRESS":"文化路９０號","OBJECTID":133761},"geometry":{"x":166062.58999999985,"y":2562601.2800000012}},{"attributes":{"ID":133762,"DIS_CODE":0,"TOWNNAME":"南區","LI":"南都里","LIN":"11鄰","STREET":"中華南路","SECT":"二段","MAREA":" ","LANE":"３１５巷","ALLEY":"１弄","HOUSE_NO":"２２號二樓","E_COORD97":166572.98999999999,"N_COORD97":2540226.1000000001,"ADDRESS":"中華南路二段３１５巷１弄２２號二樓","OBJECTID":133762},"geometry":{"x":166572.99000000115,"y":2540226.1000000034}},{"attributes":{"ID":133763,"DIS_CODE":0,"TOWNNAME":"南區","LI":"南都里","LIN":"11鄰","STREET":"中華南路","SECT":"二段","MAREA":" ","LANE":"３１５巷","ALLEY":"１弄","HOUSE_NO":"２２號三樓","E_COORD97":166572.98999999999,"N_COORD97":2540226.1000000001,"ADDRESS":"中華南路二段３１５巷１弄２２號三樓","OBJECTID":133763},"geometry":{"x":166572.99000000115,"y":2540226.1000000034}},{"attributes":{"ID":133764,"DIS_CODE":0,"TOWNNAME":"南區","LI":"南都里","LIN":"11鄰","STREET":"中華南路","SECT":"二段","MAREA":" ","LANE":"３１５巷","ALLEY":"１弄","HOUSE_NO":"２２號五樓","E_COORD97":166572.98999999999,"N_COORD97":2540226.1000000001,"ADDRESS":"中華南路二段３１５巷１弄２２號五樓","OBJECTID":133764},"geometry":{"x":166572.99000000115,"y":2540226.1000000034}},{"attributes":{"ID":133765,"DIS_CODE":0,"TOWNNAME":"南區","LI":"南都里","LIN":"11鄰","STREET":"中華南路","SECT":"二段","MAREA":" ","LANE":"３１５巷","ALLEY":"１弄","HOUSE_NO":"２２號四樓","E_COORD97":166572.98999999999,"N_COORD97":2540226.1000000001,"ADDRESS":"中華南路二段３１５巷１弄２２號四樓","OBJECTID":133765},"geometry":{"x":166572.99000000115,"y":2540226.1000000034}},{"attributes":{"ID":133766,"DIS_CODE":0,"TOWNNAME":"佳里區","LI":"建南里","LIN":" ","STREET":"光復路","SECT":" ","MAREA":" ","LANE":" ","ALLEY":" ","HOUSE_NO":"１５２號","E_COORD97":165519.76999999999,"N_COORD97":2562171.6699999999,"ADDRESS":"光復路１５２號","OBJECTID":133766},"geometry":{"x":165519.77000000048,"y":2562171.6700000037}},{"attributes":{"ID":133767,"DIS_CODE":0,"TOWNNAME":"南區","LI":"南都里","LIN":"11鄰","STREET":"中華南路","SECT":"二段","MAREA":" ","LANE":"３１５巷","ALLEY":"１弄","HOUSE_NO":"２４號二樓","E_COORD97":166580.06,"N_COORD97":2540225.8199999998,"ADDRESS":"中華南路二段３１５巷１弄２４號二樓","OBJECTID":133767},"geometry":{"x":166580.06000000145,"y":2540225.8200000022}},{"attributes":{"ID":133768,"DIS_CODE":0,"TOWNNAME":"南區","LI":"南都里","LIN":"11鄰","STREET":"中華南路","SECT":"二段","MAREA":" ","LANE":"３１５巷","ALLEY":"１弄","HOUSE_NO":"２４號三樓","E_COORD97":166580.06,"N_COORD97":2540225.8199999998,"ADDRESS":"中華南路二段３１５巷１弄２４號三樓","OBJECTID":133768},"geometry":{"x":166580.06000000145,"y":2540225.8200000022}},{"attributes":{"ID":133769,"DIS_CODE":0,"TOWNNAME":"佳里區","LI":"安西里","LIN":"14鄰","STREET":"文化路","SECT":" ","MAREA":" ","LANE":" ","ALLEY":" ","HOUSE_NO":"２９５號","E_COORD97":165457.04000000001,"N_COORD97":2562578.8500000001,"ADDRESS":"文化路２９５號","OBJECTID":133769},"geometry":{"x":165457.04000000097,"y":2562578.8499999996}},{"attributes":{"ID":133770,"DIS_CODE":0,"TOWNNAME":"佳里區","LI":"安西里","LIN":"7鄰","STREET":"文化路","SECT":" ","MAREA":" ","LANE":" ","ALLEY":" ","HOUSE_NO":"２３５號","E_COORD97":165658.82000000001,"N_COORD97":2562568.6200000001,"ADDRESS":"文化路２３５號","OBJECTID":133770},"geometry":{"x":165658.82000000123,"y":2562568.620000001}},{"attributes":{"ID":133771,"DIS_CODE":0,"TOWNNAME":"南區","LI":"南都里","LIN":"11鄰","STREET":"中華南路","SECT":"二段","MAREA":" ","LANE":"３１５巷","ALLEY":"１弄","HOUSE_NO":"２４號五樓","E_COORD97":166580.06,"N_COORD97":2540225.8199999998,"ADDRESS":"中華南路二段３１５巷１弄２４號五樓","OBJECTID":133771},"geometry":{"x":166580.06000000145,"y":2540225.8200000022}},{"attributes":{"ID":133772,"DIS_CODE":0,"TOWNNAME":"南區","LI":"南都里","LIN":"11鄰","STREET":"中華南路","SECT":"二段","MAREA":" ","LANE":"３１５巷","ALLEY":"１弄","HOUSE_NO":"２４號四樓","E_COORD97":166580.06,"N_COORD97":2540225.8199999998,"ADDRESS":"中華南路二段３１５巷１弄２４號四樓","OBJECTID":133772},"geometry":{"x":166580.06000000145,"y":2540225.8200000022}},{"attributes":{"ID":133773,"DIS_CODE":0,"TOWNNAME":"安南區","LI":"淵中里","LIN":"6鄰","STREET":"安中路","SECT":"四段","MAREA":" ","LANE":" ","ALLEY":" ","HOUSE_NO":"１２５號","E_COORD97":164990.78,"N_COORD97":2549980.5,"ADDRESS":"安中路四段１２５號","OBJECTID":133773},"geometry":{"x":164990.78000000212,"y":2549980.5}},{"attributes":{"ID":133774,"DIS_CODE":0,"TOWNNAME":"安南區","LI":"淵中里","LIN":"6鄰","STREET":"安中路","SECT":"四段","MAREA":" ","LANE":" ","ALLEY":" ","HOUSE_NO":"１２７號","E_COORD97":164986.29000000001,"N_COORD97":2549981.8500000001,"ADDRESS":"安中路四段１２７號","OBJECTID":133774},"geometry":{"x":164986.29000000004,"y":2549981.8500000034}},{"attributes":{"ID":133775,"DIS_CODE":0,"TOWNNAME":"東區","LI":"崇文里","LIN":"6鄰","STREET":"崇德路","SECT":" ","MAREA":" ","LANE":" ","ALLEY":" ","HOUSE_NO":"６７３號","E_COORD97":170806.20000000001,"N_COORD97":2541064.98,"ADDRESS":"崇德路６７３號","OBJECTID":133775},"geometry":{"x":170806.20000000112,"y":2541064.9800000042}},{"attributes":{"ID":133776,"DIS_CODE":0,"TOWNNAME":"佳里區","LI":"安西里","LIN":"19鄰","STREET":"光華街","SECT":" ","MAREA":" ","LANE":" ","ALLEY":" ","HOUSE_NO":"５２號","E_COORD97":165365.85000000001,"N_COORD97":2562810.96,"ADDRESS":"光華街５２號","OBJECTID":133776},"geometry":{"x":165365.84999999963,"y":2562810.9600000009}},{"attributes":{"ID":133777,"DIS_CODE":0,"TOWNNAME":"南區","LI":"南都里","LIN":"11鄰","STREET":"中華南路","SECT":"二段","MAREA":" ","LANE":"３１５巷","ALLEY":"１弄","HOUSE_NO":"２６號二樓","E_COORD97":166589.39000000001,"N_COORD97":2540225.8199999998,"ADDRESS":"中華南路二段３１５巷１弄２６號二樓","OBJECTID":133777},"geometry":{"x":166589.38999999966,"y":2540225.8200000022}},{"attributes":{"ID":133778,"DIS_CODE":0,"TOWNNAME":"南區","LI":"南都里","LIN":"11鄰","STREET":"中華南路","SECT":"二段","MAREA":" ","LANE":"３１５巷","ALLEY":"１弄","HOUSE_NO":"２６號三樓","E_COORD97":166589.39000000001,"N_COORD97":2540225.8199999998,"ADDRESS":"中華南路二段３１５巷１弄２６號三樓","OBJECTID":133778},"geometry":{"x":166589.38999999966,"y":2540225.8200000022}},{"attributes":{"ID":133779,"DIS_CODE":0,"TOWNNAME":"南區","LI":"南都里","LIN":"11鄰","STREET":"中華南路","SECT":"二段","MAREA":" ","LANE":"３１５巷","ALLEY":"１弄","HOUSE_NO":"２６號五樓","E_COORD97":166589.39000000001,"N_COORD97":2540225.8199999998,"ADDRESS":"中華南路二段３１５巷１弄２６號五樓","OBJECTID":133779},"geometry":{"x":166589.38999999966,"y":2540225.8200000022}},{"attributes":{"ID":133780,"DIS_CODE":0,"TOWNNAME":"南區","LI":"南都里","LIN":"11鄰","STREET":"中華南路","SECT":"二段","MAREA":" ","LANE":"３１５巷","ALLEY":"１弄","HOUSE_NO":"２６號四樓","E_COORD97":166589.39000000001,"N_COORD97":2540225.8199999998,"ADDRESS":"中華南路二段３１５巷１弄２６號四樓","OBJECTID":133780},"geometry":{"x":166589.38999999966,"y":2540225.8200000022}},{"attributes":{"ID":133781,"DIS_CODE":0,"TOWNNAME":"南區","LI":"南都里","LIN":"11鄰","STREET":"中華南路","SECT":"二段","MAREA":" ","LANE":"３１５巷","ALLEY":"１弄","HOUSE_NO":"２８號二樓","E_COORD97":166597.59,"N_COORD97":2540226.1000000001,"ADDRESS":"中華南路二段３１５巷１弄２８號二樓","OBJECTID":133781},"geometry":{"x":166597.59000000078,"y":2540226.1000000034}},{"attributes":{"ID":133782,"DIS_CODE":0,"TOWNNAME":"南區","LI":"南都里","LIN":"11鄰","STREET":"中華南路","SECT":"二段","MAREA":" ","LANE":"３１５巷","ALLEY":"１弄","HOUSE_NO":"２８號三樓","E_COORD97":166597.59,"N_COORD97":2540226.1000000001,"ADDRESS":"中華南路二段３１５巷１弄２８號三樓","OBJECTID":133782},"geometry":{"x":166597.59000000078,"y":2540226.1000000034}},{"attributes":{"ID":133783,"DIS_CODE":0,"TOWNNAME":"南區","LI":"南都里","LIN":"11鄰","STREET":"中華南路","SECT":"二段","MAREA":" ","LANE":"３１５巷","ALLEY":"１弄","HOUSE_NO":"２８號五樓","E_COORD97":166597.59,"N_COORD97":2540226.1000000001,"ADDRESS":"中華南路二段３１５巷１弄２８號五樓","OBJECTID":133783},"geometry":{"x":166597.59000000078,"y":2540226.1000000034}},{"attributes":{"ID":133784,"DIS_CODE":0,"TOWNNAME":"南區","LI":"南都里","LIN":"11鄰","STREET":"中華南路","SECT":"二段","MAREA":" ","LANE":"３１５巷","ALLEY":"１弄","HOUSE_NO":"２８號四樓","E_COORD97":166597.59,"N_COORD97":2540226.1000000001,"ADDRESS":"中華南路二段３１５巷１弄２８號四樓","OBJECTID":133784},"geometry":{"x":166597.59000000078,"y":2540226.1000000034}},{"attributes":{"ID":133785,"DIS_CODE":0,"TOWNNAME":"東區","LI":"富強里","LIN":"15鄰","STREET":"裕農路","SECT":" ","MAREA":" ","LANE":"３５０巷","ALLEY":"１０弄","HOUSE_NO":"７號","E_COORD97":171002.73999999999,"N_COORD97":2542995.5299999998,"ADDRESS":"裕農路３５０巷１０弄７號","OBJECTID":133785},"geometry":{"x":171002.74000000115,"y":2542995.5299999993}},{"attributes":{"ID":133786,"DIS_CODE":0,"TOWNNAME":"東區","LI":"富強里","LIN":"15鄰","STREET":"裕農路","SECT":" ","MAREA":" ","LANE":"３５０巷","ALLEY":"２４弄","HOUSE_NO":"１２號","E_COORD97":170996.10000000001,"N_COORD97":2542990.79,"ADDRESS":"裕農路３５０巷２４弄１２號","OBJECTID":133786},"geometry":{"x":170996.10000000056,"y":2542990.7900000028}},{"attributes":{"ID":133787,"DIS_CODE":0,"TOWNNAME":"佳里區","LI":"建南里","LIN":"37鄰","STREET":"四維二街","SECT":" ","MAREA":" ","LANE":" ","ALLEY":" ","HOUSE_NO":"１３６號","E_COORD97":165662.64999999999,"N_COORD97":2561292.6499999999,"ADDRESS":"四維二街１３６號","OBJECTID":133787},"geometry":{"x":165662.65000000037,"y":2561292.6500000004}},{"attributes":{"ID":133788,"DIS_CODE":0,"TOWNNAME":"佳里區","LI":"建南里","LIN":"37鄰","STREET":"四維二街","SECT":" ","MAREA":" ","LANE":" ","ALLEY":" ","HOUSE_NO":"１３８號","E_COORD97":165662.73999999999,"N_COORD97":2561288.7400000002,"ADDRESS":"四維二街１３８號","OBJECTID":133788},"geometry":{"x":165662.74000000115,"y":2561288.7400000002}},{"attributes":{"ID":133789,"DIS_CODE":0,"TOWNNAME":"佳里區","LI":"建南里","LIN":"37鄰","STREET":"四維二街","SECT":" ","MAREA":" ","LANE":" ","ALLEY":" ","HOUSE_NO":"１４０號","E_COORD97":165662.97,"N_COORD97":2561284.2599999998,"ADDRESS":"四維二街１４０號","OBJECTID":133789},"geometry":{"x":165662.96999999974,"y":2561284.2600000016}},{"attributes":{"ID":133790,"DIS_CODE":0,"TOWNNAME":"佳里區","LI":"建南里","LIN":" ","STREET":"平等街","SECT":" ","MAREA":" ","LANE":" ","ALLEY":" ","HOUSE_NO":"１６６號","E_COORD97":165712.98999999999,"N_COORD97":2561897.3100000001,"ADDRESS":"平等街１６６號","OBJECTID":133790},"geometry":{"x":165712.99000000022,"y":2561897.3100000024}},{"attributes":{"ID":133791,"DIS_CODE":0,"TOWNNAME":"佳里區","LI":"建南里","LIN":" ","STREET":"平等街","SECT":" ","MAREA":" ","LANE":" ","ALLEY":" ","HOUSE_NO":"１８２號","E_COORD97":165682.79000000001,"N_COORD97":2561885.7000000002,"ADDRESS":"平等街１８２號","OBJECTID":133791},"geometry":{"x":165682.79000000097,"y":2561885.6999999993}},{"attributes":{"ID":133792,"DIS_CODE":0,"TOWNNAME":"佳里區","LI":"安西里","LIN":" ","STREET":"民生街","SECT":" ","MAREA":" ","LANE":" ","ALLEY":" ","HOUSE_NO":"１９號","E_COORD97":165613.97,"N_COORD97":2562650.1299999999,"ADDRESS":"民生街１９號","OBJECTID":133792},"geometry":{"x":165613.96999999974,"y":2562650.1300000008}},{"attributes":{"ID":133793,"DIS_CODE":0,"TOWNNAME":"佳里區","LI":"安西里","LIN":" ","STREET":"民生街","SECT":" ","MAREA":" ","LANE":" ","ALLEY":" ","HOUSE_NO":"１號","E_COORD97":165605.89999999999,"N_COORD97":2562542.2599999998,"ADDRESS":"民生街１號","OBJECTID":133793},"geometry":{"x":165605.9000000013,"y":2562542.2599999998}},{"attributes":{"ID":133794,"DIS_CODE":0,"TOWNNAME":"佳里區","LI":"安西里","LIN":" ","STREET":"民權街","SECT":" ","MAREA":" ","LANE":" ","ALLEY":" ","HOUSE_NO":"５號","E_COORD97":165663.16,"N_COORD97":2562537.5299999998,"ADDRESS":"民權街５號","OBJECTID":133794},"geometry":{"x":165663.16000000108,"y":2562537.5299999993}},{"attributes":{"ID":133795,"DIS_CODE":0,"TOWNNAME":"佳里區","LI":"安西里","LIN":" ","STREET":"民權街","SECT":" ","MAREA":" ","LANE":" ","ALLEY":" ","HOUSE_NO":"７號","E_COORD97":165659.17000000001,"N_COORD97":2562537.3100000001,"ADDRESS":"民權街７號","OBJECTID":133795},"geometry":{"x":165659.17000000179,"y":2562537.3099999987}},{"attributes":{"ID":133796,"DIS_CODE":0,"TOWNNAME":"佳里區","LI":"安西里","LIN":" ","STREET":"民權街","SECT":" ","MAREA":" ","LANE":" ","ALLEY":" ","HOUSE_NO":"９號","E_COORD97":165655.04000000001,"N_COORD97":2562537.3999999999,"ADDRESS":"民權街９號","OBJECTID":133796},"geometry":{"x":165655.0400000019,"y":2562537.4000000022}},{"attributes":{"ID":133797,"DIS_CODE":0,"TOWNNAME":"佳里區","LI":"建南里","LIN":" ","STREET":"光復路","SECT":" ","MAREA":" ","LANE":" ","ALLEY":" ","HOUSE_NO":"１２３號","E_COORD97":165498.26999999999,"N_COORD97":2562035.0499999998,"ADDRESS":"光復路１２３號","OBJECTID":133797},"geometry":{"x":165498.26999999955,"y":2562035.0500000026}},{"attributes":{"ID":133798,"DIS_CODE":0,"TOWNNAME":"佳里區","LI":"建南里","LIN":" ","STREET":"光復路","SECT":" ","MAREA":" ","LANE":" ","ALLEY":" ","HOUSE_NO":"１３６號","E_COORD97":165526.25,"N_COORD97":2562125.1899999999,"ADDRESS":"光復路１３６號","OBJECTID":133798},"geometry":{"x":165526.25,"y":2562125.1900000013}},{"attributes":{"ID":133799,"DIS_CODE":0,"TOWNNAME":"佳里區","LI":"建南里","LIN":" ","STREET":"光復路","SECT":" ","MAREA":" ","LANE":" ","ALLEY":" ","HOUSE_NO":"２００號","E_COORD97":165515.78,"N_COORD97":2562334.73,"ADDRESS":"光復路２００號","OBJECTID":133799},"geometry":{"x":165515.78000000026,"y":2562334.7300000042}},{"attributes":{"ID":133800,"DIS_CODE":0,"TOWNNAME":"東山區","LI":"東正里","LIN":"19鄰","STREET":" ","SECT":" ","MAREA":"東勢","LANE":" ","ALLEY":" ","HOUSE_NO":"１２６號","E_COORD97":189257.95999999999,"N_COORD97":2580339.2400000002,"ADDRESS":"東勢１２６號","OBJECTID":133800},"geometry":{"x":189257.96000000089,"y":2580339.2400000002}}]}