{"displayFieldName":"TOWNNAME","fieldAliases":{"ID":"ID","DIS_CODE":"DIS_CODE","TOWNNAME":"TOWNNAME","LI":"LI","LIN":"LIN","STREET":"STREET","SECT":"SECT","MAREA":"MAREA","LANE":"LANE","ALLEY":"ALLEY","HOUSE_NO":"HOUSE_NO","E_COORD97":"E_COORD97","N_COORD97":"N_COORD97","ADDRESS":"ADDRESS","OBJECTID":"OBJECTID"},"geometryType":"esriGeometryPoint","spatialReference":{"wkid":102443,"latestWkid":3826},"fields":[{"name":"ID","type":"esriFieldTypeDouble","alias":"ID"},{"name":"DIS_CODE","type":"esriFieldTypeInteger","alias":"DIS_CODE"},{"name":"TOWNNAME","type":"esriFieldTypeString","alias":"TOWNNAME","length":8},{"name":"LI","type":"esriFieldTypeString","alias":"LI","length":8},{"name":"LIN","type":"esriFieldTypeString","alias":"LIN","length":12},{"name":"STREET","type":"esriFieldTypeString","alias":"STREET","length":20},{"name":"SECT","type":"esriFieldTypeString","alias":"SECT","length":8},{"name":"MAREA","type":"esriFieldTypeString","alias":"MAREA","length":12},{"name":"LANE","type":"esriFieldTypeString","alias":"LANE","length":10},{"name":"ALLEY","type":"esriFieldTypeString","alias":"ALLEY","length":10},{"name":"HOUSE_NO","type":"esriFieldTypeString","alias":"HOUSE_NO","length":20},{"name":"E_COORD97","type":"esriFieldTypeDouble","alias":"E_COORD97"},{"name":"N_COORD97","type":"esriFieldTypeDouble","alias":"N_COORD97"},{"name":"ADDRESS","type":"esriFieldTypeString","alias":"ADDRESS","length":50},{"name":"OBJECTID","type":"esriFieldTypeOID","alias":"OBJECTID"}],"features":[{"attributes":{"ID":191002,"DIS_CODE":0,"TOWNNAME":"善化區","LI":"小新里","LIN":"22鄰","STREET":" ","SECT":" ","MAREA":"成功新村","LANE":" ","ALLEY":" ","HOUSE_NO":"２２號四樓","E_COORD97":180378.14999999999,"N_COORD97":2558686.25,"ADDRESS":"成功新村２２號四樓","OBJECTID":191001},"geometry":{"x":180378.1500000013,"y":2558686.2500000019}},{"attributes":{"ID":191003,"DIS_CODE":0,"TOWNNAME":"善化區","LI":"小新里","LIN":"22鄰","STREET":" ","SECT":" ","MAREA":"成功新村","LANE":" ","ALLEY":" ","HOUSE_NO":"６８號三樓","E_COORD97":180355.70999999999,"N_COORD97":2558658,"ADDRESS":"成功新村６８號三樓","OBJECTID":191002},"geometry":{"x":180355.70999999996,"y":2558658.0000000019}},{"attributes":{"ID":191004,"DIS_CODE":0,"TOWNNAME":"善化區","LI":"小新里","LIN":"22鄰","STREET":" ","SECT":" ","MAREA":"成功新村","LANE":" ","ALLEY":" ","HOUSE_NO":"３７號七樓","E_COORD97":180436.94,"N_COORD97":2558650,"ADDRESS":"成功新村３７號七樓","OBJECTID":191003},"geometry":{"x":180436.94000000134,"y":2558650}},{"attributes":{"ID":191005,"DIS_CODE":0,"TOWNNAME":"鹽水區","LI":"橋南里","LIN":"5鄰","STREET":"行昌路","SECT":" ","MAREA":" ","LANE":"４５巷","ALLEY":"２１弄","HOUSE_NO":"１３號","E_COORD97":175258.22,"N_COORD97":2579343.8599999999,"ADDRESS":"行昌路４５巷２１弄１３號","OBJECTID":191004},"geometry":{"x":175258.21999999974,"y":2579343.8599999994}},{"attributes":{"ID":191006,"DIS_CODE":0,"TOWNNAME":"鹽水區","LI":"橋南里","LIN":"5鄰","STREET":"行昌路","SECT":" ","MAREA":" ","LANE":"４５巷","ALLEY":"２１弄","HOUSE_NO":"１５號","E_COORD97":175261.45000000001,"N_COORD97":2579346.3799999999,"ADDRESS":"行昌路４５巷２１弄１５號","OBJECTID":191005},"geometry":{"x":175261.45000000112,"y":2579346.3800000008}},{"attributes":{"ID":191007,"DIS_CODE":0,"TOWNNAME":"鹽水區","LI":"橋南里","LIN":"5鄰","STREET":"行昌路","SECT":" ","MAREA":" ","LANE":"４５巷","ALLEY":"２１弄","HOUSE_NO":"１７號","E_COORD97":175264.67999999999,"N_COORD97":2579348.8999999999,"ADDRESS":"行昌路４５巷２１弄１７號","OBJECTID":191006},"geometry":{"x":175264.6799999997,"y":2579348.9000000004}},{"attributes":{"ID":191008,"DIS_CODE":0,"TOWNNAME":"鹽水區","LI":"橋南里","LIN":"5鄰","STREET":"行昌路","SECT":" ","MAREA":" ","LANE":"４５巷","ALLEY":"２１弄","HOUSE_NO":"１９號","E_COORD97":175267.89999999999,"N_COORD97":2579351.4199999999,"ADDRESS":"行昌路４５巷２１弄１９號","OBJECTID":191007},"geometry":{"x":175267.90000000037,"y":2579351.4199999999}},{"attributes":{"ID":191009,"DIS_CODE":0,"TOWNNAME":"鹽水區","LI":"橋南里","LIN":"5鄰","STREET":"行昌路","SECT":" ","MAREA":" ","LANE":"４５巷","ALLEY":"２１弄","HOUSE_NO":"１號","E_COORD97":175238.87,"N_COORD97":2579328.7400000002,"ADDRESS":"行昌路４５巷２１弄１號","OBJECTID":191008},"geometry":{"x":175238.87000000011,"y":2579328.7400000002}},{"attributes":{"ID":191010,"DIS_CODE":0,"TOWNNAME":"鹽水區","LI":"橋南里","LIN":"5鄰","STREET":"行昌路","SECT":" ","MAREA":" ","LANE":"４５巷","ALLEY":"２１弄","HOUSE_NO":"２１號","E_COORD97":175271.13,"N_COORD97":2579353.9399999999,"ADDRESS":"行昌路４５巷２１弄２１號","OBJECTID":191009},"geometry":{"x":175271.13000000175,"y":2579353.9399999995}},{"attributes":{"ID":191011,"DIS_CODE":0,"TOWNNAME":"鹽水區","LI":"橋南里","LIN":"5鄰","STREET":"行昌路","SECT":" ","MAREA":" ","LANE":"４５巷","ALLEY":"２１弄","HOUSE_NO":"２３號","E_COORD97":175274.35000000001,"N_COORD97":2579356.46,"ADDRESS":"行昌路４５巷２１弄２３號","OBJECTID":191010},"geometry":{"x":175274.35000000149,"y":2579356.459999999}},{"attributes":{"ID":191012,"DIS_CODE":0,"TOWNNAME":"鹽水區","LI":"橋南里","LIN":"5鄰","STREET":"行昌路","SECT":" ","MAREA":" ","LANE":"４５巷","ALLEY":"２１弄","HOUSE_NO":"２５號","E_COORD97":175277.57999999999,"N_COORD97":2579358.98,"ADDRESS":"行昌路４５巷２１弄２５號","OBJECTID":191011},"geometry":{"x":175277.58000000007,"y":2579358.9800000004}},{"attributes":{"ID":191013,"DIS_CODE":0,"TOWNNAME":"永康區","LI":"\u25A0行里","LIN":"38鄰","STREET":"仁愛街","SECT":" ","MAREA":" ","LANE":"１３６巷","ALLEY":" ","HOUSE_NO":"３１號","E_COORD97":172243.22,"N_COORD97":2549609.27,"ADDRESS":"仁愛街１３６巷３１號","OBJECTID":191012},"geometry":{"x":172243.22000000067,"y":2549609.2700000033}},{"attributes":{"ID":191014,"DIS_CODE":0,"TOWNNAME":"東區","LI":"崇明里","LIN":"15鄰","STREET":"崇明路","SECT":" ","MAREA":" ","LANE":" ","ALLEY":" ","HOUSE_NO":"５０４號","E_COORD97":170397.42000000001,"N_COORD97":2541573.6000000001,"ADDRESS":"崇明路５０４號","OBJECTID":191013},"geometry":{"x":170397.42000000086,"y":2541573.6000000015}},{"attributes":{"ID":191015,"DIS_CODE":0,"TOWNNAME":"東區","LI":"崇明里","LIN":"15鄰","STREET":"崇明路","SECT":" ","MAREA":" ","LANE":" ","ALLEY":" ","HOUSE_NO":"５０８號","E_COORD97":170405.29000000001,"N_COORD97":2541561.7799999998,"ADDRESS":"崇明路５０８號","OBJECTID":191014},"geometry":{"x":170405.29000000097,"y":2541561.7800000012}},{"attributes":{"ID":191016,"DIS_CODE":0,"TOWNNAME":"東區","LI":"崇明里","LIN":"15鄰","STREET":"崇明路","SECT":" ","MAREA":" ","LANE":" ","ALLEY":" ","HOUSE_NO":"５１０號","E_COORD97":170409.38,"N_COORD97":2541559.1000000001,"ADDRESS":"崇明路５１０號","OBJECTID":191015},"geometry":{"x":170409.38000000175,"y":2541559.1000000015}},{"attributes":{"ID":191017,"DIS_CODE":0,"TOWNNAME":"東區","LI":"崇明里","LIN":"15鄰","STREET":"崇明路","SECT":" ","MAREA":" ","LANE":" ","ALLEY":" ","HOUSE_NO":"５１２號","E_COORD97":170413.06,"N_COORD97":2541556.4100000001,"ADDRESS":"崇明路５１２號","OBJECTID":191016},"geometry":{"x":170413.06000000052,"y":2541556.4100000001}},{"attributes":{"ID":191018,"DIS_CODE":0,"TOWNNAME":"東區","LI":"崇明里","LIN":"15鄰","STREET":"崇明路","SECT":" ","MAREA":" ","LANE":" ","ALLEY":" ","HOUSE_NO":"５１８號","E_COORD97":170422.47,"N_COORD97":2541546.3199999998,"ADDRESS":"崇明路５１８號","OBJECTID":191017},"geometry":{"x":170422.47000000067,"y":2541546.3200000003}},{"attributes":{"ID":191019,"DIS_CODE":0,"TOWNNAME":"東區","LI":"崇明里","LIN":"15鄰","STREET":"崇明路","SECT":" ","MAREA":" ","LANE":" ","ALLEY":" ","HOUSE_NO":"５２０號","E_COORD97":170426.28,"N_COORD97":2541542.3700000001,"ADDRESS":"崇明路５２０號","OBJECTID":191018},"geometry":{"x":170426.28000000119,"y":2541542.3700000029}},{"attributes":{"ID":191020,"DIS_CODE":0,"TOWNNAME":"東區","LI":"崇明里","LIN":"15鄰","STREET":"崇明路","SECT":" ","MAREA":" ","LANE":" ","ALLEY":" ","HOUSE_NO":"５７６號","E_COORD97":170479.67999999999,"N_COORD97":2541488.5899999999,"ADDRESS":"崇明路５７６號","OBJECTID":191019},"geometry":{"x":170479.6799999997,"y":2541488.5900000017}},{"attributes":{"ID":191021,"DIS_CODE":0,"TOWNNAME":"東區","LI":"崇明里","LIN":"15鄰","STREET":"崇明路","SECT":" ","MAREA":" ","LANE":" ","ALLEY":" ","HOUSE_NO":"５７８號","E_COORD97":170483.64000000001,"N_COORD97":2541486.3300000001,"ADDRESS":"崇明路５７８號","OBJECTID":191020},"geometry":{"x":170483.64000000153,"y":2541486.3300000038}},{"attributes":{"ID":191022,"DIS_CODE":0,"TOWNNAME":"永康區","LI":"\u25A0行里","LIN":"14鄰","STREET":"中正六街","SECT":" ","MAREA":" ","LANE":" ","ALLEY":" ","HOUSE_NO":"１８１號","E_COORD97":171871.63,"N_COORD97":2548866.9500000002,"ADDRESS":"中正六街１８１號","OBJECTID":191021},"geometry":{"x":171871.62999999989,"y":2548866.9500000011}},{"attributes":{"ID":191023,"DIS_CODE":0,"TOWNNAME":"鹽水區","LI":"橋南里","LIN":"5鄰","STREET":"行昌路","SECT":" ","MAREA":" ","LANE":"４５巷","ALLEY":"２１弄","HOUSE_NO":"２７號","E_COORD97":175280.79999999999,"N_COORD97":2579361.5,"ADDRESS":"行昌路４５巷２１弄２７號","OBJECTID":191022},"geometry":{"x":175280.80000000075,"y":2579361.5}},{"attributes":{"ID":191024,"DIS_CODE":0,"TOWNNAME":"鹽水區","LI":"橋南里","LIN":"5鄰","STREET":"行昌路","SECT":" ","MAREA":" ","LANE":"４５巷","ALLEY":"２１弄","HOUSE_NO":"３號","E_COORD97":175242.10000000001,"N_COORD97":2579331.2599999998,"ADDRESS":"行昌路４５巷２１弄３號","OBJECTID":191023},"geometry":{"x":175242.0999999987,"y":2579331.2600000016}},{"attributes":{"ID":191025,"DIS_CODE":0,"TOWNNAME":"鹽水區","LI":"橋南里","LIN":"5鄰","STREET":"行昌路","SECT":" ","MAREA":" ","LANE":"４５巷","ALLEY":"２１弄","HOUSE_NO":"５號","E_COORD97":175245.32000000001,"N_COORD97":2579333.7799999998,"ADDRESS":"行昌路４５巷２１弄５號","OBJECTID":191024},"geometry":{"x":175245.32000000123,"y":2579333.7800000012}},{"attributes":{"ID":191026,"DIS_CODE":0,"TOWNNAME":"永康區","LI":"\u25A0行里","LIN":"3鄰","STREET":"中正路","SECT":" ","MAREA":" ","LANE":" ","ALLEY":" ","HOUSE_NO":"８６４號","E_COORD97":172107.29000000001,"N_COORD97":2548800.5499999998,"ADDRESS":"中正路８６４號","OBJECTID":191025},"geometry":{"x":172107.29000000097,"y":2548800.5500000007}},{"attributes":{"ID":191027,"DIS_CODE":0,"TOWNNAME":"永康區","LI":"\u25A0洲里","LIN":"25鄰","STREET":"洲工街","SECT":" ","MAREA":" ","LANE":" ","ALLEY":" ","HOUSE_NO":"１０號","E_COORD97":170653.26000000001,"N_COORD97":2548073.1600000001,"ADDRESS":"洲工街１０號","OBJECTID":191026},"geometry":{"x":170653.25999999978,"y":2548073.1600000001}},{"attributes":{"ID":191028,"DIS_CODE":0,"TOWNNAME":"鹽水區","LI":"橋南里","LIN":"5鄰","STREET":"行昌路","SECT":" ","MAREA":" ","LANE":"４５巷","ALLEY":"２１弄","HOUSE_NO":"７號","E_COORD97":175248.54999999999,"N_COORD97":2579336.2999999998,"ADDRESS":"行昌路４５巷２１弄７號","OBJECTID":191027},"geometry":{"x":175248.55000000075,"y":2579336.3000000007}},{"attributes":{"ID":191029,"DIS_CODE":0,"TOWNNAME":"鹽水區","LI":"橋南里","LIN":"5鄰","STREET":"行昌路","SECT":" ","MAREA":" ","LANE":"４５巷","ALLEY":"２１弄","HOUSE_NO":"９號","E_COORD97":175251.76999999999,"N_COORD97":2579338.8199999998,"ADDRESS":"行昌路４５巷２１弄９號","OBJECTID":191028},"geometry":{"x":175251.77000000048,"y":2579338.8200000003}},{"attributes":{"ID":191030,"DIS_CODE":0,"TOWNNAME":"安平區","LI":"石門里","LIN":"5鄰","STREET":"安北路","SECT":" ","MAREA":" ","LANE":"１６巷","ALLEY":"１７弄","HOUSE_NO":"３４號","E_COORD97":164671.95000000001,"N_COORD97":2544589.5099999998,"ADDRESS":"安北路１６巷１７弄３４號","OBJECTID":191029},"geometry":{"x":164671.95000000019,"y":2544589.5099999998}},{"attributes":{"ID":191031,"DIS_CODE":0,"TOWNNAME":"安平區","LI":"石門里","LIN":"5鄰","STREET":"安北路","SECT":" ","MAREA":" ","LANE":"１６巷","ALLEY":"１７弄","HOUSE_NO":"１８號","E_COORD97":164698.78,"N_COORD97":2544562.9700000002,"ADDRESS":"安北路１６巷１７弄１８號","OBJECTID":191030},"geometry":{"x":164698.78000000026,"y":2544562.9700000007}},{"attributes":{"ID":191032,"DIS_CODE":0,"TOWNNAME":"安平區","LI":"石門里","LIN":"5鄰","STREET":"安北路","SECT":" ","MAREA":" ","LANE":"１６巷","ALLEY":"１７弄","HOUSE_NO":"３１號之４","E_COORD97":164658.88,"N_COORD97":2544575.5699999998,"ADDRESS":"安北路１６巷１７弄３１號之４","OBJECTID":191031},"geometry":{"x":164658.87999999989,"y":2544575.5700000003}},{"attributes":{"ID":191033,"DIS_CODE":0,"TOWNNAME":"北區","LI":"成功里","LIN":"5鄰","STREET":"北安路","SECT":"一段","MAREA":" ","LANE":"１４２巷","ALLEY":"４１弄","HOUSE_NO":"１號","E_COORD97":169036.98000000001,"N_COORD97":2546512.25,"ADDRESS":"北安路一段１４２巷４１弄１號","OBJECTID":191032},"geometry":{"x":169036.98000000045,"y":2546512.2500000019}},{"attributes":{"ID":191034,"DIS_CODE":0,"TOWNNAME":"北區","LI":"成功里","LIN":"5鄰","STREET":"北安路","SECT":"一段","MAREA":" ","LANE":"１４２巷","ALLEY":"４１弄","HOUSE_NO":"２號","E_COORD97":169045.07999999999,"N_COORD97":2546520.98,"ADDRESS":"北安路一段１４２巷４１弄２號","OBJECTID":191033},"geometry":{"x":169045.07999999914,"y":2546520.9800000023}},{"attributes":{"ID":191035,"DIS_CODE":0,"TOWNNAME":"北區","LI":"成功里","LIN":"5鄰","STREET":"北安路","SECT":"一段","MAREA":" ","LANE":"１４２巷","ALLEY":"４１弄","HOUSE_NO":"３號","E_COORD97":169032.38,"N_COORD97":2546515.5800000001,"ADDRESS":"北安路一段１４２巷４１弄３號","OBJECTID":191034},"geometry":{"x":169032.37999999989,"y":2546515.5800000038}},{"attributes":{"ID":191036,"DIS_CODE":0,"TOWNNAME":"北區","LI":"成功里","LIN":"5鄰","STREET":"北安路","SECT":"一段","MAREA":" ","LANE":"１４２巷","ALLEY":"４１弄","HOUSE_NO":"５號","E_COORD97":169026.35000000001,"N_COORD97":2546520.0299999998,"ADDRESS":"北安路一段１４２巷４１弄５號","OBJECTID":191035},"geometry":{"x":169026.35000000056,"y":2546520.0300000012}},{"attributes":{"ID":191037,"DIS_CODE":0,"TOWNNAME":"北區","LI":"成功里","LIN":"5鄰","STREET":"北安路","SECT":"一段","MAREA":" ","LANE":"１４２巷","ALLEY":"４１弄","HOUSE_NO":"６號","E_COORD97":169039.84,"N_COORD97":2546524.9500000002,"ADDRESS":"北安路一段１４２巷４１弄６號","OBJECTID":191036},"geometry":{"x":169039.84000000171,"y":2546524.9499999993}},{"attributes":{"ID":191038,"DIS_CODE":0,"TOWNNAME":"北區","LI":"成功里","LIN":"5鄰","STREET":"北安路","SECT":"一段","MAREA":" ","LANE":"１４２巷","ALLEY":"４１弄","HOUSE_NO":"７號","E_COORD97":169020.16,"N_COORD97":2546524.6299999999,"ADDRESS":"北安路一段１４２巷４１弄７號","OBJECTID":191037},"geometry":{"x":169020.16000000015,"y":2546524.6300000027}},{"attributes":{"ID":191039,"DIS_CODE":0,"TOWNNAME":"北區","LI":"成功里","LIN":"5鄰","STREET":"北安路","SECT":"一段","MAREA":" ","LANE":"１４２巷","ALLEY":"４１弄","HOUSE_NO":"１０號","E_COORD97":169028.25,"N_COORD97":2546533.3599999999,"ADDRESS":"北安路一段１４２巷４１弄１０號","OBJECTID":191038},"geometry":{"x":169028.25,"y":2546533.3600000031}},{"attributes":{"ID":191040,"DIS_CODE":0,"TOWNNAME":"北區","LI":"成功里","LIN":"5鄰","STREET":"北安路","SECT":"一段","MAREA":" ","LANE":"１４２巷","ALLEY":"４１弄","HOUSE_NO":"１１號","E_COORD97":169009.04000000001,"N_COORD97":2546533.8399999999,"ADDRESS":"北安路一段１４２巷４１弄１１號","OBJECTID":191039},"geometry":{"x":169009.04000000004,"y":2546533.839999998}},{"attributes":{"ID":191041,"DIS_CODE":0,"TOWNNAME":"北區","LI":"成功里","LIN":"5鄰","STREET":"北安路","SECT":"一段","MAREA":" ","LANE":"１４２巷","ALLEY":"４１弄","HOUSE_NO":"１２號","E_COORD97":169022.22,"N_COORD97":2546538.2799999998,"ADDRESS":"北安路一段１４２巷４１弄１２號","OBJECTID":191040},"geometry":{"x":169022.22000000067,"y":2546538.2800000012}},{"attributes":{"ID":191042,"DIS_CODE":0,"TOWNNAME":"北區","LI":"成功里","LIN":"5鄰","STREET":"北安路","SECT":"一段","MAREA":" ","LANE":"１４２巷","ALLEY":"４１弄","HOUSE_NO":"８號","E_COORD97":169034.29000000001,"N_COORD97":2546529.23,"ADDRESS":"北安路一段１４２巷４１弄８號","OBJECTID":191041},"geometry":{"x":169034.29000000097,"y":2546529.2300000023}},{"attributes":{"ID":191043,"DIS_CODE":0,"TOWNNAME":"永康區","LI":"\u25A0洲里","LIN":"40鄰","STREET":"洲工街","SECT":" ","MAREA":" ","LANE":" ","ALLEY":" ","HOUSE_NO":"１６５號","E_COORD97":170722.73000000001,"N_COORD97":2548666.77,"ADDRESS":"洲工街１６５號","OBJECTID":191042},"geometry":{"x":170722.73000000231,"y":2548666.7700000033}},{"attributes":{"ID":191044,"DIS_CODE":0,"TOWNNAME":"永康區","LI":"\u25A0行里","LIN":"14鄰","STREET":"中正六街","SECT":" ","MAREA":" ","LANE":" ","ALLEY":" ","HOUSE_NO":"１７７號","E_COORD97":171857.20999999999,"N_COORD97":2548865.5099999998,"ADDRESS":"中正六街１７７號","OBJECTID":191043},"geometry":{"x":171857.21000000089,"y":2548865.5100000035}},{"attributes":{"ID":191045,"DIS_CODE":0,"TOWNNAME":"仁德區","LI":"土庫里","LIN":"14鄰","STREET":"土庫路","SECT":" ","MAREA":" ","LANE":" ","ALLEY":" ","HOUSE_NO":"１６５號","E_COORD97":174364.07000000001,"N_COORD97":2543023.25,"ADDRESS":"土庫路１６５號","OBJECTID":191044},"geometry":{"x":174364.07000000123,"y":2543023.2500000019}},{"attributes":{"ID":191046,"DIS_CODE":0,"TOWNNAME":"仁德區","LI":"上崙里","LIN":"4鄰","STREET":"德崙路","SECT":" ","MAREA":" ","LANE":" ","ALLEY":" ","HOUSE_NO":"２４７號","E_COORD97":173772.10999999999,"N_COORD97":2538186.5,"ADDRESS":"德崙路２４７號","OBJECTID":191045},"geometry":{"x":173772.11000000127,"y":2538186.5000000019}},{"attributes":{"ID":191047,"DIS_CODE":0,"TOWNNAME":"新化區","LI":"竹林里","LIN":"4鄰","STREET":"民族街","SECT":" ","MAREA":" ","LANE":" ","ALLEY":" ","HOUSE_NO":"７號","E_COORD97":178884.51000000001,"N_COORD97":2548463.25,"ADDRESS":"民族街７號","OBJECTID":191046},"geometry":{"x":178884.51000000071,"y":2548463.25}},{"attributes":{"ID":191048,"DIS_CODE":0,"TOWNNAME":"善化區","LI":"小新里","LIN":"22鄰","STREET":" ","SECT":" ","MAREA":"成功新村","LANE":" ","ALLEY":" ","HOUSE_NO":"３４號六樓","E_COORD97":180420.60000000001,"N_COORD97":2558670.75,"ADDRESS":"成功新村３４號六樓","OBJECTID":191047},"geometry":{"x":180420.59999999963,"y":2558670.75}},{"attributes":{"ID":191049,"DIS_CODE":0,"TOWNNAME":"善化區","LI":"小新里","LIN":"22鄰","STREET":" ","SECT":" ","MAREA":"成功新村","LANE":" ","ALLEY":" ","HOUSE_NO":"７號三樓","E_COORD97":180319.69,"N_COORD97":2558709.75,"ADDRESS":"成功新村７號三樓","OBJECTID":191048},"geometry":{"x":180319.69000000134,"y":2558709.7500000037}},{"attributes":{"ID":191050,"DIS_CODE":0,"TOWNNAME":"善化區","LI":"小新里","LIN":"22鄰","STREET":" ","SECT":" ","MAREA":"成功新村","LANE":" ","ALLEY":" ","HOUSE_NO":"４７號三樓","E_COORD97":180473.26000000001,"N_COORD97":2558651.5,"ADDRESS":"成功新村４７號三樓","OBJECTID":191049},"geometry":{"x":180473.26000000071,"y":2558651.5000000019}},{"attributes":{"ID":191051,"DIS_CODE":0,"TOWNNAME":"善化區","LI":"小新里","LIN":"22鄰","STREET":" ","SECT":" ","MAREA":"成功新村","LANE":" ","ALLEY":" ","HOUSE_NO":"３９號七樓","E_COORD97":180430.29999999999,"N_COORD97":2558656.5,"ADDRESS":"成功新村３９號七樓","OBJECTID":191050},"geometry":{"x":180430.30000000075,"y":2558656.5}},{"attributes":{"ID":191052,"DIS_CODE":0,"TOWNNAME":"善化區","LI":"小新里","LIN":"22鄰","STREET":" ","SECT":" ","MAREA":"成功新村","LANE":" ","ALLEY":" ","HOUSE_NO":"６２號八樓","E_COORD97":180302.48000000001,"N_COORD97":2558661.25,"ADDRESS":"成功新村６２號八樓","OBJECTID":191051},"geometry":{"x":180302.48000000138,"y":2558661.25}},{"attributes":{"ID":191053,"DIS_CODE":0,"TOWNNAME":"北區","LI":"成功里","LIN":"5鄰","STREET":"北安路","SECT":"一段","MAREA":" ","LANE":"１４２巷","ALLEY":"４１弄","HOUSE_NO":"９號","E_COORD97":169014.76000000001,"N_COORD97":2546530.0299999998,"ADDRESS":"北安路一段１４２巷４１弄９號","OBJECTID":191052},"geometry":{"x":169014.76000000164,"y":2546530.0300000012}},{"attributes":{"ID":191054,"DIS_CODE":0,"TOWNNAME":"新營區","LI":"南紙里","LIN":"5鄰","STREET":"南紙街","SECT":" ","MAREA":" ","LANE":"２９巷","ALLEY":"６弄","HOUSE_NO":"３２號","E_COORD97":177913.07000000001,"N_COORD97":2577684.5699999998,"ADDRESS":"南紙街２９巷６弄３２號","OBJECTID":191053},"geometry":{"x":177913.07000000216,"y":2577684.5700000022}},{"attributes":{"ID":191055,"DIS_CODE":0,"TOWNNAME":"新營區","LI":"南紙里","LIN":"5鄰","STREET":"南紙街","SECT":" ","MAREA":" ","LANE":"２９巷","ALLEY":"６弄","HOUSE_NO":"９號","E_COORD97":177872.82999999999,"N_COORD97":2577685.8799999999,"ADDRESS":"南紙街２９巷６弄９號","OBJECTID":191054},"geometry":{"x":177872.83000000101,"y":2577685.879999999}},{"attributes":{"ID":191056,"DIS_CODE":0,"TOWNNAME":"南區","LI":"佛壇里","LIN":"5鄰","STREET":"灣裡路","SECT":" ","MAREA":" ","LANE":"２８２巷","ALLEY":"１１７弄","HOUSE_NO":"２號","E_COORD97":166059.64000000001,"N_COORD97":2535959.2999999998,"ADDRESS":"灣裡路２８２巷１１７弄２號","OBJECTID":191055},"geometry":{"x":166059.6400000006,"y":2535959.3000000007}},{"attributes":{"ID":191057,"DIS_CODE":0,"TOWNNAME":"南區","LI":"佛壇里","LIN":"5鄰","STREET":"灣裡路","SECT":" ","MAREA":" ","LANE":"２８２巷","ALLEY":"１１７弄","HOUSE_NO":"６號","E_COORD97":166068.66,"N_COORD97":2535962.9700000002,"ADDRESS":"灣裡路２８２巷１１７弄６號","OBJECTID":191056},"geometry":{"x":166068.66000000108,"y":2535962.9700000044}},{"attributes":{"ID":191058,"DIS_CODE":0,"TOWNNAME":"南區","LI":"佛壇里","LIN":"5鄰","STREET":"灣裡路","SECT":" ","MAREA":" ","LANE":"２８２巷","ALLEY":"１１７弄","HOUSE_NO":"８號","E_COORD97":166074.17999999999,"N_COORD97":2535964.8100000001,"ADDRESS":"灣裡路２８２巷１１７弄８號","OBJECTID":191057},"geometry":{"x":166074.18000000156,"y":2535964.8100000024}},{"attributes":{"ID":191059,"DIS_CODE":0,"TOWNNAME":"南區","LI":"文南里","LIN":"5鄰","STREET":"金華路","SECT":"二段","MAREA":" ","LANE":"２８９巷","ALLEY":"２３弄","HOUSE_NO":"１０號","E_COORD97":167018.75,"N_COORD97":2542737.77,"ADDRESS":"金華路二段２８９巷２３弄１０號","OBJECTID":191058},"geometry":{"x":167018.75000000093,"y":2542737.7700000014}},{"attributes":{"ID":191060,"DIS_CODE":0,"TOWNNAME":"北門區","LI":"保吉里","LIN":"3鄰","STREET":" ","SECT":" ","MAREA":"蚵寮","LANE":" ","ALLEY":" ","HOUSE_NO":"２７號","E_COORD97":161488.82000000001,"N_COORD97":2575699.71,"ADDRESS":"蚵寮２７號","OBJECTID":191059},"geometry":{"x":161488.82000000123,"y":2575699.7100000009}},{"attributes":{"ID":191061,"DIS_CODE":0,"TOWNNAME":"歸仁區","LI":"大廟里","LIN":"5鄰","STREET":"和順路","SECT":"二段","MAREA":" ","LANE":"１５１巷","ALLEY":"２２弄","HOUSE_NO":"１１號","E_COORD97":176125.70000000001,"N_COORD97":2543518.98,"ADDRESS":"和順路二段１５１巷２２弄１１號","OBJECTID":191060},"geometry":{"x":176125.70000000112,"y":2543518.9800000004}},{"attributes":{"ID":191062,"DIS_CODE":0,"TOWNNAME":"善化區","LI":"小新里","LIN":"22鄰","STREET":" ","SECT":" ","MAREA":"成功新村","LANE":" ","ALLEY":" ","HOUSE_NO":"８９號二樓","E_COORD97":180458.92999999999,"N_COORD97":2558608.75,"ADDRESS":"成功新村８９號二樓","OBJECTID":191061},"geometry":{"x":180458.9299999997,"y":2558608.7500000019}},{"attributes":{"ID":191063,"DIS_CODE":0,"TOWNNAME":"善化區","LI":"小新里","LIN":"22鄰","STREET":" ","SECT":" ","MAREA":"成功新村","LANE":" ","ALLEY":" ","HOUSE_NO":"２３號三樓","E_COORD97":180388.35000000001,"N_COORD97":2558682.25,"ADDRESS":"成功新村２３號三樓","OBJECTID":191062},"geometry":{"x":180388.34999999963,"y":2558682.25}},{"attributes":{"ID":191064,"DIS_CODE":0,"TOWNNAME":"善化區","LI":"小新里","LIN":"22鄰","STREET":" ","SECT":" ","MAREA":"成功新村","LANE":" ","ALLEY":" ","HOUSE_NO":"７６號六樓","E_COORD97":180426.42999999999,"N_COORD97":2558614.5,"ADDRESS":"成功新村７６號六樓","OBJECTID":191063},"geometry":{"x":180426.43000000063,"y":2558614.5000000019}},{"attributes":{"ID":191065,"DIS_CODE":0,"TOWNNAME":"善化區","LI":"小新里","LIN":"22鄰","STREET":" ","SECT":" ","MAREA":"成功新村","LANE":" ","ALLEY":" ","HOUSE_NO":"５２號四樓","E_COORD97":180341.95999999999,"N_COORD97":2558662.25,"ADDRESS":"成功新村５２號四樓","OBJECTID":191064},"geometry":{"x":180341.95999999996,"y":2558662.2500000037}},{"attributes":{"ID":191066,"DIS_CODE":0,"TOWNNAME":"善化區","LI":"小新里","LIN":"22鄰","STREET":" ","SECT":" ","MAREA":"成功新村","LANE":" ","ALLEY":" ","HOUSE_NO":"８８號六樓","E_COORD97":180467.07999999999,"N_COORD97":2558602.75,"ADDRESS":"成功新村８８號六樓","OBJECTID":191065},"geometry":{"x":180467.08000000007,"y":2558602.7500000019}},{"attributes":{"ID":191067,"DIS_CODE":0,"TOWNNAME":"善化區","LI":"小新里","LIN":"22鄰","STREET":" ","SECT":" ","MAREA":"成功新村","LANE":" ","ALLEY":" ","HOUSE_NO":"７４號三樓","E_COORD97":180429.01999999999,"N_COORD97":2558630,"ADDRESS":"成功新村７４號三樓","OBJECTID":191066},"geometry":{"x":180429.02000000048,"y":2558630.0000000037}},{"attributes":{"ID":191068,"DIS_CODE":0,"TOWNNAME":"善化區","LI":"小新里","LIN":"22鄰","STREET":" ","SECT":" ","MAREA":"成功新村","LANE":" ","ALLEY":" ","HOUSE_NO":"５７號七樓","E_COORD97":180313.26000000001,"N_COORD97":2558647.5,"ADDRESS":"成功新村５７號七樓","OBJECTID":191067},"geometry":{"x":180313.26000000164,"y":2558647.5000000019}},{"attributes":{"ID":191069,"DIS_CODE":0,"TOWNNAME":"善化區","LI":"小新里","LIN":"22鄰","STREET":" ","SECT":" ","MAREA":"成功新村","LANE":" ","ALLEY":" ","HOUSE_NO":"６８號五樓","E_COORD97":180355.70999999999,"N_COORD97":2558658,"ADDRESS":"成功新村６８號五樓","OBJECTID":191068},"geometry":{"x":180355.70999999996,"y":2558658.0000000019}},{"attributes":{"ID":191070,"DIS_CODE":0,"TOWNNAME":"南區","LI":"竹溪里","LIN":"5鄰","STREET":"體育路","SECT":" ","MAREA":" ","LANE":"４１巷","ALLEY":"１７弄","HOUSE_NO":"１號","E_COORD97":168797.51999999999,"N_COORD97":2542274.9399999999,"ADDRESS":"體育路４１巷１７弄１號","OBJECTID":191069},"geometry":{"x":168797.52000000142,"y":2542274.9400000032}},{"attributes":{"ID":191071,"DIS_CODE":0,"TOWNNAME":"南區","LI":"竹溪里","LIN":"5鄰","STREET":"體育路","SECT":" ","MAREA":" ","LANE":"４１巷","ALLEY":"１７弄","HOUSE_NO":"２號","E_COORD97":168821.76000000001,"N_COORD97":2542277.9700000002,"ADDRESS":"體育路４１巷１７弄２號","OBJECTID":191070},"geometry":{"x":168821.76000000071,"y":2542277.9700000007}},{"attributes":{"ID":191072,"DIS_CODE":0,"TOWNNAME":"南區","LI":"竹溪里","LIN":"5鄰","STREET":"體育路","SECT":" ","MAREA":" ","LANE":"４１巷","ALLEY":"１７弄","HOUSE_NO":"３號","E_COORD97":168808.88,"N_COORD97":2542289.23,"ADDRESS":"體育路４１巷１７弄３號","OBJECTID":191071},"geometry":{"x":168808.87999999896,"y":2542289.2300000004}},{"attributes":{"ID":191073,"DIS_CODE":0,"TOWNNAME":"南區","LI":"竹溪里","LIN":"5鄰","STREET":"體育路","SECT":" ","MAREA":" ","LANE":"４１巷","ALLEY":"１７弄","HOUSE_NO":"４號","E_COORD97":168822.59,"N_COORD97":2542281.8199999998,"ADDRESS":"體育路４１巷１７弄４號","OBJECTID":191072},"geometry":{"x":168822.58999999985,"y":2542281.8200000003}},{"attributes":{"ID":191074,"DIS_CODE":0,"TOWNNAME":"南區","LI":"竹溪里","LIN":"5鄰","STREET":"體育路","SECT":" ","MAREA":" ","LANE":"４１巷","ALLEY":"１７弄","HOUSE_NO":"６號","E_COORD97":168822.85999999999,"N_COORD97":2542285.6699999999,"ADDRESS":"體育路４１巷１７弄６號","OBJECTID":191073},"geometry":{"x":168822.86000000034,"y":2542285.6699999999}},{"attributes":{"ID":191075,"DIS_CODE":0,"TOWNNAME":"南區","LI":"竹溪里","LIN":"5鄰","STREET":"體育路","SECT":" ","MAREA":" ","LANE":"４１巷","ALLEY":"１７弄","HOUSE_NO":"８號","E_COORD97":168822.31,"N_COORD97":2542290.3500000001,"ADDRESS":"體育路４１巷１７弄８號","OBJECTID":191074},"geometry":{"x":168822.30999999959,"y":2542290.3500000015}},{"attributes":{"ID":191076,"DIS_CODE":0,"TOWNNAME":"大內區","LI":"大內里","LIN":"3鄰","STREET":" ","SECT":" ","MAREA":"內庄","LANE":" ","ALLEY":" ","HOUSE_NO":"３９號","E_COORD97":184598.03,"N_COORD97":2557482.25,"ADDRESS":"內庄３９號","OBJECTID":191075},"geometry":{"x":184598.03000000119,"y":2557482.2500000037}},{"attributes":{"ID":191077,"DIS_CODE":0,"TOWNNAME":"永康區","LI":"\u25A0洲里","LIN":"12鄰","STREET":"\u25A0洲一街","SECT":" ","MAREA":" ","LANE":"１１巷","ALLEY":" ","HOUSE_NO":"３１號","E_COORD97":171558.76999999999,"N_COORD97":2549115.75,"ADDRESS":"\u25A0洲一街１１巷３１號","OBJECTID":191076},"geometry":{"x":171558.76999999955,"y":2549115.7500000019}},{"attributes":{"ID":191078,"DIS_CODE":0,"TOWNNAME":"歸仁區","LI":"後市里","LIN":"40鄰","STREET":"中山路","SECT":"二段","MAREA":" ","LANE":" ","ALLEY":" ","HOUSE_NO":"１６０號","E_COORD97":177186.13,"N_COORD97":2540846.7400000002,"ADDRESS":"中山路二段１６０號","OBJECTID":191077},"geometry":{"x":177186.12999999989,"y":2540846.7400000021}},{"attributes":{"ID":191079,"DIS_CODE":0,"TOWNNAME":"歸仁區","LI":"南興里","LIN":"40鄰","STREET":"民生六街","SECT":" ","MAREA":" ","LANE":" ","ALLEY":" ","HOUSE_NO":"２７號","E_COORD97":176152.09,"N_COORD97":2540842.29,"ADDRESS":"民生六街２７號","OBJECTID":191078},"geometry":{"x":176152.08999999985,"y":2540842.290000001}},{"attributes":{"ID":191080,"DIS_CODE":0,"TOWNNAME":"歸仁區","LI":"後市里","LIN":"40鄰","STREET":"中山路","SECT":"二段","MAREA":" ","LANE":" ","ALLEY":" ","HOUSE_NO":"１９４號","E_COORD97":177110.32999999999,"N_COORD97":2540856.7400000002,"ADDRESS":"中山路二段１９４號","OBJECTID":191079},"geometry":{"x":177110.33000000007,"y":2540856.7400000021}},{"attributes":{"ID":191081,"DIS_CODE":0,"TOWNNAME":"歸仁區","LI":"南保里","LIN":"40鄰","STREET":"民權六街","SECT":" ","MAREA":" ","LANE":" ","ALLEY":" ","HOUSE_NO":"２１９號","E_COORD97":176531.04000000001,"N_COORD97":2541110.29,"ADDRESS":"民權六街２１９號","OBJECTID":191080},"geometry":{"x":176531.04000000004,"y":2541110.290000001}},{"attributes":{"ID":191082,"DIS_CODE":0,"TOWNNAME":"歸仁區","LI":"後市里","LIN":"40鄰","STREET":"中山路","SECT":"二段","MAREA":" ","LANE":" ","ALLEY":" ","HOUSE_NO":"２２６號","E_COORD97":177033.42999999999,"N_COORD97":2540865.7400000002,"ADDRESS":"中山路二段２２６號","OBJECTID":191081},"geometry":{"x":177033.42999999877,"y":2540865.7400000002}},{"attributes":{"ID":191083,"DIS_CODE":0,"TOWNNAME":"歸仁區","LI":"南興里","LIN":"40鄰","STREET":"民生六街","SECT":" ","MAREA":" ","LANE":" ","ALLEY":" ","HOUSE_NO":"３７號","E_COORD97":176141.69,"N_COORD97":2540806.29,"ADDRESS":"民生六街３７號","OBJECTID":191082},"geometry":{"x":176141.69000000134,"y":2540806.2899999991}},{"attributes":{"ID":191084,"DIS_CODE":0,"TOWNNAME":"歸仁區","LI":"南興里","LIN":"40鄰","STREET":"中山路","SECT":"三段","MAREA":" ","LANE":" ","ALLEY":" ","HOUSE_NO":"３５５之１號","E_COORD97":176131.06,"N_COORD97":2540760.2999999998,"ADDRESS":"中山路三段３５５之１號","OBJECTID":191083},"geometry":{"x":176131.06000000052,"y":2540760.3000000007}},{"attributes":{"ID":191085,"DIS_CODE":0,"TOWNNAME":"歸仁區","LI":"後市里","LIN":"40鄰","STREET":"中山路","SECT":"二段","MAREA":" ","LANE":" ","ALLEY":" ","HOUSE_NO":"１８６號","E_COORD97":177131.82999999999,"N_COORD97":2540853.7400000002,"ADDRESS":"中山路二段１８６號","OBJECTID":191084},"geometry":{"x":177131.83000000101,"y":2540853.7400000021}},{"attributes":{"ID":191086,"DIS_CODE":0,"TOWNNAME":"歸仁區","LI":"南興里","LIN":"40鄰","STREET":"民生六街","SECT":" ","MAREA":" ","LANE":" ","ALLEY":" ","HOUSE_NO":"７號","E_COORD97":176220.54000000001,"N_COORD97":2540834.29,"ADDRESS":"民生六街７號","OBJECTID":191085},"geometry":{"x":176220.54000000004,"y":2540834.2900000028}},{"attributes":{"ID":191087,"DIS_CODE":0,"TOWNNAME":"歸仁區","LI":"南興里","LIN":"40鄰","STREET":"民生六街","SECT":" ","MAREA":" ","LANE":" ","ALLEY":" ","HOUSE_NO":"２９號","E_COORD97":176144.98999999999,"N_COORD97":2540843.29,"ADDRESS":"民生六街２９號","OBJECTID":191086},"geometry":{"x":176144.99000000022,"y":2540843.2899999991}},{"attributes":{"ID":191088,"DIS_CODE":0,"TOWNNAME":"善化區","LI":"小新里","LIN":"22鄰","STREET":" ","SECT":" ","MAREA":"成功新村","LANE":" ","ALLEY":" ","HOUSE_NO":"２５號七樓","E_COORD97":180393.70999999999,"N_COORD97":2558664.5,"ADDRESS":"成功新村２５號七樓","OBJECTID":191087},"geometry":{"x":180393.71000000089,"y":2558664.5000000019}},{"attributes":{"ID":191089,"DIS_CODE":0,"TOWNNAME":"善化區","LI":"小新里","LIN":"22鄰","STREET":" ","SECT":" ","MAREA":"成功新村","LANE":" ","ALLEY":" ","HOUSE_NO":"８９號七樓","E_COORD97":180458.92999999999,"N_COORD97":2558608.75,"ADDRESS":"成功新村８９號七樓","OBJECTID":191088},"geometry":{"x":180458.9299999997,"y":2558608.7500000019}},{"attributes":{"ID":191090,"DIS_CODE":0,"TOWNNAME":"善化區","LI":"小新里","LIN":"22鄰","STREET":" ","SECT":" ","MAREA":"成功新村","LANE":" ","ALLEY":" ","HOUSE_NO":"７１號五樓","E_COORD97":180367.79999999999,"N_COORD97":2558653.25,"ADDRESS":"成功新村７１號五樓","OBJECTID":191089},"geometry":{"x":180367.80000000075,"y":2558653.2500000019}},{"attributes":{"ID":191091,"DIS_CODE":0,"TOWNNAME":"善化區","LI":"小新里","LIN":"22鄰","STREET":" ","SECT":" ","MAREA":"成功新村","LANE":" ","ALLEY":" ","HOUSE_NO":"４１號三樓","E_COORD97":180459.14999999999,"N_COORD97":2558641.25,"ADDRESS":"成功新村４１號三樓","OBJECTID":191090},"geometry":{"x":180459.1500000013,"y":2558641.25}},{"attributes":{"ID":191092,"DIS_CODE":0,"TOWNNAME":"善化區","LI":"小新里","LIN":"22鄰","STREET":" ","SECT":" ","MAREA":"成功新村","LANE":" ","ALLEY":" ","HOUSE_NO":"２３號七樓","E_COORD97":180388.35000000001,"N_COORD97":2558682.25,"ADDRESS":"成功新村２３號七樓","OBJECTID":191091},"geometry":{"x":180388.34999999963,"y":2558682.25}},{"attributes":{"ID":191093,"DIS_CODE":0,"TOWNNAME":"善化區","LI":"小新里","LIN":"22鄰","STREET":" ","SECT":" ","MAREA":"成功新村","LANE":" ","ALLEY":" ","HOUSE_NO":"２４號四樓","E_COORD97":180396.85000000001,"N_COORD97":2558678.9900000002,"ADDRESS":"成功新村２４號四樓","OBJECTID":191092},"geometry":{"x":180396.84999999963,"y":2558678.9900000021}},{"attributes":{"ID":191094,"DIS_CODE":0,"TOWNNAME":"南區","LI":"興農里","LIN":"5鄰","STREET":"灣裡路","SECT":" ","MAREA":" ","LANE":"２６３巷","ALLEY":"６１弄","HOUSE_NO":"１０號之１","E_COORD97":166295.45000000001,"N_COORD97":2536510.8900000001,"ADDRESS":"灣裡路２６３巷６１弄１０號之１","OBJECTID":191093},"geometry":{"x":166295.45000000112,"y":2536510.8900000006}},{"attributes":{"ID":191095,"DIS_CODE":0,"TOWNNAME":"南區","LI":"興農里","LIN":"5鄰","STREET":"灣裡路","SECT":" ","MAREA":" ","LANE":"２６３巷","ALLEY":"６１弄","HOUSE_NO":"１０號之２","E_COORD97":166293.89999999999,"N_COORD97":2536515.52,"ADDRESS":"灣裡路２６３巷６１弄１０號之２","OBJECTID":191094},"geometry":{"x":166293.9000000013,"y":2536515.5200000014}},{"attributes":{"ID":191096,"DIS_CODE":0,"TOWNNAME":"南區","LI":"興農里","LIN":"5鄰","STREET":"灣裡路","SECT":" ","MAREA":" ","LANE":"２１１巷","ALLEY":"７０弄","HOUSE_NO":"１３號之２","E_COORD97":166394.95999999999,"N_COORD97":2536546.1499999999,"ADDRESS":"灣裡路２１１巷７０弄１３號之２","OBJECTID":191095},"geometry":{"x":166394.96000000089,"y":2536546.1500000004}},{"attributes":{"ID":191097,"DIS_CODE":0,"TOWNNAME":"南區","LI":"光明里","LIN":"5鄰","STREET":"新興路","SECT":" ","MAREA":" ","LANE":"５３３巷","ALLEY":"４３弄","HOUSE_NO":"２９號","E_COORD97":166767.17999999999,"N_COORD97":2541535.4100000001,"ADDRESS":"新興路５３３巷４３弄２９號","OBJECTID":191096},"geometry":{"x":166767.1799999997,"y":2541535.4100000001}},{"attributes":{"ID":191098,"DIS_CODE":0,"TOWNNAME":"南區","LI":"光明里","LIN":"5鄰","STREET":"新興路","SECT":" ","MAREA":" ","LANE":"５３３巷","ALLEY":"４３弄","HOUSE_NO":"３１號","E_COORD97":166771.45999999999,"N_COORD97":2541532.8300000001,"ADDRESS":"新興路５３３巷４３弄３１號","OBJECTID":191097},"geometry":{"x":166771.46000000089,"y":2541532.8300000001}},{"attributes":{"ID":191099,"DIS_CODE":0,"TOWNNAME":"南區","LI":"光明里","LIN":"5鄰","STREET":"新興路","SECT":" ","MAREA":" ","LANE":"５３３巷","ALLEY":"４３弄","HOUSE_NO":"３３號","E_COORD97":166775.44,"N_COORD97":2541531.54,"ADDRESS":"新興路５３３巷４３弄３３號","OBJECTID":191098},"geometry":{"x":166775.44000000134,"y":2541531.540000001}},{"attributes":{"ID":191100,"DIS_CODE":0,"TOWNNAME":"南區","LI":"光明里","LIN":"5鄰","STREET":"新興路","SECT":" ","MAREA":" ","LANE":"５３３巷","ALLEY":"４３弄","HOUSE_NO":"３５號","E_COORD97":166779.82000000001,"N_COORD97":2541530.25,"ADDRESS":"新興路５３３巷４３弄３５號","OBJECTID":191099},"geometry":{"x":166779.82000000123,"y":2541530.25}},{"attributes":{"ID":191101,"DIS_CODE":0,"TOWNNAME":"南區","LI":"光明里","LIN":"5鄰","STREET":"新興路","SECT":" ","MAREA":" ","LANE":"５３３巷","ALLEY":"４３弄","HOUSE_NO":"３７號","E_COORD97":166783.79999999999,"N_COORD97":2541528.46,"ADDRESS":"新興路５３３巷４３弄３７號","OBJECTID":191100},"geometry":{"x":166783.80000000168,"y":2541528.4600000009}},{"attributes":{"ID":191102,"DIS_CODE":0,"TOWNNAME":"南區","LI":"光明里","LIN":"5鄰","STREET":"新興路","SECT":" ","MAREA":" ","LANE":"５３３巷","ALLEY":"４３弄","HOUSE_NO":"３９號","E_COORD97":166788.07000000001,"N_COORD97":2541526.96,"ADDRESS":"新興路５３３巷４３弄３９號","OBJECTID":191101},"geometry":{"x":166788.07000000123,"y":2541526.9600000046}},{"attributes":{"ID":191103,"DIS_CODE":0,"TOWNNAME":"南區","LI":"光明里","LIN":"5鄰","STREET":"新興路","SECT":" ","MAREA":" ","LANE":"５３３巷","ALLEY":"４３弄","HOUSE_NO":"４１號","E_COORD97":166792.45000000001,"N_COORD97":2541525.3700000001,"ADDRESS":"新興路５３３巷４３弄４１號","OBJECTID":191102},"geometry":{"x":166792.45000000019,"y":2541525.3700000029}},{"attributes":{"ID":191104,"DIS_CODE":0,"TOWNNAME":"南區","LI":"光明里","LIN":"5鄰","STREET":"新興路","SECT":" ","MAREA":" ","LANE":"５３３巷","ALLEY":"４３弄","HOUSE_NO":"４３號","E_COORD97":166796.32999999999,"N_COORD97":2541524.1800000002,"ADDRESS":"新興路５３３巷４３弄４３號","OBJECTID":191103},"geometry":{"x":166796.33000000101,"y":2541524.1800000034}},{"attributes":{"ID":191105,"DIS_CODE":0,"TOWNNAME":"南區","LI":"光明里","LIN":"5鄰","STREET":"新興路","SECT":" ","MAREA":" ","LANE":"５３３巷","ALLEY":"４３弄","HOUSE_NO":"４５號","E_COORD97":166800.51000000001,"N_COORD97":2541522.8900000001,"ADDRESS":"新興路５３３巷４３弄４５號","OBJECTID":191104},"geometry":{"x":166800.50999999978,"y":2541522.8900000006}},{"attributes":{"ID":191106,"DIS_CODE":0,"TOWNNAME":"南區","LI":"光明里","LIN":"5鄰","STREET":"新興路","SECT":" ","MAREA":" ","LANE":"５３３巷","ALLEY":"４３弄","HOUSE_NO":"４７號","E_COORD97":166805.19,"N_COORD97":2541519.5099999998,"ADDRESS":"新興路５３３巷４３弄４７號","OBJECTID":191105},"geometry":{"x":166805.19000000041,"y":2541519.5100000016}},{"attributes":{"ID":191107,"DIS_CODE":0,"TOWNNAME":"南區","LI":"同安里","LIN":"5鄰","STREET":"灣裡路","SECT":" ","MAREA":" ","LANE":"３５１巷","ALLEY":"１２弄","HOUSE_NO":"６號之１","E_COORD97":166259.5,"N_COORD97":2536170.8399999999,"ADDRESS":"灣裡路３５１巷１２弄６號之１","OBJECTID":191106},"geometry":{"x":166259.50000000093,"y":2536170.8400000017}},{"attributes":{"ID":191108,"DIS_CODE":0,"TOWNNAME":"永康區","LI":"龍潭里","LIN":"1鄰","STREET":"龍國街","SECT":" ","MAREA":" ","LANE":"３３０巷","ALLEY":" ","HOUSE_NO":"６號","E_COORD97":174643.23999999999,"N_COORD97":2547954.1600000001,"ADDRESS":"龍國街３３０巷６號","OBJECTID":191107},"geometry":{"x":174643.24000000022,"y":2547954.160000002}},{"attributes":{"ID":191109,"DIS_CODE":0,"TOWNNAME":"東區","LI":"崇明里","LIN":"15鄰","STREET":"崇明路","SECT":" ","MAREA":" ","LANE":" ","ALLEY":" ","HOUSE_NO":"５８０號","E_COORD97":170486.75,"N_COORD97":2541482.1000000001,"ADDRESS":"崇明路５８０號","OBJECTID":191108},"geometry":{"x":170486.75000000093,"y":2541482.0999999996}},{"attributes":{"ID":191110,"DIS_CODE":0,"TOWNNAME":"東區","LI":"崇明里","LIN":"15鄰","STREET":"崇明路","SECT":" ","MAREA":" ","LANE":" ","ALLEY":" ","HOUSE_NO":"５８６號","E_COORD97":170492.95999999999,"N_COORD97":2541474.0499999998,"ADDRESS":"崇明路５８６號","OBJECTID":191109},"geometry":{"x":170492.95999999996,"y":2541474.0500000007}},{"attributes":{"ID":191111,"DIS_CODE":0,"TOWNNAME":"東區","LI":"崇明里","LIN":"15鄰","STREET":"崇明路","SECT":" ","MAREA":" ","LANE":" ","ALLEY":" ","HOUSE_NO":"５８８號","E_COORD97":170497.20000000001,"N_COORD97":2541471.7999999998,"ADDRESS":"崇明路５８８號","OBJECTID":191110},"geometry":{"x":170497.20000000205,"y":2541471.8000000007}},{"attributes":{"ID":191112,"DIS_CODE":0,"TOWNNAME":"東區","LI":"崇善里","LIN":"15鄰","STREET":"仁和路","SECT":" ","MAREA":" ","LANE":" ","ALLEY":" ","HOUSE_NO":"１１０號之１","E_COORD97":171311.67000000001,"N_COORD97":2541364.1000000001,"ADDRESS":"仁和路１１０號之１","OBJECTID":191111},"geometry":{"x":171311.67000000086,"y":2541364.0999999996}},{"attributes":{"ID":191113,"DIS_CODE":0,"TOWNNAME":"東區","LI":"崇善里","LIN":"15鄰","STREET":"仁和路","SECT":" ","MAREA":" ","LANE":" ","ALLEY":" ","HOUSE_NO":"１１０號之２","E_COORD97":171314.32999999999,"N_COORD97":2541360.4500000002,"ADDRESS":"仁和路１１０號之２","OBJECTID":191112},"geometry":{"x":171314.33000000007,"y":2541360.4500000011}},{"attributes":{"ID":191114,"DIS_CODE":0,"TOWNNAME":"東區","LI":"崇善里","LIN":"15鄰","STREET":"仁和路","SECT":" ","MAREA":" ","LANE":" ","ALLEY":" ","HOUSE_NO":"１１０號之３","E_COORD97":171316.32000000001,"N_COORD97":2541355.48,"ADDRESS":"仁和路１１０號之３","OBJECTID":191113},"geometry":{"x":171316.3200000003,"y":2541355.4800000004}},{"attributes":{"ID":191115,"DIS_CODE":0,"TOWNNAME":"東區","LI":"崇善里","LIN":"15鄰","STREET":"仁和路","SECT":" ","MAREA":" ","LANE":" ","ALLEY":" ","HOUSE_NO":"１１０之３之１號","E_COORD97":171319.31,"N_COORD97":2541351.5,"ADDRESS":"仁和路１１０之３之１號","OBJECTID":191114},"geometry":{"x":171319.30999999959,"y":2541351.5}},{"attributes":{"ID":191116,"DIS_CODE":0,"TOWNNAME":"東區","LI":"崇善里","LIN":"15鄰","STREET":"仁和路","SECT":" ","MAREA":" ","LANE":" ","ALLEY":" ","HOUSE_NO":"１１０號之５","E_COORD97":171320.64000000001,"N_COORD97":2541347.1899999999,"ADDRESS":"仁和路１１０號之５","OBJECTID":191115},"geometry":{"x":171320.63999999966,"y":2541347.1899999976}},{"attributes":{"ID":191117,"DIS_CODE":0,"TOWNNAME":"東區","LI":"崇善里","LIN":"15鄰","STREET":"仁和路","SECT":" ","MAREA":" ","LANE":" ","ALLEY":" ","HOUSE_NO":"１１２號","E_COORD97":171322.95999999999,"N_COORD97":2541342.8700000001,"ADDRESS":"仁和路１１２號","OBJECTID":191116},"geometry":{"x":171322.96000000089,"y":2541342.870000001}},{"attributes":{"ID":191118,"DIS_CODE":0,"TOWNNAME":"東區","LI":"崇善里","LIN":"15鄰","STREET":"仁和路","SECT":" ","MAREA":" ","LANE":" ","ALLEY":" ","HOUSE_NO":"１１２號之１","E_COORD97":171325.29000000001,"N_COORD97":2541339.23,"ADDRESS":"仁和路１１２號之１","OBJECTID":191117},"geometry":{"x":171325.29000000004,"y":2541339.2300000023}},{"attributes":{"ID":191119,"DIS_CODE":0,"TOWNNAME":"東區","LI":"崇善里","LIN":"15鄰","STREET":"仁和路","SECT":" ","MAREA":" ","LANE":" ","ALLEY":" ","HOUSE_NO":"１１２號之２","E_COORD97":171327.60999999999,"N_COORD97":2541336.5699999998,"ADDRESS":"仁和路１１２號之２","OBJECTID":191118},"geometry":{"x":171327.61000000127,"y":2541336.5700000022}},{"attributes":{"ID":191120,"DIS_CODE":0,"TOWNNAME":"安平區","LI":"國平里","LIN":"5鄰","STREET":"建平五街","SECT":" ","MAREA":" ","LANE":"１３１巷","ALLEY":"１８弄","HOUSE_NO":"５０號","E_COORD97":165549.54999999999,"N_COORD97":2543138.1299999999,"ADDRESS":"建平五街１３１巷１８弄５０號","OBJECTID":191119},"geometry":{"x":165549.54999999888,"y":2543138.1300000008}},{"attributes":{"ID":191121,"DIS_CODE":0,"TOWNNAME":"安平區","LI":"國平里","LIN":"5鄰","STREET":"建平五街","SECT":" ","MAREA":" ","LANE":"１３１巷","ALLEY":"１８弄","HOUSE_NO":"４８號","E_COORD97":165553.82999999999,"N_COORD97":2543136.3900000001,"ADDRESS":"建平五街１３１巷１８弄４８號","OBJECTID":191120},"geometry":{"x":165553.83000000101,"y":2543136.3900000006}},{"attributes":{"ID":191122,"DIS_CODE":0,"TOWNNAME":"南區","LI":"松安里","LIN":"5鄰","STREET":"灣裡路","SECT":" ","MAREA":" ","LANE":"２８２巷","ALLEY":"６９弄","HOUSE_NO":"１號","E_COORD97":166050.85999999999,"N_COORD97":2536232.1200000001,"ADDRESS":"灣裡路２８２巷６９弄１號","OBJECTID":191121},"geometry":{"x":166050.86000000034,"y":2536232.120000001}},{"attributes":{"ID":191123,"DIS_CODE":0,"TOWNNAME":"南區","LI":"松安里","LIN":"5鄰","STREET":"灣裡路","SECT":" ","MAREA":" ","LANE":"２８２巷","ALLEY":"６９弄","HOUSE_NO":"２號","E_COORD97":166059.23000000001,"N_COORD97":2536232.4300000002,"ADDRESS":"灣裡路２８２巷６９弄２號","OBJECTID":191122},"geometry":{"x":166059.22999999952,"y":2536232.4299999997}},{"attributes":{"ID":191124,"DIS_CODE":0,"TOWNNAME":"南區","LI":"松安里","LIN":"5鄰","STREET":"灣裡路","SECT":" ","MAREA":" ","LANE":"２８２巷","ALLEY":"６９弄","HOUSE_NO":"４號","E_COORD97":166085.13,"N_COORD97":2536235.1699999999,"ADDRESS":"灣裡路２８２巷６９弄４號","OBJECTID":191123},"geometry":{"x":166085.13000000082,"y":2536235.1699999981}},{"attributes":{"ID":191125,"DIS_CODE":0,"TOWNNAME":"南區","LI":"松安里","LIN":"5鄰","STREET":"灣裡路","SECT":" ","MAREA":" ","LANE":"２８２巷","ALLEY":"６９弄","HOUSE_NO":"５號","E_COORD97":166101.89000000001,"N_COORD97":2536242.02,"ADDRESS":"灣裡路２８２巷６９弄５號","OBJECTID":191124},"geometry":{"x":166101.8900000006,"y":2536242.0199999996}},{"attributes":{"ID":191126,"DIS_CODE":0,"TOWNNAME":"北門區","LI":"保吉里","LIN":"3鄰","STREET":" ","SECT":" ","MAREA":"蚵寮","LANE":" ","ALLEY":" ","HOUSE_NO":"２８號","E_COORD97":161480.95000000001,"N_COORD97":2575712.25,"ADDRESS":"蚵寮２８號","OBJECTID":191125},"geometry":{"x":161480.95000000112,"y":2575712.2499999981}},{"attributes":{"ID":191127,"DIS_CODE":0,"TOWNNAME":"歸仁區","LI":"辜厝里","LIN":"5鄰","STREET":"大順街","SECT":" ","MAREA":" ","LANE":"７０巷","ALLEY":"２３弄","HOUSE_NO":"７號","E_COORD97":177307.51000000001,"N_COORD97":2540640.54,"ADDRESS":"大順街７０巷２３弄７號","OBJECTID":191126},"geometry":{"x":177307.50999999978,"y":2540640.540000001}},{"attributes":{"ID":191128,"DIS_CODE":0,"TOWNNAME":"北區","LI":"大豐里","LIN":"5鄰","STREET":"武聖路","SECT":" ","MAREA":" ","LANE":"１６０巷","ALLEY":"８弄","HOUSE_NO":"２號","E_COORD97":166982.85000000001,"N_COORD97":2545285.4500000002,"ADDRESS":"武聖路１６０巷８弄２號","OBJECTID":191127},"geometry":{"x":166982.84999999963,"y":2545285.4500000011}},{"attributes":{"ID":191129,"DIS_CODE":0,"TOWNNAME":"北區","LI":"大豐里","LIN":"5鄰","STREET":"武聖路","SECT":" ","MAREA":" ","LANE":"１６０巷","ALLEY":"８弄","HOUSE_NO":"４號","E_COORD97":166987.31,"N_COORD97":2545283.3199999998,"ADDRESS":"武聖路１６０巷８弄４號","OBJECTID":191128},"geometry":{"x":166987.31000000052,"y":2545283.3200000003}},{"attributes":{"ID":191130,"DIS_CODE":0,"TOWNNAME":"新化區","LI":"豐榮里","LIN":"13鄰","STREET":"民治路","SECT":" ","MAREA":" ","LANE":" ","ALLEY":" ","HOUSE_NO":"６２號","E_COORD97":178754.66,"N_COORD97":2548074.25,"ADDRESS":"民治路６２號","OBJECTID":191129},"geometry":{"x":178754.65999999922,"y":2548074.2500000037}},{"attributes":{"ID":191131,"DIS_CODE":0,"TOWNNAME":"北區","LI":"大豐里","LIN":"5鄰","STREET":"武聖路","SECT":" ","MAREA":" ","LANE":"１６０巷","ALLEY":"８弄","HOUSE_NO":"６號","E_COORD97":166990.95999999999,"N_COORD97":2545281.73,"ADDRESS":"武聖路１６０巷８弄６號","OBJECTID":191130},"geometry":{"x":166990.95999999996,"y":2545281.7300000023}},{"attributes":{"ID":191132,"DIS_CODE":0,"TOWNNAME":"北區","LI":"大豐里","LIN":"5鄰","STREET":"武聖路","SECT":" ","MAREA":" ","LANE":"１６０巷","ALLEY":"８弄","HOUSE_NO":"８號","E_COORD97":166994.51000000001,"N_COORD97":2545279.6699999999,"ADDRESS":"武聖路１６０巷８弄８號","OBJECTID":191131},"geometry":{"x":166994.51000000071,"y":2545279.6699999999}},{"attributes":{"ID":191133,"DIS_CODE":0,"TOWNNAME":"永康區","LI":"\u25A0洲里","LIN":"40鄰","STREET":"洲工街","SECT":" ","MAREA":" ","LANE":" ","ALLEY":" ","HOUSE_NO":"１６３號","E_COORD97":170717.41,"N_COORD97":2548658.27,"ADDRESS":"洲工街１６３號","OBJECTID":191132},"geometry":{"x":170717.41000000015,"y":2548658.2700000014}},{"attributes":{"ID":191134,"DIS_CODE":0,"TOWNNAME":"中西區","LI":"開山里","LIN":"21鄰","STREET":"樹林街","SECT":"二段","MAREA":" ","LANE":" ","ALLEY":" ","HOUSE_NO":"１７號","E_COORD97":169073.29999999999,"N_COORD97":2542971.1699999999,"ADDRESS":"樹林街二段１７號","OBJECTID":191133},"geometry":{"x":169073.29999999981,"y":2542971.1699999999}},{"attributes":{"ID":191135,"DIS_CODE":0,"TOWNNAME":"中西區","LI":"開山里","LIN":"21鄰","STREET":"樹林街","SECT":"二段","MAREA":" ","LANE":" ","ALLEY":" ","HOUSE_NO":"１９號","E_COORD97":169066.60999999999,"N_COORD97":2542968.71,"ADDRESS":"樹林街二段１９號","OBJECTID":191134},"geometry":{"x":169066.61000000034,"y":2542968.7100000009}},{"attributes":{"ID":191136,"DIS_CODE":0,"TOWNNAME":"新市區","LI":"新和里","LIN":"21鄰","STREET":"中正路","SECT":" ","MAREA":" ","LANE":" ","ALLEY":" ","HOUSE_NO":"８２之８號","E_COORD97":177482.12,"N_COORD97":2552449.0499999998,"ADDRESS":"中正路８２之８號","OBJECTID":191135},"geometry":{"x":177482.12000000104,"y":2552449.0500000007}},{"attributes":{"ID":191137,"DIS_CODE":0,"TOWNNAME":"北區","LI":"大豐里","LIN":"5鄰","STREET":"武聖路","SECT":" ","MAREA":" ","LANE":"１６０巷","ALLEY":"８弄","HOUSE_NO":"１０號","E_COORD97":166997.54000000001,"N_COORD97":2545278.0600000001,"ADDRESS":"武聖路１６０巷８弄１０號","OBJECTID":191136},"geometry":{"x":166997.53999999911,"y":2545278.0600000005}},{"attributes":{"ID":191138,"DIS_CODE":0,"TOWNNAME":"新市區","LI":"新和里","LIN":"21鄰","STREET":"中正路","SECT":" ","MAREA":" ","LANE":" ","ALLEY":" ","HOUSE_NO":"８２之３號","E_COORD97":177475.76000000001,"N_COORD97":2552436.0499999998,"ADDRESS":"中正路８２之３號","OBJECTID":191137},"geometry":{"x":177475.76000000071,"y":2552436.0499999989}},{"attributes":{"ID":191139,"DIS_CODE":0,"TOWNNAME":"北區","LI":"大豐里","LIN":"5鄰","STREET":"武聖路","SECT":" ","MAREA":" ","LANE":"１６０巷","ALLEY":"８弄","HOUSE_NO":"１２號","E_COORD97":167001.22,"N_COORD97":2545276.25,"ADDRESS":"武聖路１６０巷８弄１２號","OBJECTID":191138},"geometry":{"x":167001.2200000016,"y":2545276.25}},{"attributes":{"ID":191140,"DIS_CODE":0,"TOWNNAME":"仁德區","LI":"一甲里","LIN":"20鄰","STREET":"太乙七街","SECT":" ","MAREA":" ","LANE":" ","ALLEY":" ","HOUSE_NO":"２３號","E_COORD97":173137.78,"N_COORD97":2542396.0099999998,"ADDRESS":"太乙七街２３號","OBJECTID":191139},"geometry":{"x":173137.77999999933,"y":2542396.0099999998}},{"attributes":{"ID":191141,"DIS_CODE":0,"TOWNNAME":"北區","LI":"大豐里","LIN":"5鄰","STREET":"武聖路","SECT":" ","MAREA":" ","LANE":"１６０巷","ALLEY":"８弄","HOUSE_NO":"１４號","E_COORD97":167004.57999999999,"N_COORD97":2545274.2599999998,"ADDRESS":"武聖路１６０巷８弄１４號","OBJECTID":191140},"geometry":{"x":167004.58000000101,"y":2545274.2600000016}},{"attributes":{"ID":191142,"DIS_CODE":0,"TOWNNAME":"北區","LI":"大豐里","LIN":"5鄰","STREET":"武聖路","SECT":" ","MAREA":" ","LANE":"１６０巷","ALLEY":"８弄","HOUSE_NO":"１６號","E_COORD97":167008,"N_COORD97":2545272.1299999999,"ADDRESS":"武聖路１６０巷８弄１６號","OBJECTID":191141},"geometry":{"x":167008.00000000186,"y":2545272.129999999}},{"attributes":{"ID":191143,"DIS_CODE":0,"TOWNNAME":"北區","LI":"大豐里","LIN":"5鄰","STREET":"武聖路","SECT":" ","MAREA":" ","LANE":"１６０巷","ALLEY":"８弄","HOUSE_NO":"１８號","E_COORD97":167011.35000000001,"N_COORD97":2545270.3199999998,"ADDRESS":"武聖路１６０巷８弄１８號","OBJECTID":191142},"geometry":{"x":167011.34999999963,"y":2545270.320000004}},{"attributes":{"ID":191144,"DIS_CODE":0,"TOWNNAME":"北區","LI":"大豐里","LIN":"5鄰","STREET":"武聖路","SECT":" ","MAREA":" ","LANE":"１６０巷","ALLEY":"８弄","HOUSE_NO":"２０號","E_COORD97":167015.03,"N_COORD97":2545268.7799999998,"ADDRESS":"武聖路１６０巷８弄２０號","OBJECTID":191143},"geometry":{"x":167015.03000000119,"y":2545268.7799999993}},{"attributes":{"ID":191145,"DIS_CODE":0,"TOWNNAME":"仁德區","LI":"上崙里","LIN":"24鄰","STREET":"中正路","SECT":"一段","MAREA":" ","LANE":" ","ALLEY":" ","HOUSE_NO":"７８４號","E_COORD97":172986.67000000001,"N_COORD97":2537914.2799999998,"ADDRESS":"中正路一段７８４號","OBJECTID":191144},"geometry":{"x":172986.66999999993,"y":2537914.2799999993}},{"attributes":{"ID":191146,"DIS_CODE":0,"TOWNNAME":"仁德區","LI":"一甲里","LIN":"14鄰","STREET":"忠義路","SECT":" ","MAREA":" ","LANE":" ","ALLEY":" ","HOUSE_NO":"２３９號","E_COORD97":173915.23999999999,"N_COORD97":2541834.2599999998,"ADDRESS":"忠義路２３９號","OBJECTID":191145},"geometry":{"x":173915.24000000115,"y":2541834.2599999998}},{"attributes":{"ID":191147,"DIS_CODE":0,"TOWNNAME":"新市區","LI":"大社里","LIN":"21鄰","STREET":" ","SECT":" ","MAREA":"大社","LANE":" ","ALLEY":" ","HOUSE_NO":"８０７號","E_COORD97":179873.73000000001,"N_COORD97":2554138,"ADDRESS":"大社８０７號","OBJECTID":191146},"geometry":{"x":179873.73000000138,"y":2554138.0000000037}},{"attributes":{"ID":191148,"DIS_CODE":0,"TOWNNAME":"新市區","LI":"大社里","LIN":"21鄰","STREET":" ","SECT":" ","MAREA":"大社","LANE":" ","ALLEY":" ","HOUSE_NO":"７９９號","E_COORD97":179861.31,"N_COORD97":2554178.25,"ADDRESS":"大社７９９號","OBJECTID":191147},"geometry":{"x":179861.30999999959,"y":2554178.2500000019}},{"attributes":{"ID":191149,"DIS_CODE":0,"TOWNNAME":"善化區","LI":"小新里","LIN":"22鄰","STREET":" ","SECT":" ","MAREA":"成功新村","LANE":" ","ALLEY":" ","HOUSE_NO":"５６號八樓","E_COORD97":180326.45999999999,"N_COORD97":2558645.25,"ADDRESS":"成功新村５６號八樓","OBJECTID":191148},"geometry":{"x":180326.46000000089,"y":2558645.2500000037}},{"attributes":{"ID":191150,"DIS_CODE":0,"TOWNNAME":"善化區","LI":"小新里","LIN":"22鄰","STREET":" ","SECT":" ","MAREA":"成功新村","LANE":" ","ALLEY":" ","HOUSE_NO":"５４號八樓","E_COORD97":180336.69,"N_COORD97":2558651.25,"ADDRESS":"成功新村５４號八樓","OBJECTID":191149},"geometry":{"x":180336.69000000134,"y":2558651.25}},{"attributes":{"ID":191151,"DIS_CODE":0,"TOWNNAME":"善化區","LI":"小新里","LIN":"22鄰","STREET":" ","SECT":" ","MAREA":"成功新村","LANE":" ","ALLEY":" ","HOUSE_NO":"６６號七樓","E_COORD97":180318.45000000001,"N_COORD97":2558670.5,"ADDRESS":"成功新村６６號七樓","OBJECTID":191150},"geometry":{"x":180318.45000000019,"y":2558670.4999999981}},{"attributes":{"ID":191152,"DIS_CODE":0,"TOWNNAME":"新市區","LI":"社內里","LIN":"21鄰","STREET":" ","SECT":" ","MAREA":"社內","LANE":" ","ALLEY":" ","HOUSE_NO":"２１３號","E_COORD97":175661.89000000001,"N_COORD97":2553080.25,"ADDRESS":"社內２１３號","OBJECTID":191151},"geometry":{"x":175661.88999999966,"y":2553080.25}},{"attributes":{"ID":191153,"DIS_CODE":0,"TOWNNAME":"新市區","LI":"大營里","LIN":"21鄰","STREET":" ","SECT":" ","MAREA":"豐榮","LANE":" ","ALLEY":" ","HOUSE_NO":"８５號","E_COORD97":178847.64999999999,"N_COORD97":2554276.5,"ADDRESS":"豐榮８５號","OBJECTID":191152},"geometry":{"x":178847.65000000037,"y":2554276.4999999981}},{"attributes":{"ID":191154,"DIS_CODE":0,"TOWNNAME":"新市區","LI":"大營里","LIN":"21鄰","STREET":" ","SECT":" ","MAREA":"豐榮","LANE":" ","ALLEY":" ","HOUSE_NO":"８１號","E_COORD97":178858.14999999999,"N_COORD97":2554286,"ADDRESS":"豐榮８１號","OBJECTID":191153},"geometry":{"x":178858.15000000037,"y":2554286}},{"attributes":{"ID":191155,"DIS_CODE":0,"TOWNNAME":"新市區","LI":"大社里","LIN":"21鄰","STREET":" ","SECT":" ","MAREA":"大社","LANE":" ","ALLEY":" ","HOUSE_NO":"７９５號","E_COORD97":179860.45999999999,"N_COORD97":2554223.5,"ADDRESS":"大社７９５號","OBJECTID":191154},"geometry":{"x":179860.45999999996,"y":2554223.5000000019}},{"attributes":{"ID":191156,"DIS_CODE":0,"TOWNNAME":"北門區","LI":"玉港里","LIN":"21鄰","STREET":" ","SECT":" ","MAREA":"西埔內","LANE":" ","ALLEY":" ","HOUSE_NO":"６３號","E_COORD97":162028.76999999999,"N_COORD97":2573927.7799999998,"ADDRESS":"西埔內６３號","OBJECTID":191155},"geometry":{"x":162028.77000000142,"y":2573927.7799999993}},{"attributes":{"ID":191157,"DIS_CODE":0,"TOWNNAME":"北門區","LI":"玉港里","LIN":"21鄰","STREET":" ","SECT":" ","MAREA":"西埔內","LANE":" ","ALLEY":" ","HOUSE_NO":"６４號","E_COORD97":162002.63,"N_COORD97":2573939.4900000002,"ADDRESS":"西埔內６４號","OBJECTID":191156},"geometry":{"x":162002.62999999989,"y":2573939.4900000021}},{"attributes":{"ID":191158,"DIS_CODE":0,"TOWNNAME":"北區","LI":"大豐里","LIN":"5鄰","STREET":"武聖路","SECT":" ","MAREA":" ","LANE":"１６０巷","ALLEY":"８弄","HOUSE_NO":"２２號","E_COORD97":167018.64000000001,"N_COORD97":2545266.8399999999,"ADDRESS":"武聖路１６０巷８弄２２號","OBJECTID":191157},"geometry":{"x":167018.64000000153,"y":2545266.8400000017}},{"attributes":{"ID":191159,"DIS_CODE":0,"TOWNNAME":"北門區","LI":"玉港里","LIN":"21鄰","STREET":" ","SECT":" ","MAREA":"西埔內","LANE":" ","ALLEY":" ","HOUSE_NO":"６７號","E_COORD97":162032.31,"N_COORD97":2573890.4300000002,"ADDRESS":"西埔內６７號","OBJECTID":191158},"geometry":{"x":162032.31000000052,"y":2573890.4300000034}},{"attributes":{"ID":191160,"DIS_CODE":0,"TOWNNAME":"北門區","LI":"玉港里","LIN":"21鄰","STREET":" ","SECT":" ","MAREA":"西埔內","LANE":" ","ALLEY":" ","HOUSE_NO":"６８之１號","E_COORD97":162039.69,"N_COORD97":2573838.77,"ADDRESS":"西埔內６８之１號","OBJECTID":191159},"geometry":{"x":162039.69000000041,"y":2573838.7699999996}},{"attributes":{"ID":191161,"DIS_CODE":0,"TOWNNAME":"北門區","LI":"玉港里","LIN":"21鄰","STREET":" ","SECT":" ","MAREA":"西埔內","LANE":" ","ALLEY":" ","HOUSE_NO":"６８號之１","E_COORD97":162039.69,"N_COORD97":2573838.77,"ADDRESS":"西埔內６８號之１","OBJECTID":191160},"geometry":{"x":162039.69000000041,"y":2573838.7699999996}},{"attributes":{"ID":191162,"DIS_CODE":0,"TOWNNAME":"北門區","LI":"玉港里","LIN":"21鄰","STREET":" ","SECT":" ","MAREA":"西埔內","LANE":" ","ALLEY":" ","HOUSE_NO":"６８號之２","E_COORD97":162045.70999999999,"N_COORD97":2573834.7200000002,"ADDRESS":"西埔內６８號之２","OBJECTID":191161},"geometry":{"x":162045.70999999996,"y":2573834.7200000007}},{"attributes":{"ID":191163,"DIS_CODE":0,"TOWNNAME":"北門區","LI":"玉港里","LIN":"21鄰","STREET":" ","SECT":" ","MAREA":"西埔內","LANE":" ","ALLEY":" ","HOUSE_NO":"６８號","E_COORD97":162032.67000000001,"N_COORD97":2573852.23,"ADDRESS":"西埔內６８號","OBJECTID":191162},"geometry":{"x":162032.66999999993,"y":2573852.2300000023}},{"attributes":{"ID":191164,"DIS_CODE":0,"TOWNNAME":"北門區","LI":"玉港里","LIN":"21鄰","STREET":" ","SECT":" ","MAREA":"西埔內","LANE":" ","ALLEY":" ","HOUSE_NO":"６９號之１","E_COORD97":162054.07999999999,"N_COORD97":2573826.29,"ADDRESS":"西埔內６９號之１","OBJECTID":191163},"geometry":{"x":162054.07999999914,"y":2573826.2900000028}},{"attributes":{"ID":191165,"DIS_CODE":0,"TOWNNAME":"北門區","LI":"玉港里","LIN":"21鄰","STREET":" ","SECT":" ","MAREA":"西埔內","LANE":" ","ALLEY":" ","HOUSE_NO":"６９號","E_COORD97":162050.69,"N_COORD97":2573828.6000000001,"ADDRESS":"西埔內６９號","OBJECTID":191164},"geometry":{"x":162050.69000000134,"y":2573828.6000000015}},{"attributes":{"ID":191166,"DIS_CODE":0,"TOWNNAME":"北區","LI":"大豐里","LIN":"5鄰","STREET":"武聖路","SECT":" ","MAREA":" ","LANE":"１６０巷","ALLEY":"８弄","HOUSE_NO":"２４號","E_COORD97":167022.12,"N_COORD97":2545264.7799999998,"ADDRESS":"武聖路１６０巷８弄２４號","OBJECTID":191165},"geometry":{"x":167022.12000000011,"y":2545264.7799999993}},{"attributes":{"ID":191167,"DIS_CODE":0,"TOWNNAME":"北區","LI":"大豐里","LIN":"5鄰","STREET":"武聖路","SECT":" ","MAREA":" ","LANE":"１６０巷","ALLEY":"８弄","HOUSE_NO":"２６號","E_COORD97":167025.73999999999,"N_COORD97":2545262.6600000001,"ADDRESS":"武聖路１６０巷８弄２６號","OBJECTID":191166},"geometry":{"x":167025.74000000115,"y":2545262.6600000001}},{"attributes":{"ID":191168,"DIS_CODE":0,"TOWNNAME":"北區","LI":"大豐里","LIN":"5鄰","STREET":"武聖路","SECT":" ","MAREA":" ","LANE":"１６０巷","ALLEY":"８弄","HOUSE_NO":"２８號","E_COORD97":167029.22,"N_COORD97":2545261.04,"ADDRESS":"武聖路１６０巷８弄２８號","OBJECTID":191167},"geometry":{"x":167029.21999999974,"y":2545261.040000001}},{"attributes":{"ID":191169,"DIS_CODE":0,"TOWNNAME":"北區","LI":"大豐里","LIN":"5鄰","STREET":"武聖路","SECT":" ","MAREA":" ","LANE":"１６０巷","ALLEY":"８弄","HOUSE_NO":"３０號","E_COORD97":167032.54000000001,"N_COORD97":2545258.7999999998,"ADDRESS":"武聖路１６０巷８弄３０號","OBJECTID":191168},"geometry":{"x":167032.54000000004,"y":2545258.8000000007}},{"attributes":{"ID":191170,"DIS_CODE":0,"TOWNNAME":"永康區","LI":"\u25A0行里","LIN":"44鄰","STREET":"\u25A0平街","SECT":" ","MAREA":" ","LANE":"１３７巷","ALLEY":" ","HOUSE_NO":"１８號","E_COORD97":171868.64999999999,"N_COORD97":2548266.7400000002,"ADDRESS":"\u25A0平街１３７巷１８號","OBJECTID":191169},"geometry":{"x":171868.65000000037,"y":2548266.7400000002}},{"attributes":{"ID":191171,"DIS_CODE":0,"TOWNNAME":"白河區","LI":"永安里","LIN":"15鄰","STREET":"富民路","SECT":" ","MAREA":" ","LANE":" ","ALLEY":" ","HOUSE_NO":"７６８號","E_COORD97":189885.79999999999,"N_COORD97":2583691.0800000001,"ADDRESS":"富民路７６８號","OBJECTID":191170},"geometry":{"x":189885.80000000168,"y":2583691.0800000038}},{"attributes":{"ID":191172,"DIS_CODE":0,"TOWNNAME":"白河區","LI":"永安里","LIN":"15鄰","STREET":"富民路","SECT":" ","MAREA":" ","LANE":" ","ALLEY":" ","HOUSE_NO":"７６９號","E_COORD97":189897.51999999999,"N_COORD97":2583796.1299999999,"ADDRESS":"富民路７６９號","OBJECTID":191171},"geometry":{"x":189897.52000000142,"y":2583796.1300000008}},{"attributes":{"ID":191173,"DIS_CODE":0,"TOWNNAME":"佳里區","LI":"忠仁里","LIN":"15鄰","STREET":"延平路","SECT":" ","MAREA":" ","LANE":" ","ALLEY":" ","HOUSE_NO":"１３９號","E_COORD97":165899.92000000001,"N_COORD97":2561938.5899999999,"ADDRESS":"延平路１３９號","OBJECTID":191172},"geometry":{"x":165899.92000000179,"y":2561938.5900000017}},{"attributes":{"ID":191174,"DIS_CODE":0,"TOWNNAME":"新市區","LI":"港墘里","LIN":"21鄰","STREET":"南港街","SECT":" ","MAREA":" ","LANE":" ","ALLEY":" ","HOUSE_NO":"１１６號","E_COORD97":178020.64999999999,"N_COORD97":2552747.75,"ADDRESS":"南港街１１６號","OBJECTID":191173},"geometry":{"x":178020.65000000037,"y":2552747.75}},{"attributes":{"ID":191175,"DIS_CODE":0,"TOWNNAME":"新市區","LI":"新市里","LIN":"21鄰","STREET":"和平街","SECT":" ","MAREA":" ","LANE":" ","ALLEY":" ","HOUSE_NO":"５６號","E_COORD97":177662.48000000001,"N_COORD97":2553447.25,"ADDRESS":"和平街５６號","OBJECTID":191174},"geometry":{"x":177662.48000000045,"y":2553447.25}},{"attributes":{"ID":191176,"DIS_CODE":0,"TOWNNAME":"北區","LI":"大豐里","LIN":"5鄰","STREET":"武聖路","SECT":" ","MAREA":" ","LANE":"１６０巷","ALLEY":"８弄","HOUSE_NO":"３２號","E_COORD97":167036.35000000001,"N_COORD97":2545257.3199999998,"ADDRESS":"武聖路１６０巷８弄３２號","OBJECTID":191175},"geometry":{"x":167036.35000000056,"y":2545257.3200000022}},{"attributes":{"ID":191177,"DIS_CODE":0,"TOWNNAME":"新市區","LI":"新和里","LIN":"21鄰","STREET":"中正路","SECT":" ","MAREA":" ","LANE":" ","ALLEY":" ","HOUSE_NO":"８８號","E_COORD97":177445.20999999999,"N_COORD97":2552440.5,"ADDRESS":"中正路８８號","OBJECTID":191176},"geometry":{"x":177445.20999999996,"y":2552440.5000000019}},{"attributes":{"ID":191178,"DIS_CODE":0,"TOWNNAME":"北門區","LI":"保吉里","LIN":"21鄰","STREET":" ","SECT":" ","MAREA":"蚵寮","LANE":" ","ALLEY":" ","HOUSE_NO":"４５８號","E_COORD97":161561.48000000001,"N_COORD97":2576387.9500000002,"ADDRESS":"蚵寮４５８號","OBJECTID":191177},"geometry":{"x":161561.48000000045,"y":2576387.9499999993}},{"attributes":{"ID":191179,"DIS_CODE":0,"TOWNNAME":"北門區","LI":"保吉里","LIN":"21鄰","STREET":" ","SECT":" ","MAREA":"蚵寮","LANE":" ","ALLEY":" ","HOUSE_NO":"４５９號之１","E_COORD97":161531.97,"N_COORD97":2576375.1299999999,"ADDRESS":"蚵寮４５９號之１","OBJECTID":191178},"geometry":{"x":161531.96999999974,"y":2576375.129999999}},{"attributes":{"ID":191180,"DIS_CODE":0,"TOWNNAME":"北門區","LI":"保吉里","LIN":"21鄰","STREET":" ","SECT":" ","MAREA":"蚵寮","LANE":" ","ALLEY":" ","HOUSE_NO":"４５９之２號","E_COORD97":161531.31,"N_COORD97":2576362.7599999998,"ADDRESS":"蚵寮４５９之２號","OBJECTID":191179},"geometry":{"x":161531.30999999959,"y":2576362.7599999998}},{"attributes":{"ID":191181,"DIS_CODE":0,"TOWNNAME":"北區","LI":"大豐里","LIN":"5鄰","STREET":"武聖路","SECT":" ","MAREA":" ","LANE":"１６０巷","ALLEY":"８弄","HOUSE_NO":"３４號","E_COORD97":167039.70000000001,"N_COORD97":2545255.6400000001,"ADDRESS":"武聖路１６０巷８弄３４號","OBJECTID":191180},"geometry":{"x":167039.70000000112,"y":2545255.6400000025}},{"attributes":{"ID":191182,"DIS_CODE":0,"TOWNNAME":"北門區","LI":"保吉里","LIN":"21鄰","STREET":" ","SECT":" ","MAREA":"蚵寮","LANE":" ","ALLEY":" ","HOUSE_NO":"４５９號之２","E_COORD97":161531.31,"N_COORD97":2576362.7599999998,"ADDRESS":"蚵寮４５９號之２","OBJECTID":191181},"geometry":{"x":161531.30999999959,"y":2576362.7599999998}},{"attributes":{"ID":191183,"DIS_CODE":0,"TOWNNAME":"北門區","LI":"保吉里","LIN":"21鄰","STREET":" ","SECT":" ","MAREA":"蚵寮","LANE":" ","ALLEY":" ","HOUSE_NO":"４５９號","E_COORD97":161550.20999999999,"N_COORD97":2576384.52,"ADDRESS":"蚵寮４５９號","OBJECTID":191182},"geometry":{"x":161550.21000000089,"y":2576384.5199999996}},{"attributes":{"ID":191184,"DIS_CODE":0,"TOWNNAME":"北區","LI":"大豐里","LIN":"5鄰","STREET":"武聖路","SECT":" ","MAREA":" ","LANE":"１６０巷","ALLEY":"８弄","HOUSE_NO":"３６號","E_COORD97":167043.57000000001,"N_COORD97":2545253.6499999999,"ADDRESS":"武聖路１６０巷８弄３６號","OBJECTID":191183},"geometry":{"x":167043.57000000216,"y":2545253.6500000004}},{"attributes":{"ID":191185,"DIS_CODE":0,"TOWNNAME":"北區","LI":"六甲里","LIN":"5鄰","STREET":"公園路","SECT":" ","MAREA":" ","LANE":"５０９巷","ALLEY":"８弄","HOUSE_NO":"３２號","E_COORD97":169029.94,"N_COORD97":2545627.7400000002,"ADDRESS":"公園路５０９巷８弄３２號","OBJECTID":191184},"geometry":{"x":169029.94000000134,"y":2545627.7400000021}},{"attributes":{"ID":191186,"DIS_CODE":0,"TOWNNAME":"北區","LI":"六甲里","LIN":"5鄰","STREET":"公園路","SECT":" ","MAREA":" ","LANE":"５０９巷","ALLEY":"８弄","HOUSE_NO":"３４號","E_COORD97":169030.45000000001,"N_COORD97":2545634.5600000001,"ADDRESS":"公園路５０９巷８弄３４號","OBJECTID":191185},"geometry":{"x":169030.45000000019,"y":2545634.5599999987}},{"attributes":{"ID":191187,"DIS_CODE":0,"TOWNNAME":"北區","LI":"六甲里","LIN":"5鄰","STREET":"公園路","SECT":" ","MAREA":" ","LANE":"５０９巷","ALLEY":"８弄","HOUSE_NO":"３６號之１","E_COORD97":169035.51000000001,"N_COORD97":2545649.5699999998,"ADDRESS":"公園路５０９巷８弄３６號之１","OBJECTID":191186},"geometry":{"x":169035.51000000071,"y":2545649.5700000022}},{"attributes":{"ID":191188,"DIS_CODE":0,"TOWNNAME":"北區","LI":"六甲里","LIN":"5鄰","STREET":"公園路","SECT":" ","MAREA":" ","LANE":"５０９巷","ALLEY":"８弄","HOUSE_NO":"３８號","E_COORD97":169035.76000000001,"N_COORD97":2545656.1400000001,"ADDRESS":"公園路５０９巷８弄３８號","OBJECTID":191187},"geometry":{"x":169035.76000000071,"y":2545656.1400000025}},{"attributes":{"ID":191189,"DIS_CODE":0,"TOWNNAME":"北區","LI":"六甲里","LIN":"5鄰","STREET":"公園路","SECT":" ","MAREA":" ","LANE":"５０９巷","ALLEY":"８弄","HOUSE_NO":"４０號","E_COORD97":169036.26999999999,"N_COORD97":2545660.1800000002,"ADDRESS":"公園路５０９巷８弄４０號","OBJECTID":191188},"geometry":{"x":169036.26999999955,"y":2545660.1800000034}},{"attributes":{"ID":191190,"DIS_CODE":0,"TOWNNAME":"北區","LI":"六甲里","LIN":"5鄰","STREET":"公園路","SECT":" ","MAREA":" ","LANE":"５０９巷","ALLEY":"８弄","HOUSE_NO":"４２號","E_COORD97":169037.79000000001,"N_COORD97":2545664.73,"ADDRESS":"公園路５０９巷８弄４２號","OBJECTID":191189},"geometry":{"x":169037.79000000004,"y":2545664.7300000023}},{"attributes":{"ID":191191,"DIS_CODE":0,"TOWNNAME":"北區","LI":"六甲里","LIN":"5鄰","STREET":"公園路","SECT":" ","MAREA":" ","LANE":"５０９巷","ALLEY":"８弄","HOUSE_NO":"４４號","E_COORD97":169039.31,"N_COORD97":2545668.02,"ADDRESS":"公園路５０９巷８弄４４號","OBJECTID":191190},"geometry":{"x":169039.30999999959,"y":2545668.0200000033}},{"attributes":{"ID":191192,"DIS_CODE":0,"TOWNNAME":"新市區","LI":"港墘里","LIN":"21鄰","STREET":"南港街","SECT":" ","MAREA":" ","LANE":" ","ALLEY":" ","HOUSE_NO":"９６號","E_COORD97":178065.04000000001,"N_COORD97":2552753,"ADDRESS":"南港街９６號","OBJECTID":191191},"geometry":{"x":178065.04000000004,"y":2552753}},{"attributes":{"ID":191193,"DIS_CODE":0,"TOWNNAME":"北門區","LI":"保吉里","LIN":"21鄰","STREET":" ","SECT":" ","MAREA":"蚵寮","LANE":" ","ALLEY":" ","HOUSE_NO":"４６０號","E_COORD97":161554.88,"N_COORD97":2576368.6600000001,"ADDRESS":"蚵寮４６０號","OBJECTID":191192},"geometry":{"x":161554.87999999989,"y":2576368.660000002}},{"attributes":{"ID":191194,"DIS_CODE":0,"TOWNNAME":"北門區","LI":"保吉里","LIN":"21鄰","STREET":" ","SECT":" ","MAREA":"蚵寮","LANE":" ","ALLEY":" ","HOUSE_NO":"４６２號","E_COORD97":161565.81,"N_COORD97":2576346.4100000001,"ADDRESS":"蚵寮４６２號","OBJECTID":191193},"geometry":{"x":161565.81000000052,"y":2576346.410000002}},{"attributes":{"ID":191195,"DIS_CODE":0,"TOWNNAME":"新市區","LI":"大營里","LIN":"21鄰","STREET":" ","SECT":" ","MAREA":"豐榮","LANE":" ","ALLEY":" ","HOUSE_NO":"１４５號","E_COORD97":178902.23000000001,"N_COORD97":2554247,"ADDRESS":"豐榮１４５號","OBJECTID":191194},"geometry":{"x":178902.23000000138,"y":2554247.0000000019}},{"attributes":{"ID":191196,"DIS_CODE":0,"TOWNNAME":"仁德區","LI":"一甲里","LIN":"20鄰","STREET":"太乙三街","SECT":" ","MAREA":" ","LANE":" ","ALLEY":" ","HOUSE_NO":"７２號","E_COORD97":173305.87,"N_COORD97":2542214.5,"ADDRESS":"太乙三街７２號","OBJECTID":191195},"geometry":{"x":173305.87000000011,"y":2542214.5000000019}},{"attributes":{"ID":191197,"DIS_CODE":0,"TOWNNAME":"仁德區","LI":"一甲里","LIN":"20鄰","STREET":"太乙五街","SECT":" ","MAREA":" ","LANE":" ","ALLEY":" ","HOUSE_NO":"３９號","E_COORD97":173228.92000000001,"N_COORD97":2542088.0099999998,"ADDRESS":"太乙五街３９號","OBJECTID":191196},"geometry":{"x":173228.92000000086,"y":2542088.0100000035}},{"attributes":{"ID":191198,"DIS_CODE":0,"TOWNNAME":"仁德區","LI":"二行里","LIN":"20鄰","STREET":"行大街","SECT":" ","MAREA":" ","LANE":" ","ALLEY":" ","HOUSE_NO":"２４０號","E_COORD97":169819.07000000001,"N_COORD97":2535143,"ADDRESS":"行大街２４０號","OBJECTID":191197},"geometry":{"x":169819.07000000123,"y":2535143.0000000019}},{"attributes":{"ID":191199,"DIS_CODE":0,"TOWNNAME":"仁德區","LI":"上崙里","LIN":"26鄰","STREET":"中正路","SECT":"一段","MAREA":" ","LANE":" ","ALLEY":" ","HOUSE_NO":"７４８號","E_COORD97":172952.70000000001,"N_COORD97":2537812.2799999998,"ADDRESS":"中正路一段７４８號","OBJECTID":191198},"geometry":{"x":172952.70000000112,"y":2537812.2799999993}},{"attributes":{"ID":191200,"DIS_CODE":0,"TOWNNAME":"仁德區","LI":"上崙里","LIN":"24鄰","STREET":"中正路","SECT":"一段","MAREA":" ","LANE":" ","ALLEY":" ","HOUSE_NO":"７８６號","E_COORD97":172987.91,"N_COORD97":2537918.2799999998,"ADDRESS":"中正路一段７８６號","OBJECTID":191199},"geometry":{"x":172987.91000000108,"y":2537918.2799999993}},{"attributes":{"ID":191201,"DIS_CODE":0,"TOWNNAME":"仁德區","LI":"上崙里","LIN":"26鄰","STREET":"中正路","SECT":"一段","MAREA":" ","LANE":" ","ALLEY":" ","HOUSE_NO":"７３６號","E_COORD97":172940.73999999999,"N_COORD97":2537767.52,"ADDRESS":"中正路一段７３６號","OBJECTID":191200},"geometry":{"x":172940.74000000022,"y":2537767.5199999996}}]}