{"displayFieldName":"TOWNNAME","fieldAliases":{"ID":"ID","DIS_CODE":"DIS_CODE","TOWNNAME":"TOWNNAME","LI":"LI","LIN":"LIN","STREET":"STREET","SECT":"SECT","MAREA":"MAREA","LANE":"LANE","ALLEY":"ALLEY","HOUSE_NO":"HOUSE_NO","E_COORD97":"E_COORD97","N_COORD97":"N_COORD97","ADDRESS":"ADDRESS","OBJECTID":"OBJECTID"},"geometryType":"esriGeometryPoint","spatialReference":{"wkid":102443,"latestWkid":3826},"fields":[{"name":"ID","type":"esriFieldTypeDouble","alias":"ID"},{"name":"DIS_CODE","type":"esriFieldTypeInteger","alias":"DIS_CODE"},{"name":"TOWNNAME","type":"esriFieldTypeString","alias":"TOWNNAME","length":8},{"name":"LI","type":"esriFieldTypeString","alias":"LI","length":8},{"name":"LIN","type":"esriFieldTypeString","alias":"LIN","length":12},{"name":"STREET","type":"esriFieldTypeString","alias":"STREET","length":20},{"name":"SECT","type":"esriFieldTypeString","alias":"SECT","length":8},{"name":"MAREA","type":"esriFieldTypeString","alias":"MAREA","length":12},{"name":"LANE","type":"esriFieldTypeString","alias":"LANE","length":10},{"name":"ALLEY","type":"esriFieldTypeString","alias":"ALLEY","length":10},{"name":"HOUSE_NO","type":"esriFieldTypeString","alias":"HOUSE_NO","length":20},{"name":"E_COORD97","type":"esriFieldTypeDouble","alias":"E_COORD97"},{"name":"N_COORD97","type":"esriFieldTypeDouble","alias":"N_COORD97"},{"name":"ADDRESS","type":"esriFieldTypeString","alias":"ADDRESS","length":50},{"name":"OBJECTID","type":"esriFieldTypeOID","alias":"OBJECTID"}],"features":[{"attributes":{"ID":316209,"DIS_CODE":0,"TOWNNAME":"南區","LI":"彰南里","LIN":"7鄰","STREET":"新建路","SECT":" ","MAREA":" ","LANE":"１６巷","ALLEY":" ","HOUSE_NO":"８號","E_COORD97":166399.70000000001,"N_COORD97":2541303.8100000001,"ADDRESS":"新建路１６巷８號","OBJECTID":316201},"geometry":{"x":166399.70000000019,"y":2541303.8100000042}},{"attributes":{"ID":316210,"DIS_CODE":0,"TOWNNAME":"南區","LI":"廣州里","LIN":"7鄰","STREET":"大德街","SECT":" ","MAREA":" ","LANE":"１７０巷","ALLEY":" ","HOUSE_NO":"７號","E_COORD97":167501.76000000001,"N_COORD97":2543019.3199999998,"ADDRESS":"大德街１７０巷７號","OBJECTID":316202},"geometry":{"x":167501.76000000071,"y":2543019.3200000022}},{"attributes":{"ID":316211,"DIS_CODE":0,"TOWNNAME":"南區","LI":"廣州里","LIN":"7鄰","STREET":"大德街","SECT":" ","MAREA":" ","LANE":"１７０巷","ALLEY":" ","HOUSE_NO":"９號","E_COORD97":167502.39000000001,"N_COORD97":2543015.71,"ADDRESS":"大德街１７０巷９號","OBJECTID":316203},"geometry":{"x":167502.3900000006,"y":2543015.7100000009}},{"attributes":{"ID":316212,"DIS_CODE":0,"TOWNNAME":"南區","LI":"廣州里","LIN":"7鄰","STREET":"大德街","SECT":" ","MAREA":" ","LANE":"１７０巷","ALLEY":" ","HOUSE_NO":"１１號","E_COORD97":167500.26999999999,"N_COORD97":2543013.3700000001,"ADDRESS":"大德街１７０巷１１號","OBJECTID":316204},"geometry":{"x":167500.26999999955,"y":2543013.3700000029}},{"attributes":{"ID":316213,"DIS_CODE":0,"TOWNNAME":"南區","LI":"廣州里","LIN":"7鄰","STREET":"大德街","SECT":" ","MAREA":" ","LANE":"１７０巷","ALLEY":" ","HOUSE_NO":"１５號","E_COORD97":167492.82000000001,"N_COORD97":2543031.4199999999,"ADDRESS":"大德街１７０巷１５號","OBJECTID":316205},"geometry":{"x":167492.82000000216,"y":2543031.4200000037}},{"attributes":{"ID":316214,"DIS_CODE":0,"TOWNNAME":"麻豆區","LI":"大埕里","LIN":"4鄰","STREET":"博愛路","SECT":" ","MAREA":" ","LANE":" ","ALLEY":" ","HOUSE_NO":"３號之１０","E_COORD97":173290.44,"N_COORD97":2564891.71,"ADDRESS":"博愛路３號之１０","OBJECTID":316206},"geometry":{"x":173290.44000000041,"y":2564891.7100000046}},{"attributes":{"ID":316215,"DIS_CODE":0,"TOWNNAME":"麻豆區","LI":"港尾里","LIN":"8鄰","STREET":" ","SECT":" ","MAREA":"港子尾","LANE":" ","ALLEY":" ","HOUSE_NO":"４５號","E_COORD97":168459.04000000001,"N_COORD97":2567209.5600000001,"ADDRESS":"港子尾４５號","OBJECTID":316207},"geometry":{"x":168459.04000000097,"y":2567209.5600000005}},{"attributes":{"ID":316216,"DIS_CODE":0,"TOWNNAME":"南區","LI":"廣州里","LIN":"7鄰","STREET":"大德街","SECT":" ","MAREA":" ","LANE":"１７０巷","ALLEY":" ","HOUSE_NO":"１７號","E_COORD97":167492.39999999999,"N_COORD97":2543027.6000000001,"ADDRESS":"大德街１７０巷１７號","OBJECTID":316208},"geometry":{"x":167492.4000000013,"y":2543027.6000000015}},{"attributes":{"ID":316217,"DIS_CODE":0,"TOWNNAME":"南區","LI":"廣州里","LIN":"7鄰","STREET":"大德街","SECT":" ","MAREA":" ","LANE":"１７０巷","ALLEY":" ","HOUSE_NO":"１９號","E_COORD97":167491.54999999999,"N_COORD97":2543024.8399999999,"ADDRESS":"大德街１７０巷１９號","OBJECTID":316209},"geometry":{"x":167491.54999999981,"y":2543024.839999998}},{"attributes":{"ID":316218,"DIS_CODE":0,"TOWNNAME":"南區","LI":"廣州里","LIN":"7鄰","STREET":"大德街","SECT":" ","MAREA":" ","LANE":"１７０巷","ALLEY":" ","HOUSE_NO":"２７號","E_COORD97":167483.26000000001,"N_COORD97":2543030.5699999998,"ADDRESS":"大德街１７０巷２７號","OBJECTID":316210},"geometry":{"x":167483.25999999978,"y":2543030.570000004}},{"attributes":{"ID":316219,"DIS_CODE":0,"TOWNNAME":"麻豆區","LI":"港尾里","LIN":"8鄰","STREET":" ","SECT":" ","MAREA":"港子尾","LANE":" ","ALLEY":" ","HOUSE_NO":"３５號","E_COORD97":168495.28,"N_COORD97":2567232.1099999999,"ADDRESS":"港子尾３５號","OBJECTID":316211},"geometry":{"x":168495.28000000119,"y":2567232.1099999994}},{"attributes":{"ID":316220,"DIS_CODE":0,"TOWNNAME":"麻豆區","LI":"港尾里","LIN":"8鄰","STREET":" ","SECT":" ","MAREA":"港子尾","LANE":" ","ALLEY":" ","HOUSE_NO":"３７號","E_COORD97":168488.79999999999,"N_COORD97":2567248.1600000001,"ADDRESS":"港子尾３７號","OBJECTID":316212},"geometry":{"x":168488.79999999981,"y":2567248.160000002}},{"attributes":{"ID":316221,"DIS_CODE":0,"TOWNNAME":"南區","LI":"廣州里","LIN":"7鄰","STREET":"大德街","SECT":" ","MAREA":" ","LANE":"１７０巷","ALLEY":" ","HOUSE_NO":"２９號","E_COORD97":167478.37,"N_COORD97":2543035.0299999998,"ADDRESS":"大德街１７０巷２９號","OBJECTID":316213},"geometry":{"x":167478.37000000011,"y":2543035.0300000012}},{"attributes":{"ID":316222,"DIS_CODE":0,"TOWNNAME":"安南區","LI":"大安里","LIN":"7鄰","STREET":"大安街","SECT":" ","MAREA":" ","LANE":"１６６巷","ALLEY":" ","HOUSE_NO":"３號","E_COORD97":167374.16,"N_COORD97":2548213.5600000001,"ADDRESS":"大安街１６６巷３號","OBJECTID":316214},"geometry":{"x":167374.16000000015,"y":2548213.5600000005}},{"attributes":{"ID":316223,"DIS_CODE":0,"TOWNNAME":"麻豆區","LI":"港尾里","LIN":"8鄰","STREET":" ","SECT":" ","MAREA":"港子尾","LANE":" ","ALLEY":" ","HOUSE_NO":"３８號","E_COORD97":168490.91,"N_COORD97":2567266.0899999999,"ADDRESS":"港子尾３８號","OBJECTID":316215},"geometry":{"x":168490.91000000108,"y":2567266.0900000017}},{"attributes":{"ID":316224,"DIS_CODE":0,"TOWNNAME":"麻豆區","LI":"港尾里","LIN":"8鄰","STREET":" ","SECT":" ","MAREA":"港子尾","LANE":" ","ALLEY":" ","HOUSE_NO":"３９號","E_COORD97":168474.79999999999,"N_COORD97":2567278.9399999999,"ADDRESS":"港子尾３９號","OBJECTID":316216},"geometry":{"x":168474.79999999981,"y":2567278.9400000032}},{"attributes":{"ID":316225,"DIS_CODE":0,"TOWNNAME":"麻豆區","LI":"港尾里","LIN":"7鄰","STREET":" ","SECT":" ","MAREA":"港子尾","LANE":" ","ALLEY":" ","HOUSE_NO":"２５號","E_COORD97":168567.48999999999,"N_COORD97":2567204.23,"ADDRESS":"港子尾２５號","OBJECTID":316217},"geometry":{"x":168567.49000000022,"y":2567204.2300000023}},{"attributes":{"ID":316226,"DIS_CODE":0,"TOWNNAME":"麻豆區","LI":"港尾里","LIN":"7鄰","STREET":" ","SECT":" ","MAREA":"港子尾","LANE":" ","ALLEY":" ","HOUSE_NO":"２６號之１","E_COORD97":168564.64000000001,"N_COORD97":2567226.54,"ADDRESS":"港子尾２６號之１","OBJECTID":316218},"geometry":{"x":168564.64000000153,"y":2567226.5399999972}},{"attributes":{"ID":316227,"DIS_CODE":0,"TOWNNAME":"麻豆區","LI":"港尾里","LIN":"7鄰","STREET":" ","SECT":" ","MAREA":"港子尾","LANE":" ","ALLEY":" ","HOUSE_NO":"２６號","E_COORD97":168575.10000000001,"N_COORD97":2567226.8900000001,"ADDRESS":"港子尾２６號","OBJECTID":316219},"geometry":{"x":168575.10000000149,"y":2567226.8900000025}},{"attributes":{"ID":316228,"DIS_CODE":0,"TOWNNAME":"新營區","LI":"延平里","LIN":"7鄰","STREET":"復興路","SECT":" ","MAREA":" ","LANE":" ","ALLEY":" ","HOUSE_NO":"１之１９號","E_COORD97":179705.182959,"N_COORD97":2577957.1713899998,"ADDRESS":"復興路１之１９號","OBJECTID":316220},"geometry":{"x":179705.18295899965,"y":2577957.1713890005}},{"attributes":{"ID":316229,"DIS_CODE":0,"TOWNNAME":"安南區","LI":"大安里","LIN":"7鄰","STREET":"大安街","SECT":" ","MAREA":" ","LANE":"１６６巷","ALLEY":" ","HOUSE_NO":"４號","E_COORD97":167358.04000000001,"N_COORD97":2548192.4700000002,"ADDRESS":"大安街１６６巷４號","OBJECTID":316221},"geometry":{"x":167358.04000000004,"y":2548192.4700000025}},{"attributes":{"ID":316230,"DIS_CODE":0,"TOWNNAME":"安南區","LI":"大安里","LIN":"7鄰","STREET":"大安街","SECT":" ","MAREA":" ","LANE":"１６６巷","ALLEY":" ","HOUSE_NO":"６號","E_COORD97":167362.26000000001,"N_COORD97":2548190.1699999999,"ADDRESS":"大安街１６６巷６號","OBJECTID":316222},"geometry":{"x":167362.26000000071,"y":2548190.1700000018}},{"attributes":{"ID":316231,"DIS_CODE":0,"TOWNNAME":"安南區","LI":"大安里","LIN":"7鄰","STREET":"大安街","SECT":" ","MAREA":" ","LANE":"１６６巷","ALLEY":" ","HOUSE_NO":"８號","E_COORD97":167366.87,"N_COORD97":2548186.9100000001,"ADDRESS":"大安街１６６巷８號","OBJECTID":316223},"geometry":{"x":167366.87000000104,"y":2548186.9100000001}},{"attributes":{"ID":316232,"DIS_CODE":0,"TOWNNAME":"新化區","LI":"協興里","LIN":"7鄰","STREET":"太平街","SECT":" ","MAREA":" ","LANE":"１６９巷","ALLEY":" ","HOUSE_NO":"５號","E_COORD97":178243.92000000001,"N_COORD97":2548626.25,"ADDRESS":"太平街１６９巷５號","OBJECTID":316224},"geometry":{"x":178243.91999999993,"y":2548626.25}},{"attributes":{"ID":316233,"DIS_CODE":0,"TOWNNAME":"新化區","LI":"觀音里","LIN":"7鄰","STREET":"中正路","SECT":" ","MAREA":" ","LANE":"５４９巷","ALLEY":" ","HOUSE_NO":"１０號","E_COORD97":178937.56,"N_COORD97":2548669.25,"ADDRESS":"中正路５４９巷１０號","OBJECTID":316225},"geometry":{"x":178937.55999999959,"y":2548669.25}},{"attributes":{"ID":316234,"DIS_CODE":0,"TOWNNAME":"新化區","LI":"清水里","LIN":"7鄰","STREET":"忠孝路","SECT":" ","MAREA":" ","LANE":"１６１巷","ALLEY":" ","HOUSE_NO":"３５號","E_COORD97":178653.26999999999,"N_COORD97":2548546.25,"ADDRESS":"忠孝路１６１巷３５號","OBJECTID":316226},"geometry":{"x":178653.26999999862,"y":2548546.2500000019}},{"attributes":{"ID":316235,"DIS_CODE":0,"TOWNNAME":"西港區","LI":"慶安里","LIN":"7鄰","STREET":"新興街","SECT":" ","MAREA":" ","LANE":"１１２巷","ALLEY":" ","HOUSE_NO":"１０號","E_COORD97":168313.42000000001,"N_COORD97":2558333.6800000002,"ADDRESS":"新興街１１２巷１０號","OBJECTID":316227},"geometry":{"x":168313.41999999993,"y":2558333.6800000034}},{"attributes":{"ID":316236,"DIS_CODE":0,"TOWNNAME":"西港區","LI":"慶安里","LIN":"7鄰","STREET":"新興街","SECT":" ","MAREA":" ","LANE":"１１２巷","ALLEY":" ","HOUSE_NO":"１號","E_COORD97":168253.5,"N_COORD97":2558338.5,"ADDRESS":"新興街１１２巷１號","OBJECTID":316228},"geometry":{"x":168253.5,"y":2558338.5000000037}},{"attributes":{"ID":316237,"DIS_CODE":0,"TOWNNAME":"西港區","LI":"慶安里","LIN":"7鄰","STREET":"新興街","SECT":" ","MAREA":" ","LANE":"１１２巷","ALLEY":" ","HOUSE_NO":"２號","E_COORD97":168261.54999999999,"N_COORD97":2558337.3599999999,"ADDRESS":"新興街１１２巷２號","OBJECTID":316229},"geometry":{"x":168261.54999999981,"y":2558337.3599999994}},{"attributes":{"ID":316238,"DIS_CODE":0,"TOWNNAME":"西港區","LI":"慶安里","LIN":"7鄰","STREET":"新興街","SECT":" ","MAREA":" ","LANE":"１１２巷","ALLEY":" ","HOUSE_NO":"３號","E_COORD97":168269.35000000001,"N_COORD97":2558336.0899999999,"ADDRESS":"新興街１１２巷３號","OBJECTID":316230},"geometry":{"x":168269.34999999963,"y":2558336.0899999999}},{"attributes":{"ID":316239,"DIS_CODE":0,"TOWNNAME":"西港區","LI":"慶安里","LIN":"7鄰","STREET":"新興街","SECT":" ","MAREA":" ","LANE":"１１２巷","ALLEY":" ","HOUSE_NO":"４號","E_COORD97":168276.82000000001,"N_COORD97":2558335.1099999999,"ADDRESS":"新興街１１２巷４號","OBJECTID":316231},"geometry":{"x":168276.8200000003,"y":2558335.1100000013}},{"attributes":{"ID":316240,"DIS_CODE":0,"TOWNNAME":"西港區","LI":"慶安里","LIN":"7鄰","STREET":"新興街","SECT":" ","MAREA":" ","LANE":"１１２巷","ALLEY":" ","HOUSE_NO":"５號","E_COORD97":168273.92000000001,"N_COORD97":2558347.3999999999,"ADDRESS":"新興街１１２巷５號","OBJECTID":316232},"geometry":{"x":168273.92000000086,"y":2558347.4000000022}},{"attributes":{"ID":316241,"DIS_CODE":0,"TOWNNAME":"西港區","LI":"慶安里","LIN":"7鄰","STREET":"新興街","SECT":" ","MAREA":" ","LANE":"１１２巷","ALLEY":" ","HOUSE_NO":"６號","E_COORD97":168294.98999999999,"N_COORD97":2558346.7999999998,"ADDRESS":"新興街１１２巷６號","OBJECTID":316233},"geometry":{"x":168294.99000000209,"y":2558346.8000000007}},{"attributes":{"ID":316242,"DIS_CODE":0,"TOWNNAME":"西港區","LI":"慶安里","LIN":"7鄰","STREET":"新興街","SECT":" ","MAREA":" ","LANE":"１１２巷","ALLEY":" ","HOUSE_NO":"７號","E_COORD97":168292.54000000001,"N_COORD97":2558333.4199999999,"ADDRESS":"新興街１１２巷７號","OBJECTID":316234},"geometry":{"x":168292.54000000004,"y":2558333.4200000018}},{"attributes":{"ID":316243,"DIS_CODE":0,"TOWNNAME":"西港區","LI":"慶安里","LIN":"7鄰","STREET":"新興街","SECT":" ","MAREA":" ","LANE":"１１２巷","ALLEY":" ","HOUSE_NO":"８號","E_COORD97":168300.32999999999,"N_COORD97":2558333.2999999998,"ADDRESS":"新興街１１２巷８號","OBJECTID":316235},"geometry":{"x":168300.33000000007,"y":2558333.3000000007}},{"attributes":{"ID":316244,"DIS_CODE":0,"TOWNNAME":"西港區","LI":"慶安里","LIN":"7鄰","STREET":"新興街","SECT":" ","MAREA":" ","LANE":"１１２巷","ALLEY":" ","HOUSE_NO":"９號","E_COORD97":168305.81,"N_COORD97":2558332.8700000001,"ADDRESS":"新興街１１２巷９號","OBJECTID":316236},"geometry":{"x":168305.81000000145,"y":2558332.870000001}},{"attributes":{"ID":316245,"DIS_CODE":0,"TOWNNAME":"永康區","LI":"西橋里","LIN":"7鄰","STREET":"中華西街","SECT":" ","MAREA":" ","LANE":"６３巷","ALLEY":" ","HOUSE_NO":"３號","E_COORD97":170718.78,"N_COORD97":2546025.75,"ADDRESS":"中華西街６３巷３號","OBJECTID":316237},"geometry":{"x":170718.77999999933,"y":2546025.75}},{"attributes":{"ID":316246,"DIS_CODE":0,"TOWNNAME":"永康區","LI":"西橋里","LIN":"7鄰","STREET":"中華西街","SECT":" ","MAREA":" ","LANE":"６３巷","ALLEY":" ","HOUSE_NO":"１號之１","E_COORD97":170732.94,"N_COORD97":2546034.5499999998,"ADDRESS":"中華西街６３巷１號之１","OBJECTID":316238},"geometry":{"x":170732.94000000041,"y":2546034.5500000007}},{"attributes":{"ID":316247,"DIS_CODE":0,"TOWNNAME":"東區","LI":"大福里","LIN":"7鄰","STREET":"立德一路","SECT":" ","MAREA":" ","LANE":"１巷","ALLEY":" ","HOUSE_NO":"８號","E_COORD97":169486.82999999999,"N_COORD97":2541754.5800000001,"ADDRESS":"立德一路１巷８號","OBJECTID":316239},"geometry":{"x":169486.83000000007,"y":2541754.5800000001}},{"attributes":{"ID":316248,"DIS_CODE":0,"TOWNNAME":"永康區","LI":"西灣里","LIN":"7鄰","STREET":"大灣五街","SECT":" ","MAREA":" ","LANE":"９３巷","ALLEY":" ","HOUSE_NO":"７７號","E_COORD97":174580.5,"N_COORD97":2545167.6699999999,"ADDRESS":"大灣五街９３巷７７號","OBJECTID":316240},"geometry":{"x":174580.50000000186,"y":2545167.6699999999}},{"attributes":{"ID":316249,"DIS_CODE":0,"TOWNNAME":"永康區","LI":"西橋里","LIN":"7鄰","STREET":"中華西街","SECT":" ","MAREA":" ","LANE":"６３巷","ALLEY":" ","HOUSE_NO":"９號","E_COORD97":170718.82000000001,"N_COORD97":2546004.75,"ADDRESS":"中華西街６３巷９號","OBJECTID":316241},"geometry":{"x":170718.82000000123,"y":2546004.75}},{"attributes":{"ID":316250,"DIS_CODE":0,"TOWNNAME":"麻豆區","LI":"龍泉里","LIN":"4鄰","STREET":" ","SECT":" ","MAREA":"溝子墘","LANE":" ","ALLEY":" ","HOUSE_NO":"３５號之３","E_COORD97":174042.69,"N_COORD97":2564104.1600000001,"ADDRESS":"溝子墘３５號之３","OBJECTID":316242},"geometry":{"x":174042.69000000134,"y":2564104.1600000001}},{"attributes":{"ID":316251,"DIS_CODE":0,"TOWNNAME":"南區","LI":"喜北里","LIN":"7鄰","STREET":"喜樹路","SECT":" ","MAREA":" ","LANE":"９６巷","ALLEY":" ","HOUSE_NO":"１之１號","E_COORD97":165856.75,"N_COORD97":2538394.8399999999,"ADDRESS":"喜樹路９６巷１之１號","OBJECTID":316243},"geometry":{"x":165856.75,"y":2538394.8400000017}},{"attributes":{"ID":316252,"DIS_CODE":0,"TOWNNAME":"南區","LI":"佛壇里","LIN":"7鄰","STREET":"興南街","SECT":" ","MAREA":" ","LANE":"５５巷","ALLEY":" ","HOUSE_NO":"２０號","E_COORD97":166295.54000000001,"N_COORD97":2536020.48,"ADDRESS":"興南街５５巷２０號","OBJECTID":316244},"geometry":{"x":166295.54000000004,"y":2536020.4800000023}},{"attributes":{"ID":316253,"DIS_CODE":0,"TOWNNAME":"歸仁區","LI":"沙崙里","LIN":"8鄰","STREET":" ","SECT":" ","MAREA":"沙崙","LANE":" ","ALLEY":" ","HOUSE_NO":"２１０號","E_COORD97":179295.045977,"N_COORD97":2537678.6345500001,"ADDRESS":"沙崙２１０號","OBJECTID":316245},"geometry":{"x":179295.04597700015,"y":2537678.6345509999}},{"attributes":{"ID":316254,"DIS_CODE":0,"TOWNNAME":"南區","LI":"佛壇里","LIN":"7鄰","STREET":"興南街","SECT":" ","MAREA":" ","LANE":"５５巷","ALLEY":" ","HOUSE_NO":"２２號","E_COORD97":166297.01999999999,"N_COORD97":2536014.98,"ADDRESS":"興南街５５巷２２號","OBJECTID":316246},"geometry":{"x":166297.01999999862,"y":2536014.9800000023}},{"attributes":{"ID":316255,"DIS_CODE":0,"TOWNNAME":"南區","LI":"竹溪里","LIN":"7鄰","STREET":"健康路","SECT":"一段","MAREA":" ","LANE":"１７５巷","ALLEY":" ","HOUSE_NO":"３號","E_COORD97":168808.10999999999,"N_COORD97":2542385.9100000001,"ADDRESS":"健康路一段１７５巷３號","OBJECTID":316247},"geometry":{"x":168808.11000000127,"y":2542385.9100000001}},{"attributes":{"ID":316256,"DIS_CODE":0,"TOWNNAME":"南區","LI":"南都里","LIN":"7鄰","STREET":"鯤鯓路","SECT":" ","MAREA":" ","LANE":"３０巷","ALLEY":" ","HOUSE_NO":"３８號","E_COORD97":166375.32999999999,"N_COORD97":2540063.9199999999,"ADDRESS":"鯤鯓路３０巷３８號","OBJECTID":316248},"geometry":{"x":166375.33000000194,"y":2540063.9199999999}},{"attributes":{"ID":316257,"DIS_CODE":0,"TOWNNAME":"南區","LI":"南都里","LIN":"7鄰","STREET":"鯤鯓路","SECT":" ","MAREA":" ","LANE":"３０巷","ALLEY":" ","HOUSE_NO":"２６號","E_COORD97":166375.64999999999,"N_COORD97":2540043.9199999999,"ADDRESS":"鯤鯓路３０巷２６號","OBJECTID":316249},"geometry":{"x":166375.6500000013,"y":2540043.9199999999}},{"attributes":{"ID":316258,"DIS_CODE":0,"TOWNNAME":"南區","LI":"南都里","LIN":"7鄰","STREET":"鯤鯓路","SECT":" ","MAREA":" ","LANE":"３０巷","ALLEY":" ","HOUSE_NO":"２２號","E_COORD97":166375.64999999999,"N_COORD97":2540040.1099999999,"ADDRESS":"鯤鯓路３０巷２２號","OBJECTID":316250},"geometry":{"x":166375.6500000013,"y":2540040.1100000013}},{"attributes":{"ID":316259,"DIS_CODE":0,"TOWNNAME":"南區","LI":"松安里","LIN":"7鄰","STREET":"灣裡路","SECT":" ","MAREA":" ","LANE":"８８巷","ALLEY":" ","HOUSE_NO":"２６６號","E_COORD97":165901.14999999999,"N_COORD97":2536425.6299999999,"ADDRESS":"灣裡路８８巷２６６號","OBJECTID":316251},"geometry":{"x":165901.1500000013,"y":2536425.6300000008}},{"attributes":{"ID":316260,"DIS_CODE":0,"TOWNNAME":"南區","LI":"松安里","LIN":"7鄰","STREET":"灣裡路","SECT":" ","MAREA":" ","LANE":"８８巷","ALLEY":" ","HOUSE_NO":"２６８號","E_COORD97":165904.17000000001,"N_COORD97":2536425.7799999998,"ADDRESS":"灣裡路８８巷２６８號","OBJECTID":316252},"geometry":{"x":165904.16999999993,"y":2536425.7799999993}},{"attributes":{"ID":316261,"DIS_CODE":0,"TOWNNAME":"東區","LI":"大福里","LIN":"7鄰","STREET":"立德一路","SECT":" ","MAREA":" ","LANE":"１巷","ALLEY":" ","HOUSE_NO":"１０號","E_COORD97":169482.98999999999,"N_COORD97":2541753.8799999999,"ADDRESS":"立德一路１巷１０號","OBJECTID":316253},"geometry":{"x":169482.99000000022,"y":2541753.8800000008}},{"attributes":{"ID":316262,"DIS_CODE":0,"TOWNNAME":"東區","LI":"大福里","LIN":"7鄰","STREET":"立德一路","SECT":" ","MAREA":" ","LANE":"１巷","ALLEY":" ","HOUSE_NO":"１１號","E_COORD97":169475.67000000001,"N_COORD97":2541768.9100000001,"ADDRESS":"立德一路１巷１１號","OBJECTID":316254},"geometry":{"x":169475.67000000086,"y":2541768.9100000001}},{"attributes":{"ID":316263,"DIS_CODE":0,"TOWNNAME":"東區","LI":"大福里","LIN":"7鄰","STREET":"立德一路","SECT":" ","MAREA":" ","LANE":"１巷","ALLEY":" ","HOUSE_NO":"１２號","E_COORD97":169478.45999999999,"N_COORD97":2541753.5299999998,"ADDRESS":"立德一路１巷１２號","OBJECTID":316255},"geometry":{"x":169478.46000000089,"y":2541753.5299999993}},{"attributes":{"ID":316264,"DIS_CODE":0,"TOWNNAME":"東區","LI":"大福里","LIN":"7鄰","STREET":"立德一路","SECT":" ","MAREA":" ","LANE":"１巷","ALLEY":" ","HOUSE_NO":"１３號","E_COORD97":169471.13,"N_COORD97":2541769.2599999998,"ADDRESS":"立德一路１巷１３號","OBJECTID":316256},"geometry":{"x":169471.12999999989,"y":2541769.2600000016}},{"attributes":{"ID":316265,"DIS_CODE":0,"TOWNNAME":"東區","LI":"大福里","LIN":"7鄰","STREET":"立德一路","SECT":" ","MAREA":" ","LANE":"１巷","ALLEY":" ","HOUSE_NO":"１４號","E_COORD97":169472.88,"N_COORD97":2541751.79,"ADDRESS":"立德一路１巷１４號","OBJECTID":316257},"geometry":{"x":169472.87999999989,"y":2541751.7899999991}},{"attributes":{"ID":316266,"DIS_CODE":0,"TOWNNAME":"東區","LI":"大福里","LIN":"7鄰","STREET":"立德一路","SECT":" ","MAREA":" ","LANE":"１巷","ALLEY":" ","HOUSE_NO":"１號","E_COORD97":169496.95000000001,"N_COORD97":2541774.8300000001,"ADDRESS":"立德一路１巷１號","OBJECTID":316258},"geometry":{"x":169496.95000000019,"y":2541774.8300000019}},{"attributes":{"ID":316267,"DIS_CODE":0,"TOWNNAME":"東區","LI":"大福里","LIN":"7鄰","STREET":"立德一路","SECT":" ","MAREA":" ","LANE":"１巷","ALLEY":" ","HOUSE_NO":"２號","E_COORD97":169500.07999999999,"N_COORD97":2541757.02,"ADDRESS":"立德一路１巷２號","OBJECTID":316259},"geometry":{"x":169500.08000000101,"y":2541757.0200000014}},{"attributes":{"ID":316268,"DIS_CODE":0,"TOWNNAME":"東區","LI":"大福里","LIN":"7鄰","STREET":"立德一路","SECT":" ","MAREA":" ","LANE":"１巷","ALLEY":" ","HOUSE_NO":"３號","E_COORD97":169492.76000000001,"N_COORD97":2541773.0899999999,"ADDRESS":"立德一路１巷３號","OBJECTID":316260},"geometry":{"x":169492.75999999885,"y":2541773.0900000017}},{"attributes":{"ID":316269,"DIS_CODE":0,"TOWNNAME":"東區","LI":"大福里","LIN":"7鄰","STREET":"立德一路","SECT":" ","MAREA":" ","LANE":"１巷","ALLEY":" ","HOUSE_NO":"４號","E_COORD97":169495.89999999999,"N_COORD97":2541755.2799999998,"ADDRESS":"立德一路１巷４號","OBJECTID":316261},"geometry":{"x":169495.90000000224,"y":2541755.2799999993}},{"attributes":{"ID":316270,"DIS_CODE":0,"TOWNNAME":"東區","LI":"大福里","LIN":"7鄰","STREET":"立德一路","SECT":" ","MAREA":" ","LANE":"１巷","ALLEY":" ","HOUSE_NO":"５號","E_COORD97":169488.57000000001,"N_COORD97":2541772.3900000001,"ADDRESS":"立德一路１巷５號","OBJECTID":316262},"geometry":{"x":169488.57000000123,"y":2541772.3900000025}},{"attributes":{"ID":316271,"DIS_CODE":0,"TOWNNAME":"東區","LI":"大福里","LIN":"7鄰","STREET":"立德一路","SECT":" ","MAREA":" ","LANE":"１巷","ALLEY":" ","HOUSE_NO":"６號","E_COORD97":169491.35999999999,"N_COORD97":2541755.2799999998,"ADDRESS":"立德一路１巷６號","OBJECTID":316263},"geometry":{"x":169491.36000000127,"y":2541755.2799999993}},{"attributes":{"ID":316272,"DIS_CODE":0,"TOWNNAME":"東區","LI":"大福里","LIN":"7鄰","STREET":"立德一路","SECT":" ","MAREA":" ","LANE":"１巷","ALLEY":" ","HOUSE_NO":"７號","E_COORD97":169484.39000000001,"N_COORD97":2541770.6499999999,"ADDRESS":"立德一路１巷７號","OBJECTID":316264},"geometry":{"x":169484.38999999966,"y":2541770.6500000022}},{"attributes":{"ID":316273,"DIS_CODE":0,"TOWNNAME":"東區","LI":"大福里","LIN":"7鄰","STREET":"立德一路","SECT":" ","MAREA":" ","LANE":"１巷","ALLEY":" ","HOUSE_NO":"９號","E_COORD97":169479.85000000001,"N_COORD97":2541771,"ADDRESS":"立德一路１巷９號","OBJECTID":316265},"geometry":{"x":169479.84999999963,"y":2541771.0000000019}},{"attributes":{"ID":316274,"DIS_CODE":0,"TOWNNAME":"東區","LI":"大福里","LIN":"7鄰","STREET":"立德一路","SECT":" ","MAREA":" ","LANE":"２巷","ALLEY":" ","HOUSE_NO":"１０號","E_COORD97":169477.06,"N_COORD97":2541784.9300000002,"ADDRESS":"立德一路２巷１０號","OBJECTID":316266},"geometry":{"x":169477.06000000145,"y":2541784.9300000016}},{"attributes":{"ID":316275,"DIS_CODE":0,"TOWNNAME":"東區","LI":"大福里","LIN":"7鄰","STREET":"立德一路","SECT":" ","MAREA":" ","LANE":"２巷","ALLEY":" ","HOUSE_NO":"１２號","E_COORD97":169471.82999999999,"N_COORD97":2541783.1899999999,"ADDRESS":"立德一路２巷１２號","OBJECTID":316267},"geometry":{"x":169471.83000000007,"y":2541783.1899999995}},{"attributes":{"ID":316276,"DIS_CODE":0,"TOWNNAME":"東區","LI":"大福里","LIN":"7鄰","STREET":"立德一路","SECT":" ","MAREA":" ","LANE":"２巷","ALLEY":" ","HOUSE_NO":"１４號","E_COORD97":169467.64999999999,"N_COORD97":2541783.1899999999,"ADDRESS":"立德一路２巷１４號","OBJECTID":316268},"geometry":{"x":169467.6500000013,"y":2541783.1899999995}},{"attributes":{"ID":316277,"DIS_CODE":0,"TOWNNAME":"東區","LI":"大福里","LIN":"7鄰","STREET":"立德一路","SECT":" ","MAREA":" ","LANE":"２巷","ALLEY":" ","HOUSE_NO":"８號","E_COORD97":169481.60000000001,"N_COORD97":2541785.98,"ADDRESS":"立德一路２巷８號","OBJECTID":316269},"geometry":{"x":169481.59999999963,"y":2541785.9800000004}},{"attributes":{"ID":316278,"DIS_CODE":0,"TOWNNAME":"東區","LI":"後甲里","LIN":"7鄰","STREET":"裕農路","SECT":" ","MAREA":" ","LANE":"６２１巷","ALLEY":" ","HOUSE_NO":"６６號","E_COORD97":171626.57999999999,"N_COORD97":2543425.6200000001,"ADDRESS":"裕農路６２１巷６６號","OBJECTID":316270},"geometry":{"x":171626.58000000007,"y":2543425.6200000029}},{"attributes":{"ID":316279,"DIS_CODE":0,"TOWNNAME":"東區","LI":"後甲里","LIN":"7鄰","STREET":"裕農路","SECT":" ","MAREA":" ","LANE":"６２１巷","ALLEY":" ","HOUSE_NO":"７８號","E_COORD97":171626.85000000001,"N_COORD97":2543488.9900000002,"ADDRESS":"裕農路６２１巷７８號","OBJECTID":316271},"geometry":{"x":171626.85000000056,"y":2543488.9900000039}},{"attributes":{"ID":316280,"DIS_CODE":0,"TOWNNAME":"東區","LI":"後甲里","LIN":"7鄰","STREET":"裕農路","SECT":" ","MAREA":" ","LANE":"６２１巷","ALLEY":" ","HOUSE_NO":"６８號","E_COORD97":171625.60999999999,"N_COORD97":2543433.5699999998,"ADDRESS":"裕農路６２１巷６８號","OBJECTID":316272},"geometry":{"x":171625.61000000127,"y":2543433.5700000003}},{"attributes":{"ID":316281,"DIS_CODE":0,"TOWNNAME":"東區","LI":"後甲里","LIN":"7鄰","STREET":"裕農路","SECT":" ","MAREA":" ","LANE":"６２１巷","ALLEY":" ","HOUSE_NO":"７６號之３","E_COORD97":171616.44,"N_COORD97":2543475.4900000002,"ADDRESS":"裕農路６２１巷７６號之３","OBJECTID":316273},"geometry":{"x":171616.44000000227,"y":2543475.4900000039}},{"attributes":{"ID":316282,"DIS_CODE":0,"TOWNNAME":"大內區","LI":"石城里","LIN":"6鄰","STREET":" ","SECT":" ","MAREA":"石子瀨","LANE":" ","ALLEY":" ","HOUSE_NO":"５６號","E_COORD97":184144.92961200001,"N_COORD97":2558050.1056300001,"ADDRESS":"石子瀨５６號","OBJECTID":316274},"geometry":{"x":184144.92961199954,"y":2558050.1056300029}},{"attributes":{"ID":316283,"DIS_CODE":0,"TOWNNAME":"麻豆區","LI":"龍泉里","LIN":"4鄰","STREET":" ","SECT":" ","MAREA":"溝子墘","LANE":" ","ALLEY":" ","HOUSE_NO":"３５號之１","E_COORD97":174055.48999999999,"N_COORD97":2564092.75,"ADDRESS":"溝子墘３５號之１","OBJECTID":316275},"geometry":{"x":174055.49000000115,"y":2564092.75}},{"attributes":{"ID":316284,"DIS_CODE":0,"TOWNNAME":"玉井區","LI":"望明里","LIN":"11鄰","STREET":" ","SECT":" ","MAREA":"望明","LANE":" ","ALLEY":" ","HOUSE_NO":"１１２之７號","E_COORD97":193301.619859,"N_COORD97":2556151.2604,"ADDRESS":"望明１１２之７號","OBJECTID":316276},"geometry":{"x":193301.61985900067,"y":2556151.2603949998}},{"attributes":{"ID":316285,"DIS_CODE":0,"TOWNNAME":"東區","LI":"大學里","LIN":"7鄰","STREET":"東寧路","SECT":" ","MAREA":" ","LANE":"１５巷","ALLEY":" ","HOUSE_NO":"２４號","E_COORD97":170076.17999999999,"N_COORD97":2543684.6299999999,"ADDRESS":"東寧路１５巷２４號","OBJECTID":316277},"geometry":{"x":170076.1799999997,"y":2543684.6300000008}},{"attributes":{"ID":316286,"DIS_CODE":0,"TOWNNAME":"麻豆區","LI":"龍泉里","LIN":"4鄰","STREET":" ","SECT":" ","MAREA":"溝子墘","LANE":" ","ALLEY":" ","HOUSE_NO":"３５號之２","E_COORD97":174045.82000000001,"N_COORD97":2564102.3100000001,"ADDRESS":"溝子墘３５號之２","OBJECTID":316278},"geometry":{"x":174045.8200000003,"y":2564102.3100000005}},{"attributes":{"ID":316287,"DIS_CODE":0,"TOWNNAME":"麻豆區","LI":"龍泉里","LIN":"4鄰","STREET":" ","SECT":" ","MAREA":"溝子墘","LANE":" ","ALLEY":" ","HOUSE_NO":"３５號","E_COORD97":174063.57000000001,"N_COORD97":2564124.9500000002,"ADDRESS":"溝子墘３５號","OBJECTID":316279},"geometry":{"x":174063.57000000123,"y":2564124.9499999993}},{"attributes":{"ID":316288,"DIS_CODE":0,"TOWNNAME":"麻豆區","LI":"龍泉里","LIN":"4鄰","STREET":" ","SECT":" ","MAREA":"溝子墘","LANE":" ","ALLEY":" ","HOUSE_NO":"３６號之２","E_COORD97":174078.92999999999,"N_COORD97":2564160.1899999999,"ADDRESS":"溝子墘３６號之２","OBJECTID":316280},"geometry":{"x":174078.93000000156,"y":2564160.1899999995}},{"attributes":{"ID":316289,"DIS_CODE":0,"TOWNNAME":"麻豆區","LI":"龍泉里","LIN":"4鄰","STREET":" ","SECT":" ","MAREA":"溝子墘","LANE":" ","ALLEY":" ","HOUSE_NO":"３７號之１","E_COORD97":174096.34,"N_COORD97":2564135.9900000002,"ADDRESS":"溝子墘３７號之１","OBJECTID":316281},"geometry":{"x":174096.33999999985,"y":2564135.9900000002}},{"attributes":{"ID":316290,"DIS_CODE":0,"TOWNNAME":"麻豆區","LI":"龍泉里","LIN":"4鄰","STREET":" ","SECT":" ","MAREA":"溝子墘","LANE":" ","ALLEY":" ","HOUSE_NO":"３７號","E_COORD97":174087.48000000001,"N_COORD97":2564150.7000000002,"ADDRESS":"溝子墘３７號","OBJECTID":316282},"geometry":{"x":174087.48000000045,"y":2564150.700000003}},{"attributes":{"ID":316291,"DIS_CODE":0,"TOWNNAME":"麻豆區","LI":"龍泉里","LIN":"4鄰","STREET":" ","SECT":" ","MAREA":"溝子墘","LANE":" ","ALLEY":" ","HOUSE_NO":"３９號","E_COORD97":174072.20000000001,"N_COORD97":2564107.6299999999,"ADDRESS":"溝子墘３９號","OBJECTID":316283},"geometry":{"x":174072.20000000019,"y":2564107.6300000008}},{"attributes":{"ID":316292,"DIS_CODE":0,"TOWNNAME":"麻豆區","LI":"龍泉里","LIN":"4鄰","STREET":" ","SECT":" ","MAREA":"溝子墘","LANE":" ","ALLEY":" ","HOUSE_NO":"４０號之１","E_COORD97":174110.23000000001,"N_COORD97":2564138.9500000002,"ADDRESS":"溝子墘４０號之１","OBJECTID":316284},"geometry":{"x":174110.23000000138,"y":2564138.950000003}},{"attributes":{"ID":316293,"DIS_CODE":0,"TOWNNAME":"麻豆區","LI":"龍泉里","LIN":"4鄰","STREET":" ","SECT":" ","MAREA":"溝子墘","LANE":" ","ALLEY":" ","HOUSE_NO":"４０號之２","E_COORD97":174109.45999999999,"N_COORD97":2564114.5600000001,"ADDRESS":"溝子墘４０號之２","OBJECTID":316285},"geometry":{"x":174109.46000000183,"y":2564114.5600000005}},{"attributes":{"ID":316294,"DIS_CODE":0,"TOWNNAME":"麻豆區","LI":"龍泉里","LIN":"4鄰","STREET":" ","SECT":" ","MAREA":"溝子墘","LANE":" ","ALLEY":" ","HOUSE_NO":"４０號","E_COORD97":174083.23000000001,"N_COORD97":2564095.5099999998,"ADDRESS":"溝子墘４０號","OBJECTID":316286},"geometry":{"x":174083.23000000138,"y":2564095.5100000016}},{"attributes":{"ID":316295,"DIS_CODE":0,"TOWNNAME":"大內區","LI":"石城里","LIN":"7鄰","STREET":" ","SECT":" ","MAREA":"石子瀨","LANE":" ","ALLEY":" ","HOUSE_NO":"６５號之１","E_COORD97":184190.26481399999,"N_COORD97":2557958.24235,"ADDRESS":"石子瀨６５號之１","OBJECTID":316287},"geometry":{"x":184190.26481400058,"y":2557958.2423460018}},{"attributes":{"ID":316296,"DIS_CODE":0,"TOWNNAME":"麻豆區","LI":"龍泉里","LIN":"4鄰","STREET":" ","SECT":" ","MAREA":"溝子墘","LANE":" ","ALLEY":" ","HOUSE_NO":"４１號之１２","E_COORD97":174142.20999999999,"N_COORD97":2564104.3100000001,"ADDRESS":"溝子墘４１號之１２","OBJECTID":316288},"geometry":{"x":174142.21000000089,"y":2564104.3100000024}},{"attributes":{"ID":316297,"DIS_CODE":0,"TOWNNAME":"麻豆區","LI":"龍泉里","LIN":"4鄰","STREET":" ","SECT":" ","MAREA":"溝子墘","LANE":" ","ALLEY":" ","HOUSE_NO":"４１號之１","E_COORD97":174129.98999999999,"N_COORD97":2564085.1099999999,"ADDRESS":"溝子墘４１號之１","OBJECTID":316289},"geometry":{"x":174129.99000000115,"y":2564085.1100000013}},{"attributes":{"ID":316298,"DIS_CODE":0,"TOWNNAME":"佳里區","LI":"安西里","LIN":"1鄰","STREET":"中山路","SECT":" ","MAREA":" ","LANE":" ","ALLEY":" ","HOUSE_NO":"３６９號","E_COORD97":165703.60000000001,"N_COORD97":2562622.9199999999,"ADDRESS":"中山路３６９號","OBJECTID":316290},"geometry":{"x":165703.60000000056,"y":2562622.9199999999}},{"attributes":{"ID":316299,"DIS_CODE":0,"TOWNNAME":"歸仁區","LI":"六甲里","LIN":"25鄰","STREET":"中正南路","SECT":"一段","MAREA":" ","LANE":"９３０巷","ALLEY":" ","HOUSE_NO":"３０號","E_COORD97":176167.95999999999,"N_COORD97":2539441.48,"ADDRESS":"中正南路一段９３０巷３０號","OBJECTID":316291},"geometry":{"x":176167.96000000089,"y":2539441.4800000023}},{"attributes":{"ID":316300,"DIS_CODE":0,"TOWNNAME":"歸仁區","LI":"辜厝里","LIN":"32鄰","STREET":"中正南路","SECT":"一段","MAREA":" ","LANE":"２１６巷","ALLEY":" ","HOUSE_NO":"３８號","E_COORD97":177352.51000000001,"N_COORD97":2540430.9500000002,"ADDRESS":"中正南路一段２１６巷３８號","OBJECTID":316292},"geometry":{"x":177352.51000000071,"y":2540430.9500000011}},{"attributes":{"ID":316301,"DIS_CODE":0,"TOWNNAME":"歸仁區","LI":"後市里","LIN":"39鄰","STREET":"文化街","SECT":"二段","MAREA":" ","LANE":"６３巷","ALLEY":" ","HOUSE_NO":"１６號","E_COORD97":177307.84,"N_COORD97":2541097.7599999998,"ADDRESS":"文化街二段６３巷１６號","OBJECTID":316293},"geometry":{"x":177307.84000000078,"y":2541097.7600000016}},{"attributes":{"ID":316302,"DIS_CODE":0,"TOWNNAME":"東區","LI":"大學里","LIN":"7鄰","STREET":"東寧路","SECT":" ","MAREA":" ","LANE":"１５巷","ALLEY":" ","HOUSE_NO":"３０號","E_COORD97":170047.45000000001,"N_COORD97":2543712.1099999999,"ADDRESS":"東寧路１５巷３０號","OBJECTID":316294},"geometry":{"x":170047.45000000019,"y":2543712.1100000013}},{"attributes":{"ID":316303,"DIS_CODE":0,"TOWNNAME":"東區","LI":"大學里","LIN":"7鄰","STREET":"東寧路","SECT":" ","MAREA":" ","LANE":"１５巷","ALLEY":" ","HOUSE_NO":"３２號","E_COORD97":170061.78,"N_COORD97":2543711.0699999998,"ADDRESS":"東寧路１５巷３２號","OBJECTID":316295},"geometry":{"x":170061.78000000119,"y":2543711.0700000003}},{"attributes":{"ID":316304,"DIS_CODE":0,"TOWNNAME":"北區","LI":"和順里","LIN":"17鄰","STREET":"海安路","SECT":"三段","MAREA":" ","LANE":" ","ALLEY":" ","HOUSE_NO":"１５４號","E_COORD97":168020.31,"N_COORD97":2545044.1899999999,"ADDRESS":"海安路三段１５４號","OBJECTID":316296},"geometry":{"x":168020.30999999959,"y":2545044.1900000013}},{"attributes":{"ID":316305,"DIS_CODE":0,"TOWNNAME":"北區","LI":"和順里","LIN":"17鄰","STREET":"海安路","SECT":"三段","MAREA":" ","LANE":" ","ALLEY":" ","HOUSE_NO":"１５６號","E_COORD97":168019.63,"N_COORD97":2545048.0299999998,"ADDRESS":"海安路三段１５６號","OBJECTID":316297},"geometry":{"x":168019.63000000082,"y":2545048.0300000012}},{"attributes":{"ID":316306,"DIS_CODE":0,"TOWNNAME":"北區","LI":"和順里","LIN":"17鄰","STREET":"海安路","SECT":"三段","MAREA":" ","LANE":" ","ALLEY":" ","HOUSE_NO":"１５８號","E_COORD97":168020.01999999999,"N_COORD97":2545052.5699999998,"ADDRESS":"海安路三段１５８號","OBJECTID":316298},"geometry":{"x":168020.02000000048,"y":2545052.5700000022}},{"attributes":{"ID":316307,"DIS_CODE":0,"TOWNNAME":"歸仁區","LI":"南興里","LIN":"13鄰","STREET":"文化十八街","SECT":" ","MAREA":" ","LANE":"１８巷","ALLEY":" ","HOUSE_NO":"１５號","E_COORD97":175901.94,"N_COORD97":2541278.3300000001,"ADDRESS":"文化十八街１８巷１５號","OBJECTID":316299},"geometry":{"x":175901.94000000227,"y":2541278.3300000001}},{"attributes":{"ID":316308,"DIS_CODE":0,"TOWNNAME":"歸仁區","LI":"後市里","LIN":"38鄰","STREET":"中山八街","SECT":" ","MAREA":" ","LANE":"４６巷","ALLEY":" ","HOUSE_NO":"５號","E_COORD97":177240.32999999999,"N_COORD97":2541019.7400000002,"ADDRESS":"中山八街４６巷５號","OBJECTID":316300},"geometry":{"x":177240.33000000101,"y":2541019.7400000021}},{"attributes":{"ID":316309,"DIS_CODE":0,"TOWNNAME":"歸仁區","LI":"南保里","LIN":"32鄰","STREET":"民權八街","SECT":" ","MAREA":" ","LANE":"４０巷","ALLEY":" ","HOUSE_NO":"１號","E_COORD97":176854.79000000001,"N_COORD97":2541007.29,"ADDRESS":"民權八街４０巷１號","OBJECTID":316301},"geometry":{"x":176854.79000000004,"y":2541007.2900000028}},{"attributes":{"ID":316310,"DIS_CODE":0,"TOWNNAME":"歸仁區","LI":"南保里","LIN":"4鄰","STREET":"文化六街","SECT":" ","MAREA":" ","LANE":"１０巷","ALLEY":" ","HOUSE_NO":"７號","E_COORD97":176836.73999999999,"N_COORD97":2541301.3300000001,"ADDRESS":"文化六街１０巷７號","OBJECTID":316302},"geometry":{"x":176836.74000000022,"y":2541301.3300000001}},{"attributes":{"ID":316311,"DIS_CODE":0,"TOWNNAME":"東區","LI":"大學里","LIN":"7鄰","STREET":"東寧路","SECT":" ","MAREA":" ","LANE":"１５巷","ALLEY":" ","HOUSE_NO":"３４號","E_COORD97":170076.41,"N_COORD97":2543709.75,"ADDRESS":"東寧路１５巷３４號","OBJECTID":316303},"geometry":{"x":170076.41000000015,"y":2543709.75}},{"attributes":{"ID":316312,"DIS_CODE":0,"TOWNNAME":"東區","LI":"大學里","LIN":"7鄰","STREET":"東寧路","SECT":" ","MAREA":" ","LANE":"１５巷","ALLEY":" ","HOUSE_NO":"３６號","E_COORD97":170092.07000000001,"N_COORD97":2543708.7799999998,"ADDRESS":"東寧路１５巷３６號","OBJECTID":316304},"geometry":{"x":170092.07000000123,"y":2543708.7799999993}},{"attributes":{"ID":316313,"DIS_CODE":0,"TOWNNAME":"東區","LI":"大學里","LIN":"7鄰","STREET":"東寧路","SECT":" ","MAREA":" ","LANE":"１５巷","ALLEY":" ","HOUSE_NO":"４０號","E_COORD97":170114.60999999999,"N_COORD97":2543709.0600000001,"ADDRESS":"東寧路１５巷４０號","OBJECTID":316305},"geometry":{"x":170114.61000000034,"y":2543709.0600000042}},{"attributes":{"ID":316314,"DIS_CODE":0,"TOWNNAME":"北區","LI":"和順里","LIN":"17鄰","STREET":"海安路","SECT":"三段","MAREA":" ","LANE":" ","ALLEY":" ","HOUSE_NO":"１６０號","E_COORD97":168020.14999999999,"N_COORD97":2545057.1400000001,"ADDRESS":"海安路三段１６０號","OBJECTID":316306},"geometry":{"x":168020.1500000013,"y":2545057.1400000006}},{"attributes":{"ID":316315,"DIS_CODE":0,"TOWNNAME":"北區","LI":"和順里","LIN":"17鄰","STREET":"海安路","SECT":"三段","MAREA":" ","LANE":" ","ALLEY":" ","HOUSE_NO":"１６２號","E_COORD97":168019.92000000001,"N_COORD97":2545060.7599999998,"ADDRESS":"海安路三段１６２號","OBJECTID":316307},"geometry":{"x":168019.91999999993,"y":2545060.7600000016}},{"attributes":{"ID":316316,"DIS_CODE":0,"TOWNNAME":"北區","LI":"和順里","LIN":"17鄰","STREET":"海安路","SECT":"三段","MAREA":" ","LANE":" ","ALLEY":" ","HOUSE_NO":"１６４號","E_COORD97":168020.37,"N_COORD97":2545065.7200000002,"ADDRESS":"海安路三段１６４號","OBJECTID":316308},"geometry":{"x":168020.37000000011,"y":2545065.7200000025}},{"attributes":{"ID":316317,"DIS_CODE":0,"TOWNNAME":"歸仁區","LI":"南保里","LIN":"41鄰","STREET":"保興街","SECT":" ","MAREA":" ","LANE":" ","ALLEY":" ","HOUSE_NO":"２６號","E_COORD97":176507.72,"N_COORD97":2541028.25,"ADDRESS":"保興街２６號","OBJECTID":316309},"geometry":{"x":176507.71999999881,"y":2541028.25}},{"attributes":{"ID":316318,"DIS_CODE":0,"TOWNNAME":"歸仁區","LI":"南保里","LIN":"59鄰","STREET":"中山路","SECT":"三段","MAREA":" ","LANE":"８１巷","ALLEY":" ","HOUSE_NO":"１３號","E_COORD97":176795.85999999999,"N_COORD97":2540834.2799999998,"ADDRESS":"中山路三段８１巷１３號","OBJECTID":316310},"geometry":{"x":176795.86000000127,"y":2540834.2799999993}},{"attributes":{"ID":316319,"DIS_CODE":0,"TOWNNAME":"歸仁區","LI":"南興里","LIN":"38鄰","STREET":"中山路","SECT":"三段","MAREA":" ","LANE":"４３６巷","ALLEY":" ","HOUSE_NO":"４１號","E_COORD97":175942.20999999999,"N_COORD97":2541100.2799999998,"ADDRESS":"中山路三段４３６巷４１號","OBJECTID":316311},"geometry":{"x":175942.21000000089,"y":2541100.2800000012}},{"attributes":{"ID":316320,"DIS_CODE":0,"TOWNNAME":"東區","LI":"大學里","LIN":"7鄰","STREET":"東寧路","SECT":" ","MAREA":" ","LANE":"１５巷","ALLEY":" ","HOUSE_NO":"４６號","E_COORD97":170142.64999999999,"N_COORD97":2543708.2999999998,"ADDRESS":"東寧路１５巷４６號","OBJECTID":316312},"geometry":{"x":170142.6500000013,"y":2543708.3000000026}},{"attributes":{"ID":316321,"DIS_CODE":0,"TOWNNAME":"玉井區","LI":"望明里","LIN":"11鄰","STREET":" ","SECT":" ","MAREA":"望明","LANE":" ","ALLEY":" ","HOUSE_NO":"１１８之３號","E_COORD97":193189.55807500001,"N_COORD97":2556210.7387000001,"ADDRESS":"望明１１８之３號","OBJECTID":316313},"geometry":{"x":193189.5580749996,"y":2556210.7386960015}},{"attributes":{"ID":316322,"DIS_CODE":0,"TOWNNAME":"東區","LI":"大學里","LIN":"7鄰","STREET":"東寧路","SECT":" ","MAREA":" ","LANE":"１５巷","ALLEY":" ","HOUSE_NO":"４８號","E_COORD97":170158.17000000001,"N_COORD97":2543707.75,"ADDRESS":"東寧路１５巷４８號","OBJECTID":316314},"geometry":{"x":170158.17000000179,"y":2543707.7500000019}},{"attributes":{"ID":316323,"DIS_CODE":0,"TOWNNAME":"東區","LI":"大學里","LIN":"7鄰","STREET":"東寧路","SECT":" ","MAREA":" ","LANE":"１５巷","ALLEY":" ","HOUSE_NO":"５０號","E_COORD97":170168.67000000001,"N_COORD97":2543706.9199999999,"ADDRESS":"東寧路１５巷５０號","OBJECTID":316315},"geometry":{"x":170168.67000000086,"y":2543706.9200000018}},{"attributes":{"ID":316324,"DIS_CODE":0,"TOWNNAME":"東區","LI":"大學里","LIN":"7鄰","STREET":"東寧路","SECT":" ","MAREA":" ","LANE":"１５巷","ALLEY":" ","HOUSE_NO":"５２號","E_COORD97":170169.35999999999,"N_COORD97":2543728.8999999999,"ADDRESS":"東寧路１５巷５２號","OBJECTID":316316},"geometry":{"x":170169.36000000127,"y":2543728.9000000004}},{"attributes":{"ID":316325,"DIS_CODE":0,"TOWNNAME":"永康區","LI":"中興里","LIN":"17鄰","STREET":"中華路","SECT":" ","MAREA":" ","LANE":" ","ALLEY":" ","HOUSE_NO":"２４０號七樓","E_COORD97":171639.39999999999,"N_COORD97":2545114.5,"ADDRESS":"中華路２４０號七樓","OBJECTID":316317},"geometry":{"x":171639.4000000013,"y":2545114.5}},{"attributes":{"ID":316326,"DIS_CODE":0,"TOWNNAME":"善化區","LI":"坐駕里","LIN":"17鄰","STREET":"文化路","SECT":" ","MAREA":" ","LANE":" ","ALLEY":" ","HOUSE_NO":"６號六樓之３","E_COORD97":177970.09,"N_COORD97":2558361.29,"ADDRESS":"文化路６號六樓之３","OBJECTID":316318},"geometry":{"x":177970.09000000171,"y":2558361.2899999991}},{"attributes":{"ID":316327,"DIS_CODE":0,"TOWNNAME":"歸仁區","LI":"媽廟里","LIN":"25鄰","STREET":"保大路","SECT":"一段","MAREA":" ","LANE":"１１７巷","ALLEY":" ","HOUSE_NO":"１２號","E_COORD97":177804.98000000001,"N_COORD97":2543992.7200000002,"ADDRESS":"保大路一段１１７巷１２號","OBJECTID":316319},"geometry":{"x":177804.98000000045,"y":2543992.7199999988}},{"attributes":{"ID":316328,"DIS_CODE":0,"TOWNNAME":"歸仁區","LI":"媽廟里","LIN":"4鄰","STREET":"和順路","SECT":"一段","MAREA":" ","LANE":"６３巷","ALLEY":" ","HOUSE_NO":"３１號","E_COORD97":177373.51999999999,"N_COORD97":2543651.7200000002,"ADDRESS":"和順路一段６３巷３１號","OBJECTID":316320},"geometry":{"x":177373.52000000142,"y":2543651.7200000025}},{"attributes":{"ID":316329,"DIS_CODE":0,"TOWNNAME":"歸仁區","LI":"媽廟里","LIN":"4鄰","STREET":"和順路","SECT":"一段","MAREA":" ","LANE":"１１巷","ALLEY":" ","HOUSE_NO":"２２號","E_COORD97":177490.32000000001,"N_COORD97":2543641.7200000002,"ADDRESS":"和順路一段１１巷２２號","OBJECTID":316321},"geometry":{"x":177490.3200000003,"y":2543641.7200000025}},{"attributes":{"ID":316330,"DIS_CODE":0,"TOWNNAME":"歸仁區","LI":"歸南里","LIN":"26鄰","STREET":"民生十街","SECT":" ","MAREA":" ","LANE":"５０巷","ALLEY":" ","HOUSE_NO":"５０９號","E_COORD97":175620.10999999999,"N_COORD97":2540621.25,"ADDRESS":"民生十街５０巷５０９號","OBJECTID":316322},"geometry":{"x":175620.11000000034,"y":2540621.25}},{"attributes":{"ID":316331,"DIS_CODE":0,"TOWNNAME":"歸仁區","LI":"新厝里","LIN":"17鄰","STREET":"中正南路","SECT":"一段","MAREA":" ","LANE":"１５３巷","ALLEY":" ","HOUSE_NO":"１號","E_COORD97":177476.51999999999,"N_COORD97":2540403.3999999999,"ADDRESS":"中正南路一段１５３巷１號","OBJECTID":316323},"geometry":{"x":177476.51999999955,"y":2540403.4000000004}},{"attributes":{"ID":316332,"DIS_CODE":0,"TOWNNAME":"歸仁區","LI":"新厝里","LIN":"13鄰","STREET":"中正南路","SECT":"一段","MAREA":" ","LANE":"８５巷","ALLEY":" ","HOUSE_NO":"１２號","E_COORD97":177601.35000000001,"N_COORD97":2540503.5899999999,"ADDRESS":"中正南路一段８５巷１２號","OBJECTID":316324},"geometry":{"x":177601.34999999963,"y":2540503.5899999999}},{"attributes":{"ID":316333,"DIS_CODE":0,"TOWNNAME":"東區","LI":"大學里","LIN":"7鄰","STREET":"東寧路","SECT":" ","MAREA":" ","LANE":"１５巷","ALLEY":" ","HOUSE_NO":"５４號","E_COORD97":170155.10999999999,"N_COORD97":2543728.8999999999,"ADDRESS":"東寧路１５巷５４號","OBJECTID":316325},"geometry":{"x":170155.11000000034,"y":2543728.9000000004}},{"attributes":{"ID":316334,"DIS_CODE":0,"TOWNNAME":"東區","LI":"大學里","LIN":"7鄰","STREET":"東寧路","SECT":" ","MAREA":" ","LANE":"１５巷","ALLEY":" ","HOUSE_NO":"６２號","E_COORD97":170105.82000000001,"N_COORD97":2543733.7000000002,"ADDRESS":"東寧路１５巷６２號","OBJECTID":316326},"geometry":{"x":170105.82000000123,"y":2543733.6999999974}},{"attributes":{"ID":316335,"DIS_CODE":0,"TOWNNAME":"東區","LI":"大學里","LIN":"7鄰","STREET":"東寧路","SECT":" ","MAREA":" ","LANE":"１５巷","ALLEY":" ","HOUSE_NO":"６４號","E_COORD97":170089.79999999999,"N_COORD97":2543735.52,"ADDRESS":"東寧路１５巷６４號","OBJECTID":316327},"geometry":{"x":170089.80000000075,"y":2543735.5200000033}},{"attributes":{"ID":316336,"DIS_CODE":0,"TOWNNAME":"東區","LI":"大學里","LIN":"7鄰","STREET":"東寧路","SECT":" ","MAREA":" ","LANE":"１５巷","ALLEY":" ","HOUSE_NO":"６６號","E_COORD97":170080.62,"N_COORD97":2543735.8700000001,"ADDRESS":"東寧路１５巷６６號","OBJECTID":316328},"geometry":{"x":170080.61999999918,"y":2543735.8700000029}},{"attributes":{"ID":316337,"DIS_CODE":0,"TOWNNAME":"東區","LI":"大學里","LIN":"7鄰","STREET":"東寧路","SECT":" ","MAREA":" ","LANE":"１５巷","ALLEY":" ","HOUSE_NO":"６８號","E_COORD97":170063.70999999999,"N_COORD97":2543740.1099999999,"ADDRESS":"東寧路１５巷６８號","OBJECTID":316329},"geometry":{"x":170063.71000000089,"y":2543740.1099999994}},{"attributes":{"ID":316338,"DIS_CODE":0,"TOWNNAME":"善化區","LI":"坐駕里","LIN":"17鄰","STREET":"文化路","SECT":" ","MAREA":" ","LANE":" ","ALLEY":" ","HOUSE_NO":"６號六樓之５","E_COORD97":177970.09,"N_COORD97":2558361.29,"ADDRESS":"文化路６號六樓之５","OBJECTID":316330},"geometry":{"x":177970.09000000171,"y":2558361.2899999991}},{"attributes":{"ID":316339,"DIS_CODE":0,"TOWNNAME":"善化區","LI":"坐駕里","LIN":"17鄰","STREET":"文化路","SECT":" ","MAREA":" ","LANE":" ","ALLEY":" ","HOUSE_NO":"６號七樓之１","E_COORD97":177970.09,"N_COORD97":2558361.29,"ADDRESS":"文化路６號七樓之１","OBJECTID":316331},"geometry":{"x":177970.09000000171,"y":2558361.2899999991}},{"attributes":{"ID":316340,"DIS_CODE":0,"TOWNNAME":"善化區","LI":"坐駕里","LIN":"17鄰","STREET":"文化路","SECT":" ","MAREA":" ","LANE":" ","ALLEY":" ","HOUSE_NO":"６號七樓之２","E_COORD97":177970.09,"N_COORD97":2558361.29,"ADDRESS":"文化路６號七樓之２","OBJECTID":316332},"geometry":{"x":177970.09000000171,"y":2558361.2899999991}},{"attributes":{"ID":316341,"DIS_CODE":0,"TOWNNAME":"永康區","LI":"中興里","LIN":"17鄰","STREET":"中華路","SECT":" ","MAREA":" ","LANE":" ","ALLEY":" ","HOUSE_NO":"２４０號三樓","E_COORD97":171639.39999999999,"N_COORD97":2545114.5,"ADDRESS":"中華路２４０號三樓","OBJECTID":316333},"geometry":{"x":171639.4000000013,"y":2545114.5}},{"attributes":{"ID":316342,"DIS_CODE":0,"TOWNNAME":"善化區","LI":"坐駕里","LIN":"17鄰","STREET":"文化路","SECT":" ","MAREA":" ","LANE":" ","ALLEY":" ","HOUSE_NO":"６號二樓之３","E_COORD97":177970.09,"N_COORD97":2558361.29,"ADDRESS":"文化路６號二樓之３","OBJECTID":316334},"geometry":{"x":177970.09000000171,"y":2558361.2899999991}},{"attributes":{"ID":316343,"DIS_CODE":0,"TOWNNAME":"北區","LI":"六甲里","LIN":"13鄰","STREET":"和緯路","SECT":"二段","MAREA":" ","LANE":" ","ALLEY":" ","HOUSE_NO":"１５號","E_COORD97":169035.44,"N_COORD97":2545692.73,"ADDRESS":"和緯路二段１５號","OBJECTID":316335},"geometry":{"x":169035.44000000134,"y":2545692.7300000023}},{"attributes":{"ID":316344,"DIS_CODE":0,"TOWNNAME":"善化區","LI":"坐駕里","LIN":"17鄰","STREET":"文化路","SECT":" ","MAREA":" ","LANE":" ","ALLEY":" ","HOUSE_NO":"６號八樓之５","E_COORD97":177970.09,"N_COORD97":2558361.29,"ADDRESS":"文化路６號八樓之５","OBJECTID":316336},"geometry":{"x":177970.09000000171,"y":2558361.2899999991}},{"attributes":{"ID":316345,"DIS_CODE":0,"TOWNNAME":"歸仁區","LI":"媽廟里","LIN":"4鄰","STREET":"和順路","SECT":"一段","MAREA":" ","LANE":"１１巷","ALLEY":" ","HOUSE_NO":"１０２號","E_COORD97":177444.26999999999,"N_COORD97":2543615.7200000002,"ADDRESS":"和順路一段１１巷１０２號","OBJECTID":316337},"geometry":{"x":177444.26999999955,"y":2543615.7200000007}},{"attributes":{"ID":316346,"DIS_CODE":0,"TOWNNAME":"歸仁區","LI":"媽廟里","LIN":"4鄰","STREET":"和順路","SECT":"一段","MAREA":" ","LANE":"１１巷","ALLEY":" ","HOUSE_NO":"１４號","E_COORD97":177507.72,"N_COORD97":2543636.7200000002,"ADDRESS":"和順路一段１１巷１４號","OBJECTID":316338},"geometry":{"x":177507.71999999974,"y":2543636.7199999988}},{"attributes":{"ID":316347,"DIS_CODE":0,"TOWNNAME":"歸仁區","LI":"歸南里","LIN":"20鄰","STREET":"民生八街","SECT":" ","MAREA":" ","LANE":"２８巷","ALLEY":" ","HOUSE_NO":"３號","E_COORD97":176111.70999999999,"N_COORD97":2540390.25,"ADDRESS":"民生八街２８巷３號","OBJECTID":316339},"geometry":{"x":176111.71000000089,"y":2540390.25}},{"attributes":{"ID":316348,"DIS_CODE":0,"TOWNNAME":"東區","LI":"大學里","LIN":"7鄰","STREET":"東寧路","SECT":" ","MAREA":" ","LANE":"１５巷","ALLEY":" ","HOUSE_NO":"７０號","E_COORD97":170048.89999999999,"N_COORD97":2543739.21,"ADDRESS":"東寧路１５巷７０號","OBJECTID":316340},"geometry":{"x":170048.9000000013,"y":2543739.2100000046}},{"attributes":{"ID":316349,"DIS_CODE":0,"TOWNNAME":"東區","LI":"忠孝里","LIN":"7鄰","STREET":"榮譽街","SECT":" ","MAREA":" ","LANE":"８４巷","ALLEY":" ","HOUSE_NO":"１０３號","E_COORD97":169837.79999999999,"N_COORD97":2541615.3799999999,"ADDRESS":"榮譽街８４巷１０３號","OBJECTID":316341},"geometry":{"x":169837.79999999981,"y":2541615.379999999}},{"attributes":{"ID":316350,"DIS_CODE":0,"TOWNNAME":"東區","LI":"忠孝里","LIN":"7鄰","STREET":"榮譽街","SECT":" ","MAREA":" ","LANE":"８４巷","ALLEY":" ","HOUSE_NO":"８５號","E_COORD97":169799.84,"N_COORD97":2541619.2400000002,"ADDRESS":"榮譽街８４巷８５號","OBJECTID":316342},"geometry":{"x":169799.84000000078,"y":2541619.2400000039}},{"attributes":{"ID":316351,"DIS_CODE":0,"TOWNNAME":"東區","LI":"忠孝里","LIN":"7鄰","STREET":"榮譽街","SECT":" ","MAREA":" ","LANE":"８４巷","ALLEY":" ","HOUSE_NO":"９３號","E_COORD97":169863.01999999999,"N_COORD97":2541651.7599999998,"ADDRESS":"榮譽街８４巷９３號","OBJECTID":316343},"geometry":{"x":169863.01999999955,"y":2541651.7599999998}},{"attributes":{"ID":316352,"DIS_CODE":0,"TOWNNAME":"東區","LI":"忠孝里","LIN":"7鄰","STREET":"榮譽街","SECT":" ","MAREA":" ","LANE":"８４巷","ALLEY":" ","HOUSE_NO":"９７號","E_COORD97":169871.69,"N_COORD97":2541635.0800000001,"ADDRESS":"榮譽街８４巷９７號","OBJECTID":316344},"geometry":{"x":169871.69000000041,"y":2541635.0800000019}},{"attributes":{"ID":316353,"DIS_CODE":0,"TOWNNAME":"東區","LI":"大學里","LIN":"7鄰","STREET":"東寧路","SECT":" ","MAREA":" ","LANE":"１５巷","ALLEY":" ","HOUSE_NO":"６０號","E_COORD97":170117.57000000001,"N_COORD97":2543733.0800000001,"ADDRESS":"東寧路１５巷６０號","OBJECTID":316345},"geometry":{"x":170117.57000000123,"y":2543733.0800000019}},{"attributes":{"ID":316354,"DIS_CODE":0,"TOWNNAME":"東區","LI":"大學里","LIN":"7鄰","STREET":"東寧路","SECT":" ","MAREA":" ","LANE":"１５巷","ALLEY":" ","HOUSE_NO":"３８號","E_COORD97":170104.39000000001,"N_COORD97":2543709.48,"ADDRESS":"東寧路１５巷３８號","OBJECTID":316346},"geometry":{"x":170104.3900000006,"y":2543709.4800000042}},{"attributes":{"ID":316355,"DIS_CODE":0,"TOWNNAME":"東區","LI":"大學里","LIN":"7鄰","STREET":"東寧路","SECT":" ","MAREA":" ","LANE":"１５巷","ALLEY":" ","HOUSE_NO":"４２號","E_COORD97":170131.25,"N_COORD97":2543709.0699999998,"ADDRESS":"東寧路１５巷４２號","OBJECTID":316347},"geometry":{"x":170131.25000000093,"y":2543709.0700000022}},{"attributes":{"ID":316356,"DIS_CODE":0,"TOWNNAME":"東區","LI":"後甲里","LIN":"7鄰","STREET":"裕農路","SECT":" ","MAREA":" ","LANE":"６２１巷","ALLEY":" ","HOUSE_NO":"７４號","E_COORD97":171619.82000000001,"N_COORD97":2543447.2999999998,"ADDRESS":"裕農路６２１巷７４號","OBJECTID":316348},"geometry":{"x":171619.8200000003,"y":2543447.3000000026}},{"attributes":{"ID":316357,"DIS_CODE":0,"TOWNNAME":"東區","LI":"後甲里","LIN":"7鄰","STREET":"裕農路","SECT":" ","MAREA":" ","LANE":"６２１巷","ALLEY":" ","HOUSE_NO":"７４號之１","E_COORD97":171624.89000000001,"N_COORD97":2543448.5099999998,"ADDRESS":"裕農路６２１巷７４號之１","OBJECTID":316349},"geometry":{"x":171624.8900000006,"y":2543448.5100000016}},{"attributes":{"ID":316358,"DIS_CODE":0,"TOWNNAME":"善化區","LI":"坐駕里","LIN":"17鄰","STREET":"文化路","SECT":" ","MAREA":" ","LANE":" ","ALLEY":" ","HOUSE_NO":"６號九樓之１","E_COORD97":177970.09,"N_COORD97":2558361.29,"ADDRESS":"文化路６號九樓之１","OBJECTID":316350},"geometry":{"x":177970.09000000171,"y":2558361.2899999991}},{"attributes":{"ID":316359,"DIS_CODE":0,"TOWNNAME":"善化區","LI":"坐駕里","LIN":"17鄰","STREET":"文化路","SECT":" ","MAREA":" ","LANE":" ","ALLEY":" ","HOUSE_NO":"６號九樓之２","E_COORD97":177970.09,"N_COORD97":2558361.29,"ADDRESS":"文化路６號九樓之２","OBJECTID":316351},"geometry":{"x":177970.09000000171,"y":2558361.2899999991}},{"attributes":{"ID":316360,"DIS_CODE":0,"TOWNNAME":"善化區","LI":"坐駕里","LIN":"17鄰","STREET":"文化路","SECT":" ","MAREA":" ","LANE":" ","ALLEY":" ","HOUSE_NO":"６號九樓之３","E_COORD97":177970.09,"N_COORD97":2558361.29,"ADDRESS":"文化路６號九樓之３","OBJECTID":316352},"geometry":{"x":177970.09000000171,"y":2558361.2899999991}},{"attributes":{"ID":316361,"DIS_CODE":0,"TOWNNAME":"歸仁區","LI":"歸南里","LIN":"13鄰","STREET":"民生南街","SECT":"二段","MAREA":" ","LANE":"２７７巷","ALLEY":" ","HOUSE_NO":"１號","E_COORD97":176105.35999999999,"N_COORD97":2539984.25,"ADDRESS":"民生南街二段２７７巷１號","OBJECTID":316353},"geometry":{"x":176105.36000000034,"y":2539984.25}},{"attributes":{"ID":316362,"DIS_CODE":0,"TOWNNAME":"歸仁區","LI":"新厝里","LIN":"18鄰","STREET":"中正南路","SECT":"一段","MAREA":" ","LANE":"１５３巷","ALLEY":" ","HOUSE_NO":"１４號","E_COORD97":177472.51000000001,"N_COORD97":2540379.25,"ADDRESS":"中正南路一段１５３巷１４號","OBJECTID":316354},"geometry":{"x":177472.51000000071,"y":2540379.2500000019}},{"attributes":{"ID":316363,"DIS_CODE":0,"TOWNNAME":"歸仁區","LI":"歸仁里","LIN":"26鄰","STREET":"大仁街","SECT":" ","MAREA":" ","LANE":"１４７巷","ALLEY":" ","HOUSE_NO":"７號","E_COORD97":178266.44,"N_COORD97":2541118.1099999999,"ADDRESS":"大仁街１４７巷７號","OBJECTID":316355},"geometry":{"x":178266.44000000041,"y":2541118.1100000013}},{"attributes":{"ID":316364,"DIS_CODE":0,"TOWNNAME":"歸仁區","LI":"歸南里","LIN":"26鄰","STREET":"民生十街","SECT":" ","MAREA":" ","LANE":"１８巷","ALLEY":" ","HOUSE_NO":"１４號","E_COORD97":176074.35999999999,"N_COORD97":2540249.25,"ADDRESS":"民生十街１８巷１４號","OBJECTID":316356},"geometry":{"x":176074.36000000034,"y":2540249.2500000037}},{"attributes":{"ID":316365,"DIS_CODE":0,"TOWNNAME":"東區","LI":"後甲里","LIN":"7鄰","STREET":"裕農路","SECT":" ","MAREA":" ","LANE":"６２１巷","ALLEY":" ","HOUSE_NO":"７４號之２","E_COORD97":171628.70000000001,"N_COORD97":2543450.0800000001,"ADDRESS":"裕農路６２１巷７４號之２","OBJECTID":316357},"geometry":{"x":171628.70000000112,"y":2543450.0800000001}},{"attributes":{"ID":316366,"DIS_CODE":0,"TOWNNAME":"東區","LI":"後甲里","LIN":"7鄰","STREET":"裕農路","SECT":" ","MAREA":" ","LANE":"６２１巷","ALLEY":" ","HOUSE_NO":"７４號之３","E_COORD97":171632.67999999999,"N_COORD97":2543450.3500000001,"ADDRESS":"裕農路６２１巷７４號之３","OBJECTID":316358},"geometry":{"x":171632.68000000156,"y":2543450.3499999996}},{"attributes":{"ID":316367,"DIS_CODE":0,"TOWNNAME":"東區","LI":"後甲里","LIN":"7鄰","STREET":"裕農路","SECT":" ","MAREA":" ","LANE":"６２１巷","ALLEY":" ","HOUSE_NO":"７４號之４","E_COORD97":171636.64999999999,"N_COORD97":2543451.9300000002,"ADDRESS":"裕農路６２１巷７４號之４","OBJECTID":316359},"geometry":{"x":171636.65000000037,"y":2543451.9300000016}},{"attributes":{"ID":316368,"DIS_CODE":0,"TOWNNAME":"東區","LI":"大福里","LIN":"7鄰","STREET":"立德一路","SECT":" ","MAREA":" ","LANE":"２巷","ALLEY":" ","HOUSE_NO":"４號","E_COORD97":169489.97,"N_COORD97":2541787.02,"ADDRESS":"立德一路２巷４號","OBJECTID":316360},"geometry":{"x":169489.97000000067,"y":2541787.0200000014}},{"attributes":{"ID":316369,"DIS_CODE":0,"TOWNNAME":"東區","LI":"大福里","LIN":"7鄰","STREET":"立德一路","SECT":" ","MAREA":" ","LANE":"２巷","ALLEY":" ","HOUSE_NO":"２號","E_COORD97":169494.5,"N_COORD97":2541789.1099999999,"ADDRESS":"立德一路２巷２號","OBJECTID":316361},"geometry":{"x":169494.5,"y":2541789.1100000013}},{"attributes":{"ID":316370,"DIS_CODE":0,"TOWNNAME":"東區","LI":"大福里","LIN":"7鄰","STREET":"立德一路","SECT":" ","MAREA":" ","LANE":"２巷","ALLEY":" ","HOUSE_NO":"６號","E_COORD97":169485.44,"N_COORD97":2541787.02,"ADDRESS":"立德一路２巷６號","OBJECTID":316362},"geometry":{"x":169485.43999999948,"y":2541787.0200000014}},{"attributes":{"ID":316371,"DIS_CODE":0,"TOWNNAME":"東區","LI":"大學里","LIN":"7鄰","STREET":"東寧路","SECT":" ","MAREA":" ","LANE":"１５巷","ALLEY":" ","HOUSE_NO":"２２號","E_COORD97":170087.54000000001,"N_COORD97":2543686.1400000001,"ADDRESS":"東寧路１５巷２２號","OBJECTID":316363},"geometry":{"x":170087.54000000004,"y":2543686.1400000025}},{"attributes":{"ID":316372,"DIS_CODE":0,"TOWNNAME":"東區","LI":"忠孝里","LIN":"7鄰","STREET":"榮譽街","SECT":" ","MAREA":" ","LANE":"８４巷","ALLEY":" ","HOUSE_NO":"８９號","E_COORD97":169817.56,"N_COORD97":2541629.1600000001,"ADDRESS":"榮譽街８４巷８９號","OBJECTID":316364},"geometry":{"x":169817.55999999959,"y":2541629.1600000001}},{"attributes":{"ID":316373,"DIS_CODE":0,"TOWNNAME":"東區","LI":"忠孝里","LIN":"7鄰","STREET":"榮譽街","SECT":" ","MAREA":" ","LANE":"８４巷","ALLEY":" ","HOUSE_NO":"８７號","E_COORD97":169808.45000000001,"N_COORD97":2541624.3599999999,"ADDRESS":"榮譽街８４巷８７號","OBJECTID":316365},"geometry":{"x":169808.45000000019,"y":2541624.3600000031}},{"attributes":{"ID":316374,"DIS_CODE":0,"TOWNNAME":"安南區","LI":"安順里","LIN":"7鄰","STREET":"總安街","SECT":"一段","MAREA":" ","LANE":"１１０巷","ALLEY":" ","HOUSE_NO":"３８號","E_COORD97":169734.06,"N_COORD97":2550277.1800000002,"ADDRESS":"總安街一段１１０巷３８號","OBJECTID":316366},"geometry":{"x":169734.05999999959,"y":2550277.1799999997}},{"attributes":{"ID":316375,"DIS_CODE":0,"TOWNNAME":"善化區","LI":"小新里","LIN":"7鄰","STREET":"成功路","SECT":" ","MAREA":" ","LANE":"３４９巷","ALLEY":" ","HOUSE_NO":"１３號","E_COORD97":179452.95000000001,"N_COORD97":2558579,"ADDRESS":"成功路３４９巷１３號","OBJECTID":316367},"geometry":{"x":179452.95000000205,"y":2558578.9999999981}},{"attributes":{"ID":316376,"DIS_CODE":0,"TOWNNAME":"善化區","LI":"坐駕里","LIN":"17鄰","STREET":"文化路","SECT":" ","MAREA":" ","LANE":" ","ALLEY":" ","HOUSE_NO":"６號九樓之５","E_COORD97":177970.09,"N_COORD97":2558361.29,"ADDRESS":"文化路６號九樓之５","OBJECTID":316368},"geometry":{"x":177970.09000000171,"y":2558361.2899999991}},{"attributes":{"ID":316377,"DIS_CODE":0,"TOWNNAME":"善化區","LI":"坐駕里","LIN":"17鄰","STREET":"文化路","SECT":" ","MAREA":" ","LANE":" ","ALLEY":" ","HOUSE_NO":"６號十樓之１","E_COORD97":177970.09,"N_COORD97":2558361.29,"ADDRESS":"文化路６號十樓之１","OBJECTID":316369},"geometry":{"x":177970.09000000171,"y":2558361.2899999991}},{"attributes":{"ID":316378,"DIS_CODE":0,"TOWNNAME":"善化區","LI":"坐駕里","LIN":"17鄰","STREET":"文化路","SECT":" ","MAREA":" ","LANE":" ","ALLEY":" ","HOUSE_NO":"６號十樓之２","E_COORD97":177970.09,"N_COORD97":2558361.29,"ADDRESS":"文化路６號十樓之２","OBJECTID":316370},"geometry":{"x":177970.09000000171,"y":2558361.2899999991}},{"attributes":{"ID":316379,"DIS_CODE":0,"TOWNNAME":"善化區","LI":"坐駕里","LIN":"17鄰","STREET":"文化路","SECT":" ","MAREA":" ","LANE":" ","ALLEY":" ","HOUSE_NO":"６號十樓之３","E_COORD97":177970.09,"N_COORD97":2558361.29,"ADDRESS":"文化路６號十樓之３","OBJECTID":316371},"geometry":{"x":177970.09000000171,"y":2558361.2899999991}},{"attributes":{"ID":316380,"DIS_CODE":0,"TOWNNAME":"歸仁區","LI":"歸仁里","LIN":"18鄰","STREET":"大仁一街","SECT":" ","MAREA":" ","LANE":" ","ALLEY":" ","HOUSE_NO":"１號","E_COORD97":178134.32000000001,"N_COORD97":2541008.1099999999,"ADDRESS":"大仁一街１號","OBJECTID":316372},"geometry":{"x":178134.3200000003,"y":2541008.1099999994}},{"attributes":{"ID":316381,"DIS_CODE":0,"TOWNNAME":"歸仁區","LI":"新厝里","LIN":"18鄰","STREET":"中正南路","SECT":"一段","MAREA":" ","LANE":"１５３巷","ALLEY":" ","HOUSE_NO":"２０號","E_COORD97":177480.60999999999,"N_COORD97":2540370.25,"ADDRESS":"中正南路一段１５３巷２０號","OBJECTID":316373},"geometry":{"x":177480.6100000022,"y":2540370.25}},{"attributes":{"ID":316382,"DIS_CODE":0,"TOWNNAME":"歸仁區","LI":"沙崙里","LIN":"8鄰","STREET":" ","SECT":" ","MAREA":"沙崙","LANE":" ","ALLEY":" ","HOUSE_NO":"２０５號","E_COORD97":179354.26292099999,"N_COORD97":2537425.4284399999,"ADDRESS":"沙崙２０５號","OBJECTID":316374},"geometry":{"x":179354.26292100083,"y":2537425.4284380022}},{"attributes":{"ID":316383,"DIS_CODE":0,"TOWNNAME":"歸仁區","LI":"歸南里","LIN":"26鄰","STREET":"民生十街","SECT":" ","MAREA":" ","LANE":"１８巷","ALLEY":" ","HOUSE_NO":"５號","E_COORD97":176053.60999999999,"N_COORD97":2540237.25,"ADDRESS":"民生十街１８巷５號","OBJECTID":316375},"geometry":{"x":176053.61000000127,"y":2540237.25}},{"attributes":{"ID":316384,"DIS_CODE":0,"TOWNNAME":"歸仁區","LI":"媽廟里","LIN":"4鄰","STREET":"和順路","SECT":"一段","MAREA":" ","LANE":"６３巷","ALLEY":" ","HOUSE_NO":"３３號","E_COORD97":177376.51999999999,"N_COORD97":2543650.7200000002,"ADDRESS":"和順路一段６３巷３３號","OBJECTID":316376},"geometry":{"x":177376.51999999955,"y":2543650.7200000044}},{"attributes":{"ID":316385,"DIS_CODE":0,"TOWNNAME":"歸仁區","LI":"新厝里","LIN":"18鄰","STREET":"中正南路","SECT":"一段","MAREA":" ","LANE":"１５３巷","ALLEY":" ","HOUSE_NO":"３０號","E_COORD97":177462.01000000001,"N_COORD97":2540335.25,"ADDRESS":"中正南路一段１５３巷３０號","OBJECTID":316377},"geometry":{"x":177462.01000000164,"y":2540335.2500000019}},{"attributes":{"ID":316386,"DIS_CODE":0,"TOWNNAME":"歸仁區","LI":"媽廟里","LIN":"4鄰","STREET":"和順路","SECT":"一段","MAREA":" ","LANE":"１１巷","ALLEY":" ","HOUSE_NO":"３０號","E_COORD97":177471.92000000001,"N_COORD97":2543644.7200000002,"ADDRESS":"和順路一段１１巷３０號","OBJECTID":316378},"geometry":{"x":177471.92000000086,"y":2543644.7200000025}},{"attributes":{"ID":316387,"DIS_CODE":0,"TOWNNAME":"善化區","LI":"文昌里","LIN":"7鄰","STREET":"中華路","SECT":" ","MAREA":" ","LANE":"９巷","ALLEY":" ","HOUSE_NO":"１０號","E_COORD97":177268.34,"N_COORD97":2558650,"ADDRESS":"中華路９巷１０號","OBJECTID":316379},"geometry":{"x":177268.34000000171,"y":2558650}},{"attributes":{"ID":316388,"DIS_CODE":0,"TOWNNAME":"善化區","LI":"光文里","LIN":"7鄰","STREET":"建業路","SECT":" ","MAREA":" ","LANE":"１９０巷","ALLEY":" ","HOUSE_NO":"７０號","E_COORD97":178981.35000000001,"N_COORD97":2559854.7799999998,"ADDRESS":"建業路１９０巷７０號","OBJECTID":316380},"geometry":{"x":178981.34999999963,"y":2559854.7800000031}},{"attributes":{"ID":316389,"DIS_CODE":0,"TOWNNAME":"善化區","LI":"南關里","LIN":"7鄰","STREET":"三民路","SECT":" ","MAREA":" ","LANE":"南興巷","ALLEY":" ","HOUSE_NO":"３９號","E_COORD97":176880.89000000001,"N_COORD97":2558608.0099999998,"ADDRESS":"三民路南興巷３９號","OBJECTID":316381},"geometry":{"x":176880.88999999966,"y":2558608.0099999998}},{"attributes":{"ID":316390,"DIS_CODE":0,"TOWNNAME":"善化區","LI":"小新里","LIN":"7鄰","STREET":"成功路","SECT":" ","MAREA":" ","LANE":"３４９巷","ALLEY":" ","HOUSE_NO":"７號之１","E_COORD97":179481.85999999999,"N_COORD97":2558667.5099999998,"ADDRESS":"成功路３４９巷７號之１","OBJECTID":316382},"geometry":{"x":179481.86000000034,"y":2558667.5100000016}},{"attributes":{"ID":316391,"DIS_CODE":0,"TOWNNAME":"善化區","LI":"西關里","LIN":"7鄰","STREET":"復興街","SECT":" ","MAREA":" ","LANE":"３６巷","ALLEY":" ","HOUSE_NO":"５號","E_COORD97":177063.73999999999,"N_COORD97":2559130.2599999998,"ADDRESS":"復興街３６巷５號","OBJECTID":316383},"geometry":{"x":177063.74000000022,"y":2559130.2600000016}},{"attributes":{"ID":316392,"DIS_CODE":0,"TOWNNAME":"善化區","LI":"坐駕里","LIN":"17鄰","STREET":"文化路","SECT":" ","MAREA":" ","LANE":" ","ALLEY":" ","HOUSE_NO":"６號十樓之５","E_COORD97":177970.09,"N_COORD97":2558361.29,"ADDRESS":"文化路６號十樓之５","OBJECTID":316384},"geometry":{"x":177970.09000000171,"y":2558361.2899999991}},{"attributes":{"ID":316393,"DIS_CODE":0,"TOWNNAME":"善化區","LI":"坐駕里","LIN":"17鄰","STREET":"文化路","SECT":" ","MAREA":" ","LANE":" ","ALLEY":" ","HOUSE_NO":"６號十一樓之１","E_COORD97":177970.09,"N_COORD97":2558361.29,"ADDRESS":"文化路６號十一樓之１","OBJECTID":316385},"geometry":{"x":177970.09000000171,"y":2558361.2899999991}},{"attributes":{"ID":316394,"DIS_CODE":0,"TOWNNAME":"善化區","LI":"坐駕里","LIN":"17鄰","STREET":"文化路","SECT":" ","MAREA":" ","LANE":" ","ALLEY":" ","HOUSE_NO":"６號十一樓之２","E_COORD97":177970.09,"N_COORD97":2558361.29,"ADDRESS":"文化路６號十一樓之２","OBJECTID":316386},"geometry":{"x":177970.09000000171,"y":2558361.2899999991}},{"attributes":{"ID":316395,"DIS_CODE":0,"TOWNNAME":"善化區","LI":"坐駕里","LIN":"17鄰","STREET":"文化路","SECT":" ","MAREA":" ","LANE":" ","ALLEY":" ","HOUSE_NO":"６號十一樓之３","E_COORD97":177970.09,"N_COORD97":2558361.29,"ADDRESS":"文化路６號十一樓之３","OBJECTID":316387},"geometry":{"x":177970.09000000171,"y":2558361.2899999991}},{"attributes":{"ID":316396,"DIS_CODE":0,"TOWNNAME":"善化區","LI":"坐駕里","LIN":"17鄰","STREET":"文化路","SECT":" ","MAREA":" ","LANE":" ","ALLEY":" ","HOUSE_NO":"６號二樓之１","E_COORD97":177970.09,"N_COORD97":2558361.29,"ADDRESS":"文化路６號二樓之１","OBJECTID":316388},"geometry":{"x":177970.09000000171,"y":2558361.2899999991}},{"attributes":{"ID":316397,"DIS_CODE":0,"TOWNNAME":"歸仁區","LI":"媽廟里","LIN":"4鄰","STREET":"和順路","SECT":"一段","MAREA":" ","LANE":"６３巷","ALLEY":" ","HOUSE_NO":"２９號","E_COORD97":177368.32000000001,"N_COORD97":2543653.7200000002,"ADDRESS":"和順路一段６３巷２９號","OBJECTID":316389},"geometry":{"x":177368.3200000003,"y":2543653.7199999988}},{"attributes":{"ID":316398,"DIS_CODE":0,"TOWNNAME":"歸仁區","LI":"媽廟里","LIN":"4鄰","STREET":"和順路","SECT":"一段","MAREA":" ","LANE":"６３巷","ALLEY":" ","HOUSE_NO":"２７號","E_COORD97":177365.32000000001,"N_COORD97":2543655.7200000002,"ADDRESS":"和順路一段６３巷２７號","OBJECTID":316390},"geometry":{"x":177365.3200000003,"y":2543655.7200000007}},{"attributes":{"ID":316399,"DIS_CODE":0,"TOWNNAME":"歸仁區","LI":"媽廟里","LIN":"4鄰","STREET":"和順路","SECT":"一段","MAREA":" ","LANE":"１１巷","ALLEY":" ","HOUSE_NO":"６０號","E_COORD97":177469.82000000001,"N_COORD97":2543634.7200000002,"ADDRESS":"和順路一段１１巷６０號","OBJECTID":316391},"geometry":{"x":177469.8200000003,"y":2543634.7200000025}},{"attributes":{"ID":316400,"DIS_CODE":0,"TOWNNAME":"歸仁區","LI":"崙頂里","LIN":"25鄰","STREET":"崙頂街","SECT":" ","MAREA":" ","LANE":"１５０巷","ALLEY":" ","HOUSE_NO":"３２號","E_COORD97":177801.57999999999,"N_COORD97":2539864.25,"ADDRESS":"崙頂街１５０巷３２號","OBJECTID":316392},"geometry":{"x":177801.58000000101,"y":2539864.2500000019}},{"attributes":{"ID":316401,"DIS_CODE":0,"TOWNNAME":"歸仁區","LI":"許厝里","LIN":"25鄰","STREET":"中山路","SECT":"一段","MAREA":" ","LANE":"４３４巷","ALLEY":" ","HOUSE_NO":"１０號","E_COORD97":178093.79999999999,"N_COORD97":2540772.9300000002,"ADDRESS":"中山路一段４３４巷１０號","OBJECTID":316393},"geometry":{"x":178093.79999999981,"y":2540772.9300000034}},{"attributes":{"ID":316402,"DIS_CODE":0,"TOWNNAME":"善化區","LI":"南關里","LIN":"7鄰","STREET":"三民路","SECT":" ","MAREA":" ","LANE":"六合巷","ALLEY":" ","HOUSE_NO":"３號","E_COORD97":176998.31,"N_COORD97":2558725.7599999998,"ADDRESS":"三民路六合巷３號","OBJECTID":316394},"geometry":{"x":176998.30999999959,"y":2558725.7599999998}},{"attributes":{"ID":316403,"DIS_CODE":0,"TOWNNAME":"善化區","LI":"南關里","LIN":"7鄰","STREET":"三民路","SECT":" ","MAREA":" ","LANE":"六合巷","ALLEY":" ","HOUSE_NO":"１０號","E_COORD97":176994.35999999999,"N_COORD97":2558749.5099999998,"ADDRESS":"三民路六合巷１０號","OBJECTID":316395},"geometry":{"x":176994.36000000127,"y":2558749.5100000016}},{"attributes":{"ID":316404,"DIS_CODE":0,"TOWNNAME":"善化區","LI":"文昌里","LIN":"7鄰","STREET":"中華路","SECT":" ","MAREA":" ","LANE":"７２巷","ALLEY":" ","HOUSE_NO":"７號","E_COORD97":177274.22,"N_COORD97":2558843.5,"ADDRESS":"中華路７２巷７號","OBJECTID":316396},"geometry":{"x":177274.22000000067,"y":2558843.5000000037}},{"attributes":{"ID":316405,"DIS_CODE":0,"TOWNNAME":"善化區","LI":"文昌里","LIN":"7鄰","STREET":"中華路","SECT":" ","MAREA":" ","LANE":"９巷","ALLEY":" ","HOUSE_NO":"８號","E_COORD97":177273.03,"N_COORD97":2558652.25,"ADDRESS":"中華路９巷８號","OBJECTID":316397},"geometry":{"x":177273.03000000119,"y":2558652.2500000037}},{"attributes":{"ID":316406,"DIS_CODE":0,"TOWNNAME":"善化區","LI":"坐駕里","LIN":"17鄰","STREET":"文化路","SECT":" ","MAREA":" ","LANE":" ","ALLEY":" ","HOUSE_NO":"６號二樓之２","E_COORD97":177970.09,"N_COORD97":2558361.29,"ADDRESS":"文化路６號二樓之２","OBJECTID":316398},"geometry":{"x":177970.09000000171,"y":2558361.2899999991}},{"attributes":{"ID":316407,"DIS_CODE":0,"TOWNNAME":"善化區","LI":"坐駕里","LIN":"17鄰","STREET":"文化路","SECT":" ","MAREA":" ","LANE":" ","ALLEY":" ","HOUSE_NO":"６號二樓之５","E_COORD97":177970.09,"N_COORD97":2558361.29,"ADDRESS":"文化路６號二樓之５","OBJECTID":316399},"geometry":{"x":177970.09000000171,"y":2558361.2899999991}},{"attributes":{"ID":316408,"DIS_CODE":0,"TOWNNAME":"善化區","LI":"坐駕里","LIN":"17鄰","STREET":"文化路","SECT":" ","MAREA":" ","LANE":" ","ALLEY":" ","HOUSE_NO":"６號三樓之１","E_COORD97":177970.09,"N_COORD97":2558361.29,"ADDRESS":"文化路６號三樓之１","OBJECTID":316400},"geometry":{"x":177970.09000000171,"y":2558361.2899999991}}]}