{"displayFieldName":"TOWNNAME","fieldAliases":{"ID":"ID","DIS_CODE":"DIS_CODE","TOWNNAME":"TOWNNAME","LI":"LI","LIN":"LIN","STREET":"STREET","SECT":"SECT","MAREA":"MAREA","LANE":"LANE","ALLEY":"ALLEY","HOUSE_NO":"HOUSE_NO","E_COORD97":"E_COORD97","N_COORD97":"N_COORD97","ADDRESS":"ADDRESS","OBJECTID":"OBJECTID"},"geometryType":"esriGeometryPoint","spatialReference":{"wkid":102443,"latestWkid":3826},"fields":[{"name":"ID","type":"esriFieldTypeDouble","alias":"ID"},{"name":"DIS_CODE","type":"esriFieldTypeInteger","alias":"DIS_CODE"},{"name":"TOWNNAME","type":"esriFieldTypeString","alias":"TOWNNAME","length":8},{"name":"LI","type":"esriFieldTypeString","alias":"LI","length":8},{"name":"LIN","type":"esriFieldTypeString","alias":"LIN","length":12},{"name":"STREET","type":"esriFieldTypeString","alias":"STREET","length":20},{"name":"SECT","type":"esriFieldTypeString","alias":"SECT","length":8},{"name":"MAREA","type":"esriFieldTypeString","alias":"MAREA","length":12},{"name":"LANE","type":"esriFieldTypeString","alias":"LANE","length":10},{"name":"ALLEY","type":"esriFieldTypeString","alias":"ALLEY","length":10},{"name":"HOUSE_NO","type":"esriFieldTypeString","alias":"HOUSE_NO","length":20},{"name":"E_COORD97","type":"esriFieldTypeDouble","alias":"E_COORD97"},{"name":"N_COORD97","type":"esriFieldTypeDouble","alias":"N_COORD97"},{"name":"ADDRESS","type":"esriFieldTypeString","alias":"ADDRESS","length":50},{"name":"OBJECTID","type":"esriFieldTypeOID","alias":"OBJECTID"}],"features":[{"attributes":{"ID":294409,"DIS_CODE":0,"TOWNNAME":"北區","LI":"光武里","LIN":"17鄰","STREET":"北門路","SECT":"二段","MAREA":" ","LANE":"５７７巷","ALLEY":" ","HOUSE_NO":"８號九樓之３","E_COORD97":169621.23999999999,"N_COORD97":2545782.3399999999,"ADDRESS":"北門路二段５７７巷８號九樓之３","OBJECTID":294401},"geometry":{"x":169621.24000000115,"y":2545782.3400000017}},{"attributes":{"ID":294410,"DIS_CODE":0,"TOWNNAME":"新市區","LI":"大社里","LIN":"5鄰","STREET":" ","SECT":" ","MAREA":"大社","LANE":" ","ALLEY":" ","HOUSE_NO":"２２３號","E_COORD97":180117.13,"N_COORD97":2554362.5,"ADDRESS":"大社２２３號","OBJECTID":294402},"geometry":{"x":180117.12999999989,"y":2554362.5000000019}},{"attributes":{"ID":294411,"DIS_CODE":0,"TOWNNAME":"新市區","LI":"大營里","LIN":"20鄰","STREET":" ","SECT":" ","MAREA":"豐榮","LANE":" ","ALLEY":" ","HOUSE_NO":"５５號","E_COORD97":178796.98999999999,"N_COORD97":2554238,"ADDRESS":"豐榮５５號","OBJECTID":294403},"geometry":{"x":178796.99000000115,"y":2554238}},{"attributes":{"ID":294412,"DIS_CODE":0,"TOWNNAME":"新市區","LI":"大營里","LIN":"20鄰","STREET":" ","SECT":" ","MAREA":"豐榮","LANE":" ","ALLEY":" ","HOUSE_NO":"５２之１３號","E_COORD97":178829.17999999999,"N_COORD97":2554218.5499999998,"ADDRESS":"豐榮５２之１３號","OBJECTID":294404},"geometry":{"x":178829.18000000063,"y":2554218.5500000007}},{"attributes":{"ID":294413,"DIS_CODE":0,"TOWNNAME":"新營區","LI":"大宏里","LIN":"19鄰","STREET":"三民路","SECT":" ","MAREA":" ","LANE":" ","ALLEY":" ","HOUSE_NO":"３６號之５０","E_COORD97":180440.53732999999,"N_COORD97":2578525.3590099998,"ADDRESS":"三民路３６號之５０","OBJECTID":294405},"geometry":{"x":180440.53733000159,"y":2578525.3590099998}},{"attributes":{"ID":294414,"DIS_CODE":0,"TOWNNAME":"新市區","LI":"港墘里","LIN":"25鄰","STREET":"華美街","SECT":" ","MAREA":" ","LANE":"３９巷","ALLEY":" ","HOUSE_NO":"４號","E_COORD97":178106.39999999999,"N_COORD97":2552941.7999999998,"ADDRESS":"華美街３９巷４號","OBJECTID":294406},"geometry":{"x":178106.4000000013,"y":2552941.8000000007}},{"attributes":{"ID":294415,"DIS_CODE":0,"TOWNNAME":"北區","LI":"光武里","LIN":"17鄰","STREET":"北門路","SECT":"二段","MAREA":" ","LANE":"５７７巷","ALLEY":" ","HOUSE_NO":"８號十樓之３","E_COORD97":169621.23999999999,"N_COORD97":2545782.3399999999,"ADDRESS":"北門路二段５７７巷８號十樓之３","OBJECTID":294407},"geometry":{"x":169621.24000000115,"y":2545782.3400000017}},{"attributes":{"ID":294416,"DIS_CODE":0,"TOWNNAME":"新市區","LI":"大社里","LIN":"26鄰","STREET":" ","SECT":" ","MAREA":"大社","LANE":" ","ALLEY":" ","HOUSE_NO":"６７５號","E_COORD97":179946.20999999999,"N_COORD97":2554295.75,"ADDRESS":"大社６７５號","OBJECTID":294408},"geometry":{"x":179946.21000000089,"y":2554295.7500000019}},{"attributes":{"ID":294417,"DIS_CODE":0,"TOWNNAME":"新市區","LI":"永就里","LIN":"4鄰","STREET":" ","SECT":" ","MAREA":"永就","LANE":" ","ALLEY":" ","HOUSE_NO":"４６之１２號","E_COORD97":178188.26000000001,"N_COORD97":2551685.0499999998,"ADDRESS":"永就４６之１２號","OBJECTID":294409},"geometry":{"x":178188.26000000071,"y":2551685.0500000026}},{"attributes":{"ID":294418,"DIS_CODE":0,"TOWNNAME":"新市區","LI":"大營里","LIN":"20鄰","STREET":" ","SECT":" ","MAREA":"豐榮","LANE":" ","ALLEY":" ","HOUSE_NO":"５３之２號","E_COORD97":178775.32000000001,"N_COORD97":2554196.7999999998,"ADDRESS":"豐榮５３之２號","OBJECTID":294410},"geometry":{"x":178775.3200000003,"y":2554196.8000000007}},{"attributes":{"ID":294419,"DIS_CODE":0,"TOWNNAME":"新市區","LI":"大社里","LIN":"32鄰","STREET":" ","SECT":" ","MAREA":"大社","LANE":" ","ALLEY":" ","HOUSE_NO":"２８４之１１號","E_COORD97":180642.45999999999,"N_COORD97":2554627.0499999998,"ADDRESS":"大社２８４之１１號","OBJECTID":294411},"geometry":{"x":180642.45999999996,"y":2554627.0500000026}},{"attributes":{"ID":294420,"DIS_CODE":0,"TOWNNAME":"北區","LI":"光武里","LIN":"17鄰","STREET":"北門路","SECT":"二段","MAREA":" ","LANE":"５７７巷","ALLEY":" ","HOUSE_NO":"８號三樓之５","E_COORD97":169621.23999999999,"N_COORD97":2545782.3399999999,"ADDRESS":"北門路二段５７７巷８號三樓之５","OBJECTID":294412},"geometry":{"x":169621.24000000115,"y":2545782.3400000017}},{"attributes":{"ID":294421,"DIS_CODE":0,"TOWNNAME":"新市區","LI":"永就里","LIN":"4鄰","STREET":" ","SECT":" ","MAREA":"永就","LANE":" ","ALLEY":" ","HOUSE_NO":"４６之８號","E_COORD97":178499.67000000001,"N_COORD97":2551673.5499999998,"ADDRESS":"永就４６之８號","OBJECTID":294413},"geometry":{"x":178499.66999999993,"y":2551673.5500000045}},{"attributes":{"ID":294422,"DIS_CODE":0,"TOWNNAME":"北區","LI":"光武里","LIN":"17鄰","STREET":"北門路","SECT":"二段","MAREA":" ","LANE":"５７７巷","ALLEY":" ","HOUSE_NO":"８號四樓之５","E_COORD97":169621.23999999999,"N_COORD97":2545782.3399999999,"ADDRESS":"北門路二段５７７巷８號四樓之５","OBJECTID":294414},"geometry":{"x":169621.24000000115,"y":2545782.3400000017}},{"attributes":{"ID":294423,"DIS_CODE":0,"TOWNNAME":"北區","LI":"光武里","LIN":"17鄰","STREET":"北門路","SECT":"二段","MAREA":" ","LANE":"５７７巷","ALLEY":" ","HOUSE_NO":"８號五樓之５","E_COORD97":169621.23999999999,"N_COORD97":2545782.3399999999,"ADDRESS":"北門路二段５７７巷８號五樓之５","OBJECTID":294415},"geometry":{"x":169621.24000000115,"y":2545782.3400000017}},{"attributes":{"ID":294424,"DIS_CODE":0,"TOWNNAME":"北區","LI":"光武里","LIN":"17鄰","STREET":"北門路","SECT":"二段","MAREA":" ","LANE":"５７７巷","ALLEY":" ","HOUSE_NO":"８號六樓之５","E_COORD97":169621.23999999999,"N_COORD97":2545782.3399999999,"ADDRESS":"北門路二段５７７巷８號六樓之５","OBJECTID":294416},"geometry":{"x":169621.24000000115,"y":2545782.3400000017}},{"attributes":{"ID":294425,"DIS_CODE":0,"TOWNNAME":"北區","LI":"公園里","LIN":"14鄰","STREET":"西華街","SECT":" ","MAREA":" ","LANE":" ","ALLEY":" ","HOUSE_NO":"１０３號","E_COORD97":169053.97,"N_COORD97":2544546.5,"ADDRESS":"西華街１０３號","OBJECTID":294417},"geometry":{"x":169053.96999999881,"y":2544546.5000000037}},{"attributes":{"ID":294426,"DIS_CODE":0,"TOWNNAME":"新營區","LI":"嘉芳里","LIN":"14鄰","STREET":"新工路","SECT":" ","MAREA":" ","LANE":" ","ALLEY":" ","HOUSE_NO":"１６號","E_COORD97":176539.67999999999,"N_COORD97":2578400.0899999999,"ADDRESS":"新工路１６號","OBJECTID":294418},"geometry":{"x":176539.6799999997,"y":2578400.0900000017}},{"attributes":{"ID":294427,"DIS_CODE":0,"TOWNNAME":"新市區","LI":"港墘里","LIN":"8鄰","STREET":" ","SECT":" ","MAREA":"崙頂","LANE":" ","ALLEY":" ","HOUSE_NO":"１２之１號","E_COORD97":178973.37,"N_COORD97":2552654.2999999998,"ADDRESS":"崙頂１２之１號","OBJECTID":294419},"geometry":{"x":178973.37000000011,"y":2552654.3000000007}},{"attributes":{"ID":294428,"DIS_CODE":0,"TOWNNAME":"新市區","LI":"三舍里","LIN":"4鄰","STREET":" ","SECT":" ","MAREA":"三舍","LANE":" ","ALLEY":" ","HOUSE_NO":"８８號","E_COORD97":178026.20000000001,"N_COORD97":2554422.25,"ADDRESS":"三舍８８號","OBJECTID":294420},"geometry":{"x":178026.20000000112,"y":2554422.2500000019}},{"attributes":{"ID":294429,"DIS_CODE":0,"TOWNNAME":"新市區","LI":"社內里","LIN":"13鄰","STREET":" ","SECT":" ","MAREA":"社內","LANE":" ","ALLEY":" ","HOUSE_NO":"１４２之３號","E_COORD97":176375.87,"N_COORD97":2552531.0499999998,"ADDRESS":"社內１４２之３號","OBJECTID":294421},"geometry":{"x":176375.87000000011,"y":2552531.0500000045}},{"attributes":{"ID":294430,"DIS_CODE":0,"TOWNNAME":"新市區","LI":"大營里","LIN":"20鄰","STREET":" ","SECT":" ","MAREA":"豐榮","LANE":" ","ALLEY":" ","HOUSE_NO":"５３號","E_COORD97":178767.70999999999,"N_COORD97":2554203.75,"ADDRESS":"豐榮５３號","OBJECTID":294422},"geometry":{"x":178767.70999999903,"y":2554203.7500000037}},{"attributes":{"ID":294431,"DIS_CODE":0,"TOWNNAME":"新市區","LI":"社內里","LIN":"13鄰","STREET":" ","SECT":" ","MAREA":"社內","LANE":" ","ALLEY":" ","HOUSE_NO":"１４３號","E_COORD97":176202.78,"N_COORD97":2552323,"ADDRESS":"社內１４３號","OBJECTID":294423},"geometry":{"x":176202.78000000212,"y":2552323}},{"attributes":{"ID":294432,"DIS_CODE":0,"TOWNNAME":"新市區","LI":"港墘里","LIN":"4鄰","STREET":"三民街","SECT":" ","MAREA":" ","LANE":"１１２巷","ALLEY":" ","HOUSE_NO":"１號","E_COORD97":178329.67999999999,"N_COORD97":2553521.29,"ADDRESS":"三民街１１２巷１號","OBJECTID":294424},"geometry":{"x":178329.6799999997,"y":2553521.2900000028}},{"attributes":{"ID":294433,"DIS_CODE":0,"TOWNNAME":"新市區","LI":"大營里","LIN":"4鄰","STREET":" ","SECT":" ","MAREA":"大營","LANE":" ","ALLEY":" ","HOUSE_NO":"５５號","E_COORD97":179586.79000000001,"N_COORD97":2555543.25,"ADDRESS":"大營５５號","OBJECTID":294425},"geometry":{"x":179586.79000000097,"y":2555543.2500000037}},{"attributes":{"ID":294434,"DIS_CODE":0,"TOWNNAME":"新市區","LI":"大社里","LIN":"4鄰","STREET":" ","SECT":" ","MAREA":"大社","LANE":" ","ALLEY":" ","HOUSE_NO":"１６６號","E_COORD97":180116.34,"N_COORD97":2554311.5,"ADDRESS":"大社１６６號","OBJECTID":294426},"geometry":{"x":180116.34000000078,"y":2554311.5000000019}},{"attributes":{"ID":294435,"DIS_CODE":0,"TOWNNAME":"新市區","LI":"大社里","LIN":"26鄰","STREET":" ","SECT":" ","MAREA":"大社","LANE":" ","ALLEY":" ","HOUSE_NO":"６１１號","E_COORD97":179997.14999999999,"N_COORD97":2554408.5,"ADDRESS":"大社６１１號","OBJECTID":294427},"geometry":{"x":179997.15000000037,"y":2554408.5}},{"attributes":{"ID":294436,"DIS_CODE":0,"TOWNNAME":"新市區","LI":"港墘里","LIN":"26鄰","STREET":"華美街","SECT":" ","MAREA":" ","LANE":"３０巷","ALLEY":" ","HOUSE_NO":"８號","E_COORD97":178177.48000000001,"N_COORD97":2552906.5499999998,"ADDRESS":"華美街３０巷８號","OBJECTID":294428},"geometry":{"x":178177.48000000045,"y":2552906.5500000007}},{"attributes":{"ID":294437,"DIS_CODE":0,"TOWNNAME":"新市區","LI":"港墘里","LIN":"25鄰","STREET":"華美街","SECT":" ","MAREA":" ","LANE":"２９巷","ALLEY":" ","HOUSE_NO":"４號","E_COORD97":178117.76000000001,"N_COORD97":2552882.2999999998,"ADDRESS":"華美街２９巷４號","OBJECTID":294429},"geometry":{"x":178117.75999999978,"y":2552882.3000000045}},{"attributes":{"ID":294438,"DIS_CODE":0,"TOWNNAME":"新市區","LI":"大社里","LIN":"32鄰","STREET":" ","SECT":" ","MAREA":"大社","LANE":" ","ALLEY":" ","HOUSE_NO":"２８４之２３號","E_COORD97":180631.04000000001,"N_COORD97":2554663.7999999998,"ADDRESS":"大社２８４之２３號","OBJECTID":294430},"geometry":{"x":180631.04000000097,"y":2554663.8000000007}},{"attributes":{"ID":294439,"DIS_CODE":0,"TOWNNAME":"北區","LI":"光武里","LIN":"17鄰","STREET":"北門路","SECT":"二段","MAREA":" ","LANE":"５７７巷","ALLEY":" ","HOUSE_NO":"８號七樓之５","E_COORD97":169621.23999999999,"N_COORD97":2545782.3399999999,"ADDRESS":"北門路二段５７７巷８號七樓之５","OBJECTID":294431},"geometry":{"x":169621.24000000115,"y":2545782.3400000017}},{"attributes":{"ID":294440,"DIS_CODE":0,"TOWNNAME":"北區","LI":"光武里","LIN":"17鄰","STREET":"北門路","SECT":"二段","MAREA":" ","LANE":"５７７巷","ALLEY":" ","HOUSE_NO":"８號八樓之５","E_COORD97":169621.23999999999,"N_COORD97":2545782.3399999999,"ADDRESS":"北門路二段５７７巷８號八樓之５","OBJECTID":294432},"geometry":{"x":169621.24000000115,"y":2545782.3400000017}},{"attributes":{"ID":294441,"DIS_CODE":0,"TOWNNAME":"北區","LI":"光武里","LIN":"17鄰","STREET":"北門路","SECT":"二段","MAREA":" ","LANE":"５７７巷","ALLEY":" ","HOUSE_NO":"８號九樓之５","E_COORD97":169621.23999999999,"N_COORD97":2545782.3399999999,"ADDRESS":"北門路二段５７７巷８號九樓之５","OBJECTID":294433},"geometry":{"x":169621.24000000115,"y":2545782.3400000017}},{"attributes":{"ID":294442,"DIS_CODE":0,"TOWNNAME":"北區","LI":"光武里","LIN":"17鄰","STREET":"北門路","SECT":"二段","MAREA":" ","LANE":"５７７巷","ALLEY":" ","HOUSE_NO":"８號十樓之５","E_COORD97":169621.23999999999,"N_COORD97":2545782.3399999999,"ADDRESS":"北門路二段５７７巷８號十樓之５","OBJECTID":294434},"geometry":{"x":169621.24000000115,"y":2545782.3400000017}},{"attributes":{"ID":294443,"DIS_CODE":0,"TOWNNAME":"北區","LI":"光武里","LIN":"17鄰","STREET":"北門路","SECT":"二段","MAREA":" ","LANE":"５７７巷","ALLEY":" ","HOUSE_NO":"８號十一樓之１","E_COORD97":169621.23999999999,"N_COORD97":2545782.3399999999,"ADDRESS":"北門路二段５７７巷８號十一樓之１","OBJECTID":294435},"geometry":{"x":169621.24000000115,"y":2545782.3400000017}},{"attributes":{"ID":294444,"DIS_CODE":0,"TOWNNAME":"新市區","LI":"大社里","LIN":"26鄰","STREET":" ","SECT":" ","MAREA":"大社","LANE":" ","ALLEY":" ","HOUSE_NO":"６６１之５號","E_COORD97":179954.48000000001,"N_COORD97":2554345.0499999998,"ADDRESS":"大社６６１之５號","OBJECTID":294436},"geometry":{"x":179954.48000000045,"y":2554345.0500000045}},{"attributes":{"ID":294445,"DIS_CODE":0,"TOWNNAME":"新營區","LI":"中營里","LIN":"14鄰","STREET":"東山路","SECT":" ","MAREA":" ","LANE":" ","ALLEY":" ","HOUSE_NO":"１８３號","E_COORD97":181842.98999999999,"N_COORD97":2578738,"ADDRESS":"東山路１８３號","OBJECTID":294437},"geometry":{"x":181842.99000000209,"y":2578738}},{"attributes":{"ID":294446,"DIS_CODE":0,"TOWNNAME":"新營區","LI":"中營里","LIN":"14鄰","STREET":"東山路","SECT":" ","MAREA":" ","LANE":" ","ALLEY":" ","HOUSE_NO":"１９３號","E_COORD97":181892.12,"N_COORD97":2578747.7400000002,"ADDRESS":"東山路１９３號","OBJECTID":294438},"geometry":{"x":181892.12000000011,"y":2578747.7400000021}},{"attributes":{"ID":294447,"DIS_CODE":0,"TOWNNAME":"新市區","LI":"港墘里","LIN":"8鄰","STREET":" ","SECT":" ","MAREA":"崙頂","LANE":" ","ALLEY":" ","HOUSE_NO":"６之１號","E_COORD97":178959.98999999999,"N_COORD97":2552750.0499999998,"ADDRESS":"崙頂６之１號","OBJECTID":294439},"geometry":{"x":178959.99000000115,"y":2552750.0500000007}},{"attributes":{"ID":294448,"DIS_CODE":0,"TOWNNAME":"新市區","LI":"港墘里","LIN":"7鄰","STREET":" ","SECT":" ","MAREA":"店頂","LANE":" ","ALLEY":" ","HOUSE_NO":"２１號","E_COORD97":179158.14999999999,"N_COORD97":2553133.75,"ADDRESS":"店頂２１號","OBJECTID":294440},"geometry":{"x":179158.15000000037,"y":2553133.7500000019}},{"attributes":{"ID":294449,"DIS_CODE":0,"TOWNNAME":"新營區","LI":"中營里","LIN":"14鄰","STREET":"東山路","SECT":" ","MAREA":" ","LANE":" ","ALLEY":" ","HOUSE_NO":"１７號之１","E_COORD97":181174.72,"N_COORD97":2578691.2999999998,"ADDRESS":"東山路１７號之１","OBJECTID":294441},"geometry":{"x":181174.7200000016,"y":2578691.3000000026}},{"attributes":{"ID":294450,"DIS_CODE":0,"TOWNNAME":"新市區","LI":"大社里","LIN":"26鄰","STREET":" ","SECT":" ","MAREA":"大社","LANE":" ","ALLEY":" ","HOUSE_NO":"６６４號","E_COORD97":179964.17999999999,"N_COORD97":2554326.5,"ADDRESS":"大社６６４號","OBJECTID":294442},"geometry":{"x":179964.1799999997,"y":2554326.5}},{"attributes":{"ID":294451,"DIS_CODE":0,"TOWNNAME":"新市區","LI":"港墘里","LIN":"26鄰","STREET":"華美街","SECT":" ","MAREA":" ","LANE":"３０巷","ALLEY":" ","HOUSE_NO":"３號","E_COORD97":178190.67000000001,"N_COORD97":2552916.2999999998,"ADDRESS":"華美街３０巷３號","OBJECTID":294443},"geometry":{"x":178190.67000000086,"y":2552916.3000000026}},{"attributes":{"ID":294452,"DIS_CODE":0,"TOWNNAME":"新市區","LI":"大社里","LIN":"26鄰","STREET":" ","SECT":" ","MAREA":"大社","LANE":" ","ALLEY":" ","HOUSE_NO":"６６１之６號","E_COORD97":179950.34,"N_COORD97":2554345.2999999998,"ADDRESS":"大社６６１之６號","OBJECTID":294444},"geometry":{"x":179950.34000000078,"y":2554345.3000000007}},{"attributes":{"ID":294453,"DIS_CODE":0,"TOWNNAME":"新市區","LI":"港墘里","LIN":"14鄰","STREET":"長安街","SECT":" ","MAREA":" ","LANE":"３６巷","ALLEY":" ","HOUSE_NO":"７號","E_COORD97":178286.70000000001,"N_COORD97":2552704.5699999998,"ADDRESS":"長安街３６巷７號","OBJECTID":294445},"geometry":{"x":178286.70000000205,"y":2552704.5700000022}},{"attributes":{"ID":294454,"DIS_CODE":0,"TOWNNAME":"新市區","LI":"社內里","LIN":"13鄰","STREET":" ","SECT":" ","MAREA":"社內","LANE":" ","ALLEY":" ","HOUSE_NO":"１４２之２１號","E_COORD97":176412.89000000001,"N_COORD97":2552401.0499999998,"ADDRESS":"社內１４２之２１號","OBJECTID":294446},"geometry":{"x":176412.88999999966,"y":2552401.0500000007}},{"attributes":{"ID":294455,"DIS_CODE":0,"TOWNNAME":"北區","LI":"光武里","LIN":"17鄰","STREET":"北門路","SECT":"二段","MAREA":" ","LANE":"５７７巷","ALLEY":" ","HOUSE_NO":"８號十一樓之２","E_COORD97":169621.23999999999,"N_COORD97":2545782.3399999999,"ADDRESS":"北門路二段５７７巷８號十一樓之２","OBJECTID":294447},"geometry":{"x":169621.24000000115,"y":2545782.3400000017}},{"attributes":{"ID":294456,"DIS_CODE":0,"TOWNNAME":"北區","LI":"光武里","LIN":"17鄰","STREET":"北門路","SECT":"二段","MAREA":" ","LANE":"５７７巷","ALLEY":" ","HOUSE_NO":"８號十一樓之３","E_COORD97":169621.23999999999,"N_COORD97":2545782.3399999999,"ADDRESS":"北門路二段５７７巷８號十一樓之３","OBJECTID":294448},"geometry":{"x":169621.24000000115,"y":2545782.3400000017}},{"attributes":{"ID":294457,"DIS_CODE":0,"TOWNNAME":"北區","LI":"光武里","LIN":"17鄰","STREET":"北門路","SECT":"二段","MAREA":" ","LANE":"５７７巷","ALLEY":" ","HOUSE_NO":"８號十一樓之５","E_COORD97":169621.23999999999,"N_COORD97":2545782.3399999999,"ADDRESS":"北門路二段５７７巷８號十一樓之５","OBJECTID":294449},"geometry":{"x":169621.24000000115,"y":2545782.3400000017}},{"attributes":{"ID":294458,"DIS_CODE":0,"TOWNNAME":"新市區","LI":"社內里","LIN":"13鄰","STREET":" ","SECT":" ","MAREA":"社內","LANE":" ","ALLEY":" ","HOUSE_NO":"１３６號","E_COORD97":176317.31,"N_COORD97":2552765,"ADDRESS":"社內１３６號","OBJECTID":294450},"geometry":{"x":176317.31000000052,"y":2552765.0000000019}},{"attributes":{"ID":294459,"DIS_CODE":0,"TOWNNAME":"新市區","LI":"大社里","LIN":"4鄰","STREET":" ","SECT":" ","MAREA":"大社","LANE":" ","ALLEY":" ","HOUSE_NO":"１９８號","E_COORD97":180084.87,"N_COORD97":2554385.25,"ADDRESS":"大社１９８號","OBJECTID":294451},"geometry":{"x":180084.87000000011,"y":2554385.25}},{"attributes":{"ID":294460,"DIS_CODE":0,"TOWNNAME":"北區","LI":"大道里","LIN":"17鄰","STREET":"北門路","SECT":"二段","MAREA":" ","LANE":"５２７巷","ALLEY":" ","HOUSE_NO":"１０號二樓","E_COORD97":169577.42999999999,"N_COORD97":2545660.8900000001,"ADDRESS":"北門路二段５２７巷１０號二樓","OBJECTID":294452},"geometry":{"x":169577.4299999997,"y":2545660.8900000025}},{"attributes":{"ID":294461,"DIS_CODE":0,"TOWNNAME":"新市區","LI":"大社里","LIN":"26鄰","STREET":" ","SECT":" ","MAREA":"大社","LANE":" ","ALLEY":" ","HOUSE_NO":"６５２號","E_COORD97":180004.73000000001,"N_COORD97":2554361.5,"ADDRESS":"大社６５２號","OBJECTID":294453},"geometry":{"x":180004.73000000138,"y":2554361.5000000037}},{"attributes":{"ID":294462,"DIS_CODE":0,"TOWNNAME":"新營區","LI":"中營里","LIN":"14鄰","STREET":"東山路","SECT":" ","MAREA":" ","LANE":" ","ALLEY":" ","HOUSE_NO":"１８１號","E_COORD97":181790.82999999999,"N_COORD97":2578741.5600000001,"ADDRESS":"東山路１８１號","OBJECTID":294454},"geometry":{"x":181790.83000000007,"y":2578741.5600000005}},{"attributes":{"ID":294463,"DIS_CODE":0,"TOWNNAME":"新市區","LI":"社內里","LIN":"13鄰","STREET":" ","SECT":" ","MAREA":"社內","LANE":" ","ALLEY":" ","HOUSE_NO":"１３６之３號","E_COORD97":176321.56,"N_COORD97":2552762.0499999998,"ADDRESS":"社內１３６之３號","OBJECTID":294455},"geometry":{"x":176321.55999999959,"y":2552762.0500000026}},{"attributes":{"ID":294464,"DIS_CODE":0,"TOWNNAME":"新市區","LI":"社內里","LIN":"4鄰","STREET":" ","SECT":" ","MAREA":"社內","LANE":" ","ALLEY":" ","HOUSE_NO":"４７號","E_COORD97":176597.92000000001,"N_COORD97":2552313.75,"ADDRESS":"社內４７號","OBJECTID":294456},"geometry":{"x":176597.91999999993,"y":2552313.75}},{"attributes":{"ID":294465,"DIS_CODE":0,"TOWNNAME":"新市區","LI":"永就里","LIN":"8鄰","STREET":" ","SECT":" ","MAREA":"永就","LANE":" ","ALLEY":" ","HOUSE_NO":"８８號","E_COORD97":177548.10999999999,"N_COORD97":2551494.25,"ADDRESS":"永就８８號","OBJECTID":294457},"geometry":{"x":177548.11000000034,"y":2551494.25}},{"attributes":{"ID":294466,"DIS_CODE":0,"TOWNNAME":"新市區","LI":"社內里","LIN":"4鄰","STREET":" ","SECT":" ","MAREA":"社內","LANE":" ","ALLEY":" ","HOUSE_NO":"４３之４號","E_COORD97":176562.03,"N_COORD97":2552388.2999999998,"ADDRESS":"社內４３之４號","OBJECTID":294458},"geometry":{"x":176562.03000000026,"y":2552388.3000000026}},{"attributes":{"ID":294467,"DIS_CODE":0,"TOWNNAME":"新營區","LI":"中營里","LIN":"14鄰","STREET":"東山路","SECT":" ","MAREA":" ","LANE":" ","ALLEY":" ","HOUSE_NO":"１６５號之１","E_COORD97":181731.57999999999,"N_COORD97":2578736.3599999999,"ADDRESS":"東山路１６５號之１","OBJECTID":294459},"geometry":{"x":181731.58000000007,"y":2578736.3600000013}},{"attributes":{"ID":294468,"DIS_CODE":0,"TOWNNAME":"新市區","LI":"港墘里","LIN":"24鄰","STREET":"光華街","SECT":" ","MAREA":" ","LANE":"１５４巷","ALLEY":" ","HOUSE_NO":"１２號","E_COORD97":177922.06,"N_COORD97":2552858.25,"ADDRESS":"光華街１５４巷１２號","OBJECTID":294460},"geometry":{"x":177922.05999999959,"y":2552858.2500000019}},{"attributes":{"ID":294469,"DIS_CODE":0,"TOWNNAME":"新市區","LI":"新市里","LIN":"8鄰","STREET":"民生路","SECT":" ","MAREA":" ","LANE":"２巷","ALLEY":" ","HOUSE_NO":"２０號","E_COORD97":177411.60000000001,"N_COORD97":2553194.29,"ADDRESS":"民生路２巷２０號","OBJECTID":294461},"geometry":{"x":177411.59999999963,"y":2553194.2899999991}},{"attributes":{"ID":294470,"DIS_CODE":0,"TOWNNAME":"新市區","LI":"大社里","LIN":"32鄰","STREET":" ","SECT":" ","MAREA":"大社","LANE":" ","ALLEY":" ","HOUSE_NO":"２８４之２９號","E_COORD97":180630.89999999999,"N_COORD97":2554684.2999999998,"ADDRESS":"大社２８４之２９號","OBJECTID":294462},"geometry":{"x":180630.90000000037,"y":2554684.3000000007}},{"attributes":{"ID":294471,"DIS_CODE":0,"TOWNNAME":"新市區","LI":"港墘里","LIN":"8鄰","STREET":" ","SECT":" ","MAREA":"崙頂","LANE":" ","ALLEY":" ","HOUSE_NO":"１８號","E_COORD97":178979.98999999999,"N_COORD97":2552599.25,"ADDRESS":"崙頂１８號","OBJECTID":294463},"geometry":{"x":178979.99000000115,"y":2552599.25}},{"attributes":{"ID":294472,"DIS_CODE":0,"TOWNNAME":"新市區","LI":"社內里","LIN":"4鄰","STREET":" ","SECT":" ","MAREA":"社內","LANE":" ","ALLEY":" ","HOUSE_NO":"４５之４號","E_COORD97":176591.23000000001,"N_COORD97":2552363.0499999998,"ADDRESS":"社內４５之４號","OBJECTID":294464},"geometry":{"x":176591.23000000045,"y":2552363.0500000026}},{"attributes":{"ID":294473,"DIS_CODE":0,"TOWNNAME":"新市區","LI":"大營里","LIN":"20鄰","STREET":" ","SECT":" ","MAREA":"豐榮","LANE":" ","ALLEY":" ","HOUSE_NO":"５２之１０號","E_COORD97":178813.39999999999,"N_COORD97":2554205.2999999998,"ADDRESS":"豐榮５２之１０號","OBJECTID":294465},"geometry":{"x":178813.4000000013,"y":2554205.3000000026}},{"attributes":{"ID":294474,"DIS_CODE":0,"TOWNNAME":"新市區","LI":"社內里","LIN":"4鄰","STREET":" ","SECT":" ","MAREA":"社內","LANE":" ","ALLEY":" ","HOUSE_NO":"５０之１３號","E_COORD97":176613.79000000001,"N_COORD97":2552178.2999999998,"ADDRESS":"社內５０之１３號","OBJECTID":294466},"geometry":{"x":176613.79000000004,"y":2552178.3000000026}},{"attributes":{"ID":294475,"DIS_CODE":0,"TOWNNAME":"新市區","LI":"社內里","LIN":"4鄰","STREET":" ","SECT":" ","MAREA":"社內","LANE":" ","ALLEY":" ","HOUSE_NO":"４２之６號","E_COORD97":176595.04000000001,"N_COORD97":2552306.2999999998,"ADDRESS":"社內４２之６號","OBJECTID":294467},"geometry":{"x":176595.04000000004,"y":2552306.3000000026}},{"attributes":{"ID":294476,"DIS_CODE":0,"TOWNNAME":"新市區","LI":"社內里","LIN":"4鄰","STREET":" ","SECT":" ","MAREA":"社內","LANE":" ","ALLEY":" ","HOUSE_NO":"４１之１號","E_COORD97":176643.23000000001,"N_COORD97":2552406.2999999998,"ADDRESS":"社內４１之１號","OBJECTID":294468},"geometry":{"x":176643.23000000138,"y":2552406.3000000007}},{"attributes":{"ID":294477,"DIS_CODE":0,"TOWNNAME":"新市區","LI":"港墘里","LIN":"18鄰","STREET":"華美街","SECT":" ","MAREA":" ","LANE":"１巷","ALLEY":" ","HOUSE_NO":"９號","E_COORD97":178078.35000000001,"N_COORD97":2552669.0499999998,"ADDRESS":"華美街１巷９號","OBJECTID":294469},"geometry":{"x":178078.35000000149,"y":2552669.0500000007}},{"attributes":{"ID":294478,"DIS_CODE":0,"TOWNNAME":"新市區","LI":"港墘里","LIN":"4鄰","STREET":"三民街","SECT":" ","MAREA":" ","LANE":"７０巷","ALLEY":" ","HOUSE_NO":"９號","E_COORD97":178497.56,"N_COORD97":2553507.04,"ADDRESS":"三民街７０巷９號","OBJECTID":294470},"geometry":{"x":178497.56000000052,"y":2553507.040000001}},{"attributes":{"ID":294479,"DIS_CODE":0,"TOWNNAME":"安南區","LI":"新順里","LIN":"5鄰","STREET":"安豐六街","SECT":" ","MAREA":" ","LANE":"１０巷","ALLEY":" ","HOUSE_NO":"７５號","E_COORD97":169263.54000000001,"N_COORD97":2549424.1200000001,"ADDRESS":"安豐六街１０巷７５號","OBJECTID":294471},"geometry":{"x":169263.54000000004,"y":2549424.120000001}},{"attributes":{"ID":294480,"DIS_CODE":0,"TOWNNAME":"安南區","LI":"長安里","LIN":"5鄰","STREET":"公學路","SECT":"二段","MAREA":" ","LANE":"２７５巷","ALLEY":" ","HOUSE_NO":"２９號之１","E_COORD97":167296.28,"N_COORD97":2551971.8700000001,"ADDRESS":"公學路二段２７５巷２９號之１","OBJECTID":294472},"geometry":{"x":167296.28000000212,"y":2551971.870000001}},{"attributes":{"ID":294481,"DIS_CODE":0,"TOWNNAME":"新市區","LI":"社內里","LIN":"13鄰","STREET":" ","SECT":" ","MAREA":"社內","LANE":" ","ALLEY":" ","HOUSE_NO":"１４３之８８號","E_COORD97":176277.39999999999,"N_COORD97":2551966.7999999998,"ADDRESS":"社內１４３之８８號","OBJECTID":294473},"geometry":{"x":176277.4000000013,"y":2551966.8000000045}},{"attributes":{"ID":294482,"DIS_CODE":0,"TOWNNAME":"七股區","LI":"七股里","LIN":"4鄰","STREET":" ","SECT":" ","MAREA":"七股","LANE":" ","ALLEY":" ","HOUSE_NO":"３４號之１","E_COORD97":160951.25,"N_COORD97":2559439.6000000001,"ADDRESS":"七股３４號之１","OBJECTID":294474},"geometry":{"x":160951.25000000093,"y":2559439.6000000015}},{"attributes":{"ID":294483,"DIS_CODE":0,"TOWNNAME":"新營區","LI":"王公里","LIN":"14鄰","STREET":"中正路","SECT":" ","MAREA":" ","LANE":" ","ALLEY":" ","HOUSE_NO":"１０２之３號","E_COORD97":180110.60999999999,"N_COORD97":2579359.6600000001,"ADDRESS":"中正路１０２之３號","OBJECTID":294475},"geometry":{"x":180110.61000000034,"y":2579359.6600000001}},{"attributes":{"ID":294484,"DIS_CODE":0,"TOWNNAME":"新營區","LI":"民權里","LIN":"14鄰","STREET":"仁愛街","SECT":" ","MAREA":" ","LANE":" ","ALLEY":" ","HOUSE_NO":"３８號","E_COORD97":179784.14000000001,"N_COORD97":2578365.54,"ADDRESS":"仁愛街３８號","OBJECTID":294476},"geometry":{"x":179784.1400000006,"y":2578365.540000001}},{"attributes":{"ID":294485,"DIS_CODE":0,"TOWNNAME":"新營區","LI":"三仙里","LIN":"14鄰","STREET":"中華路","SECT":" ","MAREA":" ","LANE":" ","ALLEY":" ","HOUSE_NO":"６２號之２","E_COORD97":179550.26000000001,"N_COORD97":2578196.1600000001,"ADDRESS":"中華路６２號之２","OBJECTID":294477},"geometry":{"x":179550.25999999978,"y":2578196.160000002}},{"attributes":{"ID":294486,"DIS_CODE":0,"TOWNNAME":"新營區","LI":"三仙里","LIN":"14鄰","STREET":"中華路","SECT":" ","MAREA":" ","LANE":" ","ALLEY":" ","HOUSE_NO":"６８號","E_COORD97":179517.29999999999,"N_COORD97":2578192.9300000002,"ADDRESS":"中華路６８號","OBJECTID":294478},"geometry":{"x":179517.29999999981,"y":2578192.9300000016}},{"attributes":{"ID":294487,"DIS_CODE":0,"TOWNNAME":"新營區","LI":"三仙里","LIN":"14鄰","STREET":"中華路","SECT":" ","MAREA":" ","LANE":" ","ALLEY":" ","HOUSE_NO":"６４號之２","E_COORD97":179540.03,"N_COORD97":2578195.1000000001,"ADDRESS":"中華路６４號之２","OBJECTID":294479},"geometry":{"x":179540.03000000026,"y":2578195.1000000015}},{"attributes":{"ID":294488,"DIS_CODE":0,"TOWNNAME":"新營區","LI":"王公里","LIN":"14鄰","STREET":"中正路","SECT":" ","MAREA":" ","LANE":" ","ALLEY":" ","HOUSE_NO":"１０２號","E_COORD97":180109.07000000001,"N_COORD97":2579346.3199999998,"ADDRESS":"中正路１０２號","OBJECTID":294480},"geometry":{"x":180109.07000000123,"y":2579346.3200000003}},{"attributes":{"ID":294489,"DIS_CODE":0,"TOWNNAME":"新營區","LI":"民權里","LIN":"14鄰","STREET":"武昌街","SECT":" ","MAREA":" ","LANE":" ","ALLEY":" ","HOUSE_NO":"３４號","E_COORD97":179833.19,"N_COORD97":2578353.1200000001,"ADDRESS":"武昌街３４號","OBJECTID":294481},"geometry":{"x":179833.19000000134,"y":2578353.1200000029}},{"attributes":{"ID":294490,"DIS_CODE":0,"TOWNNAME":"安南區","LI":"安慶里","LIN":"13鄰","STREET":"培安路","SECT":" ","MAREA":" ","LANE":"２６７巷","ALLEY":" ","HOUSE_NO":"８號","E_COORD97":169330.29000000001,"N_COORD97":2548921.3500000001,"ADDRESS":"培安路２６７巷８號","OBJECTID":294482},"geometry":{"x":169330.2900000019,"y":2548921.3500000015}},{"attributes":{"ID":294491,"DIS_CODE":0,"TOWNNAME":"安南區","LI":"東和里","LIN":"4鄰","STREET":"長和路","SECT":"一段","MAREA":" ","LANE":"８２３巷","ALLEY":" ","HOUSE_NO":"１５６號","E_COORD97":170854.99226,"N_COORD97":2550961.8460200001,"ADDRESS":"長和路一段８２３巷１５６號","OBJECTID":294483},"geometry":{"x":170854.99225999974,"y":2550961.8460200019}},{"attributes":{"ID":294492,"DIS_CODE":0,"TOWNNAME":"安南區","LI":"安西里","LIN":"13鄰","STREET":"安和路","SECT":"一段","MAREA":" ","LANE":"１５９巷","ALLEY":" ","HOUSE_NO":"４６之１號","E_COORD97":169259.73000000001,"N_COORD97":2547809.54,"ADDRESS":"安和路一段１５９巷４６之１號","OBJECTID":294484},"geometry":{"x":169259.72999999952,"y":2547809.5399999991}},{"attributes":{"ID":294493,"DIS_CODE":0,"TOWNNAME":"安南區","LI":"安東里","LIN":"13鄰","STREET":"安和路","SECT":"一段","MAREA":" ","LANE":"２２０巷","ALLEY":" ","HOUSE_NO":"７０號","E_COORD97":169512.37,"N_COORD97":2548027.6000000001,"ADDRESS":"安和路一段２２０巷７０號","OBJECTID":294485},"geometry":{"x":169512.37000000011,"y":2548027.6000000015}},{"attributes":{"ID":294494,"DIS_CODE":0,"TOWNNAME":"安南區","LI":"城南里","LIN":"13鄰","STREET":"城西街","SECT":"二段","MAREA":" ","LANE":"２６３巷","ALLEY":" ","HOUSE_NO":"５０號","E_COORD97":159689.28,"N_COORD97":2550831.2999999998,"ADDRESS":"城西街二段２６３巷５０號","OBJECTID":294486},"geometry":{"x":159689.28000000026,"y":2550831.3000000026}},{"attributes":{"ID":294495,"DIS_CODE":0,"TOWNNAME":"安南區","LI":"城南里","LIN":"13鄰","STREET":"城西街","SECT":"二段","MAREA":" ","LANE":"２６３巷","ALLEY":" ","HOUSE_NO":"５２號","E_COORD97":159691.72,"N_COORD97":2550827.9500000002,"ADDRESS":"城西街二段２６３巷５２號","OBJECTID":294487},"geometry":{"x":159691.72000000067,"y":2550827.9499999993}},{"attributes":{"ID":294496,"DIS_CODE":0,"TOWNNAME":"安南區","LI":"城南里","LIN":"13鄰","STREET":"城西街","SECT":"二段","MAREA":" ","LANE":"２６３巷","ALLEY":" ","HOUSE_NO":"５４號","E_COORD97":159692.32999999999,"N_COORD97":2550823.6899999999,"ADDRESS":"城西街二段２６３巷５４號","OBJECTID":294488},"geometry":{"x":159692.33000000007,"y":2550823.6900000032}},{"attributes":{"ID":294497,"DIS_CODE":0,"TOWNNAME":"安南區","LI":"城南里","LIN":"13鄰","STREET":"城西街","SECT":"二段","MAREA":" ","LANE":"２６３巷","ALLEY":" ","HOUSE_NO":"５６號","E_COORD97":159692.94,"N_COORD97":2550820.0299999998,"ADDRESS":"城西街二段２６３巷５６號","OBJECTID":294489},"geometry":{"x":159692.94000000134,"y":2550820.0299999993}},{"attributes":{"ID":294498,"DIS_CODE":0,"TOWNNAME":"安南區","LI":"總頭里","LIN":"4鄰","STREET":"長溪路","SECT":"二段","MAREA":" ","LANE":"５７０巷","ALLEY":" ","HOUSE_NO":"１２號","E_COORD97":168294.59,"N_COORD97":2550589.1200000001,"ADDRESS":"長溪路二段５７０巷１２號","OBJECTID":294490},"geometry":{"x":168294.59000000078,"y":2550589.1200000029}},{"attributes":{"ID":294499,"DIS_CODE":0,"TOWNNAME":"安南區","LI":"安順里","LIN":"17鄰","STREET":"開安二街","SECT":" ","MAREA":" ","LANE":" ","ALLEY":" ","HOUSE_NO":"１３號","E_COORD97":170502.28,"N_COORD97":2549795.96,"ADDRESS":"開安二街１３號","OBJECTID":294491},"geometry":{"x":170502.28000000119,"y":2549795.9600000046}},{"attributes":{"ID":294500,"DIS_CODE":0,"TOWNNAME":"安南區","LI":"溪心里","LIN":"13鄰","STREET":"樂安二街","SECT":" ","MAREA":" ","LANE":" ","ALLEY":" ","HOUSE_NO":"２５號","E_COORD97":166107.23999999999,"N_COORD97":2549702.5800000001,"ADDRESS":"樂安二街２５號","OBJECTID":294492},"geometry":{"x":166107.24000000115,"y":2549702.5800000038}},{"attributes":{"ID":294501,"DIS_CODE":0,"TOWNNAME":"安南區","LI":"佃西里","LIN":"13鄰","STREET":"海佃路","SECT":"四段","MAREA":" ","LANE":" ","ALLEY":" ","HOUSE_NO":"４６９之１號","E_COORD97":165382.42999999999,"N_COORD97":2551563.4399999999,"ADDRESS":"海佃路四段４６９之１號","OBJECTID":294493},"geometry":{"x":165382.43000000156,"y":2551563.4399999995}},{"attributes":{"ID":294502,"DIS_CODE":0,"TOWNNAME":"安南區","LI":"學東里","LIN":"14鄰","STREET":"安明路","SECT":"四段","MAREA":" ","LANE":" ","ALLEY":" ","HOUSE_NO":"１１４６號","E_COORD97":161436.48000000001,"N_COORD97":2553238.3700000001,"ADDRESS":"安明路四段１１４６號","OBJECTID":294494},"geometry":{"x":161436.48000000231,"y":2553238.3700000029}},{"attributes":{"ID":294503,"DIS_CODE":0,"TOWNNAME":"安南區","LI":"新順里","LIN":"13鄰","STREET":"永安路","SECT":" ","MAREA":" ","LANE":" ","ALLEY":" ","HOUSE_NO":"２１號","E_COORD97":170093.34,"N_COORD97":2549528.7000000002,"ADDRESS":"永安路２１號","OBJECTID":294495},"geometry":{"x":170093.34000000078,"y":2549528.7000000011}},{"attributes":{"ID":294504,"DIS_CODE":0,"TOWNNAME":"安南區","LI":"新順里","LIN":"13鄰","STREET":"永安路","SECT":" ","MAREA":" ","LANE":" ","ALLEY":" ","HOUSE_NO":"８１號","E_COORD97":170416.09,"N_COORD97":2549348.6400000001,"ADDRESS":"永安路８１號","OBJECTID":294496},"geometry":{"x":170416.08999999985,"y":2549348.6400000006}},{"attributes":{"ID":294505,"DIS_CODE":0,"TOWNNAME":"安南區","LI":"長安里","LIN":"20鄰","STREET":"長溪路","SECT":"三段","MAREA":" ","LANE":" ","ALLEY":" ","HOUSE_NO":"４１２號","E_COORD97":167660.76999999999,"N_COORD97":2552068.27,"ADDRESS":"長溪路三段４１２號","OBJECTID":294497},"geometry":{"x":167660.77000000048,"y":2552068.2700000014}},{"attributes":{"ID":294506,"DIS_CODE":0,"TOWNNAME":"安南區","LI":"溪墘里","LIN":"25鄰","STREET":"府安路","SECT":"五段","MAREA":" ","LANE":" ","ALLEY":" ","HOUSE_NO":"２５７之１號","E_COORD97":167336.10000000001,"N_COORD97":2546825.2999999998,"ADDRESS":"府安路五段２５７之１號","OBJECTID":294498},"geometry":{"x":167336.10000000056,"y":2546825.3000000007}},{"attributes":{"ID":294507,"DIS_CODE":0,"TOWNNAME":"安南區","LI":"城東里","LIN":"13鄰","STREET":"城安東街","SECT":" ","MAREA":" ","LANE":" ","ALLEY":" ","HOUSE_NO":"６５號","E_COORD97":160749.92999999999,"N_COORD97":2551835.1600000001,"ADDRESS":"城安東街６５號","OBJECTID":294499},"geometry":{"x":160749.93000000063,"y":2551835.160000002}},{"attributes":{"ID":294508,"DIS_CODE":0,"TOWNNAME":"仁德區","LI":"土庫里","LIN":"7鄰","STREET":"土庫路","SECT":" ","MAREA":" ","LANE":" ","ALLEY":" ","HOUSE_NO":"６２號","E_COORD97":174256.19,"N_COORD97":2543183.4900000002,"ADDRESS":"土庫路６２號","OBJECTID":294500},"geometry":{"x":174256.19000000134,"y":2543183.4899999984}},{"attributes":{"ID":294509,"DIS_CODE":0,"TOWNNAME":"仁德區","LI":"一甲里","LIN":"20鄰","STREET":"太乙七街","SECT":" ","MAREA":" ","LANE":" ","ALLEY":" ","HOUSE_NO":"３０號","E_COORD97":173117.87,"N_COORD97":2542387.0099999998,"ADDRESS":"太乙七街３０號","OBJECTID":294501},"geometry":{"x":173117.87000000011,"y":2542387.0100000016}},{"attributes":{"ID":294510,"DIS_CODE":0,"TOWNNAME":"仁德區","LI":"土庫里","LIN":"13鄰","STREET":"土庫路","SECT":" ","MAREA":" ","LANE":" ","ALLEY":" ","HOUSE_NO":"２０１號","E_COORD97":174311.62,"N_COORD97":2542920.25,"ADDRESS":"土庫路２０１號","OBJECTID":294502},"geometry":{"x":174311.62000000011,"y":2542920.25}},{"attributes":{"ID":294511,"DIS_CODE":0,"TOWNNAME":"七股區","LI":"七股里","LIN":"4鄰","STREET":" ","SECT":" ","MAREA":"七股","LANE":" ","ALLEY":" ","HOUSE_NO":"３２號","E_COORD97":160967.26000000001,"N_COORD97":2559434.3700000001,"ADDRESS":"七股３２號","OBJECTID":294503},"geometry":{"x":160967.25999999978,"y":2559434.370000001}},{"attributes":{"ID":294512,"DIS_CODE":0,"TOWNNAME":"七股區","LI":"七股里","LIN":"15鄰","STREET":" ","SECT":" ","MAREA":"七股","LANE":" ","ALLEY":" ","HOUSE_NO":"２號之１０","E_COORD97":161246.47,"N_COORD97":2559178.0499999998,"ADDRESS":"七股２號之１０","OBJECTID":294504},"geometry":{"x":161246.47000000067,"y":2559178.0500000007}},{"attributes":{"ID":294513,"DIS_CODE":0,"TOWNNAME":"七股區","LI":"七股里","LIN":"8鄰","STREET":" ","SECT":" ","MAREA":"七股","LANE":" ","ALLEY":" ","HOUSE_NO":"８０號","E_COORD97":160763.23999999999,"N_COORD97":2559416.8700000001,"ADDRESS":"七股８０號","OBJECTID":294505},"geometry":{"x":160763.24000000209,"y":2559416.870000001}},{"attributes":{"ID":294514,"DIS_CODE":0,"TOWNNAME":"七股區","LI":"七股里","LIN":"1鄰","STREET":" ","SECT":" ","MAREA":"七股","LANE":" ","ALLEY":" ","HOUSE_NO":"９號","E_COORD97":161124.67000000001,"N_COORD97":2559343.0099999998,"ADDRESS":"七股９號","OBJECTID":294506},"geometry":{"x":161124.67000000086,"y":2559343.0100000016}},{"attributes":{"ID":294515,"DIS_CODE":0,"TOWNNAME":"七股區","LI":"七股里","LIN":"5鄰","STREET":" ","SECT":" ","MAREA":"七股","LANE":" ","ALLEY":" ","HOUSE_NO":"５０號","E_COORD97":160871.5,"N_COORD97":2559349.23,"ADDRESS":"七股５０號","OBJECTID":294507},"geometry":{"x":160871.50000000186,"y":2559349.2300000023}},{"attributes":{"ID":294516,"DIS_CODE":0,"TOWNNAME":"七股區","LI":"三股里","LIN":"1鄰","STREET":" ","SECT":" ","MAREA":"三股","LANE":" ","ALLEY":" ","HOUSE_NO":"１號","E_COORD97":159913.94,"N_COORD97":2555629.7999999998,"ADDRESS":"三股１號","OBJECTID":294508},"geometry":{"x":159913.94000000041,"y":2555629.8000000026}},{"attributes":{"ID":294517,"DIS_CODE":0,"TOWNNAME":"七股區","LI":"三股里","LIN":"10鄰","STREET":" ","SECT":" ","MAREA":"三股","LANE":" ","ALLEY":" ","HOUSE_NO":"１１０號","E_COORD97":158410.67000000001,"N_COORD97":2555847.27,"ADDRESS":"三股１１０號","OBJECTID":294509},"geometry":{"x":158410.67000000086,"y":2555847.2699999996}},{"attributes":{"ID":294518,"DIS_CODE":0,"TOWNNAME":"安南區","LI":"城南里","LIN":"4鄰","STREET":"城西街","SECT":"一段","MAREA":" ","LANE":"６１巷","ALLEY":" ","HOUSE_NO":"１１４號","E_COORD97":160670.75,"N_COORD97":2551224.2000000002,"ADDRESS":"城西街一段６１巷１１４號","OBJECTID":294510},"geometry":{"x":160670.75,"y":2551224.2000000011}},{"attributes":{"ID":294519,"DIS_CODE":0,"TOWNNAME":"安南區","LI":"溪東里","LIN":"4鄰","STREET":"府安路","SECT":"五段","MAREA":" ","LANE":"９８巷","ALLEY":" ","HOUSE_NO":"２之１號","E_COORD97":168074,"N_COORD97":2547155.46,"ADDRESS":"府安路五段９８巷２之１號","OBJECTID":294511},"geometry":{"x":168074,"y":2547155.4600000028}},{"attributes":{"ID":294520,"DIS_CODE":0,"TOWNNAME":"安南區","LI":"幸福里","LIN":"18鄰","STREET":"府安路","SECT":"六段","MAREA":" ","LANE":"２７巷","ALLEY":" ","HOUSE_NO":"２號","E_COORD97":167056.13,"N_COORD97":2546716.5800000001,"ADDRESS":"府安路六段２７巷２號","OBJECTID":294512},"geometry":{"x":167056.13000000175,"y":2546716.5800000019}},{"attributes":{"ID":294521,"DIS_CODE":0,"TOWNNAME":"安南區","LI":"新順里","LIN":"13鄰","STREET":"永安路","SECT":" ","MAREA":" ","LANE":"７１巷","ALLEY":" ","HOUSE_NO":"２０號","E_COORD97":170375.70999999999,"N_COORD97":2549523.5499999998,"ADDRESS":"永安路７１巷２０號","OBJECTID":294513},"geometry":{"x":170375.71000000089,"y":2549523.5500000007}},{"attributes":{"ID":294522,"DIS_CODE":0,"TOWNNAME":"佳里區","LI":"六安里","LIN":"12鄰","STREET":" ","SECT":" ","MAREA":"六安","LANE":" ","ALLEY":" ","HOUSE_NO":"９２號","E_COORD97":165971.12,"N_COORD97":2563359.1099999999,"ADDRESS":"六安９２號","OBJECTID":294514},"geometry":{"x":165971.12000000011,"y":2563359.1100000013}},{"attributes":{"ID":294523,"DIS_CODE":0,"TOWNNAME":"安南區","LI":"佃東里","LIN":"17鄰","STREET":"公學路","SECT":"四段","MAREA":" ","LANE":"５４巷","ALLEY":" ","HOUSE_NO":"１１７號","E_COORD97":165886.75,"N_COORD97":2552144.3399999999,"ADDRESS":"公學路四段５４巷１１７號","OBJECTID":294515},"geometry":{"x":165886.75,"y":2552144.3399999999}},{"attributes":{"ID":294524,"DIS_CODE":0,"TOWNNAME":"安南區","LI":"\u25A0南里","LIN":"20鄰","STREET":"環福街","SECT":" ","MAREA":" ","LANE":"１０６巷","ALLEY":" ","HOUSE_NO":"６２號","E_COORD97":170485.22,"N_COORD97":2552396.5499999998,"ADDRESS":"環福街１０６巷６２號","OBJECTID":294516},"geometry":{"x":170485.22000000067,"y":2552396.5500000026}},{"attributes":{"ID":294525,"DIS_CODE":0,"TOWNNAME":"安南區","LI":"海佃里","LIN":"26鄰","STREET":"國安街","SECT":" ","MAREA":" ","LANE":"１５６巷","ALLEY":" ","HOUSE_NO":"５４號","E_COORD97":166725.70999999999,"N_COORD97":2547124,"ADDRESS":"國安街１５６巷５４號","OBJECTID":294517},"geometry":{"x":166725.71000000089,"y":2547124.0000000019}},{"attributes":{"ID":294526,"DIS_CODE":0,"TOWNNAME":"安南區","LI":"新順里","LIN":"25鄰","STREET":"培安路","SECT":" ","MAREA":" ","LANE":"１９５巷","ALLEY":" ","HOUSE_NO":"４５號","E_COORD97":169293.39000000001,"N_COORD97":2549213.5499999998,"ADDRESS":"培安路１９５巷４５號","OBJECTID":294518},"geometry":{"x":169293.38999999966,"y":2549213.5500000026}},{"attributes":{"ID":294527,"DIS_CODE":0,"TOWNNAME":"北區","LI":"大道里","LIN":"17鄰","STREET":"北門路","SECT":"二段","MAREA":" ","LANE":"５２７巷","ALLEY":" ","HOUSE_NO":"１０號三樓之５","E_COORD97":169577.42999999999,"N_COORD97":2545660.8900000001,"ADDRESS":"北門路二段５２７巷１０號三樓之５","OBJECTID":294519},"geometry":{"x":169577.4299999997,"y":2545660.8900000025}},{"attributes":{"ID":294528,"DIS_CODE":0,"TOWNNAME":"北區","LI":"大道里","LIN":"17鄰","STREET":"北門路","SECT":"二段","MAREA":" ","LANE":"５２７巷","ALLEY":" ","HOUSE_NO":"１０號三樓之３","E_COORD97":169577.42999999999,"N_COORD97":2545660.8900000001,"ADDRESS":"北門路二段５２７巷１０號三樓之３","OBJECTID":294520},"geometry":{"x":169577.4299999997,"y":2545660.8900000025}},{"attributes":{"ID":294529,"DIS_CODE":0,"TOWNNAME":"北區","LI":"大道里","LIN":"17鄰","STREET":"北門路","SECT":"二段","MAREA":" ","LANE":"５２７巷","ALLEY":" ","HOUSE_NO":"１０號三樓之２","E_COORD97":169577.42999999999,"N_COORD97":2545660.8900000001,"ADDRESS":"北門路二段５２７巷１０號三樓之２","OBJECTID":294521},"geometry":{"x":169577.4299999997,"y":2545660.8900000025}},{"attributes":{"ID":294530,"DIS_CODE":0,"TOWNNAME":"新營區","LI":"民權里","LIN":"14鄰","STREET":"武昌街","SECT":" ","MAREA":" ","LANE":" ","ALLEY":" ","HOUSE_NO":"３０之２號","E_COORD97":179850.98999999999,"N_COORD97":2578344.2400000002,"ADDRESS":"武昌街３０之２號","OBJECTID":294522},"geometry":{"x":179850.98999999929,"y":2578344.2400000021}},{"attributes":{"ID":294531,"DIS_CODE":0,"TOWNNAME":"新營區","LI":"民權里","LIN":"14鄰","STREET":"武昌街","SECT":" ","MAREA":" ","LANE":" ","ALLEY":" ","HOUSE_NO":"３０之１號","E_COORD97":179855.07999999999,"N_COORD97":2578344.2200000002,"ADDRESS":"武昌街３０之１號","OBJECTID":294523},"geometry":{"x":179855.08000000007,"y":2578344.2200000044}},{"attributes":{"ID":294532,"DIS_CODE":0,"TOWNNAME":"新營區","LI":"民權里","LIN":"14鄰","STREET":"武昌街","SECT":" ","MAREA":" ","LANE":" ","ALLEY":" ","HOUSE_NO":"２８號之２","E_COORD97":179870.17999999999,"N_COORD97":2578345.2599999998,"ADDRESS":"武昌街２８號之２","OBJECTID":294524},"geometry":{"x":179870.18000000063,"y":2578345.2599999998}},{"attributes":{"ID":294533,"DIS_CODE":0,"TOWNNAME":"新營區","LI":"民權里","LIN":"14鄰","STREET":"仁愛街","SECT":" ","MAREA":" ","LANE":" ","ALLEY":" ","HOUSE_NO":"３４號之１","E_COORD97":179788.29000000001,"N_COORD97":2578355.6099999999,"ADDRESS":"仁愛街３４號之１","OBJECTID":294525},"geometry":{"x":179788.29000000097,"y":2578355.6099999994}},{"attributes":{"ID":294534,"DIS_CODE":0,"TOWNNAME":"新營區","LI":"嘉芳里","LIN":"14鄰","STREET":"新工路","SECT":" ","MAREA":" ","LANE":" ","ALLEY":" ","HOUSE_NO":"１８號","E_COORD97":176536.37,"N_COORD97":2578352.5,"ADDRESS":"新工路１８號","OBJECTID":294526},"geometry":{"x":176536.37000000104,"y":2578352.5000000019}},{"attributes":{"ID":294535,"DIS_CODE":0,"TOWNNAME":"新營區","LI":"興安里","LIN":"14鄰","STREET":"延平路","SECT":" ","MAREA":" ","LANE":" ","ALLEY":" ","HOUSE_NO":"９７號","E_COORD97":179779.70999999999,"N_COORD97":2577670.0699999998,"ADDRESS":"延平路９７號","OBJECTID":294527},"geometry":{"x":179779.70999999903,"y":2577670.070000004}},{"attributes":{"ID":294536,"DIS_CODE":0,"TOWNNAME":"新營區","LI":"三仙里","LIN":"14鄰","STREET":"中華路","SECT":" ","MAREA":" ","LANE":" ","ALLEY":" ","HOUSE_NO":"６８之１號","E_COORD97":179511.60999999999,"N_COORD97":2578190.7999999998,"ADDRESS":"中華路６８之１號","OBJECTID":294528},"geometry":{"x":179511.61000000127,"y":2578190.8000000007}},{"attributes":{"ID":294537,"DIS_CODE":0,"TOWNNAME":"新營區","LI":"嘉芳里","LIN":"14鄰","STREET":"新工路","SECT":" ","MAREA":" ","LANE":" ","ALLEY":" ","HOUSE_NO":"１４之１號","E_COORD97":176533.04999999999,"N_COORD97":2578416.8100000001,"ADDRESS":"新工路１４之１號","OBJECTID":294529},"geometry":{"x":176533.05000000075,"y":2578416.8100000005}},{"attributes":{"ID":294538,"DIS_CODE":0,"TOWNNAME":"新化區","LI":"知義里","LIN":"14鄰","STREET":"復興路","SECT":" ","MAREA":" ","LANE":" ","ALLEY":" ","HOUSE_NO":"１５５號","E_COORD97":179458.12,"N_COORD97":2547823.25,"ADDRESS":"復興路１５５號","OBJECTID":294530},"geometry":{"x":179458.12000000011,"y":2547823.2500000037}},{"attributes":{"ID":294539,"DIS_CODE":0,"TOWNNAME":"新化區","LI":"知義里","LIN":"14鄰","STREET":"復興路","SECT":" ","MAREA":" ","LANE":" ","ALLEY":" ","HOUSE_NO":"１３１號","E_COORD97":179469.51999999999,"N_COORD97":2547779.25,"ADDRESS":"復興路１３１號","OBJECTID":294531},"geometry":{"x":179469.52000000048,"y":2547779.2500000037}},{"attributes":{"ID":294540,"DIS_CODE":0,"TOWNNAME":"安南區","LI":"海佃里","LIN":"26鄰","STREET":"國安街","SECT":" ","MAREA":" ","LANE":"１５６巷","ALLEY":" ","HOUSE_NO":"３８號","E_COORD97":166731.70000000001,"N_COORD97":2547080.3799999999,"ADDRESS":"國安街１５６巷３８號","OBJECTID":294532},"geometry":{"x":166731.70000000019,"y":2547080.3800000008}},{"attributes":{"ID":294541,"DIS_CODE":0,"TOWNNAME":"新營區","LI":"太北里","LIN":"13鄰","STREET":" ","SECT":" ","MAREA":"太子宮","LANE":" ","ALLEY":" ","HOUSE_NO":"１１０號之１","E_COORD97":176004.64554999999,"N_COORD97":2577070.45101,"ADDRESS":"太子宮１１０號之１","OBJECTID":294533},"geometry":{"x":176004.64554999955,"y":2577070.4510060009}},{"attributes":{"ID":294542,"DIS_CODE":0,"TOWNNAME":"安南區","LI":"國安里","LIN":"13鄰","STREET":"國安街","SECT":" ","MAREA":" ","LANE":"２１０巷","ALLEY":" ","HOUSE_NO":"１１９號","E_COORD97":166533.20000000001,"N_COORD97":2547264.8599999999,"ADDRESS":"國安街２１０巷１１９號","OBJECTID":294534},"geometry":{"x":166533.20000000019,"y":2547264.8599999994}},{"attributes":{"ID":294543,"DIS_CODE":0,"TOWNNAME":"安南區","LI":"國安里","LIN":"13鄰","STREET":"國安街","SECT":" ","MAREA":" ","LANE":"２１０巷","ALLEY":" ","HOUSE_NO":"１２１號","E_COORD97":166532.19,"N_COORD97":2547268.6200000001,"ADDRESS":"國安街２１０巷１２１號","OBJECTID":294535},"geometry":{"x":166532.19000000041,"y":2547268.620000001}},{"attributes":{"ID":294544,"DIS_CODE":0,"TOWNNAME":"安南區","LI":"國安里","LIN":"13鄰","STREET":"國安街","SECT":" ","MAREA":" ","LANE":"２１０巷","ALLEY":" ","HOUSE_NO":"１２３號","E_COORD97":166531.41,"N_COORD97":2547273.1899999999,"ADDRESS":"國安街２１０巷１２３號","OBJECTID":294536},"geometry":{"x":166531.41000000108,"y":2547273.1899999995}},{"attributes":{"ID":294545,"DIS_CODE":0,"TOWNNAME":"安南區","LI":"國安里","LIN":"13鄰","STREET":"國安街","SECT":" ","MAREA":" ","LANE":"２１０巷","ALLEY":" ","HOUSE_NO":"１２７號","E_COORD97":166529.85999999999,"N_COORD97":2547281.48,"ADDRESS":"國安街２１０巷１２７號","OBJECTID":294537},"geometry":{"x":166529.86000000127,"y":2547281.4800000004}},{"attributes":{"ID":294546,"DIS_CODE":0,"TOWNNAME":"安南區","LI":"國安里","LIN":"13鄰","STREET":"國安街","SECT":" ","MAREA":" ","LANE":"２１０巷","ALLEY":" ","HOUSE_NO":"１２９號","E_COORD97":166529.07999999999,"N_COORD97":2547285.79,"ADDRESS":"國安街２１０巷１２９號","OBJECTID":294538},"geometry":{"x":166529.08000000007,"y":2547285.7899999991}},{"attributes":{"ID":294547,"DIS_CODE":0,"TOWNNAME":"安南區","LI":"國安里","LIN":"13鄰","STREET":"國安街","SECT":" ","MAREA":" ","LANE":"２１０巷","ALLEY":" ","HOUSE_NO":"１３５號","E_COORD97":166526.51999999999,"N_COORD97":2547299.04,"ADDRESS":"國安街２１０巷１３５號","OBJECTID":294539},"geometry":{"x":166526.52000000048,"y":2547299.040000001}},{"attributes":{"ID":294548,"DIS_CODE":0,"TOWNNAME":"安南區","LI":"國安里","LIN":"13鄰","STREET":"國安街","SECT":" ","MAREA":" ","LANE":"２１０巷","ALLEY":" ","HOUSE_NO":"１３７號","E_COORD97":166526.20999999999,"N_COORD97":2547303.8100000001,"ADDRESS":"國安街２１０巷１３７號","OBJECTID":294540},"geometry":{"x":166526.20999999996,"y":2547303.8100000005}},{"attributes":{"ID":294549,"DIS_CODE":0,"TOWNNAME":"安南區","LI":"頂安里","LIN":"20鄰","STREET":"長溪路","SECT":"一段","MAREA":" ","LANE":"３８７巷","ALLEY":" ","HOUSE_NO":"１號","E_COORD97":168613.42000000001,"N_COORD97":2548859.0800000001,"ADDRESS":"長溪路一段３８７巷１號","OBJECTID":294541},"geometry":{"x":168613.41999999993,"y":2548859.0800000019}},{"attributes":{"ID":294550,"DIS_CODE":0,"TOWNNAME":"安南區","LI":"頂安里","LIN":"20鄰","STREET":"長溪路","SECT":"一段","MAREA":" ","LANE":"３８７巷","ALLEY":" ","HOUSE_NO":"２７號","E_COORD97":168595.45000000001,"N_COORD97":2548810.6499999999,"ADDRESS":"長溪路一段３８７巷２７號","OBJECTID":294542},"geometry":{"x":168595.45000000112,"y":2548810.6499999985}},{"attributes":{"ID":294551,"DIS_CODE":0,"TOWNNAME":"北區","LI":"大道里","LIN":"17鄰","STREET":"北門路","SECT":"二段","MAREA":" ","LANE":"５２７巷","ALLEY":" ","HOUSE_NO":"１０號三樓之１","E_COORD97":169577.42999999999,"N_COORD97":2545660.8900000001,"ADDRESS":"北門路二段５２７巷１０號三樓之１","OBJECTID":294543},"geometry":{"x":169577.4299999997,"y":2545660.8900000025}},{"attributes":{"ID":294552,"DIS_CODE":0,"TOWNNAME":"北區","LI":"大道里","LIN":"17鄰","STREET":"北門路","SECT":"二段","MAREA":" ","LANE":"５２７巷","ALLEY":" ","HOUSE_NO":"１０號四樓之５","E_COORD97":169577.42999999999,"N_COORD97":2545660.8900000001,"ADDRESS":"北門路二段５２７巷１０號四樓之５","OBJECTID":294544},"geometry":{"x":169577.4299999997,"y":2545660.8900000025}},{"attributes":{"ID":294553,"DIS_CODE":0,"TOWNNAME":"北區","LI":"大道里","LIN":"17鄰","STREET":"北門路","SECT":"二段","MAREA":" ","LANE":"５２７巷","ALLEY":" ","HOUSE_NO":"１０號四樓之３","E_COORD97":169577.42999999999,"N_COORD97":2545660.8900000001,"ADDRESS":"北門路二段５２７巷１０號四樓之３","OBJECTID":294545},"geometry":{"x":169577.4299999997,"y":2545660.8900000025}},{"attributes":{"ID":294554,"DIS_CODE":0,"TOWNNAME":"佳里區","LI":"六安里","LIN":"12鄰","STREET":" ","SECT":" ","MAREA":"六安","LANE":" ","ALLEY":" ","HOUSE_NO":"９３號之１","E_COORD97":165979.12,"N_COORD97":2563374.8300000001,"ADDRESS":"六安９３號之１","OBJECTID":294546},"geometry":{"x":165979.12000000104,"y":2563374.8300000019}},{"attributes":{"ID":294555,"DIS_CODE":0,"TOWNNAME":"北區","LI":"大道里","LIN":"17鄰","STREET":"北門路","SECT":"二段","MAREA":" ","LANE":"５２７巷","ALLEY":" ","HOUSE_NO":"１０號四樓之２","E_COORD97":169577.42999999999,"N_COORD97":2545660.8900000001,"ADDRESS":"北門路二段５２７巷１０號四樓之２","OBJECTID":294547},"geometry":{"x":169577.4299999997,"y":2545660.8900000025}},{"attributes":{"ID":294556,"DIS_CODE":0,"TOWNNAME":"北區","LI":"大道里","LIN":"17鄰","STREET":"北門路","SECT":"二段","MAREA":" ","LANE":"５２７巷","ALLEY":" ","HOUSE_NO":"１０號四樓之１","E_COORD97":169577.42999999999,"N_COORD97":2545660.8900000001,"ADDRESS":"北門路二段５２７巷１０號四樓之１","OBJECTID":294548},"geometry":{"x":169577.4299999997,"y":2545660.8900000025}},{"attributes":{"ID":294557,"DIS_CODE":0,"TOWNNAME":"北區","LI":"大道里","LIN":"17鄰","STREET":"北門路","SECT":"二段","MAREA":" ","LANE":"５２７巷","ALLEY":" ","HOUSE_NO":"１０號五樓之５","E_COORD97":169577.42999999999,"N_COORD97":2545660.8900000001,"ADDRESS":"北門路二段５２７巷１０號五樓之５","OBJECTID":294549},"geometry":{"x":169577.4299999997,"y":2545660.8900000025}},{"attributes":{"ID":294558,"DIS_CODE":0,"TOWNNAME":"北區","LI":"大道里","LIN":"17鄰","STREET":"北門路","SECT":"二段","MAREA":" ","LANE":"５２７巷","ALLEY":" ","HOUSE_NO":"１０號五樓之３","E_COORD97":169577.42999999999,"N_COORD97":2545660.8900000001,"ADDRESS":"北門路二段５２７巷１０號五樓之３","OBJECTID":294550},"geometry":{"x":169577.4299999997,"y":2545660.8900000025}},{"attributes":{"ID":294559,"DIS_CODE":0,"TOWNNAME":"歸仁區","LI":"西埔里","LIN":"14鄰","STREET":"西埔二街","SECT":" ","MAREA":" ","LANE":" ","ALLEY":" ","HOUSE_NO":"１５號","E_COORD97":176927.94,"N_COORD97":2544741.25,"ADDRESS":"西埔二街１５號","OBJECTID":294551},"geometry":{"x":176927.94000000134,"y":2544741.2500000037}},{"attributes":{"ID":294560,"DIS_CODE":0,"TOWNNAME":"南區","LI":"文華里","LIN":"14鄰","STREET":"美南街","SECT":" ","MAREA":" ","LANE":" ","ALLEY":" ","HOUSE_NO":"２９號","E_COORD97":167039.04000000001,"N_COORD97":2543091.79,"ADDRESS":"美南街２９號","OBJECTID":294552},"geometry":{"x":167039.04000000097,"y":2543091.7899999991}},{"attributes":{"ID":294561,"DIS_CODE":0,"TOWNNAME":"北區","LI":"正覺里","LIN":"20鄰","STREET":"公園路","SECT":" ","MAREA":" ","LANE":" ","ALLEY":" ","HOUSE_NO":"６５１號","E_COORD97":169414.25,"N_COORD97":2546251.46,"ADDRESS":"公園路６５１號","OBJECTID":294553},"geometry":{"x":169414.25000000093,"y":2546251.4600000009}},{"attributes":{"ID":294562,"DIS_CODE":0,"TOWNNAME":"七股區","LI":"七股里","LIN":"4鄰","STREET":" ","SECT":" ","MAREA":"七股","LANE":" ","ALLEY":" ","HOUSE_NO":"３４號之２","E_COORD97":160946.28,"N_COORD97":2559437.4399999999,"ADDRESS":"七股３４號之２","OBJECTID":294554},"geometry":{"x":160946.28000000119,"y":2559437.4400000013}},{"attributes":{"ID":294563,"DIS_CODE":0,"TOWNNAME":"北區","LI":"正覺里","LIN":"20鄰","STREET":"公園路","SECT":" ","MAREA":" ","LANE":" ","ALLEY":" ","HOUSE_NO":"６５３號","E_COORD97":169417,"N_COORD97":2546254.29,"ADDRESS":"公園路６５３號","OBJECTID":294555},"geometry":{"x":169417.00000000186,"y":2546254.2899999991}},{"attributes":{"ID":294564,"DIS_CODE":0,"TOWNNAME":"北區","LI":"正覺里","LIN":"20鄰","STREET":"公園路","SECT":" ","MAREA":" ","LANE":" ","ALLEY":" ","HOUSE_NO":"６５５號","E_COORD97":169416.82999999999,"N_COORD97":2546260.6099999999,"ADDRESS":"公園路６５５號","OBJECTID":294556},"geometry":{"x":169416.83000000101,"y":2546260.6100000031}},{"attributes":{"ID":294565,"DIS_CODE":0,"TOWNNAME":"北區","LI":"正覺里","LIN":"20鄰","STREET":"公園路","SECT":" ","MAREA":" ","LANE":" ","ALLEY":" ","HOUSE_NO":"６５７號","E_COORD97":169421.98999999999,"N_COORD97":2546264.6600000001,"ADDRESS":"公園路６５７號","OBJECTID":294557},"geometry":{"x":169421.99000000022,"y":2546264.660000002}},{"attributes":{"ID":294566,"DIS_CODE":0,"TOWNNAME":"北區","LI":"正覺里","LIN":"20鄰","STREET":"公園路","SECT":" ","MAREA":" ","LANE":" ","ALLEY":" ","HOUSE_NO":"６５９號","E_COORD97":169425.17000000001,"N_COORD97":2546267.1600000001,"ADDRESS":"公園路６５９號","OBJECTID":294558},"geometry":{"x":169425.16999999993,"y":2546267.1600000001}},{"attributes":{"ID":294567,"DIS_CODE":0,"TOWNNAME":"北區","LI":"正覺里","LIN":"20鄰","STREET":"公園路","SECT":" ","MAREA":" ","LANE":" ","ALLEY":" ","HOUSE_NO":"６６１號","E_COORD97":169427.67999999999,"N_COORD97":2546269.5699999998,"ADDRESS":"公園路６６１號","OBJECTID":294559},"geometry":{"x":169427.68000000063,"y":2546269.5700000022}},{"attributes":{"ID":294568,"DIS_CODE":0,"TOWNNAME":"歸仁區","LI":"武東里","LIN":"14鄰","STREET":"中正南路","SECT":"二段","MAREA":" ","LANE":" ","ALLEY":" ","HOUSE_NO":"５６號","E_COORD97":175795.07000000001,"N_COORD97":2536379.1400000001,"ADDRESS":"中正南路二段５６號","OBJECTID":294560},"geometry":{"x":175795.0700000003,"y":2536379.1400000025}},{"attributes":{"ID":294569,"DIS_CODE":0,"TOWNNAME":"歸仁區","LI":"武東里","LIN":"14鄰","STREET":"中正南路","SECT":"二段","MAREA":" ","LANE":" ","ALLEY":" ","HOUSE_NO":"５８號","E_COORD97":175793.41,"N_COORD97":2536375.3300000001,"ADDRESS":"中正南路二段５８號","OBJECTID":294561},"geometry":{"x":175793.41000000108,"y":2536375.3300000001}},{"attributes":{"ID":294570,"DIS_CODE":0,"TOWNNAME":"歸仁區","LI":"武東里","LIN":"14鄰","STREET":"中正南路","SECT":"二段","MAREA":" ","LANE":" ","ALLEY":" ","HOUSE_NO":"６０之１號","E_COORD97":175790.57999999999,"N_COORD97":2536367.2799999998,"ADDRESS":"中正南路二段６０之１號","OBJECTID":294562},"geometry":{"x":175790.58000000101,"y":2536367.2800000012}},{"attributes":{"ID":294571,"DIS_CODE":0,"TOWNNAME":"歸仁區","LI":"武東里","LIN":"14鄰","STREET":"中正南路","SECT":"二段","MAREA":" ","LANE":" ","ALLEY":" ","HOUSE_NO":"６２之１號","E_COORD97":175787.51999999999,"N_COORD97":2536358.8500000001,"ADDRESS":"中正南路二段６２之１號","OBJECTID":294563},"geometry":{"x":175787.52000000048,"y":2536358.8499999996}},{"attributes":{"ID":294572,"DIS_CODE":0,"TOWNNAME":"安南區","LI":"頂安里","LIN":"20鄰","STREET":"長溪路","SECT":"一段","MAREA":" ","LANE":"４０７巷","ALLEY":" ","HOUSE_NO":"５１號之１","E_COORD97":168513.17999999999,"N_COORD97":2548787.6299999999,"ADDRESS":"長溪路一段４０７巷５１號之１","OBJECTID":294564},"geometry":{"x":168513.1799999997,"y":2548787.629999999}},{"attributes":{"ID":294573,"DIS_CODE":0,"TOWNNAME":"安南區","LI":"頂安里","LIN":"20鄰","STREET":"長溪路","SECT":"一段","MAREA":" ","LANE":"４０７巷","ALLEY":" ","HOUSE_NO":"５３號","E_COORD97":168532.17999999999,"N_COORD97":2548776.4500000002,"ADDRESS":"長溪路一段４０７巷５３號","OBJECTID":294565},"geometry":{"x":168532.18000000156,"y":2548776.4499999993}},{"attributes":{"ID":294574,"DIS_CODE":0,"TOWNNAME":"安南區","LI":"頂安里","LIN":"20鄰","STREET":"長溪路","SECT":"一段","MAREA":" ","LANE":"４０７巷","ALLEY":" ","HOUSE_NO":"５５號","E_COORD97":168541.04999999999,"N_COORD97":2548772.8700000001,"ADDRESS":"長溪路一段４０７巷５５號","OBJECTID":294566},"geometry":{"x":168541.04999999981,"y":2548772.8700000048}},{"attributes":{"ID":294575,"DIS_CODE":0,"TOWNNAME":"安南區","LI":"頂安里","LIN":"20鄰","STREET":"長溪路","SECT":"一段","MAREA":" ","LANE":"４０７巷","ALLEY":" ","HOUSE_NO":"５７號","E_COORD97":168548.10000000001,"N_COORD97":2548763.1400000001,"ADDRESS":"長溪路一段４０７巷５７號","OBJECTID":294567},"geometry":{"x":168548.10000000056,"y":2548763.1400000006}},{"attributes":{"ID":294576,"DIS_CODE":0,"TOWNNAME":"安南區","LI":"頂安里","LIN":"20鄰","STREET":"長溪路","SECT":"一段","MAREA":" ","LANE":"４０７巷","ALLEY":" ","HOUSE_NO":"５９號","E_COORD97":168560.19,"N_COORD97":2548764.48,"ADDRESS":"長溪路一段４０７巷５９號","OBJECTID":294568},"geometry":{"x":168560.19000000134,"y":2548764.4800000042}},{"attributes":{"ID":294577,"DIS_CODE":0,"TOWNNAME":"安南區","LI":"頂安里","LIN":"20鄰","STREET":"長溪路","SECT":"一段","MAREA":" ","LANE":"４０７巷","ALLEY":" ","HOUSE_NO":"６１號","E_COORD97":168565.89999999999,"N_COORD97":2548756.4300000002,"ADDRESS":"長溪路一段４０７巷６１號","OBJECTID":294569},"geometry":{"x":168565.9000000013,"y":2548756.4299999997}},{"attributes":{"ID":294578,"DIS_CODE":0,"TOWNNAME":"安南區","LI":"頂安里","LIN":"20鄰","STREET":"長溪路","SECT":"一段","MAREA":" ","LANE":"４０７巷","ALLEY":" ","HOUSE_NO":"６５號","E_COORD97":168579,"N_COORD97":2548758.1099999999,"ADDRESS":"長溪路一段４０７巷６５號","OBJECTID":294570},"geometry":{"x":168579,"y":2548758.1099999994}},{"attributes":{"ID":294579,"DIS_CODE":0,"TOWNNAME":"安南區","LI":"頂安里","LIN":"20鄰","STREET":"長溪路","SECT":"一段","MAREA":" ","LANE":"４０７巷","ALLEY":" ","HOUSE_NO":"６７號","E_COORD97":168583.03,"N_COORD97":2548757.1000000001,"ADDRESS":"長溪路一段４０７巷６７號","OBJECTID":294571},"geometry":{"x":168583.03000000212,"y":2548757.1000000015}},{"attributes":{"ID":294580,"DIS_CODE":0,"TOWNNAME":"北區","LI":"大道里","LIN":"17鄰","STREET":"北門路","SECT":"二段","MAREA":" ","LANE":"５２７巷","ALLEY":" ","HOUSE_NO":"１０號五樓之２","E_COORD97":169577.42999999999,"N_COORD97":2545660.8900000001,"ADDRESS":"北門路二段５２７巷１０號五樓之２","OBJECTID":294572},"geometry":{"x":169577.4299999997,"y":2545660.8900000025}},{"attributes":{"ID":294581,"DIS_CODE":0,"TOWNNAME":"北區","LI":"大道里","LIN":"17鄰","STREET":"北門路","SECT":"二段","MAREA":" ","LANE":"５２７巷","ALLEY":" ","HOUSE_NO":"１０號五樓之１","E_COORD97":169577.42999999999,"N_COORD97":2545660.8900000001,"ADDRESS":"北門路二段５２７巷１０號五樓之１","OBJECTID":294573},"geometry":{"x":169577.4299999997,"y":2545660.8900000025}},{"attributes":{"ID":294582,"DIS_CODE":0,"TOWNNAME":"北區","LI":"大道里","LIN":"17鄰","STREET":"北門路","SECT":"二段","MAREA":" ","LANE":"５２７巷","ALLEY":" ","HOUSE_NO":"１０號七樓之５","E_COORD97":169577.42999999999,"N_COORD97":2545660.8900000001,"ADDRESS":"北門路二段５２７巷１０號七樓之５","OBJECTID":294574},"geometry":{"x":169577.4299999997,"y":2545660.8900000025}},{"attributes":{"ID":294583,"DIS_CODE":0,"TOWNNAME":"北區","LI":"大道里","LIN":"17鄰","STREET":"北門路","SECT":"二段","MAREA":" ","LANE":"５２７巷","ALLEY":" ","HOUSE_NO":"１０號七樓之３","E_COORD97":169577.42999999999,"N_COORD97":2545660.8900000001,"ADDRESS":"北門路二段５２７巷１０號七樓之３","OBJECTID":294575},"geometry":{"x":169577.4299999997,"y":2545660.8900000025}},{"attributes":{"ID":294584,"DIS_CODE":0,"TOWNNAME":"北區","LI":"大道里","LIN":"17鄰","STREET":"北門路","SECT":"二段","MAREA":" ","LANE":"５２７巷","ALLEY":" ","HOUSE_NO":"１０號七樓之２","E_COORD97":169577.42999999999,"N_COORD97":2545660.8900000001,"ADDRESS":"北門路二段５２７巷１０號七樓之２","OBJECTID":294576},"geometry":{"x":169577.4299999997,"y":2545660.8900000025}},{"attributes":{"ID":294585,"DIS_CODE":0,"TOWNNAME":"佳里區","LI":"六安里","LIN":"12鄰","STREET":" ","SECT":" ","MAREA":"六安","LANE":" ","ALLEY":" ","HOUSE_NO":"９３號之３","E_COORD97":165988.92000000001,"N_COORD97":2563372.8999999999,"ADDRESS":"六安９３號之３","OBJECTID":294577},"geometry":{"x":165988.91999999993,"y":2563372.9000000004}},{"attributes":{"ID":294586,"DIS_CODE":0,"TOWNNAME":"北區","LI":"大道里","LIN":"17鄰","STREET":"北門路","SECT":"二段","MAREA":" ","LANE":"５２７巷","ALLEY":" ","HOUSE_NO":"１０號七樓之１","E_COORD97":169577.42999999999,"N_COORD97":2545660.8900000001,"ADDRESS":"北門路二段５２７巷１０號七樓之１","OBJECTID":294578},"geometry":{"x":169577.4299999997,"y":2545660.8900000025}},{"attributes":{"ID":294587,"DIS_CODE":0,"TOWNNAME":"北區","LI":"大道里","LIN":"17鄰","STREET":"北門路","SECT":"二段","MAREA":" ","LANE":"５２７巷","ALLEY":" ","HOUSE_NO":"１０號八樓之１","E_COORD97":169577.42999999999,"N_COORD97":2545660.8900000001,"ADDRESS":"北門路二段５２７巷１０號八樓之１","OBJECTID":294579},"geometry":{"x":169577.4299999997,"y":2545660.8900000025}},{"attributes":{"ID":294588,"DIS_CODE":0,"TOWNNAME":"北區","LI":"大道里","LIN":"17鄰","STREET":"北門路","SECT":"二段","MAREA":" ","LANE":"５２７巷","ALLEY":" ","HOUSE_NO":"１０號八樓之５","E_COORD97":169577.42999999999,"N_COORD97":2545660.8900000001,"ADDRESS":"北門路二段５２７巷１０號八樓之５","OBJECTID":294580},"geometry":{"x":169577.4299999997,"y":2545660.8900000025}},{"attributes":{"ID":294589,"DIS_CODE":0,"TOWNNAME":"北區","LI":"大道里","LIN":"17鄰","STREET":"北門路","SECT":"二段","MAREA":" ","LANE":"５２７巷","ALLEY":" ","HOUSE_NO":"１０號八樓之３","E_COORD97":169577.42999999999,"N_COORD97":2545660.8900000001,"ADDRESS":"北門路二段５２７巷１０號八樓之３","OBJECTID":294581},"geometry":{"x":169577.4299999997,"y":2545660.8900000025}},{"attributes":{"ID":294590,"DIS_CODE":0,"TOWNNAME":"歸仁區","LI":"武東里","LIN":"14鄰","STREET":"中正南路","SECT":"二段","MAREA":" ","LANE":" ","ALLEY":" ","HOUSE_NO":"６６之１號","E_COORD97":175784.87,"N_COORD97":2536350.6800000002,"ADDRESS":"中正南路二段６６之１號","OBJECTID":294582},"geometry":{"x":175784.87000000011,"y":2536350.6800000016}},{"attributes":{"ID":294591,"DIS_CODE":0,"TOWNNAME":"歸仁區","LI":"武東里","LIN":"14鄰","STREET":"中正南路","SECT":"二段","MAREA":" ","LANE":" ","ALLEY":" ","HOUSE_NO":"６６號","E_COORD97":175786.35000000001,"N_COORD97":2536355.29,"ADDRESS":"中正南路二段６６號","OBJECTID":294583},"geometry":{"x":175786.35000000149,"y":2536355.2899999991}},{"attributes":{"ID":294592,"DIS_CODE":0,"TOWNNAME":"歸仁區","LI":"武東里","LIN":"14鄰","STREET":"中正南路","SECT":"二段","MAREA":" ","LANE":" ","ALLEY":" ","HOUSE_NO":"５６號","E_COORD97":175781.91,"N_COORD97":2536342.71,"ADDRESS":"中正南路二段５６號","OBJECTID":294584},"geometry":{"x":175781.91000000108,"y":2536342.7100000028}},{"attributes":{"ID":294593,"DIS_CODE":0,"TOWNNAME":"歸仁區","LI":"武東里","LIN":"14鄰","STREET":"中正南路","SECT":"二段","MAREA":" ","LANE":" ","ALLEY":" ","HOUSE_NO":"６８號","E_COORD97":175782.95999999999,"N_COORD97":2536347.1299999999,"ADDRESS":"中正南路二段６８號","OBJECTID":294585},"geometry":{"x":175782.96000000089,"y":2536347.1300000008}},{"attributes":{"ID":294594,"DIS_CODE":0,"TOWNNAME":"歸仁區","LI":"武東里","LIN":"14鄰","STREET":"中正南路","SECT":"二段","MAREA":" ","LANE":" ","ALLEY":" ","HOUSE_NO":"７０之１號","E_COORD97":175778.57999999999,"N_COORD97":2536334.9399999999,"ADDRESS":"中正南路二段７０之１號","OBJECTID":294586},"geometry":{"x":175778.58000000194,"y":2536334.9400000032}},{"attributes":{"ID":294595,"DIS_CODE":0,"TOWNNAME":"歸仁區","LI":"武東里","LIN":"14鄰","STREET":"中正南路","SECT":"二段","MAREA":" ","LANE":" ","ALLEY":" ","HOUSE_NO":"７０號","E_COORD97":175779.94,"N_COORD97":2536338.4900000002,"ADDRESS":"中正南路二段７０號","OBJECTID":294587},"geometry":{"x":175779.94000000134,"y":2536338.4900000039}},{"attributes":{"ID":294596,"DIS_CODE":0,"TOWNNAME":"歸仁區","LI":"武東里","LIN":"14鄰","STREET":"中正南路","SECT":"二段","MAREA":" ","LANE":" ","ALLEY":" ","HOUSE_NO":"５８號","E_COORD97":175774.92999999999,"N_COORD97":2536327.3300000001,"ADDRESS":"中正南路二段５８號","OBJECTID":294588},"geometry":{"x":175774.9299999997,"y":2536327.3300000019}},{"attributes":{"ID":294597,"DIS_CODE":0,"TOWNNAME":"歸仁區","LI":"武東里","LIN":"14鄰","STREET":"中正南路","SECT":"二段","MAREA":" ","LANE":" ","ALLEY":" ","HOUSE_NO":"７２號","E_COORD97":175776.23000000001,"N_COORD97":2536331.4399999999,"ADDRESS":"中正南路二段７２號","OBJECTID":294589},"geometry":{"x":175776.23000000231,"y":2536331.4400000032}},{"attributes":{"ID":294598,"DIS_CODE":0,"TOWNNAME":"歸仁區","LI":"武東里","LIN":"14鄰","STREET":"中正南路","SECT":"二段","MAREA":" ","LANE":" ","ALLEY":" ","HOUSE_NO":"７６之１號","E_COORD97":175771.89000000001,"N_COORD97":2536319.2799999998,"ADDRESS":"中正南路二段７６之１號","OBJECTID":294590},"geometry":{"x":175771.88999999966,"y":2536319.2800000012}},{"attributes":{"ID":294599,"DIS_CODE":0,"TOWNNAME":"七股區","LI":"七股里","LIN":"15鄰","STREET":" ","SECT":" ","MAREA":"七股","LANE":" ","ALLEY":" ","HOUSE_NO":"２號之５","E_COORD97":161201.67000000001,"N_COORD97":2558796.2200000002,"ADDRESS":"七股２號之５","OBJECTID":294591},"geometry":{"x":161201.66999999993,"y":2558796.2200000025}},{"attributes":{"ID":294600,"DIS_CODE":0,"TOWNNAME":"北區","LI":"大道里","LIN":"17鄰","STREET":"北門路","SECT":"二段","MAREA":" ","LANE":"５２７巷","ALLEY":" ","HOUSE_NO":"１０號八樓之２","E_COORD97":169577.42999999999,"N_COORD97":2545660.8900000001,"ADDRESS":"北門路二段５２７巷１０號八樓之２","OBJECTID":294592},"geometry":{"x":169577.4299999997,"y":2545660.8900000025}},{"attributes":{"ID":294601,"DIS_CODE":0,"TOWNNAME":"北區","LI":"大道里","LIN":"17鄰","STREET":"北門路","SECT":"二段","MAREA":" ","LANE":"５２７巷","ALLEY":" ","HOUSE_NO":"１０號六樓之５","E_COORD97":169577.42999999999,"N_COORD97":2545660.8900000001,"ADDRESS":"北門路二段５２７巷１０號六樓之５","OBJECTID":294593},"geometry":{"x":169577.4299999997,"y":2545660.8900000025}},{"attributes":{"ID":294602,"DIS_CODE":0,"TOWNNAME":"北區","LI":"大道里","LIN":"17鄰","STREET":"北門路","SECT":"二段","MAREA":" ","LANE":"５２７巷","ALLEY":" ","HOUSE_NO":"１０號六樓之３","E_COORD97":169577.42999999999,"N_COORD97":2545660.8900000001,"ADDRESS":"北門路二段５２７巷１０號六樓之３","OBJECTID":294594},"geometry":{"x":169577.4299999997,"y":2545660.8900000025}},{"attributes":{"ID":294603,"DIS_CODE":0,"TOWNNAME":"北區","LI":"大道里","LIN":"17鄰","STREET":"北門路","SECT":"二段","MAREA":" ","LANE":"５２７巷","ALLEY":" ","HOUSE_NO":"１０號六樓之２","E_COORD97":169577.42999999999,"N_COORD97":2545660.8900000001,"ADDRESS":"北門路二段５２７巷１０號六樓之２","OBJECTID":294595},"geometry":{"x":169577.4299999997,"y":2545660.8900000025}},{"attributes":{"ID":294604,"DIS_CODE":0,"TOWNNAME":"佳里區","LI":"六安里","LIN":"12鄰","STREET":" ","SECT":" ","MAREA":"六安","LANE":" ","ALLEY":" ","HOUSE_NO":"９２號之１","E_COORD97":165975.5,"N_COORD97":2563359.2000000002,"ADDRESS":"六安９２號之１","OBJECTID":294596},"geometry":{"x":165975.5,"y":2563359.1999999993}},{"attributes":{"ID":294605,"DIS_CODE":0,"TOWNNAME":"北區","LI":"大道里","LIN":"17鄰","STREET":"北門路","SECT":"二段","MAREA":" ","LANE":"５２７巷","ALLEY":" ","HOUSE_NO":"１０號六樓之１","E_COORD97":169577.42999999999,"N_COORD97":2545660.8900000001,"ADDRESS":"北門路二段５２７巷１０號六樓之１","OBJECTID":294597},"geometry":{"x":169577.4299999997,"y":2545660.8900000025}},{"attributes":{"ID":294606,"DIS_CODE":0,"TOWNNAME":"北區","LI":"大道里","LIN":"17鄰","STREET":"北門路","SECT":"二段","MAREA":" ","LANE":"５２７巷","ALLEY":" ","HOUSE_NO":"１０號九樓之５","E_COORD97":169577.42999999999,"N_COORD97":2545660.8900000001,"ADDRESS":"北門路二段５２７巷１０號九樓之５","OBJECTID":294598},"geometry":{"x":169577.4299999997,"y":2545660.8900000025}},{"attributes":{"ID":294607,"DIS_CODE":0,"TOWNNAME":"北區","LI":"大道里","LIN":"17鄰","STREET":"北門路","SECT":"二段","MAREA":" ","LANE":"５２７巷","ALLEY":" ","HOUSE_NO":"１０號九樓之２","E_COORD97":169577.42999999999,"N_COORD97":2545660.8900000001,"ADDRESS":"北門路二段５２７巷１０號九樓之２","OBJECTID":294599},"geometry":{"x":169577.4299999997,"y":2545660.8900000025}},{"attributes":{"ID":294608,"DIS_CODE":0,"TOWNNAME":"北區","LI":"大道里","LIN":"17鄰","STREET":"北門路","SECT":"二段","MAREA":" ","LANE":"５２７巷","ALLEY":" ","HOUSE_NO":"１０號九樓之１","E_COORD97":169577.42999999999,"N_COORD97":2545660.8900000001,"ADDRESS":"北門路二段５２７巷１０號九樓之１","OBJECTID":294600},"geometry":{"x":169577.4299999997,"y":2545660.8900000025}}]}