{"displayFieldName":"TOWNNAME","fieldAliases":{"ID":"ID","DIS_CODE":"DIS_CODE","TOWNNAME":"TOWNNAME","LI":"LI","LIN":"LIN","STREET":"STREET","SECT":"SECT","MAREA":"MAREA","LANE":"LANE","ALLEY":"ALLEY","HOUSE_NO":"HOUSE_NO","E_COORD97":"E_COORD97","N_COORD97":"N_COORD97","ADDRESS":"ADDRESS","OBJECTID":"OBJECTID"},"geometryType":"esriGeometryPoint","spatialReference":{"wkid":102443,"latestWkid":3826},"fields":[{"name":"ID","type":"esriFieldTypeDouble","alias":"ID"},{"name":"DIS_CODE","type":"esriFieldTypeInteger","alias":"DIS_CODE"},{"name":"TOWNNAME","type":"esriFieldTypeString","alias":"TOWNNAME","length":8},{"name":"LI","type":"esriFieldTypeString","alias":"LI","length":8},{"name":"LIN","type":"esriFieldTypeString","alias":"LIN","length":12},{"name":"STREET","type":"esriFieldTypeString","alias":"STREET","length":20},{"name":"SECT","type":"esriFieldTypeString","alias":"SECT","length":8},{"name":"MAREA","type":"esriFieldTypeString","alias":"MAREA","length":12},{"name":"LANE","type":"esriFieldTypeString","alias":"LANE","length":10},{"name":"ALLEY","type":"esriFieldTypeString","alias":"ALLEY","length":10},{"name":"HOUSE_NO","type":"esriFieldTypeString","alias":"HOUSE_NO","length":20},{"name":"E_COORD97","type":"esriFieldTypeDouble","alias":"E_COORD97"},{"name":"N_COORD97","type":"esriFieldTypeDouble","alias":"N_COORD97"},{"name":"ADDRESS","type":"esriFieldTypeString","alias":"ADDRESS","length":50},{"name":"OBJECTID","type":"esriFieldTypeOID","alias":"OBJECTID"}],"features":[{"attributes":{"ID":299009,"DIS_CODE":0,"TOWNNAME":"南區","LI":"日新里","LIN":"8鄰","STREET":"金華路","SECT":"一段","MAREA":" ","LANE":"４７５巷","ALLEY":" ","HOUSE_NO":"１８號三樓之３","E_COORD97":166956.76000000001,"N_COORD97":2541615.04,"ADDRESS":"金華路一段４７５巷１８號三樓之３","OBJECTID":299001},"geometry":{"x":166956.75999999885,"y":2541615.0399999991}},{"attributes":{"ID":299010,"DIS_CODE":0,"TOWNNAME":"南區","LI":"日新里","LIN":"8鄰","STREET":"金華路","SECT":"一段","MAREA":" ","LANE":"４７５巷","ALLEY":" ","HOUSE_NO":"１８號四樓之１","E_COORD97":166956.76000000001,"N_COORD97":2541615.04,"ADDRESS":"金華路一段４７５巷１８號四樓之１","OBJECTID":299002},"geometry":{"x":166956.75999999885,"y":2541615.0399999991}},{"attributes":{"ID":299011,"DIS_CODE":0,"TOWNNAME":"南區","LI":"日新里","LIN":"8鄰","STREET":"金華路","SECT":"一段","MAREA":" ","LANE":"４７５巷","ALLEY":" ","HOUSE_NO":"１８號四樓之２","E_COORD97":166956.76000000001,"N_COORD97":2541615.04,"ADDRESS":"金華路一段４７５巷１８號四樓之２","OBJECTID":299003},"geometry":{"x":166956.75999999885,"y":2541615.0399999991}},{"attributes":{"ID":299012,"DIS_CODE":0,"TOWNNAME":"南區","LI":"日新里","LIN":"8鄰","STREET":"金華路","SECT":"一段","MAREA":" ","LANE":"４７５巷","ALLEY":" ","HOUSE_NO":"１８號四樓之３","E_COORD97":166956.76000000001,"N_COORD97":2541615.04,"ADDRESS":"金華路一段４７５巷１８號四樓之３","OBJECTID":299004},"geometry":{"x":166956.75999999885,"y":2541615.0399999991}},{"attributes":{"ID":299013,"DIS_CODE":0,"TOWNNAME":"南區","LI":"日新里","LIN":"8鄰","STREET":"金華路","SECT":"一段","MAREA":" ","LANE":"４７５巷","ALLEY":" ","HOUSE_NO":"２０號二樓之１","E_COORD97":166953.07000000001,"N_COORD97":2541620.7599999998,"ADDRESS":"金華路一段４７５巷２０號二樓之１","OBJECTID":299005},"geometry":{"x":166953.0700000003,"y":2541620.7599999998}},{"attributes":{"ID":299014,"DIS_CODE":0,"TOWNNAME":"南區","LI":"日新里","LIN":"8鄰","STREET":"金華路","SECT":"一段","MAREA":" ","LANE":"４７５巷","ALLEY":" ","HOUSE_NO":"２０號二樓之２","E_COORD97":166953.07000000001,"N_COORD97":2541620.7599999998,"ADDRESS":"金華路一段４７５巷２０號二樓之２","OBJECTID":299006},"geometry":{"x":166953.0700000003,"y":2541620.7599999998}},{"attributes":{"ID":299015,"DIS_CODE":0,"TOWNNAME":"安南區","LI":"州南里","LIN":"3鄰","STREET":"北安路","SECT":"四段","MAREA":" ","LANE":" ","ALLEY":" ","HOUSE_NO":"１７１之１０號","E_COORD97":169287.16899999999,"N_COORD97":2551321.77086,"ADDRESS":"北安路四段１７１之１０號","OBJECTID":299007},"geometry":{"x":169287.16899999976,"y":2551321.7708599996}},{"attributes":{"ID":299016,"DIS_CODE":0,"TOWNNAME":"南區","LI":"日新里","LIN":"8鄰","STREET":"金華路","SECT":"一段","MAREA":" ","LANE":"４７５巷","ALLEY":" ","HOUSE_NO":"２０號三樓之１","E_COORD97":166953.07000000001,"N_COORD97":2541620.7599999998,"ADDRESS":"金華路一段４７５巷２０號三樓之１","OBJECTID":299008},"geometry":{"x":166953.0700000003,"y":2541620.7599999998}},{"attributes":{"ID":299017,"DIS_CODE":0,"TOWNNAME":"南區","LI":"日新里","LIN":"8鄰","STREET":"金華路","SECT":"一段","MAREA":" ","LANE":"４７５巷","ALLEY":" ","HOUSE_NO":"２０號三樓之２","E_COORD97":166953.07000000001,"N_COORD97":2541620.7599999998,"ADDRESS":"金華路一段４７５巷２０號三樓之２","OBJECTID":299009},"geometry":{"x":166953.0700000003,"y":2541620.7599999998}},{"attributes":{"ID":299018,"DIS_CODE":0,"TOWNNAME":"南區","LI":"日新里","LIN":"8鄰","STREET":"金華路","SECT":"一段","MAREA":" ","LANE":"４７５巷","ALLEY":" ","HOUSE_NO":"２０號三樓之３","E_COORD97":166953.07000000001,"N_COORD97":2541620.7599999998,"ADDRESS":"金華路一段４７５巷２０號三樓之３","OBJECTID":299010},"geometry":{"x":166953.0700000003,"y":2541620.7599999998}},{"attributes":{"ID":299019,"DIS_CODE":0,"TOWNNAME":"南區","LI":"日新里","LIN":"8鄰","STREET":"金華路","SECT":"一段","MAREA":" ","LANE":"４７５巷","ALLEY":" ","HOUSE_NO":"２０號四樓之１","E_COORD97":166953.07000000001,"N_COORD97":2541620.7599999998,"ADDRESS":"金華路一段４７５巷２０號四樓之１","OBJECTID":299011},"geometry":{"x":166953.0700000003,"y":2541620.7599999998}},{"attributes":{"ID":299020,"DIS_CODE":0,"TOWNNAME":"南區","LI":"日新里","LIN":"8鄰","STREET":"金華路","SECT":"一段","MAREA":" ","LANE":"４７５巷","ALLEY":" ","HOUSE_NO":"２０號四樓之２","E_COORD97":166953.07000000001,"N_COORD97":2541620.7599999998,"ADDRESS":"金華路一段４７５巷２０號四樓之２","OBJECTID":299012},"geometry":{"x":166953.0700000003,"y":2541620.7599999998}},{"attributes":{"ID":299021,"DIS_CODE":0,"TOWNNAME":"南區","LI":"日新里","LIN":"8鄰","STREET":"金華路","SECT":"一段","MAREA":" ","LANE":"４７５巷","ALLEY":" ","HOUSE_NO":"２０號四樓之３","E_COORD97":166953.07000000001,"N_COORD97":2541620.7599999998,"ADDRESS":"金華路一段４７５巷２０號四樓之３","OBJECTID":299013},"geometry":{"x":166953.0700000003,"y":2541620.7599999998}},{"attributes":{"ID":299022,"DIS_CODE":0,"TOWNNAME":"南區","LI":"日新里","LIN":"8鄰","STREET":"金華路","SECT":"一段","MAREA":" ","LANE":"５０３巷","ALLEY":" ","HOUSE_NO":"３５號二樓之１","E_COORD97":166949.19,"N_COORD97":2541654.2799999998,"ADDRESS":"金華路一段５０３巷３５號二樓之１","OBJECTID":299014},"geometry":{"x":166949.19000000041,"y":2541654.2799999993}},{"attributes":{"ID":299023,"DIS_CODE":0,"TOWNNAME":"南區","LI":"日新里","LIN":"8鄰","STREET":"金華路","SECT":"一段","MAREA":" ","LANE":"５０３巷","ALLEY":" ","HOUSE_NO":"３５號二樓之２","E_COORD97":166949.19,"N_COORD97":2541654.2799999998,"ADDRESS":"金華路一段５０３巷３５號二樓之２","OBJECTID":299015},"geometry":{"x":166949.19000000041,"y":2541654.2799999993}},{"attributes":{"ID":299024,"DIS_CODE":0,"TOWNNAME":"南區","LI":"日新里","LIN":"8鄰","STREET":"金華路","SECT":"一段","MAREA":" ","LANE":"５０３巷","ALLEY":" ","HOUSE_NO":"３５號三樓之１","E_COORD97":166949.19,"N_COORD97":2541654.2799999998,"ADDRESS":"金華路一段５０３巷３５號三樓之１","OBJECTID":299016},"geometry":{"x":166949.19000000041,"y":2541654.2799999993}},{"attributes":{"ID":299025,"DIS_CODE":0,"TOWNNAME":"南區","LI":"日新里","LIN":"8鄰","STREET":"金華路","SECT":"一段","MAREA":" ","LANE":"５０３巷","ALLEY":" ","HOUSE_NO":"３５號三樓之２","E_COORD97":166949.19,"N_COORD97":2541654.2799999998,"ADDRESS":"金華路一段５０３巷３５號三樓之２","OBJECTID":299017},"geometry":{"x":166949.19000000041,"y":2541654.2799999993}},{"attributes":{"ID":299026,"DIS_CODE":0,"TOWNNAME":"南區","LI":"日新里","LIN":"8鄰","STREET":"金華路","SECT":"一段","MAREA":" ","LANE":"５０３巷","ALLEY":" ","HOUSE_NO":"３５號四樓之１","E_COORD97":166949.19,"N_COORD97":2541654.2799999998,"ADDRESS":"金華路一段５０３巷３５號四樓之１","OBJECTID":299018},"geometry":{"x":166949.19000000041,"y":2541654.2799999993}},{"attributes":{"ID":299027,"DIS_CODE":0,"TOWNNAME":"南區","LI":"日新里","LIN":"8鄰","STREET":"金華路","SECT":"一段","MAREA":" ","LANE":"５０３巷","ALLEY":" ","HOUSE_NO":"３５號四樓之２","E_COORD97":166949.19,"N_COORD97":2541654.2799999998,"ADDRESS":"金華路一段５０３巷３５號四樓之２","OBJECTID":299019},"geometry":{"x":166949.19000000041,"y":2541654.2799999993}},{"attributes":{"ID":299028,"DIS_CODE":0,"TOWNNAME":"永康區","LI":"安康里","LIN":"8鄰","STREET":"中山南路","SECT":" ","MAREA":" ","LANE":"１１９巷","ALLEY":" ","HOUSE_NO":"５２號二樓","E_COORD97":171090.56,"N_COORD97":2546008.5099999998,"ADDRESS":"中山南路１１９巷５２號二樓","OBJECTID":299020},"geometry":{"x":171090.55999999959,"y":2546008.5100000016}},{"attributes":{"ID":299029,"DIS_CODE":0,"TOWNNAME":"永康區","LI":"安康里","LIN":"8鄰","STREET":"中山南路","SECT":" ","MAREA":" ","LANE":"１１９巷","ALLEY":" ","HOUSE_NO":"５２號三樓","E_COORD97":171090.56,"N_COORD97":2546008.5099999998,"ADDRESS":"中山南路１１９巷５２號三樓","OBJECTID":299021},"geometry":{"x":171090.55999999959,"y":2546008.5100000016}},{"attributes":{"ID":299030,"DIS_CODE":0,"TOWNNAME":"東區","LI":"德光里","LIN":"8鄰","STREET":"崇明路","SECT":" ","MAREA":" ","LANE":"１８７巷","ALLEY":" ","HOUSE_NO":"２號七樓","E_COORD97":169977.25,"N_COORD97":2542117.75,"ADDRESS":"崇明路１８７巷２號七樓","OBJECTID":299022},"geometry":{"x":169977.25,"y":2542117.7500000019}},{"attributes":{"ID":299031,"DIS_CODE":0,"TOWNNAME":"東區","LI":"德光里","LIN":"8鄰","STREET":"崇明路","SECT":" ","MAREA":" ","LANE":"１８７巷","ALLEY":" ","HOUSE_NO":"２號七樓之１","E_COORD97":169977.25,"N_COORD97":2542117.75,"ADDRESS":"崇明路１８７巷２號七樓之１","OBJECTID":299023},"geometry":{"x":169977.25,"y":2542117.7500000019}},{"attributes":{"ID":299032,"DIS_CODE":0,"TOWNNAME":"東區","LI":"德光里","LIN":"8鄰","STREET":"崇明路","SECT":" ","MAREA":" ","LANE":"１８７巷","ALLEY":" ","HOUSE_NO":"２號九樓","E_COORD97":169977.25,"N_COORD97":2542117.75,"ADDRESS":"崇明路１８７巷２號九樓","OBJECTID":299024},"geometry":{"x":169977.25,"y":2542117.7500000019}},{"attributes":{"ID":299033,"DIS_CODE":0,"TOWNNAME":"東區","LI":"德光里","LIN":"8鄰","STREET":"崇明路","SECT":" ","MAREA":" ","LANE":"１８７巷","ALLEY":" ","HOUSE_NO":"２號九樓之１","E_COORD97":169977.25,"N_COORD97":2542117.75,"ADDRESS":"崇明路１８７巷２號九樓之１","OBJECTID":299025},"geometry":{"x":169977.25,"y":2542117.7500000019}},{"attributes":{"ID":299034,"DIS_CODE":0,"TOWNNAME":"東區","LI":"德光里","LIN":"8鄰","STREET":"崇明路","SECT":" ","MAREA":" ","LANE":"１８７巷","ALLEY":" ","HOUSE_NO":"２號八樓","E_COORD97":169977.25,"N_COORD97":2542117.75,"ADDRESS":"崇明路１８７巷２號八樓","OBJECTID":299026},"geometry":{"x":169977.25,"y":2542117.7500000019}},{"attributes":{"ID":299035,"DIS_CODE":0,"TOWNNAME":"東區","LI":"德光里","LIN":"8鄰","STREET":"崇明路","SECT":" ","MAREA":" ","LANE":"１８７巷","ALLEY":" ","HOUSE_NO":"２號八樓之１","E_COORD97":169977.25,"N_COORD97":2542117.75,"ADDRESS":"崇明路１８７巷２號八樓之１","OBJECTID":299027},"geometry":{"x":169977.25,"y":2542117.7500000019}},{"attributes":{"ID":299036,"DIS_CODE":0,"TOWNNAME":"將軍區","LI":"保源里","LIN":"4鄰","STREET":" ","SECT":" ","MAREA":"苓保","LANE":" ","ALLEY":" ","HOUSE_NO":"４１之１３號","E_COORD97":164838.39000000001,"N_COORD97":2568826.5600000001,"ADDRESS":"苓保４１之１３號","OBJECTID":299028},"geometry":{"x":164838.38999999966,"y":2568826.5600000024}},{"attributes":{"ID":299037,"DIS_CODE":0,"TOWNNAME":"將軍區","LI":"保源里","LIN":"4鄰","STREET":" ","SECT":" ","MAREA":"苓保","LANE":" ","ALLEY":" ","HOUSE_NO":"４１之１５號","E_COORD97":164813.91,"N_COORD97":2568706.3999999999,"ADDRESS":"苓保４１之１５號","OBJECTID":299029},"geometry":{"x":164813.91000000108,"y":2568706.4000000004}},{"attributes":{"ID":299038,"DIS_CODE":0,"TOWNNAME":"將軍區","LI":"保源里","LIN":"4鄰","STREET":" ","SECT":" ","MAREA":"苓保","LANE":" ","ALLEY":" ","HOUSE_NO":"４１之３號","E_COORD97":164693.17999999999,"N_COORD97":2568676.4500000002,"ADDRESS":"苓保４１之３號","OBJECTID":299030},"geometry":{"x":164693.18000000063,"y":2568676.4500000011}},{"attributes":{"ID":299039,"DIS_CODE":0,"TOWNNAME":"將軍區","LI":"保源里","LIN":"4鄰","STREET":" ","SECT":" ","MAREA":"苓保","LANE":" ","ALLEY":" ","HOUSE_NO":"４１之４號","E_COORD97":164746.98000000001,"N_COORD97":2568710.3799999999,"ADDRESS":"苓保４１之４號","OBJECTID":299031},"geometry":{"x":164746.98000000045,"y":2568710.3800000008}},{"attributes":{"ID":299040,"DIS_CODE":0,"TOWNNAME":"將軍區","LI":"保源里","LIN":"4鄰","STREET":" ","SECT":" ","MAREA":"苓保","LANE":" ","ALLEY":" ","HOUSE_NO":"４１之５號","E_COORD97":164708.48000000001,"N_COORD97":2568712.8999999999,"ADDRESS":"苓保４１之５號","OBJECTID":299032},"geometry":{"x":164708.48000000138,"y":2568712.9000000004}},{"attributes":{"ID":299041,"DIS_CODE":0,"TOWNNAME":"東區","LI":"德光里","LIN":"8鄰","STREET":"崇明路","SECT":" ","MAREA":" ","LANE":"１８７巷","ALLEY":" ","HOUSE_NO":"２號十一樓","E_COORD97":169977.25,"N_COORD97":2542117.75,"ADDRESS":"崇明路１８７巷２號十一樓","OBJECTID":299033},"geometry":{"x":169977.25,"y":2542117.7500000019}},{"attributes":{"ID":299042,"DIS_CODE":0,"TOWNNAME":"佳里區","LI":"漳洲里","LIN":"4鄰","STREET":" ","SECT":" ","MAREA":"番子寮","LANE":" ","ALLEY":" ","HOUSE_NO":"２１４號","E_COORD97":163379.19,"N_COORD97":2564447.1299999999,"ADDRESS":"番子寮２１４號","OBJECTID":299034},"geometry":{"x":163379.19000000041,"y":2564447.1300000008}},{"attributes":{"ID":299043,"DIS_CODE":0,"TOWNNAME":"佳里區","LI":"漳洲里","LIN":"4鄰","STREET":" ","SECT":" ","MAREA":"番子寮","LANE":" ","ALLEY":" ","HOUSE_NO":"２１７號","E_COORD97":163359.20000000001,"N_COORD97":2564393.04,"ADDRESS":"番子寮２１７號","OBJECTID":299035},"geometry":{"x":163359.20000000112,"y":2564393.040000001}},{"attributes":{"ID":299044,"DIS_CODE":0,"TOWNNAME":"學甲區","LI":"大灣里","LIN":"4鄰","STREET":" ","SECT":" ","MAREA":"大灣","LANE":" ","ALLEY":" ","HOUSE_NO":"３９號之１０１","E_COORD97":166566.70999999999,"N_COORD97":2568703.5600000001,"ADDRESS":"大灣３９號之１０１","OBJECTID":299036},"geometry":{"x":166566.70999999996,"y":2568703.5600000024}},{"attributes":{"ID":299045,"DIS_CODE":0,"TOWNNAME":"學甲區","LI":"大灣里","LIN":"4鄰","STREET":" ","SECT":" ","MAREA":"大灣","LANE":" ","ALLEY":" ","HOUSE_NO":"３９號之１０","E_COORD97":166714.44,"N_COORD97":2567949.52,"ADDRESS":"大灣３９號之１０","OBJECTID":299037},"geometry":{"x":166714.44000000134,"y":2567949.5200000033}},{"attributes":{"ID":299046,"DIS_CODE":0,"TOWNNAME":"學甲區","LI":"大灣里","LIN":"4鄰","STREET":" ","SECT":" ","MAREA":"大灣","LANE":" ","ALLEY":" ","HOUSE_NO":"３９號之１","E_COORD97":166820.66,"N_COORD97":2568048.1899999999,"ADDRESS":"大灣３９號之１","OBJECTID":299038},"geometry":{"x":166820.66000000201,"y":2568048.1900000013}},{"attributes":{"ID":299047,"DIS_CODE":0,"TOWNNAME":"安南區","LI":"安東里","LIN":"22鄰","STREET":"安和路","SECT":"二段","MAREA":" ","LANE":"５４巷","ALLEY":" ","HOUSE_NO":"２２８號","E_COORD97":169707.32946199999,"N_COORD97":2548455.57247,"ADDRESS":"安和路二段５４巷２２８號","OBJECTID":299039},"geometry":{"x":169707.32946200017,"y":2548455.5724680033}},{"attributes":{"ID":299048,"DIS_CODE":0,"TOWNNAME":"北區","LI":"小康里","LIN":"4鄰","STREET":"實踐街","SECT":" ","MAREA":" ","LANE":"３９巷","ALLEY":" ","HOUSE_NO":"８５號","E_COORD97":169901.95999999999,"N_COORD97":2546275.2200000002,"ADDRESS":"實踐街３９巷８５號","OBJECTID":299040},"geometry":{"x":169901.96000000183,"y":2546275.2200000025}},{"attributes":{"ID":299049,"DIS_CODE":0,"TOWNNAME":"北區","LI":"小康里","LIN":"4鄰","STREET":"實踐街","SECT":" ","MAREA":" ","LANE":"３９巷","ALLEY":" ","HOUSE_NO":"８９號","E_COORD97":169909.56,"N_COORD97":2546275.3999999999,"ADDRESS":"實踐街３９巷８９號","OBJECTID":299041},"geometry":{"x":169909.56000000052,"y":2546275.4000000004}},{"attributes":{"ID":299050,"DIS_CODE":0,"TOWNNAME":"北區","LI":"小康里","LIN":"4鄰","STREET":"實踐街","SECT":" ","MAREA":" ","LANE":"３９巷","ALLEY":" ","HOUSE_NO":"９１號","E_COORD97":169913.48999999999,"N_COORD97":2546274.6699999999,"ADDRESS":"實踐街３９巷９１號","OBJECTID":299042},"geometry":{"x":169913.49000000022,"y":2546274.6700000018}},{"attributes":{"ID":299051,"DIS_CODE":0,"TOWNNAME":"北區","LI":"小康里","LIN":"4鄰","STREET":"實踐街","SECT":" ","MAREA":" ","LANE":"３９巷","ALLEY":" ","HOUSE_NO":"９３號","E_COORD97":169917.60999999999,"N_COORD97":2546275.3999999999,"ADDRESS":"實踐街３９巷９３號","OBJECTID":299043},"geometry":{"x":169917.61000000034,"y":2546275.4000000004}},{"attributes":{"ID":299052,"DIS_CODE":0,"TOWNNAME":"北區","LI":"小康里","LIN":"4鄰","STREET":"實踐街","SECT":" ","MAREA":" ","LANE":"３９巷","ALLEY":" ","HOUSE_NO":"９５號","E_COORD97":169907.73000000001,"N_COORD97":2546289.75,"ADDRESS":"實踐街３９巷９５號","OBJECTID":299044},"geometry":{"x":169907.73000000138,"y":2546289.75}},{"attributes":{"ID":299053,"DIS_CODE":0,"TOWNNAME":"北區","LI":"小康里","LIN":"4鄰","STREET":"實踐街","SECT":" ","MAREA":" ","LANE":"３９巷","ALLEY":" ","HOUSE_NO":"９７號","E_COORD97":169914.78,"N_COORD97":2546295.4199999999,"ADDRESS":"實踐街３９巷９７號","OBJECTID":299045},"geometry":{"x":169914.78000000026,"y":2546295.4199999999}},{"attributes":{"ID":299054,"DIS_CODE":0,"TOWNNAME":"北區","LI":"永祥里","LIN":"4鄰","STREET":"大武街","SECT":" ","MAREA":" ","LANE":"４７６巷","ALLEY":" ","HOUSE_NO":"１０號","E_COORD97":170044.78,"N_COORD97":2546374.98,"ADDRESS":"大武街４７６巷１０號","OBJECTID":299046},"geometry":{"x":170044.78000000119,"y":2546374.9800000023}},{"attributes":{"ID":299055,"DIS_CODE":0,"TOWNNAME":"北區","LI":"永祥里","LIN":"4鄰","STREET":"大武街","SECT":" ","MAREA":" ","LANE":"４７６巷","ALLEY":" ","HOUSE_NO":"１２號","E_COORD97":170044.42999999999,"N_COORD97":2546370.8500000001,"ADDRESS":"大武街４７６巷１２號","OBJECTID":299047},"geometry":{"x":170044.43000000063,"y":2546370.8499999978}},{"attributes":{"ID":299056,"DIS_CODE":0,"TOWNNAME":"北區","LI":"永祥里","LIN":"4鄰","STREET":"大武街","SECT":" ","MAREA":" ","LANE":"４７６巷","ALLEY":" ","HOUSE_NO":"１４號","E_COORD97":170044.70999999999,"N_COORD97":2546367.02,"ADDRESS":"大武街４７６巷１４號","OBJECTID":299048},"geometry":{"x":170044.71000000089,"y":2546367.0200000014}},{"attributes":{"ID":299057,"DIS_CODE":0,"TOWNNAME":"東區","LI":"德光里","LIN":"8鄰","STREET":"崇明路","SECT":" ","MAREA":" ","LANE":"１８７巷","ALLEY":" ","HOUSE_NO":"２號十一樓之１","E_COORD97":169977.25,"N_COORD97":2542117.75,"ADDRESS":"崇明路１８７巷２號十一樓之１","OBJECTID":299049},"geometry":{"x":169977.25,"y":2542117.7500000019}},{"attributes":{"ID":299058,"DIS_CODE":0,"TOWNNAME":"東區","LI":"關聖里","LIN":"14鄰","STREET":"裕英街","SECT":" ","MAREA":" ","LANE":" ","ALLEY":" ","HOUSE_NO":"６２號","E_COORD97":172170.38,"N_COORD97":2543005.6000000001,"ADDRESS":"裕英街６２號","OBJECTID":299050},"geometry":{"x":172170.37999999989,"y":2543005.5999999996}},{"attributes":{"ID":299059,"DIS_CODE":0,"TOWNNAME":"永康區","LI":"西橋里","LIN":"14鄰","STREET":"大橋一街","SECT":" ","MAREA":" ","LANE":" ","ALLEY":" ","HOUSE_NO":"４３號","E_COORD97":170611.42999999999,"N_COORD97":2546244.75,"ADDRESS":"大橋一街４３號","OBJECTID":299051},"geometry":{"x":170611.4299999997,"y":2546244.7500000019}},{"attributes":{"ID":299060,"DIS_CODE":0,"TOWNNAME":"永康區","LI":"西灣里","LIN":"14鄰","STREET":"大灣五街","SECT":" ","MAREA":" ","LANE":" ","ALLEY":" ","HOUSE_NO":"１０２號","E_COORD97":174682.57000000001,"N_COORD97":2545275.7999999998,"ADDRESS":"大灣五街１０２號","OBJECTID":299052},"geometry":{"x":174682.57000000123,"y":2545275.8000000007}},{"attributes":{"ID":299061,"DIS_CODE":0,"TOWNNAME":"永康區","LI":"西橋里","LIN":"14鄰","STREET":"中華西街","SECT":" ","MAREA":" ","LANE":" ","ALLEY":" ","HOUSE_NO":"１９７號","E_COORD97":170617.57999999999,"N_COORD97":2546339.25,"ADDRESS":"中華西街１９７號","OBJECTID":299053},"geometry":{"x":170617.58000000007,"y":2546339.2500000019}},{"attributes":{"ID":299062,"DIS_CODE":0,"TOWNNAME":"永康區","LI":"西灣里","LIN":"14鄰","STREET":"大灣五街","SECT":" ","MAREA":" ","LANE":" ","ALLEY":" ","HOUSE_NO":"９８號","E_COORD97":174687.60999999999,"N_COORD97":2545273.5499999998,"ADDRESS":"大灣五街９８號","OBJECTID":299054},"geometry":{"x":174687.61000000127,"y":2545273.5500000026}},{"attributes":{"ID":299063,"DIS_CODE":0,"TOWNNAME":"永康區","LI":"西灣里","LIN":"14鄰","STREET":"大灣五街","SECT":" ","MAREA":" ","LANE":" ","ALLEY":" ","HOUSE_NO":"７２號","E_COORD97":174717.85000000001,"N_COORD97":2545258.8700000001,"ADDRESS":"大灣五街７２號","OBJECTID":299055},"geometry":{"x":174717.84999999963,"y":2545258.870000001}},{"attributes":{"ID":299064,"DIS_CODE":0,"TOWNNAME":"永康區","LI":"西橋里","LIN":"14鄰","STREET":"中華西街","SECT":" ","MAREA":" ","LANE":" ","ALLEY":" ","HOUSE_NO":"２０３號","E_COORD97":170620.76999999999,"N_COORD97":2546351,"ADDRESS":"中華西街２０３號","OBJECTID":299056},"geometry":{"x":170620.76999999955,"y":2546351.0000000019}},{"attributes":{"ID":299065,"DIS_CODE":0,"TOWNNAME":"永康區","LI":"尚頂里","LIN":"14鄰","STREET":"正南一街","SECT":" ","MAREA":" ","LANE":" ","ALLEY":" ","HOUSE_NO":"１９５號","E_COORD97":170640.64999999999,"N_COORD97":2547414.77,"ADDRESS":"正南一街１９５號","OBJECTID":299057},"geometry":{"x":170640.6500000013,"y":2547414.7699999996}},{"attributes":{"ID":299066,"DIS_CODE":0,"TOWNNAME":"永康區","LI":"西橋里","LIN":"14鄰","STREET":"大橋一街","SECT":" ","MAREA":" ","LANE":" ","ALLEY":" ","HOUSE_NO":"３５號","E_COORD97":170595.04000000001,"N_COORD97":2546236.75,"ADDRESS":"大橋一街３５號","OBJECTID":299058},"geometry":{"x":170595.04000000097,"y":2546236.7500000019}},{"attributes":{"ID":299067,"DIS_CODE":0,"TOWNNAME":"東區","LI":"關聖里","LIN":"14鄰","STREET":"裕英街","SECT":" ","MAREA":" ","LANE":" ","ALLEY":" ","HOUSE_NO":"１０號","E_COORD97":172074.98999999999,"N_COORD97":2543004.5099999998,"ADDRESS":"裕英街１０號","OBJECTID":299059},"geometry":{"x":172074.99000000022,"y":2543004.5100000016}},{"attributes":{"ID":299068,"DIS_CODE":0,"TOWNNAME":"北區","LI":"永祥里","LIN":"4鄰","STREET":"大武街","SECT":" ","MAREA":" ","LANE":"４７６巷","ALLEY":" ","HOUSE_NO":"２０號","E_COORD97":170045.76999999999,"N_COORD97":2546355.3199999998,"ADDRESS":"大武街４７６巷２０號","OBJECTID":299060},"geometry":{"x":170045.77000000048,"y":2546355.3200000022}},{"attributes":{"ID":299069,"DIS_CODE":0,"TOWNNAME":"北區","LI":"永祥里","LIN":"4鄰","STREET":"大武街","SECT":" ","MAREA":" ","LANE":"４７６巷","ALLEY":" ","HOUSE_NO":"２２號","E_COORD97":170045.98999999999,"N_COORD97":2546351.71,"ADDRESS":"大武街４７６巷２２號","OBJECTID":299061},"geometry":{"x":170045.98999999929,"y":2546351.7100000009}},{"attributes":{"ID":299070,"DIS_CODE":0,"TOWNNAME":"北區","LI":"永祥里","LIN":"4鄰","STREET":"大武街","SECT":" ","MAREA":" ","LANE":"４７６巷","ALLEY":" ","HOUSE_NO":"２４號","E_COORD97":170046.20000000001,"N_COORD97":2546347.7799999998,"ADDRESS":"大武街４７６巷２４號","OBJECTID":299062},"geometry":{"x":170046.20000000019,"y":2546347.7800000012}},{"attributes":{"ID":299071,"DIS_CODE":0,"TOWNNAME":"北區","LI":"永祥里","LIN":"4鄰","STREET":"大武街","SECT":" ","MAREA":" ","LANE":"４７６巷","ALLEY":" ","HOUSE_NO":"２６號","E_COORD97":170046.34,"N_COORD97":2546343.9500000002,"ADDRESS":"大武街４７６巷２６號","OBJECTID":299063},"geometry":{"x":170046.33999999985,"y":2546343.9500000011}},{"attributes":{"ID":299072,"DIS_CODE":0,"TOWNNAME":"北區","LI":"永祥里","LIN":"4鄰","STREET":"大武街","SECT":" ","MAREA":" ","LANE":"４７６巷","ALLEY":" ","HOUSE_NO":"２號","E_COORD97":170044.42000000001,"N_COORD97":2546395.4900000002,"ADDRESS":"大武街４７６巷２號","OBJECTID":299064},"geometry":{"x":170044.41999999993,"y":2546395.4900000021}},{"attributes":{"ID":299073,"DIS_CODE":0,"TOWNNAME":"北區","LI":"永祥里","LIN":"4鄰","STREET":"大武街","SECT":" ","MAREA":" ","LANE":"４７６巷","ALLEY":" ","HOUSE_NO":"６號","E_COORD97":170042.51000000001,"N_COORD97":2546386.7000000002,"ADDRESS":"大武街４７６巷６號","OBJECTID":299065},"geometry":{"x":170042.51000000071,"y":2546386.7000000011}},{"attributes":{"ID":299074,"DIS_CODE":0,"TOWNNAME":"北區","LI":"永祥里","LIN":"4鄰","STREET":"大武街","SECT":" ","MAREA":" ","LANE":"４７６巷","ALLEY":" ","HOUSE_NO":"８號","E_COORD97":170044.5,"N_COORD97":2546379.3100000001,"ADDRESS":"大武街４７６巷８號","OBJECTID":299066},"geometry":{"x":170044.50000000093,"y":2546379.3100000024}},{"attributes":{"ID":299075,"DIS_CODE":0,"TOWNNAME":"北區","LI":"延平里","LIN":"4鄰","STREET":"公園路","SECT":" ","MAREA":" ","LANE":"７４６巷","ALLEY":" ","HOUSE_NO":"２７號","E_COORD97":169150.22,"N_COORD97":2545475.79,"ADDRESS":"公園路７４６巷２７號","OBJECTID":299067},"geometry":{"x":169150.21999999974,"y":2545475.7900000028}},{"attributes":{"ID":299076,"DIS_CODE":0,"TOWNNAME":"北區","LI":"延平里","LIN":"4鄰","STREET":"公園路","SECT":" ","MAREA":" ","LANE":"７４６巷","ALLEY":" ","HOUSE_NO":"７號之１","E_COORD97":169086.38,"N_COORD97":2545499.7599999998,"ADDRESS":"公園路７４６巷７號之１","OBJECTID":299068},"geometry":{"x":169086.37999999989,"y":2545499.7599999998}},{"attributes":{"ID":299077,"DIS_CODE":0,"TOWNNAME":"北區","LI":"延平里","LIN":"4鄰","STREET":"公園路","SECT":" ","MAREA":" ","LANE":"７４６巷","ALLEY":" ","HOUSE_NO":"７號之１０","E_COORD97":169101.67000000001,"N_COORD97":2545491.21,"ADDRESS":"公園路７４６巷７號之１０","OBJECTID":299069},"geometry":{"x":169101.66999999993,"y":2545491.2100000009}},{"attributes":{"ID":299078,"DIS_CODE":0,"TOWNNAME":"北區","LI":"延平里","LIN":"4鄰","STREET":"公園路","SECT":" ","MAREA":" ","LANE":"７４６巷","ALLEY":" ","HOUSE_NO":"７號之２","E_COORD97":169085.54000000001,"N_COORD97":2545490.5099999998,"ADDRESS":"公園路７４６巷７號之２","OBJECTID":299070},"geometry":{"x":169085.54000000004,"y":2545490.5099999998}},{"attributes":{"ID":299079,"DIS_CODE":0,"TOWNNAME":"北區","LI":"延平里","LIN":"4鄰","STREET":"公園路","SECT":" ","MAREA":" ","LANE":"７４６巷","ALLEY":" ","HOUSE_NO":"７號之３","E_COORD97":169090.03,"N_COORD97":2545501.1600000001,"ADDRESS":"公園路７４６巷７號之３","OBJECTID":299071},"geometry":{"x":169090.03000000119,"y":2545501.1600000001}},{"attributes":{"ID":299080,"DIS_CODE":0,"TOWNNAME":"北區","LI":"延平里","LIN":"4鄰","STREET":"公園路","SECT":" ","MAREA":" ","LANE":"７４６巷","ALLEY":" ","HOUSE_NO":"７號之４","E_COORD97":169089.75,"N_COORD97":2545489.8100000001,"ADDRESS":"公園路７４６巷７號之４","OBJECTID":299072},"geometry":{"x":169089.75000000186,"y":2545489.8100000005}},{"attributes":{"ID":299081,"DIS_CODE":0,"TOWNNAME":"北區","LI":"延平里","LIN":"4鄰","STREET":"公園路","SECT":" ","MAREA":" ","LANE":"７４６巷","ALLEY":" ","HOUSE_NO":"７號之５","E_COORD97":169093.26000000001,"N_COORD97":2545499.3399999999,"ADDRESS":"公園路７４６巷７號之５","OBJECTID":299073},"geometry":{"x":169093.26000000071,"y":2545499.3399999999}},{"attributes":{"ID":299082,"DIS_CODE":0,"TOWNNAME":"北區","LI":"延平里","LIN":"4鄰","STREET":"公園路","SECT":" ","MAREA":" ","LANE":"７４６巷","ALLEY":" ","HOUSE_NO":"７號之７","E_COORD97":169097.32000000001,"N_COORD97":2545500.8799999999,"ADDRESS":"公園路７４６巷７號之７","OBJECTID":299074},"geometry":{"x":169097.3200000003,"y":2545500.879999999}},{"attributes":{"ID":299083,"DIS_CODE":0,"TOWNNAME":"東區","LI":"德光里","LIN":"8鄰","STREET":"崇明路","SECT":" ","MAREA":" ","LANE":"１８７巷","ALLEY":" ","HOUSE_NO":"２號十二樓","E_COORD97":169977.25,"N_COORD97":2542117.75,"ADDRESS":"崇明路１８７巷２號十二樓","OBJECTID":299075},"geometry":{"x":169977.25,"y":2542117.7500000019}},{"attributes":{"ID":299084,"DIS_CODE":0,"TOWNNAME":"東區","LI":"德光里","LIN":"8鄰","STREET":"崇明路","SECT":" ","MAREA":" ","LANE":"１８７巷","ALLEY":" ","HOUSE_NO":"２號十二樓之１","E_COORD97":169977.25,"N_COORD97":2542117.75,"ADDRESS":"崇明路１８７巷２號十二樓之１","OBJECTID":299076},"geometry":{"x":169977.25,"y":2542117.7500000019}},{"attributes":{"ID":299085,"DIS_CODE":0,"TOWNNAME":"東區","LI":"德光里","LIN":"8鄰","STREET":"崇明路","SECT":" ","MAREA":" ","LANE":"１８７巷","ALLEY":" ","HOUSE_NO":"２號十三樓","E_COORD97":169977.25,"N_COORD97":2542117.75,"ADDRESS":"崇明路１８７巷２號十三樓","OBJECTID":299077},"geometry":{"x":169977.25,"y":2542117.7500000019}},{"attributes":{"ID":299086,"DIS_CODE":0,"TOWNNAME":"東區","LI":"關聖里","LIN":"14鄰","STREET":"裕英街","SECT":" ","MAREA":" ","LANE":" ","ALLEY":" ","HOUSE_NO":"１２號","E_COORD97":172080.13,"N_COORD97":2543004.6699999999,"ADDRESS":"裕英街１２號","OBJECTID":299078},"geometry":{"x":172080.12999999989,"y":2543004.6699999999}},{"attributes":{"ID":299087,"DIS_CODE":0,"TOWNNAME":"東區","LI":"關聖里","LIN":"14鄰","STREET":"裕英街","SECT":" ","MAREA":" ","LANE":" ","ALLEY":" ","HOUSE_NO":"２８號","E_COORD97":172105.03,"N_COORD97":2543004.6699999999,"ADDRESS":"裕英街２８號","OBJECTID":299079},"geometry":{"x":172105.03000000026,"y":2543004.6699999999}},{"attributes":{"ID":299088,"DIS_CODE":0,"TOWNNAME":"東區","LI":"關聖里","LIN":"14鄰","STREET":"裕英街","SECT":" ","MAREA":" ","LANE":" ","ALLEY":" ","HOUSE_NO":"２６號","E_COORD97":172101.29000000001,"N_COORD97":2543004.6699999999,"ADDRESS":"裕英街２６號","OBJECTID":299080},"geometry":{"x":172101.29000000004,"y":2543004.6699999999}},{"attributes":{"ID":299089,"DIS_CODE":0,"TOWNNAME":"東區","LI":"關聖里","LIN":"14鄰","STREET":"裕英街","SECT":" ","MAREA":" ","LANE":" ","ALLEY":" ","HOUSE_NO":"３６號","E_COORD97":172116.54000000001,"N_COORD97":2543004.0499999998,"ADDRESS":"裕英街３６號","OBJECTID":299081},"geometry":{"x":172116.54000000004,"y":2543004.0499999989}},{"attributes":{"ID":299090,"DIS_CODE":0,"TOWNNAME":"東區","LI":"關聖里","LIN":"14鄰","STREET":"裕英街","SECT":" ","MAREA":" ","LANE":" ","ALLEY":" ","HOUSE_NO":"６６號","E_COORD97":172180.34,"N_COORD97":2543005.4500000002,"ADDRESS":"裕英街６６號","OBJECTID":299082},"geometry":{"x":172180.33999999985,"y":2543005.4499999993}},{"attributes":{"ID":299091,"DIS_CODE":0,"TOWNNAME":"東區","LI":"關聖里","LIN":"14鄰","STREET":"裕智街","SECT":" ","MAREA":" ","LANE":" ","ALLEY":" ","HOUSE_NO":"１號","E_COORD97":172057.41,"N_COORD97":2542977.4399999999,"ADDRESS":"裕智街１號","OBJECTID":299083},"geometry":{"x":172057.41000000108,"y":2542977.4400000013}},{"attributes":{"ID":299092,"DIS_CODE":0,"TOWNNAME":"東區","LI":"關聖里","LIN":"14鄰","STREET":"裕智街","SECT":" ","MAREA":" ","LANE":" ","ALLEY":" ","HOUSE_NO":"３號","E_COORD97":172061.29999999999,"N_COORD97":2542977.1299999999,"ADDRESS":"裕智街３號","OBJECTID":299084},"geometry":{"x":172061.30000000075,"y":2542977.129999999}},{"attributes":{"ID":299093,"DIS_CODE":0,"TOWNNAME":"東區","LI":"關聖里","LIN":"14鄰","STREET":"裕智街","SECT":" ","MAREA":" ","LANE":" ","ALLEY":" ","HOUSE_NO":"７號","E_COORD97":172072.19,"N_COORD97":2542976.8199999998,"ADDRESS":"裕智街７號","OBJECTID":299085},"geometry":{"x":172072.19000000041,"y":2542976.8200000003}},{"attributes":{"ID":299094,"DIS_CODE":0,"TOWNNAME":"東區","LI":"關聖里","LIN":"14鄰","STREET":"裕智街","SECT":" ","MAREA":" ","LANE":" ","ALLEY":" ","HOUSE_NO":"１１號","E_COORD97":172078.26000000001,"N_COORD97":2542976.6600000001,"ADDRESS":"裕智街１１號","OBJECTID":299086},"geometry":{"x":172078.26000000071,"y":2542976.660000002}},{"attributes":{"ID":299095,"DIS_CODE":0,"TOWNNAME":"東區","LI":"南聖里","LIN":"14鄰","STREET":"裕誠街","SECT":" ","MAREA":" ","LANE":" ","ALLEY":" ","HOUSE_NO":"１９７號","E_COORD97":172644.53,"N_COORD97":2543342.1699999999,"ADDRESS":"裕誠街１９７號","OBJECTID":299087},"geometry":{"x":172644.52999999933,"y":2543342.1700000018}},{"attributes":{"ID":299096,"DIS_CODE":0,"TOWNNAME":"東區","LI":"裕聖里","LIN":"14鄰","STREET":"裕敬三街","SECT":" ","MAREA":" ","LANE":" ","ALLEY":" ","HOUSE_NO":"６０號","E_COORD97":172782.87,"N_COORD97":2542384.21,"ADDRESS":"裕敬三街６０號","OBJECTID":299088},"geometry":{"x":172782.87000000197,"y":2542384.2100000028}},{"attributes":{"ID":299097,"DIS_CODE":0,"TOWNNAME":"東區","LI":"裕聖里","LIN":"14鄰","STREET":"裕敬三街","SECT":" ","MAREA":" ","LANE":" ","ALLEY":" ","HOUSE_NO":"５８號","E_COORD97":172782.87,"N_COORD97":2542380.77,"ADDRESS":"裕敬三街５８號","OBJECTID":299089},"geometry":{"x":172782.87000000197,"y":2542380.7699999977}},{"attributes":{"ID":299098,"DIS_CODE":0,"TOWNNAME":"東區","LI":"南聖里","LIN":"14鄰","STREET":"裕誠街","SECT":" ","MAREA":" ","LANE":" ","ALLEY":" ","HOUSE_NO":"２０１號","E_COORD97":172652.06,"N_COORD97":2543343.9700000002,"ADDRESS":"裕誠街２０１號","OBJECTID":299090},"geometry":{"x":172652.05999999866,"y":2543343.9700000025}},{"attributes":{"ID":299099,"DIS_CODE":0,"TOWNNAME":"東區","LI":"南聖里","LIN":"14鄰","STREET":"裕誠街","SECT":" ","MAREA":" ","LANE":" ","ALLEY":" ","HOUSE_NO":"２０３號","E_COORD97":172657.13,"N_COORD97":2543345.1200000001,"ADDRESS":"裕誠街２０３號","OBJECTID":299091},"geometry":{"x":172657.13000000175,"y":2543345.120000001}},{"attributes":{"ID":299100,"DIS_CODE":0,"TOWNNAME":"東區","LI":"南聖里","LIN":"14鄰","STREET":"裕誠街","SECT":" ","MAREA":" ","LANE":" ","ALLEY":" ","HOUSE_NO":"２０５號","E_COORD97":172660.89999999999,"N_COORD97":2543346.5899999999,"ADDRESS":"裕誠街２０５號","OBJECTID":299092},"geometry":{"x":172660.90000000224,"y":2543346.5900000017}},{"attributes":{"ID":299101,"DIS_CODE":0,"TOWNNAME":"東區","LI":"南聖里","LIN":"14鄰","STREET":"裕誠街","SECT":" ","MAREA":" ","LANE":" ","ALLEY":" ","HOUSE_NO":"２０７號","E_COORD97":172664.66,"N_COORD97":2543347.4100000001,"ADDRESS":"裕誠街２０７號","OBJECTID":299093},"geometry":{"x":172664.66000000108,"y":2543347.410000002}},{"attributes":{"ID":299102,"DIS_CODE":0,"TOWNNAME":"東區","LI":"南聖里","LIN":"14鄰","STREET":"裕誠街","SECT":" ","MAREA":" ","LANE":" ","ALLEY":" ","HOUSE_NO":"２０９號","E_COORD97":172668.42999999999,"N_COORD97":2543348.2200000002,"ADDRESS":"裕誠街２０９號","OBJECTID":299094},"geometry":{"x":172668.43000000156,"y":2543348.2200000007}},{"attributes":{"ID":299103,"DIS_CODE":0,"TOWNNAME":"東區","LI":"德光里","LIN":"8鄰","STREET":"崇明路","SECT":" ","MAREA":" ","LANE":"１８７巷","ALLEY":" ","HOUSE_NO":"２號十三樓之１","E_COORD97":169977.25,"N_COORD97":2542117.75,"ADDRESS":"崇明路１８７巷２號十三樓之１","OBJECTID":299095},"geometry":{"x":169977.25,"y":2542117.7500000019}},{"attributes":{"ID":299104,"DIS_CODE":0,"TOWNNAME":"東區","LI":"德光里","LIN":"8鄰","STREET":"崇明路","SECT":" ","MAREA":" ","LANE":"１８７巷","ALLEY":" ","HOUSE_NO":"２號十樓","E_COORD97":169977.25,"N_COORD97":2542117.75,"ADDRESS":"崇明路１８７巷２號十樓","OBJECTID":299096},"geometry":{"x":169977.25,"y":2542117.7500000019}},{"attributes":{"ID":299105,"DIS_CODE":0,"TOWNNAME":"東區","LI":"德光里","LIN":"8鄰","STREET":"崇明路","SECT":" ","MAREA":" ","LANE":"１８７巷","ALLEY":" ","HOUSE_NO":"２號十樓之１","E_COORD97":169977.25,"N_COORD97":2542117.75,"ADDRESS":"崇明路１８７巷２號十樓之１","OBJECTID":299097},"geometry":{"x":169977.25,"y":2542117.7500000019}},{"attributes":{"ID":299106,"DIS_CODE":0,"TOWNNAME":"東區","LI":"德光里","LIN":"8鄰","STREET":"崇明路","SECT":" ","MAREA":" ","LANE":"１８７巷","ALLEY":" ","HOUSE_NO":"２號三樓","E_COORD97":169977.25,"N_COORD97":2542117.75,"ADDRESS":"崇明路１８７巷２號三樓","OBJECTID":299098},"geometry":{"x":169977.25,"y":2542117.7500000019}},{"attributes":{"ID":299107,"DIS_CODE":0,"TOWNNAME":"學甲區","LI":"新榮里","LIN":"4鄰","STREET":" ","SECT":" ","MAREA":"東寮","LANE":" ","ALLEY":" ","HOUSE_NO":"３８號之２５","E_COORD97":166656.47,"N_COORD97":2569326.6200000001,"ADDRESS":"東寮３８號之２５","OBJECTID":299099},"geometry":{"x":166656.46999999974,"y":2569326.620000001}},{"attributes":{"ID":299108,"DIS_CODE":0,"TOWNNAME":"學甲區","LI":"新榮里","LIN":"4鄰","STREET":" ","SECT":" ","MAREA":"東寮","LANE":" ","ALLEY":" ","HOUSE_NO":"３８號之２６","E_COORD97":166652.23999999999,"N_COORD97":2569326.4399999999,"ADDRESS":"東寮３８號之２６","OBJECTID":299100},"geometry":{"x":166652.23999999929,"y":2569326.4400000032}},{"attributes":{"ID":299109,"DIS_CODE":0,"TOWNNAME":"學甲區","LI":"新榮里","LIN":"4鄰","STREET":" ","SECT":" ","MAREA":"東寮","LANE":" ","ALLEY":" ","HOUSE_NO":"３８號之２７","E_COORD97":166648.01000000001,"N_COORD97":2569326.25,"ADDRESS":"東寮３８號之２７","OBJECTID":299101},"geometry":{"x":166648.00999999978,"y":2569326.2500000019}},{"attributes":{"ID":299110,"DIS_CODE":0,"TOWNNAME":"學甲區","LI":"新榮里","LIN":"4鄰","STREET":" ","SECT":" ","MAREA":"東寮","LANE":" ","ALLEY":" ","HOUSE_NO":"３８號之８","E_COORD97":166727.07999999999,"N_COORD97":2569329.0699999998,"ADDRESS":"東寮３８號之８","OBJECTID":299102},"geometry":{"x":166727.08000000007,"y":2569329.0700000003}},{"attributes":{"ID":299111,"DIS_CODE":0,"TOWNNAME":"學甲區","LI":"新榮里","LIN":"4鄰","STREET":" ","SECT":" ","MAREA":"東寮","LANE":" ","ALLEY":" ","HOUSE_NO":"４０號之１","E_COORD97":166698.60999999999,"N_COORD97":2569364.8900000001,"ADDRESS":"東寮４０號之１","OBJECTID":299103},"geometry":{"x":166698.61000000034,"y":2569364.8900000006}},{"attributes":{"ID":299112,"DIS_CODE":0,"TOWNNAME":"學甲區","LI":"新榮里","LIN":"4鄰","STREET":" ","SECT":" ","MAREA":"東寮","LANE":" ","ALLEY":" ","HOUSE_NO":"４０號","E_COORD97":166691.98000000001,"N_COORD97":2569358.96,"ADDRESS":"東寮４０號","OBJECTID":299104},"geometry":{"x":166691.98000000138,"y":2569358.9600000028}},{"attributes":{"ID":299113,"DIS_CODE":0,"TOWNNAME":"學甲區","LI":"新榮里","LIN":"4鄰","STREET":" ","SECT":" ","MAREA":"東寮","LANE":" ","ALLEY":" ","HOUSE_NO":"４１號","E_COORD97":166696.88,"N_COORD97":2569388.2000000002,"ADDRESS":"東寮４１號","OBJECTID":299105},"geometry":{"x":166696.88000000175,"y":2569388.1999999993}},{"attributes":{"ID":299114,"DIS_CODE":0,"TOWNNAME":"東區","LI":"南聖里","LIN":"14鄰","STREET":"裕誠街","SECT":" ","MAREA":" ","LANE":" ","ALLEY":" ","HOUSE_NO":"３０７號","E_COORD97":172750.29000000001,"N_COORD97":2543363.29,"ADDRESS":"裕誠街３０７號","OBJECTID":299106},"geometry":{"x":172750.29000000004,"y":2543363.2899999991}},{"attributes":{"ID":299115,"DIS_CODE":0,"TOWNNAME":"東區","LI":"德光里","LIN":"8鄰","STREET":"崇明路","SECT":" ","MAREA":" ","LANE":"１８７巷","ALLEY":" ","HOUSE_NO":"２號三樓之１","E_COORD97":169977.25,"N_COORD97":2542117.75,"ADDRESS":"崇明路１８７巷２號三樓之１","OBJECTID":299107},"geometry":{"x":169977.25,"y":2542117.7500000019}},{"attributes":{"ID":299116,"DIS_CODE":0,"TOWNNAME":"東區","LI":"德光里","LIN":"8鄰","STREET":"崇明路","SECT":" ","MAREA":" ","LANE":"１８７巷","ALLEY":" ","HOUSE_NO":"２號五樓","E_COORD97":169977.25,"N_COORD97":2542117.75,"ADDRESS":"崇明路１８７巷２號五樓","OBJECTID":299108},"geometry":{"x":169977.25,"y":2542117.7500000019}},{"attributes":{"ID":299117,"DIS_CODE":0,"TOWNNAME":"東區","LI":"德光里","LIN":"8鄰","STREET":"崇明路","SECT":" ","MAREA":" ","LANE":"１８７巷","ALLEY":" ","HOUSE_NO":"２號五樓之１","E_COORD97":169977.25,"N_COORD97":2542117.75,"ADDRESS":"崇明路１８７巷２號五樓之１","OBJECTID":299109},"geometry":{"x":169977.25,"y":2542117.7500000019}},{"attributes":{"ID":299118,"DIS_CODE":0,"TOWNNAME":"東區","LI":"德光里","LIN":"8鄰","STREET":"崇明路","SECT":" ","MAREA":" ","LANE":"１８７巷","ALLEY":" ","HOUSE_NO":"２號六樓","E_COORD97":169977.25,"N_COORD97":2542117.75,"ADDRESS":"崇明路１８７巷２號六樓","OBJECTID":299110},"geometry":{"x":169977.25,"y":2542117.7500000019}},{"attributes":{"ID":299119,"DIS_CODE":0,"TOWNNAME":"東區","LI":"德光里","LIN":"8鄰","STREET":"崇明路","SECT":" ","MAREA":" ","LANE":"１８７巷","ALLEY":" ","HOUSE_NO":"２號六樓之１","E_COORD97":169977.25,"N_COORD97":2542117.75,"ADDRESS":"崇明路１８７巷２號六樓之１","OBJECTID":299111},"geometry":{"x":169977.25,"y":2542117.7500000019}},{"attributes":{"ID":299120,"DIS_CODE":0,"TOWNNAME":"東區","LI":"德光里","LIN":"8鄰","STREET":"崇明路","SECT":" ","MAREA":" ","LANE":"１８７巷","ALLEY":" ","HOUSE_NO":"２號四樓","E_COORD97":169977.25,"N_COORD97":2542117.75,"ADDRESS":"崇明路１８７巷２號四樓","OBJECTID":299112},"geometry":{"x":169977.25,"y":2542117.7500000019}},{"attributes":{"ID":299121,"DIS_CODE":0,"TOWNNAME":"學甲區","LI":"新榮里","LIN":"4鄰","STREET":" ","SECT":" ","MAREA":"東寮","LANE":" ","ALLEY":" ","HOUSE_NO":"４２號","E_COORD97":166710.04000000001,"N_COORD97":2569407.1699999999,"ADDRESS":"東寮４２號","OBJECTID":299113},"geometry":{"x":166710.04000000097,"y":2569407.1700000018}},{"attributes":{"ID":299122,"DIS_CODE":0,"TOWNNAME":"學甲區","LI":"新榮里","LIN":"4鄰","STREET":" ","SECT":" ","MAREA":"東寮","LANE":" ","ALLEY":" ","HOUSE_NO":"４３號","E_COORD97":166706.48000000001,"N_COORD97":2569430.7999999998,"ADDRESS":"東寮４３號","OBJECTID":299114},"geometry":{"x":166706.48000000045,"y":2569430.8000000026}},{"attributes":{"ID":299123,"DIS_CODE":0,"TOWNNAME":"學甲區","LI":"新榮里","LIN":"4鄰","STREET":" ","SECT":" ","MAREA":"東寮","LANE":" ","ALLEY":" ","HOUSE_NO":"４５號","E_COORD97":166688.75,"N_COORD97":2569447.7599999998,"ADDRESS":"東寮４５號","OBJECTID":299115},"geometry":{"x":166688.75,"y":2569447.7600000016}},{"attributes":{"ID":299124,"DIS_CODE":0,"TOWNNAME":"學甲區","LI":"新榮里","LIN":"4鄰","STREET":" ","SECT":" ","MAREA":"東寮","LANE":" ","ALLEY":" ","HOUSE_NO":"４７號","E_COORD97":166730.13,"N_COORD97":2569437.7200000002,"ADDRESS":"東寮４７號","OBJECTID":299116},"geometry":{"x":166730.12999999989,"y":2569437.7200000044}},{"attributes":{"ID":299125,"DIS_CODE":0,"TOWNNAME":"東區","LI":"德光里","LIN":"8鄰","STREET":"崇明路","SECT":" ","MAREA":" ","LANE":"１８７巷","ALLEY":" ","HOUSE_NO":"２號四樓之１","E_COORD97":169977.25,"N_COORD97":2542117.75,"ADDRESS":"崇明路１８７巷２號四樓之１","OBJECTID":299117},"geometry":{"x":169977.25,"y":2542117.7500000019}},{"attributes":{"ID":299126,"DIS_CODE":0,"TOWNNAME":"中西區","LI":"小西里","LIN":"8鄰","STREET":"西門路","SECT":"一段","MAREA":" ","LANE":"６７６巷","ALLEY":" ","HOUSE_NO":"１號一樓","E_COORD97":167758.38,"N_COORD97":2543310.25,"ADDRESS":"西門路一段６７６巷１號一樓","OBJECTID":299118},"geometry":{"x":167758.38000000082,"y":2543310.25}},{"attributes":{"ID":299127,"DIS_CODE":0,"TOWNNAME":"中西區","LI":"小西里","LIN":"8鄰","STREET":"西門路","SECT":"一段","MAREA":" ","LANE":"６７６巷","ALLEY":" ","HOUSE_NO":"１號二樓","E_COORD97":167758.38,"N_COORD97":2543310.25,"ADDRESS":"西門路一段６７６巷１號二樓","OBJECTID":299119},"geometry":{"x":167758.38000000082,"y":2543310.25}},{"attributes":{"ID":299128,"DIS_CODE":0,"TOWNNAME":"中西區","LI":"小西里","LIN":"8鄰","STREET":"西門路","SECT":"一段","MAREA":" ","LANE":"６７６巷","ALLEY":" ","HOUSE_NO":"１號三樓","E_COORD97":167758.38,"N_COORD97":2543310.25,"ADDRESS":"西門路一段６７６巷１號三樓","OBJECTID":299120},"geometry":{"x":167758.38000000082,"y":2543310.25}},{"attributes":{"ID":299129,"DIS_CODE":0,"TOWNNAME":"南區","LI":"永寧里","LIN":"4鄰","STREET":"灣裡路","SECT":" ","MAREA":" ","LANE":"１６２巷","ALLEY":" ","HOUSE_NO":"１８號","E_COORD97":165961.09,"N_COORD97":2536664.2200000002,"ADDRESS":"灣裡路１６２巷１８號","OBJECTID":299121},"geometry":{"x":165961.08999999985,"y":2536664.2200000025}},{"attributes":{"ID":299130,"DIS_CODE":0,"TOWNNAME":"南區","LI":"大恩里","LIN":"4鄰","STREET":"國民路","SECT":" ","MAREA":" ","LANE":"１５８巷","ALLEY":" ","HOUSE_NO":"３０號","E_COORD97":169227.79999999999,"N_COORD97":2540969.4500000002,"ADDRESS":"國民路１５８巷３０號","OBJECTID":299122},"geometry":{"x":169227.79999999981,"y":2540969.4500000011}},{"attributes":{"ID":299131,"DIS_CODE":0,"TOWNNAME":"南區","LI":"大恩里","LIN":"4鄰","STREET":"國民路","SECT":" ","MAREA":" ","LANE":"１５８巷","ALLEY":" ","HOUSE_NO":"３２號","E_COORD97":169229.19,"N_COORD97":2540974.3900000001,"ADDRESS":"國民路１５８巷３２號","OBJECTID":299123},"geometry":{"x":169229.19000000041,"y":2540974.3900000043}},{"attributes":{"ID":299132,"DIS_CODE":0,"TOWNNAME":"南區","LI":"大恩里","LIN":"4鄰","STREET":"國民路","SECT":" ","MAREA":" ","LANE":"１５８巷","ALLEY":" ","HOUSE_NO":"３４號","E_COORD97":169229.51000000001,"N_COORD97":2540978.46,"ADDRESS":"國民路１５８巷３４號","OBJECTID":299124},"geometry":{"x":169229.50999999978,"y":2540978.4600000028}},{"attributes":{"ID":299133,"DIS_CODE":0,"TOWNNAME":"南區","LI":"大恩里","LIN":"4鄰","STREET":"國民路","SECT":" ","MAREA":" ","LANE":"１５８巷","ALLEY":" ","HOUSE_NO":"３６號","E_COORD97":169230.48000000001,"N_COORD97":2540983.29,"ADDRESS":"國民路１５８巷３６號","OBJECTID":299125},"geometry":{"x":169230.48000000045,"y":2540983.2899999972}},{"attributes":{"ID":299134,"DIS_CODE":0,"TOWNNAME":"南區","LI":"大恩里","LIN":"4鄰","STREET":"國民路","SECT":" ","MAREA":" ","LANE":"１５８巷","ALLEY":" ","HOUSE_NO":"３８號","E_COORD97":169232.09,"N_COORD97":2540987.0499999998,"ADDRESS":"國民路１５８巷３８號","OBJECTID":299126},"geometry":{"x":169232.09000000078,"y":2540987.0500000045}},{"attributes":{"ID":299135,"DIS_CODE":0,"TOWNNAME":"南區","LI":"大恩里","LIN":"4鄰","STREET":"國民路","SECT":" ","MAREA":" ","LANE":"１５８巷","ALLEY":" ","HOUSE_NO":"４０號","E_COORD97":169232.84,"N_COORD97":2540991.5499999998,"ADDRESS":"國民路１５８巷４０號","OBJECTID":299127},"geometry":{"x":169232.83999999985,"y":2540991.5500000026}},{"attributes":{"ID":299136,"DIS_CODE":0,"TOWNNAME":"南區","LI":"大恩里","LIN":"4鄰","STREET":"國民路","SECT":" ","MAREA":" ","LANE":"１５８巷","ALLEY":" ","HOUSE_NO":"６號","E_COORD97":169212.56,"N_COORD97":2540917.0699999998,"ADDRESS":"國民路１５８巷６號","OBJECTID":299128},"geometry":{"x":169212.56000000145,"y":2540917.0700000003}},{"attributes":{"ID":299137,"DIS_CODE":0,"TOWNNAME":"中西區","LI":"小西里","LIN":"8鄰","STREET":"西門路","SECT":"一段","MAREA":" ","LANE":"６７６巷","ALLEY":" ","HOUSE_NO":"１號四樓","E_COORD97":167758.38,"N_COORD97":2543310.25,"ADDRESS":"西門路一段６７６巷１號四樓","OBJECTID":299129},"geometry":{"x":167758.38000000082,"y":2543310.25}},{"attributes":{"ID":299138,"DIS_CODE":0,"TOWNNAME":"南區","LI":"開南里","LIN":"8鄰","STREET":"中華西路","SECT":"一段","MAREA":" ","LANE":"６巷","ALLEY":" ","HOUSE_NO":"１號二樓","E_COORD97":166349.84,"N_COORD97":2540522.5800000001,"ADDRESS":"中華西路一段６巷１號二樓","OBJECTID":299130},"geometry":{"x":166349.84000000078,"y":2540522.5800000019}},{"attributes":{"ID":299139,"DIS_CODE":0,"TOWNNAME":"柳營區","LI":"八翁里","LIN":"4鄰","STREET":" ","SECT":" ","MAREA":"八老爺","LANE":" ","ALLEY":" ","HOUSE_NO":"３８號之１","E_COORD97":178067.62,"N_COORD97":2575041.1000000001,"ADDRESS":"八老爺３８號之１","OBJECTID":299131},"geometry":{"x":178067.62000000011,"y":2575041.0999999996}},{"attributes":{"ID":299140,"DIS_CODE":0,"TOWNNAME":"柳營區","LI":"八翁里","LIN":"4鄰","STREET":" ","SECT":" ","MAREA":"八老爺","LANE":" ","ALLEY":" ","HOUSE_NO":"３８號","E_COORD97":178097.04000000001,"N_COORD97":2574985.6000000001,"ADDRESS":"八老爺３８號","OBJECTID":299132},"geometry":{"x":178097.04000000004,"y":2574985.6000000015}},{"attributes":{"ID":299141,"DIS_CODE":0,"TOWNNAME":"柳營區","LI":"八翁里","LIN":"4鄰","STREET":" ","SECT":" ","MAREA":"八老爺","LANE":" ","ALLEY":" ","HOUSE_NO":"３９之２號","E_COORD97":178122.34,"N_COORD97":2574958.8500000001,"ADDRESS":"八老爺３９之２號","OBJECTID":299133},"geometry":{"x":178122.33999999985,"y":2574958.8500000034}},{"attributes":{"ID":299142,"DIS_CODE":0,"TOWNNAME":"柳營區","LI":"八翁里","LIN":"4鄰","STREET":" ","SECT":" ","MAREA":"八老爺","LANE":" ","ALLEY":" ","HOUSE_NO":"３９號之２","E_COORD97":178122.34,"N_COORD97":2574958.8500000001,"ADDRESS":"八老爺３９號之２","OBJECTID":299134},"geometry":{"x":178122.33999999985,"y":2574958.8500000034}},{"attributes":{"ID":299143,"DIS_CODE":0,"TOWNNAME":"柳營區","LI":"八翁里","LIN":"4鄰","STREET":" ","SECT":" ","MAREA":"八老爺","LANE":" ","ALLEY":" ","HOUSE_NO":"３９之３號","E_COORD97":178121.28,"N_COORD97":2574953.1400000001,"ADDRESS":"八老爺３９之３號","OBJECTID":299135},"geometry":{"x":178121.28000000026,"y":2574953.1400000006}},{"attributes":{"ID":299144,"DIS_CODE":0,"TOWNNAME":"南區","LI":"開南里","LIN":"8鄰","STREET":"中華西路","SECT":"一段","MAREA":" ","LANE":"６巷","ALLEY":" ","HOUSE_NO":"１號三樓","E_COORD97":166349.84,"N_COORD97":2540522.5800000001,"ADDRESS":"中華西路一段６巷１號三樓","OBJECTID":299136},"geometry":{"x":166349.84000000078,"y":2540522.5800000019}},{"attributes":{"ID":299145,"DIS_CODE":0,"TOWNNAME":"南區","LI":"開南里","LIN":"8鄰","STREET":"中華西路","SECT":"一段","MAREA":" ","LANE":"６巷","ALLEY":" ","HOUSE_NO":"１號五樓","E_COORD97":166349.84,"N_COORD97":2540522.5800000001,"ADDRESS":"中華西路一段６巷１號五樓","OBJECTID":299137},"geometry":{"x":166349.84000000078,"y":2540522.5800000019}},{"attributes":{"ID":299146,"DIS_CODE":0,"TOWNNAME":"南區","LI":"開南里","LIN":"8鄰","STREET":"中華西路","SECT":"一段","MAREA":" ","LANE":"６巷","ALLEY":" ","HOUSE_NO":"１號四樓","E_COORD97":166349.84,"N_COORD97":2540522.5800000001,"ADDRESS":"中華西路一段６巷１號四樓","OBJECTID":299138},"geometry":{"x":166349.84000000078,"y":2540522.5800000019}},{"attributes":{"ID":299147,"DIS_CODE":0,"TOWNNAME":"南區","LI":"開南里","LIN":"8鄰","STREET":"中華西路","SECT":"一段","MAREA":" ","LANE":"６巷","ALLEY":" ","HOUSE_NO":"２號二樓","E_COORD97":166332.82999999999,"N_COORD97":2540496.5699999998,"ADDRESS":"中華西路一段６巷２號二樓","OBJECTID":299139},"geometry":{"x":166332.83000000194,"y":2540496.5700000003}},{"attributes":{"ID":299148,"DIS_CODE":0,"TOWNNAME":"東區","LI":"南聖里","LIN":"14鄰","STREET":"裕誠街","SECT":" ","MAREA":" ","LANE":" ","ALLEY":" ","HOUSE_NO":"３０１號","E_COORD97":172737.83743000001,"N_COORD97":2543362.5651199999,"ADDRESS":"裕誠街３０１號","OBJECTID":299140},"geometry":{"x":172737.83743000031,"y":2543362.5651239995}},{"attributes":{"ID":299149,"DIS_CODE":0,"TOWNNAME":"東區","LI":"南聖里","LIN":"14鄰","STREET":"裕誠街","SECT":" ","MAREA":" ","LANE":" ","ALLEY":" ","HOUSE_NO":"３０３號","E_COORD97":172741.757094,"N_COORD97":2543362.9884600001,"ADDRESS":"裕誠街３０３號","OBJECTID":299141},"geometry":{"x":172741.75709400047,"y":2543362.9884570017}},{"attributes":{"ID":299150,"DIS_CODE":0,"TOWNNAME":"東區","LI":"南聖里","LIN":"14鄰","STREET":"裕誠街","SECT":" ","MAREA":" ","LANE":" ","ALLEY":" ","HOUSE_NO":"３０５號","E_COORD97":172745.54999999999,"N_COORD97":2543362.6400000001,"ADDRESS":"裕誠街３０５號","OBJECTID":299142},"geometry":{"x":172745.54999999981,"y":2543362.6399999987}},{"attributes":{"ID":299151,"DIS_CODE":0,"TOWNNAME":"東區","LI":"南聖里","LIN":"14鄰","STREET":"裕誠街","SECT":" ","MAREA":" ","LANE":" ","ALLEY":" ","HOUSE_NO":"３０９號","E_COORD97":172754.22,"N_COORD97":2543364.6000000001,"ADDRESS":"裕誠街３０９號","OBJECTID":299143},"geometry":{"x":172754.21999999974,"y":2543364.5999999996}},{"attributes":{"ID":299152,"DIS_CODE":0,"TOWNNAME":"東區","LI":"南聖里","LIN":"14鄰","STREET":"裕誠街","SECT":" ","MAREA":" ","LANE":" ","ALLEY":" ","HOUSE_NO":"３１１號","E_COORD97":172757.98999999999,"N_COORD97":2543365.5800000001,"ADDRESS":"裕誠街３１１號","OBJECTID":299144},"geometry":{"x":172757.99000000022,"y":2543365.5800000001}},{"attributes":{"ID":299153,"DIS_CODE":0,"TOWNNAME":"東區","LI":"南聖里","LIN":"14鄰","STREET":"裕誠街","SECT":" ","MAREA":" ","LANE":" ","ALLEY":" ","HOUSE_NO":"３１３號","E_COORD97":172761.779159,"N_COORD97":2543368.8092899998,"ADDRESS":"裕誠街３１３號","OBJECTID":299145},"geometry":{"x":172761.77915900201,"y":2543368.8092870023}},{"attributes":{"ID":299154,"DIS_CODE":0,"TOWNNAME":"東區","LI":"南聖里","LIN":"14鄰","STREET":"裕誠街","SECT":" ","MAREA":" ","LANE":" ","ALLEY":" ","HOUSE_NO":"３１５號","E_COORD97":172765.59288499999,"N_COORD97":2543369.44429,"ADDRESS":"裕誠街３１５號","OBJECTID":299146},"geometry":{"x":172765.59288500063,"y":2543369.4442870021}},{"attributes":{"ID":299155,"DIS_CODE":0,"TOWNNAME":"東區","LI":"南聖里","LIN":"14鄰","STREET":"裕誠街","SECT":" ","MAREA":" ","LANE":" ","ALLEY":" ","HOUSE_NO":"３７５號","E_COORD97":172838.54000000001,"N_COORD97":2543381.96,"ADDRESS":"裕誠街３７５號","OBJECTID":299147},"geometry":{"x":172838.54000000004,"y":2543381.9600000028}},{"attributes":{"ID":299156,"DIS_CODE":0,"TOWNNAME":"東區","LI":"南聖里","LIN":"14鄰","STREET":"裕誠街","SECT":" ","MAREA":" ","LANE":" ","ALLEY":" ","HOUSE_NO":"３７７號","E_COORD97":172834.78,"N_COORD97":2543381.4700000002,"ADDRESS":"裕誠街３７７號","OBJECTID":299148},"geometry":{"x":172834.78000000119,"y":2543381.4700000025}},{"attributes":{"ID":299157,"DIS_CODE":0,"TOWNNAME":"學甲區","LI":"光華里","LIN":"4鄰","STREET":" ","SECT":" ","MAREA":"過港子","LANE":" ","ALLEY":" ","HOUSE_NO":"３２號之１５","E_COORD97":164521.48999999999,"N_COORD97":2571670.9100000001,"ADDRESS":"過港子３２號之１５","OBJECTID":299149},"geometry":{"x":164521.49000000209,"y":2571670.910000002}},{"attributes":{"ID":299158,"DIS_CODE":0,"TOWNNAME":"學甲區","LI":"光華里","LIN":"4鄰","STREET":" ","SECT":" ","MAREA":"過港子","LANE":" ","ALLEY":" ","HOUSE_NO":"３２號之１６","E_COORD97":164518.01000000001,"N_COORD97":2571670.0600000001,"ADDRESS":"過港子３２號之１６","OBJECTID":299150},"geometry":{"x":164518.01000000071,"y":2571670.0600000024}},{"attributes":{"ID":299159,"DIS_CODE":0,"TOWNNAME":"學甲區","LI":"光華里","LIN":"4鄰","STREET":" ","SECT":" ","MAREA":"過港子","LANE":" ","ALLEY":" ","HOUSE_NO":"３２號之１７","E_COORD97":164513.76000000001,"N_COORD97":2571669.5099999998,"ADDRESS":"過港子３２號之１７","OBJECTID":299151},"geometry":{"x":164513.75999999978,"y":2571669.5100000016}},{"attributes":{"ID":299160,"DIS_CODE":0,"TOWNNAME":"東區","LI":"泉南里","LIN":"15鄰","STREET":"府連東路","SECT":" ","MAREA":" ","LANE":"２２巷","ALLEY":" ","HOUSE_NO":"３號","E_COORD97":169736.39999999999,"N_COORD97":2542772.9399999999,"ADDRESS":"府連東路２２巷３號","OBJECTID":299152},"geometry":{"x":169736.40000000037,"y":2542772.9400000032}},{"attributes":{"ID":299161,"DIS_CODE":0,"TOWNNAME":"東區","LI":"泉南里","LIN":"15鄰","STREET":"府連東路","SECT":" ","MAREA":" ","LANE":"２２巷","ALLEY":" ","HOUSE_NO":"５號","E_COORD97":169734.26000000001,"N_COORD97":2542768.3500000001,"ADDRESS":"府連東路２２巷５號","OBJECTID":299153},"geometry":{"x":169734.26000000071,"y":2542768.3500000015}},{"attributes":{"ID":299162,"DIS_CODE":0,"TOWNNAME":"南區","LI":"鯤鯓里","LIN":"4鄰","STREET":"鯤鯓路","SECT":" ","MAREA":" ","LANE":"１６２巷","ALLEY":" ","HOUSE_NO":"１４號","E_COORD97":164960.76000000001,"N_COORD97":2540180.8399999999,"ADDRESS":"鯤鯓路１６２巷１４號","OBJECTID":299154},"geometry":{"x":164960.76000000071,"y":2540180.8400000017}},{"attributes":{"ID":299163,"DIS_CODE":0,"TOWNNAME":"南區","LI":"鯤鯓里","LIN":"4鄰","STREET":"鯤鯓路","SECT":" ","MAREA":" ","LANE":"１６２巷","ALLEY":" ","HOUSE_NO":"２０號","E_COORD97":164996.39000000001,"N_COORD97":2540194.1800000002,"ADDRESS":"鯤鯓路１６２巷２０號","OBJECTID":299155},"geometry":{"x":164996.3900000006,"y":2540194.1799999997}},{"attributes":{"ID":299164,"DIS_CODE":0,"TOWNNAME":"南區","LI":"開南里","LIN":"8鄰","STREET":"中華西路","SECT":"一段","MAREA":" ","LANE":"６巷","ALLEY":" ","HOUSE_NO":"２號三樓","E_COORD97":166332.82999999999,"N_COORD97":2540496.5699999998,"ADDRESS":"中華西路一段６巷２號三樓","OBJECTID":299156},"geometry":{"x":166332.83000000194,"y":2540496.5700000003}},{"attributes":{"ID":299165,"DIS_CODE":0,"TOWNNAME":"東區","LI":"南聖里","LIN":"14鄰","STREET":"裕誠街","SECT":" ","MAREA":" ","LANE":" ","ALLEY":" ","HOUSE_NO":"３７９號","E_COORD97":172830.85000000001,"N_COORD97":2543380.3199999998,"ADDRESS":"裕誠街３７９號","OBJECTID":299157},"geometry":{"x":172830.84999999963,"y":2543380.3200000003}},{"attributes":{"ID":299166,"DIS_CODE":0,"TOWNNAME":"東區","LI":"南聖里","LIN":"14鄰","STREET":"裕誠街","SECT":" ","MAREA":" ","LANE":" ","ALLEY":" ","HOUSE_NO":"３８１號","E_COORD97":172826.26000000001,"N_COORD97":2543379.5,"ADDRESS":"裕誠街３８１號","OBJECTID":299158},"geometry":{"x":172826.26000000071,"y":2543379.5}},{"attributes":{"ID":299167,"DIS_CODE":0,"TOWNNAME":"東區","LI":"南聖里","LIN":"14鄰","STREET":"裕誠街","SECT":" ","MAREA":" ","LANE":" ","ALLEY":" ","HOUSE_NO":"３８３號","E_COORD97":172821.35000000001,"N_COORD97":2543378.8500000001,"ADDRESS":"裕誠街３８３號","OBJECTID":299159},"geometry":{"x":172821.3499999987,"y":2543378.8500000015}},{"attributes":{"ID":299168,"DIS_CODE":0,"TOWNNAME":"東區","LI":"南聖里","LIN":"14鄰","STREET":"裕誠街","SECT":" ","MAREA":" ","LANE":" ","ALLEY":" ","HOUSE_NO":"３８５號","E_COORD97":172816.92999999999,"N_COORD97":2543377.3700000001,"ADDRESS":"裕誠街３８５號","OBJECTID":299160},"geometry":{"x":172816.9299999997,"y":2543377.370000001}},{"attributes":{"ID":299169,"DIS_CODE":0,"TOWNNAME":"學甲區","LI":"光華里","LIN":"4鄰","STREET":" ","SECT":" ","MAREA":"過港子","LANE":" ","ALLEY":" ","HOUSE_NO":"３２號之１８","E_COORD97":164509.67000000001,"N_COORD97":2571669.1000000001,"ADDRESS":"過港子３２號之１８","OBJECTID":299161},"geometry":{"x":164509.66999999899,"y":2571669.1000000015}},{"attributes":{"ID":299170,"DIS_CODE":0,"TOWNNAME":"東區","LI":"泉南里","LIN":"19鄰","STREET":"府連東路","SECT":" ","MAREA":" ","LANE":"２２巷","ALLEY":" ","HOUSE_NO":"２４號","E_COORD97":169717,"N_COORD97":2542741.8100000001,"ADDRESS":"府連東路２２巷２４號","OBJECTID":299162},"geometry":{"x":169717.00000000186,"y":2542741.8100000024}},{"attributes":{"ID":299171,"DIS_CODE":0,"TOWNNAME":"南區","LI":"開南里","LIN":"8鄰","STREET":"中華西路","SECT":"一段","MAREA":" ","LANE":"６巷","ALLEY":" ","HOUSE_NO":"２號五樓","E_COORD97":166332.82999999999,"N_COORD97":2540496.5699999998,"ADDRESS":"中華西路一段６巷２號五樓","OBJECTID":299163},"geometry":{"x":166332.83000000194,"y":2540496.5700000003}},{"attributes":{"ID":299172,"DIS_CODE":0,"TOWNNAME":"南區","LI":"開南里","LIN":"8鄰","STREET":"中華西路","SECT":"一段","MAREA":" ","LANE":"６巷","ALLEY":" ","HOUSE_NO":"２號四樓","E_COORD97":166332.82999999999,"N_COORD97":2540496.5699999998,"ADDRESS":"中華西路一段６巷２號四樓","OBJECTID":299164},"geometry":{"x":166332.83000000194,"y":2540496.5700000003}},{"attributes":{"ID":299173,"DIS_CODE":0,"TOWNNAME":"南區","LI":"開南里","LIN":"8鄰","STREET":"中華西路","SECT":"一段","MAREA":" ","LANE":"６巷","ALLEY":" ","HOUSE_NO":"３號二樓","E_COORD97":166356.73000000001,"N_COORD97":2540522.7000000002,"ADDRESS":"中華西路一段６巷３號二樓","OBJECTID":299165},"geometry":{"x":166356.73000000138,"y":2540522.6999999993}},{"attributes":{"ID":299174,"DIS_CODE":0,"TOWNNAME":"南區","LI":"開南里","LIN":"8鄰","STREET":"中華西路","SECT":"一段","MAREA":" ","LANE":"６巷","ALLEY":" ","HOUSE_NO":"３號三樓","E_COORD97":166356.73000000001,"N_COORD97":2540522.7000000002,"ADDRESS":"中華西路一段６巷３號三樓","OBJECTID":299166},"geometry":{"x":166356.73000000138,"y":2540522.6999999993}},{"attributes":{"ID":299175,"DIS_CODE":0,"TOWNNAME":"南區","LI":"開南里","LIN":"8鄰","STREET":"中華西路","SECT":"一段","MAREA":" ","LANE":"６巷","ALLEY":" ","HOUSE_NO":"３號五樓","E_COORD97":166356.73000000001,"N_COORD97":2540522.7000000002,"ADDRESS":"中華西路一段６巷３號五樓","OBJECTID":299167},"geometry":{"x":166356.73000000138,"y":2540522.6999999993}},{"attributes":{"ID":299176,"DIS_CODE":0,"TOWNNAME":"南區","LI":"開南里","LIN":"8鄰","STREET":"中華西路","SECT":"一段","MAREA":" ","LANE":"６巷","ALLEY":" ","HOUSE_NO":"３號四樓","E_COORD97":166356.73000000001,"N_COORD97":2540522.7000000002,"ADDRESS":"中華西路一段６巷３號四樓","OBJECTID":299168},"geometry":{"x":166356.73000000138,"y":2540522.6999999993}},{"attributes":{"ID":299177,"DIS_CODE":0,"TOWNNAME":"南區","LI":"開南里","LIN":"8鄰","STREET":"中華西路","SECT":"一段","MAREA":" ","LANE":"６巷","ALLEY":" ","HOUSE_NO":"４號二樓","E_COORD97":166338.70999999999,"N_COORD97":2540496.5699999998,"ADDRESS":"中華西路一段６巷４號二樓","OBJECTID":299169},"geometry":{"x":166338.71000000183,"y":2540496.5700000003}},{"attributes":{"ID":299178,"DIS_CODE":0,"TOWNNAME":"南區","LI":"開南里","LIN":"8鄰","STREET":"中華西路","SECT":"一段","MAREA":" ","LANE":"６巷","ALLEY":" ","HOUSE_NO":"４號三樓","E_COORD97":166338.70999999999,"N_COORD97":2540496.5699999998,"ADDRESS":"中華西路一段６巷４號三樓","OBJECTID":299170},"geometry":{"x":166338.71000000183,"y":2540496.5700000003}},{"attributes":{"ID":299179,"DIS_CODE":0,"TOWNNAME":"南區","LI":"開南里","LIN":"8鄰","STREET":"中華西路","SECT":"一段","MAREA":" ","LANE":"６巷","ALLEY":" ","HOUSE_NO":"４號五樓","E_COORD97":166338.70999999999,"N_COORD97":2540496.5699999998,"ADDRESS":"中華西路一段６巷４號五樓","OBJECTID":299171},"geometry":{"x":166338.71000000183,"y":2540496.5700000003}},{"attributes":{"ID":299180,"DIS_CODE":0,"TOWNNAME":"南區","LI":"開南里","LIN":"8鄰","STREET":"中華西路","SECT":"一段","MAREA":" ","LANE":"６巷","ALLEY":" ","HOUSE_NO":"４號四樓","E_COORD97":166338.70999999999,"N_COORD97":2540496.5699999998,"ADDRESS":"中華西路一段６巷４號四樓","OBJECTID":299172},"geometry":{"x":166338.71000000183,"y":2540496.5700000003}},{"attributes":{"ID":299181,"DIS_CODE":0,"TOWNNAME":"南區","LI":"開南里","LIN":"8鄰","STREET":"中華西路","SECT":"一段","MAREA":" ","LANE":"６巷","ALLEY":" ","HOUSE_NO":"５號二樓","E_COORD97":166366.39000000001,"N_COORD97":2540522.8100000001,"ADDRESS":"中華西路一段６巷５號二樓","OBJECTID":299173},"geometry":{"x":166366.3900000006,"y":2540522.8100000005}},{"attributes":{"ID":299182,"DIS_CODE":0,"TOWNNAME":"南區","LI":"開南里","LIN":"8鄰","STREET":"中華西路","SECT":"一段","MAREA":" ","LANE":"６巷","ALLEY":" ","HOUSE_NO":"５號三樓","E_COORD97":166366.39000000001,"N_COORD97":2540522.8100000001,"ADDRESS":"中華西路一段６巷５號三樓","OBJECTID":299174},"geometry":{"x":166366.3900000006,"y":2540522.8100000005}},{"attributes":{"ID":299183,"DIS_CODE":0,"TOWNNAME":"南區","LI":"開南里","LIN":"8鄰","STREET":"中華西路","SECT":"一段","MAREA":" ","LANE":"６巷","ALLEY":" ","HOUSE_NO":"５號五樓","E_COORD97":166366.39000000001,"N_COORD97":2540522.8100000001,"ADDRESS":"中華西路一段６巷５號五樓","OBJECTID":299175},"geometry":{"x":166366.3900000006,"y":2540522.8100000005}},{"attributes":{"ID":299184,"DIS_CODE":0,"TOWNNAME":"南區","LI":"開南里","LIN":"8鄰","STREET":"中華西路","SECT":"一段","MAREA":" ","LANE":"６巷","ALLEY":" ","HOUSE_NO":"５號四樓","E_COORD97":166366.39000000001,"N_COORD97":2540522.8100000001,"ADDRESS":"中華西路一段６巷５號四樓","OBJECTID":299176},"geometry":{"x":166366.3900000006,"y":2540522.8100000005}},{"attributes":{"ID":299185,"DIS_CODE":0,"TOWNNAME":"南區","LI":"開南里","LIN":"8鄰","STREET":"中華西路","SECT":"一段","MAREA":" ","LANE":"６巷","ALLEY":" ","HOUSE_NO":"６號二樓","E_COORD97":166350.26000000001,"N_COORD97":2540496.6800000002,"ADDRESS":"中華西路一段６巷６號二樓","OBJECTID":299177},"geometry":{"x":166350.26000000071,"y":2540496.6800000034}},{"attributes":{"ID":299186,"DIS_CODE":0,"TOWNNAME":"南區","LI":"開南里","LIN":"8鄰","STREET":"中華西路","SECT":"一段","MAREA":" ","LANE":"６巷","ALLEY":" ","HOUSE_NO":"６號三樓","E_COORD97":166350.26000000001,"N_COORD97":2540496.6800000002,"ADDRESS":"中華西路一段６巷６號三樓","OBJECTID":299178},"geometry":{"x":166350.26000000071,"y":2540496.6800000034}},{"attributes":{"ID":299187,"DIS_CODE":0,"TOWNNAME":"南區","LI":"開南里","LIN":"8鄰","STREET":"中華西路","SECT":"一段","MAREA":" ","LANE":"６巷","ALLEY":" ","HOUSE_NO":"６號五樓","E_COORD97":166350.26000000001,"N_COORD97":2540496.6800000002,"ADDRESS":"中華西路一段６巷６號五樓","OBJECTID":299179},"geometry":{"x":166350.26000000071,"y":2540496.6800000034}},{"attributes":{"ID":299188,"DIS_CODE":0,"TOWNNAME":"南區","LI":"開南里","LIN":"8鄰","STREET":"中華西路","SECT":"一段","MAREA":" ","LANE":"６巷","ALLEY":" ","HOUSE_NO":"６號四樓","E_COORD97":166350.26000000001,"N_COORD97":2540496.6800000002,"ADDRESS":"中華西路一段６巷６號四樓","OBJECTID":299180},"geometry":{"x":166350.26000000071,"y":2540496.6800000034}},{"attributes":{"ID":299189,"DIS_CODE":0,"TOWNNAME":"南區","LI":"開南里","LIN":"8鄰","STREET":"中華西路","SECT":"一段","MAREA":" ","LANE":"６巷","ALLEY":" ","HOUSE_NO":"７號二樓","E_COORD97":166374.26999999999,"N_COORD97":2540522.9199999999,"ADDRESS":"中華西路一段６巷７號二樓","OBJECTID":299181},"geometry":{"x":166374.26999999955,"y":2540522.9200000018}},{"attributes":{"ID":299190,"DIS_CODE":0,"TOWNNAME":"東區","LI":"南聖里","LIN":"14鄰","STREET":"裕誠街","SECT":" ","MAREA":" ","LANE":" ","ALLEY":" ","HOUSE_NO":"３８７號","E_COORD97":172812.51000000001,"N_COORD97":2543376.7200000002,"ADDRESS":"裕誠街３８７號","OBJECTID":299182},"geometry":{"x":172812.51000000071,"y":2543376.7200000025}},{"attributes":{"ID":299191,"DIS_CODE":0,"TOWNNAME":"東區","LI":"南聖里","LIN":"14鄰","STREET":"裕誠街","SECT":" ","MAREA":" ","LANE":" ","ALLEY":" ","HOUSE_NO":"３８９號","E_COORD97":172810.54000000001,"N_COORD97":2543385.3900000001,"ADDRESS":"裕誠街３８９號","OBJECTID":299183},"geometry":{"x":172810.5400000019,"y":2543385.3900000025}},{"attributes":{"ID":299192,"DIS_CODE":0,"TOWNNAME":"北區","LI":"文成里","LIN":"4鄰","STREET":"文賢二街","SECT":" ","MAREA":" ","LANE":"１５７巷","ALLEY":" ","HOUSE_NO":"３１號","E_COORD97":167676.91,"N_COORD97":2545544.29,"ADDRESS":"文賢二街１５７巷３１號","OBJECTID":299184},"geometry":{"x":167676.91000000108,"y":2545544.290000001}},{"attributes":{"ID":299193,"DIS_CODE":0,"TOWNNAME":"北區","LI":"文成里","LIN":"4鄰","STREET":"文賢二街","SECT":" ","MAREA":" ","LANE":"１５７巷","ALLEY":" ","HOUSE_NO":"３３號","E_COORD97":167672.56,"N_COORD97":2545541.27,"ADDRESS":"文賢二街１５７巷３３號","OBJECTID":299185},"geometry":{"x":167672.55999999959,"y":2545541.2700000014}},{"attributes":{"ID":299194,"DIS_CODE":0,"TOWNNAME":"北區","LI":"文成里","LIN":"4鄰","STREET":"文賢二街","SECT":" ","MAREA":" ","LANE":"１５７巷","ALLEY":" ","HOUSE_NO":"３號","E_COORD97":167752.13,"N_COORD97":2545572.2200000002,"ADDRESS":"文賢二街１５７巷３號","OBJECTID":299186},"geometry":{"x":167752.12999999989,"y":2545572.2200000007}},{"attributes":{"ID":299195,"DIS_CODE":0,"TOWNNAME":"北區","LI":"文成里","LIN":"4鄰","STREET":"文賢二街","SECT":" ","MAREA":" ","LANE":"１５７巷","ALLEY":" ","HOUSE_NO":"５號","E_COORD97":167746.26999999999,"N_COORD97":2545570.1400000001,"ADDRESS":"文賢二街１５７巷５號","OBJECTID":299187},"geometry":{"x":167746.26999999955,"y":2545570.1400000043}},{"attributes":{"ID":299196,"DIS_CODE":0,"TOWNNAME":"北區","LI":"文成里","LIN":"4鄰","STREET":"文賢二街","SECT":" ","MAREA":" ","LANE":"１５７巷","ALLEY":" ","HOUSE_NO":"６號","E_COORD97":167739.48000000001,"N_COORD97":2545586.77,"ADDRESS":"文賢二街１５７巷６號","OBJECTID":299188},"geometry":{"x":167739.48000000138,"y":2545586.7699999996}},{"attributes":{"ID":299197,"DIS_CODE":0,"TOWNNAME":"北區","LI":"文成里","LIN":"4鄰","STREET":"文賢二街","SECT":" ","MAREA":" ","LANE":"１５７巷","ALLEY":" ","HOUSE_NO":"７號","E_COORD97":167740.79000000001,"N_COORD97":2545568.25,"ADDRESS":"文賢二街１５７巷７號","OBJECTID":299189},"geometry":{"x":167740.79000000097,"y":2545568.25}},{"attributes":{"ID":299198,"DIS_CODE":0,"TOWNNAME":"北區","LI":"文成里","LIN":"4鄰","STREET":"文賢二街","SECT":" ","MAREA":" ","LANE":"１５７巷","ALLEY":" ","HOUSE_NO":"８號","E_COORD97":167733.04999999999,"N_COORD97":2545584.1299999999,"ADDRESS":"文賢二街１５７巷８號","OBJECTID":299190},"geometry":{"x":167733.05000000168,"y":2545584.129999999}},{"attributes":{"ID":299199,"DIS_CODE":0,"TOWNNAME":"北區","LI":"文成里","LIN":"4鄰","STREET":"文賢二街","SECT":" ","MAREA":" ","LANE":"１５７巷","ALLEY":" ","HOUSE_NO":"９號","E_COORD97":167733.98000000001,"N_COORD97":2545566.1800000002,"ADDRESS":"文賢二街１５７巷９號","OBJECTID":299191},"geometry":{"x":167733.98000000045,"y":2545566.1800000016}},{"attributes":{"ID":299200,"DIS_CODE":0,"TOWNNAME":"南區","LI":"開南里","LIN":"8鄰","STREET":"中華西路","SECT":"一段","MAREA":" ","LANE":"６巷","ALLEY":" ","HOUSE_NO":"７號三樓","E_COORD97":166374.26999999999,"N_COORD97":2540522.9199999999,"ADDRESS":"中華西路一段６巷７號三樓","OBJECTID":299192},"geometry":{"x":166374.26999999955,"y":2540522.9200000018}},{"attributes":{"ID":299201,"DIS_CODE":0,"TOWNNAME":"南區","LI":"開南里","LIN":"8鄰","STREET":"中華西路","SECT":"一段","MAREA":" ","LANE":"６巷","ALLEY":" ","HOUSE_NO":"７號五樓","E_COORD97":166374.26999999999,"N_COORD97":2540522.9199999999,"ADDRESS":"中華西路一段６巷７號五樓","OBJECTID":299193},"geometry":{"x":166374.26999999955,"y":2540522.9200000018}},{"attributes":{"ID":299202,"DIS_CODE":0,"TOWNNAME":"南區","LI":"開南里","LIN":"8鄰","STREET":"中華西路","SECT":"一段","MAREA":" ","LANE":"６巷","ALLEY":" ","HOUSE_NO":"７號四樓","E_COORD97":166374.26999999999,"N_COORD97":2540522.9199999999,"ADDRESS":"中華西路一段６巷７號四樓","OBJECTID":299194},"geometry":{"x":166374.26999999955,"y":2540522.9200000018}},{"attributes":{"ID":299203,"DIS_CODE":0,"TOWNNAME":"南區","LI":"開南里","LIN":"8鄰","STREET":"中華西路","SECT":"一段","MAREA":" ","LANE":"６巷","ALLEY":" ","HOUSE_NO":"８號二樓","E_COORD97":166356.59,"N_COORD97":2540496.6800000002,"ADDRESS":"中華西路一段６巷８號二樓","OBJECTID":299195},"geometry":{"x":166356.59000000078,"y":2540496.6800000034}},{"attributes":{"ID":299204,"DIS_CODE":0,"TOWNNAME":"南區","LI":"開南里","LIN":"8鄰","STREET":"中華西路","SECT":"一段","MAREA":" ","LANE":"６巷","ALLEY":" ","HOUSE_NO":"８號三樓","E_COORD97":166356.59,"N_COORD97":2540496.6800000002,"ADDRESS":"中華西路一段６巷８號三樓","OBJECTID":299196},"geometry":{"x":166356.59000000078,"y":2540496.6800000034}},{"attributes":{"ID":299205,"DIS_CODE":0,"TOWNNAME":"南區","LI":"開南里","LIN":"8鄰","STREET":"中華西路","SECT":"一段","MAREA":" ","LANE":"６巷","ALLEY":" ","HOUSE_NO":"８號五樓","E_COORD97":166356.59,"N_COORD97":2540496.6800000002,"ADDRESS":"中華西路一段６巷８號五樓","OBJECTID":299197},"geometry":{"x":166356.59000000078,"y":2540496.6800000034}},{"attributes":{"ID":299206,"DIS_CODE":0,"TOWNNAME":"南區","LI":"開南里","LIN":"8鄰","STREET":"中華西路","SECT":"一段","MAREA":" ","LANE":"６巷","ALLEY":" ","HOUSE_NO":"８號四樓","E_COORD97":166356.59,"N_COORD97":2540496.6800000002,"ADDRESS":"中華西路一段６巷８號四樓","OBJECTID":299198},"geometry":{"x":166356.59000000078,"y":2540496.6800000034}},{"attributes":{"ID":299207,"DIS_CODE":0,"TOWNNAME":"南區","LI":"新昌里","LIN":"8鄰","STREET":"西門路","SECT":"一段","MAREA":" ","LANE":"５４５巷","ALLEY":" ","HOUSE_NO":"３５號二樓之１","E_COORD97":167572.26999999999,"N_COORD97":2542687.8700000001,"ADDRESS":"西門路一段５４５巷３５號二樓之１","OBJECTID":299199},"geometry":{"x":167572.27000000048,"y":2542687.8700000029}},{"attributes":{"ID":299208,"DIS_CODE":0,"TOWNNAME":"南區","LI":"新昌里","LIN":"8鄰","STREET":"西門路","SECT":"一段","MAREA":" ","LANE":"５４５巷","ALLEY":" ","HOUSE_NO":"３５號三樓之１","E_COORD97":167572.26999999999,"N_COORD97":2542687.8700000001,"ADDRESS":"西門路一段５４５巷３５號三樓之１","OBJECTID":299200},"geometry":{"x":167572.27000000048,"y":2542687.8700000029}}]}