{"displayFieldName":"TOWNNAME","fieldAliases":{"ID":"ID","DIS_CODE":"DIS_CODE","TOWNNAME":"TOWNNAME","LI":"LI","LIN":"LIN","STREET":"STREET","SECT":"SECT","MAREA":"MAREA","LANE":"LANE","ALLEY":"ALLEY","HOUSE_NO":"HOUSE_NO","E_COORD97":"E_COORD97","N_COORD97":"N_COORD97","ADDRESS":"ADDRESS","OBJECTID":"OBJECTID"},"geometryType":"esriGeometryPoint","spatialReference":{"wkid":102443,"latestWkid":3826},"fields":[{"name":"ID","type":"esriFieldTypeDouble","alias":"ID"},{"name":"DIS_CODE","type":"esriFieldTypeInteger","alias":"DIS_CODE"},{"name":"TOWNNAME","type":"esriFieldTypeString","alias":"TOWNNAME","length":8},{"name":"LI","type":"esriFieldTypeString","alias":"LI","length":8},{"name":"LIN","type":"esriFieldTypeString","alias":"LIN","length":12},{"name":"STREET","type":"esriFieldTypeString","alias":"STREET","length":20},{"name":"SECT","type":"esriFieldTypeString","alias":"SECT","length":8},{"name":"MAREA","type":"esriFieldTypeString","alias":"MAREA","length":12},{"name":"LANE","type":"esriFieldTypeString","alias":"LANE","length":10},{"name":"ALLEY","type":"esriFieldTypeString","alias":"ALLEY","length":10},{"name":"HOUSE_NO","type":"esriFieldTypeString","alias":"HOUSE_NO","length":20},{"name":"E_COORD97","type":"esriFieldTypeDouble","alias":"E_COORD97"},{"name":"N_COORD97","type":"esriFieldTypeDouble","alias":"N_COORD97"},{"name":"ADDRESS","type":"esriFieldTypeString","alias":"ADDRESS","length":50},{"name":"OBJECTID","type":"esriFieldTypeOID","alias":"OBJECTID"}],"features":[{"attributes":{"ID":375211,"DIS_CODE":0,"TOWNNAME":"佳里區","LI":"忠仁里","LIN":"10鄰","STREET":"忠仁街","SECT":" ","MAREA":" ","LANE":"１１３巷","ALLEY":" ","HOUSE_NO":"８號","E_COORD97":165996.48000000001,"N_COORD97":2562259.02,"ADDRESS":"忠仁街１１３巷８號","OBJECTID":375201},"geometry":{"x":165996.47999999952,"y":2562259.0199999996}},{"attributes":{"ID":375212,"DIS_CODE":0,"TOWNNAME":"佳里區","LI":"忠仁里","LIN":"10鄰","STREET":"忠仁街","SECT":" ","MAREA":" ","LANE":"１１３巷","ALLEY":" ","HOUSE_NO":"９號","E_COORD97":165991.07999999999,"N_COORD97":2562239.71,"ADDRESS":"忠仁街１１３巷９號","OBJECTID":375202},"geometry":{"x":165991.08000000101,"y":2562239.7100000009}},{"attributes":{"ID":375213,"DIS_CODE":0,"TOWNNAME":"安平區","LI":"平安里","LIN":"9鄰","STREET":"安平路","SECT":" ","MAREA":" ","LANE":"４２６巷","ALLEY":" ","HOUSE_NO":"３２號之３","E_COORD97":165406.242489,"N_COORD97":2544398.9200300002,"ADDRESS":"安平路４２６巷３２號之３","OBJECTID":375203},"geometry":{"x":165406.24248900078,"y":2544398.9200340007}},{"attributes":{"ID":375214,"DIS_CODE":0,"TOWNNAME":"佳里區","LI":"建南里","LIN":"10鄰","STREET":"建中街","SECT":" ","MAREA":" ","LANE":"１１８巷","ALLEY":" ","HOUSE_NO":"３號","E_COORD97":165581.12,"N_COORD97":2562098.7999999998,"ADDRESS":"建中街１１８巷３號","OBJECTID":375204},"geometry":{"x":165581.12000000011,"y":2562098.8000000026}},{"attributes":{"ID":375215,"DIS_CODE":0,"TOWNNAME":"安南區","LI":"安東里","LIN":"10鄰","STREET":"安和路","SECT":"一段","MAREA":" ","LANE":"２２０巷","ALLEY":" ","HOUSE_NO":"１５號","E_COORD97":169380.79999999999,"N_COORD97":2547952.8300000001,"ADDRESS":"安和路一段２２０巷１５號","OBJECTID":375205},"geometry":{"x":169380.80000000168,"y":2547952.8300000019}},{"attributes":{"ID":375216,"DIS_CODE":0,"TOWNNAME":"安南區","LI":"安東里","LIN":"10鄰","STREET":"安和路","SECT":"一段","MAREA":" ","LANE":"２２０巷","ALLEY":" ","HOUSE_NO":"２１號","E_COORD97":169388.35000000001,"N_COORD97":2547965.8199999998,"ADDRESS":"安和路一段２２０巷２１號","OBJECTID":375206},"geometry":{"x":169388.34999999963,"y":2547965.8200000022}},{"attributes":{"ID":375217,"DIS_CODE":0,"TOWNNAME":"安南區","LI":"安東里","LIN":"10鄰","STREET":"安和路","SECT":"一段","MAREA":" ","LANE":"２２０巷","ALLEY":" ","HOUSE_NO":"２５號","E_COORD97":169396.73999999999,"N_COORD97":2547955.5600000001,"ADDRESS":"安和路一段２２０巷２５號","OBJECTID":375207},"geometry":{"x":169396.73999999929,"y":2547955.5600000005}},{"attributes":{"ID":375218,"DIS_CODE":0,"TOWNNAME":"安南區","LI":"安東里","LIN":"10鄰","STREET":"安和路","SECT":"一段","MAREA":" ","LANE":"２２０巷","ALLEY":" ","HOUSE_NO":"３１號","E_COORD97":169409.53,"N_COORD97":2547970.8500000001,"ADDRESS":"安和路一段２２０巷３１號","OBJECTID":375208},"geometry":{"x":169409.53000000026,"y":2547970.8499999996}},{"attributes":{"ID":375219,"DIS_CODE":0,"TOWNNAME":"安南區","LI":"安東里","LIN":"10鄰","STREET":"安和路","SECT":"一段","MAREA":" ","LANE":"２２０巷","ALLEY":" ","HOUSE_NO":"７號","E_COORD97":169368.85000000001,"N_COORD97":2547940.6800000002,"ADDRESS":"安和路一段２２０巷７號","OBJECTID":375209},"geometry":{"x":169368.85000000056,"y":2547940.6799999997}},{"attributes":{"ID":375220,"DIS_CODE":0,"TOWNNAME":"安南區","LI":"安東里","LIN":"10鄰","STREET":"安和路","SECT":"一段","MAREA":" ","LANE":"２５８巷","ALLEY":" ","HOUSE_NO":"２３號","E_COORD97":169372.51999999999,"N_COORD97":2548014.9199999999,"ADDRESS":"安和路一段２５８巷２３號","OBJECTID":375210},"geometry":{"x":169372.52000000048,"y":2548014.9199999981}},{"attributes":{"ID":375221,"DIS_CODE":0,"TOWNNAME":"安南區","LI":"佃西里","LIN":"10鄰","STREET":"海佃路","SECT":"四段","MAREA":" ","LANE":"３２７巷","ALLEY":" ","HOUSE_NO":"１０號","E_COORD97":165550.95000000001,"N_COORD97":2551391.1800000002,"ADDRESS":"海佃路四段３２７巷１０號","OBJECTID":375211},"geometry":{"x":165550.95000000112,"y":2551391.1800000016}},{"attributes":{"ID":375222,"DIS_CODE":0,"TOWNNAME":"安南區","LI":"佃西里","LIN":"10鄰","STREET":"海佃路","SECT":"四段","MAREA":" ","LANE":"３２７巷","ALLEY":" ","HOUSE_NO":"１２號","E_COORD97":165546.26999999999,"N_COORD97":2551392.2200000002,"ADDRESS":"海佃路四段３２７巷１２號","OBJECTID":375212},"geometry":{"x":165546.27000000142,"y":2551392.2200000025}},{"attributes":{"ID":375223,"DIS_CODE":0,"TOWNNAME":"安南區","LI":"佃西里","LIN":"10鄰","STREET":"海佃路","SECT":"四段","MAREA":" ","LANE":"３２７巷","ALLEY":" ","HOUSE_NO":"１４號","E_COORD97":165541.85000000001,"N_COORD97":2551392.73,"ADDRESS":"海佃路四段３２７巷１４號","OBJECTID":375213},"geometry":{"x":165541.84999999963,"y":2551392.7300000004}},{"attributes":{"ID":375224,"DIS_CODE":0,"TOWNNAME":"安南區","LI":"佃西里","LIN":"10鄰","STREET":"海佃路","SECT":"四段","MAREA":" ","LANE":"３２７巷","ALLEY":" ","HOUSE_NO":"２號","E_COORD97":165567.57999999999,"N_COORD97":2551389.6200000001,"ADDRESS":"海佃路四段３２７巷２號","OBJECTID":375214},"geometry":{"x":165567.58000000007,"y":2551389.6200000029}},{"attributes":{"ID":375225,"DIS_CODE":0,"TOWNNAME":"安南區","LI":"佃西里","LIN":"10鄰","STREET":"海佃路","SECT":"四段","MAREA":" ","LANE":"３２７巷","ALLEY":" ","HOUSE_NO":"６號","E_COORD97":165558.73999999999,"N_COORD97":2551390.6600000001,"ADDRESS":"海佃路四段３２７巷６號","OBJECTID":375215},"geometry":{"x":165558.74000000022,"y":2551390.6600000039}},{"attributes":{"ID":375226,"DIS_CODE":0,"TOWNNAME":"安南區","LI":"佃西里","LIN":"10鄰","STREET":"海佃路","SECT":"四段","MAREA":" ","LANE":"３２７巷","ALLEY":" ","HOUSE_NO":"８號","E_COORD97":165553.81,"N_COORD97":2551390.1400000001,"ADDRESS":"海佃路四段３２７巷８號","OBJECTID":375216},"geometry":{"x":165553.80999999959,"y":2551390.1400000006}},{"attributes":{"ID":375227,"DIS_CODE":0,"TOWNNAME":"安南區","LI":"佃西里","LIN":"10鄰","STREET":"海佃路","SECT":"四段","MAREA":" ","LANE":"３８８巷","ALLEY":" ","HOUSE_NO":"１１號","E_COORD97":165582.45999999999,"N_COORD97":2551566.1400000001,"ADDRESS":"海佃路四段３８８巷１１號","OBJECTID":375217},"geometry":{"x":165582.45999999996,"y":2551566.1400000006}},{"attributes":{"ID":375228,"DIS_CODE":0,"TOWNNAME":"安南區","LI":"佃西里","LIN":"10鄰","STREET":"海佃路","SECT":"四段","MAREA":" ","LANE":"３８８巷","ALLEY":" ","HOUSE_NO":"２１號","E_COORD97":165563.38,"N_COORD97":2551616.9399999999,"ADDRESS":"海佃路四段３８８巷２１號","OBJECTID":375218},"geometry":{"x":165563.38000000082,"y":2551616.9399999995}},{"attributes":{"ID":375229,"DIS_CODE":0,"TOWNNAME":"安南區","LI":"佃西里","LIN":"10鄰","STREET":"海佃路","SECT":"四段","MAREA":" ","LANE":"３８８巷","ALLEY":" ","HOUSE_NO":"７號","E_COORD97":165588.5,"N_COORD97":2551557.4300000002,"ADDRESS":"海佃路四段３８８巷７號","OBJECTID":375219},"geometry":{"x":165588.5,"y":2551557.4299999997}},{"attributes":{"ID":375230,"DIS_CODE":0,"TOWNNAME":"安南區","LI":"佃西里","LIN":"10鄰","STREET":"海佃路","SECT":"四段","MAREA":" ","LANE":"３８８巷","ALLEY":" ","HOUSE_NO":"９號","E_COORD97":165578.42999999999,"N_COORD97":2551556.7599999998,"ADDRESS":"海佃路四段３８８巷９號","OBJECTID":375220},"geometry":{"x":165578.4299999997,"y":2551556.7600000016}},{"attributes":{"ID":375231,"DIS_CODE":0,"TOWNNAME":"安南區","LI":"佃西里","LIN":"10鄰","STREET":"海佃路","SECT":"四段","MAREA":" ","LANE":"４５２巷","ALLEY":" ","HOUSE_NO":"１２號","E_COORD97":165484.64999999999,"N_COORD97":2551612.0899999999,"ADDRESS":"海佃路四段４５２巷１２號","OBJECTID":375221},"geometry":{"x":165484.65000000037,"y":2551612.0900000017}},{"attributes":{"ID":375232,"DIS_CODE":0,"TOWNNAME":"安南區","LI":"佃西里","LIN":"10鄰","STREET":"海佃路","SECT":"四段","MAREA":" ","LANE":"４５２巷","ALLEY":" ","HOUSE_NO":"１４號","E_COORD97":165490.48000000001,"N_COORD97":2551616.46,"ADDRESS":"海佃路四段４５２巷１４號","OBJECTID":375222},"geometry":{"x":165490.48000000138,"y":2551616.4600000046}},{"attributes":{"ID":375233,"DIS_CODE":0,"TOWNNAME":"安南區","LI":"佃西里","LIN":"10鄰","STREET":"海佃路","SECT":"四段","MAREA":" ","LANE":"４５２巷","ALLEY":" ","HOUSE_NO":"１６號","E_COORD97":165495.5,"N_COORD97":2551620.8199999998,"ADDRESS":"海佃路四段４５２巷１６號","OBJECTID":375223},"geometry":{"x":165495.5,"y":2551620.8200000022}},{"attributes":{"ID":375234,"DIS_CODE":0,"TOWNNAME":"新營區","LI":"民生里","LIN":"10鄰","STREET":"復興路","SECT":" ","MAREA":" ","LANE":"１４８巷","ALLEY":" ","HOUSE_NO":"５號","E_COORD97":179234.38,"N_COORD97":2578112.3300000001,"ADDRESS":"復興路１４８巷５號","OBJECTID":375224},"geometry":{"x":179234.38000000175,"y":2578112.3300000038}},{"attributes":{"ID":375235,"DIS_CODE":0,"TOWNNAME":"安南區","LI":"佃西里","LIN":"10鄰","STREET":"海佃路","SECT":"四段","MAREA":" ","LANE":"４５２巷","ALLEY":" ","HOUSE_NO":"１８號","E_COORD97":165503.31,"N_COORD97":2551624.9199999999,"ADDRESS":"海佃路四段４５２巷１８號","OBJECTID":375225},"geometry":{"x":165503.30999999959,"y":2551624.9199999999}},{"attributes":{"ID":375236,"DIS_CODE":0,"TOWNNAME":"安南區","LI":"佃西里","LIN":"10鄰","STREET":"海佃路","SECT":"四段","MAREA":" ","LANE":"４５２巷","ALLEY":" ","HOUSE_NO":"２０號","E_COORD97":165505.95999999999,"N_COORD97":2551619.8999999999,"ADDRESS":"海佃路四段４５２巷２０號","OBJECTID":375226},"geometry":{"x":165505.95999999996,"y":2551619.9000000041}},{"attributes":{"ID":375237,"DIS_CODE":0,"TOWNNAME":"安南區","LI":"佃西里","LIN":"10鄰","STREET":"海佃路","SECT":"四段","MAREA":" ","LANE":"４５２巷","ALLEY":" ","HOUSE_NO":"２２號","E_COORD97":165508.87,"N_COORD97":2551618.3100000001,"ADDRESS":"海佃路四段４５２巷２２號","OBJECTID":375227},"geometry":{"x":165508.87000000197,"y":2551618.3100000024}},{"attributes":{"ID":375238,"DIS_CODE":0,"TOWNNAME":"安南區","LI":"佃西里","LIN":"10鄰","STREET":"海佃路","SECT":"四段","MAREA":" ","LANE":"４５２巷","ALLEY":" ","HOUSE_NO":"２８號","E_COORD97":165513.64000000001,"N_COORD97":2551622.6699999999,"ADDRESS":"海佃路四段４５２巷２８號","OBJECTID":375228},"geometry":{"x":165513.6400000006,"y":2551622.6699999999}},{"attributes":{"ID":375239,"DIS_CODE":0,"TOWNNAME":"安南區","LI":"佃西里","LIN":"10鄰","STREET":"海佃路","SECT":"四段","MAREA":" ","LANE":"４５２巷","ALLEY":" ","HOUSE_NO":"３０號","E_COORD97":165519.32999999999,"N_COORD97":2551626.2400000002,"ADDRESS":"海佃路四段４５２巷３０號","OBJECTID":375229},"geometry":{"x":165519.33000000101,"y":2551626.2400000002}},{"attributes":{"ID":375240,"DIS_CODE":0,"TOWNNAME":"安南區","LI":"砂崙里","LIN":"10鄰","STREET":"青砂街","SECT":"一段","MAREA":" ","LANE":"６９５巷","ALLEY":" ","HOUSE_NO":"１２號","E_COORD97":159860.14999999999,"N_COORD97":2552852.96,"ADDRESS":"青砂街一段６９５巷１２號","OBJECTID":375230},"geometry":{"x":159860.15000000037,"y":2552852.9600000009}},{"attributes":{"ID":375241,"DIS_CODE":0,"TOWNNAME":"安南區","LI":"砂崙里","LIN":"10鄰","STREET":"青砂街","SECT":"一段","MAREA":" ","LANE":"６９５巷","ALLEY":" ","HOUSE_NO":"５號","E_COORD97":159916.39999999999,"N_COORD97":2552839.6800000002,"ADDRESS":"青砂街一段６９５巷５號","OBJECTID":375231},"geometry":{"x":159916.40000000224,"y":2552839.6799999997}},{"attributes":{"ID":375242,"DIS_CODE":0,"TOWNNAME":"安南區","LI":"海西里","LIN":"10鄰","STREET":"海環街","SECT":" ","MAREA":" ","LANE":"１４６巷","ALLEY":" ","HOUSE_NO":"３０號","E_COORD97":166385.03,"N_COORD97":2548737.79,"ADDRESS":"海環街１４６巷３０號","OBJECTID":375232},"geometry":{"x":166385.03000000119,"y":2548737.790000001}},{"attributes":{"ID":375243,"DIS_CODE":0,"TOWNNAME":"安南區","LI":"海西里","LIN":"10鄰","STREET":"海環街","SECT":" ","MAREA":" ","LANE":"１４６巷","ALLEY":" ","HOUSE_NO":"３２號","E_COORD97":166379.95999999999,"N_COORD97":2548735.8199999998,"ADDRESS":"海環街１４６巷３２號","OBJECTID":375233},"geometry":{"x":166379.96000000089,"y":2548735.8200000022}},{"attributes":{"ID":375244,"DIS_CODE":0,"TOWNNAME":"安南區","LI":"海西里","LIN":"10鄰","STREET":"海環街","SECT":" ","MAREA":" ","LANE":"１４６巷","ALLEY":" ","HOUSE_NO":"３４號","E_COORD97":166368.69,"N_COORD97":2548740.3300000001,"ADDRESS":"海環街１４６巷３４號","OBJECTID":375234},"geometry":{"x":166368.69000000134,"y":2548740.3300000001}},{"attributes":{"ID":375245,"DIS_CODE":0,"TOWNNAME":"安南區","LI":"海西里","LIN":"10鄰","STREET":"海環街","SECT":" ","MAREA":" ","LANE":"１４６巷","ALLEY":" ","HOUSE_NO":"３６號","E_COORD97":166374.60023700001,"N_COORD97":2548727.68505,"ADDRESS":"海環街１４６巷３６號","OBJECTID":375235},"geometry":{"x":166374.6002369998,"y":2548727.6850530021}},{"attributes":{"ID":375246,"DIS_CODE":0,"TOWNNAME":"安南區","LI":"海西里","LIN":"10鄰","STREET":"海環街","SECT":" ","MAREA":" ","LANE":"１４６巷","ALLEY":" ","HOUSE_NO":"３８號之１","E_COORD97":166364.17999999999,"N_COORD97":2548718.7200000002,"ADDRESS":"海環街１４６巷３８號之１","OBJECTID":375236},"geometry":{"x":166364.18000000063,"y":2548718.7200000007}},{"attributes":{"ID":375247,"DIS_CODE":0,"TOWNNAME":"安南區","LI":"海西里","LIN":"10鄰","STREET":"海環街","SECT":" ","MAREA":" ","LANE":"１４６巷","ALLEY":" ","HOUSE_NO":"４２號","E_COORD97":166323.60999999999,"N_COORD97":2548707.46,"ADDRESS":"海環街１４６巷４２號","OBJECTID":375237},"geometry":{"x":166323.61000000127,"y":2548707.4600000046}},{"attributes":{"ID":375248,"DIS_CODE":0,"TOWNNAME":"安南區","LI":"海西里","LIN":"10鄰","STREET":"海環街","SECT":" ","MAREA":" ","LANE":"１４６巷","ALLEY":" ","HOUSE_NO":"５０號","E_COORD97":166310.92999999999,"N_COORD97":2548695.3599999999,"ADDRESS":"海環街１４６巷５０號","OBJECTID":375238},"geometry":{"x":166310.9299999997,"y":2548695.3599999994}},{"attributes":{"ID":375249,"DIS_CODE":0,"TOWNNAME":"安南區","LI":"海西里","LIN":"10鄰","STREET":"海環街","SECT":" ","MAREA":" ","LANE":"２５６巷","ALLEY":" ","HOUSE_NO":"５０號","E_COORD97":166278.81,"N_COORD97":2548716.75,"ADDRESS":"海環街２５６巷５０號","OBJECTID":375239},"geometry":{"x":166278.81000000052,"y":2548716.75}},{"attributes":{"ID":375250,"DIS_CODE":0,"TOWNNAME":"安南區","LI":"海西里","LIN":"10鄰","STREET":"海環街","SECT":" ","MAREA":" ","LANE":"２５６巷","ALLEY":" ","HOUSE_NO":"６２號","E_COORD97":166266.69,"N_COORD97":2548746.0099999998,"ADDRESS":"海環街２５６巷６２號","OBJECTID":375240},"geometry":{"x":166266.69000000134,"y":2548746.0099999998}},{"attributes":{"ID":375251,"DIS_CODE":0,"TOWNNAME":"安南區","LI":"海西里","LIN":"10鄰","STREET":"海環街","SECT":" ","MAREA":" ","LANE":"２５６巷","ALLEY":" ","HOUSE_NO":"７２號","E_COORD97":166294.01999999999,"N_COORD97":2548733.0699999998,"ADDRESS":"海環街２５６巷７２號","OBJECTID":375241},"geometry":{"x":166294.02000000048,"y":2548733.0699999984}},{"attributes":{"ID":375252,"DIS_CODE":0,"TOWNNAME":"安南區","LI":"海西里","LIN":"10鄰","STREET":"海環街","SECT":" ","MAREA":" ","LANE":"２５６巷","ALLEY":" ","HOUSE_NO":"８４號","E_COORD97":166329.23999999999,"N_COORD97":2548767.8999999999,"ADDRESS":"海環街２５６巷８４號","OBJECTID":375242},"geometry":{"x":166329.24000000115,"y":2548767.9000000004}},{"attributes":{"ID":375253,"DIS_CODE":0,"TOWNNAME":"新市區","LI":"永就里","LIN":"10鄰","STREET":"中山路","SECT":" ","MAREA":" ","LANE":"２７１巷","ALLEY":" ","HOUSE_NO":"１４號","E_COORD97":176836.29000000001,"N_COORD97":2551518.25,"ADDRESS":"中山路２７１巷１４號","OBJECTID":375243},"geometry":{"x":176836.29000000004,"y":2551518.25}},{"attributes":{"ID":375254,"DIS_CODE":0,"TOWNNAME":"新市區","LI":"新和里","LIN":"10鄰","STREET":"忠孝街","SECT":" ","MAREA":" ","LANE":"２８巷","ALLEY":" ","HOUSE_NO":"１８號","E_COORD97":177639.67999999999,"N_COORD97":2552429,"ADDRESS":"忠孝街２８巷１８號","OBJECTID":375244},"geometry":{"x":177639.6799999997,"y":2552429.0000000037}},{"attributes":{"ID":375255,"DIS_CODE":0,"TOWNNAME":"安南區","LI":"新順里","LIN":"10鄰","STREET":"安和路","SECT":"二段","MAREA":" ","LANE":"３００巷","ALLEY":" ","HOUSE_NO":"２６號","E_COORD97":169783.22,"N_COORD97":2549229.77,"ADDRESS":"安和路二段３００巷２６號","OBJECTID":375245},"geometry":{"x":169783.22000000067,"y":2549229.7700000033}},{"attributes":{"ID":375256,"DIS_CODE":0,"TOWNNAME":"安南區","LI":"新順里","LIN":"10鄰","STREET":"安和路","SECT":"二段","MAREA":" ","LANE":"３００巷","ALLEY":" ","HOUSE_NO":"２７號","E_COORD97":169780.88,"N_COORD97":2549246.7200000002,"ADDRESS":"安和路二段３００巷２７號","OBJECTID":375246},"geometry":{"x":169780.88000000082,"y":2549246.7200000007}},{"attributes":{"ID":375257,"DIS_CODE":0,"TOWNNAME":"新營區","LI":"興業里","LIN":"10鄰","STREET":"公誠街","SECT":" ","MAREA":" ","LANE":"６巷","ALLEY":" ","HOUSE_NO":"１８號","E_COORD97":180173.20999999999,"N_COORD97":2578030.3599999999,"ADDRESS":"公誠街６巷１８號","OBJECTID":375247},"geometry":{"x":180173.21000000183,"y":2578030.3600000013}},{"attributes":{"ID":375258,"DIS_CODE":0,"TOWNNAME":"安南區","LI":"安和里","LIN":"10鄰","STREET":"安和路","SECT":"一段","MAREA":" ","LANE":"５２巷","ALLEY":" ","HOUSE_NO":"１０號","E_COORD97":169593.07999999999,"N_COORD97":2547492.8599999999,"ADDRESS":"安和路一段５２巷１０號","OBJECTID":375248},"geometry":{"x":169593.08000000101,"y":2547492.8600000031}},{"attributes":{"ID":375259,"DIS_CODE":0,"TOWNNAME":"安南區","LI":"安和里","LIN":"10鄰","STREET":"安和路","SECT":"一段","MAREA":" ","LANE":"５２巷","ALLEY":" ","HOUSE_NO":"１２號","E_COORD97":169598.39999999999,"N_COORD97":2547496.6600000001,"ADDRESS":"安和路一段５２巷１２號","OBJECTID":375249},"geometry":{"x":169598.4000000013,"y":2547496.660000002}},{"attributes":{"ID":375260,"DIS_CODE":0,"TOWNNAME":"安南區","LI":"安和里","LIN":"10鄰","STREET":"安和路","SECT":"一段","MAREA":" ","LANE":"５２巷","ALLEY":" ","HOUSE_NO":"１３號","E_COORD97":169586.23999999999,"N_COORD97":2547507.29,"ADDRESS":"安和路一段５２巷１３號","OBJECTID":375250},"geometry":{"x":169586.24000000022,"y":2547507.290000001}},{"attributes":{"ID":375261,"DIS_CODE":0,"TOWNNAME":"安南區","LI":"安和里","LIN":"10鄰","STREET":"安和路","SECT":"一段","MAREA":" ","LANE":"５２巷","ALLEY":" ","HOUSE_NO":"１４號","E_COORD97":169604.23000000001,"N_COORD97":2547499.7000000002,"ADDRESS":"安和路一段５２巷１４號","OBJECTID":375251},"geometry":{"x":169604.23000000138,"y":2547499.6999999993}},{"attributes":{"ID":375262,"DIS_CODE":0,"TOWNNAME":"安南區","LI":"安和里","LIN":"10鄰","STREET":"安和路","SECT":"一段","MAREA":" ","LANE":"５２巷","ALLEY":" ","HOUSE_NO":"１５號","E_COORD97":169593.59,"N_COORD97":2547511.6000000001,"ADDRESS":"安和路一段５２巷１５號","OBJECTID":375252},"geometry":{"x":169593.58999999985,"y":2547511.5999999996}},{"attributes":{"ID":375263,"DIS_CODE":0,"TOWNNAME":"安南區","LI":"安和里","LIN":"10鄰","STREET":"安和路","SECT":"一段","MAREA":" ","LANE":"５２巷","ALLEY":" ","HOUSE_NO":"１６號","E_COORD97":169611.57999999999,"N_COORD97":2547502.23,"ADDRESS":"安和路一段５２巷１６號","OBJECTID":375253},"geometry":{"x":169611.58000000101,"y":2547502.2300000023}},{"attributes":{"ID":375264,"DIS_CODE":0,"TOWNNAME":"安南區","LI":"安和里","LIN":"10鄰","STREET":"安和路","SECT":"一段","MAREA":" ","LANE":"５２巷","ALLEY":" ","HOUSE_NO":"１７號","E_COORD97":169599.16,"N_COORD97":2547514.6299999999,"ADDRESS":"安和路一段５２巷１７號","OBJECTID":375254},"geometry":{"x":169599.16000000201,"y":2547514.6300000008}},{"attributes":{"ID":375265,"DIS_CODE":0,"TOWNNAME":"安南區","LI":"溪墘里","LIN":"10鄰","STREET":"海佃路","SECT":"一段","MAREA":" ","LANE":"２７０巷","ALLEY":" ","HOUSE_NO":"１１號","E_COORD97":167178.35999999999,"N_COORD97":2547421.3999999999,"ADDRESS":"海佃路一段２７０巷１１號","OBJECTID":375255},"geometry":{"x":167178.36000000034,"y":2547421.4000000004}},{"attributes":{"ID":375266,"DIS_CODE":0,"TOWNNAME":"安南區","LI":"溪墘里","LIN":"10鄰","STREET":"海佃路","SECT":"一段","MAREA":" ","LANE":"２７０巷","ALLEY":" ","HOUSE_NO":"１３號","E_COORD97":167183.32999999999,"N_COORD97":2547422.8199999998,"ADDRESS":"海佃路一段２７０巷１３號","OBJECTID":375256},"geometry":{"x":167183.33000000007,"y":2547422.820000004}},{"attributes":{"ID":375267,"DIS_CODE":0,"TOWNNAME":"安南區","LI":"溪墘里","LIN":"10鄰","STREET":"海佃路","SECT":"一段","MAREA":" ","LANE":"２７０巷","ALLEY":" ","HOUSE_NO":"１５號","E_COORD97":167189.54999999999,"N_COORD97":2547424.0600000001,"ADDRESS":"海佃路一段２７０巷１５號","OBJECTID":375257},"geometry":{"x":167189.55000000075,"y":2547424.0600000005}},{"attributes":{"ID":375268,"DIS_CODE":0,"TOWNNAME":"安南區","LI":"溪墘里","LIN":"10鄰","STREET":"海佃路","SECT":"一段","MAREA":" ","LANE":"２７０巷","ALLEY":" ","HOUSE_NO":"１７號","E_COORD97":167197.70999999999,"N_COORD97":2547425.48,"ADDRESS":"海佃路一段２７０巷１７號","OBJECTID":375258},"geometry":{"x":167197.70999999996,"y":2547425.4800000042}},{"attributes":{"ID":375269,"DIS_CODE":0,"TOWNNAME":"安南區","LI":"溪墘里","LIN":"10鄰","STREET":"海佃路","SECT":"一段","MAREA":" ","LANE":"２７０巷","ALLEY":" ","HOUSE_NO":"１９號","E_COORD97":167204.10000000001,"N_COORD97":2547428.1400000001,"ADDRESS":"海佃路一段２７０巷１９號","OBJECTID":375259},"geometry":{"x":167204.10000000056,"y":2547428.1400000043}},{"attributes":{"ID":375270,"DIS_CODE":0,"TOWNNAME":"安南區","LI":"溪墘里","LIN":"10鄰","STREET":"海佃路","SECT":"一段","MAREA":" ","LANE":"２７０巷","ALLEY":" ","HOUSE_NO":"１號","E_COORD97":167149.78,"N_COORD97":2547416.0800000001,"ADDRESS":"海佃路一段２７０巷１號","OBJECTID":375260},"geometry":{"x":167149.78000000026,"y":2547416.0800000001}},{"attributes":{"ID":375271,"DIS_CODE":0,"TOWNNAME":"安南區","LI":"溪墘里","LIN":"10鄰","STREET":"海佃路","SECT":"一段","MAREA":" ","LANE":"２７０巷","ALLEY":" ","HOUSE_NO":"２１號","E_COORD97":167209.79000000001,"N_COORD97":2547428.8500000001,"ADDRESS":"海佃路一段２７０巷２１號","OBJECTID":375261},"geometry":{"x":167209.79000000097,"y":2547428.8500000034}},{"attributes":{"ID":375272,"DIS_CODE":0,"TOWNNAME":"安南區","LI":"溪墘里","LIN":"10鄰","STREET":"海佃路","SECT":"一段","MAREA":" ","LANE":"２７０巷","ALLEY":" ","HOUSE_NO":"２３號","E_COORD97":167215.29000000001,"N_COORD97":2547430.27,"ADDRESS":"海佃路一段２７０巷２３號","OBJECTID":375262},"geometry":{"x":167215.29000000097,"y":2547430.2700000014}},{"attributes":{"ID":375273,"DIS_CODE":0,"TOWNNAME":"安南區","LI":"溪墘里","LIN":"10鄰","STREET":"海佃路","SECT":"一段","MAREA":" ","LANE":"２７０巷","ALLEY":" ","HOUSE_NO":"２５號","E_COORD97":167219.89999999999,"N_COORD97":2547431.3300000001,"ADDRESS":"海佃路一段２７０巷２５號","OBJECTID":375263},"geometry":{"x":167219.9000000013,"y":2547431.3300000001}},{"attributes":{"ID":375274,"DIS_CODE":0,"TOWNNAME":"安南區","LI":"溪墘里","LIN":"10鄰","STREET":"海佃路","SECT":"一段","MAREA":" ","LANE":"２７０巷","ALLEY":" ","HOUSE_NO":"２７號","E_COORD97":167225.41,"N_COORD97":2547433.6400000001,"ADDRESS":"海佃路一段２７０巷２７號","OBJECTID":375264},"geometry":{"x":167225.41000000015,"y":2547433.6400000006}},{"attributes":{"ID":375275,"DIS_CODE":0,"TOWNNAME":"安南區","LI":"溪墘里","LIN":"10鄰","STREET":"海佃路","SECT":"一段","MAREA":" ","LANE":"２７０巷","ALLEY":" ","HOUSE_NO":"２９號","E_COORD97":167231.54000000001,"N_COORD97":2547433.4100000001,"ADDRESS":"海佃路一段２７０巷２９號","OBJECTID":375265},"geometry":{"x":167231.5400000019,"y":2547433.410000002}},{"attributes":{"ID":375276,"DIS_CODE":0,"TOWNNAME":"安南區","LI":"溪墘里","LIN":"10鄰","STREET":"海佃路","SECT":"一段","MAREA":" ","LANE":"２７０巷","ALLEY":" ","HOUSE_NO":"３１號","E_COORD97":167237.75,"N_COORD97":2547434.8500000001,"ADDRESS":"海佃路一段２７０巷３１號","OBJECTID":375266},"geometry":{"x":167237.75,"y":2547434.8499999996}},{"attributes":{"ID":375277,"DIS_CODE":0,"TOWNNAME":"安南區","LI":"溪墘里","LIN":"10鄰","STREET":"海佃路","SECT":"一段","MAREA":" ","LANE":"２７０巷","ALLEY":" ","HOUSE_NO":"３３號","E_COORD97":167242.70000000001,"N_COORD97":2547436.02,"ADDRESS":"海佃路一段２７０巷３３號","OBJECTID":375267},"geometry":{"x":167242.70000000112,"y":2547436.0200000014}},{"attributes":{"ID":375278,"DIS_CODE":0,"TOWNNAME":"安南區","LI":"溪墘里","LIN":"10鄰","STREET":"海佃路","SECT":"一段","MAREA":" ","LANE":"２７０巷","ALLEY":" ","HOUSE_NO":"３５號","E_COORD97":167248.17999999999,"N_COORD97":2547436.8300000001,"ADDRESS":"海佃路一段２７０巷３５號","OBJECTID":375268},"geometry":{"x":167248.1799999997,"y":2547436.8300000019}},{"attributes":{"ID":375279,"DIS_CODE":0,"TOWNNAME":"安南區","LI":"溪墘里","LIN":"10鄰","STREET":"海佃路","SECT":"一段","MAREA":" ","LANE":"２７０巷","ALLEY":" ","HOUSE_NO":"３７號","E_COORD97":167257.28,"N_COORD97":2547438.77,"ADDRESS":"海佃路一段２７０巷３７號","OBJECTID":375269},"geometry":{"x":167257.28000000212,"y":2547438.7699999996}},{"attributes":{"ID":375280,"DIS_CODE":0,"TOWNNAME":"安南區","LI":"溪墘里","LIN":"10鄰","STREET":"海佃路","SECT":"一段","MAREA":" ","LANE":"２７０巷","ALLEY":" ","HOUSE_NO":"３號","E_COORD97":167155.45999999999,"N_COORD97":2547417.6699999999,"ADDRESS":"海佃路一段２７０巷３號","OBJECTID":375270},"geometry":{"x":167155.45999999996,"y":2547417.6700000018}},{"attributes":{"ID":375281,"DIS_CODE":0,"TOWNNAME":"安南區","LI":"溪墘里","LIN":"10鄰","STREET":"海佃路","SECT":"一段","MAREA":" ","LANE":"２７０巷","ALLEY":" ","HOUSE_NO":"４１號","E_COORD97":167268.89000000001,"N_COORD97":2547442.1000000001,"ADDRESS":"海佃路一段２７０巷４１號","OBJECTID":375271},"geometry":{"x":167268.88999999966,"y":2547442.1000000015}},{"attributes":{"ID":375282,"DIS_CODE":0,"TOWNNAME":"安南區","LI":"溪墘里","LIN":"10鄰","STREET":"海佃路","SECT":"一段","MAREA":" ","LANE":"２７０巷","ALLEY":" ","HOUSE_NO":"４３號","E_COORD97":167274.10000000001,"N_COORD97":2547443.3599999999,"ADDRESS":"海佃路一段２７０巷４３號","OBJECTID":375272},"geometry":{"x":167274.09999999963,"y":2547443.3600000013}},{"attributes":{"ID":375283,"DIS_CODE":0,"TOWNNAME":"安南區","LI":"溪墘里","LIN":"10鄰","STREET":"海佃路","SECT":"一段","MAREA":" ","LANE":"２７０巷","ALLEY":" ","HOUSE_NO":"４５號","E_COORD97":167280.57999999999,"N_COORD97":2547443.98,"ADDRESS":"海佃路一段２７０巷４５號","OBJECTID":375273},"geometry":{"x":167280.58000000194,"y":2547443.9800000023}},{"attributes":{"ID":375284,"DIS_CODE":0,"TOWNNAME":"安南區","LI":"溪墘里","LIN":"10鄰","STREET":"海佃路","SECT":"一段","MAREA":" ","LANE":"２７０巷","ALLEY":" ","HOUSE_NO":"４７號","E_COORD97":167285.88,"N_COORD97":2547445.8700000001,"ADDRESS":"海佃路一段２７０巷４７號","OBJECTID":375274},"geometry":{"x":167285.88000000082,"y":2547445.870000001}},{"attributes":{"ID":375285,"DIS_CODE":0,"TOWNNAME":"安南區","LI":"溪墘里","LIN":"10鄰","STREET":"海佃路","SECT":"一段","MAREA":" ","LANE":"２７０巷","ALLEY":" ","HOUSE_NO":"５號","E_COORD97":167160.95999999999,"N_COORD97":2547419.0899999999,"ADDRESS":"海佃路一段２７０巷５號","OBJECTID":375275},"geometry":{"x":167160.96000000089,"y":2547419.0899999999}},{"attributes":{"ID":375286,"DIS_CODE":0,"TOWNNAME":"安南區","LI":"溪墘里","LIN":"10鄰","STREET":"海佃路","SECT":"一段","MAREA":" ","LANE":"２７０巷","ALLEY":" ","HOUSE_NO":"７號","E_COORD97":167166.82000000001,"N_COORD97":2547418.7400000002,"ADDRESS":"海佃路一段２７０巷７號","OBJECTID":375276},"geometry":{"x":167166.8200000003,"y":2547418.7400000002}},{"attributes":{"ID":375287,"DIS_CODE":0,"TOWNNAME":"安南區","LI":"溪墘里","LIN":"10鄰","STREET":"海佃路","SECT":"一段","MAREA":" ","LANE":"２７０巷","ALLEY":" ","HOUSE_NO":"９號","E_COORD97":167172.5,"N_COORD97":2547419.27,"ADDRESS":"海佃路一段２７０巷９號","OBJECTID":375277},"geometry":{"x":167172.50000000186,"y":2547419.2700000033}},{"attributes":{"ID":375288,"DIS_CODE":0,"TOWNNAME":"下營區","LI":"仁里里","LIN":"10鄰","STREET":"博愛街","SECT":" ","MAREA":" ","LANE":"１３３巷","ALLEY":" ","HOUSE_NO":"２７號","E_COORD97":173725.01999999999,"N_COORD97":2570415.0699999998,"ADDRESS":"博愛街１３３巷２７號","OBJECTID":375278},"geometry":{"x":173725.01999999955,"y":2570415.0700000022}},{"attributes":{"ID":375289,"DIS_CODE":0,"TOWNNAME":"永康區","LI":"復國里","LIN":"10鄰","STREET":"復國二路","SECT":" ","MAREA":" ","LANE":"８７巷","ALLEY":" ","HOUSE_NO":"６號","E_COORD97":172838.72,"N_COORD97":2545386.6800000002,"ADDRESS":"復國二路８７巷６號","OBJECTID":375279},"geometry":{"x":172838.71999999974,"y":2545386.6800000016}},{"attributes":{"ID":375290,"DIS_CODE":0,"TOWNNAME":"北區","LI":"振興里","LIN":"10鄰","STREET":"長榮路","SECT":"四段","MAREA":" ","LANE":"１３５巷","ALLEY":" ","HOUSE_NO":"１１號","E_COORD97":170214.70999999999,"N_COORD97":2545116.79,"ADDRESS":"長榮路四段１３５巷１１號","OBJECTID":375280},"geometry":{"x":170214.70999999996,"y":2545116.790000001}},{"attributes":{"ID":375291,"DIS_CODE":0,"TOWNNAME":"北區","LI":"振興里","LIN":"10鄰","STREET":"長榮路","SECT":"四段","MAREA":" ","LANE":"１３５巷","ALLEY":" ","HOUSE_NO":"１３號","E_COORD97":170211.54000000001,"N_COORD97":2545114.8300000001,"ADDRESS":"長榮路四段１３５巷１３號","OBJECTID":375281},"geometry":{"x":170211.54000000004,"y":2545114.8300000019}},{"attributes":{"ID":375292,"DIS_CODE":0,"TOWNNAME":"北區","LI":"振興里","LIN":"10鄰","STREET":"長榮路","SECT":"四段","MAREA":" ","LANE":"１３５巷","ALLEY":" ","HOUSE_NO":"１５號","E_COORD97":170207.73000000001,"N_COORD97":2545112.98,"ADDRESS":"長榮路四段１３５巷１５號","OBJECTID":375282},"geometry":{"x":170207.73000000138,"y":2545112.9799999986}},{"attributes":{"ID":375293,"DIS_CODE":0,"TOWNNAME":"北區","LI":"振興里","LIN":"10鄰","STREET":"長榮路","SECT":"四段","MAREA":" ","LANE":"１３５巷","ALLEY":" ","HOUSE_NO":"１７號","E_COORD97":170204.34,"N_COORD97":2545110.3599999999,"ADDRESS":"長榮路四段１３５巷１７號","OBJECTID":375283},"geometry":{"x":170204.34000000171,"y":2545110.3600000013}},{"attributes":{"ID":375294,"DIS_CODE":0,"TOWNNAME":"北區","LI":"振興里","LIN":"10鄰","STREET":"長榮路","SECT":"四段","MAREA":" ","LANE":"１３５巷","ALLEY":" ","HOUSE_NO":"１９號","E_COORD97":170198.56,"N_COORD97":2545107.25,"ADDRESS":"長榮路四段１３５巷１９號","OBJECTID":375284},"geometry":{"x":170198.55999999959,"y":2545107.2499999981}},{"attributes":{"ID":375295,"DIS_CODE":0,"TOWNNAME":"北區","LI":"振興里","LIN":"10鄰","STREET":"長榮路","SECT":"四段","MAREA":" ","LANE":"１３５巷","ALLEY":" ","HOUSE_NO":"１號","E_COORD97":170231.60999999999,"N_COORD97":2545127.5800000001,"ADDRESS":"長榮路四段１３５巷１號","OBJECTID":375285},"geometry":{"x":170231.61000000034,"y":2545127.5800000001}},{"attributes":{"ID":375296,"DIS_CODE":0,"TOWNNAME":"北區","LI":"振興里","LIN":"10鄰","STREET":"長榮路","SECT":"四段","MAREA":" ","LANE":"１１９巷","ALLEY":" ","HOUSE_NO":"１０號","E_COORD97":170216.78,"N_COORD97":2545100.7400000002,"ADDRESS":"長榮路四段１１９巷１０號","OBJECTID":375286},"geometry":{"x":170216.78000000026,"y":2545100.7399999984}},{"attributes":{"ID":375297,"DIS_CODE":0,"TOWNNAME":"北區","LI":"振興里","LIN":"10鄰","STREET":"長榮路","SECT":"四段","MAREA":" ","LANE":"１１９巷","ALLEY":" ","HOUSE_NO":"１１號","E_COORD97":170218.53,"N_COORD97":2545080.3700000001,"ADDRESS":"長榮路四段１１９巷１１號","OBJECTID":375287},"geometry":{"x":170218.53000000026,"y":2545080.3699999992}},{"attributes":{"ID":375298,"DIS_CODE":0,"TOWNNAME":"北區","LI":"振興里","LIN":"10鄰","STREET":"長榮路","SECT":"四段","MAREA":" ","LANE":"１１９巷","ALLEY":" ","HOUSE_NO":"１２號","E_COORD97":170211.67000000001,"N_COORD97":2545097.1400000001,"ADDRESS":"長榮路四段１１９巷１２號","OBJECTID":375288},"geometry":{"x":170211.66999999993,"y":2545097.1400000006}},{"attributes":{"ID":375299,"DIS_CODE":0,"TOWNNAME":"北區","LI":"振興里","LIN":"10鄰","STREET":"長榮路","SECT":"四段","MAREA":" ","LANE":"１１９巷","ALLEY":" ","HOUSE_NO":"１３號","E_COORD97":170214.17999999999,"N_COORD97":2545076.3300000001,"ADDRESS":"長榮路四段１１９巷１３號","OBJECTID":375289},"geometry":{"x":170214.18000000063,"y":2545076.3299999982}},{"attributes":{"ID":375300,"DIS_CODE":0,"TOWNNAME":"北區","LI":"振興里","LIN":"10鄰","STREET":"長榮路","SECT":"四段","MAREA":" ","LANE":"１１９巷","ALLEY":" ","HOUSE_NO":"１４號","E_COORD97":170205.67000000001,"N_COORD97":2545095.0699999998,"ADDRESS":"長榮路四段１１９巷１４號","OBJECTID":375290},"geometry":{"x":170205.67000000179,"y":2545095.0700000003}},{"attributes":{"ID":375301,"DIS_CODE":0,"TOWNNAME":"北區","LI":"振興里","LIN":"10鄰","STREET":"長榮路","SECT":"四段","MAREA":" ","LANE":"１１９巷","ALLEY":" ","HOUSE_NO":"１５號","E_COORD97":170209.92000000001,"N_COORD97":2545074.1499999999,"ADDRESS":"長榮路四段１１９巷１５號","OBJECTID":375291},"geometry":{"x":170209.91999999993,"y":2545074.1500000004}},{"attributes":{"ID":375302,"DIS_CODE":0,"TOWNNAME":"北區","LI":"振興里","LIN":"10鄰","STREET":"長榮路","SECT":"四段","MAREA":" ","LANE":"１１９巷","ALLEY":" ","HOUSE_NO":"１６號","E_COORD97":170201.31,"N_COORD97":2545093.1099999999,"ADDRESS":"長榮路四段１１９巷１６號","OBJECTID":375292},"geometry":{"x":170201.31000000052,"y":2545093.1099999994}},{"attributes":{"ID":375303,"DIS_CODE":0,"TOWNNAME":"北區","LI":"振興里","LIN":"10鄰","STREET":"長榮路","SECT":"四段","MAREA":" ","LANE":"１１９巷","ALLEY":" ","HOUSE_NO":"１７號","E_COORD97":170206.20999999999,"N_COORD97":2545072.1899999999,"ADDRESS":"長榮路四段１１９巷１７號","OBJECTID":375293},"geometry":{"x":170206.21000000089,"y":2545072.1899999995}},{"attributes":{"ID":375304,"DIS_CODE":0,"TOWNNAME":"北區","LI":"振興里","LIN":"10鄰","STREET":"長榮路","SECT":"四段","MAREA":" ","LANE":"１１９巷","ALLEY":" ","HOUSE_NO":"１８號","E_COORD97":170197.04999999999,"N_COORD97":2545091.9100000001,"ADDRESS":"長榮路四段１１９巷１８號","OBJECTID":375294},"geometry":{"x":170197.04999999981,"y":2545091.9100000001}},{"attributes":{"ID":375305,"DIS_CODE":0,"TOWNNAME":"北區","LI":"振興里","LIN":"10鄰","STREET":"長榮路","SECT":"四段","MAREA":" ","LANE":"１１９巷","ALLEY":" ","HOUSE_NO":"１９號","E_COORD97":170202.60999999999,"N_COORD97":2545070.4500000002,"ADDRESS":"長榮路四段１１９巷１９號","OBJECTID":375295},"geometry":{"x":170202.61000000034,"y":2545070.4499999993}},{"attributes":{"ID":375306,"DIS_CODE":0,"TOWNNAME":"北區","LI":"振興里","LIN":"10鄰","STREET":"長榮路","SECT":"四段","MAREA":" ","LANE":"１１９巷","ALLEY":" ","HOUSE_NO":"１號","E_COORD97":170245.79999999999,"N_COORD97":2545097.1499999999,"ADDRESS":"長榮路四段１１９巷１號","OBJECTID":375296},"geometry":{"x":170245.80000000075,"y":2545097.1500000004}},{"attributes":{"ID":375307,"DIS_CODE":0,"TOWNNAME":"北區","LI":"振興里","LIN":"10鄰","STREET":"長榮路","SECT":"四段","MAREA":" ","LANE":"１１９巷","ALLEY":" ","HOUSE_NO":"２０號","E_COORD97":170190.62,"N_COORD97":2545090.3900000001,"ADDRESS":"長榮路四段１１９巷２０號","OBJECTID":375297},"geometry":{"x":170190.62000000011,"y":2545090.3900000043}},{"attributes":{"ID":375308,"DIS_CODE":0,"TOWNNAME":"安平區","LI":"平安里","LIN":"9鄰","STREET":"安平路","SECT":" ","MAREA":" ","LANE":"４２６巷","ALLEY":" ","HOUSE_NO":"３２號之４","E_COORD97":165406.87821200001,"N_COORD97":2544399.3433699999,"ADDRESS":"安平路４２６巷３２號之４","OBJECTID":375298},"geometry":{"x":165406.87821200117,"y":2544399.3433680031}},{"attributes":{"ID":375309,"DIS_CODE":0,"TOWNNAME":"北區","LI":"振興里","LIN":"10鄰","STREET":"長榮路","SECT":"四段","MAREA":" ","LANE":"１１９巷","ALLEY":" ","HOUSE_NO":"２１號","E_COORD97":170198.14000000001,"N_COORD97":2545069.0299999998,"ADDRESS":"長榮路四段１１９巷２１號","OBJECTID":375299},"geometry":{"x":170198.13999999966,"y":2545069.0300000012}},{"attributes":{"ID":375310,"DIS_CODE":0,"TOWNNAME":"北區","LI":"振興里","LIN":"10鄰","STREET":"長榮路","SECT":"四段","MAREA":" ","LANE":"１１９巷","ALLEY":" ","HOUSE_NO":"２２號","E_COORD97":170183.75,"N_COORD97":2545087.77,"ADDRESS":"長榮路四段１１９巷２２號","OBJECTID":375300},"geometry":{"x":170183.75000000093,"y":2545087.7700000014}},{"attributes":{"ID":375311,"DIS_CODE":0,"TOWNNAME":"北區","LI":"興北里","LIN":"10鄰","STREET":"公園路","SECT":" ","MAREA":" ","LANE":"５１６巷","ALLEY":" ","HOUSE_NO":"１號","E_COORD97":169058.62,"N_COORD97":2545223.8700000001,"ADDRESS":"公園路５１６巷１號","OBJECTID":375301},"geometry":{"x":169058.62000000197,"y":2545223.8700000029}},{"attributes":{"ID":375312,"DIS_CODE":0,"TOWNNAME":"北區","LI":"振興里","LIN":"10鄰","STREET":"長榮路","SECT":"四段","MAREA":" ","LANE":"１１９巷","ALLEY":" ","HOUSE_NO":"２３號","E_COORD97":170194.76000000001,"N_COORD97":2545067.6099999999,"ADDRESS":"長榮路四段１１９巷２３號","OBJECTID":375302},"geometry":{"x":170194.76000000164,"y":2545067.6100000013}},{"attributes":{"ID":375313,"DIS_CODE":0,"TOWNNAME":"北區","LI":"振興里","LIN":"10鄰","STREET":"長榮路","SECT":"四段","MAREA":" ","LANE":"１１９巷","ALLEY":" ","HOUSE_NO":"２４號","E_COORD97":170170.88,"N_COORD97":2545087.8799999999,"ADDRESS":"長榮路四段１１９巷２４號","OBJECTID":375303},"geometry":{"x":170170.88000000082,"y":2545087.879999999}},{"attributes":{"ID":375314,"DIS_CODE":0,"TOWNNAME":"北區","LI":"振興里","LIN":"10鄰","STREET":"長榮路","SECT":"四段","MAREA":" ","LANE":"１１９巷","ALLEY":" ","HOUSE_NO":"２５號","E_COORD97":170190.17999999999,"N_COORD97":2545065.8700000001,"ADDRESS":"長榮路四段１１９巷２５號","OBJECTID":375304},"geometry":{"x":170190.18000000156,"y":2545065.870000001}},{"attributes":{"ID":375315,"DIS_CODE":0,"TOWNNAME":"北區","LI":"振興里","LIN":"10鄰","STREET":"長榮路","SECT":"四段","MAREA":" ","LANE":"１１９巷","ALLEY":" ","HOUSE_NO":"２６號","E_COORD97":170163.89000000001,"N_COORD97":2545084.0699999998,"ADDRESS":"長榮路四段１１９巷２６號","OBJECTID":375305},"geometry":{"x":170163.8900000006,"y":2545084.0700000003}},{"attributes":{"ID":375316,"DIS_CODE":0,"TOWNNAME":"北區","LI":"振興里","LIN":"10鄰","STREET":"長榮路","SECT":"四段","MAREA":" ","LANE":"１１９巷","ALLEY":" ","HOUSE_NO":"２７號","E_COORD97":170186.69,"N_COORD97":2545064.6699999999,"ADDRESS":"長榮路四段１１９巷２７號","OBJECTID":375306},"geometry":{"x":170186.69000000041,"y":2545064.6700000018}},{"attributes":{"ID":375317,"DIS_CODE":0,"TOWNNAME":"北區","LI":"振興里","LIN":"10鄰","STREET":"長榮路","SECT":"四段","MAREA":" ","LANE":"１１９巷","ALLEY":" ","HOUSE_NO":"２９號","E_COORD97":170183.20000000001,"N_COORD97":2545062.71,"ADDRESS":"長榮路四段１１９巷２９號","OBJECTID":375307},"geometry":{"x":170183.20000000019,"y":2545062.7100000028}},{"attributes":{"ID":375318,"DIS_CODE":0,"TOWNNAME":"北區","LI":"振興里","LIN":"10鄰","STREET":"長榮路","SECT":"四段","MAREA":" ","LANE":"１１９巷","ALLEY":" ","HOUSE_NO":"２號","E_COORD97":170238.70000000001,"N_COORD97":2545114.0299999998,"ADDRESS":"長榮路四段１１９巷２號","OBJECTID":375308},"geometry":{"x":170238.70000000112,"y":2545114.0299999993}},{"attributes":{"ID":375319,"DIS_CODE":0,"TOWNNAME":"北區","LI":"振興里","LIN":"10鄰","STREET":"長榮路","SECT":"四段","MAREA":" ","LANE":"１１９巷","ALLEY":" ","HOUSE_NO":"３１號","E_COORD97":170178.84,"N_COORD97":2545061.0699999998,"ADDRESS":"長榮路四段１１９巷３１號","OBJECTID":375309},"geometry":{"x":170178.83999999892,"y":2545061.0700000003}},{"attributes":{"ID":375320,"DIS_CODE":0,"TOWNNAME":"北區","LI":"振興里","LIN":"10鄰","STREET":"長榮路","SECT":"四段","MAREA":" ","LANE":"１１９巷","ALLEY":" ","HOUSE_NO":"３３號","E_COORD97":170165.97,"N_COORD97":2545064.3399999999,"ADDRESS":"長榮路四段１１９巷３３號","OBJECTID":375310},"geometry":{"x":170165.96999999881,"y":2545064.3399999999}},{"attributes":{"ID":375321,"DIS_CODE":0,"TOWNNAME":"北區","LI":"振興里","LIN":"10鄰","STREET":"長榮路","SECT":"四段","MAREA":" ","LANE":"１１９巷","ALLEY":" ","HOUSE_NO":"３號","E_COORD97":170240.23999999999,"N_COORD97":2545093.4399999999,"ADDRESS":"長榮路四段１１９巷３號","OBJECTID":375311},"geometry":{"x":170240.24000000022,"y":2545093.4400000013}},{"attributes":{"ID":375322,"DIS_CODE":0,"TOWNNAME":"北區","LI":"振興里","LIN":"10鄰","STREET":"長榮路","SECT":"四段","MAREA":" ","LANE":"１１９巷","ALLEY":" ","HOUSE_NO":"４號","E_COORD97":170233.03,"N_COORD97":2545110.6600000001,"ADDRESS":"長榮路四段１１９巷４號","OBJECTID":375312},"geometry":{"x":170233.03000000119,"y":2545110.6600000001}},{"attributes":{"ID":375323,"DIS_CODE":0,"TOWNNAME":"北區","LI":"振興里","LIN":"10鄰","STREET":"長榮路","SECT":"四段","MAREA":" ","LANE":"１１９巷","ALLEY":" ","HOUSE_NO":"５號","E_COORD97":170235.10999999999,"N_COORD97":2545090.5,"ADDRESS":"長榮路四段１１９巷５號","OBJECTID":375313},"geometry":{"x":170235.11000000034,"y":2545090.5000000019}},{"attributes":{"ID":375324,"DIS_CODE":0,"TOWNNAME":"北區","LI":"振興里","LIN":"10鄰","STREET":"長榮路","SECT":"四段","MAREA":" ","LANE":"１１９巷","ALLEY":" ","HOUSE_NO":"６號","E_COORD97":170228.12,"N_COORD97":2545106.73,"ADDRESS":"長榮路四段１１９巷６號","OBJECTID":375314},"geometry":{"x":170228.12000000197,"y":2545106.7300000004}},{"attributes":{"ID":375325,"DIS_CODE":0,"TOWNNAME":"北區","LI":"振興里","LIN":"10鄰","STREET":"長榮路","SECT":"四段","MAREA":" ","LANE":"１１９巷","ALLEY":" ","HOUSE_NO":"７號","E_COORD97":170229.54999999999,"N_COORD97":2545086.9100000001,"ADDRESS":"長榮路四段１１９巷７號","OBJECTID":375315},"geometry":{"x":170229.54999999981,"y":2545086.910000002}},{"attributes":{"ID":375326,"DIS_CODE":0,"TOWNNAME":"北區","LI":"振興里","LIN":"10鄰","STREET":"長榮路","SECT":"四段","MAREA":" ","LANE":"１１９巷","ALLEY":" ","HOUSE_NO":"８號","E_COORD97":170222.23000000001,"N_COORD97":2545104.1200000001,"ADDRESS":"長榮路四段１１９巷８號","OBJECTID":375316},"geometry":{"x":170222.23000000045,"y":2545104.1200000029}},{"attributes":{"ID":375327,"DIS_CODE":0,"TOWNNAME":"北區","LI":"振興里","LIN":"10鄰","STREET":"長榮路","SECT":"四段","MAREA":" ","LANE":"１１９巷","ALLEY":" ","HOUSE_NO":"９號","E_COORD97":170224.20000000001,"N_COORD97":2545083.0899999999,"ADDRESS":"長榮路四段１１９巷９號","OBJECTID":375317},"geometry":{"x":170224.19999999925,"y":2545083.0899999999}},{"attributes":{"ID":375328,"DIS_CODE":0,"TOWNNAME":"新營區","LI":"新南里","LIN":"10鄰","STREET":"新北五街","SECT":" ","MAREA":" ","LANE":"１４３巷","ALLEY":" ","HOUSE_NO":"３０號","E_COORD97":178497.84,"N_COORD97":2579098.1800000002,"ADDRESS":"新北五街１４３巷３０號","OBJECTID":375318},"geometry":{"x":178497.84000000078,"y":2579098.1799999997}},{"attributes":{"ID":375329,"DIS_CODE":0,"TOWNNAME":"永康區","LI":"西橋里","LIN":"10鄰","STREET":"中華西街","SECT":" ","MAREA":" ","LANE":"１２７巷","ALLEY":" ","HOUSE_NO":"１號","E_COORD97":170654.76000000001,"N_COORD97":2546177.2400000002,"ADDRESS":"中華西街１２７巷１號","OBJECTID":375319},"geometry":{"x":170654.76000000071,"y":2546177.2400000021}},{"attributes":{"ID":375330,"DIS_CODE":0,"TOWNNAME":"永康區","LI":"東灣里","LIN":"10鄰","STREET":"大灣路","SECT":" ","MAREA":" ","LANE":"４９４巷","ALLEY":" ","HOUSE_NO":"３號","E_COORD97":174697.20999999999,"N_COORD97":2544893.4900000002,"ADDRESS":"大灣路４９４巷３號","OBJECTID":375320},"geometry":{"x":174697.20999999996,"y":2544893.4900000021}},{"attributes":{"ID":375331,"DIS_CODE":0,"TOWNNAME":"永康區","LI":"南灣里","LIN":"10鄰","STREET":"大灣東路","SECT":" ","MAREA":" ","LANE":"２２巷","ALLEY":" ","HOUSE_NO":"８０號","E_COORD97":173970.85999999999,"N_COORD97":2543919.9700000002,"ADDRESS":"大灣東路２２巷８０號","OBJECTID":375321},"geometry":{"x":173970.86000000034,"y":2543919.9700000044}},{"attributes":{"ID":375332,"DIS_CODE":0,"TOWNNAME":"永康區","LI":"北灣里","LIN":"10鄰","STREET":"大灣路","SECT":" ","MAREA":" ","LANE":"１０２巷","ALLEY":" ","HOUSE_NO":"１７號","E_COORD97":175142.09,"N_COORD97":2545704.9199999999,"ADDRESS":"大灣路１０２巷１７號","OBJECTID":375322},"geometry":{"x":175142.08999999985,"y":2545704.9199999999}},{"attributes":{"ID":375333,"DIS_CODE":0,"TOWNNAME":"永康區","LI":"三合里","LIN":"10鄰","STREET":"南工街","SECT":" ","MAREA":" ","LANE":"２４７巷","ALLEY":" ","HOUSE_NO":"５７號","E_COORD97":171964.42999999999,"N_COORD97":2545706,"ADDRESS":"南工街２４７巷５７號","OBJECTID":375323},"geometry":{"x":171964.4299999997,"y":2545706.0000000037}},{"attributes":{"ID":375334,"DIS_CODE":0,"TOWNNAME":"永康區","LI":"北灣里","LIN":"10鄰","STREET":"信義街","SECT":" ","MAREA":" ","LANE":"１１２巷","ALLEY":" ","HOUSE_NO":"４號","E_COORD97":175144.14999999999,"N_COORD97":2545647.1299999999,"ADDRESS":"信義街１１２巷４號","OBJECTID":375324},"geometry":{"x":175144.15000000037,"y":2545647.1300000008}},{"attributes":{"ID":375335,"DIS_CODE":0,"TOWNNAME":"永康區","LI":"安康里","LIN":"10鄰","STREET":"中山南路","SECT":" ","MAREA":" ","LANE":"１２３巷","ALLEY":" ","HOUSE_NO":"３７號","E_COORD97":170941,"N_COORD97":2546027,"ADDRESS":"中山南路１２３巷３７號","OBJECTID":375325},"geometry":{"x":170941.00000000093,"y":2546027}},{"attributes":{"ID":375336,"DIS_CODE":0,"TOWNNAME":"永康區","LI":"正強里","LIN":"10鄰","STREET":"正義街","SECT":" ","MAREA":" ","LANE":"８９巷","ALLEY":" ","HOUSE_NO":"１８號","E_COORD97":173454.23000000001,"N_COORD97":2547515.0800000001,"ADDRESS":"正義街８９巷１８號","OBJECTID":375326},"geometry":{"x":173454.23000000138,"y":2547515.0800000001}},{"attributes":{"ID":375337,"DIS_CODE":0,"TOWNNAME":"永康區","LI":"安康里","LIN":"10鄰","STREET":"中華路","SECT":" ","MAREA":" ","LANE":"６１９巷","ALLEY":" ","HOUSE_NO":"６１號","E_COORD97":170867.64999999999,"N_COORD97":2545990.25,"ADDRESS":"中華路６１９巷６１號","OBJECTID":375327},"geometry":{"x":170867.6500000013,"y":2545990.2500000019}},{"attributes":{"ID":375338,"DIS_CODE":0,"TOWNNAME":"新營區","LI":"新北里","LIN":"10鄰","STREET":"長榮路","SECT":"二段","MAREA":" ","LANE":"２７１巷","ALLEY":" ","HOUSE_NO":"５號","E_COORD97":179260.70999999999,"N_COORD97":2579770.0600000001,"ADDRESS":"長榮路二段２７１巷５號","OBJECTID":375328},"geometry":{"x":179260.70999999996,"y":2579770.0600000024}},{"attributes":{"ID":375339,"DIS_CODE":0,"TOWNNAME":"安平區","LI":"文平里","LIN":"10鄰","STREET":"永華四街","SECT":" ","MAREA":" ","LANE":"２７巷","ALLEY":" ","HOUSE_NO":"１１號","E_COORD97":165913.97,"N_COORD97":2543315.6600000001,"ADDRESS":"永華四街２７巷１１號","OBJECTID":375329},"geometry":{"x":165913.96999999974,"y":2543315.660000002}},{"attributes":{"ID":375340,"DIS_CODE":0,"TOWNNAME":"安平區","LI":"文平里","LIN":"10鄰","STREET":"永華四街","SECT":" ","MAREA":" ","LANE":"２７巷","ALLEY":" ","HOUSE_NO":"１３號","E_COORD97":165909.31,"N_COORD97":2543316.25,"ADDRESS":"永華四街２７巷１３號","OBJECTID":375330},"geometry":{"x":165909.31000000052,"y":2543316.25}},{"attributes":{"ID":375341,"DIS_CODE":0,"TOWNNAME":"安南區","LI":"安順里","LIN":"13鄰","STREET":"育安街","SECT":" ","MAREA":" ","LANE":" ","ALLEY":" ","HOUSE_NO":"２７８號","E_COORD97":169608.98000000001,"N_COORD97":2550135.7400000002,"ADDRESS":"育安街２７８號","OBJECTID":375331},"geometry":{"x":169608.97999999952,"y":2550135.7400000039}},{"attributes":{"ID":375342,"DIS_CODE":0,"TOWNNAME":"安平區","LI":"文平里","LIN":"10鄰","STREET":"永華四街","SECT":" ","MAREA":" ","LANE":"２７巷","ALLEY":" ","HOUSE_NO":"１５號","E_COORD97":165905.34,"N_COORD97":2543316.8300000001,"ADDRESS":"永華四街２７巷１５號","OBJECTID":375332},"geometry":{"x":165905.34000000171,"y":2543316.8300000038}},{"attributes":{"ID":375343,"DIS_CODE":0,"TOWNNAME":"安平區","LI":"文平里","LIN":"10鄰","STREET":"永華四街","SECT":" ","MAREA":" ","LANE":"２７巷","ALLEY":" ","HOUSE_NO":"１７號","E_COORD97":165900.44,"N_COORD97":2543317.6499999999,"ADDRESS":"永華四街２７巷１７號","OBJECTID":375333},"geometry":{"x":165900.44000000134,"y":2543317.6500000004}},{"attributes":{"ID":375344,"DIS_CODE":0,"TOWNNAME":"安平區","LI":"文平里","LIN":"10鄰","STREET":"永華四街","SECT":" ","MAREA":" ","LANE":"２７巷","ALLEY":" ","HOUSE_NO":"１９號","E_COORD97":165896.23999999999,"N_COORD97":2543318.1099999999,"ADDRESS":"永華四街２７巷１９號","OBJECTID":375334},"geometry":{"x":165896.24000000209,"y":2543318.1100000013}},{"attributes":{"ID":375345,"DIS_CODE":0,"TOWNNAME":"安平區","LI":"文平里","LIN":"10鄰","STREET":"永華四街","SECT":" ","MAREA":" ","LANE":"２７巷","ALLEY":" ","HOUSE_NO":"１號","E_COORD97":165937.42999999999,"N_COORD97":2543312.3999999999,"ADDRESS":"永華四街２７巷１號","OBJECTID":375335},"geometry":{"x":165937.43000000063,"y":2543312.4000000004}},{"attributes":{"ID":375346,"DIS_CODE":0,"TOWNNAME":"安平區","LI":"文平里","LIN":"10鄰","STREET":"永華四街","SECT":" ","MAREA":" ","LANE":"２７巷","ALLEY":" ","HOUSE_NO":"２１號","E_COORD97":165891.92000000001,"N_COORD97":2543318.7000000002,"ADDRESS":"永華四街２７巷２１號","OBJECTID":375336},"geometry":{"x":165891.92000000086,"y":2543318.6999999993}},{"attributes":{"ID":375347,"DIS_CODE":0,"TOWNNAME":"安平區","LI":"文平里","LIN":"10鄰","STREET":"永華四街","SECT":" ","MAREA":" ","LANE":"２７巷","ALLEY":" ","HOUSE_NO":"２３號","E_COORD97":165887.37,"N_COORD97":2543319.6299999999,"ADDRESS":"永華四街２７巷２３號","OBJECTID":375337},"geometry":{"x":165887.37000000104,"y":2543319.629999999}},{"attributes":{"ID":375348,"DIS_CODE":0,"TOWNNAME":"安平區","LI":"文平里","LIN":"10鄰","STREET":"永華四街","SECT":" ","MAREA":" ","LANE":"２７巷","ALLEY":" ","HOUSE_NO":"２５號","E_COORD97":165882,"N_COORD97":2543319.75,"ADDRESS":"永華四街２７巷２５號","OBJECTID":375338},"geometry":{"x":165882,"y":2543319.75}},{"attributes":{"ID":375349,"DIS_CODE":0,"TOWNNAME":"安平區","LI":"文平里","LIN":"10鄰","STREET":"永華四街","SECT":" ","MAREA":" ","LANE":"２７巷","ALLEY":" ","HOUSE_NO":"２９號","E_COORD97":165877.45000000001,"N_COORD97":2543318.46,"ADDRESS":"永華四街２７巷２９號","OBJECTID":375339},"geometry":{"x":165877.45000000019,"y":2543318.4600000028}},{"attributes":{"ID":375350,"DIS_CODE":0,"TOWNNAME":"安平區","LI":"文平里","LIN":"10鄰","STREET":"永華四街","SECT":" ","MAREA":" ","LANE":"２７巷","ALLEY":" ","HOUSE_NO":"３１號","E_COORD97":165872.78,"N_COORD97":2543319.2799999998,"ADDRESS":"永華四街２７巷３１號","OBJECTID":375340},"geometry":{"x":165872.78000000119,"y":2543319.2799999993}},{"attributes":{"ID":375351,"DIS_CODE":0,"TOWNNAME":"安平區","LI":"文平里","LIN":"10鄰","STREET":"永華四街","SECT":" ","MAREA":" ","LANE":"２７巷","ALLEY":" ","HOUSE_NO":"３３號","E_COORD97":165869.39999999999,"N_COORD97":2543320.1000000001,"ADDRESS":"永華四街２７巷３３號","OBJECTID":375341},"geometry":{"x":165869.40000000037,"y":2543320.0999999996}},{"attributes":{"ID":375352,"DIS_CODE":0,"TOWNNAME":"安平區","LI":"文平里","LIN":"10鄰","STREET":"永華四街","SECT":" ","MAREA":" ","LANE":"２７巷","ALLEY":" ","HOUSE_NO":"３５號","E_COORD97":165864.60999999999,"N_COORD97":2543320.7999999998,"ADDRESS":"永華四街２７巷３５號","OBJECTID":375342},"geometry":{"x":165864.61000000034,"y":2543320.8000000007}},{"attributes":{"ID":375353,"DIS_CODE":0,"TOWNNAME":"安平區","LI":"文平里","LIN":"10鄰","STREET":"永華四街","SECT":" ","MAREA":" ","LANE":"２７巷","ALLEY":" ","HOUSE_NO":"３７號","E_COORD97":165860.88,"N_COORD97":2543321.1499999999,"ADDRESS":"永華四街２７巷３７號","OBJECTID":375343},"geometry":{"x":165860.87999999989,"y":2543321.1500000004}},{"attributes":{"ID":375354,"DIS_CODE":0,"TOWNNAME":"安平區","LI":"文平里","LIN":"10鄰","STREET":"永華四街","SECT":" ","MAREA":" ","LANE":"２７巷","ALLEY":" ","HOUSE_NO":"３９號","E_COORD97":165856.79000000001,"N_COORD97":2543322.1899999999,"ADDRESS":"永華四街２７巷３９號","OBJECTID":375344},"geometry":{"x":165856.7900000019,"y":2543322.1900000013}},{"attributes":{"ID":375355,"DIS_CODE":0,"TOWNNAME":"安平區","LI":"文平里","LIN":"10鄰","STREET":"永華四街","SECT":" ","MAREA":" ","LANE":"２７巷","ALLEY":" ","HOUSE_NO":"３號","E_COORD97":165932.29999999999,"N_COORD97":2543312.98,"ADDRESS":"永華四街２７巷３號","OBJECTID":375345},"geometry":{"x":165932.29999999981,"y":2543312.9800000042}},{"attributes":{"ID":375356,"DIS_CODE":0,"TOWNNAME":"安平區","LI":"文平里","LIN":"10鄰","STREET":"永華四街","SECT":" ","MAREA":" ","LANE":"２７巷","ALLEY":" ","HOUSE_NO":"４１號","E_COORD97":165851.89000000001,"N_COORD97":2543322.8900000001,"ADDRESS":"永華四街２７巷４１號","OBJECTID":375346},"geometry":{"x":165851.88999999966,"y":2543322.8900000006}},{"attributes":{"ID":375357,"DIS_CODE":0,"TOWNNAME":"安平區","LI":"文平里","LIN":"10鄰","STREET":"永華四街","SECT":" ","MAREA":" ","LANE":"２７巷","ALLEY":" ","HOUSE_NO":"４３號","E_COORD97":165847.69,"N_COORD97":2543323.3599999999,"ADDRESS":"永華四街２７巷４３號","OBJECTID":375347},"geometry":{"x":165847.69000000227,"y":2543323.3600000013}},{"attributes":{"ID":375358,"DIS_CODE":0,"TOWNNAME":"安平區","LI":"文平里","LIN":"10鄰","STREET":"永華四街","SECT":" ","MAREA":" ","LANE":"２７巷","ALLEY":" ","HOUSE_NO":"４５號","E_COORD97":165843.41,"N_COORD97":2543323.48,"ADDRESS":"永華四街２７巷４５號","OBJECTID":375348},"geometry":{"x":165843.41000000015,"y":2543323.4800000023}},{"attributes":{"ID":375359,"DIS_CODE":0,"TOWNNAME":"安平區","LI":"文平里","LIN":"10鄰","STREET":"永華四街","SECT":" ","MAREA":" ","LANE":"２７巷","ALLEY":" ","HOUSE_NO":"４７號","E_COORD97":165839.56,"N_COORD97":2543323.3599999999,"ADDRESS":"永華四街２７巷４７號","OBJECTID":375349},"geometry":{"x":165839.56000000052,"y":2543323.3600000013}},{"attributes":{"ID":375360,"DIS_CODE":0,"TOWNNAME":"安平區","LI":"文平里","LIN":"10鄰","STREET":"永華四街","SECT":" ","MAREA":" ","LANE":"２７巷","ALLEY":" ","HOUSE_NO":"４９號","E_COORD97":165834.54000000001,"N_COORD97":2543323.2400000002,"ADDRESS":"永華四街２７巷４９號","OBJECTID":375350},"geometry":{"x":165834.54000000004,"y":2543323.2400000002}},{"attributes":{"ID":375361,"DIS_CODE":0,"TOWNNAME":"安平區","LI":"文平里","LIN":"10鄰","STREET":"永華四街","SECT":" ","MAREA":" ","LANE":"２７巷","ALLEY":" ","HOUSE_NO":"５１號","E_COORD97":165830.10999999999,"N_COORD97":2543323.8300000001,"ADDRESS":"永華四街２７巷５１號","OBJECTID":375351},"geometry":{"x":165830.11000000127,"y":2543323.8300000038}},{"attributes":{"ID":375362,"DIS_CODE":0,"TOWNNAME":"安平區","LI":"文平里","LIN":"10鄰","STREET":"永華四街","SECT":" ","MAREA":" ","LANE":"２７巷","ALLEY":" ","HOUSE_NO":"５３號","E_COORD97":165826.26000000001,"N_COORD97":2543324.4100000001,"ADDRESS":"永華四街２７巷５３號","OBJECTID":375352},"geometry":{"x":165826.26000000164,"y":2543324.410000002}},{"attributes":{"ID":375363,"DIS_CODE":0,"TOWNNAME":"安平區","LI":"文平里","LIN":"10鄰","STREET":"永華四街","SECT":" ","MAREA":" ","LANE":"２７巷","ALLEY":" ","HOUSE_NO":"５５號","E_COORD97":165822.04999999999,"N_COORD97":2543325.1099999999,"ADDRESS":"永華四街２７巷５５號","OBJECTID":375353},"geometry":{"x":165822.04999999981,"y":2543325.1100000013}},{"attributes":{"ID":375364,"DIS_CODE":0,"TOWNNAME":"安平區","LI":"文平里","LIN":"10鄰","STREET":"永華四街","SECT":" ","MAREA":" ","LANE":"２７巷","ALLEY":" ","HOUSE_NO":"５號","E_COORD97":165927.85999999999,"N_COORD97":2543313.9199999999,"ADDRESS":"永華四街２７巷５號","OBJECTID":375354},"geometry":{"x":165927.8600000022,"y":2543313.9200000018}},{"attributes":{"ID":375365,"DIS_CODE":0,"TOWNNAME":"安平區","LI":"文平里","LIN":"10鄰","STREET":"永華四街","SECT":" ","MAREA":" ","LANE":"２７巷","ALLEY":" ","HOUSE_NO":"７號","E_COORD97":165923.78,"N_COORD97":2543314.3799999999,"ADDRESS":"永華四街２７巷７號","OBJECTID":375355},"geometry":{"x":165923.78000000119,"y":2543314.379999999}},{"attributes":{"ID":375366,"DIS_CODE":0,"TOWNNAME":"安平區","LI":"文平里","LIN":"10鄰","STREET":"永華四街","SECT":" ","MAREA":" ","LANE":"２７巷","ALLEY":" ","HOUSE_NO":"９號","E_COORD97":165919.10999999999,"N_COORD97":2543315.2000000002,"ADDRESS":"永華四街２７巷９號","OBJECTID":375356},"geometry":{"x":165919.11000000034,"y":2543315.2000000011}},{"attributes":{"ID":375367,"DIS_CODE":0,"TOWNNAME":"安平區","LI":"怡平里","LIN":"10鄰","STREET":"永華六街","SECT":" ","MAREA":" ","LANE":"２０６巷","ALLEY":" ","HOUSE_NO":"１８號","E_COORD97":165747.01999999999,"N_COORD97":2544111.2000000002,"ADDRESS":"永華六街２０６巷１８號","OBJECTID":375357},"geometry":{"x":165747.02000000048,"y":2544111.2000000011}},{"attributes":{"ID":375368,"DIS_CODE":0,"TOWNNAME":"安平區","LI":"怡平里","LIN":"10鄰","STREET":"永華六街","SECT":" ","MAREA":" ","LANE":"２０６巷","ALLEY":" ","HOUSE_NO":"１６號","E_COORD97":165742.89000000001,"N_COORD97":2544112.3100000001,"ADDRESS":"永華六街２０６巷１６號","OBJECTID":375358},"geometry":{"x":165742.8900000006,"y":2544112.3100000024}},{"attributes":{"ID":375369,"DIS_CODE":0,"TOWNNAME":"安平區","LI":"怡平里","LIN":"10鄰","STREET":"永華六街","SECT":" ","MAREA":" ","LANE":"２０６巷","ALLEY":" ","HOUSE_NO":"２５號","E_COORD97":165741.22,"N_COORD97":2544128.73,"ADDRESS":"永華六街２０６巷２５號","OBJECTID":375359},"geometry":{"x":165741.21999999974,"y":2544128.7300000023}},{"attributes":{"ID":375370,"DIS_CODE":0,"TOWNNAME":"安平區","LI":"怡平里","LIN":"10鄰","STREET":"永華六街","SECT":" ","MAREA":" ","LANE":"２０６巷","ALLEY":" ","HOUSE_NO":"２３號","E_COORD97":165737.31,"N_COORD97":2544129.29,"ADDRESS":"永華六街２０６巷２３號","OBJECTID":375360},"geometry":{"x":165737.30999999959,"y":2544129.2899999991}},{"attributes":{"ID":375371,"DIS_CODE":0,"TOWNNAME":"安平區","LI":"怡平里","LIN":"10鄰","STREET":"永華六街","SECT":" ","MAREA":" ","LANE":"２０６巷","ALLEY":" ","HOUSE_NO":"１２號","E_COORD97":165735.60999999999,"N_COORD97":2544113.1600000001,"ADDRESS":"永華六街２０６巷１２號","OBJECTID":375361},"geometry":{"x":165735.61000000034,"y":2544113.160000002}},{"attributes":{"ID":375372,"DIS_CODE":0,"TOWNNAME":"安平區","LI":"怡平里","LIN":"10鄰","STREET":"永華六街","SECT":" ","MAREA":" ","LANE":"２０６巷","ALLEY":" ","HOUSE_NO":"２１號","E_COORD97":165731,"N_COORD97":2544130.2200000002,"ADDRESS":"永華六街２０６巷２１號","OBJECTID":375362},"geometry":{"x":165731,"y":2544130.2200000025}},{"attributes":{"ID":375373,"DIS_CODE":0,"TOWNNAME":"安平區","LI":"怡平里","LIN":"10鄰","STREET":"永華六街","SECT":" ","MAREA":" ","LANE":"２０６巷","ALLEY":" ","HOUSE_NO":"１９號","E_COORD97":165723.57000000001,"N_COORD97":2544131.52,"ADDRESS":"永華六街２０６巷１９號","OBJECTID":375363},"geometry":{"x":165723.57000000123,"y":2544131.5199999996}},{"attributes":{"ID":375374,"DIS_CODE":0,"TOWNNAME":"安平區","LI":"怡平里","LIN":"10鄰","STREET":"永華六街","SECT":" ","MAREA":" ","LANE":"２０６巷","ALLEY":" ","HOUSE_NO":"１７號","E_COORD97":165718.73999999999,"N_COORD97":2544131.3300000001,"ADDRESS":"永華六街２０６巷１７號","OBJECTID":375364},"geometry":{"x":165718.74000000115,"y":2544131.3300000019}},{"attributes":{"ID":375375,"DIS_CODE":0,"TOWNNAME":"安平區","LI":"怡平里","LIN":"10鄰","STREET":"永華六街","SECT":" ","MAREA":" ","LANE":"２０６巷","ALLEY":" ","HOUSE_NO":"３２號","E_COORD97":165779.64999999999,"N_COORD97":2544107.5499999998,"ADDRESS":"永華六街２０６巷３２號","OBJECTID":375365},"geometry":{"x":165779.65000000037,"y":2544107.5500000026}},{"attributes":{"ID":375376,"DIS_CODE":0,"TOWNNAME":"新營區","LI":"興業里","LIN":"10鄰","STREET":"公誠街","SECT":" ","MAREA":" ","LANE":"６巷","ALLEY":" ","HOUSE_NO":"１２號","E_COORD97":180182.41,"N_COORD97":2578029.2000000002,"ADDRESS":"公誠街６巷１２號","OBJECTID":375366},"geometry":{"x":180182.41000000108,"y":2578029.2000000011}},{"attributes":{"ID":375377,"DIS_CODE":0,"TOWNNAME":"新營區","LI":"大宏里","LIN":"10鄰","STREET":"民治路","SECT":" ","MAREA":" ","LANE":"２９巷","ALLEY":" ","HOUSE_NO":"１０號之７","E_COORD97":180137.14000000001,"N_COORD97":2578805.7999999998,"ADDRESS":"民治路２９巷１０號之７","OBJECTID":375367},"geometry":{"x":180137.13999999966,"y":2578805.8000000026}},{"attributes":{"ID":375378,"DIS_CODE":0,"TOWNNAME":"新營區","LI":"興業里","LIN":"10鄰","STREET":"公誠街","SECT":" ","MAREA":" ","LANE":"６巷","ALLEY":" ","HOUSE_NO":"１３號","E_COORD97":180233.44,"N_COORD97":2578003.5,"ADDRESS":"公誠街６巷１３號","OBJECTID":375368},"geometry":{"x":180233.44000000134,"y":2578003.5000000019}},{"attributes":{"ID":375379,"DIS_CODE":0,"TOWNNAME":"新營區","LI":"新北里","LIN":"10鄰","STREET":"長榮路","SECT":"二段","MAREA":" ","LANE":"２７１巷","ALLEY":" ","HOUSE_NO":"７號","E_COORD97":179262.73999999999,"N_COORD97":2579765.6200000001,"ADDRESS":"長榮路二段２７１巷７號","OBJECTID":375369},"geometry":{"x":179262.73999999929,"y":2579765.620000001}},{"attributes":{"ID":375380,"DIS_CODE":0,"TOWNNAME":"新營區","LI":"大宏里","LIN":"10鄰","STREET":"民治路","SECT":" ","MAREA":" ","LANE":"２９巷","ALLEY":" ","HOUSE_NO":"２２之３號","E_COORD97":180156.75,"N_COORD97":2578766.9500000002,"ADDRESS":"民治路２９巷２２之３號","OBJECTID":375370},"geometry":{"x":180156.75000000093,"y":2578766.9499999993}},{"attributes":{"ID":375381,"DIS_CODE":0,"TOWNNAME":"新營區","LI":"新東里","LIN":"10鄰","STREET":"東仁街","SECT":" ","MAREA":" ","LANE":"１０巷","ALLEY":" ","HOUSE_NO":"２３號","E_COORD97":181326.89000000001,"N_COORD97":2579528.8700000001,"ADDRESS":"東仁街１０巷２３號","OBJECTID":375371},"geometry":{"x":181326.88999999966,"y":2579528.870000001}},{"attributes":{"ID":375382,"DIS_CODE":0,"TOWNNAME":"新營區","LI":"興業里","LIN":"10鄰","STREET":"公誠街","SECT":" ","MAREA":" ","LANE":"６巷","ALLEY":" ","HOUSE_NO":"１６號","E_COORD97":180178.32000000001,"N_COORD97":2578030.3300000001,"ADDRESS":"公誠街６巷１６號","OBJECTID":375372},"geometry":{"x":180178.32000000123,"y":2578030.3300000001}},{"attributes":{"ID":375383,"DIS_CODE":0,"TOWNNAME":"新營區","LI":"新北里","LIN":"10鄰","STREET":"長榮路","SECT":"二段","MAREA":" ","LANE":"２７１巷","ALLEY":" ","HOUSE_NO":"９號","E_COORD97":179263.69,"N_COORD97":2579761.1899999999,"ADDRESS":"長榮路二段２７１巷９號","OBJECTID":375373},"geometry":{"x":179263.69000000134,"y":2579761.1900000013}},{"attributes":{"ID":375384,"DIS_CODE":0,"TOWNNAME":"新營區","LI":"新東里","LIN":"10鄰","STREET":"東仁街","SECT":" ","MAREA":" ","LANE":"１０巷","ALLEY":" ","HOUSE_NO":"１９號","E_COORD97":181317.62,"N_COORD97":2579530.02,"ADDRESS":"東仁街１０巷１９號","OBJECTID":375374},"geometry":{"x":181317.62000000011,"y":2579530.0199999996}},{"attributes":{"ID":375385,"DIS_CODE":0,"TOWNNAME":"新營區","LI":"新東里","LIN":"10鄰","STREET":"東仁街","SECT":" ","MAREA":" ","LANE":"１０巷","ALLEY":" ","HOUSE_NO":"１３號","E_COORD97":181304.32999999999,"N_COORD97":2579531.1899999999,"ADDRESS":"東仁街１０巷１３號","OBJECTID":375375},"geometry":{"x":181304.33000000007,"y":2579531.1900000013}},{"attributes":{"ID":375386,"DIS_CODE":0,"TOWNNAME":"新營區","LI":"新東里","LIN":"10鄰","STREET":"東仁街","SECT":" ","MAREA":" ","LANE":"１０巷","ALLEY":" ","HOUSE_NO":"１５號","E_COORD97":181308.42000000001,"N_COORD97":2579531.1699999999,"ADDRESS":"東仁街１０巷１５號","OBJECTID":375376},"geometry":{"x":181308.41999999993,"y":2579531.1700000018}},{"attributes":{"ID":375387,"DIS_CODE":0,"TOWNNAME":"新營區","LI":"新東里","LIN":"10鄰","STREET":"東仁街","SECT":" ","MAREA":" ","LANE":"４２巷","ALLEY":" ","HOUSE_NO":"５０號","E_COORD97":181358.98000000001,"N_COORD97":2579621.75,"ADDRESS":"東仁街４２巷５０號","OBJECTID":375377},"geometry":{"x":181358.98000000138,"y":2579621.7500000037}},{"attributes":{"ID":375388,"DIS_CODE":0,"TOWNNAME":"新營區","LI":"王公里","LIN":"10鄰","STREET":"民族路","SECT":" ","MAREA":" ","LANE":"１０２巷","ALLEY":" ","HOUSE_NO":"１４號","E_COORD97":180358.39999999999,"N_COORD97":2579128.0699999998,"ADDRESS":"民族路１０２巷１４號","OBJECTID":375378},"geometry":{"x":180358.40000000037,"y":2579128.070000004}},{"attributes":{"ID":375389,"DIS_CODE":0,"TOWNNAME":"新營區","LI":"王公里","LIN":"10鄰","STREET":"民族路","SECT":" ","MAREA":" ","LANE":"１０６巷","ALLEY":" ","HOUSE_NO":"１２號","E_COORD97":180405.63,"N_COORD97":2579165.5099999998,"ADDRESS":"民族路１０６巷１２號","OBJECTID":375379},"geometry":{"x":180405.62999999989,"y":2579165.5100000016}},{"attributes":{"ID":375390,"DIS_CODE":0,"TOWNNAME":"新營區","LI":"大宏里","LIN":"10鄰","STREET":"民治路","SECT":" ","MAREA":" ","LANE":"２９巷","ALLEY":" ","HOUSE_NO":"３號","E_COORD97":180186.10000000001,"N_COORD97":2578840.9500000002,"ADDRESS":"民治路２９巷３號","OBJECTID":375380},"geometry":{"x":180186.10000000056,"y":2578840.9500000011}},{"attributes":{"ID":375391,"DIS_CODE":0,"TOWNNAME":"新營區","LI":"王公里","LIN":"10鄰","STREET":"民族路","SECT":" ","MAREA":" ","LANE":"１０６巷","ALLEY":" ","HOUSE_NO":"２８號","E_COORD97":180395.23000000001,"N_COORD97":2579115.7200000002,"ADDRESS":"民族路１０６巷２８號","OBJECTID":375381},"geometry":{"x":180395.23000000045,"y":2579115.7200000007}},{"attributes":{"ID":375392,"DIS_CODE":0,"TOWNNAME":"六甲區","LI":"龍湖里","LIN":"10鄰","STREET":"中華路","SECT":" ","MAREA":" ","LANE":"２０８巷","ALLEY":" ","HOUSE_NO":"２號","E_COORD97":182874.16,"N_COORD97":2569210.2799999998,"ADDRESS":"中華路２０８巷２號","OBJECTID":375382},"geometry":{"x":182874.16000000201,"y":2569210.2800000012}},{"attributes":{"ID":375393,"DIS_CODE":0,"TOWNNAME":"六甲區","LI":"龍湖里","LIN":"10鄰","STREET":"中華路","SECT":" ","MAREA":" ","LANE":"２０８巷","ALLEY":" ","HOUSE_NO":"３號","E_COORD97":182833.79999999999,"N_COORD97":2569240.3500000001,"ADDRESS":"中華路２０８巷３號","OBJECTID":375383},"geometry":{"x":182833.80000000168,"y":2569240.3500000015}},{"attributes":{"ID":375394,"DIS_CODE":0,"TOWNNAME":"六甲區","LI":"龍湖里","LIN":"10鄰","STREET":"中華路","SECT":" ","MAREA":" ","LANE":"２０８巷","ALLEY":" ","HOUSE_NO":"４號","E_COORD97":182865.79000000001,"N_COORD97":2569235.04,"ADDRESS":"中華路２０８巷４號","OBJECTID":375384},"geometry":{"x":182865.79000000004,"y":2569235.040000001}},{"attributes":{"ID":375395,"DIS_CODE":0,"TOWNNAME":"六甲區","LI":"龍湖里","LIN":"10鄰","STREET":"中華路","SECT":" ","MAREA":" ","LANE":"２１８巷","ALLEY":" ","HOUSE_NO":"２號","E_COORD97":182470.76999999999,"N_COORD97":2569252.21,"ADDRESS":"中華路２１８巷２號","OBJECTID":375385},"geometry":{"x":182470.76999999955,"y":2569252.2100000028}},{"attributes":{"ID":375396,"DIS_CODE":0,"TOWNNAME":"六甲區","LI":"龍湖里","LIN":"10鄰","STREET":"中華路","SECT":" ","MAREA":" ","LANE":"２１８巷","ALLEY":" ","HOUSE_NO":"３６號","E_COORD97":182340.23999999999,"N_COORD97":2569261.7599999998,"ADDRESS":"中華路２１８巷３６號","OBJECTID":375386},"geometry":{"x":182340.24000000115,"y":2569261.7600000016}},{"attributes":{"ID":375397,"DIS_CODE":0,"TOWNNAME":"六甲區","LI":"龍湖里","LIN":"10鄰","STREET":"中華路","SECT":" ","MAREA":" ","LANE":"２１８巷","ALLEY":" ","HOUSE_NO":"３８號","E_COORD97":182316.89999999999,"N_COORD97":2569217.4399999999,"ADDRESS":"中華路２１８巷３８號","OBJECTID":375387},"geometry":{"x":182316.9000000013,"y":2569217.4399999995}},{"attributes":{"ID":375398,"DIS_CODE":0,"TOWNNAME":"六甲區","LI":"龍湖里","LIN":"10鄰","STREET":"中華路","SECT":" ","MAREA":" ","LANE":"２４８巷","ALLEY":" ","HOUSE_NO":"３６號","E_COORD97":182243.01999999999,"N_COORD97":2569135.3300000001,"ADDRESS":"中華路２４８巷３６號","OBJECTID":375388},"geometry":{"x":182243.01999999955,"y":2569135.3300000019}},{"attributes":{"ID":375399,"DIS_CODE":0,"TOWNNAME":"六甲區","LI":"龍湖里","LIN":"10鄰","STREET":"中華路","SECT":" ","MAREA":" ","LANE":"２４８巷","ALLEY":" ","HOUSE_NO":"３７號","E_COORD97":182220.56,"N_COORD97":2569155.3199999998,"ADDRESS":"中華路２４８巷３７號","OBJECTID":375389},"geometry":{"x":182220.56000000052,"y":2569155.320000004}},{"attributes":{"ID":375400,"DIS_CODE":0,"TOWNNAME":"六甲區","LI":"龍湖里","LIN":"10鄰","STREET":"中華路","SECT":" ","MAREA":" ","LANE":"２４８巷","ALLEY":" ","HOUSE_NO":"３號","E_COORD97":182240.70999999999,"N_COORD97":2569349.9399999999,"ADDRESS":"中華路２４８巷３號","OBJECTID":375390},"geometry":{"x":182240.70999999996,"y":2569349.9399999995}},{"attributes":{"ID":375401,"DIS_CODE":0,"TOWNNAME":"六甲區","LI":"龍湖里","LIN":"10鄰","STREET":"中華路","SECT":" ","MAREA":" ","LANE":"２４８巷","ALLEY":" ","HOUSE_NO":"４號","E_COORD97":182077.91,"N_COORD97":2569339.7999999998,"ADDRESS":"中華路２４８巷４號","OBJECTID":375391},"geometry":{"x":182077.91000000108,"y":2569339.8000000026}},{"attributes":{"ID":375402,"DIS_CODE":0,"TOWNNAME":"六甲區","LI":"龍湖里","LIN":"10鄰","STREET":"中華路","SECT":" ","MAREA":" ","LANE":"２４８巷","ALLEY":" ","HOUSE_NO":"５號","E_COORD97":182309.09,"N_COORD97":2569461.6600000001,"ADDRESS":"中華路２４８巷５號","OBJECTID":375392},"geometry":{"x":182309.08999999985,"y":2569461.660000002}},{"attributes":{"ID":375403,"DIS_CODE":0,"TOWNNAME":"六甲區","LI":"水林里","LIN":"10鄰","STREET":"民族街","SECT":" ","MAREA":" ","LANE":"２７５巷","ALLEY":" ","HOUSE_NO":"２９號","E_COORD97":183106.35000000001,"N_COORD97":2570206.9700000002,"ADDRESS":"民族街２７５巷２９號","OBJECTID":375393},"geometry":{"x":183106.35000000056,"y":2570206.9700000025}},{"attributes":{"ID":375404,"DIS_CODE":0,"TOWNNAME":"六甲區","LI":"甲南里","LIN":"10鄰","STREET":"文化街","SECT":" ","MAREA":" ","LANE":"３巷","ALLEY":" ","HOUSE_NO":"５號","E_COORD97":183888.36785899999,"N_COORD97":2569671.4142999998,"ADDRESS":"文化街３巷５號","OBJECTID":375394},"geometry":{"x":183888.36785900034,"y":2569671.4142970014}},{"attributes":{"ID":375405,"DIS_CODE":0,"TOWNNAME":"六甲區","LI":"甲南里","LIN":"10鄰","STREET":"文化街","SECT":" ","MAREA":" ","LANE":"３巷","ALLEY":" ","HOUSE_NO":"７號","E_COORD97":183866.75128900001,"N_COORD97":2569666.1226300001,"ADDRESS":"文化街３巷７號","OBJECTID":375395},"geometry":{"x":183866.75128900073,"y":2569666.1226330008}},{"attributes":{"ID":375406,"DIS_CODE":0,"TOWNNAME":"六甲區","LI":"水林里","LIN":"10鄰","STREET":"民族街","SECT":" ","MAREA":" ","LANE":"２７５巷","ALLEY":" ","HOUSE_NO":"１０號","E_COORD97":183081.39999999999,"N_COORD97":2570321.79,"ADDRESS":"民族街２７５巷１０號","OBJECTID":375396},"geometry":{"x":183081.4000000013,"y":2570321.790000001}},{"attributes":{"ID":375407,"DIS_CODE":0,"TOWNNAME":"六甲區","LI":"水林里","LIN":"10鄰","STREET":"民族街","SECT":" ","MAREA":" ","LANE":"２７５巷","ALLEY":" ","HOUSE_NO":"３５號","E_COORD97":183079.06,"N_COORD97":2570211.6600000001,"ADDRESS":"民族街２７５巷３５號","OBJECTID":375397},"geometry":{"x":183079.05999999959,"y":2570211.660000002}},{"attributes":{"ID":375408,"DIS_CODE":0,"TOWNNAME":"六甲區","LI":"水林里","LIN":"10鄰","STREET":"民族街","SECT":" ","MAREA":" ","LANE":"３１５巷","ALLEY":" ","HOUSE_NO":"１１號","E_COORD97":183061.41,"N_COORD97":2570314,"ADDRESS":"民族街３１５巷１１號","OBJECTID":375398},"geometry":{"x":183061.41000000015,"y":2570314.0000000019}},{"attributes":{"ID":375409,"DIS_CODE":0,"TOWNNAME":"六甲區","LI":"水林里","LIN":"10鄰","STREET":"民族街","SECT":" ","MAREA":" ","LANE":"３１５巷","ALLEY":" ","HOUSE_NO":"１９號","E_COORD97":183063.62,"N_COORD97":2570314.6299999999,"ADDRESS":"民族街３１５巷１９號","OBJECTID":375399},"geometry":{"x":183063.62000000011,"y":2570314.6300000027}},{"attributes":{"ID":375410,"DIS_CODE":0,"TOWNNAME":"六甲區","LI":"水林里","LIN":"10鄰","STREET":"民族街","SECT":" ","MAREA":" ","LANE":"３１５巷","ALLEY":" ","HOUSE_NO":"１號","E_COORD97":183014.64000000001,"N_COORD97":2570323.96,"ADDRESS":"民族街３１５巷１號","OBJECTID":375400},"geometry":{"x":183014.6400000006,"y":2570323.9600000009}}]}