{"displayFieldName":"TOWNNAME","fieldAliases":{"ID":"ID","DIS_CODE":"DIS_CODE","TOWNNAME":"TOWNNAME","LI":"LI","LIN":"LIN","STREET":"STREET","SECT":"SECT","MAREA":"MAREA","LANE":"LANE","ALLEY":"ALLEY","HOUSE_NO":"HOUSE_NO","E_COORD97":"E_COORD97","N_COORD97":"N_COORD97","ADDRESS":"ADDRESS","OBJECTID":"OBJECTID"},"geometryType":"esriGeometryPoint","spatialReference":{"wkid":102443,"latestWkid":3826},"fields":[{"name":"ID","type":"esriFieldTypeDouble","alias":"ID"},{"name":"DIS_CODE","type":"esriFieldTypeInteger","alias":"DIS_CODE"},{"name":"TOWNNAME","type":"esriFieldTypeString","alias":"TOWNNAME","length":8},{"name":"LI","type":"esriFieldTypeString","alias":"LI","length":8},{"name":"LIN","type":"esriFieldTypeString","alias":"LIN","length":12},{"name":"STREET","type":"esriFieldTypeString","alias":"STREET","length":20},{"name":"SECT","type":"esriFieldTypeString","alias":"SECT","length":8},{"name":"MAREA","type":"esriFieldTypeString","alias":"MAREA","length":12},{"name":"LANE","type":"esriFieldTypeString","alias":"LANE","length":10},{"name":"ALLEY","type":"esriFieldTypeString","alias":"ALLEY","length":10},{"name":"HOUSE_NO","type":"esriFieldTypeString","alias":"HOUSE_NO","length":20},{"name":"E_COORD97","type":"esriFieldTypeDouble","alias":"E_COORD97"},{"name":"N_COORD97","type":"esriFieldTypeDouble","alias":"N_COORD97"},{"name":"ADDRESS","type":"esriFieldTypeString","alias":"ADDRESS","length":50},{"name":"OBJECTID","type":"esriFieldTypeOID","alias":"OBJECTID"}],"features":[{"attributes":{"ID":454826,"DIS_CODE":0,"TOWNNAME":"東區","LI":"崇善里","LIN":"25鄰","STREET":"崇善東路","SECT":" ","MAREA":" ","LANE":"１５巷","ALLEY":" ","HOUSE_NO":"７之１號六樓","E_COORD97":171259.97,"N_COORD97":2540908.0299999998,"ADDRESS":"崇善東路１５巷７之１號六樓","OBJECTID":454801},"geometry":{"x":171259.97000000067,"y":2540908.0300000012}},{"attributes":{"ID":454827,"DIS_CODE":0,"TOWNNAME":"東區","LI":"崇善里","LIN":"25鄰","STREET":"崇善東路","SECT":" ","MAREA":" ","LANE":"１５巷","ALLEY":" ","HOUSE_NO":"７之１號七樓","E_COORD97":171259.97,"N_COORD97":2540908.0299999998,"ADDRESS":"崇善東路１５巷７之１號七樓","OBJECTID":454802},"geometry":{"x":171259.97000000067,"y":2540908.0300000012}},{"attributes":{"ID":454828,"DIS_CODE":0,"TOWNNAME":"東區","LI":"崇善里","LIN":"25鄰","STREET":"崇善東路","SECT":" ","MAREA":" ","LANE":"１５巷","ALLEY":" ","HOUSE_NO":"７之１號八樓","E_COORD97":171259.97,"N_COORD97":2540908.0299999998,"ADDRESS":"崇善東路１５巷７之１號八樓","OBJECTID":454803},"geometry":{"x":171259.97000000067,"y":2540908.0300000012}},{"attributes":{"ID":454829,"DIS_CODE":0,"TOWNNAME":"東區","LI":"崇善里","LIN":"25鄰","STREET":"崇善東路","SECT":" ","MAREA":" ","LANE":"１５巷","ALLEY":" ","HOUSE_NO":"７之２號二樓","E_COORD97":171278.32999999999,"N_COORD97":2540917.98,"ADDRESS":"崇善東路１５巷７之２號二樓","OBJECTID":454804},"geometry":{"x":171278.33000000101,"y":2540917.9800000004}},{"attributes":{"ID":454830,"DIS_CODE":0,"TOWNNAME":"東區","LI":"崇善里","LIN":"25鄰","STREET":"崇善東路","SECT":" ","MAREA":" ","LANE":"１５巷","ALLEY":" ","HOUSE_NO":"７之２號三樓","E_COORD97":171278.32999999999,"N_COORD97":2540917.98,"ADDRESS":"崇善東路１５巷７之２號三樓","OBJECTID":454805},"geometry":{"x":171278.33000000101,"y":2540917.9800000004}},{"attributes":{"ID":454831,"DIS_CODE":0,"TOWNNAME":"東區","LI":"崇善里","LIN":"25鄰","STREET":"崇善東路","SECT":" ","MAREA":" ","LANE":"１５巷","ALLEY":" ","HOUSE_NO":"７之２號四樓","E_COORD97":171278.32999999999,"N_COORD97":2540917.98,"ADDRESS":"崇善東路１５巷７之２號四樓","OBJECTID":454806},"geometry":{"x":171278.33000000101,"y":2540917.9800000004}},{"attributes":{"ID":454832,"DIS_CODE":0,"TOWNNAME":"東區","LI":"崇善里","LIN":"25鄰","STREET":"崇善東路","SECT":" ","MAREA":" ","LANE":"１５巷","ALLEY":" ","HOUSE_NO":"７之２號五樓","E_COORD97":171278.32999999999,"N_COORD97":2540917.98,"ADDRESS":"崇善東路１５巷７之２號五樓","OBJECTID":454807},"geometry":{"x":171278.33000000101,"y":2540917.9800000004}},{"attributes":{"ID":454833,"DIS_CODE":0,"TOWNNAME":"東區","LI":"崇善里","LIN":"25鄰","STREET":"崇善東路","SECT":" ","MAREA":" ","LANE":"１５巷","ALLEY":" ","HOUSE_NO":"７之２號六樓","E_COORD97":171278.32999999999,"N_COORD97":2540917.98,"ADDRESS":"崇善東路１５巷７之２號六樓","OBJECTID":454808},"geometry":{"x":171278.33000000101,"y":2540917.9800000004}},{"attributes":{"ID":454834,"DIS_CODE":0,"TOWNNAME":"東區","LI":"崇善里","LIN":"25鄰","STREET":"崇善東路","SECT":" ","MAREA":" ","LANE":"１５巷","ALLEY":" ","HOUSE_NO":"７之２號七樓","E_COORD97":171278.32999999999,"N_COORD97":2540917.98,"ADDRESS":"崇善東路１５巷７之２號七樓","OBJECTID":454809},"geometry":{"x":171278.33000000101,"y":2540917.9800000004}},{"attributes":{"ID":454835,"DIS_CODE":0,"TOWNNAME":"東區","LI":"崇善里","LIN":"25鄰","STREET":"崇善東路","SECT":" ","MAREA":" ","LANE":"１５巷","ALLEY":" ","HOUSE_NO":"７之２號八樓","E_COORD97":171278.32999999999,"N_COORD97":2540917.98,"ADDRESS":"崇善東路１５巷７之２號八樓","OBJECTID":454810},"geometry":{"x":171278.33000000101,"y":2540917.9800000004}},{"attributes":{"ID":454836,"DIS_CODE":0,"TOWNNAME":"東區","LI":"崇善里","LIN":"25鄰","STREET":"崇善東路","SECT":" ","MAREA":" ","LANE":"１５巷","ALLEY":" ","HOUSE_NO":"７之３號三樓","E_COORD97":171267.42999999999,"N_COORD97":2540913.0099999998,"ADDRESS":"崇善東路１５巷７之３號三樓","OBJECTID":454811},"geometry":{"x":171267.4299999997,"y":2540913.0100000016}},{"attributes":{"ID":454837,"DIS_CODE":0,"TOWNNAME":"東區","LI":"崇善里","LIN":"25鄰","STREET":"崇善東路","SECT":" ","MAREA":" ","LANE":"１５巷","ALLEY":" ","HOUSE_NO":"７之３號四樓","E_COORD97":171267.42999999999,"N_COORD97":2540913.0099999998,"ADDRESS":"崇善東路１５巷７之３號四樓","OBJECTID":454812},"geometry":{"x":171267.4299999997,"y":2540913.0100000016}},{"attributes":{"ID":454838,"DIS_CODE":0,"TOWNNAME":"東區","LI":"崇善里","LIN":"25鄰","STREET":"崇善東路","SECT":" ","MAREA":" ","LANE":"１５巷","ALLEY":" ","HOUSE_NO":"７之３號五樓","E_COORD97":171267.42999999999,"N_COORD97":2540913.0099999998,"ADDRESS":"崇善東路１５巷７之３號五樓","OBJECTID":454813},"geometry":{"x":171267.4299999997,"y":2540913.0100000016}},{"attributes":{"ID":454839,"DIS_CODE":0,"TOWNNAME":"東區","LI":"崇善里","LIN":"25鄰","STREET":"崇善東路","SECT":" ","MAREA":" ","LANE":"１５巷","ALLEY":" ","HOUSE_NO":"７之３號六樓","E_COORD97":171267.42999999999,"N_COORD97":2540913.0099999998,"ADDRESS":"崇善東路１５巷７之３號六樓","OBJECTID":454814},"geometry":{"x":171267.4299999997,"y":2540913.0100000016}},{"attributes":{"ID":454840,"DIS_CODE":0,"TOWNNAME":"東區","LI":"崇善里","LIN":"25鄰","STREET":"崇善東路","SECT":" ","MAREA":" ","LANE":"１５巷","ALLEY":" ","HOUSE_NO":"７之３號七樓","E_COORD97":171267.42999999999,"N_COORD97":2540913.0099999998,"ADDRESS":"崇善東路１５巷７之３號七樓","OBJECTID":454815},"geometry":{"x":171267.4299999997,"y":2540913.0100000016}},{"attributes":{"ID":454841,"DIS_CODE":0,"TOWNNAME":"東區","LI":"崇善里","LIN":"25鄰","STREET":"崇善東路","SECT":" ","MAREA":" ","LANE":"１５巷","ALLEY":" ","HOUSE_NO":"７之３號八樓","E_COORD97":171267.42999999999,"N_COORD97":2540913.0099999998,"ADDRESS":"崇善東路１５巷７之３號八樓","OBJECTID":454816},"geometry":{"x":171267.4299999997,"y":2540913.0100000016}},{"attributes":{"ID":454842,"DIS_CODE":0,"TOWNNAME":"東區","LI":"崇善里","LIN":"25鄰","STREET":"崇善東路","SECT":" ","MAREA":" ","LANE":"１５巷","ALLEY":" ","HOUSE_NO":"７之５號三樓","E_COORD97":171286.10999999999,"N_COORD97":2540923.5800000001,"ADDRESS":"崇善東路１５巷７之５號三樓","OBJECTID":454817},"geometry":{"x":171286.11000000034,"y":2540923.5800000001}},{"attributes":{"ID":454843,"DIS_CODE":0,"TOWNNAME":"東區","LI":"崇善里","LIN":"25鄰","STREET":"崇善東路","SECT":" ","MAREA":" ","LANE":"１５巷","ALLEY":" ","HOUSE_NO":"７之５號四樓","E_COORD97":171286.10999999999,"N_COORD97":2540923.5800000001,"ADDRESS":"崇善東路１５巷７之５號四樓","OBJECTID":454818},"geometry":{"x":171286.11000000034,"y":2540923.5800000001}},{"attributes":{"ID":454844,"DIS_CODE":0,"TOWNNAME":"東區","LI":"崇善里","LIN":"25鄰","STREET":"崇善東路","SECT":" ","MAREA":" ","LANE":"１５巷","ALLEY":" ","HOUSE_NO":"７之５號五樓","E_COORD97":171286.10999999999,"N_COORD97":2540923.5800000001,"ADDRESS":"崇善東路１５巷７之５號五樓","OBJECTID":454819},"geometry":{"x":171286.11000000034,"y":2540923.5800000001}},{"attributes":{"ID":454845,"DIS_CODE":0,"TOWNNAME":"東區","LI":"崇善里","LIN":"25鄰","STREET":"崇善東路","SECT":" ","MAREA":" ","LANE":"１５巷","ALLEY":" ","HOUSE_NO":"７之５號六樓","E_COORD97":171286.10999999999,"N_COORD97":2540923.5800000001,"ADDRESS":"崇善東路１５巷７之５號六樓","OBJECTID":454820},"geometry":{"x":171286.11000000034,"y":2540923.5800000001}},{"attributes":{"ID":454846,"DIS_CODE":0,"TOWNNAME":"東區","LI":"崇善里","LIN":"25鄰","STREET":"崇善東路","SECT":" ","MAREA":" ","LANE":"１５巷","ALLEY":" ","HOUSE_NO":"７之５號七樓","E_COORD97":171286.10999999999,"N_COORD97":2540923.5800000001,"ADDRESS":"崇善東路１５巷７之５號七樓","OBJECTID":454821},"geometry":{"x":171286.11000000034,"y":2540923.5800000001}},{"attributes":{"ID":454847,"DIS_CODE":0,"TOWNNAME":"北區","LI":"實踐里","LIN":"8鄰","STREET":"長榮路","SECT":"五段","MAREA":" ","LANE":"２９８巷","ALLEY":" ","HOUSE_NO":"１號四樓之１","E_COORD97":169721.60000000001,"N_COORD97":2545948.5600000001,"ADDRESS":"長榮路五段２９８巷１號四樓之１","OBJECTID":454822},"geometry":{"x":169721.60000000056,"y":2545948.5600000005}},{"attributes":{"ID":454848,"DIS_CODE":0,"TOWNNAME":"北區","LI":"實踐里","LIN":"8鄰","STREET":"長榮路","SECT":"五段","MAREA":" ","LANE":"２９８巷","ALLEY":" ","HOUSE_NO":"１號四樓之２","E_COORD97":169721.60000000001,"N_COORD97":2545948.5600000001,"ADDRESS":"長榮路五段２９８巷１號四樓之２","OBJECTID":454823},"geometry":{"x":169721.60000000056,"y":2545948.5600000005}},{"attributes":{"ID":454849,"DIS_CODE":0,"TOWNNAME":"北區","LI":"實踐里","LIN":"8鄰","STREET":"長榮路","SECT":"五段","MAREA":" ","LANE":"２９８巷","ALLEY":" ","HOUSE_NO":"１７號五樓之１","E_COORD97":169723.56,"N_COORD97":2545993.52,"ADDRESS":"長榮路五段２９８巷１７號五樓之１","OBJECTID":454824},"geometry":{"x":169723.56000000052,"y":2545993.5200000033}},{"attributes":{"ID":454850,"DIS_CODE":0,"TOWNNAME":"北區","LI":"實踐里","LIN":"8鄰","STREET":"長榮路","SECT":"五段","MAREA":" ","LANE":"２９８巷","ALLEY":" ","HOUSE_NO":"１７號五樓之２","E_COORD97":169723.56,"N_COORD97":2545993.52,"ADDRESS":"長榮路五段２９８巷１７號五樓之２","OBJECTID":454825},"geometry":{"x":169723.56000000052,"y":2545993.5200000033}},{"attributes":{"ID":454851,"DIS_CODE":0,"TOWNNAME":"北區","LI":"實踐里","LIN":"8鄰","STREET":"長榮路","SECT":"五段","MAREA":" ","LANE":"２９８巷","ALLEY":" ","HOUSE_NO":"１７號五樓之３","E_COORD97":169723.56,"N_COORD97":2545993.52,"ADDRESS":"長榮路五段２９８巷１７號五樓之３","OBJECTID":454826},"geometry":{"x":169723.56000000052,"y":2545993.5200000033}},{"attributes":{"ID":454852,"DIS_CODE":0,"TOWNNAME":"北區","LI":"實踐里","LIN":"8鄰","STREET":"長榮路","SECT":"五段","MAREA":" ","LANE":"２９８巷","ALLEY":" ","HOUSE_NO":"１７號五樓之５","E_COORD97":169723.56,"N_COORD97":2545993.52,"ADDRESS":"長榮路五段２９８巷１７號五樓之５","OBJECTID":454827},"geometry":{"x":169723.56000000052,"y":2545993.5200000033}},{"attributes":{"ID":454853,"DIS_CODE":0,"TOWNNAME":"北區","LI":"實踐里","LIN":"8鄰","STREET":"長榮路","SECT":"五段","MAREA":" ","LANE":"２９８巷","ALLEY":" ","HOUSE_NO":"９號五樓之１","E_COORD97":169721.70999999999,"N_COORD97":2545966.27,"ADDRESS":"長榮路五段２９８巷９號五樓之１","OBJECTID":454828},"geometry":{"x":169721.70999999996,"y":2545966.2700000014}},{"attributes":{"ID":454854,"DIS_CODE":0,"TOWNNAME":"北區","LI":"實踐里","LIN":"8鄰","STREET":"長榮路","SECT":"五段","MAREA":" ","LANE":"２９８巷","ALLEY":" ","HOUSE_NO":"９號五樓之２","E_COORD97":169721.70999999999,"N_COORD97":2545966.27,"ADDRESS":"長榮路五段２９８巷９號五樓之２","OBJECTID":454829},"geometry":{"x":169721.70999999996,"y":2545966.2700000014}},{"attributes":{"ID":454855,"DIS_CODE":0,"TOWNNAME":"北區","LI":"實踐里","LIN":"8鄰","STREET":"長榮路","SECT":"五段","MAREA":" ","LANE":"２９８巷","ALLEY":" ","HOUSE_NO":"１號五樓之１","E_COORD97":169721.60000000001,"N_COORD97":2545948.5600000001,"ADDRESS":"長榮路五段２９８巷１號五樓之１","OBJECTID":454830},"geometry":{"x":169721.60000000056,"y":2545948.5600000005}},{"attributes":{"ID":454856,"DIS_CODE":0,"TOWNNAME":"北區","LI":"實踐里","LIN":"8鄰","STREET":"長榮路","SECT":"五段","MAREA":" ","LANE":"２９８巷","ALLEY":" ","HOUSE_NO":"１號五樓之２","E_COORD97":169721.60000000001,"N_COORD97":2545948.5600000001,"ADDRESS":"長榮路五段２９８巷１號五樓之２","OBJECTID":454831},"geometry":{"x":169721.60000000056,"y":2545948.5600000005}},{"attributes":{"ID":454857,"DIS_CODE":0,"TOWNNAME":"北區","LI":"實踐里","LIN":"8鄰","STREET":"長榮路","SECT":"五段","MAREA":" ","LANE":"２９８巷","ALLEY":" ","HOUSE_NO":"１７號六樓之１","E_COORD97":169723.56,"N_COORD97":2545993.52,"ADDRESS":"長榮路五段２９８巷１７號六樓之１","OBJECTID":454832},"geometry":{"x":169723.56000000052,"y":2545993.5200000033}},{"attributes":{"ID":454858,"DIS_CODE":0,"TOWNNAME":"東區","LI":"崇文里","LIN":"40鄰","STREET":"生產路","SECT":" ","MAREA":" ","LANE":" ","ALLEY":" ","HOUSE_NO":"２７５號三樓","E_COORD97":170911.67999999999,"N_COORD97":2540618.3100000001,"ADDRESS":"生產路２７５號三樓","OBJECTID":454833},"geometry":{"x":170911.6799999997,"y":2540618.3100000005}},{"attributes":{"ID":454859,"DIS_CODE":0,"TOWNNAME":"北區","LI":"實踐里","LIN":"8鄰","STREET":"長榮路","SECT":"五段","MAREA":" ","LANE":"２９８巷","ALLEY":" ","HOUSE_NO":"１７號六樓之２","E_COORD97":169723.56,"N_COORD97":2545993.52,"ADDRESS":"長榮路五段２９８巷１７號六樓之２","OBJECTID":454834},"geometry":{"x":169723.56000000052,"y":2545993.5200000033}},{"attributes":{"ID":454860,"DIS_CODE":0,"TOWNNAME":"北區","LI":"實踐里","LIN":"8鄰","STREET":"長榮路","SECT":"五段","MAREA":" ","LANE":"２９８巷","ALLEY":" ","HOUSE_NO":"１７號六樓之３","E_COORD97":169723.56,"N_COORD97":2545993.52,"ADDRESS":"長榮路五段２９８巷１７號六樓之３","OBJECTID":454835},"geometry":{"x":169723.56000000052,"y":2545993.5200000033}},{"attributes":{"ID":454861,"DIS_CODE":0,"TOWNNAME":"北區","LI":"實踐里","LIN":"8鄰","STREET":"長榮路","SECT":"五段","MAREA":" ","LANE":"２９８巷","ALLEY":" ","HOUSE_NO":"１７號六樓之５","E_COORD97":169723.56,"N_COORD97":2545993.52,"ADDRESS":"長榮路五段２９８巷１７號六樓之５","OBJECTID":454836},"geometry":{"x":169723.56000000052,"y":2545993.5200000033}},{"attributes":{"ID":454862,"DIS_CODE":0,"TOWNNAME":"北區","LI":"實踐里","LIN":"8鄰","STREET":"長榮路","SECT":"五段","MAREA":" ","LANE":"２９８巷","ALLEY":" ","HOUSE_NO":"９號六樓之１","E_COORD97":169721.70999999999,"N_COORD97":2545966.27,"ADDRESS":"長榮路五段２９８巷９號六樓之１","OBJECTID":454837},"geometry":{"x":169721.70999999996,"y":2545966.2700000014}},{"attributes":{"ID":454863,"DIS_CODE":0,"TOWNNAME":"北區","LI":"實踐里","LIN":"8鄰","STREET":"長榮路","SECT":"五段","MAREA":" ","LANE":"２９８巷","ALLEY":" ","HOUSE_NO":"９號六樓之２","E_COORD97":169721.70999999999,"N_COORD97":2545966.27,"ADDRESS":"長榮路五段２９８巷９號六樓之２","OBJECTID":454838},"geometry":{"x":169721.70999999996,"y":2545966.2700000014}},{"attributes":{"ID":454864,"DIS_CODE":0,"TOWNNAME":"北區","LI":"實踐里","LIN":"8鄰","STREET":"長榮路","SECT":"五段","MAREA":" ","LANE":"２９８巷","ALLEY":" ","HOUSE_NO":"１號六樓之１","E_COORD97":169721.60000000001,"N_COORD97":2545948.5600000001,"ADDRESS":"長榮路五段２９８巷１號六樓之１","OBJECTID":454839},"geometry":{"x":169721.60000000056,"y":2545948.5600000005}},{"attributes":{"ID":454865,"DIS_CODE":0,"TOWNNAME":"北區","LI":"實踐里","LIN":"8鄰","STREET":"長榮路","SECT":"五段","MAREA":" ","LANE":"２９８巷","ALLEY":" ","HOUSE_NO":"１號六樓之２","E_COORD97":169721.60000000001,"N_COORD97":2545948.5600000001,"ADDRESS":"長榮路五段２９８巷１號六樓之２","OBJECTID":454840},"geometry":{"x":169721.60000000056,"y":2545948.5600000005}},{"attributes":{"ID":454866,"DIS_CODE":0,"TOWNNAME":"北區","LI":"實踐里","LIN":"8鄰","STREET":"長榮路","SECT":"五段","MAREA":" ","LANE":"２９８巷","ALLEY":" ","HOUSE_NO":"１７號七樓之１","E_COORD97":169723.56,"N_COORD97":2545993.52,"ADDRESS":"長榮路五段２９８巷１７號七樓之１","OBJECTID":454841},"geometry":{"x":169723.56000000052,"y":2545993.5200000033}},{"attributes":{"ID":454867,"DIS_CODE":0,"TOWNNAME":"北區","LI":"實踐里","LIN":"8鄰","STREET":"長榮路","SECT":"五段","MAREA":" ","LANE":"２９８巷","ALLEY":" ","HOUSE_NO":"１７號七樓之２","E_COORD97":169723.56,"N_COORD97":2545993.52,"ADDRESS":"長榮路五段２９８巷１７號七樓之２","OBJECTID":454842},"geometry":{"x":169723.56000000052,"y":2545993.5200000033}},{"attributes":{"ID":454868,"DIS_CODE":0,"TOWNNAME":"北區","LI":"實踐里","LIN":"8鄰","STREET":"長榮路","SECT":"五段","MAREA":" ","LANE":"２９８巷","ALLEY":" ","HOUSE_NO":"１７號七樓之３","E_COORD97":169723.56,"N_COORD97":2545993.52,"ADDRESS":"長榮路五段２９８巷１７號七樓之３","OBJECTID":454843},"geometry":{"x":169723.56000000052,"y":2545993.5200000033}},{"attributes":{"ID":454869,"DIS_CODE":0,"TOWNNAME":"北區","LI":"實踐里","LIN":"8鄰","STREET":"長榮路","SECT":"五段","MAREA":" ","LANE":"２９８巷","ALLEY":" ","HOUSE_NO":"１７號七樓之５","E_COORD97":169723.56,"N_COORD97":2545993.52,"ADDRESS":"長榮路五段２９８巷１７號七樓之５","OBJECTID":454844},"geometry":{"x":169723.56000000052,"y":2545993.5200000033}},{"attributes":{"ID":454870,"DIS_CODE":0,"TOWNNAME":"北區","LI":"實踐里","LIN":"8鄰","STREET":"長榮路","SECT":"五段","MAREA":" ","LANE":"２９８巷","ALLEY":" ","HOUSE_NO":"９號七樓之１","E_COORD97":169721.70999999999,"N_COORD97":2545966.27,"ADDRESS":"長榮路五段２９８巷９號七樓之１","OBJECTID":454845},"geometry":{"x":169721.70999999996,"y":2545966.2700000014}},{"attributes":{"ID":454871,"DIS_CODE":0,"TOWNNAME":"北區","LI":"實踐里","LIN":"8鄰","STREET":"長榮路","SECT":"五段","MAREA":" ","LANE":"２９８巷","ALLEY":" ","HOUSE_NO":"９號七樓之２","E_COORD97":169721.70999999999,"N_COORD97":2545966.27,"ADDRESS":"長榮路五段２９８巷９號七樓之２","OBJECTID":454846},"geometry":{"x":169721.70999999996,"y":2545966.2700000014}},{"attributes":{"ID":454872,"DIS_CODE":0,"TOWNNAME":"北區","LI":"實踐里","LIN":"8鄰","STREET":"長榮路","SECT":"五段","MAREA":" ","LANE":"２９８巷","ALLEY":" ","HOUSE_NO":"１號七樓之１","E_COORD97":169721.60000000001,"N_COORD97":2545948.5600000001,"ADDRESS":"長榮路五段２９８巷１號七樓之１","OBJECTID":454847},"geometry":{"x":169721.60000000056,"y":2545948.5600000005}},{"attributes":{"ID":454873,"DIS_CODE":0,"TOWNNAME":"北區","LI":"實踐里","LIN":"8鄰","STREET":"長榮路","SECT":"五段","MAREA":" ","LANE":"２９８巷","ALLEY":" ","HOUSE_NO":"１號七樓之２","E_COORD97":169721.60000000001,"N_COORD97":2545948.5600000001,"ADDRESS":"長榮路五段２９８巷１號七樓之２","OBJECTID":454848},"geometry":{"x":169721.60000000056,"y":2545948.5600000005}},{"attributes":{"ID":454874,"DIS_CODE":0,"TOWNNAME":"北區","LI":"實踐里","LIN":"8鄰","STREET":"長榮路","SECT":"五段","MAREA":" ","LANE":"２９８巷","ALLEY":" ","HOUSE_NO":"１７號八樓之１","E_COORD97":169723.56,"N_COORD97":2545993.52,"ADDRESS":"長榮路五段２９８巷１７號八樓之１","OBJECTID":454849},"geometry":{"x":169723.56000000052,"y":2545993.5200000033}},{"attributes":{"ID":454875,"DIS_CODE":0,"TOWNNAME":"北區","LI":"實踐里","LIN":"8鄰","STREET":"長榮路","SECT":"五段","MAREA":" ","LANE":"２９８巷","ALLEY":" ","HOUSE_NO":"９號十二樓之２","E_COORD97":169721.70999999999,"N_COORD97":2545966.27,"ADDRESS":"長榮路五段２９８巷９號十二樓之２","OBJECTID":454850},"geometry":{"x":169721.70999999996,"y":2545966.2700000014}},{"attributes":{"ID":454876,"DIS_CODE":0,"TOWNNAME":"北區","LI":"實踐里","LIN":"8鄰","STREET":"長榮路","SECT":"五段","MAREA":" ","LANE":"２９８巷","ALLEY":" ","HOUSE_NO":"１７號八樓之２","E_COORD97":169723.56,"N_COORD97":2545993.52,"ADDRESS":"長榮路五段２９８巷１７號八樓之２","OBJECTID":454851},"geometry":{"x":169723.56000000052,"y":2545993.5200000033}},{"attributes":{"ID":454877,"DIS_CODE":0,"TOWNNAME":"北區","LI":"實踐里","LIN":"8鄰","STREET":"長榮路","SECT":"五段","MAREA":" ","LANE":"２９８巷","ALLEY":" ","HOUSE_NO":"１７號八樓之３","E_COORD97":169723.56,"N_COORD97":2545993.52,"ADDRESS":"長榮路五段２９８巷１７號八樓之３","OBJECTID":454852},"geometry":{"x":169723.56000000052,"y":2545993.5200000033}},{"attributes":{"ID":454878,"DIS_CODE":0,"TOWNNAME":"北區","LI":"實踐里","LIN":"8鄰","STREET":"長榮路","SECT":"五段","MAREA":" ","LANE":"２９８巷","ALLEY":" ","HOUSE_NO":"１７號八樓之５","E_COORD97":169723.56,"N_COORD97":2545993.52,"ADDRESS":"長榮路五段２９８巷１７號八樓之５","OBJECTID":454853},"geometry":{"x":169723.56000000052,"y":2545993.5200000033}},{"attributes":{"ID":454879,"DIS_CODE":0,"TOWNNAME":"北區","LI":"實踐里","LIN":"8鄰","STREET":"長榮路","SECT":"五段","MAREA":" ","LANE":"２９８巷","ALLEY":" ","HOUSE_NO":"９號八樓之１","E_COORD97":169721.70999999999,"N_COORD97":2545966.27,"ADDRESS":"長榮路五段２９８巷９號八樓之１","OBJECTID":454854},"geometry":{"x":169721.70999999996,"y":2545966.2700000014}},{"attributes":{"ID":454880,"DIS_CODE":0,"TOWNNAME":"北區","LI":"實踐里","LIN":"8鄰","STREET":"長榮路","SECT":"五段","MAREA":" ","LANE":"２９８巷","ALLEY":" ","HOUSE_NO":"９號八樓之２","E_COORD97":169721.70999999999,"N_COORD97":2545966.27,"ADDRESS":"長榮路五段２９８巷９號八樓之２","OBJECTID":454855},"geometry":{"x":169721.70999999996,"y":2545966.2700000014}},{"attributes":{"ID":454881,"DIS_CODE":0,"TOWNNAME":"北區","LI":"實踐里","LIN":"8鄰","STREET":"長榮路","SECT":"五段","MAREA":" ","LANE":"２９８巷","ALLEY":" ","HOUSE_NO":"１號八樓之１","E_COORD97":169721.60000000001,"N_COORD97":2545948.5600000001,"ADDRESS":"長榮路五段２９８巷１號八樓之１","OBJECTID":454856},"geometry":{"x":169721.60000000056,"y":2545948.5600000005}},{"attributes":{"ID":454882,"DIS_CODE":0,"TOWNNAME":"北區","LI":"實踐里","LIN":"8鄰","STREET":"長榮路","SECT":"五段","MAREA":" ","LANE":"２９８巷","ALLEY":" ","HOUSE_NO":"１號八樓之２","E_COORD97":169721.60000000001,"N_COORD97":2545948.5600000001,"ADDRESS":"長榮路五段２９８巷１號八樓之２","OBJECTID":454857},"geometry":{"x":169721.60000000056,"y":2545948.5600000005}},{"attributes":{"ID":454883,"DIS_CODE":0,"TOWNNAME":"北區","LI":"實踐里","LIN":"8鄰","STREET":"長榮路","SECT":"五段","MAREA":" ","LANE":"２９８巷","ALLEY":" ","HOUSE_NO":"１７號九樓之１","E_COORD97":169723.56,"N_COORD97":2545993.52,"ADDRESS":"長榮路五段２９８巷１７號九樓之１","OBJECTID":454858},"geometry":{"x":169723.56000000052,"y":2545993.5200000033}},{"attributes":{"ID":454884,"DIS_CODE":0,"TOWNNAME":"北區","LI":"實踐里","LIN":"8鄰","STREET":"長榮路","SECT":"五段","MAREA":" ","LANE":"２９８巷","ALLEY":" ","HOUSE_NO":"１７號九樓之２","E_COORD97":169723.56,"N_COORD97":2545993.52,"ADDRESS":"長榮路五段２９８巷１７號九樓之２","OBJECTID":454859},"geometry":{"x":169723.56000000052,"y":2545993.5200000033}},{"attributes":{"ID":454885,"DIS_CODE":0,"TOWNNAME":"北區","LI":"實踐里","LIN":"8鄰","STREET":"長榮路","SECT":"五段","MAREA":" ","LANE":"２９８巷","ALLEY":" ","HOUSE_NO":"１７號九樓之３","E_COORD97":169723.56,"N_COORD97":2545993.52,"ADDRESS":"長榮路五段２９８巷１７號九樓之３","OBJECTID":454860},"geometry":{"x":169723.56000000052,"y":2545993.5200000033}},{"attributes":{"ID":454886,"DIS_CODE":0,"TOWNNAME":"東區","LI":"崇文里","LIN":"40鄰","STREET":"生產路","SECT":" ","MAREA":" ","LANE":" ","ALLEY":" ","HOUSE_NO":"２７５號五樓","E_COORD97":170911.67999999999,"N_COORD97":2540618.3100000001,"ADDRESS":"生產路２７５號五樓","OBJECTID":454861},"geometry":{"x":170911.6799999997,"y":2540618.3100000005}},{"attributes":{"ID":454887,"DIS_CODE":0,"TOWNNAME":"北區","LI":"實踐里","LIN":"8鄰","STREET":"長榮路","SECT":"五段","MAREA":" ","LANE":"２９８巷","ALLEY":" ","HOUSE_NO":"１７號九樓之５","E_COORD97":169723.56,"N_COORD97":2545993.52,"ADDRESS":"長榮路五段２９８巷１７號九樓之５","OBJECTID":454862},"geometry":{"x":169723.56000000052,"y":2545993.5200000033}},{"attributes":{"ID":454888,"DIS_CODE":0,"TOWNNAME":"北區","LI":"實踐里","LIN":"8鄰","STREET":"長榮路","SECT":"五段","MAREA":" ","LANE":"２９８巷","ALLEY":" ","HOUSE_NO":"９號九樓之１","E_COORD97":169721.70999999999,"N_COORD97":2545966.27,"ADDRESS":"長榮路五段２９８巷９號九樓之１","OBJECTID":454863},"geometry":{"x":169721.70999999996,"y":2545966.2700000014}},{"attributes":{"ID":454889,"DIS_CODE":0,"TOWNNAME":"北區","LI":"實踐里","LIN":"8鄰","STREET":"長榮路","SECT":"五段","MAREA":" ","LANE":"２９８巷","ALLEY":" ","HOUSE_NO":"９號九樓之２","E_COORD97":169721.70999999999,"N_COORD97":2545966.27,"ADDRESS":"長榮路五段２９８巷９號九樓之２","OBJECTID":454864},"geometry":{"x":169721.70999999996,"y":2545966.2700000014}},{"attributes":{"ID":454890,"DIS_CODE":0,"TOWNNAME":"北區","LI":"實踐里","LIN":"8鄰","STREET":"長榮路","SECT":"五段","MAREA":" ","LANE":"２９８巷","ALLEY":" ","HOUSE_NO":"１號九樓之１","E_COORD97":169721.60000000001,"N_COORD97":2545948.5600000001,"ADDRESS":"長榮路五段２９８巷１號九樓之１","OBJECTID":454865},"geometry":{"x":169721.60000000056,"y":2545948.5600000005}},{"attributes":{"ID":454891,"DIS_CODE":0,"TOWNNAME":"北區","LI":"實踐里","LIN":"8鄰","STREET":"長榮路","SECT":"五段","MAREA":" ","LANE":"２９８巷","ALLEY":" ","HOUSE_NO":"１號九樓之２","E_COORD97":169721.60000000001,"N_COORD97":2545948.5600000001,"ADDRESS":"長榮路五段２９８巷１號九樓之２","OBJECTID":454866},"geometry":{"x":169721.60000000056,"y":2545948.5600000005}},{"attributes":{"ID":454892,"DIS_CODE":0,"TOWNNAME":"北區","LI":"實踐里","LIN":"8鄰","STREET":"長榮路","SECT":"五段","MAREA":" ","LANE":"２９８巷","ALLEY":" ","HOUSE_NO":"１７號十樓之１","E_COORD97":169723.56,"N_COORD97":2545993.52,"ADDRESS":"長榮路五段２９８巷１７號十樓之１","OBJECTID":454867},"geometry":{"x":169723.56000000052,"y":2545993.5200000033}},{"attributes":{"ID":454893,"DIS_CODE":0,"TOWNNAME":"北區","LI":"實踐里","LIN":"8鄰","STREET":"長榮路","SECT":"五段","MAREA":" ","LANE":"２９８巷","ALLEY":" ","HOUSE_NO":"１７號十樓之２","E_COORD97":169723.56,"N_COORD97":2545993.52,"ADDRESS":"長榮路五段２９８巷１７號十樓之２","OBJECTID":454868},"geometry":{"x":169723.56000000052,"y":2545993.5200000033}},{"attributes":{"ID":454894,"DIS_CODE":0,"TOWNNAME":"北區","LI":"實踐里","LIN":"8鄰","STREET":"長榮路","SECT":"五段","MAREA":" ","LANE":"２９８巷","ALLEY":" ","HOUSE_NO":"１７號十樓之３","E_COORD97":169723.56,"N_COORD97":2545993.52,"ADDRESS":"長榮路五段２９８巷１７號十樓之３","OBJECTID":454869},"geometry":{"x":169723.56000000052,"y":2545993.5200000033}},{"attributes":{"ID":454895,"DIS_CODE":0,"TOWNNAME":"北區","LI":"實踐里","LIN":"8鄰","STREET":"長榮路","SECT":"五段","MAREA":" ","LANE":"２９８巷","ALLEY":" ","HOUSE_NO":"１７號十樓之５","E_COORD97":169723.56,"N_COORD97":2545993.52,"ADDRESS":"長榮路五段２９８巷１７號十樓之５","OBJECTID":454870},"geometry":{"x":169723.56000000052,"y":2545993.5200000033}},{"attributes":{"ID":454896,"DIS_CODE":0,"TOWNNAME":"北區","LI":"實踐里","LIN":"8鄰","STREET":"長榮路","SECT":"五段","MAREA":" ","LANE":"２９８巷","ALLEY":" ","HOUSE_NO":"９號十樓之１","E_COORD97":169721.70999999999,"N_COORD97":2545966.27,"ADDRESS":"長榮路五段２９８巷９號十樓之１","OBJECTID":454871},"geometry":{"x":169721.70999999996,"y":2545966.2700000014}},{"attributes":{"ID":454897,"DIS_CODE":0,"TOWNNAME":"北區","LI":"實踐里","LIN":"8鄰","STREET":"長榮路","SECT":"五段","MAREA":" ","LANE":"２９８巷","ALLEY":" ","HOUSE_NO":"９號十樓之２","E_COORD97":169721.70999999999,"N_COORD97":2545966.27,"ADDRESS":"長榮路五段２９８巷９號十樓之２","OBJECTID":454872},"geometry":{"x":169721.70999999996,"y":2545966.2700000014}},{"attributes":{"ID":454898,"DIS_CODE":0,"TOWNNAME":"北區","LI":"實踐里","LIN":"8鄰","STREET":"長榮路","SECT":"五段","MAREA":" ","LANE":"２９８巷","ALLEY":" ","HOUSE_NO":"１號十樓之１","E_COORD97":169721.60000000001,"N_COORD97":2545948.5600000001,"ADDRESS":"長榮路五段２９８巷１號十樓之１","OBJECTID":454873},"geometry":{"x":169721.60000000056,"y":2545948.5600000005}},{"attributes":{"ID":454899,"DIS_CODE":0,"TOWNNAME":"北區","LI":"實踐里","LIN":"8鄰","STREET":"長榮路","SECT":"五段","MAREA":" ","LANE":"２９８巷","ALLEY":" ","HOUSE_NO":"１號十樓之２","E_COORD97":169721.60000000001,"N_COORD97":2545948.5600000001,"ADDRESS":"長榮路五段２９８巷１號十樓之２","OBJECTID":454874},"geometry":{"x":169721.60000000056,"y":2545948.5600000005}},{"attributes":{"ID":454900,"DIS_CODE":0,"TOWNNAME":"北區","LI":"實踐里","LIN":"8鄰","STREET":"長榮路","SECT":"五段","MAREA":" ","LANE":"２９８巷","ALLEY":" ","HOUSE_NO":"１７號十一樓之１","E_COORD97":169723.56,"N_COORD97":2545993.52,"ADDRESS":"長榮路五段２９８巷１７號十一樓之１","OBJECTID":454875},"geometry":{"x":169723.56000000052,"y":2545993.5200000033}},{"attributes":{"ID":454901,"DIS_CODE":0,"TOWNNAME":"北區","LI":"實踐里","LIN":"8鄰","STREET":"長榮路","SECT":"五段","MAREA":" ","LANE":"２９８巷","ALLEY":" ","HOUSE_NO":"１７號十一樓之２","E_COORD97":169723.56,"N_COORD97":2545993.52,"ADDRESS":"長榮路五段２９８巷１７號十一樓之２","OBJECTID":454876},"geometry":{"x":169723.56000000052,"y":2545993.5200000033}},{"attributes":{"ID":454902,"DIS_CODE":0,"TOWNNAME":"北區","LI":"實踐里","LIN":"8鄰","STREET":"長榮路","SECT":"五段","MAREA":" ","LANE":"２９８巷","ALLEY":" ","HOUSE_NO":"１號十一樓之２","E_COORD97":169721.60000000001,"N_COORD97":2545948.5600000001,"ADDRESS":"長榮路五段２９８巷１號十一樓之２","OBJECTID":454877},"geometry":{"x":169721.60000000056,"y":2545948.5600000005}},{"attributes":{"ID":454903,"DIS_CODE":0,"TOWNNAME":"北區","LI":"實踐里","LIN":"8鄰","STREET":"長榮路","SECT":"五段","MAREA":" ","LANE":"２９８巷","ALLEY":" ","HOUSE_NO":"９號十二樓之１","E_COORD97":169721.70999999999,"N_COORD97":2545966.27,"ADDRESS":"長榮路五段２９８巷９號十二樓之１","OBJECTID":454878},"geometry":{"x":169721.70999999996,"y":2545966.2700000014}},{"attributes":{"ID":454904,"DIS_CODE":0,"TOWNNAME":"北區","LI":"實踐里","LIN":"8鄰","STREET":"長榮路","SECT":"五段","MAREA":" ","LANE":"２９８巷","ALLEY":" ","HOUSE_NO":"１號十二樓之１","E_COORD97":169721.60000000001,"N_COORD97":2545948.5600000001,"ADDRESS":"長榮路五段２９８巷１號十二樓之１","OBJECTID":454879},"geometry":{"x":169721.60000000056,"y":2545948.5600000005}},{"attributes":{"ID":454905,"DIS_CODE":0,"TOWNNAME":"北區","LI":"實踐里","LIN":"8鄰","STREET":"長榮路","SECT":"五段","MAREA":" ","LANE":"２９８巷","ALLEY":" ","HOUSE_NO":"１號十二樓之２","E_COORD97":169721.60000000001,"N_COORD97":2545948.5600000001,"ADDRESS":"長榮路五段２９８巷１號十二樓之２","OBJECTID":454880},"geometry":{"x":169721.60000000056,"y":2545948.5600000005}},{"attributes":{"ID":454906,"DIS_CODE":0,"TOWNNAME":"北區","LI":"實踐里","LIN":"8鄰","STREET":"長榮路","SECT":"五段","MAREA":" ","LANE":"２９８巷","ALLEY":" ","HOUSE_NO":"１１號","E_COORD97":169735.84,"N_COORD97":2545972.9700000002,"ADDRESS":"長榮路五段２９８巷１１號","OBJECTID":454881},"geometry":{"x":169735.83999999985,"y":2545972.9700000007}},{"attributes":{"ID":454907,"DIS_CODE":0,"TOWNNAME":"北區","LI":"實踐里","LIN":"8鄰","STREET":"長榮路","SECT":"五段","MAREA":" ","LANE":"２９８巷","ALLEY":" ","HOUSE_NO":"１３號","E_COORD97":169737.23000000001,"N_COORD97":2545978.52,"ADDRESS":"長榮路五段２９８巷１３號","OBJECTID":454882},"geometry":{"x":169737.23000000045,"y":2545978.5199999996}},{"attributes":{"ID":454908,"DIS_CODE":0,"TOWNNAME":"北區","LI":"實踐里","LIN":"8鄰","STREET":"長榮路","SECT":"五段","MAREA":" ","LANE":"２９８巷","ALLEY":" ","HOUSE_NO":"１５號","E_COORD97":169738.51000000001,"N_COORD97":2545985.9900000002,"ADDRESS":"長榮路五段２９８巷１５號","OBJECTID":454883},"geometry":{"x":169738.50999999978,"y":2545985.9900000002}},{"attributes":{"ID":454909,"DIS_CODE":0,"TOWNNAME":"北區","LI":"實踐里","LIN":"8鄰","STREET":"長榮路","SECT":"五段","MAREA":" ","LANE":"２９８巷","ALLEY":" ","HOUSE_NO":"１７號","E_COORD97":169740.13,"N_COORD97":2545993.3999999999,"ADDRESS":"長榮路五段２９８巷１７號","OBJECTID":454884},"geometry":{"x":169740.13000000082,"y":2545993.4000000022}},{"attributes":{"ID":454910,"DIS_CODE":0,"TOWNNAME":"北區","LI":"實踐里","LIN":"8鄰","STREET":"長榮路","SECT":"五段","MAREA":" ","LANE":"２９８巷","ALLEY":" ","HOUSE_NO":"１９號","E_COORD97":169740.59,"N_COORD97":2546000.23,"ADDRESS":"長榮路五段２９８巷１９號","OBJECTID":454885},"geometry":{"x":169740.59000000078,"y":2546000.2300000023}},{"attributes":{"ID":454911,"DIS_CODE":0,"TOWNNAME":"北區","LI":"實踐里","LIN":"8鄰","STREET":"長榮路","SECT":"五段","MAREA":" ","LANE":"２９８巷","ALLEY":" ","HOUSE_NO":"２１號","E_COORD97":169741.17000000001,"N_COORD97":2546006.25,"ADDRESS":"長榮路五段２９８巷２１號","OBJECTID":454886},"geometry":{"x":169741.17000000179,"y":2546006.2500000019}},{"attributes":{"ID":454912,"DIS_CODE":0,"TOWNNAME":"安南區","LI":"\u25A0田里","LIN":"8鄰","STREET":"本田路","SECT":"三段","MAREA":" ","LANE":"８０巷","ALLEY":" ","HOUSE_NO":"９號","E_COORD97":163920.72276800001,"N_COORD97":2549074.17613,"ADDRESS":"本田路三段８０巷９號","OBJECTID":454887},"geometry":{"x":163920.72276800126,"y":2549074.1761310007}},{"attributes":{"ID":454913,"DIS_CODE":0,"TOWNNAME":"安南區","LI":"\u25A0田里","LIN":"8鄰","STREET":"本田路","SECT":"三段","MAREA":" ","LANE":"８０巷","ALLEY":" ","HOUSE_NO":"８號","E_COORD97":163923.15826,"N_COORD97":2549071.63613,"ADDRESS":"本田路三段８０巷８號","OBJECTID":454888},"geometry":{"x":163923.15825999994,"y":2549071.6361330003}},{"attributes":{"ID":454914,"DIS_CODE":0,"TOWNNAME":"安南區","LI":"\u25A0田里","LIN":"8鄰","STREET":"本田路","SECT":"三段","MAREA":" ","LANE":"８０巷","ALLEY":" ","HOUSE_NO":"７號","E_COORD97":163924.95840599999,"N_COORD97":2549068.4611300002,"ADDRESS":"本田路三段８０巷７號","OBJECTID":454889},"geometry":{"x":163924.9584060004,"y":2549068.4611340016}},{"attributes":{"ID":454915,"DIS_CODE":0,"TOWNNAME":"安南區","LI":"\u25A0田里","LIN":"8鄰","STREET":"本田路","SECT":"三段","MAREA":" ","LANE":"８０巷","ALLEY":" ","HOUSE_NO":"５號","E_COORD97":163909.39243599999,"N_COORD97":2549061.3401600001,"ADDRESS":"本田路三段８０巷５號","OBJECTID":454890},"geometry":{"x":163909.39243600145,"y":2549061.3401600011}},{"attributes":{"ID":454916,"DIS_CODE":0,"TOWNNAME":"安南區","LI":"\u25A0田里","LIN":"8鄰","STREET":"本田路","SECT":"三段","MAREA":" ","LANE":"８０巷","ALLEY":" ","HOUSE_NO":"６號","E_COORD97":163911.61614599999,"N_COORD97":2549059.2234899998,"ADDRESS":"本田路三段８０巷６號","OBJECTID":454891},"geometry":{"x":163911.61614600103,"y":2549059.2234940007}},{"attributes":{"ID":454917,"DIS_CODE":0,"TOWNNAME":"安南區","LI":"\u25A0田里","LIN":"8鄰","STREET":"本田路","SECT":"三段","MAREA":" ","LANE":"８１巷","ALLEY":" ","HOUSE_NO":"１號","E_COORD97":163903.46254199999,"N_COORD97":2549133.0951200002,"ADDRESS":"本田路三段８１巷１號","OBJECTID":454892},"geometry":{"x":163903.46254200023,"y":2549133.0951210037}},{"attributes":{"ID":454918,"DIS_CODE":0,"TOWNNAME":"安南區","LI":"\u25A0田里","LIN":"8鄰","STREET":"本田路","SECT":"三段","MAREA":" ","LANE":"８１巷","ALLEY":" ","HOUSE_NO":"２號","E_COORD97":163902.50952299999,"N_COORD97":2549138.3867899999,"ADDRESS":"本田路三段８１巷２號","OBJECTID":454893},"geometry":{"x":163902.50952300057,"y":2549138.3867850043}},{"attributes":{"ID":454919,"DIS_CODE":0,"TOWNNAME":"安南區","LI":"\u25A0田里","LIN":"8鄰","STREET":"本田路","SECT":"三段","MAREA":" ","LANE":"８１巷","ALLEY":" ","HOUSE_NO":"３號","E_COORD97":163900.49759499999,"N_COORD97":2549141.13845,"ADDRESS":"本田路三段８１巷３號","OBJECTID":454894},"geometry":{"x":163900.49759500101,"y":2549141.1384500004}},{"attributes":{"ID":454920,"DIS_CODE":0,"TOWNNAME":"安南區","LI":"\u25A0田里","LIN":"8鄰","STREET":"本田路","SECT":"三段","MAREA":" ","LANE":"８１巷","ALLEY":" ","HOUSE_NO":"４號","E_COORD97":163898.909231,"N_COORD97":2549144.1017800001,"ADDRESS":"本田路三段８１巷４號","OBJECTID":454895},"geometry":{"x":163898.90923099965,"y":2549144.1017820034}},{"attributes":{"ID":454921,"DIS_CODE":0,"TOWNNAME":"安南區","LI":"\u25A0田里","LIN":"8鄰","STREET":"本田路","SECT":"三段","MAREA":" ","LANE":"８１巷","ALLEY":" ","HOUSE_NO":"５號","E_COORD97":163896.47373900001,"N_COORD97":2549147.0651099999,"ADDRESS":"本田路三段８１巷５號","OBJECTID":454896},"geometry":{"x":163896.47373900097,"y":2549147.0651130006}},{"attributes":{"ID":454922,"DIS_CODE":0,"TOWNNAME":"安南區","LI":"\u25A0田里","LIN":"8鄰","STREET":"本田路","SECT":"三段","MAREA":" ","LANE":"８１巷","ALLEY":" ","HOUSE_NO":"６號","E_COORD97":163894.03824699999,"N_COORD97":2549148.7584500001,"ADDRESS":"本田路三段８１巷６號","OBJECTID":454897},"geometry":{"x":163894.03824700136,"y":2549148.7584460042}},{"attributes":{"ID":454923,"DIS_CODE":0,"TOWNNAME":"安南區","LI":"\u25A0田里","LIN":"8鄰","STREET":"本田路","SECT":"三段","MAREA":" ","LANE":"８１巷","ALLEY":" ","HOUSE_NO":"７號","E_COORD97":163891.814537,"N_COORD97":2549153.2034399998,"ADDRESS":"本田路三段８１巷７號","OBJECTID":454898},"geometry":{"x":163891.81453699991,"y":2549153.2034430038}},{"attributes":{"ID":454924,"DIS_CODE":0,"TOWNNAME":"安南區","LI":"\u25A0田里","LIN":"8鄰","STREET":"本田路","SECT":"三段","MAREA":" ","LANE":"８７巷","ALLEY":" ","HOUSE_NO":"１號","E_COORD97":163929.82939,"N_COORD97":2549157.8601099998,"ADDRESS":"本田路三段８７巷１號","OBJECTID":454899},"geometry":{"x":163929.82938999962,"y":2549157.8601079993}},{"attributes":{"ID":454925,"DIS_CODE":0,"TOWNNAME":"安南區","LI":"\u25A0田里","LIN":"8鄰","STREET":"本田路","SECT":"三段","MAREA":" ","LANE":"８７巷","ALLEY":" ","HOUSE_NO":"２號","E_COORD97":163929.29993499999,"N_COORD97":2549161.8817699999,"ADDRESS":"本田路三段８７巷２號","OBJECTID":454900},"geometry":{"x":163929.29993500188,"y":2549161.8817720003}},{"attributes":{"ID":454926,"DIS_CODE":0,"TOWNNAME":"安南區","LI":"\u25A0田里","LIN":"8鄰","STREET":"本田路","SECT":"三段","MAREA":" ","LANE":"８７巷","ALLEY":" ","HOUSE_NO":"１２號","E_COORD97":163916.91069300001,"N_COORD97":2549148.6827600002,"ADDRESS":"本田路三段８７巷１２號","OBJECTID":454901},"geometry":{"x":163916.910693001,"y":2549148.6827580035}},{"attributes":{"ID":454927,"DIS_CODE":0,"TOWNNAME":"安南區","LI":"\u25A0田里","LIN":"8鄰","STREET":"本田路","SECT":"三段","MAREA":" ","LANE":"８７巷","ALLEY":" ","HOUSE_NO":"５號","E_COORD97":163925.80553400001,"N_COORD97":2549167.5210799999,"ADDRESS":"本田路三段８７巷５號","OBJECTID":454902},"geometry":{"x":163925.80553399958,"y":2549167.5210810024}},{"attributes":{"ID":454928,"DIS_CODE":0,"TOWNNAME":"安南區","LI":"\u25A0田里","LIN":"8鄰","STREET":"本田路","SECT":"三段","MAREA":" ","LANE":"８７巷","ALLEY":" ","HOUSE_NO":"４號","E_COORD97":163925.699643,"N_COORD97":2549164.7694199998,"ADDRESS":"本田路三段８７巷４號","OBJECTID":454903},"geometry":{"x":163925.69964300003,"y":2549164.7694160007}},{"attributes":{"ID":454929,"DIS_CODE":0,"TOWNNAME":"安南區","LI":"\u25A0田里","LIN":"8鄰","STREET":"本田路","SECT":"三段","MAREA":" ","LANE":"８７巷","ALLEY":" ","HOUSE_NO":"１１號","E_COORD97":163915.11054699999,"N_COORD97":2549152.0694200001,"ADDRESS":"本田路三段８７巷１１號","OBJECTID":454904},"geometry":{"x":163915.11054700054,"y":2549152.0694229994}},{"attributes":{"ID":454930,"DIS_CODE":0,"TOWNNAME":"安南區","LI":"\u25A0田里","LIN":"8鄰","STREET":"本田路","SECT":"三段","MAREA":" ","LANE":"８７巷","ALLEY":" ","HOUSE_NO":"１０號","E_COORD97":163912.675055,"N_COORD97":2549154.8210900002,"ADDRESS":"本田路三段８７巷１０號","OBJECTID":454905},"geometry":{"x":163912.67505500186,"y":2549154.8210880011}},{"attributes":{"ID":454931,"DIS_CODE":0,"TOWNNAME":"東區","LI":"崇德里","LIN":"8鄰","STREET":"崇德七街","SECT":" ","MAREA":" ","LANE":"２０巷","ALLEY":" ","HOUSE_NO":"２２號","E_COORD97":170851.57999999999,"N_COORD97":2541702.8799999999,"ADDRESS":"崇德七街２０巷２２號","OBJECTID":454906},"geometry":{"x":170851.58000000007,"y":2541702.8800000008}},{"attributes":{"ID":454932,"DIS_CODE":0,"TOWNNAME":"東區","LI":"崇德里","LIN":"8鄰","STREET":"崇德七街","SECT":" ","MAREA":" ","LANE":"２０巷","ALLEY":" ","HOUSE_NO":"２２之１號","E_COORD97":170856.47,"N_COORD97":2541704.5699999998,"ADDRESS":"崇德七街２０巷２２之１號","OBJECTID":454907},"geometry":{"x":170856.47000000067,"y":2541704.5700000003}},{"attributes":{"ID":454933,"DIS_CODE":0,"TOWNNAME":"東區","LI":"崇德里","LIN":"8鄰","STREET":"崇德七街","SECT":" ","MAREA":" ","LANE":"３０巷","ALLEY":" ","HOUSE_NO":"４７號","E_COORD97":170898.66,"N_COORD97":2541721.8399999999,"ADDRESS":"崇德七街３０巷４７號","OBJECTID":454908},"geometry":{"x":170898.66000000015,"y":2541721.8399999999}},{"attributes":{"ID":454934,"DIS_CODE":0,"TOWNNAME":"安南區","LI":"\u25A0田里","LIN":"8鄰","STREET":"本田路","SECT":"三段","MAREA":" ","LANE":"８７巷","ALLEY":" ","HOUSE_NO":"９號","E_COORD97":163911.61614599999,"N_COORD97":2549156.3027499998,"ADDRESS":"本田路三段８７巷９號","OBJECTID":454909},"geometry":{"x":163911.61614600103,"y":2549156.3027540017}},{"attributes":{"ID":454935,"DIS_CODE":0,"TOWNNAME":"安南區","LI":"\u25A0田里","LIN":"8鄰","STREET":"本田路","SECT":"三段","MAREA":" ","LANE":"８７巷","ALLEY":" ","HOUSE_NO":"８號","E_COORD97":163909.81599900001,"N_COORD97":2549158.8427499998,"ADDRESS":"本田路三段８７巷８號","OBJECTID":454910},"geometry":{"x":163909.81599900126,"y":2549158.8427520022}},{"attributes":{"ID":454936,"DIS_CODE":0,"TOWNNAME":"安南區","LI":"\u25A0田里","LIN":"8鄰","STREET":"本田路","SECT":"三段","MAREA":" ","LANE":"８７巷","ALLEY":" ","HOUSE_NO":"７號","E_COORD97":163908.65119900001,"N_COORD97":2549161.80608,"ADDRESS":"本田路三段８７巷７號","OBJECTID":454911},"geometry":{"x":163908.65119900182,"y":2549161.8060839996}},{"attributes":{"ID":454937,"DIS_CODE":0,"TOWNNAME":"安南區","LI":"鹿耳里","LIN":"8鄰","STREET":"北汕尾二路","SECT":" ","MAREA":" ","LANE":"５５０巷","ALLEY":" ","HOUSE_NO":"１號之１","E_COORD97":160554.38,"N_COORD97":2548057.3900000001,"ADDRESS":"北汕尾二路５５０巷１號之１","OBJECTID":454912},"geometry":{"x":160554.37999999989,"y":2548057.3900000025}},{"attributes":{"ID":454938,"DIS_CODE":0,"TOWNNAME":"安南區","LI":"鹿耳里","LIN":"8鄰","STREET":"北汕尾二路","SECT":" ","MAREA":" ","LANE":"５５０巷","ALLEY":" ","HOUSE_NO":"３號之１","E_COORD97":160554.72,"N_COORD97":2548047.1800000002,"ADDRESS":"北汕尾二路５５０巷３號之１","OBJECTID":454913},"geometry":{"x":160554.72000000067,"y":2548047.1800000034}},{"attributes":{"ID":454939,"DIS_CODE":0,"TOWNNAME":"安南區","LI":"鹿耳里","LIN":"8鄰","STREET":"北汕尾二路","SECT":" ","MAREA":" ","LANE":"５５０巷","ALLEY":" ","HOUSE_NO":"５號","E_COORD97":160544.51000000001,"N_COORD97":2548038.6800000002,"ADDRESS":"北汕尾二路５５０巷５號","OBJECTID":454914},"geometry":{"x":160544.51000000071,"y":2548038.6799999997}},{"attributes":{"ID":454940,"DIS_CODE":0,"TOWNNAME":"安南區","LI":"鹿耳里","LIN":"8鄰","STREET":"北汕尾二路","SECT":" ","MAREA":" ","LANE":"５５０巷","ALLEY":" ","HOUSE_NO":"５號之１","E_COORD97":160558.47,"N_COORD97":2548044.1200000001,"ADDRESS":"北汕尾二路５５０巷５號之１","OBJECTID":454915},"geometry":{"x":160558.47000000067,"y":2548044.120000001}},{"attributes":{"ID":454941,"DIS_CODE":0,"TOWNNAME":"安南區","LI":"鹿耳里","LIN":"8鄰","STREET":"北汕尾二路","SECT":" ","MAREA":" ","LANE":"５５０巷","ALLEY":" ","HOUSE_NO":"１１號","E_COORD97":160553.70000000001,"N_COORD97":2548032.8900000001,"ADDRESS":"北汕尾二路５５０巷１１號","OBJECTID":454916},"geometry":{"x":160553.70000000112,"y":2548032.8899999987}},{"attributes":{"ID":454942,"DIS_CODE":0,"TOWNNAME":"安南區","LI":"鹿耳里","LIN":"8鄰","STREET":"北汕尾二路","SECT":" ","MAREA":" ","LANE":"５５０巷","ALLEY":" ","HOUSE_NO":"１５號","E_COORD97":160562.56,"N_COORD97":2548025.4100000001,"ADDRESS":"北汕尾二路５５０巷１５號","OBJECTID":454917},"geometry":{"x":160562.56000000052,"y":2548025.4099999983}},{"attributes":{"ID":454943,"DIS_CODE":0,"TOWNNAME":"安南區","LI":"鹿耳里","LIN":"8鄰","STREET":"北汕尾二路","SECT":" ","MAREA":" ","LANE":"５５０巷","ALLEY":" ","HOUSE_NO":"１７號","E_COORD97":160564.26000000001,"N_COORD97":2548024.0499999998,"ADDRESS":"北汕尾二路５５０巷１７號","OBJECTID":454918},"geometry":{"x":160564.26000000164,"y":2548024.0500000007}},{"attributes":{"ID":454944,"DIS_CODE":0,"TOWNNAME":"安南區","LI":"鹿耳里","LIN":"8鄰","STREET":"北汕尾二路","SECT":" ","MAREA":" ","LANE":"５５０巷","ALLEY":" ","HOUSE_NO":"１９號","E_COORD97":160566.64000000001,"N_COORD97":2548023.02,"ADDRESS":"北汕尾二路５５０巷１９號","OBJECTID":454919},"geometry":{"x":160566.64000000153,"y":2548023.0199999996}},{"attributes":{"ID":454945,"DIS_CODE":0,"TOWNNAME":"安南區","LI":"鹿耳里","LIN":"8鄰","STREET":"北汕尾二路","SECT":" ","MAREA":" ","LANE":"５５０巷","ALLEY":" ","HOUSE_NO":"２１號","E_COORD97":160569.03,"N_COORD97":2548021.3199999998,"ADDRESS":"北汕尾二路５５０巷２１號","OBJECTID":454920},"geometry":{"x":160569.03000000026,"y":2548021.3200000022}},{"attributes":{"ID":454946,"DIS_CODE":0,"TOWNNAME":"安南區","LI":"鹿耳里","LIN":"8鄰","STREET":"北汕尾二路","SECT":" ","MAREA":" ","LANE":"５５０巷","ALLEY":" ","HOUSE_NO":"２３號","E_COORD97":160571.07000000001,"N_COORD97":2548019.2799999998,"ADDRESS":"北汕尾二路５５０巷２３號","OBJECTID":454921},"geometry":{"x":160571.0700000003,"y":2548019.2800000012}},{"attributes":{"ID":454947,"DIS_CODE":0,"TOWNNAME":"安南區","LI":"鹿耳里","LIN":"8鄰","STREET":"北汕尾二路","SECT":" ","MAREA":" ","LANE":"５５０巷","ALLEY":" ","HOUSE_NO":"２５號","E_COORD97":160573.10999999999,"N_COORD97":2548017.5800000001,"ADDRESS":"北汕尾二路５５０巷２５號","OBJECTID":454922},"geometry":{"x":160573.11000000127,"y":2548017.5800000038}},{"attributes":{"ID":454948,"DIS_CODE":0,"TOWNNAME":"安南區","LI":"鹿耳里","LIN":"8鄰","STREET":"北汕尾二路","SECT":" ","MAREA":" ","LANE":"５５０巷","ALLEY":" ","HOUSE_NO":"２７號","E_COORD97":160575.5,"N_COORD97":2548015.8799999999,"ADDRESS":"北汕尾二路５５０巷２７號","OBJECTID":454923},"geometry":{"x":160575.50000000093,"y":2548015.8800000008}},{"attributes":{"ID":454949,"DIS_CODE":0,"TOWNNAME":"安南區","LI":"鹿耳里","LIN":"8鄰","STREET":"北汕尾二路","SECT":" ","MAREA":" ","LANE":"５５０巷","ALLEY":" ","HOUSE_NO":"２９號","E_COORD97":160577.54000000001,"N_COORD97":2548013.8399999999,"ADDRESS":"北汕尾二路５５０巷２９號","OBJECTID":454924},"geometry":{"x":160577.54000000004,"y":2548013.8400000017}},{"attributes":{"ID":454950,"DIS_CODE":0,"TOWNNAME":"安南區","LI":"鹿耳里","LIN":"8鄰","STREET":"北汕尾二路","SECT":" ","MAREA":" ","LANE":"５５０巷","ALLEY":" ","HOUSE_NO":"３３號","E_COORD97":160586.39000000001,"N_COORD97":2548006.0099999998,"ADDRESS":"北汕尾二路５５０巷３３號","OBJECTID":454925},"geometry":{"x":160586.38999999966,"y":2548006.0099999998}},{"attributes":{"ID":454951,"DIS_CODE":0,"TOWNNAME":"安南區","LI":"鹿耳里","LIN":"8鄰","STREET":"北汕尾二路","SECT":" ","MAREA":" ","LANE":"５５０巷","ALLEY":" ","HOUSE_NO":"３５號","E_COORD97":160588.44,"N_COORD97":2548004.6499999999,"ADDRESS":"北汕尾二路５５０巷３５號","OBJECTID":454926},"geometry":{"x":160588.44000000041,"y":2548004.6500000022}},{"attributes":{"ID":454952,"DIS_CODE":0,"TOWNNAME":"安南區","LI":"鹿耳里","LIN":"8鄰","STREET":"北汕尾二路","SECT":" ","MAREA":" ","LANE":"５５０巷","ALLEY":" ","HOUSE_NO":"３９號","E_COORD97":160593.88,"N_COORD97":2547999.8900000001,"ADDRESS":"北汕尾二路５５０巷３９號","OBJECTID":454927},"geometry":{"x":160593.87999999989,"y":2547999.8900000025}},{"attributes":{"ID":454953,"DIS_CODE":0,"TOWNNAME":"安南區","LI":"鹿耳里","LIN":"8鄰","STREET":"北汕尾二路","SECT":" ","MAREA":" ","LANE":"５５０巷","ALLEY":" ","HOUSE_NO":"４１號","E_COORD97":160596.26999999999,"N_COORD97":2547998.1899999999,"ADDRESS":"北汕尾二路５５０巷４１號","OBJECTID":454928},"geometry":{"x":160596.27000000142,"y":2547998.1899999995}},{"attributes":{"ID":454954,"DIS_CODE":0,"TOWNNAME":"安南區","LI":"鹿耳里","LIN":"8鄰","STREET":"北汕尾二路","SECT":" ","MAREA":" ","LANE":"５５０巷","ALLEY":" ","HOUSE_NO":"４３號","E_COORD97":160598.64999999999,"N_COORD97":2547996.48,"ADDRESS":"北汕尾二路５５０巷４３號","OBJECTID":454929},"geometry":{"x":160598.6500000013,"y":2547996.4800000023}},{"attributes":{"ID":454955,"DIS_CODE":0,"TOWNNAME":"安南區","LI":"鹿耳里","LIN":"8鄰","STREET":"北汕尾二路","SECT":" ","MAREA":" ","LANE":"５５０巷","ALLEY":" ","HOUSE_NO":"５３號","E_COORD97":160622.48999999999,"N_COORD97":2547975.73,"ADDRESS":"北汕尾二路５５０巷５３號","OBJECTID":454930},"geometry":{"x":160622.49000000209,"y":2547975.7300000004}},{"attributes":{"ID":454956,"DIS_CODE":0,"TOWNNAME":"安南區","LI":"鹿耳里","LIN":"8鄰","STREET":"北汕尾二路","SECT":" ","MAREA":" ","LANE":"５５０巷","ALLEY":" ","HOUSE_NO":"５５號","E_COORD97":160623.85000000001,"N_COORD97":2547974.71,"ADDRESS":"北汕尾二路５５０巷５５號","OBJECTID":454931},"geometry":{"x":160623.84999999963,"y":2547974.7100000028}},{"attributes":{"ID":454957,"DIS_CODE":0,"TOWNNAME":"安南區","LI":"鹿耳里","LIN":"8鄰","STREET":"北汕尾二路","SECT":" ","MAREA":" ","LANE":"５５０巷","ALLEY":" ","HOUSE_NO":"５７號","E_COORD97":160625.20999999999,"N_COORD97":2547973.3500000001,"ADDRESS":"北汕尾二路５５０巷５７號","OBJECTID":454932},"geometry":{"x":160625.20999999996,"y":2547973.3499999996}},{"attributes":{"ID":454958,"DIS_CODE":0,"TOWNNAME":"安南區","LI":"鹿耳里","LIN":"8鄰","STREET":"北汕尾二路","SECT":" ","MAREA":" ","LANE":"５５０巷","ALLEY":" ","HOUSE_NO":"５９號","E_COORD97":160627.26000000001,"N_COORD97":2547972.3300000001,"ADDRESS":"北汕尾二路５５０巷５９號","OBJECTID":454933},"geometry":{"x":160627.26000000071,"y":2547972.3300000019}},{"attributes":{"ID":454959,"DIS_CODE":0,"TOWNNAME":"安南區","LI":"鹿耳里","LIN":"8鄰","STREET":"北汕尾二路","SECT":" ","MAREA":" ","LANE":"５５０巷","ALLEY":" ","HOUSE_NO":"６１號","E_COORD97":160628.95999999999,"N_COORD97":2547971.3100000001,"ADDRESS":"北汕尾二路５５０巷６１號","OBJECTID":454934},"geometry":{"x":160628.95999999996,"y":2547971.3100000005}},{"attributes":{"ID":454960,"DIS_CODE":0,"TOWNNAME":"北區","LI":"大道里","LIN":"8鄰","STREET":"和緯路","SECT":"一段","MAREA":" ","LANE":"八六巷","ALLEY":" ","HOUSE_NO":"３０號","E_COORD97":169492.17999999999,"N_COORD97":2545649.3799999999,"ADDRESS":"和緯路一段八六巷３０號","OBJECTID":454935},"geometry":{"x":169492.18000000063,"y":2545649.3800000008}},{"attributes":{"ID":454961,"DIS_CODE":0,"TOWNNAME":"永康區","LI":"正強里","LIN":"39鄰","STREET":"中正路","SECT":" ","MAREA":" ","LANE":"２５６巷","ALLEY":" ","HOUSE_NO":"４號","E_COORD97":173227.32000000001,"N_COORD97":2547954.7400000002,"ADDRESS":"中正路２５６巷４號","OBJECTID":454936},"geometry":{"x":173227.3200000003,"y":2547954.7400000002}},{"attributes":{"ID":454962,"DIS_CODE":0,"TOWNNAME":"中西區","LI":"西賢里","LIN":"8鄰","STREET":"西賢一街","SECT":" ","MAREA":" ","LANE":"８８巷","ALLEY":" ","HOUSE_NO":"２號","E_COORD97":165731.01999999999,"N_COORD97":2544615.6699999999,"ADDRESS":"西賢一街８８巷２號","OBJECTID":454937},"geometry":{"x":165731.02000000142,"y":2544615.6699999999}},{"attributes":{"ID":454963,"DIS_CODE":0,"TOWNNAME":"中西區","LI":"西賢里","LIN":"8鄰","STREET":"西賢一街","SECT":" ","MAREA":" ","LANE":"８８巷","ALLEY":" ","HOUSE_NO":"６號","E_COORD97":165735.98000000001,"N_COORD97":2544615.7999999998,"ADDRESS":"西賢一街８８巷６號","OBJECTID":454938},"geometry":{"x":165735.98000000138,"y":2544615.8000000007}},{"attributes":{"ID":454964,"DIS_CODE":0,"TOWNNAME":"中西區","LI":"西賢里","LIN":"8鄰","STREET":"西賢一街","SECT":" ","MAREA":" ","LANE":"８８巷","ALLEY":" ","HOUSE_NO":"８號","E_COORD97":165741.56,"N_COORD97":2544615.6699999999,"ADDRESS":"西賢一街８８巷８號","OBJECTID":454939},"geometry":{"x":165741.56000000052,"y":2544615.6699999999}},{"attributes":{"ID":454965,"DIS_CODE":0,"TOWNNAME":"中西區","LI":"西賢里","LIN":"8鄰","STREET":"西賢一街","SECT":" ","MAREA":" ","LANE":"８８巷","ALLEY":" ","HOUSE_NO":"３６號","E_COORD97":165799.42000000001,"N_COORD97":2544614.6400000001,"ADDRESS":"西賢一街８８巷３６號","OBJECTID":454940},"geometry":{"x":165799.41999999993,"y":2544614.6400000025}},{"attributes":{"ID":454966,"DIS_CODE":0,"TOWNNAME":"安南區","LI":"鹿耳里","LIN":"8鄰","STREET":"北汕尾二路","SECT":" ","MAREA":" ","LANE":"５５０巷","ALLEY":" ","HOUSE_NO":"７號","E_COORD97":160546.89000000001,"N_COORD97":2548037.3199999998,"ADDRESS":"北汕尾二路５５０巷７號","OBJECTID":454941},"geometry":{"x":160546.8900000006,"y":2548037.3200000022}},{"attributes":{"ID":454967,"DIS_CODE":0,"TOWNNAME":"安南區","LI":"鹿耳里","LIN":"8鄰","STREET":"北汕尾二路","SECT":" ","MAREA":" ","LANE":"５５０巷","ALLEY":" ","HOUSE_NO":"９號","E_COORD97":160550.98000000001,"N_COORD97":2548034.5899999999,"ADDRESS":"北汕尾二路５５０巷９號","OBJECTID":454942},"geometry":{"x":160550.98000000045,"y":2548034.5900000017}},{"attributes":{"ID":454968,"DIS_CODE":0,"TOWNNAME":"安南區","LI":"鹿耳里","LIN":"8鄰","STREET":"北汕尾二路","SECT":" ","MAREA":" ","LANE":"５５０巷","ALLEY":" ","HOUSE_NO":"９之１號","E_COORD97":160561.19,"N_COORD97":2548042.0800000001,"ADDRESS":"北汕尾二路５５０巷９之１號","OBJECTID":454943},"geometry":{"x":160561.19000000134,"y":2548042.0800000019}},{"attributes":{"ID":454969,"DIS_CODE":0,"TOWNNAME":"安南區","LI":"鹿耳里","LIN":"8鄰","STREET":"北汕尾二路","SECT":" ","MAREA":" ","LANE":"５５０巷","ALLEY":" ","HOUSE_NO":"６３號","E_COORD97":160631.34,"N_COORD97":2547969.9399999999,"ADDRESS":"北汕尾二路５５０巷６３號","OBJECTID":454944},"geometry":{"x":160631.33999999985,"y":2547969.9399999995}},{"attributes":{"ID":454970,"DIS_CODE":0,"TOWNNAME":"安南區","LI":"鹿耳里","LIN":"8鄰","STREET":"北汕尾二路","SECT":" ","MAREA":" ","LANE":"５５０巷","ALLEY":" ","HOUSE_NO":"６７號","E_COORD97":160638.14999999999,"N_COORD97":2547960.7599999998,"ADDRESS":"北汕尾二路５５０巷６７號","OBJECTID":454945},"geometry":{"x":160638.15000000037,"y":2547960.7599999998}},{"attributes":{"ID":454971,"DIS_CODE":0,"TOWNNAME":"安南區","LI":"鹿耳里","LIN":"8鄰","STREET":"北汕尾二路","SECT":" ","MAREA":" ","LANE":"５５０巷","ALLEY":" ","HOUSE_NO":"６９號","E_COORD97":160640.20000000001,"N_COORD97":2547959.7400000002,"ADDRESS":"北汕尾二路５５０巷６９號","OBJECTID":454946},"geometry":{"x":160640.20000000112,"y":2547959.7400000021}},{"attributes":{"ID":454972,"DIS_CODE":0,"TOWNNAME":"安南區","LI":"鹿耳里","LIN":"8鄰","STREET":"北汕尾二路","SECT":" ","MAREA":" ","LANE":"５５０巷","ALLEY":" ","HOUSE_NO":"７１號","E_COORD97":160642.57999999999,"N_COORD97":2547958.04,"ADDRESS":"北汕尾二路５５０巷７１號","OBJECTID":454947},"geometry":{"x":160642.58000000101,"y":2547958.0399999991}},{"attributes":{"ID":454973,"DIS_CODE":0,"TOWNNAME":"安南區","LI":"鹿耳里","LIN":"8鄰","STREET":"北汕尾二路","SECT":" ","MAREA":" ","LANE":"５５０巷","ALLEY":" ","HOUSE_NO":"７３號","E_COORD97":160645.29999999999,"N_COORD97":2547955.9900000002,"ADDRESS":"北汕尾二路５５０巷７３號","OBJECTID":454948},"geometry":{"x":160645.29999999981,"y":2547955.9900000002}},{"attributes":{"ID":454974,"DIS_CODE":0,"TOWNNAME":"安南區","LI":"鹿耳里","LIN":"8鄰","STREET":"北汕尾二路","SECT":" ","MAREA":" ","LANE":"５５０巷","ALLEY":" ","HOUSE_NO":"７５號","E_COORD97":160648.37,"N_COORD97":2547953.6099999999,"ADDRESS":"北汕尾二路５５０巷７５號","OBJECTID":454949},"geometry":{"x":160648.37000000011,"y":2547953.6100000013}},{"attributes":{"ID":454975,"DIS_CODE":0,"TOWNNAME":"安南區","LI":"鹿耳里","LIN":"8鄰","STREET":"北汕尾二路","SECT":" ","MAREA":" ","LANE":"５５０巷","ALLEY":" ","HOUSE_NO":"７７號","E_COORD97":160651.42999999999,"N_COORD97":2547951.9100000001,"ADDRESS":"北汕尾二路５５０巷７７號","OBJECTID":454950},"geometry":{"x":160651.43000000063,"y":2547951.910000002}},{"attributes":{"ID":454976,"DIS_CODE":0,"TOWNNAME":"安南區","LI":"鹿耳里","LIN":"8鄰","STREET":"北汕尾二路","SECT":" ","MAREA":" ","LANE":"５５０巷","ALLEY":" ","HOUSE_NO":"７９號","E_COORD97":160654.16,"N_COORD97":2547950.8900000001,"ADDRESS":"北汕尾二路５５０巷７９號","OBJECTID":454951},"geometry":{"x":160654.16000000108,"y":2547950.8900000006}},{"attributes":{"ID":454977,"DIS_CODE":0,"TOWNNAME":"安南區","LI":"鹿耳里","LIN":"8鄰","STREET":"北汕尾二路","SECT":" ","MAREA":" ","LANE":"５５０巷","ALLEY":" ","HOUSE_NO":"８３號","E_COORD97":160663.01000000001,"N_COORD97":2547942.7200000002,"ADDRESS":"北汕尾二路５５０巷８３號","OBJECTID":454952},"geometry":{"x":160663.01000000071,"y":2547942.7200000044}},{"attributes":{"ID":454978,"DIS_CODE":0,"TOWNNAME":"安南區","LI":"鹿耳里","LIN":"8鄰","STREET":"北汕尾二路","SECT":" ","MAREA":" ","LANE":"５５０巷","ALLEY":" ","HOUSE_NO":"８５號","E_COORD97":160665.73000000001,"N_COORD97":2547940.3399999999,"ADDRESS":"北汕尾二路５５０巷８５號","OBJECTID":454953},"geometry":{"x":160665.73000000138,"y":2547940.3399999999}},{"attributes":{"ID":454979,"DIS_CODE":0,"TOWNNAME":"安南區","LI":"鹿耳里","LIN":"8鄰","STREET":"北汕尾二路","SECT":" ","MAREA":" ","LANE":"５５０巷","ALLEY":" ","HOUSE_NO":"８７號","E_COORD97":160667.78,"N_COORD97":2547938.2999999998,"ADDRESS":"北汕尾二路５５０巷８７號","OBJECTID":454954},"geometry":{"x":160667.78000000026,"y":2547938.3000000007}},{"attributes":{"ID":454980,"DIS_CODE":0,"TOWNNAME":"安南區","LI":"鹿耳里","LIN":"8鄰","STREET":"北汕尾二路","SECT":" ","MAREA":" ","LANE":"５５０巷","ALLEY":" ","HOUSE_NO":"８９號","E_COORD97":160670.5,"N_COORD97":2547936.2599999998,"ADDRESS":"北汕尾二路５５０巷８９號","OBJECTID":454955},"geometry":{"x":160670.50000000093,"y":2547936.2600000016}},{"attributes":{"ID":454981,"DIS_CODE":0,"TOWNNAME":"安南區","LI":"鹿耳里","LIN":"8鄰","STREET":"北汕尾二路","SECT":" ","MAREA":" ","LANE":"５５０巷","ALLEY":" ","HOUSE_NO":"９１號","E_COORD97":160673.23000000001,"N_COORD97":2547934.2200000002,"ADDRESS":"北汕尾二路５５０巷９１號","OBJECTID":454956},"geometry":{"x":160673.23000000045,"y":2547934.2200000025}},{"attributes":{"ID":454982,"DIS_CODE":0,"TOWNNAME":"安南區","LI":"鹿耳里","LIN":"8鄰","STREET":"北汕尾二路","SECT":" ","MAREA":" ","LANE":"５５０巷","ALLEY":" ","HOUSE_NO":"９３號","E_COORD97":160676.63,"N_COORD97":2547932.1800000002,"ADDRESS":"北汕尾二路５５０巷９３號","OBJECTID":454957},"geometry":{"x":160676.62999999989,"y":2547932.1800000016}},{"attributes":{"ID":454983,"DIS_CODE":0,"TOWNNAME":"安南區","LI":"鹿耳里","LIN":"8鄰","STREET":"北汕尾二路","SECT":" ","MAREA":" ","LANE":"５５０巷","ALLEY":" ","HOUSE_NO":"９５號","E_COORD97":160679.35999999999,"N_COORD97":2547929.4500000002,"ADDRESS":"北汕尾二路５５０巷９５號","OBJECTID":454958},"geometry":{"x":160679.3599999994,"y":2547929.450000003}},{"attributes":{"ID":454984,"DIS_CODE":0,"TOWNNAME":"安南區","LI":"鹿耳里","LIN":"8鄰","STREET":"北汕尾二路","SECT":" ","MAREA":" ","LANE":"５５０巷","ALLEY":" ","HOUSE_NO":"９７號","E_COORD97":160684.45999999999,"N_COORD97":2547924.3500000001,"ADDRESS":"北汕尾二路５５０巷９７號","OBJECTID":454959},"geometry":{"x":160684.45999999996,"y":2547924.3500000015}},{"attributes":{"ID":454985,"DIS_CODE":0,"TOWNNAME":"安南區","LI":"鹿耳里","LIN":"8鄰","STREET":"北汕尾二路","SECT":" ","MAREA":" ","LANE":"５５０巷","ALLEY":" ","HOUSE_NO":"９９號","E_COORD97":160688.89000000001,"N_COORD97":2547918.5699999998,"ADDRESS":"北汕尾二路５５０巷９９號","OBJECTID":454960},"geometry":{"x":160688.8900000006,"y":2547918.5700000003}},{"attributes":{"ID":454986,"DIS_CODE":0,"TOWNNAME":"安平區","LI":"平通里","LIN":"8鄰","STREET":"健康三街","SECT":" ","MAREA":" ","LANE":"５９２巷","ALLEY":" ","HOUSE_NO":"２２之１號","E_COORD97":164921.39999999999,"N_COORD97":2544180.04,"ADDRESS":"健康三街５９２巷２２之１號","OBJECTID":454961},"geometry":{"x":164921.4000000013,"y":2544180.040000001}},{"attributes":{"ID":454987,"DIS_CODE":0,"TOWNNAME":"北區","LI":"大道里","LIN":"8鄰","STREET":"和緯路","SECT":"一段","MAREA":" ","LANE":"八六巷","ALLEY":" ","HOUSE_NO":"２８號","E_COORD97":169490.28,"N_COORD97":2545639.2200000002,"ADDRESS":"和緯路一段八六巷２８號","OBJECTID":454962},"geometry":{"x":169490.28000000119,"y":2545639.2200000007}},{"attributes":{"ID":454988,"DIS_CODE":0,"TOWNNAME":"北區","LI":"大道里","LIN":"8鄰","STREET":"和緯路","SECT":"一段","MAREA":" ","LANE":"八六巷","ALLEY":" ","HOUSE_NO":"３２號","E_COORD97":169493.14000000001,"N_COORD97":2545655.1000000001,"ADDRESS":"和緯路一段八六巷３２號","OBJECTID":454963},"geometry":{"x":169493.13999999966,"y":2545655.1000000015}},{"attributes":{"ID":454989,"DIS_CODE":0,"TOWNNAME":"北區","LI":"大道里","LIN":"8鄰","STREET":"和緯路","SECT":"一段","MAREA":" ","LANE":"八六巷","ALLEY":" ","HOUSE_NO":"３６號","E_COORD97":169494.09,"N_COORD97":2545660.5,"ADDRESS":"和緯路一段八六巷３６號","OBJECTID":454964},"geometry":{"x":169494.09000000171,"y":2545660.5}},{"attributes":{"ID":454990,"DIS_CODE":0,"TOWNNAME":"北區","LI":"大道里","LIN":"8鄰","STREET":"和緯路","SECT":"一段","MAREA":" ","LANE":"八六巷","ALLEY":" ","HOUSE_NO":"３８號","E_COORD97":169494.72,"N_COORD97":2545665.8900000001,"ADDRESS":"和緯路一段八六巷３８號","OBJECTID":454965},"geometry":{"x":169494.71999999881,"y":2545665.8900000006}},{"attributes":{"ID":454991,"DIS_CODE":0,"TOWNNAME":"北區","LI":"大道里","LIN":"8鄰","STREET":"和緯路","SECT":"一段","MAREA":" ","LANE":"八六巷","ALLEY":" ","HOUSE_NO":"４０號","E_COORD97":169495.67999999999,"N_COORD97":2545671.29,"ADDRESS":"和緯路一段八六巷４０號","OBJECTID":454966},"geometry":{"x":169495.68000000063,"y":2545671.2899999991}},{"attributes":{"ID":454992,"DIS_CODE":0,"TOWNNAME":"北區","LI":"大道里","LIN":"8鄰","STREET":"和緯路","SECT":"一段","MAREA":" ","LANE":"八六巷","ALLEY":" ","HOUSE_NO":"４２號","E_COORD97":169496.63,"N_COORD97":2545676.6899999999,"ADDRESS":"和緯路一段八六巷４２號","OBJECTID":454967},"geometry":{"x":169496.62999999989,"y":2545676.6899999976}},{"attributes":{"ID":454993,"DIS_CODE":0,"TOWNNAME":"北區","LI":"大道里","LIN":"8鄰","STREET":"和緯路","SECT":"一段","MAREA":" ","LANE":"八六巷","ALLEY":" ","HOUSE_NO":"４６號","E_COORD97":169497.89999999999,"N_COORD97":2545682.3999999999,"ADDRESS":"和緯路一段八六巷４６號","OBJECTID":454968},"geometry":{"x":169497.9000000013,"y":2545682.4000000004}},{"attributes":{"ID":454994,"DIS_CODE":0,"TOWNNAME":"北區","LI":"大道里","LIN":"8鄰","STREET":"和緯路","SECT":"一段","MAREA":" ","LANE":"八六巷","ALLEY":" ","HOUSE_NO":"４８號","E_COORD97":169498.85000000001,"N_COORD97":2545687.7999999998,"ADDRESS":"和緯路一段八六巷４８號","OBJECTID":454969},"geometry":{"x":169498.85000000149,"y":2545687.8000000045}},{"attributes":{"ID":454995,"DIS_CODE":0,"TOWNNAME":"北區","LI":"大道里","LIN":"8鄰","STREET":"和緯路","SECT":"一段","MAREA":" ","LANE":"八六巷","ALLEY":" ","HOUSE_NO":"５０號","E_COORD97":169499.48999999999,"N_COORD97":2545693.52,"ADDRESS":"和緯路一段八六巷５０號","OBJECTID":454970},"geometry":{"x":169499.49000000022,"y":2545693.5199999996}},{"attributes":{"ID":454996,"DIS_CODE":0,"TOWNNAME":"北區","LI":"大道里","LIN":"8鄰","STREET":"和緯路","SECT":"一段","MAREA":" ","LANE":"八六巷","ALLEY":" ","HOUSE_NO":"５２號","E_COORD97":169500.44,"N_COORD97":2545698.9100000001,"ADDRESS":"和緯路一段八六巷５２號","OBJECTID":454971},"geometry":{"x":169500.44000000041,"y":2545698.9100000001}},{"attributes":{"ID":454997,"DIS_CODE":0,"TOWNNAME":"北區","LI":"大道里","LIN":"8鄰","STREET":"和緯路","SECT":"一段","MAREA":" ","LANE":"八六巷","ALLEY":" ","HOUSE_NO":"５６號","E_COORD97":169501.07000000001,"N_COORD97":2545704.3100000001,"ADDRESS":"和緯路一段八六巷５６號","OBJECTID":454972},"geometry":{"x":169501.0700000003,"y":2545704.3100000042}},{"attributes":{"ID":454998,"DIS_CODE":0,"TOWNNAME":"北區","LI":"大道里","LIN":"8鄰","STREET":"和緯路","SECT":"一段","MAREA":" ","LANE":"八六巷","ALLEY":" ","HOUSE_NO":"５８號","E_COORD97":169502.03,"N_COORD97":2545710.0299999998,"ADDRESS":"和緯路一段八六巷５８號","OBJECTID":454973},"geometry":{"x":169502.03000000119,"y":2545710.0300000012}},{"attributes":{"ID":454999,"DIS_CODE":0,"TOWNNAME":"東區","LI":"東聖里","LIN":"8鄰","STREET":"富農街","SECT":"二段","MAREA":" ","LANE":"４３巷","ALLEY":" ","HOUSE_NO":"１８號二樓之１","E_COORD97":171620.44,"N_COORD97":2542984.9700000002,"ADDRESS":"富農街二段４３巷１８號二樓之１","OBJECTID":454974},"geometry":{"x":171620.44000000134,"y":2542984.9700000025}},{"attributes":{"ID":455000,"DIS_CODE":0,"TOWNNAME":"北區","LI":"成功里","LIN":"22鄰","STREET":"北安路","SECT":"一段","MAREA":" ","LANE":"十七六巷","ALLEY":" ","HOUSE_NO":"１６號七樓","E_COORD97":168963.60999999999,"N_COORD97":2546511.2999999998,"ADDRESS":"北安路一段十七六巷１６號七樓","OBJECTID":454975},"geometry":{"x":168963.61000000034,"y":2546511.2999999989}},{"attributes":{"ID":455001,"DIS_CODE":0,"TOWNNAME":"北區","LI":"成功里","LIN":"22鄰","STREET":"北安路","SECT":"一段","MAREA":" ","LANE":"十七六巷","ALLEY":" ","HOUSE_NO":"１６號九樓","E_COORD97":168963.60999999999,"N_COORD97":2546511.2999999998,"ADDRESS":"北安路一段十七六巷１６號九樓","OBJECTID":454976},"geometry":{"x":168963.61000000034,"y":2546511.2999999989}},{"attributes":{"ID":455002,"DIS_CODE":0,"TOWNNAME":"北區","LI":"成功里","LIN":"22鄰","STREET":"北安路","SECT":"一段","MAREA":" ","LANE":"十七六巷","ALLEY":" ","HOUSE_NO":"１６號二樓","E_COORD97":168963.60999999999,"N_COORD97":2546511.2999999998,"ADDRESS":"北安路一段十七六巷１６號二樓","OBJECTID":454977},"geometry":{"x":168963.61000000034,"y":2546511.2999999989}},{"attributes":{"ID":455003,"DIS_CODE":0,"TOWNNAME":"北區","LI":"成功里","LIN":"22鄰","STREET":"北安路","SECT":"一段","MAREA":" ","LANE":"十七六巷","ALLEY":" ","HOUSE_NO":"１６號八樓","E_COORD97":168963.60999999999,"N_COORD97":2546511.2999999998,"ADDRESS":"北安路一段十七六巷１６號八樓","OBJECTID":454978},"geometry":{"x":168963.61000000034,"y":2546511.2999999989}},{"attributes":{"ID":455004,"DIS_CODE":0,"TOWNNAME":"北區","LI":"成功里","LIN":"22鄰","STREET":"北安路","SECT":"一段","MAREA":" ","LANE":"十七六巷","ALLEY":" ","HOUSE_NO":"１６號十一樓","E_COORD97":168963.60999999999,"N_COORD97":2546511.2999999998,"ADDRESS":"北安路一段十七六巷１６號十一樓","OBJECTID":454979},"geometry":{"x":168963.61000000034,"y":2546511.2999999989}},{"attributes":{"ID":455005,"DIS_CODE":0,"TOWNNAME":"北區","LI":"成功里","LIN":"22鄰","STREET":"北安路","SECT":"一段","MAREA":" ","LANE":"十七六巷","ALLEY":" ","HOUSE_NO":"１６號十二樓","E_COORD97":168963.60999999999,"N_COORD97":2546511.2999999998,"ADDRESS":"北安路一段十七六巷１６號十二樓","OBJECTID":454980},"geometry":{"x":168963.61000000034,"y":2546511.2999999989}},{"attributes":{"ID":455006,"DIS_CODE":0,"TOWNNAME":"北區","LI":"成功里","LIN":"22鄰","STREET":"北安路","SECT":"一段","MAREA":" ","LANE":"十七六巷","ALLEY":" ","HOUSE_NO":"１６號十三樓","E_COORD97":168963.60999999999,"N_COORD97":2546511.2999999998,"ADDRESS":"北安路一段十七六巷１６號十三樓","OBJECTID":454981},"geometry":{"x":168963.61000000034,"y":2546511.2999999989}},{"attributes":{"ID":455007,"DIS_CODE":0,"TOWNNAME":"北區","LI":"成功里","LIN":"22鄰","STREET":"北安路","SECT":"一段","MAREA":" ","LANE":"十七六巷","ALLEY":" ","HOUSE_NO":"１６號十樓","E_COORD97":168963.60999999999,"N_COORD97":2546511.2999999998,"ADDRESS":"北安路一段十七六巷１６號十樓","OBJECTID":454982},"geometry":{"x":168963.61000000034,"y":2546511.2999999989}},{"attributes":{"ID":455008,"DIS_CODE":0,"TOWNNAME":"安南區","LI":"州南里","LIN":"8鄰","STREET":"長和路","SECT":"三段","MAREA":" ","LANE":"９４巷","ALLEY":" ","HOUSE_NO":"３號","E_COORD97":169708.38,"N_COORD97":2551558.21,"ADDRESS":"長和路三段９４巷３號","OBJECTID":454983},"geometry":{"x":169708.37999999989,"y":2551558.2100000028}},{"attributes":{"ID":455009,"DIS_CODE":0,"TOWNNAME":"北區","LI":"成功里","LIN":"22鄰","STREET":"北安路","SECT":"一段","MAREA":" ","LANE":"十七六巷","ALLEY":" ","HOUSE_NO":"１６號三樓","E_COORD97":168963.60999999999,"N_COORD97":2546511.2999999998,"ADDRESS":"北安路一段十七六巷１６號三樓","OBJECTID":454984},"geometry":{"x":168963.61000000034,"y":2546511.2999999989}},{"attributes":{"ID":455010,"DIS_CODE":0,"TOWNNAME":"北區","LI":"成功里","LIN":"22鄰","STREET":"北安路","SECT":"一段","MAREA":" ","LANE":"十七六巷","ALLEY":" ","HOUSE_NO":"１６號五樓","E_COORD97":168963.60999999999,"N_COORD97":2546511.2999999998,"ADDRESS":"北安路一段十七六巷１６號五樓","OBJECTID":454985},"geometry":{"x":168963.61000000034,"y":2546511.2999999989}},{"attributes":{"ID":455011,"DIS_CODE":0,"TOWNNAME":"北區","LI":"成功里","LIN":"22鄰","STREET":"北安路","SECT":"一段","MAREA":" ","LANE":"十七六巷","ALLEY":" ","HOUSE_NO":"１６號六樓","E_COORD97":168963.60999999999,"N_COORD97":2546511.2999999998,"ADDRESS":"北安路一段十七六巷１６號六樓","OBJECTID":454986},"geometry":{"x":168963.61000000034,"y":2546511.2999999989}},{"attributes":{"ID":455012,"DIS_CODE":0,"TOWNNAME":"北區","LI":"成功里","LIN":"22鄰","STREET":"北安路","SECT":"一段","MAREA":" ","LANE":"十七六巷","ALLEY":" ","HOUSE_NO":"１６號四樓","E_COORD97":168963.60999999999,"N_COORD97":2546511.2999999998,"ADDRESS":"北安路一段十七六巷１６號四樓","OBJECTID":454987},"geometry":{"x":168963.61000000034,"y":2546511.2999999989}},{"attributes":{"ID":455013,"DIS_CODE":0,"TOWNNAME":"北區","LI":"成功里","LIN":"22鄰","STREET":"北安路","SECT":"一段","MAREA":" ","LANE":"十七六巷","ALLEY":" ","HOUSE_NO":"１２號七樓","E_COORD97":168965.98999999999,"N_COORD97":2546507.1699999999,"ADDRESS":"北安路一段十七六巷１２號七樓","OBJECTID":454988},"geometry":{"x":168965.99000000022,"y":2546507.1699999999}},{"attributes":{"ID":455014,"DIS_CODE":0,"TOWNNAME":"北區","LI":"成功里","LIN":"22鄰","STREET":"北安路","SECT":"一段","MAREA":" ","LANE":"十七六巷","ALLEY":" ","HOUSE_NO":"１２號九樓","E_COORD97":168965.98999999999,"N_COORD97":2546507.1699999999,"ADDRESS":"北安路一段十七六巷１２號九樓","OBJECTID":454989},"geometry":{"x":168965.99000000022,"y":2546507.1699999999}},{"attributes":{"ID":455015,"DIS_CODE":0,"TOWNNAME":"北區","LI":"成功里","LIN":"22鄰","STREET":"北安路","SECT":"一段","MAREA":" ","LANE":"十七六巷","ALLEY":" ","HOUSE_NO":"１２號二樓","E_COORD97":168965.98999999999,"N_COORD97":2546507.1699999999,"ADDRESS":"北安路一段十七六巷１２號二樓","OBJECTID":454990},"geometry":{"x":168965.99000000022,"y":2546507.1699999999}},{"attributes":{"ID":455016,"DIS_CODE":0,"TOWNNAME":"北區","LI":"成功里","LIN":"22鄰","STREET":"北安路","SECT":"一段","MAREA":" ","LANE":"十七六巷","ALLEY":" ","HOUSE_NO":"１２號八樓","E_COORD97":168965.98999999999,"N_COORD97":2546507.1699999999,"ADDRESS":"北安路一段十七六巷１２號八樓","OBJECTID":454991},"geometry":{"x":168965.99000000022,"y":2546507.1699999999}},{"attributes":{"ID":455017,"DIS_CODE":0,"TOWNNAME":"北區","LI":"成功里","LIN":"22鄰","STREET":"北安路","SECT":"一段","MAREA":" ","LANE":"十七六巷","ALLEY":" ","HOUSE_NO":"１２號十一樓","E_COORD97":168965.98999999999,"N_COORD97":2546507.1699999999,"ADDRESS":"北安路一段十七六巷１２號十一樓","OBJECTID":454992},"geometry":{"x":168965.99000000022,"y":2546507.1699999999}},{"attributes":{"ID":455018,"DIS_CODE":0,"TOWNNAME":"北區","LI":"成功里","LIN":"22鄰","STREET":"北安路","SECT":"一段","MAREA":" ","LANE":"十七六巷","ALLEY":" ","HOUSE_NO":"１２號十樓","E_COORD97":168965.98999999999,"N_COORD97":2546507.1699999999,"ADDRESS":"北安路一段十七六巷１２號十樓","OBJECTID":454993},"geometry":{"x":168965.99000000022,"y":2546507.1699999999}},{"attributes":{"ID":455019,"DIS_CODE":0,"TOWNNAME":"北區","LI":"成功里","LIN":"22鄰","STREET":"北安路","SECT":"一段","MAREA":" ","LANE":"十七六巷","ALLEY":" ","HOUSE_NO":"１２號三樓","E_COORD97":168965.98999999999,"N_COORD97":2546507.1699999999,"ADDRESS":"北安路一段十七六巷１２號三樓","OBJECTID":454994},"geometry":{"x":168965.99000000022,"y":2546507.1699999999}},{"attributes":{"ID":455020,"DIS_CODE":0,"TOWNNAME":"北區","LI":"成功里","LIN":"22鄰","STREET":"北安路","SECT":"一段","MAREA":" ","LANE":"十七六巷","ALLEY":" ","HOUSE_NO":"１２號五樓","E_COORD97":168965.98999999999,"N_COORD97":2546507.1699999999,"ADDRESS":"北安路一段十七六巷１２號五樓","OBJECTID":454995},"geometry":{"x":168965.99000000022,"y":2546507.1699999999}},{"attributes":{"ID":455021,"DIS_CODE":0,"TOWNNAME":"北區","LI":"成功里","LIN":"22鄰","STREET":"北安路","SECT":"一段","MAREA":" ","LANE":"十七六巷","ALLEY":" ","HOUSE_NO":"１２號六樓","E_COORD97":168965.98999999999,"N_COORD97":2546507.1699999999,"ADDRESS":"北安路一段十七六巷１２號六樓","OBJECTID":454996},"geometry":{"x":168965.99000000022,"y":2546507.1699999999}},{"attributes":{"ID":455022,"DIS_CODE":0,"TOWNNAME":"東區","LI":"崇文里","LIN":"40鄰","STREET":"生產路","SECT":" ","MAREA":" ","LANE":" ","ALLEY":" ","HOUSE_NO":"２７５號六樓","E_COORD97":170911.67999999999,"N_COORD97":2540618.3100000001,"ADDRESS":"生產路２７５號六樓","OBJECTID":454997},"geometry":{"x":170911.6799999997,"y":2540618.3100000005}},{"attributes":{"ID":455023,"DIS_CODE":0,"TOWNNAME":"北區","LI":"成功里","LIN":"22鄰","STREET":"北安路","SECT":"一段","MAREA":" ","LANE":"十七六巷","ALLEY":" ","HOUSE_NO":"１２號四樓","E_COORD97":168965.98999999999,"N_COORD97":2546507.1699999999,"ADDRESS":"北安路一段十七六巷１２號四樓","OBJECTID":454998},"geometry":{"x":168965.99000000022,"y":2546507.1699999999}},{"attributes":{"ID":455024,"DIS_CODE":0,"TOWNNAME":"北區","LI":"成功里","LIN":"22鄰","STREET":"北安路","SECT":"一段","MAREA":" ","LANE":"十七六巷","ALLEY":" ","HOUSE_NO":"１８號七樓","E_COORD97":168959,"N_COORD97":2546511.2999999998,"ADDRESS":"北安路一段十七六巷１８號七樓","OBJECTID":454999},"geometry":{"x":168959,"y":2546511.2999999989}},{"attributes":{"ID":455025,"DIS_CODE":0,"TOWNNAME":"北區","LI":"成功里","LIN":"22鄰","STREET":"北安路","SECT":"一段","MAREA":" ","LANE":"十七六巷","ALLEY":" ","HOUSE_NO":"１８號九樓","E_COORD97":168959,"N_COORD97":2546511.2999999998,"ADDRESS":"北安路一段十七六巷１８號九樓","OBJECTID":455000},"geometry":{"x":168959,"y":2546511.2999999989}}]}