{"displayFieldName":"TOWNNAME","fieldAliases":{"ID":"ID","DIS_CODE":"DIS_CODE","TOWNNAME":"TOWNNAME","LI":"LI","LIN":"LIN","STREET":"STREET","SECT":"SECT","MAREA":"MAREA","LANE":"LANE","ALLEY":"ALLEY","HOUSE_NO":"HOUSE_NO","E_COORD97":"E_COORD97","N_COORD97":"N_COORD97","ADDRESS":"ADDRESS","OBJECTID":"OBJECTID"},"geometryType":"esriGeometryPoint","spatialReference":{"wkid":102443,"latestWkid":3826},"fields":[{"name":"ID","type":"esriFieldTypeDouble","alias":"ID"},{"name":"DIS_CODE","type":"esriFieldTypeInteger","alias":"DIS_CODE"},{"name":"TOWNNAME","type":"esriFieldTypeString","alias":"TOWNNAME","length":8},{"name":"LI","type":"esriFieldTypeString","alias":"LI","length":8},{"name":"LIN","type":"esriFieldTypeString","alias":"LIN","length":12},{"name":"STREET","type":"esriFieldTypeString","alias":"STREET","length":20},{"name":"SECT","type":"esriFieldTypeString","alias":"SECT","length":8},{"name":"MAREA","type":"esriFieldTypeString","alias":"MAREA","length":12},{"name":"LANE","type":"esriFieldTypeString","alias":"LANE","length":10},{"name":"ALLEY","type":"esriFieldTypeString","alias":"ALLEY","length":10},{"name":"HOUSE_NO","type":"esriFieldTypeString","alias":"HOUSE_NO","length":20},{"name":"E_COORD97","type":"esriFieldTypeDouble","alias":"E_COORD97"},{"name":"N_COORD97","type":"esriFieldTypeDouble","alias":"N_COORD97"},{"name":"ADDRESS","type":"esriFieldTypeString","alias":"ADDRESS","length":50},{"name":"OBJECTID","type":"esriFieldTypeOID","alias":"OBJECTID"}],"features":[{"attributes":{"ID":625028,"DIS_CODE":0,"TOWNNAME":"官田區","LI":"隆田里","LIN":"18鄰","STREET":"中山路","SECT":"一段","MAREA":" ","LANE":" ","ALLEY":" ","HOUSE_NO":"３４號","E_COORD97":180248.03,"N_COORD97":2565799.6699999999,"ADDRESS":"中山路一段３４號","OBJECTID":625001},"geometry":{"x":180248.03000000119,"y":2565799.6700000037}},{"attributes":{"ID":625029,"DIS_CODE":0,"TOWNNAME":"官田區","LI":"隆田里","LIN":"18鄰","STREET":"中山路","SECT":"一段","MAREA":" ","LANE":" ","ALLEY":" ","HOUSE_NO":"３６號","E_COORD97":180243.32999999999,"N_COORD97":2565799.6800000002,"ADDRESS":"中山路一段３６號","OBJECTID":625002},"geometry":{"x":180243.33000000007,"y":2565799.6800000016}},{"attributes":{"ID":625030,"DIS_CODE":0,"TOWNNAME":"官田區","LI":"隆田里","LIN":"18鄰","STREET":"中山路","SECT":"一段","MAREA":" ","LANE":" ","ALLEY":" ","HOUSE_NO":"３８號","E_COORD97":180238.95999999999,"N_COORD97":2565799.8900000001,"ADDRESS":"中山路一段３８號","OBJECTID":625003},"geometry":{"x":180238.95999999996,"y":2565799.8900000025}},{"attributes":{"ID":625031,"DIS_CODE":0,"TOWNNAME":"官田區","LI":"隆田里","LIN":"18鄰","STREET":"中山路","SECT":"一段","MAREA":" ","LANE":" ","ALLEY":" ","HOUSE_NO":"４０號","E_COORD97":180235.01999999999,"N_COORD97":2565799.98,"ADDRESS":"中山路一段４０號","OBJECTID":625004},"geometry":{"x":180235.02000000142,"y":2565799.9800000004}},{"attributes":{"ID":625032,"DIS_CODE":0,"TOWNNAME":"官田區","LI":"隆田里","LIN":"18鄰","STREET":"中山路","SECT":"一段","MAREA":" ","LANE":" ","ALLEY":" ","HOUSE_NO":"４２號","E_COORD97":180231.14999999999,"N_COORD97":2565800.1099999999,"ADDRESS":"中山路一段４２號","OBJECTID":625005},"geometry":{"x":180231.15000000037,"y":2565800.1100000013}},{"attributes":{"ID":625033,"DIS_CODE":0,"TOWNNAME":"官田區","LI":"隆田里","LIN":"18鄰","STREET":"中山路","SECT":"一段","MAREA":" ","LANE":" ","ALLEY":" ","HOUSE_NO":"４４號","E_COORD97":180226.75,"N_COORD97":2565799.8500000001,"ADDRESS":"中山路一段４４號","OBJECTID":625006},"geometry":{"x":180226.75,"y":2565799.8499999996}},{"attributes":{"ID":625034,"DIS_CODE":0,"TOWNNAME":"官田區","LI":"隆田里","LIN":"17鄰","STREET":"中山路","SECT":"一段","MAREA":" ","LANE":" ","ALLEY":" ","HOUSE_NO":"４６號","E_COORD97":180222.76999999999,"N_COORD97":2565799.5800000001,"ADDRESS":"中山路一段４６號","OBJECTID":625007},"geometry":{"x":180222.76999999955,"y":2565799.5800000001}},{"attributes":{"ID":625035,"DIS_CODE":0,"TOWNNAME":"官田區","LI":"隆田里","LIN":"1鄰","STREET":"中山路","SECT":"一段","MAREA":" ","LANE":" ","ALLEY":" ","HOUSE_NO":"３號","E_COORD97":180316.54999999999,"N_COORD97":2565718.23,"ADDRESS":"中山路一段３號","OBJECTID":625008},"geometry":{"x":180316.55000000168,"y":2565718.2300000042}},{"attributes":{"ID":625036,"DIS_CODE":0,"TOWNNAME":"麻豆區","LI":"保安里","LIN":"6鄰","STREET":"興中路","SECT":" ","MAREA":" ","LANE":" ","ALLEY":" ","HOUSE_NO":"８７號","E_COORD97":173261.03,"N_COORD97":2564830.6499999999,"ADDRESS":"興中路８７號","OBJECTID":625009},"geometry":{"x":173261.03000000026,"y":2564830.6500000041}},{"attributes":{"ID":625037,"DIS_CODE":0,"TOWNNAME":"官田區","LI":"隆田里","LIN":"10鄰","STREET":"中山路","SECT":"一段","MAREA":" ","LANE":" ","ALLEY":" ","HOUSE_NO":"４８號","E_COORD97":180202.35000000001,"N_COORD97":2565803.29,"ADDRESS":"中山路一段４８號","OBJECTID":625010},"geometry":{"x":180202.35000000149,"y":2565803.2899999991}},{"attributes":{"ID":625038,"DIS_CODE":0,"TOWNNAME":"官田區","LI":"隆田里","LIN":"10鄰","STREET":"中山路","SECT":"一段","MAREA":" ","LANE":" ","ALLEY":" ","HOUSE_NO":"５０號","E_COORD97":180195.10000000001,"N_COORD97":2565806.3399999999,"ADDRESS":"中山路一段５０號","OBJECTID":625011},"geometry":{"x":180195.09999999963,"y":2565806.3400000017}},{"attributes":{"ID":625039,"DIS_CODE":0,"TOWNNAME":"官田區","LI":"隆田里","LIN":"10鄰","STREET":"中山路","SECT":"一段","MAREA":" ","LANE":" ","ALLEY":" ","HOUSE_NO":"５２號","E_COORD97":180189.73000000001,"N_COORD97":2565806.5,"ADDRESS":"中山路一段５２號","OBJECTID":625012},"geometry":{"x":180189.73000000045,"y":2565806.5}},{"attributes":{"ID":625040,"DIS_CODE":0,"TOWNNAME":"官田區","LI":"隆田里","LIN":"10鄰","STREET":"中山路","SECT":"一段","MAREA":" ","LANE":" ","ALLEY":" ","HOUSE_NO":"５４號","E_COORD97":180184.41,"N_COORD97":2565806.5499999998,"ADDRESS":"中山路一段５４號","OBJECTID":625013},"geometry":{"x":180184.41000000108,"y":2565806.5500000007}},{"attributes":{"ID":625041,"DIS_CODE":0,"TOWNNAME":"官田區","LI":"隆田里","LIN":"9鄰","STREET":"中山路","SECT":"一段","MAREA":" ","LANE":" ","ALLEY":" ","HOUSE_NO":"３０號","E_COORD97":180256.37,"N_COORD97":2565799.5699999998,"ADDRESS":"中山路一段３０號","OBJECTID":625014},"geometry":{"x":180256.37000000011,"y":2565799.5700000003}},{"attributes":{"ID":625042,"DIS_CODE":0,"TOWNNAME":"官田區","LI":"隆本里","LIN":"29鄰","STREET":"中山路","SECT":"一段","MAREA":" ","LANE":" ","ALLEY":" ","HOUSE_NO":"３０６號","E_COORD97":179452.22,"N_COORD97":2565886.8199999998,"ADDRESS":"中山路一段３０６號","OBJECTID":625015},"geometry":{"x":179452.21999999881,"y":2565886.820000004}},{"attributes":{"ID":625043,"DIS_CODE":0,"TOWNNAME":"官田區","LI":"隆本里","LIN":"29鄰","STREET":"中山路","SECT":"一段","MAREA":" ","LANE":" ","ALLEY":" ","HOUSE_NO":"３２６號","E_COORD97":179403.01000000001,"N_COORD97":2565891.5299999998,"ADDRESS":"中山路一段３２６號","OBJECTID":625016},"geometry":{"x":179403.01000000164,"y":2565891.5300000031}},{"attributes":{"ID":625044,"DIS_CODE":0,"TOWNNAME":"官田區","LI":"隆本里","LIN":"29鄰","STREET":"中山路","SECT":"一段","MAREA":" ","LANE":" ","ALLEY":" ","HOUSE_NO":"３２８號","E_COORD97":179389.04999999999,"N_COORD97":2565894.0299999998,"ADDRESS":"中山路一段３２８號","OBJECTID":625017},"geometry":{"x":179389.04999999888,"y":2565894.0299999993}},{"attributes":{"ID":625045,"DIS_CODE":0,"TOWNNAME":"官田區","LI":"隆本里","LIN":"29鄰","STREET":"中山路","SECT":"一段","MAREA":" ","LANE":" ","ALLEY":" ","HOUSE_NO":"３８８號","E_COORD97":179271.57000000001,"N_COORD97":2565923.48,"ADDRESS":"中山路一段３８８號","OBJECTID":625018},"geometry":{"x":179271.57000000123,"y":2565923.4800000042}},{"attributes":{"ID":625046,"DIS_CODE":0,"TOWNNAME":"官田區","LI":"隆本里","LIN":"29鄰","STREET":"中山路","SECT":"一段","MAREA":" ","LANE":" ","ALLEY":" ","HOUSE_NO":"３９６號","E_COORD97":179228.60999999999,"N_COORD97":2565939.4300000002,"ADDRESS":"中山路一段３９６號","OBJECTID":625019},"geometry":{"x":179228.61000000127,"y":2565939.4299999997}},{"attributes":{"ID":625047,"DIS_CODE":0,"TOWNNAME":"官田區","LI":"隆本里","LIN":"29鄰","STREET":"中山路","SECT":"一段","MAREA":" ","LANE":" ","ALLEY":" ","HOUSE_NO":"４０６號","E_COORD97":179172.69,"N_COORD97":2565943.2799999998,"ADDRESS":"中山路一段４０６號","OBJECTID":625020},"geometry":{"x":179172.69000000134,"y":2565943.2799999993}},{"attributes":{"ID":625048,"DIS_CODE":0,"TOWNNAME":"官田區","LI":"隆田里","LIN":"10鄰","STREET":"中山路","SECT":"一段","MAREA":" ","LANE":" ","ALLEY":" ","HOUSE_NO":"５６號","E_COORD97":180179.13,"N_COORD97":2565807.2200000002,"ADDRESS":"中山路一段５６號","OBJECTID":625021},"geometry":{"x":180179.13000000082,"y":2565807.2200000025}},{"attributes":{"ID":625049,"DIS_CODE":0,"TOWNNAME":"官田區","LI":"隆田里","LIN":"10鄰","STREET":"中山路","SECT":"一段","MAREA":" ","LANE":" ","ALLEY":" ","HOUSE_NO":"５８號","E_COORD97":180174.88,"N_COORD97":2565807.6699999999,"ADDRESS":"中山路一段５８號","OBJECTID":625022},"geometry":{"x":180174.87999999989,"y":2565807.6700000018}},{"attributes":{"ID":625050,"DIS_CODE":0,"TOWNNAME":"官田區","LI":"隆田里","LIN":"10鄰","STREET":"中山路","SECT":"一段","MAREA":" ","LANE":" ","ALLEY":" ","HOUSE_NO":"６０號","E_COORD97":180169.57999999999,"N_COORD97":2565807.6899999999,"ADDRESS":"中山路一段６０號","OBJECTID":625023},"geometry":{"x":180169.58000000101,"y":2565807.6899999995}},{"attributes":{"ID":625051,"DIS_CODE":0,"TOWNNAME":"官田區","LI":"隆田里","LIN":"25鄰","STREET":"中山路","SECT":"二段","MAREA":" ","LANE":" ","ALLEY":" ","HOUSE_NO":"４１號","E_COORD97":179039.97,"N_COORD97":2565951.4700000002,"ADDRESS":"中山路二段４１號","OBJECTID":625024},"geometry":{"x":179039.96999999974,"y":2565951.4700000025}},{"attributes":{"ID":625052,"DIS_CODE":0,"TOWNNAME":"官田區","LI":"隆田里","LIN":"25鄰","STREET":"中山路","SECT":"二段","MAREA":" ","LANE":" ","ALLEY":" ","HOUSE_NO":"４３號","E_COORD97":179035.87,"N_COORD97":2565953.1800000002,"ADDRESS":"中山路二段４３號","OBJECTID":625025},"geometry":{"x":179035.87000000011,"y":2565953.1800000016}},{"attributes":{"ID":625053,"DIS_CODE":0,"TOWNNAME":"中西區","LI":"西湖里","LIN":"34鄰","STREET":"西湖街","SECT":" ","MAREA":" ","LANE":" ","ALLEY":" ","HOUSE_NO":"３號","E_COORD97":166630.69,"N_COORD97":2544881.96,"ADDRESS":"西湖街３號","OBJECTID":625026},"geometry":{"x":166630.69000000041,"y":2544881.9600000009}},{"attributes":{"ID":625054,"DIS_CODE":0,"TOWNNAME":"中西區","LI":" ","LIN":" ","STREET":"海安路","SECT":"二段","MAREA":" ","LANE":" ","ALLEY":" ","HOUSE_NO":"７６號７６","E_COORD97":167637.07999999999,"N_COORD97":2543914.2599999998,"ADDRESS":"海安路二段７６號７６","OBJECTID":625027},"geometry":{"x":167637.08000000101,"y":2543914.2600000016}},{"attributes":{"ID":625055,"DIS_CODE":0,"TOWNNAME":"中西區","LI":" ","LIN":" ","STREET":"府前一街","SECT":" ","MAREA":" ","LANE":" ","ALLEY":" ","HOUSE_NO":"１３１號","E_COORD97":166699.29000000001,"N_COORD97":2544065.77,"ADDRESS":"府前一街１３１號","OBJECTID":625028},"geometry":{"x":166699.2900000019,"y":2544065.7699999977}},{"attributes":{"ID":625056,"DIS_CODE":0,"TOWNNAME":"中西區","LI":" ","LIN":" ","STREET":"府前一街","SECT":" ","MAREA":" ","LANE":" ","ALLEY":" ","HOUSE_NO":"１３３號","E_COORD97":166697.51000000001,"N_COORD97":2544070.4700000002,"ADDRESS":"府前一街１３３號","OBJECTID":625029},"geometry":{"x":166697.51000000164,"y":2544070.4700000025}},{"attributes":{"ID":625057,"DIS_CODE":0,"TOWNNAME":"中西區","LI":"藥王里","LIN":"12鄰","STREET":"協和街","SECT":" ","MAREA":" ","LANE":" ","ALLEY":" ","HOUSE_NO":"８２號","E_COORD97":167110.54999999999,"N_COORD97":2544556.3999999999,"ADDRESS":"協和街８２號","OBJECTID":625030},"geometry":{"x":167110.54999999981,"y":2544556.4000000004}},{"attributes":{"ID":625058,"DIS_CODE":0,"TOWNNAME":"中西區","LI":"法華里","LIN":"12鄰","STREET":"法華街","SECT":" ","MAREA":" ","LANE":" ","ALLEY":" ","HOUSE_NO":"１６１號","E_COORD97":168873.60000000001,"N_COORD97":2542473.3700000001,"ADDRESS":"法華街１６１號","OBJECTID":625031},"geometry":{"x":168873.60000000056,"y":2542473.3700000048}},{"attributes":{"ID":625059,"DIS_CODE":0,"TOWNNAME":"中西區","LI":"民權里","LIN":"15鄰","STREET":"金華路","SECT":"四段","MAREA":" ","LANE":" ","ALLEY":" ","HOUSE_NO":"８２之１號","E_COORD97":167459.10000000001,"N_COORD97":2544308.2599999998,"ADDRESS":"金華路四段８２之１號","OBJECTID":625032},"geometry":{"x":167459.09999999963,"y":2544308.2600000016}},{"attributes":{"ID":625060,"DIS_CODE":0,"TOWNNAME":"中西區","LI":" ","LIN":" ","STREET":"府前一街","SECT":" ","MAREA":" ","LANE":" ","ALLEY":" ","HOUSE_NO":"１３５號","E_COORD97":166695.73000000001,"N_COORD97":2544074.5299999998,"ADDRESS":"府前一街１３５號","OBJECTID":625033},"geometry":{"x":166695.73000000138,"y":2544074.5300000012}},{"attributes":{"ID":625061,"DIS_CODE":0,"TOWNNAME":"中西區","LI":" ","LIN":" ","STREET":"府前二街","SECT":" ","MAREA":" ","LANE":" ","ALLEY":" ","HOUSE_NO":"９６號","E_COORD97":166657.76000000001,"N_COORD97":2544044.9399999999,"ADDRESS":"府前二街９６號","OBJECTID":625034},"geometry":{"x":166657.75999999978,"y":2544044.9400000013}},{"attributes":{"ID":625062,"DIS_CODE":0,"TOWNNAME":"中西區","LI":" ","LIN":" ","STREET":"府前二街","SECT":" ","MAREA":" ","LANE":" ","ALLEY":" ","HOUSE_NO":"９８號","E_COORD97":166657.13,"N_COORD97":2544050.3999999999,"ADDRESS":"府前二街９８號","OBJECTID":625035},"geometry":{"x":166657.12999999989,"y":2544050.4000000022}},{"attributes":{"ID":625063,"DIS_CODE":0,"TOWNNAME":"中西區","LI":" ","LIN":" ","STREET":"府前二街","SECT":" ","MAREA":" ","LANE":" ","ALLEY":" ","HOUSE_NO":"１００號","E_COORD97":166656.75,"N_COORD97":2544056.1200000001,"ADDRESS":"府前二街１００號","OBJECTID":625036},"geometry":{"x":166656.75,"y":2544056.1200000029}},{"attributes":{"ID":625064,"DIS_CODE":0,"TOWNNAME":"中西區","LI":" ","LIN":" ","STREET":"府前二街","SECT":" ","MAREA":" ","LANE":" ","ALLEY":" ","HOUSE_NO":"１０２號","E_COORD97":166657.38,"N_COORD97":2544061.5800000001,"ADDRESS":"府前二街１０２號","OBJECTID":625037},"geometry":{"x":166657.37999999989,"y":2544061.5800000019}},{"attributes":{"ID":625065,"DIS_CODE":0,"TOWNNAME":"中西區","LI":" ","LIN":" ","STREET":"健康路","SECT":"一段","MAREA":" ","LANE":" ","ALLEY":" ","HOUSE_NO":"３００號","E_COORD97":168283.60999999999,"N_COORD97":2542455.4199999999,"ADDRESS":"健康路一段３００號","OBJECTID":625038},"geometry":{"x":168283.61000000034,"y":2542455.4200000018}},{"attributes":{"ID":625066,"DIS_CODE":0,"TOWNNAME":"中西區","LI":" ","LIN":" ","STREET":"健康路","SECT":"一段","MAREA":" ","LANE":" ","ALLEY":" ","HOUSE_NO":"中西區中西區３０２號","E_COORD97":168277.89000000001,"N_COORD97":2542455.1699999999,"ADDRESS":"健康路一段中西區中西區３０２號","OBJECTID":625039},"geometry":{"x":168277.88999999966,"y":2542455.1699999999}},{"attributes":{"ID":625067,"DIS_CODE":0,"TOWNNAME":"中西區","LI":" ","LIN":" ","STREET":"健康路","SECT":"一段","MAREA":" ","LANE":" ","ALLEY":" ","HOUSE_NO":"３０６號","E_COORD97":168271.79999999999,"N_COORD97":2542455.04,"ADDRESS":"健康路一段３０６號","OBJECTID":625040},"geometry":{"x":168271.79999999981,"y":2542455.0399999991}},{"attributes":{"ID":625068,"DIS_CODE":0,"TOWNNAME":"中西區","LI":" ","LIN":" ","STREET":"健康路","SECT":"一段","MAREA":" ","LANE":" ","ALLEY":" ","HOUSE_NO":"３０８號","E_COORD97":168267.35000000001,"N_COORD97":2542455.04,"ADDRESS":"健康路一段３０８號","OBJECTID":625041},"geometry":{"x":168267.34999999963,"y":2542455.0399999991}},{"attributes":{"ID":625069,"DIS_CODE":0,"TOWNNAME":"中西區","LI":" ","LIN":" ","STREET":"健康路","SECT":"一段","MAREA":" ","LANE":" ","ALLEY":" ","HOUSE_NO":"３２２之１號","E_COORD97":168225.20999999999,"N_COORD97":2542465.1299999999,"ADDRESS":"健康路一段３２２之１號","OBJECTID":625042},"geometry":{"x":168225.20999999996,"y":2542465.129999999}},{"attributes":{"ID":625070,"DIS_CODE":0,"TOWNNAME":"中西區","LI":"永華里","LIN":"4鄰","STREET":"南門路","SECT":" ","MAREA":" ","LANE":" ","ALLEY":" ","HOUSE_NO":"６９號之１","E_COORD97":168495.25,"N_COORD97":2543349.3799999999,"ADDRESS":"南門路６９號之１","OBJECTID":625043},"geometry":{"x":168495.25000000093,"y":2543349.3800000027}},{"attributes":{"ID":625071,"DIS_CODE":0,"TOWNNAME":"中西區","LI":"西湖里","LIN":"34鄰","STREET":"西湖街","SECT":" ","MAREA":" ","LANE":" ","ALLEY":" ","HOUSE_NO":"１４８號","E_COORD97":166381.73000000001,"N_COORD97":2544915.7999999998,"ADDRESS":"西湖街１４８號","OBJECTID":625044},"geometry":{"x":166381.73000000138,"y":2544915.8000000026}},{"attributes":{"ID":625072,"DIS_CODE":0,"TOWNNAME":"中西區","LI":"仙草里","LIN":"8鄰","STREET":"永福路","SECT":"一段","MAREA":" ","LANE":" ","ALLEY":" ","HOUSE_NO":"６９號","E_COORD97":167980.53,"N_COORD97":2542659.8300000001,"ADDRESS":"永福路一段６９號","OBJECTID":625045},"geometry":{"x":167980.53000000026,"y":2542659.8300000019}},{"attributes":{"ID":625073,"DIS_CODE":0,"TOWNNAME":"中西區","LI":"仙草里","LIN":"8鄰","STREET":"永福路","SECT":"一段","MAREA":" ","LANE":" ","ALLEY":" ","HOUSE_NO":"７１號","E_COORD97":167980.04999999999,"N_COORD97":2542661.5800000001,"ADDRESS":"永福路一段７１號","OBJECTID":625046},"geometry":{"x":167980.04999999981,"y":2542661.5800000019}},{"attributes":{"ID":625074,"DIS_CODE":0,"TOWNNAME":"中西區","LI":"公正里","LIN":"7鄰","STREET":"衛民街","SECT":" ","MAREA":" ","LANE":" ","ALLEY":" ","HOUSE_NO":"６０號","E_COORD97":169053.07999999999,"N_COORD97":2543726.3900000001,"ADDRESS":"衛民街６０號","OBJECTID":625047},"geometry":{"x":169053.08000000007,"y":2543726.3900000006}},{"attributes":{"ID":625075,"DIS_CODE":0,"TOWNNAME":"中西區","LI":"大涼里","LIN":"6鄰","STREET":"中華西路","SECT":"二段","MAREA":" ","LANE":" ","ALLEY":" ","HOUSE_NO":"１９６號","E_COORD97":166611.26999999999,"N_COORD97":2544019.1299999999,"ADDRESS":"中華西路二段１９６號","OBJECTID":625048},"geometry":{"x":166611.27000000048,"y":2544019.1300000027}},{"attributes":{"ID":625076,"DIS_CODE":0,"TOWNNAME":"中西區","LI":"赤嵌里","LIN":"4鄰","STREET":"中山路","SECT":" ","MAREA":" ","LANE":" ","ALLEY":" ","HOUSE_NO":"１２５之７０號","E_COORD97":168983.41,"N_COORD97":2544033.6099999999,"ADDRESS":"中山路１２５之７０號","OBJECTID":625049},"geometry":{"x":168983.41000000015,"y":2544033.6100000013}},{"attributes":{"ID":625077,"DIS_CODE":0,"TOWNNAME":"中西區","LI":"赤嵌里","LIN":"4鄰","STREET":"中山路","SECT":" ","MAREA":" ","LANE":" ","ALLEY":" ","HOUSE_NO":"１２５之７１號","E_COORD97":168938.79999999999,"N_COORD97":2544001.7000000002,"ADDRESS":"中山路１２５之７１號","OBJECTID":625050},"geometry":{"x":168938.80000000075,"y":2544001.700000003}},{"attributes":{"ID":625078,"DIS_CODE":0,"TOWNNAME":"中西區","LI":"赤嵌里","LIN":"4鄰","STREET":"中山路","SECT":" ","MAREA":" ","LANE":" ","ALLEY":" ","HOUSE_NO":"１２５之５０號","E_COORD97":168899.42999999999,"N_COORD97":2543974.0800000001,"ADDRESS":"中山路１２５之５０號","OBJECTID":625051},"geometry":{"x":168899.4299999997,"y":2543974.0800000019}},{"attributes":{"ID":625079,"DIS_CODE":0,"TOWNNAME":"中西區","LI":"赤嵌里","LIN":"4鄰","STREET":"中山路","SECT":" ","MAREA":" ","LANE":" ","ALLEY":" ","HOUSE_NO":"１２５之５１號","E_COORD97":168896.73000000001,"N_COORD97":2543977.1000000001,"ADDRESS":"中山路１２５之５１號","OBJECTID":625052},"geometry":{"x":168896.73000000045,"y":2543977.1000000015}},{"attributes":{"ID":625080,"DIS_CODE":0,"TOWNNAME":"中西區","LI":"赤嵌里","LIN":"4鄰","STREET":"中山路","SECT":" ","MAREA":" ","LANE":" ","ALLEY":" ","HOUSE_NO":"１２５之５２號","E_COORD97":168893.70999999999,"N_COORD97":2543980.75,"ADDRESS":"中山路１２５之５２號","OBJECTID":625053},"geometry":{"x":168893.71000000089,"y":2543980.75}},{"attributes":{"ID":625081,"DIS_CODE":0,"TOWNNAME":"中西區","LI":"赤嵌里","LIN":"4鄰","STREET":"中山路","SECT":" ","MAREA":" ","LANE":" ","ALLEY":" ","HOUSE_NO":"１２５之５３號","E_COORD97":168890.54000000001,"N_COORD97":2543983.6099999999,"ADDRESS":"中山路１２５之５３號","OBJECTID":625054},"geometry":{"x":168890.54000000004,"y":2543983.6100000013}},{"attributes":{"ID":625082,"DIS_CODE":0,"TOWNNAME":"中西區","LI":"赤嵌里","LIN":"4鄰","STREET":"中山路","SECT":" ","MAREA":" ","LANE":" ","ALLEY":" ","HOUSE_NO":"１２５之５５號","E_COORD97":168889.26999999999,"N_COORD97":2543987.5800000001,"ADDRESS":"中山路１２５之５５號","OBJECTID":625055},"geometry":{"x":168889.27000000048,"y":2543987.5800000019}},{"attributes":{"ID":625083,"DIS_CODE":0,"TOWNNAME":"中西區","LI":"赤嵌里","LIN":"4鄰","STREET":"中山路","SECT":" ","MAREA":" ","LANE":" ","ALLEY":" ","HOUSE_NO":"１２５之５６號","E_COORD97":168894.03,"N_COORD97":2543996.9399999999,"ADDRESS":"中山路１２５之５６號","OBJECTID":625056},"geometry":{"x":168894.03000000026,"y":2543996.9400000032}},{"attributes":{"ID":625084,"DIS_CODE":0,"TOWNNAME":"中西區","LI":"赤嵌里","LIN":"4鄰","STREET":"中山路","SECT":" ","MAREA":" ","LANE":" ","ALLEY":" ","HOUSE_NO":"１２５之５７號","E_COORD97":168934.03,"N_COORD97":2544014.5600000001,"ADDRESS":"中山路１２５之５７號","OBJECTID":625057},"geometry":{"x":168934.03000000119,"y":2544014.5600000024}},{"attributes":{"ID":625085,"DIS_CODE":0,"TOWNNAME":"中西區","LI":"赤嵌里","LIN":"4鄰","STREET":"中山路","SECT":" ","MAREA":" ","LANE":" ","ALLEY":" ","HOUSE_NO":"１２５之５８號","E_COORD97":168937.37,"N_COORD97":2544016.6299999999,"ADDRESS":"中山路１２５之５８號","OBJECTID":625058},"geometry":{"x":168937.37000000011,"y":2544016.6300000008}},{"attributes":{"ID":625086,"DIS_CODE":0,"TOWNNAME":"中西區","LI":"赤嵌里","LIN":"4鄰","STREET":"中山路","SECT":" ","MAREA":" ","LANE":" ","ALLEY":" ","HOUSE_NO":"１２５之５９號","E_COORD97":168941.64999999999,"N_COORD97":2544019.7999999998,"ADDRESS":"中山路１２５之５９號","OBJECTID":625059},"geometry":{"x":168941.65000000224,"y":2544019.8000000045}},{"attributes":{"ID":625087,"DIS_CODE":0,"TOWNNAME":"中西區","LI":"赤嵌里","LIN":"4鄰","STREET":"中山路","SECT":" ","MAREA":" ","LANE":" ","ALLEY":" ","HOUSE_NO":"１２５之６０號","E_COORD97":168946.89000000001,"N_COORD97":2544023.6099999999,"ADDRESS":"中山路１２５之６０號","OBJECTID":625060},"geometry":{"x":168946.88999999966,"y":2544023.6100000013}},{"attributes":{"ID":625088,"DIS_CODE":0,"TOWNNAME":"中西區","LI":"赤嵌里","LIN":"4鄰","STREET":"中山路","SECT":" ","MAREA":" ","LANE":" ","ALLEY":" ","HOUSE_NO":"１２５之６１號","E_COORD97":168951.66,"N_COORD97":2544027.5800000001,"ADDRESS":"中山路１２５之６１號","OBJECTID":625061},"geometry":{"x":168951.66000000108,"y":2544027.5800000019}},{"attributes":{"ID":625089,"DIS_CODE":0,"TOWNNAME":"中西區","LI":"赤嵌里","LIN":"4鄰","STREET":"中山路","SECT":" ","MAREA":" ","LANE":" ","ALLEY":" ","HOUSE_NO":"１２５之６２號","E_COORD97":168956.26000000001,"N_COORD97":2544031.0699999998,"ADDRESS":"中山路１２５之６２號","OBJECTID":625062},"geometry":{"x":168956.26000000071,"y":2544031.070000004}},{"attributes":{"ID":625090,"DIS_CODE":0,"TOWNNAME":"麻豆區","LI":"新建里","LIN":"4鄰","STREET":"興民街","SECT":" ","MAREA":" ","LANE":" ","ALLEY":" ","HOUSE_NO":"６３號之１","E_COORD97":172610.91,"N_COORD97":2564957.4500000002,"ADDRESS":"興民街６３號之１","OBJECTID":625063},"geometry":{"x":172610.91000000015,"y":2564957.4500000011}},{"attributes":{"ID":625091,"DIS_CODE":0,"TOWNNAME":"中西區","LI":"赤嵌里","LIN":"4鄰","STREET":"中山路","SECT":" ","MAREA":" ","LANE":" ","ALLEY":" ","HOUSE_NO":"１２５之６３號","E_COORD97":168961.5,"N_COORD97":2544034.0899999999,"ADDRESS":"中山路１２５之６３號","OBJECTID":625064},"geometry":{"x":168961.50000000093,"y":2544034.0900000017}},{"attributes":{"ID":625092,"DIS_CODE":0,"TOWNNAME":"中西區","LI":"赤嵌里","LIN":"4鄰","STREET":"中山路","SECT":" ","MAREA":" ","LANE":" ","ALLEY":" ","HOUSE_NO":"１２５之６５號","E_COORD97":168966.42000000001,"N_COORD97":2544037.4199999999,"ADDRESS":"中山路１２５之６５號","OBJECTID":625065},"geometry":{"x":168966.42000000179,"y":2544037.4199999999}},{"attributes":{"ID":625093,"DIS_CODE":0,"TOWNNAME":"中西區","LI":"赤嵌里","LIN":"4鄰","STREET":"中山路","SECT":" ","MAREA":" ","LANE":" ","ALLEY":" ","HOUSE_NO":"１２５之６６號","E_COORD97":168970.70999999999,"N_COORD97":2544040.1200000001,"ADDRESS":"中山路１２５之６６號","OBJECTID":625066},"geometry":{"x":168970.70999999996,"y":2544040.120000001}},{"attributes":{"ID":625094,"DIS_CODE":0,"TOWNNAME":"中西區","LI":"赤嵌里","LIN":"4鄰","STREET":"中山路","SECT":" ","MAREA":" ","LANE":" ","ALLEY":" ","HOUSE_NO":"１２５之６７號","E_COORD97":168975.63,"N_COORD97":2544043.1400000001,"ADDRESS":"中山路１２５之６７號","OBJECTID":625067},"geometry":{"x":168975.63000000082,"y":2544043.1400000006}},{"attributes":{"ID":625095,"DIS_CODE":0,"TOWNNAME":"中西區","LI":"赤嵌里","LIN":"4鄰","STREET":"中山路","SECT":" ","MAREA":" ","LANE":" ","ALLEY":" ","HOUSE_NO":"１２５之６８號","E_COORD97":168980.39000000001,"N_COORD97":2544045.8399999999,"ADDRESS":"中山路１２５之６８號","OBJECTID":625068},"geometry":{"x":168980.3900000006,"y":2544045.8400000017}},{"attributes":{"ID":625096,"DIS_CODE":0,"TOWNNAME":"中西區","LI":"赤嵌里","LIN":"4鄰","STREET":"中山路","SECT":" ","MAREA":" ","LANE":" ","ALLEY":" ","HOUSE_NO":"１２５之６９號","E_COORD97":168985.47,"N_COORD97":2544048.3799999999,"ADDRESS":"中山路１２５之６９號","OBJECTID":625069},"geometry":{"x":168985.46999999974,"y":2544048.3800000008}},{"attributes":{"ID":625097,"DIS_CODE":0,"TOWNNAME":"中西區","LI":"西湖里","LIN":"39鄰","STREET":"中華西路","SECT":"二段","MAREA":" ","LANE":" ","ALLEY":" ","HOUSE_NO":"８３７號","E_COORD97":166582.35000000001,"N_COORD97":2545175.3700000001,"ADDRESS":"中華西路二段８３７號","OBJECTID":625070},"geometry":{"x":166582.34999999963,"y":2545175.3699999992}},{"attributes":{"ID":625098,"DIS_CODE":0,"TOWNNAME":"中西區","LI":"天后里","LIN":"18鄰","STREET":"郡緯街","SECT":" ","MAREA":" ","LANE":" ","ALLEY":" ","HOUSE_NO":"２６號","E_COORD97":168079.98000000001,"N_COORD97":2544344.4900000002,"ADDRESS":"郡緯街２６號","OBJECTID":625071},"geometry":{"x":168079.98000000231,"y":2544344.4900000021}},{"attributes":{"ID":625099,"DIS_CODE":0,"TOWNNAME":"中西區","LI":"藥王里","LIN":"18鄰","STREET":"美麗街","SECT":" ","MAREA":" ","LANE":" ","ALLEY":" ","HOUSE_NO":"３２號","E_COORD97":166920.85999999999,"N_COORD97":2544469.3999999999,"ADDRESS":"美麗街３２號","OBJECTID":625072},"geometry":{"x":166920.86000000034,"y":2544469.4000000041}},{"attributes":{"ID":625100,"DIS_CODE":0,"TOWNNAME":"中西區","LI":"藥王里","LIN":"18鄰","STREET":"美麗街","SECT":" ","MAREA":" ","LANE":" ","ALLEY":" ","HOUSE_NO":"３０號","E_COORD97":166914.67000000001,"N_COORD97":2544475.75,"ADDRESS":"美麗街３０號","OBJECTID":625073},"geometry":{"x":166914.66999999993,"y":2544475.75}},{"attributes":{"ID":625101,"DIS_CODE":0,"TOWNNAME":"中西區","LI":"藥王里","LIN":"18鄰","STREET":"美麗街","SECT":" ","MAREA":" ","LANE":" ","ALLEY":" ","HOUSE_NO":"２６號","E_COORD97":166904.82999999999,"N_COORD97":2544488.1299999999,"ADDRESS":"美麗街２６號","OBJECTID":625074},"geometry":{"x":166904.83000000101,"y":2544488.1300000008}},{"attributes":{"ID":625102,"DIS_CODE":0,"TOWNNAME":"中西區","LI":"西湖里","LIN":"39鄰","STREET":"中華西路","SECT":"二段","MAREA":" ","LANE":" ","ALLEY":" ","HOUSE_NO":"８２５號","E_COORD97":166602.03,"N_COORD97":2545082.7400000002,"ADDRESS":"中華西路二段８２５號","OBJECTID":625075},"geometry":{"x":166602.03000000119,"y":2545082.7400000002}},{"attributes":{"ID":625103,"DIS_CODE":0,"TOWNNAME":"中西區","LI":"光賢里","LIN":"13鄰","STREET":"西和路","SECT":" ","MAREA":" ","LANE":" ","ALLEY":" ","HOUSE_NO":"２７號","E_COORD97":166729.16,"N_COORD97":2544479.96,"ADDRESS":"西和路２７號","OBJECTID":625076},"geometry":{"x":166729.16000000201,"y":2544479.9600000046}},{"attributes":{"ID":625104,"DIS_CODE":0,"TOWNNAME":"中西區","LI":"西湖里","LIN":"40鄰","STREET":"中華西路","SECT":"二段","MAREA":" ","LANE":" ","ALLEY":" ","HOUSE_NO":"６８５號","E_COORD97":166637.95999999999,"N_COORD97":2544749.0699999998,"ADDRESS":"中華西路二段６８５號","OBJECTID":625077},"geometry":{"x":166637.95999999996,"y":2544749.0700000003}},{"attributes":{"ID":625105,"DIS_CODE":0,"TOWNNAME":"中西區","LI":"民主里","LIN":"4鄰","STREET":"尊王路","SECT":" ","MAREA":" ","LANE":" ","ALLEY":" ","HOUSE_NO":"９０之１號","E_COORD97":167517.60999999999,"N_COORD97":2543608.8599999999,"ADDRESS":"尊王路９０之１號","OBJECTID":625078},"geometry":{"x":167517.61000000034,"y":2543608.8600000013}},{"attributes":{"ID":625106,"DIS_CODE":0,"TOWNNAME":"中西區","LI":"西湖里","LIN":"32鄰","STREET":"湖美二街","SECT":" ","MAREA":" ","LANE":" ","ALLEY":" ","HOUSE_NO":"１４０號","E_COORD97":166156.48000000001,"N_COORD97":2544996.23,"ADDRESS":"湖美二街１４０號","OBJECTID":625079},"geometry":{"x":166156.48000000138,"y":2544996.2300000042}},{"attributes":{"ID":625107,"DIS_CODE":0,"TOWNNAME":"中西區","LI":"民主里","LIN":"13鄰","STREET":"中正路","SECT":" ","MAREA":" ","LANE":" ","ALLEY":" ","HOUSE_NO":"３５３號","E_COORD97":167339.70000000001,"N_COORD97":2543777.3199999998,"ADDRESS":"中正路３５３號","OBJECTID":625080},"geometry":{"x":167339.70000000112,"y":2543777.3200000003}},{"attributes":{"ID":625108,"DIS_CODE":0,"TOWNNAME":"中西區","LI":"西賢里","LIN":"11鄰","STREET":"西賢街","SECT":" ","MAREA":" ","LANE":" ","ALLEY":" ","HOUSE_NO":"１０９號","E_COORD97":165814.32999999999,"N_COORD97":2544759.9100000001,"ADDRESS":"西賢街１０９號","OBJECTID":625081},"geometry":{"x":165814.33000000101,"y":2544759.9100000001}},{"attributes":{"ID":625109,"DIS_CODE":0,"TOWNNAME":"中西區","LI":"藥王里","LIN":"14鄰","STREET":"和真街","SECT":" ","MAREA":" ","LANE":" ","ALLEY":" ","HOUSE_NO":"３號","E_COORD97":166999.73999999999,"N_COORD97":2544449.6000000001,"ADDRESS":"和真街３號","OBJECTID":625082},"geometry":{"x":166999.73999999929,"y":2544449.5999999996}},{"attributes":{"ID":625110,"DIS_CODE":0,"TOWNNAME":"中西區","LI":"西賢里","LIN":"20鄰","STREET":"西賢二街","SECT":" ","MAREA":" ","LANE":" ","ALLEY":" ","HOUSE_NO":"１３２號","E_COORD97":165624.48000000001,"N_COORD97":2544862.6200000001,"ADDRESS":"西賢二街１３２號","OBJECTID":625083},"geometry":{"x":165624.48000000138,"y":2544862.6200000029}},{"attributes":{"ID":625111,"DIS_CODE":0,"TOWNNAME":"中西區","LI":"西賢里","LIN":"20鄰","STREET":"西賢二街","SECT":" ","MAREA":" ","LANE":" ","ALLEY":" ","HOUSE_NO":"１３０號","E_COORD97":165632.67999999999,"N_COORD97":2544862.3599999999,"ADDRESS":"西賢二街１３０號","OBJECTID":625084},"geometry":{"x":165632.6799999997,"y":2544862.3600000013}},{"attributes":{"ID":625112,"DIS_CODE":0,"TOWNNAME":"中西區","LI":"西賢里","LIN":"20鄰","STREET":"西賢二街","SECT":" ","MAREA":" ","LANE":" ","ALLEY":" ","HOUSE_NO":"１２８號","E_COORD97":165637.97,"N_COORD97":2544862.8799999999,"ADDRESS":"西賢二街１２８號","OBJECTID":625085},"geometry":{"x":165637.96999999974,"y":2544862.8800000008}},{"attributes":{"ID":625113,"DIS_CODE":0,"TOWNNAME":"中西區","LI":"西賢里","LIN":"20鄰","STREET":"西賢二街","SECT":" ","MAREA":" ","LANE":" ","ALLEY":" ","HOUSE_NO":"１２６號","E_COORD97":165643.53,"N_COORD97":2544862.6200000001,"ADDRESS":"西賢二街１２６號","OBJECTID":625086},"geometry":{"x":165643.53000000212,"y":2544862.6200000029}},{"attributes":{"ID":625114,"DIS_CODE":0,"TOWNNAME":"中西區","LI":"西賢里","LIN":"20鄰","STREET":"西賢二街","SECT":" ","MAREA":" ","LANE":" ","ALLEY":" ","HOUSE_NO":"１２２號","E_COORD97":165648.29000000001,"N_COORD97":2544863.1499999999,"ADDRESS":"西賢二街１２２號","OBJECTID":625087},"geometry":{"x":165648.2900000019,"y":2544863.1500000004}},{"attributes":{"ID":625115,"DIS_CODE":0,"TOWNNAME":"中西區","LI":"協和里","LIN":"13鄰","STREET":"永和街","SECT":" ","MAREA":" ","LANE":" ","ALLEY":" ","HOUSE_NO":"９２之１號","E_COORD97":167083.64000000001,"N_COORD97":2544648.75,"ADDRESS":"永和街９２之１號","OBJECTID":625088},"geometry":{"x":167083.6400000006,"y":2544648.75}},{"attributes":{"ID":625116,"DIS_CODE":0,"TOWNNAME":"中西區","LI":"民權里","LIN":"15鄰","STREET":"民族路","SECT":"三段","MAREA":" ","LANE":" ","ALLEY":" ","HOUSE_NO":"１５３號","E_COORD97":167535.22,"N_COORD97":2544384.6600000001,"ADDRESS":"民族路三段１５３號","OBJECTID":625089},"geometry":{"x":167535.2200000016,"y":2544384.6600000001}},{"attributes":{"ID":625117,"DIS_CODE":0,"TOWNNAME":"中西區","LI":"法華里","LIN":"2鄰","STREET":"五妃街","SECT":" ","MAREA":" ","LANE":" ","ALLEY":" ","HOUSE_NO":"４２號","E_COORD97":169022.01000000001,"N_COORD97":2542575.7200000002,"ADDRESS":"五妃街４２號","OBJECTID":625090},"geometry":{"x":169022.01000000071,"y":2542575.7200000044}},{"attributes":{"ID":625118,"DIS_CODE":0,"TOWNNAME":"中西區","LI":"法華里","LIN":"2鄰","STREET":"五妃街","SECT":" ","MAREA":" ","LANE":" ","ALLEY":" ","HOUSE_NO":"４６號","E_COORD97":169012.48000000001,"N_COORD97":2542573.8700000001,"ADDRESS":"五妃街４６號","OBJECTID":625091},"geometry":{"x":169012.48000000231,"y":2542573.870000001}},{"attributes":{"ID":625119,"DIS_CODE":0,"TOWNNAME":"中西區","LI":"法華里","LIN":"2鄰","STREET":"府連路","SECT":" ","MAREA":" ","LANE":" ","ALLEY":" ","HOUSE_NO":"３０號","E_COORD97":168995.28,"N_COORD97":2542583.6600000001,"ADDRESS":"府連路３０號","OBJECTID":625092},"geometry":{"x":168995.28000000119,"y":2542583.660000002}},{"attributes":{"ID":625120,"DIS_CODE":0,"TOWNNAME":"中西區","LI":"法華里","LIN":"2鄰","STREET":"府連路","SECT":" ","MAREA":" ","LANE":" ","ALLEY":" ","HOUSE_NO":"３２號","E_COORD97":168998.72,"N_COORD97":2542588.6800000002,"ADDRESS":"府連路３２號","OBJECTID":625093},"geometry":{"x":168998.72000000067,"y":2542588.6800000034}},{"attributes":{"ID":625121,"DIS_CODE":0,"TOWNNAME":"安南區","LI":"安西里","LIN":"5鄰","STREET":"安西一街","SECT":" ","MAREA":" ","LANE":" ","ALLEY":" ","HOUSE_NO":"６４號","E_COORD97":168697.64515999999,"N_COORD97":2547939.0120799998,"ADDRESS":"安西一街６４號","OBJECTID":625094},"geometry":{"x":168697.64516000077,"y":2547939.0120790005}},{"attributes":{"ID":625122,"DIS_CODE":0,"TOWNNAME":"安南區","LI":"安西里","LIN":"10鄰","STREET":"安和路","SECT":"一段","MAREA":" ","LANE":" ","ALLEY":" ","HOUSE_NO":"４０９之１號","E_COORD97":169337.92000000001,"N_COORD97":2548369.1499999999,"ADDRESS":"安和路一段４０９之１號","OBJECTID":625095},"geometry":{"x":169337.92000000086,"y":2548369.1500000004}},{"attributes":{"ID":625123,"DIS_CODE":0,"TOWNNAME":"安南區","LI":"安西里","LIN":"10鄰","STREET":"安和路","SECT":"一段","MAREA":" ","LANE":" ","ALLEY":" ","HOUSE_NO":"３９３之２號","E_COORD97":169332.63,"N_COORD97":2548357.1099999999,"ADDRESS":"安和路一段３９３之２號","OBJECTID":625096},"geometry":{"x":169332.62999999989,"y":2548357.1100000013}},{"attributes":{"ID":625124,"DIS_CODE":0,"TOWNNAME":"中西區","LI":"西賢里","LIN":"4鄰","STREET":"湖美街","SECT":" ","MAREA":" ","LANE":" ","ALLEY":" ","HOUSE_NO":"１６９號","E_COORD97":165917.45999999999,"N_COORD97":2544823.7200000002,"ADDRESS":"湖美街１６９號","OBJECTID":625097},"geometry":{"x":165917.45999999996,"y":2544823.7200000044}},{"attributes":{"ID":625125,"DIS_CODE":0,"TOWNNAME":"中西區","LI":"西賢里","LIN":"4鄰","STREET":"湖美街","SECT":" ","MAREA":" ","LANE":" ","ALLEY":" ","HOUSE_NO":"１７１號","E_COORD97":165922.75,"N_COORD97":2544829.9199999999,"ADDRESS":"湖美街１７１號","OBJECTID":625098},"geometry":{"x":165922.75,"y":2544829.9200000018}},{"attributes":{"ID":625126,"DIS_CODE":0,"TOWNNAME":"中西區","LI":"西賢里","LIN":"4鄰","STREET":"湖美街","SECT":" ","MAREA":" ","LANE":" ","ALLEY":" ","HOUSE_NO":"１７３號","E_COORD97":165922.60000000001,"N_COORD97":2544834.5800000001,"ADDRESS":"湖美街１７３號","OBJECTID":625099},"geometry":{"x":165922.60000000056,"y":2544834.5800000019}},{"attributes":{"ID":625127,"DIS_CODE":0,"TOWNNAME":"中西區","LI":"西賢里","LIN":"4鄰","STREET":"湖美街","SECT":" ","MAREA":" ","LANE":" ","ALLEY":" ","HOUSE_NO":"１７５號","E_COORD97":165919.19,"N_COORD97":2544838.9100000001,"ADDRESS":"湖美街１７５號","OBJECTID":625100},"geometry":{"x":165919.19000000134,"y":2544838.9100000039}},{"attributes":{"ID":625128,"DIS_CODE":0,"TOWNNAME":"中西區","LI":"西湖里","LIN":"4鄰","STREET":"頂美一街","SECT":" ","MAREA":" ","LANE":" ","ALLEY":" ","HOUSE_NO":"４２之１號","E_COORD97":166321.04999999999,"N_COORD97":2544549.6699999999,"ADDRESS":"頂美一街４２之１號","OBJECTID":625101},"geometry":{"x":166321.05000000168,"y":2544549.6700000018}},{"attributes":{"ID":625129,"DIS_CODE":0,"TOWNNAME":"中西區","LI":"青年里","LIN":"4鄰","STREET":"衛民街","SECT":" ","MAREA":" ","LANE":" ","ALLEY":" ","HOUSE_NO":"６７號","E_COORD97":168996.88,"N_COORD97":2543712.8199999998,"ADDRESS":"衛民街６７號","OBJECTID":625102},"geometry":{"x":168996.87999999989,"y":2543712.8200000003}},{"attributes":{"ID":625130,"DIS_CODE":0,"TOWNNAME":"中西區","LI":"西湖里","LIN":"38鄰","STREET":"中華西路","SECT":"二段","MAREA":" ","LANE":" ","ALLEY":" ","HOUSE_NO":"８６５號","E_COORD97":166515.01999999999,"N_COORD97":2545196.3799999999,"ADDRESS":"中華西路二段８６５號","OBJECTID":625103},"geometry":{"x":166515.01999999955,"y":2545196.379999999}},{"attributes":{"ID":625131,"DIS_CODE":0,"TOWNNAME":"中西區","LI":"福安里","LIN":"18鄰","STREET":"友愛街","SECT":" ","MAREA":" ","LANE":" ","ALLEY":" ","HOUSE_NO":"８２號","E_COORD97":167943.914449,"N_COORD97":2543569.8178500002,"ADDRESS":"友愛街８２號","OBJECTID":625104},"geometry":{"x":167943.9144489998,"y":2543569.8178449981}},{"attributes":{"ID":625132,"DIS_CODE":0,"TOWNNAME":"中西區","LI":"法華里","LIN":"20鄰","STREET":"健康路","SECT":"一段","MAREA":" ","LANE":" ","ALLEY":" ","HOUSE_NO":"１５８號","E_COORD97":168755.16,"N_COORD97":2542445.0099999998,"ADDRESS":"健康路一段１５８號","OBJECTID":625105},"geometry":{"x":168755.16000000108,"y":2542445.0100000016}},{"attributes":{"ID":625133,"DIS_CODE":0,"TOWNNAME":"中西區","LI":"西湖里","LIN":"40鄰","STREET":"中華西路","SECT":"二段","MAREA":" ","LANE":" ","ALLEY":" ","HOUSE_NO":"６６５號","E_COORD97":166616.63,"N_COORD97":2544636.0699999998,"ADDRESS":"中華西路二段６６５號","OBJECTID":625106},"geometry":{"x":166616.62999999989,"y":2544636.0700000003}},{"attributes":{"ID":625134,"DIS_CODE":0,"TOWNNAME":"中西區","LI":"西湖里","LIN":"40鄰","STREET":"中華西路","SECT":"二段","MAREA":" ","LANE":" ","ALLEY":" ","HOUSE_NO":"６６７號","E_COORD97":166628.53,"N_COORD97":2544643.5099999998,"ADDRESS":"中華西路二段６６７號","OBJECTID":625107},"geometry":{"x":166628.53000000119,"y":2544643.5099999998}},{"attributes":{"ID":625135,"DIS_CODE":0,"TOWNNAME":"麻豆區","LI":"新建里","LIN":"4鄰","STREET":"興民街","SECT":" ","MAREA":" ","LANE":" ","ALLEY":" ","HOUSE_NO":"６３號之２","E_COORD97":172604.54999999999,"N_COORD97":2564956.1000000001,"ADDRESS":"興民街６３號之２","OBJECTID":625108},"geometry":{"x":172604.54999999981,"y":2564956.1000000015}},{"attributes":{"ID":625136,"DIS_CODE":0,"TOWNNAME":"中西區","LI":"青年里","LIN":"4鄰","STREET":"萬昌街","SECT":" ","MAREA":" ","LANE":" ","ALLEY":" ","HOUSE_NO":"１０７號","E_COORD97":169045.41,"N_COORD97":2543655.79,"ADDRESS":"萬昌街１０７號","OBJECTID":625109},"geometry":{"x":169045.41000000108,"y":2543655.790000001}},{"attributes":{"ID":625137,"DIS_CODE":0,"TOWNNAME":"中西區","LI":"光賢里","LIN":"8鄰","STREET":"和美街","SECT":" ","MAREA":" ","LANE":" ","ALLEY":" ","HOUSE_NO":"６８號","E_COORD97":167066.04000000001,"N_COORD97":2544856.21,"ADDRESS":"和美街６８號","OBJECTID":625110},"geometry":{"x":167066.04000000097,"y":2544856.2100000009}},{"attributes":{"ID":625138,"DIS_CODE":0,"TOWNNAME":"中西區","LI":"光賢里","LIN":"8鄰","STREET":"和美街","SECT":" ","MAREA":" ","LANE":" ","ALLEY":" ","HOUSE_NO":"７０號","E_COORD97":167059.87,"N_COORD97":2544858.4700000002,"ADDRESS":"和美街７０號","OBJECTID":625111},"geometry":{"x":167059.87000000197,"y":2544858.4700000007}},{"attributes":{"ID":625139,"DIS_CODE":0,"TOWNNAME":"安南區","LI":"安慶里","LIN":"25鄰","STREET":"北安二街","SECT":" ","MAREA":" ","LANE":" ","ALLEY":" ","HOUSE_NO":"３號","E_COORD97":168658.57000000001,"N_COORD97":2548451.3799999999,"ADDRESS":"北安二街３號","OBJECTID":625112},"geometry":{"x":168658.5700000003,"y":2548451.379999999}},{"attributes":{"ID":625140,"DIS_CODE":0,"TOWNNAME":"安南區","LI":"安順里","LIN":"20鄰","STREET":"安豐二街","SECT":" ","MAREA":" ","LANE":" ","ALLEY":" ","HOUSE_NO":"５１號","E_COORD97":169544.13,"N_COORD97":2549974.0499999998,"ADDRESS":"安豐二街５１號","OBJECTID":625113},"geometry":{"x":169544.12999999989,"y":2549974.0500000007}},{"attributes":{"ID":625141,"DIS_CODE":0,"TOWNNAME":"安南區","LI":"城北里","LIN":"8鄰","STREET":"安中路","SECT":"六段","MAREA":" ","LANE":" ","ALLEY":" ","HOUSE_NO":"３５５之５號","E_COORD97":161232.67000000001,"N_COORD97":2551293.48,"ADDRESS":"安中路六段３５５之５號","OBJECTID":625114},"geometry":{"x":161232.66999999993,"y":2551293.4800000004}},{"attributes":{"ID":625142,"DIS_CODE":0,"TOWNNAME":"安南區","LI":"城北里","LIN":"7鄰","STREET":"安中路","SECT":"六段","MAREA":" ","LANE":" ","ALLEY":" ","HOUSE_NO":"４６６之１號","E_COORD97":161070.72,"N_COORD97":2551331.9399999999,"ADDRESS":"安中路六段４６６之１號","OBJECTID":625115},"geometry":{"x":161070.71999999974,"y":2551331.9400000013}},{"attributes":{"ID":625143,"DIS_CODE":0,"TOWNNAME":"安南區","LI":"學東里","LIN":"4鄰","STREET":"公學路","SECT":"六段","MAREA":" ","LANE":" ","ALLEY":" ","HOUSE_NO":"４７１之２號","E_COORD97":162685.41,"N_COORD97":2553178.5299999998,"ADDRESS":"公學路六段４７１之２號","OBJECTID":625116},"geometry":{"x":162685.41000000015,"y":2553178.5300000012}},{"attributes":{"ID":625144,"DIS_CODE":0,"TOWNNAME":"安南區","LI":"安順里","LIN":"17鄰","STREET":"開安三街","SECT":" ","MAREA":" ","LANE":" ","ALLEY":" ","HOUSE_NO":"５６號","E_COORD97":170705.73000000001,"N_COORD97":2549732.3399999999,"ADDRESS":"開安三街５６號","OBJECTID":625117},"geometry":{"x":170705.72999999952,"y":2549732.3400000017}},{"attributes":{"ID":625145,"DIS_CODE":0,"TOWNNAME":"安南區","LI":"溪心里","LIN":"4鄰","STREET":"安吉路","SECT":"二段","MAREA":" ","LANE":" ","ALLEY":" ","HOUSE_NO":"５１號","E_COORD97":167028.48000000001,"N_COORD97":2550716.1000000001,"ADDRESS":"安吉路二段５１號","OBJECTID":625118},"geometry":{"x":167028.48000000045,"y":2550716.1000000015}},{"attributes":{"ID":625146,"DIS_CODE":0,"TOWNNAME":"安南區","LI":"溪心里","LIN":"4鄰","STREET":"安吉路","SECT":"二段","MAREA":" ","LANE":" ","ALLEY":" ","HOUSE_NO":"４９號","E_COORD97":167027.79000000001,"N_COORD97":2550710.2599999998,"ADDRESS":"安吉路二段４９號","OBJECTID":625119},"geometry":{"x":167027.79000000004,"y":2550710.2599999998}},{"attributes":{"ID":625147,"DIS_CODE":0,"TOWNNAME":"安南區","LI":"安慶里","LIN":"25鄰","STREET":"北安二街","SECT":" ","MAREA":" ","LANE":" ","ALLEY":" ","HOUSE_NO":"５號","E_COORD97":168655.42000000001,"N_COORD97":2548451.1899999999,"ADDRESS":"北安二街５號","OBJECTID":625120},"geometry":{"x":168655.41999999993,"y":2548451.1900000013}},{"attributes":{"ID":625148,"DIS_CODE":0,"TOWNNAME":"安南區","LI":"頂安里","LIN":"13鄰","STREET":"安中路","SECT":"一段","MAREA":" ","LANE":" ","ALLEY":" ","HOUSE_NO":"２９７號","E_COORD97":168506.23999999999,"N_COORD97":2548651.71,"ADDRESS":"安中路一段２９７號","OBJECTID":625121},"geometry":{"x":168506.24000000022,"y":2548651.7100000046}},{"attributes":{"ID":625149,"DIS_CODE":0,"TOWNNAME":"安南區","LI":"南興里","LIN":"8鄰","STREET":"公學路","SECT":"六段","MAREA":" ","LANE":" ","ALLEY":" ","HOUSE_NO":"１８１號","E_COORD97":163403.5,"N_COORD97":2553141.5600000001,"ADDRESS":"公學路六段１８１號","OBJECTID":625122},"geometry":{"x":163403.5,"y":2553141.5600000024}},{"attributes":{"ID":625150,"DIS_CODE":0,"TOWNNAME":"安南區","LI":"淵東里","LIN":"4鄰","STREET":"仁安路","SECT":" ","MAREA":" ","LANE":" ","ALLEY":" ","HOUSE_NO":"１５１號","E_COORD97":165824.03,"N_COORD97":2550209.2400000002,"ADDRESS":"仁安路１５１號","OBJECTID":625123},"geometry":{"x":165824.03000000026,"y":2550209.2400000002}},{"attributes":{"ID":625151,"DIS_CODE":0,"TOWNNAME":"安南區","LI":"安順里","LIN":"20鄰","STREET":"安豐二街","SECT":" ","MAREA":" ","LANE":" ","ALLEY":" ","HOUSE_NO":"５５號","E_COORD97":169535.39000000001,"N_COORD97":2549974.6800000002,"ADDRESS":"安豐二街５５號","OBJECTID":625124},"geometry":{"x":169535.38999999966,"y":2549974.6799999997}},{"attributes":{"ID":625152,"DIS_CODE":0,"TOWNNAME":"安南區","LI":"海東里","LIN":"23鄰","STREET":"大安街","SECT":" ","MAREA":" ","LANE":" ","ALLEY":" ","HOUSE_NO":"７９２號","E_COORD97":166908.70000000001,"N_COORD97":2549107.6299999999,"ADDRESS":"大安街７９２號","OBJECTID":625125},"geometry":{"x":166908.70000000112,"y":2549107.6299999971}},{"attributes":{"ID":625153,"DIS_CODE":0,"TOWNNAME":"安南區","LI":"頂安里","LIN":"13鄰","STREET":"安中路","SECT":"一段","MAREA":" ","LANE":" ","ALLEY":" ","HOUSE_NO":"２９５號","E_COORD97":168509.118097,"N_COORD97":2548650.1001499998,"ADDRESS":"安中路一段２９５號","OBJECTID":625126},"geometry":{"x":168509.11809700169,"y":2548650.100145001}},{"attributes":{"ID":625154,"DIS_CODE":0,"TOWNNAME":"安南區","LI":"頂安里","LIN":"13鄰","STREET":"安中路","SECT":"一段","MAREA":" ","LANE":" ","ALLEY":" ","HOUSE_NO":"２９３號","E_COORD97":168512.93327899999,"N_COORD97":2548647.9834799999,"ADDRESS":"安中路一段２９３號","OBJECTID":625127},"geometry":{"x":168512.93327900022,"y":2548647.9834790006}},{"attributes":{"ID":625155,"DIS_CODE":0,"TOWNNAME":"安南區","LI":"頂安里","LIN":"13鄰","STREET":"安中路","SECT":"一段","MAREA":" ","LANE":" ","ALLEY":" ","HOUSE_NO":"２９１號","E_COORD97":168516.96041599999,"N_COORD97":2548645.65515,"ADDRESS":"安中路一段２９１號","OBJECTID":625128},"geometry":{"x":168516.96041600127,"y":2548645.655147003}},{"attributes":{"ID":625156,"DIS_CODE":0,"TOWNNAME":"安南區","LI":"頂安里","LIN":"13鄰","STREET":"安中路","SECT":"一段","MAREA":" ","LANE":" ","ALLEY":" ","HOUSE_NO":"２８５號","E_COORD97":168527.77009899999,"N_COORD97":2548638.8818199998,"ADDRESS":"安中路一段２８５號","OBJECTID":625129},"geometry":{"x":168527.77009900007,"y":2548638.8818170018}},{"attributes":{"ID":625157,"DIS_CODE":0,"TOWNNAME":"安南區","LI":"頂安里","LIN":"13鄰","STREET":"安中路","SECT":"一段","MAREA":" ","LANE":" ","ALLEY":" ","HOUSE_NO":"２８３號","E_COORD97":168532.22114499999,"N_COORD97":2548635.9184900001,"ADDRESS":"安中路一段２８３號","OBJECTID":625130},"geometry":{"x":168532.22114500031,"y":2548635.9184859991}},{"attributes":{"ID":625158,"DIS_CODE":0,"TOWNNAME":"安南區","LI":"溪心里","LIN":"4鄰","STREET":"安吉路","SECT":"二段","MAREA":" ","LANE":" ","ALLEY":" ","HOUSE_NO":"５７號","E_COORD97":167030.72449399999,"N_COORD97":2550735.4340300001,"ADDRESS":"安吉路二段５７號","OBJECTID":625131},"geometry":{"x":167030.72449399997,"y":2550735.4340300038}},{"attributes":{"ID":625159,"DIS_CODE":0,"TOWNNAME":"安南區","LI":"溪心里","LIN":"4鄰","STREET":"安吉路","SECT":"二段","MAREA":" ","LANE":" ","ALLEY":" ","HOUSE_NO":"５９號","E_COORD97":167031.14796100001,"N_COORD97":2550740.7256900002,"ADDRESS":"安吉路二段５９號","OBJECTID":625132},"geometry":{"x":167031.14796099998,"y":2550740.7256940044}},{"attributes":{"ID":625160,"DIS_CODE":0,"TOWNNAME":"安南區","LI":"溪心里","LIN":"4鄰","STREET":"安吉路","SECT":"二段","MAREA":" ","LANE":" ","ALLEY":" ","HOUSE_NO":"６１號","E_COORD97":167031.78315999999,"N_COORD97":2550745.3823600002,"ADDRESS":"安吉路二段６１號","OBJECTID":625133},"geometry":{"x":167031.78316000011,"y":2550745.3823579997}},{"attributes":{"ID":625161,"DIS_CODE":0,"TOWNNAME":"安南區","LI":"溪心里","LIN":"4鄰","STREET":"安吉路","SECT":"二段","MAREA":" ","LANE":" ","ALLEY":" ","HOUSE_NO":"６３號","E_COORD97":167032.206626,"N_COORD97":2550749.6156899999,"ADDRESS":"安吉路二段６３號","OBJECTID":625134},"geometry":{"x":167032.20662599988,"y":2550749.615689002}},{"attributes":{"ID":625162,"DIS_CODE":0,"TOWNNAME":"安南區","LI":"溪心里","LIN":"4鄰","STREET":"安吉路","SECT":"二段","MAREA":" ","LANE":" ","ALLEY":" ","HOUSE_NO":"５３號","E_COORD97":167028.81889699999,"N_COORD97":2550720.8290400002,"ADDRESS":"安吉路二段５３號","OBJECTID":625135},"geometry":{"x":167028.81889699958,"y":2550720.8290380016}},{"attributes":{"ID":625163,"DIS_CODE":0,"TOWNNAME":"安南區","LI":"溪心里","LIN":"4鄰","STREET":"安吉路","SECT":"二段","MAREA":" ","LANE":" ","ALLEY":" ","HOUSE_NO":"５５號","E_COORD97":167029.66582900001,"N_COORD97":2550725.9090399998,"ADDRESS":"安吉路二段５５號","OBJECTID":625136},"geometry":{"x":167029.66582900006,"y":2550725.909035001}},{"attributes":{"ID":625164,"DIS_CODE":0,"TOWNNAME":"安南區","LI":"溪心里","LIN":"4鄰","STREET":"安吉路","SECT":"二段","MAREA":" ","LANE":" ","ALLEY":" ","HOUSE_NO":"６５號","E_COORD97":167033.26529099999,"N_COORD97":2550754.2723500002,"ADDRESS":"安吉路二段６５號","OBJECTID":625137},"geometry":{"x":167033.26529099979,"y":2550754.2723530028}},{"attributes":{"ID":625165,"DIS_CODE":0,"TOWNNAME":"安南區","LI":"溪心里","LIN":"4鄰","STREET":"本原街","SECT":"二段","MAREA":" ","LANE":" ","ALLEY":" ","HOUSE_NO":"３２號","E_COORD97":166977.791233,"N_COORD97":2550700.50905,"ADDRESS":"本原街二段３２號","OBJECTID":625138},"geometry":{"x":166977.79123300128,"y":2550700.5090490002}},{"attributes":{"ID":625166,"DIS_CODE":0,"TOWNNAME":"安南區","LI":"溪心里","LIN":"4鄰","STREET":"本原街","SECT":"二段","MAREA":" ","LANE":" ","ALLEY":" ","HOUSE_NO":"３０號","E_COORD97":166985.413623,"N_COORD97":2550699.0273799999,"ADDRESS":"本原街二段３０號","OBJECTID":625139},"geometry":{"x":166985.41362299956,"y":2550699.0273829997}},{"attributes":{"ID":625167,"DIS_CODE":0,"TOWNNAME":"安南區","LI":"溪心里","LIN":"4鄰","STREET":"本原街","SECT":"二段","MAREA":" ","LANE":" ","ALLEY":" ","HOUSE_NO":"２８號","E_COORD97":166991.13041499999,"N_COORD97":2550697.3340500002,"ADDRESS":"本原街二段２８號","OBJECTID":625140},"geometry":{"x":166991.13041500002,"y":2550697.334051}},{"attributes":{"ID":625168,"DIS_CODE":0,"TOWNNAME":"安南區","LI":"溪心里","LIN":"4鄰","STREET":"本原街","SECT":"二段","MAREA":" ","LANE":" ","ALLEY":" ","HOUSE_NO":"２６號","E_COORD97":166995.78854199999,"N_COORD97":2550695.4290499999,"ADDRESS":"本原街二段２６號","OBJECTID":625141},"geometry":{"x":166995.78854200058,"y":2550695.4290520009}},{"attributes":{"ID":625169,"DIS_CODE":0,"TOWNNAME":"安南區","LI":"溪心里","LIN":"4鄰","STREET":"本原街","SECT":"二段","MAREA":" ","LANE":" ","ALLEY":" ","HOUSE_NO":"２２號","E_COORD97":167000.446669,"N_COORD97":2550692.8890499999,"ADDRESS":"本原街二段２２號","OBJECTID":625142},"geometry":{"x":167000.44666900113,"y":2550692.889053002}},{"attributes":{"ID":625170,"DIS_CODE":0,"TOWNNAME":"安南區","LI":"溪心里","LIN":"4鄰","STREET":"本原街","SECT":"二段","MAREA":" ","LANE":" ","ALLEY":" ","HOUSE_NO":"２０號","E_COORD97":167005.316529,"N_COORD97":2550692.4657200002,"ADDRESS":"本原街二段２０號","OBJECTID":625143},"geometry":{"x":167005.31652899925,"y":2550692.4657200035}},{"attributes":{"ID":625171,"DIS_CODE":0,"TOWNNAME":"安南區","LI":"溪心里","LIN":"4鄰","STREET":"安吉路","SECT":"二段","MAREA":" ","LANE":" ","ALLEY":" ","HOUSE_NO":"６７號","E_COORD97":167034.32395600001,"N_COORD97":2550759.3523499998,"ADDRESS":"安吉路二段６７號","OBJECTID":625144},"geometry":{"x":167034.32395600062,"y":2550759.3523510024}},{"attributes":{"ID":625172,"DIS_CODE":0,"TOWNNAME":"安南區","LI":"安順里","LIN":"20鄰","STREET":"安豐二街","SECT":" ","MAREA":" ","LANE":" ","ALLEY":" ","HOUSE_NO":"５３號","E_COORD97":169539.35999999999,"N_COORD97":2549974.3599999999,"ADDRESS":"安豐二街５３號","OBJECTID":625145},"geometry":{"x":169539.36000000127,"y":2549974.3599999994}},{"attributes":{"ID":625173,"DIS_CODE":0,"TOWNNAME":"安南區","LI":"安順里","LIN":"20鄰","STREET":"安豐二街","SECT":" ","MAREA":" ","LANE":" ","ALLEY":" ","HOUSE_NO":"５７號","E_COORD97":169531.26999999999,"N_COORD97":2549975,"ADDRESS":"安豐二街５７號","OBJECTID":625146},"geometry":{"x":169531.26999999955,"y":2549975.0000000019}},{"attributes":{"ID":625174,"DIS_CODE":0,"TOWNNAME":"安南區","LI":"安順里","LIN":"20鄰","STREET":"安豐二街","SECT":" ","MAREA":" ","LANE":" ","ALLEY":" ","HOUSE_NO":"５９號","E_COORD97":169527.29999999999,"N_COORD97":2549975.1600000001,"ADDRESS":"安豐二街５９號","OBJECTID":625147},"geometry":{"x":169527.30000000075,"y":2549975.1600000001}},{"attributes":{"ID":625175,"DIS_CODE":0,"TOWNNAME":"麻豆區","LI":"保安里","LIN":"5鄰","STREET":"興中路","SECT":" ","MAREA":" ","LANE":" ","ALLEY":" ","HOUSE_NO":"７７號","E_COORD97":173239.26000000001,"N_COORD97":2564830.2400000002,"ADDRESS":"興中路７７號","OBJECTID":625148},"geometry":{"x":173239.26000000164,"y":2564830.2400000021}},{"attributes":{"ID":625176,"DIS_CODE":0,"TOWNNAME":"安南區","LI":"城南里","LIN":"14鄰","STREET":"城南路","SECT":" ","MAREA":" ","LANE":" ","ALLEY":" ","HOUSE_NO":"７３號","E_COORD97":160238.79999999999,"N_COORD97":2550714.9900000002,"ADDRESS":"城南路７３號","OBJECTID":625149},"geometry":{"x":160238.80000000075,"y":2550714.9900000021}},{"attributes":{"ID":625177,"DIS_CODE":0,"TOWNNAME":"安南區","LI":"新順里","LIN":"15鄰","STREET":"培安二街","SECT":" ","MAREA":" ","LANE":" ","ALLEY":" ","HOUSE_NO":"７０號","E_COORD97":169384.01000000001,"N_COORD97":2549777.0499999998,"ADDRESS":"培安二街７０號","OBJECTID":625150},"geometry":{"x":169384.00999999978,"y":2549777.0500000007}},{"attributes":{"ID":625178,"DIS_CODE":0,"TOWNNAME":"安南區","LI":"新順里","LIN":"22鄰","STREET":"培安路","SECT":" ","MAREA":" ","LANE":" ","ALLEY":" ","HOUSE_NO":"６９號","E_COORD97":169264.89999999999,"N_COORD97":2549647.4100000001,"ADDRESS":"培安路６９號","OBJECTID":625151},"geometry":{"x":169264.90000000037,"y":2549647.410000002}},{"attributes":{"ID":625179,"DIS_CODE":0,"TOWNNAME":"麻豆區","LI":"保安里","LIN":"13鄰","STREET":"興中路","SECT":" ","MAREA":" ","LANE":" ","ALLEY":" ","HOUSE_NO":"７８號","E_COORD97":173268.44,"N_COORD97":2564805.8900000001,"ADDRESS":"興中路７８號","OBJECTID":625152},"geometry":{"x":173268.44000000041,"y":2564805.8900000025}},{"attributes":{"ID":625180,"DIS_CODE":0,"TOWNNAME":"安南區","LI":"新順里","LIN":"19鄰","STREET":"安豐六街","SECT":" ","MAREA":" ","LANE":" ","ALLEY":" ","HOUSE_NO":"５６號","E_COORD97":169381.39999999999,"N_COORD97":2549683.73,"ADDRESS":"安豐六街５６號","OBJECTID":625153},"geometry":{"x":169381.4000000013,"y":2549683.7300000004}},{"attributes":{"ID":625181,"DIS_CODE":0,"TOWNNAME":"安南區","LI":"淵中里","LIN":"18鄰","STREET":"安中路","SECT":"四段","MAREA":" ","LANE":" ","ALLEY":" ","HOUSE_NO":"１５９號","E_COORD97":164887.57000000001,"N_COORD97":2550031.52,"ADDRESS":"安中路四段１５９號","OBJECTID":625154},"geometry":{"x":164887.57000000123,"y":2550031.5200000033}},{"attributes":{"ID":625182,"DIS_CODE":0,"TOWNNAME":"安南區","LI":"淵中里","LIN":"18鄰","STREET":"安中路","SECT":"四段","MAREA":" ","LANE":" ","ALLEY":" ","HOUSE_NO":"１７７號","E_COORD97":164850.10999999999,"N_COORD97":2550049.6200000001,"ADDRESS":"安中路四段１７７號","OBJECTID":625155},"geometry":{"x":164850.11000000127,"y":2550049.6200000029}},{"attributes":{"ID":625183,"DIS_CODE":0,"TOWNNAME":"安南區","LI":"東和里","LIN":"7鄰","STREET":"環館五路","SECT":" ","MAREA":" ","LANE":" ","ALLEY":" ","HOUSE_NO":"１號","E_COORD97":171254.94,"N_COORD97":2551457.6099999999,"ADDRESS":"環館五路１號","OBJECTID":625156},"geometry":{"x":171254.94000000041,"y":2551457.6099999994}},{"attributes":{"ID":625184,"DIS_CODE":0,"TOWNNAME":"安南區","LI":"淵東里","LIN":"11鄰","STREET":"仁安路","SECT":" ","MAREA":" ","LANE":" ","ALLEY":" ","HOUSE_NO":"４５號","E_COORD97":165549.25,"N_COORD97":2550088.2200000002,"ADDRESS":"仁安路４５號","OBJECTID":625157},"geometry":{"x":165549.25000000093,"y":2550088.2200000007}},{"attributes":{"ID":625185,"DIS_CODE":0,"TOWNNAME":"安南區","LI":"東和里","LIN":"7鄰","STREET":"環館北路","SECT":" ","MAREA":" ","LANE":" ","ALLEY":" ","HOUSE_NO":"６５９號","E_COORD97":171527.85999999999,"N_COORD97":2551693.6400000001,"ADDRESS":"環館北路６５９號","OBJECTID":625158},"geometry":{"x":171527.86000000034,"y":2551693.6400000025}},{"attributes":{"ID":625186,"DIS_CODE":0,"TOWNNAME":"安南區","LI":"安慶里","LIN":"25鄰","STREET":"北安二街","SECT":" ","MAREA":" ","LANE":" ","ALLEY":" ","HOUSE_NO":"７號","E_COORD97":168651.89999999999,"N_COORD97":2548451.3799999999,"ADDRESS":"北安二街７號","OBJECTID":625159},"geometry":{"x":168651.9000000013,"y":2548451.379999999}},{"attributes":{"ID":625187,"DIS_CODE":0,"TOWNNAME":"安南區","LI":"東和里","LIN":"7鄰","STREET":"環館路","SECT":" ","MAREA":" ","LANE":" ","ALLEY":" ","HOUSE_NO":"５００號","E_COORD97":171257.06,"N_COORD97":2551436.9700000002,"ADDRESS":"環館路５００號","OBJECTID":625160},"geometry":{"x":171257.06000000145,"y":2551436.9700000025}},{"attributes":{"ID":625188,"DIS_CODE":0,"TOWNNAME":"安南區","LI":"淵中里","LIN":"18鄰","STREET":"安中路","SECT":"四段","MAREA":" ","LANE":" ","ALLEY":" ","HOUSE_NO":"１５３號","E_COORD97":164909.32000000001,"N_COORD97":2550020.8900000001,"ADDRESS":"安中路四段１５３號","OBJECTID":625161},"geometry":{"x":164909.32000000216,"y":2550020.8900000025}},{"attributes":{"ID":625189,"DIS_CODE":0,"TOWNNAME":"安南區","LI":"淵中里","LIN":"18鄰","STREET":"安中路","SECT":"四段","MAREA":" ","LANE":" ","ALLEY":" ","HOUSE_NO":"１５３之１號","E_COORD97":164906.14999999999,"N_COORD97":2550022.9500000002,"ADDRESS":"安中路四段１５３之１號","OBJECTID":625162},"geometry":{"x":164906.1500000013,"y":2550022.9500000011}},{"attributes":{"ID":625190,"DIS_CODE":0,"TOWNNAME":"安南區","LI":"淵中里","LIN":"18鄰","STREET":"安中路","SECT":"四段","MAREA":" ","LANE":" ","ALLEY":" ","HOUSE_NO":"１５３之２號","E_COORD97":164902.17999999999,"N_COORD97":2550025.02,"ADDRESS":"安中路四段１５３之２號","OBJECTID":625163},"geometry":{"x":164902.1799999997,"y":2550025.0200000014}},{"attributes":{"ID":625191,"DIS_CODE":0,"TOWNNAME":"安南區","LI":"東和里","LIN":"7鄰","STREET":"環館北路","SECT":" ","MAREA":" ","LANE":" ","ALLEY":" ","HOUSE_NO":"６６１號","E_COORD97":171521.665874,"N_COORD97":2551692.8065900002,"ADDRESS":"環館北路６６１號","OBJECTID":625164},"geometry":{"x":171521.66587400064,"y":2551692.8065940011}},{"attributes":{"ID":625192,"DIS_CODE":0,"TOWNNAME":"安南區","LI":"東和里","LIN":"7鄰","STREET":"環館北路","SECT":" ","MAREA":" ","LANE":" ","ALLEY":" ","HOUSE_NO":"６６３號","E_COORD97":171515.73443099999,"N_COORD97":2551691.7482599998,"ADDRESS":"環館北路６６３號","OBJECTID":625165},"geometry":{"x":171515.73443100136,"y":2551691.7482620012}},{"attributes":{"ID":625193,"DIS_CODE":0,"TOWNNAME":"安南區","LI":"東和里","LIN":"7鄰","STREET":"環館北路","SECT":" ","MAREA":" ","LANE":" ","ALLEY":" ","HOUSE_NO":"６６５號","E_COORD97":171509.80298800001,"N_COORD97":2551691.7482599998,"ADDRESS":"環館北路６６５號","OBJECTID":625166},"geometry":{"x":171509.80298800021,"y":2551691.7482620012}},{"attributes":{"ID":625194,"DIS_CODE":0,"TOWNNAME":"安南區","LI":"東和里","LIN":"7鄰","STREET":"環館北路","SECT":" ","MAREA":" ","LANE":" ","ALLEY":" ","HOUSE_NO":"６６７號","E_COORD97":171504.08338200001,"N_COORD97":2551691.5366000002,"ADDRESS":"環館北路６６７號","OBJECTID":625167},"geometry":{"x":171504.08338200115,"y":2551691.536595}},{"attributes":{"ID":625195,"DIS_CODE":0,"TOWNNAME":"安南區","LI":"東和里","LIN":"7鄰","STREET":"環館北路","SECT":" ","MAREA":" ","LANE":" ","ALLEY":" ","HOUSE_NO":"６６９號","E_COORD97":171497.72826500001,"N_COORD97":2551690.6899299999,"ADDRESS":"環館北路６６９號","OBJECTID":625168},"geometry":{"x":171497.72826500051,"y":2551690.6899290029}},{"attributes":{"ID":625196,"DIS_CODE":0,"TOWNNAME":"安南區","LI":"東和里","LIN":"7鄰","STREET":"環館三路","SECT":" ","MAREA":" ","LANE":" ","ALLEY":" ","HOUSE_NO":"３３號","E_COORD97":171550.739287,"N_COORD97":2551688.0453499998,"ADDRESS":"環館三路３３號","OBJECTID":625169},"geometry":{"x":171550.73928700108,"y":2551688.0453450009}},{"attributes":{"ID":625197,"DIS_CODE":0,"TOWNNAME":"安南區","LI":"東和里","LIN":"7鄰","STREET":"環館三路","SECT":" ","MAREA":" ","LANE":" ","ALLEY":" ","HOUSE_NO":"３１號","E_COORD97":171550.95112400001,"N_COORD97":2551680.4253500002,"ADDRESS":"環館三路３１號","OBJECTID":625170},"geometry":{"x":171550.95112400036,"y":2551680.4253490008}},{"attributes":{"ID":625198,"DIS_CODE":0,"TOWNNAME":"安南區","LI":"東和里","LIN":"7鄰","STREET":"環館三路","SECT":" ","MAREA":" ","LANE":" ","ALLEY":" ","HOUSE_NO":"２７號","E_COORD97":171554.07697299999,"N_COORD97":2551664.6020300002,"ADDRESS":"環館三路２７號","OBJECTID":625171},"geometry":{"x":171554.07697300054,"y":2551664.6020260006}},{"attributes":{"ID":625199,"DIS_CODE":0,"TOWNNAME":"安南區","LI":"淵中里","LIN":"18鄰","STREET":"安中路","SECT":"四段","MAREA":" ","LANE":" ","ALLEY":" ","HOUSE_NO":"１９５號","E_COORD97":164796.92999999999,"N_COORD97":2550072.6400000001,"ADDRESS":"安中路四段１９５號","OBJECTID":625172},"geometry":{"x":164796.9299999997,"y":2550072.6400000025}},{"attributes":{"ID":625200,"DIS_CODE":0,"TOWNNAME":"安南區","LI":"州南里","LIN":"4鄰","STREET":"安和路","SECT":"四段","MAREA":" ","LANE":" ","ALLEY":" ","HOUSE_NO":"６０７號","E_COORD97":169922.54999999999,"N_COORD97":2551464.6099999999,"ADDRESS":"安和路四段６０７號","OBJECTID":625173},"geometry":{"x":169922.54999999981,"y":2551464.6099999975}},{"attributes":{"ID":625201,"DIS_CODE":0,"TOWNNAME":"安南區","LI":"州南里","LIN":"4鄰","STREET":"安和路","SECT":"四段","MAREA":" ","LANE":" ","ALLEY":" ","HOUSE_NO":"６０９號","E_COORD97":169923.22,"N_COORD97":2551468.2799999998,"ADDRESS":"安和路四段６０９號","OBJECTID":625174},"geometry":{"x":169923.21999999974,"y":2551468.2800000012}},{"attributes":{"ID":625202,"DIS_CODE":0,"TOWNNAME":"安南區","LI":"州南里","LIN":"4鄰","STREET":"安和路","SECT":"四段","MAREA":" ","LANE":" ","ALLEY":" ","HOUSE_NO":"６１１號","E_COORD97":169922.39999999999,"N_COORD97":2551471.27,"ADDRESS":"安和路四段６１１號","OBJECTID":625175},"geometry":{"x":169922.40000000037,"y":2551471.2700000014}},{"attributes":{"ID":625203,"DIS_CODE":0,"TOWNNAME":"安南區","LI":"州南里","LIN":"4鄰","STREET":"安和路","SECT":"四段","MAREA":" ","LANE":" ","ALLEY":" ","HOUSE_NO":"６１３號","E_COORD97":169921.85999999999,"N_COORD97":2551475.6200000001,"ADDRESS":"安和路四段６１３號","OBJECTID":625176},"geometry":{"x":169921.86000000127,"y":2551475.620000001}},{"attributes":{"ID":625204,"DIS_CODE":0,"TOWNNAME":"安南區","LI":"州南里","LIN":"4鄰","STREET":"安和路","SECT":"四段","MAREA":" ","LANE":" ","ALLEY":" ","HOUSE_NO":"６１５號","E_COORD97":169922.13,"N_COORD97":2551480.5099999998,"ADDRESS":"安和路四段６１５號","OBJECTID":625177},"geometry":{"x":169922.12999999989,"y":2551480.5100000016}},{"attributes":{"ID":625205,"DIS_CODE":0,"TOWNNAME":"安南區","LI":"州南里","LIN":"4鄰","STREET":"安和路","SECT":"四段","MAREA":" ","LANE":" ","ALLEY":" ","HOUSE_NO":"６１７號","E_COORD97":169925.67000000001,"N_COORD97":2551485.77,"ADDRESS":"安和路四段６１７號","OBJECTID":625178},"geometry":{"x":169925.66999999993,"y":2551485.7700000014}},{"attributes":{"ID":625206,"DIS_CODE":0,"TOWNNAME":"麻豆區","LI":"保安里","LIN":"13鄰","STREET":"興中路","SECT":" ","MAREA":" ","LANE":" ","ALLEY":" ","HOUSE_NO":"８０號","E_COORD97":173272.89000000001,"N_COORD97":2564805.7799999998,"ADDRESS":"興中路８０號","OBJECTID":625179},"geometry":{"x":173272.8900000006,"y":2564805.7800000012}},{"attributes":{"ID":625207,"DIS_CODE":0,"TOWNNAME":"麻豆區","LI":"保安里","LIN":"4鄰","STREET":"興中路","SECT":" ","MAREA":" ","LANE":" ","ALLEY":" ","HOUSE_NO":"５１號","E_COORD97":173184.14999999999,"N_COORD97":2564834.3999999999,"ADDRESS":"興中路５１號","OBJECTID":625180},"geometry":{"x":173184.15000000037,"y":2564834.4000000004}},{"attributes":{"ID":625208,"DIS_CODE":0,"TOWNNAME":"安南區","LI":"海西里","LIN":"12鄰","STREET":"海環街","SECT":" ","MAREA":" ","LANE":" ","ALLEY":" ","HOUSE_NO":"１８６號","E_COORD97":166363.32000000001,"N_COORD97":2548672.9700000002,"ADDRESS":"海環街１８６號","OBJECTID":625181},"geometry":{"x":166363.3200000003,"y":2548672.9700000007}},{"attributes":{"ID":625209,"DIS_CODE":0,"TOWNNAME":"安南區","LI":"海西里","LIN":"11鄰","STREET":"海中街","SECT":" ","MAREA":" ","LANE":" ","ALLEY":" ","HOUSE_NO":"４９號","E_COORD97":166467.01000000001,"N_COORD97":2548876.1200000001,"ADDRESS":"海中街４９號","OBJECTID":625182},"geometry":{"x":166467.01000000164,"y":2548876.1200000048}},{"attributes":{"ID":625210,"DIS_CODE":0,"TOWNNAME":"安南區","LI":"海西里","LIN":"11鄰","STREET":"海中街","SECT":" ","MAREA":" ","LANE":" ","ALLEY":" ","HOUSE_NO":"２７之１號","E_COORD97":166492.89000000001,"N_COORD97":2548832.5299999998,"ADDRESS":"海中街２７之１號","OBJECTID":625183},"geometry":{"x":166492.88999999966,"y":2548832.5300000012}},{"attributes":{"ID":625211,"DIS_CODE":0,"TOWNNAME":"安南區","LI":"海西里","LIN":"11鄰","STREET":"海中街","SECT":" ","MAREA":" ","LANE":" ","ALLEY":" ","HOUSE_NO":"４７之１號","E_COORD97":166459.23999999999,"N_COORD97":2548872.6800000002,"ADDRESS":"海中街４７之１號","OBJECTID":625184},"geometry":{"x":166459.24000000115,"y":2548872.6799999997}},{"attributes":{"ID":625212,"DIS_CODE":0,"TOWNNAME":"安南區","LI":"安慶里","LIN":"25鄰","STREET":"北安二街","SECT":" ","MAREA":" ","LANE":" ","ALLEY":" ","HOUSE_NO":"１１號","E_COORD97":168644.31,"N_COORD97":2548450.6400000001,"ADDRESS":"北安二街１１號","OBJECTID":625185},"geometry":{"x":168644.30999999959,"y":2548450.6400000006}},{"attributes":{"ID":625213,"DIS_CODE":0,"TOWNNAME":"安南區","LI":"安慶里","LIN":"25鄰","STREET":"北安二街","SECT":" ","MAREA":" ","LANE":" ","ALLEY":" ","HOUSE_NO":"１３號","E_COORD97":168640.23000000001,"N_COORD97":2548450.4500000002,"ADDRESS":"北安二街１３號","OBJECTID":625186},"geometry":{"x":168640.23000000138,"y":2548450.4499999993}},{"attributes":{"ID":625214,"DIS_CODE":0,"TOWNNAME":"安南區","LI":"安順里","LIN":"8鄰","STREET":"安和路","SECT":"四段","MAREA":" ","LANE":" ","ALLEY":" ","HOUSE_NO":"８３號","E_COORD97":169922.54000000001,"N_COORD97":2550304.2400000002,"ADDRESS":"安和路四段８３號","OBJECTID":625187},"geometry":{"x":169922.54000000097,"y":2550304.2400000002}},{"attributes":{"ID":625215,"DIS_CODE":0,"TOWNNAME":"安南區","LI":"州南里","LIN":"4鄰","STREET":"安和路","SECT":"四段","MAREA":" ","LANE":" ","ALLEY":" ","HOUSE_NO":"５６７號","E_COORD97":169911.92000000001,"N_COORD97":2551396.2599999998,"ADDRESS":"安和路四段５６７號","OBJECTID":625188},"geometry":{"x":169911.91999999993,"y":2551396.2600000035}},{"attributes":{"ID":625216,"DIS_CODE":0,"TOWNNAME":"安南區","LI":"州南里","LIN":"4鄰","STREET":"安和路","SECT":"四段","MAREA":" ","LANE":" ","ALLEY":" ","HOUSE_NO":"５９３號","E_COORD97":169921.42999999999,"N_COORD97":2551434.4399999999,"ADDRESS":"安和路四段５９３號","OBJECTID":625189},"geometry":{"x":169921.4299999997,"y":2551434.4399999995}},{"attributes":{"ID":625217,"DIS_CODE":0,"TOWNNAME":"安南區","LI":"州南里","LIN":"4鄰","STREET":"安和路","SECT":"四段","MAREA":" ","LANE":" ","ALLEY":" ","HOUSE_NO":"５０７號","E_COORD97":169913.98999999999,"N_COORD97":2551254.0499999998,"ADDRESS":"安和路四段５０７號","OBJECTID":625190},"geometry":{"x":169913.99000000209,"y":2551254.0500000026}},{"attributes":{"ID":625218,"DIS_CODE":0,"TOWNNAME":"安南區","LI":"州南里","LIN":"4鄰","STREET":"安和路","SECT":"四段","MAREA":" ","LANE":" ","ALLEY":" ","HOUSE_NO":"５０９號","E_COORD97":169916.17000000001,"N_COORD97":2551257.6099999999,"ADDRESS":"安和路四段５０９號","OBJECTID":625191},"geometry":{"x":169916.17000000086,"y":2551257.6099999994}},{"attributes":{"ID":625219,"DIS_CODE":0,"TOWNNAME":"安南區","LI":"州南里","LIN":"4鄰","STREET":"安和路","SECT":"四段","MAREA":" ","LANE":" ","ALLEY":" ","HOUSE_NO":"５１９號","E_COORD97":169917.95000000001,"N_COORD97":2551266.79,"ADDRESS":"安和路四段５１９號","OBJECTID":625192},"geometry":{"x":169917.95000000112,"y":2551266.7900000028}},{"attributes":{"ID":625220,"DIS_CODE":0,"TOWNNAME":"安南區","LI":"州南里","LIN":"4鄰","STREET":"安和路","SECT":"四段","MAREA":" ","LANE":" ","ALLEY":" ","HOUSE_NO":"５２５號","E_COORD97":169914.57999999999,"N_COORD97":2551284.6400000001,"ADDRESS":"安和路四段５２５號","OBJECTID":625193},"geometry":{"x":169914.58000000007,"y":2551284.6400000006}},{"attributes":{"ID":625221,"DIS_CODE":0,"TOWNNAME":"安南區","LI":"州南里","LIN":"4鄰","STREET":"安和路","SECT":"四段","MAREA":" ","LANE":" ","ALLEY":" ","HOUSE_NO":"５２７號","E_COORD97":169912.60000000001,"N_COORD97":2551293.54,"ADDRESS":"安和路四段５２７號","OBJECTID":625194},"geometry":{"x":169912.60000000149,"y":2551293.540000001}},{"attributes":{"ID":625222,"DIS_CODE":0,"TOWNNAME":"安南區","LI":"州南里","LIN":"5鄰","STREET":"長和路","SECT":"三段","MAREA":" ","LANE":" ","ALLEY":" ","HOUSE_NO":"４３號","E_COORD97":169852.20999999999,"N_COORD97":2551502.2400000002,"ADDRESS":"長和路三段４３號","OBJECTID":625195},"geometry":{"x":169852.20999999996,"y":2551502.2400000039}},{"attributes":{"ID":625223,"DIS_CODE":0,"TOWNNAME":"安南區","LI":"州南里","LIN":"4鄰","STREET":"安和路","SECT":"四段","MAREA":" ","LANE":" ","ALLEY":" ","HOUSE_NO":"５６１號","E_COORD97":169918.09,"N_COORD97":2551375.25,"ADDRESS":"安和路四段５６１號","OBJECTID":625196},"geometry":{"x":169918.09000000078,"y":2551375.25}},{"attributes":{"ID":625224,"DIS_CODE":0,"TOWNNAME":"安南區","LI":"州南里","LIN":"4鄰","STREET":"安和路","SECT":"四段","MAREA":" ","LANE":" ","ALLEY":" ","HOUSE_NO":"５６３號","E_COORD97":169920.14999999999,"N_COORD97":2551380.73,"ADDRESS":"安和路四段５６３號","OBJECTID":625197},"geometry":{"x":169920.1500000013,"y":2551380.7300000023}},{"attributes":{"ID":625225,"DIS_CODE":0,"TOWNNAME":"安南區","LI":"州南里","LIN":"1鄰","STREET":"安和路","SECT":"四段","MAREA":" ","LANE":" ","ALLEY":" ","HOUSE_NO":"３８２號","E_COORD97":169956.64000000001,"N_COORD97":2550996.6000000001,"ADDRESS":"安和路四段３８２號","OBJECTID":625198},"geometry":{"x":169956.6400000006,"y":2550996.5999999996}},{"attributes":{"ID":625226,"DIS_CODE":0,"TOWNNAME":"安南區","LI":"州南里","LIN":"4鄰","STREET":"安和路","SECT":"四段","MAREA":" ","LANE":" ","ALLEY":" ","HOUSE_NO":"５６５號","E_COORD97":169919.92000000001,"N_COORD97":2551385.0699999998,"ADDRESS":"安和路四段５６５號","OBJECTID":625199},"geometry":{"x":169919.92000000086,"y":2551385.0700000022}},{"attributes":{"ID":625227,"DIS_CODE":0,"TOWNNAME":"安南區","LI":"州南里","LIN":"4鄰","STREET":"安和路","SECT":"四段","MAREA":" ","LANE":" ","ALLEY":" ","HOUSE_NO":"５９５號","E_COORD97":169921.42999999999,"N_COORD97":2551440.0600000001,"ADDRESS":"安和路四段５９５號","OBJECTID":625200},"geometry":{"x":169921.4299999997,"y":2551440.0600000024}}]}