{"displayFieldName":"TOWNNAME","fieldAliases":{"ID":"ID","DIS_CODE":"DIS_CODE","TOWNNAME":"TOWNNAME","LI":"LI","LIN":"LIN","STREET":"STREET","SECT":"SECT","MAREA":"MAREA","LANE":"LANE","ALLEY":"ALLEY","HOUSE_NO":"HOUSE_NO","E_COORD97":"E_COORD97","N_COORD97":"N_COORD97","ADDRESS":"ADDRESS","OBJECTID":"OBJECTID"},"geometryType":"esriGeometryPoint","spatialReference":{"wkid":102443,"latestWkid":3826},"fields":[{"name":"ID","type":"esriFieldTypeDouble","alias":"ID"},{"name":"DIS_CODE","type":"esriFieldTypeInteger","alias":"DIS_CODE"},{"name":"TOWNNAME","type":"esriFieldTypeString","alias":"TOWNNAME","length":8},{"name":"LI","type":"esriFieldTypeString","alias":"LI","length":8},{"name":"LIN","type":"esriFieldTypeString","alias":"LIN","length":12},{"name":"STREET","type":"esriFieldTypeString","alias":"STREET","length":20},{"name":"SECT","type":"esriFieldTypeString","alias":"SECT","length":8},{"name":"MAREA","type":"esriFieldTypeString","alias":"MAREA","length":12},{"name":"LANE","type":"esriFieldTypeString","alias":"LANE","length":10},{"name":"ALLEY","type":"esriFieldTypeString","alias":"ALLEY","length":10},{"name":"HOUSE_NO","type":"esriFieldTypeString","alias":"HOUSE_NO","length":20},{"name":"E_COORD97","type":"esriFieldTypeDouble","alias":"E_COORD97"},{"name":"N_COORD97","type":"esriFieldTypeDouble","alias":"N_COORD97"},{"name":"ADDRESS","type":"esriFieldTypeString","alias":"ADDRESS","length":50},{"name":"OBJECTID","type":"esriFieldTypeOID","alias":"OBJECTID"}],"features":[{"attributes":{"ID":215802,"DIS_CODE":0,"TOWNNAME":"官田區","LI":"南\u25A0里","LIN":"2鄰","STREET":" ","SECT":" ","MAREA":"南\u25A0","LANE":" ","ALLEY":" ","HOUSE_NO":"４０號","E_COORD97":179030.29000000001,"N_COORD97":2568044.1200000001,"ADDRESS":"南\u25A0４０號","OBJECTID":215801},"geometry":{"x":179030.29000000097,"y":2568044.120000001}},{"attributes":{"ID":215803,"DIS_CODE":0,"TOWNNAME":"官田區","LI":"南\u25A0里","LIN":"2鄰","STREET":" ","SECT":" ","MAREA":"南\u25A0","LANE":" ","ALLEY":" ","HOUSE_NO":"４２號之１","E_COORD97":179000.60999999999,"N_COORD97":2568063.7200000002,"ADDRESS":"南\u25A0４２號之１","OBJECTID":215802},"geometry":{"x":179000.61000000034,"y":2568063.7200000007}},{"attributes":{"ID":215804,"DIS_CODE":0,"TOWNNAME":"官田區","LI":"南\u25A0里","LIN":"2鄰","STREET":" ","SECT":" ","MAREA":"南\u25A0","LANE":" ","ALLEY":" ","HOUSE_NO":"４３號之２","E_COORD97":178982.45999999999,"N_COORD97":2568098.3599999999,"ADDRESS":"南\u25A0４３號之２","OBJECTID":215803},"geometry":{"x":178982.45999999996,"y":2568098.3599999994}},{"attributes":{"ID":215805,"DIS_CODE":0,"TOWNNAME":"官田區","LI":"南\u25A0里","LIN":"2鄰","STREET":" ","SECT":" ","MAREA":"南\u25A0","LANE":" ","ALLEY":" ","HOUSE_NO":"４３號之３","E_COORD97":178978.82999999999,"N_COORD97":2568095.8300000001,"ADDRESS":"南\u25A0４３號之３","OBJECTID":215804},"geometry":{"x":178978.83000000007,"y":2568095.8300000001}},{"attributes":{"ID":215806,"DIS_CODE":0,"TOWNNAME":"官田區","LI":"南\u25A0里","LIN":"2鄰","STREET":" ","SECT":" ","MAREA":"南\u25A0","LANE":" ","ALLEY":" ","HOUSE_NO":"４３號","E_COORD97":178976.22,"N_COORD97":2568090.3999999999,"ADDRESS":"南\u25A0４３號","OBJECTID":215805},"geometry":{"x":178976.22000000067,"y":2568090.4000000041}},{"attributes":{"ID":215807,"DIS_CODE":0,"TOWNNAME":"麻豆區","LI":"磚井里","LIN":"11鄰","STREET":" ","SECT":" ","MAREA":"磚子井","LANE":" ","ALLEY":" ","HOUSE_NO":"１００號","E_COORD97":173391.82999999999,"N_COORD97":2563096.21,"ADDRESS":"磚子井１００號","OBJECTID":215806},"geometry":{"x":173391.83000000101,"y":2563096.2100000028}},{"attributes":{"ID":215808,"DIS_CODE":0,"TOWNNAME":"麻豆區","LI":"磚井里","LIN":"11鄰","STREET":" ","SECT":" ","MAREA":"磚子井","LANE":" ","ALLEY":" ","HOUSE_NO":"１０２號","E_COORD97":173392.91,"N_COORD97":2563142.04,"ADDRESS":"磚子井１０２號","OBJECTID":215807},"geometry":{"x":173392.91000000201,"y":2563142.040000001}},{"attributes":{"ID":215809,"DIS_CODE":0,"TOWNNAME":"麻豆區","LI":"磚井里","LIN":"11鄰","STREET":" ","SECT":" ","MAREA":"磚子井","LANE":" ","ALLEY":" ","HOUSE_NO":"１０３號","E_COORD97":173367.62,"N_COORD97":2563136.6699999999,"ADDRESS":"磚子井１０３號","OBJECTID":215808},"geometry":{"x":173367.62000000197,"y":2563136.6699999999}},{"attributes":{"ID":215810,"DIS_CODE":0,"TOWNNAME":"麻豆區","LI":"磚井里","LIN":"11鄰","STREET":" ","SECT":" ","MAREA":"磚子井","LANE":" ","ALLEY":" ","HOUSE_NO":"１０４號","E_COORD97":173368.45999999999,"N_COORD97":2563114.9500000002,"ADDRESS":"磚子井１０４號","OBJECTID":215809},"geometry":{"x":173368.45999999996,"y":2563114.950000003}},{"attributes":{"ID":215811,"DIS_CODE":0,"TOWNNAME":"麻豆區","LI":"磚井里","LIN":"11鄰","STREET":" ","SECT":" ","MAREA":"磚子井","LANE":" ","ALLEY":" ","HOUSE_NO":"１０５號之１１","E_COORD97":173254.32000000001,"N_COORD97":2563059.9300000002,"ADDRESS":"磚子井１０５號之１１","OBJECTID":215810},"geometry":{"x":173254.3200000003,"y":2563059.9299999997}},{"attributes":{"ID":215812,"DIS_CODE":0,"TOWNNAME":"麻豆區","LI":"磚井里","LIN":"11鄰","STREET":" ","SECT":" ","MAREA":"磚子井","LANE":" ","ALLEY":" ","HOUSE_NO":"１０５號之１","E_COORD97":173310.16,"N_COORD97":2563112.5699999998,"ADDRESS":"磚子井１０５號之１","OBJECTID":215811},"geometry":{"x":173310.16000000108,"y":2563112.5700000022}},{"attributes":{"ID":215813,"DIS_CODE":0,"TOWNNAME":"麻豆區","LI":"磚井里","LIN":"11鄰","STREET":" ","SECT":" ","MAREA":"磚子井","LANE":" ","ALLEY":" ","HOUSE_NO":"１０５號之２","E_COORD97":173236.57999999999,"N_COORD97":2563094.8300000001,"ADDRESS":"磚子井１０５號之２","OBJECTID":215812},"geometry":{"x":173236.58000000007,"y":2563094.8300000001}},{"attributes":{"ID":215814,"DIS_CODE":0,"TOWNNAME":"歸仁區","LI":"許厝里","LIN":"37鄰","STREET":"信義南路","SECT":" ","MAREA":" ","LANE":" ","ALLEY":" ","HOUSE_NO":"５０號","E_COORD97":178051.48999999999,"N_COORD97":2540596.29,"ADDRESS":"信義南路５０號","OBJECTID":215813},"geometry":{"x":178051.49000000115,"y":2540596.2899999991}},{"attributes":{"ID":215815,"DIS_CODE":0,"TOWNNAME":"歸仁區","LI":"後市里","LIN":"37鄰","STREET":"民族一街","SECT":" ","MAREA":" ","LANE":" ","ALLEY":" ","HOUSE_NO":"５６號","E_COORD97":177301.32999999999,"N_COORD97":2541027.75,"ADDRESS":"民族一街５６號","OBJECTID":215814},"geometry":{"x":177301.33000000101,"y":2541027.75}},{"attributes":{"ID":215816,"DIS_CODE":0,"TOWNNAME":"麻豆區","LI":"磚井里","LIN":"11鄰","STREET":" ","SECT":" ","MAREA":"磚子井","LANE":" ","ALLEY":" ","HOUSE_NO":"１０５號","E_COORD97":173335.26999999999,"N_COORD97":2563108.2200000002,"ADDRESS":"磚子井１０５號","OBJECTID":215815},"geometry":{"x":173335.26999999955,"y":2563108.2200000025}},{"attributes":{"ID":215817,"DIS_CODE":0,"TOWNNAME":"官田區","LI":"湖山里","LIN":"2鄰","STREET":" ","SECT":" ","MAREA":"烏山頭","LANE":" ","ALLEY":" ","HOUSE_NO":"１０號之２","E_COORD97":183297.75,"N_COORD97":2567539.1400000001,"ADDRESS":"烏山頭１０號之２","OBJECTID":215816},"geometry":{"x":183297.75000000093,"y":2567539.1400000006}},{"attributes":{"ID":215818,"DIS_CODE":0,"TOWNNAME":"官田區","LI":"湖山里","LIN":"2鄰","STREET":" ","SECT":" ","MAREA":"烏山頭","LANE":" ","ALLEY":" ","HOUSE_NO":"１０號","E_COORD97":183315,"N_COORD97":2567521.04,"ADDRESS":"烏山頭１０號","OBJECTID":215817},"geometry":{"x":183315,"y":2567521.0399999991}},{"attributes":{"ID":215819,"DIS_CODE":0,"TOWNNAME":"官田區","LI":"湖山里","LIN":"2鄰","STREET":" ","SECT":" ","MAREA":"烏山頭","LANE":" ","ALLEY":" ","HOUSE_NO":"１２號之１","E_COORD97":183272,"N_COORD97":2567557.2000000002,"ADDRESS":"烏山頭１２號之１","OBJECTID":215818},"geometry":{"x":183272.00000000093,"y":2567557.1999999993}},{"attributes":{"ID":215820,"DIS_CODE":0,"TOWNNAME":"官田區","LI":"湖山里","LIN":"2鄰","STREET":" ","SECT":" ","MAREA":"烏山頭","LANE":" ","ALLEY":" ","HOUSE_NO":"１２號之２","E_COORD97":183235.38,"N_COORD97":2567573.1400000001,"ADDRESS":"烏山頭１２號之２","OBJECTID":215819},"geometry":{"x":183235.38000000082,"y":2567573.1400000006}},{"attributes":{"ID":215821,"DIS_CODE":0,"TOWNNAME":"永康區","LI":"成功里","LIN":"45鄰","STREET":"中華路","SECT":" ","MAREA":" ","LANE":"１５４巷","ALLEY":"１８弄","HOUSE_NO":"２號十樓之２","E_COORD97":171692.57000000001,"N_COORD97":2544828.46,"ADDRESS":"中華路１５４巷１８弄２號十樓之２","OBJECTID":215820},"geometry":{"x":171692.5700000003,"y":2544828.4600000009}},{"attributes":{"ID":215822,"DIS_CODE":0,"TOWNNAME":"官田區","LI":"湖山里","LIN":"2鄰","STREET":" ","SECT":" ","MAREA":"烏山頭","LANE":" ","ALLEY":" ","HOUSE_NO":"１３號","E_COORD97":183337.38,"N_COORD97":2567554.1200000001,"ADDRESS":"烏山頭１３號","OBJECTID":215821},"geometry":{"x":183337.38000000082,"y":2567554.1200000029}},{"attributes":{"ID":215823,"DIS_CODE":0,"TOWNNAME":"官田區","LI":"湖山里","LIN":"2鄰","STREET":" ","SECT":" ","MAREA":"烏山頭","LANE":" ","ALLEY":" ","HOUSE_NO":"９號之１","E_COORD97":183314.35000000001,"N_COORD97":2567508.0600000001,"ADDRESS":"烏山頭９號之１","OBJECTID":215822},"geometry":{"x":183314.34999999963,"y":2567508.0600000005}},{"attributes":{"ID":215824,"DIS_CODE":0,"TOWNNAME":"白河區","LI":"大竹里","LIN":"2鄰","STREET":" ","SECT":" ","MAREA":"大排竹","LANE":" ","ALLEY":" ","HOUSE_NO":"１５之１號","E_COORD97":189926.10999999999,"N_COORD97":2585267.2400000002,"ADDRESS":"大排竹１５之１號","OBJECTID":215823},"geometry":{"x":189926.11000000034,"y":2585267.2400000021}},{"attributes":{"ID":215825,"DIS_CODE":0,"TOWNNAME":"永康區","LI":"成功里","LIN":"45鄰","STREET":"中華路","SECT":" ","MAREA":" ","LANE":"１５４巷","ALLEY":"１８弄","HOUSE_NO":"２號二樓之６","E_COORD97":171692.54000000001,"N_COORD97":2544828.46,"ADDRESS":"中華路１５４巷１８弄２號二樓之６","OBJECTID":215824},"geometry":{"x":171692.54000000004,"y":2544828.4600000009}},{"attributes":{"ID":215826,"DIS_CODE":0,"TOWNNAME":"後壁區","LI":"嘉民里","LIN":"2鄰","STREET":" ","SECT":" ","MAREA":"上茄苳","LANE":" ","ALLEY":" ","HOUSE_NO":"１４２號","E_COORD97":186529.70000000001,"N_COORD97":2587248.1200000001,"ADDRESS":"上茄苳１４２號","OBJECTID":215825},"geometry":{"x":186529.70000000019,"y":2587248.120000001}},{"attributes":{"ID":215827,"DIS_CODE":0,"TOWNNAME":"永康區","LI":"成功里","LIN":"45鄰","STREET":"中華路","SECT":" ","MAREA":" ","LANE":"１５４巷","ALLEY":"１８弄","HOUSE_NO":"２號十一樓之５","E_COORD97":171693.84,"N_COORD97":2544828.46,"ADDRESS":"中華路１５４巷１８弄２號十一樓之５","OBJECTID":215826},"geometry":{"x":171693.83999999985,"y":2544828.4600000009}},{"attributes":{"ID":215828,"DIS_CODE":0,"TOWNNAME":"中西區","LI":"永福里","LIN":"7鄰","STREET":"中正路","SECT":" ","MAREA":" ","LANE":" ","ALLEY":" ","HOUSE_NO":"６３號","E_COORD97":168151.26999999999,"N_COORD97":2543620.9700000002,"ADDRESS":"中正路６３號","OBJECTID":215827},"geometry":{"x":168151.26999999955,"y":2543620.9700000007}},{"attributes":{"ID":215829,"DIS_CODE":0,"TOWNNAME":"白河區","LI":"大竹里","LIN":"2鄰","STREET":" ","SECT":" ","MAREA":"大排竹","LANE":" ","ALLEY":" ","HOUSE_NO":"１５號","E_COORD97":189935.19,"N_COORD97":2585280.3599999999,"ADDRESS":"大排竹１５號","OBJECTID":215828},"geometry":{"x":189935.19000000134,"y":2585280.3600000013}},{"attributes":{"ID":215830,"DIS_CODE":0,"TOWNNAME":"白河區","LI":"大竹里","LIN":"2鄰","STREET":" ","SECT":" ","MAREA":"大排竹","LANE":" ","ALLEY":" ","HOUSE_NO":"１６號","E_COORD97":189938.79999999999,"N_COORD97":2585291.0099999998,"ADDRESS":"大排竹１６號","OBJECTID":215829},"geometry":{"x":189938.80000000075,"y":2585291.0099999998}},{"attributes":{"ID":215831,"DIS_CODE":0,"TOWNNAME":"白河區","LI":"大竹里","LIN":"2鄰","STREET":" ","SECT":" ","MAREA":"大排竹","LANE":" ","ALLEY":" ","HOUSE_NO":"１７之１號","E_COORD97":189943.56,"N_COORD97":2585313.6000000001,"ADDRESS":"大排竹１７之１號","OBJECTID":215830},"geometry":{"x":189943.56000000052,"y":2585313.5999999996}},{"attributes":{"ID":215832,"DIS_CODE":0,"TOWNNAME":"麻豆區","LI":"莊禮里","LIN":"8鄰","STREET":" ","SECT":" ","MAREA":"\u25A0子寮","LANE":" ","ALLEY":" ","HOUSE_NO":"４號","E_COORD97":169145.70000000001,"N_COORD97":2565814.1699999999,"ADDRESS":"\u25A0子寮４號","OBJECTID":215831},"geometry":{"x":169145.70000000019,"y":2565814.1700000018}},{"attributes":{"ID":215833,"DIS_CODE":0,"TOWNNAME":"麻豆區","LI":"莊禮里","LIN":"8鄰","STREET":" ","SECT":" ","MAREA":"\u25A0子寮","LANE":" ","ALLEY":" ","HOUSE_NO":"５號","E_COORD97":169140.64000000001,"N_COORD97":2565797.4900000002,"ADDRESS":"\u25A0子寮５號","OBJECTID":215832},"geometry":{"x":169140.63999999966,"y":2565797.4900000039}},{"attributes":{"ID":215834,"DIS_CODE":0,"TOWNNAME":"麻豆區","LI":"莊禮里","LIN":"8鄰","STREET":" ","SECT":" ","MAREA":"\u25A0子寮","LANE":" ","ALLEY":" ","HOUSE_NO":"６號","E_COORD97":169136.35999999999,"N_COORD97":2565775.8399999999,"ADDRESS":"\u25A0子寮６號","OBJECTID":215833},"geometry":{"x":169136.36000000034,"y":2565775.8400000017}},{"attributes":{"ID":215835,"DIS_CODE":0,"TOWNNAME":"麻豆區","LI":"莊禮里","LIN":"8鄰","STREET":" ","SECT":" ","MAREA":"\u25A0子寮","LANE":" ","ALLEY":" ","HOUSE_NO":"７號","E_COORD97":169137.23000000001,"N_COORD97":2565746.77,"ADDRESS":"\u25A0子寮７號","OBJECTID":215834},"geometry":{"x":169137.23000000045,"y":2565746.7699999996}},{"attributes":{"ID":215836,"DIS_CODE":0,"TOWNNAME":"麻豆區","LI":"莊禮里","LIN":"8鄰","STREET":" ","SECT":" ","MAREA":"\u25A0子寮","LANE":" ","ALLEY":" ","HOUSE_NO":"８號","E_COORD97":169142.79000000001,"N_COORD97":2565736.1000000001,"ADDRESS":"\u25A0子寮８號","OBJECTID":215835},"geometry":{"x":169142.79000000097,"y":2565736.1000000015}},{"attributes":{"ID":215837,"DIS_CODE":0,"TOWNNAME":"永康區","LI":"成功里","LIN":"45鄰","STREET":"中華路","SECT":" ","MAREA":" ","LANE":"１５４巷","ALLEY":"１８弄","HOUSE_NO":"２號六樓之４","E_COORD97":171692.45999999999,"N_COORD97":2544828.46,"ADDRESS":"中華路１５４巷１８弄２號六樓之４","OBJECTID":215836},"geometry":{"x":171692.46000000089,"y":2544828.4600000009}},{"attributes":{"ID":215838,"DIS_CODE":0,"TOWNNAME":"永康區","LI":"成功里","LIN":"45鄰","STREET":"中華路","SECT":" ","MAREA":" ","LANE":"１５４巷","ALLEY":"１８弄","HOUSE_NO":"２號十樓之５","E_COORD97":171692.59,"N_COORD97":2544828.46,"ADDRESS":"中華路１５４巷１８弄２號十樓之５","OBJECTID":215837},"geometry":{"x":171692.58999999985,"y":2544828.4600000009}},{"attributes":{"ID":215839,"DIS_CODE":0,"TOWNNAME":"永康區","LI":"成功里","LIN":"45鄰","STREET":"中華路","SECT":" ","MAREA":" ","LANE":"１５４巷","ALLEY":"１８弄","HOUSE_NO":"２號十樓之４","E_COORD97":171692.45999999999,"N_COORD97":2544828.46,"ADDRESS":"中華路１５４巷１８弄２號十樓之４","OBJECTID":215838},"geometry":{"x":171692.46000000089,"y":2544828.4600000009}},{"attributes":{"ID":215840,"DIS_CODE":0,"TOWNNAME":"永康區","LI":"成功里","LIN":"45鄰","STREET":"中華路","SECT":" ","MAREA":" ","LANE":"１５４巷","ALLEY":"１８弄","HOUSE_NO":"１０號三樓之１","E_COORD97":171701.19,"N_COORD97":2544828.04,"ADDRESS":"中華路１５４巷１８弄１０號三樓之１","OBJECTID":215839},"geometry":{"x":171701.19000000227,"y":2544828.040000001}},{"attributes":{"ID":215841,"DIS_CODE":0,"TOWNNAME":"永康區","LI":"成功里","LIN":"45鄰","STREET":"中華路","SECT":" ","MAREA":" ","LANE":"１５４巷","ALLEY":"１８弄","HOUSE_NO":"２號十一樓之３","E_COORD97":171693.79000000001,"N_COORD97":2544828.46,"ADDRESS":"中華路１５４巷１８弄２號十一樓之３","OBJECTID":215840},"geometry":{"x":171693.79000000097,"y":2544828.4600000009}},{"attributes":{"ID":215842,"DIS_CODE":0,"TOWNNAME":"永康區","LI":"成功里","LIN":"45鄰","STREET":"中華路","SECT":" ","MAREA":" ","LANE":"１５４巷","ALLEY":"１８弄","HOUSE_NO":"２號八樓之５","E_COORD97":171692.59,"N_COORD97":2544828.46,"ADDRESS":"中華路１５４巷１８弄２號八樓之５","OBJECTID":215841},"geometry":{"x":171692.58999999985,"y":2544828.4600000009}},{"attributes":{"ID":215843,"DIS_CODE":0,"TOWNNAME":"永康區","LI":"成功里","LIN":"45鄰","STREET":"中華路","SECT":" ","MAREA":" ","LANE":"１５４巷","ALLEY":"１８弄","HOUSE_NO":"２號二樓之１","E_COORD97":171692.44,"N_COORD97":2544828.46,"ADDRESS":"中華路１５４巷１８弄２號二樓之１","OBJECTID":215842},"geometry":{"x":171692.44000000041,"y":2544828.4600000009}},{"attributes":{"ID":215844,"DIS_CODE":0,"TOWNNAME":"永康區","LI":"成功里","LIN":"45鄰","STREET":"中華路","SECT":" ","MAREA":" ","LANE":"１５４巷","ALLEY":"１８弄","HOUSE_NO":"２號四樓之２","E_COORD97":171692.57000000001,"N_COORD97":2544828.46,"ADDRESS":"中華路１５４巷１８弄２號四樓之２","OBJECTID":215843},"geometry":{"x":171692.5700000003,"y":2544828.4600000009}},{"attributes":{"ID":215845,"DIS_CODE":0,"TOWNNAME":"永康區","LI":"成功里","LIN":"45鄰","STREET":"中華路","SECT":" ","MAREA":" ","LANE":"１５４巷","ALLEY":"１８弄","HOUSE_NO":"２號三樓之１","E_COORD97":171692.44,"N_COORD97":2544828.46,"ADDRESS":"中華路１５４巷１８弄２號三樓之１","OBJECTID":215844},"geometry":{"x":171692.44000000041,"y":2544828.4600000009}},{"attributes":{"ID":215846,"DIS_CODE":0,"TOWNNAME":"永康區","LI":"成功里","LIN":"45鄰","STREET":"中華路","SECT":" ","MAREA":" ","LANE":"１５４巷","ALLEY":"１８弄","HOUSE_NO":"２號六樓之３","E_COORD97":171692.54000000001,"N_COORD97":2544828.46,"ADDRESS":"中華路１５４巷１８弄２號六樓之３","OBJECTID":215845},"geometry":{"x":171692.54000000004,"y":2544828.4600000009}},{"attributes":{"ID":215847,"DIS_CODE":0,"TOWNNAME":"永康區","LI":"成功里","LIN":"45鄰","STREET":"中華路","SECT":" ","MAREA":" ","LANE":"１５４巷","ALLEY":"１８弄","HOUSE_NO":"２號八樓之３","E_COORD97":171692.54000000001,"N_COORD97":2544828.46,"ADDRESS":"中華路１５４巷１８弄２號八樓之３","OBJECTID":215846},"geometry":{"x":171692.54000000004,"y":2544828.4600000009}},{"attributes":{"ID":215848,"DIS_CODE":0,"TOWNNAME":"永康區","LI":"成功里","LIN":"45鄰","STREET":"中華路","SECT":" ","MAREA":" ","LANE":"１５４巷","ALLEY":"１８弄","HOUSE_NO":"２號五樓之４","E_COORD97":171692.45999999999,"N_COORD97":2544828.46,"ADDRESS":"中華路１５４巷１８弄２號五樓之４","OBJECTID":215847},"geometry":{"x":171692.46000000089,"y":2544828.4600000009}},{"attributes":{"ID":215849,"DIS_CODE":0,"TOWNNAME":"永康區","LI":"成功里","LIN":"45鄰","STREET":"中華路","SECT":" ","MAREA":" ","LANE":"１５４巷","ALLEY":"１８弄","HOUSE_NO":"１０號七樓之２","E_COORD97":171701.32000000001,"N_COORD97":2544828.04,"ADDRESS":"中華路１５４巷１８弄１０號七樓之２","OBJECTID":215848},"geometry":{"x":171701.3200000003,"y":2544828.040000001}},{"attributes":{"ID":215850,"DIS_CODE":0,"TOWNNAME":"永康區","LI":"成功里","LIN":"45鄰","STREET":"中華路","SECT":" ","MAREA":" ","LANE":"１５４巷","ALLEY":"１８弄","HOUSE_NO":"２號三樓之２","E_COORD97":171692.57000000001,"N_COORD97":2544828.46,"ADDRESS":"中華路１５４巷１８弄２號三樓之２","OBJECTID":215849},"geometry":{"x":171692.5700000003,"y":2544828.4600000009}},{"attributes":{"ID":215851,"DIS_CODE":0,"TOWNNAME":"永康區","LI":"成功里","LIN":"45鄰","STREET":"中華路","SECT":" ","MAREA":" ","LANE":"１５４巷","ALLEY":"１８弄","HOUSE_NO":"１０號五樓之１","E_COORD97":171701.19,"N_COORD97":2544828.04,"ADDRESS":"中華路１５４巷１８弄１０號五樓之１","OBJECTID":215850},"geometry":{"x":171701.19000000227,"y":2544828.040000001}},{"attributes":{"ID":215852,"DIS_CODE":0,"TOWNNAME":"麻豆區","LI":"莊禮里","LIN":"8鄰","STREET":" ","SECT":" ","MAREA":"\u25A0子寮","LANE":" ","ALLEY":" ","HOUSE_NO":"９號之１","E_COORD97":169163.89000000001,"N_COORD97":2565740.8500000001,"ADDRESS":"\u25A0子寮９號之１","OBJECTID":215851},"geometry":{"x":169163.88999999966,"y":2565740.8500000015}},{"attributes":{"ID":215853,"DIS_CODE":0,"TOWNNAME":"永康區","LI":"成功里","LIN":"45鄰","STREET":"中華路","SECT":" ","MAREA":" ","LANE":"１５４巷","ALLEY":"１８弄","HOUSE_NO":"２號四樓之５","E_COORD97":171692.59,"N_COORD97":2544828.46,"ADDRESS":"中華路１５４巷１８弄２號四樓之５","OBJECTID":215852},"geometry":{"x":171692.58999999985,"y":2544828.4600000009}},{"attributes":{"ID":215854,"DIS_CODE":0,"TOWNNAME":"永康區","LI":"成功里","LIN":"45鄰","STREET":"中華路","SECT":" ","MAREA":" ","LANE":"１５４巷","ALLEY":"１８弄","HOUSE_NO":"２號十樓之３","E_COORD97":171692.54000000001,"N_COORD97":2544828.46,"ADDRESS":"中華路１５４巷１８弄２號十樓之３","OBJECTID":215853},"geometry":{"x":171692.54000000004,"y":2544828.4600000009}},{"attributes":{"ID":215855,"DIS_CODE":0,"TOWNNAME":"麻豆區","LI":"莊禮里","LIN":"8鄰","STREET":" ","SECT":" ","MAREA":"\u25A0子寮","LANE":" ","ALLEY":" ","HOUSE_NO":"９號","E_COORD97":169174.70000000001,"N_COORD97":2565744.0499999998,"ADDRESS":"\u25A0子寮９號","OBJECTID":215854},"geometry":{"x":169174.70000000019,"y":2565744.0500000026}},{"attributes":{"ID":215856,"DIS_CODE":0,"TOWNNAME":"白河區","LI":"大竹里","LIN":"2鄰","STREET":" ","SECT":" ","MAREA":"大排竹","LANE":" ","ALLEY":" ","HOUSE_NO":"１７號","E_COORD97":189943.73999999999,"N_COORD97":2585306.9100000001,"ADDRESS":"大排竹１７號","OBJECTID":215855},"geometry":{"x":189943.74000000022,"y":2585306.910000002}},{"attributes":{"ID":215857,"DIS_CODE":0,"TOWNNAME":"白河區","LI":"大竹里","LIN":"2鄰","STREET":" ","SECT":" ","MAREA":"大排竹","LANE":" ","ALLEY":" ","HOUSE_NO":"３０號","E_COORD97":189991.37,"N_COORD97":2585478.6299999999,"ADDRESS":"大排竹３０號","OBJECTID":215856},"geometry":{"x":189991.37000000104,"y":2585478.629999999}},{"attributes":{"ID":215858,"DIS_CODE":0,"TOWNNAME":"仁德區","LI":"仁義里","LIN":"45鄰","STREET":"仁義路","SECT":" ","MAREA":" ","LANE":"９８巷","ALLEY":"１４弄","HOUSE_NO":"１０號","E_COORD97":173583.67000000001,"N_COORD97":2540917.52,"ADDRESS":"仁義路９８巷１４弄１０號","OBJECTID":215857},"geometry":{"x":173583.66999999993,"y":2540917.5199999996}},{"attributes":{"ID":215859,"DIS_CODE":0,"TOWNNAME":"永康區","LI":"成功里","LIN":"45鄰","STREET":"中華路","SECT":" ","MAREA":" ","LANE":"１５４巷","ALLEY":"１８弄","HOUSE_NO":"２號九樓之３","E_COORD97":171692.54000000001,"N_COORD97":2544828.46,"ADDRESS":"中華路１５４巷１８弄２號九樓之３","OBJECTID":215858},"geometry":{"x":171692.54000000004,"y":2544828.4600000009}},{"attributes":{"ID":215860,"DIS_CODE":0,"TOWNNAME":"永康區","LI":"\u25A0洲里","LIN":"10鄰","STREET":"\u25A0行路","SECT":" ","MAREA":" ","LANE":"１００巷","ALLEY":"６１弄","HOUSE_NO":"２３號","E_COORD97":171352.32999999999,"N_COORD97":2549361.3900000001,"ADDRESS":"\u25A0行路１００巷６１弄２３號","OBJECTID":215859},"geometry":{"x":171352.33000000194,"y":2549361.3900000006}},{"attributes":{"ID":215861,"DIS_CODE":0,"TOWNNAME":"永康區","LI":"成功里","LIN":"45鄰","STREET":"中華路","SECT":" ","MAREA":" ","LANE":"１５４巷","ALLEY":"１８弄","HOUSE_NO":"２號三樓之６","E_COORD97":171692.54000000001,"N_COORD97":2544828.46,"ADDRESS":"中華路１５４巷１８弄２號三樓之６","OBJECTID":215860},"geometry":{"x":171692.54000000004,"y":2544828.4600000009}},{"attributes":{"ID":215862,"DIS_CODE":0,"TOWNNAME":"永康區","LI":"成功里","LIN":"45鄰","STREET":"中華路","SECT":" ","MAREA":" ","LANE":"１５４巷","ALLEY":"１８弄","HOUSE_NO":"２號七樓之３","E_COORD97":171692.54000000001,"N_COORD97":2544828.46,"ADDRESS":"中華路１５４巷１８弄２號七樓之３","OBJECTID":215861},"geometry":{"x":171692.54000000004,"y":2544828.4600000009}},{"attributes":{"ID":215863,"DIS_CODE":0,"TOWNNAME":"永康區","LI":"成功里","LIN":"45鄰","STREET":"中華路","SECT":" ","MAREA":" ","LANE":"１５４巷","ALLEY":"１８弄","HOUSE_NO":"２號七樓之４","E_COORD97":171692.45999999999,"N_COORD97":2544828.46,"ADDRESS":"中華路１５４巷１８弄２號七樓之４","OBJECTID":215862},"geometry":{"x":171692.46000000089,"y":2544828.4600000009}},{"attributes":{"ID":215864,"DIS_CODE":0,"TOWNNAME":"永康區","LI":"成功里","LIN":"45鄰","STREET":"中華路","SECT":" ","MAREA":" ","LANE":"１５４巷","ALLEY":"１８弄","HOUSE_NO":"１０號八樓之１","E_COORD97":171701.19,"N_COORD97":2544828.04,"ADDRESS":"中華路１５４巷１８弄１０號八樓之１","OBJECTID":215863},"geometry":{"x":171701.19000000227,"y":2544828.040000001}},{"attributes":{"ID":215865,"DIS_CODE":0,"TOWNNAME":"永康區","LI":"成功里","LIN":"45鄰","STREET":"中華路","SECT":" ","MAREA":" ","LANE":"１５４巷","ALLEY":"１８弄","HOUSE_NO":"２號五樓之５","E_COORD97":171692.59,"N_COORD97":2544828.46,"ADDRESS":"中華路１５４巷１８弄２號五樓之５","OBJECTID":215864},"geometry":{"x":171692.58999999985,"y":2544828.4600000009}},{"attributes":{"ID":215866,"DIS_CODE":0,"TOWNNAME":"永康區","LI":"成功里","LIN":"45鄰","STREET":"中華路","SECT":" ","MAREA":" ","LANE":"１５４巷","ALLEY":"１８弄","HOUSE_NO":"２號八樓之２","E_COORD97":171692.57000000001,"N_COORD97":2544828.46,"ADDRESS":"中華路１５４巷１８弄２號八樓之２","OBJECTID":215865},"geometry":{"x":171692.5700000003,"y":2544828.4600000009}},{"attributes":{"ID":215867,"DIS_CODE":0,"TOWNNAME":"白河區","LI":"大竹里","LIN":"2鄰","STREET":" ","SECT":" ","MAREA":"大排竹","LANE":" ","ALLEY":" ","HOUSE_NO":"３２號","E_COORD97":189935.67000000001,"N_COORD97":2585424.2599999998,"ADDRESS":"大排竹３２號","OBJECTID":215866},"geometry":{"x":189935.66999999993,"y":2585424.2599999998}},{"attributes":{"ID":215868,"DIS_CODE":0,"TOWNNAME":"永康區","LI":"成功里","LIN":"45鄰","STREET":"中華路","SECT":" ","MAREA":" ","LANE":"１５４巷","ALLEY":"１８弄","HOUSE_NO":"１０號七樓之１","E_COORD97":171701.19,"N_COORD97":2544828.04,"ADDRESS":"中華路１５４巷１８弄１０號七樓之１","OBJECTID":215867},"geometry":{"x":171701.19000000227,"y":2544828.040000001}},{"attributes":{"ID":215869,"DIS_CODE":0,"TOWNNAME":"白河區","LI":"大竹里","LIN":"2鄰","STREET":" ","SECT":" ","MAREA":"大排竹","LANE":" ","ALLEY":" ","HOUSE_NO":"３４之１號","E_COORD97":189863.38,"N_COORD97":2585424.9500000002,"ADDRESS":"大排竹３４之１號","OBJECTID":215868},"geometry":{"x":189863.38000000175,"y":2585424.9500000011}},{"attributes":{"ID":215870,"DIS_CODE":0,"TOWNNAME":"白河區","LI":"大竹里","LIN":"2鄰","STREET":" ","SECT":" ","MAREA":"大排竹","LANE":" ","ALLEY":" ","HOUSE_NO":"３４號","E_COORD97":189916.14999999999,"N_COORD97":2585418.9500000002,"ADDRESS":"大排竹３４號","OBJECTID":215869},"geometry":{"x":189916.15000000224,"y":2585418.9499999993}},{"attributes":{"ID":215871,"DIS_CODE":0,"TOWNNAME":"後壁區","LI":"嘉苳里","LIN":"2鄰","STREET":" ","SECT":" ","MAREA":"下茄苳","LANE":" ","ALLEY":" ","HOUSE_NO":"１６號","E_COORD97":185462.28,"N_COORD97":2583473.9199999999,"ADDRESS":"下茄苳１６號","OBJECTID":215870},"geometry":{"x":185462.28000000119,"y":2583473.9199999999}},{"attributes":{"ID":215872,"DIS_CODE":0,"TOWNNAME":"永康區","LI":"成功里","LIN":"45鄰","STREET":"中華路","SECT":" ","MAREA":" ","LANE":"１５４巷","ALLEY":"１８弄","HOUSE_NO":"２號二樓之３","E_COORD97":171692.54000000001,"N_COORD97":2544828.46,"ADDRESS":"中華路１５４巷１８弄２號二樓之３","OBJECTID":215871},"geometry":{"x":171692.54000000004,"y":2544828.4600000009}},{"attributes":{"ID":215873,"DIS_CODE":0,"TOWNNAME":"後壁區","LI":"嘉苳里","LIN":"2鄰","STREET":" ","SECT":" ","MAREA":"下茄苳","LANE":" ","ALLEY":" ","HOUSE_NO":"１８號之１","E_COORD97":185429.35999999999,"N_COORD97":2583468.1499999999,"ADDRESS":"下茄苳１８號之１","OBJECTID":215872},"geometry":{"x":185429.3600000022,"y":2583468.1500000022}},{"attributes":{"ID":215874,"DIS_CODE":0,"TOWNNAME":"永康區","LI":"成功里","LIN":"45鄰","STREET":"中華路","SECT":" ","MAREA":" ","LANE":"１５４巷","ALLEY":"１８弄","HOUSE_NO":"２號十一樓之２","E_COORD97":171693.82000000001,"N_COORD97":2544828.46,"ADDRESS":"中華路１５４巷１８弄２號十一樓之２","OBJECTID":215873},"geometry":{"x":171693.82000000123,"y":2544828.4600000009}},{"attributes":{"ID":215875,"DIS_CODE":0,"TOWNNAME":"永康區","LI":"成功里","LIN":"45鄰","STREET":"中華路","SECT":" ","MAREA":" ","LANE":"１５４巷","ALLEY":"１８弄","HOUSE_NO":"１０號五樓之３","E_COORD97":171701.29000000001,"N_COORD97":2544828.04,"ADDRESS":"中華路１５４巷１８弄１０號五樓之３","OBJECTID":215874},"geometry":{"x":171701.29000000004,"y":2544828.040000001}},{"attributes":{"ID":215876,"DIS_CODE":0,"TOWNNAME":"後壁區","LI":"嘉苳里","LIN":"2鄰","STREET":" ","SECT":" ","MAREA":"下茄苳","LANE":" ","ALLEY":" ","HOUSE_NO":"１８號","E_COORD97":185433.64999999999,"N_COORD97":2583467.6200000001,"ADDRESS":"下茄苳１８號","OBJECTID":215875},"geometry":{"x":185433.65000000037,"y":2583467.620000001}},{"attributes":{"ID":215877,"DIS_CODE":0,"TOWNNAME":"後壁區","LI":"嘉苳里","LIN":"2鄰","STREET":" ","SECT":" ","MAREA":"下茄苳","LANE":" ","ALLEY":" ","HOUSE_NO":"１９號","E_COORD97":185419.29999999999,"N_COORD97":2583482.0800000001,"ADDRESS":"下茄苳１９號","OBJECTID":215876},"geometry":{"x":185419.30000000075,"y":2583482.0800000019}},{"attributes":{"ID":215878,"DIS_CODE":0,"TOWNNAME":"後壁區","LI":"嘉苳里","LIN":"2鄰","STREET":" ","SECT":" ","MAREA":"下茄苳","LANE":" ","ALLEY":" ","HOUSE_NO":"２０號","E_COORD97":185437.97,"N_COORD97":2583490.3300000001,"ADDRESS":"下茄苳２０號","OBJECTID":215877},"geometry":{"x":185437.96999999881,"y":2583490.3300000019}},{"attributes":{"ID":215879,"DIS_CODE":0,"TOWNNAME":"後壁區","LI":"嘉苳里","LIN":"2鄰","STREET":" ","SECT":" ","MAREA":"下茄苳","LANE":" ","ALLEY":" ","HOUSE_NO":"２２號之１","E_COORD97":185448.14000000001,"N_COORD97":2583509.7400000002,"ADDRESS":"下茄苳２２號之１","OBJECTID":215878},"geometry":{"x":185448.13999999966,"y":2583509.7400000002}},{"attributes":{"ID":215880,"DIS_CODE":0,"TOWNNAME":"後壁區","LI":"嘉苳里","LIN":"2鄰","STREET":" ","SECT":" ","MAREA":"下茄苳","LANE":" ","ALLEY":" ","HOUSE_NO":"２２號","E_COORD97":185440.57999999999,"N_COORD97":2583503.1699999999,"ADDRESS":"下茄苳２２號","OBJECTID":215879},"geometry":{"x":185440.58000000007,"y":2583503.1699999999}},{"attributes":{"ID":215881,"DIS_CODE":0,"TOWNNAME":"後壁區","LI":"嘉苳里","LIN":"2鄰","STREET":" ","SECT":" ","MAREA":"下茄苳","LANE":" ","ALLEY":" ","HOUSE_NO":"２４號之１","E_COORD97":185425.79000000001,"N_COORD97":2583507.7000000002,"ADDRESS":"下茄苳２４號之１","OBJECTID":215880},"geometry":{"x":185425.79000000004,"y":2583507.7000000011}},{"attributes":{"ID":215882,"DIS_CODE":0,"TOWNNAME":"後壁區","LI":"嘉苳里","LIN":"2鄰","STREET":" ","SECT":" ","MAREA":"下茄苳","LANE":" ","ALLEY":" ","HOUSE_NO":"２４號","E_COORD97":185421.09,"N_COORD97":2583506.3999999999,"ADDRESS":"下茄苳２４號","OBJECTID":215881},"geometry":{"x":185421.09000000078,"y":2583506.4000000041}},{"attributes":{"ID":215883,"DIS_CODE":0,"TOWNNAME":"後壁區","LI":"嘉苳里","LIN":"2鄰","STREET":" ","SECT":" ","MAREA":"下茄苳","LANE":" ","ALLEY":" ","HOUSE_NO":"２６號","E_COORD97":185402.20000000001,"N_COORD97":2583510.8300000001,"ADDRESS":"下茄苳２６號","OBJECTID":215882},"geometry":{"x":185402.20000000112,"y":2583510.8300000019}},{"attributes":{"ID":215884,"DIS_CODE":0,"TOWNNAME":"後壁區","LI":"嘉苳里","LIN":"2鄰","STREET":" ","SECT":" ","MAREA":"下茄苳","LANE":" ","ALLEY":" ","HOUSE_NO":"２７號","E_COORD97":185393.91,"N_COORD97":2583462,"ADDRESS":"下茄苳２７號","OBJECTID":215883},"geometry":{"x":185393.91000000108,"y":2583462.0000000019}},{"attributes":{"ID":215885,"DIS_CODE":0,"TOWNNAME":"永康區","LI":"成功里","LIN":"45鄰","STREET":"中華路","SECT":" ","MAREA":" ","LANE":"１５４巷","ALLEY":"１８弄","HOUSE_NO":"２號十一樓之６","E_COORD97":171693.79000000001,"N_COORD97":2544828.46,"ADDRESS":"中華路１５４巷１８弄２號十一樓之６","OBJECTID":215884},"geometry":{"x":171693.79000000097,"y":2544828.4600000009}},{"attributes":{"ID":215886,"DIS_CODE":0,"TOWNNAME":"永康區","LI":"成功里","LIN":"45鄰","STREET":"中華路","SECT":" ","MAREA":" ","LANE":"１５４巷","ALLEY":"１８弄","HOUSE_NO":"２號七樓之５","E_COORD97":171692.59,"N_COORD97":2544828.46,"ADDRESS":"中華路１５４巷１８弄２號七樓之５","OBJECTID":215885},"geometry":{"x":171692.58999999985,"y":2544828.4600000009}},{"attributes":{"ID":215887,"DIS_CODE":0,"TOWNNAME":"永康區","LI":"成功里","LIN":"45鄰","STREET":"中華路","SECT":" ","MAREA":" ","LANE":"１５４巷","ALLEY":"１８弄","HOUSE_NO":"１０號八樓之２","E_COORD97":171701.32000000001,"N_COORD97":2544828.04,"ADDRESS":"中華路１５４巷１８弄１０號八樓之２","OBJECTID":215886},"geometry":{"x":171701.3200000003,"y":2544828.040000001}},{"attributes":{"ID":215888,"DIS_CODE":0,"TOWNNAME":"永康區","LI":"成功里","LIN":"45鄰","STREET":"中華路","SECT":" ","MAREA":" ","LANE":"１５４巷","ALLEY":"１８弄","HOUSE_NO":"２號八樓之１","E_COORD97":171692.44,"N_COORD97":2544828.46,"ADDRESS":"中華路１５４巷１８弄２號八樓之１","OBJECTID":215887},"geometry":{"x":171692.44000000041,"y":2544828.4600000009}},{"attributes":{"ID":215889,"DIS_CODE":0,"TOWNNAME":"後壁區","LI":"嘉苳里","LIN":"2鄰","STREET":" ","SECT":" ","MAREA":"下茄苳","LANE":" ","ALLEY":" ","HOUSE_NO":"２８號","E_COORD97":185383.84,"N_COORD97":2583499.79,"ADDRESS":"下茄苳２８號","OBJECTID":215888},"geometry":{"x":185383.84000000078,"y":2583499.790000001}},{"attributes":{"ID":215890,"DIS_CODE":0,"TOWNNAME":"永康區","LI":"成功里","LIN":"45鄰","STREET":"中華路","SECT":" ","MAREA":" ","LANE":"１５４巷","ALLEY":"１８弄","HOUSE_NO":"１０號五樓之２","E_COORD97":171701.32000000001,"N_COORD97":2544828.04,"ADDRESS":"中華路１５４巷１８弄１０號五樓之２","OBJECTID":215889},"geometry":{"x":171701.3200000003,"y":2544828.040000001}},{"attributes":{"ID":215891,"DIS_CODE":0,"TOWNNAME":"永康區","LI":"成功里","LIN":"45鄰","STREET":"中華路","SECT":" ","MAREA":" ","LANE":"１５４巷","ALLEY":"１８弄","HOUSE_NO":"１０號四樓之４","E_COORD97":171701.20999999999,"N_COORD97":2544828.04,"ADDRESS":"中華路１５４巷１８弄１０號四樓之４","OBJECTID":215890},"geometry":{"x":171701.21000000089,"y":2544828.040000001}},{"attributes":{"ID":215892,"DIS_CODE":0,"TOWNNAME":"安平區","LI":"文平里","LIN":"9鄰","STREET":"建平七街","SECT":" ","MAREA":" ","LANE":"１８２巷","ALLEY":" ","HOUSE_NO":"６０號","E_COORD97":166013.29864600001,"N_COORD97":2543330.9976900001,"ADDRESS":"建平七街１８２巷６０號","OBJECTID":215891},"geometry":{"x":166013.29864600115,"y":2543330.9976930004}},{"attributes":{"ID":215893,"DIS_CODE":0,"TOWNNAME":"後壁區","LI":"嘉苳里","LIN":"2鄰","STREET":" ","SECT":" ","MAREA":"下茄苳","LANE":" ","ALLEY":" ","HOUSE_NO":"２９號之１","E_COORD97":185352.39999999999,"N_COORD97":2583496.0800000001,"ADDRESS":"下茄苳２９號之１","OBJECTID":215892},"geometry":{"x":185352.40000000037,"y":2583496.0800000019}},{"attributes":{"ID":215894,"DIS_CODE":0,"TOWNNAME":"後壁區","LI":"嘉苳里","LIN":"2鄰","STREET":" ","SECT":" ","MAREA":"下茄苳","LANE":" ","ALLEY":" ","HOUSE_NO":"２９號","E_COORD97":185355,"N_COORD97":2583474.5800000001,"ADDRESS":"下茄苳２９號","OBJECTID":215893},"geometry":{"x":185355.00000000186,"y":2583474.5800000019}},{"attributes":{"ID":215895,"DIS_CODE":0,"TOWNNAME":"後壁區","LI":"嘉苳里","LIN":"2鄰","STREET":" ","SECT":" ","MAREA":"下茄苳","LANE":" ","ALLEY":" ","HOUSE_NO":"３０號","E_COORD97":185341.23999999999,"N_COORD97":2583487.0600000001,"ADDRESS":"下茄苳３０號","OBJECTID":215894},"geometry":{"x":185341.24000000022,"y":2583487.0600000005}},{"attributes":{"ID":215896,"DIS_CODE":0,"TOWNNAME":"後壁區","LI":"嘉苳里","LIN":"2鄰","STREET":" ","SECT":" ","MAREA":"下茄苳","LANE":" ","ALLEY":" ","HOUSE_NO":"３１號","E_COORD97":185306.67999999999,"N_COORD97":2583469.3799999999,"ADDRESS":"下茄苳３１號","OBJECTID":215895},"geometry":{"x":185306.68000000063,"y":2583469.379999999}},{"attributes":{"ID":215897,"DIS_CODE":0,"TOWNNAME":"後壁區","LI":"福安里","LIN":"2鄰","STREET":" ","SECT":" ","MAREA":"下寮","LANE":" ","ALLEY":" ","HOUSE_NO":"１３號之１","E_COORD97":184384.5,"N_COORD97":2580969.02,"ADDRESS":"下寮１３號之１","OBJECTID":215896},"geometry":{"x":184384.50000000093,"y":2580969.0200000014}},{"attributes":{"ID":215898,"DIS_CODE":0,"TOWNNAME":"後壁區","LI":"福安里","LIN":"2鄰","STREET":" ","SECT":" ","MAREA":"下寮","LANE":" ","ALLEY":" ","HOUSE_NO":"１３號","E_COORD97":184375.75,"N_COORD97":2580963.7999999998,"ADDRESS":"下寮１３號","OBJECTID":215897},"geometry":{"x":184375.75000000093,"y":2580963.8000000007}},{"attributes":{"ID":215899,"DIS_CODE":0,"TOWNNAME":"後壁區","LI":"福安里","LIN":"2鄰","STREET":" ","SECT":" ","MAREA":"下寮","LANE":" ","ALLEY":" ","HOUSE_NO":"１７號之１","E_COORD97":184408.92999999999,"N_COORD97":2580987.96,"ADDRESS":"下寮１７號之１","OBJECTID":215898},"geometry":{"x":184408.9299999997,"y":2580987.9600000028}},{"attributes":{"ID":215900,"DIS_CODE":0,"TOWNNAME":"仁德區","LI":"太子里","LIN":"37鄰","STREET":"長興一街","SECT":" ","MAREA":" ","LANE":" ","ALLEY":" ","HOUSE_NO":"２７號","E_COORD97":174577.73000000001,"N_COORD97":2543818.2599999998,"ADDRESS":"長興一街２７號","OBJECTID":215899},"geometry":{"x":174577.73000000231,"y":2543818.2599999998}},{"attributes":{"ID":215901,"DIS_CODE":0,"TOWNNAME":"仁德區","LI":"太子里","LIN":"37鄰","STREET":"長興一街","SECT":" ","MAREA":" ","LANE":" ","ALLEY":" ","HOUSE_NO":"２８號","E_COORD97":174637.39000000001,"N_COORD97":2543840.0099999998,"ADDRESS":"長興一街２８號","OBJECTID":215900},"geometry":{"x":174637.3900000006,"y":2543840.0099999998}},{"attributes":{"ID":215902,"DIS_CODE":0,"TOWNNAME":"永康區","LI":"成功里","LIN":"45鄰","STREET":"中華路","SECT":" ","MAREA":" ","LANE":"１５４巷","ALLEY":"１８弄","HOUSE_NO":"２號九樓之５","E_COORD97":171692.59,"N_COORD97":2544828.46,"ADDRESS":"中華路１５４巷１８弄２號九樓之５","OBJECTID":215901},"geometry":{"x":171692.58999999985,"y":2544828.4600000009}},{"attributes":{"ID":215903,"DIS_CODE":0,"TOWNNAME":"永康區","LI":"成功里","LIN":"45鄰","STREET":"中華路","SECT":" ","MAREA":" ","LANE":"１５４巷","ALLEY":"１８弄","HOUSE_NO":"１０號二樓之１","E_COORD97":171701.19,"N_COORD97":2544828.04,"ADDRESS":"中華路１５４巷１８弄１０號二樓之１","OBJECTID":215902},"geometry":{"x":171701.19000000227,"y":2544828.040000001}},{"attributes":{"ID":215904,"DIS_CODE":0,"TOWNNAME":"永康區","LI":"成功里","LIN":"45鄰","STREET":"中華路","SECT":" ","MAREA":" ","LANE":"１５４巷","ALLEY":"１８弄","HOUSE_NO":"２號九樓之２","E_COORD97":171692.57000000001,"N_COORD97":2544828.46,"ADDRESS":"中華路１５４巷１８弄２號九樓之２","OBJECTID":215903},"geometry":{"x":171692.5700000003,"y":2544828.4600000009}},{"attributes":{"ID":215905,"DIS_CODE":0,"TOWNNAME":"後壁區","LI":"福安里","LIN":"2鄰","STREET":" ","SECT":" ","MAREA":"下寮","LANE":" ","ALLEY":" ","HOUSE_NO":"１７號","E_COORD97":184397.17999999999,"N_COORD97":2580983.54,"ADDRESS":"下寮１７號","OBJECTID":215904},"geometry":{"x":184397.1799999997,"y":2580983.5399999991}},{"attributes":{"ID":215906,"DIS_CODE":0,"TOWNNAME":"永康區","LI":"成功里","LIN":"45鄰","STREET":"中華路","SECT":" ","MAREA":" ","LANE":"１５４巷","ALLEY":"１８弄","HOUSE_NO":"２號四樓之６","E_COORD97":171692.54000000001,"N_COORD97":2544828.46,"ADDRESS":"中華路１５４巷１８弄２號四樓之６","OBJECTID":215905},"geometry":{"x":171692.54000000004,"y":2544828.4600000009}},{"attributes":{"ID":215907,"DIS_CODE":0,"TOWNNAME":"後壁區","LI":"福安里","LIN":"2鄰","STREET":" ","SECT":" ","MAREA":"下寮","LANE":" ","ALLEY":" ","HOUSE_NO":"１８號之３","E_COORD97":184442.57000000001,"N_COORD97":2581048.8799999999,"ADDRESS":"下寮１８號之３","OBJECTID":215906},"geometry":{"x":184442.5700000003,"y":2581048.879999999}},{"attributes":{"ID":215908,"DIS_CODE":0,"TOWNNAME":"後壁區","LI":"福安里","LIN":"2鄰","STREET":" ","SECT":" ","MAREA":"下寮","LANE":" ","ALLEY":" ","HOUSE_NO":"１８號之４","E_COORD97":184426.39999999999,"N_COORD97":2581057,"ADDRESS":"下寮１８號之４","OBJECTID":215907},"geometry":{"x":184426.40000000037,"y":2581057}},{"attributes":{"ID":215909,"DIS_CODE":0,"TOWNNAME":"後壁區","LI":"福安里","LIN":"2鄰","STREET":" ","SECT":" ","MAREA":"下寮","LANE":" ","ALLEY":" ","HOUSE_NO":"１８號","E_COORD97":184415.12,"N_COORD97":2581018.2599999998,"ADDRESS":"下寮１８號","OBJECTID":215908},"geometry":{"x":184415.11999999918,"y":2581018.2600000035}},{"attributes":{"ID":215910,"DIS_CODE":0,"TOWNNAME":"後壁區","LI":"嘉田里","LIN":"2鄰","STREET":" ","SECT":" ","MAREA":"上茄苳","LANE":" ","ALLEY":" ","HOUSE_NO":"１０號之１","E_COORD97":186764.48000000001,"N_COORD97":2587587.46,"ADDRESS":"上茄苳１０號之１","OBJECTID":215909},"geometry":{"x":186764.48000000231,"y":2587587.4600000009}},{"attributes":{"ID":215911,"DIS_CODE":0,"TOWNNAME":"後壁區","LI":"嘉田里","LIN":"2鄰","STREET":" ","SECT":" ","MAREA":"上茄苳","LANE":" ","ALLEY":" ","HOUSE_NO":"１０號","E_COORD97":186761.26999999999,"N_COORD97":2587561.3900000001,"ADDRESS":"上茄苳１０號","OBJECTID":215910},"geometry":{"x":186761.26999999955,"y":2587561.3900000043}},{"attributes":{"ID":215912,"DIS_CODE":0,"TOWNNAME":"後壁區","LI":"嘉田里","LIN":"2鄰","STREET":" ","SECT":" ","MAREA":"上茄苳","LANE":" ","ALLEY":" ","HOUSE_NO":"１２號之１００","E_COORD97":186658.07999999999,"N_COORD97":2588752.8999999999,"ADDRESS":"上茄苳１２號之１００","OBJECTID":215911},"geometry":{"x":186658.07999999914,"y":2588752.9000000004}},{"attributes":{"ID":215913,"DIS_CODE":0,"TOWNNAME":"後壁區","LI":"嘉田里","LIN":"2鄰","STREET":" ","SECT":" ","MAREA":"上茄苳","LANE":" ","ALLEY":" ","HOUSE_NO":"１２號之１１２","E_COORD97":186705.62,"N_COORD97":2588963.6000000001,"ADDRESS":"上茄苳１２號之１１２","OBJECTID":215912},"geometry":{"x":186705.62000000104,"y":2588963.6000000015}},{"attributes":{"ID":215914,"DIS_CODE":0,"TOWNNAME":"後壁區","LI":"嘉田里","LIN":"2鄰","STREET":" ","SECT":" ","MAREA":"上茄苳","LANE":" ","ALLEY":" ","HOUSE_NO":"１２號之１１","E_COORD97":186311.04000000001,"N_COORD97":2587752.3700000001,"ADDRESS":"上茄苳１２號之１１","OBJECTID":215913},"geometry":{"x":186311.0400000019,"y":2587752.3700000029}},{"attributes":{"ID":215915,"DIS_CODE":0,"TOWNNAME":"後壁區","LI":"嘉田里","LIN":"2鄰","STREET":" ","SECT":" ","MAREA":"上茄苳","LANE":" ","ALLEY":" ","HOUSE_NO":"１２號之１２","E_COORD97":186312.98999999999,"N_COORD97":2587756.25,"ADDRESS":"上茄苳１２號之１２","OBJECTID":215914},"geometry":{"x":186312.99000000022,"y":2587756.2500000019}},{"attributes":{"ID":215916,"DIS_CODE":0,"TOWNNAME":"後壁區","LI":"嘉田里","LIN":"2鄰","STREET":" ","SECT":" ","MAREA":"上茄苳","LANE":" ","ALLEY":" ","HOUSE_NO":"１２號之１３","E_COORD97":186314.89999999999,"N_COORD97":2587759.7799999998,"ADDRESS":"上茄苳１２號之１３","OBJECTID":215915},"geometry":{"x":186314.90000000037,"y":2587759.7799999993}},{"attributes":{"ID":215917,"DIS_CODE":0,"TOWNNAME":"後壁區","LI":"嘉田里","LIN":"2鄰","STREET":" ","SECT":" ","MAREA":"上茄苳","LANE":" ","ALLEY":" ","HOUSE_NO":"１２號之１４","E_COORD97":186317.79000000001,"N_COORD97":2587764.0099999998,"ADDRESS":"上茄苳１２號之１４","OBJECTID":215916},"geometry":{"x":186317.7900000019,"y":2587764.0100000016}},{"attributes":{"ID":215918,"DIS_CODE":0,"TOWNNAME":"後壁區","LI":"嘉田里","LIN":"2鄰","STREET":" ","SECT":" ","MAREA":"上茄苳","LANE":" ","ALLEY":" ","HOUSE_NO":"１２號之１５","E_COORD97":186320.19,"N_COORD97":2587767.54,"ADDRESS":"上茄苳１２號之１５","OBJECTID":215917},"geometry":{"x":186320.19000000041,"y":2587767.5399999991}},{"attributes":{"ID":215919,"DIS_CODE":0,"TOWNNAME":"後壁區","LI":"嘉田里","LIN":"2鄰","STREET":" ","SECT":" ","MAREA":"上茄苳","LANE":" ","ALLEY":" ","HOUSE_NO":"１２號之１６","E_COORD97":186322.42000000001,"N_COORD97":2587771.21,"ADDRESS":"上茄苳１２號之１６","OBJECTID":215918},"geometry":{"x":186322.42000000086,"y":2587771.2100000028}},{"attributes":{"ID":215920,"DIS_CODE":0,"TOWNNAME":"後壁區","LI":"嘉田里","LIN":"2鄰","STREET":" ","SECT":" ","MAREA":"上茄苳","LANE":" ","ALLEY":" ","HOUSE_NO":"１２號之１８","E_COORD97":186327.60999999999,"N_COORD97":2587778.71,"ADDRESS":"上茄苳１２號之１８","OBJECTID":215919},"geometry":{"x":186327.6099999994,"y":2587778.7100000009}},{"attributes":{"ID":215921,"DIS_CODE":0,"TOWNNAME":"後壁區","LI":"嘉田里","LIN":"2鄰","STREET":" ","SECT":" ","MAREA":"上茄苳","LANE":" ","ALLEY":" ","HOUSE_NO":"１２號之１９","E_COORD97":186329.59,"N_COORD97":2587782.6400000001,"ADDRESS":"上茄苳１２號之１９","OBJECTID":215920},"geometry":{"x":186329.59000000078,"y":2587782.6400000006}},{"attributes":{"ID":215922,"DIS_CODE":0,"TOWNNAME":"後壁區","LI":"嘉田里","LIN":"2鄰","STREET":" ","SECT":" ","MAREA":"上茄苳","LANE":" ","ALLEY":" ","HOUSE_NO":"１２號之１","E_COORD97":186726.14999999999,"N_COORD97":2587534.79,"ADDRESS":"上茄苳１２號之１","OBJECTID":215921},"geometry":{"x":186726.1500000013,"y":2587534.790000001}},{"attributes":{"ID":215923,"DIS_CODE":0,"TOWNNAME":"後壁區","LI":"嘉田里","LIN":"2鄰","STREET":" ","SECT":" ","MAREA":"上茄苳","LANE":" ","ALLEY":" ","HOUSE_NO":"１２號之２０","E_COORD97":186330.04999999999,"N_COORD97":2587786.3399999999,"ADDRESS":"上茄苳１２號之２０","OBJECTID":215922},"geometry":{"x":186330.05000000075,"y":2587786.3400000017}},{"attributes":{"ID":215924,"DIS_CODE":0,"TOWNNAME":"後壁區","LI":"嘉田里","LIN":"2鄰","STREET":" ","SECT":" ","MAREA":"上茄苳","LANE":" ","ALLEY":" ","HOUSE_NO":"１２號之２１","E_COORD97":186306.59,"N_COORD97":2587774.0600000001,"ADDRESS":"上茄苳１２號之２１","OBJECTID":215923},"geometry":{"x":186306.58999999985,"y":2587774.0600000042}},{"attributes":{"ID":215925,"DIS_CODE":0,"TOWNNAME":"後壁區","LI":"嘉田里","LIN":"2鄰","STREET":" ","SECT":" ","MAREA":"上茄苳","LANE":" ","ALLEY":" ","HOUSE_NO":"１２號之２６","E_COORD97":186394.54999999999,"N_COORD97":2587779.8399999999,"ADDRESS":"上茄苳１２號之２６","OBJECTID":215924},"geometry":{"x":186394.54999999981,"y":2587779.8399999999}},{"attributes":{"ID":215926,"DIS_CODE":0,"TOWNNAME":"後壁區","LI":"嘉田里","LIN":"2鄰","STREET":" ","SECT":" ","MAREA":"上茄苳","LANE":" ","ALLEY":" ","HOUSE_NO":"１２號之３０","E_COORD97":186470.81,"N_COORD97":2587887.9399999999,"ADDRESS":"上茄苳１２號之３０","OBJECTID":215925},"geometry":{"x":186470.80999999959,"y":2587887.9399999995}},{"attributes":{"ID":215927,"DIS_CODE":0,"TOWNNAME":"後壁區","LI":"嘉田里","LIN":"2鄰","STREET":" ","SECT":" ","MAREA":"上茄苳","LANE":" ","ALLEY":" ","HOUSE_NO":"１２號之３１","E_COORD97":186468.29000000001,"N_COORD97":2587884.0899999999,"ADDRESS":"上茄苳１２號之３１","OBJECTID":215926},"geometry":{"x":186468.29000000004,"y":2587884.0899999999}},{"attributes":{"ID":215928,"DIS_CODE":0,"TOWNNAME":"後壁區","LI":"嘉田里","LIN":"2鄰","STREET":" ","SECT":" ","MAREA":"上茄苳","LANE":" ","ALLEY":" ","HOUSE_NO":"１２號之３２","E_COORD97":186465.79000000001,"N_COORD97":2587880.0600000001,"ADDRESS":"上茄苳１２號之３２","OBJECTID":215927},"geometry":{"x":186465.79000000097,"y":2587880.0600000024}},{"attributes":{"ID":215929,"DIS_CODE":0,"TOWNNAME":"後壁區","LI":"嘉田里","LIN":"2鄰","STREET":" ","SECT":" ","MAREA":"上茄苳","LANE":" ","ALLEY":" ","HOUSE_NO":"１２號之３５","E_COORD97":186451.69,"N_COORD97":2587860.6400000001,"ADDRESS":"上茄苳１２號之３５","OBJECTID":215928},"geometry":{"x":186451.69000000134,"y":2587860.6400000006}},{"attributes":{"ID":215930,"DIS_CODE":0,"TOWNNAME":"後壁區","LI":"嘉田里","LIN":"2鄰","STREET":" ","SECT":" ","MAREA":"上茄苳","LANE":" ","ALLEY":" ","HOUSE_NO":"１２號之３８","E_COORD97":186410.14000000001,"N_COORD97":2587905.6200000001,"ADDRESS":"上茄苳１２號之３８","OBJECTID":215929},"geometry":{"x":186410.1400000006,"y":2587905.620000001}},{"attributes":{"ID":215931,"DIS_CODE":0,"TOWNNAME":"後壁區","LI":"嘉田里","LIN":"2鄰","STREET":" ","SECT":" ","MAREA":"上茄苳","LANE":" ","ALLEY":" ","HOUSE_NO":"１２號之３９","E_COORD97":186377.62,"N_COORD97":2587901.8100000001,"ADDRESS":"上茄苳１２號之３９","OBJECTID":215930},"geometry":{"x":186377.62000000011,"y":2587901.8100000024}},{"attributes":{"ID":215932,"DIS_CODE":0,"TOWNNAME":"後壁區","LI":"嘉田里","LIN":"2鄰","STREET":" ","SECT":" ","MAREA":"上茄苳","LANE":" ","ALLEY":" ","HOUSE_NO":"１２號之４２","E_COORD97":186446.48999999999,"N_COORD97":2588067.1800000002,"ADDRESS":"上茄苳１２號之４２","OBJECTID":215931},"geometry":{"x":186446.49000000022,"y":2588067.1800000034}},{"attributes":{"ID":215933,"DIS_CODE":0,"TOWNNAME":"後壁區","LI":"嘉田里","LIN":"2鄰","STREET":" ","SECT":" ","MAREA":"上茄苳","LANE":" ","ALLEY":" ","HOUSE_NO":"１２號之４３","E_COORD97":186433.25,"N_COORD97":2588079.7400000002,"ADDRESS":"上茄苳１２號之４３","OBJECTID":215932},"geometry":{"x":186433.25000000186,"y":2588079.7400000002}},{"attributes":{"ID":215934,"DIS_CODE":0,"TOWNNAME":"後壁區","LI":"嘉田里","LIN":"2鄰","STREET":" ","SECT":" ","MAREA":"上茄苳","LANE":" ","ALLEY":" ","HOUSE_NO":"１２號之４６","E_COORD97":186513.98000000001,"N_COORD97":2587956.1299999999,"ADDRESS":"上茄苳１２號之４６","OBJECTID":215933},"geometry":{"x":186513.98000000138,"y":2587956.1300000008}},{"attributes":{"ID":215935,"DIS_CODE":0,"TOWNNAME":"東區","LI":"虎尾里","LIN":"37鄰","STREET":"東門路","SECT":"三段","MAREA":" ","LANE":" ","ALLEY":" ","HOUSE_NO":"２５９號地下層之２６","E_COORD97":171686.42000000001,"N_COORD97":2541912.02,"ADDRESS":"東門路三段２５９號地下層之２６","OBJECTID":215934},"geometry":{"x":171686.41999999993,"y":2541912.0200000014}},{"attributes":{"ID":215936,"DIS_CODE":0,"TOWNNAME":"後壁區","LI":"嘉田里","LIN":"2鄰","STREET":" ","SECT":" ","MAREA":"上茄苳","LANE":" ","ALLEY":" ","HOUSE_NO":"１２號之５２","E_COORD97":186490.64000000001,"N_COORD97":2588203.5499999998,"ADDRESS":"上茄苳１２號之５２","OBJECTID":215935},"geometry":{"x":186490.63999999966,"y":2588203.5500000007}},{"attributes":{"ID":215937,"DIS_CODE":0,"TOWNNAME":"後壁區","LI":"嘉田里","LIN":"2鄰","STREET":" ","SECT":" ","MAREA":"上茄苳","LANE":" ","ALLEY":" ","HOUSE_NO":"１２號之７","E_COORD97":186623.60000000001,"N_COORD97":2587650.2599999998,"ADDRESS":"上茄苳１２號之７","OBJECTID":215936},"geometry":{"x":186623.5999999987,"y":2587650.2600000016}},{"attributes":{"ID":215938,"DIS_CODE":0,"TOWNNAME":"後壁區","LI":"嘉田里","LIN":"2鄰","STREET":" ","SECT":" ","MAREA":"上茄苳","LANE":" ","ALLEY":" ","HOUSE_NO":"１２號之８０","E_COORD97":186992.82000000001,"N_COORD97":2588547.6699999999,"ADDRESS":"上茄苳１２號之８０","OBJECTID":215937},"geometry":{"x":186992.82000000123,"y":2588547.6699999999}},{"attributes":{"ID":215939,"DIS_CODE":0,"TOWNNAME":"後壁區","LI":"嘉田里","LIN":"2鄰","STREET":" ","SECT":" ","MAREA":"上茄苳","LANE":" ","ALLEY":" ","HOUSE_NO":"１２號之８１","E_COORD97":186943.35000000001,"N_COORD97":2588510.2999999998,"ADDRESS":"上茄苳１２號之８１","OBJECTID":215938},"geometry":{"x":186943.34999999963,"y":2588510.3000000007}},{"attributes":{"ID":215940,"DIS_CODE":0,"TOWNNAME":"後壁區","LI":"嘉田里","LIN":"2鄰","STREET":" ","SECT":" ","MAREA":"上茄苳","LANE":" ","ALLEY":" ","HOUSE_NO":"１２號之８","E_COORD97":186597.39999999999,"N_COORD97":2587639.6000000001,"ADDRESS":"上茄苳１２號之８","OBJECTID":215939},"geometry":{"x":186597.4000000013,"y":2587639.5999999996}},{"attributes":{"ID":215941,"DIS_CODE":0,"TOWNNAME":"後壁區","LI":"嘉田里","LIN":"2鄰","STREET":" ","SECT":" ","MAREA":"上茄苳","LANE":" ","ALLEY":" ","HOUSE_NO":"１２號之９０","E_COORD97":186686.54000000001,"N_COORD97":2588628.4100000001,"ADDRESS":"上茄苳１２號之９０","OBJECTID":215940},"geometry":{"x":186686.54000000004,"y":2588628.4100000001}},{"attributes":{"ID":215942,"DIS_CODE":0,"TOWNNAME":"後壁區","LI":"嘉民里","LIN":"2鄰","STREET":" ","SECT":" ","MAREA":"上茄苳","LANE":" ","ALLEY":" ","HOUSE_NO":"１３７號之３","E_COORD97":186589.70999999999,"N_COORD97":2587194.4500000002,"ADDRESS":"上茄苳１３７號之３","OBJECTID":215941},"geometry":{"x":186589.71000000089,"y":2587194.4500000011}},{"attributes":{"ID":215943,"DIS_CODE":0,"TOWNNAME":"東區","LI":"虎尾里","LIN":"37鄰","STREET":"東門路","SECT":"三段","MAREA":" ","LANE":" ","ALLEY":" ","HOUSE_NO":"２５９號地下層之２７","E_COORD97":171686.42000000001,"N_COORD97":2541912.02,"ADDRESS":"東門路三段２５９號地下層之２７","OBJECTID":215942},"geometry":{"x":171686.41999999993,"y":2541912.0200000014}},{"attributes":{"ID":215944,"DIS_CODE":0,"TOWNNAME":"後壁區","LI":"嘉民里","LIN":"2鄰","STREET":" ","SECT":" ","MAREA":"上茄苳","LANE":" ","ALLEY":" ","HOUSE_NO":"１３７號","E_COORD97":186581.62,"N_COORD97":2587196,"ADDRESS":"上茄苳１３７號","OBJECTID":215943},"geometry":{"x":186581.62000000197,"y":2587196}},{"attributes":{"ID":215945,"DIS_CODE":0,"TOWNNAME":"東區","LI":"虎尾里","LIN":"37鄰","STREET":"東門路","SECT":"三段","MAREA":" ","LANE":" ","ALLEY":" ","HOUSE_NO":"２５９號地下層之２８","E_COORD97":171686.42000000001,"N_COORD97":2541912.02,"ADDRESS":"東門路三段２５９號地下層之２８","OBJECTID":215944},"geometry":{"x":171686.41999999993,"y":2541912.0200000014}},{"attributes":{"ID":215946,"DIS_CODE":0,"TOWNNAME":"後壁區","LI":"嘉民里","LIN":"2鄰","STREET":" ","SECT":" ","MAREA":"上茄苳","LANE":" ","ALLEY":" ","HOUSE_NO":"１３８號之２","E_COORD97":186576.85000000001,"N_COORD97":2587229.7999999998,"ADDRESS":"上茄苳１３８號之２","OBJECTID":215945},"geometry":{"x":186576.85000000056,"y":2587229.7999999989}},{"attributes":{"ID":215947,"DIS_CODE":0,"TOWNNAME":"仁德區","LI":"成功里","LIN":"37鄰","STREET":"保華路","SECT":" ","MAREA":" ","LANE":" ","ALLEY":" ","HOUSE_NO":"４２之１號","E_COORD97":170664.84,"N_COORD97":2539999.0499999998,"ADDRESS":"保華路４２之１號","OBJECTID":215946},"geometry":{"x":170664.83999999985,"y":2539999.0500000007}},{"attributes":{"ID":215948,"DIS_CODE":0,"TOWNNAME":"後壁區","LI":"嘉民里","LIN":"2鄰","STREET":" ","SECT":" ","MAREA":"上茄苳","LANE":" ","ALLEY":" ","HOUSE_NO":"１３８號之３","E_COORD97":186577.57000000001,"N_COORD97":2587225.9300000002,"ADDRESS":"上茄苳１３８號之３","OBJECTID":215947},"geometry":{"x":186577.57000000123,"y":2587225.9300000016}},{"attributes":{"ID":215949,"DIS_CODE":0,"TOWNNAME":"後壁區","LI":"嘉民里","LIN":"2鄰","STREET":" ","SECT":" ","MAREA":"上茄苳","LANE":" ","ALLEY":" ","HOUSE_NO":"１３８號之４","E_COORD97":186588.32999999999,"N_COORD97":2587222,"ADDRESS":"上茄苳１３８號之４","OBJECTID":215948},"geometry":{"x":186588.33000000007,"y":2587222.0000000019}},{"attributes":{"ID":215950,"DIS_CODE":0,"TOWNNAME":"後壁區","LI":"嘉民里","LIN":"2鄰","STREET":" ","SECT":" ","MAREA":"上茄苳","LANE":" ","ALLEY":" ","HOUSE_NO":"１３８號之５","E_COORD97":186588.91,"N_COORD97":2587217.54,"ADDRESS":"上茄苳１３８號之５","OBJECTID":215949},"geometry":{"x":186588.91000000108,"y":2587217.540000001}},{"attributes":{"ID":215951,"DIS_CODE":0,"TOWNNAME":"後壁區","LI":"嘉民里","LIN":"2鄰","STREET":" ","SECT":" ","MAREA":"上茄苳","LANE":" ","ALLEY":" ","HOUSE_NO":"１３８號之６","E_COORD97":186589.35999999999,"N_COORD97":2587211.9500000002,"ADDRESS":"上茄苳１３８號之６","OBJECTID":215950},"geometry":{"x":186589.36000000127,"y":2587211.9500000011}},{"attributes":{"ID":215952,"DIS_CODE":0,"TOWNNAME":"永康區","LI":"成功里","LIN":"45鄰","STREET":"中華路","SECT":" ","MAREA":" ","LANE":"１５４巷","ALLEY":"１８弄","HOUSE_NO":"２號七樓之２","E_COORD97":171692.57000000001,"N_COORD97":2544828.46,"ADDRESS":"中華路１５４巷１８弄２號七樓之２","OBJECTID":215951},"geometry":{"x":171692.5700000003,"y":2544828.4600000009}},{"attributes":{"ID":215953,"DIS_CODE":0,"TOWNNAME":"永康區","LI":"中華里","LIN":"19鄰","STREET":"小東路","SECT":" ","MAREA":" ","LANE":"４７７巷","ALLEY":"４６弄","HOUSE_NO":"５號之７","E_COORD97":171653.14000000001,"N_COORD97":2544535.6600000001,"ADDRESS":"小東路４７７巷４６弄５號之７","OBJECTID":215952},"geometry":{"x":171653.13999999873,"y":2544535.660000002}},{"attributes":{"ID":215954,"DIS_CODE":0,"TOWNNAME":"永康區","LI":"成功里","LIN":"45鄰","STREET":"中華路","SECT":" ","MAREA":" ","LANE":"１５４巷","ALLEY":"１８弄","HOUSE_NO":"２號五樓之１","E_COORD97":171692.44,"N_COORD97":2544828.46,"ADDRESS":"中華路１５４巷１８弄２號五樓之１","OBJECTID":215953},"geometry":{"x":171692.44000000041,"y":2544828.4600000009}},{"attributes":{"ID":215955,"DIS_CODE":0,"TOWNNAME":"後壁區","LI":"嘉民里","LIN":"2鄰","STREET":" ","SECT":" ","MAREA":"上茄苳","LANE":" ","ALLEY":" ","HOUSE_NO":"１４０號","E_COORD97":186548.14000000001,"N_COORD97":2587222.3199999998,"ADDRESS":"上茄苳１４０號","OBJECTID":215954},"geometry":{"x":186548.13999999966,"y":2587222.3200000003}},{"attributes":{"ID":215956,"DIS_CODE":0,"TOWNNAME":"永康區","LI":"成功里","LIN":"45鄰","STREET":"中華路","SECT":" ","MAREA":" ","LANE":"１５４巷","ALLEY":"１８弄","HOUSE_NO":"１０號九樓之１","E_COORD97":171701.19,"N_COORD97":2544828.04,"ADDRESS":"中華路１５４巷１８弄１０號九樓之１","OBJECTID":215955},"geometry":{"x":171701.19000000227,"y":2544828.040000001}},{"attributes":{"ID":215957,"DIS_CODE":0,"TOWNNAME":"永康區","LI":"成功里","LIN":"45鄰","STREET":"中華路","SECT":" ","MAREA":" ","LANE":"１５４巷","ALLEY":"１８弄","HOUSE_NO":"２號六樓之５","E_COORD97":171692.59,"N_COORD97":2544828.46,"ADDRESS":"中華路１５４巷１８弄２號六樓之５","OBJECTID":215956},"geometry":{"x":171692.58999999985,"y":2544828.4600000009}},{"attributes":{"ID":215958,"DIS_CODE":0,"TOWNNAME":"仁德區","LI":"仁義里","LIN":"45鄰","STREET":"仁義路","SECT":" ","MAREA":" ","LANE":"９８巷","ALLEY":"１４弄","HOUSE_NO":"１２號","E_COORD97":173579.17000000001,"N_COORD97":2540917.02,"ADDRESS":"仁義路９８巷１４弄１２號","OBJECTID":215957},"geometry":{"x":173579.17000000179,"y":2540917.0199999996}},{"attributes":{"ID":215959,"DIS_CODE":0,"TOWNNAME":"永康區","LI":"成功里","LIN":"45鄰","STREET":"中華路","SECT":" ","MAREA":" ","LANE":"１５４巷","ALLEY":"１８弄","HOUSE_NO":"２號十樓之６","E_COORD97":171692.54000000001,"N_COORD97":2544828.46,"ADDRESS":"中華路１５４巷１８弄２號十樓之６","OBJECTID":215958},"geometry":{"x":171692.54000000004,"y":2544828.4600000009}},{"attributes":{"ID":215960,"DIS_CODE":0,"TOWNNAME":"永康區","LI":"成功里","LIN":"45鄰","STREET":"中華路","SECT":" ","MAREA":" ","LANE":"１５４巷","ALLEY":"１８弄","HOUSE_NO":"２號十一樓之１","E_COORD97":171693.69,"N_COORD97":2544828.46,"ADDRESS":"中華路１５４巷１８弄２號十一樓之１","OBJECTID":215959},"geometry":{"x":171693.69000000041,"y":2544828.4600000009}},{"attributes":{"ID":215961,"DIS_CODE":0,"TOWNNAME":"永康區","LI":"成功里","LIN":"45鄰","STREET":"中華路","SECT":" ","MAREA":" ","LANE":"１５４巷","ALLEY":"１８弄","HOUSE_NO":"１０號三樓之３","E_COORD97":171701.29000000001,"N_COORD97":2544828.04,"ADDRESS":"中華路１５４巷１８弄１０號三樓之３","OBJECTID":215960},"geometry":{"x":171701.29000000004,"y":2544828.040000001}},{"attributes":{"ID":215962,"DIS_CODE":0,"TOWNNAME":"仁德區","LI":"太子里","LIN":"37鄰","STREET":"長興一街","SECT":" ","MAREA":" ","LANE":" ","ALLEY":" ","HOUSE_NO":"５６號","E_COORD97":174533.37,"N_COORD97":2543814.7599999998,"ADDRESS":"長興一街５６號","OBJECTID":215961},"geometry":{"x":174533.37000000011,"y":2543814.7599999998}},{"attributes":{"ID":215963,"DIS_CODE":0,"TOWNNAME":"永康區","LI":"成功里","LIN":"45鄰","STREET":"中華路","SECT":" ","MAREA":" ","LANE":"１５４巷","ALLEY":"１８弄","HOUSE_NO":"２號二樓之５","E_COORD97":171692.59,"N_COORD97":2544828.46,"ADDRESS":"中華路１５４巷１８弄２號二樓之５","OBJECTID":215962},"geometry":{"x":171692.58999999985,"y":2544828.4600000009}},{"attributes":{"ID":215964,"DIS_CODE":0,"TOWNNAME":"永康區","LI":"成功里","LIN":"45鄰","STREET":"中華路","SECT":" ","MAREA":" ","LANE":"１５４巷","ALLEY":"１８弄","HOUSE_NO":"１０號二樓之３","E_COORD97":171701.29000000001,"N_COORD97":2544828.04,"ADDRESS":"中華路１５４巷１８弄１０號二樓之３","OBJECTID":215963},"geometry":{"x":171701.29000000004,"y":2544828.040000001}},{"attributes":{"ID":215965,"DIS_CODE":0,"TOWNNAME":"永康區","LI":"成功里","LIN":"45鄰","STREET":"中華路","SECT":" ","MAREA":" ","LANE":"１５４巷","ALLEY":"１８弄","HOUSE_NO":"２號四樓之１","E_COORD97":171692.44,"N_COORD97":2544828.46,"ADDRESS":"中華路１５４巷１８弄２號四樓之１","OBJECTID":215964},"geometry":{"x":171692.44000000041,"y":2544828.4600000009}},{"attributes":{"ID":215966,"DIS_CODE":0,"TOWNNAME":"永康區","LI":"成功里","LIN":"45鄰","STREET":"中華路","SECT":" ","MAREA":" ","LANE":"１５４巷","ALLEY":"１８弄","HOUSE_NO":"２號九樓之４","E_COORD97":171692.45999999999,"N_COORD97":2544828.46,"ADDRESS":"中華路１５４巷１８弄２號九樓之４","OBJECTID":215965},"geometry":{"x":171692.46000000089,"y":2544828.4600000009}},{"attributes":{"ID":215967,"DIS_CODE":0,"TOWNNAME":"永康區","LI":"成功里","LIN":"45鄰","STREET":"中華路","SECT":" ","MAREA":" ","LANE":"１５４巷","ALLEY":"１８弄","HOUSE_NO":"２號九樓之１","E_COORD97":171692.44,"N_COORD97":2544828.46,"ADDRESS":"中華路１５４巷１８弄２號九樓之１","OBJECTID":215966},"geometry":{"x":171692.44000000041,"y":2544828.4600000009}},{"attributes":{"ID":215968,"DIS_CODE":0,"TOWNNAME":"永康區","LI":"成功里","LIN":"45鄰","STREET":"中華路","SECT":" ","MAREA":" ","LANE":"１５４巷","ALLEY":"１８弄","HOUSE_NO":"１０號九樓之２","E_COORD97":171701.32000000001,"N_COORD97":2544828.04,"ADDRESS":"中華路１５４巷１８弄１０號九樓之２","OBJECTID":215967},"geometry":{"x":171701.3200000003,"y":2544828.040000001}},{"attributes":{"ID":215969,"DIS_CODE":0,"TOWNNAME":"永康區","LI":"中華里","LIN":"19鄰","STREET":"小東路","SECT":" ","MAREA":" ","LANE":"４７７巷","ALLEY":"４６弄","HOUSE_NO":"１號之４","E_COORD97":171657.14000000001,"N_COORD97":2544537.0499999998,"ADDRESS":"小東路４７７巷４６弄１號之４","OBJECTID":215968},"geometry":{"x":171657.1400000006,"y":2544537.0500000026}},{"attributes":{"ID":215970,"DIS_CODE":0,"TOWNNAME":"永康區","LI":"成功里","LIN":"45鄰","STREET":"中華路","SECT":" ","MAREA":" ","LANE":"１５４巷","ALLEY":"１８弄","HOUSE_NO":"１０號四樓之１","E_COORD97":171701.19,"N_COORD97":2544828.04,"ADDRESS":"中華路１５４巷１８弄１０號四樓之１","OBJECTID":215969},"geometry":{"x":171701.19000000227,"y":2544828.040000001}},{"attributes":{"ID":215971,"DIS_CODE":0,"TOWNNAME":"永康區","LI":"成功里","LIN":"45鄰","STREET":"中華路","SECT":" ","MAREA":" ","LANE":"１５４巷","ALLEY":"１８弄","HOUSE_NO":"１０號二樓之４","E_COORD97":171701.20999999999,"N_COORD97":2544828.04,"ADDRESS":"中華路１５４巷１８弄１０號二樓之４","OBJECTID":215970},"geometry":{"x":171701.21000000089,"y":2544828.040000001}},{"attributes":{"ID":215972,"DIS_CODE":0,"TOWNNAME":"永康區","LI":"成功里","LIN":"45鄰","STREET":"中華路","SECT":" ","MAREA":" ","LANE":"１５４巷","ALLEY":"１８弄","HOUSE_NO":"２號八樓之４","E_COORD97":171692.45999999999,"N_COORD97":2544828.46,"ADDRESS":"中華路１５４巷１８弄２號八樓之４","OBJECTID":215971},"geometry":{"x":171692.46000000089,"y":2544828.4600000009}},{"attributes":{"ID":215973,"DIS_CODE":0,"TOWNNAME":"永康區","LI":"成功里","LIN":"45鄰","STREET":"中華路","SECT":" ","MAREA":" ","LANE":"１５４巷","ALLEY":"１８弄","HOUSE_NO":"１０號六樓之２","E_COORD97":171701.32000000001,"N_COORD97":2544828.04,"ADDRESS":"中華路１５４巷１８弄１０號六樓之２","OBJECTID":215972},"geometry":{"x":171701.3200000003,"y":2544828.040000001}},{"attributes":{"ID":215974,"DIS_CODE":0,"TOWNNAME":"永康區","LI":"成功里","LIN":"45鄰","STREET":"中華路","SECT":" ","MAREA":" ","LANE":"１５４巷","ALLEY":"１８弄","HOUSE_NO":"２號六樓之２","E_COORD97":171692.57000000001,"N_COORD97":2544828.46,"ADDRESS":"中華路１５４巷１８弄２號六樓之２","OBJECTID":215973},"geometry":{"x":171692.5700000003,"y":2544828.4600000009}},{"attributes":{"ID":215975,"DIS_CODE":0,"TOWNNAME":"永康區","LI":"成功里","LIN":"45鄰","STREET":"中華路","SECT":" ","MAREA":" ","LANE":"１５４巷","ALLEY":"１８弄","HOUSE_NO":"１０號三樓之２","E_COORD97":171701.32000000001,"N_COORD97":2544828.04,"ADDRESS":"中華路１５４巷１８弄１０號三樓之２","OBJECTID":215974},"geometry":{"x":171701.3200000003,"y":2544828.040000001}},{"attributes":{"ID":215976,"DIS_CODE":0,"TOWNNAME":"永康區","LI":"成功里","LIN":"45鄰","STREET":"中華路","SECT":" ","MAREA":" ","LANE":"１５４巷","ALLEY":"１８弄","HOUSE_NO":"１０號六樓之１","E_COORD97":171701.19,"N_COORD97":2544828.04,"ADDRESS":"中華路１５４巷１８弄１０號六樓之１","OBJECTID":215975},"geometry":{"x":171701.19000000227,"y":2544828.040000001}},{"attributes":{"ID":215977,"DIS_CODE":0,"TOWNNAME":"後壁區","LI":"嘉民里","LIN":"2鄰","STREET":" ","SECT":" ","MAREA":"上茄苳","LANE":" ","ALLEY":" ","HOUSE_NO":"１４３號之１０","E_COORD97":186514.45999999999,"N_COORD97":2587291.5800000001,"ADDRESS":"上茄苳１４３號之１０","OBJECTID":215976},"geometry":{"x":186514.45999999996,"y":2587291.5799999982}},{"attributes":{"ID":215978,"DIS_CODE":0,"TOWNNAME":"永康區","LI":"成功里","LIN":"45鄰","STREET":"中華路","SECT":" ","MAREA":" ","LANE":"１５４巷","ALLEY":"１８弄","HOUSE_NO":"１０號四樓之３","E_COORD97":171701.29000000001,"N_COORD97":2544828.04,"ADDRESS":"中華路１５４巷１８弄１０號四樓之３","OBJECTID":215977},"geometry":{"x":171701.29000000004,"y":2544828.040000001}},{"attributes":{"ID":215979,"DIS_CODE":0,"TOWNNAME":"後壁區","LI":"嘉民里","LIN":"2鄰","STREET":" ","SECT":" ","MAREA":"上茄苳","LANE":" ","ALLEY":" ","HOUSE_NO":"１４３號之１","E_COORD97":186550.64999999999,"N_COORD97":2587267.79,"ADDRESS":"上茄苳１４３號之１","OBJECTID":215978},"geometry":{"x":186550.65000000037,"y":2587267.7899999991}},{"attributes":{"ID":215980,"DIS_CODE":0,"TOWNNAME":"永康區","LI":"成功里","LIN":"45鄰","STREET":"中華路","SECT":" ","MAREA":" ","LANE":"１５４巷","ALLEY":"１８弄","HOUSE_NO":"１０號十樓之２","E_COORD97":171701.32000000001,"N_COORD97":2544828.04,"ADDRESS":"中華路１５４巷１８弄１０號十樓之２","OBJECTID":215979},"geometry":{"x":171701.3200000003,"y":2544828.040000001}},{"attributes":{"ID":215981,"DIS_CODE":0,"TOWNNAME":"後壁區","LI":"嘉民里","LIN":"2鄰","STREET":" ","SECT":" ","MAREA":"上茄苳","LANE":" ","ALLEY":" ","HOUSE_NO":"１４３號之３","E_COORD97":186547.91,"N_COORD97":2587270.5600000001,"ADDRESS":"上茄苳１４３號之３","OBJECTID":215980},"geometry":{"x":186547.91000000108,"y":2587270.5600000005}},{"attributes":{"ID":215982,"DIS_CODE":0,"TOWNNAME":"永康區","LI":"成功里","LIN":"45鄰","STREET":"中華路","SECT":" ","MAREA":" ","LANE":"１５４巷","ALLEY":"１８弄","HOUSE_NO":"２號五樓之２","E_COORD97":171692.57000000001,"N_COORD97":2544828.46,"ADDRESS":"中華路１５４巷１８弄２號五樓之２","OBJECTID":215981},"geometry":{"x":171692.5700000003,"y":2544828.4600000009}},{"attributes":{"ID":215983,"DIS_CODE":0,"TOWNNAME":"後壁區","LI":"嘉民里","LIN":"2鄰","STREET":" ","SECT":" ","MAREA":"上茄苳","LANE":" ","ALLEY":" ","HOUSE_NO":"１４３號之４","E_COORD97":186545.73999999999,"N_COORD97":2587273.2400000002,"ADDRESS":"上茄苳１４３號之４","OBJECTID":215982},"geometry":{"x":186545.74000000115,"y":2587273.2400000002}},{"attributes":{"ID":215984,"DIS_CODE":0,"TOWNNAME":"後壁區","LI":"嘉民里","LIN":"2鄰","STREET":" ","SECT":" ","MAREA":"上茄苳","LANE":" ","ALLEY":" ","HOUSE_NO":"１４３號之５","E_COORD97":186543.07999999999,"N_COORD97":2587275.6099999999,"ADDRESS":"上茄苳１４３號之５","OBJECTID":215983},"geometry":{"x":186543.08000000101,"y":2587275.6100000013}},{"attributes":{"ID":215985,"DIS_CODE":0,"TOWNNAME":"後壁區","LI":"嘉民里","LIN":"2鄰","STREET":" ","SECT":" ","MAREA":"上茄苳","LANE":" ","ALLEY":" ","HOUSE_NO":"１４３號","E_COORD97":186555.10999999999,"N_COORD97":2587264.21,"ADDRESS":"上茄苳１４３號","OBJECTID":215984},"geometry":{"x":186555.11000000127,"y":2587264.2100000009}},{"attributes":{"ID":215986,"DIS_CODE":0,"TOWNNAME":"後壁區","LI":"長安里","LIN":"2鄰","STREET":" ","SECT":" ","MAREA":"中寮","LANE":" ","ALLEY":" ","HOUSE_NO":"２８號","E_COORD97":184495.26000000001,"N_COORD97":2581265.73,"ADDRESS":"中寮２８號","OBJECTID":215985},"geometry":{"x":184495.26000000164,"y":2581265.7300000004}},{"attributes":{"ID":215987,"DIS_CODE":0,"TOWNNAME":"後壁區","LI":"嘉田里","LIN":"2鄰","STREET":" ","SECT":" ","MAREA":"上茄苳","LANE":" ","ALLEY":" ","HOUSE_NO":"１４號之７","E_COORD97":186700.97,"N_COORD97":2587539.1099999999,"ADDRESS":"上茄苳１４號之７","OBJECTID":215986},"geometry":{"x":186700.9700000016,"y":2587539.1100000013}},{"attributes":{"ID":215988,"DIS_CODE":0,"TOWNNAME":"後壁區","LI":"嘉田里","LIN":"2鄰","STREET":" ","SECT":" ","MAREA":"上茄苳","LANE":" ","ALLEY":" ","HOUSE_NO":"１５號之１","E_COORD97":186762.51000000001,"N_COORD97":2587530.6099999999,"ADDRESS":"上茄苳１５號之１","OBJECTID":215987},"geometry":{"x":186762.51000000071,"y":2587530.6099999994}},{"attributes":{"ID":215989,"DIS_CODE":0,"TOWNNAME":"後壁區","LI":"嘉田里","LIN":"2鄰","STREET":" ","SECT":" ","MAREA":"上茄苳","LANE":" ","ALLEY":" ","HOUSE_NO":"１５號之２","E_COORD97":186774.64000000001,"N_COORD97":2587538.2999999998,"ADDRESS":"上茄苳１５號之２","OBJECTID":215988},"geometry":{"x":186774.6400000006,"y":2587538.2999999989}},{"attributes":{"ID":215990,"DIS_CODE":0,"TOWNNAME":"後壁區","LI":"嘉田里","LIN":"2鄰","STREET":" ","SECT":" ","MAREA":"上茄苳","LANE":" ","ALLEY":" ","HOUSE_NO":"１５號之３","E_COORD97":186775.73000000001,"N_COORD97":2587533.8300000001,"ADDRESS":"上茄苳１５號之３","OBJECTID":215989},"geometry":{"x":186775.73000000045,"y":2587533.8300000001}},{"attributes":{"ID":215991,"DIS_CODE":0,"TOWNNAME":"後壁區","LI":"嘉田里","LIN":"2鄰","STREET":" ","SECT":" ","MAREA":"上茄苳","LANE":" ","ALLEY":" ","HOUSE_NO":"１８號之１０","E_COORD97":186825.01000000001,"N_COORD97":2587423.7999999998,"ADDRESS":"上茄苳１８號之１０","OBJECTID":215990},"geometry":{"x":186825.01000000071,"y":2587423.8000000026}},{"attributes":{"ID":215992,"DIS_CODE":0,"TOWNNAME":"仁德區","LI":"後壁里","LIN":"37鄰","STREET":"德洋一街","SECT":" ","MAREA":" ","LANE":" ","ALLEY":" ","HOUSE_NO":"５７號","E_COORD97":173144.28,"N_COORD97":2539204.52,"ADDRESS":"德洋一街５７號","OBJECTID":215991},"geometry":{"x":173144.28000000026,"y":2539204.5199999996}},{"attributes":{"ID":215993,"DIS_CODE":0,"TOWNNAME":"仁德區","LI":"後壁里","LIN":"37鄰","STREET":"民安路","SECT":"一段","MAREA":" ","LANE":" ","ALLEY":" ","HOUSE_NO":"３８８號","E_COORD97":173143.95999999999,"N_COORD97":2539357.8100000001,"ADDRESS":"民安路一段３８８號","OBJECTID":215992},"geometry":{"x":173143.96000000089,"y":2539357.8100000024}},{"attributes":{"ID":215994,"DIS_CODE":0,"TOWNNAME":"永康區","LI":"成功里","LIN":"45鄰","STREET":"中華路","SECT":" ","MAREA":" ","LANE":"１５４巷","ALLEY":"１８弄","HOUSE_NO":"２號七樓之１","E_COORD97":171692.44,"N_COORD97":2544828.46,"ADDRESS":"中華路１５４巷１８弄２號七樓之１","OBJECTID":215993},"geometry":{"x":171692.44000000041,"y":2544828.4600000009}},{"attributes":{"ID":215995,"DIS_CODE":0,"TOWNNAME":"永康區","LI":"成功里","LIN":"45鄰","STREET":"中華路","SECT":" ","MAREA":" ","LANE":"１５４巷","ALLEY":"１８弄","HOUSE_NO":"２號二樓之２","E_COORD97":171692.57000000001,"N_COORD97":2544828.46,"ADDRESS":"中華路１５４巷１８弄２號二樓之２","OBJECTID":215994},"geometry":{"x":171692.5700000003,"y":2544828.4600000009}},{"attributes":{"ID":215996,"DIS_CODE":0,"TOWNNAME":"仁德區","LI":"後壁里","LIN":"37鄰","STREET":"德洋一街","SECT":" ","MAREA":" ","LANE":" ","ALLEY":" ","HOUSE_NO":"７７號","E_COORD97":173169.48999999999,"N_COORD97":2539239.5099999998,"ADDRESS":"德洋一街７７號","OBJECTID":215995},"geometry":{"x":173169.49000000115,"y":2539239.5099999998}},{"attributes":{"ID":215997,"DIS_CODE":0,"TOWNNAME":"仁德區","LI":"後壁里","LIN":"37鄰","STREET":"德洋一街","SECT":" ","MAREA":" ","LANE":" ","ALLEY":" ","HOUSE_NO":"６３號","E_COORD97":173151.09,"N_COORD97":2539215.2599999998,"ADDRESS":"德洋一街６３號","OBJECTID":215996},"geometry":{"x":173151.09000000078,"y":2539215.2600000016}},{"attributes":{"ID":215998,"DIS_CODE":0,"TOWNNAME":"永康區","LI":"成功里","LIN":"45鄰","STREET":"中華路","SECT":" ","MAREA":" ","LANE":"１５４巷","ALLEY":"１８弄","HOUSE_NO":"２號十一樓之４","E_COORD97":171693.70999999999,"N_COORD97":2544828.46,"ADDRESS":"中華路１５４巷１８弄２號十一樓之４","OBJECTID":215997},"geometry":{"x":171693.71000000183,"y":2544828.4600000009}},{"attributes":{"ID":215999,"DIS_CODE":0,"TOWNNAME":"仁德區","LI":"後壁里","LIN":"37鄰","STREET":"德洋一街","SECT":" ","MAREA":" ","LANE":" ","ALLEY":" ","HOUSE_NO":"６７號","E_COORD97":173156.87,"N_COORD97":2539222.2599999998,"ADDRESS":"德洋一街６７號","OBJECTID":215998},"geometry":{"x":173156.87000000011,"y":2539222.2600000016}},{"attributes":{"ID":216000,"DIS_CODE":0,"TOWNNAME":"永康區","LI":"龍潭里","LIN":" ","STREET":"龍潭街","SECT":" ","MAREA":" ","LANE":"８９巷","ALLEY":"３０弄","HOUSE_NO":"１８號","E_COORD97":174671.29999999999,"N_COORD97":2548185.8500000001,"ADDRESS":"龍潭街８９巷３０弄１８號","OBJECTID":215999},"geometry":{"x":174671.29999999981,"y":2548185.8500000015}},{"attributes":{"ID":216001,"DIS_CODE":0,"TOWNNAME":"永康區","LI":"西灣里","LIN":" ","STREET":"大灣路","SECT":" ","MAREA":" ","LANE":"９４２巷","ALLEY":"５６１弄","HOUSE_NO":"７８之１號","E_COORD97":173587.79000000001,"N_COORD97":2545742.1400000001,"ADDRESS":"大灣路９４２巷５６１弄７８之１號","OBJECTID":216000},"geometry":{"x":173587.79000000004,"y":2545742.1400000006}}]}