{"displayFieldName":"TOWNNAME","fieldAliases":{"ID":"ID","DIS_CODE":"DIS_CODE","TOWNNAME":"TOWNNAME","LI":"LI","LIN":"LIN","STREET":"STREET","SECT":"SECT","MAREA":"MAREA","LANE":"LANE","ALLEY":"ALLEY","HOUSE_NO":"HOUSE_NO","E_COORD97":"E_COORD97","N_COORD97":"N_COORD97","ADDRESS":"ADDRESS","OBJECTID":"OBJECTID"},"geometryType":"esriGeometryPoint","spatialReference":{"wkid":102443,"latestWkid":3826},"fields":[{"name":"ID","type":"esriFieldTypeDouble","alias":"ID"},{"name":"DIS_CODE","type":"esriFieldTypeInteger","alias":"DIS_CODE"},{"name":"TOWNNAME","type":"esriFieldTypeString","alias":"TOWNNAME","length":8},{"name":"LI","type":"esriFieldTypeString","alias":"LI","length":8},{"name":"LIN","type":"esriFieldTypeString","alias":"LIN","length":12},{"name":"STREET","type":"esriFieldTypeString","alias":"STREET","length":20},{"name":"SECT","type":"esriFieldTypeString","alias":"SECT","length":8},{"name":"MAREA","type":"esriFieldTypeString","alias":"MAREA","length":12},{"name":"LANE","type":"esriFieldTypeString","alias":"LANE","length":10},{"name":"ALLEY","type":"esriFieldTypeString","alias":"ALLEY","length":10},{"name":"HOUSE_NO","type":"esriFieldTypeString","alias":"HOUSE_NO","length":20},{"name":"E_COORD97","type":"esriFieldTypeDouble","alias":"E_COORD97"},{"name":"N_COORD97","type":"esriFieldTypeDouble","alias":"N_COORD97"},{"name":"ADDRESS","type":"esriFieldTypeString","alias":"ADDRESS","length":50},{"name":"OBJECTID","type":"esriFieldTypeOID","alias":"OBJECTID"}],"features":[{"attributes":{"ID":252405,"DIS_CODE":0,"TOWNNAME":"安平區","LI":"華平里","LIN":"11鄰","STREET":"怡平路","SECT":" ","MAREA":" ","LANE":"４４２巷","ALLEY":" ","HOUSE_NO":"８２號","E_COORD97":165317.37,"N_COORD97":2544020.48,"ADDRESS":"怡平路４４２巷８２號","OBJECTID":252401},"geometry":{"x":165317.37000000104,"y":2544020.4800000004}},{"attributes":{"ID":252406,"DIS_CODE":0,"TOWNNAME":"安平區","LI":"華平里","LIN":"11鄰","STREET":"怡平路","SECT":" ","MAREA":" ","LANE":"４４２巷","ALLEY":" ","HOUSE_NO":"８４號","E_COORD97":165317.88,"N_COORD97":2544024.8399999999,"ADDRESS":"怡平路４４２巷８４號","OBJECTID":252402},"geometry":{"x":165317.87999999989,"y":2544024.8399999999}},{"attributes":{"ID":252407,"DIS_CODE":0,"TOWNNAME":"安平區","LI":"華平里","LIN":"11鄰","STREET":"怡平路","SECT":" ","MAREA":" ","LANE":"４４２巷","ALLEY":" ","HOUSE_NO":"８８號","E_COORD97":165319.89000000001,"N_COORD97":2544035.0499999998,"ADDRESS":"怡平路４４２巷８８號","OBJECTID":252403},"geometry":{"x":165319.88999999873,"y":2544035.0500000045}},{"attributes":{"ID":252408,"DIS_CODE":0,"TOWNNAME":"安平區","LI":"華平里","LIN":"11鄰","STREET":"怡平路","SECT":" ","MAREA":" ","LANE":"４４２巷","ALLEY":" ","HOUSE_NO":"９６號","E_COORD97":165321.39999999999,"N_COORD97":2544054.4300000002,"ADDRESS":"怡平路４４２巷９６號","OBJECTID":252404},"geometry":{"x":165321.4000000013,"y":2544054.4299999997}},{"attributes":{"ID":252409,"DIS_CODE":0,"TOWNNAME":"安平區","LI":"金城里","LIN":"11鄰","STREET":"同平路","SECT":" ","MAREA":" ","LANE":"１５６巷","ALLEY":" ","HOUSE_NO":"１１號","E_COORD97":163094,"N_COORD97":2543993.25,"ADDRESS":"同平路１５６巷１１號","OBJECTID":252405},"geometry":{"x":163094.00000000093,"y":2543993.2500000019}},{"attributes":{"ID":252410,"DIS_CODE":0,"TOWNNAME":"安平區","LI":"金城里","LIN":"11鄰","STREET":"同平路","SECT":" ","MAREA":" ","LANE":"１５６巷","ALLEY":" ","HOUSE_NO":"１３號","E_COORD97":163090.35999999999,"N_COORD97":2543992.7799999998,"ADDRESS":"同平路１５６巷１３號","OBJECTID":252406},"geometry":{"x":163090.36000000127,"y":2543992.7800000012}},{"attributes":{"ID":252411,"DIS_CODE":0,"TOWNNAME":"安平區","LI":"金城里","LIN":"11鄰","STREET":"同平路","SECT":" ","MAREA":" ","LANE":"１５６巷","ALLEY":" ","HOUSE_NO":"２１號","E_COORD97":163074.82999999999,"N_COORD97":2543988.1899999999,"ADDRESS":"同平路１５６巷２１號","OBJECTID":252407},"geometry":{"x":163074.83000000194,"y":2543988.1899999995}},{"attributes":{"ID":252412,"DIS_CODE":0,"TOWNNAME":"永康區","LI":"復國里","LIN":"14鄰","STREET":"復國二路","SECT":" ","MAREA":" ","LANE":"１７８巷","ALLEY":" ","HOUSE_NO":"８號之３","E_COORD97":172960.85999999999,"N_COORD97":2545673.3599999999,"ADDRESS":"復國二路１７８巷８號之３","OBJECTID":252408},"geometry":{"x":172960.86000000034,"y":2545673.3600000013}},{"attributes":{"ID":252413,"DIS_CODE":0,"TOWNNAME":"新化區","LI":"東榮里","LIN":"24鄰","STREET":"中正路","SECT":" ","MAREA":" ","LANE":" ","ALLEY":" ","HOUSE_NO":"２６２號之６","E_COORD97":179121.56,"N_COORD97":2547822.2599999998,"ADDRESS":"中正路２６２號之６","OBJECTID":252409},"geometry":{"x":179121.56000000052,"y":2547822.2599999998}},{"attributes":{"ID":252414,"DIS_CODE":0,"TOWNNAME":"鹽水區","LI":"橋南里","LIN":"24鄰","STREET":"行昌路","SECT":" ","MAREA":" ","LANE":" ","ALLEY":" ","HOUSE_NO":"２５號","E_COORD97":175016.91,"N_COORD97":2579327.4300000002,"ADDRESS":"行昌路２５號","OBJECTID":252410},"geometry":{"x":175016.91000000201,"y":2579327.4299999997}},{"attributes":{"ID":252415,"DIS_CODE":0,"TOWNNAME":"鹽水區","LI":"橋南里","LIN":"24鄰","STREET":"行昌路","SECT":" ","MAREA":" ","LANE":" ","ALLEY":" ","HOUSE_NO":"２７號","E_COORD97":175021.41,"N_COORD97":2579330.5800000001,"ADDRESS":"行昌路２７號","OBJECTID":252411},"geometry":{"x":175021.41000000015,"y":2579330.5800000001}},{"attributes":{"ID":252416,"DIS_CODE":0,"TOWNNAME":"鹽水區","LI":"橋南里","LIN":"24鄰","STREET":"行昌路","SECT":" ","MAREA":" ","LANE":" ","ALLEY":" ","HOUSE_NO":"２８號","E_COORD97":175006.09,"N_COORD97":2579353.5600000001,"ADDRESS":"行昌路２８號","OBJECTID":252412},"geometry":{"x":175006.08999999985,"y":2579353.5600000024}},{"attributes":{"ID":252417,"DIS_CODE":0,"TOWNNAME":"鹽水區","LI":"岸內里","LIN":"24鄰","STREET":"和平路","SECT":" ","MAREA":" ","LANE":" ","ALLEY":" ","HOUSE_NO":"１７１號","E_COORD97":175427.62,"N_COORD97":2580560.1000000001,"ADDRESS":"和平路１７１號","OBJECTID":252413},"geometry":{"x":175427.62000000104,"y":2580560.0999999996}},{"attributes":{"ID":252418,"DIS_CODE":0,"TOWNNAME":"鹽水區","LI":"岸內里","LIN":"24鄰","STREET":"和平路","SECT":" ","MAREA":" ","LANE":" ","ALLEY":" ","HOUSE_NO":"１７３號","E_COORD97":175416.82999999999,"N_COORD97":2580559.2200000002,"ADDRESS":"和平路１７３號","OBJECTID":252414},"geometry":{"x":175416.83000000007,"y":2580559.2200000025}},{"attributes":{"ID":252419,"DIS_CODE":0,"TOWNNAME":"鹽水區","LI":"岸內里","LIN":"24鄰","STREET":"和平路","SECT":" ","MAREA":" ","LANE":" ","ALLEY":" ","HOUSE_NO":"１７５號","E_COORD97":175412.42999999999,"N_COORD97":2580558.9700000002,"ADDRESS":"和平路１７５號","OBJECTID":252415},"geometry":{"x":175412.4299999997,"y":2580558.9700000007}},{"attributes":{"ID":252420,"DIS_CODE":0,"TOWNNAME":"鹽水區","LI":"岸內里","LIN":"24鄰","STREET":"和平路","SECT":" ","MAREA":" ","LANE":" ","ALLEY":" ","HOUSE_NO":"１７７號","E_COORD97":175408.03,"N_COORD97":2580558.73,"ADDRESS":"和平路１７７號","OBJECTID":252416},"geometry":{"x":175408.03000000119,"y":2580558.7300000023}},{"attributes":{"ID":252421,"DIS_CODE":0,"TOWNNAME":"鹽水區","LI":"岸內里","LIN":"24鄰","STREET":"和平路","SECT":" ","MAREA":" ","LANE":" ","ALLEY":" ","HOUSE_NO":"１７９號","E_COORD97":175403.62,"N_COORD97":2580558.48,"ADDRESS":"和平路１７９號","OBJECTID":252417},"geometry":{"x":175403.62000000197,"y":2580558.4800000004}},{"attributes":{"ID":252422,"DIS_CODE":0,"TOWNNAME":"鹽水區","LI":"岸內里","LIN":"24鄰","STREET":"和平路","SECT":" ","MAREA":" ","LANE":" ","ALLEY":" ","HOUSE_NO":"１８１號","E_COORD97":175399.22,"N_COORD97":2580558.2400000002,"ADDRESS":"和平路１８１號","OBJECTID":252418},"geometry":{"x":175399.2200000016,"y":2580558.2400000021}},{"attributes":{"ID":252423,"DIS_CODE":0,"TOWNNAME":"鹽水區","LI":"岸內里","LIN":"24鄰","STREET":"和平路","SECT":" ","MAREA":" ","LANE":" ","ALLEY":" ","HOUSE_NO":"１８５號","E_COORD97":175390.41,"N_COORD97":2580557.7400000002,"ADDRESS":"和平路１８５號","OBJECTID":252419},"geometry":{"x":175390.41000000108,"y":2580557.7400000039}},{"attributes":{"ID":252424,"DIS_CODE":0,"TOWNNAME":"鹽水區","LI":"岸內里","LIN":"24鄰","STREET":"和平路","SECT":" ","MAREA":" ","LANE":" ","ALLEY":" ","HOUSE_NO":"１８７號","E_COORD97":175386.01000000001,"N_COORD97":2580557.5,"ADDRESS":"和平路１８７號","OBJECTID":252420},"geometry":{"x":175386.01000000071,"y":2580557.5}},{"attributes":{"ID":252425,"DIS_CODE":0,"TOWNNAME":"鹽水區","LI":"岸內里","LIN":"24鄰","STREET":"和平路","SECT":" ","MAREA":" ","LANE":" ","ALLEY":" ","HOUSE_NO":"１８９號","E_COORD97":175382.07999999999,"N_COORD97":2580557.3700000001,"ADDRESS":"和平路１８９號","OBJECTID":252421},"geometry":{"x":175382.08000000101,"y":2580557.3699999992}},{"attributes":{"ID":252426,"DIS_CODE":0,"TOWNNAME":"南區","LI":"郡南里","LIN":"17鄰","STREET":"永成路","SECT":"三段","MAREA":" ","LANE":" ","ALLEY":" ","HOUSE_NO":"１３號","E_COORD97":167478.42731200001,"N_COORD97":2540404.9482200001,"ADDRESS":"永成路三段１３號","OBJECTID":252422},"geometry":{"x":167478.42731200159,"y":2540404.9482190013}},{"attributes":{"ID":252427,"DIS_CODE":0,"TOWNNAME":"安平區","LI":"金城里","LIN":"11鄰","STREET":"同平路","SECT":" ","MAREA":" ","LANE":"１５６巷","ALLEY":" ","HOUSE_NO":"３３號","E_COORD97":163035.76000000001,"N_COORD97":2543984.8599999999,"ADDRESS":"同平路１５６巷３３號","OBJECTID":252423},"geometry":{"x":163035.75999999885,"y":2543984.8600000013}},{"attributes":{"ID":252428,"DIS_CODE":0,"TOWNNAME":"安平區","LI":"金城里","LIN":"11鄰","STREET":"同平路","SECT":" ","MAREA":" ","LANE":"１５６巷","ALLEY":" ","HOUSE_NO":"３５號","E_COORD97":163037.70999999999,"N_COORD97":2543953.46,"ADDRESS":"同平路１５６巷３５號","OBJECTID":252424},"geometry":{"x":163037.70999999996,"y":2543953.4600000009}},{"attributes":{"ID":252429,"DIS_CODE":0,"TOWNNAME":"安平區","LI":"金城里","LIN":"11鄰","STREET":"同平路","SECT":" ","MAREA":" ","LANE":"１５６巷","ALLEY":" ","HOUSE_NO":"３７號","E_COORD97":163019.12,"N_COORD97":2543966.02,"ADDRESS":"同平路１５６巷３７號","OBJECTID":252425},"geometry":{"x":163019.12000000104,"y":2543966.0200000033}},{"attributes":{"ID":252430,"DIS_CODE":0,"TOWNNAME":"安平區","LI":"金城里","LIN":"11鄰","STREET":"同平路","SECT":" ","MAREA":" ","LANE":"１５６巷","ALLEY":" ","HOUSE_NO":"３９號","E_COORD97":163022.29000000001,"N_COORD97":2543980.4300000002,"ADDRESS":"同平路１５６巷３９號","OBJECTID":252426},"geometry":{"x":163022.28999999911,"y":2543980.4300000034}},{"attributes":{"ID":252431,"DIS_CODE":0,"TOWNNAME":"安平區","LI":"金城里","LIN":"11鄰","STREET":"同平路","SECT":" ","MAREA":" ","LANE":"１５６巷","ALLEY":" ","HOUSE_NO":"３號","E_COORD97":163125.85999999999,"N_COORD97":2543999.5899999999,"ADDRESS":"同平路１５６巷３號","OBJECTID":252427},"geometry":{"x":163125.86000000127,"y":2543999.589999998}},{"attributes":{"ID":252432,"DIS_CODE":0,"TOWNNAME":"安平區","LI":"金城里","LIN":"11鄰","STREET":"同平路","SECT":" ","MAREA":" ","LANE":"１５６巷","ALLEY":" ","HOUSE_NO":"４１號","E_COORD97":163010.72,"N_COORD97":2543979.48,"ADDRESS":"同平路１５６巷４１號","OBJECTID":252428},"geometry":{"x":163010.7200000016,"y":2543979.4800000004}},{"attributes":{"ID":252433,"DIS_CODE":0,"TOWNNAME":"安平區","LI":"金城里","LIN":"11鄰","STREET":"同平路","SECT":" ","MAREA":" ","LANE":"１５６巷","ALLEY":" ","HOUSE_NO":"４５號","E_COORD97":162996.82999999999,"N_COORD97":2543977.71,"ADDRESS":"同平路１５６巷４５號","OBJECTID":252429},"geometry":{"x":162996.83000000194,"y":2543977.7100000028}},{"attributes":{"ID":252434,"DIS_CODE":0,"TOWNNAME":"安平區","LI":"金城里","LIN":"11鄰","STREET":"同平路","SECT":" ","MAREA":" ","LANE":"１５６巷","ALLEY":" ","HOUSE_NO":"４７號","E_COORD97":162990.60999999999,"N_COORD97":2543971.25,"ADDRESS":"同平路１５６巷４７號","OBJECTID":252430},"geometry":{"x":162990.61000000127,"y":2543971.25}},{"attributes":{"ID":252435,"DIS_CODE":0,"TOWNNAME":"安平區","LI":"金城里","LIN":"11鄰","STREET":"同平路","SECT":" ","MAREA":" ","LANE":"１５６巷","ALLEY":" ","HOUSE_NO":"４９號","E_COORD97":162983.79000000001,"N_COORD97":2543969.8100000001,"ADDRESS":"同平路１５６巷４９號","OBJECTID":252431},"geometry":{"x":162983.79000000097,"y":2543969.8100000024}},{"attributes":{"ID":252436,"DIS_CODE":0,"TOWNNAME":"永康區","LI":"復華里","LIN":"14鄰","STREET":"國華街","SECT":" ","MAREA":" ","LANE":"９２巷","ALLEY":" ","HOUSE_NO":"１５號","E_COORD97":172907.28,"N_COORD97":2545871.9900000002,"ADDRESS":"國華街９２巷１５號","OBJECTID":252432},"geometry":{"x":172907.27999999933,"y":2545871.9900000002}},{"attributes":{"ID":252437,"DIS_CODE":0,"TOWNNAME":"鹽水區","LI":"岸內里","LIN":"24鄰","STREET":"和平路","SECT":" ","MAREA":" ","LANE":" ","ALLEY":" ","HOUSE_NO":"１９１號","E_COORD97":175377.20000000001,"N_COORD97":2580557.0099999998,"ADDRESS":"和平路１９１號","OBJECTID":252433},"geometry":{"x":175377.20000000019,"y":2580557.0099999998}},{"attributes":{"ID":252438,"DIS_CODE":0,"TOWNNAME":"鹽水區","LI":"岸內里","LIN":"24鄰","STREET":"和平路","SECT":" ","MAREA":" ","LANE":" ","ALLEY":" ","HOUSE_NO":"１９３號","E_COORD97":175372.79999999999,"N_COORD97":2580556.7599999998,"ADDRESS":"和平路１９３號","OBJECTID":252434},"geometry":{"x":175372.79999999981,"y":2580556.7599999979}},{"attributes":{"ID":252439,"DIS_CODE":0,"TOWNNAME":"鹽水區","LI":"岸內里","LIN":"24鄰","STREET":"和平路","SECT":" ","MAREA":" ","LANE":" ","ALLEY":" ","HOUSE_NO":"１９５號","E_COORD97":175368.39999999999,"N_COORD97":2580556.5099999998,"ADDRESS":"和平路１９５號","OBJECTID":252435},"geometry":{"x":175368.4000000013,"y":2580556.5100000016}},{"attributes":{"ID":252440,"DIS_CODE":0,"TOWNNAME":"鹽水區","LI":"岸內里","LIN":"24鄰","STREET":"和平路","SECT":" ","MAREA":" ","LANE":" ","ALLEY":" ","HOUSE_NO":"１９７號","E_COORD97":175363.98999999999,"N_COORD97":2580556.27,"ADDRESS":"和平路１９７號","OBJECTID":252436},"geometry":{"x":175363.99000000209,"y":2580556.2699999996}},{"attributes":{"ID":252441,"DIS_CODE":0,"TOWNNAME":"鹽水區","LI":"岸內里","LIN":"24鄰","STREET":"和平路","SECT":" ","MAREA":" ","LANE":" ","ALLEY":" ","HOUSE_NO":"１９９號","E_COORD97":175359.59,"N_COORD97":2580556.02,"ADDRESS":"和平路１９９號","OBJECTID":252437},"geometry":{"x":175359.59000000171,"y":2580556.0200000014}},{"attributes":{"ID":252442,"DIS_CODE":0,"TOWNNAME":"鹽水區","LI":"岸內里","LIN":"24鄰","STREET":"和平路","SECT":" ","MAREA":" ","LANE":" ","ALLEY":" ","HOUSE_NO":"２０１號","E_COORD97":175355.19,"N_COORD97":2580555.7799999998,"ADDRESS":"和平路２０１號","OBJECTID":252438},"geometry":{"x":175355.19000000041,"y":2580555.7799999993}},{"attributes":{"ID":252443,"DIS_CODE":0,"TOWNNAME":"鹽水區","LI":"岸內里","LIN":"24鄰","STREET":"和平路","SECT":" ","MAREA":" ","LANE":" ","ALLEY":" ","HOUSE_NO":"２０３號","E_COORD97":175350.78,"N_COORD97":2580555.5299999998,"ADDRESS":"和平路２０３號","OBJECTID":252439},"geometry":{"x":175350.78000000119,"y":2580555.5300000012}},{"attributes":{"ID":252444,"DIS_CODE":0,"TOWNNAME":"安平區","LI":"文平里","LIN":"24鄰","STREET":"永華二街","SECT":" ","MAREA":" ","LANE":" ","ALLEY":" ","HOUSE_NO":"２３號","E_COORD97":166331.01000000001,"N_COORD97":2542888,"ADDRESS":"永華二街２３號","OBJECTID":252440},"geometry":{"x":166331.00999999978,"y":2542888}},{"attributes":{"ID":252445,"DIS_CODE":0,"TOWNNAME":"安平區","LI":"文平里","LIN":"24鄰","STREET":"永華二街","SECT":" ","MAREA":" ","LANE":" ","ALLEY":" ","HOUSE_NO":"２５號","E_COORD97":166331.95999999999,"N_COORD97":2542892.7599999998,"ADDRESS":"永華二街２５號","OBJECTID":252441},"geometry":{"x":166331.96000000183,"y":2542892.7599999998}},{"attributes":{"ID":252446,"DIS_CODE":0,"TOWNNAME":"安平區","LI":"文平里","LIN":"24鄰","STREET":"永華二街","SECT":" ","MAREA":" ","LANE":" ","ALLEY":" ","HOUSE_NO":"２７號","E_COORD97":166332.44,"N_COORD97":2542896.73,"ADDRESS":"永華二街２７號","OBJECTID":252442},"geometry":{"x":166332.44000000227,"y":2542896.7300000004}},{"attributes":{"ID":252447,"DIS_CODE":0,"TOWNNAME":"安平區","LI":"文平里","LIN":"24鄰","STREET":"建平三街","SECT":" ","MAREA":" ","LANE":" ","ALLEY":" ","HOUSE_NO":"２號","E_COORD97":166312.26999999999,"N_COORD97":2542877.52,"ADDRESS":"建平三街２號","OBJECTID":252443},"geometry":{"x":166312.26999999862,"y":2542877.5199999977}},{"attributes":{"ID":252448,"DIS_CODE":0,"TOWNNAME":"安平區","LI":"國平里","LIN":"11鄰","STREET":"建平一街","SECT":" ","MAREA":" ","LANE":"２０２巷","ALLEY":" ","HOUSE_NO":"１４號","E_COORD97":165592.07000000001,"N_COORD97":2542824.7599999998,"ADDRESS":"建平一街２０２巷１４號","OBJECTID":252444},"geometry":{"x":165592.0700000003,"y":2542824.7599999998}},{"attributes":{"ID":252449,"DIS_CODE":0,"TOWNNAME":"安平區","LI":"國平里","LIN":"11鄰","STREET":"建平一街","SECT":" ","MAREA":" ","LANE":"２０２巷","ALLEY":" ","HOUSE_NO":"１６號","E_COORD97":165592.67999999999,"N_COORD97":2542830.6000000001,"ADDRESS":"建平一街２０２巷１６號","OBJECTID":252445},"geometry":{"x":165592.68000000156,"y":2542830.6000000015}},{"attributes":{"ID":252450,"DIS_CODE":0,"TOWNNAME":"安平區","LI":"國平里","LIN":"11鄰","STREET":"建平一街","SECT":" ","MAREA":" ","LANE":"２０２巷","ALLEY":" ","HOUSE_NO":"１８號","E_COORD97":165592.88,"N_COORD97":2542834.4500000002,"ADDRESS":"建平一街２０２巷１８號","OBJECTID":252446},"geometry":{"x":165592.87999999989,"y":2542834.4500000011}},{"attributes":{"ID":252451,"DIS_CODE":0,"TOWNNAME":"安平區","LI":"國平里","LIN":"11鄰","STREET":"建平一街","SECT":" ","MAREA":" ","LANE":"２０２巷","ALLEY":" ","HOUSE_NO":"２０號","E_COORD97":165593.69,"N_COORD97":2542840.5,"ADDRESS":"建平一街２０２巷２０號","OBJECTID":252447},"geometry":{"x":165593.69000000134,"y":2542840.5}},{"attributes":{"ID":252452,"DIS_CODE":0,"TOWNNAME":"安平區","LI":"國平里","LIN":"11鄰","STREET":"建平一街","SECT":" ","MAREA":" ","LANE":"２０２巷","ALLEY":" ","HOUSE_NO":"２２號","E_COORD97":165593.69,"N_COORD97":2542845.1400000001,"ADDRESS":"建平一街２０２巷２２號","OBJECTID":252448},"geometry":{"x":165593.69000000134,"y":2542845.1400000025}},{"attributes":{"ID":252453,"DIS_CODE":0,"TOWNNAME":"安平區","LI":"國平里","LIN":"11鄰","STREET":"建平一街","SECT":" ","MAREA":" ","LANE":"２０２巷","ALLEY":" ","HOUSE_NO":"２４號","E_COORD97":165594.29999999999,"N_COORD97":2542849.9900000002,"ADDRESS":"建平一街２０２巷２４號","OBJECTID":252449},"geometry":{"x":165594.30000000075,"y":2542849.9900000002}},{"attributes":{"ID":252454,"DIS_CODE":0,"TOWNNAME":"安平區","LI":"國平里","LIN":"11鄰","STREET":"建平一街","SECT":" ","MAREA":" ","LANE":"２０２巷","ALLEY":" ","HOUSE_NO":"２６號","E_COORD97":165595.31,"N_COORD97":2542854.8300000001,"ADDRESS":"建平一街２０２巷２６號","OBJECTID":252450},"geometry":{"x":165595.31000000052,"y":2542854.8300000001}},{"attributes":{"ID":252455,"DIS_CODE":0,"TOWNNAME":"安平區","LI":"國平里","LIN":"11鄰","STREET":"建平一街","SECT":" ","MAREA":" ","LANE":"２０２巷","ALLEY":" ","HOUSE_NO":"２８號","E_COORD97":165595.70999999999,"N_COORD97":2542860.2799999998,"ADDRESS":"建平一街２０２巷２８號","OBJECTID":252451},"geometry":{"x":165595.70999999996,"y":2542860.2800000012}},{"attributes":{"ID":252456,"DIS_CODE":0,"TOWNNAME":"安平區","LI":"國平里","LIN":"11鄰","STREET":"建平一街","SECT":" ","MAREA":" ","LANE":"２０２巷","ALLEY":" ","HOUSE_NO":"３０號","E_COORD97":165597.32999999999,"N_COORD97":2542864.9199999999,"ADDRESS":"建平一街２０２巷３０號","OBJECTID":252452},"geometry":{"x":165597.33000000101,"y":2542864.9199999999}},{"attributes":{"ID":252457,"DIS_CODE":0,"TOWNNAME":"南區","LI":"永寧里","LIN":"11鄰","STREET":"灣裡路","SECT":" ","MAREA":" ","LANE":"２４６巷","ALLEY":" ","HOUSE_NO":"８號","E_COORD97":166017.66,"N_COORD97":2536463.0299999998,"ADDRESS":"灣裡路２４６巷８號","OBJECTID":252453},"geometry":{"x":166017.66000000108,"y":2536463.0300000031}},{"attributes":{"ID":252458,"DIS_CODE":0,"TOWNNAME":"南區","LI":"永寧里","LIN":"11鄰","STREET":"灣裡路","SECT":" ","MAREA":" ","LANE":"２４６巷","ALLEY":" ","HOUSE_NO":"９號","E_COORD97":166045.14999999999,"N_COORD97":2536462.5899999999,"ADDRESS":"灣裡路２４６巷９號","OBJECTID":252454},"geometry":{"x":166045.1500000013,"y":2536462.5899999999}},{"attributes":{"ID":252459,"DIS_CODE":0,"TOWNNAME":"南區","LI":"永寧里","LIN":"11鄰","STREET":"灣裡路","SECT":" ","MAREA":" ","LANE":"２４６巷","ALLEY":" ","HOUSE_NO":"１０號","E_COORD97":166004.78,"N_COORD97":2536459.8999999999,"ADDRESS":"灣裡路２４６巷１０號","OBJECTID":252455},"geometry":{"x":166004.78000000119,"y":2536459.9000000004}},{"attributes":{"ID":252460,"DIS_CODE":0,"TOWNNAME":"永康區","LI":"復國里","LIN":"14鄰","STREET":"復國二路","SECT":" ","MAREA":" ","LANE":"１４０巷","ALLEY":" ","HOUSE_NO":"６號","E_COORD97":172919.22,"N_COORD97":2545599.7799999998,"ADDRESS":"復國二路１４０巷６號","OBJECTID":252456},"geometry":{"x":172919.22000000067,"y":2545599.7800000012}},{"attributes":{"ID":252461,"DIS_CODE":0,"TOWNNAME":"永康區","LI":"復興里","LIN":"14鄰","STREET":"復興路","SECT":" ","MAREA":" ","LANE":"２８２巷","ALLEY":" ","HOUSE_NO":"１０號","E_COORD97":172382.31,"N_COORD97":2544397.1400000001,"ADDRESS":"復興路２８２巷１０號","OBJECTID":252457},"geometry":{"x":172382.30999999959,"y":2544397.1400000043}},{"attributes":{"ID":252462,"DIS_CODE":0,"TOWNNAME":"永康區","LI":"復國里","LIN":"14鄰","STREET":"復國二路","SECT":" ","MAREA":" ","LANE":"１３４巷","ALLEY":" ","HOUSE_NO":"１４號","E_COORD97":172934.26000000001,"N_COORD97":2545564.27,"ADDRESS":"復國二路１３４巷１４號","OBJECTID":252458},"geometry":{"x":172934.26000000071,"y":2545564.2699999996}},{"attributes":{"ID":252463,"DIS_CODE":0,"TOWNNAME":"永康區","LI":"埔園里","LIN":"14鄰","STREET":"中山路","SECT":" ","MAREA":" ","LANE":"２３３巷","ALLEY":" ","HOUSE_NO":"１０號","E_COORD97":173598.10999999999,"N_COORD97":2548141.7400000002,"ADDRESS":"中山路２３３巷１０號","OBJECTID":252459},"geometry":{"x":173598.11000000034,"y":2548141.7400000002}},{"attributes":{"ID":252464,"DIS_CODE":0,"TOWNNAME":"永康區","LI":"復興里","LIN":"14鄰","STREET":"復興路","SECT":" ","MAREA":" ","LANE":"２４６巷","ALLEY":" ","HOUSE_NO":"３號","E_COORD97":172425.39999999999,"N_COORD97":2544364.7799999998,"ADDRESS":"復興路２４６巷３號","OBJECTID":252460},"geometry":{"x":172425.4000000013,"y":2544364.7800000012}},{"attributes":{"ID":252465,"DIS_CODE":0,"TOWNNAME":"永康區","LI":"復興里","LIN":"14鄰","STREET":"復興路","SECT":" ","MAREA":" ","LANE":"２８２巷","ALLEY":" ","HOUSE_NO":"２１號","E_COORD97":172350.20999999999,"N_COORD97":2544375.9300000002,"ADDRESS":"復興路２８２巷２１號","OBJECTID":252461},"geometry":{"x":172350.21000000089,"y":2544375.9299999997}},{"attributes":{"ID":252466,"DIS_CODE":0,"TOWNNAME":"東區","LI":"崇學里","LIN":"14鄰","STREET":"榮譽街","SECT":" ","MAREA":" ","LANE":"２９０巷","ALLEY":" ","HOUSE_NO":"１０號","E_COORD97":170204.26999999999,"N_COORD97":2541982.1600000001,"ADDRESS":"榮譽街２９０巷１０號","OBJECTID":252462},"geometry":{"x":170204.26999999955,"y":2541982.1599999983}},{"attributes":{"ID":252467,"DIS_CODE":0,"TOWNNAME":"東區","LI":"崇學里","LIN":"14鄰","STREET":"榮譽街","SECT":" ","MAREA":" ","LANE":"２９０巷","ALLEY":" ","HOUSE_NO":"１２號","E_COORD97":170208.57000000001,"N_COORD97":2541979.7799999998,"ADDRESS":"榮譽街２９０巷１２號","OBJECTID":252463},"geometry":{"x":170208.57000000123,"y":2541979.7799999993}},{"attributes":{"ID":252468,"DIS_CODE":0,"TOWNNAME":"關廟區","LI":"東勢里","LIN":"24鄰","STREET":"東安街","SECT":" ","MAREA":" ","LANE":" ","ALLEY":" ","HOUSE_NO":"２３６號","E_COORD97":181583.47,"N_COORD97":2539360.3199999998,"ADDRESS":"東安街２３６號","OBJECTID":252464},"geometry":{"x":181583.47000000067,"y":2539360.3200000003}},{"attributes":{"ID":252469,"DIS_CODE":0,"TOWNNAME":"關廟區","LI":"香洋里","LIN":"24鄰","STREET":"民族街","SECT":" ","MAREA":" ","LANE":" ","ALLEY":" ","HOUSE_NO":"１９１號","E_COORD97":181161.89000000001,"N_COORD97":2539902.29,"ADDRESS":"民族街１９１號","OBJECTID":252465},"geometry":{"x":181161.8900000006,"y":2539902.2900000028}},{"attributes":{"ID":252470,"DIS_CODE":0,"TOWNNAME":"關廟區","LI":"香洋里","LIN":"24鄰","STREET":"民族街","SECT":" ","MAREA":" ","LANE":" ","ALLEY":" ","HOUSE_NO":"２４８號","E_COORD97":181184.19,"N_COORD97":2539907.29,"ADDRESS":"民族街２４８號","OBJECTID":252466},"geometry":{"x":181184.19000000134,"y":2539907.2899999991}},{"attributes":{"ID":252471,"DIS_CODE":0,"TOWNNAME":"關廟區","LI":"東勢里","LIN":"24鄰","STREET":"東安街","SECT":" ","MAREA":" ","LANE":" ","ALLEY":" ","HOUSE_NO":"２３３號","E_COORD97":181604.57000000001,"N_COORD97":2539370.3199999998,"ADDRESS":"東安街２３３號","OBJECTID":252467},"geometry":{"x":181604.5700000003,"y":2539370.3200000003}},{"attributes":{"ID":252472,"DIS_CODE":0,"TOWNNAME":"新營區","LI":"忠政里","LIN":"24鄰","STREET":"健康路","SECT":" ","MAREA":" ","LANE":" ","ALLEY":" ","HOUSE_NO":"２５４號","E_COORD97":179671.14999999999,"N_COORD97":2579513.3999999999,"ADDRESS":"健康路２５４號","OBJECTID":252468},"geometry":{"x":179671.1500000013,"y":2579513.4000000022}},{"attributes":{"ID":252473,"DIS_CODE":0,"TOWNNAME":"安南區","LI":"溪墘里","LIN":"23鄰","STREET":"安寧街","SECT":" ","MAREA":" ","LANE":"９１巷","ALLEY":" ","HOUSE_NO":"１９號","E_COORD97":167326.25760499999,"N_COORD97":2547088.6232599998,"ADDRESS":"安寧街９１巷１９號","OBJECTID":252469},"geometry":{"x":167326.2576050004,"y":2547088.6232580021}},{"attributes":{"ID":252474,"DIS_CODE":0,"TOWNNAME":"新營區","LI":"新北里","LIN":"24鄰","STREET":"民生路","SECT":" ","MAREA":" ","LANE":" ","ALLEY":" ","HOUSE_NO":"５６０號","E_COORD97":178793.85999999999,"N_COORD97":2579365.8700000001,"ADDRESS":"民生路５６０號","OBJECTID":252470},"geometry":{"x":178793.86000000034,"y":2579365.870000001}},{"attributes":{"ID":252475,"DIS_CODE":0,"TOWNNAME":"新營區","LI":"忠政里","LIN":"24鄰","STREET":"健康路","SECT":" ","MAREA":" ","LANE":" ","ALLEY":" ","HOUSE_NO":"６６號","E_COORD97":179678.98999999999,"N_COORD97":2579070.3799999999,"ADDRESS":"健康路６６號","OBJECTID":252471},"geometry":{"x":179678.99000000115,"y":2579070.3800000027}},{"attributes":{"ID":252476,"DIS_CODE":0,"TOWNNAME":"新營區","LI":"忠政里","LIN":"24鄰","STREET":"健康路","SECT":" ","MAREA":" ","LANE":" ","ALLEY":" ","HOUSE_NO":"２７０號","E_COORD97":179671.35999999999,"N_COORD97":2579557.7000000002,"ADDRESS":"健康路２７０號","OBJECTID":252472},"geometry":{"x":179671.36000000127,"y":2579557.7000000011}},{"attributes":{"ID":252477,"DIS_CODE":0,"TOWNNAME":"新營區","LI":"王公里","LIN":"24鄰","STREET":"中正路","SECT":" ","MAREA":" ","LANE":" ","ALLEY":" ","HOUSE_NO":"１１０之９號","E_COORD97":180106.87,"N_COORD97":2579434.98,"ADDRESS":"中正路１１０之９號","OBJECTID":252473},"geometry":{"x":180106.87000000104,"y":2579434.9800000023}},{"attributes":{"ID":252478,"DIS_CODE":0,"TOWNNAME":"新營區","LI":"忠政里","LIN":"24鄰","STREET":"健康路","SECT":" ","MAREA":" ","LANE":" ","ALLEY":" ","HOUSE_NO":"３０６號","E_COORD97":179669.79000000001,"N_COORD97":2579652.9399999999,"ADDRESS":"健康路３０６號","OBJECTID":252474},"geometry":{"x":179669.79000000097,"y":2579652.9399999995}},{"attributes":{"ID":252479,"DIS_CODE":0,"TOWNNAME":"新營區","LI":"忠政里","LIN":"24鄰","STREET":"健康路","SECT":" ","MAREA":" ","LANE":" ","ALLEY":" ","HOUSE_NO":"１９０號","E_COORD97":179671.42999999999,"N_COORD97":2579370.54,"ADDRESS":"健康路１９０號","OBJECTID":252475},"geometry":{"x":179671.43000000063,"y":2579370.5399999991}},{"attributes":{"ID":252480,"DIS_CODE":0,"TOWNNAME":"新營區","LI":"忠政里","LIN":"24鄰","STREET":"健康路","SECT":" ","MAREA":" ","LANE":" ","ALLEY":" ","HOUSE_NO":"２５６號","E_COORD97":179671.17999999999,"N_COORD97":2579517.8300000001,"ADDRESS":"健康路２５６號","OBJECTID":252476},"geometry":{"x":179671.18000000156,"y":2579517.8300000001}},{"attributes":{"ID":252481,"DIS_CODE":0,"TOWNNAME":"新營區","LI":"忠政里","LIN":"24鄰","STREET":"健康路","SECT":" ","MAREA":" ","LANE":" ","ALLEY":" ","HOUSE_NO":"４６號","E_COORD97":179685.85000000001,"N_COORD97":2578991.71,"ADDRESS":"健康路４６號","OBJECTID":252477},"geometry":{"x":179685.85000000056,"y":2578991.7100000009}},{"attributes":{"ID":252482,"DIS_CODE":0,"TOWNNAME":"新營區","LI":"王公里","LIN":"24鄰","STREET":"中正路","SECT":" ","MAREA":" ","LANE":" ","ALLEY":" ","HOUSE_NO":"１１４號","E_COORD97":180104.45999999999,"N_COORD97":2579451.5499999998,"ADDRESS":"中正路１１４號","OBJECTID":252478},"geometry":{"x":180104.45999999996,"y":2579451.5500000026}},{"attributes":{"ID":252483,"DIS_CODE":0,"TOWNNAME":"東區","LI":"崇學里","LIN":"14鄰","STREET":"榮譽街","SECT":" ","MAREA":" ","LANE":"２９０巷","ALLEY":" ","HOUSE_NO":"１４號","E_COORD97":170211.98999999999,"N_COORD97":2541976.6699999999,"ADDRESS":"榮譽街２９０巷１４號","OBJECTID":252479},"geometry":{"x":170211.99000000022,"y":2541976.6700000018}},{"attributes":{"ID":252484,"DIS_CODE":0,"TOWNNAME":"東區","LI":"崇學里","LIN":"14鄰","STREET":"榮譽街","SECT":" ","MAREA":" ","LANE":"２９０巷","ALLEY":" ","HOUSE_NO":"１６號","E_COORD97":170214.66,"N_COORD97":2541972.96,"ADDRESS":"榮譽街２９０巷１６號","OBJECTID":252480},"geometry":{"x":170214.66000000108,"y":2541972.9600000009}},{"attributes":{"ID":252485,"DIS_CODE":0,"TOWNNAME":"東區","LI":"崇學里","LIN":"14鄰","STREET":"榮譽街","SECT":" ","MAREA":" ","LANE":"２９０巷","ALLEY":" ","HOUSE_NO":"１９號","E_COORD97":170243.26999999999,"N_COORD97":2541984.2200000002,"ADDRESS":"榮譽街２９０巷１９號","OBJECTID":252481},"geometry":{"x":170243.26999999955,"y":2541984.2200000007}},{"attributes":{"ID":252486,"DIS_CODE":0,"TOWNNAME":"東區","LI":"崇學里","LIN":"14鄰","STREET":"榮譽街","SECT":" ","MAREA":" ","LANE":"２９０巷","ALLEY":" ","HOUSE_NO":"１號","E_COORD97":170219.44,"N_COORD97":2542002.4399999999,"ADDRESS":"榮譽街２９０巷１號","OBJECTID":252482},"geometry":{"x":170219.43999999948,"y":2542002.4399999995}},{"attributes":{"ID":252487,"DIS_CODE":0,"TOWNNAME":"東區","LI":"崇學里","LIN":"14鄰","STREET":"榮譽街","SECT":" ","MAREA":" ","LANE":"２９０巷","ALLEY":" ","HOUSE_NO":"２１號","E_COORD97":170247.04999999999,"N_COORD97":2541981.4399999999,"ADDRESS":"榮譽街２９０巷２１號","OBJECTID":252483},"geometry":{"x":170247.05000000168,"y":2541981.4399999995}},{"attributes":{"ID":252488,"DIS_CODE":0,"TOWNNAME":"學甲區","LI":"三慶里","LIN":"11鄰","STREET":" ","SECT":" ","MAREA":"頂洲","LANE":" ","ALLEY":" ","HOUSE_NO":"１４１號之１","E_COORD97":168426.23000000001,"N_COORD97":2576493.02,"ADDRESS":"頂洲１４１號之１","OBJECTID":252484},"geometry":{"x":168426.23000000138,"y":2576493.0199999996}},{"attributes":{"ID":252489,"DIS_CODE":0,"TOWNNAME":"學甲區","LI":"三慶里","LIN":"11鄰","STREET":" ","SECT":" ","MAREA":"頂洲","LANE":" ","ALLEY":" ","HOUSE_NO":"１４１號","E_COORD97":168416.89000000001,"N_COORD97":2576518.8300000001,"ADDRESS":"頂洲１４１號","OBJECTID":252485},"geometry":{"x":168416.88999999966,"y":2576518.8300000038}},{"attributes":{"ID":252490,"DIS_CODE":0,"TOWNNAME":"學甲區","LI":"三慶里","LIN":"11鄰","STREET":" ","SECT":" ","MAREA":"頂洲","LANE":" ","ALLEY":" ","HOUSE_NO":"１４３號之１","E_COORD97":168447.25,"N_COORD97":2576560.0699999998,"ADDRESS":"頂洲１４３號之１","OBJECTID":252486},"geometry":{"x":168447.25000000186,"y":2576560.0700000003}},{"attributes":{"ID":252491,"DIS_CODE":0,"TOWNNAME":"學甲區","LI":"三慶里","LIN":"11鄰","STREET":" ","SECT":" ","MAREA":"頂洲","LANE":" ","ALLEY":" ","HOUSE_NO":"１４３號之２","E_COORD97":168450.23999999999,"N_COORD97":2576524.7000000002,"ADDRESS":"頂洲１４３號之２","OBJECTID":252487},"geometry":{"x":168450.24000000022,"y":2576524.6999999993}},{"attributes":{"ID":252492,"DIS_CODE":0,"TOWNNAME":"學甲區","LI":"三慶里","LIN":"11鄰","STREET":" ","SECT":" ","MAREA":"頂洲","LANE":" ","ALLEY":" ","HOUSE_NO":"１４３號","E_COORD97":168450.29999999999,"N_COORD97":2576512.1099999999,"ADDRESS":"頂洲１４３號","OBJECTID":252488},"geometry":{"x":168450.30000000075,"y":2576512.1099999994}},{"attributes":{"ID":252493,"DIS_CODE":0,"TOWNNAME":"學甲區","LI":"三慶里","LIN":"11鄰","STREET":" ","SECT":" ","MAREA":"頂洲","LANE":" ","ALLEY":" ","HOUSE_NO":"１４５號之１","E_COORD97":168406.42999999999,"N_COORD97":2576553.73,"ADDRESS":"頂洲１４５號之１","OBJECTID":252489},"geometry":{"x":168406.4299999997,"y":2576553.7300000042}},{"attributes":{"ID":252494,"DIS_CODE":0,"TOWNNAME":"學甲區","LI":"三慶里","LIN":"11鄰","STREET":" ","SECT":" ","MAREA":"頂洲","LANE":" ","ALLEY":" ","HOUSE_NO":"１４６號","E_COORD97":168380.23000000001,"N_COORD97":2576585.5699999998,"ADDRESS":"頂洲１４６號","OBJECTID":252490},"geometry":{"x":168380.23000000138,"y":2576585.5700000022}},{"attributes":{"ID":252495,"DIS_CODE":0,"TOWNNAME":"東區","LI":"崇學里","LIN":"14鄰","STREET":"榮譽街","SECT":" ","MAREA":" ","LANE":"２９０巷","ALLEY":" ","HOUSE_NO":"２３號","E_COORD97":170251.63,"N_COORD97":2541978.4500000002,"ADDRESS":"榮譽街２９０巷２３號","OBJECTID":252491},"geometry":{"x":170251.63000000175,"y":2541978.4499999993}},{"attributes":{"ID":252496,"DIS_CODE":0,"TOWNNAME":"東區","LI":"崇學里","LIN":"14鄰","STREET":"榮譽街","SECT":" ","MAREA":" ","LANE":"２９０巷","ALLEY":" ","HOUSE_NO":"２５號","E_COORD97":170256.01000000001,"N_COORD97":2541975.6699999999,"ADDRESS":"榮譽街２９０巷２５號","OBJECTID":252492},"geometry":{"x":170256.01000000071,"y":2541975.6700000018}},{"attributes":{"ID":252497,"DIS_CODE":0,"TOWNNAME":"東區","LI":"崇學里","LIN":"14鄰","STREET":"榮譽街","SECT":" ","MAREA":" ","LANE":"２９０巷","ALLEY":" ","HOUSE_NO":"２７號","E_COORD97":170260.39000000001,"N_COORD97":2541973.48,"ADDRESS":"榮譽街２９０巷２７號","OBJECTID":252493},"geometry":{"x":170260.3900000006,"y":2541973.4799999986}},{"attributes":{"ID":252498,"DIS_CODE":0,"TOWNNAME":"東區","LI":"崇學里","LIN":"14鄰","STREET":"榮譽街","SECT":" ","MAREA":" ","LANE":"２９０巷","ALLEY":" ","HOUSE_NO":"２９號","E_COORD97":170263.97,"N_COORD97":2541970.7000000002,"ADDRESS":"榮譽街２９０巷２９號","OBJECTID":252494},"geometry":{"x":170263.96999999974,"y":2541970.6999999974}},{"attributes":{"ID":252499,"DIS_CODE":0,"TOWNNAME":"東區","LI":"崇學里","LIN":"14鄰","STREET":"榮譽街","SECT":" ","MAREA":" ","LANE":"２９０巷","ALLEY":" ","HOUSE_NO":"２號","E_COORD97":170191.45000000001,"N_COORD97":2541996.77,"ADDRESS":"榮譽街２９０巷２號","OBJECTID":252495},"geometry":{"x":170191.45000000019,"y":2541996.7699999996}},{"attributes":{"ID":252500,"DIS_CODE":0,"TOWNNAME":"東區","LI":"崇學里","LIN":"14鄰","STREET":"榮譽街","SECT":" ","MAREA":" ","LANE":"２９０巷","ALLEY":" ","HOUSE_NO":"３１號","E_COORD97":170267.75,"N_COORD97":2541968.1099999999,"ADDRESS":"榮譽街２９０巷３１號","OBJECTID":252496},"geometry":{"x":170267.74999999907,"y":2541968.1099999975}},{"attributes":{"ID":252501,"DIS_CODE":0,"TOWNNAME":"東區","LI":"崇學里","LIN":"14鄰","STREET":"榮譽街","SECT":" ","MAREA":" ","LANE":"２９０巷","ALLEY":" ","HOUSE_NO":"３３號","E_COORD97":170271.14000000001,"N_COORD97":2541965.1299999999,"ADDRESS":"榮譽街２９０巷３３號","OBJECTID":252497},"geometry":{"x":170271.13999999966,"y":2541965.1300000008}},{"attributes":{"ID":252502,"DIS_CODE":0,"TOWNNAME":"學甲區","LI":"三慶里","LIN":"11鄰","STREET":" ","SECT":" ","MAREA":"頂洲","LANE":" ","ALLEY":" ","HOUSE_NO":"１４７號","E_COORD97":168397.37,"N_COORD97":2576585.3199999998,"ADDRESS":"頂洲１４７號","OBJECTID":252498},"geometry":{"x":168397.37000000197,"y":2576585.3200000003}},{"attributes":{"ID":252503,"DIS_CODE":0,"TOWNNAME":"學甲區","LI":"三慶里","LIN":"11鄰","STREET":" ","SECT":" ","MAREA":"頂洲","LANE":" ","ALLEY":" ","HOUSE_NO":"１４８號之１","E_COORD97":168456.57999999999,"N_COORD97":2576574.6099999999,"ADDRESS":"頂洲１４８號之１","OBJECTID":252499},"geometry":{"x":168456.58000000007,"y":2576574.6100000013}},{"attributes":{"ID":252504,"DIS_CODE":0,"TOWNNAME":"學甲區","LI":"三慶里","LIN":"11鄰","STREET":" ","SECT":" ","MAREA":"頂洲","LANE":" ","ALLEY":" ","HOUSE_NO":"１４８號","E_COORD97":168416.03,"N_COORD97":2576591.0699999998,"ADDRESS":"頂洲１４８號","OBJECTID":252500},"geometry":{"x":168416.03000000026,"y":2576591.0700000003}},{"attributes":{"ID":252505,"DIS_CODE":0,"TOWNNAME":"學甲區","LI":"平和里","LIN":"11鄰","STREET":" ","SECT":" ","MAREA":"學甲寮","LANE":" ","ALLEY":" ","HOUSE_NO":"１００號","E_COORD97":169530.70999999999,"N_COORD97":2573376.6000000001,"ADDRESS":"學甲寮１００號","OBJECTID":252501},"geometry":{"x":169530.71000000183,"y":2573376.5999999996}},{"attributes":{"ID":252506,"DIS_CODE":0,"TOWNNAME":"學甲區","LI":"平和里","LIN":"11鄰","STREET":" ","SECT":" ","MAREA":"學甲寮","LANE":" ","ALLEY":" ","HOUSE_NO":"１０１號之１","E_COORD97":169501.12,"N_COORD97":2573371.73,"ADDRESS":"學甲寮１０１號之１","OBJECTID":252502},"geometry":{"x":169501.12000000104,"y":2573371.7300000023}},{"attributes":{"ID":252507,"DIS_CODE":0,"TOWNNAME":"學甲區","LI":"平和里","LIN":"11鄰","STREET":" ","SECT":" ","MAREA":"學甲寮","LANE":" ","ALLEY":" ","HOUSE_NO":"１０１號","E_COORD97":169516.72,"N_COORD97":2573375.1000000001,"ADDRESS":"學甲寮１０１號","OBJECTID":252503},"geometry":{"x":169516.71999999881,"y":2573375.1000000015}},{"attributes":{"ID":252508,"DIS_CODE":0,"TOWNNAME":"學甲區","LI":"平和里","LIN":"11鄰","STREET":" ","SECT":" ","MAREA":"學甲寮","LANE":" ","ALLEY":" ","HOUSE_NO":"１０３號","E_COORD97":169557.26999999999,"N_COORD97":2573339.29,"ADDRESS":"學甲寮１０３號","OBJECTID":252504},"geometry":{"x":169557.27000000048,"y":2573339.290000001}},{"attributes":{"ID":252509,"DIS_CODE":0,"TOWNNAME":"學甲區","LI":"平和里","LIN":"11鄰","STREET":" ","SECT":" ","MAREA":"學甲寮","LANE":" ","ALLEY":" ","HOUSE_NO":"１０４號","E_COORD97":169558.48000000001,"N_COORD97":2573323.5299999998,"ADDRESS":"學甲寮１０４號","OBJECTID":252505},"geometry":{"x":169558.48000000138,"y":2573323.5300000012}},{"attributes":{"ID":252510,"DIS_CODE":0,"TOWNNAME":"學甲區","LI":"平和里","LIN":"11鄰","STREET":" ","SECT":" ","MAREA":"學甲寮","LANE":" ","ALLEY":" ","HOUSE_NO":"９８號","E_COORD97":169568.98999999999,"N_COORD97":2573376.8100000001,"ADDRESS":"學甲寮９８號","OBJECTID":252506},"geometry":{"x":169568.99000000022,"y":2573376.8100000042}},{"attributes":{"ID":252511,"DIS_CODE":0,"TOWNNAME":"學甲區","LI":"平和里","LIN":"11鄰","STREET":" ","SECT":" ","MAREA":"學甲寮","LANE":" ","ALLEY":" ","HOUSE_NO":"９７號之６","E_COORD97":169586.79999999999,"N_COORD97":2573336.9100000001,"ADDRESS":"學甲寮９７號之６","OBJECTID":252507},"geometry":{"x":169586.79999999981,"y":2573336.9100000001}},{"attributes":{"ID":252512,"DIS_CODE":0,"TOWNNAME":"學甲區","LI":"平和里","LIN":"11鄰","STREET":" ","SECT":" ","MAREA":"學甲寮","LANE":" ","ALLEY":" ","HOUSE_NO":"９７號之７","E_COORD97":169582.23999999999,"N_COORD97":2573335.8799999999,"ADDRESS":"學甲寮９７號之７","OBJECTID":252508},"geometry":{"x":169582.24000000115,"y":2573335.879999999}},{"attributes":{"ID":252513,"DIS_CODE":0,"TOWNNAME":"學甲區","LI":"平和里","LIN":"11鄰","STREET":" ","SECT":" ","MAREA":"學甲寮","LANE":" ","ALLEY":" ","HOUSE_NO":"９７號","E_COORD97":169588.48000000001,"N_COORD97":2573371.5299999998,"ADDRESS":"學甲寮９７號","OBJECTID":252509},"geometry":{"x":169588.48000000045,"y":2573371.5300000012}},{"attributes":{"ID":252514,"DIS_CODE":0,"TOWNNAME":"學甲區","LI":"平和里","LIN":"11鄰","STREET":" ","SECT":" ","MAREA":"學甲寮","LANE":" ","ALLEY":" ","HOUSE_NO":"９８號之１","E_COORD97":169567.88,"N_COORD97":2573390.21,"ADDRESS":"學甲寮９８號之１","OBJECTID":252510},"geometry":{"x":169567.87999999989,"y":2573390.2100000009}},{"attributes":{"ID":252515,"DIS_CODE":0,"TOWNNAME":"學甲區","LI":"平和里","LIN":"11鄰","STREET":" ","SECT":" ","MAREA":"學甲寮","LANE":" ","ALLEY":" ","HOUSE_NO":"９９號之１","E_COORD97":169550.94,"N_COORD97":2573388.29,"ADDRESS":"學甲寮９９號之１","OBJECTID":252511},"geometry":{"x":169550.94000000041,"y":2573388.2899999991}},{"attributes":{"ID":252516,"DIS_CODE":0,"TOWNNAME":"學甲區","LI":"平和里","LIN":"11鄰","STREET":" ","SECT":" ","MAREA":"學甲寮","LANE":" ","ALLEY":" ","HOUSE_NO":"９９號","E_COORD97":169559.48999999999,"N_COORD97":2573366.3599999999,"ADDRESS":"學甲寮９９號","OBJECTID":252512},"geometry":{"x":169559.48999999929,"y":2573366.3600000013}},{"attributes":{"ID":252517,"DIS_CODE":0,"TOWNNAME":"後壁區","LI":"福安里","LIN":"8鄰","STREET":" ","SECT":" ","MAREA":"下寮","LANE":" ","ALLEY":" ","HOUSE_NO":"７９號","E_COORD97":184286.85999999999,"N_COORD97":2580988.8300000001,"ADDRESS":"下寮７９號","OBJECTID":252513},"geometry":{"x":184286.86000000127,"y":2580988.8300000019}},{"attributes":{"ID":252518,"DIS_CODE":0,"TOWNNAME":"東區","LI":"崇學里","LIN":"14鄰","STREET":"榮譽街","SECT":" ","MAREA":" ","LANE":"２９０巷","ALLEY":" ","HOUSE_NO":"３５號","E_COORD97":170273.92000000001,"N_COORD97":2541962.7400000002,"ADDRESS":"榮譽街２９０巷３５號","OBJECTID":252514},"geometry":{"x":170273.92000000086,"y":2541962.7400000021}},{"attributes":{"ID":252519,"DIS_CODE":0,"TOWNNAME":"東區","LI":"崇學里","LIN":"14鄰","STREET":"榮譽街","SECT":" ","MAREA":" ","LANE":"２９０巷","ALLEY":" ","HOUSE_NO":"３號","E_COORD97":170223.73999999999,"N_COORD97":2542001.0600000001,"ADDRESS":"榮譽街２９０巷３號","OBJECTID":252515},"geometry":{"x":170223.74000000022,"y":2542001.0600000024}},{"attributes":{"ID":252520,"DIS_CODE":0,"TOWNNAME":"東區","LI":"崇學里","LIN":"14鄰","STREET":"榮譽街","SECT":" ","MAREA":" ","LANE":"２９０巷","ALLEY":" ","HOUSE_NO":"４號","E_COORD97":170193.42000000001,"N_COORD97":2541991.3599999999,"ADDRESS":"榮譽街２９０巷４號","OBJECTID":252516},"geometry":{"x":170193.41999999993,"y":2541991.3600000013}},{"attributes":{"ID":252521,"DIS_CODE":0,"TOWNNAME":"東區","LI":"崇學里","LIN":"14鄰","STREET":"榮譽街","SECT":" ","MAREA":" ","LANE":"２９０巷","ALLEY":" ","HOUSE_NO":"５號","E_COORD97":170226.48999999999,"N_COORD97":2541997.7999999998,"ADDRESS":"榮譽街２９０巷５號","OBJECTID":252517},"geometry":{"x":170226.49000000115,"y":2541997.8000000007}},{"attributes":{"ID":252522,"DIS_CODE":0,"TOWNNAME":"東區","LI":"崇學里","LIN":"14鄰","STREET":"榮譽街","SECT":" ","MAREA":" ","LANE":"２９０巷","ALLEY":" ","HOUSE_NO":"６號","E_COORD97":170197.14000000001,"N_COORD97":2541987.9500000002,"ADDRESS":"榮譽街２９０巷６號","OBJECTID":252518},"geometry":{"x":170197.14000000153,"y":2541987.9499999993}},{"attributes":{"ID":252523,"DIS_CODE":0,"TOWNNAME":"東區","LI":"崇學里","LIN":"14鄰","STREET":"榮譽街","SECT":" ","MAREA":" ","LANE":"２９０巷","ALLEY":" ","HOUSE_NO":"７號","E_COORD97":170229.92999999999,"N_COORD97":2541994.5299999998,"ADDRESS":"榮譽街２９０巷７號","OBJECTID":252519},"geometry":{"x":170229.9299999997,"y":2541994.5299999993}},{"attributes":{"ID":252524,"DIS_CODE":0,"TOWNNAME":"東區","LI":"崇學里","LIN":"14鄰","STREET":"榮譽街","SECT":" ","MAREA":" ","LANE":"２９０巷","ALLEY":" ","HOUSE_NO":"８號","E_COORD97":170201.44,"N_COORD97":2541985.8700000001,"ADDRESS":"榮譽街２９０巷８號","OBJECTID":252520},"geometry":{"x":170201.44000000134,"y":2541985.8700000029}},{"attributes":{"ID":252525,"DIS_CODE":0,"TOWNNAME":"佳里區","LI":"東寧里","LIN":"14鄰","STREET":"延平路","SECT":" ","MAREA":" ","LANE":"３５０巷","ALLEY":" ","HOUSE_NO":"１０號","E_COORD97":165908.53,"N_COORD97":2562458.98,"ADDRESS":"延平路３５０巷１０號","OBJECTID":252521},"geometry":{"x":165908.53000000119,"y":2562458.9800000023}},{"attributes":{"ID":252526,"DIS_CODE":0,"TOWNNAME":"佳里區","LI":"東寧里","LIN":"14鄰","STREET":"延平路","SECT":" ","MAREA":" ","LANE":"３５０巷","ALLEY":" ","HOUSE_NO":"１２號","E_COORD97":165913.10000000001,"N_COORD97":2562459.9300000002,"ADDRESS":"延平路３５０巷１２號","OBJECTID":252522},"geometry":{"x":165913.09999999963,"y":2562459.9299999997}},{"attributes":{"ID":252527,"DIS_CODE":0,"TOWNNAME":"佳里區","LI":"東寧里","LIN":"14鄰","STREET":"延平路","SECT":" ","MAREA":" ","LANE":"３５０巷","ALLEY":" ","HOUSE_NO":"１３號","E_COORD97":165917.01000000001,"N_COORD97":2562488.3799999999,"ADDRESS":"延平路３５０巷１３號","OBJECTID":252523},"geometry":{"x":165917.00999999978,"y":2562488.3800000008}},{"attributes":{"ID":252528,"DIS_CODE":0,"TOWNNAME":"六甲區","LI":"大丘里","LIN":"11鄰","STREET":" ","SECT":" ","MAREA":"九重橋","LANE":" ","ALLEY":" ","HOUSE_NO":"６號","E_COORD97":190346.03,"N_COORD97":2568074.02,"ADDRESS":"九重橋６號","OBJECTID":252524},"geometry":{"x":190346.03000000119,"y":2568074.0199999996}},{"attributes":{"ID":252529,"DIS_CODE":0,"TOWNNAME":"六甲區","LI":"大丘里","LIN":"11鄰","STREET":" ","SECT":" ","MAREA":"九重橋","LANE":" ","ALLEY":" ","HOUSE_NO":"９號之１","E_COORD97":190183.51000000001,"N_COORD97":2567531.8599999999,"ADDRESS":"九重橋９號之１","OBJECTID":252525},"geometry":{"x":190183.50999999978,"y":2567531.8599999994}},{"attributes":{"ID":252530,"DIS_CODE":0,"TOWNNAME":"六甲區","LI":"大丘里","LIN":"11鄰","STREET":" ","SECT":" ","MAREA":"九重橋","LANE":" ","ALLEY":" ","HOUSE_NO":"９號","E_COORD97":190292.92000000001,"N_COORD97":2567930.6600000001,"ADDRESS":"九重橋９號","OBJECTID":252526},"geometry":{"x":190292.91999999993,"y":2567930.6600000001}},{"attributes":{"ID":252531,"DIS_CODE":0,"TOWNNAME":"六甲區","LI":"七甲里","LIN":"11鄰","STREET":"七甲街","SECT":" ","MAREA":" ","LANE":"８６巷","ALLEY":" ","HOUSE_NO":"７號","E_COORD97":183141.73000000001,"N_COORD97":2569042.8199999998,"ADDRESS":"七甲街８６巷７號","OBJECTID":252527},"geometry":{"x":183141.73000000231,"y":2569042.8200000003}},{"attributes":{"ID":252532,"DIS_CODE":0,"TOWNNAME":"六甲區","LI":"七甲里","LIN":"11鄰","STREET":"七甲街","SECT":" ","MAREA":" ","LANE":"８６巷","ALLEY":" ","HOUSE_NO":"９號","E_COORD97":183142.51000000001,"N_COORD97":2569049.3999999999,"ADDRESS":"七甲街８６巷９號","OBJECTID":252528},"geometry":{"x":183142.51000000164,"y":2569049.4000000004}},{"attributes":{"ID":252533,"DIS_CODE":0,"TOWNNAME":"南區","LI":"興農里","LIN":"11鄰","STREET":"明興路","SECT":" ","MAREA":" ","LANE":"１１８１巷","ALLEY":" ","HOUSE_NO":"１０９之１號","E_COORD97":167219.07999999999,"N_COORD97":2536726.5099999998,"ADDRESS":"明興路１１８１巷１０９之１號","OBJECTID":252529},"geometry":{"x":167219.08000000007,"y":2536726.5099999998}},{"attributes":{"ID":252534,"DIS_CODE":0,"TOWNNAME":"北區","LI":"仁愛里","LIN":"11鄰","STREET":"東豐路","SECT":" ","MAREA":" ","LANE":"３０５巷","ALLEY":" ","HOUSE_NO":"２７號","E_COORD97":170415.48999999999,"N_COORD97":2544875.6099999999,"ADDRESS":"東豐路３０５巷２７號","OBJECTID":252530},"geometry":{"x":170415.49000000022,"y":2544875.6099999994}},{"attributes":{"ID":252535,"DIS_CODE":0,"TOWNNAME":"北區","LI":"仁愛里","LIN":"11鄰","STREET":"東豐路","SECT":" ","MAREA":" ","LANE":"３０５巷","ALLEY":" ","HOUSE_NO":"２９號","E_COORD97":170417.25,"N_COORD97":2544879.5299999998,"ADDRESS":"東豐路３０５巷２９號","OBJECTID":252531},"geometry":{"x":170417.25000000093,"y":2544879.5299999993}},{"attributes":{"ID":252536,"DIS_CODE":0,"TOWNNAME":"北區","LI":"仁愛里","LIN":"11鄰","STREET":"東豐路","SECT":" ","MAREA":" ","LANE":"３０５巷","ALLEY":" ","HOUSE_NO":"３１號","E_COORD97":170416.70000000001,"N_COORD97":2544884.7999999998,"ADDRESS":"東豐路３０５巷３１號","OBJECTID":252532},"geometry":{"x":170416.70000000112,"y":2544884.8000000026}},{"attributes":{"ID":252537,"DIS_CODE":0,"TOWNNAME":"北區","LI":"仁愛里","LIN":"11鄰","STREET":"東豐路","SECT":" ","MAREA":" ","LANE":"３０５巷","ALLEY":" ","HOUSE_NO":"３３號","E_COORD97":170417.79000000001,"N_COORD97":2544888.5899999999,"ADDRESS":"東豐路３０５巷３３號","OBJECTID":252533},"geometry":{"x":170417.79000000004,"y":2544888.5900000017}},{"attributes":{"ID":252538,"DIS_CODE":0,"TOWNNAME":"北區","LI":"仁愛里","LIN":"11鄰","STREET":"東豐路","SECT":" ","MAREA":" ","LANE":"３０５巷","ALLEY":" ","HOUSE_NO":"３５號","E_COORD97":170418.32999999999,"N_COORD97":2544893.1800000002,"ADDRESS":"東豐路３０５巷３５號","OBJECTID":252534},"geometry":{"x":170418.33000000194,"y":2544893.1799999997}},{"attributes":{"ID":252539,"DIS_CODE":0,"TOWNNAME":"北區","LI":"仁愛里","LIN":"11鄰","STREET":"東豐路","SECT":" ","MAREA":" ","LANE":"３０５巷","ALLEY":" ","HOUSE_NO":"４１號","E_COORD97":170419.84,"N_COORD97":2544900.77,"ADDRESS":"東豐路３０５巷４１號","OBJECTID":252535},"geometry":{"x":170419.84000000078,"y":2544900.7700000014}},{"attributes":{"ID":252540,"DIS_CODE":0,"TOWNNAME":"北區","LI":"仁愛里","LIN":"11鄰","STREET":"東豐路","SECT":" ","MAREA":" ","LANE":"３０５巷","ALLEY":" ","HOUSE_NO":"４３號","E_COORD97":170420.75,"N_COORD97":2544911.7400000002,"ADDRESS":"東豐路３０５巷４３號","OBJECTID":252536},"geometry":{"x":170420.75000000093,"y":2544911.7400000021}},{"attributes":{"ID":252541,"DIS_CODE":0,"TOWNNAME":"北區","LI":"仁愛里","LIN":"11鄰","STREET":"東豐路","SECT":" ","MAREA":" ","LANE":"３０５巷","ALLEY":" ","HOUSE_NO":"５１號","E_COORD97":170425.32999999999,"N_COORD97":2544919.75,"ADDRESS":"東豐路３０５巷５１號","OBJECTID":252537},"geometry":{"x":170425.33000000101,"y":2544919.75}},{"attributes":{"ID":252542,"DIS_CODE":0,"TOWNNAME":"北區","LI":"仁愛里","LIN":"11鄰","STREET":"東豐路","SECT":" ","MAREA":" ","LANE":"３０５巷","ALLEY":" ","HOUSE_NO":"５３號","E_COORD97":170426.35999999999,"N_COORD97":2544940.4500000002,"ADDRESS":"東豐路３０５巷５３號","OBJECTID":252538},"geometry":{"x":170426.36000000034,"y":2544940.4500000011}},{"attributes":{"ID":252543,"DIS_CODE":0,"TOWNNAME":"佳里區","LI":"東寧里","LIN":"14鄰","STREET":"延平路","SECT":" ","MAREA":" ","LANE":"３５０巷","ALLEY":" ","HOUSE_NO":"１４號","E_COORD97":165894.32999999999,"N_COORD97":2562468.9100000001,"ADDRESS":"延平路３５０巷１４號","OBJECTID":252539},"geometry":{"x":165894.33000000101,"y":2562468.9100000039}},{"attributes":{"ID":252544,"DIS_CODE":0,"TOWNNAME":"佳里區","LI":"東寧里","LIN":"14鄰","STREET":"延平路","SECT":" ","MAREA":" ","LANE":"３５０巷","ALLEY":" ","HOUSE_NO":"１５號","E_COORD97":165925.73000000001,"N_COORD97":2562490.0800000001,"ADDRESS":"延平路３５０巷１５號","OBJECTID":252540},"geometry":{"x":165925.73000000138,"y":2562490.0800000001}},{"attributes":{"ID":252545,"DIS_CODE":0,"TOWNNAME":"佳里區","LI":"東寧里","LIN":"14鄰","STREET":"延平路","SECT":" ","MAREA":" ","LANE":"３５０巷","ALLEY":" ","HOUSE_NO":"１６號","E_COORD97":165902.26999999999,"N_COORD97":2562470.8799999999,"ADDRESS":"延平路３５０巷１６號","OBJECTID":252541},"geometry":{"x":165902.27000000142,"y":2562470.8800000027}},{"attributes":{"ID":252546,"DIS_CODE":0,"TOWNNAME":"佳里區","LI":"東寧里","LIN":"14鄰","STREET":"延平路","SECT":" ","MAREA":" ","LANE":"３５０巷","ALLEY":" ","HOUSE_NO":"３號","E_COORD97":165895.62,"N_COORD97":2562484.5600000001,"ADDRESS":"延平路３５０巷３號","OBJECTID":252542},"geometry":{"x":165895.62000000104,"y":2562484.5600000005}},{"attributes":{"ID":252547,"DIS_CODE":0,"TOWNNAME":"新營區","LI":"忠政里","LIN":"24鄰","STREET":"健康路","SECT":" ","MAREA":" ","LANE":" ","ALLEY":" ","HOUSE_NO":"７２號","E_COORD97":179678.04999999999,"N_COORD97":2579084.7799999998,"ADDRESS":"健康路７２號","OBJECTID":252543},"geometry":{"x":179678.05000000075,"y":2579084.7799999975}},{"attributes":{"ID":252548,"DIS_CODE":0,"TOWNNAME":"新營區","LI":"忠政里","LIN":"24鄰","STREET":"健康路","SECT":" ","MAREA":" ","LANE":" ","ALLEY":" ","HOUSE_NO":"３８號","E_COORD97":179681.69,"N_COORD97":2578976.23,"ADDRESS":"健康路３８號","OBJECTID":252544},"geometry":{"x":179681.69000000041,"y":2578976.2300000023}},{"attributes":{"ID":252549,"DIS_CODE":0,"TOWNNAME":"新營區","LI":"王公里","LIN":"24鄰","STREET":"中正路","SECT":" ","MAREA":" ","LANE":" ","ALLEY":" ","HOUSE_NO":"１２０號","E_COORD97":180102.51999999999,"N_COORD97":2579474.8100000001,"ADDRESS":"中正路１２０號","OBJECTID":252545},"geometry":{"x":180102.51999999955,"y":2579474.8100000005}},{"attributes":{"ID":252550,"DIS_CODE":0,"TOWNNAME":"新營區","LI":"忠政里","LIN":"24鄰","STREET":"健康路","SECT":" ","MAREA":" ","LANE":" ","ALLEY":" ","HOUSE_NO":"１７４號","E_COORD97":179672.23999999999,"N_COORD97":2579325.1200000001,"ADDRESS":"健康路１７４號","OBJECTID":252546},"geometry":{"x":179672.24000000022,"y":2579325.1200000048}},{"attributes":{"ID":252551,"DIS_CODE":0,"TOWNNAME":"新營區","LI":"忠政里","LIN":"24鄰","STREET":"健康路","SECT":" ","MAREA":" ","LANE":" ","ALLEY":" ","HOUSE_NO":"３０４號","E_COORD97":179669.76999999999,"N_COORD97":2579648.5099999998,"ADDRESS":"健康路３０４號","OBJECTID":252547},"geometry":{"x":179669.76999999955,"y":2579648.5099999998}},{"attributes":{"ID":252552,"DIS_CODE":0,"TOWNNAME":"新營區","LI":"忠政里","LIN":"24鄰","STREET":"健康路","SECT":" ","MAREA":" ","LANE":" ","ALLEY":" ","HOUSE_NO":"２８０號","E_COORD97":179670.45000000001,"N_COORD97":2579580.96,"ADDRESS":"健康路２８０號","OBJECTID":252548},"geometry":{"x":179670.45000000112,"y":2579580.9600000028}},{"attributes":{"ID":252553,"DIS_CODE":0,"TOWNNAME":"新營區","LI":"忠政里","LIN":"24鄰","STREET":"健康路","SECT":" ","MAREA":" ","LANE":" ","ALLEY":" ","HOUSE_NO":"２４８號","E_COORD97":179671.09,"N_COORD97":2579501.2200000002,"ADDRESS":"健康路２４８號","OBJECTID":252549},"geometry":{"x":179671.09000000078,"y":2579501.2200000025}},{"attributes":{"ID":252554,"DIS_CODE":0,"TOWNNAME":"新營區","LI":"忠政里","LIN":"24鄰","STREET":"健康路","SECT":" ","MAREA":" ","LANE":" ","ALLEY":" ","HOUSE_NO":"３０８號","E_COORD97":179669.81,"N_COORD97":2579656.27,"ADDRESS":"健康路３０８號","OBJECTID":252550},"geometry":{"x":179669.80999999959,"y":2579656.2700000014}},{"attributes":{"ID":252555,"DIS_CODE":0,"TOWNNAME":"北區","LI":"振興里","LIN":"13鄰","STREET":"長榮路","SECT":"四段","MAREA":" ","LANE":" ","ALLEY":" ","HOUSE_NO":"１５２號","E_COORD97":170226.06,"N_COORD97":2545220.27,"ADDRESS":"長榮路四段１５２號","OBJECTID":252551},"geometry":{"x":170226.05999999959,"y":2545220.2700000014}},{"attributes":{"ID":252556,"DIS_CODE":0,"TOWNNAME":"新營區","LI":"忠政里","LIN":"24鄰","STREET":"健康路","SECT":" ","MAREA":" ","LANE":" ","ALLEY":" ","HOUSE_NO":"５８號","E_COORD97":179678.84,"N_COORD97":2579037.1600000001,"ADDRESS":"健康路５８號","OBJECTID":252552},"geometry":{"x":179678.84000000171,"y":2579037.160000002}},{"attributes":{"ID":252557,"DIS_CODE":0,"TOWNNAME":"新營區","LI":"忠政里","LIN":"24鄰","STREET":"健康路","SECT":" ","MAREA":" ","LANE":" ","ALLEY":" ","HOUSE_NO":"１６２之１號","E_COORD97":179675.63,"N_COORD97":2579299.7000000002,"ADDRESS":"健康路１６２之１號","OBJECTID":252553},"geometry":{"x":179675.63000000082,"y":2579299.7000000011}},{"attributes":{"ID":252558,"DIS_CODE":0,"TOWNNAME":"歸仁區","LI":"六甲里","LIN":"24鄰","STREET":"中正十八街","SECT":" ","MAREA":" ","LANE":" ","ALLEY":" ","HOUSE_NO":"４３號","E_COORD97":176328.70999999999,"N_COORD97":2539579.25,"ADDRESS":"中正十八街４３號","OBJECTID":252554},"geometry":{"x":176328.71000000089,"y":2539579.2500000019}},{"attributes":{"ID":252559,"DIS_CODE":0,"TOWNNAME":"佳里區","LI":"東寧里","LIN":"14鄰","STREET":"延平路","SECT":" ","MAREA":" ","LANE":"３５０巷","ALLEY":" ","HOUSE_NO":"４號","E_COORD97":165899.45000000001,"N_COORD97":2562456.1699999999,"ADDRESS":"延平路３５０巷４號","OBJECTID":252555},"geometry":{"x":165899.45000000019,"y":2562456.1699999999}},{"attributes":{"ID":252560,"DIS_CODE":0,"TOWNNAME":"佳里區","LI":"東寧里","LIN":"14鄰","STREET":"延平路","SECT":" ","MAREA":" ","LANE":"３５０巷","ALLEY":" ","HOUSE_NO":"６號","E_COORD97":165903.69,"N_COORD97":2562457.4900000002,"ADDRESS":"延平路３５０巷６號","OBJECTID":252556},"geometry":{"x":165903.69000000227,"y":2562457.4900000002}},{"attributes":{"ID":252561,"DIS_CODE":0,"TOWNNAME":"佳里區","LI":"東寧里","LIN":"14鄰","STREET":"延平路","SECT":" ","MAREA":" ","LANE":"３５０巷","ALLEY":" ","HOUSE_NO":"７號","E_COORD97":165903.73999999999,"N_COORD97":2562485.0800000001,"ADDRESS":"延平路３５０巷７號","OBJECTID":252557},"geometry":{"x":165903.74000000115,"y":2562485.0800000019}},{"attributes":{"ID":252562,"DIS_CODE":0,"TOWNNAME":"佳里區","LI":"東寧里","LIN":"14鄰","STREET":"延平路","SECT":" ","MAREA":" ","LANE":"３５０巷","ALLEY":" ","HOUSE_NO":"８號","E_COORD97":165922.56,"N_COORD97":2562465.1699999999,"ADDRESS":"延平路３５０巷８號","OBJECTID":252558},"geometry":{"x":165922.56000000052,"y":2562465.1699999999}},{"attributes":{"ID":252563,"DIS_CODE":0,"TOWNNAME":"佳里區","LI":"東寧里","LIN":"14鄰","STREET":"延平路","SECT":" ","MAREA":" ","LANE":"３５０巷","ALLEY":" ","HOUSE_NO":"９號","E_COORD97":165907.72,"N_COORD97":2562485.1899999999,"ADDRESS":"延平路３５０巷９號","OBJECTID":252559},"geometry":{"x":165907.7200000016,"y":2562485.1899999995}},{"attributes":{"ID":252564,"DIS_CODE":0,"TOWNNAME":"佳里區","LI":"忠仁里","LIN":"14鄰","STREET":"忠仁街","SECT":" ","MAREA":" ","LANE":"１１０巷","ALLEY":" ","HOUSE_NO":"１０號","E_COORD97":166090.48999999999,"N_COORD97":2562172.1600000001,"ADDRESS":"忠仁街１１０巷１０號","OBJECTID":252560},"geometry":{"x":166090.49000000022,"y":2562172.1600000039}},{"attributes":{"ID":252565,"DIS_CODE":0,"TOWNNAME":"佳里區","LI":"忠仁里","LIN":"14鄰","STREET":"忠仁街","SECT":" ","MAREA":" ","LANE":"１１０巷","ALLEY":" ","HOUSE_NO":"５號","E_COORD97":166068.19,"N_COORD97":2562169.7999999998,"ADDRESS":"忠仁街１１０巷５號","OBJECTID":252561},"geometry":{"x":166068.19000000134,"y":2562169.8000000026}},{"attributes":{"ID":252566,"DIS_CODE":0,"TOWNNAME":"佳里區","LI":"忠仁里","LIN":"14鄰","STREET":"忠仁街","SECT":" ","MAREA":" ","LANE":"１１０巷","ALLEY":" ","HOUSE_NO":"６號","E_COORD97":166072.41,"N_COORD97":2562170.1699999999,"ADDRESS":"忠仁街１１０巷６號","OBJECTID":252562},"geometry":{"x":166072.41000000015,"y":2562170.1699999999}},{"attributes":{"ID":252567,"DIS_CODE":0,"TOWNNAME":"佳里區","LI":"忠仁里","LIN":"14鄰","STREET":"忠仁街","SECT":" ","MAREA":" ","LANE":"１１０巷","ALLEY":" ","HOUSE_NO":"７號","E_COORD97":166077.04999999999,"N_COORD97":2562170.7799999998,"ADDRESS":"忠仁街１１０巷７號","OBJECTID":252563},"geometry":{"x":166077.05000000075,"y":2562170.7800000012}},{"attributes":{"ID":252568,"DIS_CODE":0,"TOWNNAME":"佳里區","LI":"忠仁里","LIN":"14鄰","STREET":"忠仁街","SECT":" ","MAREA":" ","LANE":"１１０巷","ALLEY":" ","HOUSE_NO":"８號","E_COORD97":166081.54000000001,"N_COORD97":2562171.1200000001,"ADDRESS":"忠仁街１１０巷８號","OBJECTID":252564},"geometry":{"x":166081.54000000004,"y":2562171.1200000029}},{"attributes":{"ID":252569,"DIS_CODE":0,"TOWNNAME":"佳里區","LI":"忠仁里","LIN":"14鄰","STREET":"忠仁街","SECT":" ","MAREA":" ","LANE":"１１０巷","ALLEY":" ","HOUSE_NO":"９號","E_COORD97":166085.92999999999,"N_COORD97":2562171.6800000002,"ADDRESS":"忠仁街１１０巷９號","OBJECTID":252565},"geometry":{"x":166085.92999999877,"y":2562171.6800000034}},{"attributes":{"ID":252570,"DIS_CODE":0,"TOWNNAME":"佳里區","LI":"安西里","LIN":"14鄰","STREET":"長安街","SECT":" ","MAREA":" ","LANE":"９４巷","ALLEY":" ","HOUSE_NO":"３號","E_COORD97":165456.26000000001,"N_COORD97":2562539.7999999998,"ADDRESS":"長安街９４巷３號","OBJECTID":252566},"geometry":{"x":165456.25999999978,"y":2562539.8000000007}},{"attributes":{"ID":252571,"DIS_CODE":0,"TOWNNAME":"佳里區","LI":"忠仁里","LIN":"14鄰","STREET":"信義一街","SECT":" ","MAREA":" ","LANE":"２７１巷","ALLEY":" ","HOUSE_NO":"７號","E_COORD97":166152.26999999999,"N_COORD97":2562198.8799999999,"ADDRESS":"信義一街２７１巷７號","OBJECTID":252567},"geometry":{"x":166152.26999999955,"y":2562198.879999999}},{"attributes":{"ID":252572,"DIS_CODE":0,"TOWNNAME":"佳里區","LI":"忠仁里","LIN":"14鄰","STREET":"信義一街","SECT":" ","MAREA":" ","LANE":"２７１巷","ALLEY":" ","HOUSE_NO":"９號","E_COORD97":166151.37,"N_COORD97":2562194.9500000002,"ADDRESS":"信義一街２７１巷９號","OBJECTID":252568},"geometry":{"x":166151.37000000197,"y":2562194.9499999993}},{"attributes":{"ID":252573,"DIS_CODE":0,"TOWNNAME":"佳里區","LI":"忠仁里","LIN":"14鄰","STREET":"信義一街","SECT":" ","MAREA":" ","LANE":"３２６巷","ALLEY":" ","HOUSE_NO":"２８號","E_COORD97":166244.91,"N_COORD97":2562109.7400000002,"ADDRESS":"信義一街３２６巷２８號","OBJECTID":252569},"geometry":{"x":166244.91000000108,"y":2562109.7400000002}},{"attributes":{"ID":252574,"DIS_CODE":0,"TOWNNAME":"佳里區","LI":"忠仁里","LIN":"14鄰","STREET":"信義一街","SECT":" ","MAREA":" ","LANE":"３２６巷","ALLEY":" ","HOUSE_NO":"３０號","E_COORD97":166251.04000000001,"N_COORD97":2562109.1299999999,"ADDRESS":"信義一街３２６巷３０號","OBJECTID":252570},"geometry":{"x":166251.04000000004,"y":2562109.129999999}},{"attributes":{"ID":252575,"DIS_CODE":0,"TOWNNAME":"佳里區","LI":"忠仁里","LIN":"14鄰","STREET":"信義一街","SECT":" ","MAREA":" ","LANE":"３２６巷","ALLEY":" ","HOUSE_NO":"３２號","E_COORD97":166263.57999999999,"N_COORD97":2562107.7200000002,"ADDRESS":"信義一街３２６巷３２號","OBJECTID":252571},"geometry":{"x":166263.58000000101,"y":2562107.7200000044}},{"attributes":{"ID":252576,"DIS_CODE":0,"TOWNNAME":"佳里區","LI":"忠仁里","LIN":"14鄰","STREET":"信義一街","SECT":" ","MAREA":" ","LANE":"３２６巷","ALLEY":" ","HOUSE_NO":"３６號","E_COORD97":166270.22,"N_COORD97":2562107.54,"ADDRESS":"信義一街３２６巷３６號","OBJECTID":252572},"geometry":{"x":166270.21999999974,"y":2562107.5400000028}},{"attributes":{"ID":252577,"DIS_CODE":0,"TOWNNAME":"東區","LI":"崇信里","LIN":"14鄰","STREET":"崇學路","SECT":" ","MAREA":" ","LANE":"１８８巷","ALLEY":" ","HOUSE_NO":"１０號","E_COORD97":170593.42999999999,"N_COORD97":2542448.8399999999,"ADDRESS":"崇學路１８８巷１０號","OBJECTID":252573},"geometry":{"x":170593.42999999877,"y":2542448.8400000036}},{"attributes":{"ID":252578,"DIS_CODE":0,"TOWNNAME":"東區","LI":"崇信里","LIN":"14鄰","STREET":"崇學路","SECT":" ","MAREA":" ","LANE":"１８８巷","ALLEY":" ","HOUSE_NO":"１２號","E_COORD97":170590.23999999999,"N_COORD97":2542444.7200000002,"ADDRESS":"崇學路１８８巷１２號","OBJECTID":252574},"geometry":{"x":170590.24000000209,"y":2542444.7200000025}},{"attributes":{"ID":252579,"DIS_CODE":0,"TOWNNAME":"東區","LI":"崇信里","LIN":"14鄰","STREET":"崇學路","SECT":" ","MAREA":" ","LANE":"１８８巷","ALLEY":" ","HOUSE_NO":"１４號","E_COORD97":170587.06,"N_COORD97":2542441.1600000001,"ADDRESS":"崇學路１８８巷１４號","OBJECTID":252575},"geometry":{"x":170587.05999999959,"y":2542441.160000002}},{"attributes":{"ID":252580,"DIS_CODE":0,"TOWNNAME":"東區","LI":"崇信里","LIN":"14鄰","STREET":"崇學路","SECT":" ","MAREA":" ","LANE":"１８８巷","ALLEY":" ","HOUSE_NO":"１６號","E_COORD97":170584.23999999999,"N_COORD97":2542437.79,"ADDRESS":"崇學路１８８巷１６號","OBJECTID":252576},"geometry":{"x":170584.24000000115,"y":2542437.7899999972}},{"attributes":{"ID":252581,"DIS_CODE":0,"TOWNNAME":"東區","LI":"崇信里","LIN":"14鄰","STREET":"崇學路","SECT":" ","MAREA":" ","LANE":"１８８巷","ALLEY":" ","HOUSE_NO":"１８號","E_COORD97":170580.29999999999,"N_COORD97":2542433.8500000001,"ADDRESS":"崇學路１８８巷１８號","OBJECTID":252577},"geometry":{"x":170580.29999999981,"y":2542433.8499999996}},{"attributes":{"ID":252582,"DIS_CODE":0,"TOWNNAME":"東區","LI":"崇信里","LIN":"14鄰","STREET":"崇學路","SECT":" ","MAREA":" ","LANE":"１８８巷","ALLEY":" ","HOUSE_NO":"２６號","E_COORD97":170566.76999999999,"N_COORD97":2542417.2999999998,"ADDRESS":"崇學路１８８巷２６號","OBJECTID":252578},"geometry":{"x":170566.76999999955,"y":2542417.3000000026}},{"attributes":{"ID":252583,"DIS_CODE":0,"TOWNNAME":"東區","LI":"崇信里","LIN":"14鄰","STREET":"崇學路","SECT":" ","MAREA":" ","LANE":"１８８巷","ALLEY":" ","HOUSE_NO":"２８號","E_COORD97":170562.64000000001,"N_COORD97":2542413.3700000001,"ADDRESS":"崇學路１８８巷２８號","OBJECTID":252579},"geometry":{"x":170562.63999999966,"y":2542413.3700000029}},{"attributes":{"ID":252584,"DIS_CODE":0,"TOWNNAME":"東區","LI":"崇信里","LIN":"14鄰","STREET":"崇學路","SECT":" ","MAREA":" ","LANE":"１８８巷","ALLEY":" ","HOUSE_NO":"３０號","E_COORD97":170559.45000000001,"N_COORD97":2542409.8100000001,"ADDRESS":"崇學路１８８巷３０號","OBJECTID":252580},"geometry":{"x":170559.45000000019,"y":2542409.8100000024}},{"attributes":{"ID":252585,"DIS_CODE":0,"TOWNNAME":"東區","LI":"崇信里","LIN":"14鄰","STREET":"崇學路","SECT":" ","MAREA":" ","LANE":"１８８巷","ALLEY":" ","HOUSE_NO":"３２號","E_COORD97":170556.07999999999,"N_COORD97":2542405.8799999999,"ADDRESS":"崇學路１８８巷３２號","OBJECTID":252581},"geometry":{"x":170556.08000000101,"y":2542405.879999999}},{"attributes":{"ID":252586,"DIS_CODE":0,"TOWNNAME":"北區","LI":"文成里","LIN":"11鄰","STREET":"文賢路","SECT":" ","MAREA":" ","LANE":"２９２巷","ALLEY":" ","HOUSE_NO":"７５號","E_COORD97":167513.47,"N_COORD97":2545191.23,"ADDRESS":"文賢路２９２巷７５號","OBJECTID":252582},"geometry":{"x":167513.47000000067,"y":2545191.2300000004}},{"attributes":{"ID":252587,"DIS_CODE":0,"TOWNNAME":"北區","LI":"文成里","LIN":"11鄰","STREET":"文賢路","SECT":" ","MAREA":" ","LANE":"２９２巷","ALLEY":" ","HOUSE_NO":"７７號","E_COORD97":167526.04999999999,"N_COORD97":2545198.6299999999,"ADDRESS":"文賢路２９２巷７７號","OBJECTID":252583},"geometry":{"x":167526.04999999981,"y":2545198.6300000027}},{"attributes":{"ID":252588,"DIS_CODE":0,"TOWNNAME":"北區","LI":"文成里","LIN":"11鄰","STREET":"文賢路","SECT":" ","MAREA":" ","LANE":"２９２巷","ALLEY":" ","HOUSE_NO":"７９號","E_COORD97":167530.67999999999,"N_COORD97":2545201.4500000002,"ADDRESS":"文賢路２９２巷７９號","OBJECTID":252584},"geometry":{"x":167530.68000000063,"y":2545201.4500000011}},{"attributes":{"ID":252589,"DIS_CODE":0,"TOWNNAME":"北區","LI":"文成里","LIN":"11鄰","STREET":"文賢路","SECT":" ","MAREA":" ","LANE":"２９２巷","ALLEY":" ","HOUSE_NO":"８１號","E_COORD97":167534.51000000001,"N_COORD97":2545204.0600000001,"ADDRESS":"文賢路２９２巷８１號","OBJECTID":252585},"geometry":{"x":167534.50999999978,"y":2545204.0599999987}},{"attributes":{"ID":252590,"DIS_CODE":0,"TOWNNAME":"北區","LI":"文成里","LIN":"11鄰","STREET":"文賢路","SECT":" ","MAREA":" ","LANE":"２９２巷","ALLEY":" ","HOUSE_NO":"８３號","E_COORD97":167537.53,"N_COORD97":2545205.6699999999,"ADDRESS":"文賢路２９２巷８３號","OBJECTID":252586},"geometry":{"x":167537.53000000119,"y":2545205.6699999999}},{"attributes":{"ID":252591,"DIS_CODE":0,"TOWNNAME":"北區","LI":"文成里","LIN":"11鄰","STREET":"文賢路","SECT":" ","MAREA":" ","LANE":"２９２巷","ALLEY":" ","HOUSE_NO":"８５號","E_COORD97":167542.35999999999,"N_COORD97":2545207.48,"ADDRESS":"文賢路２９２巷８５號","OBJECTID":252587},"geometry":{"x":167542.36000000127,"y":2545207.4800000004}},{"attributes":{"ID":252592,"DIS_CODE":0,"TOWNNAME":"北區","LI":"文成里","LIN":"11鄰","STREET":"文賢路","SECT":" ","MAREA":" ","LANE":"２９２巷","ALLEY":" ","HOUSE_NO":"８７號","E_COORD97":167546.59,"N_COORD97":2545209.4900000002,"ADDRESS":"文賢路２９２巷８７號","OBJECTID":252588},"geometry":{"x":167546.59000000078,"y":2545209.4900000002}},{"attributes":{"ID":252593,"DIS_CODE":0,"TOWNNAME":"北區","LI":"文成里","LIN":"11鄰","STREET":"文賢路","SECT":" ","MAREA":" ","LANE":"２９２巷","ALLEY":" ","HOUSE_NO":"８９號","E_COORD97":167549.81,"N_COORD97":2545211.9100000001,"ADDRESS":"文賢路２９２巷８９號","OBJECTID":252589},"geometry":{"x":167549.81000000052,"y":2545211.9100000039}},{"attributes":{"ID":252594,"DIS_CODE":0,"TOWNNAME":"北區","LI":"文成里","LIN":"11鄰","STREET":"文賢路","SECT":" ","MAREA":" ","LANE":"２９２巷","ALLEY":" ","HOUSE_NO":"９１號","E_COORD97":167554.04000000001,"N_COORD97":2545213.3100000001,"ADDRESS":"文賢路２９２巷９１號","OBJECTID":252590},"geometry":{"x":167554.04000000097,"y":2545213.3100000024}},{"attributes":{"ID":252595,"DIS_CODE":0,"TOWNNAME":"北區","LI":"文成里","LIN":"11鄰","STREET":"文賢路","SECT":" ","MAREA":" ","LANE":"２９２巷","ALLEY":" ","HOUSE_NO":"９３號","E_COORD97":167557.26000000001,"N_COORD97":2545215.1200000001,"ADDRESS":"文賢路２９２巷９３號","OBJECTID":252591},"geometry":{"x":167557.26000000071,"y":2545215.1200000029}},{"attributes":{"ID":252596,"DIS_CODE":0,"TOWNNAME":"北區","LI":"文成里","LIN":"11鄰","STREET":"文賢路","SECT":" ","MAREA":" ","LANE":"２９２巷","ALLEY":" ","HOUSE_NO":"９５號","E_COORD97":167561.29000000001,"N_COORD97":2545217.54,"ADDRESS":"文賢路２９２巷９５號","OBJECTID":252592},"geometry":{"x":167561.29000000004,"y":2545217.540000001}},{"attributes":{"ID":252597,"DIS_CODE":0,"TOWNNAME":"北區","LI":"文成里","LIN":"11鄰","STREET":"文賢路","SECT":" ","MAREA":" ","LANE":"２９２巷","ALLEY":" ","HOUSE_NO":"９７號","E_COORD97":167565.12,"N_COORD97":2545218.9399999999,"ADDRESS":"文賢路２９２巷９７號","OBJECTID":252593},"geometry":{"x":167565.12000000197,"y":2545218.9400000013}},{"attributes":{"ID":252598,"DIS_CODE":0,"TOWNNAME":"北區","LI":"文成里","LIN":"11鄰","STREET":"文賢路","SECT":" ","MAREA":" ","LANE":"２９２巷","ALLEY":" ","HOUSE_NO":"９９號","E_COORD97":167567.94,"N_COORD97":2545222.3599999999,"ADDRESS":"文賢路２９２巷９９號","OBJECTID":252594},"geometry":{"x":167567.94000000041,"y":2545222.3600000013}},{"attributes":{"ID":252599,"DIS_CODE":0,"TOWNNAME":"東區","LI":"崇信里","LIN":"14鄰","STREET":"崇學路","SECT":" ","MAREA":" ","LANE":"１８８巷","ALLEY":" ","HOUSE_NO":"３６號","E_COORD97":170553.20999999999,"N_COORD97":2542398.4399999999,"ADDRESS":"崇學路１８８巷３６號","OBJECTID":252595},"geometry":{"x":170553.21000000089,"y":2542398.4399999995}},{"attributes":{"ID":252600,"DIS_CODE":0,"TOWNNAME":"東區","LI":"崇信里","LIN":"14鄰","STREET":"崇學路","SECT":" ","MAREA":" ","LANE":"１８８巷","ALLEY":" ","HOUSE_NO":"３８號","E_COORD97":170549.07000000001,"N_COORD97":2542395.1000000001,"ADDRESS":"崇學路１８８巷３８號","OBJECTID":252596},"geometry":{"x":170549.07000000216,"y":2542395.0999999996}},{"attributes":{"ID":252601,"DIS_CODE":0,"TOWNNAME":"東區","LI":"崇信里","LIN":"14鄰","STREET":"崇學路","SECT":" ","MAREA":" ","LANE":"１８８巷","ALLEY":" ","HOUSE_NO":"４０號","E_COORD97":170545.87,"N_COORD97":2542391.3700000001,"ADDRESS":"崇學路１８８巷４０號","OBJECTID":252597},"geometry":{"x":170545.87000000104,"y":2542391.370000001}},{"attributes":{"ID":252602,"DIS_CODE":0,"TOWNNAME":"東區","LI":"崇信里","LIN":"14鄰","STREET":"崇學路","SECT":" ","MAREA":" ","LANE":"１８８巷","ALLEY":" ","HOUSE_NO":"４２號","E_COORD97":170543.34,"N_COORD97":2542387.7599999998,"ADDRESS":"崇學路１８８巷４２號","OBJECTID":252598},"geometry":{"x":170543.33999999892,"y":2542387.7599999998}},{"attributes":{"ID":252603,"DIS_CODE":0,"TOWNNAME":"歸仁區","LI":"後市里","LIN":"24鄰","STREET":"文化街","SECT":"二段","MAREA":" ","LANE":" ","ALLEY":" ","HOUSE_NO":"７號","E_COORD97":177638.07999999999,"N_COORD97":2541097.1200000001,"ADDRESS":"文化街二段７號","OBJECTID":252599},"geometry":{"x":177638.08000000194,"y":2541097.120000001}},{"attributes":{"ID":252604,"DIS_CODE":0,"TOWNNAME":"南區","LI":"文南里","LIN":"24鄰","STREET":"永南四街","SECT":" ","MAREA":" ","LANE":" ","ALLEY":" ","HOUSE_NO":"２號","E_COORD97":166913.23999999999,"N_COORD97":2542745.48,"ADDRESS":"永南四街２號","OBJECTID":252600},"geometry":{"x":166913.24000000022,"y":2542745.4800000004}}]}