{"displayFieldName":"TOWNNAME","fieldAliases":{"ID":"ID","DIS_CODE":"DIS_CODE","TOWNNAME":"TOWNNAME","LI":"LI","LIN":"LIN","STREET":"STREET","SECT":"SECT","MAREA":"MAREA","LANE":"LANE","ALLEY":"ALLEY","HOUSE_NO":"HOUSE_NO","E_COORD97":"E_COORD97","N_COORD97":"N_COORD97","ADDRESS":"ADDRESS","OBJECTID":"OBJECTID"},"geometryType":"esriGeometryPoint","spatialReference":{"wkid":102443,"latestWkid":3826},"fields":[{"name":"ID","type":"esriFieldTypeDouble","alias":"ID"},{"name":"DIS_CODE","type":"esriFieldTypeInteger","alias":"DIS_CODE"},{"name":"TOWNNAME","type":"esriFieldTypeString","alias":"TOWNNAME","length":8},{"name":"LI","type":"esriFieldTypeString","alias":"LI","length":8},{"name":"LIN","type":"esriFieldTypeString","alias":"LIN","length":12},{"name":"STREET","type":"esriFieldTypeString","alias":"STREET","length":20},{"name":"SECT","type":"esriFieldTypeString","alias":"SECT","length":8},{"name":"MAREA","type":"esriFieldTypeString","alias":"MAREA","length":12},{"name":"LANE","type":"esriFieldTypeString","alias":"LANE","length":10},{"name":"ALLEY","type":"esriFieldTypeString","alias":"ALLEY","length":10},{"name":"HOUSE_NO","type":"esriFieldTypeString","alias":"HOUSE_NO","length":20},{"name":"E_COORD97","type":"esriFieldTypeDouble","alias":"E_COORD97"},{"name":"N_COORD97","type":"esriFieldTypeDouble","alias":"N_COORD97"},{"name":"ADDRESS","type":"esriFieldTypeString","alias":"ADDRESS","length":50},{"name":"OBJECTID","type":"esriFieldTypeOID","alias":"OBJECTID"}],"features":[{"attributes":{"ID":169002,"DIS_CODE":0,"TOWNNAME":"官田區","LI":"南\u25A0里","LIN":"13鄰","STREET":" ","SECT":" ","MAREA":"三結義","LANE":" ","ALLEY":" ","HOUSE_NO":"１６號之２７","E_COORD97":180037.47,"N_COORD97":2568037.3399999999,"ADDRESS":"三結義１６號之２７","OBJECTID":169001},"geometry":{"x":180037.47000000067,"y":2568037.3400000017}},{"attributes":{"ID":169003,"DIS_CODE":0,"TOWNNAME":"永康區","LI":"西灣里","LIN":"50鄰","STREET":"大灣路","SECT":" ","MAREA":" ","LANE":"９４２巷","ALLEY":"５００弄","HOUSE_NO":"２８號","E_COORD97":173966.70999999999,"N_COORD97":2545839.29,"ADDRESS":"大灣路９４２巷５００弄２８號","OBJECTID":169002},"geometry":{"x":173966.70999999996,"y":2545839.290000001}},{"attributes":{"ID":169004,"DIS_CODE":0,"TOWNNAME":"官田區","LI":"南\u25A0里","LIN":"13鄰","STREET":" ","SECT":" ","MAREA":"三結義","LANE":" ","ALLEY":" ","HOUSE_NO":"１６號之６","E_COORD97":180060.23999999999,"N_COORD97":2568043.5699999998,"ADDRESS":"三結義１６號之６","OBJECTID":169003},"geometry":{"x":180060.24000000115,"y":2568043.5700000003}},{"attributes":{"ID":169005,"DIS_CODE":0,"TOWNNAME":"官田區","LI":"南\u25A0里","LIN":"13鄰","STREET":" ","SECT":" ","MAREA":"三結義","LANE":" ","ALLEY":" ","HOUSE_NO":"１７號之１１８","E_COORD97":180183.04000000001,"N_COORD97":2568163.77,"ADDRESS":"三結義１７號之１１８","OBJECTID":169004},"geometry":{"x":180183.04000000097,"y":2568163.7699999996}},{"attributes":{"ID":169006,"DIS_CODE":0,"TOWNNAME":"官田區","LI":"南\u25A0里","LIN":"13鄰","STREET":" ","SECT":" ","MAREA":"三結義","LANE":" ","ALLEY":" ","HOUSE_NO":"１７號之２","E_COORD97":180053.38846399999,"N_COORD97":2568093.1286499999,"ADDRESS":"三結義１７號之２","OBJECTID":169005},"geometry":{"x":180053.38846400008,"y":2568093.1286519989}},{"attributes":{"ID":169007,"DIS_CODE":0,"TOWNNAME":"官田區","LI":"南\u25A0里","LIN":"13鄰","STREET":" ","SECT":" ","MAREA":"三結義","LANE":" ","ALLEY":" ","HOUSE_NO":"１７號之３","E_COORD97":180020.92000000001,"N_COORD97":2568115.3599999999,"ADDRESS":"三結義１７號之３","OBJECTID":169006},"geometry":{"x":180020.92000000086,"y":2568115.3599999994}},{"attributes":{"ID":169008,"DIS_CODE":0,"TOWNNAME":"官田區","LI":"南\u25A0里","LIN":"13鄰","STREET":" ","SECT":" ","MAREA":"三結義","LANE":" ","ALLEY":" ","HOUSE_NO":"１７號","E_COORD97":180004.97281800001,"N_COORD97":2568115.9886400001,"ADDRESS":"三結義１７號","OBJECTID":169007},"geometry":{"x":180004.9728180021,"y":2568115.988640001}},{"attributes":{"ID":169009,"DIS_CODE":0,"TOWNNAME":"官田區","LI":"南\u25A0里","LIN":"13鄰","STREET":" ","SECT":" ","MAREA":"三結義","LANE":" ","ALLEY":" ","HOUSE_NO":"１８號之２","E_COORD97":180265.92999999999,"N_COORD97":2568607.4300000002,"ADDRESS":"三結義１８號之２","OBJECTID":169008},"geometry":{"x":180265.9299999997,"y":2568607.4299999997}},{"attributes":{"ID":169010,"DIS_CODE":0,"TOWNNAME":"官田區","LI":"南\u25A0里","LIN":"13鄰","STREET":" ","SECT":" ","MAREA":"三結義","LANE":" ","ALLEY":" ","HOUSE_NO":"１８號","E_COORD97":180075.04000000001,"N_COORD97":2568522.5,"ADDRESS":"三結義１８號","OBJECTID":169009},"geometry":{"x":180075.04000000097,"y":2568522.5}},{"attributes":{"ID":169011,"DIS_CODE":0,"TOWNNAME":"關廟區","LI":"香洋里","LIN":"12鄰","STREET":"中央路","SECT":" ","MAREA":" ","LANE":" ","ALLEY":" ","HOUSE_NO":"２０７號","E_COORD97":181156.45999999999,"N_COORD97":2540087.3199999998,"ADDRESS":"中央路２０７號","OBJECTID":169010},"geometry":{"x":181156.46000000089,"y":2540087.3200000022}},{"attributes":{"ID":169012,"DIS_CODE":0,"TOWNNAME":"官田區","LI":"南\u25A0里","LIN":"13鄰","STREET":" ","SECT":" ","MAREA":"三結義","LANE":" ","ALLEY":" ","HOUSE_NO":"１９號之１","E_COORD97":179772.14000000001,"N_COORD97":2568271.0099999998,"ADDRESS":"三結義１９號之１","OBJECTID":169011},"geometry":{"x":179772.1400000006,"y":2568271.0099999998}},{"attributes":{"ID":169013,"DIS_CODE":0,"TOWNNAME":"官田區","LI":"南\u25A0里","LIN":"13鄰","STREET":" ","SECT":" ","MAREA":"三結義","LANE":" ","ALLEY":" ","HOUSE_NO":"１９號之２","E_COORD97":179783.59,"N_COORD97":2568276.1800000002,"ADDRESS":"三結義１９號之２","OBJECTID":169012},"geometry":{"x":179783.58999999985,"y":2568276.1799999997}},{"attributes":{"ID":169014,"DIS_CODE":0,"TOWNNAME":"官田區","LI":"南\u25A0里","LIN":"13鄰","STREET":" ","SECT":" ","MAREA":"三結義","LANE":" ","ALLEY":" ","HOUSE_NO":"１９號之３","E_COORD97":179856.78,"N_COORD97":2568353.3500000001,"ADDRESS":"三結義１９號之３","OBJECTID":169013},"geometry":{"x":179856.78000000119,"y":2568353.3499999996}},{"attributes":{"ID":169015,"DIS_CODE":0,"TOWNNAME":"官田區","LI":"南\u25A0里","LIN":"13鄰","STREET":" ","SECT":" ","MAREA":"三結義","LANE":" ","ALLEY":" ","HOUSE_NO":"１９號之４","E_COORD97":179951.98000000001,"N_COORD97":2568282.3399999999,"ADDRESS":"三結義１９號之４","OBJECTID":169014},"geometry":{"x":179951.98000000138,"y":2568282.3399999999}},{"attributes":{"ID":169016,"DIS_CODE":0,"TOWNNAME":"官田區","LI":"南\u25A0里","LIN":"9鄰","STREET":" ","SECT":" ","MAREA":"南\u25A0","LANE":" ","ALLEY":" ","HOUSE_NO":"１２２號之２","E_COORD97":179771.72,"N_COORD97":2568839.1200000001,"ADDRESS":"南\u25A0１２２號之２","OBJECTID":169015},"geometry":{"x":179771.72000000067,"y":2568839.1200000029}},{"attributes":{"ID":169017,"DIS_CODE":0,"TOWNNAME":"官田區","LI":"南\u25A0里","LIN":"13鄰","STREET":" ","SECT":" ","MAREA":"三結義","LANE":" ","ALLEY":" ","HOUSE_NO":"２０號之６","E_COORD97":179703.92000000001,"N_COORD97":2568385.3799999999,"ADDRESS":"三結義２０號之６","OBJECTID":169016},"geometry":{"x":179703.92000000086,"y":2568385.3800000008}},{"attributes":{"ID":169018,"DIS_CODE":0,"TOWNNAME":"官田區","LI":"南\u25A0里","LIN":"13鄰","STREET":" ","SECT":" ","MAREA":"三結義","LANE":" ","ALLEY":" ","HOUSE_NO":"２０號","E_COORD97":179683.32999999999,"N_COORD97":2568384.8700000001,"ADDRESS":"三結義２０號","OBJECTID":169017},"geometry":{"x":179683.33000000101,"y":2568384.870000001}},{"attributes":{"ID":169019,"DIS_CODE":0,"TOWNNAME":"官田區","LI":"南\u25A0里","LIN":"13鄰","STREET":" ","SECT":" ","MAREA":"三結義","LANE":" ","ALLEY":" ","HOUSE_NO":"２１號之２","E_COORD97":179824.87,"N_COORD97":2566926.25,"ADDRESS":"三結義２１號之２","OBJECTID":169018},"geometry":{"x":179824.87000000104,"y":2566926.2500000019}},{"attributes":{"ID":169020,"DIS_CODE":0,"TOWNNAME":"官田區","LI":"南\u25A0里","LIN":"13鄰","STREET":" ","SECT":" ","MAREA":"三結義","LANE":" ","ALLEY":" ","HOUSE_NO":"２１號之６","E_COORD97":179830.84,"N_COORD97":2566966.27,"ADDRESS":"三結義２１號之６","OBJECTID":169019},"geometry":{"x":179830.83999999985,"y":2566966.2700000014}},{"attributes":{"ID":169021,"DIS_CODE":0,"TOWNNAME":"官田區","LI":"南\u25A0里","LIN":"13鄰","STREET":" ","SECT":" ","MAREA":"三結義","LANE":" ","ALLEY":" ","HOUSE_NO":"３０號","E_COORD97":179868.88,"N_COORD97":2566959.5499999998,"ADDRESS":"三結義３０號","OBJECTID":169020},"geometry":{"x":179868.88000000082,"y":2566959.5500000007}},{"attributes":{"ID":169022,"DIS_CODE":0,"TOWNNAME":"永康區","LI":"西灣里","LIN":"50鄰","STREET":"大灣路","SECT":" ","MAREA":" ","LANE":"９４２巷","ALLEY":"５００弄","HOUSE_NO":"３０號","E_COORD97":173969.76999999999,"N_COORD97":2545840.3100000001,"ADDRESS":"大灣路９４２巷５００弄３０號","OBJECTID":169021},"geometry":{"x":173969.77000000048,"y":2545840.3100000024}},{"attributes":{"ID":169023,"DIS_CODE":0,"TOWNNAME":"官田區","LI":"南\u25A0里","LIN":"13鄰","STREET":" ","SECT":" ","MAREA":"三結義","LANE":" ","ALLEY":" ","HOUSE_NO":"３６號","E_COORD97":179919.63,"N_COORD97":2566998.0800000001,"ADDRESS":"三結義３６號","OBJECTID":169022},"geometry":{"x":179919.63000000082,"y":2566998.0800000019}},{"attributes":{"ID":169024,"DIS_CODE":0,"TOWNNAME":"官田區","LI":"南\u25A0里","LIN":"13鄰","STREET":" ","SECT":" ","MAREA":"三結義","LANE":" ","ALLEY":" ","HOUSE_NO":"３７號之１","E_COORD97":179929.04999999999,"N_COORD97":2567130.0800000001,"ADDRESS":"三結義３７號之１","OBJECTID":169023},"geometry":{"x":179929.05000000075,"y":2567130.0800000019}},{"attributes":{"ID":169025,"DIS_CODE":0,"TOWNNAME":"永康區","LI":"西灣里","LIN":"50鄰","STREET":"大灣路","SECT":" ","MAREA":" ","LANE":"９４２巷","ALLEY":"５００弄","HOUSE_NO":"３２號","E_COORD97":173972.44,"N_COORD97":2545840.7599999998,"ADDRESS":"大灣路９４２巷５００弄３２號","OBJECTID":169024},"geometry":{"x":173972.44000000041,"y":2545840.7600000016}},{"attributes":{"ID":169026,"DIS_CODE":0,"TOWNNAME":"永康區","LI":"網寮里","LIN":"20鄰","STREET":"大灣路","SECT":" ","MAREA":" ","LANE":"９４２巷","ALLEY":"６４１弄","HOUSE_NO":"１０２號","E_COORD97":173497.73000000001,"N_COORD97":2546017.7599999998,"ADDRESS":"大灣路９４２巷６４１弄１０２號","OBJECTID":169025},"geometry":{"x":173497.72999999952,"y":2546017.7599999998}},{"attributes":{"ID":169027,"DIS_CODE":0,"TOWNNAME":"永康區","LI":"崑山里","LIN":"26鄰","STREET":"大灣路","SECT":" ","MAREA":" ","LANE":"９４２巷","ALLEY":"１６９弄","HOUSE_NO":"１０５號","E_COORD97":173472.19,"N_COORD97":2544857.2999999998,"ADDRESS":"大灣路９４２巷１６９弄１０５號","OBJECTID":169026},"geometry":{"x":173472.19000000041,"y":2544857.3000000045}},{"attributes":{"ID":169028,"DIS_CODE":0,"TOWNNAME":"南區","LI":"金華里","LIN":"12鄰","STREET":"賢南街","SECT":" ","MAREA":" ","LANE":" ","ALLEY":" ","HOUSE_NO":"２５號","E_COORD97":166872.44,"N_COORD97":2542420.0699999998,"ADDRESS":"賢南街２５號","OBJECTID":169027},"geometry":{"x":166872.44000000041,"y":2542420.0700000003}},{"attributes":{"ID":169029,"DIS_CODE":0,"TOWNNAME":"安平區","LI":"海頭里","LIN":"12鄰","STREET":"中興街","SECT":" ","MAREA":" ","LANE":" ","ALLEY":" ","HOUSE_NO":"４２號","E_COORD97":164176.88,"N_COORD97":2544716.27,"ADDRESS":"中興街４２號","OBJECTID":169028},"geometry":{"x":164176.88000000082,"y":2544716.2699999996}},{"attributes":{"ID":169030,"DIS_CODE":0,"TOWNNAME":"永康區","LI":"崑山里","LIN":"43鄰","STREET":"大灣路","SECT":" ","MAREA":" ","LANE":"９４２巷","ALLEY":"３７１弄","HOUSE_NO":"１５號","E_COORD97":173808.60000000001,"N_COORD97":2545185.3500000001,"ADDRESS":"大灣路９４２巷３７１弄１５號","OBJECTID":169029},"geometry":{"x":173808.60000000056,"y":2545185.3500000015}},{"attributes":{"ID":169031,"DIS_CODE":0,"TOWNNAME":"永康區","LI":"崑山里","LIN":"43鄰","STREET":"大灣路","SECT":" ","MAREA":" ","LANE":"９４２巷","ALLEY":"３７１弄","HOUSE_NO":"５３號","E_COORD97":173631.42000000001,"N_COORD97":2545242.3300000001,"ADDRESS":"大灣路９４２巷３７１弄５３號","OBJECTID":169030},"geometry":{"x":173631.41999999993,"y":2545242.3300000001}},{"attributes":{"ID":169032,"DIS_CODE":0,"TOWNNAME":"安平區","LI":"海頭里","LIN":"12鄰","STREET":"中興街","SECT":" ","MAREA":" ","LANE":" ","ALLEY":" ","HOUSE_NO":"４２號之１","E_COORD97":164183.72,"N_COORD97":2544719.1699999999,"ADDRESS":"中興街４２號之１","OBJECTID":169031},"geometry":{"x":164183.7200000016,"y":2544719.1700000018}},{"attributes":{"ID":169033,"DIS_CODE":0,"TOWNNAME":"安平區","LI":"海頭里","LIN":"12鄰","STREET":"中興街","SECT":" ","MAREA":" ","LANE":" ","ALLEY":" ","HOUSE_NO":"４６號","E_COORD97":164158.16,"N_COORD97":2544722.77,"ADDRESS":"中興街４６號","OBJECTID":169032},"geometry":{"x":164158.16000000108,"y":2544722.7699999996}},{"attributes":{"ID":169034,"DIS_CODE":0,"TOWNNAME":"永康區","LI":"崑山里","LIN":"43鄰","STREET":"大灣路","SECT":" ","MAREA":" ","LANE":"９４２巷","ALLEY":"４４９弄","HOUSE_NO":"５號","E_COORD97":173842.85999999999,"N_COORD97":2545335.77,"ADDRESS":"大灣路９４２巷４４９弄５號","OBJECTID":169033},"geometry":{"x":173842.86000000127,"y":2545335.7699999996}},{"attributes":{"ID":169035,"DIS_CODE":0,"TOWNNAME":"永康區","LI":"崑山里","LIN":"43鄰","STREET":"大灣路","SECT":" ","MAREA":" ","LANE":"９４２巷","ALLEY":"４４９弄","HOUSE_NO":"７號","E_COORD97":173832.63,"N_COORD97":2545338.6699999999,"ADDRESS":"大灣路９４２巷４４９弄７號","OBJECTID":169034},"geometry":{"x":173832.63000000082,"y":2545338.6700000037}},{"attributes":{"ID":169036,"DIS_CODE":0,"TOWNNAME":"永康區","LI":"龍潭里","LIN":"38鄰","STREET":"中山北路","SECT":" ","MAREA":" ","LANE":"１６４巷","ALLEY":"７８弄","HOUSE_NO":"１６之１號","E_COORD97":174419.09,"N_COORD97":2547366.1600000001,"ADDRESS":"中山北路１６４巷７８弄１６之１號","OBJECTID":169035},"geometry":{"x":174419.09000000078,"y":2547366.1600000039}},{"attributes":{"ID":169037,"DIS_CODE":0,"TOWNNAME":"安平區","LI":"海頭里","LIN":"12鄰","STREET":"安北路","SECT":" ","MAREA":" ","LANE":" ","ALLEY":" ","HOUSE_NO":"１２３號","E_COORD97":164200.10000000001,"N_COORD97":2544811.8500000001,"ADDRESS":"安北路１２３號","OBJECTID":169036},"geometry":{"x":164200.10000000056,"y":2544811.8500000015}},{"attributes":{"ID":169038,"DIS_CODE":0,"TOWNNAME":"安平區","LI":"海頭里","LIN":"12鄰","STREET":"安北路","SECT":" ","MAREA":" ","LANE":" ","ALLEY":" ","HOUSE_NO":"１２５號","E_COORD97":164194.29000000001,"N_COORD97":2544812.3399999999,"ADDRESS":"安北路１２５號","OBJECTID":169037},"geometry":{"x":164194.29000000097,"y":2544812.3400000017}},{"attributes":{"ID":169039,"DIS_CODE":0,"TOWNNAME":"永康區","LI":"龍潭里","LIN":"24鄰","STREET":"中山北路","SECT":" ","MAREA":" ","LANE":"２６４巷","ALLEY":"５５弄","HOUSE_NO":"８２號","E_COORD97":174909.06,"N_COORD97":2547399.1899999999,"ADDRESS":"中山北路２６４巷５５弄８２號","OBJECTID":169038},"geometry":{"x":174909.06000000052,"y":2547399.1900000032}},{"attributes":{"ID":169040,"DIS_CODE":0,"TOWNNAME":"永康區","LI":"王行里","LIN":"8鄰","STREET":"王行路","SECT":" ","MAREA":" ","LANE":"３５１巷","ALLEY":"６弄","HOUSE_NO":"８號","E_COORD97":175378.89999999999,"N_COORD97":2548569.8399999999,"ADDRESS":"王行路３５１巷６弄８號","OBJECTID":169039},"geometry":{"x":175378.9000000013,"y":2548569.8400000017}},{"attributes":{"ID":169041,"DIS_CODE":0,"TOWNNAME":"北門區","LI":"北門里","LIN":"16鄰","STREET":" ","SECT":" ","MAREA":"舊埕","LANE":" ","ALLEY":" ","HOUSE_NO":"５４號","E_COORD97":160457.35999999999,"N_COORD97":2574136.5,"ADDRESS":"舊埕５４號","OBJECTID":169040},"geometry":{"x":160457.3600000022,"y":2574136.5}},{"attributes":{"ID":169042,"DIS_CODE":0,"TOWNNAME":"永康區","LI":"東灣里","LIN":"26鄰","STREET":"民族路","SECT":" ","MAREA":" ","LANE":"１巷","ALLEY":"７０弄","HOUSE_NO":"３２號","E_COORD97":175409.81,"N_COORD97":2544058.79,"ADDRESS":"民族路１巷７０弄３２號","OBJECTID":169041},"geometry":{"x":175409.80999999959,"y":2544058.7900000028}},{"attributes":{"ID":169043,"DIS_CODE":0,"TOWNNAME":"安平區","LI":"海頭里","LIN":"12鄰","STREET":"安北路","SECT":" ","MAREA":" ","LANE":" ","ALLEY":" ","HOUSE_NO":"１２７號","E_COORD97":164194.01000000001,"N_COORD97":2544820.3900000001,"ADDRESS":"安北路１２７號","OBJECTID":169042},"geometry":{"x":164194.01000000071,"y":2544820.3900000025}},{"attributes":{"ID":169044,"DIS_CODE":0,"TOWNNAME":"安平區","LI":"海頭里","LIN":"12鄰","STREET":"安北路","SECT":" ","MAREA":" ","LANE":" ","ALLEY":" ","HOUSE_NO":"１２９之１號","E_COORD97":164181.69,"N_COORD97":2544818.4300000002,"ADDRESS":"安北路１２９之１號","OBJECTID":169043},"geometry":{"x":164181.69000000134,"y":2544818.4300000016}},{"attributes":{"ID":169045,"DIS_CODE":0,"TOWNNAME":"安平區","LI":"海頭里","LIN":"12鄰","STREET":"安北路","SECT":" ","MAREA":" ","LANE":" ","ALLEY":" ","HOUSE_NO":"１２９號","E_COORD97":164187.70999999999,"N_COORD97":2544817.2400000002,"ADDRESS":"安北路１２９號","OBJECTID":169044},"geometry":{"x":164187.71000000089,"y":2544817.2400000021}},{"attributes":{"ID":169046,"DIS_CODE":0,"TOWNNAME":"安平區","LI":"海頭里","LIN":"12鄰","STREET":"中興街","SECT":" ","MAREA":" ","LANE":" ","ALLEY":" ","HOUSE_NO":"４８號","E_COORD97":164147.72,"N_COORD97":2544728.48,"ADDRESS":"中興街４８號","OBJECTID":169045},"geometry":{"x":164147.71999999974,"y":2544728.4800000004}},{"attributes":{"ID":169047,"DIS_CODE":0,"TOWNNAME":"永康區","LI":"網寮里","LIN":"16鄰","STREET":"永二街","SECT":" ","MAREA":" ","LANE":"２４４巷","ALLEY":"６２弄","HOUSE_NO":"１９號","E_COORD97":173291.12,"N_COORD97":2546745.5800000001,"ADDRESS":"永二街２４４巷６２弄１９號","OBJECTID":169046},"geometry":{"x":173291.12000000011,"y":2546745.5800000001}},{"attributes":{"ID":169048,"DIS_CODE":0,"TOWNNAME":"永康區","LI":"王行里","LIN":"4鄰","STREET":"育樂街","SECT":" ","MAREA":" ","LANE":"１０４巷","ALLEY":"６７弄","HOUSE_NO":"２號","E_COORD97":175174.10999999999,"N_COORD97":2548604.3100000001,"ADDRESS":"育樂街１０４巷６７弄２號","OBJECTID":169047},"geometry":{"x":175174.11000000127,"y":2548604.3100000024}},{"attributes":{"ID":169049,"DIS_CODE":0,"TOWNNAME":"永康區","LI":"西灣里","LIN":"43鄰","STREET":"永華路","SECT":" ","MAREA":" ","LANE":"１５９巷","ALLEY":"１１弄","HOUSE_NO":"１７號","E_COORD97":174070.64000000001,"N_COORD97":2545462.4700000002,"ADDRESS":"永華路１５９巷１１弄１７號","OBJECTID":169048},"geometry":{"x":174070.64000000153,"y":2545462.4699999988}},{"attributes":{"ID":169050,"DIS_CODE":0,"TOWNNAME":"安平區","LI":"海頭里","LIN":"12鄰","STREET":"中興街","SECT":" ","MAREA":" ","LANE":" ","ALLEY":" ","HOUSE_NO":"６２號","E_COORD97":164131.13,"N_COORD97":2544735.96,"ADDRESS":"中興街６２號","OBJECTID":169049},"geometry":{"x":164131.13000000082,"y":2544735.9600000009}},{"attributes":{"ID":169051,"DIS_CODE":0,"TOWNNAME":"官田區","LI":"南\u25A0里","LIN":"13鄰","STREET":" ","SECT":" ","MAREA":"三結義","LANE":" ","ALLEY":" ","HOUSE_NO":"３７號","E_COORD97":179951.66,"N_COORD97":2567105.54,"ADDRESS":"三結義３７號","OBJECTID":169050},"geometry":{"x":179951.66000000201,"y":2567105.540000001}},{"attributes":{"ID":169052,"DIS_CODE":0,"TOWNNAME":"官田區","LI":"南\u25A0里","LIN":"13鄰","STREET":" ","SECT":" ","MAREA":"三結義","LANE":" ","ALLEY":" ","HOUSE_NO":"３８號","E_COORD97":179985.97,"N_COORD97":2567150.5800000001,"ADDRESS":"三結義３８號","OBJECTID":169051},"geometry":{"x":179985.96999999974,"y":2567150.5800000019}},{"attributes":{"ID":169053,"DIS_CODE":0,"TOWNNAME":"官田區","LI":"南\u25A0里","LIN":"13鄰","STREET":" ","SECT":" ","MAREA":"三結義","LANE":" ","ALLEY":" ","HOUSE_NO":"４０號之１","E_COORD97":179743.81,"N_COORD97":2567078.3599999999,"ADDRESS":"三結義４０號之１","OBJECTID":169052},"geometry":{"x":179743.81000000052,"y":2567078.3599999994}},{"attributes":{"ID":169054,"DIS_CODE":0,"TOWNNAME":"官田區","LI":"南\u25A0里","LIN":"13鄰","STREET":" ","SECT":" ","MAREA":"三結義","LANE":" ","ALLEY":" ","HOUSE_NO":"４０號之２","E_COORD97":179772.51000000001,"N_COORD97":2567126.5099999998,"ADDRESS":"三結義４０號之２","OBJECTID":169053},"geometry":{"x":179772.51000000164,"y":2567126.5100000016}},{"attributes":{"ID":169055,"DIS_CODE":0,"TOWNNAME":"官田區","LI":"南\u25A0里","LIN":"13鄰","STREET":" ","SECT":" ","MAREA":"三結義","LANE":" ","ALLEY":" ","HOUSE_NO":"４０號之６","E_COORD97":179798.10999999999,"N_COORD97":2567113.52,"ADDRESS":"三結義４０號之６","OBJECTID":169054},"geometry":{"x":179798.11000000127,"y":2567113.5200000014}},{"attributes":{"ID":169056,"DIS_CODE":0,"TOWNNAME":"官田區","LI":"南\u25A0里","LIN":"13鄰","STREET":" ","SECT":" ","MAREA":"三結義","LANE":" ","ALLEY":" ","HOUSE_NO":"４１號之１","E_COORD97":179583.32999999999,"N_COORD97":2567377.0899999999,"ADDRESS":"三結義４１號之１","OBJECTID":169055},"geometry":{"x":179583.33000000007,"y":2567377.0900000017}},{"attributes":{"ID":169057,"DIS_CODE":0,"TOWNNAME":"官田區","LI":"南\u25A0里","LIN":"13鄰","STREET":" ","SECT":" ","MAREA":"三結義","LANE":" ","ALLEY":" ","HOUSE_NO":"４１號之２０","E_COORD97":179641.35000000001,"N_COORD97":2567705.3100000001,"ADDRESS":"三結義４１號之２０","OBJECTID":169056},"geometry":{"x":179641.35000000056,"y":2567705.3100000024}},{"attributes":{"ID":169058,"DIS_CODE":0,"TOWNNAME":"下營區","LI":"中營里","LIN":"13鄰","STREET":" ","SECT":" ","MAREA":"中營","LANE":" ","ALLEY":" ","HOUSE_NO":"１１７５號","E_COORD97":176000.54999999999,"N_COORD97":2568290.5,"ADDRESS":"中營１１７５號","OBJECTID":169057},"geometry":{"x":176000.55000000168,"y":2568290.5000000019}},{"attributes":{"ID":169059,"DIS_CODE":0,"TOWNNAME":"下營區","LI":"中營里","LIN":"13鄰","STREET":" ","SECT":" ","MAREA":"中營","LANE":" ","ALLEY":" ","HOUSE_NO":"１１７６號","E_COORD97":175992.78,"N_COORD97":2568286.79,"ADDRESS":"中營１１７６號","OBJECTID":169058},"geometry":{"x":175992.78000000119,"y":2568286.790000001}},{"attributes":{"ID":169060,"DIS_CODE":0,"TOWNNAME":"下營區","LI":"中營里","LIN":"13鄰","STREET":" ","SECT":" ","MAREA":"中營","LANE":" ","ALLEY":" ","HOUSE_NO":"１１７７號","E_COORD97":175987.89999999999,"N_COORD97":2568285.8199999998,"ADDRESS":"中營１１７７號","OBJECTID":169059},"geometry":{"x":175987.90000000037,"y":2568285.8200000003}},{"attributes":{"ID":169061,"DIS_CODE":0,"TOWNNAME":"南區","LI":"金華里","LIN":"12鄰","STREET":"健康路","SECT":"二段","MAREA":" ","LANE":" ","ALLEY":" ","HOUSE_NO":"２５１號","E_COORD97":166996.91,"N_COORD97":2542463.1600000001,"ADDRESS":"健康路二段２５１號","OBJECTID":169060},"geometry":{"x":166996.91000000201,"y":2542463.1600000001}},{"attributes":{"ID":169062,"DIS_CODE":0,"TOWNNAME":"南區","LI":"金華里","LIN":"12鄰","STREET":"健康路","SECT":"二段","MAREA":" ","LANE":" ","ALLEY":" ","HOUSE_NO":"２５３號","E_COORD97":166991.38,"N_COORD97":2542462.8999999999,"ADDRESS":"健康路二段２５３號","OBJECTID":169061},"geometry":{"x":166991.37999999989,"y":2542462.9000000022}},{"attributes":{"ID":169063,"DIS_CODE":0,"TOWNNAME":"南區","LI":"金華里","LIN":"12鄰","STREET":"健康路","SECT":"二段","MAREA":" ","LANE":" ","ALLEY":" ","HOUSE_NO":"２５５號","E_COORD97":166987.66,"N_COORD97":2542462.8799999999,"ADDRESS":"健康路二段２５５號","OBJECTID":169062},"geometry":{"x":166987.66000000015,"y":2542462.879999999}},{"attributes":{"ID":169064,"DIS_CODE":0,"TOWNNAME":"南區","LI":"金華里","LIN":"12鄰","STREET":"健康路","SECT":"二段","MAREA":" ","LANE":" ","ALLEY":" ","HOUSE_NO":"２５７號","E_COORD97":166982.10000000001,"N_COORD97":2542462.3999999999,"ADDRESS":"健康路二段２５７號","OBJECTID":169063},"geometry":{"x":166982.10000000056,"y":2542462.4000000041}},{"attributes":{"ID":169065,"DIS_CODE":0,"TOWNNAME":"南區","LI":"金華里","LIN":"12鄰","STREET":"健康路","SECT":"二段","MAREA":" ","LANE":" ","ALLEY":" ","HOUSE_NO":"２５９號","E_COORD97":166978.13,"N_COORD97":2542462.3999999999,"ADDRESS":"健康路二段２５９號","OBJECTID":169064},"geometry":{"x":166978.12999999896,"y":2542462.4000000041}},{"attributes":{"ID":169066,"DIS_CODE":0,"TOWNNAME":"永康區","LI":"西灣里","LIN":"43鄰","STREET":"永華路","SECT":" ","MAREA":" ","LANE":"１５９巷","ALLEY":"１１弄","HOUSE_NO":"１９號","E_COORD97":174070.89999999999,"N_COORD97":2545456.3500000001,"ADDRESS":"永華路１５９巷１１弄１９號","OBJECTID":169065},"geometry":{"x":174070.90000000037,"y":2545456.3500000015}},{"attributes":{"ID":169067,"DIS_CODE":0,"TOWNNAME":"永康區","LI":"烏竹里","LIN":"14鄰","STREET":"竹園二街","SECT":" ","MAREA":" ","LANE":"１６０巷","ALLEY":"２３弄","HOUSE_NO":"２１號","E_COORD97":174633.23999999999,"N_COORD97":2549271.73,"ADDRESS":"竹園二街１６０巷２３弄２１號","OBJECTID":169066},"geometry":{"x":174633.24000000209,"y":2549271.7300000042}},{"attributes":{"ID":169068,"DIS_CODE":0,"TOWNNAME":"東區","LI":"德高里","LIN":"13鄰","STREET":"崇善路","SECT":" ","MAREA":" ","LANE":"９１３巷","ALLEY":"６弄","HOUSE_NO":"２２號","E_COORD97":171504.82000000001,"N_COORD97":2540700.1600000001,"ADDRESS":"崇善路９１３巷６弄２２號","OBJECTID":169067},"geometry":{"x":171504.8200000003,"y":2540700.1600000001}},{"attributes":{"ID":169069,"DIS_CODE":0,"TOWNNAME":"東區","LI":"富強里","LIN":"25鄰","STREET":"裕農路","SECT":" ","MAREA":" ","LANE":"４４６巷","ALLEY":"５２弄","HOUSE_NO":"４２號之６","E_COORD97":171095.98000000001,"N_COORD97":2543045.3399999999,"ADDRESS":"裕農路４４６巷５２弄４２號之６","OBJECTID":169068},"geometry":{"x":171095.98000000138,"y":2543045.3400000036}},{"attributes":{"ID":169070,"DIS_CODE":0,"TOWNNAME":"東區","LI":"崇誨里","LIN":"17鄰","STREET":"林森路","SECT":"二段","MAREA":" ","LANE":"１９２巷","ALLEY":"３６弄","HOUSE_NO":"１８號","E_COORD97":170618.07000000001,"N_COORD97":2543300.6600000001,"ADDRESS":"林森路二段１９２巷３６弄１８號","OBJECTID":169069},"geometry":{"x":170618.0700000003,"y":2543300.6600000001}},{"attributes":{"ID":169071,"DIS_CODE":0,"TOWNNAME":"東區","LI":"德高里","LIN":"17鄰","STREET":"崇善路","SECT":" ","MAREA":" ","LANE":"１０８９巷","ALLEY":"５８弄","HOUSE_NO":"２之１號","E_COORD97":171661.67000000001,"N_COORD97":2540538.0600000001,"ADDRESS":"崇善路１０８９巷５８弄２之１號","OBJECTID":169070},"geometry":{"x":171661.66999999899,"y":2540538.0600000005}},{"attributes":{"ID":169072,"DIS_CODE":0,"TOWNNAME":"安南區","LI":"長安里","LIN":"14鄰","STREET":"長溪路","SECT":"三段","MAREA":" ","LANE":"３８０巷","ALLEY":"１２５弄","HOUSE_NO":"４９號","E_COORD97":167933.73999999999,"N_COORD97":2552218.7400000002,"ADDRESS":"長溪路三段３８０巷１２５弄４９號","OBJECTID":169071},"geometry":{"x":167933.74000000022,"y":2552218.7400000021}},{"attributes":{"ID":169073,"DIS_CODE":0,"TOWNNAME":"下營區","LI":"中營里","LIN":"13鄰","STREET":" ","SECT":" ","MAREA":"中營","LANE":" ","ALLEY":" ","HOUSE_NO":"１１７８號","E_COORD97":175982.54999999999,"N_COORD97":2568284.2799999998,"ADDRESS":"中營１１７８號","OBJECTID":169072},"geometry":{"x":175982.55000000075,"y":2568284.2800000012}},{"attributes":{"ID":169074,"DIS_CODE":0,"TOWNNAME":"安南區","LI":"長安里","LIN":"14鄰","STREET":"長溪路","SECT":"三段","MAREA":" ","LANE":"３８０巷","ALLEY":"１２５弄","HOUSE_NO":"５１號","E_COORD97":167937.34,"N_COORD97":2552221.5099999998,"ADDRESS":"長溪路三段３８０巷１２５弄５１號","OBJECTID":169073},"geometry":{"x":167937.33999999985,"y":2552221.5099999998}},{"attributes":{"ID":169075,"DIS_CODE":0,"TOWNNAME":"安南區","LI":"長安里","LIN":"14鄰","STREET":"長溪路","SECT":"三段","MAREA":" ","LANE":"３８０巷","ALLEY":"１２５弄","HOUSE_NO":"５３號","E_COORD97":167940.03,"N_COORD97":2552224.7799999998,"ADDRESS":"長溪路三段３８０巷１２５弄５３號","OBJECTID":169074},"geometry":{"x":167940.03000000026,"y":2552224.7799999993}},{"attributes":{"ID":169076,"DIS_CODE":0,"TOWNNAME":"安南區","LI":"長安里","LIN":"14鄰","STREET":"長溪路","SECT":"三段","MAREA":" ","LANE":"３８０巷","ALLEY":"１２５弄","HOUSE_NO":"５５號","E_COORD97":167943.62,"N_COORD97":2552227.6899999999,"ADDRESS":"長溪路三段３８０巷１２５弄５５號","OBJECTID":169075},"geometry":{"x":167943.62000000104,"y":2552227.6900000013}},{"attributes":{"ID":169077,"DIS_CODE":0,"TOWNNAME":"安南區","LI":"長安里","LIN":"14鄰","STREET":"長溪路","SECT":"三段","MAREA":" ","LANE":"３８０巷","ALLEY":"１２５弄","HOUSE_NO":"５７號","E_COORD97":167947.09,"N_COORD97":2552230.3500000001,"ADDRESS":"長溪路三段３８０巷１２５弄５７號","OBJECTID":169076},"geometry":{"x":167947.09000000078,"y":2552230.3500000015}},{"attributes":{"ID":169078,"DIS_CODE":0,"TOWNNAME":"安南區","LI":"長安里","LIN":"14鄰","STREET":"長溪路","SECT":"三段","MAREA":" ","LANE":"３８０巷","ALLEY":"１２５弄","HOUSE_NO":"５９號","E_COORD97":167949.38,"N_COORD97":2552235.46,"ADDRESS":"長溪路三段３８０巷１２５弄５９號","OBJECTID":169077},"geometry":{"x":167949.37999999989,"y":2552235.4600000009}},{"attributes":{"ID":169079,"DIS_CODE":0,"TOWNNAME":"安南區","LI":"安富里","LIN":"4鄰","STREET":"郡安路","SECT":"五段","MAREA":" ","LANE":"１８４巷","ALLEY":"３８弄","HOUSE_NO":"４０號","E_COORD97":167350.51999999999,"N_COORD97":2547635.4500000002,"ADDRESS":"郡安路五段１８４巷３８弄４０號","OBJECTID":169078},"geometry":{"x":167350.52000000048,"y":2547635.4500000011}},{"attributes":{"ID":169080,"DIS_CODE":0,"TOWNNAME":"安南區","LI":"理想里","LIN":"4鄰","STREET":"海佃路","SECT":"二段","MAREA":" ","LANE":"３４２巷","ALLEY":"２１弄","HOUSE_NO":"４８號之２","E_COORD97":167030.40886900001,"N_COORD97":2548684.2621499998,"ADDRESS":"海佃路二段３４２巷２１弄４８號之２","OBJECTID":169079},"geometry":{"x":167030.40886900015,"y":2548684.2621460017}},{"attributes":{"ID":169081,"DIS_CODE":0,"TOWNNAME":"安南區","LI":"溪心里","LIN":"5鄰","STREET":"本原街","SECT":"二段","MAREA":" ","LANE":"１０６巷","ALLEY":"２７弄","HOUSE_NO":"７６號","E_COORD97":166844.09,"N_COORD97":2550935.8700000001,"ADDRESS":"本原街二段１０６巷２７弄７６號","OBJECTID":169080},"geometry":{"x":166844.08999999985,"y":2550935.8700000048}},{"attributes":{"ID":169082,"DIS_CODE":0,"TOWNNAME":"中西區","LI":"萬昌里","LIN":"17鄰","STREET":"青年路","SECT":" ","MAREA":" ","LANE":"１３２巷","ALLEY":"３１弄","HOUSE_NO":"１５號","E_COORD97":168961.64999999999,"N_COORD97":2543523.1600000001,"ADDRESS":"青年路１３２巷３１弄１５號","OBJECTID":169081},"geometry":{"x":168961.65000000037,"y":2543523.160000002}},{"attributes":{"ID":169083,"DIS_CODE":0,"TOWNNAME":"中西區","LI":"萬昌里","LIN":"17鄰","STREET":"青年路","SECT":" ","MAREA":" ","LANE":"１３２巷","ALLEY":"３１弄","HOUSE_NO":"１７號","E_COORD97":168961.95999999999,"N_COORD97":2543529.3199999998,"ADDRESS":"青年路１３２巷３１弄１７號","OBJECTID":169082},"geometry":{"x":168961.96000000089,"y":2543529.3200000003}},{"attributes":{"ID":169084,"DIS_CODE":0,"TOWNNAME":"中西區","LI":"萬昌里","LIN":"17鄰","STREET":"青年路","SECT":" ","MAREA":" ","LANE":"１３２巷","ALLEY":"３１弄","HOUSE_NO":"１號","E_COORD97":168942.39999999999,"N_COORD97":2543512.29,"ADDRESS":"青年路１３２巷３１弄１號","OBJECTID":169083},"geometry":{"x":168942.4000000013,"y":2543512.2899999991}},{"attributes":{"ID":169085,"DIS_CODE":0,"TOWNNAME":"中西區","LI":"萬昌里","LIN":"17鄰","STREET":"青年路","SECT":" ","MAREA":" ","LANE":"１３２巷","ALLEY":"３１弄","HOUSE_NO":"２１號","E_COORD97":168950.88,"N_COORD97":2543539.0600000001,"ADDRESS":"青年路１３２巷３１弄２１號","OBJECTID":169084},"geometry":{"x":168950.87999999989,"y":2543539.0600000005}},{"attributes":{"ID":169086,"DIS_CODE":0,"TOWNNAME":"下營區","LI":"中營里","LIN":"13鄰","STREET":" ","SECT":" ","MAREA":"中營","LANE":" ","ALLEY":" ","HOUSE_NO":"１１７９號","E_COORD97":175977.20999999999,"N_COORD97":2568285.04,"ADDRESS":"中營１１７９號","OBJECTID":169085},"geometry":{"x":175977.20999999996,"y":2568285.040000001}},{"attributes":{"ID":169087,"DIS_CODE":0,"TOWNNAME":"下營區","LI":"中營里","LIN":"13鄰","STREET":" ","SECT":" ","MAREA":"中營","LANE":" ","ALLEY":" ","HOUSE_NO":"１１８０號","E_COORD97":175973.95000000001,"N_COORD97":2568284.2999999998,"ADDRESS":"中營１１８０號","OBJECTID":169086},"geometry":{"x":175973.95000000019,"y":2568284.2999999989}},{"attributes":{"ID":169088,"DIS_CODE":0,"TOWNNAME":"下營區","LI":"中營里","LIN":"13鄰","STREET":" ","SECT":" ","MAREA":"中營","LANE":" ","ALLEY":" ","HOUSE_NO":"１１８１號","E_COORD97":175970.69,"N_COORD97":2568283.5600000001,"ADDRESS":"中營１１８１號","OBJECTID":169087},"geometry":{"x":175970.69000000041,"y":2568283.5600000024}},{"attributes":{"ID":169089,"DIS_CODE":0,"TOWNNAME":"下營區","LI":"中營里","LIN":"13鄰","STREET":" ","SECT":" ","MAREA":"中營","LANE":" ","ALLEY":" ","HOUSE_NO":"１１８２號","E_COORD97":175967.42000000001,"N_COORD97":2568282.8300000001,"ADDRESS":"中營１１８２號","OBJECTID":169088},"geometry":{"x":175967.41999999993,"y":2568282.8300000001}},{"attributes":{"ID":169090,"DIS_CODE":0,"TOWNNAME":"下營區","LI":"中營里","LIN":"13鄰","STREET":" ","SECT":" ","MAREA":"中營","LANE":" ","ALLEY":" ","HOUSE_NO":"１１８３號","E_COORD97":175964.16,"N_COORD97":2568282.0899999999,"ADDRESS":"中營１１８３號","OBJECTID":169089},"geometry":{"x":175964.16000000015,"y":2568282.0900000017}},{"attributes":{"ID":169091,"DIS_CODE":0,"TOWNNAME":"南區","LI":"松安里","LIN":"12鄰","STREET":"灣裡路","SECT":" ","MAREA":" ","LANE":" ","ALLEY":" ","HOUSE_NO":"４４２號","E_COORD97":166214.5,"N_COORD97":2536066.5600000001,"ADDRESS":"灣裡路４４２號","OBJECTID":169090},"geometry":{"x":166214.5,"y":2536066.5600000005}},{"attributes":{"ID":169092,"DIS_CODE":0,"TOWNNAME":"中西區","LI":"萬昌里","LIN":"17鄰","STREET":"青年路","SECT":" ","MAREA":" ","LANE":"１３２巷","ALLEY":"３１弄","HOUSE_NO":"２３號","E_COORD97":168950.88,"N_COORD97":2543545.54,"ADDRESS":"青年路１３２巷３１弄２３號","OBJECTID":169091},"geometry":{"x":168950.87999999989,"y":2543545.540000001}},{"attributes":{"ID":169093,"DIS_CODE":0,"TOWNNAME":"中西區","LI":"萬昌里","LIN":"17鄰","STREET":"青年路","SECT":" ","MAREA":" ","LANE":"１３２巷","ALLEY":"３１弄","HOUSE_NO":"２５號","E_COORD97":168952.03,"N_COORD97":2543552.9100000001,"ADDRESS":"青年路１３２巷３１弄２５號","OBJECTID":169092},"geometry":{"x":168952.03000000026,"y":2543552.9100000001}},{"attributes":{"ID":169094,"DIS_CODE":0,"TOWNNAME":"中西區","LI":"萬昌里","LIN":"17鄰","STREET":"青年路","SECT":" ","MAREA":" ","LANE":"１３２巷","ALLEY":"３１弄","HOUSE_NO":"２７號","E_COORD97":168955.69,"N_COORD97":2543560.5299999998,"ADDRESS":"青年路１３２巷３１弄２７號","OBJECTID":169093},"geometry":{"x":168955.69000000134,"y":2543560.5300000012}},{"attributes":{"ID":169095,"DIS_CODE":0,"TOWNNAME":"中西區","LI":"萬昌里","LIN":"17鄰","STREET":"青年路","SECT":" ","MAREA":" ","LANE":"１３２巷","ALLEY":"３１弄","HOUSE_NO":"２９號","E_COORD97":168965.63,"N_COORD97":2543561.0600000001,"ADDRESS":"青年路１３２巷３１弄２９號","OBJECTID":169094},"geometry":{"x":168965.63000000082,"y":2543561.0600000024}},{"attributes":{"ID":169096,"DIS_CODE":0,"TOWNNAME":"中西區","LI":"萬昌里","LIN":"17鄰","STREET":"青年路","SECT":" ","MAREA":" ","LANE":"１３２巷","ALLEY":"３１弄","HOUSE_NO":"３號","E_COORD97":168946.89999999999,"N_COORD97":2543512.1899999999,"ADDRESS":"青年路１３２巷３１弄３號","OBJECTID":169095},"geometry":{"x":168946.9000000013,"y":2543512.1899999995}},{"attributes":{"ID":169097,"DIS_CODE":0,"TOWNNAME":"中西區","LI":"萬昌里","LIN":"17鄰","STREET":"青年路","SECT":" ","MAREA":" ","LANE":"１３２巷","ALLEY":"３１弄","HOUSE_NO":"５號","E_COORD97":168949.62,"N_COORD97":2543512.0800000001,"ADDRESS":"青年路１３２巷３１弄５號","OBJECTID":169096},"geometry":{"x":168949.62000000011,"y":2543512.0800000038}},{"attributes":{"ID":169098,"DIS_CODE":0,"TOWNNAME":"中西區","LI":"萬昌里","LIN":"17鄰","STREET":"青年路","SECT":" ","MAREA":" ","LANE":"１３２巷","ALLEY":"３１弄","HOUSE_NO":"７號","E_COORD97":168952.44,"N_COORD97":2543512.1899999999,"ADDRESS":"青年路１３２巷３１弄７號","OBJECTID":169097},"geometry":{"x":168952.44000000041,"y":2543512.1899999995}},{"attributes":{"ID":169099,"DIS_CODE":0,"TOWNNAME":"中西區","LI":"萬昌里","LIN":"17鄰","STREET":"青年路","SECT":" ","MAREA":" ","LANE":"１３２巷","ALLEY":"３１弄","HOUSE_NO":"９號","E_COORD97":168955.06,"N_COORD97":2543512.3900000001,"ADDRESS":"青年路１３２巷３１弄９號","OBJECTID":169098},"geometry":{"x":168955.06000000145,"y":2543512.3900000006}},{"attributes":{"ID":169100,"DIS_CODE":0,"TOWNNAME":"中西區","LI":"萬昌里","LIN":"20鄰","STREET":"青年路","SECT":" ","MAREA":" ","LANE":"１６４巷","ALLEY":"４５弄","HOUSE_NO":"２號","E_COORD97":169024.59,"N_COORD97":2543482.4199999999,"ADDRESS":"青年路１６４巷４５弄２號","OBJECTID":169099},"geometry":{"x":169024.59000000171,"y":2543482.4200000037}},{"attributes":{"ID":169101,"DIS_CODE":0,"TOWNNAME":"中西區","LI":"萬昌里","LIN":"20鄰","STREET":"青年路","SECT":" ","MAREA":" ","LANE":"１６４巷","ALLEY":"４５弄","HOUSE_NO":"４號","E_COORD97":169031.70000000001,"N_COORD97":2543479.4900000002,"ADDRESS":"青年路１６４巷４５弄４號","OBJECTID":169100},"geometry":{"x":169031.70000000112,"y":2543479.4900000021}},{"attributes":{"ID":169102,"DIS_CODE":0,"TOWNNAME":"中西區","LI":"銀同里","LIN":"6鄰","STREET":"開山路","SECT":" ","MAREA":" ","LANE":"３５巷","ALLEY":"３９弄","HOUSE_NO":"９號","E_COORD97":168771.48999999999,"N_COORD97":2543438.25,"ADDRESS":"開山路３５巷３９弄９號","OBJECTID":169101},"geometry":{"x":168771.49000000115,"y":2543438.25}},{"attributes":{"ID":169103,"DIS_CODE":0,"TOWNNAME":"中西區","LI":"銀同里","LIN":"6鄰","STREET":"開山路","SECT":" ","MAREA":" ","LANE":"３５巷","ALLEY":"３９弄","HOUSE_NO":"９號之１","E_COORD97":168774.5,"N_COORD97":2543436.9100000001,"ADDRESS":"開山路３５巷３９弄９號之１","OBJECTID":169102},"geometry":{"x":168774.50000000186,"y":2543436.9100000001}},{"attributes":{"ID":169104,"DIS_CODE":0,"TOWNNAME":"東山區","LI":"大客里","LIN":"12鄰","STREET":" ","SECT":" ","MAREA":"大庄","LANE":" ","ALLEY":" ","HOUSE_NO":"９５號","E_COORD97":190592.60999999999,"N_COORD97":2578934.4399999999,"ADDRESS":"大庄９５號","OBJECTID":169103},"geometry":{"x":190592.61000000034,"y":2578934.4399999995}},{"attributes":{"ID":169105,"DIS_CODE":0,"TOWNNAME":"東山區","LI":"大客里","LIN":"12鄰","STREET":" ","SECT":" ","MAREA":"大庄","LANE":" ","ALLEY":" ","HOUSE_NO":"９８號","E_COORD97":190538.10999999999,"N_COORD97":2578868.4900000002,"ADDRESS":"大庄９８號","OBJECTID":169104},"geometry":{"x":190538.11000000034,"y":2578868.4900000021}},{"attributes":{"ID":169106,"DIS_CODE":0,"TOWNNAME":"東山區","LI":"大客里","LIN":"12鄰","STREET":" ","SECT":" ","MAREA":"大庄","LANE":" ","ALLEY":" ","HOUSE_NO":"９９號之１","E_COORD97":190513.57999999999,"N_COORD97":2578874.0499999998,"ADDRESS":"大庄９９號之１","OBJECTID":169105},"geometry":{"x":190513.58000000101,"y":2578874.0500000007}},{"attributes":{"ID":169107,"DIS_CODE":0,"TOWNNAME":"東山區","LI":"大客里","LIN":"12鄰","STREET":" ","SECT":" ","MAREA":"大庄","LANE":" ","ALLEY":" ","HOUSE_NO":"９９號","E_COORD97":190529.92000000001,"N_COORD97":2578875.21,"ADDRESS":"大庄９９號","OBJECTID":169106},"geometry":{"x":190529.92000000086,"y":2578875.2100000009}},{"attributes":{"ID":169108,"DIS_CODE":0,"TOWNNAME":"下營區","LI":"中營里","LIN":"13鄰","STREET":" ","SECT":" ","MAREA":"中營","LANE":" ","ALLEY":" ","HOUSE_NO":"１１８４號","E_COORD97":175960.89999999999,"N_COORD97":2568281.3599999999,"ADDRESS":"中營１１８４號","OBJECTID":169107},"geometry":{"x":175960.90000000037,"y":2568281.3599999994}},{"attributes":{"ID":169109,"DIS_CODE":0,"TOWNNAME":"下營區","LI":"中營里","LIN":"13鄰","STREET":" ","SECT":" ","MAREA":"中營","LANE":" ","ALLEY":" ","HOUSE_NO":"１１８５號","E_COORD97":175957.64000000001,"N_COORD97":2568280.6200000001,"ADDRESS":"中營１１８５號","OBJECTID":169108},"geometry":{"x":175957.6400000006,"y":2568280.6200000029}},{"attributes":{"ID":169110,"DIS_CODE":0,"TOWNNAME":"下營區","LI":"中營里","LIN":"13鄰","STREET":" ","SECT":" ","MAREA":"中營","LANE":" ","ALLEY":" ","HOUSE_NO":"１１８６號","E_COORD97":175959.5,"N_COORD97":2568295.7799999998,"ADDRESS":"中營１１８６號","OBJECTID":169109},"geometry":{"x":175959.5,"y":2568295.7799999993}},{"attributes":{"ID":169111,"DIS_CODE":0,"TOWNNAME":"下營區","LI":"中營里","LIN":"13鄰","STREET":" ","SECT":" ","MAREA":"中營","LANE":" ","ALLEY":" ","HOUSE_NO":"１１８７號","E_COORD97":175951.32999999999,"N_COORD97":2568300.6200000001,"ADDRESS":"中營１１８７號","OBJECTID":169110},"geometry":{"x":175951.33000000194,"y":2568300.6200000029}},{"attributes":{"ID":169112,"DIS_CODE":0,"TOWNNAME":"下營區","LI":"中營里","LIN":"13鄰","STREET":" ","SECT":" ","MAREA":"中營","LANE":" ","ALLEY":" ","HOUSE_NO":"１１８８號","E_COORD97":176002.72,"N_COORD97":2568308.6200000001,"ADDRESS":"中營１１８８號","OBJECTID":169111},"geometry":{"x":176002.7200000016,"y":2568308.620000001}},{"attributes":{"ID":169113,"DIS_CODE":0,"TOWNNAME":"下營區","LI":"中營里","LIN":"13鄰","STREET":" ","SECT":" ","MAREA":"中營","LANE":" ","ALLEY":" ","HOUSE_NO":"１１８９號","E_COORD97":175993.64000000001,"N_COORD97":2568313.0699999998,"ADDRESS":"中營１１８９號","OBJECTID":169112},"geometry":{"x":175993.6400000006,"y":2568313.0700000022}},{"attributes":{"ID":169114,"DIS_CODE":0,"TOWNNAME":"下營區","LI":"中營里","LIN":"13鄰","STREET":" ","SECT":" ","MAREA":"中營","LANE":" ","ALLEY":" ","HOUSE_NO":"１１９０號","E_COORD97":175989.95999999999,"N_COORD97":2568312.6299999999,"ADDRESS":"中營１１９０號","OBJECTID":169113},"geometry":{"x":175989.96000000089,"y":2568312.6300000008}},{"attributes":{"ID":169115,"DIS_CODE":0,"TOWNNAME":"下營區","LI":"中營里","LIN":"13鄰","STREET":" ","SECT":" ","MAREA":"中營","LANE":" ","ALLEY":" ","HOUSE_NO":"１１９１號","E_COORD97":175985.63,"N_COORD97":2568310.2000000002,"ADDRESS":"中營１１９１號","OBJECTID":169114},"geometry":{"x":175985.62999999989,"y":2568310.1999999993}},{"attributes":{"ID":169116,"DIS_CODE":0,"TOWNNAME":"下營區","LI":"中營里","LIN":"13鄰","STREET":" ","SECT":" ","MAREA":"中營","LANE":" ","ALLEY":" ","HOUSE_NO":"１１９２號","E_COORD97":175982.45999999999,"N_COORD97":2568309.7000000002,"ADDRESS":"中營１１９２號","OBJECTID":169115},"geometry":{"x":175982.45999999903,"y":2568309.6999999993}},{"attributes":{"ID":169117,"DIS_CODE":0,"TOWNNAME":"新營區","LI":"新東里","LIN":"12鄰","STREET":"東大街","SECT":" ","MAREA":" ","LANE":" ","ALLEY":" ","HOUSE_NO":"３９號","E_COORD97":180998.82999999999,"N_COORD97":2579140.5800000001,"ADDRESS":"東大街３９號","OBJECTID":169116},"geometry":{"x":180998.83000000007,"y":2579140.5800000001}},{"attributes":{"ID":169118,"DIS_CODE":0,"TOWNNAME":"新營區","LI":"忠政里","LIN":"12鄰","STREET":"中正路","SECT":" ","MAREA":" ","LANE":" ","ALLEY":" ","HOUSE_NO":"９７號","E_COORD97":180068.22,"N_COORD97":2579630.0099999998,"ADDRESS":"中正路９７號","OBJECTID":169117},"geometry":{"x":180068.22000000067,"y":2579630.0100000016}},{"attributes":{"ID":169119,"DIS_CODE":0,"TOWNNAME":"新營區","LI":"太南里","LIN":"12鄰","STREET":" ","SECT":" ","MAREA":"太子宮","LANE":" ","ALLEY":" ","HOUSE_NO":"２７１之１號","E_COORD97":176142.66,"N_COORD97":2576785.25,"ADDRESS":"太子宮２７１之１號","OBJECTID":169118},"geometry":{"x":176142.66000000108,"y":2576785.2500000019}},{"attributes":{"ID":169120,"DIS_CODE":0,"TOWNNAME":"新營區","LI":"新東里","LIN":"12鄰","STREET":"東大街","SECT":" ","MAREA":" ","LANE":" ","ALLEY":" ","HOUSE_NO":"３７號","E_COORD97":180997.78,"N_COORD97":2579133.9399999999,"ADDRESS":"東大街３７號","OBJECTID":169119},"geometry":{"x":180997.78000000026,"y":2579133.9399999995}},{"attributes":{"ID":169121,"DIS_CODE":0,"TOWNNAME":"中西區","LI":"銀同里","LIN":"6鄰","STREET":"開山路","SECT":" ","MAREA":" ","LANE":"３５巷","ALLEY":"３９弄","HOUSE_NO":"９號之２","E_COORD97":168776.73000000001,"N_COORD97":2543436.1299999999,"ADDRESS":"開山路３５巷３９弄９號之２","OBJECTID":169120},"geometry":{"x":168776.73000000231,"y":2543436.1300000008}},{"attributes":{"ID":169122,"DIS_CODE":0,"TOWNNAME":"新營區","LI":"太南里","LIN":"12鄰","STREET":" ","SECT":" ","MAREA":"太子宮","LANE":" ","ALLEY":" ","HOUSE_NO":"２７３號","E_COORD97":176174.88,"N_COORD97":2576771.7400000002,"ADDRESS":"太子宮２７３號","OBJECTID":169121},"geometry":{"x":176174.88000000082,"y":2576771.7400000021}},{"attributes":{"ID":169123,"DIS_CODE":0,"TOWNNAME":"安南區","LI":"海西里","LIN":" ","STREET":"海中街","SECT":" ","MAREA":" ","LANE":"１２１巷","ALLEY":"２１弄","HOUSE_NO":"１２號","E_COORD97":166341.06,"N_COORD97":2548998.3100000001,"ADDRESS":"海中街１２１巷２１弄１２號","OBJECTID":169122},"geometry":{"x":166341.06000000145,"y":2548998.3100000005}},{"attributes":{"ID":169124,"DIS_CODE":0,"TOWNNAME":"新營區","LI":"姑爺里","LIN":"12鄰","STREET":" ","SECT":" ","MAREA":"挖仔","LANE":" ","ALLEY":" ","HOUSE_NO":"４９號","E_COORD97":173880.09,"N_COORD97":2575577.3100000001,"ADDRESS":"挖仔４９號","OBJECTID":169123},"geometry":{"x":173880.09000000078,"y":2575577.3100000024}},{"attributes":{"ID":169125,"DIS_CODE":0,"TOWNNAME":"東山區","LI":"東河里","LIN":"12鄰","STREET":" ","SECT":" ","MAREA":"吉貝耍","LANE":" ","ALLEY":" ","HOUSE_NO":"１１４號","E_COORD97":186859.17000000001,"N_COORD97":2577103.52,"ADDRESS":"吉貝耍１１４號","OBJECTID":169124},"geometry":{"x":186859.17000000179,"y":2577103.5200000033}},{"attributes":{"ID":169126,"DIS_CODE":0,"TOWNNAME":"安南區","LI":"海西里","LIN":" ","STREET":"海中街","SECT":" ","MAREA":" ","LANE":"１２１巷","ALLEY":"２１弄","HOUSE_NO":"１４號","E_COORD97":166342.73000000001,"N_COORD97":2548993.71,"ADDRESS":"海中街１２１巷２１弄１４號","OBJECTID":169125},"geometry":{"x":166342.73000000138,"y":2548993.7100000009}},{"attributes":{"ID":169127,"DIS_CODE":0,"TOWNNAME":"安南區","LI":"海西里","LIN":" ","STREET":"海中街","SECT":" ","MAREA":" ","LANE":"１２１巷","ALLEY":"２１弄","HOUSE_NO":"１８號","E_COORD97":166349.01999999999,"N_COORD97":2548984.9300000002,"ADDRESS":"海中街１２１巷２１弄１８號","OBJECTID":169126},"geometry":{"x":166349.01999999955,"y":2548984.9300000016}},{"attributes":{"ID":169128,"DIS_CODE":0,"TOWNNAME":"安南區","LI":"海西里","LIN":"14鄰","STREET":"海環街","SECT":" ","MAREA":" ","LANE":"４３７巷","ALLEY":"４３弄","HOUSE_NO":"１４號","E_COORD97":166027.64999999999,"N_COORD97":2549097.2400000002,"ADDRESS":"海環街４３７巷４３弄１４號","OBJECTID":169127},"geometry":{"x":166027.65000000224,"y":2549097.2400000002}},{"attributes":{"ID":169129,"DIS_CODE":0,"TOWNNAME":"安南區","LI":"海西里","LIN":"14鄰","STREET":"海環街","SECT":" ","MAREA":" ","LANE":"４３７巷","ALLEY":"４３弄","HOUSE_NO":"４２號","E_COORD97":165958,"N_COORD97":2549050.0499999998,"ADDRESS":"海環街４３７巷４３弄４２號","OBJECTID":169128},"geometry":{"x":165958,"y":2549050.0500000026}},{"attributes":{"ID":169130,"DIS_CODE":0,"TOWNNAME":"安南區","LI":"海西里","LIN":"14鄰","STREET":"海環街","SECT":" ","MAREA":" ","LANE":"４３７巷","ALLEY":"４３弄","HOUSE_NO":"５４號","E_COORD97":165925.76999999999,"N_COORD97":2549032.2400000002,"ADDRESS":"海環街４３７巷４３弄５４號","OBJECTID":169129},"geometry":{"x":165925.76999999862,"y":2549032.2400000002}},{"attributes":{"ID":169131,"DIS_CODE":0,"TOWNNAME":"東山區","LI":"東河里","LIN":"12鄰","STREET":" ","SECT":" ","MAREA":"吉貝耍","LANE":" ","ALLEY":" ","HOUSE_NO":"１１５號之１","E_COORD97":186849.45000000001,"N_COORD97":2577159.6299999999,"ADDRESS":"吉貝耍１１５號之１","OBJECTID":169130},"geometry":{"x":186849.45000000112,"y":2577159.6299999971}},{"attributes":{"ID":169132,"DIS_CODE":0,"TOWNNAME":"東山區","LI":"東河里","LIN":"12鄰","STREET":" ","SECT":" ","MAREA":"吉貝耍","LANE":" ","ALLEY":" ","HOUSE_NO":"１１５號之２","E_COORD97":186854.13,"N_COORD97":2577159.21,"ADDRESS":"吉貝耍１１５號之２","OBJECTID":169131},"geometry":{"x":186854.12999999989,"y":2577159.2100000028}},{"attributes":{"ID":169133,"DIS_CODE":0,"TOWNNAME":"東山區","LI":"東河里","LIN":"12鄰","STREET":" ","SECT":" ","MAREA":"吉貝耍","LANE":" ","ALLEY":" ","HOUSE_NO":"１１５之３號","E_COORD97":186865.26999999999,"N_COORD97":2577156.2999999998,"ADDRESS":"吉貝耍１１５之３號","OBJECTID":169132},"geometry":{"x":186865.27000000048,"y":2577156.3000000007}},{"attributes":{"ID":169134,"DIS_CODE":0,"TOWNNAME":"東山區","LI":"東河里","LIN":"12鄰","STREET":" ","SECT":" ","MAREA":"吉貝耍","LANE":" ","ALLEY":" ","HOUSE_NO":"１１５之５號","E_COORD97":186871.64000000001,"N_COORD97":2577156.2400000002,"ADDRESS":"吉貝耍１１５之５號","OBJECTID":169133},"geometry":{"x":186871.6400000006,"y":2577156.2400000002}},{"attributes":{"ID":169135,"DIS_CODE":0,"TOWNNAME":"東山區","LI":"東河里","LIN":"12鄰","STREET":" ","SECT":" ","MAREA":"吉貝耍","LANE":" ","ALLEY":" ","HOUSE_NO":"１１６號","E_COORD97":186841.29000000001,"N_COORD97":2577149.4399999999,"ADDRESS":"吉貝耍１１６號","OBJECTID":169134},"geometry":{"x":186841.29000000004,"y":2577149.4400000013}},{"attributes":{"ID":169136,"DIS_CODE":0,"TOWNNAME":"東山區","LI":"東河里","LIN":"12鄰","STREET":" ","SECT":" ","MAREA":"吉貝耍","LANE":" ","ALLEY":" ","HOUSE_NO":"１１７號","E_COORD97":186839.01000000001,"N_COORD97":2577132.1299999999,"ADDRESS":"吉貝耍１１７號","OBJECTID":169135},"geometry":{"x":186839.00999999978,"y":2577132.129999999}},{"attributes":{"ID":169137,"DIS_CODE":0,"TOWNNAME":"下營區","LI":"中營里","LIN":"13鄰","STREET":" ","SECT":" ","MAREA":"中營","LANE":" ","ALLEY":" ","HOUSE_NO":"１１９３號","E_COORD97":175979,"N_COORD97":2568308.77,"ADDRESS":"中營１１９３號","OBJECTID":169136},"geometry":{"x":175979.00000000186,"y":2568308.7700000014}},{"attributes":{"ID":169138,"DIS_CODE":0,"TOWNNAME":"下營區","LI":"中營里","LIN":"13鄰","STREET":" ","SECT":" ","MAREA":"中營","LANE":" ","ALLEY":" ","HOUSE_NO":"１１９４號","E_COORD97":175971.42000000001,"N_COORD97":2568315.02,"ADDRESS":"中營１１９４號","OBJECTID":169137},"geometry":{"x":175971.42000000086,"y":2568315.0199999996}},{"attributes":{"ID":169139,"DIS_CODE":0,"TOWNNAME":"下營區","LI":"中營里","LIN":"13鄰","STREET":" ","SECT":" ","MAREA":"中營","LANE":" ","ALLEY":" ","HOUSE_NO":"１１９５號","E_COORD97":175965.79000000001,"N_COORD97":2568313.2000000002,"ADDRESS":"中營１１９５號","OBJECTID":169138},"geometry":{"x":175965.79000000097,"y":2568313.1999999993}},{"attributes":{"ID":169140,"DIS_CODE":0,"TOWNNAME":"下營區","LI":"中營里","LIN":"13鄰","STREET":" ","SECT":" ","MAREA":"中營","LANE":" ","ALLEY":" ","HOUSE_NO":"１１９６號","E_COORD97":175968.04999999999,"N_COORD97":2568304.73,"ADDRESS":"中營１１９６號","OBJECTID":169139},"geometry":{"x":175968.04999999981,"y":2568304.7300000004}},{"attributes":{"ID":169141,"DIS_CODE":0,"TOWNNAME":"下營區","LI":"中營里","LIN":"13鄰","STREET":" ","SECT":" ","MAREA":"中營","LANE":" ","ALLEY":" ","HOUSE_NO":"１１９８號","E_COORD97":175958.69,"N_COORD97":2568313.7799999998,"ADDRESS":"中營１１９８號","OBJECTID":169140},"geometry":{"x":175958.69000000041,"y":2568313.7800000031}},{"attributes":{"ID":169142,"DIS_CODE":0,"TOWNNAME":"東山區","LI":"聖賢里","LIN":"12鄰","STREET":" ","SECT":" ","MAREA":"田尾","LANE":" ","ALLEY":" ","HOUSE_NO":"２１號","E_COORD97":184685.79999999999,"N_COORD97":2578164.2000000002,"ADDRESS":"田尾２１號","OBJECTID":169141},"geometry":{"x":184685.79999999981,"y":2578164.2000000011}},{"attributes":{"ID":169143,"DIS_CODE":0,"TOWNNAME":"東山區","LI":"聖賢里","LIN":"12鄰","STREET":" ","SECT":" ","MAREA":"田尾","LANE":" ","ALLEY":" ","HOUSE_NO":"２２號","E_COORD97":184711.01000000001,"N_COORD97":2578178.4300000002,"ADDRESS":"田尾２２號","OBJECTID":169142},"geometry":{"x":184711.01000000071,"y":2578178.4299999997}},{"attributes":{"ID":169144,"DIS_CODE":0,"TOWNNAME":"東山區","LI":"聖賢里","LIN":"12鄰","STREET":" ","SECT":" ","MAREA":"田尾","LANE":" ","ALLEY":" ","HOUSE_NO":"２３號之１","E_COORD97":184688.20999999999,"N_COORD97":2578209.23,"ADDRESS":"田尾２３號之１","OBJECTID":169143},"geometry":{"x":184688.21000000089,"y":2578209.2300000023}},{"attributes":{"ID":169145,"DIS_CODE":0,"TOWNNAME":"東山區","LI":"聖賢里","LIN":"12鄰","STREET":" ","SECT":" ","MAREA":"田尾","LANE":" ","ALLEY":" ","HOUSE_NO":"２３號之２","E_COORD97":184682.39000000001,"N_COORD97":2578204.8100000001,"ADDRESS":"田尾２３號之２","OBJECTID":169144},"geometry":{"x":184682.38999999873,"y":2578204.8100000024}},{"attributes":{"ID":169146,"DIS_CODE":0,"TOWNNAME":"東山區","LI":"聖賢里","LIN":"12鄰","STREET":" ","SECT":" ","MAREA":"田尾","LANE":" ","ALLEY":" ","HOUSE_NO":"２３號之３","E_COORD97":184677.42000000001,"N_COORD97":2578203.9399999999,"ADDRESS":"田尾２３號之３","OBJECTID":169145},"geometry":{"x":184677.42000000179,"y":2578203.9400000013}},{"attributes":{"ID":169147,"DIS_CODE":0,"TOWNNAME":"東山區","LI":"聖賢里","LIN":"12鄰","STREET":" ","SECT":" ","MAREA":"田尾","LANE":" ","ALLEY":" ","HOUSE_NO":"２３號之４","E_COORD97":184672.45999999999,"N_COORD97":2578203.0699999998,"ADDRESS":"田尾２３號之４","OBJECTID":169146},"geometry":{"x":184672.46000000089,"y":2578203.0700000022}},{"attributes":{"ID":169148,"DIS_CODE":0,"TOWNNAME":"東山區","LI":"聖賢里","LIN":"12鄰","STREET":" ","SECT":" ","MAREA":"田尾","LANE":" ","ALLEY":" ","HOUSE_NO":"２３號","E_COORD97":184655.76000000001,"N_COORD97":2578197.21,"ADDRESS":"田尾２３號","OBJECTID":169147},"geometry":{"x":184655.75999999978,"y":2578197.2100000009}},{"attributes":{"ID":169149,"DIS_CODE":0,"TOWNNAME":"安南區","LI":"海西里","LIN":"14鄰","STREET":"海環街","SECT":" ","MAREA":" ","LANE":"４３７巷","ALLEY":"３３弄","HOUSE_NO":"４４號","E_COORD97":165993.89000000001,"N_COORD97":2549047.0600000001,"ADDRESS":"海環街４３７巷３３弄４４號","OBJECTID":169148},"geometry":{"x":165993.88999999966,"y":2549047.0600000024}},{"attributes":{"ID":169150,"DIS_CODE":0,"TOWNNAME":"東山區","LI":"聖賢里","LIN":"12鄰","STREET":" ","SECT":" ","MAREA":"田尾","LANE":" ","ALLEY":" ","HOUSE_NO":"２４號","E_COORD97":184664.12,"N_COORD97":2578172.6499999999,"ADDRESS":"田尾２４號","OBJECTID":169149},"geometry":{"x":184664.12000000011,"y":2578172.6500000022}},{"attributes":{"ID":169151,"DIS_CODE":0,"TOWNNAME":"東山區","LI":"聖賢里","LIN":"12鄰","STREET":" ","SECT":" ","MAREA":"田尾","LANE":" ","ALLEY":" ","HOUSE_NO":"２６號","E_COORD97":184663.23000000001,"N_COORD97":2578229.98,"ADDRESS":"田尾２６號","OBJECTID":169150},"geometry":{"x":184663.23000000045,"y":2578229.9800000004}},{"attributes":{"ID":169152,"DIS_CODE":0,"TOWNNAME":"東山區","LI":"東中里","LIN":"12鄰","STREET":"青葉路","SECT":"一段","MAREA":" ","LANE":" ","ALLEY":" ","HOUSE_NO":"６號","E_COORD97":188774.12,"N_COORD97":2579055.4900000002,"ADDRESS":"青葉路一段６號","OBJECTID":169151},"geometry":{"x":188774.12000000104,"y":2579055.4900000021}},{"attributes":{"ID":169153,"DIS_CODE":0,"TOWNNAME":"東山區","LI":"聖賢里","LIN":"12鄰","STREET":" ","SECT":" ","MAREA":"田尾","LANE":" ","ALLEY":" ","HOUSE_NO":"２７之２號","E_COORD97":184723.23999999999,"N_COORD97":2578241.2400000002,"ADDRESS":"田尾２７之２號","OBJECTID":169152},"geometry":{"x":184723.24000000115,"y":2578241.2400000002}},{"attributes":{"ID":169154,"DIS_CODE":0,"TOWNNAME":"仁德區","LI":"一甲里","LIN":"20鄰","STREET":"太乙三街","SECT":" ","MAREA":" ","LANE":" ","ALLEY":" ","HOUSE_NO":"５６號","E_COORD97":173316.48000000001,"N_COORD97":2542269.5099999998,"ADDRESS":"太乙三街５６號","OBJECTID":169153},"geometry":{"x":173316.48000000231,"y":2542269.5099999998}},{"attributes":{"ID":169155,"DIS_CODE":0,"TOWNNAME":"鹽水區","LI":"中境里","LIN":"12鄰","STREET":"三福路","SECT":" ","MAREA":" ","LANE":" ","ALLEY":" ","HOUSE_NO":"１００號","E_COORD97":174737.07999999999,"N_COORD97":2580186.73,"ADDRESS":"三福路１００號","OBJECTID":169154},"geometry":{"x":174737.08000000007,"y":2580186.7300000004}},{"attributes":{"ID":169156,"DIS_CODE":0,"TOWNNAME":"鹽水區","LI":"中境里","LIN":"12鄰","STREET":"三福路","SECT":" ","MAREA":" ","LANE":" ","ALLEY":" ","HOUSE_NO":"１１９號之１","E_COORD97":174665.79000000001,"N_COORD97":2580214.1899999999,"ADDRESS":"三福路１１９號之１","OBJECTID":169155},"geometry":{"x":174665.79000000097,"y":2580214.1899999995}},{"attributes":{"ID":169157,"DIS_CODE":0,"TOWNNAME":"鹽水區","LI":"中境里","LIN":"12鄰","STREET":"三福路","SECT":" ","MAREA":" ","LANE":" ","ALLEY":" ","HOUSE_NO":"１１９號之２","E_COORD97":174661.31,"N_COORD97":2580213.9199999999,"ADDRESS":"三福路１１９號之２","OBJECTID":169156},"geometry":{"x":174661.31000000052,"y":2580213.9200000018}},{"attributes":{"ID":169158,"DIS_CODE":0,"TOWNNAME":"安南區","LI":"海佃里","LIN":" ","STREET":"國安街","SECT":" ","MAREA":" ","LANE":"５６巷","ALLEY":"１７弄","HOUSE_NO":"６之１號","E_COORD97":166961.26000000001,"N_COORD97":2547087.9300000002,"ADDRESS":"國安街５６巷１７弄６之１號","OBJECTID":169157},"geometry":{"x":166961.25999999978,"y":2547087.9299999997}},{"attributes":{"ID":169159,"DIS_CODE":0,"TOWNNAME":"安南區","LI":"海佃里","LIN":" ","STREET":"國安街","SECT":" ","MAREA":" ","LANE":"５６巷","ALLEY":"１１１弄","HOUSE_NO":"３１號","E_COORD97":166873.75,"N_COORD97":2547295.8799999999,"ADDRESS":"國安街５６巷１１１弄３１號","OBJECTID":169158},"geometry":{"x":166873.75,"y":2547295.8800000027}},{"attributes":{"ID":169160,"DIS_CODE":0,"TOWNNAME":"安南區","LI":"海佃里","LIN":" ","STREET":"國安街","SECT":" ","MAREA":" ","LANE":"５６巷","ALLEY":"１２１弄","HOUSE_NO":"３８號","E_COORD97":166845.34,"N_COORD97":2547364.4399999999,"ADDRESS":"國安街５６巷１２１弄３８號","OBJECTID":169159},"geometry":{"x":166845.34000000078,"y":2547364.4400000013}},{"attributes":{"ID":169161,"DIS_CODE":0,"TOWNNAME":"安南區","LI":"海佃里","LIN":"25鄰","STREET":"國安街","SECT":" ","MAREA":" ","LANE":"１５６巷","ALLEY":"８４弄","HOUSE_NO":"２１號","E_COORD97":166783.70999999999,"N_COORD97":2547236.1000000001,"ADDRESS":"國安街１５６巷８４弄２１號","OBJECTID":169160},"geometry":{"x":166783.70999999996,"y":2547236.0999999996}},{"attributes":{"ID":169162,"DIS_CODE":0,"TOWNNAME":"安南區","LI":"海佃里","LIN":" ","STREET":"國安街","SECT":" ","MAREA":" ","LANE":"１５６巷","ALLEY":"１５６弄","HOUSE_NO":"６號","E_COORD97":166708.56,"N_COORD97":2547382.2400000002,"ADDRESS":"國安街１５６巷１５６弄６號","OBJECTID":169161},"geometry":{"x":166708.55999999959,"y":2547382.2400000002}},{"attributes":{"ID":169163,"DIS_CODE":0,"TOWNNAME":"安南區","LI":"海東里","LIN":" ","STREET":"海環街","SECT":" ","MAREA":" ","LANE":"３２巷","ALLEY":"５７弄","HOUSE_NO":"２號","E_COORD97":166523.98999999999,"N_COORD97":2548997.52,"ADDRESS":"海環街３２巷５７弄２號","OBJECTID":169162},"geometry":{"x":166523.99000000115,"y":2548997.5200000033}},{"attributes":{"ID":169164,"DIS_CODE":0,"TOWNNAME":"安南區","LI":"海東里","LIN":" ","STREET":"海佃路","SECT":"二段","MAREA":" ","LANE":"４８３巷","ALLEY":"９３弄","HOUSE_NO":"１５之１號","E_COORD97":166478.04999999999,"N_COORD97":2548998.73,"ADDRESS":"海佃路二段４８３巷９３弄１５之１號","OBJECTID":169163},"geometry":{"x":166478.04999999981,"y":2548998.7300000004}},{"attributes":{"ID":169165,"DIS_CODE":0,"TOWNNAME":"麻豆區","LI":"埤頭里","LIN":"12鄰","STREET":" ","SECT":" ","MAREA":"埤頭","LANE":" ","ALLEY":" ","HOUSE_NO":"１０２號","E_COORD97":170895.29000000001,"N_COORD97":2566154.2999999998,"ADDRESS":"埤頭１０２號","OBJECTID":169164},"geometry":{"x":170895.29000000097,"y":2566154.3000000007}},{"attributes":{"ID":169166,"DIS_CODE":0,"TOWNNAME":"麻豆區","LI":"埤頭里","LIN":"12鄰","STREET":" ","SECT":" ","MAREA":"埤頭","LANE":" ","ALLEY":" ","HOUSE_NO":"１０４號","E_COORD97":170923.01000000001,"N_COORD97":2566195.27,"ADDRESS":"埤頭１０４號","OBJECTID":169165},"geometry":{"x":170923.00999999978,"y":2566195.2700000033}},{"attributes":{"ID":169167,"DIS_CODE":0,"TOWNNAME":"麻豆區","LI":"埤頭里","LIN":"12鄰","STREET":" ","SECT":" ","MAREA":"埤頭","LANE":" ","ALLEY":" ","HOUSE_NO":"１０５號","E_COORD97":170898.23999999999,"N_COORD97":2566212.2999999998,"ADDRESS":"埤頭１０５號","OBJECTID":169166},"geometry":{"x":170898.24000000022,"y":2566212.3000000007}},{"attributes":{"ID":169168,"DIS_CODE":0,"TOWNNAME":"麻豆區","LI":"埤頭里","LIN":"12鄰","STREET":" ","SECT":" ","MAREA":"埤頭","LANE":" ","ALLEY":" ","HOUSE_NO":"１０６號","E_COORD97":170891.89999999999,"N_COORD97":2566225.0099999998,"ADDRESS":"埤頭１０６號","OBJECTID":169167},"geometry":{"x":170891.9000000013,"y":2566225.0100000016}},{"attributes":{"ID":169169,"DIS_CODE":0,"TOWNNAME":"麻豆區","LI":"埤頭里","LIN":"12鄰","STREET":" ","SECT":" ","MAREA":"埤頭","LANE":" ","ALLEY":" ","HOUSE_NO":"１０７號","E_COORD97":170901.98000000001,"N_COORD97":2566234.1200000001,"ADDRESS":"埤頭１０７號","OBJECTID":169168},"geometry":{"x":170901.98000000045,"y":2566234.120000001}},{"attributes":{"ID":169170,"DIS_CODE":0,"TOWNNAME":"麻豆區","LI":"埤頭里","LIN":"12鄰","STREET":" ","SECT":" ","MAREA":"埤頭","LANE":" ","ALLEY":" ","HOUSE_NO":"１０８號之１","E_COORD97":170938.48999999999,"N_COORD97":2566242.6600000001,"ADDRESS":"埤頭１０８號之１","OBJECTID":169169},"geometry":{"x":170938.49000000115,"y":2566242.6600000001}},{"attributes":{"ID":169171,"DIS_CODE":0,"TOWNNAME":"麻豆區","LI":"埤頭里","LIN":"12鄰","STREET":" ","SECT":" ","MAREA":"埤頭","LANE":" ","ALLEY":" ","HOUSE_NO":"１０８號","E_COORD97":170920.29999999999,"N_COORD97":2566232.8700000001,"ADDRESS":"埤頭１０８號","OBJECTID":169170},"geometry":{"x":170920.30000000075,"y":2566232.870000001}},{"attributes":{"ID":169172,"DIS_CODE":0,"TOWNNAME":"麻豆區","LI":"埤頭里","LIN":"12鄰","STREET":" ","SECT":" ","MAREA":"埤頭","LANE":" ","ALLEY":" ","HOUSE_NO":"１０９號","E_COORD97":170920,"N_COORD97":2566216.7400000002,"ADDRESS":"埤頭１０９號","OBJECTID":169171},"geometry":{"x":170920,"y":2566216.7400000021}},{"attributes":{"ID":169173,"DIS_CODE":0,"TOWNNAME":"麻豆區","LI":"埤頭里","LIN":"12鄰","STREET":" ","SECT":" ","MAREA":"埤頭","LANE":" ","ALLEY":" ","HOUSE_NO":"１１０號之１","E_COORD97":171002.28,"N_COORD97":2566228.3199999998,"ADDRESS":"埤頭１１０號之１","OBJECTID":169172},"geometry":{"x":171002.28000000119,"y":2566228.3200000003}},{"attributes":{"ID":169174,"DIS_CODE":0,"TOWNNAME":"麻豆區","LI":"埤頭里","LIN":"12鄰","STREET":" ","SECT":" ","MAREA":"埤頭","LANE":" ","ALLEY":" ","HOUSE_NO":"１１０號","E_COORD97":170979.20999999999,"N_COORD97":2566220.9900000002,"ADDRESS":"埤頭１１０號","OBJECTID":169173},"geometry":{"x":170979.21000000089,"y":2566220.9900000002}},{"attributes":{"ID":169175,"DIS_CODE":0,"TOWNNAME":"下營區","LI":"開化里","LIN":"13鄰","STREET":" ","SECT":" ","MAREA":"中營","LANE":" ","ALLEY":" ","HOUSE_NO":"６１１號","E_COORD97":176177.76999999999,"N_COORD97":2568320.5600000001,"ADDRESS":"中營６１１號","OBJECTID":169174},"geometry":{"x":176177.76999999955,"y":2568320.5600000024}},{"attributes":{"ID":169176,"DIS_CODE":0,"TOWNNAME":"下營區","LI":"開化里","LIN":"13鄰","STREET":" ","SECT":" ","MAREA":"中營","LANE":" ","ALLEY":" ","HOUSE_NO":"６１２號","E_COORD97":176183.5,"N_COORD97":2568322.1299999999,"ADDRESS":"中營６１２號","OBJECTID":169175},"geometry":{"x":176183.5,"y":2568322.1300000008}},{"attributes":{"ID":169177,"DIS_CODE":0,"TOWNNAME":"下營區","LI":"茅港里","LIN":"13鄰","STREET":" ","SECT":" ","MAREA":"中營","LANE":" ","ALLEY":" ","HOUSE_NO":"７３４號之５","E_COORD97":176201.41,"N_COORD97":2568469.3500000001,"ADDRESS":"中營７３４號之５","OBJECTID":169176},"geometry":{"x":176201.41000000015,"y":2568469.3499999978}},{"attributes":{"ID":169178,"DIS_CODE":0,"TOWNNAME":"下營區","LI":"茅港里","LIN":"13鄰","STREET":" ","SECT":" ","MAREA":"中營","LANE":" ","ALLEY":" ","HOUSE_NO":"７３４號","E_COORD97":176173.64000000001,"N_COORD97":2568485.4700000002,"ADDRESS":"中營７３４號","OBJECTID":169177},"geometry":{"x":176173.63999999966,"y":2568485.4700000007}},{"attributes":{"ID":169179,"DIS_CODE":0,"TOWNNAME":"下營區","LI":"茅港里","LIN":"13鄰","STREET":" ","SECT":" ","MAREA":"中營","LANE":" ","ALLEY":" ","HOUSE_NO":"７３５號","E_COORD97":176188.41,"N_COORD97":2568469.4900000002,"ADDRESS":"中營７３５號","OBJECTID":169178},"geometry":{"x":176188.41000000108,"y":2568469.4900000021}},{"attributes":{"ID":169180,"DIS_CODE":0,"TOWNNAME":"鹽水區","LI":"竹埔里","LIN":"12鄰","STREET":" ","SECT":" ","MAREA":"天保厝","LANE":" ","ALLEY":" ","HOUSE_NO":"１０號","E_COORD97":171485.37,"N_COORD97":2573823.3599999999,"ADDRESS":"天保厝１０號","OBJECTID":169179},"geometry":{"x":171485.37000000011,"y":2573823.3600000013}},{"attributes":{"ID":169181,"DIS_CODE":0,"TOWNNAME":"鹽水區","LI":"竹埔里","LIN":"12鄰","STREET":" ","SECT":" ","MAREA":"天保厝","LANE":" ","ALLEY":" ","HOUSE_NO":"１１號之１","E_COORD97":171452.95000000001,"N_COORD97":2573789.4399999999,"ADDRESS":"天保厝１１號之１","OBJECTID":169180},"geometry":{"x":171452.95000000019,"y":2573789.4400000013}},{"attributes":{"ID":169182,"DIS_CODE":0,"TOWNNAME":"鹽水區","LI":"竹埔里","LIN":"12鄰","STREET":" ","SECT":" ","MAREA":"天保厝","LANE":" ","ALLEY":" ","HOUSE_NO":"１１號之２","E_COORD97":171457.26000000001,"N_COORD97":2573826.79,"ADDRESS":"天保厝１１號之２","OBJECTID":169181},"geometry":{"x":171457.25999999978,"y":2573826.790000001}},{"attributes":{"ID":169183,"DIS_CODE":0,"TOWNNAME":"鹽水區","LI":"竹埔里","LIN":"12鄰","STREET":" ","SECT":" ","MAREA":"天保厝","LANE":" ","ALLEY":" ","HOUSE_NO":"１１號之３","E_COORD97":171431.26000000001,"N_COORD97":2573813.8199999998,"ADDRESS":"天保厝１１號之３","OBJECTID":169182},"geometry":{"x":171431.26000000071,"y":2573813.820000004}},{"attributes":{"ID":169184,"DIS_CODE":0,"TOWNNAME":"鹽水區","LI":"竹埔里","LIN":"12鄰","STREET":" ","SECT":" ","MAREA":"天保厝","LANE":" ","ALLEY":" ","HOUSE_NO":"１１號之５","E_COORD97":171453.04000000001,"N_COORD97":2573803.5899999999,"ADDRESS":"天保厝１１號之５","OBJECTID":169183},"geometry":{"x":171453.04000000097,"y":2573803.5899999999}},{"attributes":{"ID":169185,"DIS_CODE":0,"TOWNNAME":"鹽水區","LI":"竹埔里","LIN":"12鄰","STREET":" ","SECT":" ","MAREA":"天保厝","LANE":" ","ALLEY":" ","HOUSE_NO":"１１號","E_COORD97":171480,"N_COORD97":2573805.5899999999,"ADDRESS":"天保厝１１號","OBJECTID":169184},"geometry":{"x":171480.00000000186,"y":2573805.5900000017}},{"attributes":{"ID":169186,"DIS_CODE":0,"TOWNNAME":"鹽水區","LI":"竹埔里","LIN":"12鄰","STREET":" ","SECT":" ","MAREA":"天保厝","LANE":" ","ALLEY":" ","HOUSE_NO":"１２號之１","E_COORD97":171474.22,"N_COORD97":2573755.46,"ADDRESS":"天保厝１２號之１","OBJECTID":169185},"geometry":{"x":171474.21999999974,"y":2573755.459999999}},{"attributes":{"ID":169187,"DIS_CODE":0,"TOWNNAME":"鹽水區","LI":"竹埔里","LIN":"12鄰","STREET":" ","SECT":" ","MAREA":"天保厝","LANE":" ","ALLEY":" ","HOUSE_NO":"１２號","E_COORD97":171471.98000000001,"N_COORD97":2573785.3799999999,"ADDRESS":"天保厝１２號","OBJECTID":169186},"geometry":{"x":171471.97999999952,"y":2573785.3800000008}},{"attributes":{"ID":169188,"DIS_CODE":0,"TOWNNAME":"鹽水區","LI":"竹埔里","LIN":"12鄰","STREET":" ","SECT":" ","MAREA":"天保厝","LANE":" ","ALLEY":" ","HOUSE_NO":"１３號之１","E_COORD97":171425.39000000001,"N_COORD97":2573857.7200000002,"ADDRESS":"天保厝１３號之１","OBJECTID":169187},"geometry":{"x":171425.38999999966,"y":2573857.7200000007}},{"attributes":{"ID":169189,"DIS_CODE":0,"TOWNNAME":"鹽水區","LI":"竹埔里","LIN":"12鄰","STREET":" ","SECT":" ","MAREA":"天保厝","LANE":" ","ALLEY":" ","HOUSE_NO":"１３號之２","E_COORD97":171426.53,"N_COORD97":2573862.0099999998,"ADDRESS":"天保厝１３號之２","OBJECTID":169188},"geometry":{"x":171426.53000000119,"y":2573862.0099999998}},{"attributes":{"ID":169190,"DIS_CODE":0,"TOWNNAME":"鹽水區","LI":"竹埔里","LIN":"12鄰","STREET":" ","SECT":" ","MAREA":"天保厝","LANE":" ","ALLEY":" ","HOUSE_NO":"１３號之３","E_COORD97":171429.25,"N_COORD97":2573867.4100000001,"ADDRESS":"天保厝１３號之３","OBJECTID":169189},"geometry":{"x":171429.25000000093,"y":2573867.410000002}},{"attributes":{"ID":169191,"DIS_CODE":0,"TOWNNAME":"鹽水區","LI":"竹埔里","LIN":"12鄰","STREET":" ","SECT":" ","MAREA":"天保厝","LANE":" ","ALLEY":" ","HOUSE_NO":"１３號","E_COORD97":171426.06,"N_COORD97":2573851.3199999998,"ADDRESS":"天保厝１３號","OBJECTID":169190},"geometry":{"x":171426.05999999959,"y":2573851.3200000022}},{"attributes":{"ID":169192,"DIS_CODE":0,"TOWNNAME":"鹽水區","LI":"竹埔里","LIN":"12鄰","STREET":" ","SECT":" ","MAREA":"天保厝","LANE":" ","ALLEY":" ","HOUSE_NO":"１４號之１","E_COORD97":171412.76999999999,"N_COORD97":2573880.1800000002,"ADDRESS":"天保厝１４號之１","OBJECTID":169191},"geometry":{"x":171412.76999999955,"y":2573880.1799999997}},{"attributes":{"ID":169193,"DIS_CODE":0,"TOWNNAME":"鹽水區","LI":"竹埔里","LIN":"12鄰","STREET":" ","SECT":" ","MAREA":"天保厝","LANE":" ","ALLEY":" ","HOUSE_NO":"１４號","E_COORD97":171419.03,"N_COORD97":2573897.3300000001,"ADDRESS":"天保厝１４號","OBJECTID":169192},"geometry":{"x":171419.03000000212,"y":2573897.3300000001}},{"attributes":{"ID":169194,"DIS_CODE":0,"TOWNNAME":"下營區","LI":"茅港里","LIN":"13鄰","STREET":" ","SECT":" ","MAREA":"中營","LANE":" ","ALLEY":" ","HOUSE_NO":"７３６號","E_COORD97":176174.98999999999,"N_COORD97":2568467.1600000001,"ADDRESS":"中營７３６號","OBJECTID":169193},"geometry":{"x":176174.99000000115,"y":2568467.1600000001}},{"attributes":{"ID":169195,"DIS_CODE":0,"TOWNNAME":"下營區","LI":"茅港里","LIN":"13鄰","STREET":" ","SECT":" ","MAREA":"中營","LANE":" ","ALLEY":" ","HOUSE_NO":"７３７號","E_COORD97":176198.44,"N_COORD97":2568455.2799999998,"ADDRESS":"中營７３７號","OBJECTID":169194},"geometry":{"x":176198.44000000227,"y":2568455.2799999993}},{"attributes":{"ID":169196,"DIS_CODE":0,"TOWNNAME":"下營區","LI":"茅港里","LIN":"13鄰","STREET":" ","SECT":" ","MAREA":"中營","LANE":" ","ALLEY":" ","HOUSE_NO":"７４０號","E_COORD97":176183.20999999999,"N_COORD97":2568453.7599999998,"ADDRESS":"中營７４０號","OBJECTID":169195},"geometry":{"x":176183.21000000089,"y":2568453.7600000016}},{"attributes":{"ID":169197,"DIS_CODE":0,"TOWNNAME":"下營區","LI":"茅港里","LIN":"13鄰","STREET":" ","SECT":" ","MAREA":"中營","LANE":" ","ALLEY":" ","HOUSE_NO":"７４１號","E_COORD97":176178.60000000001,"N_COORD97":2568452.4700000002,"ADDRESS":"中營７４１號","OBJECTID":169196},"geometry":{"x":176178.60000000056,"y":2568452.4700000007}},{"attributes":{"ID":169198,"DIS_CODE":0,"TOWNNAME":"下營區","LI":"茅港里","LIN":"13鄰","STREET":" ","SECT":" ","MAREA":"中營","LANE":" ","ALLEY":" ","HOUSE_NO":"７４２號","E_COORD97":176174.20000000001,"N_COORD97":2568451.4399999999,"ADDRESS":"中營７４２號","OBJECTID":169197},"geometry":{"x":176174.20000000019,"y":2568451.4399999995}},{"attributes":{"ID":169199,"DIS_CODE":0,"TOWNNAME":"下營區","LI":"茅港里","LIN":"13鄰","STREET":" ","SECT":" ","MAREA":"中營","LANE":" ","ALLEY":" ","HOUSE_NO":"７４５號","E_COORD97":176211.23999999999,"N_COORD97":2568448.1299999999,"ADDRESS":"中營７４５號","OBJECTID":169198},"geometry":{"x":176211.24000000022,"y":2568448.1300000008}},{"attributes":{"ID":169200,"DIS_CODE":0,"TOWNNAME":"下營區","LI":"茅港里","LIN":"13鄰","STREET":" ","SECT":" ","MAREA":"中營","LANE":" ","ALLEY":" ","HOUSE_NO":"７４６號","E_COORD97":176209.79000000001,"N_COORD97":2568453.5800000001,"ADDRESS":"中營７４６號","OBJECTID":169199},"geometry":{"x":176209.79000000097,"y":2568453.5800000001}},{"attributes":{"ID":169201,"DIS_CODE":0,"TOWNNAME":"下營區","LI":"茅港里","LIN":"13鄰","STREET":" ","SECT":" ","MAREA":"中營","LANE":" ","ALLEY":" ","HOUSE_NO":"７４７號","E_COORD97":176212.09,"N_COORD97":2568442.3300000001,"ADDRESS":"中營７４７號","OBJECTID":169200},"geometry":{"x":176212.09000000171,"y":2568442.3300000001}}]}