{"displayFieldName":"TOWNNAME","fieldAliases":{"ID":"ID","DIS_CODE":"DIS_CODE","TOWNNAME":"TOWNNAME","LI":"LI","LIN":"LIN","STREET":"STREET","SECT":"SECT","MAREA":"MAREA","LANE":"LANE","ALLEY":"ALLEY","HOUSE_NO":"HOUSE_NO","E_COORD97":"E_COORD97","N_COORD97":"N_COORD97","ADDRESS":"ADDRESS","OBJECTID":"OBJECTID"},"geometryType":"esriGeometryPoint","spatialReference":{"wkid":102443,"latestWkid":3826},"fields":[{"name":"ID","type":"esriFieldTypeDouble","alias":"ID"},{"name":"DIS_CODE","type":"esriFieldTypeInteger","alias":"DIS_CODE"},{"name":"TOWNNAME","type":"esriFieldTypeString","alias":"TOWNNAME","length":8},{"name":"LI","type":"esriFieldTypeString","alias":"LI","length":8},{"name":"LIN","type":"esriFieldTypeString","alias":"LIN","length":12},{"name":"STREET","type":"esriFieldTypeString","alias":"STREET","length":20},{"name":"SECT","type":"esriFieldTypeString","alias":"SECT","length":8},{"name":"MAREA","type":"esriFieldTypeString","alias":"MAREA","length":12},{"name":"LANE","type":"esriFieldTypeString","alias":"LANE","length":10},{"name":"ALLEY","type":"esriFieldTypeString","alias":"ALLEY","length":10},{"name":"HOUSE_NO","type":"esriFieldTypeString","alias":"HOUSE_NO","length":20},{"name":"E_COORD97","type":"esriFieldTypeDouble","alias":"E_COORD97"},{"name":"N_COORD97","type":"esriFieldTypeDouble","alias":"N_COORD97"},{"name":"ADDRESS","type":"esriFieldTypeString","alias":"ADDRESS","length":50},{"name":"OBJECTID","type":"esriFieldTypeOID","alias":"OBJECTID"}],"features":[{"attributes":{"ID":527628,"DIS_CODE":0,"TOWNNAME":"南區","LI":"文南里","LIN":"6鄰","STREET":"金華路","SECT":"二段","MAREA":" ","LANE":" ","ALLEY":" ","HOUSE_NO":"２２１號","E_COORD97":167098.26999999999,"N_COORD97":2542592.9199999999,"ADDRESS":"金華路二段２２１號","OBJECTID":527601},"geometry":{"x":167098.26999999955,"y":2542592.9199999999}},{"attributes":{"ID":527629,"DIS_CODE":0,"TOWNNAME":"南區","LI":"文南里","LIN":"6鄰","STREET":"健康路","SECT":"二段","MAREA":" ","LANE":" ","ALLEY":" ","HOUSE_NO":"２３０號","E_COORD97":167073.42999999999,"N_COORD97":2542487.8300000001,"ADDRESS":"健康路二段２３０號","OBJECTID":527602},"geometry":{"x":167073.43000000063,"y":2542487.8300000019}},{"attributes":{"ID":527630,"DIS_CODE":0,"TOWNNAME":"麻豆區","LI":"\u25A0江里","LIN":"6鄰","STREET":"民權路","SECT":" ","MAREA":" ","LANE":" ","ALLEY":" ","HOUSE_NO":"２６號","E_COORD97":173335.20000000001,"N_COORD97":2564488.3700000001,"ADDRESS":"民權路２６號","OBJECTID":527603},"geometry":{"x":173335.20000000112,"y":2564488.3700000029}},{"attributes":{"ID":527631,"DIS_CODE":0,"TOWNNAME":"麻豆區","LI":"\u25A0江里","LIN":"6鄰","STREET":"民權路","SECT":" ","MAREA":" ","LANE":" ","ALLEY":" ","HOUSE_NO":"２８號","E_COORD97":173364.79000000001,"N_COORD97":2564472.2799999998,"ADDRESS":"民權路２８號","OBJECTID":527604},"geometry":{"x":173364.7900000019,"y":2564472.2800000031}},{"attributes":{"ID":527632,"DIS_CODE":0,"TOWNNAME":"北區","LI":"公園里","LIN":"6鄰","STREET":"成功路","SECT":" ","MAREA":" ","LANE":" ","ALLEY":" ","HOUSE_NO":"２號之２２","E_COORD97":169120.63,"N_COORD97":2544255.9399999999,"ADDRESS":"成功路２號之２２","OBJECTID":527605},"geometry":{"x":169120.62999999989,"y":2544255.9400000013}},{"attributes":{"ID":527633,"DIS_CODE":0,"TOWNNAME":"北區","LI":"公園里","LIN":"6鄰","STREET":"成功路","SECT":" ","MAREA":" ","LANE":" ","ALLEY":" ","HOUSE_NO":"２號之２３","E_COORD97":169118.79999999999,"N_COORD97":2544253.3500000001,"ADDRESS":"成功路２號之２３","OBJECTID":527606},"geometry":{"x":169118.80000000075,"y":2544253.3500000015}},{"attributes":{"ID":527634,"DIS_CODE":0,"TOWNNAME":"北區","LI":"公園里","LIN":"6鄰","STREET":"成功路","SECT":" ","MAREA":" ","LANE":" ","ALLEY":" ","HOUSE_NO":"２號之２５","E_COORD97":169116.20000000001,"N_COORD97":2544248.9199999999,"ADDRESS":"成功路２號之２５","OBJECTID":527607},"geometry":{"x":169116.20000000112,"y":2544248.9200000018}},{"attributes":{"ID":527635,"DIS_CODE":0,"TOWNNAME":"北區","LI":"公園里","LIN":"6鄰","STREET":"成功路","SECT":" ","MAREA":" ","LANE":" ","ALLEY":" ","HOUSE_NO":"２號之２６","E_COORD97":169114.98000000001,"N_COORD97":2544246.3199999998,"ADDRESS":"成功路２號之２６","OBJECTID":527608},"geometry":{"x":169114.98000000045,"y":2544246.320000004}},{"attributes":{"ID":527636,"DIS_CODE":0,"TOWNNAME":"北區","LI":"公園里","LIN":"6鄰","STREET":"成功路","SECT":" ","MAREA":" ","LANE":" ","ALLEY":" ","HOUSE_NO":"２號之２７","E_COORD97":169113.29000000001,"N_COORD97":2544243.5800000001,"ADDRESS":"成功路２號之２７","OBJECTID":527609},"geometry":{"x":169113.2900000019,"y":2544243.5800000001}},{"attributes":{"ID":527637,"DIS_CODE":0,"TOWNNAME":"北區","LI":"公園里","LIN":"6鄰","STREET":"成功路","SECT":" ","MAREA":" ","LANE":" ","ALLEY":" ","HOUSE_NO":"２號之２８","E_COORD97":169112.38,"N_COORD97":2544240.98,"ADDRESS":"成功路２號之２８","OBJECTID":527610},"geometry":{"x":169112.37999999896,"y":2544240.9800000004}},{"attributes":{"ID":527638,"DIS_CODE":0,"TOWNNAME":"北區","LI":"公園里","LIN":"6鄰","STREET":"成功路","SECT":" ","MAREA":" ","LANE":" ","ALLEY":" ","HOUSE_NO":"２號之２９","E_COORD97":169112.07000000001,"N_COORD97":2544238.54,"ADDRESS":"成功路２號之２９","OBJECTID":527611},"geometry":{"x":169112.07000000123,"y":2544238.5399999991}},{"attributes":{"ID":527639,"DIS_CODE":0,"TOWNNAME":"北區","LI":"公園里","LIN":"6鄰","STREET":"成功路","SECT":" ","MAREA":" ","LANE":" ","ALLEY":" ","HOUSE_NO":"２號之３","E_COORD97":169131.95000000001,"N_COORD97":2544235.9399999999,"ADDRESS":"成功路２號之３","OBJECTID":527612},"geometry":{"x":169131.95000000019,"y":2544235.9400000013}},{"attributes":{"ID":527640,"DIS_CODE":0,"TOWNNAME":"北區","LI":"公園里","LIN":"6鄰","STREET":"成功路","SECT":" ","MAREA":" ","LANE":" ","ALLEY":" ","HOUSE_NO":"２號之３０","E_COORD97":169111.70999999999,"N_COORD97":2544234.1299999999,"ADDRESS":"成功路２號之３０","OBJECTID":527613},"geometry":{"x":169111.70999999996,"y":2544234.1300000008}},{"attributes":{"ID":527641,"DIS_CODE":0,"TOWNNAME":"北區","LI":"公園里","LIN":"6鄰","STREET":"成功路","SECT":" ","MAREA":" ","LANE":" ","ALLEY":" ","HOUSE_NO":"２號之３２","E_COORD97":169111.31,"N_COORD97":2544231.9700000002,"ADDRESS":"成功路２號之３２","OBJECTID":527614},"geometry":{"x":169111.31000000052,"y":2544231.9700000044}},{"attributes":{"ID":527642,"DIS_CODE":0,"TOWNNAME":"北區","LI":"公園里","LIN":"6鄰","STREET":"成功路","SECT":" ","MAREA":" ","LANE":" ","ALLEY":" ","HOUSE_NO":"２號之３３","E_COORD97":169111,"N_COORD97":2544229.0699999998,"ADDRESS":"成功路２號之３３","OBJECTID":527615},"geometry":{"x":169111,"y":2544229.0700000022}},{"attributes":{"ID":527643,"DIS_CODE":0,"TOWNNAME":"北區","LI":"公園里","LIN":"6鄰","STREET":"成功路","SECT":" ","MAREA":" ","LANE":" ","ALLEY":" ","HOUSE_NO":"２號之３４","E_COORD97":169111.14999999999,"N_COORD97":2544224.7999999998,"ADDRESS":"成功路２號之３４","OBJECTID":527616},"geometry":{"x":169111.15000000224,"y":2544224.8000000007}},{"attributes":{"ID":527644,"DIS_CODE":0,"TOWNNAME":"北區","LI":"公園里","LIN":"6鄰","STREET":"成功路","SECT":" ","MAREA":" ","LANE":" ","ALLEY":" ","HOUSE_NO":"２號之３５","E_COORD97":169108.10000000001,"N_COORD97":2544225.4100000001,"ADDRESS":"成功路２號之３５","OBJECTID":527617},"geometry":{"x":169108.10000000056,"y":2544225.410000002}},{"attributes":{"ID":527645,"DIS_CODE":0,"TOWNNAME":"北區","LI":"公園里","LIN":"6鄰","STREET":"成功路","SECT":" ","MAREA":" ","LANE":" ","ALLEY":" ","HOUSE_NO":"２號之４","E_COORD97":169130.10999999999,"N_COORD97":2544233.5,"ADDRESS":"成功路２號之４","OBJECTID":527618},"geometry":{"x":169130.1100000022,"y":2544233.5}},{"attributes":{"ID":527646,"DIS_CODE":0,"TOWNNAME":"北區","LI":"公園里","LIN":"6鄰","STREET":"成功路","SECT":" ","MAREA":" ","LANE":" ","ALLEY":" ","HOUSE_NO":"２號之５","E_COORD97":169127.97,"N_COORD97":2544230.6000000001,"ADDRESS":"成功路２號之５","OBJECTID":527619},"geometry":{"x":169127.96999999974,"y":2544230.6000000015}},{"attributes":{"ID":527647,"DIS_CODE":0,"TOWNNAME":"北區","LI":"公園里","LIN":"6鄰","STREET":"成功路","SECT":" ","MAREA":" ","LANE":" ","ALLEY":" ","HOUSE_NO":"２號之６","E_COORD97":169126.44,"N_COORD97":2544227.7000000002,"ADDRESS":"成功路２號之６","OBJECTID":527620},"geometry":{"x":169126.44000000134,"y":2544227.6999999993}},{"attributes":{"ID":527648,"DIS_CODE":0,"TOWNNAME":"北區","LI":"公園里","LIN":"6鄰","STREET":"成功路","SECT":" ","MAREA":" ","LANE":" ","ALLEY":" ","HOUSE_NO":"２號之７","E_COORD97":169125.07000000001,"N_COORD97":2544224.7999999998,"ADDRESS":"成功路２號之７","OBJECTID":527621},"geometry":{"x":169125.06999999937,"y":2544224.8000000007}},{"attributes":{"ID":527649,"DIS_CODE":0,"TOWNNAME":"北區","LI":"公園里","LIN":"6鄰","STREET":"成功路","SECT":" ","MAREA":" ","LANE":" ","ALLEY":" ","HOUSE_NO":"２號之８","E_COORD97":169119.72,"N_COORD97":2544227.0899999999,"ADDRESS":"成功路２號之８","OBJECTID":527622},"geometry":{"x":169119.71999999974,"y":2544227.0900000036}},{"attributes":{"ID":527650,"DIS_CODE":0,"TOWNNAME":"北區","LI":"公園里","LIN":"6鄰","STREET":"成功路","SECT":" ","MAREA":" ","LANE":" ","ALLEY":" ","HOUSE_NO":"２號之９","E_COORD97":169120.32999999999,"N_COORD97":2544229.5299999998,"ADDRESS":"成功路２號之９","OBJECTID":527623},"geometry":{"x":169120.33000000101,"y":2544229.5299999993}},{"attributes":{"ID":527651,"DIS_CODE":0,"TOWNNAME":"六甲區","LI":"二甲里","LIN":"6鄰","STREET":"民權街","SECT":" ","MAREA":" ","LANE":" ","ALLEY":" ","HOUSE_NO":"２３１號","E_COORD97":183014.22,"N_COORD97":2569715.4199999999,"ADDRESS":"民權街２３１號","OBJECTID":527624},"geometry":{"x":183014.22000000067,"y":2569715.4199999999}},{"attributes":{"ID":527652,"DIS_CODE":0,"TOWNNAME":"六甲區","LI":"二甲里","LIN":"6鄰","STREET":"民權街","SECT":" ","MAREA":" ","LANE":" ","ALLEY":" ","HOUSE_NO":"２４１號","E_COORD97":183001.14999999999,"N_COORD97":2569744.7200000002,"ADDRESS":"民權街２４１號","OBJECTID":527625},"geometry":{"x":183001.15000000037,"y":2569744.7200000007}},{"attributes":{"ID":527653,"DIS_CODE":0,"TOWNNAME":"六甲區","LI":"二甲里","LIN":"6鄰","STREET":"民權街","SECT":" ","MAREA":" ","LANE":" ","ALLEY":" ","HOUSE_NO":"２６５號","E_COORD97":182969.03,"N_COORD97":2569754.8500000001,"ADDRESS":"民權街２６５號","OBJECTID":527626},"geometry":{"x":182969.03000000119,"y":2569754.8500000015}},{"attributes":{"ID":527654,"DIS_CODE":0,"TOWNNAME":"六甲區","LI":"二甲里","LIN":"6鄰","STREET":"民權街","SECT":" ","MAREA":" ","LANE":" ","ALLEY":" ","HOUSE_NO":"２６７號","E_COORD97":182965.06,"N_COORD97":2569755.9900000002,"ADDRESS":"民權街２６７號","OBJECTID":527627},"geometry":{"x":182965.05999999959,"y":2569755.9900000002}},{"attributes":{"ID":527655,"DIS_CODE":0,"TOWNNAME":"六甲區","LI":"甲南里","LIN":"6鄰","STREET":"忠孝街","SECT":" ","MAREA":" ","LANE":" ","ALLEY":" ","HOUSE_NO":"４７號","E_COORD97":183818.48000000001,"N_COORD97":2569506.3199999998,"ADDRESS":"忠孝街４７號","OBJECTID":527628},"geometry":{"x":183818.48000000138,"y":2569506.3200000003}},{"attributes":{"ID":527656,"DIS_CODE":0,"TOWNNAME":"六甲區","LI":"甲南里","LIN":"6鄰","STREET":"忠孝街","SECT":" ","MAREA":" ","LANE":" ","ALLEY":" ","HOUSE_NO":"１７號","E_COORD97":183775.73999999999,"N_COORD97":2569434.6299999999,"ADDRESS":"忠孝街１７號","OBJECTID":527629},"geometry":{"x":183775.74000000115,"y":2569434.6300000008}},{"attributes":{"ID":527657,"DIS_CODE":0,"TOWNNAME":"六甲區","LI":"甲東里","LIN":"6鄰","STREET":"忠孝街","SECT":" ","MAREA":" ","LANE":" ","ALLEY":" ","HOUSE_NO":"２３５號","E_COORD97":184045.64999999999,"N_COORD97":2570152.6600000001,"ADDRESS":"忠孝街２３５號","OBJECTID":527630},"geometry":{"x":184045.64999999944,"y":2570152.6600000001}},{"attributes":{"ID":527658,"DIS_CODE":0,"TOWNNAME":"六甲區","LI":"甲東里","LIN":"6鄰","STREET":"忠孝街","SECT":" ","MAREA":" ","LANE":" ","ALLEY":" ","HOUSE_NO":"２３７號","E_COORD97":184053.19,"N_COORD97":2570163.4900000002,"ADDRESS":"忠孝街２３７號","OBJECTID":527631},"geometry":{"x":184053.19000000041,"y":2570163.4900000002}},{"attributes":{"ID":527659,"DIS_CODE":0,"TOWNNAME":"六甲區","LI":"甲東里","LIN":"6鄰","STREET":"忠孝街","SECT":" ","MAREA":" ","LANE":" ","ALLEY":" ","HOUSE_NO":"２３９號","E_COORD97":184052.35999999999,"N_COORD97":2570173.4500000002,"ADDRESS":"忠孝街２３９號","OBJECTID":527632},"geometry":{"x":184052.36000000034,"y":2570173.4499999993}},{"attributes":{"ID":527660,"DIS_CODE":0,"TOWNNAME":"六甲區","LI":"六甲里","LIN":"6鄰","STREET":"建國街","SECT":" ","MAREA":" ","LANE":" ","ALLEY":" ","HOUSE_NO":"２７之１３號","E_COORD97":183679.12,"N_COORD97":2569907.6299999999,"ADDRESS":"建國街２７之１３號","OBJECTID":527633},"geometry":{"x":183679.12000000011,"y":2569907.6299999971}},{"attributes":{"ID":527661,"DIS_CODE":0,"TOWNNAME":"六甲區","LI":"六甲里","LIN":"6鄰","STREET":"建國街","SECT":" ","MAREA":" ","LANE":" ","ALLEY":" ","HOUSE_NO":"２７之１５號","E_COORD97":183678.23000000001,"N_COORD97":2569902.48,"ADDRESS":"建國街２７之１５號","OBJECTID":527634},"geometry":{"x":183678.23000000138,"y":2569902.4800000004}},{"attributes":{"ID":527662,"DIS_CODE":0,"TOWNNAME":"六甲區","LI":"龍湖里","LIN":"6鄰","STREET":"進化街","SECT":" ","MAREA":" ","LANE":" ","ALLEY":" ","HOUSE_NO":"１３號","E_COORD97":182988.89000000001,"N_COORD97":2569280.6499999999,"ADDRESS":"進化街１３號","OBJECTID":527635},"geometry":{"x":182988.88999999873,"y":2569280.6500000004}},{"attributes":{"ID":527663,"DIS_CODE":0,"TOWNNAME":"六甲區","LI":"龍湖里","LIN":"6鄰","STREET":"進化街","SECT":" ","MAREA":" ","LANE":" ","ALLEY":" ","HOUSE_NO":"１４號","E_COORD97":183019.98999999999,"N_COORD97":2569284.8500000001,"ADDRESS":"進化街１４號","OBJECTID":527636},"geometry":{"x":183019.99000000115,"y":2569284.8500000015}},{"attributes":{"ID":527664,"DIS_CODE":0,"TOWNNAME":"六甲區","LI":"龍湖里","LIN":"6鄰","STREET":"進化街","SECT":" ","MAREA":" ","LANE":" ","ALLEY":" ","HOUSE_NO":"１５號","E_COORD97":182997.73999999999,"N_COORD97":2569297.1800000002,"ADDRESS":"進化街１５號","OBJECTID":527637},"geometry":{"x":182997.74000000115,"y":2569297.1799999997}},{"attributes":{"ID":527665,"DIS_CODE":0,"TOWNNAME":"新營區","LI":"王公里","LIN":"6鄰","STREET":"民治路","SECT":" ","MAREA":" ","LANE":" ","ALLEY":" ","HOUSE_NO":"６之５０號","E_COORD97":180557.42999999999,"N_COORD97":2578938.9399999999,"ADDRESS":"民治路６之５０號","OBJECTID":527638},"geometry":{"x":180557.4299999997,"y":2578938.9400000013}},{"attributes":{"ID":527666,"DIS_CODE":0,"TOWNNAME":"新營區","LI":"中營里","LIN":"6鄰","STREET":"新進路","SECT":" ","MAREA":" ","LANE":" ","ALLEY":" ","HOUSE_NO":"６９之３號","E_COORD97":180548.76999999999,"N_COORD97":2578182.5800000001,"ADDRESS":"新進路６９之３號","OBJECTID":527639},"geometry":{"x":180548.77000000048,"y":2578182.5800000019}},{"attributes":{"ID":527667,"DIS_CODE":0,"TOWNNAME":"麻豆區","LI":"興農里","LIN":"6鄰","STREET":"成功街","SECT":" ","MAREA":" ","LANE":" ","ALLEY":" ","HOUSE_NO":"１７號","E_COORD97":172441.04000000001,"N_COORD97":2564492.4300000002,"ADDRESS":"成功街１７號","OBJECTID":527640},"geometry":{"x":172441.04000000097,"y":2564492.4300000016}},{"attributes":{"ID":527668,"DIS_CODE":0,"TOWNNAME":"麻豆區","LI":"興農里","LIN":"6鄰","STREET":"成功街","SECT":" ","MAREA":" ","LANE":" ","ALLEY":" ","HOUSE_NO":"１號","E_COORD97":172359.29000000001,"N_COORD97":2564468.0099999998,"ADDRESS":"成功街１號","OBJECTID":527641},"geometry":{"x":172359.29000000004,"y":2564468.0100000035}},{"attributes":{"ID":527669,"DIS_CODE":0,"TOWNNAME":"麻豆區","LI":"興農里","LIN":"6鄰","STREET":"成功街","SECT":" ","MAREA":" ","LANE":" ","ALLEY":" ","HOUSE_NO":"２１號","E_COORD97":172460.19,"N_COORD97":2564429.27,"ADDRESS":"成功街２１號","OBJECTID":527642},"geometry":{"x":172460.19000000041,"y":2564429.2700000014}},{"attributes":{"ID":527670,"DIS_CODE":0,"TOWNNAME":"麻豆區","LI":"興農里","LIN":"6鄰","STREET":"成功街","SECT":" ","MAREA":" ","LANE":" ","ALLEY":" ","HOUSE_NO":"２３號之１","E_COORD97":172469.5,"N_COORD97":2564450.0299999998,"ADDRESS":"成功街２３號之１","OBJECTID":527643},"geometry":{"x":172469.5,"y":2564450.0299999993}},{"attributes":{"ID":527671,"DIS_CODE":0,"TOWNNAME":"麻豆區","LI":"興農里","LIN":"6鄰","STREET":"成功街","SECT":" ","MAREA":" ","LANE":" ","ALLEY":" ","HOUSE_NO":"２３號","E_COORD97":172453.70999999999,"N_COORD97":2564453.4900000002,"ADDRESS":"成功街２３號","OBJECTID":527644},"geometry":{"x":172453.71000000089,"y":2564453.4900000002}},{"attributes":{"ID":527672,"DIS_CODE":0,"TOWNNAME":"麻豆區","LI":"興農里","LIN":"6鄰","STREET":"成功街","SECT":" ","MAREA":" ","LANE":" ","ALLEY":" ","HOUSE_NO":"２５號","E_COORD97":172465.64999999999,"N_COORD97":2564460.4100000001,"ADDRESS":"成功街２５號","OBJECTID":527645},"geometry":{"x":172465.65000000037,"y":2564460.410000002}},{"attributes":{"ID":527673,"DIS_CODE":0,"TOWNNAME":"麻豆區","LI":"興農里","LIN":"6鄰","STREET":"成功街","SECT":" ","MAREA":" ","LANE":" ","ALLEY":" ","HOUSE_NO":"２９號","E_COORD97":172456.85999999999,"N_COORD97":2564488.0600000001,"ADDRESS":"成功街２９號","OBJECTID":527646},"geometry":{"x":172456.86000000034,"y":2564488.0600000005}},{"attributes":{"ID":527674,"DIS_CODE":0,"TOWNNAME":"麻豆區","LI":"興農里","LIN":"6鄰","STREET":"成功街","SECT":" ","MAREA":" ","LANE":" ","ALLEY":" ","HOUSE_NO":"５號","E_COORD97":172402.14000000001,"N_COORD97":2564481.2799999998,"ADDRESS":"成功街５號","OBJECTID":527647},"geometry":{"x":172402.13999999966,"y":2564481.2799999993}},{"attributes":{"ID":527675,"DIS_CODE":0,"TOWNNAME":"麻豆區","LI":"興農里","LIN":"6鄰","STREET":"成功街","SECT":" ","MAREA":" ","LANE":" ","ALLEY":" ","HOUSE_NO":"７號","E_COORD97":172404.37,"N_COORD97":2564455.6600000001,"ADDRESS":"成功街７號","OBJECTID":527648},"geometry":{"x":172404.37000000011,"y":2564455.6600000001}},{"attributes":{"ID":527676,"DIS_CODE":0,"TOWNNAME":"新營區","LI":"王公里","LIN":"6鄰","STREET":"民治路","SECT":" ","MAREA":" ","LANE":" ","ALLEY":" ","HOUSE_NO":"８之２３號","E_COORD97":180473.73999999999,"N_COORD97":2578965.9100000001,"ADDRESS":"民治路８之２３號","OBJECTID":527649},"geometry":{"x":180473.74000000115,"y":2578965.9100000001}},{"attributes":{"ID":527677,"DIS_CODE":0,"TOWNNAME":"新營區","LI":"王公里","LIN":"6鄰","STREET":"民治路","SECT":" ","MAREA":" ","LANE":" ","ALLEY":" ","HOUSE_NO":"６之４１號","E_COORD97":180578.76000000001,"N_COORD97":2578906.7200000002,"ADDRESS":"民治路６之４１號","OBJECTID":527650},"geometry":{"x":180578.75999999978,"y":2578906.7200000007}},{"attributes":{"ID":527678,"DIS_CODE":0,"TOWNNAME":"新營區","LI":"延平里","LIN":"6鄰","STREET":"復興路","SECT":" ","MAREA":" ","LANE":" ","ALLEY":" ","HOUSE_NO":"１之５８號","E_COORD97":179713.92999999999,"N_COORD97":2577935.1299999999,"ADDRESS":"復興路１之５８號","OBJECTID":527651},"geometry":{"x":179713.93000000063,"y":2577935.129999999}},{"attributes":{"ID":527679,"DIS_CODE":0,"TOWNNAME":"新營區","LI":"民生里","LIN":"6鄰","STREET":"三民路","SECT":" ","MAREA":" ","LANE":" ","ALLEY":" ","HOUSE_NO":"１２７號","E_COORD97":179353.45999999999,"N_COORD97":2578325.5099999998,"ADDRESS":"三民路１２７號","OBJECTID":527652},"geometry":{"x":179353.46000000089,"y":2578325.5100000016}},{"attributes":{"ID":527680,"DIS_CODE":0,"TOWNNAME":"新營區","LI":"民權里","LIN":"6鄰","STREET":"中山路","SECT":" ","MAREA":" ","LANE":" ","ALLEY":" ","HOUSE_NO":"２７０號","E_COORD97":179857.22,"N_COORD97":2577986.4399999999,"ADDRESS":"中山路２７０號","OBJECTID":527653},"geometry":{"x":179857.21999999974,"y":2577986.4400000013}},{"attributes":{"ID":527681,"DIS_CODE":0,"TOWNNAME":"新營區","LI":"王公里","LIN":"6鄰","STREET":"民治路","SECT":" ","MAREA":" ","LANE":" ","ALLEY":" ","HOUSE_NO":"８之１０號","E_COORD97":180481.73000000001,"N_COORD97":2578923.7799999998,"ADDRESS":"民治路８之１０號","OBJECTID":527654},"geometry":{"x":180481.73000000045,"y":2578923.7800000012}},{"attributes":{"ID":527682,"DIS_CODE":0,"TOWNNAME":"新營區","LI":"興安里","LIN":"6鄰","STREET":"工業街","SECT":" ","MAREA":" ","LANE":" ","ALLEY":" ","HOUSE_NO":"５３號","E_COORD97":180657.44,"N_COORD97":2577891.8599999999,"ADDRESS":"工業街５３號","OBJECTID":527655},"geometry":{"x":180657.44000000134,"y":2577891.8600000013}},{"attributes":{"ID":527683,"DIS_CODE":0,"TOWNNAME":"新營區","LI":"王公里","LIN":"6鄰","STREET":"民治路","SECT":" ","MAREA":" ","LANE":" ","ALLEY":" ","HOUSE_NO":"６之１７號","E_COORD97":180553.38,"N_COORD97":2578947.8199999998,"ADDRESS":"民治路６之１７號","OBJECTID":527656},"geometry":{"x":180553.38000000175,"y":2578947.8200000022}},{"attributes":{"ID":527684,"DIS_CODE":0,"TOWNNAME":"新營區","LI":"中營里","LIN":"6鄰","STREET":"新進路","SECT":" ","MAREA":" ","LANE":" ","ALLEY":" ","HOUSE_NO":"６９號","E_COORD97":180555.53,"N_COORD97":2578193.5600000001,"ADDRESS":"新進路６９號","OBJECTID":527657},"geometry":{"x":180555.53000000026,"y":2578193.5600000024}},{"attributes":{"ID":527685,"DIS_CODE":0,"TOWNNAME":"新營區","LI":"王公里","LIN":"6鄰","STREET":"民治路","SECT":" ","MAREA":" ","LANE":" ","ALLEY":" ","HOUSE_NO":"６之２３號","E_COORD97":180571.97,"N_COORD97":2578985.3799999999,"ADDRESS":"民治路６之２３號","OBJECTID":527658},"geometry":{"x":180571.97000000067,"y":2578985.3799999971}},{"attributes":{"ID":527686,"DIS_CODE":0,"TOWNNAME":"新營區","LI":"延平里","LIN":"6鄰","STREET":"復興路","SECT":" ","MAREA":" ","LANE":" ","ALLEY":" ","HOUSE_NO":"１之７４號","E_COORD97":179713.92999999999,"N_COORD97":2577935.1299999999,"ADDRESS":"復興路１之７４號","OBJECTID":527659},"geometry":{"x":179713.93000000063,"y":2577935.129999999}},{"attributes":{"ID":527687,"DIS_CODE":0,"TOWNNAME":"新營區","LI":"新南里","LIN":"6鄰","STREET":"秦漢街","SECT":" ","MAREA":" ","LANE":" ","ALLEY":" ","HOUSE_NO":"１１８號","E_COORD97":178368.23000000001,"N_COORD97":2578917.1899999999,"ADDRESS":"秦漢街１１８號","OBJECTID":527660},"geometry":{"x":178368.23000000231,"y":2578917.1900000013}},{"attributes":{"ID":527688,"DIS_CODE":0,"TOWNNAME":"新營區","LI":"中營里","LIN":"6鄰","STREET":"新進路","SECT":" ","MAREA":" ","LANE":" ","ALLEY":" ","HOUSE_NO":"６９之９號","E_COORD97":180529.17999999999,"N_COORD97":2578148.3500000001,"ADDRESS":"新進路６９之９號","OBJECTID":527661},"geometry":{"x":180529.18000000063,"y":2578148.3499999996}},{"attributes":{"ID":527689,"DIS_CODE":0,"TOWNNAME":"新營區","LI":"新南里","LIN":"6鄰","STREET":"秦漢街","SECT":" ","MAREA":" ","LANE":" ","ALLEY":" ","HOUSE_NO":"６２號","E_COORD97":178465.41,"N_COORD97":2578752.8100000001,"ADDRESS":"秦漢街６２號","OBJECTID":527662},"geometry":{"x":178465.41000000108,"y":2578752.8100000005}},{"attributes":{"ID":527690,"DIS_CODE":0,"TOWNNAME":"新營區","LI":"延平里","LIN":"6鄰","STREET":"復興路","SECT":" ","MAREA":" ","LANE":" ","ALLEY":" ","HOUSE_NO":"１之１０１號","E_COORD97":179715.17999999999,"N_COORD97":2577935.1299999999,"ADDRESS":"復興路１之１０１號","OBJECTID":527663},"geometry":{"x":179715.1799999997,"y":2577935.129999999}},{"attributes":{"ID":527691,"DIS_CODE":0,"TOWNNAME":"新營區","LI":"中營里","LIN":"6鄰","STREET":"新進路","SECT":" ","MAREA":" ","LANE":" ","ALLEY":" ","HOUSE_NO":"７３之１號","E_COORD97":180556.79000000001,"N_COORD97":2578143.79,"ADDRESS":"新進路７３之１號","OBJECTID":527664},"geometry":{"x":180556.79000000004,"y":2578143.790000001}},{"attributes":{"ID":527692,"DIS_CODE":0,"TOWNNAME":"新營區","LI":"中營里","LIN":"6鄰","STREET":"新進路","SECT":" ","MAREA":" ","LANE":" ","ALLEY":" ","HOUSE_NO":"７１號","E_COORD97":180570.76999999999,"N_COORD97":2578168.02,"ADDRESS":"新進路７１號","OBJECTID":527665},"geometry":{"x":180570.77000000048,"y":2578168.0200000033}},{"attributes":{"ID":527693,"DIS_CODE":0,"TOWNNAME":"新營區","LI":"新南里","LIN":"6鄰","STREET":"秦漢街","SECT":" ","MAREA":" ","LANE":" ","ALLEY":" ","HOUSE_NO":"５６號","E_COORD97":178482.72,"N_COORD97":2578733.8999999999,"ADDRESS":"秦漢街５６號","OBJECTID":527666},"geometry":{"x":178482.7200000016,"y":2578733.9000000022}},{"attributes":{"ID":527694,"DIS_CODE":0,"TOWNNAME":"新營區","LI":"新南里","LIN":"6鄰","STREET":"秦漢街","SECT":" ","MAREA":" ","LANE":" ","ALLEY":" ","HOUSE_NO":"６８號","E_COORD97":178455.23000000001,"N_COORD97":2578762.8300000001,"ADDRESS":"秦漢街６８號","OBJECTID":527667},"geometry":{"x":178455.23000000138,"y":2578762.8300000001}},{"attributes":{"ID":527695,"DIS_CODE":0,"TOWNNAME":"新營區","LI":"中營里","LIN":"6鄰","STREET":"新進路","SECT":" ","MAREA":" ","LANE":" ","ALLEY":" ","HOUSE_NO":"６９之８號","E_COORD97":180535.38,"N_COORD97":2578162.71,"ADDRESS":"新進路６９之８號","OBJECTID":527668},"geometry":{"x":180535.38000000082,"y":2578162.7100000028}},{"attributes":{"ID":527696,"DIS_CODE":0,"TOWNNAME":"新營區","LI":"王公里","LIN":"6鄰","STREET":"民治路","SECT":" ","MAREA":" ","LANE":" ","ALLEY":" ","HOUSE_NO":"６之２７號","E_COORD97":180574.97,"N_COORD97":2578970.9700000002,"ADDRESS":"民治路６之２７號","OBJECTID":527669},"geometry":{"x":180574.97000000067,"y":2578970.9700000025}},{"attributes":{"ID":527697,"DIS_CODE":0,"TOWNNAME":"新營區","LI":"新南里","LIN":"6鄰","STREET":"秦漢街","SECT":" ","MAREA":" ","LANE":" ","ALLEY":" ","HOUSE_NO":"６４號","E_COORD97":178461.34,"N_COORD97":2578756.1499999999,"ADDRESS":"秦漢街６４號","OBJECTID":527670},"geometry":{"x":178461.33999999985,"y":2578756.1500000022}},{"attributes":{"ID":527698,"DIS_CODE":0,"TOWNNAME":"新營區","LI":"王公里","LIN":"6鄰","STREET":"民治路","SECT":" ","MAREA":" ","LANE":" ","ALLEY":" ","HOUSE_NO":"６之１１號","E_COORD97":180557.39999999999,"N_COORD97":2578932.29,"ADDRESS":"民治路６之１１號","OBJECTID":527671},"geometry":{"x":180557.4000000013,"y":2578932.2900000028}},{"attributes":{"ID":527699,"DIS_CODE":0,"TOWNNAME":"新營區","LI":"民權里","LIN":"6鄰","STREET":"博愛街","SECT":" ","MAREA":" ","LANE":" ","ALLEY":" ","HOUSE_NO":"５３號","E_COORD97":179893.48000000001,"N_COORD97":2578140.21,"ADDRESS":"博愛街５３號","OBJECTID":527672},"geometry":{"x":179893.48000000045,"y":2578140.2100000009}},{"attributes":{"ID":527700,"DIS_CODE":0,"TOWNNAME":"新營區","LI":"新南里","LIN":"6鄰","STREET":"長榮路","SECT":"二段","MAREA":" ","LANE":" ","ALLEY":" ","HOUSE_NO":"９０３號","E_COORD97":178325.98000000001,"N_COORD97":2579070.2200000002,"ADDRESS":"長榮路二段９０３號","OBJECTID":527673},"geometry":{"x":178325.98000000138,"y":2579070.2200000025}},{"attributes":{"ID":527701,"DIS_CODE":0,"TOWNNAME":"新營區","LI":"興安里","LIN":"6鄰","STREET":"工業街","SECT":" ","MAREA":" ","LANE":" ","ALLEY":" ","HOUSE_NO":"５５號之８","E_COORD97":180702.42999999999,"N_COORD97":2577839.6600000001,"ADDRESS":"工業街５５號之８","OBJECTID":527674},"geometry":{"x":180702.43000000063,"y":2577839.660000002}},{"attributes":{"ID":527702,"DIS_CODE":0,"TOWNNAME":"新營區","LI":"王公里","LIN":"6鄰","STREET":"民治路","SECT":" ","MAREA":" ","LANE":" ","ALLEY":" ","HOUSE_NO":"６之１２號","E_COORD97":180585.06,"N_COORD97":2578942.1299999999,"ADDRESS":"民治路６之１２號","OBJECTID":527675},"geometry":{"x":180585.05999999959,"y":2578942.129999999}},{"attributes":{"ID":527703,"DIS_CODE":0,"TOWNNAME":"新營區","LI":"民權里","LIN":"6鄰","STREET":"中山路","SECT":" ","MAREA":" ","LANE":" ","ALLEY":" ","HOUSE_NO":"２６８號","E_COORD97":179861.32999999999,"N_COORD97":2577988.6400000001,"ADDRESS":"中山路２６８號","OBJECTID":527676},"geometry":{"x":179861.33000000101,"y":2577988.6400000043}},{"attributes":{"ID":527704,"DIS_CODE":0,"TOWNNAME":"新營區","LI":"延平里","LIN":"6鄰","STREET":"復興路","SECT":" ","MAREA":" ","LANE":" ","ALLEY":" ","HOUSE_NO":"１之１１７號","E_COORD97":179715.17999999999,"N_COORD97":2577935.1299999999,"ADDRESS":"復興路１之１１７號","OBJECTID":527677},"geometry":{"x":179715.1799999997,"y":2577935.129999999}},{"attributes":{"ID":527705,"DIS_CODE":0,"TOWNNAME":"新營區","LI":"王公里","LIN":"6鄰","STREET":"民治路","SECT":" ","MAREA":" ","LANE":" ","ALLEY":" ","HOUSE_NO":"６號之２５","E_COORD97":180563.79000000001,"N_COORD97":2578985.4199999999,"ADDRESS":"民治路６號之２５","OBJECTID":527678},"geometry":{"x":180563.79000000004,"y":2578985.4199999999}},{"attributes":{"ID":527706,"DIS_CODE":0,"TOWNNAME":"新營區","LI":"民權里","LIN":"6鄰","STREET":"中山路","SECT":" ","MAREA":" ","LANE":" ","ALLEY":" ","HOUSE_NO":"２４０號","E_COORD97":179909.57999999999,"N_COORD97":2578024.96,"ADDRESS":"中山路２４０號","OBJECTID":527679},"geometry":{"x":179909.58000000194,"y":2578024.9600000028}},{"attributes":{"ID":527707,"DIS_CODE":0,"TOWNNAME":"新營區","LI":"新南里","LIN":"6鄰","STREET":"長榮路","SECT":"二段","MAREA":" ","LANE":" ","ALLEY":" ","HOUSE_NO":"９３７號","E_COORD97":178261.26000000001,"N_COORD97":2579011.8399999999,"ADDRESS":"長榮路二段９３７號","OBJECTID":527680},"geometry":{"x":178261.25999999978,"y":2579011.8400000017}},{"attributes":{"ID":527708,"DIS_CODE":0,"TOWNNAME":"新營區","LI":"新南里","LIN":"6鄰","STREET":"長榮路","SECT":"二段","MAREA":" ","LANE":" ","ALLEY":" ","HOUSE_NO":"８９９號","E_COORD97":178336.35000000001,"N_COORD97":2579079.0299999998,"ADDRESS":"長榮路二段８９９號","OBJECTID":527681},"geometry":{"x":178336.35000000056,"y":2579079.0299999993}},{"attributes":{"ID":527709,"DIS_CODE":0,"TOWNNAME":"新營區","LI":"王公里","LIN":"6鄰","STREET":"同濟街","SECT":" ","MAREA":" ","LANE":" ","ALLEY":" ","HOUSE_NO":"１８３號","E_COORD97":180433.51999999999,"N_COORD97":2578958.29,"ADDRESS":"同濟街１８３號","OBJECTID":527682},"geometry":{"x":180433.52000000048,"y":2578958.2899999991}},{"attributes":{"ID":527710,"DIS_CODE":0,"TOWNNAME":"新營區","LI":"新南里","LIN":"6鄰","STREET":"長榮路","SECT":"二段","MAREA":" ","LANE":" ","ALLEY":" ","HOUSE_NO":"８２３號","E_COORD97":178394.89000000001,"N_COORD97":2579127.4700000002,"ADDRESS":"長榮路二段８２３號","OBJECTID":527683},"geometry":{"x":178394.88999999873,"y":2579127.4700000007}},{"attributes":{"ID":527711,"DIS_CODE":0,"TOWNNAME":"新營區","LI":"中營里","LIN":"6鄰","STREET":"新進路","SECT":" ","MAREA":" ","LANE":" ","ALLEY":" ","HOUSE_NO":"５３號","E_COORD97":180598.75,"N_COORD97":2578247.6299999999,"ADDRESS":"新進路５３號","OBJECTID":527684},"geometry":{"x":180598.75000000093,"y":2578247.629999999}},{"attributes":{"ID":527712,"DIS_CODE":0,"TOWNNAME":"新營區","LI":"延平里","LIN":"6鄰","STREET":"復興路","SECT":" ","MAREA":" ","LANE":" ","ALLEY":" ","HOUSE_NO":"１之８７號","E_COORD97":179713.92999999999,"N_COORD97":2577935.1299999999,"ADDRESS":"復興路１之８７號","OBJECTID":527685},"geometry":{"x":179713.93000000063,"y":2577935.129999999}},{"attributes":{"ID":527713,"DIS_CODE":0,"TOWNNAME":"新營區","LI":"新南里","LIN":"6鄰","STREET":"長榮路","SECT":"二段","MAREA":" ","LANE":" ","ALLEY":" ","HOUSE_NO":"９０１號","E_COORD97":178331.12,"N_COORD97":2579075.7400000002,"ADDRESS":"長榮路二段９０１號","OBJECTID":527686},"geometry":{"x":178331.11999999918,"y":2579075.7399999984}},{"attributes":{"ID":527714,"DIS_CODE":0,"TOWNNAME":"新營區","LI":"興安里","LIN":"6鄰","STREET":"工業街","SECT":" ","MAREA":" ","LANE":" ","ALLEY":" ","HOUSE_NO":"５５之２號","E_COORD97":180672.01000000001,"N_COORD97":2577849.77,"ADDRESS":"工業街５５之２號","OBJECTID":527687},"geometry":{"x":180672.00999999978,"y":2577849.7699999996}},{"attributes":{"ID":527715,"DIS_CODE":0,"TOWNNAME":"新營區","LI":"新南里","LIN":"6鄰","STREET":"長榮路","SECT":"二段","MAREA":" ","LANE":" ","ALLEY":" ","HOUSE_NO":"９４１號","E_COORD97":178255.09,"N_COORD97":2579006.3300000001,"ADDRESS":"長榮路二段９４１號","OBJECTID":527688},"geometry":{"x":178255.09000000078,"y":2579006.3300000001}},{"attributes":{"ID":527716,"DIS_CODE":0,"TOWNNAME":"新營區","LI":"中營里","LIN":"6鄰","STREET":"新進路","SECT":" ","MAREA":" ","LANE":" ","ALLEY":" ","HOUSE_NO":"５１號","E_COORD97":180601.84,"N_COORD97":2578250.9399999999,"ADDRESS":"新進路５１號","OBJECTID":527689},"geometry":{"x":180601.83999999985,"y":2578250.9400000013}},{"attributes":{"ID":527717,"DIS_CODE":0,"TOWNNAME":"新營區","LI":"中營里","LIN":"6鄰","STREET":"新進路","SECT":" ","MAREA":" ","LANE":" ","ALLEY":" ","HOUSE_NO":"３１號","E_COORD97":180647.17000000001,"N_COORD97":2578306.0899999999,"ADDRESS":"新進路３１號","OBJECTID":527690},"geometry":{"x":180647.16999999993,"y":2578306.0899999999}},{"attributes":{"ID":527718,"DIS_CODE":0,"TOWNNAME":"新營區","LI":"中營里","LIN":"6鄰","STREET":"新進路","SECT":" ","MAREA":" ","LANE":" ","ALLEY":" ","HOUSE_NO":"５５號","E_COORD97":180596.69,"N_COORD97":2578244.3199999998,"ADDRESS":"新進路５５號","OBJECTID":527691},"geometry":{"x":180596.69000000041,"y":2578244.3200000003}},{"attributes":{"ID":527719,"DIS_CODE":0,"TOWNNAME":"新營區","LI":"新南里","LIN":"6鄰","STREET":"長榮路","SECT":"二段","MAREA":" ","LANE":" ","ALLEY":" ","HOUSE_NO":"８２１號","E_COORD97":178403.10999999999,"N_COORD97":2579135.1899999999,"ADDRESS":"長榮路二段８２１號","OBJECTID":527692},"geometry":{"x":178403.11000000127,"y":2579135.1899999995}},{"attributes":{"ID":527720,"DIS_CODE":0,"TOWNNAME":"新營區","LI":"新南里","LIN":"6鄰","STREET":"長榮路","SECT":"二段","MAREA":" ","LANE":" ","ALLEY":" ","HOUSE_NO":"９３３號","E_COORD97":178268.45999999999,"N_COORD97":2579018.4500000002,"ADDRESS":"長榮路二段９３３號","OBJECTID":527693},"geometry":{"x":178268.46000000089,"y":2579018.4499999993}},{"attributes":{"ID":527721,"DIS_CODE":0,"TOWNNAME":"歸仁區","LI":"文化里","LIN":"6鄰","STREET":"國光街","SECT":" ","MAREA":" ","LANE":" ","ALLEY":" ","HOUSE_NO":"１９９號","E_COORD97":177343.16,"N_COORD97":2541367.3300000001,"ADDRESS":"國光街１９９號","OBJECTID":527694},"geometry":{"x":177343.16000000108,"y":2541367.3300000038}},{"attributes":{"ID":527722,"DIS_CODE":0,"TOWNNAME":"歸仁區","LI":"文化里","LIN":"6鄰","STREET":"國光街","SECT":" ","MAREA":" ","LANE":" ","ALLEY":" ","HOUSE_NO":"２０３號","E_COORD97":177343.16,"N_COORD97":2541378.3300000001,"ADDRESS":"國光街２０３號","OBJECTID":527695},"geometry":{"x":177343.16000000108,"y":2541378.3300000019}},{"attributes":{"ID":527723,"DIS_CODE":0,"TOWNNAME":"歸仁區","LI":"大廟里","LIN":"6鄰","STREET":"和順路","SECT":"二段","MAREA":" ","LANE":" ","ALLEY":" ","HOUSE_NO":"３０６號","E_COORD97":175688.44,"N_COORD97":2543606.2799999998,"ADDRESS":"和順路二段３０６號","OBJECTID":527696},"geometry":{"x":175688.44000000134,"y":2543606.2800000012}},{"attributes":{"ID":527724,"DIS_CODE":0,"TOWNNAME":"歸仁區","LI":"六甲里","LIN":"6鄰","STREET":"中正十五街","SECT":" ","MAREA":" ","LANE":" ","ALLEY":" ","HOUSE_NO":"６５號","E_COORD97":176451.20999999999,"N_COORD97":2539467.25,"ADDRESS":"中正十五街６５號","OBJECTID":527697},"geometry":{"x":176451.21000000089,"y":2539467.2500000019}},{"attributes":{"ID":527725,"DIS_CODE":0,"TOWNNAME":"歸仁區","LI":"六甲里","LIN":"6鄰","STREET":"中正十五街","SECT":" ","MAREA":" ","LANE":" ","ALLEY":" ","HOUSE_NO":"６９號","E_COORD97":176449.10999999999,"N_COORD97":2539454.25,"ADDRESS":"中正十五街６９號","OBJECTID":527698},"geometry":{"x":176449.11000000034,"y":2539454.25}},{"attributes":{"ID":527726,"DIS_CODE":0,"TOWNNAME":"歸仁區","LI":"六甲里","LIN":"6鄰","STREET":"中正十五街","SECT":" ","MAREA":" ","LANE":" ","ALLEY":" ","HOUSE_NO":"８３號","E_COORD97":176443.70999999999,"N_COORD97":2539412.2400000002,"ADDRESS":"中正十五街８３號","OBJECTID":527699},"geometry":{"x":176443.71000000183,"y":2539412.2400000021}},{"attributes":{"ID":527727,"DIS_CODE":0,"TOWNNAME":"歸仁區","LI":"六甲里","LIN":"6鄰","STREET":"中正十五街","SECT":" ","MAREA":" ","LANE":" ","ALLEY":" ","HOUSE_NO":"７１號","E_COORD97":176449.01000000001,"N_COORD97":2539449.25,"ADDRESS":"中正十五街７１號","OBJECTID":527700},"geometry":{"x":176449.01000000071,"y":2539449.2500000019}},{"attributes":{"ID":527728,"DIS_CODE":0,"TOWNNAME":"歸仁區","LI":"六甲里","LIN":"6鄰","STREET":"中正十五街","SECT":" ","MAREA":" ","LANE":" ","ALLEY":" ","HOUSE_NO":"５７號","E_COORD97":176454.41,"N_COORD97":2539490.25,"ADDRESS":"中正十五街５７號","OBJECTID":527701},"geometry":{"x":176454.41000000201,"y":2539490.2500000019}},{"attributes":{"ID":527729,"DIS_CODE":0,"TOWNNAME":"歸仁區","LI":"六甲里","LIN":"6鄰","STREET":"中正十五街","SECT":" ","MAREA":" ","LANE":" ","ALLEY":" ","HOUSE_NO":"８５號","E_COORD97":176441.70999999999,"N_COORD97":2539406.25,"ADDRESS":"中正十五街８５號","OBJECTID":527702},"geometry":{"x":176441.70999999996,"y":2539406.2500000019}},{"attributes":{"ID":527730,"DIS_CODE":0,"TOWNNAME":"歸仁區","LI":"六甲里","LIN":"6鄰","STREET":"中正十五街","SECT":" ","MAREA":" ","LANE":" ","ALLEY":" ","HOUSE_NO":"７５號","E_COORD97":176446.91,"N_COORD97":2539437.25,"ADDRESS":"中正十五街７５號","OBJECTID":527703},"geometry":{"x":176446.91000000015,"y":2539437.25}},{"attributes":{"ID":527731,"DIS_CODE":0,"TOWNNAME":"歸仁區","LI":"六甲里","LIN":"6鄰","STREET":"中正十五街","SECT":" ","MAREA":" ","LANE":" ","ALLEY":" ","HOUSE_NO":"５３號","E_COORD97":176455.51000000001,"N_COORD97":2539502.25,"ADDRESS":"中正十五街５３號","OBJECTID":527704},"geometry":{"x":176455.51000000071,"y":2539502.25}},{"attributes":{"ID":527732,"DIS_CODE":0,"TOWNNAME":"歸仁區","LI":"六甲里","LIN":"6鄰","STREET":"中正十五街","SECT":" ","MAREA":" ","LANE":" ","ALLEY":" ","HOUSE_NO":"５１號","E_COORD97":176457.51000000001,"N_COORD97":2539509.25,"ADDRESS":"中正十五街５１號","OBJECTID":527705},"geometry":{"x":176457.51000000071,"y":2539509.25}},{"attributes":{"ID":527733,"DIS_CODE":0,"TOWNNAME":"歸仁區","LI":"八甲里","LIN":"6鄰","STREET":"大光一街","SECT":" ","MAREA":" ","LANE":" ","ALLEY":" ","HOUSE_NO":"３４號","E_COORD97":177854.92000000001,"N_COORD97":2541720.6099999999,"ADDRESS":"大光一街３４號","OBJECTID":527706},"geometry":{"x":177854.92000000086,"y":2541720.6099999975}},{"attributes":{"ID":527734,"DIS_CODE":0,"TOWNNAME":"歸仁區","LI":"六甲里","LIN":"6鄰","STREET":"中正十五街","SECT":" ","MAREA":" ","LANE":" ","ALLEY":" ","HOUSE_NO":"５９號","E_COORD97":176454.31,"N_COORD97":2539484.25,"ADDRESS":"中正十五街５９號","OBJECTID":527707},"geometry":{"x":176454.30999999959,"y":2539484.2500000019}},{"attributes":{"ID":527735,"DIS_CODE":0,"TOWNNAME":"歸仁區","LI":"八甲里","LIN":"6鄰","STREET":"大光街","SECT":" ","MAREA":" ","LANE":" ","ALLEY":" ","HOUSE_NO":"６５號","E_COORD97":177962.26999999999,"N_COORD97":2541714.6099999999,"ADDRESS":"大光街６５號","OBJECTID":527708},"geometry":{"x":177962.27000000048,"y":2541714.6100000013}},{"attributes":{"ID":527736,"DIS_CODE":0,"TOWNNAME":"歸仁區","LI":"八甲里","LIN":"6鄰","STREET":"大光街","SECT":" ","MAREA":" ","LANE":" ","ALLEY":" ","HOUSE_NO":"５９號","E_COORD97":177959.17000000001,"N_COORD97":2541702.6099999999,"ADDRESS":"大光街５９號","OBJECTID":527709},"geometry":{"x":177959.16999999993,"y":2541702.6099999994}},{"attributes":{"ID":527737,"DIS_CODE":0,"TOWNNAME":"歸仁區","LI":"武東里","LIN":"6鄰","STREET":"中正南路","SECT":"二段","MAREA":" ","LANE":" ","ALLEY":" ","HOUSE_NO":"１４９號","E_COORD97":175539.20999999999,"N_COORD97":2535591.2799999998,"ADDRESS":"中正南路二段１４９號","OBJECTID":527710},"geometry":{"x":175539.21000000089,"y":2535591.2800000012}},{"attributes":{"ID":527738,"DIS_CODE":0,"TOWNNAME":"歸仁區","LI":"八甲里","LIN":"6鄰","STREET":"大光街","SECT":" ","MAREA":" ","LANE":" ","ALLEY":" ","HOUSE_NO":"６１號","E_COORD97":177961.26999999999,"N_COORD97":2541706.6099999999,"ADDRESS":"大光街６１號","OBJECTID":527711},"geometry":{"x":177961.26999999955,"y":2541706.6099999994}},{"attributes":{"ID":527739,"DIS_CODE":0,"TOWNNAME":"歸仁區","LI":"武東里","LIN":"6鄰","STREET":"中正南路","SECT":"二段","MAREA":" ","LANE":" ","ALLEY":" ","HOUSE_NO":"１７７號","E_COORD97":175495.81,"N_COORD97":2535513.2799999998,"ADDRESS":"中正南路二段１７７號","OBJECTID":527712},"geometry":{"x":175495.81000000052,"y":2535513.2800000012}},{"attributes":{"ID":527740,"DIS_CODE":0,"TOWNNAME":"歸仁區","LI":"七甲里","LIN":"6鄰","STREET":"七甲一街","SECT":" ","MAREA":" ","LANE":" ","ALLEY":" ","HOUSE_NO":"１８０號","E_COORD97":177611.44,"N_COORD97":2542799.6600000001,"ADDRESS":"七甲一街１８０號","OBJECTID":527713},"geometry":{"x":177611.44000000041,"y":2542799.6600000039}},{"attributes":{"ID":527741,"DIS_CODE":0,"TOWNNAME":"歸仁區","LI":"武東里","LIN":"6鄰","STREET":"中正南路","SECT":"二段","MAREA":" ","LANE":" ","ALLEY":" ","HOUSE_NO":"１７９號","E_COORD97":175493.70999999999,"N_COORD97":2535508.2799999998,"ADDRESS":"中正南路二段１７９號","OBJECTID":527714},"geometry":{"x":175493.70999999996,"y":2535508.2800000031}},{"attributes":{"ID":527742,"DIS_CODE":0,"TOWNNAME":"歸仁區","LI":"文化里","LIN":"6鄰","STREET":"文化北街","SECT":" ","MAREA":" ","LANE":" ","ALLEY":" ","HOUSE_NO":"５３號","E_COORD97":177327.85999999999,"N_COORD97":2541388.3399999999,"ADDRESS":"文化北街５３號","OBJECTID":527715},"geometry":{"x":177327.8599999994,"y":2541388.3400000017}},{"attributes":{"ID":527743,"DIS_CODE":0,"TOWNNAME":"歸仁區","LI":"文化里","LIN":"6鄰","STREET":"國光街","SECT":" ","MAREA":" ","LANE":" ","ALLEY":" ","HOUSE_NO":"１９７號","E_COORD97":177343.06,"N_COORD97":2541361.3300000001,"ADDRESS":"國光街１９７號","OBJECTID":527716},"geometry":{"x":177343.06000000052,"y":2541361.3300000019}},{"attributes":{"ID":527744,"DIS_CODE":0,"TOWNNAME":"歸仁區","LI":"大潭里","LIN":"6鄰","STREET":"中正南路","SECT":"三段","MAREA":" ","LANE":" ","ALLEY":" ","HOUSE_NO":"２４５號","E_COORD97":175169.81,"N_COORD97":2534728.2799999998,"ADDRESS":"中正南路三段２４５號","OBJECTID":527717},"geometry":{"x":175169.81000000052,"y":2534728.2799999993}},{"attributes":{"ID":527745,"DIS_CODE":0,"TOWNNAME":"歸仁區","LI":"大廟里","LIN":"6鄰","STREET":"大廟一街","SECT":" ","MAREA":" ","LANE":" ","ALLEY":" ","HOUSE_NO":"１３７號","E_COORD97":175711.01999999999,"N_COORD97":2543862.25,"ADDRESS":"大廟一街１３７號","OBJECTID":527718},"geometry":{"x":175711.02000000048,"y":2543862.25}},{"attributes":{"ID":527746,"DIS_CODE":0,"TOWNNAME":"歸仁區","LI":"大廟里","LIN":"6鄰","STREET":"大廟一街","SECT":" ","MAREA":" ","LANE":" ","ALLEY":" ","HOUSE_NO":"１４１號","E_COORD97":175700.72,"N_COORD97":2543849.25,"ADDRESS":"大廟一街１４１號","OBJECTID":527719},"geometry":{"x":175700.71999999974,"y":2543849.25}},{"attributes":{"ID":527747,"DIS_CODE":0,"TOWNNAME":"歸仁區","LI":"大廟里","LIN":"6鄰","STREET":"大廟一街","SECT":" ","MAREA":" ","LANE":" ","ALLEY":" ","HOUSE_NO":"１４５號","E_COORD97":175697.62,"N_COORD97":2543841.25,"ADDRESS":"大廟一街１４５號","OBJECTID":527720},"geometry":{"x":175697.62000000104,"y":2543841.25}},{"attributes":{"ID":527748,"DIS_CODE":0,"TOWNNAME":"歸仁區","LI":"大廟里","LIN":"6鄰","STREET":"大廟一街","SECT":" ","MAREA":" ","LANE":" ","ALLEY":" ","HOUSE_NO":"１４７號","E_COORD97":175695.51999999999,"N_COORD97":2543838.25,"ADDRESS":"大廟一街１４７號","OBJECTID":527721},"geometry":{"x":175695.52000000048,"y":2543838.25}},{"attributes":{"ID":527749,"DIS_CODE":0,"TOWNNAME":"歸仁區","LI":"七甲里","LIN":"6鄰","STREET":"七甲一街","SECT":" ","MAREA":" ","LANE":" ","ALLEY":" ","HOUSE_NO":"１６８號","E_COORD97":177624.64000000001,"N_COORD97":2542764.6600000001,"ADDRESS":"七甲一街１６８號","OBJECTID":527722},"geometry":{"x":177624.63999999966,"y":2542764.6600000001}},{"attributes":{"ID":527750,"DIS_CODE":0,"TOWNNAME":"歸仁區","LI":"大廟里","LIN":"6鄰","STREET":"大廟一街","SECT":" ","MAREA":" ","LANE":" ","ALLEY":" ","HOUSE_NO":"２０７號","E_COORD97":175642.51999999999,"N_COORD97":2543685.25,"ADDRESS":"大廟一街２０７號","OBJECTID":527723},"geometry":{"x":175642.51999999955,"y":2543685.25}},{"attributes":{"ID":527751,"DIS_CODE":0,"TOWNNAME":"歸仁區","LI":"大廟里","LIN":"6鄰","STREET":"大廟一街","SECT":" ","MAREA":" ","LANE":" ","ALLEY":" ","HOUSE_NO":"１５５號","E_COORD97":175680.01999999999,"N_COORD97":2543814.25,"ADDRESS":"大廟一街１５５號","OBJECTID":527724},"geometry":{"x":175680.02000000142,"y":2543814.25}},{"attributes":{"ID":527752,"DIS_CODE":0,"TOWNNAME":"歸仁區","LI":"大廟里","LIN":"6鄰","STREET":"大廟一街","SECT":" ","MAREA":" ","LANE":" ","ALLEY":" ","HOUSE_NO":"１４３號","E_COORD97":175698.62,"N_COORD97":2543846.25,"ADDRESS":"大廟一街１４３號","OBJECTID":527725},"geometry":{"x":175698.62000000197,"y":2543846.2500000037}},{"attributes":{"ID":527753,"DIS_CODE":0,"TOWNNAME":"歸仁區","LI":"七甲里","LIN":"6鄰","STREET":"七甲三街","SECT":" ","MAREA":" ","LANE":" ","ALLEY":" ","HOUSE_NO":"３３號","E_COORD97":177588.45000000001,"N_COORD97":2542877.6699999999,"ADDRESS":"七甲三街３３號","OBJECTID":527726},"geometry":{"x":177588.45000000112,"y":2542877.6700000018}},{"attributes":{"ID":527754,"DIS_CODE":0,"TOWNNAME":"歸仁區","LI":"大廟里","LIN":"6鄰","STREET":"大廟一街","SECT":" ","MAREA":" ","LANE":" ","ALLEY":" ","HOUSE_NO":"１５１號","E_COORD97":175687.22,"N_COORD97":2543822.25,"ADDRESS":"大廟一街１５１號","OBJECTID":527727},"geometry":{"x":175687.21999999881,"y":2543822.2499999981}},{"attributes":{"ID":527755,"DIS_CODE":0,"TOWNNAME":"歸仁區","LI":"大廟里","LIN":"6鄰","STREET":"大廟一街","SECT":" ","MAREA":" ","LANE":" ","ALLEY":" ","HOUSE_NO":"１７３號","E_COORD97":175664.32000000001,"N_COORD97":2543741.25,"ADDRESS":"大廟一街１７３號","OBJECTID":527728},"geometry":{"x":175664.32000000123,"y":2543741.2500000037}},{"attributes":{"ID":527756,"DIS_CODE":0,"TOWNNAME":"歸仁區","LI":"大廟里","LIN":"6鄰","STREET":"大廟一街","SECT":" ","MAREA":" ","LANE":" ","ALLEY":" ","HOUSE_NO":"２０９號","E_COORD97":175638.32000000001,"N_COORD97":2543670.25,"ADDRESS":"大廟一街２０９號","OBJECTID":527729},"geometry":{"x":175638.32000000123,"y":2543670.2500000019}},{"attributes":{"ID":527757,"DIS_CODE":0,"TOWNNAME":"歸仁區","LI":"大廟里","LIN":"6鄰","STREET":"大廟一街","SECT":" ","MAREA":" ","LANE":" ","ALLEY":" ","HOUSE_NO":"１５３號","E_COORD97":175684.12,"N_COORD97":2543819.25,"ADDRESS":"大廟一街１５３號","OBJECTID":527730},"geometry":{"x":175684.12000000104,"y":2543819.2500000037}},{"attributes":{"ID":527758,"DIS_CODE":0,"TOWNNAME":"歸仁區","LI":"文化里","LIN":"6鄰","STREET":"國光街","SECT":" ","MAREA":" ","LANE":" ","ALLEY":" ","HOUSE_NO":"１９５號","E_COORD97":177343.06,"N_COORD97":2541356.3300000001,"ADDRESS":"國光街１９５號","OBJECTID":527731},"geometry":{"x":177343.06000000052,"y":2541356.3300000001}},{"attributes":{"ID":527759,"DIS_CODE":0,"TOWNNAME":"歸仁區","LI":"大廟里","LIN":"6鄰","STREET":"大廟一街","SECT":" ","MAREA":" ","LANE":" ","ALLEY":" ","HOUSE_NO":"１５７號","E_COORD97":175677.92000000001,"N_COORD97":2543809.25,"ADDRESS":"大廟一街１５７號","OBJECTID":527732},"geometry":{"x":175677.92000000086,"y":2543809.2500000019}},{"attributes":{"ID":527760,"DIS_CODE":0,"TOWNNAME":"北區","LI":"裕民里","LIN":"6鄰","STREET":"臨安路","SECT":"二段","MAREA":" ","LANE":" ","ALLEY":" ","HOUSE_NO":"６０號","E_COORD97":167678.67000000001,"N_COORD97":2544807.6200000001,"ADDRESS":"臨安路二段６０號","OBJECTID":527733},"geometry":{"x":167678.67000000086,"y":2544807.6200000048}},{"attributes":{"ID":527761,"DIS_CODE":0,"TOWNNAME":"北區","LI":"裕民里","LIN":"6鄰","STREET":"臨安路","SECT":"二段","MAREA":" ","LANE":" ","ALLEY":" ","HOUSE_NO":"６６之１號","E_COORD97":167687.12,"N_COORD97":2544811.1400000001,"ADDRESS":"臨安路二段６６之１號","OBJECTID":527734},"geometry":{"x":167687.12000000197,"y":2544811.1400000025}},{"attributes":{"ID":527762,"DIS_CODE":0,"TOWNNAME":"北區","LI":"裕民里","LIN":"6鄰","STREET":"臨安路","SECT":"二段","MAREA":" ","LANE":" ","ALLEY":" ","HOUSE_NO":"６０之１號","E_COORD97":167674.45000000001,"N_COORD97":2544805.5099999998,"ADDRESS":"臨安路二段６０之１號","OBJECTID":527735},"geometry":{"x":167674.45000000019,"y":2544805.5099999998}},{"attributes":{"ID":527763,"DIS_CODE":0,"TOWNNAME":"北區","LI":"裕民里","LIN":"6鄰","STREET":"臨安路","SECT":"二段","MAREA":" ","LANE":" ","ALLEY":" ","HOUSE_NO":"６６號","E_COORD97":167691.35000000001,"N_COORD97":2544812.1899999999,"ADDRESS":"臨安路二段６６號","OBJECTID":527736},"geometry":{"x":167691.34999999963,"y":2544812.1899999976}},{"attributes":{"ID":527764,"DIS_CODE":0,"TOWNNAME":"北區","LI":"文元里","LIN":"6鄰","STREET":"海安路","SECT":"三段","MAREA":" ","LANE":" ","ALLEY":" ","HOUSE_NO":"８１５號","E_COORD97":167992.59,"N_COORD97":2546207.29,"ADDRESS":"海安路三段８１５號","OBJECTID":527737},"geometry":{"x":167992.59000000078,"y":2546207.2899999991}},{"attributes":{"ID":527765,"DIS_CODE":0,"TOWNNAME":"柳營區","LI":"光福里","LIN":"6鄰","STREET":"柳營路","SECT":"二段","MAREA":" ","LANE":" ","ALLEY":" ","HOUSE_NO":"１０號","E_COORD97":179684.29999999999,"N_COORD97":2575116.6299999999,"ADDRESS":"柳營路二段１０號","OBJECTID":527738},"geometry":{"x":179684.30000000075,"y":2575116.6300000008}},{"attributes":{"ID":527766,"DIS_CODE":0,"TOWNNAME":"柳營區","LI":"士林里","LIN":"6鄰","STREET":"博愛街","SECT":" ","MAREA":" ","LANE":" ","ALLEY":" ","HOUSE_NO":"３０號","E_COORD97":179490.04000000001,"N_COORD97":2575234.1800000002,"ADDRESS":"博愛街３０號","OBJECTID":527739},"geometry":{"x":179490.04000000097,"y":2575234.1799999997}},{"attributes":{"ID":527767,"DIS_CODE":0,"TOWNNAME":"柳營區","LI":"光福里","LIN":"6鄰","STREET":"柳營路","SECT":"二段","MAREA":" ","LANE":" ","ALLEY":" ","HOUSE_NO":"２８號","E_COORD97":179669.01000000001,"N_COORD97":2575163.96,"ADDRESS":"柳營路二段２８號","OBJECTID":527740},"geometry":{"x":179669.00999999885,"y":2575163.9600000028}},{"attributes":{"ID":527768,"DIS_CODE":0,"TOWNNAME":"柳營區","LI":"光福里","LIN":"6鄰","STREET":"柳營路","SECT":"二段","MAREA":" ","LANE":" ","ALLEY":" ","HOUSE_NO":"８號","E_COORD97":179684.91,"N_COORD97":2575112.46,"ADDRESS":"柳營路二段８號","OBJECTID":527741},"geometry":{"x":179684.91000000015,"y":2575112.4600000028}},{"attributes":{"ID":527769,"DIS_CODE":0,"TOWNNAME":"柳營區","LI":"士林里","LIN":"6鄰","STREET":"博愛街","SECT":" ","MAREA":" ","LANE":" ","ALLEY":" ","HOUSE_NO":"４２號","E_COORD97":179471.12,"N_COORD97":2575228.9900000002,"ADDRESS":"博愛街４２號","OBJECTID":527742},"geometry":{"x":179471.12000000104,"y":2575228.9900000002}},{"attributes":{"ID":527770,"DIS_CODE":0,"TOWNNAME":"柳營區","LI":"大農里","LIN":"6鄰","STREET":"義士路","SECT":"一段","MAREA":" ","LANE":" ","ALLEY":" ","HOUSE_NO":"２９７號","E_COORD97":186267.01000000001,"N_COORD97":2575739.8199999998,"ADDRESS":"義士路一段２９７號","OBJECTID":527743},"geometry":{"x":186267.01000000071,"y":2575739.8200000022}},{"attributes":{"ID":527771,"DIS_CODE":0,"TOWNNAME":"柳營區","LI":"大農里","LIN":"6鄰","STREET":"義士路","SECT":"一段","MAREA":" ","LANE":" ","ALLEY":" ","HOUSE_NO":"２９９號","E_COORD97":186237.92999999999,"N_COORD97":2575756.23,"ADDRESS":"義士路一段２９９號","OBJECTID":527744},"geometry":{"x":186237.9299999997,"y":2575756.2300000004}},{"attributes":{"ID":527772,"DIS_CODE":0,"TOWNNAME":"柳營區","LI":"大農里","LIN":"6鄰","STREET":"義士路","SECT":"一段","MAREA":" ","LANE":" ","ALLEY":" ","HOUSE_NO":"３０１號","E_COORD97":186233.48999999999,"N_COORD97":2575754.48,"ADDRESS":"義士路一段３０１號","OBJECTID":527745},"geometry":{"x":186233.49000000209,"y":2575754.4800000004}},{"attributes":{"ID":527773,"DIS_CODE":0,"TOWNNAME":"柳營區","LI":"大農里","LIN":"6鄰","STREET":"義士路","SECT":"一段","MAREA":" ","LANE":" ","ALLEY":" ","HOUSE_NO":"３０３號","E_COORD97":186228.45000000001,"N_COORD97":2575752.3799999999,"ADDRESS":"義士路一段３０３號","OBJECTID":527746},"geometry":{"x":186228.45000000019,"y":2575752.3800000008}},{"attributes":{"ID":527774,"DIS_CODE":0,"TOWNNAME":"柳營區","LI":"大農里","LIN":"6鄰","STREET":"義士路","SECT":"一段","MAREA":" ","LANE":" ","ALLEY":" ","HOUSE_NO":"３０５號","E_COORD97":186224.04999999999,"N_COORD97":2575750.8300000001,"ADDRESS":"義士路一段３０５號","OBJECTID":527747},"geometry":{"x":186224.04999999888,"y":2575750.8300000019}},{"attributes":{"ID":527775,"DIS_CODE":0,"TOWNNAME":"柳營區","LI":"大農里","LIN":"6鄰","STREET":"義士路","SECT":"一段","MAREA":" ","LANE":" ","ALLEY":" ","HOUSE_NO":"３１１號","E_COORD97":186210.07000000001,"N_COORD97":2575737.9900000002,"ADDRESS":"義士路一段３１１號","OBJECTID":527748},"geometry":{"x":186210.07000000123,"y":2575737.9899999984}},{"attributes":{"ID":527776,"DIS_CODE":0,"TOWNNAME":"柳營區","LI":"大農里","LIN":"6鄰","STREET":"義士路","SECT":"一段","MAREA":" ","LANE":" ","ALLEY":" ","HOUSE_NO":"３１３號","E_COORD97":186204.39999999999,"N_COORD97":2575733.71,"ADDRESS":"義士路一段３１３號","OBJECTID":527749},"geometry":{"x":186204.4000000013,"y":2575733.709999999}},{"attributes":{"ID":527777,"DIS_CODE":0,"TOWNNAME":"柳營區","LI":"大農里","LIN":"6鄰","STREET":"義士路","SECT":"一段","MAREA":" ","LANE":" ","ALLEY":" ","HOUSE_NO":"３１５號","E_COORD97":186198.39000000001,"N_COORD97":2575729.4500000002,"ADDRESS":"義士路一段３１５號","OBJECTID":527750},"geometry":{"x":186198.3900000006,"y":2575729.4499999993}},{"attributes":{"ID":527778,"DIS_CODE":0,"TOWNNAME":"柳營區","LI":"光福里","LIN":"6鄰","STREET":"福安一街","SECT":" ","MAREA":" ","LANE":" ","ALLEY":" ","HOUSE_NO":"２９號","E_COORD97":179727.47,"N_COORD97":2575124.0099999998,"ADDRESS":"福安一街２９號","OBJECTID":527751},"geometry":{"x":179727.47000000067,"y":2575124.0100000035}},{"attributes":{"ID":527779,"DIS_CODE":0,"TOWNNAME":"柳營區","LI":"光福里","LIN":"6鄰","STREET":"福安二街","SECT":" ","MAREA":" ","LANE":" ","ALLEY":" ","HOUSE_NO":"５３號","E_COORD97":179691.47,"N_COORD97":2575171.0800000001,"ADDRESS":"福安二街５３號","OBJECTID":527752},"geometry":{"x":179691.4700000016,"y":2575171.0800000038}},{"attributes":{"ID":527780,"DIS_CODE":0,"TOWNNAME":"柳營區","LI":"光福里","LIN":"6鄰","STREET":"福安二街","SECT":" ","MAREA":" ","LANE":" ","ALLEY":" ","HOUSE_NO":"５５號","E_COORD97":179687.82999999999,"N_COORD97":2575170.75,"ADDRESS":"福安二街５５號","OBJECTID":527753},"geometry":{"x":179687.83000000101,"y":2575170.7500000019}},{"attributes":{"ID":527781,"DIS_CODE":0,"TOWNNAME":"柳營區","LI":"光福里","LIN":"6鄰","STREET":"福安二街","SECT":" ","MAREA":" ","LANE":" ","ALLEY":" ","HOUSE_NO":"５７號","E_COORD97":179683.85999999999,"N_COORD97":2575169.8599999999,"ADDRESS":"福安二街５７號","OBJECTID":527754},"geometry":{"x":179683.86000000034,"y":2575169.8600000013}},{"attributes":{"ID":527782,"DIS_CODE":0,"TOWNNAME":"柳營區","LI":"光福里","LIN":"6鄰","STREET":"福安二街","SECT":" ","MAREA":" ","LANE":" ","ALLEY":" ","HOUSE_NO":"５９號","E_COORD97":179679.5,"N_COORD97":2575169.1499999999,"ADDRESS":"福安二街５９號","OBJECTID":527755},"geometry":{"x":179679.50000000186,"y":2575169.1500000022}},{"attributes":{"ID":527783,"DIS_CODE":0,"TOWNNAME":"柳營區","LI":"光福里","LIN":"6鄰","STREET":"福德二街","SECT":" ","MAREA":" ","LANE":" ","ALLEY":" ","HOUSE_NO":"３之１號","E_COORD97":179750.16,"N_COORD97":2575109.3100000001,"ADDRESS":"福德二街３之１號","OBJECTID":527756},"geometry":{"x":179750.16000000108,"y":2575109.3100000042}},{"attributes":{"ID":527784,"DIS_CODE":0,"TOWNNAME":"柳營區","LI":"光福里","LIN":"6鄰","STREET":"福德二街","SECT":" ","MAREA":" ","LANE":" ","ALLEY":" ","HOUSE_NO":"３號","E_COORD97":179753.67999999999,"N_COORD97":2575102.8700000001,"ADDRESS":"福德二街３號","OBJECTID":527757},"geometry":{"x":179753.6799999997,"y":2575102.8700000029}},{"attributes":{"ID":527785,"DIS_CODE":0,"TOWNNAME":"柳營區","LI":"光福里","LIN":"6鄰","STREET":"福德二街","SECT":" ","MAREA":" ","LANE":" ","ALLEY":" ","HOUSE_NO":"５號","E_COORD97":179749.20999999999,"N_COORD97":2575116.04,"ADDRESS":"福德二街５號","OBJECTID":527758},"geometry":{"x":179749.20999999903,"y":2575116.0399999972}},{"attributes":{"ID":527786,"DIS_CODE":0,"TOWNNAME":"柳營區","LI":"光福里","LIN":"6鄰","STREET":"福德二街","SECT":" ","MAREA":" ","LANE":" ","ALLEY":" ","HOUSE_NO":"７號","E_COORD97":179746.91,"N_COORD97":2575124.2799999998,"ADDRESS":"福德二街７號","OBJECTID":527759},"geometry":{"x":179746.91000000108,"y":2575124.2799999993}},{"attributes":{"ID":527787,"DIS_CODE":0,"TOWNNAME":"柳營區","LI":"光福里","LIN":"6鄰","STREET":"福德三街","SECT":" ","MAREA":" ","LANE":" ","ALLEY":" ","HOUSE_NO":"１０號","E_COORD97":179721.17999999999,"N_COORD97":2575115.3100000001,"ADDRESS":"福德三街１０號","OBJECTID":527760},"geometry":{"x":179721.18000000063,"y":2575115.3100000005}},{"attributes":{"ID":527788,"DIS_CODE":0,"TOWNNAME":"柳營區","LI":"光福里","LIN":"6鄰","STREET":"福德三街","SECT":" ","MAREA":" ","LANE":" ","ALLEY":" ","HOUSE_NO":"１２號","E_COORD97":179719.73999999999,"N_COORD97":2575122.3599999999,"ADDRESS":"福德三街１２號","OBJECTID":527761},"geometry":{"x":179719.74000000022,"y":2575122.3600000013}},{"attributes":{"ID":527789,"DIS_CODE":0,"TOWNNAME":"柳營區","LI":"光福里","LIN":"6鄰","STREET":"福德三街","SECT":" ","MAREA":" ","LANE":" ","ALLEY":" ","HOUSE_NO":"１８號","E_COORD97":179715.92000000001,"N_COORD97":2575142.46,"ADDRESS":"福德三街１８號","OBJECTID":527762},"geometry":{"x":179715.92000000086,"y":2575142.4600000046}},{"attributes":{"ID":527790,"DIS_CODE":0,"TOWNNAME":"柳營區","LI":"光福里","LIN":"6鄰","STREET":"福德三街","SECT":" ","MAREA":" ","LANE":" ","ALLEY":" ","HOUSE_NO":"６號","E_COORD97":179724.06,"N_COORD97":2575101.2200000002,"ADDRESS":"福德三街６號","OBJECTID":527763},"geometry":{"x":179724.05999999959,"y":2575101.2200000025}},{"attributes":{"ID":527791,"DIS_CODE":0,"TOWNNAME":"柳營區","LI":"光福里","LIN":"6鄰","STREET":"福德三街","SECT":" ","MAREA":" ","LANE":" ","ALLEY":" ","HOUSE_NO":"８號","E_COORD97":179722.62,"N_COORD97":2575108.27,"ADDRESS":"福德三街８號","OBJECTID":527764},"geometry":{"x":179722.62000000011,"y":2575108.2700000033}},{"attributes":{"ID":527792,"DIS_CODE":0,"TOWNNAME":"柳營區","LI":"人和里","LIN":"6鄰","STREET":"雙和路","SECT":" ","MAREA":" ","LANE":" ","ALLEY":" ","HOUSE_NO":"３３８之１０號","E_COORD97":179166.57999999999,"N_COORD97":2576667.8300000001,"ADDRESS":"雙和路３３８之１０號","OBJECTID":527765},"geometry":{"x":179166.58000000007,"y":2576667.8299999982}},{"attributes":{"ID":527793,"DIS_CODE":0,"TOWNNAME":"柳營區","LI":"人和里","LIN":"6鄰","STREET":"雙和路","SECT":" ","MAREA":" ","LANE":" ","ALLEY":" ","HOUSE_NO":"３３８之１１號","E_COORD97":179183.22,"N_COORD97":2576690.0600000001,"ADDRESS":"雙和路３３８之１１號","OBJECTID":527766},"geometry":{"x":179183.22000000067,"y":2576690.0600000005}},{"attributes":{"ID":527794,"DIS_CODE":0,"TOWNNAME":"柳營區","LI":"人和里","LIN":"6鄰","STREET":"雙和路","SECT":" ","MAREA":" ","LANE":" ","ALLEY":" ","HOUSE_NO":"３３８之１２號","E_COORD97":179200,"N_COORD97":2576689.46,"ADDRESS":"雙和路３３８之１２號","OBJECTID":527767},"geometry":{"x":179200.00000000093,"y":2576689.4600000028}},{"attributes":{"ID":527795,"DIS_CODE":0,"TOWNNAME":"柳營區","LI":"人和里","LIN":"6鄰","STREET":"雙和路","SECT":" ","MAREA":" ","LANE":" ","ALLEY":" ","HOUSE_NO":"３３８之１號","E_COORD97":179252.91,"N_COORD97":2576662.3500000001,"ADDRESS":"雙和路３３８之１號","OBJECTID":527768},"geometry":{"x":179252.91000000015,"y":2576662.3500000015}},{"attributes":{"ID":527796,"DIS_CODE":0,"TOWNNAME":"柳營區","LI":"人和里","LIN":"6鄰","STREET":"雙和路","SECT":" ","MAREA":" ","LANE":" ","ALLEY":" ","HOUSE_NO":"３３８之２號","E_COORD97":179237.04000000001,"N_COORD97":2576662.54,"ADDRESS":"雙和路３３８之２號","OBJECTID":527769},"geometry":{"x":179237.04000000097,"y":2576662.540000001}},{"attributes":{"ID":527797,"DIS_CODE":0,"TOWNNAME":"柳營區","LI":"人和里","LIN":"6鄰","STREET":"雙和路","SECT":" ","MAREA":" ","LANE":" ","ALLEY":" ","HOUSE_NO":"３３８之３號","E_COORD97":179224.31,"N_COORD97":2576710.2000000002,"ADDRESS":"雙和路３３８之３號","OBJECTID":527770},"geometry":{"x":179224.30999999866,"y":2576710.2000000011}},{"attributes":{"ID":527798,"DIS_CODE":0,"TOWNNAME":"柳營區","LI":"人和里","LIN":"6鄰","STREET":"雙和路","SECT":" ","MAREA":" ","LANE":" ","ALLEY":" ","HOUSE_NO":"３３８之８號","E_COORD97":179197.92000000001,"N_COORD97":2576666.25,"ADDRESS":"雙和路３３８之８號","OBJECTID":527771},"geometry":{"x":179197.91999999993,"y":2576666.2500000019}},{"attributes":{"ID":527799,"DIS_CODE":0,"TOWNNAME":"柳營區","LI":"人和里","LIN":"6鄰","STREET":"雙和路","SECT":" ","MAREA":" ","LANE":" ","ALLEY":" ","HOUSE_NO":"３３８之９號","E_COORD97":179180.78,"N_COORD97":2576667.6499999999,"ADDRESS":"雙和路３３８之９號","OBJECTID":527772},"geometry":{"x":179180.78000000026,"y":2576667.6500000022}},{"attributes":{"ID":527800,"DIS_CODE":0,"TOWNNAME":"柳營區","LI":"人和里","LIN":"6鄰","STREET":"雙和路","SECT":" ","MAREA":" ","LANE":" ","ALLEY":" ","HOUSE_NO":"３４８號","E_COORD97":179260.94,"N_COORD97":2576630.3799999999,"ADDRESS":"雙和路３４８號","OBJECTID":527773},"geometry":{"x":179260.94000000041,"y":2576630.3800000008}},{"attributes":{"ID":527801,"DIS_CODE":0,"TOWNNAME":"柳營區","LI":"人和里","LIN":"6鄰","STREET":"雙和路","SECT":" ","MAREA":" ","LANE":" ","ALLEY":" ","HOUSE_NO":"３６６號","E_COORD97":179232.13,"N_COORD97":2576609.7999999998,"ADDRESS":"雙和路３６６號","OBJECTID":527774},"geometry":{"x":179232.12999999989,"y":2576609.8000000007}},{"attributes":{"ID":527802,"DIS_CODE":0,"TOWNNAME":"柳營區","LI":"人和里","LIN":"6鄰","STREET":"雙和路","SECT":" ","MAREA":" ","LANE":" ","ALLEY":" ","HOUSE_NO":"４０８之１號","E_COORD97":179092.19,"N_COORD97":2576584.6099999999,"ADDRESS":"雙和路４０８之１號","OBJECTID":527775},"geometry":{"x":179092.19000000227,"y":2576584.6100000013}},{"attributes":{"ID":527803,"DIS_CODE":0,"TOWNNAME":"柳營區","LI":"人和里","LIN":"6鄰","STREET":"雙和路","SECT":" ","MAREA":" ","LANE":" ","ALLEY":" ","HOUSE_NO":"４０８號","E_COORD97":179161.04000000001,"N_COORD97":2576554.8599999999,"ADDRESS":"雙和路４０８號","OBJECTID":527776},"geometry":{"x":179161.04000000097,"y":2576554.8599999994}},{"attributes":{"ID":527804,"DIS_CODE":0,"TOWNNAME":"柳營區","LI":"人和里","LIN":"6鄰","STREET":"雙和路","SECT":" ","MAREA":" ","LANE":" ","ALLEY":" ","HOUSE_NO":"６５９號","E_COORD97":178752.42999999999,"N_COORD97":2576017.0699999998,"ADDRESS":"雙和路６５９號","OBJECTID":527777},"geometry":{"x":178752.43000000156,"y":2576017.0700000022}},{"attributes":{"ID":527805,"DIS_CODE":0,"TOWNNAME":"柳營區","LI":"人和里","LIN":"6鄰","STREET":"雙和路","SECT":" ","MAREA":" ","LANE":" ","ALLEY":" ","HOUSE_NO":"６７８號","E_COORD97":178892.10000000001,"N_COORD97":2576277.0099999998,"ADDRESS":"雙和路６７８號","OBJECTID":527778},"geometry":{"x":178892.10000000056,"y":2576277.0100000016}},{"attributes":{"ID":527806,"DIS_CODE":0,"TOWNNAME":"柳營區","LI":"人和里","LIN":"6鄰","STREET":"雙和路","SECT":" ","MAREA":" ","LANE":" ","ALLEY":" ","HOUSE_NO":"７３８號","E_COORD97":178828.88,"N_COORD97":2576189.7599999998,"ADDRESS":"雙和路７３８號","OBJECTID":527779},"geometry":{"x":178828.87999999989,"y":2576189.7599999998}},{"attributes":{"ID":527807,"DIS_CODE":0,"TOWNNAME":"柳營區","LI":"人和里","LIN":"6鄰","STREET":"雙和路","SECT":" ","MAREA":" ","LANE":" ","ALLEY":" ","HOUSE_NO":"７６２號","E_COORD97":178798.17000000001,"N_COORD97":2576128.2799999998,"ADDRESS":"雙和路７６２號","OBJECTID":527780},"geometry":{"x":178798.16999999993,"y":2576128.2799999975}},{"attributes":{"ID":527808,"DIS_CODE":0,"TOWNNAME":"北區","LI":"實踐里","LIN":"6鄰","STREET":"北門路","SECT":"三段","MAREA":" ","LANE":" ","ALLEY":" ","HOUSE_NO":"３２之１號","E_COORD97":169781.48999999999,"N_COORD97":2546025.0899999999,"ADDRESS":"北門路三段３２之１號","OBJECTID":527781},"geometry":{"x":169781.49000000022,"y":2546025.0900000017}},{"attributes":{"ID":527809,"DIS_CODE":0,"TOWNNAME":"北區","LI":"興南里","LIN":"6鄰","STREET":"公園路","SECT":" ","MAREA":" ","LANE":" ","ALLEY":" ","HOUSE_NO":"３２７號","E_COORD97":169070.23000000001,"N_COORD97":2544982.7400000002,"ADDRESS":"公園路３２７號","OBJECTID":527782},"geometry":{"x":169070.23000000138,"y":2544982.7400000021}},{"attributes":{"ID":527810,"DIS_CODE":0,"TOWNNAME":"北區","LI":"興南里","LIN":"6鄰","STREET":"公園路","SECT":" ","MAREA":" ","LANE":" ","ALLEY":" ","HOUSE_NO":"３２７號之１","E_COORD97":169070.87,"N_COORD97":2544986.4399999999,"ADDRESS":"公園路３２７號之１","OBJECTID":527783},"geometry":{"x":169070.87000000104,"y":2544986.4399999995}},{"attributes":{"ID":527811,"DIS_CODE":0,"TOWNNAME":"北區","LI":"興南里","LIN":"6鄰","STREET":"公園路","SECT":" ","MAREA":" ","LANE":" ","ALLEY":" ","HOUSE_NO":"３２７號之２","E_COORD97":169071.19,"N_COORD97":2544991.1000000001,"ADDRESS":"公園路３２７號之２","OBJECTID":527784},"geometry":{"x":169071.19000000041,"y":2544991.1000000015}},{"attributes":{"ID":527812,"DIS_CODE":0,"TOWNNAME":"北區","LI":"興南里","LIN":"6鄰","STREET":"公園路","SECT":" ","MAREA":" ","LANE":" ","ALLEY":" ","HOUSE_NO":"３２９號","E_COORD97":169076.79000000001,"N_COORD97":2544995.0299999998,"ADDRESS":"公園路３２９號","OBJECTID":527785},"geometry":{"x":169076.79000000004,"y":2544995.0299999993}},{"attributes":{"ID":527813,"DIS_CODE":0,"TOWNNAME":"北區","LI":"中樓里","LIN":"6鄰","STREET":"東豐路","SECT":" ","MAREA":" ","LANE":" ","ALLEY":" ","HOUSE_NO":"５１號","E_COORD97":169565.16,"N_COORD97":2544953.73,"ADDRESS":"東豐路５１號","OBJECTID":527786},"geometry":{"x":169565.16000000201,"y":2544953.7300000023}},{"attributes":{"ID":527814,"DIS_CODE":0,"TOWNNAME":"歸仁區","LI":"大潭里","LIN":"6鄰","STREET":"中正南路","SECT":"三段","MAREA":" ","LANE":" ","ALLEY":" ","HOUSE_NO":"２８５號","E_COORD97":175133.51000000001,"N_COORD97":2534649.2799999998,"ADDRESS":"中正南路三段２８５號","OBJECTID":527787},"geometry":{"x":175133.51000000071,"y":2534649.2799999993}},{"attributes":{"ID":527815,"DIS_CODE":0,"TOWNNAME":"歸仁區","LI":"大廟里","LIN":"6鄰","STREET":"大廟一街","SECT":" ","MAREA":" ","LANE":" ","ALLEY":" ","HOUSE_NO":"１９１號","E_COORD97":175640.62,"N_COORD97":2543716.25,"ADDRESS":"大廟一街１９１號","OBJECTID":527788},"geometry":{"x":175640.62000000011,"y":2543716.25}},{"attributes":{"ID":527816,"DIS_CODE":0,"TOWNNAME":"歸仁區","LI":"文化里","LIN":"6鄰","STREET":"國光街","SECT":" ","MAREA":" ","LANE":" ","ALLEY":" ","HOUSE_NO":"１９３號","E_COORD97":177343.06,"N_COORD97":2541350.3300000001,"ADDRESS":"國光街１９３號","OBJECTID":527789},"geometry":{"x":177343.06000000052,"y":2541350.3299999982}},{"attributes":{"ID":527817,"DIS_CODE":0,"TOWNNAME":"歸仁區","LI":"八甲里","LIN":"6鄰","STREET":"大光一街","SECT":" ","MAREA":" ","LANE":" ","ALLEY":" ","HOUSE_NO":"２８號","E_COORD97":177860.92000000001,"N_COORD97":2541699.6099999999,"ADDRESS":"大光一街２８號","OBJECTID":527790},"geometry":{"x":177860.91999999993,"y":2541699.6099999994}},{"attributes":{"ID":527818,"DIS_CODE":0,"TOWNNAME":"歸仁區","LI":"文化里","LIN":"6鄰","STREET":"民權一街","SECT":" ","MAREA":" ","LANE":" ","ALLEY":" ","HOUSE_NO":"１０１號","E_COORD97":177321.79999999999,"N_COORD97":2541353.3300000001,"ADDRESS":"民權一街１０１號","OBJECTID":527791},"geometry":{"x":177321.80000000075,"y":2541353.3300000001}},{"attributes":{"ID":527819,"DIS_CODE":0,"TOWNNAME":"歸仁區","LI":"文化里","LIN":"6鄰","STREET":"文化北街","SECT":" ","MAREA":" ","LANE":" ","ALLEY":" ","HOUSE_NO":"９５號","E_COORD97":177234.56,"N_COORD97":2541398.3399999999,"ADDRESS":"文化北街９５號","OBJECTID":527792},"geometry":{"x":177234.56000000052,"y":2541398.3400000017}},{"attributes":{"ID":527820,"DIS_CODE":0,"TOWNNAME":"歸仁區","LI":"文化里","LIN":"6鄰","STREET":"民權一街","SECT":" ","MAREA":" ","LANE":" ","ALLEY":" ","HOUSE_NO":"８３號","E_COORD97":177280.54999999999,"N_COORD97":2541356.3300000001,"ADDRESS":"民權一街８３號","OBJECTID":527793},"geometry":{"x":177280.55000000075,"y":2541356.3300000001}},{"attributes":{"ID":527821,"DIS_CODE":0,"TOWNNAME":"歸仁區","LI":"大潭里","LIN":"6鄰","STREET":"大潭一街","SECT":" ","MAREA":" ","LANE":" ","ALLEY":" ","HOUSE_NO":"２６號","E_COORD97":175213.07000000001,"N_COORD97":2534670.25,"ADDRESS":"大潭一街２６號","OBJECTID":527794},"geometry":{"x":175213.07000000123,"y":2534670.25}},{"attributes":{"ID":527822,"DIS_CODE":0,"TOWNNAME":"歸仁區","LI":"大廟里","LIN":"6鄰","STREET":"和順路","SECT":"二段","MAREA":" ","LANE":" ","ALLEY":" ","HOUSE_NO":"２２０號","E_COORD97":175925.34,"N_COORD97":2543622.2799999998,"ADDRESS":"和順路二段２２０號","OBJECTID":527795},"geometry":{"x":175925.33999999985,"y":2543622.2800000012}},{"attributes":{"ID":527823,"DIS_CODE":0,"TOWNNAME":"歸仁區","LI":"文化里","LIN":"6鄰","STREET":"文化北街","SECT":" ","MAREA":" ","LANE":" ","ALLEY":" ","HOUSE_NO":"９７號","E_COORD97":177229.45999999999,"N_COORD97":2541399.3399999999,"ADDRESS":"文化北街９７號","OBJECTID":527796},"geometry":{"x":177229.45999999996,"y":2541399.3399999999}},{"attributes":{"ID":527824,"DIS_CODE":0,"TOWNNAME":"歸仁區","LI":"八甲里","LIN":"6鄰","STREET":"大光一街","SECT":" ","MAREA":" ","LANE":" ","ALLEY":" ","HOUSE_NO":"３６號","E_COORD97":177855.92000000001,"N_COORD97":2541724.6099999999,"ADDRESS":"大光一街３６號","OBJECTID":527797},"geometry":{"x":177855.91999999899,"y":2541724.6100000013}},{"attributes":{"ID":527825,"DIS_CODE":0,"TOWNNAME":"歸仁區","LI":"文化里","LIN":"6鄰","STREET":"文化北街","SECT":" ","MAREA":" ","LANE":" ","ALLEY":" ","HOUSE_NO":"８９號","E_COORD97":177246.85999999999,"N_COORD97":2541397.3399999999,"ADDRESS":"文化北街８９號","OBJECTID":527798},"geometry":{"x":177246.86000000127,"y":2541397.3399999999}},{"attributes":{"ID":527826,"DIS_CODE":0,"TOWNNAME":"歸仁區","LI":"大廟里","LIN":"6鄰","STREET":"大廟二街","SECT":" ","MAREA":" ","LANE":" ","ALLEY":" ","HOUSE_NO":"１１８號","E_COORD97":175980.51999999999,"N_COORD97":2543842.25,"ADDRESS":"大廟二街１１８號","OBJECTID":527799},"geometry":{"x":175980.52000000048,"y":2543842.25}},{"attributes":{"ID":527827,"DIS_CODE":0,"TOWNNAME":"歸仁區","LI":"文化里","LIN":"6鄰","STREET":"民權一街","SECT":" ","MAREA":" ","LANE":" ","ALLEY":" ","HOUSE_NO":"８５號","E_COORD97":177283.54999999999,"N_COORD97":2541356.3300000001,"ADDRESS":"民權一街８５號","OBJECTID":527800},"geometry":{"x":177283.54999999981,"y":2541356.3300000001}}]}