{"displayFieldName":"TOWNNAME","fieldAliases":{"ID":"ID","DIS_CODE":"DIS_CODE","TOWNNAME":"TOWNNAME","LI":"LI","LIN":"LIN","STREET":"STREET","SECT":"SECT","MAREA":"MAREA","LANE":"LANE","ALLEY":"ALLEY","HOUSE_NO":"HOUSE_NO","E_COORD97":"E_COORD97","N_COORD97":"N_COORD97","ADDRESS":"ADDRESS","OBJECTID":"OBJECTID"},"geometryType":"esriGeometryPoint","spatialReference":{"wkid":102443,"latestWkid":3826},"fields":[{"name":"ID","type":"esriFieldTypeDouble","alias":"ID"},{"name":"DIS_CODE","type":"esriFieldTypeInteger","alias":"DIS_CODE"},{"name":"TOWNNAME","type":"esriFieldTypeString","alias":"TOWNNAME","length":8},{"name":"LI","type":"esriFieldTypeString","alias":"LI","length":8},{"name":"LIN","type":"esriFieldTypeString","alias":"LIN","length":12},{"name":"STREET","type":"esriFieldTypeString","alias":"STREET","length":20},{"name":"SECT","type":"esriFieldTypeString","alias":"SECT","length":8},{"name":"MAREA","type":"esriFieldTypeString","alias":"MAREA","length":12},{"name":"LANE","type":"esriFieldTypeString","alias":"LANE","length":10},{"name":"ALLEY","type":"esriFieldTypeString","alias":"ALLEY","length":10},{"name":"HOUSE_NO","type":"esriFieldTypeString","alias":"HOUSE_NO","length":20},{"name":"E_COORD97","type":"esriFieldTypeDouble","alias":"E_COORD97"},{"name":"N_COORD97","type":"esriFieldTypeDouble","alias":"N_COORD97"},{"name":"ADDRESS","type":"esriFieldTypeString","alias":"ADDRESS","length":50},{"name":"OBJECTID","type":"esriFieldTypeOID","alias":"OBJECTID"}],"features":[{"attributes":{"ID":591828,"DIS_CODE":0,"TOWNNAME":"東區","LI":"莊敬里","LIN":"11鄰","STREET":"中華東路","SECT":"一段","MAREA":" ","LANE":" ","ALLEY":" ","HOUSE_NO":"１２號十一樓之８","E_COORD97":171508.60000000001,"N_COORD97":2544229.4100000001,"ADDRESS":"中華東路一段１２號十一樓之８","OBJECTID":591801},"geometry":{"x":171508.59999999963,"y":2544229.410000002}},{"attributes":{"ID":591829,"DIS_CODE":0,"TOWNNAME":"東區","LI":"莊敬里","LIN":"11鄰","STREET":"中華東路","SECT":"一段","MAREA":" ","LANE":" ","ALLEY":" ","HOUSE_NO":"１２號五樓之９","E_COORD97":171508.60000000001,"N_COORD97":2544229.4100000001,"ADDRESS":"中華東路一段１２號五樓之９","OBJECTID":591802},"geometry":{"x":171508.59999999963,"y":2544229.410000002}},{"attributes":{"ID":591830,"DIS_CODE":0,"TOWNNAME":"東區","LI":"莊敬里","LIN":"11鄰","STREET":"中華東路","SECT":"一段","MAREA":" ","LANE":" ","ALLEY":" ","HOUSE_NO":"１２號十四樓之８","E_COORD97":171508.60000000001,"N_COORD97":2544229.4100000001,"ADDRESS":"中華東路一段１２號十四樓之８","OBJECTID":591803},"geometry":{"x":171508.59999999963,"y":2544229.410000002}},{"attributes":{"ID":591831,"DIS_CODE":0,"TOWNNAME":"東區","LI":"莊敬里","LIN":"11鄰","STREET":"中華東路","SECT":"一段","MAREA":" ","LANE":" ","ALLEY":" ","HOUSE_NO":"１２號十一樓之７","E_COORD97":171508.60000000001,"N_COORD97":2544229.4100000001,"ADDRESS":"中華東路一段１２號十一樓之７","OBJECTID":591804},"geometry":{"x":171508.59999999963,"y":2544229.410000002}},{"attributes":{"ID":591832,"DIS_CODE":0,"TOWNNAME":"東區","LI":"莊敬里","LIN":"11鄰","STREET":"中華東路","SECT":"一段","MAREA":" ","LANE":" ","ALLEY":" ","HOUSE_NO":"１２號五樓之７","E_COORD97":171508.60000000001,"N_COORD97":2544229.4100000001,"ADDRESS":"中華東路一段１２號五樓之７","OBJECTID":591805},"geometry":{"x":171508.59999999963,"y":2544229.410000002}},{"attributes":{"ID":591833,"DIS_CODE":0,"TOWNNAME":"東區","LI":"莊敬里","LIN":"11鄰","STREET":"中華東路","SECT":"一段","MAREA":" ","LANE":" ","ALLEY":" ","HOUSE_NO":"１２號七樓之８","E_COORD97":171508.60000000001,"N_COORD97":2544229.4100000001,"ADDRESS":"中華東路一段１２號七樓之８","OBJECTID":591806},"geometry":{"x":171508.59999999963,"y":2544229.410000002}},{"attributes":{"ID":591834,"DIS_CODE":0,"TOWNNAME":"東區","LI":"莊敬里","LIN":"11鄰","STREET":"中華東路","SECT":"一段","MAREA":" ","LANE":" ","ALLEY":" ","HOUSE_NO":"１２號九樓之７","E_COORD97":171508.60000000001,"N_COORD97":2544229.4100000001,"ADDRESS":"中華東路一段１２號九樓之７","OBJECTID":591807},"geometry":{"x":171508.59999999963,"y":2544229.410000002}},{"attributes":{"ID":591835,"DIS_CODE":0,"TOWNNAME":"東區","LI":"莊敬里","LIN":"11鄰","STREET":"中華東路","SECT":"一段","MAREA":" ","LANE":" ","ALLEY":" ","HOUSE_NO":"１２號八樓之８","E_COORD97":171508.60000000001,"N_COORD97":2544229.4100000001,"ADDRESS":"中華東路一段１２號八樓之８","OBJECTID":591808},"geometry":{"x":171508.59999999963,"y":2544229.410000002}},{"attributes":{"ID":591836,"DIS_CODE":0,"TOWNNAME":"東區","LI":"莊敬里","LIN":"11鄰","STREET":"中華東路","SECT":"一段","MAREA":" ","LANE":" ","ALLEY":" ","HOUSE_NO":"１２號十三樓之６","E_COORD97":171508.60000000001,"N_COORD97":2544229.4100000001,"ADDRESS":"中華東路一段１２號十三樓之６","OBJECTID":591809},"geometry":{"x":171508.59999999963,"y":2544229.410000002}},{"attributes":{"ID":591837,"DIS_CODE":0,"TOWNNAME":"東區","LI":"莊敬里","LIN":"11鄰","STREET":"中華東路","SECT":"一段","MAREA":" ","LANE":" ","ALLEY":" ","HOUSE_NO":"１２號三樓之７","E_COORD97":171508.60000000001,"N_COORD97":2544229.4100000001,"ADDRESS":"中華東路一段１２號三樓之７","OBJECTID":591810},"geometry":{"x":171508.59999999963,"y":2544229.410000002}},{"attributes":{"ID":591838,"DIS_CODE":0,"TOWNNAME":"東區","LI":"莊敬里","LIN":"11鄰","STREET":"中華東路","SECT":"一段","MAREA":" ","LANE":" ","ALLEY":" ","HOUSE_NO":"１２號六樓之７","E_COORD97":171508.60000000001,"N_COORD97":2544229.4100000001,"ADDRESS":"中華東路一段１２號六樓之７","OBJECTID":591811},"geometry":{"x":171508.59999999963,"y":2544229.410000002}},{"attributes":{"ID":591839,"DIS_CODE":0,"TOWNNAME":"東區","LI":"莊敬里","LIN":"11鄰","STREET":"中華東路","SECT":"一段","MAREA":" ","LANE":" ","ALLEY":" ","HOUSE_NO":"１２號七樓之７","E_COORD97":171508.60000000001,"N_COORD97":2544229.4100000001,"ADDRESS":"中華東路一段１２號七樓之７","OBJECTID":591812},"geometry":{"x":171508.59999999963,"y":2544229.410000002}},{"attributes":{"ID":591840,"DIS_CODE":0,"TOWNNAME":"東區","LI":"莊敬里","LIN":"11鄰","STREET":"中華東路","SECT":"一段","MAREA":" ","LANE":" ","ALLEY":" ","HOUSE_NO":"１２號十二樓之８","E_COORD97":171508.60000000001,"N_COORD97":2544229.4100000001,"ADDRESS":"中華東路一段１２號十二樓之８","OBJECTID":591813},"geometry":{"x":171508.59999999963,"y":2544229.410000002}},{"attributes":{"ID":591841,"DIS_CODE":0,"TOWNNAME":"東區","LI":"莊敬里","LIN":"11鄰","STREET":"中華東路","SECT":"一段","MAREA":" ","LANE":" ","ALLEY":" ","HOUSE_NO":"１２號十樓之７","E_COORD97":171508.60000000001,"N_COORD97":2544229.4100000001,"ADDRESS":"中華東路一段１２號十樓之７","OBJECTID":591814},"geometry":{"x":171508.59999999963,"y":2544229.410000002}},{"attributes":{"ID":591842,"DIS_CODE":0,"TOWNNAME":"東區","LI":"莊敬里","LIN":"11鄰","STREET":"中華東路","SECT":"一段","MAREA":" ","LANE":" ","ALLEY":" ","HOUSE_NO":"１２號十一樓之６","E_COORD97":171508.60000000001,"N_COORD97":2544229.4100000001,"ADDRESS":"中華東路一段１２號十一樓之６","OBJECTID":591815},"geometry":{"x":171508.59999999963,"y":2544229.410000002}},{"attributes":{"ID":591843,"DIS_CODE":0,"TOWNNAME":"東區","LI":"莊敬里","LIN":"11鄰","STREET":"中華東路","SECT":"一段","MAREA":" ","LANE":" ","ALLEY":" ","HOUSE_NO":"１２號五樓之８","E_COORD97":171508.60000000001,"N_COORD97":2544229.4100000001,"ADDRESS":"中華東路一段１２號五樓之８","OBJECTID":591816},"geometry":{"x":171508.59999999963,"y":2544229.410000002}},{"attributes":{"ID":591844,"DIS_CODE":0,"TOWNNAME":"東區","LI":"莊敬里","LIN":"11鄰","STREET":"中華東路","SECT":"一段","MAREA":" ","LANE":" ","ALLEY":" ","HOUSE_NO":"１２號十四樓之５","E_COORD97":171508.60000000001,"N_COORD97":2544229.4100000001,"ADDRESS":"中華東路一段１２號十四樓之５","OBJECTID":591817},"geometry":{"x":171508.59999999963,"y":2544229.410000002}},{"attributes":{"ID":591845,"DIS_CODE":0,"TOWNNAME":"東區","LI":"莊敬里","LIN":"11鄰","STREET":"中華東路","SECT":"一段","MAREA":" ","LANE":" ","ALLEY":" ","HOUSE_NO":"１２號九樓之５","E_COORD97":171508.60000000001,"N_COORD97":2544229.4100000001,"ADDRESS":"中華東路一段１２號九樓之５","OBJECTID":591818},"geometry":{"x":171508.59999999963,"y":2544229.410000002}},{"attributes":{"ID":591846,"DIS_CODE":0,"TOWNNAME":"東區","LI":"莊敬里","LIN":"11鄰","STREET":"中華東路","SECT":"一段","MAREA":" ","LANE":" ","ALLEY":" ","HOUSE_NO":"１２號四樓之６","E_COORD97":171508.60000000001,"N_COORD97":2544229.4100000001,"ADDRESS":"中華東路一段１２號四樓之６","OBJECTID":591819},"geometry":{"x":171508.59999999963,"y":2544229.410000002}},{"attributes":{"ID":591847,"DIS_CODE":0,"TOWNNAME":"東區","LI":"莊敬里","LIN":"11鄰","STREET":"中華東路","SECT":"一段","MAREA":" ","LANE":" ","ALLEY":" ","HOUSE_NO":"１２號八樓之６","E_COORD97":171508.60000000001,"N_COORD97":2544229.4100000001,"ADDRESS":"中華東路一段１２號八樓之６","OBJECTID":591820},"geometry":{"x":171508.59999999963,"y":2544229.410000002}},{"attributes":{"ID":591848,"DIS_CODE":0,"TOWNNAME":"東區","LI":"莊敬里","LIN":"11鄰","STREET":"中華東路","SECT":"一段","MAREA":" ","LANE":" ","ALLEY":" ","HOUSE_NO":"１２號三樓之５","E_COORD97":171508.60000000001,"N_COORD97":2544229.4100000001,"ADDRESS":"中華東路一段１２號三樓之５","OBJECTID":591821},"geometry":{"x":171508.59999999963,"y":2544229.410000002}},{"attributes":{"ID":591849,"DIS_CODE":0,"TOWNNAME":"東區","LI":"莊敬里","LIN":"11鄰","STREET":"中華東路","SECT":"一段","MAREA":" ","LANE":" ","ALLEY":" ","HOUSE_NO":"１２號十一樓之５","E_COORD97":171508.60000000001,"N_COORD97":2544229.4100000001,"ADDRESS":"中華東路一段１２號十一樓之５","OBJECTID":591822},"geometry":{"x":171508.59999999963,"y":2544229.410000002}},{"attributes":{"ID":591850,"DIS_CODE":0,"TOWNNAME":"東區","LI":"莊敬里","LIN":"11鄰","STREET":"中華東路","SECT":"一段","MAREA":" ","LANE":" ","ALLEY":" ","HOUSE_NO":"１２號五樓之６","E_COORD97":171508.60000000001,"N_COORD97":2544229.4100000001,"ADDRESS":"中華東路一段１２號五樓之６","OBJECTID":591823},"geometry":{"x":171508.59999999963,"y":2544229.410000002}},{"attributes":{"ID":591851,"DIS_CODE":0,"TOWNNAME":"東區","LI":"莊敬里","LIN":"11鄰","STREET":"中華東路","SECT":"一段","MAREA":" ","LANE":" ","ALLEY":" ","HOUSE_NO":"１２號三樓之６","E_COORD97":171508.60000000001,"N_COORD97":2544229.4100000001,"ADDRESS":"中華東路一段１２號三樓之６","OBJECTID":591824},"geometry":{"x":171508.59999999963,"y":2544229.410000002}},{"attributes":{"ID":591852,"DIS_CODE":0,"TOWNNAME":"東區","LI":"莊敬里","LIN":"11鄰","STREET":"中華東路","SECT":"一段","MAREA":" ","LANE":" ","ALLEY":" ","HOUSE_NO":"１２號十二樓之３","E_COORD97":171508.60000000001,"N_COORD97":2544229.4100000001,"ADDRESS":"中華東路一段１２號十二樓之３","OBJECTID":591825},"geometry":{"x":171508.59999999963,"y":2544229.410000002}},{"attributes":{"ID":591853,"DIS_CODE":0,"TOWNNAME":"東區","LI":"莊敬里","LIN":"11鄰","STREET":"中華東路","SECT":"一段","MAREA":" ","LANE":" ","ALLEY":" ","HOUSE_NO":"１２號十二樓之５","E_COORD97":171508.60000000001,"N_COORD97":2544229.4100000001,"ADDRESS":"中華東路一段１２號十二樓之５","OBJECTID":591826},"geometry":{"x":171508.59999999963,"y":2544229.410000002}},{"attributes":{"ID":591854,"DIS_CODE":0,"TOWNNAME":"東區","LI":"莊敬里","LIN":"11鄰","STREET":"中華東路","SECT":"一段","MAREA":" ","LANE":" ","ALLEY":" ","HOUSE_NO":"１２號十樓之３","E_COORD97":171508.60000000001,"N_COORD97":2544229.4100000001,"ADDRESS":"中華東路一段１２號十樓之３","OBJECTID":591827},"geometry":{"x":171508.59999999963,"y":2544229.410000002}},{"attributes":{"ID":591855,"DIS_CODE":0,"TOWNNAME":"東區","LI":"莊敬里","LIN":"11鄰","STREET":"中華東路","SECT":"一段","MAREA":" ","LANE":" ","ALLEY":" ","HOUSE_NO":"１２號十三樓之１","E_COORD97":171508.60000000001,"N_COORD97":2544229.4100000001,"ADDRESS":"中華東路一段１２號十三樓之１","OBJECTID":591828},"geometry":{"x":171508.59999999963,"y":2544229.410000002}},{"attributes":{"ID":591856,"DIS_CODE":0,"TOWNNAME":"東區","LI":"莊敬里","LIN":"11鄰","STREET":"中華東路","SECT":"一段","MAREA":" ","LANE":" ","ALLEY":" ","HOUSE_NO":"１２號五樓之２","E_COORD97":171508.60000000001,"N_COORD97":2544229.4100000001,"ADDRESS":"中華東路一段１２號五樓之２","OBJECTID":591829},"geometry":{"x":171508.59999999963,"y":2544229.410000002}},{"attributes":{"ID":591857,"DIS_CODE":0,"TOWNNAME":"東區","LI":"莊敬里","LIN":"11鄰","STREET":"中華東路","SECT":"一段","MAREA":" ","LANE":" ","ALLEY":" ","HOUSE_NO":"１２號十樓之２","E_COORD97":171508.60000000001,"N_COORD97":2544229.4100000001,"ADDRESS":"中華東路一段１２號十樓之２","OBJECTID":591830},"geometry":{"x":171508.59999999963,"y":2544229.410000002}},{"attributes":{"ID":591858,"DIS_CODE":0,"TOWNNAME":"東區","LI":"莊敬里","LIN":"11鄰","STREET":"中華東路","SECT":"一段","MAREA":" ","LANE":" ","ALLEY":" ","HOUSE_NO":"１２號十二樓之７","E_COORD97":171508.60000000001,"N_COORD97":2544229.4100000001,"ADDRESS":"中華東路一段１２號十二樓之７","OBJECTID":591831},"geometry":{"x":171508.59999999963,"y":2544229.410000002}},{"attributes":{"ID":591859,"DIS_CODE":0,"TOWNNAME":"東區","LI":"莊敬里","LIN":"11鄰","STREET":"中華東路","SECT":"一段","MAREA":" ","LANE":" ","ALLEY":" ","HOUSE_NO":"１２號八樓之１","E_COORD97":171508.60000000001,"N_COORD97":2544229.4100000001,"ADDRESS":"中華東路一段１２號八樓之１","OBJECTID":591832},"geometry":{"x":171508.59999999963,"y":2544229.410000002}},{"attributes":{"ID":591860,"DIS_CODE":0,"TOWNNAME":"東區","LI":"莊敬里","LIN":"11鄰","STREET":"中華東路","SECT":"一段","MAREA":" ","LANE":" ","ALLEY":" ","HOUSE_NO":"１２號三樓之２","E_COORD97":171508.60000000001,"N_COORD97":2544229.4100000001,"ADDRESS":"中華東路一段１２號三樓之２","OBJECTID":591833},"geometry":{"x":171508.59999999963,"y":2544229.410000002}},{"attributes":{"ID":591861,"DIS_CODE":0,"TOWNNAME":"東區","LI":"莊敬里","LIN":"11鄰","STREET":"中華東路","SECT":"一段","MAREA":" ","LANE":" ","ALLEY":" ","HOUSE_NO":"１２號十樓之１","E_COORD97":171508.60000000001,"N_COORD97":2544229.4100000001,"ADDRESS":"中華東路一段１２號十樓之１","OBJECTID":591834},"geometry":{"x":171508.59999999963,"y":2544229.410000002}},{"attributes":{"ID":591862,"DIS_CODE":0,"TOWNNAME":"東區","LI":"莊敬里","LIN":"11鄰","STREET":"中華東路","SECT":"一段","MAREA":" ","LANE":" ","ALLEY":" ","HOUSE_NO":"１２號十一樓之１","E_COORD97":171508.60000000001,"N_COORD97":2544229.4100000001,"ADDRESS":"中華東路一段１２號十一樓之１","OBJECTID":591835},"geometry":{"x":171508.59999999963,"y":2544229.410000002}},{"attributes":{"ID":591863,"DIS_CODE":0,"TOWNNAME":"東區","LI":"莊敬里","LIN":"11鄰","STREET":"中華東路","SECT":"一段","MAREA":" ","LANE":" ","ALLEY":" ","HOUSE_NO":"１２號八樓之２","E_COORD97":171508.60000000001,"N_COORD97":2544229.4100000001,"ADDRESS":"中華東路一段１２號八樓之２","OBJECTID":591836},"geometry":{"x":171508.59999999963,"y":2544229.410000002}},{"attributes":{"ID":591864,"DIS_CODE":0,"TOWNNAME":"東區","LI":"莊敬里","LIN":"11鄰","STREET":"中華東路","SECT":"一段","MAREA":" ","LANE":" ","ALLEY":" ","HOUSE_NO":"１２號八樓之３","E_COORD97":171508.60000000001,"N_COORD97":2544229.4100000001,"ADDRESS":"中華東路一段１２號八樓之３","OBJECTID":591837},"geometry":{"x":171508.59999999963,"y":2544229.410000002}},{"attributes":{"ID":591865,"DIS_CODE":0,"TOWNNAME":"善化區","LI":"東關里","LIN":"11鄰","STREET":"中山路","SECT":" ","MAREA":" ","LANE":" ","ALLEY":" ","HOUSE_NO":"４０５號","E_COORD97":177376.51999999999,"N_COORD97":2559100.25,"ADDRESS":"中山路４０５號","OBJECTID":591838},"geometry":{"x":177376.51999999955,"y":2559100.2500000019}},{"attributes":{"ID":591866,"DIS_CODE":0,"TOWNNAME":"東區","LI":"莊敬里","LIN":"11鄰","STREET":"中華東路","SECT":"一段","MAREA":" ","LANE":" ","ALLEY":" ","HOUSE_NO":"１２號十四樓之２","E_COORD97":171508.60000000001,"N_COORD97":2544229.4100000001,"ADDRESS":"中華東路一段１２號十四樓之２","OBJECTID":591839},"geometry":{"x":171508.59999999963,"y":2544229.410000002}},{"attributes":{"ID":591867,"DIS_CODE":0,"TOWNNAME":"東區","LI":"莊敬里","LIN":"11鄰","STREET":"中華東路","SECT":"一段","MAREA":" ","LANE":" ","ALLEY":" ","HOUSE_NO":"１２號七樓之１","E_COORD97":171508.60000000001,"N_COORD97":2544229.4100000001,"ADDRESS":"中華東路一段１２號七樓之１","OBJECTID":591840},"geometry":{"x":171508.59999999963,"y":2544229.410000002}},{"attributes":{"ID":591868,"DIS_CODE":0,"TOWNNAME":"東區","LI":"莊敬里","LIN":"11鄰","STREET":"中華東路","SECT":"一段","MAREA":" ","LANE":" ","ALLEY":" ","HOUSE_NO":"１２號四樓之２","E_COORD97":171508.60000000001,"N_COORD97":2544229.4100000001,"ADDRESS":"中華東路一段１２號四樓之２","OBJECTID":591841},"geometry":{"x":171508.59999999963,"y":2544229.410000002}},{"attributes":{"ID":591869,"DIS_CODE":0,"TOWNNAME":"東區","LI":"莊敬里","LIN":"11鄰","STREET":"中華東路","SECT":"一段","MAREA":" ","LANE":" ","ALLEY":" ","HOUSE_NO":"１２號五樓之１","E_COORD97":171508.60000000001,"N_COORD97":2544229.4100000001,"ADDRESS":"中華東路一段１２號五樓之１","OBJECTID":591842},"geometry":{"x":171508.59999999963,"y":2544229.410000002}},{"attributes":{"ID":591870,"DIS_CODE":0,"TOWNNAME":"東區","LI":"莊敬里","LIN":"11鄰","STREET":"中華東路","SECT":"一段","MAREA":" ","LANE":" ","ALLEY":" ","HOUSE_NO":"１２號十四樓之１","E_COORD97":171508.60000000001,"N_COORD97":2544229.4100000001,"ADDRESS":"中華東路一段１２號十四樓之１","OBJECTID":591843},"geometry":{"x":171508.59999999963,"y":2544229.410000002}},{"attributes":{"ID":591871,"DIS_CODE":0,"TOWNNAME":"東區","LI":"莊敬里","LIN":"11鄰","STREET":"中華東路","SECT":"一段","MAREA":" ","LANE":" ","ALLEY":" ","HOUSE_NO":"１２號十二樓之１","E_COORD97":171508.60000000001,"N_COORD97":2544229.4100000001,"ADDRESS":"中華東路一段１２號十二樓之１","OBJECTID":591844},"geometry":{"x":171508.59999999963,"y":2544229.410000002}},{"attributes":{"ID":591872,"DIS_CODE":0,"TOWNNAME":"東區","LI":"莊敬里","LIN":"11鄰","STREET":"中華東路","SECT":"一段","MAREA":" ","LANE":" ","ALLEY":" ","HOUSE_NO":"１２號六樓之２","E_COORD97":171508.60000000001,"N_COORD97":2544229.4100000001,"ADDRESS":"中華東路一段１２號六樓之２","OBJECTID":591845},"geometry":{"x":171508.59999999963,"y":2544229.410000002}},{"attributes":{"ID":591873,"DIS_CODE":0,"TOWNNAME":"東區","LI":"莊敬里","LIN":"11鄰","STREET":"中華東路","SECT":"一段","MAREA":" ","LANE":" ","ALLEY":" ","HOUSE_NO":"１２號四樓之７","E_COORD97":171508.60000000001,"N_COORD97":2544229.4100000001,"ADDRESS":"中華東路一段１２號四樓之７","OBJECTID":591846},"geometry":{"x":171508.59999999963,"y":2544229.410000002}},{"attributes":{"ID":591874,"DIS_CODE":0,"TOWNNAME":"東區","LI":"莊敬里","LIN":"11鄰","STREET":"中華東路","SECT":"一段","MAREA":" ","LANE":" ","ALLEY":" ","HOUSE_NO":"１２號十三樓之７","E_COORD97":171508.60000000001,"N_COORD97":2544229.4100000001,"ADDRESS":"中華東路一段１２號十三樓之７","OBJECTID":591847},"geometry":{"x":171508.59999999963,"y":2544229.410000002}},{"attributes":{"ID":591875,"DIS_CODE":0,"TOWNNAME":"東區","LI":"莊敬里","LIN":"11鄰","STREET":"中華東路","SECT":"一段","MAREA":" ","LANE":" ","ALLEY":" ","HOUSE_NO":"１２號九樓之９","E_COORD97":171508.60000000001,"N_COORD97":2544229.4100000001,"ADDRESS":"中華東路一段１２號九樓之９","OBJECTID":591848},"geometry":{"x":171508.59999999963,"y":2544229.410000002}},{"attributes":{"ID":591876,"DIS_CODE":0,"TOWNNAME":"東區","LI":"小東里","LIN":"11鄰","STREET":"東安路","SECT":" ","MAREA":" ","LANE":" ","ALLEY":" ","HOUSE_NO":"２９１號二樓","E_COORD97":170768.76000000001,"N_COORD97":2544234.5600000001,"ADDRESS":"東安路２９１號二樓","OBJECTID":591849},"geometry":{"x":170768.75999999978,"y":2544234.5600000042}},{"attributes":{"ID":591877,"DIS_CODE":0,"TOWNNAME":"仁德區","LI":"新田里","LIN":"11鄰","STREET":"北保一街","SECT":" ","MAREA":" ","LANE":" ","ALLEY":" ","HOUSE_NO":"１２３號一樓","E_COORD97":173112.22,"N_COORD97":2539547.25,"ADDRESS":"北保一街１２３號一樓","OBJECTID":591850},"geometry":{"x":173112.21999999881,"y":2539547.2500000037}},{"attributes":{"ID":591878,"DIS_CODE":0,"TOWNNAME":"仁德區","LI":"新田里","LIN":"11鄰","STREET":"北保一街","SECT":" ","MAREA":" ","LANE":" ","ALLEY":" ","HOUSE_NO":"７５號三樓","E_COORD97":173100.03,"N_COORD97":2539537.25,"ADDRESS":"北保一街７５號三樓","OBJECTID":591851},"geometry":{"x":173100.03000000026,"y":2539537.2500000037}},{"attributes":{"ID":591879,"DIS_CODE":0,"TOWNNAME":"仁德區","LI":"新田里","LIN":"11鄰","STREET":"北保一街","SECT":" ","MAREA":" ","LANE":" ","ALLEY":" ","HOUSE_NO":"９１號一樓","E_COORD97":173094.59,"N_COORD97":2539562.25,"ADDRESS":"北保一街９１號一樓","OBJECTID":591852},"geometry":{"x":173094.58999999892,"y":2539562.2500000019}},{"attributes":{"ID":591880,"DIS_CODE":0,"TOWNNAME":"仁德區","LI":"新田里","LIN":"11鄰","STREET":"北保一街","SECT":" ","MAREA":" ","LANE":" ","ALLEY":" ","HOUSE_NO":"６１號一樓","E_COORD97":173123.91,"N_COORD97":2539528.25,"ADDRESS":"北保一街６１號一樓","OBJECTID":591853},"geometry":{"x":173123.91000000108,"y":2539528.2500000019}},{"attributes":{"ID":591881,"DIS_CODE":0,"TOWNNAME":"仁德區","LI":"新田里","LIN":"11鄰","STREET":"北保一街","SECT":" ","MAREA":" ","LANE":" ","ALLEY":" ","HOUSE_NO":"６５號三樓","E_COORD97":173115.95000000001,"N_COORD97":2539518.5,"ADDRESS":"北保一街６５號三樓","OBJECTID":591854},"geometry":{"x":173115.95000000019,"y":2539518.5000000037}},{"attributes":{"ID":591882,"DIS_CODE":0,"TOWNNAME":"仁德區","LI":"新田里","LIN":"11鄰","STREET":"北保一街","SECT":" ","MAREA":" ","LANE":" ","ALLEY":" ","HOUSE_NO":"１２５號七樓","E_COORD97":173109.01000000001,"N_COORD97":2539543.5,"ADDRESS":"北保一街１２５號七樓","OBJECTID":591855},"geometry":{"x":173109.01000000071,"y":2539543.5000000019}},{"attributes":{"ID":591883,"DIS_CODE":0,"TOWNNAME":"新化區","LI":"太平里","LIN":"11鄰","STREET":"正新北路","SECT":" ","MAREA":" ","LANE":" ","ALLEY":" ","HOUSE_NO":"３２號二樓之２","E_COORD97":178707.97,"N_COORD97":2549121.2599999998,"ADDRESS":"正新北路３２號二樓之２","OBJECTID":591856},"geometry":{"x":178707.96999999974,"y":2549121.2600000035}},{"attributes":{"ID":591884,"DIS_CODE":0,"TOWNNAME":"新化區","LI":"太平里","LIN":"11鄰","STREET":"正新北路","SECT":" ","MAREA":" ","LANE":" ","ALLEY":" ","HOUSE_NO":"３２號三樓之２","E_COORD97":178707.97,"N_COORD97":2549121.2599999998,"ADDRESS":"正新北路３２號三樓之２","OBJECTID":591857},"geometry":{"x":178707.96999999974,"y":2549121.2600000035}},{"attributes":{"ID":591885,"DIS_CODE":0,"TOWNNAME":"新化區","LI":"太平里","LIN":"11鄰","STREET":"正新北路","SECT":" ","MAREA":" ","LANE":" ","ALLEY":" ","HOUSE_NO":"３６號三樓之３","E_COORD97":178707.97,"N_COORD97":2549121.2599999998,"ADDRESS":"正新北路３６號三樓之３","OBJECTID":591858},"geometry":{"x":178707.96999999974,"y":2549121.2600000035}},{"attributes":{"ID":591886,"DIS_CODE":0,"TOWNNAME":"新化區","LI":"太平里","LIN":"11鄰","STREET":"正新北路","SECT":" ","MAREA":" ","LANE":" ","ALLEY":" ","HOUSE_NO":"８６號五樓之１","E_COORD97":178569.04999999999,"N_COORD97":2549029.2599999998,"ADDRESS":"正新北路８６號五樓之１","OBJECTID":591859},"geometry":{"x":178569.05000000075,"y":2549029.2599999998}},{"attributes":{"ID":591887,"DIS_CODE":0,"TOWNNAME":"新化區","LI":"太平里","LIN":"11鄰","STREET":"正新北路","SECT":" ","MAREA":" ","LANE":" ","ALLEY":" ","HOUSE_NO":"３６號六樓之５","E_COORD97":178707.98000000001,"N_COORD97":2549121.2599999998,"ADDRESS":"正新北路３６號六樓之５","OBJECTID":591860},"geometry":{"x":178707.98000000138,"y":2549121.2600000035}},{"attributes":{"ID":591888,"DIS_CODE":0,"TOWNNAME":"新化區","LI":"太平里","LIN":"11鄰","STREET":"正新北路","SECT":" ","MAREA":" ","LANE":" ","ALLEY":" ","HOUSE_NO":"８６號三樓之１","E_COORD97":178569.04999999999,"N_COORD97":2549029.2599999998,"ADDRESS":"正新北路８６號三樓之１","OBJECTID":591861},"geometry":{"x":178569.05000000075,"y":2549029.2599999998}},{"attributes":{"ID":591889,"DIS_CODE":0,"TOWNNAME":"新化區","LI":"太平里","LIN":"11鄰","STREET":"正新北路","SECT":" ","MAREA":" ","LANE":" ","ALLEY":" ","HOUSE_NO":"８６號四樓之５","E_COORD97":178569.07999999999,"N_COORD97":2549029.2599999998,"ADDRESS":"正新北路８６號四樓之５","OBJECTID":591862},"geometry":{"x":178569.08000000101,"y":2549029.2599999998}},{"attributes":{"ID":591890,"DIS_CODE":0,"TOWNNAME":"新化區","LI":"太平里","LIN":"11鄰","STREET":"正新北路","SECT":" ","MAREA":" ","LANE":" ","ALLEY":" ","HOUSE_NO":"３６號五樓之３","E_COORD97":178707.97,"N_COORD97":2549121.2599999998,"ADDRESS":"正新北路３６號五樓之３","OBJECTID":591863},"geometry":{"x":178707.96999999974,"y":2549121.2600000035}},{"attributes":{"ID":591891,"DIS_CODE":0,"TOWNNAME":"東區","LI":"和平里","LIN":"11鄰","STREET":"仁和路","SECT":" ","MAREA":" ","LANE":" ","ALLEY":" ","HOUSE_NO":"９５號四樓之８","E_COORD97":171323.91,"N_COORD97":2541417.77,"ADDRESS":"仁和路９５號四樓之８","OBJECTID":591864},"geometry":{"x":171323.91000000015,"y":2541417.7699999996}},{"attributes":{"ID":591892,"DIS_CODE":0,"TOWNNAME":"南區","LI":"新興里","LIN":"11鄰","STREET":"西門路","SECT":"一段","MAREA":" ","LANE":" ","ALLEY":" ","HOUSE_NO":"４３３號二樓","E_COORD97":167712.25,"N_COORD97":2542365.3199999998,"ADDRESS":"西門路一段４３３號二樓","OBJECTID":591865},"geometry":{"x":167712.25000000093,"y":2542365.3200000022}},{"attributes":{"ID":591893,"DIS_CODE":0,"TOWNNAME":"南區","LI":"新興里","LIN":"11鄰","STREET":"西門路","SECT":"一段","MAREA":" ","LANE":" ","ALLEY":" ","HOUSE_NO":"４３３號三樓","E_COORD97":167712.25,"N_COORD97":2542365.3199999998,"ADDRESS":"西門路一段４３３號三樓","OBJECTID":591866},"geometry":{"x":167712.25000000093,"y":2542365.3200000022}},{"attributes":{"ID":591894,"DIS_CODE":0,"TOWNNAME":"南區","LI":"新興里","LIN":"11鄰","STREET":"西門路","SECT":"一段","MAREA":" ","LANE":" ","ALLEY":" ","HOUSE_NO":"４３３號四樓","E_COORD97":167712.25,"N_COORD97":2542365.3199999998,"ADDRESS":"西門路一段４３３號四樓","OBJECTID":591867},"geometry":{"x":167712.25000000093,"y":2542365.3200000022}},{"attributes":{"ID":591895,"DIS_CODE":0,"TOWNNAME":"南區","LI":"新興里","LIN":"11鄰","STREET":"西門路","SECT":"一段","MAREA":" ","LANE":" ","ALLEY":" ","HOUSE_NO":"４３３號五樓","E_COORD97":167712.25,"N_COORD97":2542365.3199999998,"ADDRESS":"西門路一段４３３號五樓","OBJECTID":591868},"geometry":{"x":167712.25000000093,"y":2542365.3200000022}},{"attributes":{"ID":591896,"DIS_CODE":0,"TOWNNAME":"南區","LI":"新興里","LIN":"11鄰","STREET":"西門路","SECT":"一段","MAREA":" ","LANE":" ","ALLEY":" ","HOUSE_NO":"４３３號六樓","E_COORD97":167712.25,"N_COORD97":2542365.3199999998,"ADDRESS":"西門路一段４３３號六樓","OBJECTID":591869},"geometry":{"x":167712.25000000093,"y":2542365.3200000022}},{"attributes":{"ID":591897,"DIS_CODE":0,"TOWNNAME":"南區","LI":"新興里","LIN":"11鄰","STREET":"西門路","SECT":"一段","MAREA":" ","LANE":" ","ALLEY":" ","HOUSE_NO":"４３３號七樓","E_COORD97":167712.25,"N_COORD97":2542365.3199999998,"ADDRESS":"西門路一段４３３號七樓","OBJECTID":591870},"geometry":{"x":167712.25000000093,"y":2542365.3200000022}},{"attributes":{"ID":591898,"DIS_CODE":0,"TOWNNAME":"中西區","LI":"五妃里","LIN":"11鄰","STREET":"南寧街","SECT":" ","MAREA":" ","LANE":" ","ALLEY":" ","HOUSE_NO":"２號七樓","E_COORD97":168540.5,"N_COORD97":2542792.3599999999,"ADDRESS":"南寧街２號七樓","OBJECTID":591871},"geometry":{"x":168540.50000000186,"y":2542792.3599999994}},{"attributes":{"ID":591899,"DIS_CODE":0,"TOWNNAME":"中西區","LI":"五妃里","LIN":"11鄰","STREET":"南寧街","SECT":" ","MAREA":" ","LANE":" ","ALLEY":" ","HOUSE_NO":"２０號一樓","E_COORD97":168471.04000000001,"N_COORD97":2542808.6899999999,"ADDRESS":"南寧街２０號一樓","OBJECTID":591872},"geometry":{"x":168471.04000000097,"y":2542808.6900000032}},{"attributes":{"ID":591900,"DIS_CODE":0,"TOWNNAME":"中西區","LI":"五妃里","LIN":"11鄰","STREET":"南寧街","SECT":" ","MAREA":" ","LANE":" ","ALLEY":" ","HOUSE_NO":"２０號二樓","E_COORD97":168471.04000000001,"N_COORD97":2542808.6899999999,"ADDRESS":"南寧街２０號二樓","OBJECTID":591873},"geometry":{"x":168471.04000000097,"y":2542808.6900000032}},{"attributes":{"ID":591901,"DIS_CODE":0,"TOWNNAME":"中西區","LI":"五妃里","LIN":"11鄰","STREET":"南寧街","SECT":" ","MAREA":" ","LANE":" ","ALLEY":" ","HOUSE_NO":"２０號三樓","E_COORD97":168471.04000000001,"N_COORD97":2542808.6899999999,"ADDRESS":"南寧街２０號三樓","OBJECTID":591874},"geometry":{"x":168471.04000000097,"y":2542808.6900000032}},{"attributes":{"ID":591902,"DIS_CODE":0,"TOWNNAME":"中西區","LI":"五妃里","LIN":"11鄰","STREET":"南寧街","SECT":" ","MAREA":" ","LANE":" ","ALLEY":" ","HOUSE_NO":"２０號五樓","E_COORD97":168471.04000000001,"N_COORD97":2542808.6899999999,"ADDRESS":"南寧街２０號五樓","OBJECTID":591875},"geometry":{"x":168471.04000000097,"y":2542808.6900000032}},{"attributes":{"ID":591903,"DIS_CODE":0,"TOWNNAME":"中西區","LI":"五妃里","LIN":"11鄰","STREET":"南寧街","SECT":" ","MAREA":" ","LANE":" ","ALLEY":" ","HOUSE_NO":"２０號四樓","E_COORD97":168471.04000000001,"N_COORD97":2542808.6899999999,"ADDRESS":"南寧街２０號四樓","OBJECTID":591876},"geometry":{"x":168471.04000000097,"y":2542808.6900000032}},{"attributes":{"ID":591904,"DIS_CODE":0,"TOWNNAME":"中西區","LI":"五妃里","LIN":"11鄰","STREET":"南寧街","SECT":" ","MAREA":" ","LANE":" ","ALLEY":" ","HOUSE_NO":"２２號一樓","E_COORD97":168459.81,"N_COORD97":2542811.75,"ADDRESS":"南寧街２２號一樓","OBJECTID":591877},"geometry":{"x":168459.80999999959,"y":2542811.75}},{"attributes":{"ID":591905,"DIS_CODE":0,"TOWNNAME":"中西區","LI":"五妃里","LIN":"11鄰","STREET":"南寧街","SECT":" ","MAREA":" ","LANE":" ","ALLEY":" ","HOUSE_NO":"２２號二樓","E_COORD97":168459.81,"N_COORD97":2542811.75,"ADDRESS":"南寧街２２號二樓","OBJECTID":591878},"geometry":{"x":168459.80999999959,"y":2542811.75}},{"attributes":{"ID":591906,"DIS_CODE":0,"TOWNNAME":"中西區","LI":"五妃里","LIN":"11鄰","STREET":"南寧街","SECT":" ","MAREA":" ","LANE":" ","ALLEY":" ","HOUSE_NO":"２２號三樓","E_COORD97":168459.81,"N_COORD97":2542811.75,"ADDRESS":"南寧街２２號三樓","OBJECTID":591879},"geometry":{"x":168459.80999999959,"y":2542811.75}},{"attributes":{"ID":591907,"DIS_CODE":0,"TOWNNAME":"中西區","LI":"五妃里","LIN":"11鄰","STREET":"南寧街","SECT":" ","MAREA":" ","LANE":" ","ALLEY":" ","HOUSE_NO":"２２號五樓","E_COORD97":168459.81,"N_COORD97":2542811.75,"ADDRESS":"南寧街２２號五樓","OBJECTID":591880},"geometry":{"x":168459.80999999959,"y":2542811.75}},{"attributes":{"ID":591908,"DIS_CODE":0,"TOWNNAME":"中西區","LI":"五妃里","LIN":"11鄰","STREET":"南寧街","SECT":" ","MAREA":" ","LANE":" ","ALLEY":" ","HOUSE_NO":"２２號四樓","E_COORD97":168459.81,"N_COORD97":2542811.75,"ADDRESS":"南寧街２２號四樓","OBJECTID":591881},"geometry":{"x":168459.80999999959,"y":2542811.75}},{"attributes":{"ID":591909,"DIS_CODE":0,"TOWNNAME":"中西區","LI":"五妃里","LIN":"11鄰","STREET":"南寧街","SECT":" ","MAREA":" ","LANE":" ","ALLEY":" ","HOUSE_NO":"２號二樓","E_COORD97":168540.5,"N_COORD97":2542792.3599999999,"ADDRESS":"南寧街２號二樓","OBJECTID":591882},"geometry":{"x":168540.50000000186,"y":2542792.3599999994}},{"attributes":{"ID":591910,"DIS_CODE":0,"TOWNNAME":"中西區","LI":"五妃里","LIN":"11鄰","STREET":"南寧街","SECT":" ","MAREA":" ","LANE":" ","ALLEY":" ","HOUSE_NO":"２號三樓","E_COORD97":168540.5,"N_COORD97":2542792.3599999999,"ADDRESS":"南寧街２號三樓","OBJECTID":591883},"geometry":{"x":168540.50000000186,"y":2542792.3599999994}},{"attributes":{"ID":591911,"DIS_CODE":0,"TOWNNAME":"中西區","LI":"五妃里","LIN":"11鄰","STREET":"南寧街","SECT":" ","MAREA":" ","LANE":" ","ALLEY":" ","HOUSE_NO":"２號五樓","E_COORD97":168540.5,"N_COORD97":2542792.3599999999,"ADDRESS":"南寧街２號五樓","OBJECTID":591884},"geometry":{"x":168540.50000000186,"y":2542792.3599999994}},{"attributes":{"ID":591912,"DIS_CODE":0,"TOWNNAME":"中西區","LI":"五妃里","LIN":"11鄰","STREET":"南寧街","SECT":" ","MAREA":" ","LANE":" ","ALLEY":" ","HOUSE_NO":"２號六樓","E_COORD97":168540.5,"N_COORD97":2542792.3599999999,"ADDRESS":"南寧街２號六樓","OBJECTID":591885},"geometry":{"x":168540.50000000186,"y":2542792.3599999994}},{"attributes":{"ID":591913,"DIS_CODE":0,"TOWNNAME":"中西區","LI":"五妃里","LIN":"11鄰","STREET":"南寧街","SECT":" ","MAREA":" ","LANE":" ","ALLEY":" ","HOUSE_NO":"２號四樓","E_COORD97":168540.5,"N_COORD97":2542792.3599999999,"ADDRESS":"南寧街２號四樓","OBJECTID":591886},"geometry":{"x":168540.50000000186,"y":2542792.3599999994}},{"attributes":{"ID":591914,"DIS_CODE":0,"TOWNNAME":"東區","LI":"文聖里","LIN":"11鄰","STREET":"裕和二街","SECT":" ","MAREA":" ","LANE":" ","ALLEY":" ","HOUSE_NO":"１０２號五樓","E_COORD97":172122.84,"N_COORD97":2542804.3700000001,"ADDRESS":"裕和二街１０２號五樓","OBJECTID":591887},"geometry":{"x":172122.83999999985,"y":2542804.370000001}},{"attributes":{"ID":591915,"DIS_CODE":0,"TOWNNAME":"東區","LI":"文聖里","LIN":"11鄰","STREET":"裕和二街","SECT":" ","MAREA":" ","LANE":" ","ALLEY":" ","HOUSE_NO":"１０２號六樓","E_COORD97":172122.84,"N_COORD97":2542804.3700000001,"ADDRESS":"裕和二街１０２號六樓","OBJECTID":591888},"geometry":{"x":172122.83999999985,"y":2542804.370000001}},{"attributes":{"ID":591916,"DIS_CODE":0,"TOWNNAME":"東區","LI":"文聖里","LIN":"11鄰","STREET":"裕和二街","SECT":" ","MAREA":" ","LANE":" ","ALLEY":" ","HOUSE_NO":"１０６號二樓","E_COORD97":172122.39999999999,"N_COORD97":2542797.7799999998,"ADDRESS":"裕和二街１０６號二樓","OBJECTID":591889},"geometry":{"x":172122.4000000013,"y":2542797.7800000031}},{"attributes":{"ID":591917,"DIS_CODE":0,"TOWNNAME":"東區","LI":"文聖里","LIN":"11鄰","STREET":"裕和二街","SECT":" ","MAREA":" ","LANE":" ","ALLEY":" ","HOUSE_NO":"１０６號五樓","E_COORD97":172122.39999999999,"N_COORD97":2542797.7799999998,"ADDRESS":"裕和二街１０６號五樓","OBJECTID":591890},"geometry":{"x":172122.4000000013,"y":2542797.7800000031}},{"attributes":{"ID":591918,"DIS_CODE":0,"TOWNNAME":"東區","LI":"文聖里","LIN":"11鄰","STREET":"裕和二街","SECT":" ","MAREA":" ","LANE":" ","ALLEY":" ","HOUSE_NO":"１０６號三樓","E_COORD97":172122.39999999999,"N_COORD97":2542797.7799999998,"ADDRESS":"裕和二街１０６號三樓","OBJECTID":591891},"geometry":{"x":172122.4000000013,"y":2542797.7800000031}},{"attributes":{"ID":591919,"DIS_CODE":0,"TOWNNAME":"東區","LI":"文聖里","LIN":"11鄰","STREET":"裕和二街","SECT":" ","MAREA":" ","LANE":" ","ALLEY":" ","HOUSE_NO":"１０６號四樓","E_COORD97":172125.23000000001,"N_COORD97":2542800.8199999998,"ADDRESS":"裕和二街１０６號四樓","OBJECTID":591892},"geometry":{"x":172125.23000000138,"y":2542800.8200000003}},{"attributes":{"ID":591920,"DIS_CODE":0,"TOWNNAME":"東區","LI":"文聖里","LIN":"11鄰","STREET":"裕和二街","SECT":" ","MAREA":" ","LANE":" ","ALLEY":" ","HOUSE_NO":"１０６號六樓","E_COORD97":172122.39999999999,"N_COORD97":2542797.7799999998,"ADDRESS":"裕和二街１０６號六樓","OBJECTID":591893},"geometry":{"x":172122.4000000013,"y":2542797.7800000031}},{"attributes":{"ID":591921,"DIS_CODE":0,"TOWNNAME":"東區","LI":"文聖里","LIN":"11鄰","STREET":"裕和二街","SECT":" ","MAREA":" ","LANE":" ","ALLEY":" ","HOUSE_NO":"１０６號七樓","E_COORD97":172122.39999999999,"N_COORD97":2542797.7799999998,"ADDRESS":"裕和二街１０６號七樓","OBJECTID":591894},"geometry":{"x":172122.4000000013,"y":2542797.7800000031}},{"attributes":{"ID":591922,"DIS_CODE":0,"TOWNNAME":"東區","LI":"文聖里","LIN":"11鄰","STREET":"裕和二街","SECT":" ","MAREA":" ","LANE":" ","ALLEY":" ","HOUSE_NO":"１０８號二樓","E_COORD97":172128.98000000001,"N_COORD97":2542798.23,"ADDRESS":"裕和二街１０８號二樓","OBJECTID":591895},"geometry":{"x":172128.98000000045,"y":2542798.2300000004}},{"attributes":{"ID":591923,"DIS_CODE":0,"TOWNNAME":"東區","LI":"文聖里","LIN":"11鄰","STREET":"裕和二街","SECT":" ","MAREA":" ","LANE":" ","ALLEY":" ","HOUSE_NO":"１０８號四樓","E_COORD97":172128.98000000001,"N_COORD97":2542798.23,"ADDRESS":"裕和二街１０８號四樓","OBJECTID":591896},"geometry":{"x":172128.98000000045,"y":2542798.2300000004}},{"attributes":{"ID":591924,"DIS_CODE":0,"TOWNNAME":"東區","LI":"文聖里","LIN":"11鄰","STREET":"裕和二街","SECT":" ","MAREA":" ","LANE":" ","ALLEY":" ","HOUSE_NO":"１０８號五樓","E_COORD97":172128.98000000001,"N_COORD97":2542798.23,"ADDRESS":"裕和二街１０８號五樓","OBJECTID":591897},"geometry":{"x":172128.98000000045,"y":2542798.2300000004}},{"attributes":{"ID":591925,"DIS_CODE":0,"TOWNNAME":"東區","LI":"文聖里","LIN":"11鄰","STREET":"裕和二街","SECT":" ","MAREA":" ","LANE":" ","ALLEY":" ","HOUSE_NO":"１０８號六樓","E_COORD97":172128.98000000001,"N_COORD97":2542798.23,"ADDRESS":"裕和二街１０８號六樓","OBJECTID":591898},"geometry":{"x":172128.98000000045,"y":2542798.2300000004}},{"attributes":{"ID":591926,"DIS_CODE":0,"TOWNNAME":"東區","LI":"文聖里","LIN":"11鄰","STREET":"裕和二街","SECT":" ","MAREA":" ","LANE":" ","ALLEY":" ","HOUSE_NO":"１０８號七樓","E_COORD97":172128.98000000001,"N_COORD97":2542798.23,"ADDRESS":"裕和二街１０８號七樓","OBJECTID":591899},"geometry":{"x":172128.98000000045,"y":2542798.2300000004}},{"attributes":{"ID":591927,"DIS_CODE":0,"TOWNNAME":"東區","LI":"文聖里","LIN":"11鄰","STREET":"裕和二街","SECT":" ","MAREA":" ","LANE":" ","ALLEY":" ","HOUSE_NO":"７８號二樓","E_COORD97":172180.09,"N_COORD97":2542797.4500000002,"ADDRESS":"裕和二街７８號二樓","OBJECTID":591900},"geometry":{"x":172180.09000000078,"y":2542797.4500000011}},{"attributes":{"ID":591928,"DIS_CODE":0,"TOWNNAME":"東區","LI":"文聖里","LIN":"11鄰","STREET":"裕和二街","SECT":" ","MAREA":" ","LANE":" ","ALLEY":" ","HOUSE_NO":"７８號三樓","E_COORD97":172180.09,"N_COORD97":2542797.4500000002,"ADDRESS":"裕和二街７８號三樓","OBJECTID":591901},"geometry":{"x":172180.09000000078,"y":2542797.4500000011}},{"attributes":{"ID":591929,"DIS_CODE":0,"TOWNNAME":"東區","LI":"文聖里","LIN":"11鄰","STREET":"裕和二街","SECT":" ","MAREA":" ","LANE":" ","ALLEY":" ","HOUSE_NO":"７８號四樓","E_COORD97":172180.09,"N_COORD97":2542797.4500000002,"ADDRESS":"裕和二街７８號四樓","OBJECTID":591902},"geometry":{"x":172180.09000000078,"y":2542797.4500000011}},{"attributes":{"ID":591930,"DIS_CODE":0,"TOWNNAME":"東區","LI":"文聖里","LIN":"11鄰","STREET":"裕和二街","SECT":" ","MAREA":" ","LANE":" ","ALLEY":" ","HOUSE_NO":"７８號五樓","E_COORD97":172180.09,"N_COORD97":2542797.4500000002,"ADDRESS":"裕和二街７８號五樓","OBJECTID":591903},"geometry":{"x":172180.09000000078,"y":2542797.4500000011}},{"attributes":{"ID":591931,"DIS_CODE":0,"TOWNNAME":"東區","LI":"文聖里","LIN":"11鄰","STREET":"裕和二街","SECT":" ","MAREA":" ","LANE":" ","ALLEY":" ","HOUSE_NO":"７８號六樓","E_COORD97":172180.09,"N_COORD97":2542797.4500000002,"ADDRESS":"裕和二街７８號六樓","OBJECTID":591904},"geometry":{"x":172180.09000000078,"y":2542797.4500000011}},{"attributes":{"ID":591932,"DIS_CODE":0,"TOWNNAME":"東區","LI":"文聖里","LIN":"11鄰","STREET":"裕和二街","SECT":" ","MAREA":" ","LANE":" ","ALLEY":" ","HOUSE_NO":"７８號七樓","E_COORD97":172180.09,"N_COORD97":2542797.4500000002,"ADDRESS":"裕和二街７８號七樓","OBJECTID":591905},"geometry":{"x":172180.09000000078,"y":2542797.4500000011}},{"attributes":{"ID":591933,"DIS_CODE":0,"TOWNNAME":"東區","LI":"文聖里","LIN":"11鄰","STREET":"裕和二街","SECT":" ","MAREA":" ","LANE":" ","ALLEY":" ","HOUSE_NO":"８０號二樓","E_COORD97":172187.56,"N_COORD97":2542797.7799999998,"ADDRESS":"裕和二街８０號二樓","OBJECTID":591906},"geometry":{"x":172187.55999999866,"y":2542797.7800000031}},{"attributes":{"ID":591934,"DIS_CODE":0,"TOWNNAME":"東區","LI":"文聖里","LIN":"11鄰","STREET":"裕和二街","SECT":" ","MAREA":" ","LANE":" ","ALLEY":" ","HOUSE_NO":"８０號三樓","E_COORD97":172187.56,"N_COORD97":2542797.7799999998,"ADDRESS":"裕和二街８０號三樓","OBJECTID":591907},"geometry":{"x":172187.55999999866,"y":2542797.7800000031}},{"attributes":{"ID":591935,"DIS_CODE":0,"TOWNNAME":"東區","LI":"文聖里","LIN":"11鄰","STREET":"裕和二街","SECT":" ","MAREA":" ","LANE":" ","ALLEY":" ","HOUSE_NO":"８０號四樓","E_COORD97":172187.56,"N_COORD97":2542797.7799999998,"ADDRESS":"裕和二街８０號四樓","OBJECTID":591908},"geometry":{"x":172187.55999999866,"y":2542797.7800000031}},{"attributes":{"ID":591936,"DIS_CODE":0,"TOWNNAME":"東區","LI":"文聖里","LIN":"11鄰","STREET":"裕和二街","SECT":" ","MAREA":" ","LANE":" ","ALLEY":" ","HOUSE_NO":"８０號五樓","E_COORD97":172187.56,"N_COORD97":2542797.7799999998,"ADDRESS":"裕和二街８０號五樓","OBJECTID":591909},"geometry":{"x":172187.55999999866,"y":2542797.7800000031}},{"attributes":{"ID":591937,"DIS_CODE":0,"TOWNNAME":"東區","LI":"文聖里","LIN":"11鄰","STREET":"裕和二街","SECT":" ","MAREA":" ","LANE":" ","ALLEY":" ","HOUSE_NO":"８０號六樓","E_COORD97":172187.56,"N_COORD97":2542797.7799999998,"ADDRESS":"裕和二街８０號六樓","OBJECTID":591910},"geometry":{"x":172187.55999999866,"y":2542797.7800000031}},{"attributes":{"ID":591938,"DIS_CODE":0,"TOWNNAME":"東區","LI":"文聖里","LIN":"11鄰","STREET":"裕和二街","SECT":" ","MAREA":" ","LANE":" ","ALLEY":" ","HOUSE_NO":"８０號七樓","E_COORD97":172187.56,"N_COORD97":2542797.7799999998,"ADDRESS":"裕和二街８０號七樓","OBJECTID":591911},"geometry":{"x":172187.55999999866,"y":2542797.7800000031}},{"attributes":{"ID":591939,"DIS_CODE":0,"TOWNNAME":"東區","LI":"文聖里","LIN":"11鄰","STREET":"裕和二街","SECT":" ","MAREA":" ","LANE":" ","ALLEY":" ","HOUSE_NO":"８２號二樓","E_COORD97":172183.13,"N_COORD97":2542806.9300000002,"ADDRESS":"裕和二街８２號二樓","OBJECTID":591912},"geometry":{"x":172183.13000000082,"y":2542806.9299999997}},{"attributes":{"ID":591940,"DIS_CODE":0,"TOWNNAME":"東區","LI":"文聖里","LIN":"11鄰","STREET":"裕和二街","SECT":" ","MAREA":" ","LANE":" ","ALLEY":" ","HOUSE_NO":"８２號三樓","E_COORD97":172183.13,"N_COORD97":2542806.9300000002,"ADDRESS":"裕和二街８２號三樓","OBJECTID":591913},"geometry":{"x":172183.13000000082,"y":2542806.9299999997}},{"attributes":{"ID":591941,"DIS_CODE":0,"TOWNNAME":"東區","LI":"文聖里","LIN":"11鄰","STREET":"裕和二街","SECT":" ","MAREA":" ","LANE":" ","ALLEY":" ","HOUSE_NO":"８２號五樓","E_COORD97":172183.13,"N_COORD97":2542806.9300000002,"ADDRESS":"裕和二街８２號五樓","OBJECTID":591914},"geometry":{"x":172183.13000000082,"y":2542806.9299999997}},{"attributes":{"ID":591942,"DIS_CODE":0,"TOWNNAME":"東區","LI":"文聖里","LIN":"11鄰","STREET":"裕和二街","SECT":" ","MAREA":" ","LANE":" ","ALLEY":" ","HOUSE_NO":"８２號四樓","E_COORD97":172183.13,"N_COORD97":2542806.9300000002,"ADDRESS":"裕和二街８２號四樓","OBJECTID":591915},"geometry":{"x":172183.13000000082,"y":2542806.9299999997}},{"attributes":{"ID":591943,"DIS_CODE":0,"TOWNNAME":"東區","LI":"文聖里","LIN":"11鄰","STREET":"裕和二街","SECT":" ","MAREA":" ","LANE":" ","ALLEY":" ","HOUSE_NO":"８２號六樓","E_COORD97":172183.13,"N_COORD97":2542806.9300000002,"ADDRESS":"裕和二街８２號六樓","OBJECTID":591916},"geometry":{"x":172183.13000000082,"y":2542806.9299999997}},{"attributes":{"ID":591944,"DIS_CODE":0,"TOWNNAME":"東區","LI":"文聖里","LIN":"11鄰","STREET":"裕和二街","SECT":" ","MAREA":" ","LANE":" ","ALLEY":" ","HOUSE_NO":"８２號七樓","E_COORD97":172183.13,"N_COORD97":2542806.9300000002,"ADDRESS":"裕和二街８２號七樓","OBJECTID":591917},"geometry":{"x":172183.13000000082,"y":2542806.9299999997}},{"attributes":{"ID":591945,"DIS_CODE":0,"TOWNNAME":"東區","LI":"文聖里","LIN":"11鄰","STREET":"裕和二街","SECT":" ","MAREA":" ","LANE":" ","ALLEY":" ","HOUSE_NO":"８６號二樓","E_COORD97":172173.14000000001,"N_COORD97":2542805.4300000002,"ADDRESS":"裕和二街８６號二樓","OBJECTID":591918},"geometry":{"x":172173.13999999966,"y":2542805.4300000016}},{"attributes":{"ID":591946,"DIS_CODE":0,"TOWNNAME":"東區","LI":"文聖里","LIN":"11鄰","STREET":"裕和二街","SECT":" ","MAREA":" ","LANE":" ","ALLEY":" ","HOUSE_NO":"８６號三樓","E_COORD97":172173.14000000001,"N_COORD97":2542805.4300000002,"ADDRESS":"裕和二街８６號三樓","OBJECTID":591919},"geometry":{"x":172173.13999999966,"y":2542805.4300000016}},{"attributes":{"ID":591947,"DIS_CODE":0,"TOWNNAME":"東區","LI":"文聖里","LIN":"11鄰","STREET":"裕和二街","SECT":" ","MAREA":" ","LANE":" ","ALLEY":" ","HOUSE_NO":"８６號五樓","E_COORD97":172173.14000000001,"N_COORD97":2542805.4300000002,"ADDRESS":"裕和二街８６號五樓","OBJECTID":591920},"geometry":{"x":172173.13999999966,"y":2542805.4300000016}},{"attributes":{"ID":591948,"DIS_CODE":0,"TOWNNAME":"東區","LI":"文聖里","LIN":"11鄰","STREET":"裕和二街","SECT":" ","MAREA":" ","LANE":" ","ALLEY":" ","HOUSE_NO":"８８號四樓","E_COORD97":172164.98999999999,"N_COORD97":2542805.9300000002,"ADDRESS":"裕和二街８８號四樓","OBJECTID":591921},"geometry":{"x":172164.98999999929,"y":2542805.9299999997}},{"attributes":{"ID":591949,"DIS_CODE":0,"TOWNNAME":"東區","LI":"文聖里","LIN":"11鄰","STREET":"裕和二街","SECT":" ","MAREA":" ","LANE":" ","ALLEY":" ","HOUSE_NO":"８６號六樓","E_COORD97":172173.14000000001,"N_COORD97":2542805.4300000002,"ADDRESS":"裕和二街８６號六樓","OBJECTID":591922},"geometry":{"x":172173.13999999966,"y":2542805.4300000016}},{"attributes":{"ID":591950,"DIS_CODE":0,"TOWNNAME":"東區","LI":"文聖里","LIN":"11鄰","STREET":"裕和二街","SECT":" ","MAREA":" ","LANE":" ","ALLEY":" ","HOUSE_NO":"８６號四樓","E_COORD97":172173.14000000001,"N_COORD97":2542805.4300000002,"ADDRESS":"裕和二街８６號四樓","OBJECTID":591923},"geometry":{"x":172173.13999999966,"y":2542805.4300000016}},{"attributes":{"ID":591951,"DIS_CODE":0,"TOWNNAME":"東區","LI":"文聖里","LIN":"11鄰","STREET":"裕和二街","SECT":" ","MAREA":" ","LANE":" ","ALLEY":" ","HOUSE_NO":"８８號三樓","E_COORD97":172164.98999999999,"N_COORD97":2542805.9300000002,"ADDRESS":"裕和二街８８號三樓","OBJECTID":591924},"geometry":{"x":172164.98999999929,"y":2542805.9299999997}},{"attributes":{"ID":591952,"DIS_CODE":0,"TOWNNAME":"東區","LI":"文聖里","LIN":"11鄰","STREET":"裕和二街","SECT":" ","MAREA":" ","LANE":" ","ALLEY":" ","HOUSE_NO":"８８號五樓","E_COORD97":172164.98999999999,"N_COORD97":2542805.9300000002,"ADDRESS":"裕和二街８８號五樓","OBJECTID":591925},"geometry":{"x":172164.98999999929,"y":2542805.9299999997}},{"attributes":{"ID":591953,"DIS_CODE":0,"TOWNNAME":"東區","LI":"文聖里","LIN":"11鄰","STREET":"裕和二街","SECT":" ","MAREA":" ","LANE":" ","ALLEY":" ","HOUSE_NO":"８８號六樓","E_COORD97":172164.98999999999,"N_COORD97":2542805.9300000002,"ADDRESS":"裕和二街８８號六樓","OBJECTID":591926},"geometry":{"x":172164.98999999929,"y":2542805.9299999997}},{"attributes":{"ID":591954,"DIS_CODE":0,"TOWNNAME":"東區","LI":"文聖里","LIN":"11鄰","STREET":"裕和二街","SECT":" ","MAREA":" ","LANE":" ","ALLEY":" ","HOUSE_NO":"８８號七樓","E_COORD97":172164.98999999999,"N_COORD97":2542805.9300000002,"ADDRESS":"裕和二街８８號七樓","OBJECTID":591927},"geometry":{"x":172164.98999999929,"y":2542805.9299999997}},{"attributes":{"ID":591955,"DIS_CODE":0,"TOWNNAME":"東區","LI":"文聖里","LIN":"11鄰","STREET":"裕和二街","SECT":" ","MAREA":" ","LANE":" ","ALLEY":" ","HOUSE_NO":"８８號二樓","E_COORD97":172164.98999999999,"N_COORD97":2542805.9300000002,"ADDRESS":"裕和二街８８號二樓","OBJECTID":591928},"geometry":{"x":172164.98999999929,"y":2542805.9299999997}},{"attributes":{"ID":591956,"DIS_CODE":0,"TOWNNAME":"東區","LI":"文聖里","LIN":"11鄰","STREET":"裕和二街","SECT":" ","MAREA":" ","LANE":" ","ALLEY":" ","HOUSE_NO":"９０號三樓","E_COORD97":172157.32999999999,"N_COORD97":2542805.9300000002,"ADDRESS":"裕和二街９０號三樓","OBJECTID":591929},"geometry":{"x":172157.33000000007,"y":2542805.9299999997}},{"attributes":{"ID":591957,"DIS_CODE":0,"TOWNNAME":"東區","LI":"文聖里","LIN":"11鄰","STREET":"裕和二街","SECT":" ","MAREA":" ","LANE":" ","ALLEY":" ","HOUSE_NO":"９０號四樓","E_COORD97":172157.32999999999,"N_COORD97":2542805.9300000002,"ADDRESS":"裕和二街９０號四樓","OBJECTID":591930},"geometry":{"x":172157.33000000007,"y":2542805.9299999997}},{"attributes":{"ID":591958,"DIS_CODE":0,"TOWNNAME":"東區","LI":"文聖里","LIN":"11鄰","STREET":"裕和二街","SECT":" ","MAREA":" ","LANE":" ","ALLEY":" ","HOUSE_NO":"９０號五樓","E_COORD97":172157.32999999999,"N_COORD97":2542805.9300000002,"ADDRESS":"裕和二街９０號五樓","OBJECTID":591931},"geometry":{"x":172157.33000000007,"y":2542805.9299999997}},{"attributes":{"ID":591959,"DIS_CODE":0,"TOWNNAME":"東區","LI":"文聖里","LIN":"11鄰","STREET":"裕和二街","SECT":" ","MAREA":" ","LANE":" ","ALLEY":" ","HOUSE_NO":"９０號六樓","E_COORD97":172157.32999999999,"N_COORD97":2542805.9300000002,"ADDRESS":"裕和二街９０號六樓","OBJECTID":591932},"geometry":{"x":172157.33000000007,"y":2542805.9299999997}},{"attributes":{"ID":591960,"DIS_CODE":0,"TOWNNAME":"東區","LI":"文聖里","LIN":"11鄰","STREET":"裕和二街","SECT":" ","MAREA":" ","LANE":" ","ALLEY":" ","HOUSE_NO":"９０號七樓","E_COORD97":172157.32999999999,"N_COORD97":2542805.9300000002,"ADDRESS":"裕和二街９０號七樓","OBJECTID":591933},"geometry":{"x":172157.33000000007,"y":2542805.9299999997}},{"attributes":{"ID":591961,"DIS_CODE":0,"TOWNNAME":"東區","LI":"文聖里","LIN":"11鄰","STREET":"裕和二街","SECT":" ","MAREA":" ","LANE":" ","ALLEY":" ","HOUSE_NO":"９０號二樓","E_COORD97":172157.32999999999,"N_COORD97":2542805.9300000002,"ADDRESS":"裕和二街９０號二樓","OBJECTID":591934},"geometry":{"x":172157.33000000007,"y":2542805.9299999997}},{"attributes":{"ID":591962,"DIS_CODE":0,"TOWNNAME":"東區","LI":"文聖里","LIN":"11鄰","STREET":"裕和二街","SECT":" ","MAREA":" ","LANE":" ","ALLEY":" ","HOUSE_NO":"９２號三樓","E_COORD97":172149.51000000001,"N_COORD97":2542806.9300000002,"ADDRESS":"裕和二街９２號三樓","OBJECTID":591935},"geometry":{"x":172149.51000000071,"y":2542806.9299999997}},{"attributes":{"ID":591963,"DIS_CODE":0,"TOWNNAME":"東區","LI":"文聖里","LIN":"11鄰","STREET":"裕和二街","SECT":" ","MAREA":" ","LANE":" ","ALLEY":" ","HOUSE_NO":"９２號六樓","E_COORD97":172149.51000000001,"N_COORD97":2542806.9300000002,"ADDRESS":"裕和二街９２號六樓","OBJECTID":591936},"geometry":{"x":172149.51000000071,"y":2542806.9299999997}},{"attributes":{"ID":591964,"DIS_CODE":0,"TOWNNAME":"東區","LI":"文聖里","LIN":"11鄰","STREET":"裕和二街","SECT":" ","MAREA":" ","LANE":" ","ALLEY":" ","HOUSE_NO":"９２號七樓","E_COORD97":172149.51000000001,"N_COORD97":2542806.9300000002,"ADDRESS":"裕和二街９２號七樓","OBJECTID":591937},"geometry":{"x":172149.51000000071,"y":2542806.9299999997}},{"attributes":{"ID":591965,"DIS_CODE":0,"TOWNNAME":"東區","LI":"文聖里","LIN":"11鄰","STREET":"裕和二街","SECT":" ","MAREA":" ","LANE":" ","ALLEY":" ","HOUSE_NO":"９２號四樓","E_COORD97":172149.51000000001,"N_COORD97":2542806.9300000002,"ADDRESS":"裕和二街９２號四樓","OBJECTID":591938},"geometry":{"x":172149.51000000071,"y":2542806.9299999997}},{"attributes":{"ID":591966,"DIS_CODE":0,"TOWNNAME":"東區","LI":"文聖里","LIN":"11鄰","STREET":"裕和二街","SECT":" ","MAREA":" ","LANE":" ","ALLEY":" ","HOUSE_NO":"９２號二樓","E_COORD97":172149.51000000001,"N_COORD97":2542806.9300000002,"ADDRESS":"裕和二街９２號二樓","OBJECTID":591939},"geometry":{"x":172149.51000000071,"y":2542806.9299999997}},{"attributes":{"ID":591967,"DIS_CODE":0,"TOWNNAME":"東區","LI":"文聖里","LIN":"11鄰","STREET":"裕和二街","SECT":" ","MAREA":" ","LANE":" ","ALLEY":" ","HOUSE_NO":"９２號五樓","E_COORD97":172149.51000000001,"N_COORD97":2542806.9300000002,"ADDRESS":"裕和二街９２號五樓","OBJECTID":591940},"geometry":{"x":172149.51000000071,"y":2542806.9299999997}},{"attributes":{"ID":591968,"DIS_CODE":0,"TOWNNAME":"東區","LI":"文聖里","LIN":"11鄰","STREET":"裕和二街","SECT":" ","MAREA":" ","LANE":" ","ALLEY":" ","HOUSE_NO":"９６號七樓","E_COORD97":172140.35999999999,"N_COORD97":2542807.1000000001,"ADDRESS":"裕和二街９６號七樓","OBJECTID":591941},"geometry":{"x":172140.36000000034,"y":2542807.1000000015}},{"attributes":{"ID":591969,"DIS_CODE":0,"TOWNNAME":"東區","LI":"文聖里","LIN":"11鄰","STREET":"裕和二街","SECT":" ","MAREA":" ","LANE":" ","ALLEY":" ","HOUSE_NO":"９６號三樓","E_COORD97":172140.35999999999,"N_COORD97":2542807.1000000001,"ADDRESS":"裕和二街９６號三樓","OBJECTID":591942},"geometry":{"x":172140.36000000034,"y":2542807.1000000015}},{"attributes":{"ID":591970,"DIS_CODE":0,"TOWNNAME":"東區","LI":"文聖里","LIN":"11鄰","STREET":"裕和二街","SECT":" ","MAREA":" ","LANE":" ","ALLEY":" ","HOUSE_NO":"９６號五樓","E_COORD97":172140.35999999999,"N_COORD97":2542807.1000000001,"ADDRESS":"裕和二街９６號五樓","OBJECTID":591943},"geometry":{"x":172140.36000000034,"y":2542807.1000000015}},{"attributes":{"ID":591971,"DIS_CODE":0,"TOWNNAME":"東區","LI":"文聖里","LIN":"11鄰","STREET":"裕和二街","SECT":" ","MAREA":" ","LANE":" ","ALLEY":" ","HOUSE_NO":"９６號六樓","E_COORD97":172140.35999999999,"N_COORD97":2542807.1000000001,"ADDRESS":"裕和二街９６號六樓","OBJECTID":591944},"geometry":{"x":172140.36000000034,"y":2542807.1000000015}},{"attributes":{"ID":591972,"DIS_CODE":0,"TOWNNAME":"東區","LI":"文聖里","LIN":"11鄰","STREET":"裕和二街","SECT":" ","MAREA":" ","LANE":" ","ALLEY":" ","HOUSE_NO":"９６號二樓","E_COORD97":172140.35999999999,"N_COORD97":2542807.1000000001,"ADDRESS":"裕和二街９６號二樓","OBJECTID":591945},"geometry":{"x":172140.36000000034,"y":2542807.1000000015}},{"attributes":{"ID":591973,"DIS_CODE":0,"TOWNNAME":"東區","LI":"文聖里","LIN":"11鄰","STREET":"裕和二街","SECT":" ","MAREA":" ","LANE":" ","ALLEY":" ","HOUSE_NO":"９８號五樓","E_COORD97":172134.85999999999,"N_COORD97":2542807.7599999998,"ADDRESS":"裕和二街９８號五樓","OBJECTID":591946},"geometry":{"x":172134.86000000034,"y":2542807.7599999998}},{"attributes":{"ID":591974,"DIS_CODE":0,"TOWNNAME":"東區","LI":"成大里","LIN":"11鄰","STREET":"育樂街","SECT":" ","MAREA":" ","LANE":" ","ALLEY":" ","HOUSE_NO":"１６０號三樓","E_COORD97":169492.64000000001,"N_COORD97":2543976.9300000002,"ADDRESS":"育樂街１６０號三樓","OBJECTID":591947},"geometry":{"x":169492.6400000006,"y":2543976.9300000034}},{"attributes":{"ID":591975,"DIS_CODE":0,"TOWNNAME":"東區","LI":"文聖里","LIN":"11鄰","STREET":"裕和二街","SECT":" ","MAREA":" ","LANE":" ","ALLEY":" ","HOUSE_NO":"９８號二樓","E_COORD97":172150.13,"N_COORD97":2542793.71,"ADDRESS":"裕和二街９８號二樓","OBJECTID":591948},"geometry":{"x":172150.12999999896,"y":2542793.7100000028}},{"attributes":{"ID":591976,"DIS_CODE":0,"TOWNNAME":"東區","LI":"文聖里","LIN":"11鄰","STREET":"裕和二街","SECT":" ","MAREA":" ","LANE":" ","ALLEY":" ","HOUSE_NO":"９８號三樓","E_COORD97":172150.13,"N_COORD97":2542793.71,"ADDRESS":"裕和二街９８號三樓","OBJECTID":591949},"geometry":{"x":172150.12999999896,"y":2542793.7100000028}},{"attributes":{"ID":591977,"DIS_CODE":0,"TOWNNAME":"東區","LI":"文聖里","LIN":"11鄰","STREET":"裕和二街","SECT":" ","MAREA":" ","LANE":" ","ALLEY":" ","HOUSE_NO":"９６號四樓","E_COORD97":172150.13,"N_COORD97":2542793.71,"ADDRESS":"裕和二街９６號四樓","OBJECTID":591950},"geometry":{"x":172150.12999999896,"y":2542793.7100000028}},{"attributes":{"ID":591978,"DIS_CODE":0,"TOWNNAME":"東區","LI":"文聖里","LIN":"11鄰","STREET":"裕和二街","SECT":" ","MAREA":" ","LANE":" ","ALLEY":" ","HOUSE_NO":"９８號四樓","E_COORD97":172150.13,"N_COORD97":2542793.71,"ADDRESS":"裕和二街９８號四樓","OBJECTID":591951},"geometry":{"x":172150.12999999896,"y":2542793.7100000028}},{"attributes":{"ID":591979,"DIS_CODE":0,"TOWNNAME":"東區","LI":"文聖里","LIN":"11鄰","STREET":"裕和二街","SECT":" ","MAREA":" ","LANE":" ","ALLEY":" ","HOUSE_NO":"９８號六樓","E_COORD97":172150.13,"N_COORD97":2542793.71,"ADDRESS":"裕和二街９８號六樓","OBJECTID":591952},"geometry":{"x":172150.12999999896,"y":2542793.7100000028}},{"attributes":{"ID":591980,"DIS_CODE":0,"TOWNNAME":"東區","LI":"文聖里","LIN":"11鄰","STREET":"裕和二街","SECT":" ","MAREA":" ","LANE":" ","ALLEY":" ","HOUSE_NO":"９８號七樓","E_COORD97":172150.13,"N_COORD97":2542793.71,"ADDRESS":"裕和二街９８號七樓","OBJECTID":591953},"geometry":{"x":172150.12999999896,"y":2542793.7100000028}},{"attributes":{"ID":591981,"DIS_CODE":0,"TOWNNAME":"新化區","LI":"太平里","LIN":"11鄰","STREET":"正新北路","SECT":" ","MAREA":" ","LANE":" ","ALLEY":" ","HOUSE_NO":"３６號五樓之２","E_COORD97":178707.97,"N_COORD97":2549121.2599999998,"ADDRESS":"正新北路３６號五樓之２","OBJECTID":591954},"geometry":{"x":178707.96999999974,"y":2549121.2600000035}},{"attributes":{"ID":591982,"DIS_CODE":0,"TOWNNAME":"東區","LI":"和平里","LIN":"11鄰","STREET":"仁和路","SECT":" ","MAREA":" ","LANE":" ","ALLEY":" ","HOUSE_NO":"９１之１３號三樓","E_COORD97":171328.48000000001,"N_COORD97":2541481.52,"ADDRESS":"仁和路９１之１３號三樓","OBJECTID":591955},"geometry":{"x":171328.48000000138,"y":2541481.5200000014}},{"attributes":{"ID":591983,"DIS_CODE":0,"TOWNNAME":"東區","LI":"和平里","LIN":"11鄰","STREET":"仁和路","SECT":" ","MAREA":" ","LANE":" ","ALLEY":" ","HOUSE_NO":"９１之１３號四樓","E_COORD97":171328.48000000001,"N_COORD97":2541481.52,"ADDRESS":"仁和路９１之１３號四樓","OBJECTID":591956},"geometry":{"x":171328.48000000138,"y":2541481.5200000014}},{"attributes":{"ID":591984,"DIS_CODE":0,"TOWNNAME":"東區","LI":"和平里","LIN":"11鄰","STREET":"仁和路","SECT":" ","MAREA":" ","LANE":" ","ALLEY":" ","HOUSE_NO":"９１之１５號二樓","E_COORD97":171328.48000000001,"N_COORD97":2541481.52,"ADDRESS":"仁和路９１之１５號二樓","OBJECTID":591957},"geometry":{"x":171328.48000000138,"y":2541481.5200000014}},{"attributes":{"ID":591985,"DIS_CODE":0,"TOWNNAME":"東區","LI":"和平里","LIN":"11鄰","STREET":"仁和路","SECT":" ","MAREA":" ","LANE":" ","ALLEY":" ","HOUSE_NO":"９１之１５號三樓","E_COORD97":171328.48000000001,"N_COORD97":2541481.52,"ADDRESS":"仁和路９１之１５號三樓","OBJECTID":591958},"geometry":{"x":171328.48000000138,"y":2541481.5200000014}},{"attributes":{"ID":591986,"DIS_CODE":0,"TOWNNAME":"善化區","LI":"小新里","LIN":"11鄰","STREET":"陽光三路","SECT":" ","MAREA":" ","LANE":" ","ALLEY":" ","HOUSE_NO":"８８號","E_COORD97":179292.47,"N_COORD97":2556940.0699999998,"ADDRESS":"陽光三路８８號","OBJECTID":591959},"geometry":{"x":179292.46999999974,"y":2556940.0700000003}},{"attributes":{"ID":591987,"DIS_CODE":0,"TOWNNAME":"東區","LI":"和平里","LIN":"11鄰","STREET":"仁和路","SECT":" ","MAREA":" ","LANE":" ","ALLEY":" ","HOUSE_NO":"９１之１５號四樓","E_COORD97":171328.48000000001,"N_COORD97":2541481.52,"ADDRESS":"仁和路９１之１５號四樓","OBJECTID":591960},"geometry":{"x":171328.48000000138,"y":2541481.5200000014}},{"attributes":{"ID":591988,"DIS_CODE":0,"TOWNNAME":"東區","LI":"和平里","LIN":"11鄰","STREET":"仁和路","SECT":" ","MAREA":" ","LANE":" ","ALLEY":" ","HOUSE_NO":"９１之１５號五樓","E_COORD97":171328.48000000001,"N_COORD97":2541481.52,"ADDRESS":"仁和路９１之１５號五樓","OBJECTID":591961},"geometry":{"x":171328.48000000138,"y":2541481.5200000014}},{"attributes":{"ID":591989,"DIS_CODE":0,"TOWNNAME":"東區","LI":"中西里","LIN":"11鄰","STREET":"東寧路","SECT":" ","MAREA":" ","LANE":" ","ALLEY":" ","HOUSE_NO":"１０號之１三樓","E_COORD97":169869.07000000001,"N_COORD97":2543631.2999999998,"ADDRESS":"東寧路１０號之１三樓","OBJECTID":591962},"geometry":{"x":169869.0700000003,"y":2543631.3000000026}},{"attributes":{"ID":591990,"DIS_CODE":0,"TOWNNAME":"東區","LI":"中西里","LIN":"11鄰","STREET":"東寧路","SECT":" ","MAREA":" ","LANE":" ","ALLEY":" ","HOUSE_NO":"１０號之１四樓","E_COORD97":169869.07000000001,"N_COORD97":2543631.2999999998,"ADDRESS":"東寧路１０號之１四樓","OBJECTID":591963},"geometry":{"x":169869.0700000003,"y":2543631.3000000026}},{"attributes":{"ID":591991,"DIS_CODE":0,"TOWNNAME":"東區","LI":"中西里","LIN":"11鄰","STREET":"東寧路","SECT":" ","MAREA":" ","LANE":" ","ALLEY":" ","HOUSE_NO":"１０號之２三樓","E_COORD97":169873.67000000001,"N_COORD97":2543631.04,"ADDRESS":"東寧路１０號之２三樓","OBJECTID":591964},"geometry":{"x":169873.67000000086,"y":2543631.040000001}},{"attributes":{"ID":591992,"DIS_CODE":0,"TOWNNAME":"東區","LI":"中西里","LIN":"11鄰","STREET":"東寧路","SECT":" ","MAREA":" ","LANE":" ","ALLEY":" ","HOUSE_NO":"１０號之２四樓","E_COORD97":169873.67000000001,"N_COORD97":2543631.04,"ADDRESS":"東寧路１０號之２四樓","OBJECTID":591965},"geometry":{"x":169873.67000000086,"y":2543631.040000001}},{"attributes":{"ID":591993,"DIS_CODE":0,"TOWNNAME":"東區","LI":"中西里","LIN":"11鄰","STREET":"東寧路","SECT":" ","MAREA":" ","LANE":" ","ALLEY":" ","HOUSE_NO":"１２號之１三樓","E_COORD97":169887.82000000001,"N_COORD97":2543629.5800000001,"ADDRESS":"東寧路１２號之１三樓","OBJECTID":591966},"geometry":{"x":169887.8200000003,"y":2543629.5800000001}},{"attributes":{"ID":591994,"DIS_CODE":0,"TOWNNAME":"東區","LI":"中西里","LIN":"11鄰","STREET":"東寧路","SECT":" ","MAREA":" ","LANE":" ","ALLEY":" ","HOUSE_NO":"１２號之１四樓","E_COORD97":169887.82000000001,"N_COORD97":2543629.5800000001,"ADDRESS":"東寧路１２號之１四樓","OBJECTID":591967},"geometry":{"x":169887.8200000003,"y":2543629.5800000001}},{"attributes":{"ID":591995,"DIS_CODE":0,"TOWNNAME":"東區","LI":"中西里","LIN":"11鄰","STREET":"東寧路","SECT":" ","MAREA":" ","LANE":" ","ALLEY":" ","HOUSE_NO":"１４號之１三樓","E_COORD97":169904.82000000001,"N_COORD97":2543627.8199999998,"ADDRESS":"東寧路１４號之１三樓","OBJECTID":591968},"geometry":{"x":169904.81999999937,"y":2543627.8200000003}},{"attributes":{"ID":591996,"DIS_CODE":0,"TOWNNAME":"東區","LI":"中西里","LIN":"11鄰","STREET":"東寧路","SECT":" ","MAREA":" ","LANE":" ","ALLEY":" ","HOUSE_NO":"１４號之１四樓","E_COORD97":169904.82000000001,"N_COORD97":2543627.8199999998,"ADDRESS":"東寧路１４號之１四樓","OBJECTID":591969},"geometry":{"x":169904.81999999937,"y":2543627.8200000003}},{"attributes":{"ID":591997,"DIS_CODE":0,"TOWNNAME":"東區","LI":"中西里","LIN":"11鄰","STREET":"東寧路","SECT":" ","MAREA":" ","LANE":" ","ALLEY":" ","HOUSE_NO":"１４號之２三樓","E_COORD97":169909.32000000001,"N_COORD97":2543627.54,"ADDRESS":"東寧路１４號之２三樓","OBJECTID":591970},"geometry":{"x":169909.3200000003,"y":2543627.540000001}},{"attributes":{"ID":591998,"DIS_CODE":0,"TOWNNAME":"善化區","LI":"坐駕里","LIN":"11鄰","STREET":"自強路","SECT":" ","MAREA":" ","LANE":" ","ALLEY":" ","HOUSE_NO":"１５３號","E_COORD97":177888.81,"N_COORD97":2558685,"ADDRESS":"自強路１５３號","OBJECTID":591971},"geometry":{"x":177888.81000000052,"y":2558685.0000000019}},{"attributes":{"ID":591999,"DIS_CODE":0,"TOWNNAME":"東區","LI":"中西里","LIN":"11鄰","STREET":"東寧路","SECT":" ","MAREA":" ","LANE":" ","ALLEY":" ","HOUSE_NO":"１４號之２四樓","E_COORD97":169909.32000000001,"N_COORD97":2543627.54,"ADDRESS":"東寧路１４號之２四樓","OBJECTID":591972},"geometry":{"x":169909.3200000003,"y":2543627.540000001}},{"attributes":{"ID":592000,"DIS_CODE":0,"TOWNNAME":"東區","LI":"中西里","LIN":"11鄰","STREET":"東寧路","SECT":" ","MAREA":" ","LANE":" ","ALLEY":" ","HOUSE_NO":"１６號之１三樓","E_COORD97":169921.95000000001,"N_COORD97":2543626.2599999998,"ADDRESS":"東寧路１６號之１三樓","OBJECTID":591973},"geometry":{"x":169921.95000000019,"y":2543626.2600000016}},{"attributes":{"ID":592001,"DIS_CODE":0,"TOWNNAME":"東區","LI":"中西里","LIN":"11鄰","STREET":"東寧路","SECT":" ","MAREA":" ","LANE":" ","ALLEY":" ","HOUSE_NO":"１６號之１四樓","E_COORD97":169921.95000000001,"N_COORD97":2543626.2599999998,"ADDRESS":"東寧路１６號之１四樓","OBJECTID":591974},"geometry":{"x":169921.95000000019,"y":2543626.2600000016}},{"attributes":{"ID":592002,"DIS_CODE":0,"TOWNNAME":"東區","LI":"中西里","LIN":"11鄰","STREET":"東寧路","SECT":" ","MAREA":" ","LANE":" ","ALLEY":" ","HOUSE_NO":"１６號之２三樓","E_COORD97":169926.85000000001,"N_COORD97":2543626.5099999998,"ADDRESS":"東寧路１６號之２三樓","OBJECTID":591975},"geometry":{"x":169926.85000000056,"y":2543626.5099999998}},{"attributes":{"ID":592003,"DIS_CODE":0,"TOWNNAME":"東區","LI":"中西里","LIN":"11鄰","STREET":"東寧路","SECT":" ","MAREA":" ","LANE":" ","ALLEY":" ","HOUSE_NO":"１６號之２四樓","E_COORD97":169926.85000000001,"N_COORD97":2543626.5099999998,"ADDRESS":"東寧路１６號之２四樓","OBJECTID":591976},"geometry":{"x":169926.85000000056,"y":2543626.5099999998}},{"attributes":{"ID":592004,"DIS_CODE":0,"TOWNNAME":"東區","LI":"中西里","LIN":"11鄰","STREET":"東寧路","SECT":" ","MAREA":" ","LANE":" ","ALLEY":" ","HOUSE_NO":"１２號之２三樓","E_COORD97":169892.64000000001,"N_COORD97":2543629.4100000001,"ADDRESS":"東寧路１２號之２三樓","OBJECTID":591977},"geometry":{"x":169892.6400000006,"y":2543629.410000002}},{"attributes":{"ID":592005,"DIS_CODE":0,"TOWNNAME":"東區","LI":"中西里","LIN":"11鄰","STREET":"東寧路","SECT":" ","MAREA":" ","LANE":" ","ALLEY":" ","HOUSE_NO":"１２號之２四樓","E_COORD97":169892.64000000001,"N_COORD97":2543629.4100000001,"ADDRESS":"東寧路１２號之２四樓","OBJECTID":591978},"geometry":{"x":169892.6400000006,"y":2543629.410000002}},{"attributes":{"ID":592006,"DIS_CODE":0,"TOWNNAME":"東區","LI":"莊敬里","LIN":"11鄰","STREET":"中華東路","SECT":"一段","MAREA":" ","LANE":" ","ALLEY":" ","HOUSE_NO":"１２號六樓之１","E_COORD97":171508.60000000001,"N_COORD97":2544229.4100000001,"ADDRESS":"中華東路一段１２號六樓之１","OBJECTID":591979},"geometry":{"x":171508.59999999963,"y":2544229.410000002}},{"attributes":{"ID":592007,"DIS_CODE":0,"TOWNNAME":"東區","LI":"莊敬里","LIN":"11鄰","STREET":"中華東路","SECT":"一段","MAREA":" ","LANE":" ","ALLEY":" ","HOUSE_NO":"１２號十二樓之２","E_COORD97":171508.60000000001,"N_COORD97":2544229.4100000001,"ADDRESS":"中華東路一段１２號十二樓之２","OBJECTID":591980},"geometry":{"x":171508.59999999963,"y":2544229.410000002}},{"attributes":{"ID":592008,"DIS_CODE":0,"TOWNNAME":"東區","LI":"莊敬里","LIN":"11鄰","STREET":"中華東路","SECT":"一段","MAREA":" ","LANE":" ","ALLEY":" ","HOUSE_NO":"１２號七樓之３","E_COORD97":171508.60000000001,"N_COORD97":2544229.4100000001,"ADDRESS":"中華東路一段１２號七樓之３","OBJECTID":591981},"geometry":{"x":171508.59999999963,"y":2544229.410000002}},{"attributes":{"ID":592009,"DIS_CODE":0,"TOWNNAME":"東區","LI":"莊敬里","LIN":"11鄰","STREET":"中華東路","SECT":"一段","MAREA":" ","LANE":" ","ALLEY":" ","HOUSE_NO":"１２號八樓之５","E_COORD97":171508.60000000001,"N_COORD97":2544229.4100000001,"ADDRESS":"中華東路一段１２號八樓之５","OBJECTID":591982},"geometry":{"x":171508.59999999963,"y":2544229.410000002}},{"attributes":{"ID":592010,"DIS_CODE":0,"TOWNNAME":"東區","LI":"莊敬里","LIN":"11鄰","STREET":"中華東路","SECT":"一段","MAREA":" ","LANE":" ","ALLEY":" ","HOUSE_NO":"１２號十三樓之５","E_COORD97":171508.60000000001,"N_COORD97":2544229.4100000001,"ADDRESS":"中華東路一段１２號十三樓之５","OBJECTID":591983},"geometry":{"x":171508.59999999963,"y":2544229.410000002}},{"attributes":{"ID":592011,"DIS_CODE":0,"TOWNNAME":"東區","LI":"莊敬里","LIN":"11鄰","STREET":"中華東路","SECT":"一段","MAREA":" ","LANE":" ","ALLEY":" ","HOUSE_NO":"１２號十四樓之６","E_COORD97":171508.60000000001,"N_COORD97":2544229.4100000001,"ADDRESS":"中華東路一段１２號十四樓之６","OBJECTID":591984},"geometry":{"x":171508.59999999963,"y":2544229.410000002}},{"attributes":{"ID":592012,"DIS_CODE":0,"TOWNNAME":"東區","LI":"莊敬里","LIN":"11鄰","STREET":"中華東路","SECT":"一段","MAREA":" ","LANE":" ","ALLEY":" ","HOUSE_NO":"１２號六樓之８","E_COORD97":171508.60000000001,"N_COORD97":2544229.4100000001,"ADDRESS":"中華東路一段１２號六樓之８","OBJECTID":591985},"geometry":{"x":171508.59999999963,"y":2544229.410000002}},{"attributes":{"ID":592013,"DIS_CODE":0,"TOWNNAME":"東區","LI":"莊敬里","LIN":"11鄰","STREET":"中華東路","SECT":"一段","MAREA":" ","LANE":" ","ALLEY":" ","HOUSE_NO":"１２號六樓之９","E_COORD97":171508.60000000001,"N_COORD97":2544229.4100000001,"ADDRESS":"中華東路一段１２號六樓之９","OBJECTID":591986},"geometry":{"x":171508.59999999963,"y":2544229.410000002}},{"attributes":{"ID":592014,"DIS_CODE":0,"TOWNNAME":"東區","LI":"東明里","LIN":"11鄰","STREET":"東興路","SECT":" ","MAREA":" ","LANE":" ","ALLEY":" ","HOUSE_NO":"１４１號七樓之１","E_COORD97":170945.44,"N_COORD97":2543694.8999999999,"ADDRESS":"東興路１４１號七樓之１","OBJECTID":591987},"geometry":{"x":170945.44000000134,"y":2543694.9000000004}},{"attributes":{"ID":592015,"DIS_CODE":0,"TOWNNAME":"東區","LI":"東明里","LIN":"11鄰","STREET":"東興路","SECT":" ","MAREA":" ","LANE":" ","ALLEY":" ","HOUSE_NO":"１４１號七樓之２","E_COORD97":170945.44,"N_COORD97":2543694.8999999999,"ADDRESS":"東興路１４１號七樓之２","OBJECTID":591988},"geometry":{"x":170945.44000000134,"y":2543694.9000000004}},{"attributes":{"ID":592016,"DIS_CODE":0,"TOWNNAME":"東區","LI":"東明里","LIN":"11鄰","STREET":"東興路","SECT":" ","MAREA":" ","LANE":" ","ALLEY":" ","HOUSE_NO":"１４１號七樓之３","E_COORD97":170945.44,"N_COORD97":2543694.8999999999,"ADDRESS":"東興路１４１號七樓之３","OBJECTID":591989},"geometry":{"x":170945.44000000134,"y":2543694.9000000004}},{"attributes":{"ID":592017,"DIS_CODE":0,"TOWNNAME":"東區","LI":"東明里","LIN":"11鄰","STREET":"東興路","SECT":" ","MAREA":" ","LANE":" ","ALLEY":" ","HOUSE_NO":"１４１號七樓之５","E_COORD97":170945.44,"N_COORD97":2543694.8999999999,"ADDRESS":"東興路１４１號七樓之５","OBJECTID":591990},"geometry":{"x":170945.44000000134,"y":2543694.9000000004}},{"attributes":{"ID":592018,"DIS_CODE":0,"TOWNNAME":"東區","LI":"東明里","LIN":"11鄰","STREET":"東興路","SECT":" ","MAREA":" ","LANE":" ","ALLEY":" ","HOUSE_NO":"１４１號二樓之１","E_COORD97":170945.44,"N_COORD97":2543694.8999999999,"ADDRESS":"東興路１４１號二樓之１","OBJECTID":591991},"geometry":{"x":170945.44000000134,"y":2543694.9000000004}},{"attributes":{"ID":592019,"DIS_CODE":0,"TOWNNAME":"東區","LI":"東明里","LIN":"11鄰","STREET":"東興路","SECT":" ","MAREA":" ","LANE":" ","ALLEY":" ","HOUSE_NO":"１４１號二樓之２","E_COORD97":170945.44,"N_COORD97":2543694.8999999999,"ADDRESS":"東興路１４１號二樓之２","OBJECTID":591992},"geometry":{"x":170945.44000000134,"y":2543694.9000000004}},{"attributes":{"ID":592020,"DIS_CODE":0,"TOWNNAME":"東區","LI":"東明里","LIN":"11鄰","STREET":"東興路","SECT":" ","MAREA":" ","LANE":" ","ALLEY":" ","HOUSE_NO":"１４１號三樓之１","E_COORD97":170945.44,"N_COORD97":2543694.8999999999,"ADDRESS":"東興路１４１號三樓之１","OBJECTID":591993},"geometry":{"x":170945.44000000134,"y":2543694.9000000004}},{"attributes":{"ID":592021,"DIS_CODE":0,"TOWNNAME":"東區","LI":"東明里","LIN":"11鄰","STREET":"東興路","SECT":" ","MAREA":" ","LANE":" ","ALLEY":" ","HOUSE_NO":"１４１號三樓之２","E_COORD97":170945.44,"N_COORD97":2543694.8999999999,"ADDRESS":"東興路１４１號三樓之２","OBJECTID":591994},"geometry":{"x":170945.44000000134,"y":2543694.9000000004}},{"attributes":{"ID":592022,"DIS_CODE":0,"TOWNNAME":"東區","LI":"東明里","LIN":"11鄰","STREET":"東興路","SECT":" ","MAREA":" ","LANE":" ","ALLEY":" ","HOUSE_NO":"１４１號三樓之３","E_COORD97":170945.44,"N_COORD97":2543694.8999999999,"ADDRESS":"東興路１４１號三樓之３","OBJECTID":591995},"geometry":{"x":170945.44000000134,"y":2543694.9000000004}},{"attributes":{"ID":592023,"DIS_CODE":0,"TOWNNAME":"東區","LI":"東明里","LIN":"11鄰","STREET":"東興路","SECT":" ","MAREA":" ","LANE":" ","ALLEY":" ","HOUSE_NO":"１４１號三樓之５","E_COORD97":170945.44,"N_COORD97":2543694.8999999999,"ADDRESS":"東興路１４１號三樓之５","OBJECTID":591996},"geometry":{"x":170945.44000000134,"y":2543694.9000000004}},{"attributes":{"ID":592024,"DIS_CODE":0,"TOWNNAME":"安南區","LI":"溪北里","LIN":"19鄰","STREET":"郡安路","SECT":"四段","MAREA":" ","LANE":" ","ALLEY":" ","HOUSE_NO":"７６號之２","E_COORD97":169072.47,"N_COORD97":2547561.5,"ADDRESS":"郡安路四段７６號之２","OBJECTID":591997},"geometry":{"x":169072.46999999974,"y":2547561.5000000019}},{"attributes":{"ID":592025,"DIS_CODE":0,"TOWNNAME":"東區","LI":"龍山里","LIN":"11鄰","STREET":"光華街","SECT":" ","MAREA":" ","LANE":" ","ALLEY":" ","HOUSE_NO":"３０號","E_COORD97":169897.79000000001,"N_COORD97":2542815.9399999999,"ADDRESS":"光華街３０號","OBJECTID":591998},"geometry":{"x":169897.79000000004,"y":2542815.9399999995}},{"attributes":{"ID":592026,"DIS_CODE":0,"TOWNNAME":"東區","LI":"東明里","LIN":"11鄰","STREET":"東興路","SECT":" ","MAREA":" ","LANE":" ","ALLEY":" ","HOUSE_NO":"１４１號三樓之６","E_COORD97":170945.44,"N_COORD97":2543694.8999999999,"ADDRESS":"東興路１４１號三樓之６","OBJECTID":591999},"geometry":{"x":170945.44000000134,"y":2543694.9000000004}},{"attributes":{"ID":592027,"DIS_CODE":0,"TOWNNAME":"東區","LI":"東明里","LIN":"11鄰","STREET":"東興路","SECT":" ","MAREA":" ","LANE":" ","ALLEY":" ","HOUSE_NO":"１４１號五樓之１","E_COORD97":170945.44,"N_COORD97":2543694.8999999999,"ADDRESS":"東興路１４１號五樓之１","OBJECTID":592000},"geometry":{"x":170945.44000000134,"y":2543694.9000000004}}]}