{"displayFieldName":"TOWNNAME","fieldAliases":{"ID":"ID","DIS_CODE":"DIS_CODE","TOWNNAME":"TOWNNAME","LI":"LI","LIN":"LIN","STREET":"STREET","SECT":"SECT","MAREA":"MAREA","LANE":"LANE","ALLEY":"ALLEY","HOUSE_NO":"HOUSE_NO","E_COORD97":"E_COORD97","N_COORD97":"N_COORD97","ADDRESS":"ADDRESS","OBJECTID":"OBJECTID"},"geometryType":"esriGeometryPoint","spatialReference":{"wkid":102443,"latestWkid":3826},"fields":[{"name":"ID","type":"esriFieldTypeDouble","alias":"ID"},{"name":"DIS_CODE","type":"esriFieldTypeInteger","alias":"DIS_CODE"},{"name":"TOWNNAME","type":"esriFieldTypeString","alias":"TOWNNAME","length":8},{"name":"LI","type":"esriFieldTypeString","alias":"LI","length":8},{"name":"LIN","type":"esriFieldTypeString","alias":"LIN","length":12},{"name":"STREET","type":"esriFieldTypeString","alias":"STREET","length":20},{"name":"SECT","type":"esriFieldTypeString","alias":"SECT","length":8},{"name":"MAREA","type":"esriFieldTypeString","alias":"MAREA","length":12},{"name":"LANE","type":"esriFieldTypeString","alias":"LANE","length":10},{"name":"ALLEY","type":"esriFieldTypeString","alias":"ALLEY","length":10},{"name":"HOUSE_NO","type":"esriFieldTypeString","alias":"HOUSE_NO","length":20},{"name":"E_COORD97","type":"esriFieldTypeDouble","alias":"E_COORD97"},{"name":"N_COORD97","type":"esriFieldTypeDouble","alias":"N_COORD97"},{"name":"ADDRESS","type":"esriFieldTypeString","alias":"ADDRESS","length":50},{"name":"OBJECTID","type":"esriFieldTypeOID","alias":"OBJECTID"}],"features":[{"attributes":{"ID":579628,"DIS_CODE":0,"TOWNNAME":"新化區","LI":"竹林里","LIN":"3鄰","STREET":"民權街","SECT":" ","MAREA":" ","LANE":" ","ALLEY":" ","HOUSE_NO":"８號","E_COORD97":178769.20999999999,"N_COORD97":2548445.25,"ADDRESS":"民權街８號","OBJECTID":579601},"geometry":{"x":178769.20999999996,"y":2548445.2500000019}},{"attributes":{"ID":579629,"DIS_CODE":0,"TOWNNAME":"新化區","LI":"協興里","LIN":"16鄰","STREET":"中山路","SECT":" ","MAREA":" ","LANE":" ","ALLEY":" ","HOUSE_NO":"９９２號之６","E_COORD97":177088.26000000001,"N_COORD97":2548404.2599999998,"ADDRESS":"中山路９９２號之６","OBJECTID":579602},"geometry":{"x":177088.25999999978,"y":2548404.2600000016}},{"attributes":{"ID":579630,"DIS_CODE":0,"TOWNNAME":"新化區","LI":"協興里","LIN":"16鄰","STREET":"中山路","SECT":" ","MAREA":" ","LANE":" ","ALLEY":" ","HOUSE_NO":"６８６號","E_COORD97":178044.70999999999,"N_COORD97":2548502.25,"ADDRESS":"中山路６８６號","OBJECTID":579603},"geometry":{"x":178044.71000000089,"y":2548502.2500000019}},{"attributes":{"ID":579631,"DIS_CODE":0,"TOWNNAME":"新化區","LI":"東榮里","LIN":"16鄰","STREET":"中興路","SECT":" ","MAREA":" ","LANE":" ","ALLEY":" ","HOUSE_NO":"６８２號","E_COORD97":179607.31,"N_COORD97":2548109.25,"ADDRESS":"中興路６８２號","OBJECTID":579604},"geometry":{"x":179607.30999999959,"y":2548109.2500000019}},{"attributes":{"ID":579632,"DIS_CODE":0,"TOWNNAME":"新化區","LI":"協興里","LIN":"16鄰","STREET":"中山路","SECT":" ","MAREA":" ","LANE":" ","ALLEY":" ","HOUSE_NO":"７０２號","E_COORD97":178012.81,"N_COORD97":2548492.25,"ADDRESS":"中山路７０２號","OBJECTID":579605},"geometry":{"x":178012.81000000052,"y":2548492.2500000019}},{"attributes":{"ID":579633,"DIS_CODE":0,"TOWNNAME":"新化區","LI":"協興里","LIN":"16鄰","STREET":"中山路","SECT":" ","MAREA":" ","LANE":" ","ALLEY":" ","HOUSE_NO":"６７８號","E_COORD97":178079.60999999999,"N_COORD97":2548527.2400000002,"ADDRESS":"中山路６７８號","OBJECTID":579606},"geometry":{"x":178079.61000000127,"y":2548527.2400000002}},{"attributes":{"ID":579634,"DIS_CODE":0,"TOWNNAME":"新化區","LI":"協興里","LIN":"16鄰","STREET":"中山路","SECT":" ","MAREA":" ","LANE":" ","ALLEY":" ","HOUSE_NO":"７３０號","E_COORD97":177964.67680399999,"N_COORD97":2548477.4975100001,"ADDRESS":"中山路７３０號","OBJECTID":579607},"geometry":{"x":177964.67680400051,"y":2548477.4975120015}},{"attributes":{"ID":579635,"DIS_CODE":0,"TOWNNAME":"新化區","LI":"協興里","LIN":"16鄰","STREET":"中山路","SECT":" ","MAREA":" ","LANE":" ","ALLEY":" ","HOUSE_NO":"９９６號","E_COORD97":177030.31,"N_COORD97":2548389.25,"ADDRESS":"中山路９９６號","OBJECTID":579608},"geometry":{"x":177030.30999999959,"y":2548389.2500000037}},{"attributes":{"ID":579636,"DIS_CODE":0,"TOWNNAME":"西港區","LI":"西港里","LIN":"16鄰","STREET":"中山路","SECT":" ","MAREA":" ","LANE":" ","ALLEY":" ","HOUSE_NO":"２８６號","E_COORD97":168424.62,"N_COORD97":2557885.8199999998,"ADDRESS":"中山路２８６號","OBJECTID":579609},"geometry":{"x":168424.62000000197,"y":2557885.820000004}},{"attributes":{"ID":579637,"DIS_CODE":0,"TOWNNAME":"西港區","LI":"西港里","LIN":"16鄰","STREET":"中山路","SECT":" ","MAREA":" ","LANE":" ","ALLEY":" ","HOUSE_NO":"２９２號","E_COORD97":168423.48999999999,"N_COORD97":2557897.1099999999,"ADDRESS":"中山路２９２號","OBJECTID":579610},"geometry":{"x":168423.49000000022,"y":2557897.1100000013}},{"attributes":{"ID":579638,"DIS_CODE":0,"TOWNNAME":"西港區","LI":"西港里","LIN":"16鄰","STREET":"中山路","SECT":" ","MAREA":" ","LANE":" ","ALLEY":" ","HOUSE_NO":"２９４號","E_COORD97":168422.89000000001,"N_COORD97":2557901.0499999998,"ADDRESS":"中山路２９４號","OBJECTID":579611},"geometry":{"x":168422.8900000006,"y":2557901.0500000007}},{"attributes":{"ID":579639,"DIS_CODE":0,"TOWNNAME":"西港區","LI":"西港里","LIN":"16鄰","STREET":"中山路","SECT":" ","MAREA":" ","LANE":" ","ALLEY":" ","HOUSE_NO":"２９６號","E_COORD97":168422.39000000001,"N_COORD97":2557904.71,"ADDRESS":"中山路２９６號","OBJECTID":579612},"geometry":{"x":168422.3900000006,"y":2557904.7100000028}},{"attributes":{"ID":579640,"DIS_CODE":0,"TOWNNAME":"西港區","LI":"西港里","LIN":"16鄰","STREET":"中山路","SECT":" ","MAREA":" ","LANE":" ","ALLEY":" ","HOUSE_NO":"２９８號","E_COORD97":168421.98999999999,"N_COORD97":2557908.3199999998,"ADDRESS":"中山路２９８號","OBJECTID":579613},"geometry":{"x":168421.98999999929,"y":2557908.3200000003}},{"attributes":{"ID":579641,"DIS_CODE":0,"TOWNNAME":"西港區","LI":"西港里","LIN":"16鄰","STREET":"中山路","SECT":" ","MAREA":" ","LANE":" ","ALLEY":" ","HOUSE_NO":"３００號","E_COORD97":168421.63,"N_COORD97":2557913.3500000001,"ADDRESS":"中山路３００號","OBJECTID":579614},"geometry":{"x":168421.63000000082,"y":2557913.3500000015}},{"attributes":{"ID":579642,"DIS_CODE":0,"TOWNNAME":"西港區","LI":"西港里","LIN":"16鄰","STREET":"中山路","SECT":" ","MAREA":" ","LANE":" ","ALLEY":" ","HOUSE_NO":"３０２號","E_COORD97":168420.79999999999,"N_COORD97":2557917.4900000002,"ADDRESS":"中山路３０２號","OBJECTID":579615},"geometry":{"x":168420.79999999981,"y":2557917.4900000002}},{"attributes":{"ID":579643,"DIS_CODE":0,"TOWNNAME":"西港區","LI":"西港里","LIN":"16鄰","STREET":"中山路","SECT":" ","MAREA":" ","LANE":" ","ALLEY":" ","HOUSE_NO":"３０６號","E_COORD97":168420.44,"N_COORD97":2557921.6800000002,"ADDRESS":"中山路３０６號","OBJECTID":579616},"geometry":{"x":168420.44000000041,"y":2557921.6799999997}},{"attributes":{"ID":579644,"DIS_CODE":0,"TOWNNAME":"西港區","LI":"西港里","LIN":"16鄰","STREET":"中山路","SECT":" ","MAREA":" ","LANE":" ","ALLEY":" ","HOUSE_NO":"３１０號","E_COORD97":168419.39999999999,"N_COORD97":2557928.5800000001,"ADDRESS":"中山路３１０號","OBJECTID":579617},"geometry":{"x":168419.39999999944,"y":2557928.5800000019}},{"attributes":{"ID":579645,"DIS_CODE":0,"TOWNNAME":"東區","LI":"大福里","LIN":"16鄰","STREET":"立德七路","SECT":" ","MAREA":" ","LANE":" ","ALLEY":" ","HOUSE_NO":"２６號","E_COORD97":169578.56,"N_COORD97":2541900.1099999999,"ADDRESS":"立德七路２６號","OBJECTID":579618},"geometry":{"x":169578.55999999959,"y":2541900.1099999994}},{"attributes":{"ID":579646,"DIS_CODE":0,"TOWNNAME":"東區","LI":"大福里","LIN":"16鄰","STREET":"立德七路","SECT":" ","MAREA":" ","LANE":" ","ALLEY":" ","HOUSE_NO":"２８號","E_COORD97":169582.75,"N_COORD97":2541901.1600000001,"ADDRESS":"立德七路２８號","OBJECTID":579619},"geometry":{"x":169582.75,"y":2541901.1600000039}},{"attributes":{"ID":579647,"DIS_CODE":0,"TOWNNAME":"東區","LI":"大福里","LIN":"16鄰","STREET":"立德七路","SECT":" ","MAREA":" ","LANE":" ","ALLEY":" ","HOUSE_NO":"３０號","E_COORD97":169586.92999999999,"N_COORD97":2541901.5,"ADDRESS":"立德七路３０號","OBJECTID":579620},"geometry":{"x":169586.93000000063,"y":2541901.5}},{"attributes":{"ID":579648,"DIS_CODE":0,"TOWNNAME":"東區","LI":"大福里","LIN":"16鄰","STREET":"立德七路","SECT":" ","MAREA":" ","LANE":" ","ALLEY":" ","HOUSE_NO":"３２號","E_COORD97":169591.82000000001,"N_COORD97":2541902.2000000002,"ADDRESS":"立德七路３２號","OBJECTID":579621},"geometry":{"x":169591.82000000123,"y":2541902.1999999993}},{"attributes":{"ID":579649,"DIS_CODE":0,"TOWNNAME":"東區","LI":"大福里","LIN":"16鄰","STREET":"立德七路","SECT":" ","MAREA":" ","LANE":" ","ALLEY":" ","HOUSE_NO":"３４號","E_COORD97":169595.29999999999,"N_COORD97":2541904.29,"ADDRESS":"立德七路３４號","OBJECTID":579622},"geometry":{"x":169595.29999999981,"y":2541904.2899999991}},{"attributes":{"ID":579650,"DIS_CODE":0,"TOWNNAME":"東區","LI":"大福里","LIN":"16鄰","STREET":"立德七路","SECT":" ","MAREA":" ","LANE":" ","ALLEY":" ","HOUSE_NO":"３６號","E_COORD97":169602.28,"N_COORD97":2541904.29,"ADDRESS":"立德七路３６號","OBJECTID":579623},"geometry":{"x":169602.28000000119,"y":2541904.2899999991}},{"attributes":{"ID":579651,"DIS_CODE":0,"TOWNNAME":"東區","LI":"大福里","LIN":"16鄰","STREET":"立德七路","SECT":" ","MAREA":" ","LANE":" ","ALLEY":" ","HOUSE_NO":"３８號","E_COORD97":169606.12,"N_COORD97":2541906.0299999998,"ADDRESS":"立德七路３８號","OBJECTID":579624},"geometry":{"x":169606.12000000197,"y":2541906.0300000012}},{"attributes":{"ID":579652,"DIS_CODE":0,"TOWNNAME":"東區","LI":"大福里","LIN":"16鄰","STREET":"立德七路","SECT":" ","MAREA":" ","LANE":" ","ALLEY":" ","HOUSE_NO":"４０號","E_COORD97":169611.70000000001,"N_COORD97":2541906.73,"ADDRESS":"立德七路４０號","OBJECTID":579625},"geometry":{"x":169611.70000000019,"y":2541906.7300000004}},{"attributes":{"ID":579653,"DIS_CODE":0,"TOWNNAME":"東區","LI":"大福里","LIN":"16鄰","STREET":"立德七路","SECT":" ","MAREA":" ","LANE":" ","ALLEY":" ","HOUSE_NO":"４２號","E_COORD97":169616.92999999999,"N_COORD97":2541907.0800000001,"ADDRESS":"立德七路４２號","OBJECTID":579626},"geometry":{"x":169616.9299999997,"y":2541907.0800000001}},{"attributes":{"ID":579654,"DIS_CODE":0,"TOWNNAME":"永康區","LI":"埔園里","LIN":"16鄰","STREET":"中山路","SECT":" ","MAREA":" ","LANE":" ","ALLEY":" ","HOUSE_NO":"４０１號","E_COORD97":173548.48999999999,"N_COORD97":2548585.3199999998,"ADDRESS":"中山路４０１號","OBJECTID":579627},"geometry":{"x":173548.49000000209,"y":2548585.3200000003}},{"attributes":{"ID":579655,"DIS_CODE":0,"TOWNNAME":"學甲區","LI":"明宜里","LIN":"22鄰","STREET":"三民路","SECT":" ","MAREA":" ","LANE":" ","ALLEY":" ","HOUSE_NO":"３號","E_COORD97":165799.23000000001,"N_COORD97":2570612.3900000001,"ADDRESS":"三民路３號","OBJECTID":579628},"geometry":{"x":165799.23000000045,"y":2570612.3900000006}},{"attributes":{"ID":579656,"DIS_CODE":0,"TOWNNAME":"東區","LI":"東安里","LIN":"16鄰","STREET":"衛國街","SECT":" ","MAREA":" ","LANE":" ","ALLEY":" ","HOUSE_NO":"３５號","E_COORD97":170251.17000000001,"N_COORD97":2543060.3100000001,"ADDRESS":"衛國街３５號","OBJECTID":579629},"geometry":{"x":170251.16999999993,"y":2543060.3100000024}},{"attributes":{"ID":579657,"DIS_CODE":0,"TOWNNAME":"東區","LI":"東安里","LIN":"16鄰","STREET":"衛國街","SECT":" ","MAREA":" ","LANE":" ","ALLEY":" ","HOUSE_NO":"３７號","E_COORD97":170251.89000000001,"N_COORD97":2543065.0299999998,"ADDRESS":"衛國街３７號","OBJECTID":579630},"geometry":{"x":170251.8900000006,"y":2543065.0300000012}},{"attributes":{"ID":579658,"DIS_CODE":0,"TOWNNAME":"東區","LI":"東安里","LIN":"16鄰","STREET":"衛國街","SECT":" ","MAREA":" ","LANE":" ","ALLEY":" ","HOUSE_NO":"３９號","E_COORD97":170252.89000000001,"N_COORD97":2543069.02,"ADDRESS":"衛國街３９號","OBJECTID":579631},"geometry":{"x":170252.88999999873,"y":2543069.0200000014}},{"attributes":{"ID":579659,"DIS_CODE":0,"TOWNNAME":"東區","LI":"東安里","LIN":"16鄰","STREET":"衛國街","SECT":" ","MAREA":" ","LANE":" ","ALLEY":" ","HOUSE_NO":"４１號","E_COORD97":170253.79999999999,"N_COORD97":2543073.8199999998,"ADDRESS":"衛國街４１號","OBJECTID":579632},"geometry":{"x":170253.80000000168,"y":2543073.8200000022}},{"attributes":{"ID":579660,"DIS_CODE":0,"TOWNNAME":"東區","LI":"東安里","LIN":"16鄰","STREET":"衛國街","SECT":" ","MAREA":" ","LANE":" ","ALLEY":" ","HOUSE_NO":"３號","E_COORD97":170231.45000000001,"N_COORD97":2542965.52,"ADDRESS":"衛國街３號","OBJECTID":579633},"geometry":{"x":170231.45000000112,"y":2542965.5199999996}},{"attributes":{"ID":579661,"DIS_CODE":0,"TOWNNAME":"東區","LI":"東安里","LIN":"16鄰","STREET":"衛國街","SECT":" ","MAREA":" ","LANE":" ","ALLEY":" ","HOUSE_NO":"９號","E_COORD97":170235.14999999999,"N_COORD97":2542978.6200000001,"ADDRESS":"衛國街９號","OBJECTID":579634},"geometry":{"x":170235.15000000224,"y":2542978.620000001}},{"attributes":{"ID":579662,"DIS_CODE":0,"TOWNNAME":"東區","LI":"東安里","LIN":"16鄰","STREET":"衛國街","SECT":" ","MAREA":" ","LANE":" ","ALLEY":" ","HOUSE_NO":"１１號","E_COORD97":170235.63,"N_COORD97":2542982.4199999999,"ADDRESS":"衛國街１１號","OBJECTID":579635},"geometry":{"x":170235.62999999989,"y":2542982.4199999999}},{"attributes":{"ID":579663,"DIS_CODE":0,"TOWNNAME":"東區","LI":"龍山里","LIN":"16鄰","STREET":"府連路","SECT":" ","MAREA":" ","LANE":" ","ALLEY":" ","HOUSE_NO":"４３６號","E_COORD97":169743.12,"N_COORD97":2542935.52,"ADDRESS":"府連路４３６號","OBJECTID":579636},"geometry":{"x":169743.12000000011,"y":2542935.5200000033}},{"attributes":{"ID":579664,"DIS_CODE":0,"TOWNNAME":"東區","LI":"龍山里","LIN":"16鄰","STREET":"光華街","SECT":" ","MAREA":" ","LANE":" ","ALLEY":" ","HOUSE_NO":"１００號","E_COORD97":169715.95999999999,"N_COORD97":2542932.3799999999,"ADDRESS":"光華街１００號","OBJECTID":579637},"geometry":{"x":169715.96000000089,"y":2542932.3800000027}},{"attributes":{"ID":579665,"DIS_CODE":0,"TOWNNAME":"東區","LI":"龍山里","LIN":"16鄰","STREET":"光華街","SECT":" ","MAREA":" ","LANE":" ","ALLEY":" ","HOUSE_NO":"１０２號","E_COORD97":169713.76000000001,"N_COORD97":2542935.6699999999,"ADDRESS":"光華街１０２號","OBJECTID":579638},"geometry":{"x":169713.76000000071,"y":2542935.6700000018}},{"attributes":{"ID":579666,"DIS_CODE":0,"TOWNNAME":"新市區","LI":"港墘里","LIN":"16鄰","STREET":"長安街","SECT":" ","MAREA":" ","LANE":" ","ALLEY":" ","HOUSE_NO":"５８號","E_COORD97":178218.82000000001,"N_COORD97":2552667.3199999998,"ADDRESS":"長安街５８號","OBJECTID":579639},"geometry":{"x":178218.82000000123,"y":2552667.3200000003}},{"attributes":{"ID":579667,"DIS_CODE":0,"TOWNNAME":"新市區","LI":"港墘里","LIN":"16鄰","STREET":"長安街","SECT":" ","MAREA":" ","LANE":" ","ALLEY":" ","HOUSE_NO":"６４號","E_COORD97":178204.62,"N_COORD97":2552663.8199999998,"ADDRESS":"長安街６４號","OBJECTID":579640},"geometry":{"x":178204.62000000104,"y":2552663.8200000003}},{"attributes":{"ID":579668,"DIS_CODE":0,"TOWNNAME":"新市區","LI":"港墘里","LIN":"16鄰","STREET":"長安街","SECT":" ","MAREA":" ","LANE":" ","ALLEY":" ","HOUSE_NO":"６２號","E_COORD97":178209.32000000001,"N_COORD97":2552664.5699999998,"ADDRESS":"長安街６２號","OBJECTID":579641},"geometry":{"x":178209.3200000003,"y":2552664.5700000003}},{"attributes":{"ID":579669,"DIS_CODE":0,"TOWNNAME":"永康區","LI":"埔園里","LIN":"16鄰","STREET":"八德街","SECT":" ","MAREA":" ","LANE":" ","ALLEY":" ","HOUSE_NO":"２２５號","E_COORD97":173511.14000000001,"N_COORD97":2548555.48,"ADDRESS":"八德街２２５號","OBJECTID":579642},"geometry":{"x":173511.14000000153,"y":2548555.4800000023}},{"attributes":{"ID":579670,"DIS_CODE":0,"TOWNNAME":"新市區","LI":"新市里","LIN":"16鄰","STREET":"和平街","SECT":" ","MAREA":" ","LANE":" ","ALLEY":" ","HOUSE_NO":"５７號","E_COORD97":177676.53,"N_COORD97":2553421.75,"ADDRESS":"和平街５７號","OBJECTID":579643},"geometry":{"x":177676.53000000119,"y":2553421.7500000019}},{"attributes":{"ID":579671,"DIS_CODE":0,"TOWNNAME":"新市區","LI":"新和里","LIN":"16鄰","STREET":"可口街","SECT":" ","MAREA":" ","LANE":" ","ALLEY":" ","HOUSE_NO":"７６號","E_COORD97":177623.07000000001,"N_COORD97":2552564,"ADDRESS":"可口街７６號","OBJECTID":579644},"geometry":{"x":177623.06999999937,"y":2552564}},{"attributes":{"ID":579672,"DIS_CODE":0,"TOWNNAME":"新市區","LI":"新和里","LIN":"16鄰","STREET":"可口街","SECT":" ","MAREA":" ","LANE":" ","ALLEY":" ","HOUSE_NO":"８０號","E_COORD97":177627.87,"N_COORD97":2552570,"ADDRESS":"可口街８０號","OBJECTID":579645},"geometry":{"x":177627.87000000104,"y":2552570}},{"attributes":{"ID":579673,"DIS_CODE":0,"TOWNNAME":"新市區","LI":"新和里","LIN":"16鄰","STREET":"可口街","SECT":" ","MAREA":" ","LANE":" ","ALLEY":" ","HOUSE_NO":"９０號","E_COORD97":177629.12,"N_COORD97":2552590.5,"ADDRESS":"可口街９０號","OBJECTID":579646},"geometry":{"x":177629.12000000011,"y":2552590.5}},{"attributes":{"ID":579674,"DIS_CODE":0,"TOWNNAME":"安南區","LI":"安和里","LIN":"16鄰","STREET":"安和路","SECT":"一段","MAREA":" ","LANE":" ","ALLEY":" ","HOUSE_NO":"１４２號","E_COORD97":169481.26999999999,"N_COORD97":2547678.6299999999,"ADDRESS":"安和路一段１４２號","OBJECTID":579647},"geometry":{"x":169481.27000000048,"y":2547678.6300000008}},{"attributes":{"ID":579675,"DIS_CODE":0,"TOWNNAME":"安南區","LI":"州南里","LIN":"16鄰","STREET":"安和路","SECT":"五段","MAREA":" ","LANE":" ","ALLEY":" ","HOUSE_NO":"７２之１號","E_COORD97":169945.78,"N_COORD97":2551657.6000000001,"ADDRESS":"安和路五段７２之１號","OBJECTID":579648},"geometry":{"x":169945.77999999933,"y":2551657.5999999996}},{"attributes":{"ID":579676,"DIS_CODE":0,"TOWNNAME":"安南區","LI":"州南里","LIN":"16鄰","STREET":"安和路","SECT":"五段","MAREA":" ","LANE":" ","ALLEY":" ","HOUSE_NO":"７２號","E_COORD97":169946.54000000001,"N_COORD97":2551655.2999999998,"ADDRESS":"安和路五段７２號","OBJECTID":579649},"geometry":{"x":169946.54000000004,"y":2551655.3000000026}},{"attributes":{"ID":579677,"DIS_CODE":0,"TOWNNAME":"學甲區","LI":"明宜里","LIN":"22鄰","STREET":"三民路","SECT":" ","MAREA":" ","LANE":" ","ALLEY":" ","HOUSE_NO":"４號","E_COORD97":165833.91,"N_COORD97":2570599.8199999998,"ADDRESS":"三民路４號","OBJECTID":579650},"geometry":{"x":165833.90999999922,"y":2570599.820000004}},{"attributes":{"ID":579678,"DIS_CODE":0,"TOWNNAME":"永康區","LI":"埔園里","LIN":"16鄰","STREET":"八德街","SECT":" ","MAREA":" ","LANE":" ","ALLEY":" ","HOUSE_NO":"２３５號","E_COORD97":173490.91,"N_COORD97":2548551.3599999999,"ADDRESS":"八德街２３５號","OBJECTID":579651},"geometry":{"x":173490.91000000015,"y":2548551.3600000013}},{"attributes":{"ID":579679,"DIS_CODE":0,"TOWNNAME":"永康區","LI":"南灣里","LIN":"16鄰","STREET":"大灣一街","SECT":" ","MAREA":" ","LANE":" ","ALLEY":" ","HOUSE_NO":"１１１號","E_COORD97":174528.29999999999,"N_COORD97":2544713.2200000002,"ADDRESS":"大灣一街１１１號","OBJECTID":579652},"geometry":{"x":174528.29999999981,"y":2544713.2200000025}},{"attributes":{"ID":579680,"DIS_CODE":0,"TOWNNAME":"永康區","LI":"烏竹里","LIN":"16鄰","STREET":"龍橋街","SECT":" ","MAREA":" ","LANE":" ","ALLEY":" ","HOUSE_NO":"２２０號","E_COORD97":174592.44,"N_COORD97":2548813.52,"ADDRESS":"龍橋街２２０號","OBJECTID":579653},"geometry":{"x":174592.44000000041,"y":2548813.5199999996}},{"attributes":{"ID":579681,"DIS_CODE":0,"TOWNNAME":"永康區","LI":"東灣里","LIN":"16鄰","STREET":"大灣三街","SECT":" ","MAREA":" ","LANE":" ","ALLEY":" ","HOUSE_NO":"８９號","E_COORD97":174825.69,"N_COORD97":2544968.6899999999,"ADDRESS":"大灣三街８９號","OBJECTID":579654},"geometry":{"x":174825.69000000134,"y":2544968.6900000013}},{"attributes":{"ID":579682,"DIS_CODE":0,"TOWNNAME":"永康區","LI":"東灣里","LIN":"16鄰","STREET":"大灣三街","SECT":" ","MAREA":" ","LANE":" ","ALLEY":" ","HOUSE_NO":"５８號","E_COORD97":174917.26000000001,"N_COORD97":2544959,"ADDRESS":"大灣三街５８號","OBJECTID":579655},"geometry":{"x":174917.25999999978,"y":2544959}},{"attributes":{"ID":579683,"DIS_CODE":0,"TOWNNAME":"永康區","LI":"埔園里","LIN":"16鄰","STREET":"八德街","SECT":" ","MAREA":" ","LANE":" ","ALLEY":" ","HOUSE_NO":"２１９號","E_COORD97":173524.69,"N_COORD97":2548558.23,"ADDRESS":"八德街２１９號","OBJECTID":579656},"geometry":{"x":173524.69000000041,"y":2548558.2300000004}},{"attributes":{"ID":579684,"DIS_CODE":0,"TOWNNAME":"永康區","LI":"埔園里","LIN":"16鄰","STREET":"中山路","SECT":" ","MAREA":" ","LANE":" ","ALLEY":" ","HOUSE_NO":"４４１號","E_COORD97":173514,"N_COORD97":2548671.5,"ADDRESS":"中山路４４１號","OBJECTID":579657},"geometry":{"x":173514,"y":2548671.5}},{"attributes":{"ID":579685,"DIS_CODE":0,"TOWNNAME":"永康區","LI":"南灣里","LIN":"16鄰","STREET":"立興街","SECT":" ","MAREA":" ","LANE":" ","ALLEY":" ","HOUSE_NO":"９７號","E_COORD97":174504.60999999999,"N_COORD97":2544725.9700000002,"ADDRESS":"立興街９７號","OBJECTID":579658},"geometry":{"x":174504.61000000034,"y":2544725.9700000007}},{"attributes":{"ID":579686,"DIS_CODE":0,"TOWNNAME":"永康區","LI":"埔園里","LIN":"16鄰","STREET":"八德街","SECT":" ","MAREA":" ","LANE":" ","ALLEY":" ","HOUSE_NO":"３９２號","E_COORD97":173443.23999999999,"N_COORD97":2548561.3999999999,"ADDRESS":"八德街３９２號","OBJECTID":579659},"geometry":{"x":173443.24000000209,"y":2548561.3999999985}},{"attributes":{"ID":579687,"DIS_CODE":0,"TOWNNAME":"永康區","LI":"埔園里","LIN":"16鄰","STREET":"八德街","SECT":" ","MAREA":" ","LANE":" ","ALLEY":" ","HOUSE_NO":"２１７號","E_COORD97":173528.89000000001,"N_COORD97":2548559.23,"ADDRESS":"八德街２１７號","OBJECTID":579660},"geometry":{"x":173528.8900000006,"y":2548559.2299999986}},{"attributes":{"ID":579688,"DIS_CODE":0,"TOWNNAME":"永康區","LI":"埔園里","LIN":"16鄰","STREET":"八德街","SECT":" ","MAREA":" ","LANE":" ","ALLEY":" ","HOUSE_NO":"４１８號","E_COORD97":173397.20000000001,"N_COORD97":2548551.48,"ADDRESS":"八德街４１８號","OBJECTID":579661},"geometry":{"x":173397.20000000019,"y":2548551.4800000023}},{"attributes":{"ID":579689,"DIS_CODE":0,"TOWNNAME":"永康區","LI":"烏竹里","LIN":"16鄰","STREET":"自強路","SECT":" ","MAREA":" ","LANE":" ","ALLEY":" ","HOUSE_NO":"８３５號","E_COORD97":174696.26999999999,"N_COORD97":2548735.5899999999,"ADDRESS":"自強路８３５號","OBJECTID":579662},"geometry":{"x":174696.26999999955,"y":2548735.5899999999}},{"attributes":{"ID":579690,"DIS_CODE":0,"TOWNNAME":"永康區","LI":"南灣里","LIN":"16鄰","STREET":"大灣一街","SECT":" ","MAREA":" ","LANE":" ","ALLEY":" ","HOUSE_NO":"１２１號","E_COORD97":174560.17999999999,"N_COORD97":2544706.2400000002,"ADDRESS":"大灣一街１２１號","OBJECTID":579663},"geometry":{"x":174560.17999999877,"y":2544706.2400000002}},{"attributes":{"ID":579691,"DIS_CODE":0,"TOWNNAME":"永康區","LI":"埔園里","LIN":"16鄰","STREET":"中山路","SECT":" ","MAREA":" ","LANE":" ","ALLEY":" ","HOUSE_NO":"４４９號","E_COORD97":173498,"N_COORD97":2548693.6200000001,"ADDRESS":"中山路４４９號","OBJECTID":579664},"geometry":{"x":173498.00000000093,"y":2548693.6200000029}},{"attributes":{"ID":579692,"DIS_CODE":0,"TOWNNAME":"永康區","LI":"埔園里","LIN":"16鄰","STREET":"八德街","SECT":" ","MAREA":" ","LANE":" ","ALLEY":" ","HOUSE_NO":"４１０號","E_COORD97":173410.64999999999,"N_COORD97":2548554.6899999999,"ADDRESS":"八德街４１０號","OBJECTID":579665},"geometry":{"x":173410.6500000013,"y":2548554.6899999995}},{"attributes":{"ID":579693,"DIS_CODE":0,"TOWNNAME":"永康區","LI":"埔園里","LIN":"16鄰","STREET":"八德街","SECT":" ","MAREA":" ","LANE":" ","ALLEY":" ","HOUSE_NO":"２３７號","E_COORD97":173485.66,"N_COORD97":2548550.3599999999,"ADDRESS":"八德街２３７號","OBJECTID":579666},"geometry":{"x":173485.66000000015,"y":2548550.3599999994}},{"attributes":{"ID":579694,"DIS_CODE":0,"TOWNNAME":"永康區","LI":"烏竹里","LIN":"16鄰","STREET":"龍橋街","SECT":" ","MAREA":" ","LANE":" ","ALLEY":" ","HOUSE_NO":"２０８號","E_COORD97":174619.63,"N_COORD97":2548785.9900000002,"ADDRESS":"龍橋街２０８號","OBJECTID":579667},"geometry":{"x":174619.62999999989,"y":2548785.9900000021}},{"attributes":{"ID":579695,"DIS_CODE":0,"TOWNNAME":"永康區","LI":"埔園里","LIN":"16鄰","STREET":"八德街","SECT":" ","MAREA":" ","LANE":" ","ALLEY":" ","HOUSE_NO":"４１２號","E_COORD97":173406.35000000001,"N_COORD97":2548553.6899999999,"ADDRESS":"八德街４１２號","OBJECTID":579668},"geometry":{"x":173406.35000000149,"y":2548553.6899999995}},{"attributes":{"ID":579696,"DIS_CODE":0,"TOWNNAME":"永康區","LI":"埔園里","LIN":"16鄰","STREET":"中山路","SECT":" ","MAREA":" ","LANE":" ","ALLEY":" ","HOUSE_NO":"４０３號","E_COORD97":173544.26999999999,"N_COORD97":2548592.96,"ADDRESS":"中山路４０３號","OBJECTID":579669},"geometry":{"x":173544.27000000048,"y":2548592.9600000028}},{"attributes":{"ID":579697,"DIS_CODE":0,"TOWNNAME":"永康區","LI":"埔園里","LIN":"16鄰","STREET":"中山路","SECT":" ","MAREA":" ","LANE":" ","ALLEY":" ","HOUSE_NO":"４４３號","E_COORD97":173511.76000000001,"N_COORD97":2548675.25,"ADDRESS":"中山路４４３號","OBJECTID":579670},"geometry":{"x":173511.75999999978,"y":2548675.2500000019}},{"attributes":{"ID":579698,"DIS_CODE":0,"TOWNNAME":"永康區","LI":"埔園里","LIN":"16鄰","STREET":"八德街","SECT":" ","MAREA":" ","LANE":" ","ALLEY":" ","HOUSE_NO":"２４７號","E_COORD97":173461.26999999999,"N_COORD97":2548544.3599999999,"ADDRESS":"八德街２４７號","OBJECTID":579671},"geometry":{"x":173461.27000000048,"y":2548544.3600000013}},{"attributes":{"ID":579699,"DIS_CODE":0,"TOWNNAME":"永康區","LI":"埔園里","LIN":"16鄰","STREET":"八德街","SECT":" ","MAREA":" ","LANE":" ","ALLEY":" ","HOUSE_NO":"３９６號","E_COORD97":173437.79999999999,"N_COORD97":2548560.1499999999,"ADDRESS":"八德街３９６號","OBJECTID":579672},"geometry":{"x":173437.80000000075,"y":2548560.1500000041}},{"attributes":{"ID":579700,"DIS_CODE":0,"TOWNNAME":"永康區","LI":"埔園里","LIN":"16鄰","STREET":"八德街","SECT":" ","MAREA":" ","LANE":" ","ALLEY":" ","HOUSE_NO":"２２１號","E_COORD97":173520.14999999999,"N_COORD97":2548557.48,"ADDRESS":"八德街２２１號","OBJECTID":579673},"geometry":{"x":173520.15000000037,"y":2548557.4800000004}},{"attributes":{"ID":579701,"DIS_CODE":0,"TOWNNAME":"永康區","LI":"東橋里","LIN":"16鄰","STREET":"中山南路","SECT":" ","MAREA":" ","LANE":" ","ALLEY":" ","HOUSE_NO":"３５３號","E_COORD97":171981.60999999999,"N_COORD97":2546449.3999999999,"ADDRESS":"中山南路３５３號","OBJECTID":579674},"geometry":{"x":171981.61000000127,"y":2546449.4000000041}},{"attributes":{"ID":579702,"DIS_CODE":0,"TOWNNAME":"永康區","LI":"烏竹里","LIN":"16鄰","STREET":"龍橋街","SECT":" ","MAREA":" ","LANE":" ","ALLEY":" ","HOUSE_NO":"２５４號","E_COORD97":174560.48000000001,"N_COORD97":2548907.25,"ADDRESS":"龍橋街２５４號","OBJECTID":579675},"geometry":{"x":174560.48000000045,"y":2548907.25}},{"attributes":{"ID":579703,"DIS_CODE":0,"TOWNNAME":"永康區","LI":"烏竹里","LIN":"16鄰","STREET":"龍橋街","SECT":" ","MAREA":" ","LANE":" ","ALLEY":" ","HOUSE_NO":"２４８號","E_COORD97":174585.63,"N_COORD97":2548878.7400000002,"ADDRESS":"龍橋街２４８號","OBJECTID":579676},"geometry":{"x":174585.62999999989,"y":2548878.7400000021}},{"attributes":{"ID":579704,"DIS_CODE":0,"TOWNNAME":"永康區","LI":"東灣里","LIN":"16鄰","STREET":"大灣三街","SECT":" ","MAREA":" ","LANE":" ","ALLEY":" ","HOUSE_NO":"９６號","E_COORD97":174822,"N_COORD97":2544992.6800000002,"ADDRESS":"大灣三街９６號","OBJECTID":579677},"geometry":{"x":174822,"y":2544992.6800000016}},{"attributes":{"ID":579705,"DIS_CODE":0,"TOWNNAME":"永康區","LI":"埔園里","LIN":"16鄰","STREET":"八德街","SECT":" ","MAREA":" ","LANE":" ","ALLEY":" ","HOUSE_NO":"４０８號","E_COORD97":173415.04000000001,"N_COORD97":2548555.73,"ADDRESS":"八德街４０８號","OBJECTID":579678},"geometry":{"x":173415.04000000004,"y":2548555.7300000004}},{"attributes":{"ID":579706,"DIS_CODE":0,"TOWNNAME":"永康區","LI":"埔園里","LIN":"16鄰","STREET":"八德街","SECT":" ","MAREA":" ","LANE":" ","ALLEY":" ","HOUSE_NO":"２２３號","E_COORD97":173515.5,"N_COORD97":2548556.23,"ADDRESS":"八德街２２３號","OBJECTID":579679},"geometry":{"x":173515.5,"y":2548556.2300000042}},{"attributes":{"ID":579707,"DIS_CODE":0,"TOWNNAME":"永康區","LI":"南灣里","LIN":"16鄰","STREET":"立興街","SECT":" ","MAREA":" ","LANE":" ","ALLEY":" ","HOUSE_NO":"８７號","E_COORD97":174525.32000000001,"N_COORD97":2544745.2400000002,"ADDRESS":"立興街８７號","OBJECTID":579680},"geometry":{"x":174525.3200000003,"y":2544745.2400000039}},{"attributes":{"ID":579708,"DIS_CODE":0,"TOWNNAME":"永康區","LI":"烏竹里","LIN":"16鄰","STREET":"龍中街","SECT":" ","MAREA":" ","LANE":" ","ALLEY":" ","HOUSE_NO":"２３０號","E_COORD97":174375.66,"N_COORD97":2548531.7000000002,"ADDRESS":"龍中街２３０號","OBJECTID":579681},"geometry":{"x":174375.66000000015,"y":2548531.7000000011}},{"attributes":{"ID":579709,"DIS_CODE":0,"TOWNNAME":"永康區","LI":"埔園里","LIN":"16鄰","STREET":"八德街","SECT":" ","MAREA":" ","LANE":" ","ALLEY":" ","HOUSE_NO":"２４１號","E_COORD97":173475.51999999999,"N_COORD97":2548548.3599999999,"ADDRESS":"八德街２４１號","OBJECTID":579682},"geometry":{"x":173475.51999999955,"y":2548548.3600000013}},{"attributes":{"ID":579710,"DIS_CODE":0,"TOWNNAME":"永康區","LI":"埔園里","LIN":"16鄰","STREET":"八德街","SECT":" ","MAREA":" ","LANE":" ","ALLEY":" ","HOUSE_NO":"２４３號","E_COORD97":173470.70000000001,"N_COORD97":2548546.8599999999,"ADDRESS":"八德街２４３號","OBJECTID":579683},"geometry":{"x":173470.70000000205,"y":2548546.8599999994}},{"attributes":{"ID":579711,"DIS_CODE":0,"TOWNNAME":"永康區","LI":"烏竹里","LIN":"16鄰","STREET":"龍橋街","SECT":" ","MAREA":" ","LANE":" ","ALLEY":" ","HOUSE_NO":"２０４號","E_COORD97":174612.82000000001,"N_COORD97":2548761.9199999999,"ADDRESS":"龍橋街２０４號","OBJECTID":579684},"geometry":{"x":174612.82000000123,"y":2548761.9200000018}},{"attributes":{"ID":579712,"DIS_CODE":0,"TOWNNAME":"永康區","LI":"埔園里","LIN":"16鄰","STREET":"八德街","SECT":" ","MAREA":" ","LANE":" ","ALLEY":" ","HOUSE_NO":"２３３號","E_COORD97":173495.60999999999,"N_COORD97":2548552.6099999999,"ADDRESS":"八德街２３３號","OBJECTID":579685},"geometry":{"x":173495.61000000127,"y":2548552.6100000031}},{"attributes":{"ID":579713,"DIS_CODE":0,"TOWNNAME":"安南區","LI":"州北里","LIN":"16鄰","STREET":"安昌街","SECT":" ","MAREA":" ","LANE":" ","ALLEY":" ","HOUSE_NO":"１４號","E_COORD97":169826.67999999999,"N_COORD97":2551957.02,"ADDRESS":"安昌街１４號","OBJECTID":579686},"geometry":{"x":169826.6799999997,"y":2551957.0200000033}},{"attributes":{"ID":579714,"DIS_CODE":0,"TOWNNAME":"安南區","LI":"州北里","LIN":"16鄰","STREET":"安昌街","SECT":" ","MAREA":" ","LANE":" ","ALLEY":" ","HOUSE_NO":"４號","E_COORD97":169827.19,"N_COORD97":2551950.6899999999,"ADDRESS":"安昌街４號","OBJECTID":579687},"geometry":{"x":169827.19000000041,"y":2551950.6900000013}},{"attributes":{"ID":579715,"DIS_CODE":0,"TOWNNAME":"新市區","LI":"新和里","LIN":"16鄰","STREET":"可口街","SECT":" ","MAREA":" ","LANE":" ","ALLEY":" ","HOUSE_NO":"８２號","E_COORD97":177627.87,"N_COORD97":2552574.25,"ADDRESS":"可口街８２號","OBJECTID":579688},"geometry":{"x":177627.87000000104,"y":2552574.2500000019}},{"attributes":{"ID":579716,"DIS_CODE":0,"TOWNNAME":"新市區","LI":"新和里","LIN":"16鄰","STREET":"可口街","SECT":" ","MAREA":" ","LANE":" ","ALLEY":" ","HOUSE_NO":"８４號","E_COORD97":177627.92999999999,"N_COORD97":2552578.5,"ADDRESS":"可口街８４號","OBJECTID":579689},"geometry":{"x":177627.9299999997,"y":2552578.5000000019}},{"attributes":{"ID":579717,"DIS_CODE":0,"TOWNNAME":"東區","LI":"崇成里","LIN":"16鄰","STREET":"崇明十七街","SECT":" ","MAREA":" ","LANE":" ","ALLEY":" ","HOUSE_NO":"２號","E_COORD97":170642.20999999999,"N_COORD97":2541230.9399999999,"ADDRESS":"崇明十七街２號","OBJECTID":579690},"geometry":{"x":170642.20999999996,"y":2541230.9400000013}},{"attributes":{"ID":579718,"DIS_CODE":0,"TOWNNAME":"東區","LI":"崇成里","LIN":"16鄰","STREET":"崇明十七街","SECT":" ","MAREA":" ","LANE":" ","ALLEY":" ","HOUSE_NO":"１１號","E_COORD97":170658.94,"N_COORD97":2541251.5800000001,"ADDRESS":"崇明十七街１１號","OBJECTID":579691},"geometry":{"x":170658.94000000134,"y":2541251.5800000019}},{"attributes":{"ID":579719,"DIS_CODE":0,"TOWNNAME":"東區","LI":"崇明里","LIN":"16鄰","STREET":"崇明路","SECT":" ","MAREA":" ","LANE":" ","ALLEY":" ","HOUSE_NO":"６１０號","E_COORD97":170538.13,"N_COORD97":2541431.2799999998,"ADDRESS":"崇明路６１０號","OBJECTID":579692},"geometry":{"x":170538.13000000175,"y":2541431.2800000031}},{"attributes":{"ID":579720,"DIS_CODE":0,"TOWNNAME":"東區","LI":"關聖里","LIN":"16鄰","STREET":"裕平路","SECT":" ","MAREA":" ","LANE":" ","ALLEY":" ","HOUSE_NO":"１９１號","E_COORD97":172408.54999999999,"N_COORD97":2542845.9500000002,"ADDRESS":"裕平路１９１號","OBJECTID":579693},"geometry":{"x":172408.55000000075,"y":2542845.9499999993}},{"attributes":{"ID":579721,"DIS_CODE":0,"TOWNNAME":"東區","LI":"文聖里","LIN":"16鄰","STREET":"裕平路","SECT":" ","MAREA":" ","LANE":" ","ALLEY":" ","HOUSE_NO":"２６２號","E_COORD97":172488.14999999999,"N_COORD97":2542811.73,"ADDRESS":"裕平路２６２號","OBJECTID":579694},"geometry":{"x":172488.1500000013,"y":2542811.7300000004}},{"attributes":{"ID":579722,"DIS_CODE":0,"TOWNNAME":"東區","LI":"文聖里","LIN":"16鄰","STREET":"裕平路","SECT":" ","MAREA":" ","LANE":" ","ALLEY":" ","HOUSE_NO":"２６６號","E_COORD97":172493.22,"N_COORD97":2542811.4900000002,"ADDRESS":"裕平路２６６號","OBJECTID":579695},"geometry":{"x":172493.21999999974,"y":2542811.4900000021}},{"attributes":{"ID":579723,"DIS_CODE":0,"TOWNNAME":"東區","LI":"文聖里","LIN":"16鄰","STREET":"裕平路","SECT":" ","MAREA":" ","LANE":" ","ALLEY":" ","HOUSE_NO":"２６８號","E_COORD97":172497.70999999999,"N_COORD97":2542811.1499999999,"ADDRESS":"裕平路２６８號","OBJECTID":579696},"geometry":{"x":172497.71000000089,"y":2542811.1500000022}},{"attributes":{"ID":579724,"DIS_CODE":0,"TOWNNAME":"東區","LI":"文聖里","LIN":"16鄰","STREET":"裕平路","SECT":" ","MAREA":" ","LANE":" ","ALLEY":" ","HOUSE_NO":"２６８之１０號","E_COORD97":172496.98999999999,"N_COORD97":2542775.0299999998,"ADDRESS":"裕平路２６８之１０號","OBJECTID":579697},"geometry":{"x":172496.99000000022,"y":2542775.0299999993}},{"attributes":{"ID":579725,"DIS_CODE":0,"TOWNNAME":"東區","LI":"文聖里","LIN":"16鄰","STREET":"裕平路","SECT":" ","MAREA":" ","LANE":" ","ALLEY":" ","HOUSE_NO":"２６８之１１號","E_COORD97":172491.75,"N_COORD97":2542774.3999999999,"ADDRESS":"裕平路２６８之１１號","OBJECTID":579698},"geometry":{"x":172491.75,"y":2542774.4000000041}},{"attributes":{"ID":579726,"DIS_CODE":0,"TOWNNAME":"東區","LI":"文聖里","LIN":"16鄰","STREET":"裕平路","SECT":" ","MAREA":" ","LANE":" ","ALLEY":" ","HOUSE_NO":"２６８之１２號","E_COORD97":172486.72,"N_COORD97":2542774.6099999999,"ADDRESS":"裕平路２６８之１２號","OBJECTID":579699},"geometry":{"x":172486.71999999881,"y":2542774.6099999994}},{"attributes":{"ID":579727,"DIS_CODE":0,"TOWNNAME":"東區","LI":"文聖里","LIN":"16鄰","STREET":"裕平路","SECT":" ","MAREA":" ","LANE":" ","ALLEY":" ","HOUSE_NO":"２６８之１３號","E_COORD97":172482.07000000001,"N_COORD97":2542774.3599999999,"ADDRESS":"裕平路２６８之１３號","OBJECTID":579700},"geometry":{"x":172482.07000000123,"y":2542774.3600000013}},{"attributes":{"ID":579728,"DIS_CODE":0,"TOWNNAME":"東區","LI":"文聖里","LIN":"16鄰","STREET":"裕平路","SECT":" ","MAREA":" ","LANE":" ","ALLEY":" ","HOUSE_NO":"２６８之１５號","E_COORD97":172481.06,"N_COORD97":2542765.1800000002,"ADDRESS":"裕平路２６８之１５號","OBJECTID":579701},"geometry":{"x":172481.06000000145,"y":2542765.1800000016}},{"attributes":{"ID":579729,"DIS_CODE":0,"TOWNNAME":"東區","LI":"文聖里","LIN":"16鄰","STREET":"裕平路","SECT":" ","MAREA":" ","LANE":" ","ALLEY":" ","HOUSE_NO":"２６８之１６號","E_COORD97":172486.09,"N_COORD97":2542764.9700000002,"ADDRESS":"裕平路２６８之１６號","OBJECTID":579702},"geometry":{"x":172486.09000000171,"y":2542764.9700000025}},{"attributes":{"ID":579730,"DIS_CODE":0,"TOWNNAME":"東區","LI":"文聖里","LIN":"16鄰","STREET":"裕平路","SECT":" ","MAREA":" ","LANE":" ","ALLEY":" ","HOUSE_NO":"２６８之１７號","E_COORD97":172490.70000000001,"N_COORD97":2542764.9700000002,"ADDRESS":"裕平路２６８之１７號","OBJECTID":579703},"geometry":{"x":172490.69999999925,"y":2542764.9700000025}},{"attributes":{"ID":579731,"DIS_CODE":0,"TOWNNAME":"東區","LI":"文聖里","LIN":"16鄰","STREET":"裕平路","SECT":" ","MAREA":" ","LANE":" ","ALLEY":" ","HOUSE_NO":"２６８之１８號","E_COORD97":172496.35999999999,"N_COORD97":2542765.1800000002,"ADDRESS":"裕平路２６８之１８號","OBJECTID":579704},"geometry":{"x":172496.36000000034,"y":2542765.1800000016}},{"attributes":{"ID":579732,"DIS_CODE":0,"TOWNNAME":"東區","LI":"文聖里","LIN":"16鄰","STREET":"裕平路","SECT":" ","MAREA":" ","LANE":" ","ALLEY":" ","HOUSE_NO":"２６８之１９號","E_COORD97":172501.81,"N_COORD97":2542764.9700000002,"ADDRESS":"裕平路２６８之１９號","OBJECTID":579705},"geometry":{"x":172501.81000000052,"y":2542764.9700000025}},{"attributes":{"ID":579733,"DIS_CODE":0,"TOWNNAME":"東區","LI":"文聖里","LIN":"16鄰","STREET":"裕平路","SECT":" ","MAREA":" ","LANE":" ","ALLEY":" ","HOUSE_NO":"２６８之１號","E_COORD97":172498.04000000001,"N_COORD97":2542797.4500000002,"ADDRESS":"裕平路２６８之１號","OBJECTID":579706},"geometry":{"x":172498.04000000004,"y":2542797.4500000011}},{"attributes":{"ID":579734,"DIS_CODE":0,"TOWNNAME":"東區","LI":"文聖里","LIN":"16鄰","STREET":"裕平路","SECT":" ","MAREA":" ","LANE":" ","ALLEY":" ","HOUSE_NO":"２６８之２０號","E_COORD97":172508.51000000001,"N_COORD97":2542765.3900000001,"ADDRESS":"裕平路２６８之２０號","OBJECTID":579707},"geometry":{"x":172508.50999999885,"y":2542765.3900000025}},{"attributes":{"ID":579735,"DIS_CODE":0,"TOWNNAME":"東區","LI":"文聖里","LIN":"16鄰","STREET":"裕平路","SECT":" ","MAREA":" ","LANE":" ","ALLEY":" ","HOUSE_NO":"２６８之２１號","E_COORD97":172514.38,"N_COORD97":2542764.9700000002,"ADDRESS":"裕平路２６８之２１號","OBJECTID":579708},"geometry":{"x":172514.37999999989,"y":2542764.9700000025}},{"attributes":{"ID":579736,"DIS_CODE":0,"TOWNNAME":"永康區","LI":"北灣里","LIN":"24鄰","STREET":"大灣路","SECT":" ","MAREA":" ","LANE":" ","ALLEY":" ","HOUSE_NO":"５號","E_COORD97":175365.14999999999,"N_COORD97":2545945.5699999998,"ADDRESS":"大灣路５號","OBJECTID":579709},"geometry":{"x":175365.1500000013,"y":2545945.5700000003}},{"attributes":{"ID":579737,"DIS_CODE":0,"TOWNNAME":"東區","LI":"文聖里","LIN":"16鄰","STREET":"裕平路","SECT":" ","MAREA":" ","LANE":" ","ALLEY":" ","HOUSE_NO":"２６８之２２號","E_COORD97":172519.41,"N_COORD97":2542764.9700000002,"ADDRESS":"裕平路２６８之２２號","OBJECTID":579710},"geometry":{"x":172519.41000000015,"y":2542764.9700000025}},{"attributes":{"ID":579738,"DIS_CODE":0,"TOWNNAME":"東區","LI":"文聖里","LIN":"16鄰","STREET":"裕平路","SECT":" ","MAREA":" ","LANE":" ","ALLEY":" ","HOUSE_NO":"２６８之２３號","E_COORD97":172518.98999999999,"N_COORD97":2542774.8199999998,"ADDRESS":"裕平路２６８之２３號","OBJECTID":579711},"geometry":{"x":172518.99000000022,"y":2542774.820000004}},{"attributes":{"ID":579739,"DIS_CODE":0,"TOWNNAME":"東區","LI":"文聖里","LIN":"16鄰","STREET":"裕平路","SECT":" ","MAREA":" ","LANE":" ","ALLEY":" ","HOUSE_NO":"２６８之２５號","E_COORD97":172514.17000000001,"N_COORD97":2542774.8199999998,"ADDRESS":"裕平路２６８之２５號","OBJECTID":579712},"geometry":{"x":172514.16999999993,"y":2542774.820000004}},{"attributes":{"ID":579740,"DIS_CODE":0,"TOWNNAME":"東區","LI":"文聖里","LIN":"16鄰","STREET":"裕平路","SECT":" ","MAREA":" ","LANE":" ","ALLEY":" ","HOUSE_NO":"２６８之２６號","E_COORD97":172508.72,"N_COORD97":2542774.6099999999,"ADDRESS":"裕平路２６８之２６號","OBJECTID":579713},"geometry":{"x":172508.71999999881,"y":2542774.6099999994}},{"attributes":{"ID":579741,"DIS_CODE":0,"TOWNNAME":"東區","LI":"文聖里","LIN":"16鄰","STREET":"裕平路","SECT":" ","MAREA":" ","LANE":" ","ALLEY":" ","HOUSE_NO":"２６８之２７號","E_COORD97":172508.14000000001,"N_COORD97":2542785.0800000001,"ADDRESS":"裕平路２６８之２７號","OBJECTID":579714},"geometry":{"x":172508.1400000006,"y":2542785.0800000001}},{"attributes":{"ID":579742,"DIS_CODE":0,"TOWNNAME":"東區","LI":"文聖里","LIN":"16鄰","STREET":"裕平路","SECT":" ","MAREA":" ","LANE":" ","ALLEY":" ","HOUSE_NO":"２６８之２８號","E_COORD97":172513.35999999999,"N_COORD97":2542785.6600000001,"ADDRESS":"裕平路２６８之２８號","OBJECTID":579715},"geometry":{"x":172513.36000000034,"y":2542785.6599999983}},{"attributes":{"ID":579743,"DIS_CODE":0,"TOWNNAME":"東區","LI":"文聖里","LIN":"16鄰","STREET":"裕平路","SECT":" ","MAREA":" ","LANE":" ","ALLEY":" ","HOUSE_NO":"２６８之２９號","E_COORD97":172519.44,"N_COORD97":2542785.0800000001,"ADDRESS":"裕平路２６８之２９號","OBJECTID":579716},"geometry":{"x":172519.44000000041,"y":2542785.0800000001}},{"attributes":{"ID":579744,"DIS_CODE":0,"TOWNNAME":"東區","LI":"文聖里","LIN":"16鄰","STREET":"裕平路","SECT":" ","MAREA":" ","LANE":" ","ALLEY":" ","HOUSE_NO":"２６８之２號","E_COORD97":172493.63,"N_COORD97":2542797.6600000001,"ADDRESS":"裕平路２６８之２號","OBJECTID":579717},"geometry":{"x":172493.62999999989,"y":2542797.660000002}},{"attributes":{"ID":579745,"DIS_CODE":0,"TOWNNAME":"東區","LI":"文聖里","LIN":"16鄰","STREET":"裕平路","SECT":" ","MAREA":" ","LANE":" ","ALLEY":" ","HOUSE_NO":"２６８之３０號","E_COORD97":172519.20000000001,"N_COORD97":2542797.4500000002,"ADDRESS":"裕平路２６８之３０號","OBJECTID":579718},"geometry":{"x":172519.20000000019,"y":2542797.4500000011}},{"attributes":{"ID":579746,"DIS_CODE":0,"TOWNNAME":"東區","LI":"文聖里","LIN":"16鄰","STREET":"裕平路","SECT":" ","MAREA":" ","LANE":" ","ALLEY":" ","HOUSE_NO":"２６８之３１號","E_COORD97":172514.17000000001,"N_COORD97":2542797.6600000001,"ADDRESS":"裕平路２６８之３１號","OBJECTID":579719},"geometry":{"x":172514.16999999993,"y":2542797.660000002}},{"attributes":{"ID":579747,"DIS_CODE":0,"TOWNNAME":"東區","LI":"文聖里","LIN":"16鄰","STREET":"裕平路","SECT":" ","MAREA":" ","LANE":" ","ALLEY":" ","HOUSE_NO":"２６８之３２號","E_COORD97":172508.72,"N_COORD97":2542797.4500000002,"ADDRESS":"裕平路２６８之３２號","OBJECTID":579720},"geometry":{"x":172508.71999999881,"y":2542797.4500000011}},{"attributes":{"ID":579748,"DIS_CODE":0,"TOWNNAME":"東區","LI":"文聖里","LIN":"16鄰","STREET":"裕平路","SECT":" ","MAREA":" ","LANE":" ","ALLEY":" ","HOUSE_NO":"２６８之３號","E_COORD97":172487.98000000001,"N_COORD97":2542797.8700000001,"ADDRESS":"裕平路２６８之３號","OBJECTID":579721},"geometry":{"x":172487.98000000138,"y":2542797.870000001}},{"attributes":{"ID":579749,"DIS_CODE":0,"TOWNNAME":"東區","LI":"文聖里","LIN":"16鄰","STREET":"裕平路","SECT":" ","MAREA":" ","LANE":" ","ALLEY":" ","HOUSE_NO":"２６８之５號","E_COORD97":172482.10999999999,"N_COORD97":2542798.29,"ADDRESS":"裕平路２６８之５號","OBJECTID":579722},"geometry":{"x":172482.11000000127,"y":2542798.290000001}},{"attributes":{"ID":579750,"DIS_CODE":0,"TOWNNAME":"東區","LI":"文聖里","LIN":"16鄰","STREET":"裕平路","SECT":" ","MAREA":" ","LANE":" ","ALLEY":" ","HOUSE_NO":"２６８之６號","E_COORD97":172481.48999999999,"N_COORD97":2542786.2400000002,"ADDRESS":"裕平路２６８之６號","OBJECTID":579723},"geometry":{"x":172481.49000000022,"y":2542786.2400000021}},{"attributes":{"ID":579751,"DIS_CODE":0,"TOWNNAME":"東區","LI":"文聖里","LIN":"16鄰","STREET":"裕平路","SECT":" ","MAREA":" ","LANE":" ","ALLEY":" ","HOUSE_NO":"２６８之７號","E_COORD97":172486.70000000001,"N_COORD97":2542786.2400000002,"ADDRESS":"裕平路２６８之７號","OBJECTID":579724},"geometry":{"x":172486.70000000019,"y":2542786.2400000021}},{"attributes":{"ID":579752,"DIS_CODE":0,"TOWNNAME":"東區","LI":"文聖里","LIN":"16鄰","STREET":"裕平路","SECT":" ","MAREA":" ","LANE":" ","ALLEY":" ","HOUSE_NO":"２６８之８號","E_COORD97":172491.92000000001,"N_COORD97":2542786.5299999998,"ADDRESS":"裕平路２６８之８號","OBJECTID":579725},"geometry":{"x":172491.91999999993,"y":2542786.5300000012}},{"attributes":{"ID":579753,"DIS_CODE":0,"TOWNNAME":"東區","LI":"文聖里","LIN":"16鄰","STREET":"裕平路","SECT":" ","MAREA":" ","LANE":" ","ALLEY":" ","HOUSE_NO":"２６８之９號","E_COORD97":172497.13,"N_COORD97":2542786.2400000002,"ADDRESS":"裕平路２６８之９號","OBJECTID":579726},"geometry":{"x":172497.12999999989,"y":2542786.2400000021}},{"attributes":{"ID":579754,"DIS_CODE":0,"TOWNNAME":"南區","LI":"彰南里","LIN":"16鄰","STREET":"新義路","SECT":" ","MAREA":" ","LANE":" ","ALLEY":" ","HOUSE_NO":"２５號","E_COORD97":165821.25,"N_COORD97":2541179.96,"ADDRESS":"新義路２５號","OBJECTID":579727},"geometry":{"x":165821.25,"y":2541179.9600000009}},{"attributes":{"ID":579755,"DIS_CODE":0,"TOWNNAME":"東區","LI":"文聖里","LIN":"16鄰","STREET":"裕平路","SECT":" ","MAREA":" ","LANE":" ","ALLEY":" ","HOUSE_NO":"２７０號","E_COORD97":172508.14000000001,"N_COORD97":2542811.4399999999,"ADDRESS":"裕平路２７０號","OBJECTID":579728},"geometry":{"x":172508.1400000006,"y":2542811.4400000013}},{"attributes":{"ID":579756,"DIS_CODE":0,"TOWNNAME":"東區","LI":"文聖里","LIN":"16鄰","STREET":"裕平路","SECT":" ","MAREA":" ","LANE":" ","ALLEY":" ","HOUSE_NO":"２７２號","E_COORD97":172513.07000000001,"N_COORD97":2542811.73,"ADDRESS":"裕平路２７２號","OBJECTID":579729},"geometry":{"x":172513.0700000003,"y":2542811.7300000004}},{"attributes":{"ID":579757,"DIS_CODE":0,"TOWNNAME":"東區","LI":"文聖里","LIN":"16鄰","STREET":"裕平路","SECT":" ","MAREA":" ","LANE":" ","ALLEY":" ","HOUSE_NO":"２７６號","E_COORD97":172518.28,"N_COORD97":2542812.3100000001,"ADDRESS":"裕平路２７６號","OBJECTID":579730},"geometry":{"x":172518.28000000119,"y":2542812.3100000042}},{"attributes":{"ID":579758,"DIS_CODE":0,"TOWNNAME":"東區","LI":"關聖里","LIN":"16鄰","STREET":"裕孝路","SECT":" ","MAREA":" ","LANE":" ","ALLEY":" ","HOUSE_NO":"１１８號","E_COORD97":172427.42000000001,"N_COORD97":2542991.4700000002,"ADDRESS":"裕孝路１１８號","OBJECTID":579731},"geometry":{"x":172427.41999999993,"y":2542991.4700000025}},{"attributes":{"ID":579759,"DIS_CODE":0,"TOWNNAME":"東區","LI":"南聖里","LIN":"16鄰","STREET":"裕和五街","SECT":" ","MAREA":" ","LANE":" ","ALLEY":" ","HOUSE_NO":"６３號","E_COORD97":172827.70999999999,"N_COORD97":2543194,"ADDRESS":"裕和五街６３號","OBJECTID":579732},"geometry":{"x":172827.70999999903,"y":2543194.0000000019}},{"attributes":{"ID":579760,"DIS_CODE":0,"TOWNNAME":"東區","LI":"南聖里","LIN":"16鄰","STREET":"裕和五街","SECT":" ","MAREA":" ","LANE":" ","ALLEY":" ","HOUSE_NO":"４３號","E_COORD97":172826.32999999999,"N_COORD97":2543235.8500000001,"ADDRESS":"裕和五街４３號","OBJECTID":579733},"geometry":{"x":172826.33000000007,"y":2543235.8500000015}},{"attributes":{"ID":579761,"DIS_CODE":0,"TOWNNAME":"東區","LI":"南聖里","LIN":"16鄰","STREET":"裕和五街","SECT":" ","MAREA":" ","LANE":" ","ALLEY":" ","HOUSE_NO":"４５號","E_COORD97":172826.72,"N_COORD97":2543232.1099999999,"ADDRESS":"裕和五街４５號","OBJECTID":579734},"geometry":{"x":172826.71999999974,"y":2543232.1099999994}},{"attributes":{"ID":579762,"DIS_CODE":0,"TOWNNAME":"東區","LI":"南聖里","LIN":"16鄰","STREET":"裕和五街","SECT":" ","MAREA":" ","LANE":" ","ALLEY":" ","HOUSE_NO":"４７號","E_COORD97":172826.92000000001,"N_COORD97":2543227.3999999999,"ADDRESS":"裕和五街４７號","OBJECTID":579735},"geometry":{"x":172826.92000000086,"y":2543227.4000000004}},{"attributes":{"ID":579763,"DIS_CODE":0,"TOWNNAME":"東區","LI":"南聖里","LIN":"16鄰","STREET":"裕和五街","SECT":" ","MAREA":" ","LANE":" ","ALLEY":" ","HOUSE_NO":"４９號","E_COORD97":172826.92000000001,"N_COORD97":2543223.4700000002,"ADDRESS":"裕和五街４９號","OBJECTID":579736},"geometry":{"x":172826.92000000086,"y":2543223.4700000007}},{"attributes":{"ID":579764,"DIS_CODE":0,"TOWNNAME":"東區","LI":"南聖里","LIN":"16鄰","STREET":"裕和五街","SECT":" ","MAREA":" ","LANE":" ","ALLEY":" ","HOUSE_NO":"５１號","E_COORD97":172827.12,"N_COORD97":2543219.54,"ADDRESS":"裕和五街５１號","OBJECTID":579737},"geometry":{"x":172827.12000000104,"y":2543219.5400000028}},{"attributes":{"ID":579765,"DIS_CODE":0,"TOWNNAME":"東區","LI":"南聖里","LIN":"16鄰","STREET":"裕和五街","SECT":" ","MAREA":" ","LANE":" ","ALLEY":" ","HOUSE_NO":"５３號","E_COORD97":172827.51000000001,"N_COORD97":2543215.6099999999,"ADDRESS":"裕和五街５３號","OBJECTID":579738},"geometry":{"x":172827.51000000071,"y":2543215.6099999994}},{"attributes":{"ID":579766,"DIS_CODE":0,"TOWNNAME":"東區","LI":"南聖里","LIN":"16鄰","STREET":"裕和五街","SECT":" ","MAREA":" ","LANE":" ","ALLEY":" ","HOUSE_NO":"５５號","E_COORD97":172827.12,"N_COORD97":2543210.8999999999,"ADDRESS":"裕和五街５５號","OBJECTID":579739},"geometry":{"x":172827.12000000104,"y":2543210.9000000004}},{"attributes":{"ID":579767,"DIS_CODE":0,"TOWNNAME":"東區","LI":"南聖里","LIN":"16鄰","STREET":"裕和五街","SECT":" ","MAREA":" ","LANE":" ","ALLEY":" ","HOUSE_NO":"５７號","E_COORD97":172827.51000000001,"N_COORD97":2543206.5699999998,"ADDRESS":"裕和五街５７號","OBJECTID":579740},"geometry":{"x":172827.51000000071,"y":2543206.5700000003}},{"attributes":{"ID":579768,"DIS_CODE":0,"TOWNNAME":"東區","LI":"南聖里","LIN":"16鄰","STREET":"裕和五街","SECT":" ","MAREA":" ","LANE":" ","ALLEY":" ","HOUSE_NO":"５９號","E_COORD97":172827.89999999999,"N_COORD97":2543202.4500000002,"ADDRESS":"裕和五街５９號","OBJECTID":579741},"geometry":{"x":172827.90000000037,"y":2543202.4499999993}},{"attributes":{"ID":579769,"DIS_CODE":0,"TOWNNAME":"東區","LI":"南聖里","LIN":"16鄰","STREET":"裕和五街","SECT":" ","MAREA":" ","LANE":" ","ALLEY":" ","HOUSE_NO":"６７號","E_COORD97":172826.92000000001,"N_COORD97":2543181.4199999999,"ADDRESS":"裕和五街６７號","OBJECTID":579742},"geometry":{"x":172826.92000000086,"y":2543181.4200000018}},{"attributes":{"ID":579770,"DIS_CODE":0,"TOWNNAME":"東區","LI":"南聖里","LIN":"16鄰","STREET":"裕和五街","SECT":" ","MAREA":" ","LANE":" ","ALLEY":" ","HOUSE_NO":"６９號","E_COORD97":172826.72,"N_COORD97":2543177.1000000001,"ADDRESS":"裕和五街６９號","OBJECTID":579743},"geometry":{"x":172826.71999999974,"y":2543177.1000000015}},{"attributes":{"ID":579771,"DIS_CODE":0,"TOWNNAME":"東區","LI":"南聖里","LIN":"16鄰","STREET":"裕和五街","SECT":" ","MAREA":" ","LANE":" ","ALLEY":" ","HOUSE_NO":"７１號","E_COORD97":172827.12,"N_COORD97":2543173.5699999998,"ADDRESS":"裕和五街７１號","OBJECTID":579744},"geometry":{"x":172827.12000000104,"y":2543173.5700000022}},{"attributes":{"ID":579772,"DIS_CODE":0,"TOWNNAME":"東區","LI":"南聖里","LIN":"16鄰","STREET":"裕和五街","SECT":" ","MAREA":" ","LANE":" ","ALLEY":" ","HOUSE_NO":"７３號","E_COORD97":172826.79000000001,"N_COORD97":2543170.2200000002,"ADDRESS":"裕和五街７３號","OBJECTID":579745},"geometry":{"x":172826.79000000004,"y":2543170.2200000025}},{"attributes":{"ID":579773,"DIS_CODE":0,"TOWNNAME":"東區","LI":"南聖里","LIN":"16鄰","STREET":"裕信路","SECT":" ","MAREA":" ","LANE":" ","ALLEY":" ","HOUSE_NO":"２３號","E_COORD97":172635.92999999999,"N_COORD97":2543291.0299999998,"ADDRESS":"裕信路２３號","OBJECTID":579746},"geometry":{"x":172635.9299999997,"y":2543291.0300000031}},{"attributes":{"ID":579774,"DIS_CODE":0,"TOWNNAME":"東區","LI":"關聖里","LIN":"16鄰","STREET":"裕忠路","SECT":" ","MAREA":" ","LANE":" ","ALLEY":" ","HOUSE_NO":"９１號","E_COORD97":172274.01999999999,"N_COORD97":2542983.7400000002,"ADDRESS":"裕忠路９１號","OBJECTID":579747},"geometry":{"x":172274.01999999955,"y":2542983.7400000002}},{"attributes":{"ID":579775,"DIS_CODE":0,"TOWNNAME":"東區","LI":"關聖里","LIN":"16鄰","STREET":"裕忠路","SECT":" ","MAREA":" ","LANE":" ","ALLEY":" ","HOUSE_NO":"９１之１０號","E_COORD97":172319.22,"N_COORD97":2542983.23,"ADDRESS":"裕忠路９１之１０號","OBJECTID":579748},"geometry":{"x":172319.22000000067,"y":2542983.2300000023}},{"attributes":{"ID":579776,"DIS_CODE":0,"TOWNNAME":"東區","LI":"關聖里","LIN":"16鄰","STREET":"裕忠路","SECT":" ","MAREA":" ","LANE":" ","ALLEY":" ","HOUSE_NO":"９１之１號","E_COORD97":172278.76000000001,"N_COORD97":2542983.9100000001,"ADDRESS":"裕忠路９１之１號","OBJECTID":579749},"geometry":{"x":172278.76000000071,"y":2542983.9099999983}},{"attributes":{"ID":579777,"DIS_CODE":0,"TOWNNAME":"東區","LI":"關聖里","LIN":"16鄰","STREET":"裕忠路","SECT":" ","MAREA":" ","LANE":" ","ALLEY":" ","HOUSE_NO":"９１之２號","E_COORD97":172283.66,"N_COORD97":2542983.7400000002,"ADDRESS":"裕忠路９１之２號","OBJECTID":579750},"geometry":{"x":172283.66000000015,"y":2542983.7400000002}},{"attributes":{"ID":579778,"DIS_CODE":0,"TOWNNAME":"東區","LI":"關聖里","LIN":"16鄰","STREET":"裕忠路","SECT":" ","MAREA":" ","LANE":" ","ALLEY":" ","HOUSE_NO":"９１之３號","E_COORD97":172288.57000000001,"N_COORD97":2542983.5699999998,"ADDRESS":"裕忠路９１之３號","OBJECTID":579751},"geometry":{"x":172288.57000000123,"y":2542983.5700000022}},{"attributes":{"ID":579779,"DIS_CODE":0,"TOWNNAME":"東區","LI":"關聖里","LIN":"16鄰","STREET":"裕忠路","SECT":" ","MAREA":" ","LANE":" ","ALLEY":" ","HOUSE_NO":"９１之５號","E_COORD97":172293.82000000001,"N_COORD97":2542983.5699999998,"ADDRESS":"裕忠路９１之５號","OBJECTID":579752},"geometry":{"x":172293.82000000123,"y":2542983.5700000022}},{"attributes":{"ID":579780,"DIS_CODE":0,"TOWNNAME":"東區","LI":"關聖里","LIN":"16鄰","STREET":"裕忠路","SECT":" ","MAREA":" ","LANE":" ","ALLEY":" ","HOUSE_NO":"９１之６號","E_COORD97":172299.92000000001,"N_COORD97":2542983.5699999998,"ADDRESS":"裕忠路９１之６號","OBJECTID":579753},"geometry":{"x":172299.92000000086,"y":2542983.5700000022}},{"attributes":{"ID":579781,"DIS_CODE":0,"TOWNNAME":"東區","LI":"關聖里","LIN":"16鄰","STREET":"裕忠路","SECT":" ","MAREA":" ","LANE":" ","ALLEY":" ","HOUSE_NO":"９１之７號","E_COORD97":172305,"N_COORD97":2542983.23,"ADDRESS":"裕忠路９１之７號","OBJECTID":579754},"geometry":{"x":172305,"y":2542983.2300000023}},{"attributes":{"ID":579782,"DIS_CODE":0,"TOWNNAME":"東區","LI":"關聖里","LIN":"16鄰","STREET":"裕忠路","SECT":" ","MAREA":" ","LANE":" ","ALLEY":" ","HOUSE_NO":"９１之８號","E_COORD97":172309.39999999999,"N_COORD97":2542982.8900000001,"ADDRESS":"裕忠路９１之８號","OBJECTID":579755},"geometry":{"x":172309.40000000037,"y":2542982.8900000025}},{"attributes":{"ID":579783,"DIS_CODE":0,"TOWNNAME":"東區","LI":"關聖里","LIN":"16鄰","STREET":"裕忠路","SECT":" ","MAREA":" ","LANE":" ","ALLEY":" ","HOUSE_NO":"９１之９號","E_COORD97":172314.48000000001,"N_COORD97":2542983.23,"ADDRESS":"裕忠路９１之９號","OBJECTID":579756},"geometry":{"x":172314.47999999952,"y":2542983.2300000023}},{"attributes":{"ID":579784,"DIS_CODE":0,"TOWNNAME":"東區","LI":"關聖里","LIN":"16鄰","STREET":"裕忠路","SECT":" ","MAREA":" ","LANE":" ","ALLEY":" ","HOUSE_NO":"９３之１０號","E_COORD97":172319.22,"N_COORD97":2542968.3300000001,"ADDRESS":"裕忠路９３之１０號","OBJECTID":579757},"geometry":{"x":172319.22000000067,"y":2542968.3300000019}},{"attributes":{"ID":579785,"DIS_CODE":0,"TOWNNAME":"東區","LI":"關聖里","LIN":"16鄰","STREET":"裕忠路","SECT":" ","MAREA":" ","LANE":" ","ALLEY":" ","HOUSE_NO":"９３之１號","E_COORD97":172278.92000000001,"N_COORD97":2542969.0099999998,"ADDRESS":"裕忠路９３之１號","OBJECTID":579758},"geometry":{"x":172278.92000000179,"y":2542969.0099999998}},{"attributes":{"ID":579786,"DIS_CODE":0,"TOWNNAME":"東區","LI":"關聖里","LIN":"16鄰","STREET":"裕忠路","SECT":" ","MAREA":" ","LANE":" ","ALLEY":" ","HOUSE_NO":"９３之２號","E_COORD97":172283.32999999999,"N_COORD97":2542968.8399999999,"ADDRESS":"裕忠路９３之２號","OBJECTID":579759},"geometry":{"x":172283.33000000101,"y":2542968.8400000017}},{"attributes":{"ID":579787,"DIS_CODE":0,"TOWNNAME":"東區","LI":"關聖里","LIN":"16鄰","STREET":"裕忠路","SECT":" ","MAREA":" ","LANE":" ","ALLEY":" ","HOUSE_NO":"９３之３號","E_COORD97":172288.41,"N_COORD97":2542969.1800000002,"ADDRESS":"裕忠路９３之３號","OBJECTID":579760},"geometry":{"x":172288.41000000108,"y":2542969.1800000016}},{"attributes":{"ID":579788,"DIS_CODE":0,"TOWNNAME":"東區","LI":"關聖里","LIN":"16鄰","STREET":"裕忠路","SECT":" ","MAREA":" ","LANE":" ","ALLEY":" ","HOUSE_NO":"９３之５號","E_COORD97":172293.48000000001,"N_COORD97":2542969.0099999998,"ADDRESS":"裕忠路９３之５號","OBJECTID":579761},"geometry":{"x":172293.48000000045,"y":2542969.0099999998}},{"attributes":{"ID":579789,"DIS_CODE":0,"TOWNNAME":"東區","LI":"關聖里","LIN":"16鄰","STREET":"裕忠路","SECT":" ","MAREA":" ","LANE":" ","ALLEY":" ","HOUSE_NO":"９３之６號","E_COORD97":172298.73000000001,"N_COORD97":2542969.0099999998,"ADDRESS":"裕忠路９３之６號","OBJECTID":579762},"geometry":{"x":172298.73000000045,"y":2542969.0099999998}},{"attributes":{"ID":579790,"DIS_CODE":0,"TOWNNAME":"東區","LI":"關聖里","LIN":"16鄰","STREET":"裕忠路","SECT":" ","MAREA":" ","LANE":" ","ALLEY":" ","HOUSE_NO":"９３之７號","E_COORD97":172304.14999999999,"N_COORD97":2542968.8399999999,"ADDRESS":"裕忠路９３之７號","OBJECTID":579763},"geometry":{"x":172304.15000000037,"y":2542968.8400000017}},{"attributes":{"ID":579791,"DIS_CODE":0,"TOWNNAME":"東區","LI":"關聖里","LIN":"16鄰","STREET":"裕忠路","SECT":" ","MAREA":" ","LANE":" ","ALLEY":" ","HOUSE_NO":"９３之８號","E_COORD97":172309.06,"N_COORD97":2542969.0099999998,"ADDRESS":"裕忠路９３之８號","OBJECTID":579764},"geometry":{"x":172309.05999999959,"y":2542969.0099999998}},{"attributes":{"ID":579792,"DIS_CODE":0,"TOWNNAME":"東區","LI":"關聖里","LIN":"16鄰","STREET":"裕忠路","SECT":" ","MAREA":" ","LANE":" ","ALLEY":" ","HOUSE_NO":"９３之９號","E_COORD97":172314.82000000001,"N_COORD97":2542968.6699999999,"ADDRESS":"裕忠路９３之９號","OBJECTID":579765},"geometry":{"x":172314.8200000003,"y":2542968.6700000037}},{"attributes":{"ID":579793,"DIS_CODE":0,"TOWNNAME":"東區","LI":"關聖里","LIN":"16鄰","STREET":"裕忠路","SECT":" ","MAREA":" ","LANE":" ","ALLEY":" ","HOUSE_NO":"９３號","E_COORD97":172273.85000000001,"N_COORD97":2542969.0099999998,"ADDRESS":"裕忠路９３號","OBJECTID":579766},"geometry":{"x":172273.85000000149,"y":2542969.0099999998}},{"attributes":{"ID":579794,"DIS_CODE":0,"TOWNNAME":"南區","LI":"彰南里","LIN":"16鄰","STREET":"新義路","SECT":" ","MAREA":" ","LANE":" ","ALLEY":" ","HOUSE_NO":"２９號之１","E_COORD97":165761.88,"N_COORD97":2541169.4900000002,"ADDRESS":"新義路２９號之１","OBJECTID":579767},"geometry":{"x":165761.88000000082,"y":2541169.4900000002}},{"attributes":{"ID":579795,"DIS_CODE":0,"TOWNNAME":"東區","LI":"關聖里","LIN":"16鄰","STREET":"裕忠路","SECT":" ","MAREA":" ","LANE":" ","ALLEY":" ","HOUSE_NO":"９５之１號","E_COORD97":172278.59,"N_COORD97":2542953.4300000002,"ADDRESS":"裕忠路９５之１號","OBJECTID":579768},"geometry":{"x":172278.58999999985,"y":2542953.4300000016}},{"attributes":{"ID":579796,"DIS_CODE":0,"TOWNNAME":"東區","LI":"關聖里","LIN":"16鄰","STREET":"裕忠路","SECT":" ","MAREA":" ","LANE":" ","ALLEY":" ","HOUSE_NO":"９５號","E_COORD97":172274.01999999999,"N_COORD97":2542953.6000000001,"ADDRESS":"裕忠路９５號","OBJECTID":579769},"geometry":{"x":172274.01999999955,"y":2542953.5999999996}},{"attributes":{"ID":579797,"DIS_CODE":0,"TOWNNAME":"東區","LI":"關聖里","LIN":"16鄰","STREET":"裕忠路","SECT":" ","MAREA":" ","LANE":" ","ALLEY":" ","HOUSE_NO":"９５之１０號","E_COORD97":172319.89000000001,"N_COORD97":2542952.9199999999,"ADDRESS":"裕忠路９５之１０號","OBJECTID":579770},"geometry":{"x":172319.8900000006,"y":2542952.9199999999}},{"attributes":{"ID":579798,"DIS_CODE":0,"TOWNNAME":"東區","LI":"關聖里","LIN":"16鄰","STREET":"裕忠路","SECT":" ","MAREA":" ","LANE":" ","ALLEY":" ","HOUSE_NO":"９５之２號","E_COORD97":172282.64999999999,"N_COORD97":2542953.77,"ADDRESS":"裕忠路９５之２號","OBJECTID":579771},"geometry":{"x":172282.65000000037,"y":2542953.7699999977}},{"attributes":{"ID":579799,"DIS_CODE":0,"TOWNNAME":"東區","LI":"關聖里","LIN":"16鄰","STREET":"裕忠路","SECT":" ","MAREA":" ","LANE":" ","ALLEY":" ","HOUSE_NO":"９５之３號","E_COORD97":172287.73000000001,"N_COORD97":2542953.77,"ADDRESS":"裕忠路９５之３號","OBJECTID":579772},"geometry":{"x":172287.73000000138,"y":2542953.7699999977}},{"attributes":{"ID":579800,"DIS_CODE":0,"TOWNNAME":"東區","LI":"關聖里","LIN":"16鄰","STREET":"裕忠路","SECT":" ","MAREA":" ","LANE":" ","ALLEY":" ","HOUSE_NO":"９５之５號","E_COORD97":172292.64000000001,"N_COORD97":2542953.77,"ADDRESS":"裕忠路９５之５號","OBJECTID":579773},"geometry":{"x":172292.6400000006,"y":2542953.7699999977}},{"attributes":{"ID":579801,"DIS_CODE":0,"TOWNNAME":"東區","LI":"關聖里","LIN":"16鄰","STREET":"裕忠路","SECT":" ","MAREA":" ","LANE":" ","ALLEY":" ","HOUSE_NO":"９５之６號","E_COORD97":172297.54999999999,"N_COORD97":2542953.77,"ADDRESS":"裕忠路９５之６號","OBJECTID":579774},"geometry":{"x":172297.54999999981,"y":2542953.7699999977}},{"attributes":{"ID":579802,"DIS_CODE":0,"TOWNNAME":"東區","LI":"關聖里","LIN":"16鄰","STREET":"裕忠路","SECT":" ","MAREA":" ","LANE":" ","ALLEY":" ","HOUSE_NO":"９５之７號","E_COORD97":172302.97,"N_COORD97":2542953.77,"ADDRESS":"裕忠路９５之７號","OBJECTID":579775},"geometry":{"x":172302.96999999974,"y":2542953.7699999977}},{"attributes":{"ID":579803,"DIS_CODE":0,"TOWNNAME":"東區","LI":"關聖里","LIN":"16鄰","STREET":"裕忠路","SECT":" ","MAREA":" ","LANE":" ","ALLEY":" ","HOUSE_NO":"９５之８號","E_COORD97":172308.04000000001,"N_COORD97":2542953.4300000002,"ADDRESS":"裕忠路９５之８號","OBJECTID":579776},"geometry":{"x":172308.04000000004,"y":2542953.4300000016}},{"attributes":{"ID":579804,"DIS_CODE":0,"TOWNNAME":"東區","LI":"關聖里","LIN":"16鄰","STREET":"裕忠路","SECT":" ","MAREA":" ","LANE":" ","ALLEY":" ","HOUSE_NO":"９５之９號","E_COORD97":172313.79999999999,"N_COORD97":2542953.0899999999,"ADDRESS":"裕忠路９５之９號","OBJECTID":579777},"geometry":{"x":172313.80000000075,"y":2542953.0900000017}},{"attributes":{"ID":579805,"DIS_CODE":0,"TOWNNAME":"東區","LI":"關聖里","LIN":"16鄰","STREET":"裕忠路","SECT":" ","MAREA":" ","LANE":" ","ALLEY":" ","HOUSE_NO":"９７之１０號","E_COORD97":172320.39999999999,"N_COORD97":2542940.23,"ADDRESS":"裕忠路９７之１０號","OBJECTID":579778},"geometry":{"x":172320.4000000013,"y":2542940.2300000004}},{"attributes":{"ID":579806,"DIS_CODE":0,"TOWNNAME":"東區","LI":"關聖里","LIN":"16鄰","STREET":"裕忠路","SECT":" ","MAREA":" ","LANE":" ","ALLEY":" ","HOUSE_NO":"９７之１號","E_COORD97":172280.28,"N_COORD97":2542941.4100000001,"ADDRESS":"裕忠路９７之１號","OBJECTID":579779},"geometry":{"x":172280.28000000119,"y":2542941.410000002}},{"attributes":{"ID":579807,"DIS_CODE":0,"TOWNNAME":"東區","LI":"關聖里","LIN":"16鄰","STREET":"裕忠路","SECT":" ","MAREA":" ","LANE":" ","ALLEY":" ","HOUSE_NO":"９７之２號","E_COORD97":172284.51000000001,"N_COORD97":2542941.0699999998,"ADDRESS":"裕忠路９７之２號","OBJECTID":579780},"geometry":{"x":172284.50999999978,"y":2542941.0700000003}},{"attributes":{"ID":579808,"DIS_CODE":0,"TOWNNAME":"東區","LI":"關聖里","LIN":"16鄰","STREET":"裕忠路","SECT":" ","MAREA":" ","LANE":" ","ALLEY":" ","HOUSE_NO":"９７之３號","E_COORD97":172288.57000000001,"N_COORD97":2542941.0699999998,"ADDRESS":"裕忠路９７之３號","OBJECTID":579781},"geometry":{"x":172288.57000000123,"y":2542941.0700000003}},{"attributes":{"ID":579809,"DIS_CODE":0,"TOWNNAME":"東區","LI":"關聖里","LIN":"16鄰","STREET":"裕忠路","SECT":" ","MAREA":" ","LANE":" ","ALLEY":" ","HOUSE_NO":"９７之５號","E_COORD97":172293.31,"N_COORD97":2542941.2400000002,"ADDRESS":"裕忠路９７之５號","OBJECTID":579782},"geometry":{"x":172293.31000000052,"y":2542941.2400000039}},{"attributes":{"ID":579810,"DIS_CODE":0,"TOWNNAME":"東區","LI":"關聖里","LIN":"16鄰","STREET":"裕忠路","SECT":" ","MAREA":" ","LANE":" ","ALLEY":" ","HOUSE_NO":"９７之６號","E_COORD97":172298.73000000001,"N_COORD97":2542941.0699999998,"ADDRESS":"裕忠路９７之６號","OBJECTID":579783},"geometry":{"x":172298.73000000045,"y":2542941.0700000003}},{"attributes":{"ID":579811,"DIS_CODE":0,"TOWNNAME":"東區","LI":"關聖里","LIN":"16鄰","STREET":"裕忠路","SECT":" ","MAREA":" ","LANE":" ","ALLEY":" ","HOUSE_NO":"９７之７號","E_COORD97":172303.47,"N_COORD97":2542940.8999999999,"ADDRESS":"裕忠路９７之７號","OBJECTID":579784},"geometry":{"x":172303.46999999974,"y":2542940.9000000022}},{"attributes":{"ID":579812,"DIS_CODE":0,"TOWNNAME":"東區","LI":"關聖里","LIN":"16鄰","STREET":"裕忠路","SECT":" ","MAREA":" ","LANE":" ","ALLEY":" ","HOUSE_NO":"９７之８號","E_COORD97":172308.89000000001,"N_COORD97":2542940.7400000002,"ADDRESS":"裕忠路９７之８號","OBJECTID":579785},"geometry":{"x":172308.88999999966,"y":2542940.7400000002}},{"attributes":{"ID":579813,"DIS_CODE":0,"TOWNNAME":"東區","LI":"關聖里","LIN":"16鄰","STREET":"裕忠路","SECT":" ","MAREA":" ","LANE":" ","ALLEY":" ","HOUSE_NO":"９７號","E_COORD97":172274.17999999999,"N_COORD97":2542941.4100000001,"ADDRESS":"裕忠路９７號","OBJECTID":579786},"geometry":{"x":172274.18000000063,"y":2542941.410000002}},{"attributes":{"ID":579814,"DIS_CODE":0,"TOWNNAME":"東區","LI":"南聖里","LIN":"16鄰","STREET":"裕信路","SECT":" ","MAREA":" ","LANE":" ","ALLEY":" ","HOUSE_NO":"１１號","E_COORD97":172628.88,"N_COORD97":2543303.4900000002,"ADDRESS":"裕信路１１號","OBJECTID":579787},"geometry":{"x":172628.88000000082,"y":2543303.4900000021}},{"attributes":{"ID":579815,"DIS_CODE":0,"TOWNNAME":"東區","LI":"南聖里","LIN":"16鄰","STREET":"裕信路","SECT":" ","MAREA":" ","LANE":" ","ALLEY":" ","HOUSE_NO":"１３號","E_COORD97":172635.34,"N_COORD97":2543303.4900000002,"ADDRESS":"裕信路１３號","OBJECTID":579788},"geometry":{"x":172635.34000000171,"y":2543303.4900000021}},{"attributes":{"ID":579816,"DIS_CODE":0,"TOWNNAME":"東區","LI":"南聖里","LIN":"16鄰","STREET":"裕信路","SECT":" ","MAREA":" ","LANE":" ","ALLEY":" ","HOUSE_NO":"１５號","E_COORD97":172641.57000000001,"N_COORD97":2543303.3799999999,"ADDRESS":"裕信路１５號","OBJECTID":579789},"geometry":{"x":172641.57000000123,"y":2543303.3800000008}},{"attributes":{"ID":579817,"DIS_CODE":0,"TOWNNAME":"東區","LI":"南聖里","LIN":"16鄰","STREET":"裕信路","SECT":" ","MAREA":" ","LANE":" ","ALLEY":" ","HOUSE_NO":"１７號","E_COORD97":172647.69,"N_COORD97":2543303.3799999999,"ADDRESS":"裕信路１７號","OBJECTID":579790},"geometry":{"x":172647.69000000134,"y":2543303.3800000008}},{"attributes":{"ID":579818,"DIS_CODE":0,"TOWNNAME":"東區","LI":"南聖里","LIN":"16鄰","STREET":"裕信路","SECT":" ","MAREA":" ","LANE":" ","ALLEY":" ","HOUSE_NO":"１９號","E_COORD97":172647.92000000001,"N_COORD97":2543291.3799999999,"ADDRESS":"裕信路１９號","OBJECTID":579791},"geometry":{"x":172647.91999999993,"y":2543291.3799999971}},{"attributes":{"ID":579819,"DIS_CODE":0,"TOWNNAME":"東區","LI":"南聖里","LIN":"16鄰","STREET":"裕信路","SECT":" ","MAREA":" ","LANE":" ","ALLEY":" ","HOUSE_NO":"２１號","E_COORD97":172642.51000000001,"N_COORD97":2543291.1499999999,"ADDRESS":"裕信路２１號","OBJECTID":579792},"geometry":{"x":172642.51000000164,"y":2543291.1499999985}},{"attributes":{"ID":579820,"DIS_CODE":0,"TOWNNAME":"東區","LI":"南聖里","LIN":"16鄰","STREET":"裕信路","SECT":" ","MAREA":" ","LANE":" ","ALLEY":" ","HOUSE_NO":"２５號","E_COORD97":172629.92999999999,"N_COORD97":2543291.5,"ADDRESS":"裕信路２５號","OBJECTID":579793},"geometry":{"x":172629.93000000063,"y":2543291.5}},{"attributes":{"ID":579821,"DIS_CODE":0,"TOWNNAME":"東區","LI":"南聖里","LIN":"16鄰","STREET":"裕信路","SECT":" ","MAREA":" ","LANE":" ","ALLEY":" ","HOUSE_NO":"２７號","E_COORD97":172624.17000000001,"N_COORD97":2543291.0299999998,"ADDRESS":"裕信路２７號","OBJECTID":579794},"geometry":{"x":172624.16999999993,"y":2543291.0300000031}},{"attributes":{"ID":579822,"DIS_CODE":0,"TOWNNAME":"東區","LI":"南聖里","LIN":"16鄰","STREET":"裕信路","SECT":" ","MAREA":" ","LANE":" ","ALLEY":" ","HOUSE_NO":"２９號","E_COORD97":172618.76999999999,"N_COORD97":2543291.1499999999,"ADDRESS":"裕信路２９號","OBJECTID":579795},"geometry":{"x":172618.77000000048,"y":2543291.1499999985}},{"attributes":{"ID":579823,"DIS_CODE":0,"TOWNNAME":"東區","LI":"南聖里","LIN":"16鄰","STREET":"裕信路","SECT":" ","MAREA":" ","LANE":" ","ALLEY":" ","HOUSE_NO":"７號","E_COORD97":172619.12,"N_COORD97":2543303.4900000002,"ADDRESS":"裕信路７號","OBJECTID":579796},"geometry":{"x":172619.12000000104,"y":2543303.4900000021}},{"attributes":{"ID":579824,"DIS_CODE":0,"TOWNNAME":"東區","LI":"南聖里","LIN":"16鄰","STREET":"裕信路","SECT":" ","MAREA":" ","LANE":" ","ALLEY":" ","HOUSE_NO":"９號","E_COORD97":172623.47,"N_COORD97":2543303.2599999998,"ADDRESS":"裕信路９號","OBJECTID":579797},"geometry":{"x":172623.46999999974,"y":2543303.2599999979}},{"attributes":{"ID":579825,"DIS_CODE":0,"TOWNNAME":"善化區","LI":"光文里","LIN":"16鄰","STREET":"民族路","SECT":" ","MAREA":" ","LANE":" ","ALLEY":" ","HOUSE_NO":"１６１號","E_COORD97":178135.17999999999,"N_COORD97":2559069.2599999998,"ADDRESS":"民族路１６１號","OBJECTID":579798},"geometry":{"x":178135.1799999997,"y":2559069.2600000016}},{"attributes":{"ID":579826,"DIS_CODE":0,"TOWNNAME":"善化區","LI":"光文里","LIN":"16鄰","STREET":"中山路","SECT":" ","MAREA":" ","LANE":" ","ALLEY":" ","HOUSE_NO":"２１９之１號","E_COORD97":178203.20000000001,"N_COORD97":2559111.02,"ADDRESS":"中山路２１９之１號","OBJECTID":579799},"geometry":{"x":178203.20000000019,"y":2559111.0200000033}},{"attributes":{"ID":579827,"DIS_CODE":0,"TOWNNAME":"善化區","LI":"光文里","LIN":"16鄰","STREET":"民權路","SECT":" ","MAREA":" ","LANE":" ","ALLEY":" ","HOUSE_NO":"１９８號","E_COORD97":178191.26999999999,"N_COORD97":2559014.5099999998,"ADDRESS":"民權路１９８號","OBJECTID":579800},"geometry":{"x":178191.27000000048,"y":2559014.5099999998}}]}