{"displayFieldName":"TOWNNAME","fieldAliases":{"ID":"ID","DIS_CODE":"DIS_CODE","TOWNNAME":"TOWNNAME","LI":"LI","LIN":"LIN","STREET":"STREET","SECT":"SECT","MAREA":"MAREA","LANE":"LANE","ALLEY":"ALLEY","HOUSE_NO":"HOUSE_NO","E_COORD97":"E_COORD97","N_COORD97":"N_COORD97","ADDRESS":"ADDRESS","OBJECTID":"OBJECTID"},"geometryType":"esriGeometryPoint","spatialReference":{"wkid":102443,"latestWkid":3826},"fields":[{"name":"ID","type":"esriFieldTypeDouble","alias":"ID"},{"name":"DIS_CODE","type":"esriFieldTypeInteger","alias":"DIS_CODE"},{"name":"TOWNNAME","type":"esriFieldTypeString","alias":"TOWNNAME","length":8},{"name":"LI","type":"esriFieldTypeString","alias":"LI","length":8},{"name":"LIN","type":"esriFieldTypeString","alias":"LIN","length":12},{"name":"STREET","type":"esriFieldTypeString","alias":"STREET","length":20},{"name":"SECT","type":"esriFieldTypeString","alias":"SECT","length":8},{"name":"MAREA","type":"esriFieldTypeString","alias":"MAREA","length":12},{"name":"LANE","type":"esriFieldTypeString","alias":"LANE","length":10},{"name":"ALLEY","type":"esriFieldTypeString","alias":"ALLEY","length":10},{"name":"HOUSE_NO","type":"esriFieldTypeString","alias":"HOUSE_NO","length":20},{"name":"E_COORD97","type":"esriFieldTypeDouble","alias":"E_COORD97"},{"name":"N_COORD97","type":"esriFieldTypeDouble","alias":"N_COORD97"},{"name":"ADDRESS","type":"esriFieldTypeString","alias":"ADDRESS","length":50},{"name":"OBJECTID","type":"esriFieldTypeOID","alias":"OBJECTID"}],"features":[{"attributes":{"ID":592428,"DIS_CODE":0,"TOWNNAME":"永康區","LI":"五王里","LIN":"11鄰","STREET":"中山東路","SECT":" ","MAREA":" ","LANE":" ","ALLEY":" ","HOUSE_NO":"２５６號","E_COORD97":171792.73999999999,"N_COORD97":2545679.8999999999,"ADDRESS":"中山東路２５６號","OBJECTID":592401},"geometry":{"x":171792.74000000115,"y":2545679.9000000041}},{"attributes":{"ID":592429,"DIS_CODE":0,"TOWNNAME":"永康區","LI":"五王里","LIN":"11鄰","STREET":"中山東路","SECT":" ","MAREA":" ","LANE":" ","ALLEY":" ","HOUSE_NO":"２５０號","E_COORD97":171790.67999999999,"N_COORD97":2545688.1499999999,"ADDRESS":"中山東路２５０號","OBJECTID":592402},"geometry":{"x":171790.68000000063,"y":2545688.1499999985}},{"attributes":{"ID":592430,"DIS_CODE":0,"TOWNNAME":"永康區","LI":"五王里","LIN":"11鄰","STREET":"中山東路","SECT":" ","MAREA":" ","LANE":" ","ALLEY":" ","HOUSE_NO":"２６０號","E_COORD97":171794.67999999999,"N_COORD97":2545672.1400000001,"ADDRESS":"中山東路２６０號","OBJECTID":592403},"geometry":{"x":171794.6799999997,"y":2545672.1400000025}},{"attributes":{"ID":592431,"DIS_CODE":0,"TOWNNAME":"永康區","LI":"五王里","LIN":"11鄰","STREET":"中山東路","SECT":" ","MAREA":" ","LANE":" ","ALLEY":" ","HOUSE_NO":"２３２號","E_COORD97":171783.63,"N_COORD97":2545716.6499999999,"ADDRESS":"中山東路２３２號","OBJECTID":592404},"geometry":{"x":171783.62999999989,"y":2545716.6500000022}},{"attributes":{"ID":592432,"DIS_CODE":0,"TOWNNAME":"永康區","LI":"五王里","LIN":"11鄰","STREET":"中山東路","SECT":" ","MAREA":" ","LANE":" ","ALLEY":" ","HOUSE_NO":"２７２號","E_COORD97":171799.92999999999,"N_COORD97":2545651.8900000001,"ADDRESS":"中山東路２７２號","OBJECTID":592405},"geometry":{"x":171799.9299999997,"y":2545651.8900000006}},{"attributes":{"ID":592433,"DIS_CODE":0,"TOWNNAME":"永康區","LI":"五王里","LIN":"11鄰","STREET":"中山東路","SECT":" ","MAREA":" ","LANE":" ","ALLEY":" ","HOUSE_NO":"２４２號","E_COORD97":171787.72,"N_COORD97":2545700.3999999999,"ADDRESS":"中山東路２４２號","OBJECTID":592406},"geometry":{"x":171787.71999999974,"y":2545700.4000000041}},{"attributes":{"ID":592434,"DIS_CODE":0,"TOWNNAME":"永康區","LI":"二王里","LIN":"11鄰","STREET":"二王路","SECT":" ","MAREA":" ","LANE":" ","ALLEY":" ","HOUSE_NO":"１７７號","E_COORD97":172964.81,"N_COORD97":2546446.3700000001,"ADDRESS":"二王路１７７號","OBJECTID":592407},"geometry":{"x":172964.81000000052,"y":2546446.370000001}},{"attributes":{"ID":592435,"DIS_CODE":0,"TOWNNAME":"永康區","LI":"二王里","LIN":"11鄰","STREET":"二王路","SECT":" ","MAREA":" ","LANE":" ","ALLEY":" ","HOUSE_NO":"１６５號","E_COORD97":172970.28,"N_COORD97":2546471.6099999999,"ADDRESS":"二王路１６５號","OBJECTID":592408},"geometry":{"x":172970.28000000119,"y":2546471.6100000013}},{"attributes":{"ID":592436,"DIS_CODE":0,"TOWNNAME":"永康區","LI":"大灣里","LIN":"11鄰","STREET":"大灣路","SECT":" ","MAREA":" ","LANE":" ","ALLEY":" ","HOUSE_NO":"２５６號","E_COORD97":174958.12,"N_COORD97":2545340.1800000002,"ADDRESS":"大灣路２５６號","OBJECTID":592409},"geometry":{"x":174958.12000000104,"y":2545340.1799999997}},{"attributes":{"ID":592437,"DIS_CODE":0,"TOWNNAME":"永康區","LI":"崑山里","LIN":"11鄰","STREET":"大灣路","SECT":" ","MAREA":" ","LANE":" ","ALLEY":" ","HOUSE_NO":"１０２４號","E_COORD97":173426.32999999999,"N_COORD97":2544384.7000000002,"ADDRESS":"大灣路１０２４號","OBJECTID":592410},"geometry":{"x":173426.33000000101,"y":2544384.6999999974}},{"attributes":{"ID":592438,"DIS_CODE":0,"TOWNNAME":"中西區","LI":"西賢里","LIN":"11鄰","STREET":"西賢一街","SECT":" ","MAREA":" ","LANE":" ","ALLEY":" ","HOUSE_NO":"１５０號","E_COORD97":165708.73000000001,"N_COORD97":2544755.1099999999,"ADDRESS":"西賢一街１５０號","OBJECTID":592411},"geometry":{"x":165708.73000000138,"y":2544755.1100000031}},{"attributes":{"ID":592439,"DIS_CODE":0,"TOWNNAME":"中西區","LI":"西賢里","LIN":"11鄰","STREET":"西賢一街","SECT":" ","MAREA":" ","LANE":" ","ALLEY":" ","HOUSE_NO":"１５２號","E_COORD97":165708.54999999999,"N_COORD97":2544759.8199999998,"ADDRESS":"西賢一街１５２號","OBJECTID":592412},"geometry":{"x":165708.54999999981,"y":2544759.8200000003}},{"attributes":{"ID":592440,"DIS_CODE":0,"TOWNNAME":"中西區","LI":"西賢里","LIN":"11鄰","STREET":"西賢一街","SECT":" ","MAREA":" ","LANE":" ","ALLEY":" ","HOUSE_NO":"１５６號","E_COORD97":165707.64999999999,"N_COORD97":2544763.71,"ADDRESS":"西賢一街１５６號","OBJECTID":592413},"geometry":{"x":165707.6500000013,"y":2544763.7100000028}},{"attributes":{"ID":592441,"DIS_CODE":0,"TOWNNAME":"中西區","LI":"西賢里","LIN":"11鄰","STREET":"西賢一街","SECT":" ","MAREA":" ","LANE":" ","ALLEY":" ","HOUSE_NO":"１５８號","E_COORD97":165707.82999999999,"N_COORD97":2544767.7000000002,"ADDRESS":"西賢一街１５８號","OBJECTID":592414},"geometry":{"x":165707.83000000101,"y":2544767.6999999993}},{"attributes":{"ID":592442,"DIS_CODE":0,"TOWNNAME":"中西區","LI":"西賢里","LIN":"11鄰","STREET":"西賢一街","SECT":" ","MAREA":" ","LANE":" ","ALLEY":" ","HOUSE_NO":"１６０號","E_COORD97":165707.82999999999,"N_COORD97":2544772.0499999998,"ADDRESS":"西賢一街１６０號","OBJECTID":592415},"geometry":{"x":165707.83000000101,"y":2544772.0500000026}},{"attributes":{"ID":592443,"DIS_CODE":0,"TOWNNAME":"中西區","LI":"西賢里","LIN":"11鄰","STREET":"西賢一街","SECT":" ","MAREA":" ","LANE":" ","ALLEY":" ","HOUSE_NO":"１６２號","E_COORD97":165707.28,"N_COORD97":2544776.04,"ADDRESS":"西賢一街１６２號","OBJECTID":592416},"geometry":{"x":165707.28000000026,"y":2544776.040000001}},{"attributes":{"ID":592444,"DIS_CODE":0,"TOWNNAME":"中西區","LI":"西賢里","LIN":"11鄰","STREET":"西賢一街","SECT":" ","MAREA":" ","LANE":" ","ALLEY":" ","HOUSE_NO":"１６６號","E_COORD97":165707.28,"N_COORD97":2544782.02,"ADDRESS":"西賢一街１６６號","OBJECTID":592417},"geometry":{"x":165707.28000000026,"y":2544782.0199999996}},{"attributes":{"ID":592445,"DIS_CODE":0,"TOWNNAME":"中西區","LI":"西賢里","LIN":"11鄰","STREET":"西賢一街","SECT":" ","MAREA":" ","LANE":" ","ALLEY":" ","HOUSE_NO":"１６８號","E_COORD97":165707.28,"N_COORD97":2544787.6400000001,"ADDRESS":"西賢一街１６８號","OBJECTID":592418},"geometry":{"x":165707.28000000026,"y":2544787.6400000025}},{"attributes":{"ID":592446,"DIS_CODE":0,"TOWNNAME":"中西區","LI":"西賢里","LIN":"11鄰","STREET":"西賢一街","SECT":" ","MAREA":" ","LANE":" ","ALLEY":" ","HOUSE_NO":"１７０號","E_COORD97":165707.64999999999,"N_COORD97":2544791.2599999998,"ADDRESS":"西賢一街１７０號","OBJECTID":592419},"geometry":{"x":165707.6500000013,"y":2544791.2599999998}},{"attributes":{"ID":592447,"DIS_CODE":0,"TOWNNAME":"中西區","LI":"西賢里","LIN":"11鄰","STREET":"西賢一街","SECT":" ","MAREA":" ","LANE":" ","ALLEY":" ","HOUSE_NO":"１７２號","E_COORD97":165707.82999999999,"N_COORD97":2544794.8900000001,"ADDRESS":"西賢一街１７２號","OBJECTID":592420},"geometry":{"x":165707.83000000101,"y":2544794.8900000006}},{"attributes":{"ID":592448,"DIS_CODE":0,"TOWNNAME":"中西區","LI":"西賢里","LIN":"11鄰","STREET":"西賢一街","SECT":" ","MAREA":" ","LANE":" ","ALLEY":" ","HOUSE_NO":"１７６號","E_COORD97":165707.47,"N_COORD97":2544798.8700000001,"ADDRESS":"西賢一街１７６號","OBJECTID":592421},"geometry":{"x":165707.46999999974,"y":2544798.870000001}},{"attributes":{"ID":592449,"DIS_CODE":0,"TOWNNAME":"中西區","LI":"西賢里","LIN":"11鄰","STREET":"西賢一街","SECT":" ","MAREA":" ","LANE":" ","ALLEY":" ","HOUSE_NO":"１７８號","E_COORD97":165708.37,"N_COORD97":2544803.2200000002,"ADDRESS":"西賢一街１７８號","OBJECTID":592422},"geometry":{"x":165708.37000000011,"y":2544803.2200000044}},{"attributes":{"ID":592450,"DIS_CODE":0,"TOWNNAME":"中西區","LI":"西賢里","LIN":"11鄰","STREET":"西賢一街","SECT":" ","MAREA":" ","LANE":" ","ALLEY":" ","HOUSE_NO":"１８０號","E_COORD97":165708.37,"N_COORD97":2544807.9300000002,"ADDRESS":"西賢一街１８０號","OBJECTID":592423},"geometry":{"x":165708.37000000011,"y":2544807.9300000016}},{"attributes":{"ID":592451,"DIS_CODE":0,"TOWNNAME":"中西區","LI":"藥王里","LIN":"11鄰","STREET":"大新街","SECT":" ","MAREA":" ","LANE":" ","ALLEY":" ","HOUSE_NO":"４９號","E_COORD97":167154.45999999999,"N_COORD97":2544423.5899999999,"ADDRESS":"大新街４９號","OBJECTID":592424},"geometry":{"x":167154.46000000089,"y":2544423.5900000036}},{"attributes":{"ID":592452,"DIS_CODE":0,"TOWNNAME":"中西區","LI":"藥王里","LIN":"11鄰","STREET":"大新街","SECT":" ","MAREA":" ","LANE":" ","ALLEY":" ","HOUSE_NO":"５１號","E_COORD97":167158.73999999999,"N_COORD97":2544427.4399999999,"ADDRESS":"大新街５１號","OBJECTID":592425},"geometry":{"x":167158.74000000022,"y":2544427.4400000032}},{"attributes":{"ID":592453,"DIS_CODE":0,"TOWNNAME":"中西區","LI":"藥王里","LIN":"11鄰","STREET":"大新街","SECT":" ","MAREA":" ","LANE":" ","ALLEY":" ","HOUSE_NO":"５３號","E_COORD97":167160.66,"N_COORD97":2544431.4900000002,"ADDRESS":"大新街５３號","OBJECTID":592426},"geometry":{"x":167160.66000000015,"y":2544431.4900000039}},{"attributes":{"ID":592454,"DIS_CODE":0,"TOWNNAME":"中西區","LI":"藥王里","LIN":"11鄰","STREET":"大新街","SECT":" ","MAREA":" ","LANE":" ","ALLEY":" ","HOUSE_NO":"５５號","E_COORD97":167162.57999999999,"N_COORD97":2544435.9700000002,"ADDRESS":"大新街５５號","OBJECTID":592427},"geometry":{"x":167162.58000000101,"y":2544435.9700000025}},{"attributes":{"ID":592455,"DIS_CODE":0,"TOWNNAME":"中西區","LI":"藥王里","LIN":"11鄰","STREET":"大新街","SECT":" ","MAREA":" ","LANE":" ","ALLEY":" ","HOUSE_NO":"５７號","E_COORD97":167162.57999999999,"N_COORD97":2544440.8799999999,"ADDRESS":"大新街５７號","OBJECTID":592428},"geometry":{"x":167162.58000000101,"y":2544440.8800000027}},{"attributes":{"ID":592456,"DIS_CODE":0,"TOWNNAME":"中西區","LI":"藥王里","LIN":"11鄰","STREET":"大新街","SECT":" ","MAREA":" ","LANE":" ","ALLEY":" ","HOUSE_NO":"６１號","E_COORD97":167168.14000000001,"N_COORD97":2544448.7999999998,"ADDRESS":"大新街６１號","OBJECTID":592429},"geometry":{"x":167168.1400000006,"y":2544448.8000000007}},{"attributes":{"ID":592457,"DIS_CODE":0,"TOWNNAME":"中西區","LI":"藥王里","LIN":"11鄰","STREET":"大新街","SECT":" ","MAREA":" ","LANE":" ","ALLEY":" ","HOUSE_NO":"６３號","E_COORD97":167169.84,"N_COORD97":2544453.5,"ADDRESS":"大新街６３號","OBJECTID":592430},"geometry":{"x":167169.83999999985,"y":2544453.5}},{"attributes":{"ID":592458,"DIS_CODE":0,"TOWNNAME":"中西區","LI":"藥王里","LIN":"11鄰","STREET":"大新街","SECT":" ","MAREA":" ","LANE":" ","ALLEY":" ","HOUSE_NO":"６５號","E_COORD97":167170.06,"N_COORD97":2544458.1899999999,"ADDRESS":"大新街６５號","OBJECTID":592431},"geometry":{"x":167170.06000000052,"y":2544458.1899999995}},{"attributes":{"ID":592459,"DIS_CODE":0,"TOWNNAME":"中西區","LI":"藥王里","LIN":"11鄰","STREET":"大新街","SECT":" ","MAREA":" ","LANE":" ","ALLEY":" ","HOUSE_NO":"６７號","E_COORD97":167171.54999999999,"N_COORD97":2544462.25,"ADDRESS":"大新街６７號","OBJECTID":592432},"geometry":{"x":167171.54999999981,"y":2544462.25}},{"attributes":{"ID":592460,"DIS_CODE":0,"TOWNNAME":"中西區","LI":"藥王里","LIN":"11鄰","STREET":"大新街","SECT":" ","MAREA":" ","LANE":" ","ALLEY":" ","HOUSE_NO":"７５號","E_COORD97":167182.88,"N_COORD97":2544476.77,"ADDRESS":"大新街７５號","OBJECTID":592433},"geometry":{"x":167182.87999999989,"y":2544476.7700000014}},{"attributes":{"ID":592461,"DIS_CODE":0,"TOWNNAME":"中西區","LI":"藥王里","LIN":"11鄰","STREET":"大新街","SECT":" ","MAREA":" ","LANE":" ","ALLEY":" ","HOUSE_NO":"７７號","E_COORD97":167186.07999999999,"N_COORD97":2544487.0099999998,"ADDRESS":"大新街７７號","OBJECTID":592434},"geometry":{"x":167186.08000000101,"y":2544487.0099999998}},{"attributes":{"ID":592462,"DIS_CODE":0,"TOWNNAME":"中西區","LI":"藥王里","LIN":"11鄰","STREET":"民族路","SECT":"三段","MAREA":" ","LANE":" ","ALLEY":" ","HOUSE_NO":"２８９號","E_COORD97":167195.69,"N_COORD97":2544510.2799999998,"ADDRESS":"民族路三段２８９號","OBJECTID":592435},"geometry":{"x":167195.69000000134,"y":2544510.2800000012}},{"attributes":{"ID":592463,"DIS_CODE":0,"TOWNNAME":"中西區","LI":"藥王里","LIN":"11鄰","STREET":"民族路","SECT":"三段","MAREA":" ","LANE":" ","ALLEY":" ","HOUSE_NO":"２９１號","E_COORD97":167191.42000000001,"N_COORD97":2544512.2000000002,"ADDRESS":"民族路三段２９１號","OBJECTID":592436},"geometry":{"x":167191.41999999993,"y":2544512.1999999993}},{"attributes":{"ID":592464,"DIS_CODE":0,"TOWNNAME":"中西區","LI":"藥王里","LIN":"11鄰","STREET":"民族路","SECT":"三段","MAREA":" ","LANE":" ","ALLEY":" ","HOUSE_NO":"２９３號","E_COORD97":167186.72,"N_COORD97":2544513.48,"ADDRESS":"民族路三段２９３號","OBJECTID":592437},"geometry":{"x":167186.72000000067,"y":2544513.4800000023}},{"attributes":{"ID":592465,"DIS_CODE":0,"TOWNNAME":"中西區","LI":"藥王里","LIN":"11鄰","STREET":"民族路","SECT":"三段","MAREA":" ","LANE":" ","ALLEY":" ","HOUSE_NO":"２９５號","E_COORD97":167181.59,"N_COORD97":2544513.0600000001,"ADDRESS":"民族路三段２９５號","OBJECTID":592438},"geometry":{"x":167181.58999999985,"y":2544513.0600000024}},{"attributes":{"ID":592466,"DIS_CODE":0,"TOWNNAME":"中西區","LI":"藥王里","LIN":"11鄰","STREET":"民族路","SECT":"三段","MAREA":" ","LANE":" ","ALLEY":" ","HOUSE_NO":"２９７號","E_COORD97":167177.75,"N_COORD97":2544515.8300000001,"ADDRESS":"民族路三段２９７號","OBJECTID":592439},"geometry":{"x":167177.75000000093,"y":2544515.8300000001}},{"attributes":{"ID":592467,"DIS_CODE":0,"TOWNNAME":"中西區","LI":"藥王里","LIN":"11鄰","STREET":"臨安路","SECT":"一段","MAREA":" ","LANE":" ","ALLEY":" ","HOUSE_NO":"１００號","E_COORD97":167102.98000000001,"N_COORD97":2544454.3300000001,"ADDRESS":"臨安路一段１００號","OBJECTID":592440},"geometry":{"x":167102.98000000045,"y":2544454.3300000019}},{"attributes":{"ID":592468,"DIS_CODE":0,"TOWNNAME":"中西區","LI":"藥王里","LIN":"11鄰","STREET":"臨安路","SECT":"一段","MAREA":" ","LANE":" ","ALLEY":" ","HOUSE_NO":"１０２號","E_COORD97":167106.82999999999,"N_COORD97":2544457.3199999998,"ADDRESS":"臨安路一段１０２號","OBJECTID":592441},"geometry":{"x":167106.83000000007,"y":2544457.3200000022}},{"attributes":{"ID":592469,"DIS_CODE":0,"TOWNNAME":"中西區","LI":"藥王里","LIN":"11鄰","STREET":"臨安路","SECT":"一段","MAREA":" ","LANE":" ","ALLEY":" ","HOUSE_NO":"１０４號","E_COORD97":167110.67000000001,"N_COORD97":2544460.7400000002,"ADDRESS":"臨安路一段１０４號","OBJECTID":592442},"geometry":{"x":167110.67000000086,"y":2544460.7400000021}},{"attributes":{"ID":592470,"DIS_CODE":0,"TOWNNAME":"中西區","LI":"藥王里","LIN":"11鄰","STREET":"臨安路","SECT":"一段","MAREA":" ","LANE":" ","ALLEY":" ","HOUSE_NO":"１０６號","E_COORD97":167113.88,"N_COORD97":2544466.5,"ADDRESS":"臨安路一段１０６號","OBJECTID":592443},"geometry":{"x":167113.88000000175,"y":2544466.5000000019}},{"attributes":{"ID":592471,"DIS_CODE":0,"TOWNNAME":"中西區","LI":"藥王里","LIN":"11鄰","STREET":"臨安路","SECT":"一段","MAREA":" ","LANE":" ","ALLEY":" ","HOUSE_NO":"１０８號","E_COORD97":167119.22,"N_COORD97":2544471.4100000001,"ADDRESS":"臨安路一段１０８號","OBJECTID":592444},"geometry":{"x":167119.21999999974,"y":2544471.4100000001}},{"attributes":{"ID":592472,"DIS_CODE":0,"TOWNNAME":"中西區","LI":"藥王里","LIN":"11鄰","STREET":"臨安路","SECT":"一段","MAREA":" ","LANE":" ","ALLEY":" ","HOUSE_NO":"１１０號","E_COORD97":167122.20999999999,"N_COORD97":2544475.6800000002,"ADDRESS":"臨安路一段１１０號","OBJECTID":592445},"geometry":{"x":167122.21000000089,"y":2544475.6799999997}},{"attributes":{"ID":592473,"DIS_CODE":0,"TOWNNAME":"中西區","LI":"藥王里","LIN":"11鄰","STREET":"臨安路","SECT":"一段","MAREA":" ","LANE":" ","ALLEY":" ","HOUSE_NO":"１１２號","E_COORD97":167126.04999999999,"N_COORD97":2544478.8799999999,"ADDRESS":"臨安路一段１１２號","OBJECTID":592446},"geometry":{"x":167126.04999999888,"y":2544478.8800000008}},{"attributes":{"ID":592474,"DIS_CODE":0,"TOWNNAME":"中西區","LI":"藥王里","LIN":"11鄰","STREET":"臨安路","SECT":"一段","MAREA":" ","LANE":" ","ALLEY":" ","HOUSE_NO":"１１４號","E_COORD97":167128.82999999999,"N_COORD97":2544482.7200000002,"ADDRESS":"臨安路一段１１４號","OBJECTID":592447},"geometry":{"x":167128.83000000007,"y":2544482.7200000025}},{"attributes":{"ID":592475,"DIS_CODE":0,"TOWNNAME":"中西區","LI":"藥王里","LIN":"11鄰","STREET":"臨安路","SECT":"一段","MAREA":" ","LANE":" ","ALLEY":" ","HOUSE_NO":"１１６號","E_COORD97":167141.85999999999,"N_COORD97":2544491.71,"ADDRESS":"臨安路一段１１６號","OBJECTID":592448},"geometry":{"x":167141.86000000127,"y":2544491.7100000046}},{"attributes":{"ID":592476,"DIS_CODE":0,"TOWNNAME":"中西區","LI":"藥王里","LIN":"11鄰","STREET":"臨安路","SECT":"一段","MAREA":" ","LANE":" ","ALLEY":" ","HOUSE_NO":"１１８號","E_COORD97":167144.42000000001,"N_COORD97":2544494.7000000002,"ADDRESS":"臨安路一段１１８號","OBJECTID":592449},"geometry":{"x":167144.42000000086,"y":2544494.7000000011}},{"attributes":{"ID":592477,"DIS_CODE":0,"TOWNNAME":"中西區","LI":"藥王里","LIN":"11鄰","STREET":"臨安路","SECT":"一段","MAREA":" ","LANE":" ","ALLEY":" ","HOUSE_NO":"１２０號","E_COORD97":167148.48000000001,"N_COORD97":2544499.1800000002,"ADDRESS":"臨安路一段１２０號","OBJECTID":592450},"geometry":{"x":167148.48000000138,"y":2544499.1799999997}},{"attributes":{"ID":592478,"DIS_CODE":0,"TOWNNAME":"中西區","LI":"藥王里","LIN":"11鄰","STREET":"臨安路","SECT":"一段","MAREA":" ","LANE":" ","ALLEY":" ","HOUSE_NO":"１２２號","E_COORD97":167150.62,"N_COORD97":2544503.6600000001,"ADDRESS":"臨安路一段１２２號","OBJECTID":592451},"geometry":{"x":167150.62000000011,"y":2544503.6600000001}},{"attributes":{"ID":592479,"DIS_CODE":0,"TOWNNAME":"中西區","LI":"藥王里","LIN":"11鄰","STREET":"臨安路","SECT":"一段","MAREA":" ","LANE":" ","ALLEY":" ","HOUSE_NO":"１２４號","E_COORD97":167154.67999999999,"N_COORD97":2544507.29,"ADDRESS":"臨安路一段１２４號","OBJECTID":592452},"geometry":{"x":167154.68000000063,"y":2544507.290000001}},{"attributes":{"ID":592480,"DIS_CODE":0,"TOWNNAME":"中西區","LI":"藥王里","LIN":"11鄰","STREET":"臨安路","SECT":"一段","MAREA":" ","LANE":" ","ALLEY":" ","HOUSE_NO":"１２６號","E_COORD97":167159.16,"N_COORD97":2544510.71,"ADDRESS":"臨安路一段１２６號","OBJECTID":592453},"geometry":{"x":167159.16000000015,"y":2544510.7100000009}},{"attributes":{"ID":592481,"DIS_CODE":0,"TOWNNAME":"中西區","LI":"藥王里","LIN":"11鄰","STREET":"臨安路","SECT":"一段","MAREA":" ","LANE":" ","ALLEY":" ","HOUSE_NO":"１２８號","E_COORD97":167166.85000000001,"N_COORD97":2544517.9700000002,"ADDRESS":"臨安路一段１２８號","OBJECTID":592454},"geometry":{"x":167166.85000000056,"y":2544517.9700000025}},{"attributes":{"ID":592482,"DIS_CODE":0,"TOWNNAME":"永康區","LI":"復國里","LIN":"11鄰","STREET":"復國二路","SECT":" ","MAREA":" ","LANE":" ","ALLEY":" ","HOUSE_NO":"９１號","E_COORD97":172851.81,"N_COORD97":2545446.2000000002,"ADDRESS":"復國二路９１號","OBJECTID":592455},"geometry":{"x":172851.80999999959,"y":2545446.200000003}},{"attributes":{"ID":592483,"DIS_CODE":0,"TOWNNAME":"永康區","LI":"北灣里","LIN":"11鄰","STREET":"大灣七街","SECT":" ","MAREA":" ","LANE":" ","ALLEY":" ","HOUSE_NO":"７３號","E_COORD97":175060.73999999999,"N_COORD97":2545726.5499999998,"ADDRESS":"大灣七街７３號","OBJECTID":592456},"geometry":{"x":175060.74000000115,"y":2545726.5500000045}},{"attributes":{"ID":592484,"DIS_CODE":0,"TOWNNAME":"永康區","LI":"五王里","LIN":"11鄰","STREET":"中山東路","SECT":" ","MAREA":" ","LANE":" ","ALLEY":" ","HOUSE_NO":"２８２號","E_COORD97":171805.10000000001,"N_COORD97":2545630.2200000002,"ADDRESS":"中山東路２８２號","OBJECTID":592457},"geometry":{"x":171805.10000000056,"y":2545630.2200000007}},{"attributes":{"ID":592485,"DIS_CODE":0,"TOWNNAME":"永康區","LI":"永康里","LIN":"11鄰","STREET":"永平街","SECT":" ","MAREA":" ","LANE":" ","ALLEY":" ","HOUSE_NO":"３９之１號","E_COORD97":173641.10000000001,"N_COORD97":2547123.3100000001,"ADDRESS":"永平街３９之１號","OBJECTID":592458},"geometry":{"x":173641.09999999963,"y":2547123.3100000005}},{"attributes":{"ID":592486,"DIS_CODE":0,"TOWNNAME":"東區","LI":"泉南里","LIN":"11鄰","STREET":"府連路","SECT":" ","MAREA":" ","LANE":" ","ALLEY":" ","HOUSE_NO":"３３１號","E_COORD97":169592.26000000001,"N_COORD97":2542847.8999999999,"ADDRESS":"府連路３３１號","OBJECTID":592459},"geometry":{"x":169592.25999999978,"y":2542847.9000000004}},{"attributes":{"ID":592487,"DIS_CODE":0,"TOWNNAME":"東區","LI":"崇善里","LIN":"11鄰","STREET":"崇善八街","SECT":" ","MAREA":" ","LANE":" ","ALLEY":" ","HOUSE_NO":"２４號","E_COORD97":171125.39999999999,"N_COORD97":2541379.04,"ADDRESS":"崇善八街２４號","OBJECTID":592460},"geometry":{"x":171125.4000000013,"y":2541379.040000001}},{"attributes":{"ID":592488,"DIS_CODE":0,"TOWNNAME":"東區","LI":"崇德里","LIN":"11鄰","STREET":"崇德路","SECT":" ","MAREA":" ","LANE":" ","ALLEY":" ","HOUSE_NO":"５７１號","E_COORD97":170805.04000000001,"N_COORD97":2541486.3900000001,"ADDRESS":"崇德路５７１號","OBJECTID":592461},"geometry":{"x":170805.0400000019,"y":2541486.3900000043}},{"attributes":{"ID":592489,"DIS_CODE":0,"TOWNNAME":"東區","LI":"關聖里","LIN":"11鄰","STREET":"裕農一街","SECT":" ","MAREA":" ","LANE":" ","ALLEY":" ","HOUSE_NO":"１１１號","E_COORD97":171938.23999999999,"N_COORD97":2542915.0099999998,"ADDRESS":"裕農一街１１１號","OBJECTID":592462},"geometry":{"x":171938.24000000115,"y":2542915.0099999998}},{"attributes":{"ID":592490,"DIS_CODE":0,"TOWNNAME":"東區","LI":"關聖里","LIN":"11鄰","STREET":"裕農一街","SECT":" ","MAREA":" ","LANE":" ","ALLEY":" ","HOUSE_NO":"１１３號","E_COORD97":171937.75,"N_COORD97":2542910.1499999999,"ADDRESS":"裕農一街１１３號","OBJECTID":592463},"geometry":{"x":171937.75000000186,"y":2542910.1500000004}},{"attributes":{"ID":592491,"DIS_CODE":0,"TOWNNAME":"東區","LI":"關聖里","LIN":"11鄰","STREET":"裕農二街","SECT":" ","MAREA":" ","LANE":" ","ALLEY":" ","HOUSE_NO":"９８號","E_COORD97":171957.03,"N_COORD97":2542964.6200000001,"ADDRESS":"裕農二街９８號","OBJECTID":592464},"geometry":{"x":171957.03000000119,"y":2542964.6200000029}},{"attributes":{"ID":592492,"DIS_CODE":0,"TOWNNAME":"東區","LI":"關聖里","LIN":"11鄰","STREET":"裕農二街","SECT":" ","MAREA":" ","LANE":" ","ALLEY":" ","HOUSE_NO":"１００號","E_COORD97":171955.38,"N_COORD97":2542960.1499999999,"ADDRESS":"裕農二街１００號","OBJECTID":592465},"geometry":{"x":171955.38000000175,"y":2542960.1500000022}},{"attributes":{"ID":592493,"DIS_CODE":0,"TOWNNAME":"東區","LI":"關聖里","LIN":"11鄰","STREET":"裕農二街","SECT":" ","MAREA":" ","LANE":" ","ALLEY":" ","HOUSE_NO":"１０２號","E_COORD97":171955.38,"N_COORD97":2542956.3399999999,"ADDRESS":"裕農二街１０２號","OBJECTID":592466},"geometry":{"x":171955.38000000175,"y":2542956.3399999999}},{"attributes":{"ID":592494,"DIS_CODE":0,"TOWNNAME":"東區","LI":"關聖里","LIN":"11鄰","STREET":"裕農二街","SECT":" ","MAREA":" ","LANE":" ","ALLEY":" ","HOUSE_NO":"１０４號","E_COORD97":171956.20000000001,"N_COORD97":2542951.3799999999,"ADDRESS":"裕農二街１０４號","OBJECTID":592467},"geometry":{"x":171956.20000000019,"y":2542951.379999999}},{"attributes":{"ID":592495,"DIS_CODE":0,"TOWNNAME":"東區","LI":"關聖里","LIN":"11鄰","STREET":"裕農二街","SECT":" ","MAREA":" ","LANE":" ","ALLEY":" ","HOUSE_NO":"１０６號","E_COORD97":171956.70000000001,"N_COORD97":2542947.5699999998,"ADDRESS":"裕農二街１０６號","OBJECTID":592468},"geometry":{"x":171956.69999999925,"y":2542947.5700000022}},{"attributes":{"ID":592496,"DIS_CODE":0,"TOWNNAME":"東區","LI":"崇德里","LIN":"11鄰","STREET":"崇德十街","SECT":" ","MAREA":" ","LANE":" ","ALLEY":" ","HOUSE_NO":"３９號","E_COORD97":170912.84,"N_COORD97":2541522.3900000001,"ADDRESS":"崇德十街３９號","OBJECTID":592469},"geometry":{"x":170912.83999999892,"y":2541522.3900000006}},{"attributes":{"ID":592497,"DIS_CODE":0,"TOWNNAME":"東區","LI":"德高里","LIN":"11鄰","STREET":"德高街","SECT":" ","MAREA":" ","LANE":" ","ALLEY":" ","HOUSE_NO":"１００號","E_COORD97":171481.22,"N_COORD97":2540757.8799999999,"ADDRESS":"德高街１００號","OBJECTID":592470},"geometry":{"x":171481.21999999974,"y":2540757.879999999}},{"attributes":{"ID":592498,"DIS_CODE":0,"TOWNNAME":"東區","LI":"德高里","LIN":"11鄰","STREET":"德高街","SECT":" ","MAREA":" ","LANE":" ","ALLEY":" ","HOUSE_NO":"１０２號","E_COORD97":171506.42000000001,"N_COORD97":2540785.6899999999,"ADDRESS":"德高街１０２號","OBJECTID":592471},"geometry":{"x":171506.42000000086,"y":2540785.6900000013}},{"attributes":{"ID":592499,"DIS_CODE":0,"TOWNNAME":"東區","LI":"德高里","LIN":"11鄰","STREET":"德高街","SECT":" ","MAREA":" ","LANE":" ","ALLEY":" ","HOUSE_NO":"１０４號","E_COORD97":171508.97,"N_COORD97":2540783.1400000001,"ADDRESS":"德高街１０４號","OBJECTID":592472},"geometry":{"x":171508.97000000067,"y":2540783.1400000025}},{"attributes":{"ID":592500,"DIS_CODE":0,"TOWNNAME":"東區","LI":"德高里","LIN":"11鄰","STREET":"德高街","SECT":" ","MAREA":" ","LANE":" ","ALLEY":" ","HOUSE_NO":"５６號","E_COORD97":171466.16,"N_COORD97":2540834.0800000001,"ADDRESS":"德高街５６號","OBJECTID":592473},"geometry":{"x":171466.16000000108,"y":2540834.0800000019}},{"attributes":{"ID":592501,"DIS_CODE":0,"TOWNNAME":"東區","LI":"崇德里","LIN":"11鄰","STREET":"崇德十街","SECT":" ","MAREA":" ","LANE":" ","ALLEY":" ","HOUSE_NO":"３３號","E_COORD97":170899.26000000001,"N_COORD97":2541525.1099999999,"ADDRESS":"崇德十街３３號","OBJECTID":592474},"geometry":{"x":170899.25999999978,"y":2541525.1100000013}},{"attributes":{"ID":592502,"DIS_CODE":0,"TOWNNAME":"東區","LI":"關聖里","LIN":"11鄰","STREET":"裕農二街","SECT":" ","MAREA":" ","LANE":" ","ALLEY":" ","HOUSE_NO":"１２６號","E_COORD97":171958.87,"N_COORD97":2542910.1499999999,"ADDRESS":"裕農二街１２６號","OBJECTID":592475},"geometry":{"x":171958.86999999918,"y":2542910.1500000004}},{"attributes":{"ID":592503,"DIS_CODE":0,"TOWNNAME":"東區","LI":"關聖里","LIN":"11鄰","STREET":"裕農二街","SECT":" ","MAREA":" ","LANE":" ","ALLEY":" ","HOUSE_NO":"１２８號","E_COORD97":171959.67999999999,"N_COORD97":2542905.2799999998,"ADDRESS":"裕農二街１２８號","OBJECTID":592476},"geometry":{"x":171959.6799999997,"y":2542905.2799999993}},{"attributes":{"ID":592504,"DIS_CODE":0,"TOWNNAME":"東區","LI":"關聖里","LIN":"11鄰","STREET":"裕農二街","SECT":" ","MAREA":" ","LANE":" ","ALLEY":" ","HOUSE_NO":"１３０號","E_COORD97":171960.17000000001,"N_COORD97":2542899.9199999999,"ADDRESS":"裕農二街１３０號","OBJECTID":592477},"geometry":{"x":171960.17000000179,"y":2542899.9200000018}},{"attributes":{"ID":592505,"DIS_CODE":0,"TOWNNAME":"東區","LI":"關聖里","LIN":"11鄰","STREET":"裕農二街","SECT":" ","MAREA":" ","LANE":" ","ALLEY":" ","HOUSE_NO":"１３２號","E_COORD97":171959.84,"N_COORD97":2542895.54,"ADDRESS":"裕農二街１３２號","OBJECTID":592478},"geometry":{"x":171959.83999999985,"y":2542895.540000001}},{"attributes":{"ID":592506,"DIS_CODE":0,"TOWNNAME":"東區","LI":"關聖里","LIN":"11鄰","STREET":"裕農二街","SECT":" ","MAREA":" ","LANE":" ","ALLEY":" ","HOUSE_NO":"１３６號","E_COORD97":171959.35000000001,"N_COORD97":2542887.4199999999,"ADDRESS":"裕農二街１３６號","OBJECTID":592479},"geometry":{"x":171959.35000000056,"y":2542887.4199999999}},{"attributes":{"ID":592507,"DIS_CODE":0,"TOWNNAME":"中西區","LI":"水仙里","LIN":"11鄰","STREET":"宮後街","SECT":" ","MAREA":" ","LANE":" ","ALLEY":" ","HOUSE_NO":"１７號","E_COORD97":167865.51999999999,"N_COORD97":2544125.8100000001,"ADDRESS":"宮後街１７號","OBJECTID":592480},"geometry":{"x":167865.52000000048,"y":2544125.8100000024}},{"attributes":{"ID":592508,"DIS_CODE":0,"TOWNNAME":"中西區","LI":"水仙里","LIN":"11鄰","STREET":"宮後街","SECT":" ","MAREA":" ","LANE":" ","ALLEY":" ","HOUSE_NO":"１８號","E_COORD97":167861.07000000001,"N_COORD97":2544128.0299999998,"ADDRESS":"宮後街１８號","OBJECTID":592481},"geometry":{"x":167861.07000000123,"y":2544128.0299999993}},{"attributes":{"ID":592509,"DIS_CODE":0,"TOWNNAME":"中西區","LI":"水仙里","LIN":"11鄰","STREET":"宮後街","SECT":" ","MAREA":" ","LANE":" ","ALLEY":" ","HOUSE_NO":"１９號","E_COORD97":167856.48000000001,"N_COORD97":2544129.2799999998,"ADDRESS":"宮後街１９號","OBJECTID":592482},"geometry":{"x":167856.48000000138,"y":2544129.2799999993}},{"attributes":{"ID":592510,"DIS_CODE":0,"TOWNNAME":"中西區","LI":"水仙里","LIN":"11鄰","STREET":"宮後街","SECT":" ","MAREA":" ","LANE":" ","ALLEY":" ","HOUSE_NO":"２０號","E_COORD97":167851.76000000001,"N_COORD97":2544129.8300000001,"ADDRESS":"宮後街２０號","OBJECTID":592483},"geometry":{"x":167851.75999999978,"y":2544129.8300000001}},{"attributes":{"ID":592511,"DIS_CODE":0,"TOWNNAME":"安南區","LI":"新順里","LIN":"11鄰","STREET":"育安四街","SECT":" ","MAREA":" ","LANE":" ","ALLEY":" ","HOUSE_NO":"１０２號","E_COORD97":169750.54999999999,"N_COORD97":2549713.21,"ADDRESS":"育安四街１０２號","OBJECTID":592484},"geometry":{"x":169750.55000000075,"y":2549713.2100000028}},{"attributes":{"ID":592512,"DIS_CODE":0,"TOWNNAME":"安南區","LI":"新順里","LIN":"11鄰","STREET":"育安四街","SECT":" ","MAREA":" ","LANE":" ","ALLEY":" ","HOUSE_NO":"１０６號","E_COORD97":169752.26999999999,"N_COORD97":2549717.4900000002,"ADDRESS":"育安四街１０６號","OBJECTID":592485},"geometry":{"x":169752.27000000048,"y":2549717.4900000021}},{"attributes":{"ID":592513,"DIS_CODE":0,"TOWNNAME":"安南區","LI":"新順里","LIN":"11鄰","STREET":"育安四街","SECT":" ","MAREA":" ","LANE":" ","ALLEY":" ","HOUSE_NO":"１０８號","E_COORD97":169753.41,"N_COORD97":2549721.4900000002,"ADDRESS":"育安四街１０８號","OBJECTID":592486},"geometry":{"x":169753.41000000201,"y":2549721.4900000021}},{"attributes":{"ID":592514,"DIS_CODE":0,"TOWNNAME":"安南區","LI":"新順里","LIN":"11鄰","STREET":"育安四街","SECT":" ","MAREA":" ","LANE":" ","ALLEY":" ","HOUSE_NO":"１１０號","E_COORD97":169755.98000000001,"N_COORD97":2549724.9100000001,"ADDRESS":"育安四街１１０號","OBJECTID":592487},"geometry":{"x":169755.98000000045,"y":2549724.910000002}},{"attributes":{"ID":592515,"DIS_CODE":0,"TOWNNAME":"中西區","LI":"永福里","LIN":"11鄰","STREET":"永福路","SECT":"二段","MAREA":" ","LANE":" ","ALLEY":" ","HOUSE_NO":"１３４號","E_COORD97":168130.75,"N_COORD97":2543849.6600000001,"ADDRESS":"永福路二段１３４號","OBJECTID":592488},"geometry":{"x":168130.75000000093,"y":2543849.6600000001}},{"attributes":{"ID":592516,"DIS_CODE":0,"TOWNNAME":"中西區","LI":"永福里","LIN":"11鄰","STREET":"永福路","SECT":"二段","MAREA":" ","LANE":" ","ALLEY":" ","HOUSE_NO":"１３６號","E_COORD97":168131.72,"N_COORD97":2543853.1400000001,"ADDRESS":"永福路二段１３６號","OBJECTID":592489},"geometry":{"x":168131.71999999974,"y":2543853.1400000006}},{"attributes":{"ID":592517,"DIS_CODE":0,"TOWNNAME":"中西區","LI":"永福里","LIN":"11鄰","STREET":"永福路","SECT":"二段","MAREA":" ","LANE":" ","ALLEY":" ","HOUSE_NO":"１３８號","E_COORD97":168134.39000000001,"N_COORD97":2543860.71,"ADDRESS":"永福路二段１３８號","OBJECTID":592490},"geometry":{"x":168134.3900000006,"y":2543860.7100000009}},{"attributes":{"ID":592518,"DIS_CODE":0,"TOWNNAME":"中西區","LI":"永福里","LIN":"11鄰","STREET":"永福路","SECT":"二段","MAREA":" ","LANE":" ","ALLEY":" ","HOUSE_NO":"１４０號","E_COORD97":168148.70000000001,"N_COORD97":2543868.8199999998,"ADDRESS":"永福路二段１４０號","OBJECTID":592491},"geometry":{"x":168148.70000000019,"y":2543868.8200000003}},{"attributes":{"ID":592519,"DIS_CODE":0,"TOWNNAME":"中西區","LI":"永福里","LIN":"11鄰","STREET":"永福路","SECT":"二段","MAREA":" ","LANE":" ","ALLEY":" ","HOUSE_NO":"１４２號","E_COORD97":168169.98999999999,"N_COORD97":2543854.8199999998,"ADDRESS":"永福路二段１４２號","OBJECTID":592492},"geometry":{"x":168169.99000000115,"y":2543854.8200000003}},{"attributes":{"ID":592520,"DIS_CODE":0,"TOWNNAME":"中西區","LI":"永福里","LIN":"11鄰","STREET":"永福路","SECT":"二段","MAREA":" ","LANE":" ","ALLEY":" ","HOUSE_NO":"１４２之１號","E_COORD97":168140.41,"N_COORD97":2543878.2400000002,"ADDRESS":"永福路二段１４２之１號","OBJECTID":592493},"geometry":{"x":168140.41000000015,"y":2543878.2400000021}},{"attributes":{"ID":592521,"DIS_CODE":0,"TOWNNAME":"中西區","LI":"永福里","LIN":"11鄰","STREET":"永福路","SECT":"二段","MAREA":" ","LANE":" ","ALLEY":" ","HOUSE_NO":"１４６號","E_COORD97":168141.81,"N_COORD97":2543882.2799999998,"ADDRESS":"永福路二段１４６號","OBJECTID":592494},"geometry":{"x":168141.81000000052,"y":2543882.2799999993}},{"attributes":{"ID":592522,"DIS_CODE":0,"TOWNNAME":"中西區","LI":"永福里","LIN":"11鄰","STREET":"永福路","SECT":"二段","MAREA":" ","LANE":" ","ALLEY":" ","HOUSE_NO":"１４８號","E_COORD97":168142.79000000001,"N_COORD97":2543885.8999999999,"ADDRESS":"永福路二段１４８號","OBJECTID":592495},"geometry":{"x":168142.79000000004,"y":2543885.9000000004}},{"attributes":{"ID":592523,"DIS_CODE":0,"TOWNNAME":"中西區","LI":"永福里","LIN":"11鄰","STREET":"永福路","SECT":"二段","MAREA":" ","LANE":" ","ALLEY":" ","HOUSE_NO":"１５０號之１","E_COORD97":168178.95999999999,"N_COORD97":2543890.6000000001,"ADDRESS":"永福路二段１５０號之１","OBJECTID":592496},"geometry":{"x":168178.95999999996,"y":2543890.5999999996}},{"attributes":{"ID":592524,"DIS_CODE":0,"TOWNNAME":"中西區","LI":"萬昌里","LIN":"11鄰","STREET":"北門路","SECT":"一段","MAREA":" ","LANE":" ","ALLEY":" ","HOUSE_NO":"１９號","E_COORD97":169144.57999999999,"N_COORD97":2543335.1200000001,"ADDRESS":"北門路一段１９號","OBJECTID":592497},"geometry":{"x":169144.58000000007,"y":2543335.120000001}},{"attributes":{"ID":592525,"DIS_CODE":0,"TOWNNAME":"中西區","LI":"萬昌里","LIN":"11鄰","STREET":"北門路","SECT":"一段","MAREA":" ","LANE":" ","ALLEY":" ","HOUSE_NO":"２１號","E_COORD97":169145.88,"N_COORD97":2543337.5299999998,"ADDRESS":"北門路一段２１號","OBJECTID":592498},"geometry":{"x":169145.87999999989,"y":2543337.5299999993}},{"attributes":{"ID":592526,"DIS_CODE":0,"TOWNNAME":"中西區","LI":"萬昌里","LIN":"11鄰","STREET":"北門路","SECT":"一段","MAREA":" ","LANE":" ","ALLEY":" ","HOUSE_NO":"２３號","E_COORD97":169144.04000000001,"N_COORD97":2543352.2400000002,"ADDRESS":"北門路一段２３號","OBJECTID":592499},"geometry":{"x":169144.04000000097,"y":2543352.2400000021}},{"attributes":{"ID":592527,"DIS_CODE":0,"TOWNNAME":"中西區","LI":"萬昌里","LIN":"11鄰","STREET":"北門路","SECT":"一段","MAREA":" ","LANE":" ","ALLEY":" ","HOUSE_NO":"２５號","E_COORD97":169140.48999999999,"N_COORD97":2543357.8700000001,"ADDRESS":"北門路一段２５號","OBJECTID":592500},"geometry":{"x":169140.49000000022,"y":2543357.870000001}},{"attributes":{"ID":592528,"DIS_CODE":0,"TOWNNAME":"中西區","LI":"萬昌里","LIN":"11鄰","STREET":"北門路","SECT":"一段","MAREA":" ","LANE":" ","ALLEY":" ","HOUSE_NO":"２７號","E_COORD97":169140.60999999999,"N_COORD97":2543361.77,"ADDRESS":"北門路一段２７號","OBJECTID":592501},"geometry":{"x":169140.61000000127,"y":2543361.7700000014}},{"attributes":{"ID":592529,"DIS_CODE":0,"TOWNNAME":"中西區","LI":"萬昌里","LIN":"11鄰","STREET":"北門路","SECT":"一段","MAREA":" ","LANE":" ","ALLEY":" ","HOUSE_NO":"２９號","E_COORD97":169144.28,"N_COORD97":2543366.9700000002,"ADDRESS":"北門路一段２９號","OBJECTID":592502},"geometry":{"x":169144.28000000119,"y":2543366.9700000007}},{"attributes":{"ID":592530,"DIS_CODE":0,"TOWNNAME":"中西區","LI":"萬昌里","LIN":"11鄰","STREET":"北門路","SECT":"一段","MAREA":" ","LANE":" ","ALLEY":" ","HOUSE_NO":"３１號","E_COORD97":169142.07999999999,"N_COORD97":2543375.6400000001,"ADDRESS":"北門路一段３１號","OBJECTID":592503},"geometry":{"x":169142.08000000101,"y":2543375.6400000006}},{"attributes":{"ID":592531,"DIS_CODE":0,"TOWNNAME":"中西區","LI":"萬昌里","LIN":"11鄰","STREET":"北門路","SECT":"一段","MAREA":" ","LANE":" ","ALLEY":" ","HOUSE_NO":"３３號","E_COORD97":169142.64000000001,"N_COORD97":2543378.23,"ADDRESS":"北門路一段３３號","OBJECTID":592504},"geometry":{"x":169142.64000000153,"y":2543378.2300000004}},{"attributes":{"ID":592532,"DIS_CODE":0,"TOWNNAME":"中西區","LI":"萬昌里","LIN":"11鄰","STREET":"北門路","SECT":"一段","MAREA":" ","LANE":" ","ALLEY":" ","HOUSE_NO":"３５號","E_COORD97":169143.81,"N_COORD97":2543381.8999999999,"ADDRESS":"北門路一段３５號","OBJECTID":592505},"geometry":{"x":169143.81000000052,"y":2543381.9000000022}},{"attributes":{"ID":592533,"DIS_CODE":0,"TOWNNAME":"中西區","LI":"萬昌里","LIN":"11鄰","STREET":"北門路","SECT":"一段","MAREA":" ","LANE":" ","ALLEY":" ","HOUSE_NO":"３７號","E_COORD97":169143.47,"N_COORD97":2543384.4399999999,"ADDRESS":"北門路一段３７號","OBJECTID":592506},"geometry":{"x":169143.46999999974,"y":2543384.4400000013}},{"attributes":{"ID":592534,"DIS_CODE":0,"TOWNNAME":"中西區","LI":"萬昌里","LIN":"11鄰","STREET":"北門路","SECT":"一段","MAREA":" ","LANE":" ","ALLEY":" ","HOUSE_NO":"３９號","E_COORD97":169143.85000000001,"N_COORD97":2543386.54,"ADDRESS":"北門路一段３９號","OBJECTID":592507},"geometry":{"x":169143.84999999963,"y":2543386.540000001}},{"attributes":{"ID":592535,"DIS_CODE":0,"TOWNNAME":"中西區","LI":"萬昌里","LIN":"11鄰","STREET":"北門路","SECT":"一段","MAREA":" ","LANE":" ","ALLEY":" ","HOUSE_NO":"４１號","E_COORD97":169144.42000000001,"N_COORD97":2543389.21,"ADDRESS":"北門路一段４１號","OBJECTID":592508},"geometry":{"x":169144.42000000179,"y":2543389.2100000009}},{"attributes":{"ID":592536,"DIS_CODE":0,"TOWNNAME":"中西區","LI":"萬昌里","LIN":"11鄰","STREET":"北門路","SECT":"一段","MAREA":" ","LANE":" ","ALLEY":" ","HOUSE_NO":"４３號","E_COORD97":169144.23000000001,"N_COORD97":2543391.3100000001,"ADDRESS":"北門路一段４３號","OBJECTID":592509},"geometry":{"x":169144.23000000045,"y":2543391.3100000005}},{"attributes":{"ID":592537,"DIS_CODE":0,"TOWNNAME":"中西區","LI":"萬昌里","LIN":"11鄰","STREET":"北門路","SECT":"一段","MAREA":" ","LANE":" ","ALLEY":" ","HOUSE_NO":"４５號","E_COORD97":169144.42000000001,"N_COORD97":2543394.1699999999,"ADDRESS":"北門路一段４５號","OBJECTID":592510},"geometry":{"x":169144.42000000179,"y":2543394.1699999999}},{"attributes":{"ID":592538,"DIS_CODE":0,"TOWNNAME":"中西區","LI":"萬昌里","LIN":"11鄰","STREET":"北門路","SECT":"一段","MAREA":" ","LANE":" ","ALLEY":" ","HOUSE_NO":"４５號之１","E_COORD97":169146.14000000001,"N_COORD97":2543400.6600000001,"ADDRESS":"北門路一段４５號之１","OBJECTID":592511},"geometry":{"x":169146.14000000153,"y":2543400.660000002}},{"attributes":{"ID":592539,"DIS_CODE":0,"TOWNNAME":"中西區","LI":"萬昌里","LIN":"11鄰","STREET":"北門路","SECT":"一段","MAREA":" ","LANE":" ","ALLEY":" ","HOUSE_NO":"４７號","E_COORD97":169145.57000000001,"N_COORD97":2543405.7599999998,"ADDRESS":"北門路一段４７號","OBJECTID":592512},"geometry":{"x":169145.57000000216,"y":2543405.7600000016}},{"attributes":{"ID":592540,"DIS_CODE":0,"TOWNNAME":"中西區","LI":"萬昌里","LIN":"11鄰","STREET":"北門路","SECT":"一段","MAREA":" ","LANE":" ","ALLEY":" ","HOUSE_NO":"４９號","E_COORD97":169151.29999999999,"N_COORD97":2543411.2999999998,"ADDRESS":"北門路一段４９號","OBJECTID":592513},"geometry":{"x":169151.29999999981,"y":2543411.3000000007}},{"attributes":{"ID":592541,"DIS_CODE":0,"TOWNNAME":"中西區","LI":"萬昌里","LIN":"11鄰","STREET":"北門路","SECT":"一段","MAREA":" ","LANE":" ","ALLEY":" ","HOUSE_NO":"１１號","E_COORD97":169131.84,"N_COORD97":2543330.4700000002,"ADDRESS":"北門路一段１１號","OBJECTID":592514},"geometry":{"x":169131.84000000078,"y":2543330.4700000025}},{"attributes":{"ID":592542,"DIS_CODE":0,"TOWNNAME":"中西區","LI":"萬昌里","LIN":"11鄰","STREET":"北門路","SECT":"一段","MAREA":" ","LANE":" ","ALLEY":" ","HOUSE_NO":"１３號","E_COORD97":169135.82999999999,"N_COORD97":2543331.96,"ADDRESS":"北門路一段１３號","OBJECTID":592515},"geometry":{"x":169135.83000000101,"y":2543331.9600000028}},{"attributes":{"ID":592543,"DIS_CODE":0,"TOWNNAME":"中西區","LI":"萬昌里","LIN":"11鄰","STREET":"北門路","SECT":"一段","MAREA":" ","LANE":" ","ALLEY":" ","HOUSE_NO":"１５號","E_COORD97":169139.45999999999,"N_COORD97":2543333.7200000002,"ADDRESS":"北門路一段１５號","OBJECTID":592516},"geometry":{"x":169139.46000000089,"y":2543333.7200000007}},{"attributes":{"ID":592544,"DIS_CODE":0,"TOWNNAME":"中西區","LI":"萬昌里","LIN":"11鄰","STREET":"北門路","SECT":"一段","MAREA":" ","LANE":" ","ALLEY":" ","HOUSE_NO":"１號","E_COORD97":169118.44,"N_COORD97":2543320.54,"ADDRESS":"北門路一段１號","OBJECTID":592517},"geometry":{"x":169118.44000000134,"y":2543320.5399999991}},{"attributes":{"ID":592545,"DIS_CODE":0,"TOWNNAME":"中西區","LI":"萬昌里","LIN":"11鄰","STREET":"北門路","SECT":"一段","MAREA":" ","LANE":" ","ALLEY":" ","HOUSE_NO":"３號","E_COORD97":169119.84,"N_COORD97":2543321.9300000002,"ADDRESS":"北門路一段３號","OBJECTID":592518},"geometry":{"x":169119.84000000078,"y":2543321.9299999997}},{"attributes":{"ID":592546,"DIS_CODE":0,"TOWNNAME":"中西區","LI":"萬昌里","LIN":"11鄰","STREET":"北門路","SECT":"一段","MAREA":" ","LANE":" ","ALLEY":" ","HOUSE_NO":"５號","E_COORD97":169123,"N_COORD97":2543324.5299999998,"ADDRESS":"北門路一段５號","OBJECTID":592519},"geometry":{"x":169123,"y":2543324.5299999993}},{"attributes":{"ID":592547,"DIS_CODE":0,"TOWNNAME":"中西區","LI":"萬昌里","LIN":"11鄰","STREET":"北門路","SECT":"一段","MAREA":" ","LANE":" ","ALLEY":" ","HOUSE_NO":"７號","E_COORD97":169124.85999999999,"N_COORD97":2543326.8500000001,"ADDRESS":"北門路一段７號","OBJECTID":592520},"geometry":{"x":169124.8600000022,"y":2543326.8500000015}},{"attributes":{"ID":592548,"DIS_CODE":0,"TOWNNAME":"中西區","LI":"萬昌里","LIN":"11鄰","STREET":"北門路","SECT":"一段","MAREA":" ","LANE":" ","ALLEY":" ","HOUSE_NO":"９號","E_COORD97":169127.92999999999,"N_COORD97":2543328.8999999999,"ADDRESS":"北門路一段９號","OBJECTID":592521},"geometry":{"x":169127.93000000063,"y":2543328.9000000004}},{"attributes":{"ID":592549,"DIS_CODE":0,"TOWNNAME":"中西區","LI":"萬昌里","LIN":"11鄰","STREET":"民權路","SECT":"一段","MAREA":" ","LANE":" ","ALLEY":" ","HOUSE_NO":"１０號","E_COORD97":169105.5,"N_COORD97":2543326.1899999999,"ADDRESS":"民權路一段１０號","OBJECTID":592522},"geometry":{"x":169105.50000000093,"y":2543326.1899999995}},{"attributes":{"ID":592550,"DIS_CODE":0,"TOWNNAME":"中西區","LI":"萬昌里","LIN":"11鄰","STREET":"民權路","SECT":"一段","MAREA":" ","LANE":" ","ALLEY":" ","HOUSE_NO":"１２號","E_COORD97":169101.38,"N_COORD97":2543327.98,"ADDRESS":"民權路一段１２號","OBJECTID":592523},"geometry":{"x":169101.38000000082,"y":2543327.9800000023}},{"attributes":{"ID":592551,"DIS_CODE":0,"TOWNNAME":"中西區","LI":"萬昌里","LIN":"11鄰","STREET":"民權路","SECT":"一段","MAREA":" ","LANE":" ","ALLEY":" ","HOUSE_NO":"１４號","E_COORD97":169099.04999999999,"N_COORD97":2543330.8399999999,"ADDRESS":"民權路一段１４號","OBJECTID":592524},"geometry":{"x":169099.04999999981,"y":2543330.8400000017}},{"attributes":{"ID":592552,"DIS_CODE":0,"TOWNNAME":"中西區","LI":"萬昌里","LIN":"11鄰","STREET":"民權路","SECT":"一段","MAREA":" ","LANE":" ","ALLEY":" ","HOUSE_NO":"２號","E_COORD97":169115.89000000001,"N_COORD97":2543324.9399999999,"ADDRESS":"民權路一段２號","OBJECTID":592525},"geometry":{"x":169115.8900000006,"y":2543324.9399999995}},{"attributes":{"ID":592553,"DIS_CODE":0,"TOWNNAME":"中西區","LI":"萬昌里","LIN":"11鄰","STREET":"民權路","SECT":"一段","MAREA":" ","LANE":" ","ALLEY":" ","HOUSE_NO":"２號之１","E_COORD97":169123.98000000001,"N_COORD97":2543351.5299999998,"ADDRESS":"民權路一段２號之１","OBJECTID":592526},"geometry":{"x":169123.98000000045,"y":2543351.5299999993}},{"attributes":{"ID":592554,"DIS_CODE":0,"TOWNNAME":"中西區","LI":"萬昌里","LIN":"11鄰","STREET":"民權路","SECT":"一段","MAREA":" ","LANE":" ","ALLEY":" ","HOUSE_NO":"２號之２","E_COORD97":169121.98999999999,"N_COORD97":2543348.7200000002,"ADDRESS":"民權路一段２號之２","OBJECTID":592527},"geometry":{"x":169121.99000000022,"y":2543348.7200000044}},{"attributes":{"ID":592555,"DIS_CODE":0,"TOWNNAME":"中西區","LI":"萬昌里","LIN":"11鄰","STREET":"民權路","SECT":"一段","MAREA":" ","LANE":" ","ALLEY":" ","HOUSE_NO":"２號之３","E_COORD97":169120.17000000001,"N_COORD97":2543346.3999999999,"ADDRESS":"民權路一段２號之３","OBJECTID":592528},"geometry":{"x":169120.16999999993,"y":2543346.4000000004}},{"attributes":{"ID":592556,"DIS_CODE":0,"TOWNNAME":"中西區","LI":"萬昌里","LIN":"11鄰","STREET":"民權路","SECT":"一段","MAREA":" ","LANE":" ","ALLEY":" ","HOUSE_NO":"２號之４","E_COORD97":169118.35000000001,"N_COORD97":2543344.25,"ADDRESS":"民權路一段２號之４","OBJECTID":592529},"geometry":{"x":169118.34999999963,"y":2543344.2499999981}},{"attributes":{"ID":592557,"DIS_CODE":0,"TOWNNAME":"中西區","LI":"萬昌里","LIN":"11鄰","STREET":"民權路","SECT":"一段","MAREA":" ","LANE":" ","ALLEY":" ","HOUSE_NO":"２０號","E_COORD97":169091.35000000001,"N_COORD97":2543335.1299999999,"ADDRESS":"民權路一段２０號","OBJECTID":592530},"geometry":{"x":169091.34999999963,"y":2543335.1300000008}},{"attributes":{"ID":592558,"DIS_CODE":0,"TOWNNAME":"中西區","LI":"萬昌里","LIN":"11鄰","STREET":"民權路","SECT":"一段","MAREA":" ","LANE":" ","ALLEY":" ","HOUSE_NO":"２４號","E_COORD97":169084.72,"N_COORD97":2543342.29,"ADDRESS":"民權路一段２４號","OBJECTID":592531},"geometry":{"x":169084.72000000067,"y":2543342.2899999991}},{"attributes":{"ID":592559,"DIS_CODE":0,"TOWNNAME":"中西區","LI":"萬昌里","LIN":"11鄰","STREET":"民權路","SECT":"一段","MAREA":" ","LANE":" ","ALLEY":" ","HOUSE_NO":"２６號","E_COORD97":169081.5,"N_COORD97":2543344.9700000002,"ADDRESS":"民權路一段２６號","OBJECTID":592532},"geometry":{"x":169081.50000000093,"y":2543344.9700000025}},{"attributes":{"ID":592560,"DIS_CODE":0,"TOWNNAME":"中西區","LI":"萬昌里","LIN":"11鄰","STREET":"民權路","SECT":"一段","MAREA":" ","LANE":" ","ALLEY":" ","HOUSE_NO":"２６號之１","E_COORD97":169091.89000000001,"N_COORD97":2543368.3100000001,"ADDRESS":"民權路一段２６號之１","OBJECTID":592533},"geometry":{"x":169091.89000000153,"y":2543368.3100000042}},{"attributes":{"ID":592561,"DIS_CODE":0,"TOWNNAME":"中西區","LI":"萬昌里","LIN":"11鄰","STREET":"民權路","SECT":"一段","MAREA":" ","LANE":" ","ALLEY":" ","HOUSE_NO":"２６號之２","E_COORD97":169100.67999999999,"N_COORD97":2543386.6400000001,"ADDRESS":"民權路一段２６號之２","OBJECTID":592534},"geometry":{"x":169100.68000000063,"y":2543386.6400000043}},{"attributes":{"ID":592562,"DIS_CODE":0,"TOWNNAME":"中西區","LI":"萬昌里","LIN":"11鄰","STREET":"民權路","SECT":"一段","MAREA":" ","LANE":" ","ALLEY":" ","HOUSE_NO":"２６號之３","E_COORD97":169097.82999999999,"N_COORD97":2543390.9900000002,"ADDRESS":"民權路一段２６號之３","OBJECTID":592535},"geometry":{"x":169097.83000000194,"y":2543390.9900000021}},{"attributes":{"ID":592563,"DIS_CODE":0,"TOWNNAME":"中西區","LI":"萬昌里","LIN":"11鄰","STREET":"民權路","SECT":"一段","MAREA":" ","LANE":" ","ALLEY":" ","HOUSE_NO":"２６號之４","E_COORD97":169095.5,"N_COORD97":2543394.73,"ADDRESS":"民權路一段２６號之４","OBJECTID":592536},"geometry":{"x":169095.50000000093,"y":2543394.7300000004}},{"attributes":{"ID":592564,"DIS_CODE":0,"TOWNNAME":"中西區","LI":"萬昌里","LIN":"11鄰","STREET":"民權路","SECT":"一段","MAREA":" ","LANE":" ","ALLEY":" ","HOUSE_NO":"２６號之５","E_COORD97":169090.85000000001,"N_COORD97":2543395.9300000002,"ADDRESS":"民權路一段２６號之５","OBJECTID":592537},"geometry":{"x":169090.85000000056,"y":2543395.9299999997}},{"attributes":{"ID":592565,"DIS_CODE":0,"TOWNNAME":"中西區","LI":"萬昌里","LIN":"11鄰","STREET":"民權路","SECT":"一段","MAREA":" ","LANE":" ","ALLEY":" ","HOUSE_NO":"２６號之６","E_COORD97":169088.60000000001,"N_COORD97":2543399.0699999998,"ADDRESS":"民權路一段２６號之６","OBJECTID":592538},"geometry":{"x":169088.60000000149,"y":2543399.0700000003}},{"attributes":{"ID":592566,"DIS_CODE":0,"TOWNNAME":"中西區","LI":"萬昌里","LIN":"11鄰","STREET":"民權路","SECT":"一段","MAREA":" ","LANE":" ","ALLEY":" ","HOUSE_NO":"２８號","E_COORD97":169082.92999999999,"N_COORD97":2543381.3700000001,"ADDRESS":"民權路一段２８號","OBJECTID":592539},"geometry":{"x":169082.9299999997,"y":2543381.370000001}},{"attributes":{"ID":592567,"DIS_CODE":0,"TOWNNAME":"中西區","LI":"萬昌里","LIN":"11鄰","STREET":"民權路","SECT":"一段","MAREA":" ","LANE":" ","ALLEY":" ","HOUSE_NO":"２８號之１","E_COORD97":169080.23999999999,"N_COORD97":2543378.1499999999,"ADDRESS":"民權路一段２８號之１","OBJECTID":592540},"geometry":{"x":169080.24000000115,"y":2543378.1500000004}},{"attributes":{"ID":592568,"DIS_CODE":0,"TOWNNAME":"中西區","LI":"萬昌里","LIN":"11鄰","STREET":"民權路","SECT":"一段","MAREA":" ","LANE":" ","ALLEY":" ","HOUSE_NO":"２８號之２","E_COORD97":169079.17000000001,"N_COORD97":2543373.6800000002,"ADDRESS":"民權路一段２８號之２","OBJECTID":592541},"geometry":{"x":169079.16999999993,"y":2543373.6799999997}},{"attributes":{"ID":592569,"DIS_CODE":0,"TOWNNAME":"中西區","LI":"萬昌里","LIN":"11鄰","STREET":"民權路","SECT":"一段","MAREA":" ","LANE":" ","ALLEY":" ","HOUSE_NO":"２８號之３","E_COORD97":169077.73999999999,"N_COORD97":2543369.5600000001,"ADDRESS":"民權路一段２８號之３","OBJECTID":592542},"geometry":{"x":169077.74000000022,"y":2543369.5600000005}},{"attributes":{"ID":592570,"DIS_CODE":0,"TOWNNAME":"中西區","LI":"萬昌里","LIN":"11鄰","STREET":"民權路","SECT":"一段","MAREA":" ","LANE":" ","ALLEY":" ","HOUSE_NO":"２８號之４","E_COORD97":169076.48000000001,"N_COORD97":2543366.1600000001,"ADDRESS":"民權路一段２８號之４","OBJECTID":592543},"geometry":{"x":169076.48000000045,"y":2543366.160000002}},{"attributes":{"ID":592571,"DIS_CODE":0,"TOWNNAME":"中西區","LI":"萬昌里","LIN":"11鄰","STREET":"民權路","SECT":"一段","MAREA":" ","LANE":" ","ALLEY":" ","HOUSE_NO":"３０號","E_COORD97":169076.84,"N_COORD97":2543347.4700000002,"ADDRESS":"民權路一段３０號","OBJECTID":592544},"geometry":{"x":169076.83999999985,"y":2543347.4700000025}},{"attributes":{"ID":592572,"DIS_CODE":0,"TOWNNAME":"中西區","LI":"萬昌里","LIN":"11鄰","STREET":"民權路","SECT":"一段","MAREA":" ","LANE":" ","ALLEY":" ","HOUSE_NO":"３２號","E_COORD97":169074.51000000001,"N_COORD97":2543349.98,"ADDRESS":"民權路一段３２號","OBJECTID":592545},"geometry":{"x":169074.51000000071,"y":2543349.9799999986}},{"attributes":{"ID":592573,"DIS_CODE":0,"TOWNNAME":"中西區","LI":"萬昌里","LIN":"11鄰","STREET":"民權路","SECT":"一段","MAREA":" ","LANE":" ","ALLEY":" ","HOUSE_NO":"３４號","E_COORD97":169070.03,"N_COORD97":2543351.77,"ADDRESS":"民權路一段３４號","OBJECTID":592546},"geometry":{"x":169070.03000000119,"y":2543351.7700000014}},{"attributes":{"ID":592574,"DIS_CODE":0,"TOWNNAME":"中西區","LI":"萬昌里","LIN":"11鄰","STREET":"民權路","SECT":"一段","MAREA":" ","LANE":" ","ALLEY":" ","HOUSE_NO":"３６號","E_COORD97":169067.35000000001,"N_COORD97":2543353.9100000001,"ADDRESS":"民權路一段３６號","OBJECTID":592547},"geometry":{"x":169067.35000000056,"y":2543353.9100000039}},{"attributes":{"ID":592575,"DIS_CODE":0,"TOWNNAME":"中西區","LI":"萬昌里","LIN":"11鄰","STREET":"民權路","SECT":"一段","MAREA":" ","LANE":" ","ALLEY":" ","HOUSE_NO":"３８號","E_COORD97":169064.84,"N_COORD97":2543358.21,"ADDRESS":"民權路一段３８號","OBJECTID":592548},"geometry":{"x":169064.83999999985,"y":2543358.2100000009}},{"attributes":{"ID":592576,"DIS_CODE":0,"TOWNNAME":"中西區","LI":"萬昌里","LIN":"11鄰","STREET":"民權路","SECT":"一段","MAREA":" ","LANE":" ","ALLEY":" ","HOUSE_NO":"４０號","E_COORD97":169061.44,"N_COORD97":2543361.0699999998,"ADDRESS":"民權路一段４０號","OBJECTID":592549},"geometry":{"x":169061.44000000041,"y":2543361.0700000022}},{"attributes":{"ID":592577,"DIS_CODE":0,"TOWNNAME":"中西區","LI":"萬昌里","LIN":"11鄰","STREET":"民權路","SECT":"一段","MAREA":" ","LANE":" ","ALLEY":" ","HOUSE_NO":"４２號","E_COORD97":169057.32000000001,"N_COORD97":2543362.6800000002,"ADDRESS":"民權路一段４２號","OBJECTID":592550},"geometry":{"x":169057.32000000216,"y":2543362.6800000016}},{"attributes":{"ID":592578,"DIS_CODE":0,"TOWNNAME":"中西區","LI":"萬昌里","LIN":"11鄰","STREET":"民權路","SECT":"一段","MAREA":" ","LANE":" ","ALLEY":" ","HOUSE_NO":"４８號","E_COORD97":169054.63,"N_COORD97":2543364.1099999999,"ADDRESS":"民權路一段４８號","OBJECTID":592551},"geometry":{"x":169054.62999999989,"y":2543364.1099999994}},{"attributes":{"ID":592579,"DIS_CODE":0,"TOWNNAME":"中西區","LI":"萬昌里","LIN":"11鄰","STREET":"民權路","SECT":"一段","MAREA":" ","LANE":" ","ALLEY":" ","HOUSE_NO":"５０號","E_COORD97":169072.98000000001,"N_COORD97":2543372.48,"ADDRESS":"民權路一段５０號","OBJECTID":592552},"geometry":{"x":169072.98000000045,"y":2543372.4800000004}},{"attributes":{"ID":592580,"DIS_CODE":0,"TOWNNAME":"中西區","LI":"萬昌里","LIN":"11鄰","STREET":"民權路","SECT":"一段","MAREA":" ","LANE":" ","ALLEY":" ","HOUSE_NO":"５０號之１","E_COORD97":169076.39999999999,"N_COORD97":2543380.8700000001,"ADDRESS":"民權路一段５０號之１","OBJECTID":592553},"geometry":{"x":169076.40000000037,"y":2543380.870000001}},{"attributes":{"ID":592581,"DIS_CODE":0,"TOWNNAME":"中西區","LI":"萬昌里","LIN":"11鄰","STREET":"民權路","SECT":"一段","MAREA":" ","LANE":" ","ALLEY":" ","HOUSE_NO":"５０號之２","E_COORD97":169069.67999999999,"N_COORD97":2543380.6499999999,"ADDRESS":"民權路一段５０號之２","OBJECTID":592554},"geometry":{"x":169069.68000000063,"y":2543380.6500000022}},{"attributes":{"ID":592582,"DIS_CODE":0,"TOWNNAME":"中西區","LI":"萬昌里","LIN":"11鄰","STREET":"民權路","SECT":"一段","MAREA":" ","LANE":" ","ALLEY":" ","HOUSE_NO":"５０號之３","E_COORD97":169065.73999999999,"N_COORD97":2543383.1600000001,"ADDRESS":"民權路一段５０號之３","OBJECTID":592555},"geometry":{"x":169065.74000000022,"y":2543383.160000002}},{"attributes":{"ID":592583,"DIS_CODE":0,"TOWNNAME":"中西區","LI":"萬昌里","LIN":"11鄰","STREET":"民權路","SECT":"一段","MAREA":" ","LANE":" ","ALLEY":" ","HOUSE_NO":"５０號之４","E_COORD97":169063.59,"N_COORD97":2543385.8399999999,"ADDRESS":"民權路一段５０號之４","OBJECTID":592556},"geometry":{"x":169063.59000000171,"y":2543385.8400000017}},{"attributes":{"ID":592584,"DIS_CODE":0,"TOWNNAME":"中西區","LI":"萬昌里","LIN":"11鄰","STREET":"民權路","SECT":"一段","MAREA":" ","LANE":" ","ALLEY":" ","HOUSE_NO":"５２號","E_COORD97":169069.5,"N_COORD97":2543393.3500000001,"ADDRESS":"民權路一段５２號","OBJECTID":592557},"geometry":{"x":169069.50000000186,"y":2543393.3499999996}},{"attributes":{"ID":592585,"DIS_CODE":0,"TOWNNAME":"中西區","LI":"公正里","LIN":"11鄰","STREET":"西華南街","SECT":" ","MAREA":" ","LANE":" ","ALLEY":" ","HOUSE_NO":"１２號","E_COORD97":168958.60000000001,"N_COORD97":2543769.1899999999,"ADDRESS":"西華南街１２號","OBJECTID":592558},"geometry":{"x":168958.60000000056,"y":2543769.1900000013}},{"attributes":{"ID":592586,"DIS_CODE":0,"TOWNNAME":"中西區","LI":"公正里","LIN":"11鄰","STREET":"西華南街","SECT":" ","MAREA":" ","LANE":" ","ALLEY":" ","HOUSE_NO":"１６號","E_COORD97":168953.25,"N_COORD97":2543776.0899999999,"ADDRESS":"西華南街１６號","OBJECTID":592559},"geometry":{"x":168953.25000000093,"y":2543776.0900000036}},{"attributes":{"ID":592587,"DIS_CODE":0,"TOWNNAME":"中西區","LI":"公正里","LIN":"11鄰","STREET":"衛民街","SECT":" ","MAREA":" ","LANE":" ","ALLEY":" ","HOUSE_NO":"７２號","E_COORD97":169004.04999999999,"N_COORD97":2543730.5800000001,"ADDRESS":"衛民街７２號","OBJECTID":592560},"geometry":{"x":169004.04999999981,"y":2543730.5800000001}},{"attributes":{"ID":592588,"DIS_CODE":0,"TOWNNAME":"中西區","LI":"公正里","LIN":"11鄰","STREET":"衛民街","SECT":" ","MAREA":" ","LANE":" ","ALLEY":" ","HOUSE_NO":"７６號","E_COORD97":168994.95000000001,"N_COORD97":2543728.6099999999,"ADDRESS":"衛民街７６號","OBJECTID":592561},"geometry":{"x":168994.95000000019,"y":2543728.6100000013}},{"attributes":{"ID":592589,"DIS_CODE":0,"TOWNNAME":"中西區","LI":"公正里","LIN":"11鄰","STREET":"衛民街","SECT":" ","MAREA":" ","LANE":" ","ALLEY":" ","HOUSE_NO":"７８號","E_COORD97":168990.85999999999,"N_COORD97":2543729.6600000001,"ADDRESS":"衛民街７８號","OBJECTID":592562},"geometry":{"x":168990.86000000034,"y":2543729.660000002}},{"attributes":{"ID":592590,"DIS_CODE":0,"TOWNNAME":"中西區","LI":"公正里","LIN":"11鄰","STREET":"衛民街","SECT":" ","MAREA":" ","LANE":" ","ALLEY":" ","HOUSE_NO":"８２號","E_COORD97":168994.85999999999,"N_COORD97":2543740.3300000001,"ADDRESS":"衛民街８２號","OBJECTID":592563},"geometry":{"x":168994.86000000127,"y":2543740.3300000001}},{"attributes":{"ID":592591,"DIS_CODE":0,"TOWNNAME":"中西區","LI":"公正里","LIN":"11鄰","STREET":"衛民街","SECT":" ","MAREA":" ","LANE":" ","ALLEY":" ","HOUSE_NO":"８４號","E_COORD97":168994.45999999999,"N_COORD97":2543746.7000000002,"ADDRESS":"衛民街８４號","OBJECTID":592564},"geometry":{"x":168994.45999999996,"y":2543746.6999999993}},{"attributes":{"ID":592592,"DIS_CODE":0,"TOWNNAME":"中西區","LI":"公正里","LIN":"11鄰","STREET":"衛民街","SECT":" ","MAREA":" ","LANE":" ","ALLEY":" ","HOUSE_NO":"８６號","E_COORD97":168982.14000000001,"N_COORD97":2543732.1000000001,"ADDRESS":"衛民街８６號","OBJECTID":592565},"geometry":{"x":168982.1400000006,"y":2543732.1000000015}},{"attributes":{"ID":592593,"DIS_CODE":0,"TOWNNAME":"中西區","LI":"公正里","LIN":"11鄰","STREET":"衛民街","SECT":" ","MAREA":" ","LANE":" ","ALLEY":" ","HOUSE_NO":"８８號","E_COORD97":168979.31,"N_COORD97":2543732.1899999999,"ADDRESS":"衛民街８８號","OBJECTID":592566},"geometry":{"x":168979.31000000052,"y":2543732.1900000013}},{"attributes":{"ID":592594,"DIS_CODE":0,"TOWNNAME":"中西區","LI":"公正里","LIN":"11鄰","STREET":"衛民街","SECT":" ","MAREA":" ","LANE":" ","ALLEY":" ","HOUSE_NO":"９０號","E_COORD97":168975.48000000001,"N_COORD97":2543732.46,"ADDRESS":"衛民街９０號","OBJECTID":592567},"geometry":{"x":168975.48000000138,"y":2543732.4600000009}},{"attributes":{"ID":592595,"DIS_CODE":0,"TOWNNAME":"中西區","LI":"公正里","LIN":"11鄰","STREET":"衛民街","SECT":" ","MAREA":" ","LANE":" ","ALLEY":" ","HOUSE_NO":"９２號","E_COORD97":168971.73999999999,"N_COORD97":2543733.1899999999,"ADDRESS":"衛民街９２號","OBJECTID":592568},"geometry":{"x":168971.74000000115,"y":2543733.1899999995}},{"attributes":{"ID":592596,"DIS_CODE":0,"TOWNNAME":"中西區","LI":"公正里","LIN":"11鄰","STREET":"衛民街","SECT":" ","MAREA":" ","LANE":" ","ALLEY":" ","HOUSE_NO":"９４號","E_COORD97":168965.70999999999,"N_COORD97":2543733.1000000001,"ADDRESS":"衛民街９４號","OBJECTID":592569},"geometry":{"x":168965.70999999996,"y":2543733.1000000015}},{"attributes":{"ID":592597,"DIS_CODE":0,"TOWNNAME":"中西區","LI":"公正里","LIN":"11鄰","STREET":"衛民街","SECT":" ","MAREA":" ","LANE":" ","ALLEY":" ","HOUSE_NO":"６２號","E_COORD97":169039.64999999999,"N_COORD97":2543740.04,"ADDRESS":"衛民街６２號","OBJECTID":592570},"geometry":{"x":169039.65000000037,"y":2543740.0399999991}},{"attributes":{"ID":592598,"DIS_CODE":0,"TOWNNAME":"中西區","LI":"公正里","LIN":"11鄰","STREET":"衛民街","SECT":" ","MAREA":" ","LANE":" ","ALLEY":" ","HOUSE_NO":"６４號","E_COORD97":169018.66,"N_COORD97":2543726.3500000001,"ADDRESS":"衛民街６４號","OBJECTID":592571},"geometry":{"x":169018.66000000015,"y":2543726.3499999978}},{"attributes":{"ID":592599,"DIS_CODE":0,"TOWNNAME":"中西區","LI":"公正里","LIN":"11鄰","STREET":"衛民街","SECT":" ","MAREA":" ","LANE":" ","ALLEY":" ","HOUSE_NO":"６６號","E_COORD97":169014.14000000001,"N_COORD97":2543727.27,"ADDRESS":"衛民街６６號","OBJECTID":592572},"geometry":{"x":169014.1400000006,"y":2543727.2700000014}},{"attributes":{"ID":592600,"DIS_CODE":0,"TOWNNAME":"中西區","LI":"公正里","LIN":"11鄰","STREET":"衛民街","SECT":" ","MAREA":" ","LANE":" ","ALLEY":" ","HOUSE_NO":"６８號","E_COORD97":169009.98000000001,"N_COORD97":2543727.7599999998,"ADDRESS":"衛民街６８號","OBJECTID":592573},"geometry":{"x":169009.98000000045,"y":2543727.7600000016}},{"attributes":{"ID":592601,"DIS_CODE":0,"TOWNNAME":"白河區","LI":"白河里","LIN":"11鄰","STREET":"中正路","SECT":" ","MAREA":" ","LANE":" ","ALLEY":" ","HOUSE_NO":"１８號","E_COORD97":190290.14000000001,"N_COORD97":2583095.21,"ADDRESS":"中正路１８號","OBJECTID":592574},"geometry":{"x":190290.14000000153,"y":2583095.2100000028}},{"attributes":{"ID":592602,"DIS_CODE":0,"TOWNNAME":"白河區","LI":"白河里","LIN":"11鄰","STREET":"中正路","SECT":" ","MAREA":" ","LANE":" ","ALLEY":" ","HOUSE_NO":"２２號","E_COORD97":190276.48000000001,"N_COORD97":2583097.98,"ADDRESS":"中正路２２號","OBJECTID":592575},"geometry":{"x":190276.48000000045,"y":2583097.9800000004}},{"attributes":{"ID":592603,"DIS_CODE":0,"TOWNNAME":"白河區","LI":"白河里","LIN":"11鄰","STREET":"中正路","SECT":" ","MAREA":" ","LANE":" ","ALLEY":" ","HOUSE_NO":"２之１號","E_COORD97":190331.23000000001,"N_COORD97":2583080.6400000001,"ADDRESS":"中正路２之１號","OBJECTID":592576},"geometry":{"x":190331.23000000138,"y":2583080.6400000006}},{"attributes":{"ID":592604,"DIS_CODE":0,"TOWNNAME":"白河區","LI":"白河里","LIN":"11鄰","STREET":"中正路","SECT":" ","MAREA":" ","LANE":" ","ALLEY":" ","HOUSE_NO":"２之２號","E_COORD97":190327.22,"N_COORD97":2583081.8399999999,"ADDRESS":"中正路２之２號","OBJECTID":592577},"geometry":{"x":190327.22000000067,"y":2583081.8399999999}},{"attributes":{"ID":592605,"DIS_CODE":0,"TOWNNAME":"白河區","LI":"白河里","LIN":"11鄰","STREET":"中正路","SECT":" ","MAREA":" ","LANE":" ","ALLEY":" ","HOUSE_NO":"２之３號","E_COORD97":190323.09,"N_COORD97":2583083.3999999999,"ADDRESS":"中正路２之３號","OBJECTID":592578},"geometry":{"x":190323.09000000078,"y":2583083.4000000022}},{"attributes":{"ID":592606,"DIS_CODE":0,"TOWNNAME":"白河區","LI":"白河里","LIN":"11鄰","STREET":"中正路","SECT":" ","MAREA":" ","LANE":" ","ALLEY":" ","HOUSE_NO":"２之４號","E_COORD97":190319.32999999999,"N_COORD97":2583084.3900000001,"ADDRESS":"中正路２之４號","OBJECTID":592579},"geometry":{"x":190319.33000000007,"y":2583084.3900000025}},{"attributes":{"ID":592607,"DIS_CODE":0,"TOWNNAME":"白河區","LI":"白河里","LIN":"11鄰","STREET":"中正路","SECT":" ","MAREA":" ","LANE":" ","ALLEY":" ","HOUSE_NO":"２號","E_COORD97":190337.87,"N_COORD97":2583081.7599999998,"ADDRESS":"中正路２號","OBJECTID":592580},"geometry":{"x":190337.87000000011,"y":2583081.7599999998}},{"attributes":{"ID":592608,"DIS_CODE":0,"TOWNNAME":"安南區","LI":"海西里","LIN":"11鄰","STREET":"海中街","SECT":" ","MAREA":" ","LANE":" ","ALLEY":" ","HOUSE_NO":"１５號","E_COORD97":166506.94,"N_COORD97":2548813.2200000002,"ADDRESS":"海中街１５號","OBJECTID":592581},"geometry":{"x":166506.94000000041,"y":2548813.2200000007}},{"attributes":{"ID":592609,"DIS_CODE":0,"TOWNNAME":"安南區","LI":"海西里","LIN":"11鄰","STREET":"海中街","SECT":" ","MAREA":" ","LANE":" ","ALLEY":" ","HOUSE_NO":"２１號","E_COORD97":166498.35000000001,"N_COORD97":2548824.3999999999,"ADDRESS":"海中街２１號","OBJECTID":592582},"geometry":{"x":166498.35000000149,"y":2548824.4000000022}},{"attributes":{"ID":592610,"DIS_CODE":0,"TOWNNAME":"安南區","LI":"海東里","LIN":"11鄰","STREET":"海中街","SECT":" ","MAREA":" ","LANE":" ","ALLEY":" ","HOUSE_NO":"８０號","E_COORD97":166415.51999999999,"N_COORD97":2548959.52,"ADDRESS":"海中街８０號","OBJECTID":592583},"geometry":{"x":166415.51999999955,"y":2548959.5199999996}},{"attributes":{"ID":592611,"DIS_CODE":0,"TOWNNAME":"安南區","LI":"海南里","LIN":"11鄰","STREET":"府安路","SECT":"七段","MAREA":" ","LANE":" ","ALLEY":" ","HOUSE_NO":"２３號","E_COORD97":166076.14000000001,"N_COORD97":2546001.1299999999,"ADDRESS":"府安路七段２３號","OBJECTID":592584},"geometry":{"x":166076.14000000153,"y":2546001.129999999}},{"attributes":{"ID":592612,"DIS_CODE":0,"TOWNNAME":"安南區","LI":"海南里","LIN":"11鄰","STREET":"府安路","SECT":"七段","MAREA":" ","LANE":" ","ALLEY":" ","HOUSE_NO":"３９號","E_COORD97":166019.14000000001,"N_COORD97":2545958.1699999999,"ADDRESS":"府安路七段３９號","OBJECTID":592585},"geometry":{"x":166019.1400000006,"y":2545958.1699999999}},{"attributes":{"ID":592613,"DIS_CODE":0,"TOWNNAME":"安南區","LI":"理想里","LIN":"11鄰","STREET":"海佃路","SECT":"二段","MAREA":" ","LANE":" ","ALLEY":" ","HOUSE_NO":"１２０號","E_COORD97":167014.41,"N_COORD97":2548083.6899999999,"ADDRESS":"海佃路二段１２０號","OBJECTID":592586},"geometry":{"x":167014.41000000108,"y":2548083.6899999995}},{"attributes":{"ID":592614,"DIS_CODE":0,"TOWNNAME":"安南區","LI":"頂安里","LIN":"11鄰","STREET":"北安路","SECT":"三段","MAREA":" ","LANE":" ","ALLEY":" ","HOUSE_NO":"２９４號","E_COORD97":168561.31,"N_COORD97":2549366.3399999999,"ADDRESS":"北安路三段２９４號","OBJECTID":592587},"geometry":{"x":168561.30999999959,"y":2549366.3400000017}},{"attributes":{"ID":592615,"DIS_CODE":0,"TOWNNAME":"安南區","LI":"頂安里","LIN":"11鄰","STREET":"北安路","SECT":"三段","MAREA":" ","LANE":" ","ALLEY":" ","HOUSE_NO":"２８６號","E_COORD97":168546.98000000001,"N_COORD97":2549357.23,"ADDRESS":"北安路三段２８６號","OBJECTID":592588},"geometry":{"x":168546.98000000138,"y":2549357.2300000023}},{"attributes":{"ID":592616,"DIS_CODE":0,"TOWNNAME":"安南區","LI":"頂安里","LIN":"11鄰","STREET":"北安路","SECT":"三段","MAREA":" ","LANE":" ","ALLEY":" ","HOUSE_NO":"２８４號","E_COORD97":168542.54999999999,"N_COORD97":2549356.4500000002,"ADDRESS":"北安路三段２８４號","OBJECTID":592589},"geometry":{"x":168542.54999999981,"y":2549356.4499999993}},{"attributes":{"ID":592617,"DIS_CODE":0,"TOWNNAME":"安南區","LI":"頂安里","LIN":"11鄰","STREET":"北安路","SECT":"三段","MAREA":" ","LANE":" ","ALLEY":" ","HOUSE_NO":"２７６號","E_COORD97":168532.13,"N_COORD97":2549343.1699999999,"ADDRESS":"北安路三段２７６號","OBJECTID":592590},"geometry":{"x":168532.12999999989,"y":2549343.1700000018}},{"attributes":{"ID":592618,"DIS_CODE":0,"TOWNNAME":"安南區","LI":"頂安里","LIN":"11鄰","STREET":"北安路","SECT":"三段","MAREA":" ","LANE":" ","ALLEY":" ","HOUSE_NO":"２６８號","E_COORD97":168517.79999999999,"N_COORD97":2549334.0600000001,"ADDRESS":"北安路三段２６８號","OBJECTID":592591},"geometry":{"x":168517.79999999888,"y":2549334.0600000024}},{"attributes":{"ID":592619,"DIS_CODE":0,"TOWNNAME":"安南區","LI":"新順里","LIN":"11鄰","STREET":"安和路","SECT":"三段","MAREA":" ","LANE":" ","ALLEY":" ","HOUSE_NO":"１３３號","E_COORD97":169842.37,"N_COORD97":2549676.9500000002,"ADDRESS":"安和路三段１３３號","OBJECTID":592592},"geometry":{"x":169842.37000000104,"y":2549676.9500000011}},{"attributes":{"ID":592620,"DIS_CODE":0,"TOWNNAME":"安南區","LI":"溪心里","LIN":"11鄰","STREET":"海佃路","SECT":"三段","MAREA":" ","LANE":" ","ALLEY":" ","HOUSE_NO":"７４號","E_COORD97":166263.98000000001,"N_COORD97":2549899.2799999998,"ADDRESS":"海佃路三段７４號","OBJECTID":592593},"geometry":{"x":166263.98000000045,"y":2549899.2799999993}},{"attributes":{"ID":592621,"DIS_CODE":0,"TOWNNAME":"安南區","LI":"溪心里","LIN":"11鄰","STREET":"功安四街","SECT":" ","MAREA":" ","LANE":" ","ALLEY":" ","HOUSE_NO":"３８號","E_COORD97":166280.82999999999,"N_COORD97":2550067.0699999998,"ADDRESS":"功安四街３８號","OBJECTID":592594},"geometry":{"x":166280.83000000101,"y":2550067.0700000022}},{"attributes":{"ID":592622,"DIS_CODE":0,"TOWNNAME":"安南區","LI":"溪心里","LIN":"11鄰","STREET":"功安四街","SECT":" ","MAREA":" ","LANE":" ","ALLEY":" ","HOUSE_NO":"４０號","E_COORD97":166277.76000000001,"N_COORD97":2550070.8300000001,"ADDRESS":"功安四街４０號","OBJECTID":592595},"geometry":{"x":166277.76000000071,"y":2550070.8300000019}},{"attributes":{"ID":592623,"DIS_CODE":0,"TOWNNAME":"安南區","LI":"溪心里","LIN":"11鄰","STREET":"功安四街","SECT":" ","MAREA":" ","LANE":" ","ALLEY":" ","HOUSE_NO":"４２號","E_COORD97":166275.29000000001,"N_COORD97":2550074.3799999999,"ADDRESS":"功安四街４２號","OBJECTID":592596},"geometry":{"x":166275.29000000004,"y":2550074.379999999}},{"attributes":{"ID":592624,"DIS_CODE":0,"TOWNNAME":"安南區","LI":"溪心里","LIN":"11鄰","STREET":"仁安六街","SECT":" ","MAREA":" ","LANE":" ","ALLEY":" ","HOUSE_NO":"９０號","E_COORD97":166288.34,"N_COORD97":2550078.73,"ADDRESS":"仁安六街９０號","OBJECTID":592597},"geometry":{"x":166288.33999999985,"y":2550078.7300000023}},{"attributes":{"ID":592625,"DIS_CODE":0,"TOWNNAME":"安南區","LI":"溪心里","LIN":"11鄰","STREET":"仁安六街","SECT":" ","MAREA":" ","LANE":" ","ALLEY":" ","HOUSE_NO":"９６號","E_COORD97":166298.13,"N_COORD97":2550085.7400000002,"ADDRESS":"仁安六街９６號","OBJECTID":592598},"geometry":{"x":166298.12999999989,"y":2550085.7400000021}},{"attributes":{"ID":592626,"DIS_CODE":0,"TOWNNAME":"安南區","LI":"溪頂里","LIN":"11鄰","STREET":"文安街","SECT":" ","MAREA":" ","LANE":" ","ALLEY":" ","HOUSE_NO":"２０３號","E_COORD97":168824.63,"N_COORD97":2547412.9700000002,"ADDRESS":"文安街２０３號","OBJECTID":592599},"geometry":{"x":168824.63000000082,"y":2547412.9700000025}},{"attributes":{"ID":592627,"DIS_CODE":0,"TOWNNAME":"安南區","LI":"溪頂里","LIN":"11鄰","STREET":"文安街","SECT":" ","MAREA":" ","LANE":" ","ALLEY":" ","HOUSE_NO":"１６１號","E_COORD97":169004.20999999999,"N_COORD97":2547415.7999999998,"ADDRESS":"文安街１６１號","OBJECTID":592600},"geometry":{"x":169004.21000000089,"y":2547415.8000000007}}]}