{"displayFieldName":"TOWNNAME","fieldAliases":{"ID":"ID","DIS_CODE":"DIS_CODE","TOWNNAME":"TOWNNAME","LI":"LI","LIN":"LIN","STREET":"STREET","SECT":"SECT","MAREA":"MAREA","LANE":"LANE","ALLEY":"ALLEY","HOUSE_NO":"HOUSE_NO","E_COORD97":"E_COORD97","N_COORD97":"N_COORD97","ADDRESS":"ADDRESS","OBJECTID":"OBJECTID"},"geometryType":"esriGeometryPoint","spatialReference":{"wkid":102443,"latestWkid":3826},"fields":[{"name":"ID","type":"esriFieldTypeDouble","alias":"ID"},{"name":"DIS_CODE","type":"esriFieldTypeInteger","alias":"DIS_CODE"},{"name":"TOWNNAME","type":"esriFieldTypeString","alias":"TOWNNAME","length":8},{"name":"LI","type":"esriFieldTypeString","alias":"LI","length":8},{"name":"LIN","type":"esriFieldTypeString","alias":"LIN","length":12},{"name":"STREET","type":"esriFieldTypeString","alias":"STREET","length":20},{"name":"SECT","type":"esriFieldTypeString","alias":"SECT","length":8},{"name":"MAREA","type":"esriFieldTypeString","alias":"MAREA","length":12},{"name":"LANE","type":"esriFieldTypeString","alias":"LANE","length":10},{"name":"ALLEY","type":"esriFieldTypeString","alias":"ALLEY","length":10},{"name":"HOUSE_NO","type":"esriFieldTypeString","alias":"HOUSE_NO","length":20},{"name":"E_COORD97","type":"esriFieldTypeDouble","alias":"E_COORD97"},{"name":"N_COORD97","type":"esriFieldTypeDouble","alias":"N_COORD97"},{"name":"ADDRESS","type":"esriFieldTypeString","alias":"ADDRESS","length":50},{"name":"OBJECTID","type":"esriFieldTypeOID","alias":"OBJECTID"}],"features":[{"attributes":{"ID":219202,"DIS_CODE":0,"TOWNNAME":"安定區","LI":"安定里","LIN":"13鄰","STREET":" ","SECT":" ","MAREA":"安定","LANE":" ","ALLEY":" ","HOUSE_NO":"１１２號","E_COORD97":171956.51999999999,"N_COORD97":2557770.3199999998,"ADDRESS":"安定１１２號","OBJECTID":219201},"geometry":{"x":171956.52000000048,"y":2557770.320000004}},{"attributes":{"ID":219203,"DIS_CODE":0,"TOWNNAME":"安定區","LI":"港南里","LIN":"13鄰","STREET":" ","SECT":" ","MAREA":"港口","LANE":" ","ALLEY":" ","HOUSE_NO":"１０３號之１","E_COORD97":171244.29000000001,"N_COORD97":2554429.2999999998,"ADDRESS":"港口１０３之１號","OBJECTID":219202},"geometry":{"x":171244.29000000097,"y":2554429.3000000026}},{"attributes":{"ID":219204,"DIS_CODE":0,"TOWNNAME":"安定區","LI":"新吉里","LIN":"17鄰","STREET":" ","SECT":" ","MAREA":"新吉","LANE":" ","ALLEY":" ","HOUSE_NO":"１９５號","E_COORD97":168971.42000000001,"N_COORD97":2554089.25,"ADDRESS":"新吉１９５號","OBJECTID":219203},"geometry":{"x":168971.41999999899,"y":2554089.2500000019}},{"attributes":{"ID":219205,"DIS_CODE":0,"TOWNNAME":"安定區","LI":"港南里","LIN":"17鄰","STREET":" ","SECT":" ","MAREA":"港口","LANE":" ","ALLEY":" ","HOUSE_NO":"１４０之２９號","E_COORD97":171649.26000000001,"N_COORD97":2554459.2999999998,"ADDRESS":"港口１４０號之２９","OBJECTID":219204},"geometry":{"x":171649.26000000164,"y":2554459.3000000026}},{"attributes":{"ID":219206,"DIS_CODE":0,"TOWNNAME":"安定區","LI":"南安里","LIN":"4鄰","STREET":" ","SECT":" ","MAREA":"油車","LANE":" ","ALLEY":" ","HOUSE_NO":"５１號","E_COORD97":170620.94,"N_COORD97":2555575.25,"ADDRESS":"油車５１號","OBJECTID":219205},"geometry":{"x":170620.94000000041,"y":2555575.2500000019}},{"attributes":{"ID":219207,"DIS_CODE":0,"TOWNNAME":"鹽水區","LI":"岸內里","LIN":"23鄰","STREET":"北門路","SECT":" ","MAREA":" ","LANE":"７巷","ALLEY":"７弄","HOUSE_NO":"１０號","E_COORD97":175372.78,"N_COORD97":2580487.4700000002,"ADDRESS":"北門路７巷７弄１０號","OBJECTID":219206},"geometry":{"x":175372.78000000119,"y":2580487.4700000007}},{"attributes":{"ID":219208,"DIS_CODE":0,"TOWNNAME":"鹽水區","LI":"岸內里","LIN":"23鄰","STREET":"北門路","SECT":" ","MAREA":" ","LANE":"７巷","ALLEY":"７弄","HOUSE_NO":"１１號","E_COORD97":175371.47,"N_COORD97":2580509.8900000001,"ADDRESS":"北門路７巷７弄１１號","OBJECTID":219207},"geometry":{"x":175371.46999999974,"y":2580509.8900000025}},{"attributes":{"ID":219209,"DIS_CODE":0,"TOWNNAME":"鹽水區","LI":"岸內里","LIN":"23鄰","STREET":"北門路","SECT":" ","MAREA":" ","LANE":"７巷","ALLEY":"７弄","HOUSE_NO":"１２號","E_COORD97":175377.10000000001,"N_COORD97":2580487.8100000001,"ADDRESS":"北門路７巷７弄１２號","OBJECTID":219208},"geometry":{"x":175377.09999999963,"y":2580487.8100000024}},{"attributes":{"ID":219210,"DIS_CODE":0,"TOWNNAME":"鹽水區","LI":"岸內里","LIN":"23鄰","STREET":"北門路","SECT":" ","MAREA":" ","LANE":"７巷","ALLEY":"７弄","HOUSE_NO":"１３號","E_COORD97":175375.97,"N_COORD97":2580510,"ADDRESS":"北門路７巷７弄１３號","OBJECTID":219209},"geometry":{"x":175375.97000000067,"y":2580510}},{"attributes":{"ID":219211,"DIS_CODE":0,"TOWNNAME":"鹽水區","LI":"岸內里","LIN":"23鄰","STREET":"北門路","SECT":" ","MAREA":" ","LANE":"７巷","ALLEY":"７弄","HOUSE_NO":"１４號","E_COORD97":175380.75,"N_COORD97":2580488.1400000001,"ADDRESS":"北門路７巷７弄１４號","OBJECTID":219210},"geometry":{"x":175380.75000000093,"y":2580488.1400000025}},{"attributes":{"ID":219212,"DIS_CODE":0,"TOWNNAME":"鹽水區","LI":"岸內里","LIN":"23鄰","STREET":"北門路","SECT":" ","MAREA":" ","LANE":"７巷","ALLEY":"７弄","HOUSE_NO":"１５號","E_COORD97":175379.75,"N_COORD97":2580510.3999999999,"ADDRESS":"北門路７巷７弄１５號","OBJECTID":219211},"geometry":{"x":175379.75,"y":2580510.4000000022}},{"attributes":{"ID":219213,"DIS_CODE":0,"TOWNNAME":"鹽水區","LI":"岸內里","LIN":"23鄰","STREET":"北門路","SECT":" ","MAREA":" ","LANE":"７巷","ALLEY":"７弄","HOUSE_NO":"１６號","E_COORD97":175385.54000000001,"N_COORD97":2580488.4700000002,"ADDRESS":"北門路７巷７弄１６號","OBJECTID":219212},"geometry":{"x":175385.5400000019,"y":2580488.4699999988}},{"attributes":{"ID":219214,"DIS_CODE":0,"TOWNNAME":"鹽水區","LI":"岸內里","LIN":"23鄰","STREET":"北門路","SECT":" ","MAREA":" ","LANE":"７巷","ALLEY":"７弄","HOUSE_NO":"１７號","E_COORD97":175384.57000000001,"N_COORD97":2580510.5800000001,"ADDRESS":"北門路７巷７弄１７號","OBJECTID":219213},"geometry":{"x":175384.57000000123,"y":2580510.5800000001}},{"attributes":{"ID":219215,"DIS_CODE":0,"TOWNNAME":"鹽水區","LI":"岸內里","LIN":"23鄰","STREET":"北門路","SECT":" ","MAREA":" ","LANE":"７巷","ALLEY":"７弄","HOUSE_NO":"１８號","E_COORD97":175389.76000000001,"N_COORD97":2580488.7999999998,"ADDRESS":"北門路７巷７弄１８號","OBJECTID":219214},"geometry":{"x":175389.75999999978,"y":2580488.8000000007}},{"attributes":{"ID":219216,"DIS_CODE":0,"TOWNNAME":"鹽水區","LI":"岸內里","LIN":"23鄰","STREET":"北門路","SECT":" ","MAREA":" ","LANE":"７巷","ALLEY":"７弄","HOUSE_NO":"１號","E_COORD97":175349.92000000001,"N_COORD97":2580507.5800000001,"ADDRESS":"北門路７巷７弄１號","OBJECTID":219215},"geometry":{"x":175349.91999999993,"y":2580507.5800000038}},{"attributes":{"ID":219217,"DIS_CODE":0,"TOWNNAME":"安定區","LI":"港南里","LIN":"18鄰","STREET":" ","SECT":" ","MAREA":"港口","LANE":" ","ALLEY":" ","HOUSE_NO":"２４４號之７","E_COORD97":171795.60000000001,"N_COORD97":2554665.2999999998,"ADDRESS":"港口２４４號之７","OBJECTID":219216},"geometry":{"x":171795.59999999963,"y":2554665.3000000045}},{"attributes":{"ID":219218,"DIS_CODE":0,"TOWNNAME":"安定區","LI":"港南里","LIN":"20鄰","STREET":" ","SECT":" ","MAREA":"港口","LANE":" ","ALLEY":" ","HOUSE_NO":"２０７號","E_COORD97":171406.19,"N_COORD97":2554594.25,"ADDRESS":"港口２０７號","OBJECTID":219217},"geometry":{"x":171406.19000000227,"y":2554594.2500000019}},{"attributes":{"ID":219219,"DIS_CODE":0,"TOWNNAME":"安定區","LI":"蘇林里","LIN":"20鄰","STREET":" ","SECT":" ","MAREA":"蘇厝","LANE":" ","ALLEY":" ","HOUSE_NO":"２３３之６號","E_COORD97":173343.01999999999,"N_COORD97":2558794.2999999998,"ADDRESS":"蘇厝２３３之６號","OBJECTID":219218},"geometry":{"x":173343.02000000048,"y":2558794.3000000007}},{"attributes":{"ID":219220,"DIS_CODE":0,"TOWNNAME":"安定區","LI":"蘇厝里","LIN":"13鄰","STREET":" ","SECT":" ","MAREA":"蘇厝","LANE":" ","ALLEY":" ","HOUSE_NO":"３９９號","E_COORD97":173022.12,"N_COORD97":2558818.25,"ADDRESS":"蘇厝３９９號","OBJECTID":219219},"geometry":{"x":173022.12000000104,"y":2558818.2500000037}},{"attributes":{"ID":219221,"DIS_CODE":0,"TOWNNAME":"安定區","LI":"新吉里","LIN":"17鄰","STREET":" ","SECT":" ","MAREA":"新吉","LANE":" ","ALLEY":" ","HOUSE_NO":"１５３號","E_COORD97":169052.42000000001,"N_COORD97":2554097.25,"ADDRESS":"新吉１５３號","OBJECTID":219220},"geometry":{"x":169052.41999999993,"y":2554097.25}},{"attributes":{"ID":219222,"DIS_CODE":0,"TOWNNAME":"安定區","LI":"港南里","LIN":"17鄰","STREET":" ","SECT":" ","MAREA":"港口","LANE":" ","ALLEY":" ","HOUSE_NO":"１４０之１３號","E_COORD97":171571.23999999999,"N_COORD97":2554495.2999999998,"ADDRESS":"港口１４０之１３號","OBJECTID":219221},"geometry":{"x":171571.24000000022,"y":2554495.3000000007}},{"attributes":{"ID":219223,"DIS_CODE":0,"TOWNNAME":"安定區","LI":"港南里","LIN":"4鄰","STREET":" ","SECT":" ","MAREA":"港口","LANE":" ","ALLEY":" ","HOUSE_NO":"２５之５５號","E_COORD97":171582.59,"N_COORD97":2554012.2999999998,"ADDRESS":"港口２５之５５號","OBJECTID":219222},"geometry":{"x":171582.59000000171,"y":2554012.3000000026}},{"attributes":{"ID":219224,"DIS_CODE":0,"TOWNNAME":"安定區","LI":"港南里","LIN":"4鄰","STREET":" ","SECT":" ","MAREA":"港口","LANE":" ","ALLEY":" ","HOUSE_NO":"２６號之４","E_COORD97":171578.10000000001,"N_COORD97":2554051.2999999998,"ADDRESS":"港口２６之４號","OBJECTID":219223},"geometry":{"x":171578.09999999963,"y":2554051.3000000007}},{"attributes":{"ID":219225,"DIS_CODE":0,"TOWNNAME":"安定區","LI":"港南里","LIN":"18鄰","STREET":" ","SECT":" ","MAREA":"港口","LANE":" ","ALLEY":" ","HOUSE_NO":"２４０號之８","E_COORD97":171883.07000000001,"N_COORD97":2554236.2999999998,"ADDRESS":"港口２４０號之８","OBJECTID":219224},"geometry":{"x":171883.0700000003,"y":2554236.3000000026}},{"attributes":{"ID":219226,"DIS_CODE":0,"TOWNNAME":"安定區","LI":"港南里","LIN":"20鄰","STREET":" ","SECT":" ","MAREA":"港口","LANE":" ","ALLEY":" ","HOUSE_NO":"２０４號之８","E_COORD97":171375.17000000001,"N_COORD97":2554605.2999999998,"ADDRESS":"港口２０４號之８","OBJECTID":219225},"geometry":{"x":171375.16999999899,"y":2554605.3000000026}},{"attributes":{"ID":219227,"DIS_CODE":0,"TOWNNAME":"鹽水區","LI":"岸內里","LIN":"23鄰","STREET":"北門路","SECT":" ","MAREA":" ","LANE":"７巷","ALLEY":"７弄","HOUSE_NO":"２０號","E_COORD97":175393.98000000001,"N_COORD97":2580489.1299999999,"ADDRESS":"北門路７巷７弄２０號","OBJECTID":219226},"geometry":{"x":175393.98000000045,"y":2580489.1300000027}},{"attributes":{"ID":219228,"DIS_CODE":0,"TOWNNAME":"安定區","LI":"港南里","LIN":"13鄰","STREET":" ","SECT":" ","MAREA":"港口","LANE":" ","ALLEY":" ","HOUSE_NO":"１０１之１０號","E_COORD97":171191.78208100001,"N_COORD97":2554385.6844000001,"ADDRESS":"港口１０１之１０號","OBJECTID":219227},"geometry":{"x":171191.78208099958,"y":2554385.6843990013}},{"attributes":{"ID":219229,"DIS_CODE":0,"TOWNNAME":"鹽水區","LI":"岸內里","LIN":"23鄰","STREET":"北門路","SECT":" ","MAREA":" ","LANE":"７巷","ALLEY":"７弄","HOUSE_NO":"２１號","E_COORD97":175393.25,"N_COORD97":2580511.6000000001,"ADDRESS":"北門路７巷７弄２１號","OBJECTID":219228},"geometry":{"x":175393.25000000093,"y":2580511.6000000015}},{"attributes":{"ID":219230,"DIS_CODE":0,"TOWNNAME":"鹽水區","LI":"岸內里","LIN":"23鄰","STREET":"北門路","SECT":" ","MAREA":" ","LANE":"７巷","ALLEY":"７弄","HOUSE_NO":"２２號","E_COORD97":175398.20000000001,"N_COORD97":2580489.4500000002,"ADDRESS":"北門路７巷７弄２２號","OBJECTID":219229},"geometry":{"x":175398.20000000112,"y":2580489.4499999993}},{"attributes":{"ID":219231,"DIS_CODE":0,"TOWNNAME":"安定區","LI":"新吉里","LIN":"17鄰","STREET":" ","SECT":" ","MAREA":"新吉","LANE":" ","ALLEY":" ","HOUSE_NO":"１８１號","E_COORD97":168999.01999999999,"N_COORD97":2554092.25,"ADDRESS":"新吉１８１號","OBJECTID":219230},"geometry":{"x":168999.01999999955,"y":2554092.2500000037}},{"attributes":{"ID":219232,"DIS_CODE":0,"TOWNNAME":"鹽水區","LI":"岸內里","LIN":"23鄰","STREET":"北門路","SECT":" ","MAREA":" ","LANE":"７巷","ALLEY":"７弄","HOUSE_NO":"２３號","E_COORD97":175397.16,"N_COORD97":2580511.29,"ADDRESS":"北門路７巷７弄２３號","OBJECTID":219231},"geometry":{"x":175397.16000000108,"y":2580511.2899999991}},{"attributes":{"ID":219233,"DIS_CODE":0,"TOWNNAME":"鹽水區","LI":"岸內里","LIN":"23鄰","STREET":"北門路","SECT":" ","MAREA":" ","LANE":"７巷","ALLEY":"７弄","HOUSE_NO":"２４號","E_COORD97":175402.42000000001,"N_COORD97":2580489.7799999998,"ADDRESS":"北門路７巷７弄２４號","OBJECTID":219232},"geometry":{"x":175402.41999999993,"y":2580489.7800000012}},{"attributes":{"ID":219234,"DIS_CODE":0,"TOWNNAME":"鹽水區","LI":"岸內里","LIN":"23鄰","STREET":"北門路","SECT":" ","MAREA":" ","LANE":"７巷","ALLEY":"７弄","HOUSE_NO":"３號","E_COORD97":175354.22,"N_COORD97":2580507.9199999999,"ADDRESS":"北門路７巷７弄３號","OBJECTID":219233},"geometry":{"x":175354.21999999974,"y":2580507.9199999999}},{"attributes":{"ID":219235,"DIS_CODE":0,"TOWNNAME":"安定區","LI":"港尾里","LIN":"4鄰","STREET":" ","SECT":" ","MAREA":"港子尾","LANE":" ","ALLEY":" ","HOUSE_NO":"１６之１１號","E_COORD97":171624.14000000001,"N_COORD97":2556113.2999999998,"ADDRESS":"港子尾１６之１１號","OBJECTID":219234},"geometry":{"x":171624.13999999966,"y":2556113.3000000045}},{"attributes":{"ID":219236,"DIS_CODE":0,"TOWNNAME":"鹽水區","LI":"岸內里","LIN":"23鄰","STREET":"北門路","SECT":" ","MAREA":" ","LANE":"７巷","ALLEY":"７弄","HOUSE_NO":"５號","E_COORD97":175358.51000000001,"N_COORD97":2580508.2599999998,"ADDRESS":"北門路７巷７弄５號","OBJECTID":219235},"geometry":{"x":175358.51000000071,"y":2580508.2599999998}},{"attributes":{"ID":219237,"DIS_CODE":0,"TOWNNAME":"鹽水區","LI":"岸內里","LIN":"23鄰","STREET":"北門路","SECT":" ","MAREA":" ","LANE":"７巷","ALLEY":"７弄","HOUSE_NO":"７號","E_COORD97":175362.81,"N_COORD97":2580508.5899999999,"ADDRESS":"北門路７巷７弄７號","OBJECTID":219236},"geometry":{"x":175362.81000000145,"y":2580508.5900000017}},{"attributes":{"ID":219238,"DIS_CODE":0,"TOWNNAME":"鹽水區","LI":"岸內里","LIN":"23鄰","STREET":"北門路","SECT":" ","MAREA":" ","LANE":"７巷","ALLEY":"７弄","HOUSE_NO":"８號","E_COORD97":175368.66,"N_COORD97":2580487.1600000001,"ADDRESS":"北門路７巷７弄８號","OBJECTID":219237},"geometry":{"x":175368.66000000015,"y":2580487.160000002}},{"attributes":{"ID":219239,"DIS_CODE":0,"TOWNNAME":"安定區","LI":"南安里","LIN":"4鄰","STREET":" ","SECT":" ","MAREA":"油車","LANE":" ","ALLEY":" ","HOUSE_NO":"４４號","E_COORD97":170629.14000000001,"N_COORD97":2555559.25,"ADDRESS":"油車４４號","OBJECTID":219238},"geometry":{"x":170629.13999999966,"y":2555559.25}},{"attributes":{"ID":219240,"DIS_CODE":0,"TOWNNAME":"安定區","LI":"新吉里","LIN":"13鄰","STREET":" ","SECT":" ","MAREA":"新吉","LANE":" ","ALLEY":" ","HOUSE_NO":"１１２之１號","E_COORD97":169448.62,"N_COORD97":2554030.2999999998,"ADDRESS":"新吉１１２之１號","OBJECTID":219239},"geometry":{"x":169448.62000000104,"y":2554030.3000000007}},{"attributes":{"ID":219241,"DIS_CODE":0,"TOWNNAME":"安定區","LI":"港南里","LIN":"13鄰","STREET":" ","SECT":" ","MAREA":"港口","LANE":" ","ALLEY":" ","HOUSE_NO":"９７號之２","E_COORD97":171246.70999999999,"N_COORD97":2554363.2999999998,"ADDRESS":"港口９７號之２","OBJECTID":219240},"geometry":{"x":171246.71000000089,"y":2554363.3000000007}},{"attributes":{"ID":219242,"DIS_CODE":0,"TOWNNAME":"安定區","LI":"安定里","LIN":"14鄰","STREET":" ","SECT":" ","MAREA":"安定","LANE":" ","ALLEY":" ","HOUSE_NO":"１２１號","E_COORD97":171897.92000000001,"N_COORD97":2557709.3199999998,"ADDRESS":"安定１２１號","OBJECTID":219241},"geometry":{"x":171897.92000000086,"y":2557709.320000004}},{"attributes":{"ID":219243,"DIS_CODE":0,"TOWNNAME":"安定區","LI":"港尾里","LIN":"4鄰","STREET":" ","SECT":" ","MAREA":"港子尾","LANE":" ","ALLEY":" ","HOUSE_NO":"１６之９號","E_COORD97":171781.59,"N_COORD97":2556185.2999999998,"ADDRESS":"港子尾１６之９號","OBJECTID":219242},"geometry":{"x":171781.59000000078,"y":2556185.3000000026}},{"attributes":{"ID":219244,"DIS_CODE":0,"TOWNNAME":"安定區","LI":"南安里","LIN":"4鄰","STREET":" ","SECT":" ","MAREA":"油車","LANE":" ","ALLEY":" ","HOUSE_NO":"３９之２號","E_COORD97":170679.770238,"N_COORD97":2555510.70218,"ADDRESS":"油車３９之２號","OBJECTID":219243},"geometry":{"x":170679.7702380009,"y":2555510.7021760009}},{"attributes":{"ID":219245,"DIS_CODE":0,"TOWNNAME":"安定區","LI":"港南里","LIN":"4鄰","STREET":" ","SECT":" ","MAREA":"港口","LANE":" ","ALLEY":" ","HOUSE_NO":"２５之３６號","E_COORD97":171544.69,"N_COORD97":2554050.2999999998,"ADDRESS":"港口２５之３６號","OBJECTID":219244},"geometry":{"x":171544.69000000041,"y":2554050.3000000007}},{"attributes":{"ID":219246,"DIS_CODE":0,"TOWNNAME":"安定區","LI":"港南里","LIN":"18鄰","STREET":" ","SECT":" ","MAREA":"港口","LANE":" ","ALLEY":" ","HOUSE_NO":"２４４之２５號","E_COORD97":171776.64000000001,"N_COORD97":2554501.2999999998,"ADDRESS":"港口２４４之２５號","OBJECTID":219245},"geometry":{"x":171776.63999999966,"y":2554501.3000000007}},{"attributes":{"ID":219247,"DIS_CODE":0,"TOWNNAME":"安定區","LI":"港南里","LIN":"20鄰","STREET":" ","SECT":" ","MAREA":"港口","LANE":" ","ALLEY":" ","HOUSE_NO":"２０６號","E_COORD97":171391.59,"N_COORD97":2554617.25,"ADDRESS":"港口２０６號","OBJECTID":219246},"geometry":{"x":171391.59000000078,"y":2554617.2499999981}},{"attributes":{"ID":219248,"DIS_CODE":0,"TOWNNAME":"鹽水區","LI":"岸內里","LIN":"23鄰","STREET":"北門路","SECT":" ","MAREA":" ","LANE":"７巷","ALLEY":"７弄","HOUSE_NO":"９號","E_COORD97":175367.48000000001,"N_COORD97":2580509.6499999999,"ADDRESS":"北門路７巷７弄９號","OBJECTID":219247},"geometry":{"x":175367.47999999952,"y":2580509.6500000004}},{"attributes":{"ID":219249,"DIS_CODE":0,"TOWNNAME":"鹽水區","LI":"岸內里","LIN":"23鄰","STREET":"北門路","SECT":" ","MAREA":" ","LANE":"７巷","ALLEY":"８弄","HOUSE_NO":"１０號","E_COORD97":175380.75,"N_COORD97":2580537,"ADDRESS":"北門路７巷８弄１０號","OBJECTID":219248},"geometry":{"x":175380.75000000093,"y":2580537}},{"attributes":{"ID":219250,"DIS_CODE":0,"TOWNNAME":"鹽水區","LI":"岸內里","LIN":"23鄰","STREET":"北門路","SECT":" ","MAREA":" ","LANE":"７巷","ALLEY":"８弄","HOUSE_NO":"１１號","E_COORD97":175384.48000000001,"N_COORD97":2580537.3599999999,"ADDRESS":"北門路７巷８弄１１號","OBJECTID":219249},"geometry":{"x":175384.47999999952,"y":2580537.3599999994}},{"attributes":{"ID":219251,"DIS_CODE":0,"TOWNNAME":"鹽水區","LI":"岸內里","LIN":"23鄰","STREET":"北門路","SECT":" ","MAREA":" ","LANE":"７巷","ALLEY":"８弄","HOUSE_NO":"１２號","E_COORD97":175388.82000000001,"N_COORD97":2580537.7200000002,"ADDRESS":"北門路７巷８弄１２號","OBJECTID":219250},"geometry":{"x":175388.82000000216,"y":2580537.7200000044}},{"attributes":{"ID":219252,"DIS_CODE":0,"TOWNNAME":"鹽水區","LI":"岸內里","LIN":"23鄰","STREET":"北門路","SECT":" ","MAREA":" ","LANE":"７巷","ALLEY":"８弄","HOUSE_NO":"１３號","E_COORD97":175393.17000000001,"N_COORD97":2580538.0899999999,"ADDRESS":"北門路７巷８弄１３號","OBJECTID":219251},"geometry":{"x":175393.17000000086,"y":2580538.0900000036}},{"attributes":{"ID":219253,"DIS_CODE":0,"TOWNNAME":"鹽水區","LI":"岸內里","LIN":"23鄰","STREET":"北門路","SECT":" ","MAREA":" ","LANE":"７巷","ALLEY":"８弄","HOUSE_NO":"１號","E_COORD97":175345.39999999999,"N_COORD97":2580534.1099999999,"ADDRESS":"北門路７巷８弄１號","OBJECTID":219252},"geometry":{"x":175345.40000000037,"y":2580534.1100000031}},{"attributes":{"ID":219254,"DIS_CODE":0,"TOWNNAME":"鹽水區","LI":"岸內里","LIN":"23鄰","STREET":"北門路","SECT":" ","MAREA":" ","LANE":"７巷","ALLEY":"８弄","HOUSE_NO":"２號","E_COORD97":175349.73999999999,"N_COORD97":2580534.4700000002,"ADDRESS":"北門路７巷８弄２號","OBJECTID":219253},"geometry":{"x":175349.74000000022,"y":2580534.4700000007}},{"attributes":{"ID":219255,"DIS_CODE":0,"TOWNNAME":"安定區","LI":"蘇林里","LIN":"20鄰","STREET":" ","SECT":" ","MAREA":"蘇厝","LANE":" ","ALLEY":" ","HOUSE_NO":"２３３之３號","E_COORD97":173342.51999999999,"N_COORD97":2558805.2999999998,"ADDRESS":"蘇厝２３３之３號","OBJECTID":219254},"geometry":{"x":173342.52000000048,"y":2558805.3000000045}},{"attributes":{"ID":219256,"DIS_CODE":0,"TOWNNAME":"鹽水區","LI":"岸內里","LIN":"23鄰","STREET":"北門路","SECT":" ","MAREA":" ","LANE":"７巷","ALLEY":"８弄","HOUSE_NO":"３號","E_COORD97":175354.07999999999,"N_COORD97":2580534.8300000001,"ADDRESS":"北門路７巷８弄３號","OBJECTID":219255},"geometry":{"x":175354.08000000007,"y":2580534.8300000001}},{"attributes":{"ID":219257,"DIS_CODE":0,"TOWNNAME":"鹽水區","LI":"岸內里","LIN":"23鄰","STREET":"北門路","SECT":" ","MAREA":" ","LANE":"７巷","ALLEY":"８弄","HOUSE_NO":"５號","E_COORD97":175358.42999999999,"N_COORD97":2580535.1899999999,"ADDRESS":"北門路７巷８弄５號","OBJECTID":219256},"geometry":{"x":175358.4299999997,"y":2580535.1899999995}},{"attributes":{"ID":219258,"DIS_CODE":0,"TOWNNAME":"鹽水區","LI":"岸內里","LIN":"23鄰","STREET":"北門路","SECT":" ","MAREA":" ","LANE":"７巷","ALLEY":"８弄","HOUSE_NO":"６號","E_COORD97":175362.76999999999,"N_COORD97":2580535.5499999998,"ADDRESS":"北門路７巷８弄６號","OBJECTID":219257},"geometry":{"x":175362.76999999955,"y":2580535.5500000045}},{"attributes":{"ID":219259,"DIS_CODE":0,"TOWNNAME":"鹽水區","LI":"岸內里","LIN":"23鄰","STREET":"北門路","SECT":" ","MAREA":" ","LANE":"７巷","ALLEY":"８弄","HOUSE_NO":"７號","E_COORD97":175367.10999999999,"N_COORD97":2580535.9100000001,"ADDRESS":"北門路７巷８弄７號","OBJECTID":219258},"geometry":{"x":175367.11000000127,"y":2580535.9100000039}},{"attributes":{"ID":219260,"DIS_CODE":0,"TOWNNAME":"鹽水區","LI":"岸內里","LIN":"23鄰","STREET":"北門路","SECT":" ","MAREA":" ","LANE":"７巷","ALLEY":"８弄","HOUSE_NO":"８號","E_COORD97":175371.45000000001,"N_COORD97":2580536.2799999998,"ADDRESS":"北門路７巷８弄８號","OBJECTID":219259},"geometry":{"x":175371.45000000112,"y":2580536.2800000031}},{"attributes":{"ID":219261,"DIS_CODE":0,"TOWNNAME":"歸仁區","LI":"新厝里","LIN":"28鄰","STREET":"中正五街","SECT":" ","MAREA":" ","LANE":" ","ALLEY":" ","HOUSE_NO":"１６號","E_COORD97":176997.67000000001,"N_COORD97":2540048.79,"ADDRESS":"中正五街１６號","OBJECTID":219260},"geometry":{"x":176997.66999999993,"y":2540048.790000001}},{"attributes":{"ID":219262,"DIS_CODE":0,"TOWNNAME":"歸仁區","LI":"歸仁里","LIN":"28鄰","STREET":"中山路","SECT":"一段","MAREA":" ","LANE":" ","ALLEY":" ","HOUSE_NO":"１７２號","E_COORD97":179016.51000000001,"N_COORD97":2540517.25,"ADDRESS":"中山路一段１７２號","OBJECTID":219261},"geometry":{"x":179016.51000000164,"y":2540517.2500000019}},{"attributes":{"ID":219263,"DIS_CODE":0,"TOWNNAME":"永康區","LI":"東灣里","LIN":"28鄰","STREET":"民族路","SECT":" ","MAREA":" ","LANE":" ","ALLEY":" ","HOUSE_NO":"７號","E_COORD97":175532.64999999999,"N_COORD97":2544549.29,"ADDRESS":"民族路７號","OBJECTID":219262},"geometry":{"x":175532.6500000013,"y":2544549.2899999991}},{"attributes":{"ID":219264,"DIS_CODE":0,"TOWNNAME":"歸仁區","LI":"歸仁里","LIN":"28鄰","STREET":"中山路","SECT":"一段","MAREA":" ","LANE":" ","ALLEY":" ","HOUSE_NO":"２８２號","E_COORD97":178575.41,"N_COORD97":2540702.25,"ADDRESS":"中山路一段２８２號","OBJECTID":219263},"geometry":{"x":178575.41000000108,"y":2540702.25}},{"attributes":{"ID":219265,"DIS_CODE":0,"TOWNNAME":"歸仁區","LI":"歸仁里","LIN":"28鄰","STREET":"中山路","SECT":"一段","MAREA":" ","LANE":" ","ALLEY":" ","HOUSE_NO":"８號","E_COORD97":179624.28,"N_COORD97":2540321.5699999998,"ADDRESS":"中山路一段８號","OBJECTID":219264},"geometry":{"x":179624.28000000119,"y":2540321.5699999984}},{"attributes":{"ID":219266,"DIS_CODE":0,"TOWNNAME":"歸仁區","LI":"歸仁里","LIN":"28鄰","STREET":"中山路","SECT":"一段","MAREA":" ","LANE":" ","ALLEY":" ","HOUSE_NO":"３８號","E_COORD97":179563.13,"N_COORD97":2540339.5699999998,"ADDRESS":"中山路一段３８號","OBJECTID":219265},"geometry":{"x":179563.12999999989,"y":2540339.5700000022}},{"attributes":{"ID":219267,"DIS_CODE":0,"TOWNNAME":"鹽水區","LI":"岸內里","LIN":"23鄰","STREET":"北門路","SECT":" ","MAREA":" ","LANE":"７巷","ALLEY":"８弄","HOUSE_NO":"９號","E_COORD97":175375.79999999999,"N_COORD97":2580536.6400000001,"ADDRESS":"北門路７巷８弄９號","OBJECTID":219266},"geometry":{"x":175375.79999999981,"y":2580536.6400000006}},{"attributes":{"ID":219268,"DIS_CODE":0,"TOWNNAME":"關廟區","LI":"東勢里","LIN":"23鄰","STREET":"東安街","SECT":" ","MAREA":" ","LANE":"２２１巷","ALLEY":"１５弄","HOUSE_NO":"６號","E_COORD97":181565.92000000001,"N_COORD97":2539423.3199999998,"ADDRESS":"東安街２２１巷１５弄６號","OBJECTID":219267},"geometry":{"x":181565.92000000086,"y":2539423.3200000022}},{"attributes":{"ID":219269,"DIS_CODE":0,"TOWNNAME":"歸仁區","LI":"後市里","LIN":"28鄰","STREET":"民族北街","SECT":" ","MAREA":" ","LANE":" ","ALLEY":" ","HOUSE_NO":"１９號","E_COORD97":177423.73000000001,"N_COORD97":2540890.75,"ADDRESS":"民族北街１９號","OBJECTID":219268},"geometry":{"x":177423.73000000045,"y":2540890.7500000019}},{"attributes":{"ID":219270,"DIS_CODE":0,"TOWNNAME":"北區","LI":"成德里","LIN":"23鄰","STREET":"北成路","SECT":" ","MAREA":" ","LANE":"４０２巷","ALLEY":"６１弄","HOUSE_NO":"１０號","E_COORD97":168204.48999999999,"N_COORD97":2546760.9399999999,"ADDRESS":"北成路４０２巷６１弄１０號","OBJECTID":219269},"geometry":{"x":168204.49000000022,"y":2546760.9400000013}},{"attributes":{"ID":219271,"DIS_CODE":0,"TOWNNAME":"北區","LI":"成德里","LIN":"23鄰","STREET":"北成路","SECT":" ","MAREA":" ","LANE":"４０２巷","ALLEY":"６１弄","HOUSE_NO":"１１號","E_COORD97":168197.94,"N_COORD97":2546744.3999999999,"ADDRESS":"北成路４０２巷６１弄１１號","OBJECTID":219270},"geometry":{"x":168197.94000000134,"y":2546744.4000000041}},{"attributes":{"ID":219272,"DIS_CODE":0,"TOWNNAME":"安定區","LI":"新吉里","LIN":"13鄰","STREET":" ","SECT":" ","MAREA":"新吉","LANE":" ","ALLEY":" ","HOUSE_NO":"１１２號","E_COORD97":169458.42000000001,"N_COORD97":2554037.25,"ADDRESS":"新吉１１２號","OBJECTID":219271},"geometry":{"x":169458.42000000086,"y":2554037.25}},{"attributes":{"ID":219273,"DIS_CODE":0,"TOWNNAME":"安定區","LI":"港南里","LIN":"13鄰","STREET":" ","SECT":" ","MAREA":"港口","LANE":" ","ALLEY":" ","HOUSE_NO":"１０１之９號","E_COORD97":171162.19,"N_COORD97":2554361.2999999998,"ADDRESS":"港口１０１之９號","OBJECTID":219272},"geometry":{"x":171162.19000000227,"y":2554361.3000000026}},{"attributes":{"ID":219274,"DIS_CODE":0,"TOWNNAME":"新營區","LI":"大宏里","LIN":"28鄰","STREET":"開元路","SECT":" ","MAREA":" ","LANE":" ","ALLEY":" ","HOUSE_NO":"４９號","E_COORD97":180866.82000000001,"N_COORD97":2578689.3500000001,"ADDRESS":"開元路４９號","OBJECTID":219273},"geometry":{"x":180866.82000000123,"y":2578689.3500000015}},{"attributes":{"ID":219275,"DIS_CODE":0,"TOWNNAME":"北區","LI":"成德里","LIN":"23鄰","STREET":"北成路","SECT":" ","MAREA":" ","LANE":"４０２巷","ALLEY":"６１弄","HOUSE_NO":"１２號","E_COORD97":168199.32000000001,"N_COORD97":2546759.5600000001,"ADDRESS":"北成路４０２巷６１弄１２號","OBJECTID":219274},"geometry":{"x":168199.3200000003,"y":2546759.5600000005}},{"attributes":{"ID":219276,"DIS_CODE":0,"TOWNNAME":"北區","LI":"成德里","LIN":"23鄰","STREET":"北成路","SECT":" ","MAREA":" ","LANE":"４０２巷","ALLEY":"６１弄","HOUSE_NO":"１３號","E_COORD97":168193.28,"N_COORD97":2546743.3700000001,"ADDRESS":"北成路４０２巷６１弄１３號","OBJECTID":219275},"geometry":{"x":168193.28000000119,"y":2546743.3700000029}},{"attributes":{"ID":219277,"DIS_CODE":0,"TOWNNAME":"北區","LI":"成德里","LIN":"23鄰","STREET":"北成路","SECT":" ","MAREA":" ","LANE":"４０２巷","ALLEY":"６１弄","HOUSE_NO":"１４號","E_COORD97":168194.32000000001,"N_COORD97":2546757.8399999999,"ADDRESS":"北成路４０２巷６１弄１４號","OBJECTID":219276},"geometry":{"x":168194.3200000003,"y":2546757.8400000036}},{"attributes":{"ID":219278,"DIS_CODE":0,"TOWNNAME":"北區","LI":"成德里","LIN":"23鄰","STREET":"北成路","SECT":" ","MAREA":" ","LANE":"４０２巷","ALLEY":"６１弄","HOUSE_NO":"１５號","E_COORD97":168187.76999999999,"N_COORD97":2546742.3399999999,"ADDRESS":"北成路４０２巷６１弄１５號","OBJECTID":219277},"geometry":{"x":168187.77000000048,"y":2546742.3400000017}},{"attributes":{"ID":219279,"DIS_CODE":0,"TOWNNAME":"新營區","LI":"三仙里","LIN":"28鄰","STREET":"育德街","SECT":" ","MAREA":" ","LANE":" ","ALLEY":" ","HOUSE_NO":"８４號","E_COORD97":179598.98999999999,"N_COORD97":2579226.8999999999,"ADDRESS":"育德街８４號","OBJECTID":219278},"geometry":{"x":179598.99000000115,"y":2579226.9000000004}},{"attributes":{"ID":219280,"DIS_CODE":0,"TOWNNAME":"新營區","LI":"三仙里","LIN":"28鄰","STREET":"育德街","SECT":" ","MAREA":" ","LANE":" ","ALLEY":" ","HOUSE_NO":"９２號","E_COORD97":179598.95999999999,"N_COORD97":2579242.4199999999,"ADDRESS":"育德街９２號","OBJECTID":219279},"geometry":{"x":179598.96000000089,"y":2579242.4199999999}},{"attributes":{"ID":219281,"DIS_CODE":0,"TOWNNAME":"安定區","LI":"港南里","LIN":"18鄰","STREET":" ","SECT":" ","MAREA":"港口","LANE":" ","ALLEY":" ","HOUSE_NO":"２４４號之５","E_COORD97":171784.17999999999,"N_COORD97":2554667.2999999998,"ADDRESS":"港口２４４號之５","OBJECTID":219280},"geometry":{"x":171784.18000000063,"y":2554667.3000000007}},{"attributes":{"ID":219282,"DIS_CODE":0,"TOWNNAME":"新營區","LI":"三仙里","LIN":"28鄰","STREET":"育德街","SECT":" ","MAREA":" ","LANE":" ","ALLEY":" ","HOUSE_NO":"１００號","E_COORD97":179600.32000000001,"N_COORD97":2579257.9199999999,"ADDRESS":"育德街１００號","OBJECTID":219281},"geometry":{"x":179600.32000000123,"y":2579257.9200000018}},{"attributes":{"ID":219283,"DIS_CODE":0,"TOWNNAME":"安定區","LI":"港南里","LIN":"18鄰","STREET":" ","SECT":" ","MAREA":"港口","LANE":" ","ALLEY":" ","HOUSE_NO":"２４２號之１１","E_COORD97":171661.38,"N_COORD97":2554609.2999999998,"ADDRESS":"港口２４２號之１１","OBJECTID":219282},"geometry":{"x":171661.37999999989,"y":2554609.3000000026}},{"attributes":{"ID":219284,"DIS_CODE":0,"TOWNNAME":"安定區","LI":"港南里","LIN":"18鄰","STREET":" ","SECT":" ","MAREA":"港口","LANE":" ","ALLEY":" ","HOUSE_NO":"２４４之２６號","E_COORD97":171675.23999999999,"N_COORD97":2554636.2999999998,"ADDRESS":"港口２４４之２６號","OBJECTID":219283},"geometry":{"x":171675.24000000209,"y":2554636.3000000026}},{"attributes":{"ID":219285,"DIS_CODE":0,"TOWNNAME":"安定區","LI":"蘇林里","LIN":"18鄰","STREET":" ","SECT":" ","MAREA":"蘇厝","LANE":" ","ALLEY":" ","HOUSE_NO":"２０１之７號","E_COORD97":173385.92000000001,"N_COORD97":2558880.2999999998,"ADDRESS":"蘇厝２０１之７號","OBJECTID":219284},"geometry":{"x":173385.92000000179,"y":2558880.3000000026}},{"attributes":{"ID":219286,"DIS_CODE":0,"TOWNNAME":"安定區","LI":"港南里","LIN":"20鄰","STREET":" ","SECT":" ","MAREA":"港口","LANE":" ","ALLEY":" ","HOUSE_NO":"２０４號之１４","E_COORD97":171388.89999999999,"N_COORD97":2554580.2999999998,"ADDRESS":"港口２０４號之１４","OBJECTID":219285},"geometry":{"x":171388.90000000037,"y":2554580.3000000007}},{"attributes":{"ID":219287,"DIS_CODE":0,"TOWNNAME":"安定區","LI":"蘇林里","LIN":"20鄰","STREET":" ","SECT":" ","MAREA":"蘇厝","LANE":" ","ALLEY":" ","HOUSE_NO":"２３３之２號","E_COORD97":173364.92000000001,"N_COORD97":2558785.2999999998,"ADDRESS":"蘇厝２３３之２號","OBJECTID":219286},"geometry":{"x":173364.91999999993,"y":2558785.3000000026}},{"attributes":{"ID":219288,"DIS_CODE":0,"TOWNNAME":"安定區","LI":"港南里","LIN":"13鄰","STREET":" ","SECT":" ","MAREA":"港口","LANE":" ","ALLEY":" ","HOUSE_NO":"１０４號之１","E_COORD97":171266.89000000001,"N_COORD97":2554449.2999999998,"ADDRESS":"港口１０４之１號","OBJECTID":219287},"geometry":{"x":171266.8900000006,"y":2554449.3000000026}},{"attributes":{"ID":219289,"DIS_CODE":0,"TOWNNAME":"安定區","LI":"新吉里","LIN":"7鄰","STREET":" ","SECT":" ","MAREA":"新吉","LANE":" ","ALLEY":" ","HOUSE_NO":"５６之３５號","E_COORD97":168672.82000000001,"N_COORD97":2553712.2999999998,"ADDRESS":"新吉５６之３５號","OBJECTID":219288},"geometry":{"x":168672.82000000123,"y":2553712.3000000007}},{"attributes":{"ID":219290,"DIS_CODE":0,"TOWNNAME":"安定區","LI":"新吉里","LIN":"7鄰","STREET":" ","SECT":" ","MAREA":"新吉","LANE":" ","ALLEY":" ","HOUSE_NO":"１２６之３號","E_COORD97":169063.42000000001,"N_COORD97":2553871.2999999998,"ADDRESS":"新吉１２６之３號","OBJECTID":219289},"geometry":{"x":169063.42000000086,"y":2553871.3000000007}},{"attributes":{"ID":219291,"DIS_CODE":0,"TOWNNAME":"歸仁區","LI":"許厝里","LIN":"28鄰","STREET":"大仁街","SECT":" ","MAREA":" ","LANE":" ","ALLEY":" ","HOUSE_NO":"１２號","E_COORD97":177911.54999999999,"N_COORD97":2540782.04,"ADDRESS":"大仁街１２號","OBJECTID":219290},"geometry":{"x":177911.55000000075,"y":2540782.0400000028}},{"attributes":{"ID":219292,"DIS_CODE":0,"TOWNNAME":"新營區","LI":"新南里","LIN":"28鄰","STREET":"明清街","SECT":" ","MAREA":" ","LANE":" ","ALLEY":" ","HOUSE_NO":"２２號","E_COORD97":178219.66,"N_COORD97":2578684.23,"ADDRESS":"明清街２２號","OBJECTID":219291},"geometry":{"x":178219.66000000108,"y":2578684.2300000023}},{"attributes":{"ID":219293,"DIS_CODE":0,"TOWNNAME":"新營區","LI":"新南里","LIN":"28鄰","STREET":"明清街","SECT":" ","MAREA":" ","LANE":" ","ALLEY":" ","HOUSE_NO":"２６號","E_COORD97":178222.73999999999,"N_COORD97":2578687.54,"ADDRESS":"明清街２６號","OBJECTID":219292},"geometry":{"x":178222.74000000115,"y":2578687.540000001}},{"attributes":{"ID":219294,"DIS_CODE":0,"TOWNNAME":"北區","LI":"成德里","LIN":"23鄰","STREET":"北成路","SECT":" ","MAREA":" ","LANE":"４０２巷","ALLEY":"６１弄","HOUSE_NO":"１６號","E_COORD97":168189.48999999999,"N_COORD97":2546756.46,"ADDRESS":"北成路４０２巷６１弄１６號","OBJECTID":219293},"geometry":{"x":168189.49000000022,"y":2546756.4600000009}},{"attributes":{"ID":219295,"DIS_CODE":0,"TOWNNAME":"北區","LI":"成德里","LIN":"23鄰","STREET":"北成路","SECT":" ","MAREA":" ","LANE":"４０２巷","ALLEY":"６１弄","HOUSE_NO":"１８號","E_COORD97":168184.48999999999,"N_COORD97":2546755.6000000001,"ADDRESS":"北成路４０２巷６１弄１８號","OBJECTID":219294},"geometry":{"x":168184.49000000022,"y":2546755.5999999978}},{"attributes":{"ID":219296,"DIS_CODE":0,"TOWNNAME":"北區","LI":"成德里","LIN":"23鄰","STREET":"北成路","SECT":" ","MAREA":" ","LANE":"４０２巷","ALLEY":"６１弄","HOUSE_NO":"１號","E_COORD97":168223.45000000001,"N_COORD97":2546750.9500000002,"ADDRESS":"北成路４０２巷６１弄１號","OBJECTID":219295},"geometry":{"x":168223.45000000019,"y":2546750.9500000011}},{"attributes":{"ID":219297,"DIS_CODE":0,"TOWNNAME":"北區","LI":"成德里","LIN":"23鄰","STREET":"北成路","SECT":" ","MAREA":" ","LANE":"４０２巷","ALLEY":"６１弄","HOUSE_NO":"２號","E_COORD97":168219.48999999999,"N_COORD97":2546765.7599999998,"ADDRESS":"北成路４０２巷６１弄２號","OBJECTID":219296},"geometry":{"x":168219.49000000115,"y":2546765.7600000016}},{"attributes":{"ID":219298,"DIS_CODE":0,"TOWNNAME":"北區","LI":"成德里","LIN":"23鄰","STREET":"北成路","SECT":" ","MAREA":" ","LANE":"４０２巷","ALLEY":"６１弄","HOUSE_NO":"３號","E_COORD97":168217.59,"N_COORD97":2546749.3999999999,"ADDRESS":"北成路４０２巷６１弄３號","OBJECTID":219297},"geometry":{"x":168217.59000000171,"y":2546749.4000000022}},{"attributes":{"ID":219299,"DIS_CODE":0,"TOWNNAME":"北區","LI":"成德里","LIN":"23鄰","STREET":"北成路","SECT":" ","MAREA":" ","LANE":"４０２巷","ALLEY":"６１弄","HOUSE_NO":"５號","E_COORD97":168212.59,"N_COORD97":2546748.54,"ADDRESS":"北成路４０２巷６１弄５號","OBJECTID":219298},"geometry":{"x":168212.59000000171,"y":2546748.5399999991}},{"attributes":{"ID":219300,"DIS_CODE":0,"TOWNNAME":"北區","LI":"成德里","LIN":"23鄰","STREET":"北成路","SECT":" ","MAREA":" ","LANE":"４０２巷","ALLEY":"６１弄","HOUSE_NO":"６號","E_COORD97":168213.79999999999,"N_COORD97":2546764.21,"ADDRESS":"北成路４０２巷６１弄６號","OBJECTID":219299},"geometry":{"x":168213.79999999981,"y":2546764.2100000028}},{"attributes":{"ID":219301,"DIS_CODE":0,"TOWNNAME":"北區","LI":"成德里","LIN":"23鄰","STREET":"北成路","SECT":" ","MAREA":" ","LANE":"４０２巷","ALLEY":"６１弄","HOUSE_NO":"７號","E_COORD97":168207.94,"N_COORD97":2546747.1600000001,"ADDRESS":"北成路４０２巷６１弄７號","OBJECTID":219300},"geometry":{"x":168207.94000000134,"y":2546747.160000002}},{"attributes":{"ID":219302,"DIS_CODE":0,"TOWNNAME":"北區","LI":"成德里","LIN":"23鄰","STREET":"北成路","SECT":" ","MAREA":" ","LANE":"４０２巷","ALLEY":"６１弄","HOUSE_NO":"８號","E_COORD97":168209.32000000001,"N_COORD97":2546762.3100000001,"ADDRESS":"北成路４０２巷６１弄８號","OBJECTID":219301},"geometry":{"x":168209.3200000003,"y":2546762.3100000042}},{"attributes":{"ID":219303,"DIS_CODE":0,"TOWNNAME":"北區","LI":"成德里","LIN":"23鄰","STREET":"北成路","SECT":" ","MAREA":" ","LANE":"４０２巷","ALLEY":"６１弄","HOUSE_NO":"９號","E_COORD97":168202.76000000001,"N_COORD97":2546746.1299999999,"ADDRESS":"北成路４０２巷６１弄９號","OBJECTID":219302},"geometry":{"x":168202.76000000164,"y":2546746.1300000008}},{"attributes":{"ID":219304,"DIS_CODE":0,"TOWNNAME":"北區","LI":"成德里","LIN":"23鄰","STREET":"育德二路","SECT":" ","MAREA":" ","LANE":"８１０巷","ALLEY":"２７弄","HOUSE_NO":"１０號","E_COORD97":168196.73999999999,"N_COORD97":2546800.4399999999,"ADDRESS":"育德二路８１０巷２７弄１０號","OBJECTID":219303},"geometry":{"x":168196.74000000209,"y":2546800.4399999995}},{"attributes":{"ID":219305,"DIS_CODE":0,"TOWNNAME":"北區","LI":"成德里","LIN":"23鄰","STREET":"育德二路","SECT":" ","MAREA":" ","LANE":"８１０巷","ALLEY":"２７弄","HOUSE_NO":"１１號","E_COORD97":168202.10000000001,"N_COORD97":2546801.2200000002,"ADDRESS":"育德二路８１０巷２７弄１１號","OBJECTID":219304},"geometry":{"x":168202.10000000149,"y":2546801.2200000025}},{"attributes":{"ID":219306,"DIS_CODE":0,"TOWNNAME":"北區","LI":"成德里","LIN":"23鄰","STREET":"育德二路","SECT":" ","MAREA":" ","LANE":"８１０巷","ALLEY":"２７弄","HOUSE_NO":"１２號","E_COORD97":168206.67999999999,"N_COORD97":2546802.6600000001,"ADDRESS":"育德二路８１０巷２７弄１２號","OBJECTID":219305},"geometry":{"x":168206.68000000156,"y":2546802.6600000001}},{"attributes":{"ID":219307,"DIS_CODE":0,"TOWNNAME":"北區","LI":"成德里","LIN":"23鄰","STREET":"育德二路","SECT":" ","MAREA":" ","LANE":"８１０巷","ALLEY":"２７弄","HOUSE_NO":"１３號","E_COORD97":168211.28,"N_COORD97":2546804.4700000002,"ADDRESS":"育德二路８１０巷２７弄１３號","OBJECTID":219306},"geometry":{"x":168211.28000000026,"y":2546804.4700000007}},{"attributes":{"ID":219308,"DIS_CODE":0,"TOWNNAME":"北區","LI":"成德里","LIN":"23鄰","STREET":"育德二路","SECT":" ","MAREA":" ","LANE":"８１０巷","ALLEY":"２７弄","HOUSE_NO":"１４號","E_COORD97":168217.17000000001,"N_COORD97":2546806.0299999998,"ADDRESS":"育德二路８１０巷２７弄１４號","OBJECTID":219307},"geometry":{"x":168217.17000000179,"y":2546806.0299999993}},{"attributes":{"ID":219309,"DIS_CODE":0,"TOWNNAME":"安定區","LI":"新吉里","LIN":"7鄰","STREET":" ","SECT":" ","MAREA":"新吉","LANE":" ","ALLEY":" ","HOUSE_NO":"５９之３１號","E_COORD97":169013.32000000001,"N_COORD97":2553983.2999999998,"ADDRESS":"新吉５９之３１號","OBJECTID":219308},"geometry":{"x":169013.32000000216,"y":2553983.3000000007}},{"attributes":{"ID":219310,"DIS_CODE":0,"TOWNNAME":"安定區","LI":"新吉里","LIN":"7鄰","STREET":" ","SECT":" ","MAREA":"新吉","LANE":" ","ALLEY":" ","HOUSE_NO":"５６之１５號","E_COORD97":168663.22,"N_COORD97":2553827.2999999998,"ADDRESS":"新吉５６之１５號","OBJECTID":219309},"geometry":{"x":168663.22000000067,"y":2553827.3000000007}},{"attributes":{"ID":219311,"DIS_CODE":0,"TOWNNAME":"北區","LI":"成德里","LIN":"23鄰","STREET":"育德二路","SECT":" ","MAREA":" ","LANE":"８１０巷","ALLEY":"２７弄","HOUSE_NO":"１５號","E_COORD97":168222.39999999999,"N_COORD97":2546807.8599999999,"ADDRESS":"育德二路８１０巷２７弄１５號","OBJECTID":219310},"geometry":{"x":168222.40000000037,"y":2546807.8599999975}},{"attributes":{"ID":219312,"DIS_CODE":0,"TOWNNAME":"北區","LI":"成德里","LIN":"23鄰","STREET":"育德二路","SECT":" ","MAREA":" ","LANE":"８１０巷","ALLEY":"２７弄","HOUSE_NO":"１６號","E_COORD97":168227.76999999999,"N_COORD97":2546808.9100000001,"ADDRESS":"育德二路８１０巷２７弄１６號","OBJECTID":219311},"geometry":{"x":168227.76999999955,"y":2546808.910000002}},{"attributes":{"ID":219313,"DIS_CODE":0,"TOWNNAME":"北區","LI":"成德里","LIN":"23鄰","STREET":"育德二路","SECT":" ","MAREA":" ","LANE":"８１０巷","ALLEY":"２７弄","HOUSE_NO":"１７號","E_COORD97":168233.92000000001,"N_COORD97":2546810.2200000002,"ADDRESS":"育德二路８１０巷２７弄１７號","OBJECTID":219312},"geometry":{"x":168233.91999999993,"y":2546810.2200000044}},{"attributes":{"ID":219314,"DIS_CODE":0,"TOWNNAME":"北區","LI":"成德里","LIN":"23鄰","STREET":"育德二路","SECT":" ","MAREA":" ","LANE":"８１０巷","ALLEY":"２７弄","HOUSE_NO":"１８號","E_COORD97":168238.28,"N_COORD97":2546795.7200000002,"ADDRESS":"育德二路８１０巷２７弄１８號","OBJECTID":219313},"geometry":{"x":168238.28000000026,"y":2546795.7200000007}},{"attributes":{"ID":219315,"DIS_CODE":0,"TOWNNAME":"北區","LI":"成德里","LIN":"23鄰","STREET":"育德二路","SECT":" ","MAREA":" ","LANE":"８１０巷","ALLEY":"２７弄","HOUSE_NO":"１９號","E_COORD97":168233.10999999999,"N_COORD97":2546794.3399999999,"ADDRESS":"育德二路８１０巷２７弄１９號","OBJECTID":219314},"geometry":{"x":168233.11000000034,"y":2546794.3399999999}},{"attributes":{"ID":219316,"DIS_CODE":0,"TOWNNAME":"北區","LI":"成德里","LIN":"23鄰","STREET":"育德二路","SECT":" ","MAREA":" ","LANE":"８１０巷","ALLEY":"２７弄","HOUSE_NO":"１號","E_COORD97":168215.87,"N_COORD97":2546789.52,"ADDRESS":"育德二路８１０巷２７弄１號","OBJECTID":219315},"geometry":{"x":168215.86999999918,"y":2546789.5199999996}},{"attributes":{"ID":219317,"DIS_CODE":0,"TOWNNAME":"新營區","LI":"新南里","LIN":"28鄰","STREET":"隋唐街","SECT":" ","MAREA":" ","LANE":" ","ALLEY":" ","HOUSE_NO":"２３６號","E_COORD97":178326.91,"N_COORD97":2578608.4100000001,"ADDRESS":"隋唐街２３６號","OBJECTID":219316},"geometry":{"x":178326.91000000015,"y":2578608.410000002}},{"attributes":{"ID":219318,"DIS_CODE":0,"TOWNNAME":"安定區","LI":"管寮里","LIN":"15鄰","STREET":" ","SECT":" ","MAREA":"管寮","LANE":" ","ALLEY":" ","HOUSE_NO":"１４２號","E_COORD97":169854.89000000001,"N_COORD97":2556262.25,"ADDRESS":"管寮１４２號","OBJECTID":219317},"geometry":{"x":169854.8900000006,"y":2556262.2500000019}},{"attributes":{"ID":219319,"DIS_CODE":0,"TOWNNAME":"安定區","LI":"港南里","LIN":"15鄰","STREET":" ","SECT":" ","MAREA":"港口","LANE":" ","ALLEY":" ","HOUSE_NO":"１２８之１號","E_COORD97":171437.29000000001,"N_COORD97":2554384.2999999998,"ADDRESS":"港口１２８之１號","OBJECTID":219318},"geometry":{"x":171437.2900000019,"y":2554384.3000000026}},{"attributes":{"ID":219320,"DIS_CODE":0,"TOWNNAME":"安定區","LI":"南安里","LIN":"4鄰","STREET":" ","SECT":" ","MAREA":"油車","LANE":" ","ALLEY":" ","HOUSE_NO":"３９之３號","E_COORD97":170677.493277,"N_COORD97":2555514.9884199998,"ADDRESS":"油車３９之３號","OBJECTID":219319},"geometry":{"x":170677.49327700026,"y":2555514.9884240013}},{"attributes":{"ID":219321,"DIS_CODE":0,"TOWNNAME":"安定區","LI":"港南里","LIN":"4鄰","STREET":" ","SECT":" ","MAREA":"港口","LANE":" ","ALLEY":" ","HOUSE_NO":"２５之２７號","E_COORD97":171511.48999999999,"N_COORD97":2554032.2999999998,"ADDRESS":"港口２５之２７號","OBJECTID":219320},"geometry":{"x":171511.49000000115,"y":2554032.3000000026}},{"attributes":{"ID":219322,"DIS_CODE":0,"TOWNNAME":"中西區","LI":"大涼里","LIN":"28鄰","STREET":"永華一街","SECT":" ","MAREA":" ","LANE":" ","ALLEY":" ","HOUSE_NO":"１３９號","E_COORD97":166881.78,"N_COORD97":2543552.2599999998,"ADDRESS":"永華一街１３９號","OBJECTID":219321},"geometry":{"x":166881.78000000119,"y":2543552.2600000016}},{"attributes":{"ID":219323,"DIS_CODE":0,"TOWNNAME":"中西區","LI":"大涼里","LIN":"28鄰","STREET":"永華一街","SECT":" ","MAREA":" ","LANE":" ","ALLEY":" ","HOUSE_NO":"１５５號","E_COORD97":166892.09,"N_COORD97":2543579.27,"ADDRESS":"永華一街１５５號","OBJECTID":219322},"geometry":{"x":166892.09000000171,"y":2543579.2700000014}},{"attributes":{"ID":219324,"DIS_CODE":0,"TOWNNAME":"北區","LI":"成德里","LIN":"23鄰","STREET":"育德二路","SECT":" ","MAREA":" ","LANE":"８１０巷","ALLEY":"２７弄","HOUSE_NO":"２０號","E_COORD97":168227.59,"N_COORD97":2546793.8300000001,"ADDRESS":"育德二路８１０巷２７弄２０號","OBJECTID":219323},"geometry":{"x":168227.58999999985,"y":2546793.8300000001}},{"attributes":{"ID":219325,"DIS_CODE":0,"TOWNNAME":"中西區","LI":"大涼里","LIN":"28鄰","STREET":"永華一街","SECT":" ","MAREA":" ","LANE":" ","ALLEY":" ","HOUSE_NO":"１５７號","E_COORD97":166892.37,"N_COORD97":2543585.6699999999,"ADDRESS":"永華一街１５７號","OBJECTID":219324},"geometry":{"x":166892.37000000104,"y":2543585.6700000037}},{"attributes":{"ID":219326,"DIS_CODE":0,"TOWNNAME":"中西區","LI":"大涼里","LIN":"28鄰","STREET":"永華一街","SECT":" ","MAREA":" ","LANE":" ","ALLEY":" ","HOUSE_NO":"１５９號","E_COORD97":166893.48000000001,"N_COORD97":2543590.6800000002,"ADDRESS":"永華一街１５９號","OBJECTID":219325},"geometry":{"x":166893.48000000231,"y":2543590.6799999997}},{"attributes":{"ID":219327,"DIS_CODE":0,"TOWNNAME":"中西區","LI":"大涼里","LIN":"28鄰","STREET":"永華一街","SECT":" ","MAREA":" ","LANE":" ","ALLEY":" ","HOUSE_NO":"１６１號","E_COORD97":166894.04000000001,"N_COORD97":2543595.1400000001,"ADDRESS":"永華一街１６１號","OBJECTID":219326},"geometry":{"x":166894.04000000004,"y":2543595.1400000006}},{"attributes":{"ID":219328,"DIS_CODE":0,"TOWNNAME":"安定區","LI":"港南里","LIN":"4鄰","STREET":" ","SECT":" ","MAREA":"港口","LANE":" ","ALLEY":" ","HOUSE_NO":"２５之２８號","E_COORD97":171515.19,"N_COORD97":2554034.2999999998,"ADDRESS":"港口２５之２８號","OBJECTID":219327},"geometry":{"x":171515.19000000134,"y":2554034.3000000007}},{"attributes":{"ID":219329,"DIS_CODE":0,"TOWNNAME":"中西區","LI":"大涼里","LIN":"28鄰","STREET":"永華一街","SECT":" ","MAREA":" ","LANE":" ","ALLEY":" ","HOUSE_NO":"１６３號","E_COORD97":166894.88,"N_COORD97":2543600.4300000002,"ADDRESS":"永華一街１６３號","OBJECTID":219328},"geometry":{"x":166894.87999999989,"y":2543600.4299999978}},{"attributes":{"ID":219330,"DIS_CODE":0,"TOWNNAME":"北區","LI":"成德里","LIN":"23鄰","STREET":"育德二路","SECT":" ","MAREA":" ","LANE":"８１０巷","ALLEY":"２７弄","HOUSE_NO":"２號","E_COORD97":168210.35000000001,"N_COORD97":2546788.6600000001,"ADDRESS":"育德二路８１０巷２７弄２號","OBJECTID":219329},"geometry":{"x":168210.34999999963,"y":2546788.6600000001}},{"attributes":{"ID":219331,"DIS_CODE":0,"TOWNNAME":"北區","LI":"成德里","LIN":"23鄰","STREET":"育德二路","SECT":" ","MAREA":" ","LANE":"８１０巷","ALLEY":"２７弄","HOUSE_NO":"３號","E_COORD97":168205.51999999999,"N_COORD97":2546786.9399999999,"ADDRESS":"育德二路８１０巷２７弄３號","OBJECTID":219330},"geometry":{"x":168205.51999999955,"y":2546786.9399999995}},{"attributes":{"ID":219332,"DIS_CODE":0,"TOWNNAME":"東區","LI":"大智里","LIN":"28鄰","STREET":"德東街","SECT":" ","MAREA":" ","LANE":" ","ALLEY":" ","HOUSE_NO":"２３７號","E_COORD97":171401.73000000001,"N_COORD97":2540264.6499999999,"ADDRESS":"德東街２３７號","OBJECTID":219331},"geometry":{"x":171401.73000000045,"y":2540264.6500000022}},{"attributes":{"ID":219333,"DIS_CODE":0,"TOWNNAME":"北區","LI":"成德里","LIN":"23鄰","STREET":"育德二路","SECT":" ","MAREA":" ","LANE":"８１０巷","ALLEY":"２７弄","HOUSE_NO":"５號","E_COORD97":168200.51999999999,"N_COORD97":2546786.25,"ADDRESS":"育德二路８１０巷２７弄５號","OBJECTID":219332},"geometry":{"x":168200.51999999955,"y":2546786.2500000019}},{"attributes":{"ID":219334,"DIS_CODE":0,"TOWNNAME":"東區","LI":"大智里","LIN":"28鄰","STREET":"德東街","SECT":" ","MAREA":" ","LANE":" ","ALLEY":" ","HOUSE_NO":"２３９號","E_COORD97":171407.29000000001,"N_COORD97":2540265.8799999999,"ADDRESS":"德東街２３９號","OBJECTID":219333},"geometry":{"x":171407.29000000097,"y":2540265.879999999}},{"attributes":{"ID":219335,"DIS_CODE":0,"TOWNNAME":"北區","LI":"成德里","LIN":"23鄰","STREET":"育德二路","SECT":" ","MAREA":" ","LANE":"８１０巷","ALLEY":"２７弄","HOUSE_NO":"６號","E_COORD97":168195.70000000001,"N_COORD97":2546784.8700000001,"ADDRESS":"育德二路８１０巷２７弄６號","OBJECTID":219334},"geometry":{"x":168195.70000000112,"y":2546784.870000001}},{"attributes":{"ID":219336,"DIS_CODE":0,"TOWNNAME":"北區","LI":"成德里","LIN":"23鄰","STREET":"育德二路","SECT":" ","MAREA":" ","LANE":"８１０巷","ALLEY":"２７弄","HOUSE_NO":"７號","E_COORD97":168190.17999999999,"N_COORD97":2546784.1800000002,"ADDRESS":"育德二路８１０巷２７弄７號","OBJECTID":219335},"geometry":{"x":168190.18000000063,"y":2546784.1799999997}},{"attributes":{"ID":219337,"DIS_CODE":0,"TOWNNAME":"北區","LI":"成德里","LIN":"23鄰","STREET":"育德二路","SECT":" ","MAREA":" ","LANE":"８１０巷","ALLEY":"２７弄","HOUSE_NO":"８號","E_COORD97":168185.89000000001,"N_COORD97":2546799.1099999999,"ADDRESS":"育德二路８１０巷２７弄８號","OBJECTID":219336},"geometry":{"x":168185.88999999966,"y":2546799.1099999994}},{"attributes":{"ID":219338,"DIS_CODE":0,"TOWNNAME":"北區","LI":"成德里","LIN":"23鄰","STREET":"育德二路","SECT":" ","MAREA":" ","LANE":"８１０巷","ALLEY":"２７弄","HOUSE_NO":"９號","E_COORD97":168191.78,"N_COORD97":2546799.3700000001,"ADDRESS":"育德二路８１０巷２７弄９號","OBJECTID":219337},"geometry":{"x":168191.78000000119,"y":2546799.3699999992}},{"attributes":{"ID":219339,"DIS_CODE":0,"TOWNNAME":"安定區","LI":"管寮里","LIN":"4鄰","STREET":" ","SECT":" ","MAREA":"管寮","LANE":" ","ALLEY":" ","HOUSE_NO":"３５之１號","E_COORD97":170122.84,"N_COORD97":2556418.2999999998,"ADDRESS":"管寮３５之１號","OBJECTID":219338},"geometry":{"x":170122.83999999985,"y":2556418.3000000045}},{"attributes":{"ID":219340,"DIS_CODE":0,"TOWNNAME":"安平區","LI":"平安里","LIN":"23鄰","STREET":"安平路","SECT":" ","MAREA":" ","LANE":"４４６巷","ALLEY":"２５弄","HOUSE_NO":"４３號","E_COORD97":165200.14000000001,"N_COORD97":2544426.3799999999,"ADDRESS":"安平路４４６巷２５弄４３號","OBJECTID":219339},"geometry":{"x":165200.1400000006,"y":2544426.379999999}},{"attributes":{"ID":219341,"DIS_CODE":0,"TOWNNAME":"安平區","LI":"平安里","LIN":"23鄰","STREET":"安平路","SECT":" ","MAREA":" ","LANE":"４４６巷","ALLEY":"２５弄","HOUSE_NO":"１８號","E_COORD97":165230.20999999999,"N_COORD97":2544436.5800000001,"ADDRESS":"安平路４４６巷２５弄１８號","OBJECTID":219340},"geometry":{"x":165230.21000000089,"y":2544436.5800000001}},{"attributes":{"ID":219342,"DIS_CODE":0,"TOWNNAME":"安平區","LI":"平安里","LIN":"23鄰","STREET":"安平路","SECT":" ","MAREA":" ","LANE":"４４６巷","ALLEY":"２５弄","HOUSE_NO":"２２號","E_COORD97":165220.23000000001,"N_COORD97":2544438.0099999998,"ADDRESS":"安平路４４６巷２５弄２２號","OBJECTID":219341},"geometry":{"x":165220.23000000231,"y":2544438.0100000016}},{"attributes":{"ID":219343,"DIS_CODE":0,"TOWNNAME":"安平區","LI":"平安里","LIN":"23鄰","STREET":"安平路","SECT":" ","MAREA":" ","LANE":"４４６巷","ALLEY":"２５弄","HOUSE_NO":"５１號之１","E_COORD97":165180.20999999999,"N_COORD97":2544426.1299999999,"ADDRESS":"安平路４４６巷２５弄５１號之１","OBJECTID":219342},"geometry":{"x":165180.20999999996,"y":2544426.1300000008}},{"attributes":{"ID":219344,"DIS_CODE":0,"TOWNNAME":"永康區","LI":"埔園里","LIN":"23鄰","STREET":"中正路","SECT":" ","MAREA":" ","LANE":"１４８巷","ALLEY":"１９弄","HOUSE_NO":"５號","E_COORD97":173522.07000000001,"N_COORD97":2547989.23,"ADDRESS":"中正路１４８巷１９弄５號","OBJECTID":219343},"geometry":{"x":173522.0700000003,"y":2547989.2300000004}},{"attributes":{"ID":219345,"DIS_CODE":0,"TOWNNAME":"永康區","LI":"永康里","LIN":"28鄰","STREET":"永康街","SECT":" ","MAREA":" ","LANE":"３１０巷","ALLEY":" ","HOUSE_NO":"４２號","E_COORD97":174216.32999999999,"N_COORD97":2546941.2200000002,"ADDRESS":"永康街３１０巷４２號","OBJECTID":219344},"geometry":{"x":174216.33000000101,"y":2546941.2200000007}},{"attributes":{"ID":219346,"DIS_CODE":0,"TOWNNAME":"安定區","LI":"港南里","LIN":"4鄰","STREET":" ","SECT":" ","MAREA":"港口","LANE":" ","ALLEY":" ","HOUSE_NO":"２７之２號","E_COORD97":171559.84,"N_COORD97":2553979.2999999998,"ADDRESS":"港口２７之２號","OBJECTID":219345},"geometry":{"x":171559.83999999985,"y":2553979.3000000007}},{"attributes":{"ID":219347,"DIS_CODE":0,"TOWNNAME":"安定區","LI":"港尾里","LIN":"18鄰","STREET":" ","SECT":" ","MAREA":"港子尾","LANE":" ","ALLEY":" ","HOUSE_NO":"１１７號","E_COORD97":171449.84,"N_COORD97":2556210.2599999998,"ADDRESS":"港子尾１１７號","OBJECTID":219346},"geometry":{"x":171449.83999999985,"y":2556210.2599999998}},{"attributes":{"ID":219348,"DIS_CODE":0,"TOWNNAME":"安定區","LI":"港口里","LIN":"20鄰","STREET":" ","SECT":" ","MAREA":"港口","LANE":" ","ALLEY":" ","HOUSE_NO":"３９９之７６號","E_COORD97":171555.94,"N_COORD97":2554964.2999999998,"ADDRESS":"港口３９９之７６號","OBJECTID":219347},"geometry":{"x":171555.94000000134,"y":2554964.3000000026}},{"attributes":{"ID":219349,"DIS_CODE":0,"TOWNNAME":"安定區","LI":"蘇林里","LIN":"20鄰","STREET":" ","SECT":" ","MAREA":"蘇厝","LANE":" ","ALLEY":" ","HOUSE_NO":"２２８之１３號","E_COORD97":173380.26999999999,"N_COORD97":2558834.2999999998,"ADDRESS":"蘇厝２２８之１３號","OBJECTID":219348},"geometry":{"x":173380.27000000048,"y":2558834.3000000007}},{"attributes":{"ID":219350,"DIS_CODE":0,"TOWNNAME":"安定區","LI":"新吉里","LIN":"13鄰","STREET":" ","SECT":" ","MAREA":"新吉","LANE":" ","ALLEY":" ","HOUSE_NO":"１０７號","E_COORD97":169399.92000000001,"N_COORD97":2554033.25,"ADDRESS":"新吉１０７號","OBJECTID":219349},"geometry":{"x":169399.91999999993,"y":2554033.25}},{"attributes":{"ID":219351,"DIS_CODE":0,"TOWNNAME":"安定區","LI":"港南里","LIN":"13鄰","STREET":" ","SECT":" ","MAREA":"港口","LANE":" ","ALLEY":" ","HOUSE_NO":"１０１號","E_COORD97":171208.59,"N_COORD97":2554405.25,"ADDRESS":"港口１０１號","OBJECTID":219350},"geometry":{"x":171208.59000000078,"y":2554405.2500000019}},{"attributes":{"ID":219352,"DIS_CODE":0,"TOWNNAME":"安定區","LI":"港南里","LIN":"13鄰","STREET":" ","SECT":" ","MAREA":"港口","LANE":" ","ALLEY":" ","HOUSE_NO":"１０１之５號","E_COORD97":171205.09,"N_COORD97":2554398.2999999998,"ADDRESS":"港口１０１之５號","OBJECTID":219351},"geometry":{"x":171205.09000000078,"y":2554398.3000000026}},{"attributes":{"ID":219353,"DIS_CODE":0,"TOWNNAME":"安平區","LI":"平安里","LIN":"23鄰","STREET":"安平路","SECT":" ","MAREA":" ","LANE":"４４６巷","ALLEY":"２７弄","HOUSE_NO":"２１號","E_COORD97":165238.14000000001,"N_COORD97":2544456.98,"ADDRESS":"安平路４４６巷２７弄２１號","OBJECTID":219352},"geometry":{"x":165238.13999999966,"y":2544456.9800000023}},{"attributes":{"ID":219354,"DIS_CODE":0,"TOWNNAME":"西港區","LI":"慶安里","LIN":"28鄰","STREET":"新興街","SECT":" ","MAREA":" ","LANE":" ","ALLEY":" ","HOUSE_NO":"１１之１６號","E_COORD97":168108.60999999999,"N_COORD97":2557701.25,"ADDRESS":"新興街１１之１６號","OBJECTID":219353},"geometry":{"x":168108.61000000127,"y":2557701.25}},{"attributes":{"ID":219355,"DIS_CODE":0,"TOWNNAME":"西港區","LI":"慶安里","LIN":"28鄰","STREET":"新興街","SECT":" ","MAREA":" ","LANE":" ","ALLEY":" ","HOUSE_NO":"１１號","E_COORD97":168212.39999999999,"N_COORD97":2557735.0099999998,"ADDRESS":"新興街１１號","OBJECTID":219354},"geometry":{"x":168212.40000000037,"y":2557735.0100000016}},{"attributes":{"ID":219356,"DIS_CODE":0,"TOWNNAME":"東區","LI":"後甲里","LIN":"28鄰","STREET":"裕永一街","SECT":" ","MAREA":" ","LANE":" ","ALLEY":" ","HOUSE_NO":"２６６號","E_COORD97":172742.35999999999,"N_COORD97":2543463.04,"ADDRESS":"裕永一街２６６號","OBJECTID":219355},"geometry":{"x":172742.3599999994,"y":2543463.0399999991}},{"attributes":{"ID":219357,"DIS_CODE":0,"TOWNNAME":"仁德區","LI":"仁愛里","LIN":"28鄰","STREET":"機場路","SECT":" ","MAREA":" ","LANE":" ","ALLEY":" ","HOUSE_NO":"１２３０號","E_COORD97":169719.26999999999,"N_COORD97":2539158.2999999998,"ADDRESS":"機場路１２３０號","OBJECTID":219356},"geometry":{"x":169719.26999999955,"y":2539158.3000000026}},{"attributes":{"ID":219358,"DIS_CODE":0,"TOWNNAME":"東區","LI":"後甲里","LIN":"28鄰","STREET":"裕永一街","SECT":" ","MAREA":" ","LANE":" ","ALLEY":" ","HOUSE_NO":"２２６號","E_COORD97":172696.89000000001,"N_COORD97":2543466,"ADDRESS":"裕永一街２２６號","OBJECTID":219357},"geometry":{"x":172696.88999999966,"y":2543466.0000000019}},{"attributes":{"ID":219359,"DIS_CODE":0,"TOWNNAME":"東區","LI":"泉南里","LIN":"28鄰","STREET":"長榮路","SECT":"一段","MAREA":" ","LANE":" ","ALLEY":" ","HOUSE_NO":"１０１號地下一層","E_COORD97":169707.29000000001,"N_COORD97":2542614.4199999999,"ADDRESS":"長榮路一段１０１號地下一層","OBJECTID":219358},"geometry":{"x":169707.29000000097,"y":2542614.4200000037}},{"attributes":{"ID":219360,"DIS_CODE":0,"TOWNNAME":"安平區","LI":"平安里","LIN":"23鄰","STREET":"安平路","SECT":" ","MAREA":" ","LANE":"４４６巷","ALLEY":"２７弄","HOUSE_NO":"２３號","E_COORD97":165226.89999999999,"N_COORD97":2544459.79,"ADDRESS":"安平路４４６巷２７弄２３號","OBJECTID":219359},"geometry":{"x":165226.90000000037,"y":2544459.790000001}},{"attributes":{"ID":219361,"DIS_CODE":0,"TOWNNAME":"歸仁區","LI":"許厝里","LIN":"23鄰","STREET":"大仁街","SECT":" ","MAREA":" ","LANE":"１２６巷","ALLEY":"８弄","HOUSE_NO":"１９號","E_COORD97":178158.92000000001,"N_COORD97":2540900.1099999999,"ADDRESS":"大仁街１２６巷８弄１９號","OBJECTID":219360},"geometry":{"x":178158.91999999993,"y":2540900.1099999975}},{"attributes":{"ID":219362,"DIS_CODE":0,"TOWNNAME":"歸仁區","LI":"許厝里","LIN":"23鄰","STREET":"大仁街","SECT":" ","MAREA":" ","LANE":"１２６巷","ALLEY":"８弄","HOUSE_NO":"１１號","E_COORD97":178172.32000000001,"N_COORD97":2540912.1099999999,"ADDRESS":"大仁街１２６巷８弄１１號","OBJECTID":219361},"geometry":{"x":178172.32000000216,"y":2540912.1100000013}},{"attributes":{"ID":219363,"DIS_CODE":0,"TOWNNAME":"歸仁區","LI":"許厝里","LIN":"23鄰","STREET":"大仁街","SECT":" ","MAREA":" ","LANE":"１２６巷","ALLEY":"８弄","HOUSE_NO":"１５號","E_COORD97":178166.12,"N_COORD97":2540906.1099999999,"ADDRESS":"大仁街１２６巷８弄１５號","OBJECTID":219362},"geometry":{"x":178166.12000000011,"y":2540906.1099999994}},{"attributes":{"ID":219364,"DIS_CODE":0,"TOWNNAME":"歸仁區","LI":"許厝里","LIN":"23鄰","STREET":"大仁街","SECT":" ","MAREA":" ","LANE":"１２６巷","ALLEY":"８弄","HOUSE_NO":"７號","E_COORD97":178178.17000000001,"N_COORD97":2540919.1099999999,"ADDRESS":"大仁街１２６巷８弄７號","OBJECTID":219363},"geometry":{"x":178178.17000000179,"y":2540919.1099999994}},{"attributes":{"ID":219365,"DIS_CODE":0,"TOWNNAME":"東區","LI":"泉南里","LIN":"28鄰","STREET":"長榮路","SECT":"一段","MAREA":" ","LANE":" ","ALLEY":" ","HOUSE_NO":"８９號地下一層","E_COORD97":169675.73000000001,"N_COORD97":2542628.5800000001,"ADDRESS":"長榮路一段８９號地下一層","OBJECTID":219364},"geometry":{"x":169675.73000000138,"y":2542628.5800000019}},{"attributes":{"ID":219366,"DIS_CODE":0,"TOWNNAME":"歸仁區","LI":"許厝里","LIN":"23鄰","STREET":"大仁街","SECT":" ","MAREA":" ","LANE":"１２６巷","ALLEY":"８弄","HOUSE_NO":"２號","E_COORD97":178184.57000000001,"N_COORD97":2540959.1099999999,"ADDRESS":"大仁街１２６巷８弄２號","OBJECTID":219365},"geometry":{"x":178184.57000000123,"y":2540959.1100000013}},{"attributes":{"ID":219367,"DIS_CODE":0,"TOWNNAME":"歸仁區","LI":"許厝里","LIN":"23鄰","STREET":"大仁街","SECT":" ","MAREA":" ","LANE":"１２６巷","ALLEY":"８弄","HOUSE_NO":"３號","E_COORD97":178184.37,"N_COORD97":2540924.1099999999,"ADDRESS":"大仁街１２６巷８弄３號","OBJECTID":219366},"geometry":{"x":178184.37000000104,"y":2540924.1100000031}},{"attributes":{"ID":219368,"DIS_CODE":0,"TOWNNAME":"歸仁區","LI":"許厝里","LIN":"23鄰","STREET":"大仁街","SECT":" ","MAREA":" ","LANE":"１２６巷","ALLEY":"８弄","HOUSE_NO":"１號","E_COORD97":178187.47,"N_COORD97":2540932.1099999999,"ADDRESS":"大仁街１２６巷８弄１號","OBJECTID":219367},"geometry":{"x":178187.46999999974,"y":2540932.1100000013}},{"attributes":{"ID":219369,"DIS_CODE":0,"TOWNNAME":"歸仁區","LI":"許厝里","LIN":"23鄰","STREET":"大仁街","SECT":" ","MAREA":" ","LANE":"１２６巷","ALLEY":"８弄","HOUSE_NO":"１２號","E_COORD97":178178.62,"N_COORD97":2540942.1099999999,"ADDRESS":"大仁街１２６巷８弄１２號","OBJECTID":219368},"geometry":{"x":178178.62000000197,"y":2540942.1100000013}},{"attributes":{"ID":219370,"DIS_CODE":0,"TOWNNAME":"歸仁區","LI":"許厝里","LIN":"23鄰","STREET":"大仁街","SECT":" ","MAREA":" ","LANE":"１２６巷","ALLEY":"８弄","HOUSE_NO":"９號","E_COORD97":178175.07000000001,"N_COORD97":2540916.1099999999,"ADDRESS":"大仁街１２６巷８弄９號","OBJECTID":219369},"geometry":{"x":178175.0700000003,"y":2540916.1099999994}},{"attributes":{"ID":219371,"DIS_CODE":0,"TOWNNAME":"歸仁區","LI":"許厝里","LIN":"23鄰","STREET":"大仁街","SECT":" ","MAREA":" ","LANE":"１２６巷","ALLEY":"８弄","HOUSE_NO":"８號","E_COORD97":178184.47,"N_COORD97":2540948.1099999999,"ADDRESS":"大仁街１２６巷８弄８號","OBJECTID":219370},"geometry":{"x":178184.4700000016,"y":2540948.1100000013}},{"attributes":{"ID":219372,"DIS_CODE":0,"TOWNNAME":"歸仁區","LI":"許厝里","LIN":"23鄰","STREET":"大仁街","SECT":" ","MAREA":" ","LANE":"１２６巷","ALLEY":"８弄","HOUSE_NO":"５號","E_COORD97":178181.26999999999,"N_COORD97":2540921.1099999999,"ADDRESS":"大仁街１２６巷８弄５號","OBJECTID":219371},"geometry":{"x":178181.26999999955,"y":2540921.1100000013}},{"attributes":{"ID":219373,"DIS_CODE":0,"TOWNNAME":"安定區","LI":"安定里","LIN":"1鄰","STREET":" ","SECT":" ","MAREA":"領寄","LANE":" ","ALLEY":" ","HOUSE_NO":"２號","E_COORD97":173572.54000000001,"N_COORD97":2557068.25,"ADDRESS":"領寄２號","OBJECTID":219372},"geometry":{"x":173572.54000000004,"y":2557068.25}},{"attributes":{"ID":219374,"DIS_CODE":0,"TOWNNAME":"安定區","LI":"南安里","LIN":"4鄰","STREET":" ","SECT":" ","MAREA":"油車","LANE":" ","ALLEY":" ","HOUSE_NO":"４１號","E_COORD97":170635.14000000001,"N_COORD97":2555528.25,"ADDRESS":"油車４１號","OBJECTID":219373},"geometry":{"x":170635.1400000006,"y":2555528.25}},{"attributes":{"ID":219375,"DIS_CODE":0,"TOWNNAME":"歸仁區","LI":"大廟里","LIN":"23鄰","STREET":"大廟一街","SECT":" ","MAREA":" ","LANE":"３８巷","ALLEY":"２５弄","HOUSE_NO":"２２號","E_COORD97":175686.47,"N_COORD97":2544064.25,"ADDRESS":"大廟一街３８巷２５弄２２號","OBJECTID":219374},"geometry":{"x":175686.47000000067,"y":2544064.2500000019}},{"attributes":{"ID":219376,"DIS_CODE":0,"TOWNNAME":"新營區","LI":"忠政里","LIN":"23鄰","STREET":"府西路","SECT":" ","MAREA":" ","LANE":"２０１巷","ALLEY":"７弄","HOUSE_NO":"６號","E_COORD97":179755.45000000001,"N_COORD97":2579497.48,"ADDRESS":"府西路２０１巷７弄６號","OBJECTID":219375},"geometry":{"x":179755.45000000112,"y":2579497.4800000004}},{"attributes":{"ID":219377,"DIS_CODE":0,"TOWNNAME":"新營區","LI":"新南里","LIN":"23鄰","STREET":"復興路","SECT":" ","MAREA":" ","LANE":"６２０巷","ALLEY":"１５弄","HOUSE_NO":"１５號","E_COORD97":177995.14000000001,"N_COORD97":2578382.98,"ADDRESS":"復興路６２０巷１５弄１５號","OBJECTID":219376},"geometry":{"x":177995.1400000006,"y":2578382.9800000042}},{"attributes":{"ID":219378,"DIS_CODE":0,"TOWNNAME":"新營區","LI":"新南里","LIN":"23鄰","STREET":"復興路","SECT":" ","MAREA":" ","LANE":"６２０巷","ALLEY":"１５弄","HOUSE_NO":"１７號","E_COORD97":177991.04999999999,"N_COORD97":2578384.1099999999,"ADDRESS":"復興路６２０巷１５弄１７號","OBJECTID":219377},"geometry":{"x":177991.05000000075,"y":2578384.1099999975}},{"attributes":{"ID":219379,"DIS_CODE":0,"TOWNNAME":"安定區","LI":"港南里","LIN":"4鄰","STREET":" ","SECT":" ","MAREA":"港口","LANE":" ","ALLEY":" ","HOUSE_NO":"２５之２９號","E_COORD97":171519.29000000001,"N_COORD97":2554036.2999999998,"ADDRESS":"港口２５之２９號","OBJECTID":219378},"geometry":{"x":171519.29000000097,"y":2554036.3000000026}},{"attributes":{"ID":219380,"DIS_CODE":0,"TOWNNAME":"安定區","LI":"港南里","LIN":"4鄰","STREET":" ","SECT":" ","MAREA":"港口","LANE":" ","ALLEY":" ","HOUSE_NO":"２５之３２號","E_COORD97":171529.89000000001,"N_COORD97":2554042.2999999998,"ADDRESS":"港口２５之３２號","OBJECTID":219379},"geometry":{"x":171529.8900000006,"y":2554042.3000000026}},{"attributes":{"ID":219381,"DIS_CODE":0,"TOWNNAME":"安定區","LI":"港南里","LIN":"4鄰","STREET":" ","SECT":" ","MAREA":"港口","LANE":" ","ALLEY":" ","HOUSE_NO":"２５之４號","E_COORD97":171547.44,"N_COORD97":2554065.2999999998,"ADDRESS":"港口２５之４號","OBJECTID":219380},"geometry":{"x":171547.44000000134,"y":2554065.3000000045}},{"attributes":{"ID":219382,"DIS_CODE":0,"TOWNNAME":"安定區","LI":"南安里","LIN":"4鄰","STREET":" ","SECT":" ","MAREA":"油車","LANE":" ","ALLEY":" ","HOUSE_NO":"５０號","E_COORD97":170596.23999999999,"N_COORD97":2555550.25,"ADDRESS":"油車５０號","OBJECTID":219381},"geometry":{"x":170596.24000000022,"y":2555550.2500000019}},{"attributes":{"ID":219383,"DIS_CODE":0,"TOWNNAME":"安定區","LI":"南安里","LIN":"4鄰","STREET":" ","SECT":" ","MAREA":"油車","LANE":" ","ALLEY":" ","HOUSE_NO":"５１之５號","E_COORD97":170619.84,"N_COORD97":2555592.2999999998,"ADDRESS":"油車５１之５號","OBJECTID":219382},"geometry":{"x":170619.84000000171,"y":2555592.3000000026}},{"attributes":{"ID":219384,"DIS_CODE":0,"TOWNNAME":"安定區","LI":"港南里","LIN":"4鄰","STREET":" ","SECT":" ","MAREA":"港口","LANE":" ","ALLEY":" ","HOUSE_NO":"２５之２４號","E_COORD97":171500.29000000001,"N_COORD97":2554026.2999999998,"ADDRESS":"港口２５之２４號","OBJECTID":219383},"geometry":{"x":171500.29000000097,"y":2554026.3000000026}},{"attributes":{"ID":219385,"DIS_CODE":0,"TOWNNAME":"安定區","LI":"港南里","LIN":"18鄰","STREET":" ","SECT":" ","MAREA":"港口","LANE":" ","ALLEY":" ","HOUSE_NO":"２３８號之５","E_COORD97":171635.07999999999,"N_COORD97":2554548.2999999998,"ADDRESS":"港口２３８號之５","OBJECTID":219384},"geometry":{"x":171635.08000000007,"y":2554548.3000000026}},{"attributes":{"ID":219386,"DIS_CODE":0,"TOWNNAME":"新營區","LI":"新南里","LIN":"23鄰","STREET":"復興路","SECT":" ","MAREA":" ","LANE":"６２０巷","ALLEY":"３９弄","HOUSE_NO":"３７號","E_COORD97":177933.23999999999,"N_COORD97":2578465.2400000002,"ADDRESS":"復興路６２０巷３９弄３７號","OBJECTID":219385},"geometry":{"x":177933.24000000022,"y":2578465.2400000002}},{"attributes":{"ID":219387,"DIS_CODE":0,"TOWNNAME":"新營區","LI":"忠政里","LIN":"23鄰","STREET":"府西路","SECT":" ","MAREA":" ","LANE":"２０１巷","ALLEY":"７弄","HOUSE_NO":"４號","E_COORD97":179755.56,"N_COORD97":2579504.1299999999,"ADDRESS":"府西路２０１巷７弄４號","OBJECTID":219386},"geometry":{"x":179755.56000000052,"y":2579504.1300000008}},{"attributes":{"ID":219388,"DIS_CODE":0,"TOWNNAME":"新營區","LI":"新南里","LIN":"23鄰","STREET":"復興路","SECT":" ","MAREA":" ","LANE":"６２０巷","ALLEY":"３９弄","HOUSE_NO":"３３之６號","E_COORD97":177960.23000000001,"N_COORD97":2578452.9900000002,"ADDRESS":"復興路６２０巷３９弄３３之６號","OBJECTID":219387},"geometry":{"x":177960.23000000138,"y":2578452.9900000002}},{"attributes":{"ID":219389,"DIS_CODE":0,"TOWNNAME":"新營區","LI":"新南里","LIN":"23鄰","STREET":"復興路","SECT":" ","MAREA":" ","LANE":"６２０巷","ALLEY":"３９弄","HOUSE_NO":"３５號","E_COORD97":177938.34,"N_COORD97":2578464.1099999999,"ADDRESS":"復興路６２０巷３９弄３５號","OBJECTID":219388},"geometry":{"x":177938.34000000078,"y":2578464.1099999994}},{"attributes":{"ID":219390,"DIS_CODE":0,"TOWNNAME":"新營區","LI":"新南里","LIN":"23鄰","STREET":"復興路","SECT":" ","MAREA":" ","LANE":"６２０巷","ALLEY":"１５弄","HOUSE_NO":"１０號","E_COORD97":177985.03,"N_COORD97":2578407.3900000001,"ADDRESS":"復興路６２０巷１５弄１０號","OBJECTID":219389},"geometry":{"x":177985.03000000119,"y":2578407.3900000043}},{"attributes":{"ID":219391,"DIS_CODE":0,"TOWNNAME":"新營區","LI":"忠政里","LIN":"23鄰","STREET":"府西路","SECT":" ","MAREA":" ","LANE":"２０１巷","ALLEY":"１９弄","HOUSE_NO":"１號","E_COORD97":179727.95999999999,"N_COORD97":2579525.2999999998,"ADDRESS":"府西路２０１巷１９弄１號","OBJECTID":219390},"geometry":{"x":179727.96000000089,"y":2579525.3000000026}},{"attributes":{"ID":219392,"DIS_CODE":0,"TOWNNAME":"新營區","LI":"忠政里","LIN":"23鄰","STREET":"府西路","SECT":" ","MAREA":" ","LANE":"２０１巷","ALLEY":"１９弄","HOUSE_NO":"１６號","E_COORD97":179713.70000000001,"N_COORD97":2579489.9399999999,"ADDRESS":"府西路２０１巷１９弄１６號","OBJECTID":219391},"geometry":{"x":179713.70000000019,"y":2579489.9399999995}},{"attributes":{"ID":219393,"DIS_CODE":0,"TOWNNAME":"新營區","LI":"忠政里","LIN":"23鄰","STREET":"府西路","SECT":" ","MAREA":" ","LANE":"２０１巷","ALLEY":"１９弄","HOUSE_NO":"３號","E_COORD97":179729.04999999999,"N_COORD97":2579519.7599999998,"ADDRESS":"府西路２０１巷１９弄３號","OBJECTID":219392},"geometry":{"x":179729.04999999981,"y":2579519.7600000035}},{"attributes":{"ID":219394,"DIS_CODE":0,"TOWNNAME":"新營區","LI":"忠政里","LIN":"23鄰","STREET":"府西路","SECT":" ","MAREA":" ","LANE":"２０１巷","ALLEY":"１９弄","HOUSE_NO":"２２號","E_COORD97":179714.73999999999,"N_COORD97":2579477.75,"ADDRESS":"府西路２０１巷１９弄２２號","OBJECTID":219393},"geometry":{"x":179714.74000000022,"y":2579477.75}},{"attributes":{"ID":219395,"DIS_CODE":0,"TOWNNAME":"永康區","LI":"\u25A0行里","LIN":"28鄰","STREET":"竹林街","SECT":" ","MAREA":" ","LANE":" ","ALLEY":" ","HOUSE_NO":"５１號","E_COORD97":172737.29999999999,"N_COORD97":2548816.98,"ADDRESS":"竹林街５１號","OBJECTID":219394},"geometry":{"x":172737.30000000168,"y":2548816.9800000023}},{"attributes":{"ID":219396,"DIS_CODE":0,"TOWNNAME":"永康區","LI":"\u25A0行里","LIN":"28鄰","STREET":"竹林街","SECT":" ","MAREA":" ","LANE":" ","ALLEY":" ","HOUSE_NO":"４９號","E_COORD97":172737.72,"N_COORD97":2548820.98,"ADDRESS":"竹林街４９號","OBJECTID":219395},"geometry":{"x":172737.7200000016,"y":2548820.9800000004}},{"attributes":{"ID":219397,"DIS_CODE":0,"TOWNNAME":"永康區","LI":"\u25A0行里","LIN":"28鄰","STREET":"中正三街","SECT":" ","MAREA":" ","LANE":" ","ALLEY":" ","HOUSE_NO":"３３６號","E_COORD97":172685.63,"N_COORD97":2548739.4900000002,"ADDRESS":"中正三街３３６號","OBJECTID":219396},"geometry":{"x":172685.62999999989,"y":2548739.4900000002}},{"attributes":{"ID":219398,"DIS_CODE":0,"TOWNNAME":"永康區","LI":"\u25A0行里","LIN":"28鄰","STREET":"中正三街","SECT":" ","MAREA":" ","LANE":" ","ALLEY":" ","HOUSE_NO":"５０８號","E_COORD97":172971.51999999999,"N_COORD97":2548565.2400000002,"ADDRESS":"中正三街５０８號","OBJECTID":219397},"geometry":{"x":172971.52000000048,"y":2548565.2400000002}},{"attributes":{"ID":219399,"DIS_CODE":0,"TOWNNAME":"永康區","LI":"\u25A0行里","LIN":"28鄰","STREET":"中正三街","SECT":" ","MAREA":" ","LANE":" ","ALLEY":" ","HOUSE_NO":"２０３號","E_COORD97":172687.14000000001,"N_COORD97":2548778.7999999998,"ADDRESS":"中正三街２０３號","OBJECTID":219398},"geometry":{"x":172687.13999999966,"y":2548778.8000000007}},{"attributes":{"ID":219400,"DIS_CODE":0,"TOWNNAME":"仁德區","LI":"仁愛里","LIN":"28鄰","STREET":"機場路","SECT":" ","MAREA":" ","LANE":" ","ALLEY":" ","HOUSE_NO":"１２２６號","E_COORD97":169719.35999999999,"N_COORD97":2539125.79,"ADDRESS":"機場路１２２６號","OBJECTID":219399},"geometry":{"x":169719.36000000034,"y":2539125.7900000028}},{"attributes":{"ID":219401,"DIS_CODE":0,"TOWNNAME":"東區","LI":"後甲里","LIN":"28鄰","STREET":"裕農路","SECT":" ","MAREA":" ","LANE":" ","ALLEY":" ","HOUSE_NO":"９７７號","E_COORD97":172771.95000000001,"N_COORD97":2543590.4500000002,"ADDRESS":"裕農路９７７號","OBJECTID":219400},"geometry":{"x":172771.95000000019,"y":2543590.4500000011}}]}