{"displayFieldName":"TOWNNAME","fieldAliases":{"ID":"ID","DIS_CODE":"DIS_CODE","TOWNNAME":"TOWNNAME","LI":"LI","LIN":"LIN","STREET":"STREET","SECT":"SECT","MAREA":"MAREA","LANE":"LANE","ALLEY":"ALLEY","HOUSE_NO":"HOUSE_NO","E_COORD97":"E_COORD97","N_COORD97":"N_COORD97","ADDRESS":"ADDRESS","OBJECTID":"OBJECTID"},"geometryType":"esriGeometryPoint","spatialReference":{"wkid":102443,"latestWkid":3826},"fields":[{"name":"ID","type":"esriFieldTypeDouble","alias":"ID"},{"name":"DIS_CODE","type":"esriFieldTypeInteger","alias":"DIS_CODE"},{"name":"TOWNNAME","type":"esriFieldTypeString","alias":"TOWNNAME","length":8},{"name":"LI","type":"esriFieldTypeString","alias":"LI","length":8},{"name":"LIN","type":"esriFieldTypeString","alias":"LIN","length":12},{"name":"STREET","type":"esriFieldTypeString","alias":"STREET","length":20},{"name":"SECT","type":"esriFieldTypeString","alias":"SECT","length":8},{"name":"MAREA","type":"esriFieldTypeString","alias":"MAREA","length":12},{"name":"LANE","type":"esriFieldTypeString","alias":"LANE","length":10},{"name":"ALLEY","type":"esriFieldTypeString","alias":"ALLEY","length":10},{"name":"HOUSE_NO","type":"esriFieldTypeString","alias":"HOUSE_NO","length":20},{"name":"E_COORD97","type":"esriFieldTypeDouble","alias":"E_COORD97"},{"name":"N_COORD97","type":"esriFieldTypeDouble","alias":"N_COORD97"},{"name":"ADDRESS","type":"esriFieldTypeString","alias":"ADDRESS","length":50},{"name":"OBJECTID","type":"esriFieldTypeOID","alias":"OBJECTID"}],"features":[{"attributes":{"ID":258805,"DIS_CODE":0,"TOWNNAME":"安南區","LI":"淵中里","LIN":"16鄰","STREET":"本田路","SECT":"三段","MAREA":" ","LANE":"７２０巷","ALLEY":" ","HOUSE_NO":"２０號","E_COORD97":164968.79999999999,"N_COORD97":2549835.5299999998,"ADDRESS":"本田路三段７２０巷２０號","OBJECTID":258801},"geometry":{"x":164968.80000000075,"y":2549835.5300000012}},{"attributes":{"ID":258806,"DIS_CODE":0,"TOWNNAME":"安南區","LI":"淵中里","LIN":"16鄰","STREET":"本田路","SECT":"三段","MAREA":" ","LANE":"７２０巷","ALLEY":" ","HOUSE_NO":"２１號","E_COORD97":164985.95999999999,"N_COORD97":2549822.4900000002,"ADDRESS":"本田路三段７２０巷２１號","OBJECTID":258802},"geometry":{"x":164985.96000000183,"y":2549822.4900000021}},{"attributes":{"ID":258807,"DIS_CODE":0,"TOWNNAME":"安南區","LI":"淵中里","LIN":"16鄰","STREET":"本田路","SECT":"三段","MAREA":" ","LANE":"７２０巷","ALLEY":" ","HOUSE_NO":"２２號","E_COORD97":164966.19,"N_COORD97":2549830.2999999998,"ADDRESS":"本田路三段７２０巷２２號","OBJECTID":258803},"geometry":{"x":164966.19000000227,"y":2549830.3000000007}},{"attributes":{"ID":258808,"DIS_CODE":0,"TOWNNAME":"新營區","LI":"新北里","LIN":"22鄰","STREET":"民生路","SECT":" ","MAREA":" ","LANE":"３５６巷","ALLEY":" ","HOUSE_NO":"２９號","E_COORD97":178964.14000000001,"N_COORD97":2579291.96,"ADDRESS":"民生路３５６巷２９號","OBJECTID":258804},"geometry":{"x":178964.13999999966,"y":2579291.959999999}},{"attributes":{"ID":258809,"DIS_CODE":0,"TOWNNAME":"仁德區","LI":"仁義里","LIN":"34鄰","STREET":"正義二街","SECT":" ","MAREA":" ","LANE":" ","ALLEY":" ","HOUSE_NO":"３９號","E_COORD97":173494.22,"N_COORD97":2541568.77,"ADDRESS":"正義二街３９號","OBJECTID":258805},"geometry":{"x":173494.22000000067,"y":2541568.7700000014}},{"attributes":{"ID":258810,"DIS_CODE":0,"TOWNNAME":"仁德區","LI":"上崙里","LIN":"20鄰","STREET":"上崙一街","SECT":" ","MAREA":" ","LANE":"５６巷","ALLEY":" ","HOUSE_NO":"１２號","E_COORD97":173788.70604700001,"N_COORD97":2538016.0070000002,"ADDRESS":"上崙一街５６巷１２號","OBJECTID":258806},"geometry":{"x":173788.70604700036,"y":2538016.0069980025}},{"attributes":{"ID":258811,"DIS_CODE":0,"TOWNNAME":"仁德區","LI":"仁德里","LIN":"34鄰","STREET":"中山路","SECT":" ","MAREA":" ","LANE":" ","ALLEY":" ","HOUSE_NO":"７４８號","E_COORD97":172706.81,"N_COORD97":2541526.7400000002,"ADDRESS":"中山路７４８號","OBJECTID":258807},"geometry":{"x":172706.81000000052,"y":2541526.7400000002}},{"attributes":{"ID":258812,"DIS_CODE":0,"TOWNNAME":"仁德區","LI":"仁義里","LIN":"34鄰","STREET":"正義三街","SECT":" ","MAREA":" ","LANE":" ","ALLEY":" ","HOUSE_NO":"１４０號","E_COORD97":173790.16,"N_COORD97":2541622.0099999998,"ADDRESS":"正義三街１４０號","OBJECTID":258808},"geometry":{"x":173790.16000000108,"y":2541622.0099999998}},{"attributes":{"ID":258813,"DIS_CODE":0,"TOWNNAME":"仁德區","LI":"仁義里","LIN":"34鄰","STREET":"正義三街","SECT":" ","MAREA":" ","LANE":" ","ALLEY":" ","HOUSE_NO":"１１８號","E_COORD97":173685.92000000001,"N_COORD97":2541613.2599999998,"ADDRESS":"正義三街１１８號","OBJECTID":258809},"geometry":{"x":173685.92000000179,"y":2541613.2600000016}},{"attributes":{"ID":258814,"DIS_CODE":0,"TOWNNAME":"仁德區","LI":"仁義里","LIN":"34鄰","STREET":"正義二街","SECT":" ","MAREA":" ","LANE":" ","ALLEY":" ","HOUSE_NO":"４１號","E_COORD97":173498.59,"N_COORD97":2541569.02,"ADDRESS":"正義二街４１號","OBJECTID":258810},"geometry":{"x":173498.59000000078,"y":2541569.0200000033}},{"attributes":{"ID":258815,"DIS_CODE":0,"TOWNNAME":"仁德區","LI":"仁義里","LIN":"34鄰","STREET":"正義二街","SECT":" ","MAREA":" ","LANE":" ","ALLEY":" ","HOUSE_NO":"３７號","E_COORD97":173490.31,"N_COORD97":2541568.52,"ADDRESS":"正義二街３７號","OBJECTID":258811},"geometry":{"x":173490.31000000052,"y":2541568.5199999996}},{"attributes":{"ID":258816,"DIS_CODE":0,"TOWNNAME":"仁德區","LI":"仁義里","LIN":"34鄰","STREET":"正義二街","SECT":" ","MAREA":" ","LANE":" ","ALLEY":" ","HOUSE_NO":"１０５號","E_COORD97":173657.25,"N_COORD97":2541607.2599999998,"ADDRESS":"正義二街１０５號","OBJECTID":258812},"geometry":{"x":173657.25000000093,"y":2541607.2599999998}},{"attributes":{"ID":258817,"DIS_CODE":0,"TOWNNAME":"仁德區","LI":"仁義里","LIN":"34鄰","STREET":"正義二街","SECT":" ","MAREA":" ","LANE":" ","ALLEY":" ","HOUSE_NO":"１２５號","E_COORD97":173698.23000000001,"N_COORD97":2541587.02,"ADDRESS":"正義二街１２５號","OBJECTID":258813},"geometry":{"x":173698.23000000138,"y":2541587.0200000014}},{"attributes":{"ID":258818,"DIS_CODE":0,"TOWNNAME":"仁德區","LI":"仁義里","LIN":"34鄰","STREET":"正義二街","SECT":" ","MAREA":" ","LANE":" ","ALLEY":" ","HOUSE_NO":"１２１號","E_COORD97":173688.04000000001,"N_COORD97":2541585.52,"ADDRESS":"正義二街１２１號","OBJECTID":258814},"geometry":{"x":173688.04000000004,"y":2541585.5199999996}},{"attributes":{"ID":258819,"DIS_CODE":0,"TOWNNAME":"仁德區","LI":"仁義里","LIN":"34鄰","STREET":"正義三街","SECT":" ","MAREA":" ","LANE":" ","ALLEY":" ","HOUSE_NO":"１４６號","E_COORD97":173803.29000000001,"N_COORD97":2541622.5099999998,"ADDRESS":"正義三街１４６號","OBJECTID":258815},"geometry":{"x":173803.29000000004,"y":2541622.5099999998}},{"attributes":{"ID":258820,"DIS_CODE":0,"TOWNNAME":"仁德區","LI":"仁義里","LIN":"34鄰","STREET":"正義二街","SECT":" ","MAREA":" ","LANE":" ","ALLEY":" ","HOUSE_NO":"９９號","E_COORD97":173653.31147399999,"N_COORD97":2541580.6407300001,"ADDRESS":"正義二街９９號","OBJECTID":258816},"geometry":{"x":173653.31147400104,"y":2541580.6407330036}},{"attributes":{"ID":258821,"DIS_CODE":0,"TOWNNAME":"仁德區","LI":"仁德里","LIN":"34鄰","STREET":"中山路","SECT":" ","MAREA":" ","LANE":" ","ALLEY":" ","HOUSE_NO":"７４６號","E_COORD97":172711.63,"N_COORD97":2541524.9900000002,"ADDRESS":"中山路７４６號","OBJECTID":258817},"geometry":{"x":172711.63000000082,"y":2541524.9900000002}},{"attributes":{"ID":258822,"DIS_CODE":0,"TOWNNAME":"仁德區","LI":"仁義里","LIN":"34鄰","STREET":"正義二街","SECT":" ","MAREA":" ","LANE":" ","ALLEY":" ","HOUSE_NO":"１１５號","E_COORD97":173674.92999999999,"N_COORD97":2541583.77,"ADDRESS":"正義二街１１５號","OBJECTID":258818},"geometry":{"x":173674.9299999997,"y":2541583.7699999996}},{"attributes":{"ID":258823,"DIS_CODE":0,"TOWNNAME":"仁德區","LI":"仁義里","LIN":"34鄰","STREET":"正義二街","SECT":" ","MAREA":" ","LANE":" ","ALLEY":" ","HOUSE_NO":"３１號","E_COORD97":173478.03,"N_COORD97":2541568.02,"ADDRESS":"正義二街３１號","OBJECTID":258819},"geometry":{"x":173478.03000000026,"y":2541568.0199999996}},{"attributes":{"ID":258824,"DIS_CODE":0,"TOWNNAME":"安南區","LI":"淵中里","LIN":"16鄰","STREET":"本田路","SECT":"三段","MAREA":" ","LANE":"７２０巷","ALLEY":" ","HOUSE_NO":"２４號","E_COORD97":164964.06510000001,"N_COORD97":2549825.8422300001,"ADDRESS":"本田路三段７２０巷２４號","OBJECTID":258820},"geometry":{"x":164964.06510000117,"y":2549825.8422300033}},{"attributes":{"ID":258825,"DIS_CODE":0,"TOWNNAME":"安南區","LI":"淵中里","LIN":"16鄰","STREET":"本田路","SECT":"三段","MAREA":" ","LANE":"７２０巷","ALLEY":" ","HOUSE_NO":"２號","E_COORD97":164992.88,"N_COORD97":2549872.3700000001,"ADDRESS":"本田路三段７２０巷２號","OBJECTID":258821},"geometry":{"x":164992.87999999989,"y":2549872.3700000029}},{"attributes":{"ID":258826,"DIS_CODE":0,"TOWNNAME":"東區","LI":"關聖里","LIN":"21鄰","STREET":"裕善街","SECT":" ","MAREA":" ","LANE":" ","ALLEY":" ","HOUSE_NO":"１１號","E_COORD97":172713.85000000001,"N_COORD97":2543085.3900000001,"ADDRESS":"裕善街１１號","OBJECTID":258822},"geometry":{"x":172713.84999999963,"y":2543085.3900000006}},{"attributes":{"ID":258827,"DIS_CODE":0,"TOWNNAME":"東區","LI":"關聖里","LIN":"21鄰","STREET":"裕善街","SECT":" ","MAREA":" ","LANE":" ","ALLEY":" ","HOUSE_NO":"１５號","E_COORD97":172717.92999999999,"N_COORD97":2543085.54,"ADDRESS":"裕善街１５號","OBJECTID":258823},"geometry":{"x":172717.93000000063,"y":2543085.540000001}},{"attributes":{"ID":258828,"DIS_CODE":0,"TOWNNAME":"東區","LI":"關聖里","LIN":"21鄰","STREET":"裕善街","SECT":" ","MAREA":" ","LANE":" ","ALLEY":" ","HOUSE_NO":"９號","E_COORD97":172709.60999999999,"N_COORD97":2543085.54,"ADDRESS":"裕善街９號","OBJECTID":258824},"geometry":{"x":172709.61000000034,"y":2543085.540000001}},{"attributes":{"ID":258829,"DIS_CODE":0,"TOWNNAME":"東區","LI":"關聖里","LIN":"21鄰","STREET":"裕善街","SECT":" ","MAREA":" ","LANE":" ","ALLEY":" ","HOUSE_NO":"４８號","E_COORD97":172759.85000000001,"N_COORD97":2543059.0600000001,"ADDRESS":"裕善街４８號","OBJECTID":258825},"geometry":{"x":172759.84999999963,"y":2543059.0600000024}},{"attributes":{"ID":258830,"DIS_CODE":0,"TOWNNAME":"東區","LI":"關聖里","LIN":"22鄰","STREET":"裕文一街","SECT":" ","MAREA":" ","LANE":" ","ALLEY":" ","HOUSE_NO":"１３５號","E_COORD97":172717.63,"N_COORD97":2542951.77,"ADDRESS":"裕文一街１３５號","OBJECTID":258826},"geometry":{"x":172717.62999999989,"y":2542951.7700000014}},{"attributes":{"ID":258831,"DIS_CODE":0,"TOWNNAME":"東區","LI":"關聖里","LIN":"22鄰","STREET":"裕文一街","SECT":" ","MAREA":" ","LANE":" ","ALLEY":" ","HOUSE_NO":"１３７號","E_COORD97":172717.78,"N_COORD97":2542956.46,"ADDRESS":"裕文一街１３７號","OBJECTID":258827},"geometry":{"x":172717.78000000119,"y":2542956.4600000009}},{"attributes":{"ID":258832,"DIS_CODE":0,"TOWNNAME":"東區","LI":"關聖里","LIN":"22鄰","STREET":"裕文一街","SECT":" ","MAREA":" ","LANE":" ","ALLEY":" ","HOUSE_NO":"１３９號","E_COORD97":172717.48000000001,"N_COORD97":2542961.6000000001,"ADDRESS":"裕文一街１３９號","OBJECTID":258828},"geometry":{"x":172717.48000000045,"y":2542961.5999999996}},{"attributes":{"ID":258833,"DIS_CODE":0,"TOWNNAME":"東區","LI":"關聖里","LIN":"22鄰","STREET":"裕文一街","SECT":" ","MAREA":" ","LANE":" ","ALLEY":" ","HOUSE_NO":"１４１號","E_COORD97":172717.92999999999,"N_COORD97":2542966.29,"ADDRESS":"裕文一街１４１號","OBJECTID":258829},"geometry":{"x":172717.93000000063,"y":2542966.2899999991}},{"attributes":{"ID":258834,"DIS_CODE":0,"TOWNNAME":"東區","LI":"關聖里","LIN":"22鄰","STREET":"裕平路","SECT":" ","MAREA":" ","LANE":" ","ALLEY":" ","HOUSE_NO":"２５１號","E_COORD97":172639.54000000001,"N_COORD97":2542840.9900000002,"ADDRESS":"裕平路２５１號","OBJECTID":258830},"geometry":{"x":172639.54000000097,"y":2542840.9900000002}},{"attributes":{"ID":258835,"DIS_CODE":0,"TOWNNAME":"安南區","LI":"淵中里","LIN":"16鄰","STREET":"本田路","SECT":"三段","MAREA":" ","LANE":"７２０巷","ALLEY":" ","HOUSE_NO":"２６號","E_COORD97":164960.46293000001,"N_COORD97":2549814.6239,"ADDRESS":"本田路三段７２０巷２６號","OBJECTID":258831},"geometry":{"x":164960.46293000039,"y":2549814.6239}},{"attributes":{"ID":258836,"DIS_CODE":0,"TOWNNAME":"安南區","LI":"淵中里","LIN":"16鄰","STREET":"本田路","SECT":"三段","MAREA":" ","LANE":"７２０巷","ALLEY":" ","HOUSE_NO":"４號","E_COORD97":164989.56,"N_COORD97":2549868.8700000001,"ADDRESS":"本田路三段７２０巷４號","OBJECTID":258832},"geometry":{"x":164989.55999999959,"y":2549868.8700000029}},{"attributes":{"ID":258837,"DIS_CODE":0,"TOWNNAME":"安南區","LI":"淵中里","LIN":"16鄰","STREET":"本田路","SECT":"三段","MAREA":" ","LANE":"７２０巷","ALLEY":" ","HOUSE_NO":"１５號","E_COORD97":164993.23999999999,"N_COORD97":2549834.8700000001,"ADDRESS":"本田路三段７２０巷１５號","OBJECTID":258833},"geometry":{"x":164993.24000000115,"y":2549834.8700000029}},{"attributes":{"ID":258838,"DIS_CODE":0,"TOWNNAME":"安南區","LI":"淵中里","LIN":"16鄰","STREET":"本田路","SECT":"三段","MAREA":" ","LANE":"７２０巷","ALLEY":" ","HOUSE_NO":"１８號","E_COORD97":164971.22,"N_COORD97":2549840.5499999998,"ADDRESS":"本田路三段７２０巷１８號","OBJECTID":258834},"geometry":{"x":164971.21999999974,"y":2549840.5500000026}},{"attributes":{"ID":258839,"DIS_CODE":0,"TOWNNAME":"安南區","LI":"淵中里","LIN":"16鄰","STREET":"本田路","SECT":"三段","MAREA":" ","LANE":"７２０巷","ALLEY":" ","HOUSE_NO":"２３號","E_COORD97":164983.09,"N_COORD97":2549818.7200000002,"ADDRESS":"本田路三段７２０巷２３號","OBJECTID":258835},"geometry":{"x":164983.08999999892,"y":2549818.7200000025}},{"attributes":{"ID":258840,"DIS_CODE":0,"TOWNNAME":"安南區","LI":"淵中里","LIN":"16鄰","STREET":"本田路","SECT":"三段","MAREA":" ","LANE":"７２０巷","ALLEY":" ","HOUSE_NO":"２５號","E_COORD97":164980.20999999999,"N_COORD97":2549815.3999999999,"ADDRESS":"本田路三段７２０巷２５號","OBJECTID":258836},"geometry":{"x":164980.20999999996,"y":2549815.4000000004}},{"attributes":{"ID":258841,"DIS_CODE":0,"TOWNNAME":"佳里區","LI":"安西里","LIN":"39鄰","STREET":"佳西路","SECT":" ","MAREA":" ","LANE":"３１０巷","ALLEY":" ","HOUSE_NO":"８號","E_COORD97":164820.59,"N_COORD97":2562759.7000000002,"ADDRESS":"佳西路３１０巷８號","OBJECTID":258837},"geometry":{"x":164820.59000000171,"y":2562759.6999999993}},{"attributes":{"ID":258842,"DIS_CODE":0,"TOWNNAME":"安南區","LI":"四草里","LIN":"1鄰","STREET":"大眾六街","SECT":" ","MAREA":" ","LANE":"４２巷","ALLEY":" ","HOUSE_NO":"１５號","E_COORD97":160606.89131800001,"N_COORD97":2546521.4365900001,"ADDRESS":"大眾六街４２巷１５號","OBJECTID":258838},"geometry":{"x":160606.89131800178,"y":2546521.436587004}},{"attributes":{"ID":258843,"DIS_CODE":0,"TOWNNAME":"安南區","LI":"總頭里","LIN":"11鄰","STREET":"長溪路","SECT":"二段","MAREA":" ","LANE":"５８１巷","ALLEY":" ","HOUSE_NO":"４９號","E_COORD97":168165.16791700001,"N_COORD97":2550576.1722800001,"ADDRESS":"長溪路二段５８１巷４９號","OBJECTID":258839},"geometry":{"x":168165.16791700013,"y":2550576.1722830012}},{"attributes":{"ID":258844,"DIS_CODE":0,"TOWNNAME":"安南區","LI":"總頭里","LIN":"9鄰","STREET":"長溪路","SECT":"二段","MAREA":" ","LANE":"５８１巷","ALLEY":" ","HOUSE_NO":"１７號之１","E_COORD97":168201.60911399999,"N_COORD97":2550660.7330700001,"ADDRESS":"長溪路二段５８１巷１７號之１","OBJECTID":258840},"geometry":{"x":168201.60911400151,"y":2550660.7330710012}},{"attributes":{"ID":258845,"DIS_CODE":0,"TOWNNAME":"佳里區","LI":"建南里","LIN":"15鄰","STREET":"光復路","SECT":" ","MAREA":" ","LANE":"７７巷","ALLEY":" ","HOUSE_NO":"１號","E_COORD97":165497.91427099999,"N_COORD97":2561929.4431599998,"ADDRESS":"光復路７７巷１號","OBJECTID":258841},"geometry":{"x":165497.91427100077,"y":2561929.4431630019}},{"attributes":{"ID":258846,"DIS_CODE":0,"TOWNNAME":"仁德區","LI":"仁愛里","LIN":"29鄰","STREET":"亞航街","SECT":" ","MAREA":" ","LANE":"１９８巷","ALLEY":" ","HOUSE_NO":"３０號","E_COORD97":170023.59,"N_COORD97":2539088.4900000002,"ADDRESS":"亞航街１９８巷３０號","OBJECTID":258842},"geometry":{"x":170023.59000000078,"y":2539088.4900000021}},{"attributes":{"ID":258847,"DIS_CODE":0,"TOWNNAME":"安南區","LI":"淵中里","LIN":"3鄰","STREET":"本淵路","SECT":" ","MAREA":" ","LANE":"５７巷","ALLEY":" ","HOUSE_NO":"３２號","E_COORD97":165184.89324,"N_COORD97":2549912.8219900001,"ADDRESS":"本淵路５７巷３２號","OBJECTID":258843},"geometry":{"x":165184.89324000105,"y":2549912.8219900019}},{"attributes":{"ID":258848,"DIS_CODE":0,"TOWNNAME":"安南區","LI":"四草里","LIN":"1鄰","STREET":"大眾六街","SECT":" ","MAREA":" ","LANE":"４２巷","ALLEY":" ","HOUSE_NO":"１３號","E_COORD97":160607.52669299999,"N_COORD97":2546513.1815900002,"ADDRESS":"大眾六街４２巷１３號","OBJECTID":258844},"geometry":{"x":160607.52669300046,"y":2546513.1815920006}},{"attributes":{"ID":258849,"DIS_CODE":0,"TOWNNAME":"歸仁區","LI":"看東里","LIN":"3鄰","STREET":"成功六街","SECT":" ","MAREA":" ","LANE":"３８巷","ALLEY":" ","HOUSE_NO":"７２號","E_COORD97":178468.47658399999,"N_COORD97":2540277.9462799998,"ADDRESS":"成功六街３８巷７２號","OBJECTID":258845},"geometry":{"x":178468.47658400051,"y":2540277.9462750033}},{"attributes":{"ID":258850,"DIS_CODE":0,"TOWNNAME":"安南區","LI":"淵中里","LIN":"3鄰","STREET":"本淵路","SECT":" ","MAREA":" ","LANE":"５７巷","ALLEY":" ","HOUSE_NO":"６６號","E_COORD97":165140.774451,"N_COORD97":2549856.9954599999,"ADDRESS":"本淵路５７巷６６號","OBJECTID":258846},"geometry":{"x":165140.77445099968,"y":2549856.9954630025}},{"attributes":{"ID":258851,"DIS_CODE":0,"TOWNNAME":"歸仁區","LI":"看東里","LIN":"3鄰","STREET":"成功六街","SECT":" ","MAREA":" ","LANE":"３８巷","ALLEY":" ","HOUSE_NO":"５７號","E_COORD97":178456.21552100001,"N_COORD97":2540247.82926,"ADDRESS":"成功六街３８巷５７號","OBJECTID":258847},"geometry":{"x":178456.21552100126,"y":2540247.8292609993}},{"attributes":{"ID":258852,"DIS_CODE":0,"TOWNNAME":"安南區","LI":"淵中里","LIN":"3鄰","STREET":"本淵路","SECT":" ","MAREA":" ","LANE":"５７巷","ALLEY":" ","HOUSE_NO":"２２號","E_COORD97":165196.538065,"N_COORD97":2549925.5219899998,"ADDRESS":"本淵路５７巷２２號","OBJECTID":258848},"geometry":{"x":165196.5380650023,"y":2549925.5219880007}},{"attributes":{"ID":258853,"DIS_CODE":0,"TOWNNAME":"安南區","LI":"淵中里","LIN":"3鄰","STREET":"本淵路","SECT":" ","MAREA":" ","LANE":"５７巷","ALLEY":" ","HOUSE_NO":"２６號","E_COORD97":165192.303583,"N_COORD97":2549922.1353199999,"ADDRESS":"本淵路５７巷２６號","OBJECTID":258849},"geometry":{"x":165192.30358300079,"y":2549922.1353230011}},{"attributes":{"ID":258854,"DIS_CODE":0,"TOWNNAME":"安南區","LI":"淵中里","LIN":"3鄰","STREET":"本淵路","SECT":" ","MAREA":" ","LANE":"５７巷","ALLEY":" ","HOUSE_NO":"４０號","E_COORD97":165177.48289000001,"N_COORD97":2549902.4503299999,"ADDRESS":"本淵路５７巷４０號","OBJECTID":258850},"geometry":{"x":165177.48288999964,"y":2549902.4503300022}},{"attributes":{"ID":258855,"DIS_CODE":0,"TOWNNAME":"關廟區","LI":"新光里","LIN":"3鄰","STREET":"新湖街","SECT":" ","MAREA":" ","LANE":"１１２巷","ALLEY":" ","HOUSE_NO":"９號","E_COORD97":183618.57000000001,"N_COORD97":2541787.2999999998,"ADDRESS":"新湖街１１２巷９號","OBJECTID":258851},"geometry":{"x":183618.5700000003,"y":2541787.3000000007}},{"attributes":{"ID":258856,"DIS_CODE":0,"TOWNNAME":"關廟區","LI":"新光里","LIN":"3鄰","STREET":"新湖街","SECT":" ","MAREA":" ","LANE":"１２０巷","ALLEY":" ","HOUSE_NO":"３５號","E_COORD97":183675.76999999999,"N_COORD97":2541857.2999999998,"ADDRESS":"新湖街１２０巷３５號","OBJECTID":258852},"geometry":{"x":183675.76999999955,"y":2541857.3000000026}},{"attributes":{"ID":258857,"DIS_CODE":0,"TOWNNAME":"關廟區","LI":"布袋里","LIN":"3鄰","STREET":"長文街","SECT":" ","MAREA":" ","LANE":"１６８巷","ALLEY":" ","HOUSE_NO":"１６號","E_COORD97":182774.44,"N_COORD97":2535437.2999999998,"ADDRESS":"長文街１６８１６號","OBJECTID":258853},"geometry":{"x":182774.44000000134,"y":2535437.3000000007}},{"attributes":{"ID":258858,"DIS_CODE":0,"TOWNNAME":"東區","LI":"關聖里","LIN":"22鄰","STREET":"裕和三街","SECT":" ","MAREA":" ","LANE":" ","ALLEY":" ","HOUSE_NO":"３９號","E_COORD97":172675.70999999999,"N_COORD97":2542950.1000000001,"ADDRESS":"裕和三街３９號","OBJECTID":258854},"geometry":{"x":172675.71000000089,"y":2542950.1000000015}},{"attributes":{"ID":258859,"DIS_CODE":0,"TOWNNAME":"關廟區","LI":"新光里","LIN":"3鄰","STREET":"新湖街","SECT":" ","MAREA":" ","LANE":"１２０巷","ALLEY":" ","HOUSE_NO":"１９號","E_COORD97":183641.97,"N_COORD97":2541858.2999999998,"ADDRESS":"新湖街１２０巷１９號","OBJECTID":258855},"geometry":{"x":183641.97000000067,"y":2541858.3000000007}},{"attributes":{"ID":258860,"DIS_CODE":0,"TOWNNAME":"關廟區","LI":"布袋里","LIN":"3鄰","STREET":"長文街","SECT":" ","MAREA":" ","LANE":"１６８巷","ALLEY":" ","HOUSE_NO":"１８號","E_COORD97":182765.23999999999,"N_COORD97":2535441.2999999998,"ADDRESS":"長文街１６８１８號","OBJECTID":258856},"geometry":{"x":182765.24000000209,"y":2535441.3000000007}},{"attributes":{"ID":258861,"DIS_CODE":0,"TOWNNAME":"東區","LI":"大智里","LIN":"25鄰","STREET":"文東街","SECT":" ","MAREA":" ","LANE":" ","ALLEY":" ","HOUSE_NO":"４９號","E_COORD97":171313.73000000001,"N_COORD97":2540213.1800000002,"ADDRESS":"文東街４９號","OBJECTID":258857},"geometry":{"x":171313.73000000045,"y":2540213.1800000016}},{"attributes":{"ID":258862,"DIS_CODE":0,"TOWNNAME":"東區","LI":"大智里","LIN":"25鄰","STREET":"文東街","SECT":" ","MAREA":" ","LANE":" ","ALLEY":" ","HOUSE_NO":"５０號","E_COORD97":171369.01000000001,"N_COORD97":2540196.0800000001,"ADDRESS":"文東街５０號","OBJECTID":258858},"geometry":{"x":171369.00999999978,"y":2540196.0800000038}},{"attributes":{"ID":258863,"DIS_CODE":0,"TOWNNAME":"東區","LI":"大智里","LIN":"25鄰","STREET":"文東街","SECT":" ","MAREA":" ","LANE":" ","ALLEY":" ","HOUSE_NO":"５１號","E_COORD97":171317.19,"N_COORD97":2540215.4900000002,"ADDRESS":"文東街５１號","OBJECTID":258859},"geometry":{"x":171317.19000000041,"y":2540215.4900000002}},{"attributes":{"ID":258864,"DIS_CODE":0,"TOWNNAME":"東區","LI":"大智里","LIN":"25鄰","STREET":"文東街","SECT":" ","MAREA":" ","LANE":" ","ALLEY":" ","HOUSE_NO":"５２號","E_COORD97":171373.10999999999,"N_COORD97":2540194.2000000002,"ADDRESS":"文東街５２號","OBJECTID":258860},"geometry":{"x":171373.11000000127,"y":2540194.1999999974}},{"attributes":{"ID":258865,"DIS_CODE":0,"TOWNNAME":"東區","LI":"大智里","LIN":"25鄰","STREET":"文東街","SECT":" ","MAREA":" ","LANE":" ","ALLEY":" ","HOUSE_NO":"５３號","E_COORD97":171321.95000000001,"N_COORD97":2540213.4700000002,"ADDRESS":"文東街５３號","OBJECTID":258861},"geometry":{"x":171321.95000000112,"y":2540213.4700000007}},{"attributes":{"ID":258866,"DIS_CODE":0,"TOWNNAME":"東區","LI":"大智里","LIN":"25鄰","STREET":"文東街","SECT":" ","MAREA":" ","LANE":" ","ALLEY":" ","HOUSE_NO":"５４號","E_COORD97":171376.70000000001,"N_COORD97":2540196.0800000001,"ADDRESS":"文東街５４號","OBJECTID":258862},"geometry":{"x":171376.70000000019,"y":2540196.0800000038}},{"attributes":{"ID":258867,"DIS_CODE":0,"TOWNNAME":"南區","LI":"新興里","LIN":"22鄰","STREET":"三官路","SECT":" ","MAREA":" ","LANE":" ","ALLEY":" ","HOUSE_NO":"２２５號","E_COORD97":167130.20999999999,"N_COORD97":2541957.0800000001,"ADDRESS":"三官路２２５號","OBJECTID":258863},"geometry":{"x":167130.20999999903,"y":2541957.0800000019}},{"attributes":{"ID":258868,"DIS_CODE":0,"TOWNNAME":"仁德區","LI":"仁義里","LIN":"12鄰","STREET":"中山路","SECT":" ","MAREA":" ","LANE":"１０巷","ALLEY":" ","HOUSE_NO":"４７號","E_COORD97":175149.34564000001,"N_COORD97":2541209.69062,"ADDRESS":"中山路１０巷４７號","OBJECTID":258864},"geometry":{"x":175149.34563999996,"y":2541209.6906199995}},{"attributes":{"ID":258869,"DIS_CODE":0,"TOWNNAME":"安南區","LI":"四草里","LIN":"4鄰","STREET":"北汕尾一路","SECT":" ","MAREA":" ","LANE":"２４０巷","ALLEY":" ","HOUSE_NO":"８號","E_COORD97":160254.076489,"N_COORD97":2546425.4383100001,"ADDRESS":"北汕尾一路２４０巷８號","OBJECTID":258865},"geometry":{"x":160254.07648900151,"y":2546425.4383140001}},{"attributes":{"ID":258870,"DIS_CODE":0,"TOWNNAME":"新市區","LI":"港墘里","LIN":"13鄰","STREET":"中山路","SECT":" ","MAREA":" ","LANE":"７８巷","ALLEY":" ","HOUSE_NO":"２９號","E_COORD97":178320.25703000001,"N_COORD97":2552845.0469399998,"ADDRESS":"中山路７８巷２９號","OBJECTID":258866},"geometry":{"x":178320.25703000091,"y":2552845.0469400007}},{"attributes":{"ID":258871,"DIS_CODE":0,"TOWNNAME":"仁德區","LI":"大甲里","LIN":"12鄰","STREET":"行大街","SECT":" ","MAREA":" ","LANE":"３４１巷","ALLEY":" ","HOUSE_NO":"２８號","E_COORD97":169583.11864299999,"N_COORD97":2535131.4253600002,"ADDRESS":"行大街３４１巷２８號","OBJECTID":258867},"geometry":{"x":169583.11864300165,"y":2535131.4253599998}},{"attributes":{"ID":258872,"DIS_CODE":0,"TOWNNAME":"下營區","LI":"仁里里","LIN":"23鄰","STREET":"中山路","SECT":"二段","MAREA":" ","LANE":"１２２巷","ALLEY":" ","HOUSE_NO":"３６號","E_COORD97":174337.159316,"N_COORD97":2569971.1938299998,"ADDRESS":"中山路二段１２２巷３６號","OBJECTID":258868},"geometry":{"x":174337.15931600053,"y":2569971.1938310005}},{"attributes":{"ID":258873,"DIS_CODE":0,"TOWNNAME":"仁德區","LI":"上崙里","LIN":"1鄰","STREET":"德崙路","SECT":" ","MAREA":" ","LANE":"７７巷","ALLEY":" ","HOUSE_NO":"８２號五樓之３","E_COORD97":173603.19909000001,"N_COORD97":2538484.4586299998,"ADDRESS":"德崙路７７巷８２號五樓之３","OBJECTID":258869},"geometry":{"x":173603.19909000024,"y":2538484.4586299993}},{"attributes":{"ID":258874,"DIS_CODE":0,"TOWNNAME":"安南區","LI":"四草里","LIN":"7鄰","STREET":"四草大道","SECT":" ","MAREA":" ","LANE":"８０巷","ALLEY":" ","HOUSE_NO":"１８６號","E_COORD97":161775.315619,"N_COORD97":2544674.7742300001,"ADDRESS":"四草大道８０巷１８６號","OBJECTID":258870},"geometry":{"x":161775.31561900117,"y":2544674.7742279992}},{"attributes":{"ID":258875,"DIS_CODE":0,"TOWNNAME":"安南區","LI":"海西里","LIN":"3鄰","STREET":"海中街","SECT":" ","MAREA":" ","LANE":"１６９巷","ALLEY":" ","HOUSE_NO":"７２號","E_COORD97":166224.72935199999,"N_COORD97":2549067.7788300002,"ADDRESS":"海中街１６９巷７２號","OBJECTID":258871},"geometry":{"x":166224.7293520011,"y":2549067.7788299993}},{"attributes":{"ID":258876,"DIS_CODE":0,"TOWNNAME":"安南區","LI":"淵中里","LIN":"3鄰","STREET":"本淵路","SECT":" ","MAREA":" ","LANE":"５７巷","ALLEY":" ","HOUSE_NO":"２８號","E_COORD97":165189.94222,"N_COORD97":2549918.86968,"ADDRESS":"本淵路５７巷２８號","OBJECTID":258872},"geometry":{"x":165189.94221999962,"y":2549918.8696830012}},{"attributes":{"ID":258877,"DIS_CODE":0,"TOWNNAME":"安南區","LI":"淵中里","LIN":"3鄰","STREET":"本淵路","SECT":" ","MAREA":" ","LANE":"５７巷","ALLEY":" ","HOUSE_NO":"３８號","E_COORD97":165179.35747799999,"N_COORD97":2549905.6454500002,"ADDRESS":"本淵路５７巷３８號","OBJECTID":258873},"geometry":{"x":165179.35747800022,"y":2549905.6454530023}},{"attributes":{"ID":258878,"DIS_CODE":0,"TOWNNAME":"關廟區","LI":"龜洞里","LIN":"3鄰","STREET":"中崙街","SECT":" ","MAREA":" ","LANE":"１１巷","ALLEY":" ","HOUSE_NO":"３０號","E_COORD97":183271.94,"N_COORD97":2533552.2999999998,"ADDRESS":"中崙街１１巷３０號","OBJECTID":258874},"geometry":{"x":183271.94000000041,"y":2533552.3000000007}},{"attributes":{"ID":258879,"DIS_CODE":0,"TOWNNAME":"南區","LI":"新興里","LIN":"22鄰","STREET":"三官路","SECT":" ","MAREA":" ","LANE":" ","ALLEY":" ","HOUSE_NO":"２２７號","E_COORD97":167125.45999999999,"N_COORD97":2541955.9399999999,"ADDRESS":"三官路２２７號","OBJECTID":258875},"geometry":{"x":167125.46000000089,"y":2541955.9400000032}},{"attributes":{"ID":258880,"DIS_CODE":0,"TOWNNAME":"南區","LI":"新興里","LIN":"22鄰","STREET":"三官路","SECT":" ","MAREA":" ","LANE":" ","ALLEY":" ","HOUSE_NO":"２２９號","E_COORD97":167120.89999999999,"N_COORD97":2541954.6099999999,"ADDRESS":"三官路２２９號","OBJECTID":258876},"geometry":{"x":167120.89999999944,"y":2541954.6100000031}},{"attributes":{"ID":258881,"DIS_CODE":0,"TOWNNAME":"東區","LI":"關聖里","LIN":"22鄰","STREET":"裕和五街","SECT":" ","MAREA":" ","LANE":" ","ALLEY":" ","HOUSE_NO":"２２７號","E_COORD97":172773.01999999999,"N_COORD97":2542873.8300000001,"ADDRESS":"裕和五街２２７號","OBJECTID":258877},"geometry":{"x":172773.02000000048,"y":2542873.8300000019}},{"attributes":{"ID":258882,"DIS_CODE":0,"TOWNNAME":"東區","LI":"關聖里","LIN":"22鄰","STREET":"裕和五街","SECT":" ","MAREA":" ","LANE":" ","ALLEY":" ","HOUSE_NO":"２２９號","E_COORD97":172770.29000000001,"N_COORD97":2542877.46,"ADDRESS":"裕和五街２２９號","OBJECTID":258878},"geometry":{"x":172770.29000000097,"y":2542877.4600000028}},{"attributes":{"ID":258883,"DIS_CODE":0,"TOWNNAME":"東區","LI":"關聖里","LIN":"22鄰","STREET":"裕和五街","SECT":" ","MAREA":" ","LANE":" ","ALLEY":" ","HOUSE_NO":"２３１號","E_COORD97":172765.89999999999,"N_COORD97":2542873.98,"ADDRESS":"裕和五街２３１號","OBJECTID":258879},"geometry":{"x":172765.90000000224,"y":2542873.9800000004}},{"attributes":{"ID":258884,"DIS_CODE":0,"TOWNNAME":"關廟區","LI":"龜洞里","LIN":"3鄰","STREET":"中崙街","SECT":" ","MAREA":" ","LANE":"１１巷","ALLEY":" ","HOUSE_NO":"２０號","E_COORD97":183299.04000000001,"N_COORD97":2533523.25,"ADDRESS":"中崙街１１巷２０號","OBJECTID":258880},"geometry":{"x":183299.04000000097,"y":2533523.2500000019}},{"attributes":{"ID":258885,"DIS_CODE":0,"TOWNNAME":"安南區","LI":"四草里","LIN":"7鄰","STREET":"四草大道","SECT":" ","MAREA":" ","LANE":"８０巷","ALLEY":" ","HOUSE_NO":"１８０號","E_COORD97":161663.48965100001,"N_COORD97":2544674.3509,"ADDRESS":"四草大道８０巷１８０號","OBJECTID":258881},"geometry":{"x":161663.48965100013,"y":2544674.3508950006}},{"attributes":{"ID":258886,"DIS_CODE":0,"TOWNNAME":"東區","LI":"關聖里","LIN":"22鄰","STREET":"裕和五街","SECT":" ","MAREA":" ","LANE":" ","ALLEY":" ","HOUSE_NO":"２３３號","E_COORD97":172760.45999999999,"N_COORD97":2542877.77,"ADDRESS":"裕和五街２３３號","OBJECTID":258882},"geometry":{"x":172760.46000000089,"y":2542877.7699999996}},{"attributes":{"ID":258887,"DIS_CODE":0,"TOWNNAME":"東區","LI":"和平里","LIN":"20鄰","STREET":"文化五街","SECT":" ","MAREA":" ","LANE":" ","ALLEY":" ","HOUSE_NO":"１號","E_COORD97":171145.98000000001,"N_COORD97":2541762.75,"ADDRESS":"文化五街１號","OBJECTID":258883},"geometry":{"x":171145.98000000045,"y":2541762.7500000019}},{"attributes":{"ID":258888,"DIS_CODE":0,"TOWNNAME":"安南區","LI":"淵中里","LIN":"3鄰","STREET":"本淵路","SECT":" ","MAREA":" ","LANE":"５７巷","ALLEY":" ","HOUSE_NO":"８６號","E_COORD97":165105.839977,"N_COORD97":2549834.98214,"ADDRESS":"本淵路５７巷８６號","OBJECTID":258884},"geometry":{"x":165105.83997700084,"y":2549834.9821420033}},{"attributes":{"ID":258889,"DIS_CODE":0,"TOWNNAME":"仁德區","LI":"上崙里","LIN":"1鄰","STREET":"德崙路","SECT":" ","MAREA":" ","LANE":"７７巷","ALLEY":" ","HOUSE_NO":"８２號五樓之４","E_COORD97":173603.19909000001,"N_COORD97":2538484.4586299998,"ADDRESS":"德崙路７７巷８２號五樓之４","OBJECTID":258885},"geometry":{"x":173603.19909000024,"y":2538484.4586299993}},{"attributes":{"ID":258890,"DIS_CODE":0,"TOWNNAME":"仁德區","LI":"上崙里","LIN":"1鄰","STREET":"德崙路","SECT":" ","MAREA":" ","LANE":"７７巷","ALLEY":" ","HOUSE_NO":"８２號四樓之１","E_COORD97":173603.19909000001,"N_COORD97":2538484.4586299998,"ADDRESS":"德崙路７７巷８２號四樓之１","OBJECTID":258886},"geometry":{"x":173603.19909000024,"y":2538484.4586299993}},{"attributes":{"ID":258891,"DIS_CODE":0,"TOWNNAME":"仁德區","LI":"上崙里","LIN":"1鄰","STREET":"德崙路","SECT":" ","MAREA":" ","LANE":"７７巷","ALLEY":" ","HOUSE_NO":"８２號四樓之２","E_COORD97":173603.19909000001,"N_COORD97":2538484.4586299998,"ADDRESS":"德崙路７７巷８２號四樓之２","OBJECTID":258887},"geometry":{"x":173603.19909000024,"y":2538484.4586299993}},{"attributes":{"ID":258892,"DIS_CODE":0,"TOWNNAME":"安南區","LI":"四草里","LIN":"7鄰","STREET":"四草大道","SECT":" ","MAREA":" ","LANE":"８０巷","ALLEY":" ","HOUSE_NO":"１８８號","E_COORD97":161777.43353499999,"N_COORD97":2544699.32755,"ADDRESS":"四草大道８０巷１８８號","OBJECTID":258888},"geometry":{"x":161777.43353500217,"y":2544699.3275480028}},{"attributes":{"ID":258893,"DIS_CODE":0,"TOWNNAME":"安南區","LI":"四草里","LIN":"7鄰","STREET":"四草大道","SECT":" ","MAREA":" ","LANE":"８０巷","ALLEY":" ","HOUSE_NO":"１６８號","E_COORD97":161627.908662,"N_COORD97":2544698.4808800002,"ADDRESS":"四草大道８０巷１６８號","OBJECTID":258889},"geometry":{"x":161627.90866200067,"y":2544698.4808810018}},{"attributes":{"ID":258894,"DIS_CODE":0,"TOWNNAME":"安南區","LI":"四草里","LIN":"7鄰","STREET":"四草大道","SECT":" ","MAREA":" ","LANE":"８０巷","ALLEY":" ","HOUSE_NO":"１６６號","E_COORD97":161617.53087300001,"N_COORD97":2544700.7033799998,"ADDRESS":"四草大道８０巷１６６號","OBJECTID":258890},"geometry":{"x":161617.53087299969,"y":2544700.7033799998}},{"attributes":{"ID":258895,"DIS_CODE":0,"TOWNNAME":"安南區","LI":"四草里","LIN":"7鄰","STREET":"四草大道","SECT":" ","MAREA":" ","LANE":"８０巷","ALLEY":" ","HOUSE_NO":"１６０號","E_COORD97":161609.69458400001,"N_COORD97":2544724.6217,"ADDRESS":"四草大道８０巷１６０號","OBJECTID":258891},"geometry":{"x":161609.69458399992,"y":2544724.6217010021}},{"attributes":{"ID":258896,"DIS_CODE":0,"TOWNNAME":"安南區","LI":"四草里","LIN":"7鄰","STREET":"四草大道","SECT":" ","MAREA":" ","LANE":"８０巷","ALLEY":" ","HOUSE_NO":"１０號","E_COORD97":161528.79019,"N_COORD97":2544751.5033499999,"ADDRESS":"四草大道８０巷１０號","OBJECTID":258892},"geometry":{"x":161528.79019000009,"y":2544751.5033529997}},{"attributes":{"ID":258897,"DIS_CODE":0,"TOWNNAME":"安南區","LI":"四草里","LIN":"7鄰","STREET":"四草大道","SECT":" ","MAREA":" ","LANE":"８０巷","ALLEY":" ","HOUSE_NO":"２號","E_COORD97":161478.649,"N_COORD97":2544738.2957299999,"ADDRESS":"四草大道８０巷２號","OBJECTID":258893},"geometry":{"x":161478.64900000207,"y":2544738.2957260013}},{"attributes":{"ID":258898,"DIS_CODE":0,"TOWNNAME":"安南區","LI":"四草里","LIN":"7鄰","STREET":"四草大道","SECT":" ","MAREA":" ","LANE":"８１巷","ALLEY":" ","HOUSE_NO":"７號","E_COORD97":161318.74610300001,"N_COORD97":2544768.2461799998,"ADDRESS":"四草大道８１巷７號","OBJECTID":258894},"geometry":{"x":161318.74610300083,"y":2544768.2461840007}},{"attributes":{"ID":258899,"DIS_CODE":0,"TOWNNAME":"新營區","LI":"大宏里","LIN":"6鄰","STREET":"三民路","SECT":" ","MAREA":" ","LANE":"８巷","ALLEY":" ","HOUSE_NO":"５７號","E_COORD97":180547.17133300001,"N_COORD97":2578653.7612399999,"ADDRESS":"三民路８巷５７號","OBJECTID":258895},"geometry":{"x":180547.171333001,"y":2578653.7612400018}},{"attributes":{"ID":258900,"DIS_CODE":0,"TOWNNAME":"安南區","LI":"四草里","LIN":"1鄰","STREET":"大眾六街","SECT":" ","MAREA":" ","LANE":"１２６巷","ALLEY":" ","HOUSE_NO":"２８號","E_COORD97":160527.908042,"N_COORD97":2546649.04904,"ADDRESS":"大眾六街１２６巷２８號","OBJECTID":258896},"geometry":{"x":160527.90804199968,"y":2546649.0490420014}},{"attributes":{"ID":258901,"DIS_CODE":0,"TOWNNAME":"安南區","LI":"四草里","LIN":"1鄰","STREET":"大眾六街","SECT":" ","MAREA":" ","LANE":"１２６巷","ALLEY":" ","HOUSE_NO":"１３號","E_COORD97":160486.82047100001,"N_COORD97":2546663.2307000002,"ADDRESS":"大眾六街１２６巷１３號","OBJECTID":258897},"geometry":{"x":160486.82047100086,"y":2546663.2307010014}},{"attributes":{"ID":258902,"DIS_CODE":0,"TOWNNAME":"安南區","LI":"四草里","LIN":"4鄰","STREET":"大眾五街","SECT":" ","MAREA":" ","LANE":"３６巷","ALLEY":" ","HOUSE_NO":"１３號","E_COORD97":160693.51408399999,"N_COORD97":2546227.64341,"ADDRESS":"大眾五街３６巷１３號","OBJECTID":258898},"geometry":{"x":160693.51408400107,"y":2546227.6434129998}},{"attributes":{"ID":258903,"DIS_CODE":0,"TOWNNAME":"安南區","LI":"四草里","LIN":"4鄰","STREET":"大眾五街","SECT":" ","MAREA":" ","LANE":"３６巷","ALLEY":" ","HOUSE_NO":"７號","E_COORD97":160734.60165600001,"N_COORD97":2546265.4249900002,"ADDRESS":"大眾五街３６巷７號","OBJECTID":258899},"geometry":{"x":160734.60165600106,"y":2546265.4249939993}},{"attributes":{"ID":258904,"DIS_CODE":0,"TOWNNAME":"東區","LI":"大智里","LIN":"3鄰","STREET":"崇善十四街","SECT":" ","MAREA":" ","LANE":" ","ALLEY":" ","HOUSE_NO":"６７號","E_COORD97":171193.17000000001,"N_COORD97":2540551.8700000001,"ADDRESS":"崇善十四街６７號","OBJECTID":258900},"geometry":{"x":171193.16999999993,"y":2540551.8700000029}},{"attributes":{"ID":258905,"DIS_CODE":0,"TOWNNAME":"東區","LI":"大智里","LIN":"18鄰","STREET":"崇善十五街","SECT":" ","MAREA":" ","LANE":" ","ALLEY":" ","HOUSE_NO":"６４號","E_COORD97":171254.60999999999,"N_COORD97":2540561.2400000002,"ADDRESS":"崇善十五街６４號","OBJECTID":258901},"geometry":{"x":171254.61000000127,"y":2540561.2400000039}},{"attributes":{"ID":258906,"DIS_CODE":0,"TOWNNAME":"東區","LI":"大智里","LIN":"18鄰","STREET":"崇善十五街","SECT":" ","MAREA":" ","LANE":" ","ALLEY":" ","HOUSE_NO":"６６號","E_COORD97":171251.29000000001,"N_COORD97":2540558.4100000001,"ADDRESS":"崇善十五街６６號","OBJECTID":258902},"geometry":{"x":171251.29000000097,"y":2540558.4100000001}},{"attributes":{"ID":258907,"DIS_CODE":0,"TOWNNAME":"安南區","LI":"四草里","LIN":"4鄰","STREET":"大眾五街","SECT":" ","MAREA":" ","LANE":"３６巷","ALLEY":" ","HOUSE_NO":"９號","E_COORD97":160725.91819999999,"N_COORD97":2546249.7616699999,"ADDRESS":"大眾五街３６巷９號","OBJECTID":258903},"geometry":{"x":160725.91820000112,"y":2546249.7616690025}},{"attributes":{"ID":258908,"DIS_CODE":0,"TOWNNAME":"仁德區","LI":"仁義里","LIN":"20鄰","STREET":"正義路","SECT":" ","MAREA":" ","LANE":"１９６巷","ALLEY":" ","HOUSE_NO":"５號","E_COORD97":173915.09983799999,"N_COORD97":2541320.9628900001,"ADDRESS":"正義路１９６巷５號","OBJECTID":258904},"geometry":{"x":173915.09983799886,"y":2541320.9628860038}},{"attributes":{"ID":258909,"DIS_CODE":0,"TOWNNAME":"仁德區","LI":"一甲里","LIN":"11鄰","STREET":"義林路","SECT":" ","MAREA":" ","LANE":"１０７５巷","ALLEY":" ","HOUSE_NO":"１６８號","E_COORD97":174831.45065000001,"N_COORD97":2541874.1713899998,"ADDRESS":"義林路１０７５巷１６８號","OBJECTID":258905},"geometry":{"x":174831.45065000094,"y":2541874.1713900026}},{"attributes":{"ID":258910,"DIS_CODE":0,"TOWNNAME":"安南區","LI":"溪墘里","LIN":"27鄰","STREET":"安寧街","SECT":" ","MAREA":" ","LANE":"１２１巷","ALLEY":" ","HOUSE_NO":"５２號","E_COORD97":167219.80876399999,"N_COORD97":2547161.0746599999,"ADDRESS":"安寧街１２１巷５２號","OBJECTID":258906},"geometry":{"x":167219.80876400135,"y":2547161.0746550001}},{"attributes":{"ID":258911,"DIS_CODE":0,"TOWNNAME":"安南區","LI":"溪墘里","LIN":"27鄰","STREET":"安寧街","SECT":" ","MAREA":" ","LANE":"１２１巷","ALLEY":" ","HOUSE_NO":"１８號","E_COORD97":167312.02723199999,"N_COORD97":2547179.5161000001,"ADDRESS":"安寧街１２１巷１８號","OBJECTID":258907},"geometry":{"x":167312.02723199967,"y":2547179.5161029976}},{"attributes":{"ID":258912,"DIS_CODE":0,"TOWNNAME":"安南區","LI":"四草里","LIN":"3鄰","STREET":"大眾路","SECT":" ","MAREA":" ","LANE":"３０１巷","ALLEY":" ","HOUSE_NO":"２３９號","E_COORD97":162133.68200900001,"N_COORD97":2546562.9157400001,"ADDRESS":"大眾路３０１巷２３９號","OBJECTID":258908},"geometry":{"x":162133.68200900126,"y":2546562.9157390017}},{"attributes":{"ID":258913,"DIS_CODE":0,"TOWNNAME":"關廟區","LI":"布袋里","LIN":"2鄰","STREET":"長裕街","SECT":" ","MAREA":" ","LANE":"１７５巷","ALLEY":" ","HOUSE_NO":"１９號","E_COORD97":182246.64000000001,"N_COORD97":2535614.2999999998,"ADDRESS":"長裕街１７５１９號","OBJECTID":258909},"geometry":{"x":182246.6400000006,"y":2535614.3000000007}},{"attributes":{"ID":258914,"DIS_CODE":0,"TOWNNAME":"東區","LI":"大智里","LIN":"19鄰","STREET":"崇善十四街","SECT":" ","MAREA":" ","LANE":" ","ALLEY":" ","HOUSE_NO":"４１號","E_COORD97":171267.07000000001,"N_COORD97":2540599.8300000001,"ADDRESS":"崇善十四街４１號","OBJECTID":258910},"geometry":{"x":171267.0700000003,"y":2540599.8300000001}},{"attributes":{"ID":258915,"DIS_CODE":0,"TOWNNAME":"東區","LI":"大智里","LIN":"19鄰","STREET":"崇善十四街","SECT":" ","MAREA":" ","LANE":" ","ALLEY":" ","HOUSE_NO":"４３號","E_COORD97":171261.92999999999,"N_COORD97":2540598.52,"ADDRESS":"崇善十四街４３號","OBJECTID":258911},"geometry":{"x":171261.93000000063,"y":2540598.5199999996}},{"attributes":{"ID":258916,"DIS_CODE":0,"TOWNNAME":"安平區","LI":"怡平里","LIN":"22鄰","STREET":"平通路","SECT":" ","MAREA":" ","LANE":" ","ALLEY":" ","HOUSE_NO":"３７３號","E_COORD97":165654.42000000001,"N_COORD97":2543713,"ADDRESS":"平通路３７３號","OBJECTID":258912},"geometry":{"x":165654.42000000086,"y":2543713.0000000019}},{"attributes":{"ID":258917,"DIS_CODE":0,"TOWNNAME":"安平區","LI":"怡平里","LIN":"22鄰","STREET":"平通路","SECT":" ","MAREA":" ","LANE":" ","ALLEY":" ","HOUSE_NO":"３７５號","E_COORD97":165650.14999999999,"N_COORD97":2543713.3100000001,"ADDRESS":"平通路３７５號","OBJECTID":258913},"geometry":{"x":165650.1500000013,"y":2543713.3100000005}},{"attributes":{"ID":258918,"DIS_CODE":0,"TOWNNAME":"東區","LI":"和平里","LIN":"20鄰","STREET":"文化五街","SECT":" ","MAREA":" ","LANE":" ","ALLEY":" ","HOUSE_NO":"３號","E_COORD97":171149.60999999999,"N_COORD97":2541764.4300000002,"ADDRESS":"文化五街３號","OBJECTID":258914},"geometry":{"x":171149.61000000127,"y":2541764.4300000016}},{"attributes":{"ID":258919,"DIS_CODE":0,"TOWNNAME":"東區","LI":"文聖里","LIN":"13鄰","STREET":"裕興街","SECT":" ","MAREA":" ","LANE":" ","ALLEY":" ","HOUSE_NO":"１８５號","E_COORD97":172289.88,"N_COORD97":2542655.6600000001,"ADDRESS":"裕興街１８５號","OBJECTID":258915},"geometry":{"x":172289.88000000082,"y":2542655.6600000001}},{"attributes":{"ID":258920,"DIS_CODE":0,"TOWNNAME":"關廟區","LI":"布袋里","LIN":"2鄰","STREET":"長裕街","SECT":" ","MAREA":" ","LANE":"１１７巷","ALLEY":" ","HOUSE_NO":"１５號","E_COORD97":182457.44,"N_COORD97":2535814.2999999998,"ADDRESS":"長裕街１１７１５號","OBJECTID":258916},"geometry":{"x":182457.44000000134,"y":2535814.3000000007}},{"attributes":{"ID":258921,"DIS_CODE":0,"TOWNNAME":"關廟區","LI":"深坑里","LIN":"2鄰","STREET":"南雄路","SECT":"一段","MAREA":" ","LANE":"３２６巷","ALLEY":" ","HOUSE_NO":"２號","E_COORD97":181888.17000000001,"N_COORD97":2537497.2999999998,"ADDRESS":"南雄路一段３２６巷２號","OBJECTID":258917},"geometry":{"x":181888.16999999993,"y":2537497.3000000026}},{"attributes":{"ID":258922,"DIS_CODE":0,"TOWNNAME":"新營區","LI":"大宏里","LIN":"9鄰","STREET":"民治路","SECT":" ","MAREA":" ","LANE":"２９巷","ALLEY":" ","HOUSE_NO":"４３之２號","E_COORD97":180226.34210800001,"N_COORD97":2578731.2446099999,"ADDRESS":"民治路２９巷４３之２號","OBJECTID":258918},"geometry":{"x":180226.342108001,"y":2578731.2446070015}},{"attributes":{"ID":258923,"DIS_CODE":0,"TOWNNAME":"新營區","LI":"大宏里","LIN":"9鄰","STREET":"民治路","SECT":" ","MAREA":" ","LANE":"２９巷","ALLEY":" ","HOUSE_NO":"４３之７號","E_COORD97":180224.06287200001,"N_COORD97":2578713.3058699998,"ADDRESS":"民治路２９巷４３之７號","OBJECTID":258919},"geometry":{"x":180224.06287200097,"y":2578713.3058660012}},{"attributes":{"ID":258924,"DIS_CODE":0,"TOWNNAME":"新營區","LI":"大宏里","LIN":"9鄰","STREET":"民治路","SECT":" ","MAREA":" ","LANE":"２９巷","ALLEY":" ","HOUSE_NO":"４３之９號","E_COORD97":180225.33500399999,"N_COORD97":2578703.99254,"ADDRESS":"民治路２９巷４３之９號","OBJECTID":258920},"geometry":{"x":180225.33500399999,"y":2578703.9925379995}},{"attributes":{"ID":258925,"DIS_CODE":0,"TOWNNAME":"新營區","LI":"大宏里","LIN":"9鄰","STREET":"民治路","SECT":" ","MAREA":" ","LANE":"２９巷","ALLEY":" ","HOUSE_NO":"４３號之１","E_COORD97":180221.35959000001,"N_COORD97":2578731.3504400002,"ADDRESS":"民治路２９巷４３號之１","OBJECTID":258921},"geometry":{"x":180221.35959000047,"y":2578731.350440003}},{"attributes":{"ID":258926,"DIS_CODE":0,"TOWNNAME":"新營區","LI":"大宏里","LIN":"10鄰","STREET":"民治路","SECT":" ","MAREA":" ","LANE":"２９巷","ALLEY":" ","HOUSE_NO":"８號","E_COORD97":180177.25901499999,"N_COORD97":2578833.8499699999,"ADDRESS":"民治路２９巷８號","OBJECTID":258922},"geometry":{"x":180177.25901500136,"y":2578833.8499680031}},{"attributes":{"ID":258927,"DIS_CODE":0,"TOWNNAME":"新營區","LI":"大宏里","LIN":"10鄰","STREET":"民治路","SECT":" ","MAREA":" ","LANE":"２９巷","ALLEY":" ","HOUSE_NO":"１０號","E_COORD97":180176.940982,"N_COORD97":2578826.4416399999,"ADDRESS":"民治路２９巷１０號","OBJECTID":258923},"geometry":{"x":180176.94098199997,"y":2578826.4416380022}},{"attributes":{"ID":258928,"DIS_CODE":0,"TOWNNAME":"安南區","LI":"四草里","LIN":"3鄰","STREET":"大眾路","SECT":" ","MAREA":" ","LANE":"３０１巷","ALLEY":" ","HOUSE_NO":"５８０號","E_COORD97":161914.27434599999,"N_COORD97":2545746.81287,"ADDRESS":"大眾路３０１巷５８０號","OBJECTID":258924},"geometry":{"x":161914.27434599958,"y":2545746.8128699996}},{"attributes":{"ID":258929,"DIS_CODE":0,"TOWNNAME":"安南區","LI":"四草里","LIN":"3鄰","STREET":"大眾路","SECT":" ","MAREA":" ","LANE":"３０１巷","ALLEY":" ","HOUSE_NO":"５２０號","E_COORD97":161926.13467599999,"N_COORD97":2545820.2611600002,"ADDRESS":"大眾路３０１巷５２０號","OBJECTID":258925},"geometry":{"x":161926.13467600103,"y":2545820.2611640021}},{"attributes":{"ID":258930,"DIS_CODE":0,"TOWNNAME":"安南區","LI":"四草里","LIN":"3鄰","STREET":"大眾路","SECT":" ","MAREA":" ","LANE":"３０１巷","ALLEY":" ","HOUSE_NO":"５０１號","E_COORD97":161947.73741999999,"N_COORD97":2545862.59448,"ADDRESS":"大眾路３０１巷５０１號","OBJECTID":258926},"geometry":{"x":161947.73742000014,"y":2545862.594475003}},{"attributes":{"ID":258931,"DIS_CODE":0,"TOWNNAME":"安南區","LI":"海東里","LIN":"2鄰","STREET":"海環街","SECT":" ","MAREA":" ","LANE":"５９６巷","ALLEY":" ","HOUSE_NO":"３８號","E_COORD97":166507.343391,"N_COORD97":2549255.2295400002,"ADDRESS":"海環街５９６巷３８號","OBJECTID":258927},"geometry":{"x":166507.34339100216,"y":2549255.229541}},{"attributes":{"ID":258932,"DIS_CODE":0,"TOWNNAME":"安南區","LI":"海東里","LIN":"2鄰","STREET":"海環街","SECT":" ","MAREA":" ","LANE":"６４６巷","ALLEY":" ","HOUSE_NO":"１０號","E_COORD97":166489.664429,"N_COORD97":2549247.18621,"ADDRESS":"海環街６４６巷１０號","OBJECTID":258928},"geometry":{"x":166489.66442900058,"y":2549247.1862120014}},{"attributes":{"ID":258933,"DIS_CODE":0,"TOWNNAME":"安南區","LI":"安富里","LIN":"2鄰","STREET":"郡安路","SECT":"五段","MAREA":" ","LANE":"１８４巷","ALLEY":" ","HOUSE_NO":"１２號","E_COORD97":167467.309473,"N_COORD97":2547713.6176100001,"ADDRESS":"郡安路五段１８４巷１２號","OBJECTID":258929},"geometry":{"x":167467.3094730014,"y":2547713.617606001}},{"attributes":{"ID":258934,"DIS_CODE":0,"TOWNNAME":"東區","LI":"文聖里","LIN":"13鄰","STREET":"裕興街","SECT":" ","MAREA":" ","LANE":" ","ALLEY":" ","HOUSE_NO":"１８９號","E_COORD97":172297.01999999999,"N_COORD97":2542655.5499999998,"ADDRESS":"裕興街１８９號","OBJECTID":258930},"geometry":{"x":172297.02000000048,"y":2542655.5500000026}},{"attributes":{"ID":258935,"DIS_CODE":0,"TOWNNAME":"關廟區","LI":"松腳里","LIN":"2鄰","STREET":"松柏街","SECT":" ","MAREA":" ","LANE":"３８巷","ALLEY":" ","HOUSE_NO":"８號","E_COORD97":181950.69958099999,"N_COORD97":2539736.9076200002,"ADDRESS":"松柏街３８巷８號","OBJECTID":258931},"geometry":{"x":181950.69958100095,"y":2539736.9076190013}},{"attributes":{"ID":258936,"DIS_CODE":0,"TOWNNAME":"南區","LI":"新興里","LIN":"2鄰","STREET":"西門路","SECT":"一段","MAREA":" ","LANE":"４７１巷","ALLEY":" ","HOUSE_NO":"３４號","E_COORD97":167631.90359100001,"N_COORD97":2542517.8377499999,"ADDRESS":"西門路一段４７１巷３４號","OBJECTID":258932},"geometry":{"x":167631.90359099954,"y":2542517.8377529997}},{"attributes":{"ID":258937,"DIS_CODE":0,"TOWNNAME":"安平區","LI":"怡平里","LIN":"22鄰","STREET":"平通路","SECT":" ","MAREA":" ","LANE":" ","ALLEY":" ","HOUSE_NO":"３７７號","E_COORD97":165646.03,"N_COORD97":2543713.9199999999,"ADDRESS":"平通路３７７號","OBJECTID":258933},"geometry":{"x":165646.03000000026,"y":2543713.9200000018}},{"attributes":{"ID":258938,"DIS_CODE":0,"TOWNNAME":"東區","LI":"小東里","LIN":"1鄰","STREET":"小東路","SECT":" ","MAREA":" ","LANE":" ","ALLEY":" ","HOUSE_NO":"１３８號地下層","E_COORD97":170727.23000000001,"N_COORD97":2544495.02,"ADDRESS":"小東路１３８號地下層","OBJECTID":258934},"geometry":{"x":170727.23000000045,"y":2544495.0200000033}},{"attributes":{"ID":258939,"DIS_CODE":0,"TOWNNAME":"關廟區","LI":"田中里","LIN":"2鄰","STREET":"田大路","SECT":" ","MAREA":" ","LANE":"１６１巷","ALLEY":" ","HOUSE_NO":"８號","E_COORD97":184473.83553000001,"N_COORD97":2533865.8722000001,"ADDRESS":"田大路１６１巷８號","OBJECTID":258935},"geometry":{"x":184473.83553000167,"y":2533865.8721980024}},{"attributes":{"ID":258940,"DIS_CODE":0,"TOWNNAME":"東區","LI":"崇德里","LIN":"9鄰","STREET":"崇善路","SECT":" ","MAREA":" ","LANE":" ","ALLEY":" ","HOUSE_NO":"４５２號","E_COORD97":170983.19,"N_COORD97":2541526.4700000002,"ADDRESS":"崇善路４５２號","OBJECTID":258936},"geometry":{"x":170983.19000000134,"y":2541526.4700000044}},{"attributes":{"ID":258941,"DIS_CODE":0,"TOWNNAME":"關廟區","LI":"田中里","LIN":"2鄰","STREET":"田大路","SECT":" ","MAREA":" ","LANE":"１６１巷","ALLEY":" ","HOUSE_NO":"６號","E_COORD97":184478.07297499999,"N_COORD97":2533865.13136,"ADDRESS":"田大路１６１巷６號","OBJECTID":258937},"geometry":{"x":184478.0729750013,"y":2533865.1313650012}},{"attributes":{"ID":258942,"DIS_CODE":0,"TOWNNAME":"關廟區","LI":"田中里","LIN":"2鄰","STREET":"田大路","SECT":" ","MAREA":" ","LANE":"１６５巷","ALLEY":" ","HOUSE_NO":"８號","E_COORD97":184381.406257,"N_COORD97":2533880.9534399998,"ADDRESS":"田大路１６５巷８號","OBJECTID":258938},"geometry":{"x":184381.40625700075,"y":2533880.9534400012}},{"attributes":{"ID":258943,"DIS_CODE":0,"TOWNNAME":"關廟區","LI":"田中里","LIN":"2鄰","STREET":"田大路","SECT":" ","MAREA":" ","LANE":"１２２巷","ALLEY":" ","HOUSE_NO":"３號","E_COORD97":184317.94317400001,"N_COORD97":2533731.2559400001,"ADDRESS":"田大路１２２巷３號","OBJECTID":258939},"geometry":{"x":184317.9431739999,"y":2533731.2559390012}},{"attributes":{"ID":258944,"DIS_CODE":0,"TOWNNAME":"關廟區","LI":"田中里","LIN":"2鄰","STREET":"田大路","SECT":" ","MAREA":" ","LANE":"１２２巷","ALLEY":" ","HOUSE_NO":"６號","E_COORD97":184293.89567200001,"N_COORD97":2533723.8740699999,"ADDRESS":"田大路１２２巷６號","OBJECTID":258940},"geometry":{"x":184293.89567200001,"y":2533723.8740680013}},{"attributes":{"ID":258945,"DIS_CODE":0,"TOWNNAME":"關廟區","LI":"田中里","LIN":"2鄰","STREET":"田大路","SECT":" ","MAREA":" ","LANE":"１２２巷","ALLEY":" ","HOUSE_NO":"１３號","E_COORD97":184289.605259,"N_COORD97":2533685.1920099999,"ADDRESS":"田大路１２２巷１３號","OBJECTID":258941},"geometry":{"x":184289.60525900219,"y":2533685.192005001}},{"attributes":{"ID":258946,"DIS_CODE":0,"TOWNNAME":"關廟區","LI":"新光里","LIN":"2鄰","STREET":"新湖街","SECT":" ","MAREA":" ","LANE":"４１０巷","ALLEY":" ","HOUSE_NO":"８號","E_COORD97":183368.84,"N_COORD97":2543039.2999999998,"ADDRESS":"新湖街４１０巷８號","OBJECTID":258942},"geometry":{"x":183368.83999999985,"y":2543039.3000000007}},{"attributes":{"ID":258947,"DIS_CODE":0,"TOWNNAME":"關廟區","LI":"新光里","LIN":"2鄰","STREET":"新湖街","SECT":" ","MAREA":" ","LANE":"２４６巷","ALLEY":" ","HOUSE_NO":"７號","E_COORD97":183108.89000000001,"N_COORD97":2542556.2999999998,"ADDRESS":"新湖街２４６巷７號","OBJECTID":258943},"geometry":{"x":183108.88999999966,"y":2542556.3000000026}},{"attributes":{"ID":258948,"DIS_CODE":0,"TOWNNAME":"中西區","LI":"藥王里","LIN":"2鄰","STREET":"大福街","SECT":" ","MAREA":" ","LANE":"３６巷","ALLEY":" ","HOUSE_NO":"１１號","E_COORD97":167375.59,"N_COORD97":2544406.3599999999,"ADDRESS":"大福街３６巷１１號","OBJECTID":258944},"geometry":{"x":167375.59000000078,"y":2544406.3599999994}},{"attributes":{"ID":258949,"DIS_CODE":0,"TOWNNAME":"學甲區","LI":"平和里","LIN":"22鄰","STREET":" ","SECT":" ","MAREA":"西平寮","LANE":" ","ALLEY":" ","HOUSE_NO":"２３號之１","E_COORD97":169222.42000000001,"N_COORD97":2573265.5899999999,"ADDRESS":"西平寮２３號之１","OBJECTID":258945},"geometry":{"x":169222.42000000179,"y":2573265.5900000036}},{"attributes":{"ID":258950,"DIS_CODE":0,"TOWNNAME":"學甲區","LI":"平和里","LIN":"22鄰","STREET":" ","SECT":" ","MAREA":"西平寮","LANE":" ","ALLEY":" ","HOUSE_NO":"２３號","E_COORD97":169222.19,"N_COORD97":2573244.0299999998,"ADDRESS":"西平寮２３號","OBJECTID":258946},"geometry":{"x":169222.19000000041,"y":2573244.0299999993}},{"attributes":{"ID":258951,"DIS_CODE":0,"TOWNNAME":"學甲區","LI":"平和里","LIN":"22鄰","STREET":" ","SECT":" ","MAREA":"西平寮","LANE":" ","ALLEY":" ","HOUSE_NO":"２６號之１","E_COORD97":169235.85000000001,"N_COORD97":2573185.0099999998,"ADDRESS":"西平寮２６號之１","OBJECTID":258947},"geometry":{"x":169235.84999999963,"y":2573185.0100000016}},{"attributes":{"ID":258952,"DIS_CODE":0,"TOWNNAME":"學甲區","LI":"平和里","LIN":"22鄰","STREET":" ","SECT":" ","MAREA":"西平寮","LANE":" ","ALLEY":" ","HOUSE_NO":"２６號之２","E_COORD97":169240.62,"N_COORD97":2573164.5699999998,"ADDRESS":"西平寮２６號之２","OBJECTID":258948},"geometry":{"x":169240.62000000104,"y":2573164.570000004}},{"attributes":{"ID":258953,"DIS_CODE":0,"TOWNNAME":"學甲區","LI":"平和里","LIN":"22鄰","STREET":" ","SECT":" ","MAREA":"西平寮","LANE":" ","ALLEY":" ","HOUSE_NO":"２６號","E_COORD97":169222.73999999999,"N_COORD97":2573201.6699999999,"ADDRESS":"西平寮２６號","OBJECTID":258949},"geometry":{"x":169222.74000000115,"y":2573201.6700000018}},{"attributes":{"ID":258954,"DIS_CODE":0,"TOWNNAME":"學甲區","LI":"平和里","LIN":"22鄰","STREET":" ","SECT":" ","MAREA":"西平寮","LANE":" ","ALLEY":" ","HOUSE_NO":"２７號","E_COORD97":169178.01999999999,"N_COORD97":2573195.0299999998,"ADDRESS":"西平寮２７號","OBJECTID":258950},"geometry":{"x":169178.02000000048,"y":2573195.0300000012}},{"attributes":{"ID":258955,"DIS_CODE":0,"TOWNNAME":"學甲區","LI":"平和里","LIN":"22鄰","STREET":" ","SECT":" ","MAREA":"西平寮","LANE":" ","ALLEY":" ","HOUSE_NO":"２８號之１","E_COORD97":169202.48999999999,"N_COORD97":2573199.1699999999,"ADDRESS":"西平寮２８號之１","OBJECTID":258951},"geometry":{"x":169202.49000000115,"y":2573199.1699999999}},{"attributes":{"ID":258956,"DIS_CODE":0,"TOWNNAME":"學甲區","LI":"平和里","LIN":"22鄰","STREET":" ","SECT":" ","MAREA":"西平寮","LANE":" ","ALLEY":" ","HOUSE_NO":"２８號","E_COORD97":169187.28,"N_COORD97":2573210.29,"ADDRESS":"西平寮２８號","OBJECTID":258952},"geometry":{"x":169187.28000000026,"y":2573210.290000001}},{"attributes":{"ID":258957,"DIS_CODE":0,"TOWNNAME":"安南區","LI":"淵中里","LIN":"2鄰","STREET":"安中路","SECT":"三段","MAREA":" ","LANE":"４３９巷","ALLEY":" ","HOUSE_NO":"３３號","E_COORD97":165278.09925500001,"N_COORD97":2550016.4627499999,"ADDRESS":"安中路三段４３９巷３３號","OBJECTID":258953},"geometry":{"x":165278.09925500117,"y":2550016.462751003}},{"attributes":{"ID":258958,"DIS_CODE":0,"TOWNNAME":"學甲區","LI":"平和里","LIN":"22鄰","STREET":" ","SECT":" ","MAREA":"西平寮","LANE":" ","ALLEY":" ","HOUSE_NO":"３０號之１","E_COORD97":169202.48000000001,"N_COORD97":2573265.0600000001,"ADDRESS":"西平寮３０號之１","OBJECTID":258954},"geometry":{"x":169202.48000000138,"y":2573265.0600000005}},{"attributes":{"ID":258959,"DIS_CODE":0,"TOWNNAME":"學甲區","LI":"平和里","LIN":"22鄰","STREET":" ","SECT":" ","MAREA":"西平寮","LANE":" ","ALLEY":" ","HOUSE_NO":"３０號","E_COORD97":169207.82000000001,"N_COORD97":2573269.0099999998,"ADDRESS":"西平寮３０號","OBJECTID":258955},"geometry":{"x":169207.8200000003,"y":2573269.0099999998}},{"attributes":{"ID":258960,"DIS_CODE":0,"TOWNNAME":"學甲區","LI":"豐和里","LIN":"22鄰","STREET":" ","SECT":" ","MAREA":"美和","LANE":" ","ALLEY":" ","HOUSE_NO":"６３號之８","E_COORD97":168105.29999999999,"N_COORD97":2569143.0499999998,"ADDRESS":"美和６３號之８","OBJECTID":258956},"geometry":{"x":168105.29999999981,"y":2569143.0500000007}},{"attributes":{"ID":258961,"DIS_CODE":0,"TOWNNAME":"學甲區","LI":"豐和里","LIN":"22鄰","STREET":" ","SECT":" ","MAREA":"美和","LANE":" ","ALLEY":" ","HOUSE_NO":"６３號之９","E_COORD97":168107.54000000001,"N_COORD97":2569138.9199999999,"ADDRESS":"美和６３號之９","OBJECTID":258957},"geometry":{"x":168107.54000000004,"y":2569138.9200000018}},{"attributes":{"ID":258962,"DIS_CODE":0,"TOWNNAME":"學甲區","LI":"豐和里","LIN":"22鄰","STREET":" ","SECT":" ","MAREA":"美和","LANE":" ","ALLEY":" ","HOUSE_NO":"６３號","E_COORD97":168140.70000000001,"N_COORD97":2569119.3599999999,"ADDRESS":"美和６３號","OBJECTID":258958},"geometry":{"x":168140.70000000019,"y":2569119.3599999994}},{"attributes":{"ID":258963,"DIS_CODE":0,"TOWNNAME":"學甲區","LI":"豐和里","LIN":"22鄰","STREET":" ","SECT":" ","MAREA":"美和","LANE":" ","ALLEY":" ","HOUSE_NO":"６５號","E_COORD97":168166.42000000001,"N_COORD97":2569145.9900000002,"ADDRESS":"美和６５號","OBJECTID":258959},"geometry":{"x":168166.42000000179,"y":2569145.9900000002}},{"attributes":{"ID":258964,"DIS_CODE":0,"TOWNNAME":"學甲區","LI":"豐和里","LIN":"22鄰","STREET":" ","SECT":" ","MAREA":"美和","LANE":" ","ALLEY":" ","HOUSE_NO":"６７號","E_COORD97":168173.51000000001,"N_COORD97":2569114.0299999998,"ADDRESS":"美和６７號","OBJECTID":258960},"geometry":{"x":168173.50999999978,"y":2569114.0299999993}},{"attributes":{"ID":258965,"DIS_CODE":0,"TOWNNAME":"學甲區","LI":"豐和里","LIN":"22鄰","STREET":" ","SECT":" ","MAREA":"美和","LANE":" ","ALLEY":" ","HOUSE_NO":"６８號","E_COORD97":168156.95000000001,"N_COORD97":2569088.2999999998,"ADDRESS":"美和６８號","OBJECTID":258961},"geometry":{"x":168156.95000000112,"y":2569088.3000000045}},{"attributes":{"ID":258966,"DIS_CODE":0,"TOWNNAME":"學甲區","LI":"豐和里","LIN":"22鄰","STREET":" ","SECT":" ","MAREA":"美和","LANE":" ","ALLEY":" ","HOUSE_NO":"６９號之１","E_COORD97":168153.19,"N_COORD97":2569076.3500000001,"ADDRESS":"美和６９號之１","OBJECTID":258962},"geometry":{"x":168153.19000000227,"y":2569076.3500000034}},{"attributes":{"ID":258967,"DIS_CODE":0,"TOWNNAME":"學甲區","LI":"豐和里","LIN":"22鄰","STREET":" ","SECT":" ","MAREA":"美和","LANE":" ","ALLEY":" ","HOUSE_NO":"６９號","E_COORD97":168144.59,"N_COORD97":2569089.2599999998,"ADDRESS":"美和６９號","OBJECTID":258963},"geometry":{"x":168144.58999999985,"y":2569089.2599999998}},{"attributes":{"ID":258968,"DIS_CODE":0,"TOWNNAME":"學甲區","LI":"豐和里","LIN":"22鄰","STREET":" ","SECT":" ","MAREA":"美和","LANE":" ","ALLEY":" ","HOUSE_NO":"７０號","E_COORD97":168147.53,"N_COORD97":2569070.5899999999,"ADDRESS":"美和７０號","OBJECTID":258964},"geometry":{"x":168147.53000000119,"y":2569070.5899999999}},{"attributes":{"ID":258969,"DIS_CODE":0,"TOWNNAME":"北區","LI":"和順里","LIN":"22鄰","STREET":"臨安路","SECT":"二段","MAREA":" ","LANE":" ","ALLEY":" ","HOUSE_NO":"３１５號","E_COORD97":168221.76000000001,"N_COORD97":2545047.7799999998,"ADDRESS":"臨安路二段３１５號","OBJECTID":258965},"geometry":{"x":168221.76000000071,"y":2545047.7799999993}},{"attributes":{"ID":258970,"DIS_CODE":0,"TOWNNAME":"北區","LI":"和順里","LIN":"22鄰","STREET":"臨安路","SECT":"二段","MAREA":" ","LANE":" ","ALLEY":" ","HOUSE_NO":"３１７號","E_COORD97":168225.92999999999,"N_COORD97":2545049.2200000002,"ADDRESS":"臨安路二段３１７號","OBJECTID":258966},"geometry":{"x":168225.93000000063,"y":2545049.2200000007}},{"attributes":{"ID":258971,"DIS_CODE":0,"TOWNNAME":"北區","LI":"和順里","LIN":"22鄰","STREET":"臨安路","SECT":"二段","MAREA":" ","LANE":" ","ALLEY":" ","HOUSE_NO":"３１９號","E_COORD97":168229.67000000001,"N_COORD97":2545051.3700000001,"ADDRESS":"臨安路二段３１９號","OBJECTID":258967},"geometry":{"x":168229.67000000086,"y":2545051.3700000029}},{"attributes":{"ID":258972,"DIS_CODE":0,"TOWNNAME":"安南區","LI":"四草里","LIN":"3鄰","STREET":"大眾路","SECT":" ","MAREA":" ","LANE":"３０１巷","ALLEY":" ","HOUSE_NO":"３８１號","E_COORD97":162032.97604400001,"N_COORD97":2546019.4084800002,"ADDRESS":"大眾路３０１巷３８１號","OBJECTID":258968},"geometry":{"x":162032.97604400013,"y":2546019.4084779993}},{"attributes":{"ID":258973,"DIS_CODE":0,"TOWNNAME":"安南區","LI":"四草里","LIN":"3鄰","STREET":"大眾路","SECT":" ","MAREA":" ","LANE":"３０１巷","ALLEY":" ","HOUSE_NO":"３８０號","E_COORD97":162021.11571400001,"N_COORD97":2546031.2618,"ADDRESS":"大眾路３０１巷３８０號","OBJECTID":258969},"geometry":{"x":162021.11571399961,"y":2546031.2618049998}},{"attributes":{"ID":258974,"DIS_CODE":0,"TOWNNAME":"北區","LI":"和順里","LIN":"22鄰","STREET":"臨安路","SECT":"二段","MAREA":" ","LANE":" ","ALLEY":" ","HOUSE_NO":"３２１號","E_COORD97":168233.56,"N_COORD97":2545053.1000000001,"ADDRESS":"臨安路二段３２１號","OBJECTID":258970},"geometry":{"x":168233.56000000052,"y":2545053.0999999996}},{"attributes":{"ID":258975,"DIS_CODE":0,"TOWNNAME":"北區","LI":"和順里","LIN":"22鄰","STREET":"臨安路","SECT":"二段","MAREA":" ","LANE":" ","ALLEY":" ","HOUSE_NO":"３２３號","E_COORD97":168237.59,"N_COORD97":2545053.96,"ADDRESS":"臨安路二段３２３號","OBJECTID":258971},"geometry":{"x":168237.58999999985,"y":2545053.9600000028}},{"attributes":{"ID":258976,"DIS_CODE":0,"TOWNNAME":"安南區","LI":"四草里","LIN":"3鄰","STREET":"大眾路","SECT":" ","MAREA":" ","LANE":"３０１巷","ALLEY":" ","HOUSE_NO":"３２２號","E_COORD97":162077.24049,"N_COORD97":2546206.52171,"ADDRESS":"大眾路３０１巷３２２號","OBJECTID":258972},"geometry":{"x":162077.24049000163,"y":2546206.5217100009}},{"attributes":{"ID":258977,"DIS_CODE":0,"TOWNNAME":"仁德區","LI":"仁德里","LIN":"2鄰","STREET":"中正路","SECT":"二段","MAREA":" ","LANE":"７２９巷","ALLEY":" ","HOUSE_NO":"６之１號","E_COORD97":173433.05851999999,"N_COORD97":2540187.6944499998,"ADDRESS":"中正路二段７２９巷６之１號","OBJECTID":258973},"geometry":{"x":173433.05852000043,"y":2540187.6944519989}},{"attributes":{"ID":258978,"DIS_CODE":0,"TOWNNAME":"仁德區","LI":"仁德里","LIN":"2鄰","STREET":"中正路","SECT":"二段","MAREA":" ","LANE":"７２９巷","ALLEY":" ","HOUSE_NO":"１８號","E_COORD97":173407.212237,"N_COORD97":2540151.1819699998,"ADDRESS":"中正路二段７２９巷１８號","OBJECTID":258974},"geometry":{"x":173407.2122370014,"y":2540151.1819710024}},{"attributes":{"ID":258979,"DIS_CODE":0,"TOWNNAME":"安南區","LI":"四草里","LIN":"3鄰","STREET":"大眾路","SECT":" ","MAREA":" ","LANE":"３０１巷","ALLEY":" ","HOUSE_NO":"２８２號","E_COORD97":162098.72984099999,"N_COORD97":2546308.5150199998,"ADDRESS":"大眾路３０１巷２８２號","OBJECTID":258975},"geometry":{"x":162098.72984100133,"y":2546308.5150200035}},{"attributes":{"ID":258980,"DIS_CODE":0,"TOWNNAME":"仁德區","LI":"仁德里","LIN":"2鄰","STREET":"中正路","SECT":"二段","MAREA":" ","LANE":"７２９巷","ALLEY":" ","HOUSE_NO":"７號","E_COORD97":173434.11779300001,"N_COORD97":2540166.8453000002,"ADDRESS":"中正路二段７２９巷７號","OBJECTID":258976},"geometry":{"x":173434.11779300123,"y":2540166.8452959992}},{"attributes":{"ID":258981,"DIS_CODE":0,"TOWNNAME":"新營區","LI":"大宏里","LIN":"10鄰","STREET":"民治路","SECT":" ","MAREA":" ","LANE":"２９巷","ALLEY":" ","HOUSE_NO":"１０之５號","E_COORD97":180149.94811,"N_COORD97":2578814.12475,"ADDRESS":"民治路２９巷１０之５號","OBJECTID":258977},"geometry":{"x":180149.94811000116,"y":2578814.124752}},{"attributes":{"ID":258982,"DIS_CODE":0,"TOWNNAME":"新營區","LI":"大宏里","LIN":"10鄰","STREET":"民治路","SECT":" ","MAREA":" ","LANE":"２９巷","ALLEY":" ","HOUSE_NO":"１０號之８","E_COORD97":180142.10329,"N_COORD97":2578805.9755899999,"ADDRESS":"民治路２９巷１０號之８","OBJECTID":258978},"geometry":{"x":180142.10329000186,"y":2578805.9755900018}},{"attributes":{"ID":258983,"DIS_CODE":0,"TOWNNAME":"新營區","LI":"大宏里","LIN":"10鄰","STREET":"民治路","SECT":" ","MAREA":" ","LANE":"２９巷","ALLEY":" ","HOUSE_NO":"１２號","E_COORD97":180170.72626699999,"N_COORD97":2578807.3514200002,"ADDRESS":"民治路２９巷１２號","OBJECTID":258979},"geometry":{"x":180170.72626700066,"y":2578807.3514220025}},{"attributes":{"ID":258984,"DIS_CODE":0,"TOWNNAME":"安南區","LI":"四草里","LIN":"3鄰","STREET":"大眾路","SECT":" ","MAREA":" ","LANE":"３０１巷","ALLEY":" ","HOUSE_NO":"２７９號","E_COORD97":162133.35027200001,"N_COORD97":2546399.8266599998,"ADDRESS":"大眾路３０１巷２７９號","OBJECTID":258980},"geometry":{"x":162133.35027199984,"y":2546399.8266610038}},{"attributes":{"ID":258985,"DIS_CODE":0,"TOWNNAME":"新營區","LI":"大宏里","LIN":"10鄰","STREET":"民治路","SECT":" ","MAREA":" ","LANE":"２９巷","ALLEY":" ","HOUSE_NO":"１７號","E_COORD97":180191.23939500001,"N_COORD97":2578802.3112900001,"ADDRESS":"民治路２９巷１７號","OBJECTID":258981},"geometry":{"x":180191.23939500004,"y":2578802.3112920001}},{"attributes":{"ID":258986,"DIS_CODE":0,"TOWNNAME":"歸仁區","LI":"八甲里","LIN":"22鄰","STREET":"大德路","SECT":" ","MAREA":" ","LANE":" ","ALLEY":" ","HOUSE_NO":"９２號","E_COORD97":178174.12,"N_COORD97":2541289.1200000001,"ADDRESS":"大德路９２號","OBJECTID":258982},"geometry":{"x":178174.12000000104,"y":2541289.1200000029}},{"attributes":{"ID":258987,"DIS_CODE":0,"TOWNNAME":"仁德區","LI":"仁德里","LIN":"2鄰","STREET":"中正路","SECT":"二段","MAREA":" ","LANE":"７２９巷","ALLEY":" ","HOUSE_NO":"１２號","E_COORD97":173419.39388600001,"N_COORD97":2540172.1369599998,"ADDRESS":"中正路二段７２９巷１２號","OBJECTID":258983},"geometry":{"x":173419.39388600085,"y":2540172.1369599998}},{"attributes":{"ID":258988,"DIS_CODE":0,"TOWNNAME":"歸仁區","LI":"八甲里","LIN":"22鄰","STREET":"文化街","SECT":"一段","MAREA":" ","LANE":" ","ALLEY":" ","HOUSE_NO":"２２號","E_COORD97":178235.17999999999,"N_COORD97":2541288.1299999999,"ADDRESS":"文化街一段２２號","OBJECTID":258984},"geometry":{"x":178235.1799999997,"y":2541288.129999999}},{"attributes":{"ID":258989,"DIS_CODE":0,"TOWNNAME":"歸仁區","LI":"大廟里","LIN":"22鄰","STREET":"大廟一街","SECT":" ","MAREA":" ","LANE":" ","ALLEY":" ","HOUSE_NO":"７２號","E_COORD97":175765.67000000001,"N_COORD97":2543976.25,"ADDRESS":"大廟一街７２號","OBJECTID":258985},"geometry":{"x":175765.66999999993,"y":2543976.2500000019}},{"attributes":{"ID":258990,"DIS_CODE":0,"TOWNNAME":"新營區","LI":"大宏里","LIN":"10鄰","STREET":"民治路","SECT":" ","MAREA":" ","LANE":"２９巷","ALLEY":" ","HOUSE_NO":"２２之２號","E_COORD97":180160.708227,"N_COORD97":2578768.8150599999,"ADDRESS":"民治路２９巷２２之２號","OBJECTID":258986},"geometry":{"x":180160.70822700113,"y":2578768.8150600009}},{"attributes":{"ID":258991,"DIS_CODE":0,"TOWNNAME":"安南區","LI":"四草里","LIN":"3鄰","STREET":"大眾路","SECT":" ","MAREA":" ","LANE":"３０１巷","ALLEY":" ","HOUSE_NO":"３６６號","E_COORD97":162057.33207,"N_COORD97":2546138.3650799999,"ADDRESS":"大眾路３０１巷３６６號","OBJECTID":258987},"geometry":{"x":162057.33207000047,"y":2546138.365079999}},{"attributes":{"ID":258992,"DIS_CODE":0,"TOWNNAME":"新營區","LI":"大宏里","LIN":"10鄰","STREET":"民治路","SECT":" ","MAREA":" ","LANE":"２９巷","ALLEY":" ","HOUSE_NO":"２２之４號","E_COORD97":180151.90931399999,"N_COORD97":2578765.5342299999,"ADDRESS":"民治路２９巷２２之４號","OBJECTID":258988},"geometry":{"x":180151.90931400098,"y":2578765.5342289992}},{"attributes":{"ID":258993,"DIS_CODE":0,"TOWNNAME":"新營區","LI":"大宏里","LIN":"10鄰","STREET":"民治路","SECT":" ","MAREA":" ","LANE":"２９巷","ALLEY":" ","HOUSE_NO":"２２號之１","E_COORD97":180164.63063,"N_COORD97":2578769.8733899998,"ADDRESS":"民治路２９巷２２號之１","OBJECTID":258989},"geometry":{"x":180164.63063000049,"y":2578769.8733900003}},{"attributes":{"ID":258994,"DIS_CODE":0,"TOWNNAME":"新營區","LI":"大宏里","LIN":"10鄰","STREET":"民治路","SECT":" ","MAREA":" ","LANE":"２９巷","ALLEY":" ","HOUSE_NO":"２４號","E_COORD97":180180.53228399999,"N_COORD97":2578759.7133999998,"ADDRESS":"民治路２９巷２４號","OBJECTID":258990},"geometry":{"x":180180.53228400089,"y":2578759.7133989986}},{"attributes":{"ID":258995,"DIS_CODE":0,"TOWNNAME":"仁德區","LI":"仁德里","LIN":"2鄰","STREET":"中正路","SECT":"二段","MAREA":" ","LANE":"７２９巷","ALLEY":" ","HOUSE_NO":"１２之１號","E_COORD97":173416.21606499999,"N_COORD97":2540168.1152900001,"ADDRESS":"中正路二段７２９巷１２之１號","OBJECTID":258991},"geometry":{"x":173416.21606499981,"y":2540168.1152950022}},{"attributes":{"ID":258996,"DIS_CODE":0,"TOWNNAME":"關廟區","LI":"龜洞里","LIN":"3鄰","STREET":"中崙街","SECT":" ","MAREA":" ","LANE":"５１巷","ALLEY":" ","HOUSE_NO":"１８號","E_COORD97":183137.60203499999,"N_COORD97":2533685.3243,"ADDRESS":"中崙街５１巷１８號","OBJECTID":258992},"geometry":{"x":183137.60203500092,"y":2533685.3242969997}},{"attributes":{"ID":258997,"DIS_CODE":0,"TOWNNAME":"歸仁區","LI":"後市里","LIN":"48鄰","STREET":"民權北路","SECT":" ","MAREA":" ","LANE":"１０６巷","ALLEY":" ","HOUSE_NO":"１０號","E_COORD97":177027.00419499999,"N_COORD97":2541122.23942,"ADDRESS":"民權北路１０６巷１０號","OBJECTID":258993},"geometry":{"x":177027.00419500005,"y":2541122.2394239996}},{"attributes":{"ID":258998,"DIS_CODE":0,"TOWNNAME":"東區","LI":"大福里","LIN":"4鄰","STREET":"立德二路","SECT":" ","MAREA":" ","LANE":"８巷","ALLEY":" ","HOUSE_NO":"３號","E_COORD97":169486.48000000001,"N_COORD97":2541700.9399999999,"ADDRESS":"立德二路８巷３號","OBJECTID":258994},"geometry":{"x":169486.48000000045,"y":2541700.9399999995}},{"attributes":{"ID":258999,"DIS_CODE":0,"TOWNNAME":"東區","LI":"大福里","LIN":"4鄰","STREET":"立德二路","SECT":" ","MAREA":" ","LANE":"２２巷","ALLEY":" ","HOUSE_NO":"１９號之１","E_COORD97":169530.42999999999,"N_COORD97":2541710.54,"ADDRESS":"立德二路２２巷１９號之１","OBJECTID":258995},"geometry":{"x":169530.4299999997,"y":2541710.5399999972}},{"attributes":{"ID":259000,"DIS_CODE":0,"TOWNNAME":"東區","LI":"中西里","LIN":"9鄰","STREET":"勝利路","SECT":" ","MAREA":" ","LANE":" ","ALLEY":" ","HOUSE_NO":"８０號","E_COORD97":169821.85000000001,"N_COORD97":2543633.0800000001,"ADDRESS":"勝利路８０號","OBJECTID":258996},"geometry":{"x":169821.84999999963,"y":2543633.0800000001}},{"attributes":{"ID":259001,"DIS_CODE":0,"TOWNNAME":"楠西區","LI":"東勢里","LIN":"22鄰","STREET":"民權路","SECT":" ","MAREA":" ","LANE":" ","ALLEY":" ","HOUSE_NO":"１３３號","E_COORD97":197623.19,"N_COORD97":2564283.29,"ADDRESS":"民權路１３３號","OBJECTID":258997},"geometry":{"x":197623.19000000041,"y":2564283.290000001}},{"attributes":{"ID":259002,"DIS_CODE":0,"TOWNNAME":"楠西區","LI":"東勢里","LIN":"22鄰","STREET":"民權路","SECT":" ","MAREA":" ","LANE":" ","ALLEY":" ","HOUSE_NO":"１２９號","E_COORD97":197612.79000000001,"N_COORD97":2564282.29,"ADDRESS":"民權路１２９號","OBJECTID":258998},"geometry":{"x":197612.7900000019,"y":2564282.2900000028}},{"attributes":{"ID":259003,"DIS_CODE":0,"TOWNNAME":"楠西區","LI":"楠西里","LIN":"22鄰","STREET":"中正路","SECT":" ","MAREA":" ","LANE":" ","ALLEY":" ","HOUSE_NO":"２１２號","E_COORD97":197366.26000000001,"N_COORD97":2563757.25,"ADDRESS":"中正路２１２號","OBJECTID":258999},"geometry":{"x":197366.25999999978,"y":2563757.25}},{"attributes":{"ID":259004,"DIS_CODE":0,"TOWNNAME":"東區","LI":"大福里","LIN":"4鄰","STREET":"立德二路","SECT":" ","MAREA":" ","LANE":"２２巷","ALLEY":" ","HOUSE_NO":"１９號之２","E_COORD97":169524.5,"N_COORD97":2541709.1499999999,"ADDRESS":"立德二路２２巷１９號之２","OBJECTID":259000},"geometry":{"x":169524.50000000093,"y":2541709.1500000022}}]}