{"displayFieldName":"TOWNNAME","fieldAliases":{"ID":"ID","DIS_CODE":"DIS_CODE","TOWNNAME":"TOWNNAME","LI":"LI","LIN":"LIN","STREET":"STREET","SECT":"SECT","MAREA":"MAREA","LANE":"LANE","ALLEY":"ALLEY","HOUSE_NO":"HOUSE_NO","E_COORD97":"E_COORD97","N_COORD97":"N_COORD97","ADDRESS":"ADDRESS","OBJECTID":"OBJECTID"},"geometryType":"esriGeometryPoint","spatialReference":{"wkid":102443,"latestWkid":3826},"fields":[{"name":"ID","type":"esriFieldTypeDouble","alias":"ID"},{"name":"DIS_CODE","type":"esriFieldTypeInteger","alias":"DIS_CODE"},{"name":"TOWNNAME","type":"esriFieldTypeString","alias":"TOWNNAME","length":8},{"name":"LI","type":"esriFieldTypeString","alias":"LI","length":8},{"name":"LIN","type":"esriFieldTypeString","alias":"LIN","length":12},{"name":"STREET","type":"esriFieldTypeString","alias":"STREET","length":20},{"name":"SECT","type":"esriFieldTypeString","alias":"SECT","length":8},{"name":"MAREA","type":"esriFieldTypeString","alias":"MAREA","length":12},{"name":"LANE","type":"esriFieldTypeString","alias":"LANE","length":10},{"name":"ALLEY","type":"esriFieldTypeString","alias":"ALLEY","length":10},{"name":"HOUSE_NO","type":"esriFieldTypeString","alias":"HOUSE_NO","length":20},{"name":"E_COORD97","type":"esriFieldTypeDouble","alias":"E_COORD97"},{"name":"N_COORD97","type":"esriFieldTypeDouble","alias":"N_COORD97"},{"name":"ADDRESS","type":"esriFieldTypeString","alias":"ADDRESS","length":50},{"name":"OBJECTID","type":"esriFieldTypeOID","alias":"OBJECTID"}],"features":[{"attributes":{"ID":539228,"DIS_CODE":0,"TOWNNAME":"佳里區","LI":"忠仁里","LIN":"10鄰","STREET":"興中街","SECT":" ","MAREA":" ","LANE":" ","ALLEY":" ","HOUSE_NO":"４０號","E_COORD97":165923.45999999999,"N_COORD97":2562200.8999999999,"ADDRESS":"興中街４０號","OBJECTID":539201},"geometry":{"x":165923.46000000183,"y":2562200.8999999985}},{"attributes":{"ID":539229,"DIS_CODE":0,"TOWNNAME":"下營區","LI":"新興里","LIN":"12鄰","STREET":"大同街","SECT":" ","MAREA":" ","LANE":" ","ALLEY":" ","HOUSE_NO":"２７號","E_COORD97":174626.56,"N_COORD97":2570642.1099999999,"ADDRESS":"大同街２７號","OBJECTID":539202},"geometry":{"x":174626.55999999959,"y":2570642.1100000013}},{"attributes":{"ID":539230,"DIS_CODE":0,"TOWNNAME":"下營區","LI":"新興里","LIN":"12鄰","STREET":"大同街","SECT":" ","MAREA":" ","LANE":" ","ALLEY":" ","HOUSE_NO":"３３號","E_COORD97":174613.95000000001,"N_COORD97":2570657.79,"ADDRESS":"大同街３３號","OBJECTID":539203},"geometry":{"x":174613.95000000112,"y":2570657.790000001}},{"attributes":{"ID":539231,"DIS_CODE":0,"TOWNNAME":"下營區","LI":"後街里","LIN":"12鄰","STREET":"大同街","SECT":" ","MAREA":" ","LANE":" ","ALLEY":" ","HOUSE_NO":"５２號","E_COORD97":174570.03,"N_COORD97":2570662.75,"ADDRESS":"大同街５２號","OBJECTID":539204},"geometry":{"x":174570.03000000026,"y":2570662.75}},{"attributes":{"ID":539232,"DIS_CODE":0,"TOWNNAME":"下營區","LI":"後街里","LIN":"12鄰","STREET":"大同街","SECT":" ","MAREA":" ","LANE":" ","ALLEY":" ","HOUSE_NO":"５６號","E_COORD97":174565.12,"N_COORD97":2570661.3100000001,"ADDRESS":"大同街５６號","OBJECTID":539205},"geometry":{"x":174565.12000000104,"y":2570661.3100000024}},{"attributes":{"ID":539233,"DIS_CODE":0,"TOWNNAME":"下營區","LI":"後街里","LIN":"12鄰","STREET":"大同街","SECT":" ","MAREA":" ","LANE":" ","ALLEY":" ","HOUSE_NO":"６２號","E_COORD97":174550.92000000001,"N_COORD97":2570656.4700000002,"ADDRESS":"大同街６２號","OBJECTID":539206},"geometry":{"x":174550.92000000086,"y":2570656.4700000044}},{"attributes":{"ID":539234,"DIS_CODE":0,"TOWNNAME":"下營區","LI":"後街里","LIN":"12鄰","STREET":"大同街","SECT":" ","MAREA":" ","LANE":" ","ALLEY":" ","HOUSE_NO":"６６號","E_COORD97":174545.41,"N_COORD97":2570655.0499999998,"ADDRESS":"大同街６６號","OBJECTID":539207},"geometry":{"x":174545.41000000015,"y":2570655.0500000007}},{"attributes":{"ID":539235,"DIS_CODE":0,"TOWNNAME":"下營區","LI":"後街里","LIN":"12鄰","STREET":"大同街","SECT":" ","MAREA":" ","LANE":" ","ALLEY":" ","HOUSE_NO":"６８號","E_COORD97":174541.09,"N_COORD97":2570653.7000000002,"ADDRESS":"大同街６８號","OBJECTID":539208},"geometry":{"x":174541.09000000078,"y":2570653.700000003}},{"attributes":{"ID":539236,"DIS_CODE":0,"TOWNNAME":"下營區","LI":"後街里","LIN":"12鄰","STREET":"大同街","SECT":" ","MAREA":" ","LANE":" ","ALLEY":" ","HOUSE_NO":"７０號","E_COORD97":174536.76000000001,"N_COORD97":2570652.3599999999,"ADDRESS":"大同街７０號","OBJECTID":539209},"geometry":{"x":174536.76000000071,"y":2570652.3599999975}},{"attributes":{"ID":539237,"DIS_CODE":0,"TOWNNAME":"下營區","LI":"後街里","LIN":"12鄰","STREET":"大同街","SECT":" ","MAREA":" ","LANE":" ","ALLEY":" ","HOUSE_NO":"７２號","E_COORD97":174532.23999999999,"N_COORD97":2570651.0899999999,"ADDRESS":"大同街７２號","OBJECTID":539210},"geometry":{"x":174532.24000000115,"y":2570651.0899999999}},{"attributes":{"ID":539238,"DIS_CODE":0,"TOWNNAME":"下營區","LI":"後街里","LIN":"12鄰","STREET":"大同街","SECT":" ","MAREA":" ","LANE":" ","ALLEY":" ","HOUSE_NO":"８６號","E_COORD97":174523.79000000001,"N_COORD97":2570650.1000000001,"ADDRESS":"大同街８６號","OBJECTID":539211},"geometry":{"x":174523.79000000004,"y":2570650.0999999996}},{"attributes":{"ID":539239,"DIS_CODE":0,"TOWNNAME":"中西區","LI":"青年里","LIN":"12鄰","STREET":"民權路","SECT":"一段","MAREA":" ","LANE":" ","ALLEY":" ","HOUSE_NO":"２６０號","E_COORD97":168712.72,"N_COORD97":2543752.4900000002,"ADDRESS":"民權路一段２６０號","OBJECTID":539212},"geometry":{"x":168712.71999999974,"y":2543752.4900000002}},{"attributes":{"ID":539240,"DIS_CODE":0,"TOWNNAME":"中西區","LI":"青年里","LIN":"12鄰","STREET":"民權路","SECT":"一段","MAREA":" ","LANE":" ","ALLEY":" ","HOUSE_NO":"２６２號","E_COORD97":168712.72,"N_COORD97":2543755.5099999998,"ADDRESS":"民權路一段２６２號","OBJECTID":539213},"geometry":{"x":168712.71999999974,"y":2543755.5099999998}},{"attributes":{"ID":539241,"DIS_CODE":0,"TOWNNAME":"中西區","LI":"青年里","LIN":"12鄰","STREET":"民權路","SECT":"一段","MAREA":" ","LANE":" ","ALLEY":" ","HOUSE_NO":"２６４號","E_COORD97":168707.87,"N_COORD97":2543758.54,"ADDRESS":"民權路一段２６４號","OBJECTID":539214},"geometry":{"x":168707.87000000104,"y":2543758.5400000028}},{"attributes":{"ID":539242,"DIS_CODE":0,"TOWNNAME":"中西區","LI":"青年里","LIN":"12鄰","STREET":"民權路","SECT":"一段","MAREA":" ","LANE":" ","ALLEY":" ","HOUSE_NO":"２６６號","E_COORD97":168710,"N_COORD97":2543763.3799999999,"ADDRESS":"民權路一段２６６號","OBJECTID":539215},"geometry":{"x":168710.00000000186,"y":2543763.3800000008}},{"attributes":{"ID":539243,"DIS_CODE":0,"TOWNNAME":"中西區","LI":"青年里","LIN":"12鄰","STREET":"民權路","SECT":"一段","MAREA":" ","LANE":" ","ALLEY":" ","HOUSE_NO":"２６８號","E_COORD97":168706.06,"N_COORD97":2543767.0099999998,"ADDRESS":"民權路一段２６８號","OBJECTID":539216},"geometry":{"x":168706.06000000052,"y":2543767.0100000016}},{"attributes":{"ID":539244,"DIS_CODE":0,"TOWNNAME":"中西區","LI":"青年里","LIN":"12鄰","STREET":"民權路","SECT":"一段","MAREA":" ","LANE":" ","ALLEY":" ","HOUSE_NO":"２７０號","E_COORD97":168703.03,"N_COORD97":2543770.6400000001,"ADDRESS":"民權路一段２７０號","OBJECTID":539217},"geometry":{"x":168703.03000000026,"y":2543770.6400000025}},{"attributes":{"ID":539245,"DIS_CODE":0,"TOWNNAME":"中西區","LI":"青年里","LIN":"12鄰","STREET":"民權路","SECT":"一段","MAREA":" ","LANE":" ","ALLEY":" ","HOUSE_NO":"２７４號","E_COORD97":168698.48000000001,"N_COORD97":2543776.6899999999,"ADDRESS":"民權路一段２７４號","OBJECTID":539218},"geometry":{"x":168698.48000000045,"y":2543776.6899999995}},{"attributes":{"ID":539246,"DIS_CODE":0,"TOWNNAME":"中西區","LI":"青年里","LIN":"12鄰","STREET":"民權路","SECT":"一段","MAREA":" ","LANE":" ","ALLEY":" ","HOUSE_NO":"２７６號","E_COORD97":168695.45000000001,"N_COORD97":2543781.23,"ADDRESS":"民權路一段２７６號","OBJECTID":539219},"geometry":{"x":168695.45000000112,"y":2543781.2300000004}},{"attributes":{"ID":539247,"DIS_CODE":0,"TOWNNAME":"中西區","LI":"青年里","LIN":"12鄰","STREET":"衛民街","SECT":" ","MAREA":" ","LANE":" ","ALLEY":" ","HOUSE_NO":"１４５號","E_COORD97":168725.64000000001,"N_COORD97":2543771.7999999998,"ADDRESS":"衛民街１４５號","OBJECTID":539220},"geometry":{"x":168725.64000000153,"y":2543771.8000000007}},{"attributes":{"ID":539248,"DIS_CODE":0,"TOWNNAME":"中西區","LI":"青年里","LIN":"12鄰","STREET":"衛民街","SECT":" ","MAREA":" ","LANE":" ","ALLEY":" ","HOUSE_NO":"１４９號","E_COORD97":168717.23999999999,"N_COORD97":2543777.79,"ADDRESS":"衛民街１４９號","OBJECTID":539221},"geometry":{"x":168717.24000000115,"y":2543777.790000001}},{"attributes":{"ID":539249,"DIS_CODE":0,"TOWNNAME":"中西區","LI":"赤嵌里","LIN":"12鄰","STREET":"中成路","SECT":" ","MAREA":" ","LANE":" ","ALLEY":" ","HOUSE_NO":"３６號","E_COORD97":168529.54999999999,"N_COORD97":2544219.2400000002,"ADDRESS":"中成路３６號","OBJECTID":539222},"geometry":{"x":168529.54999999981,"y":2544219.2399999984}},{"attributes":{"ID":539250,"DIS_CODE":0,"TOWNNAME":"中西區","LI":"藥王里","LIN":"12鄰","STREET":"和善街","SECT":" ","MAREA":" ","LANE":" ","ALLEY":" ","HOUSE_NO":"１１之１號","E_COORD97":167109.63,"N_COORD97":2544549.48,"ADDRESS":"和善街１１之１號","OBJECTID":539223},"geometry":{"x":167109.62999999989,"y":2544549.4800000004}},{"attributes":{"ID":539251,"DIS_CODE":0,"TOWNNAME":"中西區","LI":"藥王里","LIN":"12鄰","STREET":"臨安路","SECT":"一段","MAREA":" ","LANE":" ","ALLEY":" ","HOUSE_NO":"１４３號","E_COORD97":167129.98999999999,"N_COORD97":2544529.1099999999,"ADDRESS":"臨安路一段１４３號","OBJECTID":539224},"geometry":{"x":167129.99000000022,"y":2544529.1100000013}},{"attributes":{"ID":539252,"DIS_CODE":0,"TOWNNAME":"中西區","LI":"光賢里","LIN":"12鄰","STREET":"中華西路","SECT":"二段","MAREA":" ","LANE":" ","ALLEY":" ","HOUSE_NO":"４６０號","E_COORD97":166673.64000000001,"N_COORD97":2544665.7799999998,"ADDRESS":"中華西路二段４６０號","OBJECTID":539225},"geometry":{"x":166673.63999999966,"y":2544665.7800000031}},{"attributes":{"ID":539253,"DIS_CODE":0,"TOWNNAME":"安南區","LI":"安慶里","LIN":"12鄰","STREET":"長溪路","SECT":"一段","MAREA":" ","LANE":" ","ALLEY":" ","HOUSE_NO":"８９號","E_COORD97":169132.10000000001,"N_COORD97":2548376.4700000002,"ADDRESS":"長溪路一段８９號","OBJECTID":539226},"geometry":{"x":169132.09999999963,"y":2548376.4700000025}},{"attributes":{"ID":539254,"DIS_CODE":0,"TOWNNAME":"安南區","LI":"頂安里","LIN":"12鄰","STREET":"長溪路","SECT":"二段","MAREA":" ","LANE":" ","ALLEY":" ","HOUSE_NO":"１２０號","E_COORD97":168407.88,"N_COORD97":2549528.4199999999,"ADDRESS":"長溪路二段１２０號","OBJECTID":539227},"geometry":{"x":168407.88000000082,"y":2549528.4200000018}},{"attributes":{"ID":539255,"DIS_CODE":0,"TOWNNAME":"安南區","LI":"頂安里","LIN":"12鄰","STREET":"長溪路","SECT":"二段","MAREA":" ","LANE":" ","ALLEY":" ","HOUSE_NO":"１２２號","E_COORD97":168408.26999999999,"N_COORD97":2549533.8300000001,"ADDRESS":"長溪路二段１２２號","OBJECTID":539228},"geometry":{"x":168408.27000000048,"y":2549533.8300000001}},{"attributes":{"ID":539256,"DIS_CODE":0,"TOWNNAME":"安南區","LI":"頂安里","LIN":"12鄰","STREET":"長溪路","SECT":"二段","MAREA":" ","LANE":" ","ALLEY":" ","HOUSE_NO":"１２５號","E_COORD97":168369.57000000001,"N_COORD97":2549538.0899999999,"ADDRESS":"長溪路二段１２５號","OBJECTID":539229},"geometry":{"x":168369.57000000123,"y":2549538.0899999999}},{"attributes":{"ID":539257,"DIS_CODE":0,"TOWNNAME":"安南區","LI":"頂安里","LIN":"12鄰","STREET":"長溪路","SECT":"二段","MAREA":" ","LANE":" ","ALLEY":" ","HOUSE_NO":"１４２號","E_COORD97":168390.47,"N_COORD97":2549663.7400000002,"ADDRESS":"長溪路二段１４２號","OBJECTID":539230},"geometry":{"x":168390.46999999974,"y":2549663.7400000002}},{"attributes":{"ID":539258,"DIS_CODE":0,"TOWNNAME":"安南區","LI":"頂安里","LIN":"12鄰","STREET":"長溪路","SECT":"二段","MAREA":" ","LANE":" ","ALLEY":" ","HOUSE_NO":"７１號","E_COORD97":168369.57000000001,"N_COORD97":2549425.5800000001,"ADDRESS":"長溪路二段７１號","OBJECTID":539231},"geometry":{"x":168369.57000000123,"y":2549425.5800000019}},{"attributes":{"ID":539259,"DIS_CODE":0,"TOWNNAME":"新市區","LI":"新和里","LIN":"12鄰","STREET":"可口街","SECT":" ","MAREA":" ","LANE":" ","ALLEY":" ","HOUSE_NO":"１６號","E_COORD97":177583.01000000001,"N_COORD97":2552396.75,"ADDRESS":"可口街１６號","OBJECTID":539232},"geometry":{"x":177583.01000000071,"y":2552396.7500000037}},{"attributes":{"ID":539260,"DIS_CODE":0,"TOWNNAME":"新市區","LI":"新和里","LIN":"12鄰","STREET":"可口街","SECT":" ","MAREA":" ","LANE":" ","ALLEY":" ","HOUSE_NO":"２０號","E_COORD97":177586.92999999999,"N_COORD97":2552403.75,"ADDRESS":"可口街２０號","OBJECTID":539233},"geometry":{"x":177586.93000000063,"y":2552403.7500000037}},{"attributes":{"ID":539261,"DIS_CODE":0,"TOWNNAME":"新市區","LI":"新和里","LIN":"12鄰","STREET":"可口街","SECT":" ","MAREA":" ","LANE":" ","ALLEY":" ","HOUSE_NO":"３０號","E_COORD97":177594.78,"N_COORD97":2552424.5,"ADDRESS":"可口街３０號","OBJECTID":539234},"geometry":{"x":177594.78000000119,"y":2552424.5}},{"attributes":{"ID":539262,"DIS_CODE":0,"TOWNNAME":"新市區","LI":"港墘里","LIN":"12鄰","STREET":"中山路","SECT":" ","MAREA":" ","LANE":" ","ALLEY":" ","HOUSE_NO":"１３８號","E_COORD97":178369.29000000001,"N_COORD97":2552736.5,"ADDRESS":"中山路１３８號","OBJECTID":539235},"geometry":{"x":178369.29000000097,"y":2552736.5}},{"attributes":{"ID":539263,"DIS_CODE":0,"TOWNNAME":"佳里區","LI":"鎮山里","LIN":"12鄰","STREET":"仁愛路","SECT":" ","MAREA":" ","LANE":" ","ALLEY":" ","HOUSE_NO":"２７４號","E_COORD97":166072.64999999999,"N_COORD97":2561506.2200000002,"ADDRESS":"仁愛路２７４號","OBJECTID":539236},"geometry":{"x":166072.65000000037,"y":2561506.2200000007}},{"attributes":{"ID":539264,"DIS_CODE":0,"TOWNNAME":"新市區","LI":"永就里","LIN":"12鄰","STREET":"永華二街","SECT":" ","MAREA":" ","LANE":" ","ALLEY":" ","HOUSE_NO":"１５號","E_COORD97":177755.79000000001,"N_COORD97":2551050.75,"ADDRESS":"永華二街１５號","OBJECTID":539237},"geometry":{"x":177755.79000000097,"y":2551050.7500000037}},{"attributes":{"ID":539265,"DIS_CODE":0,"TOWNNAME":"新市區","LI":"港墘里","LIN":"12鄰","STREET":"中山路","SECT":" ","MAREA":" ","LANE":" ","ALLEY":" ","HOUSE_NO":"１３８之２號","E_COORD97":178367.63,"N_COORD97":2552728.0499999998,"ADDRESS":"中山路１３８之２號","OBJECTID":539238},"geometry":{"x":178367.62999999989,"y":2552728.0500000045}},{"attributes":{"ID":539266,"DIS_CODE":0,"TOWNNAME":"新市區","LI":"永就里","LIN":"12鄰","STREET":"永華二街","SECT":" ","MAREA":" ","LANE":" ","ALLEY":" ","HOUSE_NO":"９號","E_COORD97":177728.67000000001,"N_COORD97":2551042,"ADDRESS":"永華二街９號","OBJECTID":539239},"geometry":{"x":177728.66999999993,"y":2551042}},{"attributes":{"ID":539267,"DIS_CODE":0,"TOWNNAME":"安南區","LI":"海南里","LIN":"12鄰","STREET":"府安路","SECT":"七段","MAREA":" ","LANE":" ","ALLEY":" ","HOUSE_NO":"４１０號之３０","E_COORD97":164017.70000000001,"N_COORD97":2546012.04,"ADDRESS":"府安路七段４１０號之３０","OBJECTID":539240},"geometry":{"x":164017.70000000019,"y":2546012.0399999991}},{"attributes":{"ID":539268,"DIS_CODE":0,"TOWNNAME":"安南區","LI":"新順里","LIN":"12鄰","STREET":"育安街","SECT":" ","MAREA":" ","LANE":" ","ALLEY":" ","HOUSE_NO":"１號","E_COORD97":169602.82999999999,"N_COORD97":2549540.2000000002,"ADDRESS":"育安街１號","OBJECTID":539241},"geometry":{"x":169602.83000000194,"y":2549540.1999999993}},{"attributes":{"ID":539269,"DIS_CODE":0,"TOWNNAME":"安南區","LI":"新順里","LIN":"12鄰","STREET":"育安街","SECT":" ","MAREA":" ","LANE":" ","ALLEY":" ","HOUSE_NO":"３號","E_COORD97":169604.85999999999,"N_COORD97":2549543.98,"ADDRESS":"育安街３號","OBJECTID":539242},"geometry":{"x":169604.86000000127,"y":2549543.9800000004}},{"attributes":{"ID":539270,"DIS_CODE":0,"TOWNNAME":"安南區","LI":"新順里","LIN":"12鄰","STREET":"育安街","SECT":" ","MAREA":" ","LANE":" ","ALLEY":" ","HOUSE_NO":"９號","E_COORD97":169608.64000000001,"N_COORD97":2549557.04,"ADDRESS":"育安街９號","OBJECTID":539243},"geometry":{"x":169608.63999999966,"y":2549557.040000001}},{"attributes":{"ID":539271,"DIS_CODE":0,"TOWNNAME":"安南區","LI":"新順里","LIN":"12鄰","STREET":"育安街","SECT":" ","MAREA":" ","LANE":" ","ALLEY":" ","HOUSE_NO":"１１號","E_COORD97":169609.22,"N_COORD97":2549561.3900000001,"ADDRESS":"育安街１１號","OBJECTID":539244},"geometry":{"x":169609.21999999974,"y":2549561.3900000006}},{"attributes":{"ID":539272,"DIS_CODE":0,"TOWNNAME":"安南區","LI":"新順里","LIN":"12鄰","STREET":"育安街","SECT":" ","MAREA":" ","LANE":" ","ALLEY":" ","HOUSE_NO":"１５號","E_COORD97":169612.01000000001,"N_COORD97":2549574.8999999999,"ADDRESS":"育安街１５號","OBJECTID":539245},"geometry":{"x":169612.01000000071,"y":2549574.9000000004}},{"attributes":{"ID":539273,"DIS_CODE":0,"TOWNNAME":"安南區","LI":"新順里","LIN":"12鄰","STREET":"育安街","SECT":" ","MAREA":" ","LANE":" ","ALLEY":" ","HOUSE_NO":"１７號","E_COORD97":169614.04000000001,"N_COORD97":2549579.77,"ADDRESS":"育安街１７號","OBJECTID":539246},"geometry":{"x":169614.04000000097,"y":2549579.7700000014}},{"attributes":{"ID":539274,"DIS_CODE":0,"TOWNNAME":"安南區","LI":"新順里","LIN":"12鄰","STREET":"育安街","SECT":" ","MAREA":" ","LANE":" ","ALLEY":" ","HOUSE_NO":"１９號","E_COORD97":169615.45999999999,"N_COORD97":2549584.4300000002,"ADDRESS":"育安街１９號","OBJECTID":539247},"geometry":{"x":169615.46000000183,"y":2549584.4299999978}},{"attributes":{"ID":539275,"DIS_CODE":0,"TOWNNAME":"安南區","LI":"新順里","LIN":"12鄰","STREET":"育安街","SECT":" ","MAREA":" ","LANE":" ","ALLEY":" ","HOUSE_NO":"２１號","E_COORD97":169617.69,"N_COORD97":2549588.7000000002,"ADDRESS":"育安街２１號","OBJECTID":539248},"geometry":{"x":169617.68999999948,"y":2549588.6999999993}},{"attributes":{"ID":539276,"DIS_CODE":0,"TOWNNAME":"安南區","LI":"新順里","LIN":"12鄰","STREET":"育安街","SECT":" ","MAREA":" ","LANE":" ","ALLEY":" ","HOUSE_NO":"２３號","E_COORD97":169619.10999999999,"N_COORD97":2549593.5600000001,"ADDRESS":"育安街２３號","OBJECTID":539249},"geometry":{"x":169619.11000000034,"y":2549593.5600000005}},{"attributes":{"ID":539277,"DIS_CODE":0,"TOWNNAME":"安南區","LI":"新順里","LIN":"12鄰","STREET":"育安街","SECT":" ","MAREA":" ","LANE":" ","ALLEY":" ","HOUSE_NO":"２５號","E_COORD97":169621.54999999999,"N_COORD97":2549598.8399999999,"ADDRESS":"育安街２５號","OBJECTID":539250},"geometry":{"x":169621.55000000168,"y":2549598.8400000036}},{"attributes":{"ID":539278,"DIS_CODE":0,"TOWNNAME":"安南區","LI":"安西里","LIN":"12鄰","STREET":"安通路","SECT":"四段","MAREA":" ","LANE":" ","ALLEY":" ","HOUSE_NO":"３３之１號","E_COORD97":169218.5,"N_COORD97":2547736.0099999998,"ADDRESS":"安通路四段３３之１號","OBJECTID":539251},"geometry":{"x":169218.50000000186,"y":2547736.0099999998}},{"attributes":{"ID":539279,"DIS_CODE":0,"TOWNNAME":"安南區","LI":"淵東里","LIN":"12鄰","STREET":"海佃路","SECT":"四段","MAREA":" ","LANE":" ","ALLEY":" ","HOUSE_NO":"２０５號","E_COORD97":165605.54000000001,"N_COORD97":2550969.8799999999,"ADDRESS":"海佃路四段２０５號","OBJECTID":539252},"geometry":{"x":165605.54000000004,"y":2550969.879999999}},{"attributes":{"ID":539280,"DIS_CODE":0,"TOWNNAME":"安南區","LI":"海南里","LIN":"12鄰","STREET":"府安路","SECT":"七段","MAREA":" ","LANE":" ","ALLEY":" ","HOUSE_NO":"３６５之５號","E_COORD97":163490.45000000001,"N_COORD97":2545510.6099999999,"ADDRESS":"府安路七段３６５之５號","OBJECTID":539253},"geometry":{"x":163490.45000000019,"y":2545510.6099999994}},{"attributes":{"ID":539281,"DIS_CODE":0,"TOWNNAME":"安南區","LI":"海南里","LIN":"12鄰","STREET":"府安路","SECT":"七段","MAREA":" ","LANE":" ","ALLEY":" ","HOUSE_NO":"３６０之１００號","E_COORD97":164352.66,"N_COORD97":2545807.5099999998,"ADDRESS":"府安路七段３６０之１００號","OBJECTID":539254},"geometry":{"x":164352.66000000108,"y":2545807.5100000035}},{"attributes":{"ID":539282,"DIS_CODE":0,"TOWNNAME":"安南區","LI":"海南里","LIN":"12鄰","STREET":"府安路","SECT":"七段","MAREA":" ","LANE":" ","ALLEY":" ","HOUSE_NO":"３６０之１２０號","E_COORD97":164341.32000000001,"N_COORD97":2545793.6400000001,"ADDRESS":"府安路七段３６０之１２０號","OBJECTID":539255},"geometry":{"x":164341.32000000216,"y":2545793.6400000043}},{"attributes":{"ID":539283,"DIS_CODE":0,"TOWNNAME":"安南區","LI":"海南里","LIN":"12鄰","STREET":"府安路","SECT":"七段","MAREA":" ","LANE":" ","ALLEY":" ","HOUSE_NO":"３６５號","E_COORD97":163907.51000000001,"N_COORD97":2545687.1000000001,"ADDRESS":"府安路七段３８０之２０號","OBJECTID":539256},"geometry":{"x":163907.51000000071,"y":2545687.0999999996}},{"attributes":{"ID":539284,"DIS_CODE":0,"TOWNNAME":"安南區","LI":"海南里","LIN":"12鄰","STREET":"府安路","SECT":"七段","MAREA":" ","LANE":" ","ALLEY":" ","HOUSE_NO":"４１５之１號","E_COORD97":163703.04000000001,"N_COORD97":2545972.9900000002,"ADDRESS":"府安路七段４１５之１號","OBJECTID":539257},"geometry":{"x":163703.04000000004,"y":2545972.9900000002}},{"attributes":{"ID":539285,"DIS_CODE":0,"TOWNNAME":"安南區","LI":"海南里","LIN":"12鄰","STREET":"府安路","SECT":"七段","MAREA":" ","LANE":" ","ALLEY":" ","HOUSE_NO":"４１５之３０號","E_COORD97":163889.14999999999,"N_COORD97":2545748.8599999999,"ADDRESS":"府安路七段４１５之３０號","OBJECTID":539258},"geometry":{"x":163889.15000000037,"y":2545748.8599999994}},{"attributes":{"ID":539286,"DIS_CODE":0,"TOWNNAME":"安南區","LI":"海南里","LIN":"12鄰","STREET":"府安路","SECT":"七段","MAREA":" ","LANE":" ","ALLEY":" ","HOUSE_NO":"４４０之１１０號","E_COORD97":163315.19,"N_COORD97":2545381.6299999999,"ADDRESS":"府安路七段４４０之１１０號","OBJECTID":539259},"geometry":{"x":163315.19000000134,"y":2545381.6299999971}},{"attributes":{"ID":539287,"DIS_CODE":0,"TOWNNAME":"佳里區","LI":"六安里","LIN":"12鄰","STREET":"六安街","SECT":" ","MAREA":" ","LANE":" ","ALLEY":" ","HOUSE_NO":"１７４號","E_COORD97":165996.76000000001,"N_COORD97":2563301.2000000002,"ADDRESS":"六安街１７４號","OBJECTID":539260},"geometry":{"x":165996.75999999978,"y":2563301.2000000011}},{"attributes":{"ID":539288,"DIS_CODE":0,"TOWNNAME":"安南區","LI":"海南里","LIN":"12鄰","STREET":"府安路","SECT":"七段","MAREA":" ","LANE":" ","ALLEY":" ","HOUSE_NO":"４４０之５號","E_COORD97":163440.45000000001,"N_COORD97":2545327.6499999999,"ADDRESS":"府安路七段４４０之５號","OBJECTID":539261},"geometry":{"x":163440.45000000112,"y":2545327.6500000004}},{"attributes":{"ID":539289,"DIS_CODE":0,"TOWNNAME":"安南區","LI":"海南里","LIN":"12鄰","STREET":"府安路","SECT":"七段","MAREA":" ","LANE":" ","ALLEY":" ","HOUSE_NO":"３８０之２號","E_COORD97":163964.54000000001,"N_COORD97":2545685.6299999999,"ADDRESS":"府安路七段３８０之２號","OBJECTID":539262},"geometry":{"x":163964.54000000004,"y":2545685.629999999}},{"attributes":{"ID":539290,"DIS_CODE":0,"TOWNNAME":"安南區","LI":"溪心里","LIN":"12鄰","STREET":"海佃路","SECT":"二段","MAREA":" ","LANE":" ","ALLEY":" ","HOUSE_NO":"６４２之１號","E_COORD97":166637.89999999999,"N_COORD97":2549365.3199999998,"ADDRESS":"海佃路二段６４２之１號","OBJECTID":539263},"geometry":{"x":166637.90000000224,"y":2549365.3200000003}},{"attributes":{"ID":539291,"DIS_CODE":0,"TOWNNAME":"佳里區","LI":"鎮山里","LIN":"12鄰","STREET":"仁愛路","SECT":" ","MAREA":" ","LANE":" ","ALLEY":" ","HOUSE_NO":"２７６號","E_COORD97":166067.42999999999,"N_COORD97":2561507.7799999998,"ADDRESS":"仁愛路２７６號","OBJECTID":539264},"geometry":{"x":166067.43000000156,"y":2561507.7799999993}},{"attributes":{"ID":539292,"DIS_CODE":0,"TOWNNAME":"佳里區","LI":"鎮山里","LIN":"12鄰","STREET":"仁愛路","SECT":" ","MAREA":" ","LANE":" ","ALLEY":" ","HOUSE_NO":"２７８號","E_COORD97":166062.57999999999,"N_COORD97":2561509.8300000001,"ADDRESS":"仁愛路２７８號","OBJECTID":539265},"geometry":{"x":166062.58000000007,"y":2561509.8300000038}},{"attributes":{"ID":539293,"DIS_CODE":0,"TOWNNAME":"佳里區","LI":"鎮山里","LIN":"12鄰","STREET":"仁愛路","SECT":" ","MAREA":" ","LANE":" ","ALLEY":" ","HOUSE_NO":"２８０號","E_COORD97":166057.64000000001,"N_COORD97":2561512.25,"ADDRESS":"仁愛路２８０號","OBJECTID":539266},"geometry":{"x":166057.6400000006,"y":2561512.25}},{"attributes":{"ID":539294,"DIS_CODE":0,"TOWNNAME":"佳里區","LI":"鎮山里","LIN":"12鄰","STREET":"仁愛路","SECT":" ","MAREA":" ","LANE":" ","ALLEY":" ","HOUSE_NO":"２８６號","E_COORD97":166047.70000000001,"N_COORD97":2561514.3100000001,"ADDRESS":"仁愛路２８６號","OBJECTID":539267},"geometry":{"x":166047.70000000112,"y":2561514.3100000024}},{"attributes":{"ID":539295,"DIS_CODE":0,"TOWNNAME":"佳里區","LI":"鎮山里","LIN":"12鄰","STREET":"仁愛路","SECT":" ","MAREA":" ","LANE":" ","ALLEY":" ","HOUSE_NO":"２８８號","E_COORD97":166043.39999999999,"N_COORD97":2561516.5499999998,"ADDRESS":"仁愛路２８８號","OBJECTID":539268},"geometry":{"x":166043.4000000013,"y":2561516.5500000026}},{"attributes":{"ID":539296,"DIS_CODE":0,"TOWNNAME":"佳里區","LI":"鎮山里","LIN":"12鄰","STREET":"仁愛路","SECT":" ","MAREA":" ","LANE":" ","ALLEY":" ","HOUSE_NO":"２９０號","E_COORD97":166038.45000000001,"N_COORD97":2561518.0499999998,"ADDRESS":"仁愛路２９０號","OBJECTID":539269},"geometry":{"x":166038.45000000019,"y":2561518.0500000007}},{"attributes":{"ID":539297,"DIS_CODE":0,"TOWNNAME":"佳里區","LI":"鎮山里","LIN":"12鄰","STREET":"仁愛路","SECT":" ","MAREA":" ","LANE":" ","ALLEY":" ","HOUSE_NO":"２９２號","E_COORD97":166034.34,"N_COORD97":2561519.6699999999,"ADDRESS":"仁愛路２９２號","OBJECTID":539270},"geometry":{"x":166034.34000000171,"y":2561519.6699999999}},{"attributes":{"ID":539298,"DIS_CODE":0,"TOWNNAME":"佳里區","LI":"鎮山里","LIN":"12鄰","STREET":"仁愛路","SECT":" ","MAREA":" ","LANE":" ","ALLEY":" ","HOUSE_NO":"２９４號","E_COORD97":166029.66,"N_COORD97":2561521.5600000001,"ADDRESS":"仁愛路２９４號","OBJECTID":539271},"geometry":{"x":166029.66000000108,"y":2561521.5600000005}},{"attributes":{"ID":539299,"DIS_CODE":0,"TOWNNAME":"佳里區","LI":"鎮山里","LIN":"12鄰","STREET":"仁愛路","SECT":" ","MAREA":" ","LANE":" ","ALLEY":" ","HOUSE_NO":"２９６號","E_COORD97":166025.32000000001,"N_COORD97":2561523.1499999999,"ADDRESS":"仁愛路２９６號","OBJECTID":539272},"geometry":{"x":166025.32000000123,"y":2561523.1500000004}},{"attributes":{"ID":539300,"DIS_CODE":0,"TOWNNAME":"佳里區","LI":"鎮山里","LIN":"12鄰","STREET":"仁愛路","SECT":" ","MAREA":" ","LANE":" ","ALLEY":" ","HOUSE_NO":"２９８號之１","E_COORD97":166016.48999999999,"N_COORD97":2561526.1200000001,"ADDRESS":"仁愛路２９８號之１","OBJECTID":539273},"geometry":{"x":166016.49000000022,"y":2561526.1200000029}},{"attributes":{"ID":539301,"DIS_CODE":0,"TOWNNAME":"佳里區","LI":"鎮山里","LIN":"12鄰","STREET":"仁愛路","SECT":" ","MAREA":" ","LANE":" ","ALLEY":" ","HOUSE_NO":"２９８號","E_COORD97":166020.53,"N_COORD97":2561524.9300000002,"ADDRESS":"仁愛路２９８號","OBJECTID":539274},"geometry":{"x":166020.53000000119,"y":2561524.9299999997}},{"attributes":{"ID":539302,"DIS_CODE":0,"TOWNNAME":"佳里區","LI":"鎮山里","LIN":"12鄰","STREET":"仁愛路","SECT":" ","MAREA":" ","LANE":" ","ALLEY":" ","HOUSE_NO":"３００號之２","E_COORD97":165926.76999999999,"N_COORD97":2561564.2200000002,"ADDRESS":"仁愛路３００號之２","OBJECTID":539275},"geometry":{"x":165926.76999999955,"y":2561564.2200000007}},{"attributes":{"ID":539303,"DIS_CODE":0,"TOWNNAME":"佳里區","LI":"鎮山里","LIN":"12鄰","STREET":"仁愛路","SECT":" ","MAREA":" ","LANE":" ","ALLEY":" ","HOUSE_NO":"３００號","E_COORD97":165966.82999999999,"N_COORD97":2561569.1899999999,"ADDRESS":"仁愛路３００號","OBJECTID":539276},"geometry":{"x":165966.83000000194,"y":2561569.1900000013}},{"attributes":{"ID":539304,"DIS_CODE":0,"TOWNNAME":"佳里區","LI":"鎮山里","LIN":"12鄰","STREET":"仁愛路","SECT":" ","MAREA":" ","LANE":" ","ALLEY":" ","HOUSE_NO":"３０４號","E_COORD97":165940.89999999999,"N_COORD97":2561561.6600000001,"ADDRESS":"仁愛路３０４號","OBJECTID":539277},"geometry":{"x":165940.90000000037,"y":2561561.6600000039}},{"attributes":{"ID":539305,"DIS_CODE":0,"TOWNNAME":"佳里區","LI":"鎮山里","LIN":"12鄰","STREET":"仁愛路","SECT":" ","MAREA":" ","LANE":" ","ALLEY":" ","HOUSE_NO":"３０６號","E_COORD97":165936.10999999999,"N_COORD97":2561562.6699999999,"ADDRESS":"仁愛路３０６號","OBJECTID":539278},"geometry":{"x":165936.11000000034,"y":2561562.6700000018}},{"attributes":{"ID":539306,"DIS_CODE":0,"TOWNNAME":"佳里區","LI":"鎮山里","LIN":"12鄰","STREET":"仁愛路","SECT":" ","MAREA":" ","LANE":" ","ALLEY":" ","HOUSE_NO":"３０８號","E_COORD97":165932.07999999999,"N_COORD97":2561563.0800000001,"ADDRESS":"仁愛路３０８號","OBJECTID":539279},"geometry":{"x":165932.08000000007,"y":2561563.0800000019}},{"attributes":{"ID":539307,"DIS_CODE":0,"TOWNNAME":"佳里區","LI":"鎮山里","LIN":"12鄰","STREET":"仁愛路","SECT":" ","MAREA":" ","LANE":" ","ALLEY":" ","HOUSE_NO":"３１４號","E_COORD97":165922.56,"N_COORD97":2561565.9500000002,"ADDRESS":"仁愛路３１４號","OBJECTID":539280},"geometry":{"x":165922.56000000052,"y":2561565.9500000011}},{"attributes":{"ID":539308,"DIS_CODE":0,"TOWNNAME":"佳里區","LI":"鎮山里","LIN":"12鄰","STREET":"仁愛路","SECT":" ","MAREA":" ","LANE":" ","ALLEY":" ","HOUSE_NO":"３１６號","E_COORD97":165918.23000000001,"N_COORD97":2561567.1600000001,"ADDRESS":"仁愛路３１６號","OBJECTID":539281},"geometry":{"x":165918.23000000045,"y":2561567.1600000001}},{"attributes":{"ID":539309,"DIS_CODE":0,"TOWNNAME":"佳里區","LI":"鎮山里","LIN":"12鄰","STREET":"仁愛路","SECT":" ","MAREA":" ","LANE":" ","ALLEY":" ","HOUSE_NO":"３１８號","E_COORD97":165914.12,"N_COORD97":2561568.0600000001,"ADDRESS":"仁愛路３１８號","OBJECTID":539282},"geometry":{"x":165914.12000000104,"y":2561568.0600000005}},{"attributes":{"ID":539310,"DIS_CODE":0,"TOWNNAME":"佳里區","LI":"鎮山里","LIN":"12鄰","STREET":"仁愛路","SECT":" ","MAREA":" ","LANE":" ","ALLEY":" ","HOUSE_NO":"３２０號","E_COORD97":165909.04999999999,"N_COORD97":2561569.4700000002,"ADDRESS":"仁愛路３２０號","OBJECTID":539283},"geometry":{"x":165909.05000000168,"y":2561569.4700000007}},{"attributes":{"ID":539311,"DIS_CODE":0,"TOWNNAME":"佳里區","LI":"鎮山里","LIN":"12鄰","STREET":"仁愛路","SECT":" ","MAREA":" ","LANE":" ","ALLEY":" ","HOUSE_NO":"３２４號","E_COORD97":165890.29999999999,"N_COORD97":2561590.8100000001,"ADDRESS":"仁愛路３２４號","OBJECTID":539284},"geometry":{"x":165890.30000000168,"y":2561590.8100000005}},{"attributes":{"ID":539312,"DIS_CODE":0,"TOWNNAME":"佳里區","LI":"鎮山里","LIN":"12鄰","STREET":"仁愛路","SECT":" ","MAREA":" ","LANE":" ","ALLEY":" ","HOUSE_NO":"３３２號","E_COORD97":165877.04999999999,"N_COORD97":2561581.4399999999,"ADDRESS":"仁愛路３３２號","OBJECTID":539285},"geometry":{"x":165877.05000000075,"y":2561581.4399999995}},{"attributes":{"ID":539313,"DIS_CODE":0,"TOWNNAME":"佳里區","LI":"鎮山里","LIN":"12鄰","STREET":"仁愛路","SECT":" ","MAREA":" ","LANE":" ","ALLEY":" ","HOUSE_NO":"３３４號","E_COORD97":165872.34,"N_COORD97":2561584.5,"ADDRESS":"仁愛路３３４號","OBJECTID":539286},"geometry":{"x":165872.33999999985,"y":2561584.5000000019}},{"attributes":{"ID":539314,"DIS_CODE":0,"TOWNNAME":"佳里區","LI":"六安里","LIN":"12鄰","STREET":"六合街","SECT":" ","MAREA":" ","LANE":" ","ALLEY":" ","HOUSE_NO":"１２３號","E_COORD97":165997.66,"N_COORD97":2563280.8399999999,"ADDRESS":"六合街１２３號","OBJECTID":539287},"geometry":{"x":165997.66000000015,"y":2563280.8399999999}},{"attributes":{"ID":539315,"DIS_CODE":0,"TOWNNAME":"佳里區","LI":"六安里","LIN":"12鄰","STREET":"六合街","SECT":" ","MAREA":" ","LANE":" ","ALLEY":" ","HOUSE_NO":"１３１號","E_COORD97":166014.16,"N_COORD97":2563327.6800000002,"ADDRESS":"六合街１３１號","OBJECTID":539288},"geometry":{"x":166014.16000000108,"y":2563327.6800000034}},{"attributes":{"ID":539316,"DIS_CODE":0,"TOWNNAME":"佳里區","LI":"六安里","LIN":"12鄰","STREET":"六合街","SECT":" ","MAREA":" ","LANE":" ","ALLEY":" ","HOUSE_NO":"１４１號","E_COORD97":166029.03,"N_COORD97":2563349.4500000002,"ADDRESS":"六合街１４１號","OBJECTID":539289},"geometry":{"x":166029.03000000119,"y":2563349.4500000011}},{"attributes":{"ID":539317,"DIS_CODE":0,"TOWNNAME":"佳里區","LI":"六安里","LIN":"12鄰","STREET":"六合街","SECT":" ","MAREA":" ","LANE":" ","ALLEY":" ","HOUSE_NO":"１４３號","E_COORD97":166033.94,"N_COORD97":2563358.1299999999,"ADDRESS":"六合街１４３號","OBJECTID":539290},"geometry":{"x":166033.94000000041,"y":2563358.1300000008}},{"attributes":{"ID":539318,"DIS_CODE":0,"TOWNNAME":"佳里區","LI":"六安里","LIN":"12鄰","STREET":"六合街","SECT":" ","MAREA":" ","LANE":" ","ALLEY":" ","HOUSE_NO":"１４５號","E_COORD97":166035.67999999999,"N_COORD97":2563366.4100000001,"ADDRESS":"六合街１４５號","OBJECTID":539291},"geometry":{"x":166035.68000000063,"y":2563366.4100000001}},{"attributes":{"ID":539319,"DIS_CODE":0,"TOWNNAME":"佳里區","LI":"六安里","LIN":"12鄰","STREET":"六合街","SECT":" ","MAREA":" ","LANE":" ","ALLEY":" ","HOUSE_NO":"１４７號","E_COORD97":166037.60000000001,"N_COORD97":2563370.21,"ADDRESS":"六合街１４７號","OBJECTID":539292},"geometry":{"x":166037.60000000056,"y":2563370.2100000028}},{"attributes":{"ID":539320,"DIS_CODE":0,"TOWNNAME":"佳里區","LI":"六安里","LIN":"12鄰","STREET":"六合街","SECT":" ","MAREA":" ","LANE":" ","ALLEY":" ","HOUSE_NO":"１４９號","E_COORD97":166039.78,"N_COORD97":2563374.3900000001,"ADDRESS":"六合街１４９號","OBJECTID":539293},"geometry":{"x":166039.78000000026,"y":2563374.3900000043}},{"attributes":{"ID":539321,"DIS_CODE":0,"TOWNNAME":"佳里區","LI":"六安里","LIN":"12鄰","STREET":"六合街","SECT":" ","MAREA":" ","LANE":" ","ALLEY":" ","HOUSE_NO":"１５１號","E_COORD97":166041.70999999999,"N_COORD97":2563378.8900000001,"ADDRESS":"六合街１５１號","OBJECTID":539294},"geometry":{"x":166041.70999999996,"y":2563378.8900000025}},{"attributes":{"ID":539322,"DIS_CODE":0,"TOWNNAME":"佳里區","LI":"六安里","LIN":"12鄰","STREET":"六安街","SECT":" ","MAREA":" ","LANE":" ","ALLEY":" ","HOUSE_NO":"１７０號","E_COORD97":166004.53,"N_COORD97":2563298.27,"ADDRESS":"六安街１７０號","OBJECTID":539295},"geometry":{"x":166004.53000000212,"y":2563298.2699999996}},{"attributes":{"ID":539323,"DIS_CODE":0,"TOWNNAME":"佳里區","LI":"六安里","LIN":"12鄰","STREET":"六安街","SECT":" ","MAREA":" ","LANE":" ","ALLEY":" ","HOUSE_NO":"１７２號","E_COORD97":166000.48999999999,"N_COORD97":2563299.6800000002,"ADDRESS":"六安街１７２號","OBJECTID":539296},"geometry":{"x":166000.49000000115,"y":2563299.6799999997}},{"attributes":{"ID":539324,"DIS_CODE":0,"TOWNNAME":"佳里區","LI":"六安里","LIN":"12鄰","STREET":"六安街","SECT":" ","MAREA":" ","LANE":" ","ALLEY":" ","HOUSE_NO":"１７６號","E_COORD97":165992.19,"N_COORD97":2563301.9700000002,"ADDRESS":"六安街１７６號","OBJECTID":539297},"geometry":{"x":165992.19000000134,"y":2563301.9700000007}},{"attributes":{"ID":539325,"DIS_CODE":0,"TOWNNAME":"佳里區","LI":"六安里","LIN":"12鄰","STREET":"六安街","SECT":" ","MAREA":" ","LANE":" ","ALLEY":" ","HOUSE_NO":"１７８號","E_COORD97":165988.95999999999,"N_COORD97":2563303.3300000001,"ADDRESS":"六安街１７８號","OBJECTID":539298},"geometry":{"x":165988.95999999996,"y":2563303.3300000038}},{"attributes":{"ID":539326,"DIS_CODE":0,"TOWNNAME":"佳里區","LI":"安西里","LIN":"12鄰","STREET":"公園路","SECT":" ","MAREA":" ","LANE":" ","ALLEY":" ","HOUSE_NO":"３５０號","E_COORD97":165294.01999999999,"N_COORD97":2562240.8100000001,"ADDRESS":"公園路３５０號","OBJECTID":539299},"geometry":{"x":165294.02000000048,"y":2562240.8100000024}},{"attributes":{"ID":539327,"DIS_CODE":0,"TOWNNAME":"佳里區","LI":"安西里","LIN":"12鄰","STREET":"公園路","SECT":" ","MAREA":" ","LANE":" ","ALLEY":" ","HOUSE_NO":"３５２號","E_COORD97":165294.13,"N_COORD97":2562245.5699999998,"ADDRESS":"公園路３５２號","OBJECTID":539300},"geometry":{"x":165294.12999999989,"y":2562245.5700000022}},{"attributes":{"ID":539328,"DIS_CODE":0,"TOWNNAME":"佳里區","LI":"安西里","LIN":"12鄰","STREET":"公園路","SECT":" ","MAREA":" ","LANE":" ","ALLEY":" ","HOUSE_NO":"３６１號","E_COORD97":165242.39999999999,"N_COORD97":2562264.5899999999,"ADDRESS":"公園路３６１號","OBJECTID":539301},"geometry":{"x":165242.40000000037,"y":2562264.5900000017}},{"attributes":{"ID":539329,"DIS_CODE":0,"TOWNNAME":"佳里區","LI":"東寧里","LIN":"12鄰","STREET":"文化路","SECT":" ","MAREA":" ","LANE":" ","ALLEY":" ","HOUSE_NO":"１０１號","E_COORD97":166058.95999999999,"N_COORD97":2562575.1499999999,"ADDRESS":"文化路１０１號","OBJECTID":539302},"geometry":{"x":166058.96000000183,"y":2562575.1500000004}},{"attributes":{"ID":539330,"DIS_CODE":0,"TOWNNAME":"佳里區","LI":"東寧里","LIN":"12鄰","STREET":"文化路","SECT":" ","MAREA":" ","LANE":" ","ALLEY":" ","HOUSE_NO":"１０３號","E_COORD97":166054.95000000001,"N_COORD97":2562575.0800000001,"ADDRESS":"文化路１０３號","OBJECTID":539303},"geometry":{"x":166054.95000000112,"y":2562575.0800000001}},{"attributes":{"ID":539331,"DIS_CODE":0,"TOWNNAME":"佳里區","LI":"東寧里","LIN":"12鄰","STREET":"文化路","SECT":" ","MAREA":" ","LANE":" ","ALLEY":" ","HOUSE_NO":"１０５號","E_COORD97":166050.85999999999,"N_COORD97":2562575.0899999999,"ADDRESS":"文化路１０５號","OBJECTID":539304},"geometry":{"x":166050.86000000034,"y":2562575.0899999999}},{"attributes":{"ID":539332,"DIS_CODE":0,"TOWNNAME":"佳里區","LI":"東寧里","LIN":"12鄰","STREET":"文化路","SECT":" ","MAREA":" ","LANE":" ","ALLEY":" ","HOUSE_NO":"１０７號","E_COORD97":166046.94,"N_COORD97":2562575.0899999999,"ADDRESS":"文化路１０７號","OBJECTID":539305},"geometry":{"x":166046.94000000041,"y":2562575.0899999999}},{"attributes":{"ID":539333,"DIS_CODE":0,"TOWNNAME":"佳里區","LI":"東寧里","LIN":"12鄰","STREET":"文化路","SECT":" ","MAREA":" ","LANE":" ","ALLEY":" ","HOUSE_NO":"１０９號","E_COORD97":166042.51000000001,"N_COORD97":2562575.04,"ADDRESS":"文化路１０９號","OBJECTID":539306},"geometry":{"x":166042.50999999978,"y":2562575.0399999972}},{"attributes":{"ID":539334,"DIS_CODE":0,"TOWNNAME":"佳里區","LI":"東寧里","LIN":"12鄰","STREET":"文化路","SECT":" ","MAREA":" ","LANE":" ","ALLEY":" ","HOUSE_NO":"１１３號","E_COORD97":166033.73999999999,"N_COORD97":2562577.1800000002,"ADDRESS":"文化路１１３號","OBJECTID":539307},"geometry":{"x":166033.74000000115,"y":2562577.1799999997}},{"attributes":{"ID":539335,"DIS_CODE":0,"TOWNNAME":"佳里區","LI":"東寧里","LIN":"12鄰","STREET":"文化路","SECT":" ","MAREA":" ","LANE":" ","ALLEY":" ","HOUSE_NO":"１１５號","E_COORD97":166029.5,"N_COORD97":2562576.96,"ADDRESS":"文化路１１５號","OBJECTID":539308},"geometry":{"x":166029.5,"y":2562576.9600000009}},{"attributes":{"ID":539336,"DIS_CODE":0,"TOWNNAME":"佳里區","LI":"東寧里","LIN":"12鄰","STREET":"文化路","SECT":" ","MAREA":" ","LANE":" ","ALLEY":" ","HOUSE_NO":"１１７號","E_COORD97":166024.72,"N_COORD97":2562576.79,"ADDRESS":"文化路１１７號","OBJECTID":539309},"geometry":{"x":166024.7200000016,"y":2562576.7900000028}},{"attributes":{"ID":539337,"DIS_CODE":0,"TOWNNAME":"佳里區","LI":"東寧里","LIN":"12鄰","STREET":"文化路","SECT":" ","MAREA":" ","LANE":" ","ALLEY":" ","HOUSE_NO":"１１９號","E_COORD97":166020.85999999999,"N_COORD97":2562576.4199999999,"ADDRESS":"文化路１１９號","OBJECTID":539310},"geometry":{"x":166020.86000000034,"y":2562576.4199999999}},{"attributes":{"ID":539338,"DIS_CODE":0,"TOWNNAME":"佳里區","LI":"東寧里","LIN":"12鄰","STREET":"文化路","SECT":" ","MAREA":" ","LANE":" ","ALLEY":" ","HOUSE_NO":"１２５號","E_COORD97":166007.85000000001,"N_COORD97":2562570.54,"ADDRESS":"文化路１２５號","OBJECTID":539311},"geometry":{"x":166007.84999999963,"y":2562570.5399999991}},{"attributes":{"ID":539339,"DIS_CODE":0,"TOWNNAME":"佳里區","LI":"東寧里","LIN":"12鄰","STREET":"文化路","SECT":" ","MAREA":" ","LANE":" ","ALLEY":" ","HOUSE_NO":"９３號","E_COORD97":166075.35999999999,"N_COORD97":2562575.0699999998,"ADDRESS":"文化路９３號","OBJECTID":539312},"geometry":{"x":166075.3600000022,"y":2562575.0700000003}},{"attributes":{"ID":539340,"DIS_CODE":0,"TOWNNAME":"佳里區","LI":"東寧里","LIN":"12鄰","STREET":"文化路","SECT":" ","MAREA":" ","LANE":" ","ALLEY":" ","HOUSE_NO":"９５號","E_COORD97":166071.35000000001,"N_COORD97":2562575.1000000001,"ADDRESS":"文化路９５號","OBJECTID":539313},"geometry":{"x":166071.35000000056,"y":2562575.0999999978}},{"attributes":{"ID":539341,"DIS_CODE":0,"TOWNNAME":"佳里區","LI":"東寧里","LIN":"12鄰","STREET":"文化路","SECT":" ","MAREA":" ","LANE":" ","ALLEY":" ","HOUSE_NO":"９７號","E_COORD97":166067.23999999999,"N_COORD97":2562575.1200000001,"ADDRESS":"文化路９７號","OBJECTID":539314},"geometry":{"x":166067.24000000022,"y":2562575.120000001}},{"attributes":{"ID":539342,"DIS_CODE":0,"TOWNNAME":"永康區","LI":"東灣里","LIN":"12鄰","STREET":"大灣路","SECT":" ","MAREA":" ","LANE":" ","ALLEY":" ","HOUSE_NO":"３６３號","E_COORD97":174759,"N_COORD97":2544899.9100000001,"ADDRESS":"大灣路３６３號","OBJECTID":539315},"geometry":{"x":174759.00000000093,"y":2544899.9100000039}},{"attributes":{"ID":539343,"DIS_CODE":0,"TOWNNAME":"永康區","LI":"東灣里","LIN":"12鄰","STREET":"大灣路","SECT":" ","MAREA":" ","LANE":" ","ALLEY":" ","HOUSE_NO":"４０１號","E_COORD97":174747.09,"N_COORD97":2544851.54,"ADDRESS":"大灣路４０１號","OBJECTID":539316},"geometry":{"x":174747.08999999985,"y":2544851.540000001}},{"attributes":{"ID":539344,"DIS_CODE":0,"TOWNNAME":"永康區","LI":"尚頂里","LIN":"12鄰","STREET":"正南一街","SECT":" ","MAREA":" ","LANE":" ","ALLEY":" ","HOUSE_NO":"７０號","E_COORD97":171102.45000000001,"N_COORD97":2547308.7599999998,"ADDRESS":"正南一街７０號","OBJECTID":539317},"geometry":{"x":171102.45000000205,"y":2547308.7600000016}},{"attributes":{"ID":539345,"DIS_CODE":0,"TOWNNAME":"永康區","LI":"尚頂里","LIN":"12鄰","STREET":"正南一街","SECT":" ","MAREA":" ","LANE":" ","ALLEY":" ","HOUSE_NO":"７２號","E_COORD97":171096.06,"N_COORD97":2547305.0099999998,"ADDRESS":"正南一街７２號","OBJECTID":539318},"geometry":{"x":171096.06000000145,"y":2547305.0099999998}},{"attributes":{"ID":539346,"DIS_CODE":0,"TOWNNAME":"永康區","LI":"東灣里","LIN":"12鄰","STREET":"大灣路","SECT":" ","MAREA":" ","LANE":" ","ALLEY":" ","HOUSE_NO":"３８７號","E_COORD97":174740.19,"N_COORD97":2544862.8999999999,"ADDRESS":"大灣路３８７號","OBJECTID":539319},"geometry":{"x":174740.19000000041,"y":2544862.9000000041}},{"attributes":{"ID":539347,"DIS_CODE":0,"TOWNNAME":"永康區","LI":"東灣里","LIN":"12鄰","STREET":"大灣路","SECT":" ","MAREA":" ","LANE":" ","ALLEY":" ","HOUSE_NO":"４０３號","E_COORD97":174754.57999999999,"N_COORD97":2544849.4900000002,"ADDRESS":"大灣路４０３號","OBJECTID":539320},"geometry":{"x":174754.58000000194,"y":2544849.4900000021}},{"attributes":{"ID":539348,"DIS_CODE":0,"TOWNNAME":"永康區","LI":"尚頂里","LIN":"12鄰","STREET":"正南一街","SECT":" ","MAREA":" ","LANE":" ","ALLEY":" ","HOUSE_NO":"４０號","E_COORD97":171198.85000000001,"N_COORD97":2547363.75,"ADDRESS":"正南一街４０號","OBJECTID":539321},"geometry":{"x":171198.84999999963,"y":2547363.7500000019}},{"attributes":{"ID":539349,"DIS_CODE":0,"TOWNNAME":"永康區","LI":"南灣里","LIN":"12鄰","STREET":"立興街","SECT":" ","MAREA":" ","LANE":" ","ALLEY":" ","HOUSE_NO":"２５號","E_COORD97":174634.92999999999,"N_COORD97":2544859.1600000001,"ADDRESS":"立興街２５號","OBJECTID":539322},"geometry":{"x":174634.93000000156,"y":2544859.1600000001}},{"attributes":{"ID":539350,"DIS_CODE":0,"TOWNNAME":"永康區","LI":"南灣里","LIN":"12鄰","STREET":"立興街","SECT":" ","MAREA":" ","LANE":" ","ALLEY":" ","HOUSE_NO":"３７號","E_COORD97":174617.07999999999,"N_COORD97":2544842.4199999999,"ADDRESS":"立興街３７號","OBJECTID":539323},"geometry":{"x":174617.08000000007,"y":2544842.4200000018}},{"attributes":{"ID":539351,"DIS_CODE":0,"TOWNNAME":"永康區","LI":"南灣里","LIN":"12鄰","STREET":"立興街","SECT":" ","MAREA":" ","LANE":" ","ALLEY":" ","HOUSE_NO":"４１號","E_COORD97":174604.07000000001,"N_COORD97":2544850.7000000002,"ADDRESS":"立興街４１號","OBJECTID":539324},"geometry":{"x":174604.07000000216,"y":2544850.7000000011}},{"attributes":{"ID":539352,"DIS_CODE":0,"TOWNNAME":"永康區","LI":"東灣里","LIN":"12鄰","STREET":"大灣路","SECT":" ","MAREA":" ","LANE":" ","ALLEY":" ","HOUSE_NO":"４１５號","E_COORD97":174720.70999999999,"N_COORD97":2544820.9900000002,"ADDRESS":"大灣路４１５號","OBJECTID":539325},"geometry":{"x":174720.70999999996,"y":2544820.9900000002}},{"attributes":{"ID":539353,"DIS_CODE":0,"TOWNNAME":"永康區","LI":"南灣里","LIN":"12鄰","STREET":"立興街","SECT":" ","MAREA":" ","LANE":" ","ALLEY":" ","HOUSE_NO":"３１號","E_COORD97":174621.82999999999,"N_COORD97":2544858.1499999999,"ADDRESS":"立興街３１號","OBJECTID":539326},"geometry":{"x":174621.83000000007,"y":2544858.1500000022}},{"attributes":{"ID":539354,"DIS_CODE":0,"TOWNNAME":"永康區","LI":"南灣里","LIN":"12鄰","STREET":"立興街","SECT":" ","MAREA":" ","LANE":" ","ALLEY":" ","HOUSE_NO":"４７號","E_COORD97":174594.41,"N_COORD97":2544834.6600000001,"ADDRESS":"立興街４７號","OBJECTID":539327},"geometry":{"x":174594.41000000015,"y":2544834.660000002}},{"attributes":{"ID":539355,"DIS_CODE":0,"TOWNNAME":"永康區","LI":"南灣里","LIN":"12鄰","STREET":"立興街","SECT":" ","MAREA":" ","LANE":" ","ALLEY":" ","HOUSE_NO":"４５號","E_COORD97":174597.76999999999,"N_COORD97":2544839.6800000002,"ADDRESS":"立興街４５號","OBJECTID":539328},"geometry":{"x":174597.76999999955,"y":2544839.6800000034}},{"attributes":{"ID":539356,"DIS_CODE":0,"TOWNNAME":"安南區","LI":"國安里","LIN":"12鄰","STREET":"郡安路","SECT":"六段","MAREA":" ","LANE":" ","ALLEY":" ","HOUSE_NO":"１１２號","E_COORD97":166458.57999999999,"N_COORD97":2547515.9700000002,"ADDRESS":"郡安路六段１１２號","OBJECTID":539329},"geometry":{"x":166458.58000000101,"y":2547515.9700000007}},{"attributes":{"ID":539357,"DIS_CODE":0,"TOWNNAME":"安南區","LI":"國安里","LIN":"12鄰","STREET":"郡安路","SECT":"六段","MAREA":" ","LANE":" ","ALLEY":" ","HOUSE_NO":"１１３號","E_COORD97":166455.76999999999,"N_COORD97":2547509.6699999999,"ADDRESS":"郡安路六段１１３號","OBJECTID":539330},"geometry":{"x":166455.76999999955,"y":2547509.6700000018}},{"attributes":{"ID":539358,"DIS_CODE":0,"TOWNNAME":"安南區","LI":"國安里","LIN":"12鄰","STREET":"郡安路","SECT":"六段","MAREA":" ","LANE":" ","ALLEY":" ","HOUSE_NO":"１１５號","E_COORD97":166450.82999999999,"N_COORD97":2547513.1600000001,"ADDRESS":"郡安路六段１１５號","OBJECTID":539331},"geometry":{"x":166450.83000000007,"y":2547513.160000002}},{"attributes":{"ID":539359,"DIS_CODE":0,"TOWNNAME":"安南區","LI":"國安里","LIN":"12鄰","STREET":"郡安路","SECT":"六段","MAREA":" ","LANE":" ","ALLEY":" ","HOUSE_NO":"１１６號","E_COORD97":166447.78,"N_COORD97":2547508.4199999999,"ADDRESS":"郡安路六段１１６號","OBJECTID":539332},"geometry":{"x":166447.78000000119,"y":2547508.4199999999}},{"attributes":{"ID":539360,"DIS_CODE":0,"TOWNNAME":"安南區","LI":"國安里","LIN":"12鄰","STREET":"郡安路","SECT":"六段","MAREA":" ","LANE":" ","ALLEY":" ","HOUSE_NO":"１１７號","E_COORD97":166443.19,"N_COORD97":2547511.2799999998,"ADDRESS":"郡安路六段１１７號","OBJECTID":539333},"geometry":{"x":166443.19000000134,"y":2547511.2800000012}},{"attributes":{"ID":539361,"DIS_CODE":0,"TOWNNAME":"安南區","LI":"頂安里","LIN":"12鄰","STREET":"長溪路","SECT":"二段","MAREA":" ","LANE":" ","ALLEY":" ","HOUSE_NO":"１２２之７號","E_COORD97":168407.07999999999,"N_COORD97":2549573.5,"ADDRESS":"長溪路二段１２２之７號","OBJECTID":539334},"geometry":{"x":168407.08000000007,"y":2549573.5}},{"attributes":{"ID":539362,"DIS_CODE":0,"TOWNNAME":"安南區","LI":"頂安里","LIN":"12鄰","STREET":"怡安路","SECT":"一段","MAREA":" ","LANE":" ","ALLEY":" ","HOUSE_NO":"４７８號","E_COORD97":168512,"N_COORD97":2549231.5899999999,"ADDRESS":"怡安路一段４７８號","OBJECTID":539335},"geometry":{"x":168512.00000000093,"y":2549231.5900000017}},{"attributes":{"ID":539363,"DIS_CODE":0,"TOWNNAME":"安南區","LI":"溪心里","LIN":"12鄰","STREET":"安吉路","SECT":"一段","MAREA":" ","LANE":" ","ALLEY":" ","HOUSE_NO":"１０５號","E_COORD97":166759.41,"N_COORD97":2549384.2000000002,"ADDRESS":"安吉路一段１０５號","OBJECTID":539336},"geometry":{"x":166759.41000000015,"y":2549384.1999999993}},{"attributes":{"ID":539364,"DIS_CODE":0,"TOWNNAME":"安南區","LI":"溪心里","LIN":"12鄰","STREET":"安吉路","SECT":"一段","MAREA":" ","LANE":" ","ALLEY":" ","HOUSE_NO":"１０７號","E_COORD97":166759.13,"N_COORD97":2549389.1200000001,"ADDRESS":"安吉路一段１０７號","OBJECTID":539337},"geometry":{"x":166759.12999999989,"y":2549389.1200000029}},{"attributes":{"ID":539365,"DIS_CODE":0,"TOWNNAME":"安南區","LI":"海南里","LIN":"12鄰","STREET":"府安路","SECT":"七段","MAREA":" ","LANE":" ","ALLEY":" ","HOUSE_NO":"３９０之２０號","E_COORD97":164733.39000000001,"N_COORD97":2546448.6400000001,"ADDRESS":"府安路七段３９０之２０號","OBJECTID":539338},"geometry":{"x":164733.38999999873,"y":2546448.6400000025}},{"attributes":{"ID":539366,"DIS_CODE":0,"TOWNNAME":"新市區","LI":"永就里","LIN":"12鄰","STREET":"永華二街","SECT":" ","MAREA":" ","LANE":" ","ALLEY":" ","HOUSE_NO":"１１號","E_COORD97":177736.62,"N_COORD97":2551044.5,"ADDRESS":"永華二街１１號","OBJECTID":539339},"geometry":{"x":177736.62000000104,"y":2551044.5}},{"attributes":{"ID":539367,"DIS_CODE":0,"TOWNNAME":"新市區","LI":"永就里","LIN":"12鄰","STREET":"永華二街","SECT":" ","MAREA":" ","LANE":" ","ALLEY":" ","HOUSE_NO":"２５號","E_COORD97":177798.32000000001,"N_COORD97":2551066.75,"ADDRESS":"永華二街２５號","OBJECTID":539340},"geometry":{"x":177798.32000000123,"y":2551066.75}},{"attributes":{"ID":539368,"DIS_CODE":0,"TOWNNAME":"新市區","LI":"港墘里","LIN":"12鄰","STREET":"中山路","SECT":" ","MAREA":" ","LANE":" ","ALLEY":" ","HOUSE_NO":"１７６號","E_COORD97":178112.42999999999,"N_COORD97":2552483.75,"ADDRESS":"中山路１７６號","OBJECTID":539341},"geometry":{"x":178112.43000000063,"y":2552483.75}},{"attributes":{"ID":539369,"DIS_CODE":0,"TOWNNAME":"新市區","LI":"港墘里","LIN":"12鄰","STREET":"中山路","SECT":" ","MAREA":" ","LANE":" ","ALLEY":" ","HOUSE_NO":"１３８之３號","E_COORD97":178365.67999999999,"N_COORD97":2552724.2999999998,"ADDRESS":"中山路１３８之３號","OBJECTID":539342},"geometry":{"x":178365.6799999997,"y":2552724.3000000026}},{"attributes":{"ID":539370,"DIS_CODE":0,"TOWNNAME":"中西區","LI":"中正里","LIN":"12鄰","STREET":"民生路","SECT":"二段","MAREA":" ","LANE":" ","ALLEY":" ","HOUSE_NO":"１３５號","E_COORD97":167557.19,"N_COORD97":2544002.1400000001,"ADDRESS":"民生路二段１３５號","OBJECTID":539343},"geometry":{"x":167557.19000000134,"y":2544002.1400000006}},{"attributes":{"ID":539371,"DIS_CODE":0,"TOWNNAME":"中西區","LI":"中正里","LIN":"12鄰","STREET":"民生路","SECT":"二段","MAREA":" ","LANE":" ","ALLEY":" ","HOUSE_NO":"１３７號","E_COORD97":167553.78,"N_COORD97":2544003.8700000001,"ADDRESS":"民生路二段１３７號","OBJECTID":539344},"geometry":{"x":167553.78000000026,"y":2544003.8700000029}},{"attributes":{"ID":539372,"DIS_CODE":0,"TOWNNAME":"中西區","LI":"中正里","LIN":"12鄰","STREET":"民生路","SECT":"二段","MAREA":" ","LANE":" ","ALLEY":" ","HOUSE_NO":"１３９號","E_COORD97":167549.57000000001,"N_COORD97":2544004.75,"ADDRESS":"民生路二段１３９號","OBJECTID":539345},"geometry":{"x":167549.5700000003,"y":2544004.75}},{"attributes":{"ID":539373,"DIS_CODE":0,"TOWNNAME":"中西區","LI":"中正里","LIN":"12鄰","STREET":"民生路","SECT":"二段","MAREA":" ","LANE":" ","ALLEY":" ","HOUSE_NO":"１４１號","E_COORD97":167546.89999999999,"N_COORD97":2544006.0899999999,"ADDRESS":"民生路二段１４１號","OBJECTID":539346},"geometry":{"x":167546.9000000013,"y":2544006.0899999999}},{"attributes":{"ID":539374,"DIS_CODE":0,"TOWNNAME":"中西區","LI":"中正里","LIN":"12鄰","STREET":"民生路","SECT":"二段","MAREA":" ","LANE":" ","ALLEY":" ","HOUSE_NO":"１４３號","E_COORD97":167542.42000000001,"N_COORD97":2544008.4300000002,"ADDRESS":"民生路二段１４３號","OBJECTID":539347},"geometry":{"x":167542.42000000179,"y":2544008.4300000016}},{"attributes":{"ID":539375,"DIS_CODE":0,"TOWNNAME":"中西區","LI":"中正里","LIN":"12鄰","STREET":"民生路","SECT":"二段","MAREA":" ","LANE":" ","ALLEY":" ","HOUSE_NO":"１４５號","E_COORD97":167538.47,"N_COORD97":2544009.0299999998,"ADDRESS":"民生路二段１４５號","OBJECTID":539348},"geometry":{"x":167538.46999999881,"y":2544009.0299999993}},{"attributes":{"ID":539376,"DIS_CODE":0,"TOWNNAME":"中西區","LI":"中正里","LIN":"12鄰","STREET":"民生路","SECT":"二段","MAREA":" ","LANE":" ","ALLEY":" ","HOUSE_NO":"１４７號","E_COORD97":167534.66,"N_COORD97":2544009.0899999999,"ADDRESS":"民生路二段１４７號","OBJECTID":539349},"geometry":{"x":167534.66000000108,"y":2544009.0899999999}},{"attributes":{"ID":539377,"DIS_CODE":0,"TOWNNAME":"中西區","LI":"中正里","LIN":"12鄰","STREET":"民生路","SECT":"二段","MAREA":" ","LANE":" ","ALLEY":" ","HOUSE_NO":"１４９號","E_COORD97":167530.98000000001,"N_COORD97":2544010.23,"ADDRESS":"民生路二段１４９號","OBJECTID":539350},"geometry":{"x":167530.98000000138,"y":2544010.2300000023}},{"attributes":{"ID":539378,"DIS_CODE":0,"TOWNNAME":"中西區","LI":"中正里","LIN":"12鄰","STREET":"民生路","SECT":"二段","MAREA":" ","LANE":" ","ALLEY":" ","HOUSE_NO":"１５１號","E_COORD97":167526.5,"N_COORD97":2544012.1000000001,"ADDRESS":"民生路二段１５１號","OBJECTID":539351},"geometry":{"x":167526.5,"y":2544012.0999999996}},{"attributes":{"ID":539379,"DIS_CODE":0,"TOWNNAME":"中西區","LI":"中正里","LIN":"12鄰","STREET":"民生路","SECT":"二段","MAREA":" ","LANE":" ","ALLEY":" ","HOUSE_NO":"１５３號","E_COORD97":167521.23000000001,"N_COORD97":2544013.6000000001,"ADDRESS":"民生路二段１５３號","OBJECTID":539352},"geometry":{"x":167521.23000000138,"y":2544013.6000000015}},{"attributes":{"ID":539380,"DIS_CODE":0,"TOWNNAME":"中西區","LI":"中正里","LIN":"12鄰","STREET":"民生路","SECT":"二段","MAREA":" ","LANE":" ","ALLEY":" ","HOUSE_NO":"１５５號","E_COORD97":167517.67999999999,"N_COORD97":2544014.6699999999,"ADDRESS":"民生路二段１５５號","OBJECTID":539353},"geometry":{"x":167517.6799999997,"y":2544014.6699999999}},{"attributes":{"ID":539381,"DIS_CODE":0,"TOWNNAME":"中西區","LI":"中正里","LIN":"12鄰","STREET":"民生路","SECT":"二段","MAREA":" ","LANE":" ","ALLEY":" ","HOUSE_NO":"１５７號","E_COORD97":167512.13,"N_COORD97":2544015.8100000001,"ADDRESS":"民生路二段１５７號","OBJECTID":539354},"geometry":{"x":167512.13000000175,"y":2544015.8100000042}},{"attributes":{"ID":539382,"DIS_CODE":0,"TOWNNAME":"中西區","LI":"中正里","LIN":"12鄰","STREET":"康樂街","SECT":" ","MAREA":" ","LANE":" ","ALLEY":" ","HOUSE_NO":"１５６號","E_COORD97":167498.67999999999,"N_COORD97":2543977.29,"ADDRESS":"康樂街１５６號","OBJECTID":539355},"geometry":{"x":167498.68000000063,"y":2543977.2900000028}},{"attributes":{"ID":539383,"DIS_CODE":0,"TOWNNAME":"中西區","LI":"民主里","LIN":"12鄰","STREET":"康樂街","SECT":" ","MAREA":" ","LANE":" ","ALLEY":" ","HOUSE_NO":"１５５號","E_COORD97":167416.72,"N_COORD97":2543755.25,"ADDRESS":"康樂街１５５號","OBJECTID":539356},"geometry":{"x":167416.72000000067,"y":2543755.2500000019}},{"attributes":{"ID":539384,"DIS_CODE":0,"TOWNNAME":"中西區","LI":"民主里","LIN":"12鄰","STREET":"中正路","SECT":" ","MAREA":" ","LANE":" ","ALLEY":" ","HOUSE_NO":"３２７號","E_COORD97":167421.91,"N_COORD97":2543778.1299999999,"ADDRESS":"中正路３２７號","OBJECTID":539357},"geometry":{"x":167421.91000000015,"y":2543778.1300000027}},{"attributes":{"ID":539385,"DIS_CODE":0,"TOWNNAME":"中西區","LI":"民主里","LIN":"12鄰","STREET":"中正路","SECT":" ","MAREA":" ","LANE":" ","ALLEY":" ","HOUSE_NO":"３３７號","E_COORD97":167404.51999999999,"N_COORD97":2543784.4300000002,"ADDRESS":"中正路３３７號","OBJECTID":539358},"geometry":{"x":167404.52000000048,"y":2543784.4300000016}},{"attributes":{"ID":539386,"DIS_CODE":0,"TOWNNAME":"中西區","LI":"民主里","LIN":"12鄰","STREET":"友愛街","SECT":" ","MAREA":" ","LANE":" ","ALLEY":" ","HOUSE_NO":"３０４號","E_COORD97":167398.48000000001,"N_COORD97":2543695.5099999998,"ADDRESS":"友愛街３０４號","OBJECTID":539359},"geometry":{"x":167398.48000000231,"y":2543695.5100000016}},{"attributes":{"ID":539387,"DIS_CODE":0,"TOWNNAME":"中西區","LI":"民主里","LIN":"12鄰","STREET":"友愛街","SECT":" ","MAREA":" ","LANE":" ","ALLEY":" ","HOUSE_NO":"３０６號","E_COORD97":167393.70000000001,"N_COORD97":2543696.02,"ADDRESS":"友愛街３０６號","OBJECTID":539360},"geometry":{"x":167393.70000000112,"y":2543696.0200000014}},{"attributes":{"ID":539388,"DIS_CODE":0,"TOWNNAME":"中西區","LI":"民主里","LIN":"12鄰","STREET":"友愛街","SECT":" ","MAREA":" ","LANE":" ","ALLEY":" ","HOUSE_NO":"３０８號","E_COORD97":167390.98999999999,"N_COORD97":2543696.7999999998,"ADDRESS":"友愛街３０８號","OBJECTID":539361},"geometry":{"x":167390.99000000022,"y":2543696.8000000007}},{"attributes":{"ID":539389,"DIS_CODE":0,"TOWNNAME":"中西區","LI":"民主里","LIN":"12鄰","STREET":"康樂街","SECT":" ","MAREA":" ","LANE":" ","ALLEY":" ","HOUSE_NO":"１２７號","E_COORD97":167404.92999999999,"N_COORD97":2543695.0099999998,"ADDRESS":"康樂街１２７號","OBJECTID":539362},"geometry":{"x":167404.93000000156,"y":2543695.0100000035}},{"attributes":{"ID":539390,"DIS_CODE":0,"TOWNNAME":"中西區","LI":"民主里","LIN":"12鄰","STREET":"康樂街","SECT":" ","MAREA":" ","LANE":" ","ALLEY":" ","HOUSE_NO":"１２９號","E_COORD97":167401.28,"N_COORD97":2543701.0099999998,"ADDRESS":"康樂街１２９號","OBJECTID":539363},"geometry":{"x":167401.27999999933,"y":2543701.0099999998}},{"attributes":{"ID":539391,"DIS_CODE":0,"TOWNNAME":"中西區","LI":"民主里","LIN":"12鄰","STREET":"康樂街","SECT":" ","MAREA":" ","LANE":" ","ALLEY":" ","HOUSE_NO":"１３１號","E_COORD97":167402.10000000001,"N_COORD97":2543706.0699999998,"ADDRESS":"康樂街１３１號","OBJECTID":539364},"geometry":{"x":167402.10000000056,"y":2543706.0700000022}},{"attributes":{"ID":539392,"DIS_CODE":0,"TOWNNAME":"中西區","LI":"民主里","LIN":"12鄰","STREET":"康樂街","SECT":" ","MAREA":" ","LANE":" ","ALLEY":" ","HOUSE_NO":"１３５號","E_COORD97":167403.75,"N_COORD97":2543714.8900000001,"ADDRESS":"康樂街１３５號","OBJECTID":539365},"geometry":{"x":167403.75000000093,"y":2543714.8900000025}},{"attributes":{"ID":539393,"DIS_CODE":0,"TOWNNAME":"中西區","LI":"民主里","LIN":"12鄰","STREET":"康樂街","SECT":" ","MAREA":" ","LANE":" ","ALLEY":" ","HOUSE_NO":"１３７號","E_COORD97":167410.75,"N_COORD97":2543722.4700000002,"ADDRESS":"康樂街１３７號","OBJECTID":539366},"geometry":{"x":167410.75,"y":2543722.4700000007}},{"attributes":{"ID":539394,"DIS_CODE":0,"TOWNNAME":"中西區","LI":"民主里","LIN":"12鄰","STREET":"康樂街","SECT":" ","MAREA":" ","LANE":" ","ALLEY":" ","HOUSE_NO":"１３９號","E_COORD97":167411.64000000001,"N_COORD97":2543726.9300000002,"ADDRESS":"康樂街１３９號","OBJECTID":539367},"geometry":{"x":167411.63999999966,"y":2543726.9300000016}},{"attributes":{"ID":539395,"DIS_CODE":0,"TOWNNAME":"中西區","LI":"民主里","LIN":"12鄰","STREET":"康樂街","SECT":" ","MAREA":" ","LANE":" ","ALLEY":" ","HOUSE_NO":"１４１號","E_COORD97":167409.41,"N_COORD97":2543730.73,"ADDRESS":"康樂街１４１號","OBJECTID":539368},"geometry":{"x":167409.41000000108,"y":2543730.7300000004}},{"attributes":{"ID":539396,"DIS_CODE":0,"TOWNNAME":"中西區","LI":"民主里","LIN":"12鄰","STREET":"康樂街","SECT":" ","MAREA":" ","LANE":" ","ALLEY":" ","HOUSE_NO":"１４３號","E_COORD97":167411.13,"N_COORD97":2543733.1499999999,"ADDRESS":"康樂街１４３號","OBJECTID":539369},"geometry":{"x":167411.13000000082,"y":2543733.1500000022}},{"attributes":{"ID":539397,"DIS_CODE":0,"TOWNNAME":"中西區","LI":"民主里","LIN":"12鄰","STREET":"康樂街","SECT":" ","MAREA":" ","LANE":" ","ALLEY":" ","HOUSE_NO":"１４５號","E_COORD97":167410.87,"N_COORD97":2543736.6400000001,"ADDRESS":"康樂街１４５號","OBJECTID":539370},"geometry":{"x":167410.87000000197,"y":2543736.6400000025}},{"attributes":{"ID":539398,"DIS_CODE":0,"TOWNNAME":"中西區","LI":"民主里","LIN":"12鄰","STREET":"康樂街","SECT":" ","MAREA":" ","LANE":" ","ALLEY":" ","HOUSE_NO":"１４７號","E_COORD97":167413.35000000001,"N_COORD97":2543740.1299999999,"ADDRESS":"康樂街１４７號","OBJECTID":539371},"geometry":{"x":167413.34999999963,"y":2543740.129999999}},{"attributes":{"ID":539399,"DIS_CODE":0,"TOWNNAME":"中西區","LI":"民主里","LIN":"12鄰","STREET":"康樂街","SECT":" ","MAREA":" ","LANE":" ","ALLEY":" ","HOUSE_NO":"１４９號","E_COORD97":167414.69,"N_COORD97":2543744.9100000001,"ADDRESS":"康樂街１４９號","OBJECTID":539372},"geometry":{"x":167414.69000000134,"y":2543744.910000002}},{"attributes":{"ID":539400,"DIS_CODE":0,"TOWNNAME":"中西區","LI":"民主里","LIN":"12鄰","STREET":"康樂街","SECT":" ","MAREA":" ","LANE":" ","ALLEY":" ","HOUSE_NO":"１５１號","E_COORD97":167415.70000000001,"N_COORD97":2543748.9700000002,"ADDRESS":"康樂街１５１號","OBJECTID":539373},"geometry":{"x":167415.70000000112,"y":2543748.9700000007}},{"attributes":{"ID":539401,"DIS_CODE":0,"TOWNNAME":"中西區","LI":"民主里","LIN":"12鄰","STREET":"康樂街","SECT":" ","MAREA":" ","LANE":" ","ALLEY":" ","HOUSE_NO":"１５３號","E_COORD97":167415.82999999999,"N_COORD97":2543751.8900000001,"ADDRESS":"康樂街１５３號","OBJECTID":539374},"geometry":{"x":167415.83000000007,"y":2543751.8900000025}},{"attributes":{"ID":539402,"DIS_CODE":0,"TOWNNAME":"中西區","LI":"民主里","LIN":"12鄰","STREET":"康樂街","SECT":" ","MAREA":" ","LANE":" ","ALLEY":" ","HOUSE_NO":"１５７號","E_COORD97":167417.67000000001,"N_COORD97":2543758.3599999999,"ADDRESS":"康樂街１５７號","OBJECTID":539375},"geometry":{"x":167417.67000000086,"y":2543758.3600000013}},{"attributes":{"ID":539403,"DIS_CODE":0,"TOWNNAME":"中西區","LI":"民主里","LIN":"12鄰","STREET":"康樂街","SECT":" ","MAREA":" ","LANE":" ","ALLEY":" ","HOUSE_NO":"１５９號","E_COORD97":167418.13,"N_COORD97":2543761.6499999999,"ADDRESS":"康樂街１５９號","OBJECTID":539376},"geometry":{"x":167418.12999999989,"y":2543761.6500000004}},{"attributes":{"ID":539404,"DIS_CODE":0,"TOWNNAME":"中西區","LI":"民主里","LIN":"12鄰","STREET":"康樂街","SECT":" ","MAREA":" ","LANE":" ","ALLEY":" ","HOUSE_NO":"１６３號","E_COORD97":167418.01999999999,"N_COORD97":2543767.9500000002,"ADDRESS":"康樂街１６３號","OBJECTID":539377},"geometry":{"x":167418.02000000048,"y":2543767.9499999993}},{"attributes":{"ID":539405,"DIS_CODE":0,"TOWNNAME":"中西區","LI":"民主里","LIN":"12鄰","STREET":"康樂街","SECT":" ","MAREA":" ","LANE":" ","ALLEY":" ","HOUSE_NO":"１６５號","E_COORD97":167420.98000000001,"N_COORD97":2543770.4399999999,"ADDRESS":"康樂街１６５號","OBJECTID":539378},"geometry":{"x":167420.98000000138,"y":2543770.4400000013}},{"attributes":{"ID":539406,"DIS_CODE":0,"TOWNNAME":"中西區","LI":"三合里","LIN":"12鄰","STREET":"金華路","SECT":"四段","MAREA":" ","LANE":" ","ALLEY":" ","HOUSE_NO":"８９號","E_COORD97":167488.42999999999,"N_COORD97":2544476.3599999999,"ADDRESS":"金華路四段８９號","OBJECTID":539379},"geometry":{"x":167488.43000000063,"y":2544476.3600000013}},{"attributes":{"ID":539407,"DIS_CODE":0,"TOWNNAME":"中西區","LI":"三合里","LIN":"12鄰","STREET":"金華路","SECT":"四段","MAREA":" ","LANE":" ","ALLEY":" ","HOUSE_NO":"９１號","E_COORD97":167490.04000000001,"N_COORD97":2544480.6200000001,"ADDRESS":"金華路四段９１號","OBJECTID":539380},"geometry":{"x":167490.04000000097,"y":2544480.620000001}},{"attributes":{"ID":539408,"DIS_CODE":0,"TOWNNAME":"中西區","LI":"三合里","LIN":"12鄰","STREET":"金華路","SECT":"四段","MAREA":" ","LANE":" ","ALLEY":" ","HOUSE_NO":"９３號","E_COORD97":167492.06,"N_COORD97":2544484.0499999998,"ADDRESS":"金華路四段９３號","OBJECTID":539381},"geometry":{"x":167492.06000000145,"y":2544484.0500000026}},{"attributes":{"ID":539409,"DIS_CODE":0,"TOWNNAME":"中西區","LI":"三合里","LIN":"12鄰","STREET":"金華路","SECT":"四段","MAREA":" ","LANE":" ","ALLEY":" ","HOUSE_NO":"９５號","E_COORD97":167494.88,"N_COORD97":2544488.2799999998,"ADDRESS":"金華路四段９５號","OBJECTID":539382},"geometry":{"x":167494.87999999989,"y":2544488.2799999993}},{"attributes":{"ID":539410,"DIS_CODE":0,"TOWNNAME":"中西區","LI":"三合里","LIN":"12鄰","STREET":"金華路","SECT":"四段","MAREA":" ","LANE":" ","ALLEY":" ","HOUSE_NO":"９７號","E_COORD97":167497.91,"N_COORD97":2544491.2999999998,"ADDRESS":"金華路四段９７號","OBJECTID":539383},"geometry":{"x":167497.91000000015,"y":2544491.3000000026}},{"attributes":{"ID":539411,"DIS_CODE":0,"TOWNNAME":"中西區","LI":"三合里","LIN":"12鄰","STREET":"金華路","SECT":"四段","MAREA":" ","LANE":" ","ALLEY":" ","HOUSE_NO":"９９號","E_COORD97":167499.12,"N_COORD97":2544495.1299999999,"ADDRESS":"金華路四段９９號","OBJECTID":539384},"geometry":{"x":167499.12000000104,"y":2544495.1300000008}},{"attributes":{"ID":539412,"DIS_CODE":0,"TOWNNAME":"東區","LI":"大同里","LIN":"12鄰","STREET":"大同路","SECT":"一段","MAREA":" ","LANE":" ","ALLEY":" ","HOUSE_NO":"１４３號","E_COORD97":169146.07000000001,"N_COORD97":2542893.6600000001,"ADDRESS":"大同路一段１４３號","OBJECTID":539385},"geometry":{"x":169146.07000000123,"y":2542893.6600000001}},{"attributes":{"ID":539413,"DIS_CODE":0,"TOWNNAME":"東區","LI":"大同里","LIN":"12鄰","STREET":"大同路","SECT":"一段","MAREA":" ","LANE":" ","ALLEY":" ","HOUSE_NO":"１４５號","E_COORD97":169145.79000000001,"N_COORD97":2542887.8700000001,"ADDRESS":"大同路一段１４５號","OBJECTID":539386},"geometry":{"x":169145.79000000097,"y":2542887.8700000029}},{"attributes":{"ID":539414,"DIS_CODE":0,"TOWNNAME":"東區","LI":"大同里","LIN":"12鄰","STREET":"大同路","SECT":"一段","MAREA":" ","LANE":" ","ALLEY":" ","HOUSE_NO":"１４７號","E_COORD97":169146.32000000001,"N_COORD97":2542883.5099999998,"ADDRESS":"大同路一段１４７號","OBJECTID":539387},"geometry":{"x":169146.32000000123,"y":2542883.5099999998}},{"attributes":{"ID":539415,"DIS_CODE":0,"TOWNNAME":"東區","LI":"大同里","LIN":"12鄰","STREET":"大同路","SECT":"一段","MAREA":" ","LANE":" ","ALLEY":" ","HOUSE_NO":"１４９號","E_COORD97":169145.94,"N_COORD97":2542879.6000000001,"ADDRESS":"大同路一段１４９號","OBJECTID":539388},"geometry":{"x":169145.94000000041,"y":2542879.5999999996}},{"attributes":{"ID":539416,"DIS_CODE":0,"TOWNNAME":"東區","LI":"大同里","LIN":"12鄰","STREET":"大同路","SECT":"一段","MAREA":" ","LANE":" ","ALLEY":" ","HOUSE_NO":"１５１號","E_COORD97":169146.32000000001,"N_COORD97":2542876.29,"ADDRESS":"大同路一段１５１號","OBJECTID":539389},"geometry":{"x":169146.32000000123,"y":2542876.290000001}},{"attributes":{"ID":539417,"DIS_CODE":0,"TOWNNAME":"東區","LI":"大同里","LIN":"12鄰","STREET":"大同路","SECT":"一段","MAREA":" ","LANE":" ","ALLEY":" ","HOUSE_NO":"１５３號","E_COORD97":169146.76999999999,"N_COORD97":2542872.75,"ADDRESS":"大同路一段１５３號","OBJECTID":539390},"geometry":{"x":169146.77000000142,"y":2542872.75}},{"attributes":{"ID":539418,"DIS_CODE":0,"TOWNNAME":"麻豆區","LI":"東角里","LIN":"12鄰","STREET":"興中路","SECT":" ","MAREA":" ","LANE":" ","ALLEY":" ","HOUSE_NO":"１８８號之１","E_COORD97":173712.51000000001,"N_COORD97":2564802.8900000001,"ADDRESS":"興中路１８８號之１","OBJECTID":539391},"geometry":{"x":173712.51000000071,"y":2564802.8900000025}},{"attributes":{"ID":539419,"DIS_CODE":0,"TOWNNAME":"麻豆區","LI":"東角里","LIN":"12鄰","STREET":"興中路","SECT":" ","MAREA":" ","LANE":" ","ALLEY":" ","HOUSE_NO":"１８８號之２","E_COORD97":173718.73000000001,"N_COORD97":2564804.1699999999,"ADDRESS":"興中路１８８號之２","OBJECTID":539392},"geometry":{"x":173718.73000000138,"y":2564804.1700000018}},{"attributes":{"ID":539420,"DIS_CODE":0,"TOWNNAME":"麻豆區","LI":"東角里","LIN":"12鄰","STREET":"興中路","SECT":" ","MAREA":" ","LANE":" ","ALLEY":" ","HOUSE_NO":"１８８號之３","E_COORD97":173706.25,"N_COORD97":2564801.2000000002,"ADDRESS":"興中路１８８號之３","OBJECTID":539393},"geometry":{"x":173706.25000000093,"y":2564801.1999999993}},{"attributes":{"ID":539421,"DIS_CODE":0,"TOWNNAME":"麻豆區","LI":"東角里","LIN":"12鄰","STREET":"興中路","SECT":" ","MAREA":" ","LANE":" ","ALLEY":" ","HOUSE_NO":"１９２號","E_COORD97":173725.09,"N_COORD97":2564776.2599999998,"ADDRESS":"興中路１９２號","OBJECTID":539394},"geometry":{"x":173725.08999999985,"y":2564776.2600000016}},{"attributes":{"ID":539422,"DIS_CODE":0,"TOWNNAME":"麻豆區","LI":"東角里","LIN":"12鄰","STREET":"興中路","SECT":" ","MAREA":" ","LANE":" ","ALLEY":" ","HOUSE_NO":"１９６號","E_COORD97":173729.29000000001,"N_COORD97":2564794.6000000001,"ADDRESS":"興中路１９６號","OBJECTID":539395},"geometry":{"x":173729.2900000019,"y":2564794.5999999996}},{"attributes":{"ID":539423,"DIS_CODE":0,"TOWNNAME":"麻豆區","LI":"東角里","LIN":"12鄰","STREET":"興中路","SECT":" ","MAREA":" ","LANE":" ","ALLEY":" ","HOUSE_NO":"１９８號","E_COORD97":173735.17000000001,"N_COORD97":2564795.48,"ADDRESS":"興中路１９８號","OBJECTID":539396},"geometry":{"x":173735.17000000086,"y":2564795.4800000023}},{"attributes":{"ID":539424,"DIS_CODE":0,"TOWNNAME":"麻豆區","LI":"東角里","LIN":"12鄰","STREET":"興中路","SECT":" ","MAREA":" ","LANE":" ","ALLEY":" ","HOUSE_NO":"２００號之１","E_COORD97":173746.14000000001,"N_COORD97":2564800.4700000002,"ADDRESS":"興中路２００號之１","OBJECTID":539397},"geometry":{"x":173746.13999999966,"y":2564800.4700000007}},{"attributes":{"ID":539425,"DIS_CODE":0,"TOWNNAME":"麻豆區","LI":"東角里","LIN":"12鄰","STREET":"興中路","SECT":" ","MAREA":" ","LANE":" ","ALLEY":" ","HOUSE_NO":"２００號","E_COORD97":173740.89999999999,"N_COORD97":2564799.8100000001,"ADDRESS":"興中路２００號","OBJECTID":539398},"geometry":{"x":173740.9000000013,"y":2564799.8100000024}},{"attributes":{"ID":539426,"DIS_CODE":0,"TOWNNAME":"麻豆區","LI":"東角里","LIN":"12鄰","STREET":"興中路","SECT":" ","MAREA":" ","LANE":" ","ALLEY":" ","HOUSE_NO":"２０２號之１","E_COORD97":173762.89000000001,"N_COORD97":2564804.1699999999,"ADDRESS":"興中路２０２號之１","OBJECTID":539399},"geometry":{"x":173762.8900000006,"y":2564804.1700000018}},{"attributes":{"ID":539427,"DIS_CODE":0,"TOWNNAME":"麻豆區","LI":"東角里","LIN":"12鄰","STREET":"興中路","SECT":" ","MAREA":" ","LANE":" ","ALLEY":" ","HOUSE_NO":"２０２號","E_COORD97":173753.04999999999,"N_COORD97":2564803.1299999999,"ADDRESS":"興中路２０２號","OBJECTID":539400},"geometry":{"x":173753.05000000075,"y":2564803.1300000008}}]}