{"displayFieldName":"TOWNNAME","fieldAliases":{"ID":"ID","DIS_CODE":"DIS_CODE","TOWNNAME":"TOWNNAME","LI":"LI","LIN":"LIN","STREET":"STREET","SECT":"SECT","MAREA":"MAREA","LANE":"LANE","ALLEY":"ALLEY","HOUSE_NO":"HOUSE_NO","E_COORD97":"E_COORD97","N_COORD97":"N_COORD97","ADDRESS":"ADDRESS","OBJECTID":"OBJECTID"},"geometryType":"esriGeometryPoint","spatialReference":{"wkid":102443,"latestWkid":3826},"fields":[{"name":"ID","type":"esriFieldTypeDouble","alias":"ID"},{"name":"DIS_CODE","type":"esriFieldTypeInteger","alias":"DIS_CODE"},{"name":"TOWNNAME","type":"esriFieldTypeString","alias":"TOWNNAME","length":8},{"name":"LI","type":"esriFieldTypeString","alias":"LI","length":8},{"name":"LIN","type":"esriFieldTypeString","alias":"LIN","length":12},{"name":"STREET","type":"esriFieldTypeString","alias":"STREET","length":20},{"name":"SECT","type":"esriFieldTypeString","alias":"SECT","length":8},{"name":"MAREA","type":"esriFieldTypeString","alias":"MAREA","length":12},{"name":"LANE","type":"esriFieldTypeString","alias":"LANE","length":10},{"name":"ALLEY","type":"esriFieldTypeString","alias":"ALLEY","length":10},{"name":"HOUSE_NO","type":"esriFieldTypeString","alias":"HOUSE_NO","length":20},{"name":"E_COORD97","type":"esriFieldTypeDouble","alias":"E_COORD97"},{"name":"N_COORD97","type":"esriFieldTypeDouble","alias":"N_COORD97"},{"name":"ADDRESS","type":"esriFieldTypeString","alias":"ADDRESS","length":50},{"name":"OBJECTID","type":"esriFieldTypeOID","alias":"OBJECTID"}],"features":[{"attributes":{"ID":528028,"DIS_CODE":0,"TOWNNAME":"關廟區","LI":"北勢里","LIN":"6鄰","STREET":"中正路","SECT":" ","MAREA":" ","LANE":" ","ALLEY":" ","HOUSE_NO":"７２８號","E_COORD97":181599.85999999999,"N_COORD97":2540315.25,"ADDRESS":"中正路７２８號","OBJECTID":528001},"geometry":{"x":181599.8600000022,"y":2540315.25}},{"attributes":{"ID":528029,"DIS_CODE":0,"TOWNNAME":"關廟區","LI":"五甲里","LIN":"6鄰","STREET":"南雄路","SECT":"一段","MAREA":" ","LANE":" ","ALLEY":" ","HOUSE_NO":"８６１號","E_COORD97":181317.19,"N_COORD97":2539164.2799999998,"ADDRESS":"南雄路一段８６１號","OBJECTID":528002},"geometry":{"x":181317.19000000041,"y":2539164.2800000012}},{"attributes":{"ID":528030,"DIS_CODE":0,"TOWNNAME":"北區","LI":"成德里","LIN":"6鄰","STREET":"育德路","SECT":" ","MAREA":" ","LANE":" ","ALLEY":" ","HOUSE_NO":"９９號","E_COORD97":168437.48999999999,"N_COORD97":2545385.6800000002,"ADDRESS":"育德路９９號","OBJECTID":528003},"geometry":{"x":168437.49000000209,"y":2545385.6800000034}},{"attributes":{"ID":528031,"DIS_CODE":0,"TOWNNAME":"北區","LI":"成德里","LIN":"6鄰","STREET":"育德路","SECT":" ","MAREA":" ","LANE":" ","ALLEY":" ","HOUSE_NO":"１０５號","E_COORD97":168443.75,"N_COORD97":2545396.7799999998,"ADDRESS":"育德路１０５號","OBJECTID":528004},"geometry":{"x":168443.74999999907,"y":2545396.7799999993}},{"attributes":{"ID":528032,"DIS_CODE":0,"TOWNNAME":"北區","LI":"成德里","LIN":"6鄰","STREET":"育德路","SECT":" ","MAREA":" ","LANE":" ","ALLEY":" ","HOUSE_NO":"１０７號","E_COORD97":168445.57000000001,"N_COORD97":2545400.21,"ADDRESS":"育德路１０７號","OBJECTID":528005},"geometry":{"x":168445.57000000123,"y":2545400.2100000046}},{"attributes":{"ID":528033,"DIS_CODE":0,"TOWNNAME":"北區","LI":"成德里","LIN":"6鄰","STREET":"育德路","SECT":" ","MAREA":" ","LANE":" ","ALLEY":" ","HOUSE_NO":"１０９號","E_COORD97":168448.19,"N_COORD97":2545403.23,"ADDRESS":"育德路１０９號","OBJECTID":528006},"geometry":{"x":168448.19000000227,"y":2545403.2300000042}},{"attributes":{"ID":528034,"DIS_CODE":0,"TOWNNAME":"北區","LI":"成德里","LIN":"6鄰","STREET":"育德路","SECT":" ","MAREA":" ","LANE":" ","ALLEY":" ","HOUSE_NO":"１１１號","E_COORD97":168451.42000000001,"N_COORD97":2545406.6600000001,"ADDRESS":"育德路１１１號","OBJECTID":528007},"geometry":{"x":168451.42000000086,"y":2545406.6600000039}},{"attributes":{"ID":528035,"DIS_CODE":0,"TOWNNAME":"北區","LI":"成德里","LIN":"6鄰","STREET":"育德路","SECT":" ","MAREA":" ","LANE":" ","ALLEY":" ","HOUSE_NO":"１１３號","E_COORD97":168454.25,"N_COORD97":2545409.4900000002,"ADDRESS":"育德路１１３號","OBJECTID":528008},"geometry":{"x":168454.25000000093,"y":2545409.4900000021}},{"attributes":{"ID":528036,"DIS_CODE":0,"TOWNNAME":"北區","LI":"成德里","LIN":"6鄰","STREET":"育德路","SECT":" ","MAREA":" ","LANE":" ","ALLEY":" ","HOUSE_NO":"１１５號","E_COORD97":168456.47,"N_COORD97":2545413.52,"ADDRESS":"育德路１１５號","OBJECTID":528009},"geometry":{"x":168456.47000000067,"y":2545413.5199999977}},{"attributes":{"ID":528037,"DIS_CODE":0,"TOWNNAME":"北區","LI":"成德里","LIN":"6鄰","STREET":"育德路","SECT":" ","MAREA":" ","LANE":" ","ALLEY":" ","HOUSE_NO":"１１７號","E_COORD97":168459.09,"N_COORD97":2545416.75,"ADDRESS":"育德路１１７號","OBJECTID":528010},"geometry":{"x":168459.09000000078,"y":2545416.7500000019}},{"attributes":{"ID":528038,"DIS_CODE":0,"TOWNNAME":"北區","LI":"成德里","LIN":"6鄰","STREET":"育德路","SECT":" ","MAREA":" ","LANE":" ","ALLEY":" ","HOUSE_NO":"１１９號","E_COORD97":168462.12,"N_COORD97":2545419.7599999998,"ADDRESS":"育德路１１９號","OBJECTID":528011},"geometry":{"x":168462.12000000104,"y":2545419.7600000016}},{"attributes":{"ID":528039,"DIS_CODE":0,"TOWNNAME":"北區","LI":"成德里","LIN":"6鄰","STREET":"育德路","SECT":" ","MAREA":" ","LANE":" ","ALLEY":" ","HOUSE_NO":"１２１號","E_COORD97":168473.67000000001,"N_COORD97":2545428.8500000001,"ADDRESS":"育德路１２１號","OBJECTID":528012},"geometry":{"x":168473.67000000086,"y":2545428.8500000015}},{"attributes":{"ID":528040,"DIS_CODE":0,"TOWNNAME":"北區","LI":"成德里","LIN":"6鄰","STREET":"育德路","SECT":" ","MAREA":" ","LANE":" ","ALLEY":" ","HOUSE_NO":"８３號","E_COORD97":168415.42000000001,"N_COORD97":2545358.48,"ADDRESS":"育德路８３號","OBJECTID":528013},"geometry":{"x":168415.41999999899,"y":2545358.4800000023}},{"attributes":{"ID":528041,"DIS_CODE":0,"TOWNNAME":"北區","LI":"成德里","LIN":"6鄰","STREET":"育德路","SECT":" ","MAREA":" ","LANE":" ","ALLEY":" ","HOUSE_NO":"８７號","E_COORD97":168421.06,"N_COORD97":2545365.4399999999,"ADDRESS":"育德路８７號","OBJECTID":528014},"geometry":{"x":168421.06000000145,"y":2545365.4399999995}},{"attributes":{"ID":528042,"DIS_CODE":0,"TOWNNAME":"北區","LI":"成德里","LIN":"6鄰","STREET":"育德路","SECT":" ","MAREA":" ","LANE":" ","ALLEY":" ","HOUSE_NO":"８９號","E_COORD97":168423.88,"N_COORD97":2545369.0800000001,"ADDRESS":"育德路８９號","OBJECTID":528015},"geometry":{"x":168423.87999999989,"y":2545369.0800000001}},{"attributes":{"ID":528043,"DIS_CODE":0,"TOWNNAME":"北區","LI":"成德里","LIN":"6鄰","STREET":"育德路","SECT":" ","MAREA":" ","LANE":" ","ALLEY":" ","HOUSE_NO":"９１號","E_COORD97":168427.59,"N_COORD97":2545372.1699999999,"ADDRESS":"育德路９１號","OBJECTID":528016},"geometry":{"x":168427.58999999985,"y":2545372.1699999981}},{"attributes":{"ID":528044,"DIS_CODE":0,"TOWNNAME":"北區","LI":"成德里","LIN":"6鄰","STREET":"育德路","SECT":" ","MAREA":" ","LANE":" ","ALLEY":" ","HOUSE_NO":"９３號","E_COORD97":168430.62,"N_COORD97":2545374.9900000002,"ADDRESS":"育德路９３號","OBJECTID":528017},"geometry":{"x":168430.62000000011,"y":2545374.9900000021}},{"attributes":{"ID":528045,"DIS_CODE":0,"TOWNNAME":"北區","LI":"成德里","LIN":"6鄰","STREET":"育德路","SECT":" ","MAREA":" ","LANE":" ","ALLEY":" ","HOUSE_NO":"９５號","E_COORD97":168433.04999999999,"N_COORD97":2545379.0299999998,"ADDRESS":"育德路９５號","OBJECTID":528018},"geometry":{"x":168433.04999999888,"y":2545379.0299999993}},{"attributes":{"ID":528046,"DIS_CODE":0,"TOWNNAME":"北區","LI":"成德里","LIN":"6鄰","STREET":"育德路","SECT":" ","MAREA":" ","LANE":" ","ALLEY":" ","HOUSE_NO":"９７號","E_COORD97":168435.67000000001,"N_COORD97":2545381.8500000001,"ADDRESS":"育德路９７號","OBJECTID":528019},"geometry":{"x":168435.66999999993,"y":2545381.8500000015}},{"attributes":{"ID":528047,"DIS_CODE":0,"TOWNNAME":"南區","LI":"再興里","LIN":"7鄰","STREET":"新慶街","SECT":" ","MAREA":" ","LANE":" ","ALLEY":" ","HOUSE_NO":"５５號","E_COORD97":167190.57000000001,"N_COORD97":2542326.3999999999,"ADDRESS":"新慶街５５號","OBJECTID":528020},"geometry":{"x":167190.5700000003,"y":2542326.4000000004}},{"attributes":{"ID":528048,"DIS_CODE":0,"TOWNNAME":"安南區","LI":"淵中里","LIN":"1鄰","STREET":"安中路","SECT":"三段","MAREA":" ","LANE":" ","ALLEY":" ","HOUSE_NO":"３４１號","E_COORD97":165608.73999999999,"N_COORD97":2549897.5299999998,"ADDRESS":"安中路三段３４１號","OBJECTID":528021},"geometry":{"x":165608.74000000115,"y":2549897.5299999993}},{"attributes":{"ID":528049,"DIS_CODE":0,"TOWNNAME":"安南區","LI":"淵中里","LIN":"1鄰","STREET":"安中路","SECT":"三段","MAREA":" ","LANE":" ","ALLEY":" ","HOUSE_NO":"３４３號","E_COORD97":165599.13,"N_COORD97":2549901.2200000002,"ADDRESS":"安中路三段３４３號","OBJECTID":528022},"geometry":{"x":165599.13000000082,"y":2549901.2200000007}},{"attributes":{"ID":528050,"DIS_CODE":0,"TOWNNAME":"安南區","LI":"淵中里","LIN":"1鄰","STREET":"安中路","SECT":"三段","MAREA":" ","LANE":" ","ALLEY":" ","HOUSE_NO":"３４７號","E_COORD97":165580.17999999999,"N_COORD97":2549904.1699999999,"ADDRESS":"安中路三段３４７號","OBJECTID":528023},"geometry":{"x":165580.1799999997,"y":2549904.1699999999}},{"attributes":{"ID":528051,"DIS_CODE":0,"TOWNNAME":"安南區","LI":"淵中里","LIN":"1鄰","STREET":"樂安一街","SECT":" ","MAREA":" ","LANE":" ","ALLEY":" ","HOUSE_NO":"２１２號","E_COORD97":165589.76999999999,"N_COORD97":2549862.5,"ADDRESS":"樂安一街２１２號","OBJECTID":528024},"geometry":{"x":165589.76999999955,"y":2549862.5000000037}},{"attributes":{"ID":528052,"DIS_CODE":0,"TOWNNAME":"安南區","LI":"淵中里","LIN":"1鄰","STREET":"樂安一街","SECT":" ","MAREA":" ","LANE":" ","ALLEY":" ","HOUSE_NO":"２１４號","E_COORD97":165593.09,"N_COORD97":2549878.4100000001,"ADDRESS":"樂安一街２１４號","OBJECTID":528025},"geometry":{"x":165593.08999999985,"y":2549878.410000002}},{"attributes":{"ID":528053,"DIS_CODE":0,"TOWNNAME":"安南區","LI":"淵中里","LIN":"1鄰","STREET":"樂安一街","SECT":" ","MAREA":" ","LANE":" ","ALLEY":" ","HOUSE_NO":"２１６號","E_COORD97":165575.87,"N_COORD97":2549882.0299999998,"ADDRESS":"樂安一街２１６號","OBJECTID":528026},"geometry":{"x":165575.87000000011,"y":2549882.0300000031}},{"attributes":{"ID":528054,"DIS_CODE":0,"TOWNNAME":"安南區","LI":"淵中里","LIN":"1鄰","STREET":"樂安一街","SECT":" ","MAREA":" ","LANE":" ","ALLEY":" ","HOUSE_NO":"２１８號","E_COORD97":165572.85000000001,"N_COORD97":2549866.04,"ADDRESS":"樂安一街２１８號","OBJECTID":528027},"geometry":{"x":165572.85000000149,"y":2549866.040000001}},{"attributes":{"ID":528055,"DIS_CODE":0,"TOWNNAME":"安南區","LI":"海西里","LIN":"4鄰","STREET":"海中街","SECT":" ","MAREA":" ","LANE":" ","ALLEY":" ","HOUSE_NO":"１２７號","E_COORD97":166369.32000000001,"N_COORD97":2549066.7000000002,"ADDRESS":"海中街１２７號","OBJECTID":528028},"geometry":{"x":166369.32000000123,"y":2549066.6999999993}},{"attributes":{"ID":528056,"DIS_CODE":0,"TOWNNAME":"麻豆區","LI":"保安里","LIN":"6鄰","STREET":"博愛路","SECT":" ","MAREA":" ","LANE":" ","ALLEY":" ","HOUSE_NO":"１號之８","E_COORD97":173290.48000000001,"N_COORD97":2564860.7999999998,"ADDRESS":"博愛路１號之８","OBJECTID":528029},"geometry":{"x":173290.48000000045,"y":2564860.8000000026}},{"attributes":{"ID":528057,"DIS_CODE":0,"TOWNNAME":"北區","LI":"大仁里","LIN":"6鄰","STREET":"北門路","SECT":"二段","MAREA":" ","LANE":" ","ALLEY":" ","HOUSE_NO":"２４９號","E_COORD97":169530.95999999999,"N_COORD97":2545337.1699999999,"ADDRESS":"北門路二段２４９號","OBJECTID":528030},"geometry":{"x":169530.96000000089,"y":2545337.1699999999}},{"attributes":{"ID":528058,"DIS_CODE":0,"TOWNNAME":"北區","LI":"大仁里","LIN":"6鄰","STREET":"北門路","SECT":"二段","MAREA":" ","LANE":" ","ALLEY":" ","HOUSE_NO":"２５１號","E_COORD97":169531.73999999999,"N_COORD97":2545340.1099999999,"ADDRESS":"北門路二段２５１號","OBJECTID":528031},"geometry":{"x":169531.74000000022,"y":2545340.1099999994}},{"attributes":{"ID":528059,"DIS_CODE":0,"TOWNNAME":"北區","LI":"大仁里","LIN":"6鄰","STREET":"北門路","SECT":"二段","MAREA":" ","LANE":" ","ALLEY":" ","HOUSE_NO":"２５３號","E_COORD97":169532.82000000001,"N_COORD97":2545343.8300000001,"ADDRESS":"北門路二段２５３號","OBJECTID":528032},"geometry":{"x":169532.82000000123,"y":2545343.8300000001}},{"attributes":{"ID":528060,"DIS_CODE":0,"TOWNNAME":"北區","LI":"大仁里","LIN":"6鄰","STREET":"北門路","SECT":"二段","MAREA":" ","LANE":" ","ALLEY":" ","HOUSE_NO":"２５５號","E_COORD97":169534.14000000001,"N_COORD97":2545347.02,"ADDRESS":"北門路二段２５５號","OBJECTID":528033},"geometry":{"x":169534.13999999873,"y":2545347.0200000014}},{"attributes":{"ID":528061,"DIS_CODE":0,"TOWNNAME":"北區","LI":"大仁里","LIN":"6鄰","STREET":"北門路","SECT":"二段","MAREA":" ","LANE":" ","ALLEY":" ","HOUSE_NO":"２５７號","E_COORD97":169536.72,"N_COORD97":2545350.2599999998,"ADDRESS":"北門路二段２５７號","OBJECTID":528034},"geometry":{"x":169536.71999999974,"y":2545350.2599999998}},{"attributes":{"ID":528062,"DIS_CODE":0,"TOWNNAME":"北區","LI":"大仁里","LIN":"6鄰","STREET":"北門路","SECT":"二段","MAREA":" ","LANE":" ","ALLEY":" ","HOUSE_NO":"２５９號","E_COORD97":169538.70000000001,"N_COORD97":2545353.3199999998,"ADDRESS":"北門路二段２５９號","OBJECTID":528035},"geometry":{"x":169538.70000000019,"y":2545353.3200000003}},{"attributes":{"ID":528063,"DIS_CODE":0,"TOWNNAME":"北區","LI":"大仁里","LIN":"6鄰","STREET":"北門路","SECT":"二段","MAREA":" ","LANE":" ","ALLEY":" ","HOUSE_NO":"２６１號","E_COORD97":169540.44,"N_COORD97":2545356.4399999999,"ADDRESS":"北門路二段２６１號","OBJECTID":528036},"geometry":{"x":169540.44000000134,"y":2545356.4400000032}},{"attributes":{"ID":528064,"DIS_CODE":0,"TOWNNAME":"北區","LI":"大仁里","LIN":"6鄰","STREET":"北門路","SECT":"二段","MAREA":" ","LANE":" ","ALLEY":" ","HOUSE_NO":"２６５號","E_COORD97":169543.64000000001,"N_COORD97":2545361.5,"ADDRESS":"北門路二段２６５號","OBJECTID":528037},"geometry":{"x":169543.63999999966,"y":2545361.5000000019}},{"attributes":{"ID":528065,"DIS_CODE":0,"TOWNNAME":"北區","LI":"大仁里","LIN":"6鄰","STREET":"北門路","SECT":"二段","MAREA":" ","LANE":" ","ALLEY":" ","HOUSE_NO":"２６７號","E_COORD97":169546.10000000001,"N_COORD97":2545364.4700000002,"ADDRESS":"北門路二段２６７號","OBJECTID":528038},"geometry":{"x":169546.09999999963,"y":2545364.4700000044}},{"attributes":{"ID":528066,"DIS_CODE":0,"TOWNNAME":"北區","LI":"大仁里","LIN":"6鄰","STREET":"北門路","SECT":"二段","MAREA":" ","LANE":" ","ALLEY":" ","HOUSE_NO":"２６９號","E_COORD97":169547.70999999999,"N_COORD97":2545367.27,"ADDRESS":"北門路二段２６９號","OBJECTID":528039},"geometry":{"x":169547.71000000183,"y":2545367.2699999996}},{"attributes":{"ID":528067,"DIS_CODE":0,"TOWNNAME":"北區","LI":"大仁里","LIN":"6鄰","STREET":"北門路","SECT":"二段","MAREA":" ","LANE":" ","ALLEY":" ","HOUSE_NO":"２７１號","E_COORD97":169549.54000000001,"N_COORD97":2545370.5499999998,"ADDRESS":"北門路二段２７１號","OBJECTID":528040},"geometry":{"x":169549.54000000097,"y":2545370.5500000045}},{"attributes":{"ID":528068,"DIS_CODE":0,"TOWNNAME":"北區","LI":"大仁里","LIN":"6鄰","STREET":"北門路","SECT":"二段","MAREA":" ","LANE":" ","ALLEY":" ","HOUSE_NO":"２７３號","E_COORD97":169551.95000000001,"N_COORD97":2545373.8599999999,"ADDRESS":"北門路二段２７３號","OBJECTID":528041},"geometry":{"x":169551.95000000112,"y":2545373.8600000031}},{"attributes":{"ID":528069,"DIS_CODE":0,"TOWNNAME":"北區","LI":"大仁里","LIN":"6鄰","STREET":"北門路","SECT":"二段","MAREA":" ","LANE":" ","ALLEY":" ","HOUSE_NO":"２７５號","E_COORD97":169557.04000000001,"N_COORD97":2545379.9199999999,"ADDRESS":"北門路二段２７５號","OBJECTID":528042},"geometry":{"x":169557.04000000004,"y":2545379.9199999999}},{"attributes":{"ID":528070,"DIS_CODE":0,"TOWNNAME":"北區","LI":"大仁里","LIN":"6鄰","STREET":"北門路","SECT":"二段","MAREA":" ","LANE":" ","ALLEY":" ","HOUSE_NO":"２７７號","E_COORD97":169558.88,"N_COORD97":2545383.8999999999,"ADDRESS":"北門路二段２７７號","OBJECTID":528043},"geometry":{"x":169558.88000000082,"y":2545383.9000000004}},{"attributes":{"ID":528071,"DIS_CODE":0,"TOWNNAME":"北區","LI":"大仁里","LIN":"6鄰","STREET":"北門路","SECT":"二段","MAREA":" ","LANE":" ","ALLEY":" ","HOUSE_NO":"２７９號","E_COORD97":169560.13,"N_COORD97":2545387.4399999999,"ADDRESS":"北門路二段２７９號","OBJECTID":528044},"geometry":{"x":169560.13000000082,"y":2545387.4400000013}},{"attributes":{"ID":528072,"DIS_CODE":0,"TOWNNAME":"北區","LI":"大仁里","LIN":"6鄰","STREET":"北門路","SECT":"二段","MAREA":" ","LANE":" ","ALLEY":" ","HOUSE_NO":"２８１號","E_COORD97":169562.01999999999,"N_COORD97":2545390.7599999998,"ADDRESS":"北門路二段２８１號","OBJECTID":528045},"geometry":{"x":169562.02000000142,"y":2545390.7599999998}},{"attributes":{"ID":528073,"DIS_CODE":0,"TOWNNAME":"北區","LI":"大仁里","LIN":"6鄰","STREET":"北門路","SECT":"二段","MAREA":" ","LANE":" ","ALLEY":" ","HOUSE_NO":"２８３號","E_COORD97":169563.91,"N_COORD97":2545394.7000000002,"ADDRESS":"北門路二段２８３號","OBJECTID":528046},"geometry":{"x":169563.91000000108,"y":2545394.6999999993}},{"attributes":{"ID":528074,"DIS_CODE":0,"TOWNNAME":"安平區","LI":"平安里","LIN":"6鄰","STREET":"安平路","SECT":" ","MAREA":" ","LANE":" ","ALLEY":" ","HOUSE_NO":"３３８號","E_COORD97":165651.59,"N_COORD97":2544344.2000000002,"ADDRESS":"安平路３３８號","OBJECTID":528047},"geometry":{"x":165651.59000000078,"y":2544344.200000003}},{"attributes":{"ID":528075,"DIS_CODE":0,"TOWNNAME":"安平區","LI":"平安里","LIN":"6鄰","STREET":"安平路","SECT":" ","MAREA":" ","LANE":" ","ALLEY":" ","HOUSE_NO":"３４０號","E_COORD97":165644.64999999999,"N_COORD97":2544343.1699999999,"ADDRESS":"安平路３４０號","OBJECTID":528048},"geometry":{"x":165644.6500000013,"y":2544343.1700000018}},{"attributes":{"ID":528076,"DIS_CODE":0,"TOWNNAME":"安平區","LI":"平安里","LIN":"6鄰","STREET":"安平路","SECT":" ","MAREA":" ","LANE":" ","ALLEY":" ","HOUSE_NO":"３４２號","E_COORD97":165639.76999999999,"N_COORD97":2544342.4300000002,"ADDRESS":"安平路３４２號","OBJECTID":528049},"geometry":{"x":165639.77000000048,"y":2544342.4299999997}},{"attributes":{"ID":528077,"DIS_CODE":0,"TOWNNAME":"安平區","LI":"平安里","LIN":"6鄰","STREET":"安平路","SECT":" ","MAREA":" ","LANE":" ","ALLEY":" ","HOUSE_NO":"３４４號","E_COORD97":165635.42000000001,"N_COORD97":2544341.9100000001,"ADDRESS":"安平路３４４號","OBJECTID":528050},"geometry":{"x":165635.42000000179,"y":2544341.910000002}},{"attributes":{"ID":528078,"DIS_CODE":0,"TOWNNAME":"安平區","LI":"平安里","LIN":"6鄰","STREET":"安平路","SECT":" ","MAREA":" ","LANE":" ","ALLEY":" ","HOUSE_NO":"３４６之１號","E_COORD97":165628.17999999999,"N_COORD97":2544337.5600000001,"ADDRESS":"安平路３４６之１號","OBJECTID":528051},"geometry":{"x":165628.17999999877,"y":2544337.5600000024}},{"attributes":{"ID":528079,"DIS_CODE":0,"TOWNNAME":"安平區","LI":"平安里","LIN":"6鄰","STREET":"安平路","SECT":" ","MAREA":" ","LANE":" ","ALLEY":" ","HOUSE_NO":"３４６號","E_COORD97":165630.69,"N_COORD97":2544338.5600000001,"ADDRESS":"安平路３４６號","OBJECTID":528052},"geometry":{"x":165630.69000000227,"y":2544338.5600000005}},{"attributes":{"ID":528080,"DIS_CODE":0,"TOWNNAME":"安平區","LI":"平安里","LIN":"6鄰","STREET":"安平路","SECT":" ","MAREA":" ","LANE":" ","ALLEY":" ","HOUSE_NO":"３４８號","E_COORD97":165618.5,"N_COORD97":2544341.0800000001,"ADDRESS":"安平路３４８號","OBJECTID":528053},"geometry":{"x":165618.50000000093,"y":2544341.0800000001}},{"attributes":{"ID":528081,"DIS_CODE":0,"TOWNNAME":"安平區","LI":"平安里","LIN":"6鄰","STREET":"安平路","SECT":" ","MAREA":" ","LANE":" ","ALLEY":" ","HOUSE_NO":"３５０號","E_COORD97":165601.10000000001,"N_COORD97":2544338.8700000001,"ADDRESS":"安平路３５０號","OBJECTID":528054},"geometry":{"x":165601.09999999963,"y":2544338.8700000029}},{"attributes":{"ID":528082,"DIS_CODE":0,"TOWNNAME":"安平區","LI":"平安里","LIN":"6鄰","STREET":"安平路","SECT":" ","MAREA":" ","LANE":" ","ALLEY":" ","HOUSE_NO":"３９０號","E_COORD97":165450.16,"N_COORD97":2544330.96,"ADDRESS":"安平路３９０號","OBJECTID":528055},"geometry":{"x":165450.16000000015,"y":2544330.9600000028}},{"attributes":{"ID":528083,"DIS_CODE":0,"TOWNNAME":"安平區","LI":"平安里","LIN":"6鄰","STREET":"安平路","SECT":" ","MAREA":" ","LANE":" ","ALLEY":" ","HOUSE_NO":"３９２號","E_COORD97":165445.39999999999,"N_COORD97":2544330.3300000001,"ADDRESS":"安平路３９２號","OBJECTID":528056},"geometry":{"x":165445.40000000037,"y":2544330.3300000001}},{"attributes":{"ID":528084,"DIS_CODE":0,"TOWNNAME":"安平區","LI":"平安里","LIN":"6鄰","STREET":"安平路","SECT":" ","MAREA":" ","LANE":" ","ALLEY":" ","HOUSE_NO":"３９４號","E_COORD97":165440.64000000001,"N_COORD97":2544329.8500000001,"ADDRESS":"安平路３９４號","OBJECTID":528057},"geometry":{"x":165440.6400000006,"y":2544329.8499999978}},{"attributes":{"ID":528085,"DIS_CODE":0,"TOWNNAME":"安平區","LI":"平安里","LIN":"6鄰","STREET":"安平路","SECT":" ","MAREA":" ","LANE":" ","ALLEY":" ","HOUSE_NO":"３９６號","E_COORD97":165435.70999999999,"N_COORD97":2544329.0600000001,"ADDRESS":"安平路３９６號","OBJECTID":528058},"geometry":{"x":165435.71000000089,"y":2544329.0600000005}},{"attributes":{"ID":528086,"DIS_CODE":0,"TOWNNAME":"安平區","LI":"平安里","LIN":"6鄰","STREET":"安平路","SECT":" ","MAREA":" ","LANE":" ","ALLEY":" ","HOUSE_NO":"３９８號","E_COORD97":165430.79000000001,"N_COORD97":2544328.2599999998,"ADDRESS":"安平路３９８號","OBJECTID":528059},"geometry":{"x":165430.79000000004,"y":2544328.2600000016}},{"attributes":{"ID":528087,"DIS_CODE":0,"TOWNNAME":"麻豆區","LI":"保安里","LIN":"6鄰","STREET":"博愛路","SECT":" ","MAREA":" ","LANE":" ","ALLEY":" ","HOUSE_NO":"１號","E_COORD97":173293.42000000001,"N_COORD97":2564845.1400000001,"ADDRESS":"博愛路１號","OBJECTID":528060},"geometry":{"x":173293.41999999993,"y":2564845.1400000025}},{"attributes":{"ID":528088,"DIS_CODE":0,"TOWNNAME":"麻豆區","LI":"大埕里","LIN":"6鄰","STREET":"博愛路","SECT":" ","MAREA":" ","LANE":" ","ALLEY":" ","HOUSE_NO":"３６號之３","E_COORD97":173325.42999999999,"N_COORD97":2565012.7999999998,"ADDRESS":"博愛路３６號之３","OBJECTID":528061},"geometry":{"x":173325.4299999997,"y":2565012.8000000045}},{"attributes":{"ID":528089,"DIS_CODE":0,"TOWNNAME":"麻豆區","LI":"大埕里","LIN":"6鄰","STREET":"博愛路","SECT":" ","MAREA":" ","LANE":" ","ALLEY":" ","HOUSE_NO":"３６號","E_COORD97":173325.10999999999,"N_COORD97":2565029.29,"ADDRESS":"博愛路３６號","OBJECTID":528062},"geometry":{"x":173325.11000000034,"y":2565029.290000001}},{"attributes":{"ID":528090,"DIS_CODE":0,"TOWNNAME":"麻豆區","LI":"大埕里","LIN":"6鄰","STREET":"博愛路","SECT":" ","MAREA":" ","LANE":" ","ALLEY":" ","HOUSE_NO":"３８號","E_COORD97":173325.54000000001,"N_COORD97":2565034.1000000001,"ADDRESS":"博愛路３８號","OBJECTID":528063},"geometry":{"x":173325.54000000004,"y":2565034.1000000015}},{"attributes":{"ID":528091,"DIS_CODE":0,"TOWNNAME":"麻豆區","LI":"大埕里","LIN":"6鄰","STREET":"博愛路","SECT":" ","MAREA":" ","LANE":" ","ALLEY":" ","HOUSE_NO":"４０號","E_COORD97":173325.57000000001,"N_COORD97":2565038.1699999999,"ADDRESS":"博愛路４０號","OBJECTID":528064},"geometry":{"x":173325.5700000003,"y":2565038.1700000018}},{"attributes":{"ID":528092,"DIS_CODE":0,"TOWNNAME":"麻豆區","LI":"大埕里","LIN":"6鄰","STREET":"博愛路","SECT":" ","MAREA":" ","LANE":" ","ALLEY":" ","HOUSE_NO":"４２號之１","E_COORD97":173313.57000000001,"N_COORD97":2565055.7200000002,"ADDRESS":"博愛路４２號之１","OBJECTID":528065},"geometry":{"x":173313.5700000003,"y":2565055.7200000007}},{"attributes":{"ID":528093,"DIS_CODE":0,"TOWNNAME":"麻豆區","LI":"大埕里","LIN":"6鄰","STREET":"博愛路","SECT":" ","MAREA":" ","LANE":" ","ALLEY":" ","HOUSE_NO":"４２號","E_COORD97":173325.32000000001,"N_COORD97":2565042.29,"ADDRESS":"博愛路４２號","OBJECTID":528066},"geometry":{"x":173325.3200000003,"y":2565042.290000001}},{"attributes":{"ID":528094,"DIS_CODE":0,"TOWNNAME":"麻豆區","LI":"保安里","LIN":"6鄰","STREET":"復興街","SECT":" ","MAREA":" ","LANE":" ","ALLEY":" ","HOUSE_NO":"１１號之１","E_COORD97":173281.95999999999,"N_COORD97":2564876.8700000001,"ADDRESS":"復興街１１號之１","OBJECTID":528067},"geometry":{"x":173281.95999999996,"y":2564876.8699999992}},{"attributes":{"ID":528095,"DIS_CODE":0,"TOWNNAME":"麻豆區","LI":"北勢里","LIN":"6鄰","STREET":"新生北路","SECT":" ","MAREA":" ","LANE":" ","ALLEY":" ","HOUSE_NO":"６２９號","E_COORD97":173363.12,"N_COORD97":2565519.7200000002,"ADDRESS":"新生北路６２９號","OBJECTID":528068},"geometry":{"x":173363.12000000104,"y":2565519.7200000025}},{"attributes":{"ID":528096,"DIS_CODE":0,"TOWNNAME":"麻豆區","LI":"北勢里","LIN":"6鄰","STREET":"新生北路","SECT":" ","MAREA":" ","LANE":" ","ALLEY":" ","HOUSE_NO":"６４３號","E_COORD97":173376.41,"N_COORD97":2565520,"ADDRESS":"新生北路６４３號","OBJECTID":528069},"geometry":{"x":173376.41000000108,"y":2565520.0000000019}},{"attributes":{"ID":528097,"DIS_CODE":0,"TOWNNAME":"麻豆區","LI":"北勢里","LIN":"6鄰","STREET":"新生北路","SECT":" ","MAREA":" ","LANE":" ","ALLEY":" ","HOUSE_NO":"６４７號","E_COORD97":173392.01999999999,"N_COORD97":2565520.9900000002,"ADDRESS":"新生北路６４７號","OBJECTID":528070},"geometry":{"x":173392.02000000048,"y":2565520.9900000021}},{"attributes":{"ID":528098,"DIS_CODE":0,"TOWNNAME":"麻豆區","LI":"大埕里","LIN":"6鄰","STREET":"新生北路","SECT":" ","MAREA":" ","LANE":" ","ALLEY":" ","HOUSE_NO":"７３０號","E_COORD97":173398.32999999999,"N_COORD97":2565458.0299999998,"ADDRESS":"新生北路７３０號","OBJECTID":528071},"geometry":{"x":173398.32999999914,"y":2565458.0300000012}},{"attributes":{"ID":528099,"DIS_CODE":0,"TOWNNAME":"麻豆區","LI":"大埕里","LIN":"6鄰","STREET":"新生北路","SECT":" ","MAREA":" ","LANE":" ","ALLEY":" ","HOUSE_NO":"７３２號","E_COORD97":173396.44,"N_COORD97":2565444.6299999999,"ADDRESS":"新生北路７３２號","OBJECTID":528072},"geometry":{"x":173396.44000000227,"y":2565444.629999999}},{"attributes":{"ID":528100,"DIS_CODE":0,"TOWNNAME":"麻豆區","LI":"大埕里","LIN":"6鄰","STREET":"新生北路","SECT":" ","MAREA":" ","LANE":" ","ALLEY":" ","HOUSE_NO":"７３３號","E_COORD97":173397.34,"N_COORD97":2565440.1400000001,"ADDRESS":"新生北路７３３號","OBJECTID":528073},"geometry":{"x":173397.33999999985,"y":2565440.1400000006}},{"attributes":{"ID":528101,"DIS_CODE":0,"TOWNNAME":"麻豆區","LI":"大埕里","LIN":"6鄰","STREET":"新生北路","SECT":" ","MAREA":" ","LANE":" ","ALLEY":" ","HOUSE_NO":"７３４號","E_COORD97":173398.59,"N_COORD97":2565435.4500000002,"ADDRESS":"新生北路７３４號","OBJECTID":528074},"geometry":{"x":173398.59000000078,"y":2565435.4500000011}},{"attributes":{"ID":528102,"DIS_CODE":0,"TOWNNAME":"麻豆區","LI":"大埕里","LIN":"6鄰","STREET":"新生北路","SECT":" ","MAREA":" ","LANE":" ","ALLEY":" ","HOUSE_NO":"７３５號","E_COORD97":173399.64000000001,"N_COORD97":2565431.3799999999,"ADDRESS":"新生北路７３５號","OBJECTID":528075},"geometry":{"x":173399.6400000006,"y":2565431.3800000008}},{"attributes":{"ID":528103,"DIS_CODE":0,"TOWNNAME":"麻豆區","LI":"大埕里","LIN":"6鄰","STREET":"新生北路","SECT":" ","MAREA":" ","LANE":" ","ALLEY":" ","HOUSE_NO":"７３６號","E_COORD97":173400.31,"N_COORD97":2565427.0699999998,"ADDRESS":"新生北路７３６號","OBJECTID":528076},"geometry":{"x":173400.31000000052,"y":2565427.0700000003}},{"attributes":{"ID":528104,"DIS_CODE":0,"TOWNNAME":"麻豆區","LI":"大埕里","LIN":"6鄰","STREET":"新生北路","SECT":" ","MAREA":" ","LANE":" ","ALLEY":" ","HOUSE_NO":"７３７號","E_COORD97":173401.85999999999,"N_COORD97":2565421.9399999999,"ADDRESS":"新生北路７３７號","OBJECTID":528077},"geometry":{"x":173401.8600000022,"y":2565421.9400000013}},{"attributes":{"ID":528105,"DIS_CODE":0,"TOWNNAME":"麻豆區","LI":"大埕里","LIN":"6鄰","STREET":"新生北路","SECT":" ","MAREA":" ","LANE":" ","ALLEY":" ","HOUSE_NO":"７３８號","E_COORD97":173401.57000000001,"N_COORD97":2565416.7999999998,"ADDRESS":"新生北路７３８號","OBJECTID":528078},"geometry":{"x":173401.5700000003,"y":2565416.8000000026}},{"attributes":{"ID":528106,"DIS_CODE":0,"TOWNNAME":"麻豆區","LI":"大埕里","LIN":"6鄰","STREET":"新生北路","SECT":" ","MAREA":" ","LANE":" ","ALLEY":" ","HOUSE_NO":"７４０號","E_COORD97":173403.10000000001,"N_COORD97":2565408.5899999999,"ADDRESS":"新生北路７４０號","OBJECTID":528079},"geometry":{"x":173403.10000000056,"y":2565408.5899999999}},{"attributes":{"ID":528107,"DIS_CODE":0,"TOWNNAME":"麻豆區","LI":"大埕里","LIN":"6鄰","STREET":"新生北路","SECT":" ","MAREA":" ","LANE":" ","ALLEY":" ","HOUSE_NO":"７４２號","E_COORD97":173405.37,"N_COORD97":2565400.7999999998,"ADDRESS":"新生北路７４２號","OBJECTID":528080},"geometry":{"x":173405.37000000104,"y":2565400.8000000026}},{"attributes":{"ID":528108,"DIS_CODE":0,"TOWNNAME":"麻豆區","LI":"大埕里","LIN":"6鄰","STREET":"新生北路","SECT":" ","MAREA":" ","LANE":" ","ALLEY":" ","HOUSE_NO":"７４６號","E_COORD97":173407.14999999999,"N_COORD97":2565393.1200000001,"ADDRESS":"新生北路７４６號","OBJECTID":528081},"geometry":{"x":173407.1500000013,"y":2565393.120000001}},{"attributes":{"ID":528109,"DIS_CODE":0,"TOWNNAME":"麻豆區","LI":"大埕里","LIN":"6鄰","STREET":"新生北路","SECT":" ","MAREA":" ","LANE":" ","ALLEY":" ","HOUSE_NO":"７４８號","E_COORD97":173392.48000000001,"N_COORD97":2565378.29,"ADDRESS":"新生北路７４８號","OBJECTID":528082},"geometry":{"x":173392.48000000045,"y":2565378.290000001}},{"attributes":{"ID":528110,"DIS_CODE":0,"TOWNNAME":"麻豆區","LI":"大埕里","LIN":"6鄰","STREET":"新生北路","SECT":" ","MAREA":" ","LANE":" ","ALLEY":" ","HOUSE_NO":"７５０號","E_COORD97":173389.10999999999,"N_COORD97":2565390.3100000001,"ADDRESS":"新生北路７５０號","OBJECTID":528083},"geometry":{"x":173389.11000000127,"y":2565390.3100000024}},{"attributes":{"ID":528111,"DIS_CODE":0,"TOWNNAME":"麻豆區","LI":"大埕里","LIN":"6鄰","STREET":"新生北路","SECT":" ","MAREA":" ","LANE":" ","ALLEY":" ","HOUSE_NO":"７５２號","E_COORD97":173389.41,"N_COORD97":2565397.6000000001,"ADDRESS":"新生北路７５２號","OBJECTID":528084},"geometry":{"x":173389.40999999922,"y":2565397.6000000015}},{"attributes":{"ID":528112,"DIS_CODE":0,"TOWNNAME":"麻豆區","LI":"大埕里","LIN":"6鄰","STREET":"新生北路","SECT":" ","MAREA":" ","LANE":" ","ALLEY":" ","HOUSE_NO":"７５６號","E_COORD97":173387.48000000001,"N_COORD97":2565404.1499999999,"ADDRESS":"新生北路７５６號","OBJECTID":528085},"geometry":{"x":173387.48000000045,"y":2565404.1500000022}},{"attributes":{"ID":528113,"DIS_CODE":0,"TOWNNAME":"麻豆區","LI":"大埕里","LIN":"6鄰","STREET":"新生北路","SECT":" ","MAREA":" ","LANE":" ","ALLEY":" ","HOUSE_NO":"７５８號","E_COORD97":173385.5,"N_COORD97":2565411.2200000002,"ADDRESS":"新生北路７５８號","OBJECTID":528086},"geometry":{"x":173385.50000000093,"y":2565411.2200000025}},{"attributes":{"ID":528114,"DIS_CODE":0,"TOWNNAME":"麻豆區","LI":"大埕里","LIN":"6鄰","STREET":"新生北路","SECT":" ","MAREA":" ","LANE":" ","ALLEY":" ","HOUSE_NO":"７６０號","E_COORD97":173383.82999999999,"N_COORD97":2565419.21,"ADDRESS":"新生北路７６０號","OBJECTID":528087},"geometry":{"x":173383.83000000101,"y":2565419.2100000009}},{"attributes":{"ID":528115,"DIS_CODE":0,"TOWNNAME":"麻豆區","LI":"大埕里","LIN":"6鄰","STREET":"新生北路","SECT":" ","MAREA":" ","LANE":" ","ALLEY":" ","HOUSE_NO":"７６２號","E_COORD97":173381.92999999999,"N_COORD97":2565428.8700000001,"ADDRESS":"新生北路７６２號","OBJECTID":528088},"geometry":{"x":173381.9299999997,"y":2565428.870000001}},{"attributes":{"ID":528116,"DIS_CODE":0,"TOWNNAME":"麻豆區","LI":"大埕里","LIN":"6鄰","STREET":"新生北路","SECT":" ","MAREA":" ","LANE":" ","ALLEY":" ","HOUSE_NO":"７６６號","E_COORD97":173379.73000000001,"N_COORD97":2565437,"ADDRESS":"新生北路７６６號","OBJECTID":528089},"geometry":{"x":173379.73000000138,"y":2565437}},{"attributes":{"ID":528117,"DIS_CODE":0,"TOWNNAME":"麻豆區","LI":"大埕里","LIN":"6鄰","STREET":"新生北路","SECT":" ","MAREA":" ","LANE":" ","ALLEY":" ","HOUSE_NO":"７６８號","E_COORD97":173378.42999999999,"N_COORD97":2565444.2200000002,"ADDRESS":"新生北路７６８號","OBJECTID":528090},"geometry":{"x":173378.4299999997,"y":2565444.2200000025}},{"attributes":{"ID":528118,"DIS_CODE":0,"TOWNNAME":"麻豆區","LI":"大埕里","LIN":"6鄰","STREET":"新生北路","SECT":" ","MAREA":" ","LANE":" ","ALLEY":" ","HOUSE_NO":"７７０號","E_COORD97":173376.14999999999,"N_COORD97":2565454.1699999999,"ADDRESS":"新生北路７７０號","OBJECTID":528091},"geometry":{"x":173376.14999999944,"y":2565454.1700000018}},{"attributes":{"ID":528119,"DIS_CODE":0,"TOWNNAME":"麻豆區","LI":"大埕里","LIN":"6鄰","STREET":"新生北路","SECT":" ","MAREA":" ","LANE":" ","ALLEY":" ","HOUSE_NO":"７７２號","E_COORD97":173375.20000000001,"N_COORD97":2565468.1099999999,"ADDRESS":"新生北路７７２號","OBJECTID":528092},"geometry":{"x":173375.20000000019,"y":2565468.1100000013}},{"attributes":{"ID":528120,"DIS_CODE":0,"TOWNNAME":"麻豆區","LI":"巷口里","LIN":"6鄰","STREET":"新生南路","SECT":" ","MAREA":" ","LANE":" ","ALLEY":" ","HOUSE_NO":"４６１號","E_COORD97":173049.14999999999,"N_COORD97":2564120.1299999999,"ADDRESS":"新生南路４６１號","OBJECTID":528093},"geometry":{"x":173049.15000000224,"y":2564120.129999999}},{"attributes":{"ID":528121,"DIS_CODE":0,"TOWNNAME":"麻豆區","LI":"巷口里","LIN":"6鄰","STREET":"新生南路","SECT":" ","MAREA":" ","LANE":" ","ALLEY":" ","HOUSE_NO":"５０１號","E_COORD97":173143.01999999999,"N_COORD97":2564097.5,"ADDRESS":"新生南路５０１號","OBJECTID":528094},"geometry":{"x":173143.02000000048,"y":2564097.5}},{"attributes":{"ID":528122,"DIS_CODE":0,"TOWNNAME":"麻豆區","LI":"巷口里","LIN":"6鄰","STREET":"新生南路","SECT":" ","MAREA":" ","LANE":" ","ALLEY":" ","HOUSE_NO":"５９８號","E_COORD97":172997.01000000001,"N_COORD97":2564037.77,"ADDRESS":"新生南路５９８號","OBJECTID":528095},"geometry":{"x":172997.01000000071,"y":2564037.7699999996}},{"attributes":{"ID":528123,"DIS_CODE":0,"TOWNNAME":"歸仁區","LI":"南興里","LIN":"6鄰","STREET":"民生二街","SECT":" ","MAREA":" ","LANE":" ","ALLEY":" ","HOUSE_NO":"１１６號","E_COORD97":176112.94,"N_COORD97":2541381.29,"ADDRESS":"民生二街１１６號","OBJECTID":528096},"geometry":{"x":176112.94000000041,"y":2541381.290000001}},{"attributes":{"ID":528124,"DIS_CODE":0,"TOWNNAME":"歸仁區","LI":"六甲里","LIN":"6鄰","STREET":"中正十五街","SECT":" ","MAREA":" ","LANE":" ","ALLEY":" ","HOUSE_NO":"８７號","E_COORD97":176433.76000000001,"N_COORD97":2539399.25,"ADDRESS":"中正十五街８７號","OBJECTID":528097},"geometry":{"x":176433.76000000071,"y":2539399.2500000019}},{"attributes":{"ID":528125,"DIS_CODE":0,"TOWNNAME":"歸仁區","LI":"後市里","LIN":"6鄰","STREET":"大吉一街","SECT":" ","MAREA":" ","LANE":" ","ALLEY":" ","HOUSE_NO":"４１號","E_COORD97":177159.01000000001,"N_COORD97":2540682.25,"ADDRESS":"大吉一街４１號","OBJECTID":528098},"geometry":{"x":177159.01000000071,"y":2540682.25}},{"attributes":{"ID":528126,"DIS_CODE":0,"TOWNNAME":"歸仁區","LI":"南興里","LIN":"6鄰","STREET":"民生二街","SECT":" ","MAREA":" ","LANE":" ","ALLEY":" ","HOUSE_NO":"５８號","E_COORD97":176106.39000000001,"N_COORD97":2541346.29,"ADDRESS":"民生二街５８號","OBJECTID":528099},"geometry":{"x":176106.38999999873,"y":2541346.2900000028}},{"attributes":{"ID":528127,"DIS_CODE":0,"TOWNNAME":"歸仁區","LI":"後市里","LIN":"6鄰","STREET":"大吉一街","SECT":" ","MAREA":" ","LANE":" ","ALLEY":" ","HOUSE_NO":"３９號","E_COORD97":177159.01000000001,"N_COORD97":2540687.25,"ADDRESS":"大吉一街３９號","OBJECTID":528100},"geometry":{"x":177159.01000000071,"y":2540687.2500000019}},{"attributes":{"ID":528128,"DIS_CODE":0,"TOWNNAME":"歸仁區","LI":"南興里","LIN":"6鄰","STREET":"民生二街","SECT":" ","MAREA":" ","LANE":" ","ALLEY":" ","HOUSE_NO":"１０號","E_COORD97":176226.39000000001,"N_COORD97":2541347.29,"ADDRESS":"民生二街１０號","OBJECTID":528101},"geometry":{"x":176226.38999999966,"y":2541347.290000001}},{"attributes":{"ID":528129,"DIS_CODE":0,"TOWNNAME":"歸仁區","LI":"後市里","LIN":"6鄰","STREET":"大吉一街","SECT":" ","MAREA":" ","LANE":" ","ALLEY":" ","HOUSE_NO":"２７號","E_COORD97":177160.20999999999,"N_COORD97":2540712.25,"ADDRESS":"大吉一街２７號","OBJECTID":528102},"geometry":{"x":177160.20999999996,"y":2540712.25}},{"attributes":{"ID":528130,"DIS_CODE":0,"TOWNNAME":"歸仁區","LI":"南興里","LIN":"6鄰","STREET":"民生二街","SECT":" ","MAREA":" ","LANE":" ","ALLEY":" ","HOUSE_NO":"７８號","E_COORD97":176111.59,"N_COORD97":2541366.29,"ADDRESS":"民生二街７８號","OBJECTID":528103},"geometry":{"x":176111.58999999985,"y":2541366.2899999991}},{"attributes":{"ID":528131,"DIS_CODE":0,"TOWNNAME":"歸仁區","LI":"南興里","LIN":"6鄰","STREET":"民生二街","SECT":" ","MAREA":" ","LANE":" ","ALLEY":" ","HOUSE_NO":"４０號","E_COORD97":176153.59,"N_COORD97":2541346.29,"ADDRESS":"民生二街４０號","OBJECTID":528104},"geometry":{"x":176153.59000000078,"y":2541346.2900000028}},{"attributes":{"ID":528132,"DIS_CODE":0,"TOWNNAME":"歸仁區","LI":"南興里","LIN":"6鄰","STREET":"民生二街","SECT":" ","MAREA":" ","LANE":" ","ALLEY":" ","HOUSE_NO":"６６號","E_COORD97":176081.89000000001,"N_COORD97":2541365.29,"ADDRESS":"民生二街６６號","OBJECTID":528105},"geometry":{"x":176081.8900000006,"y":2541365.2899999991}},{"attributes":{"ID":528133,"DIS_CODE":0,"TOWNNAME":"歸仁區","LI":"歸仁里","LIN":"6鄰","STREET":"大通路","SECT":" ","MAREA":" ","LANE":" ","ALLEY":" ","HOUSE_NO":"４３號","E_COORD97":177806.35000000001,"N_COORD97":2540867.1800000002,"ADDRESS":"大通路４３號","OBJECTID":528106},"geometry":{"x":177806.34999999963,"y":2540867.1800000016}},{"attributes":{"ID":528134,"DIS_CODE":0,"TOWNNAME":"歸仁區","LI":"後市里","LIN":"6鄰","STREET":"大吉一街","SECT":" ","MAREA":" ","LANE":" ","ALLEY":" ","HOUSE_NO":"２３號","E_COORD97":177160.20999999999,"N_COORD97":2540721.25,"ADDRESS":"大吉一街２３號","OBJECTID":528107},"geometry":{"x":177160.20999999996,"y":2540721.2500000019}},{"attributes":{"ID":528135,"DIS_CODE":0,"TOWNNAME":"歸仁區","LI":"文化里","LIN":"6鄰","STREET":"文化北街","SECT":" ","MAREA":" ","LANE":" ","ALLEY":" ","HOUSE_NO":"７１號","E_COORD97":177288.95999999999,"N_COORD97":2541395.3399999999,"ADDRESS":"文化北街７１號","OBJECTID":528108},"geometry":{"x":177288.95999999996,"y":2541395.3400000017}},{"attributes":{"ID":528136,"DIS_CODE":0,"TOWNNAME":"歸仁區","LI":"南興里","LIN":"6鄰","STREET":"民生二街","SECT":" ","MAREA":" ","LANE":" ","ALLEY":" ","HOUSE_NO":"１０２號","E_COORD97":176143.73999999999,"N_COORD97":2541379.29,"ADDRESS":"民生二街１０２號","OBJECTID":528109},"geometry":{"x":176143.74000000209,"y":2541379.2899999991}},{"attributes":{"ID":528137,"DIS_CODE":0,"TOWNNAME":"歸仁區","LI":"南興里","LIN":"6鄰","STREET":"民生二街","SECT":" ","MAREA":" ","LANE":" ","ALLEY":" ","HOUSE_NO":"６號","E_COORD97":176243.54000000001,"N_COORD97":2541343.29,"ADDRESS":"民生二街６號","OBJECTID":528110},"geometry":{"x":176243.54000000097,"y":2541343.290000001}},{"attributes":{"ID":528138,"DIS_CODE":0,"TOWNNAME":"歸仁區","LI":"南興里","LIN":"6鄰","STREET":"民生二街","SECT":" ","MAREA":" ","LANE":" ","ALLEY":" ","HOUSE_NO":"８號","E_COORD97":176229.23999999999,"N_COORD97":2541347.29,"ADDRESS":"民生二街８號","OBJECTID":528111},"geometry":{"x":176229.24000000115,"y":2541347.290000001}},{"attributes":{"ID":528139,"DIS_CODE":0,"TOWNNAME":"歸仁區","LI":"南興里","LIN":"6鄰","STREET":"民生北街","SECT":" ","MAREA":" ","LANE":" ","ALLEY":" ","HOUSE_NO":"２３９號","E_COORD97":176258.44,"N_COORD97":2541364.29,"ADDRESS":"民生北街２３９號","OBJECTID":528112},"geometry":{"x":176258.44000000134,"y":2541364.290000001}},{"attributes":{"ID":528140,"DIS_CODE":0,"TOWNNAME":"歸仁區","LI":"南興里","LIN":"6鄰","STREET":"民生二街","SECT":" ","MAREA":" ","LANE":" ","ALLEY":" ","HOUSE_NO":"１１０號","E_COORD97":176127.34,"N_COORD97":2541380.2799999998,"ADDRESS":"民生二街１１０號","OBJECTID":528113},"geometry":{"x":176127.34000000171,"y":2541380.2799999975}},{"attributes":{"ID":528141,"DIS_CODE":0,"TOWNNAME":"歸仁區","LI":"南興里","LIN":"6鄰","STREET":"大德路","SECT":" ","MAREA":" ","LANE":" ","ALLEY":" ","HOUSE_NO":"８８５號","E_COORD97":176212.97,"N_COORD97":2541529.27,"ADDRESS":"大德路８８５號","OBJECTID":528114},"geometry":{"x":176212.97000000067,"y":2541529.2699999996}},{"attributes":{"ID":528142,"DIS_CODE":0,"TOWNNAME":"歸仁區","LI":"歸仁里","LIN":"6鄰","STREET":"大通路","SECT":" ","MAREA":" ","LANE":" ","ALLEY":" ","HOUSE_NO":"６７號","E_COORD97":177732.54999999999,"N_COORD97":2540871.1800000002,"ADDRESS":"大通路６７號","OBJECTID":528115},"geometry":{"x":177732.54999999981,"y":2540871.1800000016}},{"attributes":{"ID":528143,"DIS_CODE":0,"TOWNNAME":"歸仁區","LI":"媽廟里","LIN":"6鄰","STREET":"中正北路","SECT":"三段","MAREA":" ","LANE":" ","ALLEY":" ","HOUSE_NO":"２０３號","E_COORD97":177584.35999999999,"N_COORD97":2543852.7200000002,"ADDRESS":"中正北路三段２０３號","OBJECTID":528116},"geometry":{"x":177584.36000000127,"y":2543852.7200000007}},{"attributes":{"ID":528144,"DIS_CODE":0,"TOWNNAME":"歸仁區","LI":"辜厝里","LIN":"6鄰","STREET":"民族南街","SECT":" ","MAREA":" ","LANE":" ","ALLEY":" ","HOUSE_NO":"７３號","E_COORD97":177414.19,"N_COORD97":2540657.5499999998,"ADDRESS":"民族南街７３號","OBJECTID":528117},"geometry":{"x":177414.19000000134,"y":2540657.5500000007}},{"attributes":{"ID":528145,"DIS_CODE":0,"TOWNNAME":"歸仁區","LI":"新厝里","LIN":"6鄰","STREET":"復興路","SECT":" ","MAREA":" ","LANE":" ","ALLEY":" ","HOUSE_NO":"１４７號","E_COORD97":177690.60000000001,"N_COORD97":2540625.9399999999,"ADDRESS":"復興路１４７號","OBJECTID":528118},"geometry":{"x":177690.60000000056,"y":2540625.9399999995}},{"attributes":{"ID":528146,"DIS_CODE":0,"TOWNNAME":"歸仁區","LI":"歸仁里","LIN":"6鄰","STREET":"大通路","SECT":" ","MAREA":" ","LANE":" ","ALLEY":" ","HOUSE_NO":"６３號","E_COORD97":177744.85000000001,"N_COORD97":2540876.1800000002,"ADDRESS":"大通路６３號","OBJECTID":528119},"geometry":{"x":177744.85000000056,"y":2540876.1799999978}},{"attributes":{"ID":528147,"DIS_CODE":0,"TOWNNAME":"歸仁區","LI":"歸仁里","LIN":"6鄰","STREET":"大通路","SECT":" ","MAREA":" ","LANE":" ","ALLEY":" ","HOUSE_NO":"４５號","E_COORD97":177802.25,"N_COORD97":2540869.1800000002,"ADDRESS":"大通路４５號","OBJECTID":528120},"geometry":{"x":177802.25,"y":2540869.1799999997}},{"attributes":{"ID":528148,"DIS_CODE":0,"TOWNNAME":"歸仁區","LI":"新厝里","LIN":"6鄰","STREET":"復興路","SECT":" ","MAREA":" ","LANE":" ","ALLEY":" ","HOUSE_NO":"１２５號","E_COORD97":177739.79999999999,"N_COORD97":2540621.9399999999,"ADDRESS":"復興路１２５號","OBJECTID":528121},"geometry":{"x":177739.80000000168,"y":2540621.9399999995}},{"attributes":{"ID":528149,"DIS_CODE":0,"TOWNNAME":"歸仁區","LI":"歸南里","LIN":"6鄰","STREET":"中正南路","SECT":"一段","MAREA":" ","LANE":" ","ALLEY":" ","HOUSE_NO":"５７８號","E_COORD97":176726.35000000001,"N_COORD97":2539932.4500000002,"ADDRESS":"中正南路一段５７８號","OBJECTID":528122},"geometry":{"x":176726.34999999963,"y":2539932.4500000011}},{"attributes":{"ID":528150,"DIS_CODE":0,"TOWNNAME":"歸仁區","LI":"歸南里","LIN":"6鄰","STREET":"中正南路","SECT":"一段","MAREA":" ","LANE":" ","ALLEY":" ","HOUSE_NO":"５５０號","E_COORD97":176775.75,"N_COORD97":2539971.4500000002,"ADDRESS":"中正南路一段５５０號","OBJECTID":528123},"geometry":{"x":176775.75000000186,"y":2539971.4499999993}},{"attributes":{"ID":528151,"DIS_CODE":0,"TOWNNAME":"歸仁區","LI":"歸仁里","LIN":"6鄰","STREET":"和平北街","SECT":" ","MAREA":" ","LANE":" ","ALLEY":" ","HOUSE_NO":"９號","E_COORD97":177825.64000000001,"N_COORD97":2540829.1699999999,"ADDRESS":"和平北街９號","OBJECTID":528124},"geometry":{"x":177825.6400000006,"y":2540829.1700000037}},{"attributes":{"ID":528152,"DIS_CODE":0,"TOWNNAME":"歸仁區","LI":"新厝里","LIN":"6鄰","STREET":"復興路","SECT":" ","MAREA":" ","LANE":" ","ALLEY":" ","HOUSE_NO":"１３３號","E_COORD97":177723.39999999999,"N_COORD97":2540623.9399999999,"ADDRESS":"復興路１３３號","OBJECTID":528125},"geometry":{"x":177723.4000000013,"y":2540623.9400000013}},{"attributes":{"ID":528153,"DIS_CODE":0,"TOWNNAME":"歸仁區","LI":"歸仁里","LIN":"6鄰","STREET":"大通路","SECT":" ","MAREA":" ","LANE":" ","ALLEY":" ","HOUSE_NO":"５９號","E_COORD97":177770.45000000001,"N_COORD97":2540872.1800000002,"ADDRESS":"大通路５９號","OBJECTID":528126},"geometry":{"x":177770.45000000112,"y":2540872.1799999997}},{"attributes":{"ID":528154,"DIS_CODE":0,"TOWNNAME":"歸仁區","LI":"歸仁里","LIN":"6鄰","STREET":"和平五街","SECT":" ","MAREA":" ","LANE":" ","ALLEY":" ","HOUSE_NO":"２１號","E_COORD97":177749.03,"N_COORD97":2540806.1699999999,"ADDRESS":"和平五街２１號","OBJECTID":528127},"geometry":{"x":177749.03000000119,"y":2540806.1700000018}},{"attributes":{"ID":528155,"DIS_CODE":0,"TOWNNAME":"歸仁區","LI":"歸仁里","LIN":"6鄰","STREET":"大通路","SECT":" ","MAREA":" ","LANE":" ","ALLEY":" ","HOUSE_NO":"５５號","E_COORD97":177779.75,"N_COORD97":2540871.1800000002,"ADDRESS":"大通路５５號","OBJECTID":528128},"geometry":{"x":177779.75000000093,"y":2540871.1800000016}},{"attributes":{"ID":528156,"DIS_CODE":0,"TOWNNAME":"歸仁區","LI":"歸南里","LIN":"6鄰","STREET":"中正南路","SECT":"一段","MAREA":" ","LANE":" ","ALLEY":" ","HOUSE_NO":"６２２號","E_COORD97":176619.16,"N_COORD97":2539867.25,"ADDRESS":"中正南路一段６２２號","OBJECTID":528129},"geometry":{"x":176619.16000000108,"y":2539867.2500000019}},{"attributes":{"ID":528157,"DIS_CODE":0,"TOWNNAME":"歸仁區","LI":"歸仁里","LIN":"6鄰","STREET":"大通路","SECT":" ","MAREA":" ","LANE":" ","ALLEY":" ","HOUSE_NO":"６５號","E_COORD97":177740.75,"N_COORD97":2540876.1800000002,"ADDRESS":"大通路６５號","OBJECTID":528130},"geometry":{"x":177740.75000000093,"y":2540876.1799999978}},{"attributes":{"ID":528158,"DIS_CODE":0,"TOWNNAME":"歸仁區","LI":"媽廟里","LIN":"6鄰","STREET":"中正北路","SECT":"三段","MAREA":" ","LANE":" ","ALLEY":" ","HOUSE_NO":"１７９號","E_COORD97":177587.16,"N_COORD97":2543797.7200000002,"ADDRESS":"中正北路三段１７９號","OBJECTID":528131},"geometry":{"x":177587.16000000108,"y":2543797.7200000025}},{"attributes":{"ID":528159,"DIS_CODE":0,"TOWNNAME":"歸仁區","LI":"歸仁里","LIN":"6鄰","STREET":"和平五街","SECT":" ","MAREA":" ","LANE":" ","ALLEY":" ","HOUSE_NO":"２０號","E_COORD97":177786.89000000001,"N_COORD97":2540831.1699999999,"ADDRESS":"和平五街２０號","OBJECTID":528132},"geometry":{"x":177786.8900000006,"y":2540831.1699999999}},{"attributes":{"ID":528160,"DIS_CODE":0,"TOWNNAME":"歸仁區","LI":"新厝里","LIN":"6鄰","STREET":"復興路","SECT":" ","MAREA":" ","LANE":" ","ALLEY":" ","HOUSE_NO":"１１７號","E_COORD97":177750.10000000001,"N_COORD97":2540620.9399999999,"ADDRESS":"復興路１１７號","OBJECTID":528133},"geometry":{"x":177750.10000000056,"y":2540620.9400000013}},{"attributes":{"ID":528161,"DIS_CODE":0,"TOWNNAME":"歸仁區","LI":"媽廟里","LIN":"6鄰","STREET":"中正北路","SECT":"三段","MAREA":" ","LANE":" ","ALLEY":" ","HOUSE_NO":"１８３號","E_COORD97":177587.26000000001,"N_COORD97":2543807.7200000002,"ADDRESS":"中正北路三段１８３號","OBJECTID":528134},"geometry":{"x":177587.25999999885,"y":2543807.7200000025}},{"attributes":{"ID":528162,"DIS_CODE":0,"TOWNNAME":"歸仁區","LI":"歸南里","LIN":"6鄰","STREET":"中正南路","SECT":"一段","MAREA":" ","LANE":" ","ALLEY":" ","HOUSE_NO":"５８０號","E_COORD97":176722.14999999999,"N_COORD97":2539929.4500000002,"ADDRESS":"中正南路一段５８０號","OBJECTID":528135},"geometry":{"x":176722.15000000037,"y":2539929.4500000011}},{"attributes":{"ID":528163,"DIS_CODE":0,"TOWNNAME":"歸仁區","LI":"歸南里","LIN":"6鄰","STREET":"中正南路","SECT":"一段","MAREA":" ","LANE":" ","ALLEY":" ","HOUSE_NO":"５５８號","E_COORD97":176759.25,"N_COORD97":2539960.4500000002,"ADDRESS":"中正南路一段５５８號","OBJECTID":528136},"geometry":{"x":176759.25000000093,"y":2539960.4499999993}},{"attributes":{"ID":528164,"DIS_CODE":0,"TOWNNAME":"歸仁區","LI":"歸仁里","LIN":"6鄰","STREET":"和平北街","SECT":" ","MAREA":" ","LANE":" ","ALLEY":" ","HOUSE_NO":"３號","E_COORD97":177825.67999999999,"N_COORD97":2540802.1699999999,"ADDRESS":"和平北街３號","OBJECTID":528137},"geometry":{"x":177825.68000000063,"y":2540802.1700000037}},{"attributes":{"ID":528165,"DIS_CODE":0,"TOWNNAME":"歸仁區","LI":"歸仁里","LIN":"6鄰","STREET":"和平北街","SECT":" ","MAREA":" ","LANE":" ","ALLEY":" ","HOUSE_NO":"１７號","E_COORD97":177830.19,"N_COORD97":2540863.1699999999,"ADDRESS":"和平北街１７號","OBJECTID":528138},"geometry":{"x":177830.19000000041,"y":2540863.1700000037}},{"attributes":{"ID":528166,"DIS_CODE":0,"TOWNNAME":"歸仁區","LI":"歸南里","LIN":"6鄰","STREET":"中正南路","SECT":"一段","MAREA":" ","LANE":" ","ALLEY":" ","HOUSE_NO":"５７０號","E_COORD97":176738.64999999999,"N_COORD97":2539941.4500000002,"ADDRESS":"中正南路一段５７０號","OBJECTID":528139},"geometry":{"x":176738.65000000037,"y":2539941.4499999993}},{"attributes":{"ID":528167,"DIS_CODE":0,"TOWNNAME":"歸仁區","LI":"媽廟里","LIN":"6鄰","STREET":"中正北路","SECT":"三段","MAREA":" ","LANE":" ","ALLEY":" ","HOUSE_NO":"１８１號","E_COORD97":177587.16,"N_COORD97":2543801.7200000002,"ADDRESS":"中正北路三段１８１號","OBJECTID":528140},"geometry":{"x":177587.16000000108,"y":2543801.7200000007}},{"attributes":{"ID":528168,"DIS_CODE":0,"TOWNNAME":"歸仁區","LI":"歸南里","LIN":"6鄰","STREET":"中正南路","SECT":"一段","MAREA":" ","LANE":" ","ALLEY":" ","HOUSE_NO":"５６８號","E_COORD97":176741.75,"N_COORD97":2539943.4500000002,"ADDRESS":"中正南路一段５６８號","OBJECTID":528141},"geometry":{"x":176741.75000000186,"y":2539943.4500000011}},{"attributes":{"ID":528169,"DIS_CODE":0,"TOWNNAME":"歸仁區","LI":"歸南里","LIN":"6鄰","STREET":"中正南路","SECT":"一段","MAREA":" ","LANE":" ","ALLEY":" ","HOUSE_NO":"５７２號","E_COORD97":176735.54999999999,"N_COORD97":2539939.4500000002,"ADDRESS":"中正南路一段５７２號","OBJECTID":528142},"geometry":{"x":176735.54999999981,"y":2539939.4500000011}},{"attributes":{"ID":528170,"DIS_CODE":0,"TOWNNAME":"歸仁區","LI":"歸南里","LIN":"6鄰","STREET":"中正南路","SECT":"一段","MAREA":" ","LANE":" ","ALLEY":" ","HOUSE_NO":"６１２號","E_COORD97":176668.45999999999,"N_COORD97":2539897.25,"ADDRESS":"中正南路一段６１２號","OBJECTID":528143},"geometry":{"x":176668.45999999996,"y":2539897.2500000019}},{"attributes":{"ID":528171,"DIS_CODE":0,"TOWNNAME":"歸仁區","LI":"歸南里","LIN":"6鄰","STREET":"中正十二街","SECT":" ","MAREA":" ","LANE":" ","ALLEY":" ","HOUSE_NO":"７０號","E_COORD97":176601.76000000001,"N_COORD97":2539977.25,"ADDRESS":"中正十二街７０號","OBJECTID":528144},"geometry":{"x":176601.75999999978,"y":2539977.25}},{"attributes":{"ID":528172,"DIS_CODE":0,"TOWNNAME":"歸仁區","LI":"歸南里","LIN":"6鄰","STREET":"中正南路","SECT":"一段","MAREA":" ","LANE":" ","ALLEY":" ","HOUSE_NO":"６１４號","E_COORD97":176665.35999999999,"N_COORD97":2539895.25,"ADDRESS":"中正南路一段６１４號","OBJECTID":528145},"geometry":{"x":176665.36000000127,"y":2539895.25}},{"attributes":{"ID":528173,"DIS_CODE":0,"TOWNNAME":"歸仁區","LI":"辜厝里","LIN":"6鄰","STREET":"民族南街","SECT":" ","MAREA":" ","LANE":" ","ALLEY":" ","HOUSE_NO":"９１號","E_COORD97":177407.89000000001,"N_COORD97":2540618.5499999998,"ADDRESS":"民族南街９１號","OBJECTID":528146},"geometry":{"x":177407.88999999966,"y":2540618.5500000026}},{"attributes":{"ID":528174,"DIS_CODE":0,"TOWNNAME":"歸仁區","LI":"新厝里","LIN":"6鄰","STREET":"復興路","SECT":" ","MAREA":" ","LANE":" ","ALLEY":" ","HOUSE_NO":"１２７號","E_COORD97":177735.70000000001,"N_COORD97":2540622.9399999999,"ADDRESS":"復興路１２７號","OBJECTID":528147},"geometry":{"x":177735.70000000205,"y":2540622.9399999995}},{"attributes":{"ID":528175,"DIS_CODE":0,"TOWNNAME":"歸仁區","LI":"辜厝里","LIN":"6鄰","STREET":"民族南街","SECT":" ","MAREA":" ","LANE":" ","ALLEY":" ","HOUSE_NO":"７７號","E_COORD97":177413.09,"N_COORD97":2540649.5499999998,"ADDRESS":"民族南街７７號","OBJECTID":528148},"geometry":{"x":177413.09000000078,"y":2540649.5500000026}},{"attributes":{"ID":528176,"DIS_CODE":0,"TOWNNAME":"歸仁區","LI":"新厝里","LIN":"6鄰","STREET":"復興路","SECT":" ","MAREA":" ","LANE":" ","ALLEY":" ","HOUSE_NO":"８９號","E_COORD97":177773.37,"N_COORD97":2540616.25,"ADDRESS":"復興路８９號","OBJECTID":528149},"geometry":{"x":177773.36999999918,"y":2540616.2500000019}},{"attributes":{"ID":528177,"DIS_CODE":0,"TOWNNAME":"歸仁區","LI":"媽廟里","LIN":"6鄰","STREET":"中正北路","SECT":"三段","MAREA":" ","LANE":" ","ALLEY":" ","HOUSE_NO":"１９５號","E_COORD97":177591.45999999999,"N_COORD97":2543836.7200000002,"ADDRESS":"中正北路三段１９５號","OBJECTID":528150},"geometry":{"x":177591.46000000089,"y":2543836.7200000007}},{"attributes":{"ID":528178,"DIS_CODE":0,"TOWNNAME":"歸仁區","LI":"新厝里","LIN":"6鄰","STREET":"復興路","SECT":" ","MAREA":" ","LANE":" ","ALLEY":" ","HOUSE_NO":"１４１號","E_COORD97":177707,"N_COORD97":2540624.9399999999,"ADDRESS":"復興路１４１號","OBJECTID":528151},"geometry":{"x":177707.00000000093,"y":2540624.9400000013}},{"attributes":{"ID":528179,"DIS_CODE":0,"TOWNNAME":"歸仁區","LI":"南興里","LIN":"6鄰","STREET":"民生二街","SECT":" ","MAREA":" ","LANE":" ","ALLEY":" ","HOUSE_NO":"８０號","E_COORD97":176109.91,"N_COORD97":2541365.25,"ADDRESS":"民生二街８０號","OBJECTID":528152},"geometry":{"x":176109.91000000015,"y":2541365.2500000019}},{"attributes":{"ID":528180,"DIS_CODE":0,"TOWNNAME":"歸仁區","LI":"歸南里","LIN":"6鄰","STREET":"中正南路","SECT":"一段","MAREA":" ","LANE":" ","ALLEY":" ","HOUSE_NO":"５５４號","E_COORD97":176768.54999999999,"N_COORD97":2539965.4500000002,"ADDRESS":"中正南路一段５５４號","OBJECTID":528153},"geometry":{"x":176768.55000000075,"y":2539965.450000003}},{"attributes":{"ID":528181,"DIS_CODE":0,"TOWNNAME":"歸仁區","LI":"南興里","LIN":"6鄰","STREET":"民生二街","SECT":" ","MAREA":" ","LANE":" ","ALLEY":" ","HOUSE_NO":"４８號","E_COORD97":176129.20999999999,"N_COORD97":2541345.25,"ADDRESS":"民生二街４８號","OBJECTID":528154},"geometry":{"x":176129.21000000089,"y":2541345.2500000019}},{"attributes":{"ID":528182,"DIS_CODE":0,"TOWNNAME":"歸仁區","LI":"新厝里","LIN":"6鄰","STREET":"復興路","SECT":" ","MAREA":" ","LANE":" ","ALLEY":" ","HOUSE_NO":"１２９號","E_COORD97":177731.60000000001,"N_COORD97":2540622.9399999999,"ADDRESS":"復興路１２９號","OBJECTID":528155},"geometry":{"x":177731.59999999963,"y":2540622.9399999995}},{"attributes":{"ID":528183,"DIS_CODE":0,"TOWNNAME":"歸仁區","LI":"新厝里","LIN":"6鄰","STREET":"復興路","SECT":" ","MAREA":" ","LANE":" ","ALLEY":" ","HOUSE_NO":"１２３號","E_COORD97":177742.89999999999,"N_COORD97":2540621.9399999999,"ADDRESS":"復興路１２３號","OBJECTID":528156},"geometry":{"x":177742.89999999944,"y":2540621.9399999995}},{"attributes":{"ID":528184,"DIS_CODE":0,"TOWNNAME":"歸仁區","LI":"辜厝里","LIN":"6鄰","STREET":"民族南街","SECT":" ","MAREA":" ","LANE":" ","ALLEY":" ","HOUSE_NO":"７９號","E_COORD97":177412.09,"N_COORD97":2540645.5499999998,"ADDRESS":"民族南街７９號","OBJECTID":528157},"geometry":{"x":177412.08999999985,"y":2540645.5500000026}},{"attributes":{"ID":528185,"DIS_CODE":0,"TOWNNAME":"歸仁區","LI":"辜厝里","LIN":"6鄰","STREET":"民族南街","SECT":" ","MAREA":" ","LANE":" ","ALLEY":" ","HOUSE_NO":"７１號","E_COORD97":177419.39000000001,"N_COORD97":2540671.5499999998,"ADDRESS":"民族南街７１號","OBJECTID":528158},"geometry":{"x":177419.3900000006,"y":2540671.5500000045}},{"attributes":{"ID":528186,"DIS_CODE":0,"TOWNNAME":"歸仁區","LI":"新厝里","LIN":"6鄰","STREET":"復興路","SECT":" ","MAREA":" ","LANE":" ","ALLEY":" ","HOUSE_NO":"８３號","E_COORD97":177788.76999999999,"N_COORD97":2540614.25,"ADDRESS":"復興路８３號","OBJECTID":528159},"geometry":{"x":177788.77000000142,"y":2540614.25}},{"attributes":{"ID":528187,"DIS_CODE":0,"TOWNNAME":"歸仁區","LI":"看東里","LIN":"6鄰","STREET":"成功路","SECT":"一段","MAREA":" ","LANE":" ","ALLEY":" ","HOUSE_NO":"１８１號","E_COORD97":178495.04999999999,"N_COORD97":2540131.4500000002,"ADDRESS":"成功路一段１８１號","OBJECTID":528160},"geometry":{"x":178495.04999999981,"y":2540131.4499999974}},{"attributes":{"ID":528188,"DIS_CODE":0,"TOWNNAME":"歸仁區","LI":"看西里","LIN":"6鄰","STREET":"信義南路","SECT":" ","MAREA":" ","LANE":" ","ALLEY":" ","HOUSE_NO":"１４７號","E_COORD97":178139.60000000001,"N_COORD97":2540336.4900000002,"ADDRESS":"信義南路１４７號","OBJECTID":528161},"geometry":{"x":178139.60000000056,"y":2540336.4900000021}},{"attributes":{"ID":528189,"DIS_CODE":0,"TOWNNAME":"歸仁區","LI":"辜厝里","LIN":"6鄰","STREET":"中正六街","SECT":" ","MAREA":" ","LANE":" ","ALLEY":" ","HOUSE_NO":"７１號","E_COORD97":177441.98999999999,"N_COORD97":2540671.54,"ADDRESS":"中正六街７１號","OBJECTID":528162},"geometry":{"x":177441.99000000022,"y":2540671.540000001}},{"attributes":{"ID":528190,"DIS_CODE":0,"TOWNNAME":"歸仁區","LI":"看東里","LIN":"6鄰","STREET":"成功路","SECT":"一段","MAREA":" ","LANE":" ","ALLEY":" ","HOUSE_NO":"２０７號","E_COORD97":178430.25,"N_COORD97":2540092.4500000002,"ADDRESS":"成功路一段２０７號","OBJECTID":528163},"geometry":{"x":178430.25000000186,"y":2540092.4500000011}},{"attributes":{"ID":528191,"DIS_CODE":0,"TOWNNAME":"歸仁區","LI":"辜厝里","LIN":"6鄰","STREET":"中正六街","SECT":" ","MAREA":" ","LANE":" ","ALLEY":" ","HOUSE_NO":"３３號","E_COORD97":177529.66,"N_COORD97":2540661.1099999999,"ADDRESS":"中正六街３３號","OBJECTID":528164},"geometry":{"x":177529.66000000108,"y":2540661.1100000013}},{"attributes":{"ID":528192,"DIS_CODE":0,"TOWNNAME":"歸仁區","LI":"看西里","LIN":"6鄰","STREET":"信義南路","SECT":" ","MAREA":" ","LANE":" ","ALLEY":" ","HOUSE_NO":"１３９號","E_COORD97":178140.70000000001,"N_COORD97":2540351.4900000002,"ADDRESS":"信義南路１３９號","OBJECTID":528165},"geometry":{"x":178140.70000000019,"y":2540351.4900000002}},{"attributes":{"ID":528193,"DIS_CODE":0,"TOWNNAME":"歸仁區","LI":"南興里","LIN":"6鄰","STREET":"民生北街","SECT":" ","MAREA":" ","LANE":" ","ALLEY":" ","HOUSE_NO":"２３５號","E_COORD97":176259.44,"N_COORD97":2541351.29,"ADDRESS":"民生北街２３５號","OBJECTID":528166},"geometry":{"x":176259.43999999948,"y":2541351.290000001}},{"attributes":{"ID":528194,"DIS_CODE":0,"TOWNNAME":"歸仁區","LI":"南興里","LIN":"6鄰","STREET":"民生二街","SECT":" ","MAREA":" ","LANE":" ","ALLEY":" ","HOUSE_NO":"８６號","E_COORD97":176130.09,"N_COORD97":2541366.29,"ADDRESS":"民生二街８６號","OBJECTID":528167},"geometry":{"x":176130.08999999985,"y":2541366.2899999991}},{"attributes":{"ID":528195,"DIS_CODE":0,"TOWNNAME":"歸仁區","LI":"後市里","LIN":"6鄰","STREET":"大吉一街","SECT":" ","MAREA":" ","LANE":" ","ALLEY":" ","HOUSE_NO":"５１號","E_COORD97":177157.81,"N_COORD97":2540648.25,"ADDRESS":"大吉一街５１號","OBJECTID":528168},"geometry":{"x":177157.80999999959,"y":2540648.25}},{"attributes":{"ID":528196,"DIS_CODE":0,"TOWNNAME":"歸仁區","LI":"南興里","LIN":"6鄰","STREET":"民生二街","SECT":" ","MAREA":" ","LANE":" ","ALLEY":" ","HOUSE_NO":"１２號","E_COORD97":176222.29000000001,"N_COORD97":2541346.29,"ADDRESS":"民生二街１２號","OBJECTID":528169},"geometry":{"x":176222.29000000004,"y":2541346.2900000028}},{"attributes":{"ID":528197,"DIS_CODE":0,"TOWNNAME":"歸仁區","LI":"南興里","LIN":"6鄰","STREET":"民生二街","SECT":" ","MAREA":" ","LANE":" ","ALLEY":" ","HOUSE_NO":"６０號","E_COORD97":176100.29000000001,"N_COORD97":2541346.29,"ADDRESS":"民生二街６０號","OBJECTID":528170},"geometry":{"x":176100.29000000004,"y":2541346.2900000028}},{"attributes":{"ID":528198,"DIS_CODE":0,"TOWNNAME":"歸仁區","LI":"南興里","LIN":"6鄰","STREET":"民生二街","SECT":" ","MAREA":" ","LANE":" ","ALLEY":" ","HOUSE_NO":"４６號","E_COORD97":176142.29000000001,"N_COORD97":2541346.29,"ADDRESS":"民生二街４６號","OBJECTID":528171},"geometry":{"x":176142.29000000097,"y":2541346.2900000028}},{"attributes":{"ID":528199,"DIS_CODE":0,"TOWNNAME":"歸仁區","LI":"崙頂里","LIN":"6鄰","STREET":"崙頂一街","SECT":" ","MAREA":" ","LANE":" ","ALLEY":" ","HOUSE_NO":"５５號","E_COORD97":178030.37,"N_COORD97":2540013.6800000002,"ADDRESS":"崙頂一街５５號","OBJECTID":528172},"geometry":{"x":178030.37000000011,"y":2540013.6799999997}},{"attributes":{"ID":528200,"DIS_CODE":0,"TOWNNAME":"歸仁區","LI":"南興里","LIN":"6鄰","STREET":"民生二街","SECT":" ","MAREA":" ","LANE":" ","ALLEY":" ","HOUSE_NO":"８２號","E_COORD97":176120.89000000001,"N_COORD97":2541366.29,"ADDRESS":"民生二街８２號","OBJECTID":528173},"geometry":{"x":176120.8900000006,"y":2541366.2899999991}},{"attributes":{"ID":528201,"DIS_CODE":0,"TOWNNAME":"歸仁區","LI":"南興里","LIN":"6鄰","STREET":"民生二街","SECT":" ","MAREA":" ","LANE":" ","ALLEY":" ","HOUSE_NO":"２號","E_COORD97":176234.34,"N_COORD97":2541347.29,"ADDRESS":"民生二街２號","OBJECTID":528174},"geometry":{"x":176234.34000000078,"y":2541347.290000001}},{"attributes":{"ID":528202,"DIS_CODE":0,"TOWNNAME":"歸仁區","LI":"南興里","LIN":"6鄰","STREET":"民生二街","SECT":" ","MAREA":" ","LANE":" ","ALLEY":" ","HOUSE_NO":"７４號","E_COORD97":176102.39000000001,"N_COORD97":2541366.29,"ADDRESS":"民生二街７４號","OBJECTID":528175},"geometry":{"x":176102.38999999966,"y":2541366.2899999991}},{"attributes":{"ID":528203,"DIS_CODE":0,"TOWNNAME":"歸仁區","LI":"南興里","LIN":"6鄰","STREET":"民生二街","SECT":" ","MAREA":" ","LANE":" ","ALLEY":" ","HOUSE_NO":"９８號","E_COORD97":176152.69,"N_COORD97":2541380.2799999998,"ADDRESS":"民生二街９８號","OBJECTID":528176},"geometry":{"x":176152.69000000227,"y":2541380.2799999975}},{"attributes":{"ID":528204,"DIS_CODE":0,"TOWNNAME":"歸仁區","LI":"南興里","LIN":"6鄰","STREET":"民生二街","SECT":" ","MAREA":" ","LANE":" ","ALLEY":" ","HOUSE_NO":"５０號","E_COORD97":176129.98999999999,"N_COORD97":2541346.29,"ADDRESS":"民生二街５０號","OBJECTID":528177},"geometry":{"x":176129.99000000022,"y":2541346.2900000028}},{"attributes":{"ID":528205,"DIS_CODE":0,"TOWNNAME":"歸仁區","LI":"文化里","LIN":"6鄰","STREET":"文化北街","SECT":" ","MAREA":" ","LANE":" ","ALLEY":" ","HOUSE_NO":"７３號","E_COORD97":177283.76000000001,"N_COORD97":2541395.3399999999,"ADDRESS":"文化北街７３號","OBJECTID":528178},"geometry":{"x":177283.75999999978,"y":2541395.3400000017}},{"attributes":{"ID":528206,"DIS_CODE":0,"TOWNNAME":"歸仁區","LI":"南興里","LIN":"6鄰","STREET":"民生二街","SECT":" ","MAREA":" ","LANE":" ","ALLEY":" ","HOUSE_NO":"９０號","E_COORD97":176139.29000000001,"N_COORD97":2541366.29,"ADDRESS":"民生二街９０號","OBJECTID":528179},"geometry":{"x":176139.29000000004,"y":2541366.2899999991}},{"attributes":{"ID":528207,"DIS_CODE":0,"TOWNNAME":"歸仁區","LI":"南興里","LIN":"6鄰","STREET":"民生二街","SECT":" ","MAREA":" ","LANE":" ","ALLEY":" ","HOUSE_NO":"１１４號","E_COORD97":176117.04000000001,"N_COORD97":2541380.2799999998,"ADDRESS":"民生二街１１４號","OBJECTID":528180},"geometry":{"x":176117.04000000004,"y":2541380.2799999975}},{"attributes":{"ID":528208,"DIS_CODE":0,"TOWNNAME":"歸仁區","LI":"南興里","LIN":"6鄰","STREET":"民生二街","SECT":" ","MAREA":" ","LANE":" ","ALLEY":" ","HOUSE_NO":"１４號","E_COORD97":176218.19,"N_COORD97":2541346.29,"ADDRESS":"民生二街１４號","OBJECTID":528181},"geometry":{"x":176218.19000000041,"y":2541346.2900000028}},{"attributes":{"ID":528209,"DIS_CODE":0,"TOWNNAME":"歸仁區","LI":"南興里","LIN":"6鄰","STREET":"民生二街","SECT":" ","MAREA":" ","LANE":" ","ALLEY":" ","HOUSE_NO":"９６號","E_COORD97":176152.69,"N_COORD97":2541365.29,"ADDRESS":"民生二街９６號","OBJECTID":528182},"geometry":{"x":176152.69000000227,"y":2541365.2899999991}},{"attributes":{"ID":528210,"DIS_CODE":0,"TOWNNAME":"歸仁區","LI":"南興里","LIN":"6鄰","STREET":"民生二街","SECT":" ","MAREA":" ","LANE":" ","ALLEY":" ","HOUSE_NO":"１０８號","E_COORD97":176131.44,"N_COORD97":2541379.29,"ADDRESS":"民生二街１０８號","OBJECTID":528183},"geometry":{"x":176131.44000000134,"y":2541379.2899999991}},{"attributes":{"ID":528211,"DIS_CODE":0,"TOWNNAME":"歸仁區","LI":"南興里","LIN":"6鄰","STREET":"民生二街","SECT":" ","MAREA":" ","LANE":" ","ALLEY":" ","HOUSE_NO":"１２６號","E_COORD97":176089.34,"N_COORD97":2541381.29,"ADDRESS":"民生二街１２６號","OBJECTID":528184},"geometry":{"x":176089.33999999985,"y":2541381.290000001}},{"attributes":{"ID":528212,"DIS_CODE":0,"TOWNNAME":"歸仁區","LI":"南興里","LIN":"6鄰","STREET":"民生二街","SECT":" ","MAREA":" ","LANE":" ","ALLEY":" ","HOUSE_NO":"１２０號","E_COORD97":176103.73999999999,"N_COORD97":2541380.2799999998,"ADDRESS":"民生二街１２０號","OBJECTID":528185},"geometry":{"x":176103.74000000115,"y":2541380.2799999975}},{"attributes":{"ID":528213,"DIS_CODE":0,"TOWNNAME":"歸仁區","LI":"後市里","LIN":"6鄰","STREET":"大吉一街","SECT":" ","MAREA":" ","LANE":" ","ALLEY":" ","HOUSE_NO":"３１號","E_COORD97":177159.10999999999,"N_COORD97":2540703.25,"ADDRESS":"大吉一街３１號","OBJECTID":528186},"geometry":{"x":177159.11000000127,"y":2540703.2500000037}},{"attributes":{"ID":528214,"DIS_CODE":0,"TOWNNAME":"歸仁區","LI":"後市里","LIN":"6鄰","STREET":"大吉一街","SECT":" ","MAREA":" ","LANE":" ","ALLEY":" ","HOUSE_NO":"１５號","E_COORD97":177161.31,"N_COORD97":2540738.25,"ADDRESS":"大吉一街１５號","OBJECTID":528187},"geometry":{"x":177161.31000000145,"y":2540738.2500000019}},{"attributes":{"ID":528215,"DIS_CODE":0,"TOWNNAME":"歸仁區","LI":"南興里","LIN":"6鄰","STREET":"民生二街","SECT":" ","MAREA":" ","LANE":" ","ALLEY":" ","HOUSE_NO":"８４號","E_COORD97":176125.98999999999,"N_COORD97":2541366.29,"ADDRESS":"民生二街８４號","OBJECTID":528188},"geometry":{"x":176125.99000000022,"y":2541366.2899999991}},{"attributes":{"ID":528216,"DIS_CODE":0,"TOWNNAME":"歸仁區","LI":"後市里","LIN":"6鄰","STREET":"大吉一街","SECT":" ","MAREA":" ","LANE":" ","ALLEY":" ","HOUSE_NO":"２９號","E_COORD97":177160.10999999999,"N_COORD97":2540708.25,"ADDRESS":"大吉一街２９號","OBJECTID":528189},"geometry":{"x":177160.1100000022,"y":2540708.2500000019}},{"attributes":{"ID":528217,"DIS_CODE":0,"TOWNNAME":"歸仁區","LI":"南興里","LIN":"6鄰","STREET":"民生北街","SECT":" ","MAREA":" ","LANE":" ","ALLEY":" ","HOUSE_NO":"２３３號","E_COORD97":176257.34,"N_COORD97":2541342.29,"ADDRESS":"民生北街２３３號","OBJECTID":528190},"geometry":{"x":176257.33999999985,"y":2541342.2899999991}},{"attributes":{"ID":528218,"DIS_CODE":0,"TOWNNAME":"歸仁區","LI":"文化里","LIN":"6鄰","STREET":"文化北街","SECT":" ","MAREA":" ","LANE":" ","ALLEY":" ","HOUSE_NO":"６７號","E_COORD97":177297.06,"N_COORD97":2541394.3399999999,"ADDRESS":"文化北街６７號","OBJECTID":528191},"geometry":{"x":177297.06000000145,"y":2541394.3400000036}},{"attributes":{"ID":528219,"DIS_CODE":0,"TOWNNAME":"歸仁區","LI":"南興里","LIN":"6鄰","STREET":"民生二街","SECT":" ","MAREA":" ","LANE":" ","ALLEY":" ","HOUSE_NO":"６４號","E_COORD97":176077.79000000001,"N_COORD97":2541365.29,"ADDRESS":"民生二街６４號","OBJECTID":528192},"geometry":{"x":176077.79000000097,"y":2541365.2899999991}},{"attributes":{"ID":528220,"DIS_CODE":0,"TOWNNAME":"歸仁區","LI":"文化里","LIN":"6鄰","STREET":"文化北街","SECT":" ","MAREA":" ","LANE":" ","ALLEY":" ","HOUSE_NO":"８１號","E_COORD97":177266.35999999999,"N_COORD97":2541396.3399999999,"ADDRESS":"文化北街８１號","OBJECTID":528193},"geometry":{"x":177266.36000000034,"y":2541396.3399999999}},{"attributes":{"ID":528221,"DIS_CODE":0,"TOWNNAME":"歸仁區","LI":"後市里","LIN":"6鄰","STREET":"大吉一街","SECT":" ","MAREA":" ","LANE":" ","ALLEY":" ","HOUSE_NO":"１３號","E_COORD97":177161.31,"N_COORD97":2540741.25,"ADDRESS":"大吉一街１３號","OBJECTID":528194},"geometry":{"x":177161.31000000145,"y":2540741.2500000019}},{"attributes":{"ID":528222,"DIS_CODE":0,"TOWNNAME":"歸仁區","LI":"文化里","LIN":"6鄰","STREET":"文化北街","SECT":" ","MAREA":" ","LANE":" ","ALLEY":" ","HOUSE_NO":"８３號","E_COORD97":177261.26000000001,"N_COORD97":2541396.3399999999,"ADDRESS":"文化北街８３號","OBJECTID":528195},"geometry":{"x":177261.25999999978,"y":2541396.3399999999}},{"attributes":{"ID":528223,"DIS_CODE":0,"TOWNNAME":"歸仁區","LI":"文化里","LIN":"6鄰","STREET":"民權一街","SECT":" ","MAREA":" ","LANE":" ","ALLEY":" ","HOUSE_NO":"７９號","E_COORD97":177271.25,"N_COORD97":2541356.3300000001,"ADDRESS":"民權一街７９號","OBJECTID":528196},"geometry":{"x":177271.25000000093,"y":2541356.3300000001}},{"attributes":{"ID":528224,"DIS_CODE":0,"TOWNNAME":"歸仁區","LI":"文化里","LIN":"6鄰","STREET":"文化北街","SECT":" ","MAREA":" ","LANE":" ","ALLEY":" ","HOUSE_NO":"８５號","E_COORD97":177254.06,"N_COORD97":2541397.3399999999,"ADDRESS":"文化北街８５號","OBJECTID":528197},"geometry":{"x":177254.05999999959,"y":2541397.3399999999}},{"attributes":{"ID":528225,"DIS_CODE":0,"TOWNNAME":"歸仁區","LI":"八甲里","LIN":"6鄰","STREET":"大光二街","SECT":" ","MAREA":" ","LANE":" ","ALLEY":" ","HOUSE_NO":"１１號","E_COORD97":177916.42000000001,"N_COORD97":2541724.6099999999,"ADDRESS":"大光二街１１號","OBJECTID":528198},"geometry":{"x":177916.41999999993,"y":2541724.6100000013}},{"attributes":{"ID":528226,"DIS_CODE":0,"TOWNNAME":"歸仁區","LI":"南興里","LIN":"6鄰","STREET":"民生二街","SECT":" ","MAREA":" ","LANE":" ","ALLEY":" ","HOUSE_NO":"６２號","E_COORD97":176073.69,"N_COORD97":2541365.29,"ADDRESS":"民生二街６２號","OBJECTID":528199},"geometry":{"x":176073.69000000134,"y":2541365.2899999991}},{"attributes":{"ID":528227,"DIS_CODE":0,"TOWNNAME":"歸仁區","LI":"看西里","LIN":"6鄰","STREET":"信義南路","SECT":" ","MAREA":" ","LANE":" ","ALLEY":" ","HOUSE_NO":"１３１號","E_COORD97":178145.89999999999,"N_COORD97":2540369.4900000002,"ADDRESS":"信義南路１３１號","OBJECTID":528200},"geometry":{"x":178145.90000000037,"y":2540369.4899999984}}]}