{"displayFieldName":"TOWNNAME","fieldAliases":{"ID":"ID","DIS_CODE":"DIS_CODE","TOWNNAME":"TOWNNAME","LI":"LI","LIN":"LIN","STREET":"STREET","SECT":"SECT","MAREA":"MAREA","LANE":"LANE","ALLEY":"ALLEY","HOUSE_NO":"HOUSE_NO","E_COORD97":"E_COORD97","N_COORD97":"N_COORD97","ADDRESS":"ADDRESS","OBJECTID":"OBJECTID"},"geometryType":"esriGeometryPoint","spatialReference":{"wkid":102443,"latestWkid":3826},"fields":[{"name":"ID","type":"esriFieldTypeDouble","alias":"ID"},{"name":"DIS_CODE","type":"esriFieldTypeInteger","alias":"DIS_CODE"},{"name":"TOWNNAME","type":"esriFieldTypeString","alias":"TOWNNAME","length":8},{"name":"LI","type":"esriFieldTypeString","alias":"LI","length":8},{"name":"LIN","type":"esriFieldTypeString","alias":"LIN","length":12},{"name":"STREET","type":"esriFieldTypeString","alias":"STREET","length":20},{"name":"SECT","type":"esriFieldTypeString","alias":"SECT","length":8},{"name":"MAREA","type":"esriFieldTypeString","alias":"MAREA","length":12},{"name":"LANE","type":"esriFieldTypeString","alias":"LANE","length":10},{"name":"ALLEY","type":"esriFieldTypeString","alias":"ALLEY","length":10},{"name":"HOUSE_NO","type":"esriFieldTypeString","alias":"HOUSE_NO","length":20},{"name":"E_COORD97","type":"esriFieldTypeDouble","alias":"E_COORD97"},{"name":"N_COORD97","type":"esriFieldTypeDouble","alias":"N_COORD97"},{"name":"ADDRESS","type":"esriFieldTypeString","alias":"ADDRESS","length":50},{"name":"OBJECTID","type":"esriFieldTypeOID","alias":"OBJECTID"}],"features":[{"attributes":{"ID":445226,"DIS_CODE":0,"TOWNNAME":"安平區","LI":"文平里","LIN":"5鄰","STREET":"建平六街","SECT":" ","MAREA":" ","LANE":"８０巷","ALLEY":" ","HOUSE_NO":"１１５號五樓之１１","E_COORD97":166417.20999999999,"N_COORD97":2543138.25,"ADDRESS":"建平六街８０巷１１５號五樓之１１","OBJECTID":445201},"geometry":{"x":166417.21000000089,"y":2543138.2500000019}},{"attributes":{"ID":445227,"DIS_CODE":0,"TOWNNAME":"安平區","LI":"文平里","LIN":"5鄰","STREET":"建平六街","SECT":" ","MAREA":" ","LANE":"８０巷","ALLEY":" ","HOUSE_NO":"１１５號五樓之２","E_COORD97":166417.20999999999,"N_COORD97":2543138.25,"ADDRESS":"建平六街８０巷１１５號五樓之２","OBJECTID":445202},"geometry":{"x":166417.21000000089,"y":2543138.2500000019}},{"attributes":{"ID":445228,"DIS_CODE":0,"TOWNNAME":"安平區","LI":"文平里","LIN":"5鄰","STREET":"建平六街","SECT":" ","MAREA":" ","LANE":"８０巷","ALLEY":" ","HOUSE_NO":"１１５號五樓之３","E_COORD97":166417.20999999999,"N_COORD97":2543138.25,"ADDRESS":"建平六街８０巷１１５號五樓之３","OBJECTID":445203},"geometry":{"x":166417.21000000089,"y":2543138.2500000019}},{"attributes":{"ID":445229,"DIS_CODE":0,"TOWNNAME":"安平區","LI":"文平里","LIN":"5鄰","STREET":"建平六街","SECT":" ","MAREA":" ","LANE":"８０巷","ALLEY":" ","HOUSE_NO":"１１５號五樓之４","E_COORD97":166417.20999999999,"N_COORD97":2543138.25,"ADDRESS":"建平六街８０巷１１５號五樓之４","OBJECTID":445204},"geometry":{"x":166417.21000000089,"y":2543138.2500000019}},{"attributes":{"ID":445230,"DIS_CODE":0,"TOWNNAME":"安平區","LI":"文平里","LIN":"5鄰","STREET":"建平六街","SECT":" ","MAREA":" ","LANE":"８０巷","ALLEY":" ","HOUSE_NO":"１１５號五樓之５","E_COORD97":166417.20999999999,"N_COORD97":2543138.25,"ADDRESS":"建平六街８０巷１１５號五樓之５","OBJECTID":445205},"geometry":{"x":166417.21000000089,"y":2543138.2500000019}},{"attributes":{"ID":445231,"DIS_CODE":0,"TOWNNAME":"歸仁區","LI":"文化里","LIN":"5鄰","STREET":"民權一街","SECT":" ","MAREA":" ","LANE":"３８巷","ALLEY":" ","HOUSE_NO":"１號七樓之１","E_COORD97":177304.38,"N_COORD97":2541327.3399999999,"ADDRESS":"民權一街３８巷１號七樓之１","OBJECTID":445206},"geometry":{"x":177304.38000000082,"y":2541327.3400000017}},{"attributes":{"ID":445232,"DIS_CODE":0,"TOWNNAME":"安平區","LI":"文平里","LIN":"5鄰","STREET":"建平六街","SECT":" ","MAREA":" ","LANE":"８０巷","ALLEY":" ","HOUSE_NO":"１１５號五樓之６","E_COORD97":166417.20999999999,"N_COORD97":2543138.25,"ADDRESS":"建平六街８０巷１１５號五樓之６","OBJECTID":445207},"geometry":{"x":166417.21000000089,"y":2543138.2500000019}},{"attributes":{"ID":445233,"DIS_CODE":0,"TOWNNAME":"安平區","LI":"文平里","LIN":"5鄰","STREET":"建平六街","SECT":" ","MAREA":" ","LANE":"８０巷","ALLEY":" ","HOUSE_NO":"１１５號五樓之７","E_COORD97":166417.20999999999,"N_COORD97":2543138.25,"ADDRESS":"建平六街８０巷１１５號五樓之７","OBJECTID":445208},"geometry":{"x":166417.21000000089,"y":2543138.2500000019}},{"attributes":{"ID":445234,"DIS_CODE":0,"TOWNNAME":"安平區","LI":"文平里","LIN":"5鄰","STREET":"建平六街","SECT":" ","MAREA":" ","LANE":"８０巷","ALLEY":" ","HOUSE_NO":"１１５號五樓之８","E_COORD97":166417.20999999999,"N_COORD97":2543138.25,"ADDRESS":"建平六街８０巷１１５號五樓之８","OBJECTID":445209},"geometry":{"x":166417.21000000089,"y":2543138.2500000019}},{"attributes":{"ID":445235,"DIS_CODE":0,"TOWNNAME":"安平區","LI":"文平里","LIN":"5鄰","STREET":"建平六街","SECT":" ","MAREA":" ","LANE":"８０巷","ALLEY":" ","HOUSE_NO":"１１５號五樓之９","E_COORD97":166417.20999999999,"N_COORD97":2543138.25,"ADDRESS":"建平六街８０巷１１５號五樓之９","OBJECTID":445210},"geometry":{"x":166417.21000000089,"y":2543138.2500000019}},{"attributes":{"ID":445236,"DIS_CODE":0,"TOWNNAME":"安平區","LI":"文平里","LIN":"5鄰","STREET":"建平六街","SECT":" ","MAREA":" ","LANE":"８０巷","ALLEY":" ","HOUSE_NO":"１１５號六樓之１","E_COORD97":166417.20999999999,"N_COORD97":2543138.25,"ADDRESS":"建平六街８０巷１１５號六樓之１","OBJECTID":445211},"geometry":{"x":166417.21000000089,"y":2543138.2500000019}},{"attributes":{"ID":445237,"DIS_CODE":0,"TOWNNAME":"安平區","LI":"文平里","LIN":"5鄰","STREET":"建平六街","SECT":" ","MAREA":" ","LANE":"８０巷","ALLEY":" ","HOUSE_NO":"１１５號六樓之１０","E_COORD97":166417.20999999999,"N_COORD97":2543138.25,"ADDRESS":"建平六街８０巷１１５號六樓之１０","OBJECTID":445212},"geometry":{"x":166417.21000000089,"y":2543138.2500000019}},{"attributes":{"ID":445238,"DIS_CODE":0,"TOWNNAME":"安平區","LI":"文平里","LIN":"5鄰","STREET":"建平六街","SECT":" ","MAREA":" ","LANE":"８０巷","ALLEY":" ","HOUSE_NO":"１１５號六樓之２","E_COORD97":166417.20999999999,"N_COORD97":2543138.25,"ADDRESS":"建平六街８０巷１１５號六樓之２","OBJECTID":445213},"geometry":{"x":166417.21000000089,"y":2543138.2500000019}},{"attributes":{"ID":445239,"DIS_CODE":0,"TOWNNAME":"安平區","LI":"文平里","LIN":"5鄰","STREET":"建平六街","SECT":" ","MAREA":" ","LANE":"８０巷","ALLEY":" ","HOUSE_NO":"１１５號六樓之３","E_COORD97":166417.20999999999,"N_COORD97":2543138.25,"ADDRESS":"建平六街８０巷１１５號六樓之３","OBJECTID":445214},"geometry":{"x":166417.21000000089,"y":2543138.2500000019}},{"attributes":{"ID":445240,"DIS_CODE":0,"TOWNNAME":"安平區","LI":"文平里","LIN":"5鄰","STREET":"建平六街","SECT":" ","MAREA":" ","LANE":"８０巷","ALLEY":" ","HOUSE_NO":"１１５號六樓之４","E_COORD97":166417.20999999999,"N_COORD97":2543138.25,"ADDRESS":"建平六街８０巷１１５號六樓之４","OBJECTID":445215},"geometry":{"x":166417.21000000089,"y":2543138.2500000019}},{"attributes":{"ID":445241,"DIS_CODE":0,"TOWNNAME":"安平區","LI":"文平里","LIN":"5鄰","STREET":"建平六街","SECT":" ","MAREA":" ","LANE":"８０巷","ALLEY":" ","HOUSE_NO":"１１５號六樓之５","E_COORD97":166417.20999999999,"N_COORD97":2543138.25,"ADDRESS":"建平六街８０巷１１５號六樓之５","OBJECTID":445216},"geometry":{"x":166417.21000000089,"y":2543138.2500000019}},{"attributes":{"ID":445242,"DIS_CODE":0,"TOWNNAME":"安平區","LI":"文平里","LIN":"5鄰","STREET":"建平六街","SECT":" ","MAREA":" ","LANE":"８０巷","ALLEY":" ","HOUSE_NO":"１１５號六樓之６","E_COORD97":166417.20999999999,"N_COORD97":2543138.25,"ADDRESS":"建平六街８０巷１１５號六樓之６","OBJECTID":445217},"geometry":{"x":166417.21000000089,"y":2543138.2500000019}},{"attributes":{"ID":445243,"DIS_CODE":0,"TOWNNAME":"安平區","LI":"文平里","LIN":"5鄰","STREET":"建平六街","SECT":" ","MAREA":" ","LANE":"８０巷","ALLEY":" ","HOUSE_NO":"１１５號六樓之７","E_COORD97":166417.20999999999,"N_COORD97":2543138.25,"ADDRESS":"建平六街８０巷１１５號六樓之７","OBJECTID":445218},"geometry":{"x":166417.21000000089,"y":2543138.2500000019}},{"attributes":{"ID":445244,"DIS_CODE":0,"TOWNNAME":"安平區","LI":"文平里","LIN":"5鄰","STREET":"建平六街","SECT":" ","MAREA":" ","LANE":"８０巷","ALLEY":" ","HOUSE_NO":"１１５號六樓之８","E_COORD97":166417.20999999999,"N_COORD97":2543138.25,"ADDRESS":"建平六街８０巷１１５號六樓之８","OBJECTID":445219},"geometry":{"x":166417.21000000089,"y":2543138.2500000019}},{"attributes":{"ID":445245,"DIS_CODE":0,"TOWNNAME":"安平區","LI":"文平里","LIN":"5鄰","STREET":"建平六街","SECT":" ","MAREA":" ","LANE":"８０巷","ALLEY":" ","HOUSE_NO":"１１５號六樓之９","E_COORD97":166417.20999999999,"N_COORD97":2543138.25,"ADDRESS":"建平六街８０巷１１５號六樓之９","OBJECTID":445220},"geometry":{"x":166417.21000000089,"y":2543138.2500000019}},{"attributes":{"ID":445246,"DIS_CODE":0,"TOWNNAME":"安平區","LI":"文平里","LIN":"5鄰","STREET":"建平六街","SECT":" ","MAREA":" ","LANE":"８０巷","ALLEY":" ","HOUSE_NO":"１１５號四樓之１","E_COORD97":166417.20999999999,"N_COORD97":2543138.25,"ADDRESS":"建平六街８０巷１１５號四樓之１","OBJECTID":445221},"geometry":{"x":166417.21000000089,"y":2543138.2500000019}},{"attributes":{"ID":445247,"DIS_CODE":0,"TOWNNAME":"安平區","LI":"文平里","LIN":"5鄰","STREET":"建平六街","SECT":" ","MAREA":" ","LANE":"８０巷","ALLEY":" ","HOUSE_NO":"１１５號四樓之１０","E_COORD97":166417.20999999999,"N_COORD97":2543138.25,"ADDRESS":"建平六街８０巷１１５號四樓之１０","OBJECTID":445222},"geometry":{"x":166417.21000000089,"y":2543138.2500000019}},{"attributes":{"ID":445248,"DIS_CODE":0,"TOWNNAME":"安平區","LI":"文平里","LIN":"5鄰","STREET":"建平六街","SECT":" ","MAREA":" ","LANE":"８０巷","ALLEY":" ","HOUSE_NO":"１１５號四樓之１１","E_COORD97":166417.20999999999,"N_COORD97":2543138.25,"ADDRESS":"建平六街８０巷１１５號四樓之１１","OBJECTID":445223},"geometry":{"x":166417.21000000089,"y":2543138.2500000019}},{"attributes":{"ID":445249,"DIS_CODE":0,"TOWNNAME":"安平區","LI":"文平里","LIN":"5鄰","STREET":"建平六街","SECT":" ","MAREA":" ","LANE":"８０巷","ALLEY":" ","HOUSE_NO":"１１５號四樓之１２","E_COORD97":166417.20999999999,"N_COORD97":2543138.25,"ADDRESS":"建平六街８０巷１１５號四樓之１２","OBJECTID":445224},"geometry":{"x":166417.21000000089,"y":2543138.2500000019}},{"attributes":{"ID":445250,"DIS_CODE":0,"TOWNNAME":"安平區","LI":"文平里","LIN":"5鄰","STREET":"建平六街","SECT":" ","MAREA":" ","LANE":"８０巷","ALLEY":" ","HOUSE_NO":"１１５號四樓之２","E_COORD97":166417.20999999999,"N_COORD97":2543138.25,"ADDRESS":"建平六街８０巷１１５號四樓之２","OBJECTID":445225},"geometry":{"x":166417.21000000089,"y":2543138.2500000019}},{"attributes":{"ID":445251,"DIS_CODE":0,"TOWNNAME":"安平區","LI":"文平里","LIN":"5鄰","STREET":"建平六街","SECT":" ","MAREA":" ","LANE":"８０巷","ALLEY":" ","HOUSE_NO":"１１５號四樓之３","E_COORD97":166417.20999999999,"N_COORD97":2543138.25,"ADDRESS":"建平六街８０巷１１５號四樓之３","OBJECTID":445226},"geometry":{"x":166417.21000000089,"y":2543138.2500000019}},{"attributes":{"ID":445252,"DIS_CODE":0,"TOWNNAME":"安平區","LI":"文平里","LIN":"5鄰","STREET":"建平六街","SECT":" ","MAREA":" ","LANE":"８０巷","ALLEY":" ","HOUSE_NO":"１１５號四樓之３之１","E_COORD97":166417.20999999999,"N_COORD97":2543138.25,"ADDRESS":"建平六街８０巷１１５號四樓之３之１","OBJECTID":445227},"geometry":{"x":166417.21000000089,"y":2543138.2500000019}},{"attributes":{"ID":445253,"DIS_CODE":0,"TOWNNAME":"安平區","LI":"文平里","LIN":"5鄰","STREET":"建平六街","SECT":" ","MAREA":" ","LANE":"８０巷","ALLEY":" ","HOUSE_NO":"１１５號四樓之５","E_COORD97":166417.20999999999,"N_COORD97":2543138.25,"ADDRESS":"建平六街８０巷１１５號四樓之５","OBJECTID":445228},"geometry":{"x":166417.21000000089,"y":2543138.2500000019}},{"attributes":{"ID":445254,"DIS_CODE":0,"TOWNNAME":"安平區","LI":"文平里","LIN":"5鄰","STREET":"建平六街","SECT":" ","MAREA":" ","LANE":"８０巷","ALLEY":" ","HOUSE_NO":"１１５號四樓之６","E_COORD97":166417.20999999999,"N_COORD97":2543138.25,"ADDRESS":"建平六街８０巷１１５號四樓之６","OBJECTID":445229},"geometry":{"x":166417.21000000089,"y":2543138.2500000019}},{"attributes":{"ID":445255,"DIS_CODE":0,"TOWNNAME":"安平區","LI":"文平里","LIN":"5鄰","STREET":"建平六街","SECT":" ","MAREA":" ","LANE":"８０巷","ALLEY":" ","HOUSE_NO":"１１５號四樓之７","E_COORD97":166417.20999999999,"N_COORD97":2543138.25,"ADDRESS":"建平六街８０巷１１５號四樓之７","OBJECTID":445230},"geometry":{"x":166417.21000000089,"y":2543138.2500000019}},{"attributes":{"ID":445256,"DIS_CODE":0,"TOWNNAME":"安平區","LI":"文平里","LIN":"5鄰","STREET":"建平六街","SECT":" ","MAREA":" ","LANE":"８０巷","ALLEY":" ","HOUSE_NO":"１１５號四樓之８","E_COORD97":166417.20999999999,"N_COORD97":2543138.25,"ADDRESS":"建平六街８０巷１１５號四樓之８","OBJECTID":445231},"geometry":{"x":166417.21000000089,"y":2543138.2500000019}},{"attributes":{"ID":445257,"DIS_CODE":0,"TOWNNAME":"安平區","LI":"文平里","LIN":"5鄰","STREET":"建平六街","SECT":" ","MAREA":" ","LANE":"８０巷","ALLEY":" ","HOUSE_NO":"１１５號四樓之９","E_COORD97":166417.20999999999,"N_COORD97":2543138.25,"ADDRESS":"建平六街８０巷１１５號四樓之９","OBJECTID":445232},"geometry":{"x":166417.21000000089,"y":2543138.2500000019}},{"attributes":{"ID":445258,"DIS_CODE":0,"TOWNNAME":"新營區","LI":"民權里","LIN":"5鄰","STREET":"信義街","SECT":" ","MAREA":" ","LANE":"７２巷","ALLEY":" ","HOUSE_NO":"１０號六樓之２","E_COORD97":180002.32000000001,"N_COORD97":2578521.8399999999,"ADDRESS":"信義街７２巷１０號六樓之２","OBJECTID":445233},"geometry":{"x":180002.32000000123,"y":2578521.8399999999}},{"attributes":{"ID":445259,"DIS_CODE":0,"TOWNNAME":"歸仁區","LI":"文化里","LIN":"5鄰","STREET":"民權一街","SECT":" ","MAREA":" ","LANE":"３８巷","ALLEY":" ","HOUSE_NO":"１號四樓之５","E_COORD97":177304.41,"N_COORD97":2541327.3399999999,"ADDRESS":"民權一街３８巷１號四樓之５","OBJECTID":445234},"geometry":{"x":177304.41000000108,"y":2541327.3400000017}},{"attributes":{"ID":445260,"DIS_CODE":0,"TOWNNAME":"歸仁區","LI":"文化里","LIN":"5鄰","STREET":"民權一街","SECT":" ","MAREA":" ","LANE":"３８巷","ALLEY":" ","HOUSE_NO":"１號四樓之６","E_COORD97":177304.39999999999,"N_COORD97":2541327.3399999999,"ADDRESS":"民權一街３８巷１號四樓之６","OBJECTID":445235},"geometry":{"x":177304.4000000013,"y":2541327.3400000017}},{"attributes":{"ID":445261,"DIS_CODE":0,"TOWNNAME":"歸仁區","LI":"文化里","LIN":"5鄰","STREET":"民權一街","SECT":" ","MAREA":" ","LANE":"３８巷","ALLEY":" ","HOUSE_NO":"１號五樓之１","E_COORD97":177304.38,"N_COORD97":2541327.3399999999,"ADDRESS":"民權一街３８巷１號五樓之１","OBJECTID":445236},"geometry":{"x":177304.38000000082,"y":2541327.3400000017}},{"attributes":{"ID":445262,"DIS_CODE":0,"TOWNNAME":"東區","LI":"泉南里","LIN":"14鄰","STREET":"府連路","SECT":" ","MAREA":" ","LANE":"２４１巷","ALLEY":" ","HOUSE_NO":"８號","E_COORD97":169394.70000000001,"N_COORD97":2542919.4199999999,"ADDRESS":"府連路２４１巷８號","OBJECTID":445237},"geometry":{"x":169394.70000000019,"y":2542919.4200000037}},{"attributes":{"ID":445263,"DIS_CODE":0,"TOWNNAME":"歸仁區","LI":"文化里","LIN":"5鄰","STREET":"民權一街","SECT":" ","MAREA":" ","LANE":"３８巷","ALLEY":" ","HOUSE_NO":"１號七樓之５","E_COORD97":177304.41,"N_COORD97":2541327.3399999999,"ADDRESS":"民權一街３８巷１號七樓之５","OBJECTID":445238},"geometry":{"x":177304.41000000108,"y":2541327.3400000017}},{"attributes":{"ID":445264,"DIS_CODE":0,"TOWNNAME":"歸仁區","LI":"文化里","LIN":"5鄰","STREET":"民權一街","SECT":" ","MAREA":" ","LANE":"３８巷","ALLEY":" ","HOUSE_NO":"１號三樓之７","E_COORD97":177304.39999999999,"N_COORD97":2541327.3399999999,"ADDRESS":"民權一街３８巷１號三樓之７","OBJECTID":445239},"geometry":{"x":177304.4000000013,"y":2541327.3400000017}},{"attributes":{"ID":445265,"DIS_CODE":0,"TOWNNAME":"歸仁區","LI":"文化里","LIN":"5鄰","STREET":"民權一街","SECT":" ","MAREA":" ","LANE":"３８巷","ALLEY":" ","HOUSE_NO":"１號五樓之２","E_COORD97":177304.41,"N_COORD97":2541327.3399999999,"ADDRESS":"民權一街３８巷１號五樓之２","OBJECTID":445240},"geometry":{"x":177304.41000000108,"y":2541327.3400000017}},{"attributes":{"ID":445266,"DIS_CODE":0,"TOWNNAME":"歸仁區","LI":"文化里","LIN":"5鄰","STREET":"民權一街","SECT":" ","MAREA":" ","LANE":"３８巷","ALLEY":" ","HOUSE_NO":"１號四樓之３","E_COORD97":177304.39999999999,"N_COORD97":2541327.3399999999,"ADDRESS":"民權一街３８巷１號四樓之３","OBJECTID":445241},"geometry":{"x":177304.4000000013,"y":2541327.3400000017}},{"attributes":{"ID":445267,"DIS_CODE":0,"TOWNNAME":"歸仁區","LI":"文化里","LIN":"5鄰","STREET":"民權一街","SECT":" ","MAREA":" ","LANE":"３８巷","ALLEY":" ","HOUSE_NO":"１號六樓之１","E_COORD97":177304.38,"N_COORD97":2541327.3399999999,"ADDRESS":"民權一街３８巷１號六樓之１","OBJECTID":445242},"geometry":{"x":177304.38000000082,"y":2541327.3400000017}},{"attributes":{"ID":445268,"DIS_CODE":0,"TOWNNAME":"安平區","LI":"平通里","LIN":"5鄰","STREET":"健康三街","SECT":" ","MAREA":" ","LANE":"５９２巷","ALLEY":" ","HOUSE_NO":"５５號十四樓之４","E_COORD97":164996.92999999999,"N_COORD97":2544199.8500000001,"ADDRESS":"健康三街５９２巷５５號十四樓之４","OBJECTID":445243},"geometry":{"x":164996.9299999997,"y":2544199.8499999996}},{"attributes":{"ID":445269,"DIS_CODE":0,"TOWNNAME":"安平區","LI":"平通里","LIN":"5鄰","STREET":"健康三街","SECT":" ","MAREA":" ","LANE":"５９２巷","ALLEY":" ","HOUSE_NO":"５５號十四樓之５","E_COORD97":164996.92999999999,"N_COORD97":2544199.8500000001,"ADDRESS":"健康三街５９２巷５５號十四樓之５","OBJECTID":445244},"geometry":{"x":164996.9299999997,"y":2544199.8499999996}},{"attributes":{"ID":445270,"DIS_CODE":0,"TOWNNAME":"安平區","LI":"平通里","LIN":"5鄰","STREET":"健康三街","SECT":" ","MAREA":" ","LANE":"５９２巷","ALLEY":" ","HOUSE_NO":"５５號十四樓之６","E_COORD97":164996.92999999999,"N_COORD97":2544199.8500000001,"ADDRESS":"健康三街５９２巷５５號十四樓之６","OBJECTID":445245},"geometry":{"x":164996.9299999997,"y":2544199.8499999996}},{"attributes":{"ID":445271,"DIS_CODE":0,"TOWNNAME":"安平區","LI":"平通里","LIN":"5鄰","STREET":"健康三街","SECT":" ","MAREA":" ","LANE":"５９２巷","ALLEY":" ","HOUSE_NO":"５５號十四樓之７","E_COORD97":164996.92999999999,"N_COORD97":2544199.8500000001,"ADDRESS":"健康三街５９２巷５５號十四樓之７","OBJECTID":445246},"geometry":{"x":164996.9299999997,"y":2544199.8499999996}},{"attributes":{"ID":445272,"DIS_CODE":0,"TOWNNAME":"安平區","LI":"平通里","LIN":"5鄰","STREET":"健康三街","SECT":" ","MAREA":" ","LANE":"５９２巷","ALLEY":" ","HOUSE_NO":"５５號十四樓之８","E_COORD97":164996.92999999999,"N_COORD97":2544199.8500000001,"ADDRESS":"健康三街５９２巷５５號十四樓之８","OBJECTID":445247},"geometry":{"x":164996.9299999997,"y":2544199.8499999996}},{"attributes":{"ID":445273,"DIS_CODE":0,"TOWNNAME":"安平區","LI":"平通里","LIN":"5鄰","STREET":"健康三街","SECT":" ","MAREA":" ","LANE":"５９２巷","ALLEY":" ","HOUSE_NO":"５５號十四樓之９","E_COORD97":164996.92999999999,"N_COORD97":2544199.8500000001,"ADDRESS":"健康三街５９２巷５５號十四樓之９","OBJECTID":445248},"geometry":{"x":164996.9299999997,"y":2544199.8499999996}},{"attributes":{"ID":445274,"DIS_CODE":0,"TOWNNAME":"安平區","LI":"平通里","LIN":"5鄰","STREET":"健康三街","SECT":" ","MAREA":" ","LANE":"５９２巷","ALLEY":" ","HOUSE_NO":"５５號十樓之４","E_COORD97":164996.92999999999,"N_COORD97":2544199.8500000001,"ADDRESS":"健康三街５９２巷５５號十樓之４","OBJECTID":445249},"geometry":{"x":164996.9299999997,"y":2544199.8499999996}},{"attributes":{"ID":445275,"DIS_CODE":0,"TOWNNAME":"安平區","LI":"平通里","LIN":"5鄰","STREET":"健康三街","SECT":" ","MAREA":" ","LANE":"５９２巷","ALLEY":" ","HOUSE_NO":"５５號十樓之５","E_COORD97":164996.92999999999,"N_COORD97":2544199.8500000001,"ADDRESS":"健康三街５９２巷５５號十樓之５","OBJECTID":445250},"geometry":{"x":164996.9299999997,"y":2544199.8499999996}},{"attributes":{"ID":445276,"DIS_CODE":0,"TOWNNAME":"安平區","LI":"平通里","LIN":"5鄰","STREET":"健康三街","SECT":" ","MAREA":" ","LANE":"５９２巷","ALLEY":" ","HOUSE_NO":"５５號十樓之６","E_COORD97":164996.92999999999,"N_COORD97":2544199.8500000001,"ADDRESS":"健康三街５９２巷５５號十樓之６","OBJECTID":445251},"geometry":{"x":164996.9299999997,"y":2544199.8499999996}},{"attributes":{"ID":445277,"DIS_CODE":0,"TOWNNAME":"安平區","LI":"平通里","LIN":"5鄰","STREET":"健康三街","SECT":" ","MAREA":" ","LANE":"５９２巷","ALLEY":" ","HOUSE_NO":"５５號十樓之７","E_COORD97":164996.92999999999,"N_COORD97":2544199.8500000001,"ADDRESS":"健康三街５９２巷５５號十樓之７","OBJECTID":445252},"geometry":{"x":164996.9299999997,"y":2544199.8499999996}},{"attributes":{"ID":445278,"DIS_CODE":0,"TOWNNAME":"安平區","LI":"平通里","LIN":"5鄰","STREET":"健康三街","SECT":" ","MAREA":" ","LANE":"５９２巷","ALLEY":" ","HOUSE_NO":"５５號十樓之８","E_COORD97":164996.92999999999,"N_COORD97":2544199.8500000001,"ADDRESS":"健康三街５９２巷５５號十樓之８","OBJECTID":445253},"geometry":{"x":164996.9299999997,"y":2544199.8499999996}},{"attributes":{"ID":445279,"DIS_CODE":0,"TOWNNAME":"安平區","LI":"平通里","LIN":"5鄰","STREET":"健康三街","SECT":" ","MAREA":" ","LANE":"５９２巷","ALLEY":" ","HOUSE_NO":"５５號十樓之９","E_COORD97":164996.92999999999,"N_COORD97":2544199.8500000001,"ADDRESS":"健康三街５９２巷５５號十樓之９","OBJECTID":445254},"geometry":{"x":164996.9299999997,"y":2544199.8499999996}},{"attributes":{"ID":445280,"DIS_CODE":0,"TOWNNAME":"安平區","LI":"平通里","LIN":"5鄰","STREET":"健康三街","SECT":" ","MAREA":" ","LANE":"５９２巷","ALLEY":" ","HOUSE_NO":"５５號三樓之４","E_COORD97":164996.92999999999,"N_COORD97":2544199.8500000001,"ADDRESS":"健康三街５９２巷５５號三樓之４","OBJECTID":445255},"geometry":{"x":164996.9299999997,"y":2544199.8499999996}},{"attributes":{"ID":445281,"DIS_CODE":0,"TOWNNAME":"安平區","LI":"平通里","LIN":"5鄰","STREET":"健康三街","SECT":" ","MAREA":" ","LANE":"５９２巷","ALLEY":" ","HOUSE_NO":"５５號三樓之５","E_COORD97":164996.92999999999,"N_COORD97":2544199.8500000001,"ADDRESS":"健康三街５９２巷５５號三樓之５","OBJECTID":445256},"geometry":{"x":164996.9299999997,"y":2544199.8499999996}},{"attributes":{"ID":445282,"DIS_CODE":0,"TOWNNAME":"安平區","LI":"平通里","LIN":"5鄰","STREET":"健康三街","SECT":" ","MAREA":" ","LANE":"５９２巷","ALLEY":" ","HOUSE_NO":"５５號三樓之７","E_COORD97":164996.92999999999,"N_COORD97":2544199.8500000001,"ADDRESS":"健康三街５９２巷５５號三樓之７","OBJECTID":445257},"geometry":{"x":164996.9299999997,"y":2544199.8499999996}},{"attributes":{"ID":445283,"DIS_CODE":0,"TOWNNAME":"安平區","LI":"平通里","LIN":"5鄰","STREET":"健康三街","SECT":" ","MAREA":" ","LANE":"５９２巷","ALLEY":" ","HOUSE_NO":"５５號三樓之８","E_COORD97":164996.92999999999,"N_COORD97":2544199.8500000001,"ADDRESS":"健康三街５９２巷５５號三樓之８","OBJECTID":445258},"geometry":{"x":164996.9299999997,"y":2544199.8499999996}},{"attributes":{"ID":445284,"DIS_CODE":0,"TOWNNAME":"安平區","LI":"平通里","LIN":"5鄰","STREET":"健康三街","SECT":" ","MAREA":" ","LANE":"５９２巷","ALLEY":" ","HOUSE_NO":"５５號三樓之９","E_COORD97":164996.92999999999,"N_COORD97":2544199.8500000001,"ADDRESS":"健康三街５９２巷５５號三樓之９","OBJECTID":445259},"geometry":{"x":164996.9299999997,"y":2544199.8499999996}},{"attributes":{"ID":445285,"DIS_CODE":0,"TOWNNAME":"安平區","LI":"平通里","LIN":"5鄰","STREET":"健康三街","SECT":" ","MAREA":" ","LANE":"５９２巷","ALLEY":" ","HOUSE_NO":"５５號五樓之４","E_COORD97":164996.92999999999,"N_COORD97":2544199.8500000001,"ADDRESS":"健康三街５９２巷５５號五樓之４","OBJECTID":445260},"geometry":{"x":164996.9299999997,"y":2544199.8499999996}},{"attributes":{"ID":445286,"DIS_CODE":0,"TOWNNAME":"安平區","LI":"平通里","LIN":"5鄰","STREET":"健康三街","SECT":" ","MAREA":" ","LANE":"５９２巷","ALLEY":" ","HOUSE_NO":"５５號五樓之５","E_COORD97":164996.92999999999,"N_COORD97":2544199.8500000001,"ADDRESS":"健康三街５９２巷５５號五樓之５","OBJECTID":445261},"geometry":{"x":164996.9299999997,"y":2544199.8499999996}},{"attributes":{"ID":445287,"DIS_CODE":0,"TOWNNAME":"安平區","LI":"平通里","LIN":"5鄰","STREET":"健康三街","SECT":" ","MAREA":" ","LANE":"５９２巷","ALLEY":" ","HOUSE_NO":"５５號五樓之６","E_COORD97":164996.92999999999,"N_COORD97":2544199.8500000001,"ADDRESS":"健康三街５９２巷５５號五樓之６","OBJECTID":445262},"geometry":{"x":164996.9299999997,"y":2544199.8499999996}},{"attributes":{"ID":445288,"DIS_CODE":0,"TOWNNAME":"安平區","LI":"平通里","LIN":"5鄰","STREET":"健康三街","SECT":" ","MAREA":" ","LANE":"５９２巷","ALLEY":" ","HOUSE_NO":"５５號五樓之７","E_COORD97":164996.92999999999,"N_COORD97":2544199.8500000001,"ADDRESS":"健康三街５９２巷５５號五樓之７","OBJECTID":445263},"geometry":{"x":164996.9299999997,"y":2544199.8499999996}},{"attributes":{"ID":445289,"DIS_CODE":0,"TOWNNAME":"東區","LI":"崇文里","LIN":"40鄰","STREET":"生產路","SECT":" ","MAREA":" ","LANE":" ","ALLEY":" ","HOUSE_NO":"２７１號九樓","E_COORD97":170892.67999999999,"N_COORD97":2540617.9100000001,"ADDRESS":"生產路２７１號九樓","OBJECTID":445264},"geometry":{"x":170892.68000000063,"y":2540617.9100000039}},{"attributes":{"ID":445290,"DIS_CODE":0,"TOWNNAME":"安平區","LI":"平通里","LIN":"5鄰","STREET":"健康三街","SECT":" ","MAREA":" ","LANE":"５９２巷","ALLEY":" ","HOUSE_NO":"５５號五樓之８","E_COORD97":164996.92999999999,"N_COORD97":2544199.8500000001,"ADDRESS":"健康三街５９２巷５５號五樓之８","OBJECTID":445265},"geometry":{"x":164996.9299999997,"y":2544199.8499999996}},{"attributes":{"ID":445291,"DIS_CODE":0,"TOWNNAME":"安平區","LI":"平通里","LIN":"5鄰","STREET":"健康三街","SECT":" ","MAREA":" ","LANE":"５９２巷","ALLEY":" ","HOUSE_NO":"５５號五樓之９","E_COORD97":164996.92999999999,"N_COORD97":2544199.8500000001,"ADDRESS":"健康三街５９２巷５５號五樓之９","OBJECTID":445266},"geometry":{"x":164996.9299999997,"y":2544199.8499999996}},{"attributes":{"ID":445292,"DIS_CODE":0,"TOWNNAME":"安平區","LI":"平通里","LIN":"5鄰","STREET":"健康三街","SECT":" ","MAREA":" ","LANE":"５９２巷","ALLEY":" ","HOUSE_NO":"５５號六樓之４","E_COORD97":164996.92999999999,"N_COORD97":2544199.8500000001,"ADDRESS":"健康三街５９２巷５５號六樓之４","OBJECTID":445267},"geometry":{"x":164996.9299999997,"y":2544199.8499999996}},{"attributes":{"ID":445293,"DIS_CODE":0,"TOWNNAME":"安平區","LI":"平通里","LIN":"5鄰","STREET":"健康三街","SECT":" ","MAREA":" ","LANE":"５９２巷","ALLEY":" ","HOUSE_NO":"５５號六樓之５","E_COORD97":164996.92999999999,"N_COORD97":2544199.8500000001,"ADDRESS":"健康三街５９２巷５５號六樓之５","OBJECTID":445268},"geometry":{"x":164996.9299999997,"y":2544199.8499999996}},{"attributes":{"ID":445294,"DIS_CODE":0,"TOWNNAME":"安平區","LI":"平通里","LIN":"5鄰","STREET":"健康三街","SECT":" ","MAREA":" ","LANE":"５９２巷","ALLEY":" ","HOUSE_NO":"５５號六樓之６","E_COORD97":164996.92999999999,"N_COORD97":2544199.8500000001,"ADDRESS":"健康三街５９２巷５５號六樓之６","OBJECTID":445269},"geometry":{"x":164996.9299999997,"y":2544199.8499999996}},{"attributes":{"ID":445295,"DIS_CODE":0,"TOWNNAME":"安平區","LI":"平通里","LIN":"5鄰","STREET":"健康三街","SECT":" ","MAREA":" ","LANE":"５９２巷","ALLEY":" ","HOUSE_NO":"５５號六樓之７","E_COORD97":164996.92999999999,"N_COORD97":2544199.8500000001,"ADDRESS":"健康三街５９２巷５５號六樓之７","OBJECTID":445270},"geometry":{"x":164996.9299999997,"y":2544199.8499999996}},{"attributes":{"ID":445296,"DIS_CODE":0,"TOWNNAME":"安平區","LI":"平通里","LIN":"5鄰","STREET":"健康三街","SECT":" ","MAREA":" ","LANE":"５９２巷","ALLEY":" ","HOUSE_NO":"５５號六樓之８","E_COORD97":164996.92999999999,"N_COORD97":2544199.8500000001,"ADDRESS":"健康三街５９２巷５５號六樓之８","OBJECTID":445271},"geometry":{"x":164996.9299999997,"y":2544199.8499999996}},{"attributes":{"ID":445297,"DIS_CODE":0,"TOWNNAME":"安南區","LI":"原佃里","LIN":"5鄰","STREET":"本原街","SECT":"一段","MAREA":" ","LANE":"２３３巷","ALLEY":" ","HOUSE_NO":"５號","E_COORD97":167726.5,"N_COORD97":2550296.25,"ADDRESS":"本原街一段２３３巷５號","OBJECTID":445272},"geometry":{"x":167726.5,"y":2550296.2500000019}},{"attributes":{"ID":445298,"DIS_CODE":0,"TOWNNAME":"安平區","LI":"平通里","LIN":"5鄰","STREET":"健康三街","SECT":" ","MAREA":" ","LANE":"５９２巷","ALLEY":" ","HOUSE_NO":"５５號六樓之９","E_COORD97":164996.92999999999,"N_COORD97":2544199.8500000001,"ADDRESS":"健康三街５９２巷５５號六樓之９","OBJECTID":445273},"geometry":{"x":164996.9299999997,"y":2544199.8499999996}},{"attributes":{"ID":445299,"DIS_CODE":0,"TOWNNAME":"安平區","LI":"平通里","LIN":"5鄰","STREET":"健康三街","SECT":" ","MAREA":" ","LANE":"５９２巷","ALLEY":" ","HOUSE_NO":"５５號四樓之１０","E_COORD97":164996.92999999999,"N_COORD97":2544199.8500000001,"ADDRESS":"健康三街５９２巷５５號四樓之１０","OBJECTID":445274},"geometry":{"x":164996.9299999997,"y":2544199.8499999996}},{"attributes":{"ID":445300,"DIS_CODE":0,"TOWNNAME":"安平區","LI":"平通里","LIN":"5鄰","STREET":"健康三街","SECT":" ","MAREA":" ","LANE":"５９２巷","ALLEY":" ","HOUSE_NO":"５５號四樓之５","E_COORD97":164996.92999999999,"N_COORD97":2544199.8500000001,"ADDRESS":"健康三街５９２巷５５號四樓之５","OBJECTID":445275},"geometry":{"x":164996.9299999997,"y":2544199.8499999996}},{"attributes":{"ID":445301,"DIS_CODE":0,"TOWNNAME":"安平區","LI":"平通里","LIN":"5鄰","STREET":"健康三街","SECT":" ","MAREA":" ","LANE":"５９２巷","ALLEY":" ","HOUSE_NO":"５５號四樓之６","E_COORD97":164996.92999999999,"N_COORD97":2544199.8500000001,"ADDRESS":"健康三街５９２巷５５號四樓之６","OBJECTID":445276},"geometry":{"x":164996.9299999997,"y":2544199.8499999996}},{"attributes":{"ID":445302,"DIS_CODE":0,"TOWNNAME":"安平區","LI":"平通里","LIN":"5鄰","STREET":"健康三街","SECT":" ","MAREA":" ","LANE":"５９２巷","ALLEY":" ","HOUSE_NO":"５５號四樓之７","E_COORD97":164996.92999999999,"N_COORD97":2544199.8500000001,"ADDRESS":"健康三街５９２巷５５號四樓之７","OBJECTID":445277},"geometry":{"x":164996.9299999997,"y":2544199.8499999996}},{"attributes":{"ID":445303,"DIS_CODE":0,"TOWNNAME":"安平區","LI":"平通里","LIN":"5鄰","STREET":"健康三街","SECT":" ","MAREA":" ","LANE":"５９２巷","ALLEY":" ","HOUSE_NO":"５５號四樓之８","E_COORD97":164996.92999999999,"N_COORD97":2544199.8500000001,"ADDRESS":"健康三街５９２巷５５號四樓之８","OBJECTID":445278},"geometry":{"x":164996.9299999997,"y":2544199.8499999996}},{"attributes":{"ID":445304,"DIS_CODE":0,"TOWNNAME":"安平區","LI":"平通里","LIN":"5鄰","STREET":"健康三街","SECT":" ","MAREA":" ","LANE":"５９２巷","ALLEY":" ","HOUSE_NO":"５５號四樓之９","E_COORD97":164996.92999999999,"N_COORD97":2544199.8500000001,"ADDRESS":"健康三街５９２巷５５號四樓之９","OBJECTID":445279},"geometry":{"x":164996.9299999997,"y":2544199.8499999996}},{"attributes":{"ID":445305,"DIS_CODE":0,"TOWNNAME":"安平區","LI":"平通里","LIN":"5鄰","STREET":"健康三街","SECT":" ","MAREA":" ","LANE":"５９２巷","ALLEY":" ","HOUSE_NO":"５５號地下一樓之１","E_COORD97":164996.92999999999,"N_COORD97":2544199.8500000001,"ADDRESS":"健康三街５９２巷５５號地下一樓之１","OBJECTID":445280},"geometry":{"x":164996.9299999997,"y":2544199.8499999996}},{"attributes":{"ID":445306,"DIS_CODE":0,"TOWNNAME":"安平區","LI":"平通里","LIN":"5鄰","STREET":"健康三街","SECT":" ","MAREA":" ","LANE":"５９２巷","ALLEY":" ","HOUSE_NO":"５５號地下一樓之２","E_COORD97":164996.92999999999,"N_COORD97":2544199.8500000001,"ADDRESS":"健康三街５９２巷５５號地下一樓之２","OBJECTID":445281},"geometry":{"x":164996.9299999997,"y":2544199.8499999996}},{"attributes":{"ID":445307,"DIS_CODE":0,"TOWNNAME":"新營區","LI":"民權里","LIN":"5鄰","STREET":"信義街","SECT":" ","MAREA":" ","LANE":"７２巷","ALLEY":" ","HOUSE_NO":"１０號九樓之２","E_COORD97":180002.32000000001,"N_COORD97":2578521.8399999999,"ADDRESS":"信義街７２巷１０號九樓之２","OBJECTID":445282},"geometry":{"x":180002.32000000123,"y":2578521.8399999999}},{"attributes":{"ID":445308,"DIS_CODE":0,"TOWNNAME":"新營區","LI":"民權里","LIN":"5鄰","STREET":"信義街","SECT":" ","MAREA":" ","LANE":"７２巷","ALLEY":" ","HOUSE_NO":"１０號三樓之５","E_COORD97":180002.34,"N_COORD97":2578521.8399999999,"ADDRESS":"信義街７２巷１０號三樓之５","OBJECTID":445283},"geometry":{"x":180002.33999999985,"y":2578521.8399999999}},{"attributes":{"ID":445309,"DIS_CODE":0,"TOWNNAME":"歸仁區","LI":"文化里","LIN":"5鄰","STREET":"民權一街","SECT":" ","MAREA":" ","LANE":"３８巷","ALLEY":" ","HOUSE_NO":"１號六樓之５","E_COORD97":177304.41,"N_COORD97":2541327.3399999999,"ADDRESS":"民權一街３８巷１號六樓之５","OBJECTID":445284},"geometry":{"x":177304.41000000108,"y":2541327.3400000017}},{"attributes":{"ID":445310,"DIS_CODE":0,"TOWNNAME":"歸仁區","LI":"文化里","LIN":"5鄰","STREET":"民權一街","SECT":" ","MAREA":" ","LANE":"３８巷","ALLEY":" ","HOUSE_NO":"１號四樓之７","E_COORD97":177304.39999999999,"N_COORD97":2541327.3399999999,"ADDRESS":"民權一街３８巷１號四樓之７","OBJECTID":445285},"geometry":{"x":177304.4000000013,"y":2541327.3400000017}},{"attributes":{"ID":445311,"DIS_CODE":0,"TOWNNAME":"歸仁區","LI":"文化里","LIN":"5鄰","STREET":"民權一街","SECT":" ","MAREA":" ","LANE":"３８巷","ALLEY":" ","HOUSE_NO":"１號六樓之２","E_COORD97":177304.41,"N_COORD97":2541327.3399999999,"ADDRESS":"民權一街３８巷１號六樓之２","OBJECTID":445286},"geometry":{"x":177304.41000000108,"y":2541327.3400000017}},{"attributes":{"ID":445312,"DIS_CODE":0,"TOWNNAME":"北區","LI":"勝安里","LIN":"5鄰","STREET":"開元路","SECT":" ","MAREA":" ","LANE":"１１７巷","ALLEY":" ","HOUSE_NO":"１２號三樓","E_COORD97":169818.20000000001,"N_COORD97":2545270.2000000002,"ADDRESS":"開元路１１７巷１２號三樓","OBJECTID":445287},"geometry":{"x":169818.20000000112,"y":2545270.2000000011}},{"attributes":{"ID":445313,"DIS_CODE":0,"TOWNNAME":"北區","LI":"勝安里","LIN":"5鄰","STREET":"開元路","SECT":" ","MAREA":" ","LANE":"１１７巷","ALLEY":" ","HOUSE_NO":"１２號四樓","E_COORD97":169818.20000000001,"N_COORD97":2545270.2000000002,"ADDRESS":"開元路１１７巷１２號四樓","OBJECTID":445288},"geometry":{"x":169818.20000000112,"y":2545270.2000000011}},{"attributes":{"ID":445314,"DIS_CODE":0,"TOWNNAME":"北區","LI":"長榮里","LIN":"5鄰","STREET":"長榮路","SECT":"五段","MAREA":" ","LANE":"４１巷","ALLEY":" ","HOUSE_NO":"２６號二樓之１","E_COORD97":169965.23999999999,"N_COORD97":2545589.6499999999,"ADDRESS":"長榮路五段４１巷２６號二樓之１","OBJECTID":445289},"geometry":{"x":169965.24000000115,"y":2545589.6500000004}},{"attributes":{"ID":445315,"DIS_CODE":0,"TOWNNAME":"北區","LI":"長榮里","LIN":"5鄰","STREET":"長榮路","SECT":"五段","MAREA":" ","LANE":"４１巷","ALLEY":" ","HOUSE_NO":"２６號二樓之２","E_COORD97":169965.23999999999,"N_COORD97":2545589.6499999999,"ADDRESS":"長榮路五段４１巷２６號二樓之２","OBJECTID":445290},"geometry":{"x":169965.24000000115,"y":2545589.6500000004}},{"attributes":{"ID":445316,"DIS_CODE":0,"TOWNNAME":"北區","LI":"長榮里","LIN":"5鄰","STREET":"長榮路","SECT":"五段","MAREA":" ","LANE":"４１巷","ALLEY":" ","HOUSE_NO":"２６號三樓之１","E_COORD97":169965.23999999999,"N_COORD97":2545589.6499999999,"ADDRESS":"長榮路五段４１巷２６號三樓之１","OBJECTID":445291},"geometry":{"x":169965.24000000115,"y":2545589.6500000004}},{"attributes":{"ID":445317,"DIS_CODE":0,"TOWNNAME":"北區","LI":"長榮里","LIN":"5鄰","STREET":"長榮路","SECT":"五段","MAREA":" ","LANE":"４１巷","ALLEY":" ","HOUSE_NO":"２６號三樓之２","E_COORD97":169965.23999999999,"N_COORD97":2545589.6499999999,"ADDRESS":"長榮路五段４１巷２６號三樓之２","OBJECTID":445292},"geometry":{"x":169965.24000000115,"y":2545589.6500000004}},{"attributes":{"ID":445318,"DIS_CODE":0,"TOWNNAME":"北區","LI":"長榮里","LIN":"5鄰","STREET":"長榮路","SECT":"五段","MAREA":" ","LANE":"４１巷","ALLEY":" ","HOUSE_NO":"２６號四樓之１","E_COORD97":169965.23999999999,"N_COORD97":2545589.6499999999,"ADDRESS":"長榮路五段４１巷２６號四樓之１","OBJECTID":445293},"geometry":{"x":169965.24000000115,"y":2545589.6500000004}},{"attributes":{"ID":445319,"DIS_CODE":0,"TOWNNAME":"北區","LI":"長榮里","LIN":"5鄰","STREET":"長榮路","SECT":"五段","MAREA":" ","LANE":"４１巷","ALLEY":" ","HOUSE_NO":"２６號四樓之２","E_COORD97":169965.23999999999,"N_COORD97":2545589.6499999999,"ADDRESS":"長榮路五段４１巷２６號四樓之２","OBJECTID":445294},"geometry":{"x":169965.24000000115,"y":2545589.6500000004}},{"attributes":{"ID":445320,"DIS_CODE":0,"TOWNNAME":"北區","LI":"長榮里","LIN":"5鄰","STREET":"長榮路","SECT":"五段","MAREA":" ","LANE":"４１巷","ALLEY":" ","HOUSE_NO":"２６號四樓之３","E_COORD97":169965.23999999999,"N_COORD97":2545589.6499999999,"ADDRESS":"長榮路五段４１巷２６號四樓之３","OBJECTID":445295},"geometry":{"x":169965.24000000115,"y":2545589.6500000004}},{"attributes":{"ID":445321,"DIS_CODE":0,"TOWNNAME":"北區","LI":"長榮里","LIN":"5鄰","STREET":"長榮路","SECT":"五段","MAREA":" ","LANE":"４１巷","ALLEY":" ","HOUSE_NO":"２６號四樓之５","E_COORD97":169965.23999999999,"N_COORD97":2545589.6499999999,"ADDRESS":"長榮路五段４１巷２６號四樓之５","OBJECTID":445296},"geometry":{"x":169965.24000000115,"y":2545589.6500000004}},{"attributes":{"ID":445322,"DIS_CODE":0,"TOWNNAME":"北區","LI":"長榮里","LIN":"5鄰","STREET":"長榮路","SECT":"五段","MAREA":" ","LANE":"４１巷","ALLEY":" ","HOUSE_NO":"２６號五樓之１","E_COORD97":169965.23999999999,"N_COORD97":2545589.6499999999,"ADDRESS":"長榮路五段４１巷２６號五樓之１","OBJECTID":445297},"geometry":{"x":169965.24000000115,"y":2545589.6500000004}},{"attributes":{"ID":445323,"DIS_CODE":0,"TOWNNAME":"北區","LI":"長榮里","LIN":"5鄰","STREET":"長榮路","SECT":"五段","MAREA":" ","LANE":"４１巷","ALLEY":" ","HOUSE_NO":"２６號五樓之２","E_COORD97":169965.23999999999,"N_COORD97":2545589.6499999999,"ADDRESS":"長榮路五段４１巷２６號五樓之２","OBJECTID":445298},"geometry":{"x":169965.24000000115,"y":2545589.6500000004}},{"attributes":{"ID":445324,"DIS_CODE":0,"TOWNNAME":"北區","LI":"長榮里","LIN":"5鄰","STREET":"長榮路","SECT":"五段","MAREA":" ","LANE":"４１巷","ALLEY":" ","HOUSE_NO":"２６號五樓之３","E_COORD97":169965.23999999999,"N_COORD97":2545589.6499999999,"ADDRESS":"長榮路五段４１巷２６號五樓之３","OBJECTID":445299},"geometry":{"x":169965.24000000115,"y":2545589.6500000004}},{"attributes":{"ID":445325,"DIS_CODE":0,"TOWNNAME":"北區","LI":"長榮里","LIN":"5鄰","STREET":"長榮路","SECT":"五段","MAREA":" ","LANE":"４１巷","ALLEY":" ","HOUSE_NO":"２６號五樓之５","E_COORD97":169965.23999999999,"N_COORD97":2545589.6499999999,"ADDRESS":"長榮路五段４１巷２６號五樓之５","OBJECTID":445300},"geometry":{"x":169965.24000000115,"y":2545589.6500000004}},{"attributes":{"ID":445326,"DIS_CODE":0,"TOWNNAME":"北區","LI":"長榮里","LIN":"5鄰","STREET":"長榮路","SECT":"五段","MAREA":" ","LANE":"４１巷","ALLEY":" ","HOUSE_NO":"２６號六樓之１","E_COORD97":169965.23999999999,"N_COORD97":2545589.6499999999,"ADDRESS":"長榮路五段４１巷２６號六樓之１","OBJECTID":445301},"geometry":{"x":169965.24000000115,"y":2545589.6500000004}},{"attributes":{"ID":445327,"DIS_CODE":0,"TOWNNAME":"北區","LI":"長榮里","LIN":"5鄰","STREET":"長榮路","SECT":"五段","MAREA":" ","LANE":"４１巷","ALLEY":" ","HOUSE_NO":"２６號六樓之２","E_COORD97":169965.23999999999,"N_COORD97":2545589.6499999999,"ADDRESS":"長榮路五段４１巷２６號六樓之２","OBJECTID":445302},"geometry":{"x":169965.24000000115,"y":2545589.6500000004}},{"attributes":{"ID":445328,"DIS_CODE":0,"TOWNNAME":"北區","LI":"長榮里","LIN":"5鄰","STREET":"長榮路","SECT":"五段","MAREA":" ","LANE":"４１巷","ALLEY":" ","HOUSE_NO":"２６號六樓之３","E_COORD97":169965.23999999999,"N_COORD97":2545589.6499999999,"ADDRESS":"長榮路五段４１巷２６號六樓之３","OBJECTID":445303},"geometry":{"x":169965.24000000115,"y":2545589.6500000004}},{"attributes":{"ID":445329,"DIS_CODE":0,"TOWNNAME":"北區","LI":"長榮里","LIN":"5鄰","STREET":"長榮路","SECT":"五段","MAREA":" ","LANE":"４１巷","ALLEY":" ","HOUSE_NO":"２６號六樓之５","E_COORD97":169965.23999999999,"N_COORD97":2545589.6499999999,"ADDRESS":"長榮路五段４１巷２６號六樓之５","OBJECTID":445304},"geometry":{"x":169965.24000000115,"y":2545589.6500000004}},{"attributes":{"ID":445330,"DIS_CODE":0,"TOWNNAME":"北區","LI":"長榮里","LIN":"5鄰","STREET":"長榮路","SECT":"五段","MAREA":" ","LANE":"４１巷","ALLEY":" ","HOUSE_NO":"２６號七樓之１","E_COORD97":169965.23999999999,"N_COORD97":2545589.6499999999,"ADDRESS":"長榮路五段４１巷２６號七樓之１","OBJECTID":445305},"geometry":{"x":169965.24000000115,"y":2545589.6500000004}},{"attributes":{"ID":445331,"DIS_CODE":0,"TOWNNAME":"北區","LI":"長榮里","LIN":"5鄰","STREET":"長榮路","SECT":"五段","MAREA":" ","LANE":"４１巷","ALLEY":" ","HOUSE_NO":"２６號七樓之２","E_COORD97":169965.23999999999,"N_COORD97":2545589.6499999999,"ADDRESS":"長榮路五段４１巷２６號七樓之２","OBJECTID":445306},"geometry":{"x":169965.24000000115,"y":2545589.6500000004}},{"attributes":{"ID":445332,"DIS_CODE":0,"TOWNNAME":"北區","LI":"長榮里","LIN":"5鄰","STREET":"長榮路","SECT":"五段","MAREA":" ","LANE":"４１巷","ALLEY":" ","HOUSE_NO":"２６號七樓之３","E_COORD97":169965.23999999999,"N_COORD97":2545589.6499999999,"ADDRESS":"長榮路五段４１巷２６號七樓之３","OBJECTID":445307},"geometry":{"x":169965.24000000115,"y":2545589.6500000004}},{"attributes":{"ID":445333,"DIS_CODE":0,"TOWNNAME":"北區","LI":"長榮里","LIN":"5鄰","STREET":"長榮路","SECT":"五段","MAREA":" ","LANE":"４１巷","ALLEY":" ","HOUSE_NO":"２６號七樓之５","E_COORD97":169965.23999999999,"N_COORD97":2545589.6499999999,"ADDRESS":"長榮路五段４１巷２６號七樓之５","OBJECTID":445308},"geometry":{"x":169965.24000000115,"y":2545589.6500000004}},{"attributes":{"ID":445334,"DIS_CODE":0,"TOWNNAME":"北區","LI":"長榮里","LIN":"5鄰","STREET":"長榮路","SECT":"五段","MAREA":" ","LANE":"４１巷","ALLEY":" ","HOUSE_NO":"２６號八樓之１","E_COORD97":169965.23999999999,"N_COORD97":2545589.6499999999,"ADDRESS":"長榮路五段４１巷２６號八樓之１","OBJECTID":445309},"geometry":{"x":169965.24000000115,"y":2545589.6500000004}},{"attributes":{"ID":445335,"DIS_CODE":0,"TOWNNAME":"北區","LI":"長榮里","LIN":"5鄰","STREET":"長榮路","SECT":"五段","MAREA":" ","LANE":"４１巷","ALLEY":" ","HOUSE_NO":"２６號八樓之２","E_COORD97":169965.23999999999,"N_COORD97":2545589.6499999999,"ADDRESS":"長榮路五段４１巷２６號八樓之２","OBJECTID":445310},"geometry":{"x":169965.24000000115,"y":2545589.6500000004}},{"attributes":{"ID":445336,"DIS_CODE":0,"TOWNNAME":"北區","LI":"長榮里","LIN":"5鄰","STREET":"長榮路","SECT":"五段","MAREA":" ","LANE":"４１巷","ALLEY":" ","HOUSE_NO":"２６號八樓之３","E_COORD97":169965.23999999999,"N_COORD97":2545589.6499999999,"ADDRESS":"長榮路五段４１巷２６號八樓之３","OBJECTID":445311},"geometry":{"x":169965.24000000115,"y":2545589.6500000004}},{"attributes":{"ID":445337,"DIS_CODE":0,"TOWNNAME":"北區","LI":"長榮里","LIN":"5鄰","STREET":"長榮路","SECT":"五段","MAREA":" ","LANE":"４１巷","ALLEY":" ","HOUSE_NO":"２６號八樓之５","E_COORD97":169965.23999999999,"N_COORD97":2545589.6499999999,"ADDRESS":"長榮路五段４１巷２６號八樓之５","OBJECTID":445312},"geometry":{"x":169965.24000000115,"y":2545589.6500000004}},{"attributes":{"ID":445338,"DIS_CODE":0,"TOWNNAME":"北區","LI":"長榮里","LIN":"5鄰","STREET":"長榮路","SECT":"五段","MAREA":" ","LANE":"４１巷","ALLEY":" ","HOUSE_NO":"２６號九樓之１","E_COORD97":169965.23999999999,"N_COORD97":2545589.6499999999,"ADDRESS":"長榮路五段４１巷２６號九樓之１","OBJECTID":445313},"geometry":{"x":169965.24000000115,"y":2545589.6500000004}},{"attributes":{"ID":445339,"DIS_CODE":0,"TOWNNAME":"北區","LI":"長榮里","LIN":"5鄰","STREET":"長榮路","SECT":"五段","MAREA":" ","LANE":"４１巷","ALLEY":" ","HOUSE_NO":"２６號九樓之２","E_COORD97":169965.23999999999,"N_COORD97":2545589.6499999999,"ADDRESS":"長榮路五段４１巷２６號九樓之２","OBJECTID":445314},"geometry":{"x":169965.24000000115,"y":2545589.6500000004}},{"attributes":{"ID":445340,"DIS_CODE":0,"TOWNNAME":"北區","LI":"長榮里","LIN":"5鄰","STREET":"長榮路","SECT":"五段","MAREA":" ","LANE":"４１巷","ALLEY":" ","HOUSE_NO":"２６號九樓之３","E_COORD97":169965.23999999999,"N_COORD97":2545589.6499999999,"ADDRESS":"長榮路五段４１巷２６號九樓之３","OBJECTID":445315},"geometry":{"x":169965.24000000115,"y":2545589.6500000004}},{"attributes":{"ID":445341,"DIS_CODE":0,"TOWNNAME":"北區","LI":"長榮里","LIN":"5鄰","STREET":"長榮路","SECT":"五段","MAREA":" ","LANE":"４１巷","ALLEY":" ","HOUSE_NO":"２６號九樓之５","E_COORD97":169965.23999999999,"N_COORD97":2545589.6499999999,"ADDRESS":"長榮路五段４１巷２６號九樓之５","OBJECTID":445316},"geometry":{"x":169965.24000000115,"y":2545589.6500000004}},{"attributes":{"ID":445342,"DIS_CODE":0,"TOWNNAME":"北區","LI":"長榮里","LIN":"5鄰","STREET":"長榮路","SECT":"五段","MAREA":" ","LANE":"４１巷","ALLEY":" ","HOUSE_NO":"２６號十樓之１","E_COORD97":169965.23999999999,"N_COORD97":2545589.6499999999,"ADDRESS":"長榮路五段４１巷２６號十樓之１","OBJECTID":445317},"geometry":{"x":169965.24000000115,"y":2545589.6500000004}},{"attributes":{"ID":445343,"DIS_CODE":0,"TOWNNAME":"北區","LI":"長榮里","LIN":"5鄰","STREET":"長榮路","SECT":"五段","MAREA":" ","LANE":"４１巷","ALLEY":" ","HOUSE_NO":"２６號十樓之２","E_COORD97":169965.23999999999,"N_COORD97":2545589.6499999999,"ADDRESS":"長榮路五段４１巷２６號十樓之２","OBJECTID":445318},"geometry":{"x":169965.24000000115,"y":2545589.6500000004}},{"attributes":{"ID":445344,"DIS_CODE":0,"TOWNNAME":"北區","LI":"長榮里","LIN":"5鄰","STREET":"長榮路","SECT":"五段","MAREA":" ","LANE":"４１巷","ALLEY":" ","HOUSE_NO":"２６號十樓之３","E_COORD97":169965.23999999999,"N_COORD97":2545589.6499999999,"ADDRESS":"長榮路五段４１巷２６號十樓之３","OBJECTID":445319},"geometry":{"x":169965.24000000115,"y":2545589.6500000004}},{"attributes":{"ID":445345,"DIS_CODE":0,"TOWNNAME":"東區","LI":"崇信里","LIN":"5鄰","STREET":"中華東路","SECT":"三段","MAREA":" ","LANE":"２４巷","ALLEY":" ","HOUSE_NO":"１０號","E_COORD97":170931.07000000001,"N_COORD97":2542383.7799999998,"ADDRESS":"中華東路三段２４巷１０號","OBJECTID":445320},"geometry":{"x":170931.07000000123,"y":2542383.7799999993}},{"attributes":{"ID":445346,"DIS_CODE":0,"TOWNNAME":"北區","LI":"長榮里","LIN":"5鄰","STREET":"長榮路","SECT":"五段","MAREA":" ","LANE":"４１巷","ALLEY":" ","HOUSE_NO":"２６號十樓之５","E_COORD97":169965.23999999999,"N_COORD97":2545589.6499999999,"ADDRESS":"長榮路五段４１巷２６號十樓之５","OBJECTID":445321},"geometry":{"x":169965.24000000115,"y":2545589.6500000004}},{"attributes":{"ID":445347,"DIS_CODE":0,"TOWNNAME":"北區","LI":"長榮里","LIN":"5鄰","STREET":"長榮路","SECT":"五段","MAREA":" ","LANE":"４１巷","ALLEY":" ","HOUSE_NO":"２６號十一樓之１","E_COORD97":169965.23999999999,"N_COORD97":2545589.6499999999,"ADDRESS":"長榮路五段４１巷２６號十一樓之１","OBJECTID":445322},"geometry":{"x":169965.24000000115,"y":2545589.6500000004}},{"attributes":{"ID":445348,"DIS_CODE":0,"TOWNNAME":"北區","LI":"長榮里","LIN":"5鄰","STREET":"長榮路","SECT":"五段","MAREA":" ","LANE":"４１巷","ALLEY":" ","HOUSE_NO":"２６號十一樓之２","E_COORD97":169965.23999999999,"N_COORD97":2545589.6499999999,"ADDRESS":"長榮路五段４１巷２６號十一樓之２","OBJECTID":445323},"geometry":{"x":169965.24000000115,"y":2545589.6500000004}},{"attributes":{"ID":445349,"DIS_CODE":0,"TOWNNAME":"北區","LI":"長榮里","LIN":"5鄰","STREET":"長榮路","SECT":"五段","MAREA":" ","LANE":"４１巷","ALLEY":" ","HOUSE_NO":"２６號十一樓之３","E_COORD97":169965.23999999999,"N_COORD97":2545589.6499999999,"ADDRESS":"長榮路五段４１巷２６號十一樓之３","OBJECTID":445324},"geometry":{"x":169965.24000000115,"y":2545589.6500000004}},{"attributes":{"ID":445350,"DIS_CODE":0,"TOWNNAME":"北區","LI":"長榮里","LIN":"5鄰","STREET":"長榮路","SECT":"五段","MAREA":" ","LANE":"４１巷","ALLEY":" ","HOUSE_NO":"２６號十一樓之５","E_COORD97":169965.23999999999,"N_COORD97":2545589.6499999999,"ADDRESS":"長榮路五段４１巷２６號十一樓之５","OBJECTID":445325},"geometry":{"x":169965.24000000115,"y":2545589.6500000004}},{"attributes":{"ID":445351,"DIS_CODE":0,"TOWNNAME":"北區","LI":"長榮里","LIN":"5鄰","STREET":"長榮路","SECT":"五段","MAREA":" ","LANE":"４１巷","ALLEY":" ","HOUSE_NO":"２６號十二樓之１","E_COORD97":169965.23999999999,"N_COORD97":2545589.6499999999,"ADDRESS":"長榮路五段４１巷２６號十二樓之１","OBJECTID":445326},"geometry":{"x":169965.24000000115,"y":2545589.6500000004}},{"attributes":{"ID":445352,"DIS_CODE":0,"TOWNNAME":"北區","LI":"長榮里","LIN":"5鄰","STREET":"長榮路","SECT":"五段","MAREA":" ","LANE":"４１巷","ALLEY":" ","HOUSE_NO":"２６號十二樓之２","E_COORD97":169965.23999999999,"N_COORD97":2545589.6499999999,"ADDRESS":"長榮路五段４１巷２６號十二樓之２","OBJECTID":445327},"geometry":{"x":169965.24000000115,"y":2545589.6500000004}},{"attributes":{"ID":445353,"DIS_CODE":0,"TOWNNAME":"安南區","LI":"原佃里","LIN":"5鄰","STREET":"本原街","SECT":"一段","MAREA":" ","LANE":"２３３巷","ALLEY":" ","HOUSE_NO":"７號","E_COORD97":167721.14999999999,"N_COORD97":2550294.9700000002,"ADDRESS":"本原街一段２３３巷７號","OBJECTID":445328},"geometry":{"x":167721.15000000224,"y":2550294.9700000025}},{"attributes":{"ID":445354,"DIS_CODE":0,"TOWNNAME":"北區","LI":"長榮里","LIN":"5鄰","STREET":"長榮路","SECT":"五段","MAREA":" ","LANE":"４１巷","ALLEY":" ","HOUSE_NO":"２６號十二樓之３","E_COORD97":169965.23999999999,"N_COORD97":2545589.6499999999,"ADDRESS":"長榮路五段４１巷２６號十二樓之３","OBJECTID":445329},"geometry":{"x":169965.24000000115,"y":2545589.6500000004}},{"attributes":{"ID":445355,"DIS_CODE":0,"TOWNNAME":"北區","LI":"長榮里","LIN":"5鄰","STREET":"長榮路","SECT":"五段","MAREA":" ","LANE":"４１巷","ALLEY":" ","HOUSE_NO":"２６號十二樓之５","E_COORD97":169965.23999999999,"N_COORD97":2545589.6499999999,"ADDRESS":"長榮路五段４１巷２６號十二樓之５","OBJECTID":445330},"geometry":{"x":169965.24000000115,"y":2545589.6500000004}},{"attributes":{"ID":445356,"DIS_CODE":0,"TOWNNAME":"北區","LI":"長榮里","LIN":"5鄰","STREET":"長榮路","SECT":"五段","MAREA":" ","LANE":"４１巷","ALLEY":" ","HOUSE_NO":"２６號十三樓之１","E_COORD97":169965.23999999999,"N_COORD97":2545589.6499999999,"ADDRESS":"長榮路五段４１巷２６號十三樓之１","OBJECTID":445331},"geometry":{"x":169965.24000000115,"y":2545589.6500000004}},{"attributes":{"ID":445357,"DIS_CODE":0,"TOWNNAME":"北區","LI":"長榮里","LIN":"5鄰","STREET":"長榮路","SECT":"五段","MAREA":" ","LANE":"４１巷","ALLEY":" ","HOUSE_NO":"２６號十三樓之２","E_COORD97":169965.23999999999,"N_COORD97":2545589.6499999999,"ADDRESS":"長榮路五段４１巷２６號十三樓之２","OBJECTID":445332},"geometry":{"x":169965.24000000115,"y":2545589.6500000004}},{"attributes":{"ID":445358,"DIS_CODE":0,"TOWNNAME":"北區","LI":"長榮里","LIN":"5鄰","STREET":"長榮路","SECT":"五段","MAREA":" ","LANE":"４１巷","ALLEY":" ","HOUSE_NO":"２６號十三樓之３","E_COORD97":169965.23999999999,"N_COORD97":2545589.6499999999,"ADDRESS":"長榮路五段４１巷２６號十三樓之３","OBJECTID":445333},"geometry":{"x":169965.24000000115,"y":2545589.6500000004}},{"attributes":{"ID":445359,"DIS_CODE":0,"TOWNNAME":"北區","LI":"長榮里","LIN":"5鄰","STREET":"長榮路","SECT":"五段","MAREA":" ","LANE":"４１巷","ALLEY":" ","HOUSE_NO":"２６號十三樓之５","E_COORD97":169965.23999999999,"N_COORD97":2545589.6499999999,"ADDRESS":"長榮路五段４１巷２６號十三樓之５","OBJECTID":445334},"geometry":{"x":169965.24000000115,"y":2545589.6500000004}},{"attributes":{"ID":445360,"DIS_CODE":0,"TOWNNAME":"北區","LI":"長榮里","LIN":"5鄰","STREET":"長榮路","SECT":"五段","MAREA":" ","LANE":"４１巷","ALLEY":" ","HOUSE_NO":"２６號十四樓之１","E_COORD97":169965.23999999999,"N_COORD97":2545589.6499999999,"ADDRESS":"長榮路五段４１巷２６號十四樓之１","OBJECTID":445335},"geometry":{"x":169965.24000000115,"y":2545589.6500000004}},{"attributes":{"ID":445361,"DIS_CODE":0,"TOWNNAME":"北區","LI":"長榮里","LIN":"5鄰","STREET":"長榮路","SECT":"五段","MAREA":" ","LANE":"４１巷","ALLEY":" ","HOUSE_NO":"２６號十四樓之２","E_COORD97":169965.23999999999,"N_COORD97":2545589.6499999999,"ADDRESS":"長榮路五段４１巷２６號十四樓之２","OBJECTID":445336},"geometry":{"x":169965.24000000115,"y":2545589.6500000004}},{"attributes":{"ID":445362,"DIS_CODE":0,"TOWNNAME":"北區","LI":"長榮里","LIN":"5鄰","STREET":"長榮路","SECT":"五段","MAREA":" ","LANE":"４１巷","ALLEY":" ","HOUSE_NO":"２６號十四樓之３","E_COORD97":169965.23999999999,"N_COORD97":2545589.6499999999,"ADDRESS":"長榮路五段４１巷２６號十四樓之３","OBJECTID":445337},"geometry":{"x":169965.24000000115,"y":2545589.6500000004}},{"attributes":{"ID":445363,"DIS_CODE":0,"TOWNNAME":"北區","LI":"長榮里","LIN":"5鄰","STREET":"長榮路","SECT":"五段","MAREA":" ","LANE":"４１巷","ALLEY":" ","HOUSE_NO":"２６號十四樓之５","E_COORD97":169965.23999999999,"N_COORD97":2545589.6499999999,"ADDRESS":"長榮路五段４１巷２６號十四樓之５","OBJECTID":445338},"geometry":{"x":169965.24000000115,"y":2545589.6500000004}},{"attributes":{"ID":445364,"DIS_CODE":0,"TOWNNAME":"歸仁區","LI":"文化里","LIN":"5鄰","STREET":"民權一街","SECT":" ","MAREA":" ","LANE":"３８巷","ALLEY":" ","HOUSE_NO":"１號六樓之６","E_COORD97":177304.39999999999,"N_COORD97":2541327.3399999999,"ADDRESS":"民權一街３８巷１號六樓之６","OBJECTID":445339},"geometry":{"x":177304.4000000013,"y":2541327.3400000017}},{"attributes":{"ID":445365,"DIS_CODE":0,"TOWNNAME":"六甲區","LI":"龍湖里","LIN":"5鄰","STREET":"中華路","SECT":" ","MAREA":" ","LANE":"２３１巷","ALLEY":" ","HOUSE_NO":"２號","E_COORD97":183059.70999999999,"N_COORD97":2569208.2200000002,"ADDRESS":"中華路２３１巷２號","OBJECTID":445340},"geometry":{"x":183059.70999999996,"y":2569208.2200000025}},{"attributes":{"ID":445366,"DIS_CODE":0,"TOWNNAME":"歸仁區","LI":"文化里","LIN":"5鄰","STREET":"民權一街","SECT":" ","MAREA":" ","LANE":"３８巷","ALLEY":" ","HOUSE_NO":"１號三樓之３","E_COORD97":177304.39999999999,"N_COORD97":2541327.3399999999,"ADDRESS":"民權一街３８巷１號三樓之３","OBJECTID":445341},"geometry":{"x":177304.4000000013,"y":2541327.3400000017}},{"attributes":{"ID":445367,"DIS_CODE":0,"TOWNNAME":"歸仁區","LI":"文化里","LIN":"5鄰","STREET":"民權一街","SECT":" ","MAREA":" ","LANE":"３８巷","ALLEY":" ","HOUSE_NO":"１號六樓之３","E_COORD97":177297.56,"N_COORD97":2541326.2599999998,"ADDRESS":"民權一街３８巷１號六樓之３","OBJECTID":445342},"geometry":{"x":177297.56000000052,"y":2541326.2599999998}},{"attributes":{"ID":445368,"DIS_CODE":0,"TOWNNAME":"安南區","LI":"總頭里","LIN":"5鄰","STREET":"長溪路","SECT":"二段","MAREA":" ","LANE":"５７０巷","ALLEY":" ","HOUSE_NO":"３２號","E_COORD97":168343.60999999999,"N_COORD97":2550584.9399999999,"ADDRESS":"長溪路二段５７０巷３２號","OBJECTID":445343},"geometry":{"x":168343.61000000127,"y":2550584.9400000013}},{"attributes":{"ID":445369,"DIS_CODE":0,"TOWNNAME":"安南區","LI":"總頭里","LIN":"5鄰","STREET":"長溪路","SECT":"二段","MAREA":" ","LANE":"５７０巷","ALLEY":" ","HOUSE_NO":"３８號","E_COORD97":168365.89999999999,"N_COORD97":2550575.4100000001,"ADDRESS":"長溪路二段５７０巷３８號","OBJECTID":445344},"geometry":{"x":168365.9000000013,"y":2550575.4100000039}},{"attributes":{"ID":445370,"DIS_CODE":0,"TOWNNAME":"安南區","LI":"總頭里","LIN":"5鄰","STREET":"長溪路","SECT":"二段","MAREA":" ","LANE":"５７０巷","ALLEY":" ","HOUSE_NO":"４６號","E_COORD97":168376.73000000001,"N_COORD97":2550575.0899999999,"ADDRESS":"長溪路二段５７０巷４６號","OBJECTID":445345},"geometry":{"x":168376.73000000231,"y":2550575.0900000017}},{"attributes":{"ID":445371,"DIS_CODE":0,"TOWNNAME":"安南區","LI":"總頭里","LIN":"5鄰","STREET":"長溪路","SECT":"二段","MAREA":" ","LANE":"５７０巷","ALLEY":" ","HOUSE_NO":"４２號","E_COORD97":168357.94,"N_COORD97":2550558.2400000002,"ADDRESS":"長溪路二段５７０巷４２號","OBJECTID":445346},"geometry":{"x":168357.94000000041,"y":2550558.2400000002}},{"attributes":{"ID":445372,"DIS_CODE":0,"TOWNNAME":"安南區","LI":"城西里","LIN":"5鄰","STREET":"城西街","SECT":"三段","MAREA":" ","LANE":"５８４巷","ALLEY":" ","HOUSE_NO":"４０號之５","E_COORD97":156980.42999999999,"N_COORD97":2550913.0600000001,"ADDRESS":"城西街三段５８４巷４０號之５","OBJECTID":445347},"geometry":{"x":156980.4299999997,"y":2550913.0600000005}},{"attributes":{"ID":445373,"DIS_CODE":0,"TOWNNAME":"安南區","LI":"州南里","LIN":"5鄰","STREET":"安和路","SECT":"四段","MAREA":" ","LANE":"５３７巷","ALLEY":" ","HOUSE_NO":"４０號","E_COORD97":169897.51999999999,"N_COORD97":2551372.0499999998,"ADDRESS":"安和路四段５３７巷４０號","OBJECTID":445348},"geometry":{"x":169897.51999999955,"y":2551372.0500000026}},{"attributes":{"ID":445374,"DIS_CODE":0,"TOWNNAME":"安南區","LI":"城北里","LIN":"5鄰","STREET":"安中路","SECT":"六段","MAREA":" ","LANE":"５５４巷","ALLEY":" ","HOUSE_NO":"６９號","E_COORD97":161063.95000000001,"N_COORD97":2551466.8599999999,"ADDRESS":"安中路六段５５４巷６９號","OBJECTID":445349},"geometry":{"x":161063.95000000112,"y":2551466.8600000013}},{"attributes":{"ID":445375,"DIS_CODE":0,"TOWNNAME":"安南區","LI":"城北里","LIN":"5鄰","STREET":"安中路","SECT":"六段","MAREA":" ","LANE":"５５４巷","ALLEY":" ","HOUSE_NO":"７１號","E_COORD97":161069.51999999999,"N_COORD97":2551467.77,"ADDRESS":"安中路六段５５４巷７１號","OBJECTID":445350},"geometry":{"x":161069.52000000048,"y":2551467.7700000014}},{"attributes":{"ID":445376,"DIS_CODE":0,"TOWNNAME":"安南區","LI":"城北里","LIN":"5鄰","STREET":"安中路","SECT":"六段","MAREA":" ","LANE":"５５４巷","ALLEY":" ","HOUSE_NO":"７３號","E_COORD97":161075.10000000001,"N_COORD97":2551469.1200000001,"ADDRESS":"安中路六段５５４巷７３號","OBJECTID":445351},"geometry":{"x":161075.09999999963,"y":2551469.120000001}},{"attributes":{"ID":445377,"DIS_CODE":0,"TOWNNAME":"安南區","LI":"原佃里","LIN":"5鄰","STREET":"本原街","SECT":"一段","MAREA":" ","LANE":"２３３巷","ALLEY":" ","HOUSE_NO":"６號","E_COORD97":167721.69,"N_COORD97":2550315.4700000002,"ADDRESS":"本原街一段２３３巷６號","OBJECTID":445352},"geometry":{"x":167721.69000000134,"y":2550315.4700000025}},{"attributes":{"ID":445378,"DIS_CODE":0,"TOWNNAME":"安南區","LI":"原佃里","LIN":"5鄰","STREET":"本原街","SECT":"一段","MAREA":" ","LANE":"２３３巷","ALLEY":" ","HOUSE_NO":"１０號","E_COORD97":167712.28,"N_COORD97":2550313.7599999998,"ADDRESS":"本原街一段２３３巷１０號","OBJECTID":445353},"geometry":{"x":167712.28000000119,"y":2550313.7599999998}},{"attributes":{"ID":445379,"DIS_CODE":0,"TOWNNAME":"安南區","LI":"原佃里","LIN":"5鄰","STREET":"本原街","SECT":"一段","MAREA":" ","LANE":"２３３巷","ALLEY":" ","HOUSE_NO":"１１號","E_COORD97":167711.95999999999,"N_COORD97":2550292.7200000002,"ADDRESS":"本原街一段２３３巷１１號","OBJECTID":445354},"geometry":{"x":167711.96000000089,"y":2550292.7200000025}},{"attributes":{"ID":445380,"DIS_CODE":0,"TOWNNAME":"安南區","LI":"原佃里","LIN":"5鄰","STREET":"本原街","SECT":"一段","MAREA":" ","LANE":"２３３巷","ALLEY":" ","HOUSE_NO":"１２號","E_COORD97":167707.26000000001,"N_COORD97":2550312.7999999998,"ADDRESS":"本原街一段２３３巷１２號","OBJECTID":445355},"geometry":{"x":167707.25999999978,"y":2550312.8000000026}},{"attributes":{"ID":445381,"DIS_CODE":0,"TOWNNAME":"安南區","LI":"原佃里","LIN":"5鄰","STREET":"本原街","SECT":"一段","MAREA":" ","LANE":"２３３巷","ALLEY":" ","HOUSE_NO":"１號","E_COORD97":167735.16,"N_COORD97":2550298.4900000002,"ADDRESS":"本原街一段２３３巷１號","OBJECTID":445356},"geometry":{"x":167735.16000000108,"y":2550298.4900000002}},{"attributes":{"ID":445382,"DIS_CODE":0,"TOWNNAME":"安南區","LI":"原佃里","LIN":"5鄰","STREET":"本原街","SECT":"一段","MAREA":" ","LANE":"２３３巷","ALLEY":" ","HOUSE_NO":"２號","E_COORD97":167730.78,"N_COORD97":2550318.0299999998,"ADDRESS":"本原街一段２３３巷２號","OBJECTID":445357},"geometry":{"x":167730.78000000119,"y":2550318.0299999993}},{"attributes":{"ID":445383,"DIS_CODE":0,"TOWNNAME":"安南區","LI":"原佃里","LIN":"5鄰","STREET":"本原街","SECT":"一段","MAREA":" ","LANE":"２３３巷","ALLEY":" ","HOUSE_NO":"３號","E_COORD97":167730.78,"N_COORD97":2550297.4199999999,"ADDRESS":"本原街一段２３３巷３號","OBJECTID":445358},"geometry":{"x":167730.78000000119,"y":2550297.4200000018}},{"attributes":{"ID":445384,"DIS_CODE":0,"TOWNNAME":"安南區","LI":"原佃里","LIN":"5鄰","STREET":"本原街","SECT":"一段","MAREA":" ","LANE":"２３３巷","ALLEY":" ","HOUSE_NO":"８號","E_COORD97":167716.56,"N_COORD97":2550314.6099999999,"ADDRESS":"本原街一段２３３巷８號","OBJECTID":445359},"geometry":{"x":167716.56000000052,"y":2550314.6099999994}},{"attributes":{"ID":445385,"DIS_CODE":0,"TOWNNAME":"安南區","LI":"原佃里","LIN":"5鄰","STREET":"本原街","SECT":"一段","MAREA":" ","LANE":"２３３巷","ALLEY":" ","HOUSE_NO":"９號","E_COORD97":167716.56,"N_COORD97":2550293.8999999999,"ADDRESS":"本原街一段２３３巷９號","OBJECTID":445360},"geometry":{"x":167716.56000000052,"y":2550293.8999999985}},{"attributes":{"ID":445386,"DIS_CODE":0,"TOWNNAME":"安南區","LI":"溪心里","LIN":"5鄰","STREET":"本原街","SECT":"二段","MAREA":" ","LANE":"１０６巷","ALLEY":" ","HOUSE_NO":"２號","E_COORD97":166821.04999999999,"N_COORD97":2550774.7200000002,"ADDRESS":"本原街二段１０６巷２號","OBJECTID":445361},"geometry":{"x":166821.05000000168,"y":2550774.7200000025}},{"attributes":{"ID":445387,"DIS_CODE":0,"TOWNNAME":"安南區","LI":"原佃里","LIN":"5鄰","STREET":"本原街","SECT":"一段","MAREA":" ","LANE":"２８７巷","ALLEY":" ","HOUSE_NO":"１１號","E_COORD97":167695.95999999999,"N_COORD97":2550403.0299999998,"ADDRESS":"本原街一段２８７巷１１號","OBJECTID":445362},"geometry":{"x":167695.95999999996,"y":2550403.0299999993}},{"attributes":{"ID":445388,"DIS_CODE":0,"TOWNNAME":"中西區","LI":"普濟里","LIN":"5鄰","STREET":"海安路","SECT":"二段","MAREA":" ","LANE":"３０２巷","ALLEY":" ","HOUSE_NO":"２２號","E_COORD97":167820.35999999999,"N_COORD97":2544348.3199999998,"ADDRESS":"海安路二段３０２巷２２號","OBJECTID":445363},"geometry":{"x":167820.36000000127,"y":2544348.3200000022}},{"attributes":{"ID":445389,"DIS_CODE":0,"TOWNNAME":"新營區","LI":"太北里","LIN":"17鄰","STREET":" ","SECT":" ","MAREA":"太子宮","LANE":" ","ALLEY":" ","HOUSE_NO":"１４７之３２號","E_COORD97":175354.47005999999,"N_COORD97":2577135.5913800001,"ADDRESS":"太子宮１４７之３２號","OBJECTID":445364},"geometry":{"x":175354.47006000113,"y":2577135.5913800001}},{"attributes":{"ID":445390,"DIS_CODE":0,"TOWNNAME":"中西區","LI":"水仙里","LIN":"5鄰","STREET":"西門路","SECT":"二段","MAREA":" ","LANE":"２２５巷","ALLEY":" ","HOUSE_NO":"３８號","E_COORD97":167838.66,"N_COORD97":2543995.3500000001,"ADDRESS":"西門路二段２２５巷３８號","OBJECTID":445365},"geometry":{"x":167838.66000000015,"y":2543995.3500000015}},{"attributes":{"ID":445391,"DIS_CODE":0,"TOWNNAME":"中西區","LI":"水仙里","LIN":"5鄰","STREET":"西門路","SECT":"二段","MAREA":" ","LANE":"２２５巷","ALLEY":" ","HOUSE_NO":"４０號","E_COORD97":167834.70000000001,"N_COORD97":2543997.9900000002,"ADDRESS":"西門路二段２２５巷４０號","OBJECTID":445366},"geometry":{"x":167834.70000000112,"y":2543997.9900000021}},{"attributes":{"ID":445392,"DIS_CODE":0,"TOWNNAME":"中西區","LI":"水仙里","LIN":"5鄰","STREET":"西門路","SECT":"二段","MAREA":" ","LANE":"２２５巷","ALLEY":" ","HOUSE_NO":"４２號","E_COORD97":167829.13,"N_COORD97":2543999.4199999999,"ADDRESS":"西門路二段２２５巷４２號","OBJECTID":445367},"geometry":{"x":167829.13000000175,"y":2543999.4199999999}},{"attributes":{"ID":445393,"DIS_CODE":0,"TOWNNAME":"中西區","LI":"水仙里","LIN":"5鄰","STREET":"西門路","SECT":"二段","MAREA":" ","LANE":"２２５巷","ALLEY":" ","HOUSE_NO":"４４號","E_COORD97":167822.14000000001,"N_COORD97":2544000.4100000001,"ADDRESS":"西門路二段２２５巷４４號","OBJECTID":445368},"geometry":{"x":167822.14000000153,"y":2544000.4100000001}},{"attributes":{"ID":445394,"DIS_CODE":0,"TOWNNAME":"中西區","LI":"水仙里","LIN":"5鄰","STREET":"西門路","SECT":"二段","MAREA":" ","LANE":"２２５巷","ALLEY":" ","HOUSE_NO":"４６號","E_COORD97":167815.75,"N_COORD97":2544004.1499999999,"ADDRESS":"西門路二段２２５巷４６號","OBJECTID":445369},"geometry":{"x":167815.75000000093,"y":2544004.1500000022}},{"attributes":{"ID":445395,"DIS_CODE":0,"TOWNNAME":"中西區","LI":"水仙里","LIN":"5鄰","STREET":"西門路","SECT":"二段","MAREA":" ","LANE":"２２５巷","ALLEY":" ","HOUSE_NO":"４８號","E_COORD97":167811.35000000001,"N_COORD97":2544007.0099999998,"ADDRESS":"西門路二段２２５巷４８號","OBJECTID":445370},"geometry":{"x":167811.34999999963,"y":2544007.0100000035}},{"attributes":{"ID":445396,"DIS_CODE":0,"TOWNNAME":"中西區","LI":"水仙里","LIN":"5鄰","STREET":"西門路","SECT":"二段","MAREA":" ","LANE":"２２５巷","ALLEY":" ","HOUSE_NO":"５０號","E_COORD97":167807.60000000001,"N_COORD97":2544009.2200000002,"ADDRESS":"西門路二段２２５巷５０號","OBJECTID":445371},"geometry":{"x":167807.60000000056,"y":2544009.2200000007}},{"attributes":{"ID":445397,"DIS_CODE":0,"TOWNNAME":"中西區","LI":"水仙里","LIN":"5鄰","STREET":"西門路","SECT":"二段","MAREA":" ","LANE":"２２５巷","ALLEY":" ","HOUSE_NO":"１２號","E_COORD97":167887.57000000001,"N_COORD97":2543981.48,"ADDRESS":"西門路二段２２５巷１２號","OBJECTID":445372},"geometry":{"x":167887.56999999937,"y":2543981.4800000023}},{"attributes":{"ID":445398,"DIS_CODE":0,"TOWNNAME":"中西區","LI":"水仙里","LIN":"5鄰","STREET":"西門路","SECT":"二段","MAREA":" ","LANE":"２２５巷","ALLEY":" ","HOUSE_NO":"１４號","E_COORD97":167883.17000000001,"N_COORD97":2543985,"ADDRESS":"西門路二段２２５巷１４號","OBJECTID":445373},"geometry":{"x":167883.17000000179,"y":2543985.0000000019}},{"attributes":{"ID":445399,"DIS_CODE":0,"TOWNNAME":"中西區","LI":"水仙里","LIN":"5鄰","STREET":"西門路","SECT":"二段","MAREA":" ","LANE":"２２５巷","ALLEY":" ","HOUSE_NO":"１６號","E_COORD97":167877.44,"N_COORD97":2543985.4399999999,"ADDRESS":"西門路二段２２５巷１６號","OBJECTID":445374},"geometry":{"x":167877.44000000134,"y":2543985.4399999995}},{"attributes":{"ID":445400,"DIS_CODE":0,"TOWNNAME":"中西區","LI":"水仙里","LIN":"5鄰","STREET":"西門路","SECT":"二段","MAREA":" ","LANE":"２２５巷","ALLEY":" ","HOUSE_NO":"１８號","E_COORD97":167871.70999999999,"N_COORD97":2543987.4199999999,"ADDRESS":"西門路二段２２５巷１８號","OBJECTID":445375},"geometry":{"x":167871.71000000089,"y":2543987.4200000037}},{"attributes":{"ID":445401,"DIS_CODE":0,"TOWNNAME":"中西區","LI":"水仙里","LIN":"5鄰","STREET":"西門路","SECT":"二段","MAREA":" ","LANE":"２２５巷","ALLEY":" ","HOUSE_NO":"２０號","E_COORD97":167864.44,"N_COORD97":2543989.3100000001,"ADDRESS":"西門路二段２２５巷２０號","OBJECTID":445376},"geometry":{"x":167864.44000000041,"y":2543989.3100000024}},{"attributes":{"ID":445402,"DIS_CODE":0,"TOWNNAME":"中西區","LI":"水仙里","LIN":"5鄰","STREET":"西門路","SECT":"二段","MAREA":" ","LANE":"２２５巷","ALLEY":" ","HOUSE_NO":"２２號","E_COORD97":167864.88,"N_COORD97":2544002.2999999998,"ADDRESS":"西門路二段２２５巷２２號","OBJECTID":445377},"geometry":{"x":167864.88000000175,"y":2544002.3000000007}},{"attributes":{"ID":445403,"DIS_CODE":0,"TOWNNAME":"中西區","LI":"水仙里","LIN":"5鄰","STREET":"西門路","SECT":"二段","MAREA":" ","LANE":"２２５巷","ALLEY":" ","HOUSE_NO":"２４號","E_COORD97":167867.09,"N_COORD97":2544009.79,"ADDRESS":"西門路二段２２５巷２４號","OBJECTID":445378},"geometry":{"x":167867.09000000078,"y":2544009.7899999991}},{"attributes":{"ID":445404,"DIS_CODE":0,"TOWNNAME":"中西區","LI":"水仙里","LIN":"5鄰","STREET":"西門路","SECT":"二段","MAREA":" ","LANE":"２２５巷","ALLEY":" ","HOUSE_NO":"２６號","E_COORD97":167869.07000000001,"N_COORD97":2544017.27,"ADDRESS":"西門路二段２２５巷２６號","OBJECTID":445379},"geometry":{"x":167869.07000000216,"y":2544017.2699999996}},{"attributes":{"ID":445405,"DIS_CODE":0,"TOWNNAME":"中西區","LI":"水仙里","LIN":"5鄰","STREET":"西門路","SECT":"二段","MAREA":" ","LANE":"２２５巷","ALLEY":" ","HOUSE_NO":"２８號","E_COORD97":167870.17000000001,"N_COORD97":2544030.04,"ADDRESS":"西門路二段２２５巷２８號","OBJECTID":445380},"geometry":{"x":167870.17000000086,"y":2544030.0400000028}},{"attributes":{"ID":445406,"DIS_CODE":0,"TOWNNAME":"中西區","LI":"水仙里","LIN":"5鄰","STREET":"西門路","SECT":"二段","MAREA":" ","LANE":"２２５巷","ALLEY":" ","HOUSE_NO":"３０號","E_COORD97":167856.51000000001,"N_COORD97":2543991.8199999998,"ADDRESS":"西門路二段２２５巷３０號","OBJECTID":445381},"geometry":{"x":167856.50999999978,"y":2543991.820000004}},{"attributes":{"ID":445407,"DIS_CODE":0,"TOWNNAME":"中西區","LI":"水仙里","LIN":"5鄰","STREET":"西門路","SECT":"二段","MAREA":" ","LANE":"２２５巷","ALLEY":" ","HOUSE_NO":"４號","E_COORD97":167881.41,"N_COORD97":2544017.0499999998,"ADDRESS":"西門路二段２２５巷４號","OBJECTID":445382},"geometry":{"x":167881.41000000015,"y":2544017.0500000007}},{"attributes":{"ID":445408,"DIS_CODE":0,"TOWNNAME":"新營區","LI":"新北里","LIN":"1鄰","STREET":"周武街","SECT":" ","MAREA":" ","LANE":" ","ALLEY":" ","HOUSE_NO":"３號","E_COORD97":179402.51000000001,"N_COORD97":2578819.1800000002,"ADDRESS":"周武街３號","OBJECTID":445383},"geometry":{"x":179402.50999999978,"y":2578819.1800000016}},{"attributes":{"ID":445409,"DIS_CODE":0,"TOWNNAME":"下營區","LI":"仁里里","LIN":"5鄰","STREET":"仁南街","SECT":" ","MAREA":" ","LANE":"２１巷","ALLEY":" ","HOUSE_NO":"１２號","E_COORD97":174585.51000000001,"N_COORD97":2569619.5,"ADDRESS":"仁南街２１巷１２號","OBJECTID":445384},"geometry":{"x":174585.51000000071,"y":2569619.5000000019}},{"attributes":{"ID":445410,"DIS_CODE":0,"TOWNNAME":"下營區","LI":"仁里里","LIN":"5鄰","STREET":"仁南街","SECT":" ","MAREA":" ","LANE":"２１巷","ALLEY":" ","HOUSE_NO":"２號","E_COORD97":174593.09,"N_COORD97":2569647.1200000001,"ADDRESS":"仁南街２１巷２號","OBJECTID":445385},"geometry":{"x":174593.08999999985,"y":2569647.1200000029}},{"attributes":{"ID":445411,"DIS_CODE":0,"TOWNNAME":"下營區","LI":"仁里里","LIN":"5鄰","STREET":"仁南街","SECT":" ","MAREA":" ","LANE":"２１巷","ALLEY":" ","HOUSE_NO":"８號","E_COORD97":174559.91,"N_COORD97":2569652.1299999999,"ADDRESS":"仁南街２１巷８號","OBJECTID":445386},"geometry":{"x":174559.91000000108,"y":2569652.129999999}},{"attributes":{"ID":445412,"DIS_CODE":0,"TOWNNAME":"永康區","LI":"北灣里","LIN":"5鄰","STREET":"信義街","SECT":" ","MAREA":" ","LANE":"１２９巷","ALLEY":" ","HOUSE_NO":"８號","E_COORD97":175166.47,"N_COORD97":2545575.4700000002,"ADDRESS":"信義街１２９巷８號","OBJECTID":445387},"geometry":{"x":175166.46999999974,"y":2545575.4700000025}},{"attributes":{"ID":445413,"DIS_CODE":0,"TOWNNAME":"永康區","LI":"復國里","LIN":"5鄰","STREET":"復國一路","SECT":" ","MAREA":" ","LANE":"９０巷","ALLEY":" ","HOUSE_NO":"２５號","E_COORD97":172758.66,"N_COORD97":2544967.7799999998,"ADDRESS":"復國一路９０巷２５號","OBJECTID":445388},"geometry":{"x":172758.66000000015,"y":2544967.7800000031}},{"attributes":{"ID":445414,"DIS_CODE":0,"TOWNNAME":"永康區","LI":"勝利里","LIN":"5鄰","STREET":"勝學路","SECT":" ","MAREA":" ","LANE":"６１巷","ALLEY":" ","HOUSE_NO":"１０號","E_COORD97":171116.94,"N_COORD97":2544748.7599999998,"ADDRESS":"勝學路６１巷１０號","OBJECTID":445389},"geometry":{"x":171116.94000000134,"y":2544748.7600000016}},{"attributes":{"ID":445415,"DIS_CODE":0,"TOWNNAME":"永康區","LI":"崑山里","LIN":"5鄰","STREET":"崑大路","SECT":" ","MAREA":" ","LANE":"１５５巷","ALLEY":" ","HOUSE_NO":"３號","E_COORD97":173612.92999999999,"N_COORD97":2544255.9100000001,"ADDRESS":"崑大路１５５巷３號","OBJECTID":445390},"geometry":{"x":173612.93000000063,"y":2544255.910000002}},{"attributes":{"ID":445416,"DIS_CODE":0,"TOWNNAME":"永康區","LI":"埔園里","LIN":"5鄰","STREET":"中山路","SECT":" ","MAREA":" ","LANE":"１５８巷","ALLEY":" ","HOUSE_NO":"２８號","E_COORD97":173868.39999999999,"N_COORD97":2547835.7400000002,"ADDRESS":"中山路１５８巷２８號","OBJECTID":445391},"geometry":{"x":173868.4000000013,"y":2547835.7400000002}},{"attributes":{"ID":445417,"DIS_CODE":0,"TOWNNAME":"永康區","LI":"復國里","LIN":"5鄰","STREET":"復國一路","SECT":" ","MAREA":" ","LANE":"９０巷","ALLEY":" ","HOUSE_NO":"１４號","E_COORD97":172760.98000000001,"N_COORD97":2544891.7799999998,"ADDRESS":"復國一路９０巷１４號","OBJECTID":445392},"geometry":{"x":172760.98000000138,"y":2544891.7799999993}},{"attributes":{"ID":445418,"DIS_CODE":0,"TOWNNAME":"永康區","LI":"網寮里","LIN":"5鄰","STREET":"永二街","SECT":" ","MAREA":" ","LANE":"１４５巷","ALLEY":" ","HOUSE_NO":"９號","E_COORD97":173542.76999999999,"N_COORD97":2546425.2200000002,"ADDRESS":"永二街１４５巷９號","OBJECTID":445393},"geometry":{"x":173542.77000000048,"y":2546425.2200000025}},{"attributes":{"ID":445419,"DIS_CODE":0,"TOWNNAME":"永康區","LI":"網寮里","LIN":"5鄰","STREET":"永二街","SECT":" ","MAREA":" ","LANE":"１４５巷","ALLEY":" ","HOUSE_NO":"４號","E_COORD97":173527.97,"N_COORD97":2546418.2799999998,"ADDRESS":"永二街１４５巷４號","OBJECTID":445394},"geometry":{"x":173527.97000000067,"y":2546418.2799999993}},{"attributes":{"ID":445420,"DIS_CODE":0,"TOWNNAME":"永康區","LI":"復國里","LIN":"5鄰","STREET":"復國一路","SECT":" ","MAREA":" ","LANE":"９０巷","ALLEY":" ","HOUSE_NO":"１９號","E_COORD97":172748.72,"N_COORD97":2544977.2799999998,"ADDRESS":"復國一路９０巷１９號","OBJECTID":445395},"geometry":{"x":172748.71999999974,"y":2544977.2799999993}},{"attributes":{"ID":445421,"DIS_CODE":0,"TOWNNAME":"東區","LI":"崇德里","LIN":"5鄰","STREET":"崇善路","SECT":" ","MAREA":" ","LANE":"２３２巷","ALLEY":" ","HOUSE_NO":"２０號","E_COORD97":170696.41,"N_COORD97":2541947.3300000001,"ADDRESS":"崇善路２３２巷２０號","OBJECTID":445396},"geometry":{"x":170696.41000000108,"y":2541947.3300000038}},{"attributes":{"ID":445422,"DIS_CODE":0,"TOWNNAME":"東區","LI":"崇德里","LIN":"5鄰","STREET":"崇善路","SECT":" ","MAREA":" ","LANE":"２３２巷","ALLEY":" ","HOUSE_NO":"２４號","E_COORD97":170690.82000000001,"N_COORD97":2541941.75,"ADDRESS":"崇善路２３２巷２４號","OBJECTID":445397},"geometry":{"x":170690.8200000003,"y":2541941.7500000019}},{"attributes":{"ID":445423,"DIS_CODE":0,"TOWNNAME":"東區","LI":"崇德里","LIN":"5鄰","STREET":"崇善路","SECT":" ","MAREA":" ","LANE":"２３２巷","ALLEY":" ","HOUSE_NO":"２８號","E_COORD97":170684.79000000001,"N_COORD97":2541936.2599999998,"ADDRESS":"崇善路２３２巷２８號","OBJECTID":445398},"geometry":{"x":170684.7900000019,"y":2541936.2599999998}},{"attributes":{"ID":445424,"DIS_CODE":0,"TOWNNAME":"東區","LI":"崇德里","LIN":"5鄰","STREET":"崇善路","SECT":" ","MAREA":" ","LANE":"２３２巷","ALLEY":" ","HOUSE_NO":"３０號","E_COORD97":170680.45000000001,"N_COORD97":2541933.3300000001,"ADDRESS":"崇善路２３２巷３０號","OBJECTID":445399},"geometry":{"x":170680.45000000205,"y":2541933.3300000001}},{"attributes":{"ID":445425,"DIS_CODE":0,"TOWNNAME":"東區","LI":"崇德里","LIN":"5鄰","STREET":"崇善路","SECT":" ","MAREA":" ","LANE":"２３２巷","ALLEY":" ","HOUSE_NO":"３２號","E_COORD97":170678.41,"N_COORD97":2541930.5,"ADDRESS":"崇善路２３２巷３２號","OBJECTID":445400},"geometry":{"x":170678.41000000015,"y":2541930.5000000019}}]}