{"displayFieldName":"TOWNNAME","fieldAliases":{"ID":"ID","DIS_CODE":"DIS_CODE","TOWNNAME":"TOWNNAME","LI":"LI","LIN":"LIN","STREET":"STREET","SECT":"SECT","MAREA":"MAREA","LANE":"LANE","ALLEY":"ALLEY","HOUSE_NO":"HOUSE_NO","E_COORD97":"E_COORD97","N_COORD97":"N_COORD97","ADDRESS":"ADDRESS","OBJECTID":"OBJECTID"},"geometryType":"esriGeometryPoint","spatialReference":{"wkid":102443,"latestWkid":3826},"fields":[{"name":"ID","type":"esriFieldTypeDouble","alias":"ID"},{"name":"DIS_CODE","type":"esriFieldTypeInteger","alias":"DIS_CODE"},{"name":"TOWNNAME","type":"esriFieldTypeString","alias":"TOWNNAME","length":8},{"name":"LI","type":"esriFieldTypeString","alias":"LI","length":8},{"name":"LIN","type":"esriFieldTypeString","alias":"LIN","length":12},{"name":"STREET","type":"esriFieldTypeString","alias":"STREET","length":20},{"name":"SECT","type":"esriFieldTypeString","alias":"SECT","length":8},{"name":"MAREA","type":"esriFieldTypeString","alias":"MAREA","length":12},{"name":"LANE","type":"esriFieldTypeString","alias":"LANE","length":10},{"name":"ALLEY","type":"esriFieldTypeString","alias":"ALLEY","length":10},{"name":"HOUSE_NO","type":"esriFieldTypeString","alias":"HOUSE_NO","length":20},{"name":"E_COORD97","type":"esriFieldTypeDouble","alias":"E_COORD97"},{"name":"N_COORD97","type":"esriFieldTypeDouble","alias":"N_COORD97"},{"name":"ADDRESS","type":"esriFieldTypeString","alias":"ADDRESS","length":50},{"name":"OBJECTID","type":"esriFieldTypeOID","alias":"OBJECTID"}],"features":[{"attributes":{"ID":235405,"DIS_CODE":0,"TOWNNAME":"北區","LI":"大豐里","LIN":"13鄰","STREET":"和緯路","SECT":"四段","MAREA":" ","LANE":"１３９巷","ALLEY":" ","HOUSE_NO":"５１號","E_COORD97":167030.38,"N_COORD97":2545332.5800000001,"ADDRESS":"和緯路四段１３９巷５１號","OBJECTID":235401},"geometry":{"x":167030.37999999989,"y":2545332.5800000038}},{"attributes":{"ID":235406,"DIS_CODE":0,"TOWNNAME":"北區","LI":"大豐里","LIN":"13鄰","STREET":"和緯路","SECT":"四段","MAREA":" ","LANE":"１３９巷","ALLEY":" ","HOUSE_NO":"５２號","E_COORD97":167007.25,"N_COORD97":2545330.9300000002,"ADDRESS":"和緯路四段１３９巷５２號","OBJECTID":235402},"geometry":{"x":167007.25,"y":2545330.9300000016}},{"attributes":{"ID":235407,"DIS_CODE":0,"TOWNNAME":"北區","LI":"大豐里","LIN":"13鄰","STREET":"和緯路","SECT":"四段","MAREA":" ","LANE":"１３９巷","ALLEY":" ","HOUSE_NO":"５３號","E_COORD97":167029.95000000001,"N_COORD97":2545327.96,"ADDRESS":"和緯路四段１３９巷５３號","OBJECTID":235403},"geometry":{"x":167029.95000000019,"y":2545327.9600000028}},{"attributes":{"ID":235408,"DIS_CODE":0,"TOWNNAME":"北區","LI":"大豐里","LIN":"13鄰","STREET":"和緯路","SECT":"四段","MAREA":" ","LANE":"１３９巷","ALLEY":" ","HOUSE_NO":"５４號","E_COORD97":167006.39999999999,"N_COORD97":2545326.8799999999,"ADDRESS":"和緯路四段１３９巷５４號","OBJECTID":235404},"geometry":{"x":167006.4000000013,"y":2545326.8800000008}},{"attributes":{"ID":235409,"DIS_CODE":0,"TOWNNAME":"北區","LI":"大豐里","LIN":"13鄰","STREET":"和緯路","SECT":"四段","MAREA":" ","LANE":"１３９巷","ALLEY":" ","HOUSE_NO":"５５號","E_COORD97":167028.89000000001,"N_COORD97":2545324.48,"ADDRESS":"和緯路四段１３９巷５５號","OBJECTID":235405},"geometry":{"x":167028.89000000153,"y":2545324.4800000023}},{"attributes":{"ID":235410,"DIS_CODE":0,"TOWNNAME":"安南區","LI":"海南里","LIN":"16鄰","STREET":"府安路","SECT":"七段","MAREA":" ","LANE":"１０２巷","ALLEY":" ","HOUSE_NO":"３１號之１","E_COORD97":165677.82000000001,"N_COORD97":2545921.29,"ADDRESS":"府安路七段１０２巷３１號之１","OBJECTID":235406},"geometry":{"x":165677.82000000123,"y":2545921.290000001}},{"attributes":{"ID":235411,"DIS_CODE":0,"TOWNNAME":"安南區","LI":"安順里","LIN":"16鄰","STREET":"總安街","SECT":"一段","MAREA":" ","LANE":"１１０巷","ALLEY":" ","HOUSE_NO":"１０１號","E_COORD97":169765.37,"N_COORD97":2550406.0800000001,"ADDRESS":"總安街一段１１０巷１０１號","OBJECTID":235407},"geometry":{"x":169765.37000000197,"y":2550406.0800000019}},{"attributes":{"ID":235412,"DIS_CODE":0,"TOWNNAME":"安南區","LI":"安順里","LIN":"16鄰","STREET":"總安街","SECT":"一段","MAREA":" ","LANE":"１１０巷","ALLEY":" ","HOUSE_NO":"１０２號","E_COORD97":169795.54999999999,"N_COORD97":2550405.8799999999,"ADDRESS":"總安街一段１１０巷１０２號","OBJECTID":235408},"geometry":{"x":169795.54999999981,"y":2550405.8800000008}},{"attributes":{"ID":235413,"DIS_CODE":0,"TOWNNAME":"安南區","LI":"安順里","LIN":"16鄰","STREET":"總安街","SECT":"一段","MAREA":" ","LANE":"１１０巷","ALLEY":" ","HOUSE_NO":"１０３號","E_COORD97":169765.67000000001,"N_COORD97":2550410.21,"ADDRESS":"總安街一段１１０巷１０３號","OBJECTID":235409},"geometry":{"x":169765.67000000086,"y":2550410.2100000009}},{"attributes":{"ID":235414,"DIS_CODE":0,"TOWNNAME":"安南區","LI":"安順里","LIN":"16鄰","STREET":"總安街","SECT":"一段","MAREA":" ","LANE":"１１０巷","ALLEY":" ","HOUSE_NO":"１０５號","E_COORD97":169765.67000000001,"N_COORD97":2550413.9500000002,"ADDRESS":"總安街一段１１０巷１０５號","OBJECTID":235410},"geometry":{"x":169765.67000000086,"y":2550413.9499999993}},{"attributes":{"ID":235415,"DIS_CODE":0,"TOWNNAME":"安南區","LI":"安順里","LIN":"16鄰","STREET":"總安街","SECT":"一段","MAREA":" ","LANE":"１１０巷","ALLEY":" ","HOUSE_NO":"７３號","E_COORD97":169730.85999999999,"N_COORD97":2550323.5899999999,"ADDRESS":"總安街一段１１０巷７３號","OBJECTID":235411},"geometry":{"x":169730.86000000127,"y":2550323.5900000017}},{"attributes":{"ID":235416,"DIS_CODE":0,"TOWNNAME":"安南區","LI":"安順里","LIN":"16鄰","STREET":"總安街","SECT":"一段","MAREA":" ","LANE":"１１０巷","ALLEY":" ","HOUSE_NO":"７５號","E_COORD97":169735.47,"N_COORD97":2550323.29,"ADDRESS":"總安街一段１１０巷７５號","OBJECTID":235412},"geometry":{"x":169735.4700000016,"y":2550323.2899999991}},{"attributes":{"ID":235417,"DIS_CODE":0,"TOWNNAME":"安南區","LI":"安順里","LIN":"16鄰","STREET":"總安街","SECT":"一段","MAREA":" ","LANE":"１１０巷","ALLEY":" ","HOUSE_NO":"７７號","E_COORD97":169739.64000000001,"N_COORD97":2550321.8100000001,"ADDRESS":"總安街一段１１０巷７７號","OBJECTID":235413},"geometry":{"x":169739.6400000006,"y":2550321.8099999987}},{"attributes":{"ID":235418,"DIS_CODE":0,"TOWNNAME":"安南區","LI":"安順里","LIN":"16鄰","STREET":"總安街","SECT":"一段","MAREA":" ","LANE":"１１０巷","ALLEY":" ","HOUSE_NO":"７９號","E_COORD97":169743.95000000001,"N_COORD97":2550321.8100000001,"ADDRESS":"總安街一段１１０巷７９號","OBJECTID":235414},"geometry":{"x":169743.95000000019,"y":2550321.8099999987}},{"attributes":{"ID":235419,"DIS_CODE":0,"TOWNNAME":"安南區","LI":"安順里","LIN":"16鄰","STREET":"總安街","SECT":"一段","MAREA":" ","LANE":"１１０巷","ALLEY":" ","HOUSE_NO":"８１號","E_COORD97":169748.57000000001,"N_COORD97":2550320.77,"ADDRESS":"總安街一段１１０巷８１號","OBJECTID":235415},"geometry":{"x":169748.5700000003,"y":2550320.7699999996}},{"attributes":{"ID":235420,"DIS_CODE":0,"TOWNNAME":"安南區","LI":"安順里","LIN":"16鄰","STREET":"總安街","SECT":"一段","MAREA":" ","LANE":"１１０巷","ALLEY":" ","HOUSE_NO":"８３號","E_COORD97":169753.03,"N_COORD97":2550321.0600000001,"ADDRESS":"總安街一段１１０巷８３號","OBJECTID":235416},"geometry":{"x":169753.03000000119,"y":2550321.0600000024}},{"attributes":{"ID":235421,"DIS_CODE":0,"TOWNNAME":"北區","LI":"大豐里","LIN":"13鄰","STREET":"和緯路","SECT":"四段","MAREA":" ","LANE":"１３９巷","ALLEY":" ","HOUSE_NO":"５６號","E_COORD97":167005.69,"N_COORD97":2545322.6899999999,"ADDRESS":"和緯路四段１３９巷５６號","OBJECTID":235417},"geometry":{"x":167005.69000000134,"y":2545322.6899999995}},{"attributes":{"ID":235422,"DIS_CODE":0,"TOWNNAME":"北區","LI":"大豐里","LIN":"13鄰","STREET":"和緯路","SECT":"四段","MAREA":" ","LANE":"１３９巷","ALLEY":" ","HOUSE_NO":"５７號","E_COORD97":167029.81,"N_COORD97":2545319.7799999998,"ADDRESS":"和緯路四段１３９巷５７號","OBJECTID":235418},"geometry":{"x":167029.81000000052,"y":2545319.7799999993}},{"attributes":{"ID":235423,"DIS_CODE":0,"TOWNNAME":"北區","LI":"大豐里","LIN":"13鄰","STREET":"和緯路","SECT":"四段","MAREA":" ","LANE":"１３９巷","ALLEY":" ","HOUSE_NO":"５號","E_COORD97":167043.48000000001,"N_COORD97":2545430.8599999999,"ADDRESS":"和緯路四段１３９巷５號","OBJECTID":235419},"geometry":{"x":167043.48000000045,"y":2545430.8599999994}},{"attributes":{"ID":235424,"DIS_CODE":0,"TOWNNAME":"北區","LI":"大豐里","LIN":"13鄰","STREET":"和緯路","SECT":"四段","MAREA":" ","LANE":"１３９巷","ALLEY":" ","HOUSE_NO":"６號","E_COORD97":167020.82999999999,"N_COORD97":2545422.1499999999,"ADDRESS":"和緯路四段１３９巷６號","OBJECTID":235420},"geometry":{"x":167020.83000000007,"y":2545422.1500000022}},{"attributes":{"ID":235425,"DIS_CODE":0,"TOWNNAME":"北區","LI":"大豐里","LIN":"13鄰","STREET":"和緯路","SECT":"四段","MAREA":" ","LANE":"１３９巷","ALLEY":" ","HOUSE_NO":"７號","E_COORD97":167043.09,"N_COORD97":2545427.7000000002,"ADDRESS":"和緯路四段１３９巷７號","OBJECTID":235421},"geometry":{"x":167043.09000000078,"y":2545427.6999999993}},{"attributes":{"ID":235426,"DIS_CODE":0,"TOWNNAME":"北區","LI":"大豐里","LIN":"13鄰","STREET":"和緯路","SECT":"四段","MAREA":" ","LANE":"１３９巷","ALLEY":" ","HOUSE_NO":"８號","E_COORD97":167020.19,"N_COORD97":2545417.8199999998,"ADDRESS":"和緯路四段１３９巷８號","OBJECTID":235422},"geometry":{"x":167020.19000000041,"y":2545417.8200000003}},{"attributes":{"ID":235427,"DIS_CODE":0,"TOWNNAME":"北區","LI":"大豐里","LIN":"13鄰","STREET":"和緯路","SECT":"四段","MAREA":" ","LANE":"１３９巷","ALLEY":" ","HOUSE_NO":"９號","E_COORD97":167042.85999999999,"N_COORD97":2545423.1499999999,"ADDRESS":"和緯路四段１３９巷９號","OBJECTID":235423},"geometry":{"x":167042.86000000034,"y":2545423.1500000004}},{"attributes":{"ID":235428,"DIS_CODE":0,"TOWNNAME":"仁德區","LI":"新田里","LIN":"13鄰","STREET":"北保一街","SECT":" ","MAREA":" ","LANE":"１巷","ALLEY":" ","HOUSE_NO":"１４號二樓","E_COORD97":173259.72,"N_COORD97":2539414.75,"ADDRESS":"北保一街１巷１４號二樓","OBJECTID":235424},"geometry":{"x":173259.71999999881,"y":2539414.75}},{"attributes":{"ID":235429,"DIS_CODE":0,"TOWNNAME":"中西區","LI":"仙草里","LIN":"14鄰","STREET":"西門路","SECT":"一段","MAREA":" ","LANE":" ","ALLEY":" ","HOUSE_NO":"４９６號二樓之２","E_COORD97":167749.60000000001,"N_COORD97":2542735.3100000001,"ADDRESS":"西門路一段４９６號二樓之２","OBJECTID":235425},"geometry":{"x":167749.60000000056,"y":2542735.3100000024}},{"attributes":{"ID":235430,"DIS_CODE":0,"TOWNNAME":"中西區","LI":"仙草里","LIN":"14鄰","STREET":"西門路","SECT":"一段","MAREA":" ","LANE":" ","ALLEY":" ","HOUSE_NO":"４９６號八樓之１","E_COORD97":167749.60000000001,"N_COORD97":2542735.3100000001,"ADDRESS":"西門路一段４９６號八樓之１","OBJECTID":235426},"geometry":{"x":167749.60000000056,"y":2542735.3100000024}},{"attributes":{"ID":235431,"DIS_CODE":0,"TOWNNAME":"中西區","LI":"仙草里","LIN":"14鄰","STREET":"西門路","SECT":"一段","MAREA":" ","LANE":" ","ALLEY":" ","HOUSE_NO":"４９６號八樓之２","E_COORD97":167749.60000000001,"N_COORD97":2542735.3100000001,"ADDRESS":"西門路一段４９６號八樓之２","OBJECTID":235427},"geometry":{"x":167749.60000000056,"y":2542735.3100000024}},{"attributes":{"ID":235432,"DIS_CODE":0,"TOWNNAME":"中西區","LI":"仙草里","LIN":"14鄰","STREET":"西門路","SECT":"一段","MAREA":" ","LANE":" ","ALLEY":" ","HOUSE_NO":"４９６號十一樓之１","E_COORD97":167749.60000000001,"N_COORD97":2542735.3100000001,"ADDRESS":"西門路一段４９６號十一樓之１","OBJECTID":235428},"geometry":{"x":167749.60000000056,"y":2542735.3100000024}},{"attributes":{"ID":235433,"DIS_CODE":0,"TOWNNAME":"中西區","LI":"仙草里","LIN":"14鄰","STREET":"西門路","SECT":"一段","MAREA":" ","LANE":" ","ALLEY":" ","HOUSE_NO":"４９６號十一樓之２","E_COORD97":167749.60000000001,"N_COORD97":2542735.3100000001,"ADDRESS":"西門路一段４９６號十一樓之２","OBJECTID":235429},"geometry":{"x":167749.60000000056,"y":2542735.3100000024}},{"attributes":{"ID":235434,"DIS_CODE":0,"TOWNNAME":"中西區","LI":"仙草里","LIN":"14鄰","STREET":"西門路","SECT":"一段","MAREA":" ","LANE":" ","ALLEY":" ","HOUSE_NO":"４９６號十二樓之１","E_COORD97":167749.60000000001,"N_COORD97":2542735.3100000001,"ADDRESS":"西門路一段４９６號十二樓之１","OBJECTID":235430},"geometry":{"x":167749.60000000056,"y":2542735.3100000024}},{"attributes":{"ID":235435,"DIS_CODE":0,"TOWNNAME":"中西區","LI":"仙草里","LIN":"14鄰","STREET":"西門路","SECT":"一段","MAREA":" ","LANE":" ","ALLEY":" ","HOUSE_NO":"４９６號十二樓之２","E_COORD97":167749.60000000001,"N_COORD97":2542735.3100000001,"ADDRESS":"西門路一段４９６號十二樓之２","OBJECTID":235431},"geometry":{"x":167749.60000000056,"y":2542735.3100000024}},{"attributes":{"ID":235436,"DIS_CODE":0,"TOWNNAME":"中西區","LI":"仙草里","LIN":"14鄰","STREET":"西門路","SECT":"一段","MAREA":" ","LANE":" ","ALLEY":" ","HOUSE_NO":"４９６號十樓之１","E_COORD97":167749.60000000001,"N_COORD97":2542735.3100000001,"ADDRESS":"西門路一段４９６號十樓之１","OBJECTID":235432},"geometry":{"x":167749.60000000056,"y":2542735.3100000024}},{"attributes":{"ID":235437,"DIS_CODE":0,"TOWNNAME":"中西區","LI":"仙草里","LIN":"14鄰","STREET":"西門路","SECT":"一段","MAREA":" ","LANE":" ","ALLEY":" ","HOUSE_NO":"４９６號十樓之２","E_COORD97":167749.60000000001,"N_COORD97":2542735.3100000001,"ADDRESS":"西門路一段４９６號十樓之２","OBJECTID":235433},"geometry":{"x":167749.60000000056,"y":2542735.3100000024}},{"attributes":{"ID":235438,"DIS_CODE":0,"TOWNNAME":"中西區","LI":"仙草里","LIN":"14鄰","STREET":"西門路","SECT":"一段","MAREA":" ","LANE":" ","ALLEY":" ","HOUSE_NO":"４９６號三樓之１","E_COORD97":167749.60000000001,"N_COORD97":2542735.3100000001,"ADDRESS":"西門路一段４９６號三樓之１","OBJECTID":235434},"geometry":{"x":167749.60000000056,"y":2542735.3100000024}},{"attributes":{"ID":235439,"DIS_CODE":0,"TOWNNAME":"安南區","LI":"安順里","LIN":"16鄰","STREET":"總安街","SECT":"一段","MAREA":" ","LANE":"１１０巷","ALLEY":" ","HOUSE_NO":"８５號","E_COORD97":169757.19,"N_COORD97":2550319.73,"ADDRESS":"總安街一段１１０巷８５號","OBJECTID":235435},"geometry":{"x":169757.19000000134,"y":2550319.7300000023}},{"attributes":{"ID":235440,"DIS_CODE":0,"TOWNNAME":"安南區","LI":"安順里","LIN":"16鄰","STREET":"總安街","SECT":"一段","MAREA":" ","LANE":"１１０巷","ALLEY":" ","HOUSE_NO":"８７號","E_COORD97":169761.20999999999,"N_COORD97":2550318.8399999999,"ADDRESS":"總安街一段１１０巷８７號","OBJECTID":235436},"geometry":{"x":169761.21000000183,"y":2550318.8400000017}},{"attributes":{"ID":235441,"DIS_CODE":0,"TOWNNAME":"安南區","LI":"安順里","LIN":"16鄰","STREET":"總安街","SECT":"一段","MAREA":" ","LANE":"１１０巷","ALLEY":" ","HOUSE_NO":"８８號","E_COORD97":169785.48999999999,"N_COORD97":2550329.2000000002,"ADDRESS":"總安街一段１１０巷８８號","OBJECTID":235437},"geometry":{"x":169785.49000000115,"y":2550329.2000000011}},{"attributes":{"ID":235442,"DIS_CODE":0,"TOWNNAME":"安南區","LI":"安順里","LIN":"16鄰","STREET":"總安街","SECT":"一段","MAREA":" ","LANE":"１１０巷","ALLEY":" ","HOUSE_NO":"８９號","E_COORD97":169752,"N_COORD97":2550333.6499999999,"ADDRESS":"總安街一段１１０巷８９號","OBJECTID":235438},"geometry":{"x":169752,"y":2550333.6500000022}},{"attributes":{"ID":235443,"DIS_CODE":0,"TOWNNAME":"安南區","LI":"安順里","LIN":"16鄰","STREET":"總安街","SECT":"一段","MAREA":" ","LANE":"１１０巷","ALLEY":" ","HOUSE_NO":"９０號","E_COORD97":169785.64000000001,"N_COORD97":2550332.9100000001,"ADDRESS":"總安街一段１１０巷９０號","OBJECTID":235439},"geometry":{"x":169785.6400000006,"y":2550332.9100000001}},{"attributes":{"ID":235444,"DIS_CODE":0,"TOWNNAME":"安南區","LI":"安順里","LIN":"16鄰","STREET":"總安街","SECT":"一段","MAREA":" ","LANE":"１１０巷","ALLEY":" ","HOUSE_NO":"９１號","E_COORD97":169752,"N_COORD97":2550338.2599999998,"ADDRESS":"總安街一段１１０巷９１號","OBJECTID":235440},"geometry":{"x":169752,"y":2550338.2599999979}},{"attributes":{"ID":235445,"DIS_CODE":0,"TOWNNAME":"安南區","LI":"安順里","LIN":"16鄰","STREET":"總安街","SECT":"一段","MAREA":" ","LANE":"１１０巷","ALLEY":" ","HOUSE_NO":"９２號","E_COORD97":169785.48999999999,"N_COORD97":2550337.52,"ADDRESS":"總安街一段１１０巷９２號","OBJECTID":235441},"geometry":{"x":169785.49000000115,"y":2550337.5200000014}},{"attributes":{"ID":235446,"DIS_CODE":0,"TOWNNAME":"安南區","LI":"安順里","LIN":"16鄰","STREET":"總安街","SECT":"一段","MAREA":" ","LANE":"１１０巷","ALLEY":" ","HOUSE_NO":"９３號","E_COORD97":169751.70000000001,"N_COORD97":2550342.5699999998,"ADDRESS":"總安街一段１１０巷９３號","OBJECTID":235442},"geometry":{"x":169751.70000000112,"y":2550342.5700000003}},{"attributes":{"ID":235447,"DIS_CODE":0,"TOWNNAME":"安南區","LI":"安順里","LIN":"16鄰","STREET":"總安街","SECT":"一段","MAREA":" ","LANE":"１１０巷","ALLEY":" ","HOUSE_NO":"９４號","E_COORD97":169784.60000000001,"N_COORD97":2550342.5699999998,"ADDRESS":"總安街一段１１０巷９４號","OBJECTID":235443},"geometry":{"x":169784.59999999963,"y":2550342.5700000003}},{"attributes":{"ID":235448,"DIS_CODE":0,"TOWNNAME":"安南區","LI":"安順里","LIN":"16鄰","STREET":"總安街","SECT":"一段","MAREA":" ","LANE":"１１０巷","ALLEY":" ","HOUSE_NO":"９５號","E_COORD97":169752.14999999999,"N_COORD97":2550347.1699999999,"ADDRESS":"總安街一段１１０巷９５號","OBJECTID":235444},"geometry":{"x":169752.1500000013,"y":2550347.1700000018}},{"attributes":{"ID":235449,"DIS_CODE":0,"TOWNNAME":"仁德區","LI":"新田里","LIN":"13鄰","STREET":"北保一街","SECT":" ","MAREA":" ","LANE":"１巷","ALLEY":" ","HOUSE_NO":"１６號五樓","E_COORD97":173250.95999999999,"N_COORD97":2539416.75,"ADDRESS":"北保一街１巷１６號五樓","OBJECTID":235445},"geometry":{"x":173250.95999999996,"y":2539416.75}},{"attributes":{"ID":235450,"DIS_CODE":0,"TOWNNAME":"仁德區","LI":"新田里","LIN":"13鄰","STREET":"北保一街","SECT":" ","MAREA":" ","LANE":"１巷","ALLEY":" ","HOUSE_NO":"１４號一樓","E_COORD97":173259.72,"N_COORD97":2539414.75,"ADDRESS":"北保一街１巷１４號一樓","OBJECTID":235446},"geometry":{"x":173259.71999999881,"y":2539414.75}},{"attributes":{"ID":235451,"DIS_CODE":0,"TOWNNAME":"仁德區","LI":"新田里","LIN":"13鄰","STREET":"北保一街","SECT":" ","MAREA":" ","LANE":"１巷","ALLEY":" ","HOUSE_NO":"１８號二樓","E_COORD97":173250.23000000001,"N_COORD97":2539392.0099999998,"ADDRESS":"北保一街１巷１８號二樓","OBJECTID":235447},"geometry":{"x":173250.22999999952,"y":2539392.0099999998}},{"attributes":{"ID":235452,"DIS_CODE":0,"TOWNNAME":"東區","LI":"東安里","LIN":"13鄰","STREET":"長榮路","SECT":"二段","MAREA":" ","LANE":"３２巷","ALLEY":" ","HOUSE_NO":"１７９號四樓","E_COORD97":170157.92999999999,"N_COORD97":2543214.3900000001,"ADDRESS":"長榮路二段３２巷１７９號四樓","OBJECTID":235448},"geometry":{"x":170157.93000000156,"y":2543214.3900000006}},{"attributes":{"ID":235453,"DIS_CODE":0,"TOWNNAME":"中西區","LI":"水仙里","LIN":"13鄰","STREET":"西門路","SECT":"二段","MAREA":" ","LANE":"３０７巷","ALLEY":" ","HOUSE_NO":"１１號二樓之１","E_COORD97":167931.66,"N_COORD97":2544163.5899999999,"ADDRESS":"西門路二段３０７巷１１號二樓之１","OBJECTID":235449},"geometry":{"x":167931.66000000108,"y":2544163.5900000017}},{"attributes":{"ID":235454,"DIS_CODE":0,"TOWNNAME":"中西區","LI":"水仙里","LIN":"13鄰","STREET":"西門路","SECT":"二段","MAREA":" ","LANE":"３０７巷","ALLEY":" ","HOUSE_NO":"１１號二樓之２","E_COORD97":167931.66,"N_COORD97":2544163.5899999999,"ADDRESS":"西門路二段３０７巷１１號二樓之２","OBJECTID":235450},"geometry":{"x":167931.66000000108,"y":2544163.5900000017}},{"attributes":{"ID":235455,"DIS_CODE":0,"TOWNNAME":"中西區","LI":"水仙里","LIN":"13鄰","STREET":"西門路","SECT":"二段","MAREA":" ","LANE":"３０７巷","ALLEY":" ","HOUSE_NO":"１１號三樓之１","E_COORD97":167931.66,"N_COORD97":2544163.5899999999,"ADDRESS":"西門路二段３０７巷１１號三樓之１","OBJECTID":235451},"geometry":{"x":167931.66000000108,"y":2544163.5900000017}},{"attributes":{"ID":235456,"DIS_CODE":0,"TOWNNAME":"中西區","LI":"水仙里","LIN":"13鄰","STREET":"西門路","SECT":"二段","MAREA":" ","LANE":"３０７巷","ALLEY":" ","HOUSE_NO":"１１號三樓之２","E_COORD97":167931.66,"N_COORD97":2544163.5899999999,"ADDRESS":"西門路二段３０７巷１１號三樓之２","OBJECTID":235452},"geometry":{"x":167931.66000000108,"y":2544163.5900000017}},{"attributes":{"ID":235457,"DIS_CODE":0,"TOWNNAME":"中西區","LI":"水仙里","LIN":"13鄰","STREET":"西門路","SECT":"二段","MAREA":" ","LANE":"３０７巷","ALLEY":" ","HOUSE_NO":"１１號五樓之１","E_COORD97":167931.66,"N_COORD97":2544163.5899999999,"ADDRESS":"西門路二段３０７巷１１號五樓之１","OBJECTID":235453},"geometry":{"x":167931.66000000108,"y":2544163.5900000017}},{"attributes":{"ID":235458,"DIS_CODE":0,"TOWNNAME":"中西區","LI":"仙草里","LIN":"14鄰","STREET":"西門路","SECT":"一段","MAREA":" ","LANE":" ","ALLEY":" ","HOUSE_NO":"４９６號三樓之２","E_COORD97":167749.60000000001,"N_COORD97":2542735.3100000001,"ADDRESS":"西門路一段４９６號三樓之２","OBJECTID":235454},"geometry":{"x":167749.60000000056,"y":2542735.3100000024}},{"attributes":{"ID":235459,"DIS_CODE":0,"TOWNNAME":"中西區","LI":"仙草里","LIN":"14鄰","STREET":"西門路","SECT":"一段","MAREA":" ","LANE":" ","ALLEY":" ","HOUSE_NO":"４９６號五樓之１","E_COORD97":167749.60000000001,"N_COORD97":2542735.3100000001,"ADDRESS":"西門路一段４９６號五樓之１","OBJECTID":235455},"geometry":{"x":167749.60000000056,"y":2542735.3100000024}},{"attributes":{"ID":235460,"DIS_CODE":0,"TOWNNAME":"中西區","LI":"仙草里","LIN":"14鄰","STREET":"西門路","SECT":"一段","MAREA":" ","LANE":" ","ALLEY":" ","HOUSE_NO":"４９６號五樓之２","E_COORD97":167749.60000000001,"N_COORD97":2542735.3100000001,"ADDRESS":"西門路一段４９６號五樓之２","OBJECTID":235456},"geometry":{"x":167749.60000000056,"y":2542735.3100000024}},{"attributes":{"ID":235461,"DIS_CODE":0,"TOWNNAME":"中西區","LI":"仙草里","LIN":"14鄰","STREET":"西門路","SECT":"一段","MAREA":" ","LANE":" ","ALLEY":" ","HOUSE_NO":"４９６號六樓之１","E_COORD97":167749.60000000001,"N_COORD97":2542735.3100000001,"ADDRESS":"西門路一段４９６號六樓之１","OBJECTID":235457},"geometry":{"x":167749.60000000056,"y":2542735.3100000024}},{"attributes":{"ID":235462,"DIS_CODE":0,"TOWNNAME":"中西區","LI":"仙草里","LIN":"14鄰","STREET":"西門路","SECT":"一段","MAREA":" ","LANE":" ","ALLEY":" ","HOUSE_NO":"４９６號六樓之２","E_COORD97":167749.60000000001,"N_COORD97":2542735.3100000001,"ADDRESS":"西門路一段４９６號六樓之２","OBJECTID":235458},"geometry":{"x":167749.60000000056,"y":2542735.3100000024}},{"attributes":{"ID":235463,"DIS_CODE":0,"TOWNNAME":"中西區","LI":"仙草里","LIN":"14鄰","STREET":"西門路","SECT":"一段","MAREA":" ","LANE":" ","ALLEY":" ","HOUSE_NO":"４９６號四樓之１","E_COORD97":167749.60000000001,"N_COORD97":2542735.3100000001,"ADDRESS":"西門路一段４９６號四樓之１","OBJECTID":235459},"geometry":{"x":167749.60000000056,"y":2542735.3100000024}},{"attributes":{"ID":235464,"DIS_CODE":0,"TOWNNAME":"中西區","LI":"仙草里","LIN":"14鄰","STREET":"西門路","SECT":"一段","MAREA":" ","LANE":" ","ALLEY":" ","HOUSE_NO":"４９６號四樓之２","E_COORD97":167749.60000000001,"N_COORD97":2542735.3100000001,"ADDRESS":"西門路一段４９６號四樓之２","OBJECTID":235460},"geometry":{"x":167749.60000000056,"y":2542735.3100000024}},{"attributes":{"ID":235465,"DIS_CODE":0,"TOWNNAME":"中西區","LI":"仙草里","LIN":"14鄰","STREET":"府緯街","SECT":" ","MAREA":" ","LANE":" ","ALLEY":" ","HOUSE_NO":"５５號一樓","E_COORD97":167804.88,"N_COORD97":2542699.2999999998,"ADDRESS":"府緯街５５號一樓","OBJECTID":235461},"geometry":{"x":167804.87999999989,"y":2542699.3000000007}},{"attributes":{"ID":235466,"DIS_CODE":0,"TOWNNAME":"中西區","LI":"仙草里","LIN":"14鄰","STREET":"府緯街","SECT":" ","MAREA":" ","LANE":" ","ALLEY":" ","HOUSE_NO":"５５號二樓","E_COORD97":167804.88,"N_COORD97":2542699.2999999998,"ADDRESS":"府緯街５５號二樓","OBJECTID":235462},"geometry":{"x":167804.87999999989,"y":2542699.3000000007}},{"attributes":{"ID":235467,"DIS_CODE":0,"TOWNNAME":"中西區","LI":"仙草里","LIN":"14鄰","STREET":"府緯街","SECT":" ","MAREA":" ","LANE":" ","ALLEY":" ","HOUSE_NO":"５５號三樓之１","E_COORD97":167804.88,"N_COORD97":2542699.2999999998,"ADDRESS":"府緯街５５號三樓之１","OBJECTID":235463},"geometry":{"x":167804.87999999989,"y":2542699.3000000007}},{"attributes":{"ID":235468,"DIS_CODE":0,"TOWNNAME":"安南區","LI":"安順里","LIN":"16鄰","STREET":"總安街","SECT":"一段","MAREA":" ","LANE":"１１０巷","ALLEY":" ","HOUSE_NO":"９８號","E_COORD97":169795.54999999999,"N_COORD97":2550397.6000000001,"ADDRESS":"總安街一段１１０巷９８號","OBJECTID":235464},"geometry":{"x":169795.54999999981,"y":2550397.6000000015}},{"attributes":{"ID":235469,"DIS_CODE":0,"TOWNNAME":"安南區","LI":"安順里","LIN":"16鄰","STREET":"總安街","SECT":"一段","MAREA":" ","LANE":"１１０巷","ALLEY":" ","HOUSE_NO":"９９號","E_COORD97":169765.67000000001,"N_COORD97":2550401.25,"ADDRESS":"總安街一段１１０巷９９號","OBJECTID":235465},"geometry":{"x":169765.67000000086,"y":2550401.2500000019}},{"attributes":{"ID":235470,"DIS_CODE":0,"TOWNNAME":"安南區","LI":"淵東里","LIN":"16鄰","STREET":"安中路","SECT":"三段","MAREA":" ","LANE":"２５６巷","ALLEY":" ","HOUSE_NO":"７３號","E_COORD97":165690.23999999999,"N_COORD97":2550023.6400000001,"ADDRESS":"安中路三段２５６巷７３號","OBJECTID":235466},"geometry":{"x":165690.24000000115,"y":2550023.6400000006}},{"attributes":{"ID":235471,"DIS_CODE":0,"TOWNNAME":"中西區","LI":"水仙里","LIN":"13鄰","STREET":"西門路","SECT":"二段","MAREA":" ","LANE":"３０７巷","ALLEY":" ","HOUSE_NO":"１１號五樓之２","E_COORD97":167931.66,"N_COORD97":2544163.5899999999,"ADDRESS":"西門路二段３０７巷１１號五樓之２","OBJECTID":235467},"geometry":{"x":167931.66000000108,"y":2544163.5900000017}},{"attributes":{"ID":235472,"DIS_CODE":0,"TOWNNAME":"中西區","LI":"水仙里","LIN":"13鄰","STREET":"西門路","SECT":"二段","MAREA":" ","LANE":"３０７巷","ALLEY":" ","HOUSE_NO":"１１號四樓之１","E_COORD97":167931.66,"N_COORD97":2544163.5899999999,"ADDRESS":"西門路二段３０７巷１１號四樓之１","OBJECTID":235468},"geometry":{"x":167931.66000000108,"y":2544163.5900000017}},{"attributes":{"ID":235473,"DIS_CODE":0,"TOWNNAME":"中西區","LI":"水仙里","LIN":"13鄰","STREET":"西門路","SECT":"二段","MAREA":" ","LANE":"３０７巷","ALLEY":" ","HOUSE_NO":"１１號四樓之２","E_COORD97":167931.66,"N_COORD97":2544163.5899999999,"ADDRESS":"西門路二段３０７巷１１號四樓之２","OBJECTID":235469},"geometry":{"x":167931.66000000108,"y":2544163.5900000017}},{"attributes":{"ID":235474,"DIS_CODE":0,"TOWNNAME":"中西區","LI":"水仙里","LIN":"13鄰","STREET":"西門路","SECT":"二段","MAREA":" ","LANE":"３０７巷","ALLEY":" ","HOUSE_NO":"１５號二樓之２","E_COORD97":167925.95000000001,"N_COORD97":2544166.3700000001,"ADDRESS":"西門路二段３０７巷１５號二樓之２","OBJECTID":235470},"geometry":{"x":167925.95000000112,"y":2544166.3700000029}},{"attributes":{"ID":235475,"DIS_CODE":0,"TOWNNAME":"新化區","LI":"全興里","LIN":"16鄰","STREET":" ","SECT":" ","MAREA":"竹子\u25A0","LANE":" ","ALLEY":" ","HOUSE_NO":"２４７號之５１３","E_COORD97":178241.17999999999,"N_COORD97":2546665.2599999998,"ADDRESS":"竹子\u25A0２４７號之５１３","OBJECTID":235471},"geometry":{"x":178241.18000000063,"y":2546665.2599999998}},{"attributes":{"ID":235476,"DIS_CODE":0,"TOWNNAME":"新化區","LI":"全興里","LIN":"16鄰","STREET":" ","SECT":" ","MAREA":"竹子\u25A0","LANE":" ","ALLEY":" ","HOUSE_NO":"２４７號之５４０","E_COORD97":178278.26999999999,"N_COORD97":2546635.2599999998,"ADDRESS":"竹子\u25A0２４７號之５４０","OBJECTID":235472},"geometry":{"x":178278.26999999955,"y":2546635.2599999998}},{"attributes":{"ID":235477,"DIS_CODE":0,"TOWNNAME":"中西區","LI":"水仙里","LIN":"13鄰","STREET":"西門路","SECT":"二段","MAREA":" ","LANE":"３０７巷","ALLEY":" ","HOUSE_NO":"１５號三樓之１","E_COORD97":167925.95000000001,"N_COORD97":2544166.3700000001,"ADDRESS":"西門路二段３０７巷１５號三樓之１","OBJECTID":235473},"geometry":{"x":167925.95000000112,"y":2544166.3700000029}},{"attributes":{"ID":235478,"DIS_CODE":0,"TOWNNAME":"中西區","LI":"水仙里","LIN":"13鄰","STREET":"西門路","SECT":"二段","MAREA":" ","LANE":"３０７巷","ALLEY":" ","HOUSE_NO":"１５號三樓之２","E_COORD97":167925.95000000001,"N_COORD97":2544166.3700000001,"ADDRESS":"西門路二段３０７巷１５號三樓之２","OBJECTID":235474},"geometry":{"x":167925.95000000112,"y":2544166.3700000029}},{"attributes":{"ID":235479,"DIS_CODE":0,"TOWNNAME":"仁德區","LI":"新田里","LIN":"4鄰","STREET":"勝利一街","SECT":" ","MAREA":" ","LANE":"５８巷","ALLEY":" ","HOUSE_NO":"７號","E_COORD97":174023.38913699999,"N_COORD97":2539351.3025000002,"ADDRESS":"勝利一街５８巷７號","OBJECTID":235475},"geometry":{"x":174023.38913700078,"y":2539351.3025030009}},{"attributes":{"ID":235480,"DIS_CODE":0,"TOWNNAME":"新化區","LI":"全興里","LIN":"16鄰","STREET":" ","SECT":" ","MAREA":"竹子\u25A0","LANE":" ","ALLEY":" ","HOUSE_NO":"２４７號之６７１","E_COORD97":178218.45999999999,"N_COORD97":2546609.2599999998,"ADDRESS":"竹子\u25A0２４７號之６７１","OBJECTID":235476},"geometry":{"x":178218.45999999903,"y":2546609.2600000035}},{"attributes":{"ID":235481,"DIS_CODE":0,"TOWNNAME":"新化區","LI":"全興里","LIN":"16鄰","STREET":" ","SECT":" ","MAREA":"竹子\u25A0","LANE":" ","ALLEY":" ","HOUSE_NO":"２４７號之６４７","E_COORD97":178275.67999999999,"N_COORD97":2546608.2599999998,"ADDRESS":"竹子\u25A0２４７號之６４７","OBJECTID":235477},"geometry":{"x":178275.6799999997,"y":2546608.2599999998}},{"attributes":{"ID":235482,"DIS_CODE":0,"TOWNNAME":"中西區","LI":"水仙里","LIN":"13鄰","STREET":"西門路","SECT":"二段","MAREA":" ","LANE":"３０７巷","ALLEY":" ","HOUSE_NO":"１５號五樓之１","E_COORD97":167925.95000000001,"N_COORD97":2544166.3700000001,"ADDRESS":"西門路二段３０７巷１５號五樓之１","OBJECTID":235478},"geometry":{"x":167925.95000000112,"y":2544166.3700000029}},{"attributes":{"ID":235483,"DIS_CODE":0,"TOWNNAME":"新化區","LI":"全興里","LIN":"16鄰","STREET":" ","SECT":" ","MAREA":"竹子\u25A0","LANE":" ","ALLEY":" ","HOUSE_NO":"２４７號之５２３","E_COORD97":178218.17999999999,"N_COORD97":2546666.2599999998,"ADDRESS":"竹子\u25A0２４７號之５２３","OBJECTID":235479},"geometry":{"x":178218.1799999997,"y":2546666.2599999998}},{"attributes":{"ID":235484,"DIS_CODE":0,"TOWNNAME":"中西區","LI":"水仙里","LIN":"13鄰","STREET":"西門路","SECT":"二段","MAREA":" ","LANE":"３０７巷","ALLEY":" ","HOUSE_NO":"１５號五樓之２","E_COORD97":167925.95000000001,"N_COORD97":2544166.3700000001,"ADDRESS":"西門路二段３０７巷１５號五樓之２","OBJECTID":235480},"geometry":{"x":167925.95000000112,"y":2544166.3700000029}},{"attributes":{"ID":235485,"DIS_CODE":0,"TOWNNAME":"中西區","LI":"公正里","LIN":"17鄰","STREET":"衛民街","SECT":" ","MAREA":" ","LANE":"１２４巷","ALLEY":" ","HOUSE_NO":"６號","E_COORD97":168844.17999999999,"N_COORD97":2543780.4900000002,"ADDRESS":"衛民街１２４巷６號","OBJECTID":235481},"geometry":{"x":168844.18000000156,"y":2543780.4900000039}},{"attributes":{"ID":235486,"DIS_CODE":0,"TOWNNAME":"中西區","LI":"仙草里","LIN":"14鄰","STREET":"府緯街","SECT":" ","MAREA":" ","LANE":" ","ALLEY":" ","HOUSE_NO":"５５號三樓之２","E_COORD97":167804.88,"N_COORD97":2542699.2999999998,"ADDRESS":"府緯街５５號三樓之２","OBJECTID":235482},"geometry":{"x":167804.87999999989,"y":2542699.3000000007}},{"attributes":{"ID":235487,"DIS_CODE":0,"TOWNNAME":"中西區","LI":"仙草里","LIN":"14鄰","STREET":"府緯街","SECT":" ","MAREA":" ","LANE":" ","ALLEY":" ","HOUSE_NO":"５５號五樓之２","E_COORD97":167804.88,"N_COORD97":2542699.2999999998,"ADDRESS":"府緯街５５號五樓之２","OBJECTID":235483},"geometry":{"x":167804.87999999989,"y":2542699.3000000007}},{"attributes":{"ID":235488,"DIS_CODE":0,"TOWNNAME":"中西區","LI":"仙草里","LIN":"14鄰","STREET":"府緯街","SECT":" ","MAREA":" ","LANE":" ","ALLEY":" ","HOUSE_NO":"５５號四樓之１","E_COORD97":167804.88,"N_COORD97":2542699.2999999998,"ADDRESS":"府緯街５５號四樓之１","OBJECTID":235484},"geometry":{"x":167804.87999999989,"y":2542699.3000000007}},{"attributes":{"ID":235489,"DIS_CODE":0,"TOWNNAME":"南區","LI":"同安里","LIN":"16鄰","STREET":"明興路","SECT":" ","MAREA":" ","LANE":"１４２５巷","ALLEY":" ","HOUSE_NO":"２３號","E_COORD97":166422.67000000001,"N_COORD97":2535769.5899999999,"ADDRESS":"明興路１４２５巷２３號","OBJECTID":235485},"geometry":{"x":166422.67000000086,"y":2535769.5900000017}},{"attributes":{"ID":235490,"DIS_CODE":0,"TOWNNAME":"中西區","LI":"水仙里","LIN":"13鄰","STREET":"西門路","SECT":"二段","MAREA":" ","LANE":"３０７巷","ALLEY":" ","HOUSE_NO":"１５號四樓之１","E_COORD97":167925.95000000001,"N_COORD97":2544166.3700000001,"ADDRESS":"西門路二段３０７巷１５號四樓之１","OBJECTID":235486},"geometry":{"x":167925.95000000112,"y":2544166.3700000029}},{"attributes":{"ID":235491,"DIS_CODE":0,"TOWNNAME":"中西區","LI":"水仙里","LIN":"13鄰","STREET":"西門路","SECT":"二段","MAREA":" ","LANE":"３０７巷","ALLEY":" ","HOUSE_NO":"１５號四樓之２","E_COORD97":167925.95000000001,"N_COORD97":2544166.3700000001,"ADDRESS":"西門路二段３０７巷１５號四樓之２","OBJECTID":235487},"geometry":{"x":167925.95000000112,"y":2544166.3700000029}},{"attributes":{"ID":235492,"DIS_CODE":0,"TOWNNAME":"新化區","LI":"全興里","LIN":"16鄰","STREET":" ","SECT":" ","MAREA":"竹子\u25A0","LANE":" ","ALLEY":" ","HOUSE_NO":"２４７號之５７０","E_COORD97":178208.37,"N_COORD97":2546637.2599999998,"ADDRESS":"竹子\u25A0２４７號之５７０","OBJECTID":235488},"geometry":{"x":178208.37000000011,"y":2546637.2600000016}},{"attributes":{"ID":235493,"DIS_CODE":0,"TOWNNAME":"中西區","LI":"水仙里","LIN":"13鄰","STREET":"西門路","SECT":"二段","MAREA":" ","LANE":"３０７巷","ALLEY":" ","HOUSE_NO":"２３號七樓之１","E_COORD97":167903.54000000001,"N_COORD97":2544175.8300000001,"ADDRESS":"西門路二段３０７巷２３號七樓之１","OBJECTID":235489},"geometry":{"x":167903.54000000097,"y":2544175.8300000019}},{"attributes":{"ID":235494,"DIS_CODE":0,"TOWNNAME":"新化區","LI":"全興里","LIN":"16鄰","STREET":" ","SECT":" ","MAREA":"竹子\u25A0","LANE":" ","ALLEY":" ","HOUSE_NO":"２４７號之５２７","E_COORD97":178209.17999999999,"N_COORD97":2546666.2599999998,"ADDRESS":"竹子\u25A0２４７號之５２７","OBJECTID":235490},"geometry":{"x":178209.1799999997,"y":2546666.2599999998}},{"attributes":{"ID":235495,"DIS_CODE":0,"TOWNNAME":"中西區","LI":"水仙里","LIN":"13鄰","STREET":"西門路","SECT":"二段","MAREA":" ","LANE":"３０７巷","ALLEY":" ","HOUSE_NO":"２３號七樓之２","E_COORD97":167903.54000000001,"N_COORD97":2544175.8300000001,"ADDRESS":"西門路二段３０７巷２３號七樓之２","OBJECTID":235491},"geometry":{"x":167903.54000000097,"y":2544175.8300000019}},{"attributes":{"ID":235496,"DIS_CODE":0,"TOWNNAME":"新化區","LI":"協興里","LIN":"16鄰","STREET":"大新路","SECT":" ","MAREA":" ","LANE":" ","ALLEY":" ","HOUSE_NO":"４９號","E_COORD97":178142.22170200001,"N_COORD97":2548644.60825,"ADDRESS":"大新路４９號","OBJECTID":235492},"geometry":{"x":178142.22170200013,"y":2548644.6082550008}},{"attributes":{"ID":235497,"DIS_CODE":0,"TOWNNAME":"新化區","LI":"全興里","LIN":"16鄰","STREET":" ","SECT":" ","MAREA":"竹子\u25A0","LANE":" ","ALLEY":" ","HOUSE_NO":"２４７號之６４９","E_COORD97":178268.88,"N_COORD97":2546608.2599999998,"ADDRESS":"竹子\u25A0２４７號之６４９","OBJECTID":235493},"geometry":{"x":178268.88000000082,"y":2546608.2599999998}},{"attributes":{"ID":235498,"DIS_CODE":0,"TOWNNAME":"新化區","LI":"全興里","LIN":"16鄰","STREET":" ","SECT":" ","MAREA":"竹子\u25A0","LANE":" ","ALLEY":" ","HOUSE_NO":"２４７號之６７７","E_COORD97":178204.98000000001,"N_COORD97":2546609.2599999998,"ADDRESS":"竹子\u25A0２４７號之６７７","OBJECTID":235494},"geometry":{"x":178204.98000000045,"y":2546609.2600000035}},{"attributes":{"ID":235499,"DIS_CODE":0,"TOWNNAME":"新化區","LI":"全興里","LIN":"16鄰","STREET":" ","SECT":" ","MAREA":"竹子\u25A0","LANE":" ","ALLEY":" ","HOUSE_NO":"２４７號之５０７","E_COORD97":178254.98000000001,"N_COORD97":2546665.2599999998,"ADDRESS":"竹子\u25A0２４７號之５０７","OBJECTID":235495},"geometry":{"x":178254.98000000138,"y":2546665.2599999998}},{"attributes":{"ID":235500,"DIS_CODE":0,"TOWNNAME":"新化區","LI":"全興里","LIN":"16鄰","STREET":" ","SECT":" ","MAREA":"竹子\u25A0","LANE":" ","ALLEY":" ","HOUSE_NO":"２４７號之５４２","E_COORD97":178272.48999999999,"N_COORD97":2546635.2599999998,"ADDRESS":"竹子\u25A0２４７號之５４２","OBJECTID":235496},"geometry":{"x":178272.49000000022,"y":2546635.2599999998}},{"attributes":{"ID":235501,"DIS_CODE":0,"TOWNNAME":"新化區","LI":"全興里","LIN":"16鄰","STREET":" ","SECT":" ","MAREA":"竹子\u25A0","LANE":" ","ALLEY":" ","HOUSE_NO":"２４７號之５５４","E_COORD97":178244.87,"N_COORD97":2546636.2599999998,"ADDRESS":"竹子\u25A0２４７號之５５４","OBJECTID":235497},"geometry":{"x":178244.87000000197,"y":2546636.2600000035}},{"attributes":{"ID":235502,"DIS_CODE":0,"TOWNNAME":"新化區","LI":"全興里","LIN":"16鄰","STREET":" ","SECT":" ","MAREA":"竹子\u25A0","LANE":" ","ALLEY":" ","HOUSE_NO":"２４７號之６５１","E_COORD97":178264.45999999999,"N_COORD97":2546608.2599999998,"ADDRESS":"竹子\u25A0２４７號之６５１","OBJECTID":235498},"geometry":{"x":178264.46000000089,"y":2546608.2599999998}},{"attributes":{"ID":235503,"DIS_CODE":0,"TOWNNAME":"新化區","LI":"全興里","LIN":"16鄰","STREET":" ","SECT":" ","MAREA":"竹子\u25A0","LANE":" ","ALLEY":" ","HOUSE_NO":"２４７號之５４４","E_COORD97":178267.67000000001,"N_COORD97":2546635.2599999998,"ADDRESS":"竹子\u25A0２４７號之５４４","OBJECTID":235499},"geometry":{"x":178267.66999999993,"y":2546635.2599999998}},{"attributes":{"ID":235504,"DIS_CODE":0,"TOWNNAME":"新化區","LI":"全興里","LIN":"16鄰","STREET":" ","SECT":" ","MAREA":"竹子\u25A0","LANE":" ","ALLEY":" ","HOUSE_NO":"２４７號之６６９","E_COORD97":178222.57999999999,"N_COORD97":2546609.2599999998,"ADDRESS":"竹子\u25A0２４７號之６６９","OBJECTID":235500},"geometry":{"x":178222.58000000007,"y":2546609.2600000035}},{"attributes":{"ID":235505,"DIS_CODE":0,"TOWNNAME":"新化區","LI":"全興里","LIN":"16鄰","STREET":" ","SECT":" ","MAREA":"竹子\u25A0","LANE":" ","ALLEY":" ","HOUSE_NO":"２４７號之６５９","E_COORD97":178245.88,"N_COORD97":2546609.2599999998,"ADDRESS":"竹子\u25A0２４７號之６５９","OBJECTID":235501},"geometry":{"x":178245.87999999989,"y":2546609.2600000035}},{"attributes":{"ID":235506,"DIS_CODE":0,"TOWNNAME":"新化區","LI":"全興里","LIN":"16鄰","STREET":" ","SECT":" ","MAREA":"竹子\u25A0","LANE":" ","ALLEY":" ","HOUSE_NO":"２４７號之６６５","E_COORD97":178231.98999999999,"N_COORD97":2546609.2599999998,"ADDRESS":"竹子\u25A0２４７號之６６５","OBJECTID":235502},"geometry":{"x":178231.99000000022,"y":2546609.2600000035}},{"attributes":{"ID":235507,"DIS_CODE":0,"TOWNNAME":"南區","LI":"同安里","LIN":"16鄰","STREET":"明興路","SECT":" ","MAREA":" ","LANE":"１４２５巷","ALLEY":" ","HOUSE_NO":"１號","E_COORD97":166378.70000000001,"N_COORD97":2535780.3999999999,"ADDRESS":"明興路１４２５巷１號","OBJECTID":235503},"geometry":{"x":166378.70000000112,"y":2535780.4000000022}},{"attributes":{"ID":235508,"DIS_CODE":0,"TOWNNAME":"南區","LI":"同安里","LIN":"16鄰","STREET":"明興路","SECT":" ","MAREA":" ","LANE":"１４２５巷","ALLEY":" ","HOUSE_NO":"３號","E_COORD97":166381.98999999999,"N_COORD97":2535777.98,"ADDRESS":"明興路１４２５巷３號","OBJECTID":235504},"geometry":{"x":166381.99000000022,"y":2535777.9800000004}},{"attributes":{"ID":235509,"DIS_CODE":0,"TOWNNAME":"南區","LI":"同安里","LIN":"16鄰","STREET":"明興路","SECT":" ","MAREA":" ","LANE":"１４２５巷","ALLEY":" ","HOUSE_NO":"５號","E_COORD97":166386.32000000001,"N_COORD97":2535778.5,"ADDRESS":"明興路１４２５巷５號","OBJECTID":235505},"geometry":{"x":166386.32000000123,"y":2535778.5}},{"attributes":{"ID":235510,"DIS_CODE":0,"TOWNNAME":"南區","LI":"同安里","LIN":"16鄰","STREET":"明興路","SECT":" ","MAREA":" ","LANE":"１４２５巷","ALLEY":" ","HOUSE_NO":"７號","E_COORD97":166389.42999999999,"N_COORD97":2535775.04,"ADDRESS":"明興路１４２５巷７號","OBJECTID":235506},"geometry":{"x":166389.43000000156,"y":2535775.040000001}},{"attributes":{"ID":235511,"DIS_CODE":0,"TOWNNAME":"南區","LI":"同安里","LIN":"16鄰","STREET":"明興路","SECT":" ","MAREA":" ","LANE":"１４２５巷","ALLEY":" ","HOUSE_NO":"９號","E_COORD97":166393.76000000001,"N_COORD97":2535777.46,"ADDRESS":"明興路１４２５巷９號","OBJECTID":235507},"geometry":{"x":166393.75999999978,"y":2535777.4600000028}},{"attributes":{"ID":235512,"DIS_CODE":0,"TOWNNAME":"中西區","LI":"水仙里","LIN":"13鄰","STREET":"西門路","SECT":"二段","MAREA":" ","LANE":"３０７巷","ALLEY":" ","HOUSE_NO":"２３號七樓之３","E_COORD97":167903.54000000001,"N_COORD97":2544175.8300000001,"ADDRESS":"西門路二段３０７巷２３號七樓之３","OBJECTID":235508},"geometry":{"x":167903.54000000097,"y":2544175.8300000019}},{"attributes":{"ID":235513,"DIS_CODE":0,"TOWNNAME":"中西區","LI":"仙草里","LIN":"14鄰","STREET":"府緯街","SECT":" ","MAREA":" ","LANE":" ","ALLEY":" ","HOUSE_NO":"５５號四樓之２","E_COORD97":167804.88,"N_COORD97":2542699.2999999998,"ADDRESS":"府緯街５５號四樓之２","OBJECTID":235509},"geometry":{"x":167804.87999999989,"y":2542699.3000000007}},{"attributes":{"ID":235514,"DIS_CODE":0,"TOWNNAME":"南區","LI":"明亮里","LIN":"8鄰","STREET":"新都路","SECT":" ","MAREA":" ","LANE":" ","ALLEY":" ","HOUSE_NO":"４７４號","E_COORD97":167234.41,"N_COORD97":2540880.2799999998,"ADDRESS":"新都路４７４號","OBJECTID":235510},"geometry":{"x":167234.41000000108,"y":2540880.2800000012}},{"attributes":{"ID":235515,"DIS_CODE":0,"TOWNNAME":"南區","LI":"興農里","LIN":"4鄰","STREET":"明興路","SECT":" ","MAREA":" ","LANE":" ","ALLEY":" ","HOUSE_NO":"１１５２號之１","E_COORD97":166523.91,"N_COORD97":2536569.5499999998,"ADDRESS":"明興路１１５２號之１","OBJECTID":235511},"geometry":{"x":166523.91000000201,"y":2536569.5500000026}},{"attributes":{"ID":235516,"DIS_CODE":0,"TOWNNAME":"南區","LI":"佛壇里","LIN":"13鄰","STREET":"灣裡路","SECT":" ","MAREA":" ","LANE":" ","ALLEY":" ","HOUSE_NO":"５６６號","E_COORD97":166279.62,"N_COORD97":2535712.98,"ADDRESS":"灣裡路５６６號","OBJECTID":235512},"geometry":{"x":166279.62000000011,"y":2535712.9800000023}},{"attributes":{"ID":235517,"DIS_CODE":0,"TOWNNAME":"中西區","LI":"仙草里","LIN":"14鄰","STREET":"西門路","SECT":"一段","MAREA":" ","LANE":" ","ALLEY":" ","HOUSE_NO":"５０６號七樓","E_COORD97":167744.84,"N_COORD97":2542790.4700000002,"ADDRESS":"西門路一段５０６號七樓","OBJECTID":235513},"geometry":{"x":167744.84000000078,"y":2542790.4700000007}},{"attributes":{"ID":235518,"DIS_CODE":0,"TOWNNAME":"南區","LI":"同安里","LIN":"16鄰","STREET":"明興路","SECT":" ","MAREA":" ","LANE":"１４２５巷","ALLEY":" ","HOUSE_NO":"１５號","E_COORD97":166404.84,"N_COORD97":2535772.3599999999,"ADDRESS":"明興路１４２５巷１５號","OBJECTID":235514},"geometry":{"x":166404.83999999985,"y":2535772.3600000031}},{"attributes":{"ID":235519,"DIS_CODE":0,"TOWNNAME":"南區","LI":"同安里","LIN":"16鄰","STREET":"明興路","SECT":" ","MAREA":" ","LANE":"１４２５巷","ALLEY":" ","HOUSE_NO":"１９號","E_COORD97":166415.32000000001,"N_COORD97":2535772.6200000001,"ADDRESS":"明興路１４２５巷１９號","OBJECTID":235515},"geometry":{"x":166415.32000000123,"y":2535772.6200000048}},{"attributes":{"ID":235520,"DIS_CODE":0,"TOWNNAME":"南區","LI":"同安里","LIN":"16鄰","STREET":"明興路","SECT":" ","MAREA":" ","LANE":"１４２５巷","ALLEY":" ","HOUSE_NO":"２１號","E_COORD97":166418.69,"N_COORD97":2535770.8900000001,"ADDRESS":"明興路１４２５巷２１號","OBJECTID":235516},"geometry":{"x":166418.69000000041,"y":2535770.8900000025}},{"attributes":{"ID":235521,"DIS_CODE":0,"TOWNNAME":"南區","LI":"同安里","LIN":"16鄰","STREET":"明興路","SECT":" ","MAREA":" ","LANE":"１４２５巷","ALLEY":" ","HOUSE_NO":"２５號","E_COORD97":166426.82999999999,"N_COORD97":2535771.5800000001,"ADDRESS":"明興路１４２５巷２５號","OBJECTID":235517},"geometry":{"x":166426.83000000101,"y":2535771.5800000038}},{"attributes":{"ID":235522,"DIS_CODE":0,"TOWNNAME":"南區","LI":"府南里","LIN":"16鄰","STREET":"大成路","SECT":"二段","MAREA":" ","LANE":"２２３巷","ALLEY":" ","HOUSE_NO":"３號","E_COORD97":167137.23999999999,"N_COORD97":2541704.48,"ADDRESS":"大成路二段２２３巷３號","OBJECTID":235518},"geometry":{"x":167137.24000000209,"y":2541704.4800000004}},{"attributes":{"ID":235523,"DIS_CODE":0,"TOWNNAME":"東區","LI":"德光里","LIN":"16鄰","STREET":"崇德二街","SECT":" ","MAREA":" ","LANE":"７６巷","ALLEY":" ","HOUSE_NO":"７號","E_COORD97":170162.10000000001,"N_COORD97":2542400.3599999999,"ADDRESS":"崇德二街７６巷７號","OBJECTID":235519},"geometry":{"x":170162.10000000056,"y":2542400.3599999975}},{"attributes":{"ID":235524,"DIS_CODE":0,"TOWNNAME":"中西區","LI":"水仙里","LIN":"13鄰","STREET":"西門路","SECT":"二段","MAREA":" ","LANE":"３０７巷","ALLEY":" ","HOUSE_NO":"２３號七樓之４","E_COORD97":167903.54000000001,"N_COORD97":2544175.8300000001,"ADDRESS":"西門路二段３０７巷２３號七樓之４","OBJECTID":235520},"geometry":{"x":167903.54000000097,"y":2544175.8300000019}},{"attributes":{"ID":235525,"DIS_CODE":0,"TOWNNAME":"中西區","LI":"水仙里","LIN":"13鄰","STREET":"西門路","SECT":"二段","MAREA":" ","LANE":"３０７巷","ALLEY":" ","HOUSE_NO":"２３號七樓之５","E_COORD97":167903.54000000001,"N_COORD97":2544175.8300000001,"ADDRESS":"西門路二段３０７巷２３號七樓之５","OBJECTID":235521},"geometry":{"x":167903.54000000097,"y":2544175.8300000019}},{"attributes":{"ID":235526,"DIS_CODE":0,"TOWNNAME":"中西區","LI":"水仙里","LIN":"13鄰","STREET":"西門路","SECT":"二段","MAREA":" ","LANE":"３０７巷","ALLEY":" ","HOUSE_NO":"２３號七樓之６","E_COORD97":167903.54000000001,"N_COORD97":2544175.8300000001,"ADDRESS":"西門路二段３０７巷２３號七樓之６","OBJECTID":235522},"geometry":{"x":167903.54000000097,"y":2544175.8300000019}},{"attributes":{"ID":235527,"DIS_CODE":0,"TOWNNAME":"中西區","LI":"水仙里","LIN":"13鄰","STREET":"西門路","SECT":"二段","MAREA":" ","LANE":"３０７巷","ALLEY":" ","HOUSE_NO":"２３號七樓之７","E_COORD97":167903.54000000001,"N_COORD97":2544175.8300000001,"ADDRESS":"西門路二段３０７巷２３號七樓之７","OBJECTID":235523},"geometry":{"x":167903.54000000097,"y":2544175.8300000019}},{"attributes":{"ID":235528,"DIS_CODE":0,"TOWNNAME":"中西區","LI":"水仙里","LIN":"13鄰","STREET":"西門路","SECT":"二段","MAREA":" ","LANE":"３０７巷","ALLEY":" ","HOUSE_NO":"２３號七樓之８","E_COORD97":167903.54000000001,"N_COORD97":2544175.8300000001,"ADDRESS":"西門路二段３０７巷２３號七樓之８","OBJECTID":235524},"geometry":{"x":167903.54000000097,"y":2544175.8300000019}},{"attributes":{"ID":235529,"DIS_CODE":0,"TOWNNAME":"中西區","LI":"水仙里","LIN":"13鄰","STREET":"西門路","SECT":"二段","MAREA":" ","LANE":"３０７巷","ALLEY":" ","HOUSE_NO":"２３號二樓之１","E_COORD97":167903.54000000001,"N_COORD97":2544175.8300000001,"ADDRESS":"西門路二段３０７巷２３號二樓之１","OBJECTID":235525},"geometry":{"x":167903.54000000097,"y":2544175.8300000019}},{"attributes":{"ID":235530,"DIS_CODE":0,"TOWNNAME":"中西區","LI":"水仙里","LIN":"13鄰","STREET":"西門路","SECT":"二段","MAREA":" ","LANE":"３０７巷","ALLEY":" ","HOUSE_NO":"２３號二樓之２","E_COORD97":167903.54000000001,"N_COORD97":2544175.8300000001,"ADDRESS":"西門路二段３０７巷２３號二樓之２","OBJECTID":235526},"geometry":{"x":167903.54000000097,"y":2544175.8300000019}},{"attributes":{"ID":235531,"DIS_CODE":0,"TOWNNAME":"中西區","LI":"水仙里","LIN":"13鄰","STREET":"西門路","SECT":"二段","MAREA":" ","LANE":"３０７巷","ALLEY":" ","HOUSE_NO":"２３號二樓之３","E_COORD97":167903.54000000001,"N_COORD97":2544175.8300000001,"ADDRESS":"西門路二段３０７巷２３號二樓之３","OBJECTID":235527},"geometry":{"x":167903.54000000097,"y":2544175.8300000019}},{"attributes":{"ID":235532,"DIS_CODE":0,"TOWNNAME":"中西區","LI":"水仙里","LIN":"13鄰","STREET":"西門路","SECT":"二段","MAREA":" ","LANE":"３０７巷","ALLEY":" ","HOUSE_NO":"２３號二樓之４","E_COORD97":167903.54000000001,"N_COORD97":2544175.8300000001,"ADDRESS":"西門路二段３０７巷２３號二樓之４","OBJECTID":235528},"geometry":{"x":167903.54000000097,"y":2544175.8300000019}},{"attributes":{"ID":235533,"DIS_CODE":0,"TOWNNAME":"中西區","LI":"水仙里","LIN":"13鄰","STREET":"西門路","SECT":"二段","MAREA":" ","LANE":"３０７巷","ALLEY":" ","HOUSE_NO":"２３號二樓之５","E_COORD97":167903.54000000001,"N_COORD97":2544175.8300000001,"ADDRESS":"西門路二段３０７巷２３號二樓之５","OBJECTID":235529},"geometry":{"x":167903.54000000097,"y":2544175.8300000019}},{"attributes":{"ID":235534,"DIS_CODE":0,"TOWNNAME":"中西區","LI":"水仙里","LIN":"13鄰","STREET":"西門路","SECT":"二段","MAREA":" ","LANE":"３０７巷","ALLEY":" ","HOUSE_NO":"２３號二樓之６","E_COORD97":167903.54000000001,"N_COORD97":2544175.8300000001,"ADDRESS":"西門路二段３０７巷２３號二樓之６","OBJECTID":235530},"geometry":{"x":167903.54000000097,"y":2544175.8300000019}},{"attributes":{"ID":235535,"DIS_CODE":0,"TOWNNAME":"中西區","LI":"水仙里","LIN":"13鄰","STREET":"西門路","SECT":"二段","MAREA":" ","LANE":"３０７巷","ALLEY":" ","HOUSE_NO":"２３號二樓之７","E_COORD97":167903.54000000001,"N_COORD97":2544175.8300000001,"ADDRESS":"西門路二段３０７巷２３號二樓之７","OBJECTID":235531},"geometry":{"x":167903.54000000097,"y":2544175.8300000019}},{"attributes":{"ID":235536,"DIS_CODE":0,"TOWNNAME":"中西區","LI":"水仙里","LIN":"13鄰","STREET":"西門路","SECT":"二段","MAREA":" ","LANE":"３０７巷","ALLEY":" ","HOUSE_NO":"２３號三樓之１","E_COORD97":167903.54000000001,"N_COORD97":2544175.8300000001,"ADDRESS":"西門路二段３０７巷２３號三樓之１","OBJECTID":235532},"geometry":{"x":167903.54000000097,"y":2544175.8300000019}},{"attributes":{"ID":235537,"DIS_CODE":0,"TOWNNAME":"中西區","LI":"水仙里","LIN":"13鄰","STREET":"西門路","SECT":"二段","MAREA":" ","LANE":"３０７巷","ALLEY":" ","HOUSE_NO":"２３號三樓之２","E_COORD97":167903.54000000001,"N_COORD97":2544175.8300000001,"ADDRESS":"西門路二段３０７巷２３號三樓之２","OBJECTID":235533},"geometry":{"x":167903.54000000097,"y":2544175.8300000019}},{"attributes":{"ID":235538,"DIS_CODE":0,"TOWNNAME":"中西區","LI":"仙草里","LIN":"14鄰","STREET":"西門路","SECT":"一段","MAREA":" ","LANE":" ","ALLEY":" ","HOUSE_NO":"５０６號九樓","E_COORD97":167744.84,"N_COORD97":2542790.4700000002,"ADDRESS":"西門路一段５０６號九樓","OBJECTID":235534},"geometry":{"x":167744.84000000078,"y":2542790.4700000007}},{"attributes":{"ID":235539,"DIS_CODE":0,"TOWNNAME":"中西區","LI":"仙草里","LIN":"14鄰","STREET":"西門路","SECT":"一段","MAREA":" ","LANE":" ","ALLEY":" ","HOUSE_NO":"５０６號八樓","E_COORD97":167744.84,"N_COORD97":2542790.4700000002,"ADDRESS":"西門路一段５０６號八樓","OBJECTID":235535},"geometry":{"x":167744.84000000078,"y":2542790.4700000007}},{"attributes":{"ID":235540,"DIS_CODE":0,"TOWNNAME":"中西區","LI":"仙草里","LIN":"14鄰","STREET":"西門路","SECT":"一段","MAREA":" ","LANE":" ","ALLEY":" ","HOUSE_NO":"５０６號十一樓","E_COORD97":167744.84,"N_COORD97":2542790.4700000002,"ADDRESS":"西門路一段５０６號十一樓","OBJECTID":235536},"geometry":{"x":167744.84000000078,"y":2542790.4700000007}},{"attributes":{"ID":235541,"DIS_CODE":0,"TOWNNAME":"中西區","LI":"仙草里","LIN":"14鄰","STREET":"西門路","SECT":"一段","MAREA":" ","LANE":" ","ALLEY":" ","HOUSE_NO":"５０６號十二樓","E_COORD97":167744.84,"N_COORD97":2542790.4700000002,"ADDRESS":"西門路一段５０６號十二樓","OBJECTID":235537},"geometry":{"x":167744.84000000078,"y":2542790.4700000007}},{"attributes":{"ID":235542,"DIS_CODE":0,"TOWNNAME":"中西區","LI":"仙草里","LIN":"14鄰","STREET":"西門路","SECT":"一段","MAREA":" ","LANE":" ","ALLEY":" ","HOUSE_NO":"５０６號十三樓","E_COORD97":167744.84,"N_COORD97":2542790.4700000002,"ADDRESS":"西門路一段５０６號十三樓","OBJECTID":235538},"geometry":{"x":167744.84000000078,"y":2542790.4700000007}},{"attributes":{"ID":235543,"DIS_CODE":0,"TOWNNAME":"中西區","LI":"仙草里","LIN":"14鄰","STREET":"西門路","SECT":"一段","MAREA":" ","LANE":" ","ALLEY":" ","HOUSE_NO":"５０６號十五樓","E_COORD97":167744.84,"N_COORD97":2542790.4700000002,"ADDRESS":"西門路一段５０６號十五樓","OBJECTID":235539},"geometry":{"x":167744.84000000078,"y":2542790.4700000007}},{"attributes":{"ID":235544,"DIS_CODE":0,"TOWNNAME":"麻豆區","LI":"保安里","LIN":"1鄰","STREET":"中正路","SECT":" ","MAREA":" ","LANE":" ","ALLEY":" ","HOUSE_NO":"１３號","E_COORD97":173061.82000000001,"N_COORD97":2564878.9500000002,"ADDRESS":"中正路１３號","OBJECTID":235540},"geometry":{"x":173061.82000000123,"y":2564878.9500000011}},{"attributes":{"ID":235545,"DIS_CODE":0,"TOWNNAME":"東區","LI":"德光里","LIN":"16鄰","STREET":"崇德二街","SECT":" ","MAREA":" ","LANE":"７６巷","ALLEY":" ","HOUSE_NO":"２３號","E_COORD97":170192.57999999999,"N_COORD97":2542377.5800000001,"ADDRESS":"崇德二街７６巷２３號","OBJECTID":235541},"geometry":{"x":170192.58000000007,"y":2542377.5800000019}},{"attributes":{"ID":235546,"DIS_CODE":0,"TOWNNAME":"東區","LI":"德光里","LIN":"16鄰","STREET":"崇德二街","SECT":" ","MAREA":" ","LANE":"７６巷","ALLEY":" ","HOUSE_NO":"２５號","E_COORD97":170195.60999999999,"N_COORD97":2542374.3599999999,"ADDRESS":"崇德二街７６巷２５號","OBJECTID":235542},"geometry":{"x":170195.61000000034,"y":2542374.3600000013}},{"attributes":{"ID":235547,"DIS_CODE":0,"TOWNNAME":"東區","LI":"德光里","LIN":"16鄰","STREET":"崇德二街","SECT":" ","MAREA":" ","LANE":"７６巷","ALLEY":" ","HOUSE_NO":"２７號","E_COORD97":170198.64000000001,"N_COORD97":2542371.9399999999,"ADDRESS":"崇德二街７６巷２７號","OBJECTID":235543},"geometry":{"x":170198.63999999873,"y":2542371.9399999995}},{"attributes":{"ID":235548,"DIS_CODE":0,"TOWNNAME":"東區","LI":"德光里","LIN":"16鄰","STREET":"崇德二街","SECT":" ","MAREA":" ","LANE":"７６巷","ALLEY":" ","HOUSE_NO":"２９號","E_COORD97":170201.67000000001,"N_COORD97":2542368.5099999998,"ADDRESS":"崇德二街７６巷２９號","OBJECTID":235544},"geometry":{"x":170201.66999999993,"y":2542368.5099999998}},{"attributes":{"ID":235549,"DIS_CODE":0,"TOWNNAME":"東區","LI":"德光里","LIN":"16鄰","STREET":"崇德二街","SECT":" ","MAREA":" ","LANE":"７６巷","ALLEY":" ","HOUSE_NO":"３１號","E_COORD97":170205.10000000001,"N_COORD97":2542366.0899999999,"ADDRESS":"崇德二街７６巷３１號","OBJECTID":235545},"geometry":{"x":170205.09999999963,"y":2542366.0900000017}},{"attributes":{"ID":235550,"DIS_CODE":0,"TOWNNAME":"東區","LI":"德光里","LIN":"16鄰","STREET":"崇德二街","SECT":" ","MAREA":" ","LANE":"７６巷","ALLEY":" ","HOUSE_NO":"３３號","E_COORD97":170208.73000000001,"N_COORD97":2542363.4700000002,"ADDRESS":"崇德二街７６巷３３號","OBJECTID":235546},"geometry":{"x":170208.73000000045,"y":2542363.4700000007}},{"attributes":{"ID":235551,"DIS_CODE":0,"TOWNNAME":"東區","LI":"德光里","LIN":"16鄰","STREET":"崇德二街","SECT":" ","MAREA":" ","LANE":"７６巷","ALLEY":" ","HOUSE_NO":"３５號","E_COORD97":170212.37,"N_COORD97":2542361.2599999998,"ADDRESS":"崇德二街７６巷３５號","OBJECTID":235547},"geometry":{"x":170212.37000000011,"y":2542361.2600000016}},{"attributes":{"ID":235552,"DIS_CODE":0,"TOWNNAME":"東區","LI":"德光里","LIN":"16鄰","STREET":"崇德二街","SECT":" ","MAREA":" ","LANE":"７６巷","ALLEY":" ","HOUSE_NO":"３號","E_COORD97":170154.64000000001,"N_COORD97":2542405.2000000002,"ADDRESS":"崇德二街７６巷３號","OBJECTID":235548},"geometry":{"x":170154.64000000153,"y":2542405.2000000011}},{"attributes":{"ID":235553,"DIS_CODE":0,"TOWNNAME":"東區","LI":"德光里","LIN":"16鄰","STREET":"崇德二街","SECT":" ","MAREA":" ","LANE":"７６巷","ALLEY":" ","HOUSE_NO":"５號","E_COORD97":170158.87,"N_COORD97":2542402.7799999998,"ADDRESS":"崇德二街７６巷５號","OBJECTID":235549},"geometry":{"x":170158.87000000104,"y":2542402.7799999993}},{"attributes":{"ID":235554,"DIS_CODE":0,"TOWNNAME":"中西區","LI":"水仙里","LIN":"13鄰","STREET":"西門路","SECT":"二段","MAREA":" ","LANE":"３０７巷","ALLEY":" ","HOUSE_NO":"２３號三樓之３","E_COORD97":167903.54000000001,"N_COORD97":2544175.8300000001,"ADDRESS":"西門路二段３０７巷２３號三樓之３","OBJECTID":235550},"geometry":{"x":167903.54000000097,"y":2544175.8300000019}},{"attributes":{"ID":235555,"DIS_CODE":0,"TOWNNAME":"中西區","LI":"水仙里","LIN":"13鄰","STREET":"西門路","SECT":"二段","MAREA":" ","LANE":"３０７巷","ALLEY":" ","HOUSE_NO":"２３號三樓之４","E_COORD97":167903.54000000001,"N_COORD97":2544175.8300000001,"ADDRESS":"西門路二段３０７巷２３號三樓之４","OBJECTID":235551},"geometry":{"x":167903.54000000097,"y":2544175.8300000019}},{"attributes":{"ID":235556,"DIS_CODE":0,"TOWNNAME":"中西區","LI":"水仙里","LIN":"13鄰","STREET":"西門路","SECT":"二段","MAREA":" ","LANE":"３０７巷","ALLEY":" ","HOUSE_NO":"２３號三樓之５","E_COORD97":167903.54000000001,"N_COORD97":2544175.8300000001,"ADDRESS":"西門路二段３０７巷２３號三樓之５","OBJECTID":235552},"geometry":{"x":167903.54000000097,"y":2544175.8300000019}},{"attributes":{"ID":235557,"DIS_CODE":0,"TOWNNAME":"中西區","LI":"水仙里","LIN":"13鄰","STREET":"西門路","SECT":"二段","MAREA":" ","LANE":"３０７巷","ALLEY":" ","HOUSE_NO":"２３號三樓之６","E_COORD97":167903.54000000001,"N_COORD97":2544175.8300000001,"ADDRESS":"西門路二段３０７巷２３號三樓之６","OBJECTID":235553},"geometry":{"x":167903.54000000097,"y":2544175.8300000019}},{"attributes":{"ID":235558,"DIS_CODE":0,"TOWNNAME":"中西區","LI":"水仙里","LIN":"13鄰","STREET":"西門路","SECT":"二段","MAREA":" ","LANE":"３０７巷","ALLEY":" ","HOUSE_NO":"２３號三樓之７","E_COORD97":167903.54000000001,"N_COORD97":2544175.8300000001,"ADDRESS":"西門路二段３０７巷２３號三樓之７","OBJECTID":235554},"geometry":{"x":167903.54000000097,"y":2544175.8300000019}},{"attributes":{"ID":235559,"DIS_CODE":0,"TOWNNAME":"中西區","LI":"水仙里","LIN":"13鄰","STREET":"西門路","SECT":"二段","MAREA":" ","LANE":"３０７巷","ALLEY":" ","HOUSE_NO":"２３號五樓之１","E_COORD97":167903.54000000001,"N_COORD97":2544175.8300000001,"ADDRESS":"西門路二段３０７巷２３號五樓之１","OBJECTID":235555},"geometry":{"x":167903.54000000097,"y":2544175.8300000019}},{"attributes":{"ID":235560,"DIS_CODE":0,"TOWNNAME":"中西區","LI":"水仙里","LIN":"13鄰","STREET":"西門路","SECT":"二段","MAREA":" ","LANE":"３０７巷","ALLEY":" ","HOUSE_NO":"２３號五樓之２","E_COORD97":167903.54000000001,"N_COORD97":2544175.8300000001,"ADDRESS":"西門路二段３０７巷２３號五樓之２","OBJECTID":235556},"geometry":{"x":167903.54000000097,"y":2544175.8300000019}},{"attributes":{"ID":235561,"DIS_CODE":0,"TOWNNAME":"中西區","LI":"水仙里","LIN":"13鄰","STREET":"西門路","SECT":"二段","MAREA":" ","LANE":"３０７巷","ALLEY":" ","HOUSE_NO":"２３號五樓之３","E_COORD97":167903.54000000001,"N_COORD97":2544175.8300000001,"ADDRESS":"西門路二段３０７巷２３號五樓之３","OBJECTID":235557},"geometry":{"x":167903.54000000097,"y":2544175.8300000019}},{"attributes":{"ID":235562,"DIS_CODE":0,"TOWNNAME":"中西區","LI":"公正里","LIN":"17鄰","STREET":"衛民街","SECT":" ","MAREA":" ","LANE":"１２４巷","ALLEY":" ","HOUSE_NO":"８號","E_COORD97":168847.19,"N_COORD97":2543786.6000000001,"ADDRESS":"衛民街１２４巷８號","OBJECTID":235558},"geometry":{"x":168847.19000000134,"y":2543786.6000000015}},{"attributes":{"ID":235563,"DIS_CODE":0,"TOWNNAME":"中西區","LI":"仙草里","LIN":"14鄰","STREET":"西門路","SECT":"一段","MAREA":" ","LANE":" ","ALLEY":" ","HOUSE_NO":"５０６號十四樓","E_COORD97":167744.84,"N_COORD97":2542790.4700000002,"ADDRESS":"西門路一段５０６號十四樓","OBJECTID":235559},"geometry":{"x":167744.84000000078,"y":2542790.4700000007}},{"attributes":{"ID":235564,"DIS_CODE":0,"TOWNNAME":"中西區","LI":"仙草里","LIN":"14鄰","STREET":"西門路","SECT":"一段","MAREA":" ","LANE":" ","ALLEY":" ","HOUSE_NO":"５０６號十樓","E_COORD97":167744.84,"N_COORD97":2542790.4700000002,"ADDRESS":"西門路一段５０６號十樓","OBJECTID":235560},"geometry":{"x":167744.84000000078,"y":2542790.4700000007}},{"attributes":{"ID":235565,"DIS_CODE":0,"TOWNNAME":"中西區","LI":"仙草里","LIN":"14鄰","STREET":"西門路","SECT":"一段","MAREA":" ","LANE":" ","ALLEY":" ","HOUSE_NO":"５０６號三樓","E_COORD97":167744.84,"N_COORD97":2542790.4700000002,"ADDRESS":"西門路一段５０６號三樓","OBJECTID":235561},"geometry":{"x":167744.84000000078,"y":2542790.4700000007}},{"attributes":{"ID":235566,"DIS_CODE":0,"TOWNNAME":"中西區","LI":"仙草里","LIN":"14鄰","STREET":"西門路","SECT":"一段","MAREA":" ","LANE":" ","ALLEY":" ","HOUSE_NO":"５０６號五樓","E_COORD97":167744.84,"N_COORD97":2542790.4700000002,"ADDRESS":"西門路一段５０６號五樓","OBJECTID":235562},"geometry":{"x":167744.84000000078,"y":2542790.4700000007}},{"attributes":{"ID":235567,"DIS_CODE":0,"TOWNNAME":"中西區","LI":"仙草里","LIN":"14鄰","STREET":"西門路","SECT":"一段","MAREA":" ","LANE":" ","ALLEY":" ","HOUSE_NO":"５０６號六樓","E_COORD97":167744.84,"N_COORD97":2542790.4700000002,"ADDRESS":"西門路一段５０６號六樓","OBJECTID":235563},"geometry":{"x":167744.84000000078,"y":2542790.4700000007}},{"attributes":{"ID":235568,"DIS_CODE":0,"TOWNNAME":"中西區","LI":"仙草里","LIN":"14鄰","STREET":"西門路","SECT":"一段","MAREA":" ","LANE":" ","ALLEY":" ","HOUSE_NO":"５０６號四樓","E_COORD97":167744.84,"N_COORD97":2542790.4700000002,"ADDRESS":"西門路一段５０６號四樓","OBJECTID":235564},"geometry":{"x":167744.84000000078,"y":2542790.4700000007}},{"attributes":{"ID":235569,"DIS_CODE":0,"TOWNNAME":"仁德區","LI":"仁德里","LIN":"14鄰","STREET":"四維街","SECT":" ","MAREA":" ","LANE":" ","ALLEY":" ","HOUSE_NO":"６號","E_COORD97":173321.86107499999,"N_COORD97":2541537.6858399999,"ADDRESS":"四維街６號","OBJECTID":235565},"geometry":{"x":173321.86107500084,"y":2541537.6858409997}},{"attributes":{"ID":235570,"DIS_CODE":0,"TOWNNAME":"南區","LI":"白雪里","LIN":"4鄰","STREET":"利南街","SECT":" ","MAREA":" ","LANE":" ","ALLEY":" ","HOUSE_NO":"５３號","E_COORD97":166816.35999999999,"N_COORD97":2541159.7400000002,"ADDRESS":"利南街５３號","OBJECTID":235566},"geometry":{"x":166816.36000000127,"y":2541159.7400000002}},{"attributes":{"ID":235571,"DIS_CODE":0,"TOWNNAME":"中西區","LI":"水仙里","LIN":"13鄰","STREET":"西門路","SECT":"二段","MAREA":" ","LANE":"３０７巷","ALLEY":" ","HOUSE_NO":"２３號五樓之４","E_COORD97":167903.54000000001,"N_COORD97":2544175.8300000001,"ADDRESS":"西門路二段３０７巷２３號五樓之４","OBJECTID":235567},"geometry":{"x":167903.54000000097,"y":2544175.8300000019}},{"attributes":{"ID":235572,"DIS_CODE":0,"TOWNNAME":"中西區","LI":"水仙里","LIN":"13鄰","STREET":"西門路","SECT":"二段","MAREA":" ","LANE":"３０７巷","ALLEY":" ","HOUSE_NO":"２３號五樓之５","E_COORD97":167903.54000000001,"N_COORD97":2544175.8300000001,"ADDRESS":"西門路二段３０７巷２３號五樓之５","OBJECTID":235568},"geometry":{"x":167903.54000000097,"y":2544175.8300000019}},{"attributes":{"ID":235573,"DIS_CODE":0,"TOWNNAME":"中西區","LI":"水仙里","LIN":"13鄰","STREET":"西門路","SECT":"二段","MAREA":" ","LANE":"３０７巷","ALLEY":" ","HOUSE_NO":"２３號五樓之６","E_COORD97":167903.54000000001,"N_COORD97":2544175.8300000001,"ADDRESS":"西門路二段３０７巷２３號五樓之６","OBJECTID":235569},"geometry":{"x":167903.54000000097,"y":2544175.8300000019}},{"attributes":{"ID":235574,"DIS_CODE":0,"TOWNNAME":"中西區","LI":"水仙里","LIN":"13鄰","STREET":"西門路","SECT":"二段","MAREA":" ","LANE":"３０７巷","ALLEY":" ","HOUSE_NO":"２３號五樓之７","E_COORD97":167903.54000000001,"N_COORD97":2544175.8300000001,"ADDRESS":"西門路二段３０７巷２３號五樓之７","OBJECTID":235570},"geometry":{"x":167903.54000000097,"y":2544175.8300000019}},{"attributes":{"ID":235575,"DIS_CODE":0,"TOWNNAME":"中西區","LI":"水仙里","LIN":"13鄰","STREET":"西門路","SECT":"二段","MAREA":" ","LANE":"３０７巷","ALLEY":" ","HOUSE_NO":"２３號五樓之８","E_COORD97":167903.54000000001,"N_COORD97":2544175.8300000001,"ADDRESS":"西門路二段３０７巷２３號五樓之８","OBJECTID":235571},"geometry":{"x":167903.54000000097,"y":2544175.8300000019}},{"attributes":{"ID":235576,"DIS_CODE":0,"TOWNNAME":"中西區","LI":"水仙里","LIN":"13鄰","STREET":"西門路","SECT":"二段","MAREA":" ","LANE":"３０７巷","ALLEY":" ","HOUSE_NO":"２３號六樓之１","E_COORD97":167903.54000000001,"N_COORD97":2544175.8300000001,"ADDRESS":"西門路二段３０７巷２３號六樓之１","OBJECTID":235572},"geometry":{"x":167903.54000000097,"y":2544175.8300000019}},{"attributes":{"ID":235577,"DIS_CODE":0,"TOWNNAME":"中西區","LI":"水仙里","LIN":"13鄰","STREET":"西門路","SECT":"二段","MAREA":" ","LANE":"３０７巷","ALLEY":" ","HOUSE_NO":"２３號六樓之２","E_COORD97":167903.54000000001,"N_COORD97":2544175.8300000001,"ADDRESS":"西門路二段３０７巷２３號六樓之２","OBJECTID":235573},"geometry":{"x":167903.54000000097,"y":2544175.8300000019}},{"attributes":{"ID":235578,"DIS_CODE":0,"TOWNNAME":"中西區","LI":"水仙里","LIN":"13鄰","STREET":"西門路","SECT":"二段","MAREA":" ","LANE":"３０７巷","ALLEY":" ","HOUSE_NO":"２３號六樓之３","E_COORD97":167903.54000000001,"N_COORD97":2544175.8300000001,"ADDRESS":"西門路二段３０７巷２３號六樓之３","OBJECTID":235574},"geometry":{"x":167903.54000000097,"y":2544175.8300000019}},{"attributes":{"ID":235579,"DIS_CODE":0,"TOWNNAME":"中西區","LI":"水仙里","LIN":"13鄰","STREET":"西門路","SECT":"二段","MAREA":" ","LANE":"３０７巷","ALLEY":" ","HOUSE_NO":"２３號六樓之４","E_COORD97":167903.54000000001,"N_COORD97":2544175.8300000001,"ADDRESS":"西門路二段３０７巷２３號六樓之４","OBJECTID":235575},"geometry":{"x":167903.54000000097,"y":2544175.8300000019}},{"attributes":{"ID":235580,"DIS_CODE":0,"TOWNNAME":"中西區","LI":"水仙里","LIN":"13鄰","STREET":"西門路","SECT":"二段","MAREA":" ","LANE":"３０７巷","ALLEY":" ","HOUSE_NO":"２３號六樓之５","E_COORD97":167903.54000000001,"N_COORD97":2544175.8300000001,"ADDRESS":"西門路二段３０７巷２３號六樓之５","OBJECTID":235576},"geometry":{"x":167903.54000000097,"y":2544175.8300000019}},{"attributes":{"ID":235581,"DIS_CODE":0,"TOWNNAME":"中西區","LI":"水仙里","LIN":"13鄰","STREET":"西門路","SECT":"二段","MAREA":" ","LANE":"３０７巷","ALLEY":" ","HOUSE_NO":"２３號六樓之６","E_COORD97":167903.54000000001,"N_COORD97":2544175.8300000001,"ADDRESS":"西門路二段３０７巷２３號六樓之６","OBJECTID":235577},"geometry":{"x":167903.54000000097,"y":2544175.8300000019}},{"attributes":{"ID":235582,"DIS_CODE":0,"TOWNNAME":"中西區","LI":"水仙里","LIN":"13鄰","STREET":"西門路","SECT":"二段","MAREA":" ","LANE":"３０７巷","ALLEY":" ","HOUSE_NO":"２３號六樓之７","E_COORD97":167903.54000000001,"N_COORD97":2544175.8300000001,"ADDRESS":"西門路二段３０７巷２３號六樓之７","OBJECTID":235578},"geometry":{"x":167903.54000000097,"y":2544175.8300000019}},{"attributes":{"ID":235583,"DIS_CODE":0,"TOWNNAME":"中西區","LI":"水仙里","LIN":"13鄰","STREET":"西門路","SECT":"二段","MAREA":" ","LANE":"３０７巷","ALLEY":" ","HOUSE_NO":"２３號六樓之８","E_COORD97":167903.54000000001,"N_COORD97":2544175.8300000001,"ADDRESS":"西門路二段３０７巷２３號六樓之８","OBJECTID":235579},"geometry":{"x":167903.54000000097,"y":2544175.8300000019}},{"attributes":{"ID":235584,"DIS_CODE":0,"TOWNNAME":"中西區","LI":"水仙里","LIN":"13鄰","STREET":"西門路","SECT":"二段","MAREA":" ","LANE":"３０７巷","ALLEY":" ","HOUSE_NO":"２３號四樓之１","E_COORD97":167903.54000000001,"N_COORD97":2544175.8300000001,"ADDRESS":"西門路二段３０７巷２３號四樓之１","OBJECTID":235580},"geometry":{"x":167903.54000000097,"y":2544175.8300000019}},{"attributes":{"ID":235585,"DIS_CODE":0,"TOWNNAME":"中西區","LI":"水仙里","LIN":"13鄰","STREET":"西門路","SECT":"二段","MAREA":" ","LANE":"３０７巷","ALLEY":" ","HOUSE_NO":"２３號四樓之２","E_COORD97":167903.54000000001,"N_COORD97":2544175.8300000001,"ADDRESS":"西門路二段３０７巷２３號四樓之２","OBJECTID":235581},"geometry":{"x":167903.54000000097,"y":2544175.8300000019}},{"attributes":{"ID":235586,"DIS_CODE":0,"TOWNNAME":"中西區","LI":"水仙里","LIN":"13鄰","STREET":"西門路","SECT":"二段","MAREA":" ","LANE":"３０７巷","ALLEY":" ","HOUSE_NO":"２３號四樓之３","E_COORD97":167903.54000000001,"N_COORD97":2544175.8300000001,"ADDRESS":"西門路二段３０７巷２３號四樓之３","OBJECTID":235582},"geometry":{"x":167903.54000000097,"y":2544175.8300000019}},{"attributes":{"ID":235587,"DIS_CODE":0,"TOWNNAME":"中西區","LI":"水仙里","LIN":"13鄰","STREET":"西門路","SECT":"二段","MAREA":" ","LANE":"３０７巷","ALLEY":" ","HOUSE_NO":"２３號四樓之４","E_COORD97":167903.54000000001,"N_COORD97":2544175.8300000001,"ADDRESS":"西門路二段３０７巷２３號四樓之４","OBJECTID":235583},"geometry":{"x":167903.54000000097,"y":2544175.8300000019}},{"attributes":{"ID":235588,"DIS_CODE":0,"TOWNNAME":"中西區","LI":"水仙里","LIN":"13鄰","STREET":"西門路","SECT":"二段","MAREA":" ","LANE":"３０７巷","ALLEY":" ","HOUSE_NO":"２３號四樓之５","E_COORD97":167903.54000000001,"N_COORD97":2544175.8300000001,"ADDRESS":"西門路二段３０７巷２３號四樓之５","OBJECTID":235584},"geometry":{"x":167903.54000000097,"y":2544175.8300000019}},{"attributes":{"ID":235589,"DIS_CODE":0,"TOWNNAME":"中西區","LI":"水仙里","LIN":"13鄰","STREET":"西門路","SECT":"二段","MAREA":" ","LANE":"３０７巷","ALLEY":" ","HOUSE_NO":"２３號四樓之６","E_COORD97":167903.54000000001,"N_COORD97":2544175.8300000001,"ADDRESS":"西門路二段３０７巷２３號四樓之６","OBJECTID":235585},"geometry":{"x":167903.54000000097,"y":2544175.8300000019}},{"attributes":{"ID":235590,"DIS_CODE":0,"TOWNNAME":"南區","LI":"文南里","LIN":"14鄰","STREET":"永南街","SECT":" ","MAREA":" ","LANE":" ","ALLEY":" ","HOUSE_NO":"４９號","E_COORD97":166811.94,"N_COORD97":2542711.23,"ADDRESS":"永南街４９號","OBJECTID":235586},"geometry":{"x":166811.94000000041,"y":2542711.2300000042}},{"attributes":{"ID":235591,"DIS_CODE":0,"TOWNNAME":"佳里區","LI":"民安里","LIN":"16鄰","STREET":" ","SECT":" ","MAREA":"新宅","LANE":" ","ALLEY":" ","HOUSE_NO":"４３號之１","E_COORD97":167515.73000000001,"N_COORD97":2564687.8799999999,"ADDRESS":"新宅４３號之１","OBJECTID":235587},"geometry":{"x":167515.73000000138,"y":2564687.879999999}},{"attributes":{"ID":235592,"DIS_CODE":0,"TOWNNAME":"安南區","LI":"城南里","LIN":"16鄰","STREET":"青砂街","SECT":"一段","MAREA":" ","LANE":"１４５巷","ALLEY":" ","HOUSE_NO":"１之５號","E_COORD97":160468.73000000001,"N_COORD97":2551761.7400000002,"ADDRESS":"青砂街一段１４５巷１之５號","OBJECTID":235588},"geometry":{"x":160468.73000000138,"y":2551761.7400000002}},{"attributes":{"ID":235593,"DIS_CODE":0,"TOWNNAME":"仁德區","LI":"一甲里","LIN":"16鄰","STREET":"中清路","SECT":" ","MAREA":" ","LANE":"２５５巷","ALLEY":" ","HOUSE_NO":"１５號","E_COORD97":173702.70000000001,"N_COORD97":2541772.0499999998,"ADDRESS":"中清路２５５巷１５號","OBJECTID":235589},"geometry":{"x":173702.70000000019,"y":2541772.0500000007}},{"attributes":{"ID":235594,"DIS_CODE":0,"TOWNNAME":"仁德區","LI":"一甲里","LIN":"16鄰","STREET":"中清路","SECT":" ","MAREA":" ","LANE":"２５５巷","ALLEY":" ","HOUSE_NO":"８號","E_COORD97":173695.25,"N_COORD97":2541785.7999999998,"ADDRESS":"中清路２５５巷８號","OBJECTID":235590},"geometry":{"x":173695.25,"y":2541785.8000000026}},{"attributes":{"ID":235595,"DIS_CODE":0,"TOWNNAME":"仁德區","LI":"太子里","LIN":"16鄰","STREET":"長興四街","SECT":" ","MAREA":" ","LANE":"２３巷","ALLEY":" ","HOUSE_NO":"８號","E_COORD97":174062.10000000001,"N_COORD97":2543626.5099999998,"ADDRESS":"長興四街２３巷８號","OBJECTID":235591},"geometry":{"x":174062.09999999963,"y":2543626.5099999998}},{"attributes":{"ID":235596,"DIS_CODE":0,"TOWNNAME":"永康區","LI":"永康里","LIN":"16鄰","STREET":"永中街","SECT":" ","MAREA":" ","LANE":"１００巷","ALLEY":" ","HOUSE_NO":"３號","E_COORD97":173969.48000000001,"N_COORD97":2547203.4900000002,"ADDRESS":"永中街１００巷３號","OBJECTID":235592},"geometry":{"x":173969.48000000138,"y":2547203.4900000002}},{"attributes":{"ID":235597,"DIS_CODE":0,"TOWNNAME":"中西區","LI":"水仙里","LIN":"13鄰","STREET":"西門路","SECT":"二段","MAREA":" ","LANE":"３０７巷","ALLEY":" ","HOUSE_NO":"９號二樓之１","E_COORD97":167930.26999999999,"N_COORD97":2544146.48,"ADDRESS":"西門路二段３０７巷９號二樓之１","OBJECTID":235593},"geometry":{"x":167930.27000000048,"y":2544146.4800000004}},{"attributes":{"ID":235598,"DIS_CODE":0,"TOWNNAME":"南區","LI":"文南里","LIN":"14鄰","STREET":"永南街","SECT":" ","MAREA":" ","LANE":" ","ALLEY":" ","HOUSE_NO":"５１號","E_COORD97":166812.89000000001,"N_COORD97":2542716.9300000002,"ADDRESS":"永南街５１號","OBJECTID":235594},"geometry":{"x":166812.88999999966,"y":2542716.9300000016}},{"attributes":{"ID":235599,"DIS_CODE":0,"TOWNNAME":"善化區","LI":"東關里","LIN":"14鄰","STREET":"中和街","SECT":" ","MAREA":" ","LANE":" ","ALLEY":" ","HOUSE_NO":"３０號五樓","E_COORD97":177417.28,"N_COORD97":2558998,"ADDRESS":"中和街３０號五樓","OBJECTID":235595},"geometry":{"x":177417.28000000119,"y":2558998}},{"attributes":{"ID":235600,"DIS_CODE":0,"TOWNNAME":"西港區","LI":"慶安里","LIN":"14鄰","STREET":"進學街","SECT":" ","MAREA":" ","LANE":" ","ALLEY":" ","HOUSE_NO":"９５號七樓之１","E_COORD97":168020.51999999999,"N_COORD97":2558028.7200000002,"ADDRESS":"進學街９５號七樓之１","OBJECTID":235596},"geometry":{"x":168020.51999999955,"y":2558028.7200000007}},{"attributes":{"ID":235601,"DIS_CODE":0,"TOWNNAME":"西港區","LI":"慶安里","LIN":"14鄰","STREET":"進學街","SECT":" ","MAREA":" ","LANE":" ","ALLEY":" ","HOUSE_NO":"９５號七樓之２","E_COORD97":168020.51999999999,"N_COORD97":2558028.7200000002,"ADDRESS":"進學街９５號七樓之２","OBJECTID":235597},"geometry":{"x":168020.51999999955,"y":2558028.7200000007}},{"attributes":{"ID":235602,"DIS_CODE":0,"TOWNNAME":"佳里區","LI":"民安里","LIN":"16鄰","STREET":" ","SECT":" ","MAREA":"新宅","LANE":" ","ALLEY":" ","HOUSE_NO":"４２號之１","E_COORD97":167506.79000000001,"N_COORD97":2564726.79,"ADDRESS":"新宅４２號之１","OBJECTID":235598},"geometry":{"x":167506.79000000097,"y":2564726.790000001}},{"attributes":{"ID":235603,"DIS_CODE":0,"TOWNNAME":"仁德區","LI":"成功里","LIN":"16鄰","STREET":"全福路","SECT":" ","MAREA":" ","LANE":"７５巷","ALLEY":" ","HOUSE_NO":"２０號","E_COORD97":171042.12,"N_COORD97":2539369.5,"ADDRESS":"全福路７５巷２０號","OBJECTID":235599},"geometry":{"x":171042.12000000104,"y":2539369.5000000037}},{"attributes":{"ID":235604,"DIS_CODE":0,"TOWNNAME":"仁德區","LI":"太子里","LIN":"16鄰","STREET":"長興四街","SECT":" ","MAREA":" ","LANE":"２３巷","ALLEY":" ","HOUSE_NO":"３號","E_COORD97":174060.82000000001,"N_COORD97":2543648.0099999998,"ADDRESS":"長興四街２３巷３號","OBJECTID":235600},"geometry":{"x":174060.8200000003,"y":2543648.0100000016}}]}