{"displayFieldName":"TOWNNAME","fieldAliases":{"ID":"ID","DIS_CODE":"DIS_CODE","TOWNNAME":"TOWNNAME","LI":"LI","LIN":"LIN","STREET":"STREET","SECT":"SECT","MAREA":"MAREA","LANE":"LANE","ALLEY":"ALLEY","HOUSE_NO":"HOUSE_NO","E_COORD97":"E_COORD97","N_COORD97":"N_COORD97","ADDRESS":"ADDRESS","OBJECTID":"OBJECTID"},"geometryType":"esriGeometryPoint","spatialReference":{"wkid":102443,"latestWkid":3826},"fields":[{"name":"ID","type":"esriFieldTypeDouble","alias":"ID"},{"name":"DIS_CODE","type":"esriFieldTypeInteger","alias":"DIS_CODE"},{"name":"TOWNNAME","type":"esriFieldTypeString","alias":"TOWNNAME","length":8},{"name":"LI","type":"esriFieldTypeString","alias":"LI","length":8},{"name":"LIN","type":"esriFieldTypeString","alias":"LIN","length":12},{"name":"STREET","type":"esriFieldTypeString","alias":"STREET","length":20},{"name":"SECT","type":"esriFieldTypeString","alias":"SECT","length":8},{"name":"MAREA","type":"esriFieldTypeString","alias":"MAREA","length":12},{"name":"LANE","type":"esriFieldTypeString","alias":"LANE","length":10},{"name":"ALLEY","type":"esriFieldTypeString","alias":"ALLEY","length":10},{"name":"HOUSE_NO","type":"esriFieldTypeString","alias":"HOUSE_NO","length":20},{"name":"E_COORD97","type":"esriFieldTypeDouble","alias":"E_COORD97"},{"name":"N_COORD97","type":"esriFieldTypeDouble","alias":"N_COORD97"},{"name":"ADDRESS","type":"esriFieldTypeString","alias":"ADDRESS","length":50},{"name":"OBJECTID","type":"esriFieldTypeOID","alias":"OBJECTID"}],"features":[{"attributes":{"ID":216602,"DIS_CODE":0,"TOWNNAME":"六甲區","LI":"甲東里","LIN":"29鄰","STREET":"裕農街","SECT":" ","MAREA":" ","LANE":"２２巷","ALLEY":"４１弄","HOUSE_NO":"１４號","E_COORD97":184184.81,"N_COORD97":2569552.6800000002,"ADDRESS":"裕農街２２巷４１弄１４號","OBJECTID":216601},"geometry":{"x":184184.81000000052,"y":2569552.6800000016}},{"attributes":{"ID":216603,"DIS_CODE":0,"TOWNNAME":"六甲區","LI":"甲東里","LIN":"29鄰","STREET":"裕農街","SECT":" ","MAREA":" ","LANE":"２２巷","ALLEY":"４１弄","HOUSE_NO":"１８號","E_COORD97":184199.59,"N_COORD97":2569574.3500000001,"ADDRESS":"裕農街２２巷４１弄１８號","OBJECTID":216602},"geometry":{"x":184199.58999999985,"y":2569574.3499999996}},{"attributes":{"ID":216604,"DIS_CODE":0,"TOWNNAME":"六甲區","LI":"甲東里","LIN":"29鄰","STREET":"裕農街","SECT":" ","MAREA":" ","LANE":"２２巷","ALLEY":"４１弄","HOUSE_NO":"６號","E_COORD97":184155.70000000001,"N_COORD97":2569524.29,"ADDRESS":"裕農街２２巷４１弄６號","OBJECTID":216603},"geometry":{"x":184155.70000000112,"y":2569524.290000001}},{"attributes":{"ID":216605,"DIS_CODE":0,"TOWNNAME":"六甲區","LI":"甲東里","LIN":"29鄰","STREET":"裕農街","SECT":" ","MAREA":" ","LANE":"２２巷","ALLEY":"４１弄","HOUSE_NO":"８號","E_COORD97":184163.04000000001,"N_COORD97":2569531.48,"ADDRESS":"裕農街２２巷４１弄８號","OBJECTID":216604},"geometry":{"x":184163.0400000019,"y":2569531.4800000023}},{"attributes":{"ID":216606,"DIS_CODE":0,"TOWNNAME":"六甲區","LI":"甲東里","LIN":"29鄰","STREET":"裕農街","SECT":" ","MAREA":" ","LANE":"２２巷","ALLEY":"４２弄","HOUSE_NO":"１號","E_COORD97":184132.07000000001,"N_COORD97":2569476.9399999999,"ADDRESS":"裕農街２２巷４２弄１號","OBJECTID":216605},"geometry":{"x":184132.0700000003,"y":2569476.9400000013}},{"attributes":{"ID":216607,"DIS_CODE":0,"TOWNNAME":"六甲區","LI":"甲東里","LIN":"29鄰","STREET":"裕農街","SECT":" ","MAREA":" ","LANE":"２２巷","ALLEY":"４２弄","HOUSE_NO":"２７號","E_COORD97":184089.87,"N_COORD97":2569385.3300000001,"ADDRESS":"裕農街２２巷４２弄２７號","OBJECTID":216606},"geometry":{"x":184089.87000000197,"y":2569385.3299999982}},{"attributes":{"ID":216608,"DIS_CODE":0,"TOWNNAME":"六甲區","LI":"甲東里","LIN":"29鄰","STREET":"裕農街","SECT":" ","MAREA":" ","LANE":"２２巷","ALLEY":"４３弄","HOUSE_NO":"６號","E_COORD97":184184.98999999999,"N_COORD97":2569507.3300000001,"ADDRESS":"裕農街２２巷４３弄６號","OBJECTID":216607},"geometry":{"x":184184.99000000022,"y":2569507.3299999982}},{"attributes":{"ID":216609,"DIS_CODE":0,"TOWNNAME":"六甲區","LI":"甲東里","LIN":"29鄰","STREET":"裕農街","SECT":" ","MAREA":" ","LANE":"２２巷","ALLEY":"４６弄","HOUSE_NO":"７號","E_COORD97":184159.95000000001,"N_COORD97":2569453.7799999998,"ADDRESS":"裕農街２２巷４６弄７號","OBJECTID":216608},"geometry":{"x":184159.95000000019,"y":2569453.7800000012}},{"attributes":{"ID":216610,"DIS_CODE":0,"TOWNNAME":"將軍區","LI":"保源里","LIN":"2鄰","STREET":" ","SECT":" ","MAREA":"苓保","LANE":" ","ALLEY":" ","HOUSE_NO":"１８號","E_COORD97":164599.17999999999,"N_COORD97":2568836.1099999999,"ADDRESS":"苓保１８號","OBJECTID":216609},"geometry":{"x":164599.1799999997,"y":2568836.1099999994}},{"attributes":{"ID":216611,"DIS_CODE":0,"TOWNNAME":"新營區","LI":"民生里","LIN":"29鄰","STREET":"民治路","SECT":" ","MAREA":" ","LANE":"１８３巷","ALLEY":"６弄","HOUSE_NO":"５號","E_COORD97":178834.82999999999,"N_COORD97":2578407.71,"ADDRESS":"民治路１８３巷６弄５號","OBJECTID":216610},"geometry":{"x":178834.83000000194,"y":2578407.7100000009}},{"attributes":{"ID":216612,"DIS_CODE":0,"TOWNNAME":"東區","LI":"東智里","LIN":"12鄰","STREET":"崇德路","SECT":" ","MAREA":" ","LANE":" ","ALLEY":" ","HOUSE_NO":"９５０之６號","E_COORD97":170747.5,"N_COORD97":2540112.5299999998,"ADDRESS":"崇德路９５０之６號","OBJECTID":216611},"geometry":{"x":170747.49999999907,"y":2540112.5300000012}},{"attributes":{"ID":216613,"DIS_CODE":0,"TOWNNAME":"將軍區","LI":"長榮里","LIN":"2鄰","STREET":" ","SECT":" ","MAREA":"長榮","LANE":" ","ALLEY":" ","HOUSE_NO":"２８號","E_COORD97":163843.98000000001,"N_COORD97":2566368.9900000002,"ADDRESS":"長榮２８號","OBJECTID":216612},"geometry":{"x":163843.98000000138,"y":2566368.9900000002}},{"attributes":{"ID":216614,"DIS_CODE":0,"TOWNNAME":"將軍區","LI":"長榮里","LIN":"2鄰","STREET":" ","SECT":" ","MAREA":"長榮","LANE":" ","ALLEY":" ","HOUSE_NO":"２９號","E_COORD97":163843.12,"N_COORD97":2566364.6000000001,"ADDRESS":"長榮２９號","OBJECTID":216613},"geometry":{"x":163843.12000000104,"y":2566364.5999999996}},{"attributes":{"ID":216615,"DIS_CODE":0,"TOWNNAME":"將軍區","LI":"長榮里","LIN":"2鄰","STREET":" ","SECT":" ","MAREA":"長榮","LANE":" ","ALLEY":" ","HOUSE_NO":"３０號","E_COORD97":163866.01999999999,"N_COORD97":2566365.6200000001,"ADDRESS":"長榮３０號","OBJECTID":216614},"geometry":{"x":163866.01999999955,"y":2566365.620000001}},{"attributes":{"ID":216616,"DIS_CODE":0,"TOWNNAME":"將軍區","LI":"長榮里","LIN":"2鄰","STREET":" ","SECT":" ","MAREA":"長榮","LANE":" ","ALLEY":" ","HOUSE_NO":"３１號","E_COORD97":163869.48000000001,"N_COORD97":2566386.1800000002,"ADDRESS":"長榮３１號","OBJECTID":216615},"geometry":{"x":163869.48000000138,"y":2566386.1800000016}},{"attributes":{"ID":216617,"DIS_CODE":0,"TOWNNAME":"將軍區","LI":"長榮里","LIN":"2鄰","STREET":" ","SECT":" ","MAREA":"長榮","LANE":" ","ALLEY":" ","HOUSE_NO":"３３號","E_COORD97":163910.48000000001,"N_COORD97":2566400.0099999998,"ADDRESS":"長榮３３號","OBJECTID":216616},"geometry":{"x":163910.48000000138,"y":2566400.0099999998}},{"attributes":{"ID":216618,"DIS_CODE":0,"TOWNNAME":"將軍區","LI":"長榮里","LIN":"2鄰","STREET":" ","SECT":" ","MAREA":"長榮","LANE":" ","ALLEY":" ","HOUSE_NO":"３５號","E_COORD97":163910.38,"N_COORD97":2566364.5600000001,"ADDRESS":"長榮３５號","OBJECTID":216617},"geometry":{"x":163910.38000000082,"y":2566364.5600000024}},{"attributes":{"ID":216619,"DIS_CODE":0,"TOWNNAME":"將軍區","LI":"苓和里","LIN":"2鄰","STREET":" ","SECT":" ","MAREA":"苓和","LANE":" ","ALLEY":" ","HOUSE_NO":"１１之１０號","E_COORD97":164740.95000000001,"N_COORD97":2569041.29,"ADDRESS":"苓和１１之１０號","OBJECTID":216618},"geometry":{"x":164740.95000000112,"y":2569041.2899999991}},{"attributes":{"ID":216620,"DIS_CODE":0,"TOWNNAME":"將軍區","LI":"苓和里","LIN":"2鄰","STREET":" ","SECT":" ","MAREA":"苓和","LANE":" ","ALLEY":" ","HOUSE_NO":"１１之１號","E_COORD97":164723.28,"N_COORD97":2569022.8100000001,"ADDRESS":"苓和１１之１號","OBJECTID":216619},"geometry":{"x":164723.28000000119,"y":2569022.8100000005}},{"attributes":{"ID":216621,"DIS_CODE":0,"TOWNNAME":"將軍區","LI":"苓和里","LIN":"2鄰","STREET":" ","SECT":" ","MAREA":"苓和","LANE":" ","ALLEY":" ","HOUSE_NO":"１１之６號","E_COORD97":164741.87,"N_COORD97":2569021.8500000001,"ADDRESS":"苓和１１之６號","OBJECTID":216620},"geometry":{"x":164741.87000000011,"y":2569021.8499999996}},{"attributes":{"ID":216622,"DIS_CODE":0,"TOWNNAME":"將軍區","LI":"苓和里","LIN":"2鄰","STREET":" ","SECT":" ","MAREA":"苓和","LANE":" ","ALLEY":" ","HOUSE_NO":"１１之７號","E_COORD97":164742.01999999999,"N_COORD97":2569025.52,"ADDRESS":"苓和１１之７號","OBJECTID":216621},"geometry":{"x":164742.01999999955,"y":2569025.5200000014}},{"attributes":{"ID":216623,"DIS_CODE":0,"TOWNNAME":"將軍區","LI":"苓和里","LIN":"2鄰","STREET":" ","SECT":" ","MAREA":"苓和","LANE":" ","ALLEY":" ","HOUSE_NO":"１１之８號","E_COORD97":164741.51999999999,"N_COORD97":2569030.0800000001,"ADDRESS":"苓和１１之８號","OBJECTID":216622},"geometry":{"x":164741.52000000048,"y":2569030.0800000001}},{"attributes":{"ID":216624,"DIS_CODE":0,"TOWNNAME":"北區","LI":"和順里","LIN":"29鄰","STREET":"臨安路","SECT":"二段","MAREA":" ","LANE":"１９５巷","ALLEY":"２６弄","HOUSE_NO":"２號","E_COORD97":167912.70999999999,"N_COORD97":2545051.1200000001,"ADDRESS":"臨安路二段１９５巷２６弄２號","OBJECTID":216623},"geometry":{"x":167912.70999999996,"y":2545051.120000001}},{"attributes":{"ID":216625,"DIS_CODE":0,"TOWNNAME":"北區","LI":"和順里","LIN":"29鄰","STREET":"臨安路","SECT":"二段","MAREA":" ","LANE":"１９５巷","ALLEY":"２６弄","HOUSE_NO":"６號","E_COORD97":167917.56,"N_COORD97":2545050.9399999999,"ADDRESS":"臨安路二段１９５巷２６弄６號","OBJECTID":216624},"geometry":{"x":167917.56000000145,"y":2545050.9399999995}},{"attributes":{"ID":216626,"DIS_CODE":0,"TOWNNAME":"北區","LI":"和順里","LIN":"29鄰","STREET":"臨安路","SECT":"二段","MAREA":" ","LANE":"１９５巷","ALLEY":"２６弄","HOUSE_NO":"８號","E_COORD97":167922.59,"N_COORD97":2545051.1200000001,"ADDRESS":"臨安路二段１９５巷２６弄８號","OBJECTID":216625},"geometry":{"x":167922.59000000171,"y":2545051.120000001}},{"attributes":{"ID":216627,"DIS_CODE":0,"TOWNNAME":"將軍區","LI":"苓和里","LIN":"2鄰","STREET":" ","SECT":" ","MAREA":"苓和","LANE":" ","ALLEY":" ","HOUSE_NO":"１１之９號","E_COORD97":164741.10000000001,"N_COORD97":2569034.6699999999,"ADDRESS":"苓和１１之９號","OBJECTID":216626},"geometry":{"x":164741.10000000056,"y":2569034.6700000018}},{"attributes":{"ID":216628,"DIS_CODE":0,"TOWNNAME":"北區","LI":"和順里","LIN":"29鄰","STREET":"臨安路","SECT":"二段","MAREA":" ","LANE":"１９５巷","ALLEY":"２６弄","HOUSE_NO":"１０號","E_COORD97":167930.04999999999,"N_COORD97":2545051.3100000001,"ADDRESS":"臨安路二段１９５巷２６弄１０號","OBJECTID":216627},"geometry":{"x":167930.05000000075,"y":2545051.3100000024}},{"attributes":{"ID":216629,"DIS_CODE":0,"TOWNNAME":"仁德區","LI":"仁義里","LIN":"37鄰","STREET":"仁義六街","SECT":" ","MAREA":" ","LANE":" ","ALLEY":" ","HOUSE_NO":"２５號六樓之３","E_COORD97":173575.32999999999,"N_COORD97":2540158.54,"ADDRESS":"仁義六街２５號六樓之３","OBJECTID":216628},"geometry":{"x":173575.33000000101,"y":2540158.540000001}},{"attributes":{"ID":216630,"DIS_CODE":0,"TOWNNAME":"將軍區","LI":"苓和里","LIN":"2鄰","STREET":" ","SECT":" ","MAREA":"苓和","LANE":" ","ALLEY":" ","HOUSE_NO":"１２之１號","E_COORD97":164726.78,"N_COORD97":2568994.1600000001,"ADDRESS":"苓和１２之１號","OBJECTID":216629},"geometry":{"x":164726.78000000119,"y":2568994.160000002}},{"attributes":{"ID":216631,"DIS_CODE":0,"TOWNNAME":"將軍區","LI":"苓和里","LIN":"2鄰","STREET":" ","SECT":" ","MAREA":"苓和","LANE":" ","ALLEY":" ","HOUSE_NO":"１３之２號","E_COORD97":164693.45000000001,"N_COORD97":2569005.25,"ADDRESS":"苓和１３之２號","OBJECTID":216630},"geometry":{"x":164693.45000000112,"y":2569005.25}},{"attributes":{"ID":216632,"DIS_CODE":0,"TOWNNAME":"北區","LI":"和順里","LIN":"29鄰","STREET":"臨安路","SECT":"二段","MAREA":" ","LANE":"１９５巷","ALLEY":"２６弄","HOUSE_NO":"１號","E_COORD97":167912.51999999999,"N_COORD97":2545066.0299999998,"ADDRESS":"臨安路二段１９５巷２６弄１號","OBJECTID":216631},"geometry":{"x":167912.51999999862,"y":2545066.0299999993}},{"attributes":{"ID":216633,"DIS_CODE":0,"TOWNNAME":"北區","LI":"和順里","LIN":"29鄰","STREET":"臨安路","SECT":"二段","MAREA":" ","LANE":"１９５巷","ALLEY":"２６弄","HOUSE_NO":"３號","E_COORD97":167917.75,"N_COORD97":2545066.5800000001,"ADDRESS":"臨安路二段１９５巷２６弄３號","OBJECTID":216632},"geometry":{"x":167917.75,"y":2545066.5800000001}},{"attributes":{"ID":216634,"DIS_CODE":0,"TOWNNAME":"北區","LI":"和順里","LIN":"29鄰","STREET":"臨安路","SECT":"二段","MAREA":" ","LANE":"１９５巷","ALLEY":"２６弄","HOUSE_NO":"５號","E_COORD97":167922.78,"N_COORD97":2545066.3999999999,"ADDRESS":"臨安路二段１９５巷２６弄５號","OBJECTID":216633},"geometry":{"x":167922.78000000026,"y":2545066.4000000041}},{"attributes":{"ID":216635,"DIS_CODE":0,"TOWNNAME":"北區","LI":"和順里","LIN":"29鄰","STREET":"臨安路","SECT":"二段","MAREA":" ","LANE":"１９５巷","ALLEY":"２６弄","HOUSE_NO":"７號","E_COORD97":167928.19,"N_COORD97":2545066.5800000001,"ADDRESS":"臨安路二段１９５巷２６弄７號","OBJECTID":216634},"geometry":{"x":167928.19000000134,"y":2545066.5800000001}},{"attributes":{"ID":216636,"DIS_CODE":0,"TOWNNAME":"北區","LI":"和順里","LIN":"29鄰","STREET":"臨安路","SECT":"二段","MAREA":" ","LANE":"１９５巷","ALLEY":"３２弄","HOUSE_NO":"２號","E_COORD97":167912.14999999999,"N_COORD97":2545078.6899999999,"ADDRESS":"臨安路二段１９５巷３２弄２號","OBJECTID":216635},"geometry":{"x":167912.15000000037,"y":2545078.6899999995}},{"attributes":{"ID":216637,"DIS_CODE":0,"TOWNNAME":"北區","LI":"和順里","LIN":"29鄰","STREET":"臨安路","SECT":"二段","MAREA":" ","LANE":"１９５巷","ALLEY":"３２弄","HOUSE_NO":"６號","E_COORD97":167916.63,"N_COORD97":2545078.8799999999,"ADDRESS":"臨安路二段１９５巷３２弄６號","OBJECTID":216636},"geometry":{"x":167916.62999999989,"y":2545078.8800000008}},{"attributes":{"ID":216638,"DIS_CODE":0,"TOWNNAME":"北區","LI":"和順里","LIN":"29鄰","STREET":"臨安路","SECT":"二段","MAREA":" ","LANE":"１９５巷","ALLEY":"３２弄","HOUSE_NO":"８號","E_COORD97":167920.54000000001,"N_COORD97":2545079.25,"ADDRESS":"臨安路二段１９５巷３２弄８號","OBJECTID":216637},"geometry":{"x":167920.54000000097,"y":2545079.25}},{"attributes":{"ID":216639,"DIS_CODE":0,"TOWNNAME":"北區","LI":"和順里","LIN":"29鄰","STREET":"臨安路","SECT":"二段","MAREA":" ","LANE":"１９５巷","ALLEY":"３２弄","HOUSE_NO":"１０號","E_COORD97":167925.76000000001,"N_COORD97":2545079.0600000001,"ADDRESS":"臨安路二段１９５巷３２弄１０號","OBJECTID":216638},"geometry":{"x":167925.75999999978,"y":2545079.0600000042}},{"attributes":{"ID":216640,"DIS_CODE":0,"TOWNNAME":"北區","LI":"和順里","LIN":"29鄰","STREET":"臨安路","SECT":"二段","MAREA":" ","LANE":"１４３巷","ALLEY":"８０弄","HOUSE_NO":"２號","E_COORD97":167776.09,"N_COORD97":2545051.4500000002,"ADDRESS":"臨安路二段１４３巷８０弄２號","OBJECTID":216639},"geometry":{"x":167776.08999999985,"y":2545051.4500000011}},{"attributes":{"ID":216641,"DIS_CODE":0,"TOWNNAME":"北區","LI":"和順里","LIN":"29鄰","STREET":"臨安路","SECT":"二段","MAREA":" ","LANE":"１４３巷","ALLEY":"８０弄","HOUSE_NO":"６號","E_COORD97":167778.75,"N_COORD97":2545046.8199999998,"ADDRESS":"臨安路二段１４３巷８０弄６號","OBJECTID":216640},"geometry":{"x":167778.75,"y":2545046.8200000022}},{"attributes":{"ID":216642,"DIS_CODE":0,"TOWNNAME":"北區","LI":"和順里","LIN":"29鄰","STREET":"臨安路","SECT":"二段","MAREA":" ","LANE":"１４３巷","ALLEY":"８０弄","HOUSE_NO":"８號","E_COORD97":167784.07000000001,"N_COORD97":2545046.9700000002,"ADDRESS":"臨安路二段１４３巷８０弄８號","OBJECTID":216641},"geometry":{"x":167784.0700000003,"y":2545046.9700000025}},{"attributes":{"ID":216643,"DIS_CODE":0,"TOWNNAME":"北區","LI":"和順里","LIN":"29鄰","STREET":"臨安路","SECT":"二段","MAREA":" ","LANE":"１４３巷","ALLEY":"８０弄","HOUSE_NO":"１０號","E_COORD97":167789.07999999999,"N_COORD97":2545047.1299999999,"ADDRESS":"臨安路二段１４３巷８０弄１０號","OBJECTID":216642},"geometry":{"x":167789.08000000194,"y":2545047.1300000008}},{"attributes":{"ID":216644,"DIS_CODE":0,"TOWNNAME":"北區","LI":"和順里","LIN":"29鄰","STREET":"臨安路","SECT":"二段","MAREA":" ","LANE":"１４３巷","ALLEY":"８０弄","HOUSE_NO":"１２號","E_COORD97":167793.47,"N_COORD97":2545047.4399999999,"ADDRESS":"臨安路二段１４３巷８０弄１２號","OBJECTID":216643},"geometry":{"x":167793.47000000067,"y":2545047.4399999995}},{"attributes":{"ID":216645,"DIS_CODE":0,"TOWNNAME":"北區","LI":"和順里","LIN":"29鄰","STREET":"臨安路","SECT":"二段","MAREA":" ","LANE":"１４３巷","ALLEY":"８０弄","HOUSE_NO":"１６號","E_COORD97":167798.16,"N_COORD97":2545047.6000000001,"ADDRESS":"臨安路二段１４３巷８０弄１６號","OBJECTID":216644},"geometry":{"x":167798.16000000015,"y":2545047.6000000015}},{"attributes":{"ID":216646,"DIS_CODE":0,"TOWNNAME":"將軍區","LI":"苓和里","LIN":"2鄰","STREET":" ","SECT":" ","MAREA":"苓和","LANE":" ","ALLEY":" ","HOUSE_NO":"１３號","E_COORD97":164712.06,"N_COORD97":2568991.9700000002,"ADDRESS":"苓和１３號","OBJECTID":216645},"geometry":{"x":164712.06000000052,"y":2568991.9700000044}},{"attributes":{"ID":216647,"DIS_CODE":0,"TOWNNAME":"北區","LI":"和順里","LIN":"29鄰","STREET":"臨安路","SECT":"二段","MAREA":" ","LANE":"１４３巷","ALLEY":"８０弄","HOUSE_NO":"１８號","E_COORD97":167802.85999999999,"N_COORD97":2545047.6000000001,"ADDRESS":"臨安路二段１４３巷８０弄１８號","OBJECTID":216646},"geometry":{"x":167802.86000000127,"y":2545047.6000000015}},{"attributes":{"ID":216648,"DIS_CODE":0,"TOWNNAME":"永康區","LI":"龍潭里","LIN":"29鄰","STREET":"中山北路","SECT":" ","MAREA":" ","LANE":" ","ALLEY":" ","HOUSE_NO":"３５５號","E_COORD97":174793.26000000001,"N_COORD97":2547701.4100000001,"ADDRESS":"中山北路３５５號","OBJECTID":216647},"geometry":{"x":174793.25999999978,"y":2547701.410000002}},{"attributes":{"ID":216649,"DIS_CODE":0,"TOWNNAME":"北區","LI":"和順里","LIN":"29鄰","STREET":"臨安路","SECT":"二段","MAREA":" ","LANE":"１４３巷","ALLEY":"８０弄","HOUSE_NO":"２０號","E_COORD97":167807.72,"N_COORD97":2545047.7599999998,"ADDRESS":"臨安路二段１４３巷８０弄２０號","OBJECTID":216648},"geometry":{"x":167807.71999999974,"y":2545047.7600000016}},{"attributes":{"ID":216650,"DIS_CODE":0,"TOWNNAME":"北區","LI":"和順里","LIN":"29鄰","STREET":"臨安路","SECT":"二段","MAREA":" ","LANE":"１４３巷","ALLEY":"８０弄","HOUSE_NO":"２２號","E_COORD97":167812.41,"N_COORD97":2545048.0699999998,"ADDRESS":"臨安路二段１４３巷８０弄２２號","OBJECTID":216649},"geometry":{"x":167812.41000000201,"y":2545048.070000004}},{"attributes":{"ID":216651,"DIS_CODE":0,"TOWNNAME":"北區","LI":"和順里","LIN":"29鄰","STREET":"臨安路","SECT":"二段","MAREA":" ","LANE":"１４３巷","ALLEY":"８０弄","HOUSE_NO":"２６號","E_COORD97":167817.10999999999,"N_COORD97":2545048.0699999998,"ADDRESS":"臨安路二段１４３巷８０弄２６號","OBJECTID":216650},"geometry":{"x":167817.11000000034,"y":2545048.070000004}},{"attributes":{"ID":216652,"DIS_CODE":0,"TOWNNAME":"北區","LI":"和順里","LIN":"29鄰","STREET":"臨安路","SECT":"二段","MAREA":" ","LANE":"１４３巷","ALLEY":"８０弄","HOUSE_NO":"２８號","E_COORD97":167821.95999999999,"N_COORD97":2545048.0699999998,"ADDRESS":"臨安路二段１４３巷８０弄２８號","OBJECTID":216651},"geometry":{"x":167821.96000000183,"y":2545048.070000004}},{"attributes":{"ID":216653,"DIS_CODE":0,"TOWNNAME":"北區","LI":"和順里","LIN":"29鄰","STREET":"臨安路","SECT":"二段","MAREA":" ","LANE":"１４３巷","ALLEY":"８０弄","HOUSE_NO":"３０號","E_COORD97":167826.51000000001,"N_COORD97":2545048.23,"ADDRESS":"臨安路二段１４３巷８０弄３０號","OBJECTID":216652},"geometry":{"x":167826.51000000164,"y":2545048.2300000023}},{"attributes":{"ID":216654,"DIS_CODE":0,"TOWNNAME":"北區","LI":"和順里","LIN":"29鄰","STREET":"臨安路","SECT":"二段","MAREA":" ","LANE":"１４３巷","ALLEY":"８０弄","HOUSE_NO":"３２號","E_COORD97":167830.89000000001,"N_COORD97":2545048.3799999999,"ADDRESS":"臨安路二段１４３巷８０弄３２號","OBJECTID":216653},"geometry":{"x":167830.8900000006,"y":2545048.3800000008}},{"attributes":{"ID":216655,"DIS_CODE":0,"TOWNNAME":"北區","LI":"和順里","LIN":"29鄰","STREET":"臨安路","SECT":"二段","MAREA":" ","LANE":"１４３巷","ALLEY":"８０弄","HOUSE_NO":"３６號","E_COORD97":167835.73999999999,"N_COORD97":2545048.54,"ADDRESS":"臨安路二段１４３巷８０弄３６號","OBJECTID":216654},"geometry":{"x":167835.74000000115,"y":2545048.540000001}},{"attributes":{"ID":216656,"DIS_CODE":0,"TOWNNAME":"將軍區","LI":"苓和里","LIN":"2鄰","STREET":" ","SECT":" ","MAREA":"苓和","LANE":" ","ALLEY":" ","HOUSE_NO":"１４號","E_COORD97":164690.57999999999,"N_COORD97":2569022.1899999999,"ADDRESS":"苓和１４號","OBJECTID":216655},"geometry":{"x":164690.58000000101,"y":2569022.1899999995}},{"attributes":{"ID":216657,"DIS_CODE":0,"TOWNNAME":"將軍區","LI":"苓和里","LIN":"2鄰","STREET":" ","SECT":" ","MAREA":"苓和","LANE":" ","ALLEY":" ","HOUSE_NO":"１５號","E_COORD97":164675.48000000001,"N_COORD97":2569025.5099999998,"ADDRESS":"苓和１５號","OBJECTID":216656},"geometry":{"x":164675.48000000045,"y":2569025.5100000016}},{"attributes":{"ID":216658,"DIS_CODE":0,"TOWNNAME":"北區","LI":"和順里","LIN":"29鄰","STREET":"臨安路","SECT":"二段","MAREA":" ","LANE":"１４３巷","ALLEY":"８０弄","HOUSE_NO":"３８號","E_COORD97":167840.60000000001,"N_COORD97":2545048.54,"ADDRESS":"臨安路二段１４３巷８０弄３８號","OBJECTID":216657},"geometry":{"x":167840.59999999963,"y":2545048.540000001}},{"attributes":{"ID":216659,"DIS_CODE":0,"TOWNNAME":"北區","LI":"和順里","LIN":"29鄰","STREET":"臨安路","SECT":"二段","MAREA":" ","LANE":"１４３巷","ALLEY":"８０弄","HOUSE_NO":"４０號","E_COORD97":167845.29000000001,"N_COORD97":2545049.0099999998,"ADDRESS":"臨安路二段１４３巷８０弄４０號","OBJECTID":216658},"geometry":{"x":167845.2900000019,"y":2545049.0100000016}},{"attributes":{"ID":216660,"DIS_CODE":0,"TOWNNAME":"將軍區","LI":"苓和里","LIN":"2鄰","STREET":" ","SECT":" ","MAREA":"苓和","LANE":" ","ALLEY":" ","HOUSE_NO":"１６之１號","E_COORD97":164660.07999999999,"N_COORD97":2569011.2000000002,"ADDRESS":"苓和１６之１號","OBJECTID":216659},"geometry":{"x":164660.08000000101,"y":2569011.1999999993}},{"attributes":{"ID":216661,"DIS_CODE":0,"TOWNNAME":"將軍區","LI":"苓和里","LIN":"2鄰","STREET":" ","SECT":" ","MAREA":"苓和","LANE":" ","ALLEY":" ","HOUSE_NO":"１７之１號","E_COORD97":164677.5,"N_COORD97":2568987.71,"ADDRESS":"苓和１７之１號","OBJECTID":216660},"geometry":{"x":164677.50000000093,"y":2568987.7100000028}},{"attributes":{"ID":216662,"DIS_CODE":0,"TOWNNAME":"將軍區","LI":"苓和里","LIN":"2鄰","STREET":" ","SECT":" ","MAREA":"苓和","LANE":" ","ALLEY":" ","HOUSE_NO":"１７號","E_COORD97":164662.56,"N_COORD97":2568998.75,"ADDRESS":"苓和１７號","OBJECTID":216661},"geometry":{"x":164662.55999999959,"y":2568998.75}},{"attributes":{"ID":216663,"DIS_CODE":0,"TOWNNAME":"歸仁區","LI":"大潭里","LIN":"3鄰","STREET":"長榮路","SECT":"一段","MAREA":" ","LANE":"６１３巷","ALLEY":" ","HOUSE_NO":"４０號","E_COORD97":176045.12651900001,"N_COORD97":2534718.9517999999,"ADDRESS":"長榮路一段６１３巷４０號","OBJECTID":216662},"geometry":{"x":176045.12651900109,"y":2534718.9518030006}},{"attributes":{"ID":216664,"DIS_CODE":0,"TOWNNAME":"將軍區","LI":"苓和里","LIN":"2鄰","STREET":" ","SECT":" ","MAREA":"苓和","LANE":" ","ALLEY":" ","HOUSE_NO":"１８號","E_COORD97":164667.23999999999,"N_COORD97":2568967.1800000002,"ADDRESS":"苓和１８號","OBJECTID":216663},"geometry":{"x":164667.24000000209,"y":2568967.1800000016}},{"attributes":{"ID":216665,"DIS_CODE":0,"TOWNNAME":"將軍區","LI":"苓和里","LIN":"2鄰","STREET":" ","SECT":" ","MAREA":"苓和","LANE":" ","ALLEY":" ","HOUSE_NO":"１９號","E_COORD97":164680.23999999999,"N_COORD97":2568971.6299999999,"ADDRESS":"苓和１９號","OBJECTID":216664},"geometry":{"x":164680.24000000022,"y":2568971.629999999}},{"attributes":{"ID":216666,"DIS_CODE":0,"TOWNNAME":"將軍區","LI":"苓和里","LIN":"2鄰","STREET":" ","SECT":" ","MAREA":"苓和","LANE":" ","ALLEY":" ","HOUSE_NO":"２０號","E_COORD97":164697.89999999999,"N_COORD97":2568972.3199999998,"ADDRESS":"苓和２０號","OBJECTID":216665},"geometry":{"x":164697.90000000037,"y":2568972.320000004}},{"attributes":{"ID":216667,"DIS_CODE":0,"TOWNNAME":"將軍區","LI":"保源里","LIN":"2鄰","STREET":" ","SECT":" ","MAREA":"苓保","LANE":" ","ALLEY":" ","HOUSE_NO":"１１號","E_COORD97":164651.91,"N_COORD97":2568827.3300000001,"ADDRESS":"苓保１１號","OBJECTID":216666},"geometry":{"x":164651.91000000015,"y":2568827.3300000019}},{"attributes":{"ID":216668,"DIS_CODE":0,"TOWNNAME":"將軍區","LI":"保源里","LIN":"2鄰","STREET":" ","SECT":" ","MAREA":"苓保","LANE":" ","ALLEY":" ","HOUSE_NO":"１２號","E_COORD97":164646.20999999999,"N_COORD97":2568854.8300000001,"ADDRESS":"苓保１２號","OBJECTID":216667},"geometry":{"x":164646.20999999996,"y":2568854.8300000019}},{"attributes":{"ID":216669,"DIS_CODE":0,"TOWNNAME":"將軍區","LI":"保源里","LIN":"2鄰","STREET":" ","SECT":" ","MAREA":"苓保","LANE":" ","ALLEY":" ","HOUSE_NO":"１３之１號","E_COORD97":164611.84,"N_COORD97":2568871.75,"ADDRESS":"苓保１３之１號","OBJECTID":216668},"geometry":{"x":164611.83999999892,"y":2568871.7500000019}},{"attributes":{"ID":216670,"DIS_CODE":0,"TOWNNAME":"將軍區","LI":"保源里","LIN":"2鄰","STREET":" ","SECT":" ","MAREA":"苓保","LANE":" ","ALLEY":" ","HOUSE_NO":"１３之２號","E_COORD97":164607.29000000001,"N_COORD97":2568871.1400000001,"ADDRESS":"苓保１３之２號","OBJECTID":216669},"geometry":{"x":164607.28999999911,"y":2568871.1400000006}},{"attributes":{"ID":216671,"DIS_CODE":0,"TOWNNAME":"將軍區","LI":"保源里","LIN":"2鄰","STREET":" ","SECT":" ","MAREA":"苓保","LANE":" ","ALLEY":" ","HOUSE_NO":"１３之７號","E_COORD97":164586.48000000001,"N_COORD97":2568871.9900000002,"ADDRESS":"苓保１３之７號","OBJECTID":216670},"geometry":{"x":164586.48000000138,"y":2568871.9900000002}},{"attributes":{"ID":216672,"DIS_CODE":0,"TOWNNAME":"將軍區","LI":"保源里","LIN":"2鄰","STREET":" ","SECT":" ","MAREA":"苓保","LANE":" ","ALLEY":" ","HOUSE_NO":"１３號","E_COORD97":164615.89999999999,"N_COORD97":2568871.7400000002,"ADDRESS":"苓保１３號","OBJECTID":216671},"geometry":{"x":164615.9000000013,"y":2568871.7400000021}},{"attributes":{"ID":216673,"DIS_CODE":0,"TOWNNAME":"將軍區","LI":"保源里","LIN":"2鄰","STREET":" ","SECT":" ","MAREA":"苓保","LANE":" ","ALLEY":" ","HOUSE_NO":"１４號","E_COORD97":164631.06,"N_COORD97":2568842,"ADDRESS":"苓保１４號","OBJECTID":216672},"geometry":{"x":164631.06000000052,"y":2568842.0000000037}},{"attributes":{"ID":216674,"DIS_CODE":0,"TOWNNAME":"將軍區","LI":"保源里","LIN":"2鄰","STREET":" ","SECT":" ","MAREA":"苓保","LANE":" ","ALLEY":" ","HOUSE_NO":"１５號","E_COORD97":164633.76999999999,"N_COORD97":2568824.8599999999,"ADDRESS":"苓保１５號","OBJECTID":216673},"geometry":{"x":164633.76999999955,"y":2568824.8599999994}},{"attributes":{"ID":216675,"DIS_CODE":0,"TOWNNAME":"將軍區","LI":"保源里","LIN":"2鄰","STREET":" ","SECT":" ","MAREA":"苓保","LANE":" ","ALLEY":" ","HOUSE_NO":"１６之１號","E_COORD97":164615.03,"N_COORD97":2568819.98,"ADDRESS":"苓保１６之１號","OBJECTID":216674},"geometry":{"x":164615.03000000119,"y":2568819.9800000023}},{"attributes":{"ID":216676,"DIS_CODE":0,"TOWNNAME":"將軍區","LI":"保源里","LIN":"2鄰","STREET":" ","SECT":" ","MAREA":"苓保","LANE":" ","ALLEY":" ","HOUSE_NO":"１６之２號","E_COORD97":164624.04000000001,"N_COORD97":2568803.9700000002,"ADDRESS":"苓保１６之２號","OBJECTID":216675},"geometry":{"x":164624.04000000004,"y":2568803.9700000007}},{"attributes":{"ID":216677,"DIS_CODE":0,"TOWNNAME":"將軍區","LI":"保源里","LIN":"2鄰","STREET":" ","SECT":" ","MAREA":"苓保","LANE":" ","ALLEY":" ","HOUSE_NO":"１６號","E_COORD97":164620.89999999999,"N_COORD97":2568820.7400000002,"ADDRESS":"苓保１６號","OBJECTID":216676},"geometry":{"x":164620.9000000013,"y":2568820.7400000021}},{"attributes":{"ID":216678,"DIS_CODE":0,"TOWNNAME":"將軍區","LI":"保源里","LIN":"2鄰","STREET":" ","SECT":" ","MAREA":"苓保","LANE":" ","ALLEY":" ","HOUSE_NO":"１９號","E_COORD97":164601.89999999999,"N_COORD97":2568807.3199999998,"ADDRESS":"苓保１９號","OBJECTID":216677},"geometry":{"x":164601.90000000224,"y":2568807.3200000022}},{"attributes":{"ID":216679,"DIS_CODE":0,"TOWNNAME":"將軍區","LI":"保源里","LIN":"2鄰","STREET":" ","SECT":" ","MAREA":"苓保","LANE":" ","ALLEY":" ","HOUSE_NO":"２０號","E_COORD97":164584.59,"N_COORD97":2568797.8399999999,"ADDRESS":"苓保２０號","OBJECTID":216678},"geometry":{"x":164584.58999999985,"y":2568797.8399999999}},{"attributes":{"ID":216680,"DIS_CODE":0,"TOWNNAME":"永康區","LI":"\u25A0行里","LIN":"8鄰","STREET":"中正一街","SECT":" ","MAREA":" ","LANE":" ","ALLEY":" ","HOUSE_NO":"３３號","E_COORD97":172759.92999999999,"N_COORD97":2548374.25,"ADDRESS":"中正一街３３號","OBJECTID":216679},"geometry":{"x":172759.93000000156,"y":2548374.25}},{"attributes":{"ID":216681,"DIS_CODE":0,"TOWNNAME":"北區","LI":"和順里","LIN":"29鄰","STREET":"臨安路","SECT":"二段","MAREA":" ","LANE":"１４３巷","ALLEY":"８０弄","HOUSE_NO":"４２號","E_COORD97":167850.14999999999,"N_COORD97":2545049.1600000001,"ADDRESS":"臨安路二段１４３巷８０弄４２號","OBJECTID":216680},"geometry":{"x":167850.1500000013,"y":2545049.1600000001}},{"attributes":{"ID":216682,"DIS_CODE":0,"TOWNNAME":"將軍區","LI":"保源里","LIN":"2鄰","STREET":" ","SECT":" ","MAREA":"苓保","LANE":" ","ALLEY":" ","HOUSE_NO":"２１號","E_COORD97":164582.17999999999,"N_COORD97":2568813.23,"ADDRESS":"苓保２１號","OBJECTID":216681},"geometry":{"x":164582.1799999997,"y":2568813.2300000004}},{"attributes":{"ID":216683,"DIS_CODE":0,"TOWNNAME":"北區","LI":"和順里","LIN":"29鄰","STREET":"臨安路","SECT":"二段","MAREA":" ","LANE":"１４３巷","ALLEY":"８０弄","HOUSE_NO":"４６號","E_COORD97":167855,"N_COORD97":2545049.1600000001,"ADDRESS":"臨安路二段１４３巷８０弄４６號","OBJECTID":216682},"geometry":{"x":167855,"y":2545049.1600000001}},{"attributes":{"ID":216684,"DIS_CODE":0,"TOWNNAME":"將軍區","LI":"保源里","LIN":"2鄰","STREET":" ","SECT":" ","MAREA":"苓保","LANE":" ","ALLEY":" ","HOUSE_NO":"２２之１號","E_COORD97":164586.20999999999,"N_COORD97":2568846.1099999999,"ADDRESS":"苓保２２之１號","OBJECTID":216683},"geometry":{"x":164586.21000000089,"y":2568846.1099999994}},{"attributes":{"ID":216685,"DIS_CODE":0,"TOWNNAME":"將軍區","LI":"保源里","LIN":"2鄰","STREET":" ","SECT":" ","MAREA":"苓保","LANE":" ","ALLEY":" ","HOUSE_NO":"２２號","E_COORD97":164582.10999999999,"N_COORD97":2568831.98,"ADDRESS":"苓保２２號","OBJECTID":216684},"geometry":{"x":164582.11000000127,"y":2568831.9800000004}},{"attributes":{"ID":216686,"DIS_CODE":0,"TOWNNAME":"將軍區","LI":"將富里","LIN":"2鄰","STREET":" ","SECT":" ","MAREA":"將富","LANE":" ","ALLEY":" ","HOUSE_NO":"１７號","E_COORD97":161715.85999999999,"N_COORD97":2568580.1099999999,"ADDRESS":"將富１７號","OBJECTID":216685},"geometry":{"x":161715.86000000127,"y":2568580.1100000013}},{"attributes":{"ID":216687,"DIS_CODE":0,"TOWNNAME":"將軍區","LI":"將富里","LIN":"2鄰","STREET":" ","SECT":" ","MAREA":"將富","LANE":" ","ALLEY":" ","HOUSE_NO":"１８號","E_COORD97":161695.76999999999,"N_COORD97":2568588.23,"ADDRESS":"將富１８號","OBJECTID":216686},"geometry":{"x":161695.76999999955,"y":2568588.2300000004}},{"attributes":{"ID":216688,"DIS_CODE":0,"TOWNNAME":"將軍區","LI":"將富里","LIN":"2鄰","STREET":" ","SECT":" ","MAREA":"將富","LANE":" ","ALLEY":" ","HOUSE_NO":"１９之１號","E_COORD97":161664.79000000001,"N_COORD97":2568582.5299999998,"ADDRESS":"將富１９之１號","OBJECTID":216687},"geometry":{"x":161664.79000000097,"y":2568582.5299999993}},{"attributes":{"ID":216689,"DIS_CODE":0,"TOWNNAME":"將軍區","LI":"將富里","LIN":"2鄰","STREET":" ","SECT":" ","MAREA":"將富","LANE":" ","ALLEY":" ","HOUSE_NO":"１９號","E_COORD97":161675.10000000001,"N_COORD97":2568593.9500000002,"ADDRESS":"將富１９號","OBJECTID":216688},"geometry":{"x":161675.09999999963,"y":2568593.950000003}},{"attributes":{"ID":216690,"DIS_CODE":0,"TOWNNAME":"將軍區","LI":"將富里","LIN":"2鄰","STREET":" ","SECT":" ","MAREA":"將富","LANE":" ","ALLEY":" ","HOUSE_NO":"２０號","E_COORD97":161658.32999999999,"N_COORD97":2568599.6800000002,"ADDRESS":"將富２０號","OBJECTID":216689},"geometry":{"x":161658.33000000101,"y":2568599.6800000034}},{"attributes":{"ID":216691,"DIS_CODE":0,"TOWNNAME":"將軍區","LI":"將富里","LIN":"2鄰","STREET":" ","SECT":" ","MAREA":"將富","LANE":" ","ALLEY":" ","HOUSE_NO":"２１之１號","E_COORD97":161519.54000000001,"N_COORD97":2568641.9100000001,"ADDRESS":"將富２１之１號","OBJECTID":216690},"geometry":{"x":161519.54000000097,"y":2568641.9100000001}},{"attributes":{"ID":216692,"DIS_CODE":0,"TOWNNAME":"將軍區","LI":"將富里","LIN":"2鄰","STREET":" ","SECT":" ","MAREA":"將富","LANE":" ","ALLEY":" ","HOUSE_NO":"２１之２號","E_COORD97":161520.91,"N_COORD97":2568645.29,"ADDRESS":"將富２１之２號","OBJECTID":216691},"geometry":{"x":161520.91000000015,"y":2568645.2899999991}},{"attributes":{"ID":216693,"DIS_CODE":0,"TOWNNAME":"將軍區","LI":"將富里","LIN":"2鄰","STREET":" ","SECT":" ","MAREA":"將富","LANE":" ","ALLEY":" ","HOUSE_NO":"２２號","E_COORD97":161655.82000000001,"N_COORD97":2568567.2799999998,"ADDRESS":"將富２２號","OBJECTID":216692},"geometry":{"x":161655.8200000003,"y":2568567.2799999993}},{"attributes":{"ID":216694,"DIS_CODE":0,"TOWNNAME":"將軍區","LI":"將富里","LIN":"2鄰","STREET":" ","SECT":" ","MAREA":"將富","LANE":" ","ALLEY":" ","HOUSE_NO":"２３號","E_COORD97":161679.88,"N_COORD97":2568560.77,"ADDRESS":"將富２３號","OBJECTID":216693},"geometry":{"x":161679.88000000082,"y":2568560.7699999996}},{"attributes":{"ID":216695,"DIS_CODE":0,"TOWNNAME":"將軍區","LI":"將富里","LIN":"2鄰","STREET":" ","SECT":" ","MAREA":"將富","LANE":" ","ALLEY":" ","HOUSE_NO":"２５號","E_COORD97":161725.39999999999,"N_COORD97":2568549.0299999998,"ADDRESS":"將富２５號","OBJECTID":216694},"geometry":{"x":161725.4000000013,"y":2568549.0299999993}},{"attributes":{"ID":216696,"DIS_CODE":0,"TOWNNAME":"將軍區","LI":"將貴里","LIN":"2鄰","STREET":" ","SECT":" ","MAREA":"將貴","LANE":" ","ALLEY":" ","HOUSE_NO":"１１號","E_COORD97":162000.10000000001,"N_COORD97":2568388.5899999999,"ADDRESS":"將貴１１號","OBJECTID":216695},"geometry":{"x":162000.10000000056,"y":2568388.5899999999}},{"attributes":{"ID":216697,"DIS_CODE":0,"TOWNNAME":"將軍區","LI":"將貴里","LIN":"2鄰","STREET":" ","SECT":" ","MAREA":"將貴","LANE":" ","ALLEY":" ","HOUSE_NO":"１２號","E_COORD97":161976.95999999999,"N_COORD97":2568391.4199999999,"ADDRESS":"將貴１２號","OBJECTID":216696},"geometry":{"x":161976.96000000183,"y":2568391.4200000037}},{"attributes":{"ID":216698,"DIS_CODE":0,"TOWNNAME":"將軍區","LI":"將貴里","LIN":"2鄰","STREET":" ","SECT":" ","MAREA":"將貴","LANE":" ","ALLEY":" ","HOUSE_NO":"１５號","E_COORD97":161922.47,"N_COORD97":2568385.6600000001,"ADDRESS":"將貴１５號","OBJECTID":216697},"geometry":{"x":161922.4700000016,"y":2568385.6600000001}},{"attributes":{"ID":216699,"DIS_CODE":0,"TOWNNAME":"將軍區","LI":"將貴里","LIN":"2鄰","STREET":" ","SECT":" ","MAREA":"將貴","LANE":" ","ALLEY":" ","HOUSE_NO":"１８之１號","E_COORD97":161856.5,"N_COORD97":2568368.8100000001,"ADDRESS":"將貴１８之１號","OBJECTID":216698},"geometry":{"x":161856.50000000093,"y":2568368.8099999987}},{"attributes":{"ID":216700,"DIS_CODE":0,"TOWNNAME":"將軍區","LI":"將貴里","LIN":"2鄰","STREET":" ","SECT":" ","MAREA":"將貴","LANE":" ","ALLEY":" ","HOUSE_NO":"１８號","E_COORD97":161881.10999999999,"N_COORD97":2568395.3100000001,"ADDRESS":"將貴１８號","OBJECTID":216699},"geometry":{"x":161881.11000000034,"y":2568395.3100000005}},{"attributes":{"ID":216701,"DIS_CODE":0,"TOWNNAME":"將軍區","LI":"廣山里","LIN":"2鄰","STREET":" ","SECT":" ","MAREA":"廣山","LANE":" ","ALLEY":" ","HOUSE_NO":"１１之１號","E_COORD97":159724.35000000001,"N_COORD97":2568680.8300000001,"ADDRESS":"廣山１１之１號","OBJECTID":216700},"geometry":{"x":159724.35000000149,"y":2568680.8300000019}},{"attributes":{"ID":216702,"DIS_CODE":0,"TOWNNAME":"將軍區","LI":"廣山里","LIN":"2鄰","STREET":" ","SECT":" ","MAREA":"廣山","LANE":" ","ALLEY":" ","HOUSE_NO":"１１之２號","E_COORD97":159745.48999999999,"N_COORD97":2568677.8599999999,"ADDRESS":"廣山１１之２號","OBJECTID":216701},"geometry":{"x":159745.49000000022,"y":2568677.8599999994}},{"attributes":{"ID":216703,"DIS_CODE":0,"TOWNNAME":"將軍區","LI":"廣山里","LIN":"2鄰","STREET":" ","SECT":" ","MAREA":"廣山","LANE":" ","ALLEY":" ","HOUSE_NO":"１１號","E_COORD97":159770.67999999999,"N_COORD97":2568683.5099999998,"ADDRESS":"廣山１１號","OBJECTID":216702},"geometry":{"x":159770.6799999997,"y":2568683.5100000016}},{"attributes":{"ID":216704,"DIS_CODE":0,"TOWNNAME":"將軍區","LI":"廣山里","LIN":"2鄰","STREET":" ","SECT":" ","MAREA":"廣山","LANE":" ","ALLEY":" ","HOUSE_NO":"１２號","E_COORD97":159747.04999999999,"N_COORD97":2568706.6000000001,"ADDRESS":"廣山１２號","OBJECTID":216703},"geometry":{"x":159747.05000000168,"y":2568706.6000000015}},{"attributes":{"ID":216705,"DIS_CODE":0,"TOWNNAME":"北區","LI":"和順里","LIN":"29鄰","STREET":"臨安路","SECT":"二段","MAREA":" ","LANE":"１４３巷","ALLEY":"８０弄","HOUSE_NO":"５０號","E_COORD97":167859.85999999999,"N_COORD97":2545049.3199999998,"ADDRESS":"臨安路二段１４３巷８０弄５０號","OBJECTID":216704},"geometry":{"x":167859.86000000034,"y":2545049.3200000003}},{"attributes":{"ID":216706,"DIS_CODE":0,"TOWNNAME":"仁德區","LI":"後壁里","LIN":"12鄰","STREET":"德南路","SECT":" ","MAREA":" ","LANE":"１８７巷","ALLEY":" ","HOUSE_NO":"３６號","E_COORD97":173707.35756999999,"N_COORD97":2538566.6291100001,"ADDRESS":"德南路１８７巷３６號","OBJECTID":216705},"geometry":{"x":173707.35756999999,"y":2538566.6291070003}},{"attributes":{"ID":216707,"DIS_CODE":0,"TOWNNAME":"將軍區","LI":"廣山里","LIN":"2鄰","STREET":" ","SECT":" ","MAREA":"廣山","LANE":" ","ALLEY":" ","HOUSE_NO":"１３之１０號","E_COORD97":159596.35999999999,"N_COORD97":2568675.6400000001,"ADDRESS":"廣山１３之１０號","OBJECTID":216706},"geometry":{"x":159596.3600000022,"y":2568675.6400000043}},{"attributes":{"ID":216708,"DIS_CODE":0,"TOWNNAME":"將軍區","LI":"廣山里","LIN":"2鄰","STREET":" ","SECT":" ","MAREA":"廣山","LANE":" ","ALLEY":" ","HOUSE_NO":"１３之１號","E_COORD97":159677.17000000001,"N_COORD97":2568711.3500000001,"ADDRESS":"廣山１３之１號","OBJECTID":216707},"geometry":{"x":159677.17000000086,"y":2568711.3500000015}},{"attributes":{"ID":216709,"DIS_CODE":0,"TOWNNAME":"將軍區","LI":"廣山里","LIN":"2鄰","STREET":" ","SECT":" ","MAREA":"廣山","LANE":" ","ALLEY":" ","HOUSE_NO":"１３號","E_COORD97":159712.35999999999,"N_COORD97":2568713.6600000001,"ADDRESS":"廣山１３號","OBJECTID":216708},"geometry":{"x":159712.36000000127,"y":2568713.660000002}},{"attributes":{"ID":216710,"DIS_CODE":0,"TOWNNAME":"將軍區","LI":"廣山里","LIN":"2鄰","STREET":" ","SECT":" ","MAREA":"廣山","LANE":" ","ALLEY":" ","HOUSE_NO":"１４號","E_COORD97":159708.29999999999,"N_COORD97":2568725.0800000001,"ADDRESS":"廣山１４號","OBJECTID":216709},"geometry":{"x":159708.30000000075,"y":2568725.0800000001}},{"attributes":{"ID":216711,"DIS_CODE":0,"TOWNNAME":"將軍區","LI":"廣山里","LIN":"2鄰","STREET":" ","SECT":" ","MAREA":"廣山","LANE":" ","ALLEY":" ","HOUSE_NO":"１５之２０號","E_COORD97":159778.70999999999,"N_COORD97":2568780.4100000001,"ADDRESS":"廣山１５之２０號","OBJECTID":216710},"geometry":{"x":159778.71000000089,"y":2568780.4100000001}},{"attributes":{"ID":216712,"DIS_CODE":0,"TOWNNAME":"將軍區","LI":"廣山里","LIN":"2鄰","STREET":" ","SECT":" ","MAREA":"廣山","LANE":" ","ALLEY":" ","HOUSE_NO":"１５號","E_COORD97":159752.32999999999,"N_COORD97":2568743.8799999999,"ADDRESS":"廣山１５號","OBJECTID":216711},"geometry":{"x":159752.33000000101,"y":2568743.8800000008}},{"attributes":{"ID":216713,"DIS_CODE":0,"TOWNNAME":"將軍區","LI":"廣山里","LIN":"2鄰","STREET":" ","SECT":" ","MAREA":"廣山","LANE":" ","ALLEY":" ","HOUSE_NO":"１７之１號","E_COORD97":159789.67999999999,"N_COORD97":2568702.7999999998,"ADDRESS":"廣山１７之１號","OBJECTID":216712},"geometry":{"x":159789.6799999997,"y":2568702.8000000026}},{"attributes":{"ID":216714,"DIS_CODE":0,"TOWNNAME":"將軍區","LI":"廣山里","LIN":"2鄰","STREET":" ","SECT":" ","MAREA":"廣山","LANE":" ","ALLEY":" ","HOUSE_NO":"１７號","E_COORD97":159790.07999999999,"N_COORD97":2568719.1200000001,"ADDRESS":"廣山１７號","OBJECTID":216713},"geometry":{"x":159790.08000000101,"y":2568719.120000001}},{"attributes":{"ID":216715,"DIS_CODE":0,"TOWNNAME":"將軍區","LI":"廣山里","LIN":"2鄰","STREET":" ","SECT":" ","MAREA":"廣山","LANE":" ","ALLEY":" ","HOUSE_NO":"１８之１號","E_COORD97":159774.01000000001,"N_COORD97":2568730.3700000001,"ADDRESS":"廣山１８之１號","OBJECTID":216714},"geometry":{"x":159774.00999999978,"y":2568730.370000001}},{"attributes":{"ID":216716,"DIS_CODE":0,"TOWNNAME":"將軍區","LI":"廣山里","LIN":"2鄰","STREET":" ","SECT":" ","MAREA":"廣山","LANE":" ","ALLEY":" ","HOUSE_NO":"１８號","E_COORD97":159818.48000000001,"N_COORD97":2568737.4100000001,"ADDRESS":"廣山１８號","OBJECTID":216715},"geometry":{"x":159818.48000000138,"y":2568737.4100000039}},{"attributes":{"ID":216717,"DIS_CODE":0,"TOWNNAME":"將軍區","LI":"廣山里","LIN":"2鄰","STREET":" ","SECT":" ","MAREA":"廣山","LANE":" ","ALLEY":" ","HOUSE_NO":"２０號","E_COORD97":159810.70999999999,"N_COORD97":2568708.3399999999,"ADDRESS":"廣山２０號","OBJECTID":216716},"geometry":{"x":159810.71000000089,"y":2568708.3400000017}},{"attributes":{"ID":216718,"DIS_CODE":0,"TOWNNAME":"將軍區","LI":"鯤溟里","LIN":"2鄰","STREET":" ","SECT":" ","MAREA":"鯤溟","LANE":" ","ALLEY":" ","HOUSE_NO":"１０之１號","E_COORD97":156633.48000000001,"N_COORD97":2565430.21,"ADDRESS":"鯤溟１０之１號","OBJECTID":216717},"geometry":{"x":156633.48000000045,"y":2565430.2100000009}},{"attributes":{"ID":216719,"DIS_CODE":0,"TOWNNAME":"將軍區","LI":"鯤溟里","LIN":"2鄰","STREET":" ","SECT":" ","MAREA":"鯤溟","LANE":" ","ALLEY":" ","HOUSE_NO":"１０號","E_COORD97":156635.14999999999,"N_COORD97":2565444.1099999999,"ADDRESS":"鯤溟１０號","OBJECTID":216718},"geometry":{"x":156635.1500000013,"y":2565444.1100000013}},{"attributes":{"ID":216720,"DIS_CODE":0,"TOWNNAME":"將軍區","LI":"鯤溟里","LIN":"2鄰","STREET":" ","SECT":" ","MAREA":"鯤溟","LANE":" ","ALLEY":" ","HOUSE_NO":"１１號","E_COORD97":156638.07000000001,"N_COORD97":2565458.6000000001,"ADDRESS":"鯤溟１１號","OBJECTID":216719},"geometry":{"x":156638.0700000003,"y":2565458.6000000015}},{"attributes":{"ID":216721,"DIS_CODE":0,"TOWNNAME":"將軍區","LI":"鯤溟里","LIN":"2鄰","STREET":" ","SECT":" ","MAREA":"鯤溟","LANE":" ","ALLEY":" ","HOUSE_NO":"１３號","E_COORD97":156635.5,"N_COORD97":2565478.8199999998,"ADDRESS":"鯤溟１３號","OBJECTID":216720},"geometry":{"x":156635.50000000093,"y":2565478.8200000003}},{"attributes":{"ID":216722,"DIS_CODE":0,"TOWNNAME":"將軍區","LI":"鯤溟里","LIN":"2鄰","STREET":" ","SECT":" ","MAREA":"鯤溟","LANE":" ","ALLEY":" ","HOUSE_NO":"１４之１號","E_COORD97":156636.69,"N_COORD97":2565485.3599999999,"ADDRESS":"鯤溟１４之１號","OBJECTID":216721},"geometry":{"x":156636.69000000134,"y":2565485.3599999994}},{"attributes":{"ID":216723,"DIS_CODE":0,"TOWNNAME":"將軍區","LI":"鯤溟里","LIN":"2鄰","STREET":" ","SECT":" ","MAREA":"鯤溟","LANE":" ","ALLEY":" ","HOUSE_NO":"１４號","E_COORD97":156645.5,"N_COORD97":2565488.46,"ADDRESS":"鯤溟１４號","OBJECTID":216722},"geometry":{"x":156645.50000000093,"y":2565488.4600000009}},{"attributes":{"ID":216724,"DIS_CODE":0,"TOWNNAME":"將軍區","LI":"鯤溟里","LIN":"2鄰","STREET":" ","SECT":" ","MAREA":"鯤溟","LANE":" ","ALLEY":" ","HOUSE_NO":"１５號","E_COORD97":156646.32999999999,"N_COORD97":2565511.2799999998,"ADDRESS":"鯤溟１５號","OBJECTID":216723},"geometry":{"x":156646.33000000007,"y":2565511.2800000012}},{"attributes":{"ID":216725,"DIS_CODE":0,"TOWNNAME":"將軍區","LI":"鯤溟里","LIN":"2鄰","STREET":" ","SECT":" ","MAREA":"鯤溟","LANE":" ","ALLEY":" ","HOUSE_NO":"１６之１號","E_COORD97":156647.60000000001,"N_COORD97":2565498.27,"ADDRESS":"鯤溟１６之１號","OBJECTID":216724},"geometry":{"x":156647.60000000149,"y":2565498.2700000014}},{"attributes":{"ID":216726,"DIS_CODE":0,"TOWNNAME":"將軍區","LI":"鯤鯓里","LIN":"2鄰","STREET":" ","SECT":" ","MAREA":"鯤鯓","LANE":" ","ALLEY":" ","HOUSE_NO":"１０號","E_COORD97":156622.07999999999,"N_COORD97":2565608.1600000001,"ADDRESS":"鯤鯓１０號","OBJECTID":216725},"geometry":{"x":156622.08000000007,"y":2565608.160000002}},{"attributes":{"ID":216727,"DIS_CODE":0,"TOWNNAME":"將軍區","LI":"鯤鯓里","LIN":"2鄰","STREET":" ","SECT":" ","MAREA":"鯤鯓","LANE":" ","ALLEY":" ","HOUSE_NO":"１６之３號","E_COORD97":156586.85999999999,"N_COORD97":2565659.1200000001,"ADDRESS":"鯤鯓１６之３號","OBJECTID":216726},"geometry":{"x":156586.86000000034,"y":2565659.1200000029}},{"attributes":{"ID":216728,"DIS_CODE":0,"TOWNNAME":"將軍區","LI":"鯤鯓里","LIN":"2鄰","STREET":" ","SECT":" ","MAREA":"鯤鯓","LANE":" ","ALLEY":" ","HOUSE_NO":"１６號","E_COORD97":156590.70000000001,"N_COORD97":2565672.8199999998,"ADDRESS":"鯤鯓１６號","OBJECTID":216727},"geometry":{"x":156590.70000000112,"y":2565672.8200000003}},{"attributes":{"ID":216729,"DIS_CODE":0,"TOWNNAME":"將軍區","LI":"鯤鯓里","LIN":"2鄰","STREET":" ","SECT":" ","MAREA":"鯤鯓","LANE":" ","ALLEY":" ","HOUSE_NO":"１７號","E_COORD97":156591.82999999999,"N_COORD97":2565648.8599999999,"ADDRESS":"鯤鯓１７號","OBJECTID":216728},"geometry":{"x":156591.83000000007,"y":2565648.8600000013}},{"attributes":{"ID":216730,"DIS_CODE":0,"TOWNNAME":"北區","LI":"和順里","LIN":"29鄰","STREET":"臨安路","SECT":"二段","MAREA":" ","LANE":"１４３巷","ALLEY":"８０弄","HOUSE_NO":"５２號","E_COORD97":167864.54999999999,"N_COORD97":2545049.48,"ADDRESS":"臨安路二段１４３巷８０弄５２號","OBJECTID":216729},"geometry":{"x":167864.54999999981,"y":2545049.4800000023}},{"attributes":{"ID":216731,"DIS_CODE":0,"TOWNNAME":"北區","LI":"和順里","LIN":"29鄰","STREET":"臨安路","SECT":"二段","MAREA":" ","LANE":"１４３巷","ALLEY":"８０弄","HOUSE_NO":"５６號","E_COORD97":167869.09,"N_COORD97":2545049.6299999999,"ADDRESS":"臨安路二段１４３巷８０弄５６號","OBJECTID":216730},"geometry":{"x":167869.09000000078,"y":2545049.6300000027}},{"attributes":{"ID":216732,"DIS_CODE":0,"TOWNNAME":"將軍區","LI":"鯤鯓里","LIN":"2鄰","STREET":" ","SECT":" ","MAREA":"鯤鯓","LANE":" ","ALLEY":" ","HOUSE_NO":"９號","E_COORD97":156622.91,"N_COORD97":2565618.2200000002,"ADDRESS":"鯤鯓９號","OBJECTID":216731},"geometry":{"x":156622.91000000108,"y":2565618.2200000025}},{"attributes":{"ID":216733,"DIS_CODE":0,"TOWNNAME":"北區","LI":"和順里","LIN":"29鄰","STREET":"臨安路","SECT":"二段","MAREA":" ","LANE":"１４３巷","ALLEY":"８０弄","HOUSE_NO":"５８號","E_COORD97":167873.79000000001,"N_COORD97":2545050.1000000001,"ADDRESS":"臨安路二段１４３巷８０弄５８號","OBJECTID":216732},"geometry":{"x":167873.79000000004,"y":2545050.0999999996}},{"attributes":{"ID":216734,"DIS_CODE":0,"TOWNNAME":"仁德區","LI":"三甲里","LIN":"2鄰","STREET":" ","SECT":" ","MAREA":"三甲子","LANE":" ","ALLEY":" ","HOUSE_NO":"２２號之４","E_COORD97":171983.81,"N_COORD97":2537202.2999999998,"ADDRESS":"三甲子２２號之４","OBJECTID":216733},"geometry":{"x":171983.80999999959,"y":2537202.3000000026}},{"attributes":{"ID":216735,"DIS_CODE":0,"TOWNNAME":"龍崎區","LI":"崎頂里","LIN":"2鄰","STREET":" ","SECT":" ","MAREA":"新市子","LANE":" ","ALLEY":" ","HOUSE_NO":"６８號","E_COORD97":184460.42000000001,"N_COORD97":2540534.25,"ADDRESS":"新市子６８號","OBJECTID":216734},"geometry":{"x":184460.42000000179,"y":2540534.2500000019}},{"attributes":{"ID":216736,"DIS_CODE":0,"TOWNNAME":"龍崎區","LI":"土崎里","LIN":"2鄰","STREET":" ","SECT":" ","MAREA":"考潭","LANE":" ","ALLEY":" ","HOUSE_NO":"１４號","E_COORD97":186076.64000000001,"N_COORD97":2543208.25,"ADDRESS":"考潭１４號","OBJECTID":216735},"geometry":{"x":186076.6400000006,"y":2543208.25}},{"attributes":{"ID":216737,"DIS_CODE":0,"TOWNNAME":"龍崎區","LI":"石\u25A0里","LIN":"2鄰","STREET":" ","SECT":" ","MAREA":"後壁溪","LANE":" ","ALLEY":" ","HOUSE_NO":"１８之１號","E_COORD97":189578.92000000001,"N_COORD97":2538442.3199999998,"ADDRESS":"後壁溪１８之１號","OBJECTID":216736},"geometry":{"x":189578.92000000086,"y":2538442.3200000022}},{"attributes":{"ID":216738,"DIS_CODE":0,"TOWNNAME":"龍崎區","LI":"牛埔里","LIN":"2鄰","STREET":" ","SECT":" ","MAREA":"牛埔","LANE":" ","ALLEY":" ","HOUSE_NO":"１９號","E_COORD97":189479.87,"N_COORD97":2536847.25,"ADDRESS":"牛埔１９號","OBJECTID":216737},"geometry":{"x":189479.87000000011,"y":2536847.25}},{"attributes":{"ID":216739,"DIS_CODE":0,"TOWNNAME":"龍崎區","LI":"牛埔里","LIN":"2鄰","STREET":" ","SECT":" ","MAREA":"牛埔","LANE":" ","ALLEY":" ","HOUSE_NO":"２２號","E_COORD97":189482.76999999999,"N_COORD97":2536803.25,"ADDRESS":"牛埔２２號","OBJECTID":216738},"geometry":{"x":189482.77000000048,"y":2536803.25}},{"attributes":{"ID":216740,"DIS_CODE":0,"TOWNNAME":"龍崎區","LI":"石\u25A0里","LIN":"2鄰","STREET":" ","SECT":" ","MAREA":"後壁溪","LANE":" ","ALLEY":" ","HOUSE_NO":"７號","E_COORD97":189194.67000000001,"N_COORD97":2538008.3199999998,"ADDRESS":"後壁溪７號","OBJECTID":216739},"geometry":{"x":189194.66999999993,"y":2538008.3200000022}},{"attributes":{"ID":216741,"DIS_CODE":0,"TOWNNAME":"龍崎區","LI":"土崎里","LIN":"2鄰","STREET":" ","SECT":" ","MAREA":"考潭","LANE":" ","ALLEY":" ","HOUSE_NO":"１８號","E_COORD97":186236.94,"N_COORD97":2543226.25,"ADDRESS":"考潭１８號","OBJECTID":216740},"geometry":{"x":186236.94000000041,"y":2543226.2500000019}},{"attributes":{"ID":216742,"DIS_CODE":0,"TOWNNAME":"龍崎區","LI":"龍船里","LIN":"2鄰","STREET":" ","SECT":" ","MAREA":"苦苓湖","LANE":" ","ALLEY":" ","HOUSE_NO":"５號","E_COORD97":189838.14000000001,"N_COORD97":2537957.25,"ADDRESS":"苦苓湖５號","OBJECTID":216741},"geometry":{"x":189838.1400000006,"y":2537957.2500000037}},{"attributes":{"ID":216743,"DIS_CODE":0,"TOWNNAME":"龍崎區","LI":"大坪里","LIN":"2鄰","STREET":" ","SECT":" ","MAREA":"番社","LANE":" ","ALLEY":" ","HOUSE_NO":"５號","E_COORD97":188257.62,"N_COORD97":2537669.25,"ADDRESS":"番社５號","OBJECTID":216742},"geometry":{"x":188257.62000000011,"y":2537669.2500000037}},{"attributes":{"ID":216744,"DIS_CODE":0,"TOWNNAME":"龍崎區","LI":"崎頂里","LIN":"2鄰","STREET":" ","SECT":" ","MAREA":"新市子","LANE":" ","ALLEY":" ","HOUSE_NO":"４８號","E_COORD97":184390.22,"N_COORD97":2540475.25,"ADDRESS":"新市子４８號","OBJECTID":216743},"geometry":{"x":184390.21999999974,"y":2540475.25}},{"attributes":{"ID":216745,"DIS_CODE":0,"TOWNNAME":"龍崎區","LI":"土崎里","LIN":"2鄰","STREET":" ","SECT":" ","MAREA":"考潭","LANE":" ","ALLEY":" ","HOUSE_NO":"１２之１號","E_COORD97":186076.54000000001,"N_COORD97":2542794.2999999998,"ADDRESS":"考潭１２之１號","OBJECTID":216744},"geometry":{"x":186076.54000000004,"y":2542794.3000000007}},{"attributes":{"ID":216746,"DIS_CODE":0,"TOWNNAME":"龍崎區","LI":"崎頂里","LIN":"2鄰","STREET":" ","SECT":" ","MAREA":"新市子","LANE":" ","ALLEY":" ","HOUSE_NO":"６９號","E_COORD97":184462.42000000001,"N_COORD97":2540539.25,"ADDRESS":"新市子６９號","OBJECTID":216745},"geometry":{"x":184462.42000000086,"y":2540539.25}},{"attributes":{"ID":216747,"DIS_CODE":0,"TOWNNAME":"龍崎區","LI":"牛埔里","LIN":"2鄰","STREET":" ","SECT":" ","MAREA":"牛埔","LANE":" ","ALLEY":" ","HOUSE_NO":"１６之２號","E_COORD97":189471.17000000001,"N_COORD97":2536988.2999999998,"ADDRESS":"牛埔１６之２號","OBJECTID":216746},"geometry":{"x":189471.16999999993,"y":2536988.3000000026}},{"attributes":{"ID":216748,"DIS_CODE":0,"TOWNNAME":"龍崎區","LI":"石\u25A0里","LIN":"2鄰","STREET":" ","SECT":" ","MAREA":"後壁溪","LANE":" ","ALLEY":" ","HOUSE_NO":"８號","E_COORD97":189213.57000000001,"N_COORD97":2538337.3199999998,"ADDRESS":"後壁溪８號","OBJECTID":216747},"geometry":{"x":189213.57000000123,"y":2538337.3200000022}},{"attributes":{"ID":216749,"DIS_CODE":0,"TOWNNAME":"龍崎區","LI":"龍船里","LIN":"2鄰","STREET":" ","SECT":" ","MAREA":"苦苓湖","LANE":" ","ALLEY":" ","HOUSE_NO":"３號","E_COORD97":189929.64000000001,"N_COORD97":2537920.25,"ADDRESS":"苦苓湖３號","OBJECTID":216748},"geometry":{"x":189929.6400000006,"y":2537920.2500000019}},{"attributes":{"ID":216750,"DIS_CODE":0,"TOWNNAME":"龍崎區","LI":"龍船里","LIN":"2鄰","STREET":" ","SECT":" ","MAREA":"苦苓湖","LANE":" ","ALLEY":" ","HOUSE_NO":"２號","E_COORD97":189858.34,"N_COORD97":2537896.25,"ADDRESS":"苦苓湖２號","OBJECTID":216749},"geometry":{"x":189858.34000000171,"y":2537896.2500000037}},{"attributes":{"ID":216751,"DIS_CODE":0,"TOWNNAME":"龍崎區","LI":"龍船里","LIN":"2鄰","STREET":" ","SECT":" ","MAREA":"苦苓湖","LANE":" ","ALLEY":" ","HOUSE_NO":"６號","E_COORD97":189882.73999999999,"N_COORD97":2538106.25,"ADDRESS":"苦苓湖６號","OBJECTID":216750},"geometry":{"x":189882.74000000022,"y":2538106.2500000037}},{"attributes":{"ID":216752,"DIS_CODE":0,"TOWNNAME":"龍崎區","LI":"龍船里","LIN":"2鄰","STREET":" ","SECT":" ","MAREA":"苦苓湖","LANE":" ","ALLEY":" ","HOUSE_NO":"１２號","E_COORD97":189931.79000000001,"N_COORD97":2538238.25,"ADDRESS":"苦苓湖１２號","OBJECTID":216751},"geometry":{"x":189931.7900000019,"y":2538238.25}},{"attributes":{"ID":216753,"DIS_CODE":0,"TOWNNAME":"龍崎區","LI":"龍船里","LIN":"2鄰","STREET":" ","SECT":" ","MAREA":"苦苓湖","LANE":" ","ALLEY":" ","HOUSE_NO":"４號","E_COORD97":189876.14000000001,"N_COORD97":2538019.25,"ADDRESS":"苦苓湖４號","OBJECTID":216752},"geometry":{"x":189876.13999999966,"y":2538019.2500000019}},{"attributes":{"ID":216754,"DIS_CODE":0,"TOWNNAME":"佳里區","LI":"蚶寮里","LIN":"2鄰","STREET":" ","SECT":" ","MAREA":"蚶寮","LANE":" ","ALLEY":" ","HOUSE_NO":"１３號","E_COORD97":163930.20999999999,"N_COORD97":2558492.25,"ADDRESS":"蚶寮１３號","OBJECTID":216753},"geometry":{"x":163930.21000000089,"y":2558492.25}},{"attributes":{"ID":216755,"DIS_CODE":0,"TOWNNAME":"龍崎區","LI":"龍船里","LIN":"2鄰","STREET":" ","SECT":" ","MAREA":"苦苓湖","LANE":" ","ALLEY":" ","HOUSE_NO":"３之１號","E_COORD97":189889.54000000001,"N_COORD97":2537988.2999999998,"ADDRESS":"苦苓湖３之１號","OBJECTID":216754},"geometry":{"x":189889.5400000019,"y":2537988.3000000045}},{"attributes":{"ID":216756,"DIS_CODE":0,"TOWNNAME":"龍崎區","LI":"龍船里","LIN":"2鄰","STREET":" ","SECT":" ","MAREA":"苦苓湖","LANE":" ","ALLEY":" ","HOUSE_NO":"１１號","E_COORD97":189932.59,"N_COORD97":2538294.25,"ADDRESS":"苦苓湖１１號","OBJECTID":216755},"geometry":{"x":189932.58999999985,"y":2538294.2500000019}},{"attributes":{"ID":216757,"DIS_CODE":0,"TOWNNAME":"龍崎區","LI":"龍船里","LIN":"2鄰","STREET":" ","SECT":" ","MAREA":"苦苓湖","LANE":" ","ALLEY":" ","HOUSE_NO":"９號","E_COORD97":189537.44,"N_COORD97":2537725.25,"ADDRESS":"苦苓湖９號","OBJECTID":216756},"geometry":{"x":189537.44000000041,"y":2537725.25}},{"attributes":{"ID":216758,"DIS_CODE":0,"TOWNNAME":"龍崎區","LI":"楠坑里","LIN":"2鄰","STREET":" ","SECT":" ","MAREA":"狗頸崙","LANE":" ","ALLEY":" ","HOUSE_NO":"１５號","E_COORD97":186414.45999999999,"N_COORD97":2537810.25,"ADDRESS":"狗頸崙１５號","OBJECTID":216757},"geometry":{"x":186414.45999999996,"y":2537810.25}},{"attributes":{"ID":216759,"DIS_CODE":0,"TOWNNAME":"龍崎區","LI":"楠坑里","LIN":"2鄰","STREET":" ","SECT":" ","MAREA":"狗頸崙","LANE":" ","ALLEY":" ","HOUSE_NO":"１３號","E_COORD97":185785.76000000001,"N_COORD97":2537779.25,"ADDRESS":"狗頸崙１３號","OBJECTID":216758},"geometry":{"x":185785.76000000071,"y":2537779.25}},{"attributes":{"ID":216760,"DIS_CODE":0,"TOWNNAME":"龍崎區","LI":"石\u25A0里","LIN":"2鄰","STREET":" ","SECT":" ","MAREA":"後壁溪","LANE":" ","ALLEY":" ","HOUSE_NO":"２２號","E_COORD97":189768.62,"N_COORD97":2538621.3199999998,"ADDRESS":"後壁溪２２號","OBJECTID":216759},"geometry":{"x":189768.62000000197,"y":2538621.3199999984}},{"attributes":{"ID":216761,"DIS_CODE":0,"TOWNNAME":"龍崎區","LI":"龍船里","LIN":"2鄰","STREET":" ","SECT":" ","MAREA":"苦苓湖","LANE":" ","ALLEY":" ","HOUSE_NO":"７號","E_COORD97":189960.64000000001,"N_COORD97":2538218.25,"ADDRESS":"苦苓湖７號","OBJECTID":216760},"geometry":{"x":189960.63999999966,"y":2538218.2500000037}},{"attributes":{"ID":216762,"DIS_CODE":0,"TOWNNAME":"龍崎區","LI":"龍船里","LIN":"2鄰","STREET":" ","SECT":" ","MAREA":"苦苓湖","LANE":" ","ALLEY":" ","HOUSE_NO":"６號之１","E_COORD97":189906.67999999999,"N_COORD97":2538096.2999999998,"ADDRESS":"苦苓湖６號之１","OBJECTID":216761},"geometry":{"x":189906.67999999877,"y":2538096.3000000007}},{"attributes":{"ID":216763,"DIS_CODE":0,"TOWNNAME":"龍崎區","LI":"龍船里","LIN":"2鄰","STREET":" ","SECT":" ","MAREA":"苦苓湖","LANE":" ","ALLEY":" ","HOUSE_NO":"８號","E_COORD97":189929.64000000001,"N_COORD97":2538194.25,"ADDRESS":"苦苓湖８號","OBJECTID":216762},"geometry":{"x":189929.6400000006,"y":2538194.2499999981}},{"attributes":{"ID":216764,"DIS_CODE":0,"TOWNNAME":"龍崎區","LI":"崎頂里","LIN":"2鄰","STREET":" ","SECT":" ","MAREA":"新市子","LANE":" ","ALLEY":" ","HOUSE_NO":"３７之１號","E_COORD97":184276.82000000001,"N_COORD97":2540577.2999999998,"ADDRESS":"新市子３７之１號","OBJECTID":216763},"geometry":{"x":184276.82000000216,"y":2540577.3000000007}},{"attributes":{"ID":216765,"DIS_CODE":0,"TOWNNAME":"龍崎區","LI":"石\u25A0里","LIN":"2鄰","STREET":" ","SECT":" ","MAREA":"後壁溪","LANE":" ","ALLEY":" ","HOUSE_NO":"１９之１號","E_COORD97":189538.62,"N_COORD97":2538490.3199999998,"ADDRESS":"後壁溪１９之１號","OBJECTID":216764},"geometry":{"x":189538.62000000104,"y":2538490.3200000022}},{"attributes":{"ID":216766,"DIS_CODE":0,"TOWNNAME":"龍崎區","LI":"崎頂里","LIN":"2鄰","STREET":" ","SECT":" ","MAREA":"新市子","LANE":" ","ALLEY":" ","HOUSE_NO":"４１之１號","E_COORD97":184264.32000000001,"N_COORD97":2540510.2999999998,"ADDRESS":"新市子４１之１號","OBJECTID":216765},"geometry":{"x":184264.3200000003,"y":2540510.2999999989}},{"attributes":{"ID":216767,"DIS_CODE":0,"TOWNNAME":"北區","LI":"和順里","LIN":"29鄰","STREET":"臨安路","SECT":"二段","MAREA":" ","LANE":"１４３巷","ALLEY":"８０弄","HOUSE_NO":"６０號","E_COORD97":167878.79999999999,"N_COORD97":2545050.1000000001,"ADDRESS":"臨安路二段１４３巷８０弄６０號","OBJECTID":216766},"geometry":{"x":167878.80000000168,"y":2545050.0999999996}},{"attributes":{"ID":216768,"DIS_CODE":0,"TOWNNAME":"北區","LI":"和順里","LIN":"29鄰","STREET":"臨安路","SECT":"二段","MAREA":" ","LANE":"１４３巷","ALLEY":"８０弄","HOUSE_NO":"６２號","E_COORD97":167883.5,"N_COORD97":2545050.4100000001,"ADDRESS":"臨安路二段１４３巷８０弄６２號","OBJECTID":216767},"geometry":{"x":167883.50000000093,"y":2545050.410000002}},{"attributes":{"ID":216769,"DIS_CODE":0,"TOWNNAME":"龍崎區","LI":"石\u25A0里","LIN":"2鄰","STREET":" ","SECT":" ","MAREA":"後壁溪","LANE":" ","ALLEY":" ","HOUSE_NO":"５號","E_COORD97":188827.67000000001,"N_COORD97":2537972.3199999998,"ADDRESS":"後壁溪５號","OBJECTID":216768},"geometry":{"x":188827.67000000086,"y":2537972.3200000003}},{"attributes":{"ID":216770,"DIS_CODE":0,"TOWNNAME":"龍崎區","LI":"土崎里","LIN":"2鄰","STREET":" ","SECT":" ","MAREA":"考潭","LANE":" ","ALLEY":" ","HOUSE_NO":"１８之２號","E_COORD97":186253.73999999999,"N_COORD97":2543338.2999999998,"ADDRESS":"考潭１８之２號","OBJECTID":216769},"geometry":{"x":186253.73999999929,"y":2543338.3000000045}},{"attributes":{"ID":216771,"DIS_CODE":0,"TOWNNAME":"龍崎區","LI":"石\u25A0里","LIN":"2鄰","STREET":" ","SECT":" ","MAREA":"後壁溪","LANE":" ","ALLEY":" ","HOUSE_NO":"３號","E_COORD97":188812.87,"N_COORD97":2537934.3199999998,"ADDRESS":"後壁溪３號","OBJECTID":216770},"geometry":{"x":188812.87000000104,"y":2537934.3200000022}},{"attributes":{"ID":216772,"DIS_CODE":0,"TOWNNAME":"龍崎區","LI":"土崎里","LIN":"2鄰","STREET":" ","SECT":" ","MAREA":"考潭","LANE":" ","ALLEY":" ","HOUSE_NO":"１５號","E_COORD97":186140.23999999999,"N_COORD97":2543212.25,"ADDRESS":"考潭１５號","OBJECTID":216771},"geometry":{"x":186140.24000000209,"y":2543212.2500000037}},{"attributes":{"ID":216773,"DIS_CODE":0,"TOWNNAME":"龍崎區","LI":"土崎里","LIN":"2鄰","STREET":" ","SECT":" ","MAREA":"考潭","LANE":" ","ALLEY":" ","HOUSE_NO":"１４之１號","E_COORD97":186093.73999999999,"N_COORD97":2543212.2999999998,"ADDRESS":"考潭１４之１號","OBJECTID":216772},"geometry":{"x":186093.74000000022,"y":2543212.3000000007}},{"attributes":{"ID":216774,"DIS_CODE":0,"TOWNNAME":"龍崎區","LI":"石\u25A0里","LIN":"2鄰","STREET":" ","SECT":" ","MAREA":"後壁溪","LANE":" ","ALLEY":" ","HOUSE_NO":"１８之２號","E_COORD97":189594.62,"N_COORD97":2538442.3199999998,"ADDRESS":"後壁溪１８之２號","OBJECTID":216773},"geometry":{"x":189594.62000000104,"y":2538442.3200000022}},{"attributes":{"ID":216775,"DIS_CODE":0,"TOWNNAME":"龍崎區","LI":"牛埔里","LIN":"2鄰","STREET":" ","SECT":" ","MAREA":"牛埔","LANE":" ","ALLEY":" ","HOUSE_NO":"２１號","E_COORD97":189443.07000000001,"N_COORD97":2536825.25,"ADDRESS":"牛埔２１號","OBJECTID":216774},"geometry":{"x":189443.0700000003,"y":2536825.2500000019}},{"attributes":{"ID":216776,"DIS_CODE":0,"TOWNNAME":"龍崎區","LI":"土崎里","LIN":"2鄰","STREET":" ","SECT":" ","MAREA":"考潭","LANE":" ","ALLEY":" ","HOUSE_NO":"２２號","E_COORD97":186255.54000000001,"N_COORD97":2543741.25,"ADDRESS":"考潭２２號","OBJECTID":216775},"geometry":{"x":186255.54000000097,"y":2543741.2500000037}},{"attributes":{"ID":216777,"DIS_CODE":0,"TOWNNAME":"龍崎區","LI":"石\u25A0里","LIN":"2鄰","STREET":" ","SECT":" ","MAREA":"後壁溪","LANE":" ","ALLEY":" ","HOUSE_NO":"４號","E_COORD97":188745.76999999999,"N_COORD97":2538043.3199999998,"ADDRESS":"後壁溪４號","OBJECTID":216776},"geometry":{"x":188745.76999999955,"y":2538043.3200000022}},{"attributes":{"ID":216778,"DIS_CODE":0,"TOWNNAME":"龍崎區","LI":"土崎里","LIN":"2鄰","STREET":" ","SECT":" ","MAREA":"考潭","LANE":" ","ALLEY":" ","HOUSE_NO":"１２之２號","E_COORD97":185993.84,"N_COORD97":2543103.2999999998,"ADDRESS":"考潭１２之２號","OBJECTID":216777},"geometry":{"x":185993.84000000078,"y":2543103.3000000007}},{"attributes":{"ID":216779,"DIS_CODE":0,"TOWNNAME":"龍崎區","LI":"土崎里","LIN":"2鄰","STREET":" ","SECT":" ","MAREA":"考潭","LANE":" ","ALLEY":" ","HOUSE_NO":"１６號","E_COORD97":186179.94,"N_COORD97":2543219.25,"ADDRESS":"考潭１６號","OBJECTID":216778},"geometry":{"x":186179.94000000134,"y":2543219.2500000037}},{"attributes":{"ID":216780,"DIS_CODE":0,"TOWNNAME":"龍崎區","LI":"牛埔里","LIN":"2鄰","STREET":" ","SECT":" ","MAREA":"牛埔","LANE":" ","ALLEY":" ","HOUSE_NO":"２２之２號","E_COORD97":189462.97,"N_COORD97":2536740.2999999998,"ADDRESS":"牛埔２２之２號","OBJECTID":216779},"geometry":{"x":189462.97000000067,"y":2536740.2999999989}},{"attributes":{"ID":216781,"DIS_CODE":0,"TOWNNAME":"龍崎區","LI":"石\u25A0里","LIN":"2鄰","STREET":" ","SECT":" ","MAREA":"後壁溪","LANE":" ","ALLEY":" ","HOUSE_NO":"９號","E_COORD97":189366.87,"N_COORD97":2538121.3199999998,"ADDRESS":"後壁溪９號","OBJECTID":216780},"geometry":{"x":189366.87000000197,"y":2538121.3200000022}},{"attributes":{"ID":216782,"DIS_CODE":0,"TOWNNAME":"龍崎區","LI":"石\u25A0里","LIN":"2鄰","STREET":" ","SECT":" ","MAREA":"後壁溪","LANE":" ","ALLEY":" ","HOUSE_NO":"１６號","E_COORD97":189500.82000000001,"N_COORD97":2538351.3199999998,"ADDRESS":"後壁溪１６號","OBJECTID":216781},"geometry":{"x":189500.8200000003,"y":2538351.3200000022}},{"attributes":{"ID":216783,"DIS_CODE":0,"TOWNNAME":"龍崎區","LI":"石\u25A0里","LIN":"2鄰","STREET":" ","SECT":" ","MAREA":"後壁溪","LANE":" ","ALLEY":" ","HOUSE_NO":"１號","E_COORD97":188494.87,"N_COORD97":2537841.3199999998,"ADDRESS":"後壁溪１號","OBJECTID":216782},"geometry":{"x":188494.87000000011,"y":2537841.3200000003}},{"attributes":{"ID":216784,"DIS_CODE":0,"TOWNNAME":"龍崎區","LI":"牛埔里","LIN":"2鄰","STREET":" ","SECT":" ","MAREA":"牛埔","LANE":" ","ALLEY":" ","HOUSE_NO":"１６號","E_COORD97":189463.97,"N_COORD97":2536972.25,"ADDRESS":"牛埔１６號","OBJECTID":216783},"geometry":{"x":189463.96999999974,"y":2536972.2500000019}},{"attributes":{"ID":216785,"DIS_CODE":0,"TOWNNAME":"龍崎區","LI":"大坪里","LIN":"2鄰","STREET":" ","SECT":" ","MAREA":"番社","LANE":" ","ALLEY":" ","HOUSE_NO":"７號","E_COORD97":188298.62,"N_COORD97":2537670.25,"ADDRESS":"番社７號","OBJECTID":216784},"geometry":{"x":188298.62000000011,"y":2537670.2500000019}},{"attributes":{"ID":216786,"DIS_CODE":0,"TOWNNAME":"龍崎區","LI":"石\u25A0里","LIN":"2鄰","STREET":" ","SECT":" ","MAREA":"後壁溪","LANE":" ","ALLEY":" ","HOUSE_NO":"２號","E_COORD97":188814.47,"N_COORD97":2537921.3199999998,"ADDRESS":"後壁溪２號","OBJECTID":216785},"geometry":{"x":188814.46999999974,"y":2537921.3200000022}},{"attributes":{"ID":216787,"DIS_CODE":0,"TOWNNAME":"龍崎區","LI":"崎頂里","LIN":"2鄰","STREET":" ","SECT":" ","MAREA":"新市子","LANE":" ","ALLEY":" ","HOUSE_NO":"４１號","E_COORD97":184311.72,"N_COORD97":2540492.25,"ADDRESS":"新市子４１號","OBJECTID":216786},"geometry":{"x":184311.71999999974,"y":2540492.25}},{"attributes":{"ID":216788,"DIS_CODE":0,"TOWNNAME":"龍崎區","LI":"崎頂里","LIN":"2鄰","STREET":" ","SECT":" ","MAREA":"新市子","LANE":" ","ALLEY":" ","HOUSE_NO":"６３號","E_COORD97":184442.22,"N_COORD97":2540455.25,"ADDRESS":"新市子６３號","OBJECTID":216787},"geometry":{"x":184442.21999999974,"y":2540455.25}},{"attributes":{"ID":216789,"DIS_CODE":0,"TOWNNAME":"仁德區","LI":"後壁里","LIN":"12鄰","STREET":"德南路","SECT":" ","MAREA":" ","LANE":"２０９巷","ALLEY":" ","HOUSE_NO":"３８號","E_COORD97":173788.079057,"N_COORD97":2538519.2157999999,"ADDRESS":"德南路２０９巷３８號","OBJECTID":216788},"geometry":{"x":173788.07905699871,"y":2538519.215799002}},{"attributes":{"ID":216790,"DIS_CODE":0,"TOWNNAME":"龍崎區","LI":"崎頂里","LIN":"2鄰","STREET":" ","SECT":" ","MAREA":"新市子","LANE":" ","ALLEY":" ","HOUSE_NO":"５８號","E_COORD97":184431.82000000001,"N_COORD97":2540527.25,"ADDRESS":"新市子５８號","OBJECTID":216789},"geometry":{"x":184431.82000000123,"y":2540527.2500000037}},{"attributes":{"ID":216791,"DIS_CODE":0,"TOWNNAME":"龍崎區","LI":"崎頂里","LIN":"2鄰","STREET":" ","SECT":" ","MAREA":"新市子","LANE":" ","ALLEY":" ","HOUSE_NO":"６６號","E_COORD97":184454.72,"N_COORD97":2540531.25,"ADDRESS":"新市子６６號","OBJECTID":216790},"geometry":{"x":184454.71999999881,"y":2540531.2500000019}},{"attributes":{"ID":216792,"DIS_CODE":0,"TOWNNAME":"龍崎區","LI":"崎頂里","LIN":"2鄰","STREET":" ","SECT":" ","MAREA":"新市子","LANE":" ","ALLEY":" ","HOUSE_NO":"４８之２號","E_COORD97":184405.62,"N_COORD97":2540428.2999999998,"ADDRESS":"新市子４８之２號","OBJECTID":216791},"geometry":{"x":184405.62000000104,"y":2540428.3000000007}},{"attributes":{"ID":216793,"DIS_CODE":0,"TOWNNAME":"龍崎區","LI":"崎頂里","LIN":"2鄰","STREET":" ","SECT":" ","MAREA":"新市子","LANE":" ","ALLEY":" ","HOUSE_NO":"４０之１號","E_COORD97":184122.92000000001,"N_COORD97":2540519.2999999998,"ADDRESS":"新市子４０之１號","OBJECTID":216792},"geometry":{"x":184122.91999999993,"y":2540519.3000000007}},{"attributes":{"ID":216794,"DIS_CODE":0,"TOWNNAME":"龍崎區","LI":"崎頂里","LIN":"2鄰","STREET":" ","SECT":" ","MAREA":"新市子","LANE":" ","ALLEY":" ","HOUSE_NO":"５３號","E_COORD97":184407.32000000001,"N_COORD97":2540522.25,"ADDRESS":"新市子５３號","OBJECTID":216793},"geometry":{"x":184407.32000000216,"y":2540522.25}},{"attributes":{"ID":216795,"DIS_CODE":0,"TOWNNAME":"永康區","LI":"龍潭里","LIN":"14鄰","STREET":"龍安街","SECT":" ","MAREA":" ","LANE":" ","ALLEY":" ","HOUSE_NO":"７７號","E_COORD97":174586.63,"N_COORD97":2548275.6800000002,"ADDRESS":"龍安街７７號","OBJECTID":216794},"geometry":{"x":174586.63000000082,"y":2548275.6800000016}},{"attributes":{"ID":216796,"DIS_CODE":0,"TOWNNAME":"永康區","LI":"龍潭里","LIN":"12鄰","STREET":"龍橋街","SECT":" ","MAREA":" ","LANE":" ","ALLEY":" ","HOUSE_NO":"５１號","E_COORD97":174793.95000000001,"N_COORD97":2548383.5899999999,"ADDRESS":"龍橋街５１號","OBJECTID":216795},"geometry":{"x":174793.95000000019,"y":2548383.5900000036}},{"attributes":{"ID":216797,"DIS_CODE":0,"TOWNNAME":"東區","LI":"文聖里","LIN":"9鄰","STREET":"裕農三街","SECT":" ","MAREA":" ","LANE":" ","ALLEY":" ","HOUSE_NO":"２０１號","E_COORD97":172051.84,"N_COORD97":2542683.3399999999,"ADDRESS":"裕農三街２０１號","OBJECTID":216796},"geometry":{"x":172051.83999999985,"y":2542683.3400000017}},{"attributes":{"ID":216798,"DIS_CODE":0,"TOWNNAME":"東區","LI":"文聖里","LIN":"9鄰","STREET":"裕農三街","SECT":" ","MAREA":" ","LANE":" ","ALLEY":" ","HOUSE_NO":"２０３號","E_COORD97":172051.51000000001,"N_COORD97":2542677.29,"ADDRESS":"裕農三街２０３號","OBJECTID":216797},"geometry":{"x":172051.51000000071,"y":2542677.2899999991}},{"attributes":{"ID":216799,"DIS_CODE":0,"TOWNNAME":"北區","LI":"和順里","LIN":"29鄰","STREET":"臨安路","SECT":"二段","MAREA":" ","LANE":"１４３巷","ALLEY":"８０弄","HOUSE_NO":"６６號","E_COORD97":167888.20000000001,"N_COORD97":2545050.4100000001,"ADDRESS":"臨安路二段１４３巷８０弄６６號","OBJECTID":216798},"geometry":{"x":167888.20000000019,"y":2545050.410000002}},{"attributes":{"ID":216800,"DIS_CODE":0,"TOWNNAME":"北區","LI":"和順里","LIN":"29鄰","STREET":"臨安路","SECT":"二段","MAREA":" ","LANE":"１４３巷","ALLEY":"８０弄","HOUSE_NO":"６８號","E_COORD97":167892.89000000001,"N_COORD97":2545050.5699999998,"ADDRESS":"臨安路二段１４３巷８０弄６８號","OBJECTID":216799},"geometry":{"x":167892.88999999966,"y":2545050.5700000003}},{"attributes":{"ID":216801,"DIS_CODE":0,"TOWNNAME":"北區","LI":"和順里","LIN":"29鄰","STREET":"臨安路","SECT":"二段","MAREA":" ","LANE":"１４３巷","ALLEY":"８０弄","HOUSE_NO":"７０號","E_COORD97":167898.84,"N_COORD97":2545050.4100000001,"ADDRESS":"臨安路二段１４３巷８０弄７０號","OBJECTID":216800},"geometry":{"x":167898.83999999892,"y":2545050.410000002}}]}