{"displayFieldName":"TOWNNAME","fieldAliases":{"ID":"ID","DIS_CODE":"DIS_CODE","TOWNNAME":"TOWNNAME","LI":"LI","LIN":"LIN","STREET":"STREET","SECT":"SECT","MAREA":"MAREA","LANE":"LANE","ALLEY":"ALLEY","HOUSE_NO":"HOUSE_NO","E_COORD97":"E_COORD97","N_COORD97":"N_COORD97","ADDRESS":"ADDRESS","OBJECTID":"OBJECTID"},"geometryType":"esriGeometryPoint","spatialReference":{"wkid":102443,"latestWkid":3826},"fields":[{"name":"ID","type":"esriFieldTypeDouble","alias":"ID"},{"name":"DIS_CODE","type":"esriFieldTypeInteger","alias":"DIS_CODE"},{"name":"TOWNNAME","type":"esriFieldTypeString","alias":"TOWNNAME","length":8},{"name":"LI","type":"esriFieldTypeString","alias":"LI","length":8},{"name":"LIN","type":"esriFieldTypeString","alias":"LIN","length":12},{"name":"STREET","type":"esriFieldTypeString","alias":"STREET","length":20},{"name":"SECT","type":"esriFieldTypeString","alias":"SECT","length":8},{"name":"MAREA","type":"esriFieldTypeString","alias":"MAREA","length":12},{"name":"LANE","type":"esriFieldTypeString","alias":"LANE","length":10},{"name":"ALLEY","type":"esriFieldTypeString","alias":"ALLEY","length":10},{"name":"HOUSE_NO","type":"esriFieldTypeString","alias":"HOUSE_NO","length":20},{"name":"E_COORD97","type":"esriFieldTypeDouble","alias":"E_COORD97"},{"name":"N_COORD97","type":"esriFieldTypeDouble","alias":"N_COORD97"},{"name":"ADDRESS","type":"esriFieldTypeString","alias":"ADDRESS","length":50},{"name":"OBJECTID","type":"esriFieldTypeOID","alias":"OBJECTID"}],"features":[{"attributes":{"ID":162002,"DIS_CODE":0,"TOWNNAME":"永康區","LI":"中華里","LIN":"4鄰","STREET":"小東路","SECT":" ","MAREA":" ","LANE":"６４７巷","ALLEY":"１０弄","HOUSE_NO":"３號","E_COORD97":171972.20999999999,"N_COORD97":2544387.5699999998,"ADDRESS":"小東路６４７巷１０弄３號","OBJECTID":162001},"geometry":{"x":171972.21000000089,"y":2544387.5700000022}},{"attributes":{"ID":162003,"DIS_CODE":0,"TOWNNAME":"永康區","LI":"中華里","LIN":"4鄰","STREET":"小東路","SECT":" ","MAREA":" ","LANE":"６４７巷","ALLEY":"１０弄","HOUSE_NO":"９號","E_COORD97":171984.76000000001,"N_COORD97":2544387.8599999999,"ADDRESS":"小東路６４７巷１０弄９號","OBJECTID":162002},"geometry":{"x":171984.76000000164,"y":2544387.8600000013}},{"attributes":{"ID":162004,"DIS_CODE":0,"TOWNNAME":"永康區","LI":"埔園里","LIN":" ","STREET":"八德街","SECT":" ","MAREA":" ","LANE":"３２６巷","ALLEY":"２９弄","HOUSE_NO":"３號","E_COORD97":173636.32000000001,"N_COORD97":2548707.0899999999,"ADDRESS":"八德街３２６巷２９弄３號","OBJECTID":162003},"geometry":{"x":173636.32000000123,"y":2548707.0900000017}},{"attributes":{"ID":162005,"DIS_CODE":0,"TOWNNAME":"永康區","LI":"中華里","LIN":"4鄰","STREET":"小東路","SECT":" ","MAREA":" ","LANE":"６４７巷","ALLEY":"１０弄","HOUSE_NO":"１９號","E_COORD97":172006.87,"N_COORD97":2544388.0099999998,"ADDRESS":"小東路６４７巷１０弄１９號","OBJECTID":162004},"geometry":{"x":172006.87000000104,"y":2544388.0100000016}},{"attributes":{"ID":162006,"DIS_CODE":0,"TOWNNAME":"新市區","LI":"大社里","LIN":"18鄰","STREET":" ","SECT":" ","MAREA":"大社","LANE":" ","ALLEY":" ","HOUSE_NO":"７４５號","E_COORD97":180137.60000000001,"N_COORD97":2554221.75,"ADDRESS":"大社７４５號","OBJECTID":162005},"geometry":{"x":180137.59999999963,"y":2554221.7500000019}},{"attributes":{"ID":162007,"DIS_CODE":0,"TOWNNAME":"永康區","LI":"\u25A0洲里","LIN":" ","STREET":"中正南路","SECT":" ","MAREA":" ","LANE":"５７巷","ALLEY":"６２弄","HOUSE_NO":"４號","E_COORD97":169912.39000000001,"N_COORD97":2546775.9500000002,"ADDRESS":"中正南路５７巷６２弄４號","OBJECTID":162006},"geometry":{"x":169912.39000000153,"y":2546775.9499999993}},{"attributes":{"ID":162008,"DIS_CODE":0,"TOWNNAME":"永康區","LI":"\u25A0洲里","LIN":" ","STREET":"中正南路","SECT":" ","MAREA":" ","LANE":"７４３巷","ALLEY":"２弄","HOUSE_NO":"１０之３號","E_COORD97":171647.66,"N_COORD97":2548953.9199999999,"ADDRESS":"中正南路７４３巷２弄１０之３號","OBJECTID":162007},"geometry":{"x":171647.66000000108,"y":2548953.9199999999}},{"attributes":{"ID":162009,"DIS_CODE":0,"TOWNNAME":"北門區","LI":"玉港里","LIN":"18鄰","STREET":" ","SECT":" ","MAREA":"西埔內","LANE":" ","ALLEY":" ","HOUSE_NO":"４２號","E_COORD97":162104.07999999999,"N_COORD97":2573973.9500000002,"ADDRESS":"西埔內４２號","OBJECTID":162008},"geometry":{"x":162104.08000000101,"y":2573973.9499999993}},{"attributes":{"ID":162010,"DIS_CODE":0,"TOWNNAME":"北門區","LI":"玉港里","LIN":"18鄰","STREET":" ","SECT":" ","MAREA":"西埔內","LANE":" ","ALLEY":" ","HOUSE_NO":"４３號之１","E_COORD97":162093.95999999999,"N_COORD97":2574024.6499999999,"ADDRESS":"西埔內４３號之１","OBJECTID":162009},"geometry":{"x":162093.96000000183,"y":2574024.6500000004}},{"attributes":{"ID":162011,"DIS_CODE":0,"TOWNNAME":"永康區","LI":"新樹里","LIN":" ","STREET":"富強路","SECT":"二段","MAREA":" ","LANE":"１２８巷","ALLEY":"１４弄","HOUSE_NO":"５號","E_COORD97":175738.32999999999,"N_COORD97":2547071.75,"ADDRESS":"富強路二段１２８巷１４弄５號","OBJECTID":162010},"geometry":{"x":175738.33000000101,"y":2547071.7500000019}},{"attributes":{"ID":162012,"DIS_CODE":0,"TOWNNAME":"永康區","LI":"埔園里","LIN":" ","STREET":"八德街","SECT":" ","MAREA":" ","LANE":"３２６巷","ALLEY":"２９弄","HOUSE_NO":"３２號","E_COORD97":173596.07000000001,"N_COORD97":2548730.0899999999,"ADDRESS":"八德街３２６巷２９弄３２號","OBJECTID":162011},"geometry":{"x":173596.07000000123,"y":2548730.0900000017}},{"attributes":{"ID":162013,"DIS_CODE":0,"TOWNNAME":"北門區","LI":"玉港里","LIN":"18鄰","STREET":" ","SECT":" ","MAREA":"西埔內","LANE":" ","ALLEY":" ","HOUSE_NO":"４３號","E_COORD97":162108.23999999999,"N_COORD97":2573992.1499999999,"ADDRESS":"西埔內４３號","OBJECTID":162012},"geometry":{"x":162108.24000000115,"y":2573992.1500000022}},{"attributes":{"ID":162014,"DIS_CODE":0,"TOWNNAME":"北門區","LI":"保吉里","LIN":"18鄰","STREET":" ","SECT":" ","MAREA":"蚵寮","LANE":" ","ALLEY":" ","HOUSE_NO":"４０７號","E_COORD97":161564.67999999999,"N_COORD97":2576262.7000000002,"ADDRESS":"蚵寮４０７號","OBJECTID":162013},"geometry":{"x":161564.6799999997,"y":2576262.7000000011}},{"attributes":{"ID":162015,"DIS_CODE":0,"TOWNNAME":"北門區","LI":"保吉里","LIN":"18鄰","STREET":" ","SECT":" ","MAREA":"蚵寮","LANE":" ","ALLEY":" ","HOUSE_NO":"４０８號","E_COORD97":161568.26999999999,"N_COORD97":2576263.8399999999,"ADDRESS":"蚵寮４０８號","OBJECTID":162014},"geometry":{"x":161568.27000000048,"y":2576263.8399999999}},{"attributes":{"ID":162016,"DIS_CODE":0,"TOWNNAME":"北門區","LI":"保吉里","LIN":"18鄰","STREET":" ","SECT":" ","MAREA":"蚵寮","LANE":" ","ALLEY":" ","HOUSE_NO":"４０９號","E_COORD97":161578.42999999999,"N_COORD97":2576262.9100000001,"ADDRESS":"蚵寮４０９號","OBJECTID":162015},"geometry":{"x":161578.43000000156,"y":2576262.9100000001}},{"attributes":{"ID":162017,"DIS_CODE":0,"TOWNNAME":"北門區","LI":"保吉里","LIN":"18鄰","STREET":" ","SECT":" ","MAREA":"蚵寮","LANE":" ","ALLEY":" ","HOUSE_NO":"４１０號","E_COORD97":161588.17999999999,"N_COORD97":2576271.4100000001,"ADDRESS":"蚵寮４１０號","OBJECTID":162016},"geometry":{"x":161588.1799999997,"y":2576271.410000002}},{"attributes":{"ID":162018,"DIS_CODE":0,"TOWNNAME":"永康區","LI":"新樹里","LIN":" ","STREET":"中山北路","SECT":" ","MAREA":" ","LANE":"６３４巷","ALLEY":"１８弄","HOUSE_NO":"３６之５號","E_COORD97":176180.56,"N_COORD97":2547770.6899999999,"ADDRESS":"中山北路６３４巷１８弄３６之５號","OBJECTID":162017},"geometry":{"x":176180.56000000052,"y":2547770.6899999995}},{"attributes":{"ID":162019,"DIS_CODE":0,"TOWNNAME":"永康區","LI":"光復里","LIN":" ","STREET":"復興路","SECT":" ","MAREA":" ","LANE":"１１２巷","ALLEY":"５７弄","HOUSE_NO":"１５號","E_COORD97":172572.13,"N_COORD97":2544594.52,"ADDRESS":"復興路１１２巷５７弄１５號","OBJECTID":162018},"geometry":{"x":172572.12999999989,"y":2544594.5200000014}},{"attributes":{"ID":162020,"DIS_CODE":0,"TOWNNAME":"永康區","LI":"西灣里","LIN":" ","STREET":"大灣路","SECT":" ","MAREA":" ","LANE":"９４２巷","ALLEY":"５６１弄","HOUSE_NO":"７８之２號","E_COORD97":173577.14999999999,"N_COORD97":2545744.6400000001,"ADDRESS":"大灣路９４２巷５６１弄７８之２號","OBJECTID":162019},"geometry":{"x":173577.15000000037,"y":2545744.6400000006}},{"attributes":{"ID":162021,"DIS_CODE":0,"TOWNNAME":"永康區","LI":"中華里","LIN":"4鄰","STREET":"小東路","SECT":" ","MAREA":" ","LANE":"６４７巷","ALLEY":"１０弄","HOUSE_NO":"５號","E_COORD97":171976.44,"N_COORD97":2544387.5699999998,"ADDRESS":"小東路６４７巷１０弄５號","OBJECTID":162020},"geometry":{"x":171976.44000000134,"y":2544387.5700000022}},{"attributes":{"ID":162022,"DIS_CODE":0,"TOWNNAME":"永康區","LI":"大橋里","LIN":" ","STREET":"大橋二街","SECT":" ","MAREA":" ","LANE":"２３９巷","ALLEY":"２１弄","HOUSE_NO":"３３號","E_COORD97":171023.92000000001,"N_COORD97":2546790.3799999999,"ADDRESS":"大橋二街２３９巷２１弄３３號","OBJECTID":162021},"geometry":{"x":171023.91999999993,"y":2546790.3800000027}},{"attributes":{"ID":162023,"DIS_CODE":0,"TOWNNAME":"永康區","LI":"新樹里","LIN":" ","STREET":"富強路","SECT":"二段","MAREA":" ","LANE":"５６巷","ALLEY":"５８弄","HOUSE_NO":"１之２號","E_COORD97":175810.64999999999,"N_COORD97":2547056.5800000001,"ADDRESS":"富強路二段５６巷５８弄１之２號","OBJECTID":162022},"geometry":{"x":175810.65000000224,"y":2547056.5800000001}},{"attributes":{"ID":162024,"DIS_CODE":0,"TOWNNAME":"北門區","LI":"保吉里","LIN":"18鄰","STREET":" ","SECT":" ","MAREA":"蚵寮","LANE":" ","ALLEY":" ","HOUSE_NO":"４１２號","E_COORD97":161595.57000000001,"N_COORD97":2576272.4100000001,"ADDRESS":"蚵寮４１２號","OBJECTID":162023},"geometry":{"x":161595.57000000123,"y":2576272.410000002}},{"attributes":{"ID":162025,"DIS_CODE":0,"TOWNNAME":"北門區","LI":"保吉里","LIN":"18鄰","STREET":" ","SECT":" ","MAREA":"蚵寮","LANE":" ","ALLEY":" ","HOUSE_NO":"４１３號","E_COORD97":161603.38,"N_COORD97":2576275.0600000001,"ADDRESS":"蚵寮４１３號","OBJECTID":162024},"geometry":{"x":161603.38000000082,"y":2576275.0600000024}},{"attributes":{"ID":162026,"DIS_CODE":0,"TOWNNAME":"北門區","LI":"保吉里","LIN":"18鄰","STREET":" ","SECT":" ","MAREA":"蚵寮","LANE":" ","ALLEY":" ","HOUSE_NO":"４１４號","E_COORD97":161613,"N_COORD97":2576274.5,"ADDRESS":"蚵寮４１４號","OBJECTID":162025},"geometry":{"x":161613.00000000093,"y":2576274.5000000019}},{"attributes":{"ID":162027,"DIS_CODE":0,"TOWNNAME":"北門區","LI":"保吉里","LIN":"18鄰","STREET":" ","SECT":" ","MAREA":"蚵寮","LANE":" ","ALLEY":" ","HOUSE_NO":"４１５號","E_COORD97":161611.79999999999,"N_COORD97":2576279.7400000002,"ADDRESS":"蚵寮４１５號","OBJECTID":162026},"geometry":{"x":161611.80000000168,"y":2576279.7400000021}},{"attributes":{"ID":162028,"DIS_CODE":0,"TOWNNAME":"永康區","LI":"甲頂里","LIN":" ","STREET":"中正南路","SECT":" ","MAREA":" ","LANE":"１６８巷","ALLEY":"２弄","HOUSE_NO":"１３８號","E_COORD97":169907.29000000001,"N_COORD97":2546885.2400000002,"ADDRESS":"中正南路１６８巷２弄１３８號","OBJECTID":162027},"geometry":{"x":169907.29000000097,"y":2546885.2400000021}},{"attributes":{"ID":162029,"DIS_CODE":0,"TOWNNAME":"白河區","LI":"永安里","LIN":"15鄰","STREET":"新興路","SECT":" ","MAREA":" ","LANE":" ","ALLEY":" ","HOUSE_NO":"５３８號","E_COORD97":190100.51999999999,"N_COORD97":2583621.0299999998,"ADDRESS":"新興路５３８號","OBJECTID":162028},"geometry":{"x":190100.51999999955,"y":2583621.0300000012}},{"attributes":{"ID":162030,"DIS_CODE":0,"TOWNNAME":"白河區","LI":"永安里","LIN":"15鄰","STREET":"新興路","SECT":" ","MAREA":" ","LANE":" ","ALLEY":" ","HOUSE_NO":"５４０號","E_COORD97":190097.79999999999,"N_COORD97":2583623.2000000002,"ADDRESS":"新興路５４０號","OBJECTID":162029},"geometry":{"x":190097.80000000075,"y":2583623.2000000011}},{"attributes":{"ID":162031,"DIS_CODE":0,"TOWNNAME":"白河區","LI":"永安里","LIN":"15鄰","STREET":"新興路","SECT":" ","MAREA":" ","LANE":" ","ALLEY":" ","HOUSE_NO":"５４２號","E_COORD97":190094.85999999999,"N_COORD97":2583626.04,"ADDRESS":"新興路５４２號","OBJECTID":162030},"geometry":{"x":190094.86000000127,"y":2583626.0400000028}},{"attributes":{"ID":162032,"DIS_CODE":0,"TOWNNAME":"北門區","LI":"保吉里","LIN":"18鄰","STREET":" ","SECT":" ","MAREA":"蚵寮","LANE":" ","ALLEY":" ","HOUSE_NO":"４１６號","E_COORD97":161609.98999999999,"N_COORD97":2576283.0099999998,"ADDRESS":"蚵寮４１６號","OBJECTID":162031},"geometry":{"x":161609.99000000115,"y":2576283.0099999998}},{"attributes":{"ID":162033,"DIS_CODE":0,"TOWNNAME":"北門區","LI":"保吉里","LIN":"18鄰","STREET":" ","SECT":" ","MAREA":"蚵寮","LANE":" ","ALLEY":" ","HOUSE_NO":"４１７號","E_COORD97":161613.85000000001,"N_COORD97":2576290.0099999998,"ADDRESS":"蚵寮４１７號","OBJECTID":162032},"geometry":{"x":161613.84999999963,"y":2576290.0099999979}},{"attributes":{"ID":162034,"DIS_CODE":0,"TOWNNAME":"新市區","LI":"大社里","LIN":"18鄰","STREET":" ","SECT":" ","MAREA":"大社","LANE":" ","ALLEY":" ","HOUSE_NO":"７４５之１號","E_COORD97":180138.01000000001,"N_COORD97":2554227.7999999998,"ADDRESS":"大社７４５之１號","OBJECTID":162033},"geometry":{"x":180138.00999999978,"y":2554227.7999999989}},{"attributes":{"ID":162035,"DIS_CODE":0,"TOWNNAME":"新市區","LI":"大營里","LIN":"18鄰","STREET":" ","SECT":" ","MAREA":"豐榮","LANE":" ","ALLEY":" ","HOUSE_NO":"１３號","E_COORD97":178970.98999999999,"N_COORD97":2554435,"ADDRESS":"豐榮１３號","OBJECTID":162034},"geometry":{"x":178970.99000000022,"y":2554435}},{"attributes":{"ID":162036,"DIS_CODE":0,"TOWNNAME":"新市區","LI":"大營里","LIN":"18鄰","STREET":" ","SECT":" ","MAREA":"豐榮","LANE":" ","ALLEY":" ","HOUSE_NO":"１２號","E_COORD97":178974.60000000001,"N_COORD97":2554437.5,"ADDRESS":"豐榮１２號","OBJECTID":162035},"geometry":{"x":178974.59999999963,"y":2554437.5000000019}},{"attributes":{"ID":162037,"DIS_CODE":0,"TOWNNAME":"新市區","LI":"大營里","LIN":"18鄰","STREET":" ","SECT":" ","MAREA":"豐榮","LANE":" ","ALLEY":" ","HOUSE_NO":"１６之５號","E_COORD97":178941.64999999999,"N_COORD97":2554470.7999999998,"ADDRESS":"豐榮１６之５號","OBJECTID":162036},"geometry":{"x":178941.65000000224,"y":2554470.8000000007}},{"attributes":{"ID":162038,"DIS_CODE":0,"TOWNNAME":"新市區","LI":"大社里","LIN":"18鄰","STREET":" ","SECT":" ","MAREA":"大社","LANE":" ","ALLEY":" ","HOUSE_NO":"７５０之２號","E_COORD97":180151.51000000001,"N_COORD97":2554191.5499999998,"ADDRESS":"大社７５０之２號","OBJECTID":162037},"geometry":{"x":180151.50999999978,"y":2554191.5500000007}},{"attributes":{"ID":162039,"DIS_CODE":0,"TOWNNAME":"新市區","LI":"大營里","LIN":"18鄰","STREET":" ","SECT":" ","MAREA":"豐榮","LANE":" ","ALLEY":" ","HOUSE_NO":"６號","E_COORD97":178994.48999999999,"N_COORD97":2554453.5,"ADDRESS":"豐榮６號","OBJECTID":162038},"geometry":{"x":178994.49000000022,"y":2554453.5000000019}},{"attributes":{"ID":162040,"DIS_CODE":0,"TOWNNAME":"新市區","LI":"大營里","LIN":"18鄰","STREET":" ","SECT":" ","MAREA":"豐榮","LANE":" ","ALLEY":" ","HOUSE_NO":"２４號","E_COORD97":178891.92000000001,"N_COORD97":2554420,"ADDRESS":"豐榮２４號","OBJECTID":162039},"geometry":{"x":178891.92000000086,"y":2554420.0000000019}},{"attributes":{"ID":162041,"DIS_CODE":0,"TOWNNAME":"新市區","LI":"大營里","LIN":"18鄰","STREET":" ","SECT":" ","MAREA":"豐榮","LANE":" ","ALLEY":" ","HOUSE_NO":"１９號","E_COORD97":178927.23999999999,"N_COORD97":2554375.5,"ADDRESS":"豐榮１９號","OBJECTID":162040},"geometry":{"x":178927.24000000209,"y":2554375.5000000019}},{"attributes":{"ID":162042,"DIS_CODE":0,"TOWNNAME":"新市區","LI":"大社里","LIN":"18鄰","STREET":" ","SECT":" ","MAREA":"大社","LANE":" ","ALLEY":" ","HOUSE_NO":"７４８號","E_COORD97":180143.31,"N_COORD97":2554207.25,"ADDRESS":"大社７４８號","OBJECTID":162041},"geometry":{"x":180143.31000000145,"y":2554207.2500000037}},{"attributes":{"ID":162043,"DIS_CODE":0,"TOWNNAME":"新市區","LI":"大社里","LIN":"18鄰","STREET":" ","SECT":" ","MAREA":"大社","LANE":" ","ALLEY":" ","HOUSE_NO":"７５０之３號","E_COORD97":180154.26000000001,"N_COORD97":2554188.0499999998,"ADDRESS":"大社７５０之３號","OBJECTID":162042},"geometry":{"x":180154.26000000071,"y":2554188.0500000007}},{"attributes":{"ID":162044,"DIS_CODE":0,"TOWNNAME":"新市區","LI":"大營里","LIN":"18鄰","STREET":" ","SECT":" ","MAREA":"豐榮","LANE":" ","ALLEY":" ","HOUSE_NO":"２６之３０號","E_COORD97":178877.82000000001,"N_COORD97":2554498.5499999998,"ADDRESS":"豐榮２６之３０號","OBJECTID":162043},"geometry":{"x":178877.82000000123,"y":2554498.5500000026}},{"attributes":{"ID":162045,"DIS_CODE":0,"TOWNNAME":"新市區","LI":"大社里","LIN":"18鄰","STREET":" ","SECT":" ","MAREA":"大社","LANE":" ","ALLEY":" ","HOUSE_NO":"７５０號之１","E_COORD97":180150.73000000001,"N_COORD97":2554195.7999999998,"ADDRESS":"大社７５０號之１","OBJECTID":162044},"geometry":{"x":180150.73000000045,"y":2554195.8000000026}},{"attributes":{"ID":162046,"DIS_CODE":0,"TOWNNAME":"新市區","LI":"大社里","LIN":"18鄰","STREET":" ","SECT":" ","MAREA":"大社","LANE":" ","ALLEY":" ","HOUSE_NO":"７４６號","E_COORD97":180140.26000000001,"N_COORD97":2554214.75,"ADDRESS":"大社７４６號","OBJECTID":162045},"geometry":{"x":180140.25999999885,"y":2554214.7500000019}},{"attributes":{"ID":162047,"DIS_CODE":0,"TOWNNAME":"新市區","LI":"大營里","LIN":"18鄰","STREET":" ","SECT":" ","MAREA":"豐榮","LANE":" ","ALLEY":" ","HOUSE_NO":"２１號","E_COORD97":178908.98999999999,"N_COORD97":2554372.75,"ADDRESS":"豐榮２１號","OBJECTID":162046},"geometry":{"x":178908.99000000115,"y":2554372.75}},{"attributes":{"ID":162048,"DIS_CODE":0,"TOWNNAME":"新市區","LI":"大社里","LIN":"18鄰","STREET":" ","SECT":" ","MAREA":"大社","LANE":" ","ALLEY":" ","HOUSE_NO":"７５３號之７","E_COORD97":180089.97,"N_COORD97":2554190.2999999998,"ADDRESS":"大社７５３號之７","OBJECTID":162047},"geometry":{"x":180089.97000000067,"y":2554190.3000000007}},{"attributes":{"ID":162049,"DIS_CODE":0,"TOWNNAME":"新市區","LI":"大營里","LIN":"18鄰","STREET":" ","SECT":" ","MAREA":"豐榮","LANE":" ","ALLEY":" ","HOUSE_NO":"３之１號","E_COORD97":179018.67999999999,"N_COORD97":2554535.7999999998,"ADDRESS":"豐榮３之１號","OBJECTID":162048},"geometry":{"x":179018.68000000156,"y":2554535.8000000007}},{"attributes":{"ID":162050,"DIS_CODE":0,"TOWNNAME":"新市區","LI":"大營里","LIN":"18鄰","STREET":" ","SECT":" ","MAREA":"豐榮","LANE":" ","ALLEY":" ","HOUSE_NO":"１１號","E_COORD97":178975.39999999999,"N_COORD97":2554444.5,"ADDRESS":"豐榮１１號","OBJECTID":162049},"geometry":{"x":178975.40000000224,"y":2554444.5000000019}},{"attributes":{"ID":162051,"DIS_CODE":0,"TOWNNAME":"新市區","LI":"大社里","LIN":"18鄰","STREET":" ","SECT":" ","MAREA":"大社","LANE":" ","ALLEY":" ","HOUSE_NO":"７５３號","E_COORD97":180079.81,"N_COORD97":2554227.25,"ADDRESS":"大社７５３號","OBJECTID":162050},"geometry":{"x":180079.80999999959,"y":2554227.25}},{"attributes":{"ID":162052,"DIS_CODE":0,"TOWNNAME":"新市區","LI":"大營里","LIN":"18鄰","STREET":" ","SECT":" ","MAREA":"豐榮","LANE":" ","ALLEY":" ","HOUSE_NO":"１４號","E_COORD97":178967.39999999999,"N_COORD97":2554432.5,"ADDRESS":"豐榮１４號","OBJECTID":162051},"geometry":{"x":178967.4000000013,"y":2554432.4999999981}},{"attributes":{"ID":162053,"DIS_CODE":0,"TOWNNAME":"安南區","LI":"城中里","LIN":"6鄰","STREET":"城西街","SECT":"一段","MAREA":" ","LANE":"６１巷","ALLEY":"２７弄","HOUSE_NO":"２號","E_COORD97":160759.139433,"N_COORD97":2551341.3336200002,"ADDRESS":"城西街一段６１巷２７弄２號","OBJECTID":162052},"geometry":{"x":160759.13943300024,"y":2551341.3336240016}},{"attributes":{"ID":162054,"DIS_CODE":0,"TOWNNAME":"新市區","LI":"大營里","LIN":"18鄰","STREET":" ","SECT":" ","MAREA":"豐榮","LANE":" ","ALLEY":" ","HOUSE_NO":"２６之５號","E_COORD97":178909.64999999999,"N_COORD97":2554446.5499999998,"ADDRESS":"豐榮２６之５號","OBJECTID":162053},"geometry":{"x":178909.6500000013,"y":2554446.5499999989}},{"attributes":{"ID":162055,"DIS_CODE":0,"TOWNNAME":"中西區","LI":"大南里","LIN":"12鄰","STREET":"樹林街","SECT":"二段","MAREA":" ","LANE":" ","ALLEY":" ","HOUSE_NO":"１１３號三樓","E_COORD97":168330.82000000001,"N_COORD97":2542943.7799999998,"ADDRESS":"樹林街二段１１３號三樓","OBJECTID":162054},"geometry":{"x":168330.82000000123,"y":2542943.7800000012}},{"attributes":{"ID":162056,"DIS_CODE":0,"TOWNNAME":"官田區","LI":"湖山里","LIN":"18鄰","STREET":" ","SECT":" ","MAREA":"烏山頭","LANE":" ","ALLEY":" ","HOUSE_NO":"１１０號之６","E_COORD97":183530.09,"N_COORD97":2567578.3199999998,"ADDRESS":"烏山頭１１０號之６","OBJECTID":162055},"geometry":{"x":183530.08999999985,"y":2567578.3200000003}},{"attributes":{"ID":162057,"DIS_CODE":0,"TOWNNAME":"官田區","LI":"湖山里","LIN":"18鄰","STREET":" ","SECT":" ","MAREA":"烏山頭","LANE":" ","ALLEY":" ","HOUSE_NO":"１１０號之７","E_COORD97":183531.04000000001,"N_COORD97":2567573.7599999998,"ADDRESS":"烏山頭１１０號之７","OBJECTID":162056},"geometry":{"x":183531.04000000097,"y":2567573.7599999998}},{"attributes":{"ID":162058,"DIS_CODE":0,"TOWNNAME":"官田區","LI":"湖山里","LIN":"18鄰","STREET":" ","SECT":" ","MAREA":"烏山頭","LANE":" ","ALLEY":" ","HOUSE_NO":"１１０號之８","E_COORD97":183531.76999999999,"N_COORD97":2567569.3599999999,"ADDRESS":"烏山頭１１０號之８","OBJECTID":162057},"geometry":{"x":183531.76999999955,"y":2567569.3599999994}},{"attributes":{"ID":162059,"DIS_CODE":0,"TOWNNAME":"官田區","LI":"湖山里","LIN":"18鄰","STREET":" ","SECT":" ","MAREA":"烏山頭","LANE":" ","ALLEY":" ","HOUSE_NO":"１１０號之９","E_COORD97":183532.82999999999,"N_COORD97":2567562.8300000001,"ADDRESS":"烏山頭１１０號之９","OBJECTID":162058},"geometry":{"x":183532.83000000101,"y":2567562.8300000019}},{"attributes":{"ID":162060,"DIS_CODE":0,"TOWNNAME":"官田區","LI":"湖山里","LIN":"18鄰","STREET":" ","SECT":" ","MAREA":"烏山頭","LANE":" ","ALLEY":" ","HOUSE_NO":"１１０號","E_COORD97":183523.32000000001,"N_COORD97":2567617.3300000001,"ADDRESS":"烏山頭１１０號","OBJECTID":162059},"geometry":{"x":183523.3200000003,"y":2567617.3300000019}},{"attributes":{"ID":162061,"DIS_CODE":0,"TOWNNAME":"官田區","LI":"湖山里","LIN":"18鄰","STREET":" ","SECT":" ","MAREA":"烏山頭","LANE":" ","ALLEY":" ","HOUSE_NO":"１１１號之３","E_COORD97":183502.07000000001,"N_COORD97":2567648.0299999998,"ADDRESS":"烏山頭１１１號之３","OBJECTID":162060},"geometry":{"x":183502.07000000216,"y":2567648.0300000012}},{"attributes":{"ID":162062,"DIS_CODE":0,"TOWNNAME":"官田區","LI":"湖山里","LIN":"18鄰","STREET":" ","SECT":" ","MAREA":"烏山頭","LANE":" ","ALLEY":" ","HOUSE_NO":"１１１號之６","E_COORD97":183514.85000000001,"N_COORD97":2567634.54,"ADDRESS":"烏山頭１１１號之６","OBJECTID":162061},"geometry":{"x":183514.85000000056,"y":2567634.540000001}},{"attributes":{"ID":162063,"DIS_CODE":0,"TOWNNAME":"官田區","LI":"湖山里","LIN":"18鄰","STREET":" ","SECT":" ","MAREA":"烏山頭","LANE":" ","ALLEY":" ","HOUSE_NO":"１１１號","E_COORD97":183508.45999999999,"N_COORD97":2567630.7000000002,"ADDRESS":"烏山頭１１１號","OBJECTID":162062},"geometry":{"x":183508.45999999996,"y":2567630.7000000011}},{"attributes":{"ID":162064,"DIS_CODE":0,"TOWNNAME":"官田區","LI":"湖山里","LIN":"18鄰","STREET":" ","SECT":" ","MAREA":"烏山頭","LANE":" ","ALLEY":" ","HOUSE_NO":"１１２號之１","E_COORD97":183490.42999999999,"N_COORD97":2567631.73,"ADDRESS":"烏山頭１１２號之１","OBJECTID":162063},"geometry":{"x":183490.42999999877,"y":2567631.7300000023}},{"attributes":{"ID":162065,"DIS_CODE":0,"TOWNNAME":"官田區","LI":"湖山里","LIN":"18鄰","STREET":" ","SECT":" ","MAREA":"烏山頭","LANE":" ","ALLEY":" ","HOUSE_NO":"１１２號之３","E_COORD97":183486.19,"N_COORD97":2567630.4199999999,"ADDRESS":"烏山頭１１２號之３","OBJECTID":162064},"geometry":{"x":183486.19000000227,"y":2567630.4199999999}},{"attributes":{"ID":162066,"DIS_CODE":0,"TOWNNAME":"後壁區","LI":"侯伯里","LIN":"18鄰","STREET":" ","SECT":" ","MAREA":"後壁寮","LANE":" ","ALLEY":" ","HOUSE_NO":"１５７號之１","E_COORD97":184523.48999999999,"N_COORD97":2585263.04,"ADDRESS":"後壁寮１５７號之１","OBJECTID":162065},"geometry":{"x":184523.49000000115,"y":2585263.0399999991}},{"attributes":{"ID":162067,"DIS_CODE":0,"TOWNNAME":"後壁區","LI":"侯伯里","LIN":"18鄰","STREET":" ","SECT":" ","MAREA":"後壁寮","LANE":" ","ALLEY":" ","HOUSE_NO":"１５７號之４","E_COORD97":184572.63,"N_COORD97":2585276.1499999999,"ADDRESS":"後壁寮１５７號之４","OBJECTID":162066},"geometry":{"x":184572.63000000175,"y":2585276.1500000004}},{"attributes":{"ID":162068,"DIS_CODE":0,"TOWNNAME":"後壁區","LI":"侯伯里","LIN":"18鄰","STREET":" ","SECT":" ","MAREA":"後壁寮","LANE":" ","ALLEY":" ","HOUSE_NO":"１５７號","E_COORD97":184514.07000000001,"N_COORD97":2585236.2999999998,"ADDRESS":"後壁寮１５７號","OBJECTID":162067},"geometry":{"x":184514.07000000216,"y":2585236.2999999989}},{"attributes":{"ID":162069,"DIS_CODE":0,"TOWNNAME":"將軍區","LI":"保源里","LIN":"18鄰","STREET":" ","SECT":" ","MAREA":"源頭","LANE":" ","ALLEY":" ","HOUSE_NO":"７１號","E_COORD97":164631.95999999999,"N_COORD97":2568004.4500000002,"ADDRESS":"源頭７１號","OBJECTID":162068},"geometry":{"x":164631.96000000089,"y":2568004.4500000011}},{"attributes":{"ID":162070,"DIS_CODE":0,"TOWNNAME":"將軍區","LI":"保源里","LIN":"18鄰","STREET":" ","SECT":" ","MAREA":"源頭","LANE":" ","ALLEY":" ","HOUSE_NO":"７２號","E_COORD97":164629.78,"N_COORD97":2567991.4300000002,"ADDRESS":"源頭７２號","OBJECTID":162069},"geometry":{"x":164629.78000000212,"y":2567991.4300000016}},{"attributes":{"ID":162071,"DIS_CODE":0,"TOWNNAME":"將軍區","LI":"保源里","LIN":"18鄰","STREET":" ","SECT":" ","MAREA":"源頭","LANE":" ","ALLEY":" ","HOUSE_NO":"７４號","E_COORD97":164653.41,"N_COORD97":2568002.9300000002,"ADDRESS":"源頭７４號","OBJECTID":162070},"geometry":{"x":164653.41000000015,"y":2568002.9299999997}},{"attributes":{"ID":162072,"DIS_CODE":0,"TOWNNAME":"將軍區","LI":"保源里","LIN":"18鄰","STREET":" ","SECT":" ","MAREA":"源頭","LANE":" ","ALLEY":" ","HOUSE_NO":"７５號","E_COORD97":164665.92000000001,"N_COORD97":2568001.9500000002,"ADDRESS":"源頭７５號","OBJECTID":162071},"geometry":{"x":164665.92000000086,"y":2568001.9500000011}},{"attributes":{"ID":162073,"DIS_CODE":0,"TOWNNAME":"將軍區","LI":"保源里","LIN":"18鄰","STREET":" ","SECT":" ","MAREA":"源頭","LANE":" ","ALLEY":" ","HOUSE_NO":"７６之１號","E_COORD97":164690.35999999999,"N_COORD97":2567946.1899999999,"ADDRESS":"源頭７６之１號","OBJECTID":162072},"geometry":{"x":164690.3600000022,"y":2567946.1900000013}},{"attributes":{"ID":162074,"DIS_CODE":0,"TOWNNAME":"將軍區","LI":"保源里","LIN":"18鄰","STREET":" ","SECT":" ","MAREA":"源頭","LANE":" ","ALLEY":" ","HOUSE_NO":"７６之２號","E_COORD97":164691.39999999999,"N_COORD97":2567950.0699999998,"ADDRESS":"源頭７６之２號","OBJECTID":162073},"geometry":{"x":164691.40000000037,"y":2567950.070000004}},{"attributes":{"ID":162075,"DIS_CODE":0,"TOWNNAME":"將軍區","LI":"保源里","LIN":"18鄰","STREET":" ","SECT":" ","MAREA":"源頭","LANE":" ","ALLEY":" ","HOUSE_NO":"７６之３號","E_COORD97":164692.45999999999,"N_COORD97":2567954.4700000002,"ADDRESS":"源頭７６之３號","OBJECTID":162074},"geometry":{"x":164692.45999999996,"y":2567954.4700000044}},{"attributes":{"ID":162076,"DIS_CODE":0,"TOWNNAME":"將軍區","LI":"保源里","LIN":"18鄰","STREET":" ","SECT":" ","MAREA":"源頭","LANE":" ","ALLEY":" ","HOUSE_NO":"７６之４號","E_COORD97":164682.03,"N_COORD97":2567950.1299999999,"ADDRESS":"源頭７６之４號","OBJECTID":162075},"geometry":{"x":164682.03000000026,"y":2567950.129999999}},{"attributes":{"ID":162077,"DIS_CODE":0,"TOWNNAME":"將軍區","LI":"保源里","LIN":"18鄰","STREET":" ","SECT":" ","MAREA":"源頭","LANE":" ","ALLEY":" ","HOUSE_NO":"７６之５號","E_COORD97":164677.09,"N_COORD97":2567951.3399999999,"ADDRESS":"源頭７６之５號","OBJECTID":162076},"geometry":{"x":164677.09000000078,"y":2567951.3400000036}},{"attributes":{"ID":162078,"DIS_CODE":0,"TOWNNAME":"將軍區","LI":"保源里","LIN":"18鄰","STREET":" ","SECT":" ","MAREA":"源頭","LANE":" ","ALLEY":" ","HOUSE_NO":"７６號","E_COORD97":164688.92000000001,"N_COORD97":2567941.0899999999,"ADDRESS":"源頭７６號","OBJECTID":162077},"geometry":{"x":164688.91999999993,"y":2567941.0899999999}},{"attributes":{"ID":162079,"DIS_CODE":0,"TOWNNAME":"將軍區","LI":"保源里","LIN":"18鄰","STREET":" ","SECT":" ","MAREA":"源頭","LANE":" ","ALLEY":" ","HOUSE_NO":"７７之１號","E_COORD97":164698.54999999999,"N_COORD97":2567977.9100000001,"ADDRESS":"源頭７７之１號","OBJECTID":162078},"geometry":{"x":164698.54999999888,"y":2567977.9100000039}},{"attributes":{"ID":162080,"DIS_CODE":0,"TOWNNAME":"將軍區","LI":"保源里","LIN":"18鄰","STREET":" ","SECT":" ","MAREA":"源頭","LANE":" ","ALLEY":" ","HOUSE_NO":"７７之２號","E_COORD97":164697.48000000001,"N_COORD97":2567972.5499999998,"ADDRESS":"源頭７７之２號","OBJECTID":162079},"geometry":{"x":164697.48000000045,"y":2567972.5500000026}},{"attributes":{"ID":162081,"DIS_CODE":0,"TOWNNAME":"將軍區","LI":"保源里","LIN":"18鄰","STREET":" ","SECT":" ","MAREA":"源頭","LANE":" ","ALLEY":" ","HOUSE_NO":"７７號","E_COORD97":164675.14000000001,"N_COORD97":2567979.4300000002,"ADDRESS":"源頭７７號","OBJECTID":162080},"geometry":{"x":164675.13999999966,"y":2567979.4299999997}},{"attributes":{"ID":162082,"DIS_CODE":0,"TOWNNAME":"將軍區","LI":"保源里","LIN":"18鄰","STREET":" ","SECT":" ","MAREA":"源頭","LANE":" ","ALLEY":" ","HOUSE_NO":"７９號","E_COORD97":164630.48999999999,"N_COORD97":2567967.2599999998,"ADDRESS":"源頭７９號","OBJECTID":162081},"geometry":{"x":164630.49000000115,"y":2567967.2599999998}},{"attributes":{"ID":162083,"DIS_CODE":0,"TOWNNAME":"將軍區","LI":"保源里","LIN":"18鄰","STREET":" ","SECT":" ","MAREA":"源頭","LANE":" ","ALLEY":" ","HOUSE_NO":"８０號","E_COORD97":164625.84,"N_COORD97":2567946.75,"ADDRESS":"源頭８０號","OBJECTID":162082},"geometry":{"x":164625.84000000078,"y":2567946.7500000019}},{"attributes":{"ID":162084,"DIS_CODE":0,"TOWNNAME":"將軍區","LI":"廣山里","LIN":"18鄰","STREET":" ","SECT":" ","MAREA":"廣山","LANE":" ","ALLEY":" ","HOUSE_NO":"１７３號","E_COORD97":159660.39999999999,"N_COORD97":2568928.4700000002,"ADDRESS":"廣山１７３號","OBJECTID":162083},"geometry":{"x":159660.40000000224,"y":2568928.4700000025}},{"attributes":{"ID":162085,"DIS_CODE":0,"TOWNNAME":"將軍區","LI":"廣山里","LIN":"18鄰","STREET":" ","SECT":" ","MAREA":"廣山","LANE":" ","ALLEY":" ","HOUSE_NO":"１７４之１號","E_COORD97":159663.09,"N_COORD97":2568890.6699999999,"ADDRESS":"廣山１７４之１號","OBJECTID":162084},"geometry":{"x":159663.08999999985,"y":2568890.6699999999}},{"attributes":{"ID":162086,"DIS_CODE":0,"TOWNNAME":"將軍區","LI":"廣山里","LIN":"18鄰","STREET":" ","SECT":" ","MAREA":"廣山","LANE":" ","ALLEY":" ","HOUSE_NO":"１７４號","E_COORD97":159662.64999999999,"N_COORD97":2568912.2000000002,"ADDRESS":"廣山１７４號","OBJECTID":162085},"geometry":{"x":159662.6500000013,"y":2568912.2000000011}},{"attributes":{"ID":162087,"DIS_CODE":0,"TOWNNAME":"將軍區","LI":"廣山里","LIN":"18鄰","STREET":" ","SECT":" ","MAREA":"廣山","LANE":" ","ALLEY":" ","HOUSE_NO":"１７５號","E_COORD97":159675.10999999999,"N_COORD97":2568897.3199999998,"ADDRESS":"廣山１７５號","OBJECTID":162086},"geometry":{"x":159675.11000000034,"y":2568897.3200000003}},{"attributes":{"ID":162088,"DIS_CODE":0,"TOWNNAME":"將軍區","LI":"廣山里","LIN":"18鄰","STREET":" ","SECT":" ","MAREA":"廣山","LANE":" ","ALLEY":" ","HOUSE_NO":"１７６號","E_COORD97":159713.26999999999,"N_COORD97":2568903.1299999999,"ADDRESS":"廣山１７６號","OBJECTID":162087},"geometry":{"x":159713.27000000048,"y":2568903.129999999}},{"attributes":{"ID":162089,"DIS_CODE":0,"TOWNNAME":"中西區","LI":"仙草里","LIN":"12鄰","STREET":"府緯街","SECT":" ","MAREA":" ","LANE":" ","ALLEY":" ","HOUSE_NO":"２４號三樓","E_COORD97":167911.72,"N_COORD97":2542727.0099999998,"ADDRESS":"府緯街２４號三樓","OBJECTID":162088},"geometry":{"x":167911.72000000067,"y":2542727.0100000016}},{"attributes":{"ID":162090,"DIS_CODE":0,"TOWNNAME":"中西區","LI":"仙草里","LIN":"12鄰","STREET":"府緯街","SECT":" ","MAREA":" ","LANE":" ","ALLEY":" ","HOUSE_NO":"２４號五樓","E_COORD97":167911.72,"N_COORD97":2542727.0099999998,"ADDRESS":"府緯街２４號五樓","OBJECTID":162089},"geometry":{"x":167911.72000000067,"y":2542727.0100000016}},{"attributes":{"ID":162091,"DIS_CODE":0,"TOWNNAME":"中西區","LI":"仙草里","LIN":"12鄰","STREET":"府緯街","SECT":" ","MAREA":" ","LANE":" ","ALLEY":" ","HOUSE_NO":"２４號六樓","E_COORD97":167911.72,"N_COORD97":2542727.0099999998,"ADDRESS":"府緯街２４號六樓","OBJECTID":162090},"geometry":{"x":167911.72000000067,"y":2542727.0100000016}},{"attributes":{"ID":162092,"DIS_CODE":0,"TOWNNAME":"永康區","LI":"復興里","LIN":" ","STREET":"復興路","SECT":" ","MAREA":" ","LANE":"２７７巷","ALLEY":"９４弄","HOUSE_NO":"６之１號","E_COORD97":172324.69,"N_COORD97":2544074.2200000002,"ADDRESS":"復興路２７７巷９４弄６之１號","OBJECTID":162091},"geometry":{"x":172324.69000000041,"y":2544074.2200000044}},{"attributes":{"ID":162093,"DIS_CODE":0,"TOWNNAME":"永康區","LI":"埔園里","LIN":" ","STREET":"八德街","SECT":" ","MAREA":" ","LANE":"３２６巷","ALLEY":"２９弄","HOUSE_NO":"４０號","E_COORD97":173583.98000000001,"N_COORD97":2548731.5899999999,"ADDRESS":"八德街３２６巷２９弄４０號","OBJECTID":162092},"geometry":{"x":173583.98000000045,"y":2548731.5899999999}},{"attributes":{"ID":162094,"DIS_CODE":0,"TOWNNAME":"永康區","LI":"復興里","LIN":" ","STREET":"復興路","SECT":" ","MAREA":" ","LANE":"２９６巷","ALLEY":"１１弄","HOUSE_NO":"２５號","E_COORD97":172355.59,"N_COORD97":2544399.27,"ADDRESS":"復興路２９６巷１１弄２５號","OBJECTID":162093},"geometry":{"x":172355.59000000171,"y":2544399.2700000014}},{"attributes":{"ID":162095,"DIS_CODE":0,"TOWNNAME":"將軍區","LI":"廣山里","LIN":"18鄰","STREET":" ","SECT":" ","MAREA":"廣山","LANE":" ","ALLEY":" ","HOUSE_NO":"１７７號","E_COORD97":159734.54000000001,"N_COORD97":2568890.79,"ADDRESS":"廣山１７７號","OBJECTID":162094},"geometry":{"x":159734.54000000097,"y":2568890.790000001}},{"attributes":{"ID":162096,"DIS_CODE":0,"TOWNNAME":"將軍區","LI":"廣山里","LIN":"18鄰","STREET":" ","SECT":" ","MAREA":"廣山","LANE":" ","ALLEY":" ","HOUSE_NO":"１７８號","E_COORD97":159762.12,"N_COORD97":2568893.96,"ADDRESS":"廣山１７８號","OBJECTID":162095},"geometry":{"x":159762.12000000197,"y":2568893.9600000046}},{"attributes":{"ID":162097,"DIS_CODE":0,"TOWNNAME":"將軍區","LI":"廣山里","LIN":"18鄰","STREET":" ","SECT":" ","MAREA":"廣山","LANE":" ","ALLEY":" ","HOUSE_NO":"１７９號","E_COORD97":159781.17999999999,"N_COORD97":2568910.2599999998,"ADDRESS":"廣山１７９號","OBJECTID":162096},"geometry":{"x":159781.1799999997,"y":2568910.2599999998}},{"attributes":{"ID":162098,"DIS_CODE":0,"TOWNNAME":"將軍區","LI":"廣山里","LIN":"18鄰","STREET":" ","SECT":" ","MAREA":"廣山","LANE":" ","ALLEY":" ","HOUSE_NO":"１８０號","E_COORD97":159793.64999999999,"N_COORD97":2568894.1499999999,"ADDRESS":"廣山１８０號","OBJECTID":162097},"geometry":{"x":159793.65000000037,"y":2568894.1500000004}},{"attributes":{"ID":162099,"DIS_CODE":0,"TOWNNAME":"將軍區","LI":"廣山里","LIN":"18鄰","STREET":" ","SECT":" ","MAREA":"廣山","LANE":" ","ALLEY":" ","HOUSE_NO":"１８１號","E_COORD97":159792.51000000001,"N_COORD97":2568923.0800000001,"ADDRESS":"廣山１８１號","OBJECTID":162098},"geometry":{"x":159792.50999999978,"y":2568923.0800000019}},{"attributes":{"ID":162100,"DIS_CODE":0,"TOWNNAME":"將軍區","LI":"廣山里","LIN":"18鄰","STREET":" ","SECT":" ","MAREA":"廣山","LANE":" ","ALLEY":" ","HOUSE_NO":"１８２號","E_COORD97":159813.82000000001,"N_COORD97":2568907.77,"ADDRESS":"廣山１８２號","OBJECTID":162099},"geometry":{"x":159813.82000000123,"y":2568907.7700000014}},{"attributes":{"ID":162101,"DIS_CODE":0,"TOWNNAME":"將軍區","LI":"廣山里","LIN":"18鄰","STREET":" ","SECT":" ","MAREA":"廣山","LANE":" ","ALLEY":" ","HOUSE_NO":"１８３號","E_COORD97":159832.12,"N_COORD97":2568899.0600000001,"ADDRESS":"廣山１８３號","OBJECTID":162100},"geometry":{"x":159832.12000000104,"y":2568899.0600000005}},{"attributes":{"ID":162102,"DIS_CODE":0,"TOWNNAME":"將軍區","LI":"廣山里","LIN":"18鄰","STREET":" ","SECT":" ","MAREA":"廣山","LANE":" ","ALLEY":" ","HOUSE_NO":"１９０號","E_COORD97":160249.75,"N_COORD97":2569547.29,"ADDRESS":"廣山１９０號","OBJECTID":162101},"geometry":{"x":160249.75000000093,"y":2569547.2899999972}},{"attributes":{"ID":162103,"DIS_CODE":0,"TOWNNAME":"將軍區","LI":"廣山里","LIN":"18鄰","STREET":" ","SECT":" ","MAREA":"廣山","LANE":" ","ALLEY":" ","HOUSE_NO":"１９２號","E_COORD97":159700.82999999999,"N_COORD97":2569509.4399999999,"ADDRESS":"廣山１９２號","OBJECTID":162102},"geometry":{"x":159700.83000000007,"y":2569509.4399999976}},{"attributes":{"ID":162104,"DIS_CODE":0,"TOWNNAME":"將軍區","LI":"鯤鯓里","LIN":"18鄰","STREET":" ","SECT":" ","MAREA":"鯤鯓","LANE":" ","ALLEY":" ","HOUSE_NO":"２２２之２６號","E_COORD97":156916.31,"N_COORD97":2565486.0800000001,"ADDRESS":"鯤鯓２２２之２６號","OBJECTID":162103},"geometry":{"x":156916.31000000052,"y":2565486.0800000019}},{"attributes":{"ID":162105,"DIS_CODE":0,"TOWNNAME":"將軍區","LI":"鯤鯓里","LIN":"18鄰","STREET":" ","SECT":" ","MAREA":"鯤鯓","LANE":" ","ALLEY":" ","HOUSE_NO":"２２２之２７號","E_COORD97":156916.45999999999,"N_COORD97":2565480.73,"ADDRESS":"鯤鯓２２２之２７號","OBJECTID":162104},"geometry":{"x":156916.45999999996,"y":2565480.7299999986}},{"attributes":{"ID":162106,"DIS_CODE":0,"TOWNNAME":"永康區","LI":"\u25A0洲里","LIN":" ","STREET":"中正南路","SECT":" ","MAREA":" ","LANE":"７４３巷","ALLEY":"２弄","HOUSE_NO":"１０之５號","E_COORD97":171655.04999999999,"N_COORD97":2548965.1699999999,"ADDRESS":"中正南路７４３巷２弄１０之５號","OBJECTID":162105},"geometry":{"x":171655.04999999981,"y":2548965.1699999999}},{"attributes":{"ID":162107,"DIS_CODE":0,"TOWNNAME":"永康區","LI":"\u25A0洲里","LIN":" ","STREET":"中正南路","SECT":" ","MAREA":" ","LANE":"７４３巷","ALLEY":"２弄","HOUSE_NO":"７之６號","E_COORD97":171595.79999999999,"N_COORD97":2548959.1000000001,"ADDRESS":"中正南路７４３巷２弄７之６號","OBJECTID":162106},"geometry":{"x":171595.79999999981,"y":2548959.0999999996}},{"attributes":{"ID":162108,"DIS_CODE":0,"TOWNNAME":"將軍區","LI":"鯤鯓里","LIN":"18鄰","STREET":" ","SECT":" ","MAREA":"鯤鯓","LANE":" ","ALLEY":" ","HOUSE_NO":"２２２之２８號","E_COORD97":156916.48999999999,"N_COORD97":2565474.9300000002,"ADDRESS":"鯤鯓２２２之２８號","OBJECTID":162107},"geometry":{"x":156916.49000000022,"y":2565474.9299999997}},{"attributes":{"ID":162109,"DIS_CODE":0,"TOWNNAME":"將軍區","LI":"鯤鯓里","LIN":"18鄰","STREET":" ","SECT":" ","MAREA":"鯤鯓","LANE":" ","ALLEY":" ","HOUSE_NO":"２２２之２９號","E_COORD97":156917.09,"N_COORD97":2565469.52,"ADDRESS":"鯤鯓２２２之２９號","OBJECTID":162108},"geometry":{"x":156917.08999999985,"y":2565469.5199999996}},{"attributes":{"ID":162110,"DIS_CODE":0,"TOWNNAME":"將軍區","LI":"鯤鯓里","LIN":"18鄰","STREET":" ","SECT":" ","MAREA":"鯤鯓","LANE":" ","ALLEY":" ","HOUSE_NO":"２２２之３０號","E_COORD97":156919.82000000001,"N_COORD97":2565461.21,"ADDRESS":"鯤鯓２２２之３０號","OBJECTID":162109},"geometry":{"x":156919.82000000216,"y":2565461.2100000046}},{"attributes":{"ID":162111,"DIS_CODE":0,"TOWNNAME":"將軍區","LI":"鯤鯓里","LIN":"18鄰","STREET":" ","SECT":" ","MAREA":"鯤鯓","LANE":" ","ALLEY":" ","HOUSE_NO":"２２２之３１號","E_COORD97":156924.22,"N_COORD97":2565461.4399999999,"ADDRESS":"鯤鯓２２２之３１號","OBJECTID":162110},"geometry":{"x":156924.21999999974,"y":2565461.4400000032}},{"attributes":{"ID":162112,"DIS_CODE":0,"TOWNNAME":"將軍區","LI":"鯤鯓里","LIN":"18鄰","STREET":" ","SECT":" ","MAREA":"鯤鯓","LANE":" ","ALLEY":" ","HOUSE_NO":"２２２之３２號","E_COORD97":156928.79000000001,"N_COORD97":2565461.6299999999,"ADDRESS":"鯤鯓２２２之３２號","OBJECTID":162111},"geometry":{"x":156928.79000000097,"y":2565461.629999999}},{"attributes":{"ID":162113,"DIS_CODE":0,"TOWNNAME":"將軍區","LI":"鯤鯓里","LIN":"18鄰","STREET":" ","SECT":" ","MAREA":"鯤鯓","LANE":" ","ALLEY":" ","HOUSE_NO":"２２２之３３號","E_COORD97":156932.79999999999,"N_COORD97":2565461.7400000002,"ADDRESS":"鯤鯓２２２之３３號","OBJECTID":162112},"geometry":{"x":156932.79999999981,"y":2565461.7400000021}},{"attributes":{"ID":162114,"DIS_CODE":0,"TOWNNAME":"將軍區","LI":"鯤鯓里","LIN":"18鄰","STREET":" ","SECT":" ","MAREA":"鯤鯓","LANE":" ","ALLEY":" ","HOUSE_NO":"２２２之３４號","E_COORD97":156937.01000000001,"N_COORD97":2565461.96,"ADDRESS":"鯤鯓２２２之３４號","OBJECTID":162113},"geometry":{"x":156937.01000000071,"y":2565461.9600000009}},{"attributes":{"ID":162115,"DIS_CODE":0,"TOWNNAME":"永康區","LI":"中華里","LIN":"4鄰","STREET":"小東路","SECT":" ","MAREA":" ","LANE":"６４７巷","ALLEY":"１０弄","HOUSE_NO":"１１號","E_COORD97":171990.23999999999,"N_COORD97":2544387.8599999999,"ADDRESS":"小東路６４７巷１０弄１１號","OBJECTID":162114},"geometry":{"x":171990.24000000022,"y":2544387.8600000013}},{"attributes":{"ID":162116,"DIS_CODE":0,"TOWNNAME":"中西區","LI":"仙草里","LIN":"12鄰","STREET":"府緯街","SECT":" ","MAREA":" ","LANE":" ","ALLEY":" ","HOUSE_NO":"３０號三樓之１","E_COORD97":167889.67999999999,"N_COORD97":2542730.4900000002,"ADDRESS":"府緯街３０號三樓之１","OBJECTID":162115},"geometry":{"x":167889.68000000156,"y":2542730.4900000021}},{"attributes":{"ID":162117,"DIS_CODE":0,"TOWNNAME":"永康區","LI":"中華里","LIN":"4鄰","STREET":"小東路","SECT":" ","MAREA":" ","LANE":"６４７巷","ALLEY":"１０弄","HOUSE_NO":"１號","E_COORD97":171967.84,"N_COORD97":2544387.5699999998,"ADDRESS":"小東路６４７巷１０弄１號","OBJECTID":162116},"geometry":{"x":171967.84000000078,"y":2544387.5700000022}},{"attributes":{"ID":162118,"DIS_CODE":0,"TOWNNAME":"將軍區","LI":"鯤鯓里","LIN":"18鄰","STREET":" ","SECT":" ","MAREA":"鯤鯓","LANE":" ","ALLEY":" ","HOUSE_NO":"２２２之３５號","E_COORD97":156941.26999999999,"N_COORD97":2565462.0499999998,"ADDRESS":"鯤鯓２２２之３５號","OBJECTID":162117},"geometry":{"x":156941.26999999862,"y":2565462.0500000045}},{"attributes":{"ID":162119,"DIS_CODE":0,"TOWNNAME":"將軍區","LI":"鯤鯓里","LIN":"18鄰","STREET":" ","SECT":" ","MAREA":"鯤鯓","LANE":" ","ALLEY":" ","HOUSE_NO":"２２２之３６號","E_COORD97":156944.91,"N_COORD97":2565462.21,"ADDRESS":"鯤鯓２２２之３６號","OBJECTID":162118},"geometry":{"x":156944.91000000108,"y":2565462.2100000028}},{"attributes":{"ID":162120,"DIS_CODE":0,"TOWNNAME":"將軍區","LI":"鯤鯓里","LIN":"18鄰","STREET":" ","SECT":" ","MAREA":"鯤鯓","LANE":" ","ALLEY":" ","HOUSE_NO":"２２２之３７號","E_COORD97":156949.13,"N_COORD97":2565462.5800000001,"ADDRESS":"鯤鯓２２２之３７號","OBJECTID":162119},"geometry":{"x":156949.12999999989,"y":2565462.5800000019}},{"attributes":{"ID":162121,"DIS_CODE":0,"TOWNNAME":"將軍區","LI":"鯤鯓里","LIN":"18鄰","STREET":" ","SECT":" ","MAREA":"鯤鯓","LANE":" ","ALLEY":" ","HOUSE_NO":"２２２之３８號","E_COORD97":156953.64000000001,"N_COORD97":2565462.7000000002,"ADDRESS":"鯤鯓２２２之３８號","OBJECTID":162120},"geometry":{"x":156953.63999999966,"y":2565462.6999999974}},{"attributes":{"ID":162122,"DIS_CODE":0,"TOWNNAME":"將軍區","LI":"鯤鯓里","LIN":"18鄰","STREET":" ","SECT":" ","MAREA":"鯤鯓","LANE":" ","ALLEY":" ","HOUSE_NO":"２２２之３９號","E_COORD97":156957.88,"N_COORD97":2565462.8900000001,"ADDRESS":"鯤鯓２２２之３９號","OBJECTID":162121},"geometry":{"x":156957.88000000175,"y":2565462.8900000043}},{"attributes":{"ID":162123,"DIS_CODE":0,"TOWNNAME":"中西區","LI":"開山里","LIN":"12鄰","STREET":"大同路","SECT":"一段","MAREA":" ","LANE":" ","ALLEY":" ","HOUSE_NO":"２４號一樓","E_COORD97":169134.79999999999,"N_COORD97":2543163.1000000001,"ADDRESS":"大同路一段２４號一樓","OBJECTID":162122},"geometry":{"x":169134.79999999981,"y":2543163.1000000015}},{"attributes":{"ID":162124,"DIS_CODE":0,"TOWNNAME":"永康區","LI":"南灣里","LIN":" ","STREET":"大灣路","SECT":" ","MAREA":" ","LANE":"５３７巷","ALLEY":"１６弄","HOUSE_NO":"２２號","E_COORD97":174435.04999999999,"N_COORD97":2544419.9199999999,"ADDRESS":"大灣路５３７巷１６弄２２號","OBJECTID":162123},"geometry":{"x":174435.04999999981,"y":2544419.9199999999}},{"attributes":{"ID":162125,"DIS_CODE":0,"TOWNNAME":"永康區","LI":"南灣里","LIN":" ","STREET":"大灣路","SECT":" ","MAREA":" ","LANE":"５３７巷","ALLEY":"１６弄","HOUSE_NO":"２０號","E_COORD97":174431.14000000001,"N_COORD97":2544418.6699999999,"ADDRESS":"大灣路５３７巷１６弄２０號","OBJECTID":162124},"geometry":{"x":174431.13999999966,"y":2544418.6699999999}},{"attributes":{"ID":162126,"DIS_CODE":0,"TOWNNAME":"永康區","LI":"二王里","LIN":"26鄰","STREET":"中山南路","SECT":" ","MAREA":" ","LANE":"５４４巷","ALLEY":"９２弄","HOUSE_NO":"７號","E_COORD97":172278.95000000001,"N_COORD97":2546227.0299999998,"ADDRESS":"中山南路５４４巷９２弄７號","OBJECTID":162125},"geometry":{"x":172278.95000000205,"y":2546227.0300000031}},{"attributes":{"ID":162127,"DIS_CODE":0,"TOWNNAME":"永康區","LI":"二王里","LIN":"26鄰","STREET":"中山南路","SECT":" ","MAREA":" ","LANE":"５４４巷","ALLEY":"９２弄","HOUSE_NO":"１３號","E_COORD97":172299.73000000001,"N_COORD97":2546198.8599999999,"ADDRESS":"中山南路５４４巷９２弄１３號","OBJECTID":162126},"geometry":{"x":172299.73000000138,"y":2546198.8600000013}},{"attributes":{"ID":162128,"DIS_CODE":0,"TOWNNAME":"永康區","LI":"二王里","LIN":"20鄰","STREET":"中山南路","SECT":" ","MAREA":" ","LANE":"６４４巷","ALLEY":"３２弄","HOUSE_NO":"１３號","E_COORD97":172341.25,"N_COORD97":2546566.7000000002,"ADDRESS":"中山南路６４４巷３２弄１３號","OBJECTID":162127},"geometry":{"x":172341.25000000093,"y":2546566.6999999993}},{"attributes":{"ID":162129,"DIS_CODE":0,"TOWNNAME":"永康區","LI":"大灣里","LIN":"26鄰","STREET":"民族路","SECT":" ","MAREA":" ","LANE":"１９０巷","ALLEY":"１弄","HOUSE_NO":"７號","E_COORD97":175156.89000000001,"N_COORD97":2545143.9300000002,"ADDRESS":"民族路１９０巷１弄７號","OBJECTID":162128},"geometry":{"x":175156.88999999966,"y":2545143.9300000016}},{"attributes":{"ID":162130,"DIS_CODE":0,"TOWNNAME":"永康區","LI":"二王里","LIN":"20鄰","STREET":"中山南路","SECT":" ","MAREA":" ","LANE":"６４４巷","ALLEY":"３２弄","HOUSE_NO":"１０號","E_COORD97":172367.45000000001,"N_COORD97":2546583.79,"ADDRESS":"中山南路６４４巷３２弄１０號","OBJECTID":162129},"geometry":{"x":172367.45000000112,"y":2546583.7899999991}},{"attributes":{"ID":162131,"DIS_CODE":0,"TOWNNAME":"永康區","LI":"二王里","LIN":"43鄰","STREET":"中山南路","SECT":" ","MAREA":" ","LANE":"３１６巷","ALLEY":"８２弄","HOUSE_NO":"１６號","E_COORD97":172166.17999999999,"N_COORD97":2546078.0600000001,"ADDRESS":"中山南路３１６巷８２弄１６號","OBJECTID":162130},"geometry":{"x":172166.1799999997,"y":2546078.0600000005}},{"attributes":{"ID":162132,"DIS_CODE":0,"TOWNNAME":"永康區","LI":"二王里","LIN":"24鄰","STREET":"中山南路","SECT":" ","MAREA":" ","LANE":"５４４巷","ALLEY":"６３弄","HOUSE_NO":"２７號","E_COORD97":172423.39999999999,"N_COORD97":2546406.5800000001,"ADDRESS":"中山南路５４４巷６３弄２７號","OBJECTID":162131},"geometry":{"x":172423.39999999944,"y":2546406.5800000001}},{"attributes":{"ID":162133,"DIS_CODE":0,"TOWNNAME":"永康區","LI":"二王里","LIN":"24鄰","STREET":"中山南路","SECT":" ","MAREA":" ","LANE":"５４４巷","ALLEY":"６７弄","HOUSE_NO":"２號","E_COORD97":172344.60999999999,"N_COORD97":2546342.25,"ADDRESS":"中山南路５４４巷６７弄２號","OBJECTID":162132},"geometry":{"x":172344.61000000127,"y":2546342.2500000019}},{"attributes":{"ID":162134,"DIS_CODE":0,"TOWNNAME":"永康區","LI":"\u25A0洲里","LIN":" ","STREET":"中正南路","SECT":" ","MAREA":" ","LANE":"５７巷","ALLEY":"６２弄","HOUSE_NO":"２８號","E_COORD97":169911.60999999999,"N_COORD97":2546725.4199999999,"ADDRESS":"中正南路５７巷６２弄２８號","OBJECTID":162133},"geometry":{"x":169911.6100000022,"y":2546725.4199999999}},{"attributes":{"ID":162135,"DIS_CODE":0,"TOWNNAME":"永康區","LI":"\u25A0洲里","LIN":" ","STREET":"中正南路","SECT":" ","MAREA":" ","LANE":"５７巷","ALLEY":"６２弄","HOUSE_NO":"１０號","E_COORD97":169912.57000000001,"N_COORD97":2546763.4700000002,"ADDRESS":"中正南路５７巷６２弄１０號","OBJECTID":162134},"geometry":{"x":169912.57000000123,"y":2546763.4700000007}},{"attributes":{"ID":162136,"DIS_CODE":0,"TOWNNAME":"永康區","LI":"二王里","LIN":"38鄰","STREET":"中山南路","SECT":" ","MAREA":" ","LANE":"４９０巷","ALLEY":"１２弄","HOUSE_NO":"１３５號","E_COORD97":172199.98000000001,"N_COORD97":2546195.2999999998,"ADDRESS":"中山南路４９０巷１２弄１３５號","OBJECTID":162135},"geometry":{"x":172199.98000000138,"y":2546195.3000000007}},{"attributes":{"ID":162137,"DIS_CODE":0,"TOWNNAME":"永康區","LI":"二王里","LIN":"38鄰","STREET":"中山南路","SECT":" ","MAREA":" ","LANE":"４９０巷","ALLEY":"１２弄","HOUSE_NO":"１０９號","E_COORD97":172212.03,"N_COORD97":2546241.1200000001,"ADDRESS":"中山南路４９０巷１２弄１０９號","OBJECTID":162136},"geometry":{"x":172212.03000000026,"y":2546241.120000001}},{"attributes":{"ID":162138,"DIS_CODE":0,"TOWNNAME":"將軍區","LI":"鯤鯓里","LIN":"18鄰","STREET":" ","SECT":" ","MAREA":"鯤鯓","LANE":" ","ALLEY":" ","HOUSE_NO":"２２２之４０號","E_COORD97":156964.73999999999,"N_COORD97":2565463.29,"ADDRESS":"鯤鯓２２２之４０號","OBJECTID":162137},"geometry":{"x":156964.74000000115,"y":2565463.290000001}},{"attributes":{"ID":162139,"DIS_CODE":0,"TOWNNAME":"將軍區","LI":"鯤鯓里","LIN":"18鄰","STREET":" ","SECT":" ","MAREA":"鯤鯓","LANE":" ","ALLEY":" ","HOUSE_NO":"２２２之４１號","E_COORD97":156969.04000000001,"N_COORD97":2565463.3900000001,"ADDRESS":"鯤鯓２２２之４１號","OBJECTID":162138},"geometry":{"x":156969.04000000097,"y":2565463.3900000025}},{"attributes":{"ID":162140,"DIS_CODE":0,"TOWNNAME":"將軍區","LI":"鯤鯓里","LIN":"18鄰","STREET":" ","SECT":" ","MAREA":"鯤鯓","LANE":" ","ALLEY":" ","HOUSE_NO":"２２２之４２號","E_COORD97":156974.22,"N_COORD97":2565463.6899999999,"ADDRESS":"鯤鯓２２２之４２號","OBJECTID":162139},"geometry":{"x":156974.2200000016,"y":2565463.6900000013}},{"attributes":{"ID":162141,"DIS_CODE":0,"TOWNNAME":"將軍區","LI":"鯤鯓里","LIN":"18鄰","STREET":" ","SECT":" ","MAREA":"鯤鯓","LANE":" ","ALLEY":" ","HOUSE_NO":"２２２之４３號","E_COORD97":156978.62,"N_COORD97":2565463.9300000002,"ADDRESS":"鯤鯓２２２之４３號","OBJECTID":162140},"geometry":{"x":156978.62000000197,"y":2565463.9299999997}},{"attributes":{"ID":162142,"DIS_CODE":0,"TOWNNAME":"將軍區","LI":"鯤鯓里","LIN":"18鄰","STREET":" ","SECT":" ","MAREA":"鯤鯓","LANE":" ","ALLEY":" ","HOUSE_NO":"２２２之４４號","E_COORD97":156982.57000000001,"N_COORD97":2565464.2599999998,"ADDRESS":"鯤鯓２２２之４４號","OBJECTID":162141},"geometry":{"x":156982.57000000216,"y":2565464.2600000016}},{"attributes":{"ID":162143,"DIS_CODE":0,"TOWNNAME":"仁德區","LI":"後壁里","LIN":"12鄰","STREET":"德南路","SECT":" ","MAREA":" ","LANE":" ","ALLEY":" ","HOUSE_NO":"２１１號六樓","E_COORD97":173724.5,"N_COORD97":2538492.7599999998,"ADDRESS":"德南路２１１號六樓","OBJECTID":162142},"geometry":{"x":173724.50000000186,"y":2538492.7600000035}},{"attributes":{"ID":162144,"DIS_CODE":0,"TOWNNAME":"仁德區","LI":"仁德里","LIN":"12鄰","STREET":"四維街","SECT":" ","MAREA":" ","LANE":" ","ALLEY":" ","HOUSE_NO":"２１號三樓之２","E_COORD97":173262.37,"N_COORD97":2541501.79,"ADDRESS":"四維街２１號三樓之２","OBJECTID":162143},"geometry":{"x":173262.37000000011,"y":2541501.7899999991}},{"attributes":{"ID":162145,"DIS_CODE":0,"TOWNNAME":"仁德區","LI":"保安里","LIN":"12鄰","STREET":"開發一路","SECT":" ","MAREA":" ","LANE":" ","ALLEY":" ","HOUSE_NO":"５號一樓","E_COORD97":172331.62,"N_COORD97":2535886.27,"ADDRESS":"開發一路５號一樓","OBJECTID":162144},"geometry":{"x":172331.62000000011,"y":2535886.2700000014}},{"attributes":{"ID":162146,"DIS_CODE":0,"TOWNNAME":"仁德區","LI":"保安里","LIN":"12鄰","STREET":"開發一路","SECT":" ","MAREA":" ","LANE":" ","ALLEY":" ","HOUSE_NO":"３號三樓","E_COORD97":172324.51000000001,"N_COORD97":2535879.77,"ADDRESS":"開發一路３號三樓","OBJECTID":162145},"geometry":{"x":172324.51000000071,"y":2535879.7700000014}},{"attributes":{"ID":162147,"DIS_CODE":0,"TOWNNAME":"永康區","LI":"二王里","LIN":"46鄰","STREET":"南工街","SECT":" ","MAREA":" ","LANE":"２１２巷","ALLEY":"３弄","HOUSE_NO":"５號","E_COORD97":172064.22,"N_COORD97":2545987.5499999998,"ADDRESS":"南工街２１２巷３弄５號","OBJECTID":162146},"geometry":{"x":172064.21999999974,"y":2545987.5499999989}},{"attributes":{"ID":162148,"DIS_CODE":0,"TOWNNAME":"永康區","LI":"二王里","LIN":"46鄰","STREET":"南工街","SECT":" ","MAREA":" ","LANE":"２１２巷","ALLEY":"７弄","HOUSE_NO":"９號","E_COORD97":172091.12,"N_COORD97":2546002.8500000001,"ADDRESS":"南工街２１２巷７弄９號","OBJECTID":162147},"geometry":{"x":172091.11999999918,"y":2546002.8500000015}},{"attributes":{"ID":162149,"DIS_CODE":0,"TOWNNAME":"永康區","LI":"大灣里","LIN":"26鄰","STREET":"民族路","SECT":" ","MAREA":" ","LANE":"１９０巷","ALLEY":"１弄","HOUSE_NO":"１７號","E_COORD97":175163.31,"N_COORD97":2545197.96,"ADDRESS":"民族路１９０巷１弄１７號","OBJECTID":162148},"geometry":{"x":175163.31000000052,"y":2545197.9600000009}},{"attributes":{"ID":162150,"DIS_CODE":0,"TOWNNAME":"永康區","LI":"二王里","LIN":"26鄰","STREET":"中山南路","SECT":" ","MAREA":" ","LANE":"５４４巷","ALLEY":"９２弄","HOUSE_NO":"３號","E_COORD97":172287.98000000001,"N_COORD97":2546227.5299999998,"ADDRESS":"中山南路５４４巷９２弄３號","OBJECTID":162149},"geometry":{"x":172287.98000000138,"y":2546227.5300000012}},{"attributes":{"ID":162151,"DIS_CODE":0,"TOWNNAME":"永康區","LI":"二王里","LIN":"43鄰","STREET":"中山南路","SECT":" ","MAREA":" ","LANE":"３１６巷","ALLEY":"８２弄","HOUSE_NO":"１２號","E_COORD97":172166.98000000001,"N_COORD97":2546086.3100000001,"ADDRESS":"中山南路３１６巷８２弄１２號","OBJECTID":162150},"geometry":{"x":172166.97999999952,"y":2546086.3100000005}},{"attributes":{"ID":162152,"DIS_CODE":0,"TOWNNAME":"永康區","LI":"二王里","LIN":"26鄰","STREET":"中山南路","SECT":" ","MAREA":" ","LANE":"５４４巷","ALLEY":"１２１弄","HOUSE_NO":"７號","E_COORD97":172355.73000000001,"N_COORD97":2546202.4700000002,"ADDRESS":"中山南路５４４巷１２１弄７號","OBJECTID":162151},"geometry":{"x":172355.73000000138,"y":2546202.4700000025}},{"attributes":{"ID":162153,"DIS_CODE":0,"TOWNNAME":"永康區","LI":"二王里","LIN":"26鄰","STREET":"中山南路","SECT":" ","MAREA":" ","LANE":"５４４巷","ALLEY":"１２１弄","HOUSE_NO":"１０號","E_COORD97":172359.79999999999,"N_COORD97":2546189.75,"ADDRESS":"中山南路５４４巷１２１弄１０號","OBJECTID":162152},"geometry":{"x":172359.80000000075,"y":2546189.7500000019}},{"attributes":{"ID":162154,"DIS_CODE":0,"TOWNNAME":"永康區","LI":"二王里","LIN":"43鄰","STREET":"中山南路","SECT":" ","MAREA":" ","LANE":"３１６巷","ALLEY":"８２弄","HOUSE_NO":"２號","E_COORD97":172167.32999999999,"N_COORD97":2546107.5699999998,"ADDRESS":"中山南路３１６巷８２弄２號","OBJECTID":162153},"geometry":{"x":172167.33000000007,"y":2546107.5700000003}},{"attributes":{"ID":162155,"DIS_CODE":0,"TOWNNAME":"中西區","LI":"西湖里","LIN":"4鄰","STREET":"頂美一街","SECT":" ","MAREA":" ","LANE":"３６巷","ALLEY":"１３弄","HOUSE_NO":"２號","E_COORD97":166386.81,"N_COORD97":2544536.1899999999,"ADDRESS":"頂美一街３６巷１３弄２號","OBJECTID":162154},"geometry":{"x":166386.81000000145,"y":2544536.1899999995}},{"attributes":{"ID":162156,"DIS_CODE":0,"TOWNNAME":"中西區","LI":"西湖里","LIN":"4鄰","STREET":"頂美一街","SECT":" ","MAREA":" ","LANE":"３６巷","ALLEY":"１３弄","HOUSE_NO":"４號","E_COORD97":166385.84,"N_COORD97":2544551.02,"ADDRESS":"頂美一街３６巷１３弄４號","OBJECTID":162155},"geometry":{"x":166385.84000000078,"y":2544551.0199999996}},{"attributes":{"ID":162157,"DIS_CODE":0,"TOWNNAME":"中西區","LI":"西湖里","LIN":"4鄰","STREET":"頂美一街","SECT":" ","MAREA":" ","LANE":"３６巷","ALLEY":"３弄","HOUSE_NO":"１０號","E_COORD97":166369.29000000001,"N_COORD97":2544549.3199999998,"ADDRESS":"頂美一街３６巷３弄１０號","OBJECTID":162156},"geometry":{"x":166369.29000000097,"y":2544549.3200000022}},{"attributes":{"ID":162158,"DIS_CODE":0,"TOWNNAME":"中西區","LI":"西湖里","LIN":"4鄰","STREET":"頂美一街","SECT":" ","MAREA":" ","LANE":"３６巷","ALLEY":"３弄","HOUSE_NO":"１２號","E_COORD97":166361.75,"N_COORD97":2544549.0699999998,"ADDRESS":"頂美一街３６巷３弄１２號","OBJECTID":162157},"geometry":{"x":166361.75,"y":2544549.0700000003}},{"attributes":{"ID":162159,"DIS_CODE":0,"TOWNNAME":"將軍區","LI":"鯤鯓里","LIN":"18鄰","STREET":" ","SECT":" ","MAREA":"鯤鯓","LANE":" ","ALLEY":" ","HOUSE_NO":"２２２之４５號","E_COORD97":156986.51999999999,"N_COORD97":2565464.5499999998,"ADDRESS":"鯤鯓２２２之４５號","OBJECTID":162158},"geometry":{"x":156986.51999999955,"y":2565464.5500000007}},{"attributes":{"ID":162160,"DIS_CODE":0,"TOWNNAME":"中西區","LI":"西湖里","LIN":"4鄰","STREET":"頂美一街","SECT":" ","MAREA":" ","LANE":"３６巷","ALLEY":"３弄","HOUSE_NO":"１４號","E_COORD97":166352.5,"N_COORD97":2544550.0499999998,"ADDRESS":"頂美一街３６巷３弄１４號","OBJECTID":162159},"geometry":{"x":166352.50000000093,"y":2544550.0499999989}},{"attributes":{"ID":162161,"DIS_CODE":0,"TOWNNAME":"中西區","LI":"光賢里","LIN":"8鄰","STREET":"武聖路","SECT":" ","MAREA":" ","LANE":"６９巷","ALLEY":"１１３弄","HOUSE_NO":"１０號","E_COORD97":167051.26000000001,"N_COORD97":2544838.71,"ADDRESS":"武聖路６９巷１１３弄１０號","OBJECTID":162160},"geometry":{"x":167051.25999999978,"y":2544838.7100000028}},{"attributes":{"ID":162162,"DIS_CODE":0,"TOWNNAME":"將軍區","LI":"鯤鯓里","LIN":"18鄰","STREET":" ","SECT":" ","MAREA":"鯤鯓","LANE":" ","ALLEY":" ","HOUSE_NO":"２２２之４６號","E_COORD97":156990.60999999999,"N_COORD97":2565464.79,"ADDRESS":"鯤鯓２２２之４６號","OBJECTID":162161},"geometry":{"x":156990.61000000034,"y":2565464.7899999991}},{"attributes":{"ID":162163,"DIS_CODE":0,"TOWNNAME":"仁德區","LI":"太子里","LIN":"5鄰","STREET":"太子路","SECT":" ","MAREA":" ","LANE":"１９０巷","ALLEY":"３３弄","HOUSE_NO":"８號","E_COORD97":174287.48999999999,"N_COORD97":2543646.79,"ADDRESS":"太子路１９０巷３３弄８號","OBJECTID":162162},"geometry":{"x":174287.49000000209,"y":2543646.7899999991}},{"attributes":{"ID":162164,"DIS_CODE":0,"TOWNNAME":"將軍區","LI":"鯤鯓里","LIN":"18鄰","STREET":" ","SECT":" ","MAREA":"鯤鯓","LANE":" ","ALLEY":" ","HOUSE_NO":"２２２之４７號","E_COORD97":156994.73999999999,"N_COORD97":2565464.9700000002,"ADDRESS":"鯤鯓２２２之４７號","OBJECTID":162163},"geometry":{"x":156994.73999999929,"y":2565464.9700000007}},{"attributes":{"ID":162165,"DIS_CODE":0,"TOWNNAME":"將軍區","LI":"鯤鯓里","LIN":"18鄰","STREET":" ","SECT":" ","MAREA":"鯤鯓","LANE":" ","ALLEY":" ","HOUSE_NO":"２２２之４８號","E_COORD97":156999.35000000001,"N_COORD97":2565465.2999999998,"ADDRESS":"鯤鯓２２２之４８號","OBJECTID":162164},"geometry":{"x":156999.35000000056,"y":2565465.3000000026}},{"attributes":{"ID":162166,"DIS_CODE":0,"TOWNNAME":"西港區","LI":"竹林里","LIN":"18鄰","STREET":" ","SECT":" ","MAREA":"大竹林","LANE":" ","ALLEY":" ","HOUSE_NO":"１５６號","E_COORD97":166939.20000000001,"N_COORD97":2558024.52,"ADDRESS":"大竹林１５６號","OBJECTID":162165},"geometry":{"x":166939.20000000112,"y":2558024.5199999996}},{"attributes":{"ID":162167,"DIS_CODE":0,"TOWNNAME":"仁德區","LI":"仁義里","LIN":"39鄰","STREET":"仁義五街","SECT":" ","MAREA":" ","LANE":"２４巷","ALLEY":"１弄","HOUSE_NO":"１號","E_COORD97":173550.81,"N_COORD97":2540404.1800000002,"ADDRESS":"仁義五街２４巷１弄１號","OBJECTID":162166},"geometry":{"x":173550.81000000052,"y":2540404.1799999997}},{"attributes":{"ID":162168,"DIS_CODE":0,"TOWNNAME":"仁德區","LI":"仁義里","LIN":"39鄰","STREET":"仁義五街","SECT":" ","MAREA":" ","LANE":"２４巷","ALLEY":"１弄","HOUSE_NO":"３號","E_COORD97":173555.09,"N_COORD97":2540404.1800000002,"ADDRESS":"仁義五街２４巷１弄３號","OBJECTID":162167},"geometry":{"x":173555.08999999985,"y":2540404.1799999997}},{"attributes":{"ID":162169,"DIS_CODE":0,"TOWNNAME":"仁德區","LI":"仁德里","LIN":"5鄰","STREET":"仁德四街","SECT":" ","MAREA":" ","LANE":"１２巷","ALLEY":"１弄","HOUSE_NO":"２２號","E_COORD97":173186.20000000001,"N_COORD97":2540848.5499999998,"ADDRESS":"仁德四街１２巷１弄２２號","OBJECTID":162168},"geometry":{"x":173186.20000000112,"y":2540848.5500000026}},{"attributes":{"ID":162170,"DIS_CODE":0,"TOWNNAME":"仁德區","LI":"仁義里","LIN":"38鄰","STREET":"仁義五街","SECT":" ","MAREA":" ","LANE":"２４巷","ALLEY":"２弄","HOUSE_NO":"１號","E_COORD97":173540.75,"N_COORD97":2540388.8300000001,"ADDRESS":"仁義五街２４巷２弄１號","OBJECTID":162169},"geometry":{"x":173540.75,"y":2540388.8300000019}},{"attributes":{"ID":162171,"DIS_CODE":0,"TOWNNAME":"仁德區","LI":"仁義里","LIN":"39鄰","STREET":"仁義五街","SECT":" ","MAREA":" ","LANE":"２４巷","ALLEY":"１弄","HOUSE_NO":"９號","E_COORD97":173569.41,"N_COORD97":2540405.4300000002,"ADDRESS":"仁義五街２４巷１弄９號","OBJECTID":162170},"geometry":{"x":173569.41000000108,"y":2540405.4299999997}},{"attributes":{"ID":162172,"DIS_CODE":0,"TOWNNAME":"永康區","LI":"崑山里","LIN":"18鄰","STREET":"大灣路","SECT":" ","MAREA":" ","LANE":" ","ALLEY":" ","HOUSE_NO":"９２４號","E_COORD97":173663.04999999999,"N_COORD97":2544436.9100000001,"ADDRESS":"大灣路９２４號","OBJECTID":162171},"geometry":{"x":173663.05000000075,"y":2544436.910000002}},{"attributes":{"ID":162173,"DIS_CODE":0,"TOWNNAME":"將軍區","LI":"鯤鯓里","LIN":"18鄰","STREET":" ","SECT":" ","MAREA":"鯤鯓","LANE":" ","ALLEY":" ","HOUSE_NO":"２２２之５２號","E_COORD97":156931.54000000001,"N_COORD97":2565481.4300000002,"ADDRESS":"鯤鯓２２２之５２號","OBJECTID":162172},"geometry":{"x":156931.5400000019,"y":2565481.4299999997}},{"attributes":{"ID":162174,"DIS_CODE":0,"TOWNNAME":"將軍區","LI":"鯤鯓里","LIN":"18鄰","STREET":" ","SECT":" ","MAREA":"鯤鯓","LANE":" ","ALLEY":" ","HOUSE_NO":"２２２之５３號","E_COORD97":156931.26999999999,"N_COORD97":2565485.9300000002,"ADDRESS":"鯤鯓２２２之５３號","OBJECTID":162173},"geometry":{"x":156931.27000000142,"y":2565485.9300000016}},{"attributes":{"ID":162175,"DIS_CODE":0,"TOWNNAME":"永康區","LI":"埔園里","LIN":"18鄰","STREET":"埔園街","SECT":" ","MAREA":" ","LANE":" ","ALLEY":" ","HOUSE_NO":"２７８號","E_COORD97":173571.42999999999,"N_COORD97":2548232.2400000002,"ADDRESS":"埔園街２７８號","OBJECTID":162174},"geometry":{"x":173571.4299999997,"y":2548232.2400000002}},{"attributes":{"ID":162176,"DIS_CODE":0,"TOWNNAME":"永康區","LI":"埔園里","LIN":"35鄰","STREET":"永大路","SECT":"三段","MAREA":" ","LANE":" ","ALLEY":" ","HOUSE_NO":"４１６號","E_COORD97":174117.98000000001,"N_COORD97":2548356.02,"ADDRESS":"永大路三段４１６號","OBJECTID":162175},"geometry":{"x":174117.98000000045,"y":2548356.0199999996}},{"attributes":{"ID":162177,"DIS_CODE":0,"TOWNNAME":"仁德區","LI":"仁義里","LIN":"38鄰","STREET":"仁義五街","SECT":" ","MAREA":" ","LANE":"２４巷","ALLEY":"２弄","HOUSE_NO":"１７號","E_COORD97":173511.66,"N_COORD97":2540373.5800000001,"ADDRESS":"仁義五街２４巷２弄１７號","OBJECTID":162176},"geometry":{"x":173511.66000000201,"y":2540373.5800000019}},{"attributes":{"ID":162178,"DIS_CODE":0,"TOWNNAME":"仁德區","LI":"仁義里","LIN":"38鄰","STREET":"仁義五街","SECT":" ","MAREA":" ","LANE":"２４巷","ALLEY":"２弄","HOUSE_NO":"１０號","E_COORD97":173521.01000000001,"N_COORD97":2540401.0899999999,"ADDRESS":"仁義五街２４巷２弄１０號","OBJECTID":162177},"geometry":{"x":173521.01000000071,"y":2540401.0899999999}},{"attributes":{"ID":162179,"DIS_CODE":0,"TOWNNAME":"仁德區","LI":"仁德里","LIN":"18鄰","STREET":"文華路","SECT":"三段","MAREA":" ","LANE":"１８９巷","ALLEY":"１１１弄","HOUSE_NO":"２１號","E_COORD97":172028.01000000001,"N_COORD97":2540431.8300000001,"ADDRESS":"文華路三段１８９巷１１１弄２１號","OBJECTID":162178},"geometry":{"x":172028.01000000071,"y":2540431.8300000038}},{"attributes":{"ID":162180,"DIS_CODE":0,"TOWNNAME":"仁德區","LI":"仁義里","LIN":"20鄰","STREET":"中山路","SECT":" ","MAREA":" ","LANE":"３２８巷","ALLEY":"１１弄","HOUSE_NO":"１號","E_COORD97":173931.87,"N_COORD97":2541320.9900000002,"ADDRESS":"中山路３２８巷１１弄１號","OBJECTID":162179},"geometry":{"x":173931.87000000011,"y":2541320.9900000002}},{"attributes":{"ID":162181,"DIS_CODE":0,"TOWNNAME":"仁德區","LI":"仁義里","LIN":"38鄰","STREET":"仁義五街","SECT":" ","MAREA":" ","LANE":"２４巷","ALLEY":"２弄","HOUSE_NO":"２３號","E_COORD97":173510.26999999999,"N_COORD97":2540386.8300000001,"ADDRESS":"仁義五街２４巷２弄２３號","OBJECTID":162180},"geometry":{"x":173510.27000000142,"y":2540386.8300000001}},{"attributes":{"ID":162182,"DIS_CODE":0,"TOWNNAME":"仁德區","LI":"仁德里","LIN":"5鄰","STREET":"仁德四街","SECT":" ","MAREA":" ","LANE":"１２巷","ALLEY":"１５弄","HOUSE_NO":"２６號","E_COORD97":173192.35999999999,"N_COORD97":2540885.54,"ADDRESS":"仁德四街１２巷１５弄２６號","OBJECTID":162181},"geometry":{"x":173192.36000000127,"y":2540885.5399999991}},{"attributes":{"ID":162183,"DIS_CODE":0,"TOWNNAME":"仁德區","LI":"仁愛里","LIN":"18鄰","STREET":"保仁路","SECT":" ","MAREA":" ","LANE":"１２０巷","ALLEY":"１０３弄","HOUSE_NO":"１３號","E_COORD97":170124.23000000001,"N_COORD97":2540260.29,"ADDRESS":"保仁路１２０巷１０３弄１３號","OBJECTID":162182},"geometry":{"x":170124.23000000045,"y":2540260.2899999991}},{"attributes":{"ID":162184,"DIS_CODE":0,"TOWNNAME":"仁德區","LI":"仁德里","LIN":"42鄰","STREET":"中山路","SECT":" ","MAREA":" ","LANE":"８７０巷","ALLEY":"２２１弄","HOUSE_NO":"２４號","E_COORD97":171998.94,"N_COORD97":2542223.2400000002,"ADDRESS":"中山路８７０巷２２１弄２４號","OBJECTID":162183},"geometry":{"x":171998.94000000041,"y":2542223.2400000021}},{"attributes":{"ID":162185,"DIS_CODE":0,"TOWNNAME":"中西區","LI":"郡王里","LIN":"4鄰","STREET":"開山路","SECT":" ","MAREA":" ","LANE":" ","ALLEY":" ","HOUSE_NO":"１９２號","E_COORD97":168933.45000000001,"N_COORD97":2543009.0699999998,"ADDRESS":"開山路１９２號","OBJECTID":162184},"geometry":{"x":168933.45000000019,"y":2543009.0700000003}},{"attributes":{"ID":162186,"DIS_CODE":0,"TOWNNAME":"仁德區","LI":"仁義里","LIN":"18鄰","STREET":"中山路","SECT":" ","MAREA":" ","LANE":"３２８巷","ALLEY":"１８弄","HOUSE_NO":"３號","E_COORD97":173994.73999999999,"N_COORD97":2541349.8900000001,"ADDRESS":"中山路３２８巷１８弄３號","OBJECTID":162185},"geometry":{"x":173994.74000000115,"y":2541349.8900000006}},{"attributes":{"ID":162187,"DIS_CODE":0,"TOWNNAME":"仁德區","LI":"仁德里","LIN":"32鄰","STREET":"中山路","SECT":" ","MAREA":" ","LANE":"６０６巷","ALLEY":"１弄","HOUSE_NO":"３５號","E_COORD97":173191.66,"N_COORD97":2541459.75,"ADDRESS":"中山路６０６巷１弄３５號","OBJECTID":162186},"geometry":{"x":173191.66000000108,"y":2541459.7500000019}},{"attributes":{"ID":162188,"DIS_CODE":0,"TOWNNAME":"永康區","LI":"復華里","LIN":"21鄰","STREET":"國華街","SECT":" ","MAREA":" ","LANE":"１３２巷","ALLEY":"１２弄","HOUSE_NO":"２號","E_COORD97":172861.69133,"N_COORD97":2546393.3281299998,"ADDRESS":"國華街１３２巷１２弄２號","OBJECTID":162187},"geometry":{"x":172861.69133000076,"y":2546393.3281270005}},{"attributes":{"ID":162189,"DIS_CODE":0,"TOWNNAME":"仁德區","LI":"仁義里","LIN":"18鄰","STREET":"中山路","SECT":" ","MAREA":" ","LANE":"３２８巷","ALLEY":"１８弄","HOUSE_NO":"２號","E_COORD97":173990.35999999999,"N_COORD97":2541350.3900000001,"ADDRESS":"中山路３２８巷１８弄２號","OBJECTID":162188},"geometry":{"x":173990.36000000127,"y":2541350.3899999987}},{"attributes":{"ID":162190,"DIS_CODE":0,"TOWNNAME":"仁德區","LI":"仁德里","LIN":"32鄰","STREET":"中山路","SECT":" ","MAREA":" ","LANE":"６０６巷","ALLEY":"１弄","HOUSE_NO":"２７號","E_COORD97":173189.79999999999,"N_COORD97":2541439.25,"ADDRESS":"中山路６０６巷１弄２７號","OBJECTID":162189},"geometry":{"x":173189.80000000168,"y":2541439.2500000037}},{"attributes":{"ID":162191,"DIS_CODE":0,"TOWNNAME":"仁德區","LI":"仁愛里","LIN":"18鄰","STREET":"保仁路","SECT":" ","MAREA":" ","LANE":"１２０巷","ALLEY":"１０３弄","HOUSE_NO":"９號","E_COORD97":170134.92000000001,"N_COORD97":2540258.29,"ADDRESS":"保仁路１２０巷１０３弄９號","OBJECTID":162190},"geometry":{"x":170134.92000000086,"y":2540258.290000001}},{"attributes":{"ID":162192,"DIS_CODE":0,"TOWNNAME":"仁德區","LI":"仁義里","LIN":"26鄰","STREET":"中山路","SECT":" ","MAREA":" ","LANE":"５３０巷","ALLEY":"１弄","HOUSE_NO":"１１號","E_COORD97":173387.53,"N_COORD97":2541366.4399999999,"ADDRESS":"中山路５３０巷１弄１１號","OBJECTID":162191},"geometry":{"x":173387.53000000119,"y":2541366.4400000013}},{"attributes":{"ID":162193,"DIS_CODE":0,"TOWNNAME":"仁德區","LI":"仁德里","LIN":"32鄰","STREET":"中山路","SECT":" ","MAREA":" ","LANE":"６０６巷","ALLEY":"１弄","HOUSE_NO":"３３號","E_COORD97":173191.94,"N_COORD97":2541451.25,"ADDRESS":"中山路６０６巷１弄３３號","OBJECTID":162192},"geometry":{"x":173191.94000000134,"y":2541451.25}},{"attributes":{"ID":162194,"DIS_CODE":0,"TOWNNAME":"仁德區","LI":"仁義里","LIN":"26鄰","STREET":"中山路","SECT":" ","MAREA":" ","LANE":"５３０巷","ALLEY":"１弄","HOUSE_NO":"５號","E_COORD97":173398.25,"N_COORD97":2541364.6899999999,"ADDRESS":"中山路５３０巷１弄５號","OBJECTID":162193},"geometry":{"x":173398.25,"y":2541364.6900000013}},{"attributes":{"ID":162195,"DIS_CODE":0,"TOWNNAME":"仁德區","LI":"仁義里","LIN":"26鄰","STREET":"中山路","SECT":" ","MAREA":" ","LANE":"５３０巷","ALLEY":"１弄","HOUSE_NO":"１３號","E_COORD97":173383.48000000001,"N_COORD97":2541366.9399999999,"ADDRESS":"中山路５３０巷１弄１３號","OBJECTID":162194},"geometry":{"x":173383.48000000045,"y":2541366.9400000013}},{"attributes":{"ID":162196,"DIS_CODE":0,"TOWNNAME":"永康區","LI":"復華里","LIN":"21鄰","STREET":"國華街","SECT":" ","MAREA":" ","LANE":"１３２巷","ALLEY":"１２弄","HOUSE_NO":"６號","E_COORD97":172872.49826200001,"N_COORD97":2546393.1164600002,"ADDRESS":"國華街１３２巷１２弄６號","OBJECTID":162195},"geometry":{"x":172872.49826200213,"y":2546393.1164599992}},{"attributes":{"ID":162197,"DIS_CODE":0,"TOWNNAME":"仁德區","LI":"仁義里","LIN":"18鄰","STREET":"中山路","SECT":" ","MAREA":" ","LANE":"３２８巷","ALLEY":"１６弄","HOUSE_NO":"１３號","E_COORD97":173989.42000000001,"N_COORD97":2541324.3599999999,"ADDRESS":"中山路３２８巷１６弄１３號","OBJECTID":162196},"geometry":{"x":173989.42000000086,"y":2541324.3599999994}},{"attributes":{"ID":162198,"DIS_CODE":0,"TOWNNAME":"仁德區","LI":"仁義里","LIN":"43鄰","STREET":"中正路","SECT":"二段","MAREA":" ","LANE":"９９４巷","ALLEY":"５弄","HOUSE_NO":"１號","E_COORD97":173457.19,"N_COORD97":2540809.02,"ADDRESS":"中正路二段９９４巷５弄１號","OBJECTID":162197},"geometry":{"x":173457.19000000041,"y":2540809.0199999996}},{"attributes":{"ID":162199,"DIS_CODE":0,"TOWNNAME":"仁德區","LI":"仁義里","LIN":"18鄰","STREET":"中山路","SECT":" ","MAREA":" ","LANE":"３２８巷","ALLEY":"１６弄","HOUSE_NO":"９號","E_COORD97":173979.82999999999,"N_COORD97":2541325.1099999999,"ADDRESS":"中山路３２８巷１６弄９號","OBJECTID":162198},"geometry":{"x":173979.83000000194,"y":2541325.1100000013}},{"attributes":{"ID":162200,"DIS_CODE":0,"TOWNNAME":"仁德區","LI":"上崙里","LIN":"13鄰","STREET":"德崙路","SECT":" ","MAREA":" ","LANE":"３７０巷","ALLEY":"２１弄","HOUSE_NO":"５７號","E_COORD97":174205.87,"N_COORD97":2538048.6899999999,"ADDRESS":"德崙路３７０巷２１弄５７號","OBJECTID":162199},"geometry":{"x":174205.87000000104,"y":2538048.6900000032}},{"attributes":{"ID":162201,"DIS_CODE":0,"TOWNNAME":"仁德區","LI":"仁德里","LIN":"32鄰","STREET":"中山路","SECT":" ","MAREA":" ","LANE":"６０６巷","ALLEY":"１弄","HOUSE_NO":"２５號","E_COORD97":173189.01999999999,"N_COORD97":2541435.25,"ADDRESS":"中山路６０６巷１弄２５號","OBJECTID":162200},"geometry":{"x":173189.01999999955,"y":2541435.25}}]}