{"displayFieldName":"TOWNNAME","fieldAliases":{"ID":"ID","DIS_CODE":"DIS_CODE","TOWNNAME":"TOWNNAME","LI":"LI","LIN":"LIN","STREET":"STREET","SECT":"SECT","MAREA":"MAREA","LANE":"LANE","ALLEY":"ALLEY","HOUSE_NO":"HOUSE_NO","E_COORD97":"E_COORD97","N_COORD97":"N_COORD97","ADDRESS":"ADDRESS","OBJECTID":"OBJECTID"},"geometryType":"esriGeometryPoint","spatialReference":{"wkid":102443,"latestWkid":3826},"fields":[{"name":"ID","type":"esriFieldTypeDouble","alias":"ID"},{"name":"DIS_CODE","type":"esriFieldTypeInteger","alias":"DIS_CODE"},{"name":"TOWNNAME","type":"esriFieldTypeString","alias":"TOWNNAME","length":8},{"name":"LI","type":"esriFieldTypeString","alias":"LI","length":8},{"name":"LIN","type":"esriFieldTypeString","alias":"LIN","length":12},{"name":"STREET","type":"esriFieldTypeString","alias":"STREET","length":20},{"name":"SECT","type":"esriFieldTypeString","alias":"SECT","length":8},{"name":"MAREA","type":"esriFieldTypeString","alias":"MAREA","length":12},{"name":"LANE","type":"esriFieldTypeString","alias":"LANE","length":10},{"name":"ALLEY","type":"esriFieldTypeString","alias":"ALLEY","length":10},{"name":"HOUSE_NO","type":"esriFieldTypeString","alias":"HOUSE_NO","length":20},{"name":"E_COORD97","type":"esriFieldTypeDouble","alias":"E_COORD97"},{"name":"N_COORD97","type":"esriFieldTypeDouble","alias":"N_COORD97"},{"name":"ADDRESS","type":"esriFieldTypeString","alias":"ADDRESS","length":50},{"name":"OBJECTID","type":"esriFieldTypeOID","alias":"OBJECTID"}],"features":[{"attributes":{"ID":331810,"DIS_CODE":0,"TOWNNAME":"七股區","LI":"樹林里","LIN":"7鄰","STREET":" ","SECT":" ","MAREA":"樹林","LANE":" ","ALLEY":" ","HOUSE_NO":"６８號","E_COORD97":163637.635476,"N_COORD97":2556976.4076800002,"ADDRESS":"樹林６８號","OBJECTID":331801},"geometry":{"x":163637.63547600061,"y":2556976.4076830018}},{"attributes":{"ID":331811,"DIS_CODE":0,"TOWNNAME":"新營區","LI":"太北里","LIN":"20鄰","STREET":" ","SECT":" ","MAREA":"太子宮","LANE":" ","ALLEY":" ","HOUSE_NO":"１４０之２４號","E_COORD97":175283.599716,"N_COORD97":2576793.7795299999,"ADDRESS":"太子宮１４０之２４號","OBJECTID":331802},"geometry":{"x":175283.59971600026,"y":2576793.7795330044}},{"attributes":{"ID":331812,"DIS_CODE":0,"TOWNNAME":"歸仁區","LI":"沙崙里","LIN":"5鄰","STREET":" ","SECT":" ","MAREA":"沙崙","LANE":" ","ALLEY":" ","HOUSE_NO":"３２２號","E_COORD97":179483.819923,"N_COORD97":2538052.2791599999,"ADDRESS":"沙崙３２２號","OBJECTID":331803},"geometry":{"x":179483.81992300041,"y":2538052.2791579999}},{"attributes":{"ID":331813,"DIS_CODE":0,"TOWNNAME":"新營區","LI":"太北里","LIN":"20鄰","STREET":" ","SECT":" ","MAREA":"太子宮","LANE":" ","ALLEY":" ","HOUSE_NO":"１４０之４１號","E_COORD97":175092.23294399999,"N_COORD97":2576649.95211,"ADDRESS":"太子宮１４０之４１號","OBJECTID":331804},"geometry":{"x":175092.23294400144,"y":2576649.9521110039}},{"attributes":{"ID":331814,"DIS_CODE":0,"TOWNNAME":"永康區","LI":"六合里","LIN":"2鄰","STREET":"新興街","SECT":" ","MAREA":" ","LANE":"３５巷","ALLEY":" ","HOUSE_NO":"４之１號","E_COORD97":170934.814021,"N_COORD97":2545798.91438,"ADDRESS":"新興街３５巷４之１號","OBJECTID":331805},"geometry":{"x":170934.81402100064,"y":2545798.9143820014}},{"attributes":{"ID":331815,"DIS_CODE":0,"TOWNNAME":"仁德區","LI":"仁義里","LIN":"1鄰","STREET":"中山路","SECT":" ","MAREA":" ","LANE":" ","ALLEY":" ","HOUSE_NO":"１１３之１號","E_COORD97":174820.537476,"N_COORD97":2540953.7486999999,"ADDRESS":"中山路１１３之１號","OBJECTID":331806},"geometry":{"x":174820.53747600131,"y":2540953.7486989982}},{"attributes":{"ID":331816,"DIS_CODE":0,"TOWNNAME":"下營區","LI":"營前里","LIN":"6鄰","STREET":"中正南路","SECT":" ","MAREA":" ","LANE":" ","ALLEY":" ","HOUSE_NO":"１００號","E_COORD97":174591.90705800001,"N_COORD97":2570245.7559199999,"ADDRESS":"中正南路１００號","OBJECTID":331807},"geometry":{"x":174591.90705799963,"y":2570245.7559229992}},{"attributes":{"ID":331817,"DIS_CODE":0,"TOWNNAME":"新營區","LI":"太北里","LIN":"20鄰","STREET":" ","SECT":" ","MAREA":"太子宮","LANE":" ","ALLEY":" ","HOUSE_NO":"１４０之４７號","E_COORD97":175047.729043,"N_COORD97":2576697.1537500001,"ADDRESS":"太子宮１４０之４７號","OBJECTID":331808},"geometry":{"x":175047.72904300131,"y":2576697.153752001}},{"attributes":{"ID":331818,"DIS_CODE":0,"TOWNNAME":"關廟區","LI":"山西里","LIN":"7鄰","STREET":"文衡路","SECT":" ","MAREA":" ","LANE":" ","ALLEY":" ","HOUSE_NO":"１５１號","E_COORD97":180898.99567400001,"N_COORD97":2540587.04257,"ADDRESS":"文衡路１５１號","OBJECTID":331809},"geometry":{"x":180898.99567400105,"y":2540587.0425750017}},{"attributes":{"ID":331819,"DIS_CODE":0,"TOWNNAME":"東區","LI":"大德里","LIN":"15鄰","STREET":"立德十一路","SECT":" ","MAREA":" ","LANE":"２９巷","ALLEY":" ","HOUSE_NO":"３６號","E_COORD97":169472.17999999999,"N_COORD97":2542160.9399999999,"ADDRESS":"立德十一路２９巷３６號","OBJECTID":331810},"geometry":{"x":169472.1799999997,"y":2542160.9400000013}},{"attributes":{"ID":331820,"DIS_CODE":0,"TOWNNAME":"東區","LI":"大德里","LIN":"15鄰","STREET":"立德十一路","SECT":" ","MAREA":" ","LANE":"２９巷","ALLEY":" ","HOUSE_NO":"３８號","E_COORD97":169466.92000000001,"N_COORD97":2542159.8100000001,"ADDRESS":"立德十一路２９巷３８號","OBJECTID":331811},"geometry":{"x":169466.92000000086,"y":2542159.8100000005}},{"attributes":{"ID":331821,"DIS_CODE":0,"TOWNNAME":"東區","LI":"大德里","LIN":"15鄰","STREET":"立德十一路","SECT":" ","MAREA":" ","LANE":"２９巷","ALLEY":" ","HOUSE_NO":"３０號","E_COORD97":169464.10999999999,"N_COORD97":2542144.6699999999,"ADDRESS":"立德十一路２９巷３０號","OBJECTID":331812},"geometry":{"x":169464.11000000127,"y":2542144.6700000037}},{"attributes":{"ID":331822,"DIS_CODE":0,"TOWNNAME":"新市區","LI":"潭頂里","LIN":"8鄰","STREET":" ","SECT":" ","MAREA":"潭頂","LANE":" ","ALLEY":" ","HOUSE_NO":"３２１之１００號","E_COORD97":181621.10407,"N_COORD97":2553890.4723499999,"ADDRESS":"潭頂３２１之１００號","OBJECTID":331813},"geometry":{"x":181621.10407000035,"y":2553890.4723470043}},{"attributes":{"ID":331823,"DIS_CODE":0,"TOWNNAME":"六甲區","LI":"中社里","LIN":"1鄰","STREET":" ","SECT":" ","MAREA":"中社","LANE":" ","ALLEY":" ","HOUSE_NO":"６號之２０","E_COORD97":181763.77874000001,"N_COORD97":2570429.2322300002,"ADDRESS":"中社６號之２０","OBJECTID":331814},"geometry":{"x":181763.77874000091,"y":2570429.2322300002}},{"attributes":{"ID":331824,"DIS_CODE":0,"TOWNNAME":"下營區","LI":"營前里","LIN":"22鄰","STREET":"中正南路","SECT":" ","MAREA":" ","LANE":"２３６巷","ALLEY":" ","HOUSE_NO":"１號","E_COORD97":174709.630485,"N_COORD97":2569954.1852500001,"ADDRESS":"中正南路２３６巷１號","OBJECTID":331815},"geometry":{"x":174709.63048500102,"y":2569954.1852470022}},{"attributes":{"ID":331825,"DIS_CODE":0,"TOWNNAME":"南區","LI":"建南里","LIN":"19鄰","STREET":"明興路","SECT":" ","MAREA":" ","LANE":" ","ALLEY":" ","HOUSE_NO":"２６９號","E_COORD97":166565.576998,"N_COORD97":2539651.0921100001,"ADDRESS":"明興路２６９號","OBJECTID":331816},"geometry":{"x":166565.57699800096,"y":2539651.0921130013}},{"attributes":{"ID":331826,"DIS_CODE":0,"TOWNNAME":"歸仁區","LI":"南保里","LIN":"52鄰","STREET":"民權南路","SECT":" ","MAREA":" ","LANE":" ","ALLEY":" ","HOUSE_NO":"１１８號","E_COORD97":176938.39042000001,"N_COORD97":2540532.8007700001,"ADDRESS":"民權南路１１８號","OBJECTID":331817},"geometry":{"x":176938.390420001,"y":2540532.8007660024}},{"attributes":{"ID":331827,"DIS_CODE":0,"TOWNNAME":"關廟區","LI":"山西里","LIN":"9鄰","STREET":"文衡路","SECT":" ","MAREA":" ","LANE":" ","ALLEY":" ","HOUSE_NO":"２９６號","E_COORD97":180913.72079600001,"N_COORD97":2540738.7773699998,"ADDRESS":"文衡路２９６號","OBJECTID":331818},"geometry":{"x":180913.72079600114,"y":2540738.7773670033}},{"attributes":{"ID":331828,"DIS_CODE":0,"TOWNNAME":"東區","LI":"崇學里","LIN":"12鄰","STREET":"崇明十一街","SECT":" ","MAREA":" ","LANE":" ","ALLEY":" ","HOUSE_NO":"１號","E_COORD97":170262.76999999999,"N_COORD97":2541801.8199999998,"ADDRESS":"崇明十一街１號","OBJECTID":331819},"geometry":{"x":170262.77000000048,"y":2541801.820000004}},{"attributes":{"ID":331829,"DIS_CODE":0,"TOWNNAME":"新營區","LI":"太北里","LIN":"20鄰","STREET":" ","SECT":" ","MAREA":"太子宮","LANE":" ","ALLEY":" ","HOUSE_NO":"１４０之３３號","E_COORD97":175194.25602500001,"N_COORD97":2576868.2269000001,"ADDRESS":"太子宮１４０之３３號","OBJECTID":331820},"geometry":{"x":175194.25602500048,"y":2576868.2269050013}},{"attributes":{"ID":331830,"DIS_CODE":0,"TOWNNAME":"下營區","LI":"營前里","LIN":"4鄰","STREET":"文明街","SECT":" ","MAREA":" ","LANE":" ","ALLEY":" ","HOUSE_NO":"１００號","E_COORD97":174522.50215700001,"N_COORD97":2570319.7333800001,"ADDRESS":"文明街１００號","OBJECTID":331821},"geometry":{"x":174522.50215700082,"y":2570319.7333830018}},{"attributes":{"ID":331831,"DIS_CODE":0,"TOWNNAME":"六甲區","LI":"甲東里","LIN":"8鄰","STREET":"曾文街","SECT":" ","MAREA":" ","LANE":" ","ALLEY":" ","HOUSE_NO":"２６號","E_COORD97":183941.19306399999,"N_COORD97":2570228.8161800001,"ADDRESS":"曾文街２６號","OBJECTID":331822},"geometry":{"x":183941.19306400046,"y":2570228.8161770031}},{"attributes":{"ID":331832,"DIS_CODE":0,"TOWNNAME":"北區","LI":"成功里","LIN":"20鄰","STREET":"中華北路","SECT":"二段","MAREA":" ","LANE":"２８６巷","ALLEY":" ","HOUSE_NO":"１號七樓之１","E_COORD97":168878.82999999999,"N_COORD97":2546907.3999999999,"ADDRESS":"中華北路二段２８６巷１號七樓之１","OBJECTID":331823},"geometry":{"x":168878.83000000007,"y":2546907.4000000041}},{"attributes":{"ID":331833,"DIS_CODE":0,"TOWNNAME":"東區","LI":"大德里","LIN":"15鄰","STREET":"立德十一路","SECT":" ","MAREA":" ","LANE":"２９巷","ALLEY":" ","HOUSE_NO":"４６號","E_COORD97":169463.23999999999,"N_COORD97":2542168.9700000002,"ADDRESS":"立德十一路２９巷４６號","OBJECTID":331824},"geometry":{"x":169463.24000000115,"y":2542168.9700000007}},{"attributes":{"ID":331834,"DIS_CODE":0,"TOWNNAME":"東區","LI":"大德里","LIN":"15鄰","STREET":"立德十一路","SECT":" ","MAREA":" ","LANE":"２９巷","ALLEY":" ","HOUSE_NO":"４８號","E_COORD97":169470.29999999999,"N_COORD97":2542170.02,"ADDRESS":"立德十一路２９巷４８號","OBJECTID":331825},"geometry":{"x":169470.29999999981,"y":2542170.0200000014}},{"attributes":{"ID":331835,"DIS_CODE":0,"TOWNNAME":"東區","LI":"大德里","LIN":"15鄰","STREET":"立德十一路","SECT":" ","MAREA":" ","LANE":"２９巷","ALLEY":" ","HOUSE_NO":"５０號","E_COORD97":169469.39999999999,"N_COORD97":2542185.0600000001,"ADDRESS":"立德十一路２９巷５０號","OBJECTID":331826},"geometry":{"x":169469.4000000013,"y":2542185.0600000024}},{"attributes":{"ID":331836,"DIS_CODE":0,"TOWNNAME":"東區","LI":"大德里","LIN":"15鄰","STREET":"立德十一路","SECT":" ","MAREA":" ","LANE":"２９巷","ALLEY":" ","HOUSE_NO":"５２號","E_COORD97":169463.09,"N_COORD97":2542184.2400000002,"ADDRESS":"立德十一路２９巷５２號","OBJECTID":331827},"geometry":{"x":169463.08999999985,"y":2542184.2400000002}},{"attributes":{"ID":331837,"DIS_CODE":0,"TOWNNAME":"東區","LI":"大德里","LIN":"15鄰","STREET":"立德十一路","SECT":" ","MAREA":" ","LANE":"２９巷","ALLEY":" ","HOUSE_NO":"５６號","E_COORD97":169457.89999999999,"N_COORD97":2542192.0600000001,"ADDRESS":"立德十一路２９巷５６號","OBJECTID":331828},"geometry":{"x":169457.90000000037,"y":2542192.0600000005}},{"attributes":{"ID":331838,"DIS_CODE":0,"TOWNNAME":"東區","LI":"大德里","LIN":"15鄰","STREET":"立德十一路","SECT":" ","MAREA":" ","LANE":"２９巷","ALLEY":" ","HOUSE_NO":"６０號","E_COORD97":169464.14000000001,"N_COORD97":2542206.77,"ADDRESS":"立德十一路２９巷６０號","OBJECTID":331829},"geometry":{"x":169464.13999999966,"y":2542206.7699999996}},{"attributes":{"ID":331839,"DIS_CODE":0,"TOWNNAME":"東區","LI":"富強里","LIN":"15鄰","STREET":"裕農路","SECT":" ","MAREA":" ","LANE":"３５０巷","ALLEY":" ","HOUSE_NO":"６號","E_COORD97":171013.48999999999,"N_COORD97":2543022.0699999998,"ADDRESS":"裕農路３５０巷６號","OBJECTID":331830},"geometry":{"x":171013.49000000022,"y":2543022.0700000022}},{"attributes":{"ID":331840,"DIS_CODE":0,"TOWNNAME":"東區","LI":"大智里","LIN":"15鄰","STREET":"長東街","SECT":" ","MAREA":" ","LANE":"１４５巷","ALLEY":" ","HOUSE_NO":"６５號","E_COORD97":171222.26000000001,"N_COORD97":2540088.4900000002,"ADDRESS":"長東街１４５巷６５號","OBJECTID":331831},"geometry":{"x":171222.26000000071,"y":2540088.4900000039}},{"attributes":{"ID":331841,"DIS_CODE":0,"TOWNNAME":"東區","LI":"大智里","LIN":"15鄰","STREET":"長東街","SECT":" ","MAREA":" ","LANE":"１４５巷","ALLEY":" ","HOUSE_NO":"６７號","E_COORD97":171226.39999999999,"N_COORD97":2540088.9900000002,"ADDRESS":"長東街１４５巷６７號","OBJECTID":331832},"geometry":{"x":171226.40000000037,"y":2540088.9900000021}},{"attributes":{"ID":331842,"DIS_CODE":0,"TOWNNAME":"東區","LI":"大智里","LIN":"15鄰","STREET":"長東街","SECT":" ","MAREA":" ","LANE":"１４５巷","ALLEY":" ","HOUSE_NO":"６９號","E_COORD97":171232.53,"N_COORD97":2540090.3100000001,"ADDRESS":"長東街１４５巷６９號","OBJECTID":331833},"geometry":{"x":171232.53000000212,"y":2540090.3100000024}},{"attributes":{"ID":331843,"DIS_CODE":0,"TOWNNAME":"東區","LI":"大智里","LIN":"15鄰","STREET":"長東街","SECT":" ","MAREA":" ","LANE":"１４５巷","ALLEY":" ","HOUSE_NO":"７１號","E_COORD97":171238.32000000001,"N_COORD97":2540091.1400000001,"ADDRESS":"長東街１４５巷７１號","OBJECTID":331834},"geometry":{"x":171238.3200000003,"y":2540091.1400000043}},{"attributes":{"ID":331844,"DIS_CODE":0,"TOWNNAME":"東區","LI":"大智里","LIN":"15鄰","STREET":"長東街","SECT":" ","MAREA":" ","LANE":"１４５巷","ALLEY":" ","HOUSE_NO":"７３號","E_COORD97":171243.95999999999,"N_COORD97":2540091.9700000002,"ADDRESS":"長東街１４５巷７３號","OBJECTID":331835},"geometry":{"x":171243.95999999996,"y":2540091.9700000007}},{"attributes":{"ID":331845,"DIS_CODE":0,"TOWNNAME":"東區","LI":"大智里","LIN":"15鄰","STREET":"長東街","SECT":" ","MAREA":" ","LANE":"１４５巷","ALLEY":" ","HOUSE_NO":"７５號","E_COORD97":171251.07999999999,"N_COORD97":2540093.1299999999,"ADDRESS":"長東街１４５巷７５號","OBJECTID":331836},"geometry":{"x":171251.08000000101,"y":2540093.1300000008}},{"attributes":{"ID":331846,"DIS_CODE":0,"TOWNNAME":"新市區","LI":"新市里","LIN":"15鄰","STREET":"和平街","SECT":" ","MAREA":" ","LANE":"８７巷","ALLEY":" ","HOUSE_NO":"２之１號","E_COORD97":177608.17999999999,"N_COORD97":2553363.7999999998,"ADDRESS":"和平街８７巷２之１號","OBJECTID":331837},"geometry":{"x":177608.18000000156,"y":2553363.8000000026}},{"attributes":{"ID":331847,"DIS_CODE":0,"TOWNNAME":"新市區","LI":"新市里","LIN":"15鄰","STREET":"和平街","SECT":" ","MAREA":" ","LANE":"８７巷","ALLEY":" ","HOUSE_NO":"６號","E_COORD97":177607.82000000001,"N_COORD97":2553360,"ADDRESS":"和平街８７巷６號","OBJECTID":331838},"geometry":{"x":177607.82000000216,"y":2553360}},{"attributes":{"ID":331848,"DIS_CODE":0,"TOWNNAME":"新市區","LI":"新市里","LIN":"15鄰","STREET":"中正路","SECT":" ","MAREA":" ","LANE":"３０１巷","ALLEY":" ","HOUSE_NO":"２０號","E_COORD97":177580.17999999999,"N_COORD97":2553311,"ADDRESS":"中正路３０１巷２０號","OBJECTID":331839},"geometry":{"x":177580.18000000063,"y":2553311.0000000019}},{"attributes":{"ID":331849,"DIS_CODE":0,"TOWNNAME":"新市區","LI":"新市里","LIN":"15鄰","STREET":"中正路","SECT":" ","MAREA":" ","LANE":"３０１巷","ALLEY":" ","HOUSE_NO":"３０號","E_COORD97":177570.88,"N_COORD97":2553332.25,"ADDRESS":"中正路３０１巷３０號","OBJECTID":331840},"geometry":{"x":177570.87999999989,"y":2553332.25}},{"attributes":{"ID":331850,"DIS_CODE":0,"TOWNNAME":"歸仁區","LI":"南保里","LIN":"40鄰","STREET":"民權六街","SECT":" ","MAREA":" ","LANE":" ","ALLEY":" ","HOUSE_NO":"２１３號","E_COORD97":176544.21093500001,"N_COORD97":2541110.7565899999,"ADDRESS":"民權六街２１３號","OBJECTID":331841},"geometry":{"x":176544.21093500033,"y":2541110.7565889992}},{"attributes":{"ID":331851,"DIS_CODE":0,"TOWNNAME":"歸仁區","LI":"南保里","LIN":"40鄰","STREET":"民權六街","SECT":" ","MAREA":" ","LANE":" ","ALLEY":" ","HOUSE_NO":"２１１號","E_COORD97":176547.17707899999,"N_COORD97":2541111.17992,"ADDRESS":"民權六街２１１號","OBJECTID":331842},"geometry":{"x":176547.17707900051,"y":2541111.1799220014}},{"attributes":{"ID":331852,"DIS_CODE":0,"TOWNNAME":"仁德區","LI":"仁義里","LIN":"1鄰","STREET":"中山路","SECT":" ","MAREA":" ","LANE":" ","ALLEY":" ","HOUSE_NO":"２６７號","E_COORD97":174228.56219900001,"N_COORD97":2541197.2522300002,"ADDRESS":"中山路２６７號","OBJECTID":331843},"geometry":{"x":174228.56219900027,"y":2541197.2522309981}},{"attributes":{"ID":331853,"DIS_CODE":0,"TOWNNAME":"仁德區","LI":"仁義里","LIN":"1鄰","STREET":"中山路","SECT":" ","MAREA":" ","LANE":" ","ALLEY":" ","HOUSE_NO":"２６９號","E_COORD97":174223.47737400001,"N_COORD97":2541197.35806,"ADDRESS":"中山路２６９號","OBJECTID":331844},"geometry":{"x":174223.47737400047,"y":2541197.3580639996}},{"attributes":{"ID":331854,"DIS_CODE":0,"TOWNNAME":"下營區","LI":"營前里","LIN":"14鄰","STREET":"復興街","SECT":" ","MAREA":" ","LANE":" ","ALLEY":" ","HOUSE_NO":"５５號","E_COORD97":174634.079807,"N_COORD97":2570378.95126,"ADDRESS":"復興街５５號","OBJECTID":331845},"geometry":{"x":174634.0798070021,"y":2570378.9512639996}},{"attributes":{"ID":331855,"DIS_CODE":0,"TOWNNAME":"歸仁區","LI":"南保里","LIN":"4鄰","STREET":"文化街","SECT":"三段","MAREA":" ","LANE":" ","ALLEY":" ","HOUSE_NO":"５２號","E_COORD97":176882.351337,"N_COORD97":2541248.12818,"ADDRESS":"文化街三段５２號","OBJECTID":331846},"geometry":{"x":176882.3513369998,"y":2541248.1281809993}},{"attributes":{"ID":331856,"DIS_CODE":0,"TOWNNAME":"下營區","LI":"營前里","LIN":"2鄰","STREET":"復興街","SECT":" ","MAREA":" ","LANE":" ","ALLEY":" ","HOUSE_NO":"９７號","E_COORD97":174480.11747999999,"N_COORD97":2570366.30002,"ADDRESS":"復興街９７號","OBJECTID":331847},"geometry":{"x":174480.11747999955,"y":2570366.3000199981}},{"attributes":{"ID":331857,"DIS_CODE":0,"TOWNNAME":"佳里區","LI":"建南里","LIN":"15鄰","STREET":"光復路","SECT":" ","MAREA":" ","LANE":" ","ALLEY":" ","HOUSE_NO":"６號","E_COORD97":165503.47541300001,"N_COORD97":2561947.22278,"ADDRESS":"光復路６號","OBJECTID":331848},"geometry":{"x":165503.47541300207,"y":2561947.2227770016}},{"attributes":{"ID":331858,"DIS_CODE":0,"TOWNNAME":"歸仁區","LI":"南保里","LIN":"4鄰","STREET":"文化街","SECT":"三段","MAREA":" ","LANE":" ","ALLEY":" ","HOUSE_NO":"５０號","E_COORD97":176887.01242000001,"N_COORD97":2541251.3031799998,"ADDRESS":"文化街三段５０號","OBJECTID":331849},"geometry":{"x":176887.01242000144,"y":2541251.3031799998}},{"attributes":{"ID":331859,"DIS_CODE":0,"TOWNNAME":"歸仁區","LI":"南保里","LIN":"4鄰","STREET":"文化街","SECT":"三段","MAREA":" ","LANE":" ","ALLEY":" ","HOUSE_NO":"５４號","E_COORD97":176878.96145800001,"N_COORD97":2541271.4114999999,"ADDRESS":"文化街三段５４號","OBJECTID":331850},"geometry":{"x":176878.96145800035,"y":2541271.4115019999}},{"attributes":{"ID":331860,"DIS_CODE":0,"TOWNNAME":"安南區","LI":"溪墘里","LIN":"15鄰","STREET":"海佃路","SECT":"一段","MAREA":" ","LANE":"３４０巷","ALLEY":" ","HOUSE_NO":"６０號","E_COORD97":167249.48999999999,"N_COORD97":2547530.5699999998,"ADDRESS":"海佃路一段３４０巷６０號","OBJECTID":331851},"geometry":{"x":167249.49000000115,"y":2547530.5700000022}},{"attributes":{"ID":331861,"DIS_CODE":0,"TOWNNAME":"南區","LI":"郡南里","LIN":"15鄰","STREET":"德興路","SECT":" ","MAREA":" ","LANE":"１３９巷","ALLEY":" ","HOUSE_NO":"４３號之６","E_COORD97":167346.34,"N_COORD97":2540472.96,"ADDRESS":"德興路１３９巷４３號之６","OBJECTID":331852},"geometry":{"x":167346.34000000171,"y":2540472.9600000028}},{"attributes":{"ID":331862,"DIS_CODE":0,"TOWNNAME":"南區","LI":"郡南里","LIN":"15鄰","STREET":"德興路","SECT":" ","MAREA":" ","LANE":"１３９巷","ALLEY":" ","HOUSE_NO":"４３號之７","E_COORD97":167351.35999999999,"N_COORD97":2540473.6299999999,"ADDRESS":"德興路１３９巷４３號之７","OBJECTID":331853},"geometry":{"x":167351.36000000034,"y":2540473.6300000008}},{"attributes":{"ID":331863,"DIS_CODE":0,"TOWNNAME":"南區","LI":"郡南里","LIN":"15鄰","STREET":"德興路","SECT":" ","MAREA":" ","LANE":"１３９巷","ALLEY":" ","HOUSE_NO":"４３號之８","E_COORD97":167359.04000000001,"N_COORD97":2540475.96,"ADDRESS":"德興路１３９巷４３號之８","OBJECTID":331854},"geometry":{"x":167359.04000000097,"y":2540475.9600000046}},{"attributes":{"ID":331864,"DIS_CODE":0,"TOWNNAME":"南區","LI":"國宅里","LIN":"15鄰","STREET":"金華路","SECT":"二段","MAREA":" ","LANE":"９巷","ALLEY":" ","HOUSE_NO":"６３號","E_COORD97":166803.13,"N_COORD97":2541848.8500000001,"ADDRESS":"金華路二段９巷６３號","OBJECTID":331855},"geometry":{"x":166803.12999999989,"y":2541848.8500000015}},{"attributes":{"ID":331865,"DIS_CODE":0,"TOWNNAME":"南區","LI":"國宅里","LIN":"15鄰","STREET":"金華路","SECT":"二段","MAREA":" ","LANE":"９巷","ALLEY":" ","HOUSE_NO":"６５號","E_COORD97":166798.10000000001,"N_COORD97":2541849.6400000001,"ADDRESS":"金華路二段９巷６５號","OBJECTID":331856},"geometry":{"x":166798.09999999963,"y":2541849.6400000006}},{"attributes":{"ID":331866,"DIS_CODE":0,"TOWNNAME":"南區","LI":"國宅里","LIN":"15鄰","STREET":"金華路","SECT":"二段","MAREA":" ","LANE":"９巷","ALLEY":" ","HOUSE_NO":"６７號","E_COORD97":166792.28,"N_COORD97":2541850.4300000002,"ADDRESS":"金華路二段９巷６７號","OBJECTID":331857},"geometry":{"x":166792.28000000026,"y":2541850.4299999997}},{"attributes":{"ID":331867,"DIS_CODE":0,"TOWNNAME":"南區","LI":"國宅里","LIN":"15鄰","STREET":"金華路","SECT":"二段","MAREA":" ","LANE":"９巷","ALLEY":" ","HOUSE_NO":"６８號","E_COORD97":166803.92000000001,"N_COORD97":2541864.4300000002,"ADDRESS":"金華路二段９巷６８號","OBJECTID":331858},"geometry":{"x":166803.92000000086,"y":2541864.4299999997}},{"attributes":{"ID":331868,"DIS_CODE":0,"TOWNNAME":"南區","LI":"國宅里","LIN":"15鄰","STREET":"金華路","SECT":"二段","MAREA":" ","LANE":"９巷","ALLEY":" ","HOUSE_NO":"６９號","E_COORD97":166786.73000000001,"N_COORD97":2541850.96,"ADDRESS":"金華路二段９巷６９號","OBJECTID":331859},"geometry":{"x":166786.73000000138,"y":2541850.9600000009}},{"attributes":{"ID":331869,"DIS_CODE":0,"TOWNNAME":"東區","LI":"新東里","LIN":"15鄰","STREET":"裕豐街","SECT":" ","MAREA":" ","LANE":"１３３巷","ALLEY":" ","HOUSE_NO":"２號","E_COORD97":170744.48999999999,"N_COORD97":2543078.3999999999,"ADDRESS":"裕豐街１３３巷２號","OBJECTID":331860},"geometry":{"x":170744.49000000209,"y":2543078.4000000004}},{"attributes":{"ID":331870,"DIS_CODE":0,"TOWNNAME":"南區","LI":"國宅里","LIN":"15鄰","STREET":"金華路","SECT":"二段","MAREA":" ","LANE":"９巷","ALLEY":" ","HOUSE_NO":"７０號","E_COORD97":166798.89999999999,"N_COORD97":2541864.96,"ADDRESS":"金華路二段９巷７０號","OBJECTID":331861},"geometry":{"x":166798.90000000224,"y":2541864.9600000009}},{"attributes":{"ID":331871,"DIS_CODE":0,"TOWNNAME":"南區","LI":"國宅里","LIN":"15鄰","STREET":"金華路","SECT":"二段","MAREA":" ","LANE":"９巷","ALLEY":" ","HOUSE_NO":"７１號","E_COORD97":166782.23000000001,"N_COORD97":2541851.2200000002,"ADDRESS":"金華路二段９巷７１號","OBJECTID":331862},"geometry":{"x":166782.23000000138,"y":2541851.2200000025}},{"attributes":{"ID":331872,"DIS_CODE":0,"TOWNNAME":"新營區","LI":"太北里","LIN":"6鄰","STREET":" ","SECT":" ","MAREA":"太子宮","LANE":" ","ALLEY":" ","HOUSE_NO":"４６之６號","E_COORD97":175816.039093,"N_COORD97":2577149.0025900002,"ADDRESS":"太子宮４６之６號","OBJECTID":331863},"geometry":{"x":175816.03909300081,"y":2577149.0025859997}},{"attributes":{"ID":331873,"DIS_CODE":0,"TOWNNAME":"新營區","LI":"太北里","LIN":"6鄰","STREET":" ","SECT":" ","MAREA":"太子宮","LANE":" ","ALLEY":" ","HOUSE_NO":"４６之３號","E_COORD97":175795.05868300001,"N_COORD97":2577130.16426,"ADDRESS":"太子宮４６之３號","OBJECTID":331864},"geometry":{"x":175795.0586830005,"y":2577130.1642630007}},{"attributes":{"ID":331874,"DIS_CODE":0,"TOWNNAME":"新營區","LI":"太南里","LIN":"7鄰","STREET":" ","SECT":" ","MAREA":"太子宮","LANE":" ","ALLEY":" ","HOUSE_NO":"５９之２號","E_COORD97":175921.15306800001,"N_COORD97":2577123.81427,"ADDRESS":"太子宮５９之２號","OBJECTID":331865},"geometry":{"x":175921.15306800045,"y":2577123.814267002}},{"attributes":{"ID":331875,"DIS_CODE":0,"TOWNNAME":"南區","LI":"國宅里","LIN":"15鄰","STREET":"金華路","SECT":"二段","MAREA":" ","LANE":"９巷","ALLEY":" ","HOUSE_NO":"７２號","E_COORD97":166794.14000000001,"N_COORD97":2541864.96,"ADDRESS":"金華路二段９巷７２號","OBJECTID":331866},"geometry":{"x":166794.13999999966,"y":2541864.9600000009}},{"attributes":{"ID":331876,"DIS_CODE":0,"TOWNNAME":"南區","LI":"國宅里","LIN":"15鄰","STREET":"金華路","SECT":"二段","MAREA":" ","LANE":"９巷","ALLEY":" ","HOUSE_NO":"８１號","E_COORD97":166742.82999999999,"N_COORD97":2541854.3900000001,"ADDRESS":"金華路二段９巷８１號","OBJECTID":331867},"geometry":{"x":166742.83000000007,"y":2541854.3900000006}},{"attributes":{"ID":331877,"DIS_CODE":0,"TOWNNAME":"南區","LI":"國宅里","LIN":"15鄰","STREET":"金華路","SECT":"二段","MAREA":" ","LANE":"９巷","ALLEY":" ","HOUSE_NO":"８２號","E_COORD97":166767.42000000001,"N_COORD97":2541866.7999999998,"ADDRESS":"金華路二段９巷８２號","OBJECTID":331868},"geometry":{"x":166767.41999999993,"y":2541866.8000000045}},{"attributes":{"ID":331878,"DIS_CODE":0,"TOWNNAME":"仁德區","LI":"仁義里","LIN":"17鄰","STREET":"義林十一街","SECT":" ","MAREA":" ","LANE":" ","ALLEY":" ","HOUSE_NO":"３１號","E_COORD97":174283.14999999999,"N_COORD97":2541388.2599999998,"ADDRESS":"義林十一街３１號","OBJECTID":331869},"geometry":{"x":174283.15000000224,"y":2541388.2600000016}},{"attributes":{"ID":331879,"DIS_CODE":0,"TOWNNAME":"仁德區","LI":"仁義里","LIN":"17鄰","STREET":"義林十街","SECT":" ","MAREA":" ","LANE":" ","ALLEY":" ","HOUSE_NO":"３７號","E_COORD97":174198.57000000001,"N_COORD97":2541391.2599999998,"ADDRESS":"義林十街３７號","OBJECTID":331870},"geometry":{"x":174198.5700000003,"y":2541391.2600000035}},{"attributes":{"ID":331880,"DIS_CODE":0,"TOWNNAME":"仁德區","LI":"仁義里","LIN":"17鄰","STREET":"義林十街","SECT":" ","MAREA":" ","LANE":" ","ALLEY":" ","HOUSE_NO":"２５號","E_COORD97":174223.14999999999,"N_COORD97":2541388.5099999998,"ADDRESS":"義林十街２５號","OBJECTID":331871},"geometry":{"x":174223.15000000037,"y":2541388.5099999998}},{"attributes":{"ID":331881,"DIS_CODE":0,"TOWNNAME":"仁德區","LI":"仁義里","LIN":"17鄰","STREET":"義林十一街","SECT":" ","MAREA":" ","LANE":" ","ALLEY":" ","HOUSE_NO":"７０號","E_COORD97":174322.34,"N_COORD97":2541450.77,"ADDRESS":"義林十一街７０號","OBJECTID":331872},"geometry":{"x":174322.34000000078,"y":2541450.7699999996}},{"attributes":{"ID":331882,"DIS_CODE":0,"TOWNNAME":"仁德區","LI":"仁義里","LIN":"17鄰","STREET":"義林十街","SECT":" ","MAREA":" ","LANE":" ","ALLEY":" ","HOUSE_NO":"４１號","E_COORD97":174190.98000000001,"N_COORD97":2541392.2599999998,"ADDRESS":"義林十街４１號","OBJECTID":331873},"geometry":{"x":174190.98000000045,"y":2541392.2600000016}},{"attributes":{"ID":331883,"DIS_CODE":0,"TOWNNAME":"仁德區","LI":"仁義里","LIN":"17鄰","STREET":"義林十一街","SECT":" ","MAREA":" ","LANE":" ","ALLEY":" ","HOUSE_NO":"２９號","E_COORD97":174282.12,"N_COORD97":2541382.5099999998,"ADDRESS":"義林十一街２９號","OBJECTID":331874},"geometry":{"x":174282.12000000104,"y":2541382.5099999998}},{"attributes":{"ID":331884,"DIS_CODE":0,"TOWNNAME":"下營區","LI":"茅港里","LIN":"11鄰","STREET":" ","SECT":" ","MAREA":"中營","LANE":" ","ALLEY":" ","HOUSE_NO":"６６８號","E_COORD97":176335.00657900001,"N_COORD97":2568805.0441800002,"ADDRESS":"中營６６８號","OBJECTID":331875},"geometry":{"x":176335.0065790005,"y":2568805.0441780016}},{"attributes":{"ID":331885,"DIS_CODE":0,"TOWNNAME":"下營區","LI":"營前里","LIN":"13鄰","STREET":"復興街","SECT":" ","MAREA":" ","LANE":" ","ALLEY":" ","HOUSE_NO":"６３號","E_COORD97":174624.755179,"N_COORD97":2570396.0962499999,"ADDRESS":"復興街６３號","OBJECTID":331876},"geometry":{"x":174624.75517900009,"y":2570396.0962540004}},{"attributes":{"ID":331886,"DIS_CODE":0,"TOWNNAME":"新營區","LI":"太北里","LIN":"20鄰","STREET":" ","SECT":" ","MAREA":"太子宮","LANE":" ","ALLEY":" ","HOUSE_NO":"１４２之８８號","E_COORD97":175454.074035,"N_COORD97":2576954.90436,"ADDRESS":"太子宮１４２之８８號","OBJECTID":331877},"geometry":{"x":175454.07403499912,"y":2576954.9043579996}},{"attributes":{"ID":331887,"DIS_CODE":0,"TOWNNAME":"新營區","LI":"太北里","LIN":"19鄰","STREET":" ","SECT":" ","MAREA":"太子宮","LANE":" ","ALLEY":" ","HOUSE_NO":"４４之１３７號","E_COORD97":175710.71319499999,"N_COORD97":2577659.0131399999,"ADDRESS":"太子宮４４之１３７號","OBJECTID":331878},"geometry":{"x":175710.71319500078,"y":2577659.0131439995}},{"attributes":{"ID":331888,"DIS_CODE":0,"TOWNNAME":"新營區","LI":"太北里","LIN":"19鄰","STREET":" ","SECT":" ","MAREA":"太子宮","LANE":" ","ALLEY":" ","HOUSE_NO":"４４之５８號","E_COORD97":175367.18546800001,"N_COORD97":2577515.0798900002,"ADDRESS":"太子宮４４之５８號","OBJECTID":331879},"geometry":{"x":175367.18546800036,"y":2577515.0798890032}},{"attributes":{"ID":331889,"DIS_CODE":0,"TOWNNAME":"大內區","LI":"石城里","LIN":"4鄰","STREET":" ","SECT":" ","MAREA":"石子瀨","LANE":" ","ALLEY":" ","HOUSE_NO":"３５之２號","E_COORD97":184283.38757300001,"N_COORD97":2558021.53064,"ADDRESS":"石子瀨３５之２號","OBJECTID":331880},"geometry":{"x":184283.38757300097,"y":2558021.5306450035}},{"attributes":{"ID":331890,"DIS_CODE":0,"TOWNNAME":"六甲區","LI":"中社里","LIN":"2鄰","STREET":" ","SECT":" ","MAREA":"中社","LANE":" ","ALLEY":" ","HOUSE_NO":"３６之１號","E_COORD97":181178.73929100001,"N_COORD97":2570883.75257,"ADDRESS":"中社３６之１號","OBJECTID":331881},"geometry":{"x":181178.73929100204,"y":2570883.7525740024}},{"attributes":{"ID":331891,"DIS_CODE":0,"TOWNNAME":"佳里區","LI":"鎮山里","LIN":"3鄰","STREET":" ","SECT":" ","MAREA":"鎮山","LANE":" ","ALLEY":" ","HOUSE_NO":"９號","E_COORD97":165855.452105,"N_COORD97":2561682.9726900002,"ADDRESS":"鎮山９號","OBJECTID":331882},"geometry":{"x":165855.45210500155,"y":2561682.9726880025}},{"attributes":{"ID":331892,"DIS_CODE":0,"TOWNNAME":"歸仁區","LI":"南保里","LIN":"27鄰","STREET":"民權六街","SECT":" ","MAREA":" ","LANE":" ","ALLEY":" ","HOUSE_NO":"１７號","E_COORD97":176949.72517600001,"N_COORD97":2541065.3541100002,"ADDRESS":"民權六街１７號","OBJECTID":331883},"geometry":{"x":176949.72517600004,"y":2541065.3541130014}},{"attributes":{"ID":331893,"DIS_CODE":0,"TOWNNAME":"佳里區","LI":"建南里","LIN":"15鄰","STREET":"光復路","SECT":" ","MAREA":" ","LANE":" ","ALLEY":" ","HOUSE_NO":"９５號","E_COORD97":165506.017823,"N_COORD97":2561967.9660999998,"ADDRESS":"光復路９５號","OBJECTID":331884},"geometry":{"x":165506.01782300044,"y":2561967.9660989996}},{"attributes":{"ID":331894,"DIS_CODE":0,"TOWNNAME":"歸仁區","LI":"南保里","LIN":"2鄰","STREET":"民權二街","SECT":" ","MAREA":" ","LANE":" ","ALLEY":" ","HOUSE_NO":"７之１號","E_COORD97":176980.02221699999,"N_COORD97":2541348.6697900002,"ADDRESS":"民權二街７之１號","OBJECTID":331885},"geometry":{"x":176980.02221700083,"y":2541348.6697940025}},{"attributes":{"ID":331895,"DIS_CODE":0,"TOWNNAME":"佳里區","LI":"建南里","LIN":"16鄰","STREET":"光復路","SECT":" ","MAREA":" ","LANE":" ","ALLEY":" ","HOUSE_NO":"６０號","E_COORD97":165548.81504099999,"N_COORD97":2561926.0561199998,"ADDRESS":"光復路６０號","OBJECTID":331886},"geometry":{"x":165548.81504100002,"y":2561926.0561220031}},{"attributes":{"ID":331896,"DIS_CODE":0,"TOWNNAME":"大內區","LI":"石城里","LIN":"16鄰","STREET":" ","SECT":" ","MAREA":"石子瀨","LANE":" ","ALLEY":" ","HOUSE_NO":"１２２之１６０號","E_COORD97":183979.59935,"N_COORD97":2557597.98587,"ADDRESS":"石子瀨１２２之１６０號","OBJECTID":331887},"geometry":{"x":183979.5993499998,"y":2557597.9858740028}},{"attributes":{"ID":331897,"DIS_CODE":0,"TOWNNAME":"歸仁區","LI":"南保里","LIN":"8鄰","STREET":"文化街","SECT":"三段","MAREA":" ","LANE":" ","ALLEY":" ","HOUSE_NO":"８６號","E_COORD97":176789.97714199999,"N_COORD97":2541255.4306800002,"ADDRESS":"文化街三段８６號","OBJECTID":331888},"geometry":{"x":176789.97714200057,"y":2541255.4306770004}},{"attributes":{"ID":331898,"DIS_CODE":0,"TOWNNAME":"歸仁區","LI":"南保里","LIN":"8鄰","STREET":"文化街","SECT":"三段","MAREA":" ","LANE":" ","ALLEY":" ","HOUSE_NO":"８８號","E_COORD97":176786.79913100001,"N_COORD97":2541254.3723499998,"ADDRESS":"文化街三段８８號","OBJECTID":331889},"geometry":{"x":176786.79913100135,"y":2541254.3723450024}},{"attributes":{"ID":331899,"DIS_CODE":0,"TOWNNAME":"南區","LI":"國宅里","LIN":"15鄰","STREET":"金華路","SECT":"二段","MAREA":" ","LANE":"９巷","ALLEY":" ","HOUSE_NO":"８３號","E_COORD97":166736.75,"N_COORD97":2541853.8599999999,"ADDRESS":"金華路二段９巷８３號","OBJECTID":331890},"geometry":{"x":166736.75000000186,"y":2541853.8599999994}},{"attributes":{"ID":331900,"DIS_CODE":0,"TOWNNAME":"南區","LI":"國宅里","LIN":"15鄰","STREET":"金華路","SECT":"二段","MAREA":" ","LANE":"９巷","ALLEY":" ","HOUSE_NO":"８４號","E_COORD97":166752.35000000001,"N_COORD97":2541867.6000000001,"ADDRESS":"金華路二段９巷８４號","OBJECTID":331891},"geometry":{"x":166752.34999999963,"y":2541867.6000000015}},{"attributes":{"ID":331901,"DIS_CODE":0,"TOWNNAME":"南區","LI":"國宅里","LIN":"15鄰","STREET":"金華路","SECT":"二段","MAREA":" ","LANE":"９巷","ALLEY":" ","HOUSE_NO":"８６號","E_COORD97":166745.20999999999,"N_COORD97":2541868.3900000001,"ADDRESS":"金華路二段９巷８６號","OBJECTID":331892},"geometry":{"x":166745.20999999996,"y":2541868.3900000006}},{"attributes":{"ID":331902,"DIS_CODE":0,"TOWNNAME":"南區","LI":"國宅里","LIN":"15鄰","STREET":"金華路","SECT":"二段","MAREA":" ","LANE":"１５巷","ALLEY":" ","HOUSE_NO":"６７號","E_COORD97":166805.51000000001,"N_COORD97":2541880.27,"ADDRESS":"金華路二段１５巷６７號","OBJECTID":331893},"geometry":{"x":166805.50999999978,"y":2541880.2700000014}},{"attributes":{"ID":331903,"DIS_CODE":0,"TOWNNAME":"仁德區","LI":"仁德里","LIN":"3鄰","STREET":"仁中三街","SECT":" ","MAREA":" ","LANE":" ","ALLEY":" ","HOUSE_NO":"１０１號","E_COORD97":173191.016794,"N_COORD97":2540412.18768,"ADDRESS":"仁中三街１０１號","OBJECTID":331894},"geometry":{"x":173191.01679399982,"y":2540412.1876769997}},{"attributes":{"ID":331904,"DIS_CODE":0,"TOWNNAME":"南區","LI":"國宅里","LIN":"15鄰","STREET":"金華路","SECT":"二段","MAREA":" ","LANE":"１５巷","ALLEY":" ","HOUSE_NO":"６９號","E_COORD97":166800.22,"N_COORD97":2541881.0699999998,"ADDRESS":"金華路二段１５巷６９號","OBJECTID":331895},"geometry":{"x":166800.22000000067,"y":2541881.0700000003}},{"attributes":{"ID":331905,"DIS_CODE":0,"TOWNNAME":"南區","LI":"國宅里","LIN":"15鄰","STREET":"金華路","SECT":"二段","MAREA":" ","LANE":"１５巷","ALLEY":" ","HOUSE_NO":"７１號","E_COORD97":166795.19,"N_COORD97":2541881.3300000001,"ADDRESS":"金華路二段１５巷７１號","OBJECTID":331896},"geometry":{"x":166795.18999999948,"y":2541881.3300000001}},{"attributes":{"ID":331906,"DIS_CODE":0,"TOWNNAME":"南區","LI":"國宅里","LIN":"15鄰","STREET":"金華路","SECT":"二段","MAREA":" ","LANE":"１５巷","ALLEY":" ","HOUSE_NO":"７３號","E_COORD97":166789.89999999999,"N_COORD97":2541881.8599999999,"ADDRESS":"金華路二段１５巷７３號","OBJECTID":331897},"geometry":{"x":166789.90000000037,"y":2541881.8600000031}},{"attributes":{"ID":331907,"DIS_CODE":0,"TOWNNAME":"南區","LI":"國宅里","LIN":"15鄰","STREET":"金華路","SECT":"二段","MAREA":" ","LANE":"１５巷","ALLEY":" ","HOUSE_NO":"７５號","E_COORD97":166784.88,"N_COORD97":2541882.3900000001,"ADDRESS":"金華路二段１５巷７５號","OBJECTID":331898},"geometry":{"x":166784.87999999896,"y":2541882.3900000006}},{"attributes":{"ID":331908,"DIS_CODE":0,"TOWNNAME":"南區","LI":"國宅里","LIN":"15鄰","STREET":"金華路","SECT":"二段","MAREA":" ","LANE":"１５巷","ALLEY":" ","HOUSE_NO":"７７號","E_COORD97":166779.85000000001,"N_COORD97":2541882.9100000001,"ADDRESS":"金華路二段１５巷７７號","OBJECTID":331899},"geometry":{"x":166779.85000000149,"y":2541882.910000002}},{"attributes":{"ID":331909,"DIS_CODE":0,"TOWNNAME":"南區","LI":"國宅里","LIN":"15鄰","STREET":"金華路","SECT":"二段","MAREA":" ","LANE":"１５巷","ALLEY":" ","HOUSE_NO":"７９號","E_COORD97":166774.82999999999,"N_COORD97":2541883.4399999999,"ADDRESS":"金華路二段１５巷７９號","OBJECTID":331900},"geometry":{"x":166774.83000000007,"y":2541883.4399999995}},{"attributes":{"ID":331910,"DIS_CODE":0,"TOWNNAME":"南區","LI":"國宅里","LIN":"15鄰","STREET":"金華路","SECT":"二段","MAREA":" ","LANE":"１５巷","ALLEY":" ","HOUSE_NO":"８１號","E_COORD97":166769.79999999999,"N_COORD97":2541883.9700000002,"ADDRESS":"金華路二段１５巷８１號","OBJECTID":331901},"geometry":{"x":166769.79999999981,"y":2541883.9700000025}},{"attributes":{"ID":331911,"DIS_CODE":0,"TOWNNAME":"南區","LI":"國宅里","LIN":"15鄰","STREET":"金華路","SECT":"二段","MAREA":" ","LANE":"１５巷","ALLEY":" ","HOUSE_NO":"８３號","E_COORD97":166764.25,"N_COORD97":2541884.5,"ADDRESS":"金華路二段１５巷８３號","OBJECTID":331902},"geometry":{"x":166764.25000000093,"y":2541884.5}},{"attributes":{"ID":331912,"DIS_CODE":0,"TOWNNAME":"大內區","LI":"石城里","LIN":"14鄰","STREET":" ","SECT":" ","MAREA":"石子瀨","LANE":" ","ALLEY":" ","HOUSE_NO":"１１４號之５４","E_COORD97":184031.42000000001,"N_COORD97":2557808.2999999998,"ADDRESS":"石子瀨１１４號之５４","OBJECTID":331903},"geometry":{"x":184031.41999999993,"y":2557808.3000000045}},{"attributes":{"ID":331913,"DIS_CODE":0,"TOWNNAME":"新營區","LI":"太北里","LIN":"18鄰","STREET":" ","SECT":" ","MAREA":"太子宮","LANE":" ","ALLEY":" ","HOUSE_NO":"１２之２號","E_COORD97":176200.92788100001,"N_COORD97":2577135.1564099998,"ADDRESS":"太子宮１２之２號","OBJECTID":331904},"geometry":{"x":176200.92788100149,"y":2577135.1564100031}},{"attributes":{"ID":331914,"DIS_CODE":0,"TOWNNAME":"新營區","LI":"太北里","LIN":"14鄰","STREET":" ","SECT":" ","MAREA":"太子宮","LANE":" ","ALLEY":" ","HOUSE_NO":"１１５之１號","E_COORD97":175956.58027499999,"N_COORD97":2576933.3323499998,"ADDRESS":"太子宮１１５之１號","OBJECTID":331905},"geometry":{"x":175956.580275001,"y":2576933.3323520012}},{"attributes":{"ID":331915,"DIS_CODE":0,"TOWNNAME":"新營區","LI":"太北里","LIN":"4鄰","STREET":" ","SECT":" ","MAREA":"太子宮","LANE":" ","ALLEY":" ","HOUSE_NO":"２５之１８號","E_COORD97":176227.20637500001,"N_COORD97":2577459.2179,"ADDRESS":"太子宮２５之１８號","OBJECTID":331906},"geometry":{"x":176227.20637500193,"y":2577459.2179020029}},{"attributes":{"ID":331916,"DIS_CODE":0,"TOWNNAME":"歸仁區","LI":"八甲里","LIN":"16鄰","STREET":"大仁街","SECT":" ","MAREA":" ","LANE":" ","ALLEY":" ","HOUSE_NO":"３９２號","E_COORD97":178118.63793900001,"N_COORD97":2541560.8736800002,"ADDRESS":"大仁街３９２號","OBJECTID":331907},"geometry":{"x":178118.6379390005,"y":2541560.8736820035}},{"attributes":{"ID":331917,"DIS_CODE":0,"TOWNNAME":"歸仁區","LI":"八甲里","LIN":"16鄰","STREET":"大仁街","SECT":" ","MAREA":" ","LANE":" ","ALLEY":" ","HOUSE_NO":"３９４號","E_COORD97":178167.15557800001,"N_COORD97":2541549.4436900001,"ADDRESS":"大仁街３９４號","OBJECTID":331908},"geometry":{"x":178167.15557800047,"y":2541549.4436879996}},{"attributes":{"ID":331918,"DIS_CODE":0,"TOWNNAME":"歸仁區","LI":"八甲里","LIN":"16鄰","STREET":"大仁街","SECT":" ","MAREA":" ","LANE":" ","ALLEY":" ","HOUSE_NO":"４１０號","E_COORD97":178069.69656499999,"N_COORD97":2541610.6153199999,"ADDRESS":"大仁街４１０號","OBJECTID":331909},"geometry":{"x":178069.69656500034,"y":2541610.6153219994}},{"attributes":{"ID":331919,"DIS_CODE":0,"TOWNNAME":"歸仁區","LI":"八甲里","LIN":"8鄰","STREET":"大光一街","SECT":" ","MAREA":" ","LANE":" ","ALLEY":" ","HOUSE_NO":"４８號","E_COORD97":177849.14258099999,"N_COORD97":2541766.9310699999,"ADDRESS":"大光一街４８號","OBJECTID":331910},"geometry":{"x":177849.14258100092,"y":2541766.931071002}},{"attributes":{"ID":331920,"DIS_CODE":0,"TOWNNAME":"歸仁區","LI":"八甲里","LIN":"8鄰","STREET":"大明一街","SECT":" ","MAREA":" ","LANE":" ","ALLEY":" ","HOUSE_NO":"３６號","E_COORD97":177899.35516000001,"N_COORD97":2541769.6827400001,"ADDRESS":"大明一街３６號","OBJECTID":331911},"geometry":{"x":177899.35516000073,"y":2541769.6827360019}},{"attributes":{"ID":331921,"DIS_CODE":0,"TOWNNAME":"南區","LI":"國宅里","LIN":"15鄰","STREET":"金華路","SECT":"二段","MAREA":" ","LANE":"１５巷","ALLEY":" ","HOUSE_NO":"８５號","E_COORD97":166748.91,"N_COORD97":2541884.5,"ADDRESS":"金華路二段１５巷８５號","OBJECTID":331912},"geometry":{"x":166748.91000000015,"y":2541884.5}},{"attributes":{"ID":331922,"DIS_CODE":0,"TOWNNAME":"南區","LI":"國宅里","LIN":"15鄰","STREET":"金華路","SECT":"二段","MAREA":" ","LANE":"１５巷","ALLEY":" ","HOUSE_NO":"８７號","E_COORD97":166742.03,"N_COORD97":2541885.29,"ADDRESS":"金華路二段１５巷８７號","OBJECTID":331913},"geometry":{"x":166742.03000000212,"y":2541885.2900000028}},{"attributes":{"ID":331923,"DIS_CODE":0,"TOWNNAME":"南區","LI":"國宅里","LIN":"15鄰","STREET":"金華路","SECT":"二段","MAREA":" ","LANE":"１５巷","ALLEY":" ","HOUSE_NO":"８９號","E_COORD97":166735.69,"N_COORD97":2541886.0800000001,"ADDRESS":"金華路二段１５巷８９號","OBJECTID":331914},"geometry":{"x":166735.69000000041,"y":2541886.0800000019}},{"attributes":{"ID":331924,"DIS_CODE":0,"TOWNNAME":"南區","LI":"國宅里","LIN":"15鄰","STREET":"金華路","SECT":"二段","MAREA":" ","LANE":"２７巷","ALLEY":" ","HOUSE_NO":"６９號","E_COORD97":166736.16,"N_COORD97":2541953.98,"ADDRESS":"金華路二段２７巷６９號","OBJECTID":331915},"geometry":{"x":166736.16000000108,"y":2541953.9800000023}},{"attributes":{"ID":331925,"DIS_CODE":0,"TOWNNAME":"南區","LI":"國宅里","LIN":"15鄰","STREET":"金華路","SECT":"二段","MAREA":" ","LANE":"２７巷","ALLEY":" ","HOUSE_NO":"７１號","E_COORD97":166732.70000000001,"N_COORD97":2541951.8999999999,"ADDRESS":"金華路二段２７巷７１號","OBJECTID":331916},"geometry":{"x":166732.70000000112,"y":2541951.9000000022}},{"attributes":{"ID":331926,"DIS_CODE":0,"TOWNNAME":"南區","LI":"國宅里","LIN":"15鄰","STREET":"金華路","SECT":"二段","MAREA":" ","LANE":"２７巷","ALLEY":" ","HOUSE_NO":"７３號","E_COORD97":166728.54000000001,"N_COORD97":2541953.29,"ADDRESS":"金華路二段２７巷７３號","OBJECTID":331917},"geometry":{"x":166728.54000000097,"y":2541953.2900000028}},{"attributes":{"ID":331927,"DIS_CODE":0,"TOWNNAME":"永康區","LI":"烏竹里","LIN":"15鄰","STREET":"龍橋街","SECT":" ","MAREA":" ","LANE":"３５０巷","ALLEY":" ","HOUSE_NO":"１０２號","E_COORD97":174689.75,"N_COORD97":2549214.1699999999,"ADDRESS":"龍橋街３５０巷１０２號","OBJECTID":331918},"geometry":{"x":174689.75000000093,"y":2549214.1700000018}},{"attributes":{"ID":331928,"DIS_CODE":0,"TOWNNAME":"永康區","LI":"烏竹里","LIN":"15鄰","STREET":"龍橋街","SECT":" ","MAREA":" ","LANE":"３５０巷","ALLEY":" ","HOUSE_NO":"８３號之１","E_COORD97":174655.84,"N_COORD97":2549227.8799999999,"ADDRESS":"龍橋街３５０巷８３號之１","OBJECTID":331919},"geometry":{"x":174655.83999999892,"y":2549227.879999999}},{"attributes":{"ID":331929,"DIS_CODE":0,"TOWNNAME":"永康區","LI":"埔園里","LIN":"15鄰","STREET":"龍埔街","SECT":" ","MAREA":" ","LANE":"５３６巷","ALLEY":" ","HOUSE_NO":"４號","E_COORD97":173564.81,"N_COORD97":2548405.75,"ADDRESS":"龍埔街５３６巷４號","OBJECTID":331920},"geometry":{"x":173564.81000000052,"y":2548405.75}},{"attributes":{"ID":331930,"DIS_CODE":0,"TOWNNAME":"仁德區","LI":"仁義里","LIN":"17鄰","STREET":"義林十街","SECT":" ","MAREA":" ","LANE":" ","ALLEY":" ","HOUSE_NO":"２９號","E_COORD97":174215.14999999999,"N_COORD97":2541389.0099999998,"ADDRESS":"義林十街２９號","OBJECTID":331921},"geometry":{"x":174215.15000000037,"y":2541389.0099999998}},{"attributes":{"ID":331931,"DIS_CODE":0,"TOWNNAME":"關廟區","LI":"關廟里","LIN":"5鄰","STREET":"中山路","SECT":"二段","MAREA":" ","LANE":" ","ALLEY":" ","HOUSE_NO":"１３５號","E_COORD97":180898.62138600001,"N_COORD97":2540019.8777100001,"ADDRESS":"中山路二段１３５號","OBJECTID":331922},"geometry":{"x":180898.62138599996,"y":2540019.8777089994}},{"attributes":{"ID":331932,"DIS_CODE":0,"TOWNNAME":"關廟區","LI":"田中里","LIN":"1鄰","STREET":"田大路","SECT":" ","MAREA":" ","LANE":" ","ALLEY":" ","HOUSE_NO":"６７號","E_COORD97":184215.53676300001,"N_COORD97":2533833.3946099998,"ADDRESS":"田大路６７號","OBJECTID":331923},"geometry":{"x":184215.53676300123,"y":2533833.3946120013}},{"attributes":{"ID":331933,"DIS_CODE":0,"TOWNNAME":"永康區","LI":"埔園里","LIN":"15鄰","STREET":"龍埔街","SECT":" ","MAREA":" ","LANE":"５３６巷","ALLEY":" ","HOUSE_NO":"１９號","E_COORD97":173536.20999999999,"N_COORD97":2548440.9900000002,"ADDRESS":"龍埔街５３６巷１９號","OBJECTID":331924},"geometry":{"x":173536.20999999996,"y":2548440.9900000002}},{"attributes":{"ID":331934,"DIS_CODE":0,"TOWNNAME":"永康區","LI":"烏竹里","LIN":"15鄰","STREET":"龍橋街","SECT":" ","MAREA":" ","LANE":"３５０巷","ALLEY":" ","HOUSE_NO":"１３１號","E_COORD97":174748.35000000001,"N_COORD97":2549308.5499999998,"ADDRESS":"龍橋街３５０巷１３１號","OBJECTID":331925},"geometry":{"x":174748.34999999963,"y":2549308.5500000026}},{"attributes":{"ID":331935,"DIS_CODE":0,"TOWNNAME":"永康區","LI":"烏竹里","LIN":"15鄰","STREET":"龍橋街","SECT":" ","MAREA":" ","LANE":"３５０巷","ALLEY":" ","HOUSE_NO":"１０７號","E_COORD97":174692.60000000001,"N_COORD97":2549257.8199999998,"ADDRESS":"龍橋街３５０巷１０７號","OBJECTID":331926},"geometry":{"x":174692.59999999963,"y":2549257.8200000022}},{"attributes":{"ID":331936,"DIS_CODE":0,"TOWNNAME":"永康區","LI":"烏竹里","LIN":"15鄰","STREET":"龍橋街","SECT":" ","MAREA":" ","LANE":"３５０巷","ALLEY":" ","HOUSE_NO":"１０５號","E_COORD97":174688.45999999999,"N_COORD97":2549253.8199999998,"ADDRESS":"龍橋街３５０巷１０５號","OBJECTID":331927},"geometry":{"x":174688.45999999996,"y":2549253.820000004}},{"attributes":{"ID":331937,"DIS_CODE":0,"TOWNNAME":"永康區","LI":"埔園里","LIN":"15鄰","STREET":"龍埔街","SECT":" ","MAREA":" ","LANE":"５３６巷","ALLEY":" ","HOUSE_NO":"６號","E_COORD97":173563.56,"N_COORD97":2548409.75,"ADDRESS":"龍埔街５３６巷６號","OBJECTID":331928},"geometry":{"x":173563.55999999959,"y":2548409.7500000037}},{"attributes":{"ID":331938,"DIS_CODE":0,"TOWNNAME":"永康區","LI":"烏竹里","LIN":"15鄰","STREET":"龍橋街","SECT":" ","MAREA":" ","LANE":"３５０巷","ALLEY":" ","HOUSE_NO":"９１號","E_COORD97":174669.12,"N_COORD97":2549242.5800000001,"ADDRESS":"龍橋街３５０巷９１號","OBJECTID":331929},"geometry":{"x":174669.12000000011,"y":2549242.5800000019}},{"attributes":{"ID":331939,"DIS_CODE":0,"TOWNNAME":"永康區","LI":"埔園里","LIN":"15鄰","STREET":"龍埔街","SECT":" ","MAREA":" ","LANE":"５３６巷","ALLEY":" ","HOUSE_NO":"１５號","E_COORD97":173538.01000000001,"N_COORD97":2548432.7400000002,"ADDRESS":"龍埔街５３６巷１５號","OBJECTID":331930},"geometry":{"x":173538.01000000071,"y":2548432.7400000002}},{"attributes":{"ID":331940,"DIS_CODE":0,"TOWNNAME":"永康區","LI":"南灣里","LIN":"15鄰","STREET":"大灣路","SECT":" ","MAREA":" ","LANE":"６５２巷","ALLEY":" ","HOUSE_NO":"６號","E_COORD97":174436.78,"N_COORD97":2544631.4900000002,"ADDRESS":"大灣路６５２巷６號","OBJECTID":331931},"geometry":{"x":174436.78000000119,"y":2544631.4900000039}},{"attributes":{"ID":331941,"DIS_CODE":0,"TOWNNAME":"永康區","LI":"埔園里","LIN":"15鄰","STREET":"龍埔街","SECT":" ","MAREA":" ","LANE":"５３６巷","ALLEY":" ","HOUSE_NO":"２４號","E_COORD97":173554.04999999999,"N_COORD97":2548446.4900000002,"ADDRESS":"龍埔街５３６巷２４號","OBJECTID":331932},"geometry":{"x":173554.04999999981,"y":2548446.4900000021}},{"attributes":{"ID":331942,"DIS_CODE":0,"TOWNNAME":"永康區","LI":"埔園里","LIN":"15鄰","STREET":"龍埔街","SECT":" ","MAREA":" ","LANE":"５３６巷","ALLEY":" ","HOUSE_NO":"２６號","E_COORD97":173553.26000000001,"N_COORD97":2548450.7400000002,"ADDRESS":"龍埔街５３６巷２６號","OBJECTID":331933},"geometry":{"x":173553.26000000071,"y":2548450.7400000039}},{"attributes":{"ID":331943,"DIS_CODE":0,"TOWNNAME":"大內區","LI":"石城里","LIN":"16鄰","STREET":" ","SECT":" ","MAREA":"石子瀨","LANE":" ","ALLEY":" ","HOUSE_NO":"１２２號之２４","E_COORD97":183973.089672,"N_COORD97":2557774.4835700002,"ADDRESS":"石子瀨１２２號之２４","OBJECTID":331934},"geometry":{"x":183973.08967200015,"y":2557774.4835710004}},{"attributes":{"ID":331944,"DIS_CODE":0,"TOWNNAME":"大內區","LI":"石城里","LIN":"16鄰","STREET":" ","SECT":" ","MAREA":"石子瀨","LANE":" ","ALLEY":" ","HOUSE_NO":"１２２號之３８","E_COORD97":184056.98097999999,"N_COORD97":2557649.6003,"ADDRESS":"石子瀨１２２號之３８","OBJECTID":331935},"geometry":{"x":184056.98097999953,"y":2557649.6003050003}},{"attributes":{"ID":331945,"DIS_CODE":0,"TOWNNAME":"東山區","LI":"東原里","LIN":"7鄰","STREET":" ","SECT":" ","MAREA":"前大埔","LANE":" ","ALLEY":" ","HOUSE_NO":"１２６號","E_COORD97":192967.62379700001,"N_COORD97":2573763.7409600001,"ADDRESS":"前大埔１２６號","OBJECTID":331936},"geometry":{"x":192967.62379700039,"y":2573763.7409630008}},{"attributes":{"ID":331946,"DIS_CODE":0,"TOWNNAME":"東山區","LI":"東原里","LIN":"24鄰","STREET":" ","SECT":" ","MAREA":"前大埔","LANE":" ","ALLEY":" ","HOUSE_NO":"１９１號","E_COORD97":193077.51007700001,"N_COORD97":2573776.38173,"ADDRESS":"前大埔１９１號","OBJECTID":331937},"geometry":{"x":193077.51007699966,"y":2573776.3817250002}},{"attributes":{"ID":331947,"DIS_CODE":0,"TOWNNAME":"下營區","LI":"茅港里","LIN":"13鄰","STREET":" ","SECT":" ","MAREA":"中營","LANE":" ","ALLEY":" ","HOUSE_NO":"７５０號之２","E_COORD97":176203.97826999999,"N_COORD97":2568432.56317,"ADDRESS":"中營７５０號之２","OBJECTID":331938},"geometry":{"x":176203.97827000171,"y":2568432.5631700028}},{"attributes":{"ID":331948,"DIS_CODE":0,"TOWNNAME":"下營區","LI":"茅港里","LIN":"13鄰","STREET":" ","SECT":" ","MAREA":"中營","LANE":" ","ALLEY":" ","HOUSE_NO":"７５０號之１","E_COORD97":176206.73261000001,"N_COORD97":2568420.7098400001,"ADDRESS":"中營７５０號之１","OBJECTID":331939},"geometry":{"x":176206.73261000123,"y":2568420.7098399997}},{"attributes":{"ID":331949,"DIS_CODE":0,"TOWNNAME":"佳里區","LI":"龍安里","LIN":"16鄰","STREET":" ","SECT":" ","MAREA":"外渡頭","LANE":" ","ALLEY":" ","HOUSE_NO":"１２號之４９","E_COORD97":165026.60967000001,"N_COORD97":2559086.2159099998,"ADDRESS":"外渡頭１２號之４９","OBJECTID":331940},"geometry":{"x":165026.60967000015,"y":2559086.2159110028}},{"attributes":{"ID":331950,"DIS_CODE":0,"TOWNNAME":"歸仁區","LI":"南保里","LIN":"60鄰","STREET":"中山七街","SECT":" ","MAREA":" ","LANE":"１１巷","ALLEY":" ","HOUSE_NO":"５１號","E_COORD97":176743.20733400001,"N_COORD97":2540826.48826,"ADDRESS":"中山七街１１巷５１號","OBJECTID":331941},"geometry":{"x":176743.20733400155,"y":2540826.4882580023}},{"attributes":{"ID":331951,"DIS_CODE":0,"TOWNNAME":"下營區","LI":"新興里","LIN":"10鄰","STREET":"和平街","SECT":" ","MAREA":" ","LANE":" ","ALLEY":" ","HOUSE_NO":"４２號","E_COORD97":174717.34080999999,"N_COORD97":2570715.2974299998,"ADDRESS":"和平街４２號","OBJECTID":331942},"geometry":{"x":174717.34080999997,"y":2570715.2974289991}},{"attributes":{"ID":331952,"DIS_CODE":0,"TOWNNAME":"關廟區","LI":"五甲里","LIN":"4鄰","STREET":"南雄路","SECT":"一段","MAREA":" ","LANE":" ","ALLEY":" ","HOUSE_NO":"９１６號","E_COORD97":181259.70102899999,"N_COORD97":2539396.4131100001,"ADDRESS":"南雄路一段９１６號","OBJECTID":331943},"geometry":{"x":181259.7010290008,"y":2539396.4131110013}},{"attributes":{"ID":331953,"DIS_CODE":0,"TOWNNAME":"關廟區","LI":"五甲里","LIN":"15鄰","STREET":"南雄路","SECT":"一段","MAREA":" ","LANE":" ","ALLEY":" ","HOUSE_NO":"９２６號","E_COORD97":181247.83234299999,"N_COORD97":2539425.6231,"ADDRESS":"南雄路一段９２６號","OBJECTID":331944},"geometry":{"x":181247.83234299999,"y":2539425.6230950002}},{"attributes":{"ID":331954,"DIS_CODE":0,"TOWNNAME":"關廟區","LI":"五甲里","LIN":"5鄰","STREET":"南雄路","SECT":"一段","MAREA":" ","LANE":" ","ALLEY":" ","HOUSE_NO":"７５７號","E_COORD97":181419.29246999999,"N_COORD97":2538993.7174999998,"ADDRESS":"南雄路一段７５７號","OBJECTID":331945},"geometry":{"x":181419.29247000162,"y":2538993.717495}},{"attributes":{"ID":331955,"DIS_CODE":0,"TOWNNAME":"仁德區","LI":"後壁里","LIN":"12鄰","STREET":"德善路","SECT":" ","MAREA":" ","LANE":" ","ALLEY":" ","HOUSE_NO":"２７０之９號","E_COORD97":173949.037579,"N_COORD97":2538502.8909999998,"ADDRESS":"德善路２７０之９號","OBJECTID":331946},"geometry":{"x":173949.03757900093,"y":2538502.8909999989}},{"attributes":{"ID":331956,"DIS_CODE":0,"TOWNNAME":"仁德區","LI":"後壁里","LIN":"12鄰","STREET":"德善路","SECT":" ","MAREA":" ","LANE":" ","ALLEY":" ","HOUSE_NO":"２７０之１０號","E_COORD97":173951.155615,"N_COORD97":2538495.4826699998,"ADDRESS":"德善路２７０之１０號","OBJECTID":331947},"geometry":{"x":173951.15561500192,"y":2538495.4826710001}},{"attributes":{"ID":331957,"DIS_CODE":0,"TOWNNAME":"仁德區","LI":"後壁里","LIN":"12鄰","STREET":"德善路","SECT":" ","MAREA":" ","LANE":" ","ALLEY":" ","HOUSE_NO":"２７０號","E_COORD97":173932.94050500001,"N_COORD97":2538560.4643000001,"ADDRESS":"德善路２７０號","OBJECTID":331948},"geometry":{"x":173932.94050500169,"y":2538560.4643019997}},{"attributes":{"ID":331958,"DIS_CODE":0,"TOWNNAME":"仁德區","LI":"後壁里","LIN":"12鄰","STREET":"德善路","SECT":" ","MAREA":" ","LANE":" ","ALLEY":" ","HOUSE_NO":"２７０之１號","E_COORD97":173934.634934,"N_COORD97":2538552.2093099998,"ADDRESS":"德善路２７０之１號","OBJECTID":331949},"geometry":{"x":173934.63493400067,"y":2538552.2093070019}},{"attributes":{"ID":331959,"DIS_CODE":0,"TOWNNAME":"永康區","LI":"東橋里","LIN":"15鄰","STREET":"中山南路","SECT":" ","MAREA":" ","LANE":"３４７巷","ALLEY":" ","HOUSE_NO":"１７號","E_COORD97":171945.23000000001,"N_COORD97":2546467.6499999999,"ADDRESS":"中山南路３４７巷１７號","OBJECTID":331950},"geometry":{"x":171945.23000000138,"y":2546467.6500000004}},{"attributes":{"ID":331960,"DIS_CODE":0,"TOWNNAME":"永康區","LI":"東灣里","LIN":"15鄰","STREET":"民族路","SECT":" ","MAREA":" ","LANE":"２７３巷","ALLEY":" ","HOUSE_NO":"２號","E_COORD97":175096.64000000001,"N_COORD97":2545047.29,"ADDRESS":"民族路２７３巷２號","OBJECTID":331951},"geometry":{"x":175096.6400000006,"y":2545047.2899999991}},{"attributes":{"ID":331961,"DIS_CODE":0,"TOWNNAME":"永康區","LI":"東橋里","LIN":"15鄰","STREET":"中山南路","SECT":" ","MAREA":" ","LANE":"３４７巷","ALLEY":" ","HOUSE_NO":"２５號","E_COORD97":171931.26999999999,"N_COORD97":2546488.6499999999,"ADDRESS":"中山南路３４７巷２５號","OBJECTID":331952},"geometry":{"x":171931.26999999955,"y":2546488.6500000041}},{"attributes":{"ID":331962,"DIS_CODE":0,"TOWNNAME":"永康區","LI":"南灣里","LIN":"15鄰","STREET":"大灣路","SECT":" ","MAREA":" ","LANE":"６５２巷","ALLEY":" ","HOUSE_NO":"５號","E_COORD97":174446.25,"N_COORD97":2544629.9199999999,"ADDRESS":"大灣路６５２巷５號","OBJECTID":331953},"geometry":{"x":174446.25,"y":2544629.9199999999}},{"attributes":{"ID":331963,"DIS_CODE":0,"TOWNNAME":"永康區","LI":"東灣里","LIN":"15鄰","STREET":"民族路","SECT":" ","MAREA":" ","LANE":"２７３巷","ALLEY":" ","HOUSE_NO":"８號","E_COORD97":175088.89999999999,"N_COORD97":2545042.54,"ADDRESS":"民族路２７３巷８號","OBJECTID":331954},"geometry":{"x":175088.9000000013,"y":2545042.5399999991}},{"attributes":{"ID":331964,"DIS_CODE":0,"TOWNNAME":"安南區","LI":"城東里","LIN":"15鄰","STREET":"城北路","SECT":" ","MAREA":" ","LANE":"２３４巷","ALLEY":" ","HOUSE_NO":"４７號","E_COORD97":161096.69,"N_COORD97":2551879.2000000002,"ADDRESS":"城北路２３４巷４７號","OBJECTID":331955},"geometry":{"x":161096.69000000134,"y":2551879.2000000011}},{"attributes":{"ID":331965,"DIS_CODE":0,"TOWNNAME":"安南區","LI":"安和里","LIN":"15鄰","STREET":"安和路","SECT":"一段","MAREA":" ","LANE":"９６巷","ALLEY":" ","HOUSE_NO":"８７號","E_COORD97":169676.20000000001,"N_COORD97":2547770.2999999998,"ADDRESS":"安和路一段９６巷８７號","OBJECTID":331956},"geometry":{"x":169676.20000000019,"y":2547770.3000000026}},{"attributes":{"ID":331966,"DIS_CODE":0,"TOWNNAME":"安南區","LI":"淵中里","LIN":"15鄰","STREET":"安中路","SECT":"四段","MAREA":" ","LANE":"２９０巷","ALLEY":" ","HOUSE_NO":"２５４號","E_COORD97":165041.95000000001,"N_COORD97":2550250.1200000001,"ADDRESS":"安中路四段２９０巷２５４號","OBJECTID":331957},"geometry":{"x":165041.95000000019,"y":2550250.1200000029}},{"attributes":{"ID":331967,"DIS_CODE":0,"TOWNNAME":"北區","LI":"公園里","LIN":"18鄰","STREET":"成功路","SECT":" ","MAREA":" ","LANE":"４０巷","ALLEY":" ","HOUSE_NO":"２９號","E_COORD97":168868.92999999999,"N_COORD97":2544431.46,"ADDRESS":"成功路４０巷２９號","OBJECTID":331958},"geometry":{"x":168868.9299999997,"y":2544431.4600000009}},{"attributes":{"ID":331968,"DIS_CODE":0,"TOWNNAME":"北區","LI":"公園里","LIN":"18鄰","STREET":"成功路","SECT":" ","MAREA":" ","LANE":"４０巷","ALLEY":" ","HOUSE_NO":"３１號","E_COORD97":168860.16,"N_COORD97":2544435.1600000001,"ADDRESS":"成功路４０巷３１號","OBJECTID":331959},"geometry":{"x":168860.16000000108,"y":2544435.160000002}},{"attributes":{"ID":331969,"DIS_CODE":0,"TOWNNAME":"北區","LI":"公園里","LIN":"18鄰","STREET":"成功路","SECT":" ","MAREA":" ","LANE":"４０巷","ALLEY":" ","HOUSE_NO":"３３號","E_COORD97":168858.14000000001,"N_COORD97":2544429.77,"ADDRESS":"成功路４０巷３３號","OBJECTID":331960},"geometry":{"x":168858.1400000006,"y":2544429.7700000014}},{"attributes":{"ID":331970,"DIS_CODE":0,"TOWNNAME":"南區","LI":"彰南里","LIN":"18鄰","STREET":"新和一路","SECT":" ","MAREA":" ","LANE":"３巷","ALLEY":" ","HOUSE_NO":"８號之１","E_COORD97":166162.44077700001,"N_COORD97":2540671.43774,"ADDRESS":"新和一路３巷８號之１","OBJECTID":331961},"geometry":{"x":166162.44077700004,"y":2540671.4377390016}},{"attributes":{"ID":331971,"DIS_CODE":0,"TOWNNAME":"新營區","LI":"興安里","LIN":"6鄰","STREET":"工業街","SECT":" ","MAREA":" ","LANE":" ","ALLEY":" ","HOUSE_NO":"７１號之２","E_COORD97":180723.44,"N_COORD97":2577907.1200000001,"ADDRESS":"工業街７１號之２","OBJECTID":331962},"geometry":{"x":180723.44000000134,"y":2577907.120000001}},{"attributes":{"ID":331972,"DIS_CODE":0,"TOWNNAME":"安平區","LI":"漁光里","LIN":"7鄰","STREET":"漁光路","SECT":" ","MAREA":" ","LANE":" ","ALLEY":" ","HOUSE_NO":"１２４號之５","E_COORD97":163396.20999999999,"N_COORD97":2542578.46,"ADDRESS":"漁光路１２４號之５","OBJECTID":331963},"geometry":{"x":163396.21000000089,"y":2542578.4600000028}},{"attributes":{"ID":331973,"DIS_CODE":0,"TOWNNAME":"南區","LI":"彰南里","LIN":"15鄰","STREET":"新信路","SECT":" ","MAREA":" ","LANE":" ","ALLEY":" ","HOUSE_NO":"十一號之１","E_COORD97":165891.753203,"N_COORD97":2541429.2145400001,"ADDRESS":"新信路十一號之１","OBJECTID":331964},"geometry":{"x":165891.75320299994,"y":2541429.2145370003}},{"attributes":{"ID":331974,"DIS_CODE":0,"TOWNNAME":"北區","LI":"公園里","LIN":"18鄰","STREET":"成功路","SECT":" ","MAREA":" ","LANE":"４０巷","ALLEY":" ","HOUSE_NO":"７號","E_COORD97":168835.63,"N_COORD97":2544374.8700000001,"ADDRESS":"成功路４０巷７號","OBJECTID":331965},"geometry":{"x":168835.62999999989,"y":2544374.870000001}},{"attributes":{"ID":331975,"DIS_CODE":0,"TOWNNAME":"北區","LI":"公園里","LIN":"18鄰","STREET":"成功路","SECT":" ","MAREA":" ","LANE":"４０巷","ALLEY":" ","HOUSE_NO":"９號","E_COORD97":168845.28,"N_COORD97":2544370.46,"ADDRESS":"成功路４０巷９號","OBJECTID":331966},"geometry":{"x":168845.28000000026,"y":2544370.4600000009}},{"attributes":{"ID":331976,"DIS_CODE":0,"TOWNNAME":"北區","LI":"公園里","LIN":"18鄰","STREET":"成功路","SECT":" ","MAREA":" ","LANE":"４０巷","ALLEY":" ","HOUSE_NO":"１４號","E_COORD97":168865.07999999999,"N_COORD97":2544404.5800000001,"ADDRESS":"成功路４０巷１４號","OBJECTID":331967},"geometry":{"x":168865.08000000007,"y":2544404.5800000019}},{"attributes":{"ID":331977,"DIS_CODE":0,"TOWNNAME":"北區","LI":"公園里","LIN":"18鄰","STREET":"成功路","SECT":" ","MAREA":" ","LANE":"４０巷","ALLEY":" ","HOUSE_NO":"１６號","E_COORD97":168868.35000000001,"N_COORD97":2544411.1499999999,"ADDRESS":"成功路４０巷１６號","OBJECTID":331968},"geometry":{"x":168868.35000000149,"y":2544411.1500000022}},{"attributes":{"ID":331978,"DIS_CODE":0,"TOWNNAME":"關廟區","LI":"山西里","LIN":"7鄰","STREET":"中山路","SECT":"二段","MAREA":" ","LANE":"２６２巷","ALLEY":" ","HOUSE_NO":"２０之２號","E_COORD97":179750.488342,"N_COORD97":2540729.2222500001,"ADDRESS":"中山路二段２６２巷２０之２號","OBJECTID":331969},"geometry":{"x":179750.48834199924,"y":2540729.2222459987}},{"attributes":{"ID":331979,"DIS_CODE":0,"TOWNNAME":"大內區","LI":"環湖里","LIN":"2鄰","STREET":" ","SECT":" ","MAREA":"環湖","LANE":" ","ALLEY":" ","HOUSE_NO":"１２號","E_COORD97":190679.93803399999,"N_COORD97":2560032.1505200001,"ADDRESS":"環湖１２號","OBJECTID":331970},"geometry":{"x":190679.93803400081,"y":2560032.1505239978}},{"attributes":{"ID":331980,"DIS_CODE":0,"TOWNNAME":"大內區","LI":"環湖里","LIN":"2鄰","STREET":" ","SECT":" ","MAREA":"環湖","LANE":" ","ALLEY":" ","HOUSE_NO":"１９號","E_COORD97":190682.480621,"N_COORD97":2560065.3821700001,"ADDRESS":"環湖１９號","OBJECTID":331971},"geometry":{"x":190682.48062099982,"y":2560065.3821719997}},{"attributes":{"ID":331981,"DIS_CODE":0,"TOWNNAME":"永康區","LI":"正強里","LIN":"20鄰","STREET":"中山南路","SECT":" ","MAREA":" ","LANE":"４７１巷","ALLEY":" ","HOUSE_NO":"２３號","E_COORD97":173140.42000000001,"N_COORD97":2547165.3199999998,"ADDRESS":"中山南路４７１巷２３號","OBJECTID":331972},"geometry":{"x":173140.42000000086,"y":2547165.320000004}},{"attributes":{"ID":331982,"DIS_CODE":0,"TOWNNAME":"北區","LI":"公園里","LIN":"18鄰","STREET":"成功路","SECT":" ","MAREA":" ","LANE":"４０巷","ALLEY":" ","HOUSE_NO":"１８號","E_COORD97":168869.94,"N_COORD97":2544416.23,"ADDRESS":"成功路４０巷１８號","OBJECTID":331973},"geometry":{"x":168869.94000000041,"y":2544416.2299999986}},{"attributes":{"ID":331983,"DIS_CODE":0,"TOWNNAME":"北區","LI":"公園里","LIN":"18鄰","STREET":"成功路","SECT":" ","MAREA":" ","LANE":"４０巷","ALLEY":" ","HOUSE_NO":"２０號","E_COORD97":168871.54000000001,"N_COORD97":2544421.3799999999,"ADDRESS":"成功路４０巷２０號","OBJECTID":331974},"geometry":{"x":168871.54000000097,"y":2544421.3800000008}},{"attributes":{"ID":331984,"DIS_CODE":0,"TOWNNAME":"北區","LI":"公園里","LIN":"18鄰","STREET":"成功路","SECT":" ","MAREA":" ","LANE":"４０巷","ALLEY":" ","HOUSE_NO":"３０號","E_COORD97":168882.60999999999,"N_COORD97":2544453.2200000002,"ADDRESS":"成功路４０巷３０號","OBJECTID":331975},"geometry":{"x":168882.6100000022,"y":2544453.2200000007}},{"attributes":{"ID":331985,"DIS_CODE":0,"TOWNNAME":"北區","LI":"公園里","LIN":"17鄰","STREET":"成功路","SECT":" ","MAREA":" ","LANE":"４０巷","ALLEY":" ","HOUSE_NO":"１０號","E_COORD97":168840.07999999999,"N_COORD97":2544334.8799999999,"ADDRESS":"成功路４０巷１０號","OBJECTID":331976},"geometry":{"x":168840.08000000194,"y":2544334.879999999}},{"attributes":{"ID":331986,"DIS_CODE":0,"TOWNNAME":"北區","LI":"公園里","LIN":"16鄰","STREET":"成功路","SECT":" ","MAREA":" ","LANE":"２２巷","ALLEY":" ","HOUSE_NO":"１２號","E_COORD97":168901.26999999999,"N_COORD97":2544301.0600000001,"ADDRESS":"成功路２２巷１２號","OBJECTID":331977},"geometry":{"x":168901.27000000048,"y":2544301.0600000005}},{"attributes":{"ID":331987,"DIS_CODE":0,"TOWNNAME":"善化區","LI":"光文里","LIN":"15鄰","STREET":"樹人路","SECT":" ","MAREA":" ","LANE":"７巷","ALLEY":" ","HOUSE_NO":"７號","E_COORD97":178351.04999999999,"N_COORD97":2558898.25,"ADDRESS":"樹人路７巷７號","OBJECTID":331978},"geometry":{"x":178351.04999999981,"y":2558898.25}},{"attributes":{"ID":331988,"DIS_CODE":0,"TOWNNAME":"仁德區","LI":"仁義里","LIN":"17鄰","STREET":"義林二街","SECT":" ","MAREA":" ","LANE":" ","ALLEY":" ","HOUSE_NO":"１２５號","E_COORD97":174130.42000000001,"N_COORD97":2541294.7599999998,"ADDRESS":"義林二街１２５號","OBJECTID":331979},"geometry":{"x":174130.42000000086,"y":2541294.7599999998}},{"attributes":{"ID":331989,"DIS_CODE":0,"TOWNNAME":"仁德區","LI":"仁義里","LIN":"17鄰","STREET":"義林十街","SECT":" ","MAREA":" ","LANE":" ","ALLEY":" ","HOUSE_NO":"３３號","E_COORD97":174207.17000000001,"N_COORD97":2541390.2599999998,"ADDRESS":"義林十街３３號","OBJECTID":331980},"geometry":{"x":174207.16999999993,"y":2541390.2599999998}},{"attributes":{"ID":331990,"DIS_CODE":0,"TOWNNAME":"仁德區","LI":"仁義里","LIN":"17鄰","STREET":"義林八街","SECT":" ","MAREA":" ","LANE":" ","ALLEY":" ","HOUSE_NO":"１３９號","E_COORD97":174153.42000000001,"N_COORD97":2541281.2599999998,"ADDRESS":"義林八街１３９號","OBJECTID":331981},"geometry":{"x":174153.41999999993,"y":2541281.2599999998}},{"attributes":{"ID":331991,"DIS_CODE":0,"TOWNNAME":"仁德區","LI":"仁義里","LIN":"17鄰","STREET":"義林十街","SECT":" ","MAREA":" ","LANE":" ","ALLEY":" ","HOUSE_NO":"１０號","E_COORD97":174276.26000000001,"N_COORD97":2541409.2599999998,"ADDRESS":"義林十街１０號","OBJECTID":331982},"geometry":{"x":174276.25999999978,"y":2541409.2600000016}},{"attributes":{"ID":331992,"DIS_CODE":0,"TOWNNAME":"仁德區","LI":"仁義里","LIN":"17鄰","STREET":"義林八街","SECT":" ","MAREA":" ","LANE":" ","ALLEY":" ","HOUSE_NO":"１０號","E_COORD97":174293.04000000001,"N_COORD97":2541288.2599999998,"ADDRESS":"義林八街１０號","OBJECTID":331983},"geometry":{"x":174293.04000000004,"y":2541288.2599999998}},{"attributes":{"ID":331993,"DIS_CODE":0,"TOWNNAME":"仁德區","LI":"仁義里","LIN":"17鄰","STREET":"義林二街","SECT":" ","MAREA":" ","LANE":" ","ALLEY":" ","HOUSE_NO":"１２１號","E_COORD97":174119.98000000001,"N_COORD97":2541295.7599999998,"ADDRESS":"義林二街１２１號","OBJECTID":331984},"geometry":{"x":174119.98000000231,"y":2541295.7599999998}},{"attributes":{"ID":331994,"DIS_CODE":0,"TOWNNAME":"仁德區","LI":"仁義里","LIN":"17鄰","STREET":"義林十一街","SECT":" ","MAREA":" ","LANE":" ","ALLEY":" ","HOUSE_NO":"６８號","E_COORD97":174333.17999999999,"N_COORD97":2541448.77,"ADDRESS":"義林十一街６８號","OBJECTID":331985},"geometry":{"x":174333.18000000156,"y":2541448.7700000033}},{"attributes":{"ID":331995,"DIS_CODE":0,"TOWNNAME":"仁德區","LI":"仁義里","LIN":"17鄰","STREET":"義林二街","SECT":" ","MAREA":" ","LANE":" ","ALLEY":" ","HOUSE_NO":"１５０號","E_COORD97":174166.10000000001,"N_COORD97":2541375.52,"ADDRESS":"義林二街１５０號","OBJECTID":331986},"geometry":{"x":174166.10000000056,"y":2541375.5199999977}},{"attributes":{"ID":331996,"DIS_CODE":0,"TOWNNAME":"仁德區","LI":"仁義里","LIN":"17鄰","STREET":"義林十街","SECT":" ","MAREA":" ","LANE":" ","ALLEY":" ","HOUSE_NO":"６號","E_COORD97":174283.19,"N_COORD97":2541408.2599999998,"ADDRESS":"義林十街６號","OBJECTID":331987},"geometry":{"x":174283.19000000134,"y":2541408.2600000035}},{"attributes":{"ID":331997,"DIS_CODE":0,"TOWNNAME":"新營區","LI":"太北里","LIN":"16鄰","STREET":" ","SECT":" ","MAREA":"太子宮","LANE":" ","ALLEY":" ","HOUSE_NO":"１４６之１號","E_COORD97":175843.71309400001,"N_COORD97":2576927.4702499998,"ADDRESS":"太子宮１４６之１號","OBJECTID":331988},"geometry":{"x":175843.7130940007,"y":2576927.4702500012}},{"attributes":{"ID":331998,"DIS_CODE":0,"TOWNNAME":"新營區","LI":"太北里","LIN":"16鄰","STREET":" ","SECT":" ","MAREA":"太子宮","LANE":" ","ALLEY":" ","HOUSE_NO":"１４６之１２號","E_COORD97":175827.60691999999,"N_COORD97":2576951.8119000001,"ADDRESS":"太子宮１４６之１２號","OBJECTID":331989},"geometry":{"x":175827.60692000017,"y":2576951.8119039983}},{"attributes":{"ID":331999,"DIS_CODE":0,"TOWNNAME":"大內區","LI":"石城里","LIN":"16鄰","STREET":" ","SECT":" ","MAREA":"石子瀨","LANE":" ","ALLEY":" ","HOUSE_NO":"１２２之３１號","E_COORD97":184039.18585400001,"N_COORD97":2557674.6666899999,"ADDRESS":"石子瀨１２２之３１號","OBJECTID":331990},"geometry":{"x":184039.1858540019,"y":2557674.6666870005}},{"attributes":{"ID":332000,"DIS_CODE":0,"TOWNNAME":"大內區","LI":"石城里","LIN":"16鄰","STREET":" ","SECT":" ","MAREA":"石子瀨","LANE":" ","ALLEY":" ","HOUSE_NO":"１２２號之４５","E_COORD97":183970.12381700001,"N_COORD97":2557610.7963,"ADDRESS":"石子瀨１２２號之４５","OBJECTID":331991},"geometry":{"x":183970.12381700054,"y":2557610.7963050026}},{"attributes":{"ID":332001,"DIS_CODE":0,"TOWNNAME":"東山區","LI":"科里里","LIN":"2鄰","STREET":" ","SECT":" ","MAREA":"下庄子","LANE":" ","ALLEY":" ","HOUSE_NO":"１８號之１","E_COORD97":189537.51915000001,"N_COORD97":2578426.4991199998,"ADDRESS":"下庄子１８號之１","OBJECTID":331992},"geometry":{"x":189537.51915000193,"y":2578426.4991200007}},{"attributes":{"ID":332002,"DIS_CODE":0,"TOWNNAME":"大內區","LI":"石城里","LIN":"16鄰","STREET":" ","SECT":" ","MAREA":"石子瀨","LANE":" ","ALLEY":" ","HOUSE_NO":"１２２號之４６","E_COORD97":183908.90010999999,"N_COORD97":2557575.2892399998,"ADDRESS":"石子瀨１２２號之４６","OBJECTID":331993},"geometry":{"x":183908.90011000074,"y":2557575.2892410029}},{"attributes":{"ID":332003,"DIS_CODE":0,"TOWNNAME":"歸仁區","LI":"崙頂里","LIN":"21鄰","STREET":"大成路","SECT":" ","MAREA":" ","LANE":"２０６巷","ALLEY":" ","HOUSE_NO":"４０號","E_COORD97":177673.39649300001,"N_COORD97":2540069.5663000001,"ADDRESS":"大成路２０６巷４０號","OBJECTID":331994},"geometry":{"x":177673.39649300184,"y":2540069.5663000029}},{"attributes":{"ID":332004,"DIS_CODE":0,"TOWNNAME":"歸仁區","LI":"崙頂里","LIN":"21鄰","STREET":"大成路","SECT":" ","MAREA":" ","LANE":"２０６巷","ALLEY":" ","HOUSE_NO":"４６號","E_COORD97":177666.19100300001,"N_COORD97":2540064.4863,"ADDRESS":"大成路２０６巷４６號","OBJECTID":331995},"geometry":{"x":177666.1910030013,"y":2540064.4863030035}},{"attributes":{"ID":332005,"DIS_CODE":0,"TOWNNAME":"歸仁區","LI":"崙頂里","LIN":"21鄰","STREET":"大成路","SECT":" ","MAREA":" ","LANE":"２０６巷","ALLEY":" ","HOUSE_NO":"４８號","E_COORD97":177662.80018399999,"N_COORD97":2540061.5229699998,"ADDRESS":"大成路２０６巷４８號","OBJECTID":331996},"geometry":{"x":177662.80018399935,"y":2540061.5229710005}},{"attributes":{"ID":332006,"DIS_CODE":0,"TOWNNAME":"歸仁區","LI":"八甲里","LIN":"10鄰","STREET":"中正北路","SECT":"一段","MAREA":" ","LANE":"５２５巷","ALLEY":" ","HOUSE_NO":"１０１號","E_COORD97":177197.02825100001,"N_COORD97":2542058.8112300001,"ADDRESS":"中正北路一段５２５巷１０１號","OBJECTID":331997},"geometry":{"x":177197.02825100068,"y":2542058.8112280015}},{"attributes":{"ID":332007,"DIS_CODE":0,"TOWNNAME":"歸仁區","LI":"崙頂里","LIN":"21鄰","STREET":"大成路","SECT":" ","MAREA":" ","LANE":"２０６","ALLEY":" ","HOUSE_NO":"５０號","E_COORD97":177658.98551,"N_COORD97":2540058.9829699998,"ADDRESS":"大成路２０６５０號","OBJECTID":331998},"geometry":{"x":177658.98551000189,"y":2540058.982970003}},{"attributes":{"ID":332008,"DIS_CODE":0,"TOWNNAME":"歸仁區","LI":"崙頂里","LIN":"21鄰","STREET":"大成路","SECT":" ","MAREA":" ","LANE":"１８２巷","ALLEY":" ","HOUSE_NO":"７３號","E_COORD97":177661.10477500001,"N_COORD97":2540096.5537899998,"ADDRESS":"大成路１８２巷７３號","OBJECTID":331999},"geometry":{"x":177661.10477500036,"y":2540096.5537860002}},{"attributes":{"ID":332009,"DIS_CODE":0,"TOWNNAME":"歸仁區","LI":"武東里","LIN":"1鄰","STREET":"中正南路","SECT":"二段","MAREA":" ","LANE":"２５３巷","ALLEY":" ","HOUSE_NO":"４６號","E_COORD97":175462.86032800001,"N_COORD97":2535194.5322799999,"ADDRESS":"中正南路二段２５３巷４６號","OBJECTID":332000},"geometry":{"x":175462.86032800097,"y":2535194.5322830006}}]}