{"displayFieldName":"TOWNNAME","fieldAliases":{"ID":"ID","DIS_CODE":"DIS_CODE","TOWNNAME":"TOWNNAME","LI":"LI","LIN":"LIN","STREET":"STREET","SECT":"SECT","MAREA":"MAREA","LANE":"LANE","ALLEY":"ALLEY","HOUSE_NO":"HOUSE_NO","E_COORD97":"E_COORD97","N_COORD97":"N_COORD97","ADDRESS":"ADDRESS","OBJECTID":"OBJECTID"},"geometryType":"esriGeometryPoint","spatialReference":{"wkid":102443,"latestWkid":3826},"fields":[{"name":"ID","type":"esriFieldTypeDouble","alias":"ID"},{"name":"DIS_CODE","type":"esriFieldTypeInteger","alias":"DIS_CODE"},{"name":"TOWNNAME","type":"esriFieldTypeString","alias":"TOWNNAME","length":8},{"name":"LI","type":"esriFieldTypeString","alias":"LI","length":8},{"name":"LIN","type":"esriFieldTypeString","alias":"LIN","length":12},{"name":"STREET","type":"esriFieldTypeString","alias":"STREET","length":20},{"name":"SECT","type":"esriFieldTypeString","alias":"SECT","length":8},{"name":"MAREA","type":"esriFieldTypeString","alias":"MAREA","length":12},{"name":"LANE","type":"esriFieldTypeString","alias":"LANE","length":10},{"name":"ALLEY","type":"esriFieldTypeString","alias":"ALLEY","length":10},{"name":"HOUSE_NO","type":"esriFieldTypeString","alias":"HOUSE_NO","length":20},{"name":"E_COORD97","type":"esriFieldTypeDouble","alias":"E_COORD97"},{"name":"N_COORD97","type":"esriFieldTypeDouble","alias":"N_COORD97"},{"name":"ADDRESS","type":"esriFieldTypeString","alias":"ADDRESS","length":50},{"name":"OBJECTID","type":"esriFieldTypeOID","alias":"OBJECTID"}],"features":[{"attributes":{"ID":34601,"DIS_CODE":0,"TOWNNAME":"北區","LI":"正風里","LIN":"8鄰","STREET":"公園路","SECT":" ","MAREA":" ","LANE":"９９４巷","ALLEY":"５弄","HOUSE_NO":"９號","E_COORD97":169590.45999999999,"N_COORD97":2546390.7799999998,"ADDRESS":"公園路９９４巷５弄９號","OBJECTID":34601},"geometry":{"x":169590.46000000089,"y":2546390.7799999993}},{"attributes":{"ID":34602,"DIS_CODE":0,"TOWNNAME":"新營區","LI":"新東里","LIN":"4鄰","STREET":"東大街","SECT":" ","MAREA":" ","LANE":"５２巷","ALLEY":"２弄","HOUSE_NO":"１７號","E_COORD97":181099.87,"N_COORD97":2579112.4199999999,"ADDRESS":"東大街５２巷２弄１７號","OBJECTID":34602},"geometry":{"x":181099.87000000104,"y":2579112.4200000018}},{"attributes":{"ID":34603,"DIS_CODE":0,"TOWNNAME":"新營區","LI":"新東里","LIN":"20鄰","STREET":"東興八街","SECT":" ","MAREA":" ","LANE":"４８巷","ALLEY":"２弄","HOUSE_NO":"８號","E_COORD97":180859.91,"N_COORD97":2579452.4199999999,"ADDRESS":"東興八街４８巷２弄８號","OBJECTID":34603},"geometry":{"x":180859.91000000015,"y":2579452.4200000018}},{"attributes":{"ID":34604,"DIS_CODE":0,"TOWNNAME":"新營區","LI":"忠政里","LIN":"30鄰","STREET":"府西路","SECT":" ","MAREA":" ","LANE":"３３巷","ALLEY":"２７弄","HOUSE_NO":"１號","E_COORD97":179739.56,"N_COORD97":2578951.5899999999,"ADDRESS":"府西路３３巷２７弄１號","OBJECTID":34604},"geometry":{"x":179739.55999999959,"y":2578951.5900000017}},{"attributes":{"ID":34605,"DIS_CODE":0,"TOWNNAME":"新營區","LI":"新東里","LIN":"4鄰","STREET":"東大街","SECT":" ","MAREA":" ","LANE":"５２巷","ALLEY":"２弄","HOUSE_NO":"２５號","E_COORD97":181118.38,"N_COORD97":2579118.98,"ADDRESS":"東大街５２巷２弄２５號","OBJECTID":34605},"geometry":{"x":181118.38000000082,"y":2579118.9800000023}},{"attributes":{"ID":34606,"DIS_CODE":0,"TOWNNAME":"新營區","LI":"新東里","LIN":"20鄰","STREET":"東興八街","SECT":" ","MAREA":" ","LANE":"４８巷","ALLEY":"２弄","HOUSE_NO":"１０號","E_COORD97":180855.98000000001,"N_COORD97":2579451.3399999999,"ADDRESS":"東興八街４８巷２弄１０號","OBJECTID":34606},"geometry":{"x":180855.98000000045,"y":2579451.3400000036}},{"attributes":{"ID":34607,"DIS_CODE":0,"TOWNNAME":"歸仁區","LI":"大潭里","LIN":"8鄰","STREET":"長榮路","SECT":"一段","MAREA":" ","LANE":"２３８巷","ALLEY":"３弄","HOUSE_NO":"１７號","E_COORD97":175144.72,"N_COORD97":2534495.9700000002,"ADDRESS":"長榮路一段２３８巷３弄１７號","OBJECTID":34607},"geometry":{"x":175144.71999999974,"y":2534495.9700000025}},{"attributes":{"ID":34608,"DIS_CODE":0,"TOWNNAME":"歸仁區","LI":"大潭里","LIN":"8鄰","STREET":"長榮路","SECT":"一段","MAREA":" ","LANE":"２３８巷","ALLEY":"３弄","HOUSE_NO":"１號","E_COORD97":175116.97,"N_COORD97":2534523.9700000002,"ADDRESS":"長榮路一段２３８巷３弄１號","OBJECTID":34608},"geometry":{"x":175116.96999999974,"y":2534523.9700000007}},{"attributes":{"ID":34609,"DIS_CODE":0,"TOWNNAME":"歸仁區","LI":"大潭里","LIN":"8鄰","STREET":"長榮路","SECT":"一段","MAREA":" ","LANE":"２３８巷","ALLEY":"３弄","HOUSE_NO":"６號","E_COORD97":175107.67000000001,"N_COORD97":2534513.9700000002,"ADDRESS":"長榮路一段２３８巷３弄６號","OBJECTID":34609},"geometry":{"x":175107.66999999993,"y":2534513.9700000007}},{"attributes":{"ID":34610,"DIS_CODE":0,"TOWNNAME":"歸仁區","LI":"大潭里","LIN":"8鄰","STREET":"長榮路","SECT":"一段","MAREA":" ","LANE":"２３８巷","ALLEY":"３弄","HOUSE_NO":"１０號","E_COORD97":175112.01999999999,"N_COORD97":2534509.9700000002,"ADDRESS":"長榮路一段２３８巷３弄１０號","OBJECTID":34610},"geometry":{"x":175112.01999999862,"y":2534509.9700000025}},{"attributes":{"ID":34611,"DIS_CODE":0,"TOWNNAME":"歸仁區","LI":"大潭里","LIN":"8鄰","STREET":"長榮路","SECT":"一段","MAREA":" ","LANE":"２３８巷","ALLEY":"３弄","HOUSE_NO":"１５號","E_COORD97":175128.42000000001,"N_COORD97":2534506.9700000002,"ADDRESS":"長榮路一段２３８巷３弄１５號","OBJECTID":34611},"geometry":{"x":175128.42000000179,"y":2534506.9700000007}},{"attributes":{"ID":34612,"DIS_CODE":0,"TOWNNAME":"北區","LI":"興南里","LIN":"8鄰","STREET":"公園北路","SECT":" ","MAREA":" ","LANE":"１１６巷","ALLEY":"１弄","HOUSE_NO":"２２號","E_COORD97":168925.70999999999,"N_COORD97":2545084.4100000001,"ADDRESS":"公園北路１１６巷１弄２２號","OBJECTID":34612},"geometry":{"x":168925.71000000089,"y":2545084.410000002}},{"attributes":{"ID":34613,"DIS_CODE":0,"TOWNNAME":"北區","LI":"興南里","LIN":"8鄰","STREET":"公園北路","SECT":" ","MAREA":" ","LANE":"１１６巷","ALLEY":"１弄","HOUSE_NO":"２號","E_COORD97":168957.23000000001,"N_COORD97":2545073.29,"ADDRESS":"公園北路１１６巷１弄２號","OBJECTID":34613},"geometry":{"x":168957.23000000138,"y":2545073.290000001}},{"attributes":{"ID":34614,"DIS_CODE":0,"TOWNNAME":"北區","LI":"興南里","LIN":"8鄰","STREET":"公園北路","SECT":" ","MAREA":" ","LANE":"１１６巷","ALLEY":"１弄","HOUSE_NO":"４號","E_COORD97":168948.64999999999,"N_COORD97":2545076.3900000001,"ADDRESS":"公園北路１１６巷１弄４號","OBJECTID":34614},"geometry":{"x":168948.6500000013,"y":2545076.3899999987}},{"attributes":{"ID":34615,"DIS_CODE":0,"TOWNNAME":"北區","LI":"興南里","LIN":"8鄰","STREET":"公園北路","SECT":" ","MAREA":" ","LANE":"１１６巷","ALLEY":"１弄","HOUSE_NO":"６號","E_COORD97":168942.45999999999,"N_COORD97":2545074.79,"ADDRESS":"公園北路１１６巷１弄６號","OBJECTID":34615},"geometry":{"x":168942.46000000183,"y":2545074.7899999991}},{"attributes":{"ID":34616,"DIS_CODE":0,"TOWNNAME":"北區","LI":"興南里","LIN":"8鄰","STREET":"公園北路","SECT":" ","MAREA":" ","LANE":"１１６巷","ALLEY":"１弄","HOUSE_NO":"８號","E_COORD97":168936.04000000001,"N_COORD97":2545080.98,"ADDRESS":"公園北路１１６巷１弄８號","OBJECTID":34616},"geometry":{"x":168936.04000000097,"y":2545080.9800000004}},{"attributes":{"ID":34617,"DIS_CODE":0,"TOWNNAME":"北區","LI":"興南里","LIN":"8鄰","STREET":"公園北路","SECT":" ","MAREA":" ","LANE":"１１６巷","ALLEY":"５弄","HOUSE_NO":"１號","E_COORD97":168958.29000000001,"N_COORD97":2545084.4100000001,"ADDRESS":"公園北路１１６巷５弄１號","OBJECTID":34617},"geometry":{"x":168958.29000000004,"y":2545084.410000002}},{"attributes":{"ID":34618,"DIS_CODE":0,"TOWNNAME":"北區","LI":"興南里","LIN":"8鄰","STREET":"公園北路","SECT":" ","MAREA":" ","LANE":"１１６巷","ALLEY":"５弄","HOUSE_NO":"２號","E_COORD97":168944.14000000001,"N_COORD97":2545097.9300000002,"ADDRESS":"公園北路１１６巷５弄２號","OBJECTID":34618},"geometry":{"x":168944.13999999966,"y":2545097.9299999997}},{"attributes":{"ID":34619,"DIS_CODE":0,"TOWNNAME":"北區","LI":"興南里","LIN":"8鄰","STREET":"公園北路","SECT":" ","MAREA":" ","LANE":"１１６巷","ALLEY":"５弄","HOUSE_NO":"３號","E_COORD97":168949.79999999999,"N_COORD97":2545085.79,"ADDRESS":"公園北路１１６巷５弄３號","OBJECTID":34619},"geometry":{"x":168949.79999999981,"y":2545085.7900000028}},{"attributes":{"ID":34620,"DIS_CODE":0,"TOWNNAME":"北區","LI":"興南里","LIN":"8鄰","STREET":"公園北路","SECT":" ","MAREA":" ","LANE":"１１６巷","ALLEY":"５弄","HOUSE_NO":"６號","E_COORD97":168938.39999999999,"N_COORD97":2545099.77,"ADDRESS":"公園北路１１６巷５弄６號","OBJECTID":34620},"geometry":{"x":168938.4000000013,"y":2545099.7699999996}},{"attributes":{"ID":34621,"DIS_CODE":0,"TOWNNAME":"歸仁區","LI":"辜厝里","LIN":"4鄰","STREET":"民族南街","SECT":" ","MAREA":" ","LANE":"１８巷","ALLEY":"２７弄","HOUSE_NO":"１３號","E_COORD97":177392.904125,"N_COORD97":2540657.145,"ADDRESS":"民族南街１８巷２７弄１３號","OBJECTID":34621},"geometry":{"x":177392.90412500221,"y":2540657.1449999996}},{"attributes":{"ID":34622,"DIS_CODE":0,"TOWNNAME":"北區","LI":"興南里","LIN":"8鄰","STREET":"公園北路","SECT":" ","MAREA":" ","LANE":"１１６巷","ALLEY":"９弄","HOUSE_NO":"１０號","E_COORD97":168924.79999999999,"N_COORD97":2545131.0499999998,"ADDRESS":"公園北路１１６巷９弄１０號","OBJECTID":34622},"geometry":{"x":168924.80000000168,"y":2545131.0500000026}},{"attributes":{"ID":34623,"DIS_CODE":0,"TOWNNAME":"北區","LI":"興南里","LIN":"8鄰","STREET":"公園北路","SECT":" ","MAREA":" ","LANE":"１１６巷","ALLEY":"９弄","HOUSE_NO":"１２號","E_COORD97":168917,"N_COORD97":2545132.8799999999,"ADDRESS":"公園北路１１６巷９弄１２號","OBJECTID":34623},"geometry":{"x":168917.00000000093,"y":2545132.8800000027}},{"attributes":{"ID":34624,"DIS_CODE":0,"TOWNNAME":"北區","LI":"興南里","LIN":"8鄰","STREET":"公園北路","SECT":" ","MAREA":" ","LANE":"１１６巷","ALLEY":"９弄","HOUSE_NO":"１號","E_COORD97":168936.57000000001,"N_COORD97":2545108.71,"ADDRESS":"公園北路１１６巷９弄１號","OBJECTID":34624},"geometry":{"x":168936.5700000003,"y":2545108.7100000046}},{"attributes":{"ID":34625,"DIS_CODE":0,"TOWNNAME":"北門區","LI":"保吉里","LIN":"7鄰","STREET":" ","SECT":" ","MAREA":"蚵寮","LANE":" ","ALLEY":" ","HOUSE_NO":"２１９號","E_COORD97":161606.82999999999,"N_COORD97":2576110.6699999999,"ADDRESS":"蚵寮２１９號","OBJECTID":34625},"geometry":{"x":161606.83000000101,"y":2576110.6700000018}},{"attributes":{"ID":34626,"DIS_CODE":0,"TOWNNAME":"北區","LI":"興南里","LIN":"8鄰","STREET":"公園北路","SECT":" ","MAREA":" ","LANE":"１１６巷","ALLEY":"９弄","HOUSE_NO":"２號","E_COORD97":168947.73000000001,"N_COORD97":2545121.8799999999,"ADDRESS":"公園北路１１６巷９弄２號","OBJECTID":34626},"geometry":{"x":168947.73000000045,"y":2545121.879999999}},{"attributes":{"ID":34627,"DIS_CODE":0,"TOWNNAME":"北區","LI":"興南里","LIN":"8鄰","STREET":"公園北路","SECT":" ","MAREA":" ","LANE":"１１６巷","ALLEY":"９弄","HOUSE_NO":"４號","E_COORD97":168941.07999999999,"N_COORD97":2545123.4900000002,"ADDRESS":"公園北路１１６巷９弄４號","OBJECTID":34627},"geometry":{"x":168941.08000000007,"y":2545123.4900000021}},{"attributes":{"ID":34628,"DIS_CODE":0,"TOWNNAME":"安平區","LI":"西門里","LIN":"1鄰","STREET":"國勝路","SECT":" ","MAREA":" ","LANE":"３１巷","ALLEY":"２弄","HOUSE_NO":"７號","E_COORD97":163912.62,"N_COORD97":2544613.7200000002,"ADDRESS":"國勝路３１巷２弄７號","OBJECTID":34628},"geometry":{"x":163912.62000000104,"y":2544613.7200000025}},{"attributes":{"ID":34629,"DIS_CODE":0,"TOWNNAME":"北區","LI":"興南里","LIN":"8鄰","STREET":"公園北路","SECT":" ","MAREA":" ","LANE":"１１６巷","ALLEY":"９弄","HOUSE_NO":"６號","E_COORD97":168936.04000000001,"N_COORD97":2545124.1800000002,"ADDRESS":"公園北路１１６巷９弄６號","OBJECTID":34629},"geometry":{"x":168936.04000000097,"y":2545124.1799999997}},{"attributes":{"ID":34630,"DIS_CODE":0,"TOWNNAME":"北區","LI":"興南里","LIN":"8鄰","STREET":"公園北路","SECT":" ","MAREA":" ","LANE":"１１６巷","ALLEY":"９弄","HOUSE_NO":"８號","E_COORD97":168930.29999999999,"N_COORD97":2545127.6099999999,"ADDRESS":"公園北路１１６巷９弄８號","OBJECTID":34630},"geometry":{"x":168930.30000000075,"y":2545127.6099999994}},{"attributes":{"ID":34631,"DIS_CODE":0,"TOWNNAME":"新營區","LI":"民生里","LIN":"24鄰","STREET":"民生路","SECT":" ","MAREA":" ","LANE":"１３９巷","ALLEY":"７弄","HOUSE_NO":"１３號","E_COORD97":179197.85999999999,"N_COORD97":2578559.9199999999,"ADDRESS":"民生路１３９巷７弄１３號","OBJECTID":34631},"geometry":{"x":179197.8600000022,"y":2578559.9200000018}},{"attributes":{"ID":34632,"DIS_CODE":0,"TOWNNAME":"新營區","LI":"民榮里","LIN":"39鄰","STREET":"太子路","SECT":" ","MAREA":" ","LANE":"５３巷","ALLEY":"７弄","HOUSE_NO":"１１號","E_COORD97":178336.51999999999,"N_COORD97":2577907.3399999999,"ADDRESS":"太子路５３巷７弄１１號","OBJECTID":34632},"geometry":{"x":178336.52000000048,"y":2577907.3399999999}},{"attributes":{"ID":34633,"DIS_CODE":0,"TOWNNAME":"北門區","LI":"保吉里","LIN":"7鄰","STREET":" ","SECT":" ","MAREA":"蚵寮","LANE":" ","ALLEY":" ","HOUSE_NO":"２０３號","E_COORD97":161639.82999999999,"N_COORD97":2576121.5299999998,"ADDRESS":"蚵寮２０３號","OBJECTID":34633},"geometry":{"x":161639.83000000007,"y":2576121.5300000012}},{"attributes":{"ID":34634,"DIS_CODE":0,"TOWNNAME":"北門區","LI":"保吉里","LIN":"7鄰","STREET":" ","SECT":" ","MAREA":"蚵寮","LANE":" ","ALLEY":" ","HOUSE_NO":"２０４號","E_COORD97":161644.95999999999,"N_COORD97":2576111.29,"ADDRESS":"蚵寮２０４號","OBJECTID":34634},"geometry":{"x":161644.96000000089,"y":2576111.2900000028}},{"attributes":{"ID":34635,"DIS_CODE":0,"TOWNNAME":"北區","LI":"國興里","LIN":"8鄰","STREET":"南園街","SECT":" ","MAREA":" ","LANE":"１０１巷","ALLEY":"２１弄","HOUSE_NO":"１０號","E_COORD97":170660.34,"N_COORD97":2545427.6000000001,"ADDRESS":"南園街１０１巷２１弄１０號","OBJECTID":34635},"geometry":{"x":170660.34000000171,"y":2545427.6000000015}},{"attributes":{"ID":34636,"DIS_CODE":0,"TOWNNAME":"北區","LI":"國興里","LIN":"8鄰","STREET":"南園街","SECT":" ","MAREA":" ","LANE":"１０１巷","ALLEY":"２１弄","HOUSE_NO":"１１號","E_COORD97":170640.95999999999,"N_COORD97":2545441.9900000002,"ADDRESS":"南園街１０１巷２１弄１１號","OBJECTID":34636},"geometry":{"x":170640.95999999903,"y":2545441.9900000039}},{"attributes":{"ID":34637,"DIS_CODE":0,"TOWNNAME":"北區","LI":"國興里","LIN":"8鄰","STREET":"南園街","SECT":" ","MAREA":" ","LANE":"１０１巷","ALLEY":"２１弄","HOUSE_NO":"１３號","E_COORD97":170644.64000000001,"N_COORD97":2545443.4199999999,"ADDRESS":"南園街１０１巷２１弄１３號","OBJECTID":34637},"geometry":{"x":170644.64000000153,"y":2545443.4200000018}},{"attributes":{"ID":34638,"DIS_CODE":0,"TOWNNAME":"北區","LI":"國興里","LIN":"8鄰","STREET":"南園街","SECT":" ","MAREA":" ","LANE":"１０１巷","ALLEY":"２１弄","HOUSE_NO":"１５號","E_COORD97":170649.53,"N_COORD97":2545444.4399999999,"ADDRESS":"南園街１０１巷２１弄１５號","OBJECTID":34638},"geometry":{"x":170649.53000000119,"y":2545444.4399999976}},{"attributes":{"ID":34639,"DIS_CODE":0,"TOWNNAME":"北區","LI":"國興里","LIN":"8鄰","STREET":"南園街","SECT":" ","MAREA":" ","LANE":"１０１巷","ALLEY":"２１弄","HOUSE_NO":"１７號","E_COORD97":170650.95999999999,"N_COORD97":2545449.1200000001,"ADDRESS":"南園街１０１巷２１弄１７號","OBJECTID":34639},"geometry":{"x":170650.95999999996,"y":2545449.1200000029}},{"attributes":{"ID":34640,"DIS_CODE":0,"TOWNNAME":"北區","LI":"國興里","LIN":"8鄰","STREET":"南園街","SECT":" ","MAREA":" ","LANE":"１０１巷","ALLEY":"２１弄","HOUSE_NO":"１９號","E_COORD97":170654.82999999999,"N_COORD97":2545452.1800000002,"ADDRESS":"南園街１０１巷２１弄１９號","OBJECTID":34640},"geometry":{"x":170654.83000000007,"y":2545452.1799999997}},{"attributes":{"ID":34641,"DIS_CODE":0,"TOWNNAME":"北區","LI":"國興里","LIN":"8鄰","STREET":"南園街","SECT":" ","MAREA":" ","LANE":"１０１巷","ALLEY":"２１弄","HOUSE_NO":"１號","E_COORD97":170626.67999999999,"N_COORD97":2545455.8500000001,"ADDRESS":"南園街１０１巷２１弄１號","OBJECTID":34641},"geometry":{"x":170626.6799999997,"y":2545455.8500000034}},{"attributes":{"ID":34642,"DIS_CODE":0,"TOWNNAME":"北區","LI":"國興里","LIN":"8鄰","STREET":"南園街","SECT":" ","MAREA":" ","LANE":"１０１巷","ALLEY":"２１弄","HOUSE_NO":"２１號","E_COORD97":170657.89000000001,"N_COORD97":2545453.8100000001,"ADDRESS":"南園街１０１巷２１弄２１號","OBJECTID":34642},"geometry":{"x":170657.88999999966,"y":2545453.8100000024}},{"attributes":{"ID":34643,"DIS_CODE":0,"TOWNNAME":"北區","LI":"國興里","LIN":"8鄰","STREET":"南園街","SECT":" ","MAREA":" ","LANE":"１０１巷","ALLEY":"２１弄","HOUSE_NO":"２３號","E_COORD97":170646.47,"N_COORD97":2545458.71,"ADDRESS":"南園街１０１巷２１弄２３號","OBJECTID":34643},"geometry":{"x":170646.47000000067,"y":2545458.7100000028}},{"attributes":{"ID":34644,"DIS_CODE":0,"TOWNNAME":"北區","LI":"國興里","LIN":"8鄰","STREET":"南園街","SECT":" ","MAREA":" ","LANE":"１０１巷","ALLEY":"２１弄","HOUSE_NO":"２５號","E_COORD97":170643.41,"N_COORD97":2545461.9700000002,"ADDRESS":"南園街１０１巷２１弄２５號","OBJECTID":34644},"geometry":{"x":170643.41000000201,"y":2545461.9700000007}},{"attributes":{"ID":34645,"DIS_CODE":0,"TOWNNAME":"北區","LI":"國興里","LIN":"8鄰","STREET":"南園街","SECT":" ","MAREA":" ","LANE":"１０１巷","ALLEY":"２１弄","HOUSE_NO":"２７號","E_COORD97":170640.76000000001,"N_COORD97":2545466.04,"ADDRESS":"南園街１０１巷２１弄２７號","OBJECTID":34645},"geometry":{"x":170640.76000000071,"y":2545466.0399999991}},{"attributes":{"ID":34646,"DIS_CODE":0,"TOWNNAME":"北區","LI":"國興里","LIN":"8鄰","STREET":"南園街","SECT":" ","MAREA":" ","LANE":"１０１巷","ALLEY":"２１弄","HOUSE_NO":"２９號","E_COORD97":170639.54000000001,"N_COORD97":2545469.5099999998,"ADDRESS":"南園街１０１巷２１弄２９號","OBJECTID":34646},"geometry":{"x":170639.54000000097,"y":2545469.5100000016}},{"attributes":{"ID":34647,"DIS_CODE":0,"TOWNNAME":"歸仁區","LI":"辜厝里","LIN":"14鄰","STREET":"中正南路","SECT":"一段","MAREA":" ","LANE":" ","ALLEY":" ","HOUSE_NO":"１２０號十一樓","E_COORD97":177506.20000000001,"N_COORD97":2540501.6899999999,"ADDRESS":"中正南路一段１２０號十一樓","OBJECTID":34647},"geometry":{"x":177506.20000000019,"y":2540501.6899999995}},{"attributes":{"ID":34648,"DIS_CODE":0,"TOWNNAME":"歸仁區","LI":"辜厝里","LIN":"14鄰","STREET":"中正南路","SECT":"一段","MAREA":" ","LANE":" ","ALLEY":" ","HOUSE_NO":"１１６號三樓","E_COORD97":177505.95000000001,"N_COORD97":2540501.6899999999,"ADDRESS":"中正南路一段１１６號三樓","OBJECTID":34648},"geometry":{"x":177505.95000000112,"y":2540501.6899999995}},{"attributes":{"ID":34649,"DIS_CODE":0,"TOWNNAME":"北門區","LI":"保吉里","LIN":"7鄰","STREET":" ","SECT":" ","MAREA":"蚵寮","LANE":" ","ALLEY":" ","HOUSE_NO":"２０５號","E_COORD97":161657.67000000001,"N_COORD97":2576092.4100000001,"ADDRESS":"蚵寮２０５號","OBJECTID":34649},"geometry":{"x":161657.66999999993,"y":2576092.410000002}},{"attributes":{"ID":34650,"DIS_CODE":0,"TOWNNAME":"北門區","LI":"保吉里","LIN":"7鄰","STREET":" ","SECT":" ","MAREA":"蚵寮","LANE":" ","ALLEY":" ","HOUSE_NO":"２０７號","E_COORD97":161649.94,"N_COORD97":2576079.7000000002,"ADDRESS":"蚵寮２０７號","OBJECTID":34650},"geometry":{"x":161649.94000000041,"y":2576079.7000000011}},{"attributes":{"ID":34651,"DIS_CODE":0,"TOWNNAME":"北門區","LI":"保吉里","LIN":"7鄰","STREET":" ","SECT":" ","MAREA":"蚵寮","LANE":" ","ALLEY":" ","HOUSE_NO":"２０８號","E_COORD97":161650.10000000001,"N_COORD97":2576074.6099999999,"ADDRESS":"蚵寮２０８號","OBJECTID":34651},"geometry":{"x":161650.10000000149,"y":2576074.6099999994}},{"attributes":{"ID":34652,"DIS_CODE":0,"TOWNNAME":"北門區","LI":"保吉里","LIN":"7鄰","STREET":" ","SECT":" ","MAREA":"蚵寮","LANE":" ","ALLEY":" ","HOUSE_NO":"２０９號","E_COORD97":161651.10999999999,"N_COORD97":2576065.9199999999,"ADDRESS":"蚵寮２０９號","OBJECTID":34652},"geometry":{"x":161651.11000000127,"y":2576065.9199999999}},{"attributes":{"ID":34653,"DIS_CODE":0,"TOWNNAME":"北門區","LI":"保吉里","LIN":"7鄰","STREET":" ","SECT":" ","MAREA":"蚵寮","LANE":" ","ALLEY":" ","HOUSE_NO":"２１０號","E_COORD97":161654.79000000001,"N_COORD97":2576055.3199999998,"ADDRESS":"蚵寮２１０號","OBJECTID":34653},"geometry":{"x":161654.79000000097,"y":2576055.3200000022}},{"attributes":{"ID":34654,"DIS_CODE":0,"TOWNNAME":"北門區","LI":"保吉里","LIN":"7鄰","STREET":" ","SECT":" ","MAREA":"蚵寮","LANE":" ","ALLEY":" ","HOUSE_NO":"２１１號","E_COORD97":161643.35999999999,"N_COORD97":2576060.8900000001,"ADDRESS":"蚵寮２１１號","OBJECTID":34654},"geometry":{"x":161643.36000000034,"y":2576060.8900000006}},{"attributes":{"ID":34655,"DIS_CODE":0,"TOWNNAME":"北門區","LI":"保吉里","LIN":"7鄰","STREET":" ","SECT":" ","MAREA":"蚵寮","LANE":" ","ALLEY":" ","HOUSE_NO":"２１２號","E_COORD97":161637.45999999999,"N_COORD97":2576068.3500000001,"ADDRESS":"蚵寮２１２號","OBJECTID":34655},"geometry":{"x":161637.45999999996,"y":2576068.3500000015}},{"attributes":{"ID":34656,"DIS_CODE":0,"TOWNNAME":"北門區","LI":"保吉里","LIN":"7鄰","STREET":" ","SECT":" ","MAREA":"蚵寮","LANE":" ","ALLEY":" ","HOUSE_NO":"２１３號","E_COORD97":161636.56,"N_COORD97":2576077.71,"ADDRESS":"蚵寮２１３號","OBJECTID":34656},"geometry":{"x":161636.55999999959,"y":2576077.7100000028}},{"attributes":{"ID":34657,"DIS_CODE":0,"TOWNNAME":"北門區","LI":"保吉里","LIN":"7鄰","STREET":" ","SECT":" ","MAREA":"蚵寮","LANE":" ","ALLEY":" ","HOUSE_NO":"２１４號","E_COORD97":161633.78,"N_COORD97":2576086.77,"ADDRESS":"蚵寮２１４號","OBJECTID":34657},"geometry":{"x":161633.78000000026,"y":2576086.7699999996}},{"attributes":{"ID":34658,"DIS_CODE":0,"TOWNNAME":"北門區","LI":"保吉里","LIN":"7鄰","STREET":" ","SECT":" ","MAREA":"蚵寮","LANE":" ","ALLEY":" ","HOUSE_NO":"２１８號","E_COORD97":161604.45000000001,"N_COORD97":2576119.8100000001,"ADDRESS":"蚵寮２１８號","OBJECTID":34658},"geometry":{"x":161604.45000000112,"y":2576119.8100000024}},{"attributes":{"ID":34659,"DIS_CODE":0,"TOWNNAME":"北門區","LI":"保吉里","LIN":"7鄰","STREET":" ","SECT":" ","MAREA":"蚵寮","LANE":" ","ALLEY":" ","HOUSE_NO":"２２３號","E_COORD97":161608.54999999999,"N_COORD97":2576070.6200000001,"ADDRESS":"蚵寮２２３號","OBJECTID":34659},"geometry":{"x":161608.55000000075,"y":2576070.6200000048}},{"attributes":{"ID":34660,"DIS_CODE":0,"TOWNNAME":"歸仁區","LI":"辜厝里","LIN":"14鄰","STREET":"中正南路","SECT":"一段","MAREA":" ","LANE":" ","ALLEY":" ","HOUSE_NO":"１１６號四樓","E_COORD97":177505.95000000001,"N_COORD97":2540501.6899999999,"ADDRESS":"中正南路一段１１６號四樓","OBJECTID":34660},"geometry":{"x":177505.95000000112,"y":2540501.6899999995}},{"attributes":{"ID":34661,"DIS_CODE":0,"TOWNNAME":"北門區","LI":"鯤江里","LIN":"7鄰","STREET":" ","SECT":" ","MAREA":"蚵寮","LANE":" ","ALLEY":" ","HOUSE_NO":"１０１８號","E_COORD97":162213.88,"N_COORD97":2575726.5099999998,"ADDRESS":"蚵寮１０１８號","OBJECTID":34661},"geometry":{"x":162213.87999999989,"y":2575726.5099999998}},{"attributes":{"ID":34662,"DIS_CODE":0,"TOWNNAME":"北門區","LI":"鯤江里","LIN":"7鄰","STREET":" ","SECT":" ","MAREA":"蚵寮","LANE":" ","ALLEY":" ","HOUSE_NO":"１０１９號","E_COORD97":162211.47,"N_COORD97":2575741.4100000001,"ADDRESS":"蚵寮１０１９號","OBJECTID":34662},"geometry":{"x":162211.46999999974,"y":2575741.4100000001}},{"attributes":{"ID":34663,"DIS_CODE":0,"TOWNNAME":"北門區","LI":"東壁里","LIN":"7鄰","STREET":" ","SECT":" ","MAREA":"蚵寮","LANE":" ","ALLEY":" ","HOUSE_NO":"６２３號","E_COORD97":161663.19,"N_COORD97":2576353.1299999999,"ADDRESS":"蚵寮６２３號","OBJECTID":34663},"geometry":{"x":161663.19000000041,"y":2576353.1300000027}},{"attributes":{"ID":34664,"DIS_CODE":0,"TOWNNAME":"北門區","LI":"東壁里","LIN":"7鄰","STREET":" ","SECT":" ","MAREA":"蚵寮","LANE":" ","ALLEY":" ","HOUSE_NO":"６２４號","E_COORD97":161660.07999999999,"N_COORD97":2576366.8399999999,"ADDRESS":"蚵寮６２４號","OBJECTID":34664},"geometry":{"x":161660.08000000101,"y":2576366.8400000017}},{"attributes":{"ID":34665,"DIS_CODE":0,"TOWNNAME":"北門區","LI":"東壁里","LIN":"7鄰","STREET":" ","SECT":" ","MAREA":"蚵寮","LANE":" ","ALLEY":" ","HOUSE_NO":"６２５號","E_COORD97":161657.57999999999,"N_COORD97":2576378.1400000001,"ADDRESS":"蚵寮６２５號","OBJECTID":34665},"geometry":{"x":161657.58000000194,"y":2576378.1399999987}},{"attributes":{"ID":34666,"DIS_CODE":0,"TOWNNAME":"北門區","LI":"東壁里","LIN":"7鄰","STREET":" ","SECT":" ","MAREA":"蚵寮","LANE":" ","ALLEY":" ","HOUSE_NO":"６２６號","E_COORD97":161652.09,"N_COORD97":2576385.1000000001,"ADDRESS":"蚵寮６２６號","OBJECTID":34666},"geometry":{"x":161652.09000000171,"y":2576385.1000000015}},{"attributes":{"ID":34667,"DIS_CODE":0,"TOWNNAME":"北門區","LI":"東壁里","LIN":"7鄰","STREET":" ","SECT":" ","MAREA":"蚵寮","LANE":" ","ALLEY":" ","HOUSE_NO":"６２７號","E_COORD97":161647.64999999999,"N_COORD97":2576396.5,"ADDRESS":"蚵寮６２７號","OBJECTID":34667},"geometry":{"x":161647.6500000013,"y":2576396.5000000019}},{"attributes":{"ID":34668,"DIS_CODE":0,"TOWNNAME":"北門區","LI":"東壁里","LIN":"7鄰","STREET":" ","SECT":" ","MAREA":"蚵寮","LANE":" ","ALLEY":" ","HOUSE_NO":"６２８號","E_COORD97":161645.66,"N_COORD97":2576402.1899999999,"ADDRESS":"蚵寮６２８號","OBJECTID":34668},"geometry":{"x":161645.66000000108,"y":2576402.1900000013}},{"attributes":{"ID":34669,"DIS_CODE":0,"TOWNNAME":"北門區","LI":"東壁里","LIN":"7鄰","STREET":" ","SECT":" ","MAREA":"蚵寮","LANE":" ","ALLEY":" ","HOUSE_NO":"６２９號","E_COORD97":161643.26000000001,"N_COORD97":2576410.6200000001,"ADDRESS":"蚵寮６２９號","OBJECTID":34669},"geometry":{"x":161643.26000000071,"y":2576410.6200000029}},{"attributes":{"ID":34670,"DIS_CODE":0,"TOWNNAME":"北門區","LI":"東壁里","LIN":"7鄰","STREET":" ","SECT":" ","MAREA":"蚵寮","LANE":" ","ALLEY":" ","HOUSE_NO":"６３０號","E_COORD97":161661.34,"N_COORD97":2576402.3700000001,"ADDRESS":"蚵寮６３０號","OBJECTID":34670},"geometry":{"x":161661.34000000078,"y":2576402.3700000029}},{"attributes":{"ID":34671,"DIS_CODE":0,"TOWNNAME":"北門區","LI":"東壁里","LIN":"7鄰","STREET":" ","SECT":" ","MAREA":"蚵寮","LANE":" ","ALLEY":" ","HOUSE_NO":"６３１之２號","E_COORD97":161656.20999999999,"N_COORD97":2576408.23,"ADDRESS":"蚵寮６３１之２號","OBJECTID":34671},"geometry":{"x":161656.20999999996,"y":2576408.2300000042}},{"attributes":{"ID":34672,"DIS_CODE":0,"TOWNNAME":"北門區","LI":"東壁里","LIN":"7鄰","STREET":" ","SECT":" ","MAREA":"蚵寮","LANE":" ","ALLEY":" ","HOUSE_NO":"６３１號","E_COORD97":161656.01000000001,"N_COORD97":2576418.2000000002,"ADDRESS":"蚵寮６３１號","OBJECTID":34672},"geometry":{"x":161656.01000000164,"y":2576418.2000000011}},{"attributes":{"ID":34673,"DIS_CODE":0,"TOWNNAME":"北門區","LI":"東壁里","LIN":"7鄰","STREET":" ","SECT":" ","MAREA":"蚵寮","LANE":" ","ALLEY":" ","HOUSE_NO":"６３３號","E_COORD97":161663.26000000001,"N_COORD97":2576394.3100000001,"ADDRESS":"蚵寮６３３號","OBJECTID":34673},"geometry":{"x":161663.26000000071,"y":2576394.3100000024}},{"attributes":{"ID":34674,"DIS_CODE":0,"TOWNNAME":"北門區","LI":"東壁里","LIN":"7鄰","STREET":" ","SECT":" ","MAREA":"蚵寮","LANE":" ","ALLEY":" ","HOUSE_NO":"６３４號","E_COORD97":161666.85000000001,"N_COORD97":2576386.6299999999,"ADDRESS":"蚵寮６３４號","OBJECTID":34674},"geometry":{"x":161666.84999999963,"y":2576386.6299999971}},{"attributes":{"ID":34675,"DIS_CODE":0,"TOWNNAME":"北門區","LI":"東壁里","LIN":"7鄰","STREET":" ","SECT":" ","MAREA":"蚵寮","LANE":" ","ALLEY":" ","HOUSE_NO":"６３５號","E_COORD97":161676.76999999999,"N_COORD97":2576357.73,"ADDRESS":"蚵寮６３５號","OBJECTID":34675},"geometry":{"x":161676.77000000048,"y":2576357.7300000023}},{"attributes":{"ID":34676,"DIS_CODE":0,"TOWNNAME":"新市區","LI":"大洲里","LIN":"7鄰","STREET":" ","SECT":" ","MAREA":"大洲","LANE":" ","ALLEY":" ","HOUSE_NO":"６４號","E_COORD97":174025.70000000001,"N_COORD97":2552220,"ADDRESS":"大洲６４號","OBJECTID":34676},"geometry":{"x":174025.70000000112,"y":2552220.0000000019}},{"attributes":{"ID":34677,"DIS_CODE":0,"TOWNNAME":"北門區","LI":"錦湖里","LIN":"7鄰","STREET":" ","SECT":" ","MAREA":"渡子頭","LANE":" ","ALLEY":" ","HOUSE_NO":"６６號","E_COORD97":165001.47,"N_COORD97":2577546.6299999999,"ADDRESS":"渡子頭６６號","OBJECTID":34677},"geometry":{"x":165001.47000000067,"y":2577546.6300000008}},{"attributes":{"ID":34678,"DIS_CODE":0,"TOWNNAME":"北門區","LI":"錦湖里","LIN":"7鄰","STREET":" ","SECT":" ","MAREA":"渡子頭","LANE":" ","ALLEY":" ","HOUSE_NO":"６７號","E_COORD97":164958,"N_COORD97":2577549.0699999998,"ADDRESS":"渡子頭６７號","OBJECTID":34678},"geometry":{"x":164958,"y":2577549.0700000022}},{"attributes":{"ID":34679,"DIS_CODE":0,"TOWNNAME":"北門區","LI":"錦湖里","LIN":"7鄰","STREET":" ","SECT":" ","MAREA":"渡子頭","LANE":" ","ALLEY":" ","HOUSE_NO":"６８號","E_COORD97":164967.26000000001,"N_COORD97":2577538.1600000001,"ADDRESS":"渡子頭６８號","OBJECTID":34679},"geometry":{"x":164967.26000000071,"y":2577538.160000002}},{"attributes":{"ID":34680,"DIS_CODE":0,"TOWNNAME":"北門區","LI":"錦湖里","LIN":"7鄰","STREET":" ","SECT":" ","MAREA":"渡子頭","LANE":" ","ALLEY":" ","HOUSE_NO":"６９號之１","E_COORD97":164967.78,"N_COORD97":2577512.6000000001,"ADDRESS":"渡子頭６９號之１","OBJECTID":34680},"geometry":{"x":164967.78000000119,"y":2577512.5999999996}},{"attributes":{"ID":34681,"DIS_CODE":0,"TOWNNAME":"北門區","LI":"錦湖里","LIN":"7鄰","STREET":" ","SECT":" ","MAREA":"渡子頭","LANE":" ","ALLEY":" ","HOUSE_NO":"６９號","E_COORD97":164982.94,"N_COORD97":2577516.46,"ADDRESS":"渡子頭６９號","OBJECTID":34681},"geometry":{"x":164982.94000000041,"y":2577516.4600000028}},{"attributes":{"ID":34682,"DIS_CODE":0,"TOWNNAME":"北門區","LI":"錦湖里","LIN":"7鄰","STREET":" ","SECT":" ","MAREA":"渡子頭","LANE":" ","ALLEY":" ","HOUSE_NO":"７０號","E_COORD97":165019.48999999999,"N_COORD97":2577534.2799999998,"ADDRESS":"渡子頭７０號","OBJECTID":34682},"geometry":{"x":165019.49000000022,"y":2577534.2799999993}},{"attributes":{"ID":34683,"DIS_CODE":0,"TOWNNAME":"北門區","LI":"錦湖里","LIN":"7鄰","STREET":" ","SECT":" ","MAREA":"渡子頭","LANE":" ","ALLEY":" ","HOUSE_NO":"７１號","E_COORD97":165001.91,"N_COORD97":2577499.5800000001,"ADDRESS":"渡子頭７１號","OBJECTID":34683},"geometry":{"x":165001.91000000108,"y":2577499.5800000001}},{"attributes":{"ID":34684,"DIS_CODE":0,"TOWNNAME":"新市區","LI":"港墘里","LIN":"7鄰","STREET":" ","SECT":" ","MAREA":"店頂","LANE":" ","ALLEY":" ","HOUSE_NO":"１０號","E_COORD97":179123.38,"N_COORD97":2553134,"ADDRESS":"店頂１０號","OBJECTID":34684},"geometry":{"x":179123.38000000082,"y":2553133.9999999981}},{"attributes":{"ID":34685,"DIS_CODE":0,"TOWNNAME":"新市區","LI":"三舍里","LIN":"7鄰","STREET":" ","SECT":" ","MAREA":"三舍","LANE":" ","ALLEY":" ","HOUSE_NO":"１７６之３號","E_COORD97":177444.59,"N_COORD97":2554867.5499999998,"ADDRESS":"三舍１７６之３號","OBJECTID":34685},"geometry":{"x":177444.59000000171,"y":2554867.5500000026}},{"attributes":{"ID":34686,"DIS_CODE":0,"TOWNNAME":"新市區","LI":"豐華里","LIN":"7鄰","STREET":" ","SECT":" ","MAREA":"豐華","LANE":" ","ALLEY":" ","HOUSE_NO":"６５之３號","E_COORD97":175502.13,"N_COORD97":2554260.2999999998,"ADDRESS":"豐華６５之３號","OBJECTID":34686},"geometry":{"x":175502.13000000082,"y":2554260.3000000007}},{"attributes":{"ID":34687,"DIS_CODE":0,"TOWNNAME":"新市區","LI":"潭頂里","LIN":"7鄰","STREET":" ","SECT":" ","MAREA":"潭頂","LANE":" ","ALLEY":" ","HOUSE_NO":"２６７號","E_COORD97":180818.5,"N_COORD97":2552886.25,"ADDRESS":"潭頂２６７號","OBJECTID":34687},"geometry":{"x":180818.5,"y":2552886.2500000019}},{"attributes":{"ID":34688,"DIS_CODE":0,"TOWNNAME":"新市區","LI":"豐華里","LIN":"7鄰","STREET":" ","SECT":" ","MAREA":"豐華","LANE":" ","ALLEY":" ","HOUSE_NO":"６２號","E_COORD97":175086.64999999999,"N_COORD97":2553837.5,"ADDRESS":"豐華６２號","OBJECTID":34688},"geometry":{"x":175086.65000000224,"y":2553837.5000000019}},{"attributes":{"ID":34689,"DIS_CODE":0,"TOWNNAME":"新市區","LI":"大洲里","LIN":"7鄰","STREET":" ","SECT":" ","MAREA":"大洲","LANE":" ","ALLEY":" ","HOUSE_NO":"６４之５號","E_COORD97":173983.38,"N_COORD97":2552220.5499999998,"ADDRESS":"大洲６４之５號","OBJECTID":34689},"geometry":{"x":173983.38000000082,"y":2552220.5500000026}},{"attributes":{"ID":34690,"DIS_CODE":0,"TOWNNAME":"新市區","LI":"大洲里","LIN":"7鄰","STREET":" ","SECT":" ","MAREA":"大洲","LANE":" ","ALLEY":" ","HOUSE_NO":"６１號","E_COORD97":174013.35000000001,"N_COORD97":2552267.5,"ADDRESS":"大洲６１號","OBJECTID":34690},"geometry":{"x":174013.35000000056,"y":2552267.5000000019}},{"attributes":{"ID":34691,"DIS_CODE":0,"TOWNNAME":"新市區","LI":"大洲里","LIN":"7鄰","STREET":" ","SECT":" ","MAREA":"大洲","LANE":" ","ALLEY":" ","HOUSE_NO":"６０號","E_COORD97":174033.51999999999,"N_COORD97":2552277.5,"ADDRESS":"大洲６０號","OBJECTID":34691},"geometry":{"x":174033.51999999955,"y":2552277.5000000019}},{"attributes":{"ID":34692,"DIS_CODE":0,"TOWNNAME":"新市區","LI":"大洲里","LIN":"7鄰","STREET":" ","SECT":" ","MAREA":"大洲","LANE":" ","ALLEY":" ","HOUSE_NO":"６２之５號","E_COORD97":172783.87,"N_COORD97":2552332.7999999998,"ADDRESS":"大洲６２之５號","OBJECTID":34692},"geometry":{"x":172783.87000000011,"y":2552332.8000000045}},{"attributes":{"ID":34693,"DIS_CODE":0,"TOWNNAME":"新市區","LI":"大洲里","LIN":"7鄰","STREET":" ","SECT":" ","MAREA":"大洲","LANE":" ","ALLEY":" ","HOUSE_NO":"６２之７號","E_COORD97":172634.29000000001,"N_COORD97":2552521.5499999998,"ADDRESS":"大洲６２之７號","OBJECTID":34693},"geometry":{"x":172634.29000000097,"y":2552521.5500000026}},{"attributes":{"ID":34694,"DIS_CODE":0,"TOWNNAME":"新市區","LI":"大洲里","LIN":"7鄰","STREET":" ","SECT":" ","MAREA":"大洲","LANE":" ","ALLEY":" ","HOUSE_NO":"６５號","E_COORD97":174056.67999999999,"N_COORD97":2552224.5,"ADDRESS":"大洲６５號","OBJECTID":34694},"geometry":{"x":174056.67999999877,"y":2552224.5}},{"attributes":{"ID":34695,"DIS_CODE":0,"TOWNNAME":"新市區","LI":"大洲里","LIN":"7鄰","STREET":" ","SECT":" ","MAREA":"大洲","LANE":" ","ALLEY":" ","HOUSE_NO":"６１之２號","E_COORD97":173942.95000000001,"N_COORD97":2552777.7999999998,"ADDRESS":"大洲６１之２號","OBJECTID":34695},"geometry":{"x":173942.95000000019,"y":2552777.8000000026}},{"attributes":{"ID":34696,"DIS_CODE":0,"TOWNNAME":"新市區","LI":"大社里","LIN":"7鄰","STREET":" ","SECT":" ","MAREA":"大社","LANE":" ","ALLEY":" ","HOUSE_NO":"２６３號","E_COORD97":180220.76999999999,"N_COORD97":2554501.75,"ADDRESS":"大社２６３號","OBJECTID":34696},"geometry":{"x":180220.76999999955,"y":2554501.75}},{"attributes":{"ID":34697,"DIS_CODE":0,"TOWNNAME":"新市區","LI":"大營里","LIN":"7鄰","STREET":" ","SECT":" ","MAREA":"大營","LANE":" ","ALLEY":" ","HOUSE_NO":"１６８之１號","E_COORD97":179359.98000000001,"N_COORD97":2555546.2999999998,"ADDRESS":"大營１６８之１號","OBJECTID":34697},"geometry":{"x":179359.98000000138,"y":2555546.3000000007}},{"attributes":{"ID":34698,"DIS_CODE":0,"TOWNNAME":"新市區","LI":"大社里","LIN":"7鄰","STREET":" ","SECT":" ","MAREA":"大社","LANE":" ","ALLEY":" ","HOUSE_NO":"２４８號","E_COORD97":180199.35000000001,"N_COORD97":2554491.5,"ADDRESS":"大社２４８號","OBJECTID":34698},"geometry":{"x":180199.35000000056,"y":2554491.5000000019}},{"attributes":{"ID":34699,"DIS_CODE":0,"TOWNNAME":"新市區","LI":"大洲里","LIN":"7鄰","STREET":" ","SECT":" ","MAREA":"大洲","LANE":" ","ALLEY":" ","HOUSE_NO":"７０號","E_COORD97":174043.92999999999,"N_COORD97":2552120.75,"ADDRESS":"大洲７０號","OBJECTID":34699},"geometry":{"x":174043.93000000063,"y":2552120.75}},{"attributes":{"ID":34700,"DIS_CODE":0,"TOWNNAME":"新市區","LI":"大洲里","LIN":"7鄰","STREET":" ","SECT":" ","MAREA":"大洲","LANE":" ","ALLEY":" ","HOUSE_NO":"６９號","E_COORD97":174043.67999999999,"N_COORD97":2552158,"ADDRESS":"大洲６９號","OBJECTID":34700},"geometry":{"x":174043.68000000063,"y":2552158.0000000037}},{"attributes":{"ID":34701,"DIS_CODE":0,"TOWNNAME":"新市區","LI":"大營里","LIN":"7鄰","STREET":" ","SECT":" ","MAREA":"大營","LANE":" ","ALLEY":" ","HOUSE_NO":"１６１號","E_COORD97":179451.63,"N_COORD97":2555547.25,"ADDRESS":"大營１６１號","OBJECTID":34701},"geometry":{"x":179451.63000000082,"y":2555547.2500000019}},{"attributes":{"ID":34702,"DIS_CODE":0,"TOWNNAME":"新市區","LI":"大洲里","LIN":"7鄰","STREET":" ","SECT":" ","MAREA":"大洲","LANE":" ","ALLEY":" ","HOUSE_NO":"７１號","E_COORD97":174049.76000000001,"N_COORD97":2552139.75,"ADDRESS":"大洲７１號","OBJECTID":34702},"geometry":{"x":174049.76000000071,"y":2552139.7500000019}},{"attributes":{"ID":34703,"DIS_CODE":0,"TOWNNAME":"新市區","LI":"大社里","LIN":"7鄰","STREET":" ","SECT":" ","MAREA":"大社","LANE":" ","ALLEY":" ","HOUSE_NO":"２５８號","E_COORD97":180263.95999999999,"N_COORD97":2554437,"ADDRESS":"大社２５８號","OBJECTID":34703},"geometry":{"x":180263.95999999996,"y":2554437.0000000019}},{"attributes":{"ID":34704,"DIS_CODE":0,"TOWNNAME":"新市區","LI":"大社里","LIN":"7鄰","STREET":" ","SECT":" ","MAREA":"大社","LANE":" ","ALLEY":" ","HOUSE_NO":"２６０號","E_COORD97":180248.14999999999,"N_COORD97":2554469,"ADDRESS":"大社２６０號","OBJECTID":34704},"geometry":{"x":180248.15000000037,"y":2554469}},{"attributes":{"ID":34705,"DIS_CODE":0,"TOWNNAME":"新市區","LI":"大社里","LIN":"7鄰","STREET":" ","SECT":" ","MAREA":"大社","LANE":" ","ALLEY":" ","HOUSE_NO":"２５８之２號","E_COORD97":180290.64999999999,"N_COORD97":2554425.0499999998,"ADDRESS":"大社２５８之２號","OBJECTID":34705},"geometry":{"x":180290.65000000037,"y":2554425.0500000007}},{"attributes":{"ID":34706,"DIS_CODE":0,"TOWNNAME":"新市區","LI":"大營里","LIN":"7鄰","STREET":" ","SECT":" ","MAREA":"大營","LANE":" ","ALLEY":" ","HOUSE_NO":"１５６之２９號","E_COORD97":179512.98000000001,"N_COORD97":2555408.2999999998,"ADDRESS":"大營１５６之２９號","OBJECTID":34706},"geometry":{"x":179512.98000000138,"y":2555408.3000000026}},{"attributes":{"ID":34707,"DIS_CODE":0,"TOWNNAME":"新市區","LI":"大營里","LIN":"7鄰","STREET":" ","SECT":" ","MAREA":"大營","LANE":" ","ALLEY":" ","HOUSE_NO":"１６２號","E_COORD97":179435.20000000001,"N_COORD97":2555573.75,"ADDRESS":"大營１６２號","OBJECTID":34707},"geometry":{"x":179435.20000000019,"y":2555573.7500000037}},{"attributes":{"ID":34708,"DIS_CODE":0,"TOWNNAME":"新市區","LI":"大營里","LIN":"7鄰","STREET":" ","SECT":" ","MAREA":"大營","LANE":" ","ALLEY":" ","HOUSE_NO":"１５６之２３號","E_COORD97":179494.42999999999,"N_COORD97":2555444.0499999998,"ADDRESS":"大營１５６之２３號","OBJECTID":34708},"geometry":{"x":179494.4299999997,"y":2555444.0500000026}},{"attributes":{"ID":34709,"DIS_CODE":0,"TOWNNAME":"新市區","LI":"三舍里","LIN":"7鄰","STREET":" ","SECT":" ","MAREA":"三舍","LANE":" ","ALLEY":" ","HOUSE_NO":"１７９之４號","E_COORD97":177436.29000000001,"N_COORD97":2554859.7999999998,"ADDRESS":"三舍１７９之４號","OBJECTID":34709},"geometry":{"x":177436.29000000004,"y":2554859.8000000026}},{"attributes":{"ID":34710,"DIS_CODE":0,"TOWNNAME":"新市區","LI":"三舍里","LIN":"7鄰","STREET":" ","SECT":" ","MAREA":"三舍","LANE":" ","ALLEY":" ","HOUSE_NO":"１７９號","E_COORD97":177426.59,"N_COORD97":2554877.25,"ADDRESS":"三舍１７９號","OBJECTID":34710},"geometry":{"x":177426.59000000078,"y":2554877.25}},{"attributes":{"ID":34711,"DIS_CODE":0,"TOWNNAME":"新市區","LI":"三舍里","LIN":"7鄰","STREET":" ","SECT":" ","MAREA":"三舍","LANE":" ","ALLEY":" ","HOUSE_NO":"１７９之９號","E_COORD97":177443.89000000001,"N_COORD97":2554838.5499999998,"ADDRESS":"三舍１７９之９號","OBJECTID":34711},"geometry":{"x":177443.88999999873,"y":2554838.5500000007}},{"attributes":{"ID":34712,"DIS_CODE":0,"TOWNNAME":"新市區","LI":"三舍里","LIN":"7鄰","STREET":" ","SECT":" ","MAREA":"三舍","LANE":" ","ALLEY":" ","HOUSE_NO":"１７９之７號","E_COORD97":177441.23000000001,"N_COORD97":2554846.5499999998,"ADDRESS":"三舍１７９之７號","OBJECTID":34712},"geometry":{"x":177441.23000000138,"y":2554846.5499999989}},{"attributes":{"ID":34713,"DIS_CODE":0,"TOWNNAME":"新市區","LI":"大營里","LIN":"7鄰","STREET":" ","SECT":" ","MAREA":"大營","LANE":" ","ALLEY":" ","HOUSE_NO":"１６７號","E_COORD97":179345.45999999999,"N_COORD97":2555542.5,"ADDRESS":"大營１６７號","OBJECTID":34713},"geometry":{"x":179345.45999999996,"y":2555542.5000000019}},{"attributes":{"ID":34714,"DIS_CODE":0,"TOWNNAME":"新市區","LI":"三舍里","LIN":"7鄰","STREET":" ","SECT":" ","MAREA":"三舍","LANE":" ","ALLEY":" ","HOUSE_NO":"１７６之８號","E_COORD97":177453.26000000001,"N_COORD97":2554846.7999999998,"ADDRESS":"三舍１７６之８號","OBJECTID":34714},"geometry":{"x":177453.25999999978,"y":2554846.8000000007}},{"attributes":{"ID":34715,"DIS_CODE":0,"TOWNNAME":"新市區","LI":"大營里","LIN":"7鄰","STREET":" ","SECT":" ","MAREA":"大營","LANE":" ","ALLEY":" ","HOUSE_NO":"１６５之１號","E_COORD97":179382.13,"N_COORD97":2555499.7999999998,"ADDRESS":"大營１６５之１號","OBJECTID":34715},"geometry":{"x":179382.13000000082,"y":2555499.8000000026}},{"attributes":{"ID":34716,"DIS_CODE":0,"TOWNNAME":"新市區","LI":"大營里","LIN":"7鄰","STREET":" ","SECT":" ","MAREA":"大營","LANE":" ","ALLEY":" ","HOUSE_NO":"１５７之１６號","E_COORD97":179506.17000000001,"N_COORD97":2555469.5499999998,"ADDRESS":"大營１５７之１６號","OBJECTID":34716},"geometry":{"x":179506.17000000086,"y":2555469.5500000007}},{"attributes":{"ID":34717,"DIS_CODE":0,"TOWNNAME":"新市區","LI":"三舍里","LIN":"7鄰","STREET":" ","SECT":" ","MAREA":"三舍","LANE":" ","ALLEY":" ","HOUSE_NO":"１７６之１號","E_COORD97":177441.04000000001,"N_COORD97":2554876.0499999998,"ADDRESS":"三舍１７６之１號","OBJECTID":34717},"geometry":{"x":177441.04000000004,"y":2554876.0500000007}},{"attributes":{"ID":34718,"DIS_CODE":0,"TOWNNAME":"新市區","LI":"三舍里","LIN":"7鄰","STREET":" ","SECT":" ","MAREA":"三舍","LANE":" ","ALLEY":" ","HOUSE_NO":"１７９之１２號","E_COORD97":177450.59,"N_COORD97":2554826.0499999998,"ADDRESS":"三舍１７９之１２號","OBJECTID":34718},"geometry":{"x":177450.58999999985,"y":2554826.0500000007}},{"attributes":{"ID":34719,"DIS_CODE":0,"TOWNNAME":"新市區","LI":"三舍里","LIN":"7鄰","STREET":" ","SECT":" ","MAREA":"三舍","LANE":" ","ALLEY":" ","HOUSE_NO":"１７６之９號","E_COORD97":177453.48000000001,"N_COORD97":2554842.7999999998,"ADDRESS":"三舍１７６之９號","OBJECTID":34719},"geometry":{"x":177453.48000000138,"y":2554842.8000000026}},{"attributes":{"ID":34720,"DIS_CODE":0,"TOWNNAME":"新市區","LI":"三舍里","LIN":"7鄰","STREET":" ","SECT":" ","MAREA":"三舍","LANE":" ","ALLEY":" ","HOUSE_NO":"１７６之６號","E_COORD97":177449.73999999999,"N_COORD97":2554855.0499999998,"ADDRESS":"三舍１７６之６號","OBJECTID":34720},"geometry":{"x":177449.74000000115,"y":2554855.0500000026}},{"attributes":{"ID":34721,"DIS_CODE":0,"TOWNNAME":"新市區","LI":"三舍里","LIN":"7鄰","STREET":" ","SECT":" ","MAREA":"三舍","LANE":" ","ALLEY":" ","HOUSE_NO":"１７９之１６號","E_COORD97":177457.34,"N_COORD97":2554809.5499999998,"ADDRESS":"三舍１７９之１６號","OBJECTID":34721},"geometry":{"x":177457.33999999985,"y":2554809.5500000045}},{"attributes":{"ID":34722,"DIS_CODE":0,"TOWNNAME":"新市區","LI":"三舍里","LIN":"7鄰","STREET":" ","SECT":" ","MAREA":"三舍","LANE":" ","ALLEY":" ","HOUSE_NO":"１６８之６號","E_COORD97":177750.32000000001,"N_COORD97":2554466.5499999998,"ADDRESS":"三舍１６８之６號","OBJECTID":34722},"geometry":{"x":177750.32000000216,"y":2554466.5500000007}},{"attributes":{"ID":34723,"DIS_CODE":0,"TOWNNAME":"新市區","LI":"大營里","LIN":"7鄰","STREET":" ","SECT":" ","MAREA":"大營","LANE":" ","ALLEY":" ","HOUSE_NO":"１５９之１號","E_COORD97":179429.76999999999,"N_COORD97":2555513.0499999998,"ADDRESS":"大營１５９之１號","OBJECTID":34723},"geometry":{"x":179429.77000000142,"y":2555513.0500000007}},{"attributes":{"ID":34724,"DIS_CODE":0,"TOWNNAME":"新市區","LI":"大營里","LIN":"7鄰","STREET":" ","SECT":" ","MAREA":"大營","LANE":" ","ALLEY":" ","HOUSE_NO":"１５８號","E_COORD97":179448.67999999999,"N_COORD97":2555480.75,"ADDRESS":"大營１５８號","OBJECTID":34724},"geometry":{"x":179448.6799999997,"y":2555480.75}},{"attributes":{"ID":34725,"DIS_CODE":0,"TOWNNAME":"新市區","LI":"大營里","LIN":"7鄰","STREET":" ","SECT":" ","MAREA":"大營","LANE":" ","ALLEY":" ","HOUSE_NO":"１５７之１９號","E_COORD97":179504.29000000001,"N_COORD97":2555455.5499999998,"ADDRESS":"大營１５７之１９號","OBJECTID":34725},"geometry":{"x":179504.29000000004,"y":2555455.5500000007}},{"attributes":{"ID":34726,"DIS_CODE":0,"TOWNNAME":"新市區","LI":"大營里","LIN":"7鄰","STREET":" ","SECT":" ","MAREA":"大營","LANE":" ","ALLEY":" ","HOUSE_NO":"１６５號","E_COORD97":179367.09,"N_COORD97":2555519.75,"ADDRESS":"大營１６５號","OBJECTID":34726},"geometry":{"x":179367.09000000078,"y":2555519.7500000019}},{"attributes":{"ID":34727,"DIS_CODE":0,"TOWNNAME":"新市區","LI":"三舍里","LIN":"7鄰","STREET":" ","SECT":" ","MAREA":"三舍","LANE":" ","ALLEY":" ","HOUSE_NO":"１６９號","E_COORD97":177509.06,"N_COORD97":2554763,"ADDRESS":"三舍１６９號","OBJECTID":34727},"geometry":{"x":177509.06000000052,"y":2554763.0000000019}},{"attributes":{"ID":34728,"DIS_CODE":0,"TOWNNAME":"新市區","LI":"三舍里","LIN":"7鄰","STREET":" ","SECT":" ","MAREA":"三舍","LANE":" ","ALLEY":" ","HOUSE_NO":"１７９之１１號","E_COORD97":177448.89000000001,"N_COORD97":2554830.0499999998,"ADDRESS":"三舍１７９之１１號","OBJECTID":34728},"geometry":{"x":177448.88999999966,"y":2554830.0500000045}},{"attributes":{"ID":34729,"DIS_CODE":0,"TOWNNAME":"新市區","LI":"三舍里","LIN":"7鄰","STREET":" ","SECT":" ","MAREA":"三舍","LANE":" ","ALLEY":" ","HOUSE_NO":"１７６之７號","E_COORD97":177451.59,"N_COORD97":2554850.7999999998,"ADDRESS":"三舍１７６之７號","OBJECTID":34729},"geometry":{"x":177451.59000000078,"y":2554850.8000000007}},{"attributes":{"ID":34730,"DIS_CODE":0,"TOWNNAME":"新市區","LI":"三舍里","LIN":"7鄰","STREET":" ","SECT":" ","MAREA":"三舍","LANE":" ","ALLEY":" ","HOUSE_NO":"１７９之６號","E_COORD97":177439.54000000001,"N_COORD97":2554850.5499999998,"ADDRESS":"三舍１７９之６號","OBJECTID":34730},"geometry":{"x":177439.54000000004,"y":2554850.5500000026}},{"attributes":{"ID":34731,"DIS_CODE":0,"TOWNNAME":"新市區","LI":"三舍里","LIN":"7鄰","STREET":" ","SECT":" ","MAREA":"三舍","LANE":" ","ALLEY":" ","HOUSE_NO":"１７９之１０號","E_COORD97":177446.92999999999,"N_COORD97":2554834.2999999998,"ADDRESS":"三舍１７９之１０號","OBJECTID":34731},"geometry":{"x":177446.9299999997,"y":2554834.3000000007}},{"attributes":{"ID":34732,"DIS_CODE":0,"TOWNNAME":"新市區","LI":"大營里","LIN":"7鄰","STREET":" ","SECT":" ","MAREA":"大營","LANE":" ","ALLEY":" ","HOUSE_NO":"１５６之５號","E_COORD97":179502.54000000001,"N_COORD97":2555446.0499999998,"ADDRESS":"大營１５６之５號","OBJECTID":34732},"geometry":{"x":179502.54000000004,"y":2555446.0500000007}},{"attributes":{"ID":34733,"DIS_CODE":0,"TOWNNAME":"官田區","LI":"南\u25A0里","LIN":"7鄰","STREET":" ","SECT":" ","MAREA":"南\u25A0","LANE":" ","ALLEY":" ","HOUSE_NO":"８９號","E_COORD97":179039.13,"N_COORD97":2568209.0099999998,"ADDRESS":"南\u25A0８９號","OBJECTID":34733},"geometry":{"x":179039.12999999989,"y":2568209.0100000016}},{"attributes":{"ID":34734,"DIS_CODE":0,"TOWNNAME":"歸仁區","LI":"沙崙里","LIN":"4鄰","STREET":" ","SECT":" ","MAREA":"沙崙","LANE":" ","ALLEY":" ","HOUSE_NO":"３４７號","E_COORD97":179525.48000000001,"N_COORD97":2538129.25,"ADDRESS":"沙崙３４７號","OBJECTID":34734},"geometry":{"x":179525.48000000045,"y":2538129.25}},{"attributes":{"ID":34735,"DIS_CODE":0,"TOWNNAME":"新市區","LI":"大營里","LIN":"7鄰","STREET":" ","SECT":" ","MAREA":"大營","LANE":" ","ALLEY":" ","HOUSE_NO":"１５６之７號","E_COORD97":179504.67999999999,"N_COORD97":2555436.5499999998,"ADDRESS":"大營１５６之７號","OBJECTID":34735},"geometry":{"x":179504.6799999997,"y":2555436.5499999989}},{"attributes":{"ID":34736,"DIS_CODE":0,"TOWNNAME":"官田區","LI":"社子里","LIN":"7鄰","STREET":" ","SECT":" ","MAREA":"社子","LANE":" ","ALLEY":" ","HOUSE_NO":"４７號","E_COORD97":184416.47,"N_COORD97":2564482.1800000002,"ADDRESS":"社子４７號","OBJECTID":34736},"geometry":{"x":184416.47000000067,"y":2564482.1799999997}},{"attributes":{"ID":34737,"DIS_CODE":0,"TOWNNAME":"官田區","LI":"社子里","LIN":"7鄰","STREET":" ","SECT":" ","MAREA":"社子","LANE":" ","ALLEY":" ","HOUSE_NO":"４８號之１０","E_COORD97":184460.57000000001,"N_COORD97":2564493.2999999998,"ADDRESS":"社子４８號之１０","OBJECTID":34737},"geometry":{"x":184460.57000000123,"y":2564493.3000000007}},{"attributes":{"ID":34738,"DIS_CODE":0,"TOWNNAME":"官田區","LI":"社子里","LIN":"7鄰","STREET":" ","SECT":" ","MAREA":"社子","LANE":" ","ALLEY":" ","HOUSE_NO":"４８號之３","E_COORD97":184439.29000000001,"N_COORD97":2564517.1800000002,"ADDRESS":"社子４８號之３","OBJECTID":34738},"geometry":{"x":184439.28999999911,"y":2564517.1799999997}},{"attributes":{"ID":34739,"DIS_CODE":0,"TOWNNAME":"官田區","LI":"社子里","LIN":"7鄰","STREET":" ","SECT":" ","MAREA":"社子","LANE":" ","ALLEY":" ","HOUSE_NO":"４８號之５","E_COORD97":184444.17999999999,"N_COORD97":2564466.5699999998,"ADDRESS":"社子４８號之５","OBJECTID":34739},"geometry":{"x":184444.1799999997,"y":2564466.5700000003}},{"attributes":{"ID":34740,"DIS_CODE":0,"TOWNNAME":"官田區","LI":"社子里","LIN":"7鄰","STREET":" ","SECT":" ","MAREA":"社子","LANE":" ","ALLEY":" ","HOUSE_NO":"４８號之８","E_COORD97":184442.57999999999,"N_COORD97":2564509.9199999999,"ADDRESS":"社子４８號之８","OBJECTID":34740},"geometry":{"x":184442.58000000194,"y":2564509.9200000018}},{"attributes":{"ID":34741,"DIS_CODE":0,"TOWNNAME":"北區","LI":"國興里","LIN":"8鄰","STREET":"南園街","SECT":" ","MAREA":" ","LANE":"１０１巷","ALLEY":"２１弄","HOUSE_NO":"２號","E_COORD97":170648.51000000001,"N_COORD97":2545418.02,"ADDRESS":"南園街１０１巷２１弄２號","OBJECTID":34741},"geometry":{"x":170648.50999999978,"y":2545418.0200000014}},{"attributes":{"ID":34742,"DIS_CODE":0,"TOWNNAME":"官田區","LI":"社子里","LIN":"7鄰","STREET":" ","SECT":" ","MAREA":"社子","LANE":" ","ALLEY":" ","HOUSE_NO":"４８號","E_COORD97":184445.07999999999,"N_COORD97":2564476.4100000001,"ADDRESS":"社子４８號","OBJECTID":34742},"geometry":{"x":184445.08000000101,"y":2564476.410000002}},{"attributes":{"ID":34743,"DIS_CODE":0,"TOWNNAME":"北區","LI":"國興里","LIN":"8鄰","STREET":"南園街","SECT":" ","MAREA":" ","LANE":"１０１巷","ALLEY":"２１弄","HOUSE_NO":"３１號","E_COORD97":170655.64999999999,"N_COORD97":2545487.04,"ADDRESS":"南園街１０１巷２１弄３１號","OBJECTID":34743},"geometry":{"x":170655.6500000013,"y":2545487.0399999991}},{"attributes":{"ID":34744,"DIS_CODE":0,"TOWNNAME":"官田區","LI":"社子里","LIN":"7鄰","STREET":" ","SECT":" ","MAREA":"社子","LANE":" ","ALLEY":" ","HOUSE_NO":"４９號之１６","E_COORD97":184497.60999999999,"N_COORD97":2564415,"ADDRESS":"社子４９號之１６","OBJECTID":34744},"geometry":{"x":184497.61000000127,"y":2564415.0000000019}},{"attributes":{"ID":34745,"DIS_CODE":0,"TOWNNAME":"官田區","LI":"社子里","LIN":"7鄰","STREET":" ","SECT":" ","MAREA":"社子","LANE":" ","ALLEY":" ","HOUSE_NO":"４９號之３","E_COORD97":184469.78,"N_COORD97":2564471.5800000001,"ADDRESS":"社子４９號之３","OBJECTID":34745},"geometry":{"x":184469.78000000026,"y":2564471.5800000019}},{"attributes":{"ID":34746,"DIS_CODE":0,"TOWNNAME":"北區","LI":"國興里","LIN":"8鄰","STREET":"南園街","SECT":" ","MAREA":" ","LANE":"１０１巷","ALLEY":"２１弄","HOUSE_NO":"３３號","E_COORD97":170658.91,"N_COORD97":2545483.5699999998,"ADDRESS":"南園街１０１巷２１弄３３號","OBJECTID":34746},"geometry":{"x":170658.91000000108,"y":2545483.5700000022}},{"attributes":{"ID":34747,"DIS_CODE":0,"TOWNNAME":"北區","LI":"國興里","LIN":"8鄰","STREET":"南園街","SECT":" ","MAREA":" ","LANE":"１０１巷","ALLEY":"２１弄","HOUSE_NO":"３５號","E_COORD97":170659.53,"N_COORD97":2545479.7000000002,"ADDRESS":"南園街１０１巷２１弄３５號","OBJECTID":34747},"geometry":{"x":170659.53000000212,"y":2545479.6999999974}},{"attributes":{"ID":34748,"DIS_CODE":0,"TOWNNAME":"北區","LI":"國興里","LIN":"8鄰","STREET":"南園街","SECT":" ","MAREA":" ","LANE":"１０１巷","ALLEY":"２１弄","HOUSE_NO":"３７號","E_COORD97":170662.98999999999,"N_COORD97":2545476.4399999999,"ADDRESS":"南園街１０１巷２１弄３７號","OBJECTID":34748},"geometry":{"x":170662.99000000022,"y":2545476.4400000013}},{"attributes":{"ID":34749,"DIS_CODE":0,"TOWNNAME":"北區","LI":"國興里","LIN":"8鄰","STREET":"南園街","SECT":" ","MAREA":" ","LANE":"１０１巷","ALLEY":"２１弄","HOUSE_NO":"３９號","E_COORD97":170665.64999999999,"N_COORD97":2545472.3599999999,"ADDRESS":"南園街１０１巷２１弄３９號","OBJECTID":34749},"geometry":{"x":170665.65000000224,"y":2545472.3600000031}},{"attributes":{"ID":34750,"DIS_CODE":0,"TOWNNAME":"北區","LI":"國興里","LIN":"8鄰","STREET":"南園街","SECT":" ","MAREA":" ","LANE":"１０１巷","ALLEY":"２１弄","HOUSE_NO":"３號","E_COORD97":170627.70000000001,"N_COORD97":2545452.3900000001,"ADDRESS":"南園街１０１巷２１弄３號","OBJECTID":34750},"geometry":{"x":170627.69999999925,"y":2545452.3900000006}},{"attributes":{"ID":34751,"DIS_CODE":0,"TOWNNAME":"北區","LI":"國興里","LIN":"8鄰","STREET":"南園街","SECT":" ","MAREA":" ","LANE":"１０１巷","ALLEY":"２１弄","HOUSE_NO":"４１號","E_COORD97":170665.23999999999,"N_COORD97":2545460.1299999999,"ADDRESS":"南園街１０１巷２１弄４１號","OBJECTID":34751},"geometry":{"x":170665.24000000115,"y":2545460.1300000008}},{"attributes":{"ID":34752,"DIS_CODE":0,"TOWNNAME":"北區","LI":"國興里","LIN":"8鄰","STREET":"南園街","SECT":" ","MAREA":" ","LANE":"１０１巷","ALLEY":"２１弄","HOUSE_NO":"４２號","E_COORD97":170709.5,"N_COORD97":2545462.3399999999,"ADDRESS":"南園街１０１巷２１弄４２號","OBJECTID":34752},"geometry":{"x":170709.5,"y":2545462.3399999999}},{"attributes":{"ID":34753,"DIS_CODE":0,"TOWNNAME":"北區","LI":"國興里","LIN":"8鄰","STREET":"南園街","SECT":" ","MAREA":" ","LANE":"１０１巷","ALLEY":"２１弄","HOUSE_NO":"４３號","E_COORD97":170669.10999999999,"N_COORD97":2545462.5800000001,"ADDRESS":"南園街１０１巷２１弄４３號","OBJECTID":34753},"geometry":{"x":170669.1099999994,"y":2545462.5800000019}},{"attributes":{"ID":34754,"DIS_CODE":0,"TOWNNAME":"北區","LI":"國興里","LIN":"8鄰","STREET":"南園街","SECT":" ","MAREA":" ","LANE":"１０１巷","ALLEY":"２１弄","HOUSE_NO":"４４號","E_COORD97":170713.38,"N_COORD97":2545463.77,"ADDRESS":"南園街１０１巷２１弄４４號","OBJECTID":34754},"geometry":{"x":170713.38000000082,"y":2545463.7700000014}},{"attributes":{"ID":34755,"DIS_CODE":0,"TOWNNAME":"北區","LI":"國興里","LIN":"8鄰","STREET":"南園街","SECT":" ","MAREA":" ","LANE":"１０１巷","ALLEY":"２１弄","HOUSE_NO":"４５號","E_COORD97":170673.60000000001,"N_COORD97":2545464.6200000001,"ADDRESS":"南園街１０１巷２１弄４５號","OBJECTID":34755},"geometry":{"x":170673.60000000149,"y":2545464.620000001}},{"attributes":{"ID":34756,"DIS_CODE":0,"TOWNNAME":"北區","LI":"國興里","LIN":"8鄰","STREET":"南園街","SECT":" ","MAREA":" ","LANE":"１０１巷","ALLEY":"２１弄","HOUSE_NO":"４６號","E_COORD97":170716.85000000001,"N_COORD97":2545466.6200000001,"ADDRESS":"南園街１０１巷２１弄４６號","OBJECTID":34756},"geometry":{"x":170716.85000000056,"y":2545466.6200000029}},{"attributes":{"ID":34757,"DIS_CODE":0,"TOWNNAME":"北區","LI":"國興里","LIN":"8鄰","STREET":"南園街","SECT":" ","MAREA":" ","LANE":"１０１巷","ALLEY":"２１弄","HOUSE_NO":"４７號","E_COORD97":170676.25,"N_COORD97":2545467.6699999999,"ADDRESS":"南園街１０１巷２１弄４７號","OBJECTID":34757},"geometry":{"x":170676.25,"y":2545467.6700000018}},{"attributes":{"ID":34758,"DIS_CODE":0,"TOWNNAME":"北區","LI":"國興里","LIN":"8鄰","STREET":"南園街","SECT":" ","MAREA":" ","LANE":"１０１巷","ALLEY":"２１弄","HOUSE_NO":"４８號","E_COORD97":170719.91,"N_COORD97":2545468.46,"ADDRESS":"南園街１０１巷２１弄４８號","OBJECTID":34758},"geometry":{"x":170719.91000000108,"y":2545468.4600000009}},{"attributes":{"ID":34759,"DIS_CODE":0,"TOWNNAME":"安南區","LI":"城中里","LIN":"5鄰","STREET":"城西街","SECT":"一段","MAREA":" ","LANE":"６１巷","ALLEY":"４１弄","HOUSE_NO":"２１號","E_COORD97":160803.86113,"N_COORD97":2551327.3160299999,"ADDRESS":"城西街一段６１巷４１弄２１號","OBJECTID":34759},"geometry":{"x":160803.86113000195,"y":2551327.3160319999}},{"attributes":{"ID":34760,"DIS_CODE":0,"TOWNNAME":"北區","LI":"國興里","LIN":"8鄰","STREET":"南園街","SECT":" ","MAREA":" ","LANE":"１０１巷","ALLEY":"２１弄","HOUSE_NO":"４號","E_COORD97":170651.57000000001,"N_COORD97":2545421.4900000002,"ADDRESS":"南園街１０１巷２１弄４號","OBJECTID":34760},"geometry":{"x":170651.57000000123,"y":2545421.4900000039}},{"attributes":{"ID":34761,"DIS_CODE":0,"TOWNNAME":"北區","LI":"國興里","LIN":"8鄰","STREET":"南園街","SECT":" ","MAREA":" ","LANE":"１０１巷","ALLEY":"２１弄","HOUSE_NO":"５０號","E_COORD97":170722.76000000001,"N_COORD97":2545472.1299999999,"ADDRESS":"南園街１０１巷２１弄５０號","OBJECTID":34761},"geometry":{"x":170722.75999999978,"y":2545472.129999999}},{"attributes":{"ID":34762,"DIS_CODE":0,"TOWNNAME":"北區","LI":"國興里","LIN":"8鄰","STREET":"南園街","SECT":" ","MAREA":" ","LANE":"１０１巷","ALLEY":"２１弄","HOUSE_NO":"５２號","E_COORD97":170727.04999999999,"N_COORD97":2545473.7599999998,"ADDRESS":"南園街１０１巷２１弄５２號","OBJECTID":34762},"geometry":{"x":170727.05000000075,"y":2545473.7600000016}},{"attributes":{"ID":34763,"DIS_CODE":0,"TOWNNAME":"北區","LI":"國興里","LIN":"8鄰","STREET":"南園街","SECT":" ","MAREA":" ","LANE":"１０１巷","ALLEY":"２１弄","HOUSE_NO":"５４號","E_COORD97":170729.29000000001,"N_COORD97":2545476.6099999999,"ADDRESS":"南園街１０１巷２１弄５４號","OBJECTID":34763},"geometry":{"x":170729.29000000097,"y":2545476.6099999994}},{"attributes":{"ID":34764,"DIS_CODE":0,"TOWNNAME":"北區","LI":"國興里","LIN":"8鄰","STREET":"南園街","SECT":" ","MAREA":" ","LANE":"１０１巷","ALLEY":"２１弄","HOUSE_NO":"５６號","E_COORD97":170732.76000000001,"N_COORD97":2545478.4500000002,"ADDRESS":"南園街１０１巷２１弄５６號","OBJECTID":34764},"geometry":{"x":170732.76000000071,"y":2545478.450000003}},{"attributes":{"ID":34765,"DIS_CODE":0,"TOWNNAME":"官田區","LI":"社子里","LIN":"7鄰","STREET":" ","SECT":" ","MAREA":"社子","LANE":" ","ALLEY":" ","HOUSE_NO":"５０號之３","E_COORD97":184477.95000000001,"N_COORD97":2564424.71,"ADDRESS":"社子５０號之３","OBJECTID":34765},"geometry":{"x":184477.95000000112,"y":2564424.7100000028}},{"attributes":{"ID":34766,"DIS_CODE":0,"TOWNNAME":"北區","LI":"國興里","LIN":"8鄰","STREET":"南園街","SECT":" ","MAREA":" ","LANE":"１０１巷","ALLEY":"２１弄","HOUSE_NO":"５８號","E_COORD97":170735.20999999999,"N_COORD97":2545481.5,"ADDRESS":"南園街１０１巷２１弄５８號","OBJECTID":34766},"geometry":{"x":170735.20999999996,"y":2545481.5}},{"attributes":{"ID":34767,"DIS_CODE":0,"TOWNNAME":"北區","LI":"國興里","LIN":"8鄰","STREET":"南園街","SECT":" ","MAREA":" ","LANE":"１０１巷","ALLEY":"２１弄","HOUSE_NO":"５號","E_COORD97":170628.10999999999,"N_COORD97":2545444.6400000001,"ADDRESS":"南園街１０１巷２１弄５號","OBJECTID":34767},"geometry":{"x":170628.11000000034,"y":2545444.6400000043}},{"attributes":{"ID":34768,"DIS_CODE":0,"TOWNNAME":"北區","LI":"國興里","LIN":"8鄰","STREET":"南園街","SECT":" ","MAREA":" ","LANE":"１０１巷","ALLEY":"２１弄","HOUSE_NO":"６號","E_COORD97":170654.01999999999,"N_COORD97":2545423.73,"ADDRESS":"南園街１０１巷２１弄６號","OBJECTID":34768},"geometry":{"x":170654.02000000048,"y":2545423.7300000023}},{"attributes":{"ID":34769,"DIS_CODE":0,"TOWNNAME":"北區","LI":"國興里","LIN":"8鄰","STREET":"南園街","SECT":" ","MAREA":" ","LANE":"１０１巷","ALLEY":"２１弄","HOUSE_NO":"７號","E_COORD97":170634.84,"N_COORD97":2545437.2999999998,"ADDRESS":"南園街１０１巷２１弄７號","OBJECTID":34769},"geometry":{"x":170634.83999999892,"y":2545437.3000000026}},{"attributes":{"ID":34770,"DIS_CODE":0,"TOWNNAME":"北區","LI":"國興里","LIN":"8鄰","STREET":"南園街","SECT":" ","MAREA":" ","LANE":"１０１巷","ALLEY":"２１弄","HOUSE_NO":"８號","E_COORD97":170657.48999999999,"N_COORD97":2545425.77,"ADDRESS":"南園街１０１巷２１弄８號","OBJECTID":34770},"geometry":{"x":170657.49000000022,"y":2545425.7700000033}},{"attributes":{"ID":34771,"DIS_CODE":0,"TOWNNAME":"北區","LI":"國興里","LIN":"8鄰","STREET":"南園街","SECT":" ","MAREA":" ","LANE":"１０１巷","ALLEY":"２１弄","HOUSE_NO":"９號","E_COORD97":170638.31,"N_COORD97":2545439.75,"ADDRESS":"南園街１０１巷２１弄９號","OBJECTID":34771},"geometry":{"x":170638.31000000145,"y":2545439.7500000037}},{"attributes":{"ID":34772,"DIS_CODE":0,"TOWNNAME":"北區","LI":"勝安里","LIN":"8鄰","STREET":"開元路","SECT":" ","MAREA":" ","LANE":"７３巷","ALLEY":"４１弄","HOUSE_NO":"４號之１０","E_COORD97":169843.85999999999,"N_COORD97":2545449.4300000002,"ADDRESS":"開元路７３巷４１弄４號之１０","OBJECTID":34772},"geometry":{"x":169843.86000000127,"y":2545449.4300000016}},{"attributes":{"ID":34773,"DIS_CODE":0,"TOWNNAME":"北區","LI":"勝安里","LIN":"8鄰","STREET":"開元路","SECT":" ","MAREA":" ","LANE":"７３巷","ALLEY":"４１弄","HOUSE_NO":"４號之１２","E_COORD97":169843.39000000001,"N_COORD97":2545453.8399999999,"ADDRESS":"開元路７３巷４１弄４號之１２","OBJECTID":34773},"geometry":{"x":169843.3900000006,"y":2545453.8400000017}},{"attributes":{"ID":34774,"DIS_CODE":0,"TOWNNAME":"北區","LI":"勝安里","LIN":"8鄰","STREET":"開元路","SECT":" ","MAREA":" ","LANE":"７３巷","ALLEY":"４１弄","HOUSE_NO":"４號之１４","E_COORD97":169843.07000000001,"N_COORD97":2545457.6200000001,"ADDRESS":"開元路７３巷４１弄４號之１４","OBJECTID":34774},"geometry":{"x":169843.0700000003,"y":2545457.620000001}},{"attributes":{"ID":34775,"DIS_CODE":0,"TOWNNAME":"北區","LI":"勝安里","LIN":"8鄰","STREET":"開元路","SECT":" ","MAREA":" ","LANE":"７３巷","ALLEY":"４１弄","HOUSE_NO":"４號之２","E_COORD97":169845.91,"N_COORD97":2545431.77,"ADDRESS":"開元路７３巷４１弄４號之２","OBJECTID":34775},"geometry":{"x":169845.91000000015,"y":2545431.7699999996}},{"attributes":{"ID":34776,"DIS_CODE":0,"TOWNNAME":"北區","LI":"勝安里","LIN":"8鄰","STREET":"開元路","SECT":" ","MAREA":" ","LANE":"７３巷","ALLEY":"４１弄","HOUSE_NO":"４號之４","E_COORD97":169845.44,"N_COORD97":2545436.9700000002,"ADDRESS":"開元路７３巷４１弄４號之４","OBJECTID":34776},"geometry":{"x":169845.44000000134,"y":2545436.9700000025}},{"attributes":{"ID":34777,"DIS_CODE":0,"TOWNNAME":"北區","LI":"勝安里","LIN":"8鄰","STREET":"開元路","SECT":" ","MAREA":" ","LANE":"７３巷","ALLEY":"４１弄","HOUSE_NO":"４號之６","E_COORD97":169844.48999999999,"N_COORD97":2545441.7000000002,"ADDRESS":"開元路７３巷４１弄４號之６","OBJECTID":34777},"geometry":{"x":169844.49000000209,"y":2545441.6999999993}},{"attributes":{"ID":34778,"DIS_CODE":0,"TOWNNAME":"北區","LI":"勝安里","LIN":"8鄰","STREET":"開元路","SECT":" ","MAREA":" ","LANE":"７３巷","ALLEY":"４１弄","HOUSE_NO":"４號之８","E_COORD97":169844.48999999999,"N_COORD97":2545445.4900000002,"ADDRESS":"開元路７３巷４１弄４號之８","OBJECTID":34778},"geometry":{"x":169844.49000000209,"y":2545445.4900000021}},{"attributes":{"ID":34779,"DIS_CODE":0,"TOWNNAME":"新營區","LI":"南紙里","LIN":"24鄰","STREET":"建業路","SECT":" ","MAREA":" ","LANE":"２６９巷","ALLEY":"２０弄","HOUSE_NO":"６號","E_COORD97":177946.26999999999,"N_COORD97":2577421.9500000002,"ADDRESS":"建業路２６９巷２０弄６號","OBJECTID":34779},"geometry":{"x":177946.26999999955,"y":2577421.9499999993}},{"attributes":{"ID":34780,"DIS_CODE":0,"TOWNNAME":"歸仁區","LI":"沙崙里","LIN":"10鄰","STREET":" ","SECT":" ","MAREA":"沙崙","LANE":" ","ALLEY":" ","HOUSE_NO":"４１８號","E_COORD97":180504.28,"N_COORD97":2537977.25,"ADDRESS":"沙崙４１８號","OBJECTID":34780},"geometry":{"x":180504.28000000119,"y":2537977.2499999981}},{"attributes":{"ID":34781,"DIS_CODE":0,"TOWNNAME":"官田區","LI":"社子里","LIN":"7鄰","STREET":" ","SECT":" ","MAREA":"社子","LANE":" ","ALLEY":" ","HOUSE_NO":"５０號","E_COORD97":184459.51000000001,"N_COORD97":2564415.75,"ADDRESS":"社子５０號","OBJECTID":34781},"geometry":{"x":184459.50999999978,"y":2564415.7500000037}},{"attributes":{"ID":34782,"DIS_CODE":0,"TOWNNAME":"官田區","LI":"社子里","LIN":"7鄰","STREET":" ","SECT":" ","MAREA":"社子","LANE":" ","ALLEY":" ","HOUSE_NO":"５１號","E_COORD97":184432.23000000001,"N_COORD97":2564412.9500000002,"ADDRESS":"社子５１號","OBJECTID":34782},"geometry":{"x":184432.23000000138,"y":2564412.9499999993}},{"attributes":{"ID":34783,"DIS_CODE":0,"TOWNNAME":"官田區","LI":"社子里","LIN":"7鄰","STREET":" ","SECT":" ","MAREA":"社子","LANE":" ","ALLEY":" ","HOUSE_NO":"５２號","E_COORD97":184413.88,"N_COORD97":2564426.8300000001,"ADDRESS":"社子５２號","OBJECTID":34783},"geometry":{"x":184413.88000000082,"y":2564426.8300000019}},{"attributes":{"ID":34784,"DIS_CODE":0,"TOWNNAME":"官田區","LI":"社子里","LIN":"7鄰","STREET":" ","SECT":" ","MAREA":"社子","LANE":" ","ALLEY":" ","HOUSE_NO":"５３號","E_COORD97":184419.42000000001,"N_COORD97":2564409.8999999999,"ADDRESS":"社子５３號","OBJECTID":34784},"geometry":{"x":184419.41999999993,"y":2564409.9000000022}},{"attributes":{"ID":34785,"DIS_CODE":0,"TOWNNAME":"官田區","LI":"社子里","LIN":"7鄰","STREET":" ","SECT":" ","MAREA":"社子","LANE":" ","ALLEY":" ","HOUSE_NO":"５４號","E_COORD97":184404.56,"N_COORD97":2564405.7799999998,"ADDRESS":"社子５４號","OBJECTID":34785},"geometry":{"x":184404.55999999959,"y":2564405.7800000012}},{"attributes":{"ID":34786,"DIS_CODE":0,"TOWNNAME":"官田區","LI":"社子里","LIN":"7鄰","STREET":" ","SECT":" ","MAREA":"社子","LANE":" ","ALLEY":" ","HOUSE_NO":"５５號","E_COORD97":184390.42999999999,"N_COORD97":2564407.9300000002,"ADDRESS":"社子５５號","OBJECTID":34786},"geometry":{"x":184390.4299999997,"y":2564407.9300000016}},{"attributes":{"ID":34787,"DIS_CODE":0,"TOWNNAME":"官田區","LI":"社子里","LIN":"7鄰","STREET":" ","SECT":" ","MAREA":"社子","LANE":" ","ALLEY":" ","HOUSE_NO":"５６號","E_COORD97":184376.64000000001,"N_COORD97":2564413.1499999999,"ADDRESS":"社子５６號","OBJECTID":34787},"geometry":{"x":184376.63999999966,"y":2564413.1499999985}},{"attributes":{"ID":34788,"DIS_CODE":0,"TOWNNAME":"官田區","LI":"社子里","LIN":"7鄰","STREET":" ","SECT":" ","MAREA":"社子","LANE":" ","ALLEY":" ","HOUSE_NO":"５７號","E_COORD97":184362.47,"N_COORD97":2564418.9199999999,"ADDRESS":"社子５７號","OBJECTID":34788},"geometry":{"x":184362.46999999974,"y":2564418.9200000018}},{"attributes":{"ID":34789,"DIS_CODE":0,"TOWNNAME":"北區","LI":"勝安里","LIN":"8鄰","STREET":"開元路","SECT":" ","MAREA":" ","LANE":"７３巷","ALLEY":"７４弄","HOUSE_NO":"１０號","E_COORD97":169912.32999999999,"N_COORD97":2545403.5,"ADDRESS":"開元路７３巷７４弄１０號","OBJECTID":34789},"geometry":{"x":169912.33000000007,"y":2545403.5}},{"attributes":{"ID":34790,"DIS_CODE":0,"TOWNNAME":"北區","LI":"勝安里","LIN":"8鄰","STREET":"開元路","SECT":" ","MAREA":" ","LANE":"７３巷","ALLEY":"７４弄","HOUSE_NO":"１２號","E_COORD97":169916.75,"N_COORD97":2545404.2799999998,"ADDRESS":"開元路７３巷７４弄１２號","OBJECTID":34790},"geometry":{"x":169916.75,"y":2545404.2799999993}},{"attributes":{"ID":34791,"DIS_CODE":0,"TOWNNAME":"北區","LI":"勝安里","LIN":"8鄰","STREET":"開元路","SECT":" ","MAREA":" ","LANE":"７３巷","ALLEY":"７４弄","HOUSE_NO":"１４號","E_COORD97":169921.48000000001,"N_COORD97":2545405.0699999998,"ADDRESS":"開元路７３巷７４弄１４號","OBJECTID":34791},"geometry":{"x":169921.48000000138,"y":2545405.0700000022}},{"attributes":{"ID":34792,"DIS_CODE":0,"TOWNNAME":"北區","LI":"勝安里","LIN":"8鄰","STREET":"開元路","SECT":" ","MAREA":" ","LANE":"７３巷","ALLEY":"７４弄","HOUSE_NO":"１６號","E_COORD97":169926.06,"N_COORD97":2545404.9100000001,"ADDRESS":"開元路７３巷７４弄１６號","OBJECTID":34792},"geometry":{"x":169926.05999999959,"y":2545404.9100000039}},{"attributes":{"ID":34793,"DIS_CODE":0,"TOWNNAME":"北區","LI":"勝安里","LIN":"8鄰","STREET":"開元路","SECT":" ","MAREA":" ","LANE":"７３巷","ALLEY":"７４弄","HOUSE_NO":"１８號","E_COORD97":169930.32000000001,"N_COORD97":2545405.54,"ADDRESS":"開元路７３巷７４弄１８號","OBJECTID":34793},"geometry":{"x":169930.32000000216,"y":2545405.5399999991}},{"attributes":{"ID":34794,"DIS_CODE":0,"TOWNNAME":"北區","LI":"勝安里","LIN":"8鄰","STREET":"開元路","SECT":" ","MAREA":" ","LANE":"７３巷","ALLEY":"７４弄","HOUSE_NO":"２０號","E_COORD97":169934.73999999999,"N_COORD97":2545406.1699999999,"ADDRESS":"開元路７３巷７４弄２０號","OBJECTID":34794},"geometry":{"x":169934.74000000115,"y":2545406.1700000037}},{"attributes":{"ID":34795,"DIS_CODE":0,"TOWNNAME":"北區","LI":"勝安里","LIN":"8鄰","STREET":"開元路","SECT":" ","MAREA":" ","LANE":"７３巷","ALLEY":"７４弄","HOUSE_NO":"２２號","E_COORD97":169939.31,"N_COORD97":2545406.96,"ADDRESS":"開元路７３巷７４弄２２號","OBJECTID":34795},"geometry":{"x":169939.30999999959,"y":2545406.9600000028}},{"attributes":{"ID":34796,"DIS_CODE":0,"TOWNNAME":"北區","LI":"勝安里","LIN":"8鄰","STREET":"開元路","SECT":" ","MAREA":" ","LANE":"７３巷","ALLEY":"７４弄","HOUSE_NO":"２４號","E_COORD97":169947.82999999999,"N_COORD97":2545408.3799999999,"ADDRESS":"開元路７３巷７４弄２４號","OBJECTID":34796},"geometry":{"x":169947.83000000101,"y":2545408.3800000008}},{"attributes":{"ID":34797,"DIS_CODE":0,"TOWNNAME":"北區","LI":"勝安里","LIN":"8鄰","STREET":"開元路","SECT":" ","MAREA":" ","LANE":"７３巷","ALLEY":"７４弄","HOUSE_NO":"２６號","E_COORD97":169948.31,"N_COORD97":2545404.2799999998,"ADDRESS":"開元路７３巷７４弄２６號","OBJECTID":34797},"geometry":{"x":169948.31000000145,"y":2545404.2799999993}},{"attributes":{"ID":34798,"DIS_CODE":0,"TOWNNAME":"官田區","LI":"社子里","LIN":"7鄰","STREET":" ","SECT":" ","MAREA":"社子","LANE":" ","ALLEY":" ","HOUSE_NO":"５８號","E_COORD97":184420.31,"N_COORD97":2564383.5800000001,"ADDRESS":"社子５８號","OBJECTID":34798},"geometry":{"x":184420.31000000052,"y":2564383.5800000019}},{"attributes":{"ID":34799,"DIS_CODE":0,"TOWNNAME":"北區","LI":"勝安里","LIN":"8鄰","STREET":"開元路","SECT":" ","MAREA":" ","LANE":"７３巷","ALLEY":"７４弄","HOUSE_NO":"２號","E_COORD97":169894.19,"N_COORD97":2545400.6600000001,"ADDRESS":"開元路７３巷７４弄２號","OBJECTID":34799},"geometry":{"x":169894.19000000227,"y":2545400.660000002}},{"attributes":{"ID":34800,"DIS_CODE":0,"TOWNNAME":"北區","LI":"勝安里","LIN":"8鄰","STREET":"開元路","SECT":" ","MAREA":" ","LANE":"７３巷","ALLEY":"７４弄","HOUSE_NO":"４號","E_COORD97":169898.76000000001,"N_COORD97":2545401.7599999998,"ADDRESS":"開元路７３巷７４弄４號","OBJECTID":34800},"geometry":{"x":169898.76000000071,"y":2545401.7599999998}}]}