{"displayFieldName":"TOWNNAME","fieldAliases":{"ID":"ID","DIS_CODE":"DIS_CODE","TOWNNAME":"TOWNNAME","LI":"LI","LIN":"LIN","STREET":"STREET","SECT":"SECT","MAREA":"MAREA","LANE":"LANE","ALLEY":"ALLEY","HOUSE_NO":"HOUSE_NO","E_COORD97":"E_COORD97","N_COORD97":"N_COORD97","ADDRESS":"ADDRESS","OBJECTID":"OBJECTID"},"geometryType":"esriGeometryPoint","spatialReference":{"wkid":102443,"latestWkid":3826},"fields":[{"name":"ID","type":"esriFieldTypeDouble","alias":"ID"},{"name":"DIS_CODE","type":"esriFieldTypeInteger","alias":"DIS_CODE"},{"name":"TOWNNAME","type":"esriFieldTypeString","alias":"TOWNNAME","length":8},{"name":"LI","type":"esriFieldTypeString","alias":"LI","length":8},{"name":"LIN","type":"esriFieldTypeString","alias":"LIN","length":12},{"name":"STREET","type":"esriFieldTypeString","alias":"STREET","length":20},{"name":"SECT","type":"esriFieldTypeString","alias":"SECT","length":8},{"name":"MAREA","type":"esriFieldTypeString","alias":"MAREA","length":12},{"name":"LANE","type":"esriFieldTypeString","alias":"LANE","length":10},{"name":"ALLEY","type":"esriFieldTypeString","alias":"ALLEY","length":10},{"name":"HOUSE_NO","type":"esriFieldTypeString","alias":"HOUSE_NO","length":20},{"name":"E_COORD97","type":"esriFieldTypeDouble","alias":"E_COORD97"},{"name":"N_COORD97","type":"esriFieldTypeDouble","alias":"N_COORD97"},{"name":"ADDRESS","type":"esriFieldTypeString","alias":"ADDRESS","length":50},{"name":"OBJECTID","type":"esriFieldTypeOID","alias":"OBJECTID"}],"features":[{"attributes":{"ID":141001,"DIS_CODE":0,"TOWNNAME":"南區","LI":"大忠里","LIN":"22鄰","STREET":"中華南路","SECT":"一段","MAREA":" ","LANE":"１２５巷","ALLEY":"３２弄","HOUSE_NO":"１３號","E_COORD97":169159.19,"N_COORD97":2541113.77,"ADDRESS":"中華南路一段１２５巷３２弄１３號","OBJECTID":141001},"geometry":{"x":169159.19000000134,"y":2541113.7700000014}},{"attributes":{"ID":141002,"DIS_CODE":0,"TOWNNAME":"南區","LI":"大忠里","LIN":"22鄰","STREET":"中華南路","SECT":"一段","MAREA":" ","LANE":"１２５巷","ALLEY":"３２弄","HOUSE_NO":"１５號","E_COORD97":169153.29999999999,"N_COORD97":2541112.1699999999,"ADDRESS":"中華南路一段１２５巷３２弄１５號","OBJECTID":141002},"geometry":{"x":169153.29999999981,"y":2541112.1700000018}},{"attributes":{"ID":141003,"DIS_CODE":0,"TOWNNAME":"永康區","LI":"西灣里","LIN":"33鄰","STREET":"公園路","SECT":" ","MAREA":" ","LANE":" ","ALLEY":" ","HOUSE_NO":"１４５號","E_COORD97":174104.70000000001,"N_COORD97":2545926.4199999999,"ADDRESS":"公園路１４５號","OBJECTID":141003},"geometry":{"x":174104.70000000205,"y":2545926.4199999999}},{"attributes":{"ID":141004,"DIS_CODE":0,"TOWNNAME":"永康區","LI":"北灣里","LIN":"33鄰","STREET":"大灣路","SECT":" ","MAREA":" ","LANE":" ","ALLEY":" ","HOUSE_NO":"６９號","E_COORD97":175233.12,"N_COORD97":2545717.5600000001,"ADDRESS":"大灣路６９號","OBJECTID":141004},"geometry":{"x":175233.12000000104,"y":2545717.5600000024}},{"attributes":{"ID":141005,"DIS_CODE":0,"TOWNNAME":"南區","LI":"大忠里","LIN":"22鄰","STREET":"中華南路","SECT":"一段","MAREA":" ","LANE":"１２５巷","ALLEY":"３２弄","HOUSE_NO":"１６號","E_COORD97":169173.22,"N_COORD97":2541145.4300000002,"ADDRESS":"中華南路一段１２５巷３２弄１６號","OBJECTID":141005},"geometry":{"x":169173.22000000067,"y":2541145.4299999997}},{"attributes":{"ID":141006,"DIS_CODE":0,"TOWNNAME":"南區","LI":"大忠里","LIN":"22鄰","STREET":"中華南路","SECT":"一段","MAREA":" ","LANE":"１２５巷","ALLEY":"３２弄","HOUSE_NO":"１７號","E_COORD97":169145.79999999999,"N_COORD97":2541110.04,"ADDRESS":"中華南路一段１２５巷３２弄１７號","OBJECTID":141006},"geometry":{"x":169145.80000000075,"y":2541110.0399999991}},{"attributes":{"ID":141007,"DIS_CODE":0,"TOWNNAME":"南區","LI":"大忠里","LIN":"22鄰","STREET":"中華南路","SECT":"一段","MAREA":" ","LANE":"１２５巷","ALLEY":"３２弄","HOUSE_NO":"１８號","E_COORD97":169169.14999999999,"N_COORD97":2541144.4900000002,"ADDRESS":"中華南路一段１２５巷３２弄１８號","OBJECTID":141007},"geometry":{"x":169169.1500000013,"y":2541144.4900000002}},{"attributes":{"ID":141008,"DIS_CODE":0,"TOWNNAME":"南區","LI":"大忠里","LIN":"22鄰","STREET":"中華南路","SECT":"一段","MAREA":" ","LANE":"１２５巷","ALLEY":"３２弄","HOUSE_NO":"２０號","E_COORD97":169165.39000000001,"N_COORD97":2541141.9900000002,"ADDRESS":"中華南路一段１２５巷３２弄２０號","OBJECTID":141008},"geometry":{"x":169165.3900000006,"y":2541141.9900000002}},{"attributes":{"ID":141009,"DIS_CODE":0,"TOWNNAME":"南區","LI":"大忠里","LIN":"22鄰","STREET":"中華南路","SECT":"一段","MAREA":" ","LANE":"１２５巷","ALLEY":"３２弄","HOUSE_NO":"２２號","E_COORD97":169161.94,"N_COORD97":2541140.7400000002,"ADDRESS":"中華南路一段１２５巷３２弄２２號","OBJECTID":141009},"geometry":{"x":169161.94000000134,"y":2541140.7400000002}},{"attributes":{"ID":141010,"DIS_CODE":0,"TOWNNAME":"南區","LI":"大忠里","LIN":"22鄰","STREET":"中華南路","SECT":"一段","MAREA":" ","LANE":"１２５巷","ALLEY":"３２弄","HOUSE_NO":"２４號","E_COORD97":169158.17999999999,"N_COORD97":2541138.5600000001,"ADDRESS":"中華南路一段１２５巷３２弄２４號","OBJECTID":141010},"geometry":{"x":169158.18000000063,"y":2541138.5600000005}},{"attributes":{"ID":141011,"DIS_CODE":0,"TOWNNAME":"南區","LI":"大忠里","LIN":"22鄰","STREET":"中華南路","SECT":"一段","MAREA":" ","LANE":"１２５巷","ALLEY":"３２弄","HOUSE_NO":"２６號","E_COORD97":169154.73000000001,"N_COORD97":2541137.6200000001,"ADDRESS":"中華南路一段１２５巷３２弄２６號","OBJECTID":141011},"geometry":{"x":169154.73000000231,"y":2541137.6200000029}},{"attributes":{"ID":141012,"DIS_CODE":0,"TOWNNAME":"佳里區","LI":"鎮山里","LIN":"22鄰","STREET":"鎮山街","SECT":" ","MAREA":" ","LANE":"８５巷","ALLEY":"２１弄","HOUSE_NO":"１５號","E_COORD97":166381.98000000001,"N_COORD97":2561151.5600000001,"ADDRESS":"鎮山街８５巷２１弄１５號","OBJECTID":141012},"geometry":{"x":166381.98000000138,"y":2561151.5600000005}},{"attributes":{"ID":141013,"DIS_CODE":0,"TOWNNAME":"南區","LI":"大忠里","LIN":"22鄰","STREET":"中華南路","SECT":"一段","MAREA":" ","LANE":"１２５巷","ALLEY":"３２弄","HOUSE_NO":"５號","E_COORD97":169180.62,"N_COORD97":2541119.6499999999,"ADDRESS":"中華南路一段１２５巷３２弄５號","OBJECTID":141013},"geometry":{"x":169180.62000000197,"y":2541119.6500000022}},{"attributes":{"ID":141014,"DIS_CODE":0,"TOWNNAME":"安南區","LI":"海東里","LIN":"22鄰","STREET":"同安路","SECT":" ","MAREA":" ","LANE":"１７巷","ALLEY":"１弄","HOUSE_NO":"５號","E_COORD97":166819.22,"N_COORD97":2548886.1000000001,"ADDRESS":"同安路１７巷１弄５號","OBJECTID":141014},"geometry":{"x":166819.21999999974,"y":2548886.1000000015}},{"attributes":{"ID":141015,"DIS_CODE":0,"TOWNNAME":"南區","LI":"大忠里","LIN":"22鄰","STREET":"中華南路","SECT":"一段","MAREA":" ","LANE":"１７５巷","ALLEY":"２５弄","HOUSE_NO":"１０號","E_COORD97":169192.48999999999,"N_COORD97":2541086.0499999998,"ADDRESS":"中華南路一段１７５巷２５弄１０號","OBJECTID":141015},"geometry":{"x":169192.49000000115,"y":2541086.0500000026}},{"attributes":{"ID":141016,"DIS_CODE":0,"TOWNNAME":"仁德區","LI":"仁愛里","LIN":"28鄰","STREET":"大同路","SECT":"三段","MAREA":" ","LANE":"３５８巷","ALLEY":" ","HOUSE_NO":"５６號","E_COORD97":169717.65700000001,"N_COORD97":2539424.0699999998,"ADDRESS":"大同路三段３５８巷５６號","OBJECTID":141016},"geometry":{"x":169717.65700000059,"y":2539424.0700000022}},{"attributes":{"ID":141017,"DIS_CODE":0,"TOWNNAME":"官田區","LI":"渡頭里","LIN":"33鄰","STREET":" ","SECT":" ","MAREA":"三塊厝","LANE":" ","ALLEY":" ","HOUSE_NO":"３２１號","E_COORD97":184304.39000000001,"N_COORD97":2562176.5,"ADDRESS":"三塊厝３２１號","OBJECTID":141017},"geometry":{"x":184304.39000000153,"y":2562176.5000000037}},{"attributes":{"ID":141018,"DIS_CODE":0,"TOWNNAME":"官田區","LI":"渡頭里","LIN":"33鄰","STREET":" ","SECT":" ","MAREA":"三塊厝","LANE":" ","ALLEY":" ","HOUSE_NO":"３２２號","E_COORD97":184293.47,"N_COORD97":2562172.7599999998,"ADDRESS":"三塊厝３２２號","OBJECTID":141018},"geometry":{"x":184293.46999999974,"y":2562172.7599999998}},{"attributes":{"ID":141019,"DIS_CODE":0,"TOWNNAME":"官田區","LI":"渡頭里","LIN":"33鄰","STREET":" ","SECT":" ","MAREA":"三塊厝","LANE":" ","ALLEY":" ","HOUSE_NO":"３２７號","E_COORD97":184281.26999999999,"N_COORD97":2562158.8999999999,"ADDRESS":"三塊厝３２７號","OBJECTID":141019},"geometry":{"x":184281.26999999862,"y":2562158.9000000004}},{"attributes":{"ID":141020,"DIS_CODE":0,"TOWNNAME":"南區","LI":"大忠里","LIN":"22鄰","STREET":"中華南路","SECT":"一段","MAREA":" ","LANE":"１７５巷","ALLEY":"２５弄","HOUSE_NO":"１１號","E_COORD97":169176.07000000001,"N_COORD97":2541103.6299999999,"ADDRESS":"中華南路一段１７５巷２５弄１１號","OBJECTID":141020},"geometry":{"x":169176.07000000216,"y":2541103.6300000008}},{"attributes":{"ID":141021,"DIS_CODE":0,"TOWNNAME":"左鎮區","LI":"睦光里","LIN":" ","STREET":" ","SECT":" ","MAREA":"睦光","LANE":" ","ALLEY":" ","HOUSE_NO":"５４之２號","E_COORD97":190494.84,"N_COORD97":2550084.2999999998,"ADDRESS":"睦光５４之２號","OBJECTID":141021},"geometry":{"x":190494.84000000078,"y":2550084.3000000007}},{"attributes":{"ID":141022,"DIS_CODE":0,"TOWNNAME":"左鎮區","LI":"睦光里","LIN":" ","STREET":" ","SECT":" ","MAREA":"睦光","LANE":" ","ALLEY":" ","HOUSE_NO":"６３號","E_COORD97":190551.44,"N_COORD97":2550034.25,"ADDRESS":"睦光６３號","OBJECTID":141022},"geometry":{"x":190551.44000000041,"y":2550034.2500000019}},{"attributes":{"ID":141023,"DIS_CODE":0,"TOWNNAME":"南區","LI":"大忠里","LIN":"22鄰","STREET":"中華南路","SECT":"一段","MAREA":" ","LANE":"１７５巷","ALLEY":"２５弄","HOUSE_NO":"１３號","E_COORD97":169180.89000000001,"N_COORD97":2541105.5,"ADDRESS":"中華南路一段１７５巷２５弄１３號","OBJECTID":141023},"geometry":{"x":169180.88999999966,"y":2541105.5000000019}},{"attributes":{"ID":141024,"DIS_CODE":0,"TOWNNAME":"南區","LI":"大忠里","LIN":"22鄰","STREET":"中華南路","SECT":"一段","MAREA":" ","LANE":"１７５巷","ALLEY":"２５弄","HOUSE_NO":"１５號","E_COORD97":169186.23999999999,"N_COORD97":2541107.1000000001,"ADDRESS":"中華南路一段１７５巷２５弄１５號","OBJECTID":141024},"geometry":{"x":169186.24000000022,"y":2541107.0999999996}},{"attributes":{"ID":141025,"DIS_CODE":0,"TOWNNAME":"永康區","LI":"北灣里","LIN":"33鄰","STREET":"大灣路","SECT":" ","MAREA":" ","LANE":" ","ALLEY":" ","HOUSE_NO":"６３號","E_COORD97":175241.5,"N_COORD97":2545730.8300000001,"ADDRESS":"大灣路６３號","OBJECTID":141025},"geometry":{"x":175241.50000000186,"y":2545730.8300000038}},{"attributes":{"ID":141026,"DIS_CODE":0,"TOWNNAME":"南區","LI":"大忠里","LIN":"22鄰","STREET":"中華南路","SECT":"一段","MAREA":" ","LANE":"１７５巷","ALLEY":"２５弄","HOUSE_NO":"１號","E_COORD97":169149.82000000001,"N_COORD97":2541095.3500000001,"ADDRESS":"中華南路一段１７５巷２５弄１號","OBJECTID":141026},"geometry":{"x":169149.8200000003,"y":2541095.3499999978}},{"attributes":{"ID":141027,"DIS_CODE":0,"TOWNNAME":"永康區","LI":"光復里","LIN":"22鄰","STREET":"復興路","SECT":" ","MAREA":" ","LANE":"１２８巷","ALLEY":"１弄","HOUSE_NO":"４號","E_COORD97":172684.07999999999,"N_COORD97":2544380.6200000001,"ADDRESS":"復興路１２８巷１弄４號","OBJECTID":141027},"geometry":{"x":172684.08000000007,"y":2544380.6200000048}},{"attributes":{"ID":141028,"DIS_CODE":0,"TOWNNAME":"永康區","LI":"光復里","LIN":"22鄰","STREET":"復興路","SECT":" ","MAREA":" ","LANE":"１２８巷","ALLEY":"１弄","HOUSE_NO":"８號","E_COORD97":172664.88,"N_COORD97":2544380.8700000001,"ADDRESS":"復興路１２８巷１弄８號","OBJECTID":141028},"geometry":{"x":172664.87999999989,"y":2544380.870000001}},{"attributes":{"ID":141029,"DIS_CODE":0,"TOWNNAME":"永康區","LI":"北灣里","LIN":"33鄰","STREET":"大灣路","SECT":" ","MAREA":" ","LANE":" ","ALLEY":" ","HOUSE_NO":"５３之１號","E_COORD97":175281.89999999999,"N_COORD97":2545802.77,"ADDRESS":"大灣路５３之１號","OBJECTID":141029},"geometry":{"x":175281.9000000013,"y":2545802.7700000014}},{"attributes":{"ID":141030,"DIS_CODE":0,"TOWNNAME":"永康區","LI":"北灣里","LIN":"33鄰","STREET":"大灣路","SECT":" ","MAREA":" ","LANE":" ","ALLEY":" ","HOUSE_NO":"６１號","E_COORD97":175243.69,"N_COORD97":2545735.0099999998,"ADDRESS":"大灣路６１號","OBJECTID":141030},"geometry":{"x":175243.69000000041,"y":2545735.0099999998}},{"attributes":{"ID":141031,"DIS_CODE":0,"TOWNNAME":"永康區","LI":"安康里","LIN":"22鄰","STREET":"中華西街","SECT":" ","MAREA":" ","LANE":"１２２巷","ALLEY":"９弄","HOUSE_NO":"３號","E_COORD97":170748.09,"N_COORD97":2546190.4900000002,"ADDRESS":"中華西街１２２巷９弄３號","OBJECTID":141031},"geometry":{"x":170748.08999999985,"y":2546190.4900000002}},{"attributes":{"ID":141032,"DIS_CODE":0,"TOWNNAME":"永康區","LI":"安康里","LIN":"22鄰","STREET":"中華西街","SECT":" ","MAREA":" ","LANE":"１２２巷","ALLEY":"９弄","HOUSE_NO":"１２號","E_COORD97":170726.87,"N_COORD97":2546188.9900000002,"ADDRESS":"中華西街１２２巷９弄１２號","OBJECTID":141032},"geometry":{"x":170726.87000000104,"y":2546188.9900000021}},{"attributes":{"ID":141033,"DIS_CODE":0,"TOWNNAME":"永康區","LI":"安康里","LIN":"22鄰","STREET":"中華西街","SECT":" ","MAREA":" ","LANE":"１２２巷","ALLEY":"９弄","HOUSE_NO":"１號","E_COORD97":170752.44,"N_COORD97":2546192.9900000002,"ADDRESS":"中華西街１２２巷９弄１號","OBJECTID":141033},"geometry":{"x":170752.44000000134,"y":2546192.9900000002}},{"attributes":{"ID":141034,"DIS_CODE":0,"TOWNNAME":"永康區","LI":"安康里","LIN":"22鄰","STREET":"中華西街","SECT":" ","MAREA":" ","LANE":"１２２巷","ALLEY":"９弄","HOUSE_NO":"９號","E_COORD97":170735.23000000001,"N_COORD97":2546182.7400000002,"ADDRESS":"中華西街１２２巷９弄９號","OBJECTID":141034},"geometry":{"x":170735.23000000138,"y":2546182.7400000039}},{"attributes":{"ID":141035,"DIS_CODE":0,"TOWNNAME":"永康區","LI":"成功里","LIN":"22鄰","STREET":"忠孝路","SECT":" ","MAREA":" ","LANE":"１８１巷","ALLEY":"６１弄","HOUSE_NO":"８５號","E_COORD97":171802.47,"N_COORD97":2544678,"ADDRESS":"忠孝路１８１巷６１弄８５號","OBJECTID":141035},"geometry":{"x":171802.47000000067,"y":2544678}},{"attributes":{"ID":141036,"DIS_CODE":0,"TOWNNAME":"永康區","LI":"安康里","LIN":"22鄰","STREET":"中華西街","SECT":" ","MAREA":" ","LANE":"１２２巷","ALLEY":"９弄","HOUSE_NO":"２號","E_COORD97":170747.45000000001,"N_COORD97":2546201.5,"ADDRESS":"中華西街１２２巷９弄２號","OBJECTID":141036},"geometry":{"x":170747.45000000019,"y":2546201.5000000019}},{"attributes":{"ID":141037,"DIS_CODE":0,"TOWNNAME":"佳里區","LI":"安西里","LIN":"33鄰","STREET":"安西路","SECT":" ","MAREA":" ","LANE":" ","ALLEY":" ","HOUSE_NO":"２２９號","E_COORD97":165112.57000000001,"N_COORD97":2562752.71,"ADDRESS":"安西路２２９號","OBJECTID":141037},"geometry":{"x":165112.56999999937,"y":2562752.7100000028}},{"attributes":{"ID":141038,"DIS_CODE":0,"TOWNNAME":"佳里區","LI":"安西里","LIN":"33鄰","STREET":"安西路","SECT":" ","MAREA":" ","LANE":" ","ALLEY":" ","HOUSE_NO":"２３１號","E_COORD97":165110.25,"N_COORD97":2562764.0299999998,"ADDRESS":"安西路２３１號","OBJECTID":141038},"geometry":{"x":165110.25000000093,"y":2562764.0299999993}},{"attributes":{"ID":141039,"DIS_CODE":0,"TOWNNAME":"佳里區","LI":"安西里","LIN":"33鄰","STREET":"安西路","SECT":" ","MAREA":" ","LANE":" ","ALLEY":" ","HOUSE_NO":"２４７號","E_COORD97":165112.12,"N_COORD97":2562803.8399999999,"ADDRESS":"安西路２４７號","OBJECTID":141039},"geometry":{"x":165112.12000000197,"y":2562803.8399999999}},{"attributes":{"ID":141040,"DIS_CODE":0,"TOWNNAME":"南化區","LI":"北寮里","LIN":" ","STREET":" ","SECT":" ","MAREA":"北寮","LANE":" ","ALLEY":" ","HOUSE_NO":"１之５３號","E_COORD97":198293.89000000001,"N_COORD97":2552683.7999999998,"ADDRESS":"北寮１之５３號","OBJECTID":141040},"geometry":{"x":198293.8900000006,"y":2552683.8000000007}},{"attributes":{"ID":141041,"DIS_CODE":0,"TOWNNAME":"南化區","LI":"南化里","LIN":" ","STREET":" ","SECT":" ","MAREA":"南化","LANE":" ","ALLEY":" ","HOUSE_NO":"３２之８號","E_COORD97":195850.39000000001,"N_COORD97":2549369.7999999998,"ADDRESS":"南化３２之８號","OBJECTID":141041},"geometry":{"x":195850.39000000153,"y":2549369.8000000045}},{"attributes":{"ID":141042,"DIS_CODE":0,"TOWNNAME":"南化區","LI":"南化里","LIN":" ","STREET":" ","SECT":" ","MAREA":"南化","LANE":" ","ALLEY":" ","HOUSE_NO":"３２之２９號","E_COORD97":195799.23999999999,"N_COORD97":2549371.7999999998,"ADDRESS":"南化３２之２９號","OBJECTID":141042},"geometry":{"x":195799.24000000022,"y":2549371.8000000007}},{"attributes":{"ID":141043,"DIS_CODE":0,"TOWNNAME":"南化區","LI":"南化里","LIN":" ","STREET":" ","SECT":" ","MAREA":"南化","LANE":" ","ALLEY":" ","HOUSE_NO":"２５４之６號","E_COORD97":196591.73999999999,"N_COORD97":2549300.7999999998,"ADDRESS":"南化２５４之６號","OBJECTID":141043},"geometry":{"x":196591.74000000115,"y":2549300.8000000007}},{"attributes":{"ID":141044,"DIS_CODE":0,"TOWNNAME":"南化區","LI":"小崙里","LIN":" ","STREET":" ","SECT":" ","MAREA":"小崙","LANE":" ","ALLEY":" ","HOUSE_NO":"１之４號","E_COORD97":196750.51999999999,"N_COORD97":2549489.7999999998,"ADDRESS":"小崙１之４號","OBJECTID":141044},"geometry":{"x":196750.51999999955,"y":2549489.8000000026}},{"attributes":{"ID":141045,"DIS_CODE":0,"TOWNNAME":"南化區","LI":"中坑里","LIN":" ","STREET":" ","SECT":" ","MAREA":"中坑","LANE":" ","ALLEY":" ","HOUSE_NO":"５９號","E_COORD97":193498.16,"N_COORD97":2550607.7799999998,"ADDRESS":"中坑５９號","OBJECTID":141045},"geometry":{"x":193498.16000000108,"y":2550607.7799999993}},{"attributes":{"ID":141046,"DIS_CODE":0,"TOWNNAME":"左鎮區","LI":"光和里","LIN":" ","STREET":" ","SECT":" ","MAREA":"光和","LANE":" ","ALLEY":" ","HOUSE_NO":"５之２號","E_COORD97":186118.48999999999,"N_COORD97":2552550.2999999998,"ADDRESS":"光和５之２號","OBJECTID":141046},"geometry":{"x":186118.49000000115,"y":2552550.3000000026}},{"attributes":{"ID":141047,"DIS_CODE":0,"TOWNNAME":"左鎮區","LI":"中正里","LIN":" ","STREET":" ","SECT":" ","MAREA":"中正","LANE":" ","ALLEY":" ","HOUSE_NO":"１６４之３號","E_COORD97":189476.01000000001,"N_COORD97":2550698.2999999998,"ADDRESS":"中正１６４之３號","OBJECTID":141047},"geometry":{"x":189476.01000000071,"y":2550698.3000000007}},{"attributes":{"ID":141048,"DIS_CODE":0,"TOWNNAME":"左鎮區","LI":"榮和里","LIN":" ","STREET":" ","SECT":" ","MAREA":"菜寮","LANE":" ","ALLEY":" ","HOUSE_NO":"７之１號","E_COORD97":186793.59,"N_COORD97":2551600.2999999998,"ADDRESS":"菜寮７之１號","OBJECTID":141048},"geometry":{"x":186793.59000000171,"y":2551600.2999999989}},{"attributes":{"ID":141049,"DIS_CODE":0,"TOWNNAME":"左鎮區","LI":"榮和里","LIN":" ","STREET":" ","SECT":" ","MAREA":"菜寮","LANE":" ","ALLEY":" ","HOUSE_NO":"６３之２６號","E_COORD97":187723.09,"N_COORD97":2551066.2999999998,"ADDRESS":"菜寮６３之２６號","OBJECTID":141049},"geometry":{"x":187723.09000000078,"y":2551066.3000000026}},{"attributes":{"ID":141050,"DIS_CODE":0,"TOWNNAME":"中西區","LI":"光賢里","LIN":"22鄰","STREET":"中華西路","SECT":"二段","MAREA":" ","LANE":"６４６巷","ALLEY":"２０弄","HOUSE_NO":"１號","E_COORD97":166708.51000000001,"N_COORD97":2545118.6499999999,"ADDRESS":"中華西路二段６４６巷２０弄１號","OBJECTID":141050},"geometry":{"x":166708.51000000071,"y":2545118.6500000041}},{"attributes":{"ID":141051,"DIS_CODE":0,"TOWNNAME":"中西區","LI":"光賢里","LIN":"22鄰","STREET":"中華西路","SECT":"二段","MAREA":" ","LANE":"６４６巷","ALLEY":"２０弄","HOUSE_NO":"３號","E_COORD97":166713.59,"N_COORD97":2545119.29,"ADDRESS":"中華西路二段６４６巷２０弄３號","OBJECTID":141051},"geometry":{"x":166713.58999999985,"y":2545119.2899999991}},{"attributes":{"ID":141052,"DIS_CODE":0,"TOWNNAME":"中西區","LI":"光賢里","LIN":"22鄰","STREET":"中華西路","SECT":"二段","MAREA":" ","LANE":"６４６巷","ALLEY":"２０弄","HOUSE_NO":"５號","E_COORD97":166719.94,"N_COORD97":2545119.6099999999,"ADDRESS":"中華西路二段６４６巷２０弄５號","OBJECTID":141052},"geometry":{"x":166719.94000000041,"y":2545119.6100000013}},{"attributes":{"ID":141053,"DIS_CODE":0,"TOWNNAME":"中西區","LI":"光賢里","LIN":"22鄰","STREET":"中華西路","SECT":"二段","MAREA":" ","LANE":"６４６巷","ALLEY":"２０弄","HOUSE_NO":"７號","E_COORD97":166725.64999999999,"N_COORD97":2545120.2400000002,"ADDRESS":"中華西路二段６４６巷２０弄７號","OBJECTID":141053},"geometry":{"x":166725.65000000037,"y":2545120.2400000002}},{"attributes":{"ID":141054,"DIS_CODE":0,"TOWNNAME":"中西區","LI":"光賢里","LIN":"22鄰","STREET":"中華西路","SECT":"二段","MAREA":" ","LANE":"６４６巷","ALLEY":"２０弄","HOUSE_NO":"９號","E_COORD97":166727.56,"N_COORD97":2545103.73,"ADDRESS":"中華西路二段６４６巷２０弄９號","OBJECTID":141054},"geometry":{"x":166727.56000000145,"y":2545103.7300000004}},{"attributes":{"ID":141055,"DIS_CODE":0,"TOWNNAME":"中西區","LI":"光賢里","LIN":"22鄰","STREET":"中華西路","SECT":"二段","MAREA":" ","LANE":"６４６巷","ALLEY":"２０弄","HOUSE_NO":"１１號","E_COORD97":166721.53,"N_COORD97":2545103.0600000001,"ADDRESS":"中華西路二段６４６巷２０弄１１號","OBJECTID":141055},"geometry":{"x":166721.52999999933,"y":2545103.0600000024}},{"attributes":{"ID":141056,"DIS_CODE":0,"TOWNNAME":"永康區","LI":"正強里","LIN":"33鄰","STREET":"埔園街","SECT":" ","MAREA":" ","LANE":" ","ALLEY":" ","HOUSE_NO":"３９０號","E_COORD97":173339.85999999999,"N_COORD97":2548156.71,"ADDRESS":"埔園街３９０號","OBJECTID":141056},"geometry":{"x":173339.86000000127,"y":2548156.7100000046}},{"attributes":{"ID":141057,"DIS_CODE":0,"TOWNNAME":"永康區","LI":"正強里","LIN":"33鄰","STREET":"埔園街","SECT":" ","MAREA":" ","LANE":" ","ALLEY":" ","HOUSE_NO":"４２０號","E_COORD97":173280.64999999999,"N_COORD97":2548138.77,"ADDRESS":"埔園街４２０號","OBJECTID":141057},"geometry":{"x":173280.65000000037,"y":2548138.7700000014}},{"attributes":{"ID":141058,"DIS_CODE":0,"TOWNNAME":"中西區","LI":"光賢里","LIN":"22鄰","STREET":"中華西路","SECT":"二段","MAREA":" ","LANE":"６４６巷","ALLEY":"２０弄","HOUSE_NO":"１３號","E_COORD97":166716.45000000001,"N_COORD97":2545102.46,"ADDRESS":"中華西路二段６４６巷２０弄１３號","OBJECTID":141058},"geometry":{"x":166716.45000000019,"y":2545102.4600000009}},{"attributes":{"ID":141059,"DIS_CODE":0,"TOWNNAME":"永康區","LI":"永康里","LIN":"33鄰","STREET":"永大路","SECT":"二段","MAREA":" ","LANE":" ","ALLEY":" ","HOUSE_NO":"１３４２號","E_COORD97":174301.53,"N_COORD97":2546956.5299999998,"ADDRESS":"永大路二段１３４２號","OBJECTID":141059},"geometry":{"x":174301.53000000119,"y":2546956.5300000012}},{"attributes":{"ID":141060,"DIS_CODE":0,"TOWNNAME":"永康區","LI":"永康里","LIN":"33鄰","STREET":"永大路","SECT":"二段","MAREA":" ","LANE":" ","ALLEY":" ","HOUSE_NO":"１３８０號","E_COORD97":174292.35999999999,"N_COORD97":2547026.1099999999,"ADDRESS":"永大路二段１３８０號","OBJECTID":141060},"geometry":{"x":174292.36000000127,"y":2547026.1099999994}},{"attributes":{"ID":141061,"DIS_CODE":0,"TOWNNAME":"永康區","LI":"正強里","LIN":"33鄰","STREET":"埔園街","SECT":" ","MAREA":" ","LANE":" ","ALLEY":" ","HOUSE_NO":"４２８號","E_COORD97":173268.26000000001,"N_COORD97":2548134.7200000002,"ADDRESS":"埔園街４２８號","OBJECTID":141061},"geometry":{"x":173268.26000000071,"y":2548134.7200000007}},{"attributes":{"ID":141062,"DIS_CODE":0,"TOWNNAME":"永康區","LI":"正強里","LIN":"33鄰","STREET":"埔園街","SECT":" ","MAREA":" ","LANE":" ","ALLEY":" ","HOUSE_NO":"３１１號","E_COORD97":173367.23999999999,"N_COORD97":2548147.9900000002,"ADDRESS":"埔園街３１１號","OBJECTID":141062},"geometry":{"x":173367.24000000115,"y":2548147.9900000021}},{"attributes":{"ID":141063,"DIS_CODE":0,"TOWNNAME":"永康區","LI":"永康里","LIN":"33鄰","STREET":"永大路","SECT":"二段","MAREA":" ","LANE":" ","ALLEY":" ","HOUSE_NO":"１３７６號","E_COORD97":174293.85999999999,"N_COORD97":2547016.8500000001,"ADDRESS":"永大路二段１３７６號","OBJECTID":141063},"geometry":{"x":174293.86000000127,"y":2547016.8500000015}},{"attributes":{"ID":141064,"DIS_CODE":0,"TOWNNAME":"左鎮區","LI":"內庄里","LIN":" ","STREET":" ","SECT":" ","MAREA":"內庄","LANE":" ","ALLEY":" ","HOUSE_NO":"６７之１號","E_COORD97":191167.82999999999,"N_COORD97":2549351.2999999998,"ADDRESS":"內庄６７之１號","OBJECTID":141064},"geometry":{"x":191167.83000000101,"y":2549351.3000000007}},{"attributes":{"ID":141065,"DIS_CODE":0,"TOWNNAME":"永康區","LI":"永康里","LIN":"33鄰","STREET":"永大路","SECT":"二段","MAREA":" ","LANE":" ","ALLEY":" ","HOUSE_NO":"１３４０號","E_COORD97":174302.57000000001,"N_COORD97":2546950.2799999998,"ADDRESS":"永大路二段１３４０號","OBJECTID":141065},"geometry":{"x":174302.57000000123,"y":2546950.2799999993}},{"attributes":{"ID":141066,"DIS_CODE":0,"TOWNNAME":"永康區","LI":"正強里","LIN":"33鄰","STREET":"埔園街","SECT":" ","MAREA":" ","LANE":" ","ALLEY":" ","HOUSE_NO":"４１６號","E_COORD97":173288.01999999999,"N_COORD97":2548141.27,"ADDRESS":"埔園街４１６號","OBJECTID":141066},"geometry":{"x":173288.01999999862,"y":2548141.2700000033}},{"attributes":{"ID":141067,"DIS_CODE":0,"TOWNNAME":"永康區","LI":"北灣里","LIN":"33鄰","STREET":"大灣路","SECT":" ","MAREA":" ","LANE":" ","ALLEY":" ","HOUSE_NO":"７１號","E_COORD97":175222.85999999999,"N_COORD97":2545697.8100000001,"ADDRESS":"大灣路７１號","OBJECTID":141067},"geometry":{"x":175222.86000000127,"y":2545697.8100000042}},{"attributes":{"ID":141068,"DIS_CODE":0,"TOWNNAME":"左鎮區","LI":"中正里","LIN":" ","STREET":" ","SECT":" ","MAREA":"中正","LANE":" ","ALLEY":" ","HOUSE_NO":"１２９之３號","E_COORD97":189310.01000000001,"N_COORD97":2550797.2999999998,"ADDRESS":"中正１２９之３號","OBJECTID":141068},"geometry":{"x":189310.01000000071,"y":2550797.3000000026}},{"attributes":{"ID":141069,"DIS_CODE":0,"TOWNNAME":"左鎮區","LI":"睦光里","LIN":" ","STREET":" ","SECT":" ","MAREA":"睦光","LANE":" ","ALLEY":" ","HOUSE_NO":"５４之１號","E_COORD97":190497.14000000001,"N_COORD97":2550083.2999999998,"ADDRESS":"睦光５４之１號","OBJECTID":141069},"geometry":{"x":190497.1400000006,"y":2550083.3000000026}},{"attributes":{"ID":141070,"DIS_CODE":0,"TOWNNAME":"左鎮區","LI":"岡林里","LIN":" ","STREET":" ","SECT":" ","MAREA":"岡林","LANE":" ","ALLEY":" ","HOUSE_NO":"４７之１號","E_COORD97":190254.06,"N_COORD97":2545678.29,"ADDRESS":"岡林４７之１號","OBJECTID":141070},"geometry":{"x":190254.06000000052,"y":2545678.2899999991}},{"attributes":{"ID":141071,"DIS_CODE":0,"TOWNNAME":"左鎮區","LI":"榮和里","LIN":" ","STREET":" ","SECT":" ","MAREA":"菜寮","LANE":" ","ALLEY":" ","HOUSE_NO":"４２號","E_COORD97":186885.94,"N_COORD97":2550920.25,"ADDRESS":"菜寮４２號","OBJECTID":141071},"geometry":{"x":186885.94000000041,"y":2550920.2500000019}},{"attributes":{"ID":141072,"DIS_CODE":0,"TOWNNAME":"左鎮區","LI":"中正里","LIN":" ","STREET":" ","SECT":" ","MAREA":"中正","LANE":" ","ALLEY":" ","HOUSE_NO":"７８之２號","E_COORD97":189400.06,"N_COORD97":2550949.2999999998,"ADDRESS":"中正７８之２號","OBJECTID":141072},"geometry":{"x":189400.05999999959,"y":2550949.2999999989}},{"attributes":{"ID":141073,"DIS_CODE":0,"TOWNNAME":"左鎮區","LI":"內庄里","LIN":" ","STREET":" ","SECT":" ","MAREA":"內庄","LANE":" ","ALLEY":" ","HOUSE_NO":"７２號","E_COORD97":191640.63,"N_COORD97":2549203.25,"ADDRESS":"內庄７２號","OBJECTID":141073},"geometry":{"x":191640.63000000082,"y":2549203.2500000037}},{"attributes":{"ID":141074,"DIS_CODE":0,"TOWNNAME":"左鎮區","LI":"榮和里","LIN":" ","STREET":" ","SECT":" ","MAREA":"菜寮","LANE":" ","ALLEY":" ","HOUSE_NO":"１９之２號","E_COORD97":187083.34,"N_COORD97":2551567.2999999998,"ADDRESS":"菜寮１９之２號","OBJECTID":141074},"geometry":{"x":187083.34000000171,"y":2551567.3000000026}},{"attributes":{"ID":141075,"DIS_CODE":0,"TOWNNAME":"左鎮區","LI":"中正里","LIN":" ","STREET":" ","SECT":" ","MAREA":"中正","LANE":" ","ALLEY":" ","HOUSE_NO":"１７０之４號","E_COORD97":189520.20999999999,"N_COORD97":2550672.2999999998,"ADDRESS":"中正１７０之４號","OBJECTID":141075},"geometry":{"x":189520.20999999996,"y":2550672.3000000026}},{"attributes":{"ID":141076,"DIS_CODE":0,"TOWNNAME":"左鎮區","LI":"中正里","LIN":" ","STREET":" ","SECT":" ","MAREA":"中正","LANE":" ","ALLEY":" ","HOUSE_NO":"１３５號","E_COORD97":189306.01000000001,"N_COORD97":2550859.25,"ADDRESS":"中正１３５號","OBJECTID":141076},"geometry":{"x":189306.00999999978,"y":2550859.2500000019}},{"attributes":{"ID":141077,"DIS_CODE":0,"TOWNNAME":"左鎮區","LI":"中正里","LIN":" ","STREET":" ","SECT":" ","MAREA":"中正","LANE":" ","ALLEY":" ","HOUSE_NO":"１０１號","E_COORD97":189275.60999999999,"N_COORD97":2550889.25,"ADDRESS":"中正１０１號","OBJECTID":141077},"geometry":{"x":189275.6100000022,"y":2550889.2500000019}},{"attributes":{"ID":141078,"DIS_CODE":0,"TOWNNAME":"左鎮區","LI":"中正里","LIN":" ","STREET":" ","SECT":" ","MAREA":"中正","LANE":" ","ALLEY":" ","HOUSE_NO":"１５０之４號","E_COORD97":189382.51000000001,"N_COORD97":2550904.2999999998,"ADDRESS":"中正１５０之４號","OBJECTID":141078},"geometry":{"x":189382.51000000164,"y":2550904.3000000007}},{"attributes":{"ID":141079,"DIS_CODE":0,"TOWNNAME":"左鎮區","LI":"中正里","LIN":" ","STREET":" ","SECT":" ","MAREA":"中正","LANE":" ","ALLEY":" ","HOUSE_NO":"１００號","E_COORD97":189276.70999999999,"N_COORD97":2550884.25,"ADDRESS":"中正１００號","OBJECTID":141079},"geometry":{"x":189276.71000000089,"y":2550884.25}},{"attributes":{"ID":141080,"DIS_CODE":0,"TOWNNAME":"左鎮區","LI":"中正里","LIN":" ","STREET":" ","SECT":" ","MAREA":"中正","LANE":" ","ALLEY":" ","HOUSE_NO":"１７１之３號","E_COORD97":189371.31,"N_COORD97":2550687.2999999998,"ADDRESS":"中正１７１之３號","OBJECTID":141080},"geometry":{"x":189371.30999999959,"y":2550687.3000000007}},{"attributes":{"ID":141081,"DIS_CODE":0,"TOWNNAME":"左鎮區","LI":"中正里","LIN":" ","STREET":" ","SECT":" ","MAREA":"中正","LANE":" ","ALLEY":" ","HOUSE_NO":"１０２號","E_COORD97":189274.31,"N_COORD97":2550893.25,"ADDRESS":"中正１０２號","OBJECTID":141081},"geometry":{"x":189274.31000000052,"y":2550893.25}},{"attributes":{"ID":141082,"DIS_CODE":0,"TOWNNAME":"左鎮區","LI":"左鎮里","LIN":"5鄰","STREET":" ","SECT":" ","MAREA":"左鎮","LANE":" ","ALLEY":" ","HOUSE_NO":"４１之５號","E_COORD97":189441.17000000001,"N_COORD97":2549550.2999999998,"ADDRESS":"左鎮４１之５號","OBJECTID":141082},"geometry":{"x":189441.17000000086,"y":2549550.3000000026}},{"attributes":{"ID":141083,"DIS_CODE":0,"TOWNNAME":"南化區","LI":"南化里","LIN":"3鄰","STREET":" ","SECT":" ","MAREA":"南化","LANE":" ","ALLEY":" ","HOUSE_NO":"３２之２４號","E_COORD97":195827.73999999999,"N_COORD97":2549369.7999999998,"ADDRESS":"南化３２之２４號","OBJECTID":141083},"geometry":{"x":195827.74000000022,"y":2549369.8000000045}},{"attributes":{"ID":141084,"DIS_CODE":0,"TOWNNAME":"鹽水區","LI":"福得里","LIN":"5鄰","STREET":" ","SECT":" ","MAREA":"後厝","LANE":" ","ALLEY":" ","HOUSE_NO":"８４號","E_COORD97":175396.39999999999,"N_COORD97":2579805.8799999999,"ADDRESS":"後厝８４號","OBJECTID":141084},"geometry":{"x":175396.40000000037,"y":2579805.8800000027}},{"attributes":{"ID":141085,"DIS_CODE":0,"TOWNNAME":"左鎮區","LI":"中正里","LIN":" ","STREET":" ","SECT":" ","MAREA":"中正","LANE":" ","ALLEY":" ","HOUSE_NO":"１６２之５號","E_COORD97":189491.20999999999,"N_COORD97":2550845.2999999998,"ADDRESS":"中正１６２之５號","OBJECTID":141085},"geometry":{"x":189491.20999999996,"y":2550845.3000000026}},{"attributes":{"ID":141086,"DIS_CODE":0,"TOWNNAME":"左鎮區","LI":"中正里","LIN":" ","STREET":" ","SECT":" ","MAREA":"中正","LANE":" ","ALLEY":" ","HOUSE_NO":"１２２號","E_COORD97":189270.41,"N_COORD97":2550845.25,"ADDRESS":"中正１２２號","OBJECTID":141086},"geometry":{"x":189270.41000000108,"y":2550845.2500000019}},{"attributes":{"ID":141087,"DIS_CODE":0,"TOWNNAME":"左鎮區","LI":"中正里","LIN":" ","STREET":" ","SECT":" ","MAREA":"中正","LANE":" ","ALLEY":" ","HOUSE_NO":"１１０號","E_COORD97":189269.20999999999,"N_COORD97":2550886.25,"ADDRESS":"中正１１０號","OBJECTID":141087},"geometry":{"x":189269.20999999996,"y":2550886.2500000019}},{"attributes":{"ID":141088,"DIS_CODE":0,"TOWNNAME":"左鎮區","LI":"中正里","LIN":" ","STREET":" ","SECT":" ","MAREA":"中正","LANE":" ","ALLEY":" ","HOUSE_NO":"１３７號","E_COORD97":189324.01000000001,"N_COORD97":2550869.25,"ADDRESS":"中正１３７號","OBJECTID":141088},"geometry":{"x":189324.01000000071,"y":2550869.2500000019}},{"attributes":{"ID":141089,"DIS_CODE":0,"TOWNNAME":"左鎮區","LI":"二寮里","LIN":" ","STREET":" ","SECT":" ","MAREA":"二寮","LANE":" ","ALLEY":" ","HOUSE_NO":"６０號","E_COORD97":188307.04000000001,"N_COORD97":2544911.25,"ADDRESS":"二寮６０號","OBJECTID":141089},"geometry":{"x":188307.04000000004,"y":2544911.2500000019}},{"attributes":{"ID":141090,"DIS_CODE":0,"TOWNNAME":"左鎮區","LI":"中正里","LIN":" ","STREET":" ","SECT":" ","MAREA":"中正","LANE":" ","ALLEY":" ","HOUSE_NO":"９１號","E_COORD97":189353.16,"N_COORD97":2550904.25,"ADDRESS":"中正９１號","OBJECTID":141090},"geometry":{"x":189353.16000000201,"y":2550904.25}},{"attributes":{"ID":141091,"DIS_CODE":0,"TOWNNAME":"左鎮區","LI":"中正里","LIN":" ","STREET":" ","SECT":" ","MAREA":"中正","LANE":" ","ALLEY":" ","HOUSE_NO":"１００之３號","E_COORD97":189298.60999999999,"N_COORD97":2550873.2999999998,"ADDRESS":"中正１００之３號","OBJECTID":141091},"geometry":{"x":189298.61000000034,"y":2550873.3000000007}},{"attributes":{"ID":141092,"DIS_CODE":0,"TOWNNAME":"左鎮區","LI":"榮和里","LIN":" ","STREET":" ","SECT":" ","MAREA":"菜寮","LANE":" ","ALLEY":" ","HOUSE_NO":"６３之１２號","E_COORD97":187722.79000000001,"N_COORD97":2551079.2999999998,"ADDRESS":"菜寮６３之１２號","OBJECTID":141092},"geometry":{"x":187722.79000000004,"y":2551079.3000000026}},{"attributes":{"ID":141093,"DIS_CODE":0,"TOWNNAME":"左鎮區","LI":"睦光里","LIN":" ","STREET":" ","SECT":" ","MAREA":"睦光","LANE":" ","ALLEY":" ","HOUSE_NO":"５０號","E_COORD97":190488.23999999999,"N_COORD97":2550112.25,"ADDRESS":"睦光５０號","OBJECTID":141093},"geometry":{"x":190488.24000000022,"y":2550112.2500000019}},{"attributes":{"ID":141094,"DIS_CODE":0,"TOWNNAME":"左鎮區","LI":"左鎮里","LIN":" ","STREET":" ","SECT":" ","MAREA":"左鎮","LANE":" ","ALLEY":" ","HOUSE_NO":"２８號","E_COORD97":189506.97,"N_COORD97":2549518.25,"ADDRESS":"左鎮２８號","OBJECTID":141094},"geometry":{"x":189506.97000000067,"y":2549518.2500000037}},{"attributes":{"ID":141095,"DIS_CODE":0,"TOWNNAME":"中西區","LI":"光賢里","LIN":"22鄰","STREET":"中華西路","SECT":"二段","MAREA":" ","LANE":"６４６巷","ALLEY":"２０弄","HOUSE_NO":"１５號","E_COORD97":166710.41,"N_COORD97":2545101.5099999998,"ADDRESS":"中華西路二段６４６巷２０弄１５號","OBJECTID":141095},"geometry":{"x":166710.41000000201,"y":2545101.5099999998}},{"attributes":{"ID":141096,"DIS_CODE":0,"TOWNNAME":"中西區","LI":"光賢里","LIN":"22鄰","STREET":"中華西路","SECT":"二段","MAREA":" ","LANE":"６４６巷","ALLEY":"２０弄","HOUSE_NO":"３１號","E_COORD97":166714.73000000001,"N_COORD97":2545072.3900000001,"ADDRESS":"中華西路二段６４６巷２０弄３１號","OBJECTID":141096},"geometry":{"x":166714.73000000045,"y":2545072.3900000006}},{"attributes":{"ID":141097,"DIS_CODE":0,"TOWNNAME":"中西區","LI":"光賢里","LIN":"22鄰","STREET":"中華西路","SECT":"二段","MAREA":" ","LANE":"６４６巷","ALLEY":"２０弄","HOUSE_NO":"１７號","E_COORD97":166712.64000000001,"N_COORD97":2545088.8100000001,"ADDRESS":"中華西路二段６４６巷２０弄１７號","OBJECTID":141097},"geometry":{"x":166712.63999999966,"y":2545088.8100000024}},{"attributes":{"ID":141098,"DIS_CODE":0,"TOWNNAME":"中西區","LI":"光賢里","LIN":"22鄰","STREET":"中華西路","SECT":"二段","MAREA":" ","LANE":"６４６巷","ALLEY":"２０弄","HOUSE_NO":"１９號","E_COORD97":166718.10000000001,"N_COORD97":2545089.8599999999,"ADDRESS":"中華西路二段６４６巷２０弄１９號","OBJECTID":141098},"geometry":{"x":166718.09999999963,"y":2545089.8600000013}},{"attributes":{"ID":141099,"DIS_CODE":0,"TOWNNAME":"中西區","LI":"光賢里","LIN":"22鄰","STREET":"中華西路","SECT":"二段","MAREA":" ","LANE":"６４６巷","ALLEY":"２０弄","HOUSE_NO":"２５號","E_COORD97":166731.10000000001,"N_COORD97":2545074.3399999999,"ADDRESS":"中華西路二段６４６巷２０弄２５號","OBJECTID":141099},"geometry":{"x":166731.10000000056,"y":2545074.3400000017}},{"attributes":{"ID":141100,"DIS_CODE":0,"TOWNNAME":"中西區","LI":"光賢里","LIN":"22鄰","STREET":"中華西路","SECT":"二段","MAREA":" ","LANE":"６４６巷","ALLEY":"２０弄","HOUSE_NO":"２７號","E_COORD97":166725.67000000001,"N_COORD97":2545073.6699999999,"ADDRESS":"中華西路二段６４６巷２０弄２７號","OBJECTID":141100},"geometry":{"x":166725.67000000086,"y":2545073.6699999999}},{"attributes":{"ID":141101,"DIS_CODE":0,"TOWNNAME":"中西區","LI":"光賢里","LIN":"22鄰","STREET":"中華西路","SECT":"二段","MAREA":" ","LANE":"６４６巷","ALLEY":"２０弄","HOUSE_NO":"２９號","E_COORD97":166720.26000000001,"N_COORD97":2545072.9700000002,"ADDRESS":"中華西路二段６４６巷２０弄２９號","OBJECTID":141101},"geometry":{"x":166720.26000000071,"y":2545072.9700000044}},{"attributes":{"ID":141102,"DIS_CODE":0,"TOWNNAME":"安南區","LI":"安順里","LIN":"22鄰","STREET":"總安街","SECT":"一段","MAREA":" ","LANE":"１４６巷","ALLEY":"１３弄","HOUSE_NO":"１１號","E_COORD97":169553.91,"N_COORD97":2550261.98,"ADDRESS":"總安街一段１４６巷１３弄１１號","OBJECTID":141102},"geometry":{"x":169553.91000000108,"y":2550261.9800000004}},{"attributes":{"ID":141103,"DIS_CODE":0,"TOWNNAME":"安南區","LI":"安順里","LIN":"22鄰","STREET":"總安街","SECT":"一段","MAREA":" ","LANE":"１４６巷","ALLEY":"１３弄","HOUSE_NO":"３號","E_COORD97":169571.66,"N_COORD97":2550260.0600000001,"ADDRESS":"總安街一段１４６巷１３弄３號","OBJECTID":141103},"geometry":{"x":169571.66000000015,"y":2550260.0600000024}},{"attributes":{"ID":141104,"DIS_CODE":0,"TOWNNAME":"安南區","LI":"安順里","LIN":"22鄰","STREET":"總安街","SECT":"一段","MAREA":" ","LANE":"１４６巷","ALLEY":"１３弄","HOUSE_NO":"５號","E_COORD97":169567.01999999999,"N_COORD97":2550261.02,"ADDRESS":"總安街一段１４６巷１３弄５號","OBJECTID":141104},"geometry":{"x":169567.01999999862,"y":2550261.0199999996}},{"attributes":{"ID":141105,"DIS_CODE":0,"TOWNNAME":"安南區","LI":"安順里","LIN":"22鄰","STREET":"總安街","SECT":"一段","MAREA":" ","LANE":"１４６巷","ALLEY":"１３弄","HOUSE_NO":"７號","E_COORD97":169562.70000000001,"N_COORD97":2550261.1800000002,"ADDRESS":"總安街一段１４６巷１３弄７號","OBJECTID":141105},"geometry":{"x":169562.70000000019,"y":2550261.1800000034}},{"attributes":{"ID":141106,"DIS_CODE":0,"TOWNNAME":"東區","LI":"衛國里","LIN":"22鄰","STREET":"林森路","SECT":"二段","MAREA":" ","LANE":"１９０巷","ALLEY":"６弄","HOUSE_NO":"４２之１號","E_COORD97":170496.85999999999,"N_COORD97":2543232.6600000001,"ADDRESS":"林森路二段１９０巷６弄４２之１號","OBJECTID":141106},"geometry":{"x":170496.86000000127,"y":2543232.6600000001}},{"attributes":{"ID":141107,"DIS_CODE":0,"TOWNNAME":"仁德區","LI":"二行里","LIN":"22鄰","STREET":"行大街","SECT":" ","MAREA":" ","LANE":"５６巷","ALLEY":"３弄","HOUSE_NO":"１８號","E_COORD97":170195.95000000001,"N_COORD97":2535267.5,"ADDRESS":"行大街５６巷３弄１８號","OBJECTID":141107},"geometry":{"x":170195.95000000112,"y":2535267.5000000019}},{"attributes":{"ID":141108,"DIS_CODE":0,"TOWNNAME":"仁德區","LI":"二行里","LIN":"22鄰","STREET":"行大街","SECT":" ","MAREA":" ","LANE":"５６巷","ALLEY":"３弄","HOUSE_NO":"２９號","E_COORD97":170166.35000000001,"N_COORD97":2535265.5,"ADDRESS":"行大街５６巷３弄２９號","OBJECTID":141108},"geometry":{"x":170166.34999999963,"y":2535265.5}},{"attributes":{"ID":141109,"DIS_CODE":0,"TOWNNAME":"左鎮區","LI":"中正里","LIN":" ","STREET":" ","SECT":" ","MAREA":"中正","LANE":" ","ALLEY":" ","HOUSE_NO":"１１號","E_COORD97":188986.16,"N_COORD97":2550544.25,"ADDRESS":"中正１１號","OBJECTID":141109},"geometry":{"x":188986.16000000015,"y":2550544.25}},{"attributes":{"ID":141110,"DIS_CODE":0,"TOWNNAME":"楠西區","LI":"鹿田里","LIN":" ","STREET":" ","SECT":" ","MAREA":"鹿陶祥","LANE":" ","ALLEY":" ","HOUSE_NO":"１０４號","E_COORD97":197706.87,"N_COORD97":2561822.25,"ADDRESS":"鹿陶祥１０４號","OBJECTID":141110},"geometry":{"x":197706.87000000011,"y":2561822.2500000037}},{"attributes":{"ID":141111,"DIS_CODE":0,"TOWNNAME":"楠西區","LI":"鹿田里","LIN":" ","STREET":" ","SECT":" ","MAREA":"鹿陶祥","LANE":" ","ALLEY":" ","HOUSE_NO":"７３號","E_COORD97":197795.42000000001,"N_COORD97":2561625.25,"ADDRESS":"鹿陶祥７３號","OBJECTID":141111},"geometry":{"x":197795.42000000086,"y":2561625.2499999981}},{"attributes":{"ID":141112,"DIS_CODE":0,"TOWNNAME":"仁德區","LI":"二行里","LIN":"22鄰","STREET":"行大街","SECT":" ","MAREA":" ","LANE":"５６巷","ALLEY":"３弄","HOUSE_NO":"１１號","E_COORD97":170200.39000000001,"N_COORD97":2535229.25,"ADDRESS":"行大街５６巷３弄１１號","OBJECTID":141112},"geometry":{"x":170200.39000000153,"y":2535229.2500000019}},{"attributes":{"ID":141113,"DIS_CODE":0,"TOWNNAME":"仁德區","LI":"仁義里","LIN":"22鄰","STREET":"中山路","SECT":" ","MAREA":" ","LANE":"３９６巷","ALLEY":"７弄","HOUSE_NO":"１１號","E_COORD97":173761.51000000001,"N_COORD97":2541330,"ADDRESS":"中山路３９６巷７弄１１號","OBJECTID":141113},"geometry":{"x":173761.51000000071,"y":2541330.0000000019}},{"attributes":{"ID":141114,"DIS_CODE":0,"TOWNNAME":"仁德區","LI":"仁德里","LIN":"22鄰","STREET":"中山路","SECT":" ","MAREA":" ","LANE":"８７５巷","ALLEY":"８８弄","HOUSE_NO":"１２號","E_COORD97":172315.56,"N_COORD97":2541300.9700000002,"ADDRESS":"中山路８７５巷８８弄１２號","OBJECTID":141114},"geometry":{"x":172315.56000000052,"y":2541300.9700000025}},{"attributes":{"ID":141115,"DIS_CODE":0,"TOWNNAME":"南區","LI":"明德里","LIN":" ","STREET":"大成路","SECT":"一段","MAREA":" ","LANE":" ","ALLEY":" ","HOUSE_NO":"８７號","E_COORD97":168015.10999999999,"N_COORD97":2541726.2000000002,"ADDRESS":"大成路一段８７號","OBJECTID":141115},"geometry":{"x":168015.11000000127,"y":2541726.1999999993}},{"attributes":{"ID":141116,"DIS_CODE":0,"TOWNNAME":"仁德區","LI":"上崙里","LIN":"22鄰","STREET":"德崙路","SECT":" ","MAREA":" ","LANE":"１９６巷","ALLEY":"２１弄","HOUSE_NO":"１７號","E_COORD97":173664.07000000001,"N_COORD97":2538221.8999999999,"ADDRESS":"德崙路１９６巷２１弄１７號","OBJECTID":141116},"geometry":{"x":173664.0700000003,"y":2538221.9000000022}},{"attributes":{"ID":141117,"DIS_CODE":0,"TOWNNAME":"仁德區","LI":"二行里","LIN":"22鄰","STREET":"行大街","SECT":" ","MAREA":" ","LANE":"５６巷","ALLEY":"３弄","HOUSE_NO":"５３號","E_COORD97":170169.67999999999,"N_COORD97":2535279.9900000002,"ADDRESS":"行大街５６巷３弄５３號","OBJECTID":141117},"geometry":{"x":170169.68000000156,"y":2535279.9900000002}},{"attributes":{"ID":141118,"DIS_CODE":0,"TOWNNAME":"仁德區","LI":"上崙里","LIN":"22鄰","STREET":"德崙路","SECT":" ","MAREA":" ","LANE":"１９６巷","ALLEY":"２１弄","HOUSE_NO":"１０號","E_COORD97":173619.03,"N_COORD97":2538233.6499999999,"ADDRESS":"德崙路１９６巷２１弄１０號","OBJECTID":141118},"geometry":{"x":173619.03000000026,"y":2538233.6500000022}},{"attributes":{"ID":141119,"DIS_CODE":0,"TOWNNAME":"永康區","LI":"西橋里","LIN":"22鄰","STREET":"大橋三街","SECT":" ","MAREA":" ","LANE":"５７巷","ALLEY":"７弄","HOUSE_NO":"２２號","E_COORD97":170514.60999999999,"N_COORD97":2546515.21,"ADDRESS":"大橋三街５７巷７弄２２號","OBJECTID":141119},"geometry":{"x":170514.61000000034,"y":2546515.2100000009}},{"attributes":{"ID":141120,"DIS_CODE":0,"TOWNNAME":"永康區","LI":"安康里","LIN":"22鄰","STREET":"中華西街","SECT":" ","MAREA":" ","LANE":"１２２巷","ALLEY":"９弄","HOUSE_NO":"１０號","E_COORD97":170731.14000000001,"N_COORD97":2546191.7400000002,"ADDRESS":"中華西街１２２巷９弄１０號","OBJECTID":141120},"geometry":{"x":170731.14000000153,"y":2546191.7400000002}},{"attributes":{"ID":141121,"DIS_CODE":0,"TOWNNAME":"永康區","LI":"北灣里","LIN":"22鄰","STREET":"大灣路","SECT":" ","MAREA":" ","LANE":"４０巷","ALLEY":"９８弄","HOUSE_NO":"６４號","E_COORD97":174991.17000000001,"N_COORD97":2546294.6400000001,"ADDRESS":"大灣路４０巷９８弄６４號","OBJECTID":141121},"geometry":{"x":174991.17000000179,"y":2546294.6400000006}},{"attributes":{"ID":141122,"DIS_CODE":0,"TOWNNAME":"永康區","LI":"二王里","LIN":"22鄰","STREET":"中山南路","SECT":" ","MAREA":" ","LANE":"５６８巷","ALLEY":"１弄","HOUSE_NO":"３號","E_COORD97":172263.45999999999,"N_COORD97":2546563.3599999999,"ADDRESS":"中山南路５６８巷１弄３號","OBJECTID":141122},"geometry":{"x":172263.46000000183,"y":2546563.3599999994}},{"attributes":{"ID":141123,"DIS_CODE":0,"TOWNNAME":"永康區","LI":"復華里","LIN":"22鄰","STREET":"國華街","SECT":" ","MAREA":" ","LANE":"１３２巷","ALLEY":"２弄","HOUSE_NO":"２號","E_COORD97":172743.59,"N_COORD97":2546129.5,"ADDRESS":"國華街１３２巷２弄２號","OBJECTID":141123},"geometry":{"x":172743.58999999985,"y":2546129.4999999981}},{"attributes":{"ID":141124,"DIS_CODE":0,"TOWNNAME":"永康區","LI":"北灣里","LIN":"22鄰","STREET":"大灣路","SECT":" ","MAREA":" ","LANE":"４０巷","ALLEY":"９８弄","HOUSE_NO":"２號","E_COORD97":174962.35999999999,"N_COORD97":2546214.0499999998,"ADDRESS":"大灣路４０巷９８弄２號","OBJECTID":141124},"geometry":{"x":174962.36000000034,"y":2546214.0500000007}},{"attributes":{"ID":141125,"DIS_CODE":0,"TOWNNAME":"永康區","LI":"北灣里","LIN":"22鄰","STREET":"大灣路","SECT":" ","MAREA":" ","LANE":"４０巷","ALLEY":"９８弄","HOUSE_NO":"７２號","E_COORD97":174978.92000000001,"N_COORD97":2546306.3999999999,"ADDRESS":"大灣路４０巷９８弄７２號","OBJECTID":141125},"geometry":{"x":174978.91999999993,"y":2546306.4000000004}},{"attributes":{"ID":141126,"DIS_CODE":0,"TOWNNAME":"永康區","LI":"二王里","LIN":"22鄰","STREET":"中山南路","SECT":" ","MAREA":" ","LANE":"５６８巷","ALLEY":"１弄","HOUSE_NO":"３１號","E_COORD97":172315.14999999999,"N_COORD97":2546598.6099999999,"ADDRESS":"中山南路５６８巷１弄３１號","OBJECTID":141126},"geometry":{"x":172315.15000000224,"y":2546598.6099999994}},{"attributes":{"ID":141127,"DIS_CODE":0,"TOWNNAME":"永康區","LI":"北灣里","LIN":"22鄰","STREET":"大灣路","SECT":" ","MAREA":" ","LANE":"４０巷","ALLEY":"９８弄","HOUSE_NO":"２２號","E_COORD97":174992.67999999999,"N_COORD97":2546244.2999999998,"ADDRESS":"大灣路４０巷９８弄２２號","OBJECTID":141127},"geometry":{"x":174992.68000000063,"y":2546244.3000000026}},{"attributes":{"ID":141128,"DIS_CODE":0,"TOWNNAME":"永康區","LI":"西勢里","LIN":"22鄰","STREET":"富強路","SECT":"一段","MAREA":" ","LANE":"１９４巷","ALLEY":"５弄","HOUSE_NO":"３號","E_COORD97":175643.56,"N_COORD97":2546352.9199999999,"ADDRESS":"富強路一段１９４巷５弄３號","OBJECTID":141128},"geometry":{"x":175643.55999999959,"y":2546352.9199999999}},{"attributes":{"ID":141129,"DIS_CODE":0,"TOWNNAME":"永康區","LI":"永康里","LIN":"22鄰","STREET":"中山南路","SECT":" ","MAREA":" ","LANE":"４７１巷","ALLEY":"３８弄","HOUSE_NO":"４號","E_COORD97":173165.20000000001,"N_COORD97":2547130.1299999999,"ADDRESS":"中山南路４７１巷３８弄４號","OBJECTID":141129},"geometry":{"x":173165.20000000019,"y":2547130.129999999}},{"attributes":{"ID":141130,"DIS_CODE":0,"TOWNNAME":"佳里區","LI":"鎮山里","LIN":"22鄰","STREET":"鎮山街","SECT":" ","MAREA":" ","LANE":"８５巷","ALLEY":"２１弄","HOUSE_NO":"１０號","E_COORD97":166380.45999999999,"N_COORD97":2561121.4100000001,"ADDRESS":"鎮山街８５巷２１弄１０號","OBJECTID":141130},"geometry":{"x":166380.45999999996,"y":2561121.4100000001}},{"attributes":{"ID":141131,"DIS_CODE":0,"TOWNNAME":"佳里區","LI":"鎮山里","LIN":"22鄰","STREET":"鎮山街","SECT":" ","MAREA":" ","LANE":"８５巷","ALLEY":"２１弄","HOUSE_NO":"１２號","E_COORD97":166383.54000000001,"N_COORD97":2561125.4700000002,"ADDRESS":"鎮山街８５巷２１弄１２號","OBJECTID":141131},"geometry":{"x":166383.54000000004,"y":2561125.4700000007}},{"attributes":{"ID":141132,"DIS_CODE":0,"TOWNNAME":"佳里區","LI":"鎮山里","LIN":"22鄰","STREET":"鎮山街","SECT":" ","MAREA":" ","LANE":"８５巷","ALLEY":"２１弄","HOUSE_NO":"１６號","E_COORD97":166386.60000000001,"N_COORD97":2561128.9900000002,"ADDRESS":"鎮山街８５巷２１弄１６號","OBJECTID":141132},"geometry":{"x":166386.60000000149,"y":2561128.9900000039}},{"attributes":{"ID":141133,"DIS_CODE":0,"TOWNNAME":"佳里區","LI":"鎮山里","LIN":"22鄰","STREET":"鎮山街","SECT":" ","MAREA":" ","LANE":"８５巷","ALLEY":"２１弄","HOUSE_NO":"１７號","E_COORD97":166389.45999999999,"N_COORD97":2561156.8199999998,"ADDRESS":"鎮山街８５巷２１弄１７號","OBJECTID":141133},"geometry":{"x":166389.46000000183,"y":2561156.8200000003}},{"attributes":{"ID":141134,"DIS_CODE":0,"TOWNNAME":"佳里區","LI":"鎮山里","LIN":"22鄰","STREET":"鎮山街","SECT":" ","MAREA":" ","LANE":"８５巷","ALLEY":"２１弄","HOUSE_NO":"１８號","E_COORD97":166389.45000000001,"N_COORD97":2561132.7200000002,"ADDRESS":"鎮山街８５巷２１弄１８號","OBJECTID":141134},"geometry":{"x":166389.45000000019,"y":2561132.7200000025}},{"attributes":{"ID":141135,"DIS_CODE":0,"TOWNNAME":"佳里區","LI":"鎮山里","LIN":"22鄰","STREET":"鎮山街","SECT":" ","MAREA":" ","LANE":"８５巷","ALLEY":"２１弄","HOUSE_NO":"１９號","E_COORD97":166392.47,"N_COORD97":2561160.46,"ADDRESS":"鎮山街８５巷２１弄１９號","OBJECTID":141135},"geometry":{"x":166392.46999999881,"y":2561160.4600000046}},{"attributes":{"ID":141136,"DIS_CODE":0,"TOWNNAME":"佳里區","LI":"鎮山里","LIN":"22鄰","STREET":"鎮山街","SECT":" ","MAREA":" ","LANE":"８５巷","ALLEY":"２１弄","HOUSE_NO":"１號","E_COORD97":166353.95000000001,"N_COORD97":2561108.1899999999,"ADDRESS":"鎮山街８５巷２１弄１號","OBJECTID":141136},"geometry":{"x":166353.95000000019,"y":2561108.1900000013}},{"attributes":{"ID":141137,"DIS_CODE":0,"TOWNNAME":"佳里區","LI":"鎮山里","LIN":"22鄰","STREET":"鎮山街","SECT":" ","MAREA":" ","LANE":"８５巷","ALLEY":"２１弄","HOUSE_NO":"２０號","E_COORD97":166392.07000000001,"N_COORD97":2561136.1499999999,"ADDRESS":"鎮山街８５巷２１弄２０號","OBJECTID":141137},"geometry":{"x":166392.0700000003,"y":2561136.1500000022}},{"attributes":{"ID":141138,"DIS_CODE":0,"TOWNNAME":"佳里區","LI":"鎮山里","LIN":"22鄰","STREET":"鎮山街","SECT":" ","MAREA":" ","LANE":"８５巷","ALLEY":"２１弄","HOUSE_NO":"２２號","E_COORD97":166395.26999999999,"N_COORD97":2561139.6699999999,"ADDRESS":"鎮山街８５巷２１弄２２號","OBJECTID":141138},"geometry":{"x":166395.26999999955,"y":2561139.6699999999}},{"attributes":{"ID":141139,"DIS_CODE":0,"TOWNNAME":"佳里區","LI":"鎮山里","LIN":"22鄰","STREET":"鎮山街","SECT":" ","MAREA":" ","LANE":"８５巷","ALLEY":"２１弄","HOUSE_NO":"２６號","E_COORD97":166398.45000000001,"N_COORD97":2561143.1099999999,"ADDRESS":"鎮山街８５巷２１弄２６號","OBJECTID":141139},"geometry":{"x":166398.45000000112,"y":2561143.1099999994}},{"attributes":{"ID":141140,"DIS_CODE":0,"TOWNNAME":"佳里區","LI":"鎮山里","LIN":"22鄰","STREET":"鎮山街","SECT":" ","MAREA":" ","LANE":"８５巷","ALLEY":"２１弄","HOUSE_NO":"２８號","E_COORD97":166401.60000000001,"N_COORD97":2561146.2599999998,"ADDRESS":"鎮山街８５巷２１弄２８號","OBJECTID":141140},"geometry":{"x":166401.59999999963,"y":2561146.2599999998}},{"attributes":{"ID":141141,"DIS_CODE":0,"TOWNNAME":"佳里區","LI":"鎮山里","LIN":"22鄰","STREET":"鎮山街","SECT":" ","MAREA":" ","LANE":"８５巷","ALLEY":"２１弄","HOUSE_NO":"２號","E_COORD97":166374.98999999999,"N_COORD97":2561105.6699999999,"ADDRESS":"鎮山街８５巷２１弄２號","OBJECTID":141141},"geometry":{"x":166374.99000000115,"y":2561105.6699999999}},{"attributes":{"ID":141142,"DIS_CODE":0,"TOWNNAME":"佳里區","LI":"鎮山里","LIN":"22鄰","STREET":"鎮山街","SECT":" ","MAREA":" ","LANE":"８５巷","ALLEY":"２１弄","HOUSE_NO":"３０號","E_COORD97":166404.38,"N_COORD97":2561149.77,"ADDRESS":"鎮山街８５巷２１弄３０號","OBJECTID":141142},"geometry":{"x":166404.38000000082,"y":2561149.7699999996}},{"attributes":{"ID":141143,"DIS_CODE":0,"TOWNNAME":"永康區","LI":"復國里","LIN":"33鄰","STREET":"復華一街","SECT":" ","MAREA":" ","LANE":" ","ALLEY":" ","HOUSE_NO":"３８號","E_COORD97":172594.38,"N_COORD97":2545089.3300000001,"ADDRESS":"復華一街３８號","OBJECTID":141143},"geometry":{"x":172594.38000000175,"y":2545089.3300000001}},{"attributes":{"ID":141144,"DIS_CODE":0,"TOWNNAME":"佳里區","LI":"鎮山里","LIN":"22鄰","STREET":"鎮山街","SECT":" ","MAREA":" ","LANE":"８５巷","ALLEY":"２１弄","HOUSE_NO":"３２號","E_COORD97":166407.14000000001,"N_COORD97":2561153.52,"ADDRESS":"鎮山街８５巷２１弄３２號","OBJECTID":141144},"geometry":{"x":166407.1400000006,"y":2561153.5200000014}},{"attributes":{"ID":141145,"DIS_CODE":0,"TOWNNAME":"佳里區","LI":"鎮山里","LIN":"22鄰","STREET":"鎮山街","SECT":" ","MAREA":" ","LANE":"８５巷","ALLEY":"２１弄","HOUSE_NO":"３６號","E_COORD97":166409.95000000001,"N_COORD97":2561157.0499999998,"ADDRESS":"鎮山街８５巷２１弄３６號","OBJECTID":141145},"geometry":{"x":166409.95000000019,"y":2561157.0500000026}},{"attributes":{"ID":141146,"DIS_CODE":0,"TOWNNAME":"佳里區","LI":"鎮山里","LIN":"22鄰","STREET":"鎮山街","SECT":" ","MAREA":" ","LANE":"８５巷","ALLEY":"２１弄","HOUSE_NO":"３８號","E_COORD97":166412.73999999999,"N_COORD97":2561160.4300000002,"ADDRESS":"鎮山街８５巷２１弄３８號","OBJECTID":141146},"geometry":{"x":166412.74000000022,"y":2561160.4300000016}},{"attributes":{"ID":141147,"DIS_CODE":0,"TOWNNAME":"佳里區","LI":"鎮山里","LIN":"22鄰","STREET":"鎮山街","SECT":" ","MAREA":" ","LANE":"８５巷","ALLEY":"２１弄","HOUSE_NO":"３號","E_COORD97":166353.82999999999,"N_COORD97":2561113.6800000002,"ADDRESS":"鎮山街８５巷２１弄３號","OBJECTID":141147},"geometry":{"x":166353.83000000101,"y":2561113.6800000034}},{"attributes":{"ID":141148,"DIS_CODE":0,"TOWNNAME":"佳里區","LI":"鎮山里","LIN":"22鄰","STREET":"鎮山街","SECT":" ","MAREA":" ","LANE":"８５巷","ALLEY":"２１弄","HOUSE_NO":"４０號","E_COORD97":166415.79999999999,"N_COORD97":2561163.8999999999,"ADDRESS":"鎮山街８５巷２１弄４０號","OBJECTID":141148},"geometry":{"x":166415.80000000168,"y":2561163.9000000041}},{"attributes":{"ID":141149,"DIS_CODE":0,"TOWNNAME":"佳里區","LI":"鎮山里","LIN":"22鄰","STREET":"鎮山街","SECT":" ","MAREA":" ","LANE":"８５巷","ALLEY":"２１弄","HOUSE_NO":"４２號","E_COORD97":166419.13,"N_COORD97":2561166.8500000001,"ADDRESS":"鎮山街８５巷２１弄４２號","OBJECTID":141149},"geometry":{"x":166419.13000000082,"y":2561166.8500000034}},{"attributes":{"ID":141150,"DIS_CODE":0,"TOWNNAME":"佳里區","LI":"鎮山里","LIN":"22鄰","STREET":"鎮山街","SECT":" ","MAREA":" ","LANE":"８５巷","ALLEY":"２１弄","HOUSE_NO":"４６號","E_COORD97":166421.85000000001,"N_COORD97":2561170.3100000001,"ADDRESS":"鎮山街８５巷２１弄４６號","OBJECTID":141150},"geometry":{"x":166421.84999999963,"y":2561170.3100000005}},{"attributes":{"ID":141151,"DIS_CODE":0,"TOWNNAME":"佳里區","LI":"鎮山里","LIN":"22鄰","STREET":"鎮山街","SECT":" ","MAREA":" ","LANE":"８５巷","ALLEY":"２１弄","HOUSE_NO":"５０號","E_COORD97":166425.88,"N_COORD97":2561174.6699999999,"ADDRESS":"鎮山街８５巷２１弄５０號","OBJECTID":141151},"geometry":{"x":166425.88000000082,"y":2561174.6699999981}},{"attributes":{"ID":141152,"DIS_CODE":0,"TOWNNAME":"佳里區","LI":"鎮山里","LIN":"22鄰","STREET":"鎮山街","SECT":" ","MAREA":" ","LANE":"８５巷","ALLEY":"２１弄","HOUSE_NO":"６號","E_COORD97":166375.07000000001,"N_COORD97":2561109.71,"ADDRESS":"鎮山街８５巷２１弄６號","OBJECTID":141152},"geometry":{"x":166375.0700000003,"y":2561109.7100000009}},{"attributes":{"ID":141153,"DIS_CODE":0,"TOWNNAME":"佳里區","LI":"鎮山里","LIN":"22鄰","STREET":"鎮山街","SECT":" ","MAREA":" ","LANE":"８５巷","ALLEY":"２１弄","HOUSE_NO":"８號","E_COORD97":166377.73000000001,"N_COORD97":2561116.21,"ADDRESS":"鎮山街８５巷２１弄８號","OBJECTID":141153},"geometry":{"x":166377.73000000045,"y":2561116.2100000028}},{"attributes":{"ID":141154,"DIS_CODE":0,"TOWNNAME":"佳里區","LI":"鎮山里","LIN":"22鄰","STREET":"鎮山街","SECT":" ","MAREA":" ","LANE":"８５巷","ALLEY":"３９弄","HOUSE_NO":"１１號","E_COORD97":166422.92999999999,"N_COORD97":2561132.8700000001,"ADDRESS":"鎮山街８５巷３９弄１１號","OBJECTID":141154},"geometry":{"x":166422.9299999997,"y":2561132.870000001}},{"attributes":{"ID":141155,"DIS_CODE":0,"TOWNNAME":"佳里區","LI":"鎮山里","LIN":"22鄰","STREET":"鎮山街","SECT":" ","MAREA":" ","LANE":"８５巷","ALLEY":"３９弄","HOUSE_NO":"１３號","E_COORD97":166427.06,"N_COORD97":2561138.1600000001,"ADDRESS":"鎮山街８５巷３９弄１３號","OBJECTID":141155},"geometry":{"x":166427.05999999959,"y":2561138.1600000039}},{"attributes":{"ID":141156,"DIS_CODE":0,"TOWNNAME":"佳里區","LI":"鎮山里","LIN":"22鄰","STREET":"鎮山街","SECT":" ","MAREA":" ","LANE":"８５巷","ALLEY":"３９弄","HOUSE_NO":"１５號","E_COORD97":166431.17999999999,"N_COORD97":2561143.4500000002,"ADDRESS":"鎮山街８５巷３９弄１５號","OBJECTID":141156},"geometry":{"x":166431.1799999997,"y":2561143.4500000011}},{"attributes":{"ID":141157,"DIS_CODE":0,"TOWNNAME":"佳里區","LI":"鎮山里","LIN":"22鄰","STREET":"鎮山街","SECT":" ","MAREA":" ","LANE":"８５巷","ALLEY":"３９弄","HOUSE_NO":"１７號","E_COORD97":166435.31,"N_COORD97":2561148.75,"ADDRESS":"鎮山街８５巷３９弄１７號","OBJECTID":141157},"geometry":{"x":166435.30999999959,"y":2561148.7500000019}},{"attributes":{"ID":141158,"DIS_CODE":0,"TOWNNAME":"佳里區","LI":"鎮山里","LIN":"22鄰","STREET":"鎮山街","SECT":" ","MAREA":" ","LANE":"８５巷","ALLEY":"３９弄","HOUSE_NO":"１９號","E_COORD97":166439.42999999999,"N_COORD97":2561154.04,"ADDRESS":"鎮山街８５巷３９弄１９號","OBJECTID":141158},"geometry":{"x":166439.43000000063,"y":2561154.0399999991}},{"attributes":{"ID":141159,"DIS_CODE":0,"TOWNNAME":"佳里區","LI":"鎮山里","LIN":"22鄰","STREET":"鎮山街","SECT":" ","MAREA":" ","LANE":"８５巷","ALLEY":"３９弄","HOUSE_NO":"１號","E_COORD97":166401.39999999999,"N_COORD97":2561106.5499999998,"ADDRESS":"鎮山街８５巷３９弄１號","OBJECTID":141159},"geometry":{"x":166401.40000000037,"y":2561106.5500000026}},{"attributes":{"ID":141160,"DIS_CODE":0,"TOWNNAME":"佳里區","LI":"鎮山里","LIN":"22鄰","STREET":"鎮山街","SECT":" ","MAREA":" ","LANE":"８５巷","ALLEY":"３９弄","HOUSE_NO":"２１號","E_COORD97":166444.01999999999,"N_COORD97":2561158.7000000002,"ADDRESS":"鎮山街８５巷３９弄２１號","OBJECTID":141160},"geometry":{"x":166444.01999999955,"y":2561158.7000000011}},{"attributes":{"ID":141161,"DIS_CODE":0,"TOWNNAME":"佳里區","LI":"鎮山里","LIN":"22鄰","STREET":"鎮山街","SECT":" ","MAREA":" ","LANE":"８５巷","ALLEY":"３９弄","HOUSE_NO":"３號","E_COORD97":166405.84,"N_COORD97":2561111.77,"ADDRESS":"鎮山街８５巷３９弄３號","OBJECTID":141161},"geometry":{"x":166405.84000000078,"y":2561111.7699999996}},{"attributes":{"ID":141162,"DIS_CODE":0,"TOWNNAME":"佳里區","LI":"鎮山里","LIN":"22鄰","STREET":"鎮山街","SECT":" ","MAREA":" ","LANE":"８５巷","ALLEY":"３９弄","HOUSE_NO":"５號","E_COORD97":166410.03,"N_COORD97":2561116.6800000002,"ADDRESS":"鎮山街８５巷３９弄５號","OBJECTID":141162},"geometry":{"x":166410.03000000119,"y":2561116.6799999997}},{"attributes":{"ID":141163,"DIS_CODE":0,"TOWNNAME":"佳里區","LI":"鎮山里","LIN":"22鄰","STREET":"鎮山街","SECT":" ","MAREA":" ","LANE":"８５巷","ALLEY":"３９弄","HOUSE_NO":"７號","E_COORD97":166414.31,"N_COORD97":2561121.8999999999,"ADDRESS":"鎮山街８５巷３９弄７號","OBJECTID":141163},"geometry":{"x":166414.31000000052,"y":2561121.9000000004}},{"attributes":{"ID":141164,"DIS_CODE":0,"TOWNNAME":"佳里區","LI":"鎮山里","LIN":"22鄰","STREET":"鎮山街","SECT":" ","MAREA":" ","LANE":"８５巷","ALLEY":"３９弄","HOUSE_NO":"９號","E_COORD97":166418.79999999999,"N_COORD97":2561127.5800000001,"ADDRESS":"鎮山街８５巷３９弄９號","OBJECTID":141164},"geometry":{"x":166418.79999999981,"y":2561127.5800000001}},{"attributes":{"ID":141165,"DIS_CODE":0,"TOWNNAME":"安南區","LI":"安順里","LIN":"22鄰","STREET":"北安路","SECT":"三段","MAREA":" ","LANE":"７５２巷","ALLEY":"２２弄","HOUSE_NO":"１１３號","E_COORD97":169575.10000000001,"N_COORD97":2550280.9900000002,"ADDRESS":"北安路三段７５２巷２２弄１１３號","OBJECTID":141165},"geometry":{"x":169575.10000000149,"y":2550280.9900000021}},{"attributes":{"ID":141166,"DIS_CODE":0,"TOWNNAME":"安南區","LI":"安順里","LIN":"22鄰","STREET":"北安路","SECT":"三段","MAREA":" ","LANE":"７５２巷","ALLEY":"２２弄","HOUSE_NO":"１１１號","E_COORD97":169575.26000000001,"N_COORD97":2550278.29,"ADDRESS":"北安路三段７５２巷２２弄１１１號","OBJECTID":141166},"geometry":{"x":169575.25999999978,"y":2550278.2899999991}},{"attributes":{"ID":141167,"DIS_CODE":0,"TOWNNAME":"安南區","LI":"安順里","LIN":"22鄰","STREET":"北安路","SECT":"三段","MAREA":" ","LANE":"７５２巷","ALLEY":"２２弄","HOUSE_NO":"１３３號","E_COORD97":169581.60999999999,"N_COORD97":2550332.1099999999,"ADDRESS":"北安路三段７５２巷２２弄１３３號","OBJECTID":141167},"geometry":{"x":169581.61000000127,"y":2550332.1099999975}},{"attributes":{"ID":141168,"DIS_CODE":0,"TOWNNAME":"安南區","LI":"安順里","LIN":"22鄰","STREET":"北安路","SECT":"三段","MAREA":" ","LANE":"７５２巷","ALLEY":"２２弄","HOUSE_NO":"１３１號","E_COORD97":169581.92999999999,"N_COORD97":2550327.0299999998,"ADDRESS":"北安路三段７５２巷２２弄１３１號","OBJECTID":141168},"geometry":{"x":169581.93000000063,"y":2550327.0300000012}},{"attributes":{"ID":141169,"DIS_CODE":0,"TOWNNAME":"安南區","LI":"安順里","LIN":"22鄰","STREET":"北安路","SECT":"三段","MAREA":" ","LANE":"７５２巷","ALLEY":"２２弄","HOUSE_NO":"１２９號","E_COORD97":169581.45000000001,"N_COORD97":2550322.7400000002,"ADDRESS":"北安路三段７５２巷２２弄１２９號","OBJECTID":141169},"geometry":{"x":169581.45000000019,"y":2550322.7400000021}},{"attributes":{"ID":141170,"DIS_CODE":0,"TOWNNAME":"安南區","LI":"安順里","LIN":"22鄰","STREET":"北安路","SECT":"三段","MAREA":" ","LANE":"７５２巷","ALLEY":"２２弄","HOUSE_NO":"１２７號","E_COORD97":169581.45000000001,"N_COORD97":2550317.1800000002,"ADDRESS":"北安路三段７５２巷２２弄１２７號","OBJECTID":141170},"geometry":{"x":169581.45000000019,"y":2550317.1799999997}},{"attributes":{"ID":141171,"DIS_CODE":0,"TOWNNAME":"安南區","LI":"安順里","LIN":"22鄰","STREET":"北安路","SECT":"三段","MAREA":" ","LANE":"７５２巷","ALLEY":"２２弄","HOUSE_NO":"１２５號","E_COORD97":169580.97,"N_COORD97":2550311.3100000001,"ADDRESS":"北安路三段７５２巷２２弄１２５號","OBJECTID":141171},"geometry":{"x":169580.96999999974,"y":2550311.3100000005}},{"attributes":{"ID":141172,"DIS_CODE":0,"TOWNNAME":"安南區","LI":"安順里","LIN":"22鄰","STREET":"北安路","SECT":"三段","MAREA":" ","LANE":"７５２巷","ALLEY":"２２弄","HOUSE_NO":"１２３號","E_COORD97":169580.81,"N_COORD97":2550307.6600000001,"ADDRESS":"北安路三段７５２巷２２弄１２３號","OBJECTID":141172},"geometry":{"x":169580.81000000052,"y":2550307.6600000001}},{"attributes":{"ID":141173,"DIS_CODE":0,"TOWNNAME":"安南區","LI":"安順里","LIN":"22鄰","STREET":"北安路","SECT":"三段","MAREA":" ","LANE":"７５２巷","ALLEY":"２２弄","HOUSE_NO":"１２１號","E_COORD97":169580.34,"N_COORD97":2550304.1699999999,"ADDRESS":"北安路三段７５２巷２２弄１２１號","OBJECTID":141173},"geometry":{"x":169580.33999999985,"y":2550304.1699999999}},{"attributes":{"ID":141174,"DIS_CODE":0,"TOWNNAME":"安南區","LI":"安順里","LIN":"22鄰","STREET":"北安路","SECT":"三段","MAREA":" ","LANE":"７５２巷","ALLEY":"２２弄","HOUSE_NO":"１１９號","E_COORD97":169580.17999999999,"N_COORD97":2550300.04,"ADDRESS":"北安路三段７５２巷２２弄１１９號","OBJECTID":141174},"geometry":{"x":169580.18000000063,"y":2550300.040000001}},{"attributes":{"ID":141175,"DIS_CODE":0,"TOWNNAME":"安南區","LI":"安順里","LIN":"22鄰","STREET":"北安路","SECT":"三段","MAREA":" ","LANE":"７５２巷","ALLEY":"２２弄","HOUSE_NO":"１１７號","E_COORD97":169580.01999999999,"N_COORD97":2550296.0699999998,"ADDRESS":"北安路三段７５２巷２２弄１１７號","OBJECTID":141175},"geometry":{"x":169580.01999999955,"y":2550296.0699999984}},{"attributes":{"ID":141176,"DIS_CODE":0,"TOWNNAME":"東山區","LI":"南溪里","LIN":" ","STREET":" ","SECT":" ","MAREA":"二重溪","LANE":" ","ALLEY":" ","HOUSE_NO":"４１之１號","E_COORD97":188211.84,"N_COORD97":2574829.9199999999,"ADDRESS":"二重溪４１之１號","OBJECTID":141176},"geometry":{"x":188211.83999999985,"y":2574829.9200000037}},{"attributes":{"ID":141177,"DIS_CODE":0,"TOWNNAME":"安南區","LI":"安順里","LIN":"22鄰","STREET":"北安路","SECT":"三段","MAREA":" ","LANE":"７５２巷","ALLEY":"２２弄","HOUSE_NO":"１１５號","E_COORD97":169579.70000000001,"N_COORD97":2550292.5800000001,"ADDRESS":"北安路三段７５２巷２２弄１１５號","OBJECTID":141177},"geometry":{"x":169579.70000000019,"y":2550292.5800000038}},{"attributes":{"ID":141178,"DIS_CODE":0,"TOWNNAME":"安南區","LI":"安順里","LIN":"22鄰","STREET":"北安路","SECT":"三段","MAREA":" ","LANE":"７５２巷","ALLEY":"２２弄","HOUSE_NO":"１０９號","E_COORD97":169550.64999999999,"N_COORD97":2550298.1299999999,"ADDRESS":"北安路三段７５２巷２２弄１０９號","OBJECTID":141178},"geometry":{"x":169550.6500000013,"y":2550298.1300000008}},{"attributes":{"ID":141179,"DIS_CODE":0,"TOWNNAME":"安南區","LI":"安順里","LIN":"22鄰","STREET":"北安路","SECT":"三段","MAREA":" ","LANE":"７５２巷","ALLEY":"２２弄","HOUSE_NO":"１０７號","E_COORD97":169550.97,"N_COORD97":2550301.7799999998,"ADDRESS":"北安路三段７５２巷２２弄１０７號","OBJECTID":141179},"geometry":{"x":169550.97000000067,"y":2550301.7800000012}},{"attributes":{"ID":141180,"DIS_CODE":0,"TOWNNAME":"安南區","LI":"安順里","LIN":"22鄰","STREET":"北安路","SECT":"三段","MAREA":" ","LANE":"７５２巷","ALLEY":"２２弄","HOUSE_NO":"１０５號","E_COORD97":169551.13,"N_COORD97":2550305.4399999999,"ADDRESS":"北安路三段７５２巷２２弄１０５號","OBJECTID":141180},"geometry":{"x":169551.12999999989,"y":2550305.4399999995}},{"attributes":{"ID":141181,"DIS_CODE":0,"TOWNNAME":"安南區","LI":"安順里","LIN":"22鄰","STREET":"北安路","SECT":"三段","MAREA":" ","LANE":"７５２巷","ALLEY":"２２弄","HOUSE_NO":"９３號","E_COORD97":169552.07999999999,"N_COORD97":2550333.3799999999,"ADDRESS":"北安路三段７５２巷２２弄９３號","OBJECTID":141181},"geometry":{"x":169552.08000000194,"y":2550333.3800000027}},{"attributes":{"ID":141182,"DIS_CODE":0,"TOWNNAME":"安南區","LI":"安順里","LIN":"22鄰","STREET":"北安路","SECT":"三段","MAREA":" ","LANE":"７５２巷","ALLEY":"２２弄","HOUSE_NO":"９５號","E_COORD97":169551.92000000001,"N_COORD97":2550329.25,"ADDRESS":"北安路三段７５２巷２２弄９５號","OBJECTID":141182},"geometry":{"x":169551.92000000086,"y":2550329.2500000019}},{"attributes":{"ID":141183,"DIS_CODE":0,"TOWNNAME":"安南區","LI":"安順里","LIN":"22鄰","STREET":"北安路","SECT":"三段","MAREA":" ","LANE":"７５２巷","ALLEY":"２２弄","HOUSE_NO":"９７號","E_COORD97":169551.76000000001,"N_COORD97":2550324.7999999998,"ADDRESS":"北安路三段７５２巷２２弄９７號","OBJECTID":141183},"geometry":{"x":169551.75999999978,"y":2550324.8000000007}},{"attributes":{"ID":141184,"DIS_CODE":0,"TOWNNAME":"安南區","LI":"安順里","LIN":"22鄰","STREET":"北安路","SECT":"三段","MAREA":" ","LANE":"７５２巷","ALLEY":"２２弄","HOUSE_NO":"９９號","E_COORD97":169551.60000000001,"N_COORD97":2550319.7200000002,"ADDRESS":"北安路三段７５２巷２２弄９９號","OBJECTID":141184},"geometry":{"x":169551.60000000056,"y":2550319.7200000025}},{"attributes":{"ID":141185,"DIS_CODE":0,"TOWNNAME":"安南區","LI":"安順里","LIN":"22鄰","STREET":"北安路","SECT":"三段","MAREA":" ","LANE":"７５２巷","ALLEY":"２２弄","HOUSE_NO":"１０１號","E_COORD97":169551.29000000001,"N_COORD97":2550314.3300000001,"ADDRESS":"北安路三段７５２巷２２弄１０１號","OBJECTID":141185},"geometry":{"x":169551.29000000097,"y":2550314.3300000001}},{"attributes":{"ID":141186,"DIS_CODE":0,"TOWNNAME":"安南區","LI":"安順里","LIN":"22鄰","STREET":"北安路","SECT":"三段","MAREA":" ","LANE":"７５２巷","ALLEY":"２２弄","HOUSE_NO":"１０３號","E_COORD97":169551.45000000001,"N_COORD97":2550310.3599999999,"ADDRESS":"北安路三段７５２巷２２弄１０３號","OBJECTID":141186},"geometry":{"x":169551.45000000205,"y":2550310.3600000031}},{"attributes":{"ID":141187,"DIS_CODE":0,"TOWNNAME":"安南區","LI":"安順里","LIN":"22鄰","STREET":"北安路","SECT":"三段","MAREA":" ","LANE":"７５２巷","ALLEY":"２２弄","HOUSE_NO":"１４５號","E_COORD97":169569.39000000001,"N_COORD97":2550346,"ADDRESS":"北安路三段７５２巷２２弄１４５號","OBJECTID":141187},"geometry":{"x":169569.38999999966,"y":2550346}},{"attributes":{"ID":141188,"DIS_CODE":0,"TOWNNAME":"南區","LI":"明亮里","LIN":"22鄰","STREET":"金華路","SECT":"一段","MAREA":" ","LANE":"３５２巷","ALLEY":"８８弄","HOUSE_NO":"１號","E_COORD97":167189.31,"N_COORD97":2541102.29,"ADDRESS":"金華路一段３５２巷８８弄１號","OBJECTID":141188},"geometry":{"x":167189.31000000052,"y":2541102.2900000028}},{"attributes":{"ID":141189,"DIS_CODE":0,"TOWNNAME":"南區","LI":"明亮里","LIN":"22鄰","STREET":"金華路","SECT":"一段","MAREA":" ","LANE":"３５２巷","ALLEY":"８８弄","HOUSE_NO":"２號","E_COORD97":167178.32999999999,"N_COORD97":2541095.4199999999,"ADDRESS":"金華路一段３５２巷８８弄２號","OBJECTID":141189},"geometry":{"x":167178.33000000007,"y":2541095.4200000037}},{"attributes":{"ID":141190,"DIS_CODE":0,"TOWNNAME":"南區","LI":"明亮里","LIN":"22鄰","STREET":"金華路","SECT":"一段","MAREA":" ","LANE":"３５２巷","ALLEY":"８８弄","HOUSE_NO":"３號","E_COORD97":167187.76999999999,"N_COORD97":2541098.2999999998,"ADDRESS":"金華路一段３５２巷８８弄３號","OBJECTID":141190},"geometry":{"x":167187.77000000048,"y":2541098.3000000026}},{"attributes":{"ID":141191,"DIS_CODE":0,"TOWNNAME":"南區","LI":"明亮里","LIN":"22鄰","STREET":"金華路","SECT":"一段","MAREA":" ","LANE":"３５２巷","ALLEY":"８８弄","HOUSE_NO":"５號","E_COORD97":167188.07999999999,"N_COORD97":2541093.7000000002,"ADDRESS":"金華路一段３５２巷８８弄５號","OBJECTID":141191},"geometry":{"x":167188.08000000101,"y":2541093.7000000011}},{"attributes":{"ID":141192,"DIS_CODE":0,"TOWNNAME":"南區","LI":"明亮里","LIN":"22鄰","STREET":"金華路","SECT":"一段","MAREA":" ","LANE":"３５２巷","ALLEY":"８８弄","HOUSE_NO":"６號","E_COORD97":167174.64999999999,"N_COORD97":2541085.9100000001,"ADDRESS":"金華路一段３５２巷８８弄６號","OBJECTID":141192},"geometry":{"x":167174.65000000037,"y":2541085.910000002}},{"attributes":{"ID":141193,"DIS_CODE":0,"TOWNNAME":"南區","LI":"明亮里","LIN":"22鄰","STREET":"金華路","SECT":"一段","MAREA":" ","LANE":"３５２巷","ALLEY":"８８弄","HOUSE_NO":"７號","E_COORD97":167185.60000000001,"N_COORD97":2541090.71,"ADDRESS":"金華路一段３５２巷８８弄７號","OBJECTID":141193},"geometry":{"x":167185.60000000056,"y":2541090.7100000009}},{"attributes":{"ID":141194,"DIS_CODE":0,"TOWNNAME":"南區","LI":"明亮里","LIN":"22鄰","STREET":"金華路","SECT":"一段","MAREA":" ","LANE":"３５２巷","ALLEY":"８８弄","HOUSE_NO":"８號","E_COORD97":167172.79999999999,"N_COORD97":2541081.2999999998,"ADDRESS":"金華路一段３５２巷８８弄８號","OBJECTID":141194},"geometry":{"x":167172.79999999981,"y":2541081.3000000026}},{"attributes":{"ID":141195,"DIS_CODE":0,"TOWNNAME":"南區","LI":"明亮里","LIN":"22鄰","STREET":"金華路","SECT":"一段","MAREA":" ","LANE":"３５２巷","ALLEY":"８８弄","HOUSE_NO":"９號","E_COORD97":167183.14999999999,"N_COORD97":2541075.4199999999,"ADDRESS":"金華路一段３５２巷８８弄９號","OBJECTID":141195},"geometry":{"x":167183.15000000037,"y":2541075.4200000018}},{"attributes":{"ID":141196,"DIS_CODE":0,"TOWNNAME":"南區","LI":"明亮里","LIN":"22鄰","STREET":"金華路","SECT":"一段","MAREA":" ","LANE":"３５２巷","ALLEY":"８８弄","HOUSE_NO":"１０號","E_COORD97":167159.89999999999,"N_COORD97":2541090.5099999998,"ADDRESS":"金華路一段３５２巷８８弄１０號","OBJECTID":141196},"geometry":{"x":167159.90000000224,"y":2541090.5099999998}},{"attributes":{"ID":141197,"DIS_CODE":0,"TOWNNAME":"南區","LI":"明亮里","LIN":"22鄰","STREET":"金華路","SECT":"一段","MAREA":" ","LANE":"３５２巷","ALLEY":"８８弄","HOUSE_NO":"１１號","E_COORD97":167188.29999999999,"N_COORD97":2541072.8500000001,"ADDRESS":"金華路一段３５２巷８８弄１１號","OBJECTID":141197},"geometry":{"x":167188.29999999981,"y":2541072.8500000015}},{"attributes":{"ID":141198,"DIS_CODE":0,"TOWNNAME":"南區","LI":"明亮里","LIN":"22鄰","STREET":"金華路","SECT":"一段","MAREA":" ","LANE":"３５２巷","ALLEY":"８８弄","HOUSE_NO":"１２號","E_COORD97":167158.37,"N_COORD97":2541093.8799999999,"ADDRESS":"金華路一段３５２巷８８弄１２號","OBJECTID":141198},"geometry":{"x":167158.37000000104,"y":2541093.879999999}},{"attributes":{"ID":141199,"DIS_CODE":0,"TOWNNAME":"南區","LI":"明亮里","LIN":"22鄰","STREET":"金華路","SECT":"一段","MAREA":" ","LANE":"３５２巷","ALLEY":"８８弄","HOUSE_NO":"１３號","E_COORD97":167194.23000000001,"N_COORD97":2541072.5899999999,"ADDRESS":"金華路一段３５２巷８８弄１３號","OBJECTID":141199},"geometry":{"x":167194.23000000138,"y":2541072.5899999999}},{"attributes":{"ID":141200,"DIS_CODE":0,"TOWNNAME":"南區","LI":"明亮里","LIN":"22鄰","STREET":"金華路","SECT":"一段","MAREA":" ","LANE":"３５２巷","ALLEY":"８８弄","HOUSE_NO":"１４號","E_COORD97":167154.37,"N_COORD97":2541096.3399999999,"ADDRESS":"金華路一段３５２巷８８弄１４號","OBJECTID":141200},"geometry":{"x":167154.37000000011,"y":2541096.3400000017}}]}