{"displayFieldName":"TOWNNAME","fieldAliases":{"ID":"ID","DIS_CODE":"DIS_CODE","TOWNNAME":"TOWNNAME","LI":"LI","LIN":"LIN","STREET":"STREET","SECT":"SECT","MAREA":"MAREA","LANE":"LANE","ALLEY":"ALLEY","HOUSE_NO":"HOUSE_NO","E_COORD97":"E_COORD97","N_COORD97":"N_COORD97","ADDRESS":"ADDRESS","OBJECTID":"OBJECTID"},"geometryType":"esriGeometryPoint","spatialReference":{"wkid":102443,"latestWkid":3826},"fields":[{"name":"ID","type":"esriFieldTypeDouble","alias":"ID"},{"name":"DIS_CODE","type":"esriFieldTypeInteger","alias":"DIS_CODE"},{"name":"TOWNNAME","type":"esriFieldTypeString","alias":"TOWNNAME","length":8},{"name":"LI","type":"esriFieldTypeString","alias":"LI","length":8},{"name":"LIN","type":"esriFieldTypeString","alias":"LIN","length":12},{"name":"STREET","type":"esriFieldTypeString","alias":"STREET","length":20},{"name":"SECT","type":"esriFieldTypeString","alias":"SECT","length":8},{"name":"MAREA","type":"esriFieldTypeString","alias":"MAREA","length":12},{"name":"LANE","type":"esriFieldTypeString","alias":"LANE","length":10},{"name":"ALLEY","type":"esriFieldTypeString","alias":"ALLEY","length":10},{"name":"HOUSE_NO","type":"esriFieldTypeString","alias":"HOUSE_NO","length":20},{"name":"E_COORD97","type":"esriFieldTypeDouble","alias":"E_COORD97"},{"name":"N_COORD97","type":"esriFieldTypeDouble","alias":"N_COORD97"},{"name":"ADDRESS","type":"esriFieldTypeString","alias":"ADDRESS","length":50},{"name":"OBJECTID","type":"esriFieldTypeOID","alias":"OBJECTID"}],"features":[{"attributes":{"ID":517028,"DIS_CODE":0,"TOWNNAME":"東山區","LI":"東中里","LIN":"1鄰","STREET":"成功街","SECT":" ","MAREA":" ","LANE":" ","ALLEY":" ","HOUSE_NO":"３１號","E_COORD97":188771.07999999999,"N_COORD97":2579943.1299999999,"ADDRESS":"成功街３１號","OBJECTID":517001},"geometry":{"x":188771.08000000101,"y":2579943.1299999971}},{"attributes":{"ID":517029,"DIS_CODE":0,"TOWNNAME":"東山區","LI":"東中里","LIN":"1鄰","STREET":"成功街","SECT":" ","MAREA":" ","LANE":" ","ALLEY":" ","HOUSE_NO":"３３號","E_COORD97":188770.64000000001,"N_COORD97":2579947.3999999999,"ADDRESS":"成功街３３號","OBJECTID":517002},"geometry":{"x":188770.63999999966,"y":2579947.4000000022}},{"attributes":{"ID":517030,"DIS_CODE":0,"TOWNNAME":"東山區","LI":"東中里","LIN":"1鄰","STREET":"成功街","SECT":" ","MAREA":" ","LANE":" ","ALLEY":" ","HOUSE_NO":"３５號","E_COORD97":188770.32000000001,"N_COORD97":2579951.1800000002,"ADDRESS":"成功街３５號","OBJECTID":517003},"geometry":{"x":188770.3200000003,"y":2579951.1800000016}},{"attributes":{"ID":517031,"DIS_CODE":0,"TOWNNAME":"東山區","LI":"東中里","LIN":"1鄰","STREET":"成功街","SECT":" ","MAREA":" ","LANE":" ","ALLEY":" ","HOUSE_NO":"３７號","E_COORD97":188769.92000000001,"N_COORD97":2579955.8900000001,"ADDRESS":"成功街３７號","OBJECTID":517004},"geometry":{"x":188769.92000000086,"y":2579955.8900000006}},{"attributes":{"ID":517032,"DIS_CODE":0,"TOWNNAME":"東山區","LI":"東中里","LIN":"1鄰","STREET":"成功街","SECT":" ","MAREA":" ","LANE":" ","ALLEY":" ","HOUSE_NO":"３號","E_COORD97":188777,"N_COORD97":2579883.6600000001,"ADDRESS":"成功街３號","OBJECTID":517005},"geometry":{"x":188777,"y":2579883.660000002}},{"attributes":{"ID":517033,"DIS_CODE":0,"TOWNNAME":"東山區","LI":"東中里","LIN":"1鄰","STREET":"成功街","SECT":" ","MAREA":" ","LANE":" ","ALLEY":" ","HOUSE_NO":"５號","E_COORD97":188776.87,"N_COORD97":2579887.6499999999,"ADDRESS":"成功街５號","OBJECTID":517006},"geometry":{"x":188776.86999999918,"y":2579887.6500000022}},{"attributes":{"ID":517034,"DIS_CODE":0,"TOWNNAME":"東山區","LI":"東中里","LIN":"1鄰","STREET":"成功街","SECT":" ","MAREA":" ","LANE":" ","ALLEY":" ","HOUSE_NO":"７號","E_COORD97":188776.20999999999,"N_COORD97":2579891.8900000001,"ADDRESS":"成功街７號","OBJECTID":517007},"geometry":{"x":188776.21000000183,"y":2579891.8900000006}},{"attributes":{"ID":517035,"DIS_CODE":0,"TOWNNAME":"東山區","LI":"東中里","LIN":"1鄰","STREET":"成功街","SECT":" ","MAREA":" ","LANE":" ","ALLEY":" ","HOUSE_NO":"９號","E_COORD97":188776.35999999999,"N_COORD97":2579895.8500000001,"ADDRESS":"成功街９號","OBJECTID":517008},"geometry":{"x":188776.36000000127,"y":2579895.8500000015}},{"attributes":{"ID":517036,"DIS_CODE":0,"TOWNNAME":"東山區","LI":"東中里","LIN":"1鄰","STREET":"勝利街","SECT":" ","MAREA":" ","LANE":" ","ALLEY":" ","HOUSE_NO":"１３號","E_COORD97":188894.17000000001,"N_COORD97":2579919.77,"ADDRESS":"勝利街１３號","OBJECTID":517009},"geometry":{"x":188894.17000000086,"y":2579919.7700000014}},{"attributes":{"ID":517037,"DIS_CODE":0,"TOWNNAME":"東山區","LI":"東中里","LIN":"1鄰","STREET":"勝利街","SECT":" ","MAREA":" ","LANE":" ","ALLEY":" ","HOUSE_NO":"１５號","E_COORD97":188894.66,"N_COORD97":2579928.0800000001,"ADDRESS":"勝利街１５號","OBJECTID":517010},"geometry":{"x":188894.66000000015,"y":2579928.0800000038}},{"attributes":{"ID":517038,"DIS_CODE":0,"TOWNNAME":"東山區","LI":"東中里","LIN":"1鄰","STREET":"勝利街","SECT":" ","MAREA":" ","LANE":" ","ALLEY":" ","HOUSE_NO":"１６號","E_COORD97":188907.91,"N_COORD97":2579899.3900000001,"ADDRESS":"勝利街１６號","OBJECTID":517011},"geometry":{"x":188907.91000000108,"y":2579899.3900000043}},{"attributes":{"ID":517039,"DIS_CODE":0,"TOWNNAME":"東山區","LI":"東中里","LIN":"1鄰","STREET":"勝利街","SECT":" ","MAREA":" ","LANE":" ","ALLEY":" ","HOUSE_NO":"１７號","E_COORD97":188895.16,"N_COORD97":2579934.23,"ADDRESS":"勝利街１７號","OBJECTID":517012},"geometry":{"x":188895.16000000015,"y":2579934.2300000042}},{"attributes":{"ID":517040,"DIS_CODE":0,"TOWNNAME":"楠西區","LI":"楠西里","LIN":"6鄰","STREET":"中興路","SECT":" ","MAREA":" ","LANE":" ","ALLEY":" ","HOUSE_NO":"３７號之３","E_COORD97":197195.14999999999,"N_COORD97":2564255.2999999998,"ADDRESS":"中興路３７號之３","OBJECTID":517013},"geometry":{"x":197195.15000000037,"y":2564255.3000000007}},{"attributes":{"ID":517041,"DIS_CODE":0,"TOWNNAME":"東山區","LI":"東中里","LIN":"1鄰","STREET":"勝利街","SECT":" ","MAREA":" ","LANE":" ","ALLEY":" ","HOUSE_NO":"１８號","E_COORD97":188908.53,"N_COORD97":2579906.6800000002,"ADDRESS":"勝利街１８號","OBJECTID":517014},"geometry":{"x":188908.53000000119,"y":2579906.6800000034}},{"attributes":{"ID":517042,"DIS_CODE":0,"TOWNNAME":"東山區","LI":"東中里","LIN":"1鄰","STREET":"勝利街","SECT":" ","MAREA":" ","LANE":" ","ALLEY":" ","HOUSE_NO":"２０號","E_COORD97":188909.37,"N_COORD97":2579915.48,"ADDRESS":"勝利街２０號","OBJECTID":517015},"geometry":{"x":188909.37000000104,"y":2579915.4800000042}},{"attributes":{"ID":517043,"DIS_CODE":0,"TOWNNAME":"楠西區","LI":"楠西里","LIN":"7鄰","STREET":"中興路","SECT":" ","MAREA":" ","LANE":" ","ALLEY":" ","HOUSE_NO":"７８號","E_COORD97":197223.91,"N_COORD97":2564307.25,"ADDRESS":"中興路７８號","OBJECTID":517016},"geometry":{"x":197223.91000000201,"y":2564307.2500000037}},{"attributes":{"ID":517044,"DIS_CODE":0,"TOWNNAME":"東山區","LI":"東中里","LIN":"1鄰","STREET":"勝利街","SECT":" ","MAREA":" ","LANE":" ","ALLEY":" ","HOUSE_NO":"２２號","E_COORD97":188910.16,"N_COORD97":2579924.8900000001,"ADDRESS":"勝利街２２號","OBJECTID":517017},"geometry":{"x":188910.16000000015,"y":2579924.8900000006}},{"attributes":{"ID":517045,"DIS_CODE":0,"TOWNNAME":"東山區","LI":"東中里","LIN":"1鄰","STREET":"勝利街","SECT":" ","MAREA":" ","LANE":" ","ALLEY":" ","HOUSE_NO":"２６號","E_COORD97":188910.75,"N_COORD97":2579931.6400000001,"ADDRESS":"勝利街２６號","OBJECTID":517018},"geometry":{"x":188910.75,"y":2579931.6400000043}},{"attributes":{"ID":517046,"DIS_CODE":0,"TOWNNAME":"東山區","LI":"東中里","LIN":"1鄰","STREET":"勝利街","SECT":" ","MAREA":" ","LANE":" ","ALLEY":" ","HOUSE_NO":"２８號","E_COORD97":188911.45000000001,"N_COORD97":2579936.9100000001,"ADDRESS":"勝利街２８號","OBJECTID":517019},"geometry":{"x":188911.45000000019,"y":2579936.910000002}},{"attributes":{"ID":517047,"DIS_CODE":0,"TOWNNAME":"東山區","LI":"東中里","LIN":"1鄰","STREET":"新東路","SECT":"一段","MAREA":" ","LANE":" ","ALLEY":" ","HOUSE_NO":"７５號","E_COORD97":188721.70999999999,"N_COORD97":2580049.9100000001,"ADDRESS":"新東路一段７５號","OBJECTID":517020},"geometry":{"x":188721.70999999996,"y":2580049.9100000001}},{"attributes":{"ID":517048,"DIS_CODE":0,"TOWNNAME":"新化區","LI":"清水里","LIN":"1鄰","STREET":"中山路","SECT":" ","MAREA":" ","LANE":" ","ALLEY":" ","HOUSE_NO":"３８７號","E_COORD97":178808.70999999999,"N_COORD97":2548399.25,"ADDRESS":"中山路３８７號","OBJECTID":517021},"geometry":{"x":178808.71000000089,"y":2548399.25}},{"attributes":{"ID":517049,"DIS_CODE":0,"TOWNNAME":"新化區","LI":"護國里","LIN":"1鄰","STREET":"中山路","SECT":" ","MAREA":" ","LANE":" ","ALLEY":" ","HOUSE_NO":"２３４號","E_COORD97":179104.70999999999,"N_COORD97":2548448.25,"ADDRESS":"中山路２３４號","OBJECTID":517022},"geometry":{"x":179104.70999999996,"y":2548448.2500000019}},{"attributes":{"ID":517050,"DIS_CODE":0,"TOWNNAME":"新化區","LI":"唪口里","LIN":"1鄰","STREET":"大德路","SECT":" ","MAREA":" ","LANE":" ","ALLEY":" ","HOUSE_NO":"１４２號","E_COORD97":178104.92999999999,"N_COORD97":2549358.25,"ADDRESS":"大德路１４２號","OBJECTID":517023},"geometry":{"x":178104.93000000156,"y":2549358.25}},{"attributes":{"ID":517051,"DIS_CODE":0,"TOWNNAME":"新化區","LI":"清水里","LIN":"1鄰","STREET":"中山路","SECT":" ","MAREA":" ","LANE":" ","ALLEY":" ","HOUSE_NO":"３５１號","E_COORD97":178872.91,"N_COORD97":2548403.25,"ADDRESS":"中山路３５１號","OBJECTID":517024},"geometry":{"x":178872.91000000015,"y":2548403.2500000019}},{"attributes":{"ID":517052,"DIS_CODE":0,"TOWNNAME":"新化區","LI":"唪口里","LIN":"1鄰","STREET":"大德路","SECT":" ","MAREA":" ","LANE":" ","ALLEY":" ","HOUSE_NO":"７２號","E_COORD97":178425.67999999999,"N_COORD97":2549389.25,"ADDRESS":"大德路７２號","OBJECTID":517025},"geometry":{"x":178425.68000000063,"y":2549389.2499999981}},{"attributes":{"ID":517053,"DIS_CODE":0,"TOWNNAME":"新化區","LI":"清水里","LIN":"1鄰","STREET":"中山路","SECT":" ","MAREA":" ","LANE":" ","ALLEY":" ","HOUSE_NO":"３６３號","E_COORD97":178825.81,"N_COORD97":2548400.25,"ADDRESS":"中山路３６３號","OBJECTID":517026},"geometry":{"x":178825.80999999959,"y":2548400.2500000019}},{"attributes":{"ID":517054,"DIS_CODE":0,"TOWNNAME":"新化區","LI":"中央里","LIN":"1鄰","STREET":"信義路","SECT":" ","MAREA":" ","LANE":" ","ALLEY":" ","HOUSE_NO":"２４６號","E_COORD97":179059.13,"N_COORD97":2548316.25,"ADDRESS":"信義路２４６號","OBJECTID":517027},"geometry":{"x":179059.12999999989,"y":2548316.2500000019}},{"attributes":{"ID":517055,"DIS_CODE":0,"TOWNNAME":"新化區","LI":"唪口里","LIN":"1鄰","STREET":"大德路","SECT":" ","MAREA":" ","LANE":" ","ALLEY":" ","HOUSE_NO":"５４號","E_COORD97":178477.28,"N_COORD97":2549400.25,"ADDRESS":"大德路５４號","OBJECTID":517028},"geometry":{"x":178477.28000000026,"y":2549400.2500000019}},{"attributes":{"ID":517056,"DIS_CODE":0,"TOWNNAME":"新化區","LI":"唪口里","LIN":"1鄰","STREET":"大德路","SECT":" ","MAREA":" ","LANE":" ","ALLEY":" ","HOUSE_NO":"４６號之２","E_COORD97":178502.42999999999,"N_COORD97":2549419.2599999998,"ADDRESS":"大德路４６號之２","OBJECTID":517029},"geometry":{"x":178502.4299999997,"y":2549419.2599999998}},{"attributes":{"ID":517057,"DIS_CODE":0,"TOWNNAME":"新化區","LI":"中央里","LIN":"1鄰","STREET":"信義路","SECT":" ","MAREA":" ","LANE":" ","ALLEY":" ","HOUSE_NO":"２６６號","E_COORD97":179034.32999999999,"N_COORD97":2548312.25,"ADDRESS":"信義路２６６號","OBJECTID":517030},"geometry":{"x":179034.33000000007,"y":2548312.2500000019}},{"attributes":{"ID":517058,"DIS_CODE":0,"TOWNNAME":"新化區","LI":"唪口里","LIN":"1鄰","STREET":"大德路","SECT":" ","MAREA":" ","LANE":" ","ALLEY":" ","HOUSE_NO":"６３號","E_COORD97":178278.38,"N_COORD97":2549356.2400000002,"ADDRESS":"大德路６３號","OBJECTID":517031},"geometry":{"x":178278.38000000175,"y":2549356.2400000021}},{"attributes":{"ID":517059,"DIS_CODE":0,"TOWNNAME":"新化區","LI":"武安里","LIN":"1鄰","STREET":"公園路","SECT":" ","MAREA":" ","LANE":" ","ALLEY":" ","HOUSE_NO":"１０號","E_COORD97":179082.38,"N_COORD97":2547739.25,"ADDRESS":"公園路１０號","OBJECTID":517032},"geometry":{"x":179082.38000000082,"y":2547739.2500000019}},{"attributes":{"ID":517060,"DIS_CODE":0,"TOWNNAME":"新化區","LI":"協興里","LIN":"1鄰","STREET":"太平街","SECT":" ","MAREA":" ","LANE":" ","ALLEY":" ","HOUSE_NO":"９９號之２","E_COORD97":178596.03,"N_COORD97":2548728.2599999998,"ADDRESS":"太平街９９號之２","OBJECTID":517033},"geometry":{"x":178596.03000000026,"y":2548728.2600000035}},{"attributes":{"ID":517061,"DIS_CODE":0,"TOWNNAME":"新化區","LI":"觀音里","LIN":"1鄰","STREET":"中正路","SECT":" ","MAREA":" ","LANE":" ","ALLEY":" ","HOUSE_NO":"４６９號","E_COORD97":179055.51000000001,"N_COORD97":2548495.25,"ADDRESS":"中正路４６９號","OBJECTID":517034},"geometry":{"x":179055.51000000164,"y":2548495.2500000019}},{"attributes":{"ID":517062,"DIS_CODE":0,"TOWNNAME":"新化區","LI":"唪口里","LIN":"1鄰","STREET":"大德路","SECT":" ","MAREA":" ","LANE":" ","ALLEY":" ","HOUSE_NO":"４８號之２","E_COORD97":178493.63,"N_COORD97":2549418.2599999998,"ADDRESS":"大德路４８號之２","OBJECTID":517035},"geometry":{"x":178493.63000000175,"y":2549418.2599999998}},{"attributes":{"ID":517063,"DIS_CODE":0,"TOWNNAME":"新化區","LI":"協興里","LIN":"1鄰","STREET":"長青街","SECT":" ","MAREA":" ","LANE":" ","ALLEY":" ","HOUSE_NO":"７１號","E_COORD97":178584.67999999999,"N_COORD97":2548472.25,"ADDRESS":"長青街７１號","OBJECTID":517036},"geometry":{"x":178584.68000000156,"y":2548472.2500000019}},{"attributes":{"ID":517064,"DIS_CODE":0,"TOWNNAME":"新化區","LI":"竹林里","LIN":"1鄰","STREET":"竹林路","SECT":" ","MAREA":" ","LANE":" ","ALLEY":" ","HOUSE_NO":"６５號","E_COORD97":178823.28,"N_COORD97":2548580.25,"ADDRESS":"竹林路６５號","OBJECTID":517037},"geometry":{"x":178823.28000000026,"y":2548580.2500000019}},{"attributes":{"ID":517065,"DIS_CODE":0,"TOWNNAME":"新化區","LI":"唪口里","LIN":"1鄰","STREET":"大德路","SECT":" ","MAREA":" ","LANE":" ","ALLEY":" ","HOUSE_NO":"１３６號","E_COORD97":178117.63,"N_COORD97":2549361.25,"ADDRESS":"大德路１３６號","OBJECTID":517038},"geometry":{"x":178117.63000000082,"y":2549361.25}},{"attributes":{"ID":517066,"DIS_CODE":0,"TOWNNAME":"新化區","LI":"東榮里","LIN":"1鄰","STREET":"中興路","SECT":" ","MAREA":" ","LANE":" ","ALLEY":" ","HOUSE_NO":"３９６號","E_COORD97":180627.60999999999,"N_COORD97":2547520.25,"ADDRESS":"中興路３９６號","OBJECTID":517039},"geometry":{"x":180627.61000000127,"y":2547520.25}},{"attributes":{"ID":517067,"DIS_CODE":0,"TOWNNAME":"新化區","LI":"太平里","LIN":"1鄰","STREET":"建國街","SECT":" ","MAREA":" ","LANE":" ","ALLEY":" ","HOUSE_NO":"４３號之１","E_COORD97":179172.51000000001,"N_COORD97":2548700.2599999998,"ADDRESS":"建國街４３號之１","OBJECTID":517040},"geometry":{"x":179172.51000000164,"y":2548700.2599999998}},{"attributes":{"ID":517068,"DIS_CODE":0,"TOWNNAME":"新化區","LI":"東榮里","LIN":"1鄰","STREET":"中興路","SECT":" ","MAREA":" ","LANE":" ","ALLEY":" ","HOUSE_NO":"３８２號","E_COORD97":180648.60999999999,"N_COORD97":2547511.25,"ADDRESS":"中興路３８２號","OBJECTID":517041},"geometry":{"x":180648.61000000034,"y":2547511.2500000037}},{"attributes":{"ID":517069,"DIS_CODE":0,"TOWNNAME":"新化區","LI":"豐榮里","LIN":"1鄰","STREET":"大智路","SECT":" ","MAREA":" ","LANE":" ","ALLEY":" ","HOUSE_NO":"３０號","E_COORD97":178302.98000000001,"N_COORD97":2548373.25,"ADDRESS":"大智路３０號","OBJECTID":517042},"geometry":{"x":178302.98000000045,"y":2548373.2500000019}},{"attributes":{"ID":517070,"DIS_CODE":0,"TOWNNAME":"新化區","LI":"太平里","LIN":"1鄰","STREET":"忠孝路","SECT":" ","MAREA":" ","LANE":" ","ALLEY":" ","HOUSE_NO":"２７號","E_COORD97":179113.57000000001,"N_COORD97":2548713.25,"ADDRESS":"忠孝路２７號","OBJECTID":517043},"geometry":{"x":179113.57000000123,"y":2548713.25}},{"attributes":{"ID":517071,"DIS_CODE":0,"TOWNNAME":"新化區","LI":"東榮里","LIN":"1鄰","STREET":"中興路","SECT":" ","MAREA":" ","LANE":" ","ALLEY":" ","HOUSE_NO":"１１２號之１","E_COORD97":181796.94,"N_COORD97":2547326.2599999998,"ADDRESS":"中興路１１２號之１","OBJECTID":517044},"geometry":{"x":181796.94000000041,"y":2547326.2599999998}},{"attributes":{"ID":517072,"DIS_CODE":0,"TOWNNAME":"新化區","LI":"太平里","LIN":"1鄰","STREET":"仁愛街","SECT":" ","MAREA":" ","LANE":" ","ALLEY":" ","HOUSE_NO":"４０號之１","E_COORD97":179054.70999999999,"N_COORD97":2548598.2599999998,"ADDRESS":"仁愛街４０號之１","OBJECTID":517045},"geometry":{"x":179054.71000000089,"y":2548598.2599999998}},{"attributes":{"ID":517073,"DIS_CODE":0,"TOWNNAME":"新化區","LI":"太平里","LIN":"1鄰","STREET":"建國街","SECT":" ","MAREA":" ","LANE":" ","ALLEY":" ","HOUSE_NO":"３１號之１","E_COORD97":179190.01000000001,"N_COORD97":2548638.2599999998,"ADDRESS":"建國街３１號之１","OBJECTID":517046},"geometry":{"x":179190.01000000071,"y":2548638.2599999998}},{"attributes":{"ID":517074,"DIS_CODE":0,"TOWNNAME":"新化區","LI":"竹林里","LIN":"1鄰","STREET":"竹林路","SECT":" ","MAREA":" ","LANE":" ","ALLEY":" ","HOUSE_NO":"７７號","E_COORD97":178819.17999999999,"N_COORD97":2548609.25,"ADDRESS":"竹林路７７號","OBJECTID":517047},"geometry":{"x":178819.18000000063,"y":2548609.25}},{"attributes":{"ID":517075,"DIS_CODE":0,"TOWNNAME":"新化區","LI":"太平里","LIN":"1鄰","STREET":"建國街","SECT":" ","MAREA":" ","LANE":" ","ALLEY":" ","HOUSE_NO":"３５號","E_COORD97":179182.78,"N_COORD97":2548662.2599999998,"ADDRESS":"建國街３５號","OBJECTID":517048},"geometry":{"x":179182.78000000026,"y":2548662.2599999998}},{"attributes":{"ID":517076,"DIS_CODE":0,"TOWNNAME":"新化區","LI":"太平里","LIN":"1鄰","STREET":"忠孝路","SECT":" ","MAREA":" ","LANE":" ","ALLEY":" ","HOUSE_NO":"３９號","E_COORD97":179065.17000000001,"N_COORD97":2548705.25,"ADDRESS":"忠孝路３９號","OBJECTID":517049},"geometry":{"x":179065.17000000086,"y":2548705.2500000019}},{"attributes":{"ID":517077,"DIS_CODE":0,"TOWNNAME":"新化區","LI":"護國里","LIN":"1鄰","STREET":"中正路","SECT":" ","MAREA":" ","LANE":" ","ALLEY":" ","HOUSE_NO":"４１６號","E_COORD97":179077.01000000001,"N_COORD97":2548473.25,"ADDRESS":"中正路４１６號","OBJECTID":517050},"geometry":{"x":179077.00999999978,"y":2548473.25}},{"attributes":{"ID":517078,"DIS_CODE":0,"TOWNNAME":"新化區","LI":"豐榮里","LIN":"1鄰","STREET":"中山路","SECT":" ","MAREA":" ","LANE":" ","ALLEY":" ","HOUSE_NO":"６４１號","E_COORD97":178179.91,"N_COORD97":2548495.25,"ADDRESS":"中山路６４１號","OBJECTID":517051},"geometry":{"x":178179.91000000015,"y":2548495.2500000019}},{"attributes":{"ID":517079,"DIS_CODE":0,"TOWNNAME":"楠西區","LI":"東勢里","LIN":"16鄰","STREET":"茄拔路","SECT":" ","MAREA":" ","LANE":" ","ALLEY":" ","HOUSE_NO":"１９１號","E_COORD97":197488.01999999999,"N_COORD97":2563767.2000000002,"ADDRESS":"茄拔路１９１號","OBJECTID":517052},"geometry":{"x":197488.01999999955,"y":2563767.1999999993}},{"attributes":{"ID":517080,"DIS_CODE":0,"TOWNNAME":"新化區","LI":"東榮里","LIN":"1鄰","STREET":"中興路","SECT":" ","MAREA":" ","LANE":" ","ALLEY":" ","HOUSE_NO":"４０２號","E_COORD97":180612.51000000001,"N_COORD97":2547528.25,"ADDRESS":"中興路４０２號","OBJECTID":517053},"geometry":{"x":180612.50999999978,"y":2547528.2500000037}},{"attributes":{"ID":517081,"DIS_CODE":0,"TOWNNAME":"新化區","LI":"豐榮里","LIN":"1鄰","STREET":"中山路","SECT":" ","MAREA":" ","LANE":" ","ALLEY":" ","HOUSE_NO":"５８５號","E_COORD97":178324.41,"N_COORD97":2548465.25,"ADDRESS":"中山路５８５號","OBJECTID":517054},"geometry":{"x":178324.41000000108,"y":2548465.2500000019}},{"attributes":{"ID":517082,"DIS_CODE":0,"TOWNNAME":"新化區","LI":"豐榮里","LIN":"1鄰","STREET":"大智路","SECT":" ","MAREA":" ","LANE":" ","ALLEY":" ","HOUSE_NO":"２６號","E_COORD97":178307.78,"N_COORD97":2548382.25,"ADDRESS":"大智路２６號","OBJECTID":517055},"geometry":{"x":178307.78000000026,"y":2548382.25}},{"attributes":{"ID":517083,"DIS_CODE":0,"TOWNNAME":"新化區","LI":"豐榮里","LIN":"1鄰","STREET":"中山路","SECT":" ","MAREA":" ","LANE":" ","ALLEY":" ","HOUSE_NO":"５７５號","E_COORD97":178359.41,"N_COORD97":2548451.25,"ADDRESS":"中山路５７５號","OBJECTID":517056},"geometry":{"x":178359.41000000015,"y":2548451.2500000019}},{"attributes":{"ID":517084,"DIS_CODE":0,"TOWNNAME":"新化區","LI":"護國里","LIN":"1鄰","STREET":"中正路","SECT":" ","MAREA":" ","LANE":" ","ALLEY":" ","HOUSE_NO":"４０６號","E_COORD97":179081.10999999999,"N_COORD97":2548456.25,"ADDRESS":"中正路４０６號","OBJECTID":517057},"geometry":{"x":179081.11000000127,"y":2548456.25}},{"attributes":{"ID":517085,"DIS_CODE":0,"TOWNNAME":"新化區","LI":"竹林里","LIN":"1鄰","STREET":"民權街","SECT":" ","MAREA":" ","LANE":" ","ALLEY":" ","HOUSE_NO":"７４號","E_COORD97":178753.95999999999,"N_COORD97":2548615.25,"ADDRESS":"民權街７４號","OBJECTID":517058},"geometry":{"x":178753.95999999996,"y":2548615.25}},{"attributes":{"ID":517086,"DIS_CODE":0,"TOWNNAME":"新化區","LI":"太平里","LIN":"1鄰","STREET":"忠孝路","SECT":" ","MAREA":" ","LANE":" ","ALLEY":" ","HOUSE_NO":"３３號之３","E_COORD97":179097.72,"N_COORD97":2548691.2599999998,"ADDRESS":"忠孝路３３號之３","OBJECTID":517059},"geometry":{"x":179097.71999999974,"y":2548691.2600000016}},{"attributes":{"ID":517087,"DIS_CODE":0,"TOWNNAME":"新化區","LI":"太平里","LIN":"1鄰","STREET":"忠孝路","SECT":" ","MAREA":" ","LANE":" ","ALLEY":" ","HOUSE_NO":"１５號","E_COORD97":179141.67000000001,"N_COORD97":2548715.25,"ADDRESS":"忠孝路１５號","OBJECTID":517060},"geometry":{"x":179141.67000000086,"y":2548715.2500000019}},{"attributes":{"ID":517088,"DIS_CODE":0,"TOWNNAME":"新化區","LI":"太平里","LIN":"1鄰","STREET":"忠孝路","SECT":" ","MAREA":" ","LANE":" ","ALLEY":" ","HOUSE_NO":"４３號","E_COORD97":179055.26999999999,"N_COORD97":2548702.25,"ADDRESS":"忠孝路４３號","OBJECTID":517061},"geometry":{"x":179055.27000000048,"y":2548702.2500000019}},{"attributes":{"ID":517089,"DIS_CODE":0,"TOWNNAME":"新化區","LI":"東榮里","LIN":"1鄰","STREET":"中興路","SECT":" ","MAREA":" ","LANE":" ","ALLEY":" ","HOUSE_NO":"１０８號之１","E_COORD97":181844.44,"N_COORD97":2547338.2599999998,"ADDRESS":"中興路１０８號之１","OBJECTID":517062},"geometry":{"x":181844.44000000041,"y":2547338.2600000035}},{"attributes":{"ID":517090,"DIS_CODE":0,"TOWNNAME":"新化區","LI":"太平里","LIN":"1鄰","STREET":"仁愛街","SECT":" ","MAREA":" ","LANE":" ","ALLEY":" ","HOUSE_NO":"２６號","E_COORD97":179148.88,"N_COORD97":2548611.25,"ADDRESS":"仁愛街２６號","OBJECTID":517063},"geometry":{"x":179148.87999999989,"y":2548611.2500000019}},{"attributes":{"ID":517091,"DIS_CODE":0,"TOWNNAME":"新化區","LI":"武安里","LIN":"1鄰","STREET":"中正路","SECT":" ","MAREA":" ","LANE":" ","ALLEY":" ","HOUSE_NO":"２１９號","E_COORD97":179093.01000000001,"N_COORD97":2547697.25,"ADDRESS":"中正路２１９號","OBJECTID":517064},"geometry":{"x":179093.01000000071,"y":2547697.25}},{"attributes":{"ID":517092,"DIS_CODE":0,"TOWNNAME":"新化區","LI":"護國里","LIN":"1鄰","STREET":"中正路","SECT":" ","MAREA":" ","LANE":" ","ALLEY":" ","HOUSE_NO":"４２６號","E_COORD97":179069.20999999999,"N_COORD97":2548493.25,"ADDRESS":"中正路４２６號","OBJECTID":517065},"geometry":{"x":179069.20999999996,"y":2548493.25}},{"attributes":{"ID":517093,"DIS_CODE":0,"TOWNNAME":"新化區","LI":"唪口里","LIN":"1鄰","STREET":"大德路","SECT":" ","MAREA":" ","LANE":" ","ALLEY":" ","HOUSE_NO":"５６號","E_COORD97":178472.07999999999,"N_COORD97":2549397.25,"ADDRESS":"大德路５６號","OBJECTID":517066},"geometry":{"x":178472.08000000194,"y":2549397.2500000019}},{"attributes":{"ID":517094,"DIS_CODE":0,"TOWNNAME":"新化區","LI":"唪口里","LIN":"1鄰","STREET":"大德路","SECT":" ","MAREA":" ","LANE":" ","ALLEY":" ","HOUSE_NO":"４０號之３","E_COORD97":178524.53,"N_COORD97":2549421.2599999998,"ADDRESS":"大德路４０號之３","OBJECTID":517067},"geometry":{"x":178524.53000000026,"y":2549421.2600000016}},{"attributes":{"ID":517095,"DIS_CODE":0,"TOWNNAME":"新化區","LI":"武安里","LIN":"1鄰","STREET":"中正路","SECT":" ","MAREA":" ","LANE":" ","ALLEY":" ","HOUSE_NO":"２４７號","E_COORD97":179093.70999999999,"N_COORD97":2547773.25,"ADDRESS":"中正路２４７號","OBJECTID":517068},"geometry":{"x":179093.71000000089,"y":2547773.2500000019}},{"attributes":{"ID":517096,"DIS_CODE":0,"TOWNNAME":"新化區","LI":"唪口里","LIN":"1鄰","STREET":"大德路","SECT":" ","MAREA":" ","LANE":" ","ALLEY":" ","HOUSE_NO":"１５６號","E_COORD97":178025.23000000001,"N_COORD97":2549348.25,"ADDRESS":"大德路１５６號","OBJECTID":517069},"geometry":{"x":178025.23000000045,"y":2549348.25}},{"attributes":{"ID":517097,"DIS_CODE":0,"TOWNNAME":"新化區","LI":"豐榮里","LIN":"1鄰","STREET":"中山路","SECT":" ","MAREA":" ","LANE":" ","ALLEY":" ","HOUSE_NO":"６５１號","E_COORD97":178150.51000000001,"N_COORD97":2548495.25,"ADDRESS":"中山路６５１號","OBJECTID":517070},"geometry":{"x":178150.51000000071,"y":2548495.2500000019}},{"attributes":{"ID":517098,"DIS_CODE":0,"TOWNNAME":"新化區","LI":"中央里","LIN":"1鄰","STREET":"中正路","SECT":" ","MAREA":" ","LANE":" ","ALLEY":" ","HOUSE_NO":"４１５號","E_COORD97":179087.51000000001,"N_COORD97":2548356.25,"ADDRESS":"中正路４１５號","OBJECTID":517071},"geometry":{"x":179087.50999999885,"y":2548356.2500000019}},{"attributes":{"ID":517099,"DIS_CODE":0,"TOWNNAME":"新化區","LI":"協興里","LIN":"1鄰","STREET":"太平街","SECT":" ","MAREA":" ","LANE":" ","ALLEY":" ","HOUSE_NO":"９９號之７","E_COORD97":178569.42000000001,"N_COORD97":2548722.2599999998,"ADDRESS":"太平街９９號之７","OBJECTID":517072},"geometry":{"x":178569.41999999993,"y":2548722.2600000016}},{"attributes":{"ID":517100,"DIS_CODE":0,"TOWNNAME":"新化區","LI":"太平里","LIN":"1鄰","STREET":"仁愛街","SECT":" ","MAREA":" ","LANE":" ","ALLEY":" ","HOUSE_NO":"２０號之１","E_COORD97":179164.91,"N_COORD97":2548615.2599999998,"ADDRESS":"仁愛街２０號之１","OBJECTID":517073},"geometry":{"x":179164.90999999922,"y":2548615.2599999998}},{"attributes":{"ID":517101,"DIS_CODE":0,"TOWNNAME":"新化區","LI":"竹林里","LIN":"1鄰","STREET":"竹林路","SECT":" ","MAREA":" ","LANE":" ","ALLEY":" ","HOUSE_NO":"６９號","E_COORD97":178821.88,"N_COORD97":2548590.25,"ADDRESS":"竹林路６９號","OBJECTID":517074},"geometry":{"x":178821.87999999989,"y":2548590.2500000019}},{"attributes":{"ID":517102,"DIS_CODE":0,"TOWNNAME":"新化區","LI":"太平里","LIN":"1鄰","STREET":"忠孝路","SECT":" ","MAREA":" ","LANE":" ","ALLEY":" ","HOUSE_NO":"１１號","E_COORD97":179149.87,"N_COORD97":2548717.25,"ADDRESS":"忠孝路１１號","OBJECTID":517075},"geometry":{"x":179149.86999999918,"y":2548717.25}},{"attributes":{"ID":517103,"DIS_CODE":0,"TOWNNAME":"新化區","LI":"唪口里","LIN":"1鄰","STREET":"大德路","SECT":" ","MAREA":" ","LANE":" ","ALLEY":" ","HOUSE_NO":"４８號之１","E_COORD97":178492.51000000001,"N_COORD97":2549396.2599999998,"ADDRESS":"大德路４８號之１","OBJECTID":517076},"geometry":{"x":178492.50999999885,"y":2549396.2600000035}},{"attributes":{"ID":517104,"DIS_CODE":0,"TOWNNAME":"新化區","LI":"太平里","LIN":"1鄰","STREET":"建國街","SECT":" ","MAREA":" ","LANE":" ","ALLEY":" ","HOUSE_NO":"４３號","E_COORD97":179173.07999999999,"N_COORD97":2548696.2599999998,"ADDRESS":"建國街４３號","OBJECTID":517077},"geometry":{"x":179173.08000000101,"y":2548696.2599999998}},{"attributes":{"ID":517105,"DIS_CODE":0,"TOWNNAME":"新化區","LI":"清水里","LIN":"1鄰","STREET":"中山路","SECT":" ","MAREA":" ","LANE":" ","ALLEY":" ","HOUSE_NO":"３５５號","E_COORD97":178848.81,"N_COORD97":2548395.25,"ADDRESS":"中山路３５５號","OBJECTID":517078},"geometry":{"x":178848.81000000052,"y":2548395.25}},{"attributes":{"ID":517106,"DIS_CODE":0,"TOWNNAME":"新化區","LI":"武安里","LIN":"1鄰","STREET":"中正路","SECT":" ","MAREA":" ","LANE":" ","ALLEY":" ","HOUSE_NO":"２１５號","E_COORD97":179093.51000000001,"N_COORD97":2547689.25,"ADDRESS":"中正路２１５號","OBJECTID":517079},"geometry":{"x":179093.51000000071,"y":2547689.25}},{"attributes":{"ID":517107,"DIS_CODE":0,"TOWNNAME":"新化區","LI":"太平里","LIN":"1鄰","STREET":"忠孝路","SECT":" ","MAREA":" ","LANE":" ","ALLEY":" ","HOUSE_NO":"３３號之６","E_COORD97":179100.82000000001,"N_COORD97":2548676.2599999998,"ADDRESS":"忠孝路３３號之６","OBJECTID":517080},"geometry":{"x":179100.8200000003,"y":2548676.2599999998}},{"attributes":{"ID":517108,"DIS_CODE":0,"TOWNNAME":"新化區","LI":"豐榮里","LIN":"1鄰","STREET":"中山路","SECT":" ","MAREA":" ","LANE":" ","ALLEY":" ","HOUSE_NO":"６２３號","E_COORD97":178201.27982,"N_COORD97":2548496.6003399999,"ADDRESS":"中山路６２３號","OBJECTID":517081},"geometry":{"x":178201.27981999982,"y":2548496.6003430001}},{"attributes":{"ID":517109,"DIS_CODE":0,"TOWNNAME":"新化區","LI":"唪口里","LIN":"1鄰","STREET":"大德路","SECT":" ","MAREA":" ","LANE":" ","ALLEY":" ","HOUSE_NO":"１５１號","E_COORD97":178034.03,"N_COORD97":2549329.25,"ADDRESS":"大德路１５１號","OBJECTID":517082},"geometry":{"x":178034.03000000119,"y":2549329.2500000019}},{"attributes":{"ID":517110,"DIS_CODE":0,"TOWNNAME":"新化區","LI":"護國里","LIN":"1鄰","STREET":"中正路","SECT":" ","MAREA":" ","LANE":" ","ALLEY":" ","HOUSE_NO":"４１８號","E_COORD97":179075.91,"N_COORD97":2548476.25,"ADDRESS":"中正路４１８號","OBJECTID":517083},"geometry":{"x":179075.91000000108,"y":2548476.25}},{"attributes":{"ID":517111,"DIS_CODE":0,"TOWNNAME":"新化區","LI":"太平里","LIN":"1鄰","STREET":"中正路","SECT":" ","MAREA":" ","LANE":" ","ALLEY":" ","HOUSE_NO":"５１０號","E_COORD97":178987.60999999999,"N_COORD97":2548757.25,"ADDRESS":"中正路５１０號","OBJECTID":517084},"geometry":{"x":178987.6100000022,"y":2548757.25}},{"attributes":{"ID":517112,"DIS_CODE":0,"TOWNNAME":"新化區","LI":"唪口里","LIN":"1鄰","STREET":"大德路","SECT":" ","MAREA":" ","LANE":" ","ALLEY":" ","HOUSE_NO":"４２號之１","E_COORD97":178517.81,"N_COORD97":2549399.2599999998,"ADDRESS":"大德路４２號之１","OBJECTID":517085},"geometry":{"x":178517.81000000052,"y":2549399.2600000035}},{"attributes":{"ID":517113,"DIS_CODE":0,"TOWNNAME":"新化區","LI":"太平里","LIN":"1鄰","STREET":"建國街","SECT":" ","MAREA":" ","LANE":" ","ALLEY":" ","HOUSE_NO":"４３號之４","E_COORD97":179169.41,"N_COORD97":2548713.2599999998,"ADDRESS":"建國街４３號之４","OBJECTID":517086},"geometry":{"x":179169.41000000015,"y":2548713.2599999998}},{"attributes":{"ID":517114,"DIS_CODE":0,"TOWNNAME":"新化區","LI":"觀音里","LIN":"1鄰","STREET":"中山路","SECT":" ","MAREA":" ","LANE":" ","ALLEY":" ","HOUSE_NO":"２５６號","E_COORD97":179050.01000000001,"N_COORD97":2548438.25,"ADDRESS":"中山路２５６號","OBJECTID":517087},"geometry":{"x":179050.00999999978,"y":2548438.2500000019}},{"attributes":{"ID":517115,"DIS_CODE":0,"TOWNNAME":"新化區","LI":"唪口里","LIN":"1鄰","STREET":"大德路","SECT":" ","MAREA":" ","LANE":" ","ALLEY":" ","HOUSE_NO":"３４號","E_COORD97":178546.88,"N_COORD97":2549404.25,"ADDRESS":"大德路３４號","OBJECTID":517088},"geometry":{"x":178546.88000000082,"y":2549404.2500000019}},{"attributes":{"ID":517116,"DIS_CODE":0,"TOWNNAME":"新化區","LI":"清水里","LIN":"1鄰","STREET":"中山路","SECT":" ","MAREA":" ","LANE":" ","ALLEY":" ","HOUSE_NO":"３８９號","E_COORD97":178803.41,"N_COORD97":2548398.25,"ADDRESS":"中山路３８９號","OBJECTID":517089},"geometry":{"x":178803.41000000015,"y":2548398.25}},{"attributes":{"ID":517117,"DIS_CODE":0,"TOWNNAME":"新化區","LI":"唪口里","LIN":"1鄰","STREET":"大德路","SECT":" ","MAREA":" ","LANE":" ","ALLEY":" ","HOUSE_NO":"６１號","E_COORD97":178293.57999999999,"N_COORD97":2549320.25,"ADDRESS":"大德路６１號","OBJECTID":517090},"geometry":{"x":178293.58000000007,"y":2549320.25}},{"attributes":{"ID":517118,"DIS_CODE":0,"TOWNNAME":"新化區","LI":"觀音里","LIN":"1鄰","STREET":"中山路","SECT":" ","MAREA":" ","LANE":" ","ALLEY":" ","HOUSE_NO":"２４４號","E_COORD97":179075.10999999999,"N_COORD97":2548439.25,"ADDRESS":"中山路２４４號","OBJECTID":517091},"geometry":{"x":179075.11000000034,"y":2548439.25}},{"attributes":{"ID":517119,"DIS_CODE":0,"TOWNNAME":"新化區","LI":"護國里","LIN":"1鄰","STREET":"中山路","SECT":" ","MAREA":" ","LANE":" ","ALLEY":" ","HOUSE_NO":"２３２號","E_COORD97":179109.60999999999,"N_COORD97":2548449.25,"ADDRESS":"中山路２３２號","OBJECTID":517092},"geometry":{"x":179109.6100000022,"y":2548449.25}},{"attributes":{"ID":517120,"DIS_CODE":0,"TOWNNAME":"新化區","LI":"護國里","LIN":"1鄰","STREET":"中正路","SECT":" ","MAREA":" ","LANE":" ","ALLEY":" ","HOUSE_NO":"４１２號","E_COORD97":179078.10999999999,"N_COORD97":2548467.25,"ADDRESS":"中正路４１２號","OBJECTID":517093},"geometry":{"x":179078.11000000127,"y":2548467.2500000037}},{"attributes":{"ID":517121,"DIS_CODE":0,"TOWNNAME":"新化區","LI":"唪口里","LIN":"1鄰","STREET":"大德路","SECT":" ","MAREA":" ","LANE":" ","ALLEY":" ","HOUSE_NO":"３８號之１","E_COORD97":178540.70999999999,"N_COORD97":2549418.2599999998,"ADDRESS":"大德路３８號之１","OBJECTID":517094},"geometry":{"x":178540.71000000183,"y":2549418.2599999998}},{"attributes":{"ID":517122,"DIS_CODE":0,"TOWNNAME":"新化區","LI":"太平里","LIN":"1鄰","STREET":"建國街","SECT":" ","MAREA":" ","LANE":" ","ALLEY":" ","HOUSE_NO":"４３號之２","E_COORD97":179171.53,"N_COORD97":2548704.2599999998,"ADDRESS":"建國街４３號之２","OBJECTID":517095},"geometry":{"x":179171.53000000119,"y":2548704.2600000035}},{"attributes":{"ID":517123,"DIS_CODE":0,"TOWNNAME":"新化區","LI":"太平里","LIN":"1鄰","STREET":"仁愛街","SECT":" ","MAREA":" ","LANE":" ","ALLEY":" ","HOUSE_NO":"３８號之１","E_COORD97":179070.91,"N_COORD97":2548600.2599999998,"ADDRESS":"仁愛街３８號之１","OBJECTID":517096},"geometry":{"x":179070.91000000108,"y":2548600.2600000016}},{"attributes":{"ID":517124,"DIS_CODE":0,"TOWNNAME":"新化區","LI":"護國里","LIN":"1鄰","STREET":"中正路","SECT":" ","MAREA":" ","LANE":" ","ALLEY":" ","HOUSE_NO":"４２２號","E_COORD97":179072.51000000001,"N_COORD97":2548484.25,"ADDRESS":"中正路４２２號","OBJECTID":517097},"geometry":{"x":179072.51000000164,"y":2548484.2500000037}},{"attributes":{"ID":517125,"DIS_CODE":0,"TOWNNAME":"新化區","LI":"護國里","LIN":"1鄰","STREET":"中山路","SECT":" ","MAREA":" ","LANE":" ","ALLEY":" ","HOUSE_NO":"２２８號","E_COORD97":179117.20999999999,"N_COORD97":2548451.25,"ADDRESS":"中山路２２８號","OBJECTID":517098},"geometry":{"x":179117.21000000089,"y":2548451.2500000019}},{"attributes":{"ID":517126,"DIS_CODE":0,"TOWNNAME":"新化區","LI":"太平里","LIN":"1鄰","STREET":"建國街","SECT":" ","MAREA":" ","LANE":" ","ALLEY":" ","HOUSE_NO":"４１號之７","E_COORD97":179174.62,"N_COORD97":2548692.2599999998,"ADDRESS":"建國街４１號之７","OBJECTID":517099},"geometry":{"x":179174.62000000011,"y":2548692.2600000016}},{"attributes":{"ID":517127,"DIS_CODE":0,"TOWNNAME":"新化區","LI":"唪口里","LIN":"1鄰","STREET":"大德路","SECT":" ","MAREA":" ","LANE":" ","ALLEY":" ","HOUSE_NO":"４４號","E_COORD97":178513.48000000001,"N_COORD97":2549399.25,"ADDRESS":"大德路４４號","OBJECTID":517100},"geometry":{"x":178513.48000000045,"y":2549399.25}},{"attributes":{"ID":517128,"DIS_CODE":0,"TOWNNAME":"新化區","LI":"協興里","LIN":"1鄰","STREET":"正新路","SECT":" ","MAREA":" ","LANE":" ","ALLEY":" ","HOUSE_NO":"２４６號","E_COORD97":178585.72,"N_COORD97":2548535.25,"ADDRESS":"正新路２４６號","OBJECTID":517101},"geometry":{"x":178585.71999999974,"y":2548535.2500000037}},{"attributes":{"ID":517129,"DIS_CODE":0,"TOWNNAME":"新化區","LI":"協興里","LIN":"1鄰","STREET":"正新路","SECT":" ","MAREA":" ","LANE":" ","ALLEY":" ","HOUSE_NO":"２４０號","E_COORD97":178583.22,"N_COORD97":2548522.25,"ADDRESS":"正新路２４０號","OBJECTID":517102},"geometry":{"x":178583.22000000067,"y":2548522.2500000019}},{"attributes":{"ID":517130,"DIS_CODE":0,"TOWNNAME":"新化區","LI":"協興里","LIN":"1鄰","STREET":"正新路","SECT":" ","MAREA":" ","LANE":" ","ALLEY":" ","HOUSE_NO":"２３８號","E_COORD97":178583.22,"N_COORD97":2548518.25,"ADDRESS":"正新路２３８號","OBJECTID":517103},"geometry":{"x":178583.22000000067,"y":2548518.2500000037}},{"attributes":{"ID":517131,"DIS_CODE":0,"TOWNNAME":"新化區","LI":"護國里","LIN":"1鄰","STREET":"中山路","SECT":" ","MAREA":" ","LANE":" ","ALLEY":" ","HOUSE_NO":"２３６號","E_COORD97":179100.10999999999,"N_COORD97":2548447.25,"ADDRESS":"中山路２３６號","OBJECTID":517104},"geometry":{"x":179100.11000000127,"y":2548447.2500000037}},{"attributes":{"ID":517132,"DIS_CODE":0,"TOWNNAME":"新化區","LI":"唪口里","LIN":"1鄰","STREET":"大德路","SECT":" ","MAREA":" ","LANE":" ","ALLEY":" ","HOUSE_NO":"３８號之６","E_COORD97":178539.23000000001,"N_COORD97":2549441.2599999998,"ADDRESS":"大德路３８號之６","OBJECTID":517105},"geometry":{"x":178539.22999999952,"y":2549441.2600000016}},{"attributes":{"ID":517133,"DIS_CODE":0,"TOWNNAME":"新化區","LI":"唪口里","LIN":"1鄰","STREET":"大德路","SECT":" ","MAREA":" ","LANE":" ","ALLEY":" ","HOUSE_NO":"５２號","E_COORD97":178480.38,"N_COORD97":2549401.25,"ADDRESS":"大德路５２號","OBJECTID":517106},"geometry":{"x":178480.38000000082,"y":2549401.2500000019}},{"attributes":{"ID":517134,"DIS_CODE":0,"TOWNNAME":"新化區","LI":"護國里","LIN":"1鄰","STREET":"中山路","SECT":" ","MAREA":" ","LANE":" ","ALLEY":" ","HOUSE_NO":"２４０號","E_COORD97":179090.20999999999,"N_COORD97":2548444.25,"ADDRESS":"中山路２４０號","OBJECTID":517107},"geometry":{"x":179090.21000000089,"y":2548444.2500000019}},{"attributes":{"ID":517135,"DIS_CODE":0,"TOWNNAME":"新化區","LI":"太平里","LIN":"1鄰","STREET":"仁愛街","SECT":" ","MAREA":" ","LANE":" ","ALLEY":" ","HOUSE_NO":"２號","E_COORD97":179285.23000000001,"N_COORD97":2548642.25,"ADDRESS":"仁愛街２號","OBJECTID":517108},"geometry":{"x":179285.23000000231,"y":2548642.25}},{"attributes":{"ID":517136,"DIS_CODE":0,"TOWNNAME":"新化區","LI":"唪口里","LIN":"1鄰","STREET":"大德路","SECT":" ","MAREA":" ","LANE":" ","ALLEY":" ","HOUSE_NO":"６６號","E_COORD97":178444.78,"N_COORD97":2549391.25,"ADDRESS":"大德路６６號","OBJECTID":517109},"geometry":{"x":178444.78000000026,"y":2549391.25}},{"attributes":{"ID":517137,"DIS_CODE":0,"TOWNNAME":"新化區","LI":"清水里","LIN":"1鄰","STREET":"中山路","SECT":" ","MAREA":" ","LANE":" ","ALLEY":" ","HOUSE_NO":"３５７號","E_COORD97":178843.91,"N_COORD97":2548394.25,"ADDRESS":"中山路３５７號","OBJECTID":517110},"geometry":{"x":178843.91000000015,"y":2548394.2500000019}},{"attributes":{"ID":517138,"DIS_CODE":0,"TOWNNAME":"新化區","LI":"太平里","LIN":"1鄰","STREET":"仁愛街","SECT":" ","MAREA":" ","LANE":" ","ALLEY":" ","HOUSE_NO":"４２號","E_COORD97":179051.67999999999,"N_COORD97":2548598.25,"ADDRESS":"仁愛街４２號","OBJECTID":517111},"geometry":{"x":179051.6799999997,"y":2548598.25}},{"attributes":{"ID":517139,"DIS_CODE":0,"TOWNNAME":"新化區","LI":"東榮里","LIN":"1鄰","STREET":"中興路","SECT":" ","MAREA":" ","LANE":" ","ALLEY":" ","HOUSE_NO":"２２０號","E_COORD97":181479.81,"N_COORD97":2547317.25,"ADDRESS":"中興路２２０號","OBJECTID":517112},"geometry":{"x":181479.81000000052,"y":2547317.25}},{"attributes":{"ID":517140,"DIS_CODE":0,"TOWNNAME":"新化區","LI":"唪口里","LIN":"1鄰","STREET":"大德路","SECT":" ","MAREA":" ","LANE":" ","ALLEY":" ","HOUSE_NO":"４０號之２","E_COORD97":178528.73000000001,"N_COORD97":2549421.2599999998,"ADDRESS":"大德路４０號之２","OBJECTID":517113},"geometry":{"x":178528.73000000045,"y":2549421.2600000016}},{"attributes":{"ID":517141,"DIS_CODE":0,"TOWNNAME":"新化區","LI":"唪口里","LIN":"1鄰","STREET":"大德路","SECT":" ","MAREA":" ","LANE":" ","ALLEY":" ","HOUSE_NO":"４５號","E_COORD97":178363.57999999999,"N_COORD97":2549364.25,"ADDRESS":"大德路４５號","OBJECTID":517114},"geometry":{"x":178363.58000000194,"y":2549364.25}},{"attributes":{"ID":517142,"DIS_CODE":0,"TOWNNAME":"新化區","LI":"唪口里","LIN":"1鄰","STREET":"大德路","SECT":" ","MAREA":" ","LANE":" ","ALLEY":" ","HOUSE_NO":"７４號","E_COORD97":178417.78,"N_COORD97":2549391.25,"ADDRESS":"大德路７４號","OBJECTID":517115},"geometry":{"x":178417.78000000026,"y":2549391.25}},{"attributes":{"ID":517143,"DIS_CODE":0,"TOWNNAME":"新化區","LI":"護國里","LIN":"1鄰","STREET":"中正路","SECT":" ","MAREA":" ","LANE":" ","ALLEY":" ","HOUSE_NO":"４２０號","E_COORD97":179073.81,"N_COORD97":2548480.25,"ADDRESS":"中正路４２０號","OBJECTID":517116},"geometry":{"x":179073.81000000052,"y":2548480.25}},{"attributes":{"ID":517144,"DIS_CODE":0,"TOWNNAME":"新化區","LI":"唪口里","LIN":"1鄰","STREET":"大德路","SECT":" ","MAREA":" ","LANE":" ","ALLEY":" ","HOUSE_NO":"４４號之１","E_COORD97":178509.70999999999,"N_COORD97":2549398.2599999998,"ADDRESS":"大德路４４號之１","OBJECTID":517117},"geometry":{"x":178509.70999999996,"y":2549398.2599999998}},{"attributes":{"ID":517145,"DIS_CODE":0,"TOWNNAME":"新化區","LI":"唪口里","LIN":"1鄰","STREET":"大德路","SECT":" ","MAREA":" ","LANE":" ","ALLEY":" ","HOUSE_NO":"５８號","E_COORD97":178466.78,"N_COORD97":2549397.25,"ADDRESS":"大德路５８號","OBJECTID":517118},"geometry":{"x":178466.78000000026,"y":2549397.2500000019}},{"attributes":{"ID":517146,"DIS_CODE":0,"TOWNNAME":"新化區","LI":"太平里","LIN":"1鄰","STREET":"忠孝路","SECT":" ","MAREA":" ","LANE":" ","ALLEY":" ","HOUSE_NO":"１７號","E_COORD97":179137.67000000001,"N_COORD97":2548715.25,"ADDRESS":"忠孝路１７號","OBJECTID":517119},"geometry":{"x":179137.67000000179,"y":2548715.2500000019}},{"attributes":{"ID":517147,"DIS_CODE":0,"TOWNNAME":"新化區","LI":"唪口里","LIN":"1鄰","STREET":"大德路","SECT":" ","MAREA":" ","LANE":" ","ALLEY":" ","HOUSE_NO":"４６號之３","E_COORD97":178498.03,"N_COORD97":2549419.2599999998,"ADDRESS":"大德路４６號之３","OBJECTID":517120},"geometry":{"x":178498.03000000212,"y":2549419.2599999998}},{"attributes":{"ID":517148,"DIS_CODE":0,"TOWNNAME":"新化區","LI":"太平里","LIN":"1鄰","STREET":"忠孝路","SECT":" ","MAREA":" ","LANE":" ","ALLEY":" ","HOUSE_NO":"１９號","E_COORD97":179133.67000000001,"N_COORD97":2548714.25,"ADDRESS":"忠孝路１９號","OBJECTID":517121},"geometry":{"x":179133.66999999993,"y":2548714.25}},{"attributes":{"ID":517149,"DIS_CODE":0,"TOWNNAME":"新化區","LI":"太平里","LIN":"1鄰","STREET":"仁愛街","SECT":" ","MAREA":" ","LANE":" ","ALLEY":" ","HOUSE_NO":"３４號","E_COORD97":179084.17999999999,"N_COORD97":2548600.25,"ADDRESS":"仁愛街３４號","OBJECTID":517122},"geometry":{"x":179084.1799999997,"y":2548600.2500000019}},{"attributes":{"ID":517150,"DIS_CODE":0,"TOWNNAME":"新化區","LI":"豐榮里","LIN":"1鄰","STREET":"中山路","SECT":" ","MAREA":" ","LANE":" ","ALLEY":" ","HOUSE_NO":"６０５號","E_COORD97":178269.10999999999,"N_COORD97":2548466.25,"ADDRESS":"中山路６０５號","OBJECTID":517123},"geometry":{"x":178269.11000000127,"y":2548466.25}},{"attributes":{"ID":517151,"DIS_CODE":0,"TOWNNAME":"新化區","LI":"東榮里","LIN":"1鄰","STREET":"中興路","SECT":" ","MAREA":" ","LANE":" ","ALLEY":" ","HOUSE_NO":"３８６號","E_COORD97":180644.51000000001,"N_COORD97":2547513.25,"ADDRESS":"中興路３８６號","OBJECTID":517124},"geometry":{"x":180644.51000000071,"y":2547513.25}},{"attributes":{"ID":517152,"DIS_CODE":0,"TOWNNAME":"新化區","LI":"唪口里","LIN":"1鄰","STREET":"大德路","SECT":" ","MAREA":" ","LANE":" ","ALLEY":" ","HOUSE_NO":"１７８號","E_COORD97":177856.63,"N_COORD97":2549370.25,"ADDRESS":"大德路１７８號","OBJECTID":517125},"geometry":{"x":177856.63000000082,"y":2549370.2500000019}},{"attributes":{"ID":517153,"DIS_CODE":0,"TOWNNAME":"新化區","LI":"觀音里","LIN":"1鄰","STREET":"中山路","SECT":" ","MAREA":" ","LANE":" ","ALLEY":" ","HOUSE_NO":"２５２號","E_COORD97":179061.31,"N_COORD97":2548439.25,"ADDRESS":"中山路２５２號","OBJECTID":517126},"geometry":{"x":179061.30999999959,"y":2548439.25}},{"attributes":{"ID":517154,"DIS_CODE":0,"TOWNNAME":"新化區","LI":"太平里","LIN":"1鄰","STREET":"忠孝路","SECT":" ","MAREA":" ","LANE":" ","ALLEY":" ","HOUSE_NO":"３３號之４","E_COORD97":179098.60999999999,"N_COORD97":2548686.2599999998,"ADDRESS":"忠孝路３３號之４","OBJECTID":517127},"geometry":{"x":179098.61000000034,"y":2548686.2599999998}},{"attributes":{"ID":517155,"DIS_CODE":0,"TOWNNAME":"新化區","LI":"太平里","LIN":"1鄰","STREET":"中正路","SECT":" ","MAREA":" ","LANE":" ","ALLEY":" ","HOUSE_NO":"４７８號之１","E_COORD97":179033.34,"N_COORD97":2548599.2599999998,"ADDRESS":"中正路４７８號之１","OBJECTID":517128},"geometry":{"x":179033.34000000078,"y":2548599.2600000035}},{"attributes":{"ID":517156,"DIS_CODE":0,"TOWNNAME":"新化區","LI":"東榮里","LIN":"1鄰","STREET":"中興路","SECT":" ","MAREA":" ","LANE":" ","ALLEY":" ","HOUSE_NO":"３８４號","E_COORD97":180646.51000000001,"N_COORD97":2547512.25,"ADDRESS":"中興路３８４號","OBJECTID":517129},"geometry":{"x":180646.50999999978,"y":2547512.2500000019}},{"attributes":{"ID":517157,"DIS_CODE":0,"TOWNNAME":"新化區","LI":"清水里","LIN":"1鄰","STREET":"中山路","SECT":" ","MAREA":" ","LANE":" ","ALLEY":" ","HOUSE_NO":"３６１號","E_COORD97":178834.10999999999,"N_COORD97":2548395.25,"ADDRESS":"中山路３６１號","OBJECTID":517130},"geometry":{"x":178834.11000000127,"y":2548395.25}},{"attributes":{"ID":517158,"DIS_CODE":0,"TOWNNAME":"新化區","LI":"武安里","LIN":"1鄰","STREET":"公園路","SECT":" ","MAREA":" ","LANE":" ","ALLEY":" ","HOUSE_NO":"２０號","E_COORD97":179064.17999999999,"N_COORD97":2547736.25,"ADDRESS":"公園路２０號","OBJECTID":517131},"geometry":{"x":179064.1799999997,"y":2547736.2500000019}},{"attributes":{"ID":517159,"DIS_CODE":0,"TOWNNAME":"新化區","LI":"唪口里","LIN":"1鄰","STREET":"大德路","SECT":" ","MAREA":" ","LANE":" ","ALLEY":" ","HOUSE_NO":"４８號之３","E_COORD97":178489.13,"N_COORD97":2549418.2599999998,"ADDRESS":"大德路４８號之３","OBJECTID":517132},"geometry":{"x":178489.13000000082,"y":2549418.2599999998}},{"attributes":{"ID":517160,"DIS_CODE":0,"TOWNNAME":"新化區","LI":"太平里","LIN":"1鄰","STREET":"忠孝路","SECT":" ","MAREA":" ","LANE":" ","ALLEY":" ","HOUSE_NO":"２３號","E_COORD97":179123.26999999999,"N_COORD97":2548714.25,"ADDRESS":"忠孝路２３號","OBJECTID":517133},"geometry":{"x":179123.27000000048,"y":2548714.25}},{"attributes":{"ID":517161,"DIS_CODE":0,"TOWNNAME":"新化區","LI":"唪口里","LIN":"1鄰","STREET":"大德路","SECT":" ","MAREA":" ","LANE":" ","ALLEY":" ","HOUSE_NO":"３２號","E_COORD97":178551.67999999999,"N_COORD97":2549404.25,"ADDRESS":"大德路３２號","OBJECTID":517134},"geometry":{"x":178551.6799999997,"y":2549404.2500000019}},{"attributes":{"ID":517162,"DIS_CODE":0,"TOWNNAME":"新化區","LI":"觀音里","LIN":"1鄰","STREET":"中山路","SECT":" ","MAREA":" ","LANE":" ","ALLEY":" ","HOUSE_NO":"２５４號","E_COORD97":179055.60999999999,"N_COORD97":2548438.25,"ADDRESS":"中山路２５４號","OBJECTID":517135},"geometry":{"x":179055.61000000127,"y":2548438.2500000019}},{"attributes":{"ID":517163,"DIS_CODE":0,"TOWNNAME":"新化區","LI":"唪口里","LIN":"1鄰","STREET":"大德路","SECT":" ","MAREA":" ","LANE":" ","ALLEY":" ","HOUSE_NO":"３８號之５","E_COORD97":178539.64000000001,"N_COORD97":2549436.2599999998,"ADDRESS":"大德路３８號之５","OBJECTID":517136},"geometry":{"x":178539.6400000006,"y":2549436.2599999998}},{"attributes":{"ID":517164,"DIS_CODE":0,"TOWNNAME":"新化區","LI":"豐榮里","LIN":"1鄰","STREET":"大智路","SECT":" ","MAREA":" ","LANE":" ","ALLEY":" ","HOUSE_NO":"１８號","E_COORD97":178312.98000000001,"N_COORD97":2548403.25,"ADDRESS":"大智路１８號","OBJECTID":517137},"geometry":{"x":178312.98000000138,"y":2548403.2500000019}},{"attributes":{"ID":517165,"DIS_CODE":0,"TOWNNAME":"新化區","LI":"唪口里","LIN":"1鄰","STREET":"大德路","SECT":" ","MAREA":" ","LANE":" ","ALLEY":" ","HOUSE_NO":"４２號之３","E_COORD97":178515.63,"N_COORD97":2549420.2599999998,"ADDRESS":"大德路４２號之３","OBJECTID":517138},"geometry":{"x":178515.63000000175,"y":2549420.2600000016}},{"attributes":{"ID":517166,"DIS_CODE":0,"TOWNNAME":"新化區","LI":"觀音里","LIN":"1鄰","STREET":"中山路","SECT":" ","MAREA":" ","LANE":" ","ALLEY":" ","HOUSE_NO":"２４８號","E_COORD97":179067.41,"N_COORD97":2548439.25,"ADDRESS":"中山路２４８號","OBJECTID":517139},"geometry":{"x":179067.41000000108,"y":2548439.25}},{"attributes":{"ID":517167,"DIS_CODE":0,"TOWNNAME":"新化區","LI":"唪口里","LIN":"1鄰","STREET":"大德路","SECT":" ","MAREA":" ","LANE":" ","ALLEY":" ","HOUSE_NO":"７０號","E_COORD97":178435.67999999999,"N_COORD97":2549389.25,"ADDRESS":"大德路７０號","OBJECTID":517140},"geometry":{"x":178435.68000000063,"y":2549389.2499999981}},{"attributes":{"ID":517168,"DIS_CODE":0,"TOWNNAME":"楠西區","LI":"楠西里","LIN":"1鄰","STREET":"民族路","SECT":" ","MAREA":" ","LANE":" ","ALLEY":" ","HOUSE_NO":"９６號","E_COORD97":197028.94,"N_COORD97":2564080.29,"ADDRESS":"民族路９６號","OBJECTID":517141},"geometry":{"x":197028.94000000227,"y":2564080.290000001}},{"attributes":{"ID":517169,"DIS_CODE":0,"TOWNNAME":"新化區","LI":"護國里","LIN":"1鄰","STREET":"中山路","SECT":" ","MAREA":" ","LANE":" ","ALLEY":" ","HOUSE_NO":"２３８號","E_COORD97":179095.10999999999,"N_COORD97":2548446.25,"ADDRESS":"中山路２３８號","OBJECTID":517142},"geometry":{"x":179095.11000000127,"y":2548446.25}},{"attributes":{"ID":517170,"DIS_CODE":0,"TOWNNAME":"新化區","LI":"護國里","LIN":"1鄰","STREET":"中山路","SECT":" ","MAREA":" ","LANE":" ","ALLEY":" ","HOUSE_NO":"２２６號","E_COORD97":179122.01000000001,"N_COORD97":2548452.25,"ADDRESS":"中山路２２６號","OBJECTID":517143},"geometry":{"x":179122.01000000071,"y":2548452.25}},{"attributes":{"ID":517171,"DIS_CODE":0,"TOWNNAME":"新化區","LI":"觀音里","LIN":"1鄰","STREET":"中山路","SECT":" ","MAREA":" ","LANE":" ","ALLEY":" ","HOUSE_NO":"２４６號","E_COORD97":179070.60999999999,"N_COORD97":2548439.25,"ADDRESS":"中山路２４６號","OBJECTID":517144},"geometry":{"x":179070.6100000022,"y":2548439.25}},{"attributes":{"ID":517172,"DIS_CODE":0,"TOWNNAME":"新化區","LI":"唪口里","LIN":"1鄰","STREET":"中正路","SECT":" ","MAREA":" ","LANE":" ","ALLEY":" ","HOUSE_NO":"９６１號","E_COORD97":178396.41,"N_COORD97":2549888.25,"ADDRESS":"中正路９６１號","OBJECTID":517145},"geometry":{"x":178396.41000000015,"y":2549888.2500000019}},{"attributes":{"ID":517173,"DIS_CODE":0,"TOWNNAME":"新化區","LI":"唪口里","LIN":"1鄰","STREET":"大德路","SECT":" ","MAREA":" ","LANE":" ","ALLEY":" ","HOUSE_NO":"６７號","E_COORD97":178266.38,"N_COORD97":2549355.25,"ADDRESS":"大德路６７號","OBJECTID":517146},"geometry":{"x":178266.37999999896,"y":2549355.25}},{"attributes":{"ID":517174,"DIS_CODE":0,"TOWNNAME":"新化區","LI":"護國里","LIN":"1鄰","STREET":"中山路","SECT":" ","MAREA":" ","LANE":" ","ALLEY":" ","HOUSE_NO":"２４２號","E_COORD97":179086.41,"N_COORD97":2548443.25,"ADDRESS":"中山路２４２號","OBJECTID":517147},"geometry":{"x":179086.41000000015,"y":2548443.25}},{"attributes":{"ID":517175,"DIS_CODE":0,"TOWNNAME":"新化區","LI":"唪口里","LIN":"1鄰","STREET":"大德路","SECT":" ","MAREA":" ","LANE":" ","ALLEY":" ","HOUSE_NO":"５１號","E_COORD97":178345.78,"N_COORD97":2549362.25,"ADDRESS":"大德路５１號","OBJECTID":517148},"geometry":{"x":178345.78000000119,"y":2549362.2499999981}},{"attributes":{"ID":517176,"DIS_CODE":0,"TOWNNAME":"新化區","LI":"清水里","LIN":"1鄰","STREET":"中山路","SECT":" ","MAREA":" ","LANE":" ","ALLEY":" ","HOUSE_NO":"３８１號","E_COORD97":178818.70999999999,"N_COORD97":2548399.25,"ADDRESS":"中山路３８１號","OBJECTID":517149},"geometry":{"x":178818.71000000183,"y":2548399.25}},{"attributes":{"ID":517177,"DIS_CODE":0,"TOWNNAME":"新化區","LI":"唪口里","LIN":"1鄰","STREET":"大德路","SECT":" ","MAREA":" ","LANE":" ","ALLEY":" ","HOUSE_NO":"４６號","E_COORD97":178505.17999999999,"N_COORD97":2549398.25,"ADDRESS":"大德路４６號","OBJECTID":517150},"geometry":{"x":178505.18000000063,"y":2549398.25}},{"attributes":{"ID":517178,"DIS_CODE":0,"TOWNNAME":"新化區","LI":"東榮里","LIN":"1鄰","STREET":"中興路","SECT":" ","MAREA":" ","LANE":" ","ALLEY":" ","HOUSE_NO":"２１８號","E_COORD97":181483.31,"N_COORD97":2547317.25,"ADDRESS":"中興路２１８號","OBJECTID":517151},"geometry":{"x":181483.30999999959,"y":2547317.25}},{"attributes":{"ID":517179,"DIS_CODE":0,"TOWNNAME":"新化區","LI":"東榮里","LIN":"1鄰","STREET":"中興路","SECT":" ","MAREA":" ","LANE":" ","ALLEY":" ","HOUSE_NO":"３８８號","E_COORD97":180641.70999999999,"N_COORD97":2547514.25,"ADDRESS":"中興路３８８號","OBJECTID":517152},"geometry":{"x":180641.71000000089,"y":2547514.25}},{"attributes":{"ID":517180,"DIS_CODE":0,"TOWNNAME":"新化區","LI":"護國里","LIN":"1鄰","STREET":"中正路","SECT":" ","MAREA":" ","LANE":" ","ALLEY":" ","HOUSE_NO":"４１０號","E_COORD97":179079.31,"N_COORD97":2548463.25,"ADDRESS":"中正路４１０號","OBJECTID":517153},"geometry":{"x":179079.31000000052,"y":2548463.25}},{"attributes":{"ID":517181,"DIS_CODE":0,"TOWNNAME":"新化區","LI":"東榮里","LIN":"1鄰","STREET":"中興路","SECT":" ","MAREA":" ","LANE":" ","ALLEY":" ","HOUSE_NO":"３９０號","E_COORD97":180638.41,"N_COORD97":2547516.25,"ADDRESS":"中興路３９０號","OBJECTID":517154},"geometry":{"x":180638.41000000108,"y":2547516.2500000019}},{"attributes":{"ID":517182,"DIS_CODE":0,"TOWNNAME":"新化區","LI":"東榮里","LIN":"1鄰","STREET":"中興路","SECT":" ","MAREA":" ","LANE":" ","ALLEY":" ","HOUSE_NO":"３７８號","E_COORD97":180654.91,"N_COORD97":2547509.25,"ADDRESS":"中興路３７８號","OBJECTID":517155},"geometry":{"x":180654.91000000015,"y":2547509.2500000019}},{"attributes":{"ID":517183,"DIS_CODE":0,"TOWNNAME":"新化區","LI":"豐榮里","LIN":"1鄰","STREET":"大智路","SECT":" ","MAREA":" ","LANE":" ","ALLEY":" ","HOUSE_NO":"３６號","E_COORD97":178290.67999999999,"N_COORD97":2548362.25,"ADDRESS":"大智路３６號","OBJECTID":517156},"geometry":{"x":178290.6799999997,"y":2548362.2500000037}},{"attributes":{"ID":517184,"DIS_CODE":0,"TOWNNAME":"新化區","LI":"觀音里","LIN":"1鄰","STREET":"中正路","SECT":" ","MAREA":" ","LANE":" ","ALLEY":" ","HOUSE_NO":"４６７號","E_COORD97":179057.10999999999,"N_COORD97":2548491.25,"ADDRESS":"中正路４６７號","OBJECTID":517157},"geometry":{"x":179057.1100000022,"y":2548491.2500000037}},{"attributes":{"ID":517185,"DIS_CODE":0,"TOWNNAME":"新化區","LI":"中央里","LIN":"1鄰","STREET":"中正路","SECT":" ","MAREA":" ","LANE":" ","ALLEY":" ","HOUSE_NO":"４０１號","E_COORD97":179094.91,"N_COORD97":2548324.25,"ADDRESS":"中正路４０１號","OBJECTID":517158},"geometry":{"x":179094.91000000015,"y":2548324.25}},{"attributes":{"ID":517186,"DIS_CODE":0,"TOWNNAME":"新化區","LI":"中央里","LIN":"1鄰","STREET":"信義路","SECT":" ","MAREA":" ","LANE":" ","ALLEY":" ","HOUSE_NO":"２４４號","E_COORD97":179061.32999999999,"N_COORD97":2548317.25,"ADDRESS":"信義路２４４號","OBJECTID":517159},"geometry":{"x":179061.33000000007,"y":2548317.25}},{"attributes":{"ID":517187,"DIS_CODE":0,"TOWNNAME":"新化區","LI":"武安里","LIN":"1鄰","STREET":"中正路","SECT":" ","MAREA":" ","LANE":" ","ALLEY":" ","HOUSE_NO":"２０９號","E_COORD97":179094.01000000001,"N_COORD97":2547685.25,"ADDRESS":"中正路２０９號","OBJECTID":517160},"geometry":{"x":179094.00999999978,"y":2547685.2500000019}},{"attributes":{"ID":517188,"DIS_CODE":0,"TOWNNAME":"新化區","LI":"協興里","LIN":"1鄰","STREET":"忠孝路","SECT":" ","MAREA":" ","LANE":" ","ALLEY":" ","HOUSE_NO":"１６２號之１","E_COORD97":178525.54999999999,"N_COORD97":2548623.2599999998,"ADDRESS":"忠孝路１６２號之１","OBJECTID":517161},"geometry":{"x":178525.54999999981,"y":2548623.2600000035}},{"attributes":{"ID":517189,"DIS_CODE":0,"TOWNNAME":"新化區","LI":"太平里","LIN":"1鄰","STREET":"忠孝路","SECT":" ","MAREA":" ","LANE":" ","ALLEY":" ","HOUSE_NO":"３３號之５","E_COORD97":179099.73000000001,"N_COORD97":2548681.2599999998,"ADDRESS":"忠孝路３３號之５","OBJECTID":517162},"geometry":{"x":179099.73000000045,"y":2548681.2600000016}},{"attributes":{"ID":517190,"DIS_CODE":0,"TOWNNAME":"新化區","LI":"豐榮里","LIN":"1鄰","STREET":"大智路","SECT":" ","MAREA":" ","LANE":" ","ALLEY":" ","HOUSE_NO":"８號","E_COORD97":178341.73000000001,"N_COORD97":2548415.25,"ADDRESS":"大智路８號","OBJECTID":517163},"geometry":{"x":178341.73000000138,"y":2548415.25}},{"attributes":{"ID":517191,"DIS_CODE":0,"TOWNNAME":"新化區","LI":"中央里","LIN":"1鄰","STREET":"信義路","SECT":" ","MAREA":" ","LANE":" ","ALLEY":" ","HOUSE_NO":"２６４號","E_COORD97":179037.03,"N_COORD97":2548313.25,"ADDRESS":"信義路２６４號","OBJECTID":517164},"geometry":{"x":179037.02999999933,"y":2548313.25}},{"attributes":{"ID":517192,"DIS_CODE":0,"TOWNNAME":"新化區","LI":"太平里","LIN":"1鄰","STREET":"忠孝路","SECT":" ","MAREA":" ","LANE":" ","ALLEY":" ","HOUSE_NO":"２９號","E_COORD97":179105.47,"N_COORD97":2548712.25,"ADDRESS":"忠孝路２９號","OBJECTID":517165},"geometry":{"x":179105.47000000067,"y":2548712.2500000019}},{"attributes":{"ID":517193,"DIS_CODE":0,"TOWNNAME":"新化區","LI":"觀音里","LIN":"1鄰","STREET":"中正路","SECT":" ","MAREA":" ","LANE":" ","ALLEY":" ","HOUSE_NO":"４６３號","E_COORD97":179059.91,"N_COORD97":2548484.25,"ADDRESS":"中正路４６３號","OBJECTID":517166},"geometry":{"x":179059.91000000201,"y":2548484.2500000037}},{"attributes":{"ID":517194,"DIS_CODE":0,"TOWNNAME":"新化區","LI":"協興里","LIN":"1鄰","STREET":"太平街","SECT":" ","MAREA":" ","LANE":" ","ALLEY":" ","HOUSE_NO":"９９號之１","E_COORD97":178603.89999999999,"N_COORD97":2548729.2599999998,"ADDRESS":"太平街９９號之１","OBJECTID":517167},"geometry":{"x":178603.90000000037,"y":2548729.2600000016}},{"attributes":{"ID":517195,"DIS_CODE":0,"TOWNNAME":"新化區","LI":"中央里","LIN":"1鄰","STREET":"中正路","SECT":" ","MAREA":" ","LANE":" ","ALLEY":" ","HOUSE_NO":"４１３號","E_COORD97":179088.70999999999,"N_COORD97":2548352.25,"ADDRESS":"中正路４１３號","OBJECTID":517168},"geometry":{"x":179088.71000000089,"y":2548352.2500000037}},{"attributes":{"ID":517196,"DIS_CODE":0,"TOWNNAME":"新化區","LI":"中央里","LIN":"1鄰","STREET":"信義路","SECT":" ","MAREA":" ","LANE":" ","ALLEY":" ","HOUSE_NO":"２３６號","E_COORD97":179075.53,"N_COORD97":2548321.25,"ADDRESS":"信義路２３６號","OBJECTID":517169},"geometry":{"x":179075.53000000026,"y":2548321.25}},{"attributes":{"ID":517197,"DIS_CODE":0,"TOWNNAME":"新化區","LI":"太平里","LIN":"1鄰","STREET":"仁愛街","SECT":" ","MAREA":" ","LANE":" ","ALLEY":" ","HOUSE_NO":"２８號","E_COORD97":179130.31,"N_COORD97":2548608.27,"ADDRESS":"仁愛街２８號","OBJECTID":517170},"geometry":{"x":179130.31000000052,"y":2548608.2699999996}},{"attributes":{"ID":517198,"DIS_CODE":0,"TOWNNAME":"新化區","LI":"中央里","LIN":"1鄰","STREET":"中正路","SECT":" ","MAREA":" ","LANE":" ","ALLEY":" ","HOUSE_NO":"４０５號","E_COORD97":179092.91,"N_COORD97":2548334.25,"ADDRESS":"中正路４０５號","OBJECTID":517171},"geometry":{"x":179092.91000000108,"y":2548334.25}},{"attributes":{"ID":517199,"DIS_CODE":0,"TOWNNAME":"新化區","LI":"太平里","LIN":"1鄰","STREET":"仁愛街","SECT":" ","MAREA":" ","LANE":" ","ALLEY":" ","HOUSE_NO":"１６號","E_COORD97":179177.28,"N_COORD97":2548616.25,"ADDRESS":"仁愛街１６號","OBJECTID":517172},"geometry":{"x":179177.28000000026,"y":2548616.2499999981}},{"attributes":{"ID":517200,"DIS_CODE":0,"TOWNNAME":"新化區","LI":"中央里","LIN":"1鄰","STREET":"中正路","SECT":" ","MAREA":" ","LANE":" ","ALLEY":" ","HOUSE_NO":"４２１號","E_COORD97":179085.31,"N_COORD97":2548368.25,"ADDRESS":"中正路４２１號","OBJECTID":517173},"geometry":{"x":179085.30999999866,"y":2548368.25}},{"attributes":{"ID":517201,"DIS_CODE":0,"TOWNNAME":"新化區","LI":"武安里","LIN":"1鄰","STREET":"中正路","SECT":" ","MAREA":" ","LANE":" ","ALLEY":" ","HOUSE_NO":"２５１號","E_COORD97":179088.20999999999,"N_COORD97":2547809.25,"ADDRESS":"中正路２５１號","OBJECTID":517174},"geometry":{"x":179088.21000000183,"y":2547809.25}},{"attributes":{"ID":517202,"DIS_CODE":0,"TOWNNAME":"新化區","LI":"豐榮里","LIN":"1鄰","STREET":"大智路","SECT":" ","MAREA":" ","LANE":" ","ALLEY":" ","HOUSE_NO":"２２號","E_COORD97":178291.28,"N_COORD97":2548399.25,"ADDRESS":"大智路２２號","OBJECTID":517175},"geometry":{"x":178291.28000000212,"y":2548399.25}},{"attributes":{"ID":517203,"DIS_CODE":0,"TOWNNAME":"新化區","LI":"協興里","LIN":"1鄰","STREET":"忠孝路","SECT":" ","MAREA":" ","LANE":" ","ALLEY":" ","HOUSE_NO":"１６２號","E_COORD97":178530.42000000001,"N_COORD97":2548624.25,"ADDRESS":"忠孝路１６２號","OBJECTID":517176},"geometry":{"x":178530.41999999993,"y":2548624.2500000019}},{"attributes":{"ID":517204,"DIS_CODE":0,"TOWNNAME":"新化區","LI":"太平里","LIN":"1鄰","STREET":"仁愛街","SECT":" ","MAREA":" ","LANE":" ","ALLEY":" ","HOUSE_NO":"４６號","E_COORD97":179044.88,"N_COORD97":2548596.25,"ADDRESS":"仁愛街４６號","OBJECTID":517177},"geometry":{"x":179044.88000000082,"y":2548596.2500000037}},{"attributes":{"ID":517205,"DIS_CODE":0,"TOWNNAME":"新化區","LI":"太平里","LIN":"1鄰","STREET":"建國街","SECT":" ","MAREA":" ","LANE":" ","ALLEY":" ","HOUSE_NO":"３１號之２","E_COORD97":179188.63,"N_COORD97":2548643.2599999998,"ADDRESS":"建國街３１號之２","OBJECTID":517178},"geometry":{"x":179188.63000000175,"y":2548643.2600000035}},{"attributes":{"ID":517206,"DIS_CODE":0,"TOWNNAME":"新化區","LI":"觀音里","LIN":"1鄰","STREET":"中正路","SECT":" ","MAREA":" ","LANE":" ","ALLEY":" ","HOUSE_NO":"４７３號","E_COORD97":179051.70999999999,"N_COORD97":2548505.25,"ADDRESS":"中正路４７３號","OBJECTID":517179},"geometry":{"x":179051.71000000089,"y":2548505.2500000019}},{"attributes":{"ID":517207,"DIS_CODE":0,"TOWNNAME":"新化區","LI":"太平里","LIN":"1鄰","STREET":"中正路","SECT":" ","MAREA":" ","LANE":" ","ALLEY":" ","HOUSE_NO":"４８２號之１","E_COORD97":179027.04000000001,"N_COORD97":2548617.2599999998,"ADDRESS":"中正路４８２號之１","OBJECTID":517180},"geometry":{"x":179027.04000000097,"y":2548617.2600000016}},{"attributes":{"ID":517208,"DIS_CODE":0,"TOWNNAME":"新化區","LI":"中央里","LIN":"1鄰","STREET":"信義路","SECT":" ","MAREA":" ","LANE":" ","ALLEY":" ","HOUSE_NO":"２４０號","E_COORD97":179066.03,"N_COORD97":2548318.25,"ADDRESS":"信義路２４０號","OBJECTID":517181},"geometry":{"x":179066.03000000212,"y":2548318.2500000037}},{"attributes":{"ID":517209,"DIS_CODE":0,"TOWNNAME":"新化區","LI":"協興里","LIN":"1鄰","STREET":"忠孝路","SECT":" ","MAREA":" ","LANE":" ","ALLEY":" ","HOUSE_NO":"１６５號","E_COORD97":178603.72,"N_COORD97":2548613.25,"ADDRESS":"忠孝路１６５號","OBJECTID":517182},"geometry":{"x":178603.72000000067,"y":2548613.2500000037}},{"attributes":{"ID":517210,"DIS_CODE":0,"TOWNNAME":"新化區","LI":"太平里","LIN":"1鄰","STREET":"中正路","SECT":" ","MAREA":" ","LANE":" ","ALLEY":" ","HOUSE_NO":"４８２號","E_COORD97":179028.01000000001,"N_COORD97":2548613.25,"ADDRESS":"中正路４８２號","OBJECTID":517183},"geometry":{"x":179028.00999999978,"y":2548613.2500000037}},{"attributes":{"ID":517211,"DIS_CODE":0,"TOWNNAME":"新化區","LI":"唪口里","LIN":"1鄰","STREET":"中正路","SECT":" ","MAREA":" ","LANE":" ","ALLEY":" ","HOUSE_NO":"９２１號","E_COORD97":178490.91,"N_COORD97":2549756.25,"ADDRESS":"中正路９２１號","OBJECTID":517184},"geometry":{"x":178490.91000000108,"y":2549756.2500000019}},{"attributes":{"ID":517212,"DIS_CODE":0,"TOWNNAME":"新化區","LI":"中央里","LIN":"1鄰","STREET":"中正路","SECT":" ","MAREA":" ","LANE":" ","ALLEY":" ","HOUSE_NO":"４１９號","E_COORD97":179085.81,"N_COORD97":2548365.25,"ADDRESS":"中正路４１９號","OBJECTID":517185},"geometry":{"x":179085.81000000052,"y":2548365.25}},{"attributes":{"ID":517213,"DIS_CODE":0,"TOWNNAME":"新化區","LI":"武安里","LIN":"1鄰","STREET":"中正路","SECT":" ","MAREA":" ","LANE":" ","ALLEY":" ","HOUSE_NO":"２４３號之１","E_COORD97":179091.64000000001,"N_COORD97":2547742.2599999998,"ADDRESS":"中正路２４３號之１","OBJECTID":517186},"geometry":{"x":179091.63999999873,"y":2547742.2600000016}},{"attributes":{"ID":517214,"DIS_CODE":0,"TOWNNAME":"新化區","LI":"協興里","LIN":"1鄰","STREET":"太平街","SECT":" ","MAREA":" ","LANE":" ","ALLEY":" ","HOUSE_NO":"９９號之４","E_COORD97":178585.31,"N_COORD97":2548726.2599999998,"ADDRESS":"太平街９９號之４","OBJECTID":517187},"geometry":{"x":178585.31000000145,"y":2548726.2600000016}},{"attributes":{"ID":517215,"DIS_CODE":0,"TOWNNAME":"楠西區","LI":"東勢里","LIN":"5鄰","STREET":"東勢路","SECT":" ","MAREA":" ","LANE":" ","ALLEY":" ","HOUSE_NO":"１３９號","E_COORD97":197332.26999999999,"N_COORD97":2564021.29,"ADDRESS":"東勢路１３９號","OBJECTID":517188},"geometry":{"x":197332.26999999955,"y":2564021.2900000028}},{"attributes":{"ID":517216,"DIS_CODE":0,"TOWNNAME":"楠西區","LI":"東勢里","LIN":"17鄰","STREET":"和平路","SECT":" ","MAREA":" ","LANE":" ","ALLEY":" ","HOUSE_NO":"３８號","E_COORD97":197560.69,"N_COORD97":2563690.25,"ADDRESS":"和平路３８號","OBJECTID":517189},"geometry":{"x":197560.69000000041,"y":2563690.2500000037}},{"attributes":{"ID":517217,"DIS_CODE":0,"TOWNNAME":"新化區","LI":"豐榮里","LIN":"1鄰","STREET":"大智路","SECT":" ","MAREA":" ","LANE":" ","ALLEY":" ","HOUSE_NO":"３２號","E_COORD97":178300.38,"N_COORD97":2548371.25,"ADDRESS":"大智路３２號","OBJECTID":517190},"geometry":{"x":178300.38000000175,"y":2548371.25}},{"attributes":{"ID":517218,"DIS_CODE":0,"TOWNNAME":"新化區","LI":"豐榮里","LIN":"1鄰","STREET":"中山路","SECT":" ","MAREA":" ","LANE":" ","ALLEY":" ","HOUSE_NO":"５８１號","E_COORD97":178336.41,"N_COORD97":2548462.25,"ADDRESS":"中山路５８１號","OBJECTID":517191},"geometry":{"x":178336.41000000108,"y":2548462.2500000019}},{"attributes":{"ID":517219,"DIS_CODE":0,"TOWNNAME":"新化區","LI":"中央里","LIN":"1鄰","STREET":"中正路","SECT":" ","MAREA":" ","LANE":" ","ALLEY":" ","HOUSE_NO":"４０３號","E_COORD97":179094.01000000001,"N_COORD97":2548328.25,"ADDRESS":"中正路４０３號","OBJECTID":517192},"geometry":{"x":179094.00999999978,"y":2548328.2500000037}},{"attributes":{"ID":517220,"DIS_CODE":0,"TOWNNAME":"新化區","LI":"唪口里","LIN":"1鄰","STREET":"大德路","SECT":" ","MAREA":" ","LANE":" ","ALLEY":" ","HOUSE_NO":"３７號","E_COORD97":178397.48000000001,"N_COORD97":2549366.25,"ADDRESS":"大德路３７號","OBJECTID":517193},"geometry":{"x":178397.48000000138,"y":2549366.2500000019}},{"attributes":{"ID":517221,"DIS_CODE":0,"TOWNNAME":"新化區","LI":"東榮里","LIN":"1鄰","STREET":"中興路","SECT":" ","MAREA":" ","LANE":" ","ALLEY":" ","HOUSE_NO":"１２４號","E_COORD97":181710.01000000001,"N_COORD97":2547328.25,"ADDRESS":"中興路１２４號","OBJECTID":517194},"geometry":{"x":181710.00999999885,"y":2547328.2500000037}},{"attributes":{"ID":517222,"DIS_CODE":0,"TOWNNAME":"新化區","LI":"唪口里","LIN":"1鄰","STREET":"大德路","SECT":" ","MAREA":" ","LANE":" ","ALLEY":" ","HOUSE_NO":"１７１號","E_COORD97":177799.53,"N_COORD97":2549300.25,"ADDRESS":"大德路１７１號","OBJECTID":517195},"geometry":{"x":177799.53000000026,"y":2549300.25}},{"attributes":{"ID":517223,"DIS_CODE":0,"TOWNNAME":"新化區","LI":"太平里","LIN":"1鄰","STREET":"仁愛街","SECT":" ","MAREA":" ","LANE":" ","ALLEY":" ","HOUSE_NO":"２０號","E_COORD97":179170.48000000001,"N_COORD97":2548616.25,"ADDRESS":"仁愛街２０號","OBJECTID":517196},"geometry":{"x":179170.48000000138,"y":2548616.2499999981}},{"attributes":{"ID":517224,"DIS_CODE":0,"TOWNNAME":"新化區","LI":"武安里","LIN":"1鄰","STREET":"公園路","SECT":" ","MAREA":" ","LANE":" ","ALLEY":" ","HOUSE_NO":"１２號","E_COORD97":179079.07999999999,"N_COORD97":2547739.25,"ADDRESS":"公園路１２號","OBJECTID":517197},"geometry":{"x":179079.08000000194,"y":2547739.2500000019}},{"attributes":{"ID":517225,"DIS_CODE":0,"TOWNNAME":"新化區","LI":"太平里","LIN":"1鄰","STREET":"仁愛街","SECT":" ","MAREA":" ","LANE":" ","ALLEY":" ","HOUSE_NO":"３２號","E_COORD97":179105.07999999999,"N_COORD97":2548612.25,"ADDRESS":"仁愛街３２號","OBJECTID":517198},"geometry":{"x":179105.08000000101,"y":2548612.25}},{"attributes":{"ID":517226,"DIS_CODE":0,"TOWNNAME":"新化區","LI":"豐榮里","LIN":"1鄰","STREET":"中山路","SECT":" ","MAREA":" ","LANE":" ","ALLEY":" ","HOUSE_NO":"５７７號","E_COORD97":178342.41,"N_COORD97":2548461.25,"ADDRESS":"中山路５７７號","OBJECTID":517199},"geometry":{"x":178342.41000000015,"y":2548461.2500000019}},{"attributes":{"ID":517227,"DIS_CODE":0,"TOWNNAME":"新化區","LI":"協興里","LIN":"1鄰","STREET":"正新路","SECT":" ","MAREA":" ","LANE":" ","ALLEY":" ","HOUSE_NO":"２７８號","E_COORD97":178572.12,"N_COORD97":2548662.25,"ADDRESS":"正新路２７８號","OBJECTID":517200},"geometry":{"x":178572.12000000104,"y":2548662.2500000019}}]}