{"displayFieldName":"TOWNNAME","fieldAliases":{"ID":"ID","DIS_CODE":"DIS_CODE","TOWNNAME":"TOWNNAME","LI":"LI","LIN":"LIN","STREET":"STREET","SECT":"SECT","MAREA":"MAREA","LANE":"LANE","ALLEY":"ALLEY","HOUSE_NO":"HOUSE_NO","E_COORD97":"E_COORD97","N_COORD97":"N_COORD97","ADDRESS":"ADDRESS","OBJECTID":"OBJECTID"},"geometryType":"esriGeometryPoint","spatialReference":{"wkid":102443,"latestWkid":3826},"fields":[{"name":"ID","type":"esriFieldTypeDouble","alias":"ID"},{"name":"DIS_CODE","type":"esriFieldTypeInteger","alias":"DIS_CODE"},{"name":"TOWNNAME","type":"esriFieldTypeString","alias":"TOWNNAME","length":8},{"name":"LI","type":"esriFieldTypeString","alias":"LI","length":8},{"name":"LIN","type":"esriFieldTypeString","alias":"LIN","length":12},{"name":"STREET","type":"esriFieldTypeString","alias":"STREET","length":20},{"name":"SECT","type":"esriFieldTypeString","alias":"SECT","length":8},{"name":"MAREA","type":"esriFieldTypeString","alias":"MAREA","length":12},{"name":"LANE","type":"esriFieldTypeString","alias":"LANE","length":10},{"name":"ALLEY","type":"esriFieldTypeString","alias":"ALLEY","length":10},{"name":"HOUSE_NO","type":"esriFieldTypeString","alias":"HOUSE_NO","length":20},{"name":"E_COORD97","type":"esriFieldTypeDouble","alias":"E_COORD97"},{"name":"N_COORD97","type":"esriFieldTypeDouble","alias":"N_COORD97"},{"name":"ADDRESS","type":"esriFieldTypeString","alias":"ADDRESS","length":50},{"name":"OBJECTID","type":"esriFieldTypeOID","alias":"OBJECTID"}],"features":[{"attributes":{"ID":64801,"DIS_CODE":0,"TOWNNAME":"安南區","LI":"海佃里","LIN":"6鄰","STREET":"國安街","SECT":" ","MAREA":" ","LANE":"５６巷","ALLEY":"１７弄","HOUSE_NO":"１４號","E_COORD97":166931.34,"N_COORD97":2547083.2799999998,"ADDRESS":"國安街５６巷１７弄１４號","OBJECTID":64801},"geometry":{"x":166931.34000000078,"y":2547083.2800000031}},{"attributes":{"ID":64802,"DIS_CODE":0,"TOWNNAME":"安南區","LI":"海佃里","LIN":"6鄰","STREET":"國安街","SECT":" ","MAREA":" ","LANE":"５６巷","ALLEY":"１７弄","HOUSE_NO":"１５號","E_COORD97":166930.01000000001,"N_COORD97":2547063.3500000001,"ADDRESS":"國安街５６巷１７弄１５號","OBJECTID":64802},"geometry":{"x":166930.01000000071,"y":2547063.3500000015}},{"attributes":{"ID":64803,"DIS_CODE":0,"TOWNNAME":"安南區","LI":"海佃里","LIN":"6鄰","STREET":"國安街","SECT":" ","MAREA":" ","LANE":"５６巷","ALLEY":"１７弄","HOUSE_NO":"１６號","E_COORD97":166926.01999999999,"N_COORD97":2547081.9500000002,"ADDRESS":"國安街５６巷１７弄１６號","OBJECTID":64803},"geometry":{"x":166926.02000000142,"y":2547081.950000003}},{"attributes":{"ID":64804,"DIS_CODE":0,"TOWNNAME":"安南區","LI":"海佃里","LIN":"6鄰","STREET":"國安街","SECT":" ","MAREA":" ","LANE":"５６巷","ALLEY":"１７弄","HOUSE_NO":"１７號","E_COORD97":166924.01999999999,"N_COORD97":2547062.6899999999,"ADDRESS":"國安街５６巷１７弄１７號","OBJECTID":64804},"geometry":{"x":166924.01999999955,"y":2547062.6899999995}},{"attributes":{"ID":64805,"DIS_CODE":0,"TOWNNAME":"安南區","LI":"海佃里","LIN":"6鄰","STREET":"國安街","SECT":" ","MAREA":" ","LANE":"５６巷","ALLEY":"１７弄","HOUSE_NO":"１８號","E_COORD97":166920.03,"N_COORD97":2547079.96,"ADDRESS":"國安街５６巷１７弄１８號","OBJECTID":64805},"geometry":{"x":166920.03000000212,"y":2547079.959999999}},{"attributes":{"ID":64806,"DIS_CODE":0,"TOWNNAME":"安南區","LI":"海佃里","LIN":"6鄰","STREET":"國安街","SECT":" ","MAREA":" ","LANE":"５６巷","ALLEY":"１７弄","HOUSE_NO":"１９號","E_COORD97":166918.04000000001,"N_COORD97":2547060.6899999999,"ADDRESS":"國安街５６巷１７弄１９號","OBJECTID":64806},"geometry":{"x":166918.0400000019,"y":2547060.6900000013}},{"attributes":{"ID":64807,"DIS_CODE":0,"TOWNNAME":"安南區","LI":"海佃里","LIN":"6鄰","STREET":"國安街","SECT":" ","MAREA":" ","LANE":"５６巷","ALLEY":"１７弄","HOUSE_NO":"２０號","E_COORD97":166914.04999999999,"N_COORD97":2547077.96,"ADDRESS":"國安街５６巷１７弄２０號","OBJECTID":64807},"geometry":{"x":166914.04999999981,"y":2547077.9600000028}},{"attributes":{"ID":64808,"DIS_CODE":0,"TOWNNAME":"安南區","LI":"海佃里","LIN":"6鄰","STREET":"國安街","SECT":" ","MAREA":" ","LANE":"５６巷","ALLEY":"１７弄","HOUSE_NO":"２１號","E_COORD97":166912.04999999999,"N_COORD97":2547059.3599999999,"ADDRESS":"國安街５６巷１７弄２１號","OBJECTID":64808},"geometry":{"x":166912.04999999981,"y":2547059.3600000013}},{"attributes":{"ID":64809,"DIS_CODE":0,"TOWNNAME":"安南區","LI":"海佃里","LIN":"6鄰","STREET":"國安街","SECT":" ","MAREA":" ","LANE":"５６巷","ALLEY":"１７弄","HOUSE_NO":"２２號","E_COORD97":166908.73000000001,"N_COORD97":2547077.96,"ADDRESS":"國安街５６巷１７弄２２號","OBJECTID":64809},"geometry":{"x":166908.73000000231,"y":2547077.9600000028}},{"attributes":{"ID":64810,"DIS_CODE":0,"TOWNNAME":"安南區","LI":"海佃里","LIN":"6鄰","STREET":"國安街","SECT":" ","MAREA":" ","LANE":"５６巷","ALLEY":"１７弄","HOUSE_NO":"２３號","E_COORD97":166906.73000000001,"N_COORD97":2547058.04,"ADDRESS":"國安街５６巷１７弄２３號","OBJECTID":64810},"geometry":{"x":166906.73000000045,"y":2547058.040000001}},{"attributes":{"ID":64811,"DIS_CODE":0,"TOWNNAME":"安南區","LI":"海佃里","LIN":"6鄰","STREET":"國安街","SECT":" ","MAREA":" ","LANE":"５６巷","ALLEY":"１７弄","HOUSE_NO":"２４號","E_COORD97":166902.73999999999,"N_COORD97":2547075.9700000002,"ADDRESS":"國安街５６巷１７弄２４號","OBJECTID":64811},"geometry":{"x":166902.74000000022,"y":2547075.9700000007}},{"attributes":{"ID":64812,"DIS_CODE":0,"TOWNNAME":"安南區","LI":"海佃里","LIN":"6鄰","STREET":"國安街","SECT":" ","MAREA":" ","LANE":"５６巷","ALLEY":"１７弄","HOUSE_NO":"２５號","E_COORD97":166900.75,"N_COORD97":2547056.04,"ADDRESS":"國安街５６巷１７弄２５號","OBJECTID":64812},"geometry":{"x":166900.75,"y":2547056.0399999991}},{"attributes":{"ID":64813,"DIS_CODE":0,"TOWNNAME":"安南區","LI":"海佃里","LIN":"6鄰","STREET":"國安街","SECT":" ","MAREA":" ","LANE":"５６巷","ALLEY":"１７弄","HOUSE_NO":"２６號","E_COORD97":166896.76000000001,"N_COORD97":2547074.6400000001,"ADDRESS":"國安街５６巷１７弄２６號","OBJECTID":64813},"geometry":{"x":166896.75999999978,"y":2547074.6400000006}},{"attributes":{"ID":64814,"DIS_CODE":0,"TOWNNAME":"西港區","LI":"慶安里","LIN":" ","STREET":"中山路","SECT":" ","MAREA":" ","LANE":" ","ALLEY":" ","HOUSE_NO":"４３３號","E_COORD97":168278.5,"N_COORD97":2558548.8599999999,"ADDRESS":"中山路４３３號","OBJECTID":64814},"geometry":{"x":168278.50000000093,"y":2558548.8600000031}},{"attributes":{"ID":64815,"DIS_CODE":0,"TOWNNAME":"安南區","LI":"海佃里","LIN":"6鄰","STREET":"國安街","SECT":" ","MAREA":" ","LANE":"５６巷","ALLEY":"１７弄","HOUSE_NO":"２７號","E_COORD97":166894.10000000001,"N_COORD97":2547056.04,"ADDRESS":"國安街５６巷１７弄２７號","OBJECTID":64815},"geometry":{"x":166894.10000000056,"y":2547056.0399999991}},{"attributes":{"ID":64816,"DIS_CODE":0,"TOWNNAME":"安南區","LI":"海佃里","LIN":"6鄰","STREET":"國安街","SECT":" ","MAREA":" ","LANE":"５６巷","ALLEY":"１７弄","HOUSE_NO":"２８號","E_COORD97":166890.10999999999,"N_COORD97":2547073.3100000001,"ADDRESS":"國安街５６巷１７弄２８號","OBJECTID":64816},"geometry":{"x":166890.11000000034,"y":2547073.3100000005}},{"attributes":{"ID":64817,"DIS_CODE":0,"TOWNNAME":"安南區","LI":"海佃里","LIN":"6鄰","STREET":"國安街","SECT":" ","MAREA":" ","LANE":"５６巷","ALLEY":"１７弄","HOUSE_NO":"２９號","E_COORD97":166888.10999999999,"N_COORD97":2547054.71,"ADDRESS":"國安街５６巷１７弄２９號","OBJECTID":64817},"geometry":{"x":166888.11000000127,"y":2547054.7100000046}},{"attributes":{"ID":64818,"DIS_CODE":0,"TOWNNAME":"安南區","LI":"海佃里","LIN":"6鄰","STREET":"國安街","SECT":" ","MAREA":" ","LANE":"５６巷","ALLEY":"１７弄","HOUSE_NO":"３０號","E_COORD97":166884.12,"N_COORD97":2547071.9900000002,"ADDRESS":"國安街５６巷１７弄３０號","OBJECTID":64818},"geometry":{"x":166884.12000000104,"y":2547071.9900000002}},{"attributes":{"ID":64819,"DIS_CODE":0,"TOWNNAME":"安南區","LI":"海佃里","LIN":"6鄰","STREET":"國安街","SECT":" ","MAREA":" ","LANE":"５６巷","ALLEY":"１７弄","HOUSE_NO":"３１號","E_COORD97":166884.12,"N_COORD97":2547053.3900000001,"ADDRESS":"國安街５６巷１７弄３１號","OBJECTID":64819},"geometry":{"x":166884.12000000104,"y":2547053.3900000043}},{"attributes":{"ID":64820,"DIS_CODE":0,"TOWNNAME":"安南區","LI":"海佃里","LIN":"6鄰","STREET":"國安街","SECT":" ","MAREA":" ","LANE":"５６巷","ALLEY":"１７弄","HOUSE_NO":"３２號","E_COORD97":166879.47,"N_COORD97":2547070.6600000001,"ADDRESS":"國安街５６巷１７弄３２號","OBJECTID":64820},"geometry":{"x":166879.47000000067,"y":2547070.6600000001}},{"attributes":{"ID":64821,"DIS_CODE":0,"TOWNNAME":"安南區","LI":"海佃里","LIN":"6鄰","STREET":"國安街","SECT":" ","MAREA":" ","LANE":"５６巷","ALLEY":"１７弄","HOUSE_NO":"３４號","E_COORD97":166874.14999999999,"N_COORD97":2547069.9900000002,"ADDRESS":"國安街５６巷１７弄３４號","OBJECTID":64821},"geometry":{"x":166874.1500000013,"y":2547069.9900000021}},{"attributes":{"ID":64822,"DIS_CODE":0,"TOWNNAME":"安南區","LI":"海佃里","LIN":"6鄰","STREET":"國安街","SECT":" ","MAREA":" ","LANE":"５６巷","ALLEY":"１７弄","HOUSE_NO":"３５號","E_COORD97":166872.82000000001,"N_COORD97":2547050.0600000001,"ADDRESS":"國安街５６巷１７弄３５號","OBJECTID":64822},"geometry":{"x":166872.82000000123,"y":2547050.0600000024}},{"attributes":{"ID":64823,"DIS_CODE":0,"TOWNNAME":"安南區","LI":"海佃里","LIN":"6鄰","STREET":"國安街","SECT":" ","MAREA":" ","LANE":"５６巷","ALLEY":"１７弄","HOUSE_NO":"３６號","E_COORD97":166868.82999999999,"N_COORD97":2547068.6600000001,"ADDRESS":"國安街５６巷１７弄３６號","OBJECTID":64823},"geometry":{"x":166868.83000000101,"y":2547068.660000002}},{"attributes":{"ID":64824,"DIS_CODE":0,"TOWNNAME":"善化區","LI":"什乃里","LIN":"1鄰","STREET":" ","SECT":" ","MAREA":"什乃","LANE":" ","ALLEY":" ","HOUSE_NO":"３號","E_COORD97":176249.85999999999,"N_COORD97":2560358.75,"ADDRESS":"什乃３號","OBJECTID":64824},"geometry":{"x":176249.8600000022,"y":2560358.7500000019}},{"attributes":{"ID":64825,"DIS_CODE":0,"TOWNNAME":"安南區","LI":"海佃里","LIN":"6鄰","STREET":"國安街","SECT":" ","MAREA":" ","LANE":"５６巷","ALLEY":"１７弄","HOUSE_NO":"３７號","E_COORD97":166868.16,"N_COORD97":2547049.3999999999,"ADDRESS":"國安街５６巷１７弄３７號","OBJECTID":64825},"geometry":{"x":166868.16000000201,"y":2547049.3999999985}},{"attributes":{"ID":64826,"DIS_CODE":0,"TOWNNAME":"安南區","LI":"海佃里","LIN":"6鄰","STREET":"國安街","SECT":" ","MAREA":" ","LANE":"５６巷","ALLEY":"１７弄","HOUSE_NO":"３８號","E_COORD97":166863.51000000001,"N_COORD97":2547068,"ADDRESS":"國安街５６巷１７弄３８號","OBJECTID":64826},"geometry":{"x":166863.50999999885,"y":2547068}},{"attributes":{"ID":64827,"DIS_CODE":0,"TOWNNAME":"仁德區","LI":"中生里","LIN":"1鄰","STREET":" ","SECT":" ","MAREA":"中洲","LANE":" ","ALLEY":" ","HOUSE_NO":"７２號之２","E_COORD97":173122.56,"N_COORD97":2534342.29,"ADDRESS":"中洲７２號之２","OBJECTID":64827},"geometry":{"x":173122.56000000052,"y":2534342.290000001}},{"attributes":{"ID":64828,"DIS_CODE":0,"TOWNNAME":"仁德區","LI":"中生里","LIN":"1鄰","STREET":" ","SECT":" ","MAREA":"中洲","LANE":" ","ALLEY":" ","HOUSE_NO":"５７號之１","E_COORD97":173128.47,"N_COORD97":2534304.5499999998,"ADDRESS":"中洲５７號之１","OBJECTID":64828},"geometry":{"x":173128.46999999974,"y":2534304.5500000045}},{"attributes":{"ID":64829,"DIS_CODE":0,"TOWNNAME":"仁德區","LI":"中洲里","LIN":"1鄰","STREET":" ","SECT":" ","MAREA":"中洲","LANE":" ","ALLEY":" ","HOUSE_NO":"１號之１５","E_COORD97":174593.35999999999,"N_COORD97":2534071.54,"ADDRESS":"中洲１號之１５","OBJECTID":64829},"geometry":{"x":174593.36000000034,"y":2534071.5399999991}},{"attributes":{"ID":64830,"DIS_CODE":0,"TOWNNAME":"仁德區","LI":"中洲里","LIN":"1鄰","STREET":" ","SECT":" ","MAREA":"中洲","LANE":" ","ALLEY":" ","HOUSE_NO":"１號之５２","E_COORD97":173644.81,"N_COORD97":2534534.5499999998,"ADDRESS":"中洲１號之５２","OBJECTID":64830},"geometry":{"x":173644.80999999959,"y":2534534.5500000007}},{"attributes":{"ID":64831,"DIS_CODE":0,"TOWNNAME":"仁德區","LI":"中洲里","LIN":"1鄰","STREET":" ","SECT":" ","MAREA":"中洲","LANE":" ","ALLEY":" ","HOUSE_NO":"８號之２","E_COORD97":173379.56,"N_COORD97":2534327.5499999998,"ADDRESS":"中洲８號之２","OBJECTID":64831},"geometry":{"x":173379.56000000052,"y":2534327.5500000007}},{"attributes":{"ID":64832,"DIS_CODE":0,"TOWNNAME":"仁德區","LI":"中洲里","LIN":"1鄰","STREET":" ","SECT":" ","MAREA":"中洲","LANE":" ","ALLEY":" ","HOUSE_NO":"１號之３","E_COORD97":173989.26000000001,"N_COORD97":2534421.2999999998,"ADDRESS":"中洲１號之３","OBJECTID":64832},"geometry":{"x":173989.26000000071,"y":2534421.2999999989}},{"attributes":{"ID":64833,"DIS_CODE":0,"TOWNNAME":"安南區","LI":"海佃里","LIN":"6鄰","STREET":"國安街","SECT":" ","MAREA":" ","LANE":"５６巷","ALLEY":"１７弄","HOUSE_NO":"３９號","E_COORD97":166863.51000000001,"N_COORD97":2547048.0699999998,"ADDRESS":"國安街５６巷１７弄３９號","OBJECTID":64833},"geometry":{"x":166863.50999999885,"y":2547048.0699999984}},{"attributes":{"ID":64834,"DIS_CODE":0,"TOWNNAME":"安南區","LI":"海佃里","LIN":"6鄰","STREET":"國安街","SECT":" ","MAREA":" ","LANE":"５６巷","ALLEY":"１７弄","HOUSE_NO":"３號","E_COORD97":166965.25,"N_COORD97":2547071.3199999998,"ADDRESS":"國安街５６巷１７弄３號","OBJECTID":64834},"geometry":{"x":166965.25,"y":2547071.3200000022}},{"attributes":{"ID":64835,"DIS_CODE":0,"TOWNNAME":"安南區","LI":"海佃里","LIN":"6鄰","STREET":"國安街","SECT":" ","MAREA":" ","LANE":"５６巷","ALLEY":"１７弄","HOUSE_NO":"４０號","E_COORD97":166858.19,"N_COORD97":2547066.6699999999,"ADDRESS":"國安街５６巷１７弄４０號","OBJECTID":64835},"geometry":{"x":166858.19000000134,"y":2547066.6699999999}},{"attributes":{"ID":64836,"DIS_CODE":0,"TOWNNAME":"安南區","LI":"海佃里","LIN":"6鄰","STREET":"國安街","SECT":" ","MAREA":" ","LANE":"５６巷","ALLEY":"１７弄","HOUSE_NO":"４１號","E_COORD97":166857.51999999999,"N_COORD97":2547047.4100000001,"ADDRESS":"國安街５６巷１７弄４１號","OBJECTID":64836},"geometry":{"x":166857.51999999955,"y":2547047.410000002}},{"attributes":{"ID":64837,"DIS_CODE":0,"TOWNNAME":"安南區","LI":"海佃里","LIN":"6鄰","STREET":"國安街","SECT":" ","MAREA":" ","LANE":"５６巷","ALLEY":"１７弄","HOUSE_NO":"４２號","E_COORD97":166852.87,"N_COORD97":2547064.6800000002,"ADDRESS":"國安街５６巷１７弄４２號","OBJECTID":64837},"geometry":{"x":166852.87000000011,"y":2547064.6800000016}},{"attributes":{"ID":64838,"DIS_CODE":0,"TOWNNAME":"安南區","LI":"海佃里","LIN":"6鄰","STREET":"國安街","SECT":" ","MAREA":" ","LANE":"５６巷","ALLEY":"１７弄","HOUSE_NO":"４３號","E_COORD97":166852.20000000001,"N_COORD97":2547046.0800000001,"ADDRESS":"國安街５６巷１７弄４３號","OBJECTID":64838},"geometry":{"x":166852.20000000019,"y":2547046.0800000019}},{"attributes":{"ID":64839,"DIS_CODE":0,"TOWNNAME":"安南區","LI":"海佃里","LIN":"6鄰","STREET":"國安街","SECT":" ","MAREA":" ","LANE":"５６巷","ALLEY":"１７弄","HOUSE_NO":"４５號","E_COORD97":166846.88,"N_COORD97":2547045.4100000001,"ADDRESS":"國安街５６巷１７弄４５號","OBJECTID":64839},"geometry":{"x":166846.87999999989,"y":2547045.4100000001}},{"attributes":{"ID":64840,"DIS_CODE":0,"TOWNNAME":"安南區","LI":"海佃里","LIN":"6鄰","STREET":"國安街","SECT":" ","MAREA":" ","LANE":"５６巷","ALLEY":"１７弄","HOUSE_NO":"４６號","E_COORD97":166843.56,"N_COORD97":2547063.3500000001,"ADDRESS":"國安街５６巷１７弄４６號","OBJECTID":64840},"geometry":{"x":166843.56000000052,"y":2547063.3500000015}},{"attributes":{"ID":64841,"DIS_CODE":0,"TOWNNAME":"安南區","LI":"海佃里","LIN":"6鄰","STREET":"國安街","SECT":" ","MAREA":" ","LANE":"５６巷","ALLEY":"１７弄","HOUSE_NO":"４７號","E_COORD97":166842.23000000001,"N_COORD97":2547043.4199999999,"ADDRESS":"國安街５６巷１７弄４７號","OBJECTID":64841},"geometry":{"x":166842.23000000045,"y":2547043.4200000018}},{"attributes":{"ID":64842,"DIS_CODE":0,"TOWNNAME":"安南區","LI":"海佃里","LIN":"6鄰","STREET":"國安街","SECT":" ","MAREA":" ","LANE":"５６巷","ALLEY":"１７弄","HOUSE_NO":"４８號","E_COORD97":166838.23999999999,"N_COORD97":2547062.02,"ADDRESS":"國安街５６巷１７弄４８號","OBJECTID":64842},"geometry":{"x":166838.24000000022,"y":2547062.0200000014}},{"attributes":{"ID":64843,"DIS_CODE":0,"TOWNNAME":"安南區","LI":"海佃里","LIN":"6鄰","STREET":"國安街","SECT":" ","MAREA":" ","LANE":"５６巷","ALLEY":"１７弄","HOUSE_NO":"４９號","E_COORD97":166836.23999999999,"N_COORD97":2547041.4300000002,"ADDRESS":"國安街５６巷１７弄４９號","OBJECTID":64843},"geometry":{"x":166836.24000000115,"y":2547041.4299999997}},{"attributes":{"ID":64844,"DIS_CODE":0,"TOWNNAME":"安南區","LI":"海佃里","LIN":"6鄰","STREET":"國安街","SECT":" ","MAREA":" ","LANE":"５６巷","ALLEY":"１７弄","HOUSE_NO":"５０號","E_COORD97":166832.92000000001,"N_COORD97":2547060.6899999999,"ADDRESS":"國安街５６巷１７弄５０號","OBJECTID":64844},"geometry":{"x":166832.92000000086,"y":2547060.6900000013}},{"attributes":{"ID":64845,"DIS_CODE":0,"TOWNNAME":"安南區","LI":"海佃里","LIN":"6鄰","STREET":"國安街","SECT":" ","MAREA":" ","LANE":"５６巷","ALLEY":"１７弄","HOUSE_NO":"５號","E_COORD97":166958.60000000001,"N_COORD97":2547071.3199999998,"ADDRESS":"國安街５６巷１７弄５號","OBJECTID":64845},"geometry":{"x":166958.60000000056,"y":2547071.3200000022}},{"attributes":{"ID":64846,"DIS_CODE":0,"TOWNNAME":"安南區","LI":"海佃里","LIN":"6鄰","STREET":"國安街","SECT":" ","MAREA":" ","LANE":"５６巷","ALLEY":"１７弄","HOUSE_NO":"６號","E_COORD97":166955.28,"N_COORD97":2547087.2599999998,"ADDRESS":"國安街５６巷１７弄６號","OBJECTID":64846},"geometry":{"x":166955.28000000026,"y":2547087.2600000035}},{"attributes":{"ID":64847,"DIS_CODE":0,"TOWNNAME":"安南區","LI":"海佃里","LIN":"6鄰","STREET":"國安街","SECT":" ","MAREA":" ","LANE":"５６巷","ALLEY":"１７弄","HOUSE_NO":"７號","E_COORD97":166952.62,"N_COORD97":2547068.6600000001,"ADDRESS":"國安街５６巷１７弄７號","OBJECTID":64847},"geometry":{"x":166952.62000000011,"y":2547068.660000002}},{"attributes":{"ID":64848,"DIS_CODE":0,"TOWNNAME":"安南區","LI":"海佃里","LIN":"6鄰","STREET":"國安街","SECT":" ","MAREA":" ","LANE":"５６巷","ALLEY":"１７弄","HOUSE_NO":"８號","E_COORD97":166948.63,"N_COORD97":2547085.9399999999,"ADDRESS":"國安街５６巷１７弄８號","OBJECTID":64848},"geometry":{"x":166948.62999999989,"y":2547085.9400000013}},{"attributes":{"ID":64849,"DIS_CODE":0,"TOWNNAME":"安南區","LI":"海佃里","LIN":"6鄰","STREET":"國安街","SECT":" ","MAREA":" ","LANE":"５６巷","ALLEY":"１７弄","HOUSE_NO":"９號","E_COORD97":166947.29999999999,"N_COORD97":2547068.6600000001,"ADDRESS":"國安街５６巷１７弄９號","OBJECTID":64849},"geometry":{"x":166947.30000000075,"y":2547068.660000002}},{"attributes":{"ID":64850,"DIS_CODE":0,"TOWNNAME":"安南區","LI":"幸福里","LIN":"6鄰","STREET":"國安街","SECT":" ","MAREA":" ","LANE":"１５５巷","ALLEY":"４５弄","HOUSE_NO":"１１號","E_COORD97":166824.35999999999,"N_COORD97":2546848.9500000002,"ADDRESS":"國安街１５５巷４５弄１１號","OBJECTID":64850},"geometry":{"x":166824.36000000034,"y":2546848.9500000011}},{"attributes":{"ID":64851,"DIS_CODE":0,"TOWNNAME":"安南區","LI":"幸福里","LIN":"6鄰","STREET":"國安街","SECT":" ","MAREA":" ","LANE":"１５５巷","ALLEY":"４５弄","HOUSE_NO":"１３號","E_COORD97":166830.23000000001,"N_COORD97":2546852.0499999998,"ADDRESS":"國安街１５５巷４５弄１３號","OBJECTID":64851},"geometry":{"x":166830.23000000045,"y":2546852.0499999989}},{"attributes":{"ID":64852,"DIS_CODE":0,"TOWNNAME":"安南區","LI":"幸福里","LIN":"6鄰","STREET":"國安街","SECT":" ","MAREA":" ","LANE":"１５５巷","ALLEY":"４５弄","HOUSE_NO":"１５號","E_COORD97":166836.48999999999,"N_COORD97":2546851.0299999998,"ADDRESS":"國安街１５５巷４５弄１５號","OBJECTID":64852},"geometry":{"x":166836.49000000022,"y":2546851.0300000031}},{"attributes":{"ID":64853,"DIS_CODE":0,"TOWNNAME":"安南區","LI":"幸福里","LIN":"6鄰","STREET":"國安街","SECT":" ","MAREA":" ","LANE":"１５５巷","ALLEY":"４５弄","HOUSE_NO":"１７號","E_COORD97":166842.35000000001,"N_COORD97":2546855.2799999998,"ADDRESS":"國安街１５５巷４５弄１７號","OBJECTID":64853},"geometry":{"x":166842.34999999963,"y":2546855.2799999993}},{"attributes":{"ID":64854,"DIS_CODE":0,"TOWNNAME":"仁德區","LI":"中洲里","LIN":"1鄰","STREET":" ","SECT":" ","MAREA":"中洲","LANE":" ","ALLEY":" ","HOUSE_NO":"３號之１","E_COORD97":173632.29000000001,"N_COORD97":2534314.2999999998,"ADDRESS":"中洲３號之１","OBJECTID":64854},"geometry":{"x":173632.29000000004,"y":2534314.3000000026}},{"attributes":{"ID":64855,"DIS_CODE":0,"TOWNNAME":"西港區","LI":"慶安里","LIN":" ","STREET":"中山路","SECT":" ","MAREA":" ","LANE":" ","ALLEY":" ","HOUSE_NO":"２３１號","E_COORD97":168408.76000000001,"N_COORD97":2557801.54,"ADDRESS":"中山路２３１號","OBJECTID":64855},"geometry":{"x":168408.76000000071,"y":2557801.5400000028}},{"attributes":{"ID":64856,"DIS_CODE":0,"TOWNNAME":"西港區","LI":"慶安里","LIN":" ","STREET":"中山路","SECT":" ","MAREA":" ","LANE":" ","ALLEY":" ","HOUSE_NO":"２３５之１號","E_COORD97":168400.70000000001,"N_COORD97":2557828.2200000002,"ADDRESS":"中山路２３５之１號","OBJECTID":64856},"geometry":{"x":168400.70000000112,"y":2557828.2200000007}},{"attributes":{"ID":64857,"DIS_CODE":0,"TOWNNAME":"西港區","LI":"慶安里","LIN":" ","STREET":"中山路","SECT":" ","MAREA":" ","LANE":" ","ALLEY":" ","HOUSE_NO":"２４１號","E_COORD97":168397.64000000001,"N_COORD97":2557855.6299999999,"ADDRESS":"中山路２４１號","OBJECTID":64857},"geometry":{"x":168397.63999999966,"y":2557855.6300000008}},{"attributes":{"ID":64858,"DIS_CODE":0,"TOWNNAME":"西港區","LI":"慶安里","LIN":" ","STREET":"中山路","SECT":" ","MAREA":" ","LANE":" ","ALLEY":" ","HOUSE_NO":"２５３之１號","E_COORD97":168398.97,"N_COORD97":2557877.1499999999,"ADDRESS":"中山路２５３之１號","OBJECTID":64858},"geometry":{"x":168398.96999999974,"y":2557877.1500000022}},{"attributes":{"ID":64859,"DIS_CODE":0,"TOWNNAME":"西港區","LI":"慶安里","LIN":" ","STREET":"中山路","SECT":" ","MAREA":" ","LANE":" ","ALLEY":" ","HOUSE_NO":"２５３之２號","E_COORD97":168397.63,"N_COORD97":2557881.21,"ADDRESS":"中山路２５３之２號","OBJECTID":64859},"geometry":{"x":168397.63000000082,"y":2557881.2100000028}},{"attributes":{"ID":64860,"DIS_CODE":0,"TOWNNAME":"西港區","LI":"西港里","LIN":" ","STREET":"中山路","SECT":" ","MAREA":" ","LANE":" ","ALLEY":" ","HOUSE_NO":"２５８號","E_COORD97":168431.78,"N_COORD97":2557845.5600000001,"ADDRESS":"中山路２５８號","OBJECTID":64860},"geometry":{"x":168431.78000000026,"y":2557845.5600000005}},{"attributes":{"ID":64861,"DIS_CODE":0,"TOWNNAME":"西港區","LI":"西港里","LIN":" ","STREET":"中山路","SECT":" ","MAREA":" ","LANE":" ","ALLEY":" ","HOUSE_NO":"２７２號","E_COORD97":168428.92000000001,"N_COORD97":2557863.21,"ADDRESS":"中山路２７２號","OBJECTID":64861},"geometry":{"x":168428.91999999899,"y":2557863.2100000046}},{"attributes":{"ID":64862,"DIS_CODE":0,"TOWNNAME":"西港區","LI":"西港里","LIN":" ","STREET":"中山路","SECT":" ","MAREA":" ","LANE":" ","ALLEY":" ","HOUSE_NO":"２９０號","E_COORD97":168423.85999999999,"N_COORD97":2557893.5299999998,"ADDRESS":"中山路２９０號","OBJECTID":64862},"geometry":{"x":168423.86000000127,"y":2557893.5300000031}},{"attributes":{"ID":64863,"DIS_CODE":0,"TOWNNAME":"西港區","LI":"西港里","LIN":" ","STREET":"中山路","SECT":" ","MAREA":" ","LANE":" ","ALLEY":" ","HOUSE_NO":"３０８號","E_COORD97":168420.01999999999,"N_COORD97":2557925.4399999999,"ADDRESS":"中山路３０８號","OBJECTID":64863},"geometry":{"x":168420.02000000048,"y":2557925.4400000013}},{"attributes":{"ID":64864,"DIS_CODE":0,"TOWNNAME":"西港區","LI":"西港里","LIN":" ","STREET":"中山路","SECT":" ","MAREA":" ","LANE":" ","ALLEY":" ","HOUSE_NO":"３２０號","E_COORD97":168418.54000000001,"N_COORD97":2557945.8700000001,"ADDRESS":"中山路３２０號","OBJECTID":64864},"geometry":{"x":168418.54000000097,"y":2557945.870000001}},{"attributes":{"ID":64865,"DIS_CODE":0,"TOWNNAME":"西港區","LI":"慶安里","LIN":" ","STREET":"中山路","SECT":" ","MAREA":" ","LANE":" ","ALLEY":" ","HOUSE_NO":"３３５號","E_COORD97":168363.48000000001,"N_COORD97":2558068.4199999999,"ADDRESS":"中山路３３５號","OBJECTID":64865},"geometry":{"x":168363.48000000138,"y":2558068.4200000018}},{"attributes":{"ID":64866,"DIS_CODE":0,"TOWNNAME":"安南區","LI":"幸福里","LIN":"6鄰","STREET":"國安街","SECT":" ","MAREA":" ","LANE":"１５５巷","ALLEY":"４５弄","HOUSE_NO":"１９號","E_COORD97":166850.29999999999,"N_COORD97":2546855,"ADDRESS":"國安街１５５巷４５弄１９號","OBJECTID":64866},"geometry":{"x":166850.30000000075,"y":2546854.9999999981}},{"attributes":{"ID":64867,"DIS_CODE":0,"TOWNNAME":"安南區","LI":"幸福里","LIN":"6鄰","STREET":"國安街","SECT":" ","MAREA":" ","LANE":"１５５巷","ALLEY":"４５弄","HOUSE_NO":"１號","E_COORD97":166791.91,"N_COORD97":2546845.04,"ADDRESS":"國安街１５５巷４５弄１號","OBJECTID":64867},"geometry":{"x":166791.91000000201,"y":2546845.040000001}},{"attributes":{"ID":64868,"DIS_CODE":0,"TOWNNAME":"安南區","LI":"幸福里","LIN":"6鄰","STREET":"國安街","SECT":" ","MAREA":" ","LANE":"１５５巷","ALLEY":"４５弄","HOUSE_NO":"２１號","E_COORD97":166856.85999999999,"N_COORD97":2546853.8500000001,"ADDRESS":"國安街１５５巷４５弄２１號","OBJECTID":64868},"geometry":{"x":166856.8600000022,"y":2546853.8500000015}},{"attributes":{"ID":64869,"DIS_CODE":0,"TOWNNAME":"安南區","LI":"幸福里","LIN":"6鄰","STREET":"國安街","SECT":" ","MAREA":" ","LANE":"１５５巷","ALLEY":"４５弄","HOUSE_NO":"２３號","E_COORD97":166862.57000000001,"N_COORD97":2546854.9700000002,"ADDRESS":"國安街１５５巷４５弄２３號","OBJECTID":64869},"geometry":{"x":166862.57000000123,"y":2546854.9700000007}},{"attributes":{"ID":64870,"DIS_CODE":0,"TOWNNAME":"安南區","LI":"幸福里","LIN":"6鄰","STREET":"國安街","SECT":" ","MAREA":" ","LANE":"１５５巷","ALLEY":"４５弄","HOUSE_NO":"３號","E_COORD97":166798.70000000001,"N_COORD97":2546846.1899999999,"ADDRESS":"國安街１５５巷４５弄３號","OBJECTID":64870},"geometry":{"x":166798.70000000112,"y":2546846.1899999995}},{"attributes":{"ID":64871,"DIS_CODE":0,"TOWNNAME":"安南區","LI":"幸福里","LIN":"6鄰","STREET":"國安街","SECT":" ","MAREA":" ","LANE":"１５５巷","ALLEY":"４５弄","HOUSE_NO":"５號","E_COORD97":166804.91,"N_COORD97":2546847.5699999998,"ADDRESS":"國安街１５５巷４５弄５號","OBJECTID":64871},"geometry":{"x":166804.91000000015,"y":2546847.5700000003}},{"attributes":{"ID":64872,"DIS_CODE":0,"TOWNNAME":"安南區","LI":"幸福里","LIN":"6鄰","STREET":"國安街","SECT":" ","MAREA":" ","LANE":"１５５巷","ALLEY":"４５弄","HOUSE_NO":"７號","E_COORD97":166811.23999999999,"N_COORD97":2546847.1099999999,"ADDRESS":"國安街１５５巷４５弄７號","OBJECTID":64872},"geometry":{"x":166811.24000000022,"y":2546847.1100000031}},{"attributes":{"ID":64873,"DIS_CODE":0,"TOWNNAME":"安南區","LI":"幸福里","LIN":"6鄰","STREET":"國安街","SECT":" ","MAREA":" ","LANE":"１５５巷","ALLEY":"４５弄","HOUSE_NO":"９號","E_COORD97":166817.57000000001,"N_COORD97":2546849.9900000002,"ADDRESS":"國安街１５５巷４５弄９號","OBJECTID":64873},"geometry":{"x":166817.5700000003,"y":2546849.9900000021}},{"attributes":{"ID":64874,"DIS_CODE":0,"TOWNNAME":"永康區","LI":"三民里","LIN":"6鄰","STREET":"三民街","SECT":" ","MAREA":" ","LANE":"１８巷","ALLEY":"１弄","HOUSE_NO":"１６號","E_COORD97":173336.12,"N_COORD97":2550203.5299999998,"ADDRESS":"三民街１８巷１弄１６號","OBJECTID":64874},"geometry":{"x":173336.12000000104,"y":2550203.5299999993}},{"attributes":{"ID":64875,"DIS_CODE":0,"TOWNNAME":"永康區","LI":"三民里","LIN":"6鄰","STREET":"三民街","SECT":" ","MAREA":" ","LANE":"１８巷","ALLEY":"８弄","HOUSE_NO":"１０號","E_COORD97":173329.35000000001,"N_COORD97":2550123.7799999998,"ADDRESS":"三民街１８巷８弄１０號","OBJECTID":64875},"geometry":{"x":173329.34999999963,"y":2550123.7799999993}},{"attributes":{"ID":64876,"DIS_CODE":0,"TOWNNAME":"永康區","LI":"三民里","LIN":"6鄰","STREET":"三民街","SECT":" ","MAREA":" ","LANE":"１８巷","ALLEY":"８弄","HOUSE_NO":"２０號","E_COORD97":173368.66,"N_COORD97":2550117.5299999998,"ADDRESS":"三民街１８巷８弄２０號","OBJECTID":64876},"geometry":{"x":173368.66000000015,"y":2550117.5300000012}},{"attributes":{"ID":64877,"DIS_CODE":0,"TOWNNAME":"永康區","LI":"南灣里","LIN":"6鄰","STREET":"大灣路","SECT":" ","MAREA":" ","LANE":"５３７巷","ALLEY":"１７弄","HOUSE_NO":"１５號","E_COORD97":174529.38,"N_COORD97":2544465.8999999999,"ADDRESS":"大灣路５３７巷１７弄１５號","OBJECTID":64877},"geometry":{"x":174529.38000000082,"y":2544465.8999999985}},{"attributes":{"ID":64878,"DIS_CODE":0,"TOWNNAME":"永康區","LI":"三民里","LIN":"6鄰","STREET":"三民街","SECT":" ","MAREA":" ","LANE":"１８巷","ALLEY":"８弄","HOUSE_NO":"９號","E_COORD97":173336.23000000001,"N_COORD97":2550148.54,"ADDRESS":"三民街１８巷８弄９號","OBJECTID":64878},"geometry":{"x":173336.23000000045,"y":2550148.5399999991}},{"attributes":{"ID":64879,"DIS_CODE":0,"TOWNNAME":"永康區","LI":"三民里","LIN":"6鄰","STREET":"三民街","SECT":" ","MAREA":" ","LANE":"１８巷","ALLEY":"１弄","HOUSE_NO":"５號","E_COORD97":173295.85000000001,"N_COORD97":2550216.1699999999,"ADDRESS":"三民街１８巷１弄５號","OBJECTID":64879},"geometry":{"x":173295.84999999963,"y":2550216.1699999999}},{"attributes":{"ID":64880,"DIS_CODE":0,"TOWNNAME":"西港區","LI":"慶安里","LIN":" ","STREET":"中山路","SECT":" ","MAREA":" ","LANE":" ","ALLEY":" ","HOUSE_NO":"４３５號","E_COORD97":168279.76000000001,"N_COORD97":2558553.3399999999,"ADDRESS":"中山路４３５號","OBJECTID":64880},"geometry":{"x":168279.76000000071,"y":2558553.3400000017}},{"attributes":{"ID":64881,"DIS_CODE":0,"TOWNNAME":"永康區","LI":"三民里","LIN":"6鄰","STREET":"三民街","SECT":" ","MAREA":" ","LANE":"１８巷","ALLEY":"８弄","HOUSE_NO":"３０號","E_COORD97":173347.23000000001,"N_COORD97":2550113.2799999998,"ADDRESS":"三民街１８巷８弄３０號","OBJECTID":64881},"geometry":{"x":173347.23000000138,"y":2550113.2799999993}},{"attributes":{"ID":64882,"DIS_CODE":0,"TOWNNAME":"永康區","LI":"三民里","LIN":"6鄰","STREET":"三民街","SECT":" ","MAREA":" ","LANE":"１８巷","ALLEY":"１弄","HOUSE_NO":"４０號","E_COORD97":173406.01000000001,"N_COORD97":2550222.7799999998,"ADDRESS":"三民街１８巷１弄４０號","OBJECTID":64882},"geometry":{"x":173406.01000000071,"y":2550222.7800000031}},{"attributes":{"ID":64883,"DIS_CODE":0,"TOWNNAME":"永康區","LI":"三民里","LIN":"6鄰","STREET":"三民街","SECT":" ","MAREA":" ","LANE":"１８巷","ALLEY":"１弄","HOUSE_NO":"２５號","E_COORD97":173387.45000000001,"N_COORD97":2550240.54,"ADDRESS":"三民街１８巷１弄２５號","OBJECTID":64883},"geometry":{"x":173387.44999999925,"y":2550240.5399999991}},{"attributes":{"ID":64884,"DIS_CODE":0,"TOWNNAME":"永康區","LI":"三民里","LIN":"6鄰","STREET":"三民街","SECT":" ","MAREA":" ","LANE":"１８巷","ALLEY":"８弄","HOUSE_NO":"２１號","E_COORD97":173393.53,"N_COORD97":2550154.1600000001,"ADDRESS":"三民街１８巷８弄２１號","OBJECTID":64884},"geometry":{"x":173393.53000000026,"y":2550154.160000002}},{"attributes":{"ID":64885,"DIS_CODE":0,"TOWNNAME":"永康區","LI":"三民里","LIN":"6鄰","STREET":"三民街","SECT":" ","MAREA":" ","LANE":"１８巷","ALLEY":"８弄","HOUSE_NO":"２８號","E_COORD97":173352.66,"N_COORD97":2550114.5299999998,"ADDRESS":"三民街１８巷８弄２８號","OBJECTID":64885},"geometry":{"x":173352.66000000108,"y":2550114.5299999993}},{"attributes":{"ID":64886,"DIS_CODE":0,"TOWNNAME":"永康區","LI":"三民里","LIN":"6鄰","STREET":"三民街","SECT":" ","MAREA":" ","LANE":"１８巷","ALLEY":"８弄","HOUSE_NO":"５號","E_COORD97":173310.06,"N_COORD97":2550142.79,"ADDRESS":"三民街１８巷８弄５號","OBJECTID":64886},"geometry":{"x":173310.06000000052,"y":2550142.7899999991}},{"attributes":{"ID":64887,"DIS_CODE":0,"TOWNNAME":"永康區","LI":"三民里","LIN":"6鄰","STREET":"三民街","SECT":" ","MAREA":" ","LANE":"１８巷","ALLEY":"１弄","HOUSE_NO":"２８號","E_COORD97":173379.01999999999,"N_COORD97":2550217.2799999998,"ADDRESS":"三民街１８巷１弄２８號","OBJECTID":64887},"geometry":{"x":173379.01999999955,"y":2550217.2800000012}},{"attributes":{"ID":64888,"DIS_CODE":0,"TOWNNAME":"永康區","LI":"三民里","LIN":"6鄰","STREET":"三民街","SECT":" ","MAREA":" ","LANE":"１８巷","ALLEY":"１弄","HOUSE_NO":"２６號","E_COORD97":173373.59,"N_COORD97":2550216.2799999998,"ADDRESS":"三民街１８巷１弄２６號","OBJECTID":64888},"geometry":{"x":173373.58999999985,"y":2550216.2800000012}},{"attributes":{"ID":64889,"DIS_CODE":0,"TOWNNAME":"鹽水區","LI":"大莊里","LIN":"6鄰","STREET":" ","SECT":" ","MAREA":"大莊","LANE":" ","ALLEY":" ","HOUSE_NO":"３５號","E_COORD97":172780.67000000001,"N_COORD97":2576853.8999999999,"ADDRESS":"大莊３５號","OBJECTID":64889},"geometry":{"x":172780.67000000179,"y":2576853.9000000004}},{"attributes":{"ID":64890,"DIS_CODE":0,"TOWNNAME":"永康區","LI":"三民里","LIN":"6鄰","STREET":"三民街","SECT":" ","MAREA":" ","LANE":"１８巷","ALLEY":"８弄","HOUSE_NO":"３１號","E_COORD97":173390.81,"N_COORD97":2550137.04,"ADDRESS":"三民街１８巷８弄３１號","OBJECTID":64890},"geometry":{"x":173390.80999999959,"y":2550137.040000001}},{"attributes":{"ID":64891,"DIS_CODE":0,"TOWNNAME":"永康區","LI":"三民里","LIN":"6鄰","STREET":"三民街","SECT":" ","MAREA":" ","LANE":"１８巷","ALLEY":"８弄","HOUSE_NO":"２６號","E_COORD97":173357.89999999999,"N_COORD97":2550115.2799999998,"ADDRESS":"三民街１８巷８弄２６號","OBJECTID":64891},"geometry":{"x":173357.9000000013,"y":2550115.2800000012}},{"attributes":{"ID":64892,"DIS_CODE":0,"TOWNNAME":"永康區","LI":"三民里","LIN":"6鄰","STREET":"三民街","SECT":" ","MAREA":" ","LANE":"１８巷","ALLEY":"８弄","HOUSE_NO":"１５號","E_COORD97":173376.79999999999,"N_COORD97":2550150.4100000001,"ADDRESS":"三民街１８巷８弄１５號","OBJECTID":64892},"geometry":{"x":173376.80000000075,"y":2550150.4100000001}},{"attributes":{"ID":64893,"DIS_CODE":0,"TOWNNAME":"永康區","LI":"三民里","LIN":"6鄰","STREET":"三民街","SECT":" ","MAREA":" ","LANE":"１８巷","ALLEY":"８弄","HOUSE_NO":"１３號","E_COORD97":173361.07999999999,"N_COORD97":2550153.54,"ADDRESS":"三民街１８巷８弄１３號","OBJECTID":64893},"geometry":{"x":173361.08000000194,"y":2550153.540000001}},{"attributes":{"ID":64894,"DIS_CODE":0,"TOWNNAME":"永康區","LI":"三民里","LIN":"6鄰","STREET":"三民街","SECT":" ","MAREA":" ","LANE":"１８巷","ALLEY":"１弄","HOUSE_NO":"３１號","E_COORD97":173403.26000000001,"N_COORD97":2550246.79,"ADDRESS":"三民街１８巷１弄３１號","OBJECTID":64894},"geometry":{"x":173403.25999999978,"y":2550246.790000001}},{"attributes":{"ID":64895,"DIS_CODE":0,"TOWNNAME":"永康區","LI":"三民里","LIN":"6鄰","STREET":"三民街","SECT":" ","MAREA":" ","LANE":"１８巷","ALLEY":"１弄","HOUSE_NO":"２１號","E_COORD97":173377.26000000001,"N_COORD97":2550234.7799999998,"ADDRESS":"三民街１８巷１弄２１號","OBJECTID":64895},"geometry":{"x":173377.26000000071,"y":2550234.7799999993}},{"attributes":{"ID":64896,"DIS_CODE":0,"TOWNNAME":"永康區","LI":"三民里","LIN":"6鄰","STREET":"三民街","SECT":" ","MAREA":" ","LANE":"１８巷","ALLEY":"８弄","HOUSE_NO":"２３號","E_COORD97":173398.75,"N_COORD97":2550154.6600000001,"ADDRESS":"三民街１８巷８弄２３號","OBJECTID":64896},"geometry":{"x":173398.75,"y":2550154.660000002}},{"attributes":{"ID":64897,"DIS_CODE":0,"TOWNNAME":"永康區","LI":"三民里","LIN":"6鄰","STREET":"三民街","SECT":" ","MAREA":" ","LANE":"１８巷","ALLEY":"８弄","HOUSE_NO":"１號","E_COORD97":173282.26000000001,"N_COORD97":2550137.29,"ADDRESS":"三民街１８巷８弄１號","OBJECTID":64897},"geometry":{"x":173282.26000000071,"y":2550137.2899999991}},{"attributes":{"ID":64898,"DIS_CODE":0,"TOWNNAME":"永康區","LI":"三民里","LIN":"6鄰","STREET":"三民街","SECT":" ","MAREA":" ","LANE":"１８巷","ALLEY":"８弄","HOUSE_NO":"１７號","E_COORD97":173382.84,"N_COORD97":2550151.9100000001,"ADDRESS":"三民街１８巷８弄１７號","OBJECTID":64898},"geometry":{"x":173382.84000000171,"y":2550151.910000002}},{"attributes":{"ID":64899,"DIS_CODE":0,"TOWNNAME":"永康區","LI":"三民里","LIN":"6鄰","STREET":"三民街","SECT":" ","MAREA":" ","LANE":"１８巷","ALLEY":"１弄","HOUSE_NO":"１３號","E_COORD97":173343.89000000001,"N_COORD97":2550226.6699999999,"ADDRESS":"三民街１８巷１弄１３號","OBJECTID":64899},"geometry":{"x":173343.8900000006,"y":2550226.6699999999}},{"attributes":{"ID":64900,"DIS_CODE":0,"TOWNNAME":"永康區","LI":"三民里","LIN":"6鄰","STREET":"三民街","SECT":" ","MAREA":" ","LANE":"１８巷","ALLEY":"８弄","HOUSE_NO":"２７號","E_COORD97":173401.28,"N_COORD97":2550138.79,"ADDRESS":"三民街１８巷８弄２７號","OBJECTID":64900},"geometry":{"x":173401.28000000119,"y":2550138.790000001}},{"attributes":{"ID":64901,"DIS_CODE":0,"TOWNNAME":"永康區","LI":"三民里","LIN":"6鄰","STREET":"三民街","SECT":" ","MAREA":" ","LANE":"１８巷","ALLEY":"１弄","HOUSE_NO":"１５號","E_COORD97":173361.14999999999,"N_COORD97":2550229.5299999998,"ADDRESS":"三民街１８巷１弄１５號","OBJECTID":64901},"geometry":{"x":173361.1500000013,"y":2550229.5299999993}},{"attributes":{"ID":64902,"DIS_CODE":0,"TOWNNAME":"永康區","LI":"三民里","LIN":"6鄰","STREET":"三民街","SECT":" ","MAREA":" ","LANE":"１８巷","ALLEY":"８弄","HOUSE_NO":"７號","E_COORD97":173322.07000000001,"N_COORD97":2550146.54,"ADDRESS":"三民街１８巷８弄７號","OBJECTID":64902},"geometry":{"x":173322.0700000003,"y":2550146.540000001}},{"attributes":{"ID":64903,"DIS_CODE":0,"TOWNNAME":"永康區","LI":"三民里","LIN":"6鄰","STREET":"三民街","SECT":" ","MAREA":" ","LANE":"１８巷","ALLEY":"１弄","HOUSE_NO":"１０號","E_COORD97":173312.53,"N_COORD97":2550199.0299999998,"ADDRESS":"三民街１８巷１弄１０號","OBJECTID":64903},"geometry":{"x":173312.53000000212,"y":2550199.0299999993}},{"attributes":{"ID":64904,"DIS_CODE":0,"TOWNNAME":"永康區","LI":"三民里","LIN":"6鄰","STREET":"三民街","SECT":" ","MAREA":" ","LANE":"１８巷","ALLEY":"１弄","HOUSE_NO":"１９號","E_COORD97":173371.92999999999,"N_COORD97":2550232.7799999998,"ADDRESS":"三民街１８巷１弄１９號","OBJECTID":64904},"geometry":{"x":173371.93000000156,"y":2550232.7800000031}},{"attributes":{"ID":64905,"DIS_CODE":0,"TOWNNAME":"永康區","LI":"三民里","LIN":"6鄰","STREET":"三民街","SECT":" ","MAREA":" ","LANE":"１８巷","ALLEY":"１弄","HOUSE_NO":"２７號","E_COORD97":173392.45999999999,"N_COORD97":2550241.79,"ADDRESS":"三民街１８巷１弄２７號","OBJECTID":64905},"geometry":{"x":173392.46000000183,"y":2550241.7899999991}},{"attributes":{"ID":64906,"DIS_CODE":0,"TOWNNAME":"安南區","LI":"海南里","LIN":"6鄰","STREET":"府安路","SECT":"六段","MAREA":" ","LANE":"１０３巷","ALLEY":"２９弄","HOUSE_NO":"１８號","E_COORD97":166657.54000000001,"N_COORD97":2546537.7599999998,"ADDRESS":"府安路六段１０３巷２９弄１８號","OBJECTID":64906},"geometry":{"x":166657.54000000097,"y":2546537.7599999979}},{"attributes":{"ID":64907,"DIS_CODE":0,"TOWNNAME":"安南區","LI":"海佃里","LIN":"6鄰","STREET":"國安街","SECT":" ","MAREA":" ","LANE":"５６巷","ALLEY":"１７弄","HOUSE_NO":"３３號","E_COORD97":166878.14000000001,"N_COORD97":2547052.7200000002,"ADDRESS":"國安街５６巷１７弄３３號","OBJECTID":64907},"geometry":{"x":166878.1400000006,"y":2547052.7200000025}},{"attributes":{"ID":64908,"DIS_CODE":0,"TOWNNAME":"安南區","LI":"州北里","LIN":"6鄰","STREET":"安和路","SECT":"五段","MAREA":" ","LANE":"１７１巷","ALLEY":"４７弄","HOUSE_NO":"２０號","E_COORD97":169713.04000000001,"N_COORD97":2551781.1699999999,"ADDRESS":"安和路五段１７１巷４７弄２０號","OBJECTID":64908},"geometry":{"x":169713.04000000004,"y":2551781.1700000018}},{"attributes":{"ID":64909,"DIS_CODE":0,"TOWNNAME":"西港區","LI":"西港里","LIN":" ","STREET":"中山路","SECT":" ","MAREA":" ","LANE":" ","ALLEY":" ","HOUSE_NO":"３４２號","E_COORD97":168423.13,"N_COORD97":2558017.21,"ADDRESS":"中山路３４２號","OBJECTID":64909},"geometry":{"x":168423.13000000082,"y":2558017.2100000028}},{"attributes":{"ID":64910,"DIS_CODE":0,"TOWNNAME":"西港區","LI":"西港里","LIN":" ","STREET":"中山路","SECT":" ","MAREA":" ","LANE":" ","ALLEY":" ","HOUSE_NO":"３８８號","E_COORD97":168389.60000000001,"N_COORD97":2558268.04,"ADDRESS":"中山路３８８號","OBJECTID":64910},"geometry":{"x":168389.59999999963,"y":2558268.0399999991}},{"attributes":{"ID":64911,"DIS_CODE":0,"TOWNNAME":"西港區","LI":"慶安里","LIN":" ","STREET":"中山路","SECT":" ","MAREA":" ","LANE":" ","ALLEY":" ","HOUSE_NO":"３９１號","E_COORD97":168272.28,"N_COORD97":2558392.2999999998,"ADDRESS":"中山路３９１號","OBJECTID":64911},"geometry":{"x":168272.28000000026,"y":2558392.3000000026}},{"attributes":{"ID":64912,"DIS_CODE":0,"TOWNNAME":"西港區","LI":"慶安里","LIN":" ","STREET":"中山路","SECT":" ","MAREA":" ","LANE":" ","ALLEY":" ","HOUSE_NO":"４２３號","E_COORD97":168288.25,"N_COORD97":2558528.73,"ADDRESS":"中山路４２３號","OBJECTID":64912},"geometry":{"x":168288.25000000093,"y":2558528.7300000023}},{"attributes":{"ID":64913,"DIS_CODE":0,"TOWNNAME":"西港區","LI":"慶安里","LIN":" ","STREET":"中山路","SECT":" ","MAREA":" ","LANE":" ","ALLEY":" ","HOUSE_NO":"４２７號","E_COORD97":168285.51000000001,"N_COORD97":2558536.75,"ADDRESS":"中山路４２７號","OBJECTID":64913},"geometry":{"x":168285.50999999978,"y":2558536.7500000037}},{"attributes":{"ID":64914,"DIS_CODE":0,"TOWNNAME":"新化區","LI":"崙頂里","LIN":"1鄰","STREET":" ","SECT":" ","MAREA":"崙子頂","LANE":" ","ALLEY":" ","HOUSE_NO":"２號","E_COORD97":177053.117684,"N_COORD97":2546888.6222399999,"ADDRESS":"崙子頂２號","OBJECTID":64914},"geometry":{"x":177053.1176840011,"y":2546888.6222360004}},{"attributes":{"ID":64915,"DIS_CODE":0,"TOWNNAME":"西港區","LI":"慶安里","LIN":" ","STREET":"中山路","SECT":" ","MAREA":" ","LANE":" ","ALLEY":" ","HOUSE_NO":"４４５號","E_COORD97":168155.67000000001,"N_COORD97":2558664.5099999998,"ADDRESS":"中山路４４５號","OBJECTID":64915},"geometry":{"x":168155.66999999993,"y":2558664.5100000016}},{"attributes":{"ID":64916,"DIS_CODE":0,"TOWNNAME":"西港區","LI":"西港里","LIN":" ","STREET":"中山路","SECT":" ","MAREA":" ","LANE":" ","ALLEY":" ","HOUSE_NO":"４４６號","E_COORD97":168370.32999999999,"N_COORD97":2558373.77,"ADDRESS":"中山路４４６號","OBJECTID":64916},"geometry":{"x":168370.33000000007,"y":2558373.7700000014}},{"attributes":{"ID":64917,"DIS_CODE":0,"TOWNNAME":"西港區","LI":"慶安里","LIN":" ","STREET":"中山路","SECT":" ","MAREA":" ","LANE":" ","ALLEY":" ","HOUSE_NO":"４６９之４號","E_COORD97":168140.01000000001,"N_COORD97":2558777.8599999999,"ADDRESS":"中山路４６９之４號","OBJECTID":64917},"geometry":{"x":168140.00999999885,"y":2558777.8599999994}},{"attributes":{"ID":64918,"DIS_CODE":0,"TOWNNAME":"西港區","LI":"慶安里","LIN":" ","STREET":"中山路","SECT":" ","MAREA":" ","LANE":" ","ALLEY":" ","HOUSE_NO":"４８７號","E_COORD97":168155.97,"N_COORD97":2558938.3100000001,"ADDRESS":"中山路４８７號","OBJECTID":64918},"geometry":{"x":168155.97000000067,"y":2558938.3100000024}},{"attributes":{"ID":64919,"DIS_CODE":0,"TOWNNAME":"西港區","LI":"慶安里","LIN":" ","STREET":"中山路","SECT":" ","MAREA":" ","LANE":" ","ALLEY":" ","HOUSE_NO":"４８９號","E_COORD97":168056.35000000001,"N_COORD97":2558955.9399999999,"ADDRESS":"中山路４８９號","OBJECTID":64919},"geometry":{"x":168056.35000000149,"y":2558955.9400000013}},{"attributes":{"ID":64920,"DIS_CODE":0,"TOWNNAME":"西港區","LI":"西港里","LIN":" ","STREET":"中山路","SECT":" ","MAREA":" ","LANE":" ","ALLEY":" ","HOUSE_NO":"５２０號","E_COORD97":167995.04000000001,"N_COORD97":2559435.29,"ADDRESS":"中山路５２０號","OBJECTID":64920},"geometry":{"x":167995.04000000097,"y":2559435.290000001}},{"attributes":{"ID":64921,"DIS_CODE":0,"TOWNNAME":"西港區","LI":"慶安里","LIN":" ","STREET":"中山路","SECT":" ","MAREA":" ","LANE":" ","ALLEY":" ","HOUSE_NO":"６５號","E_COORD97":168473.60000000001,"N_COORD97":2557218.4100000001,"ADDRESS":"中山路６５號","OBJECTID":64921},"geometry":{"x":168473.60000000056,"y":2557218.410000002}},{"attributes":{"ID":64922,"DIS_CODE":0,"TOWNNAME":"鹽水區","LI":"河南里","LIN":"4鄰","STREET":" ","SECT":" ","MAREA":"?頭港","LANE":" ","ALLEY":" ","HOUSE_NO":"１號","E_COORD97":173043.76000000001,"N_COORD97":2572716.04,"ADDRESS":"?頭港１號","OBJECTID":64922},"geometry":{"x":173043.75999999978,"y":2572716.0400000028}},{"attributes":{"ID":64923,"DIS_CODE":0,"TOWNNAME":"仁德區","LI":"中洲里","LIN":"1鄰","STREET":" ","SECT":" ","MAREA":"中洲","LANE":" ","ALLEY":" ","HOUSE_NO":"３之１號","E_COORD97":173632.64999999999,"N_COORD97":2534314.2999999998,"ADDRESS":"中洲３之１號","OBJECTID":64923},"geometry":{"x":173632.6500000013,"y":2534314.3000000026}},{"attributes":{"ID":64924,"DIS_CODE":0,"TOWNNAME":"仁德區","LI":"中生里","LIN":"1鄰","STREET":" ","SECT":" ","MAREA":"中洲","LANE":" ","ALLEY":" ","HOUSE_NO":"７６號之１","E_COORD97":173143.16,"N_COORD97":2534477.04,"ADDRESS":"中洲７６號之１","OBJECTID":64924},"geometry":{"x":173143.16000000015,"y":2534477.040000001}},{"attributes":{"ID":64925,"DIS_CODE":0,"TOWNNAME":"仁德區","LI":"中洲里","LIN":"1鄰","STREET":" ","SECT":" ","MAREA":"中洲","LANE":" ","ALLEY":" ","HOUSE_NO":"１號之１０","E_COORD97":173762.64999999999,"N_COORD97":2534353.04,"ADDRESS":"中洲１號之１０","OBJECTID":64925},"geometry":{"x":173762.64999999944,"y":2534353.0399999991}},{"attributes":{"ID":64926,"DIS_CODE":0,"TOWNNAME":"仁德區","LI":"中洲里","LIN":"1鄰","STREET":" ","SECT":" ","MAREA":"中洲","LANE":" ","ALLEY":" ","HOUSE_NO":"１號之２６","E_COORD97":173839.67000000001,"N_COORD97":2534405.0499999998,"ADDRESS":"中洲１號之２６","OBJECTID":64926},"geometry":{"x":173839.66999999993,"y":2534405.0500000007}},{"attributes":{"ID":64927,"DIS_CODE":0,"TOWNNAME":"東區","LI":"崇德里","LIN":"6鄰","STREET":"崇德五街","SECT":" ","MAREA":" ","LANE":"２巷","ALLEY":"１１弄","HOUSE_NO":"１３號","E_COORD97":170693.56,"N_COORD97":2541799.9399999999,"ADDRESS":"崇德五街２巷１１弄１３號","OBJECTID":64927},"geometry":{"x":170693.55999999959,"y":2541799.9400000032}},{"attributes":{"ID":64928,"DIS_CODE":0,"TOWNNAME":"東區","LI":"崇德里","LIN":"6鄰","STREET":"崇德五街","SECT":" ","MAREA":" ","LANE":"２巷","ALLEY":"１１弄","HOUSE_NO":"１５號","E_COORD97":170697.54000000001,"N_COORD97":2541802.79,"ADDRESS":"崇德五街２巷１１弄１５號","OBJECTID":64928},"geometry":{"x":170697.54000000004,"y":2541802.7899999991}},{"attributes":{"ID":64929,"DIS_CODE":0,"TOWNNAME":"東區","LI":"崇德里","LIN":"6鄰","STREET":"崇德五街","SECT":" ","MAREA":" ","LANE":"２巷","ALLEY":"１１弄","HOUSE_NO":"１７號","E_COORD97":170700.20000000001,"N_COORD97":2541805.0600000001,"ADDRESS":"崇德五街２巷１１弄１７號","OBJECTID":64929},"geometry":{"x":170700.20000000019,"y":2541805.0600000024}},{"attributes":{"ID":64930,"DIS_CODE":0,"TOWNNAME":"東區","LI":"崇德里","LIN":"6鄰","STREET":"崇德五街","SECT":" ","MAREA":" ","LANE":"２巷","ALLEY":"１１弄","HOUSE_NO":"２０號","E_COORD97":170733.48999999999,"N_COORD97":2541802.5800000001,"ADDRESS":"崇德五街２巷１１弄２０號","OBJECTID":64930},"geometry":{"x":170733.49000000115,"y":2541802.5800000001}},{"attributes":{"ID":64931,"DIS_CODE":0,"TOWNNAME":"東區","LI":"崇德里","LIN":"6鄰","STREET":"崇德五街","SECT":" ","MAREA":" ","LANE":"２巷","ALLEY":"１１弄","HOUSE_NO":"２１號","E_COORD97":170718.76999999999,"N_COORD97":2541825.5099999998,"ADDRESS":"崇德五街２巷１１弄２１號","OBJECTID":64931},"geometry":{"x":170718.77000000048,"y":2541825.5099999998}},{"attributes":{"ID":64932,"DIS_CODE":0,"TOWNNAME":"東區","LI":"崇德里","LIN":"6鄰","STREET":"崇德五街","SECT":" ","MAREA":" ","LANE":"２巷","ALLEY":"１１弄","HOUSE_NO":"２２號","E_COORD97":170736.56,"N_COORD97":2541805.25,"ADDRESS":"崇德五街２巷１１弄２２號","OBJECTID":64932},"geometry":{"x":170736.56000000145,"y":2541805.2500000037}},{"attributes":{"ID":64933,"DIS_CODE":0,"TOWNNAME":"東區","LI":"崇德里","LIN":"6鄰","STREET":"崇德五街","SECT":" ","MAREA":" ","LANE":"２巷","ALLEY":"１１弄","HOUSE_NO":"２４號","E_COORD97":170738.60999999999,"N_COORD97":2541807.9100000001,"ADDRESS":"崇德五街２巷１１弄２４號","OBJECTID":64933},"geometry":{"x":170738.6099999994,"y":2541807.9100000039}},{"attributes":{"ID":64934,"DIS_CODE":0,"TOWNNAME":"東區","LI":"崇德里","LIN":"6鄰","STREET":"崇德五街","SECT":" ","MAREA":" ","LANE":"２巷","ALLEY":"１１弄","HOUSE_NO":"２５號","E_COORD97":170722.56,"N_COORD97":2541833.4700000002,"ADDRESS":"崇德五街２巷１１弄２５號","OBJECTID":64934},"geometry":{"x":170722.55999999959,"y":2541833.4700000007}},{"attributes":{"ID":64935,"DIS_CODE":0,"TOWNNAME":"東區","LI":"崇德里","LIN":"6鄰","STREET":"崇德五街","SECT":" ","MAREA":" ","LANE":"２巷","ALLEY":"１１弄","HOUSE_NO":"２６號","E_COORD97":170740.66,"N_COORD97":2541811.3799999999,"ADDRESS":"崇德五街２巷１１弄２６號","OBJECTID":64935},"geometry":{"x":170740.66000000108,"y":2541811.3800000008}},{"attributes":{"ID":64936,"DIS_CODE":0,"TOWNNAME":"東區","LI":"崇德里","LIN":"6鄰","STREET":"崇德五街","SECT":" ","MAREA":" ","LANE":"２巷","ALLEY":"１１弄","HOUSE_NO":"２７號","E_COORD97":170726.35000000001,"N_COORD97":2541836.8700000001,"ADDRESS":"崇德五街２巷１１弄２７號","OBJECTID":64936},"geometry":{"x":170726.35000000056,"y":2541836.8700000029}},{"attributes":{"ID":64937,"DIS_CODE":0,"TOWNNAME":"東區","LI":"崇德里","LIN":"6鄰","STREET":"崇德五街","SECT":" ","MAREA":" ","LANE":"２巷","ALLEY":"１１弄","HOUSE_NO":"２８號","E_COORD97":170743.32000000001,"N_COORD97":2541815.0699999998,"ADDRESS":"崇德五街２巷１１弄２８號","OBJECTID":64937},"geometry":{"x":170743.3200000003,"y":2541815.0700000022}},{"attributes":{"ID":64938,"DIS_CODE":0,"TOWNNAME":"東區","LI":"崇德里","LIN":"6鄰","STREET":"崇德五街","SECT":" ","MAREA":" ","LANE":"２巷","ALLEY":"１１弄","HOUSE_NO":"２９號","E_COORD97":170730.51999999999,"N_COORD97":2541838.2000000002,"ADDRESS":"崇德五街２巷１１弄２９號","OBJECTID":64938},"geometry":{"x":170730.52000000048,"y":2541838.1999999993}},{"attributes":{"ID":64939,"DIS_CODE":0,"TOWNNAME":"東區","LI":"崇德里","LIN":"6鄰","STREET":"崇德五街","SECT":" ","MAREA":" ","LANE":"２巷","ALLEY":"１１弄","HOUSE_NO":"３０號","E_COORD97":170747.42000000001,"N_COORD97":2541818.5499999998,"ADDRESS":"崇德五街２巷１１弄３０號","OBJECTID":64939},"geometry":{"x":170747.41999999993,"y":2541818.5500000026}},{"attributes":{"ID":64940,"DIS_CODE":0,"TOWNNAME":"東區","LI":"崇德里","LIN":"6鄰","STREET":"崇德五街","SECT":" ","MAREA":" ","LANE":"２巷","ALLEY":"１１弄","HOUSE_NO":"３２號","E_COORD97":170749.88,"N_COORD97":2541823.25,"ADDRESS":"崇德五街２巷１１弄３２號","OBJECTID":64940},"geometry":{"x":170749.87999999896,"y":2541823.2500000019}},{"attributes":{"ID":64941,"DIS_CODE":0,"TOWNNAME":"東區","LI":"崇德里","LIN":"6鄰","STREET":"崇德五街","SECT":" ","MAREA":" ","LANE":"２巷","ALLEY":"１１弄","HOUSE_NO":"３３號","E_COORD97":170736.20999999999,"N_COORD97":2541843.8799999999,"ADDRESS":"崇德五街２巷１１弄３３號","OBJECTID":64941},"geometry":{"x":170736.21000000089,"y":2541843.8800000027}},{"attributes":{"ID":64942,"DIS_CODE":0,"TOWNNAME":"東區","LI":"崇德里","LIN":"6鄰","STREET":"崇德五街","SECT":" ","MAREA":" ","LANE":"２巷","ALLEY":"１１弄","HOUSE_NO":"３４號","E_COORD97":170753.97,"N_COORD97":2541826.73,"ADDRESS":"崇德五街２巷１１弄３４號","OBJECTID":64942},"geometry":{"x":170753.96999999974,"y":2541826.7300000023}},{"attributes":{"ID":64943,"DIS_CODE":0,"TOWNNAME":"東區","LI":"崇德里","LIN":"6鄰","STREET":"崇德五街","SECT":" ","MAREA":" ","LANE":"２巷","ALLEY":"１１弄","HOUSE_NO":"３４號之１","E_COORD97":170756.26999999999,"N_COORD97":2541831.73,"ADDRESS":"崇德五街２巷１１弄３４號之１","OBJECTID":64943},"geometry":{"x":170756.27000000048,"y":2541831.7300000004}},{"attributes":{"ID":64944,"DIS_CODE":0,"TOWNNAME":"東區","LI":"崇德里","LIN":"6鄰","STREET":"崇德五街","SECT":" ","MAREA":" ","LANE":"２巷","ALLEY":"１１弄","HOUSE_NO":"３５號","E_COORD97":170740.19,"N_COORD97":2541846.3399999999,"ADDRESS":"崇德五街２巷１１弄３５號","OBJECTID":64944},"geometry":{"x":170740.19000000134,"y":2541846.3400000017}},{"attributes":{"ID":64945,"DIS_CODE":0,"TOWNNAME":"東區","LI":"崇德里","LIN":"6鄰","STREET":"崇德五街","SECT":" ","MAREA":" ","LANE":"２巷","ALLEY":"１１弄","HOUSE_NO":"３６號","E_COORD97":170760.66,"N_COORD97":2541836.3399999999,"ADDRESS":"崇德五街２巷１１弄３６號","OBJECTID":64945},"geometry":{"x":170760.66000000108,"y":2541836.3400000017}},{"attributes":{"ID":64946,"DIS_CODE":0,"TOWNNAME":"東區","LI":"崇德里","LIN":"6鄰","STREET":"崇德五街","SECT":" ","MAREA":" ","LANE":"２巷","ALLEY":"１１弄","HOUSE_NO":"３７號","E_COORD97":170742.84,"N_COORD97":2541849.1800000002,"ADDRESS":"崇德五街２巷１１弄３７號","OBJECTID":64946},"geometry":{"x":170742.83999999985,"y":2541849.1799999997}},{"attributes":{"ID":64947,"DIS_CODE":0,"TOWNNAME":"東區","LI":"崇德里","LIN":"6鄰","STREET":"崇德五街","SECT":" ","MAREA":" ","LANE":"２巷","ALLEY":"１１弄","HOUSE_NO":"３８號","E_COORD97":170763.51000000001,"N_COORD97":2541839.4100000001,"ADDRESS":"崇德五街２巷１１弄３８號","OBJECTID":64947},"geometry":{"x":170763.50999999978,"y":2541839.410000002}},{"attributes":{"ID":64948,"DIS_CODE":0,"TOWNNAME":"永康區","LI":"烏竹里","LIN":"8鄰","STREET":"龍橋街","SECT":" ","MAREA":" ","LANE":" ","ALLEY":" ","HOUSE_NO":"３８５號","E_COORD97":174442.79999999999,"N_COORD97":2549148.3199999998,"ADDRESS":"龍橋街３８５號","OBJECTID":64948},"geometry":{"x":174442.80000000075,"y":2549148.3200000003}},{"attributes":{"ID":64949,"DIS_CODE":0,"TOWNNAME":"永康區","LI":"烏竹里","LIN":"8鄰","STREET":"竹園二街","SECT":" ","MAREA":" ","LANE":" ","ALLEY":" ","HOUSE_NO":"１３７號","E_COORD97":174352.03,"N_COORD97":2549170.6899999999,"ADDRESS":"竹園二街１３７號","OBJECTID":64949},"geometry":{"x":174352.03000000119,"y":2549170.6900000013}},{"attributes":{"ID":64950,"DIS_CODE":0,"TOWNNAME":"永康區","LI":"烏竹里","LIN":"8鄰","STREET":"竹園二街","SECT":" ","MAREA":" ","LANE":" ","ALLEY":" ","HOUSE_NO":"５２號","E_COORD97":174306.85999999999,"N_COORD97":2549135.25,"ADDRESS":"竹園二街５２號","OBJECTID":64950},"geometry":{"x":174306.86000000034,"y":2549135.2500000037}},{"attributes":{"ID":64951,"DIS_CODE":0,"TOWNNAME":"永康區","LI":"烏竹里","LIN":"8鄰","STREET":"竹園二街","SECT":" ","MAREA":" ","LANE":" ","ALLEY":" ","HOUSE_NO":"５６號","E_COORD97":174312.95000000001,"N_COORD97":2549137.75,"ADDRESS":"竹園二街５６號","OBJECTID":64951},"geometry":{"x":174312.95000000019,"y":2549137.75}},{"attributes":{"ID":64952,"DIS_CODE":0,"TOWNNAME":"永康區","LI":"崑山里","LIN":"8鄰","STREET":"大灣路","SECT":" ","MAREA":" ","LANE":" ","ALLEY":" ","HOUSE_NO":"９７１號","E_COORD97":173360.20999999999,"N_COORD97":2544347.8100000001,"ADDRESS":"大灣路９７１號","OBJECTID":64952},"geometry":{"x":173360.21000000183,"y":2544347.8100000005}},{"attributes":{"ID":64953,"DIS_CODE":0,"TOWNNAME":"東區","LI":"崇德里","LIN":"6鄰","STREET":"崇德五街","SECT":" ","MAREA":" ","LANE":"２巷","ALLEY":"１１弄","HOUSE_NO":"３９號","E_COORD97":170746.25,"N_COORD97":2541852.9700000002,"ADDRESS":"崇德五街２巷１１弄３９號","OBJECTID":64953},"geometry":{"x":170746.25000000093,"y":2541852.9700000025}},{"attributes":{"ID":64954,"DIS_CODE":0,"TOWNNAME":"山上區","LI":"山上里","LIN":"8鄰","STREET":" ","SECT":" ","MAREA":"山上","LANE":" ","ALLEY":" ","HOUSE_NO":"１４１號","E_COORD97":184167.91,"N_COORD97":2555743.25,"ADDRESS":"山上１４１號","OBJECTID":64954},"geometry":{"x":184167.91000000108,"y":2555743.2500000037}},{"attributes":{"ID":64955,"DIS_CODE":0,"TOWNNAME":"山上區","LI":"南洲里","LIN":"8鄰","STREET":" ","SECT":" ","MAREA":"南洲","LANE":" ","ALLEY":" ","HOUSE_NO":"１９４號","E_COORD97":183799.14000000001,"N_COORD97":2555573.25,"ADDRESS":"南洲１９４號","OBJECTID":64955},"geometry":{"x":183799.13999999873,"y":2555573.25}},{"attributes":{"ID":64956,"DIS_CODE":0,"TOWNNAME":"仁德區","LI":"中洲里","LIN":"1鄰","STREET":" ","SECT":" ","MAREA":"中洲","LANE":" ","ALLEY":" ","HOUSE_NO":"２號之１２","E_COORD97":173237.37,"N_COORD97":2535337.5499999998,"ADDRESS":"中洲２號之１２","OBJECTID":64956},"geometry":{"x":173237.37000000104,"y":2535337.5500000007}},{"attributes":{"ID":64957,"DIS_CODE":0,"TOWNNAME":"仁德區","LI":"中生里","LIN":"1鄰","STREET":" ","SECT":" ","MAREA":"中洲","LANE":" ","ALLEY":" ","HOUSE_NO":"７３號之３","E_COORD97":173157.69,"N_COORD97":2534391.5499999998,"ADDRESS":"中洲７３號之３","OBJECTID":64957},"geometry":{"x":173157.69000000134,"y":2534391.5500000007}},{"attributes":{"ID":64958,"DIS_CODE":0,"TOWNNAME":"仁德區","LI":"中洲里","LIN":"1鄰","STREET":" ","SECT":" ","MAREA":"中洲","LANE":" ","ALLEY":" ","HOUSE_NO":"５號之１２","E_COORD97":173471.73000000001,"N_COORD97":2534408.0499999998,"ADDRESS":"中洲５號之１２","OBJECTID":64958},"geometry":{"x":173471.73000000045,"y":2534408.0500000007}},{"attributes":{"ID":64959,"DIS_CODE":0,"TOWNNAME":"東區","LI":"崇德里","LIN":"6鄰","STREET":"崇德五街","SECT":" ","MAREA":" ","LANE":"２巷","ALLEY":"１１弄","HOUSE_NO":"４０號","E_COORD97":170766.14999999999,"N_COORD97":2541842.9100000001,"ADDRESS":"崇德五街２巷１１弄４０號","OBJECTID":64959},"geometry":{"x":170766.1500000013,"y":2541842.910000002}},{"attributes":{"ID":64960,"DIS_CODE":0,"TOWNNAME":"東區","LI":"崇德里","LIN":"6鄰","STREET":"崇德五街","SECT":" ","MAREA":" ","LANE":"２巷","ALLEY":"１１弄","HOUSE_NO":"４１號","E_COORD97":170748.53,"N_COORD97":2541856.1899999999,"ADDRESS":"崇德五街２巷１１弄４１號","OBJECTID":64960},"geometry":{"x":170748.53000000119,"y":2541856.1900000032}},{"attributes":{"ID":64961,"DIS_CODE":0,"TOWNNAME":"東區","LI":"崇德里","LIN":"6鄰","STREET":"崇德五街","SECT":" ","MAREA":" ","LANE":"２巷","ALLEY":"１１弄","HOUSE_NO":"４２號","E_COORD97":170769.44,"N_COORD97":2541845.54,"ADDRESS":"崇德五街２巷１１弄４２號","OBJECTID":64961},"geometry":{"x":170769.44000000134,"y":2541845.5399999991}},{"attributes":{"ID":64962,"DIS_CODE":0,"TOWNNAME":"仁德區","LI":"中洲里","LIN":"1鄰","STREET":" ","SECT":" ","MAREA":"中洲","LANE":" ","ALLEY":" ","HOUSE_NO":"５號之２７","E_COORD97":173417.04999999999,"N_COORD97":2534400.0499999998,"ADDRESS":"中洲５號之２７","OBJECTID":64962},"geometry":{"x":173417.05000000168,"y":2534400.0500000026}},{"attributes":{"ID":64963,"DIS_CODE":0,"TOWNNAME":"東區","LI":"崇德里","LIN":"6鄰","STREET":"崇德五街","SECT":" ","MAREA":" ","LANE":"２巷","ALLEY":"１１弄","HOUSE_NO":"４３號","E_COORD97":170751.56,"N_COORD97":2541858.6499999999,"ADDRESS":"崇德五街２巷１１弄４３號","OBJECTID":64963},"geometry":{"x":170751.55999999959,"y":2541858.6500000022}},{"attributes":{"ID":64964,"DIS_CODE":0,"TOWNNAME":"東區","LI":"崇德里","LIN":"6鄰","STREET":"崇德五街","SECT":" ","MAREA":" ","LANE":"２巷","ALLEY":"１１弄","HOUSE_NO":"４５號","E_COORD97":170753.26999999999,"N_COORD97":2541862.4399999999,"ADDRESS":"崇德五街２巷１１弄４５號","OBJECTID":64964},"geometry":{"x":170753.26999999955,"y":2541862.4400000013}},{"attributes":{"ID":64965,"DIS_CODE":0,"TOWNNAME":"東區","LI":"崇德里","LIN":"6鄰","STREET":"崇德五街","SECT":" ","MAREA":" ","LANE":"２巷","ALLEY":"１１弄","HOUSE_NO":"４６號","E_COORD97":170773.82000000001,"N_COORD97":2541852.1200000001,"ADDRESS":"崇德五街２巷１１弄４６號","OBJECTID":64965},"geometry":{"x":170773.8200000003,"y":2541852.1200000029}},{"attributes":{"ID":64966,"DIS_CODE":0,"TOWNNAME":"東區","LI":"崇德里","LIN":"6鄰","STREET":"崇德五街","SECT":" ","MAREA":" ","LANE":"２巷","ALLEY":"１１弄","HOUSE_NO":"４７號","E_COORD97":170755.73000000001,"N_COORD97":2541866.23,"ADDRESS":"崇德五街２巷１１弄４７號","OBJECTID":64966},"geometry":{"x":170755.73000000138,"y":2541866.2300000004}},{"attributes":{"ID":64967,"DIS_CODE":0,"TOWNNAME":"東區","LI":"崇德里","LIN":"6鄰","STREET":"崇德五街","SECT":" ","MAREA":" ","LANE":"２巷","ALLEY":"１１弄","HOUSE_NO":"４８號","E_COORD97":170776.01999999999,"N_COORD97":2541854.9700000002,"ADDRESS":"崇德五街２巷１１弄４８號","OBJECTID":64967},"geometry":{"x":170776.02000000048,"y":2541854.9700000007}},{"attributes":{"ID":64968,"DIS_CODE":0,"TOWNNAME":"東區","LI":"崇德里","LIN":"6鄰","STREET":"崇德五街","SECT":" ","MAREA":" ","LANE":"２巷","ALLEY":"１１弄","HOUSE_NO":"４９號","E_COORD97":170759.19,"N_COORD97":2541869.2999999998,"ADDRESS":"崇德五街２巷１１弄４９號","OBJECTID":64968},"geometry":{"x":170759.19000000134,"y":2541869.3000000007}},{"attributes":{"ID":64969,"DIS_CODE":0,"TOWNNAME":"東區","LI":"崇德里","LIN":"6鄰","STREET":"崇德五街","SECT":" ","MAREA":" ","LANE":"２巷","ALLEY":"１１弄","HOUSE_NO":"５０號","E_COORD97":170778.87,"N_COORD97":2541858.2599999998,"ADDRESS":"崇德五街２巷１１弄５０號","OBJECTID":64969},"geometry":{"x":170778.87000000011,"y":2541858.2599999998}},{"attributes":{"ID":64970,"DIS_CODE":0,"TOWNNAME":"東區","LI":"崇德里","LIN":"6鄰","STREET":"崇德五街","SECT":" ","MAREA":" ","LANE":"２巷","ALLEY":"１１弄","HOUSE_NO":"５１號","E_COORD97":170761.51000000001,"N_COORD97":2541872.27,"ADDRESS":"崇德五街２巷１１弄５１號","OBJECTID":64970},"geometry":{"x":170761.51000000071,"y":2541872.2699999977}},{"attributes":{"ID":64971,"DIS_CODE":0,"TOWNNAME":"仁德區","LI":"中洲里","LIN":"1鄰","STREET":" ","SECT":" ","MAREA":"中洲","LANE":" ","ALLEY":" ","HOUSE_NO":"２之５０號","E_COORD97":173416.81,"N_COORD97":2535149.0499999998,"ADDRESS":"中洲２之５０號","OBJECTID":64971},"geometry":{"x":173416.81000000145,"y":2535149.0500000026}},{"attributes":{"ID":64972,"DIS_CODE":0,"TOWNNAME":"仁德區","LI":"中洲里","LIN":"1鄰","STREET":" ","SECT":" ","MAREA":"中洲","LANE":" ","ALLEY":" ","HOUSE_NO":"５號之３０","E_COORD97":173476.26000000001,"N_COORD97":2534345.29,"ADDRESS":"中洲５號之３０","OBJECTID":64972},"geometry":{"x":173476.25999999978,"y":2534345.2900000028}},{"attributes":{"ID":64973,"DIS_CODE":0,"TOWNNAME":"東區","LI":"崇德里","LIN":"6鄰","STREET":"崇德五街","SECT":" ","MAREA":" ","LANE":"２巷","ALLEY":"１１弄","HOUSE_NO":"５２號","E_COORD97":170781.5,"N_COORD97":2541861.5499999998,"ADDRESS":"崇德五街２巷１１弄５２號","OBJECTID":64973},"geometry":{"x":170781.50000000186,"y":2541861.5500000045}},{"attributes":{"ID":64974,"DIS_CODE":0,"TOWNNAME":"東區","LI":"崇德里","LIN":"6鄰","STREET":"崇德五街","SECT":" ","MAREA":" ","LANE":"２巷","ALLEY":"１１弄","HOUSE_NO":"５３號","E_COORD97":170764.97,"N_COORD97":2541875.5699999998,"ADDRESS":"崇德五街２巷１１弄５３號","OBJECTID":64974},"geometry":{"x":170764.97000000067,"y":2541875.5700000022}},{"attributes":{"ID":64975,"DIS_CODE":0,"TOWNNAME":"東區","LI":"崇德里","LIN":"6鄰","STREET":"崇德五街","SECT":" ","MAREA":" ","LANE":"２巷","ALLEY":"１１弄","HOUSE_NO":"５４號","E_COORD97":170783.70000000001,"N_COORD97":2541865.71,"ADDRESS":"崇德五街２巷１１弄５４號","OBJECTID":64975},"geometry":{"x":170783.70000000205,"y":2541865.7100000028}},{"attributes":{"ID":64976,"DIS_CODE":0,"TOWNNAME":"仁德區","LI":"中生里","LIN":"1鄰","STREET":" ","SECT":" ","MAREA":"中洲","LANE":" ","ALLEY":" ","HOUSE_NO":"７６號之３","E_COORD97":173062.42000000001,"N_COORD97":2534447.79,"ADDRESS":"中洲７６號之３","OBJECTID":64976},"geometry":{"x":173062.42000000086,"y":2534447.790000001}},{"attributes":{"ID":64977,"DIS_CODE":0,"TOWNNAME":"東區","LI":"崇德里","LIN":"6鄰","STREET":"崇德五街","SECT":" ","MAREA":" ","LANE":"２巷","ALLEY":"１１弄","HOUSE_NO":"５６號","E_COORD97":170789.17999999999,"N_COORD97":2541867.4700000002,"ADDRESS":"崇德五街２巷１１弄５６號","OBJECTID":64977},"geometry":{"x":170789.18000000063,"y":2541867.4700000007}},{"attributes":{"ID":64978,"DIS_CODE":0,"TOWNNAME":"永康區","LI":"南灣里","LIN":"8鄰","STREET":"南興路","SECT":" ","MAREA":" ","LANE":"２巷","ALLEY":" ","HOUSE_NO":"５號","E_COORD97":174277.64999999999,"N_COORD97":2543907.7000000002,"ADDRESS":"南興路２巷５號","OBJECTID":64978},"geometry":{"x":174277.65000000037,"y":2543907.7000000011}},{"attributes":{"ID":64979,"DIS_CODE":0,"TOWNNAME":"永康區","LI":"崑山里","LIN":"8鄰","STREET":"大灣路","SECT":" ","MAREA":" ","LANE":" ","ALLEY":" ","HOUSE_NO":"９５７號","E_COORD97":173387.51000000001,"N_COORD97":2544351.75,"ADDRESS":"大灣路９５７號","OBJECTID":64979},"geometry":{"x":173387.51000000071,"y":2544351.7500000019}},{"attributes":{"ID":64980,"DIS_CODE":0,"TOWNNAME":"永康區","LI":"埔園里","LIN":"8鄰","STREET":"中山路","SECT":" ","MAREA":" ","LANE":" ","ALLEY":" ","HOUSE_NO":"９５號","E_COORD97":173747.16,"N_COORD97":2547803.6899999999,"ADDRESS":"中山路９５號","OBJECTID":64980},"geometry":{"x":173747.16000000201,"y":2547803.6900000013}},{"attributes":{"ID":64981,"DIS_CODE":0,"TOWNNAME":"永康區","LI":"崑山里","LIN":"8鄰","STREET":"大灣路","SECT":" ","MAREA":" ","LANE":" ","ALLEY":" ","HOUSE_NO":"９６９號","E_COORD97":173364.66,"N_COORD97":2544348.5600000001,"ADDRESS":"大灣路９６９號","OBJECTID":64981},"geometry":{"x":173364.66000000108,"y":2544348.5600000005}},{"attributes":{"ID":64982,"DIS_CODE":0,"TOWNNAME":"永康區","LI":"烏竹里","LIN":"8鄰","STREET":"竹園二街","SECT":" ","MAREA":" ","LANE":" ","ALLEY":" ","HOUSE_NO":"５８號","E_COORD97":174318.67000000001,"N_COORD97":2549140.25,"ADDRESS":"竹園二街５８號","OBJECTID":64982},"geometry":{"x":174318.67000000086,"y":2549140.2500000019}},{"attributes":{"ID":64983,"DIS_CODE":0,"TOWNNAME":"永康區","LI":"崑山里","LIN":"8鄰","STREET":"大灣路","SECT":" ","MAREA":" ","LANE":" ","ALLEY":" ","HOUSE_NO":"９７７號","E_COORD97":173328.04000000001,"N_COORD97":2544340.5699999998,"ADDRESS":"大灣路９７７號","OBJECTID":64983},"geometry":{"x":173328.04000000097,"y":2544340.5700000022}},{"attributes":{"ID":64984,"DIS_CODE":0,"TOWNNAME":"永康區","LI":"崑山里","LIN":"8鄰","STREET":"大灣路","SECT":" ","MAREA":" ","LANE":" ","ALLEY":" ","HOUSE_NO":"９７５號","E_COORD97":173338.54999999999,"N_COORD97":2544343.75,"ADDRESS":"大灣路９７５號","OBJECTID":64984},"geometry":{"x":173338.54999999981,"y":2544343.75}},{"attributes":{"ID":64985,"DIS_CODE":0,"TOWNNAME":"山上區","LI":"新莊里","LIN":"8鄰","STREET":" ","SECT":" ","MAREA":"大庄","LANE":" ","ALLEY":" ","HOUSE_NO":"２８號","E_COORD97":183835.95999999999,"N_COORD97":2554803.25,"ADDRESS":"大庄２８號","OBJECTID":64985},"geometry":{"x":183835.95999999996,"y":2554803.25}},{"attributes":{"ID":64986,"DIS_CODE":0,"TOWNNAME":"仁德區","LI":"中洲里","LIN":"1鄰","STREET":" ","SECT":" ","MAREA":"中洲","LANE":" ","ALLEY":" ","HOUSE_NO":"５號之１３","E_COORD97":173470.48000000001,"N_COORD97":2534413.5499999998,"ADDRESS":"中洲５號之１３","OBJECTID":64986},"geometry":{"x":173470.48000000045,"y":2534413.5500000026}},{"attributes":{"ID":64987,"DIS_CODE":0,"TOWNNAME":"仁德區","LI":"中生里","LIN":"1鄰","STREET":" ","SECT":" ","MAREA":"中洲","LANE":" ","ALLEY":" ","HOUSE_NO":"５７號","E_COORD97":173138.45000000001,"N_COORD97":2534286.25,"ADDRESS":"中洲５７號","OBJECTID":64987},"geometry":{"x":173138.45000000205,"y":2534286.2500000019}},{"attributes":{"ID":64988,"DIS_CODE":0,"TOWNNAME":"東區","LI":"崇德里","LIN":"6鄰","STREET":"崇德五街","SECT":" ","MAREA":" ","LANE":"２巷","ALLEY":"１１弄","HOUSE_NO":"５８號","E_COORD97":170790.94,"N_COORD97":2541871.8500000001,"ADDRESS":"崇德五街２巷１１弄５８號","OBJECTID":64988},"geometry":{"x":170790.94000000227,"y":2541871.8500000034}},{"attributes":{"ID":64989,"DIS_CODE":0,"TOWNNAME":"東區","LI":"崇德里","LIN":"6鄰","STREET":"崇德五街","SECT":" ","MAREA":" ","LANE":"２巷","ALLEY":"１１弄","HOUSE_NO":"６０號","E_COORD97":170794.23000000001,"N_COORD97":2541875.1400000001,"ADDRESS":"崇德五街２巷１１弄６０號","OBJECTID":64989},"geometry":{"x":170794.23000000138,"y":2541875.1400000025}},{"attributes":{"ID":64990,"DIS_CODE":0,"TOWNNAME":"東區","LI":"崇德里","LIN":"6鄰","STREET":"崇德五街","SECT":" ","MAREA":" ","LANE":"２巷","ALLEY":"１１弄","HOUSE_NO":"６２號","E_COORD97":170796.85999999999,"N_COORD97":2541878.8700000001,"ADDRESS":"崇德五街２巷１１弄６２號","OBJECTID":64990},"geometry":{"x":170796.86000000127,"y":2541878.870000001}},{"attributes":{"ID":64991,"DIS_CODE":0,"TOWNNAME":"東區","LI":"崇德里","LIN":"6鄰","STREET":"崇德五街","SECT":" ","MAREA":" ","LANE":"２巷","ALLEY":"１１弄","HOUSE_NO":"６４號","E_COORD97":170799.04999999999,"N_COORD97":2541883.4700000002,"ADDRESS":"崇德五街２巷１１弄６４號","OBJECTID":64991},"geometry":{"x":170799.04999999981,"y":2541883.4700000025}},{"attributes":{"ID":64992,"DIS_CODE":0,"TOWNNAME":"東區","LI":"崇德里","LIN":"6鄰","STREET":"崇德五街","SECT":" ","MAREA":" ","LANE":"２巷","ALLEY":"１１弄","HOUSE_NO":"６６號","E_COORD97":170802.78,"N_COORD97":2541886.54,"ADDRESS":"崇德五街２巷１１弄６６號","OBJECTID":64992},"geometry":{"x":170802.78000000026,"y":2541886.5399999991}},{"attributes":{"ID":64993,"DIS_CODE":0,"TOWNNAME":"東區","LI":"崇德里","LIN":"6鄰","STREET":"崇德五街","SECT":" ","MAREA":" ","LANE":"２巷","ALLEY":"１１弄","HOUSE_NO":"６８號","E_COORD97":170806.07999999999,"N_COORD97":2541890.48,"ADDRESS":"崇德五街２巷１１弄６８號","OBJECTID":64993},"geometry":{"x":170806.08000000007,"y":2541890.4800000023}},{"attributes":{"ID":64994,"DIS_CODE":0,"TOWNNAME":"東區","LI":"崇德里","LIN":"6鄰","STREET":"崇德五街","SECT":" ","MAREA":" ","LANE":"２巷","ALLEY":"１１弄","HOUSE_NO":"６號","E_COORD97":170715.67000000001,"N_COORD97":2541784.7799999998,"ADDRESS":"崇德五街２巷１１弄６號","OBJECTID":64994},"geometry":{"x":170715.66999999993,"y":2541784.7800000012}},{"attributes":{"ID":64995,"DIS_CODE":0,"TOWNNAME":"東區","LI":"崇德里","LIN":"6鄰","STREET":"崇德五街","SECT":" ","MAREA":" ","LANE":"２巷","ALLEY":"１１弄","HOUSE_NO":"７０號","E_COORD97":170808.92999999999,"N_COORD97":2541893.3300000001,"ADDRESS":"崇德五街２巷１１弄７０號","OBJECTID":64995},"geometry":{"x":170808.93000000156,"y":2541893.3300000019}},{"attributes":{"ID":64996,"DIS_CODE":0,"TOWNNAME":"東區","LI":"崇德里","LIN":"6鄰","STREET":"崇德五街","SECT":" ","MAREA":" ","LANE":"２巷","ALLEY":"１１弄","HOUSE_NO":"９號","E_COORD97":170685.98000000001,"N_COORD97":2541789.5299999998,"ADDRESS":"崇德五街２巷１１弄９號","OBJECTID":64996},"geometry":{"x":170685.98000000138,"y":2541789.5300000012}},{"attributes":{"ID":64997,"DIS_CODE":0,"TOWNNAME":"東區","LI":"富強里","LIN":"6鄰","STREET":"中華東路","SECT":"二段","MAREA":" ","LANE":"４８巷","ALLEY":"１７弄","HOUSE_NO":"１０號","E_COORD97":171306.64999999999,"N_COORD97":2542955.4700000002,"ADDRESS":"中華東路二段４８巷１７弄１０號","OBJECTID":64997},"geometry":{"x":171306.6500000013,"y":2542955.4700000025}},{"attributes":{"ID":64998,"DIS_CODE":0,"TOWNNAME":"東區","LI":"崇明里","LIN":"6鄰","STREET":"大同路","SECT":"二段","MAREA":" ","LANE":"４４９巷","ALLEY":"２弄","HOUSE_NO":"２４號","E_COORD97":169734.35000000001,"N_COORD97":2541320.02,"ADDRESS":"大同路二段４４９巷２弄２４號","OBJECTID":64998},"geometry":{"x":169734.34999999963,"y":2541320.0199999996}},{"attributes":{"ID":64999,"DIS_CODE":0,"TOWNNAME":"東區","LI":"崇明里","LIN":"6鄰","STREET":"大同路","SECT":"二段","MAREA":" ","LANE":"４４９巷","ALLEY":"２弄","HOUSE_NO":"２６號","E_COORD97":169739.04000000001,"N_COORD97":2541323.0299999998,"ADDRESS":"大同路二段４４９巷２弄２６號","OBJECTID":64999},"geometry":{"x":169739.04000000097,"y":2541323.0299999993}},{"attributes":{"ID":65000,"DIS_CODE":0,"TOWNNAME":"仁德區","LI":"仁德里","LIN":"6鄰","STREET":"仁德三街","SECT":" ","MAREA":" ","LANE":"９巷","ALLEY":"６弄","HOUSE_NO":"８號","E_COORD97":173300.98999999999,"N_COORD97":2540941.27,"ADDRESS":"仁德三街９巷６弄８號","OBJECTID":65000},"geometry":{"x":173300.99000000209,"y":2540941.2700000014}}]}