{"displayFieldName":"TOWNNAME","fieldAliases":{"ID":"ID","DIS_CODE":"DIS_CODE","TOWNNAME":"TOWNNAME","LI":"LI","LIN":"LIN","STREET":"STREET","SECT":"SECT","MAREA":"MAREA","LANE":"LANE","ALLEY":"ALLEY","HOUSE_NO":"HOUSE_NO","E_COORD97":"E_COORD97","N_COORD97":"N_COORD97","ADDRESS":"ADDRESS","OBJECTID":"OBJECTID"},"geometryType":"esriGeometryPoint","spatialReference":{"wkid":102443,"latestWkid":3826},"fields":[{"name":"ID","type":"esriFieldTypeDouble","alias":"ID"},{"name":"DIS_CODE","type":"esriFieldTypeInteger","alias":"DIS_CODE"},{"name":"TOWNNAME","type":"esriFieldTypeString","alias":"TOWNNAME","length":8},{"name":"LI","type":"esriFieldTypeString","alias":"LI","length":8},{"name":"LIN","type":"esriFieldTypeString","alias":"LIN","length":12},{"name":"STREET","type":"esriFieldTypeString","alias":"STREET","length":20},{"name":"SECT","type":"esriFieldTypeString","alias":"SECT","length":8},{"name":"MAREA","type":"esriFieldTypeString","alias":"MAREA","length":12},{"name":"LANE","type":"esriFieldTypeString","alias":"LANE","length":10},{"name":"ALLEY","type":"esriFieldTypeString","alias":"ALLEY","length":10},{"name":"HOUSE_NO","type":"esriFieldTypeString","alias":"HOUSE_NO","length":20},{"name":"E_COORD97","type":"esriFieldTypeDouble","alias":"E_COORD97"},{"name":"N_COORD97","type":"esriFieldTypeDouble","alias":"N_COORD97"},{"name":"ADDRESS","type":"esriFieldTypeString","alias":"ADDRESS","length":50},{"name":"OBJECTID","type":"esriFieldTypeOID","alias":"OBJECTID"}],"features":[{"attributes":{"ID":76401,"DIS_CODE":0,"TOWNNAME":"安南區","LI":"頂安里","LIN":"19鄰","STREET":"北安路","SECT":"三段","MAREA":" ","LANE":"３９６巷","ALLEY":"５０弄","HOUSE_NO":"９５號","E_COORD97":168877.91,"N_COORD97":2549427.5299999998,"ADDRESS":"北安路三段３９６巷５０弄９５號","OBJECTID":76401},"geometry":{"x":168877.91000000015,"y":2549427.5300000031}},{"attributes":{"ID":76402,"DIS_CODE":0,"TOWNNAME":"安南區","LI":"頂安里","LIN":"19鄰","STREET":"北安路","SECT":"三段","MAREA":" ","LANE":"３９６巷","ALLEY":"５０弄","HOUSE_NO":"９７號","E_COORD97":168839.63,"N_COORD97":2549454.1499999999,"ADDRESS":"北安路三段３９６巷５０弄９７號","OBJECTID":76402},"geometry":{"x":168839.63000000175,"y":2549454.1500000004}},{"attributes":{"ID":76403,"DIS_CODE":0,"TOWNNAME":"安南區","LI":"頂安里","LIN":"19鄰","STREET":"北安路","SECT":"三段","MAREA":" ","LANE":"３９６巷","ALLEY":"５０弄","HOUSE_NO":"９９號","E_COORD97":168844.07000000001,"N_COORD97":2549451.1899999999,"ADDRESS":"北安路三段３９６巷５０弄９９號","OBJECTID":76403},"geometry":{"x":168844.07000000123,"y":2549451.1900000013}},{"attributes":{"ID":76404,"DIS_CODE":0,"TOWNNAME":"安南區","LI":"頂安里","LIN":"19鄰","STREET":"北安路","SECT":"三段","MAREA":" ","LANE":"３９６巷","ALLEY":"５０弄","HOUSE_NO":"９號","E_COORD97":168917.31,"N_COORD97":2549481.1499999999,"ADDRESS":"北安路三段３９６巷５０弄９號","OBJECTID":76404},"geometry":{"x":168917.30999999959,"y":2549481.1500000004}},{"attributes":{"ID":76405,"DIS_CODE":0,"TOWNNAME":"歸仁區","LI":"南保里","LIN":"55鄰","STREET":"民權南路","SECT":" ","MAREA":" ","LANE":" ","ALLEY":" ","HOUSE_NO":"１７４號","E_COORD97":176951.14000000001,"N_COORD97":2540404.29,"ADDRESS":"民權南路１７４號","OBJECTID":76405},"geometry":{"x":176951.1400000006,"y":2540404.290000001}},{"attributes":{"ID":76406,"DIS_CODE":0,"TOWNNAME":"北區","LI":"成德里","LIN":"7鄰","STREET":"育德路","SECT":" ","MAREA":" ","LANE":" ","ALLEY":" ","HOUSE_NO":"１４１號","E_COORD97":168513.81,"N_COORD97":2545494.8500000001,"ADDRESS":"育德路１４１號","OBJECTID":76406},"geometry":{"x":168513.80999999959,"y":2545494.8499999996}},{"attributes":{"ID":76407,"DIS_CODE":0,"TOWNNAME":"北區","LI":"成德里","LIN":"7鄰","STREET":"育德路","SECT":" ","MAREA":" ","LANE":" ","ALLEY":" ","HOUSE_NO":"１４３號","E_COORD97":168516.12,"N_COORD97":2545498.1800000002,"ADDRESS":"育德路１４３號","OBJECTID":76407},"geometry":{"x":168516.12000000197,"y":2545498.1800000016}},{"attributes":{"ID":76408,"DIS_CODE":0,"TOWNNAME":"安定區","LI":"安定里","LIN":"6鄰","STREET":" ","SECT":" ","MAREA":"安定","LANE":" ","ALLEY":" ","HOUSE_NO":"４６號之５","E_COORD97":172003.95999999999,"N_COORD97":2557863.3199999998,"ADDRESS":"安定４６號之５","OBJECTID":76408},"geometry":{"x":172003.96000000183,"y":2557863.3200000022}},{"attributes":{"ID":76409,"DIS_CODE":0,"TOWNNAME":"安定區","LI":"安定里","LIN":"6鄰","STREET":" ","SECT":" ","MAREA":"安定","LANE":" ","ALLEY":" ","HOUSE_NO":"３３之２號","E_COORD97":172211.81456200001,"N_COORD97":2557971.9594999999,"ADDRESS":"安定３３之２號","OBJECTID":76409},"geometry":{"x":172211.81456200033,"y":2557971.9595030025}},{"attributes":{"ID":76410,"DIS_CODE":0,"TOWNNAME":"安定區","LI":"安定里","LIN":"6鄰","STREET":" ","SECT":" ","MAREA":"安定","LANE":" ","ALLEY":" ","HOUSE_NO":"４６號之１３","E_COORD97":171985.64999999999,"N_COORD97":2557871.3199999998,"ADDRESS":"安定４６號之１３","OBJECTID":76410},"geometry":{"x":171985.65000000037,"y":2557871.3200000003}},{"attributes":{"ID":76411,"DIS_CODE":0,"TOWNNAME":"安定區","LI":"安定里","LIN":"6鄰","STREET":" ","SECT":" ","MAREA":"安定","LANE":" ","ALLEY":" ","HOUSE_NO":"４４號","E_COORD97":172062.64566099999,"N_COORD97":2557825.2423,"ADDRESS":"安定４４號","OBJECTID":76411},"geometry":{"x":172062.64566100203,"y":2557825.2422989998}},{"attributes":{"ID":76412,"DIS_CODE":0,"TOWNNAME":"安定區","LI":"中榮里","LIN":"6鄰","STREET":" ","SECT":" ","MAREA":"許中營","LANE":" ","ALLEY":" ","HOUSE_NO":"１５之１號","E_COORD97":172299.44,"N_COORD97":2554932.2999999998,"ADDRESS":"許中營１５之１號","OBJECTID":76412},"geometry":{"x":172299.43999999948,"y":2554932.3000000007}},{"attributes":{"ID":76413,"DIS_CODE":0,"TOWNNAME":"安定區","LI":"安定里","LIN":"6鄰","STREET":" ","SECT":" ","MAREA":"安定","LANE":" ","ALLEY":" ","HOUSE_NO":"２９之２號","E_COORD97":172119.94,"N_COORD97":2557939.3199999998,"ADDRESS":"安定２９號之２","OBJECTID":76413},"geometry":{"x":172119.94000000227,"y":2557939.3200000003}},{"attributes":{"ID":76414,"DIS_CODE":0,"TOWNNAME":"安定區","LI":"中榮里","LIN":"6鄰","STREET":" ","SECT":" ","MAREA":"許中營","LANE":" ","ALLEY":" ","HOUSE_NO":"１２之２２號","E_COORD97":172379.39000000001,"N_COORD97":2554812.2999999998,"ADDRESS":"許中營１２之２２號","OBJECTID":76414},"geometry":{"x":172379.3900000006,"y":2554812.3000000026}},{"attributes":{"ID":76415,"DIS_CODE":0,"TOWNNAME":"北區","LI":"成德里","LIN":"7鄰","STREET":"育德路","SECT":" ","MAREA":" ","LANE":" ","ALLEY":" ","HOUSE_NO":"１４５號","E_COORD97":168517.92000000001,"N_COORD97":2545501.6499999999,"ADDRESS":"育德路１４５號","OBJECTID":76415},"geometry":{"x":168517.92000000086,"y":2545501.6499999985}},{"attributes":{"ID":76416,"DIS_CODE":0,"TOWNNAME":"北區","LI":"成德里","LIN":"7鄰","STREET":"育德路","SECT":" ","MAREA":" ","LANE":" ","ALLEY":" ","HOUSE_NO":"１４７號","E_COORD97":168519.59,"N_COORD97":2545505.6200000001,"ADDRESS":"育德路１４７號","OBJECTID":76416},"geometry":{"x":168519.59000000078,"y":2545505.620000001}},{"attributes":{"ID":76417,"DIS_CODE":0,"TOWNNAME":"北區","LI":"成德里","LIN":"7鄰","STREET":"育德路","SECT":" ","MAREA":" ","LANE":" ","ALLEY":" ","HOUSE_NO":"１４９號","E_COORD97":168521.75,"N_COORD97":2545509.1899999999,"ADDRESS":"育德路１４９號","OBJECTID":76417},"geometry":{"x":168521.74999999907,"y":2545509.1899999995}},{"attributes":{"ID":76418,"DIS_CODE":0,"TOWNNAME":"北區","LI":"成德里","LIN":"7鄰","STREET":"育德路","SECT":" ","MAREA":" ","LANE":" ","ALLEY":" ","HOUSE_NO":"１５１號","E_COORD97":168524.06,"N_COORD97":2545512.1400000001,"ADDRESS":"育德路１５１號","OBJECTID":76418},"geometry":{"x":168524.05999999959,"y":2545512.1399999987}},{"attributes":{"ID":76419,"DIS_CODE":0,"TOWNNAME":"麻豆區","LI":"麻口里","LIN":"7鄰","STREET":" ","SECT":" ","MAREA":"麻豆口","LANE":" ","ALLEY":" ","HOUSE_NO":"５１號","E_COORD97":169955.28,"N_COORD97":2564473.1000000001,"ADDRESS":"麻豆口５１號","OBJECTID":76419},"geometry":{"x":169955.28000000026,"y":2564473.0999999996}},{"attributes":{"ID":76420,"DIS_CODE":0,"TOWNNAME":"麻豆區","LI":"麻口里","LIN":"7鄰","STREET":" ","SECT":" ","MAREA":"麻豆口","LANE":" ","ALLEY":" ","HOUSE_NO":"５２號之１０","E_COORD97":169923.81,"N_COORD97":2564442.3500000001,"ADDRESS":"麻豆口５２號之１０","OBJECTID":76420},"geometry":{"x":169923.80999999959,"y":2564442.3500000015}},{"attributes":{"ID":76421,"DIS_CODE":0,"TOWNNAME":"麻豆區","LI":"麻口里","LIN":"7鄰","STREET":" ","SECT":" ","MAREA":"麻豆口","LANE":" ","ALLEY":" ","HOUSE_NO":"５２號之１１","E_COORD97":169924.84,"N_COORD97":2564447.4900000002,"ADDRESS":"麻豆口５２號之１１","OBJECTID":76421},"geometry":{"x":169924.84000000078,"y":2564447.4900000002}},{"attributes":{"ID":76422,"DIS_CODE":0,"TOWNNAME":"麻豆區","LI":"麻口里","LIN":"7鄰","STREET":" ","SECT":" ","MAREA":"麻豆口","LANE":" ","ALLEY":" ","HOUSE_NO":"５２號之１２","E_COORD97":169925.88,"N_COORD97":2564452.6200000001,"ADDRESS":"麻豆口５２號之１２","OBJECTID":76422},"geometry":{"x":169925.87999999989,"y":2564452.6200000029}},{"attributes":{"ID":76423,"DIS_CODE":0,"TOWNNAME":"麻豆區","LI":"麻口里","LIN":"7鄰","STREET":" ","SECT":" ","MAREA":"麻豆口","LANE":" ","ALLEY":" ","HOUSE_NO":"５２號之５","E_COORD97":169918.98999999999,"N_COORD97":2564421.5,"ADDRESS":"麻豆口５２號之５","OBJECTID":76423},"geometry":{"x":169918.99000000209,"y":2564421.5000000019}},{"attributes":{"ID":76424,"DIS_CODE":0,"TOWNNAME":"東區","LI":"自強里","LIN":"19鄰","STREET":"中華東路","SECT":"二段","MAREA":" ","LANE":"２４３巷","ALLEY":"１３弄","HOUSE_NO":"１號","E_COORD97":171296.79000000001,"N_COORD97":2542611.5699999998,"ADDRESS":"中華東路二段２４３巷１３弄１號","OBJECTID":76424},"geometry":{"x":171296.79000000097,"y":2542611.5700000022}},{"attributes":{"ID":76425,"DIS_CODE":0,"TOWNNAME":"東區","LI":"自強里","LIN":"19鄰","STREET":"中華東路","SECT":"二段","MAREA":" ","LANE":"２４３巷","ALLEY":"１３弄","HOUSE_NO":"２號","E_COORD97":171306.84,"N_COORD97":2542605.1400000001,"ADDRESS":"中華東路二段２４３巷１３弄２號","OBJECTID":76425},"geometry":{"x":171306.84000000078,"y":2542605.1400000006}},{"attributes":{"ID":76426,"DIS_CODE":0,"TOWNNAME":"東區","LI":"自強里","LIN":"19鄰","STREET":"中華東路","SECT":"二段","MAREA":" ","LANE":"２４３巷","ALLEY":"１３弄","HOUSE_NO":"３號","E_COORD97":171302.20000000001,"N_COORD97":2542618.27,"ADDRESS":"中華東路二段２４３巷１３弄３號","OBJECTID":76426},"geometry":{"x":171302.20000000019,"y":2542618.2700000033}},{"attributes":{"ID":76427,"DIS_CODE":0,"TOWNNAME":"東區","LI":"自強里","LIN":"19鄰","STREET":"中華東路","SECT":"二段","MAREA":" ","LANE":"２４３巷","ALLEY":"１３弄","HOUSE_NO":"４號","E_COORD97":171311.48000000001,"N_COORD97":2542609.5099999998,"ADDRESS":"中華東路二段２４３巷１３弄４號","OBJECTID":76427},"geometry":{"x":171311.48000000138,"y":2542609.5099999998}},{"attributes":{"ID":76428,"DIS_CODE":0,"TOWNNAME":"東區","LI":"自強里","LIN":"19鄰","STREET":"中華東路","SECT":"二段","MAREA":" ","LANE":"２４３巷","ALLEY":"１３弄","HOUSE_NO":"６號","E_COORD97":171315.09,"N_COORD97":2542614.1499999999,"ADDRESS":"中華東路二段２４３巷１３弄６號","OBJECTID":76428},"geometry":{"x":171315.09000000078,"y":2542614.1500000022}},{"attributes":{"ID":76429,"DIS_CODE":0,"TOWNNAME":"東區","LI":"自強里","LIN":"19鄰","STREET":"中華東路","SECT":"二段","MAREA":" ","LANE":"２４３巷","ALLEY":"１３弄","HOUSE_NO":"８號","E_COORD97":171321.54000000001,"N_COORD97":2542618.0099999998,"ADDRESS":"中華東路二段２４３巷１３弄８號","OBJECTID":76429},"geometry":{"x":171321.54000000004,"y":2542618.0100000016}},{"attributes":{"ID":76430,"DIS_CODE":0,"TOWNNAME":"東區","LI":"自強里","LIN":"19鄰","STREET":"中華東路","SECT":"二段","MAREA":" ","LANE":"２４３巷","ALLEY":"２９弄","HOUSE_NO":"１號","E_COORD97":171335.97,"N_COORD97":2542595.8700000001,"ADDRESS":"中華東路二段２４３巷２９弄１號","OBJECTID":76430},"geometry":{"x":171335.97000000067,"y":2542595.8700000029}},{"attributes":{"ID":76431,"DIS_CODE":0,"TOWNNAME":"東區","LI":"自強里","LIN":"19鄰","STREET":"中華東路","SECT":"二段","MAREA":" ","LANE":"２４３巷","ALLEY":"２９弄","HOUSE_NO":"３號","E_COORD97":171334.42999999999,"N_COORD97":2542601.5299999998,"ADDRESS":"中華東路二段２４３巷２９弄３號","OBJECTID":76431},"geometry":{"x":171334.43000000156,"y":2542601.5299999993}},{"attributes":{"ID":76432,"DIS_CODE":0,"TOWNNAME":"東區","LI":"自強里","LIN":"19鄰","STREET":"中華東路","SECT":"二段","MAREA":" ","LANE":"２４３巷","ALLEY":"２９弄","HOUSE_NO":"５號","E_COORD97":171332.10999999999,"N_COORD97":2542607.71,"ADDRESS":"中華東路二段２４３巷２９弄５號","OBJECTID":76432},"geometry":{"x":171332.1100000022,"y":2542607.7100000028}},{"attributes":{"ID":76433,"DIS_CODE":0,"TOWNNAME":"永康區","LI":"甲頂里","LIN":"19鄰","STREET":"中正南路","SECT":" ","MAREA":" ","LANE":"５２巷","ALLEY":"４６弄","HOUSE_NO":"７７號","E_COORD97":169906.89999999999,"N_COORD97":2546566.1899999999,"ADDRESS":"中正南路５２巷４６弄７７號","OBJECTID":76433},"geometry":{"x":169906.9000000013,"y":2546566.1900000013}},{"attributes":{"ID":76434,"DIS_CODE":0,"TOWNNAME":"永康區","LI":"西橋里","LIN":"19鄰","STREET":"大橋三街","SECT":" ","MAREA":" ","LANE":"５７巷","ALLEY":"７弄","HOUSE_NO":"４５號","E_COORD97":170486.45999999999,"N_COORD97":2546442.3799999999,"ADDRESS":"大橋三街５７巷７弄４５號","OBJECTID":76434},"geometry":{"x":170486.45999999996,"y":2546442.3800000008}},{"attributes":{"ID":76435,"DIS_CODE":0,"TOWNNAME":"永康區","LI":"尚頂里","LIN":"19鄰","STREET":"南台街","SECT":" ","MAREA":" ","LANE":"３巷","ALLEY":"１４弄","HOUSE_NO":"６號","E_COORD97":170471.23999999999,"N_COORD97":2546898.7400000002,"ADDRESS":"南台街３巷１４弄６號","OBJECTID":76435},"geometry":{"x":170471.24000000022,"y":2546898.7400000021}},{"attributes":{"ID":76436,"DIS_CODE":0,"TOWNNAME":"永康區","LI":"勝利里","LIN":"19鄰","STREET":"勝利街","SECT":" ","MAREA":" ","LANE":"１９７巷","ALLEY":"２５弄","HOUSE_NO":"５之２號","E_COORD97":171282.53,"N_COORD97":2545093.0499999998,"ADDRESS":"勝利街１９７巷２５弄５之２號","OBJECTID":76436},"geometry":{"x":171282.53000000026,"y":2545093.0500000026}},{"attributes":{"ID":76437,"DIS_CODE":0,"TOWNNAME":"永康區","LI":"西橋里","LIN":"19鄰","STREET":"大橋三街","SECT":" ","MAREA":" ","LANE":"５７巷","ALLEY":"７弄","HOUSE_NO":"５９號","E_COORD97":170468.78,"N_COORD97":2546417.3799999999,"ADDRESS":"大橋三街５７巷７弄５９號","OBJECTID":76437},"geometry":{"x":170468.78000000119,"y":2546417.3799999971}},{"attributes":{"ID":76438,"DIS_CODE":0,"TOWNNAME":"永康區","LI":"尚頂里","LIN":"19鄰","STREET":"南台街","SECT":" ","MAREA":" ","LANE":"３巷","ALLEY":"１４弄","HOUSE_NO":"２５號","E_COORD97":170493.23999999999,"N_COORD97":2546814.4900000002,"ADDRESS":"南台街３巷１４弄２５號","OBJECTID":76438},"geometry":{"x":170493.24000000022,"y":2546814.4900000002}},{"attributes":{"ID":76439,"DIS_CODE":0,"TOWNNAME":"永康區","LI":"尚頂里","LIN":"19鄰","STREET":"南台街","SECT":" ","MAREA":" ","LANE":"３巷","ALLEY":"１４弄","HOUSE_NO":"１號","E_COORD97":170477.63,"N_COORD97":2546873.7400000002,"ADDRESS":"南台街３巷１４弄１號","OBJECTID":76439},"geometry":{"x":170477.63000000082,"y":2546873.7400000002}},{"attributes":{"ID":76440,"DIS_CODE":0,"TOWNNAME":"永康區","LI":"尚頂里","LIN":"19鄰","STREET":"南台街","SECT":" ","MAREA":" ","LANE":"３巷","ALLEY":"１４弄","HOUSE_NO":"５４號","E_COORD97":170480.67999999999,"N_COORD97":2546826.75,"ADDRESS":"南台街３巷１４弄５４號","OBJECTID":76440},"geometry":{"x":170480.68000000063,"y":2546826.7500000019}},{"attributes":{"ID":76441,"DIS_CODE":0,"TOWNNAME":"永康區","LI":"尚頂里","LIN":"19鄰","STREET":"南台街","SECT":" ","MAREA":" ","LANE":"３巷","ALLEY":"１４弄","HOUSE_NO":"２９號","E_COORD97":170495.73999999999,"N_COORD97":2546804.7400000002,"ADDRESS":"南台街３巷１４弄２９號","OBJECTID":76441},"geometry":{"x":170495.74000000115,"y":2546804.7400000002}},{"attributes":{"ID":76442,"DIS_CODE":0,"TOWNNAME":"永康區","LI":"尚頂里","LIN":"19鄰","STREET":"南台街","SECT":" ","MAREA":" ","LANE":"３巷","ALLEY":"１４弄","HOUSE_NO":"３８號","E_COORD97":170470.44,"N_COORD97":2546865.75,"ADDRESS":"南台街３巷１４弄３８號","OBJECTID":76442},"geometry":{"x":170470.44000000227,"y":2546865.75}},{"attributes":{"ID":76443,"DIS_CODE":0,"TOWNNAME":"永康區","LI":"尚頂里","LIN":"19鄰","STREET":"南台街","SECT":" ","MAREA":" ","LANE":"３巷","ALLEY":"１４弄","HOUSE_NO":"１２號","E_COORD97":170468.19,"N_COORD97":2546916.2400000002,"ADDRESS":"南台街３巷１４弄１２號","OBJECTID":76443},"geometry":{"x":170468.19000000041,"y":2546916.2400000021}},{"attributes":{"ID":76444,"DIS_CODE":0,"TOWNNAME":"永康區","LI":"南灣里","LIN":"19鄰","STREET":"大灣一街","SECT":" ","MAREA":" ","LANE":"６２巷","ALLEY":"１１弄","HOUSE_NO":"１１號","E_COORD97":174379.98000000001,"N_COORD97":2544694.1299999999,"ADDRESS":"大灣一街６２巷１１弄１１號","OBJECTID":76444},"geometry":{"x":174379.98000000138,"y":2544694.1300000008}},{"attributes":{"ID":76445,"DIS_CODE":0,"TOWNNAME":"永康區","LI":"尚頂里","LIN":"19鄰","STREET":"南台街","SECT":" ","MAREA":" ","LANE":"３巷","ALLEY":"１４弄","HOUSE_NO":"５８號","E_COORD97":170482.73999999999,"N_COORD97":2546817.2400000002,"ADDRESS":"南台街３巷１４弄５８號","OBJECTID":76445},"geometry":{"x":170482.74000000022,"y":2546817.2400000021}},{"attributes":{"ID":76446,"DIS_CODE":0,"TOWNNAME":"歸仁區","LI":"南保里","LIN":"18鄰","STREET":"文化十街","SECT":" ","MAREA":" ","LANE":" ","ALLEY":" ","HOUSE_NO":"１９號","E_COORD97":176537.73999999999,"N_COORD97":2541267.3300000001,"ADDRESS":"文化十街１９號","OBJECTID":76446},"geometry":{"x":176537.74000000115,"y":2541267.3300000019}},{"attributes":{"ID":76447,"DIS_CODE":0,"TOWNNAME":"永康區","LI":"南灣里","LIN":"19鄰","STREET":"大灣一街","SECT":" ","MAREA":" ","LANE":"６２巷","ALLEY":"１１弄","HOUSE_NO":"８號","E_COORD97":174355.06,"N_COORD97":2544690.27,"ADDRESS":"大灣一街６２巷１１弄８號","OBJECTID":76447},"geometry":{"x":174355.05999999959,"y":2544690.2700000014}},{"attributes":{"ID":76448,"DIS_CODE":0,"TOWNNAME":"永康區","LI":"南灣里","LIN":"19鄰","STREET":"大灣一街","SECT":" ","MAREA":" ","LANE":"６２巷","ALLEY":"１１弄","HOUSE_NO":"３號","E_COORD97":174363.09,"N_COORD97":2544702.2400000002,"ADDRESS":"大灣一街６２巷１１弄３號","OBJECTID":76448},"geometry":{"x":174363.09000000078,"y":2544702.2400000021}},{"attributes":{"ID":76449,"DIS_CODE":0,"TOWNNAME":"安南區","LI":"佃東里","LIN":"19鄰","STREET":"公學路","SECT":"四段","MAREA":" ","LANE":"１２２巷","ALLEY":"９６弄","HOUSE_NO":"４２之１號","E_COORD97":165685.70999999999,"N_COORD97":2552298.7999999998,"ADDRESS":"公學路四段１２２巷９６弄４２之１號","OBJECTID":76449},"geometry":{"x":165685.70999999996,"y":2552298.8000000045}},{"attributes":{"ID":76450,"DIS_CODE":0,"TOWNNAME":"安南區","LI":"頂安里","LIN":"19鄰","STREET":"北安路","SECT":"三段","MAREA":" ","LANE":"３９６巷","ALLEY":"１６弄","HOUSE_NO":"１號","E_COORD97":168868.73000000001,"N_COORD97":2549550.1499999999,"ADDRESS":"北安路三段３９６巷１６弄１號","OBJECTID":76450},"geometry":{"x":168868.73000000138,"y":2549550.1500000041}},{"attributes":{"ID":76451,"DIS_CODE":0,"TOWNNAME":"安南區","LI":"頂安里","LIN":"19鄰","STREET":"北安路","SECT":"三段","MAREA":" ","LANE":"３９６巷","ALLEY":"１６弄","HOUSE_NO":"３號","E_COORD97":168865.94,"N_COORD97":2549547.6699999999,"ADDRESS":"北安路三段３９６巷１６弄３號","OBJECTID":76451},"geometry":{"x":168865.94000000134,"y":2549547.6699999999}},{"attributes":{"ID":76452,"DIS_CODE":0,"TOWNNAME":"安定區","LI":"保西里","LIN":"6鄰","STREET":" ","SECT":" ","MAREA":"安定","LANE":" ","ALLEY":" ","HOUSE_NO":"３８１之２號","E_COORD97":171589.12,"N_COORD97":2557668.3199999998,"ADDRESS":"安定３８１之２號","OBJECTID":76452},"geometry":{"x":171589.12000000011,"y":2557668.3200000003}},{"attributes":{"ID":76453,"DIS_CODE":0,"TOWNNAME":"安定區","LI":"安定里","LIN":"6鄰","STREET":" ","SECT":" ","MAREA":"安定","LANE":" ","ALLEY":" ","HOUSE_NO":"３０號之３","E_COORD97":172086.79999999999,"N_COORD97":2557970.3199999998,"ADDRESS":"安定３０號之３","OBJECTID":76453},"geometry":{"x":172086.80000000075,"y":2557970.320000004}},{"attributes":{"ID":76454,"DIS_CODE":0,"TOWNNAME":"安南區","LI":"頂安里","LIN":"19鄰","STREET":"北安路","SECT":"三段","MAREA":" ","LANE":"３９６巷","ALLEY":"１６弄","HOUSE_NO":"５號","E_COORD97":168862.84,"N_COORD97":2549544.2599999998,"ADDRESS":"北安路三段３９６巷１６弄５號","OBJECTID":76454},"geometry":{"x":168862.83999999985,"y":2549544.2599999998}},{"attributes":{"ID":76455,"DIS_CODE":0,"TOWNNAME":"安南區","LI":"頂安里","LIN":"19鄰","STREET":"北安路","SECT":"三段","MAREA":" ","LANE":"３９６巷","ALLEY":"１６弄","HOUSE_NO":"７號","E_COORD97":168859.42000000001,"N_COORD97":2549541.7799999998,"ADDRESS":"北安路三段３９６巷１６弄７號","OBJECTID":76455},"geometry":{"x":168859.41999999993,"y":2549541.7800000012}},{"attributes":{"ID":76456,"DIS_CODE":0,"TOWNNAME":"安南區","LI":"頂安里","LIN":"19鄰","STREET":"北安路","SECT":"三段","MAREA":" ","LANE":"３９６巷","ALLEY":"１６弄","HOUSE_NO":"９號","E_COORD97":168855.39000000001,"N_COORD97":2549539.3100000001,"ADDRESS":"北安路三段３９６巷１６弄９號","OBJECTID":76456},"geometry":{"x":168855.38999999966,"y":2549539.3100000024}},{"attributes":{"ID":76457,"DIS_CODE":0,"TOWNNAME":"安南區","LI":"頂安里","LIN":"19鄰","STREET":"北安路","SECT":"三段","MAREA":" ","LANE":"３９６巷","ALLEY":"１６弄","HOUSE_NO":"１１號","E_COORD97":168852.60000000001,"N_COORD97":2549538.0699999998,"ADDRESS":"北安路三段３９６巷１６弄１１號","OBJECTID":76457},"geometry":{"x":168852.59999999963,"y":2549538.0700000022}},{"attributes":{"ID":76458,"DIS_CODE":0,"TOWNNAME":"安南區","LI":"頂安里","LIN":"19鄰","STREET":"北安路","SECT":"三段","MAREA":" ","LANE":"３９６巷","ALLEY":"１６弄","HOUSE_NO":"１３號","E_COORD97":168849.5,"N_COORD97":2549534.3500000001,"ADDRESS":"北安路三段３９６巷１６弄１３號","OBJECTID":76458},"geometry":{"x":168849.50000000093,"y":2549534.3500000034}},{"attributes":{"ID":76459,"DIS_CODE":0,"TOWNNAME":"安南區","LI":"頂安里","LIN":"19鄰","STREET":"北安路","SECT":"三段","MAREA":" ","LANE":"３９６巷","ALLEY":"１６弄","HOUSE_NO":"１５號","E_COORD97":168845.78,"N_COORD97":2549531.5600000001,"ADDRESS":"北安路三段３９６巷１６弄１５號","OBJECTID":76459},"geometry":{"x":168845.78000000212,"y":2549531.5600000024}},{"attributes":{"ID":76460,"DIS_CODE":0,"TOWNNAME":"安南區","LI":"頂安里","LIN":"19鄰","STREET":"北安路","SECT":"三段","MAREA":" ","LANE":"３９６巷","ALLEY":"５０弄","HOUSE_NO":"２８號","E_COORD97":168857.56,"N_COORD97":2549517,"ADDRESS":"北安路三段３９６巷５０弄２８號","OBJECTID":76460},"geometry":{"x":168857.55999999959,"y":2549517.0000000019}},{"attributes":{"ID":76461,"DIS_CODE":0,"TOWNNAME":"安南區","LI":"頂安里","LIN":"19鄰","STREET":"北安路","SECT":"三段","MAREA":" ","LANE":"３９６巷","ALLEY":"５０弄","HOUSE_NO":"３０號","E_COORD97":168861.60000000001,"N_COORD97":2549512.6699999999,"ADDRESS":"北安路三段３９６巷５０弄３０號","OBJECTID":76461},"geometry":{"x":168861.60000000149,"y":2549512.6700000018}},{"attributes":{"ID":76462,"DIS_CODE":0,"TOWNNAME":"安南區","LI":"頂安里","LIN":"19鄰","STREET":"北安路","SECT":"三段","MAREA":" ","LANE":"３９６巷","ALLEY":"５０弄","HOUSE_NO":"３２號","E_COORD97":168865.63,"N_COORD97":2549507.0899999999,"ADDRESS":"北安路三段３９６巷５０弄３２號","OBJECTID":76462},"geometry":{"x":168865.63000000082,"y":2549507.0900000017}},{"attributes":{"ID":76463,"DIS_CODE":0,"TOWNNAME":"安南區","LI":"頂安里","LIN":"19鄰","STREET":"北安路","SECT":"三段","MAREA":" ","LANE":"３９６巷","ALLEY":"５０弄","HOUSE_NO":"３６號","E_COORD97":168869.66,"N_COORD97":2549502.75,"ADDRESS":"北安路三段３９６巷５０弄３６號","OBJECTID":76463},"geometry":{"x":168869.66000000015,"y":2549502.7500000019}},{"attributes":{"ID":76464,"DIS_CODE":0,"TOWNNAME":"安南區","LI":"頂安里","LIN":"19鄰","STREET":"北安路","SECT":"三段","MAREA":" ","LANE":"３９６巷","ALLEY":"５０弄","HOUSE_NO":"３８號","E_COORD97":168873.69,"N_COORD97":2549497.7999999998,"ADDRESS":"北安路三段３９６巷５０弄３８號","OBJECTID":76464},"geometry":{"x":168873.69000000227,"y":2549497.8000000007}},{"attributes":{"ID":76465,"DIS_CODE":0,"TOWNNAME":"安南區","LI":"頂安里","LIN":"19鄰","STREET":"北安路","SECT":"三段","MAREA":" ","LANE":"３９６巷","ALLEY":"５０弄","HOUSE_NO":"４０號","E_COORD97":168856.94,"N_COORD97":2549493.46,"ADDRESS":"北安路三段３９６巷５０弄４０號","OBJECTID":76465},"geometry":{"x":168856.94000000134,"y":2549493.4600000009}},{"attributes":{"ID":76466,"DIS_CODE":0,"TOWNNAME":"安南區","LI":"頂安里","LIN":"19鄰","STREET":"北安路","SECT":"三段","MAREA":" ","LANE":"３９６巷","ALLEY":"５０弄","HOUSE_NO":"４２號","E_COORD97":168860.66,"N_COORD97":2549487.5699999998,"ADDRESS":"北安路三段３９６巷５０弄４２號","OBJECTID":76466},"geometry":{"x":168860.66000000108,"y":2549487.5700000022}},{"attributes":{"ID":76467,"DIS_CODE":0,"TOWNNAME":"安南區","LI":"頂安里","LIN":"19鄰","STREET":"北安路","SECT":"三段","MAREA":" ","LANE":"３９６巷","ALLEY":"５０弄","HOUSE_NO":"２號","E_COORD97":168892.60000000001,"N_COORD97":2549511.4300000002,"ADDRESS":"北安路三段３９６巷５０弄２號","OBJECTID":76467},"geometry":{"x":168892.60000000056,"y":2549511.4300000016}},{"attributes":{"ID":76468,"DIS_CODE":0,"TOWNNAME":"安南區","LI":"頂安里","LIN":"19鄰","STREET":"北安路","SECT":"三段","MAREA":" ","LANE":"３９６巷","ALLEY":"５０弄","HOUSE_NO":"６號","E_COORD97":168889.81,"N_COORD97":2549517.3100000001,"ADDRESS":"北安路三段３９６巷５０弄６號","OBJECTID":76468},"geometry":{"x":168889.80999999959,"y":2549517.3100000005}},{"attributes":{"ID":76469,"DIS_CODE":0,"TOWNNAME":"安南區","LI":"頂安里","LIN":"19鄰","STREET":"北安路","SECT":"三段","MAREA":" ","LANE":"３９６巷","ALLEY":"５０弄","HOUSE_NO":"８號","E_COORD97":168885.78,"N_COORD97":2549521.6499999999,"ADDRESS":"北安路三段３９６巷５０弄８號","OBJECTID":76469},"geometry":{"x":168885.78000000026,"y":2549521.6500000004}},{"attributes":{"ID":76470,"DIS_CODE":0,"TOWNNAME":"安南區","LI":"頂安里","LIN":"19鄰","STREET":"北安路","SECT":"三段","MAREA":" ","LANE":"３９６巷","ALLEY":"５０弄","HOUSE_NO":"１０號","E_COORD97":168881.44,"N_COORD97":2549526.9199999999,"ADDRESS":"北安路三段３９６巷５０弄１０號","OBJECTID":76470},"geometry":{"x":168881.44000000041,"y":2549526.9199999999}},{"attributes":{"ID":76471,"DIS_CODE":0,"TOWNNAME":"安南區","LI":"頂安里","LIN":"19鄰","STREET":"北安路","SECT":"三段","MAREA":" ","LANE":"３９６巷","ALLEY":"５０弄","HOUSE_NO":"１２號","E_COORD97":168878.64999999999,"N_COORD97":2549532.4900000002,"ADDRESS":"北安路三段３９６巷５０弄１２號","OBJECTID":76471},"geometry":{"x":168878.65000000037,"y":2549532.4900000002}},{"attributes":{"ID":76472,"DIS_CODE":0,"TOWNNAME":"安南區","LI":"頂安里","LIN":"19鄰","STREET":"北安路","SECT":"三段","MAREA":" ","LANE":"３９６巷","ALLEY":"５０弄","HOUSE_NO":"１６號","E_COORD97":168880.51000000001,"N_COORD97":2549502.4399999999,"ADDRESS":"北安路三段３９６巷５０弄１６號","OBJECTID":76472},"geometry":{"x":168880.50999999978,"y":2549502.4399999995}},{"attributes":{"ID":76473,"DIS_CODE":0,"TOWNNAME":"安南區","LI":"頂安里","LIN":"19鄰","STREET":"北安路","SECT":"三段","MAREA":" ","LANE":"３９６巷","ALLEY":"５０弄","HOUSE_NO":"１８號","E_COORD97":168877.10000000001,"N_COORD97":2549506.7799999998,"ADDRESS":"北安路三段３９６巷５０弄１８號","OBJECTID":76473},"geometry":{"x":168877.10000000056,"y":2549506.7799999993}},{"attributes":{"ID":76474,"DIS_CODE":0,"TOWNNAME":"安南區","LI":"頂安里","LIN":"19鄰","STREET":"北安路","SECT":"三段","MAREA":" ","LANE":"３９６巷","ALLEY":"５０弄","HOUSE_NO":"２０號","E_COORD97":168874.62,"N_COORD97":2549512.98,"ADDRESS":"北安路三段３９６巷５０弄２０號","OBJECTID":76474},"geometry":{"x":168874.62000000011,"y":2549512.9800000004}},{"attributes":{"ID":76475,"DIS_CODE":0,"TOWNNAME":"安南區","LI":"頂安里","LIN":"19鄰","STREET":"北安路","SECT":"三段","MAREA":" ","LANE":"３９６巷","ALLEY":"５０弄","HOUSE_NO":"２２號","E_COORD97":168869.66,"N_COORD97":2549517.3100000001,"ADDRESS":"北安路三段３９６巷５０弄２２號","OBJECTID":76475},"geometry":{"x":168869.66000000015,"y":2549517.3100000005}},{"attributes":{"ID":76476,"DIS_CODE":0,"TOWNNAME":"安南區","LI":"頂安里","LIN":"19鄰","STREET":"北安路","SECT":"三段","MAREA":" ","LANE":"３９６巷","ALLEY":"５０弄","HOUSE_NO":"２６號","E_COORD97":168866.56,"N_COORD97":2549522.27,"ADDRESS":"北安路三段３９６巷５０弄２６號","OBJECTID":76476},"geometry":{"x":168866.55999999959,"y":2549522.2700000014}},{"attributes":{"ID":76477,"DIS_CODE":0,"TOWNNAME":"東區","LI":"大同里","LIN":"19鄰","STREET":"府連路","SECT":" ","MAREA":" ","LANE":"１８２巷","ALLEY":"６弄","HOUSE_NO":"１１號","E_COORD97":169218.03,"N_COORD97":2542784.5600000001,"ADDRESS":"府連路１８２巷６弄１１號","OBJECTID":76477},"geometry":{"x":169218.03000000026,"y":2542784.5600000024}},{"attributes":{"ID":76478,"DIS_CODE":0,"TOWNNAME":"東區","LI":"大同里","LIN":"19鄰","STREET":"府連路","SECT":" ","MAREA":" ","LANE":"１８２巷","ALLEY":"６弄","HOUSE_NO":"１號","E_COORD97":169245.48999999999,"N_COORD97":2542796.8900000001,"ADDRESS":"府連路１８２巷６弄１號","OBJECTID":76478},"geometry":{"x":169245.49000000022,"y":2542796.8900000006}},{"attributes":{"ID":76479,"DIS_CODE":0,"TOWNNAME":"東區","LI":"大同里","LIN":"19鄰","STREET":"府連路","SECT":" ","MAREA":" ","LANE":"１８２巷","ALLEY":"６弄","HOUSE_NO":"２號","E_COORD97":169232.10999999999,"N_COORD97":2542803.1400000001,"ADDRESS":"府連路１８２巷６弄２號","OBJECTID":76479},"geometry":{"x":169232.11000000127,"y":2542803.1399999987}},{"attributes":{"ID":76480,"DIS_CODE":0,"TOWNNAME":"東區","LI":"大同里","LIN":"19鄰","STREET":"府連路","SECT":" ","MAREA":" ","LANE":"１８２巷","ALLEY":"６弄","HOUSE_NO":"２號之１","E_COORD97":169239.23999999999,"N_COORD97":2542810.0899999999,"ADDRESS":"府連路１８２巷６弄２號之１","OBJECTID":76480},"geometry":{"x":169239.24000000209,"y":2542810.0900000017}},{"attributes":{"ID":76481,"DIS_CODE":0,"TOWNNAME":"東區","LI":"大同里","LIN":"19鄰","STREET":"府連路","SECT":" ","MAREA":" ","LANE":"１８２巷","ALLEY":"６弄","HOUSE_NO":"３號","E_COORD97":169236.98000000001,"N_COORD97":2542785.6099999999,"ADDRESS":"府連路１８２巷６弄３號","OBJECTID":76481},"geometry":{"x":169236.98000000045,"y":2542785.6100000031}},{"attributes":{"ID":76482,"DIS_CODE":0,"TOWNNAME":"東區","LI":"大同里","LIN":"19鄰","STREET":"府連路","SECT":" ","MAREA":" ","LANE":"１８２巷","ALLEY":"６弄","HOUSE_NO":"５號","E_COORD97":169232.98000000001,"N_COORD97":2542785.7799999998,"ADDRESS":"府連路１８２巷６弄５號","OBJECTID":76482},"geometry":{"x":169232.98000000138,"y":2542785.7800000012}},{"attributes":{"ID":76483,"DIS_CODE":0,"TOWNNAME":"東區","LI":"大同里","LIN":"19鄰","STREET":"府連路","SECT":" ","MAREA":" ","LANE":"１８２巷","ALLEY":"６弄","HOUSE_NO":"７號","E_COORD97":169227.79000000001,"N_COORD97":2542786.8399999999,"ADDRESS":"府連路１８２巷６弄７號","OBJECTID":76483},"geometry":{"x":169227.79000000004,"y":2542786.8399999999}},{"attributes":{"ID":76484,"DIS_CODE":0,"TOWNNAME":"東區","LI":"大同里","LIN":"19鄰","STREET":"府連路","SECT":" ","MAREA":" ","LANE":"１８２巷","ALLEY":"６弄","HOUSE_NO":"９號","E_COORD97":169222.98000000001,"N_COORD97":2542785.2000000002,"ADDRESS":"府連路１８２巷６弄９號","OBJECTID":76484},"geometry":{"x":169222.98000000138,"y":2542785.2000000011}},{"attributes":{"ID":76485,"DIS_CODE":0,"TOWNNAME":"永康區","LI":"尚頂里","LIN":"19鄰","STREET":"南台街","SECT":" ","MAREA":" ","LANE":"３巷","ALLEY":"１４弄","HOUSE_NO":"２號","E_COORD97":170474.29000000001,"N_COORD97":2546886.9900000002,"ADDRESS":"南台街３巷１４弄２號","OBJECTID":76485},"geometry":{"x":170474.29000000004,"y":2546886.9900000021}},{"attributes":{"ID":76486,"DIS_CODE":0,"TOWNNAME":"永康區","LI":"尚頂里","LIN":"19鄰","STREET":"南台街","SECT":" ","MAREA":" ","LANE":"３巷","ALLEY":"１４弄","HOUSE_NO":"２８號","E_COORD97":170462.70000000001,"N_COORD97":2546896.2400000002,"ADDRESS":"南台街３巷１４弄２８號","OBJECTID":76486},"geometry":{"x":170462.70000000019,"y":2546896.2400000002}},{"attributes":{"ID":76487,"DIS_CODE":0,"TOWNNAME":"永康區","LI":"尚頂里","LIN":"19鄰","STREET":"南台街","SECT":" ","MAREA":" ","LANE":"３巷","ALLEY":"１４弄","HOUSE_NO":"２４號","E_COORD97":170459.48999999999,"N_COORD97":2546908.4900000002,"ADDRESS":"南台街３巷１４弄２４號","OBJECTID":76487},"geometry":{"x":170459.49000000022,"y":2546908.4900000002}},{"attributes":{"ID":76488,"DIS_CODE":0,"TOWNNAME":"永康區","LI":"尚頂里","LIN":"19鄰","STREET":"南台街","SECT":" ","MAREA":" ","LANE":"３巷","ALLEY":"１４弄","HOUSE_NO":"３６號","E_COORD97":170468.94,"N_COORD97":2546871.4900000002,"ADDRESS":"南台街３巷１４弄３６號","OBJECTID":76488},"geometry":{"x":170468.94000000134,"y":2546871.4900000002}},{"attributes":{"ID":76489,"DIS_CODE":0,"TOWNNAME":"永康區","LI":"尚頂里","LIN":"19鄰","STREET":"南台街","SECT":" ","MAREA":" ","LANE":"３巷","ALLEY":"１４弄","HOUSE_NO":"７號","E_COORD97":170482.89000000001,"N_COORD97":2546858.5,"ADDRESS":"南台街３巷１４弄７號","OBJECTID":76489},"geometry":{"x":170482.88999999966,"y":2546858.5000000037}},{"attributes":{"ID":76490,"DIS_CODE":0,"TOWNNAME":"永康區","LI":"尚頂里","LIN":"19鄰","STREET":"南台街","SECT":" ","MAREA":" ","LANE":"３巷","ALLEY":"１４弄","HOUSE_NO":"５０號","E_COORD97":170477.97,"N_COORD97":2546836.75,"ADDRESS":"南台街３巷１４弄５０號","OBJECTID":76490},"geometry":{"x":170477.9700000016,"y":2546836.7500000037}},{"attributes":{"ID":76491,"DIS_CODE":0,"TOWNNAME":"永康區","LI":"尚頂里","LIN":"19鄰","STREET":"南台街","SECT":" ","MAREA":" ","LANE":"３巷","ALLEY":"１４弄","HOUSE_NO":"２０號","E_COORD97":170456.69,"N_COORD97":2546919.7400000002,"ADDRESS":"南台街３巷１４弄２０號","OBJECTID":76491},"geometry":{"x":170456.69000000041,"y":2546919.7400000021}},{"attributes":{"ID":76492,"DIS_CODE":0,"TOWNNAME":"永康區","LI":"尚頂里","LIN":"19鄰","STREET":"南台街","SECT":" ","MAREA":" ","LANE":"３巷","ALLEY":"１４弄","HOUSE_NO":"４４號","E_COORD97":170474.23999999999,"N_COORD97":2546851,"ADDRESS":"南台街３巷１４弄４４號","OBJECTID":76492},"geometry":{"x":170474.24000000022,"y":2546851}},{"attributes":{"ID":76493,"DIS_CODE":0,"TOWNNAME":"歸仁區","LI":"南保里","LIN":"25鄰","STREET":"文化街","SECT":"三段","MAREA":" ","LANE":" ","ALLEY":" ","HOUSE_NO":"１８３號","E_COORD97":176573.64000000001,"N_COORD97":2541180.3300000001,"ADDRESS":"文化街三段１８３號","OBJECTID":76493},"geometry":{"x":176573.63999999966,"y":2541180.3300000001}},{"attributes":{"ID":76494,"DIS_CODE":0,"TOWNNAME":"歸仁區","LI":"南興里","LIN":"40鄰","STREET":"民生六街","SECT":" ","MAREA":" ","LANE":" ","ALLEY":" ","HOUSE_NO":"１３號","E_COORD97":176201.29000000001,"N_COORD97":2540837.29,"ADDRESS":"民生六街１３號","OBJECTID":76494},"geometry":{"x":176201.29000000097,"y":2540837.2899999991}},{"attributes":{"ID":76495,"DIS_CODE":0,"TOWNNAME":"歸仁區","LI":"南興里","LIN":"40鄰","STREET":"中山路","SECT":"三段","MAREA":" ","LANE":" ","ALLEY":" ","HOUSE_NO":"２８７號","E_COORD97":176261.66,"N_COORD97":2540935.2799999998,"ADDRESS":"中山路三段２８７號","OBJECTID":76495},"geometry":{"x":176261.66000000108,"y":2540935.2799999993}},{"attributes":{"ID":76496,"DIS_CODE":0,"TOWNNAME":"官田區","LI":"隆本里","LIN":" ","STREET":"忠孝街","SECT":" ","MAREA":" ","LANE":" ","ALLEY":" ","HOUSE_NO":"３４號","E_COORD97":180070.39999999999,"N_COORD97":2566158.98,"ADDRESS":"忠孝街３４號","OBJECTID":76496},"geometry":{"x":180070.39999999944,"y":2566158.9800000004}},{"attributes":{"ID":76497,"DIS_CODE":0,"TOWNNAME":"官田區","LI":"隆田里","LIN":" ","STREET":"勝利路","SECT":" ","MAREA":" ","LANE":" ","ALLEY":" ","HOUSE_NO":"１６５號","E_COORD97":180222.03,"N_COORD97":2566196.3599999999,"ADDRESS":"勝利路１６５號","OBJECTID":76497},"geometry":{"x":180222.03000000212,"y":2566196.3599999994}},{"attributes":{"ID":76498,"DIS_CODE":0,"TOWNNAME":"官田區","LI":"隆田里","LIN":" ","STREET":"勝利路","SECT":" ","MAREA":" ","LANE":" ","ALLEY":" ","HOUSE_NO":"１７１號","E_COORD97":180207.91,"N_COORD97":2566254.3999999999,"ADDRESS":"勝利路１７１號","OBJECTID":76498},"geometry":{"x":180207.91000000108,"y":2566254.4000000004}},{"attributes":{"ID":76499,"DIS_CODE":0,"TOWNNAME":"官田區","LI":"隆田里","LIN":" ","STREET":"勝利路","SECT":" ","MAREA":" ","LANE":" ","ALLEY":" ","HOUSE_NO":"１７９號","E_COORD97":180190.82000000001,"N_COORD97":2566275.29,"ADDRESS":"勝利路１７９號","OBJECTID":76499},"geometry":{"x":180190.8200000003,"y":2566275.2899999991}},{"attributes":{"ID":76500,"DIS_CODE":0,"TOWNNAME":"官田區","LI":"隆田里","LIN":" ","STREET":"勝利路","SECT":" ","MAREA":" ","LANE":" ","ALLEY":" ","HOUSE_NO":"１８１號","E_COORD97":180187.25,"N_COORD97":2566279.27,"ADDRESS":"勝利路１８１號","OBJECTID":76500},"geometry":{"x":180187.25000000093,"y":2566279.2699999996}},{"attributes":{"ID":76501,"DIS_CODE":0,"TOWNNAME":"官田區","LI":"隆田里","LIN":" ","STREET":"勝利路","SECT":" ","MAREA":" ","LANE":" ","ALLEY":" ","HOUSE_NO":"１８３號","E_COORD97":180183.17999999999,"N_COORD97":2566284.0699999998,"ADDRESS":"勝利路１８３號","OBJECTID":76501},"geometry":{"x":180183.18000000156,"y":2566284.0700000003}},{"attributes":{"ID":76502,"DIS_CODE":0,"TOWNNAME":"官田區","LI":"隆田里","LIN":" ","STREET":"勝利路","SECT":" ","MAREA":" ","LANE":" ","ALLEY":" ","HOUSE_NO":"１８５號","E_COORD97":180179.79999999999,"N_COORD97":2566288.7599999998,"ADDRESS":"勝利路１８５號","OBJECTID":76502},"geometry":{"x":180179.80000000075,"y":2566288.7599999998}},{"attributes":{"ID":76503,"DIS_CODE":0,"TOWNNAME":"官田區","LI":"隆田里","LIN":" ","STREET":"勝利路","SECT":" ","MAREA":" ","LANE":" ","ALLEY":" ","HOUSE_NO":"１９１號","E_COORD97":180166.91,"N_COORD97":2566304.8300000001,"ADDRESS":"勝利路１９１號","OBJECTID":76503},"geometry":{"x":180166.91000000201,"y":2566304.8300000019}},{"attributes":{"ID":76504,"DIS_CODE":0,"TOWNNAME":"官田區","LI":"隆田里","LIN":" ","STREET":"勝利路","SECT":" ","MAREA":" ","LANE":" ","ALLEY":" ","HOUSE_NO":"２０３號","E_COORD97":180124.16,"N_COORD97":2566363.25,"ADDRESS":"勝利路２０３號","OBJECTID":76504},"geometry":{"x":180124.16000000015,"y":2566363.2500000019}},{"attributes":{"ID":76505,"DIS_CODE":0,"TOWNNAME":"官田區","LI":"隆田里","LIN":" ","STREET":"勝利路","SECT":" ","MAREA":" ","LANE":" ","ALLEY":" ","HOUSE_NO":"２０５號","E_COORD97":180121.60999999999,"N_COORD97":2566366.9100000001,"ADDRESS":"勝利路２０５號","OBJECTID":76505},"geometry":{"x":180121.6100000022,"y":2566366.9100000001}},{"attributes":{"ID":76506,"DIS_CODE":0,"TOWNNAME":"官田區","LI":"隆田里","LIN":" ","STREET":"勝利路","SECT":" ","MAREA":" ","LANE":" ","ALLEY":" ","HOUSE_NO":"２１５號","E_COORD97":180108.09,"N_COORD97":2566386.1299999999,"ADDRESS":"勝利路２１５號","OBJECTID":76506},"geometry":{"x":180108.09000000078,"y":2566386.1300000008}},{"attributes":{"ID":76507,"DIS_CODE":0,"TOWNNAME":"安定區","LI":"安定里","LIN":"6鄰","STREET":" ","SECT":" ","MAREA":"安定","LANE":" ","ALLEY":" ","HOUSE_NO":"３０號之７","E_COORD97":172103.38,"N_COORD97":2557972.3199999998,"ADDRESS":"安定３０號之７","OBJECTID":76507},"geometry":{"x":172103.38000000082,"y":2557972.3200000003}},{"attributes":{"ID":76508,"DIS_CODE":0,"TOWNNAME":"安定區","LI":"保西里","LIN":"6鄰","STREET":" ","SECT":" ","MAREA":"安定","LANE":" ","ALLEY":" ","HOUSE_NO":"３８０號","E_COORD97":171566.22,"N_COORD97":2557684.3199999998,"ADDRESS":"安定３８０號","OBJECTID":76508},"geometry":{"x":171566.21999999881,"y":2557684.3200000003}},{"attributes":{"ID":76509,"DIS_CODE":0,"TOWNNAME":"安定區","LI":"安定里","LIN":"6鄰","STREET":" ","SECT":" ","MAREA":"安定","LANE":" ","ALLEY":" ","HOUSE_NO":"３１號之５","E_COORD97":172149.35999999999,"N_COORD97":2557941.3199999998,"ADDRESS":"安定３１號之５","OBJECTID":76509},"geometry":{"x":172149.36000000127,"y":2557941.3200000022}},{"attributes":{"ID":76510,"DIS_CODE":0,"TOWNNAME":"官田區","LI":"隆田里","LIN":" ","STREET":"勝利路","SECT":" ","MAREA":" ","LANE":" ","ALLEY":" ","HOUSE_NO":"２１７號","E_COORD97":180105.34,"N_COORD97":2566390.0099999998,"ADDRESS":"勝利路２１７號","OBJECTID":76510},"geometry":{"x":180105.33999999985,"y":2566390.0099999979}},{"attributes":{"ID":76511,"DIS_CODE":0,"TOWNNAME":"官田區","LI":"隆田里","LIN":" ","STREET":"裕農路","SECT":" ","MAREA":" ","LANE":" ","ALLEY":" ","HOUSE_NO":"１號","E_COORD97":180584.63,"N_COORD97":2564769.6899999999,"ADDRESS":"裕農路１號","OBJECTID":76511},"geometry":{"x":180584.63000000082,"y":2564769.6900000013}},{"attributes":{"ID":76512,"DIS_CODE":0,"TOWNNAME":"官田區","LI":"隆本里","LIN":" ","STREET":"興隆街","SECT":" ","MAREA":" ","LANE":" ","ALLEY":" ","HOUSE_NO":"９８號","E_COORD97":179866.87,"N_COORD97":2566380.02,"ADDRESS":"興隆街９８號","OBJECTID":76512},"geometry":{"x":179866.87000000011,"y":2566380.0200000033}},{"attributes":{"ID":76513,"DIS_CODE":0,"TOWNNAME":"新市區","LI":"新市里","LIN":" ","STREET":"和平路","SECT":" ","MAREA":" ","LANE":" ","ALLEY":" ","HOUSE_NO":"３０５號","E_COORD97":174402.62,"N_COORD97":2551271.75,"ADDRESS":"和平路３０５號","OBJECTID":76513},"geometry":{"x":174402.62000000011,"y":2551271.7500000019}},{"attributes":{"ID":76514,"DIS_CODE":0,"TOWNNAME":"新市區","LI":"新市里","LIN":" ","STREET":"和平路","SECT":" ","MAREA":" ","LANE":" ","ALLEY":" ","HOUSE_NO":"２８７之１號","E_COORD97":174448.67000000001,"N_COORD97":2551244.7999999998,"ADDRESS":"和平路２８７之１號","OBJECTID":76514},"geometry":{"x":174448.67000000179,"y":2551244.8000000026}},{"attributes":{"ID":76515,"DIS_CODE":0,"TOWNNAME":"新市區","LI":"新市里","LIN":" ","STREET":"和平路","SECT":" ","MAREA":" ","LANE":" ","ALLEY":" ","HOUSE_NO":"２８９號","E_COORD97":174407.67000000001,"N_COORD97":2551248.25,"ADDRESS":"和平路２８９號","OBJECTID":76515},"geometry":{"x":174407.66999999993,"y":2551248.2500000019}},{"attributes":{"ID":76516,"DIS_CODE":0,"TOWNNAME":"新市區","LI":"新市里","LIN":" ","STREET":"和平路","SECT":" ","MAREA":" ","LANE":" ","ALLEY":" ","HOUSE_NO":"２９７號","E_COORD97":174449.29000000001,"N_COORD97":2551283.75,"ADDRESS":"和平路２９７號","OBJECTID":76516},"geometry":{"x":174449.29000000004,"y":2551283.75}},{"attributes":{"ID":76517,"DIS_CODE":0,"TOWNNAME":"永康區","LI":"尚頂里","LIN":"19鄰","STREET":"南台街","SECT":" ","MAREA":" ","LANE":"３巷","ALLEY":"１４弄","HOUSE_NO":"４６號","E_COORD97":170475.48999999999,"N_COORD97":2546846.25,"ADDRESS":"南台街３巷１４弄４６號","OBJECTID":76517},"geometry":{"x":170475.49000000115,"y":2546846.25}},{"attributes":{"ID":76518,"DIS_CODE":0,"TOWNNAME":"永康區","LI":"尚頂里","LIN":"19鄰","STREET":"南台街","SECT":" ","MAREA":" ","LANE":"３巷","ALLEY":"１４弄","HOUSE_NO":"１９號","E_COORD97":170489.63,"N_COORD97":2546829.25,"ADDRESS":"南台街３巷１４弄１９號","OBJECTID":76518},"geometry":{"x":170489.63000000082,"y":2546829.25}},{"attributes":{"ID":76519,"DIS_CODE":0,"TOWNNAME":"永康區","LI":"尚頂里","LIN":"19鄰","STREET":"南台街","SECT":" ","MAREA":" ","LANE":"３巷","ALLEY":"１４弄","HOUSE_NO":"１６號","E_COORD97":170465.35000000001,"N_COORD97":2546928,"ADDRESS":"南台街３巷１４弄１６號","OBJECTID":76519},"geometry":{"x":170465.35000000056,"y":2546928.0000000019}},{"attributes":{"ID":76520,"DIS_CODE":0,"TOWNNAME":"永康區","LI":"尚頂里","LIN":"19鄰","STREET":"南台街","SECT":" ","MAREA":" ","LANE":"３巷","ALLEY":"１４弄","HOUSE_NO":"６８號","E_COORD97":170487.67999999999,"N_COORD97":2546789.9900000002,"ADDRESS":"南台街３巷１４弄６８號","OBJECTID":76520},"geometry":{"x":170487.6799999997,"y":2546789.9900000002}},{"attributes":{"ID":76521,"DIS_CODE":0,"TOWNNAME":"永康區","LI":"尚頂里","LIN":"19鄰","STREET":"南台街","SECT":" ","MAREA":" ","LANE":"３巷","ALLEY":"１４弄","HOUSE_NO":"６４號","E_COORD97":170486.59,"N_COORD97":2546802.7400000002,"ADDRESS":"南台街３巷１４弄６４號","OBJECTID":76521},"geometry":{"x":170486.59000000078,"y":2546802.7399999984}},{"attributes":{"ID":76522,"DIS_CODE":0,"TOWNNAME":"永康區","LI":"尚頂里","LIN":"19鄰","STREET":"南台街","SECT":" ","MAREA":" ","LANE":"３巷","ALLEY":"１４弄","HOUSE_NO":"２３號","E_COORD97":170492.09,"N_COORD97":2546819.5,"ADDRESS":"南台街３巷１４弄２３號","OBJECTID":76522},"geometry":{"x":170492.08999999985,"y":2546819.5000000019}},{"attributes":{"ID":76523,"DIS_CODE":0,"TOWNNAME":"永康區","LI":"尚頂里","LIN":"19鄰","STREET":"南台街","SECT":" ","MAREA":" ","LANE":"３巷","ALLEY":"１４弄","HOUSE_NO":"１０號","E_COORD97":170469.73999999999,"N_COORD97":2546910.2400000002,"ADDRESS":"南台街３巷１４弄１０號","OBJECTID":76523},"geometry":{"x":170469.74000000022,"y":2546910.2400000002}},{"attributes":{"ID":76524,"DIS_CODE":0,"TOWNNAME":"永康區","LI":"尚頂里","LIN":"19鄰","STREET":"南台街","SECT":" ","MAREA":" ","LANE":"３巷","ALLEY":"１４弄","HOUSE_NO":"５６號","E_COORD97":170481.67999999999,"N_COORD97":2546822.25,"ADDRESS":"南台街３巷１４弄５６號","OBJECTID":76524},"geometry":{"x":170481.68000000156,"y":2546822.25}},{"attributes":{"ID":76525,"DIS_CODE":0,"TOWNNAME":"永康區","LI":"尚頂里","LIN":"19鄰","STREET":"南台街","SECT":" ","MAREA":" ","LANE":"３巷","ALLEY":"１４弄","HOUSE_NO":"３１號","E_COORD97":170497.04000000001,"N_COORD97":2546799.9900000002,"ADDRESS":"南台街３巷１４弄３１號","OBJECTID":76525},"geometry":{"x":170497.04000000097,"y":2546799.9900000002}},{"attributes":{"ID":76526,"DIS_CODE":0,"TOWNNAME":"永康區","LI":"尚頂里","LIN":"19鄰","STREET":"南台街","SECT":" ","MAREA":" ","LANE":"３巷","ALLEY":"１４弄","HOUSE_NO":"４０號","E_COORD97":170471.85000000001,"N_COORD97":2546860.5,"ADDRESS":"南台街３巷１４弄４０號","OBJECTID":76526},"geometry":{"x":170471.8499999987,"y":2546860.5}},{"attributes":{"ID":76527,"DIS_CODE":0,"TOWNNAME":"永康區","LI":"尚頂里","LIN":"19鄰","STREET":"南台街","SECT":" ","MAREA":" ","LANE":"３巷","ALLEY":"１４弄","HOUSE_NO":"２６號","E_COORD97":170461.04000000001,"N_COORD97":2546902.7400000002,"ADDRESS":"南台街３巷１４弄２６號","OBJECTID":76527},"geometry":{"x":170461.04000000097,"y":2546902.7400000021}},{"attributes":{"ID":76528,"DIS_CODE":0,"TOWNNAME":"永康區","LI":"尚頂里","LIN":"19鄰","STREET":"南台街","SECT":" ","MAREA":" ","LANE":"３巷","ALLEY":"１４弄","HOUSE_NO":"３號","E_COORD97":170478.84,"N_COORD97":2546868.25,"ADDRESS":"南台街３巷１４弄３號","OBJECTID":76528},"geometry":{"x":170478.83999999985,"y":2546868.2500000019}},{"attributes":{"ID":76529,"DIS_CODE":0,"TOWNNAME":"永康區","LI":"尚頂里","LIN":"19鄰","STREET":"南台街","SECT":" ","MAREA":" ","LANE":"３巷","ALLEY":"１４弄","HOUSE_NO":"１４號","E_COORD97":170466.54000000001,"N_COORD97":2546921.9900000002,"ADDRESS":"南台街３巷１４弄１４號","OBJECTID":76529},"geometry":{"x":170466.54000000097,"y":2546921.9900000002}},{"attributes":{"ID":76530,"DIS_CODE":0,"TOWNNAME":"永康區","LI":"尚頂里","LIN":"19鄰","STREET":"南台街","SECT":" ","MAREA":" ","LANE":"３巷","ALLEY":"１４弄","HOUSE_NO":"１３號","E_COORD97":170486.13,"N_COORD97":2546843.75,"ADDRESS":"南台街３巷１４弄１３號","OBJECTID":76530},"geometry":{"x":170486.13000000082,"y":2546843.7500000019}},{"attributes":{"ID":76531,"DIS_CODE":0,"TOWNNAME":"永康區","LI":"尚頂里","LIN":"19鄰","STREET":"南台街","SECT":" ","MAREA":" ","LANE":"３巷","ALLEY":"１４弄","HOUSE_NO":"５號","E_COORD97":170480.23999999999,"N_COORD97":2546863,"ADDRESS":"南台街３巷１４弄５號","OBJECTID":76531},"geometry":{"x":170480.24000000115,"y":2546863.0000000019}},{"attributes":{"ID":76532,"DIS_CODE":0,"TOWNNAME":"永康區","LI":"尚頂里","LIN":"19鄰","STREET":"南台街","SECT":" ","MAREA":" ","LANE":"３巷","ALLEY":"１４弄","HOUSE_NO":"６０號","E_COORD97":170484,"N_COORD97":2546812.4900000002,"ADDRESS":"南台街３巷１４弄６０號","OBJECTID":76532},"geometry":{"x":170484.00000000093,"y":2546812.4900000021}},{"attributes":{"ID":76533,"DIS_CODE":0,"TOWNNAME":"永康區","LI":"尚頂里","LIN":"19鄰","STREET":"南台街","SECT":" ","MAREA":" ","LANE":"３巷","ALLEY":"１４弄","HOUSE_NO":"４８號","E_COORD97":170476.79000000001,"N_COORD97":2546841.5,"ADDRESS":"南台街３巷１４弄４８號","OBJECTID":76533},"geometry":{"x":170476.79000000097,"y":2546841.4999999981}},{"attributes":{"ID":76534,"DIS_CODE":0,"TOWNNAME":"新化區","LI":"唪口里","LIN":"7鄰","STREET":" ","SECT":" ","MAREA":"唪口","LANE":" ","ALLEY":" ","HOUSE_NO":"１８號","E_COORD97":177962.29999999999,"N_COORD97":2548878.25,"ADDRESS":"唪口１８號","OBJECTID":76534},"geometry":{"x":177962.30000000075,"y":2548878.2500000019}},{"attributes":{"ID":76535,"DIS_CODE":0,"TOWNNAME":"永康區","LI":"正強里","LIN":"19鄰","STREET":"中山南路","SECT":" ","MAREA":" ","LANE":"４７１巷","ALLEY":"３９弄","HOUSE_NO":"８號","E_COORD97":173173.47,"N_COORD97":2547206.2400000002,"ADDRESS":"中山南路４７１巷３９弄８號","OBJECTID":76535},"geometry":{"x":173173.4700000016,"y":2547206.2399999984}},{"attributes":{"ID":76536,"DIS_CODE":0,"TOWNNAME":"永康區","LI":"正強里","LIN":"19鄰","STREET":"中山南路","SECT":" ","MAREA":" ","LANE":"４７１巷","ALLEY":"３９弄","HOUSE_NO":"１０號","E_COORD97":173173.51000000001,"N_COORD97":2547213.2400000002,"ADDRESS":"中山南路４７１巷３９弄１０號","OBJECTID":76536},"geometry":{"x":173173.51000000071,"y":2547213.2400000039}},{"attributes":{"ID":76537,"DIS_CODE":0,"TOWNNAME":"永康區","LI":"正強里","LIN":"19鄰","STREET":"中山南路","SECT":" ","MAREA":" ","LANE":"４７１巷","ALLEY":"３９弄","HOUSE_NO":"７號","E_COORD97":173160.73000000001,"N_COORD97":2547203.73,"ADDRESS":"中山南路４７１巷３９弄７號","OBJECTID":76537},"geometry":{"x":173160.73000000138,"y":2547203.7300000023}},{"attributes":{"ID":76538,"DIS_CODE":0,"TOWNNAME":"永康區","LI":"正強里","LIN":"19鄰","STREET":"中山南路","SECT":" ","MAREA":" ","LANE":"４７１巷","ALLEY":"３９弄","HOUSE_NO":"２號","E_COORD97":173178.22,"N_COORD97":2547184.9900000002,"ADDRESS":"中山南路４７１巷３９弄２號","OBJECTID":76538},"geometry":{"x":173178.21999999974,"y":2547184.9900000021}},{"attributes":{"ID":76539,"DIS_CODE":0,"TOWNNAME":"南區","LI":"明亮里","LIN":" ","STREET":"新都路","SECT":" ","MAREA":" ","LANE":"５２０巷","ALLEY":"１弄","HOUSE_NO":"７號","E_COORD97":167111.53,"N_COORD97":2540917.27,"ADDRESS":"新都路５２０巷１弄７號","OBJECTID":76539},"geometry":{"x":167111.53000000212,"y":2540917.2700000014}},{"attributes":{"ID":76540,"DIS_CODE":0,"TOWNNAME":"佳里區","LI":"建南里","LIN":"19鄰","STREET":"自由街","SECT":" ","MAREA":" ","LANE":"１６６巷","ALLEY":"９弄","HOUSE_NO":"１號","E_COORD97":165640.76999999999,"N_COORD97":2561798.54,"ADDRESS":"自由街１６６巷９弄１號","OBJECTID":76540},"geometry":{"x":165640.76999999955,"y":2561798.5399999972}},{"attributes":{"ID":76541,"DIS_CODE":0,"TOWNNAME":"佳里區","LI":"建南里","LIN":"19鄰","STREET":"自由街","SECT":" ","MAREA":" ","LANE":"１６６巷","ALLEY":"９弄","HOUSE_NO":"２號","E_COORD97":165634.22,"N_COORD97":2561812.7799999998,"ADDRESS":"自由街１６６巷９弄２號","OBJECTID":76541},"geometry":{"x":165634.21999999974,"y":2561812.7799999993}},{"attributes":{"ID":76542,"DIS_CODE":0,"TOWNNAME":"佳里區","LI":"建南里","LIN":"19鄰","STREET":"自由街","SECT":" ","MAREA":" ","LANE":"１６６巷","ALLEY":"９弄","HOUSE_NO":"３號","E_COORD97":165636.26000000001,"N_COORD97":2561798.1099999999,"ADDRESS":"自由街１６６巷９弄３號","OBJECTID":76542},"geometry":{"x":165636.26000000164,"y":2561798.1099999994}},{"attributes":{"ID":76543,"DIS_CODE":0,"TOWNNAME":"新市區","LI":"港墘里","LIN":" ","STREET":"華美街","SECT":" ","MAREA":" ","LANE":" ","ALLEY":" ","HOUSE_NO":"１０之６號","E_COORD97":178135.95000000001,"N_COORD97":2552827.0499999998,"ADDRESS":"華美街１０之６號","OBJECTID":76543},"geometry":{"x":178135.95000000112,"y":2552827.0500000026}},{"attributes":{"ID":76544,"DIS_CODE":0,"TOWNNAME":"佳里區","LI":"建南里","LIN":"19鄰","STREET":"自由街","SECT":" ","MAREA":" ","LANE":"１６６巷","ALLEY":"９弄","HOUSE_NO":"５號","E_COORD97":165631.75,"N_COORD97":2561798.4300000002,"ADDRESS":"自由街１６６巷９弄５號","OBJECTID":76544},"geometry":{"x":165631.75000000093,"y":2561798.4300000016}},{"attributes":{"ID":76545,"DIS_CODE":0,"TOWNNAME":"佳里區","LI":"建南里","LIN":"19鄰","STREET":"自由街","SECT":" ","MAREA":" ","LANE":"１６６巷","ALLEY":"９弄","HOUSE_NO":"７號","E_COORD97":165626.87,"N_COORD97":2561798.0099999998,"ADDRESS":"自由街１６６巷９弄７號","OBJECTID":76545},"geometry":{"x":165626.87000000011,"y":2561798.0099999998}},{"attributes":{"ID":76546,"DIS_CODE":0,"TOWNNAME":"佳里區","LI":"建南里","LIN":"19鄰","STREET":"自由街","SECT":" ","MAREA":" ","LANE":"１６６巷","ALLEY":"９弄","HOUSE_NO":"９號","E_COORD97":165622.44,"N_COORD97":2561797.4900000002,"ADDRESS":"自由街１６６巷９弄９號","OBJECTID":76546},"geometry":{"x":165622.44000000134,"y":2561797.4900000021}},{"attributes":{"ID":76547,"DIS_CODE":0,"TOWNNAME":"安南區","LI":"州北里","LIN":"19鄰","STREET":"安昌街","SECT":" ","MAREA":" ","LANE":"８５巷","ALLEY":"７５弄","HOUSE_NO":"２３號","E_COORD97":169850.98000000001,"N_COORD97":2552325.2799999998,"ADDRESS":"安昌街８５巷７５弄２３號","OBJECTID":76547},"geometry":{"x":169850.98000000045,"y":2552325.2800000012}},{"attributes":{"ID":76548,"DIS_CODE":0,"TOWNNAME":"新市區","LI":"新和里","LIN":"8鄰","STREET":"仁愛街","SECT":" ","MAREA":" ","LANE":" ","ALLEY":" ","HOUSE_NO":"４４之１號","E_COORD97":177512.89000000001,"N_COORD97":2552310.5499999998,"ADDRESS":"仁愛街４４之１號","OBJECTID":76548},"geometry":{"x":177512.88999999966,"y":2552310.5499999989}},{"attributes":{"ID":76549,"DIS_CODE":0,"TOWNNAME":"安南區","LI":"州北里","LIN":"19鄰","STREET":"安昌街","SECT":" ","MAREA":" ","LANE":"８５巷","ALLEY":"７５弄","HOUSE_NO":"２５號","E_COORD97":169846.85000000001,"N_COORD97":2552325.6699999999,"ADDRESS":"安昌街８５巷７５弄２５號","OBJECTID":76549},"geometry":{"x":169846.85000000056,"y":2552325.6699999999}},{"attributes":{"ID":76550,"DIS_CODE":0,"TOWNNAME":"安南區","LI":"州北里","LIN":"19鄰","STREET":"安昌街","SECT":" ","MAREA":" ","LANE":"８５巷","ALLEY":"７５弄","HOUSE_NO":"２７號","E_COORD97":169842.51999999999,"N_COORD97":2552325.8700000001,"ADDRESS":"安昌街８５巷７５弄２７號","OBJECTID":76550},"geometry":{"x":169842.52000000048,"y":2552325.8700000048}},{"attributes":{"ID":76551,"DIS_CODE":0,"TOWNNAME":"新市區","LI":"新和里","LIN":" ","STREET":"中正路","SECT":" ","MAREA":" ","LANE":" ","ALLEY":" ","HOUSE_NO":"２０５之３號","E_COORD97":177425.51999999999,"N_COORD97":2553009.7999999998,"ADDRESS":"中正路２０５之３號","OBJECTID":76551},"geometry":{"x":177425.51999999955,"y":2553009.8000000007}},{"attributes":{"ID":76552,"DIS_CODE":0,"TOWNNAME":"新市區","LI":"新市里","LIN":" ","STREET":"和平路","SECT":" ","MAREA":" ","LANE":" ","ALLEY":" ","HOUSE_NO":"３１１號","E_COORD97":174440.26000000001,"N_COORD97":2551339,"ADDRESS":"和平路３１１號","OBJECTID":76552},"geometry":{"x":174440.26000000071,"y":2551339}},{"attributes":{"ID":76553,"DIS_CODE":0,"TOWNNAME":"新市區","LI":"新市里","LIN":" ","STREET":"和平街","SECT":" ","MAREA":" ","LANE":" ","ALLEY":" ","HOUSE_NO":"５４號","E_COORD97":177666.98000000001,"N_COORD97":2553447.75,"ADDRESS":"和平街５４號","OBJECTID":76553},"geometry":{"x":177666.98000000138,"y":2553447.7500000037}},{"attributes":{"ID":76554,"DIS_CODE":0,"TOWNNAME":"安南區","LI":"州北里","LIN":"19鄰","STREET":"安昌街","SECT":" ","MAREA":" ","LANE":"８５巷","ALLEY":"７５弄","HOUSE_NO":"２９號","E_COORD97":169837.98999999999,"N_COORD97":2552325.8700000001,"ADDRESS":"安昌街８５巷７５弄２９號","OBJECTID":76554},"geometry":{"x":169837.99000000115,"y":2552325.8700000048}},{"attributes":{"ID":76555,"DIS_CODE":0,"TOWNNAME":"安南區","LI":"州北里","LIN":"19鄰","STREET":"安昌街","SECT":" ","MAREA":" ","LANE":"８５巷","ALLEY":"７５弄","HOUSE_NO":"３１號","E_COORD97":169834.04999999999,"N_COORD97":2552326.2599999998,"ADDRESS":"安昌街８５巷７５弄３１號","OBJECTID":76555},"geometry":{"x":169834.05000000075,"y":2552326.2600000016}},{"attributes":{"ID":76556,"DIS_CODE":0,"TOWNNAME":"安南區","LI":"州北里","LIN":"19鄰","STREET":"安昌街","SECT":" ","MAREA":" ","LANE":"８５巷","ALLEY":"７５弄","HOUSE_NO":"３３號","E_COORD97":169830.12,"N_COORD97":2552326.6499999999,"ADDRESS":"安昌街８５巷７５弄３３號","OBJECTID":76556},"geometry":{"x":169830.12000000104,"y":2552326.6500000041}},{"attributes":{"ID":76557,"DIS_CODE":0,"TOWNNAME":"安南區","LI":"州北里","LIN":"19鄰","STREET":"安昌街","SECT":" ","MAREA":" ","LANE":"８５巷","ALLEY":"７５弄","HOUSE_NO":"３５號","E_COORD97":169825.39000000001,"N_COORD97":2552326.8500000001,"ADDRESS":"安昌街８５巷７５弄３５號","OBJECTID":76557},"geometry":{"x":169825.38999999966,"y":2552326.8499999996}},{"attributes":{"ID":76558,"DIS_CODE":0,"TOWNNAME":"安南區","LI":"州北里","LIN":"19鄰","STREET":"安昌街","SECT":" ","MAREA":" ","LANE":"８５巷","ALLEY":"７５弄","HOUSE_NO":"３７號","E_COORD97":169820.07999999999,"N_COORD97":2552328.23,"ADDRESS":"安昌街８５巷７５弄３７號","OBJECTID":76558},"geometry":{"x":169820.08000000101,"y":2552328.2300000004}},{"attributes":{"ID":76559,"DIS_CODE":0,"TOWNNAME":"安南區","LI":"州南里","LIN":"19鄰","STREET":"安和路","SECT":"四段","MAREA":" ","LANE":"２７４巷","ALLEY":"５３弄","HOUSE_NO":"４６號","E_COORD97":170041.13,"N_COORD97":2550858.0699999998,"ADDRESS":"安和路四段２７４巷５３弄４６號","OBJECTID":76559},"geometry":{"x":170041.12999999989,"y":2550858.0700000003}},{"attributes":{"ID":76560,"DIS_CODE":0,"TOWNNAME":"安南區","LI":"安慶里","LIN":"19鄰","STREET":"安中路","SECT":"一段","MAREA":" ","LANE":"１８９巷","ALLEY":"６３弄","HOUSE_NO":"６之１號","E_COORD97":168809.51000000001,"N_COORD97":2548303.0600000001,"ADDRESS":"安中路一段１８９巷６３弄６之１號","OBJECTID":76560},"geometry":{"x":168809.50999999978,"y":2548303.0600000042}},{"attributes":{"ID":76561,"DIS_CODE":0,"TOWNNAME":"安南區","LI":"安富里","LIN":"19鄰","STREET":"安富街","SECT":" ","MAREA":" ","LANE":"１９９巷","ALLEY":"２弄","HOUSE_NO":"９號","E_COORD97":167662.95999999999,"N_COORD97":2547418.3199999998,"ADDRESS":"安富街１９９巷２弄９號","OBJECTID":76561},"geometry":{"x":167662.96000000089,"y":2547418.3200000003}},{"attributes":{"ID":76562,"DIS_CODE":0,"TOWNNAME":"安平區","LI":"西門里","LIN":"7鄰","STREET":"安北路","SECT":" ","MAREA":" ","LANE":" ","ALLEY":" ","HOUSE_NO":"２３１號","E_COORD97":163736.32000000001,"N_COORD97":2544769.1299999999,"ADDRESS":"安北路２３１號","OBJECTID":76562},"geometry":{"x":163736.32000000123,"y":2544769.1300000008}},{"attributes":{"ID":76563,"DIS_CODE":0,"TOWNNAME":"新市區","LI":"新市里","LIN":" ","STREET":"和平路","SECT":" ","MAREA":" ","LANE":" ","ALLEY":" ","HOUSE_NO":"２８３號","E_COORD97":174474.95999999999,"N_COORD97":2551246,"ADDRESS":"和平路２８３號","OBJECTID":76563},"geometry":{"x":174474.95999999996,"y":2551246.0000000037}},{"attributes":{"ID":76564,"DIS_CODE":0,"TOWNNAME":"新市區","LI":"新市里","LIN":" ","STREET":"仁愛街","SECT":" ","MAREA":" ","LANE":" ","ALLEY":" ","HOUSE_NO":"３０６之８號","E_COORD97":177673.64999999999,"N_COORD97":2553017.0499999998,"ADDRESS":"仁愛街３０６之８號","OBJECTID":76564},"geometry":{"x":177673.65000000224,"y":2553017.0500000026}},{"attributes":{"ID":76565,"DIS_CODE":0,"TOWNNAME":"新市區","LI":"新市里","LIN":" ","STREET":"仁愛街","SECT":" ","MAREA":" ","LANE":" ","ALLEY":" ","HOUSE_NO":"３０６之１２號","E_COORD97":177682.89999999999,"N_COORD97":2553016.7999999998,"ADDRESS":"仁愛街３０６之１２號","OBJECTID":76565},"geometry":{"x":177682.90000000037,"y":2553016.8000000007}},{"attributes":{"ID":76566,"DIS_CODE":0,"TOWNNAME":"新市區","LI":"港墘里","LIN":" ","STREET":"中山路","SECT":" ","MAREA":" ","LANE":" ","ALLEY":" ","HOUSE_NO":"１６之５號","E_COORD97":178695.57000000001,"N_COORD97":2553680.2999999998,"ADDRESS":"中山路１６之５號","OBJECTID":76566},"geometry":{"x":178695.5700000003,"y":2553680.3000000026}},{"attributes":{"ID":76567,"DIS_CODE":0,"TOWNNAME":"新市區","LI":"新市里","LIN":" ","STREET":"和平路","SECT":" ","MAREA":" ","LANE":" ","ALLEY":" ","HOUSE_NO":"２９１號","E_COORD97":174480.92000000001,"N_COORD97":2551283.25,"ADDRESS":"和平路２９１號","OBJECTID":76567},"geometry":{"x":174480.92000000179,"y":2551283.25}},{"attributes":{"ID":76568,"DIS_CODE":0,"TOWNNAME":"新市區","LI":"新市里","LIN":" ","STREET":"和平路","SECT":" ","MAREA":" ","LANE":" ","ALLEY":" ","HOUSE_NO":"３０７號","E_COORD97":174383.95999999999,"N_COORD97":2551270.5,"ADDRESS":"和平路３０７號","OBJECTID":76568},"geometry":{"x":174383.96000000183,"y":2551270.5000000019}},{"attributes":{"ID":76569,"DIS_CODE":0,"TOWNNAME":"安定區","LI":"保西里","LIN":"6鄰","STREET":" ","SECT":" ","MAREA":"安定","LANE":" ","ALLEY":" ","HOUSE_NO":"３８６之１２號","E_COORD97":171522.57000000001,"N_COORD97":2557756.3199999998,"ADDRESS":"安定３８６之１２號","OBJECTID":76569},"geometry":{"x":171522.57000000123,"y":2557756.3200000003}},{"attributes":{"ID":76570,"DIS_CODE":0,"TOWNNAME":"安定區","LI":"安定里","LIN":"6鄰","STREET":" ","SECT":" ","MAREA":"安定","LANE":" ","ALLEY":" ","HOUSE_NO":"３８號之３","E_COORD97":172201.5,"N_COORD97":2557874.3199999998,"ADDRESS":"安定３８號之３","OBJECTID":76570},"geometry":{"x":172201.5,"y":2557874.3200000003}},{"attributes":{"ID":76571,"DIS_CODE":0,"TOWNNAME":"新化區","LI":"北勢里","LIN":"6鄰","STREET":" ","SECT":" ","MAREA":"北勢","LANE":" ","ALLEY":" ","HOUSE_NO":"１１６號","E_COORD97":177158.88,"N_COORD97":2549640.2599999998,"ADDRESS":"北勢１１６號","OBJECTID":76571},"geometry":{"x":177158.87999999989,"y":2549640.2600000035}},{"attributes":{"ID":76572,"DIS_CODE":0,"TOWNNAME":"北區","LI":"大和里","LIN":"7鄰","STREET":"大和路","SECT":" ","MAREA":" ","LANE":" ","ALLEY":" ","HOUSE_NO":"１１６號","E_COORD97":166992.59,"N_COORD97":2545756.21,"ADDRESS":"大和路１１６號","OBJECTID":76572},"geometry":{"x":166992.59000000078,"y":2545756.2100000046}},{"attributes":{"ID":76573,"DIS_CODE":0,"TOWNNAME":"北區","LI":"大和里","LIN":"7鄰","STREET":"大和路","SECT":" ","MAREA":" ","LANE":" ","ALLEY":" ","HOUSE_NO":"１１８號","E_COORD97":166992.59,"N_COORD97":2545761.1699999999,"ADDRESS":"大和路１１８號","OBJECTID":76573},"geometry":{"x":166992.59000000078,"y":2545761.1699999999}},{"attributes":{"ID":76574,"DIS_CODE":0,"TOWNNAME":"北區","LI":"大和里","LIN":"7鄰","STREET":"大和路","SECT":" ","MAREA":" ","LANE":" ","ALLEY":" ","HOUSE_NO":"１２０號","E_COORD97":166991.60000000001,"N_COORD97":2545766.79,"ADDRESS":"大和路１２０號","OBJECTID":76574},"geometry":{"x":166991.5999999987,"y":2545766.7899999991}},{"attributes":{"ID":76575,"DIS_CODE":0,"TOWNNAME":"新化區","LI":"崙頂里","LIN":"6鄰","STREET":" ","SECT":" ","MAREA":"崙子頂","LANE":" ","ALLEY":" ","HOUSE_NO":"２６０號","E_COORD97":176614.92999999999,"N_COORD97":2547054.25,"ADDRESS":"崙子頂２６０號","OBJECTID":76575},"geometry":{"x":176614.93000000156,"y":2547054.2500000019}},{"attributes":{"ID":76576,"DIS_CODE":0,"TOWNNAME":"麻豆區","LI":"港尾里","LIN":"7鄰","STREET":" ","SECT":" ","MAREA":"港子尾","LANE":" ","ALLEY":" ","HOUSE_NO":"３３號","E_COORD97":168533.66,"N_COORD97":2567264.23,"ADDRESS":"港子尾３３號","OBJECTID":76576},"geometry":{"x":168533.66000000015,"y":2567264.2300000042}},{"attributes":{"ID":76577,"DIS_CODE":0,"TOWNNAME":"新化區","LI":"北勢里","LIN":"6鄰","STREET":" ","SECT":" ","MAREA":"北勢","LANE":" ","ALLEY":" ","HOUSE_NO":"１００號之４","E_COORD97":177184.12,"N_COORD97":2549793.2599999998,"ADDRESS":"北勢１００號之４","OBJECTID":76577},"geometry":{"x":177184.12000000104,"y":2549793.2600000016}},{"attributes":{"ID":76578,"DIS_CODE":0,"TOWNNAME":"新化區","LI":"北勢里","LIN":"6鄰","STREET":" ","SECT":" ","MAREA":"北勢","LANE":" ","ALLEY":" ","HOUSE_NO":"１１３號之１","E_COORD97":177120.70999999999,"N_COORD97":2549750.2599999998,"ADDRESS":"北勢１１３號之１","OBJECTID":76578},"geometry":{"x":177120.71000000089,"y":2549750.2600000016}},{"attributes":{"ID":76579,"DIS_CODE":0,"TOWNNAME":"新化區","LI":"唪口里","LIN":"6鄰","STREET":" ","SECT":" ","MAREA":"唪口","LANE":" ","ALLEY":" ","HOUSE_NO":"６８號之８","E_COORD97":178102.75,"N_COORD97":2548976.2599999998,"ADDRESS":"唪口６８號之８","OBJECTID":76579},"geometry":{"x":178102.75,"y":2548976.2600000016}},{"attributes":{"ID":76580,"DIS_CODE":0,"TOWNNAME":"新化區","LI":"唪口里","LIN":"6鄰","STREET":" ","SECT":" ","MAREA":"唪口","LANE":" ","ALLEY":" ","HOUSE_NO":"８６號之６","E_COORD97":178050.54999999999,"N_COORD97":2549097.2599999998,"ADDRESS":"唪口８６號之６","OBJECTID":76580},"geometry":{"x":178050.55000000075,"y":2549097.2599999998}},{"attributes":{"ID":76581,"DIS_CODE":0,"TOWNNAME":"新化區","LI":"山\u25A0里","LIN":"6鄰","STREET":" ","SECT":" ","MAREA":"頂山\u25A0","LANE":" ","ALLEY":" ","HOUSE_NO":"１４號之５","E_COORD97":179628.94,"N_COORD97":2546804.2599999998,"ADDRESS":"頂山\u25A0１４號之５","OBJECTID":76581},"geometry":{"x":179628.94000000041,"y":2546804.2599999998}},{"attributes":{"ID":76582,"DIS_CODE":0,"TOWNNAME":"佳里區","LI":"溪州里","LIN":"6鄰","STREET":" ","SECT":" ","MAREA":"溪州","LANE":" ","ALLEY":" ","HOUSE_NO":"５３號","E_COORD97":166506.62,"N_COORD97":2567344.6200000001,"ADDRESS":"溪州５３號","OBJECTID":76582},"geometry":{"x":166506.62000000011,"y":2567344.6200000029}},{"attributes":{"ID":76583,"DIS_CODE":0,"TOWNNAME":"佳里區","LI":"溪州里","LIN":"6鄰","STREET":" ","SECT":" ","MAREA":"溪州","LANE":" ","ALLEY":" ","HOUSE_NO":"５５號","E_COORD97":166547.51000000001,"N_COORD97":2567374.7000000002,"ADDRESS":"溪州５５號","OBJECTID":76583},"geometry":{"x":166547.50999999978,"y":2567374.6999999993}},{"attributes":{"ID":76584,"DIS_CODE":0,"TOWNNAME":"佳里區","LI":"三協里","LIN":"6鄰","STREET":" ","SECT":" ","MAREA":"潭墘","LANE":" ","ALLEY":" ","HOUSE_NO":"１５號","E_COORD97":168188.98000000001,"N_COORD97":2564051.9100000001,"ADDRESS":"潭墘１５號","OBJECTID":76584},"geometry":{"x":168188.98000000138,"y":2564051.9100000039}},{"attributes":{"ID":76585,"DIS_CODE":0,"TOWNNAME":"佳里區","LI":"三協里","LIN":"6鄰","STREET":" ","SECT":" ","MAREA":"潭墘","LANE":" ","ALLEY":" ","HOUSE_NO":"１６號","E_COORD97":168163.42999999999,"N_COORD97":2564105.52,"ADDRESS":"潭墘１６號","OBJECTID":76585},"geometry":{"x":168163.43000000063,"y":2564105.5200000014}},{"attributes":{"ID":76586,"DIS_CODE":0,"TOWNNAME":"佳里區","LI":"三協里","LIN":"6鄰","STREET":" ","SECT":" ","MAREA":"潭墘","LANE":" ","ALLEY":" ","HOUSE_NO":"１７號","E_COORD97":168142.73000000001,"N_COORD97":2564113.71,"ADDRESS":"潭墘１７號","OBJECTID":76586},"geometry":{"x":168142.73000000231,"y":2564113.7100000009}},{"attributes":{"ID":76587,"DIS_CODE":0,"TOWNNAME":"佳里區","LI":"三協里","LIN":"6鄰","STREET":" ","SECT":" ","MAREA":"潭墘","LANE":" ","ALLEY":" ","HOUSE_NO":"１８號","E_COORD97":168202.87,"N_COORD97":2564085.8799999999,"ADDRESS":"潭墘１８號","OBJECTID":76587},"geometry":{"x":168202.87000000104,"y":2564085.8800000008}},{"attributes":{"ID":76588,"DIS_CODE":0,"TOWNNAME":"佳里區","LI":"三協里","LIN":"6鄰","STREET":" ","SECT":" ","MAREA":"潭墘","LANE":" ","ALLEY":" ","HOUSE_NO":"１９號","E_COORD97":168205.26999999999,"N_COORD97":2564067.8300000001,"ADDRESS":"潭墘１９號","OBJECTID":76588},"geometry":{"x":168205.26999999955,"y":2564067.8300000001}},{"attributes":{"ID":76589,"DIS_CODE":0,"TOWNNAME":"佳里區","LI":"三協里","LIN":"6鄰","STREET":" ","SECT":" ","MAREA":"潭墘","LANE":" ","ALLEY":" ","HOUSE_NO":"２０號之１","E_COORD97":168224.06,"N_COORD97":2564043.7400000002,"ADDRESS":"潭墘２０號之１","OBJECTID":76589},"geometry":{"x":168224.05999999959,"y":2564043.7400000021}},{"attributes":{"ID":76590,"DIS_CODE":0,"TOWNNAME":"佳里區","LI":"三協里","LIN":"6鄰","STREET":" ","SECT":" ","MAREA":"潭墘","LANE":" ","ALLEY":" ","HOUSE_NO":"２０號","E_COORD97":168212.12,"N_COORD97":2564056.4199999999,"ADDRESS":"潭墘２０號","OBJECTID":76590},"geometry":{"x":168212.12000000011,"y":2564056.4200000018}},{"attributes":{"ID":76591,"DIS_CODE":0,"TOWNNAME":"佳里區","LI":"三協里","LIN":"6鄰","STREET":" ","SECT":" ","MAREA":"潭墘","LANE":" ","ALLEY":" ","HOUSE_NO":"２１號","E_COORD97":168224.73999999999,"N_COORD97":2564060.7000000002,"ADDRESS":"潭墘２１號","OBJECTID":76591},"geometry":{"x":168224.74000000022,"y":2564060.7000000011}},{"attributes":{"ID":76592,"DIS_CODE":0,"TOWNNAME":"佳里區","LI":"三協里","LIN":"6鄰","STREET":" ","SECT":" ","MAREA":"潭墘","LANE":" ","ALLEY":" ","HOUSE_NO":"２２號","E_COORD97":168224.94,"N_COORD97":2564087.6200000001,"ADDRESS":"潭墘２２號","OBJECTID":76592},"geometry":{"x":168224.94000000134,"y":2564087.620000001}},{"attributes":{"ID":76593,"DIS_CODE":0,"TOWNNAME":"佳里區","LI":"營頂里","LIN":"6鄰","STREET":" ","SECT":" ","MAREA":"營頂","LANE":" ","ALLEY":" ","HOUSE_NO":"５９號","E_COORD97":167007.73000000001,"N_COORD97":2566639.4399999999,"ADDRESS":"營頂５９號","OBJECTID":76593},"geometry":{"x":167007.73000000138,"y":2566639.4400000013}},{"attributes":{"ID":76594,"DIS_CODE":0,"TOWNNAME":"佳里區","LI":"營頂里","LIN":"6鄰","STREET":" ","SECT":" ","MAREA":"營頂","LANE":" ","ALLEY":" ","HOUSE_NO":"６１號","E_COORD97":167040.60000000001,"N_COORD97":2566626.3500000001,"ADDRESS":"營頂６１號","OBJECTID":76594},"geometry":{"x":167040.59999999963,"y":2566626.3500000015}},{"attributes":{"ID":76595,"DIS_CODE":0,"TOWNNAME":"佳里區","LI":"營頂里","LIN":"6鄰","STREET":" ","SECT":" ","MAREA":"營頂","LANE":" ","ALLEY":" ","HOUSE_NO":"６２號","E_COORD97":167032.89999999999,"N_COORD97":2566605.6400000001,"ADDRESS":"營頂６２號","OBJECTID":76595},"geometry":{"x":167032.90000000224,"y":2566605.6400000006}},{"attributes":{"ID":76596,"DIS_CODE":0,"TOWNNAME":"佳里區","LI":"營頂里","LIN":"6鄰","STREET":" ","SECT":" ","MAREA":"營頂","LANE":" ","ALLEY":" ","HOUSE_NO":"６５號","E_COORD97":167031.66,"N_COORD97":2566588.4900000002,"ADDRESS":"營頂６５號","OBJECTID":76596},"geometry":{"x":167031.66000000108,"y":2566588.4900000021}},{"attributes":{"ID":76597,"DIS_CODE":0,"TOWNNAME":"佳里區","LI":"營頂里","LIN":"6鄰","STREET":" ","SECT":" ","MAREA":"營頂","LANE":" ","ALLEY":" ","HOUSE_NO":"６６號","E_COORD97":167005.98000000001,"N_COORD97":2566591.2999999998,"ADDRESS":"營頂６６號","OBJECTID":76597},"geometry":{"x":167005.98000000138,"y":2566591.3000000007}},{"attributes":{"ID":76598,"DIS_CODE":0,"TOWNNAME":"佳里區","LI":"營頂里","LIN":"6鄰","STREET":" ","SECT":" ","MAREA":"營頂","LANE":" ","ALLEY":" ","HOUSE_NO":"６７號之１","E_COORD97":166959,"N_COORD97":2566577.21,"ADDRESS":"營頂６７號之１","OBJECTID":76598},"geometry":{"x":166959.00000000093,"y":2566577.2100000028}},{"attributes":{"ID":76599,"DIS_CODE":0,"TOWNNAME":"佳里區","LI":"營頂里","LIN":"6鄰","STREET":" ","SECT":" ","MAREA":"營頂","LANE":" ","ALLEY":" ","HOUSE_NO":"６７號","E_COORD97":166979.60000000001,"N_COORD97":2566576.1200000001,"ADDRESS":"營頂６７號","OBJECTID":76599},"geometry":{"x":166979.59999999963,"y":2566576.120000001}},{"attributes":{"ID":76600,"DIS_CODE":0,"TOWNNAME":"佳里區","LI":"營頂里","LIN":"6鄰","STREET":" ","SECT":" ","MAREA":"營頂","LANE":" ","ALLEY":" ","HOUSE_NO":"６８號","E_COORD97":166976.53,"N_COORD97":2566603.6499999999,"ADDRESS":"營頂６８號","OBJECTID":76600},"geometry":{"x":166976.53000000119,"y":2566603.6500000041}}]}