{"displayFieldName":"TOWNNAME","fieldAliases":{"ID":"ID","DIS_CODE":"DIS_CODE","TOWNNAME":"TOWNNAME","LI":"LI","LIN":"LIN","STREET":"STREET","SECT":"SECT","MAREA":"MAREA","LANE":"LANE","ALLEY":"ALLEY","HOUSE_NO":"HOUSE_NO","E_COORD97":"E_COORD97","N_COORD97":"N_COORD97","ADDRESS":"ADDRESS","OBJECTID":"OBJECTID"},"geometryType":"esriGeometryPoint","spatialReference":{"wkid":102443,"latestWkid":3826},"fields":[{"name":"ID","type":"esriFieldTypeDouble","alias":"ID"},{"name":"DIS_CODE","type":"esriFieldTypeInteger","alias":"DIS_CODE"},{"name":"TOWNNAME","type":"esriFieldTypeString","alias":"TOWNNAME","length":8},{"name":"LI","type":"esriFieldTypeString","alias":"LI","length":8},{"name":"LIN","type":"esriFieldTypeString","alias":"LIN","length":12},{"name":"STREET","type":"esriFieldTypeString","alias":"STREET","length":20},{"name":"SECT","type":"esriFieldTypeString","alias":"SECT","length":8},{"name":"MAREA","type":"esriFieldTypeString","alias":"MAREA","length":12},{"name":"LANE","type":"esriFieldTypeString","alias":"LANE","length":10},{"name":"ALLEY","type":"esriFieldTypeString","alias":"ALLEY","length":10},{"name":"HOUSE_NO","type":"esriFieldTypeString","alias":"HOUSE_NO","length":20},{"name":"E_COORD97","type":"esriFieldTypeDouble","alias":"E_COORD97"},{"name":"N_COORD97","type":"esriFieldTypeDouble","alias":"N_COORD97"},{"name":"ADDRESS","type":"esriFieldTypeString","alias":"ADDRESS","length":50},{"name":"OBJECTID","type":"esriFieldTypeOID","alias":"OBJECTID"}],"features":[{"attributes":{"ID":461026,"DIS_CODE":0,"TOWNNAME":"北區","LI":"成德里","LIN":"20鄰","STREET":"文成二路","SECT":" ","MAREA":" ","LANE":" ","ALLEY":" ","HOUSE_NO":"１５５號四樓之１","E_COORD97":168511.37,"N_COORD97":2546160.7000000002,"ADDRESS":"文成二路１５５號四樓之１","OBJECTID":461001},"geometry":{"x":168511.37000000104,"y":2546160.6999999993}},{"attributes":{"ID":461027,"DIS_CODE":0,"TOWNNAME":"北區","LI":"成德里","LIN":"20鄰","STREET":"文成二路","SECT":" ","MAREA":" ","LANE":" ","ALLEY":" ","HOUSE_NO":"１５５號四樓之２","E_COORD97":168511.37,"N_COORD97":2546160.7000000002,"ADDRESS":"文成二路１５５號四樓之２","OBJECTID":461002},"geometry":{"x":168511.37000000104,"y":2546160.6999999993}},{"attributes":{"ID":461028,"DIS_CODE":0,"TOWNNAME":"北區","LI":"成德里","LIN":"20鄰","STREET":"文成二路","SECT":" ","MAREA":" ","LANE":" ","ALLEY":" ","HOUSE_NO":"１５５號五樓之１","E_COORD97":168511.37,"N_COORD97":2546160.7000000002,"ADDRESS":"文成二路１５５號五樓之１","OBJECTID":461003},"geometry":{"x":168511.37000000104,"y":2546160.6999999993}},{"attributes":{"ID":461029,"DIS_CODE":0,"TOWNNAME":"北區","LI":"成德里","LIN":"20鄰","STREET":"文成二路","SECT":" ","MAREA":" ","LANE":" ","ALLEY":" ","HOUSE_NO":"１５５號五樓之２","E_COORD97":168511.37,"N_COORD97":2546160.7000000002,"ADDRESS":"文成二路１５５號五樓之２","OBJECTID":461004},"geometry":{"x":168511.37000000104,"y":2546160.6999999993}},{"attributes":{"ID":461030,"DIS_CODE":0,"TOWNNAME":"北區","LI":"成德里","LIN":"20鄰","STREET":"文成二路","SECT":" ","MAREA":" ","LANE":" ","ALLEY":" ","HOUSE_NO":"１５５號六樓之１","E_COORD97":168511.37,"N_COORD97":2546160.7000000002,"ADDRESS":"文成二路１５５號六樓之１","OBJECTID":461005},"geometry":{"x":168511.37000000104,"y":2546160.6999999993}},{"attributes":{"ID":461031,"DIS_CODE":0,"TOWNNAME":"北區","LI":"成德里","LIN":"20鄰","STREET":"文成二路","SECT":" ","MAREA":" ","LANE":" ","ALLEY":" ","HOUSE_NO":"１５５號六樓之２","E_COORD97":168511.37,"N_COORD97":2546160.7000000002,"ADDRESS":"文成二路１５５號六樓之２","OBJECTID":461006},"geometry":{"x":168511.37000000104,"y":2546160.6999999993}},{"attributes":{"ID":461032,"DIS_CODE":0,"TOWNNAME":"北區","LI":"成德里","LIN":"20鄰","STREET":"文成二路","SECT":" ","MAREA":" ","LANE":" ","ALLEY":" ","HOUSE_NO":"１５５號七樓之１","E_COORD97":168511.37,"N_COORD97":2546160.7000000002,"ADDRESS":"文成二路１５５號七樓之１","OBJECTID":461007},"geometry":{"x":168511.37000000104,"y":2546160.6999999993}},{"attributes":{"ID":461033,"DIS_CODE":0,"TOWNNAME":"北區","LI":"成德里","LIN":"20鄰","STREET":"文成二路","SECT":" ","MAREA":" ","LANE":" ","ALLEY":" ","HOUSE_NO":"１５５號七樓之２","E_COORD97":168511.37,"N_COORD97":2546160.7000000002,"ADDRESS":"文成二路１５５號七樓之２","OBJECTID":461008},"geometry":{"x":168511.37000000104,"y":2546160.6999999993}},{"attributes":{"ID":461034,"DIS_CODE":0,"TOWNNAME":"北區","LI":"成德里","LIN":"20鄰","STREET":"文成二路","SECT":" ","MAREA":" ","LANE":" ","ALLEY":" ","HOUSE_NO":"１５５號八樓之１","E_COORD97":168511.37,"N_COORD97":2546160.7000000002,"ADDRESS":"文成二路１５５號八樓之１","OBJECTID":461009},"geometry":{"x":168511.37000000104,"y":2546160.6999999993}},{"attributes":{"ID":461035,"DIS_CODE":0,"TOWNNAME":"北區","LI":"成德里","LIN":"20鄰","STREET":"文成二路","SECT":" ","MAREA":" ","LANE":" ","ALLEY":" ","HOUSE_NO":"１５５號八樓之２","E_COORD97":168511.37,"N_COORD97":2546160.7000000002,"ADDRESS":"文成二路１５５號八樓之２","OBJECTID":461010},"geometry":{"x":168511.37000000104,"y":2546160.6999999993}},{"attributes":{"ID":461036,"DIS_CODE":0,"TOWNNAME":"北區","LI":"成德里","LIN":"20鄰","STREET":"文成二路","SECT":" ","MAREA":" ","LANE":" ","ALLEY":" ","HOUSE_NO":"１５５號九樓之１","E_COORD97":168511.37,"N_COORD97":2546160.7000000002,"ADDRESS":"文成二路１５５號九樓之１","OBJECTID":461011},"geometry":{"x":168511.37000000104,"y":2546160.6999999993}},{"attributes":{"ID":461037,"DIS_CODE":0,"TOWNNAME":"北區","LI":"成德里","LIN":"20鄰","STREET":"文成二路","SECT":" ","MAREA":" ","LANE":" ","ALLEY":" ","HOUSE_NO":"１５５號九樓之２","E_COORD97":168511.37,"N_COORD97":2546160.7000000002,"ADDRESS":"文成二路１５５號九樓之２","OBJECTID":461012},"geometry":{"x":168511.37000000104,"y":2546160.6999999993}},{"attributes":{"ID":461038,"DIS_CODE":0,"TOWNNAME":"北區","LI":"成德里","LIN":"20鄰","STREET":"文成二路","SECT":" ","MAREA":" ","LANE":" ","ALLEY":" ","HOUSE_NO":"１５５號十樓之１","E_COORD97":168511.37,"N_COORD97":2546160.7000000002,"ADDRESS":"文成二路１５５號十樓之１","OBJECTID":461013},"geometry":{"x":168511.37000000104,"y":2546160.6999999993}},{"attributes":{"ID":461039,"DIS_CODE":0,"TOWNNAME":"北區","LI":"成德里","LIN":"20鄰","STREET":"文成二路","SECT":" ","MAREA":" ","LANE":" ","ALLEY":" ","HOUSE_NO":"１５５號十樓之２","E_COORD97":168511.37,"N_COORD97":2546160.7000000002,"ADDRESS":"文成二路１５５號十樓之２","OBJECTID":461014},"geometry":{"x":168511.37000000104,"y":2546160.6999999993}},{"attributes":{"ID":461040,"DIS_CODE":0,"TOWNNAME":"北區","LI":"成德里","LIN":"20鄰","STREET":"文成二路","SECT":" ","MAREA":" ","LANE":" ","ALLEY":" ","HOUSE_NO":"１５５號十一樓之１","E_COORD97":168511.37,"N_COORD97":2546160.7000000002,"ADDRESS":"文成二路１５５號十一樓之１","OBJECTID":461015},"geometry":{"x":168511.37000000104,"y":2546160.6999999993}},{"attributes":{"ID":461041,"DIS_CODE":0,"TOWNNAME":"北區","LI":"成德里","LIN":"20鄰","STREET":"文成二路","SECT":" ","MAREA":" ","LANE":" ","ALLEY":" ","HOUSE_NO":"１５５號十一樓之２","E_COORD97":168511.37,"N_COORD97":2546160.7000000002,"ADDRESS":"文成二路１５５號十一樓之２","OBJECTID":461016},"geometry":{"x":168511.37000000104,"y":2546160.6999999993}},{"attributes":{"ID":461042,"DIS_CODE":0,"TOWNNAME":"北區","LI":"成德里","LIN":"20鄰","STREET":"文成二路","SECT":" ","MAREA":" ","LANE":" ","ALLEY":" ","HOUSE_NO":"１５５號十二樓之１","E_COORD97":168511.37,"N_COORD97":2546160.7000000002,"ADDRESS":"文成二路１５５號十二樓之１","OBJECTID":461017},"geometry":{"x":168511.37000000104,"y":2546160.6999999993}},{"attributes":{"ID":461043,"DIS_CODE":0,"TOWNNAME":"北區","LI":"成德里","LIN":"20鄰","STREET":"文成二路","SECT":" ","MAREA":" ","LANE":" ","ALLEY":" ","HOUSE_NO":"１５５號十二樓之２","E_COORD97":168511.37,"N_COORD97":2546160.7000000002,"ADDRESS":"文成二路１５５號十二樓之２","OBJECTID":461018},"geometry":{"x":168511.37000000104,"y":2546160.6999999993}},{"attributes":{"ID":461044,"DIS_CODE":0,"TOWNNAME":"北區","LI":"成德里","LIN":"20鄰","STREET":"文成二路","SECT":" ","MAREA":" ","LANE":" ","ALLEY":" ","HOUSE_NO":"１５５號十三樓之１","E_COORD97":168511.37,"N_COORD97":2546160.7000000002,"ADDRESS":"文成二路１５５號十三樓之１","OBJECTID":461019},"geometry":{"x":168511.37000000104,"y":2546160.6999999993}},{"attributes":{"ID":461045,"DIS_CODE":0,"TOWNNAME":"北區","LI":"成德里","LIN":"20鄰","STREET":"文成二路","SECT":" ","MAREA":" ","LANE":" ","ALLEY":" ","HOUSE_NO":"１５５號十三樓之２","E_COORD97":168511.37,"N_COORD97":2546160.7000000002,"ADDRESS":"文成二路１５５號十三樓之２","OBJECTID":461020},"geometry":{"x":168511.37000000104,"y":2546160.6999999993}},{"attributes":{"ID":461046,"DIS_CODE":0,"TOWNNAME":"北區","LI":"成德里","LIN":"20鄰","STREET":"文成二路","SECT":" ","MAREA":" ","LANE":" ","ALLEY":" ","HOUSE_NO":"１５５號十四樓之１","E_COORD97":168511.37,"N_COORD97":2546160.7000000002,"ADDRESS":"文成二路１５５號十四樓之１","OBJECTID":461021},"geometry":{"x":168511.37000000104,"y":2546160.6999999993}},{"attributes":{"ID":461047,"DIS_CODE":0,"TOWNNAME":"北區","LI":"成德里","LIN":"20鄰","STREET":"文成二路","SECT":" ","MAREA":" ","LANE":" ","ALLEY":" ","HOUSE_NO":"１５５號十四樓之２","E_COORD97":168511.37,"N_COORD97":2546160.7000000002,"ADDRESS":"文成二路１５５號十四樓之２","OBJECTID":461022},"geometry":{"x":168511.37000000104,"y":2546160.6999999993}},{"attributes":{"ID":461048,"DIS_CODE":0,"TOWNNAME":"佳里區","LI":"鎮山里","LIN":"20鄰","STREET":"鎮山街","SECT":" ","MAREA":" ","LANE":" ","ALLEY":" ","HOUSE_NO":"２１０號","E_COORD97":166253.85999999999,"N_COORD97":2560889.3700000001,"ADDRESS":"鎮山街２１０號","OBJECTID":461023},"geometry":{"x":166253.86000000127,"y":2560889.370000001}},{"attributes":{"ID":461049,"DIS_CODE":0,"TOWNNAME":"新營區","LI":"王公里","LIN":"20鄰","STREET":"樂利街","SECT":" ","MAREA":" ","LANE":" ","ALLEY":" ","HOUSE_NO":"１３５號七樓之１","E_COORD97":180507.20999999999,"N_COORD97":2579285.8199999998,"ADDRESS":"樂利街１３５號七樓之１","OBJECTID":461024},"geometry":{"x":180507.21000000089,"y":2579285.820000004}},{"attributes":{"ID":461050,"DIS_CODE":0,"TOWNNAME":"新營區","LI":"興業里","LIN":"20鄰","STREET":"中山路","SECT":" ","MAREA":" ","LANE":" ","ALLEY":" ","HOUSE_NO":"１１５號十五樓之４","E_COORD97":180280.47,"N_COORD97":2578215.9900000002,"ADDRESS":"中山路１１５號十五樓之４","OBJECTID":461025},"geometry":{"x":180280.46999999974,"y":2578215.9900000002}},{"attributes":{"ID":461051,"DIS_CODE":0,"TOWNNAME":"新營區","LI":"興業里","LIN":"20鄰","STREET":"中山路","SECT":" ","MAREA":" ","LANE":" ","ALLEY":" ","HOUSE_NO":"１１５號七樓之５","E_COORD97":180279.35000000001,"N_COORD97":2578215.9900000002,"ADDRESS":"中山路１１５號七樓之５","OBJECTID":461026},"geometry":{"x":180279.35000000056,"y":2578215.9900000002}},{"attributes":{"ID":461052,"DIS_CODE":0,"TOWNNAME":"新營區","LI":"興業里","LIN":"20鄰","STREET":"中山路","SECT":" ","MAREA":" ","LANE":" ","ALLEY":" ","HOUSE_NO":"１１５號十三樓之３","E_COORD97":180280.54000000001,"N_COORD97":2578215.9900000002,"ADDRESS":"中山路１１５號十三樓之３","OBJECTID":461027},"geometry":{"x":180280.54000000004,"y":2578215.9900000002}},{"attributes":{"ID":461053,"DIS_CODE":0,"TOWNNAME":"新營區","LI":"王公里","LIN":"20鄰","STREET":"樂仁街","SECT":" ","MAREA":" ","LANE":" ","ALLEY":" ","HOUSE_NO":"９２號三樓之４","E_COORD97":180541.72,"N_COORD97":2579279.0099999998,"ADDRESS":"樂仁街９２號三樓之４","OBJECTID":461028},"geometry":{"x":180541.71999999974,"y":2579279.0099999998}},{"attributes":{"ID":461054,"DIS_CODE":0,"TOWNNAME":"新營區","LI":"王公里","LIN":"20鄰","STREET":"樂仁街","SECT":" ","MAREA":" ","LANE":" ","ALLEY":" ","HOUSE_NO":"９２號三樓之５","E_COORD97":180541.85000000001,"N_COORD97":2579279.0099999998,"ADDRESS":"樂仁街９２號三樓之５","OBJECTID":461029},"geometry":{"x":180541.85000000056,"y":2579279.0099999998}},{"attributes":{"ID":461055,"DIS_CODE":0,"TOWNNAME":"新營區","LI":"興業里","LIN":"20鄰","STREET":"中山路","SECT":" ","MAREA":" ","LANE":" ","ALLEY":" ","HOUSE_NO":"１１５號十六樓之３","E_COORD97":180280.54000000001,"N_COORD97":2578215.9900000002,"ADDRESS":"中山路１１５號十六樓之３","OBJECTID":461030},"geometry":{"x":180280.54000000004,"y":2578215.9900000002}},{"attributes":{"ID":461056,"DIS_CODE":0,"TOWNNAME":"新營區","LI":"王公里","LIN":"20鄰","STREET":"樂仁街","SECT":" ","MAREA":" ","LANE":" ","ALLEY":" ","HOUSE_NO":"９２號二樓之５","E_COORD97":180541.85000000001,"N_COORD97":2579279.0099999998,"ADDRESS":"樂仁街９２號二樓之５","OBJECTID":461031},"geometry":{"x":180541.85000000056,"y":2579279.0099999998}},{"attributes":{"ID":461057,"DIS_CODE":0,"TOWNNAME":"新營區","LI":"王公里","LIN":"20鄰","STREET":"樂利街","SECT":" ","MAREA":" ","LANE":" ","ALLEY":" ","HOUSE_NO":"１３５號七樓之２","E_COORD97":180507.34,"N_COORD97":2579285.8199999998,"ADDRESS":"樂利街１３５號七樓之２","OBJECTID":461032},"geometry":{"x":180507.33999999985,"y":2579285.820000004}},{"attributes":{"ID":461058,"DIS_CODE":0,"TOWNNAME":"新營區","LI":"興業里","LIN":"20鄰","STREET":"中山路","SECT":" ","MAREA":" ","LANE":" ","ALLEY":" ","HOUSE_NO":"１１５號十二樓之３","E_COORD97":180280.54000000001,"N_COORD97":2578215.9900000002,"ADDRESS":"中山路１１５號十二樓之３","OBJECTID":461033},"geometry":{"x":180280.54000000004,"y":2578215.9900000002}},{"attributes":{"ID":461059,"DIS_CODE":0,"TOWNNAME":"佳里區","LI":"鎮山里","LIN":"20鄰","STREET":"鎮山街","SECT":" ","MAREA":" ","LANE":" ","ALLEY":" ","HOUSE_NO":"２１６號","E_COORD97":166249.04999999999,"N_COORD97":2560876.7999999998,"ADDRESS":"鎮山街２１６號","OBJECTID":461034},"geometry":{"x":166249.04999999981,"y":2560876.8000000045}},{"attributes":{"ID":461060,"DIS_CODE":0,"TOWNNAME":"永康區","LI":"正強里","LIN":"4鄰","STREET":"正義街","SECT":" ","MAREA":" ","LANE":" ","ALLEY":" ","HOUSE_NO":"１７號","E_COORD97":173641.45000000001,"N_COORD97":2547695.3399999999,"ADDRESS":"正義街１７號","OBJECTID":461035},"geometry":{"x":173641.45000000019,"y":2547695.3399999999}},{"attributes":{"ID":461061,"DIS_CODE":0,"TOWNNAME":"安平區","LI":"建平里","LIN":"20鄰","STREET":"文平路","SECT":" ","MAREA":" ","LANE":" ","ALLEY":" ","HOUSE_NO":"４６６號三樓","E_COORD97":165832.23999999999,"N_COORD97":2543872.3900000001,"ADDRESS":"文平路４６６號三樓","OBJECTID":461036},"geometry":{"x":165832.24000000115,"y":2543872.3900000006}},{"attributes":{"ID":461062,"DIS_CODE":0,"TOWNNAME":"安平區","LI":"建平里","LIN":"20鄰","STREET":"文平路","SECT":" ","MAREA":" ","LANE":" ","ALLEY":" ","HOUSE_NO":"４６６號七樓","E_COORD97":165832.23999999999,"N_COORD97":2543872.3900000001,"ADDRESS":"文平路４６６號七樓","OBJECTID":461037},"geometry":{"x":165832.24000000115,"y":2543872.3900000006}},{"attributes":{"ID":461063,"DIS_CODE":0,"TOWNNAME":"安平區","LI":"建平里","LIN":"20鄰","STREET":"文平路","SECT":" ","MAREA":" ","LANE":" ","ALLEY":" ","HOUSE_NO":"４６６號二樓","E_COORD97":165832.23999999999,"N_COORD97":2543872.3900000001,"ADDRESS":"文平路４６６號二樓","OBJECTID":461038},"geometry":{"x":165832.24000000115,"y":2543872.3900000006}},{"attributes":{"ID":461064,"DIS_CODE":0,"TOWNNAME":"安平區","LI":"建平里","LIN":"20鄰","STREET":"文平路","SECT":" ","MAREA":" ","LANE":" ","ALLEY":" ","HOUSE_NO":"４６６號八樓","E_COORD97":165832.23999999999,"N_COORD97":2543872.3900000001,"ADDRESS":"文平路４６６號八樓","OBJECTID":461039},"geometry":{"x":165832.24000000115,"y":2543872.3900000006}},{"attributes":{"ID":461065,"DIS_CODE":0,"TOWNNAME":"安平區","LI":"建平里","LIN":"20鄰","STREET":"文平路","SECT":" ","MAREA":" ","LANE":" ","ALLEY":" ","HOUSE_NO":"４６６號之１七樓","E_COORD97":165845.20000000001,"N_COORD97":2543871.5499999998,"ADDRESS":"文平路４６６號之１七樓","OBJECTID":461040},"geometry":{"x":165845.20000000019,"y":2543871.5500000007}},{"attributes":{"ID":461066,"DIS_CODE":0,"TOWNNAME":"佳里區","LI":"鎮山里","LIN":"20鄰","STREET":"鎮山街","SECT":" ","MAREA":" ","LANE":" ","ALLEY":" ","HOUSE_NO":"２４６號","E_COORD97":166217.72,"N_COORD97":2560852.46,"ADDRESS":"鎮山街２４６號","OBJECTID":461041},"geometry":{"x":166217.71999999974,"y":2560852.4600000028}},{"attributes":{"ID":461067,"DIS_CODE":0,"TOWNNAME":"安平區","LI":"建平里","LIN":"20鄰","STREET":"文平路","SECT":" ","MAREA":" ","LANE":" ","ALLEY":" ","HOUSE_NO":"４６６號之１二樓","E_COORD97":165845.20000000001,"N_COORD97":2543871.5499999998,"ADDRESS":"文平路４６６號之１二樓","OBJECTID":461042},"geometry":{"x":165845.20000000019,"y":2543871.5500000007}},{"attributes":{"ID":461068,"DIS_CODE":0,"TOWNNAME":"安平區","LI":"建平里","LIN":"20鄰","STREET":"文平路","SECT":" ","MAREA":" ","LANE":" ","ALLEY":" ","HOUSE_NO":"４６６號之１八樓","E_COORD97":165845.20000000001,"N_COORD97":2543871.5499999998,"ADDRESS":"文平路４６６號之１八樓","OBJECTID":461043},"geometry":{"x":165845.20000000019,"y":2543871.5500000007}},{"attributes":{"ID":461069,"DIS_CODE":0,"TOWNNAME":"安平區","LI":"建平里","LIN":"20鄰","STREET":"文平路","SECT":" ","MAREA":" ","LANE":" ","ALLEY":" ","HOUSE_NO":"４６６號之１三樓","E_COORD97":165845.20000000001,"N_COORD97":2543871.5499999998,"ADDRESS":"文平路４６６號之１三樓","OBJECTID":461044},"geometry":{"x":165845.20000000019,"y":2543871.5500000007}},{"attributes":{"ID":461070,"DIS_CODE":0,"TOWNNAME":"安平區","LI":"建平里","LIN":"20鄰","STREET":"文平路","SECT":" ","MAREA":" ","LANE":" ","ALLEY":" ","HOUSE_NO":"４６６號之１五樓","E_COORD97":165845.20000000001,"N_COORD97":2543871.5499999998,"ADDRESS":"文平路４６６號之１五樓","OBJECTID":461045},"geometry":{"x":165845.20000000019,"y":2543871.5500000007}},{"attributes":{"ID":461071,"DIS_CODE":0,"TOWNNAME":"安平區","LI":"建平里","LIN":"20鄰","STREET":"文平路","SECT":" ","MAREA":" ","LANE":" ","ALLEY":" ","HOUSE_NO":"４６６號之１六樓","E_COORD97":165845.20000000001,"N_COORD97":2543871.5499999998,"ADDRESS":"文平路４６６號之１六樓","OBJECTID":461046},"geometry":{"x":165845.20000000019,"y":2543871.5500000007}},{"attributes":{"ID":461072,"DIS_CODE":0,"TOWNNAME":"安平區","LI":"建平里","LIN":"20鄰","STREET":"文平路","SECT":" ","MAREA":" ","LANE":" ","ALLEY":" ","HOUSE_NO":"４６６號之１四樓","E_COORD97":165845.20000000001,"N_COORD97":2543871.5499999998,"ADDRESS":"文平路４６６號之１四樓","OBJECTID":461047},"geometry":{"x":165845.20000000019,"y":2543871.5500000007}},{"attributes":{"ID":461073,"DIS_CODE":0,"TOWNNAME":"安平區","LI":"建平里","LIN":"20鄰","STREET":"文平路","SECT":" ","MAREA":" ","LANE":" ","ALLEY":" ","HOUSE_NO":"４６６號五樓","E_COORD97":165832.23999999999,"N_COORD97":2543872.3900000001,"ADDRESS":"文平路４６６號五樓","OBJECTID":461048},"geometry":{"x":165832.24000000115,"y":2543872.3900000006}},{"attributes":{"ID":461074,"DIS_CODE":0,"TOWNNAME":"安平區","LI":"建平里","LIN":"20鄰","STREET":"文平路","SECT":" ","MAREA":" ","LANE":" ","ALLEY":" ","HOUSE_NO":"４６６號六樓","E_COORD97":165832.23999999999,"N_COORD97":2543872.3900000001,"ADDRESS":"文平路４６６號六樓","OBJECTID":461049},"geometry":{"x":165832.24000000115,"y":2543872.3900000006}},{"attributes":{"ID":461075,"DIS_CODE":0,"TOWNNAME":"安平區","LI":"建平里","LIN":"20鄰","STREET":"文平路","SECT":" ","MAREA":" ","LANE":" ","ALLEY":" ","HOUSE_NO":"４６６號四樓","E_COORD97":165832.23999999999,"N_COORD97":2543872.3900000001,"ADDRESS":"文平路４６６號四樓","OBJECTID":461050},"geometry":{"x":165832.24000000115,"y":2543872.3900000006}},{"attributes":{"ID":461076,"DIS_CODE":0,"TOWNNAME":"安平區","LI":"建平里","LIN":"20鄰","STREET":"文平路","SECT":" ","MAREA":" ","LANE":" ","ALLEY":" ","HOUSE_NO":"４６８號八樓","E_COORD97":165832.57999999999,"N_COORD97":2543877.77,"ADDRESS":"文平路４６８號八樓","OBJECTID":461051},"geometry":{"x":165832.58000000007,"y":2543877.7700000014}},{"attributes":{"ID":461077,"DIS_CODE":0,"TOWNNAME":"安平區","LI":"建平里","LIN":"20鄰","STREET":"文平路","SECT":" ","MAREA":" ","LANE":" ","ALLEY":" ","HOUSE_NO":"４６８號三樓","E_COORD97":165832.57999999999,"N_COORD97":2543877.77,"ADDRESS":"文平路４６８號三樓","OBJECTID":461052},"geometry":{"x":165832.58000000007,"y":2543877.7700000014}},{"attributes":{"ID":461078,"DIS_CODE":0,"TOWNNAME":"安平區","LI":"建平里","LIN":"20鄰","STREET":"文平路","SECT":" ","MAREA":" ","LANE":" ","ALLEY":" ","HOUSE_NO":"４６８號五樓","E_COORD97":165832.57999999999,"N_COORD97":2543877.77,"ADDRESS":"文平路４６８號五樓","OBJECTID":461053},"geometry":{"x":165832.58000000007,"y":2543877.7700000014}},{"attributes":{"ID":461079,"DIS_CODE":0,"TOWNNAME":"安平區","LI":"建平里","LIN":"20鄰","STREET":"文平路","SECT":" ","MAREA":" ","LANE":" ","ALLEY":" ","HOUSE_NO":"４６８號六樓","E_COORD97":165832.57999999999,"N_COORD97":2543877.77,"ADDRESS":"文平路４６８號六樓","OBJECTID":461054},"geometry":{"x":165832.58000000007,"y":2543877.7700000014}},{"attributes":{"ID":461080,"DIS_CODE":0,"TOWNNAME":"安平區","LI":"建平里","LIN":"20鄰","STREET":"文平路","SECT":" ","MAREA":" ","LANE":" ","ALLEY":" ","HOUSE_NO":"４６８號四樓","E_COORD97":165832.57999999999,"N_COORD97":2543877.77,"ADDRESS":"文平路４６８號四樓","OBJECTID":461055},"geometry":{"x":165832.58000000007,"y":2543877.7700000014}},{"attributes":{"ID":461081,"DIS_CODE":0,"TOWNNAME":"安平區","LI":"建平里","LIN":"20鄰","STREET":"文平路","SECT":" ","MAREA":" ","LANE":" ","ALLEY":" ","HOUSE_NO":"４７２號七樓","E_COORD97":165833.09,"N_COORD97":2543890.71,"ADDRESS":"文平路４７２號七樓","OBJECTID":461056},"geometry":{"x":165833.09000000078,"y":2543890.7100000009}},{"attributes":{"ID":461082,"DIS_CODE":0,"TOWNNAME":"安平區","LI":"建平里","LIN":"20鄰","STREET":"文平路","SECT":" ","MAREA":" ","LANE":" ","ALLEY":" ","HOUSE_NO":"４７２號八樓","E_COORD97":165833.09,"N_COORD97":2543890.71,"ADDRESS":"文平路４７２號八樓","OBJECTID":461057},"geometry":{"x":165833.09000000078,"y":2543890.7100000009}},{"attributes":{"ID":461083,"DIS_CODE":0,"TOWNNAME":"安平區","LI":"建平里","LIN":"20鄰","STREET":"文平路","SECT":" ","MAREA":" ","LANE":" ","ALLEY":" ","HOUSE_NO":"４７２號三樓","E_COORD97":165833.09,"N_COORD97":2543890.71,"ADDRESS":"文平路４７２號三樓","OBJECTID":461058},"geometry":{"x":165833.09000000078,"y":2543890.7100000009}},{"attributes":{"ID":461084,"DIS_CODE":0,"TOWNNAME":"安平區","LI":"建平里","LIN":"20鄰","STREET":"文平路","SECT":" ","MAREA":" ","LANE":" ","ALLEY":" ","HOUSE_NO":"４７２號五樓","E_COORD97":165833.09,"N_COORD97":2543890.71,"ADDRESS":"文平路４７２號五樓","OBJECTID":461059},"geometry":{"x":165833.09000000078,"y":2543890.7100000009}},{"attributes":{"ID":461085,"DIS_CODE":0,"TOWNNAME":"安平區","LI":"建平里","LIN":"20鄰","STREET":"文平路","SECT":" ","MAREA":" ","LANE":" ","ALLEY":" ","HOUSE_NO":"４７２號六樓","E_COORD97":165833.09,"N_COORD97":2543890.71,"ADDRESS":"文平路４７２號六樓","OBJECTID":461060},"geometry":{"x":165833.09000000078,"y":2543890.7100000009}},{"attributes":{"ID":461086,"DIS_CODE":0,"TOWNNAME":"安平區","LI":"建平里","LIN":"20鄰","STREET":"文平路","SECT":" ","MAREA":" ","LANE":" ","ALLEY":" ","HOUSE_NO":"４７２號四樓","E_COORD97":165833.09,"N_COORD97":2543890.71,"ADDRESS":"文平路４７２號四樓","OBJECTID":461061},"geometry":{"x":165833.09000000078,"y":2543890.7100000009}},{"attributes":{"ID":461087,"DIS_CODE":0,"TOWNNAME":"安平區","LI":"建平里","LIN":"20鄰","STREET":"文平路","SECT":" ","MAREA":" ","LANE":" ","ALLEY":" ","HOUSE_NO":"４７６號七樓","E_COORD97":165833.76000000001,"N_COORD97":2543900.6400000001,"ADDRESS":"文平路４７６號七樓","OBJECTID":461062},"geometry":{"x":165833.76000000071,"y":2543900.6400000006}},{"attributes":{"ID":461088,"DIS_CODE":0,"TOWNNAME":"安平區","LI":"建平里","LIN":"20鄰","STREET":"文平路","SECT":" ","MAREA":" ","LANE":" ","ALLEY":" ","HOUSE_NO":"４７６號二樓","E_COORD97":165833.76000000001,"N_COORD97":2543900.6400000001,"ADDRESS":"文平路４７６號二樓","OBJECTID":461063},"geometry":{"x":165833.76000000071,"y":2543900.6400000006}},{"attributes":{"ID":461089,"DIS_CODE":0,"TOWNNAME":"安平區","LI":"建平里","LIN":"20鄰","STREET":"文平路","SECT":" ","MAREA":" ","LANE":" ","ALLEY":" ","HOUSE_NO":"４７６號八樓","E_COORD97":165833.76000000001,"N_COORD97":2543900.6400000001,"ADDRESS":"文平路４７６號八樓","OBJECTID":461064},"geometry":{"x":165833.76000000071,"y":2543900.6400000006}},{"attributes":{"ID":461090,"DIS_CODE":0,"TOWNNAME":"永康區","LI":"永康里","LIN":"42鄰","STREET":"永信路","SECT":" ","MAREA":" ","LANE":" ","ALLEY":" ","HOUSE_NO":"５７號","E_COORD97":174109.95000000001,"N_COORD97":2546460.8500000001,"ADDRESS":"永信路５７號","OBJECTID":461065},"geometry":{"x":174109.95000000112,"y":2546460.8500000015}},{"attributes":{"ID":461091,"DIS_CODE":0,"TOWNNAME":"安平區","LI":"建平里","LIN":"20鄰","STREET":"文平路","SECT":" ","MAREA":" ","LANE":" ","ALLEY":" ","HOUSE_NO":"４７６號三樓","E_COORD97":165833.76000000001,"N_COORD97":2543900.6400000001,"ADDRESS":"文平路４７６號三樓","OBJECTID":461066},"geometry":{"x":165833.76000000071,"y":2543900.6400000006}},{"attributes":{"ID":461092,"DIS_CODE":0,"TOWNNAME":"安平區","LI":"建平里","LIN":"20鄰","STREET":"文平路","SECT":" ","MAREA":" ","LANE":" ","ALLEY":" ","HOUSE_NO":"４７６號之１七樓","E_COORD97":165840.82999999999,"N_COORD97":2543902.3199999998,"ADDRESS":"文平路４７６號之１七樓","OBJECTID":461067},"geometry":{"x":165840.83000000007,"y":2543902.3200000003}},{"attributes":{"ID":461093,"DIS_CODE":0,"TOWNNAME":"安平區","LI":"建平里","LIN":"20鄰","STREET":"文平路","SECT":" ","MAREA":" ","LANE":" ","ALLEY":" ","HOUSE_NO":"４７６號之１八樓","E_COORD97":165840.82999999999,"N_COORD97":2543902.3199999998,"ADDRESS":"文平路４７６號之１八樓","OBJECTID":461068},"geometry":{"x":165840.83000000007,"y":2543902.3200000003}},{"attributes":{"ID":461094,"DIS_CODE":0,"TOWNNAME":"安平區","LI":"建平里","LIN":"20鄰","STREET":"文平路","SECT":" ","MAREA":" ","LANE":" ","ALLEY":" ","HOUSE_NO":"４７６號之１三樓","E_COORD97":165840.82999999999,"N_COORD97":2543902.3199999998,"ADDRESS":"文平路４７６號之１三樓","OBJECTID":461069},"geometry":{"x":165840.83000000007,"y":2543902.3200000003}},{"attributes":{"ID":461095,"DIS_CODE":0,"TOWNNAME":"安平區","LI":"建平里","LIN":"20鄰","STREET":"文平路","SECT":" ","MAREA":" ","LANE":" ","ALLEY":" ","HOUSE_NO":"４７６號之１五樓","E_COORD97":165840.82999999999,"N_COORD97":2543902.3199999998,"ADDRESS":"文平路４７６號之１五樓","OBJECTID":461070},"geometry":{"x":165840.83000000007,"y":2543902.3200000003}},{"attributes":{"ID":461096,"DIS_CODE":0,"TOWNNAME":"安平區","LI":"建平里","LIN":"20鄰","STREET":"文平路","SECT":" ","MAREA":" ","LANE":" ","ALLEY":" ","HOUSE_NO":"４７６號之１六樓","E_COORD97":165840.82999999999,"N_COORD97":2543902.3199999998,"ADDRESS":"文平路４７６號之１六樓","OBJECTID":461071},"geometry":{"x":165840.83000000007,"y":2543902.3200000003}},{"attributes":{"ID":461097,"DIS_CODE":0,"TOWNNAME":"安平區","LI":"建平里","LIN":"20鄰","STREET":"文平路","SECT":" ","MAREA":" ","LANE":" ","ALLEY":" ","HOUSE_NO":"４７６號之１四樓","E_COORD97":165840.82999999999,"N_COORD97":2543902.3199999998,"ADDRESS":"文平路４７６號之１四樓","OBJECTID":461072},"geometry":{"x":165840.83000000007,"y":2543902.3200000003}},{"attributes":{"ID":461098,"DIS_CODE":0,"TOWNNAME":"安平區","LI":"建平里","LIN":"20鄰","STREET":"文平路","SECT":" ","MAREA":" ","LANE":" ","ALLEY":" ","HOUSE_NO":"４７６號之２二樓","E_COORD97":165850.42000000001,"N_COORD97":2543900.4700000002,"ADDRESS":"文平路４７６號之２二樓","OBJECTID":461073},"geometry":{"x":165850.41999999993,"y":2543900.4700000025}},{"attributes":{"ID":461099,"DIS_CODE":0,"TOWNNAME":"安平區","LI":"建平里","LIN":"20鄰","STREET":"文平路","SECT":" ","MAREA":" ","LANE":" ","ALLEY":" ","HOUSE_NO":"４７６號之２三樓","E_COORD97":165850.42000000001,"N_COORD97":2543900.4700000002,"ADDRESS":"文平路４７６號之２三樓","OBJECTID":461074},"geometry":{"x":165850.41999999993,"y":2543900.4700000025}},{"attributes":{"ID":461100,"DIS_CODE":0,"TOWNNAME":"安平區","LI":"建平里","LIN":"20鄰","STREET":"文平路","SECT":" ","MAREA":" ","LANE":" ","ALLEY":" ","HOUSE_NO":"４７６號之２五樓","E_COORD97":165850.42000000001,"N_COORD97":2543900.4700000002,"ADDRESS":"文平路４７６號之２五樓","OBJECTID":461075},"geometry":{"x":165850.41999999993,"y":2543900.4700000025}},{"attributes":{"ID":461101,"DIS_CODE":0,"TOWNNAME":"安平區","LI":"建平里","LIN":"20鄰","STREET":"文平路","SECT":" ","MAREA":" ","LANE":" ","ALLEY":" ","HOUSE_NO":"４７６號之２六樓","E_COORD97":165850.42000000001,"N_COORD97":2543900.4700000002,"ADDRESS":"文平路４７６號之２六樓","OBJECTID":461076},"geometry":{"x":165850.41999999993,"y":2543900.4700000025}},{"attributes":{"ID":461102,"DIS_CODE":0,"TOWNNAME":"安平區","LI":"建平里","LIN":"20鄰","STREET":"文平路","SECT":" ","MAREA":" ","LANE":" ","ALLEY":" ","HOUSE_NO":"４７６號之２四樓","E_COORD97":165850.42000000001,"N_COORD97":2543900.4700000002,"ADDRESS":"文平路４７６號之２四樓","OBJECTID":461077},"geometry":{"x":165850.41999999993,"y":2543900.4700000025}},{"attributes":{"ID":461103,"DIS_CODE":0,"TOWNNAME":"安平區","LI":"建平里","LIN":"20鄰","STREET":"文平路","SECT":" ","MAREA":" ","LANE":" ","ALLEY":" ","HOUSE_NO":"４７６號五樓","E_COORD97":165833.76000000001,"N_COORD97":2543900.6400000001,"ADDRESS":"文平路４７６號五樓","OBJECTID":461078},"geometry":{"x":165833.76000000071,"y":2543900.6400000006}},{"attributes":{"ID":461104,"DIS_CODE":0,"TOWNNAME":"安平區","LI":"建平里","LIN":"20鄰","STREET":"文平路","SECT":" ","MAREA":" ","LANE":" ","ALLEY":" ","HOUSE_NO":"４７６號六樓","E_COORD97":165833.76000000001,"N_COORD97":2543900.6400000001,"ADDRESS":"文平路４７６號六樓","OBJECTID":461079},"geometry":{"x":165833.76000000071,"y":2543900.6400000006}},{"attributes":{"ID":461105,"DIS_CODE":0,"TOWNNAME":"安平區","LI":"建平里","LIN":"20鄰","STREET":"文平路","SECT":" ","MAREA":" ","LANE":" ","ALLEY":" ","HOUSE_NO":"４７６號六樓之１","E_COORD97":165833.76000000001,"N_COORD97":2543900.6400000001,"ADDRESS":"文平路４７６號六樓之１","OBJECTID":461080},"geometry":{"x":165833.76000000071,"y":2543900.6400000006}},{"attributes":{"ID":461106,"DIS_CODE":0,"TOWNNAME":"安平區","LI":"建平里","LIN":"20鄰","STREET":"文平路","SECT":" ","MAREA":" ","LANE":" ","ALLEY":" ","HOUSE_NO":"４７６號四樓","E_COORD97":165833.76000000001,"N_COORD97":2543900.6400000001,"ADDRESS":"文平路４７６號四樓","OBJECTID":461081},"geometry":{"x":165833.76000000071,"y":2543900.6400000006}},{"attributes":{"ID":461107,"DIS_CODE":0,"TOWNNAME":"南區","LI":"新生里","LIN":"20鄰","STREET":"大同路","SECT":"二段","MAREA":" ","LANE":" ","ALLEY":" ","HOUSE_NO":"１０２號二樓","E_COORD97":169210.12,"N_COORD97":2542328.6699999999,"ADDRESS":"大同路二段１０２號二樓","OBJECTID":461082},"geometry":{"x":169210.12000000104,"y":2542328.6700000018}},{"attributes":{"ID":461108,"DIS_CODE":0,"TOWNNAME":"南區","LI":"新生里","LIN":"20鄰","STREET":"大同路","SECT":"二段","MAREA":" ","LANE":" ","ALLEY":" ","HOUSE_NO":"１０２號三樓之１","E_COORD97":169210.12,"N_COORD97":2542328.6699999999,"ADDRESS":"大同路二段１０２號三樓之１","OBJECTID":461083},"geometry":{"x":169210.12000000104,"y":2542328.6700000018}},{"attributes":{"ID":461109,"DIS_CODE":0,"TOWNNAME":"南區","LI":"新生里","LIN":"20鄰","STREET":"大同路","SECT":"二段","MAREA":" ","LANE":" ","ALLEY":" ","HOUSE_NO":"１０２號三樓之２","E_COORD97":169210.12,"N_COORD97":2542328.6699999999,"ADDRESS":"大同路二段１０２號三樓之２","OBJECTID":461084},"geometry":{"x":169210.12000000104,"y":2542328.6700000018}},{"attributes":{"ID":461110,"DIS_CODE":0,"TOWNNAME":"南區","LI":"新生里","LIN":"20鄰","STREET":"大同路","SECT":"二段","MAREA":" ","LANE":" ","ALLEY":" ","HOUSE_NO":"１０２號四樓之１","E_COORD97":169210.12,"N_COORD97":2542328.6699999999,"ADDRESS":"大同路二段１０２號四樓之１","OBJECTID":461085},"geometry":{"x":169210.12000000104,"y":2542328.6700000018}},{"attributes":{"ID":461111,"DIS_CODE":0,"TOWNNAME":"南區","LI":"新生里","LIN":"20鄰","STREET":"大同路","SECT":"二段","MAREA":" ","LANE":" ","ALLEY":" ","HOUSE_NO":"１０２號四樓之２","E_COORD97":169210.12,"N_COORD97":2542328.6699999999,"ADDRESS":"大同路二段１０２號四樓之２","OBJECTID":461086},"geometry":{"x":169210.12000000104,"y":2542328.6700000018}},{"attributes":{"ID":461112,"DIS_CODE":0,"TOWNNAME":"南區","LI":"新生里","LIN":"20鄰","STREET":"大同路","SECT":"二段","MAREA":" ","LANE":" ","ALLEY":" ","HOUSE_NO":"１０２號六樓之１","E_COORD97":169210.12,"N_COORD97":2542328.6699999999,"ADDRESS":"大同路二段１０２號六樓之１","OBJECTID":461087},"geometry":{"x":169210.12000000104,"y":2542328.6700000018}},{"attributes":{"ID":461113,"DIS_CODE":0,"TOWNNAME":"南區","LI":"新生里","LIN":"20鄰","STREET":"大同路","SECT":"二段","MAREA":" ","LANE":" ","ALLEY":" ","HOUSE_NO":"１０２號六樓之２","E_COORD97":169210.12,"N_COORD97":2542328.6699999999,"ADDRESS":"大同路二段１０２號六樓之２","OBJECTID":461088},"geometry":{"x":169210.12000000104,"y":2542328.6700000018}},{"attributes":{"ID":461114,"DIS_CODE":0,"TOWNNAME":"南區","LI":"新生里","LIN":"20鄰","STREET":"大同路","SECT":"二段","MAREA":" ","LANE":" ","ALLEY":" ","HOUSE_NO":"１０２號七樓之１","E_COORD97":169210.12,"N_COORD97":2542328.6699999999,"ADDRESS":"大同路二段１０２號七樓之１","OBJECTID":461089},"geometry":{"x":169210.12000000104,"y":2542328.6700000018}},{"attributes":{"ID":461115,"DIS_CODE":0,"TOWNNAME":"南區","LI":"新生里","LIN":"20鄰","STREET":"大同路","SECT":"二段","MAREA":" ","LANE":" ","ALLEY":" ","HOUSE_NO":"１０２號七樓之２","E_COORD97":169210.12,"N_COORD97":2542328.6699999999,"ADDRESS":"大同路二段１０２號七樓之２","OBJECTID":461090},"geometry":{"x":169210.12000000104,"y":2542328.6700000018}},{"attributes":{"ID":461116,"DIS_CODE":0,"TOWNNAME":"南區","LI":"新生里","LIN":"20鄰","STREET":"大同路","SECT":"二段","MAREA":" ","LANE":" ","ALLEY":" ","HOUSE_NO":"１０２號八樓之１","E_COORD97":169210.12,"N_COORD97":2542328.6699999999,"ADDRESS":"大同路二段１０２號八樓之１","OBJECTID":461091},"geometry":{"x":169210.12000000104,"y":2542328.6700000018}},{"attributes":{"ID":461117,"DIS_CODE":0,"TOWNNAME":"南區","LI":"新生里","LIN":"20鄰","STREET":"大同路","SECT":"二段","MAREA":" ","LANE":" ","ALLEY":" ","HOUSE_NO":"１０２號八樓之２","E_COORD97":169210.12,"N_COORD97":2542328.6699999999,"ADDRESS":"大同路二段１０２號八樓之２","OBJECTID":461092},"geometry":{"x":169210.12000000104,"y":2542328.6700000018}},{"attributes":{"ID":461118,"DIS_CODE":0,"TOWNNAME":"南區","LI":"新生里","LIN":"20鄰","STREET":"大同路","SECT":"二段","MAREA":" ","LANE":" ","ALLEY":" ","HOUSE_NO":"１０２號五樓之１","E_COORD97":169210.12,"N_COORD97":2542328.6699999999,"ADDRESS":"大同路二段１０２號五樓之１","OBJECTID":461093},"geometry":{"x":169210.12000000104,"y":2542328.6700000018}},{"attributes":{"ID":461119,"DIS_CODE":0,"TOWNNAME":"南區","LI":"新生里","LIN":"20鄰","STREET":"大同路","SECT":"二段","MAREA":" ","LANE":" ","ALLEY":" ","HOUSE_NO":"１０２號九樓之１","E_COORD97":169210.12,"N_COORD97":2542328.6699999999,"ADDRESS":"大同路二段１０２號九樓之１","OBJECTID":461094},"geometry":{"x":169210.12000000104,"y":2542328.6700000018}},{"attributes":{"ID":461120,"DIS_CODE":0,"TOWNNAME":"南區","LI":"新生里","LIN":"20鄰","STREET":"大同路","SECT":"二段","MAREA":" ","LANE":" ","ALLEY":" ","HOUSE_NO":"１０２號九樓之２","E_COORD97":169210.12,"N_COORD97":2542328.6699999999,"ADDRESS":"大同路二段１０２號九樓之２","OBJECTID":461095},"geometry":{"x":169210.12000000104,"y":2542328.6700000018}},{"attributes":{"ID":461121,"DIS_CODE":0,"TOWNNAME":"南區","LI":"新生里","LIN":"20鄰","STREET":"大同路","SECT":"二段","MAREA":" ","LANE":" ","ALLEY":" ","HOUSE_NO":"１０２號十樓之１","E_COORD97":169210.12,"N_COORD97":2542328.6699999999,"ADDRESS":"大同路二段１０２號十樓之１","OBJECTID":461096},"geometry":{"x":169210.12000000104,"y":2542328.6700000018}},{"attributes":{"ID":461122,"DIS_CODE":0,"TOWNNAME":"南區","LI":"新生里","LIN":"20鄰","STREET":"大同路","SECT":"二段","MAREA":" ","LANE":" ","ALLEY":" ","HOUSE_NO":"１０２號十樓之２","E_COORD97":169210.12,"N_COORD97":2542328.6699999999,"ADDRESS":"大同路二段１０２號十樓之２","OBJECTID":461097},"geometry":{"x":169210.12000000104,"y":2542328.6700000018}},{"attributes":{"ID":461123,"DIS_CODE":0,"TOWNNAME":"南區","LI":"新生里","LIN":"20鄰","STREET":"大同路","SECT":"二段","MAREA":" ","LANE":" ","ALLEY":" ","HOUSE_NO":"１０２號五樓之２","E_COORD97":169210.12,"N_COORD97":2542328.6699999999,"ADDRESS":"大同路二段１０２號五樓之２","OBJECTID":461098},"geometry":{"x":169210.12000000104,"y":2542328.6700000018}},{"attributes":{"ID":461124,"DIS_CODE":0,"TOWNNAME":"南區","LI":"新生里","LIN":"20鄰","STREET":"大同路","SECT":"二段","MAREA":" ","LANE":" ","ALLEY":" ","HOUSE_NO":"１０４號二樓之１","E_COORD97":169228.20999999999,"N_COORD97":2542307.8900000001,"ADDRESS":"大同路二段１０４號二樓之１","OBJECTID":461099},"geometry":{"x":169228.20999999996,"y":2542307.8900000025}},{"attributes":{"ID":461125,"DIS_CODE":0,"TOWNNAME":"南區","LI":"新生里","LIN":"20鄰","STREET":"大同路","SECT":"二段","MAREA":" ","LANE":" ","ALLEY":" ","HOUSE_NO":"１０４號三樓之１","E_COORD97":169228.20999999999,"N_COORD97":2542307.8900000001,"ADDRESS":"大同路二段１０４號三樓之１","OBJECTID":461100},"geometry":{"x":169228.20999999996,"y":2542307.8900000025}},{"attributes":{"ID":461126,"DIS_CODE":0,"TOWNNAME":"南區","LI":"新生里","LIN":"20鄰","STREET":"大同路","SECT":"二段","MAREA":" ","LANE":" ","ALLEY":" ","HOUSE_NO":"１０４號三樓之２","E_COORD97":169228.20999999999,"N_COORD97":2542307.8900000001,"ADDRESS":"大同路二段１０４號三樓之２","OBJECTID":461101},"geometry":{"x":169228.20999999996,"y":2542307.8900000025}},{"attributes":{"ID":461127,"DIS_CODE":0,"TOWNNAME":"南區","LI":"新生里","LIN":"20鄰","STREET":"大同路","SECT":"二段","MAREA":" ","LANE":" ","ALLEY":" ","HOUSE_NO":"１０４號四樓之１","E_COORD97":169228.20999999999,"N_COORD97":2542307.8900000001,"ADDRESS":"大同路二段１０４號四樓之１","OBJECTID":461102},"geometry":{"x":169228.20999999996,"y":2542307.8900000025}},{"attributes":{"ID":461128,"DIS_CODE":0,"TOWNNAME":"南區","LI":"新生里","LIN":"20鄰","STREET":"大同路","SECT":"二段","MAREA":" ","LANE":" ","ALLEY":" ","HOUSE_NO":"１０４號四樓之２","E_COORD97":169228.20999999999,"N_COORD97":2542307.8900000001,"ADDRESS":"大同路二段１０４號四樓之２","OBJECTID":461103},"geometry":{"x":169228.20999999996,"y":2542307.8900000025}},{"attributes":{"ID":461129,"DIS_CODE":0,"TOWNNAME":"南區","LI":"新生里","LIN":"20鄰","STREET":"大同路","SECT":"二段","MAREA":" ","LANE":" ","ALLEY":" ","HOUSE_NO":"１０４號六樓之１","E_COORD97":169228.20999999999,"N_COORD97":2542307.8900000001,"ADDRESS":"大同路二段１０４號六樓之１","OBJECTID":461104},"geometry":{"x":169228.20999999996,"y":2542307.8900000025}},{"attributes":{"ID":461130,"DIS_CODE":0,"TOWNNAME":"南區","LI":"新生里","LIN":"20鄰","STREET":"大同路","SECT":"二段","MAREA":" ","LANE":" ","ALLEY":" ","HOUSE_NO":"１０４號六樓之２","E_COORD97":169228.20999999999,"N_COORD97":2542307.8900000001,"ADDRESS":"大同路二段１０４號六樓之２","OBJECTID":461105},"geometry":{"x":169228.20999999996,"y":2542307.8900000025}},{"attributes":{"ID":461131,"DIS_CODE":0,"TOWNNAME":"南區","LI":"新生里","LIN":"20鄰","STREET":"大同路","SECT":"二段","MAREA":" ","LANE":" ","ALLEY":" ","HOUSE_NO":"１０４號七樓之１","E_COORD97":169228.20999999999,"N_COORD97":2542307.8900000001,"ADDRESS":"大同路二段１０４號七樓之１","OBJECTID":461106},"geometry":{"x":169228.20999999996,"y":2542307.8900000025}},{"attributes":{"ID":461132,"DIS_CODE":0,"TOWNNAME":"南區","LI":"新生里","LIN":"20鄰","STREET":"大同路","SECT":"二段","MAREA":" ","LANE":" ","ALLEY":" ","HOUSE_NO":"１０４號七樓之２","E_COORD97":169228.20999999999,"N_COORD97":2542307.8900000001,"ADDRESS":"大同路二段１０４號七樓之２","OBJECTID":461107},"geometry":{"x":169228.20999999996,"y":2542307.8900000025}},{"attributes":{"ID":461133,"DIS_CODE":0,"TOWNNAME":"南區","LI":"新生里","LIN":"20鄰","STREET":"大同路","SECT":"二段","MAREA":" ","LANE":" ","ALLEY":" ","HOUSE_NO":"１０４號八樓之１","E_COORD97":169228.20999999999,"N_COORD97":2542307.8900000001,"ADDRESS":"大同路二段１０４號八樓之１","OBJECTID":461108},"geometry":{"x":169228.20999999996,"y":2542307.8900000025}},{"attributes":{"ID":461134,"DIS_CODE":0,"TOWNNAME":"南區","LI":"新生里","LIN":"20鄰","STREET":"大同路","SECT":"二段","MAREA":" ","LANE":" ","ALLEY":" ","HOUSE_NO":"１０４號八樓之２","E_COORD97":169228.20999999999,"N_COORD97":2542307.8900000001,"ADDRESS":"大同路二段１０４號八樓之２","OBJECTID":461109},"geometry":{"x":169228.20999999996,"y":2542307.8900000025}},{"attributes":{"ID":461135,"DIS_CODE":0,"TOWNNAME":"南區","LI":"新生里","LIN":"20鄰","STREET":"大同路","SECT":"二段","MAREA":" ","LANE":" ","ALLEY":" ","HOUSE_NO":"１０４號九樓之１","E_COORD97":169228.20999999999,"N_COORD97":2542307.8900000001,"ADDRESS":"大同路二段１０４號九樓之１","OBJECTID":461110},"geometry":{"x":169228.20999999996,"y":2542307.8900000025}},{"attributes":{"ID":461136,"DIS_CODE":0,"TOWNNAME":"南區","LI":"新生里","LIN":"20鄰","STREET":"大同路","SECT":"二段","MAREA":" ","LANE":" ","ALLEY":" ","HOUSE_NO":"１０４號九樓之２","E_COORD97":169228.20999999999,"N_COORD97":2542307.8900000001,"ADDRESS":"大同路二段１０４號九樓之２","OBJECTID":461111},"geometry":{"x":169228.20999999996,"y":2542307.8900000025}},{"attributes":{"ID":461137,"DIS_CODE":0,"TOWNNAME":"南區","LI":"新生里","LIN":"20鄰","STREET":"大同路","SECT":"二段","MAREA":" ","LANE":" ","ALLEY":" ","HOUSE_NO":"１０４號五樓之２","E_COORD97":169228.20999999999,"N_COORD97":2542307.8900000001,"ADDRESS":"大同路二段１０４號五樓之２","OBJECTID":461112},"geometry":{"x":169228.20999999996,"y":2542307.8900000025}},{"attributes":{"ID":461138,"DIS_CODE":0,"TOWNNAME":"南區","LI":"新生里","LIN":"20鄰","STREET":"大同路","SECT":"二段","MAREA":" ","LANE":" ","ALLEY":" ","HOUSE_NO":"１０４號十樓之１","E_COORD97":169228.20999999999,"N_COORD97":2542307.8900000001,"ADDRESS":"大同路二段１０４號十樓之１","OBJECTID":461113},"geometry":{"x":169228.20999999996,"y":2542307.8900000025}},{"attributes":{"ID":461139,"DIS_CODE":0,"TOWNNAME":"南區","LI":"新生里","LIN":"20鄰","STREET":"大同路","SECT":"二段","MAREA":" ","LANE":" ","ALLEY":" ","HOUSE_NO":"１０４號十樓之２","E_COORD97":169228.20999999999,"N_COORD97":2542307.8900000001,"ADDRESS":"大同路二段１０４號十樓之２","OBJECTID":461114},"geometry":{"x":169228.20999999996,"y":2542307.8900000025}},{"attributes":{"ID":461140,"DIS_CODE":0,"TOWNNAME":"南區","LI":"新生里","LIN":"20鄰","STREET":"大同路","SECT":"二段","MAREA":" ","LANE":" ","ALLEY":" ","HOUSE_NO":"１０４號五樓之１","E_COORD97":169228.20999999999,"N_COORD97":2542307.8900000001,"ADDRESS":"大同路二段１０４號五樓之１","OBJECTID":461115},"geometry":{"x":169228.20999999996,"y":2542307.8900000025}},{"attributes":{"ID":461141,"DIS_CODE":0,"TOWNNAME":"永康區","LI":"正強里","LIN":"4鄰","STREET":"正義街","SECT":" ","MAREA":" ","LANE":" ","ALLEY":" ","HOUSE_NO":"２８號","E_COORD97":173598.23999999999,"N_COORD97":2547699.96,"ADDRESS":"正義街２８號","OBJECTID":461116},"geometry":{"x":173598.24000000115,"y":2547699.9600000009}},{"attributes":{"ID":461142,"DIS_CODE":0,"TOWNNAME":"永康區","LI":"永康里","LIN":"26鄰","STREET":"永大路","SECT":"二段","MAREA":" ","LANE":" ","ALLEY":" ","HOUSE_NO":"１１２９號地下一層之","E_COORD97":174202.29000000001,"N_COORD97":2547482.3599999999,"ADDRESS":"永大路二段１１２９號地下一層之２６","OBJECTID":461117},"geometry":{"x":174202.2900000019,"y":2547482.3599999994}},{"attributes":{"ID":461143,"DIS_CODE":0,"TOWNNAME":"永康區","LI":"永康里","LIN":"42鄰","STREET":"永大五路","SECT":" ","MAREA":" ","LANE":" ","ALLEY":" ","HOUSE_NO":"１３３號","E_COORD97":174096.04000000001,"N_COORD97":2546640.8799999999,"ADDRESS":"永大五路１３３號","OBJECTID":461118},"geometry":{"x":174096.04000000097,"y":2546640.879999999}},{"attributes":{"ID":461144,"DIS_CODE":0,"TOWNNAME":"永康區","LI":"永康里","LIN":"38鄰","STREET":"大同街","SECT":" ","MAREA":" ","LANE":" ","ALLEY":" ","HOUSE_NO":"７１７號","E_COORD97":174509.92999999999,"N_COORD97":2546694.5,"ADDRESS":"大同街７１７號","OBJECTID":461119},"geometry":{"x":174509.93000000063,"y":2546694.5}},{"attributes":{"ID":461145,"DIS_CODE":0,"TOWNNAME":"永康區","LI":"正強里","LIN":"23鄰","STREET":"自強路","SECT":" ","MAREA":" ","LANE":" ","ALLEY":" ","HOUSE_NO":"２９９號","E_COORD97":173387.31,"N_COORD97":2547690.4399999999,"ADDRESS":"自強路２９９號","OBJECTID":461120},"geometry":{"x":173387.30999999959,"y":2547690.4400000013}},{"attributes":{"ID":461146,"DIS_CODE":0,"TOWNNAME":"永康區","LI":"北灣里","LIN":"4鄰","STREET":"信義街","SECT":" ","MAREA":" ","LANE":" ","ALLEY":" ","HOUSE_NO":"３８號","E_COORD97":175497.20999999999,"N_COORD97":2545679.2599999998,"ADDRESS":"信義街３８號","OBJECTID":461121},"geometry":{"x":175497.20999999996,"y":2545679.2599999998}},{"attributes":{"ID":461147,"DIS_CODE":0,"TOWNNAME":"新營區","LI":"王公里","LIN":"20鄰","STREET":"樂利街","SECT":" ","MAREA":" ","LANE":" ","ALLEY":" ","HOUSE_NO":"１３５號三樓之３","E_COORD97":180507.29999999999,"N_COORD97":2579285.8199999998,"ADDRESS":"樂利街１３５號三樓之３","OBJECTID":461122},"geometry":{"x":180507.29999999981,"y":2579285.820000004}},{"attributes":{"ID":461148,"DIS_CODE":0,"TOWNNAME":"新營區","LI":"興業里","LIN":"20鄰","STREET":"中山路","SECT":" ","MAREA":" ","LANE":" ","ALLEY":" ","HOUSE_NO":"１１５號八樓之１","E_COORD97":180279.20000000001,"N_COORD97":2578215.9900000002,"ADDRESS":"中山路１１５號八樓之１","OBJECTID":461123},"geometry":{"x":180279.20000000112,"y":2578215.9900000002}},{"attributes":{"ID":461149,"DIS_CODE":0,"TOWNNAME":"新營區","LI":"王公里","LIN":"20鄰","STREET":"樂仁街","SECT":" ","MAREA":" ","LANE":" ","ALLEY":" ","HOUSE_NO":"９２號五樓之３","E_COORD97":180541.79000000001,"N_COORD97":2579279.0099999998,"ADDRESS":"樂仁街９２號五樓之３","OBJECTID":461124},"geometry":{"x":180541.79000000004,"y":2579279.0099999998}},{"attributes":{"ID":461150,"DIS_CODE":0,"TOWNNAME":"新營區","LI":"王公里","LIN":"20鄰","STREET":"樂利街","SECT":" ","MAREA":" ","LANE":" ","ALLEY":" ","HOUSE_NO":"１３５號四樓之１","E_COORD97":180507.20999999999,"N_COORD97":2579285.8199999998,"ADDRESS":"樂利街１３５號四樓之１","OBJECTID":461125},"geometry":{"x":180507.21000000089,"y":2579285.820000004}},{"attributes":{"ID":461151,"DIS_CODE":0,"TOWNNAME":"新營區","LI":"興業里","LIN":"20鄰","STREET":"中山路","SECT":" ","MAREA":" ","LANE":" ","ALLEY":" ","HOUSE_NO":"１１５號十四樓之５","E_COORD97":180280.60000000001,"N_COORD97":2578215.9900000002,"ADDRESS":"中山路１１５號十四樓之５","OBJECTID":461126},"geometry":{"x":180280.60000000056,"y":2578215.9900000002}},{"attributes":{"ID":461152,"DIS_CODE":0,"TOWNNAME":"新營區","LI":"興業里","LIN":"20鄰","STREET":"中山路","SECT":" ","MAREA":" ","LANE":" ","ALLEY":" ","HOUSE_NO":"１１５號八樓之２","E_COORD97":180279.32999999999,"N_COORD97":2578215.9900000002,"ADDRESS":"中山路１１５號八樓之２","OBJECTID":461127},"geometry":{"x":180279.33000000194,"y":2578215.9900000002}},{"attributes":{"ID":461153,"DIS_CODE":0,"TOWNNAME":"新營區","LI":"興業里","LIN":"20鄰","STREET":"中山路","SECT":" ","MAREA":" ","LANE":" ","ALLEY":" ","HOUSE_NO":"１１５號十樓之２","E_COORD97":180279.32999999999,"N_COORD97":2578215.9900000002,"ADDRESS":"中山路１１５號十樓之２","OBJECTID":461128},"geometry":{"x":180279.33000000194,"y":2578215.9900000002}},{"attributes":{"ID":461154,"DIS_CODE":0,"TOWNNAME":"新營區","LI":"興業里","LIN":"20鄰","STREET":"中山路","SECT":" ","MAREA":" ","LANE":" ","ALLEY":" ","HOUSE_NO":"１１５號十五樓之３","E_COORD97":180280.54000000001,"N_COORD97":2578215.9900000002,"ADDRESS":"中山路１１５號十五樓之３","OBJECTID":461129},"geometry":{"x":180280.54000000004,"y":2578215.9900000002}},{"attributes":{"ID":461155,"DIS_CODE":0,"TOWNNAME":"新營區","LI":"興業里","LIN":"20鄰","STREET":"中山路","SECT":" ","MAREA":" ","LANE":" ","ALLEY":" ","HOUSE_NO":"１１５號十六樓之４","E_COORD97":180280.47,"N_COORD97":2578215.9900000002,"ADDRESS":"中山路１１５號十六樓之４","OBJECTID":461130},"geometry":{"x":180280.46999999974,"y":2578215.9900000002}},{"attributes":{"ID":461156,"DIS_CODE":0,"TOWNNAME":"新營區","LI":"興業里","LIN":"20鄰","STREET":"中山路","SECT":" ","MAREA":" ","LANE":" ","ALLEY":" ","HOUSE_NO":"１１５號七樓之４","E_COORD97":180279.22,"N_COORD97":2578215.9900000002,"ADDRESS":"中山路１１５號七樓之４","OBJECTID":461131},"geometry":{"x":180279.21999999974,"y":2578215.9900000002}},{"attributes":{"ID":461157,"DIS_CODE":0,"TOWNNAME":"東區","LI":"崇明里","LIN":"20鄰","STREET":"中華東路","SECT":"三段","MAREA":" ","LANE":" ","ALLEY":" ","HOUSE_NO":"４０１號","E_COORD97":169826.70999999999,"N_COORD97":2541322.21,"ADDRESS":"中華東路三段４０１號","OBJECTID":461132},"geometry":{"x":169826.70999999996,"y":2541322.2100000028}},{"attributes":{"ID":461158,"DIS_CODE":0,"TOWNNAME":"新營區","LI":"興業里","LIN":"20鄰","STREET":"中山路","SECT":" ","MAREA":" ","LANE":" ","ALLEY":" ","HOUSE_NO":"１１５號十八樓之１","E_COORD97":180280.45000000001,"N_COORD97":2578215.9900000002,"ADDRESS":"中山路１１５號十八樓之１","OBJECTID":461133},"geometry":{"x":180280.45000000112,"y":2578215.9900000002}},{"attributes":{"ID":461159,"DIS_CODE":0,"TOWNNAME":"新營區","LI":"興業里","LIN":"20鄰","STREET":"中山路","SECT":" ","MAREA":" ","LANE":" ","ALLEY":" ","HOUSE_NO":"１１５號十六樓之１","E_COORD97":180280.45000000001,"N_COORD97":2578215.9900000002,"ADDRESS":"中山路１１５號十六樓之１","OBJECTID":461134},"geometry":{"x":180280.45000000112,"y":2578215.9900000002}},{"attributes":{"ID":461160,"DIS_CODE":0,"TOWNNAME":"新營區","LI":"興業里","LIN":"20鄰","STREET":"中山路","SECT":" ","MAREA":" ","LANE":" ","ALLEY":" ","HOUSE_NO":"１１５號十四樓之２","E_COORD97":180280.57999999999,"N_COORD97":2578215.9900000002,"ADDRESS":"中山路１１５號十四樓之２","OBJECTID":461135},"geometry":{"x":180280.58000000007,"y":2578215.9900000002}},{"attributes":{"ID":461161,"DIS_CODE":0,"TOWNNAME":"新營區","LI":"興業里","LIN":"20鄰","STREET":"中山路","SECT":" ","MAREA":" ","LANE":" ","ALLEY":" ","HOUSE_NO":"１１５號十三樓之５","E_COORD97":180280.60000000001,"N_COORD97":2578215.9900000002,"ADDRESS":"中山路１１５號十三樓之５","OBJECTID":461136},"geometry":{"x":180280.60000000056,"y":2578215.9900000002}},{"attributes":{"ID":461162,"DIS_CODE":0,"TOWNNAME":"新營區","LI":"興業里","LIN":"20鄰","STREET":"中山路","SECT":" ","MAREA":" ","LANE":" ","ALLEY":" ","HOUSE_NO":"１１５號七樓之２","E_COORD97":180279.32999999999,"N_COORD97":2578215.9900000002,"ADDRESS":"中山路１１５號七樓之２","OBJECTID":461137},"geometry":{"x":180279.33000000194,"y":2578215.9900000002}},{"attributes":{"ID":461163,"DIS_CODE":0,"TOWNNAME":"永康區","LI":"永康里","LIN":"26鄰","STREET":"永大路","SECT":"二段","MAREA":" ","LANE":" ","ALLEY":" ","HOUSE_NO":"１１２９號地下一層之","E_COORD97":174201.04000000001,"N_COORD97":2547482.3599999999,"ADDRESS":"永大路二段１１２９號地下一層之３","OBJECTID":461138},"geometry":{"x":174201.04000000097,"y":2547482.3599999994}},{"attributes":{"ID":461164,"DIS_CODE":0,"TOWNNAME":"北區","LI":"正覺里","LIN":"20鄰","STREET":"公園路","SECT":" ","MAREA":" ","LANE":" ","ALLEY":" ","HOUSE_NO":"６５５號二樓","E_COORD97":169400.26999999999,"N_COORD97":2546272.4399999999,"ADDRESS":"公園路６５５號二樓","OBJECTID":461139},"geometry":{"x":169400.26999999955,"y":2546272.4400000013}},{"attributes":{"ID":461165,"DIS_CODE":0,"TOWNNAME":"北區","LI":"正覺里","LIN":"20鄰","STREET":"公園路","SECT":" ","MAREA":" ","LANE":" ","ALLEY":" ","HOUSE_NO":"６５５號三樓之１","E_COORD97":169400.26999999999,"N_COORD97":2546272.4399999999,"ADDRESS":"公園路６５５號三樓之１","OBJECTID":461140},"geometry":{"x":169400.26999999955,"y":2546272.4400000013}},{"attributes":{"ID":461166,"DIS_CODE":0,"TOWNNAME":"北區","LI":"正覺里","LIN":"20鄰","STREET":"公園路","SECT":" ","MAREA":" ","LANE":" ","ALLEY":" ","HOUSE_NO":"６５５號三樓之２","E_COORD97":169400.26999999999,"N_COORD97":2546272.4399999999,"ADDRESS":"公園路６５５號三樓之２","OBJECTID":461141},"geometry":{"x":169400.26999999955,"y":2546272.4400000013}},{"attributes":{"ID":461167,"DIS_CODE":0,"TOWNNAME":"北區","LI":"正覺里","LIN":"20鄰","STREET":"公園路","SECT":" ","MAREA":" ","LANE":" ","ALLEY":" ","HOUSE_NO":"６５５號三樓之３","E_COORD97":169400.26999999999,"N_COORD97":2546272.4399999999,"ADDRESS":"公園路６５５號三樓之３","OBJECTID":461142},"geometry":{"x":169400.26999999955,"y":2546272.4400000013}},{"attributes":{"ID":461168,"DIS_CODE":0,"TOWNNAME":"北區","LI":"正覺里","LIN":"20鄰","STREET":"公園路","SECT":" ","MAREA":" ","LANE":" ","ALLEY":" ","HOUSE_NO":"６５５號三樓之４","E_COORD97":169400.26999999999,"N_COORD97":2546272.4399999999,"ADDRESS":"公園路６５５號三樓之４","OBJECTID":461143},"geometry":{"x":169400.26999999955,"y":2546272.4400000013}},{"attributes":{"ID":461169,"DIS_CODE":0,"TOWNNAME":"北區","LI":"正覺里","LIN":"20鄰","STREET":"公園路","SECT":" ","MAREA":" ","LANE":" ","ALLEY":" ","HOUSE_NO":"６５５號三樓之５","E_COORD97":169400.26999999999,"N_COORD97":2546272.4399999999,"ADDRESS":"公園路６５５號三樓之５","OBJECTID":461144},"geometry":{"x":169400.26999999955,"y":2546272.4400000013}},{"attributes":{"ID":461170,"DIS_CODE":0,"TOWNNAME":"北區","LI":"正覺里","LIN":"20鄰","STREET":"公園路","SECT":" ","MAREA":" ","LANE":" ","ALLEY":" ","HOUSE_NO":"６５５號三樓之６","E_COORD97":169400.26999999999,"N_COORD97":2546272.4399999999,"ADDRESS":"公園路６５５號三樓之６","OBJECTID":461145},"geometry":{"x":169400.26999999955,"y":2546272.4400000013}},{"attributes":{"ID":461171,"DIS_CODE":0,"TOWNNAME":"北區","LI":"正覺里","LIN":"20鄰","STREET":"公園路","SECT":" ","MAREA":" ","LANE":" ","ALLEY":" ","HOUSE_NO":"６５５號三樓之７","E_COORD97":169400.26999999999,"N_COORD97":2546272.4399999999,"ADDRESS":"公園路６５５號三樓之７","OBJECTID":461146},"geometry":{"x":169400.26999999955,"y":2546272.4400000013}},{"attributes":{"ID":461172,"DIS_CODE":0,"TOWNNAME":"北區","LI":"正覺里","LIN":"20鄰","STREET":"公園路","SECT":" ","MAREA":" ","LANE":" ","ALLEY":" ","HOUSE_NO":"６５５號三樓之８","E_COORD97":169400.26999999999,"N_COORD97":2546272.4399999999,"ADDRESS":"公園路６５５號三樓之８","OBJECTID":461147},"geometry":{"x":169400.26999999955,"y":2546272.4400000013}},{"attributes":{"ID":461173,"DIS_CODE":0,"TOWNNAME":"北區","LI":"正覺里","LIN":"20鄰","STREET":"公園路","SECT":" ","MAREA":" ","LANE":" ","ALLEY":" ","HOUSE_NO":"６５５號五樓之１","E_COORD97":169400.26999999999,"N_COORD97":2546272.4399999999,"ADDRESS":"公園路６５５號五樓之１","OBJECTID":461148},"geometry":{"x":169400.26999999955,"y":2546272.4400000013}},{"attributes":{"ID":461174,"DIS_CODE":0,"TOWNNAME":"北區","LI":"正覺里","LIN":"20鄰","STREET":"公園路","SECT":" ","MAREA":" ","LANE":" ","ALLEY":" ","HOUSE_NO":"６５５號五樓之２","E_COORD97":169400.26999999999,"N_COORD97":2546272.4399999999,"ADDRESS":"公園路６５５號五樓之２","OBJECTID":461149},"geometry":{"x":169400.26999999955,"y":2546272.4400000013}},{"attributes":{"ID":461175,"DIS_CODE":0,"TOWNNAME":"北區","LI":"正覺里","LIN":"20鄰","STREET":"公園路","SECT":" ","MAREA":" ","LANE":" ","ALLEY":" ","HOUSE_NO":"６５５號五樓之３","E_COORD97":169400.26999999999,"N_COORD97":2546272.4399999999,"ADDRESS":"公園路６５５號五樓之３","OBJECTID":461150},"geometry":{"x":169400.26999999955,"y":2546272.4400000013}},{"attributes":{"ID":461176,"DIS_CODE":0,"TOWNNAME":"北區","LI":"正覺里","LIN":"20鄰","STREET":"公園路","SECT":" ","MAREA":" ","LANE":" ","ALLEY":" ","HOUSE_NO":"６５５號五樓之４","E_COORD97":169400.26999999999,"N_COORD97":2546272.4399999999,"ADDRESS":"公園路６５５號五樓之４","OBJECTID":461151},"geometry":{"x":169400.26999999955,"y":2546272.4400000013}},{"attributes":{"ID":461177,"DIS_CODE":0,"TOWNNAME":"北區","LI":"正覺里","LIN":"20鄰","STREET":"公園路","SECT":" ","MAREA":" ","LANE":" ","ALLEY":" ","HOUSE_NO":"６５５號五樓之５","E_COORD97":169400.26999999999,"N_COORD97":2546272.4399999999,"ADDRESS":"公園路６５５號五樓之５","OBJECTID":461152},"geometry":{"x":169400.26999999955,"y":2546272.4400000013}},{"attributes":{"ID":461178,"DIS_CODE":0,"TOWNNAME":"北區","LI":"正覺里","LIN":"20鄰","STREET":"公園路","SECT":" ","MAREA":" ","LANE":" ","ALLEY":" ","HOUSE_NO":"６５５號五樓之６","E_COORD97":169400.26999999999,"N_COORD97":2546272.4399999999,"ADDRESS":"公園路６５５號五樓之６","OBJECTID":461153},"geometry":{"x":169400.26999999955,"y":2546272.4400000013}},{"attributes":{"ID":461179,"DIS_CODE":0,"TOWNNAME":"北區","LI":"正覺里","LIN":"20鄰","STREET":"公園路","SECT":" ","MAREA":" ","LANE":" ","ALLEY":" ","HOUSE_NO":"６５５號五樓之７","E_COORD97":169400.26999999999,"N_COORD97":2546272.4399999999,"ADDRESS":"公園路６５５號五樓之７","OBJECTID":461154},"geometry":{"x":169400.26999999955,"y":2546272.4400000013}},{"attributes":{"ID":461180,"DIS_CODE":0,"TOWNNAME":"北區","LI":"正覺里","LIN":"20鄰","STREET":"公園路","SECT":" ","MAREA":" ","LANE":" ","ALLEY":" ","HOUSE_NO":"６５５號五樓之８","E_COORD97":169400.26999999999,"N_COORD97":2546272.4399999999,"ADDRESS":"公園路６５５號五樓之８","OBJECTID":461155},"geometry":{"x":169400.26999999955,"y":2546272.4400000013}},{"attributes":{"ID":461181,"DIS_CODE":0,"TOWNNAME":"北區","LI":"正覺里","LIN":"20鄰","STREET":"公園路","SECT":" ","MAREA":" ","LANE":" ","ALLEY":" ","HOUSE_NO":"６５５號四樓之１","E_COORD97":169400.26999999999,"N_COORD97":2546272.4399999999,"ADDRESS":"公園路６５５號四樓之１","OBJECTID":461156},"geometry":{"x":169400.26999999955,"y":2546272.4400000013}},{"attributes":{"ID":461182,"DIS_CODE":0,"TOWNNAME":"北區","LI":"正覺里","LIN":"20鄰","STREET":"公園路","SECT":" ","MAREA":" ","LANE":" ","ALLEY":" ","HOUSE_NO":"６５５號四樓之２","E_COORD97":169400.26999999999,"N_COORD97":2546272.4399999999,"ADDRESS":"公園路６５５號四樓之２","OBJECTID":461157},"geometry":{"x":169400.26999999955,"y":2546272.4400000013}},{"attributes":{"ID":461183,"DIS_CODE":0,"TOWNNAME":"北區","LI":"正覺里","LIN":"20鄰","STREET":"公園路","SECT":" ","MAREA":" ","LANE":" ","ALLEY":" ","HOUSE_NO":"６５５號四樓之３","E_COORD97":169400.26999999999,"N_COORD97":2546272.4399999999,"ADDRESS":"公園路６５５號四樓之３","OBJECTID":461158},"geometry":{"x":169400.26999999955,"y":2546272.4400000013}},{"attributes":{"ID":461184,"DIS_CODE":0,"TOWNNAME":"北區","LI":"正覺里","LIN":"20鄰","STREET":"公園路","SECT":" ","MAREA":" ","LANE":" ","ALLEY":" ","HOUSE_NO":"６５５號四樓之４","E_COORD97":169400.26999999999,"N_COORD97":2546272.4399999999,"ADDRESS":"公園路６５５號四樓之４","OBJECTID":461159},"geometry":{"x":169400.26999999955,"y":2546272.4400000013}},{"attributes":{"ID":461185,"DIS_CODE":0,"TOWNNAME":"北區","LI":"正覺里","LIN":"20鄰","STREET":"公園路","SECT":" ","MAREA":" ","LANE":" ","ALLEY":" ","HOUSE_NO":"６５５號四樓之５","E_COORD97":169400.26999999999,"N_COORD97":2546272.4399999999,"ADDRESS":"公園路６５５號四樓之５","OBJECTID":461160},"geometry":{"x":169400.26999999955,"y":2546272.4400000013}},{"attributes":{"ID":461186,"DIS_CODE":0,"TOWNNAME":"北區","LI":"正覺里","LIN":"20鄰","STREET":"公園路","SECT":" ","MAREA":" ","LANE":" ","ALLEY":" ","HOUSE_NO":"６５５號四樓之６","E_COORD97":169400.26999999999,"N_COORD97":2546272.4399999999,"ADDRESS":"公園路６５５號四樓之６","OBJECTID":461161},"geometry":{"x":169400.26999999955,"y":2546272.4400000013}},{"attributes":{"ID":461187,"DIS_CODE":0,"TOWNNAME":"北區","LI":"正覺里","LIN":"20鄰","STREET":"公園路","SECT":" ","MAREA":" ","LANE":" ","ALLEY":" ","HOUSE_NO":"６５５號四樓之７","E_COORD97":169400.26999999999,"N_COORD97":2546272.4399999999,"ADDRESS":"公園路６５５號四樓之７","OBJECTID":461162},"geometry":{"x":169400.26999999955,"y":2546272.4400000013}},{"attributes":{"ID":461188,"DIS_CODE":0,"TOWNNAME":"北區","LI":"正覺里","LIN":"20鄰","STREET":"公園路","SECT":" ","MAREA":" ","LANE":" ","ALLEY":" ","HOUSE_NO":"６５５號四樓之８","E_COORD97":169400.26999999999,"N_COORD97":2546272.4399999999,"ADDRESS":"公園路６５５號四樓之８","OBJECTID":461163},"geometry":{"x":169400.26999999955,"y":2546272.4400000013}},{"attributes":{"ID":461189,"DIS_CODE":0,"TOWNNAME":"安平區","LI":"育平里","LIN":"20鄰","STREET":"郡平路","SECT":" ","MAREA":" ","LANE":" ","ALLEY":" ","HOUSE_NO":"１８８號四樓之１７","E_COORD97":164673.29000000001,"N_COORD97":2543361.6800000002,"ADDRESS":"郡平路１８８號四樓之１７","OBJECTID":461164},"geometry":{"x":164673.29000000004,"y":2543361.6800000034}},{"attributes":{"ID":461190,"DIS_CODE":0,"TOWNNAME":"新營區","LI":"興業里","LIN":"20鄰","STREET":"中山路","SECT":" ","MAREA":" ","LANE":" ","ALLEY":" ","HOUSE_NO":"１１５號五樓之４","E_COORD97":180279.22,"N_COORD97":2578215.9900000002,"ADDRESS":"中山路１１５號五樓之４","OBJECTID":461165},"geometry":{"x":180279.21999999974,"y":2578215.9900000002}},{"attributes":{"ID":461191,"DIS_CODE":0,"TOWNNAME":"新營區","LI":"興業里","LIN":"20鄰","STREET":"中山路","SECT":" ","MAREA":" ","LANE":" ","ALLEY":" ","HOUSE_NO":"１１５號十樓之４","E_COORD97":180279.22,"N_COORD97":2578215.9900000002,"ADDRESS":"中山路１１５號十樓之４","OBJECTID":461166},"geometry":{"x":180279.21999999974,"y":2578215.9900000002}},{"attributes":{"ID":461192,"DIS_CODE":0,"TOWNNAME":"新營區","LI":"興業里","LIN":"20鄰","STREET":"中山路","SECT":" ","MAREA":" ","LANE":" ","ALLEY":" ","HOUSE_NO":"１１５號五樓之５","E_COORD97":180279.35000000001,"N_COORD97":2578215.9900000002,"ADDRESS":"中山路１１５號五樓之５","OBJECTID":461167},"geometry":{"x":180279.35000000056,"y":2578215.9900000002}},{"attributes":{"ID":461193,"DIS_CODE":0,"TOWNNAME":"新營區","LI":"興業里","LIN":"20鄰","STREET":"中山路","SECT":" ","MAREA":" ","LANE":" ","ALLEY":" ","HOUSE_NO":"１１５號十樓之３","E_COORD97":180279.29000000001,"N_COORD97":2578215.9900000002,"ADDRESS":"中山路１１５號十樓之３","OBJECTID":461168},"geometry":{"x":180279.29000000004,"y":2578215.9900000002}},{"attributes":{"ID":461194,"DIS_CODE":0,"TOWNNAME":"新營區","LI":"興業里","LIN":"20鄰","STREET":"中山路","SECT":" ","MAREA":" ","LANE":" ","ALLEY":" ","HOUSE_NO":"１１５號十四樓之１","E_COORD97":180280.45000000001,"N_COORD97":2578215.9900000002,"ADDRESS":"中山路１１５號十四樓之１","OBJECTID":461169},"geometry":{"x":180280.45000000112,"y":2578215.9900000002}},{"attributes":{"ID":461195,"DIS_CODE":0,"TOWNNAME":"新營區","LI":"興業里","LIN":"20鄰","STREET":"中山路","SECT":" ","MAREA":" ","LANE":" ","ALLEY":" ","HOUSE_NO":"１１５號十樓之１","E_COORD97":180279.20000000001,"N_COORD97":2578215.9900000002,"ADDRESS":"中山路１１５號十樓之１","OBJECTID":461170},"geometry":{"x":180279.20000000112,"y":2578215.9900000002}},{"attributes":{"ID":461196,"DIS_CODE":0,"TOWNNAME":"新營區","LI":"興業里","LIN":"20鄰","STREET":"中山路","SECT":" ","MAREA":" ","LANE":" ","ALLEY":" ","HOUSE_NO":"１１５號七樓之１","E_COORD97":180279.20000000001,"N_COORD97":2578215.9900000002,"ADDRESS":"中山路１１５號七樓之１","OBJECTID":461171},"geometry":{"x":180279.20000000112,"y":2578215.9900000002}},{"attributes":{"ID":461197,"DIS_CODE":0,"TOWNNAME":"新營區","LI":"興業里","LIN":"20鄰","STREET":"中山路","SECT":" ","MAREA":" ","LANE":" ","ALLEY":" ","HOUSE_NO":"１１５號十一樓之１","E_COORD97":180280.45000000001,"N_COORD97":2578215.9900000002,"ADDRESS":"中山路１１５號十一樓之１","OBJECTID":461172},"geometry":{"x":180280.45000000112,"y":2578215.9900000002}},{"attributes":{"ID":461198,"DIS_CODE":0,"TOWNNAME":"新營區","LI":"興業里","LIN":"20鄰","STREET":"中山路","SECT":" ","MAREA":" ","LANE":" ","ALLEY":" ","HOUSE_NO":"１１５號八樓之３","E_COORD97":180279.29000000001,"N_COORD97":2578215.9900000002,"ADDRESS":"中山路１１５號八樓之３","OBJECTID":461173},"geometry":{"x":180279.29000000004,"y":2578215.9900000002}},{"attributes":{"ID":461199,"DIS_CODE":0,"TOWNNAME":"新營區","LI":"興業里","LIN":"20鄰","STREET":"中山路","SECT":" ","MAREA":" ","LANE":" ","ALLEY":" ","HOUSE_NO":"１１５號九樓之１","E_COORD97":180279.20000000001,"N_COORD97":2578215.9900000002,"ADDRESS":"中山路１１５號九樓之１","OBJECTID":461174},"geometry":{"x":180279.20000000112,"y":2578215.9900000002}},{"attributes":{"ID":461200,"DIS_CODE":0,"TOWNNAME":"新營區","LI":"興業里","LIN":"20鄰","STREET":"中山路","SECT":" ","MAREA":" ","LANE":" ","ALLEY":" ","HOUSE_NO":"１１５號九樓之２","E_COORD97":180279.32999999999,"N_COORD97":2578215.9900000002,"ADDRESS":"中山路１１５號九樓之２","OBJECTID":461175},"geometry":{"x":180279.33000000194,"y":2578215.9900000002}},{"attributes":{"ID":461201,"DIS_CODE":0,"TOWNNAME":"新營區","LI":"興業里","LIN":"20鄰","STREET":"中山路","SECT":" ","MAREA":" ","LANE":" ","ALLEY":" ","HOUSE_NO":"１１５號二樓","E_COORD97":180277.06,"N_COORD97":2578215.9500000002,"ADDRESS":"中山路１１５號二樓","OBJECTID":461176},"geometry":{"x":180277.06000000145,"y":2578215.950000003}},{"attributes":{"ID":461202,"DIS_CODE":0,"TOWNNAME":"新營區","LI":"興業里","LIN":"20鄰","STREET":"中山路","SECT":" ","MAREA":" ","LANE":" ","ALLEY":" ","HOUSE_NO":"１１５號十七樓之３","E_COORD97":180280.54000000001,"N_COORD97":2578215.9900000002,"ADDRESS":"中山路１１５號十七樓之３","OBJECTID":461177},"geometry":{"x":180280.54000000004,"y":2578215.9900000002}},{"attributes":{"ID":461203,"DIS_CODE":0,"TOWNNAME":"新營區","LI":"興業里","LIN":"20鄰","STREET":"中山路","SECT":" ","MAREA":" ","LANE":" ","ALLEY":" ","HOUSE_NO":"１１５號十二樓之１","E_COORD97":180280.45000000001,"N_COORD97":2578215.9900000002,"ADDRESS":"中山路１１５號十二樓之１","OBJECTID":461178},"geometry":{"x":180280.45000000112,"y":2578215.9900000002}},{"attributes":{"ID":461204,"DIS_CODE":0,"TOWNNAME":"新營區","LI":"興業里","LIN":"20鄰","STREET":"中山路","SECT":" ","MAREA":" ","LANE":" ","ALLEY":" ","HOUSE_NO":"１１５號十七樓之２","E_COORD97":180280.57999999999,"N_COORD97":2578215.9900000002,"ADDRESS":"中山路１１５號十七樓之２","OBJECTID":461179},"geometry":{"x":180280.58000000007,"y":2578215.9900000002}},{"attributes":{"ID":461205,"DIS_CODE":0,"TOWNNAME":"新營區","LI":"興業里","LIN":"20鄰","STREET":"中山路","SECT":" ","MAREA":" ","LANE":" ","ALLEY":" ","HOUSE_NO":"１１５號十五樓之１","E_COORD97":180280.45000000001,"N_COORD97":2578215.9900000002,"ADDRESS":"中山路１１５號十五樓之１","OBJECTID":461180},"geometry":{"x":180280.45000000112,"y":2578215.9900000002}},{"attributes":{"ID":461206,"DIS_CODE":0,"TOWNNAME":"新營區","LI":"興業里","LIN":"20鄰","STREET":"中山路","SECT":" ","MAREA":" ","LANE":" ","ALLEY":" ","HOUSE_NO":"１１５號八樓之５","E_COORD97":180279.35000000001,"N_COORD97":2578215.9900000002,"ADDRESS":"中山路１１５號八樓之５","OBJECTID":461181},"geometry":{"x":180279.35000000056,"y":2578215.9900000002}},{"attributes":{"ID":461207,"DIS_CODE":0,"TOWNNAME":"新營區","LI":"興業里","LIN":"20鄰","STREET":"中山路","SECT":" ","MAREA":" ","LANE":" ","ALLEY":" ","HOUSE_NO":"１１５號八樓之４","E_COORD97":180279.22,"N_COORD97":2578215.9900000002,"ADDRESS":"中山路１１５號八樓之４","OBJECTID":461182},"geometry":{"x":180279.21999999974,"y":2578215.9900000002}},{"attributes":{"ID":461208,"DIS_CODE":0,"TOWNNAME":"新營區","LI":"興業里","LIN":"20鄰","STREET":"中山路","SECT":" ","MAREA":" ","LANE":" ","ALLEY":" ","HOUSE_NO":"１１５號十二樓之５","E_COORD97":180280.60000000001,"N_COORD97":2578215.9900000002,"ADDRESS":"中山路１１５號十二樓之５","OBJECTID":461183},"geometry":{"x":180280.60000000056,"y":2578215.9900000002}},{"attributes":{"ID":461209,"DIS_CODE":0,"TOWNNAME":"新營區","LI":"興業里","LIN":"20鄰","STREET":"中山路","SECT":" ","MAREA":" ","LANE":" ","ALLEY":" ","HOUSE_NO":"１１５號十五樓之２","E_COORD97":180280.57999999999,"N_COORD97":2578215.9900000002,"ADDRESS":"中山路１１５號十五樓之２","OBJECTID":461184},"geometry":{"x":180280.58000000007,"y":2578215.9900000002}},{"attributes":{"ID":461210,"DIS_CODE":0,"TOWNNAME":"新營區","LI":"興業里","LIN":"20鄰","STREET":"中山路","SECT":" ","MAREA":" ","LANE":" ","ALLEY":" ","HOUSE_NO":"１１５號十六樓之２","E_COORD97":180280.57999999999,"N_COORD97":2578215.9900000002,"ADDRESS":"中山路１１５號十六樓之２","OBJECTID":461185},"geometry":{"x":180280.58000000007,"y":2578215.9900000002}},{"attributes":{"ID":461211,"DIS_CODE":0,"TOWNNAME":"安平區","LI":"育平里","LIN":"20鄰","STREET":"郡平路","SECT":" ","MAREA":" ","LANE":" ","ALLEY":" ","HOUSE_NO":"１８８號七樓之２６","E_COORD97":164673.29000000001,"N_COORD97":2543361.6800000002,"ADDRESS":"郡平路１８８號七樓之２６","OBJECTID":461186},"geometry":{"x":164673.29000000004,"y":2543361.6800000034}},{"attributes":{"ID":461212,"DIS_CODE":0,"TOWNNAME":"安平區","LI":"育平里","LIN":"20鄰","STREET":"郡平路","SECT":" ","MAREA":" ","LANE":" ","ALLEY":" ","HOUSE_NO":"１８８號七樓之２７","E_COORD97":164673.29000000001,"N_COORD97":2543361.6800000002,"ADDRESS":"郡平路１８８號七樓之２７","OBJECTID":461187},"geometry":{"x":164673.29000000004,"y":2543361.6800000034}},{"attributes":{"ID":461213,"DIS_CODE":0,"TOWNNAME":"安平區","LI":"育平里","LIN":"20鄰","STREET":"郡平路","SECT":" ","MAREA":" ","LANE":" ","ALLEY":" ","HOUSE_NO":"１８８號七樓之２８","E_COORD97":164673.29000000001,"N_COORD97":2543361.6800000002,"ADDRESS":"郡平路１８８號七樓之２８","OBJECTID":461188},"geometry":{"x":164673.29000000004,"y":2543361.6800000034}},{"attributes":{"ID":461214,"DIS_CODE":0,"TOWNNAME":"安平區","LI":"育平里","LIN":"20鄰","STREET":"郡平路","SECT":" ","MAREA":" ","LANE":" ","ALLEY":" ","HOUSE_NO":"１８８號九樓之２６","E_COORD97":164673.29000000001,"N_COORD97":2543361.6800000002,"ADDRESS":"郡平路１８８號九樓之２６","OBJECTID":461189},"geometry":{"x":164673.29000000004,"y":2543361.6800000034}},{"attributes":{"ID":461215,"DIS_CODE":0,"TOWNNAME":"安平區","LI":"育平里","LIN":"20鄰","STREET":"郡平路","SECT":" ","MAREA":" ","LANE":" ","ALLEY":" ","HOUSE_NO":"１８８號九樓之２７","E_COORD97":164673.29000000001,"N_COORD97":2543361.6800000002,"ADDRESS":"郡平路１８８號九樓之２７","OBJECTID":461190},"geometry":{"x":164673.29000000004,"y":2543361.6800000034}},{"attributes":{"ID":461216,"DIS_CODE":0,"TOWNNAME":"安平區","LI":"育平里","LIN":"20鄰","STREET":"郡平路","SECT":" ","MAREA":" ","LANE":" ","ALLEY":" ","HOUSE_NO":"１８８號九樓之２８","E_COORD97":164673.29000000001,"N_COORD97":2543361.6800000002,"ADDRESS":"郡平路１８８號九樓之２８","OBJECTID":461191},"geometry":{"x":164673.29000000004,"y":2543361.6800000034}},{"attributes":{"ID":461217,"DIS_CODE":0,"TOWNNAME":"安平區","LI":"育平里","LIN":"20鄰","STREET":"郡平路","SECT":" ","MAREA":" ","LANE":" ","ALLEY":" ","HOUSE_NO":"１８８號十一樓之２６","E_COORD97":164673.29000000001,"N_COORD97":2543361.6800000002,"ADDRESS":"郡平路１８８號十一樓之２６","OBJECTID":461192},"geometry":{"x":164673.29000000004,"y":2543361.6800000034}},{"attributes":{"ID":461218,"DIS_CODE":0,"TOWNNAME":"安平區","LI":"育平里","LIN":"20鄰","STREET":"郡平路","SECT":" ","MAREA":" ","LANE":" ","ALLEY":" ","HOUSE_NO":"１８８號十一樓之２７","E_COORD97":164673.29000000001,"N_COORD97":2543361.6800000002,"ADDRESS":"郡平路１８８號十一樓之２７","OBJECTID":461193},"geometry":{"x":164673.29000000004,"y":2543361.6800000034}},{"attributes":{"ID":461219,"DIS_CODE":0,"TOWNNAME":"安平區","LI":"育平里","LIN":"20鄰","STREET":"郡平路","SECT":" ","MAREA":" ","LANE":" ","ALLEY":" ","HOUSE_NO":"１８８號十一樓之２８","E_COORD97":164673.29000000001,"N_COORD97":2543361.6800000002,"ADDRESS":"郡平路１８８號十一樓之２８","OBJECTID":461194},"geometry":{"x":164673.29000000004,"y":2543361.6800000034}},{"attributes":{"ID":461220,"DIS_CODE":0,"TOWNNAME":"安平區","LI":"育平里","LIN":"20鄰","STREET":"郡平路","SECT":" ","MAREA":" ","LANE":" ","ALLEY":" ","HOUSE_NO":"１８８號十三樓之２６","E_COORD97":164673.29000000001,"N_COORD97":2543361.6800000002,"ADDRESS":"郡平路１８８號十三樓之２６","OBJECTID":461195},"geometry":{"x":164673.29000000004,"y":2543361.6800000034}},{"attributes":{"ID":461221,"DIS_CODE":0,"TOWNNAME":"安平區","LI":"育平里","LIN":"20鄰","STREET":"郡平路","SECT":" ","MAREA":" ","LANE":" ","ALLEY":" ","HOUSE_NO":"１８８號十三樓之２７","E_COORD97":164673.29000000001,"N_COORD97":2543361.6800000002,"ADDRESS":"郡平路１８８號十三樓之２７","OBJECTID":461196},"geometry":{"x":164673.29000000004,"y":2543361.6800000034}},{"attributes":{"ID":461222,"DIS_CODE":0,"TOWNNAME":"安平區","LI":"育平里","LIN":"20鄰","STREET":"郡平路","SECT":" ","MAREA":" ","LANE":" ","ALLEY":" ","HOUSE_NO":"１８８號十三樓之２８","E_COORD97":164673.29000000001,"N_COORD97":2543361.6800000002,"ADDRESS":"郡平路１８８號十三樓之２８","OBJECTID":461197},"geometry":{"x":164673.29000000004,"y":2543361.6800000034}},{"attributes":{"ID":461223,"DIS_CODE":0,"TOWNNAME":"安平區","LI":"育平里","LIN":"20鄰","STREET":"郡平路","SECT":" ","MAREA":" ","LANE":" ","ALLEY":" ","HOUSE_NO":"１８８號十五樓之２６","E_COORD97":164673.29000000001,"N_COORD97":2543361.6800000002,"ADDRESS":"郡平路１８８號十五樓之２６","OBJECTID":461198},"geometry":{"x":164673.29000000004,"y":2543361.6800000034}},{"attributes":{"ID":461224,"DIS_CODE":0,"TOWNNAME":"安平區","LI":"育平里","LIN":"20鄰","STREET":"郡平路","SECT":" ","MAREA":" ","LANE":" ","ALLEY":" ","HOUSE_NO":"１８８號十五樓之２７","E_COORD97":164673.29000000001,"N_COORD97":2543361.6800000002,"ADDRESS":"郡平路１８８號十五樓之２７","OBJECTID":461199},"geometry":{"x":164673.29000000004,"y":2543361.6800000034}},{"attributes":{"ID":461225,"DIS_CODE":0,"TOWNNAME":"安平區","LI":"育平里","LIN":"20鄰","STREET":"郡平路","SECT":" ","MAREA":" ","LANE":" ","ALLEY":" ","HOUSE_NO":"１８８號十五樓之２８","E_COORD97":164673.29000000001,"N_COORD97":2543361.6800000002,"ADDRESS":"郡平路１８８號十五樓之２８","OBJECTID":461200},"geometry":{"x":164673.29000000004,"y":2543361.6800000034}}]}