{"displayFieldName":"TOWNNAME","fieldAliases":{"ID":"ID","DIS_CODE":"DIS_CODE","TOWNNAME":"TOWNNAME","LI":"LI","LIN":"LIN","STREET":"STREET","SECT":"SECT","MAREA":"MAREA","LANE":"LANE","ALLEY":"ALLEY","HOUSE_NO":"HOUSE_NO","E_COORD97":"E_COORD97","N_COORD97":"N_COORD97","ADDRESS":"ADDRESS","OBJECTID":"OBJECTID"},"geometryType":"esriGeometryPoint","spatialReference":{"wkid":102443,"latestWkid":3826},"fields":[{"name":"ID","type":"esriFieldTypeDouble","alias":"ID"},{"name":"DIS_CODE","type":"esriFieldTypeInteger","alias":"DIS_CODE"},{"name":"TOWNNAME","type":"esriFieldTypeString","alias":"TOWNNAME","length":8},{"name":"LI","type":"esriFieldTypeString","alias":"LI","length":8},{"name":"LIN","type":"esriFieldTypeString","alias":"LIN","length":12},{"name":"STREET","type":"esriFieldTypeString","alias":"STREET","length":20},{"name":"SECT","type":"esriFieldTypeString","alias":"SECT","length":8},{"name":"MAREA","type":"esriFieldTypeString","alias":"MAREA","length":12},{"name":"LANE","type":"esriFieldTypeString","alias":"LANE","length":10},{"name":"ALLEY","type":"esriFieldTypeString","alias":"ALLEY","length":10},{"name":"HOUSE_NO","type":"esriFieldTypeString","alias":"HOUSE_NO","length":20},{"name":"E_COORD97","type":"esriFieldTypeDouble","alias":"E_COORD97"},{"name":"N_COORD97","type":"esriFieldTypeDouble","alias":"N_COORD97"},{"name":"ADDRESS","type":"esriFieldTypeString","alias":"ADDRESS","length":50},{"name":"OBJECTID","type":"esriFieldTypeOID","alias":"OBJECTID"}],"features":[{"attributes":{"ID":635828,"DIS_CODE":0,"TOWNNAME":"東區","LI":"路東里","LIN":"4鄰","STREET":"大同路","SECT":"二段","MAREA":" ","LANE":" ","ALLEY":" ","HOUSE_NO":"９５號六樓之４","E_COORD97":169372.73000000001,"N_COORD97":2542151.4500000002,"ADDRESS":"大同路二段９５號六樓之４","OBJECTID":635801},"geometry":{"x":169372.73000000045,"y":2542151.4499999993}},{"attributes":{"ID":635829,"DIS_CODE":0,"TOWNNAME":"東區","LI":"路東里","LIN":"4鄰","STREET":"大同路","SECT":"二段","MAREA":" ","LANE":" ","ALLEY":" ","HOUSE_NO":"９５號六樓之５","E_COORD97":169372.73000000001,"N_COORD97":2542151.4500000002,"ADDRESS":"大同路二段９５號六樓之５","OBJECTID":635802},"geometry":{"x":169372.73000000045,"y":2542151.4499999993}},{"attributes":{"ID":635830,"DIS_CODE":0,"TOWNNAME":"東區","LI":"路東里","LIN":"4鄰","STREET":"大同路","SECT":"二段","MAREA":" ","LANE":" ","ALLEY":" ","HOUSE_NO":"９５號四樓","E_COORD97":169372.73000000001,"N_COORD97":2542151.4500000002,"ADDRESS":"大同路二段９５號四樓","OBJECTID":635803},"geometry":{"x":169372.73000000045,"y":2542151.4499999993}},{"attributes":{"ID":635831,"DIS_CODE":0,"TOWNNAME":"東區","LI":"路東里","LIN":"4鄰","STREET":"大同路","SECT":"二段","MAREA":" ","LANE":" ","ALLEY":" ","HOUSE_NO":"９５號四樓之１","E_COORD97":169372.73000000001,"N_COORD97":2542151.4500000002,"ADDRESS":"大同路二段９５號四樓之１","OBJECTID":635804},"geometry":{"x":169372.73000000045,"y":2542151.4499999993}},{"attributes":{"ID":635832,"DIS_CODE":0,"TOWNNAME":"東區","LI":"路東里","LIN":"4鄰","STREET":"大同路","SECT":"二段","MAREA":" ","LANE":" ","ALLEY":" ","HOUSE_NO":"９５號四樓之２","E_COORD97":169372.73000000001,"N_COORD97":2542151.4500000002,"ADDRESS":"大同路二段９５號四樓之２","OBJECTID":635805},"geometry":{"x":169372.73000000045,"y":2542151.4499999993}},{"attributes":{"ID":635833,"DIS_CODE":0,"TOWNNAME":"東區","LI":"路東里","LIN":"4鄰","STREET":"大同路","SECT":"二段","MAREA":" ","LANE":" ","ALLEY":" ","HOUSE_NO":"９５號四樓之３","E_COORD97":169372.73000000001,"N_COORD97":2542151.4500000002,"ADDRESS":"大同路二段９５號四樓之３","OBJECTID":635806},"geometry":{"x":169372.73000000045,"y":2542151.4499999993}},{"attributes":{"ID":635834,"DIS_CODE":0,"TOWNNAME":"東區","LI":"路東里","LIN":"4鄰","STREET":"大同路","SECT":"二段","MAREA":" ","LANE":" ","ALLEY":" ","HOUSE_NO":"９５號四樓之４","E_COORD97":169372.73000000001,"N_COORD97":2542151.4500000002,"ADDRESS":"大同路二段９５號四樓之４","OBJECTID":635807},"geometry":{"x":169372.73000000045,"y":2542151.4499999993}},{"attributes":{"ID":635835,"DIS_CODE":0,"TOWNNAME":"東區","LI":"路東里","LIN":"4鄰","STREET":"大同路","SECT":"二段","MAREA":" ","LANE":" ","ALLEY":" ","HOUSE_NO":"９５號四樓之５","E_COORD97":169372.73000000001,"N_COORD97":2542151.4500000002,"ADDRESS":"大同路二段９５號四樓之５","OBJECTID":635808},"geometry":{"x":169372.73000000045,"y":2542151.4499999993}},{"attributes":{"ID":635836,"DIS_CODE":0,"TOWNNAME":"東區","LI":"路東里","LIN":"13鄰","STREET":"林森路","SECT":"一段","MAREA":" ","LANE":" ","ALLEY":" ","HOUSE_NO":"１３２號五樓","E_COORD97":169417.22,"N_COORD97":2542428.8700000001,"ADDRESS":"林森路一段１３２號五樓","OBJECTID":635809},"geometry":{"x":169417.22000000067,"y":2542428.870000001}},{"attributes":{"ID":635837,"DIS_CODE":0,"TOWNNAME":"歸仁區","LI":"辜厝里","LIN":"25鄰","STREET":"大順街","SECT":" ","MAREA":" ","LANE":" ","ALLEY":" ","HOUSE_NO":"５９號七樓之２","E_COORD97":177374.32999999999,"N_COORD97":2540596.1600000001,"ADDRESS":"大順街５９號七樓之２","OBJECTID":635810},"geometry":{"x":177374.33000000101,"y":2540596.160000002}},{"attributes":{"ID":635838,"DIS_CODE":0,"TOWNNAME":"歸仁區","LI":"後市里","LIN":"13鄰","STREET":"中山路","SECT":"二段","MAREA":" ","LANE":" ","ALLEY":" ","HOUSE_NO":"２２３號三樓","E_COORD97":177091.98999999999,"N_COORD97":2540825.25,"ADDRESS":"中山路二段２２３號三樓","OBJECTID":635811},"geometry":{"x":177091.99000000115,"y":2540825.2499999981}},{"attributes":{"ID":635839,"DIS_CODE":0,"TOWNNAME":"學甲區","LI":"仁得里","LIN":"1鄰","STREET":"公園街","SECT":" ","MAREA":" ","LANE":" ","ALLEY":" ","HOUSE_NO":"６６號二樓之１","E_COORD97":166290.32000000001,"N_COORD97":2569891.5499999998,"ADDRESS":"公園街６６號二樓之１","OBJECTID":635812},"geometry":{"x":166290.3200000003,"y":2569891.5500000026}},{"attributes":{"ID":635840,"DIS_CODE":0,"TOWNNAME":"學甲區","LI":"仁得里","LIN":"1鄰","STREET":"公園街","SECT":" ","MAREA":" ","LANE":" ","ALLEY":" ","HOUSE_NO":"６６號二樓之２","E_COORD97":166290.32000000001,"N_COORD97":2569891.5499999998,"ADDRESS":"公園街６６號二樓之２","OBJECTID":635813},"geometry":{"x":166290.3200000003,"y":2569891.5500000026}},{"attributes":{"ID":635841,"DIS_CODE":0,"TOWNNAME":"學甲區","LI":"仁得里","LIN":"1鄰","STREET":"公園街","SECT":" ","MAREA":" ","LANE":" ","ALLEY":" ","HOUSE_NO":"６６號三樓之１","E_COORD97":166290.32000000001,"N_COORD97":2569891.5499999998,"ADDRESS":"公園街６６號三樓之１","OBJECTID":635814},"geometry":{"x":166290.3200000003,"y":2569891.5500000026}},{"attributes":{"ID":635842,"DIS_CODE":0,"TOWNNAME":"學甲區","LI":"仁得里","LIN":"1鄰","STREET":"公園街","SECT":" ","MAREA":" ","LANE":" ","ALLEY":" ","HOUSE_NO":"６６號三樓之２","E_COORD97":166290.32000000001,"N_COORD97":2569891.5499999998,"ADDRESS":"公園街６６號三樓之２","OBJECTID":635815},"geometry":{"x":166290.3200000003,"y":2569891.5500000026}},{"attributes":{"ID":635843,"DIS_CODE":0,"TOWNNAME":"學甲區","LI":"仁得里","LIN":"1鄰","STREET":"公館路","SECT":" ","MAREA":" ","LANE":" ","ALLEY":" ","HOUSE_NO":"６號一樓","E_COORD97":166191.85000000001,"N_COORD97":2569662.8599999999,"ADDRESS":"公館路６號一樓","OBJECTID":635816},"geometry":{"x":166191.85000000056,"y":2569662.8600000031}},{"attributes":{"ID":635844,"DIS_CODE":0,"TOWNNAME":"歸仁區","LI":"許厝里","LIN":"18鄰","STREET":"仁愛北街","SECT":" ","MAREA":" ","LANE":" ","ALLEY":" ","HOUSE_NO":"６２號七樓","E_COORD97":178300.42999999999,"N_COORD97":2540875.25,"ADDRESS":"仁愛北街６２號七樓","OBJECTID":635817},"geometry":{"x":178300.43000000063,"y":2540875.25}},{"attributes":{"ID":635845,"DIS_CODE":0,"TOWNNAME":"歸仁區","LI":"許厝里","LIN":"18鄰","STREET":"仁愛北街","SECT":" ","MAREA":" ","LANE":" ","ALLEY":" ","HOUSE_NO":"６４號三樓","E_COORD97":178300.42999999999,"N_COORD97":2540875.25,"ADDRESS":"仁愛北街６４號三樓","OBJECTID":635818},"geometry":{"x":178300.43000000063,"y":2540875.25}},{"attributes":{"ID":635846,"DIS_CODE":0,"TOWNNAME":"歸仁區","LI":"許厝里","LIN":"20鄰","STREET":"仁愛北街","SECT":" ","MAREA":" ","LANE":" ","ALLEY":" ","HOUSE_NO":"７４號三樓","E_COORD97":178300.42999999999,"N_COORD97":2540875.25,"ADDRESS":"仁愛北街７４號三樓","OBJECTID":635819},"geometry":{"x":178300.43000000063,"y":2540875.25}},{"attributes":{"ID":635847,"DIS_CODE":0,"TOWNNAME":"歸仁區","LI":"南興里","LIN":"32鄰","STREET":"文化九街","SECT":" ","MAREA":" ","LANE":" ","ALLEY":" ","HOUSE_NO":"４７號四樓","E_COORD97":176358.32000000001,"N_COORD97":2541118.2599999998,"ADDRESS":"文化九街４７號四樓","OBJECTID":635820},"geometry":{"x":176358.3200000003,"y":2541118.2600000016}},{"attributes":{"ID":635848,"DIS_CODE":0,"TOWNNAME":"歸仁區","LI":"辜厝里","LIN":"17鄰","STREET":"大順街","SECT":" ","MAREA":" ","LANE":" ","ALLEY":" ","HOUSE_NO":"１３號六樓","E_COORD97":177457.67999999999,"N_COORD97":2540505.9500000002,"ADDRESS":"大順街１３號六樓","OBJECTID":635821},"geometry":{"x":177457.68000000063,"y":2540505.9500000011}},{"attributes":{"ID":635849,"DIS_CODE":0,"TOWNNAME":"歸仁區","LI":"辜厝里","LIN":"7鄰","STREET":"大順二街","SECT":" ","MAREA":" ","LANE":" ","ALLEY":" ","HOUSE_NO":"９號三樓之５","E_COORD97":177486.32999999999,"N_COORD97":2540577.6000000001,"ADDRESS":"大順二街９號三樓之５","OBJECTID":635822},"geometry":{"x":177486.33000000101,"y":2540577.5999999996}},{"attributes":{"ID":635850,"DIS_CODE":0,"TOWNNAME":"歸仁區","LI":"辜厝里","LIN":"18鄰","STREET":"大順一街","SECT":" ","MAREA":" ","LANE":" ","ALLEY":" ","HOUSE_NO":"１號八樓之２","E_COORD97":177458.13,"N_COORD97":2540505.9500000002,"ADDRESS":"大順一街１號八樓之２","OBJECTID":635823},"geometry":{"x":177458.13000000082,"y":2540505.9500000011}},{"attributes":{"ID":635851,"DIS_CODE":0,"TOWNNAME":"歸仁區","LI":"許厝里","LIN":"20鄰","STREET":"仁愛北街","SECT":" ","MAREA":" ","LANE":" ","ALLEY":" ","HOUSE_NO":"７４號七樓","E_COORD97":178300.42999999999,"N_COORD97":2540875.25,"ADDRESS":"仁愛北街７４號七樓","OBJECTID":635824},"geometry":{"x":178300.43000000063,"y":2540875.25}},{"attributes":{"ID":635852,"DIS_CODE":0,"TOWNNAME":"歸仁區","LI":"許厝里","LIN":"20鄰","STREET":"仁愛北街","SECT":" ","MAREA":" ","LANE":" ","ALLEY":" ","HOUSE_NO":"７４號五樓","E_COORD97":178300.42999999999,"N_COORD97":2540875.25,"ADDRESS":"仁愛北街７４號五樓","OBJECTID":635825},"geometry":{"x":178300.43000000063,"y":2540875.25}},{"attributes":{"ID":635853,"DIS_CODE":0,"TOWNNAME":"歸仁區","LI":"辜厝里","LIN":"26鄰","STREET":"大順三街","SECT":" ","MAREA":" ","LANE":" ","ALLEY":" ","HOUSE_NO":"５號六樓之２","E_COORD97":177371.13,"N_COORD97":2540575.1600000001,"ADDRESS":"大順三街５號六樓之２","OBJECTID":635826},"geometry":{"x":177371.12999999989,"y":2540575.1599999983}},{"attributes":{"ID":635854,"DIS_CODE":0,"TOWNNAME":"歸仁區","LI":"辜厝里","LIN":"26鄰","STREET":"大順三街","SECT":" ","MAREA":" ","LANE":" ","ALLEY":" ","HOUSE_NO":"５號三樓之１","E_COORD97":177371.10999999999,"N_COORD97":2540575.1600000001,"ADDRESS":"大順三街５號三樓之１","OBJECTID":635827},"geometry":{"x":177371.11000000127,"y":2540575.1599999983}},{"attributes":{"ID":635855,"DIS_CODE":0,"TOWNNAME":"歸仁區","LI":"辜厝里","LIN":"24鄰","STREET":"大順街","SECT":" ","MAREA":" ","LANE":" ","ALLEY":" ","HOUSE_NO":"４９號三樓之１","E_COORD97":177399.91,"N_COORD97":2540595.1600000001,"ADDRESS":"大順街４９號三樓之１","OBJECTID":635828},"geometry":{"x":177399.91000000015,"y":2540595.1600000001}},{"attributes":{"ID":635856,"DIS_CODE":0,"TOWNNAME":"歸仁區","LI":"辜厝里","LIN":"24鄰","STREET":"大順街","SECT":" ","MAREA":" ","LANE":" ","ALLEY":" ","HOUSE_NO":"４９號六樓之３","E_COORD97":177399.92999999999,"N_COORD97":2540595.1600000001,"ADDRESS":"大順街４９號六樓之３","OBJECTID":635829},"geometry":{"x":177399.93000000063,"y":2540595.1600000001}},{"attributes":{"ID":635857,"DIS_CODE":0,"TOWNNAME":"歸仁區","LI":"辜厝里","LIN":"14鄰","STREET":"中正南路","SECT":"一段","MAREA":" ","LANE":" ","ALLEY":" ","HOUSE_NO":"１２０號三樓","E_COORD97":177505.95000000001,"N_COORD97":2540501.6899999999,"ADDRESS":"中正南路一段１２０號三樓","OBJECTID":635830},"geometry":{"x":177505.95000000112,"y":2540501.6899999995}},{"attributes":{"ID":635858,"DIS_CODE":0,"TOWNNAME":"歸仁區","LI":"辜厝里","LIN":"14鄰","STREET":"中正南路","SECT":"一段","MAREA":" ","LANE":" ","ALLEY":" ","HOUSE_NO":"１２０號八樓","E_COORD97":177505.95000000001,"N_COORD97":2540501.6899999999,"ADDRESS":"中正南路一段１２０號八樓","OBJECTID":635831},"geometry":{"x":177505.95000000112,"y":2540501.6899999995}},{"attributes":{"ID":635859,"DIS_CODE":0,"TOWNNAME":"歸仁區","LI":"許厝里","LIN":"17鄰","STREET":"忠孝北路","SECT":" ","MAREA":" ","LANE":" ","ALLEY":" ","HOUSE_NO":"１７號五樓","E_COORD97":178444.22,"N_COORD97":2540724.25,"ADDRESS":"忠孝北路１７號五樓","OBJECTID":635832},"geometry":{"x":178444.22000000067,"y":2540724.2500000019}},{"attributes":{"ID":635860,"DIS_CODE":0,"TOWNNAME":"歸仁區","LI":"歸仁里","LIN":"4鄰","STREET":"和平三街","SECT":" ","MAREA":" ","LANE":" ","ALLEY":" ","HOUSE_NO":"２號四樓","E_COORD97":177827.04000000001,"N_COORD97":2541007.04,"ADDRESS":"和平三街２號四樓","OBJECTID":635833},"geometry":{"x":177827.04000000097,"y":2541007.040000001}},{"attributes":{"ID":635861,"DIS_CODE":0,"TOWNNAME":"歸仁區","LI":"歸仁里","LIN":"4鄰","STREET":"和平三街","SECT":" ","MAREA":" ","LANE":" ","ALLEY":" ","HOUSE_NO":"１２號七樓","E_COORD97":177814.98999999999,"N_COORD97":2541008.04,"ADDRESS":"和平三街１２號七樓","OBJECTID":635834},"geometry":{"x":177814.99000000022,"y":2541008.0399999991}},{"attributes":{"ID":635862,"DIS_CODE":0,"TOWNNAME":"歸仁區","LI":"歸仁里","LIN":"4鄰","STREET":"和平三街","SECT":" ","MAREA":" ","LANE":" ","ALLEY":" ","HOUSE_NO":"６號六樓","E_COORD97":177823.94,"N_COORD97":2541007.04,"ADDRESS":"和平三街６號六樓","OBJECTID":635835},"geometry":{"x":177823.94000000041,"y":2541007.040000001}},{"attributes":{"ID":635863,"DIS_CODE":0,"TOWNNAME":"歸仁區","LI":"許厝里","LIN":"18鄰","STREET":"仁愛北街","SECT":" ","MAREA":" ","LANE":" ","ALLEY":" ","HOUSE_NO":"６４號四樓","E_COORD97":178300.42999999999,"N_COORD97":2540875.25,"ADDRESS":"仁愛北街６４號四樓","OBJECTID":635836},"geometry":{"x":178300.43000000063,"y":2540875.25}},{"attributes":{"ID":635864,"DIS_CODE":0,"TOWNNAME":"歸仁區","LI":"許厝里","LIN":"18鄰","STREET":"仁愛北街","SECT":" ","MAREA":" ","LANE":" ","ALLEY":" ","HOUSE_NO":"５６號七樓","E_COORD97":178300.32999999999,"N_COORD97":2540855.25,"ADDRESS":"仁愛北街５６號七樓","OBJECTID":635837},"geometry":{"x":178300.33000000007,"y":2540855.25}},{"attributes":{"ID":635865,"DIS_CODE":0,"TOWNNAME":"歸仁區","LI":"文化里","LIN":"20鄰","STREET":"大德路","SECT":" ","MAREA":" ","LANE":" ","ALLEY":" ","HOUSE_NO":"２１１號三樓之６","E_COORD97":177223.62,"N_COORD97":2541515.3399999999,"ADDRESS":"大德路２１１號三樓之６","OBJECTID":635838},"geometry":{"x":177223.62000000011,"y":2541515.3399999999}},{"attributes":{"ID":635866,"DIS_CODE":0,"TOWNNAME":"歸仁區","LI":"辜厝里","LIN":"24鄰","STREET":"大順街","SECT":" ","MAREA":" ","LANE":" ","ALLEY":" ","HOUSE_NO":"４９號五樓之２","E_COORD97":177399.92999999999,"N_COORD97":2540595.1600000001,"ADDRESS":"大順街４９號五樓之２","OBJECTID":635839},"geometry":{"x":177399.93000000063,"y":2540595.1600000001}},{"attributes":{"ID":635867,"DIS_CODE":0,"TOWNNAME":"歸仁區","LI":"辜厝里","LIN":"24鄰","STREET":"大順街","SECT":" ","MAREA":" ","LANE":" ","ALLEY":" ","HOUSE_NO":"４９號四樓之２","E_COORD97":177399.92999999999,"N_COORD97":2540595.1600000001,"ADDRESS":"大順街４９號四樓之２","OBJECTID":635840},"geometry":{"x":177399.93000000063,"y":2540595.1600000001}},{"attributes":{"ID":635868,"DIS_CODE":0,"TOWNNAME":"歸仁區","LI":"辜厝里","LIN":"26鄰","STREET":"大順三街","SECT":" ","MAREA":" ","LANE":" ","ALLEY":" ","HOUSE_NO":"５號七樓之２","E_COORD97":177371.13,"N_COORD97":2540575.1600000001,"ADDRESS":"大順三街５號七樓之２","OBJECTID":635841},"geometry":{"x":177371.12999999989,"y":2540575.1599999983}},{"attributes":{"ID":635869,"DIS_CODE":0,"TOWNNAME":"歸仁區","LI":"辜厝里","LIN":"14鄰","STREET":"中正南路","SECT":"一段","MAREA":" ","LANE":" ","ALLEY":" ","HOUSE_NO":"１１６號十一樓","E_COORD97":177506.20000000001,"N_COORD97":2540501.6899999999,"ADDRESS":"中正南路一段１１６號十一樓","OBJECTID":635842},"geometry":{"x":177506.20000000019,"y":2540501.6899999995}},{"attributes":{"ID":635870,"DIS_CODE":0,"TOWNNAME":"北區","LI":"公園里","LIN":"6鄰","STREET":"成功路","SECT":" ","MAREA":" ","LANE":" ","ALLEY":" ","HOUSE_NO":"２號五樓之２","E_COORD97":169158.57999999999,"N_COORD97":2544255.9300000002,"ADDRESS":"成功路２號五樓之２","OBJECTID":635843},"geometry":{"x":169158.58000000007,"y":2544255.9300000016}},{"attributes":{"ID":635871,"DIS_CODE":0,"TOWNNAME":"歸仁區","LI":"辜厝里","LIN":"14鄰","STREET":"中正南路","SECT":"一段","MAREA":" ","LANE":" ","ALLEY":" ","HOUSE_NO":"１２０號五樓","E_COORD97":177505.95000000001,"N_COORD97":2540501.6899999999,"ADDRESS":"中正南路一段１２０號五樓","OBJECTID":635844},"geometry":{"x":177505.95000000112,"y":2540501.6899999995}},{"attributes":{"ID":635872,"DIS_CODE":0,"TOWNNAME":"歸仁區","LI":"辜厝里","LIN":"18鄰","STREET":"大順一街","SECT":" ","MAREA":" ","LANE":" ","ALLEY":" ","HOUSE_NO":"１號十一樓之２","E_COORD97":177458.38,"N_COORD97":2540505.9500000002,"ADDRESS":"大順一街１號十一樓之２","OBJECTID":635845},"geometry":{"x":177458.38000000082,"y":2540505.9500000011}},{"attributes":{"ID":635873,"DIS_CODE":0,"TOWNNAME":"歸仁區","LI":"辜厝里","LIN":"18鄰","STREET":"大順一街","SECT":" ","MAREA":" ","LANE":" ","ALLEY":" ","HOUSE_NO":"１號六樓之２","E_COORD97":177458.13,"N_COORD97":2540505.9500000002,"ADDRESS":"大順一街１號六樓之２","OBJECTID":635846},"geometry":{"x":177458.13000000082,"y":2540505.9500000011}},{"attributes":{"ID":635874,"DIS_CODE":0,"TOWNNAME":"歸仁區","LI":"辜厝里","LIN":"18鄰","STREET":"大順一街","SECT":" ","MAREA":" ","LANE":" ","ALLEY":" ","HOUSE_NO":"１號三樓之１","E_COORD97":177458.10999999999,"N_COORD97":2540505.9500000002,"ADDRESS":"大順一街１號三樓之１","OBJECTID":635847},"geometry":{"x":177458.11000000034,"y":2540505.9500000011}},{"attributes":{"ID":635875,"DIS_CODE":0,"TOWNNAME":"歸仁區","LI":"許厝里","LIN":"18鄰","STREET":"仁愛北街","SECT":" ","MAREA":" ","LANE":" ","ALLEY":" ","HOUSE_NO":"６４號七樓","E_COORD97":178300.42999999999,"N_COORD97":2540875.25,"ADDRESS":"仁愛北街６４號七樓","OBJECTID":635848},"geometry":{"x":178300.43000000063,"y":2540875.25}},{"attributes":{"ID":635876,"DIS_CODE":0,"TOWNNAME":"歸仁區","LI":"許厝里","LIN":"20鄰","STREET":"忠孝北路","SECT":" ","MAREA":" ","LANE":" ","ALLEY":" ","HOUSE_NO":"９３號五樓","E_COORD97":178330.42000000001,"N_COORD97":2540884.25,"ADDRESS":"忠孝北路９３號五樓","OBJECTID":635849},"geometry":{"x":178330.41999999993,"y":2540884.2500000019}},{"attributes":{"ID":635877,"DIS_CODE":0,"TOWNNAME":"歸仁區","LI":"辜厝里","LIN":"26鄰","STREET":"大順三街","SECT":" ","MAREA":" ","LANE":" ","ALLEY":" ","HOUSE_NO":"５號七樓之１","E_COORD97":177371.10999999999,"N_COORD97":2540575.1600000001,"ADDRESS":"大順三街５號七樓之１","OBJECTID":635850},"geometry":{"x":177371.11000000127,"y":2540575.1599999983}},{"attributes":{"ID":635878,"DIS_CODE":0,"TOWNNAME":"歸仁區","LI":"後市里","LIN":"42鄰","STREET":"國光街","SECT":" ","MAREA":" ","LANE":" ","ALLEY":" ","HOUSE_NO":"８號三樓","E_COORD97":177021.73000000001,"N_COORD97":2540944.75,"ADDRESS":"國光街８號三樓","OBJECTID":635851},"geometry":{"x":177021.73000000045,"y":2540944.7500000019}},{"attributes":{"ID":635879,"DIS_CODE":0,"TOWNNAME":"玉井區","LI":"玉井里","LIN":"10鄰","STREET":"民生路","SECT":" ","MAREA":" ","LANE":" ","ALLEY":" ","HOUSE_NO":"１號一樓之２","E_COORD97":194737.95000000001,"N_COORD97":2558186.29,"ADDRESS":"民生路１號一樓之２","OBJECTID":635852},"geometry":{"x":194737.95000000019,"y":2558186.2900000028}},{"attributes":{"ID":635880,"DIS_CODE":0,"TOWNNAME":"安平區","LI":"建平里","LIN":"4鄰","STREET":"慶平路","SECT":" ","MAREA":" ","LANE":" ","ALLEY":" ","HOUSE_NO":"１６０號二樓之１","E_COORD97":166026.95195700001,"N_COORD97":2544205.7890099999,"ADDRESS":"慶平路１６０號二樓之１","OBJECTID":635853},"geometry":{"x":166026.95195700042,"y":2544205.7890140004}},{"attributes":{"ID":635881,"DIS_CODE":0,"TOWNNAME":"安平區","LI":"國平里","LIN":"23鄰","STREET":"永華八街","SECT":" ","MAREA":" ","LANE":" ","ALLEY":" ","HOUSE_NO":"６號二樓之２","E_COORD97":165125.64000000001,"N_COORD97":2543313.3500000001,"ADDRESS":"永華八街６號二樓之２","OBJECTID":635854},"geometry":{"x":165125.6400000006,"y":2543313.3500000015}},{"attributes":{"ID":635882,"DIS_CODE":0,"TOWNNAME":"新營區","LI":"大宏里","LIN":"4鄰","STREET":"綠川北街","SECT":" ","MAREA":" ","LANE":" ","ALLEY":" ","HOUSE_NO":"１２５號六樓","E_COORD97":180236.20000000001,"N_COORD97":2578662.4399999999,"ADDRESS":"綠川北街１２５號六樓","OBJECTID":635855},"geometry":{"x":180236.20000000205,"y":2578662.4399999995}},{"attributes":{"ID":635883,"DIS_CODE":0,"TOWNNAME":"新營區","LI":"忠政里","LIN":"4鄰","STREET":"中正路","SECT":" ","MAREA":" ","LANE":" ","ALLEY":" ","HOUSE_NO":"３７之１號四樓","E_COORD97":180094.59,"N_COORD97":2579149.3300000001,"ADDRESS":"中正路３７之１號四樓","OBJECTID":635856},"geometry":{"x":180094.59000000078,"y":2579149.3300000001}},{"attributes":{"ID":635884,"DIS_CODE":0,"TOWNNAME":"新營區","LI":"忠政里","LIN":"4鄰","STREET":"中正路","SECT":" ","MAREA":" ","LANE":" ","ALLEY":" ","HOUSE_NO":"３７之３號二樓","E_COORD97":180090.59,"N_COORD97":2579169.2799999998,"ADDRESS":"中正路３７之３號二樓","OBJECTID":635857},"geometry":{"x":180090.58999999985,"y":2579169.2799999993}},{"attributes":{"ID":635885,"DIS_CODE":0,"TOWNNAME":"新營區","LI":"民生里","LIN":" ","STREET":"三民路","SECT":" ","MAREA":" ","LANE":" ","ALLEY":" ","HOUSE_NO":"１３１號三樓之４","E_COORD97":179295.51000000001,"N_COORD97":2578269.8100000001,"ADDRESS":"三民路１３１號三樓之４","OBJECTID":635858},"geometry":{"x":179295.50999999978,"y":2578269.8100000024}},{"attributes":{"ID":635886,"DIS_CODE":0,"TOWNNAME":"新營區","LI":"王公里","LIN":"20鄰","STREET":"樂仁街","SECT":" ","MAREA":" ","LANE":" ","ALLEY":" ","HOUSE_NO":"９２號二樓","E_COORD97":180539.54999999999,"N_COORD97":2579278.9700000002,"ADDRESS":"樂仁街９２號二樓","OBJECTID":635859},"geometry":{"x":180539.54999999981,"y":2579278.9700000025}},{"attributes":{"ID":635887,"DIS_CODE":0,"TOWNNAME":"新營區","LI":"大宏里","LIN":"4鄰","STREET":"綠川北街","SECT":" ","MAREA":" ","LANE":" ","ALLEY":" ","HOUSE_NO":"１２６號四樓","E_COORD97":180236.20000000001,"N_COORD97":2578662.4399999999,"ADDRESS":"綠川北街１２６號四樓","OBJECTID":635860},"geometry":{"x":180236.20000000205,"y":2578662.4399999995}},{"attributes":{"ID":635888,"DIS_CODE":0,"TOWNNAME":"新營區","LI":"永生里","LIN":" ","STREET":"康樂街","SECT":" ","MAREA":" ","LANE":" ","ALLEY":" ","HOUSE_NO":"１６之２號三樓之２","E_COORD97":179971.12,"N_COORD97":2577908.71,"ADDRESS":"康樂街１６之２號三樓之２","OBJECTID":635861},"geometry":{"x":179971.12000000104,"y":2577908.7100000028}},{"attributes":{"ID":635889,"DIS_CODE":0,"TOWNNAME":"新營區","LI":"三仙里","LIN":"24鄰","STREET":"三興街","SECT":" ","MAREA":" ","LANE":" ","ALLEY":" ","HOUSE_NO":"５２之２號二樓之４","E_COORD97":179451.89999999999,"N_COORD97":2578890.6899999999,"ADDRESS":"三興街５２之２號二樓之４","OBJECTID":635862},"geometry":{"x":179451.90000000224,"y":2578890.6900000013}},{"attributes":{"ID":635890,"DIS_CODE":0,"TOWNNAME":"新營區","LI":"民榮里","LIN":"17鄰","STREET":"富強街","SECT":" ","MAREA":" ","LANE":" ","ALLEY":" ","HOUSE_NO":"３８號五樓","E_COORD97":178988.16,"N_COORD97":2577803.4500000002,"ADDRESS":"富強街３８號五樓","OBJECTID":635863},"geometry":{"x":178988.16000000015,"y":2577803.4500000011}},{"attributes":{"ID":635891,"DIS_CODE":0,"TOWNNAME":"新營區","LI":"民榮里","LIN":"17鄰","STREET":"富強街","SECT":" ","MAREA":" ","LANE":" ","ALLEY":" ","HOUSE_NO":"３２號八樓","E_COORD97":178988.16,"N_COORD97":2577803.4500000002,"ADDRESS":"富強街３２號八樓","OBJECTID":635864},"geometry":{"x":178988.16000000015,"y":2577803.4500000011}},{"attributes":{"ID":635892,"DIS_CODE":0,"TOWNNAME":"新營區","LI":"嘉芳里","LIN":" ","STREET":"復興路","SECT":" ","MAREA":" ","LANE":" ","ALLEY":" ","HOUSE_NO":"１０７２號四樓","E_COORD97":176137.81,"N_COORD97":2578858.4100000001,"ADDRESS":"復興路１０７２號四樓","OBJECTID":635865},"geometry":{"x":176137.81000000052,"y":2578858.410000002}},{"attributes":{"ID":635893,"DIS_CODE":0,"TOWNNAME":"新營區","LI":"新南里","LIN":" ","STREET":"明清二街","SECT":" ","MAREA":" ","LANE":" ","ALLEY":" ","HOUSE_NO":"１６５號一樓","E_COORD97":178261.17000000001,"N_COORD97":2578682.9500000002,"ADDRESS":"明清二街１６５號一樓","OBJECTID":635866},"geometry":{"x":178261.17000000179,"y":2578682.9499999993}},{"attributes":{"ID":635894,"DIS_CODE":0,"TOWNNAME":"南區","LI":"新昌里","LIN":"14鄰","STREET":"府緯街","SECT":" ","MAREA":" ","LANE":" ","ALLEY":" ","HOUSE_NO":"１３２號五樓之７","E_COORD97":167547.5,"N_COORD97":2542734.75,"ADDRESS":"府緯街１３２號五樓之７","OBJECTID":635867},"geometry":{"x":167547.50000000093,"y":2542734.7500000019}},{"attributes":{"ID":635895,"DIS_CODE":0,"TOWNNAME":"南區","LI":"新昌里","LIN":"14鄰","STREET":"府緯街","SECT":" ","MAREA":" ","LANE":" ","ALLEY":" ","HOUSE_NO":"１３２號六樓之１","E_COORD97":167547.5,"N_COORD97":2542734.75,"ADDRESS":"府緯街１３２號六樓之１","OBJECTID":635868},"geometry":{"x":167547.50000000093,"y":2542734.7500000019}},{"attributes":{"ID":635896,"DIS_CODE":0,"TOWNNAME":"南區","LI":"新昌里","LIN":"14鄰","STREET":"府緯街","SECT":" ","MAREA":" ","LANE":" ","ALLEY":" ","HOUSE_NO":"１３２號六樓之２","E_COORD97":167547.5,"N_COORD97":2542734.75,"ADDRESS":"府緯街１３２號六樓之２","OBJECTID":635869},"geometry":{"x":167547.50000000093,"y":2542734.7500000019}},{"attributes":{"ID":635897,"DIS_CODE":0,"TOWNNAME":"北區","LI":"玉皇里","LIN":"4鄰","STREET":"福德街","SECT":" ","MAREA":" ","LANE":" ","ALLEY":" ","HOUSE_NO":"２１號二樓","E_COORD97":168706,"N_COORD97":2544586.75,"ADDRESS":"福德街２１號二樓","OBJECTID":635870},"geometry":{"x":168706,"y":2544586.7500000019}},{"attributes":{"ID":635898,"DIS_CODE":0,"TOWNNAME":"南區","LI":"新昌里","LIN":"14鄰","STREET":"府緯街","SECT":" ","MAREA":" ","LANE":" ","ALLEY":" ","HOUSE_NO":"１３２號六樓之３","E_COORD97":167547.5,"N_COORD97":2542734.75,"ADDRESS":"府緯街１３２號六樓之３","OBJECTID":635871},"geometry":{"x":167547.50000000093,"y":2542734.7500000019}},{"attributes":{"ID":635899,"DIS_CODE":0,"TOWNNAME":"南區","LI":"新昌里","LIN":"14鄰","STREET":"府緯街","SECT":" ","MAREA":" ","LANE":" ","ALLEY":" ","HOUSE_NO":"１３２號六樓之４","E_COORD97":167547.5,"N_COORD97":2542734.75,"ADDRESS":"府緯街１３２號六樓之４","OBJECTID":635872},"geometry":{"x":167547.50000000093,"y":2542734.7500000019}},{"attributes":{"ID":635900,"DIS_CODE":0,"TOWNNAME":"南區","LI":"新昌里","LIN":"14鄰","STREET":"府緯街","SECT":" ","MAREA":" ","LANE":" ","ALLEY":" ","HOUSE_NO":"１３２號六樓之５","E_COORD97":167547.5,"N_COORD97":2542734.75,"ADDRESS":"府緯街１３２號六樓之５","OBJECTID":635873},"geometry":{"x":167547.50000000093,"y":2542734.7500000019}},{"attributes":{"ID":635901,"DIS_CODE":0,"TOWNNAME":"南區","LI":"新昌里","LIN":"14鄰","STREET":"府緯街","SECT":" ","MAREA":" ","LANE":" ","ALLEY":" ","HOUSE_NO":"１３２號六樓之６","E_COORD97":167547.5,"N_COORD97":2542734.75,"ADDRESS":"府緯街１３２號六樓之６","OBJECTID":635874},"geometry":{"x":167547.50000000093,"y":2542734.7500000019}},{"attributes":{"ID":635902,"DIS_CODE":0,"TOWNNAME":"南區","LI":"新昌里","LIN":"14鄰","STREET":"府緯街","SECT":" ","MAREA":" ","LANE":" ","ALLEY":" ","HOUSE_NO":"１３２號六樓之７","E_COORD97":167547.5,"N_COORD97":2542734.75,"ADDRESS":"府緯街１３２號六樓之７","OBJECTID":635875},"geometry":{"x":167547.50000000093,"y":2542734.7500000019}},{"attributes":{"ID":635903,"DIS_CODE":0,"TOWNNAME":"南區","LI":"新昌里","LIN":"14鄰","STREET":"府緯街","SECT":" ","MAREA":" ","LANE":" ","ALLEY":" ","HOUSE_NO":"１３２號四樓之１","E_COORD97":167547.5,"N_COORD97":2542734.75,"ADDRESS":"府緯街１３２號四樓之１","OBJECTID":635876},"geometry":{"x":167547.50000000093,"y":2542734.7500000019}},{"attributes":{"ID":635904,"DIS_CODE":0,"TOWNNAME":"南區","LI":"新昌里","LIN":"14鄰","STREET":"府緯街","SECT":" ","MAREA":" ","LANE":" ","ALLEY":" ","HOUSE_NO":"１３２號四樓之２","E_COORD97":167547.5,"N_COORD97":2542734.75,"ADDRESS":"府緯街１３２號四樓之２","OBJECTID":635877},"geometry":{"x":167547.50000000093,"y":2542734.7500000019}},{"attributes":{"ID":635905,"DIS_CODE":0,"TOWNNAME":"南區","LI":"新昌里","LIN":"14鄰","STREET":"府緯街","SECT":" ","MAREA":" ","LANE":" ","ALLEY":" ","HOUSE_NO":"１３２號四樓之３","E_COORD97":167547.5,"N_COORD97":2542734.75,"ADDRESS":"府緯街１３２號四樓之３","OBJECTID":635878},"geometry":{"x":167547.50000000093,"y":2542734.7500000019}},{"attributes":{"ID":635906,"DIS_CODE":0,"TOWNNAME":"南區","LI":"新昌里","LIN":"14鄰","STREET":"府緯街","SECT":" ","MAREA":" ","LANE":" ","ALLEY":" ","HOUSE_NO":"１３２號四樓之４","E_COORD97":167547.5,"N_COORD97":2542734.75,"ADDRESS":"府緯街１３２號四樓之４","OBJECTID":635879},"geometry":{"x":167547.50000000093,"y":2542734.7500000019}},{"attributes":{"ID":635907,"DIS_CODE":0,"TOWNNAME":"南區","LI":"新昌里","LIN":"14鄰","STREET":"府緯街","SECT":" ","MAREA":" ","LANE":" ","ALLEY":" ","HOUSE_NO":"１３２號四樓之５","E_COORD97":167547.5,"N_COORD97":2542734.75,"ADDRESS":"府緯街１３２號四樓之５","OBJECTID":635880},"geometry":{"x":167547.50000000093,"y":2542734.7500000019}},{"attributes":{"ID":635908,"DIS_CODE":0,"TOWNNAME":"南區","LI":"新昌里","LIN":"14鄰","STREET":"府緯街","SECT":" ","MAREA":" ","LANE":" ","ALLEY":" ","HOUSE_NO":"１３２號四樓之６","E_COORD97":167547.5,"N_COORD97":2542734.75,"ADDRESS":"府緯街１３２號四樓之６","OBJECTID":635881},"geometry":{"x":167547.50000000093,"y":2542734.7500000019}},{"attributes":{"ID":635909,"DIS_CODE":0,"TOWNNAME":"南區","LI":"新昌里","LIN":"14鄰","STREET":"府緯街","SECT":" ","MAREA":" ","LANE":" ","ALLEY":" ","HOUSE_NO":"１３２號四樓之７","E_COORD97":167547.5,"N_COORD97":2542734.75,"ADDRESS":"府緯街１３２號四樓之７","OBJECTID":635882},"geometry":{"x":167547.50000000093,"y":2542734.7500000019}},{"attributes":{"ID":635910,"DIS_CODE":0,"TOWNNAME":"南區","LI":"新興里","LIN":"6鄰","STREET":"健康路","SECT":"二段","MAREA":" ","LANE":" ","ALLEY":" ","HOUSE_NO":"１號二樓","E_COORD97":167710.82000000001,"N_COORD97":2542433.0299999998,"ADDRESS":"健康路二段１號二樓","OBJECTID":635883},"geometry":{"x":167710.8200000003,"y":2542433.0299999975}},{"attributes":{"ID":635911,"DIS_CODE":0,"TOWNNAME":"南區","LI":"新興里","LIN":"6鄰","STREET":"健康路","SECT":"二段","MAREA":" ","LANE":" ","ALLEY":" ","HOUSE_NO":"１號三樓","E_COORD97":167710.82000000001,"N_COORD97":2542433.0299999998,"ADDRESS":"健康路二段１號三樓","OBJECTID":635884},"geometry":{"x":167710.8200000003,"y":2542433.0299999975}},{"attributes":{"ID":635912,"DIS_CODE":0,"TOWNNAME":"南區","LI":"新生里","LIN":"1鄰","STREET":"大林路","SECT":" ","MAREA":" ","LANE":" ","ALLEY":" ","HOUSE_NO":"６號九樓之２","E_COORD97":169339.28,"N_COORD97":2541879,"ADDRESS":"大林路６號九樓之２","OBJECTID":635885},"geometry":{"x":169339.28000000119,"y":2541879.0000000019}},{"attributes":{"ID":635913,"DIS_CODE":0,"TOWNNAME":"南區","LI":"新興里","LIN":"19鄰","STREET":"新興路","SECT":" ","MAREA":" ","LANE":" ","ALLEY":" ","HOUSE_NO":"１６０號七樓之１","E_COORD97":167405.62,"N_COORD97":2542056.2400000002,"ADDRESS":"新興路１６０號七樓之１","OBJECTID":635886},"geometry":{"x":167405.61999999918,"y":2542056.2399999984}},{"attributes":{"ID":635914,"DIS_CODE":0,"TOWNNAME":"南區","LI":"新興里","LIN":"19鄰","STREET":"新興路","SECT":" ","MAREA":" ","LANE":" ","ALLEY":" ","HOUSE_NO":"１６０號七樓之２","E_COORD97":167405.62,"N_COORD97":2542056.2400000002,"ADDRESS":"新興路１６０號七樓之２","OBJECTID":635887},"geometry":{"x":167405.61999999918,"y":2542056.2399999984}},{"attributes":{"ID":635915,"DIS_CODE":0,"TOWNNAME":"南區","LI":"新興里","LIN":"19鄰","STREET":"新興路","SECT":" ","MAREA":" ","LANE":" ","ALLEY":" ","HOUSE_NO":"１６０號七樓之３","E_COORD97":167405.62,"N_COORD97":2542056.2400000002,"ADDRESS":"新興路１６０號七樓之３","OBJECTID":635888},"geometry":{"x":167405.61999999918,"y":2542056.2399999984}},{"attributes":{"ID":635916,"DIS_CODE":0,"TOWNNAME":"南區","LI":"新興里","LIN":"19鄰","STREET":"新興路","SECT":" ","MAREA":" ","LANE":" ","ALLEY":" ","HOUSE_NO":"１６０號七樓之４","E_COORD97":167405.62,"N_COORD97":2542056.2400000002,"ADDRESS":"新興路１６０號七樓之４","OBJECTID":635889},"geometry":{"x":167405.61999999918,"y":2542056.2399999984}},{"attributes":{"ID":635917,"DIS_CODE":0,"TOWNNAME":"南區","LI":"新興里","LIN":"19鄰","STREET":"新興路","SECT":" ","MAREA":" ","LANE":" ","ALLEY":" ","HOUSE_NO":"１６０號七樓之５","E_COORD97":167405.62,"N_COORD97":2542056.2400000002,"ADDRESS":"新興路１６０號七樓之５","OBJECTID":635890},"geometry":{"x":167405.61999999918,"y":2542056.2399999984}},{"attributes":{"ID":635918,"DIS_CODE":0,"TOWNNAME":"南區","LI":"新興里","LIN":"19鄰","STREET":"新興路","SECT":" ","MAREA":" ","LANE":" ","ALLEY":" ","HOUSE_NO":"１６０號七樓之６","E_COORD97":167405.62,"N_COORD97":2542056.2400000002,"ADDRESS":"新興路１６０號七樓之６","OBJECTID":635891},"geometry":{"x":167405.61999999918,"y":2542056.2399999984}},{"attributes":{"ID":635919,"DIS_CODE":0,"TOWNNAME":"南區","LI":"新興里","LIN":"19鄰","STREET":"新興路","SECT":" ","MAREA":" ","LANE":" ","ALLEY":" ","HOUSE_NO":"１６０號七樓之７","E_COORD97":167405.62,"N_COORD97":2542056.2400000002,"ADDRESS":"新興路１６０號七樓之７","OBJECTID":635892},"geometry":{"x":167405.61999999918,"y":2542056.2399999984}},{"attributes":{"ID":635920,"DIS_CODE":0,"TOWNNAME":"南區","LI":"新興里","LIN":"19鄰","STREET":"新興路","SECT":" ","MAREA":" ","LANE":" ","ALLEY":" ","HOUSE_NO":"１６０號二樓之１","E_COORD97":167405.62,"N_COORD97":2542056.2400000002,"ADDRESS":"新興路１６０號二樓之１","OBJECTID":635893},"geometry":{"x":167405.61999999918,"y":2542056.2399999984}},{"attributes":{"ID":635921,"DIS_CODE":0,"TOWNNAME":"南區","LI":"新興里","LIN":"20鄰","STREET":"新興路","SECT":" ","MAREA":" ","LANE":" ","ALLEY":" ","HOUSE_NO":"２４０號七樓","E_COORD97":167195.44,"N_COORD97":2541898.48,"ADDRESS":"新興路２４０號七樓","OBJECTID":635894},"geometry":{"x":167195.44000000227,"y":2541898.4800000004}},{"attributes":{"ID":635922,"DIS_CODE":0,"TOWNNAME":"南區","LI":"新興里","LIN":"20鄰","STREET":"新興路","SECT":" ","MAREA":" ","LANE":" ","ALLEY":" ","HOUSE_NO":"２４０號三樓之１","E_COORD97":167195.44,"N_COORD97":2541898.48,"ADDRESS":"新興路２４０號三樓之１","OBJECTID":635895},"geometry":{"x":167195.44000000227,"y":2541898.4800000004}},{"attributes":{"ID":635923,"DIS_CODE":0,"TOWNNAME":"南區","LI":"新興里","LIN":"20鄰","STREET":"新興路","SECT":" ","MAREA":" ","LANE":" ","ALLEY":" ","HOUSE_NO":"２４０號三樓之２","E_COORD97":167195.44,"N_COORD97":2541898.48,"ADDRESS":"新興路２４０號三樓之２","OBJECTID":635896},"geometry":{"x":167195.44000000227,"y":2541898.4800000004}},{"attributes":{"ID":635924,"DIS_CODE":0,"TOWNNAME":"南區","LI":"新興里","LIN":"19鄰","STREET":"新興路","SECT":" ","MAREA":" ","LANE":" ","ALLEY":" ","HOUSE_NO":"１６２號五樓之２","E_COORD97":167367.79000000001,"N_COORD97":2542077.8599999999,"ADDRESS":"新興路１６２號五樓之２","OBJECTID":635897},"geometry":{"x":167367.79000000097,"y":2542077.8599999994}},{"attributes":{"ID":635925,"DIS_CODE":0,"TOWNNAME":"南區","LI":"新興里","LIN":"19鄰","STREET":"新興路","SECT":" ","MAREA":" ","LANE":" ","ALLEY":" ","HOUSE_NO":"１６２號五樓之３","E_COORD97":167367.79000000001,"N_COORD97":2542077.8599999999,"ADDRESS":"新興路１６２號五樓之３","OBJECTID":635898},"geometry":{"x":167367.79000000097,"y":2542077.8599999994}},{"attributes":{"ID":635926,"DIS_CODE":0,"TOWNNAME":"南區","LI":"新興里","LIN":"19鄰","STREET":"新興路","SECT":" ","MAREA":" ","LANE":" ","ALLEY":" ","HOUSE_NO":"１６２號六樓之１","E_COORD97":167367.79000000001,"N_COORD97":2542077.8599999999,"ADDRESS":"新興路１６２號六樓之１","OBJECTID":635899},"geometry":{"x":167367.79000000097,"y":2542077.8599999994}},{"attributes":{"ID":635927,"DIS_CODE":0,"TOWNNAME":"南區","LI":"新興里","LIN":"19鄰","STREET":"新興路","SECT":" ","MAREA":" ","LANE":" ","ALLEY":" ","HOUSE_NO":"１６２號六樓之２","E_COORD97":167367.79000000001,"N_COORD97":2542077.8599999999,"ADDRESS":"新興路１６２號六樓之２","OBJECTID":635900},"geometry":{"x":167367.79000000097,"y":2542077.8599999994}},{"attributes":{"ID":635928,"DIS_CODE":0,"TOWNNAME":"南區","LI":"新興里","LIN":"19鄰","STREET":"新興路","SECT":" ","MAREA":" ","LANE":" ","ALLEY":" ","HOUSE_NO":"１６２號六樓之３","E_COORD97":167367.79000000001,"N_COORD97":2542077.8599999999,"ADDRESS":"新興路１６２號六樓之３","OBJECTID":635901},"geometry":{"x":167367.79000000097,"y":2542077.8599999994}},{"attributes":{"ID":635929,"DIS_CODE":0,"TOWNNAME":"南區","LI":"新興里","LIN":"19鄰","STREET":"新興路","SECT":" ","MAREA":" ","LANE":" ","ALLEY":" ","HOUSE_NO":"１６２號四樓之１","E_COORD97":167367.79000000001,"N_COORD97":2542077.8599999999,"ADDRESS":"新興路１６２號四樓之１","OBJECTID":635902},"geometry":{"x":167367.79000000097,"y":2542077.8599999994}},{"attributes":{"ID":635930,"DIS_CODE":0,"TOWNNAME":"南區","LI":"新興里","LIN":"19鄰","STREET":"新興路","SECT":" ","MAREA":" ","LANE":" ","ALLEY":" ","HOUSE_NO":"１６２號四樓之２","E_COORD97":167367.79000000001,"N_COORD97":2542077.8599999999,"ADDRESS":"新興路１６２號四樓之２","OBJECTID":635903},"geometry":{"x":167367.79000000097,"y":2542077.8599999994}},{"attributes":{"ID":635931,"DIS_CODE":0,"TOWNNAME":"南區","LI":"新興里","LIN":"19鄰","STREET":"新興路","SECT":" ","MAREA":" ","LANE":" ","ALLEY":" ","HOUSE_NO":"１６２號四樓之３","E_COORD97":167367.79000000001,"N_COORD97":2542077.8599999999,"ADDRESS":"新興路１６２號四樓之３","OBJECTID":635904},"geometry":{"x":167367.79000000097,"y":2542077.8599999994}},{"attributes":{"ID":635932,"DIS_CODE":0,"TOWNNAME":"南區","LI":"新興里","LIN":"21鄰","STREET":"三官路","SECT":" ","MAREA":" ","LANE":" ","ALLEY":" ","HOUSE_NO":"１８３號七樓之１","E_COORD97":167269.79000000001,"N_COORD97":2542002.5299999998,"ADDRESS":"三官路１８３號七樓之１","OBJECTID":635905},"geometry":{"x":167269.79000000004,"y":2542002.5299999975}},{"attributes":{"ID":635933,"DIS_CODE":0,"TOWNNAME":"南區","LI":"新興里","LIN":"21鄰","STREET":"三官路","SECT":" ","MAREA":" ","LANE":" ","ALLEY":" ","HOUSE_NO":"１８３號七樓之２","E_COORD97":167269.79000000001,"N_COORD97":2542002.5299999998,"ADDRESS":"三官路１８３號七樓之２","OBJECTID":635906},"geometry":{"x":167269.79000000004,"y":2542002.5299999975}},{"attributes":{"ID":635934,"DIS_CODE":0,"TOWNNAME":"南區","LI":"新興里","LIN":"21鄰","STREET":"三官路","SECT":" ","MAREA":" ","LANE":" ","ALLEY":" ","HOUSE_NO":"１８３號二樓之１","E_COORD97":167269.79000000001,"N_COORD97":2542002.5299999998,"ADDRESS":"三官路１８３號二樓之１","OBJECTID":635907},"geometry":{"x":167269.79000000004,"y":2542002.5299999975}},{"attributes":{"ID":635935,"DIS_CODE":0,"TOWNNAME":"永康區","LI":"永康里","LIN":"42鄰","STREET":"永大五路","SECT":" ","MAREA":" ","LANE":" ","ALLEY":" ","HOUSE_NO":"３５號三樓","E_COORD97":174208.82000000001,"N_COORD97":2546721.9500000002,"ADDRESS":"永大五路３５號三樓","OBJECTID":635908},"geometry":{"x":174208.8200000003,"y":2546721.9499999993}},{"attributes":{"ID":635936,"DIS_CODE":0,"TOWNNAME":"北區","LI":"玉皇里","LIN":"4鄰","STREET":"福德街","SECT":" ","MAREA":" ","LANE":" ","ALLEY":" ","HOUSE_NO":"２１號三樓","E_COORD97":168706,"N_COORD97":2544586.75,"ADDRESS":"福德街２１號三樓","OBJECTID":635909},"geometry":{"x":168706,"y":2544586.7500000019}},{"attributes":{"ID":635937,"DIS_CODE":0,"TOWNNAME":"安平區","LI":"建平里","LIN":"4鄰","STREET":"建平十七街","SECT":" ","MAREA":" ","LANE":" ","ALLEY":" ","HOUSE_NO":"８１號七樓之１","E_COORD97":166034.73000000001,"N_COORD97":2544235.9199999999,"ADDRESS":"建平十七街８１號七樓之１","OBJECTID":635910},"geometry":{"x":166034.73000000138,"y":2544235.9200000018}},{"attributes":{"ID":635938,"DIS_CODE":0,"TOWNNAME":"安平區","LI":"建平里","LIN":"4鄰","STREET":"建平十七街","SECT":" ","MAREA":" ","LANE":" ","ALLEY":" ","HOUSE_NO":"８１號七樓之２","E_COORD97":166034.73000000001,"N_COORD97":2544235.9199999999,"ADDRESS":"建平十七街８１號七樓之２","OBJECTID":635911},"geometry":{"x":166034.73000000138,"y":2544235.9200000018}},{"attributes":{"ID":635939,"DIS_CODE":0,"TOWNNAME":"安平區","LI":"建平里","LIN":"4鄰","STREET":"建平十七街","SECT":" ","MAREA":" ","LANE":" ","ALLEY":" ","HOUSE_NO":"８１號九樓之１","E_COORD97":166034.73000000001,"N_COORD97":2544235.9199999999,"ADDRESS":"建平十七街８１號九樓之１","OBJECTID":635912},"geometry":{"x":166034.73000000138,"y":2544235.9200000018}},{"attributes":{"ID":635940,"DIS_CODE":0,"TOWNNAME":"安平區","LI":"建平里","LIN":"4鄰","STREET":"建平十七街","SECT":" ","MAREA":" ","LANE":" ","ALLEY":" ","HOUSE_NO":"８１號九樓之２","E_COORD97":166034.73000000001,"N_COORD97":2544235.9199999999,"ADDRESS":"建平十七街８１號九樓之２","OBJECTID":635913},"geometry":{"x":166034.73000000138,"y":2544235.9200000018}},{"attributes":{"ID":635941,"DIS_CODE":0,"TOWNNAME":"安平區","LI":"建平里","LIN":"4鄰","STREET":"建平十七街","SECT":" ","MAREA":" ","LANE":" ","ALLEY":" ","HOUSE_NO":"８１號二樓","E_COORD97":166034.73000000001,"N_COORD97":2544235.9199999999,"ADDRESS":"建平十七街８１號二樓","OBJECTID":635914},"geometry":{"x":166034.73000000138,"y":2544235.9200000018}},{"attributes":{"ID":635942,"DIS_CODE":0,"TOWNNAME":"安平區","LI":"建平里","LIN":"4鄰","STREET":"建平十七街","SECT":" ","MAREA":" ","LANE":" ","ALLEY":" ","HOUSE_NO":"８１號八樓之１","E_COORD97":166034.73000000001,"N_COORD97":2544235.9199999999,"ADDRESS":"建平十七街８１號八樓之１","OBJECTID":635915},"geometry":{"x":166034.73000000138,"y":2544235.9200000018}},{"attributes":{"ID":635943,"DIS_CODE":0,"TOWNNAME":"安平區","LI":"建平里","LIN":"4鄰","STREET":"建平十七街","SECT":" ","MAREA":" ","LANE":" ","ALLEY":" ","HOUSE_NO":"８１號八樓之２","E_COORD97":166034.73000000001,"N_COORD97":2544235.9199999999,"ADDRESS":"建平十七街８１號八樓之２","OBJECTID":635916},"geometry":{"x":166034.73000000138,"y":2544235.9200000018}},{"attributes":{"ID":635944,"DIS_CODE":0,"TOWNNAME":"安平區","LI":"建平里","LIN":"4鄰","STREET":"建平十七街","SECT":" ","MAREA":" ","LANE":" ","ALLEY":" ","HOUSE_NO":"８１號十一樓","E_COORD97":166034.73000000001,"N_COORD97":2544235.9199999999,"ADDRESS":"建平十七街８１號十一樓","OBJECTID":635917},"geometry":{"x":166034.73000000138,"y":2544235.9200000018}},{"attributes":{"ID":635945,"DIS_CODE":0,"TOWNNAME":"安平區","LI":"建平里","LIN":"4鄰","STREET":"建平十七街","SECT":" ","MAREA":" ","LANE":" ","ALLEY":" ","HOUSE_NO":"８１號十二樓","E_COORD97":166034.73000000001,"N_COORD97":2544235.9199999999,"ADDRESS":"建平十七街８１號十二樓","OBJECTID":635918},"geometry":{"x":166034.73000000138,"y":2544235.9200000018}},{"attributes":{"ID":635946,"DIS_CODE":0,"TOWNNAME":"玉井區","LI":"玉井里","LIN":"10鄰","STREET":"民生路","SECT":" ","MAREA":" ","LANE":" ","ALLEY":" ","HOUSE_NO":"１號三樓之３","E_COORD97":194734.60999999999,"N_COORD97":2558172.29,"ADDRESS":"民生路１號三樓之３","OBJECTID":635919},"geometry":{"x":194734.61000000127,"y":2558172.2899999991}},{"attributes":{"ID":635947,"DIS_CODE":0,"TOWNNAME":"安平區","LI":"建平里","LIN":"4鄰","STREET":"建平十七街","SECT":" ","MAREA":" ","LANE":" ","ALLEY":" ","HOUSE_NO":"８１號十樓之１","E_COORD97":166034.73000000001,"N_COORD97":2544235.9199999999,"ADDRESS":"建平十七街８１號十樓之１","OBJECTID":635920},"geometry":{"x":166034.73000000138,"y":2544235.9200000018}},{"attributes":{"ID":635948,"DIS_CODE":0,"TOWNNAME":"安平區","LI":"建平里","LIN":"4鄰","STREET":"建平十七街","SECT":" ","MAREA":" ","LANE":" ","ALLEY":" ","HOUSE_NO":"８１號十樓之２","E_COORD97":166034.73000000001,"N_COORD97":2544235.9199999999,"ADDRESS":"建平十七街８１號十樓之２","OBJECTID":635921},"geometry":{"x":166034.73000000138,"y":2544235.9200000018}},{"attributes":{"ID":635949,"DIS_CODE":0,"TOWNNAME":"安平區","LI":"建平里","LIN":"4鄰","STREET":"建平十七街","SECT":" ","MAREA":" ","LANE":" ","ALLEY":" ","HOUSE_NO":"８１號三樓","E_COORD97":166034.73000000001,"N_COORD97":2544235.9199999999,"ADDRESS":"建平十七街８１號三樓","OBJECTID":635922},"geometry":{"x":166034.73000000138,"y":2544235.9200000018}},{"attributes":{"ID":635950,"DIS_CODE":0,"TOWNNAME":"安平區","LI":"建平里","LIN":"4鄰","STREET":"建平十七街","SECT":" ","MAREA":" ","LANE":" ","ALLEY":" ","HOUSE_NO":"８１號五樓之１","E_COORD97":166034.73000000001,"N_COORD97":2544235.9199999999,"ADDRESS":"建平十七街８１號五樓之１","OBJECTID":635923},"geometry":{"x":166034.73000000138,"y":2544235.9200000018}},{"attributes":{"ID":635951,"DIS_CODE":0,"TOWNNAME":"安平區","LI":"建平里","LIN":"4鄰","STREET":"建平十七街","SECT":" ","MAREA":" ","LANE":" ","ALLEY":" ","HOUSE_NO":"８１號五樓之２","E_COORD97":166034.73000000001,"N_COORD97":2544235.9199999999,"ADDRESS":"建平十七街８１號五樓之２","OBJECTID":635924},"geometry":{"x":166034.73000000138,"y":2544235.9200000018}},{"attributes":{"ID":635952,"DIS_CODE":0,"TOWNNAME":"安平區","LI":"建平里","LIN":"4鄰","STREET":"建平十七街","SECT":" ","MAREA":" ","LANE":" ","ALLEY":" ","HOUSE_NO":"８１號六樓之１","E_COORD97":166034.73000000001,"N_COORD97":2544235.9199999999,"ADDRESS":"建平十七街８１號六樓之１","OBJECTID":635925},"geometry":{"x":166034.73000000138,"y":2544235.9200000018}},{"attributes":{"ID":635953,"DIS_CODE":0,"TOWNNAME":"安平區","LI":"建平里","LIN":"4鄰","STREET":"建平十七街","SECT":" ","MAREA":" ","LANE":" ","ALLEY":" ","HOUSE_NO":"８１號六樓之２","E_COORD97":166034.73000000001,"N_COORD97":2544235.9199999999,"ADDRESS":"建平十七街８１號六樓之２","OBJECTID":635926},"geometry":{"x":166034.73000000138,"y":2544235.9200000018}},{"attributes":{"ID":635954,"DIS_CODE":0,"TOWNNAME":"安平區","LI":"建平里","LIN":"4鄰","STREET":"建平十七街","SECT":" ","MAREA":" ","LANE":" ","ALLEY":" ","HOUSE_NO":"８１號四樓","E_COORD97":166034.73000000001,"N_COORD97":2544235.9199999999,"ADDRESS":"建平十七街８１號四樓","OBJECTID":635927},"geometry":{"x":166034.73000000138,"y":2544235.9200000018}},{"attributes":{"ID":635955,"DIS_CODE":0,"TOWNNAME":"安平區","LI":"怡平里","LIN":"7鄰","STREET":"慶平路","SECT":" ","MAREA":" ","LANE":" ","ALLEY":" ","HOUSE_NO":"２００號十二樓之１","E_COORD97":165800.79999999999,"N_COORD97":2544196.79,"ADDRESS":"慶平路２００號十二樓之１","OBJECTID":635928},"geometry":{"x":165800.80000000075,"y":2544196.7899999991}},{"attributes":{"ID":635956,"DIS_CODE":0,"TOWNNAME":"安平區","LI":"育平里","LIN":"1鄰","STREET":"永華路","SECT":"二段","MAREA":" ","LANE":" ","ALLEY":" ","HOUSE_NO":"８１９號二十一樓之３","E_COORD97":164756.10999999999,"N_COORD97":2543515.4199999999,"ADDRESS":"永華路二段８１９號二十一樓之３","OBJECTID":635929},"geometry":{"x":164756.11000000034,"y":2543515.4199999999}},{"attributes":{"ID":635957,"DIS_CODE":0,"TOWNNAME":"安平區","LI":"怡平里","LIN":"4鄰","STREET":"建平十七街","SECT":" ","MAREA":" ","LANE":" ","ALLEY":" ","HOUSE_NO":"２３１號二樓之１","E_COORD97":165551.87,"N_COORD97":2544199.1600000001,"ADDRESS":"建平十七街２３１號二樓之１","OBJECTID":635930},"geometry":{"x":165551.87000000104,"y":2544199.1600000001}},{"attributes":{"ID":635958,"DIS_CODE":0,"TOWNNAME":"安平區","LI":"怡平里","LIN":"4鄰","STREET":"建平十七街","SECT":" ","MAREA":" ","LANE":" ","ALLEY":" ","HOUSE_NO":"２３１號二樓之２","E_COORD97":165551.87,"N_COORD97":2544199.1600000001,"ADDRESS":"建平十七街２３１號二樓之２","OBJECTID":635931},"geometry":{"x":165551.87000000104,"y":2544199.1600000001}},{"attributes":{"ID":635959,"DIS_CODE":0,"TOWNNAME":"安平區","LI":"怡平里","LIN":"4鄰","STREET":"建平十七街","SECT":" ","MAREA":" ","LANE":" ","ALLEY":" ","HOUSE_NO":"２３１號三樓之１","E_COORD97":165551.87,"N_COORD97":2544199.1600000001,"ADDRESS":"建平十七街２３１號三樓之１","OBJECTID":635932},"geometry":{"x":165551.87000000104,"y":2544199.1600000001}},{"attributes":{"ID":635960,"DIS_CODE":0,"TOWNNAME":"安平區","LI":"怡平里","LIN":"4鄰","STREET":"建平十七街","SECT":" ","MAREA":" ","LANE":" ","ALLEY":" ","HOUSE_NO":"２３１號三樓之２","E_COORD97":165551.87,"N_COORD97":2544199.1600000001,"ADDRESS":"建平十七街２３１號三樓之２","OBJECTID":635933},"geometry":{"x":165551.87000000104,"y":2544199.1600000001}},{"attributes":{"ID":635961,"DIS_CODE":0,"TOWNNAME":"安平區","LI":"怡平里","LIN":"4鄰","STREET":"建平十七街","SECT":" ","MAREA":" ","LANE":" ","ALLEY":" ","HOUSE_NO":"２３１號三樓之３","E_COORD97":165551.87,"N_COORD97":2544199.1600000001,"ADDRESS":"建平十七街２３１號三樓之３","OBJECTID":635934},"geometry":{"x":165551.87000000104,"y":2544199.1600000001}},{"attributes":{"ID":635962,"DIS_CODE":0,"TOWNNAME":"安平區","LI":"怡平里","LIN":"4鄰","STREET":"建平十七街","SECT":" ","MAREA":" ","LANE":" ","ALLEY":" ","HOUSE_NO":"２３１號四樓之１","E_COORD97":165551.87,"N_COORD97":2544199.1600000001,"ADDRESS":"建平十七街２３１號四樓之１","OBJECTID":635935},"geometry":{"x":165551.87000000104,"y":2544199.1600000001}},{"attributes":{"ID":635963,"DIS_CODE":0,"TOWNNAME":"安平區","LI":"怡平里","LIN":"4鄰","STREET":"建平十七街","SECT":" ","MAREA":" ","LANE":" ","ALLEY":" ","HOUSE_NO":"２３１號四樓之２","E_COORD97":165551.87,"N_COORD97":2544199.1600000001,"ADDRESS":"建平十七街２３１號四樓之２","OBJECTID":635936},"geometry":{"x":165551.87000000104,"y":2544199.1600000001}},{"attributes":{"ID":635964,"DIS_CODE":0,"TOWNNAME":"安平區","LI":"怡平里","LIN":"4鄰","STREET":"建平十七街","SECT":" ","MAREA":" ","LANE":" ","ALLEY":" ","HOUSE_NO":"２３１號四樓之３","E_COORD97":165551.87,"N_COORD97":2544199.1600000001,"ADDRESS":"建平十七街２３１號四樓之３","OBJECTID":635937},"geometry":{"x":165551.87000000104,"y":2544199.1600000001}},{"attributes":{"ID":635965,"DIS_CODE":0,"TOWNNAME":"安平區","LI":"怡平里","LIN":"4鄰","STREET":"建平十七街","SECT":" ","MAREA":" ","LANE":" ","ALLEY":" ","HOUSE_NO":"２３１號四樓之５","E_COORD97":165551.87,"N_COORD97":2544199.1600000001,"ADDRESS":"建平十七街２３１號四樓之５","OBJECTID":635938},"geometry":{"x":165551.87000000104,"y":2544199.1600000001}},{"attributes":{"ID":635966,"DIS_CODE":0,"TOWNNAME":"安平區","LI":"怡平里","LIN":"4鄰","STREET":"建平十七街","SECT":" ","MAREA":" ","LANE":" ","ALLEY":" ","HOUSE_NO":"２３１號四樓之６","E_COORD97":165551.87,"N_COORD97":2544199.1600000001,"ADDRESS":"建平十七街２３１號四樓之６","OBJECTID":635939},"geometry":{"x":165551.87000000104,"y":2544199.1600000001}},{"attributes":{"ID":635967,"DIS_CODE":0,"TOWNNAME":"安平區","LI":"怡平里","LIN":"4鄰","STREET":"建平十七街","SECT":" ","MAREA":" ","LANE":" ","ALLEY":" ","HOUSE_NO":"２３１號四樓之７","E_COORD97":165551.87,"N_COORD97":2544199.1600000001,"ADDRESS":"建平十七街２３１號四樓之７","OBJECTID":635940},"geometry":{"x":165551.87000000104,"y":2544199.1600000001}},{"attributes":{"ID":635968,"DIS_CODE":0,"TOWNNAME":"安平區","LI":"怡平里","LIN":"4鄰","STREET":"建平十七街","SECT":" ","MAREA":" ","LANE":" ","ALLEY":" ","HOUSE_NO":"２３１號四樓之８","E_COORD97":165551.87,"N_COORD97":2544199.1600000001,"ADDRESS":"建平十七街２３１號四樓之８","OBJECTID":635941},"geometry":{"x":165551.87000000104,"y":2544199.1600000001}},{"attributes":{"ID":635969,"DIS_CODE":0,"TOWNNAME":"安平區","LI":"怡平里","LIN":"4鄰","STREET":"建平十七街","SECT":" ","MAREA":" ","LANE":" ","ALLEY":" ","HOUSE_NO":"２３１號四樓之９","E_COORD97":165551.87,"N_COORD97":2544199.1600000001,"ADDRESS":"建平十七街２３１號四樓之９","OBJECTID":635942},"geometry":{"x":165551.87000000104,"y":2544199.1600000001}},{"attributes":{"ID":635970,"DIS_CODE":0,"TOWNNAME":"安平區","LI":"怡平里","LIN":"4鄰","STREET":"建平十七街","SECT":" ","MAREA":" ","LANE":" ","ALLEY":" ","HOUSE_NO":"２３１號四樓之１０","E_COORD97":165551.87,"N_COORD97":2544199.1600000001,"ADDRESS":"建平十七街２３１號四樓之１０","OBJECTID":635943},"geometry":{"x":165551.87000000104,"y":2544199.1600000001}},{"attributes":{"ID":635971,"DIS_CODE":0,"TOWNNAME":"安平區","LI":"怡平里","LIN":"4鄰","STREET":"建平十七街","SECT":" ","MAREA":" ","LANE":" ","ALLEY":" ","HOUSE_NO":"２３１號四樓之１１","E_COORD97":165551.87,"N_COORD97":2544199.1600000001,"ADDRESS":"建平十七街２３１號四樓之１１","OBJECTID":635944},"geometry":{"x":165551.87000000104,"y":2544199.1600000001}},{"attributes":{"ID":635972,"DIS_CODE":0,"TOWNNAME":"安平區","LI":"怡平里","LIN":"4鄰","STREET":"建平十七街","SECT":" ","MAREA":" ","LANE":" ","ALLEY":" ","HOUSE_NO":"２３１號四樓之１２","E_COORD97":165551.87,"N_COORD97":2544199.1600000001,"ADDRESS":"建平十七街２３１號四樓之１２","OBJECTID":635945},"geometry":{"x":165551.87000000104,"y":2544199.1600000001}},{"attributes":{"ID":635973,"DIS_CODE":0,"TOWNNAME":"安平區","LI":"怡平里","LIN":"4鄰","STREET":"建平十七街","SECT":" ","MAREA":" ","LANE":" ","ALLEY":" ","HOUSE_NO":"２３１號五樓之１","E_COORD97":165551.87,"N_COORD97":2544199.1600000001,"ADDRESS":"建平十七街２３１號五樓之１","OBJECTID":635946},"geometry":{"x":165551.87000000104,"y":2544199.1600000001}},{"attributes":{"ID":635974,"DIS_CODE":0,"TOWNNAME":"安平區","LI":"怡平里","LIN":"4鄰","STREET":"建平十七街","SECT":" ","MAREA":" ","LANE":" ","ALLEY":" ","HOUSE_NO":"２３１號五樓之２","E_COORD97":165551.87,"N_COORD97":2544199.1600000001,"ADDRESS":"建平十七街２３１號五樓之２","OBJECTID":635947},"geometry":{"x":165551.87000000104,"y":2544199.1600000001}},{"attributes":{"ID":635975,"DIS_CODE":0,"TOWNNAME":"安平區","LI":"怡平里","LIN":"4鄰","STREET":"建平十七街","SECT":" ","MAREA":" ","LANE":" ","ALLEY":" ","HOUSE_NO":"２３１號五樓之３","E_COORD97":165551.87,"N_COORD97":2544199.1600000001,"ADDRESS":"建平十七街２３１號五樓之３","OBJECTID":635948},"geometry":{"x":165551.87000000104,"y":2544199.1600000001}},{"attributes":{"ID":635976,"DIS_CODE":0,"TOWNNAME":"安平區","LI":"怡平里","LIN":"4鄰","STREET":"建平十七街","SECT":" ","MAREA":" ","LANE":" ","ALLEY":" ","HOUSE_NO":"２３１號五樓之４","E_COORD97":165551.87,"N_COORD97":2544199.1600000001,"ADDRESS":"建平十七街２３１號五樓之４","OBJECTID":635949},"geometry":{"x":165551.87000000104,"y":2544199.1600000001}},{"attributes":{"ID":635977,"DIS_CODE":0,"TOWNNAME":"安平區","LI":"怡平里","LIN":"4鄰","STREET":"建平十七街","SECT":" ","MAREA":" ","LANE":" ","ALLEY":" ","HOUSE_NO":"２３１號五樓之５","E_COORD97":165551.87,"N_COORD97":2544199.1600000001,"ADDRESS":"建平十七街２３１號五樓之５","OBJECTID":635950},"geometry":{"x":165551.87000000104,"y":2544199.1600000001}},{"attributes":{"ID":635978,"DIS_CODE":0,"TOWNNAME":"北區","LI":"玉皇里","LIN":"4鄰","STREET":"福德街","SECT":" ","MAREA":" ","LANE":" ","ALLEY":" ","HOUSE_NO":"２１號四樓","E_COORD97":168706,"N_COORD97":2544586.75,"ADDRESS":"福德街２１號四樓","OBJECTID":635951},"geometry":{"x":168706,"y":2544586.7500000019}},{"attributes":{"ID":635979,"DIS_CODE":0,"TOWNNAME":"安平區","LI":"怡平里","LIN":"4鄰","STREET":"建平十七街","SECT":" ","MAREA":" ","LANE":" ","ALLEY":" ","HOUSE_NO":"２３１號五樓之６","E_COORD97":165551.87,"N_COORD97":2544199.1600000001,"ADDRESS":"建平十七街２３１號五樓之６","OBJECTID":635952},"geometry":{"x":165551.87000000104,"y":2544199.1600000001}},{"attributes":{"ID":635980,"DIS_CODE":0,"TOWNNAME":"安平區","LI":"怡平里","LIN":"4鄰","STREET":"建平十七街","SECT":" ","MAREA":" ","LANE":" ","ALLEY":" ","HOUSE_NO":"２３１號五樓之７","E_COORD97":165551.87,"N_COORD97":2544199.1600000001,"ADDRESS":"建平十七街２３１號五樓之７","OBJECTID":635953},"geometry":{"x":165551.87000000104,"y":2544199.1600000001}},{"attributes":{"ID":635981,"DIS_CODE":0,"TOWNNAME":"安平區","LI":"怡平里","LIN":"4鄰","STREET":"建平十七街","SECT":" ","MAREA":" ","LANE":" ","ALLEY":" ","HOUSE_NO":"２３１號五樓之８","E_COORD97":165551.87,"N_COORD97":2544199.1600000001,"ADDRESS":"建平十七街２３１號五樓之８","OBJECTID":635954},"geometry":{"x":165551.87000000104,"y":2544199.1600000001}},{"attributes":{"ID":635982,"DIS_CODE":0,"TOWNNAME":"安平區","LI":"怡平里","LIN":"4鄰","STREET":"建平十七街","SECT":" ","MAREA":" ","LANE":" ","ALLEY":" ","HOUSE_NO":"２３１號五樓之９","E_COORD97":165551.87,"N_COORD97":2544199.1600000001,"ADDRESS":"建平十七街２３１號五樓之９","OBJECTID":635955},"geometry":{"x":165551.87000000104,"y":2544199.1600000001}},{"attributes":{"ID":635983,"DIS_CODE":0,"TOWNNAME":"安平區","LI":"怡平里","LIN":"4鄰","STREET":"建平十七街","SECT":" ","MAREA":" ","LANE":" ","ALLEY":" ","HOUSE_NO":"２３１號五樓之１０","E_COORD97":165551.87,"N_COORD97":2544199.1600000001,"ADDRESS":"建平十七街２３１號五樓之１０","OBJECTID":635956},"geometry":{"x":165551.87000000104,"y":2544199.1600000001}},{"attributes":{"ID":635984,"DIS_CODE":0,"TOWNNAME":"安平區","LI":"怡平里","LIN":"4鄰","STREET":"建平十七街","SECT":" ","MAREA":" ","LANE":" ","ALLEY":" ","HOUSE_NO":"２３１號五樓之１１","E_COORD97":165551.87,"N_COORD97":2544199.1600000001,"ADDRESS":"建平十七街２３１號五樓之１１","OBJECTID":635957},"geometry":{"x":165551.87000000104,"y":2544199.1600000001}},{"attributes":{"ID":635985,"DIS_CODE":0,"TOWNNAME":"安平區","LI":"怡平里","LIN":"4鄰","STREET":"建平十七街","SECT":" ","MAREA":" ","LANE":" ","ALLEY":" ","HOUSE_NO":"２３１號五樓之１２","E_COORD97":165551.87,"N_COORD97":2544199.1600000001,"ADDRESS":"建平十七街２３１號五樓之１２","OBJECTID":635958},"geometry":{"x":165551.87000000104,"y":2544199.1600000001}},{"attributes":{"ID":635986,"DIS_CODE":0,"TOWNNAME":"安平區","LI":"怡平里","LIN":"4鄰","STREET":"建平十七街","SECT":" ","MAREA":" ","LANE":" ","ALLEY":" ","HOUSE_NO":"２３１號八樓之１１","E_COORD97":165551.87,"N_COORD97":2544199.1600000001,"ADDRESS":"建平十七街２３１號八樓之１１","OBJECTID":635959},"geometry":{"x":165551.87000000104,"y":2544199.1600000001}},{"attributes":{"ID":635987,"DIS_CODE":0,"TOWNNAME":"安平區","LI":"怡平里","LIN":"4鄰","STREET":"建平十七街","SECT":" ","MAREA":" ","LANE":" ","ALLEY":" ","HOUSE_NO":"２３１號八樓之１２","E_COORD97":165551.87,"N_COORD97":2544199.1600000001,"ADDRESS":"建平十七街２３１號八樓之１２","OBJECTID":635960},"geometry":{"x":165551.87000000104,"y":2544199.1600000001}},{"attributes":{"ID":635988,"DIS_CODE":0,"TOWNNAME":"安平區","LI":"怡平里","LIN":"4鄰","STREET":"建平十七街","SECT":" ","MAREA":" ","LANE":" ","ALLEY":" ","HOUSE_NO":"２３１號九樓之１","E_COORD97":165551.87,"N_COORD97":2544199.1600000001,"ADDRESS":"建平十七街２３１號九樓之１","OBJECTID":635961},"geometry":{"x":165551.87000000104,"y":2544199.1600000001}},{"attributes":{"ID":635989,"DIS_CODE":0,"TOWNNAME":"安平區","LI":"怡平里","LIN":"4鄰","STREET":"建平十七街","SECT":" ","MAREA":" ","LANE":" ","ALLEY":" ","HOUSE_NO":"２３１號九樓之２","E_COORD97":165551.87,"N_COORD97":2544199.1600000001,"ADDRESS":"建平十七街２３１號九樓之２","OBJECTID":635962},"geometry":{"x":165551.87000000104,"y":2544199.1600000001}},{"attributes":{"ID":635990,"DIS_CODE":0,"TOWNNAME":"安平區","LI":"怡平里","LIN":"4鄰","STREET":"建平十七街","SECT":" ","MAREA":" ","LANE":" ","ALLEY":" ","HOUSE_NO":"２３１號九樓之３","E_COORD97":165551.87,"N_COORD97":2544199.1600000001,"ADDRESS":"建平十七街２３１號九樓之３","OBJECTID":635963},"geometry":{"x":165551.87000000104,"y":2544199.1600000001}},{"attributes":{"ID":635991,"DIS_CODE":0,"TOWNNAME":"安平區","LI":"怡平里","LIN":"4鄰","STREET":"建平十七街","SECT":" ","MAREA":" ","LANE":" ","ALLEY":" ","HOUSE_NO":"２３１號九樓之４","E_COORD97":165551.87,"N_COORD97":2544199.1600000001,"ADDRESS":"建平十七街２３１號九樓之４","OBJECTID":635964},"geometry":{"x":165551.87000000104,"y":2544199.1600000001}},{"attributes":{"ID":635992,"DIS_CODE":0,"TOWNNAME":"安平區","LI":"怡平里","LIN":"4鄰","STREET":"建平十七街","SECT":" ","MAREA":" ","LANE":" ","ALLEY":" ","HOUSE_NO":"２３１號九樓之５","E_COORD97":165551.87,"N_COORD97":2544199.1600000001,"ADDRESS":"建平十七街２３１號九樓之５","OBJECTID":635965},"geometry":{"x":165551.87000000104,"y":2544199.1600000001}},{"attributes":{"ID":635993,"DIS_CODE":0,"TOWNNAME":"安平區","LI":"怡平里","LIN":"4鄰","STREET":"建平十七街","SECT":" ","MAREA":" ","LANE":" ","ALLEY":" ","HOUSE_NO":"２３１號九樓之６","E_COORD97":165551.87,"N_COORD97":2544199.1600000001,"ADDRESS":"建平十七街２３１號九樓之６","OBJECTID":635966},"geometry":{"x":165551.87000000104,"y":2544199.1600000001}},{"attributes":{"ID":635994,"DIS_CODE":0,"TOWNNAME":"安平區","LI":"建平里","LIN":"20鄰","STREET":"文平路","SECT":" ","MAREA":" ","LANE":" ","ALLEY":" ","HOUSE_NO":"４７６號四樓之１","E_COORD97":165833.76000000001,"N_COORD97":2543900.6400000001,"ADDRESS":"文平路４７６號四樓之１","OBJECTID":635967},"geometry":{"x":165833.76000000071,"y":2543900.6400000006}},{"attributes":{"ID":635995,"DIS_CODE":0,"TOWNNAME":"北區","LI":"東興里","LIN":"8鄰","STREET":"小東路","SECT":" ","MAREA":" ","LANE":" ","ALLEY":" ","HOUSE_NO":"３７３號二樓","E_COORD97":171255.48000000001,"N_COORD97":2544379.9900000002,"ADDRESS":"小東路３７３號二樓","OBJECTID":635968},"geometry":{"x":171255.48000000138,"y":2544379.9900000002}},{"attributes":{"ID":635996,"DIS_CODE":0,"TOWNNAME":"北區","LI":"東興里","LIN":"8鄰","STREET":"小東路","SECT":" ","MAREA":" ","LANE":" ","ALLEY":" ","HOUSE_NO":"３７３號三樓","E_COORD97":171255.48000000001,"N_COORD97":2544379.9900000002,"ADDRESS":"小東路３７３號三樓","OBJECTID":635969},"geometry":{"x":171255.48000000138,"y":2544379.9900000002}},{"attributes":{"ID":635997,"DIS_CODE":0,"TOWNNAME":"北區","LI":"東興里","LIN":"8鄰","STREET":"小東路","SECT":" ","MAREA":" ","LANE":" ","ALLEY":" ","HOUSE_NO":"３７３號四樓","E_COORD97":171255.48000000001,"N_COORD97":2544379.9900000002,"ADDRESS":"小東路３７３號四樓","OBJECTID":635970},"geometry":{"x":171255.48000000138,"y":2544379.9900000002}},{"attributes":{"ID":635998,"DIS_CODE":0,"TOWNNAME":"歸仁區","LI":"辜厝里","LIN":"25鄰","STREET":"大順街","SECT":" ","MAREA":" ","LANE":" ","ALLEY":" ","HOUSE_NO":"５９號三樓之１","E_COORD97":177374.31,"N_COORD97":2540596.1600000001,"ADDRESS":"大順街５９號三樓之１","OBJECTID":635971},"geometry":{"x":177374.30999999959,"y":2540596.160000002}},{"attributes":{"ID":635999,"DIS_CODE":0,"TOWNNAME":"歸仁區","LI":"許厝里","LIN":"18鄰","STREET":"仁愛北街","SECT":" ","MAREA":" ","LANE":" ","ALLEY":" ","HOUSE_NO":"６２號八樓","E_COORD97":178300.42999999999,"N_COORD97":2540875.25,"ADDRESS":"仁愛北街６２號八樓","OBJECTID":635972},"geometry":{"x":178300.43000000063,"y":2540875.25}},{"attributes":{"ID":636000,"DIS_CODE":0,"TOWNNAME":"歸仁區","LI":"辜厝里","LIN":"18鄰","STREET":"大順一街","SECT":" ","MAREA":" ","LANE":" ","ALLEY":" ","HOUSE_NO":"１號十二樓","E_COORD97":177457.92999999999,"N_COORD97":2540505.9500000002,"ADDRESS":"大順一街１號十二樓","OBJECTID":635973},"geometry":{"x":177457.93000000063,"y":2540505.9500000011}},{"attributes":{"ID":636001,"DIS_CODE":0,"TOWNNAME":"歸仁區","LI":"許厝里","LIN":"20鄰","STREET":"仁愛北街","SECT":" ","MAREA":" ","LANE":" ","ALLEY":" ","HOUSE_NO":"７０號七樓","E_COORD97":178300.42999999999,"N_COORD97":2540875.25,"ADDRESS":"仁愛北街７０號七樓","OBJECTID":635974},"geometry":{"x":178300.43000000063,"y":2540875.25}},{"attributes":{"ID":636002,"DIS_CODE":0,"TOWNNAME":"歸仁區","LI":"許厝里","LIN":"20鄰","STREET":"忠孝北路","SECT":" ","MAREA":" ","LANE":" ","ALLEY":" ","HOUSE_NO":"９３號三樓","E_COORD97":178330.42000000001,"N_COORD97":2540884.25,"ADDRESS":"忠孝北路９３號三樓","OBJECTID":635975},"geometry":{"x":178330.41999999993,"y":2540884.2500000019}},{"attributes":{"ID":636003,"DIS_CODE":0,"TOWNNAME":"歸仁區","LI":"辜厝里","LIN":"26鄰","STREET":"大順三街","SECT":" ","MAREA":" ","LANE":" ","ALLEY":" ","HOUSE_NO":"５號四樓之１","E_COORD97":177371.10999999999,"N_COORD97":2540575.1600000001,"ADDRESS":"大順三街５號四樓之１","OBJECTID":635976},"geometry":{"x":177371.11000000127,"y":2540575.1599999983}},{"attributes":{"ID":636004,"DIS_CODE":0,"TOWNNAME":"歸仁區","LI":"後市里","LIN":"13鄰","STREET":"中山路","SECT":"二段","MAREA":" ","LANE":" ","ALLEY":" ","HOUSE_NO":"２２３號六樓","E_COORD97":177091.98999999999,"N_COORD97":2540825.25,"ADDRESS":"中山路二段２２３號六樓","OBJECTID":635977},"geometry":{"x":177091.99000000115,"y":2540825.2499999981}},{"attributes":{"ID":636005,"DIS_CODE":0,"TOWNNAME":"歸仁區","LI":"後市里","LIN":"13鄰","STREET":"中山路","SECT":"二段","MAREA":" ","LANE":" ","ALLEY":" ","HOUSE_NO":"２２３號八樓","E_COORD97":177091.98999999999,"N_COORD97":2540825.25,"ADDRESS":"中山路二段２２３號八樓","OBJECTID":635978},"geometry":{"x":177091.99000000115,"y":2540825.2499999981}},{"attributes":{"ID":636006,"DIS_CODE":0,"TOWNNAME":"歸仁區","LI":"歸仁里","LIN":"4鄰","STREET":"和平北街","SECT":" ","MAREA":" ","LANE":" ","ALLEY":" ","HOUSE_NO":"６５號五樓","E_COORD97":177842.59,"N_COORD97":2541006.04,"ADDRESS":"和平北街６５號五樓","OBJECTID":635979},"geometry":{"x":177842.58999999985,"y":2541006.040000001}},{"attributes":{"ID":636007,"DIS_CODE":0,"TOWNNAME":"歸仁區","LI":"許厝里","LIN":"18鄰","STREET":"仁愛北街","SECT":" ","MAREA":" ","LANE":" ","ALLEY":" ","HOUSE_NO":"５６號八樓","E_COORD97":178300.32999999999,"N_COORD97":2540855.25,"ADDRESS":"仁愛北街５６號八樓","OBJECTID":635980},"geometry":{"x":178300.33000000007,"y":2540855.25}},{"attributes":{"ID":636008,"DIS_CODE":0,"TOWNNAME":"歸仁區","LI":"文化里","LIN":"20鄰","STREET":"大德路","SECT":" ","MAREA":" ","LANE":" ","ALLEY":" ","HOUSE_NO":"２１１號三樓之１０","E_COORD97":177223.85999999999,"N_COORD97":2541515.3399999999,"ADDRESS":"大德路２１１號三樓之１０","OBJECTID":635981},"geometry":{"x":177223.86000000034,"y":2541515.3399999999}},{"attributes":{"ID":636009,"DIS_CODE":0,"TOWNNAME":"歸仁區","LI":"文化里","LIN":"20鄰","STREET":"大德路","SECT":" ","MAREA":" ","LANE":" ","ALLEY":" ","HOUSE_NO":"２１１號三樓之８","E_COORD97":177223.63,"N_COORD97":2541515.3399999999,"ADDRESS":"大德路２１１號三樓之８","OBJECTID":635982},"geometry":{"x":177223.62999999989,"y":2541515.3399999999}},{"attributes":{"ID":636010,"DIS_CODE":0,"TOWNNAME":"歸仁區","LI":"辜厝里","LIN":"24鄰","STREET":"大順街","SECT":" ","MAREA":" ","LANE":" ","ALLEY":" ","HOUSE_NO":"４９號五樓之１","E_COORD97":177399.91,"N_COORD97":2540595.1600000001,"ADDRESS":"大順街４９號五樓之１","OBJECTID":635983},"geometry":{"x":177399.91000000015,"y":2540595.1600000001}},{"attributes":{"ID":636011,"DIS_CODE":0,"TOWNNAME":"歸仁區","LI":"許厝里","LIN":"17鄰","STREET":"忠孝北路","SECT":" ","MAREA":" ","LANE":" ","ALLEY":" ","HOUSE_NO":"３３號二樓","E_COORD97":178444.22,"N_COORD97":2540724.25,"ADDRESS":"忠孝北路３３號二樓","OBJECTID":635984},"geometry":{"x":178444.22000000067,"y":2540724.2500000019}},{"attributes":{"ID":636012,"DIS_CODE":0,"TOWNNAME":"歸仁區","LI":"歸仁里","LIN":"4鄰","STREET":"和平北街","SECT":" ","MAREA":" ","LANE":" ","ALLEY":" ","HOUSE_NO":"６５號七樓","E_COORD97":177842.59,"N_COORD97":2541006.04,"ADDRESS":"和平北街６５號七樓","OBJECTID":635985},"geometry":{"x":177842.58999999985,"y":2541006.040000001}},{"attributes":{"ID":636013,"DIS_CODE":0,"TOWNNAME":"歸仁區","LI":"許厝里","LIN":"18鄰","STREET":"仁愛北街","SECT":" ","MAREA":" ","LANE":" ","ALLEY":" ","HOUSE_NO":"６４號二樓","E_COORD97":178300.42999999999,"N_COORD97":2540875.25,"ADDRESS":"仁愛北街６４號二樓","OBJECTID":635986},"geometry":{"x":178300.43000000063,"y":2540875.25}},{"attributes":{"ID":636014,"DIS_CODE":0,"TOWNNAME":"歸仁區","LI":"文化里","LIN":"20鄰","STREET":"大德路","SECT":" ","MAREA":" ","LANE":" ","ALLEY":" ","HOUSE_NO":"２１１號三樓之３","E_COORD97":177223.62,"N_COORD97":2541515.3399999999,"ADDRESS":"大德路２１１號三樓之３","OBJECTID":635987},"geometry":{"x":177223.62000000011,"y":2541515.3399999999}},{"attributes":{"ID":636015,"DIS_CODE":0,"TOWNNAME":"歸仁區","LI":"文化里","LIN":"20鄰","STREET":"大德路","SECT":" ","MAREA":" ","LANE":" ","ALLEY":" ","HOUSE_NO":"２１１號三樓之９","E_COORD97":177223.60999999999,"N_COORD97":2541515.3399999999,"ADDRESS":"大德路２１１號三樓之９","OBJECTID":635988},"geometry":{"x":177223.61000000127,"y":2541515.3399999999}},{"attributes":{"ID":636016,"DIS_CODE":0,"TOWNNAME":"歸仁區","LI":"辜厝里","LIN":"26鄰","STREET":"大順三街","SECT":" ","MAREA":" ","LANE":" ","ALLEY":" ","HOUSE_NO":"５號三樓之２","E_COORD97":177371.13,"N_COORD97":2540575.1600000001,"ADDRESS":"大順三街５號三樓之２","OBJECTID":635989},"geometry":{"x":177371.12999999989,"y":2540575.1599999983}},{"attributes":{"ID":636017,"DIS_CODE":0,"TOWNNAME":"歸仁區","LI":"南興里","LIN":"32鄰","STREET":"文化九街","SECT":" ","MAREA":" ","LANE":" ","ALLEY":" ","HOUSE_NO":"４３號三樓","E_COORD97":176367.23999999999,"N_COORD97":2541119.3300000001,"ADDRESS":"文化九街４３號三樓","OBJECTID":635990},"geometry":{"x":176367.24000000022,"y":2541119.3300000001}},{"attributes":{"ID":636018,"DIS_CODE":0,"TOWNNAME":"歸仁區","LI":"辜厝里","LIN":"14鄰","STREET":"中正南路","SECT":"一段","MAREA":" ","LANE":" ","ALLEY":" ","HOUSE_NO":"１１６號九樓","E_COORD97":177505.95000000001,"N_COORD97":2540501.6899999999,"ADDRESS":"中正南路一段１１６號九樓","OBJECTID":635991},"geometry":{"x":177505.95000000112,"y":2540501.6899999995}},{"attributes":{"ID":636019,"DIS_CODE":0,"TOWNNAME":"歸仁區","LI":"許厝里","LIN":"17鄰","STREET":"忠孝北路","SECT":" ","MAREA":" ","LANE":" ","ALLEY":" ","HOUSE_NO":"２９號四樓","E_COORD97":178444.22,"N_COORD97":2540724.25,"ADDRESS":"忠孝北路２９號四樓","OBJECTID":635992},"geometry":{"x":178444.22000000067,"y":2540724.2500000019}},{"attributes":{"ID":636020,"DIS_CODE":0,"TOWNNAME":"歸仁區","LI":"歸仁里","LIN":"4鄰","STREET":"和平三街","SECT":" ","MAREA":" ","LANE":" ","ALLEY":" ","HOUSE_NO":"１２號六樓","E_COORD97":177814.98999999999,"N_COORD97":2541008.04,"ADDRESS":"和平三街１２號六樓","OBJECTID":635993},"geometry":{"x":177814.99000000022,"y":2541008.0399999991}},{"attributes":{"ID":636021,"DIS_CODE":0,"TOWNNAME":"歸仁區","LI":"文化里","LIN":"20鄰","STREET":"大德路","SECT":" ","MAREA":" ","LANE":" ","ALLEY":" ","HOUSE_NO":"２１１號三樓之２","E_COORD97":177223.62,"N_COORD97":2541515.3399999999,"ADDRESS":"大德路２１１號三樓之２","OBJECTID":635994},"geometry":{"x":177223.62000000011,"y":2541515.3399999999}},{"attributes":{"ID":636022,"DIS_CODE":0,"TOWNNAME":"歸仁區","LI":"許厝里","LIN":"26鄰","STREET":"信義北路","SECT":" ","MAREA":" ","LANE":" ","ALLEY":" ","HOUSE_NO":"４６號五樓之１","E_COORD97":178001.75,"N_COORD97":2540839.2400000002,"ADDRESS":"信義北路４６號五樓之１","OBJECTID":635995},"geometry":{"x":178001.75000000093,"y":2540839.2400000039}},{"attributes":{"ID":636023,"DIS_CODE":0,"TOWNNAME":"歸仁區","LI":"後市里","LIN":"42鄰","STREET":"國光街","SECT":" ","MAREA":" ","LANE":" ","ALLEY":" ","HOUSE_NO":"８號四樓","E_COORD97":177021.73000000001,"N_COORD97":2540944.75,"ADDRESS":"國光街８號四樓","OBJECTID":635996},"geometry":{"x":177021.73000000045,"y":2540944.7500000019}},{"attributes":{"ID":636024,"DIS_CODE":0,"TOWNNAME":"歸仁區","LI":"辜厝里","LIN":"24鄰","STREET":"大順街","SECT":" ","MAREA":" ","LANE":" ","ALLEY":" ","HOUSE_NO":"４９號四樓之３","E_COORD97":177399.92999999999,"N_COORD97":2540595.1600000001,"ADDRESS":"大順街４９號四樓之３","OBJECTID":635997},"geometry":{"x":177399.93000000063,"y":2540595.1600000001}},{"attributes":{"ID":636025,"DIS_CODE":0,"TOWNNAME":"歸仁區","LI":"後市里","LIN":"36鄰","STREET":"民族一街","SECT":" ","MAREA":" ","LANE":" ","ALLEY":" ","HOUSE_NO":"２１號二樓之１","E_COORD97":177300.16,"N_COORD97":2541005.75,"ADDRESS":"民族一街２１號二樓之１","OBJECTID":635998},"geometry":{"x":177300.15999999922,"y":2541005.7500000019}},{"attributes":{"ID":636026,"DIS_CODE":0,"TOWNNAME":"歸仁區","LI":"辜厝里","LIN":"18鄰","STREET":"大順一街","SECT":" ","MAREA":" ","LANE":" ","ALLEY":" ","HOUSE_NO":"１號十一樓之１","E_COORD97":177458.35999999999,"N_COORD97":2540505.9500000002,"ADDRESS":"大順一街１號十一樓之１","OBJECTID":635999},"geometry":{"x":177458.3599999994,"y":2540505.9500000011}},{"attributes":{"ID":636027,"DIS_CODE":0,"TOWNNAME":"歸仁區","LI":"辜厝里","LIN":"18鄰","STREET":"大順一街","SECT":" ","MAREA":" ","LANE":" ","ALLEY":" ","HOUSE_NO":"１號十二樓之１","E_COORD97":177458.35999999999,"N_COORD97":2540505.9500000002,"ADDRESS":"大順一街１號十二樓之１","OBJECTID":636000},"geometry":{"x":177458.3599999994,"y":2540505.9500000011}}]}