{"displayFieldName":"TOWNNAME","fieldAliases":{"ID":"ID","DIS_CODE":"DIS_CODE","TOWNNAME":"TOWNNAME","LI":"LI","LIN":"LIN","STREET":"STREET","SECT":"SECT","MAREA":"MAREA","LANE":"LANE","ALLEY":"ALLEY","HOUSE_NO":"HOUSE_NO","E_COORD97":"E_COORD97","N_COORD97":"N_COORD97","ADDRESS":"ADDRESS","OBJECTID":"OBJECTID"},"geometryType":"esriGeometryPoint","spatialReference":{"wkid":102443,"latestWkid":3826},"fields":[{"name":"ID","type":"esriFieldTypeDouble","alias":"ID"},{"name":"DIS_CODE","type":"esriFieldTypeInteger","alias":"DIS_CODE"},{"name":"TOWNNAME","type":"esriFieldTypeString","alias":"TOWNNAME","length":8},{"name":"LI","type":"esriFieldTypeString","alias":"LI","length":8},{"name":"LIN","type":"esriFieldTypeString","alias":"LIN","length":12},{"name":"STREET","type":"esriFieldTypeString","alias":"STREET","length":20},{"name":"SECT","type":"esriFieldTypeString","alias":"SECT","length":8},{"name":"MAREA","type":"esriFieldTypeString","alias":"MAREA","length":12},{"name":"LANE","type":"esriFieldTypeString","alias":"LANE","length":10},{"name":"ALLEY","type":"esriFieldTypeString","alias":"ALLEY","length":10},{"name":"HOUSE_NO","type":"esriFieldTypeString","alias":"HOUSE_NO","length":20},{"name":"E_COORD97","type":"esriFieldTypeDouble","alias":"E_COORD97"},{"name":"N_COORD97","type":"esriFieldTypeDouble","alias":"N_COORD97"},{"name":"ADDRESS","type":"esriFieldTypeString","alias":"ADDRESS","length":50},{"name":"OBJECTID","type":"esriFieldTypeOID","alias":"OBJECTID"}],"features":[{"attributes":{"ID":42001,"DIS_CODE":0,"TOWNNAME":"官田區","LI":"西庄里","LIN":"7鄰","STREET":" ","SECT":" ","MAREA":"西庄","LANE":" ","ALLEY":" ","HOUSE_NO":"５４號","E_COORD97":177896.12,"N_COORD97":2565096.8300000001,"ADDRESS":"西庄５４號","OBJECTID":42001},"geometry":{"x":177896.12000000104,"y":2565096.8300000038}},{"attributes":{"ID":42002,"DIS_CODE":0,"TOWNNAME":"仁德區","LI":"中洲里","LIN":"7鄰","STREET":" ","SECT":" ","MAREA":"中洲","LANE":" ","ALLEY":" ","HOUSE_NO":"２７９號","E_COORD97":173195.85000000001,"N_COORD97":2534196.5,"ADDRESS":"中洲２７９號","OBJECTID":42002},"geometry":{"x":173195.84999999963,"y":2534196.5000000019}},{"attributes":{"ID":42003,"DIS_CODE":0,"TOWNNAME":"安平區","LI":"石門里","LIN":"7鄰","STREET":"安北路","SECT":" ","MAREA":" ","LANE":"４０巷","ALLEY":"１７弄","HOUSE_NO":"３號","E_COORD97":164601.59,"N_COORD97":2544641.6099999999,"ADDRESS":"安北路４０巷１７弄３號","OBJECTID":42003},"geometry":{"x":164601.58999999985,"y":2544641.6100000013}},{"attributes":{"ID":42004,"DIS_CODE":0,"TOWNNAME":"安平區","LI":"石門里","LIN":"7鄰","STREET":"安北路","SECT":" ","MAREA":" ","LANE":"４０巷","ALLEY":"１７弄","HOUSE_NO":"４號","E_COORD97":164623.78,"N_COORD97":2544640.3300000001,"ADDRESS":"安北路４０巷１７弄４號","OBJECTID":42004},"geometry":{"x":164623.78000000119,"y":2544640.3300000019}},{"attributes":{"ID":42005,"DIS_CODE":0,"TOWNNAME":"安南區","LI":"理想里","LIN":"15鄰","STREET":"大安街","SECT":" ","MAREA":" ","LANE":" ","ALLEY":" ","HOUSE_NO":"１０９號","E_COORD97":167250.31,"N_COORD97":2548115.2799999998,"ADDRESS":"大安街１０９號","OBJECTID":42005},"geometry":{"x":167250.31000000052,"y":2548115.2800000012}},{"attributes":{"ID":42006,"DIS_CODE":0,"TOWNNAME":"安平區","LI":"石門里","LIN":"7鄰","STREET":"安北路","SECT":" ","MAREA":" ","LANE":"４０巷","ALLEY":"１７弄","HOUSE_NO":"５號","E_COORD97":164598.5,"N_COORD97":2544643.9300000002,"ADDRESS":"安北路４０巷１７弄５號","OBJECTID":42006},"geometry":{"x":164598.5,"y":2544643.9299999997}},{"attributes":{"ID":42007,"DIS_CODE":0,"TOWNNAME":"安平區","LI":"石門里","LIN":"7鄰","STREET":"安北路","SECT":" ","MAREA":" ","LANE":"４０巷","ALLEY":"１７弄","HOUSE_NO":"６號","E_COORD97":164622.48999999999,"N_COORD97":2544642.3900000001,"ADDRESS":"安北路４０巷１７弄６號","OBJECTID":42007},"geometry":{"x":164622.49000000022,"y":2544642.3900000006}},{"attributes":{"ID":42008,"DIS_CODE":0,"TOWNNAME":"安平區","LI":"石門里","LIN":"7鄰","STREET":"安北路","SECT":" ","MAREA":" ","LANE":"４０巷","ALLEY":"１７弄","HOUSE_NO":"７號","E_COORD97":164596.17999999999,"N_COORD97":2544647.2799999998,"ADDRESS":"安北路４０巷１７弄７號","OBJECTID":42008},"geometry":{"x":164596.18000000063,"y":2544647.2799999993}},{"attributes":{"ID":42009,"DIS_CODE":0,"TOWNNAME":"安平區","LI":"石門里","LIN":"7鄰","STREET":"安北路","SECT":" ","MAREA":" ","LANE":"４０巷","ALLEY":"１７弄","HOUSE_NO":"８號","E_COORD97":164618.88,"N_COORD97":2544644.96,"ADDRESS":"安北路４０巷１７弄８號","OBJECTID":42009},"geometry":{"x":164618.88000000082,"y":2544644.9600000009}},{"attributes":{"ID":42010,"DIS_CODE":0,"TOWNNAME":"安平區","LI":"西門里","LIN":"7鄰","STREET":"安北路","SECT":" ","MAREA":" ","LANE":"２３３巷","ALLEY":"４弄","HOUSE_NO":"６號","E_COORD97":163830.07000000001,"N_COORD97":2544691.0600000001,"ADDRESS":"安北路２３３巷４弄６號","OBJECTID":42010},"geometry":{"x":163830.07000000123,"y":2544691.0600000005}},{"attributes":{"ID":42011,"DIS_CODE":0,"TOWNNAME":"安平區","LI":"西門里","LIN":"7鄰","STREET":"安北路","SECT":" ","MAREA":" ","LANE":"２３３巷","ALLEY":"４弄","HOUSE_NO":"８號","E_COORD97":163843.04000000001,"N_COORD97":2544693.29,"ADDRESS":"安北路２３３巷４弄８號","OBJECTID":42011},"geometry":{"x":163843.04000000097,"y":2544693.290000001}},{"attributes":{"ID":42012,"DIS_CODE":0,"TOWNNAME":"新營區","LI":"太南里","LIN":"20鄰","STREET":" ","SECT":" ","MAREA":"太子宮","LANE":" ","ALLEY":" ","HOUSE_NO":"１６３號","E_COORD97":176261.87,"N_COORD97":2576999.4399999999,"ADDRESS":"太子宮１６３號","OBJECTID":42012},"geometry":{"x":176261.87000000104,"y":2576999.4400000013}},{"attributes":{"ID":42013,"DIS_CODE":0,"TOWNNAME":"仁德區","LI":"中生里","LIN":"7鄰","STREET":" ","SECT":" ","MAREA":"中洲","LANE":" ","ALLEY":" ","HOUSE_NO":"１４０之１８號","E_COORD97":173008.63,"N_COORD97":2534022.2999999998,"ADDRESS":"中洲１４０之１８號","OBJECTID":42013},"geometry":{"x":173008.63000000082,"y":2534022.3000000026}},{"attributes":{"ID":42014,"DIS_CODE":0,"TOWNNAME":"仁德區","LI":"中生里","LIN":"7鄰","STREET":" ","SECT":" ","MAREA":"中洲","LANE":" ","ALLEY":" ","HOUSE_NO":"１３５號","E_COORD97":172969.39999999999,"N_COORD97":2534100.75,"ADDRESS":"中洲１３５號","OBJECTID":42014},"geometry":{"x":172969.40000000224,"y":2534100.75}},{"attributes":{"ID":42015,"DIS_CODE":0,"TOWNNAME":"仁德區","LI":"中生里","LIN":"7鄰","STREET":" ","SECT":" ","MAREA":"中洲","LANE":" ","ALLEY":" ","HOUSE_NO":"１４０號之１","E_COORD97":173041.47,"N_COORD97":2534070.79,"ADDRESS":"中洲１４０號之１","OBJECTID":42015},"geometry":{"x":173041.47000000067,"y":2534070.7900000028}},{"attributes":{"ID":42016,"DIS_CODE":0,"TOWNNAME":"仁德區","LI":"中生里","LIN":"7鄰","STREET":" ","SECT":" ","MAREA":"中洲","LANE":" ","ALLEY":" ","HOUSE_NO":"１３８號","E_COORD97":172988.64999999999,"N_COORD97":2534061.9900000002,"ADDRESS":"中洲１３８號","OBJECTID":42016},"geometry":{"x":172988.6500000013,"y":2534061.9900000002}},{"attributes":{"ID":42017,"DIS_CODE":0,"TOWNNAME":"仁德區","LI":"中生里","LIN":"7鄰","STREET":" ","SECT":" ","MAREA":"中洲","LANE":" ","ALLEY":" ","HOUSE_NO":"１３９號","E_COORD97":173000.70000000001,"N_COORD97":2534052.2400000002,"ADDRESS":"中洲１３９號","OBJECTID":42017},"geometry":{"x":173000.70000000019,"y":2534052.2400000021}},{"attributes":{"ID":42018,"DIS_CODE":0,"TOWNNAME":"仁德區","LI":"中生里","LIN":"7鄰","STREET":" ","SECT":" ","MAREA":"中洲","LANE":" ","ALLEY":" ","HOUSE_NO":"１３９號之１","E_COORD97":172997.81,"N_COORD97":2534047.54,"ADDRESS":"中洲１３９號之１","OBJECTID":42018},"geometry":{"x":172997.80999999959,"y":2534047.5399999991}},{"attributes":{"ID":42019,"DIS_CODE":0,"TOWNNAME":"仁德區","LI":"中生里","LIN":"7鄰","STREET":" ","SECT":" ","MAREA":"中洲","LANE":" ","ALLEY":" ","HOUSE_NO":"１４１之３５號","E_COORD97":172945.38,"N_COORD97":2534152.04,"ADDRESS":"中洲１４１之３５號","OBJECTID":42019},"geometry":{"x":172945.38000000175,"y":2534152.0399999991}},{"attributes":{"ID":42020,"DIS_CODE":0,"TOWNNAME":"仁德區","LI":"中生里","LIN":"7鄰","STREET":" ","SECT":" ","MAREA":"中洲","LANE":" ","ALLEY":" ","HOUSE_NO":"１４１號之３","E_COORD97":172970.17999999999,"N_COORD97":2534157.54,"ADDRESS":"中洲１４１號之３","OBJECTID":42020},"geometry":{"x":172970.18000000156,"y":2534157.540000001}},{"attributes":{"ID":42021,"DIS_CODE":0,"TOWNNAME":"永康區","LI":"網寮里","LIN":"17鄰","STREET":"永興路","SECT":" ","MAREA":" ","LANE":"４２７巷","ALLEY":" ","HOUSE_NO":"５號","E_COORD97":173282.54999999999,"N_COORD97":2546856.6200000001,"ADDRESS":"永興路４２７巷５號","OBJECTID":42021},"geometry":{"x":173282.54999999981,"y":2546856.6200000029}},{"attributes":{"ID":42022,"DIS_CODE":0,"TOWNNAME":"仁德區","LI":"中生里","LIN":"7鄰","STREET":" ","SECT":" ","MAREA":"中洲","LANE":" ","ALLEY":" ","HOUSE_NO":"１４０之８號","E_COORD97":173015.20999999999,"N_COORD97":2534033.54,"ADDRESS":"中洲１４０之８號","OBJECTID":42022},"geometry":{"x":173015.20999999996,"y":2534033.5399999991}},{"attributes":{"ID":42023,"DIS_CODE":0,"TOWNNAME":"仁德區","LI":"中生里","LIN":"7鄰","STREET":" ","SECT":" ","MAREA":"中洲","LANE":" ","ALLEY":" ","HOUSE_NO":"１３３號","E_COORD97":172954.32000000001,"N_COORD97":2534127,"ADDRESS":"中洲１３３號","OBJECTID":42023},"geometry":{"x":172954.3200000003,"y":2534127}},{"attributes":{"ID":42024,"DIS_CODE":0,"TOWNNAME":"仁德區","LI":"中生里","LIN":"7鄰","STREET":" ","SECT":" ","MAREA":"中洲","LANE":" ","ALLEY":" ","HOUSE_NO":"１４１號之１","E_COORD97":172983.98999999999,"N_COORD97":2534147.79,"ADDRESS":"中洲１４１號之１","OBJECTID":42024},"geometry":{"x":172983.99000000209,"y":2534147.7899999991}},{"attributes":{"ID":42025,"DIS_CODE":0,"TOWNNAME":"仁德區","LI":"中生里","LIN":"7鄰","STREET":" ","SECT":" ","MAREA":"中洲","LANE":" ","ALLEY":" ","HOUSE_NO":"１４０號之２","E_COORD97":173033.39999999999,"N_COORD97":2534063.54,"ADDRESS":"中洲１４０號之２","OBJECTID":42025},"geometry":{"x":173033.40000000037,"y":2534063.540000001}},{"attributes":{"ID":42026,"DIS_CODE":0,"TOWNNAME":"仁德區","LI":"中生里","LIN":"7鄰","STREET":" ","SECT":" ","MAREA":"中洲","LANE":" ","ALLEY":" ","HOUSE_NO":"１３７號","E_COORD97":173000.73999999999,"N_COORD97":2534079.5,"ADDRESS":"中洲１３７號","OBJECTID":42026},"geometry":{"x":173000.73999999929,"y":2534079.5}},{"attributes":{"ID":42027,"DIS_CODE":0,"TOWNNAME":"仁德區","LI":"中生里","LIN":"7鄰","STREET":" ","SECT":" ","MAREA":"中洲","LANE":" ","ALLEY":" ","HOUSE_NO":"１４５號","E_COORD97":173051.64999999999,"N_COORD97":2534141.7400000002,"ADDRESS":"中洲１４５號","OBJECTID":42027},"geometry":{"x":173051.65000000037,"y":2534141.7400000002}},{"attributes":{"ID":42028,"DIS_CODE":0,"TOWNNAME":"仁德區","LI":"中洲里","LIN":"7鄰","STREET":" ","SECT":" ","MAREA":"中洲","LANE":" ","ALLEY":" ","HOUSE_NO":"２７６號之５","E_COORD97":173187.07999999999,"N_COORD97":2534233.29,"ADDRESS":"中洲２７６號之５","OBJECTID":42028},"geometry":{"x":173187.08000000101,"y":2534233.2900000028}},{"attributes":{"ID":42029,"DIS_CODE":0,"TOWNNAME":"仁德區","LI":"中洲里","LIN":"7鄰","STREET":" ","SECT":" ","MAREA":"中洲","LANE":" ","ALLEY":" ","HOUSE_NO":"２７６之１０號","E_COORD97":173151.91,"N_COORD97":2534242.79,"ADDRESS":"中洲２７６之１０號","OBJECTID":42029},"geometry":{"x":173151.91000000015,"y":2534242.7899999991}},{"attributes":{"ID":42030,"DIS_CODE":0,"TOWNNAME":"仁德區","LI":"仁愛里","LIN":"7鄰","STREET":" ","SECT":" ","MAREA":"仁愛","LANE":" ","ALLEY":" ","HOUSE_NO":"１１９號","E_COORD97":170301.80501400001,"N_COORD97":2539769.5099999998,"ADDRESS":"仁愛１１９號","OBJECTID":42030},"geometry":{"x":170301.80501400214,"y":2539769.5100000016}},{"attributes":{"ID":42031,"DIS_CODE":0,"TOWNNAME":"仁德區","LI":"仁愛里","LIN":"7鄰","STREET":" ","SECT":" ","MAREA":"仁愛","LANE":" ","ALLEY":" ","HOUSE_NO":"１２２號","E_COORD97":170291.953767,"N_COORD97":2539769.5099999998,"ADDRESS":"仁愛１２２號","OBJECTID":42031},"geometry":{"x":170291.9537670007,"y":2539769.5100000016}},{"attributes":{"ID":42032,"DIS_CODE":0,"TOWNNAME":"仁德區","LI":"仁愛里","LIN":"7鄰","STREET":" ","SECT":" ","MAREA":"仁愛","LANE":" ","ALLEY":" ","HOUSE_NO":"１２３號","E_COORD97":170288.775945,"N_COORD97":2539769.5099999998,"ADDRESS":"仁愛１２３號","OBJECTID":42032},"geometry":{"x":170288.77594500035,"y":2539769.5100000016}},{"attributes":{"ID":42033,"DIS_CODE":0,"TOWNNAME":"仁德區","LI":"仁愛里","LIN":"7鄰","STREET":" ","SECT":" ","MAREA":"仁愛","LANE":" ","ALLEY":" ","HOUSE_NO":"１２５號","E_COORD97":170282.42030200001,"N_COORD97":2539769.5099999998,"ADDRESS":"仁愛１２５號","OBJECTID":42033},"geometry":{"x":170282.42030200176,"y":2539769.5100000016}},{"attributes":{"ID":42034,"DIS_CODE":0,"TOWNNAME":"安南區","LI":"長安里","LIN":"20鄰","STREET":"長和路","SECT":"四段","MAREA":" ","LANE":" ","ALLEY":" ","HOUSE_NO":"５８６號","E_COORD97":167826.07000000001,"N_COORD97":2551996.4300000002,"ADDRESS":"長和路四段５８６號","OBJECTID":42034},"geometry":{"x":167826.0700000003,"y":2551996.4300000016}},{"attributes":{"ID":42035,"DIS_CODE":0,"TOWNNAME":"仁德區","LI":"中生里","LIN":"7鄰","STREET":" ","SECT":" ","MAREA":"中洲","LANE":" ","ALLEY":" ","HOUSE_NO":"１３４號","E_COORD97":172956.38,"N_COORD97":2534123,"ADDRESS":"中洲１３４號","OBJECTID":42035},"geometry":{"x":172956.37999999989,"y":2534123}},{"attributes":{"ID":42036,"DIS_CODE":0,"TOWNNAME":"仁德區","LI":"中生里","LIN":"7鄰","STREET":" ","SECT":" ","MAREA":"中洲","LANE":" ","ALLEY":" ","HOUSE_NO":"１４２號","E_COORD97":173013.64999999999,"N_COORD97":2534093.75,"ADDRESS":"中洲１４２號","OBJECTID":42036},"geometry":{"x":173013.6500000013,"y":2534093.7500000019}},{"attributes":{"ID":42037,"DIS_CODE":0,"TOWNNAME":"仁德區","LI":"中生里","LIN":"7鄰","STREET":" ","SECT":" ","MAREA":"中洲","LANE":" ","ALLEY":" ","HOUSE_NO":"１４１之３６號","E_COORD97":172946.92999999999,"N_COORD97":2534147.54,"ADDRESS":"中洲１４１之３６號","OBJECTID":42037},"geometry":{"x":172946.93000000063,"y":2534147.540000001}},{"attributes":{"ID":42038,"DIS_CODE":0,"TOWNNAME":"南區","LI":"郡南里","LIN":"20鄰","STREET":"中華南路","SECT":"二段","MAREA":" ","LANE":" ","ALLEY":" ","HOUSE_NO":"４２號之１","E_COORD97":167391.72,"N_COORD97":2540336.98,"ADDRESS":"中華南路二段４２號之１","OBJECTID":42038},"geometry":{"x":167391.72000000067,"y":2540336.9800000023}},{"attributes":{"ID":42039,"DIS_CODE":0,"TOWNNAME":"安南區","LI":"安順里","LIN":"17鄰","STREET":"開安二街","SECT":" ","MAREA":" ","LANE":" ","ALLEY":" ","HOUSE_NO":"１６號","E_COORD97":170488.06,"N_COORD97":2549748.7799999998,"ADDRESS":"開安二街１６號","OBJECTID":42039},"geometry":{"x":170488.06000000052,"y":2549748.7800000012}},{"attributes":{"ID":42040,"DIS_CODE":0,"TOWNNAME":"大內區","LI":"石湖里","LIN":"17鄰","STREET":" ","SECT":" ","MAREA":"新厝子","LANE":" ","ALLEY":" ","HOUSE_NO":"４０之５號","E_COORD97":184278.38,"N_COORD97":2560797.75,"ADDRESS":"新厝子４０之５號","OBJECTID":42040},"geometry":{"x":184278.38000000082,"y":2560797.75}},{"attributes":{"ID":42041,"DIS_CODE":0,"TOWNNAME":"大內區","LI":"石湖里","LIN":"17鄰","STREET":" ","SECT":" ","MAREA":"新厝子","LANE":" ","ALLEY":" ","HOUSE_NO":"４２號之１１","E_COORD97":184269.62,"N_COORD97":2561125.77,"ADDRESS":"新厝子４２號之１１","OBJECTID":42041},"geometry":{"x":184269.62000000104,"y":2561125.7699999996}},{"attributes":{"ID":42042,"DIS_CODE":0,"TOWNNAME":"大內區","LI":"石湖里","LIN":"17鄰","STREET":" ","SECT":" ","MAREA":"新厝子","LANE":" ","ALLEY":" ","HOUSE_NO":"４５之２號","E_COORD97":183653.13,"N_COORD97":2561020.2200000002,"ADDRESS":"新厝子４５之２號","OBJECTID":42042},"geometry":{"x":183653.12999999989,"y":2561020.2200000025}},{"attributes":{"ID":42043,"DIS_CODE":0,"TOWNNAME":"大內區","LI":"石湖里","LIN":"17鄰","STREET":" ","SECT":" ","MAREA":"新厝子","LANE":" ","ALLEY":" ","HOUSE_NO":"４９之１號","E_COORD97":183504.67999999999,"N_COORD97":2560926.8700000001,"ADDRESS":"新厝子４９之１號","OBJECTID":42043},"geometry":{"x":183504.68000000063,"y":2560926.870000001}},{"attributes":{"ID":42044,"DIS_CODE":0,"TOWNNAME":"大內區","LI":"石湖里","LIN":"17鄰","STREET":" ","SECT":" ","MAREA":"新厝子","LANE":" ","ALLEY":" ","HOUSE_NO":"４９之２號","E_COORD97":183504.85999999999,"N_COORD97":2560921.0099999998,"ADDRESS":"新厝子４９之２號","OBJECTID":42044},"geometry":{"x":183504.86000000034,"y":2560921.0099999998}},{"attributes":{"ID":42045,"DIS_CODE":0,"TOWNNAME":"仁德區","LI":"中生里","LIN":"7鄰","STREET":" ","SECT":" ","MAREA":"中洲","LANE":" ","ALLEY":" ","HOUSE_NO":"１４１之２５號","E_COORD97":172850.88,"N_COORD97":2534171.79,"ADDRESS":"中洲１４１之２５號","OBJECTID":42045},"geometry":{"x":172850.88000000082,"y":2534171.7899999991}},{"attributes":{"ID":42046,"DIS_CODE":0,"TOWNNAME":"仁德區","LI":"中生里","LIN":"7鄰","STREET":" ","SECT":" ","MAREA":"中洲","LANE":" ","ALLEY":" ","HOUSE_NO":"１４６號","E_COORD97":173054.37,"N_COORD97":2534124,"ADDRESS":"中洲１４６號","OBJECTID":42046},"geometry":{"x":173054.37000000104,"y":2534124}},{"attributes":{"ID":42047,"DIS_CODE":0,"TOWNNAME":"仁德區","LI":"中洲里","LIN":"7鄰","STREET":" ","SECT":" ","MAREA":"中洲","LANE":" ","ALLEY":" ","HOUSE_NO":"２７７號","E_COORD97":173192.85000000001,"N_COORD97":2534246.4900000002,"ADDRESS":"中洲２７７號","OBJECTID":42047},"geometry":{"x":173192.85000000056,"y":2534246.4899999984}},{"attributes":{"ID":42048,"DIS_CODE":0,"TOWNNAME":"安平區","LI":"西門里","LIN":"7鄰","STREET":"安北路","SECT":" ","MAREA":" ","LANE":"２３３巷","ALLEY":"１弄","HOUSE_NO":"５號","E_COORD97":163763.59,"N_COORD97":2544763.0800000001,"ADDRESS":"安北路２３３巷１弄５號","OBJECTID":42048},"geometry":{"x":163763.58999999985,"y":2544763.0800000038}},{"attributes":{"ID":42049,"DIS_CODE":0,"TOWNNAME":"安平區","LI":"西門里","LIN":"7鄰","STREET":"安北路","SECT":" ","MAREA":" ","LANE":"２３３巷","ALLEY":"１弄","HOUSE_NO":"７號","E_COORD97":163769.85999999999,"N_COORD97":2544764.8700000001,"ADDRESS":"安北路２３３巷１弄７號","OBJECTID":42049},"geometry":{"x":163769.8600000022,"y":2544764.870000001}},{"attributes":{"ID":42050,"DIS_CODE":0,"TOWNNAME":"安平區","LI":"西門里","LIN":"7鄰","STREET":"安北路","SECT":" ","MAREA":" ","LANE":"２３３巷","ALLEY":"１弄","HOUSE_NO":"９號","E_COORD97":163774.79000000001,"N_COORD97":2544767.5600000001,"ADDRESS":"安北路２３３巷１弄９號","OBJECTID":42050},"geometry":{"x":163774.79000000004,"y":2544767.5600000024}},{"attributes":{"ID":42051,"DIS_CODE":0,"TOWNNAME":"歸仁區","LI":"大潭里","LIN":"8鄰","STREET":"長榮路","SECT":"一段","MAREA":" ","LANE":"２００巷","ALLEY":"６５弄","HOUSE_NO":"２號","E_COORD97":175151.92000000001,"N_COORD97":2534489.9700000002,"ADDRESS":"長榮路一段２００巷６５弄２號","OBJECTID":42051},"geometry":{"x":175151.91999999993,"y":2534489.9700000007}},{"attributes":{"ID":42052,"DIS_CODE":0,"TOWNNAME":"歸仁區","LI":"媽廟里","LIN":"7鄰","STREET":"中正北路","SECT":"三段","MAREA":" ","LANE":"２０５巷","ALLEY":"２３弄","HOUSE_NO":"３號","E_COORD97":177505.70999999999,"N_COORD97":2543867.7200000002,"ADDRESS":"中正北路三段２０５巷２３弄３號","OBJECTID":42052},"geometry":{"x":177505.71000000089,"y":2543867.7200000044}},{"attributes":{"ID":42053,"DIS_CODE":0,"TOWNNAME":"歸仁區","LI":"媽廟里","LIN":"7鄰","STREET":"中正北路","SECT":"三段","MAREA":" ","LANE":"２０５巷","ALLEY":"２３弄","HOUSE_NO":"１７號","E_COORD97":177500.66,"N_COORD97":2543839.7200000002,"ADDRESS":"中正北路三段２０５巷２３弄１７號","OBJECTID":42053},"geometry":{"x":177500.66000000108,"y":2543839.7200000007}},{"attributes":{"ID":42054,"DIS_CODE":0,"TOWNNAME":"歸仁區","LI":"媽廟里","LIN":"7鄰","STREET":"中正北路","SECT":"三段","MAREA":" ","LANE":"２０５巷","ALLEY":"２３弄","HOUSE_NO":"２１號","E_COORD97":177498.66,"N_COORD97":2543831.7200000002,"ADDRESS":"中正北路三段２０５巷２３弄２１號","OBJECTID":42054},"geometry":{"x":177498.66000000201,"y":2543831.7200000025}},{"attributes":{"ID":42055,"DIS_CODE":0,"TOWNNAME":"仁德區","LI":"中生里","LIN":"7鄰","STREET":" ","SECT":" ","MAREA":"中洲","LANE":" ","ALLEY":" ","HOUSE_NO":"１４２之２號","E_COORD97":173051.70000000001,"N_COORD97":2534085.5499999998,"ADDRESS":"中洲１４２之２號","OBJECTID":42055},"geometry":{"x":173051.70000000019,"y":2534085.5500000026}},{"attributes":{"ID":42056,"DIS_CODE":0,"TOWNNAME":"歸仁區","LI":"媽廟里","LIN":"7鄰","STREET":"中正北路","SECT":"三段","MAREA":" ","LANE":"２０５巷","ALLEY":"１１弄","HOUSE_NO":"３０號","E_COORD97":177537.45999999999,"N_COORD97":2543808.7200000002,"ADDRESS":"中正北路三段２０５巷１１弄３０號","OBJECTID":42056},"geometry":{"x":177537.46000000089,"y":2543808.7200000007}},{"attributes":{"ID":42057,"DIS_CODE":0,"TOWNNAME":"歸仁區","LI":"媽廟里","LIN":"7鄰","STREET":"中正北路","SECT":"三段","MAREA":" ","LANE":"２０５巷","ALLEY":"１１弄","HOUSE_NO":"３６號","E_COORD97":177528.16,"N_COORD97":2543793.7200000002,"ADDRESS":"中正北路三段２０５巷１１弄３６號","OBJECTID":42057},"geometry":{"x":177528.16000000108,"y":2543793.7200000025}},{"attributes":{"ID":42058,"DIS_CODE":0,"TOWNNAME":"歸仁區","LI":"媽廟里","LIN":"7鄰","STREET":"中正北路","SECT":"三段","MAREA":" ","LANE":"２０５巷","ALLEY":"１１弄","HOUSE_NO":"３４號","E_COORD97":177520.06,"N_COORD97":2543807.7200000002,"ADDRESS":"中正北路三段２０５巷１１弄３４號","OBJECTID":42058},"geometry":{"x":177520.05999999959,"y":2543807.7200000025}},{"attributes":{"ID":42059,"DIS_CODE":0,"TOWNNAME":"官田區","LI":"官田里","LIN":"7鄰","STREET":" ","SECT":" ","MAREA":"官田","LANE":" ","ALLEY":" ","HOUSE_NO":"５９號之１４","E_COORD97":182744.98999999999,"N_COORD97":2564959.5499999998,"ADDRESS":"官田５９號之１４","OBJECTID":42059},"geometry":{"x":182744.99000000115,"y":2564959.5500000007}},{"attributes":{"ID":42060,"DIS_CODE":0,"TOWNNAME":"歸仁區","LI":"媽廟里","LIN":"7鄰","STREET":"中正北路","SECT":"三段","MAREA":" ","LANE":"２０５巷","ALLEY":"１１弄","HOUSE_NO":"３２號","E_COORD97":177520.06,"N_COORD97":2543807.7200000002,"ADDRESS":"中正北路三段２０５巷１１弄３２號","OBJECTID":42060},"geometry":{"x":177520.05999999959,"y":2543807.7200000025}},{"attributes":{"ID":42061,"DIS_CODE":0,"TOWNNAME":"新營區","LI":"嘉芳里","LIN":"2鄰","STREET":"復興路","SECT":" ","MAREA":" ","LANE":" ","ALLEY":" ","HOUSE_NO":"７１６號之１","E_COORD97":177202.07999999999,"N_COORD97":2578588.4900000002,"ADDRESS":"復興路７１６之１號","OBJECTID":42061},"geometry":{"x":177202.08000000007,"y":2578588.4900000002}},{"attributes":{"ID":42062,"DIS_CODE":0,"TOWNNAME":"麻豆區","LI":"東角里","LIN":"11鄰","STREET":"同仁街","SECT":" ","MAREA":" ","LANE":" ","ALLEY":" ","HOUSE_NO":"３９號之８","E_COORD97":173870.67000000001,"N_COORD97":2564551.6800000002,"ADDRESS":"同仁街３９號之８","OBJECTID":42062},"geometry":{"x":173870.67000000179,"y":2564551.6800000034}},{"attributes":{"ID":42063,"DIS_CODE":0,"TOWNNAME":"仁德區","LI":"中洲里","LIN":"7鄰","STREET":" ","SECT":" ","MAREA":"中洲","LANE":" ","ALLEY":" ","HOUSE_NO":"２７６之１６號","E_COORD97":173162.29999999999,"N_COORD97":2534261.54,"ADDRESS":"中洲２７６之１６號","OBJECTID":42063},"geometry":{"x":173162.29999999981,"y":2534261.5399999991}},{"attributes":{"ID":42064,"DIS_CODE":0,"TOWNNAME":"仁德區","LI":"中生里","LIN":"7鄰","STREET":" ","SECT":" ","MAREA":"中洲","LANE":" ","ALLEY":" ","HOUSE_NO":"１４１號之２０","E_COORD97":172893.09,"N_COORD97":2534181.79,"ADDRESS":"中洲１４１號之２０","OBJECTID":42064},"geometry":{"x":172893.09000000078,"y":2534181.7899999991}},{"attributes":{"ID":42065,"DIS_CODE":0,"TOWNNAME":"官田區","LI":"官田里","LIN":"7鄰","STREET":" ","SECT":" ","MAREA":"官田","LANE":" ","ALLEY":" ","HOUSE_NO":"５９號之１１１","E_COORD97":183912,"N_COORD97":2565670.5800000001,"ADDRESS":"官田５９號之１１１","OBJECTID":42065},"geometry":{"x":183912,"y":2565670.5800000001}},{"attributes":{"ID":42066,"DIS_CODE":0,"TOWNNAME":"新營區","LI":"王公里","LIN":"34鄰","STREET":"中正路","SECT":" ","MAREA":" ","LANE":" ","ALLEY":" ","HOUSE_NO":"２００之４４號","E_COORD97":180240.64000000001,"N_COORD97":2579757.7400000002,"ADDRESS":"中正路２００之４４號","OBJECTID":42066},"geometry":{"x":180240.63999999966,"y":2579757.7400000021}},{"attributes":{"ID":42067,"DIS_CODE":0,"TOWNNAME":"歸仁區","LI":"媽廟里","LIN":"7鄰","STREET":"中正北路","SECT":"三段","MAREA":" ","LANE":"２０５巷","ALLEY":"２３弄","HOUSE_NO":"２７號","E_COORD97":177496.45999999999,"N_COORD97":2543820.7200000002,"ADDRESS":"中正北路三段２０５巷２３弄２７號","OBJECTID":42067},"geometry":{"x":177496.46000000183,"y":2543820.7200000025}},{"attributes":{"ID":42068,"DIS_CODE":0,"TOWNNAME":"官田區","LI":"官田里","LIN":"7鄰","STREET":" ","SECT":" ","MAREA":"官田","LANE":" ","ALLEY":" ","HOUSE_NO":"５９號之１１","E_COORD97":182750.85999999999,"N_COORD97":2564939.8999999999,"ADDRESS":"官田５９號之１１","OBJECTID":42068},"geometry":{"x":182750.8600000022,"y":2564939.9000000004}},{"attributes":{"ID":42069,"DIS_CODE":0,"TOWNNAME":"歸仁區","LI":"媽廟里","LIN":"7鄰","STREET":"中正北路","SECT":"三段","MAREA":" ","LANE":"２０５巷","ALLEY":"２３弄","HOUSE_NO":"２３號","E_COORD97":177497.56,"N_COORD97":2543828.7200000002,"ADDRESS":"中正北路三段２０５巷２３弄２３號","OBJECTID":42069},"geometry":{"x":177497.56000000052,"y":2543828.7200000007}},{"attributes":{"ID":42070,"DIS_CODE":0,"TOWNNAME":"官田區","LI":"官田里","LIN":"7鄰","STREET":" ","SECT":" ","MAREA":"官田","LANE":" ","ALLEY":" ","HOUSE_NO":"５９號之１２","E_COORD97":182748.89999999999,"N_COORD97":2564946.4500000002,"ADDRESS":"官田５９號之１２","OBJECTID":42070},"geometry":{"x":182748.90000000224,"y":2564946.4500000011}},{"attributes":{"ID":42071,"DIS_CODE":0,"TOWNNAME":"歸仁區","LI":"媽廟里","LIN":"7鄰","STREET":"中正北路","SECT":"三段","MAREA":" ","LANE":"２０５巷","ALLEY":"２３弄","HOUSE_NO":"２５號","E_COORD97":177496.56,"N_COORD97":2543824.7200000002,"ADDRESS":"中正北路三段２０５巷２３弄２５號","OBJECTID":42071},"geometry":{"x":177496.55999999959,"y":2543824.7200000025}},{"attributes":{"ID":42072,"DIS_CODE":0,"TOWNNAME":"歸仁區","LI":"媽廟里","LIN":"7鄰","STREET":"中正北路","SECT":"三段","MAREA":" ","LANE":"２０５巷","ALLEY":"２３弄","HOUSE_NO":"１３號","E_COORD97":177502.76000000001,"N_COORD97":2543848.7200000002,"ADDRESS":"中正北路三段２０５巷２３弄１３號","OBJECTID":42072},"geometry":{"x":177502.76000000164,"y":2543848.7200000025}},{"attributes":{"ID":42073,"DIS_CODE":0,"TOWNNAME":"歸仁區","LI":"媽廟里","LIN":"7鄰","STREET":"中正北路","SECT":"三段","MAREA":" ","LANE":"２０５巷","ALLEY":"２３弄","HOUSE_NO":"７號","E_COORD97":177505.70999999999,"N_COORD97":2543859.7200000002,"ADDRESS":"中正北路三段２０５巷２３弄７號","OBJECTID":42073},"geometry":{"x":177505.71000000089,"y":2543859.7200000007}},{"attributes":{"ID":42074,"DIS_CODE":0,"TOWNNAME":"歸仁區","LI":"西埔里","LIN":"7鄰","STREET":"西埔一街","SECT":" ","MAREA":" ","LANE":"６５巷","ALLEY":"２５弄","HOUSE_NO":"１號","E_COORD97":177048.26999999999,"N_COORD97":2544296.25,"ADDRESS":"西埔一街６５巷２５弄１號","OBJECTID":42074},"geometry":{"x":177048.27000000048,"y":2544296.25}},{"attributes":{"ID":42075,"DIS_CODE":0,"TOWNNAME":"歸仁區","LI":"大潭里","LIN":"7鄰","STREET":"中正南路","SECT":"三段","MAREA":" ","LANE":"２８７巷","ALLEY":"２弄","HOUSE_NO":"３號","E_COORD97":175146.60999999999,"N_COORD97":2534636.2799999998,"ADDRESS":"中正南路三段２８７巷２弄３號","OBJECTID":42075},"geometry":{"x":175146.61000000127,"y":2534636.2799999993}},{"attributes":{"ID":42076,"DIS_CODE":0,"TOWNNAME":"關廟區","LI":"東勢里","LIN":"7鄰","STREET":"和平路","SECT":" ","MAREA":" ","LANE":"２２巷","ALLEY":"１６弄","HOUSE_NO":"６號","E_COORD97":181790.64000000001,"N_COORD97":2539352.25,"ADDRESS":"和平路２２巷１６弄６號","OBJECTID":42076},"geometry":{"x":181790.6400000006,"y":2539352.2500000019}},{"attributes":{"ID":42077,"DIS_CODE":0,"TOWNNAME":"關廟區","LI":"東勢里","LIN":"7鄰","STREET":"和平路","SECT":" ","MAREA":" ","LANE":"２２巷","ALLEY":"１６弄","HOUSE_NO":"２號","E_COORD97":181790.34,"N_COORD97":2539359.25,"ADDRESS":"和平路２２巷１６弄２號","OBJECTID":42077},"geometry":{"x":181790.33999999985,"y":2539359.25}},{"attributes":{"ID":42078,"DIS_CODE":0,"TOWNNAME":"關廟區","LI":"東勢里","LIN":"7鄰","STREET":"和平路","SECT":" ","MAREA":" ","LANE":"２２巷","ALLEY":"１６弄","HOUSE_NO":"３號","E_COORD97":181805.23999999999,"N_COORD97":2539360.25,"ADDRESS":"和平路２２巷１６弄３號","OBJECTID":42078},"geometry":{"x":181805.24000000022,"y":2539360.25}},{"attributes":{"ID":42079,"DIS_CODE":0,"TOWNNAME":"關廟區","LI":"龜洞里","LIN":"7鄰","STREET":"南雄南路","SECT":" ","MAREA":" ","LANE":"７０１巷","ALLEY":"１６弄","HOUSE_NO":"６號","E_COORD97":183354.64000000001,"N_COORD97":2533427.25,"ADDRESS":"南雄南路７０１巷１６弄６號","OBJECTID":42079},"geometry":{"x":183354.63999999966,"y":2533427.25}},{"attributes":{"ID":42080,"DIS_CODE":0,"TOWNNAME":"關廟區","LI":"龜洞里","LIN":"7鄰","STREET":"南雄南路","SECT":" ","MAREA":" ","LANE":"７０１巷","ALLEY":"１６弄","HOUSE_NO":"１７號","E_COORD97":183341.04000000001,"N_COORD97":2533381.2999999998,"ADDRESS":"南雄南路７０１巷１６弄１７號","OBJECTID":42080},"geometry":{"x":183341.0400000019,"y":2533381.3000000026}},{"attributes":{"ID":42081,"DIS_CODE":0,"TOWNNAME":"關廟區","LI":"埤頭里","LIN":"7鄰","STREET":"關新路","SECT":"二段","MAREA":" ","LANE":"２３巷","ALLEY":"１弄","HOUSE_NO":"３２號","E_COORD97":178936.57000000001,"N_COORD97":2544072.25,"ADDRESS":"關新路二段２３巷１弄３２號","OBJECTID":42081},"geometry":{"x":178936.5700000003,"y":2544072.25}},{"attributes":{"ID":42082,"DIS_CODE":0,"TOWNNAME":"關廟區","LI":"埤頭里","LIN":"7鄰","STREET":"關新路","SECT":"二段","MAREA":" ","LANE":"２３巷","ALLEY":"１弄","HOUSE_NO":"３６號","E_COORD97":178923.97,"N_COORD97":2544072.25,"ADDRESS":"關新路二段２３巷１弄３６號","OBJECTID":42082},"geometry":{"x":178923.97000000067,"y":2544072.25}},{"attributes":{"ID":42083,"DIS_CODE":0,"TOWNNAME":"官田區","LI":"官田里","LIN":"7鄰","STREET":" ","SECT":" ","MAREA":"官田","LANE":" ","ALLEY":" ","HOUSE_NO":"５９號之１３０","E_COORD97":182781.72,"N_COORD97":2564861.1600000001,"ADDRESS":"官田５９號之１３０","OBJECTID":42083},"geometry":{"x":182781.7200000016,"y":2564861.160000002}},{"attributes":{"ID":42084,"DIS_CODE":0,"TOWNNAME":"永康區","LI":"大橋里","LIN":"17鄰","STREET":"大橋一街","SECT":" ","MAREA":" ","LANE":" ","ALLEY":" ","HOUSE_NO":"１３７號","E_COORD97":171043.73000000001,"N_COORD97":2546499.9900000002,"ADDRESS":"大橋一街１３７號","OBJECTID":42084},"geometry":{"x":171043.73000000138,"y":2546499.9900000021}},{"attributes":{"ID":42085,"DIS_CODE":0,"TOWNNAME":"中西區","LI":"西湖里","LIN":"17鄰","STREET":"湖美二街","SECT":" ","MAREA":" ","LANE":" ","ALLEY":" ","HOUSE_NO":"５０號","E_COORD97":166144.81,"N_COORD97":2544682.4199999999,"ADDRESS":"湖美二街５０號","OBJECTID":42085},"geometry":{"x":166144.81000000052,"y":2544682.4200000037}},{"attributes":{"ID":42086,"DIS_CODE":0,"TOWNNAME":"官田區","LI":"官田里","LIN":"7鄰","STREET":" ","SECT":" ","MAREA":"官田","LANE":" ","ALLEY":" ","HOUSE_NO":"５９號之１３７","E_COORD97":183352.87,"N_COORD97":2564939.6499999999,"ADDRESS":"官田５９號之１３７","OBJECTID":42086},"geometry":{"x":183352.87000000104,"y":2564939.6500000022}},{"attributes":{"ID":42087,"DIS_CODE":0,"TOWNNAME":"中西區","LI":"西湖里","LIN":"17鄰","STREET":"湖美二街","SECT":" ","MAREA":" ","LANE":" ","ALLEY":" ","HOUSE_NO":"５６號","E_COORD97":166144.57000000001,"N_COORD97":2544695.02,"ADDRESS":"湖美二街５６號","OBJECTID":42087},"geometry":{"x":166144.5700000003,"y":2544695.0200000033}},{"attributes":{"ID":42088,"DIS_CODE":0,"TOWNNAME":"中西區","LI":"西湖里","LIN":"17鄰","STREET":"湖美二街","SECT":" ","MAREA":" ","LANE":" ","ALLEY":" ","HOUSE_NO":"５８號","E_COORD97":166144.57000000001,"N_COORD97":2544699.6499999999,"ADDRESS":"湖美二街５８號","OBJECTID":42088},"geometry":{"x":166144.5700000003,"y":2544699.6500000022}},{"attributes":{"ID":42089,"DIS_CODE":0,"TOWNNAME":"官田區","LI":"官田里","LIN":"7鄰","STREET":" ","SECT":" ","MAREA":"官田","LANE":" ","ALLEY":" ","HOUSE_NO":"５９號之１３","E_COORD97":182746.94,"N_COORD97":2564953,"ADDRESS":"官田５９號之１３","OBJECTID":42089},"geometry":{"x":182746.94000000227,"y":2564953.0000000037}},{"attributes":{"ID":42090,"DIS_CODE":0,"TOWNNAME":"官田區","LI":"官田里","LIN":"7鄰","STREET":" ","SECT":" ","MAREA":"官田","LANE":" ","ALLEY":" ","HOUSE_NO":"５９號之１５０","E_COORD97":183460.98000000001,"N_COORD97":2564827.0699999998,"ADDRESS":"官田５９號之１５０","OBJECTID":42090},"geometry":{"x":183460.98000000138,"y":2564827.0700000003}},{"attributes":{"ID":42091,"DIS_CODE":0,"TOWNNAME":"官田區","LI":"官田里","LIN":"7鄰","STREET":" ","SECT":" ","MAREA":"官田","LANE":" ","ALLEY":" ","HOUSE_NO":"５９號之１５","E_COORD97":182780.62,"N_COORD97":2564975.96,"ADDRESS":"官田５９號之１５","OBJECTID":42091},"geometry":{"x":182780.62000000011,"y":2564975.9600000028}},{"attributes":{"ID":42092,"DIS_CODE":0,"TOWNNAME":"官田區","LI":"官田里","LIN":"7鄰","STREET":" ","SECT":" ","MAREA":"官田","LANE":" ","ALLEY":" ","HOUSE_NO":"５９號之１６１","E_COORD97":183467.01000000001,"N_COORD97":2564920.5800000001,"ADDRESS":"官田５９號之１６１","OBJECTID":42092},"geometry":{"x":183467.01000000071,"y":2564920.5800000001}},{"attributes":{"ID":42093,"DIS_CODE":0,"TOWNNAME":"官田區","LI":"官田里","LIN":"7鄰","STREET":" ","SECT":" ","MAREA":"官田","LANE":" ","ALLEY":" ","HOUSE_NO":"５９號之１６","E_COORD97":182769.35000000001,"N_COORD97":2564952.75,"ADDRESS":"官田５９號之１６","OBJECTID":42093},"geometry":{"x":182769.35000000056,"y":2564952.7500000019}},{"attributes":{"ID":42094,"DIS_CODE":0,"TOWNNAME":"官田區","LI":"官田里","LIN":"7鄰","STREET":" ","SECT":" ","MAREA":"官田","LANE":" ","ALLEY":" ","HOUSE_NO":"５９號之１７","E_COORD97":182771.14999999999,"N_COORD97":2564945.3599999999,"ADDRESS":"官田５９號之１７","OBJECTID":42094},"geometry":{"x":182771.1500000013,"y":2564945.3599999994}},{"attributes":{"ID":42095,"DIS_CODE":0,"TOWNNAME":"官田區","LI":"官田里","LIN":"7鄰","STREET":" ","SECT":" ","MAREA":"官田","LANE":" ","ALLEY":" ","HOUSE_NO":"５９號之１８","E_COORD97":182772.95999999999,"N_COORD97":2564937.98,"ADDRESS":"官田５９號之１８","OBJECTID":42095},"geometry":{"x":182772.95999999996,"y":2564937.9800000023}},{"attributes":{"ID":42096,"DIS_CODE":0,"TOWNNAME":"官田區","LI":"官田里","LIN":"7鄰","STREET":" ","SECT":" ","MAREA":"官田","LANE":" ","ALLEY":" ","HOUSE_NO":"５９號之１９","E_COORD97":182864.09,"N_COORD97":2564923.4900000002,"ADDRESS":"官田５９號之１９","OBJECTID":42096},"geometry":{"x":182864.09000000171,"y":2564923.4900000021}},{"attributes":{"ID":42097,"DIS_CODE":0,"TOWNNAME":"官田區","LI":"官田里","LIN":"7鄰","STREET":" ","SECT":" ","MAREA":"官田","LANE":" ","ALLEY":" ","HOUSE_NO":"５９號之１","E_COORD97":182661.26000000001,"N_COORD97":2564920.5699999998,"ADDRESS":"官田５９號之１","OBJECTID":42097},"geometry":{"x":182661.26000000071,"y":2564920.5700000022}},{"attributes":{"ID":42098,"DIS_CODE":0,"TOWNNAME":"官田區","LI":"官田里","LIN":"7鄰","STREET":" ","SECT":" ","MAREA":"官田","LANE":" ","ALLEY":" ","HOUSE_NO":"５９號之２０","E_COORD97":182775.41,"N_COORD97":2564928.2000000002,"ADDRESS":"官田５９號之２０","OBJECTID":42098},"geometry":{"x":182775.41000000015,"y":2564928.2000000011}},{"attributes":{"ID":42099,"DIS_CODE":0,"TOWNNAME":"官田區","LI":"官田里","LIN":"7鄰","STREET":" ","SECT":" ","MAREA":"官田","LANE":" ","ALLEY":" ","HOUSE_NO":"５９號之２１","E_COORD97":182777.01999999999,"N_COORD97":2564920.3799999999,"ADDRESS":"官田５９號之２１","OBJECTID":42099},"geometry":{"x":182777.01999999955,"y":2564920.3800000008}},{"attributes":{"ID":42100,"DIS_CODE":0,"TOWNNAME":"關廟區","LI":"埤頭里","LIN":"7鄰","STREET":"關新路","SECT":"二段","MAREA":" ","LANE":"５１巷","ALLEY":"３５弄","HOUSE_NO":"１９號","E_COORD97":178952.76999999999,"N_COORD97":2544088.25,"ADDRESS":"關新路二段５１巷３５弄１９號","OBJECTID":42100},"geometry":{"x":178952.76999999955,"y":2544088.2500000019}},{"attributes":{"ID":42101,"DIS_CODE":0,"TOWNNAME":"官田區","LI":"官田里","LIN":"7鄰","STREET":" ","SECT":" ","MAREA":"官田","LANE":" ","ALLEY":" ","HOUSE_NO":"５９號之２２","E_COORD97":182778.26000000001,"N_COORD97":2564913.1699999999,"ADDRESS":"官田５９號之２２","OBJECTID":42101},"geometry":{"x":182778.26000000071,"y":2564913.1699999999}},{"attributes":{"ID":42102,"DIS_CODE":0,"TOWNNAME":"官田區","LI":"官田里","LIN":"7鄰","STREET":" ","SECT":" ","MAREA":"官田","LANE":" ","ALLEY":" ","HOUSE_NO":"５９號之２３","E_COORD97":182779.73999999999,"N_COORD97":2564905.0499999998,"ADDRESS":"官田５９號之２３","OBJECTID":42102},"geometry":{"x":182779.74000000022,"y":2564905.0500000007}},{"attributes":{"ID":42103,"DIS_CODE":0,"TOWNNAME":"官田區","LI":"官田里","LIN":"7鄰","STREET":" ","SECT":" ","MAREA":"官田","LANE":" ","ALLEY":" ","HOUSE_NO":"５９號之２４","E_COORD97":182778.95000000001,"N_COORD97":2564894.6000000001,"ADDRESS":"官田５９號之２４","OBJECTID":42103},"geometry":{"x":182778.95000000205,"y":2564894.6000000034}},{"attributes":{"ID":42104,"DIS_CODE":0,"TOWNNAME":"官田區","LI":"官田里","LIN":"7鄰","STREET":" ","SECT":" ","MAREA":"官田","LANE":" ","ALLEY":" ","HOUSE_NO":"５９號之２５","E_COORD97":182779.04999999999,"N_COORD97":2564887.3300000001,"ADDRESS":"官田５９號之２５","OBJECTID":42104},"geometry":{"x":182779.04999999981,"y":2564887.3300000019}},{"attributes":{"ID":42105,"DIS_CODE":0,"TOWNNAME":"官田區","LI":"官田里","LIN":"7鄰","STREET":" ","SECT":" ","MAREA":"官田","LANE":" ","ALLEY":" ","HOUSE_NO":"５９號之２６","E_COORD97":182779.14000000001,"N_COORD97":2564880.0600000001,"ADDRESS":"官田５９號之２６","OBJECTID":42105},"geometry":{"x":182779.1400000006,"y":2564880.0600000024}},{"attributes":{"ID":42106,"DIS_CODE":0,"TOWNNAME":"關廟區","LI":"埤頭里","LIN":"7鄰","STREET":"關新路","SECT":"二段","MAREA":" ","LANE":"２３巷","ALLEY":"１弄","HOUSE_NO":"８號","E_COORD97":179013.37,"N_COORD97":2544078.25,"ADDRESS":"關新路二段２３巷１弄８號","OBJECTID":42106},"geometry":{"x":179013.37000000104,"y":2544078.2500000019}},{"attributes":{"ID":42107,"DIS_CODE":0,"TOWNNAME":"官田區","LI":"官田里","LIN":"7鄰","STREET":" ","SECT":" ","MAREA":"官田","LANE":" ","ALLEY":" ","HOUSE_NO":"５９號之２７","E_COORD97":182779.23999999999,"N_COORD97":2564872.79,"ADDRESS":"官田５９號之２７","OBJECTID":42107},"geometry":{"x":182779.24000000115,"y":2564872.790000001}},{"attributes":{"ID":42108,"DIS_CODE":0,"TOWNNAME":"關廟區","LI":"關廟里","LIN":"7鄰","STREET":"民生街","SECT":" ","MAREA":" ","LANE":"１６７巷","ALLEY":"１３弄","HOUSE_NO":"３６號","E_COORD97":180800.89000000001,"N_COORD97":2539844.1000000001,"ADDRESS":"民生街１６７巷１３弄３６號","OBJECTID":42108},"geometry":{"x":180800.8900000006,"y":2539844.1000000015}},{"attributes":{"ID":42109,"DIS_CODE":0,"TOWNNAME":"官田區","LI":"官田里","LIN":"7鄰","STREET":" ","SECT":" ","MAREA":"官田","LANE":" ","ALLEY":" ","HOUSE_NO":"５９號之２８","E_COORD97":182764.53,"N_COORD97":2564885.6200000001,"ADDRESS":"官田５９號之２８","OBJECTID":42109},"geometry":{"x":182764.53000000026,"y":2564885.6200000048}},{"attributes":{"ID":42110,"DIS_CODE":0,"TOWNNAME":"官田區","LI":"官田里","LIN":"7鄰","STREET":" ","SECT":" ","MAREA":"官田","LANE":" ","ALLEY":" ","HOUSE_NO":"５９號之２９","E_COORD97":182759.78,"N_COORD97":2564881.5800000001,"ADDRESS":"官田５９號之２９","OBJECTID":42110},"geometry":{"x":182759.78000000212,"y":2564881.5800000038}},{"attributes":{"ID":42111,"DIS_CODE":0,"TOWNNAME":"官田區","LI":"官田里","LIN":"7鄰","STREET":" ","SECT":" ","MAREA":"官田","LANE":" ","ALLEY":" ","HOUSE_NO":"５９號之２","E_COORD97":182638.66,"N_COORD97":2564967.4700000002,"ADDRESS":"官田５９號之２","OBJECTID":42111},"geometry":{"x":182638.66000000108,"y":2564967.4700000044}},{"attributes":{"ID":42112,"DIS_CODE":0,"TOWNNAME":"官田區","LI":"官田里","LIN":"7鄰","STREET":" ","SECT":" ","MAREA":"官田","LANE":" ","ALLEY":" ","HOUSE_NO":"５９號之３０","E_COORD97":182752.98999999999,"N_COORD97":2564877.9900000002,"ADDRESS":"官田５９號之３０","OBJECTID":42112},"geometry":{"x":182752.99000000022,"y":2564877.9900000002}},{"attributes":{"ID":42113,"DIS_CODE":0,"TOWNNAME":"北區","LI":"開元里","LIN":"7鄰","STREET":"北園街","SECT":" ","MAREA":" ","LANE":"１２４巷","ALLEY":"１０弄","HOUSE_NO":"２０號","E_COORD97":170494.81,"N_COORD97":2546049.6600000001,"ADDRESS":"北園街１２４巷１０弄２０號","OBJECTID":42113},"geometry":{"x":170494.81000000052,"y":2546049.6600000001}},{"attributes":{"ID":42114,"DIS_CODE":0,"TOWNNAME":"官田區","LI":"官田里","LIN":"7鄰","STREET":" ","SECT":" ","MAREA":"官田","LANE":" ","ALLEY":" ","HOUSE_NO":"５９號之３１","E_COORD97":182735.07999999999,"N_COORD97":2564890.0499999998,"ADDRESS":"官田５９號之３１","OBJECTID":42114},"geometry":{"x":182735.08000000007,"y":2564890.0500000026}},{"attributes":{"ID":42115,"DIS_CODE":0,"TOWNNAME":"官田區","LI":"官田里","LIN":"7鄰","STREET":" ","SECT":" ","MAREA":"官田","LANE":" ","ALLEY":" ","HOUSE_NO":"５９號之３２","E_COORD97":182740.04000000001,"N_COORD97":2564893.46,"ADDRESS":"官田５９號之３２","OBJECTID":42115},"geometry":{"x":182740.04000000004,"y":2564893.4600000046}},{"attributes":{"ID":42116,"DIS_CODE":0,"TOWNNAME":"北區","LI":"開元里","LIN":"7鄰","STREET":"北園街","SECT":" ","MAREA":" ","LANE":"１２４巷","ALLEY":"１０弄","HOUSE_NO":"２２號","E_COORD97":170491.44,"N_COORD97":2546054.6899999999,"ADDRESS":"北園街１２４巷１０弄２２號","OBJECTID":42116},"geometry":{"x":170491.44000000134,"y":2546054.6900000013}},{"attributes":{"ID":42117,"DIS_CODE":0,"TOWNNAME":"官田區","LI":"官田里","LIN":"7鄰","STREET":" ","SECT":" ","MAREA":"官田","LANE":" ","ALLEY":" ","HOUSE_NO":"５９號之３３","E_COORD97":182745,"N_COORD97":2564896.8799999999,"ADDRESS":"官田５９號之３３","OBJECTID":42117},"geometry":{"x":182745.00000000093,"y":2564896.879999999}},{"attributes":{"ID":42118,"DIS_CODE":0,"TOWNNAME":"官田區","LI":"官田里","LIN":"7鄰","STREET":" ","SECT":" ","MAREA":"官田","LANE":" ","ALLEY":" ","HOUSE_NO":"５９號之３４","E_COORD97":182749.95000000001,"N_COORD97":2564900.2999999998,"ADDRESS":"官田５９號之３４","OBJECTID":42118},"geometry":{"x":182749.95000000019,"y":2564900.3000000007}},{"attributes":{"ID":42119,"DIS_CODE":0,"TOWNNAME":"官田區","LI":"官田里","LIN":"7鄰","STREET":" ","SECT":" ","MAREA":"官田","LANE":" ","ALLEY":" ","HOUSE_NO":"５９號之３５","E_COORD97":182754.91,"N_COORD97":2564903.71,"ADDRESS":"官田５９號之３５","OBJECTID":42119},"geometry":{"x":182754.91000000015,"y":2564903.7100000009}},{"attributes":{"ID":42120,"DIS_CODE":0,"TOWNNAME":"官田區","LI":"官田里","LIN":"7鄰","STREET":" ","SECT":" ","MAREA":"官田","LANE":" ","ALLEY":" ","HOUSE_NO":"５９號之３６","E_COORD97":182761.29999999999,"N_COORD97":2564908.1200000001,"ADDRESS":"官田５９號之３６","OBJECTID":42120},"geometry":{"x":182761.30000000075,"y":2564908.120000001}},{"attributes":{"ID":42121,"DIS_CODE":0,"TOWNNAME":"官田區","LI":"官田里","LIN":"7鄰","STREET":" ","SECT":" ","MAREA":"官田","LANE":" ","ALLEY":" ","HOUSE_NO":"５９號之３７","E_COORD97":182758.67000000001,"N_COORD97":2564915.6600000001,"ADDRESS":"官田５９號之３７","OBJECTID":42121},"geometry":{"x":182758.67000000086,"y":2564915.660000002}},{"attributes":{"ID":42122,"DIS_CODE":0,"TOWNNAME":"官田區","LI":"官田里","LIN":"7鄰","STREET":" ","SECT":" ","MAREA":"官田","LANE":" ","ALLEY":" ","HOUSE_NO":"５９號之３８","E_COORD97":182757.12,"N_COORD97":2564922.1400000001,"ADDRESS":"官田５９號之３８","OBJECTID":42122},"geometry":{"x":182757.12000000011,"y":2564922.1400000043}},{"attributes":{"ID":42123,"DIS_CODE":0,"TOWNNAME":"官田區","LI":"官田里","LIN":"7鄰","STREET":" ","SECT":" ","MAREA":"官田","LANE":" ","ALLEY":" ","HOUSE_NO":"５９號之３９","E_COORD97":182746.45000000001,"N_COORD97":2564919.5899999999,"ADDRESS":"官田５９號之３９","OBJECTID":42123},"geometry":{"x":182746.45000000019,"y":2564919.5900000017}},{"attributes":{"ID":42124,"DIS_CODE":0,"TOWNNAME":"官田區","LI":"官田里","LIN":"7鄰","STREET":" ","SECT":" ","MAREA":"官田","LANE":" ","ALLEY":" ","HOUSE_NO":"５９號之３","E_COORD97":182720.59,"N_COORD97":2564932.9100000001,"ADDRESS":"官田５９號之３","OBJECTID":42124},"geometry":{"x":182720.59000000078,"y":2564932.9100000001}},{"attributes":{"ID":42125,"DIS_CODE":0,"TOWNNAME":"官田區","LI":"官田里","LIN":"7鄰","STREET":" ","SECT":" ","MAREA":"官田","LANE":" ","ALLEY":" ","HOUSE_NO":"５９號之４０","E_COORD97":182741.09,"N_COORD97":2564918.8900000001,"ADDRESS":"官田５９號之４０","OBJECTID":42125},"geometry":{"x":182741.09000000078,"y":2564918.8900000006}},{"attributes":{"ID":42126,"DIS_CODE":0,"TOWNNAME":"官田區","LI":"官田里","LIN":"7鄰","STREET":" ","SECT":" ","MAREA":"官田","LANE":" ","ALLEY":" ","HOUSE_NO":"５９號之４１","E_COORD97":182735.89999999999,"N_COORD97":2564917.5899999999,"ADDRESS":"官田５９號之４１","OBJECTID":42126},"geometry":{"x":182735.9000000013,"y":2564917.5899999999}},{"attributes":{"ID":42127,"DIS_CODE":0,"TOWNNAME":"官田區","LI":"官田里","LIN":"7鄰","STREET":" ","SECT":" ","MAREA":"官田","LANE":" ","ALLEY":" ","HOUSE_NO":"５９號之４２","E_COORD97":182730.72,"N_COORD97":2564916.2799999998,"ADDRESS":"官田５９號之４２","OBJECTID":42127},"geometry":{"x":182730.71999999881,"y":2564916.2799999975}},{"attributes":{"ID":42128,"DIS_CODE":0,"TOWNNAME":"官田區","LI":"官田里","LIN":"7鄰","STREET":" ","SECT":" ","MAREA":"官田","LANE":" ","ALLEY":" ","HOUSE_NO":"５９號之４３","E_COORD97":182725.54000000001,"N_COORD97":2564914.98,"ADDRESS":"官田５９號之４３","OBJECTID":42128},"geometry":{"x":182725.5400000019,"y":2564914.9800000004}},{"attributes":{"ID":42129,"DIS_CODE":0,"TOWNNAME":"官田區","LI":"官田里","LIN":"7鄰","STREET":" ","SECT":" ","MAREA":"官田","LANE":" ","ALLEY":" ","HOUSE_NO":"５９號之４４","E_COORD97":182708.20999999999,"N_COORD97":2564909.7400000002,"ADDRESS":"官田５９號之４４","OBJECTID":42129},"geometry":{"x":182708.21000000089,"y":2564909.7400000002}},{"attributes":{"ID":42130,"DIS_CODE":0,"TOWNNAME":"官田區","LI":"官田里","LIN":"7鄰","STREET":" ","SECT":" ","MAREA":"官田","LANE":" ","ALLEY":" ","HOUSE_NO":"５９號之４５","E_COORD97":182709.98999999999,"N_COORD97":2564903.5699999998,"ADDRESS":"官田５９號之４５","OBJECTID":42130},"geometry":{"x":182709.99000000115,"y":2564903.5700000022}},{"attributes":{"ID":42131,"DIS_CODE":0,"TOWNNAME":"官田區","LI":"官田里","LIN":"7鄰","STREET":" ","SECT":" ","MAREA":"官田","LANE":" ","ALLEY":" ","HOUSE_NO":"５９號之４６","E_COORD97":182711.76999999999,"N_COORD97":2564897.3900000001,"ADDRESS":"官田５９號之４６","OBJECTID":42131},"geometry":{"x":182711.77000000142,"y":2564897.3900000025}},{"attributes":{"ID":42132,"DIS_CODE":0,"TOWNNAME":"官田區","LI":"官田里","LIN":"7鄰","STREET":" ","SECT":" ","MAREA":"官田","LANE":" ","ALLEY":" ","HOUSE_NO":"５９號之４７","E_COORD97":182713.54999999999,"N_COORD97":2564891.2200000002,"ADDRESS":"官田５９號之４７","OBJECTID":42132},"geometry":{"x":182713.55000000168,"y":2564891.2200000044}},{"attributes":{"ID":42133,"DIS_CODE":0,"TOWNNAME":"官田區","LI":"官田里","LIN":"7鄰","STREET":" ","SECT":" ","MAREA":"官田","LANE":" ","ALLEY":" ","HOUSE_NO":"５９號之４８","E_COORD97":182715.32000000001,"N_COORD97":2564885.04,"ADDRESS":"官田５９號之４８","OBJECTID":42133},"geometry":{"x":182715.3200000003,"y":2564885.040000001}},{"attributes":{"ID":42134,"DIS_CODE":0,"TOWNNAME":"官田區","LI":"官田里","LIN":"7鄰","STREET":" ","SECT":" ","MAREA":"官田","LANE":" ","ALLEY":" ","HOUSE_NO":"５９號之４９","E_COORD97":182717.10000000001,"N_COORD97":2564878.8599999999,"ADDRESS":"官田５９號之４９","OBJECTID":42134},"geometry":{"x":182717.10000000056,"y":2564878.8600000031}},{"attributes":{"ID":42135,"DIS_CODE":0,"TOWNNAME":"官田區","LI":"官田里","LIN":"7鄰","STREET":" ","SECT":" ","MAREA":"官田","LANE":" ","ALLEY":" ","HOUSE_NO":"５９號之４","E_COORD97":182724.92999999999,"N_COORD97":2564934,"ADDRESS":"官田５９號之４","OBJECTID":42135},"geometry":{"x":182724.93000000063,"y":2564934.0000000019}},{"attributes":{"ID":42136,"DIS_CODE":0,"TOWNNAME":"官田區","LI":"官田里","LIN":"7鄰","STREET":" ","SECT":" ","MAREA":"官田","LANE":" ","ALLEY":" ","HOUSE_NO":"５９號之５０","E_COORD97":182693.45999999999,"N_COORD97":2564879.3999999999,"ADDRESS":"官田５９號之５０","OBJECTID":42136},"geometry":{"x":182693.45999999996,"y":2564879.3999999985}},{"attributes":{"ID":42137,"DIS_CODE":0,"TOWNNAME":"官田區","LI":"官田里","LIN":"7鄰","STREET":" ","SECT":" ","MAREA":"官田","LANE":" ","ALLEY":" ","HOUSE_NO":"５９號之５１","E_COORD97":182692.25,"N_COORD97":2564885.6099999999,"ADDRESS":"官田５９號之５１","OBJECTID":42137},"geometry":{"x":182692.25000000093,"y":2564885.6099999994}},{"attributes":{"ID":42138,"DIS_CODE":0,"TOWNNAME":"官田區","LI":"官田里","LIN":"7鄰","STREET":" ","SECT":" ","MAREA":"官田","LANE":" ","ALLEY":" ","HOUSE_NO":"５９號之５２","E_COORD97":182689.85000000001,"N_COORD97":2564890.9399999999,"ADDRESS":"官田５９號之５２","OBJECTID":42138},"geometry":{"x":182689.85000000056,"y":2564890.9399999995}},{"attributes":{"ID":42139,"DIS_CODE":0,"TOWNNAME":"官田區","LI":"官田里","LIN":"7鄰","STREET":" ","SECT":" ","MAREA":"官田","LANE":" ","ALLEY":" ","HOUSE_NO":"５９號之５３","E_COORD97":182688.31,"N_COORD97":2564897.8599999999,"ADDRESS":"官田５９號之５３","OBJECTID":42139},"geometry":{"x":182688.31000000052,"y":2564897.8599999994}},{"attributes":{"ID":42140,"DIS_CODE":0,"TOWNNAME":"北區","LI":"開元里","LIN":"7鄰","STREET":"北園街","SECT":" ","MAREA":" ","LANE":"１２４巷","ALLEY":"１０弄","HOUSE_NO":"２３號","E_COORD97":170477.97,"N_COORD97":2546017.7000000002,"ADDRESS":"北園街１２４巷１０弄２３號","OBJECTID":42140},"geometry":{"x":170477.9700000016,"y":2546017.6999999993}},{"attributes":{"ID":42141,"DIS_CODE":0,"TOWNNAME":"北區","LI":"開元里","LIN":"7鄰","STREET":"北園街","SECT":" ","MAREA":" ","LANE":"１２４巷","ALLEY":"１０弄","HOUSE_NO":"２４號","E_COORD97":170488.20000000001,"N_COORD97":2546060.6000000001,"ADDRESS":"北園街１２４巷１０弄２４號","OBJECTID":42141},"geometry":{"x":170488.20000000019,"y":2546060.5999999978}},{"attributes":{"ID":42142,"DIS_CODE":0,"TOWNNAME":"北區","LI":"開元里","LIN":"7鄰","STREET":"北園街","SECT":" ","MAREA":" ","LANE":"１２４巷","ALLEY":"１０弄","HOUSE_NO":"２５號","E_COORD97":170482.03,"N_COORD97":2546033.0299999998,"ADDRESS":"北園街１２４巷１０弄２５號","OBJECTID":42142},"geometry":{"x":170482.03000000119,"y":2546033.0299999993}},{"attributes":{"ID":42143,"DIS_CODE":0,"TOWNNAME":"北區","LI":"開元里","LIN":"7鄰","STREET":"北園街","SECT":" ","MAREA":" ","LANE":"１２４巷","ALLEY":"１０弄","HOUSE_NO":"２６號","E_COORD97":170485.53,"N_COORD97":2546063.3500000001,"ADDRESS":"北園街１２４巷１０弄２６號","OBJECTID":42143},"geometry":{"x":170485.53000000119,"y":2546063.3500000015}},{"attributes":{"ID":42144,"DIS_CODE":0,"TOWNNAME":"北區","LI":"開元里","LIN":"7鄰","STREET":"北園街","SECT":" ","MAREA":" ","LANE":"１２４巷","ALLEY":"１０弄","HOUSE_NO":"２７號","E_COORD97":170481.38,"N_COORD97":2546040.6299999999,"ADDRESS":"北園街１２４巷１０弄２７號","OBJECTID":42144},"geometry":{"x":170481.37999999989,"y":2546040.6300000008}},{"attributes":{"ID":42145,"DIS_CODE":0,"TOWNNAME":"北區","LI":"開元里","LIN":"7鄰","STREET":"北園街","SECT":" ","MAREA":" ","LANE":"１２４巷","ALLEY":"１０弄","HOUSE_NO":"２８號","E_COORD97":170483.01999999999,"N_COORD97":2546070.1499999999,"ADDRESS":"北園街１２４巷１０弄２８號","OBJECTID":42145},"geometry":{"x":170483.02000000048,"y":2546070.1500000004}},{"attributes":{"ID":42146,"DIS_CODE":0,"TOWNNAME":"北區","LI":"開元里","LIN":"7鄰","STREET":"北園街","SECT":" ","MAREA":" ","LANE":"１２４巷","ALLEY":"１０弄","HOUSE_NO":"２９號","E_COORD97":170480.17000000001,"N_COORD97":2546048.8900000001,"ADDRESS":"北園街１２４巷１０弄２９號","OBJECTID":42146},"geometry":{"x":170480.17000000179,"y":2546048.8900000006}},{"attributes":{"ID":42147,"DIS_CODE":0,"TOWNNAME":"北區","LI":"開元里","LIN":"7鄰","STREET":"北園街","SECT":" ","MAREA":" ","LANE":"１２４巷","ALLEY":"１０弄","HOUSE_NO":"３０號","E_COORD97":170479.62,"N_COORD97":2546073.9500000002,"ADDRESS":"北園街１２４巷１０弄３０號","OBJECTID":42147},"geometry":{"x":170479.62000000104,"y":2546073.9499999993}},{"attributes":{"ID":42148,"DIS_CODE":0,"TOWNNAME":"北區","LI":"開元里","LIN":"7鄰","STREET":"北園街","SECT":" ","MAREA":" ","LANE":"１２４巷","ALLEY":"１０弄","HOUSE_NO":"３１號","E_COORD97":170476.85000000001,"N_COORD97":2546054.73,"ADDRESS":"北園街１２４巷１０弄３１號","OBJECTID":42148},"geometry":{"x":170476.84999999963,"y":2546054.7300000023}},{"attributes":{"ID":42149,"DIS_CODE":0,"TOWNNAME":"北區","LI":"開元里","LIN":"7鄰","STREET":"北園街","SECT":" ","MAREA":" ","LANE":"１２４巷","ALLEY":"１０弄","HOUSE_NO":"３２號","E_COORD97":170475.09,"N_COORD97":2546077.8500000001,"ADDRESS":"北園街１２４巷１０弄３２號","OBJECTID":42149},"geometry":{"x":170475.08999999985,"y":2546077.8499999996}},{"attributes":{"ID":42150,"DIS_CODE":0,"TOWNNAME":"北區","LI":"開元里","LIN":"7鄰","STREET":"北園街","SECT":" ","MAREA":" ","LANE":"１２４巷","ALLEY":"１０弄","HOUSE_NO":"３３號","E_COORD97":170469.64999999999,"N_COORD97":2546064.7799999998,"ADDRESS":"北園街１２４巷１０弄３３號","OBJECTID":42150},"geometry":{"x":170469.6500000013,"y":2546064.7799999993}},{"attributes":{"ID":42151,"DIS_CODE":0,"TOWNNAME":"北區","LI":"開元里","LIN":"7鄰","STREET":"北園街","SECT":" ","MAREA":" ","LANE":"１２４巷","ALLEY":"１０弄","HOUSE_NO":"３４號","E_COORD97":170471.76999999999,"N_COORD97":2546081.9700000002,"ADDRESS":"北園街１２４巷１０弄３４號","OBJECTID":42151},"geometry":{"x":170471.76999999955,"y":2546081.9700000007}},{"attributes":{"ID":42152,"DIS_CODE":0,"TOWNNAME":"北區","LI":"開元里","LIN":"7鄰","STREET":"北園街","SECT":" ","MAREA":" ","LANE":"１２４巷","ALLEY":"１０弄","HOUSE_NO":"３５號","E_COORD97":170465.60999999999,"N_COORD97":2546070.1200000001,"ADDRESS":"北園街１２４巷１０弄３５號","OBJECTID":42152},"geometry":{"x":170465.61000000034,"y":2546070.1200000029}},{"attributes":{"ID":42153,"DIS_CODE":0,"TOWNNAME":"北區","LI":"開元里","LIN":"7鄰","STREET":"北園街","SECT":" ","MAREA":" ","LANE":"１２４巷","ALLEY":"１０弄","HOUSE_NO":"３６號","E_COORD97":170467.56,"N_COORD97":2546088.79,"ADDRESS":"北園街１２４巷１０弄３６號","OBJECTID":42153},"geometry":{"x":170467.56000000052,"y":2546088.7899999991}},{"attributes":{"ID":42154,"DIS_CODE":0,"TOWNNAME":"北區","LI":"開元里","LIN":"7鄰","STREET":"北園街","SECT":" ","MAREA":" ","LANE":"１２４巷","ALLEY":"１０弄","HOUSE_NO":"３８號","E_COORD97":170464.81,"N_COORD97":2546092.3500000001,"ADDRESS":"北園街１２４巷１０弄３８號","OBJECTID":42154},"geometry":{"x":170464.80999999959,"y":2546092.3499999996}},{"attributes":{"ID":42155,"DIS_CODE":0,"TOWNNAME":"北區","LI":"開元里","LIN":"7鄰","STREET":"北園街","SECT":" ","MAREA":" ","LANE":"１２４巷","ALLEY":"１０弄","HOUSE_NO":"４０號","E_COORD97":170463.29000000001,"N_COORD97":2546098.9500000002,"ADDRESS":"北園街１２４巷１０弄４０號","OBJECTID":42155},"geometry":{"x":170463.29000000097,"y":2546098.950000003}},{"attributes":{"ID":42156,"DIS_CODE":0,"TOWNNAME":"北區","LI":"開元里","LIN":"7鄰","STREET":"北園街","SECT":" ","MAREA":" ","LANE":"１２４巷","ALLEY":"１０弄","HOUSE_NO":"４２號","E_COORD97":170459.54999999999,"N_COORD97":2546101.9700000002,"ADDRESS":"北園街１２４巷１０弄４２號","OBJECTID":42156},"geometry":{"x":170459.55000000075,"y":2546101.9700000007}},{"attributes":{"ID":42157,"DIS_CODE":0,"TOWNNAME":"北區","LI":"開元里","LIN":"7鄰","STREET":"北園街","SECT":" ","MAREA":" ","LANE":"１２４巷","ALLEY":"１０弄","HOUSE_NO":"４４號","E_COORD97":170463.28,"N_COORD97":2546123.2599999998,"ADDRESS":"北園街１２４巷１０弄４４號","OBJECTID":42157},"geometry":{"x":170463.28000000119,"y":2546123.2599999998}},{"attributes":{"ID":42158,"DIS_CODE":0,"TOWNNAME":"北區","LI":"開元里","LIN":"7鄰","STREET":"北園街","SECT":" ","MAREA":" ","LANE":"１２４巷","ALLEY":"１０弄","HOUSE_NO":"４６號","E_COORD97":170468.20999999999,"N_COORD97":2546123.9100000001,"ADDRESS":"北園街１２４巷１０弄４６號","OBJECTID":42158},"geometry":{"x":170468.21000000183,"y":2546123.9100000039}},{"attributes":{"ID":42159,"DIS_CODE":0,"TOWNNAME":"仁德區","LI":"仁義里","LIN":"17鄰","STREET":"中山路","SECT":" ","MAREA":" ","LANE":" ","ALLEY":" ","HOUSE_NO":"２４０之１號","E_COORD97":174255.57000000001,"N_COORD97":2541226.0499999998,"ADDRESS":"中山路２４０之１號","OBJECTID":42159},"geometry":{"x":174255.57000000123,"y":2541226.0500000007}},{"attributes":{"ID":42160,"DIS_CODE":0,"TOWNNAME":"仁德區","LI":"仁德里","LIN":"17鄰","STREET":"文華路","SECT":"三段","MAREA":" ","LANE":" ","ALLEY":" ","HOUSE_NO":"４９９號","E_COORD97":172429.92000000001,"N_COORD97":2541386.8199999998,"ADDRESS":"文華路三段４９９號","OBJECTID":42160},"geometry":{"x":172429.92000000086,"y":2541386.8200000003}},{"attributes":{"ID":42161,"DIS_CODE":0,"TOWNNAME":"仁德區","LI":"仁德里","LIN":"17鄰","STREET":"文華路","SECT":"三段","MAREA":" ","LANE":" ","ALLEY":" ","HOUSE_NO":"４２３號","E_COORD97":172392.37,"N_COORD97":2541206.8199999998,"ADDRESS":"文華路三段４２３號","OBJECTID":42161},"geometry":{"x":172392.37000000011,"y":2541206.8200000003}},{"attributes":{"ID":42162,"DIS_CODE":0,"TOWNNAME":"仁德區","LI":"仁德里","LIN":"17鄰","STREET":"文華路","SECT":"三段","MAREA":" ","LANE":" ","ALLEY":" ","HOUSE_NO":"５２０號","E_COORD97":172481.25,"N_COORD97":2541544.8300000001,"ADDRESS":"文華路三段５２０號","OBJECTID":42162},"geometry":{"x":172481.25,"y":2541544.8300000019}},{"attributes":{"ID":42163,"DIS_CODE":0,"TOWNNAME":"新市區","LI":"社內里","LIN":"17鄰","STREET":" ","SECT":" ","MAREA":"社內","LANE":" ","ALLEY":" ","HOUSE_NO":"１８１之１１號","E_COORD97":175993.34,"N_COORD97":2552975.29,"ADDRESS":"社內１８１之１１號","OBJECTID":42163},"geometry":{"x":175993.33999999892,"y":2552975.2900000028}},{"attributes":{"ID":42164,"DIS_CODE":0,"TOWNNAME":"北區","LI":"開元里","LIN":"7鄰","STREET":"北園街","SECT":" ","MAREA":" ","LANE":"１２４巷","ALLEY":"１０弄","HOUSE_NO":"４８號","E_COORD97":170473.39000000001,"N_COORD97":2546124.21,"ADDRESS":"北園街１２４巷１０弄４８號","OBJECTID":42164},"geometry":{"x":170473.39000000153,"y":2546124.2100000009}},{"attributes":{"ID":42165,"DIS_CODE":0,"TOWNNAME":"北區","LI":"開元里","LIN":"7鄰","STREET":"北園街","SECT":" ","MAREA":" ","LANE":"１２４巷","ALLEY":"１０弄","HOUSE_NO":"５０號","E_COORD97":170478.54000000001,"N_COORD97":2546124.5499999998,"ADDRESS":"北園街１２４巷１０弄５０號","OBJECTID":42165},"geometry":{"x":170478.54000000097,"y":2546124.5500000026}},{"attributes":{"ID":42166,"DIS_CODE":0,"TOWNNAME":"北區","LI":"開元里","LIN":"7鄰","STREET":"北園街","SECT":" ","MAREA":" ","LANE":"１２４巷","ALLEY":"１０弄","HOUSE_NO":"５２之１號","E_COORD97":170501.42999999999,"N_COORD97":2546029.98,"ADDRESS":"北園街１２４巷１０弄５２之１號","OBJECTID":42166},"geometry":{"x":170501.4299999997,"y":2546029.9800000023}},{"attributes":{"ID":42167,"DIS_CODE":0,"TOWNNAME":"北區","LI":"開元里","LIN":"7鄰","STREET":"北園街","SECT":" ","MAREA":" ","LANE":"１２４巷","ALLEY":"１０弄","HOUSE_NO":"５４號","E_COORD97":170503.42999999999,"N_COORD97":2546033.96,"ADDRESS":"北園街１２４巷１０弄５４號","OBJECTID":42167},"geometry":{"x":170503.4299999997,"y":2546033.9600000028}},{"attributes":{"ID":42168,"DIS_CODE":0,"TOWNNAME":"北區","LI":"開元里","LIN":"7鄰","STREET":"北園街","SECT":" ","MAREA":" ","LANE":"１２４巷","ALLEY":"１０弄","HOUSE_NO":"５６號","E_COORD97":170506.42000000001,"N_COORD97":2546038.3199999998,"ADDRESS":"北園街１２４巷１０弄５６號","OBJECTID":42168},"geometry":{"x":170506.42000000086,"y":2546038.3200000003}},{"attributes":{"ID":42169,"DIS_CODE":0,"TOWNNAME":"新市區","LI":"社內里","LIN":"17鄰","STREET":" ","SECT":" ","MAREA":"社內","LANE":" ","ALLEY":" ","HOUSE_NO":"１８１之１０號","E_COORD97":175993.88,"N_COORD97":2552982.4100000001,"ADDRESS":"社內１８１之１０號","OBJECTID":42169},"geometry":{"x":175993.88000000082,"y":2552982.4100000039}},{"attributes":{"ID":42170,"DIS_CODE":0,"TOWNNAME":"新市區","LI":"社內里","LIN":"17鄰","STREET":" ","SECT":" ","MAREA":"社內","LANE":" ","ALLEY":" ","HOUSE_NO":"１８１之１２號","E_COORD97":175979.97,"N_COORD97":2552979.4100000001,"ADDRESS":"社內１８１之１２號","OBJECTID":42170},"geometry":{"x":175979.96999999974,"y":2552979.410000002}},{"attributes":{"ID":42171,"DIS_CODE":0,"TOWNNAME":"官田區","LI":"官田里","LIN":"7鄰","STREET":" ","SECT":" ","MAREA":"官田","LANE":" ","ALLEY":" ","HOUSE_NO":"５９號之５４","E_COORD97":182679.92999999999,"N_COORD97":2564897.98,"ADDRESS":"官田５９號之５４","OBJECTID":42171},"geometry":{"x":182679.9299999997,"y":2564897.9800000004}},{"attributes":{"ID":42172,"DIS_CODE":0,"TOWNNAME":"北區","LI":"開元里","LIN":"7鄰","STREET":"北園街","SECT":" ","MAREA":" ","LANE":"１２４巷","ALLEY":"１０弄","HOUSE_NO":"５８號","E_COORD97":170507.95999999999,"N_COORD97":2546043.3300000001,"ADDRESS":"北園街１２４巷１０弄５８號","OBJECTID":42172},"geometry":{"x":170507.96000000089,"y":2546043.3300000019}},{"attributes":{"ID":42173,"DIS_CODE":0,"TOWNNAME":"北區","LI":"開元里","LIN":"7鄰","STREET":"北園街","SECT":" ","MAREA":" ","LANE":"１２４巷","ALLEY":"１０弄","HOUSE_NO":"６０號","E_COORD97":170510.70999999999,"N_COORD97":2546047.9399999999,"ADDRESS":"北園街１２４巷１０弄６０號","OBJECTID":42173},"geometry":{"x":170510.71000000089,"y":2546047.9399999976}},{"attributes":{"ID":42174,"DIS_CODE":0,"TOWNNAME":"北區","LI":"開元里","LIN":"7鄰","STREET":"北園街","SECT":" ","MAREA":" ","LANE":"１２４巷","ALLEY":"１０弄","HOUSE_NO":"６２號","E_COORD97":170513.14000000001,"N_COORD97":2546054.4399999999,"ADDRESS":"北園街１２４巷１０弄６２號","OBJECTID":42174},"geometry":{"x":170513.1400000006,"y":2546054.4399999995}},{"attributes":{"ID":42175,"DIS_CODE":0,"TOWNNAME":"北區","LI":"開元里","LIN":"7鄰","STREET":"北園街","SECT":" ","MAREA":" ","LANE":"１２４巷","ALLEY":"１０弄","HOUSE_NO":"６４號","E_COORD97":170512.82000000001,"N_COORD97":2546059.46,"ADDRESS":"北園街１２４巷１０弄６４號","OBJECTID":42175},"geometry":{"x":170512.8200000003,"y":2546059.459999999}},{"attributes":{"ID":42176,"DIS_CODE":0,"TOWNNAME":"北區","LI":"開元里","LIN":"7鄰","STREET":"北園街","SECT":" ","MAREA":" ","LANE":"１２４巷","ALLEY":"１０弄","HOUSE_NO":"６６號","E_COORD97":170512.73000000001,"N_COORD97":2546064.4700000002,"ADDRESS":"北園街１２４巷１０弄６６號","OBJECTID":42176},"geometry":{"x":170512.73000000138,"y":2546064.4700000025}},{"attributes":{"ID":42177,"DIS_CODE":0,"TOWNNAME":"北區","LI":"開元里","LIN":"7鄰","STREET":"北園街","SECT":" ","MAREA":" ","LANE":"１２４巷","ALLEY":"１０弄","HOUSE_NO":"６８號","E_COORD97":170511.35000000001,"N_COORD97":2546070.2400000002,"ADDRESS":"北園街１２４巷１０弄６８號","OBJECTID":42177},"geometry":{"x":170511.35000000056,"y":2546070.2400000002}},{"attributes":{"ID":42178,"DIS_CODE":0,"TOWNNAME":"北區","LI":"開元里","LIN":"7鄰","STREET":"北園街","SECT":" ","MAREA":" ","LANE":"１２４巷","ALLEY":"１０弄","HOUSE_NO":"７０號","E_COORD97":170506.5,"N_COORD97":2546075.98,"ADDRESS":"北園街１２４巷１０弄７０號","OBJECTID":42178},"geometry":{"x":170506.5,"y":2546075.9800000042}},{"attributes":{"ID":42179,"DIS_CODE":0,"TOWNNAME":"北區","LI":"開元里","LIN":"7鄰","STREET":"北園街","SECT":" ","MAREA":" ","LANE":"１２４巷","ALLEY":"１０弄","HOUSE_NO":"７２號","E_COORD97":170504.07000000001,"N_COORD97":2546079.3700000001,"ADDRESS":"北園街１２４巷１０弄７２號","OBJECTID":42179},"geometry":{"x":170504.07000000123,"y":2546079.370000001}},{"attributes":{"ID":42180,"DIS_CODE":0,"TOWNNAME":"北區","LI":"開元里","LIN":"7鄰","STREET":"北園街","SECT":" ","MAREA":" ","LANE":"１２４巷","ALLEY":"１０弄","HOUSE_NO":"７４號","E_COORD97":170499.20999999999,"N_COORD97":2546083.4399999999,"ADDRESS":"北園街１２４巷１０弄７４號","OBJECTID":42180},"geometry":{"x":170499.21000000089,"y":2546083.4400000013}},{"attributes":{"ID":42181,"DIS_CODE":0,"TOWNNAME":"北區","LI":"開元里","LIN":"7鄰","STREET":"北園街","SECT":" ","MAREA":" ","LANE":"１２４巷","ALLEY":"１０弄","HOUSE_NO":"７６號","E_COORD97":170495.98000000001,"N_COORD97":2546087,"ADDRESS":"北園街１２４巷１０弄７６號","OBJECTID":42181},"geometry":{"x":170495.98000000138,"y":2546087.0000000019}},{"attributes":{"ID":42182,"DIS_CODE":0,"TOWNNAME":"北區","LI":"開元里","LIN":"7鄰","STREET":"北園街","SECT":" ","MAREA":" ","LANE":"１２４巷","ALLEY":"１０弄","HOUSE_NO":"７８號","E_COORD97":170491.60999999999,"N_COORD97":2546090.6299999999,"ADDRESS":"北園街１２４巷１０弄７８號","OBJECTID":42182},"geometry":{"x":170491.61000000127,"y":2546090.6300000027}},{"attributes":{"ID":42183,"DIS_CODE":0,"TOWNNAME":"東區","LI":"東明里","LIN":"17鄰","STREET":"東安路","SECT":" ","MAREA":" ","LANE":" ","ALLEY":" ","HOUSE_NO":"６２號","E_COORD97":170700.97,"N_COORD97":2543649.9100000001,"ADDRESS":"東安路６２號","OBJECTID":42183},"geometry":{"x":170700.96999999974,"y":2543649.910000002}},{"attributes":{"ID":42184,"DIS_CODE":0,"TOWNNAME":"東區","LI":"東明里","LIN":"17鄰","STREET":"東安路","SECT":" ","MAREA":" ","LANE":" ","ALLEY":" ","HOUSE_NO":"６４號","E_COORD97":170702.57999999999,"N_COORD97":2543652.8100000001,"ADDRESS":"東安路６４號","OBJECTID":42184},"geometry":{"x":170702.58000000007,"y":2543652.8100000005}},{"attributes":{"ID":42185,"DIS_CODE":0,"TOWNNAME":"東區","LI":"東明里","LIN":"17鄰","STREET":"東安路","SECT":" ","MAREA":" ","LANE":" ","ALLEY":" ","HOUSE_NO":"６６號","E_COORD97":170703.38,"N_COORD97":2543657.3100000001,"ADDRESS":"東安路６６號","OBJECTID":42185},"geometry":{"x":170703.38000000082,"y":2543657.3100000024}},{"attributes":{"ID":42186,"DIS_CODE":0,"TOWNNAME":"官田區","LI":"官田里","LIN":"7鄰","STREET":" ","SECT":" ","MAREA":"官田","LANE":" ","ALLEY":" ","HOUSE_NO":"５９號之５５","E_COORD97":182675.10000000001,"N_COORD97":2564896.3900000001,"ADDRESS":"官田５９號之５５","OBJECTID":42186},"geometry":{"x":182675.09999999963,"y":2564896.3900000006}},{"attributes":{"ID":42187,"DIS_CODE":0,"TOWNNAME":"東區","LI":"東明里","LIN":"17鄰","STREET":"東安路","SECT":" ","MAREA":" ","LANE":" ","ALLEY":" ","HOUSE_NO":"６８號","E_COORD97":170704.01999999999,"N_COORD97":2543661.1699999999,"ADDRESS":"東安路６８號","OBJECTID":42187},"geometry":{"x":170704.01999999955,"y":2543661.1700000018}},{"attributes":{"ID":42188,"DIS_CODE":0,"TOWNNAME":"東區","LI":"東明里","LIN":"17鄰","STREET":"東安路","SECT":" ","MAREA":" ","LANE":" ","ALLEY":" ","HOUSE_NO":"７０號","E_COORD97":170704.19,"N_COORD97":2543664.8700000001,"ADDRESS":"東安路７０號","OBJECTID":42188},"geometry":{"x":170704.19000000041,"y":2543664.8700000029}},{"attributes":{"ID":42189,"DIS_CODE":0,"TOWNNAME":"官田區","LI":"官田里","LIN":"7鄰","STREET":" ","SECT":" ","MAREA":"官田","LANE":" ","ALLEY":" ","HOUSE_NO":"５９號之５６","E_COORD97":182670.28,"N_COORD97":2564894.7999999998,"ADDRESS":"官田５９號之５６","OBJECTID":42189},"geometry":{"x":182670.28000000119,"y":2564894.8000000026}},{"attributes":{"ID":42190,"DIS_CODE":0,"TOWNNAME":"官田區","LI":"官田里","LIN":"7鄰","STREET":" ","SECT":" ","MAREA":"官田","LANE":" ","ALLEY":" ","HOUSE_NO":"５９號之５７","E_COORD97":182665.45000000001,"N_COORD97":2564893.2000000002,"ADDRESS":"官田５９號之５７","OBJECTID":42190},"geometry":{"x":182665.45000000205,"y":2564893.200000003}},{"attributes":{"ID":42191,"DIS_CODE":0,"TOWNNAME":"官田區","LI":"官田里","LIN":"7鄰","STREET":" ","SECT":" ","MAREA":"官田","LANE":" ","ALLEY":" ","HOUSE_NO":"５９號之５８","E_COORD97":182660.62,"N_COORD97":2564891.6099999999,"ADDRESS":"官田５９號之５８","OBJECTID":42191},"geometry":{"x":182660.61999999918,"y":2564891.6100000013}},{"attributes":{"ID":42192,"DIS_CODE":0,"TOWNNAME":"善化區","LI":"胡厝里","LIN":"17鄰","STREET":" ","SECT":" ","MAREA":"西衛","LANE":" ","ALLEY":" ","HOUSE_NO":"７之１７號","E_COORD97":174361.17999999999,"N_COORD97":2559446.77,"ADDRESS":"西衛７之１７號","OBJECTID":42192},"geometry":{"x":174361.1799999997,"y":2559446.7699999996}},{"attributes":{"ID":42193,"DIS_CODE":0,"TOWNNAME":"善化區","LI":"胡厝里","LIN":"17鄰","STREET":" ","SECT":" ","MAREA":"西衛","LANE":" ","ALLEY":" ","HOUSE_NO":"１７號","E_COORD97":174421.76000000001,"N_COORD97":2559523,"ADDRESS":"西衛１７號","OBJECTID":42193},"geometry":{"x":174421.75999999978,"y":2559523.0000000019}},{"attributes":{"ID":42194,"DIS_CODE":0,"TOWNNAME":"官田區","LI":"官田里","LIN":"7鄰","STREET":" ","SECT":" ","MAREA":"官田","LANE":" ","ALLEY":" ","HOUSE_NO":"５９號之５９","E_COORD97":182655.79000000001,"N_COORD97":2564890.02,"ADDRESS":"官田５９號之５９","OBJECTID":42194},"geometry":{"x":182655.79000000004,"y":2564890.0199999996}},{"attributes":{"ID":42195,"DIS_CODE":0,"TOWNNAME":"官田區","LI":"官田里","LIN":"7鄰","STREET":" ","SECT":" ","MAREA":"官田","LANE":" ","ALLEY":" ","HOUSE_NO":"５９號之５","E_COORD97":182729.26000000001,"N_COORD97":2564935.0899999999,"ADDRESS":"官田５９號之５","OBJECTID":42195},"geometry":{"x":182729.26000000071,"y":2564935.089999998}},{"attributes":{"ID":42196,"DIS_CODE":0,"TOWNNAME":"官田區","LI":"官田里","LIN":"7鄰","STREET":" ","SECT":" ","MAREA":"官田","LANE":" ","ALLEY":" ","HOUSE_NO":"５９號之６０","E_COORD97":182650.81,"N_COORD97":2564889.9399999999,"ADDRESS":"官田５９號之６０","OBJECTID":42196},"geometry":{"x":182650.81000000052,"y":2564889.9400000013}},{"attributes":{"ID":42197,"DIS_CODE":0,"TOWNNAME":"官田區","LI":"官田里","LIN":"7鄰","STREET":" ","SECT":" ","MAREA":"官田","LANE":" ","ALLEY":" ","HOUSE_NO":"５９號之６１","E_COORD97":182642.37,"N_COORD97":2564887.3399999999,"ADDRESS":"官田５９號之６１","OBJECTID":42197},"geometry":{"x":182642.37000000104,"y":2564887.3400000017}},{"attributes":{"ID":42198,"DIS_CODE":0,"TOWNNAME":"官田區","LI":"官田里","LIN":"7鄰","STREET":" ","SECT":" ","MAREA":"官田","LANE":" ","ALLEY":" ","HOUSE_NO":"５９號之６２","E_COORD97":182705.04000000001,"N_COORD97":2564928.8399999999,"ADDRESS":"官田５９號之６２","OBJECTID":42198},"geometry":{"x":182705.04000000004,"y":2564928.8399999999}},{"attributes":{"ID":42199,"DIS_CODE":0,"TOWNNAME":"官田區","LI":"官田里","LIN":"7鄰","STREET":" ","SECT":" ","MAREA":"官田","LANE":" ","ALLEY":" ","HOUSE_NO":"５９號之６３","E_COORD97":182706.14999999999,"N_COORD97":2564922.0600000001,"ADDRESS":"官田５９號之６３","OBJECTID":42199},"geometry":{"x":182706.15000000037,"y":2564922.0600000005}},{"attributes":{"ID":42200,"DIS_CODE":0,"TOWNNAME":"官田區","LI":"官田里","LIN":"7鄰","STREET":" ","SECT":" ","MAREA":"官田","LANE":" ","ALLEY":" ","HOUSE_NO":"５９號之６","E_COORD97":182733.59,"N_COORD97":2564936.1800000002,"ADDRESS":"官田５９號之６","OBJECTID":42200},"geometry":{"x":182733.59000000171,"y":2564936.1800000016}}]}