{"displayFieldName":"TOWNNAME","fieldAliases":{"ID":"ID","DIS_CODE":"DIS_CODE","TOWNNAME":"TOWNNAME","LI":"LI","LIN":"LIN","STREET":"STREET","SECT":"SECT","MAREA":"MAREA","LANE":"LANE","ALLEY":"ALLEY","HOUSE_NO":"HOUSE_NO","E_COORD97":"E_COORD97","N_COORD97":"N_COORD97","ADDRESS":"ADDRESS","OBJECTID":"OBJECTID"},"geometryType":"esriGeometryPoint","spatialReference":{"wkid":102443,"latestWkid":3826},"fields":[{"name":"ID","type":"esriFieldTypeDouble","alias":"ID"},{"name":"DIS_CODE","type":"esriFieldTypeInteger","alias":"DIS_CODE"},{"name":"TOWNNAME","type":"esriFieldTypeString","alias":"TOWNNAME","length":8},{"name":"LI","type":"esriFieldTypeString","alias":"LI","length":8},{"name":"LIN","type":"esriFieldTypeString","alias":"LIN","length":12},{"name":"STREET","type":"esriFieldTypeString","alias":"STREET","length":20},{"name":"SECT","type":"esriFieldTypeString","alias":"SECT","length":8},{"name":"MAREA","type":"esriFieldTypeString","alias":"MAREA","length":12},{"name":"LANE","type":"esriFieldTypeString","alias":"LANE","length":10},{"name":"ALLEY","type":"esriFieldTypeString","alias":"ALLEY","length":10},{"name":"HOUSE_NO","type":"esriFieldTypeString","alias":"HOUSE_NO","length":20},{"name":"E_COORD97","type":"esriFieldTypeDouble","alias":"E_COORD97"},{"name":"N_COORD97","type":"esriFieldTypeDouble","alias":"N_COORD97"},{"name":"ADDRESS","type":"esriFieldTypeString","alias":"ADDRESS","length":50},{"name":"OBJECTID","type":"esriFieldTypeOID","alias":"OBJECTID"}],"features":[{"attributes":{"ID":210602,"DIS_CODE":0,"TOWNNAME":"仁德區","LI":"後壁里","LIN":"43鄰","STREET":"德崙路","SECT":" ","MAREA":" ","LANE":"２１巷","ALLEY":"１０弄","HOUSE_NO":"１６號三樓之２","E_COORD97":173323.85000000001,"N_COORD97":2538618.2200000002,"ADDRESS":"德崙路２１巷１０弄１６號三樓之２","OBJECTID":210601},"geometry":{"x":173323.85000000056,"y":2538618.2200000007}},{"attributes":{"ID":210603,"DIS_CODE":0,"TOWNNAME":"仁德區","LI":"後壁里","LIN":"43鄰","STREET":"德崙路","SECT":" ","MAREA":" ","LANE":"２１巷","ALLEY":"１０弄","HOUSE_NO":"１６號十樓之２","E_COORD97":173323.85000000001,"N_COORD97":2538618.2200000002,"ADDRESS":"德崙路２１巷１０弄１６號十樓之２","OBJECTID":210602},"geometry":{"x":173323.85000000056,"y":2538618.2200000007}},{"attributes":{"ID":210604,"DIS_CODE":0,"TOWNNAME":"安定區","LI":"六嘉里","LIN":"2鄰","STREET":" ","SECT":" ","MAREA":"六塊寮","LANE":" ","ALLEY":" ","HOUSE_NO":"１９號之５","E_COORD97":170088.42000000001,"N_COORD97":2553478.2999999998,"ADDRESS":"六塊寮１９之５號","OBJECTID":210603},"geometry":{"x":170088.41999999993,"y":2553478.3000000007}},{"attributes":{"ID":210605,"DIS_CODE":0,"TOWNNAME":"安定區","LI":"蘇厝里","LIN":"2鄰","STREET":" ","SECT":" ","MAREA":"蘇厝","LANE":" ","ALLEY":" ","HOUSE_NO":"２９３之１１２號","E_COORD97":173352.01999999999,"N_COORD97":2558365.2999999998,"ADDRESS":"蘇厝２９３之１１２號","OBJECTID":210604},"geometry":{"x":173352.01999999955,"y":2558365.3000000026}},{"attributes":{"ID":210606,"DIS_CODE":0,"TOWNNAME":"仁德區","LI":"後壁里","LIN":"43鄰","STREET":"德崙路","SECT":" ","MAREA":" ","LANE":"２１巷","ALLEY":"１０弄","HOUSE_NO":"１８號十二樓之３","E_COORD97":173337.29999999999,"N_COORD97":2538610.7200000002,"ADDRESS":"德崙路２１巷１０弄１８號十二樓之３","OBJECTID":210605},"geometry":{"x":173337.30000000168,"y":2538610.7200000025}},{"attributes":{"ID":210607,"DIS_CODE":0,"TOWNNAME":"仁德區","LI":"後壁里","LIN":"43鄰","STREET":"德崙路","SECT":" ","MAREA":" ","LANE":"２１巷","ALLEY":"１０弄","HOUSE_NO":"１６號九樓之３","E_COORD97":173323.81,"N_COORD97":2538618.2200000002,"ADDRESS":"德崙路２１巷１０弄１６號九樓之３","OBJECTID":210606},"geometry":{"x":173323.81000000052,"y":2538618.2200000007}},{"attributes":{"ID":210608,"DIS_CODE":0,"TOWNNAME":"永康區","LI":"龍潭里","LIN":"43鄰","STREET":"國民路","SECT":" ","MAREA":" ","LANE":"２３１巷","ALLEY":"１弄","HOUSE_NO":"１０號","E_COORD97":174546.39999999999,"N_COORD97":2547026.3999999999,"ADDRESS":"國民路２３１巷１弄１０號","OBJECTID":210607},"geometry":{"x":174546.4000000013,"y":2547026.4000000022}},{"attributes":{"ID":210609,"DIS_CODE":0,"TOWNNAME":"永康區","LI":"西灣里","LIN":"43鄰","STREET":"大灣路","SECT":" ","MAREA":" ","LANE":"９４２巷","ALLEY":"３７４弄","HOUSE_NO":"１７號三樓","E_COORD97":174003.60000000001,"N_COORD97":2545434.4399999999,"ADDRESS":"大灣路９４２巷３７４弄１７號三樓","OBJECTID":210608},"geometry":{"x":174003.60000000056,"y":2545434.4400000032}},{"attributes":{"ID":210610,"DIS_CODE":0,"TOWNNAME":"安定區","LI":"中榮里","LIN":"2鄰","STREET":" ","SECT":" ","MAREA":"許中營","LANE":" ","ALLEY":" ","HOUSE_NO":"１９之２號","E_COORD97":172531.54000000001,"N_COORD97":2554845.2999999998,"ADDRESS":"許中營１９之２號","OBJECTID":210609},"geometry":{"x":172531.54000000097,"y":2554845.3000000045}},{"attributes":{"ID":210611,"DIS_CODE":0,"TOWNNAME":"安定區","LI":"中榮里","LIN":"2鄰","STREET":" ","SECT":" ","MAREA":"許中營","LANE":" ","ALLEY":" ","HOUSE_NO":"２３之１１號","E_COORD97":172569.79000000001,"N_COORD97":2554803.2999999998,"ADDRESS":"許中營２３之１１號","OBJECTID":210610},"geometry":{"x":172569.7900000019,"y":2554803.3000000007}},{"attributes":{"ID":210612,"DIS_CODE":0,"TOWNNAME":"麻豆區","LI":"麻口里","LIN":"9鄰","STREET":" ","SECT":" ","MAREA":"麻豆口","LANE":" ","ALLEY":" ","HOUSE_NO":"１００號","E_COORD97":170023.63,"N_COORD97":2564108.1099999999,"ADDRESS":"麻豆口１００號","OBJECTID":210611},"geometry":{"x":170023.62999999989,"y":2564108.1100000013}},{"attributes":{"ID":210613,"DIS_CODE":0,"TOWNNAME":"麻豆區","LI":"麻口里","LIN":"9鄰","STREET":" ","SECT":" ","MAREA":"麻豆口","LANE":" ","ALLEY":" ","HOUSE_NO":"１１８號","E_COORD97":169707.67000000001,"N_COORD97":2564014.6499999999,"ADDRESS":"麻豆口１１８號","OBJECTID":210612},"geometry":{"x":169707.67000000086,"y":2564014.6500000022}},{"attributes":{"ID":210614,"DIS_CODE":0,"TOWNNAME":"麻豆區","LI":"麻口里","LIN":"9鄰","STREET":" ","SECT":" ","MAREA":"麻豆口","LANE":" ","ALLEY":" ","HOUSE_NO":"８５號之２","E_COORD97":169951.26999999999,"N_COORD97":2564217.1899999999,"ADDRESS":"麻豆口８５號之２","OBJECTID":210613},"geometry":{"x":169951.26999999955,"y":2564217.1900000013}},{"attributes":{"ID":210615,"DIS_CODE":0,"TOWNNAME":"麻豆區","LI":"麻口里","LIN":"9鄰","STREET":" ","SECT":" ","MAREA":"麻豆口","LANE":" ","ALLEY":" ","HOUSE_NO":"８５號","E_COORD97":169927.35941599999,"N_COORD97":2564251.2290599998,"ADDRESS":"麻豆口８５號","OBJECTID":210614},"geometry":{"x":169927.35941599961,"y":2564251.2290610019}},{"attributes":{"ID":210616,"DIS_CODE":0,"TOWNNAME":"麻豆區","LI":"麻口里","LIN":"9鄰","STREET":" ","SECT":" ","MAREA":"麻豆口","LANE":" ","ALLEY":" ","HOUSE_NO":"８６號","E_COORD97":169876.67000000001,"N_COORD97":2564212.4399999999,"ADDRESS":"麻豆口８６號","OBJECTID":210615},"geometry":{"x":169876.66999999899,"y":2564212.4399999995}},{"attributes":{"ID":210617,"DIS_CODE":0,"TOWNNAME":"永康區","LI":"西灣里","LIN":"43鄰","STREET":"大灣路","SECT":" ","MAREA":" ","LANE":"９４２巷","ALLEY":"３８８弄","HOUSE_NO":"２９號六樓之１","E_COORD97":174047.35999999999,"N_COORD97":2545497.3500000001,"ADDRESS":"大灣路９４２巷３８８弄２９號六樓之１","OBJECTID":210616},"geometry":{"x":174047.36000000034,"y":2545497.3500000015}},{"attributes":{"ID":210618,"DIS_CODE":0,"TOWNNAME":"永康區","LI":"西灣里","LIN":"43鄰","STREET":"大灣路","SECT":" ","MAREA":" ","LANE":"９４２巷","ALLEY":"３８８弄","HOUSE_NO":"３１號六樓之２","E_COORD97":174050.60000000001,"N_COORD97":2545467.3300000001,"ADDRESS":"大灣路９４２巷３８８弄３１號六樓之２","OBJECTID":210617},"geometry":{"x":174050.60000000056,"y":2545467.3300000019}},{"attributes":{"ID":210619,"DIS_CODE":0,"TOWNNAME":"永康區","LI":"西灣里","LIN":"43鄰","STREET":"大灣路","SECT":" ","MAREA":" ","LANE":"９４２巷","ALLEY":"３８８弄","HOUSE_NO":"２９號四樓之２","E_COORD97":174047.48999999999,"N_COORD97":2545497.3500000001,"ADDRESS":"大灣路９４２巷３８８弄２９號四樓之２","OBJECTID":210618},"geometry":{"x":174047.49000000115,"y":2545497.3500000015}},{"attributes":{"ID":210620,"DIS_CODE":0,"TOWNNAME":"永康區","LI":"西灣里","LIN":"43鄰","STREET":"大灣路","SECT":" ","MAREA":" ","LANE":"９４２巷","ALLEY":"３８８弄","HOUSE_NO":"２９號三樓之３","E_COORD97":174047.45000000001,"N_COORD97":2545497.3500000001,"ADDRESS":"大灣路９４２巷３８８弄２９號三樓之３","OBJECTID":210619},"geometry":{"x":174047.45000000112,"y":2545497.3500000015}},{"attributes":{"ID":210621,"DIS_CODE":0,"TOWNNAME":"永康區","LI":"西灣里","LIN":"43鄰","STREET":"大灣路","SECT":" ","MAREA":" ","LANE":"９４２巷","ALLEY":"３８８弄","HOUSE_NO":"２９號二樓之３","E_COORD97":174047.45000000001,"N_COORD97":2545497.3500000001,"ADDRESS":"大灣路９４２巷３８８弄２９號二樓之３","OBJECTID":210620},"geometry":{"x":174047.45000000112,"y":2545497.3500000015}},{"attributes":{"ID":210622,"DIS_CODE":0,"TOWNNAME":"永康區","LI":"西灣里","LIN":"43鄰","STREET":"大灣路","SECT":" ","MAREA":" ","LANE":"９４２巷","ALLEY":"３８８弄","HOUSE_NO":"２７號三樓之２","E_COORD97":174034,"N_COORD97":2545504.8100000001,"ADDRESS":"大灣路９４２巷３８８弄２７號三樓之２","OBJECTID":210621},"geometry":{"x":174034,"y":2545504.8100000024}},{"attributes":{"ID":210623,"DIS_CODE":0,"TOWNNAME":"永康區","LI":"西灣里","LIN":"43鄰","STREET":"大灣路","SECT":" ","MAREA":" ","LANE":"９４２巷","ALLEY":"３８８弄","HOUSE_NO":"２７號七樓之２","E_COORD97":174034,"N_COORD97":2545504.8100000001,"ADDRESS":"大灣路９４２巷３８８弄２７號七樓之２","OBJECTID":210622},"geometry":{"x":174034,"y":2545504.8100000024}},{"attributes":{"ID":210624,"DIS_CODE":0,"TOWNNAME":"永康區","LI":"西灣里","LIN":"43鄰","STREET":"大灣路","SECT":" ","MAREA":" ","LANE":"９４２巷","ALLEY":"３８８弄","HOUSE_NO":"２７號二樓之１","E_COORD97":174033.85999999999,"N_COORD97":2545504.8100000001,"ADDRESS":"大灣路９４２巷３８８弄２７號二樓之１","OBJECTID":210623},"geometry":{"x":174033.86000000034,"y":2545504.8100000024}},{"attributes":{"ID":210625,"DIS_CODE":0,"TOWNNAME":"永康區","LI":"西灣里","LIN":"43鄰","STREET":"大灣路","SECT":" ","MAREA":" ","LANE":"９４２巷","ALLEY":"３８８弄","HOUSE_NO":"２９號三樓之２","E_COORD97":174047.48999999999,"N_COORD97":2545497.3500000001,"ADDRESS":"大灣路９４２巷３８８弄２９號三樓之２","OBJECTID":210624},"geometry":{"x":174047.49000000115,"y":2545497.3500000015}},{"attributes":{"ID":210626,"DIS_CODE":0,"TOWNNAME":"永康區","LI":"西灣里","LIN":"43鄰","STREET":"大灣路","SECT":" ","MAREA":" ","LANE":"９４２巷","ALLEY":"３８８弄","HOUSE_NO":"２９號五樓之２","E_COORD97":174047.48999999999,"N_COORD97":2545497.3500000001,"ADDRESS":"大灣路９４２巷３８８弄２９號五樓之２","OBJECTID":210625},"geometry":{"x":174047.49000000115,"y":2545497.3500000015}},{"attributes":{"ID":210627,"DIS_CODE":0,"TOWNNAME":"永康區","LI":"西灣里","LIN":"43鄰","STREET":"大灣路","SECT":" ","MAREA":" ","LANE":"９４２巷","ALLEY":"３８８弄","HOUSE_NO":"２７號三樓之１","E_COORD97":174033.85999999999,"N_COORD97":2545504.8100000001,"ADDRESS":"大灣路９４２巷３８８弄２７號三樓之１","OBJECTID":210626},"geometry":{"x":174033.86000000034,"y":2545504.8100000024}},{"attributes":{"ID":210628,"DIS_CODE":0,"TOWNNAME":"永康區","LI":"西灣里","LIN":"43鄰","STREET":"大灣路","SECT":" ","MAREA":" ","LANE":"９４２巷","ALLEY":"３８８弄","HOUSE_NO":"２７號六樓之１","E_COORD97":174033.85999999999,"N_COORD97":2545504.8100000001,"ADDRESS":"大灣路９４２巷３８８弄２７號六樓之１","OBJECTID":210627},"geometry":{"x":174033.86000000034,"y":2545504.8100000024}},{"attributes":{"ID":210629,"DIS_CODE":0,"TOWNNAME":"永康區","LI":"西灣里","LIN":"43鄰","STREET":"大灣路","SECT":" ","MAREA":" ","LANE":"９４２巷","ALLEY":"３８８弄","HOUSE_NO":"２９號二樓之２","E_COORD97":174047.48999999999,"N_COORD97":2545497.3500000001,"ADDRESS":"大灣路９４２巷３８８弄２９號二樓之２","OBJECTID":210628},"geometry":{"x":174047.49000000115,"y":2545497.3500000015}},{"attributes":{"ID":210630,"DIS_CODE":0,"TOWNNAME":"永康區","LI":"西灣里","LIN":"43鄰","STREET":"大灣路","SECT":" ","MAREA":" ","LANE":"９４２巷","ALLEY":"３８８弄","HOUSE_NO":"２７號四樓之１","E_COORD97":174033.85999999999,"N_COORD97":2545504.8100000001,"ADDRESS":"大灣路９４２巷３８８弄２７號四樓之１","OBJECTID":210629},"geometry":{"x":174033.86000000034,"y":2545504.8100000024}},{"attributes":{"ID":210631,"DIS_CODE":0,"TOWNNAME":"永康區","LI":"西灣里","LIN":"43鄰","STREET":"大灣路","SECT":" ","MAREA":" ","LANE":"９４２巷","ALLEY":"３８８弄","HOUSE_NO":"２９號五樓之１","E_COORD97":174047.35999999999,"N_COORD97":2545497.3500000001,"ADDRESS":"大灣路９４２巷３８８弄２９號五樓之１","OBJECTID":210630},"geometry":{"x":174047.36000000034,"y":2545497.3500000015}},{"attributes":{"ID":210632,"DIS_CODE":0,"TOWNNAME":"永康區","LI":"西灣里","LIN":"43鄰","STREET":"大灣路","SECT":" ","MAREA":" ","LANE":"９４２巷","ALLEY":"３８８弄","HOUSE_NO":"３１號七樓之１","E_COORD97":174050.45999999999,"N_COORD97":2545467.3300000001,"ADDRESS":"大灣路９４２巷３８８弄３１號七樓之１","OBJECTID":210631},"geometry":{"x":174050.46000000089,"y":2545467.3300000019}},{"attributes":{"ID":210633,"DIS_CODE":0,"TOWNNAME":"永康區","LI":"西灣里","LIN":"43鄰","STREET":"大灣路","SECT":" ","MAREA":" ","LANE":"９４２巷","ALLEY":"３８８弄","HOUSE_NO":"２９號七樓之１","E_COORD97":174047.35999999999,"N_COORD97":2545497.3500000001,"ADDRESS":"大灣路９４２巷３８８弄２９號七樓之１","OBJECTID":210632},"geometry":{"x":174047.36000000034,"y":2545497.3500000015}},{"attributes":{"ID":210634,"DIS_CODE":0,"TOWNNAME":"永康區","LI":"西灣里","LIN":"43鄰","STREET":"大灣路","SECT":" ","MAREA":" ","LANE":"９４２巷","ALLEY":"３８８弄","HOUSE_NO":"２７號七樓之１","E_COORD97":174033.85999999999,"N_COORD97":2545504.8100000001,"ADDRESS":"大灣路９４２巷３８８弄２７號七樓之１","OBJECTID":210633},"geometry":{"x":174033.86000000034,"y":2545504.8100000024}},{"attributes":{"ID":210635,"DIS_CODE":0,"TOWNNAME":"永康區","LI":"西灣里","LIN":"43鄰","STREET":"大灣路","SECT":" ","MAREA":" ","LANE":"９４２巷","ALLEY":"３７４弄","HOUSE_NO":"２１號五樓之１","E_COORD97":174015.66,"N_COORD97":2545443.3999999999,"ADDRESS":"大灣路９４２巷３７４弄２１號五樓之１","OBJECTID":210634},"geometry":{"x":174015.66000000108,"y":2545443.4000000022}},{"attributes":{"ID":210636,"DIS_CODE":0,"TOWNNAME":"安定區","LI":"中榮里","LIN":"2鄰","STREET":" ","SECT":" ","MAREA":"許中營","LANE":" ","ALLEY":" ","HOUSE_NO":"２３之３３號","E_COORD97":172509.79000000001,"N_COORD97":2554782.2999999998,"ADDRESS":"許中營２３之３３號","OBJECTID":210635},"geometry":{"x":172509.79000000004,"y":2554782.3000000026}},{"attributes":{"ID":210637,"DIS_CODE":0,"TOWNNAME":"永康區","LI":"西灣里","LIN":"43鄰","STREET":"大灣路","SECT":" ","MAREA":" ","LANE":"９４２巷","ALLEY":"３７４弄","HOUSE_NO":"１９號五樓之１","E_COORD97":174005.32999999999,"N_COORD97":2545445.29,"ADDRESS":"大灣路９４２巷３７４弄１９號五樓之１","OBJECTID":210636},"geometry":{"x":174005.33000000194,"y":2545445.2900000028}},{"attributes":{"ID":210638,"DIS_CODE":0,"TOWNNAME":"永康區","LI":"西灣里","LIN":"43鄰","STREET":"大灣路","SECT":" ","MAREA":" ","LANE":"９４２巷","ALLEY":"３８８弄","HOUSE_NO":"２１號五樓","E_COORD97":174031.28,"N_COORD97":2545479.2599999998,"ADDRESS":"大灣路９４２巷３８８弄２１號五樓","OBJECTID":210637},"geometry":{"x":174031.28000000212,"y":2545479.2599999998}},{"attributes":{"ID":210639,"DIS_CODE":0,"TOWNNAME":"永康區","LI":"西灣里","LIN":"43鄰","STREET":"大灣路","SECT":" ","MAREA":" ","LANE":"９４２巷","ALLEY":"３７４弄","HOUSE_NO":"２１號四樓之１","E_COORD97":174015.66,"N_COORD97":2545443.3999999999,"ADDRESS":"大灣路９４２巷３７４弄２１號四樓之１","OBJECTID":210638},"geometry":{"x":174015.66000000108,"y":2545443.4000000022}},{"attributes":{"ID":210640,"DIS_CODE":0,"TOWNNAME":"永康區","LI":"崑山里","LIN":"43鄰","STREET":"大灣路","SECT":" ","MAREA":" ","LANE":"９４２巷","ALLEY":"３７１弄","HOUSE_NO":"６１號","E_COORD97":173577.17999999999,"N_COORD97":2545251.5800000001,"ADDRESS":"大灣路９４２巷３７１弄６１號","OBJECTID":210639},"geometry":{"x":173577.18000000063,"y":2545251.5800000019}},{"attributes":{"ID":210641,"DIS_CODE":0,"TOWNNAME":"永康區","LI":"崑山里","LIN":"43鄰","STREET":"大灣路","SECT":" ","MAREA":" ","LANE":"９４２巷","ALLEY":"３７１弄","HOUSE_NO":"７４號","E_COORD97":173565,"N_COORD97":2545305.8799999999,"ADDRESS":"大灣路９４２巷３７１弄７４號","OBJECTID":210640},"geometry":{"x":173565.00000000186,"y":2545305.8800000008}},{"attributes":{"ID":210642,"DIS_CODE":0,"TOWNNAME":"永康區","LI":"崑山里","LIN":"43鄰","STREET":"大灣路","SECT":" ","MAREA":" ","LANE":"９４２巷","ALLEY":"４４９弄","HOUSE_NO":"３９號","E_COORD97":173783.82999999999,"N_COORD97":2545398.1099999999,"ADDRESS":"大灣路９４２巷４４９弄３９號","OBJECTID":210641},"geometry":{"x":173783.83000000101,"y":2545398.1099999994}},{"attributes":{"ID":210643,"DIS_CODE":0,"TOWNNAME":"永康區","LI":"復華里","LIN":"41鄰","STREET":"復華七街","SECT":" ","MAREA":" ","LANE":"３２巷","ALLEY":"２２弄","HOUSE_NO":"３５號","E_COORD97":172590.75,"N_COORD97":2545890.7999999998,"ADDRESS":"復華七街３２巷２２弄３５號","OBJECTID":210642},"geometry":{"x":172590.75000000093,"y":2545890.8000000007}},{"attributes":{"ID":210644,"DIS_CODE":0,"TOWNNAME":"歸仁區","LI":"許厝里","LIN":"9鄰","STREET":"仁愛南街","SECT":" ","MAREA":" ","LANE":" ","ALLEY":" ","HOUSE_NO":"７４號","E_COORD97":178265.13,"N_COORD97":2540470.25,"ADDRESS":"仁愛南街７４號","OBJECTID":210643},"geometry":{"x":178265.13000000082,"y":2540470.2500000019}},{"attributes":{"ID":210645,"DIS_CODE":0,"TOWNNAME":"西港區","LI":"慶安里","LIN":"8鄰","STREET":"新興街","SECT":" ","MAREA":" ","LANE":" ","ALLEY":" ","HOUSE_NO":"１４３號","E_COORD97":168200.01000000001,"N_COORD97":2558308.6200000001,"ADDRESS":"新興街１４３號","OBJECTID":210644},"geometry":{"x":168200.01000000071,"y":2558308.6200000029}},{"attributes":{"ID":210646,"DIS_CODE":0,"TOWNNAME":"西港區","LI":"慶安里","LIN":"18鄰","STREET":"新興街","SECT":" ","MAREA":" ","LANE":" ","ALLEY":" ","HOUSE_NO":"３０號之１","E_COORD97":168195.76000000001,"N_COORD97":2557935.9199999999,"ADDRESS":"新興街３０號之１","OBJECTID":210645},"geometry":{"x":168195.75999999978,"y":2557935.9200000018}},{"attributes":{"ID":210647,"DIS_CODE":0,"TOWNNAME":"西港區","LI":"慶安里","LIN":"18鄰","STREET":"新興街","SECT":" ","MAREA":" ","LANE":" ","ALLEY":" ","HOUSE_NO":"３２號","E_COORD97":168194.48999999999,"N_COORD97":2557942.96,"ADDRESS":"新興街３２號","OBJECTID":210646},"geometry":{"x":168194.49000000022,"y":2557942.9600000046}},{"attributes":{"ID":210648,"DIS_CODE":0,"TOWNNAME":"西港區","LI":"慶安里","LIN":"18鄰","STREET":"新興街","SECT":" ","MAREA":" ","LANE":" ","ALLEY":" ","HOUSE_NO":"３６號","E_COORD97":168193.62,"N_COORD97":2557950.3900000001,"ADDRESS":"新興街３６號","OBJECTID":210647},"geometry":{"x":168193.62000000011,"y":2557950.3900000025}},{"attributes":{"ID":210649,"DIS_CODE":0,"TOWNNAME":"西港區","LI":"慶安里","LIN":"18鄰","STREET":"新興街","SECT":" ","MAREA":" ","LANE":" ","ALLEY":" ","HOUSE_NO":"４２號","E_COORD97":168192.70999999999,"N_COORD97":2557962.0699999998,"ADDRESS":"新興街４２號","OBJECTID":210648},"geometry":{"x":168192.70999999996,"y":2557962.070000004}},{"attributes":{"ID":210650,"DIS_CODE":0,"TOWNNAME":"西港區","LI":"慶安里","LIN":"18鄰","STREET":"新興街","SECT":" ","MAREA":" ","LANE":" ","ALLEY":" ","HOUSE_NO":"４４號","E_COORD97":168192.06,"N_COORD97":2557966.6899999999,"ADDRESS":"新興街４４號","OBJECTID":210649},"geometry":{"x":168192.06000000145,"y":2557966.6899999995}},{"attributes":{"ID":210651,"DIS_CODE":0,"TOWNNAME":"西港區","LI":"慶安里","LIN":"18鄰","STREET":"新興街","SECT":" ","MAREA":" ","LANE":" ","ALLEY":" ","HOUSE_NO":"４８號","E_COORD97":168191.10000000001,"N_COORD97":2557974.96,"ADDRESS":"新興街４８號","OBJECTID":210650},"geometry":{"x":168191.09999999963,"y":2557974.9600000028}},{"attributes":{"ID":210652,"DIS_CODE":0,"TOWNNAME":"永康區","LI":"復華里","LIN":"41鄰","STREET":"復華七街","SECT":" ","MAREA":" ","LANE":"３２巷","ALLEY":"２２弄","HOUSE_NO":"１７號","E_COORD97":172642.97,"N_COORD97":2545903.0099999998,"ADDRESS":"復華七街３２巷２２弄１７號","OBJECTID":210651},"geometry":{"x":172642.97000000067,"y":2545903.0100000016}},{"attributes":{"ID":210653,"DIS_CODE":0,"TOWNNAME":"永康區","LI":"復華里","LIN":"41鄰","STREET":"復華七街","SECT":" ","MAREA":" ","LANE":"３２巷","ALLEY":"２２弄","HOUSE_NO":"２５號","E_COORD97":172626.39000000001,"N_COORD97":2545903.9500000002,"ADDRESS":"復華七街３２巷２２弄２５號","OBJECTID":210652},"geometry":{"x":172626.39000000153,"y":2545903.9499999993}},{"attributes":{"ID":210654,"DIS_CODE":0,"TOWNNAME":"仁德區","LI":"太子里","LIN":"41鄰","STREET":"太子路","SECT":" ","MAREA":" ","LANE":"６６巷","ALLEY":"４弄","HOUSE_NO":"２０號","E_COORD97":175286.12,"N_COORD97":2543634.5099999998,"ADDRESS":"太子路６６巷４弄２０號","OBJECTID":210653},"geometry":{"x":175286.12000000011,"y":2543634.5100000016}},{"attributes":{"ID":210655,"DIS_CODE":0,"TOWNNAME":"仁德區","LI":"太子里","LIN":"41鄰","STREET":"太子路","SECT":" ","MAREA":" ","LANE":"６６巷","ALLEY":"４弄","HOUSE_NO":"６號","E_COORD97":175247.79999999999,"N_COORD97":2543642.7599999998,"ADDRESS":"太子路６６巷４弄６號","OBJECTID":210654},"geometry":{"x":175247.80000000168,"y":2543642.7600000035}},{"attributes":{"ID":210656,"DIS_CODE":0,"TOWNNAME":"仁德區","LI":"太子里","LIN":"41鄰","STREET":"太子路","SECT":" ","MAREA":" ","LANE":"４２巷","ALLEY":"１弄","HOUSE_NO":"１０號","E_COORD97":175248.23000000001,"N_COORD97":2543613.0099999998,"ADDRESS":"太子路４２巷１弄１０號","OBJECTID":210655},"geometry":{"x":175248.23000000045,"y":2543613.0099999998}},{"attributes":{"ID":210657,"DIS_CODE":0,"TOWNNAME":"仁德區","LI":"太子里","LIN":"41鄰","STREET":"太子路","SECT":" ","MAREA":" ","LANE":"６６巷","ALLEY":"４弄","HOUSE_NO":"１號","E_COORD97":175240.51000000001,"N_COORD97":2543658.5099999998,"ADDRESS":"太子路６６巷４弄１號","OBJECTID":210656},"geometry":{"x":175240.50999999978,"y":2543658.5100000016}},{"attributes":{"ID":210658,"DIS_CODE":0,"TOWNNAME":"仁德區","LI":"太子里","LIN":"41鄰","STREET":"太子路","SECT":" ","MAREA":" ","LANE":"６６巷","ALLEY":"４弄","HOUSE_NO":"１７號","E_COORD97":175285.45999999999,"N_COORD97":2543649.0099999998,"ADDRESS":"太子路６６巷４弄１７號","OBJECTID":210657},"geometry":{"x":175285.45999999996,"y":2543649.0100000016}},{"attributes":{"ID":210659,"DIS_CODE":0,"TOWNNAME":"仁德區","LI":"太子里","LIN":"41鄰","STREET":"太子路","SECT":" ","MAREA":" ","LANE":"６６巷","ALLEY":"４弄","HOUSE_NO":"１６號","E_COORD97":175275.57000000001,"N_COORD97":2543636.7599999998,"ADDRESS":"太子路６６巷４弄１６號","OBJECTID":210658},"geometry":{"x":175275.57000000123,"y":2543636.7600000016}},{"attributes":{"ID":210660,"DIS_CODE":0,"TOWNNAME":"仁德區","LI":"仁義里","LIN":"41鄰","STREET":"中正路","SECT":"二段","MAREA":" ","LANE":"８９２巷","ALLEY":"１弄","HOUSE_NO":"５號","E_COORD97":173480.19,"N_COORD97":2540583.1499999999,"ADDRESS":"中正路二段８９２巷１弄５號","OBJECTID":210659},"geometry":{"x":173480.19000000134,"y":2540583.1500000022}},{"attributes":{"ID":210661,"DIS_CODE":0,"TOWNNAME":"仁德區","LI":"仁義里","LIN":"41鄰","STREET":"中正路","SECT":"二段","MAREA":" ","LANE":"８６２巷","ALLEY":"３３弄","HOUSE_NO":"４６號","E_COORD97":173534.32000000001,"N_COORD97":2540588.77,"ADDRESS":"中正路二段８６２巷３３弄４６號","OBJECTID":210660},"geometry":{"x":173534.32000000216,"y":2540588.7700000014}},{"attributes":{"ID":210662,"DIS_CODE":0,"TOWNNAME":"仁德區","LI":"仁義里","LIN":"41鄰","STREET":"中正路","SECT":"二段","MAREA":" ","LANE":"８９２巷","ALLEY":"１弄","HOUSE_NO":"１０號","E_COORD97":173487.14999999999,"N_COORD97":2540591.3999999999,"ADDRESS":"中正路二段８９２巷１弄１０號","OBJECTID":210661},"geometry":{"x":173487.1500000013,"y":2540591.4000000022}},{"attributes":{"ID":210663,"DIS_CODE":0,"TOWNNAME":"仁德區","LI":"仁德里","LIN":"41鄰","STREET":"中山路","SECT":" ","MAREA":" ","LANE":"８７０巷","ALLEY":"２２１弄","HOUSE_NO":"２１號","E_COORD97":172006.14999999999,"N_COORD97":2542219.2400000002,"ADDRESS":"中山路８７０巷２２１弄２１號","OBJECTID":210662},"geometry":{"x":172006.15000000037,"y":2542219.2400000039}},{"attributes":{"ID":210664,"DIS_CODE":0,"TOWNNAME":"仁德區","LI":"仁義里","LIN":"41鄰","STREET":"中正路","SECT":"二段","MAREA":" ","LANE":"８９２巷","ALLEY":"１弄","HOUSE_NO":"１２號","E_COORD97":173486.79999999999,"N_COORD97":2540595.1499999999,"ADDRESS":"中正路二段８９２巷１弄１２號","OBJECTID":210663},"geometry":{"x":173486.80000000075,"y":2540595.1500000004}},{"attributes":{"ID":210665,"DIS_CODE":0,"TOWNNAME":"仁德區","LI":"仁義里","LIN":"41鄰","STREET":"中正路","SECT":"二段","MAREA":" ","LANE":"８９２巷","ALLEY":"１弄","HOUSE_NO":"８號","E_COORD97":173486.16,"N_COORD97":2540587.8999999999,"ADDRESS":"中正路二段８９２巷１弄８號","OBJECTID":210664},"geometry":{"x":173486.16000000201,"y":2540587.9000000022}},{"attributes":{"ID":210666,"DIS_CODE":0,"TOWNNAME":"仁德區","LI":"仁義里","LIN":"41鄰","STREET":"中正路","SECT":"二段","MAREA":" ","LANE":"８９２巷","ALLEY":"１弄","HOUSE_NO":"１號","E_COORD97":173481.16,"N_COORD97":2540576.1499999999,"ADDRESS":"中正路二段８９２巷１弄１號","OBJECTID":210665},"geometry":{"x":173481.16000000201,"y":2540576.1500000022}},{"attributes":{"ID":210667,"DIS_CODE":0,"TOWNNAME":"仁德區","LI":"仁德里","LIN":"41鄰","STREET":"中山路","SECT":" ","MAREA":" ","LANE":"８７０巷","ALLEY":"２２１弄","HOUSE_NO":"３號","E_COORD97":172007.72,"N_COORD97":2542254.9900000002,"ADDRESS":"中山路８７０巷２２１弄３號","OBJECTID":210666},"geometry":{"x":172007.72000000067,"y":2542254.9900000039}},{"attributes":{"ID":210668,"DIS_CODE":0,"TOWNNAME":"白河區","LI":"仙草里","LIN":"2鄰","STREET":" ","SECT":" ","MAREA":"仙草","LANE":" ","ALLEY":" ","HOUSE_NO":"１９號","E_COORD97":196245.64000000001,"N_COORD97":2582637.79,"ADDRESS":"仙草１９號","OBJECTID":210667},"geometry":{"x":196245.6400000006,"y":2582637.7900000028}},{"attributes":{"ID":210669,"DIS_CODE":0,"TOWNNAME":"仁德區","LI":"仁義里","LIN":"41鄰","STREET":"中正路","SECT":"二段","MAREA":" ","LANE":"９３６巷","ALLEY":"２０弄","HOUSE_NO":"５１號","E_COORD97":173589.26999999999,"N_COORD97":2540621.0299999998,"ADDRESS":"中正路二段９３６巷２０弄５１號","OBJECTID":210668},"geometry":{"x":173589.26999999955,"y":2540621.0300000012}},{"attributes":{"ID":210670,"DIS_CODE":0,"TOWNNAME":"仁德區","LI":"仁德里","LIN":"41鄰","STREET":"中山路","SECT":" ","MAREA":" ","LANE":"８７０巷","ALLEY":"２２１弄","HOUSE_NO":"２５號","E_COORD97":172005.35000000001,"N_COORD97":2542211.4900000002,"ADDRESS":"中山路８７０巷２２１弄２５號","OBJECTID":210669},"geometry":{"x":172005.34999999963,"y":2542211.4900000021}},{"attributes":{"ID":210671,"DIS_CODE":0,"TOWNNAME":"仁德區","LI":"仁義里","LIN":"41鄰","STREET":"中正路","SECT":"二段","MAREA":" ","LANE":"８９２巷","ALLEY":"１弄","HOUSE_NO":"２號","E_COORD97":173487.98000000001,"N_COORD97":2540576.8999999999,"ADDRESS":"中正路二段８９２巷１弄２號","OBJECTID":210670},"geometry":{"x":173487.98000000138,"y":2540576.9000000004}},{"attributes":{"ID":210672,"DIS_CODE":0,"TOWNNAME":"仁德區","LI":"仁義里","LIN":"41鄰","STREET":"中正路","SECT":"二段","MAREA":" ","LANE":"８９２巷","ALLEY":"１弄","HOUSE_NO":"６號","E_COORD97":173486.62,"N_COORD97":2540584.6499999999,"ADDRESS":"中正路二段８９２巷１弄６號","OBJECTID":210671},"geometry":{"x":173486.62000000104,"y":2540584.6500000004}},{"attributes":{"ID":210673,"DIS_CODE":0,"TOWNNAME":"仁德區","LI":"仁義里","LIN":"41鄰","STREET":"中正路","SECT":"二段","MAREA":" ","LANE":"８６２巷","ALLEY":"３３弄","HOUSE_NO":"５８號","E_COORD97":173532.39999999999,"N_COORD97":2540616.0299999998,"ADDRESS":"中正路二段８６２巷３３弄５８號","OBJECTID":210672},"geometry":{"x":173532.4000000013,"y":2540616.0300000031}},{"attributes":{"ID":210674,"DIS_CODE":0,"TOWNNAME":"仁德區","LI":"仁義里","LIN":"41鄰","STREET":"中正路","SECT":"二段","MAREA":" ","LANE":"８９２巷","ALLEY":"１弄","HOUSE_NO":"４號","E_COORD97":173487.32999999999,"N_COORD97":2540580.6499999999,"ADDRESS":"中正路二段８９２巷１弄４號","OBJECTID":210673},"geometry":{"x":173487.33000000101,"y":2540580.6500000022}},{"attributes":{"ID":210675,"DIS_CODE":0,"TOWNNAME":"仁德區","LI":"太子里","LIN":"41鄰","STREET":"太子路","SECT":" ","MAREA":" ","LANE":"６６巷","ALLEY":"４弄","HOUSE_NO":"１２號","E_COORD97":175263.92999999999,"N_COORD97":2543639.2599999998,"ADDRESS":"太子路６６巷４弄１２號","OBJECTID":210674},"geometry":{"x":175263.93000000063,"y":2543639.2600000035}},{"attributes":{"ID":210676,"DIS_CODE":0,"TOWNNAME":"仁德區","LI":"太子里","LIN":"41鄰","STREET":"太子路","SECT":" ","MAREA":" ","LANE":"４２巷","ALLEY":"１弄","HOUSE_NO":"７號","E_COORD97":175264.29000000001,"N_COORD97":2543595.75,"ADDRESS":"太子路４２巷１弄７號","OBJECTID":210675},"geometry":{"x":175264.29000000004,"y":2543595.7500000019}},{"attributes":{"ID":210677,"DIS_CODE":0,"TOWNNAME":"仁德區","LI":"太子里","LIN":"41鄰","STREET":"太子路","SECT":" ","MAREA":" ","LANE":"４２巷","ALLEY":"１弄","HOUSE_NO":"１號","E_COORD97":175276.85000000001,"N_COORD97":2543590.75,"ADDRESS":"太子路４２巷１弄１號","OBJECTID":210676},"geometry":{"x":175276.85000000056,"y":2543590.75}},{"attributes":{"ID":210678,"DIS_CODE":0,"TOWNNAME":"仁德區","LI":"太子里","LIN":"41鄰","STREET":"太子路","SECT":" ","MAREA":" ","LANE":"４２巷","ALLEY":"１弄","HOUSE_NO":"５號","E_COORD97":175268.34,"N_COORD97":2543595,"ADDRESS":"太子路４２巷１弄５號","OBJECTID":210677},"geometry":{"x":175268.34000000078,"y":2543595.0000000019}},{"attributes":{"ID":210679,"DIS_CODE":0,"TOWNNAME":"永康區","LI":"復華里","LIN":"41鄰","STREET":"復華七街","SECT":" ","MAREA":" ","LANE":"３２巷","ALLEY":"２２弄","HOUSE_NO":"１３號","E_COORD97":172651.29999999999,"N_COORD97":2545902.7599999998,"ADDRESS":"復華七街３２巷２２弄１３號","OBJECTID":210678},"geometry":{"x":172651.30000000075,"y":2545902.7599999998}},{"attributes":{"ID":210680,"DIS_CODE":0,"TOWNNAME":"永康區","LI":"復華里","LIN":"41鄰","STREET":"復華七街","SECT":" ","MAREA":" ","LANE":"３２巷","ALLEY":"２２弄","HOUSE_NO":"１１號","E_COORD97":172655.14000000001,"N_COORD97":2545902.7599999998,"ADDRESS":"復華七街３２巷２２弄１１號","OBJECTID":210679},"geometry":{"x":172655.14000000153,"y":2545902.7599999998}},{"attributes":{"ID":210681,"DIS_CODE":0,"TOWNNAME":"永康區","LI":"復華里","LIN":"41鄰","STREET":"復華七街","SECT":" ","MAREA":" ","LANE":"３２巷","ALLEY":"２２弄","HOUSE_NO":"３３號","E_COORD97":172602.44,"N_COORD97":2545903.96,"ADDRESS":"復華七街３２巷２２弄３３號","OBJECTID":210680},"geometry":{"x":172602.44000000041,"y":2545903.9600000046}},{"attributes":{"ID":210682,"DIS_CODE":0,"TOWNNAME":"永康區","LI":"復華里","LIN":"41鄰","STREET":"復華七街","SECT":" ","MAREA":" ","LANE":"３２巷","ALLEY":"２２弄","HOUSE_NO":"４３號","E_COORD97":172566.19,"N_COORD97":2545895.7999999998,"ADDRESS":"復華七街３２巷２２弄４３號","OBJECTID":210681},"geometry":{"x":172566.19000000134,"y":2545895.8000000026}},{"attributes":{"ID":210683,"DIS_CODE":0,"TOWNNAME":"永康區","LI":"\u25A0行里","LIN":"41鄰","STREET":"永安路","SECT":" ","MAREA":" ","LANE":"１６５巷","ALLEY":"３０弄","HOUSE_NO":"６１號","E_COORD97":172373.41,"N_COORD97":2549462.4900000002,"ADDRESS":"永安路１６５巷３０弄６１號","OBJECTID":210682},"geometry":{"x":172373.41000000015,"y":2549462.4899999984}},{"attributes":{"ID":210684,"DIS_CODE":0,"TOWNNAME":"麻豆區","LI":"龍泉里","LIN":"9鄰","STREET":" ","SECT":" ","MAREA":"溝子墘","LANE":" ","ALLEY":" ","HOUSE_NO":"８８號之１","E_COORD97":174346.37,"N_COORD97":2564198.0499999998,"ADDRESS":"溝子墘８８號之１","OBJECTID":210683},"geometry":{"x":174346.37000000104,"y":2564198.0500000026}},{"attributes":{"ID":210685,"DIS_CODE":0,"TOWNNAME":"安定區","LI":"中榮里","LIN":"2鄰","STREET":" ","SECT":" ","MAREA":"許中營","LANE":" ","ALLEY":" ","HOUSE_NO":"２３之３２號","E_COORD97":172510.79000000001,"N_COORD97":2554777.2999999998,"ADDRESS":"許中營２３之３２號","OBJECTID":210684},"geometry":{"x":172510.79000000097,"y":2554777.3000000045}},{"attributes":{"ID":210686,"DIS_CODE":0,"TOWNNAME":"安定區","LI":"中榮里","LIN":"2鄰","STREET":" ","SECT":" ","MAREA":"許中營","LANE":" ","ALLEY":" ","HOUSE_NO":"２３之９號","E_COORD97":172569.94,"N_COORD97":2554794.2999999998,"ADDRESS":"許中營２３之９號","OBJECTID":210685},"geometry":{"x":172569.94000000041,"y":2554794.3000000045}},{"attributes":{"ID":210687,"DIS_CODE":0,"TOWNNAME":"安定區","LI":"蘇厝里","LIN":"2鄰","STREET":" ","SECT":" ","MAREA":"蘇厝","LANE":" ","ALLEY":" ","HOUSE_NO":"２９３之９８號","E_COORD97":173335.47,"N_COORD97":2558367.29,"ADDRESS":"蘇厝２９３之９８號","OBJECTID":210686},"geometry":{"x":173335.46999999974,"y":2558367.290000001}},{"attributes":{"ID":210688,"DIS_CODE":0,"TOWNNAME":"安定區","LI":"中榮里","LIN":"2鄰","STREET":" ","SECT":" ","MAREA":"許中營","LANE":" ","ALLEY":" ","HOUSE_NO":"２３之２９號","E_COORD97":172523.19,"N_COORD97":2554766.2999999998,"ADDRESS":"許中營２３之２９號","OBJECTID":210687},"geometry":{"x":172523.18999999948,"y":2554766.3000000007}},{"attributes":{"ID":210689,"DIS_CODE":0,"TOWNNAME":"安定區","LI":"蘇厝里","LIN":"2鄰","STREET":" ","SECT":" ","MAREA":"蘇厝","LANE":" ","ALLEY":" ","HOUSE_NO":"２９３之１２８號","E_COORD97":173366.92000000001,"N_COORD97":2558375.2999999998,"ADDRESS":"蘇厝２９３之１２８號","OBJECTID":210688},"geometry":{"x":173366.91999999993,"y":2558375.3000000026}},{"attributes":{"ID":210690,"DIS_CODE":0,"TOWNNAME":"永康區","LI":"二王里","LIN":"41鄰","STREET":"中山南路","SECT":" ","MAREA":" ","LANE":"３１６巷","ALLEY":"６弄","HOUSE_NO":"１號","E_COORD97":171889.44,"N_COORD97":2546214.25,"ADDRESS":"中山南路３１６巷６弄１號","OBJECTID":210689},"geometry":{"x":171889.44000000227,"y":2546214.2500000019}},{"attributes":{"ID":210691,"DIS_CODE":0,"TOWNNAME":"仁德區","LI":"後壁里","LIN":"41鄰","STREET":"德善路","SECT":" ","MAREA":" ","LANE":"２５１巷","ALLEY":"７弄","HOUSE_NO":"１號","E_COORD97":173862.79000000001,"N_COORD97":2538734.9900000002,"ADDRESS":"德善路２５１巷７弄１號","OBJECTID":210690},"geometry":{"x":173862.79000000004,"y":2538734.9900000002}},{"attributes":{"ID":210692,"DIS_CODE":0,"TOWNNAME":"仁德區","LI":"後壁里","LIN":"41鄰","STREET":"德善路","SECT":" ","MAREA":" ","LANE":"２７３巷","ALLEY":"６弄","HOUSE_NO":"７號","E_COORD97":173960.54999999999,"N_COORD97":2538683.5600000001,"ADDRESS":"德善路２７３巷６弄７號","OBJECTID":210691},"geometry":{"x":173960.54999999981,"y":2538683.5600000005}},{"attributes":{"ID":210693,"DIS_CODE":0,"TOWNNAME":"仁德區","LI":"後壁里","LIN":"41鄰","STREET":"德善路","SECT":" ","MAREA":" ","LANE":"２７３巷","ALLEY":"６弄","HOUSE_NO":"１號","E_COORD97":173950.76000000001,"N_COORD97":2538698.27,"ADDRESS":"德善路２７３巷６弄１號","OBJECTID":210692},"geometry":{"x":173950.75999999978,"y":2538698.2699999996}},{"attributes":{"ID":210694,"DIS_CODE":0,"TOWNNAME":"新市區","LI":"新和里","LIN":"41鄰","STREET":"信義街","SECT":" ","MAREA":" ","LANE":"２５巷","ALLEY":"１１弄","HOUSE_NO":"２０號","E_COORD97":177171.35000000001,"N_COORD97":2552734.52,"ADDRESS":"信義街２５巷１１弄２０號","OBJECTID":210693},"geometry":{"x":177171.35000000149,"y":2552734.5200000014}},{"attributes":{"ID":210695,"DIS_CODE":0,"TOWNNAME":"安定區","LI":"蘇厝里","LIN":"2鄰","STREET":" ","SECT":" ","MAREA":"蘇厝","LANE":" ","ALLEY":" ","HOUSE_NO":"２９３之１０５號","E_COORD97":173325.72,"N_COORD97":2558392.2999999998,"ADDRESS":"蘇厝２９３之１０５號","OBJECTID":210694},"geometry":{"x":173325.71999999974,"y":2558392.3000000026}},{"attributes":{"ID":210696,"DIS_CODE":0,"TOWNNAME":"安定區","LI":"中榮里","LIN":"2鄰","STREET":" ","SECT":" ","MAREA":"許中營","LANE":" ","ALLEY":" ","HOUSE_NO":"２５之７號","E_COORD97":172597.73999999999,"N_COORD97":2554951.2999999998,"ADDRESS":"許中營２５之７號","OBJECTID":210695},"geometry":{"x":172597.74000000115,"y":2554951.3000000026}},{"attributes":{"ID":210697,"DIS_CODE":0,"TOWNNAME":"安定區","LI":"蘇厝里","LIN":"2鄰","STREET":" ","SECT":" ","MAREA":"蘇厝","LANE":" ","ALLEY":" ","HOUSE_NO":"２９３之９２號","E_COORD97":173297.67000000001,"N_COORD97":2558404.2999999998,"ADDRESS":"蘇厝２９３之９２號","OBJECTID":210696},"geometry":{"x":173297.67000000179,"y":2558404.3000000007}},{"attributes":{"ID":210698,"DIS_CODE":0,"TOWNNAME":"安定區","LI":"蘇厝里","LIN":"2鄰","STREET":" ","SECT":" ","MAREA":"蘇厝","LANE":" ","ALLEY":" ","HOUSE_NO":"２８９號之７","E_COORD97":173253.45966299999,"N_COORD97":2558566.53572,"ADDRESS":"蘇厝２８９號之７","OBJECTID":210697},"geometry":{"x":173253.45966300089,"y":2558566.5357190017}},{"attributes":{"ID":210699,"DIS_CODE":0,"TOWNNAME":"安定區","LI":"蘇厝里","LIN":"2鄰","STREET":" ","SECT":" ","MAREA":"蘇厝","LANE":" ","ALLEY":" ","HOUSE_NO":"２８５號","E_COORD97":173341.22,"N_COORD97":2558514.25,"ADDRESS":"蘇厝２８５號","OBJECTID":210698},"geometry":{"x":173341.2200000016,"y":2558514.2500000019}},{"attributes":{"ID":210700,"DIS_CODE":0,"TOWNNAME":"下營區","LI":"開化里","LIN":"2鄰","STREET":" ","SECT":" ","MAREA":"中營","LANE":" ","ALLEY":" ","HOUSE_NO":"６８號","E_COORD97":175611.95000000001,"N_COORD97":2568157.5299999998,"ADDRESS":"中營６８號","OBJECTID":210699},"geometry":{"x":175611.95000000112,"y":2568157.5300000012}},{"attributes":{"ID":210701,"DIS_CODE":0,"TOWNNAME":"安定區","LI":"蘇厝里","LIN":"2鄰","STREET":" ","SECT":" ","MAREA":"蘇厝","LANE":" ","ALLEY":" ","HOUSE_NO":"２９３之１１５號","E_COORD97":173348.22,"N_COORD97":2558373.2999999998,"ADDRESS":"蘇厝２９３之１１５號","OBJECTID":210700},"geometry":{"x":173348.22000000067,"y":2558373.3000000007}},{"attributes":{"ID":210702,"DIS_CODE":0,"TOWNNAME":"安定區","LI":"蘇厝里","LIN":"2鄰","STREET":" ","SECT":" ","MAREA":"蘇厝","LANE":" ","ALLEY":" ","HOUSE_NO":"２９３之１３２號","E_COORD97":173359.42000000001,"N_COORD97":2558390.2999999998,"ADDRESS":"蘇厝２９３之１３２號","OBJECTID":210701},"geometry":{"x":173359.42000000086,"y":2558390.3000000007}},{"attributes":{"ID":210703,"DIS_CODE":0,"TOWNNAME":"安定區","LI":"蘇厝里","LIN":"2鄰","STREET":" ","SECT":" ","MAREA":"蘇厝","LANE":" ","ALLEY":" ","HOUSE_NO":"２９３號","E_COORD97":173287.51999999999,"N_COORD97":2558497.25,"ADDRESS":"蘇厝２９３號","OBJECTID":210702},"geometry":{"x":173287.51999999955,"y":2558497.2500000019}},{"attributes":{"ID":210704,"DIS_CODE":0,"TOWNNAME":"安定區","LI":"蘇厝里","LIN":"2鄰","STREET":" ","SECT":" ","MAREA":"蘇厝","LANE":" ","ALLEY":" ","HOUSE_NO":"２９２之９號","E_COORD97":173297.12,"N_COORD97":2558535.2999999998,"ADDRESS":"蘇厝２９２之９號","OBJECTID":210703},"geometry":{"x":173297.12000000104,"y":2558535.3000000026}},{"attributes":{"ID":210705,"DIS_CODE":0,"TOWNNAME":"新市區","LI":"新和里","LIN":"41鄰","STREET":"信義街","SECT":" ","MAREA":" ","LANE":"２５巷","ALLEY":"１１弄","HOUSE_NO":"８之２號","E_COORD97":177171.42999999999,"N_COORD97":2552767.2999999998,"ADDRESS":"信義街２５巷１１弄８之２號","OBJECTID":210704},"geometry":{"x":177171.43000000063,"y":2552767.3000000026}},{"attributes":{"ID":210706,"DIS_CODE":0,"TOWNNAME":"新市區","LI":"新和里","LIN":"41鄰","STREET":"信義街","SECT":" ","MAREA":" ","LANE":"２５巷","ALLEY":"１１弄","HOUSE_NO":"８之３號","E_COORD97":177171.79000000001,"N_COORD97":2552763.0499999998,"ADDRESS":"信義街２５巷１１弄８之３號","OBJECTID":210705},"geometry":{"x":177171.79000000004,"y":2552763.0500000026}},{"attributes":{"ID":210707,"DIS_CODE":0,"TOWNNAME":"永康區","LI":"成功里","LIN":"41鄰","STREET":"中華路","SECT":" ","MAREA":" ","LANE":"１５４巷","ALLEY":"１５弄","HOUSE_NO":"３號","E_COORD97":171680.69,"N_COORD97":2544911.7400000002,"ADDRESS":"中華路１５４巷１５弄３號","OBJECTID":210706},"geometry":{"x":171680.68999999948,"y":2544911.7400000021}},{"attributes":{"ID":210708,"DIS_CODE":0,"TOWNNAME":"永康區","LI":"南灣里","LIN":"41鄰","STREET":"南興路","SECT":" ","MAREA":" ","LANE":"１１２巷","ALLEY":"８２弄","HOUSE_NO":"７號","E_COORD97":174643.03,"N_COORD97":2544505.2799999998,"ADDRESS":"南興路１１２巷８２弄７號","OBJECTID":210707},"geometry":{"x":174643.03000000026,"y":2544505.2799999993}},{"attributes":{"ID":210709,"DIS_CODE":0,"TOWNNAME":"仁德區","LI":"後壁里","LIN":"41鄰","STREET":"德善路","SECT":" ","MAREA":" ","LANE":"２５１巷","ALLEY":"７弄","HOUSE_NO":"１３號","E_COORD97":173839.01999999999,"N_COORD97":2538718.9900000002,"ADDRESS":"德善路２５１巷７弄１３號","OBJECTID":210708},"geometry":{"x":173839.02000000142,"y":2538718.9900000021}},{"attributes":{"ID":210710,"DIS_CODE":0,"TOWNNAME":"新市區","LI":"新和里","LIN":"41鄰","STREET":"信義街","SECT":" ","MAREA":" ","LANE":"２５巷","ALLEY":"１１弄","HOUSE_NO":"１８號","E_COORD97":177171.35000000001,"N_COORD97":2552739.52,"ADDRESS":"信義街２５巷１１弄１８號","OBJECTID":210709},"geometry":{"x":177171.35000000149,"y":2552739.5199999996}},{"attributes":{"ID":210711,"DIS_CODE":0,"TOWNNAME":"永康區","LI":"南灣里","LIN":"41鄰","STREET":"南興路","SECT":" ","MAREA":" ","LANE":"１１２巷","ALLEY":"１０４弄","HOUSE_NO":"１４號","E_COORD97":174688.19,"N_COORD97":2544527.1200000001,"ADDRESS":"南興路１１２巷１０４弄１４號","OBJECTID":210710},"geometry":{"x":174688.19000000227,"y":2544527.1200000029}},{"attributes":{"ID":210712,"DIS_CODE":0,"TOWNNAME":"永康區","LI":"南灣里","LIN":"41鄰","STREET":"南興路","SECT":" ","MAREA":" ","LANE":"１１２巷","ALLEY":"１０４弄","HOUSE_NO":"２號","E_COORD97":174679.73999999999,"N_COORD97":2544549.8799999999,"ADDRESS":"南興路１１２巷１０４弄２號","OBJECTID":210711},"geometry":{"x":174679.74000000115,"y":2544549.8800000008}},{"attributes":{"ID":210713,"DIS_CODE":0,"TOWNNAME":"永康區","LI":"南灣里","LIN":"41鄰","STREET":"南興路","SECT":" ","MAREA":" ","LANE":"１１２巷","ALLEY":"１０４弄","HOUSE_NO":"１６號","E_COORD97":174688.78,"N_COORD97":2544524.1200000001,"ADDRESS":"南興路１１２巷１０４弄１６號","OBJECTID":210712},"geometry":{"x":174688.78000000026,"y":2544524.1200000029}},{"attributes":{"ID":210714,"DIS_CODE":0,"TOWNNAME":"佳里區","LI":"建南里","LIN":"24鄰","STREET":"祥和二街","SECT":" ","MAREA":" ","LANE":" ","ALLEY":" ","HOUSE_NO":"２３９號","E_COORD97":165507.66,"N_COORD97":2561128.6800000002,"ADDRESS":"祥和二街２３９號","OBJECTID":210713},"geometry":{"x":165507.66000000108,"y":2561128.6800000016}},{"attributes":{"ID":210715,"DIS_CODE":0,"TOWNNAME":"西港區","LI":"慶安里","LIN":"25鄰","STREET":"新興街","SECT":" ","MAREA":" ","LANE":" ","ALLEY":" ","HOUSE_NO":"１８號","E_COORD97":168210.67000000001,"N_COORD97":2557860.71,"ADDRESS":"新興街１８號","OBJECTID":210714},"geometry":{"x":168210.67000000086,"y":2557860.7100000028}},{"attributes":{"ID":210716,"DIS_CODE":0,"TOWNNAME":"西港區","LI":"慶安里","LIN":"25鄰","STREET":"新興街","SECT":" ","MAREA":" ","LANE":" ","ALLEY":" ","HOUSE_NO":"２０號","E_COORD97":168209.72,"N_COORD97":2557864.7599999998,"ADDRESS":"新興街２０號","OBJECTID":210715},"geometry":{"x":168209.71999999881,"y":2557864.7599999998}},{"attributes":{"ID":210717,"DIS_CODE":0,"TOWNNAME":"仁德區","LI":"後壁里","LIN":"41鄰","STREET":"德善路","SECT":" ","MAREA":" ","LANE":"２５１巷","ALLEY":"７弄","HOUSE_NO":"２號七樓之２","E_COORD97":173901.31,"N_COORD97":2538740.5499999998,"ADDRESS":"德善路２５１巷７弄２號七樓之２","OBJECTID":210716},"geometry":{"x":173901.30999999959,"y":2538740.5500000026}},{"attributes":{"ID":210718,"DIS_CODE":0,"TOWNNAME":"仁德區","LI":"後壁里","LIN":"41鄰","STREET":"德善路","SECT":" ","MAREA":" ","LANE":"２５１巷","ALLEY":"７弄","HOUSE_NO":"８號六樓之３","E_COORD97":173933.22,"N_COORD97":2538718.04,"ADDRESS":"德善路２５１巷７弄８號六樓之３","OBJECTID":210717},"geometry":{"x":173933.22000000067,"y":2538718.040000001}},{"attributes":{"ID":210719,"DIS_CODE":0,"TOWNNAME":"仁德區","LI":"後壁里","LIN":"41鄰","STREET":"德善路","SECT":" ","MAREA":" ","LANE":"２５１巷","ALLEY":"７弄","HOUSE_NO":"６號一樓之２","E_COORD97":173916.60000000001,"N_COORD97":2538729.54,"ADDRESS":"德善路２５１巷７弄６號一樓之２","OBJECTID":210718},"geometry":{"x":173916.60000000149,"y":2538729.5399999991}},{"attributes":{"ID":210720,"DIS_CODE":0,"TOWNNAME":"仁德區","LI":"後壁里","LIN":"41鄰","STREET":"德善路","SECT":" ","MAREA":" ","LANE":"２５１巷","ALLEY":"７弄","HOUSE_NO":"８號八樓之４","E_COORD97":173933.14999999999,"N_COORD97":2538718.04,"ADDRESS":"德善路２５１巷７弄８號八樓之４","OBJECTID":210719},"geometry":{"x":173933.15000000037,"y":2538718.040000001}},{"attributes":{"ID":210721,"DIS_CODE":0,"TOWNNAME":"仁德區","LI":"後壁里","LIN":"41鄰","STREET":"德善路","SECT":" ","MAREA":" ","LANE":"２５１巷","ALLEY":"７弄","HOUSE_NO":"６號五樓之４","E_COORD97":173916.48999999999,"N_COORD97":2538729.54,"ADDRESS":"德善路２５１巷７弄６號五樓之４","OBJECTID":210720},"geometry":{"x":173916.49000000115,"y":2538729.5399999991}},{"attributes":{"ID":210722,"DIS_CODE":0,"TOWNNAME":"仁德區","LI":"後壁里","LIN":"41鄰","STREET":"德善路","SECT":" ","MAREA":" ","LANE":"２５１巷","ALLEY":"７弄","HOUSE_NO":"６號五樓之２","E_COORD97":173916.60000000001,"N_COORD97":2538729.54,"ADDRESS":"德善路２５１巷７弄６號五樓之２","OBJECTID":210721},"geometry":{"x":173916.60000000149,"y":2538729.5399999991}},{"attributes":{"ID":210723,"DIS_CODE":0,"TOWNNAME":"仁德區","LI":"後壁里","LIN":"41鄰","STREET":"德善路","SECT":" ","MAREA":" ","LANE":"２５１巷","ALLEY":"７弄","HOUSE_NO":"８號三樓之２","E_COORD97":173933.26000000001,"N_COORD97":2538718.04,"ADDRESS":"德善路２５１巷７弄８號三樓之２","OBJECTID":210722},"geometry":{"x":173933.26000000071,"y":2538718.040000001}},{"attributes":{"ID":210724,"DIS_CODE":0,"TOWNNAME":"西港區","LI":"慶安里","LIN":"25鄰","STREET":"新興街","SECT":" ","MAREA":" ","LANE":" ","ALLEY":" ","HOUSE_NO":"２２號","E_COORD97":168208.95000000001,"N_COORD97":2557868.3900000001,"ADDRESS":"新興街２２號","OBJECTID":210723},"geometry":{"x":168208.95000000112,"y":2557868.3899999987}},{"attributes":{"ID":210725,"DIS_CODE":0,"TOWNNAME":"西港區","LI":"慶安里","LIN":"25鄰","STREET":"新興街","SECT":" ","MAREA":" ","LANE":" ","ALLEY":" ","HOUSE_NO":"２６號之１","E_COORD97":168206.53,"N_COORD97":2557880.4500000002,"ADDRESS":"新興街２６號之１","OBJECTID":210724},"geometry":{"x":168206.53000000212,"y":2557880.450000003}},{"attributes":{"ID":210726,"DIS_CODE":0,"TOWNNAME":"西港區","LI":"慶安里","LIN":"25鄰","STREET":"新興街","SECT":" ","MAREA":" ","LANE":" ","ALLEY":" ","HOUSE_NO":"２６號","E_COORD97":168206.98000000001,"N_COORD97":2557876.02,"ADDRESS":"新興街２６號","OBJECTID":210725},"geometry":{"x":168206.98000000045,"y":2557876.0199999996}},{"attributes":{"ID":210727,"DIS_CODE":0,"TOWNNAME":"西港區","LI":"慶安里","LIN":"13鄰","STREET":"新興街","SECT":" ","MAREA":" ","LANE":" ","ALLEY":" ","HOUSE_NO":"４９號之１","E_COORD97":168111.42000000001,"N_COORD97":2557958.79,"ADDRESS":"新興街４９號之１","OBJECTID":210726},"geometry":{"x":168111.41999999993,"y":2557958.7899999991}},{"attributes":{"ID":210728,"DIS_CODE":0,"TOWNNAME":"仁德區","LI":"後壁里","LIN":"41鄰","STREET":"德善路","SECT":" ","MAREA":" ","LANE":"２５１巷","ALLEY":"７弄","HOUSE_NO":"２號二樓之３","E_COORD97":173901.26999999999,"N_COORD97":2538740.5499999998,"ADDRESS":"德善路２５１巷７弄２號二樓之３","OBJECTID":210727},"geometry":{"x":173901.26999999955,"y":2538740.5500000026}},{"attributes":{"ID":210729,"DIS_CODE":0,"TOWNNAME":"仁德區","LI":"後壁里","LIN":"41鄰","STREET":"德善路","SECT":" ","MAREA":" ","LANE":"２５１巷","ALLEY":"７弄","HOUSE_NO":"２號二樓之２","E_COORD97":173901.31,"N_COORD97":2538740.5499999998,"ADDRESS":"德善路２５１巷７弄２號二樓之２","OBJECTID":210728},"geometry":{"x":173901.30999999959,"y":2538740.5500000026}},{"attributes":{"ID":210730,"DIS_CODE":0,"TOWNNAME":"仁德區","LI":"後壁里","LIN":"41鄰","STREET":"德善路","SECT":" ","MAREA":" ","LANE":"２５１巷","ALLEY":"７弄","HOUSE_NO":"６號九樓之３","E_COORD97":173916.56,"N_COORD97":2538729.54,"ADDRESS":"德善路２５１巷７弄６號九樓之３","OBJECTID":210729},"geometry":{"x":173916.55999999959,"y":2538729.5399999991}},{"attributes":{"ID":210731,"DIS_CODE":0,"TOWNNAME":"仁德區","LI":"後壁里","LIN":"41鄰","STREET":"德善路","SECT":" ","MAREA":" ","LANE":"２５１巷","ALLEY":"７弄","HOUSE_NO":"２號五樓之２","E_COORD97":173901.31,"N_COORD97":2538740.5499999998,"ADDRESS":"德善路２５１巷７弄２號五樓之２","OBJECTID":210730},"geometry":{"x":173901.30999999959,"y":2538740.5500000026}},{"attributes":{"ID":210732,"DIS_CODE":0,"TOWNNAME":"仁德區","LI":"後壁里","LIN":"41鄰","STREET":"德善路","SECT":" ","MAREA":" ","LANE":"２５１巷","ALLEY":"７弄","HOUSE_NO":"８號四樓之１","E_COORD97":173933.12,"N_COORD97":2538718.04,"ADDRESS":"德善路２５１巷７弄８號四樓之１","OBJECTID":210731},"geometry":{"x":173933.12000000011,"y":2538718.040000001}},{"attributes":{"ID":210733,"DIS_CODE":0,"TOWNNAME":"仁德區","LI":"後壁里","LIN":"41鄰","STREET":"德善路","SECT":" ","MAREA":" ","LANE":"２５１巷","ALLEY":"７弄","HOUSE_NO":"６號三樓之１","E_COORD97":173916.45999999999,"N_COORD97":2538729.54,"ADDRESS":"德善路２５１巷７弄６號三樓之１","OBJECTID":210732},"geometry":{"x":173916.46000000089,"y":2538729.5399999991}},{"attributes":{"ID":210734,"DIS_CODE":0,"TOWNNAME":"仁德區","LI":"後壁里","LIN":"41鄰","STREET":"德善路","SECT":" ","MAREA":" ","LANE":"２５１巷","ALLEY":"７弄","HOUSE_NO":"８號一樓之３","E_COORD97":173933.22,"N_COORD97":2538718.04,"ADDRESS":"德善路２５１巷７弄８號一樓之３","OBJECTID":210733},"geometry":{"x":173933.22000000067,"y":2538718.040000001}},{"attributes":{"ID":210735,"DIS_CODE":0,"TOWNNAME":"仁德區","LI":"後壁里","LIN":"41鄰","STREET":"德善路","SECT":" ","MAREA":" ","LANE":"２７３巷","ALLEY":"７弄","HOUSE_NO":"３號","E_COORD97":173929.26000000001,"N_COORD97":2538689.4199999999,"ADDRESS":"德善路２７３巷７弄３號","OBJECTID":210734},"geometry":{"x":173929.26000000164,"y":2538689.4200000018}},{"attributes":{"ID":210736,"DIS_CODE":0,"TOWNNAME":"仁德區","LI":"後壁里","LIN":"41鄰","STREET":"德善路","SECT":" ","MAREA":" ","LANE":"２５１巷","ALLEY":"７弄","HOUSE_NO":"２號四樓之２","E_COORD97":173901.31,"N_COORD97":2538740.5499999998,"ADDRESS":"德善路２５１巷７弄２號四樓之２","OBJECTID":210735},"geometry":{"x":173901.30999999959,"y":2538740.5500000026}},{"attributes":{"ID":210737,"DIS_CODE":0,"TOWNNAME":"仁德區","LI":"後壁里","LIN":"41鄰","STREET":"德善路","SECT":" ","MAREA":" ","LANE":"２５１巷","ALLEY":"７弄","HOUSE_NO":"６號七樓之４","E_COORD97":173916.48999999999,"N_COORD97":2538729.54,"ADDRESS":"德善路２５１巷７弄６號七樓之４","OBJECTID":210736},"geometry":{"x":173916.49000000115,"y":2538729.5399999991}},{"attributes":{"ID":210738,"DIS_CODE":0,"TOWNNAME":"仁德區","LI":"後壁里","LIN":"41鄰","STREET":"德善路","SECT":" ","MAREA":" ","LANE":"２５１巷","ALLEY":"７弄","HOUSE_NO":"２號七樓之１","E_COORD97":173901.17000000001,"N_COORD97":2538740.5499999998,"ADDRESS":"德善路２５１巷７弄２號七樓之１","OBJECTID":210737},"geometry":{"x":173901.17000000179,"y":2538740.5500000026}},{"attributes":{"ID":210739,"DIS_CODE":0,"TOWNNAME":"仁德區","LI":"後壁里","LIN":"41鄰","STREET":"德善路","SECT":" ","MAREA":" ","LANE":"２５１巷","ALLEY":"７弄","HOUSE_NO":"２號五樓之３","E_COORD97":173901.26999999999,"N_COORD97":2538740.5499999998,"ADDRESS":"德善路２５１巷７弄２號五樓之３","OBJECTID":210738},"geometry":{"x":173901.26999999955,"y":2538740.5500000026}},{"attributes":{"ID":210740,"DIS_CODE":0,"TOWNNAME":"仁德區","LI":"後壁里","LIN":"41鄰","STREET":"德善路","SECT":" ","MAREA":" ","LANE":"２５１巷","ALLEY":"７弄","HOUSE_NO":"８號三樓之３","E_COORD97":173933.22,"N_COORD97":2538718.04,"ADDRESS":"德善路２５１巷７弄８號三樓之３","OBJECTID":210739},"geometry":{"x":173933.22000000067,"y":2538718.040000001}},{"attributes":{"ID":210741,"DIS_CODE":0,"TOWNNAME":"仁德區","LI":"後壁里","LIN":"41鄰","STREET":"德善路","SECT":" ","MAREA":" ","LANE":"２５１巷","ALLEY":"７弄","HOUSE_NO":"８號二樓之２","E_COORD97":173933.26000000001,"N_COORD97":2538718.04,"ADDRESS":"德善路２５１巷７弄８號二樓之２","OBJECTID":210740},"geometry":{"x":173933.26000000071,"y":2538718.040000001}},{"attributes":{"ID":210742,"DIS_CODE":0,"TOWNNAME":"仁德區","LI":"後壁里","LIN":"41鄰","STREET":"德善路","SECT":" ","MAREA":" ","LANE":"２５１巷","ALLEY":"７弄","HOUSE_NO":"８號五樓之１","E_COORD97":173933.12,"N_COORD97":2538718.04,"ADDRESS":"德善路２５１巷７弄８號五樓之１","OBJECTID":210741},"geometry":{"x":173933.12000000011,"y":2538718.040000001}},{"attributes":{"ID":210743,"DIS_CODE":0,"TOWNNAME":"仁德區","LI":"後壁里","LIN":"41鄰","STREET":"德善路","SECT":" ","MAREA":" ","LANE":"２５１巷","ALLEY":"７弄","HOUSE_NO":"６號三樓之３","E_COORD97":173916.56,"N_COORD97":2538729.54,"ADDRESS":"德善路２５１巷７弄６號三樓之３","OBJECTID":210742},"geometry":{"x":173916.55999999959,"y":2538729.5399999991}},{"attributes":{"ID":210744,"DIS_CODE":0,"TOWNNAME":"麻豆區","LI":"港尾里","LIN":"9鄰","STREET":" ","SECT":" ","MAREA":"港子尾","LANE":" ","ALLEY":" ","HOUSE_NO":"５５號","E_COORD97":168449.03,"N_COORD97":2567161.8399999999,"ADDRESS":"港子尾５５號","OBJECTID":210743},"geometry":{"x":168449.03000000212,"y":2567161.8400000017}},{"attributes":{"ID":210745,"DIS_CODE":0,"TOWNNAME":"麻豆區","LI":"港尾里","LIN":"9鄰","STREET":" ","SECT":" ","MAREA":"港子尾","LANE":" ","ALLEY":" ","HOUSE_NO":"４７號之２","E_COORD97":168471.35999999999,"N_COORD97":2567168.7599999998,"ADDRESS":"港子尾４７號之２","OBJECTID":210744},"geometry":{"x":168471.36000000127,"y":2567168.7600000016}},{"attributes":{"ID":210746,"DIS_CODE":0,"TOWNNAME":"麻豆區","LI":"港尾里","LIN":"9鄰","STREET":" ","SECT":" ","MAREA":"港子尾","LANE":" ","ALLEY":" ","HOUSE_NO":"４７號","E_COORD97":168463.26999999999,"N_COORD97":2567171.0699999998,"ADDRESS":"港子尾４７號","OBJECTID":210745},"geometry":{"x":168463.26999999955,"y":2567171.0700000022}},{"attributes":{"ID":210747,"DIS_CODE":0,"TOWNNAME":"麻豆區","LI":"港尾里","LIN":"9鄰","STREET":" ","SECT":" ","MAREA":"港子尾","LANE":" ","ALLEY":" ","HOUSE_NO":"４８號之１","E_COORD97":168471.20000000001,"N_COORD97":2567149.46,"ADDRESS":"港子尾４８號之１","OBJECTID":210746},"geometry":{"x":168471.20000000019,"y":2567149.4600000028}},{"attributes":{"ID":210748,"DIS_CODE":0,"TOWNNAME":"麻豆區","LI":"港尾里","LIN":"9鄰","STREET":" ","SECT":" ","MAREA":"港子尾","LANE":" ","ALLEY":" ","HOUSE_NO":"４８號之２","E_COORD97":168481.25,"N_COORD97":2567149.6699999999,"ADDRESS":"港子尾４８號之２","OBJECTID":210747},"geometry":{"x":168481.25000000186,"y":2567149.6700000018}},{"attributes":{"ID":210749,"DIS_CODE":0,"TOWNNAME":"麻豆區","LI":"港尾里","LIN":"9鄰","STREET":" ","SECT":" ","MAREA":"港子尾","LANE":" ","ALLEY":" ","HOUSE_NO":"４８號","E_COORD97":168466.69,"N_COORD97":2567150.1600000001,"ADDRESS":"港子尾４８號","OBJECTID":210748},"geometry":{"x":168466.69000000227,"y":2567150.160000002}},{"attributes":{"ID":210750,"DIS_CODE":0,"TOWNNAME":"麻豆區","LI":"港尾里","LIN":"9鄰","STREET":" ","SECT":" ","MAREA":"港子尾","LANE":" ","ALLEY":" ","HOUSE_NO":"４９號","E_COORD97":168465.01000000001,"N_COORD97":2567189.1299999999,"ADDRESS":"港子尾４９號","OBJECTID":210749},"geometry":{"x":168465.00999999978,"y":2567189.1300000008}},{"attributes":{"ID":210751,"DIS_CODE":0,"TOWNNAME":"麻豆區","LI":"港尾里","LIN":"9鄰","STREET":" ","SECT":" ","MAREA":"港子尾","LANE":" ","ALLEY":" ","HOUSE_NO":"５０號","E_COORD97":168434.70999999999,"N_COORD97":2567189.7000000002,"ADDRESS":"港子尾５０號","OBJECTID":210750},"geometry":{"x":168434.71000000089,"y":2567189.7000000011}},{"attributes":{"ID":210752,"DIS_CODE":0,"TOWNNAME":"麻豆區","LI":"港尾里","LIN":"9鄰","STREET":" ","SECT":" ","MAREA":"港子尾","LANE":" ","ALLEY":" ","HOUSE_NO":"５３號","E_COORD97":168411.51999999999,"N_COORD97":2567165.8999999999,"ADDRESS":"港子尾５３號","OBJECTID":210751},"geometry":{"x":168411.52000000048,"y":2567165.9000000022}},{"attributes":{"ID":210753,"DIS_CODE":0,"TOWNNAME":"麻豆區","LI":"港尾里","LIN":"9鄰","STREET":" ","SECT":" ","MAREA":"港子尾","LANE":" ","ALLEY":" ","HOUSE_NO":"５６號","E_COORD97":168455.34,"N_COORD97":2567152.4500000002,"ADDRESS":"港子尾５６號","OBJECTID":210752},"geometry":{"x":168455.34000000078,"y":2567152.4499999993}},{"attributes":{"ID":210754,"DIS_CODE":0,"TOWNNAME":"麻豆區","LI":"港尾里","LIN":"9鄰","STREET":" ","SECT":" ","MAREA":"港子尾","LANE":" ","ALLEY":" ","HOUSE_NO":"５７號","E_COORD97":168455.45999999999,"N_COORD97":2567138.52,"ADDRESS":"港子尾５７號","OBJECTID":210753},"geometry":{"x":168455.45999999996,"y":2567138.5199999996}},{"attributes":{"ID":210755,"DIS_CODE":0,"TOWNNAME":"麻豆區","LI":"港尾里","LIN":"9鄰","STREET":" ","SECT":" ","MAREA":"港子尾","LANE":" ","ALLEY":" ","HOUSE_NO":"５８號之１１","E_COORD97":168331.04999999999,"N_COORD97":2567117.3900000001,"ADDRESS":"港子尾５８號之１１","OBJECTID":210754},"geometry":{"x":168331.04999999981,"y":2567117.3900000043}},{"attributes":{"ID":210756,"DIS_CODE":0,"TOWNNAME":"麻豆區","LI":"港尾里","LIN":"9鄰","STREET":" ","SECT":" ","MAREA":"港子尾","LANE":" ","ALLEY":" ","HOUSE_NO":"５８號之１２","E_COORD97":168106.20999999999,"N_COORD97":2567234.3999999999,"ADDRESS":"港子尾５８號之１２","OBJECTID":210755},"geometry":{"x":168106.20999999996,"y":2567234.4000000004}},{"attributes":{"ID":210757,"DIS_CODE":0,"TOWNNAME":"麻豆區","LI":"港尾里","LIN":"9鄰","STREET":" ","SECT":" ","MAREA":"港子尾","LANE":" ","ALLEY":" ","HOUSE_NO":"５８號","E_COORD97":168433,"N_COORD97":2567146.21,"ADDRESS":"港子尾５８號","OBJECTID":210756},"geometry":{"x":168433,"y":2567146.2100000046}},{"attributes":{"ID":210758,"DIS_CODE":0,"TOWNNAME":"安定區","LI":"蘇厝里","LIN":"2鄰","STREET":" ","SECT":" ","MAREA":"蘇厝","LANE":" ","ALLEY":" ","HOUSE_NO":"２９３之９３號","E_COORD97":173343.07000000001,"N_COORD97":2558351.2999999998,"ADDRESS":"蘇厝２９３之９３號","OBJECTID":210757},"geometry":{"x":173343.07000000123,"y":2558351.3000000026}},{"attributes":{"ID":210759,"DIS_CODE":0,"TOWNNAME":"安定區","LI":"蘇厝里","LIN":"2鄰","STREET":" ","SECT":" ","MAREA":"蘇厝","LANE":" ","ALLEY":" ","HOUSE_NO":"２９３之５４號","E_COORD97":173405.07000000001,"N_COORD97":2558483.2999999998,"ADDRESS":"蘇厝２９３之５４號","OBJECTID":210758},"geometry":{"x":173405.0700000003,"y":2558483.3000000026}},{"attributes":{"ID":210760,"DIS_CODE":0,"TOWNNAME":"安定區","LI":"蘇厝里","LIN":"2鄰","STREET":" ","SECT":" ","MAREA":"蘇厝","LANE":" ","ALLEY":" ","HOUSE_NO":"２９３之８３號","E_COORD97":173313.37,"N_COORD97":2558372.2999999998,"ADDRESS":"蘇厝２９３之８３號","OBJECTID":210759},"geometry":{"x":173313.37000000197,"y":2558372.3000000026}},{"attributes":{"ID":210761,"DIS_CODE":0,"TOWNNAME":"安定區","LI":"蘇厝里","LIN":"2鄰","STREET":" ","SECT":" ","MAREA":"蘇厝","LANE":" ","ALLEY":" ","HOUSE_NO":"２９３之２７號","E_COORD97":173303.07000000001,"N_COORD97":2558461.2999999998,"ADDRESS":"蘇厝２９３之２７號","OBJECTID":210760},"geometry":{"x":173303.0700000003,"y":2558461.3000000007}},{"attributes":{"ID":210762,"DIS_CODE":0,"TOWNNAME":"安定區","LI":"蘇厝里","LIN":"2鄰","STREET":" ","SECT":" ","MAREA":"蘇厝","LANE":" ","ALLEY":" ","HOUSE_NO":"２９０號","E_COORD97":173299.22,"N_COORD97":2558571.25,"ADDRESS":"蘇厝２９０號","OBJECTID":210761},"geometry":{"x":173299.22000000067,"y":2558571.2500000019}},{"attributes":{"ID":210763,"DIS_CODE":0,"TOWNNAME":"安定區","LI":"中榮里","LIN":"2鄰","STREET":" ","SECT":" ","MAREA":"許中營","LANE":" ","ALLEY":" ","HOUSE_NO":"２３之３０號","E_COORD97":172511.98999999999,"N_COORD97":2554765.2999999998,"ADDRESS":"許中營２３之３０號","OBJECTID":210762},"geometry":{"x":172511.99000000022,"y":2554765.3000000026}},{"attributes":{"ID":210764,"DIS_CODE":0,"TOWNNAME":"安南區","LI":"總頭里","LIN":"7鄰","STREET":"長溪路","SECT":"二段","MAREA":" ","LANE":"５９８巷","ALLEY":" ","HOUSE_NO":"１１號","E_COORD97":168261.249641,"N_COORD97":2550720.0528500001,"ADDRESS":"長溪路二段５９８巷１１號","OBJECTID":210763},"geometry":{"x":168261.24964100216,"y":2550720.0528480001}},{"attributes":{"ID":210765,"DIS_CODE":0,"TOWNNAME":"安定區","LI":"安定里","LIN":"2鄰","STREET":" ","SECT":" ","MAREA":"領寄","LANE":" ","ALLEY":" ","HOUSE_NO":"１４之３號","E_COORD97":173169.19,"N_COORD97":2556969.2999999998,"ADDRESS":"領寄１４之３號","OBJECTID":210764},"geometry":{"x":173169.19000000227,"y":2556969.3000000007}},{"attributes":{"ID":210766,"DIS_CODE":0,"TOWNNAME":"安定區","LI":"中榮里","LIN":"2鄰","STREET":" ","SECT":" ","MAREA":"許中營","LANE":" ","ALLEY":" ","HOUSE_NO":"２３之８號","E_COORD97":172571.14000000001,"N_COORD97":2554789.2999999998,"ADDRESS":"許中營２３之８號","OBJECTID":210765},"geometry":{"x":172571.1400000006,"y":2554789.3000000007}},{"attributes":{"ID":210767,"DIS_CODE":0,"TOWNNAME":"麻豆區","LI":"龍泉里","LIN":"9鄰","STREET":" ","SECT":" ","MAREA":"溝子墘","LANE":" ","ALLEY":" ","HOUSE_NO":"７７號","E_COORD97":174311.89000000001,"N_COORD97":2564184.8999999999,"ADDRESS":"溝子墘７７號","OBJECTID":210766},"geometry":{"x":174311.8900000006,"y":2564184.9000000022}},{"attributes":{"ID":210768,"DIS_CODE":0,"TOWNNAME":"麻豆區","LI":"龍泉里","LIN":"9鄰","STREET":" ","SECT":" ","MAREA":"溝子墘","LANE":" ","ALLEY":" ","HOUSE_NO":"７９號","E_COORD97":174323.37,"N_COORD97":2564177.9700000002,"ADDRESS":"溝子墘７９號","OBJECTID":210767},"geometry":{"x":174323.37000000011,"y":2564177.9700000025}},{"attributes":{"ID":210769,"DIS_CODE":0,"TOWNNAME":"仁德區","LI":"後壁里","LIN":"41鄰","STREET":"德善路","SECT":" ","MAREA":" ","LANE":"２５１巷","ALLEY":"７弄","HOUSE_NO":"６號四樓之１","E_COORD97":173916.45999999999,"N_COORD97":2538729.54,"ADDRESS":"德善路２５１巷７弄６號四樓之１","OBJECTID":210768},"geometry":{"x":173916.46000000089,"y":2538729.5399999991}},{"attributes":{"ID":210770,"DIS_CODE":0,"TOWNNAME":"仁德區","LI":"後壁里","LIN":"41鄰","STREET":"德善路","SECT":" ","MAREA":" ","LANE":"２５１巷","ALLEY":"７弄","HOUSE_NO":"６號七樓之２","E_COORD97":173916.60000000001,"N_COORD97":2538729.54,"ADDRESS":"德善路２５１巷７弄６號七樓之２","OBJECTID":210769},"geometry":{"x":173916.60000000149,"y":2538729.5399999991}},{"attributes":{"ID":210771,"DIS_CODE":0,"TOWNNAME":"仁德區","LI":"後壁里","LIN":"41鄰","STREET":"德善路","SECT":" ","MAREA":" ","LANE":"２５１巷","ALLEY":"７弄","HOUSE_NO":"８號五樓之３","E_COORD97":173933.22,"N_COORD97":2538718.04,"ADDRESS":"德善路２５１巷７弄８號五樓之３","OBJECTID":210770},"geometry":{"x":173933.22000000067,"y":2538718.040000001}},{"attributes":{"ID":210772,"DIS_CODE":0,"TOWNNAME":"仁德區","LI":"後壁里","LIN":"41鄰","STREET":"德善路","SECT":" ","MAREA":" ","LANE":"２５１巷","ALLEY":"７弄","HOUSE_NO":"６號六樓之３","E_COORD97":173916.56,"N_COORD97":2538729.54,"ADDRESS":"德善路２５１巷７弄６號六樓之３","OBJECTID":210771},"geometry":{"x":173916.55999999959,"y":2538729.5399999991}},{"attributes":{"ID":210773,"DIS_CODE":0,"TOWNNAME":"仁德區","LI":"後壁里","LIN":"41鄰","STREET":"德善路","SECT":" ","MAREA":" ","LANE":"２５１巷","ALLEY":"７弄","HOUSE_NO":"６號五樓之１","E_COORD97":173916.45999999999,"N_COORD97":2538729.54,"ADDRESS":"德善路２５１巷７弄６號五樓之１","OBJECTID":210772},"geometry":{"x":173916.46000000089,"y":2538729.5399999991}},{"attributes":{"ID":210774,"DIS_CODE":0,"TOWNNAME":"麻豆區","LI":"龍泉里","LIN":"9鄰","STREET":" ","SECT":" ","MAREA":"溝子墘","LANE":" ","ALLEY":" ","HOUSE_NO":"８２號","E_COORD97":174336.64000000001,"N_COORD97":2564184.98,"ADDRESS":"溝子墘８２號","OBJECTID":210773},"geometry":{"x":174336.63999999873,"y":2564184.9800000023}},{"attributes":{"ID":210775,"DIS_CODE":0,"TOWNNAME":"麻豆區","LI":"龍泉里","LIN":"9鄰","STREET":" ","SECT":" ","MAREA":"溝子墘","LANE":" ","ALLEY":" ","HOUSE_NO":"８３號","E_COORD97":174351.32999999999,"N_COORD97":2564158.8900000001,"ADDRESS":"溝子墘８３號","OBJECTID":210774},"geometry":{"x":174351.33000000101,"y":2564158.8900000025}},{"attributes":{"ID":210776,"DIS_CODE":0,"TOWNNAME":"麻豆區","LI":"龍泉里","LIN":"9鄰","STREET":" ","SECT":" ","MAREA":"溝子墘","LANE":" ","ALLEY":" ","HOUSE_NO":"８４號之１","E_COORD97":174392.42999999999,"N_COORD97":2564145.0499999998,"ADDRESS":"溝子墘８４號之１","OBJECTID":210775},"geometry":{"x":174392.43000000156,"y":2564145.0500000007}},{"attributes":{"ID":210777,"DIS_CODE":0,"TOWNNAME":"仁德區","LI":"後壁里","LIN":"41鄰","STREET":"德善路","SECT":" ","MAREA":" ","LANE":"２５１巷","ALLEY":"７弄","HOUSE_NO":"６號九樓之１","E_COORD97":173916.45999999999,"N_COORD97":2538729.54,"ADDRESS":"德善路２５１巷７弄６號九樓之１","OBJECTID":210776},"geometry":{"x":173916.46000000089,"y":2538729.5399999991}},{"attributes":{"ID":210778,"DIS_CODE":0,"TOWNNAME":"仁德區","LI":"後壁里","LIN":"41鄰","STREET":"德善路","SECT":" ","MAREA":" ","LANE":"２５１巷","ALLEY":"７弄","HOUSE_NO":"６號一樓之１","E_COORD97":173916.45999999999,"N_COORD97":2538729.54,"ADDRESS":"德善路２５１巷７弄６號一樓之１","OBJECTID":210777},"geometry":{"x":173916.46000000089,"y":2538729.5399999991}},{"attributes":{"ID":210779,"DIS_CODE":0,"TOWNNAME":"仁德區","LI":"後壁里","LIN":"41鄰","STREET":"德善路","SECT":" ","MAREA":" ","LANE":"２５１巷","ALLEY":"７弄","HOUSE_NO":"６號四樓之４","E_COORD97":173916.48999999999,"N_COORD97":2538729.54,"ADDRESS":"德善路２５１巷７弄６號四樓之４","OBJECTID":210778},"geometry":{"x":173916.49000000115,"y":2538729.5399999991}},{"attributes":{"ID":210780,"DIS_CODE":0,"TOWNNAME":"仁德區","LI":"後壁里","LIN":"41鄰","STREET":"德善路","SECT":" ","MAREA":" ","LANE":"２５１巷","ALLEY":"７弄","HOUSE_NO":"６號九樓之４","E_COORD97":173916.48999999999,"N_COORD97":2538729.54,"ADDRESS":"德善路２５１巷７弄６號九樓之４","OBJECTID":210779},"geometry":{"x":173916.49000000115,"y":2538729.5399999991}},{"attributes":{"ID":210781,"DIS_CODE":0,"TOWNNAME":"麻豆區","LI":"龍泉里","LIN":"9鄰","STREET":" ","SECT":" ","MAREA":"溝子墘","LANE":" ","ALLEY":" ","HOUSE_NO":"８４號之２","E_COORD97":174388.35999999999,"N_COORD97":2564143.9500000002,"ADDRESS":"溝子墘８４號之２","OBJECTID":210780},"geometry":{"x":174388.3599999994,"y":2564143.9500000011}},{"attributes":{"ID":210782,"DIS_CODE":0,"TOWNNAME":"麻豆區","LI":"龍泉里","LIN":"9鄰","STREET":" ","SECT":" ","MAREA":"溝子墘","LANE":" ","ALLEY":" ","HOUSE_NO":"８４號之３","E_COORD97":174384.14000000001,"N_COORD97":2564142.3199999998,"ADDRESS":"溝子墘８４號之３","OBJECTID":210781},"geometry":{"x":174384.14000000153,"y":2564142.3200000022}},{"attributes":{"ID":210783,"DIS_CODE":0,"TOWNNAME":"麻豆區","LI":"龍泉里","LIN":"9鄰","STREET":" ","SECT":" ","MAREA":"溝子墘","LANE":" ","ALLEY":" ","HOUSE_NO":"８４號","E_COORD97":174381.20999999999,"N_COORD97":2564140.6699999999,"ADDRESS":"溝子墘８４號","OBJECTID":210782},"geometry":{"x":174381.21000000089,"y":2564140.6699999999}},{"attributes":{"ID":210784,"DIS_CODE":0,"TOWNNAME":"麻豆區","LI":"龍泉里","LIN":"9鄰","STREET":" ","SECT":" ","MAREA":"溝子墘","LANE":" ","ALLEY":" ","HOUSE_NO":"８５號之１","E_COORD97":174398.16,"N_COORD97":2564178.6800000002,"ADDRESS":"溝子墘８５號之１","OBJECTID":210783},"geometry":{"x":174398.16000000201,"y":2564178.6800000034}},{"attributes":{"ID":210785,"DIS_CODE":0,"TOWNNAME":"麻豆區","LI":"龍泉里","LIN":"9鄰","STREET":" ","SECT":" ","MAREA":"溝子墘","LANE":" ","ALLEY":" ","HOUSE_NO":"８５號","E_COORD97":174409.89999999999,"N_COORD97":2564154.21,"ADDRESS":"溝子墘８５號","OBJECTID":210784},"geometry":{"x":174409.90000000037,"y":2564154.2100000009}},{"attributes":{"ID":210786,"DIS_CODE":0,"TOWNNAME":"仁德區","LI":"後壁里","LIN":"41鄰","STREET":"德善路","SECT":" ","MAREA":" ","LANE":"２５１巷","ALLEY":"７弄","HOUSE_NO":"８號九樓之２","E_COORD97":173933.26000000001,"N_COORD97":2538718.04,"ADDRESS":"德善路２５１巷７弄８號九樓之２","OBJECTID":210785},"geometry":{"x":173933.26000000071,"y":2538718.040000001}},{"attributes":{"ID":210787,"DIS_CODE":0,"TOWNNAME":"仁德區","LI":"後壁里","LIN":"41鄰","STREET":"德善路","SECT":" ","MAREA":" ","LANE":"２５１巷","ALLEY":"７弄","HOUSE_NO":"６號二樓之３","E_COORD97":173916.56,"N_COORD97":2538729.54,"ADDRESS":"德善路２５１巷７弄６號二樓之３","OBJECTID":210786},"geometry":{"x":173916.55999999959,"y":2538729.5399999991}},{"attributes":{"ID":210788,"DIS_CODE":0,"TOWNNAME":"仁德區","LI":"太子里","LIN":"41鄰","STREET":"太子路","SECT":" ","MAREA":" ","LANE":"６６巷","ALLEY":"４弄","HOUSE_NO":"１４號","E_COORD97":175270.32999999999,"N_COORD97":2543638.0099999998,"ADDRESS":"太子路６６巷４弄１４號","OBJECTID":210787},"geometry":{"x":175270.33000000101,"y":2543638.0100000016}},{"attributes":{"ID":210789,"DIS_CODE":0,"TOWNNAME":"麻豆區","LI":"龍泉里","LIN":"9鄰","STREET":" ","SECT":" ","MAREA":"溝子墘","LANE":" ","ALLEY":" ","HOUSE_NO":"８９號之２","E_COORD97":174435.57000000001,"N_COORD97":2564196.9399999999,"ADDRESS":"溝子墘８９號之２","OBJECTID":210788},"geometry":{"x":174435.5700000003,"y":2564196.9400000032}},{"attributes":{"ID":210790,"DIS_CODE":0,"TOWNNAME":"麻豆區","LI":"龍泉里","LIN":"9鄰","STREET":" ","SECT":" ","MAREA":"溝子墘","LANE":" ","ALLEY":" ","HOUSE_NO":"８９號之３","E_COORD97":174389.92999999999,"N_COORD97":2564191.1099999999,"ADDRESS":"溝子墘８９號之３","OBJECTID":210789},"geometry":{"x":174389.9299999997,"y":2564191.1099999994}},{"attributes":{"ID":210791,"DIS_CODE":0,"TOWNNAME":"歸仁區","LI":"南保里","LIN":"9鄰","STREET":"文化八街","SECT":" ","MAREA":" ","LANE":" ","ALLEY":" ","HOUSE_NO":"４０號","E_COORD97":176758.44,"N_COORD97":2541313.3300000001,"ADDRESS":"文化八街４０號","OBJECTID":210790},"geometry":{"x":176758.44000000134,"y":2541313.3300000038}},{"attributes":{"ID":210792,"DIS_CODE":0,"TOWNNAME":"麻豆區","LI":"龍泉里","LIN":"9鄰","STREET":" ","SECT":" ","MAREA":"溝子墘","LANE":" ","ALLEY":" ","HOUSE_NO":"８９號","E_COORD97":174386.67000000001,"N_COORD97":2564208.6000000001,"ADDRESS":"溝子墘８９號","OBJECTID":210791},"geometry":{"x":174386.67000000086,"y":2564208.5999999996}},{"attributes":{"ID":210793,"DIS_CODE":0,"TOWNNAME":"歸仁區","LI":"看東里","LIN":"9鄰","STREET":"成功路","SECT":"一段","MAREA":" ","LANE":" ","ALLEY":" ","HOUSE_NO":"１１３號","E_COORD97":178662.19,"N_COORD97":2540230.25,"ADDRESS":"成功路一段１１３號","OBJECTID":210792},"geometry":{"x":178662.19000000134,"y":2540230.2500000019}},{"attributes":{"ID":210794,"DIS_CODE":0,"TOWNNAME":"歸仁區","LI":"南興里","LIN":"9鄰","STREET":"文化十六街","SECT":" ","MAREA":" ","LANE":" ","ALLEY":" ","HOUSE_NO":"１８號","E_COORD97":176013.89000000001,"N_COORD97":2541233.3300000001,"ADDRESS":"文化十六街１８號","OBJECTID":210793},"geometry":{"x":176013.8900000006,"y":2541233.3300000019}},{"attributes":{"ID":210795,"DIS_CODE":0,"TOWNNAME":"麻豆區","LI":"龍泉里","LIN":"9鄰","STREET":" ","SECT":" ","MAREA":"溝子墘","LANE":" ","ALLEY":" ","HOUSE_NO":"９０號之２","E_COORD97":174335.35000000001,"N_COORD97":2564247.1600000001,"ADDRESS":"溝子墘９０號之２","OBJECTID":210794},"geometry":{"x":174335.35000000149,"y":2564247.1600000039}},{"attributes":{"ID":210796,"DIS_CODE":0,"TOWNNAME":"仁德區","LI":"太子里","LIN":"41鄰","STREET":"太子路","SECT":" ","MAREA":" ","LANE":"４２巷","ALLEY":"１弄","HOUSE_NO":"６號","E_COORD97":175254.48999999999,"N_COORD97":2543611.0099999998,"ADDRESS":"太子路４２巷１弄６號","OBJECTID":210795},"geometry":{"x":175254.49000000115,"y":2543611.0100000016}},{"attributes":{"ID":210797,"DIS_CODE":0,"TOWNNAME":"歸仁區","LI":"看東里","LIN":"9鄰","STREET":"成功路","SECT":"一段","MAREA":" ","LANE":" ","ALLEY":" ","HOUSE_NO":"１３３號","E_COORD97":178624.19,"N_COORD97":2540210.25,"ADDRESS":"成功路一段１３３號","OBJECTID":210796},"geometry":{"x":178624.18999999948,"y":2540210.25}},{"attributes":{"ID":210798,"DIS_CODE":0,"TOWNNAME":"麻豆區","LI":"龍泉里","LIN":"9鄰","STREET":" ","SECT":" ","MAREA":"溝子墘","LANE":" ","ALLEY":" ","HOUSE_NO":"９０號之３","E_COORD97":174315.14999999999,"N_COORD97":2564239.2799999998,"ADDRESS":"溝子墘９０號之３","OBJECTID":210797},"geometry":{"x":174315.15000000037,"y":2564239.2800000012}},{"attributes":{"ID":210799,"DIS_CODE":0,"TOWNNAME":"麻豆區","LI":"龍泉里","LIN":"9鄰","STREET":" ","SECT":" ","MAREA":"溝子墘","LANE":" ","ALLEY":" ","HOUSE_NO":"９０號之４","E_COORD97":174291.35999999999,"N_COORD97":2564232.02,"ADDRESS":"溝子墘９０號之４","OBJECTID":210798},"geometry":{"x":174291.36000000034,"y":2564232.0199999996}},{"attributes":{"ID":210800,"DIS_CODE":0,"TOWNNAME":"麻豆區","LI":"龍泉里","LIN":"9鄰","STREET":" ","SECT":" ","MAREA":"溝子墘","LANE":" ","ALLEY":" ","HOUSE_NO":"９０號","E_COORD97":174276.39000000001,"N_COORD97":2564207.7999999998,"ADDRESS":"溝子墘９０號","OBJECTID":210799},"geometry":{"x":174276.3900000006,"y":2564207.8000000007}},{"attributes":{"ID":210801,"DIS_CODE":0,"TOWNNAME":"歸仁區","LI":"南保里","LIN":"9鄰","STREET":"文化八街","SECT":" ","MAREA":" ","LANE":" ","ALLEY":" ","HOUSE_NO":"１８號","E_COORD97":176757.23999999999,"N_COORD97":2541267.3300000001,"ADDRESS":"文化八街１８號","OBJECTID":210800},"geometry":{"x":176757.23999999929,"y":2541267.3300000019}}]}