{"displayFieldName":"TOWNNAME","fieldAliases":{"ID":"ID","DIS_CODE":"DIS_CODE","TOWNNAME":"TOWNNAME","LI":"LI","LIN":"LIN","STREET":"STREET","SECT":"SECT","MAREA":"MAREA","LANE":"LANE","ALLEY":"ALLEY","HOUSE_NO":"HOUSE_NO","E_COORD97":"E_COORD97","N_COORD97":"N_COORD97","ADDRESS":"ADDRESS","OBJECTID":"OBJECTID"},"geometryType":"esriGeometryPoint","spatialReference":{"wkid":102443,"latestWkid":3826},"fields":[{"name":"ID","type":"esriFieldTypeDouble","alias":"ID"},{"name":"DIS_CODE","type":"esriFieldTypeInteger","alias":"DIS_CODE"},{"name":"TOWNNAME","type":"esriFieldTypeString","alias":"TOWNNAME","length":8},{"name":"LI","type":"esriFieldTypeString","alias":"LI","length":8},{"name":"LIN","type":"esriFieldTypeString","alias":"LIN","length":12},{"name":"STREET","type":"esriFieldTypeString","alias":"STREET","length":20},{"name":"SECT","type":"esriFieldTypeString","alias":"SECT","length":8},{"name":"MAREA","type":"esriFieldTypeString","alias":"MAREA","length":12},{"name":"LANE","type":"esriFieldTypeString","alias":"LANE","length":10},{"name":"ALLEY","type":"esriFieldTypeString","alias":"ALLEY","length":10},{"name":"HOUSE_NO","type":"esriFieldTypeString","alias":"HOUSE_NO","length":20},{"name":"E_COORD97","type":"esriFieldTypeDouble","alias":"E_COORD97"},{"name":"N_COORD97","type":"esriFieldTypeDouble","alias":"N_COORD97"},{"name":"ADDRESS","type":"esriFieldTypeString","alias":"ADDRESS","length":50},{"name":"OBJECTID","type":"esriFieldTypeOID","alias":"OBJECTID"}],"features":[{"attributes":{"ID":314209,"DIS_CODE":0,"TOWNNAME":"柳營區","LI":"果毅里","LIN":"18鄰","STREET":" ","SECT":" ","MAREA":"南湖","LANE":" ","ALLEY":" ","HOUSE_NO":"５之３號","E_COORD97":186256.51999999999,"N_COORD97":2571531.7799999998,"ADDRESS":"南湖５之３號","OBJECTID":314201},"geometry":{"x":186256.52000000048,"y":2571531.7800000012}},{"attributes":{"ID":314210,"DIS_CODE":0,"TOWNNAME":"柳營區","LI":"果毅里","LIN":"18鄰","STREET":" ","SECT":" ","MAREA":"南湖","LANE":" ","ALLEY":" ","HOUSE_NO":"５號之５","E_COORD97":186245.98000000001,"N_COORD97":2571501.27,"ADDRESS":"南湖５號之５","OBJECTID":314202},"geometry":{"x":186245.98000000138,"y":2571501.2700000014}},{"attributes":{"ID":314211,"DIS_CODE":0,"TOWNNAME":"柳營區","LI":"果毅里","LIN":"18鄰","STREET":" ","SECT":" ","MAREA":"南湖","LANE":" ","ALLEY":" ","HOUSE_NO":"５號","E_COORD97":186203.07000000001,"N_COORD97":2571545.1499999999,"ADDRESS":"南湖５號","OBJECTID":314203},"geometry":{"x":186203.07000000123,"y":2571545.1500000004}},{"attributes":{"ID":314212,"DIS_CODE":0,"TOWNNAME":"柳營區","LI":"果毅里","LIN":"18鄰","STREET":" ","SECT":" ","MAREA":"南湖","LANE":" ","ALLEY":" ","HOUSE_NO":"６號","E_COORD97":186235.66,"N_COORD97":2571435.1299999999,"ADDRESS":"南湖６號","OBJECTID":314204},"geometry":{"x":186235.66000000201,"y":2571435.1300000008}},{"attributes":{"ID":314213,"DIS_CODE":0,"TOWNNAME":"柳營區","LI":"果毅里","LIN":"18鄰","STREET":" ","SECT":" ","MAREA":"南湖","LANE":" ","ALLEY":" ","HOUSE_NO":"７號","E_COORD97":186240.89999999999,"N_COORD97":2571601.5800000001,"ADDRESS":"南湖７號","OBJECTID":314205},"geometry":{"x":186240.89999999944,"y":2571601.5800000019}},{"attributes":{"ID":314214,"DIS_CODE":0,"TOWNNAME":"柳營區","LI":"果毅里","LIN":"18鄰","STREET":" ","SECT":" ","MAREA":"南湖","LANE":" ","ALLEY":" ","HOUSE_NO":"８號","E_COORD97":186236.60999999999,"N_COORD97":2571420.98,"ADDRESS":"南湖８號","OBJECTID":314206},"geometry":{"x":186236.61000000127,"y":2571420.9800000004}},{"attributes":{"ID":314215,"DIS_CODE":0,"TOWNNAME":"柳營區","LI":"果毅里","LIN":"19鄰","STREET":" ","SECT":" ","MAREA":"南湖","LANE":" ","ALLEY":" ","HOUSE_NO":"３６之６號","E_COORD97":184483.60999999999,"N_COORD97":2571582.5899999999,"ADDRESS":"南湖３６之６號","OBJECTID":314207},"geometry":{"x":184483.61000000127,"y":2571582.5899999999}},{"attributes":{"ID":314216,"DIS_CODE":0,"TOWNNAME":"柳營區","LI":"果毅里","LIN":"19鄰","STREET":" ","SECT":" ","MAREA":"南湖","LANE":" ","ALLEY":" ","HOUSE_NO":"３６之７號","E_COORD97":184673.48000000001,"N_COORD97":2571406.8500000001,"ADDRESS":"南湖３６之７號","OBJECTID":314208},"geometry":{"x":184673.48000000045,"y":2571406.8500000015}},{"attributes":{"ID":314217,"DIS_CODE":0,"TOWNNAME":"柳營區","LI":"果毅里","LIN":"19鄰","STREET":" ","SECT":" ","MAREA":"南湖","LANE":" ","ALLEY":" ","HOUSE_NO":"３６號之８","E_COORD97":184133.20000000001,"N_COORD97":2571576.3500000001,"ADDRESS":"南湖３６號之８","OBJECTID":314209},"geometry":{"x":184133.20000000019,"y":2571576.3500000015}},{"attributes":{"ID":314218,"DIS_CODE":0,"TOWNNAME":"柳營區","LI":"光福里","LIN":"13鄰","STREET":" ","SECT":" ","MAREA":"柳營","LANE":" ","ALLEY":" ","HOUSE_NO":"２５５之２號","E_COORD97":179660.13,"N_COORD97":2575333.9900000002,"ADDRESS":"柳營２５５之２號","OBJECTID":314210},"geometry":{"x":179660.13000000082,"y":2575333.9900000002}},{"attributes":{"ID":314219,"DIS_CODE":0,"TOWNNAME":"柳營區","LI":"士林里","LIN":"6鄰","STREET":" ","SECT":" ","MAREA":"柳營","LANE":" ","ALLEY":" ","HOUSE_NO":"５２之７４號","E_COORD97":179368.62,"N_COORD97":2575326.1200000001,"ADDRESS":"柳營５２之７４號","OBJECTID":314211},"geometry":{"x":179368.62000000197,"y":2575326.1200000029}},{"attributes":{"ID":314220,"DIS_CODE":0,"TOWNNAME":"柳營區","LI":"士林里","LIN":"6鄰","STREET":" ","SECT":" ","MAREA":"柳營","LANE":" ","ALLEY":" ","HOUSE_NO":"５２之７５號","E_COORD97":179363.09,"N_COORD97":2575325.5600000001,"ADDRESS":"柳營５２之７５號","OBJECTID":314212},"geometry":{"x":179363.08999999985,"y":2575325.5600000024}},{"attributes":{"ID":314221,"DIS_CODE":0,"TOWNNAME":"柳營區","LI":"士林里","LIN":"6鄰","STREET":" ","SECT":" ","MAREA":"柳營","LANE":" ","ALLEY":" ","HOUSE_NO":"５２號之７５","E_COORD97":179363.09,"N_COORD97":2575325.5600000001,"ADDRESS":"柳營５２號之７５","OBJECTID":314213},"geometry":{"x":179363.08999999985,"y":2575325.5600000024}},{"attributes":{"ID":314222,"DIS_CODE":0,"TOWNNAME":"柳營區","LI":"士林里","LIN":"6鄰","STREET":" ","SECT":" ","MAREA":"柳營","LANE":" ","ALLEY":" ","HOUSE_NO":"５２之７６號","E_COORD97":179357.56,"N_COORD97":2575325,"ADDRESS":"柳營５２之７６號","OBJECTID":314214},"geometry":{"x":179357.55999999959,"y":2575325.0000000019}},{"attributes":{"ID":314223,"DIS_CODE":0,"TOWNNAME":"柳營區","LI":"東昇里","LIN":"17鄰","STREET":" ","SECT":" ","MAREA":"柳營","LANE":" ","ALLEY":" ","HOUSE_NO":"５３８之１１號","E_COORD97":180932.78,"N_COORD97":2575317.2200000002,"ADDRESS":"柳營５３８之１１號","OBJECTID":314215},"geometry":{"x":180932.78000000119,"y":2575317.2200000025}},{"attributes":{"ID":314224,"DIS_CODE":0,"TOWNNAME":"柳營區","LI":"東昇里","LIN":"17鄰","STREET":" ","SECT":" ","MAREA":"柳營","LANE":" ","ALLEY":" ","HOUSE_NO":"５３８之８號","E_COORD97":180942.73999999999,"N_COORD97":2575332,"ADDRESS":"柳營５３８之８號","OBJECTID":314216},"geometry":{"x":180942.74000000209,"y":2575332.0000000019}},{"attributes":{"ID":314225,"DIS_CODE":0,"TOWNNAME":"新營區","LI":"護鎮里","LIN":"9鄰","STREET":"長榮路","SECT":" ","MAREA":" ","LANE":"４６８巷","ALLEY":" ","HOUSE_NO":"３０５號","E_COORD97":178447.09987800001,"N_COORD97":2579798.3845500001,"ADDRESS":"長榮路４６８巷３０５號","OBJECTID":314217},"geometry":{"x":178447.09987799916,"y":2579798.3845550027}},{"attributes":{"ID":314226,"DIS_CODE":0,"TOWNNAME":"柳營區","LI":"士林里","LIN":"12鄰","STREET":"柳營路","SECT":"二段","MAREA":" ","LANE":"１９巷","ALLEY":" ","HOUSE_NO":"１２號","E_COORD97":179611.78,"N_COORD97":2575132.9500000002,"ADDRESS":"柳營路二段１９巷１２號","OBJECTID":314218},"geometry":{"x":179611.78000000212,"y":2575132.9499999993}},{"attributes":{"ID":314227,"DIS_CODE":0,"TOWNNAME":"北區","LI":"賢北里","LIN":"7鄰","STREET":"賢北街","SECT":" ","MAREA":" ","LANE":"１５巷","ALLEY":" ","HOUSE_NO":"５５號","E_COORD97":166208.28,"N_COORD97":2545166.9100000001,"ADDRESS":"賢北街１５巷５５號","OBJECTID":314219},"geometry":{"x":166208.28000000119,"y":2545166.9100000001}},{"attributes":{"ID":314228,"DIS_CODE":0,"TOWNNAME":"柳營區","LI":"士林里","LIN":"17鄰","STREET":" ","SECT":" ","MAREA":"柳營","LANE":" ","ALLEY":" ","HOUSE_NO":"５３之１２０號","E_COORD97":178770.67000000001,"N_COORD97":2575892.6800000002,"ADDRESS":"柳營５３之１２０號","OBJECTID":314220},"geometry":{"x":178770.66999999993,"y":2575892.6800000016}},{"attributes":{"ID":314229,"DIS_CODE":0,"TOWNNAME":"北區","LI":"賢北里","LIN":"7鄰","STREET":"賢北街","SECT":" ","MAREA":" ","LANE":"１５巷","ALLEY":" ","HOUSE_NO":"５７號","E_COORD97":166203.57000000001,"N_COORD97":2545163.6200000001,"ADDRESS":"賢北街１５巷５７號","OBJECTID":314221},"geometry":{"x":166203.5700000003,"y":2545163.6200000048}},{"attributes":{"ID":314230,"DIS_CODE":0,"TOWNNAME":"北區","LI":"賢北里","LIN":"7鄰","STREET":"賢北街","SECT":" ","MAREA":" ","LANE":"１５巷","ALLEY":" ","HOUSE_NO":"５９號","E_COORD97":166199.32000000001,"N_COORD97":2545161.9700000002,"ADDRESS":"賢北街１５巷５９號","OBJECTID":314222},"geometry":{"x":166199.32000000216,"y":2545161.9700000025}},{"attributes":{"ID":314231,"DIS_CODE":0,"TOWNNAME":"北區","LI":"賢北里","LIN":"7鄰","STREET":"賢北街","SECT":" ","MAREA":" ","LANE":"１５巷","ALLEY":" ","HOUSE_NO":"６１號","E_COORD97":166194.14000000001,"N_COORD97":2545159.8500000001,"ADDRESS":"賢北街１５巷６１號","OBJECTID":314223},"geometry":{"x":166194.13999999966,"y":2545159.8499999996}},{"attributes":{"ID":314232,"DIS_CODE":0,"TOWNNAME":"歸仁區","LI":"南興里","LIN":"17鄰","STREET":"南興街","SECT":" ","MAREA":" ","LANE":" ","ALLEY":" ","HOUSE_NO":"１９９號","E_COORD97":175711.79000000001,"N_COORD97":2541385.25,"ADDRESS":"南興街１９９號","OBJECTID":314224},"geometry":{"x":175711.79000000004,"y":2541385.2500000019}},{"attributes":{"ID":314233,"DIS_CODE":0,"TOWNNAME":"柳營區","LI":"士林里","LIN":"17鄰","STREET":" ","SECT":" ","MAREA":"柳營","LANE":" ","ALLEY":" ","HOUSE_NO":"５３之１３０號","E_COORD97":178721.89000000001,"N_COORD97":2575944,"ADDRESS":"柳營５３之１３０號","OBJECTID":314225},"geometry":{"x":178721.88999999966,"y":2575944}},{"attributes":{"ID":314234,"DIS_CODE":0,"TOWNNAME":"柳營區","LI":"士林里","LIN":"6鄰","STREET":" ","SECT":" ","MAREA":"柳營","LANE":" ","ALLEY":" ","HOUSE_NO":"５３之１０號","E_COORD97":179389.35999999999,"N_COORD97":2575483.7400000002,"ADDRESS":"柳營５３之１０號","OBJECTID":314226},"geometry":{"x":179389.3600000022,"y":2575483.7400000021}},{"attributes":{"ID":314235,"DIS_CODE":0,"TOWNNAME":"柳營區","LI":"士林里","LIN":"6鄰","STREET":" ","SECT":" ","MAREA":"柳營","LANE":" ","ALLEY":" ","HOUSE_NO":"５３號之１０","E_COORD97":179389.35999999999,"N_COORD97":2575483.7400000002,"ADDRESS":"柳營５３號之１０","OBJECTID":314227},"geometry":{"x":179389.3600000022,"y":2575483.7400000021}},{"attributes":{"ID":314236,"DIS_CODE":0,"TOWNNAME":"柳營區","LI":"旭山里","LIN":"14鄰","STREET":" ","SECT":" ","MAREA":"匏子園","LANE":" ","ALLEY":" ","HOUSE_NO":"１５號","E_COORD97":189683.56,"N_COORD97":2572048.52,"ADDRESS":"匏子園１５號","OBJECTID":314228},"geometry":{"x":189683.55999999959,"y":2572048.5200000033}},{"attributes":{"ID":314237,"DIS_CODE":0,"TOWNNAME":"歸仁區","LI":"文化里","LIN":"17鄰","STREET":"文化北街","SECT":" ","MAREA":" ","LANE":" ","ALLEY":" ","HOUSE_NO":"１６２號","E_COORD97":177074.01000000001,"N_COORD97":2541436.3399999999,"ADDRESS":"文化北街１６２號","OBJECTID":314229},"geometry":{"x":177074.01000000071,"y":2541436.3400000017}},{"attributes":{"ID":314238,"DIS_CODE":0,"TOWNNAME":"歸仁區","LI":"看西里","LIN":"17鄰","STREET":"成功五街","SECT":" ","MAREA":" ","LANE":" ","ALLEY":" ","HOUSE_NO":"３號","E_COORD97":178310.70999999999,"N_COORD97":2539981.3599999999,"ADDRESS":"成功五街３號","OBJECTID":314230},"geometry":{"x":178310.71000000089,"y":2539981.3600000013}},{"attributes":{"ID":314239,"DIS_CODE":0,"TOWNNAME":"柳營區","LI":"旭山里","LIN":"3鄰","STREET":" ","SECT":" ","MAREA":"新吉庄","LANE":" ","ALLEY":" ","HOUSE_NO":"２３號","E_COORD97":187087.97,"N_COORD97":2573864.8900000001,"ADDRESS":"新吉庄２３號","OBJECTID":314231},"geometry":{"x":187087.97000000067,"y":2573864.8900000025}},{"attributes":{"ID":314240,"DIS_CODE":0,"TOWNNAME":"柳營區","LI":"光福里","LIN":"18鄰","STREET":"柳營路","SECT":"二段","MAREA":" ","LANE":"５９６巷","ALLEY":" ","HOUSE_NO":"２５號","E_COORD97":179725.37,"N_COORD97":2576262.77,"ADDRESS":"柳營路二段５９６巷２５號","OBJECTID":314232},"geometry":{"x":179725.37000000104,"y":2576262.7699999996}},{"attributes":{"ID":314241,"DIS_CODE":0,"TOWNNAME":"柳營區","LI":"人和里","LIN":"17鄰","STREET":"柳營路","SECT":"三段","MAREA":" ","LANE":"４２０巷","ALLEY":" ","HOUSE_NO":"１０號","E_COORD97":179778.45000000001,"N_COORD97":2577025.0299999998,"ADDRESS":"柳營路三段４２０巷１０號","OBJECTID":314233},"geometry":{"x":179778.45000000205,"y":2577025.0299999975}},{"attributes":{"ID":314242,"DIS_CODE":0,"TOWNNAME":"柳營區","LI":"人和里","LIN":"17鄰","STREET":"柳營路","SECT":"三段","MAREA":" ","LANE":"４２０巷","ALLEY":" ","HOUSE_NO":"１２號","E_COORD97":179784.37,"N_COORD97":2577024.8799999999,"ADDRESS":"柳營路三段４２０巷１２號","OBJECTID":314234},"geometry":{"x":179784.37000000104,"y":2577024.879999999}},{"attributes":{"ID":314243,"DIS_CODE":0,"TOWNNAME":"柳營區","LI":"人和里","LIN":"17鄰","STREET":"柳營路","SECT":"三段","MAREA":" ","LANE":"４２０巷","ALLEY":" ","HOUSE_NO":"１６號","E_COORD97":179790.29999999999,"N_COORD97":2577024.73,"ADDRESS":"柳營路三段４２０巷１６號","OBJECTID":314235},"geometry":{"x":179790.29999999981,"y":2577024.7300000004}},{"attributes":{"ID":314244,"DIS_CODE":0,"TOWNNAME":"柳營區","LI":"人和里","LIN":"17鄰","STREET":"柳營路","SECT":"三段","MAREA":" ","LANE":"４２０巷","ALLEY":" ","HOUSE_NO":"１８號","E_COORD97":179796.25,"N_COORD97":2577032.8199999998,"ADDRESS":"柳營路三段４２０巷１８號","OBJECTID":314236},"geometry":{"x":179796.25,"y":2577032.8200000003}},{"attributes":{"ID":314245,"DIS_CODE":0,"TOWNNAME":"柳營區","LI":"人和里","LIN":"17鄰","STREET":"柳營路","SECT":"三段","MAREA":" ","LANE":"４２０巷","ALLEY":" ","HOUSE_NO":"２０號","E_COORD97":179802.41,"N_COORD97":2577035.6299999999,"ADDRESS":"柳營路三段４２０巷２０號","OBJECTID":314237},"geometry":{"x":179802.41000000201,"y":2577035.6300000008}},{"attributes":{"ID":314246,"DIS_CODE":0,"TOWNNAME":"北區","LI":"賢北里","LIN":"7鄰","STREET":"賢北街","SECT":" ","MAREA":" ","LANE":"１５巷","ALLEY":" ","HOUSE_NO":"６３號","E_COORD97":166189.66,"N_COORD97":2545157.9700000002,"ADDRESS":"賢北街１５巷６３號","OBJECTID":314238},"geometry":{"x":166189.66000000015,"y":2545157.9700000025}},{"attributes":{"ID":314247,"DIS_CODE":0,"TOWNNAME":"北區","LI":"賢北里","LIN":"7鄰","STREET":"賢北街","SECT":" ","MAREA":" ","LANE":"１５巷","ALLEY":" ","HOUSE_NO":"６５號","E_COORD97":166185.66,"N_COORD97":2545155.6099999999,"ADDRESS":"賢北街１５巷６５號","OBJECTID":314239},"geometry":{"x":166185.66000000108,"y":2545155.6100000013}},{"attributes":{"ID":314248,"DIS_CODE":0,"TOWNNAME":"北區","LI":"賢北里","LIN":"7鄰","STREET":"賢北街","SECT":" ","MAREA":" ","LANE":"１５巷","ALLEY":" ","HOUSE_NO":"９號","E_COORD97":166294.54999999999,"N_COORD97":2545207.6400000001,"ADDRESS":"賢北街１５巷９號","OBJECTID":314240},"geometry":{"x":166294.55000000075,"y":2545207.6400000025}},{"attributes":{"ID":314249,"DIS_CODE":0,"TOWNNAME":"關廟區","LI":"五甲里","LIN":"7鄰","STREET":"五慧街","SECT":" ","MAREA":" ","LANE":"１６巷","ALLEY":" ","HOUSE_NO":"７號","E_COORD97":181211.92000000001,"N_COORD97":2539297.25,"ADDRESS":"五慧街１６巷７號","OBJECTID":314241},"geometry":{"x":181211.91999999993,"y":2539297.2500000019}},{"attributes":{"ID":314250,"DIS_CODE":0,"TOWNNAME":"關廟區","LI":"龜洞里","LIN":"7鄰","STREET":"南雄南路","SECT":" ","MAREA":" ","LANE":"７８１巷","ALLEY":" ","HOUSE_NO":"３６號","E_COORD97":183212.64000000001,"N_COORD97":2533120.25,"ADDRESS":"南雄南路７８１巷３６號","OBJECTID":314242},"geometry":{"x":183212.63999999873,"y":2533120.2500000019}},{"attributes":{"ID":314251,"DIS_CODE":0,"TOWNNAME":"歸仁區","LI":"歸仁里","LIN":"17鄰","STREET":"大仁街","SECT":" ","MAREA":" ","LANE":" ","ALLEY":" ","HOUSE_NO":"９９號","E_COORD97":178080.85999999999,"N_COORD97":2540940.6800000002,"ADDRESS":"大仁街９９號","OBJECTID":314243},"geometry":{"x":178080.86000000127,"y":2540940.6799999978}},{"attributes":{"ID":314252,"DIS_CODE":0,"TOWNNAME":"歸仁區","LI":"歸南里","LIN":"17鄰","STREET":"民生南街","SECT":"二段","MAREA":" ","LANE":" ","ALLEY":" ","HOUSE_NO":"９４號","E_COORD97":176202.48999999999,"N_COORD97":2540359.29,"ADDRESS":"民生南街二段９４號","OBJECTID":314244},"geometry":{"x":176202.49000000022,"y":2540359.2899999991}},{"attributes":{"ID":314253,"DIS_CODE":0,"TOWNNAME":"歸仁區","LI":"文化里","LIN":"17鄰","STREET":"文化北街","SECT":" ","MAREA":" ","LANE":" ","ALLEY":" ","HOUSE_NO":"１２２號","E_COORD97":177169.31,"N_COORD97":2541417.3399999999,"ADDRESS":"文化北街１２２號","OBJECTID":314245},"geometry":{"x":177169.30999999959,"y":2541417.3399999999}},{"attributes":{"ID":314254,"DIS_CODE":0,"TOWNNAME":"歸仁區","LI":"看西里","LIN":"17鄰","STREET":"成功七街","SECT":" ","MAREA":" ","LANE":" ","ALLEY":" ","HOUSE_NO":"２３號","E_COORD97":178325.76000000001,"N_COORD97":2539859.3599999999,"ADDRESS":"成功七街２３號","OBJECTID":314246},"geometry":{"x":178325.75999999978,"y":2539859.3600000013}},{"attributes":{"ID":314255,"DIS_CODE":0,"TOWNNAME":"北區","LI":"大港里","LIN":"17鄰","STREET":"中華北路","SECT":"一段","MAREA":" ","LANE":" ","ALLEY":" ","HOUSE_NO":"３５０號","E_COORD97":166622.20000000001,"N_COORD97":2546046.98,"ADDRESS":"中華北路一段３５０號","OBJECTID":314247},"geometry":{"x":166622.20000000112,"y":2546046.9800000023}},{"attributes":{"ID":314256,"DIS_CODE":0,"TOWNNAME":"北區","LI":"大港里","LIN":"17鄰","STREET":"中華北路","SECT":"一段","MAREA":" ","LANE":" ","ALLEY":" ","HOUSE_NO":"３５２號","E_COORD97":166626.26000000001,"N_COORD97":2546050.29,"ADDRESS":"中華北路一段３５２號","OBJECTID":314248},"geometry":{"x":166626.26000000164,"y":2546050.290000001}},{"attributes":{"ID":314257,"DIS_CODE":0,"TOWNNAME":"北區","LI":"大港里","LIN":"17鄰","STREET":"中華北路","SECT":"一段","MAREA":" ","LANE":" ","ALLEY":" ","HOUSE_NO":"３５６號","E_COORD97":166629.69,"N_COORD97":2546053.3300000001,"ADDRESS":"中華北路一段３５６號","OBJECTID":314249},"geometry":{"x":166629.69000000134,"y":2546053.3300000019}},{"attributes":{"ID":314258,"DIS_CODE":0,"TOWNNAME":"北區","LI":"大港里","LIN":"17鄰","STREET":"中華北路","SECT":"一段","MAREA":" ","LANE":" ","ALLEY":" ","HOUSE_NO":"３５８號","E_COORD97":166633.38,"N_COORD97":2546055.8700000001,"ADDRESS":"中華北路一段３５８號","OBJECTID":314250},"geometry":{"x":166633.37999999989,"y":2546055.870000001}},{"attributes":{"ID":314259,"DIS_CODE":0,"TOWNNAME":"新營區","LI":"興業里","LIN":" ","STREET":"中興路","SECT":" ","MAREA":" ","LANE":"１３巷","ALLEY":" ","HOUSE_NO":"２２之４號","E_COORD97":180238.88,"N_COORD97":2577961.4399999999,"ADDRESS":"中興路１３巷２２之４號","OBJECTID":314251},"geometry":{"x":180238.87999999989,"y":2577961.4399999995}},{"attributes":{"ID":314260,"DIS_CODE":0,"TOWNNAME":"關廟區","LI":"香洋里","LIN":"7鄰","STREET":"南雄路","SECT":"二段","MAREA":" ","LANE":"５１巷","ALLEY":" ","HOUSE_NO":"３號","E_COORD97":181092.19,"N_COORD97":2540157.02,"ADDRESS":"南雄路二段５１巷３號","OBJECTID":314252},"geometry":{"x":181092.19000000041,"y":2540157.0199999996}},{"attributes":{"ID":314261,"DIS_CODE":0,"TOWNNAME":"新營區","LI":"民榮里","LIN":"20鄰","STREET":"裕民路","SECT":" ","MAREA":" ","LANE":"１６巷","ALLEY":" ","HOUSE_NO":"６號","E_COORD97":179083.09,"N_COORD97":2577921.46,"ADDRESS":"裕民路１６巷６號","OBJECTID":314253},"geometry":{"x":179083.08999999985,"y":2577921.4600000009}},{"attributes":{"ID":314262,"DIS_CODE":0,"TOWNNAME":"新營區","LI":"忠政里","LIN":"17鄰","STREET":"府西路","SECT":" ","MAREA":" ","LANE":"２５８巷","ALLEY":" ","HOUSE_NO":"１３號","E_COORD97":179823.29999999999,"N_COORD97":2579739.7000000002,"ADDRESS":"府西路２５８巷１３號","OBJECTID":314254},"geometry":{"x":179823.30000000075,"y":2579739.700000003}},{"attributes":{"ID":314263,"DIS_CODE":0,"TOWNNAME":"新營區","LI":"忠政里","LIN":"8鄰","STREET":"中正路","SECT":" ","MAREA":" ","LANE":"３７巷","ALLEY":" ","HOUSE_NO":"９４號","E_COORD97":179984.20999999999,"N_COORD97":2579167.4900000002,"ADDRESS":"中正路３７巷９４號","OBJECTID":314255},"geometry":{"x":179984.20999999996,"y":2579167.4900000021}},{"attributes":{"ID":314264,"DIS_CODE":0,"TOWNNAME":"關廟區","LI":"五甲里","LIN":"7鄰","STREET":"五慧街","SECT":" ","MAREA":" ","LANE":"１６巷","ALLEY":" ","HOUSE_NO":"１３號","E_COORD97":181208.26999999999,"N_COORD97":2539308.25,"ADDRESS":"五慧街１６巷１３號","OBJECTID":314256},"geometry":{"x":181208.27000000048,"y":2539308.25}},{"attributes":{"ID":314265,"DIS_CODE":0,"TOWNNAME":"柳營區","LI":"旭山里","LIN":"13鄰","STREET":" ","SECT":" ","MAREA":"匏子園","LANE":" ","ALLEY":" ","HOUSE_NO":"８號","E_COORD97":189649.64000000001,"N_COORD97":2572092.1200000001,"ADDRESS":"匏子園８號","OBJECTID":314257},"geometry":{"x":189649.6400000006,"y":2572092.120000001}},{"attributes":{"ID":314266,"DIS_CODE":0,"TOWNNAME":"柳營區","LI":"神農里","LIN":"18鄰","STREET":" ","SECT":" ","MAREA":"新厝","LANE":" ","ALLEY":" ","HOUSE_NO":"４２號","E_COORD97":183331.92000000001,"N_COORD97":2573319.4199999999,"ADDRESS":"新厝４２號","OBJECTID":314258},"geometry":{"x":183331.92000000086,"y":2573319.4199999999}},{"attributes":{"ID":314267,"DIS_CODE":0,"TOWNNAME":"關廟區","LI":"松腳里","LIN":"7鄰","STREET":"中山路","SECT":"一段","MAREA":" ","LANE":"８９巷","ALLEY":" ","HOUSE_NO":"４０號","E_COORD97":181895.06,"N_COORD97":2539851.2799999998,"ADDRESS":"中山路一段８９巷４０號","OBJECTID":314259},"geometry":{"x":181895.06000000052,"y":2539851.2799999975}},{"attributes":{"ID":314268,"DIS_CODE":0,"TOWNNAME":"關廟區","LI":"龜洞里","LIN":"7鄰","STREET":"南雄南路","SECT":" ","MAREA":" ","LANE":"７８１巷","ALLEY":" ","HOUSE_NO":"３０號","E_COORD97":183196.94,"N_COORD97":2533152.25,"ADDRESS":"南雄南路７８１巷３０號","OBJECTID":314260},"geometry":{"x":183196.94000000134,"y":2533152.25}},{"attributes":{"ID":314269,"DIS_CODE":0,"TOWNNAME":"關廟區","LI":"五甲里","LIN":"7鄰","STREET":"五慧街","SECT":" ","MAREA":" ","LANE":"１６巷","ALLEY":" ","HOUSE_NO":"１１號","E_COORD97":181209.76999999999,"N_COORD97":2539304.25,"ADDRESS":"五慧街１６巷１１號","OBJECTID":314261},"geometry":{"x":181209.77000000142,"y":2539304.2500000019}},{"attributes":{"ID":314270,"DIS_CODE":0,"TOWNNAME":"關廟區","LI":"五甲里","LIN":"7鄰","STREET":"五慧街","SECT":" ","MAREA":" ","LANE":"１６巷","ALLEY":" ","HOUSE_NO":"１０號","E_COORD97":181222.76999999999,"N_COORD97":2539301.25,"ADDRESS":"五慧街１６巷１０號","OBJECTID":314262},"geometry":{"x":181222.76999999955,"y":2539301.2500000019}},{"attributes":{"ID":314271,"DIS_CODE":0,"TOWNNAME":"新營區","LI":"民生里","LIN":"18鄰","STREET":"民治路","SECT":" ","MAREA":" ","LANE":"１８３巷","ALLEY":" ","HOUSE_NO":"７０號","E_COORD97":178910.45999999999,"N_COORD97":2578345.3399999999,"ADDRESS":"民治路１８３巷７０號","OBJECTID":314263},"geometry":{"x":178910.46000000089,"y":2578345.3399999999}},{"attributes":{"ID":314272,"DIS_CODE":0,"TOWNNAME":"關廟區","LI":"五甲里","LIN":"7鄰","STREET":"五慧街","SECT":" ","MAREA":" ","LANE":"１６巷","ALLEY":" ","HOUSE_NO":"１８號","E_COORD97":181218.57000000001,"N_COORD97":2539311.25,"ADDRESS":"五慧街１６巷１８號","OBJECTID":314264},"geometry":{"x":181218.57000000216,"y":2539311.2500000019}},{"attributes":{"ID":314273,"DIS_CODE":0,"TOWNNAME":"關廟區","LI":"五甲里","LIN":"7鄰","STREET":"五慧街","SECT":" ","MAREA":" ","LANE":"１６巷","ALLEY":" ","HOUSE_NO":"１５號","E_COORD97":181206.26999999999,"N_COORD97":2539312.25,"ADDRESS":"五慧街１６巷１５號","OBJECTID":314265},"geometry":{"x":181206.27000000142,"y":2539312.25}},{"attributes":{"ID":314274,"DIS_CODE":0,"TOWNNAME":"關廟區","LI":"五甲里","LIN":"7鄰","STREET":"五慧街","SECT":" ","MAREA":" ","LANE":"１６巷","ALLEY":" ","HOUSE_NO":"１號","E_COORD97":181207.72,"N_COORD97":2539283.25,"ADDRESS":"五慧街１６巷１號","OBJECTID":314266},"geometry":{"x":181207.71999999974,"y":2539283.2500000019}},{"attributes":{"ID":314275,"DIS_CODE":0,"TOWNNAME":"關廟區","LI":"五甲里","LIN":"7鄰","STREET":"五慧街","SECT":" ","MAREA":" ","LANE":"１６巷","ALLEY":" ","HOUSE_NO":"２０號","E_COORD97":181217.07000000001,"N_COORD97":2539315.25,"ADDRESS":"五慧街１６巷２０號","OBJECTID":314267},"geometry":{"x":181217.07000000216,"y":2539315.25}},{"attributes":{"ID":314276,"DIS_CODE":0,"TOWNNAME":"柳營區","LI":"大農里","LIN":"7鄰","STREET":"義士路","SECT":"一段","MAREA":" ","LANE":"２４７巷","ALLEY":" ","HOUSE_NO":"２號","E_COORD97":186354.5,"N_COORD97":2575779.3999999999,"ADDRESS":"義士路一段２４７巷２號","OBJECTID":314268},"geometry":{"x":186354.5,"y":2575779.3999999985}},{"attributes":{"ID":314277,"DIS_CODE":0,"TOWNNAME":"新營區","LI":"忠政里","LIN":"31鄰","STREET":"府西路","SECT":" ","MAREA":" ","LANE":"４７巷","ALLEY":" ","HOUSE_NO":"１３之３號","E_COORD97":179755.88,"N_COORD97":2579014.7000000002,"ADDRESS":"府西路４７巷１３之３號","OBJECTID":314269},"geometry":{"x":179755.87999999989,"y":2579014.7000000011}},{"attributes":{"ID":314278,"DIS_CODE":0,"TOWNNAME":"關廟區","LI":"香洋里","LIN":"7鄰","STREET":"中央路","SECT":" ","MAREA":" ","LANE":"２５２巷","ALLEY":" ","HOUSE_NO":"１號","E_COORD97":181052.26000000001,"N_COORD97":2540145.8300000001,"ADDRESS":"中央路２５２巷１號","OBJECTID":314270},"geometry":{"x":181052.25999999885,"y":2540145.8300000001}},{"attributes":{"ID":314279,"DIS_CODE":0,"TOWNNAME":"新營區","LI":"忠政里","LIN":"13鄰","STREET":"中正路","SECT":" ","MAREA":" ","LANE":"７７巷","ALLEY":" ","HOUSE_NO":"１０號","E_COORD97":180037.60999999999,"N_COORD97":2579637.8999999999,"ADDRESS":"中正路７７巷１０號","OBJECTID":314271},"geometry":{"x":180037.61000000127,"y":2579637.9000000041}},{"attributes":{"ID":314280,"DIS_CODE":0,"TOWNNAME":"新營區","LI":"新北里","LIN":"13鄰","STREET":"周武街","SECT":" ","MAREA":" ","LANE":"７９巷","ALLEY":" ","HOUSE_NO":"２６號","E_COORD97":179310.47,"N_COORD97":2578994.6099999999,"ADDRESS":"周武街７９巷２６號","OBJECTID":314272},"geometry":{"x":179310.47000000067,"y":2578994.6100000031}},{"attributes":{"ID":314281,"DIS_CODE":0,"TOWNNAME":"新營區","LI":"忠政里","LIN":"15鄰","STREET":"府西路","SECT":" ","MAREA":" ","LANE":"２３０巷","ALLEY":" ","HOUSE_NO":"２９號","E_COORD97":179895.38,"N_COORD97":2579610.8900000001,"ADDRESS":"府西路２３０巷２９號","OBJECTID":314273},"geometry":{"x":179895.37999999989,"y":2579610.8899999987}},{"attributes":{"ID":314282,"DIS_CODE":0,"TOWNNAME":"新營區","LI":"南紙里","LIN":"4鄰","STREET":"南紙街","SECT":" ","MAREA":" ","LANE":"２９巷","ALLEY":" ","HOUSE_NO":"１５號","E_COORD97":177888.70000000001,"N_COORD97":2577741.1800000002,"ADDRESS":"南紙街２９巷１５號","OBJECTID":314274},"geometry":{"x":177888.70000000112,"y":2577741.1800000016}},{"attributes":{"ID":314283,"DIS_CODE":0,"TOWNNAME":"學甲區","LI":"仁得里","LIN":"17鄰","STREET":"民權路","SECT":" ","MAREA":" ","LANE":" ","ALLEY":" ","HOUSE_NO":"１３５號","E_COORD97":165684.62,"N_COORD97":2570321.3199999998,"ADDRESS":"民權路１３５號","OBJECTID":314275},"geometry":{"x":165684.62000000011,"y":2570321.3199999984}},{"attributes":{"ID":314284,"DIS_CODE":0,"TOWNNAME":"柳營區","LI":"神農里","LIN":"17鄰","STREET":" ","SECT":" ","MAREA":"新厝","LANE":" ","ALLEY":" ","HOUSE_NO":"３８號","E_COORD97":183275,"N_COORD97":2573319.4399999999,"ADDRESS":"新厝３８號","OBJECTID":314276},"geometry":{"x":183275.00000000186,"y":2573319.4399999995}},{"attributes":{"ID":314285,"DIS_CODE":0,"TOWNNAME":"柳營區","LI":"神農里","LIN":"18鄰","STREET":" ","SECT":" ","MAREA":"新厝","LANE":" ","ALLEY":" ","HOUSE_NO":"４７號","E_COORD97":183368.92000000001,"N_COORD97":2573293.2400000002,"ADDRESS":"新厝４７號","OBJECTID":314277},"geometry":{"x":183368.92000000086,"y":2573293.2400000021}},{"attributes":{"ID":314286,"DIS_CODE":0,"TOWNNAME":"柳營區","LI":"神農里","LIN":"18鄰","STREET":" ","SECT":" ","MAREA":"新厝","LANE":" ","ALLEY":" ","HOUSE_NO":"４８號","E_COORD97":183384.22,"N_COORD97":2573268.3500000001,"ADDRESS":"新厝４８號","OBJECTID":314278},"geometry":{"x":183384.22000000067,"y":2573268.3500000015}},{"attributes":{"ID":314287,"DIS_CODE":0,"TOWNNAME":"柳營區","LI":"神農里","LIN":"18鄰","STREET":" ","SECT":" ","MAREA":"新厝","LANE":" ","ALLEY":" ","HOUSE_NO":"４９號之２","E_COORD97":183398.48999999999,"N_COORD97":2573290.1699999999,"ADDRESS":"新厝４９號之２","OBJECTID":314279},"geometry":{"x":183398.49000000022,"y":2573290.1700000018}},{"attributes":{"ID":314288,"DIS_CODE":0,"TOWNNAME":"柳營區","LI":"大農里","LIN":"2鄰","STREET":"義士路","SECT":"一段","MAREA":" ","LANE":"３２８巷","ALLEY":" ","HOUSE_NO":"５號","E_COORD97":186217.63,"N_COORD97":2575825.2200000002,"ADDRESS":"義士路一段３２８巷５號","OBJECTID":314280},"geometry":{"x":186217.63000000082,"y":2575825.2200000044}},{"attributes":{"ID":314289,"DIS_CODE":0,"TOWNNAME":"柳營區","LI":"大農里","LIN":"2鄰","STREET":"義士路","SECT":"一段","MAREA":" ","LANE":"３５０巷","ALLEY":" ","HOUSE_NO":"１０號","E_COORD97":186196.25,"N_COORD97":2575826.0499999998,"ADDRESS":"義士路一段３５０巷１０號","OBJECTID":314281},"geometry":{"x":186196.25000000093,"y":2575826.0500000007}},{"attributes":{"ID":314290,"DIS_CODE":0,"TOWNNAME":"柳營區","LI":"大農里","LIN":"2鄰","STREET":"義士路","SECT":"一段","MAREA":" ","LANE":"３５０巷","ALLEY":" ","HOUSE_NO":"１１號","E_COORD97":186180.41,"N_COORD97":2575820.23,"ADDRESS":"義士路一段３５０巷１１號","OBJECTID":314282},"geometry":{"x":186180.41000000108,"y":2575820.2300000004}},{"attributes":{"ID":314291,"DIS_CODE":0,"TOWNNAME":"柳營區","LI":"神農里","LIN":"18鄰","STREET":" ","SECT":" ","MAREA":"新厝","LANE":" ","ALLEY":" ","HOUSE_NO":"４９號之３","E_COORD97":183399.66,"N_COORD97":2573321.3799999999,"ADDRESS":"新厝４９號之３","OBJECTID":314283},"geometry":{"x":183399.66000000201,"y":2573321.3800000008}},{"attributes":{"ID":314292,"DIS_CODE":0,"TOWNNAME":"柳營區","LI":"大農里","LIN":"2鄰","STREET":"義士路","SECT":"一段","MAREA":" ","LANE":"３５０巷","ALLEY":" ","HOUSE_NO":"１３號","E_COORD97":186165.70000000001,"N_COORD97":2575826.1699999999,"ADDRESS":"義士路一段３５０巷１３號","OBJECTID":314284},"geometry":{"x":186165.70000000019,"y":2575826.1700000018}},{"attributes":{"ID":314293,"DIS_CODE":0,"TOWNNAME":"柳營區","LI":"神農里","LIN":"15鄰","STREET":" ","SECT":" ","MAREA":"新厝","LANE":" ","ALLEY":" ","HOUSE_NO":"５號之１","E_COORD97":183342.78,"N_COORD97":2573247.4300000002,"ADDRESS":"新厝５號之１","OBJECTID":314285},"geometry":{"x":183342.78000000026,"y":2573247.4300000016}},{"attributes":{"ID":314294,"DIS_CODE":0,"TOWNNAME":"柳營區","LI":"大農里","LIN":"2鄰","STREET":"義士路","SECT":"一段","MAREA":" ","LANE":"３５０巷","ALLEY":" ","HOUSE_NO":"１號","E_COORD97":186194.85999999999,"N_COORD97":2575778.6499999999,"ADDRESS":"義士路一段３５０巷１號","OBJECTID":314286},"geometry":{"x":186194.86000000034,"y":2575778.6500000022}},{"attributes":{"ID":314295,"DIS_CODE":0,"TOWNNAME":"新營區","LI":"新南里","LIN":"14鄰","STREET":"民治路","SECT":" ","MAREA":" ","LANE":"３００巷","ALLEY":" ","HOUSE_NO":"１６之１號","E_COORD97":178740.10000000001,"N_COORD97":2578565.4900000002,"ADDRESS":"民治路３００巷１６之１號","OBJECTID":314287},"geometry":{"x":178740.10000000056,"y":2578565.4899999984}},{"attributes":{"ID":314296,"DIS_CODE":0,"TOWNNAME":"學甲區","LI":"慈福里","LIN":"17鄰","STREET":"成功路","SECT":" ","MAREA":" ","LANE":" ","ALLEY":" ","HOUSE_NO":"５３號","E_COORD97":166172.41,"N_COORD97":2570382.3700000001,"ADDRESS":"成功路５３號","OBJECTID":314288},"geometry":{"x":166172.41000000015,"y":2570382.370000001}},{"attributes":{"ID":314297,"DIS_CODE":0,"TOWNNAME":"學甲區","LI":"慈福里","LIN":"17鄰","STREET":"成功路","SECT":" ","MAREA":" ","LANE":" ","ALLEY":" ","HOUSE_NO":"５５號","E_COORD97":166173.48000000001,"N_COORD97":2570386,"ADDRESS":"成功路５５號","OBJECTID":314289},"geometry":{"x":166173.48000000138,"y":2570386.0000000019}},{"attributes":{"ID":314298,"DIS_CODE":0,"TOWNNAME":"學甲區","LI":"慈福里","LIN":"17鄰","STREET":"成功路","SECT":" ","MAREA":" ","LANE":" ","ALLEY":" ","HOUSE_NO":"５７號","E_COORD97":166174.22,"N_COORD97":2570389.8900000001,"ADDRESS":"成功路５７號","OBJECTID":314290},"geometry":{"x":166174.22000000067,"y":2570389.8900000025}},{"attributes":{"ID":314299,"DIS_CODE":0,"TOWNNAME":"學甲區","LI":"慈福里","LIN":"17鄰","STREET":"成功路","SECT":" ","MAREA":" ","LANE":" ","ALLEY":" ","HOUSE_NO":"６３號","E_COORD97":166175.89999999999,"N_COORD97":2570402.0699999998,"ADDRESS":"成功路６３號","OBJECTID":314291},"geometry":{"x":166175.9000000013,"y":2570402.0700000022}},{"attributes":{"ID":314300,"DIS_CODE":0,"TOWNNAME":"學甲區","LI":"慈福里","LIN":"17鄰","STREET":"成功路","SECT":" ","MAREA":" ","LANE":" ","ALLEY":" ","HOUSE_NO":"６５號之１","E_COORD97":166176.92000000001,"N_COORD97":2570408.3300000001,"ADDRESS":"成功路６５號之１","OBJECTID":314292},"geometry":{"x":166176.92000000086,"y":2570408.3300000001}},{"attributes":{"ID":314301,"DIS_CODE":0,"TOWNNAME":"柳營區","LI":"大農里","LIN":"4鄰","STREET":"義士路","SECT":"一段","MAREA":" ","LANE":"４０３巷","ALLEY":" ","HOUSE_NO":"１０號","E_COORD97":185965.39999999999,"N_COORD97":2575654.3700000001,"ADDRESS":"義士路一段４０３巷１０號","OBJECTID":314293},"geometry":{"x":185965.4000000013,"y":2575654.370000001}},{"attributes":{"ID":314302,"DIS_CODE":0,"TOWNNAME":"大內區","LI":"石城里","LIN":"4鄰","STREET":" ","SECT":" ","MAREA":"石子瀨","LANE":" ","ALLEY":" ","HOUSE_NO":"３９號之１","E_COORD97":184268.96587700001,"N_COORD97":2558094.50269,"ADDRESS":"石子瀨３９號之１","OBJECTID":314294},"geometry":{"x":184268.96587700024,"y":2558094.5026890021}},{"attributes":{"ID":314303,"DIS_CODE":0,"TOWNNAME":"柳營區","LI":"重溪里","LIN":"1鄰","STREET":" ","SECT":" ","MAREA":"小\u25A0腿","LANE":" ","ALLEY":" ","HOUSE_NO":"２號之１６","E_COORD97":185256.10000000001,"N_COORD97":2576000.5,"ADDRESS":"小\u25A0腿２號之１６","OBJECTID":314295},"geometry":{"x":185256.10000000056,"y":2576000.5000000019}},{"attributes":{"ID":314304,"DIS_CODE":0,"TOWNNAME":"柳營區","LI":"大農里","LIN":"4鄰","STREET":"義士路","SECT":"一段","MAREA":" ","LANE":"４０３巷","ALLEY":" ","HOUSE_NO":"１２號","E_COORD97":185960.63,"N_COORD97":2575653.1299999999,"ADDRESS":"義士路一段４０３巷１２號","OBJECTID":314296},"geometry":{"x":185960.62999999989,"y":2575653.129999999}},{"attributes":{"ID":314305,"DIS_CODE":0,"TOWNNAME":"新營區","LI":"南紙里","LIN":"17鄰","STREET":"南紙街","SECT":" ","MAREA":" ","LANE":"１６２巷","ALLEY":" ","HOUSE_NO":"４９號","E_COORD97":177852.85999999999,"N_COORD97":2577296.1600000001,"ADDRESS":"南紙街１６２巷４９號","OBJECTID":314297},"geometry":{"x":177852.86000000034,"y":2577296.1600000001}},{"attributes":{"ID":314306,"DIS_CODE":0,"TOWNNAME":"新營區","LI":"南紙里","LIN":"7鄰","STREET":"南紙街","SECT":" ","MAREA":" ","LANE":"１１９巷","ALLEY":" ","HOUSE_NO":"８號","E_COORD97":177837.87,"N_COORD97":2577416.9399999999,"ADDRESS":"南紙街１１９巷８號","OBJECTID":314298},"geometry":{"x":177837.87000000197,"y":2577416.9400000013}},{"attributes":{"ID":314307,"DIS_CODE":0,"TOWNNAME":"新營區","LI":"南紙里","LIN":"7鄰","STREET":"南紙街","SECT":" ","MAREA":" ","LANE":"１１９巷","ALLEY":" ","HOUSE_NO":"３２號","E_COORD97":177899.47,"N_COORD97":2577412.21,"ADDRESS":"南紙街１１９巷３２號","OBJECTID":314299},"geometry":{"x":177899.46999999881,"y":2577412.2100000046}},{"attributes":{"ID":314308,"DIS_CODE":0,"TOWNNAME":"新營區","LI":"永生里","LIN":"7鄰","STREET":"中興路","SECT":" ","MAREA":" ","LANE":"３０巷","ALLEY":" ","HOUSE_NO":"５號","E_COORD97":180066.35999999999,"N_COORD97":2577973.2599999998,"ADDRESS":"中興路３０巷５號","OBJECTID":314300},"geometry":{"x":180066.36000000127,"y":2577973.2599999979}},{"attributes":{"ID":314309,"DIS_CODE":0,"TOWNNAME":"學甲區","LI":"慈福里","LIN":"17鄰","STREET":"成功路","SECT":" ","MAREA":" ","LANE":" ","ALLEY":" ","HOUSE_NO":"６５號","E_COORD97":166176.53,"N_COORD97":2570404.8100000001,"ADDRESS":"成功路６５號","OBJECTID":314301},"geometry":{"x":166176.53000000119,"y":2570404.8100000024}},{"attributes":{"ID":314310,"DIS_CODE":0,"TOWNNAME":"學甲區","LI":"慈福里","LIN":"17鄰","STREET":"成功路","SECT":" ","MAREA":" ","LANE":" ","ALLEY":" ","HOUSE_NO":"６９號","E_COORD97":166178.06,"N_COORD97":2570414.4300000002,"ADDRESS":"成功路６９號","OBJECTID":314302},"geometry":{"x":166178.05999999959,"y":2570414.4299999997}},{"attributes":{"ID":314311,"DIS_CODE":0,"TOWNNAME":"柳營區","LI":"光福里","LIN":"8鄰","STREET":"福安一街","SECT":" ","MAREA":" ","LANE":" ","ALLEY":" ","HOUSE_NO":"７號","E_COORD97":179781.48999999999,"N_COORD97":2575131.3199999998,"ADDRESS":"福安一街７號","OBJECTID":314303},"geometry":{"x":179781.48999999929,"y":2575131.3200000003}},{"attributes":{"ID":314312,"DIS_CODE":0,"TOWNNAME":"柳營區","LI":"大農里","LIN":"9鄰","STREET":" ","SECT":" ","MAREA":"農場","LANE":" ","ALLEY":" ","HOUSE_NO":"２５號","E_COORD97":183319.70999999999,"N_COORD97":2575856.1000000001,"ADDRESS":"農場２５號","OBJECTID":314304},"geometry":{"x":183319.71000000089,"y":2575856.1000000015}},{"attributes":{"ID":314313,"DIS_CODE":0,"TOWNNAME":"柳營區","LI":"人和里","LIN":"4鄰","STREET":" ","SECT":" ","MAREA":"橋南","LANE":" ","ALLEY":" ","HOUSE_NO":"２１號之１０","E_COORD97":178554.64000000001,"N_COORD97":2575726.7999999998,"ADDRESS":"橋南２１號之１０","OBJECTID":314305},"geometry":{"x":178554.6400000006,"y":2575726.8000000026}},{"attributes":{"ID":314314,"DIS_CODE":0,"TOWNNAME":"柳營區","LI":"人和里","LIN":"4鄰","STREET":" ","SECT":" ","MAREA":"橋南","LANE":" ","ALLEY":" ","HOUSE_NO":"２１之１２４號","E_COORD97":178841.03,"N_COORD97":2575997.4100000001,"ADDRESS":"橋南２１之１２４號","OBJECTID":314306},"geometry":{"x":178841.03000000119,"y":2575997.410000002}},{"attributes":{"ID":314315,"DIS_CODE":0,"TOWNNAME":"柳營區","LI":"人和里","LIN":"4鄰","STREET":" ","SECT":" ","MAREA":"橋南","LANE":" ","ALLEY":" ","HOUSE_NO":"２１之１２５號","E_COORD97":178929.84,"N_COORD97":2576015.8100000001,"ADDRESS":"橋南２１之１２５號","OBJECTID":314307},"geometry":{"x":178929.84000000078,"y":2576015.8100000024}},{"attributes":{"ID":314316,"DIS_CODE":0,"TOWNNAME":"柳營區","LI":"人和里","LIN":"4鄰","STREET":" ","SECT":" ","MAREA":"橋南","LANE":" ","ALLEY":" ","HOUSE_NO":"２１號之１２６","E_COORD97":178808.67000000001,"N_COORD97":2576016.46,"ADDRESS":"橋南２１號之１２６","OBJECTID":314308},"geometry":{"x":178808.67000000179,"y":2576016.4600000009}},{"attributes":{"ID":314317,"DIS_CODE":0,"TOWNNAME":"新營區","LI":"三仙里","LIN":"7鄰","STREET":"博愛街","SECT":" ","MAREA":" ","LANE":"８４巷","ALLEY":" ","HOUSE_NO":"２號","E_COORD97":179694.89999999999,"N_COORD97":2578146.6800000002,"ADDRESS":"博愛街８４巷２號","OBJECTID":314309},"geometry":{"x":179694.9000000013,"y":2578146.6799999978}},{"attributes":{"ID":314318,"DIS_CODE":0,"TOWNNAME":"新營區","LI":"忠政里","LIN":"8鄰","STREET":"中正路","SECT":" ","MAREA":" ","LANE":"３７巷","ALLEY":" ","HOUSE_NO":"１０８號","E_COORD97":179941.51000000001,"N_COORD97":2579167.7000000002,"ADDRESS":"中正路３７巷１０８號","OBJECTID":314310},"geometry":{"x":179941.50999999978,"y":2579167.7000000011}},{"attributes":{"ID":314319,"DIS_CODE":0,"TOWNNAME":"新營區","LI":"忠政里","LIN":"8鄰","STREET":"中正路","SECT":" ","MAREA":" ","LANE":"３７巷","ALLEY":" ","HOUSE_NO":"５２號","E_COORD97":180014.98999999999,"N_COORD97":2579177.3100000001,"ADDRESS":"中正路３７巷５２號","OBJECTID":314311},"geometry":{"x":180014.99000000022,"y":2579177.3099999987}},{"attributes":{"ID":314320,"DIS_CODE":0,"TOWNNAME":"柳營區","LI":"人和里","LIN":"4鄰","STREET":" ","SECT":" ","MAREA":"橋南","LANE":" ","ALLEY":" ","HOUSE_NO":"２１號之１３０","E_COORD97":178925.89999999999,"N_COORD97":2575971.2200000002,"ADDRESS":"橋南２１號之１３０","OBJECTID":314312},"geometry":{"x":178925.90000000037,"y":2575971.2200000044}},{"attributes":{"ID":314321,"DIS_CODE":0,"TOWNNAME":"柳營區","LI":"人和里","LIN":"13鄰","STREET":" ","SECT":" ","MAREA":"橋南","LANE":" ","ALLEY":" ","HOUSE_NO":"２２２號","E_COORD97":179403.48999999999,"N_COORD97":2576552.2200000002,"ADDRESS":"橋南２２２號","OBJECTID":314313},"geometry":{"x":179403.49000000209,"y":2576552.2200000025}},{"attributes":{"ID":314322,"DIS_CODE":0,"TOWNNAME":"新化區","LI":"東榮里","LIN":"7鄰","STREET":"信義路","SECT":" ","MAREA":" ","LANE":"１１７巷","ALLEY":" ","HOUSE_NO":"１６號","E_COORD97":179687.17999999999,"N_COORD97":2548431.25,"ADDRESS":"信義路１１７巷１６號","OBJECTID":314314},"geometry":{"x":179687.18000000063,"y":2548431.2500000019}},{"attributes":{"ID":314323,"DIS_CODE":0,"TOWNNAME":"新化區","LI":"東榮里","LIN":"7鄰","STREET":"信義路","SECT":" ","MAREA":" ","LANE":"１３１巷","ALLEY":" ","HOUSE_NO":"１３號","E_COORD97":179663.07999999999,"N_COORD97":2548428.25,"ADDRESS":"信義路１３１巷１３號","OBJECTID":314315},"geometry":{"x":179663.08000000007,"y":2548428.2500000019}},{"attributes":{"ID":314324,"DIS_CODE":0,"TOWNNAME":"新化區","LI":"觀音里","LIN":"7鄰","STREET":"中正路","SECT":" ","MAREA":" ","LANE":"５４９巷","ALLEY":" ","HOUSE_NO":"２９號之３","E_COORD97":178955.10999999999,"N_COORD97":2548628.2599999998,"ADDRESS":"中正路５４９巷２９號之３","OBJECTID":314316},"geometry":{"x":178955.11000000034,"y":2548628.2599999998}},{"attributes":{"ID":314325,"DIS_CODE":0,"TOWNNAME":"南區","LI":"佛壇里","LIN":"7鄰","STREET":"明興路","SECT":" ","MAREA":" ","LANE":"１３１２巷","ALLEY":" ","HOUSE_NO":"１１號","E_COORD97":166345.54999999999,"N_COORD97":2536052.2799999998,"ADDRESS":"明興路１３１２巷１１號","OBJECTID":314317},"geometry":{"x":166345.54999999981,"y":2536052.2800000012}},{"attributes":{"ID":314326,"DIS_CODE":0,"TOWNNAME":"南區","LI":"佛壇里","LIN":"7鄰","STREET":"明興路","SECT":" ","MAREA":" ","LANE":"１３１２巷","ALLEY":" ","HOUSE_NO":"１３號","E_COORD97":166342.45999999999,"N_COORD97":2536055.1099999999,"ADDRESS":"明興路１３１２巷１３號","OBJECTID":314318},"geometry":{"x":166342.46000000089,"y":2536055.1099999994}},{"attributes":{"ID":314327,"DIS_CODE":0,"TOWNNAME":"南區","LI":"佛壇里","LIN":"7鄰","STREET":"明興路","SECT":" ","MAREA":" ","LANE":"１３１２巷","ALLEY":" ","HOUSE_NO":"１５號","E_COORD97":166340.39999999999,"N_COORD97":2536058.4500000002,"ADDRESS":"明興路１３１２巷１５號","OBJECTID":314319},"geometry":{"x":166340.40000000037,"y":2536058.4499999993}},{"attributes":{"ID":314328,"DIS_CODE":0,"TOWNNAME":"南區","LI":"佛壇里","LIN":"7鄰","STREET":"明興路","SECT":" ","MAREA":" ","LANE":"１３１２巷","ALLEY":" ","HOUSE_NO":"５號","E_COORD97":166354.81,"N_COORD97":2536042.77,"ADDRESS":"明興路１３１２巷５號","OBJECTID":314320},"geometry":{"x":166354.81000000052,"y":2536042.7699999996}},{"attributes":{"ID":314329,"DIS_CODE":0,"TOWNNAME":"柳營區","LI":"光福里","LIN":"10鄰","STREET":"福安二街","SECT":" ","MAREA":" ","LANE":" ","ALLEY":" ","HOUSE_NO":"１２號","E_COORD97":179809.82999999999,"N_COORD97":2575212.7200000002,"ADDRESS":"福安二街１２號","OBJECTID":314321},"geometry":{"x":179809.83000000101,"y":2575212.7200000025}},{"attributes":{"ID":314330,"DIS_CODE":0,"TOWNNAME":"南區","LI":"佛壇里","LIN":"7鄰","STREET":"明興路","SECT":" ","MAREA":" ","LANE":"１３１２巷","ALLEY":" ","HOUSE_NO":"７號","E_COORD97":166351.20999999999,"N_COORD97":2536046.6299999999,"ADDRESS":"明興路１３１２巷７號","OBJECTID":314322},"geometry":{"x":166351.21000000089,"y":2536046.629999999}},{"attributes":{"ID":314331,"DIS_CODE":0,"TOWNNAME":"南區","LI":"佛壇里","LIN":"7鄰","STREET":"明興路","SECT":" ","MAREA":" ","LANE":"１３１２巷","ALLEY":" ","HOUSE_NO":"９號","E_COORD97":166348.89000000001,"N_COORD97":2536049.71,"ADDRESS":"明興路１３１２巷９號","OBJECTID":314323},"geometry":{"x":166348.88999999873,"y":2536049.7100000046}},{"attributes":{"ID":314332,"DIS_CODE":0,"TOWNNAME":"南區","LI":"佛壇里","LIN":"7鄰","STREET":"興南街","SECT":" ","MAREA":" ","LANE":"５５巷","ALLEY":" ","HOUSE_NO":"１１號","E_COORD97":166308.23000000001,"N_COORD97":2536045.8599999999,"ADDRESS":"興南街５５巷１１號","OBJECTID":314324},"geometry":{"x":166308.23000000045,"y":2536045.8599999994}},{"attributes":{"ID":314333,"DIS_CODE":0,"TOWNNAME":"南區","LI":"佛壇里","LIN":"7鄰","STREET":"興南街","SECT":" ","MAREA":" ","LANE":"５５巷","ALLEY":" ","HOUSE_NO":"１３號","E_COORD97":166309.51999999999,"N_COORD97":2536042,"ADDRESS":"興南街５５巷１３號","OBJECTID":314325},"geometry":{"x":166309.52000000048,"y":2536042}},{"attributes":{"ID":314334,"DIS_CODE":0,"TOWNNAME":"南區","LI":"佛壇里","LIN":"7鄰","STREET":"興南街","SECT":" ","MAREA":" ","LANE":"５５巷","ALLEY":" ","HOUSE_NO":"１５號","E_COORD97":166309.26000000001,"N_COORD97":2536037.6299999999,"ADDRESS":"興南街５５巷１５號","OBJECTID":314326},"geometry":{"x":166309.26000000164,"y":2536037.629999999}},{"attributes":{"ID":314335,"DIS_CODE":0,"TOWNNAME":"南區","LI":"佛壇里","LIN":"7鄰","STREET":"興南街","SECT":" ","MAREA":" ","LANE":"５５巷","ALLEY":" ","HOUSE_NO":"１７號","E_COORD97":166311.06,"N_COORD97":2536032.75,"ADDRESS":"興南街５５巷１７號","OBJECTID":314327},"geometry":{"x":166311.06000000052,"y":2536032.7500000019}},{"attributes":{"ID":314336,"DIS_CODE":0,"TOWNNAME":"南區","LI":"佛壇里","LIN":"7鄰","STREET":"興南街","SECT":" ","MAREA":" ","LANE":"５５巷","ALLEY":" ","HOUSE_NO":"１９號","E_COORD97":166311.57999999999,"N_COORD97":2536029.1499999999,"ADDRESS":"興南街５５巷１９號","OBJECTID":314328},"geometry":{"x":166311.58000000101,"y":2536029.1500000041}},{"attributes":{"ID":314337,"DIS_CODE":0,"TOWNNAME":"南區","LI":"佛壇里","LIN":"7鄰","STREET":"興南街","SECT":" ","MAREA":" ","LANE":"５５巷","ALLEY":" ","HOUSE_NO":"２１號","E_COORD97":166311.32000000001,"N_COORD97":2536023.7599999998,"ADDRESS":"興南街５５巷２１號","OBJECTID":314329},"geometry":{"x":166311.32000000123,"y":2536023.7599999998}},{"attributes":{"ID":314338,"DIS_CODE":0,"TOWNNAME":"新營區","LI":"南紙里","LIN":"5鄰","STREET":"南紙街","SECT":" ","MAREA":" ","LANE":"２９巷","ALLEY":" ","HOUSE_NO":"２號","E_COORD97":177845.47,"N_COORD97":2577718.1299999999,"ADDRESS":"南紙街２９巷２號","OBJECTID":314330},"geometry":{"x":177845.47000000067,"y":2577718.129999999}},{"attributes":{"ID":314339,"DIS_CODE":0,"TOWNNAME":"新營區","LI":"新北里","LIN":"13鄰","STREET":"周武街","SECT":" ","MAREA":" ","LANE":"７９巷","ALLEY":" ","HOUSE_NO":"８號","E_COORD97":179349.04000000001,"N_COORD97":2578981.1299999999,"ADDRESS":"周武街７９巷８號","OBJECTID":314331},"geometry":{"x":179349.04000000097,"y":2578981.1300000008}},{"attributes":{"ID":314340,"DIS_CODE":0,"TOWNNAME":"南區","LI":"佛壇里","LIN":"7鄰","STREET":"興南街","SECT":" ","MAREA":" ","LANE":"５５巷","ALLEY":" ","HOUSE_NO":"２３號","E_COORD97":166310.54999999999,"N_COORD97":2536020.1600000001,"ADDRESS":"興南街５５巷２３號","OBJECTID":314332},"geometry":{"x":166310.54999999981,"y":2536020.160000002}},{"attributes":{"ID":314341,"DIS_CODE":0,"TOWNNAME":"麻豆區","LI":"港尾里","LIN":"4鄰","STREET":" ","SECT":" ","MAREA":"姓陳寮","LANE":" ","ALLEY":" ","HOUSE_NO":"２８號","E_COORD97":168751.70999999999,"N_COORD97":2566879.0699999998,"ADDRESS":"姓陳寮２８號","OBJECTID":314333},"geometry":{"x":168751.71000000089,"y":2566879.0700000022}},{"attributes":{"ID":314342,"DIS_CODE":0,"TOWNNAME":"新營區","LI":"護鎮里","LIN":"2鄰","STREET":"建國路","SECT":" ","MAREA":" ","LANE":" ","ALLEY":" ","HOUSE_NO":"２４２號","E_COORD97":179376.192155,"N_COORD97":2581056.8480400001,"ADDRESS":"建國路２４２號","OBJECTID":314334},"geometry":{"x":179376.19215500075,"y":2581056.8480420001}},{"attributes":{"ID":314343,"DIS_CODE":0,"TOWNNAME":"北區","LI":"玉皇里","LIN":"7鄰","STREET":"成功路","SECT":" ","MAREA":" ","LANE":"６８巷","ALLEY":" ","HOUSE_NO":"７３號","E_COORD97":168758.01999999999,"N_COORD97":2544549.4100000001,"ADDRESS":"成功路６８巷７３號","OBJECTID":314335},"geometry":{"x":168758.01999999955,"y":2544549.4100000001}},{"attributes":{"ID":314344,"DIS_CODE":0,"TOWNNAME":"北區","LI":"玉皇里","LIN":"7鄰","STREET":"成功路","SECT":" ","MAREA":" ","LANE":"６８巷","ALLEY":" ","HOUSE_NO":"７５號","E_COORD97":168763.38,"N_COORD97":2544554.9300000002,"ADDRESS":"成功路６８巷７５號","OBJECTID":314336},"geometry":{"x":168763.38000000082,"y":2544554.9300000016}},{"attributes":{"ID":314345,"DIS_CODE":0,"TOWNNAME":"北區","LI":"玉皇里","LIN":"7鄰","STREET":"成功路","SECT":" ","MAREA":" ","LANE":"６８巷","ALLEY":" ","HOUSE_NO":"７７號","E_COORD97":168767.60000000001,"N_COORD97":2544561.4199999999,"ADDRESS":"成功路６８巷７７號","OBJECTID":314337},"geometry":{"x":168767.59999999963,"y":2544561.4200000018}},{"attributes":{"ID":314346,"DIS_CODE":0,"TOWNNAME":"北區","LI":"玉皇里","LIN":"7鄰","STREET":"成功路","SECT":" ","MAREA":" ","LANE":"６８巷","ALLEY":" ","HOUSE_NO":"７９號","E_COORD97":168771.42000000001,"N_COORD97":2544566.5299999998,"ADDRESS":"成功路６８巷７９號","OBJECTID":314338},"geometry":{"x":168771.42000000179,"y":2544566.5300000012}},{"attributes":{"ID":314347,"DIS_CODE":0,"TOWNNAME":"北區","LI":"玉皇里","LIN":"7鄰","STREET":"成功路","SECT":" ","MAREA":" ","LANE":"６８巷","ALLEY":" ","HOUSE_NO":"８１號","E_COORD97":168775.97,"N_COORD97":2544569.9399999999,"ADDRESS":"成功路６８巷８１號","OBJECTID":314339},"geometry":{"x":168775.9700000016,"y":2544569.9400000032}},{"attributes":{"ID":314348,"DIS_CODE":0,"TOWNNAME":"南區","LI":"佛壇里","LIN":"7鄰","STREET":"興南街","SECT":" ","MAREA":" ","LANE":"５５巷","ALLEY":" ","HOUSE_NO":"２５號","E_COORD97":166311.84,"N_COORD97":2536016.5600000001,"ADDRESS":"興南街５５巷２５號","OBJECTID":314340},"geometry":{"x":166311.83999999985,"y":2536016.5600000042}},{"attributes":{"ID":314349,"DIS_CODE":0,"TOWNNAME":"南區","LI":"明德里","LIN":"7鄰","STREET":"大成路","SECT":"一段","MAREA":" ","LANE":"１９３巷","ALLEY":" ","HOUSE_NO":"２０４號","E_COORD97":167986.31,"N_COORD97":2541569.9700000002,"ADDRESS":"大成路一段１９３巷２０４號","OBJECTID":314341},"geometry":{"x":167986.30999999959,"y":2541569.9700000007}},{"attributes":{"ID":314350,"DIS_CODE":0,"TOWNNAME":"南區","LI":"明德里","LIN":"7鄰","STREET":"大成路","SECT":"一段","MAREA":" ","LANE":"１９３巷","ALLEY":" ","HOUSE_NO":"２０５號","E_COORD97":167989.48000000001,"N_COORD97":2541565.0499999998,"ADDRESS":"大成路一段１９３巷２０５號","OBJECTID":314342},"geometry":{"x":167989.48000000045,"y":2541565.0500000007}},{"attributes":{"ID":314351,"DIS_CODE":0,"TOWNNAME":"南區","LI":"明德里","LIN":"7鄰","STREET":"大成路","SECT":"一段","MAREA":" ","LANE":"１９３巷","ALLEY":" ","HOUSE_NO":"２０６號","E_COORD97":167994.75,"N_COORD97":2541567.8599999999,"ADDRESS":"大成路一段１９３巷２０６號","OBJECTID":314343},"geometry":{"x":167994.75000000186,"y":2541567.8600000013}},{"attributes":{"ID":314352,"DIS_CODE":0,"TOWNNAME":"南區","LI":"明德里","LIN":"7鄰","STREET":"大成路","SECT":"一段","MAREA":" ","LANE":"１９３巷","ALLEY":" ","HOUSE_NO":"２０７號","E_COORD97":168002.84,"N_COORD97":2541567.8599999999,"ADDRESS":"大成路一段１９３巷２０７號","OBJECTID":314344},"geometry":{"x":168002.84000000078,"y":2541567.8600000013}},{"attributes":{"ID":314353,"DIS_CODE":0,"TOWNNAME":"新營區","LI":"忠政里","LIN":"15鄰","STREET":"府西路","SECT":" ","MAREA":" ","LANE":"２３０巷","ALLEY":" ","HOUSE_NO":"２７號","E_COORD97":179891.29000000001,"N_COORD97":2579610.9100000001,"ADDRESS":"府西路２３０巷２７號","OBJECTID":314345},"geometry":{"x":179891.2900000019,"y":2579610.910000002}},{"attributes":{"ID":314354,"DIS_CODE":0,"TOWNNAME":"新營區","LI":"民生里","LIN":"10鄰","STREET":"復興路","SECT":" ","MAREA":" ","LANE":"１４８巷","ALLEY":" ","HOUSE_NO":"１之６號","E_COORD97":179264.31,"N_COORD97":2578076.7999999998,"ADDRESS":"復興路１４８巷１之６號","OBJECTID":314346},"geometry":{"x":179264.30999999959,"y":2578076.8000000026}},{"attributes":{"ID":314355,"DIS_CODE":0,"TOWNNAME":"新營區","LI":"忠政里","LIN":"29鄰","STREET":"府西路","SECT":" ","MAREA":" ","LANE":"８７巷","ALLEY":" ","HOUSE_NO":"２１號","E_COORD97":179734.88,"N_COORD97":2579196.3599999999,"ADDRESS":"府西路８７巷２１號","OBJECTID":314347},"geometry":{"x":179734.88000000082,"y":2579196.3600000031}},{"attributes":{"ID":314356,"DIS_CODE":0,"TOWNNAME":"新營區","LI":"南興里","LIN":"5鄰","STREET":"和平路","SECT":" ","MAREA":" ","LANE":"９７巷","ALLEY":" ","HOUSE_NO":"４號","E_COORD97":179436.37,"N_COORD97":2577556.5299999998,"ADDRESS":"和平路９７巷４號","OBJECTID":314348},"geometry":{"x":179436.36999999918,"y":2577556.5299999993}},{"attributes":{"ID":314357,"DIS_CODE":0,"TOWNNAME":"新營區","LI":"新北里","LIN":"13鄰","STREET":"周武街","SECT":" ","MAREA":" ","LANE":"７９巷","ALLEY":" ","HOUSE_NO":"３２號","E_COORD97":179306.45000000001,"N_COORD97":2579005.7000000002,"ADDRESS":"周武街７９巷３２號","OBJECTID":314349},"geometry":{"x":179306.45000000019,"y":2579005.7000000011}},{"attributes":{"ID":314358,"DIS_CODE":0,"TOWNNAME":"新營區","LI":"忠政里","LIN":"17鄰","STREET":"府西路","SECT":" ","MAREA":" ","LANE":"２５８巷","ALLEY":" ","HOUSE_NO":"１７號","E_COORD97":179831.48000000001,"N_COORD97":2579739.6600000001,"ADDRESS":"府西路２５８巷１７號","OBJECTID":314350},"geometry":{"x":179831.48000000138,"y":2579739.6600000001}},{"attributes":{"ID":314359,"DIS_CODE":0,"TOWNNAME":"南區","LI":"國宅里","LIN":"7鄰","STREET":"金華路","SECT":"二段","MAREA":" ","LANE":"３９巷","ALLEY":" ","HOUSE_NO":"１４號","E_COORD97":167025.85999999999,"N_COORD97":2542013.79,"ADDRESS":"金華路二段３９巷１４號","OBJECTID":314351},"geometry":{"x":167025.86000000034,"y":2542013.7899999991}},{"attributes":{"ID":314360,"DIS_CODE":0,"TOWNNAME":"南區","LI":"竹溪里","LIN":"7鄰","STREET":"體育路","SECT":" ","MAREA":" ","LANE":"２１巷","ALLEY":" ","HOUSE_NO":"１５之１號","E_COORD97":168852.89000000001,"N_COORD97":2542352.8900000001,"ADDRESS":"體育路２１巷１５之１號","OBJECTID":314352},"geometry":{"x":168852.89000000153,"y":2542352.8900000006}},{"attributes":{"ID":314361,"DIS_CODE":0,"TOWNNAME":"南區","LI":"喜東里","LIN":"7鄰","STREET":"喜樹路","SECT":" ","MAREA":" ","LANE":"１５１巷","ALLEY":" ","HOUSE_NO":"３之１號","E_COORD97":165830,"N_COORD97":2537987.75,"ADDRESS":"喜樹路１５１巷３之１號","OBJECTID":314353},"geometry":{"x":165830.00000000186,"y":2537987.7500000037}},{"attributes":{"ID":314362,"DIS_CODE":0,"TOWNNAME":"南區","LI":"喜東里","LIN":"7鄰","STREET":"喜樹路","SECT":" ","MAREA":" ","LANE":"１５１巷","ALLEY":" ","HOUSE_NO":"３號","E_COORD97":165833.60000000001,"N_COORD97":2537986.4100000001,"ADDRESS":"喜樹路１５１巷３號","OBJECTID":314354},"geometry":{"x":165833.59999999963,"y":2537986.4100000001}},{"attributes":{"ID":314363,"DIS_CODE":0,"TOWNNAME":"南區","LI":"新昌里","LIN":"7鄰","STREET":"府緯街","SECT":" ","MAREA":" ","LANE":"１１５巷","ALLEY":" ","HOUSE_NO":"２之１號","E_COORD97":167526.34,"N_COORD97":2542691.2000000002,"ADDRESS":"府緯街１１５巷２之１號","OBJECTID":314355},"geometry":{"x":167526.34000000078,"y":2542691.2000000011}},{"attributes":{"ID":314364,"DIS_CODE":0,"TOWNNAME":"南區","LI":"明亮里","LIN":"7鄰","STREET":"金華路","SECT":"一段","MAREA":" ","LANE":"３５２巷","ALLEY":" ","HOUSE_NO":"１０８號","E_COORD97":167240.73999999999,"N_COORD97":2541074.3599999999,"ADDRESS":"金華路一段３５２巷１０８號","OBJECTID":314356},"geometry":{"x":167240.74000000115,"y":2541074.3599999994}},{"attributes":{"ID":314365,"DIS_CODE":0,"TOWNNAME":"學甲區","LI":"慈福里","LIN":"17鄰","STREET":"成功路","SECT":" ","MAREA":" ","LANE":" ","ALLEY":" ","HOUSE_NO":"７３號之５","E_COORD97":166184.95999999999,"N_COORD97":2570445.3500000001,"ADDRESS":"成功路７３號之５","OBJECTID":314357},"geometry":{"x":166184.96000000089,"y":2570445.3499999996}},{"attributes":{"ID":314366,"DIS_CODE":0,"TOWNNAME":"學甲區","LI":"慈福里","LIN":"17鄰","STREET":"成功路","SECT":" ","MAREA":" ","LANE":" ","ALLEY":" ","HOUSE_NO":"７５號之１","E_COORD97":166186.57000000001,"N_COORD97":2570453.8399999999,"ADDRESS":"成功路７５號之１","OBJECTID":314358},"geometry":{"x":166186.5700000003,"y":2570453.8400000017}},{"attributes":{"ID":314367,"DIS_CODE":0,"TOWNNAME":"學甲區","LI":"慈福里","LIN":"17鄰","STREET":"成功路","SECT":" ","MAREA":" ","LANE":" ","ALLEY":" ","HOUSE_NO":"７５號","E_COORD97":166185.42999999999,"N_COORD97":2570449.8100000001,"ADDRESS":"成功路７５號","OBJECTID":314359},"geometry":{"x":166185.4299999997,"y":2570449.8100000005}},{"attributes":{"ID":314368,"DIS_CODE":0,"TOWNNAME":"學甲區","LI":"慈福里","LIN":"17鄰","STREET":"成功路","SECT":" ","MAREA":" ","LANE":" ","ALLEY":" ","HOUSE_NO":"７７號","E_COORD97":166187.16,"N_COORD97":2570457.8599999999,"ADDRESS":"成功路７７號","OBJECTID":314360},"geometry":{"x":166187.16000000108,"y":2570457.8599999994}},{"attributes":{"ID":314369,"DIS_CODE":0,"TOWNNAME":"學甲區","LI":"仁得里","LIN":"17鄰","STREET":"自立街","SECT":" ","MAREA":" ","LANE":" ","ALLEY":" ","HOUSE_NO":"１０１號","E_COORD97":165788.67000000001,"N_COORD97":2569988.1499999999,"ADDRESS":"自立街１０１號","OBJECTID":314361},"geometry":{"x":165788.67000000086,"y":2569988.1500000022}},{"attributes":{"ID":314370,"DIS_CODE":0,"TOWNNAME":"學甲區","LI":"仁得里","LIN":"17鄰","STREET":"自立街","SECT":" ","MAREA":" ","LANE":" ","ALLEY":" ","HOUSE_NO":"１０４號","E_COORD97":165903.41,"N_COORD97":2569981.4199999999,"ADDRESS":"自立街１０４號","OBJECTID":314362},"geometry":{"x":165903.40999999922,"y":2569981.4200000037}},{"attributes":{"ID":314371,"DIS_CODE":0,"TOWNNAME":"新營區","LI":"延平里","LIN":"1鄰","STREET":"延平路","SECT":" ","MAREA":" ","LANE":" ","ALLEY":" ","HOUSE_NO":"４６之２０６號","E_COORD97":179691.07962900001,"N_COORD97":2577757.7431200002,"ADDRESS":"延平路４６之２０６號","OBJECTID":314363},"geometry":{"x":179691.07962900214,"y":2577757.7431220002}},{"attributes":{"ID":314372,"DIS_CODE":0,"TOWNNAME":"南區","LI":"明亮里","LIN":"7鄰","STREET":"金華路","SECT":"一段","MAREA":" ","LANE":"３５２巷","ALLEY":" ","HOUSE_NO":"１１０號","E_COORD97":167245.64999999999,"N_COORD97":2541070.6800000002,"ADDRESS":"金華路一段３５２巷１１０號","OBJECTID":314364},"geometry":{"x":167245.65000000037,"y":2541070.6800000016}},{"attributes":{"ID":314373,"DIS_CODE":0,"TOWNNAME":"南區","LI":"明亮里","LIN":"7鄰","STREET":"金華路","SECT":"一段","MAREA":" ","LANE":"３５２巷","ALLEY":" ","HOUSE_NO":"１１２號","E_COORD97":167250.57000000001,"N_COORD97":2541068.8399999999,"ADDRESS":"金華路一段３５２巷１１２號","OBJECTID":314365},"geometry":{"x":167250.57000000123,"y":2541068.8400000036}},{"attributes":{"ID":314374,"DIS_CODE":0,"TOWNNAME":"南區","LI":"明亮里","LIN":"7鄰","STREET":"金華路","SECT":"一段","MAREA":" ","LANE":"３５２巷","ALLEY":" ","HOUSE_NO":"１１６號","E_COORD97":167255.17999999999,"N_COORD97":2541065.46,"ADDRESS":"金華路一段３５２巷１１６號","OBJECTID":314366},"geometry":{"x":167255.1799999997,"y":2541065.459999999}},{"attributes":{"ID":314375,"DIS_CODE":0,"TOWNNAME":"南區","LI":"竹溪里","LIN":"7鄰","STREET":"體育路","SECT":" ","MAREA":" ","LANE":"５巷","ALLEY":" ","HOUSE_NO":"２號","E_COORD97":168733.87,"N_COORD97":2542394.6099999999,"ADDRESS":"體育路５巷２號","OBJECTID":314367},"geometry":{"x":168733.87000000104,"y":2542394.6099999994}},{"attributes":{"ID":314376,"DIS_CODE":0,"TOWNNAME":"南區","LI":"明亮里","LIN":"7鄰","STREET":"金華路","SECT":"一段","MAREA":" ","LANE":"３５２巷","ALLEY":" ","HOUSE_NO":"１１８號","E_COORD97":167259.78,"N_COORD97":2541062.3900000001,"ADDRESS":"金華路一段３５２巷１１８號","OBJECTID":314368},"geometry":{"x":167259.78000000119,"y":2541062.3900000043}},{"attributes":{"ID":314377,"DIS_CODE":0,"TOWNNAME":"南區","LI":"明亮里","LIN":"7鄰","STREET":"金華路","SECT":"一段","MAREA":" ","LANE":"３５２巷","ALLEY":" ","HOUSE_NO":"１２０號","E_COORD97":167264.39000000001,"N_COORD97":2541057.79,"ADDRESS":"金華路一段３５２巷１２０號","OBJECTID":314369},"geometry":{"x":167264.39000000153,"y":2541057.7899999991}},{"attributes":{"ID":314378,"DIS_CODE":0,"TOWNNAME":"歸仁區","LI":"西埔里","LIN":"7鄰","STREET":"保大路","SECT":"二段","MAREA":" ","LANE":"１２２巷","ALLEY":" ","HOUSE_NO":"４０號","E_COORD97":177015.38,"N_COORD97":2544279.25,"ADDRESS":"保大路二段１２２巷４０號","OBJECTID":314370},"geometry":{"x":177015.38000000175,"y":2544279.25}},{"attributes":{"ID":314379,"DIS_CODE":0,"TOWNNAME":"歸仁區","LI":"七甲里","LIN":"7鄰","STREET":"七甲三街","SECT":" ","MAREA":" ","LANE":"５２巷","ALLEY":" ","HOUSE_NO":"２１號","E_COORD97":177564.84,"N_COORD97":2542795.6600000001,"ADDRESS":"七甲三街５２巷２１號","OBJECTID":314371},"geometry":{"x":177564.84000000171,"y":2542795.6600000001}},{"attributes":{"ID":314380,"DIS_CODE":0,"TOWNNAME":"歸仁區","LI":"武東里","LIN":"7鄰","STREET":"武東一街","SECT":" ","MAREA":" ","LANE":"４８巷","ALLEY":" ","HOUSE_NO":"３７號","E_COORD97":175569.79000000001,"N_COORD97":2535320.25,"ADDRESS":"武東一街４８巷３７號","OBJECTID":314372},"geometry":{"x":175569.79000000004,"y":2535320.2500000019}},{"attributes":{"ID":314381,"DIS_CODE":0,"TOWNNAME":"歸仁區","LI":"八甲里","LIN":"7鄰","STREET":"中正北路","SECT":"一段","MAREA":" ","LANE":"２２０巷","ALLEY":" ","HOUSE_NO":"１８號","E_COORD97":177823.5,"N_COORD97":2541707.6099999999,"ADDRESS":"中正北路一段２２０巷１８號","OBJECTID":314373},"geometry":{"x":177823.50000000093,"y":2541707.6100000013}},{"attributes":{"ID":314382,"DIS_CODE":0,"TOWNNAME":"歸仁區","LI":"西埔里","LIN":"7鄰","STREET":"保大路","SECT":"二段","MAREA":" ","LANE":"１２２巷","ALLEY":" ","HOUSE_NO":"３６號","E_COORD97":177022.48000000001,"N_COORD97":2544267.25,"ADDRESS":"保大路二段１２２巷３６號","OBJECTID":314374},"geometry":{"x":177022.48000000138,"y":2544267.2500000019}},{"attributes":{"ID":314383,"DIS_CODE":0,"TOWNNAME":"歸仁區","LI":"武東里","LIN":"7鄰","STREET":"武東一街","SECT":" ","MAREA":" ","LANE":"４８巷","ALLEY":" ","HOUSE_NO":"３１號","E_COORD97":175575.09,"N_COORD97":2535356.25,"ADDRESS":"武東一街４８巷３１號","OBJECTID":314375},"geometry":{"x":175575.09000000078,"y":2535356.25}},{"attributes":{"ID":314384,"DIS_CODE":0,"TOWNNAME":"歸仁區","LI":"七甲里","LIN":"7鄰","STREET":"七甲一街","SECT":" ","MAREA":" ","LANE":"５５巷","ALLEY":" ","HOUSE_NO":"２４號","E_COORD97":177594.54000000001,"N_COORD97":2542593.6600000001,"ADDRESS":"七甲一街５５巷２４號","OBJECTID":314376},"geometry":{"x":177594.54000000097,"y":2542593.660000002}},{"attributes":{"ID":314385,"DIS_CODE":0,"TOWNNAME":"歸仁區","LI":"八甲里","LIN":"7鄰","STREET":"中正北路","SECT":"一段","MAREA":" ","LANE":"２３１巷","ALLEY":" ","HOUSE_NO":"１６０號","E_COORD97":177062.66,"N_COORD97":2541681.25,"ADDRESS":"中正北路一段２３１巷１６０號","OBJECTID":314377},"geometry":{"x":177062.66000000015,"y":2541681.2500000019}},{"attributes":{"ID":314386,"DIS_CODE":0,"TOWNNAME":"歸仁區","LI":"南保里","LIN":"7鄰","STREET":"文化街","SECT":"三段","MAREA":" ","LANE":"１８巷","ALLEY":" ","HOUSE_NO":"２８號","E_COORD97":176970.64000000001,"N_COORD97":2541329.3300000001,"ADDRESS":"文化街三段１８巷２８號","OBJECTID":314378},"geometry":{"x":176970.63999999966,"y":2541329.3300000001}},{"attributes":{"ID":314387,"DIS_CODE":0,"TOWNNAME":"歸仁區","LI":"武東里","LIN":"7鄰","STREET":"武東一街","SECT":" ","MAREA":" ","LANE":"４８巷","ALLEY":" ","HOUSE_NO":"３５號","E_COORD97":175570.89000000001,"N_COORD97":2535325.25,"ADDRESS":"武東一街４８巷３５號","OBJECTID":314379},"geometry":{"x":175570.89000000153,"y":2535325.25}},{"attributes":{"ID":314388,"DIS_CODE":0,"TOWNNAME":"歸仁區","LI":"武東里","LIN":"7鄰","STREET":"長榮路","SECT":"二段","MAREA":" ","LANE":"７５巷","ALLEY":" ","HOUSE_NO":"３８６號","E_COORD97":176590.35999999999,"N_COORD97":2535173.1600000001,"ADDRESS":"長榮路二段７５巷３８６號","OBJECTID":314380},"geometry":{"x":176590.36000000034,"y":2535173.1600000001}},{"attributes":{"ID":314389,"DIS_CODE":0,"TOWNNAME":"南區","LI":"田寮里","LIN":"7鄰","STREET":"新興路","SECT":" ","MAREA":" ","LANE":"２１７巷","ALLEY":" ","HOUSE_NO":"７５號","E_COORD97":167493.32999999999,"N_COORD97":2541883.3399999999,"ADDRESS":"新興路２１７巷７５號","OBJECTID":314381},"geometry":{"x":167493.33000000007,"y":2541883.3400000017}},{"attributes":{"ID":314390,"DIS_CODE":0,"TOWNNAME":"南區","LI":"田寮里","LIN":"7鄰","STREET":"新興路","SECT":" ","MAREA":" ","LANE":"２１７巷","ALLEY":" ","HOUSE_NO":"７７號","E_COORD97":167500.89999999999,"N_COORD97":2541876.1600000001,"ADDRESS":"新興路２１７巷７７號","OBJECTID":314382},"geometry":{"x":167500.9000000013,"y":2541876.1600000001}},{"attributes":{"ID":314391,"DIS_CODE":0,"TOWNNAME":"新營區","LI":"新南里","LIN":"10鄰","STREET":"新北五街","SECT":" ","MAREA":" ","LANE":"１４３巷","ALLEY":" ","HOUSE_NO":"２６號","E_COORD97":178511.19,"N_COORD97":2579113.6200000001,"ADDRESS":"新北五街１４３巷２６號","OBJECTID":314383},"geometry":{"x":178511.19000000134,"y":2579113.620000001}},{"attributes":{"ID":314392,"DIS_CODE":0,"TOWNNAME":"南區","LI":"田寮里","LIN":"7鄰","STREET":"新興路","SECT":" ","MAREA":" ","LANE":"２１７巷","ALLEY":" ","HOUSE_NO":"３５號","E_COORD97":167428.25,"N_COORD97":2541924.7999999998,"ADDRESS":"新興路２１７巷３５號","OBJECTID":314384},"geometry":{"x":167428.25,"y":2541924.8000000026}},{"attributes":{"ID":314393,"DIS_CODE":0,"TOWNNAME":"南區","LI":"田寮里","LIN":"7鄰","STREET":"新興路","SECT":" ","MAREA":" ","LANE":"２１７巷","ALLEY":" ","HOUSE_NO":"３７號","E_COORD97":167430.60999999999,"N_COORD97":2541928.7200000002,"ADDRESS":"新興路２１７巷３７號","OBJECTID":314385},"geometry":{"x":167430.61000000034,"y":2541928.7200000025}},{"attributes":{"ID":314394,"DIS_CODE":0,"TOWNNAME":"南區","LI":"田寮里","LIN":"7鄰","STREET":"新興路","SECT":" ","MAREA":" ","LANE":"２１７巷","ALLEY":" ","HOUSE_NO":"３９號","E_COORD97":167441.59,"N_COORD97":2541923.4900000002,"ADDRESS":"新興路２１７巷３９號","OBJECTID":314386},"geometry":{"x":167441.59000000078,"y":2541923.4900000021}},{"attributes":{"ID":314395,"DIS_CODE":0,"TOWNNAME":"南區","LI":"田寮里","LIN":"7鄰","STREET":"新興路","SECT":" ","MAREA":" ","LANE":"２１７巷","ALLEY":" ","HOUSE_NO":"４１號","E_COORD97":167440.01999999999,"N_COORD97":2541916.4399999999,"ADDRESS":"新興路２１７巷４１號","OBJECTID":314387},"geometry":{"x":167440.02000000048,"y":2541916.4400000013}},{"attributes":{"ID":314396,"DIS_CODE":0,"TOWNNAME":"東山區","LI":"南勢里","LIN":"2鄰","STREET":" ","SECT":" ","MAREA":"大洋","LANE":" ","ALLEY":" ","HOUSE_NO":"１７號","E_COORD97":196052.32999999999,"N_COORD97":2574109.8799999999,"ADDRESS":"大洋１７號","OBJECTID":314388},"geometry":{"x":196052.33000000007,"y":2574109.879999999}},{"attributes":{"ID":314397,"DIS_CODE":0,"TOWNNAME":"南區","LI":"建南里","LIN":"7鄰","STREET":"德興路","SECT":" ","MAREA":" ","LANE":"１９０巷","ALLEY":" ","HOUSE_NO":"７號","E_COORD97":167169.62,"N_COORD97":2540200.0899999999,"ADDRESS":"德興路１９０巷７號","OBJECTID":314389},"geometry":{"x":167169.62000000011,"y":2540200.0900000017}},{"attributes":{"ID":314398,"DIS_CODE":0,"TOWNNAME":"南區","LI":"建南里","LIN":"7鄰","STREET":"德興路","SECT":" ","MAREA":" ","LANE":"１９０巷","ALLEY":" ","HOUSE_NO":"９號","E_COORD97":167163.87,"N_COORD97":2540198.6899999999,"ADDRESS":"德興路１９０巷９號","OBJECTID":314390},"geometry":{"x":167163.87000000104,"y":2540198.6900000013}},{"attributes":{"ID":314399,"DIS_CODE":0,"TOWNNAME":"南區","LI":"文華里","LIN":"7鄰","STREET":"金華路","SECT":"二段","MAREA":" ","LANE":"３４５巷","ALLEY":" ","HOUSE_NO":"１號","E_COORD97":167106.45999999999,"N_COORD97":2542922.6899999999,"ADDRESS":"金華路二段３４５巷１號","OBJECTID":314391},"geometry":{"x":167106.45999999903,"y":2542922.6899999995}},{"attributes":{"ID":314400,"DIS_CODE":0,"TOWNNAME":"學甲區","LI":"仁得里","LIN":"17鄰","STREET":"自立街","SECT":" ","MAREA":" ","LANE":" ","ALLEY":" ","HOUSE_NO":"１０６號","E_COORD97":165899.12,"N_COORD97":2569982.48,"ADDRESS":"自立街１０６號","OBJECTID":314392},"geometry":{"x":165899.12000000104,"y":2569982.4800000023}},{"attributes":{"ID":314401,"DIS_CODE":0,"TOWNNAME":"東山區","LI":"科里里","LIN":"4鄰","STREET":" ","SECT":" ","MAREA":"下庄子","LANE":" ","ALLEY":" ","HOUSE_NO":"２４號","E_COORD97":189619.57999999999,"N_COORD97":2578400.3199999998,"ADDRESS":"下庄子２４號","OBJECTID":314393},"geometry":{"x":189619.57999999914,"y":2578400.3200000003}},{"attributes":{"ID":314402,"DIS_CODE":0,"TOWNNAME":"新營區","LI":"延平里","LIN":"1鄰","STREET":"延平路","SECT":" ","MAREA":" ","LANE":" ","ALLEY":" ","HOUSE_NO":"４６之２０７號","E_COORD97":179688.32462599999,"N_COORD97":2577757.6902000001,"ADDRESS":"延平路４６之２０７號","OBJECTID":314394},"geometry":{"x":179688.32462600153,"y":2577757.6902050022}},{"attributes":{"ID":314403,"DIS_CODE":0,"TOWNNAME":"北區","LI":"興南里","LIN":"7鄰","STREET":"公園北路","SECT":" ","MAREA":" ","LANE":"９６巷","ALLEY":" ","HOUSE_NO":"６號之１","E_COORD97":169044.48000000001,"N_COORD97":2545090.71,"ADDRESS":"公園北路９６巷６號之１","OBJECTID":314395},"geometry":{"x":169044.47999999952,"y":2545090.7100000009}},{"attributes":{"ID":314404,"DIS_CODE":0,"TOWNNAME":"北區","LI":"興南里","LIN":"7鄰","STREET":"公園北路","SECT":" ","MAREA":" ","LANE":"９６巷","ALLEY":" ","HOUSE_NO":"８號","E_COORD97":169031.95999999999,"N_COORD97":2545094.8799999999,"ADDRESS":"公園北路９６巷８號","OBJECTID":314396},"geometry":{"x":169031.95999999996,"y":2545094.879999999}},{"attributes":{"ID":314405,"DIS_CODE":0,"TOWNNAME":"東山區","LI":"科里里","LIN":"4鄰","STREET":" ","SECT":" ","MAREA":"下庄子","LANE":" ","ALLEY":" ","HOUSE_NO":"２５號","E_COORD97":189611.63,"N_COORD97":2578371.5699999998,"ADDRESS":"下庄子２５號","OBJECTID":314397},"geometry":{"x":189611.62999999989,"y":2578371.5700000003}},{"attributes":{"ID":314406,"DIS_CODE":0,"TOWNNAME":"南區","LI":"文華里","LIN":"7鄰","STREET":"金華路","SECT":"二段","MAREA":" ","LANE":"３４５巷","ALLEY":" ","HOUSE_NO":"３號","E_COORD97":167102.14999999999,"N_COORD97":2542923.1400000001,"ADDRESS":"金華路二段３４５巷３號","OBJECTID":314398},"geometry":{"x":167102.15000000037,"y":2542923.1400000025}},{"attributes":{"ID":314407,"DIS_CODE":0,"TOWNNAME":"南區","LI":"文華里","LIN":"7鄰","STREET":"金華路","SECT":"二段","MAREA":" ","LANE":"３４５巷","ALLEY":" ","HOUSE_NO":"５號","E_COORD97":167097.75,"N_COORD97":2542923.4900000002,"ADDRESS":"金華路二段３４５巷５號","OBJECTID":314399},"geometry":{"x":167097.74999999907,"y":2542923.4900000021}},{"attributes":{"ID":314408,"DIS_CODE":0,"TOWNNAME":"南區","LI":"文華里","LIN":"7鄰","STREET":"金華路","SECT":"二段","MAREA":" ","LANE":"３４５巷","ALLEY":" ","HOUSE_NO":"７號","E_COORD97":167093.79999999999,"N_COORD97":2542923.9399999999,"ADDRESS":"金華路二段３４５巷７號","OBJECTID":314400},"geometry":{"x":167093.79999999981,"y":2542923.9399999995}}]}