{"displayFieldName":"TOWNNAME","fieldAliases":{"ID":"ID","DIS_CODE":"DIS_CODE","TOWNNAME":"TOWNNAME","LI":"LI","LIN":"LIN","STREET":"STREET","SECT":"SECT","MAREA":"MAREA","LANE":"LANE","ALLEY":"ALLEY","HOUSE_NO":"HOUSE_NO","E_COORD97":"E_COORD97","N_COORD97":"N_COORD97","ADDRESS":"ADDRESS","OBJECTID":"OBJECTID"},"geometryType":"esriGeometryPoint","spatialReference":{"wkid":102443,"latestWkid":3826},"fields":[{"name":"ID","type":"esriFieldTypeDouble","alias":"ID"},{"name":"DIS_CODE","type":"esriFieldTypeInteger","alias":"DIS_CODE"},{"name":"TOWNNAME","type":"esriFieldTypeString","alias":"TOWNNAME","length":8},{"name":"LI","type":"esriFieldTypeString","alias":"LI","length":8},{"name":"LIN","type":"esriFieldTypeString","alias":"LIN","length":12},{"name":"STREET","type":"esriFieldTypeString","alias":"STREET","length":20},{"name":"SECT","type":"esriFieldTypeString","alias":"SECT","length":8},{"name":"MAREA","type":"esriFieldTypeString","alias":"MAREA","length":12},{"name":"LANE","type":"esriFieldTypeString","alias":"LANE","length":10},{"name":"ALLEY","type":"esriFieldTypeString","alias":"ALLEY","length":10},{"name":"HOUSE_NO","type":"esriFieldTypeString","alias":"HOUSE_NO","length":20},{"name":"E_COORD97","type":"esriFieldTypeDouble","alias":"E_COORD97"},{"name":"N_COORD97","type":"esriFieldTypeDouble","alias":"N_COORD97"},{"name":"ADDRESS","type":"esriFieldTypeString","alias":"ADDRESS","length":50},{"name":"OBJECTID","type":"esriFieldTypeOID","alias":"OBJECTID"}],"features":[{"attributes":{"ID":628228,"DIS_CODE":0,"TOWNNAME":"永康區","LI":"中興里","LIN":"4鄰","STREET":"中華一路","SECT":" ","MAREA":" ","LANE":" ","ALLEY":" ","HOUSE_NO":"１３０號","E_COORD97":171707.67999999999,"N_COORD97":2544973.1400000001,"ADDRESS":"中華一路１３０號","OBJECTID":628201},"geometry":{"x":171707.68000000063,"y":2544973.1400000043}},{"attributes":{"ID":628229,"DIS_CODE":0,"TOWNNAME":"永康區","LI":"中興里","LIN":"4鄰","STREET":"中華一路","SECT":" ","MAREA":" ","LANE":" ","ALLEY":" ","HOUSE_NO":"１３２號","E_COORD97":171702.76999999999,"N_COORD97":2544972.8399999999,"ADDRESS":"中華一路１３２號","OBJECTID":628202},"geometry":{"x":171702.76999999955,"y":2544972.8399999999}},{"attributes":{"ID":628230,"DIS_CODE":0,"TOWNNAME":"永康區","LI":"中興里","LIN":"4鄰","STREET":"中華一路","SECT":" ","MAREA":" ","LANE":" ","ALLEY":" ","HOUSE_NO":"１３６號","E_COORD97":171697.66,"N_COORD97":2544972.5600000001,"ADDRESS":"中華一路１３６號","OBJECTID":628203},"geometry":{"x":171697.66000000201,"y":2544972.5600000005}},{"attributes":{"ID":628231,"DIS_CODE":0,"TOWNNAME":"永康區","LI":"中興里","LIN":"4鄰","STREET":"中華一路","SECT":" ","MAREA":" ","LANE":" ","ALLEY":" ","HOUSE_NO":"１４０號","E_COORD97":171682.17000000001,"N_COORD97":2544970.8300000001,"ADDRESS":"中華一路１４０號","OBJECTID":628204},"geometry":{"x":171682.17000000179,"y":2544970.8300000001}},{"attributes":{"ID":628232,"DIS_CODE":0,"TOWNNAME":"永康區","LI":"中興里","LIN":"4鄰","STREET":"中華一路","SECT":" ","MAREA":" ","LANE":" ","ALLEY":" ","HOUSE_NO":"１４２號","E_COORD97":171677.82000000001,"N_COORD97":2544970.6099999999,"ADDRESS":"中華一路１４２號","OBJECTID":628205},"geometry":{"x":171677.8200000003,"y":2544970.6099999994}},{"attributes":{"ID":628233,"DIS_CODE":0,"TOWNNAME":"永康區","LI":"中興里","LIN":"4鄰","STREET":"中華一路","SECT":" ","MAREA":" ","LANE":" ","ALLEY":" ","HOUSE_NO":"１４６號","E_COORD97":171673.45999999999,"N_COORD97":2544970.25,"ADDRESS":"中華一路１４６號","OBJECTID":628206},"geometry":{"x":171673.46000000183,"y":2544970.25}},{"attributes":{"ID":628234,"DIS_CODE":0,"TOWNNAME":"永康區","LI":"中興里","LIN":"4鄰","STREET":"中華一路","SECT":" ","MAREA":" ","LANE":" ","ALLEY":" ","HOUSE_NO":"１５０之１號","E_COORD97":171662.26999999999,"N_COORD97":2544969.4199999999,"ADDRESS":"中華一路１５０之１號","OBJECTID":628207},"geometry":{"x":171662.26999999862,"y":2544969.4199999999}},{"attributes":{"ID":628235,"DIS_CODE":0,"TOWNNAME":"東區","LI":"文聖里","LIN":"4鄰","STREET":"裕文路","SECT":" ","MAREA":" ","LANE":" ","ALLEY":" ","HOUSE_NO":"１號","E_COORD97":171798.73000000001,"N_COORD97":2542619.1200000001,"ADDRESS":"裕文路１號","OBJECTID":628208},"geometry":{"x":171798.73000000045,"y":2542619.1200000029}},{"attributes":{"ID":628236,"DIS_CODE":0,"TOWNNAME":"永康區","LI":"中興里","LIN":"4鄰","STREET":"中華一路","SECT":" ","MAREA":" ","LANE":" ","ALLEY":" ","HOUSE_NO":"１５０號","E_COORD97":171664.42000000001,"N_COORD97":2544969.6899999999,"ADDRESS":"中華一路１５０號","OBJECTID":628209},"geometry":{"x":171664.41999999993,"y":2544969.6900000013}},{"attributes":{"ID":628237,"DIS_CODE":0,"TOWNNAME":"永康區","LI":"中興里","LIN":"4鄰","STREET":"中華一路","SECT":" ","MAREA":" ","LANE":" ","ALLEY":" ","HOUSE_NO":"６０號","E_COORD97":171845.75,"N_COORD97":2544982.7599999998,"ADDRESS":"中華一路６０號","OBJECTID":628210},"geometry":{"x":171845.75,"y":2544982.7600000016}},{"attributes":{"ID":628238,"DIS_CODE":0,"TOWNNAME":"永康區","LI":"中興里","LIN":"4鄰","STREET":"中華一路","SECT":" ","MAREA":" ","LANE":" ","ALLEY":" ","HOUSE_NO":"６２號","E_COORD97":171841.06,"N_COORD97":2544982.9199999999,"ADDRESS":"中華一路６２號","OBJECTID":628211},"geometry":{"x":171841.05999999959,"y":2544982.9199999999}},{"attributes":{"ID":628239,"DIS_CODE":0,"TOWNNAME":"永康區","LI":"中興里","LIN":"4鄰","STREET":"中華一路","SECT":" ","MAREA":" ","LANE":" ","ALLEY":" ","HOUSE_NO":"６６號","E_COORD97":171836.01999999999,"N_COORD97":2544982.7200000002,"ADDRESS":"中華一路６６號","OBJECTID":628212},"geometry":{"x":171836.02000000048,"y":2544982.7199999988}},{"attributes":{"ID":628240,"DIS_CODE":0,"TOWNNAME":"永康區","LI":"三民里","LIN":"14鄰","STREET":"中正北路","SECT":" ","MAREA":" ","LANE":" ","ALLEY":" ","HOUSE_NO":"９４８號之５","E_COORD97":175586.01999999999,"N_COORD97":2550602.04,"ADDRESS":"中正北路９４８號之５","OBJECTID":628213},"geometry":{"x":175586.01999999955,"y":2550602.040000001}},{"attributes":{"ID":628241,"DIS_CODE":0,"TOWNNAME":"永康區","LI":"中興里","LIN":"17鄰","STREET":"中華二路","SECT":" ","MAREA":" ","LANE":" ","ALLEY":" ","HOUSE_NO":"２９１號","E_COORD97":171530.19,"N_COORD97":2545417.8599999999,"ADDRESS":"中華二路２９１號","OBJECTID":628214},"geometry":{"x":171530.19000000134,"y":2545417.8599999975}},{"attributes":{"ID":628242,"DIS_CODE":0,"TOWNNAME":"永康區","LI":"中興里","LIN":"4鄰","STREET":"中華一路","SECT":" ","MAREA":" ","LANE":" ","ALLEY":" ","HOUSE_NO":"６８號","E_COORD97":171830.94,"N_COORD97":2544982.52,"ADDRESS":"中華一路６８號","OBJECTID":628215},"geometry":{"x":171830.94000000041,"y":2544982.5199999996}},{"attributes":{"ID":628243,"DIS_CODE":0,"TOWNNAME":"永康區","LI":"中興里","LIN":"4鄰","STREET":"中華一路","SECT":" ","MAREA":" ","LANE":" ","ALLEY":" ","HOUSE_NO":"７２號","E_COORD97":171820.95999999999,"N_COORD97":2544981.98,"ADDRESS":"中華一路７２號","OBJECTID":628216},"geometry":{"x":171820.96000000183,"y":2544981.9800000023}},{"attributes":{"ID":628244,"DIS_CODE":0,"TOWNNAME":"永康區","LI":"中興里","LIN":"4鄰","STREET":"中華一路","SECT":" ","MAREA":" ","LANE":" ","ALLEY":" ","HOUSE_NO":"７６號","E_COORD97":171816.17999999999,"N_COORD97":2544981.8300000001,"ADDRESS":"中華一路７６號","OBJECTID":628217},"geometry":{"x":171816.18000000063,"y":2544981.8300000038}},{"attributes":{"ID":628245,"DIS_CODE":0,"TOWNNAME":"永康區","LI":"中興里","LIN":"4鄰","STREET":"中華一路","SECT":" ","MAREA":" ","LANE":" ","ALLEY":" ","HOUSE_NO":"７８號","E_COORD97":171811.37,"N_COORD97":2544981.71,"ADDRESS":"中華一路７８號","OBJECTID":628218},"geometry":{"x":171811.36999999918,"y":2544981.7100000009}},{"attributes":{"ID":628246,"DIS_CODE":0,"TOWNNAME":"永康區","LI":"中興里","LIN":"4鄰","STREET":"中華一路","SECT":" ","MAREA":" ","LANE":" ","ALLEY":" ","HOUSE_NO":"８０號","E_COORD97":171806.37,"N_COORD97":2544981.3399999999,"ADDRESS":"中華一路８０號","OBJECTID":628219},"geometry":{"x":171806.37000000197,"y":2544981.3400000036}},{"attributes":{"ID":628247,"DIS_CODE":0,"TOWNNAME":"永康區","LI":"中興里","LIN":"4鄰","STREET":"中華一路","SECT":" ","MAREA":" ","LANE":" ","ALLEY":" ","HOUSE_NO":"８２號","E_COORD97":171801.25,"N_COORD97":2544980.96,"ADDRESS":"中華一路８２號","OBJECTID":628220},"geometry":{"x":171801.25,"y":2544980.9600000009}},{"attributes":{"ID":628248,"DIS_CODE":0,"TOWNNAME":"永康區","LI":"中興里","LIN":"4鄰","STREET":"中華一路","SECT":" ","MAREA":" ","LANE":" ","ALLEY":" ","HOUSE_NO":"８６號","E_COORD97":171796.19,"N_COORD97":2544980.5699999998,"ADDRESS":"中華一路８６號","OBJECTID":628221},"geometry":{"x":171796.19000000227,"y":2544980.5700000022}},{"attributes":{"ID":628249,"DIS_CODE":0,"TOWNNAME":"永康區","LI":"中興里","LIN":"4鄰","STREET":"中華一路","SECT":" ","MAREA":" ","LANE":" ","ALLEY":" ","HOUSE_NO":"８８號","E_COORD97":171791.39000000001,"N_COORD97":2544980.1000000001,"ADDRESS":"中華一路８８號","OBJECTID":628222},"geometry":{"x":171791.3900000006,"y":2544980.1000000015}},{"attributes":{"ID":628250,"DIS_CODE":0,"TOWNNAME":"永康區","LI":"中興里","LIN":"4鄰","STREET":"中華一路","SECT":" ","MAREA":" ","LANE":" ","ALLEY":" ","HOUSE_NO":"９０號","E_COORD97":171786.57999999999,"N_COORD97":2544979.7599999998,"ADDRESS":"中華一路９０號","OBJECTID":628223},"geometry":{"x":171786.58000000101,"y":2544979.7600000016}},{"attributes":{"ID":628251,"DIS_CODE":0,"TOWNNAME":"永康區","LI":"中興里","LIN":"4鄰","STREET":"中華一路","SECT":" ","MAREA":" ","LANE":" ","ALLEY":" ","HOUSE_NO":"９２號","E_COORD97":171781.26999999999,"N_COORD97":2544979.1800000002,"ADDRESS":"中華一路９２號","OBJECTID":628224},"geometry":{"x":171781.27000000048,"y":2544979.1800000016}},{"attributes":{"ID":628252,"DIS_CODE":0,"TOWNNAME":"永康區","LI":"中興里","LIN":"4鄰","STREET":"中華一路","SECT":" ","MAREA":" ","LANE":" ","ALLEY":" ","HOUSE_NO":"９６號","E_COORD97":171776.10999999999,"N_COORD97":2544978.54,"ADDRESS":"中華一路９６號","OBJECTID":628225},"geometry":{"x":171776.1099999994,"y":2544978.5399999991}},{"attributes":{"ID":628253,"DIS_CODE":0,"TOWNNAME":"永康區","LI":"中興里","LIN":"4鄰","STREET":"中華一路","SECT":" ","MAREA":" ","LANE":" ","ALLEY":" ","HOUSE_NO":"９８號","E_COORD97":171771.35000000001,"N_COORD97":2544978.1499999999,"ADDRESS":"中華一路９８號","OBJECTID":628226},"geometry":{"x":171771.34999999963,"y":2544978.1500000004}},{"attributes":{"ID":628254,"DIS_CODE":0,"TOWNNAME":"永康區","LI":"網寮里","LIN":"4鄰","STREET":"永二街","SECT":" ","MAREA":" ","LANE":" ","ALLEY":" ","HOUSE_NO":"１２０號","E_COORD97":173499.85000000001,"N_COORD97":2546454.48,"ADDRESS":"永二街１２０號","OBJECTID":628227},"geometry":{"x":173499.85000000056,"y":2546454.4800000004}},{"attributes":{"ID":628255,"DIS_CODE":0,"TOWNNAME":"永康區","LI":"網寮里","LIN":"4鄰","STREET":"永二街","SECT":" ","MAREA":" ","LANE":" ","ALLEY":" ","HOUSE_NO":"１２２號","E_COORD97":173496.07999999999,"N_COORD97":2546447.9500000002,"ADDRESS":"永二街１２２號","OBJECTID":628228},"geometry":{"x":173496.08000000007,"y":2546447.950000003}},{"attributes":{"ID":628256,"DIS_CODE":0,"TOWNNAME":"永康區","LI":"五王里","LIN":"20鄰","STREET":"中華路","SECT":" ","MAREA":" ","LANE":" ","ALLEY":" ","HOUSE_NO":"４７８號","E_COORD97":171315.79000000001,"N_COORD97":2545734.7400000002,"ADDRESS":"中華路４７８號","OBJECTID":628229},"geometry":{"x":171315.79000000097,"y":2545734.7399999984}},{"attributes":{"ID":628257,"DIS_CODE":0,"TOWNNAME":"永康區","LI":"五王里","LIN":"40鄰","STREET":"中山南路","SECT":" ","MAREA":" ","LANE":" ","ALLEY":" ","HOUSE_NO":"１６６號","E_COORD97":171294.75,"N_COORD97":2546015.75,"ADDRESS":"中山南路１６６號","OBJECTID":628230},"geometry":{"x":171294.75,"y":2546015.75}},{"attributes":{"ID":628258,"DIS_CODE":0,"TOWNNAME":"永康區","LI":"中興里","LIN":"8鄰","STREET":"中山東路","SECT":" ","MAREA":" ","LANE":" ","ALLEY":" ","HOUSE_NO":"４０５號","E_COORD97":171959.56,"N_COORD97":2545088.5,"ADDRESS":"中山東路４０５號","OBJECTID":628231},"geometry":{"x":171959.56000000052,"y":2545088.5}},{"attributes":{"ID":628259,"DIS_CODE":0,"TOWNNAME":"永康區","LI":"大橋里","LIN":"4鄰","STREET":"大橋五街","SECT":" ","MAREA":" ","LANE":" ","ALLEY":" ","HOUSE_NO":"１３１號","E_COORD97":170947.14999999999,"N_COORD97":2546970.8799999999,"ADDRESS":"大橋五街１３１號","OBJECTID":628232},"geometry":{"x":170947.15000000224,"y":2546970.8800000008}},{"attributes":{"ID":628260,"DIS_CODE":0,"TOWNNAME":"永康區","LI":"中興里","LIN":"25鄰","STREET":"中華路","SECT":" ","MAREA":" ","LANE":" ","ALLEY":" ","HOUSE_NO":"２１８號之３４","E_COORD97":171662.39999999999,"N_COORD97":2545148.79,"ADDRESS":"中華路２１８號之３４","OBJECTID":628233},"geometry":{"x":171662.40000000224,"y":2545148.7899999991}},{"attributes":{"ID":628261,"DIS_CODE":0,"TOWNNAME":"永康區","LI":"五王里","LIN":"40鄰","STREET":"中山南路","SECT":" ","MAREA":" ","LANE":" ","ALLEY":" ","HOUSE_NO":"１６４號底一層之１","E_COORD97":171287.22,"N_COORD97":2546011.5499999998,"ADDRESS":"中山南路１６４號底一層之１","OBJECTID":628234},"geometry":{"x":171287.22000000067,"y":2546011.5500000045}},{"attributes":{"ID":628262,"DIS_CODE":0,"TOWNNAME":"永康區","LI":"大橋里","LIN":"4鄰","STREET":"大橋五街","SECT":" ","MAREA":" ","LANE":" ","ALLEY":" ","HOUSE_NO":"１３５號","E_COORD97":170953.98999999999,"N_COORD97":2546975.6200000001,"ADDRESS":"大橋五街１３５號","OBJECTID":628235},"geometry":{"x":170953.99000000022,"y":2546975.6200000029}},{"attributes":{"ID":628263,"DIS_CODE":0,"TOWNNAME":"東區","LI":"文聖里","LIN":"4鄰","STREET":"裕文路","SECT":" ","MAREA":" ","LANE":" ","ALLEY":" ","HOUSE_NO":"１９號","E_COORD97":171836.42000000001,"N_COORD97":2542618.0899999999,"ADDRESS":"裕文路１９號","OBJECTID":628236},"geometry":{"x":171836.42000000179,"y":2542618.0900000017}},{"attributes":{"ID":628264,"DIS_CODE":0,"TOWNNAME":"東區","LI":"文聖里","LIN":"4鄰","STREET":"裕文路","SECT":" ","MAREA":" ","LANE":" ","ALLEY":" ","HOUSE_NO":"１５號","E_COORD97":171827.79000000001,"N_COORD97":2542619.5,"ADDRESS":"裕文路１５號","OBJECTID":628237},"geometry":{"x":171827.79000000097,"y":2542619.5}},{"attributes":{"ID":628265,"DIS_CODE":0,"TOWNNAME":"東區","LI":"文聖里","LIN":"4鄰","STREET":"裕文路","SECT":" ","MAREA":" ","LANE":" ","ALLEY":" ","HOUSE_NO":"１３號","E_COORD97":171824.04000000001,"N_COORD97":2542616.7799999998,"ADDRESS":"裕文路１３號","OBJECTID":628238},"geometry":{"x":171824.04000000097,"y":2542616.7799999993}},{"attributes":{"ID":628266,"DIS_CODE":0,"TOWNNAME":"東區","LI":"文聖里","LIN":"4鄰","STREET":"裕文路","SECT":" ","MAREA":" ","LANE":" ","ALLEY":" ","HOUSE_NO":"１１號","E_COORD97":171819.82000000001,"N_COORD97":2542619.3100000001,"ADDRESS":"裕文路１１號","OBJECTID":628239},"geometry":{"x":171819.8200000003,"y":2542619.3100000042}},{"attributes":{"ID":628267,"DIS_CODE":0,"TOWNNAME":"永康區","LI":"五王里","LIN":"20鄰","STREET":"中華路","SECT":" ","MAREA":" ","LANE":" ","ALLEY":" ","HOUSE_NO":"４８６號","E_COORD97":171298.09,"N_COORD97":2545764.7400000002,"ADDRESS":"中華路４８６號","OBJECTID":628240},"geometry":{"x":171298.09000000078,"y":2545764.7400000002}},{"attributes":{"ID":628268,"DIS_CODE":0,"TOWNNAME":"永康區","LI":"五王里","LIN":"42鄰","STREET":"中山東路","SECT":" ","MAREA":" ","LANE":" ","ALLEY":" ","HOUSE_NO":"３０號","E_COORD97":171670.81,"N_COORD97":2546109.75,"ADDRESS":"中山東路３０號","OBJECTID":628241},"geometry":{"x":171670.81000000052,"y":2546109.75}},{"attributes":{"ID":628269,"DIS_CODE":0,"TOWNNAME":"東區","LI":"文聖里","LIN":"4鄰","STREET":"裕文路","SECT":" ","MAREA":" ","LANE":" ","ALLEY":" ","HOUSE_NO":"９號","E_COORD97":171816.07000000001,"N_COORD97":2542616.5,"ADDRESS":"裕文路９號","OBJECTID":628242},"geometry":{"x":171816.07000000123,"y":2542616.5}},{"attributes":{"ID":628270,"DIS_CODE":0,"TOWNNAME":"東區","LI":"文聖里","LIN":"4鄰","STREET":"裕文路","SECT":" ","MAREA":" ","LANE":" ","ALLEY":" ","HOUSE_NO":"７號","E_COORD97":171811.85000000001,"N_COORD97":2542619.96,"ADDRESS":"裕文路７號","OBJECTID":628243},"geometry":{"x":171811.85000000056,"y":2542619.9600000028}},{"attributes":{"ID":628271,"DIS_CODE":0,"TOWNNAME":"東區","LI":"文聖里","LIN":"4鄰","STREET":"裕文路","SECT":" ","MAREA":" ","LANE":" ","ALLEY":" ","HOUSE_NO":"５號","E_COORD97":171807.17000000001,"N_COORD97":2542617.25,"ADDRESS":"裕文路５號","OBJECTID":628244},"geometry":{"x":171807.16999999993,"y":2542617.25}},{"attributes":{"ID":628272,"DIS_CODE":0,"TOWNNAME":"東區","LI":"文聖里","LIN":"4鄰","STREET":"裕文路","SECT":" ","MAREA":" ","LANE":" ","ALLEY":" ","HOUSE_NO":"３號","E_COORD97":171803.42000000001,"N_COORD97":2542621.1800000002,"ADDRESS":"裕文路３號","OBJECTID":628245},"geometry":{"x":171803.41999999993,"y":2542621.1799999997}},{"attributes":{"ID":628273,"DIS_CODE":0,"TOWNNAME":"東區","LI":"東智里","LIN":"4鄰","STREET":"崇德二十六街","SECT":" ","MAREA":" ","LANE":" ","ALLEY":" ","HOUSE_NO":"２９號","E_COORD97":170887.04000000001,"N_COORD97":2540349.77,"ADDRESS":"崇德二十六街２９號","OBJECTID":628246},"geometry":{"x":170887.04000000097,"y":2540349.7699999996}},{"attributes":{"ID":628274,"DIS_CODE":0,"TOWNNAME":"東區","LI":"東智里","LIN":"4鄰","STREET":"崇德二十六街","SECT":" ","MAREA":" ","LANE":" ","ALLEY":" ","HOUSE_NO":"２６號","E_COORD97":170873.70000000001,"N_COORD97":2540308.0899999999,"ADDRESS":"崇德二十六街２６號","OBJECTID":628247},"geometry":{"x":170873.70000000205,"y":2540308.0900000017}},{"attributes":{"ID":628275,"DIS_CODE":0,"TOWNNAME":"東區","LI":"東智里","LIN":"4鄰","STREET":"崇德二十六街","SECT":" ","MAREA":" ","LANE":" ","ALLEY":" ","HOUSE_NO":"２７號","E_COORD97":170873.76999999999,"N_COORD97":2540353.71,"ADDRESS":"崇德二十六街２７號","OBJECTID":628248},"geometry":{"x":170873.76999999955,"y":2540353.7100000009}},{"attributes":{"ID":628276,"DIS_CODE":0,"TOWNNAME":"東區","LI":"東智里","LIN":"4鄰","STREET":"崇德二十六街","SECT":" ","MAREA":" ","LANE":" ","ALLEY":" ","HOUSE_NO":"２４號","E_COORD97":170873.70000000001,"N_COORD97":2540312.3199999998,"ADDRESS":"崇德二十六街２４號","OBJECTID":628249},"geometry":{"x":170873.70000000205,"y":2540312.3200000003}},{"attributes":{"ID":628277,"DIS_CODE":0,"TOWNNAME":"東區","LI":"東智里","LIN":"4鄰","STREET":"崇德二十六街","SECT":" ","MAREA":" ","LANE":" ","ALLEY":" ","HOUSE_NO":"２５號","E_COORD97":170874.48000000001,"N_COORD97":2540349.3399999999,"ADDRESS":"崇德二十六街２５號","OBJECTID":628250},"geometry":{"x":170874.48000000138,"y":2540349.3399999999}},{"attributes":{"ID":628278,"DIS_CODE":0,"TOWNNAME":"東區","LI":"東智里","LIN":"4鄰","STREET":"崇德二十六街","SECT":" ","MAREA":" ","LANE":" ","ALLEY":" ","HOUSE_NO":"２２號","E_COORD97":170874.13,"N_COORD97":2540316.8399999999,"ADDRESS":"崇德二十六街２２號","OBJECTID":628251},"geometry":{"x":170874.13000000082,"y":2540316.8400000017}},{"attributes":{"ID":628279,"DIS_CODE":0,"TOWNNAME":"東區","LI":"東智里","LIN":"4鄰","STREET":"崇德二十六街","SECT":" ","MAREA":" ","LANE":" ","ALLEY":" ","HOUSE_NO":"２３號","E_COORD97":170874.89999999999,"N_COORD97":2540344.8199999998,"ADDRESS":"崇德二十六街２３號","OBJECTID":628252},"geometry":{"x":170874.9000000013,"y":2540344.8200000022}},{"attributes":{"ID":628280,"DIS_CODE":0,"TOWNNAME":"東區","LI":"東智里","LIN":"4鄰","STREET":"崇德二十六街","SECT":" ","MAREA":" ","LANE":" ","ALLEY":" ","HOUSE_NO":"２０號","E_COORD97":170873.70000000001,"N_COORD97":2540320.9300000002,"ADDRESS":"崇德二十六街２０號","OBJECTID":628253},"geometry":{"x":170873.70000000205,"y":2540320.9299999997}},{"attributes":{"ID":628281,"DIS_CODE":0,"TOWNNAME":"東區","LI":"東智里","LIN":"4鄰","STREET":"崇德二十六街","SECT":" ","MAREA":" ","LANE":" ","ALLEY":" ","HOUSE_NO":"２１號","E_COORD97":170874.89999999999,"N_COORD97":2540340.3199999998,"ADDRESS":"崇德二十六街２１號","OBJECTID":628254},"geometry":{"x":170874.9000000013,"y":2540340.320000004}},{"attributes":{"ID":628282,"DIS_CODE":0,"TOWNNAME":"東區","LI":"東智里","LIN":"4鄰","STREET":"崇德二十六街","SECT":" ","MAREA":" ","LANE":" ","ALLEY":" ","HOUSE_NO":"１８號","E_COORD97":170856.62,"N_COORD97":2540321.9100000001,"ADDRESS":"崇德二十六街１８號","OBJECTID":628255},"geometry":{"x":170856.62000000011,"y":2540321.9100000001}},{"attributes":{"ID":628283,"DIS_CODE":0,"TOWNNAME":"東區","LI":"東智里","LIN":"4鄰","STREET":"崇德二十六街","SECT":" ","MAREA":" ","LANE":" ","ALLEY":" ","HOUSE_NO":"１９號","E_COORD97":170874.89999999999,"N_COORD97":2540337.2200000002,"ADDRESS":"崇德二十六街１９號","OBJECTID":628256},"geometry":{"x":170874.9000000013,"y":2540337.2200000007}},{"attributes":{"ID":628284,"DIS_CODE":0,"TOWNNAME":"東區","LI":"東智里","LIN":"4鄰","STREET":"崇德二十六街","SECT":" ","MAREA":" ","LANE":" ","ALLEY":" ","HOUSE_NO":"１６號","E_COORD97":170853.23000000001,"N_COORD97":2540322.3399999999,"ADDRESS":"崇德二十六街１６號","OBJECTID":628257},"geometry":{"x":170853.22999999952,"y":2540322.3399999999}},{"attributes":{"ID":628285,"DIS_CODE":0,"TOWNNAME":"東區","LI":"東智里","LIN":"4鄰","STREET":"崇德二十六街","SECT":" ","MAREA":" ","LANE":" ","ALLEY":" ","HOUSE_NO":"１７號","E_COORD97":170873.76999999999,"N_COORD97":2540332.5600000001,"ADDRESS":"崇德二十六街１７號","OBJECTID":628258},"geometry":{"x":170873.76999999955,"y":2540332.5600000024}},{"attributes":{"ID":628286,"DIS_CODE":0,"TOWNNAME":"東區","LI":"東智里","LIN":"4鄰","STREET":"崇德二十六街","SECT":" ","MAREA":" ","LANE":" ","ALLEY":" ","HOUSE_NO":"１４號","E_COORD97":170848.98999999999,"N_COORD97":2540322.2000000002,"ADDRESS":"崇德二十六街１４號","OBJECTID":628259},"geometry":{"x":170848.99000000022,"y":2540322.1999999993}},{"attributes":{"ID":628287,"DIS_CODE":0,"TOWNNAME":"東區","LI":"東智里","LIN":"4鄰","STREET":"崇德二十六街","SECT":" ","MAREA":" ","LANE":" ","ALLEY":" ","HOUSE_NO":"１５號","E_COORD97":170857.45999999999,"N_COORD97":2540331.8700000001,"ADDRESS":"崇德二十六街１５號","OBJECTID":628260},"geometry":{"x":170857.45999999996,"y":2540331.8700000029}},{"attributes":{"ID":628288,"DIS_CODE":0,"TOWNNAME":"東區","LI":"東智里","LIN":"4鄰","STREET":"崇德二十六街","SECT":" ","MAREA":" ","LANE":" ","ALLEY":" ","HOUSE_NO":"１２號","E_COORD97":170844.89999999999,"N_COORD97":2540322.6200000001,"ADDRESS":"崇德二十六街１２號","OBJECTID":628261},"geometry":{"x":170844.90000000037,"y":2540322.6200000029}},{"attributes":{"ID":628289,"DIS_CODE":0,"TOWNNAME":"東區","LI":"東智里","LIN":"4鄰","STREET":"崇德二十六街","SECT":" ","MAREA":" ","LANE":" ","ALLEY":" ","HOUSE_NO":"１３號","E_COORD97":170852.64999999999,"N_COORD97":2540331.73,"ADDRESS":"崇德二十六街１３號","OBJECTID":628262},"geometry":{"x":170852.6500000013,"y":2540331.7300000023}},{"attributes":{"ID":628290,"DIS_CODE":0,"TOWNNAME":"東區","LI":"東智里","LIN":"4鄰","STREET":"崇德二十六街","SECT":" ","MAREA":" ","LANE":" ","ALLEY":" ","HOUSE_NO":"１０號","E_COORD97":170840.94,"N_COORD97":2540322.7599999998,"ADDRESS":"崇德二十六街１０號","OBJECTID":628263},"geometry":{"x":170840.94000000041,"y":2540322.7599999998}},{"attributes":{"ID":628291,"DIS_CODE":0,"TOWNNAME":"東區","LI":"東智里","LIN":"4鄰","STREET":"崇德二十六街","SECT":" ","MAREA":" ","LANE":" ","ALLEY":" ","HOUSE_NO":"１１號","E_COORD97":170848.98000000001,"N_COORD97":2540331.5899999999,"ADDRESS":"崇德二十六街１１號","OBJECTID":628264},"geometry":{"x":170848.98000000138,"y":2540331.5900000036}},{"attributes":{"ID":628292,"DIS_CODE":0,"TOWNNAME":"東區","LI":"東智里","LIN":"4鄰","STREET":"崇德二十六街","SECT":" ","MAREA":" ","LANE":" ","ALLEY":" ","HOUSE_NO":"８號","E_COORD97":170837.13,"N_COORD97":2540323.04,"ADDRESS":"崇德二十六街８號","OBJECTID":628265},"geometry":{"x":170837.13000000082,"y":2540323.0399999991}},{"attributes":{"ID":628293,"DIS_CODE":0,"TOWNNAME":"東區","LI":"東智里","LIN":"4鄰","STREET":"崇德二十六街","SECT":" ","MAREA":" ","LANE":" ","ALLEY":" ","HOUSE_NO":"９號","E_COORD97":170845.45000000001,"N_COORD97":2540331.5899999999,"ADDRESS":"崇德二十六街９號","OBJECTID":628266},"geometry":{"x":170845.45000000112,"y":2540331.5900000036}},{"attributes":{"ID":628294,"DIS_CODE":0,"TOWNNAME":"東區","LI":"東智里","LIN":"4鄰","STREET":"崇德二十六街","SECT":" ","MAREA":" ","LANE":" ","ALLEY":" ","HOUSE_NO":"６號","E_COORD97":170833.60000000001,"N_COORD97":2540323.04,"ADDRESS":"崇德二十六街６號","OBJECTID":628267},"geometry":{"x":170833.60000000056,"y":2540323.0399999991}},{"attributes":{"ID":628295,"DIS_CODE":0,"TOWNNAME":"東區","LI":"東智里","LIN":"4鄰","STREET":"崇德二十六街","SECT":" ","MAREA":" ","LANE":" ","ALLEY":" ","HOUSE_NO":"７號","E_COORD97":170839.66,"N_COORD97":2540332.0099999998,"ADDRESS":"崇德二十六街７號","OBJECTID":628268},"geometry":{"x":170839.66000000015,"y":2540332.0100000035}},{"attributes":{"ID":628296,"DIS_CODE":0,"TOWNNAME":"東區","LI":"東智里","LIN":"4鄰","STREET":"崇德二十七街","SECT":" ","MAREA":" ","LANE":" ","ALLEY":" ","HOUSE_NO":"３２號","E_COORD97":170888.07999999999,"N_COORD97":2540283.7599999998,"ADDRESS":"崇德二十七街３２號","OBJECTID":628269},"geometry":{"x":170888.08000000101,"y":2540283.7600000016}},{"attributes":{"ID":628297,"DIS_CODE":0,"TOWNNAME":"永康區","LI":"六合里","LIN":"4鄰","STREET":"新興街","SECT":" ","MAREA":" ","LANE":" ","ALLEY":" ","HOUSE_NO":"９５號","E_COORD97":171071.88,"N_COORD97":2545801.0499999998,"ADDRESS":"新興街９５號","OBJECTID":628270},"geometry":{"x":171071.87999999989,"y":2545801.0499999989}},{"attributes":{"ID":628298,"DIS_CODE":0,"TOWNNAME":"永康區","LI":"六合里","LIN":"4鄰","STREET":"新興街","SECT":" ","MAREA":" ","LANE":" ","ALLEY":" ","HOUSE_NO":"９９號","E_COORD97":171079.59,"N_COORD97":2545804.9100000001,"ADDRESS":"新興街９９號","OBJECTID":628271},"geometry":{"x":171079.59000000078,"y":2545804.9100000039}},{"attributes":{"ID":628299,"DIS_CODE":0,"TOWNNAME":"東區","LI":"小東里","LIN":"18鄰","STREET":"東和路","SECT":" ","MAREA":" ","LANE":" ","ALLEY":" ","HOUSE_NO":"３６號","E_COORD97":170982.17000000001,"N_COORD97":2544349.7400000002,"ADDRESS":"東和路３６號","OBJECTID":628272},"geometry":{"x":170982.17000000086,"y":2544349.7400000021}},{"attributes":{"ID":628300,"DIS_CODE":0,"TOWNNAME":"東區","LI":"和平里","LIN":"20鄰","STREET":"仁和路","SECT":" ","MAREA":" ","LANE":" ","ALLEY":" ","HOUSE_NO":"６３號","E_COORD97":171164.73000000001,"N_COORD97":2541712.71,"ADDRESS":"仁和路６３號","OBJECTID":628273},"geometry":{"x":171164.73000000045,"y":2541712.7100000028}},{"attributes":{"ID":628301,"DIS_CODE":0,"TOWNNAME":"東區","LI":"莊敬里","LIN":"1鄰","STREET":"東和路","SECT":" ","MAREA":" ","LANE":" ","ALLEY":" ","HOUSE_NO":"１６號","E_COORD97":171036.04999999999,"N_COORD97":2544360.6800000002,"ADDRESS":"東和路１６號","OBJECTID":628274},"geometry":{"x":171036.05000000075,"y":2544360.6799999997}},{"attributes":{"ID":628302,"DIS_CODE":0,"TOWNNAME":"東區","LI":"小東里","LIN":"28鄰","STREET":"東和路","SECT":" ","MAREA":" ","LANE":" ","ALLEY":" ","HOUSE_NO":"１２１號","E_COORD97":170754.17999999999,"N_COORD97":2544305.8199999998,"ADDRESS":"東和路１２１號","OBJECTID":628275},"geometry":{"x":170754.1799999997,"y":2544305.8200000003}},{"attributes":{"ID":628303,"DIS_CODE":0,"TOWNNAME":"東區","LI":"小東里","LIN":"28鄰","STREET":"東和路","SECT":" ","MAREA":" ","LANE":" ","ALLEY":" ","HOUSE_NO":"１２３號","E_COORD97":170749.16,"N_COORD97":2544305.8900000001,"ADDRESS":"東和路１２３號","OBJECTID":628276},"geometry":{"x":170749.16000000108,"y":2544305.8900000006}},{"attributes":{"ID":628304,"DIS_CODE":0,"TOWNNAME":"東區","LI":"小東里","LIN":"28鄰","STREET":"東和路","SECT":" ","MAREA":" ","LANE":" ","ALLEY":" ","HOUSE_NO":"１２７號","E_COORD97":170751.35999999999,"N_COORD97":2544291.3700000001,"ADDRESS":"東和路１２７號","OBJECTID":628277},"geometry":{"x":170751.36000000127,"y":2544291.3700000029}},{"attributes":{"ID":628305,"DIS_CODE":0,"TOWNNAME":"東區","LI":"小東里","LIN":"28鄰","STREET":"東和路","SECT":" ","MAREA":" ","LANE":" ","ALLEY":" ","HOUSE_NO":"１２９號","E_COORD97":170751.59,"N_COORD97":2544287.6099999999,"ADDRESS":"東和路１２９號","OBJECTID":628278},"geometry":{"x":170751.58999999985,"y":2544287.6100000013}},{"attributes":{"ID":628306,"DIS_CODE":0,"TOWNNAME":"東區","LI":"小東里","LIN":"28鄰","STREET":"東和路","SECT":" ","MAREA":" ","LANE":" ","ALLEY":" ","HOUSE_NO":"１３１號","E_COORD97":170751.51000000001,"N_COORD97":2544283.3300000001,"ADDRESS":"東和路１３１號","OBJECTID":628279},"geometry":{"x":170751.51000000071,"y":2544283.3300000038}},{"attributes":{"ID":628307,"DIS_CODE":0,"TOWNNAME":"東區","LI":"忠孝里","LIN":"20鄰","STREET":"崇明路","SECT":" ","MAREA":" ","LANE":" ","ALLEY":" ","HOUSE_NO":"２８４號","E_COORD97":169979.32000000001,"N_COORD97":2542054.8100000001,"ADDRESS":"崇明路２８４號","OBJECTID":628280},"geometry":{"x":169979.3200000003,"y":2542054.8100000005}},{"attributes":{"ID":628308,"DIS_CODE":0,"TOWNNAME":"東區","LI":"忠孝里","LIN":"24鄰","STREET":"崇明四街","SECT":" ","MAREA":" ","LANE":" ","ALLEY":" ","HOUSE_NO":"４６號","E_COORD97":169690.45999999999,"N_COORD97":2542311.4199999999,"ADDRESS":"崇明四街４６號","OBJECTID":628281},"geometry":{"x":169690.46000000089,"y":2542311.4199999999}},{"attributes":{"ID":628309,"DIS_CODE":0,"TOWNNAME":"東區","LI":"莊敬里","LIN":"1鄰","STREET":"東和路","SECT":" ","MAREA":" ","LANE":" ","ALLEY":" ","HOUSE_NO":"３０號","E_COORD97":171007.85999999999,"N_COORD97":2544353.3399999999,"ADDRESS":"東和路３０號","OBJECTID":628282},"geometry":{"x":171007.86000000034,"y":2544353.3399999999}},{"attributes":{"ID":628310,"DIS_CODE":0,"TOWNNAME":"北區","LI":"和順里","LIN":"4鄰","STREET":"西門路","SECT":"三段","MAREA":" ","LANE":" ","ALLEY":" ","HOUSE_NO":"１８３號","E_COORD97":168464.41,"N_COORD97":2544993.96,"ADDRESS":"西門路三段１８３號","OBJECTID":628283},"geometry":{"x":168464.41000000015,"y":2544993.9600000009}},{"attributes":{"ID":628311,"DIS_CODE":0,"TOWNNAME":"北區","LI":"和順里","LIN":"4鄰","STREET":"西門路","SECT":"三段","MAREA":" ","LANE":" ","ALLEY":" ","HOUSE_NO":"１８５號","E_COORD97":168467.45999999999,"N_COORD97":2544997.6600000001,"ADDRESS":"西門路三段１８５號","OBJECTID":628284},"geometry":{"x":168467.45999999996,"y":2544997.660000002}},{"attributes":{"ID":628312,"DIS_CODE":0,"TOWNNAME":"北區","LI":"和順里","LIN":"4鄰","STREET":"西門路","SECT":"三段","MAREA":" ","LANE":" ","ALLEY":" ","HOUSE_NO":"１８７號","E_COORD97":168469.85999999999,"N_COORD97":2545001.5800000001,"ADDRESS":"西門路三段１８７號","OBJECTID":628285},"geometry":{"x":168469.86000000034,"y":2545001.5800000019}},{"attributes":{"ID":628313,"DIS_CODE":0,"TOWNNAME":"北區","LI":"和順里","LIN":"4鄰","STREET":"西門路","SECT":"三段","MAREA":" ","LANE":" ","ALLEY":" ","HOUSE_NO":"１８９號","E_COORD97":168471.82000000001,"N_COORD97":2545006.1600000001,"ADDRESS":"西門路三段１８９號","OBJECTID":628286},"geometry":{"x":168471.8200000003,"y":2545006.1600000001}},{"attributes":{"ID":628314,"DIS_CODE":0,"TOWNNAME":"北區","LI":"和順里","LIN":"4鄰","STREET":"西門路","SECT":"三段","MAREA":" ","LANE":" ","ALLEY":" ","HOUSE_NO":"１９３號","E_COORD97":168478.79999999999,"N_COORD97":2545015.2999999998,"ADDRESS":"西門路三段１９３號","OBJECTID":628287},"geometry":{"x":168478.79999999888,"y":2545015.3000000007}},{"attributes":{"ID":628315,"DIS_CODE":0,"TOWNNAME":"東區","LI":"和平里","LIN":"4鄰","STREET":"東門路","SECT":"三段","MAREA":" ","LANE":" ","ALLEY":" ","HOUSE_NO":"２４４號","E_COORD97":171599.56,"N_COORD97":2541886.9100000001,"ADDRESS":"東門路三段２４４號","OBJECTID":628288},"geometry":{"x":171599.56000000145,"y":2541886.910000002}},{"attributes":{"ID":628316,"DIS_CODE":0,"TOWNNAME":"北區","LI":"和順里","LIN":"4鄰","STREET":"西門路","SECT":"三段","MAREA":" ","LANE":" ","ALLEY":" ","HOUSE_NO":"１９５號","E_COORD97":168481.63,"N_COORD97":2545019.2200000002,"ADDRESS":"西門路三段１９５號","OBJECTID":628289},"geometry":{"x":168481.62999999989,"y":2545019.2200000007}},{"attributes":{"ID":628317,"DIS_CODE":0,"TOWNNAME":"北區","LI":"和順里","LIN":"4鄰","STREET":"西門路","SECT":"三段","MAREA":" ","LANE":" ","ALLEY":" ","HOUSE_NO":"１９７號","E_COORD97":168483.37,"N_COORD97":2545023.1400000001,"ADDRESS":"西門路三段１９７號","OBJECTID":628290},"geometry":{"x":168483.37000000011,"y":2545023.1400000006}},{"attributes":{"ID":628318,"DIS_CODE":0,"TOWNNAME":"北區","LI":"和順里","LIN":"4鄰","STREET":"西門路","SECT":"三段","MAREA":" ","LANE":" ","ALLEY":" ","HOUSE_NO":"１９９號","E_COORD97":168485.98999999999,"N_COORD97":2545027.8199999998,"ADDRESS":"西門路三段１９９號","OBJECTID":628291},"geometry":{"x":168485.99000000022,"y":2545027.8200000003}},{"attributes":{"ID":628319,"DIS_CODE":0,"TOWNNAME":"北區","LI":"和順里","LIN":"4鄰","STREET":"西門路","SECT":"三段","MAREA":" ","LANE":" ","ALLEY":" ","HOUSE_NO":"２０１號","E_COORD97":168488.39000000001,"N_COORD97":2545031.2999999998,"ADDRESS":"西門路三段２０１號","OBJECTID":628292},"geometry":{"x":168488.39000000153,"y":2545031.3000000026}},{"attributes":{"ID":628320,"DIS_CODE":0,"TOWNNAME":"北區","LI":"和順里","LIN":"4鄰","STREET":"西門路","SECT":"三段","MAREA":" ","LANE":" ","ALLEY":" ","HOUSE_NO":"２０３號","E_COORD97":168490.79000000001,"N_COORD97":2545035.6600000001,"ADDRESS":"西門路三段２０３號","OBJECTID":628293},"geometry":{"x":168490.79000000004,"y":2545035.6600000001}},{"attributes":{"ID":628321,"DIS_CODE":0,"TOWNNAME":"北區","LI":"和順里","LIN":"4鄰","STREET":"西門路","SECT":"三段","MAREA":" ","LANE":" ","ALLEY":" ","HOUSE_NO":"２０５號","E_COORD97":168493.39999999999,"N_COORD97":2545039.5800000001,"ADDRESS":"西門路三段２０５號","OBJECTID":628294},"geometry":{"x":168493.40000000037,"y":2545039.5800000001}},{"attributes":{"ID":628322,"DIS_CODE":0,"TOWNNAME":"北區","LI":"和順里","LIN":"4鄰","STREET":"西門路","SECT":"三段","MAREA":" ","LANE":" ","ALLEY":" ","HOUSE_NO":"２０７號","E_COORD97":168497.32000000001,"N_COORD97":2545042.6299999999,"ADDRESS":"西門路三段２０７號","OBJECTID":628295},"geometry":{"x":168497.3200000003,"y":2545042.6299999971}},{"attributes":{"ID":628323,"DIS_CODE":0,"TOWNNAME":"北區","LI":"和順里","LIN":"4鄰","STREET":"西門路","SECT":"三段","MAREA":" ","LANE":" ","ALLEY":" ","HOUSE_NO":"２０９號","E_COORD97":168500.81,"N_COORD97":2545046.5499999998,"ADDRESS":"西門路三段２０９號","OBJECTID":628296},"geometry":{"x":168500.81000000052,"y":2545046.5500000026}},{"attributes":{"ID":628324,"DIS_CODE":0,"TOWNNAME":"北區","LI":"和順里","LIN":"4鄰","STREET":"西門路","SECT":"三段","MAREA":" ","LANE":" ","ALLEY":" ","HOUSE_NO":"２１１號","E_COORD97":168503.64999999999,"N_COORD97":2545050.0299999998,"ADDRESS":"西門路三段２１１號","OBJECTID":628297},"geometry":{"x":168503.65000000037,"y":2545050.0299999993}},{"attributes":{"ID":628325,"DIS_CODE":0,"TOWNNAME":"北區","LI":"和順里","LIN":"4鄰","STREET":"西門路","SECT":"三段","MAREA":" ","LANE":" ","ALLEY":" ","HOUSE_NO":"２１３號","E_COORD97":168507.13,"N_COORD97":2545054.1699999999,"ADDRESS":"西門路三段２１３號","OBJECTID":628298},"geometry":{"x":168507.12999999896,"y":2545054.1700000018}},{"attributes":{"ID":628326,"DIS_CODE":0,"TOWNNAME":"北區","LI":"和順里","LIN":"4鄰","STREET":"西門路","SECT":"三段","MAREA":" ","LANE":" ","ALLEY":" ","HOUSE_NO":"２１５號","E_COORD97":168512.14999999999,"N_COORD97":2545058.2999999998,"ADDRESS":"西門路三段２１５號","OBJECTID":628299},"geometry":{"x":168512.15000000037,"y":2545058.3000000026}},{"attributes":{"ID":628327,"DIS_CODE":0,"TOWNNAME":"北區","LI":"和順里","LIN":"4鄰","STREET":"西門路","SECT":"三段","MAREA":" ","LANE":" ","ALLEY":" ","HOUSE_NO":"２１７號","E_COORD97":168518.47,"N_COORD97":2545064.6200000001,"ADDRESS":"西門路三段２１７號","OBJECTID":628300},"geometry":{"x":168518.4700000016,"y":2545064.620000001}},{"attributes":{"ID":628328,"DIS_CODE":0,"TOWNNAME":"北區","LI":"和順里","LIN":"4鄰","STREET":"西門路","SECT":"三段","MAREA":" ","LANE":" ","ALLEY":" ","HOUSE_NO":"２２３號","E_COORD97":168526,"N_COORD97":2545097.8900000001,"ADDRESS":"西門路三段２２３號","OBJECTID":628301},"geometry":{"x":168526.00000000093,"y":2545097.8900000025}},{"attributes":{"ID":628329,"DIS_CODE":0,"TOWNNAME":"東區","LI":"和平里","LIN":"18鄰","STREET":"仁和路","SECT":" ","MAREA":" ","LANE":" ","ALLEY":" ","HOUSE_NO":"７９號之８","E_COORD97":171281.37,"N_COORD97":2541541.75,"ADDRESS":"仁和路７９號之８","OBJECTID":628302},"geometry":{"x":171281.37000000104,"y":2541541.7500000019}},{"attributes":{"ID":628330,"DIS_CODE":0,"TOWNNAME":"東區","LI":"和平里","LIN":"18鄰","STREET":"仁和路","SECT":" ","MAREA":" ","LANE":" ","ALLEY":" ","HOUSE_NO":"７９號之９","E_COORD97":171290.31,"N_COORD97":2541545.6299999999,"ADDRESS":"仁和路７９號之９","OBJECTID":628303},"geometry":{"x":171290.30999999959,"y":2541545.629999999}},{"attributes":{"ID":628331,"DIS_CODE":0,"TOWNNAME":"東區","LI":"忠孝里","LIN":"26鄰","STREET":"崇明一街","SECT":" ","MAREA":" ","LANE":" ","ALLEY":" ","HOUSE_NO":"４３號之１","E_COORD97":169605.63,"N_COORD97":2542467.9100000001,"ADDRESS":"崇明一街４３號之１","OBJECTID":628304},"geometry":{"x":169605.62999999896,"y":2542467.9100000001}},{"attributes":{"ID":628332,"DIS_CODE":0,"TOWNNAME":"東區","LI":"忠孝里","LIN":"26鄰","STREET":"崇明一街","SECT":" ","MAREA":" ","LANE":" ","ALLEY":" ","HOUSE_NO":"４３號之２","E_COORD97":169610.59,"N_COORD97":2542469.2599999998,"ADDRESS":"崇明一街４３號之２","OBJECTID":628305},"geometry":{"x":169610.58999999985,"y":2542469.2599999979}},{"attributes":{"ID":628333,"DIS_CODE":0,"TOWNNAME":"東區","LI":"虎尾里","LIN":"24鄰","STREET":"東成街","SECT":" ","MAREA":" ","LANE":" ","ALLEY":" ","HOUSE_NO":"２２０號","E_COORD97":171934.87,"N_COORD97":2542282.0800000001,"ADDRESS":"東成街２２０號","OBJECTID":628306},"geometry":{"x":171934.87000000011,"y":2542282.0800000019}},{"attributes":{"ID":628334,"DIS_CODE":0,"TOWNNAME":"東區","LI":"虎尾里","LIN":"24鄰","STREET":"東成街","SECT":" ","MAREA":" ","LANE":" ","ALLEY":" ","HOUSE_NO":"２２４號","E_COORD97":171949.16,"N_COORD97":2542281.5899999999,"ADDRESS":"東成街２２４號","OBJECTID":628307},"geometry":{"x":171949.16000000108,"y":2542281.5900000017}},{"attributes":{"ID":628335,"DIS_CODE":0,"TOWNNAME":"安平區","LI":"億載里","LIN":"4鄰","STREET":"光州八街","SECT":" ","MAREA":" ","LANE":" ","ALLEY":" ","HOUSE_NO":"１１２號","E_COORD97":163642.78,"N_COORD97":2543655.54,"ADDRESS":"光州八街１１２號","OBJECTID":628308},"geometry":{"x":163642.78000000026,"y":2543655.5399999991}},{"attributes":{"ID":628336,"DIS_CODE":0,"TOWNNAME":"安平區","LI":"億載里","LIN":"4鄰","STREET":"光州八街","SECT":" ","MAREA":" ","LANE":" ","ALLEY":" ","HOUSE_NO":"１１４號","E_COORD97":163647.88,"N_COORD97":2543655.9300000002,"ADDRESS":"光州八街１１４號","OBJECTID":628309},"geometry":{"x":163647.88000000082,"y":2543655.9300000016}},{"attributes":{"ID":628337,"DIS_CODE":0,"TOWNNAME":"安平區","LI":"億載里","LIN":"4鄰","STREET":"光州八街","SECT":" ","MAREA":" ","LANE":" ","ALLEY":" ","HOUSE_NO":"１１６號","E_COORD97":163653.38,"N_COORD97":2543655.9300000002,"ADDRESS":"光州八街１１６號","OBJECTID":628310},"geometry":{"x":163653.37999999989,"y":2543655.9300000016}},{"attributes":{"ID":628338,"DIS_CODE":0,"TOWNNAME":"安平區","LI":"億載里","LIN":"4鄰","STREET":"光州八街","SECT":" ","MAREA":" ","LANE":" ","ALLEY":" ","HOUSE_NO":"１１８號","E_COORD97":163658.87,"N_COORD97":2543655.54,"ADDRESS":"光州八街１１８號","OBJECTID":628311},"geometry":{"x":163658.87000000011,"y":2543655.5399999991}},{"attributes":{"ID":628339,"DIS_CODE":0,"TOWNNAME":"安平區","LI":"億載里","LIN":"4鄰","STREET":"光州八街","SECT":" ","MAREA":" ","LANE":" ","ALLEY":" ","HOUSE_NO":"１２０號","E_COORD97":163664.76000000001,"N_COORD97":2543655.9300000002,"ADDRESS":"光州八街１２０號","OBJECTID":628312},"geometry":{"x":163664.76000000164,"y":2543655.9300000016}},{"attributes":{"ID":628340,"DIS_CODE":0,"TOWNNAME":"安平區","LI":"億載里","LIN":"4鄰","STREET":"光州八街","SECT":" ","MAREA":" ","LANE":" ","ALLEY":" ","HOUSE_NO":"３７號","E_COORD97":163744.81,"N_COORD97":2543748.5099999998,"ADDRESS":"光州八街３７號","OBJECTID":628313},"geometry":{"x":163744.80999999959,"y":2543748.5099999998}},{"attributes":{"ID":628341,"DIS_CODE":0,"TOWNNAME":"安平區","LI":"億載里","LIN":"4鄰","STREET":"光州八街","SECT":" ","MAREA":" ","LANE":" ","ALLEY":" ","HOUSE_NO":"３９號","E_COORD97":163737.35000000001,"N_COORD97":2543744.5899999999,"ADDRESS":"光州八街３９號","OBJECTID":628314},"geometry":{"x":163737.35000000056,"y":2543744.5899999999}},{"attributes":{"ID":628342,"DIS_CODE":0,"TOWNNAME":"安平區","LI":"億載里","LIN":"4鄰","STREET":"光州八街","SECT":" ","MAREA":" ","LANE":" ","ALLEY":" ","HOUSE_NO":"４１號","E_COORD97":163731.85999999999,"N_COORD97":2543743.4100000001,"ADDRESS":"光州八街４１號","OBJECTID":628315},"geometry":{"x":163731.86000000034,"y":2543743.4099999983}},{"attributes":{"ID":628343,"DIS_CODE":0,"TOWNNAME":"安平區","LI":"億載里","LIN":"4鄰","STREET":"光州八街","SECT":" ","MAREA":" ","LANE":" ","ALLEY":" ","HOUSE_NO":"４３號","E_COORD97":163725.17999999999,"N_COORD97":2543743.02,"ADDRESS":"光州八街４３號","OBJECTID":628316},"geometry":{"x":163725.18000000063,"y":2543743.0200000014}},{"attributes":{"ID":628344,"DIS_CODE":0,"TOWNNAME":"安平區","LI":"億載里","LIN":"4鄰","STREET":"光州八街","SECT":" ","MAREA":" ","LANE":" ","ALLEY":" ","HOUSE_NO":"４５號","E_COORD97":163718.89999999999,"N_COORD97":2543741.4500000002,"ADDRESS":"光州八街４５號","OBJECTID":628317},"geometry":{"x":163718.9000000013,"y":2543741.4499999993}},{"attributes":{"ID":628345,"DIS_CODE":0,"TOWNNAME":"安平區","LI":"億載里","LIN":"4鄰","STREET":"光州八街","SECT":" ","MAREA":" ","LANE":" ","ALLEY":" ","HOUSE_NO":"４７號","E_COORD97":163709.48000000001,"N_COORD97":2543739.4900000002,"ADDRESS":"光州八街４７號","OBJECTID":628318},"geometry":{"x":163709.48000000045,"y":2543739.4899999984}},{"attributes":{"ID":628346,"DIS_CODE":0,"TOWNNAME":"安平區","LI":"億載里","LIN":"4鄰","STREET":"光州八街","SECT":" ","MAREA":" ","LANE":" ","ALLEY":" ","HOUSE_NO":"４７號之１","E_COORD97":163707.12,"N_COORD97":2543728.8999999999,"ADDRESS":"光州八街４７號之１","OBJECTID":628319},"geometry":{"x":163707.12000000104,"y":2543728.9000000004}},{"attributes":{"ID":628347,"DIS_CODE":0,"TOWNNAME":"安平區","LI":"億載里","LIN":"4鄰","STREET":"光州八街","SECT":" ","MAREA":" ","LANE":" ","ALLEY":" ","HOUSE_NO":"４７號之１０","E_COORD97":163709.48000000001,"N_COORD97":2543689.6699999999,"ADDRESS":"光州八街４７號之１０","OBJECTID":628320},"geometry":{"x":163709.48000000045,"y":2543689.6699999999}},{"attributes":{"ID":628348,"DIS_CODE":0,"TOWNNAME":"安平區","LI":"億載里","LIN":"4鄰","STREET":"光州八街","SECT":" ","MAREA":" ","LANE":" ","ALLEY":" ","HOUSE_NO":"４７號之１１","E_COORD97":163709.07999999999,"N_COORD97":2543685.75,"ADDRESS":"光州八街４７號之１１","OBJECTID":628321},"geometry":{"x":163709.08000000101,"y":2543685.75}},{"attributes":{"ID":628349,"DIS_CODE":0,"TOWNNAME":"安平區","LI":"億載里","LIN":"4鄰","STREET":"光州八街","SECT":" ","MAREA":" ","LANE":" ","ALLEY":" ","HOUSE_NO":"４７號之２","E_COORD97":163706.73000000001,"N_COORD97":2543723.7999999998,"ADDRESS":"光州八街４７號之２","OBJECTID":628322},"geometry":{"x":163706.73000000138,"y":2543723.8000000007}},{"attributes":{"ID":628350,"DIS_CODE":0,"TOWNNAME":"安平區","LI":"億載里","LIN":"4鄰","STREET":"光州八街","SECT":" ","MAREA":" ","LANE":" ","ALLEY":" ","HOUSE_NO":"４７號之３","E_COORD97":163707.51000000001,"N_COORD97":2543720.27,"ADDRESS":"光州八街４７號之３","OBJECTID":628323},"geometry":{"x":163707.51000000071,"y":2543720.2700000033}},{"attributes":{"ID":628351,"DIS_CODE":0,"TOWNNAME":"安平區","LI":"億載里","LIN":"4鄰","STREET":"光州八街","SECT":" ","MAREA":" ","LANE":" ","ALLEY":" ","HOUSE_NO":"４７號之４","E_COORD97":163707.51000000001,"N_COORD97":2543715.5600000001,"ADDRESS":"光州八街４７號之４","OBJECTID":628324},"geometry":{"x":163707.51000000071,"y":2543715.5600000005}},{"attributes":{"ID":628352,"DIS_CODE":0,"TOWNNAME":"東區","LI":"泉南里","LIN":"4鄰","STREET":"府東街","SECT":" ","MAREA":" ","LANE":" ","ALLEY":" ","HOUSE_NO":"１８０號","E_COORD97":169528.10999999999,"N_COORD97":2543060.8599999999,"ADDRESS":"府東街１８０號","OBJECTID":628325},"geometry":{"x":169528.11000000034,"y":2543060.8599999994}},{"attributes":{"ID":628353,"DIS_CODE":0,"TOWNNAME":"東區","LI":"泉南里","LIN":"4鄰","STREET":"府東街","SECT":" ","MAREA":" ","LANE":" ","ALLEY":" ","HOUSE_NO":"１８１號","E_COORD97":169513.12,"N_COORD97":2543051.46,"ADDRESS":"府東街１８１號","OBJECTID":628326},"geometry":{"x":169513.12000000104,"y":2543051.4600000009}},{"attributes":{"ID":628354,"DIS_CODE":0,"TOWNNAME":"東區","LI":"泉南里","LIN":"4鄰","STREET":"府東街","SECT":" ","MAREA":" ","LANE":" ","ALLEY":" ","HOUSE_NO":"１８２號","E_COORD97":169523.10999999999,"N_COORD97":2543061.7400000002,"ADDRESS":"府東街１８２號","OBJECTID":628327},"geometry":{"x":169523.11000000034,"y":2543061.7400000002}},{"attributes":{"ID":628355,"DIS_CODE":0,"TOWNNAME":"東區","LI":"泉南里","LIN":"4鄰","STREET":"府東街","SECT":" ","MAREA":" ","LANE":" ","ALLEY":" ","HOUSE_NO":"１８４號","E_COORD97":169518.73000000001,"N_COORD97":2543063.3599999999,"ADDRESS":"府東街１８４號","OBJECTID":628328},"geometry":{"x":169518.73000000045,"y":2543063.3600000013}},{"attributes":{"ID":628356,"DIS_CODE":0,"TOWNNAME":"東區","LI":"泉南里","LIN":"4鄰","STREET":"府東街","SECT":" ","MAREA":" ","LANE":" ","ALLEY":" ","HOUSE_NO":"１８６號","E_COORD97":169514.98999999999,"N_COORD97":2543064.6099999999,"ADDRESS":"府東街１８６號","OBJECTID":628329},"geometry":{"x":169514.99000000022,"y":2543064.6100000013}},{"attributes":{"ID":628357,"DIS_CODE":0,"TOWNNAME":"東區","LI":"泉南里","LIN":"4鄰","STREET":"府東街","SECT":" ","MAREA":" ","LANE":" ","ALLEY":" ","HOUSE_NO":"１８８號","E_COORD97":169509.98999999999,"N_COORD97":2543065.6099999999,"ADDRESS":"府東街１８８號","OBJECTID":628330},"geometry":{"x":169509.99000000022,"y":2543065.6099999994}},{"attributes":{"ID":628358,"DIS_CODE":0,"TOWNNAME":"安平區","LI":"億載里","LIN":"4鄰","STREET":"光州八街","SECT":" ","MAREA":" ","LANE":" ","ALLEY":" ","HOUSE_NO":"４７號之５","E_COORD97":163707.51000000001,"N_COORD97":2543711.6400000001,"ADDRESS":"光州八街４７號之５","OBJECTID":628331},"geometry":{"x":163707.51000000071,"y":2543711.6400000006}},{"attributes":{"ID":628359,"DIS_CODE":0,"TOWNNAME":"安平區","LI":"億載里","LIN":"4鄰","STREET":"光州八街","SECT":" ","MAREA":" ","LANE":" ","ALLEY":" ","HOUSE_NO":"４７號之６","E_COORD97":163708.29999999999,"N_COORD97":2543706.54,"ADDRESS":"光州八街４７號之６","OBJECTID":628332},"geometry":{"x":163708.29999999981,"y":2543706.5399999991}},{"attributes":{"ID":628360,"DIS_CODE":0,"TOWNNAME":"安平區","LI":"億載里","LIN":"4鄰","STREET":"光州八街","SECT":" ","MAREA":" ","LANE":" ","ALLEY":" ","HOUSE_NO":"４７號之７","E_COORD97":163708.29999999999,"N_COORD97":2543702.6099999999,"ADDRESS":"光州八街４７號之７","OBJECTID":628333},"geometry":{"x":163708.29999999981,"y":2543702.6099999994}},{"attributes":{"ID":628361,"DIS_CODE":0,"TOWNNAME":"安平區","LI":"億載里","LIN":"4鄰","STREET":"光州八街","SECT":" ","MAREA":" ","LANE":" ","ALLEY":" ","HOUSE_NO":"４９號之１０","E_COORD97":163696.51999999999,"N_COORD97":2543688.1000000001,"ADDRESS":"光州八街４９號之１０","OBJECTID":628334},"geometry":{"x":163696.51999999955,"y":2543688.1000000015}},{"attributes":{"ID":628362,"DIS_CODE":0,"TOWNNAME":"安平區","LI":"億載里","LIN":"4鄰","STREET":"光州八街","SECT":" ","MAREA":" ","LANE":" ","ALLEY":" ","HOUSE_NO":"４９號之１１","E_COORD97":163698.48000000001,"N_COORD97":2543684.96,"ADDRESS":"光州八街４９號之１１","OBJECTID":628335},"geometry":{"x":163698.48000000138,"y":2543684.9600000009}},{"attributes":{"ID":628363,"DIS_CODE":0,"TOWNNAME":"安平區","LI":"億載里","LIN":"4鄰","STREET":"光州八街","SECT":" ","MAREA":" ","LANE":" ","ALLEY":" ","HOUSE_NO":"４９號之２","E_COORD97":163694.95000000001,"N_COORD97":2543723.7999999998,"ADDRESS":"光州八街４９號之２","OBJECTID":628336},"geometry":{"x":163694.95000000112,"y":2543723.8000000007}},{"attributes":{"ID":628364,"DIS_CODE":0,"TOWNNAME":"安平區","LI":"億載里","LIN":"4鄰","STREET":"光州八街","SECT":" ","MAREA":" ","LANE":" ","ALLEY":" ","HOUSE_NO":"４９號之３","E_COORD97":163694.95000000001,"N_COORD97":2543719.48,"ADDRESS":"光州八街４９號之３","OBJECTID":628337},"geometry":{"x":163694.95000000112,"y":2543719.4799999986}},{"attributes":{"ID":628365,"DIS_CODE":0,"TOWNNAME":"安平區","LI":"億載里","LIN":"4鄰","STREET":"光州八街","SECT":" ","MAREA":" ","LANE":" ","ALLEY":" ","HOUSE_NO":"４９號之４","E_COORD97":163695.34,"N_COORD97":2543714.7799999998,"ADDRESS":"光州八街４９號之４","OBJECTID":628338},"geometry":{"x":163695.34000000078,"y":2543714.7800000012}},{"attributes":{"ID":628366,"DIS_CODE":0,"TOWNNAME":"安平區","LI":"億載里","LIN":"4鄰","STREET":"光州八街","SECT":" ","MAREA":" ","LANE":" ","ALLEY":" ","HOUSE_NO":"４９號之５","E_COORD97":163695.34,"N_COORD97":2543710.0699999998,"ADDRESS":"光州八街４９號之５","OBJECTID":628339},"geometry":{"x":163695.34000000078,"y":2543710.0700000022}},{"attributes":{"ID":628367,"DIS_CODE":0,"TOWNNAME":"安平區","LI":"億載里","LIN":"4鄰","STREET":"光州八街","SECT":" ","MAREA":" ","LANE":" ","ALLEY":" ","HOUSE_NO":"４９號之６","E_COORD97":163695.73999999999,"N_COORD97":2543705.3599999999,"ADDRESS":"光州八街４９號之６","OBJECTID":628340},"geometry":{"x":163695.74000000022,"y":2543705.3599999994}},{"attributes":{"ID":628368,"DIS_CODE":0,"TOWNNAME":"安平區","LI":"億載里","LIN":"4鄰","STREET":"光州八街","SECT":" ","MAREA":" ","LANE":" ","ALLEY":" ","HOUSE_NO":"４９號之７","E_COORD97":163696.13,"N_COORD97":2543702.2200000002,"ADDRESS":"光州八街４９號之７","OBJECTID":628341},"geometry":{"x":163696.12999999989,"y":2543702.2200000025}},{"attributes":{"ID":628369,"DIS_CODE":0,"TOWNNAME":"安平區","LI":"億載里","LIN":"4鄰","STREET":"光州八街","SECT":" ","MAREA":" ","LANE":" ","ALLEY":" ","HOUSE_NO":"４９號之８","E_COORD97":163696.13,"N_COORD97":2543697.52,"ADDRESS":"光州八街４９號之８","OBJECTID":628342},"geometry":{"x":163696.12999999989,"y":2543697.5199999996}},{"attributes":{"ID":628370,"DIS_CODE":0,"TOWNNAME":"安平區","LI":"億載里","LIN":"4鄰","STREET":"光州八街","SECT":" ","MAREA":" ","LANE":" ","ALLEY":" ","HOUSE_NO":"４９號之９","E_COORD97":163696.91,"N_COORD97":2543692.8100000001,"ADDRESS":"光州八街４９號之９","OBJECTID":628343},"geometry":{"x":163696.91000000108,"y":2543692.8100000005}},{"attributes":{"ID":628371,"DIS_CODE":0,"TOWNNAME":"安平區","LI":"億載里","LIN":"4鄰","STREET":"光州八街","SECT":" ","MAREA":" ","LANE":" ","ALLEY":" ","HOUSE_NO":"５１號","E_COORD97":163676.5,"N_COORD97":2543730.0800000001,"ADDRESS":"光州八街５１號","OBJECTID":628344},"geometry":{"x":163676.5,"y":2543730.0800000019}},{"attributes":{"ID":628372,"DIS_CODE":0,"TOWNNAME":"安平區","LI":"億載里","LIN":"4鄰","STREET":"光州八街","SECT":" ","MAREA":" ","LANE":" ","ALLEY":" ","HOUSE_NO":"５３號","E_COORD97":163676.5,"N_COORD97":2543726.1499999999,"ADDRESS":"光州八街５３號","OBJECTID":628345},"geometry":{"x":163676.5,"y":2543726.1500000022}},{"attributes":{"ID":628373,"DIS_CODE":0,"TOWNNAME":"安平區","LI":"億載里","LIN":"4鄰","STREET":"光州八街","SECT":" ","MAREA":" ","LANE":" ","ALLEY":" ","HOUSE_NO":"５５號","E_COORD97":163676.89000000001,"N_COORD97":2543721.8399999999,"ADDRESS":"光州八街５５號","OBJECTID":628346},"geometry":{"x":163676.88999999966,"y":2543721.8399999999}},{"attributes":{"ID":628374,"DIS_CODE":0,"TOWNNAME":"安平區","LI":"億載里","LIN":"4鄰","STREET":"光州八街","SECT":" ","MAREA":" ","LANE":" ","ALLEY":" ","HOUSE_NO":"５７號","E_COORD97":163676.10999999999,"N_COORD97":2543717.52,"ADDRESS":"光州八街５７號","OBJECTID":628347},"geometry":{"x":163676.11000000034,"y":2543717.5199999996}},{"attributes":{"ID":628375,"DIS_CODE":0,"TOWNNAME":"安平區","LI":"億載里","LIN":"4鄰","STREET":"光州八街","SECT":" ","MAREA":" ","LANE":" ","ALLEY":" ","HOUSE_NO":"５９號","E_COORD97":163676.5,"N_COORD97":2543713.21,"ADDRESS":"光州八街５９號","OBJECTID":628348},"geometry":{"x":163676.5,"y":2543713.2100000028}},{"attributes":{"ID":628376,"DIS_CODE":0,"TOWNNAME":"東區","LI":"泉南里","LIN":"13鄰","STREET":"樹林街","SECT":"一段","MAREA":" ","LANE":" ","ALLEY":" ","HOUSE_NO":"１０６號","E_COORD97":169413.87,"N_COORD97":2543009.0600000001,"ADDRESS":"樹林街一段１０６號","OBJECTID":628349},"geometry":{"x":169413.87000000011,"y":2543009.0600000005}},{"attributes":{"ID":628377,"DIS_CODE":0,"TOWNNAME":"東區","LI":"泉南里","LIN":"13鄰","STREET":"樹林街","SECT":"一段","MAREA":" ","LANE":" ","ALLEY":" ","HOUSE_NO":"８８號","E_COORD97":169466.10999999999,"N_COORD97":2542991.4500000002,"ADDRESS":"樹林街一段８８號","OBJECTID":628350},"geometry":{"x":169466.11000000127,"y":2542991.4499999993}},{"attributes":{"ID":628378,"DIS_CODE":0,"TOWNNAME":"東區","LI":"泉南里","LIN":"13鄰","STREET":"樹林街","SECT":"一段","MAREA":" ","LANE":" ","ALLEY":" ","HOUSE_NO":"９０號","E_COORD97":169460.82999999999,"N_COORD97":2542993.1200000001,"ADDRESS":"樹林街一段９０號","OBJECTID":628351},"geometry":{"x":169460.83000000101,"y":2542993.120000001}},{"attributes":{"ID":628379,"DIS_CODE":0,"TOWNNAME":"東區","LI":"泉南里","LIN":"13鄰","STREET":"樹林街","SECT":"一段","MAREA":" ","LANE":" ","ALLEY":" ","HOUSE_NO":"９２號","E_COORD97":169456.98000000001,"N_COORD97":2542994.6600000001,"ADDRESS":"樹林街一段９２號","OBJECTID":628352},"geometry":{"x":169456.98000000138,"y":2542994.6600000001}},{"attributes":{"ID":628380,"DIS_CODE":0,"TOWNNAME":"東區","LI":"泉南里","LIN":"13鄰","STREET":"樹林街","SECT":"一段","MAREA":" ","LANE":" ","ALLEY":" ","HOUSE_NO":"９４號","E_COORD97":169453.12,"N_COORD97":2542996.2000000002,"ADDRESS":"樹林街一段９４號","OBJECTID":628353},"geometry":{"x":169453.12000000011,"y":2542996.2000000011}},{"attributes":{"ID":628381,"DIS_CODE":0,"TOWNNAME":"東區","LI":"泉南里","LIN":"13鄰","STREET":"樹林街","SECT":"一段","MAREA":" ","LANE":" ","ALLEY":" ","HOUSE_NO":"９６號","E_COORD97":169448.35999999999,"N_COORD97":2542997.8700000001,"ADDRESS":"樹林街一段９６號","OBJECTID":628354},"geometry":{"x":169448.36000000034,"y":2542997.870000001}},{"attributes":{"ID":628382,"DIS_CODE":0,"TOWNNAME":"東區","LI":"泉南里","LIN":"13鄰","STREET":"樹林街","SECT":"一段","MAREA":" ","LANE":" ","ALLEY":" ","HOUSE_NO":"９８號","E_COORD97":169434.73000000001,"N_COORD97":2543002.1099999999,"ADDRESS":"樹林街一段９８號","OBJECTID":628355},"geometry":{"x":169434.73000000138,"y":2543002.1099999975}},{"attributes":{"ID":628383,"DIS_CODE":0,"TOWNNAME":"東區","LI":"泉南里","LIN":"15鄰","STREET":"府連東路","SECT":" ","MAREA":" ","LANE":" ","ALLEY":" ","HOUSE_NO":"３１號","E_COORD97":169784.91,"N_COORD97":2542778.9700000002,"ADDRESS":"府連東路３１號","OBJECTID":628356},"geometry":{"x":169784.91000000015,"y":2542778.9700000025}},{"attributes":{"ID":628384,"DIS_CODE":0,"TOWNNAME":"安平區","LI":"億載里","LIN":"4鄰","STREET":"光州八街","SECT":" ","MAREA":" ","LANE":" ","ALLEY":" ","HOUSE_NO":"６１號","E_COORD97":163676.89000000001,"N_COORD97":2543708.5,"ADDRESS":"光州八街６１號","OBJECTID":628357},"geometry":{"x":163676.88999999966,"y":2543708.5}},{"attributes":{"ID":628385,"DIS_CODE":0,"TOWNNAME":"安平區","LI":"億載里","LIN":"4鄰","STREET":"光州八街","SECT":" ","MAREA":" ","LANE":" ","ALLEY":" ","HOUSE_NO":"６３號","E_COORD97":163677.28,"N_COORD97":2543704.1800000002,"ADDRESS":"光州八街６３號","OBJECTID":628358},"geometry":{"x":163677.28000000119,"y":2543704.1800000034}},{"attributes":{"ID":628386,"DIS_CODE":0,"TOWNNAME":"安平區","LI":"億載里","LIN":"4鄰","STREET":"光州八街","SECT":" ","MAREA":" ","LANE":" ","ALLEY":" ","HOUSE_NO":"６５號","E_COORD97":163677.28,"N_COORD97":2543700.6499999999,"ADDRESS":"光州八街６５號","OBJECTID":628359},"geometry":{"x":163677.28000000119,"y":2543700.6500000004}},{"attributes":{"ID":628387,"DIS_CODE":0,"TOWNNAME":"安平區","LI":"億載里","LIN":"4鄰","STREET":"光州八街","SECT":" ","MAREA":" ","LANE":" ","ALLEY":" ","HOUSE_NO":"６７號","E_COORD97":163677.28,"N_COORD97":2543696.3399999999,"ADDRESS":"光州八街６７號","OBJECTID":628360},"geometry":{"x":163677.28000000119,"y":2543696.3400000036}},{"attributes":{"ID":628388,"DIS_CODE":0,"TOWNNAME":"安平區","LI":"億載里","LIN":"4鄰","STREET":"光州八街","SECT":" ","MAREA":" ","LANE":" ","ALLEY":" ","HOUSE_NO":"６９號","E_COORD97":163678.07000000001,"N_COORD97":2543692.02,"ADDRESS":"光州八街６９號","OBJECTID":628361},"geometry":{"x":163678.0700000003,"y":2543692.0200000014}},{"attributes":{"ID":628389,"DIS_CODE":0,"TOWNNAME":"安平區","LI":"億載里","LIN":"4鄰","STREET":"光州八街","SECT":" ","MAREA":" ","LANE":" ","ALLEY":" ","HOUSE_NO":"７１號","E_COORD97":163678.45999999999,"N_COORD97":2543688.1000000001,"ADDRESS":"光州八街７１號","OBJECTID":628362},"geometry":{"x":163678.45999999996,"y":2543688.1000000015}},{"attributes":{"ID":628390,"DIS_CODE":0,"TOWNNAME":"安平區","LI":"億載里","LIN":"4鄰","STREET":"光州八街","SECT":" ","MAREA":" ","LANE":" ","ALLEY":" ","HOUSE_NO":"７３號","E_COORD97":163678.85000000001,"N_COORD97":2543683.3900000001,"ADDRESS":"光州八街７３號","OBJECTID":628363},"geometry":{"x":163678.84999999963,"y":2543683.3900000043}},{"attributes":{"ID":628391,"DIS_CODE":0,"TOWNNAME":"安平區","LI":"億載里","LIN":"4鄰","STREET":"光州八街","SECT":" ","MAREA":" ","LANE":" ","ALLEY":" ","HOUSE_NO":"７８號","E_COORD97":163665.14999999999,"N_COORD97":2543667.7000000002,"ADDRESS":"光州八街７８號","OBJECTID":628364},"geometry":{"x":163665.1500000013,"y":2543667.7000000011}},{"attributes":{"ID":628392,"DIS_CODE":0,"TOWNNAME":"安平區","LI":"億載里","LIN":"4鄰","STREET":"光州八街","SECT":" ","MAREA":" ","LANE":" ","ALLEY":" ","HOUSE_NO":"８０號","E_COORD97":163659.26000000001,"N_COORD97":2543667.3100000001,"ADDRESS":"光州八街８０號","OBJECTID":628365},"geometry":{"x":163659.25999999978,"y":2543667.3100000024}},{"attributes":{"ID":628393,"DIS_CODE":0,"TOWNNAME":"安平區","LI":"億載里","LIN":"4鄰","STREET":"光州八街","SECT":" ","MAREA":" ","LANE":" ","ALLEY":" ","HOUSE_NO":"８２號","E_COORD97":163653.38,"N_COORD97":2543668.0899999999,"ADDRESS":"光州八街８２號","OBJECTID":628366},"geometry":{"x":163653.37999999989,"y":2543668.0900000017}},{"attributes":{"ID":628394,"DIS_CODE":0,"TOWNNAME":"安平區","LI":"億載里","LIN":"4鄰","STREET":"光州八街","SECT":" ","MAREA":" ","LANE":" ","ALLEY":" ","HOUSE_NO":"８６號","E_COORD97":163642.78,"N_COORD97":2543669.27,"ADDRESS":"光州八街８６號","OBJECTID":628367},"geometry":{"x":163642.78000000026,"y":2543669.2700000033}},{"attributes":{"ID":628395,"DIS_CODE":0,"TOWNNAME":"安平區","LI":"億載里","LIN":"4鄰","STREET":"光州八街","SECT":" ","MAREA":" ","LANE":" ","ALLEY":" ","HOUSE_NO":"８８號","E_COORD97":163637.67000000001,"N_COORD97":2543668.4900000002,"ADDRESS":"光州八街８８號","OBJECTID":628368},"geometry":{"x":163637.66999999993,"y":2543668.4900000039}},{"attributes":{"ID":628396,"DIS_CODE":0,"TOWNNAME":"安平區","LI":"億載里","LIN":"4鄰","STREET":"光州八街","SECT":" ","MAREA":" ","LANE":" ","ALLEY":" ","HOUSE_NO":"９０號","E_COORD97":163632.57000000001,"N_COORD97":2543668.4900000002,"ADDRESS":"光州八街９０號","OBJECTID":628369},"geometry":{"x":163632.5700000003,"y":2543668.4900000039}},{"attributes":{"ID":628397,"DIS_CODE":0,"TOWNNAME":"安平區","LI":"億載里","LIN":"4鄰","STREET":"光州八街","SECT":" ","MAREA":" ","LANE":" ","ALLEY":" ","HOUSE_NO":"９２號","E_COORD97":163626.29000000001,"N_COORD97":2543668.8799999999,"ADDRESS":"光州八街９２號","OBJECTID":628370},"geometry":{"x":163626.29000000097,"y":2543668.8800000008}},{"attributes":{"ID":628398,"DIS_CODE":0,"TOWNNAME":"安平區","LI":"億載里","LIN":"4鄰","STREET":"光州八街","SECT":" ","MAREA":" ","LANE":" ","ALLEY":" ","HOUSE_NO":"９４號","E_COORD97":163620.79000000001,"N_COORD97":2543669.6600000001,"ADDRESS":"光州八街９４號","OBJECTID":628371},"geometry":{"x":163620.7900000019,"y":2543669.6600000001}},{"attributes":{"ID":628399,"DIS_CODE":0,"TOWNNAME":"安平區","LI":"億載里","LIN":"4鄰","STREET":"光州八街","SECT":" ","MAREA":" ","LANE":" ","ALLEY":" ","HOUSE_NO":"９６號","E_COORD97":163615.29000000001,"N_COORD97":2543670.0600000001,"ADDRESS":"光州八街９６號","OBJECTID":628372},"geometry":{"x":163615.29000000004,"y":2543670.0600000024}},{"attributes":{"ID":628400,"DIS_CODE":0,"TOWNNAME":"安平區","LI":"億載里","LIN":"4鄰","STREET":"光州八街","SECT":" ","MAREA":" ","LANE":" ","ALLEY":" ","HOUSE_NO":"９８號","E_COORD97":163609.79999999999,"N_COORD97":2543668.8799999999,"ADDRESS":"光州八街９８號","OBJECTID":628373},"geometry":{"x":163609.79999999981,"y":2543668.8800000008}},{"attributes":{"ID":628401,"DIS_CODE":0,"TOWNNAME":"東區","LI":"泉南里","LIN":"20鄰","STREET":"府連東路","SECT":" ","MAREA":" ","LANE":" ","ALLEY":" ","HOUSE_NO":"１０號","E_COORD97":169710.89999999999,"N_COORD97":2542785.6400000001,"ADDRESS":"府連東路１０號","OBJECTID":628374},"geometry":{"x":169710.90000000037,"y":2542785.6400000006}},{"attributes":{"ID":628402,"DIS_CODE":0,"TOWNNAME":"北區","LI":"文成里","LIN":"4鄰","STREET":"文賢二街","SECT":" ","MAREA":" ","LANE":" ","ALLEY":" ","HOUSE_NO":"１６３號","E_COORD97":167753.45999999999,"N_COORD97":2545590.9199999999,"ADDRESS":"文賢二街１６３號","OBJECTID":628375},"geometry":{"x":167753.45999999996,"y":2545590.9199999981}},{"attributes":{"ID":628403,"DIS_CODE":0,"TOWNNAME":"北區","LI":"文成里","LIN":"4鄰","STREET":"文賢二街","SECT":" ","MAREA":" ","LANE":" ","ALLEY":" ","HOUSE_NO":"１７１號","E_COORD97":167743.51000000001,"N_COORD97":2545617.9900000002,"ADDRESS":"文賢二街１７１號","OBJECTID":628376},"geometry":{"x":167743.51000000164,"y":2545617.9900000039}},{"attributes":{"ID":628404,"DIS_CODE":0,"TOWNNAME":"北區","LI":"文元里","LIN":"4鄰","STREET":"中華北路","SECT":"二段","MAREA":" ","LANE":" ","ALLEY":" ","HOUSE_NO":"３７號","E_COORD97":167499.47,"N_COORD97":2546566.3500000001,"ADDRESS":"中華北路二段３７號","OBJECTID":628377},"geometry":{"x":167499.46999999881,"y":2546566.3499999996}},{"attributes":{"ID":628405,"DIS_CODE":0,"TOWNNAME":"北區","LI":"文元里","LIN":"4鄰","STREET":"中華北路","SECT":"二段","MAREA":" ","LANE":" ","ALLEY":" ","HOUSE_NO":"３８號","E_COORD97":167503.01999999999,"N_COORD97":2546568.6400000001,"ADDRESS":"中華北路二段３８號","OBJECTID":628378},"geometry":{"x":167503.02000000048,"y":2546568.6400000006}},{"attributes":{"ID":628406,"DIS_CODE":0,"TOWNNAME":"北區","LI":"文元里","LIN":"4鄰","STREET":"中華北路","SECT":"二段","MAREA":" ","LANE":" ","ALLEY":" ","HOUSE_NO":"３９號","E_COORD97":167507.26999999999,"N_COORD97":2546570.2400000002,"ADDRESS":"中華北路二段３９號","OBJECTID":628379},"geometry":{"x":167507.26999999955,"y":2546570.2400000021}},{"attributes":{"ID":628407,"DIS_CODE":0,"TOWNNAME":"北區","LI":"文元里","LIN":"4鄰","STREET":"中華北路","SECT":"二段","MAREA":" ","LANE":" ","ALLEY":" ","HOUSE_NO":"４０號","E_COORD97":167510.98000000001,"N_COORD97":2546572.1800000002,"ADDRESS":"中華北路二段４０號","OBJECTID":628380},"geometry":{"x":167510.98000000138,"y":2546572.1800000034}},{"attributes":{"ID":628408,"DIS_CODE":0,"TOWNNAME":"北區","LI":"重興里","LIN":"4鄰","STREET":"東豐路","SECT":" ","MAREA":" ","LANE":" ","ALLEY":" ","HOUSE_NO":"３６１號","E_COORD97":170566.31,"N_COORD97":2544794.7799999998,"ADDRESS":"東豐路３６１號","OBJECTID":628381},"geometry":{"x":170566.30999999959,"y":2544794.7800000031}},{"attributes":{"ID":628409,"DIS_CODE":0,"TOWNNAME":"北區","LI":"重興里","LIN":"4鄰","STREET":"東豐路","SECT":" ","MAREA":" ","LANE":" ","ALLEY":" ","HOUSE_NO":"３６３號","E_COORD97":170570.66,"N_COORD97":2544793.52,"ADDRESS":"東豐路３６３號","OBJECTID":628382},"geometry":{"x":170570.66000000108,"y":2544793.5200000033}},{"attributes":{"ID":628410,"DIS_CODE":0,"TOWNNAME":"北區","LI":"重興里","LIN":"4鄰","STREET":"東豐路","SECT":" ","MAREA":" ","LANE":" ","ALLEY":" ","HOUSE_NO":"３６５號","E_COORD97":170573.09,"N_COORD97":2544793.8300000001,"ADDRESS":"東豐路３６５號","OBJECTID":628383},"geometry":{"x":170573.08999999985,"y":2544793.8300000001}},{"attributes":{"ID":628411,"DIS_CODE":0,"TOWNNAME":"北區","LI":"重興里","LIN":"4鄰","STREET":"東豐路","SECT":" ","MAREA":" ","LANE":" ","ALLEY":" ","HOUSE_NO":"３６７號","E_COORD97":170577.23000000001,"N_COORD97":2544793.6299999999,"ADDRESS":"東豐路３６７號","OBJECTID":628384},"geometry":{"x":170577.23000000138,"y":2544793.629999999}},{"attributes":{"ID":628412,"DIS_CODE":0,"TOWNNAME":"北區","LI":"重興里","LIN":"4鄰","STREET":"東豐路","SECT":" ","MAREA":" ","LANE":" ","ALLEY":" ","HOUSE_NO":"３６９號","E_COORD97":170581.67000000001,"N_COORD97":2544792.7200000002,"ADDRESS":"東豐路３６９號","OBJECTID":628385},"geometry":{"x":170581.66999999993,"y":2544792.7200000007}},{"attributes":{"ID":628413,"DIS_CODE":0,"TOWNNAME":"北區","LI":"重興里","LIN":"4鄰","STREET":"東豐路","SECT":" ","MAREA":" ","LANE":" ","ALLEY":" ","HOUSE_NO":"３７１號","E_COORD97":170586.01999999999,"N_COORD97":2544791.4500000002,"ADDRESS":"東豐路３７１號","OBJECTID":628386},"geometry":{"x":170586.02000000142,"y":2544791.4500000011}},{"attributes":{"ID":628414,"DIS_CODE":0,"TOWNNAME":"北區","LI":"重興里","LIN":"4鄰","STREET":"東豐路","SECT":" ","MAREA":" ","LANE":" ","ALLEY":" ","HOUSE_NO":"３７３號","E_COORD97":170590.32999999999,"N_COORD97":2544790.5099999998,"ADDRESS":"東豐路３７３號","OBJECTID":628387},"geometry":{"x":170590.33000000101,"y":2544790.5100000016}},{"attributes":{"ID":628415,"DIS_CODE":0,"TOWNNAME":"北區","LI":"重興里","LIN":"4鄰","STREET":"東豐路","SECT":" ","MAREA":" ","LANE":" ","ALLEY":" ","HOUSE_NO":"３７５號","E_COORD97":170594.29999999999,"N_COORD97":2544789.21,"ADDRESS":"東豐路３７５號","OBJECTID":628388},"geometry":{"x":170594.29999999981,"y":2544789.2100000009}},{"attributes":{"ID":628416,"DIS_CODE":0,"TOWNNAME":"北區","LI":"重興里","LIN":"4鄰","STREET":"東豐路","SECT":" ","MAREA":" ","LANE":" ","ALLEY":" ","HOUSE_NO":"３７７號","E_COORD97":170598.79000000001,"N_COORD97":2544788.6099999999,"ADDRESS":"東豐路３７７號","OBJECTID":628389},"geometry":{"x":170598.79000000097,"y":2544788.6099999994}},{"attributes":{"ID":628417,"DIS_CODE":0,"TOWNNAME":"北區","LI":"重興里","LIN":"4鄰","STREET":"東豐路","SECT":" ","MAREA":" ","LANE":" ","ALLEY":" ","HOUSE_NO":"３７９號","E_COORD97":170602.92999999999,"N_COORD97":2544787.9199999999,"ADDRESS":"東豐路３７９號","OBJECTID":628390},"geometry":{"x":170602.9299999997,"y":2544787.9200000018}},{"attributes":{"ID":628418,"DIS_CODE":0,"TOWNNAME":"北區","LI":"重興里","LIN":"4鄰","STREET":"東豐路","SECT":" ","MAREA":" ","LANE":" ","ALLEY":" ","HOUSE_NO":"３８１號","E_COORD97":170607.23999999999,"N_COORD97":2544787.1499999999,"ADDRESS":"東豐路３８１號","OBJECTID":628391},"geometry":{"x":170607.24000000209,"y":2544787.1500000022}},{"attributes":{"ID":628419,"DIS_CODE":0,"TOWNNAME":"北區","LI":"重興里","LIN":"4鄰","STREET":"東豐路","SECT":" ","MAREA":" ","LANE":" ","ALLEY":" ","HOUSE_NO":"３８３號","E_COORD97":170611.72,"N_COORD97":2544786.7200000002,"ADDRESS":"東豐路３８３號","OBJECTID":628392},"geometry":{"x":170611.71999999974,"y":2544786.7200000025}},{"attributes":{"ID":628420,"DIS_CODE":0,"TOWNNAME":"北區","LI":"重興里","LIN":"4鄰","STREET":"東豐路","SECT":" ","MAREA":" ","LANE":" ","ALLEY":" ","HOUSE_NO":"３８７號","E_COORD97":170620.35000000001,"N_COORD97":2544785.0800000001,"ADDRESS":"東豐路３８７號","OBJECTID":628393},"geometry":{"x":170620.34999999963,"y":2544785.0800000001}},{"attributes":{"ID":628421,"DIS_CODE":0,"TOWNNAME":"北區","LI":"重興里","LIN":"4鄰","STREET":"東豐路","SECT":" ","MAREA":" ","LANE":" ","ALLEY":" ","HOUSE_NO":"３８９號","E_COORD97":170624.73999999999,"N_COORD97":2544784.9100000001,"ADDRESS":"東豐路３８９號","OBJECTID":628394},"geometry":{"x":170624.74000000115,"y":2544784.910000002}},{"attributes":{"ID":628422,"DIS_CODE":0,"TOWNNAME":"北區","LI":"重興里","LIN":"4鄰","STREET":"東豐路","SECT":" ","MAREA":" ","LANE":" ","ALLEY":" ","HOUSE_NO":"３９１號","E_COORD97":170629.48999999999,"N_COORD97":2544784.48,"ADDRESS":"東豐路３９１號","OBJECTID":628395},"geometry":{"x":170629.49000000115,"y":2544784.4800000042}},{"attributes":{"ID":628423,"DIS_CODE":0,"TOWNNAME":"北區","LI":"重興里","LIN":"4鄰","STREET":"東豐路","SECT":" ","MAREA":" ","LANE":" ","ALLEY":" ","HOUSE_NO":"３９３號","E_COORD97":170633.92999999999,"N_COORD97":2544783.8900000001,"ADDRESS":"東豐路３９３號","OBJECTID":628396},"geometry":{"x":170633.9299999997,"y":2544783.8900000006}},{"attributes":{"ID":628424,"DIS_CODE":0,"TOWNNAME":"北區","LI":"重興里","LIN":"4鄰","STREET":"東豐路","SECT":" ","MAREA":" ","LANE":" ","ALLEY":" ","HOUSE_NO":"３９５號","E_COORD97":170637.98000000001,"N_COORD97":2544783.02,"ADDRESS":"東豐路３９５號","OBJECTID":628397},"geometry":{"x":170637.98000000231,"y":2544783.0200000033}},{"attributes":{"ID":628425,"DIS_CODE":0,"TOWNNAME":"北區","LI":"重興里","LIN":"4鄰","STREET":"東豐路","SECT":" ","MAREA":" ","LANE":" ","ALLEY":" ","HOUSE_NO":"３９７號","E_COORD97":170642.20999999999,"N_COORD97":2544782.3300000001,"ADDRESS":"東豐路３９７號","OBJECTID":628398},"geometry":{"x":170642.20999999996,"y":2544782.3300000019}},{"attributes":{"ID":628426,"DIS_CODE":0,"TOWNNAME":"北區","LI":"重興里","LIN":"4鄰","STREET":"東豐路","SECT":" ","MAREA":" ","LANE":" ","ALLEY":" ","HOUSE_NO":"３９９號","E_COORD97":170646.69,"N_COORD97":2544781.3900000001,"ADDRESS":"東豐路３９９號","OBJECTID":628399},"geometry":{"x":170646.69000000227,"y":2544781.3900000006}},{"attributes":{"ID":628427,"DIS_CODE":0,"TOWNNAME":"北區","LI":"重興里","LIN":"4鄰","STREET":"東豐路","SECT":" ","MAREA":" ","LANE":" ","ALLEY":" ","HOUSE_NO":"４０１號","E_COORD97":170650.92000000001,"N_COORD97":2544780.96,"ADDRESS":"東豐路４０１號","OBJECTID":628400},"geometry":{"x":170650.91999999993,"y":2544780.9600000009}}]}