{"displayFieldName":"TOWNNAME","fieldAliases":{"ID":"ID","DIS_CODE":"DIS_CODE","TOWNNAME":"TOWNNAME","LI":"LI","LIN":"LIN","STREET":"STREET","SECT":"SECT","MAREA":"MAREA","LANE":"LANE","ALLEY":"ALLEY","HOUSE_NO":"HOUSE_NO","E_COORD97":"E_COORD97","N_COORD97":"N_COORD97","ADDRESS":"ADDRESS","OBJECTID":"OBJECTID"},"geometryType":"esriGeometryPoint","spatialReference":{"wkid":102443,"latestWkid":3826},"fields":[{"name":"ID","type":"esriFieldTypeDouble","alias":"ID"},{"name":"DIS_CODE","type":"esriFieldTypeInteger","alias":"DIS_CODE"},{"name":"TOWNNAME","type":"esriFieldTypeString","alias":"TOWNNAME","length":8},{"name":"LI","type":"esriFieldTypeString","alias":"LI","length":8},{"name":"LIN","type":"esriFieldTypeString","alias":"LIN","length":12},{"name":"STREET","type":"esriFieldTypeString","alias":"STREET","length":20},{"name":"SECT","type":"esriFieldTypeString","alias":"SECT","length":8},{"name":"MAREA","type":"esriFieldTypeString","alias":"MAREA","length":12},{"name":"LANE","type":"esriFieldTypeString","alias":"LANE","length":10},{"name":"ALLEY","type":"esriFieldTypeString","alias":"ALLEY","length":10},{"name":"HOUSE_NO","type":"esriFieldTypeString","alias":"HOUSE_NO","length":20},{"name":"E_COORD97","type":"esriFieldTypeDouble","alias":"E_COORD97"},{"name":"N_COORD97","type":"esriFieldTypeDouble","alias":"N_COORD97"},{"name":"ADDRESS","type":"esriFieldTypeString","alias":"ADDRESS","length":50},{"name":"OBJECTID","type":"esriFieldTypeOID","alias":"OBJECTID"}],"features":[{"attributes":{"ID":582228,"DIS_CODE":0,"TOWNNAME":"安南區","LI":"溪頂里","LIN":"16鄰","STREET":"德安街","SECT":" ","MAREA":" ","LANE":" ","ALLEY":" ","HOUSE_NO":"１１號","E_COORD97":168701.91,"N_COORD97":2547359.4300000002,"ADDRESS":"德安街１１號","OBJECTID":582201},"geometry":{"x":168701.91000000015,"y":2547359.4299999997}},{"attributes":{"ID":582229,"DIS_CODE":0,"TOWNNAME":"安南區","LI":"溪頂里","LIN":"16鄰","STREET":"德安街","SECT":" ","MAREA":" ","LANE":" ","ALLEY":" ","HOUSE_NO":"１５號","E_COORD97":168688.26000000001,"N_COORD97":2547356.9700000002,"ADDRESS":"德安街１５號","OBJECTID":582202},"geometry":{"x":168688.26000000071,"y":2547356.9700000007}},{"attributes":{"ID":582230,"DIS_CODE":0,"TOWNNAME":"安南區","LI":"溪頂里","LIN":"16鄰","STREET":"德安街","SECT":" ","MAREA":" ","LANE":" ","ALLEY":" ","HOUSE_NO":"１７號","E_COORD97":168684.25,"N_COORD97":2547356.75,"ADDRESS":"德安街１７號","OBJECTID":582203},"geometry":{"x":168684.25,"y":2547356.7500000019}},{"attributes":{"ID":582231,"DIS_CODE":0,"TOWNNAME":"安南區","LI":"溪頂里","LIN":"16鄰","STREET":"德安街","SECT":" ","MAREA":" ","LANE":" ","ALLEY":" ","HOUSE_NO":"１９號","E_COORD97":168679.48999999999,"N_COORD97":2547356,"ADDRESS":"德安街１９號","OBJECTID":582204},"geometry":{"x":168679.49000000022,"y":2547356}},{"attributes":{"ID":582232,"DIS_CODE":0,"TOWNNAME":"安南區","LI":"溪頂里","LIN":"16鄰","STREET":"德安街","SECT":" ","MAREA":" ","LANE":" ","ALLEY":" ","HOUSE_NO":"１號","E_COORD97":168723.42999999999,"N_COORD97":2547362.4300000002,"ADDRESS":"德安街１號","OBJECTID":582205},"geometry":{"x":168723.4299999997,"y":2547362.4299999997}},{"attributes":{"ID":582233,"DIS_CODE":0,"TOWNNAME":"安南區","LI":"溪頂里","LIN":"16鄰","STREET":"德安街","SECT":" ","MAREA":" ","LANE":" ","ALLEY":" ","HOUSE_NO":"２１號","E_COORD97":168675.10999999999,"N_COORD97":2547355.48,"ADDRESS":"德安街２１號","OBJECTID":582206},"geometry":{"x":168675.11000000034,"y":2547355.4800000023}},{"attributes":{"ID":582234,"DIS_CODE":0,"TOWNNAME":"安南區","LI":"溪頂里","LIN":"16鄰","STREET":"德安街","SECT":" ","MAREA":" ","LANE":" ","ALLEY":" ","HOUSE_NO":"２５號","E_COORD97":168666.42000000001,"N_COORD97":2547354.5899999999,"ADDRESS":"德安街２５號","OBJECTID":582207},"geometry":{"x":168666.42000000179,"y":2547354.5899999999}},{"attributes":{"ID":582235,"DIS_CODE":0,"TOWNNAME":"安南區","LI":"溪頂里","LIN":"16鄰","STREET":"德安街","SECT":" ","MAREA":" ","LANE":" ","ALLEY":" ","HOUSE_NO":"２７號","E_COORD97":168662.54999999999,"N_COORD97":2547353.8500000001,"ADDRESS":"德安街２７號","OBJECTID":582208},"geometry":{"x":168662.55000000075,"y":2547353.8499999996}},{"attributes":{"ID":582236,"DIS_CODE":0,"TOWNNAME":"安南區","LI":"溪頂里","LIN":"16鄰","STREET":"德安街","SECT":" ","MAREA":" ","LANE":" ","ALLEY":" ","HOUSE_NO":"２９號","E_COORD97":168658.23999999999,"N_COORD97":2547353.1099999999,"ADDRESS":"德安街２９號","OBJECTID":582209},"geometry":{"x":168658.24000000115,"y":2547353.1100000013}},{"attributes":{"ID":582237,"DIS_CODE":0,"TOWNNAME":"安南區","LI":"溪頂里","LIN":"16鄰","STREET":"德安街","SECT":" ","MAREA":" ","LANE":" ","ALLEY":" ","HOUSE_NO":"３１號","E_COORD97":168654.01000000001,"N_COORD97":2547353.2599999998,"ADDRESS":"德安街３１號","OBJECTID":582210},"geometry":{"x":168654.01000000071,"y":2547353.2600000016}},{"attributes":{"ID":582238,"DIS_CODE":0,"TOWNNAME":"安南區","LI":"溪頂里","LIN":"16鄰","STREET":"德安街","SECT":" ","MAREA":" ","LANE":" ","ALLEY":" ","HOUSE_NO":"３５號","E_COORD97":168645.23999999999,"N_COORD97":2547352,"ADDRESS":"德安街３５號","OBJECTID":582211},"geometry":{"x":168645.24000000022,"y":2547352}},{"attributes":{"ID":582239,"DIS_CODE":0,"TOWNNAME":"安南區","LI":"溪頂里","LIN":"16鄰","STREET":"德安街","SECT":" ","MAREA":" ","LANE":" ","ALLEY":" ","HOUSE_NO":"３７號","E_COORD97":168641.45000000001,"N_COORD97":2547351.7000000002,"ADDRESS":"德安街３７號","OBJECTID":582212},"geometry":{"x":168641.45000000112,"y":2547351.700000003}},{"attributes":{"ID":582240,"DIS_CODE":0,"TOWNNAME":"安南區","LI":"溪頂里","LIN":"16鄰","STREET":"德安街","SECT":" ","MAREA":" ","LANE":" ","ALLEY":" ","HOUSE_NO":"３９號","E_COORD97":168636.66,"N_COORD97":2547351.3999999999,"ADDRESS":"德安街３９號","OBJECTID":582213},"geometry":{"x":168636.66000000108,"y":2547351.4000000041}},{"attributes":{"ID":582241,"DIS_CODE":0,"TOWNNAME":"安南區","LI":"溪頂里","LIN":"16鄰","STREET":"德安街","SECT":" ","MAREA":" ","LANE":" ","ALLEY":" ","HOUSE_NO":"３號","E_COORD97":168719.09,"N_COORD97":2547361.5899999999,"ADDRESS":"德安街３號","OBJECTID":582214},"geometry":{"x":168719.08999999985,"y":2547361.5899999999}},{"attributes":{"ID":582242,"DIS_CODE":0,"TOWNNAME":"安南區","LI":"溪頂里","LIN":"16鄰","STREET":"德安街","SECT":" ","MAREA":" ","LANE":" ","ALLEY":" ","HOUSE_NO":"４３號","E_COORD97":168623.01000000001,"N_COORD97":2547349.54,"ADDRESS":"德安街４３號","OBJECTID":582215},"geometry":{"x":168623.00999999978,"y":2547349.540000001}},{"attributes":{"ID":582243,"DIS_CODE":0,"TOWNNAME":"仁德區","LI":"太子里","LIN":"25鄰","STREET":"長興五街","SECT":" ","MAREA":" ","LANE":" ","ALLEY":" ","HOUSE_NO":"２２號","E_COORD97":173579.29519100001,"N_COORD97":2543620.2341200002,"ADDRESS":"長興五街２２號","OBJECTID":582216},"geometry":{"x":173579.29519100208,"y":2543620.2341210004}},{"attributes":{"ID":582244,"DIS_CODE":0,"TOWNNAME":"安南區","LI":"溪頂里","LIN":"16鄰","STREET":"德安街","SECT":" ","MAREA":" ","LANE":" ","ALLEY":" ","HOUSE_NO":"４９號","E_COORD97":168610.06,"N_COORD97":2547348.3500000001,"ADDRESS":"德安街４９號","OBJECTID":582217},"geometry":{"x":168610.05999999959,"y":2547348.3500000015}},{"attributes":{"ID":582245,"DIS_CODE":0,"TOWNNAME":"安南區","LI":"溪頂里","LIN":"16鄰","STREET":"德安街","SECT":" ","MAREA":" ","LANE":" ","ALLEY":" ","HOUSE_NO":"５１號","E_COORD97":168605.56,"N_COORD97":2547347.52,"ADDRESS":"德安街５１號","OBJECTID":582218},"geometry":{"x":168605.55999999959,"y":2547347.5200000014}},{"attributes":{"ID":582246,"DIS_CODE":0,"TOWNNAME":"安南區","LI":"溪頂里","LIN":"16鄰","STREET":"德安街","SECT":" ","MAREA":" ","LANE":" ","ALLEY":" ","HOUSE_NO":"５３號","E_COORD97":168601.60999999999,"N_COORD97":2547347.52,"ADDRESS":"德安街５３號","OBJECTID":582219},"geometry":{"x":168601.61000000127,"y":2547347.5200000014}},{"attributes":{"ID":582247,"DIS_CODE":0,"TOWNNAME":"安南區","LI":"溪頂里","LIN":"16鄰","STREET":"德安街","SECT":" ","MAREA":" ","LANE":" ","ALLEY":" ","HOUSE_NO":"５５號","E_COORD97":168597.29000000001,"N_COORD97":2547346.5099999998,"ADDRESS":"德安街５５號","OBJECTID":582220},"geometry":{"x":168597.29000000004,"y":2547346.5100000035}},{"attributes":{"ID":582248,"DIS_CODE":0,"TOWNNAME":"安南區","LI":"溪頂里","LIN":"16鄰","STREET":"德安街","SECT":" ","MAREA":" ","LANE":" ","ALLEY":" ","HOUSE_NO":"５９號","E_COORD97":168588.66,"N_COORD97":2547346.2400000002,"ADDRESS":"德安街５９號","OBJECTID":582221},"geometry":{"x":168588.66000000201,"y":2547346.2400000021}},{"attributes":{"ID":582249,"DIS_CODE":0,"TOWNNAME":"安南區","LI":"溪頂里","LIN":"16鄰","STREET":"德安街","SECT":" ","MAREA":" ","LANE":" ","ALLEY":" ","HOUSE_NO":"６１號","E_COORD97":168584.07000000001,"N_COORD97":2547346.4199999999,"ADDRESS":"德安街６１號","OBJECTID":582222},"geometry":{"x":168584.0700000003,"y":2547346.4199999999}},{"attributes":{"ID":582250,"DIS_CODE":0,"TOWNNAME":"安南區","LI":"溪頂里","LIN":"16鄰","STREET":"德安街","SECT":" ","MAREA":" ","LANE":" ","ALLEY":" ","HOUSE_NO":"６３號","E_COORD97":168580.12,"N_COORD97":2547346.3300000001,"ADDRESS":"德安街６３號","OBJECTID":582223},"geometry":{"x":168580.12000000011,"y":2547346.3300000019}},{"attributes":{"ID":582251,"DIS_CODE":0,"TOWNNAME":"安南區","LI":"溪頂里","LIN":"16鄰","STREET":"德安街","SECT":" ","MAREA":" ","LANE":" ","ALLEY":" ","HOUSE_NO":"６５號","E_COORD97":168575.89999999999,"N_COORD97":2547346.3199999998,"ADDRESS":"德安街６５號","OBJECTID":582224},"geometry":{"x":168575.9000000013,"y":2547346.3200000022}},{"attributes":{"ID":582252,"DIS_CODE":0,"TOWNNAME":"安南區","LI":"溪頂里","LIN":"16鄰","STREET":"德安街","SECT":" ","MAREA":" ","LANE":" ","ALLEY":" ","HOUSE_NO":"７號","E_COORD97":168710.37,"N_COORD97":2547360.3100000001,"ADDRESS":"德安街７號","OBJECTID":582225},"geometry":{"x":168710.37000000011,"y":2547360.3100000024}},{"attributes":{"ID":582253,"DIS_CODE":0,"TOWNNAME":"安南區","LI":"溪頂里","LIN":"16鄰","STREET":"德安街","SECT":" ","MAREA":" ","LANE":" ","ALLEY":" ","HOUSE_NO":"９號","E_COORD97":168705.94,"N_COORD97":2547359.9500000002,"ADDRESS":"德安街９號","OBJECTID":582226},"geometry":{"x":168705.94000000134,"y":2547359.950000003}},{"attributes":{"ID":582254,"DIS_CODE":0,"TOWNNAME":"安南區","LI":"溪頂里","LIN":"16鄰","STREET":"德安街","SECT":" ","MAREA":" ","LANE":" ","ALLEY":" ","HOUSE_NO":"４７號","E_COORD97":168614.01000000001,"N_COORD97":2547348.6200000001,"ADDRESS":"德安街４７號","OBJECTID":582227},"geometry":{"x":168614.00999999978,"y":2547348.6200000029}},{"attributes":{"ID":582255,"DIS_CODE":0,"TOWNNAME":"中西區","LI":"銀同里","LIN":"16鄰","STREET":"青年路","SECT":" ","MAREA":" ","LANE":" ","ALLEY":" ","HOUSE_NO":"１０號","E_COORD97":168588.97,"N_COORD97":2543646.2999999998,"ADDRESS":"青年路１０號","OBJECTID":582228},"geometry":{"x":168588.96999999974,"y":2543646.3000000007}},{"attributes":{"ID":582256,"DIS_CODE":0,"TOWNNAME":"中西區","LI":"銀同里","LIN":"16鄰","STREET":"青年路","SECT":" ","MAREA":" ","LANE":" ","ALLEY":" ","HOUSE_NO":"１２號","E_COORD97":168598.60000000001,"N_COORD97":2543645.48,"ADDRESS":"青年路１２號","OBJECTID":582229},"geometry":{"x":168598.5999999987,"y":2543645.4800000023}},{"attributes":{"ID":582257,"DIS_CODE":0,"TOWNNAME":"中西區","LI":"銀同里","LIN":"16鄰","STREET":"青年路","SECT":" ","MAREA":" ","LANE":" ","ALLEY":" ","HOUSE_NO":"１６號","E_COORD97":168608.94,"N_COORD97":2543642.5499999998,"ADDRESS":"青年路１６號","OBJECTID":582230},"geometry":{"x":168608.94000000041,"y":2543642.5500000026}},{"attributes":{"ID":582258,"DIS_CODE":0,"TOWNNAME":"中西區","LI":"銀同里","LIN":"16鄰","STREET":"青年路","SECT":" ","MAREA":" ","LANE":" ","ALLEY":" ","HOUSE_NO":"１８號","E_COORD97":168614.89999999999,"N_COORD97":2543641.96,"ADDRESS":"青年路１８號","OBJECTID":582231},"geometry":{"x":168614.9000000013,"y":2543641.9600000009}},{"attributes":{"ID":582259,"DIS_CODE":0,"TOWNNAME":"中西區","LI":"銀同里","LIN":"16鄰","STREET":"青年路","SECT":" ","MAREA":" ","LANE":" ","ALLEY":" ","HOUSE_NO":"２０號","E_COORD97":168618.56,"N_COORD97":2543642.7200000002,"ADDRESS":"青年路２０號","OBJECTID":582232},"geometry":{"x":168618.55999999959,"y":2543642.7200000007}},{"attributes":{"ID":582260,"DIS_CODE":0,"TOWNNAME":"中西區","LI":"銀同里","LIN":"16鄰","STREET":"青年路","SECT":" ","MAREA":" ","LANE":" ","ALLEY":" ","HOUSE_NO":"２２號","E_COORD97":168622.22,"N_COORD97":2543641.7000000002,"ADDRESS":"青年路２２號","OBJECTID":582233},"geometry":{"x":168622.22000000067,"y":2543641.6999999993}},{"attributes":{"ID":582261,"DIS_CODE":0,"TOWNNAME":"中西區","LI":"銀同里","LIN":"16鄰","STREET":"青年路","SECT":" ","MAREA":" ","LANE":" ","ALLEY":" ","HOUSE_NO":"２４號","E_COORD97":168626.78,"N_COORD97":2543639.75,"ADDRESS":"青年路２４號","OBJECTID":582234},"geometry":{"x":168626.78000000026,"y":2543639.7500000019}},{"attributes":{"ID":582262,"DIS_CODE":0,"TOWNNAME":"中西區","LI":"銀同里","LIN":"16鄰","STREET":"青年路","SECT":" ","MAREA":" ","LANE":" ","ALLEY":" ","HOUSE_NO":"２６號","E_COORD97":168631.29000000001,"N_COORD97":2543639.75,"ADDRESS":"青年路２６號","OBJECTID":582235},"geometry":{"x":168631.29000000004,"y":2543639.7500000019}},{"attributes":{"ID":582263,"DIS_CODE":0,"TOWNNAME":"中西區","LI":"銀同里","LIN":"16鄰","STREET":"青年路","SECT":" ","MAREA":" ","LANE":" ","ALLEY":" ","HOUSE_NO":"２號","E_COORD97":168571.60999999999,"N_COORD97":2543642.5099999998,"ADDRESS":"青年路２號","OBJECTID":582236},"geometry":{"x":168571.61000000034,"y":2543642.5100000016}},{"attributes":{"ID":582264,"DIS_CODE":0,"TOWNNAME":"中西區","LI":"銀同里","LIN":"16鄰","STREET":"青年路","SECT":" ","MAREA":" ","LANE":" ","ALLEY":" ","HOUSE_NO":"４號","E_COORD97":168575.06,"N_COORD97":2543642.25,"ADDRESS":"青年路４號","OBJECTID":582237},"geometry":{"x":168575.05999999959,"y":2543642.25}},{"attributes":{"ID":582265,"DIS_CODE":0,"TOWNNAME":"中西區","LI":"天后里","LIN":"16鄰","STREET":"民族路","SECT":"二段","MAREA":" ","LANE":" ","ALLEY":" ","HOUSE_NO":"２６０號","E_COORD97":168098.01999999999,"N_COORD97":2544225.1099999999,"ADDRESS":"民族路二段２６０號","OBJECTID":582238},"geometry":{"x":168098.02000000048,"y":2544225.1099999994}},{"attributes":{"ID":582266,"DIS_CODE":0,"TOWNNAME":"中西區","LI":"天后里","LIN":"16鄰","STREET":"民族路","SECT":"二段","MAREA":" ","LANE":" ","ALLEY":" ","HOUSE_NO":"２６２號","E_COORD97":168095.12,"N_COORD97":2544226.6899999999,"ADDRESS":"民族路二段２６２號","OBJECTID":582239},"geometry":{"x":168095.12000000011,"y":2544226.6900000013}},{"attributes":{"ID":582267,"DIS_CODE":0,"TOWNNAME":"中西區","LI":"天后里","LIN":"16鄰","STREET":"民族路","SECT":"二段","MAREA":" ","LANE":" ","ALLEY":" ","HOUSE_NO":"２６４號","E_COORD97":168091.56,"N_COORD97":2544227.8700000001,"ADDRESS":"民族路二段２６４號","OBJECTID":582240},"geometry":{"x":168091.55999999959,"y":2544227.8700000029}},{"attributes":{"ID":582268,"DIS_CODE":0,"TOWNNAME":"中西區","LI":"天后里","LIN":"16鄰","STREET":"民族路","SECT":"二段","MAREA":" ","LANE":" ","ALLEY":" ","HOUSE_NO":"２６６號","E_COORD97":168088.13,"N_COORD97":2544229.8500000001,"ADDRESS":"民族路二段２６６號","OBJECTID":582241},"geometry":{"x":168088.12999999989,"y":2544229.8500000015}},{"attributes":{"ID":582269,"DIS_CODE":0,"TOWNNAME":"中西區","LI":"天后里","LIN":"16鄰","STREET":"民族路","SECT":"二段","MAREA":" ","LANE":" ","ALLEY":" ","HOUSE_NO":"２６８號","E_COORD97":168083.78,"N_COORD97":2544230.2400000002,"ADDRESS":"民族路二段２６８號","OBJECTID":582242},"geometry":{"x":168083.78000000026,"y":2544230.2400000021}},{"attributes":{"ID":582270,"DIS_CODE":0,"TOWNNAME":"中西區","LI":"天后里","LIN":"16鄰","STREET":"新美街","SECT":" ","MAREA":" ","LANE":" ","ALLEY":" ","HOUSE_NO":"１４１號","E_COORD97":168101.12,"N_COORD97":2544243.6099999999,"ADDRESS":"新美街１４１號","OBJECTID":582243},"geometry":{"x":168101.12000000104,"y":2544243.6100000013}},{"attributes":{"ID":582271,"DIS_CODE":0,"TOWNNAME":"中西區","LI":"天后里","LIN":"16鄰","STREET":"新美街","SECT":" ","MAREA":" ","LANE":" ","ALLEY":" ","HOUSE_NO":"１４３號","E_COORD97":168102.59,"N_COORD97":2544248.1600000001,"ADDRESS":"新美街１４３號","OBJECTID":582244},"geometry":{"x":168102.59000000078,"y":2544248.160000002}},{"attributes":{"ID":582272,"DIS_CODE":0,"TOWNNAME":"中西區","LI":"天后里","LIN":"16鄰","STREET":"新美街","SECT":" ","MAREA":" ","LANE":" ","ALLEY":" ","HOUSE_NO":"１４５號","E_COORD97":168104.64000000001,"N_COORD97":2544252.5600000001,"ADDRESS":"新美街１４５號","OBJECTID":582245},"geometry":{"x":168104.63999999966,"y":2544252.5600000024}},{"attributes":{"ID":582273,"DIS_CODE":0,"TOWNNAME":"中西區","LI":"天后里","LIN":"16鄰","STREET":"新美街","SECT":" ","MAREA":" ","LANE":" ","ALLEY":" ","HOUSE_NO":"１４７號","E_COORD97":168105.95999999999,"N_COORD97":2544256.96,"ADDRESS":"新美街１４７號","OBJECTID":582246},"geometry":{"x":168105.95999999996,"y":2544256.9600000028}},{"attributes":{"ID":582274,"DIS_CODE":0,"TOWNNAME":"中西區","LI":"天后里","LIN":"16鄰","STREET":"新美街","SECT":" ","MAREA":" ","LANE":" ","ALLEY":" ","HOUSE_NO":"１４９號","E_COORD97":168108.75,"N_COORD97":2544260.6000000001,"ADDRESS":"新美街１４９號","OBJECTID":582247},"geometry":{"x":168108.75000000093,"y":2544260.6000000034}},{"attributes":{"ID":582275,"DIS_CODE":0,"TOWNNAME":"中西區","LI":"天后里","LIN":"16鄰","STREET":"新美街","SECT":" ","MAREA":" ","LANE":" ","ALLEY":" ","HOUSE_NO":"１５１號","E_COORD97":168109.63,"N_COORD97":2544265.5899999999,"ADDRESS":"新美街１５１號","OBJECTID":582248},"geometry":{"x":168109.63000000082,"y":2544265.5900000017}},{"attributes":{"ID":582276,"DIS_CODE":0,"TOWNNAME":"中西區","LI":"天后里","LIN":"16鄰","STREET":"新美街","SECT":" ","MAREA":" ","LANE":" ","ALLEY":" ","HOUSE_NO":"１５３號","E_COORD97":168111.98000000001,"N_COORD97":2544269.8399999999,"ADDRESS":"新美街１５３號","OBJECTID":582249},"geometry":{"x":168111.98000000045,"y":2544269.8400000017}},{"attributes":{"ID":582277,"DIS_CODE":0,"TOWNNAME":"中西區","LI":"天后里","LIN":"16鄰","STREET":"新美街","SECT":" ","MAREA":" ","LANE":" ","ALLEY":" ","HOUSE_NO":"１５５號","E_COORD97":168112.87,"N_COORD97":2544274.2400000002,"ADDRESS":"新美街１５５號","OBJECTID":582250},"geometry":{"x":168112.87000000104,"y":2544274.2400000021}},{"attributes":{"ID":582278,"DIS_CODE":0,"TOWNNAME":"中西區","LI":"天后里","LIN":"16鄰","STREET":"新美街","SECT":" ","MAREA":" ","LANE":" ","ALLEY":" ","HOUSE_NO":"１５７號","E_COORD97":168114.48000000001,"N_COORD97":2544278.3500000001,"ADDRESS":"新美街１５７號","OBJECTID":582251},"geometry":{"x":168114.48000000138,"y":2544278.3499999996}},{"attributes":{"ID":582279,"DIS_CODE":0,"TOWNNAME":"中西區","LI":"天后里","LIN":"16鄰","STREET":"新美街","SECT":" ","MAREA":" ","LANE":" ","ALLEY":" ","HOUSE_NO":"１５９號","E_COORD97":168116.82999999999,"N_COORD97":2544281.8700000001,"ADDRESS":"新美街１５９號","OBJECTID":582252},"geometry":{"x":168116.83000000101,"y":2544281.8700000029}},{"attributes":{"ID":582280,"DIS_CODE":0,"TOWNNAME":"中西區","LI":"天后里","LIN":"16鄰","STREET":"新美街","SECT":" ","MAREA":" ","LANE":" ","ALLEY":" ","HOUSE_NO":"１６３號","E_COORD97":168118.59,"N_COORD97":2544285.25,"ADDRESS":"新美街１６３號","OBJECTID":582253},"geometry":{"x":168118.58999999985,"y":2544285.2500000019}},{"attributes":{"ID":582281,"DIS_CODE":0,"TOWNNAME":"仁德區","LI":"新田里","LIN":"16鄰","STREET":"民安路","SECT":"二段","MAREA":" ","LANE":" ","ALLEY":" ","HOUSE_NO":"２５號","E_COORD97":173357.10000000001,"N_COORD97":2539285.8199999998,"ADDRESS":"民安路二段２５號","OBJECTID":582254},"geometry":{"x":173357.10000000149,"y":2539285.8199999984}},{"attributes":{"ID":582282,"DIS_CODE":0,"TOWNNAME":"仁德區","LI":"後壁里","LIN":"16鄰","STREET":"德善路","SECT":" ","MAREA":" ","LANE":" ","ALLEY":" ","HOUSE_NO":"９４號","E_COORD97":173390.92999999999,"N_COORD97":2538818.0099999998,"ADDRESS":"德善路９４號","OBJECTID":582255},"geometry":{"x":173390.93000000063,"y":2538818.0100000016}},{"attributes":{"ID":582283,"DIS_CODE":0,"TOWNNAME":"仁德區","LI":"後壁里","LIN":"16鄰","STREET":"德善路","SECT":" ","MAREA":" ","LANE":" ","ALLEY":" ","HOUSE_NO":"９０號","E_COORD97":173402.60000000001,"N_COORD97":2538841.0099999998,"ADDRESS":"德善路９０號","OBJECTID":582256},"geometry":{"x":173402.59999999963,"y":2538841.0100000016}},{"attributes":{"ID":582284,"DIS_CODE":0,"TOWNNAME":"仁德區","LI":"後壁里","LIN":"16鄰","STREET":"德善路","SECT":" ","MAREA":" ","LANE":" ","ALLEY":" ","HOUSE_NO":"５８號","E_COORD97":173366.19,"N_COORD97":2538880.52,"ADDRESS":"德善路５８號","OBJECTID":582257},"geometry":{"x":173366.19000000134,"y":2538880.5200000033}},{"attributes":{"ID":582285,"DIS_CODE":0,"TOWNNAME":"仁德區","LI":"後壁里","LIN":"16鄰","STREET":"德善路","SECT":" ","MAREA":" ","LANE":" ","ALLEY":" ","HOUSE_NO":"５６號","E_COORD97":173361.37,"N_COORD97":2538882.52,"ADDRESS":"德善路５６號","OBJECTID":582258},"geometry":{"x":173361.37000000104,"y":2538882.5199999996}},{"attributes":{"ID":582286,"DIS_CODE":0,"TOWNNAME":"仁德區","LI":"後壁里","LIN":"16鄰","STREET":"德善路","SECT":" ","MAREA":" ","LANE":" ","ALLEY":" ","HOUSE_NO":"６４號","E_COORD97":173375.78,"N_COORD97":2538869.02,"ADDRESS":"德善路６４號","OBJECTID":582259},"geometry":{"x":173375.78000000119,"y":2538869.0199999996}},{"attributes":{"ID":582287,"DIS_CODE":0,"TOWNNAME":"仁德區","LI":"後壁里","LIN":"16鄰","STREET":"德善路","SECT":" ","MAREA":" ","LANE":" ","ALLEY":" ","HOUSE_NO":"７０號","E_COORD97":173385.53,"N_COORD97":2538862.27,"ADDRESS":"德善路７０號","OBJECTID":582260},"geometry":{"x":173385.53000000212,"y":2538862.2700000014}},{"attributes":{"ID":582288,"DIS_CODE":0,"TOWNNAME":"仁德區","LI":"後壁里","LIN":"16鄰","STREET":"德善路","SECT":" ","MAREA":" ","LANE":" ","ALLEY":" ","HOUSE_NO":"６８號","E_COORD97":173383.19,"N_COORD97":2538863.52,"ADDRESS":"德善路６８號","OBJECTID":582261},"geometry":{"x":173383.19000000134,"y":2538863.5200000033}},{"attributes":{"ID":582289,"DIS_CODE":0,"TOWNNAME":"仁德區","LI":"後壁里","LIN":"16鄰","STREET":"德善路","SECT":" ","MAREA":" ","LANE":" ","ALLEY":" ","HOUSE_NO":"９２號","E_COORD97":173392.97,"N_COORD97":2538828.2599999998,"ADDRESS":"德善路９２號","OBJECTID":582262},"geometry":{"x":173392.96999999974,"y":2538828.2600000035}},{"attributes":{"ID":582290,"DIS_CODE":0,"TOWNNAME":"仁德區","LI":"保安里","LIN":"14鄰","STREET":"文賢路","SECT":"一段","MAREA":" ","LANE":" ","ALLEY":" ","HOUSE_NO":"６１２號","E_COORD97":171126.01999999999,"N_COORD97":2536735.8199999998,"ADDRESS":"文賢路一段６１２號","OBJECTID":582263},"geometry":{"x":171126.01999999955,"y":2536735.8200000003}},{"attributes":{"ID":582291,"DIS_CODE":0,"TOWNNAME":"仁德區","LI":"新田里","LIN":"16鄰","STREET":"北保東路","SECT":" ","MAREA":" ","LANE":" ","ALLEY":" ","HOUSE_NO":"４２號","E_COORD97":173454.54999999999,"N_COORD97":2539348.9900000002,"ADDRESS":"北保東路４２號","OBJECTID":582264},"geometry":{"x":173454.55000000075,"y":2539348.9899999984}},{"attributes":{"ID":582292,"DIS_CODE":0,"TOWNNAME":"仁德區","LI":"新田里","LIN":"16鄰","STREET":"北保東路","SECT":" ","MAREA":" ","LANE":" ","ALLEY":" ","HOUSE_NO":"３４號","E_COORD97":173450.73000000001,"N_COORD97":2539358.2400000002,"ADDRESS":"北保東路３４號","OBJECTID":582265},"geometry":{"x":173450.73000000138,"y":2539358.2400000021}},{"attributes":{"ID":582293,"DIS_CODE":0,"TOWNNAME":"仁德區","LI":"後壁里","LIN":"16鄰","STREET":"德南路","SECT":" ","MAREA":" ","LANE":" ","ALLEY":" ","HOUSE_NO":"１９號","E_COORD97":173311.23999999999,"N_COORD97":2538797.5499999998,"ADDRESS":"德南路１９號","OBJECTID":582266},"geometry":{"x":173311.24000000115,"y":2538797.5500000026}},{"attributes":{"ID":582294,"DIS_CODE":0,"TOWNNAME":"下營區","LI":"後街里","LIN":"16鄰","STREET":"人和二街","SECT":" ","MAREA":" ","LANE":" ","ALLEY":" ","HOUSE_NO":"５５號","E_COORD97":174569.95999999999,"N_COORD97":2570768.6600000001,"ADDRESS":"人和二街５５號","OBJECTID":582267},"geometry":{"x":174569.95999999996,"y":2570768.6600000001}},{"attributes":{"ID":582295,"DIS_CODE":0,"TOWNNAME":"下營區","LI":"後街里","LIN":"16鄰","STREET":"人和二街","SECT":" ","MAREA":" ","LANE":" ","ALLEY":" ","HOUSE_NO":"５９號","E_COORD97":174543.95999999999,"N_COORD97":2570779.96,"ADDRESS":"人和二街５９號","OBJECTID":582268},"geometry":{"x":174543.96000000089,"y":2570779.9600000028}},{"attributes":{"ID":582296,"DIS_CODE":0,"TOWNNAME":"下營區","LI":"後街里","LIN":"16鄰","STREET":"人和二街","SECT":" ","MAREA":" ","LANE":" ","ALLEY":" ","HOUSE_NO":"６１號","E_COORD97":174533.12,"N_COORD97":2570780.2400000002,"ADDRESS":"人和二街６１號","OBJECTID":582269},"geometry":{"x":174533.12000000104,"y":2570780.2400000021}},{"attributes":{"ID":582297,"DIS_CODE":0,"TOWNNAME":"下營區","LI":"後街里","LIN":"16鄰","STREET":"人和二街","SECT":" ","MAREA":" ","LANE":" ","ALLEY":" ","HOUSE_NO":"６５號","E_COORD97":174525.76999999999,"N_COORD97":2570780.71,"ADDRESS":"人和二街６５號","OBJECTID":582270},"geometry":{"x":174525.77000000048,"y":2570780.7100000046}},{"attributes":{"ID":582298,"DIS_CODE":0,"TOWNNAME":"下營區","LI":"後街里","LIN":"16鄰","STREET":"人和二街","SECT":" ","MAREA":" ","LANE":" ","ALLEY":" ","HOUSE_NO":"６７號","E_COORD97":174519.20000000001,"N_COORD97":2570779.2999999998,"ADDRESS":"人和二街６７號","OBJECTID":582271},"geometry":{"x":174519.20000000019,"y":2570779.3000000007}},{"attributes":{"ID":582299,"DIS_CODE":0,"TOWNNAME":"下營區","LI":"後街里","LIN":"16鄰","STREET":"人和二街","SECT":" ","MAREA":" ","LANE":" ","ALLEY":" ","HOUSE_NO":"８２號","E_COORD97":174596.82999999999,"N_COORD97":2570776.6299999999,"ADDRESS":"人和二街８２號","OBJECTID":582272},"geometry":{"x":174596.82999999914,"y":2570776.6300000008}},{"attributes":{"ID":582300,"DIS_CODE":0,"TOWNNAME":"仁德區","LI":"仁德里","LIN":"14鄰","STREET":"中正路","SECT":"三段","MAREA":" ","LANE":" ","ALLEY":" ","HOUSE_NO":"５５號","E_COORD97":173342.98000000001,"N_COORD97":2541540.5299999998,"ADDRESS":"中正路三段５５號","OBJECTID":582273},"geometry":{"x":173342.98000000045,"y":2541540.5299999993}},{"attributes":{"ID":582301,"DIS_CODE":0,"TOWNNAME":"中西區","LI":"赤嵌里","LIN":"16鄰","STREET":"忠義路","SECT":"二段","MAREA":" ","LANE":" ","ALLEY":" ","HOUSE_NO":"２１２號","E_COORD97":168455.42999999999,"N_COORD97":2544203.1000000001,"ADDRESS":"忠義路二段２１２號","OBJECTID":582274},"geometry":{"x":168455.4299999997,"y":2544203.1000000034}},{"attributes":{"ID":582302,"DIS_CODE":0,"TOWNNAME":"中西區","LI":"赤嵌里","LIN":"16鄰","STREET":"忠義路","SECT":"二段","MAREA":" ","LANE":" ","ALLEY":" ","HOUSE_NO":"２１４號","E_COORD97":168457.25,"N_COORD97":2544206.5099999998,"ADDRESS":"忠義路二段２１４號","OBJECTID":582275},"geometry":{"x":168457.25,"y":2544206.5099999998}},{"attributes":{"ID":582303,"DIS_CODE":0,"TOWNNAME":"中西區","LI":"赤嵌里","LIN":"16鄰","STREET":"忠義路","SECT":"二段","MAREA":" ","LANE":" ","ALLEY":" ","HOUSE_NO":"２１６號","E_COORD97":168458.60999999999,"N_COORD97":2544211.2799999998,"ADDRESS":"忠義路二段２１６號","OBJECTID":582276},"geometry":{"x":168458.6099999994,"y":2544211.2799999975}},{"attributes":{"ID":582304,"DIS_CODE":0,"TOWNNAME":"中西區","LI":"赤嵌里","LIN":"16鄰","STREET":"忠義路","SECT":"二段","MAREA":" ","LANE":" ","ALLEY":" ","HOUSE_NO":"２１８號","E_COORD97":168459.75,"N_COORD97":2544215.8300000001,"ADDRESS":"忠義路二段２１８號","OBJECTID":582277},"geometry":{"x":168459.75000000093,"y":2544215.8300000019}},{"attributes":{"ID":582305,"DIS_CODE":0,"TOWNNAME":"中西區","LI":"赤嵌里","LIN":"16鄰","STREET":"忠義路","SECT":"二段","MAREA":" ","LANE":" ","ALLEY":" ","HOUSE_NO":"２２０號","E_COORD97":168461.10999999999,"N_COORD97":2544219.2400000002,"ADDRESS":"忠義路二段２２０號","OBJECTID":582278},"geometry":{"x":168461.11000000127,"y":2544219.2399999984}},{"attributes":{"ID":582306,"DIS_CODE":0,"TOWNNAME":"中西區","LI":"赤嵌里","LIN":"16鄰","STREET":"忠義路","SECT":"二段","MAREA":" ","LANE":" ","ALLEY":" ","HOUSE_NO":"２２２號","E_COORD97":168462.48000000001,"N_COORD97":2544223.3300000001,"ADDRESS":"忠義路二段２２２號","OBJECTID":582279},"geometry":{"x":168462.48000000045,"y":2544223.3300000019}},{"attributes":{"ID":582307,"DIS_CODE":0,"TOWNNAME":"仁德區","LI":"後壁里","LIN":"12鄰","STREET":"德南路","SECT":" ","MAREA":" ","LANE":" ","ALLEY":" ","HOUSE_NO":"１９６號","E_COORD97":173708.95999999999,"N_COORD97":2538479.77,"ADDRESS":"德南路１９６號","OBJECTID":582280},"geometry":{"x":173708.95999999996,"y":2538479.7700000014}},{"attributes":{"ID":582308,"DIS_CODE":0,"TOWNNAME":"中西區","LI":"赤嵌里","LIN":"16鄰","STREET":"忠義路","SECT":"二段","MAREA":" ","LANE":" ","ALLEY":" ","HOUSE_NO":"２２４號","E_COORD97":168466.35000000001,"N_COORD97":2544228.7799999998,"ADDRESS":"忠義路二段２２４號","OBJECTID":582281},"geometry":{"x":168466.34999999963,"y":2544228.7800000012}},{"attributes":{"ID":582309,"DIS_CODE":0,"TOWNNAME":"中西區","LI":"赤嵌里","LIN":"16鄰","STREET":"中成路","SECT":" ","MAREA":" ","LANE":" ","ALLEY":" ","HOUSE_NO":"３７號","E_COORD97":168502.51999999999,"N_COORD97":2544229.46,"ADDRESS":"中成路３７號","OBJECTID":582282},"geometry":{"x":168502.52000000142,"y":2544229.4600000028}},{"attributes":{"ID":582310,"DIS_CODE":0,"TOWNNAME":"中西區","LI":"赤嵌里","LIN":"16鄰","STREET":"中成路","SECT":" ","MAREA":" ","LANE":" ","ALLEY":" ","HOUSE_NO":"３９號","E_COORD97":168503.88,"N_COORD97":2544236.0499999998,"ADDRESS":"中成路３９號","OBJECTID":582283},"geometry":{"x":168503.88000000175,"y":2544236.0500000026}},{"attributes":{"ID":582311,"DIS_CODE":0,"TOWNNAME":"中西區","LI":"赤嵌里","LIN":"16鄰","STREET":"忠義路","SECT":"二段","MAREA":" ","LANE":" ","ALLEY":" ","HOUSE_NO":"２２６號","E_COORD97":168470.20999999999,"N_COORD97":2544241.0499999998,"ADDRESS":"忠義路二段２２６號","OBJECTID":582284},"geometry":{"x":168470.21000000089,"y":2544241.0500000007}},{"attributes":{"ID":582312,"DIS_CODE":0,"TOWNNAME":"中西區","LI":"赤嵌里","LIN":"16鄰","STREET":"忠義路","SECT":"二段","MAREA":" ","LANE":" ","ALLEY":" ","HOUSE_NO":"２３４號","E_COORD97":168471.81,"N_COORD97":2544246.27,"ADDRESS":"忠義路二段２３４號","OBJECTID":582285},"geometry":{"x":168471.81000000145,"y":2544246.2700000014}},{"attributes":{"ID":582313,"DIS_CODE":0,"TOWNNAME":"中西區","LI":"赤嵌里","LIN":"16鄰","STREET":"忠義路","SECT":"二段","MAREA":" ","LANE":" ","ALLEY":" ","HOUSE_NO":"２３６號","E_COORD97":168473.85000000001,"N_COORD97":2544250.3599999999,"ADDRESS":"忠義路二段２３６號","OBJECTID":582286},"geometry":{"x":168473.85000000056,"y":2544250.3599999994}},{"attributes":{"ID":582314,"DIS_CODE":0,"TOWNNAME":"中西區","LI":"赤嵌里","LIN":"16鄰","STREET":"中成路","SECT":" ","MAREA":" ","LANE":" ","ALLEY":" ","HOUSE_NO":"４７號","E_COORD97":168504.10999999999,"N_COORD97":2544272.6299999999,"ADDRESS":"中成路４７號","OBJECTID":582287},"geometry":{"x":168504.11000000034,"y":2544272.629999999}},{"attributes":{"ID":582315,"DIS_CODE":0,"TOWNNAME":"中西區","LI":"赤嵌里","LIN":"16鄰","STREET":"中成路","SECT":" ","MAREA":" ","LANE":" ","ALLEY":" ","HOUSE_NO":"４９號","E_COORD97":168505.70000000001,"N_COORD97":2544277.1699999999,"ADDRESS":"中成路４９號","OBJECTID":582288},"geometry":{"x":168505.70000000112,"y":2544277.1700000037}},{"attributes":{"ID":582316,"DIS_CODE":0,"TOWNNAME":"中西區","LI":"赤嵌里","LIN":"16鄰","STREET":"中成路","SECT":" ","MAREA":" ","LANE":" ","ALLEY":" ","HOUSE_NO":"５１號","E_COORD97":168506.39000000001,"N_COORD97":2544281.2599999998,"ADDRESS":"中成路５１號","OBJECTID":582289},"geometry":{"x":168506.38999999966,"y":2544281.2600000016}},{"attributes":{"ID":582317,"DIS_CODE":0,"TOWNNAME":"中西區","LI":"赤嵌里","LIN":"16鄰","STREET":"中成路","SECT":" ","MAREA":" ","LANE":" ","ALLEY":" ","HOUSE_NO":"５３號","E_COORD97":168507.51999999999,"N_COORD97":2544285.3500000001,"ADDRESS":"中成路５３號","OBJECTID":582290},"geometry":{"x":168507.51999999955,"y":2544285.3499999996}},{"attributes":{"ID":582318,"DIS_CODE":0,"TOWNNAME":"中西區","LI":"赤嵌里","LIN":"16鄰","STREET":"中成路","SECT":" ","MAREA":" ","LANE":" ","ALLEY":" ","HOUSE_NO":"５５號","E_COORD97":168509.57000000001,"N_COORD97":2544287.8500000001,"ADDRESS":"中成路５５號","OBJECTID":582291},"geometry":{"x":168509.5700000003,"y":2544287.8499999996}},{"attributes":{"ID":582319,"DIS_CODE":0,"TOWNNAME":"中西區","LI":"赤嵌里","LIN":"16鄰","STREET":"中成路","SECT":" ","MAREA":" ","LANE":" ","ALLEY":" ","HOUSE_NO":"５７號","E_COORD97":168512.53,"N_COORD97":2544293.98,"ADDRESS":"中成路５７號","OBJECTID":582292},"geometry":{"x":168512.53000000119,"y":2544293.9800000023}},{"attributes":{"ID":582320,"DIS_CODE":0,"TOWNNAME":"中西區","LI":"赤嵌里","LIN":"16鄰","STREET":"成功路","SECT":" ","MAREA":" ","LANE":" ","ALLEY":" ","HOUSE_NO":"２０３號","E_COORD97":168520.64000000001,"N_COORD97":2544309,"ADDRESS":"成功路２０３號","OBJECTID":582293},"geometry":{"x":168520.64000000153,"y":2544309.0000000037}},{"attributes":{"ID":582321,"DIS_CODE":0,"TOWNNAME":"中西區","LI":"赤嵌里","LIN":"16鄰","STREET":"成功路","SECT":" ","MAREA":" ","LANE":" ","ALLEY":" ","HOUSE_NO":"２０５號","E_COORD97":168517.67999999999,"N_COORD97":2544311.96,"ADDRESS":"成功路２０５號","OBJECTID":582294},"geometry":{"x":168517.68000000063,"y":2544311.9600000009}},{"attributes":{"ID":582322,"DIS_CODE":0,"TOWNNAME":"中西區","LI":"赤嵌里","LIN":"16鄰","STREET":"成功路","SECT":" ","MAREA":" ","LANE":" ","ALLEY":" ","HOUSE_NO":"２０５號之１","E_COORD97":168513.81,"N_COORD97":2544313.3199999998,"ADDRESS":"成功路２０５號之１","OBJECTID":582295},"geometry":{"x":168513.80999999959,"y":2544313.3200000003}},{"attributes":{"ID":582323,"DIS_CODE":0,"TOWNNAME":"中西區","LI":"赤嵌里","LIN":"16鄰","STREET":"成功路","SECT":" ","MAREA":" ","LANE":" ","ALLEY":" ","HOUSE_NO":"２０９號","E_COORD97":168498.10999999999,"N_COORD97":2544317.1800000002,"ADDRESS":"成功路２０９號","OBJECTID":582296},"geometry":{"x":168498.11000000127,"y":2544317.1799999997}},{"attributes":{"ID":582324,"DIS_CODE":0,"TOWNNAME":"中西區","LI":"赤嵌里","LIN":"16鄰","STREET":"忠義路","SECT":"二段","MAREA":" ","LANE":" ","ALLEY":" ","HOUSE_NO":"２４４號","E_COORD97":168480.45000000001,"N_COORD97":2544270.8100000001,"ADDRESS":"忠義路二段２４４號","OBJECTID":582297},"geometry":{"x":168480.45000000112,"y":2544270.8100000024}},{"attributes":{"ID":582325,"DIS_CODE":0,"TOWNNAME":"中西區","LI":"赤嵌里","LIN":"16鄰","STREET":"忠義路","SECT":"二段","MAREA":" ","LANE":" ","ALLEY":" ","HOUSE_NO":"２４６號","E_COORD97":168482.73000000001,"N_COORD97":2544275.1299999999,"ADDRESS":"忠義路二段２４６號","OBJECTID":582298},"geometry":{"x":168482.73000000045,"y":2544275.129999999}},{"attributes":{"ID":582326,"DIS_CODE":0,"TOWNNAME":"中西區","LI":"赤嵌里","LIN":"16鄰","STREET":"忠義路","SECT":"二段","MAREA":" ","LANE":" ","ALLEY":" ","HOUSE_NO":"２４８號","E_COORD97":168484.09,"N_COORD97":2544279.4399999999,"ADDRESS":"忠義路二段２４８號","OBJECTID":582299},"geometry":{"x":168484.09000000078,"y":2544279.4400000013}},{"attributes":{"ID":582327,"DIS_CODE":0,"TOWNNAME":"中西區","LI":"赤嵌里","LIN":"16鄰","STREET":"忠義路","SECT":"二段","MAREA":" ","LANE":" ","ALLEY":" ","HOUSE_NO":"２５０號","E_COORD97":168486.14000000001,"N_COORD97":2544283.5299999998,"ADDRESS":"忠義路二段２５０號","OBJECTID":582300},"geometry":{"x":168486.13999999966,"y":2544283.5299999993}},{"attributes":{"ID":582328,"DIS_CODE":0,"TOWNNAME":"中西區","LI":"赤嵌里","LIN":"16鄰","STREET":"忠義路","SECT":"二段","MAREA":" ","LANE":" ","ALLEY":" ","HOUSE_NO":"２５２號","E_COORD97":168487.04999999999,"N_COORD97":2544288.0800000001,"ADDRESS":"忠義路二段２５２號","OBJECTID":582301},"geometry":{"x":168487.04999999981,"y":2544288.0799999982}},{"attributes":{"ID":582329,"DIS_CODE":0,"TOWNNAME":"中西區","LI":"赤嵌里","LIN":"16鄰","STREET":"忠義路","SECT":"二段","MAREA":" ","LANE":" ","ALLEY":" ","HOUSE_NO":"２５４號","E_COORD97":168489.54999999999,"N_COORD97":2544294.8900000001,"ADDRESS":"忠義路二段２５４號","OBJECTID":582302},"geometry":{"x":168489.55000000075,"y":2544294.8900000025}},{"attributes":{"ID":582330,"DIS_CODE":0,"TOWNNAME":"中西區","LI":"赤嵌里","LIN":"16鄰","STREET":"忠義路","SECT":"二段","MAREA":" ","LANE":" ","ALLEY":" ","HOUSE_NO":"２５６號","E_COORD97":168492.73999999999,"N_COORD97":2544302.8500000001,"ADDRESS":"忠義路二段２５６號","OBJECTID":582303},"geometry":{"x":168492.74000000022,"y":2544302.8500000034}},{"attributes":{"ID":582331,"DIS_CODE":0,"TOWNNAME":"中西區","LI":"赤嵌里","LIN":"16鄰","STREET":"忠義路","SECT":"二段","MAREA":" ","LANE":" ","ALLEY":" ","HOUSE_NO":"２５８號","E_COORD97":168495.23999999999,"N_COORD97":2544308.75,"ADDRESS":"忠義路二段２５８號","OBJECTID":582304},"geometry":{"x":168495.24000000115,"y":2544308.7500000019}},{"attributes":{"ID":582332,"DIS_CODE":0,"TOWNNAME":"中西區","LI":"西湖里","LIN":"16鄰","STREET":"和緯路","SECT":"五段","MAREA":" ","LANE":" ","ALLEY":" ","HOUSE_NO":"２３１號","E_COORD97":166126.16,"N_COORD97":2545052.4300000002,"ADDRESS":"和緯路五段２３１號","OBJECTID":582305},"geometry":{"x":166126.16000000108,"y":2545052.4300000016}},{"attributes":{"ID":582333,"DIS_CODE":0,"TOWNNAME":"中西區","LI":"西湖里","LIN":"16鄰","STREET":"和緯路","SECT":"五段","MAREA":" ","LANE":" ","ALLEY":" ","HOUSE_NO":"２２７號","E_COORD97":166137.84,"N_COORD97":2545051.6699999999,"ADDRESS":"和緯路五段２２７號","OBJECTID":582306},"geometry":{"x":166137.84000000078,"y":2545051.6700000018}},{"attributes":{"ID":582334,"DIS_CODE":0,"TOWNNAME":"中西區","LI":"西湖里","LIN":"16鄰","STREET":"和緯路","SECT":"五段","MAREA":" ","LANE":" ","ALLEY":" ","HOUSE_NO":"２２９號","E_COORD97":166132,"N_COORD97":2545051.9300000002,"ADDRESS":"和緯路五段２２９號","OBJECTID":582307},"geometry":{"x":166132.00000000093,"y":2545051.9300000034}},{"attributes":{"ID":582335,"DIS_CODE":0,"TOWNNAME":"仁德區","LI":"後壁里","LIN":"18鄰","STREET":"德南路","SECT":" ","MAREA":" ","LANE":" ","ALLEY":" ","HOUSE_NO":"３６號","E_COORD97":173334.70999999999,"N_COORD97":2538773.52,"ADDRESS":"德南路３６號","OBJECTID":582308},"geometry":{"x":173334.71000000183,"y":2538773.5200000014}},{"attributes":{"ID":582336,"DIS_CODE":0,"TOWNNAME":"永康區","LI":"龍潭里","LIN":"15鄰","STREET":"龍橋街","SECT":" ","MAREA":" ","LANE":" ","ALLEY":" ","HOUSE_NO":"８號","E_COORD97":174889.73999999999,"N_COORD97":2548303.98,"ADDRESS":"龍橋街８號","OBJECTID":582309},"geometry":{"x":174889.74000000115,"y":2548303.9800000023}},{"attributes":{"ID":582337,"DIS_CODE":0,"TOWNNAME":"新市區","LI":"新和里","LIN":"16鄰","STREET":"可口街","SECT":" ","MAREA":" ","LANE":" ","ALLEY":" ","HOUSE_NO":"９６號","E_COORD97":177631.57000000001,"N_COORD97":2552603.5,"ADDRESS":"可口街９６號","OBJECTID":582310},"geometry":{"x":177631.57000000216,"y":2552603.5000000019}},{"attributes":{"ID":582338,"DIS_CODE":0,"TOWNNAME":"新市區","LI":"新和里","LIN":"16鄰","STREET":"可口街","SECT":" ","MAREA":" ","LANE":" ","ALLEY":" ","HOUSE_NO":"７２號","E_COORD97":177621.12,"N_COORD97":2552554.5,"ADDRESS":"可口街７２號","OBJECTID":582311},"geometry":{"x":177621.12000000104,"y":2552554.5000000037}},{"attributes":{"ID":582339,"DIS_CODE":0,"TOWNNAME":"新市區","LI":"新和里","LIN":"16鄰","STREET":"可口街","SECT":" ","MAREA":" ","LANE":" ","ALLEY":" ","HOUSE_NO":"９４號","E_COORD97":177630.82000000001,"N_COORD97":2552599.5,"ADDRESS":"可口街９４號","OBJECTID":582312},"geometry":{"x":177630.8200000003,"y":2552599.5000000019}},{"attributes":{"ID":582340,"DIS_CODE":0,"TOWNNAME":"新市區","LI":"新和里","LIN":"16鄰","STREET":"可口街","SECT":" ","MAREA":" ","LANE":" ","ALLEY":" ","HOUSE_NO":"８６號","E_COORD97":177627.76000000001,"N_COORD97":2552582.5,"ADDRESS":"可口街８６號","OBJECTID":582313},"geometry":{"x":177627.75999999978,"y":2552582.5000000019}},{"attributes":{"ID":582341,"DIS_CODE":0,"TOWNNAME":"新市區","LI":"港墘里","LIN":"16鄰","STREET":"長安街","SECT":" ","MAREA":" ","LANE":" ","ALLEY":" ","HOUSE_NO":"６６號","E_COORD97":178199.92999999999,"N_COORD97":2552662.8199999998,"ADDRESS":"長安街６６號","OBJECTID":582314},"geometry":{"x":178199.93000000156,"y":2552662.8200000003}},{"attributes":{"ID":582342,"DIS_CODE":0,"TOWNNAME":"新市區","LI":"港墘里","LIN":"16鄰","STREET":"長安街","SECT":" ","MAREA":" ","LANE":" ","ALLEY":" ","HOUSE_NO":"５０號","E_COORD97":178236.12,"N_COORD97":2552669.8199999998,"ADDRESS":"長安街５０號","OBJECTID":582315},"geometry":{"x":178236.12000000011,"y":2552669.8200000003}},{"attributes":{"ID":582343,"DIS_CODE":0,"TOWNNAME":"新市區","LI":"港墘里","LIN":"16鄰","STREET":"長安街","SECT":" ","MAREA":" ","LANE":" ","ALLEY":" ","HOUSE_NO":"５６號","E_COORD97":178223.17999999999,"N_COORD97":2552667.8199999998,"ADDRESS":"長安街５６號","OBJECTID":582316},"geometry":{"x":178223.1799999997,"y":2552667.820000004}},{"attributes":{"ID":582344,"DIS_CODE":0,"TOWNNAME":"新市區","LI":"港墘里","LIN":"16鄰","STREET":"長安街","SECT":" ","MAREA":" ","LANE":" ","ALLEY":" ","HOUSE_NO":"４８號","E_COORD97":178240.54000000001,"N_COORD97":2552670.5600000001,"ADDRESS":"長安街４８號","OBJECTID":582317},"geometry":{"x":178240.54000000097,"y":2552670.5600000024}},{"attributes":{"ID":582345,"DIS_CODE":0,"TOWNNAME":"仁德區","LI":"仁德里","LIN":"35鄰","STREET":"裕華三街","SECT":" ","MAREA":" ","LANE":" ","ALLEY":" ","HOUSE_NO":"３３３號","E_COORD97":172785.29000000001,"N_COORD97":2541706.7400000002,"ADDRESS":"裕華三街３３３號","OBJECTID":582318},"geometry":{"x":172785.29000000097,"y":2541706.7400000002}},{"attributes":{"ID":582346,"DIS_CODE":0,"TOWNNAME":"佳里區","LI":"忠仁里","LIN":"16鄰","STREET":"平等街","SECT":" ","MAREA":" ","LANE":" ","ALLEY":" ","HOUSE_NO":"１１２號","E_COORD97":165943.60999999999,"N_COORD97":2561918.8100000001,"ADDRESS":"平等街１１２號","OBJECTID":582319},"geometry":{"x":165943.61000000127,"y":2561918.8100000024}},{"attributes":{"ID":582347,"DIS_CODE":0,"TOWNNAME":"新市區","LI":"永就里","LIN":"16鄰","STREET":"永華二街","SECT":" ","MAREA":" ","LANE":" ","ALLEY":" ","HOUSE_NO":"２４號","E_COORD97":177625.95999999999,"N_COORD97":2551032.75,"ADDRESS":"永華二街２４號","OBJECTID":582320},"geometry":{"x":177625.96000000089,"y":2551032.75}},{"attributes":{"ID":582348,"DIS_CODE":0,"TOWNNAME":"新市區","LI":"港墘里","LIN":"16鄰","STREET":"長安街","SECT":" ","MAREA":" ","LANE":" ","ALLEY":" ","HOUSE_NO":"５４號","E_COORD97":178227.32000000001,"N_COORD97":2552668.5699999998,"ADDRESS":"長安街５４號","OBJECTID":582321},"geometry":{"x":178227.32000000123,"y":2552668.5700000003}},{"attributes":{"ID":582349,"DIS_CODE":0,"TOWNNAME":"新市區","LI":"新和里","LIN":"16鄰","STREET":"可口街","SECT":" ","MAREA":" ","LANE":" ","ALLEY":" ","HOUSE_NO":"８８號","E_COORD97":177628.12,"N_COORD97":2552586.5,"ADDRESS":"可口街８８號","OBJECTID":582322},"geometry":{"x":177628.12000000104,"y":2552586.5000000019}},{"attributes":{"ID":582350,"DIS_CODE":0,"TOWNNAME":"安南區","LI":"學東里","LIN":"16鄰","STREET":"安明路","SECT":"四段","MAREA":" ","LANE":" ","ALLEY":" ","HOUSE_NO":"１１２７號","E_COORD97":161393.67000000001,"N_COORD97":2553270.9100000001,"ADDRESS":"安明路四段１１２７號","OBJECTID":582323},"geometry":{"x":161393.66999999993,"y":2553270.910000002}},{"attributes":{"ID":582351,"DIS_CODE":0,"TOWNNAME":"安南區","LI":"淵東里","LIN":"16鄰","STREET":"功安一街","SECT":" ","MAREA":" ","LANE":" ","ALLEY":" ","HOUSE_NO":"３５０號","E_COORD97":165556.67999999999,"N_COORD97":2550020.8999999999,"ADDRESS":"功安一街３５０號","OBJECTID":582324},"geometry":{"x":165556.6799999997,"y":2550020.9000000022}},{"attributes":{"ID":582352,"DIS_CODE":0,"TOWNNAME":"安南區","LI":"城南里","LIN":"16鄰","STREET":"青砂街","SECT":"一段","MAREA":" ","LANE":" ","ALLEY":" ","HOUSE_NO":"１１號","E_COORD97":160684.94,"N_COORD97":2551459.6299999999,"ADDRESS":"青砂街一段１１號","OBJECTID":582325},"geometry":{"x":160684.94000000134,"y":2551459.629999999}},{"attributes":{"ID":582353,"DIS_CODE":0,"TOWNNAME":"佳里區","LI":"鎮山里","LIN":"16鄰","STREET":"仁愛路","SECT":" ","MAREA":" ","LANE":" ","ALLEY":" ","HOUSE_NO":"２０３號","E_COORD97":166248.73999999999,"N_COORD97":2561405.3599999999,"ADDRESS":"仁愛路２０３號","OBJECTID":582326},"geometry":{"x":166248.74000000022,"y":2561405.3599999994}},{"attributes":{"ID":582354,"DIS_CODE":0,"TOWNNAME":"永康區","LI":"網寮里","LIN":"24鄰","STREET":"永和街","SECT":" ","MAREA":" ","LANE":" ","ALLEY":" ","HOUSE_NO":"３９號","E_COORD97":173736.35999999999,"N_COORD97":2546466.7799999998,"ADDRESS":"永和街３９號","OBJECTID":582327},"geometry":{"x":173736.36000000127,"y":2546466.7800000012}},{"attributes":{"ID":582355,"DIS_CODE":0,"TOWNNAME":"永康區","LI":"復國里","LIN":"21鄰","STREET":"復華六街","SECT":" ","MAREA":" ","LANE":" ","ALLEY":" ","HOUSE_NO":"９９號","E_COORD97":172598.54000000001,"N_COORD97":2545837.2000000002,"ADDRESS":"復華六街９９號","OBJECTID":582328},"geometry":{"x":172598.5400000019,"y":2545837.2000000011}},{"attributes":{"ID":582356,"DIS_CODE":0,"TOWNNAME":"佳里區","LI":"鎮山里","LIN":"16鄰","STREET":"仁愛路","SECT":" ","MAREA":" ","LANE":" ","ALLEY":" ","HOUSE_NO":"２１３號","E_COORD97":166236.94,"N_COORD97":2561410.6499999999,"ADDRESS":"仁愛路２１３號","OBJECTID":582329},"geometry":{"x":166236.94000000041,"y":2561410.6500000022}},{"attributes":{"ID":582357,"DIS_CODE":0,"TOWNNAME":"佳里區","LI":"鎮山里","LIN":"16鄰","STREET":"仁愛路","SECT":" ","MAREA":" ","LANE":" ","ALLEY":" ","HOUSE_NO":"２２５號","E_COORD97":166195.76000000001,"N_COORD97":2561425.6000000001,"ADDRESS":"仁愛路２２５號","OBJECTID":582330},"geometry":{"x":166195.76000000164,"y":2561425.5999999996}},{"attributes":{"ID":582358,"DIS_CODE":0,"TOWNNAME":"佳里區","LI":"鎮山里","LIN":"16鄰","STREET":"仁愛路","SECT":" ","MAREA":" ","LANE":" ","ALLEY":" ","HOUSE_NO":"２２７號","E_COORD97":166191.79999999999,"N_COORD97":2561426.7799999998,"ADDRESS":"仁愛路２２７號","OBJECTID":582331},"geometry":{"x":166191.79999999981,"y":2561426.7799999993}},{"attributes":{"ID":582359,"DIS_CODE":0,"TOWNNAME":"佳里區","LI":"鎮山里","LIN":"16鄰","STREET":"仁愛路","SECT":" ","MAREA":" ","LANE":" ","ALLEY":" ","HOUSE_NO":"２２９號","E_COORD97":166188.04999999999,"N_COORD97":2561427.9700000002,"ADDRESS":"仁愛路２２９號","OBJECTID":582332},"geometry":{"x":166188.04999999981,"y":2561427.9700000044}},{"attributes":{"ID":582360,"DIS_CODE":0,"TOWNNAME":"佳里區","LI":"鎮山里","LIN":"16鄰","STREET":"仁愛路","SECT":" ","MAREA":" ","LANE":" ","ALLEY":" ","HOUSE_NO":"２３１號","E_COORD97":166183.51999999999,"N_COORD97":2561429.2599999998,"ADDRESS":"仁愛路２３１號","OBJECTID":582333},"geometry":{"x":166183.52000000142,"y":2561429.2600000016}},{"attributes":{"ID":582361,"DIS_CODE":0,"TOWNNAME":"東區","LI":"復興里","LIN":"16鄰","STREET":"裕學路","SECT":" ","MAREA":" ","LANE":" ","ALLEY":" ","HOUSE_NO":"１７９號","E_COORD97":171710.67999999999,"N_COORD97":2542786.5,"ADDRESS":"裕學路１７９號","OBJECTID":582334},"geometry":{"x":171710.68000000156,"y":2542786.4999999981}},{"attributes":{"ID":582362,"DIS_CODE":0,"TOWNNAME":"東區","LI":"復興里","LIN":"16鄰","STREET":"裕學路","SECT":" ","MAREA":" ","LANE":" ","ALLEY":" ","HOUSE_NO":"１７７號","E_COORD97":171711.70000000001,"N_COORD97":2542781.73,"ADDRESS":"裕學路１７７號","OBJECTID":582335},"geometry":{"x":171711.70000000112,"y":2542781.7300000004}},{"attributes":{"ID":582363,"DIS_CODE":0,"TOWNNAME":"東區","LI":"復興里","LIN":"16鄰","STREET":"裕學路","SECT":" ","MAREA":" ","LANE":" ","ALLEY":" ","HOUSE_NO":"１７５號","E_COORD97":171711.35999999999,"N_COORD97":2542777.3100000001,"ADDRESS":"裕學路１７５號","OBJECTID":582336},"geometry":{"x":171711.36000000034,"y":2542777.3100000005}},{"attributes":{"ID":582364,"DIS_CODE":0,"TOWNNAME":"東區","LI":"復興里","LIN":"16鄰","STREET":"裕學路","SECT":" ","MAREA":" ","LANE":" ","ALLEY":" ","HOUSE_NO":"１７３號","E_COORD97":171712.38,"N_COORD97":2542763.6899999999,"ADDRESS":"裕學路１７３號","OBJECTID":582337},"geometry":{"x":171712.37999999989,"y":2542763.6899999995}},{"attributes":{"ID":582365,"DIS_CODE":0,"TOWNNAME":"東區","LI":"復興里","LIN":"16鄰","STREET":"裕學路","SECT":" ","MAREA":" ","LANE":" ","ALLEY":" ","HOUSE_NO":"１７１號","E_COORD97":171717.5,"N_COORD97":2542764.3700000001,"ADDRESS":"裕學路１７１號","OBJECTID":582338},"geometry":{"x":171717.50000000093,"y":2542764.370000001}},{"attributes":{"ID":582366,"DIS_CODE":0,"TOWNNAME":"東區","LI":"復興里","LIN":"16鄰","STREET":"裕學路","SECT":" ","MAREA":" ","LANE":" ","ALLEY":" ","HOUSE_NO":"１６９號","E_COORD97":171721.59,"N_COORD97":2542765.0499999998,"ADDRESS":"裕學路１６９號","OBJECTID":582339},"geometry":{"x":171721.59000000171,"y":2542765.0500000026}},{"attributes":{"ID":582367,"DIS_CODE":0,"TOWNNAME":"東區","LI":"復興里","LIN":"16鄰","STREET":"裕學路","SECT":" ","MAREA":" ","LANE":" ","ALLEY":" ","HOUSE_NO":"１６７號","E_COORD97":171726.35999999999,"N_COORD97":2542766.4100000001,"ADDRESS":"裕學路１６７號","OBJECTID":582340},"geometry":{"x":171726.36000000034,"y":2542766.4100000001}},{"attributes":{"ID":582368,"DIS_CODE":0,"TOWNNAME":"東區","LI":"復興里","LIN":"16鄰","STREET":"裕學路","SECT":" ","MAREA":" ","LANE":" ","ALLEY":" ","HOUSE_NO":"１６５號","E_COORD97":171731.13,"N_COORD97":2542767.0899999999,"ADDRESS":"裕學路１６５號","OBJECTID":582341},"geometry":{"x":171731.12999999989,"y":2542767.0900000017}},{"attributes":{"ID":582369,"DIS_CODE":0,"TOWNNAME":"永康區","LI":"網寮里","LIN":"23鄰","STREET":"文化路","SECT":" ","MAREA":" ","LANE":" ","ALLEY":" ","HOUSE_NO":"１６８號","E_COORD97":173807.67000000001,"N_COORD97":2546210.6600000001,"ADDRESS":"文化路１６８號","OBJECTID":582342},"geometry":{"x":173807.66999999993,"y":2546210.660000002}},{"attributes":{"ID":582370,"DIS_CODE":0,"TOWNNAME":"東區","LI":"復興里","LIN":"16鄰","STREET":"裕學路","SECT":" ","MAREA":" ","LANE":" ","ALLEY":" ","HOUSE_NO":"１６３號","E_COORD97":171735.56,"N_COORD97":2542767.0899999999,"ADDRESS":"裕學路１６３號","OBJECTID":582343},"geometry":{"x":171735.56000000052,"y":2542767.0900000017}},{"attributes":{"ID":582371,"DIS_CODE":0,"TOWNNAME":"東區","LI":"復興里","LIN":"16鄰","STREET":"裕學路","SECT":" ","MAREA":" ","LANE":" ","ALLEY":" ","HOUSE_NO":"１６１號","E_COORD97":171740.67999999999,"N_COORD97":2542767.4300000002,"ADDRESS":"裕學路１６１號","OBJECTID":582344},"geometry":{"x":171740.6799999997,"y":2542767.4300000016}},{"attributes":{"ID":582372,"DIS_CODE":0,"TOWNNAME":"東區","LI":"復興里","LIN":"16鄰","STREET":"裕學路","SECT":" ","MAREA":" ","LANE":" ","ALLEY":" ","HOUSE_NO":"１５９號","E_COORD97":171745.45000000001,"N_COORD97":2542768.7999999998,"ADDRESS":"裕學路１５９號","OBJECTID":582345},"geometry":{"x":171745.45000000112,"y":2542768.8000000045}},{"attributes":{"ID":582373,"DIS_CODE":0,"TOWNNAME":"東區","LI":"復興里","LIN":"16鄰","STREET":"裕學路","SECT":" ","MAREA":" ","LANE":" ","ALLEY":" ","HOUSE_NO":"１５７號","E_COORD97":171747.48999999999,"N_COORD97":2542756.54,"ADDRESS":"裕學路１５７號","OBJECTID":582346},"geometry":{"x":171747.49000000022,"y":2542756.540000001}},{"attributes":{"ID":582374,"DIS_CODE":0,"TOWNNAME":"東區","LI":"復興里","LIN":"16鄰","STREET":"裕學路","SECT":" ","MAREA":" ","LANE":" ","ALLEY":" ","HOUSE_NO":"１５５號","E_COORD97":171742.04000000001,"N_COORD97":2542756.8799999999,"ADDRESS":"裕學路１５５號","OBJECTID":582347},"geometry":{"x":171742.04000000004,"y":2542756.8800000008}},{"attributes":{"ID":582375,"DIS_CODE":0,"TOWNNAME":"東區","LI":"復興里","LIN":"16鄰","STREET":"裕學路","SECT":" ","MAREA":" ","LANE":" ","ALLEY":" ","HOUSE_NO":"１５３號","E_COORD97":171737.60999999999,"N_COORD97":2542756.54,"ADDRESS":"裕學路１５３號","OBJECTID":582348},"geometry":{"x":171737.61000000127,"y":2542756.540000001}},{"attributes":{"ID":582376,"DIS_CODE":0,"TOWNNAME":"東區","LI":"復興里","LIN":"16鄰","STREET":"裕學路","SECT":" ","MAREA":" ","LANE":" ","ALLEY":" ","HOUSE_NO":"１５１號","E_COORD97":171733.17999999999,"N_COORD97":2542755.1800000002,"ADDRESS":"裕學路１５１號","OBJECTID":582349},"geometry":{"x":171733.18000000063,"y":2542755.1800000016}},{"attributes":{"ID":582377,"DIS_CODE":0,"TOWNNAME":"東區","LI":"復興里","LIN":"16鄰","STREET":"裕學路","SECT":" ","MAREA":" ","LANE":" ","ALLEY":" ","HOUSE_NO":"１４９號","E_COORD97":171728.75,"N_COORD97":2542754.5,"ADDRESS":"裕學路１４９號","OBJECTID":582350},"geometry":{"x":171728.75,"y":2542754.5000000019}},{"attributes":{"ID":582378,"DIS_CODE":0,"TOWNNAME":"東區","LI":"復興里","LIN":"16鄰","STREET":"裕學路","SECT":" ","MAREA":" ","LANE":" ","ALLEY":" ","HOUSE_NO":"１４７號","E_COORD97":171723.63,"N_COORD97":2542753.8199999998,"ADDRESS":"裕學路１４７號","OBJECTID":582351},"geometry":{"x":171723.63000000082,"y":2542753.8200000003}},{"attributes":{"ID":582379,"DIS_CODE":0,"TOWNNAME":"東區","LI":"復興里","LIN":"16鄰","STREET":"裕學路","SECT":" ","MAREA":" ","LANE":" ","ALLEY":" ","HOUSE_NO":"１４５號","E_COORD97":171718.17999999999,"N_COORD97":2542752.46,"ADDRESS":"裕學路１４５號","OBJECTID":582352},"geometry":{"x":171718.18000000063,"y":2542752.4600000009}},{"attributes":{"ID":582380,"DIS_CODE":0,"TOWNNAME":"東區","LI":"復興里","LIN":"16鄰","STREET":"裕學路","SECT":" ","MAREA":" ","LANE":" ","ALLEY":" ","HOUSE_NO":"１３１號","E_COORD97":171736.25,"N_COORD97":2542731.4900000002,"ADDRESS":"裕學路１３１號","OBJECTID":582353},"geometry":{"x":171736.25000000093,"y":2542731.4900000002}},{"attributes":{"ID":582381,"DIS_CODE":0,"TOWNNAME":"東區","LI":"復興里","LIN":"16鄰","STREET":"裕學路","SECT":" ","MAREA":" ","LANE":" ","ALLEY":" ","HOUSE_NO":"１２９號","E_COORD97":171734.54000000001,"N_COORD97":2542735.9100000001,"ADDRESS":"裕學路１２９號","OBJECTID":582354},"geometry":{"x":171734.54000000097,"y":2542735.9100000001}},{"attributes":{"ID":582382,"DIS_CODE":0,"TOWNNAME":"東區","LI":"復興里","LIN":"16鄰","STREET":"裕學路","SECT":" ","MAREA":" ","LANE":" ","ALLEY":" ","HOUSE_NO":"１２７號","E_COORD97":171734.20000000001,"N_COORD97":2542740.6800000002,"ADDRESS":"裕學路１２７號","OBJECTID":582355},"geometry":{"x":171734.20000000019,"y":2542740.6799999997}},{"attributes":{"ID":582383,"DIS_CODE":0,"TOWNNAME":"東區","LI":"復興里","LIN":"16鄰","STREET":"裕學路","SECT":" ","MAREA":" ","LANE":" ","ALLEY":" ","HOUSE_NO":"１２５號","E_COORD97":171745.79000000001,"N_COORD97":2542742.3799999999,"ADDRESS":"裕學路１２５號","OBJECTID":582356},"geometry":{"x":171745.7900000019,"y":2542742.3800000027}},{"attributes":{"ID":582384,"DIS_CODE":0,"TOWNNAME":"東區","LI":"復興里","LIN":"16鄰","STREET":"裕學路","SECT":" ","MAREA":" ","LANE":" ","ALLEY":" ","HOUSE_NO":"１２３號","E_COORD97":171745.10999999999,"N_COORD97":2542737.6099999999,"ADDRESS":"裕學路１２３號","OBJECTID":582357},"geometry":{"x":171745.11000000034,"y":2542737.6099999994}},{"attributes":{"ID":582385,"DIS_CODE":0,"TOWNNAME":"東區","LI":"復興里","LIN":"16鄰","STREET":"裕學路","SECT":" ","MAREA":" ","LANE":" ","ALLEY":" ","HOUSE_NO":"１２１號","E_COORD97":171746.47,"N_COORD97":2542732.1699999999,"ADDRESS":"裕學路１２１號","OBJECTID":582358},"geometry":{"x":171746.47000000067,"y":2542732.1700000018}},{"attributes":{"ID":582386,"DIS_CODE":0,"TOWNNAME":"東區","LI":"復興里","LIN":"16鄰","STREET":"裕學路","SECT":" ","MAREA":" ","LANE":" ","ALLEY":" ","HOUSE_NO":"１１９號","E_COORD97":171746.81,"N_COORD97":2542727.3999999999,"ADDRESS":"裕學路１１９號","OBJECTID":582359},"geometry":{"x":171746.80999999866,"y":2542727.4000000022}},{"attributes":{"ID":582387,"DIS_CODE":0,"TOWNNAME":"東區","LI":"復興里","LIN":"16鄰","STREET":"裕學路","SECT":" ","MAREA":" ","LANE":" ","ALLEY":" ","HOUSE_NO":"１１７號","E_COORD97":171720.22,"N_COORD97":2542709.3599999999,"ADDRESS":"裕學路１１７號","OBJECTID":582360},"geometry":{"x":171720.21999999974,"y":2542709.3600000031}},{"attributes":{"ID":582388,"DIS_CODE":0,"TOWNNAME":"東區","LI":"復興里","LIN":"16鄰","STREET":"裕學路","SECT":" ","MAREA":" ","LANE":" ","ALLEY":" ","HOUSE_NO":"１１５號","E_COORD97":171726.35999999999,"N_COORD97":2542710.04,"ADDRESS":"裕學路１１５號","OBJECTID":582361},"geometry":{"x":171726.36000000034,"y":2542710.0399999991}},{"attributes":{"ID":582389,"DIS_CODE":0,"TOWNNAME":"東區","LI":"復興里","LIN":"16鄰","STREET":"裕學路","SECT":" ","MAREA":" ","LANE":" ","ALLEY":" ","HOUSE_NO":"１１３號","E_COORD97":171732.5,"N_COORD97":2542710.7200000002,"ADDRESS":"裕學路１１３號","OBJECTID":582362},"geometry":{"x":171732.50000000186,"y":2542710.7200000007}},{"attributes":{"ID":582390,"DIS_CODE":0,"TOWNNAME":"東區","LI":"復興里","LIN":"16鄰","STREET":"裕學路","SECT":" ","MAREA":" ","LANE":" ","ALLEY":" ","HOUSE_NO":"１１１號","E_COORD97":171737.26999999999,"N_COORD97":2542712.0800000001,"ADDRESS":"裕學路１１１號","OBJECTID":582363},"geometry":{"x":171737.27000000048,"y":2542712.0800000019}},{"attributes":{"ID":582391,"DIS_CODE":0,"TOWNNAME":"東區","LI":"復興里","LIN":"16鄰","STREET":"裕學路","SECT":" ","MAREA":" ","LANE":" ","ALLEY":" ","HOUSE_NO":"１０９號","E_COORD97":171742.72,"N_COORD97":2542712.7599999998,"ADDRESS":"裕學路１０９號","OBJECTID":582364},"geometry":{"x":171742.7200000016,"y":2542712.7599999998}},{"attributes":{"ID":582392,"DIS_CODE":0,"TOWNNAME":"東區","LI":"復興里","LIN":"16鄰","STREET":"裕學路","SECT":" ","MAREA":" ","LANE":" ","ALLEY":" ","HOUSE_NO":"１０７號","E_COORD97":171747.84,"N_COORD97":2542713.7799999998,"ADDRESS":"裕學路１０７號","OBJECTID":582365},"geometry":{"x":171747.84000000078,"y":2542713.7800000012}},{"attributes":{"ID":582393,"DIS_CODE":0,"TOWNNAME":"東區","LI":"復興里","LIN":"16鄰","STREET":"裕學路","SECT":" ","MAREA":" ","LANE":" ","ALLEY":" ","HOUSE_NO":"１０５號","E_COORD97":171753.29000000001,"N_COORD97":2542714.7999999998,"ADDRESS":"裕學路１０５號","OBJECTID":582366},"geometry":{"x":171753.29000000097,"y":2542714.8000000026}},{"attributes":{"ID":582394,"DIS_CODE":0,"TOWNNAME":"東區","LI":"復興里","LIN":"16鄰","STREET":"裕學路","SECT":" ","MAREA":" ","LANE":" ","ALLEY":" ","HOUSE_NO":"１０３號","E_COORD97":171758.06,"N_COORD97":2542716.1699999999,"ADDRESS":"裕學路１０３號","OBJECTID":582367},"geometry":{"x":171758.05999999959,"y":2542716.1699999999}},{"attributes":{"ID":582395,"DIS_CODE":0,"TOWNNAME":"東區","LI":"復興里","LIN":"16鄰","STREET":"裕學路","SECT":" ","MAREA":" ","LANE":" ","ALLEY":" ","HOUSE_NO":"１０１號","E_COORD97":171763.51999999999,"N_COORD97":2542716.1699999999,"ADDRESS":"裕學路１０１號","OBJECTID":582368},"geometry":{"x":171763.51999999955,"y":2542716.1699999999}},{"attributes":{"ID":582396,"DIS_CODE":0,"TOWNNAME":"東區","LI":"復興里","LIN":"16鄰","STREET":"裕學路","SECT":" ","MAREA":" ","LANE":" ","ALLEY":" ","HOUSE_NO":"９９號","E_COORD97":171767.95000000001,"N_COORD97":2542718.21,"ADDRESS":"裕學路９９號","OBJECTID":582369},"geometry":{"x":171767.95000000019,"y":2542718.209999999}},{"attributes":{"ID":582397,"DIS_CODE":0,"TOWNNAME":"東區","LI":"復興里","LIN":"16鄰","STREET":"裕學路","SECT":" ","MAREA":" ","LANE":" ","ALLEY":" ","HOUSE_NO":"９７號","E_COORD97":171764.54000000001,"N_COORD97":2542729.7799999998,"ADDRESS":"裕學路９７號","OBJECTID":582370},"geometry":{"x":171764.5400000019,"y":2542729.7800000031}},{"attributes":{"ID":582398,"DIS_CODE":0,"TOWNNAME":"永康區","LI":"網寮里","LIN":"24鄰","STREET":"永和街","SECT":" ","MAREA":" ","LANE":" ","ALLEY":" ","HOUSE_NO":"２５號","E_COORD97":173776.47,"N_COORD97":2546477.3900000001,"ADDRESS":"永和街２５號","OBJECTID":582371},"geometry":{"x":173776.46999999974,"y":2546477.3900000025}},{"attributes":{"ID":582399,"DIS_CODE":0,"TOWNNAME":"永康區","LI":"網寮里","LIN":"23鄰","STREET":"文化路","SECT":" ","MAREA":" ","LANE":" ","ALLEY":" ","HOUSE_NO":"１５０號","E_COORD97":173840.35999999999,"N_COORD97":2546221.6600000001,"ADDRESS":"文化路１５０號","OBJECTID":582372},"geometry":{"x":173840.36000000034,"y":2546221.660000002}},{"attributes":{"ID":582400,"DIS_CODE":0,"TOWNNAME":"東區","LI":"復興里","LIN":"16鄰","STREET":"裕學路","SECT":" ","MAREA":" ","LANE":" ","ALLEY":" ","HOUSE_NO":"９５號","E_COORD97":171763.85999999999,"N_COORD97":2542733.8700000001,"ADDRESS":"裕學路９５號","OBJECTID":582373},"geometry":{"x":171763.86000000034,"y":2542733.870000001}},{"attributes":{"ID":582401,"DIS_CODE":0,"TOWNNAME":"東區","LI":"復興里","LIN":"16鄰","STREET":"裕學路","SECT":" ","MAREA":" ","LANE":" ","ALLEY":" ","HOUSE_NO":"９３號","E_COORD97":171761.47,"N_COORD97":2542739.6600000001,"ADDRESS":"裕學路９３號","OBJECTID":582374},"geometry":{"x":171761.47000000067,"y":2542739.660000002}},{"attributes":{"ID":582402,"DIS_CODE":0,"TOWNNAME":"東區","LI":"復興里","LIN":"16鄰","STREET":"裕學路","SECT":" ","MAREA":" ","LANE":" ","ALLEY":" ","HOUSE_NO":"９１號","E_COORD97":171762.14999999999,"N_COORD97":2542744.7599999998,"ADDRESS":"裕學路９１號","OBJECTID":582375},"geometry":{"x":171762.15000000037,"y":2542744.7600000016}},{"attributes":{"ID":582403,"DIS_CODE":0,"TOWNNAME":"東區","LI":"復興里","LIN":"16鄰","STREET":"裕學路","SECT":" ","MAREA":" ","LANE":" ","ALLEY":" ","HOUSE_NO":"８９號","E_COORD97":171770.67999999999,"N_COORD97":2542759.6000000001,"ADDRESS":"裕學路８９號","OBJECTID":582376},"geometry":{"x":171770.68000000063,"y":2542759.6000000015}},{"attributes":{"ID":582404,"DIS_CODE":0,"TOWNNAME":"東區","LI":"復興里","LIN":"16鄰","STREET":"裕學路","SECT":" ","MAREA":" ","LANE":" ","ALLEY":" ","HOUSE_NO":"８７號","E_COORD97":171764.88,"N_COORD97":2542759.2599999998,"ADDRESS":"裕學路８７號","OBJECTID":582377},"geometry":{"x":171764.87999999989,"y":2542759.2600000016}},{"attributes":{"ID":582405,"DIS_CODE":0,"TOWNNAME":"東區","LI":"復興里","LIN":"16鄰","STREET":"裕學路","SECT":" ","MAREA":" ","LANE":" ","ALLEY":" ","HOUSE_NO":"８５號","E_COORD97":171759.09,"N_COORD97":2542758.5800000001,"ADDRESS":"裕學路８５號","OBJECTID":582378},"geometry":{"x":171759.09000000078,"y":2542758.5800000001}},{"attributes":{"ID":582406,"DIS_CODE":0,"TOWNNAME":"佳里區","LI":"安西里","LIN":"16鄰","STREET":"文化路","SECT":" ","MAREA":" ","LANE":" ","ALLEY":" ","HOUSE_NO":"３０２號","E_COORD97":165472.17000000001,"N_COORD97":2562601.6899999999,"ADDRESS":"文化路３０２號","OBJECTID":582379},"geometry":{"x":165472.16999999993,"y":2562601.6900000032}},{"attributes":{"ID":582407,"DIS_CODE":0,"TOWNNAME":"佳里區","LI":"安西里","LIN":"16鄰","STREET":"文化路","SECT":" ","MAREA":" ","LANE":" ","ALLEY":" ","HOUSE_NO":"３０４號","E_COORD97":165467.81,"N_COORD97":2562601.7599999998,"ADDRESS":"文化路３０４號","OBJECTID":582380},"geometry":{"x":165467.80999999959,"y":2562601.7600000035}},{"attributes":{"ID":582408,"DIS_CODE":0,"TOWNNAME":"佳里區","LI":"安西里","LIN":"16鄰","STREET":"文化路","SECT":" ","MAREA":" ","LANE":" ","ALLEY":" ","HOUSE_NO":"３０６號","E_COORD97":165463.17000000001,"N_COORD97":2562601.8599999999,"ADDRESS":"文化路３０６號","OBJECTID":582381},"geometry":{"x":165463.17000000086,"y":2562601.8600000013}},{"attributes":{"ID":582409,"DIS_CODE":0,"TOWNNAME":"佳里區","LI":"安西里","LIN":"16鄰","STREET":"文化路","SECT":" ","MAREA":" ","LANE":" ","ALLEY":" ","HOUSE_NO":"３０８號","E_COORD97":165458.09,"N_COORD97":2562601.8399999999,"ADDRESS":"文化路３０８號","OBJECTID":582382},"geometry":{"x":165458.09000000078,"y":2562601.8400000017}},{"attributes":{"ID":582410,"DIS_CODE":0,"TOWNNAME":"佳里區","LI":"安西里","LIN":"16鄰","STREET":"文化路","SECT":" ","MAREA":" ","LANE":" ","ALLEY":" ","HOUSE_NO":"３１２號","E_COORD97":165450.16,"N_COORD97":2562601.7000000002,"ADDRESS":"文化路３１２號","OBJECTID":582383},"geometry":{"x":165450.16000000015,"y":2562601.7000000011}},{"attributes":{"ID":582411,"DIS_CODE":0,"TOWNNAME":"永康區","LI":"網寮里","LIN":"18鄰","STREET":"永勝街","SECT":" ","MAREA":" ","LANE":" ","ALLEY":" ","HOUSE_NO":"９７號","E_COORD97":173481.54000000001,"N_COORD97":2546363.71,"ADDRESS":"永勝街９７號","OBJECTID":582384},"geometry":{"x":173481.54000000004,"y":2546363.7100000028}},{"attributes":{"ID":582412,"DIS_CODE":0,"TOWNNAME":"永康區","LI":"復華里","LIN":"16鄰","STREET":"復華七街","SECT":" ","MAREA":" ","LANE":" ","ALLEY":" ","HOUSE_NO":"８６號","E_COORD97":172830.10999999999,"N_COORD97":2546126.4300000002,"ADDRESS":"復華七街８６號","OBJECTID":582385},"geometry":{"x":172830.11000000034,"y":2546126.4300000034}},{"attributes":{"ID":582413,"DIS_CODE":0,"TOWNNAME":"永康區","LI":"網寮里","LIN":"26鄰","STREET":"永興路","SECT":" ","MAREA":" ","LANE":" ","ALLEY":" ","HOUSE_NO":"９１號","E_COORD97":173977.87,"N_COORD97":2546562.8100000001,"ADDRESS":"永興路９１號","OBJECTID":582386},"geometry":{"x":173977.86999999918,"y":2546562.8100000024}},{"attributes":{"ID":582414,"DIS_CODE":0,"TOWNNAME":"永康區","LI":"復華里","LIN":"41鄰","STREET":"復華六街","SECT":" ","MAREA":" ","LANE":" ","ALLEY":" ","HOUSE_NO":"１００號","E_COORD97":172627.69,"N_COORD97":2545857.5899999999,"ADDRESS":"復華六街１００號","OBJECTID":582387},"geometry":{"x":172627.69000000041,"y":2545857.5900000036}},{"attributes":{"ID":582415,"DIS_CODE":0,"TOWNNAME":"佳里區","LI":"忠仁里","LIN":"16鄰","STREET":"平等街","SECT":" ","MAREA":" ","LANE":" ","ALLEY":" ","HOUSE_NO":"１０６號","E_COORD97":165957.75,"N_COORD97":2561921.0499999998,"ADDRESS":"平等街１０６號","OBJECTID":582388},"geometry":{"x":165957.75000000093,"y":2561921.0500000007}},{"attributes":{"ID":582416,"DIS_CODE":0,"TOWNNAME":"佳里區","LI":"忠仁里","LIN":"16鄰","STREET":"平等街","SECT":" ","MAREA":" ","LANE":" ","ALLEY":" ","HOUSE_NO":"１０８號","E_COORD97":165951.81,"N_COORD97":2561920.1200000001,"ADDRESS":"平等街１０８號","OBJECTID":582389},"geometry":{"x":165951.81000000052,"y":2561920.1200000029}},{"attributes":{"ID":582417,"DIS_CODE":0,"TOWNNAME":"佳里區","LI":"忠仁里","LIN":"16鄰","STREET":"平等街","SECT":" ","MAREA":" ","LANE":" ","ALLEY":" ","HOUSE_NO":"１１０號","E_COORD97":165947.67000000001,"N_COORD97":2561919.4900000002,"ADDRESS":"平等街１１０號","OBJECTID":582390},"geometry":{"x":165947.67000000086,"y":2561919.4900000021}},{"attributes":{"ID":582418,"DIS_CODE":0,"TOWNNAME":"永康區","LI":"正強里","LIN":"16鄰","STREET":"正強街","SECT":" ","MAREA":" ","LANE":" ","ALLEY":" ","HOUSE_NO":"１７３號","E_COORD97":173303.17999999999,"N_COORD97":2547578,"ADDRESS":"正強街１７３號","OBJECTID":582391},"geometry":{"x":173303.18000000063,"y":2547578.0000000019}},{"attributes":{"ID":582419,"DIS_CODE":0,"TOWNNAME":"永康區","LI":"東灣里","LIN":"16鄰","STREET":"大灣三街","SECT":" ","MAREA":" ","LANE":" ","ALLEY":" ","HOUSE_NO":"７２號","E_COORD97":174878.51999999999,"N_COORD97":2544965.7799999998,"ADDRESS":"大灣三街７２號","OBJECTID":582392},"geometry":{"x":174878.52000000048,"y":2544965.7800000012}},{"attributes":{"ID":582420,"DIS_CODE":0,"TOWNNAME":"永康區","LI":"東灣里","LIN":"16鄰","STREET":"大灣三街","SECT":" ","MAREA":" ","LANE":" ","ALLEY":" ","HOUSE_NO":"８０號","E_COORD97":174861.78,"N_COORD97":2544974,"ADDRESS":"大灣三街８０號","OBJECTID":582393},"geometry":{"x":174861.77999999933,"y":2544974.0000000019}},{"attributes":{"ID":582421,"DIS_CODE":0,"TOWNNAME":"永康區","LI":"東灣里","LIN":"16鄰","STREET":"大灣三街","SECT":" ","MAREA":" ","LANE":" ","ALLEY":" ","HOUSE_NO":"６２號","E_COORD97":174899.54999999999,"N_COORD97":2544957.52,"ADDRESS":"大灣三街６２號","OBJECTID":582394},"geometry":{"x":174899.54999999981,"y":2544957.5200000014}},{"attributes":{"ID":582422,"DIS_CODE":0,"TOWNNAME":"永康區","LI":"東灣里","LIN":"16鄰","STREET":"大灣三街","SECT":" ","MAREA":" ","LANE":" ","ALLEY":" ","HOUSE_NO":"８７號","E_COORD97":174832.63,"N_COORD97":2544965.1899999999,"ADDRESS":"大灣三街８７號","OBJECTID":582395},"geometry":{"x":174832.63000000082,"y":2544965.1900000032}},{"attributes":{"ID":582423,"DIS_CODE":0,"TOWNNAME":"永康區","LI":"龍潭里","LIN":"16鄰","STREET":"龍橋街","SECT":" ","MAREA":" ","LANE":" ","ALLEY":" ","HOUSE_NO":"２０號","E_COORD97":174868.42000000001,"N_COORD97":2548324.1299999999,"ADDRESS":"龍橋街２０號","OBJECTID":582396},"geometry":{"x":174868.41999999993,"y":2548324.129999999}},{"attributes":{"ID":582424,"DIS_CODE":0,"TOWNNAME":"永康區","LI":"東灣里","LIN":"16鄰","STREET":"大灣三街","SECT":" ","MAREA":" ","LANE":" ","ALLEY":" ","HOUSE_NO":"７６號","E_COORD97":174874.32999999999,"N_COORD97":2544968.2799999998,"ADDRESS":"大灣三街７６號","OBJECTID":582397},"geometry":{"x":174874.33000000007,"y":2544968.2800000012}},{"attributes":{"ID":582425,"DIS_CODE":0,"TOWNNAME":"永康區","LI":"東橋里","LIN":"16鄰","STREET":"中山南路","SECT":" ","MAREA":" ","LANE":" ","ALLEY":" ","HOUSE_NO":"３５７號","E_COORD97":171996.03,"N_COORD97":2546450.1499999999,"ADDRESS":"中山南路３５７號","OBJECTID":582398},"geometry":{"x":171996.03000000119,"y":2546450.1500000004}},{"attributes":{"ID":582426,"DIS_CODE":0,"TOWNNAME":"永康區","LI":"東灣里","LIN":"16鄰","STREET":"大灣三街","SECT":" ","MAREA":" ","LANE":" ","ALLEY":" ","HOUSE_NO":"７８號","E_COORD97":174870.75,"N_COORD97":2544969.7799999998,"ADDRESS":"大灣三街７８號","OBJECTID":582399},"geometry":{"x":174870.75000000093,"y":2544969.7799999993}},{"attributes":{"ID":582427,"DIS_CODE":0,"TOWNNAME":"永康區","LI":"東灣里","LIN":"16鄰","STREET":"大灣三街","SECT":" ","MAREA":" ","LANE":" ","ALLEY":" ","HOUSE_NO":"９１號","E_COORD97":174818.73999999999,"N_COORD97":2544971.6899999999,"ADDRESS":"大灣三街９１號","OBJECTID":582400},"geometry":{"x":174818.74000000115,"y":2544971.6900000032}}]}