{"displayFieldName":"TOWNNAME","fieldAliases":{"ID":"ID","DIS_CODE":"DIS_CODE","TOWNNAME":"TOWNNAME","LI":"LI","LIN":"LIN","STREET":"STREET","SECT":"SECT","MAREA":"MAREA","LANE":"LANE","ALLEY":"ALLEY","HOUSE_NO":"HOUSE_NO","E_COORD97":"E_COORD97","N_COORD97":"N_COORD97","ADDRESS":"ADDRESS","OBJECTID":"OBJECTID"},"geometryType":"esriGeometryPoint","spatialReference":{"wkid":102443,"latestWkid":3826},"fields":[{"name":"ID","type":"esriFieldTypeDouble","alias":"ID"},{"name":"DIS_CODE","type":"esriFieldTypeInteger","alias":"DIS_CODE"},{"name":"TOWNNAME","type":"esriFieldTypeString","alias":"TOWNNAME","length":8},{"name":"LI","type":"esriFieldTypeString","alias":"LI","length":8},{"name":"LIN","type":"esriFieldTypeString","alias":"LIN","length":12},{"name":"STREET","type":"esriFieldTypeString","alias":"STREET","length":20},{"name":"SECT","type":"esriFieldTypeString","alias":"SECT","length":8},{"name":"MAREA","type":"esriFieldTypeString","alias":"MAREA","length":12},{"name":"LANE","type":"esriFieldTypeString","alias":"LANE","length":10},{"name":"ALLEY","type":"esriFieldTypeString","alias":"ALLEY","length":10},{"name":"HOUSE_NO","type":"esriFieldTypeString","alias":"HOUSE_NO","length":20},{"name":"E_COORD97","type":"esriFieldTypeDouble","alias":"E_COORD97"},{"name":"N_COORD97","type":"esriFieldTypeDouble","alias":"N_COORD97"},{"name":"ADDRESS","type":"esriFieldTypeString","alias":"ADDRESS","length":50},{"name":"OBJECTID","type":"esriFieldTypeOID","alias":"OBJECTID"}],"features":[{"attributes":{"ID":633428,"DIS_CODE":0,"TOWNNAME":"學甲區","LI":"新達里","LIN":" ","STREET":"新興路","SECT":" ","MAREA":" ","LANE":" ","ALLEY":" ","HOUSE_NO":"２３號","E_COORD97":166720.69,"N_COORD97":2570571.7799999998,"ADDRESS":"新興路２３號","OBJECTID":633401},"geometry":{"x":166720.69000000227,"y":2570571.7800000031}},{"attributes":{"ID":633429,"DIS_CODE":0,"TOWNNAME":"學甲區","LI":"慈福里","LIN":" ","STREET":"綿和路","SECT":" ","MAREA":" ","LANE":" ","ALLEY":" ","HOUSE_NO":"２７號","E_COORD97":166420.78,"N_COORD97":2570334.7999999998,"ADDRESS":"綿和路２７號","OBJECTID":633402},"geometry":{"x":166420.78000000026,"y":2570334.8000000007}},{"attributes":{"ID":633430,"DIS_CODE":0,"TOWNNAME":"學甲區","LI":"慈福里","LIN":" ","STREET":"綿和路","SECT":" ","MAREA":" ","LANE":" ","ALLEY":" ","HOUSE_NO":"４１號","E_COORD97":166356.59,"N_COORD97":2570346.8500000001,"ADDRESS":"綿和路４１號","OBJECTID":633403},"geometry":{"x":166356.59000000078,"y":2570346.8499999996}},{"attributes":{"ID":633431,"DIS_CODE":0,"TOWNNAME":"學甲區","LI":"仁得里","LIN":" ","STREET":"廣文路","SECT":" ","MAREA":" ","LANE":" ","ALLEY":" ","HOUSE_NO":"２１號","E_COORD97":166247.69,"N_COORD97":2570185.77,"ADDRESS":"廣文路２１號","OBJECTID":633404},"geometry":{"x":166247.69000000227,"y":2570185.7700000014}},{"attributes":{"ID":633432,"DIS_CODE":0,"TOWNNAME":"學甲區","LI":"仁得里","LIN":" ","STREET":"廣文路","SECT":" ","MAREA":" ","LANE":" ","ALLEY":" ","HOUSE_NO":"４５之２號","E_COORD97":166037.06,"N_COORD97":2570231.0099999998,"ADDRESS":"廣文路４５之２號","OBJECTID":633405},"geometry":{"x":166037.05999999959,"y":2570231.0099999998}},{"attributes":{"ID":633433,"DIS_CODE":0,"TOWNNAME":"學甲區","LI":"仁得里","LIN":" ","STREET":"廣文路","SECT":" ","MAREA":" ","LANE":" ","ALLEY":" ","HOUSE_NO":"５１之１號","E_COORD97":166014.35000000001,"N_COORD97":2570236.3700000001,"ADDRESS":"廣文路５１之１號","OBJECTID":633406},"geometry":{"x":166014.35000000056,"y":2570236.370000001}},{"attributes":{"ID":633434,"DIS_CODE":0,"TOWNNAME":"學甲區","LI":"仁得里","LIN":" ","STREET":"廣文路","SECT":" ","MAREA":" ","LANE":" ","ALLEY":" ","HOUSE_NO":"５２號","E_COORD97":166123.54000000001,"N_COORD97":2570230.0600000001,"ADDRESS":"廣文路５２號","OBJECTID":633407},"geometry":{"x":166123.54000000097,"y":2570230.0600000024}},{"attributes":{"ID":633435,"DIS_CODE":0,"TOWNNAME":"學甲區","LI":"仁得里","LIN":" ","STREET":"濟生路","SECT":" ","MAREA":" ","LANE":" ","ALLEY":" ","HOUSE_NO":"１２３號","E_COORD97":166194.82000000001,"N_COORD97":2570280.3900000001,"ADDRESS":"濟生路１２３號","OBJECTID":633408},"geometry":{"x":166194.82000000123,"y":2570280.3900000006}},{"attributes":{"ID":633436,"DIS_CODE":0,"TOWNNAME":"學甲區","LI":"仁得里","LIN":" ","STREET":"濟生路","SECT":" ","MAREA":" ","LANE":" ","ALLEY":" ","HOUSE_NO":"１２５號","E_COORD97":166190.53,"N_COORD97":2570281.27,"ADDRESS":"濟生路１２５號","OBJECTID":633409},"geometry":{"x":166190.53000000026,"y":2570281.2700000014}},{"attributes":{"ID":633437,"DIS_CODE":0,"TOWNNAME":"學甲區","LI":"仁得里","LIN":" ","STREET":"濟生路","SECT":" ","MAREA":" ","LANE":" ","ALLEY":" ","HOUSE_NO":"１４７之１號","E_COORD97":166125.87,"N_COORD97":2570296.1899999999,"ADDRESS":"濟生路１４７之１號","OBJECTID":633410},"geometry":{"x":166125.87000000197,"y":2570296.1899999995}},{"attributes":{"ID":633438,"DIS_CODE":0,"TOWNNAME":"學甲區","LI":"仁得里","LIN":" ","STREET":"濟生路","SECT":" ","MAREA":" ","LANE":" ","ALLEY":" ","HOUSE_NO":"１５７號","E_COORD97":166105.42999999999,"N_COORD97":2570301.9100000001,"ADDRESS":"濟生路１５７號","OBJECTID":633411},"geometry":{"x":166105.43000000063,"y":2570301.910000002}},{"attributes":{"ID":633439,"DIS_CODE":0,"TOWNNAME":"學甲區","LI":"仁得里","LIN":" ","STREET":"濟生路","SECT":" ","MAREA":" ","LANE":" ","ALLEY":" ","HOUSE_NO":"１９３號","E_COORD97":166010.31,"N_COORD97":2570316.7400000002,"ADDRESS":"濟生路１９３號","OBJECTID":633412},"geometry":{"x":166010.30999999866,"y":2570316.7400000021}},{"attributes":{"ID":633440,"DIS_CODE":0,"TOWNNAME":"學甲區","LI":"明宜里","LIN":" ","STREET":"濟生路","SECT":" ","MAREA":" ","LANE":" ","ALLEY":" ","HOUSE_NO":"２１８之１號","E_COORD97":165923.59,"N_COORD97":2570377.71,"ADDRESS":"濟生路２１８之１號","OBJECTID":633413},"geometry":{"x":165923.58999999985,"y":2570377.7100000028}},{"attributes":{"ID":633441,"DIS_CODE":0,"TOWNNAME":"學甲區","LI":"慈福里","LIN":" ","STREET":"濟生路","SECT":" ","MAREA":" ","LANE":" ","ALLEY":" ","HOUSE_NO":"５４之１號","E_COORD97":166528.75,"N_COORD97":2570242.3300000001,"ADDRESS":"濟生路５４之１號","OBJECTID":633414},"geometry":{"x":166528.75000000093,"y":2570242.3300000001}},{"attributes":{"ID":633442,"DIS_CODE":0,"TOWNNAME":"學甲區","LI":"新榮里","LIN":" ","STREET":"寶發路","SECT":" ","MAREA":" ","LANE":" ","ALLEY":" ","HOUSE_NO":"１０９之１號","E_COORD97":166716.41,"N_COORD97":2569636.7000000002,"ADDRESS":"寶發路１０９之１號","OBJECTID":633415},"geometry":{"x":166716.41000000015,"y":2569636.7000000011}},{"attributes":{"ID":633443,"DIS_CODE":0,"TOWNNAME":"學甲區","LI":"新榮里","LIN":" ","STREET":"寶發路","SECT":" ","MAREA":" ","LANE":" ","ALLEY":" ","HOUSE_NO":"１０９之２號","E_COORD97":166716.20000000001,"N_COORD97":2569630.02,"ADDRESS":"寶發路１０９之２號","OBJECTID":633416},"geometry":{"x":166716.20000000019,"y":2569630.0199999996}},{"attributes":{"ID":633444,"DIS_CODE":0,"TOWNNAME":"學甲區","LI":"新榮里","LIN":" ","STREET":"寶發路","SECT":" ","MAREA":" ","LANE":" ","ALLEY":" ","HOUSE_NO":"１０９之３號","E_COORD97":166715.70999999999,"N_COORD97":2569622.9900000002,"ADDRESS":"寶發路１０９之３號","OBJECTID":633417},"geometry":{"x":166715.71000000089,"y":2569622.9900000021}},{"attributes":{"ID":633445,"DIS_CODE":0,"TOWNNAME":"學甲區","LI":"新榮里","LIN":" ","STREET":"寶發路","SECT":" ","MAREA":" ","LANE":" ","ALLEY":" ","HOUSE_NO":"１０９之４號","E_COORD97":166715.54999999999,"N_COORD97":2569618.5099999998,"ADDRESS":"寶發路１０９之４號","OBJECTID":633418},"geometry":{"x":166715.54999999981,"y":2569618.5100000016}},{"attributes":{"ID":633446,"DIS_CODE":0,"TOWNNAME":"學甲區","LI":"新榮里","LIN":" ","STREET":"寶發路","SECT":" ","MAREA":" ","LANE":" ","ALLEY":" ","HOUSE_NO":"１０９之５號","E_COORD97":166715.45999999999,"N_COORD97":2569614.3500000001,"ADDRESS":"寶發路１０９之５號","OBJECTID":633419},"geometry":{"x":166715.46000000089,"y":2569614.3499999996}},{"attributes":{"ID":633447,"DIS_CODE":0,"TOWNNAME":"學甲區","LI":"新榮里","LIN":" ","STREET":"寶發路","SECT":" ","MAREA":" ","LANE":" ","ALLEY":" ","HOUSE_NO":"１７０號","E_COORD97":166543.97,"N_COORD97":2569678.8900000001,"ADDRESS":"寶發路１７０號","OBJECTID":633420},"geometry":{"x":166543.97000000067,"y":2569678.8900000025}},{"attributes":{"ID":633448,"DIS_CODE":0,"TOWNNAME":"學甲區","LI":"仁得里","LIN":" ","STREET":"寶發路","SECT":" ","MAREA":" ","LANE":" ","ALLEY":" ","HOUSE_NO":"２３２號","E_COORD97":166321.19,"N_COORD97":2569629.8799999999,"ADDRESS":"寶發路２３２號","OBJECTID":633421},"geometry":{"x":166321.19000000134,"y":2569629.879999999}},{"attributes":{"ID":633449,"DIS_CODE":0,"TOWNNAME":"六甲區","LI":"七甲里","LIN":"4鄰","STREET":"七甲街","SECT":" ","MAREA":" ","LANE":" ","ALLEY":" ","HOUSE_NO":"１１５號","E_COORD97":182983.26000000001,"N_COORD97":2569120.3599999999,"ADDRESS":"七甲街１１５號","OBJECTID":633422},"geometry":{"x":182983.26000000164,"y":2569120.3600000031}},{"attributes":{"ID":633450,"DIS_CODE":0,"TOWNNAME":"六甲區","LI":"七甲里","LIN":"4鄰","STREET":"七甲街","SECT":" ","MAREA":" ","LANE":" ","ALLEY":" ","HOUSE_NO":"１１７號","E_COORD97":182980.23000000001,"N_COORD97":2569134.4700000002,"ADDRESS":"七甲街１１７號","OBJECTID":633423},"geometry":{"x":182980.23000000045,"y":2569134.4700000044}},{"attributes":{"ID":633451,"DIS_CODE":0,"TOWNNAME":"六甲區","LI":"七甲里","LIN":"4鄰","STREET":"七甲街","SECT":" ","MAREA":" ","LANE":" ","ALLEY":" ","HOUSE_NO":"１１９號","E_COORD97":182980.35000000001,"N_COORD97":2569142.98,"ADDRESS":"七甲街１１９號","OBJECTID":633424},"geometry":{"x":182980.34999999963,"y":2569142.9800000004}},{"attributes":{"ID":633452,"DIS_CODE":0,"TOWNNAME":"六甲區","LI":"七甲里","LIN":"4鄰","STREET":"七甲街","SECT":" ","MAREA":" ","LANE":" ","ALLEY":" ","HOUSE_NO":"１２１號","E_COORD97":182980.67999999999,"N_COORD97":2569146.6299999999,"ADDRESS":"七甲街１２１號","OBJECTID":633425},"geometry":{"x":182980.68000000063,"y":2569146.6300000008}},{"attributes":{"ID":633453,"DIS_CODE":0,"TOWNNAME":"六甲區","LI":"七甲里","LIN":"4鄰","STREET":"七甲街","SECT":" ","MAREA":" ","LANE":" ","ALLEY":" ","HOUSE_NO":"１２３號","E_COORD97":182981.89999999999,"N_COORD97":2569153.8999999999,"ADDRESS":"七甲街１２３號","OBJECTID":633426},"geometry":{"x":182981.9000000013,"y":2569153.9000000004}},{"attributes":{"ID":633454,"DIS_CODE":0,"TOWNNAME":"六甲區","LI":"七甲里","LIN":"4鄰","STREET":"七甲街","SECT":" ","MAREA":" ","LANE":" ","ALLEY":" ","HOUSE_NO":"１２５號","E_COORD97":182982.95999999999,"N_COORD97":2569158.71,"ADDRESS":"七甲街１２５號","OBJECTID":633427},"geometry":{"x":182982.95999999996,"y":2569158.7100000009}},{"attributes":{"ID":633455,"DIS_CODE":0,"TOWNNAME":"六甲區","LI":"七甲里","LIN":"4鄰","STREET":"七甲街","SECT":" ","MAREA":" ","LANE":" ","ALLEY":" ","HOUSE_NO":"１２９號","E_COORD97":182974.87,"N_COORD97":2569173.1200000001,"ADDRESS":"七甲街１２９號","OBJECTID":633428},"geometry":{"x":182974.87000000104,"y":2569173.120000001}},{"attributes":{"ID":633456,"DIS_CODE":0,"TOWNNAME":"六甲區","LI":"七甲里","LIN":"7鄰","STREET":"七甲街","SECT":" ","MAREA":" ","LANE":" ","ALLEY":" ","HOUSE_NO":"１１６號","E_COORD97":183049.60999999999,"N_COORD97":2569039.2999999998,"ADDRESS":"七甲街１１６號","OBJECTID":633429},"geometry":{"x":183049.61000000127,"y":2569039.3000000007}},{"attributes":{"ID":633457,"DIS_CODE":0,"TOWNNAME":"六甲區","LI":"七甲里","LIN":"7鄰","STREET":"七甲街","SECT":" ","MAREA":" ","LANE":" ","ALLEY":" ","HOUSE_NO":"１１８號","E_COORD97":183049.29000000001,"N_COORD97":2569045.5099999998,"ADDRESS":"七甲街１１８號","OBJECTID":633430},"geometry":{"x":183049.28999999911,"y":2569045.5100000016}},{"attributes":{"ID":633458,"DIS_CODE":0,"TOWNNAME":"六甲區","LI":"七甲里","LIN":"7鄰","STREET":"七甲街","SECT":" ","MAREA":" ","LANE":" ","ALLEY":" ","HOUSE_NO":"１２０號","E_COORD97":183043.34,"N_COORD97":2569073.1800000002,"ADDRESS":"七甲街１２０號","OBJECTID":633431},"geometry":{"x":183043.33999999985,"y":2569073.1799999997}},{"attributes":{"ID":633459,"DIS_CODE":0,"TOWNNAME":"六甲區","LI":"七甲里","LIN":"7鄰","STREET":"七甲街","SECT":" ","MAREA":" ","LANE":" ","ALLEY":" ","HOUSE_NO":"１２４號","E_COORD97":183021.48999999999,"N_COORD97":2569031.0499999998,"ADDRESS":"七甲街１２４號","OBJECTID":633432},"geometry":{"x":183021.49000000115,"y":2569031.0500000007}},{"attributes":{"ID":633460,"DIS_CODE":0,"TOWNNAME":"六甲區","LI":"七甲里","LIN":"4鄰","STREET":"七甲街","SECT":" ","MAREA":" ","LANE":" ","ALLEY":" ","HOUSE_NO":"１６２號","E_COORD97":183013.07999999999,"N_COORD97":2569148.02,"ADDRESS":"七甲街１６２號","OBJECTID":633433},"geometry":{"x":183013.08000000007,"y":2569148.0200000014}},{"attributes":{"ID":633461,"DIS_CODE":0,"TOWNNAME":"六甲區","LI":"七甲里","LIN":"4鄰","STREET":"七甲街","SECT":" ","MAREA":" ","LANE":" ","ALLEY":" ","HOUSE_NO":"１６４號","E_COORD97":183018.73999999999,"N_COORD97":2569165.75,"ADDRESS":"七甲街１６４號","OBJECTID":633434},"geometry":{"x":183018.74000000022,"y":2569165.7500000037}},{"attributes":{"ID":633462,"DIS_CODE":0,"TOWNNAME":"六甲區","LI":"七甲里","LIN":"5鄰","STREET":"七甲街","SECT":" ","MAREA":" ","LANE":" ","ALLEY":" ","HOUSE_NO":"１５０號","E_COORD97":182999.88,"N_COORD97":2569104.52,"ADDRESS":"七甲街１５０號","OBJECTID":633435},"geometry":{"x":182999.88000000082,"y":2569104.5199999996}},{"attributes":{"ID":633463,"DIS_CODE":0,"TOWNNAME":"南區","LI":"廣州里","LIN":"18鄰","STREET":"福吉三街","SECT":" ","MAREA":" ","LANE":" ","ALLEY":" ","HOUSE_NO":"１３號","E_COORD97":167325.63,"N_COORD97":2542640.6600000001,"ADDRESS":"福吉三街１３號","OBJECTID":633436},"geometry":{"x":167325.62999999896,"y":2542640.660000002}},{"attributes":{"ID":633464,"DIS_CODE":0,"TOWNNAME":"南區","LI":"郡南里","LIN":"20鄰","STREET":"中華南路","SECT":"一段","MAREA":" ","LANE":" ","ALLEY":" ","HOUSE_NO":"１０００號之３","E_COORD97":167597.57999999999,"N_COORD97":2540385.52,"ADDRESS":"中華南路一段１０００號之３","OBJECTID":633437},"geometry":{"x":167597.58000000194,"y":2540385.5199999977}},{"attributes":{"ID":633465,"DIS_CODE":0,"TOWNNAME":"南區","LI":"郡南里","LIN":"20鄰","STREET":"中華南路","SECT":"二段","MAREA":" ","LANE":" ","ALLEY":" ","HOUSE_NO":"７４號","E_COORD97":167325.72,"N_COORD97":2540325.8399999999,"ADDRESS":"中華南路二段７４號","OBJECTID":633438},"geometry":{"x":167325.72000000067,"y":2540325.8399999999}},{"attributes":{"ID":633466,"DIS_CODE":0,"TOWNNAME":"南區","LI":"大林里","LIN":"13鄰","STREET":"中華南路","SECT":"一段","MAREA":" ","LANE":" ","ALLEY":" ","HOUSE_NO":"７８６號之１","E_COORD97":168232.17999999999,"N_COORD97":2540797.4300000002,"ADDRESS":"中華南路一段７８６號之１","OBJECTID":633439},"geometry":{"x":168232.18000000156,"y":2540797.4300000016}},{"attributes":{"ID":633467,"DIS_CODE":0,"TOWNNAME":"六甲區","LI":"甲東里","LIN":"28鄰","STREET":"工研路","SECT":" ","MAREA":" ","LANE":" ","ALLEY":" ","HOUSE_NO":"２號","E_COORD97":185121.04999999999,"N_COORD97":2568903.2000000002,"ADDRESS":"工研路２號","OBJECTID":633440},"geometry":{"x":185121.05000000075,"y":2568903.1999999993}},{"attributes":{"ID":633468,"DIS_CODE":0,"TOWNNAME":"南區","LI":"喜東里","LIN":"5鄰","STREET":"喜樹路","SECT":" ","MAREA":" ","LANE":" ","ALLEY":" ","HOUSE_NO":"７３號之４","E_COORD97":165908.84,"N_COORD97":2538453.6099999999,"ADDRESS":"喜樹路７３號之４","OBJECTID":633441},"geometry":{"x":165908.84000000171,"y":2538453.6100000013}},{"attributes":{"ID":633469,"DIS_CODE":0,"TOWNNAME":"南區","LI":"彰南里","LIN":"18鄰","STREET":"新和二路","SECT":" ","MAREA":" ","LANE":" ","ALLEY":" ","HOUSE_NO":"７號","E_COORD97":165658.70000000001,"N_COORD97":2540676.9700000002,"ADDRESS":"新和二路７號","OBJECTID":633442},"geometry":{"x":165658.70000000019,"y":2540676.9700000025}},{"attributes":{"ID":633470,"DIS_CODE":0,"TOWNNAME":"六甲區","LI":"二甲里","LIN":"24鄰","STREET":"中山路","SECT":" ","MAREA":" ","LANE":" ","ALLEY":" ","HOUSE_NO":"１０１號","E_COORD97":183410.95000000001,"N_COORD97":2570012.9300000002,"ADDRESS":"中山路１０１號","OBJECTID":633443},"geometry":{"x":183410.95000000019,"y":2570012.9300000016}},{"attributes":{"ID":633471,"DIS_CODE":0,"TOWNNAME":"南區","LI":"文南里","LIN":"4鄰","STREET":"長南街","SECT":" ","MAREA":" ","LANE":" ","ALLEY":" ","HOUSE_NO":"１０號","E_COORD97":167059.03,"N_COORD97":2542624.0800000001,"ADDRESS":"長南街１０號","OBJECTID":633444},"geometry":{"x":167059.03000000212,"y":2542624.0800000019}},{"attributes":{"ID":633472,"DIS_CODE":0,"TOWNNAME":"南區","LI":"新昌里","LIN":"20鄰","STREET":"永華路","SECT":"一段","MAREA":" ","LANE":" ","ALLEY":" ","HOUSE_NO":"４７號","E_COORD97":167589.13,"N_COORD97":2543105.9199999999,"ADDRESS":"永華路一段４７號","OBJECTID":633445},"geometry":{"x":167589.13000000082,"y":2543105.9200000037}},{"attributes":{"ID":633473,"DIS_CODE":0,"TOWNNAME":"南區","LI":"大林里","LIN":"4鄰","STREET":"大同路","SECT":"二段","MAREA":" ","LANE":" ","ALLEY":" ","HOUSE_NO":"３８０號","E_COORD97":169380.59,"N_COORD97":2541756.46,"ADDRESS":"大同路二段３８０號","OBJECTID":633446},"geometry":{"x":169380.59000000171,"y":2541756.4600000009}},{"attributes":{"ID":633474,"DIS_CODE":0,"TOWNNAME":"北區","LI":"三德里","LIN":"13鄰","STREET":"裕民街","SECT":" ","MAREA":" ","LANE":" ","ALLEY":" ","HOUSE_NO":"３１號","E_COORD97":168437.51000000001,"N_COORD97":2544438.0499999998,"ADDRESS":"裕民街３１號","OBJECTID":633447},"geometry":{"x":168437.51000000071,"y":2544438.0499999989}},{"attributes":{"ID":633475,"DIS_CODE":0,"TOWNNAME":"南區","LI":"金華里","LIN":"4鄰","STREET":"金華路","SECT":"二段","MAREA":" ","LANE":" ","ALLEY":" ","HOUSE_NO":"７３號","E_COORD97":167059.57000000001,"N_COORD97":2542192.7599999998,"ADDRESS":"金華路二段７３號","OBJECTID":633448},"geometry":{"x":167059.5700000003,"y":2542192.7600000016}},{"attributes":{"ID":633476,"DIS_CODE":0,"TOWNNAME":"南區","LI":"彰南里","LIN":"18鄰","STREET":"新和路","SECT":" ","MAREA":" ","LANE":" ","ALLEY":" ","HOUSE_NO":"１３號","E_COORD97":165950.45000000001,"N_COORD97":2540854.9399999999,"ADDRESS":"新和路１３號","OBJECTID":633449},"geometry":{"x":165950.45000000019,"y":2540854.9400000013}},{"attributes":{"ID":633477,"DIS_CODE":0,"TOWNNAME":"南區","LI":"郡南里","LIN":"20鄰","STREET":"中華南路","SECT":"二段","MAREA":" ","LANE":" ","ALLEY":" ","HOUSE_NO":"２號","E_COORD97":167487.76999999999,"N_COORD97":2540352.2999999998,"ADDRESS":"中華南路二段２號","OBJECTID":633450},"geometry":{"x":167487.77000000048,"y":2540352.3000000026}},{"attributes":{"ID":633478,"DIS_CODE":0,"TOWNNAME":"南區","LI":"日新里","LIN":"4鄰","STREET":"利南街","SECT":" ","MAREA":" ","LANE":" ","ALLEY":" ","HOUSE_NO":"１０６號","E_COORD97":166761.06,"N_COORD97":2541310.25,"ADDRESS":"利南街１０６號","OBJECTID":633451},"geometry":{"x":166761.05999999959,"y":2541310.2500000037}},{"attributes":{"ID":633479,"DIS_CODE":0,"TOWNNAME":"南區","LI":"彰南里","LIN":"13鄰","STREET":"中華西路","SECT":"一段","MAREA":" ","LANE":" ","ALLEY":" ","HOUSE_NO":"７９號","E_COORD97":166285.91,"N_COORD97":2541831.7799999998,"ADDRESS":"中華西路一段７９號","OBJECTID":633452},"geometry":{"x":166285.91000000015,"y":2541831.7800000012}},{"attributes":{"ID":633480,"DIS_CODE":0,"TOWNNAME":"南區","LI":"文南里","LIN":"13鄰","STREET":"長南街","SECT":" ","MAREA":" ","LANE":" ","ALLEY":" ","HOUSE_NO":"５５號","E_COORD97":166909.44,"N_COORD97":2542614.9500000002,"ADDRESS":"長南街５５號","OBJECTID":633453},"geometry":{"x":166909.44000000134,"y":2542614.9500000011}},{"attributes":{"ID":633481,"DIS_CODE":0,"TOWNNAME":"南區","LI":"新生里","LIN":"13鄰","STREET":"大同路","SECT":"二段","MAREA":" ","LANE":" ","ALLEY":" ","HOUSE_NO":"１２４號","E_COORD97":169278.34,"N_COORD97":2542225.1299999999,"ADDRESS":"大同路二段１２４號","OBJECTID":633454},"geometry":{"x":169278.33999999985,"y":2542225.1299999971}},{"attributes":{"ID":633482,"DIS_CODE":0,"TOWNNAME":"南區","LI":"新生里","LIN":"13鄰","STREET":"大同路","SECT":"二段","MAREA":" ","LANE":" ","ALLEY":" ","HOUSE_NO":"１２６號","E_COORD97":169280.07000000001,"N_COORD97":2542219.9399999999,"ADDRESS":"大同路二段１２６號","OBJECTID":633455},"geometry":{"x":169280.07000000123,"y":2542219.9399999995}},{"attributes":{"ID":633483,"DIS_CODE":0,"TOWNNAME":"南區","LI":"新生里","LIN":"13鄰","STREET":"大同路","SECT":"二段","MAREA":" ","LANE":" ","ALLEY":" ","HOUSE_NO":"１２８號","E_COORD97":169281.48000000001,"N_COORD97":2542215.23,"ADDRESS":"大同路二段１２８號","OBJECTID":633456},"geometry":{"x":169281.48000000045,"y":2542215.2300000004}},{"attributes":{"ID":633484,"DIS_CODE":0,"TOWNNAME":"北區","LI":"三德里","LIN":"13鄰","STREET":"裕民街","SECT":" ","MAREA":" ","LANE":" ","ALLEY":" ","HOUSE_NO":"３５號","E_COORD97":168442.14999999999,"N_COORD97":2544451.0699999998,"ADDRESS":"裕民街３５號","OBJECTID":633457},"geometry":{"x":168442.1500000013,"y":2544451.0699999984}},{"attributes":{"ID":633485,"DIS_CODE":0,"TOWNNAME":"南區","LI":"郡南里","LIN":"13鄰","STREET":"永興三街","SECT":" ","MAREA":" ","LANE":" ","ALLEY":" ","HOUSE_NO":"２５號","E_COORD97":167424.03,"N_COORD97":2540581.0800000001,"ADDRESS":"永興三街２５號","OBJECTID":633458},"geometry":{"x":167424.03000000119,"y":2540581.0800000001}},{"attributes":{"ID":633486,"DIS_CODE":0,"TOWNNAME":"北區","LI":"仁愛里","LIN":"9鄰","STREET":"長榮路","SECT":"四段","MAREA":" ","LANE":" ","ALLEY":" ","HOUSE_NO":"４６號","E_COORD97":170318.64000000001,"N_COORD97":2544909.2799999998,"ADDRESS":"長榮路四段４６號","OBJECTID":633459},"geometry":{"x":170318.63999999966,"y":2544909.2799999993}},{"attributes":{"ID":633487,"DIS_CODE":0,"TOWNNAME":"北區","LI":"五福里","LIN":"13鄰","STREET":"自強街","SECT":" ","MAREA":" ","LANE":" ","ALLEY":" ","HOUSE_NO":"９號","E_COORD97":168208.29999999999,"N_COORD97":2544467.2799999998,"ADDRESS":"自強街９號","OBJECTID":633460},"geometry":{"x":168208.30000000075,"y":2544467.2800000012}},{"attributes":{"ID":633488,"DIS_CODE":0,"TOWNNAME":"北區","LI":"五福里","LIN":"13鄰","STREET":"自強街","SECT":" ","MAREA":" ","LANE":" ","ALLEY":" ","HOUSE_NO":"２９號","E_COORD97":168228.69,"N_COORD97":2544492.3500000001,"ADDRESS":"自強街２９號","OBJECTID":633461},"geometry":{"x":168228.69000000041,"y":2544492.3499999996}},{"attributes":{"ID":633489,"DIS_CODE":0,"TOWNNAME":"北區","LI":"中樓里","LIN":"13鄰","STREET":"開元路","SECT":" ","MAREA":" ","LANE":" ","ALLEY":" ","HOUSE_NO":"８２號","E_COORD97":169776.95000000001,"N_COORD97":2545184.3799999999,"ADDRESS":"開元路８２號","OBJECTID":633462},"geometry":{"x":169776.95000000112,"y":2545184.3800000008}},{"attributes":{"ID":633490,"DIS_CODE":0,"TOWNNAME":"北區","LI":"五福里","LIN":"12鄰","STREET":"自強街","SECT":" ","MAREA":" ","LANE":" ","ALLEY":" ","HOUSE_NO":"２２號","E_COORD97":168238.64000000001,"N_COORD97":2544492.1200000001,"ADDRESS":"自強街２２號","OBJECTID":633463},"geometry":{"x":168238.63999999966,"y":2544492.120000001}},{"attributes":{"ID":633491,"DIS_CODE":0,"TOWNNAME":"北區","LI":"文元里","LIN":"15鄰","STREET":"和緯路","SECT":"三段","MAREA":" ","LANE":" ","ALLEY":" ","HOUSE_NO":"２８２號","E_COORD97":167658.73999999999,"N_COORD97":2545669.0299999998,"ADDRESS":"和緯路三段２８２號","OBJECTID":633464},"geometry":{"x":167658.74000000022,"y":2545669.0300000012}},{"attributes":{"ID":633492,"DIS_CODE":0,"TOWNNAME":"北區","LI":"文成里","LIN":"4鄰","STREET":"文賢二街","SECT":" ","MAREA":" ","LANE":" ","ALLEY":" ","HOUSE_NO":"１５１號","E_COORD97":167758.54999999999,"N_COORD97":2545574.8599999999,"ADDRESS":"文賢二街１５１號","OBJECTID":633465},"geometry":{"x":167758.55000000168,"y":2545574.8600000013}},{"attributes":{"ID":633493,"DIS_CODE":0,"TOWNNAME":"北區","LI":"文成里","LIN":"4鄰","STREET":"文賢二街","SECT":" ","MAREA":" ","LANE":" ","ALLEY":" ","HOUSE_NO":"１７７號","E_COORD97":167738.09,"N_COORD97":2545632.6000000001,"ADDRESS":"文賢二街１７７號","OBJECTID":633466},"geometry":{"x":167738.09000000078,"y":2545632.5999999996}},{"attributes":{"ID":633494,"DIS_CODE":0,"TOWNNAME":"北區","LI":"文元里","LIN":"20鄰","STREET":"文成路","SECT":" ","MAREA":" ","LANE":" ","ALLEY":" ","HOUSE_NO":"６８２之１０號","E_COORD97":167488.64999999999,"N_COORD97":2545880.0299999998,"ADDRESS":"文成路６８２之１０號","OBJECTID":633467},"geometry":{"x":167488.65000000037,"y":2545880.0299999993}},{"attributes":{"ID":633495,"DIS_CODE":0,"TOWNNAME":"南區","LI":"郡南里","LIN":"13鄰","STREET":"永興三街","SECT":" ","MAREA":" ","LANE":" ","ALLEY":" ","HOUSE_NO":"２９號","E_COORD97":167416.22,"N_COORD97":2540580.29,"ADDRESS":"永興三街２９號","OBJECTID":633468},"geometry":{"x":167416.21999999974,"y":2540580.2900000028}},{"attributes":{"ID":633496,"DIS_CODE":0,"TOWNNAME":"北區","LI":"文成里","LIN":"1鄰","STREET":"和緯路","SECT":"三段","MAREA":" ","LANE":" ","ALLEY":" ","HOUSE_NO":"３７５號","E_COORD97":167456.92999999999,"N_COORD97":2545571.6299999999,"ADDRESS":"和緯路三段３７５號","OBJECTID":633469},"geometry":{"x":167456.9299999997,"y":2545571.6300000027}},{"attributes":{"ID":633497,"DIS_CODE":0,"TOWNNAME":"北區","LI":"文成里","LIN":"1鄰","STREET":"和緯路","SECT":"三段","MAREA":" ","LANE":" ","ALLEY":" ","HOUSE_NO":"３７７號","E_COORD97":167452.48999999999,"N_COORD97":2545571.6299999999,"ADDRESS":"和緯路三段３７７號","OBJECTID":633470},"geometry":{"x":167452.49000000209,"y":2545571.6300000027}},{"attributes":{"ID":633498,"DIS_CODE":0,"TOWNNAME":"北區","LI":"文成里","LIN":"1鄰","STREET":"和緯路","SECT":"三段","MAREA":" ","LANE":" ","ALLEY":" ","HOUSE_NO":"３７９號","E_COORD97":167448.04999999999,"N_COORD97":2545571.6299999999,"ADDRESS":"和緯路三段３７９號","OBJECTID":633471},"geometry":{"x":167448.04999999981,"y":2545571.6300000027}},{"attributes":{"ID":633499,"DIS_CODE":0,"TOWNNAME":"北區","LI":"文成里","LIN":"1鄰","STREET":"和緯路","SECT":"三段","MAREA":" ","LANE":" ","ALLEY":" ","HOUSE_NO":"３８１號","E_COORD97":167443.38,"N_COORD97":2545571.6299999999,"ADDRESS":"和緯路三段３８１號","OBJECTID":633472},"geometry":{"x":167443.38000000082,"y":2545571.6300000027}},{"attributes":{"ID":633500,"DIS_CODE":0,"TOWNNAME":"北區","LI":"文成里","LIN":"1鄰","STREET":"和緯路","SECT":"三段","MAREA":" ","LANE":" ","ALLEY":" ","HOUSE_NO":"３８３號","E_COORD97":167438.26999999999,"N_COORD97":2545571.6299999999,"ADDRESS":"和緯路三段３８３號","OBJECTID":633473},"geometry":{"x":167438.27000000048,"y":2545571.6300000027}},{"attributes":{"ID":633501,"DIS_CODE":0,"TOWNNAME":"北區","LI":"文成里","LIN":"1鄰","STREET":"和緯路","SECT":"三段","MAREA":" ","LANE":" ","ALLEY":" ","HOUSE_NO":"３８５號","E_COORD97":167433.82999999999,"N_COORD97":2545571.6299999999,"ADDRESS":"和緯路三段３８５號","OBJECTID":633474},"geometry":{"x":167433.83000000101,"y":2545571.6300000027}},{"attributes":{"ID":633502,"DIS_CODE":0,"TOWNNAME":"北區","LI":"文成里","LIN":"1鄰","STREET":"和緯路","SECT":"三段","MAREA":" ","LANE":" ","ALLEY":" ","HOUSE_NO":"３８７號","E_COORD97":167428.48999999999,"N_COORD97":2545571.6299999999,"ADDRESS":"和緯路三段３８７號","OBJECTID":633475},"geometry":{"x":167428.49000000022,"y":2545571.6300000027}},{"attributes":{"ID":633503,"DIS_CODE":0,"TOWNNAME":"北區","LI":"文成里","LIN":"1鄰","STREET":"和緯路","SECT":"三段","MAREA":" ","LANE":" ","ALLEY":" ","HOUSE_NO":"３８９號","E_COORD97":167424.26999999999,"N_COORD97":2545571.6299999999,"ADDRESS":"和緯路三段３８９號","OBJECTID":633476},"geometry":{"x":167424.26999999955,"y":2545571.6300000027}},{"attributes":{"ID":633504,"DIS_CODE":0,"TOWNNAME":"北區","LI":"文成里","LIN":"1鄰","STREET":"和緯路","SECT":"三段","MAREA":" ","LANE":" ","ALLEY":" ","HOUSE_NO":"３９１號","E_COORD97":167419.82999999999,"N_COORD97":2545571.6299999999,"ADDRESS":"和緯路三段３９１號","OBJECTID":633477},"geometry":{"x":167419.83000000101,"y":2545571.6300000027}},{"attributes":{"ID":633505,"DIS_CODE":0,"TOWNNAME":"北區","LI":"文成里","LIN":"1鄰","STREET":"和緯路","SECT":"三段","MAREA":" ","LANE":" ","ALLEY":" ","HOUSE_NO":"３９３號","E_COORD97":167414.72,"N_COORD97":2545571.6299999999,"ADDRESS":"和緯路三段３９３號","OBJECTID":633478},"geometry":{"x":167414.71999999881,"y":2545571.6300000027}},{"attributes":{"ID":633506,"DIS_CODE":0,"TOWNNAME":"北區","LI":"文成里","LIN":"1鄰","STREET":"和緯路","SECT":"三段","MAREA":" ","LANE":" ","ALLEY":" ","HOUSE_NO":"３９５號","E_COORD97":167410.28,"N_COORD97":2545571.6299999999,"ADDRESS":"和緯路三段３９５號","OBJECTID":633479},"geometry":{"x":167410.28000000119,"y":2545571.6300000027}},{"attributes":{"ID":633507,"DIS_CODE":0,"TOWNNAME":"北區","LI":"文成里","LIN":"1鄰","STREET":"和緯路","SECT":"三段","MAREA":" ","LANE":" ","ALLEY":" ","HOUSE_NO":"３９７號","E_COORD97":167404.94,"N_COORD97":2545571.6299999999,"ADDRESS":"和緯路三段３９７號","OBJECTID":633480},"geometry":{"x":167404.94000000041,"y":2545571.6300000027}},{"attributes":{"ID":633508,"DIS_CODE":0,"TOWNNAME":"北區","LI":"文成里","LIN":"1鄰","STREET":"和緯路","SECT":"三段","MAREA":" ","LANE":" ","ALLEY":" ","HOUSE_NO":"３９９號","E_COORD97":167400.28,"N_COORD97":2545571.6299999999,"ADDRESS":"和緯路三段３９９號","OBJECTID":633481},"geometry":{"x":167400.28000000119,"y":2545571.6300000027}},{"attributes":{"ID":633509,"DIS_CODE":0,"TOWNNAME":"北區","LI":"中樓里","LIN":"13鄰","STREET":"開元路","SECT":" ","MAREA":" ","LANE":" ","ALLEY":" ","HOUSE_NO":"８４號","E_COORD97":169782.57999999999,"N_COORD97":2545186.77,"ADDRESS":"開元路８４號","OBJECTID":633482},"geometry":{"x":169782.58000000194,"y":2545186.7699999996}},{"attributes":{"ID":633510,"DIS_CODE":0,"TOWNNAME":"北區","LI":"文成里","LIN":"4鄰","STREET":"文賢二街","SECT":" ","MAREA":" ","LANE":" ","ALLEY":" ","HOUSE_NO":"１６０號","E_COORD97":167779.31,"N_COORD97":2545577.0099999998,"ADDRESS":"文賢二街１６０號","OBJECTID":633483},"geometry":{"x":167779.31000000052,"y":2545577.0100000035}},{"attributes":{"ID":633511,"DIS_CODE":0,"TOWNNAME":"北區","LI":"文成里","LIN":"4鄰","STREET":"文賢二街","SECT":" ","MAREA":" ","LANE":" ","ALLEY":" ","HOUSE_NO":"１６２號","E_COORD97":167777.70000000001,"N_COORD97":2545581.3500000001,"ADDRESS":"文賢二街１６２號","OBJECTID":633484},"geometry":{"x":167777.70000000019,"y":2545581.3500000015}},{"attributes":{"ID":633512,"DIS_CODE":0,"TOWNNAME":"北區","LI":"文成里","LIN":"4鄰","STREET":"文賢二街","SECT":" ","MAREA":" ","LANE":" ","ALLEY":" ","HOUSE_NO":"１６６號","E_COORD97":167776.82999999999,"N_COORD97":2545585.3300000001,"ADDRESS":"文賢二街１６６號","OBJECTID":633485},"geometry":{"x":167776.83000000007,"y":2545585.3300000019}},{"attributes":{"ID":633513,"DIS_CODE":0,"TOWNNAME":"北區","LI":"文成里","LIN":"4鄰","STREET":"文賢二街","SECT":" ","MAREA":" ","LANE":" ","ALLEY":" ","HOUSE_NO":"１６８號","E_COORD97":167774.95999999999,"N_COORD97":2545588.5499999998,"ADDRESS":"文賢二街１６８號","OBJECTID":633486},"geometry":{"x":167774.96000000089,"y":2545588.5500000026}},{"attributes":{"ID":633514,"DIS_CODE":0,"TOWNNAME":"北區","LI":"文成里","LIN":"4鄰","STREET":"文賢二街","SECT":" ","MAREA":" ","LANE":" ","ALLEY":" ","HOUSE_NO":"１７０號","E_COORD97":167774.39000000001,"N_COORD97":2545593.8500000001,"ADDRESS":"文賢二街１７０號","OBJECTID":633487},"geometry":{"x":167774.38999999966,"y":2545593.8499999996}},{"attributes":{"ID":633515,"DIS_CODE":0,"TOWNNAME":"北區","LI":"文成里","LIN":"4鄰","STREET":"文賢二街","SECT":" ","MAREA":" ","LANE":" ","ALLEY":" ","HOUSE_NO":"１７２號","E_COORD97":167772.70000000001,"N_COORD97":2545596.8900000001,"ADDRESS":"文賢二街１７２號","OBJECTID":633488},"geometry":{"x":167772.70000000019,"y":2545596.8900000025}},{"attributes":{"ID":633516,"DIS_CODE":0,"TOWNNAME":"北區","LI":"文成里","LIN":"4鄰","STREET":"文賢二街","SECT":" ","MAREA":" ","LANE":" ","ALLEY":" ","HOUSE_NO":"１７６號","E_COORD97":167771.17999999999,"N_COORD97":2545600.7799999998,"ADDRESS":"文賢二街１７６號","OBJECTID":633489},"geometry":{"x":167771.18000000063,"y":2545600.7799999993}},{"attributes":{"ID":633517,"DIS_CODE":0,"TOWNNAME":"北區","LI":"文成里","LIN":"4鄰","STREET":"文賢二街","SECT":" ","MAREA":" ","LANE":" ","ALLEY":" ","HOUSE_NO":"１７８號","E_COORD97":167769.14999999999,"N_COORD97":2545604.6600000001,"ADDRESS":"文賢二街１７８號","OBJECTID":633490},"geometry":{"x":167769.1500000013,"y":2545604.660000002}},{"attributes":{"ID":633518,"DIS_CODE":0,"TOWNNAME":"北區","LI":"文成里","LIN":"3鄰","STREET":"文賢一路","SECT":" ","MAREA":" ","LANE":" ","ALLEY":" ","HOUSE_NO":"１１８號","E_COORD97":167603.51999999999,"N_COORD97":2545491.5800000001,"ADDRESS":"文賢一路１１８號","OBJECTID":633491},"geometry":{"x":167603.51999999955,"y":2545491.5799999982}},{"attributes":{"ID":633519,"DIS_CODE":0,"TOWNNAME":"北區","LI":"文成里","LIN":"3鄰","STREET":"文賢一路","SECT":" ","MAREA":" ","LANE":" ","ALLEY":" ","HOUSE_NO":"１２０號","E_COORD97":167599.89999999999,"N_COORD97":2545497.1000000001,"ADDRESS":"文賢一路１２０號","OBJECTID":633492},"geometry":{"x":167599.90000000037,"y":2545497.0999999996}},{"attributes":{"ID":633520,"DIS_CODE":0,"TOWNNAME":"北區","LI":"文成里","LIN":"3鄰","STREET":"文賢一路","SECT":" ","MAREA":" ","LANE":" ","ALLEY":" ","HOUSE_NO":"１２２號","E_COORD97":167598.37,"N_COORD97":2545500.7200000002,"ADDRESS":"文賢一路１２２號","OBJECTID":633493},"geometry":{"x":167598.37000000011,"y":2545500.7200000007}},{"attributes":{"ID":633521,"DIS_CODE":0,"TOWNNAME":"北區","LI":"文成里","LIN":"13鄰","STREET":"文賢一路","SECT":" ","MAREA":" ","LANE":" ","ALLEY":" ","HOUSE_NO":"６６號","E_COORD97":167606.5,"N_COORD97":2545362.2799999998,"ADDRESS":"文賢一路６６號","OBJECTID":633494},"geometry":{"x":167606.50000000186,"y":2545362.2800000012}},{"attributes":{"ID":633522,"DIS_CODE":0,"TOWNNAME":"北區","LI":"文成里","LIN":"6鄰","STREET":"文賢一路","SECT":" ","MAREA":" ","LANE":" ","ALLEY":" ","HOUSE_NO":"１８５號","E_COORD97":167585.92999999999,"N_COORD97":2545422.79,"ADDRESS":"文賢一路１８５號","OBJECTID":633495},"geometry":{"x":167585.9299999997,"y":2545422.790000001}},{"attributes":{"ID":633523,"DIS_CODE":0,"TOWNNAME":"北區","LI":"文成里","LIN":"7鄰","STREET":"文賢路","SECT":" ","MAREA":" ","LANE":" ","ALLEY":" ","HOUSE_NO":"５３２號","E_COORD97":167359.32999999999,"N_COORD97":2545325.54,"ADDRESS":"文賢路５３２號","OBJECTID":633496},"geometry":{"x":167359.33000000007,"y":2545325.540000001}},{"attributes":{"ID":633524,"DIS_CODE":0,"TOWNNAME":"北區","LI":"文成里","LIN":"17鄰","STREET":"文賢路","SECT":" ","MAREA":" ","LANE":" ","ALLEY":" ","HOUSE_NO":"２３４號","E_COORD97":167359.03,"N_COORD97":2544970.0499999998,"ADDRESS":"文賢路２３４號","OBJECTID":633497},"geometry":{"x":167359.03000000212,"y":2544970.0500000007}},{"attributes":{"ID":633525,"DIS_CODE":0,"TOWNNAME":"北區","LI":"文成里","LIN":"17鄰","STREET":"文賢路","SECT":" ","MAREA":" ","LANE":" ","ALLEY":" ","HOUSE_NO":"２３６號","E_COORD97":167359.26999999999,"N_COORD97":2544974.96,"ADDRESS":"文賢路２３６號","OBJECTID":633498},"geometry":{"x":167359.26999999955,"y":2544974.9600000046}},{"attributes":{"ID":633526,"DIS_CODE":0,"TOWNNAME":"北區","LI":"文成里","LIN":"17鄰","STREET":"文賢路","SECT":" ","MAREA":" ","LANE":" ","ALLEY":" ","HOUSE_NO":"２３８號","E_COORD97":167359.26999999999,"N_COORD97":2544979.3799999999,"ADDRESS":"文賢路２３８號","OBJECTID":633499},"geometry":{"x":167359.26999999955,"y":2544979.379999999}},{"attributes":{"ID":633527,"DIS_CODE":0,"TOWNNAME":"北區","LI":"文成里","LIN":"17鄰","STREET":"文賢路","SECT":" ","MAREA":" ","LANE":" ","ALLEY":" ","HOUSE_NO":"２４０號","E_COORD97":167362.72,"N_COORD97":2544984.5299999998,"ADDRESS":"文賢路２４０號","OBJECTID":633500},"geometry":{"x":167362.72000000067,"y":2544984.5299999993}},{"attributes":{"ID":633528,"DIS_CODE":0,"TOWNNAME":"北區","LI":"和順里","LIN":"26鄰","STREET":"民德路","SECT":" ","MAREA":" ","LANE":" ","ALLEY":" ","HOUSE_NO":"４８號","E_COORD97":168211.67000000001,"N_COORD97":2545185.21,"ADDRESS":"民德路４８號","OBJECTID":633501},"geometry":{"x":168211.66999999993,"y":2545185.2100000009}},{"attributes":{"ID":633529,"DIS_CODE":0,"TOWNNAME":"北區","LI":"中樓里","LIN":"13鄰","STREET":"開元路","SECT":" ","MAREA":" ","LANE":" ","ALLEY":" ","HOUSE_NO":"１０８號之１","E_COORD97":169834.82999999999,"N_COORD97":2545207.5600000001,"ADDRESS":"開元路１０８號之１","OBJECTID":633502},"geometry":{"x":169834.83000000007,"y":2545207.5600000042}},{"attributes":{"ID":633530,"DIS_CODE":0,"TOWNNAME":"北區","LI":"中樓里","LIN":"13鄰","STREET":"開元路","SECT":" ","MAREA":" ","LANE":" ","ALLEY":" ","HOUSE_NO":"１１０號","E_COORD97":169841.72,"N_COORD97":2545209,"ADDRESS":"開元路１１０號","OBJECTID":633503},"geometry":{"x":169841.71999999974,"y":2545209.0000000019}},{"attributes":{"ID":633531,"DIS_CODE":0,"TOWNNAME":"北區","LI":"中樓里","LIN":"13鄰","STREET":"開元路","SECT":" ","MAREA":" ","LANE":" ","ALLEY":" ","HOUSE_NO":"１１２號","E_COORD97":169851.07999999999,"N_COORD97":2545213.4199999999,"ADDRESS":"開元路１１２號","OBJECTID":633504},"geometry":{"x":169851.08000000101,"y":2545213.4199999999}},{"attributes":{"ID":633532,"DIS_CODE":0,"TOWNNAME":"北區","LI":"中樓里","LIN":"13鄰","STREET":"開元路","SECT":" ","MAREA":" ","LANE":" ","ALLEY":" ","HOUSE_NO":"１１２號之１","E_COORD97":169855.60999999999,"N_COORD97":2545215.6000000001,"ADDRESS":"開元路１１２號之１","OBJECTID":633505},"geometry":{"x":169855.6100000022,"y":2545215.5999999996}},{"attributes":{"ID":633533,"DIS_CODE":0,"TOWNNAME":"北區","LI":"中樓里","LIN":"13鄰","STREET":"開元路","SECT":" ","MAREA":" ","LANE":" ","ALLEY":" ","HOUSE_NO":"１１２號之２","E_COORD97":169858.89999999999,"N_COORD97":2545217.2400000002,"ADDRESS":"開元路１１２號之２","OBJECTID":633506},"geometry":{"x":169858.9000000013,"y":2545217.2400000021}},{"attributes":{"ID":633534,"DIS_CODE":0,"TOWNNAME":"北區","LI":"中樓里","LIN":"13鄰","STREET":"開元路","SECT":" ","MAREA":" ","LANE":" ","ALLEY":" ","HOUSE_NO":"１１２號之３","E_COORD97":169862.39999999999,"N_COORD97":2545218.5800000001,"ADDRESS":"開元路１１２號之３","OBJECTID":633507},"geometry":{"x":169862.4000000013,"y":2545218.5800000019}},{"attributes":{"ID":633535,"DIS_CODE":0,"TOWNNAME":"北區","LI":"中樓里","LIN":"13鄰","STREET":"開元路","SECT":" ","MAREA":" ","LANE":" ","ALLEY":" ","HOUSE_NO":"１１４號","E_COORD97":169866.10999999999,"N_COORD97":2545220.4300000002,"ADDRESS":"開元路１１４號","OBJECTID":633508},"geometry":{"x":169866.11000000127,"y":2545220.4299999997}},{"attributes":{"ID":633536,"DIS_CODE":0,"TOWNNAME":"北區","LI":"中樓里","LIN":"13鄰","STREET":"開元路","SECT":" ","MAREA":" ","LANE":" ","ALLEY":" ","HOUSE_NO":"１１６號","E_COORD97":169869.09,"N_COORD97":2545221.6600000001,"ADDRESS":"開元路１１６號","OBJECTID":633509},"geometry":{"x":169869.09000000078,"y":2545221.660000002}},{"attributes":{"ID":633537,"DIS_CODE":0,"TOWNNAME":"北區","LI":"中樓里","LIN":"13鄰","STREET":"開元路","SECT":" ","MAREA":" ","LANE":" ","ALLEY":" ","HOUSE_NO":"１１８號","E_COORD97":169873,"N_COORD97":2545223.1000000001,"ADDRESS":"開元路１１８號","OBJECTID":633510},"geometry":{"x":169873.00000000186,"y":2545223.0999999978}},{"attributes":{"ID":633538,"DIS_CODE":0,"TOWNNAME":"北區","LI":"賢北里","LIN":"3鄰","STREET":"大興街","SECT":" ","MAREA":" ","LANE":" ","ALLEY":" ","HOUSE_NO":"３９３號","E_COORD97":166375.5,"N_COORD97":2545573.7799999998,"ADDRESS":"大興街３９３號","OBJECTID":633511},"geometry":{"x":166375.5,"y":2545573.7799999993}},{"attributes":{"ID":633539,"DIS_CODE":0,"TOWNNAME":"北區","LI":"成德里","LIN":"34鄰","STREET":"文成一路","SECT":" ","MAREA":" ","LANE":" ","ALLEY":" ","HOUSE_NO":"９３號","E_COORD97":168649.69,"N_COORD97":2546034.54,"ADDRESS":"文成一路９３號","OBJECTID":633512},"geometry":{"x":168649.68999999948,"y":2546034.540000001}},{"attributes":{"ID":633540,"DIS_CODE":0,"TOWNNAME":"北區","LI":"成德里","LIN":"34鄰","STREET":"文成一路","SECT":" ","MAREA":" ","LANE":" ","ALLEY":" ","HOUSE_NO":"９５號","E_COORD97":168643.66,"N_COORD97":2546034.8599999999,"ADDRESS":"文成一路９５號","OBJECTID":633513},"geometry":{"x":168643.66000000108,"y":2546034.8599999975}},{"attributes":{"ID":633541,"DIS_CODE":0,"TOWNNAME":"北區","LI":"成德里","LIN":"34鄰","STREET":"文成一路","SECT":" ","MAREA":" ","LANE":" ","ALLEY":" ","HOUSE_NO":"９９號","E_COORD97":168631.59,"N_COORD97":2546034.8599999999,"ADDRESS":"文成一路９９號","OBJECTID":633514},"geometry":{"x":168631.59000000078,"y":2546034.8599999975}},{"attributes":{"ID":633542,"DIS_CODE":0,"TOWNNAME":"北區","LI":"成德里","LIN":"34鄰","STREET":"文成一路","SECT":" ","MAREA":" ","LANE":" ","ALLEY":" ","HOUSE_NO":"１０１號","E_COORD97":168625.88,"N_COORD97":2546034.8599999999,"ADDRESS":"文成一路１０１號","OBJECTID":633515},"geometry":{"x":168625.88000000175,"y":2546034.8599999975}},{"attributes":{"ID":633543,"DIS_CODE":0,"TOWNNAME":"北區","LI":"成德里","LIN":"34鄰","STREET":"文成一路","SECT":" ","MAREA":" ","LANE":" ","ALLEY":" ","HOUSE_NO":"１０３號","E_COORD97":168620.16,"N_COORD97":2546035.5,"ADDRESS":"文成一路１０３號","OBJECTID":633516},"geometry":{"x":168620.16000000015,"y":2546035.5000000019}},{"attributes":{"ID":633544,"DIS_CODE":0,"TOWNNAME":"北區","LI":"成德里","LIN":"34鄰","STREET":"文成一路","SECT":" ","MAREA":" ","LANE":" ","ALLEY":" ","HOUSE_NO":"１０５號","E_COORD97":168614.45000000001,"N_COORD97":2546035.5,"ADDRESS":"文成一路１０５號","OBJECTID":633517},"geometry":{"x":168614.45000000112,"y":2546035.5000000019}},{"attributes":{"ID":633545,"DIS_CODE":0,"TOWNNAME":"北區","LI":"成德里","LIN":"34鄰","STREET":"文成一路","SECT":" ","MAREA":" ","LANE":" ","ALLEY":" ","HOUSE_NO":"１０７號","E_COORD97":168609.04999999999,"N_COORD97":2546035.8100000001,"ADDRESS":"文成一路１０７號","OBJECTID":633518},"geometry":{"x":168609.04999999981,"y":2546035.8100000005}},{"attributes":{"ID":633546,"DIS_CODE":0,"TOWNNAME":"北區","LI":"成德里","LIN":"34鄰","STREET":"文成一路","SECT":" ","MAREA":" ","LANE":" ","ALLEY":" ","HOUSE_NO":"１０９號","E_COORD97":168603.64999999999,"N_COORD97":2546036.1299999999,"ADDRESS":"文成一路１０９號","OBJECTID":633519},"geometry":{"x":168603.65000000037,"y":2546036.1300000027}},{"attributes":{"ID":633547,"DIS_CODE":0,"TOWNNAME":"北區","LI":"成德里","LIN":"34鄰","STREET":"文成一路","SECT":" ","MAREA":" ","LANE":" ","ALLEY":" ","HOUSE_NO":"１１１號","E_COORD97":168597.94,"N_COORD97":2546035.8100000001,"ADDRESS":"文成一路１１１號","OBJECTID":633520},"geometry":{"x":168597.94000000134,"y":2546035.8100000005}},{"attributes":{"ID":633548,"DIS_CODE":0,"TOWNNAME":"北區","LI":"成德里","LIN":"34鄰","STREET":"文成一路","SECT":" ","MAREA":" ","LANE":" ","ALLEY":" ","HOUSE_NO":"１１３號","E_COORD97":168593.48999999999,"N_COORD97":2546036.1299999999,"ADDRESS":"文成一路１１３號","OBJECTID":633521},"geometry":{"x":168593.49000000115,"y":2546036.1300000027}},{"attributes":{"ID":633549,"DIS_CODE":0,"TOWNNAME":"北區","LI":"成德里","LIN":"34鄰","STREET":"文成一路","SECT":" ","MAREA":" ","LANE":" ","ALLEY":" ","HOUSE_NO":"１１５號","E_COORD97":168587.78,"N_COORD97":2546036.4500000002,"ADDRESS":"文成一路１１５號","OBJECTID":633522},"geometry":{"x":168587.78000000026,"y":2546036.4499999993}},{"attributes":{"ID":633550,"DIS_CODE":0,"TOWNNAME":"北區","LI":"成德里","LIN":"34鄰","STREET":"文成一路","SECT":" ","MAREA":" ","LANE":" ","ALLEY":" ","HOUSE_NO":"１１７號","E_COORD97":168582.06,"N_COORD97":2546036.4500000002,"ADDRESS":"文成一路１１７號","OBJECTID":633523},"geometry":{"x":168582.06000000145,"y":2546036.4499999993}},{"attributes":{"ID":633551,"DIS_CODE":0,"TOWNNAME":"北區","LI":"正風里","LIN":"7鄰","STREET":"公園路","SECT":" ","MAREA":" ","LANE":" ","ALLEY":" ","HOUSE_NO":"９６６號","E_COORD97":169470.12,"N_COORD97":2546279.1299999999,"ADDRESS":"公園路９６６號","OBJECTID":633524},"geometry":{"x":169470.12000000011,"y":2546279.129999999}},{"attributes":{"ID":633552,"DIS_CODE":0,"TOWNNAME":"北區","LI":"成德里","LIN":"32鄰","STREET":"文成二路","SECT":" ","MAREA":" ","LANE":" ","ALLEY":" ","HOUSE_NO":"１８號","E_COORD97":168757.51999999999,"N_COORD97":2546173.6099999999,"ADDRESS":"文成二路１８號","OBJECTID":633525},"geometry":{"x":168757.52000000048,"y":2546173.6100000013}},{"attributes":{"ID":633553,"DIS_CODE":0,"TOWNNAME":"北區","LI":"文成里","LIN":"13鄰","STREET":"文賢一路","SECT":" ","MAREA":" ","LANE":" ","ALLEY":" ","HOUSE_NO":"１１２號","E_COORD97":167608.28,"N_COORD97":2545459.1200000001,"ADDRESS":"文賢一路１１２號","OBJECTID":633526},"geometry":{"x":167608.28000000212,"y":2545459.1200000029}},{"attributes":{"ID":633554,"DIS_CODE":0,"TOWNNAME":"北區","LI":"文成里","LIN":"13鄰","STREET":"文賢一路","SECT":" ","MAREA":" ","LANE":" ","ALLEY":" ","HOUSE_NO":"１１０號","E_COORD97":167607.89999999999,"N_COORD97":2545452.1400000001,"ADDRESS":"文賢一路１１０號","OBJECTID":633527},"geometry":{"x":167607.9000000013,"y":2545452.1400000025}},{"attributes":{"ID":633555,"DIS_CODE":0,"TOWNNAME":"北區","LI":"成德里","LIN":"32鄰","STREET":"文成二路","SECT":" ","MAREA":" ","LANE":" ","ALLEY":" ","HOUSE_NO":"２９號","E_COORD97":168722.67000000001,"N_COORD97":2546153.1699999999,"ADDRESS":"文成二路２９號","OBJECTID":633528},"geometry":{"x":168722.67000000086,"y":2546153.1700000018}},{"attributes":{"ID":633556,"DIS_CODE":0,"TOWNNAME":"北區","LI":"成德里","LIN":"20鄰","STREET":"文成二路","SECT":" ","MAREA":" ","LANE":" ","ALLEY":" ","HOUSE_NO":"２１６號","E_COORD97":168466.57000000001,"N_COORD97":2546185.52,"ADDRESS":"文成二路２１６號","OBJECTID":633529},"geometry":{"x":168466.57000000123,"y":2546185.5199999996}},{"attributes":{"ID":633557,"DIS_CODE":0,"TOWNNAME":"北區","LI":"成德里","LIN":"24鄰","STREET":"文成二路","SECT":" ","MAREA":" ","LANE":" ","ALLEY":" ","HOUSE_NO":"２６７號","E_COORD97":168133.95000000001,"N_COORD97":2546150.3500000001,"ADDRESS":"文成二路２６７號","OBJECTID":633530},"geometry":{"x":168133.95000000019,"y":2546150.3499999996}},{"attributes":{"ID":633558,"DIS_CODE":0,"TOWNNAME":"北區","LI":"成德里","LIN":"24鄰","STREET":"文成二路","SECT":" ","MAREA":" ","LANE":" ","ALLEY":" ","HOUSE_NO":"２６１號","E_COORD97":168152.37,"N_COORD97":2546151.6200000001,"ADDRESS":"文成二路２６１號","OBJECTID":633531},"geometry":{"x":168152.37000000104,"y":2546151.6200000029}},{"attributes":{"ID":633559,"DIS_CODE":0,"TOWNNAME":"北區","LI":"成德里","LIN":"24鄰","STREET":"文成二路","SECT":" ","MAREA":" ","LANE":" ","ALLEY":" ","HOUSE_NO":"２６３號","E_COORD97":168146.53,"N_COORD97":2546151.3599999999,"ADDRESS":"文成二路２６３號","OBJECTID":633532},"geometry":{"x":168146.53000000026,"y":2546151.3600000013}},{"attributes":{"ID":633560,"DIS_CODE":0,"TOWNNAME":"北區","LI":"成德里","LIN":"24鄰","STREET":"文成二路","SECT":" ","MAREA":" ","LANE":" ","ALLEY":" ","HOUSE_NO":"２６５號","E_COORD97":168140.42999999999,"N_COORD97":2546150.73,"ADDRESS":"文成二路２６５號","OBJECTID":633533},"geometry":{"x":168140.4299999997,"y":2546150.7300000004}},{"attributes":{"ID":633561,"DIS_CODE":0,"TOWNNAME":"北區","LI":"成德里","LIN":"24鄰","STREET":"文成二路","SECT":" ","MAREA":" ","LANE":" ","ALLEY":" ","HOUSE_NO":"２７１號","E_COORD97":168120.62,"N_COORD97":2546149.46,"ADDRESS":"文成二路２７１號","OBJECTID":633534},"geometry":{"x":168120.62000000011,"y":2546149.4600000028}},{"attributes":{"ID":633562,"DIS_CODE":0,"TOWNNAME":"北區","LI":"成德里","LIN":"24鄰","STREET":"文成二路","SECT":" ","MAREA":" ","LANE":" ","ALLEY":" ","HOUSE_NO":"２６９號","E_COORD97":168127.35000000001,"N_COORD97":2546149.8399999999,"ADDRESS":"文成二路２６９號","OBJECTID":633535},"geometry":{"x":168127.3499999987,"y":2546149.8399999999}},{"attributes":{"ID":633563,"DIS_CODE":0,"TOWNNAME":"北區","LI":"成德里","LIN":"24鄰","STREET":"文成二路","SECT":" ","MAREA":" ","LANE":" ","ALLEY":" ","HOUSE_NO":"２７３號","E_COORD97":168114.26999999999,"N_COORD97":2546149.0800000001,"ADDRESS":"文成二路２７３號","OBJECTID":633536},"geometry":{"x":168114.26999999862,"y":2546149.0800000001}},{"attributes":{"ID":633564,"DIS_CODE":0,"TOWNNAME":"北區","LI":"文元里","LIN":"25鄰","STREET":"文成三路","SECT":" ","MAREA":" ","LANE":" ","ALLEY":" ","HOUSE_NO":"６６７號","E_COORD97":167790.48999999999,"N_COORD97":2546254.8100000001,"ADDRESS":"文成三路６６７號","OBJECTID":633537},"geometry":{"x":167790.49000000115,"y":2546254.8100000024}},{"attributes":{"ID":633565,"DIS_CODE":0,"TOWNNAME":"北區","LI":"文元里","LIN":"25鄰","STREET":"文賢二街","SECT":" ","MAREA":" ","LANE":" ","ALLEY":" ","HOUSE_NO":"４５１號","E_COORD97":167675.47,"N_COORD97":2546120.0099999998,"ADDRESS":"文賢二街４５１號","OBJECTID":633538},"geometry":{"x":167675.46999999974,"y":2546120.0100000016}},{"attributes":{"ID":633566,"DIS_CODE":0,"TOWNNAME":"北區","LI":"文元里","LIN":"25鄰","STREET":"文賢二街","SECT":" ","MAREA":" ","LANE":" ","ALLEY":" ","HOUSE_NO":"４５３號","E_COORD97":167674.95999999999,"N_COORD97":2546127.3700000001,"ADDRESS":"文賢二街４５３號","OBJECTID":633539},"geometry":{"x":167674.96000000089,"y":2546127.370000001}},{"attributes":{"ID":633567,"DIS_CODE":0,"TOWNNAME":"北區","LI":"文元里","LIN":"25鄰","STREET":"文賢二街","SECT":" ","MAREA":" ","LANE":" ","ALLEY":" ","HOUSE_NO":"４５５號","E_COORD97":167674.57999999999,"N_COORD97":2546135.1800000002,"ADDRESS":"文賢二街４５５號","OBJECTID":633540},"geometry":{"x":167674.58000000101,"y":2546135.1800000034}},{"attributes":{"ID":633568,"DIS_CODE":0,"TOWNNAME":"北區","LI":"三德里","LIN":"12鄰","STREET":"裕民街","SECT":" ","MAREA":" ","LANE":" ","ALLEY":" ","HOUSE_NO":"４５號","E_COORD97":168469.66,"N_COORD97":2544470.6400000001,"ADDRESS":"裕民街４５號","OBJECTID":633541},"geometry":{"x":168469.66000000015,"y":2544470.6400000006}},{"attributes":{"ID":633569,"DIS_CODE":0,"TOWNNAME":"北區","LI":"文元里","LIN":"22鄰","STREET":"文賢三街","SECT":" ","MAREA":" ","LANE":" ","ALLEY":" ","HOUSE_NO":"１２６號","E_COORD97":167834.70999999999,"N_COORD97":2545860.0600000001,"ADDRESS":"文賢三街１２６號","OBJECTID":633542},"geometry":{"x":167834.70999999996,"y":2545860.0600000024}},{"attributes":{"ID":633570,"DIS_CODE":0,"TOWNNAME":"北區","LI":"文元里","LIN":"22鄰","STREET":"文賢三街","SECT":" ","MAREA":" ","LANE":" ","ALLEY":" ","HOUSE_NO":"１２２號","E_COORD97":167835.22,"N_COORD97":2545852.9399999999,"ADDRESS":"文賢三街１２２號","OBJECTID":633543},"geometry":{"x":167835.2200000016,"y":2545852.9400000013}},{"attributes":{"ID":633571,"DIS_CODE":0,"TOWNNAME":"北區","LI":"文元里","LIN":"22鄰","STREET":"文賢三街","SECT":" ","MAREA":" ","LANE":" ","ALLEY":" ","HOUSE_NO":"１２０號","E_COORD97":167835.73000000001,"N_COORD97":2545845.5800000001,"ADDRESS":"文賢三街１２０號","OBJECTID":633544},"geometry":{"x":167835.73000000045,"y":2545845.5800000019}},{"attributes":{"ID":633572,"DIS_CODE":0,"TOWNNAME":"北區","LI":"文元里","LIN":"22鄰","STREET":"文賢三街","SECT":" ","MAREA":" ","LANE":" ","ALLEY":" ","HOUSE_NO":"１１８號","E_COORD97":167836.23999999999,"N_COORD97":2545838.4700000002,"ADDRESS":"文賢三街１１８號","OBJECTID":633545},"geometry":{"x":167836.24000000115,"y":2545838.4700000007}},{"attributes":{"ID":633573,"DIS_CODE":0,"TOWNNAME":"北區","LI":"文元里","LIN":"22鄰","STREET":"文賢三街","SECT":" ","MAREA":" ","LANE":" ","ALLEY":" ","HOUSE_NO":"１１６號","E_COORD97":167836.48999999999,"N_COORD97":2545830.3399999999,"ADDRESS":"文賢三街１１６號","OBJECTID":633546},"geometry":{"x":167836.49000000022,"y":2545830.3400000017}},{"attributes":{"ID":633574,"DIS_CODE":0,"TOWNNAME":"北區","LI":"文成里","LIN":"6鄰","STREET":"文賢路","SECT":" ","MAREA":" ","LANE":" ","ALLEY":" ","HOUSE_NO":"５６０號","E_COORD97":167365.04999999999,"N_COORD97":2545394.9700000002,"ADDRESS":"文賢路５６０號","OBJECTID":633547},"geometry":{"x":167365.04999999888,"y":2545394.9700000044}},{"attributes":{"ID":633575,"DIS_CODE":0,"TOWNNAME":"北區","LI":"文成里","LIN":"6鄰","STREET":"文賢路","SECT":" ","MAREA":" ","LANE":" ","ALLEY":" ","HOUSE_NO":"５６２號","E_COORD97":167365.42999999999,"N_COORD97":2545399.6699999999,"ADDRESS":"文賢路５６２號","OBJECTID":633548},"geometry":{"x":167365.4299999997,"y":2545399.6700000037}},{"attributes":{"ID":633576,"DIS_CODE":0,"TOWNNAME":"北區","LI":"成功里","LIN":"24鄰","STREET":"北成路","SECT":" ","MAREA":" ","LANE":" ","ALLEY":" ","HOUSE_NO":"１３０號","E_COORD97":168904.23000000001,"N_COORD97":2546693.0600000001,"ADDRESS":"北成路１３０號","OBJECTID":633549},"geometry":{"x":168904.23000000138,"y":2546693.0600000024}},{"attributes":{"ID":633577,"DIS_CODE":0,"TOWNNAME":"北區","LI":"成功里","LIN":"24鄰","STREET":"北成路","SECT":" ","MAREA":" ","LANE":" ","ALLEY":" ","HOUSE_NO":"１３２號","E_COORD97":168899.39999999999,"N_COORD97":2546695.48,"ADDRESS":"北成路１３２號","OBJECTID":633550},"geometry":{"x":168899.4000000013,"y":2546695.4800000004}},{"attributes":{"ID":633578,"DIS_CODE":0,"TOWNNAME":"北區","LI":"成功里","LIN":"24鄰","STREET":"北成路","SECT":" ","MAREA":" ","LANE":" ","ALLEY":" ","HOUSE_NO":"１３６號","E_COORD97":168895.34,"N_COORD97":2546697.6299999999,"ADDRESS":"北成路１３６號","OBJECTID":633551},"geometry":{"x":168895.33999999985,"y":2546697.6300000008}},{"attributes":{"ID":633579,"DIS_CODE":0,"TOWNNAME":"北區","LI":"成功里","LIN":"24鄰","STREET":"北成路","SECT":" ","MAREA":" ","LANE":" ","ALLEY":" ","HOUSE_NO":"１３８號","E_COORD97":168891.01999999999,"N_COORD97":2546699.79,"ADDRESS":"北成路１３８號","OBJECTID":633552},"geometry":{"x":168891.02000000048,"y":2546699.7900000028}},{"attributes":{"ID":633580,"DIS_CODE":0,"TOWNNAME":"北區","LI":"成功里","LIN":"24鄰","STREET":"北成路","SECT":" ","MAREA":" ","LANE":" ","ALLEY":" ","HOUSE_NO":"１４０號","E_COORD97":168886.82999999999,"N_COORD97":2546701.7000000002,"ADDRESS":"北成路１４０號","OBJECTID":633553},"geometry":{"x":168886.83000000007,"y":2546701.7000000011}},{"attributes":{"ID":633581,"DIS_CODE":0,"TOWNNAME":"北區","LI":"成功里","LIN":"24鄰","STREET":"北成路","SECT":" ","MAREA":" ","LANE":" ","ALLEY":" ","HOUSE_NO":"１４２號","E_COORD97":168882.64000000001,"N_COORD97":2546703.8599999999,"ADDRESS":"北成路１４２號","OBJECTID":633554},"geometry":{"x":168882.63999999966,"y":2546703.8600000013}},{"attributes":{"ID":633582,"DIS_CODE":0,"TOWNNAME":"北區","LI":"成德里","LIN":"39鄰","STREET":"北成路","SECT":" ","MAREA":" ","LANE":" ","ALLEY":" ","HOUSE_NO":"３４５號","E_COORD97":168271.17000000001,"N_COORD97":2546627.1200000001,"ADDRESS":"北成路３４５號","OBJECTID":633555},"geometry":{"x":168271.16999999993,"y":2546627.120000001}},{"attributes":{"ID":633583,"DIS_CODE":0,"TOWNNAME":"北區","LI":"成德里","LIN":"21鄰","STREET":"北成路","SECT":" ","MAREA":" ","LANE":" ","ALLEY":" ","HOUSE_NO":"２５１號","E_COORD97":168544.17999999999,"N_COORD97":2546711.8999999999,"ADDRESS":"北成路２５１號","OBJECTID":633556},"geometry":{"x":168544.18000000063,"y":2546711.9000000022}},{"attributes":{"ID":633584,"DIS_CODE":0,"TOWNNAME":"北區","LI":"成德里","LIN":"37鄰","STREET":"北成路","SECT":" ","MAREA":" ","LANE":" ","ALLEY":" ","HOUSE_NO":"３９１號","E_COORD97":168091.53,"N_COORD97":2546579.54,"ADDRESS":"北成路３９１號","OBJECTID":633557},"geometry":{"x":168091.53000000119,"y":2546579.5400000028}},{"attributes":{"ID":633585,"DIS_CODE":0,"TOWNNAME":"北區","LI":"成德里","LIN":"37鄰","STREET":"北成路","SECT":" ","MAREA":" ","LANE":" ","ALLEY":" ","HOUSE_NO":"３９３號","E_COORD97":168085.17999999999,"N_COORD97":2546577.6299999999,"ADDRESS":"北成路３９３號","OBJECTID":633558},"geometry":{"x":168085.18000000063,"y":2546577.629999999}},{"attributes":{"ID":633586,"DIS_CODE":0,"TOWNNAME":"北區","LI":"文元里","LIN":"23鄰","STREET":"文成三路","SECT":" ","MAREA":" ","LANE":" ","ALLEY":" ","HOUSE_NO":"６９０號","E_COORD97":167916.47,"N_COORD97":2546285.3599999999,"ADDRESS":"文成三路６９０號","OBJECTID":633559},"geometry":{"x":167916.46999999881,"y":2546285.3599999994}},{"attributes":{"ID":633587,"DIS_CODE":0,"TOWNNAME":"北區","LI":"文元里","LIN":"23鄰","STREET":"文成三路","SECT":" ","MAREA":" ","LANE":" ","ALLEY":" ","HOUSE_NO":"６９２號","E_COORD97":167911.39000000001,"N_COORD97":2546285.23,"ADDRESS":"文成三路６９２號","OBJECTID":633560},"geometry":{"x":167911.38999999966,"y":2546285.2300000023}},{"attributes":{"ID":633588,"DIS_CODE":0,"TOWNNAME":"北區","LI":"文元里","LIN":"23鄰","STREET":"文成三路","SECT":" ","MAREA":" ","LANE":" ","ALLEY":" ","HOUSE_NO":"６９６號","E_COORD97":167906.69,"N_COORD97":2546285.23,"ADDRESS":"文成三路６９６號","OBJECTID":633561},"geometry":{"x":167906.69000000041,"y":2546285.2300000023}},{"attributes":{"ID":633589,"DIS_CODE":0,"TOWNNAME":"北區","LI":"文元里","LIN":"23鄰","STREET":"文成三路","SECT":" ","MAREA":" ","LANE":" ","ALLEY":" ","HOUSE_NO":"６９８號","E_COORD97":167901.98999999999,"N_COORD97":2546285.1000000001,"ADDRESS":"文成三路６９８號","OBJECTID":633562},"geometry":{"x":167901.99000000115,"y":2546285.1000000015}},{"attributes":{"ID":633590,"DIS_CODE":0,"TOWNNAME":"北區","LI":"文元里","LIN":"23鄰","STREET":"文成三路","SECT":" ","MAREA":" ","LANE":" ","ALLEY":" ","HOUSE_NO":"７００號","E_COORD97":167896.91,"N_COORD97":2546284.8500000001,"ADDRESS":"文成三路７００號","OBJECTID":633563},"geometry":{"x":167896.91000000015,"y":2546284.8499999996}},{"attributes":{"ID":633591,"DIS_CODE":0,"TOWNNAME":"北區","LI":"文元里","LIN":"23鄰","STREET":"文成三路","SECT":" ","MAREA":" ","LANE":" ","ALLEY":" ","HOUSE_NO":"７０２號","E_COORD97":167891.70000000001,"N_COORD97":2546284.7200000002,"ADDRESS":"文成三路７０２號","OBJECTID":633564},"geometry":{"x":167891.70000000205,"y":2546284.7200000044}},{"attributes":{"ID":633592,"DIS_CODE":0,"TOWNNAME":"北區","LI":"文元里","LIN":"23鄰","STREET":"文成三路","SECT":" ","MAREA":" ","LANE":" ","ALLEY":" ","HOUSE_NO":"７０８號","E_COORD97":167881.29000000001,"N_COORD97":2546284.4700000002,"ADDRESS":"文成三路７０８號","OBJECTID":633565},"geometry":{"x":167881.29000000097,"y":2546284.4700000025}},{"attributes":{"ID":633593,"DIS_CODE":0,"TOWNNAME":"北區","LI":"大道里","LIN":"8鄰","STREET":"和緯路","SECT":"一段","MAREA":" ","LANE":" ","ALLEY":" ","HOUSE_NO":"５０號","E_COORD97":169545.84,"N_COORD97":2545554.4500000002,"ADDRESS":"和緯路一段５０號","OBJECTID":633566},"geometry":{"x":169545.83999999985,"y":2545554.4500000011}},{"attributes":{"ID":633594,"DIS_CODE":0,"TOWNNAME":"南區","LI":"郡南里","LIN":"4鄰","STREET":"德興路","SECT":" ","MAREA":" ","LANE":" ","ALLEY":" ","HOUSE_NO":"４３號","E_COORD97":167189.32000000001,"N_COORD97":2540784.8799999999,"ADDRESS":"德興路４３號","OBJECTID":633567},"geometry":{"x":167189.32000000216,"y":2540784.879999999}},{"attributes":{"ID":633595,"DIS_CODE":0,"TOWNNAME":"南區","LI":"廣州里","LIN":"26鄰","STREET":"金華路","SECT":"二段","MAREA":" ","LANE":" ","ALLEY":" ","HOUSE_NO":"３７０號","E_COORD97":167146.81,"N_COORD97":2542788.5899999999,"ADDRESS":"金華路二段３７０號","OBJECTID":633568},"geometry":{"x":167146.81000000052,"y":2542788.5899999999}},{"attributes":{"ID":633596,"DIS_CODE":0,"TOWNNAME":"南區","LI":"文南里","LIN":"13鄰","STREET":"健康路","SECT":"二段","MAREA":" ","LANE":" ","ALLEY":" ","HOUSE_NO":"２７４號","E_COORD97":166910.57999999999,"N_COORD97":2542507.8199999998,"ADDRESS":"健康路二段２７４號","OBJECTID":633569},"geometry":{"x":166910.58000000007,"y":2542507.8200000022}},{"attributes":{"ID":633597,"DIS_CODE":0,"TOWNNAME":"南區","LI":"郡南里","LIN":"20鄰","STREET":"中華南路","SECT":"二段","MAREA":" ","LANE":" ","ALLEY":" ","HOUSE_NO":"６２號","E_COORD97":167351.51999999999,"N_COORD97":2540330.6200000001,"ADDRESS":"中華南路二段６２號","OBJECTID":633570},"geometry":{"x":167351.52000000142,"y":2540330.6200000029}},{"attributes":{"ID":633598,"DIS_CODE":0,"TOWNNAME":"南區","LI":"郡南里","LIN":"13鄰","STREET":"永興三街","SECT":" ","MAREA":" ","LANE":" ","ALLEY":" ","HOUSE_NO":"２７號","E_COORD97":167419.51000000001,"N_COORD97":2540581.1699999999,"ADDRESS":"永興三街２７號","OBJECTID":633571},"geometry":{"x":167419.50999999978,"y":2540581.1699999999}},{"attributes":{"ID":633599,"DIS_CODE":0,"TOWNNAME":"南區","LI":"明興里","LIN":"17鄰","STREET":"中華南路","SECT":"二段","MAREA":" ","LANE":" ","ALLEY":" ","HOUSE_NO":"１３８號","E_COORD97":167125.20999999999,"N_COORD97":2540280.5600000001,"ADDRESS":"中華南路二段１３８號","OBJECTID":633572},"geometry":{"x":167125.21000000183,"y":2540280.5600000005}},{"attributes":{"ID":633600,"DIS_CODE":0,"TOWNNAME":"南區","LI":"郡南里","LIN":"20鄰","STREET":"中華南路","SECT":"二段","MAREA":" ","LANE":" ","ALLEY":" ","HOUSE_NO":"７０號","E_COORD97":167334.88,"N_COORD97":2540324.3900000001,"ADDRESS":"中華南路二段７０號","OBJECTID":633573},"geometry":{"x":167334.88000000082,"y":2540324.3900000025}},{"attributes":{"ID":633601,"DIS_CODE":0,"TOWNNAME":"南區","LI":"明興里","LIN":"17鄰","STREET":"中華南路","SECT":"二段","MAREA":" ","LANE":" ","ALLEY":" ","HOUSE_NO":"１１０號","E_COORD97":167189.57999999999,"N_COORD97":2540292.9500000002,"ADDRESS":"中華南路二段１１０號","OBJECTID":633574},"geometry":{"x":167189.58000000101,"y":2540292.9499999993}},{"attributes":{"ID":633602,"DIS_CODE":0,"TOWNNAME":"南區","LI":"明興里","LIN":"17鄰","STREET":"中華南路","SECT":"二段","MAREA":" ","LANE":" ","ALLEY":" ","HOUSE_NO":"１１２號","E_COORD97":167183.88,"N_COORD97":2540292.04,"ADDRESS":"中華南路二段１１２號","OBJECTID":633575},"geometry":{"x":167183.88000000082,"y":2540292.0399999991}},{"attributes":{"ID":633603,"DIS_CODE":0,"TOWNNAME":"南區","LI":"明興里","LIN":"17鄰","STREET":"中華南路","SECT":"二段","MAREA":" ","LANE":" ","ALLEY":" ","HOUSE_NO":"１１４號","E_COORD97":167179.34,"N_COORD97":2540291.2999999998,"ADDRESS":"中華南路二段１１４號","OBJECTID":633576},"geometry":{"x":167179.33999999985,"y":2540291.3000000026}},{"attributes":{"ID":633604,"DIS_CODE":0,"TOWNNAME":"南區","LI":"建南里","LIN":"8鄰","STREET":"德興路","SECT":" ","MAREA":" ","LANE":" ","ALLEY":" ","HOUSE_NO":"２１８號","E_COORD97":167200.28,"N_COORD97":2540142.3199999998,"ADDRESS":"德興路２１８號","OBJECTID":633577},"geometry":{"x":167200.28000000119,"y":2540142.3200000003}},{"attributes":{"ID":633605,"DIS_CODE":0,"TOWNNAME":"南區","LI":"郡南里","LIN":"4鄰","STREET":"新都路","SECT":" ","MAREA":" ","LANE":" ","ALLEY":" ","HOUSE_NO":"４６１號","E_COORD97":167243.17000000001,"N_COORD97":2540779.3300000001,"ADDRESS":"新都路４６１號","OBJECTID":633578},"geometry":{"x":167243.17000000086,"y":2540779.3300000001}},{"attributes":{"ID":633606,"DIS_CODE":0,"TOWNNAME":"南區","LI":"郡南里","LIN":"4鄰","STREET":"新都路","SECT":" ","MAREA":" ","LANE":" ","ALLEY":" ","HOUSE_NO":"４６３號","E_COORD97":167239.79999999999,"N_COORD97":2540780,"ADDRESS":"新都路４６３號","OBJECTID":633579},"geometry":{"x":167239.80000000168,"y":2540780.0000000019}},{"attributes":{"ID":633607,"DIS_CODE":0,"TOWNNAME":"南區","LI":"郡南里","LIN":"4鄰","STREET":"新都路","SECT":" ","MAREA":" ","LANE":" ","ALLEY":" ","HOUSE_NO":"４６５號","E_COORD97":167237.42999999999,"N_COORD97":2540780.1800000002,"ADDRESS":"新都路４６５號","OBJECTID":633580},"geometry":{"x":167237.43000000063,"y":2540780.1799999997}},{"attributes":{"ID":633608,"DIS_CODE":0,"TOWNNAME":"南區","LI":"郡南里","LIN":"13鄰","STREET":"永興三街","SECT":" ","MAREA":" ","LANE":" ","ALLEY":" ","HOUSE_NO":"３１號","E_COORD97":167411.19,"N_COORD97":2540582.04,"ADDRESS":"永興三街３１號","OBJECTID":633581},"geometry":{"x":167411.19000000134,"y":2540582.0400000028}},{"attributes":{"ID":633609,"DIS_CODE":0,"TOWNNAME":"南區","LI":"郡南里","LIN":"13鄰","STREET":"永興三街","SECT":" ","MAREA":" ","LANE":" ","ALLEY":" ","HOUSE_NO":"３３號","E_COORD97":167407.67999999999,"N_COORD97":2540580.0800000001,"ADDRESS":"永興三街３３號","OBJECTID":633582},"geometry":{"x":167407.6799999997,"y":2540580.0800000019}},{"attributes":{"ID":633610,"DIS_CODE":0,"TOWNNAME":"南區","LI":"郡南里","LIN":"13鄰","STREET":"永興三街","SECT":" ","MAREA":" ","LANE":" ","ALLEY":" ","HOUSE_NO":"３５號","E_COORD97":167403.07999999999,"N_COORD97":2540581.3900000001,"ADDRESS":"永興三街３５號","OBJECTID":633583},"geometry":{"x":167403.08000000101,"y":2540581.3900000025}},{"attributes":{"ID":633611,"DIS_CODE":0,"TOWNNAME":"南區","LI":"郡南里","LIN":"13鄰","STREET":"永興三街","SECT":" ","MAREA":" ","LANE":" ","ALLEY":" ","HOUSE_NO":"３７號","E_COORD97":167399.35999999999,"N_COORD97":2540579.6400000001,"ADDRESS":"永興三街３７號","OBJECTID":633584},"geometry":{"x":167399.36000000127,"y":2540579.6400000025}},{"attributes":{"ID":633612,"DIS_CODE":0,"TOWNNAME":"北區","LI":"三德里","LIN":"13鄰","STREET":"長北街","SECT":" ","MAREA":" ","LANE":" ","ALLEY":" ","HOUSE_NO":"１２號","E_COORD97":168368.39000000001,"N_COORD97":2544465.4399999999,"ADDRESS":"長北街１２號","OBJECTID":633585},"geometry":{"x":168368.3900000006,"y":2544465.4400000013}},{"attributes":{"ID":633613,"DIS_CODE":0,"TOWNNAME":"北區","LI":"振興里","LIN":"4鄰","STREET":"開元路","SECT":" ","MAREA":" ","LANE":" ","ALLEY":" ","HOUSE_NO":"１６８號","E_COORD97":170039.19,"N_COORD97":2545278.3999999999,"ADDRESS":"開元路１６８號","OBJECTID":633586},"geometry":{"x":170039.19000000041,"y":2545278.4000000004}},{"attributes":{"ID":633614,"DIS_CODE":0,"TOWNNAME":"北區","LI":"振興里","LIN":"4鄰","STREET":"開元路","SECT":" ","MAREA":" ","LANE":" ","ALLEY":" ","HOUSE_NO":"１７０號","E_COORD97":170042.19,"N_COORD97":2545280.0699999998,"ADDRESS":"開元路１７０號","OBJECTID":633587},"geometry":{"x":170042.19000000134,"y":2545280.0700000022}},{"attributes":{"ID":633615,"DIS_CODE":0,"TOWNNAME":"北區","LI":"振興里","LIN":"4鄰","STREET":"開元路","SECT":" ","MAREA":" ","LANE":" ","ALLEY":" ","HOUSE_NO":"１７２號","E_COORD97":170045.06,"N_COORD97":2545281.75,"ADDRESS":"開元路１７２號","OBJECTID":633588},"geometry":{"x":170045.06000000145,"y":2545281.7500000019}},{"attributes":{"ID":633616,"DIS_CODE":0,"TOWNNAME":"北區","LI":"振興里","LIN":"4鄰","STREET":"開元路","SECT":" ","MAREA":" ","LANE":" ","ALLEY":" ","HOUSE_NO":"１７４號","E_COORD97":170049.01000000001,"N_COORD97":2545282.4700000002,"ADDRESS":"開元路１７４號","OBJECTID":633589},"geometry":{"x":170049.01000000164,"y":2545282.4700000007}},{"attributes":{"ID":633617,"DIS_CODE":0,"TOWNNAME":"北區","LI":"振興里","LIN":"4鄰","STREET":"開元路","SECT":" ","MAREA":" ","LANE":" ","ALLEY":" ","HOUSE_NO":"１７６號","E_COORD97":170053.07999999999,"N_COORD97":2545284.1400000001,"ADDRESS":"開元路１７６號","OBJECTID":633590},"geometry":{"x":170053.08000000007,"y":2545284.1400000006}},{"attributes":{"ID":633618,"DIS_CODE":0,"TOWNNAME":"北區","LI":"振興里","LIN":"4鄰","STREET":"開元路","SECT":" ","MAREA":" ","LANE":" ","ALLEY":" ","HOUSE_NO":"１７８號","E_COORD97":170058.70999999999,"N_COORD97":2545285.2200000002,"ADDRESS":"開元路１７８號","OBJECTID":633591},"geometry":{"x":170058.71000000089,"y":2545285.2200000025}},{"attributes":{"ID":633619,"DIS_CODE":0,"TOWNNAME":"北區","LI":"振興里","LIN":"4鄰","STREET":"開元路","SECT":" ","MAREA":" ","LANE":" ","ALLEY":" ","HOUSE_NO":"１８０號","E_COORD97":170062.17999999999,"N_COORD97":2545287.6099999999,"ADDRESS":"開元路１８０號","OBJECTID":633592},"geometry":{"x":170062.1799999997,"y":2545287.6100000031}},{"attributes":{"ID":633620,"DIS_CODE":0,"TOWNNAME":"北區","LI":"振興里","LIN":"4鄰","STREET":"開元路","SECT":" ","MAREA":" ","LANE":" ","ALLEY":" ","HOUSE_NO":"１８２號","E_COORD97":170066.26000000001,"N_COORD97":2545288.3999999999,"ADDRESS":"開元路１８２號","OBJECTID":633593},"geometry":{"x":170066.26000000071,"y":2545288.4000000004}},{"attributes":{"ID":633621,"DIS_CODE":0,"TOWNNAME":"北區","LI":"振興里","LIN":"4鄰","STREET":"開元路","SECT":" ","MAREA":" ","LANE":" ","ALLEY":" ","HOUSE_NO":"１８６號","E_COORD97":170072.84,"N_COORD97":2545289.8300000001,"ADDRESS":"開元路１８６號","OBJECTID":633594},"geometry":{"x":170072.84000000078,"y":2545289.8299999982}},{"attributes":{"ID":633622,"DIS_CODE":0,"TOWNNAME":"北區","LI":"振興里","LIN":"4鄰","STREET":"開元路","SECT":" ","MAREA":" ","LANE":" ","ALLEY":" ","HOUSE_NO":"１８８號","E_COORD97":170076.07000000001,"N_COORD97":2545293.1800000002,"ADDRESS":"開元路１８８號","OBJECTID":633595},"geometry":{"x":170076.06999999937,"y":2545293.1799999997}},{"attributes":{"ID":633623,"DIS_CODE":0,"TOWNNAME":"東區","LI":"龍山里","LIN":"10鄰","STREET":"東門路","SECT":"二段","MAREA":" ","LANE":" ","ALLEY":" ","HOUSE_NO":"６８號","E_COORD97":170000.06,"N_COORD97":2542918.6800000002,"ADDRESS":"東門路二段６８號","OBJECTID":633596},"geometry":{"x":170000.05999999959,"y":2542918.6800000016}},{"attributes":{"ID":633624,"DIS_CODE":0,"TOWNNAME":"北區","LI":"文元里","LIN":"4鄰","STREET":"中華北路","SECT":"二段","MAREA":" ","LANE":" ","ALLEY":" ","HOUSE_NO":"１５號","E_COORD97":167395.54000000001,"N_COORD97":2546526.29,"ADDRESS":"中華北路二段１５號","OBJECTID":633597},"geometry":{"x":167395.54000000004,"y":2546526.2899999991}},{"attributes":{"ID":633625,"DIS_CODE":0,"TOWNNAME":"北區","LI":"文元里","LIN":"4鄰","STREET":"中華北路","SECT":"二段","MAREA":" ","LANE":" ","ALLEY":" ","HOUSE_NO":"１６號","E_COORD97":167400.26000000001,"N_COORD97":2546528.1299999999,"ADDRESS":"中華北路二段１６號","OBJECTID":633598},"geometry":{"x":167400.25999999978,"y":2546528.1300000008}},{"attributes":{"ID":633626,"DIS_CODE":0,"TOWNNAME":"北區","LI":"文元里","LIN":"4鄰","STREET":"中華北路","SECT":"二段","MAREA":" ","LANE":" ","ALLEY":" ","HOUSE_NO":"１７號","E_COORD97":167404.97,"N_COORD97":2546529.77,"ADDRESS":"中華北路二段１７號","OBJECTID":633599},"geometry":{"x":167404.97000000067,"y":2546529.7699999996}},{"attributes":{"ID":633627,"DIS_CODE":0,"TOWNNAME":"北區","LI":"文元里","LIN":"4鄰","STREET":"中華北路","SECT":"二段","MAREA":" ","LANE":" ","ALLEY":" ","HOUSE_NO":"１８號","E_COORD97":167409.48000000001,"N_COORD97":2546531.6099999999,"ADDRESS":"中華北路二段１８號","OBJECTID":633600},"geometry":{"x":167409.48000000138,"y":2546531.6099999975}}]}