{"displayFieldName":"TOWNNAME","fieldAliases":{"ID":"ID","DIS_CODE":"DIS_CODE","TOWNNAME":"TOWNNAME","LI":"LI","LIN":"LIN","STREET":"STREET","SECT":"SECT","MAREA":"MAREA","LANE":"LANE","ALLEY":"ALLEY","HOUSE_NO":"HOUSE_NO","E_COORD97":"E_COORD97","N_COORD97":"N_COORD97","ADDRESS":"ADDRESS","OBJECTID":"OBJECTID"},"geometryType":"esriGeometryPoint","spatialReference":{"wkid":102443,"latestWkid":3826},"fields":[{"name":"ID","type":"esriFieldTypeDouble","alias":"ID"},{"name":"DIS_CODE","type":"esriFieldTypeInteger","alias":"DIS_CODE"},{"name":"TOWNNAME","type":"esriFieldTypeString","alias":"TOWNNAME","length":8},{"name":"LI","type":"esriFieldTypeString","alias":"LI","length":8},{"name":"LIN","type":"esriFieldTypeString","alias":"LIN","length":12},{"name":"STREET","type":"esriFieldTypeString","alias":"STREET","length":20},{"name":"SECT","type":"esriFieldTypeString","alias":"SECT","length":8},{"name":"MAREA","type":"esriFieldTypeString","alias":"MAREA","length":12},{"name":"LANE","type":"esriFieldTypeString","alias":"LANE","length":10},{"name":"ALLEY","type":"esriFieldTypeString","alias":"ALLEY","length":10},{"name":"HOUSE_NO","type":"esriFieldTypeString","alias":"HOUSE_NO","length":20},{"name":"E_COORD97","type":"esriFieldTypeDouble","alias":"E_COORD97"},{"name":"N_COORD97","type":"esriFieldTypeDouble","alias":"N_COORD97"},{"name":"ADDRESS","type":"esriFieldTypeString","alias":"ADDRESS","length":50},{"name":"OBJECTID","type":"esriFieldTypeOID","alias":"OBJECTID"}],"features":[{"attributes":{"ID":219802,"DIS_CODE":0,"TOWNNAME":"仁德區","LI":"上崙里","LIN":"23鄰","STREET":"德崙路","SECT":" ","MAREA":" ","LANE":"１９６巷","ALLEY":"１６弄","HOUSE_NO":"２２號","E_COORD97":173572.64000000001,"N_COORD97":2538294.4700000002,"ADDRESS":"德崙路１９６巷１６弄２２號","OBJECTID":219801},"geometry":{"x":173572.6400000006,"y":2538294.4700000007}},{"attributes":{"ID":219803,"DIS_CODE":0,"TOWNNAME":"仁德區","LI":"上崙里","LIN":"23鄰","STREET":"德崙路","SECT":" ","MAREA":" ","LANE":"１９６巷","ALLEY":"１６弄","HOUSE_NO":"１６號","E_COORD97":173582.10000000001,"N_COORD97":2538286.9700000002,"ADDRESS":"德崙路１９６巷１６弄１６號","OBJECTID":219802},"geometry":{"x":173582.09999999963,"y":2538286.9700000007}},{"attributes":{"ID":219804,"DIS_CODE":0,"TOWNNAME":"仁德區","LI":"上崙里","LIN":"23鄰","STREET":"德崙路","SECT":" ","MAREA":" ","LANE":"１９６巷","ALLEY":"１６弄","HOUSE_NO":"２９號","E_COORD97":173557.23999999999,"N_COORD97":2538281.6400000001,"ADDRESS":"德崙路１９６巷１６弄２９號","OBJECTID":219803},"geometry":{"x":173557.24000000115,"y":2538281.6400000025}},{"attributes":{"ID":219805,"DIS_CODE":0,"TOWNNAME":"仁德區","LI":"上崙里","LIN":"23鄰","STREET":"德崙路","SECT":" ","MAREA":" ","LANE":"１９６巷","ALLEY":"１６弄","HOUSE_NO":"９號","E_COORD97":173588.91,"N_COORD97":2538256.6499999999,"ADDRESS":"德崙路１９６巷１６弄９號","OBJECTID":219804},"geometry":{"x":173588.91000000015,"y":2538256.6500000041}},{"attributes":{"ID":219806,"DIS_CODE":0,"TOWNNAME":"仁德區","LI":"上崙里","LIN":"23鄰","STREET":"德崙路","SECT":" ","MAREA":" ","LANE":"１９６巷","ALLEY":"１６弄","HOUSE_NO":"２５號","E_COORD97":173563.69,"N_COORD97":2538276.6400000001,"ADDRESS":"德崙路１９６巷１６弄２５號","OBJECTID":219805},"geometry":{"x":173563.69000000041,"y":2538276.6400000006}},{"attributes":{"ID":219807,"DIS_CODE":0,"TOWNNAME":"仁德區","LI":"上崙里","LIN":"23鄰","STREET":"德崙路","SECT":" ","MAREA":" ","LANE":"１９６巷","ALLEY":"１６弄","HOUSE_NO":"７號","E_COORD97":173591.70000000001,"N_COORD97":2538254.1499999999,"ADDRESS":"德崙路１９６巷１６弄７號","OBJECTID":219806},"geometry":{"x":173591.70000000112,"y":2538254.1500000022}},{"attributes":{"ID":219808,"DIS_CODE":0,"TOWNNAME":"仁德區","LI":"上崙里","LIN":"23鄰","STREET":"德崙路","SECT":" ","MAREA":" ","LANE":"１９６巷","ALLEY":"１６弄","HOUSE_NO":"１１號","E_COORD97":173586.82999999999,"N_COORD97":2538258.8999999999,"ADDRESS":"德崙路１９６巷１６弄１１號","OBJECTID":219807},"geometry":{"x":173586.83000000101,"y":2538258.9000000022}},{"attributes":{"ID":219809,"DIS_CODE":0,"TOWNNAME":"永康區","LI":"埔園里","LIN":"28鄰","STREET":"中山路","SECT":" ","MAREA":" ","LANE":" ","ALLEY":" ","HOUSE_NO":"３０８號","E_COORD97":173699.98000000001,"N_COORD97":2548140.0099999998,"ADDRESS":"中山路３０８號","OBJECTID":219808},"geometry":{"x":173699.98000000138,"y":2548140.0100000035}},{"attributes":{"ID":219810,"DIS_CODE":0,"TOWNNAME":"永康區","LI":"大橋里","LIN":"28鄰","STREET":"中華路","SECT":" ","MAREA":" ","LANE":" ","ALLEY":" ","HOUSE_NO":"６９６號","E_COORD97":171000.07000000001,"N_COORD97":2546274.54,"ADDRESS":"中華路６９６號","OBJECTID":219809},"geometry":{"x":171000.07000000216,"y":2546274.540000001}},{"attributes":{"ID":219811,"DIS_CODE":0,"TOWNNAME":"安南區","LI":"\u25A0南里","LIN":"28鄰","STREET":"安昌街","SECT":" ","MAREA":" ","LANE":" ","ALLEY":" ","HOUSE_NO":"３１２號","E_COORD97":170187.91,"N_COORD97":2552805.8199999998,"ADDRESS":"安昌街３１２號","OBJECTID":219810},"geometry":{"x":170187.91000000108,"y":2552805.8200000003}},{"attributes":{"ID":219812,"DIS_CODE":0,"TOWNNAME":"安南區","LI":"\u25A0南里","LIN":"28鄰","STREET":"安昌街","SECT":" ","MAREA":" ","LANE":" ","ALLEY":" ","HOUSE_NO":"３１４號","E_COORD97":170189.70000000001,"N_COORD97":2552810.5,"ADDRESS":"安昌街３１４號","OBJECTID":219811},"geometry":{"x":170189.70000000019,"y":2552810.5}},{"attributes":{"ID":219813,"DIS_CODE":0,"TOWNNAME":"安南區","LI":"\u25A0南里","LIN":"28鄰","STREET":"安昌街","SECT":" ","MAREA":" ","LANE":" ","ALLEY":" ","HOUSE_NO":"３１６號","E_COORD97":170191.20999999999,"N_COORD97":2552814.3500000001,"ADDRESS":"安昌街３１６號","OBJECTID":219812},"geometry":{"x":170191.20999999996,"y":2552814.3500000015}},{"attributes":{"ID":219814,"DIS_CODE":0,"TOWNNAME":"安南區","LI":"\u25A0南里","LIN":"28鄰","STREET":"安昌街","SECT":" ","MAREA":" ","LANE":" ","ALLEY":" ","HOUSE_NO":"３１８號","E_COORD97":170192.32000000001,"N_COORD97":2552819.0299999998,"ADDRESS":"安昌街３１８號","OBJECTID":219813},"geometry":{"x":170192.3200000003,"y":2552819.0300000012}},{"attributes":{"ID":219815,"DIS_CODE":0,"TOWNNAME":"安南區","LI":"溪墘里","LIN":"28鄰","STREET":"海佃路","SECT":"一段","MAREA":" ","LANE":" ","ALLEY":" ","HOUSE_NO":"３６號","E_COORD97":167230.57999999999,"N_COORD97":2546833.54,"ADDRESS":"海佃路一段３６號","OBJECTID":219814},"geometry":{"x":167230.58000000007,"y":2546833.5400000028}},{"attributes":{"ID":219816,"DIS_CODE":0,"TOWNNAME":"永康區","LI":"西灣里","LIN":"28鄰","STREET":"永大路","SECT":"二段","MAREA":" ","LANE":" ","ALLEY":" ","HOUSE_NO":"４３３號","E_COORD97":174502.5,"N_COORD97":2545918.4399999999,"ADDRESS":"永大路二段４３３號","OBJECTID":219815},"geometry":{"x":174502.50000000186,"y":2545918.4399999995}},{"attributes":{"ID":219817,"DIS_CODE":0,"TOWNNAME":"永康區","LI":"永康里","LIN":"28鄰","STREET":"永平街","SECT":" ","MAREA":" ","LANE":" ","ALLEY":" ","HOUSE_NO":"４７５號","E_COORD97":174171.34,"N_COORD97":2546870.54,"ADDRESS":"永平街４７５號","OBJECTID":219816},"geometry":{"x":174171.34000000078,"y":2546870.5399999991}},{"attributes":{"ID":219818,"DIS_CODE":0,"TOWNNAME":"永康區","LI":"南灣里","LIN":"28鄰","STREET":"南灣街","SECT":" ","MAREA":" ","LANE":" ","ALLEY":" ","HOUSE_NO":"２３號","E_COORD97":174559.92999999999,"N_COORD97":2544901.23,"ADDRESS":"南灣街２３號","OBJECTID":219817},"geometry":{"x":174559.9299999997,"y":2544901.2300000042}},{"attributes":{"ID":219819,"DIS_CODE":0,"TOWNNAME":"仁德區","LI":"上崙里","LIN":"23鄰","STREET":"德崙路","SECT":" ","MAREA":" ","LANE":"１９６巷","ALLEY":"１６弄","HOUSE_NO":"２３號","E_COORD97":173566.88,"N_COORD97":2538274.1400000001,"ADDRESS":"德崙路１９６巷１６弄２３號","OBJECTID":219818},"geometry":{"x":173566.87999999989,"y":2538274.1400000025}},{"attributes":{"ID":219820,"DIS_CODE":0,"TOWNNAME":"仁德區","LI":"上崙里","LIN":"23鄰","STREET":"德崙路","SECT":" ","MAREA":" ","LANE":"１９６巷","ALLEY":"１６弄","HOUSE_NO":"１８號","E_COORD97":173578.78,"N_COORD97":2538289.2200000002,"ADDRESS":"德崙路１９６巷１６弄１８號","OBJECTID":219819},"geometry":{"x":173578.78000000212,"y":2538289.2200000007}},{"attributes":{"ID":219821,"DIS_CODE":0,"TOWNNAME":"仁德區","LI":"上崙里","LIN":"23鄰","STREET":"德崙路","SECT":" ","MAREA":" ","LANE":"１９６巷","ALLEY":"１６弄","HOUSE_NO":"１３號","E_COORD97":173583.5,"N_COORD97":2538261.3999999999,"ADDRESS":"德崙路１９６巷１６弄１３號","OBJECTID":219820},"geometry":{"x":173583.5,"y":2538261.4000000004}},{"attributes":{"ID":219822,"DIS_CODE":0,"TOWNNAME":"仁德區","LI":"上崙里","LIN":"23鄰","STREET":"德崙路","SECT":" ","MAREA":" ","LANE":"１９６巷","ALLEY":"１６弄","HOUSE_NO":"８號","E_COORD97":173593.10000000001,"N_COORD97":2538274.48,"ADDRESS":"德崙路１９６巷１６弄８號","OBJECTID":219821},"geometry":{"x":173593.10000000056,"y":2538274.4800000004}},{"attributes":{"ID":219823,"DIS_CODE":0,"TOWNNAME":"仁德區","LI":"上崙里","LIN":"23鄰","STREET":"德崙路","SECT":" ","MAREA":" ","LANE":"１９６巷","ALLEY":"１６弄","HOUSE_NO":"１號","E_COORD97":173601.92000000001,"N_COORD97":2538246.1499999999,"ADDRESS":"德崙路１９６巷１６弄１號","OBJECTID":219822},"geometry":{"x":173601.92000000086,"y":2538246.1499999985}},{"attributes":{"ID":219824,"DIS_CODE":0,"TOWNNAME":"仁德區","LI":"上崙里","LIN":"23鄰","STREET":"德崙路","SECT":" ","MAREA":" ","LANE":"１９６巷","ALLEY":"１６弄","HOUSE_NO":"５號","E_COORD97":173594.88,"N_COORD97":2538251.6499999999,"ADDRESS":"德崙路１９６巷１６弄５號","OBJECTID":219823},"geometry":{"x":173594.88000000082,"y":2538251.6500000004}},{"attributes":{"ID":219825,"DIS_CODE":0,"TOWNNAME":"仁德區","LI":"上崙里","LIN":"23鄰","STREET":"德崙路","SECT":" ","MAREA":" ","LANE":"１９６巷","ALLEY":"１６弄","HOUSE_NO":"２６號","E_COORD97":173566.25,"N_COORD97":2538299.4700000002,"ADDRESS":"德崙路１９６巷１６弄２６號","OBJECTID":219824},"geometry":{"x":173566.25,"y":2538299.4700000025}},{"attributes":{"ID":219826,"DIS_CODE":0,"TOWNNAME":"仁德區","LI":"上崙里","LIN":"23鄰","STREET":"德崙路","SECT":" ","MAREA":" ","LANE":"１９６巷","ALLEY":"１６弄","HOUSE_NO":"２７號","E_COORD97":173560.28,"N_COORD97":2538279.1400000001,"ADDRESS":"德崙路１９６巷１６弄２７號","OBJECTID":219825},"geometry":{"x":173560.28000000119,"y":2538279.1400000006}},{"attributes":{"ID":219827,"DIS_CODE":0,"TOWNNAME":"仁德區","LI":"上崙里","LIN":"23鄰","STREET":"德崙路","SECT":" ","MAREA":" ","LANE":"１９６巷","ALLEY":"１６弄","HOUSE_NO":"２０號","E_COORD97":173575.70000000001,"N_COORD97":2538291.7200000002,"ADDRESS":"德崙路１９６巷１６弄２０號","OBJECTID":219826},"geometry":{"x":173575.70000000205,"y":2538291.7200000025}},{"attributes":{"ID":219828,"DIS_CODE":0,"TOWNNAME":"仁德區","LI":"上崙里","LIN":"23鄰","STREET":"德崙路","SECT":" ","MAREA":" ","LANE":"１９６巷","ALLEY":"１６弄","HOUSE_NO":"３號","E_COORD97":173598.13,"N_COORD97":2538249.1499999999,"ADDRESS":"德崙路１９６巷１６弄３號","OBJECTID":219827},"geometry":{"x":173598.13000000082,"y":2538249.1500000004}},{"attributes":{"ID":219829,"DIS_CODE":0,"TOWNNAME":"仁德區","LI":"上崙里","LIN":"23鄰","STREET":"德崙路","SECT":" ","MAREA":" ","LANE":"１９６巷","ALLEY":"１６弄","HOUSE_NO":"６號","E_COORD97":173596.25,"N_COORD97":2538271.98,"ADDRESS":"德崙路１９６巷１６弄６號","OBJECTID":219828},"geometry":{"x":173596.25000000093,"y":2538271.9800000023}},{"attributes":{"ID":219830,"DIS_CODE":0,"TOWNNAME":"仁德區","LI":"上崙里","LIN":"23鄰","STREET":"德崙路","SECT":" ","MAREA":" ","LANE":"１９６巷","ALLEY":"１６弄","HOUSE_NO":"１７號","E_COORD97":173577.23999999999,"N_COORD97":2538266.6499999999,"ADDRESS":"德崙路１９６巷１６弄１７號","OBJECTID":219829},"geometry":{"x":173577.24000000209,"y":2538266.6500000041}},{"attributes":{"ID":219831,"DIS_CODE":0,"TOWNNAME":"仁德區","LI":"上崙里","LIN":"23鄰","STREET":"德崙路","SECT":" ","MAREA":" ","LANE":"１９６巷","ALLEY":"１６弄","HOUSE_NO":"２４號","E_COORD97":173569.44,"N_COORD97":2538296.9700000002,"ADDRESS":"德崙路１９６巷１６弄２４號","OBJECTID":219830},"geometry":{"x":173569.44000000134,"y":2538296.9700000025}},{"attributes":{"ID":219832,"DIS_CODE":0,"TOWNNAME":"東區","LI":"小東里","LIN":"23鄰","STREET":"光明街","SECT":" ","MAREA":" ","LANE":"２０１巷","ALLEY":"２３弄","HOUSE_NO":"１號","E_COORD97":171006.75,"N_COORD97":2544076.8500000001,"ADDRESS":"光明街２０１巷２３弄１號","OBJECTID":219831},"geometry":{"x":171006.75,"y":2544076.8500000015}},{"attributes":{"ID":219833,"DIS_CODE":0,"TOWNNAME":"安定區","LI":"海寮里","LIN":"14鄰","STREET":" ","SECT":" ","MAREA":"海寮","LANE":" ","ALLEY":" ","HOUSE_NO":"１３２號之７９","E_COORD97":168992.20999999999,"N_COORD97":2555417.2999999998,"ADDRESS":"海寮１３２號之７９","OBJECTID":219832},"geometry":{"x":168992.21000000089,"y":2555417.3000000007}},{"attributes":{"ID":219834,"DIS_CODE":0,"TOWNNAME":"安定區","LI":"蘇厝里","LIN":"4鄰","STREET":" ","SECT":" ","MAREA":"蘇厝","LANE":" ","ALLEY":" ","HOUSE_NO":"３１０號之１","E_COORD97":173238.25,"N_COORD97":2558611.2999999998,"ADDRESS":"蘇厝３１０號之１","OBJECTID":219833},"geometry":{"x":173238.25000000093,"y":2558611.3000000007}},{"attributes":{"ID":219835,"DIS_CODE":0,"TOWNNAME":"安定區","LI":"港南里","LIN":"4鄰","STREET":" ","SECT":" ","MAREA":"港口","LANE":" ","ALLEY":" ","HOUSE_NO":"２７之１９號","E_COORD97":171501.69,"N_COORD97":2553998.2999999998,"ADDRESS":"港口２７之１９號","OBJECTID":219834},"geometry":{"x":171501.69000000134,"y":2553998.3000000026}},{"attributes":{"ID":219836,"DIS_CODE":0,"TOWNNAME":"安定區","LI":"蘇厝里","LIN":"13鄰","STREET":" ","SECT":" ","MAREA":"蘇厝","LANE":" ","ALLEY":" ","HOUSE_NO":"４０２之２號","E_COORD97":173012.22,"N_COORD97":2558714.2999999998,"ADDRESS":"蘇厝４０２之２號","OBJECTID":219835},"geometry":{"x":173012.21999999881,"y":2558714.3000000026}},{"attributes":{"ID":219837,"DIS_CODE":0,"TOWNNAME":"安定區","LI":"六嘉里","LIN":"4鄰","STREET":" ","SECT":" ","MAREA":"六塊寮","LANE":" ","ALLEY":" ","HOUSE_NO":"３０之１８號","E_COORD97":169684.793144,"N_COORD97":2553268.1762199998,"ADDRESS":"六塊寮３０之１８號","OBJECTID":219836},"geometry":{"x":169684.79314400163,"y":2553268.1762160007}},{"attributes":{"ID":219838,"DIS_CODE":0,"TOWNNAME":"安定區","LI":"港口里","LIN":"13鄰","STREET":" ","SECT":" ","MAREA":"港口","LANE":" ","ALLEY":" ","HOUSE_NO":"３４７之２號","E_COORD97":171239.89000000001,"N_COORD97":2554709.2999999998,"ADDRESS":"港口３４７之２號","OBJECTID":219837},"geometry":{"x":171239.8900000006,"y":2554709.2999999989}},{"attributes":{"ID":219839,"DIS_CODE":0,"TOWNNAME":"安定區","LI":"安加里","LIN":"13鄰","STREET":" ","SECT":" ","MAREA":"安定","LANE":" ","ALLEY":" ","HOUSE_NO":"２９５之４號","E_COORD97":171673.82000000001,"N_COORD97":2557434.3199999998,"ADDRESS":"安定２９５之４號","OBJECTID":219838},"geometry":{"x":171673.82000000123,"y":2557434.3200000003}},{"attributes":{"ID":219840,"DIS_CODE":0,"TOWNNAME":"安定區","LI":"蘇厝里","LIN":"14鄰","STREET":" ","SECT":" ","MAREA":"蘇厝","LANE":" ","ALLEY":" ","HOUSE_NO":"４１５號","E_COORD97":173108.82000000001,"N_COORD97":2558781.25,"ADDRESS":"蘇厝４１５號","OBJECTID":219839},"geometry":{"x":173108.82000000216,"y":2558781.2500000019}},{"attributes":{"ID":219841,"DIS_CODE":0,"TOWNNAME":"永康區","LI":"復國里","LIN":"28鄰","STREET":"復國一路","SECT":" ","MAREA":" ","LANE":" ","ALLEY":" ","HOUSE_NO":"１９７號","E_COORD97":172706.14000000001,"N_COORD97":2545297.0299999998,"ADDRESS":"復國一路１９７號","OBJECTID":219840},"geometry":{"x":172706.1400000006,"y":2545297.0299999993}},{"attributes":{"ID":219842,"DIS_CODE":0,"TOWNNAME":"東區","LI":"虎尾里","LIN":"7鄰","STREET":"東成街","SECT":" ","MAREA":" ","LANE":" ","ALLEY":" ","HOUSE_NO":"１０８號","E_COORD97":171581.35000000001,"N_COORD97":2542286.8399999999,"ADDRESS":"東成街１０８號","OBJECTID":219841},"geometry":{"x":171581.35000000056,"y":2542286.8400000017}},{"attributes":{"ID":219843,"DIS_CODE":0,"TOWNNAME":"東區","LI":"虎尾里","LIN":"7鄰","STREET":"東成街","SECT":" ","MAREA":" ","LANE":" ","ALLEY":" ","HOUSE_NO":"１０８之１號","E_COORD97":171583.79000000001,"N_COORD97":2542284.3900000001,"ADDRESS":"東成街１０８之１號","OBJECTID":219842},"geometry":{"x":171583.79000000097,"y":2542284.3900000025}},{"attributes":{"ID":219844,"DIS_CODE":0,"TOWNNAME":"東區","LI":"虎尾里","LIN":"7鄰","STREET":"東成街","SECT":" ","MAREA":" ","LANE":" ","ALLEY":" ","HOUSE_NO":"１１０號","E_COORD97":171588.69,"N_COORD97":2542288.1200000001,"ADDRESS":"東成街１１０號","OBJECTID":219843},"geometry":{"x":171588.69000000041,"y":2542288.120000001}},{"attributes":{"ID":219845,"DIS_CODE":0,"TOWNNAME":"東區","LI":"和平里","LIN":"15鄰","STREET":"文化一街","SECT":" ","MAREA":" ","LANE":" ","ALLEY":" ","HOUSE_NO":"１５５號","E_COORD97":171312.28,"N_COORD97":2541745.1600000001,"ADDRESS":"文化一街１５５號","OBJECTID":219844},"geometry":{"x":171312.28000000212,"y":2541745.1600000039}},{"attributes":{"ID":219846,"DIS_CODE":0,"TOWNNAME":"東區","LI":"和平里","LIN":"15鄰","STREET":"文化一街","SECT":" ","MAREA":" ","LANE":" ","ALLEY":" ","HOUSE_NO":"１５７號","E_COORD97":171316.54000000001,"N_COORD97":2541736.6400000001,"ADDRESS":"文化一街１５７號","OBJECTID":219845},"geometry":{"x":171316.54000000004,"y":2541736.6400000025}},{"attributes":{"ID":219847,"DIS_CODE":0,"TOWNNAME":"安南區","LI":"海東里","LIN":"23鄰","STREET":"同安路","SECT":" ","MAREA":" ","LANE":"１４５巷","ALLEY":"２０弄","HOUSE_NO":"１號","E_COORD97":166981.79999999999,"N_COORD97":2549124.98,"ADDRESS":"同安路１４５巷２０弄１號","OBJECTID":219846},"geometry":{"x":166981.79999999981,"y":2549124.9800000023}},{"attributes":{"ID":219848,"DIS_CODE":0,"TOWNNAME":"仁德區","LI":"上崙里","LIN":"23鄰","STREET":"德崙路","SECT":" ","MAREA":" ","LANE":"１９６巷","ALLEY":"１６弄","HOUSE_NO":"１２之１號","E_COORD97":173611.51000000001,"N_COORD97":2538288.04,"ADDRESS":"德崙路１９６巷１６弄１２之１號","OBJECTID":219847},"geometry":{"x":173611.50999999978,"y":2538288.040000001}},{"attributes":{"ID":219849,"DIS_CODE":0,"TOWNNAME":"永康區","LI":"東橋里","LIN":"23鄰","STREET":"中正路","SECT":" ","MAREA":" ","LANE":"２１７巷","ALLEY":"３弄","HOUSE_NO":"６９號","E_COORD97":172780.14000000001,"N_COORD97":2547799.75,"ADDRESS":"中正路２１７巷３弄６９號","OBJECTID":219848},"geometry":{"x":172780.13999999966,"y":2547799.7500000019}},{"attributes":{"ID":219850,"DIS_CODE":0,"TOWNNAME":"永康區","LI":"東橋里","LIN":"23鄰","STREET":"中正路","SECT":" ","MAREA":" ","LANE":"２１７巷","ALLEY":"３弄","HOUSE_NO":"７號","E_COORD97":172986.53,"N_COORD97":2547866.1600000001,"ADDRESS":"中正路２１７巷３弄７號","OBJECTID":219849},"geometry":{"x":172986.53000000026,"y":2547866.160000002}},{"attributes":{"ID":219851,"DIS_CODE":0,"TOWNNAME":"永康區","LI":"埔園里","LIN":"23鄰","STREET":"自強路","SECT":" ","MAREA":" ","LANE":"３７９巷","ALLEY":"５３弄","HOUSE_NO":"７號","E_COORD97":173560.31,"N_COORD97":2547997.75,"ADDRESS":"自強路３７９巷５３弄７號","OBJECTID":219850},"geometry":{"x":173560.30999999959,"y":2547997.7500000019}},{"attributes":{"ID":219852,"DIS_CODE":0,"TOWNNAME":"永康區","LI":"西橋里","LIN":"23鄰","STREET":"大橋三街","SECT":" ","MAREA":" ","LANE":"５７巷","ALLEY":"１９弄","HOUSE_NO":"７２號","E_COORD97":170440.69,"N_COORD97":2546495.2000000002,"ADDRESS":"大橋三街５７巷１９弄７２號","OBJECTID":219851},"geometry":{"x":170440.69000000134,"y":2546495.2000000011}},{"attributes":{"ID":219853,"DIS_CODE":0,"TOWNNAME":"永康區","LI":"西勢里","LIN":"23鄰","STREET":"富強路","SECT":"一段","MAREA":" ","LANE":"１９４巷","ALLEY":"２弄","HOUSE_NO":"１號","E_COORD97":175616.57000000001,"N_COORD97":2546328.0299999998,"ADDRESS":"富強路一段１９４巷２弄１號","OBJECTID":219852},"geometry":{"x":175616.57000000123,"y":2546328.0299999993}},{"attributes":{"ID":219854,"DIS_CODE":0,"TOWNNAME":"永康區","LI":"西勢里","LIN":"23鄰","STREET":"富強路","SECT":"一段","MAREA":" ","LANE":"１９４巷","ALLEY":"９４弄","HOUSE_NO":"１６號","E_COORD97":175647.48000000001,"N_COORD97":2546187.77,"ADDRESS":"富強路一段１９４巷９４弄１６號","OBJECTID":219853},"geometry":{"x":175647.48000000138,"y":2546187.7699999996}},{"attributes":{"ID":219855,"DIS_CODE":0,"TOWNNAME":"永康區","LI":"西勢里","LIN":"23鄰","STREET":"富強路","SECT":"一段","MAREA":" ","LANE":"１９４巷","ALLEY":"２弄","HOUSE_NO":"２號","E_COORD97":175613.51999999999,"N_COORD97":2546324.7799999998,"ADDRESS":"富強路一段１９４巷２弄２號","OBJECTID":219854},"geometry":{"x":175613.51999999955,"y":2546324.7800000012}},{"attributes":{"ID":219856,"DIS_CODE":0,"TOWNNAME":"永康區","LI":"西橋里","LIN":"23鄰","STREET":"大橋三街","SECT":" ","MAREA":" ","LANE":"５７巷","ALLEY":"１９弄","HOUSE_NO":"８號","E_COORD97":170470.85000000001,"N_COORD97":2546563.9500000002,"ADDRESS":"大橋三街５７巷１９弄８號","OBJECTID":219855},"geometry":{"x":170470.85000000056,"y":2546563.9500000011}},{"attributes":{"ID":219857,"DIS_CODE":0,"TOWNNAME":"永康區","LI":"西橋里","LIN":"23鄰","STREET":"大橋三街","SECT":" ","MAREA":" ","LANE":"５７巷","ALLEY":"１９弄","HOUSE_NO":"６號","E_COORD97":170477.91,"N_COORD97":2546559.4399999999,"ADDRESS":"大橋三街５７巷１９弄６號","OBJECTID":219856},"geometry":{"x":170477.91000000108,"y":2546559.4399999995}},{"attributes":{"ID":219858,"DIS_CODE":0,"TOWNNAME":"永康區","LI":"西勢里","LIN":"23鄰","STREET":"富強路","SECT":"一段","MAREA":" ","LANE":"１９４巷","ALLEY":"９４弄","HOUSE_NO":"４號","E_COORD97":175663.88,"N_COORD97":2546171.52,"ADDRESS":"富強路一段１９４巷９４弄４號","OBJECTID":219857},"geometry":{"x":175663.87999999989,"y":2546171.5199999996}},{"attributes":{"ID":219859,"DIS_CODE":0,"TOWNNAME":"永康區","LI":"西勢里","LIN":"23鄰","STREET":"富強路","SECT":"一段","MAREA":" ","LANE":"１９４巷","ALLEY":"９４弄","HOUSE_NO":"１０號","E_COORD97":175656.47,"N_COORD97":2546179.52,"ADDRESS":"富強路一段１９４巷９４弄１０號","OBJECTID":219858},"geometry":{"x":175656.46999999974,"y":2546179.5199999996}},{"attributes":{"ID":219860,"DIS_CODE":0,"TOWNNAME":"永康區","LI":"西勢里","LIN":"23鄰","STREET":"富強路","SECT":"一段","MAREA":" ","LANE":"１９４巷","ALLEY":"９４弄","HOUSE_NO":"１４號","E_COORD97":175650.84,"N_COORD97":2546185.02,"ADDRESS":"富強路一段１９４巷９４弄１４號","OBJECTID":219859},"geometry":{"x":175650.83999999985,"y":2546185.0199999996}},{"attributes":{"ID":219861,"DIS_CODE":0,"TOWNNAME":"永康區","LI":"西橋里","LIN":"23鄰","STREET":"大橋三街","SECT":" ","MAREA":" ","LANE":"５７巷","ALLEY":"１９弄","HOUSE_NO":"２８號","E_COORD97":170468.35999999999,"N_COORD97":2546533.46,"ADDRESS":"大橋三街５７巷１９弄２８號","OBJECTID":219860},"geometry":{"x":170468.36000000127,"y":2546533.4600000009}},{"attributes":{"ID":219862,"DIS_CODE":0,"TOWNNAME":"學甲區","LI":"三慶里","LIN":"16鄰","STREET":" ","SECT":" ","MAREA":"紅茄","LANE":" ","ALLEY":" ","HOUSE_NO":"２４號","E_COORD97":167581.60999999999,"N_COORD97":2575730.7000000002,"ADDRESS":"紅茄２４號","OBJECTID":219861},"geometry":{"x":167581.61000000034,"y":2575730.6999999993}},{"attributes":{"ID":219863,"DIS_CODE":0,"TOWNNAME":"永康區","LI":"西勢里","LIN":"23鄰","STREET":"富強路","SECT":"一段","MAREA":" ","LANE":"１９４巷","ALLEY":"９４弄","HOUSE_NO":"２號","E_COORD97":175666.59,"N_COORD97":2546168.77,"ADDRESS":"富強路一段１９４巷９４弄２號","OBJECTID":219862},"geometry":{"x":175666.59000000078,"y":2546168.7700000014}},{"attributes":{"ID":219864,"DIS_CODE":0,"TOWNNAME":"永康區","LI":"西橋里","LIN":"23鄰","STREET":"大橋三街","SECT":" ","MAREA":" ","LANE":"５７巷","ALLEY":"１９弄","HOUSE_NO":"２０號","E_COORD97":170463.85999999999,"N_COORD97":2546548.96,"ADDRESS":"大橋三街５７巷１９弄２０號","OBJECTID":219863},"geometry":{"x":170463.86000000034,"y":2546548.9600000028}},{"attributes":{"ID":219865,"DIS_CODE":0,"TOWNNAME":"永康區","LI":"西橋里","LIN":"23鄰","STREET":"大橋三街","SECT":" ","MAREA":" ","LANE":"５７巷","ALLEY":"１９弄","HOUSE_NO":"４２號","E_COORD97":170442.03,"N_COORD97":2546536.96,"ADDRESS":"大橋三街５７巷１９弄４２號","OBJECTID":219864},"geometry":{"x":170442.03000000026,"y":2546536.9600000009}},{"attributes":{"ID":219866,"DIS_CODE":0,"TOWNNAME":"永康區","LI":"西橋里","LIN":"23鄰","STREET":"大橋三街","SECT":" ","MAREA":" ","LANE":"５７巷","ALLEY":"１９弄","HOUSE_NO":"４６號","E_COORD97":170438.51999999999,"N_COORD97":2546539.21,"ADDRESS":"大橋三街５７巷１９弄４６號","OBJECTID":219865},"geometry":{"x":170438.52000000142,"y":2546539.209999999}},{"attributes":{"ID":219867,"DIS_CODE":0,"TOWNNAME":"永康區","LI":"西橋里","LIN":"23鄰","STREET":"大橋三街","SECT":" ","MAREA":" ","LANE":"５７巷","ALLEY":"１９弄","HOUSE_NO":"２２號","E_COORD97":170469.10999999999,"N_COORD97":2546545.71,"ADDRESS":"大橋三街５７巷１９弄２２號","OBJECTID":219866},"geometry":{"x":170469.1099999994,"y":2546545.7100000009}},{"attributes":{"ID":219868,"DIS_CODE":0,"TOWNNAME":"永康區","LI":"西橋里","LIN":"23鄰","STREET":"大橋三街","SECT":" ","MAREA":" ","LANE":"５７巷","ALLEY":"１９弄","HOUSE_NO":"３０號","E_COORD97":170466.01999999999,"N_COORD97":2546530.21,"ADDRESS":"大橋三街５７巷１９弄３０號","OBJECTID":219867},"geometry":{"x":170466.02000000048,"y":2546530.2100000028}},{"attributes":{"ID":219869,"DIS_CODE":0,"TOWNNAME":"永康區","LI":"西橋里","LIN":"23鄰","STREET":"大橋三街","SECT":" ","MAREA":" ","LANE":"５７巷","ALLEY":"１９弄","HOUSE_NO":"１２號","E_COORD97":170464.22,"N_COORD97":2546571.4500000002,"ADDRESS":"大橋三街５７巷１９弄１２號","OBJECTID":219868},"geometry":{"x":170464.21999999974,"y":2546571.4500000011}},{"attributes":{"ID":219870,"DIS_CODE":0,"TOWNNAME":"永康區","LI":"安康里","LIN":"23鄰","STREET":"中華路","SECT":" ","MAREA":" ","LANE":"７０３巷","ALLEY":"３弄","HOUSE_NO":"８號","E_COORD97":170878.32999999999,"N_COORD97":2546286.7400000002,"ADDRESS":"中華路７０３巷３弄８號","OBJECTID":219869},"geometry":{"x":170878.33000000101,"y":2546286.7400000002}},{"attributes":{"ID":219871,"DIS_CODE":0,"TOWNNAME":"東區","LI":"和平里","LIN":"15鄰","STREET":"文化一街","SECT":" ","MAREA":" ","LANE":" ","ALLEY":" ","HOUSE_NO":"１５９號","E_COORD97":171319.32000000001,"N_COORD97":2541730.2599999998,"ADDRESS":"文化一街１５９號","OBJECTID":219870},"geometry":{"x":171319.32000000123,"y":2541730.2600000035}},{"attributes":{"ID":219872,"DIS_CODE":0,"TOWNNAME":"安定區","LI":"港尾里","LIN":"4鄰","STREET":" ","SECT":" ","MAREA":"港子尾","LANE":" ","ALLEY":" ","HOUSE_NO":"１６之１６號","E_COORD97":171732.44,"N_COORD97":2556103.2999999998,"ADDRESS":"港子尾１６之１６號","OBJECTID":219871},"geometry":{"x":171732.44000000134,"y":2556103.3000000026}},{"attributes":{"ID":219873,"DIS_CODE":0,"TOWNNAME":"永康區","LI":"安康里","LIN":"23鄰","STREET":"中華路","SECT":" ","MAREA":" ","LANE":"７０３巷","ALLEY":"７１弄","HOUSE_NO":"１８號","E_COORD97":170776.17999999999,"N_COORD97":2546206.5,"ADDRESS":"中華路７０３巷７１弄１８號","OBJECTID":219872},"geometry":{"x":170776.1799999997,"y":2546206.5}},{"attributes":{"ID":219874,"DIS_CODE":0,"TOWNNAME":"永康區","LI":"安康里","LIN":"23鄰","STREET":"中華路","SECT":" ","MAREA":" ","LANE":"７０３巷","ALLEY":"３弄","HOUSE_NO":"１６號","E_COORD97":170888.01999999999,"N_COORD97":2546271.4900000002,"ADDRESS":"中華路７０３巷３弄１６號","OBJECTID":219873},"geometry":{"x":170888.02000000048,"y":2546271.4900000002}},{"attributes":{"ID":219875,"DIS_CODE":0,"TOWNNAME":"永康區","LI":"西橋里","LIN":"23鄰","STREET":"大橋三街","SECT":" ","MAREA":" ","LANE":"５７巷","ALLEY":"１９弄","HOUSE_NO":"５８號","E_COORD97":170441.64999999999,"N_COORD97":2546521.96,"ADDRESS":"大橋三街５７巷１９弄５８號","OBJECTID":219874},"geometry":{"x":170441.65000000037,"y":2546521.9600000028}},{"attributes":{"ID":219876,"DIS_CODE":0,"TOWNNAME":"永康區","LI":"安康里","LIN":"23鄰","STREET":"中華路","SECT":" ","MAREA":" ","LANE":"７０３巷","ALLEY":"３弄","HOUSE_NO":"２４號","E_COORD97":170896.72,"N_COORD97":2546256.2400000002,"ADDRESS":"中華路７０３巷３弄２４號","OBJECTID":219875},"geometry":{"x":170896.7200000016,"y":2546256.2400000002}},{"attributes":{"ID":219877,"DIS_CODE":0,"TOWNNAME":"安南區","LI":"海東里","LIN":"23鄰","STREET":"同安路","SECT":" ","MAREA":" ","LANE":"１４５巷","ALLEY":"１０弄","HOUSE_NO":"１號","E_COORD97":167029.70999999999,"N_COORD97":2549110.5699999998,"ADDRESS":"同安路１４５巷１０弄１號","OBJECTID":219876},"geometry":{"x":167029.70999999996,"y":2549110.5700000022}},{"attributes":{"ID":219878,"DIS_CODE":0,"TOWNNAME":"永康區","LI":"復國里","LIN":"28鄰","STREET":"復國一路","SECT":" ","MAREA":" ","LANE":" ","ALLEY":" ","HOUSE_NO":"１７７號","E_COORD97":172710.75,"N_COORD97":2545224.2400000002,"ADDRESS":"復國一路１７７號","OBJECTID":219877},"geometry":{"x":172710.75000000186,"y":2545224.2400000021}},{"attributes":{"ID":219879,"DIS_CODE":0,"TOWNNAME":"東區","LI":"富強里","LIN":"6鄰","STREET":"中華東路","SECT":"二段","MAREA":" ","LANE":" ","ALLEY":" ","HOUSE_NO":"６０號","E_COORD97":171369.75,"N_COORD97":2542981.3199999998,"ADDRESS":"中華東路二段６０號","OBJECTID":219878},"geometry":{"x":171369.75000000186,"y":2542981.3199999984}},{"attributes":{"ID":219880,"DIS_CODE":0,"TOWNNAME":"安南區","LI":"海東里","LIN":"23鄰","STREET":"同安路","SECT":" ","MAREA":" ","LANE":"１４５巷","ALLEY":"２０弄","HOUSE_NO":"１０號","E_COORD97":167014.39000000001,"N_COORD97":2549123.21,"ADDRESS":"同安路１４５巷２０弄１０號","OBJECTID":219879},"geometry":{"x":167014.38999999966,"y":2549123.2100000028}},{"attributes":{"ID":219881,"DIS_CODE":0,"TOWNNAME":"東區","LI":"富強里","LIN":"6鄰","STREET":"中華東路","SECT":"二段","MAREA":" ","LANE":" ","ALLEY":" ","HOUSE_NO":"７６號","E_COORD97":171368.32999999999,"N_COORD97":2542942.4900000002,"ADDRESS":"中華東路二段７６號","OBJECTID":219880},"geometry":{"x":171368.33000000101,"y":2542942.4900000002}},{"attributes":{"ID":219882,"DIS_CODE":0,"TOWNNAME":"永康區","LI":"埔園里","LIN":"28鄰","STREET":"中山路","SECT":" ","MAREA":" ","LANE":" ","ALLEY":" ","HOUSE_NO":"３４６號","E_COORD97":173656.10999999999,"N_COORD97":2548255.4700000002,"ADDRESS":"中山路３４６號","OBJECTID":219881},"geometry":{"x":173656.1100000022,"y":2548255.4700000007}},{"attributes":{"ID":219883,"DIS_CODE":0,"TOWNNAME":"安南區","LI":"海東里","LIN":"23鄰","STREET":"同安路","SECT":" ","MAREA":" ","LANE":"１４５巷","ALLEY":"２０弄","HOUSE_NO":"１１號","E_COORD97":166995.62,"N_COORD97":2549143.3399999999,"ADDRESS":"同安路１４５巷２０弄１１號","OBJECTID":219882},"geometry":{"x":166995.62000000104,"y":2549143.3399999999}},{"attributes":{"ID":219884,"DIS_CODE":0,"TOWNNAME":"安南區","LI":"海東里","LIN":"23鄰","STREET":"同安路","SECT":" ","MAREA":" ","LANE":"１４５巷","ALLEY":"２０弄","HOUSE_NO":"１２號","E_COORD97":167016.89000000001,"N_COORD97":2549127.3599999999,"ADDRESS":"同安路１４５巷２０弄１２號","OBJECTID":219883},"geometry":{"x":167016.89000000153,"y":2549127.3600000013}},{"attributes":{"ID":219885,"DIS_CODE":0,"TOWNNAME":"安南區","LI":"海東里","LIN":"23鄰","STREET":"同安路","SECT":" ","MAREA":" ","LANE":"１４５巷","ALLEY":"２０弄","HOUSE_NO":"２號","E_COORD97":167003.44,"N_COORD97":2549107.4700000002,"ADDRESS":"同安路１４５巷２０弄２號","OBJECTID":219884},"geometry":{"x":167003.44000000041,"y":2549107.4700000044}},{"attributes":{"ID":219886,"DIS_CODE":0,"TOWNNAME":"安南區","LI":"鳳凰里","LIN":"28鄰","STREET":"安中路","SECT":"一段","MAREA":" ","LANE":" ","ALLEY":" ","HOUSE_NO":"４７６號","E_COORD97":168176.60000000001,"N_COORD97":2548895.6099999999,"ADDRESS":"安中路一段４７６號","OBJECTID":219885},"geometry":{"x":168176.60000000149,"y":2548895.6100000013}},{"attributes":{"ID":219887,"DIS_CODE":0,"TOWNNAME":"安南區","LI":"鳳凰里","LIN":"28鄰","STREET":"安中路","SECT":"一段","MAREA":" ","LANE":" ","ALLEY":" ","HOUSE_NO":"４８８號","E_COORD97":168145.64000000001,"N_COORD97":2548916.2200000002,"ADDRESS":"安中路一段４８８號","OBJECTID":219886},"geometry":{"x":168145.63999999966,"y":2548916.2200000025}},{"attributes":{"ID":219888,"DIS_CODE":0,"TOWNNAME":"仁德區","LI":"後壁里","LIN":"28鄰","STREET":"德洋路","SECT":" ","MAREA":" ","LANE":" ","ALLEY":" ","HOUSE_NO":"２７之１號","E_COORD97":173147.78,"N_COORD97":2539009.79,"ADDRESS":"德洋路２７之１號","OBJECTID":219887},"geometry":{"x":173147.78000000026,"y":2539009.7899999991}},{"attributes":{"ID":219889,"DIS_CODE":0,"TOWNNAME":"東區","LI":"虎尾里","LIN":"21鄰","STREET":"東門路","SECT":"三段","MAREA":" ","LANE":"２７３巷","ALLEY":" ","HOUSE_NO":"２號","E_COORD97":171747.87,"N_COORD97":2541868.8900000001,"ADDRESS":"東門路三段２７３巷２號","OBJECTID":219888},"geometry":{"x":171747.87000000104,"y":2541868.8900000006}},{"attributes":{"ID":219890,"DIS_CODE":0,"TOWNNAME":"東區","LI":"虎尾里","LIN":"1鄰","STREET":"東門路","SECT":"三段","MAREA":" ","LANE":" ","ALLEY":" ","HOUSE_NO":"１３３號","E_COORD97":171391.22,"N_COORD97":2542102.8599999999,"ADDRESS":"東門路三段１３３號","OBJECTID":219889},"geometry":{"x":171391.21999999974,"y":2542102.8600000013}},{"attributes":{"ID":219891,"DIS_CODE":0,"TOWNNAME":"東區","LI":"龍山里","LIN":"10鄰","STREET":"東門路","SECT":"二段","MAREA":" ","LANE":" ","ALLEY":" ","HOUSE_NO":"７６號","E_COORD97":170004.19,"N_COORD97":2542934.8199999998,"ADDRESS":"東門路二段７６號","OBJECTID":219890},"geometry":{"x":170004.18999999948,"y":2542934.8200000022}},{"attributes":{"ID":219892,"DIS_CODE":0,"TOWNNAME":"仁德區","LI":"後壁里","LIN":"28鄰","STREET":"德洋路","SECT":" ","MAREA":" ","LANE":" ","ALLEY":" ","HOUSE_NO":"３７號","E_COORD97":173127.29999999999,"N_COORD97":2539018.52,"ADDRESS":"德洋路３７號","OBJECTID":219891},"geometry":{"x":173127.30000000075,"y":2539018.5199999996}},{"attributes":{"ID":219893,"DIS_CODE":0,"TOWNNAME":"東區","LI":"和平里","LIN":"15鄰","STREET":"文化一街","SECT":" ","MAREA":" ","LANE":" ","ALLEY":" ","HOUSE_NO":"１６１號","E_COORD97":171320.79000000001,"N_COORD97":2541724.6899999999,"ADDRESS":"文化一街１６１號","OBJECTID":219892},"geometry":{"x":171320.79000000097,"y":2541724.6900000013}},{"attributes":{"ID":219894,"DIS_CODE":0,"TOWNNAME":"永康區","LI":"崑山里","LIN":"28鄰","STREET":"大灣路","SECT":" ","MAREA":" ","LANE":"９４２巷","ALLEY":" ","HOUSE_NO":"２２７號","E_COORD97":173757.67999999999,"N_COORD97":2544897.5,"ADDRESS":"大灣路９４２巷２２７號","OBJECTID":219893},"geometry":{"x":173757.6799999997,"y":2544897.5}},{"attributes":{"ID":219895,"DIS_CODE":0,"TOWNNAME":"東區","LI":"和平里","LIN":"15鄰","STREET":"文化一街","SECT":" ","MAREA":" ","LANE":" ","ALLEY":" ","HOUSE_NO":"１６３號","E_COORD97":171322.92000000001,"N_COORD97":2541718.1400000001,"ADDRESS":"文化一街１６３號","OBJECTID":219894},"geometry":{"x":171322.92000000086,"y":2541718.1400000006}},{"attributes":{"ID":219896,"DIS_CODE":0,"TOWNNAME":"安定區","LI":"安加里","LIN":"4鄰","STREET":" ","SECT":" ","MAREA":"安定","LANE":" ","ALLEY":" ","HOUSE_NO":"１９３之１號","E_COORD97":171779.389004,"N_COORD97":2557707.6468099998,"ADDRESS":"安定１９３之１號","OBJECTID":219895},"geometry":{"x":171779.38900400046,"y":2557707.6468070019}},{"attributes":{"ID":219897,"DIS_CODE":0,"TOWNNAME":"安定區","LI":"蘇林里","LIN":"24鄰","STREET":" ","SECT":" ","MAREA":"蘇厝","LANE":" ","ALLEY":" ","HOUSE_NO":"２７０號","E_COORD97":173339.72,"N_COORD97":2558597.25,"ADDRESS":"蘇厝２７０號","OBJECTID":219896},"geometry":{"x":173339.72000000067,"y":2558597.25}},{"attributes":{"ID":219898,"DIS_CODE":0,"TOWNNAME":"安定區","LI":"海寮里","LIN":"14鄰","STREET":" ","SECT":" ","MAREA":"海寮","LANE":" ","ALLEY":" ","HOUSE_NO":"１３２號之８８","E_COORD97":169001.07999999999,"N_COORD97":2555379.2999999998,"ADDRESS":"海寮１３２號之８８","OBJECTID":219897},"geometry":{"x":169001.08000000194,"y":2555379.3000000007}},{"attributes":{"ID":219899,"DIS_CODE":0,"TOWNNAME":"安定區","LI":"港尾里","LIN":"8鄰","STREET":" ","SECT":" ","MAREA":"港子尾","LANE":" ","ALLEY":" ","HOUSE_NO":"４８號之５","E_COORD97":171598.78,"N_COORD97":2555860.2999999998,"ADDRESS":"港子尾４８號之５","OBJECTID":219898},"geometry":{"x":171598.78000000212,"y":2555860.3000000026}},{"attributes":{"ID":219900,"DIS_CODE":0,"TOWNNAME":"安定區","LI":"港口里","LIN":"4鄰","STREET":" ","SECT":" ","MAREA":"港口","LANE":" ","ALLEY":" ","HOUSE_NO":"２５６之３號","E_COORD97":171461.34600200001,"N_COORD97":2554788.24608,"ADDRESS":"港口２５６之３號","OBJECTID":219899},"geometry":{"x":171461.34600200038,"y":2554788.2460760027}},{"attributes":{"ID":219901,"DIS_CODE":0,"TOWNNAME":"安定區","LI":"安加里","LIN":"4鄰","STREET":" ","SECT":" ","MAREA":"安定","LANE":" ","ALLEY":" ","HOUSE_NO":"１９９號","E_COORD97":171830.037897,"N_COORD97":2557676.42142,"ADDRESS":"安定１９９號","OBJECTID":219900},"geometry":{"x":171830.03789700009,"y":2557676.421422001}},{"attributes":{"ID":219902,"DIS_CODE":0,"TOWNNAME":"安定區","LI":"新吉里","LIN":"18鄰","STREET":" ","SECT":" ","MAREA":"新吉","LANE":" ","ALLEY":" ","HOUSE_NO":"２１４號","E_COORD97":169060.70766399999,"N_COORD97":2554071.05895,"ADDRESS":"新吉２１４號","OBJECTID":219901},"geometry":{"x":169060.70766399987,"y":2554071.058952}},{"attributes":{"ID":219903,"DIS_CODE":0,"TOWNNAME":"安定區","LI":"港口里","LIN":"13鄰","STREET":" ","SECT":" ","MAREA":"港口","LANE":" ","ALLEY":" ","HOUSE_NO":"３４５之１號","E_COORD97":171188.48999999999,"N_COORD97":2554684.2999999998,"ADDRESS":"港口３４５之１號","OBJECTID":219902},"geometry":{"x":171188.49000000022,"y":2554684.3000000007}},{"attributes":{"ID":219904,"DIS_CODE":0,"TOWNNAME":"安定區","LI":"安加里","LIN":"4鄰","STREET":" ","SECT":" ","MAREA":"安定","LANE":" ","ALLEY":" ","HOUSE_NO":"１９８號","E_COORD97":171829.82000000001,"N_COORD97":2557691.3199999998,"ADDRESS":"安定１９８號","OBJECTID":219903},"geometry":{"x":171829.82000000123,"y":2557691.3200000003}},{"attributes":{"ID":219905,"DIS_CODE":0,"TOWNNAME":"安南區","LI":"海東里","LIN":"23鄰","STREET":"同安路","SECT":" ","MAREA":" ","LANE":"１４５巷","ALLEY":"２０弄","HOUSE_NO":"３號","E_COORD97":166984.81,"N_COORD97":2549128.3900000001,"ADDRESS":"同安路１４５巷２０弄３號","OBJECTID":219904},"geometry":{"x":166984.80999999959,"y":2549128.3900000043}},{"attributes":{"ID":219906,"DIS_CODE":0,"TOWNNAME":"新市區","LI":"港墘里","LIN":"28鄰","STREET":"南昌街","SECT":" ","MAREA":" ","LANE":" ","ALLEY":" ","HOUSE_NO":"７０號","E_COORD97":178024.07000000001,"N_COORD97":2553065.25,"ADDRESS":"南昌街７０號","OBJECTID":219905},"geometry":{"x":178024.0700000003,"y":2553065.2500000019}},{"attributes":{"ID":219907,"DIS_CODE":0,"TOWNNAME":"新市區","LI":"港墘里","LIN":"28鄰","STREET":"南昌街","SECT":" ","MAREA":" ","LANE":" ","ALLEY":" ","HOUSE_NO":"７９號","E_COORD97":178010.41,"N_COORD97":2553076.25,"ADDRESS":"南昌街７９號","OBJECTID":219906},"geometry":{"x":178010.41000000015,"y":2553076.2500000019}},{"attributes":{"ID":219908,"DIS_CODE":0,"TOWNNAME":"新市區","LI":"港墘里","LIN":"28鄰","STREET":"南昌街","SECT":" ","MAREA":" ","LANE":" ","ALLEY":" ","HOUSE_NO":"５９號","E_COORD97":178002.63,"N_COORD97":2553020.5,"ADDRESS":"南昌街５９號","OBJECTID":219907},"geometry":{"x":178002.63000000082,"y":2553020.5000000019}},{"attributes":{"ID":219909,"DIS_CODE":0,"TOWNNAME":"新市區","LI":"港墘里","LIN":"28鄰","STREET":"南昌街","SECT":" ","MAREA":" ","LANE":" ","ALLEY":" ","HOUSE_NO":"７４號","E_COORD97":178025.20999999999,"N_COORD97":2553073.5,"ADDRESS":"南昌街７４號","OBJECTID":219908},"geometry":{"x":178025.20999999903,"y":2553073.5000000019}},{"attributes":{"ID":219910,"DIS_CODE":0,"TOWNNAME":"新市區","LI":"港墘里","LIN":"28鄰","STREET":"南昌街","SECT":" ","MAREA":" ","LANE":" ","ALLEY":" ","HOUSE_NO":"５１號","E_COORD97":177998.63,"N_COORD97":2552991.25,"ADDRESS":"南昌街５１號","OBJECTID":219909},"geometry":{"x":177998.63000000175,"y":2552991.2500000019}},{"attributes":{"ID":219911,"DIS_CODE":0,"TOWNNAME":"安定區","LI":"港南里","LIN":"4鄰","STREET":" ","SECT":" ","MAREA":"港口","LANE":" ","ALLEY":" ","HOUSE_NO":"２７之９號","E_COORD97":171513.23999999999,"N_COORD97":2554005.2999999998,"ADDRESS":"港口２７之９號","OBJECTID":219910},"geometry":{"x":171513.24000000115,"y":2554005.3000000026}},{"attributes":{"ID":219912,"DIS_CODE":0,"TOWNNAME":"安南區","LI":"海東里","LIN":"23鄰","STREET":"同安路","SECT":" ","MAREA":" ","LANE":"１４５巷","ALLEY":"２０弄","HOUSE_NO":"５號","E_COORD97":166987.87,"N_COORD97":2549132,"ADDRESS":"同安路１４５巷２０弄５號","OBJECTID":219911},"geometry":{"x":166987.87000000011,"y":2549132}},{"attributes":{"ID":219913,"DIS_CODE":0,"TOWNNAME":"安南區","LI":"海東里","LIN":"23鄰","STREET":"同安路","SECT":" ","MAREA":" ","LANE":"１４５巷","ALLEY":"２０弄","HOUSE_NO":"６號","E_COORD97":167008.53,"N_COORD97":2549115.4700000002,"ADDRESS":"同安路１４５巷２０弄６號","OBJECTID":219912},"geometry":{"x":167008.53000000119,"y":2549115.4700000025}},{"attributes":{"ID":219914,"DIS_CODE":0,"TOWNNAME":"安定區","LI":"港尾里","LIN":"4鄰","STREET":" ","SECT":" ","MAREA":"港子尾","LANE":" ","ALLEY":" ","HOUSE_NO":"１６之１５號","E_COORD97":171804.73999999999,"N_COORD97":2556133.2999999998,"ADDRESS":"港子尾１６之１５號","OBJECTID":219913},"geometry":{"x":171804.74000000115,"y":2556133.3000000045}},{"attributes":{"ID":219915,"DIS_CODE":0,"TOWNNAME":"安南區","LI":"海東里","LIN":"23鄰","STREET":"同安路","SECT":" ","MAREA":" ","LANE":"１４５巷","ALLEY":"２０弄","HOUSE_NO":"７號","E_COORD97":166990.79000000001,"N_COORD97":2549135.6299999999,"ADDRESS":"同安路１４５巷２０弄７號","OBJECTID":219914},"geometry":{"x":166990.7900000019,"y":2549135.6300000008}},{"attributes":{"ID":219916,"DIS_CODE":0,"TOWNNAME":"安南區","LI":"海東里","LIN":"23鄰","STREET":"同安路","SECT":" ","MAREA":" ","LANE":"１４５巷","ALLEY":"２０弄","HOUSE_NO":"８號","E_COORD97":167011.07000000001,"N_COORD97":2549119.3100000001,"ADDRESS":"同安路１４５巷２０弄８號","OBJECTID":219915},"geometry":{"x":167011.0700000003,"y":2549119.3100000024}},{"attributes":{"ID":219917,"DIS_CODE":0,"TOWNNAME":"安定區","LI":"港南里","LIN":"4鄰","STREET":" ","SECT":" ","MAREA":"港口","LANE":" ","ALLEY":" ","HOUSE_NO":"２５號","E_COORD97":171565.73999999999,"N_COORD97":2554064.25,"ADDRESS":"港口２５號","OBJECTID":219916},"geometry":{"x":171565.74000000115,"y":2554064.25}},{"attributes":{"ID":219918,"DIS_CODE":0,"TOWNNAME":"安定區","LI":"南安里","LIN":"4鄰","STREET":" ","SECT":" ","MAREA":"油車","LANE":" ","ALLEY":" ","HOUSE_NO":"５１之１５號","E_COORD97":170604.19,"N_COORD97":2555583.2999999998,"ADDRESS":"油車５１之１５號","OBJECTID":219917},"geometry":{"x":170604.19000000041,"y":2555583.3000000007}},{"attributes":{"ID":219919,"DIS_CODE":0,"TOWNNAME":"安南區","LI":"海東里","LIN":"23鄰","STREET":"同安路","SECT":" ","MAREA":" ","LANE":"１４５巷","ALLEY":"２０弄","HOUSE_NO":"９號","E_COORD97":166992.82000000001,"N_COORD97":2549139.6899999999,"ADDRESS":"同安路１４５巷２０弄９號","OBJECTID":219918},"geometry":{"x":166992.82000000123,"y":2549139.6900000013}},{"attributes":{"ID":219920,"DIS_CODE":0,"TOWNNAME":"安南區","LI":"海東里","LIN":"23鄰","STREET":"同安路","SECT":" ","MAREA":" ","LANE":"１４５巷","ALLEY":"２２弄","HOUSE_NO":"１１號","E_COORD97":166978.25,"N_COORD97":2549156.9199999999,"ADDRESS":"同安路１４５巷２２弄１１號","OBJECTID":219919},"geometry":{"x":166978.25000000093,"y":2549156.9199999999}},{"attributes":{"ID":219921,"DIS_CODE":0,"TOWNNAME":"安南區","LI":"海東里","LIN":"23鄰","STREET":"同安路","SECT":" ","MAREA":" ","LANE":"１４５巷","ALLEY":"２２弄","HOUSE_NO":"１號","E_COORD97":166962.20000000001,"N_COORD97":2549139.5499999998,"ADDRESS":"同安路１４５巷２２弄１號","OBJECTID":219920},"geometry":{"x":166962.20000000019,"y":2549139.5500000007}},{"attributes":{"ID":219922,"DIS_CODE":0,"TOWNNAME":"安南區","LI":"海東里","LIN":"23鄰","STREET":"同安路","SECT":" ","MAREA":" ","LANE":"１４５巷","ALLEY":"２２弄","HOUSE_NO":"３號","E_COORD97":166965.34,"N_COORD97":2549143.3100000001,"ADDRESS":"同安路１４５巷２２弄３號","OBJECTID":219921},"geometry":{"x":166965.34000000078,"y":2549143.3100000024}},{"attributes":{"ID":219923,"DIS_CODE":0,"TOWNNAME":"安南區","LI":"海東里","LIN":"23鄰","STREET":"同安路","SECT":" ","MAREA":" ","LANE":"１４５巷","ALLEY":"２２弄","HOUSE_NO":"５號","E_COORD97":166969.29000000001,"N_COORD97":2549146.29,"ADDRESS":"同安路１４５巷２２弄５號","OBJECTID":219922},"geometry":{"x":166969.29000000097,"y":2549146.2899999991}},{"attributes":{"ID":219924,"DIS_CODE":0,"TOWNNAME":"安定區","LI":"中沙里","LIN":"4鄰","STREET":" ","SECT":" ","MAREA":"中崙","LANE":" ","ALLEY":" ","HOUSE_NO":"１６５號","E_COORD97":168986.31,"N_COORD97":2552953.25,"ADDRESS":"中崙１６５號","OBJECTID":219923},"geometry":{"x":168986.31000000052,"y":2552953.2500000019}},{"attributes":{"ID":219925,"DIS_CODE":0,"TOWNNAME":"安南區","LI":"海東里","LIN":"23鄰","STREET":"同安路","SECT":" ","MAREA":" ","LANE":"１４５巷","ALLEY":"２２弄","HOUSE_NO":"７號","E_COORD97":166972.75,"N_COORD97":2549149.6400000001,"ADDRESS":"同安路１４５巷２２弄７號","OBJECTID":219924},"geometry":{"x":166972.75000000093,"y":2549149.6400000006}},{"attributes":{"ID":219926,"DIS_CODE":0,"TOWNNAME":"南區","LI":"大忠里","LIN":"23鄰","STREET":"中華南路","SECT":"一段","MAREA":" ","LANE":"１７５巷","ALLEY":"１０弄","HOUSE_NO":"１號","E_COORD97":169091.54000000001,"N_COORD97":2541092.7599999998,"ADDRESS":"中華南路一段１７５巷１０弄１號","OBJECTID":219925},"geometry":{"x":169091.54000000097,"y":2541092.7599999979}},{"attributes":{"ID":219927,"DIS_CODE":0,"TOWNNAME":"南區","LI":"大忠里","LIN":"23鄰","STREET":"中華南路","SECT":"一段","MAREA":" ","LANE":"１７５巷","ALLEY":"１０弄","HOUSE_NO":"２號","E_COORD97":169091.54000000001,"N_COORD97":2541092.7599999998,"ADDRESS":"中華南路一段１７５巷１０弄２號","OBJECTID":219926},"geometry":{"x":169091.54000000097,"y":2541092.7599999979}},{"attributes":{"ID":219928,"DIS_CODE":0,"TOWNNAME":"南區","LI":"大忠里","LIN":"23鄰","STREET":"中華南路","SECT":"一段","MAREA":" ","LANE":"１７５巷","ALLEY":"１０弄","HOUSE_NO":"３號","E_COORD97":169126.81,"N_COORD97":2541099.5899999999,"ADDRESS":"中華南路一段１７５巷１０弄３號","OBJECTID":219927},"geometry":{"x":169126.81000000052,"y":2541099.5899999999}},{"attributes":{"ID":219929,"DIS_CODE":0,"TOWNNAME":"南區","LI":"大忠里","LIN":"23鄰","STREET":"中華南路","SECT":"一段","MAREA":" ","LANE":"１７５巷","ALLEY":"１０弄","HOUSE_NO":"５號","E_COORD97":169121.79000000001,"N_COORD97":2541097.2599999998,"ADDRESS":"中華南路一段１７５巷１０弄５號","OBJECTID":219928},"geometry":{"x":169121.7900000019,"y":2541097.2600000016}},{"attributes":{"ID":219930,"DIS_CODE":0,"TOWNNAME":"仁德區","LI":"後壁里","LIN":"28鄰","STREET":"德洋路","SECT":" ","MAREA":" ","LANE":"３９巷","ALLEY":" ","HOUSE_NO":"１０號","E_COORD97":173104.29000000001,"N_COORD97":2538997.77,"ADDRESS":"德洋路３９巷１０號","OBJECTID":219929},"geometry":{"x":173104.29000000097,"y":2538997.7700000014}},{"attributes":{"ID":219931,"DIS_CODE":0,"TOWNNAME":"安南區","LI":"州北里","LIN":"28鄰","STREET":"安和路","SECT":"五段","MAREA":" ","LANE":"２７６巷","ALLEY":" ","HOUSE_NO":"７５號","E_COORD97":169787.94,"N_COORD97":2552234.4900000002,"ADDRESS":"安和路五段２７６巷７５號","OBJECTID":219930},"geometry":{"x":169787.94000000134,"y":2552234.4900000002}},{"attributes":{"ID":219932,"DIS_CODE":0,"TOWNNAME":"新市區","LI":"新市里","LIN":"28鄰","STREET":"復興路","SECT":" ","MAREA":" ","LANE":"６２巷","ALLEY":" ","HOUSE_NO":"１２號","E_COORD97":177864.01000000001,"N_COORD97":2553473.2799999998,"ADDRESS":"復興路６２巷１２號","OBJECTID":219931},"geometry":{"x":177864.01000000071,"y":2553473.2799999993}},{"attributes":{"ID":219933,"DIS_CODE":0,"TOWNNAME":"新市區","LI":"港墘里","LIN":"28鄰","STREET":"華美街","SECT":" ","MAREA":" ","LANE":"６１巷","ALLEY":" ","HOUSE_NO":"１４號","E_COORD97":178107.14999999999,"N_COORD97":2553035.5499999998,"ADDRESS":"華美街６１巷１４號","OBJECTID":219932},"geometry":{"x":178107.15000000037,"y":2553035.5500000007}},{"attributes":{"ID":219934,"DIS_CODE":0,"TOWNNAME":"安定區","LI":"海寮里","LIN":"5鄰","STREET":" ","SECT":" ","MAREA":"海寮","LANE":" ","ALLEY":" ","HOUSE_NO":"５５號之２","E_COORD97":169467.26000000001,"N_COORD97":2555348.2999999998,"ADDRESS":"海寮５５號之２","OBJECTID":219933},"geometry":{"x":169467.25999999978,"y":2555348.3000000026}},{"attributes":{"ID":219935,"DIS_CODE":0,"TOWNNAME":"安定區","LI":"蘇林里","LIN":"24鄰","STREET":" ","SECT":" ","MAREA":"蘇厝","LANE":" ","ALLEY":" ","HOUSE_NO":"２７０之１號","E_COORD97":173336.22,"N_COORD97":2558595.2999999998,"ADDRESS":"蘇厝２７０之１號","OBJECTID":219934},"geometry":{"x":173336.2200000016,"y":2558595.3000000026}},{"attributes":{"ID":219936,"DIS_CODE":0,"TOWNNAME":"安定區","LI":"港口里","LIN":"14鄰","STREET":" ","SECT":" ","MAREA":"港口","LANE":" ","ALLEY":" ","HOUSE_NO":"３３３之１６號","E_COORD97":170057.14000000001,"N_COORD97":2554733.2999999998,"ADDRESS":"港口３３３之１６號","OBJECTID":219935},"geometry":{"x":170057.1400000006,"y":2554733.3000000045}},{"attributes":{"ID":219937,"DIS_CODE":0,"TOWNNAME":"安定區","LI":"港南里","LIN":"4鄰","STREET":" ","SECT":" ","MAREA":"港口","LANE":" ","ALLEY":" ","HOUSE_NO":"３１號之１","E_COORD97":171591.28,"N_COORD97":2554115.2999999998,"ADDRESS":"港口３１號之１","OBJECTID":219936},"geometry":{"x":171591.28000000026,"y":2554115.3000000007}},{"attributes":{"ID":219938,"DIS_CODE":0,"TOWNNAME":"南區","LI":"大忠里","LIN":"23鄰","STREET":"中華南路","SECT":"一段","MAREA":" ","LANE":"１７５巷","ALLEY":"１０弄","HOUSE_NO":"６號","E_COORD97":169118.75,"N_COORD97":2541116.4300000002,"ADDRESS":"中華南路一段１７５巷１０弄６號","OBJECTID":219937},"geometry":{"x":169118.75000000093,"y":2541116.4300000016}},{"attributes":{"ID":219939,"DIS_CODE":0,"TOWNNAME":"南區","LI":"大忠里","LIN":"23鄰","STREET":"中華南路","SECT":"一段","MAREA":" ","LANE":"１７５巷","ALLEY":"１０弄","HOUSE_NO":"７號","E_COORD97":169116.76999999999,"N_COORD97":2541094.9100000001,"ADDRESS":"中華南路一段１７５巷１０弄７號","OBJECTID":219938},"geometry":{"x":169116.77000000048,"y":2541094.9100000001}},{"attributes":{"ID":219940,"DIS_CODE":0,"TOWNNAME":"南區","LI":"大忠里","LIN":"23鄰","STREET":"中華南路","SECT":"一段","MAREA":" ","LANE":"１７５巷","ALLEY":"１０弄","HOUSE_NO":"８號","E_COORD97":169113.51999999999,"N_COORD97":2541114.71,"ADDRESS":"中華南路一段１７５巷１０弄８號","OBJECTID":219939},"geometry":{"x":169113.52000000048,"y":2541114.7100000046}},{"attributes":{"ID":219941,"DIS_CODE":0,"TOWNNAME":"南區","LI":"大忠里","LIN":"23鄰","STREET":"中華南路","SECT":"一段","MAREA":" ","LANE":"１７５巷","ALLEY":"１０弄","HOUSE_NO":"９號","E_COORD97":169111.76000000001,"N_COORD97":2541092.5600000001,"ADDRESS":"中華南路一段１７５巷１０弄９號","OBJECTID":219940},"geometry":{"x":169111.76000000071,"y":2541092.5600000024}},{"attributes":{"ID":219942,"DIS_CODE":0,"TOWNNAME":"南區","LI":"大忠里","LIN":"23鄰","STREET":"中華南路","SECT":"一段","MAREA":" ","LANE":"１７５巷","ALLEY":"１０弄","HOUSE_NO":"１０號","E_COORD97":169108.85999999999,"N_COORD97":2541111.6000000001,"ADDRESS":"中華南路一段１７５巷１０弄１０號","OBJECTID":219941},"geometry":{"x":169108.86000000034,"y":2541111.6000000015}},{"attributes":{"ID":219943,"DIS_CODE":0,"TOWNNAME":"南區","LI":"大忠里","LIN":"23鄰","STREET":"中華南路","SECT":"一段","MAREA":" ","LANE":"１７５巷","ALLEY":"１０弄","HOUSE_NO":"１１號","E_COORD97":169106.84,"N_COORD97":2541089.3500000001,"ADDRESS":"中華南路一段１７５巷１０弄１１號","OBJECTID":219942},"geometry":{"x":169106.83999999985,"y":2541089.3500000015}},{"attributes":{"ID":219944,"DIS_CODE":0,"TOWNNAME":"南區","LI":"大忠里","LIN":"23鄰","STREET":"中華南路","SECT":"一段","MAREA":" ","LANE":"１７５巷","ALLEY":"１０弄","HOUSE_NO":"１２號","E_COORD97":169103.92000000001,"N_COORD97":2541109.1899999999,"ADDRESS":"中華南路一段１７５巷１０弄１２號","OBJECTID":219943},"geometry":{"x":169103.92000000086,"y":2541109.1899999995}},{"attributes":{"ID":219945,"DIS_CODE":0,"TOWNNAME":"南區","LI":"大忠里","LIN":"23鄰","STREET":"中華南路","SECT":"一段","MAREA":" ","LANE":"１７５巷","ALLEY":"１０弄","HOUSE_NO":"１３號","E_COORD97":169101.91,"N_COORD97":2541087.7999999998,"ADDRESS":"中華南路一段１７５巷１０弄１３號","OBJECTID":219944},"geometry":{"x":169101.91000000015,"y":2541087.8000000026}},{"attributes":{"ID":219946,"DIS_CODE":0,"TOWNNAME":"南區","LI":"大忠里","LIN":"23鄰","STREET":"中華南路","SECT":"一段","MAREA":" ","LANE":"１７５巷","ALLEY":"１０弄","HOUSE_NO":"１５號","E_COORD97":169097.26999999999,"N_COORD97":2541085.4399999999,"ADDRESS":"中華南路一段１７５巷１０弄１５號","OBJECTID":219945},"geometry":{"x":169097.26999999955,"y":2541085.4400000013}},{"attributes":{"ID":219947,"DIS_CODE":0,"TOWNNAME":"南區","LI":"大忠里","LIN":"23鄰","STREET":"中華南路","SECT":"一段","MAREA":" ","LANE":"１７５巷","ALLEY":"１０弄","HOUSE_NO":"１６號","E_COORD97":169098.98000000001,"N_COORD97":2541106.77,"ADDRESS":"中華南路一段１７５巷１０弄１６號","OBJECTID":219946},"geometry":{"x":169098.98000000138,"y":2541106.7700000014}},{"attributes":{"ID":219948,"DIS_CODE":0,"TOWNNAME":"南區","LI":"大忠里","LIN":"23鄰","STREET":"中華南路","SECT":"一段","MAREA":" ","LANE":"１７５巷","ALLEY":"１０弄","HOUSE_NO":"１８號","E_COORD97":169091.85000000001,"N_COORD97":2541108.25,"ADDRESS":"中華南路一段１７５巷１０弄１８號","OBJECTID":219947},"geometry":{"x":169091.84999999963,"y":2541108.2500000019}},{"attributes":{"ID":219949,"DIS_CODE":0,"TOWNNAME":"東區","LI":"成大里","LIN":"28鄰","STREET":"勝利路","SECT":" ","MAREA":" ","LANE":" ","ALLEY":" ","HOUSE_NO":"１７５號","E_COORD97":169832.98000000001,"N_COORD97":2544040.9100000001,"ADDRESS":"勝利路１７５號","OBJECTID":219948},"geometry":{"x":169832.98000000138,"y":2544040.9100000001}},{"attributes":{"ID":219950,"DIS_CODE":0,"TOWNNAME":"佳里區","LI":"建南里","LIN":"28鄰","STREET":"四維一街","SECT":" ","MAREA":" ","LANE":" ","ALLEY":" ","HOUSE_NO":"１０１號","E_COORD97":165822.42999999999,"N_COORD97":2561170.04,"ADDRESS":"四維一街１０１號","OBJECTID":219949},"geometry":{"x":165822.4299999997,"y":2561170.0399999991}},{"attributes":{"ID":219951,"DIS_CODE":0,"TOWNNAME":"佳里區","LI":"建南里","LIN":"28鄰","STREET":"四維一街","SECT":" ","MAREA":" ","LANE":" ","ALLEY":" ","HOUSE_NO":"１０３號","E_COORD97":165822.89999999999,"N_COORD97":2561165.8500000001,"ADDRESS":"四維一街１０３號","OBJECTID":219950},"geometry":{"x":165822.9000000013,"y":2561165.8499999996}},{"attributes":{"ID":219952,"DIS_CODE":0,"TOWNNAME":"佳里區","LI":"建南里","LIN":"28鄰","STREET":"四維一街","SECT":" ","MAREA":" ","LANE":" ","ALLEY":" ","HOUSE_NO":"１０５號","E_COORD97":165823.37,"N_COORD97":2561161.6600000001,"ADDRESS":"四維一街１０５號","OBJECTID":219951},"geometry":{"x":165823.37000000011,"y":2561161.6600000039}},{"attributes":{"ID":219953,"DIS_CODE":0,"TOWNNAME":"佳里區","LI":"建南里","LIN":"28鄰","STREET":"四維一街","SECT":" ","MAREA":" ","LANE":" ","ALLEY":" ","HOUSE_NO":"１０７號","E_COORD97":165823.84,"N_COORD97":2561157.4700000002,"ADDRESS":"四維一街１０７號","OBJECTID":219952},"geometry":{"x":165823.83999999985,"y":2561157.4700000025}},{"attributes":{"ID":219954,"DIS_CODE":0,"TOWNNAME":"佳里區","LI":"建南里","LIN":"28鄰","STREET":"四維一街","SECT":" ","MAREA":" ","LANE":" ","ALLEY":" ","HOUSE_NO":"１０９號","E_COORD97":165824.29999999999,"N_COORD97":2561153.29,"ADDRESS":"四維一街１０９號","OBJECTID":219953},"geometry":{"x":165824.30000000168,"y":2561153.290000001}},{"attributes":{"ID":219955,"DIS_CODE":0,"TOWNNAME":"東區","LI":"泉南里","LIN":"4鄰","STREET":"東門路","SECT":"一段","MAREA":" ","LANE":" ","ALLEY":" ","HOUSE_NO":"１６６號","E_COORD97":169541.92999999999,"N_COORD97":2543130.9300000002,"ADDRESS":"東門路一段１６６號","OBJECTID":219954},"geometry":{"x":169541.9299999997,"y":2543130.9300000016}},{"attributes":{"ID":219956,"DIS_CODE":0,"TOWNNAME":"東區","LI":"虎尾里","LIN":"1鄰","STREET":"東門路","SECT":"三段","MAREA":" ","LANE":" ","ALLEY":" ","HOUSE_NO":"１２３號","E_COORD97":171322.12,"N_COORD97":2542163.54,"ADDRESS":"東門路三段１２３號","OBJECTID":219955},"geometry":{"x":171322.12000000104,"y":2542163.5399999991}},{"attributes":{"ID":219957,"DIS_CODE":0,"TOWNNAME":"東區","LI":"虎尾里","LIN":"1鄰","STREET":"東門路","SECT":"三段","MAREA":" ","LANE":" ","ALLEY":" ","HOUSE_NO":"２３７號之１","E_COORD97":171627.94,"N_COORD97":2541920.7599999998,"ADDRESS":"東門路三段２３７號之１","OBJECTID":219956},"geometry":{"x":171627.94000000041,"y":2541920.7600000016}},{"attributes":{"ID":219958,"DIS_CODE":0,"TOWNNAME":"東區","LI":"東門里","LIN":"4鄰","STREET":"青年路","SECT":" ","MAREA":" ","LANE":" ","ALLEY":" ","HOUSE_NO":"２５８號","E_COORD97":169262.39000000001,"N_COORD97":2543545.4500000002,"ADDRESS":"青年路２５８號","OBJECTID":219957},"geometry":{"x":169262.38999999966,"y":2543545.4499999993}},{"attributes":{"ID":219959,"DIS_CODE":0,"TOWNNAME":"東區","LI":"崇善里","LIN":"5鄰","STREET":"崇善五街","SECT":" ","MAREA":" ","LANE":" ","ALLEY":" ","HOUSE_NO":"５號","E_COORD97":171032.20999999999,"N_COORD97":2541579.02,"ADDRESS":"崇善五街５號","OBJECTID":219958},"geometry":{"x":171032.20999999996,"y":2541579.0199999977}},{"attributes":{"ID":219960,"DIS_CODE":0,"TOWNNAME":"東區","LI":"關聖里","LIN":"18鄰","STREET":"裕孝路","SECT":" ","MAREA":" ","LANE":" ","ALLEY":" ","HOUSE_NO":"１３３號","E_COORD97":172455.91,"N_COORD97":2543043.3700000001,"ADDRESS":"裕孝路１３３號","OBJECTID":219959},"geometry":{"x":172455.91000000108,"y":2543043.3700000029}},{"attributes":{"ID":219961,"DIS_CODE":0,"TOWNNAME":"東區","LI":"文聖里","LIN":"20鄰","STREET":"裕文路","SECT":" ","MAREA":" ","LANE":" ","ALLEY":" ","HOUSE_NO":"３５１號","E_COORD97":172821.67000000001,"N_COORD97":2542537.79,"ADDRESS":"裕文路３５１號","OBJECTID":219960},"geometry":{"x":172821.67000000086,"y":2542537.790000001}},{"attributes":{"ID":219962,"DIS_CODE":0,"TOWNNAME":"安定區","LI":"安加里","LIN":"4鄰","STREET":" ","SECT":" ","MAREA":"安定","LANE":" ","ALLEY":" ","HOUSE_NO":"２００之２號","E_COORD97":171774.92000000001,"N_COORD97":2557674.3199999998,"ADDRESS":"安定２００之２號","OBJECTID":219961},"geometry":{"x":171774.91999999993,"y":2557674.3200000003}},{"attributes":{"ID":219963,"DIS_CODE":0,"TOWNNAME":"安定區","LI":"中沙里","LIN":"4鄰","STREET":" ","SECT":" ","MAREA":"中崙","LANE":" ","ALLEY":" ","HOUSE_NO":"１６６之２號","E_COORD97":169258.51000000001,"N_COORD97":2553090.2999999998,"ADDRESS":"中崙１６６之２號","OBJECTID":219962},"geometry":{"x":169258.50999999978,"y":2553090.3000000026}},{"attributes":{"ID":219964,"DIS_CODE":0,"TOWNNAME":"安定區","LI":"安加里","LIN":"4鄰","STREET":" ","SECT":" ","MAREA":"安定","LANE":" ","ALLEY":" ","HOUSE_NO":"１９７之１號","E_COORD97":171795.62,"N_COORD97":2557698.3199999998,"ADDRESS":"安定１９７之１號","OBJECTID":219963},"geometry":{"x":171795.62000000011,"y":2557698.3200000003}},{"attributes":{"ID":219965,"DIS_CODE":0,"TOWNNAME":"安定區","LI":"南安里","LIN":"4鄰","STREET":" ","SECT":" ","MAREA":"油車","LANE":" ","ALLEY":" ","HOUSE_NO":"３７號","E_COORD97":170745.64000000001,"N_COORD97":2555669.25,"ADDRESS":"油車３７號","OBJECTID":219964},"geometry":{"x":170745.63999999966,"y":2555669.2500000019}},{"attributes":{"ID":219966,"DIS_CODE":0,"TOWNNAME":"安定區","LI":"蘇厝里","LIN":"18鄰","STREET":" ","SECT":" ","MAREA":"蘇厝","LANE":" ","ALLEY":" ","HOUSE_NO":"４５９號","E_COORD97":173252.62,"N_COORD97":2558894.25,"ADDRESS":"蘇厝４５９號","OBJECTID":219965},"geometry":{"x":173252.62000000104,"y":2558894.2500000019}},{"attributes":{"ID":219967,"DIS_CODE":0,"TOWNNAME":"安定區","LI":"管寮里","LIN":"13鄰","STREET":" ","SECT":" ","MAREA":"管寮","LANE":" ","ALLEY":" ","HOUSE_NO":"１２２號之１","E_COORD97":170052.53,"N_COORD97":2556333.2999999998,"ADDRESS":"管寮１２２號之１","OBJECTID":219966},"geometry":{"x":170052.52999999933,"y":2556333.2999999989}},{"attributes":{"ID":219968,"DIS_CODE":0,"TOWNNAME":"安定區","LI":"蘇林里","LIN":"24鄰","STREET":" ","SECT":" ","MAREA":"蘇厝","LANE":" ","ALLEY":" ","HOUSE_NO":"２７２之５號","E_COORD97":173391.72,"N_COORD97":2558577.2999999998,"ADDRESS":"蘇厝２７２之５號","OBJECTID":219967},"geometry":{"x":173391.71999999974,"y":2558577.3000000007}},{"attributes":{"ID":219969,"DIS_CODE":0,"TOWNNAME":"安定區","LI":"新吉里","LIN":"8鄰","STREET":" ","SECT":" ","MAREA":"新吉","LANE":" ","ALLEY":" ","HOUSE_NO":"７４號","E_COORD97":169198.57000000001,"N_COORD97":2553988.25,"ADDRESS":"新吉７４號","OBJECTID":219968},"geometry":{"x":169198.57000000123,"y":2553988.2500000019}},{"attributes":{"ID":219970,"DIS_CODE":0,"TOWNNAME":"佳里區","LI":"建南里","LIN":"28鄰","STREET":"四維一街","SECT":" ","MAREA":" ","LANE":" ","ALLEY":" ","HOUSE_NO":"９３號","E_COORD97":165820.54999999999,"N_COORD97":2561186.7799999998,"ADDRESS":"四維一街９３號","OBJECTID":219969},"geometry":{"x":165820.54999999981,"y":2561186.7799999993}},{"attributes":{"ID":219971,"DIS_CODE":0,"TOWNNAME":"佳里區","LI":"建南里","LIN":"28鄰","STREET":"四維一街","SECT":" ","MAREA":" ","LANE":" ","ALLEY":" ","HOUSE_NO":"９５號","E_COORD97":165821.01999999999,"N_COORD97":2561182.6000000001,"ADDRESS":"四維一街９５號","OBJECTID":219970},"geometry":{"x":165821.02000000048,"y":2561182.6000000015}},{"attributes":{"ID":219972,"DIS_CODE":0,"TOWNNAME":"南區","LI":"大忠里","LIN":"23鄰","STREET":"中華南路","SECT":"一段","MAREA":" ","LANE":"１７５巷","ALLEY":"１０弄","HOUSE_NO":"１９號","E_COORD97":169088.94,"N_COORD97":2541081.23,"ADDRESS":"中華南路一段１７５巷１０弄１９號","OBJECTID":219971},"geometry":{"x":169088.94000000227,"y":2541081.2300000023}},{"attributes":{"ID":219973,"DIS_CODE":0,"TOWNNAME":"永康區","LI":"建國里","LIN":"28鄰","STREET":" ","SECT":" ","MAREA":"慈光九村","LANE":" ","ALLEY":" ","HOUSE_NO":"３８號","E_COORD97":172811.48000000001,"N_COORD97":2544232.6499999999,"ADDRESS":"慈光九村３８號","OBJECTID":219972},"geometry":{"x":172811.48000000138,"y":2544232.6500000004}},{"attributes":{"ID":219974,"DIS_CODE":0,"TOWNNAME":"永康區","LI":"建國里","LIN":"28鄰","STREET":" ","SECT":" ","MAREA":"慈光九村","LANE":" ","ALLEY":" ","HOUSE_NO":"３７號","E_COORD97":172800.87,"N_COORD97":2544233.3999999999,"ADDRESS":"慈光九村３７號","OBJECTID":219973},"geometry":{"x":172800.87000000011,"y":2544233.4000000022}},{"attributes":{"ID":219975,"DIS_CODE":0,"TOWNNAME":"佳里區","LI":"建南里","LIN":"28鄰","STREET":"四維一街","SECT":" ","MAREA":" ","LANE":" ","ALLEY":" ","HOUSE_NO":"９７號","E_COORD97":165821.48999999999,"N_COORD97":2561178.4100000001,"ADDRESS":"四維一街９７號","OBJECTID":219974},"geometry":{"x":165821.49000000022,"y":2561178.410000002}},{"attributes":{"ID":219976,"DIS_CODE":0,"TOWNNAME":"永康區","LI":"建國里","LIN":"28鄰","STREET":" ","SECT":" ","MAREA":"慈光九村","LANE":" ","ALLEY":" ","HOUSE_NO":"４０號","E_COORD97":172830.12,"N_COORD97":2544230.8999999999,"ADDRESS":"慈光九村４０號","OBJECTID":219975},"geometry":{"x":172830.12000000011,"y":2544230.9000000004}},{"attributes":{"ID":219977,"DIS_CODE":0,"TOWNNAME":"佳里區","LI":"建南里","LIN":"28鄰","STREET":"四維一街","SECT":" ","MAREA":" ","LANE":" ","ALLEY":" ","HOUSE_NO":"９９號","E_COORD97":165821.95999999999,"N_COORD97":2561174.2200000002,"ADDRESS":"四維一街９９號","OBJECTID":219976},"geometry":{"x":165821.96000000089,"y":2561174.2200000007}},{"attributes":{"ID":219978,"DIS_CODE":0,"TOWNNAME":"永康區","LI":"建國里","LIN":"28鄰","STREET":" ","SECT":" ","MAREA":"慈光九村","LANE":" ","ALLEY":" ","HOUSE_NO":"３９號","E_COORD97":172819.69,"N_COORD97":2544231.8999999999,"ADDRESS":"慈光九村３９號","OBJECTID":219977},"geometry":{"x":172819.69000000041,"y":2544231.8999999985}},{"attributes":{"ID":219979,"DIS_CODE":0,"TOWNNAME":"南區","LI":"大忠里","LIN":"23鄰","STREET":"中華南路","SECT":"一段","MAREA":" ","LANE":"１７５巷","ALLEY":"１０弄","HOUSE_NO":"２０號","E_COORD97":169088.14000000001,"N_COORD97":2541105.3399999999,"ADDRESS":"中華南路一段１７５巷１０弄２０號","OBJECTID":219978},"geometry":{"x":169088.13999999966,"y":2541105.3399999999}},{"attributes":{"ID":219980,"DIS_CODE":0,"TOWNNAME":"學甲區","LI":"秀昌里","LIN":"28鄰","STREET":" ","SECT":" ","MAREA":"煥昌","LANE":" ","ALLEY":" ","HOUSE_NO":"５６號","E_COORD97":166161.26000000001,"N_COORD97":2570854.4500000002,"ADDRESS":"煥昌５６號","OBJECTID":219979},"geometry":{"x":166161.25999999978,"y":2570854.4499999993}},{"attributes":{"ID":219981,"DIS_CODE":0,"TOWNNAME":"永康區","LI":"建國里","LIN":"28鄰","STREET":" ","SECT":" ","MAREA":"慈光九村","LANE":" ","ALLEY":" ","HOUSE_NO":"３４號","E_COORD97":172773.97,"N_COORD97":2544235.3999999999,"ADDRESS":"慈光九村３４號","OBJECTID":219980},"geometry":{"x":172773.97000000067,"y":2544235.4000000041}},{"attributes":{"ID":219982,"DIS_CODE":0,"TOWNNAME":"永康區","LI":"建國里","LIN":"28鄰","STREET":" ","SECT":" ","MAREA":"慈光九村","LANE":" ","ALLEY":" ","HOUSE_NO":"４１號","E_COORD97":172837.87,"N_COORD97":2544230.1499999999,"ADDRESS":"慈光九村４１號","OBJECTID":219981},"geometry":{"x":172837.87000000104,"y":2544230.1500000004}},{"attributes":{"ID":219983,"DIS_CODE":0,"TOWNNAME":"安定區","LI":"管寮里","LIN":"4鄰","STREET":" ","SECT":" ","MAREA":"管寮","LANE":" ","ALLEY":" ","HOUSE_NO":"３２之２號","E_COORD97":170064.94,"N_COORD97":2556367.2999999998,"ADDRESS":"管寮３２之２號","OBJECTID":219982},"geometry":{"x":170064.94000000041,"y":2556367.3000000045}},{"attributes":{"ID":219984,"DIS_CODE":0,"TOWNNAME":"南區","LI":"大忠里","LIN":"23鄰","STREET":"中華南路","SECT":"一段","MAREA":" ","LANE":"１７５巷","ALLEY":"１０弄","HOUSE_NO":"２１號","E_COORD97":169084.38,"N_COORD97":2541078.9100000001,"ADDRESS":"中華南路一段１７５巷１０弄２１號","OBJECTID":219983},"geometry":{"x":169084.38000000082,"y":2541078.9100000039}},{"attributes":{"ID":219985,"DIS_CODE":0,"TOWNNAME":"南區","LI":"大忠里","LIN":"23鄰","STREET":"中華南路","SECT":"一段","MAREA":" ","LANE":"１７５巷","ALLEY":"１０弄","HOUSE_NO":"２２號","E_COORD97":169083.17000000001,"N_COORD97":2541103.7999999998,"ADDRESS":"中華南路一段１７５巷１０弄２２號","OBJECTID":219984},"geometry":{"x":169083.16999999993,"y":2541103.8000000045}},{"attributes":{"ID":219986,"DIS_CODE":0,"TOWNNAME":"安定區","LI":"海寮里","LIN":"18鄰","STREET":" ","SECT":" ","MAREA":"海寮","LANE":" ","ALLEY":" ","HOUSE_NO":"１７２號之５","E_COORD97":169281.32999999999,"N_COORD97":2555532.2999999998,"ADDRESS":"海寮１７２號之５","OBJECTID":219985},"geometry":{"x":169281.33000000101,"y":2555532.3000000007}},{"attributes":{"ID":219987,"DIS_CODE":0,"TOWNNAME":"安定區","LI":"蘇厝里","LIN":"18鄰","STREET":" ","SECT":" ","MAREA":"蘇厝","LANE":" ","ALLEY":" ","HOUSE_NO":"４５０之４號","E_COORD97":173227.62,"N_COORD97":2558760.2999999998,"ADDRESS":"蘇厝４５０之４號","OBJECTID":219986},"geometry":{"x":173227.62000000104,"y":2558760.3000000007}},{"attributes":{"ID":219988,"DIS_CODE":0,"TOWNNAME":"南區","LI":"大忠里","LIN":"23鄰","STREET":"中華南路","SECT":"一段","MAREA":" ","LANE":"１７５巷","ALLEY":"１０弄","HOUSE_NO":"２３號","E_COORD97":169079.82000000001,"N_COORD97":2541076.5899999999,"ADDRESS":"中華南路一段１７５巷１０弄２３號","OBJECTID":219987},"geometry":{"x":169079.82000000123,"y":2541076.5899999999}},{"attributes":{"ID":219989,"DIS_CODE":0,"TOWNNAME":"南區","LI":"大忠里","LIN":"23鄰","STREET":"中華南路","SECT":"一段","MAREA":" ","LANE":"１７５巷","ALLEY":"１０弄","HOUSE_NO":"２５號","E_COORD97":169075.25,"N_COORD97":2541074.2799999998,"ADDRESS":"中華南路一段１７５巷１０弄２５號","OBJECTID":219988},"geometry":{"x":169075.25000000093,"y":2541074.2799999993}},{"attributes":{"ID":219990,"DIS_CODE":0,"TOWNNAME":"南區","LI":"大忠里","LIN":"23鄰","STREET":"中華南路","SECT":"一段","MAREA":" ","LANE":"１７５巷","ALLEY":"１０弄","HOUSE_NO":"２６號","E_COORD97":169078.07000000001,"N_COORD97":2541101.48,"ADDRESS":"中華南路一段１７５巷１０弄２６號","OBJECTID":219989},"geometry":{"x":169078.07000000123,"y":2541101.4800000004}},{"attributes":{"ID":219991,"DIS_CODE":0,"TOWNNAME":"安定區","LI":"大同里","LIN":"14鄰","STREET":" ","SECT":" ","MAREA":"牛肉寮","LANE":" ","ALLEY":" ","HOUSE_NO":"７９號","E_COORD97":170915.62,"N_COORD97":2552855.25,"ADDRESS":"牛肉寮７９號","OBJECTID":219990},"geometry":{"x":170915.62000000011,"y":2552855.2500000019}},{"attributes":{"ID":219992,"DIS_CODE":0,"TOWNNAME":"安定區","LI":"管寮里","LIN":"14鄰","STREET":" ","SECT":" ","MAREA":"管寮","LANE":" ","ALLEY":" ","HOUSE_NO":"１２７之５號","E_COORD97":169994.89000000001,"N_COORD97":2556251.2999999998,"ADDRESS":"管寮１２７之５號","OBJECTID":219991},"geometry":{"x":169994.88999999966,"y":2556251.3000000007}},{"attributes":{"ID":219993,"DIS_CODE":0,"TOWNNAME":"安定區","LI":"蘇厝里","LIN":"14鄰","STREET":" ","SECT":" ","MAREA":"蘇厝","LANE":" ","ALLEY":" ","HOUSE_NO":"４２０號","E_COORD97":173092.72,"N_COORD97":2558699.25,"ADDRESS":"蘇厝４２０號","OBJECTID":219992},"geometry":{"x":173092.72000000067,"y":2558699.2499999981}},{"attributes":{"ID":219994,"DIS_CODE":0,"TOWNNAME":"安定區","LI":"六嘉里","LIN":"4鄰","STREET":" ","SECT":" ","MAREA":"六塊寮","LANE":" ","ALLEY":" ","HOUSE_NO":"３０號之２８","E_COORD97":169964.54999999999,"N_COORD97":2553473.29,"ADDRESS":"六塊寮３０號之２８","OBJECTID":219993},"geometry":{"x":169964.55000000075,"y":2553473.2899999991}},{"attributes":{"ID":219995,"DIS_CODE":0,"TOWNNAME":"安定區","LI":"保西里","LIN":"4鄰","STREET":" ","SECT":" ","MAREA":"安定","LANE":" ","ALLEY":" ","HOUSE_NO":"３５３號之２","E_COORD97":171730.48999999999,"N_COORD97":2557691.3199999998,"ADDRESS":"安定３５３號之２","OBJECTID":219994},"geometry":{"x":171730.49000000022,"y":2557691.3200000003}},{"attributes":{"ID":219996,"DIS_CODE":0,"TOWNNAME":"安定區","LI":"海寮里","LIN":"4鄰","STREET":" ","SECT":" ","MAREA":"海寮","LANE":" ","ALLEY":" ","HOUSE_NO":"４４之８號","E_COORD97":169646.29000000001,"N_COORD97":2555385.2999999998,"ADDRESS":"海寮４４之８號","OBJECTID":219995},"geometry":{"x":169646.29000000097,"y":2555385.3000000026}},{"attributes":{"ID":219997,"DIS_CODE":0,"TOWNNAME":"安定區","LI":"海寮里","LIN":"4鄰","STREET":" ","SECT":" ","MAREA":"海寮","LANE":" ","ALLEY":" ","HOUSE_NO":"４４之３號","E_COORD97":169644.89000000001,"N_COORD97":2555427.2999999998,"ADDRESS":"海寮４４之３號","OBJECTID":219996},"geometry":{"x":169644.8900000006,"y":2555427.3000000007}},{"attributes":{"ID":219998,"DIS_CODE":0,"TOWNNAME":"安定區","LI":"南安里","LIN":"4鄰","STREET":" ","SECT":" ","MAREA":"油車","LANE":" ","ALLEY":" ","HOUSE_NO":"３８之８號","E_COORD97":170703.64000000001,"N_COORD97":2555531.2999999998,"ADDRESS":"油車３８之８號","OBJECTID":219997},"geometry":{"x":170703.63999999966,"y":2555531.3000000026}},{"attributes":{"ID":219999,"DIS_CODE":0,"TOWNNAME":"永康區","LI":"東灣里","LIN":"28鄰","STREET":"民族路","SECT":" ","MAREA":" ","LANE":" ","ALLEY":" ","HOUSE_NO":"１５１號","E_COORD97":175301.79999999999,"N_COORD97":2544826.77,"ADDRESS":"民族路１５１號","OBJECTID":219998},"geometry":{"x":175301.79999999981,"y":2544826.7700000014}},{"attributes":{"ID":220000,"DIS_CODE":0,"TOWNNAME":"南區","LI":"大忠里","LIN":"23鄰","STREET":"中華南路","SECT":"一段","MAREA":" ","LANE":"１７５巷","ALLEY":"１０弄","HOUSE_NO":"２７號","E_COORD97":169070.69,"N_COORD97":2541071.96,"ADDRESS":"中華南路一段１７５巷１０弄２７號","OBJECTID":219999},"geometry":{"x":169070.69000000134,"y":2541071.9600000009}},{"attributes":{"ID":220001,"DIS_CODE":0,"TOWNNAME":"永康區","LI":"東灣里","LIN":"28鄰","STREET":"民族路","SECT":" ","MAREA":" ","LANE":" ","ALLEY":" ","HOUSE_NO":"１３９號","E_COORD97":175327.42999999999,"N_COORD97":2544796.2200000002,"ADDRESS":"民族路１３９號","OBJECTID":220000},"geometry":{"x":175327.4299999997,"y":2544796.2199999988}}]}