{"displayFieldName":"TOWNNAME","fieldAliases":{"ID":"ID","DIS_CODE":"DIS_CODE","TOWNNAME":"TOWNNAME","LI":"LI","LIN":"LIN","STREET":"STREET","SECT":"SECT","MAREA":"MAREA","LANE":"LANE","ALLEY":"ALLEY","HOUSE_NO":"HOUSE_NO","E_COORD97":"E_COORD97","N_COORD97":"N_COORD97","ADDRESS":"ADDRESS","OBJECTID":"OBJECTID"},"geometryType":"esriGeometryPoint","spatialReference":{"wkid":102443,"latestWkid":3826},"fields":[{"name":"ID","type":"esriFieldTypeDouble","alias":"ID"},{"name":"DIS_CODE","type":"esriFieldTypeInteger","alias":"DIS_CODE"},{"name":"TOWNNAME","type":"esriFieldTypeString","alias":"TOWNNAME","length":8},{"name":"LI","type":"esriFieldTypeString","alias":"LI","length":8},{"name":"LIN","type":"esriFieldTypeString","alias":"LIN","length":12},{"name":"STREET","type":"esriFieldTypeString","alias":"STREET","length":20},{"name":"SECT","type":"esriFieldTypeString","alias":"SECT","length":8},{"name":"MAREA","type":"esriFieldTypeString","alias":"MAREA","length":12},{"name":"LANE","type":"esriFieldTypeString","alias":"LANE","length":10},{"name":"ALLEY","type":"esriFieldTypeString","alias":"ALLEY","length":10},{"name":"HOUSE_NO","type":"esriFieldTypeString","alias":"HOUSE_NO","length":20},{"name":"E_COORD97","type":"esriFieldTypeDouble","alias":"E_COORD97"},{"name":"N_COORD97","type":"esriFieldTypeDouble","alias":"N_COORD97"},{"name":"ADDRESS","type":"esriFieldTypeString","alias":"ADDRESS","length":50},{"name":"OBJECTID","type":"esriFieldTypeOID","alias":"OBJECTID"}],"features":[{"attributes":{"ID":448626,"DIS_CODE":0,"TOWNNAME":"南區","LI":"開南里","LIN":"18鄰","STREET":"新建路","SECT":" ","MAREA":" ","LANE":"３７巷","ALLEY":" ","HOUSE_NO":"８號十一樓之１","E_COORD97":166603.72,"N_COORD97":2541049.9700000002,"ADDRESS":"新建路３７巷８號十一樓之１","OBJECTID":448601},"geometry":{"x":166603.71999999974,"y":2541049.9700000025}},{"attributes":{"ID":448627,"DIS_CODE":0,"TOWNNAME":"南區","LI":"開南里","LIN":"18鄰","STREET":"新建路","SECT":" ","MAREA":" ","LANE":"３７巷","ALLEY":" ","HOUSE_NO":"８號十一樓之２","E_COORD97":166603.72,"N_COORD97":2541049.9700000002,"ADDRESS":"新建路３７巷８號十一樓之２","OBJECTID":448602},"geometry":{"x":166603.71999999974,"y":2541049.9700000025}},{"attributes":{"ID":448628,"DIS_CODE":0,"TOWNNAME":"南區","LI":"開南里","LIN":"18鄰","STREET":"新建路","SECT":" ","MAREA":" ","LANE":"３７巷","ALLEY":" ","HOUSE_NO":"８號十一樓之３","E_COORD97":166603.72,"N_COORD97":2541049.9700000002,"ADDRESS":"新建路３７巷８號十一樓之３","OBJECTID":448603},"geometry":{"x":166603.71999999974,"y":2541049.9700000025}},{"attributes":{"ID":448629,"DIS_CODE":0,"TOWNNAME":"南區","LI":"開南里","LIN":"18鄰","STREET":"新建路","SECT":" ","MAREA":" ","LANE":"３７巷","ALLEY":" ","HOUSE_NO":"８號十二樓","E_COORD97":166603.72,"N_COORD97":2541049.9700000002,"ADDRESS":"新建路３７巷８號十二樓","OBJECTID":448604},"geometry":{"x":166603.71999999974,"y":2541049.9700000025}},{"attributes":{"ID":448630,"DIS_CODE":0,"TOWNNAME":"南區","LI":"開南里","LIN":"18鄰","STREET":"新建路","SECT":" ","MAREA":" ","LANE":"３７巷","ALLEY":" ","HOUSE_NO":"８號十二樓之１","E_COORD97":166603.72,"N_COORD97":2541049.9700000002,"ADDRESS":"新建路３７巷８號十二樓之１","OBJECTID":448605},"geometry":{"x":166603.71999999974,"y":2541049.9700000025}},{"attributes":{"ID":448631,"DIS_CODE":0,"TOWNNAME":"山上區","LI":"明和里","LIN":"21鄰","STREET":" ","SECT":" ","MAREA":"北勢洲","LANE":" ","ALLEY":" ","HOUSE_NO":"２２號","E_COORD97":182374.037277,"N_COORD97":2557173.05174,"ADDRESS":"北勢洲２２號","OBJECTID":448606},"geometry":{"x":182374.03727700096,"y":2557173.051744001}},{"attributes":{"ID":448632,"DIS_CODE":0,"TOWNNAME":"南區","LI":"開南里","LIN":"18鄰","STREET":"新建路","SECT":" ","MAREA":" ","LANE":"３７巷","ALLEY":" ","HOUSE_NO":"８號十二樓之２","E_COORD97":166603.72,"N_COORD97":2541049.9700000002,"ADDRESS":"新建路３７巷８號十二樓之２","OBJECTID":448607},"geometry":{"x":166603.71999999974,"y":2541049.9700000025}},{"attributes":{"ID":448633,"DIS_CODE":0,"TOWNNAME":"南區","LI":"開南里","LIN":"18鄰","STREET":"新建路","SECT":" ","MAREA":" ","LANE":"３７巷","ALLEY":" ","HOUSE_NO":"８號十二樓之３","E_COORD97":166603.72,"N_COORD97":2541049.9700000002,"ADDRESS":"新建路３７巷８號十二樓之３","OBJECTID":448608},"geometry":{"x":166603.71999999974,"y":2541049.9700000025}},{"attributes":{"ID":448634,"DIS_CODE":0,"TOWNNAME":"南區","LI":"開南里","LIN":"18鄰","STREET":"新建路","SECT":" ","MAREA":" ","LANE":"３７巷","ALLEY":" ","HOUSE_NO":"８號十樓","E_COORD97":166603.72,"N_COORD97":2541049.9700000002,"ADDRESS":"新建路３７巷８號十樓","OBJECTID":448609},"geometry":{"x":166603.71999999974,"y":2541049.9700000025}},{"attributes":{"ID":448635,"DIS_CODE":0,"TOWNNAME":"南區","LI":"開南里","LIN":"18鄰","STREET":"新建路","SECT":" ","MAREA":" ","LANE":"３７巷","ALLEY":" ","HOUSE_NO":"８號十樓之１","E_COORD97":166603.72,"N_COORD97":2541049.9700000002,"ADDRESS":"新建路３７巷８號十樓之１","OBJECTID":448610},"geometry":{"x":166603.71999999974,"y":2541049.9700000025}},{"attributes":{"ID":448636,"DIS_CODE":0,"TOWNNAME":"南區","LI":"開南里","LIN":"18鄰","STREET":"新建路","SECT":" ","MAREA":" ","LANE":"３７巷","ALLEY":" ","HOUSE_NO":"８號十樓之２","E_COORD97":166603.72,"N_COORD97":2541049.9700000002,"ADDRESS":"新建路３７巷８號十樓之２","OBJECTID":448611},"geometry":{"x":166603.71999999974,"y":2541049.9700000025}},{"attributes":{"ID":448637,"DIS_CODE":0,"TOWNNAME":"南區","LI":"開南里","LIN":"18鄰","STREET":"新建路","SECT":" ","MAREA":" ","LANE":"３７巷","ALLEY":" ","HOUSE_NO":"８號十樓之３","E_COORD97":166603.72,"N_COORD97":2541049.9700000002,"ADDRESS":"新建路３７巷８號十樓之３","OBJECTID":448612},"geometry":{"x":166603.71999999974,"y":2541049.9700000025}},{"attributes":{"ID":448638,"DIS_CODE":0,"TOWNNAME":"南區","LI":"開南里","LIN":"18鄰","STREET":"新建路","SECT":" ","MAREA":" ","LANE":"３７巷","ALLEY":" ","HOUSE_NO":"８號三樓","E_COORD97":166603.72,"N_COORD97":2541049.9700000002,"ADDRESS":"新建路３７巷８號三樓","OBJECTID":448613},"geometry":{"x":166603.71999999974,"y":2541049.9700000025}},{"attributes":{"ID":448639,"DIS_CODE":0,"TOWNNAME":"南區","LI":"開南里","LIN":"18鄰","STREET":"新建路","SECT":" ","MAREA":" ","LANE":"３７巷","ALLEY":" ","HOUSE_NO":"８號三樓之１","E_COORD97":166603.72,"N_COORD97":2541049.9700000002,"ADDRESS":"新建路３７巷８號三樓之１","OBJECTID":448614},"geometry":{"x":166603.71999999974,"y":2541049.9700000025}},{"attributes":{"ID":448640,"DIS_CODE":0,"TOWNNAME":"南區","LI":"開南里","LIN":"18鄰","STREET":"新建路","SECT":" ","MAREA":" ","LANE":"３７巷","ALLEY":" ","HOUSE_NO":"８號三樓之２","E_COORD97":166603.72,"N_COORD97":2541049.9700000002,"ADDRESS":"新建路３７巷８號三樓之２","OBJECTID":448615},"geometry":{"x":166603.71999999974,"y":2541049.9700000025}},{"attributes":{"ID":448641,"DIS_CODE":0,"TOWNNAME":"南區","LI":"開南里","LIN":"18鄰","STREET":"新建路","SECT":" ","MAREA":" ","LANE":"３７巷","ALLEY":" ","HOUSE_NO":"８號三樓之３","E_COORD97":166603.72,"N_COORD97":2541049.9700000002,"ADDRESS":"新建路３７巷８號三樓之３","OBJECTID":448616},"geometry":{"x":166603.71999999974,"y":2541049.9700000025}},{"attributes":{"ID":448642,"DIS_CODE":0,"TOWNNAME":"南區","LI":"開南里","LIN":"18鄰","STREET":"新建路","SECT":" ","MAREA":" ","LANE":"３７巷","ALLEY":" ","HOUSE_NO":"８號五樓","E_COORD97":166603.72,"N_COORD97":2541049.9700000002,"ADDRESS":"新建路３７巷８號五樓","OBJECTID":448617},"geometry":{"x":166603.71999999974,"y":2541049.9700000025}},{"attributes":{"ID":448643,"DIS_CODE":0,"TOWNNAME":"南區","LI":"開南里","LIN":"18鄰","STREET":"新建路","SECT":" ","MAREA":" ","LANE":"３７巷","ALLEY":" ","HOUSE_NO":"８號五樓之１","E_COORD97":166603.72,"N_COORD97":2541049.9700000002,"ADDRESS":"新建路３７巷８號五樓之１","OBJECTID":448618},"geometry":{"x":166603.71999999974,"y":2541049.9700000025}},{"attributes":{"ID":448644,"DIS_CODE":0,"TOWNNAME":"南區","LI":"開南里","LIN":"18鄰","STREET":"新建路","SECT":" ","MAREA":" ","LANE":"３７巷","ALLEY":" ","HOUSE_NO":"８號五樓之２","E_COORD97":166603.72,"N_COORD97":2541049.9700000002,"ADDRESS":"新建路３７巷８號五樓之２","OBJECTID":448619},"geometry":{"x":166603.71999999974,"y":2541049.9700000025}},{"attributes":{"ID":448645,"DIS_CODE":0,"TOWNNAME":"南區","LI":"開南里","LIN":"18鄰","STREET":"新建路","SECT":" ","MAREA":" ","LANE":"３７巷","ALLEY":" ","HOUSE_NO":"８號五樓之３","E_COORD97":166603.72,"N_COORD97":2541049.9700000002,"ADDRESS":"新建路３７巷８號五樓之３","OBJECTID":448620},"geometry":{"x":166603.71999999974,"y":2541049.9700000025}},{"attributes":{"ID":448646,"DIS_CODE":0,"TOWNNAME":"南區","LI":"開南里","LIN":"18鄰","STREET":"新建路","SECT":" ","MAREA":" ","LANE":"３７巷","ALLEY":" ","HOUSE_NO":"８號六樓之１","E_COORD97":166603.72,"N_COORD97":2541049.9700000002,"ADDRESS":"新建路３７巷８號六樓之１","OBJECTID":448621},"geometry":{"x":166603.71999999974,"y":2541049.9700000025}},{"attributes":{"ID":448647,"DIS_CODE":0,"TOWNNAME":"南區","LI":"開南里","LIN":"18鄰","STREET":"新建路","SECT":" ","MAREA":" ","LANE":"３７巷","ALLEY":" ","HOUSE_NO":"８號六樓之２","E_COORD97":166603.72,"N_COORD97":2541049.9700000002,"ADDRESS":"新建路３７巷８號六樓之２","OBJECTID":448622},"geometry":{"x":166603.71999999974,"y":2541049.9700000025}},{"attributes":{"ID":448648,"DIS_CODE":0,"TOWNNAME":"南區","LI":"開南里","LIN":"18鄰","STREET":"新建路","SECT":" ","MAREA":" ","LANE":"３７巷","ALLEY":" ","HOUSE_NO":"８號六樓之３","E_COORD97":166603.72,"N_COORD97":2541049.9700000002,"ADDRESS":"新建路３７巷８號六樓之３","OBJECTID":448623},"geometry":{"x":166603.71999999974,"y":2541049.9700000025}},{"attributes":{"ID":448649,"DIS_CODE":0,"TOWNNAME":"南區","LI":"開南里","LIN":"18鄰","STREET":"新建路","SECT":" ","MAREA":" ","LANE":"３７巷","ALLEY":" ","HOUSE_NO":"８號四樓","E_COORD97":166603.72,"N_COORD97":2541049.9700000002,"ADDRESS":"新建路３７巷８號四樓","OBJECTID":448624},"geometry":{"x":166603.71999999974,"y":2541049.9700000025}},{"attributes":{"ID":448650,"DIS_CODE":0,"TOWNNAME":"南區","LI":"開南里","LIN":"18鄰","STREET":"新建路","SECT":" ","MAREA":" ","LANE":"３７巷","ALLEY":" ","HOUSE_NO":"８號四樓之１","E_COORD97":166603.72,"N_COORD97":2541049.9700000002,"ADDRESS":"新建路３７巷８號四樓之１","OBJECTID":448625},"geometry":{"x":166603.71999999974,"y":2541049.9700000025}},{"attributes":{"ID":448651,"DIS_CODE":0,"TOWNNAME":"南區","LI":"開南里","LIN":"18鄰","STREET":"新建路","SECT":" ","MAREA":" ","LANE":"３７巷","ALLEY":" ","HOUSE_NO":"８號四樓之２","E_COORD97":166603.72,"N_COORD97":2541049.9700000002,"ADDRESS":"新建路３７巷８號四樓之２","OBJECTID":448626},"geometry":{"x":166603.71999999974,"y":2541049.9700000025}},{"attributes":{"ID":448652,"DIS_CODE":0,"TOWNNAME":"南區","LI":"開南里","LIN":"18鄰","STREET":"新建路","SECT":" ","MAREA":" ","LANE":"３７巷","ALLEY":" ","HOUSE_NO":"８號四樓之３","E_COORD97":166603.72,"N_COORD97":2541049.9700000002,"ADDRESS":"新建路３７巷８號四樓之３","OBJECTID":448627},"geometry":{"x":166603.71999999974,"y":2541049.9700000025}},{"attributes":{"ID":448653,"DIS_CODE":0,"TOWNNAME":"南區","LI":"明興里","LIN":"18鄰","STREET":"德興路","SECT":" ","MAREA":" ","LANE":"１６４巷","ALLEY":" ","HOUSE_NO":"６０號之１四樓","E_COORD97":167062.98000000001,"N_COORD97":2540300.8799999999,"ADDRESS":"德興路１６４巷６０號之１四樓","OBJECTID":448628},"geometry":{"x":167062.98000000231,"y":2540300.879999999}},{"attributes":{"ID":448654,"DIS_CODE":0,"TOWNNAME":"南區","LI":"明興里","LIN":"18鄰","STREET":"德興路","SECT":" ","MAREA":" ","LANE":"１６４巷","ALLEY":" ","HOUSE_NO":"６０號之１五樓","E_COORD97":167062.98000000001,"N_COORD97":2540300.8799999999,"ADDRESS":"德興路１６４巷６０號之１五樓","OBJECTID":448629},"geometry":{"x":167062.98000000231,"y":2540300.879999999}},{"attributes":{"ID":448655,"DIS_CODE":0,"TOWNNAME":"南區","LI":"明興里","LIN":"18鄰","STREET":"德興路","SECT":" ","MAREA":" ","LANE":"１６４巷","ALLEY":" ","HOUSE_NO":"６０號之１六樓","E_COORD97":167062.98000000001,"N_COORD97":2540300.8799999999,"ADDRESS":"德興路１６４巷６０號之１六樓","OBJECTID":448630},"geometry":{"x":167062.98000000231,"y":2540300.879999999}},{"attributes":{"ID":448656,"DIS_CODE":0,"TOWNNAME":"南區","LI":"明興里","LIN":"18鄰","STREET":"德興路","SECT":" ","MAREA":" ","LANE":"１６４巷","ALLEY":" ","HOUSE_NO":"６０號之２二樓","E_COORD97":167049.45000000001,"N_COORD97":2540300.21,"ADDRESS":"德興路１６４巷６０號之２二樓","OBJECTID":448631},"geometry":{"x":167049.45000000112,"y":2540300.2100000009}},{"attributes":{"ID":448657,"DIS_CODE":0,"TOWNNAME":"南區","LI":"明興里","LIN":"18鄰","STREET":"德興路","SECT":" ","MAREA":" ","LANE":"１６４巷","ALLEY":" ","HOUSE_NO":"６０號之２三樓","E_COORD97":167049.45000000001,"N_COORD97":2540300.21,"ADDRESS":"德興路１６４巷６０號之２三樓","OBJECTID":448632},"geometry":{"x":167049.45000000112,"y":2540300.2100000009}},{"attributes":{"ID":448658,"DIS_CODE":0,"TOWNNAME":"南區","LI":"明興里","LIN":"18鄰","STREET":"德興路","SECT":" ","MAREA":" ","LANE":"１６４巷","ALLEY":" ","HOUSE_NO":"６０號之２四樓","E_COORD97":167049.45000000001,"N_COORD97":2540300.21,"ADDRESS":"德興路１６４巷６０號之２四樓","OBJECTID":448633},"geometry":{"x":167049.45000000112,"y":2540300.2100000009}},{"attributes":{"ID":448659,"DIS_CODE":0,"TOWNNAME":"南區","LI":"明興里","LIN":"18鄰","STREET":"德興路","SECT":" ","MAREA":" ","LANE":"１６４巷","ALLEY":" ","HOUSE_NO":"６０號之２五樓","E_COORD97":167049.45000000001,"N_COORD97":2540300.21,"ADDRESS":"德興路１６４巷６０號之２五樓","OBJECTID":448634},"geometry":{"x":167049.45000000112,"y":2540300.2100000009}},{"attributes":{"ID":448660,"DIS_CODE":0,"TOWNNAME":"南區","LI":"明興里","LIN":"18鄰","STREET":"德興路","SECT":" ","MAREA":" ","LANE":"１６４巷","ALLEY":" ","HOUSE_NO":"６０號之２六樓","E_COORD97":167049.45000000001,"N_COORD97":2540300.21,"ADDRESS":"德興路１６４巷６０號之２六樓","OBJECTID":448635},"geometry":{"x":167049.45000000112,"y":2540300.2100000009}},{"attributes":{"ID":448661,"DIS_CODE":0,"TOWNNAME":"南區","LI":"明興里","LIN":"18鄰","STREET":"德興路","SECT":" ","MAREA":" ","LANE":"１６４巷","ALLEY":" ","HOUSE_NO":"６０號之３二樓","E_COORD97":167050.23000000001,"N_COORD97":2540293.6800000002,"ADDRESS":"德興路１６４巷６０號之３二樓","OBJECTID":448636},"geometry":{"x":167050.23000000045,"y":2540293.6800000016}},{"attributes":{"ID":448662,"DIS_CODE":0,"TOWNNAME":"南區","LI":"明興里","LIN":"18鄰","STREET":"德興路","SECT":" ","MAREA":" ","LANE":"１６４巷","ALLEY":" ","HOUSE_NO":"６０號之３三樓","E_COORD97":167050.23000000001,"N_COORD97":2540293.6800000002,"ADDRESS":"德興路１６４巷６０號之３三樓","OBJECTID":448637},"geometry":{"x":167050.23000000045,"y":2540293.6800000016}},{"attributes":{"ID":448663,"DIS_CODE":0,"TOWNNAME":"南區","LI":"明興里","LIN":"18鄰","STREET":"德興路","SECT":" ","MAREA":" ","LANE":"１６４巷","ALLEY":" ","HOUSE_NO":"６０號之３四樓","E_COORD97":167050.23000000001,"N_COORD97":2540293.6800000002,"ADDRESS":"德興路１６４巷６０號之３四樓","OBJECTID":448638},"geometry":{"x":167050.23000000045,"y":2540293.6800000016}},{"attributes":{"ID":448664,"DIS_CODE":0,"TOWNNAME":"南區","LI":"明興里","LIN":"18鄰","STREET":"德興路","SECT":" ","MAREA":" ","LANE":"１６４巷","ALLEY":" ","HOUSE_NO":"６０號之３五樓","E_COORD97":167050.23000000001,"N_COORD97":2540293.6800000002,"ADDRESS":"德興路１６４巷６０號之３五樓","OBJECTID":448639},"geometry":{"x":167050.23000000045,"y":2540293.6800000016}},{"attributes":{"ID":448665,"DIS_CODE":0,"TOWNNAME":"南區","LI":"明興里","LIN":"18鄰","STREET":"德興路","SECT":" ","MAREA":" ","LANE":"１６４巷","ALLEY":" ","HOUSE_NO":"６０號之３六樓","E_COORD97":167050.23000000001,"N_COORD97":2540293.6800000002,"ADDRESS":"德興路１６４巷６０號之３六樓","OBJECTID":448640},"geometry":{"x":167050.23000000045,"y":2540293.6800000016}},{"attributes":{"ID":448666,"DIS_CODE":0,"TOWNNAME":"東區","LI":"東安里","LIN":"18鄰","STREET":"衛國街","SECT":" ","MAREA":" ","LANE":"２５巷","ALLEY":" ","HOUSE_NO":"２號之１二樓","E_COORD97":170235.89000000001,"N_COORD97":2543031.6099999999,"ADDRESS":"衛國街２５巷２號之１二樓","OBJECTID":448641},"geometry":{"x":170235.88999999966,"y":2543031.6099999994}},{"attributes":{"ID":448667,"DIS_CODE":0,"TOWNNAME":"東區","LI":"東安里","LIN":"18鄰","STREET":"衛國街","SECT":" ","MAREA":" ","LANE":"２５巷","ALLEY":" ","HOUSE_NO":"２號之１三樓","E_COORD97":170235.89000000001,"N_COORD97":2543031.6099999999,"ADDRESS":"衛國街２５巷２號之１三樓","OBJECTID":448642},"geometry":{"x":170235.88999999966,"y":2543031.6099999994}},{"attributes":{"ID":448668,"DIS_CODE":0,"TOWNNAME":"東區","LI":"東安里","LIN":"18鄰","STREET":"衛國街","SECT":" ","MAREA":" ","LANE":"２５巷","ALLEY":" ","HOUSE_NO":"２號之１四樓","E_COORD97":170235.89000000001,"N_COORD97":2543031.6099999999,"ADDRESS":"衛國街２５巷２號之１四樓","OBJECTID":448643},"geometry":{"x":170235.88999999966,"y":2543031.6099999994}},{"attributes":{"ID":448669,"DIS_CODE":0,"TOWNNAME":"中西區","LI":"永華里","LIN":"18鄰","STREET":"中正路","SECT":" ","MAREA":" ","LANE":"２１巷","ALLEY":" ","HOUSE_NO":"３１號一樓之１","E_COORD97":168303.95000000001,"N_COORD97":2543518.2000000002,"ADDRESS":"中正路２１巷３１號一樓之１","OBJECTID":448644},"geometry":{"x":168303.95000000112,"y":2543518.2000000011}},{"attributes":{"ID":448670,"DIS_CODE":0,"TOWNNAME":"中西區","LI":"永華里","LIN":"18鄰","STREET":"中正路","SECT":" ","MAREA":" ","LANE":"２１巷","ALLEY":" ","HOUSE_NO":"３１號一樓之２","E_COORD97":168302.51999999999,"N_COORD97":2543513.6800000002,"ADDRESS":"中正路２１巷３１號一樓之２","OBJECTID":448645},"geometry":{"x":168302.52000000142,"y":2543513.6799999997}},{"attributes":{"ID":448671,"DIS_CODE":0,"TOWNNAME":"中西區","LI":"永華里","LIN":"18鄰","STREET":"中正路","SECT":" ","MAREA":" ","LANE":"２１巷","ALLEY":" ","HOUSE_NO":"３１號七樓之１","E_COORD97":168303.95000000001,"N_COORD97":2543518.2000000002,"ADDRESS":"中正路２１巷３１號七樓之１","OBJECTID":448646},"geometry":{"x":168303.95000000112,"y":2543518.2000000011}},{"attributes":{"ID":448672,"DIS_CODE":0,"TOWNNAME":"中西區","LI":"永華里","LIN":"18鄰","STREET":"中正路","SECT":" ","MAREA":" ","LANE":"２１巷","ALLEY":" ","HOUSE_NO":"３１號七樓之２","E_COORD97":168303.95000000001,"N_COORD97":2543518.2000000002,"ADDRESS":"中正路２１巷３１號七樓之２","OBJECTID":448647},"geometry":{"x":168303.95000000112,"y":2543518.2000000011}},{"attributes":{"ID":448673,"DIS_CODE":0,"TOWNNAME":"中西區","LI":"永華里","LIN":"18鄰","STREET":"中正路","SECT":" ","MAREA":" ","LANE":"２１巷","ALLEY":" ","HOUSE_NO":"３１號二樓之１","E_COORD97":168303.95000000001,"N_COORD97":2543518.2000000002,"ADDRESS":"中正路２１巷３１號二樓之１","OBJECTID":448648},"geometry":{"x":168303.95000000112,"y":2543518.2000000011}},{"attributes":{"ID":448674,"DIS_CODE":0,"TOWNNAME":"中西區","LI":"永華里","LIN":"18鄰","STREET":"中正路","SECT":" ","MAREA":" ","LANE":"２１巷","ALLEY":" ","HOUSE_NO":"３１號三樓之１","E_COORD97":168303.95000000001,"N_COORD97":2543518.2000000002,"ADDRESS":"中正路２１巷３１號三樓之１","OBJECTID":448649},"geometry":{"x":168303.95000000112,"y":2543518.2000000011}},{"attributes":{"ID":448675,"DIS_CODE":0,"TOWNNAME":"中西區","LI":"永華里","LIN":"18鄰","STREET":"中正路","SECT":" ","MAREA":" ","LANE":"２１巷","ALLEY":" ","HOUSE_NO":"３１號五樓","E_COORD97":168303.95000000001,"N_COORD97":2543518.2000000002,"ADDRESS":"中正路２１巷３１號五樓","OBJECTID":448650},"geometry":{"x":168303.95000000112,"y":2543518.2000000011}},{"attributes":{"ID":448676,"DIS_CODE":0,"TOWNNAME":"中西區","LI":"永華里","LIN":"18鄰","STREET":"中正路","SECT":" ","MAREA":" ","LANE":"２１巷","ALLEY":" ","HOUSE_NO":"３１號六樓之１","E_COORD97":168303.95000000001,"N_COORD97":2543518.2000000002,"ADDRESS":"中正路２１巷３１號六樓之１","OBJECTID":448651},"geometry":{"x":168303.95000000112,"y":2543518.2000000011}},{"attributes":{"ID":448677,"DIS_CODE":0,"TOWNNAME":"中西區","LI":"永華里","LIN":"18鄰","STREET":"中正路","SECT":" ","MAREA":" ","LANE":"２１巷","ALLEY":" ","HOUSE_NO":"３１號六樓之２","E_COORD97":168303.95000000001,"N_COORD97":2543518.2000000002,"ADDRESS":"中正路２１巷３１號六樓之２","OBJECTID":448652},"geometry":{"x":168303.95000000112,"y":2543518.2000000011}},{"attributes":{"ID":448678,"DIS_CODE":0,"TOWNNAME":"中西區","LI":"永華里","LIN":"18鄰","STREET":"中正路","SECT":" ","MAREA":" ","LANE":"２１巷","ALLEY":" ","HOUSE_NO":"３１號四樓之１","E_COORD97":168303.95000000001,"N_COORD97":2543518.2000000002,"ADDRESS":"中正路２１巷３１號四樓之１","OBJECTID":448653},"geometry":{"x":168303.95000000112,"y":2543518.2000000011}},{"attributes":{"ID":448679,"DIS_CODE":0,"TOWNNAME":"中西區","LI":"永華里","LIN":"18鄰","STREET":"中正路","SECT":" ","MAREA":" ","LANE":"２１巷","ALLEY":" ","HOUSE_NO":"３１號四樓之２","E_COORD97":168303.95000000001,"N_COORD97":2543518.2000000002,"ADDRESS":"中正路２１巷３１號四樓之２","OBJECTID":448654},"geometry":{"x":168303.95000000112,"y":2543518.2000000011}},{"attributes":{"ID":448680,"DIS_CODE":0,"TOWNNAME":"中西區","LI":"法華里","LIN":"18鄰","STREET":"健康路","SECT":"一段","MAREA":" ","LANE":"１４０巷","ALLEY":" ","HOUSE_NO":"３０號一樓","E_COORD97":168824.67000000001,"N_COORD97":2542516.73,"ADDRESS":"健康路一段１４０巷３０號一樓","OBJECTID":448655},"geometry":{"x":168824.67000000086,"y":2542516.7300000004}},{"attributes":{"ID":448681,"DIS_CODE":0,"TOWNNAME":"中西區","LI":"法華里","LIN":"18鄰","STREET":"健康路","SECT":"一段","MAREA":" ","LANE":"１４０巷","ALLEY":" ","HOUSE_NO":"３０號二樓","E_COORD97":168824.67000000001,"N_COORD97":2542516.73,"ADDRESS":"健康路一段１４０巷３０號二樓","OBJECTID":448656},"geometry":{"x":168824.67000000086,"y":2542516.7300000004}},{"attributes":{"ID":448682,"DIS_CODE":0,"TOWNNAME":"中西區","LI":"法華里","LIN":"18鄰","STREET":"健康路","SECT":"一段","MAREA":" ","LANE":"１４０巷","ALLEY":" ","HOUSE_NO":"３０號三樓","E_COORD97":168824.67000000001,"N_COORD97":2542516.73,"ADDRESS":"健康路一段１４０巷３０號三樓","OBJECTID":448657},"geometry":{"x":168824.67000000086,"y":2542516.7300000004}},{"attributes":{"ID":448683,"DIS_CODE":0,"TOWNNAME":"中西區","LI":"法華里","LIN":"18鄰","STREET":"健康路","SECT":"一段","MAREA":" ","LANE":"１４０巷","ALLEY":" ","HOUSE_NO":"３０號五樓","E_COORD97":168824.67000000001,"N_COORD97":2542516.73,"ADDRESS":"健康路一段１４０巷３０號五樓","OBJECTID":448658},"geometry":{"x":168824.67000000086,"y":2542516.7300000004}},{"attributes":{"ID":448684,"DIS_CODE":0,"TOWNNAME":"中西區","LI":"法華里","LIN":"18鄰","STREET":"健康路","SECT":"一段","MAREA":" ","LANE":"１４０巷","ALLEY":" ","HOUSE_NO":"３０號四樓","E_COORD97":168824.67000000001,"N_COORD97":2542516.73,"ADDRESS":"健康路一段１４０巷３０號四樓","OBJECTID":448659},"geometry":{"x":168824.67000000086,"y":2542516.7300000004}},{"attributes":{"ID":448685,"DIS_CODE":0,"TOWNNAME":"中西區","LI":"法華里","LIN":"18鄰","STREET":"健康路","SECT":"一段","MAREA":" ","LANE":"１４０巷","ALLEY":" ","HOUSE_NO":"３２號一樓","E_COORD97":168825.51999999999,"N_COORD97":2542525.71,"ADDRESS":"健康路一段１４０巷３２號一樓","OBJECTID":448660},"geometry":{"x":168825.51999999955,"y":2542525.7100000028}},{"attributes":{"ID":448686,"DIS_CODE":0,"TOWNNAME":"中西區","LI":"法華里","LIN":"18鄰","STREET":"健康路","SECT":"一段","MAREA":" ","LANE":"１４０巷","ALLEY":" ","HOUSE_NO":"３２號二樓","E_COORD97":168825.51999999999,"N_COORD97":2542525.71,"ADDRESS":"健康路一段１４０巷３２號二樓","OBJECTID":448661},"geometry":{"x":168825.51999999955,"y":2542525.7100000028}},{"attributes":{"ID":448687,"DIS_CODE":0,"TOWNNAME":"中西區","LI":"法華里","LIN":"18鄰","STREET":"健康路","SECT":"一段","MAREA":" ","LANE":"１４０巷","ALLEY":" ","HOUSE_NO":"３２號三樓","E_COORD97":168825.51999999999,"N_COORD97":2542525.71,"ADDRESS":"健康路一段１４０巷３２號三樓","OBJECTID":448662},"geometry":{"x":168825.51999999955,"y":2542525.7100000028}},{"attributes":{"ID":448688,"DIS_CODE":0,"TOWNNAME":"中西區","LI":"法華里","LIN":"18鄰","STREET":"健康路","SECT":"一段","MAREA":" ","LANE":"１４０巷","ALLEY":" ","HOUSE_NO":"３２號五樓","E_COORD97":168825.51999999999,"N_COORD97":2542525.71,"ADDRESS":"健康路一段１４０巷３２號五樓","OBJECTID":448663},"geometry":{"x":168825.51999999955,"y":2542525.7100000028}},{"attributes":{"ID":448689,"DIS_CODE":0,"TOWNNAME":"中西區","LI":"法華里","LIN":"18鄰","STREET":"健康路","SECT":"一段","MAREA":" ","LANE":"１４０巷","ALLEY":" ","HOUSE_NO":"３２號四樓","E_COORD97":168825.51999999999,"N_COORD97":2542525.71,"ADDRESS":"健康路一段１４０巷３２號四樓","OBJECTID":448664},"geometry":{"x":168825.51999999955,"y":2542525.7100000028}},{"attributes":{"ID":448690,"DIS_CODE":0,"TOWNNAME":"中西區","LI":"法華里","LIN":"18鄰","STREET":"健康路","SECT":"一段","MAREA":" ","LANE":"１４０巷","ALLEY":" ","HOUSE_NO":"３４號一樓","E_COORD97":168823.54999999999,"N_COORD97":2542538.3500000001,"ADDRESS":"健康路一段１４０巷３４號一樓","OBJECTID":448665},"geometry":{"x":168823.55000000075,"y":2542538.3499999996}},{"attributes":{"ID":448691,"DIS_CODE":0,"TOWNNAME":"中西區","LI":"法華里","LIN":"18鄰","STREET":"健康路","SECT":"一段","MAREA":" ","LANE":"１４０巷","ALLEY":" ","HOUSE_NO":"３４號二樓","E_COORD97":168823.54999999999,"N_COORD97":2542538.3500000001,"ADDRESS":"健康路一段１４０巷３４號二樓","OBJECTID":448666},"geometry":{"x":168823.55000000075,"y":2542538.3499999996}},{"attributes":{"ID":448692,"DIS_CODE":0,"TOWNNAME":"中西區","LI":"法華里","LIN":"18鄰","STREET":"健康路","SECT":"一段","MAREA":" ","LANE":"１４０巷","ALLEY":" ","HOUSE_NO":"３４號三樓","E_COORD97":168823.54999999999,"N_COORD97":2542538.3500000001,"ADDRESS":"健康路一段１４０巷３４號三樓","OBJECTID":448667},"geometry":{"x":168823.55000000075,"y":2542538.3499999996}},{"attributes":{"ID":448693,"DIS_CODE":0,"TOWNNAME":"中西區","LI":"法華里","LIN":"18鄰","STREET":"健康路","SECT":"一段","MAREA":" ","LANE":"１４０巷","ALLEY":" ","HOUSE_NO":"３４號五樓","E_COORD97":168823.54999999999,"N_COORD97":2542538.3500000001,"ADDRESS":"健康路一段１４０巷３４號五樓","OBJECTID":448668},"geometry":{"x":168823.55000000075,"y":2542538.3499999996}},{"attributes":{"ID":448694,"DIS_CODE":0,"TOWNNAME":"中西區","LI":"法華里","LIN":"18鄰","STREET":"健康路","SECT":"一段","MAREA":" ","LANE":"１４０巷","ALLEY":" ","HOUSE_NO":"３４號四樓","E_COORD97":168823.54999999999,"N_COORD97":2542538.3500000001,"ADDRESS":"健康路一段１４０巷３４號四樓","OBJECTID":448669},"geometry":{"x":168823.55000000075,"y":2542538.3499999996}},{"attributes":{"ID":448695,"DIS_CODE":0,"TOWNNAME":"中西區","LI":"法華里","LIN":"18鄰","STREET":"健康路","SECT":"一段","MAREA":" ","LANE":"１４０巷","ALLEY":" ","HOUSE_NO":"３６號一樓","E_COORD97":168817.07999999999,"N_COORD97":2542536.9500000002,"ADDRESS":"健康路一段１４０巷３６號一樓","OBJECTID":448670},"geometry":{"x":168817.08000000101,"y":2542536.9500000011}},{"attributes":{"ID":448696,"DIS_CODE":0,"TOWNNAME":"中西區","LI":"法華里","LIN":"18鄰","STREET":"健康路","SECT":"一段","MAREA":" ","LANE":"１４０巷","ALLEY":" ","HOUSE_NO":"３６號二樓","E_COORD97":168817.07999999999,"N_COORD97":2542536.9500000002,"ADDRESS":"健康路一段１４０巷３６號二樓","OBJECTID":448671},"geometry":{"x":168817.08000000101,"y":2542536.9500000011}},{"attributes":{"ID":448697,"DIS_CODE":0,"TOWNNAME":"中西區","LI":"法華里","LIN":"18鄰","STREET":"健康路","SECT":"一段","MAREA":" ","LANE":"１４０巷","ALLEY":" ","HOUSE_NO":"３６號三樓","E_COORD97":168817.07999999999,"N_COORD97":2542536.9500000002,"ADDRESS":"健康路一段１４０巷３６號三樓","OBJECTID":448672},"geometry":{"x":168817.08000000101,"y":2542536.9500000011}},{"attributes":{"ID":448698,"DIS_CODE":0,"TOWNNAME":"中西區","LI":"法華里","LIN":"18鄰","STREET":"健康路","SECT":"一段","MAREA":" ","LANE":"１４０巷","ALLEY":" ","HOUSE_NO":"３６號五樓","E_COORD97":168817.07999999999,"N_COORD97":2542536.9500000002,"ADDRESS":"健康路一段１４０巷３６號五樓","OBJECTID":448673},"geometry":{"x":168817.08000000101,"y":2542536.9500000011}},{"attributes":{"ID":448699,"DIS_CODE":0,"TOWNNAME":"中西區","LI":"法華里","LIN":"18鄰","STREET":"健康路","SECT":"一段","MAREA":" ","LANE":"１４０巷","ALLEY":" ","HOUSE_NO":"３６號四樓","E_COORD97":168817.07999999999,"N_COORD97":2542536.9500000002,"ADDRESS":"健康路一段１４０巷３６號四樓","OBJECTID":448674},"geometry":{"x":168817.08000000101,"y":2542536.9500000011}},{"attributes":{"ID":448700,"DIS_CODE":0,"TOWNNAME":"安南區","LI":"溪北里","LIN":"18鄰","STREET":"惠安街","SECT":" ","MAREA":" ","LANE":"２４巷","ALLEY":" ","HOUSE_NO":"１８號七樓","E_COORD97":169130.10000000001,"N_COORD97":2547512.7999999998,"ADDRESS":"惠安街２４巷１８號七樓","OBJECTID":448675},"geometry":{"x":169130.10000000056,"y":2547512.8000000026}},{"attributes":{"ID":448701,"DIS_CODE":0,"TOWNNAME":"安南區","LI":"溪北里","LIN":"18鄰","STREET":"惠安街","SECT":" ","MAREA":" ","LANE":"２４巷","ALLEY":" ","HOUSE_NO":"１８號一樓","E_COORD97":169130.10000000001,"N_COORD97":2547512.7999999998,"ADDRESS":"惠安街２４巷１８號一樓","OBJECTID":448676},"geometry":{"x":169130.10000000056,"y":2547512.8000000026}},{"attributes":{"ID":448702,"DIS_CODE":0,"TOWNNAME":"永康區","LI":"三合里","LIN":"18鄰","STREET":"南工街","SECT":" ","MAREA":" ","LANE":"２６７巷","ALLEY":" ","HOUSE_NO":"１５號二樓之２","E_COORD97":171894.22,"N_COORD97":2545911.0499999998,"ADDRESS":"南工街２６７巷１５號二樓之２","OBJECTID":448677},"geometry":{"x":171894.22000000067,"y":2545911.0500000026}},{"attributes":{"ID":448703,"DIS_CODE":0,"TOWNNAME":"永康區","LI":"三合里","LIN":"18鄰","STREET":"南工街","SECT":" ","MAREA":" ","LANE":"２６７巷","ALLEY":" ","HOUSE_NO":"１５號三樓之２","E_COORD97":171894.22,"N_COORD97":2545911.0499999998,"ADDRESS":"南工街２６７巷１５號三樓之２","OBJECTID":448678},"geometry":{"x":171894.22000000067,"y":2545911.0500000026}},{"attributes":{"ID":448704,"DIS_CODE":0,"TOWNNAME":"東區","LI":"東明里","LIN":"18鄰","STREET":"東安路","SECT":" ","MAREA":" ","LANE":"４８巷","ALLEY":" ","HOUSE_NO":"５３號三樓之２","E_COORD97":170812.89000000001,"N_COORD97":2543625.6099999999,"ADDRESS":"東安路４８巷５３號三樓之２","OBJECTID":448679},"geometry":{"x":170812.8900000006,"y":2543625.6099999994}},{"attributes":{"ID":448705,"DIS_CODE":0,"TOWNNAME":"東區","LI":"東明里","LIN":"18鄰","STREET":"東安路","SECT":" ","MAREA":" ","LANE":"４８巷","ALLEY":" ","HOUSE_NO":"５３號三樓之３","E_COORD97":170812.89000000001,"N_COORD97":2543625.6099999999,"ADDRESS":"東安路４８巷５３號三樓之３","OBJECTID":448680},"geometry":{"x":170812.8900000006,"y":2543625.6099999994}},{"attributes":{"ID":448706,"DIS_CODE":0,"TOWNNAME":"東區","LI":"東明里","LIN":"18鄰","STREET":"東安路","SECT":" ","MAREA":" ","LANE":"４８巷","ALLEY":" ","HOUSE_NO":"５３號三樓之５","E_COORD97":170812.89000000001,"N_COORD97":2543625.6099999999,"ADDRESS":"東安路４８巷５３號三樓之５","OBJECTID":448681},"geometry":{"x":170812.8900000006,"y":2543625.6099999994}},{"attributes":{"ID":448707,"DIS_CODE":0,"TOWNNAME":"東區","LI":"東明里","LIN":"18鄰","STREET":"東安路","SECT":" ","MAREA":" ","LANE":"４８巷","ALLEY":" ","HOUSE_NO":"５３號三樓之７","E_COORD97":170812.89000000001,"N_COORD97":2543625.6099999999,"ADDRESS":"東安路４８巷５３號三樓之７","OBJECTID":448682},"geometry":{"x":170812.8900000006,"y":2543625.6099999994}},{"attributes":{"ID":448708,"DIS_CODE":0,"TOWNNAME":"仁德區","LI":"太子里","LIN":"14鄰","STREET":"長興路","SECT":" ","MAREA":" ","LANE":"８７巷","ALLEY":"２１弄","HOUSE_NO":"２之７號","E_COORD97":174075.41106899999,"N_COORD97":2543782.8338700002,"ADDRESS":"長興路８７巷２１弄２之７號","OBJECTID":448683},"geometry":{"x":174075.41106900107,"y":2543782.8338710014}},{"attributes":{"ID":448709,"DIS_CODE":0,"TOWNNAME":"東區","LI":"東明里","LIN":"18鄰","STREET":"東安路","SECT":" ","MAREA":" ","LANE":"４８巷","ALLEY":" ","HOUSE_NO":"５３號三樓之８","E_COORD97":170812.89000000001,"N_COORD97":2543625.6099999999,"ADDRESS":"東安路４８巷５３號三樓之８","OBJECTID":448684},"geometry":{"x":170812.8900000006,"y":2543625.6099999994}},{"attributes":{"ID":448710,"DIS_CODE":0,"TOWNNAME":"東區","LI":"東明里","LIN":"18鄰","STREET":"東安路","SECT":" ","MAREA":" ","LANE":"４８巷","ALLEY":" ","HOUSE_NO":"５３號三樓之４","E_COORD97":170812.89000000001,"N_COORD97":2543625.6099999999,"ADDRESS":"東安路４８巷５３號三樓之４","OBJECTID":448685},"geometry":{"x":170812.8900000006,"y":2543625.6099999994}},{"attributes":{"ID":448711,"DIS_CODE":0,"TOWNNAME":"東區","LI":"東明里","LIN":"18鄰","STREET":"東安路","SECT":" ","MAREA":" ","LANE":"４８巷","ALLEY":" ","HOUSE_NO":"５３號三樓之６","E_COORD97":170812.89000000001,"N_COORD97":2543625.6099999999,"ADDRESS":"東安路４８巷５３號三樓之６","OBJECTID":448686},"geometry":{"x":170812.8900000006,"y":2543625.6099999994}},{"attributes":{"ID":448712,"DIS_CODE":0,"TOWNNAME":"永康區","LI":"復華里","LIN":"18鄰","STREET":"國華街","SECT":" ","MAREA":" ","LANE":"１０２巷","ALLEY":" ","HOUSE_NO":"５３號四樓之１","E_COORD97":172864.04999999999,"N_COORD97":2546091.7599999998,"ADDRESS":"國華街１０２巷５３號四樓之１","OBJECTID":448687},"geometry":{"x":172864.04999999981,"y":2546091.7600000016}},{"attributes":{"ID":448713,"DIS_CODE":0,"TOWNNAME":"永康區","LI":"復華里","LIN":"18鄰","STREET":"國華街","SECT":" ","MAREA":" ","LANE":"１０２巷","ALLEY":" ","HOUSE_NO":"５３號四樓之２","E_COORD97":172864.17999999999,"N_COORD97":2546091.7599999998,"ADDRESS":"國華街１０２巷５３號四樓之２","OBJECTID":448688},"geometry":{"x":172864.18000000063,"y":2546091.7600000016}},{"attributes":{"ID":448714,"DIS_CODE":0,"TOWNNAME":"永康區","LI":"復華里","LIN":"18鄰","STREET":"國華街","SECT":" ","MAREA":" ","LANE":"１０２巷","ALLEY":" ","HOUSE_NO":"５５號六樓之１","E_COORD97":172858.10000000001,"N_COORD97":2546097.77,"ADDRESS":"國華街１０２巷５５號六樓之１","OBJECTID":448689},"geometry":{"x":172858.09999999963,"y":2546097.7700000014}},{"attributes":{"ID":448715,"DIS_CODE":0,"TOWNNAME":"永康區","LI":"復華里","LIN":"18鄰","STREET":"國華街","SECT":" ","MAREA":" ","LANE":"１０２巷","ALLEY":" ","HOUSE_NO":"５５號八樓之１","E_COORD97":172858.10000000001,"N_COORD97":2546097.77,"ADDRESS":"國華街１０２巷５５號八樓之１","OBJECTID":448690},"geometry":{"x":172858.09999999963,"y":2546097.7700000014}},{"attributes":{"ID":448716,"DIS_CODE":0,"TOWNNAME":"永康區","LI":"中興里","LIN":"18鄰","STREET":"中華路","SECT":" ","MAREA":" ","LANE":"２８６巷","ALLEY":" ","HOUSE_NO":"６１號","E_COORD97":171688.89999999999,"N_COORD97":2545348.2400000002,"ADDRESS":"中華路２８６巷６１號","OBJECTID":448691},"geometry":{"x":171688.90000000037,"y":2545348.2399999984}},{"attributes":{"ID":448717,"DIS_CODE":0,"TOWNNAME":"東區","LI":"小東里","LIN":"18鄰","STREET":"東和路","SECT":" ","MAREA":" ","LANE":"５７巷","ALLEY":" ","HOUSE_NO":"６號","E_COORD97":170976.832284,"N_COORD97":2544280.07131,"ADDRESS":"東和路５７巷６號","OBJECTID":448692},"geometry":{"x":170976.8322840007,"y":2544280.0713100005}},{"attributes":{"ID":448718,"DIS_CODE":0,"TOWNNAME":"東區","LI":"小東里","LIN":"18鄰","STREET":"東和路","SECT":" ","MAREA":" ","LANE":"５７巷","ALLEY":" ","HOUSE_NO":"１０號","E_COORD97":170967.26000000001,"N_COORD97":2544271.54,"ADDRESS":"東和路５７巷１０號","OBJECTID":448693},"geometry":{"x":170967.25999999978,"y":2544271.540000001}},{"attributes":{"ID":448719,"DIS_CODE":0,"TOWNNAME":"永康區","LI":"中興里","LIN":"18鄰","STREET":"中華二路","SECT":" ","MAREA":" ","LANE":"２１５巷","ALLEY":" ","HOUSE_NO":"５號","E_COORD97":171786.57000000001,"N_COORD97":2545411.1600000001,"ADDRESS":"中華二路２１５巷５號","OBJECTID":448694},"geometry":{"x":171786.57000000216,"y":2545411.160000002}},{"attributes":{"ID":448720,"DIS_CODE":0,"TOWNNAME":"永康區","LI":"五王里","LIN":"18鄰","STREET":"成功路","SECT":" ","MAREA":" ","LANE":"１７２巷","ALLEY":" ","HOUSE_NO":"６１號","E_COORD97":171556.39999999999,"N_COORD97":2545729.8900000001,"ADDRESS":"成功路１７２巷６１號","OBJECTID":448695},"geometry":{"x":171556.4000000013,"y":2545729.8900000006}},{"attributes":{"ID":448721,"DIS_CODE":0,"TOWNNAME":"永康區","LI":"大橋里","LIN":"18鄰","STREET":"大橋一街","SECT":" ","MAREA":" ","LANE":"１３９巷","ALLEY":" ","HOUSE_NO":"４６號","E_COORD97":170977.29999999999,"N_COORD97":2546626.5,"ADDRESS":"大橋一街１３９巷４６號","OBJECTID":448696},"geometry":{"x":170977.29999999981,"y":2546626.5}},{"attributes":{"ID":448722,"DIS_CODE":0,"TOWNNAME":"永康區","LI":"中興里","LIN":"18鄰","STREET":"中華路","SECT":" ","MAREA":" ","LANE":"２８６巷","ALLEY":" ","HOUSE_NO":"６７號","E_COORD97":171703.82000000001,"N_COORD97":2545348.2400000002,"ADDRESS":"中華路２８６巷６７號","OBJECTID":448697},"geometry":{"x":171703.82000000123,"y":2545348.2399999984}},{"attributes":{"ID":448723,"DIS_CODE":0,"TOWNNAME":"永康區","LI":"崑山里","LIN":"18鄰","STREET":"大灣路","SECT":" ","MAREA":" ","LANE":"８９６巷","ALLEY":" ","HOUSE_NO":"１８號","E_COORD97":173753.48999999999,"N_COORD97":2544505.5899999999,"ADDRESS":"大灣路８９６巷１８號","OBJECTID":448698},"geometry":{"x":173753.49000000209,"y":2544505.5900000017}},{"attributes":{"ID":448724,"DIS_CODE":0,"TOWNNAME":"永康區","LI":"崑山里","LIN":"18鄰","STREET":"大灣路","SECT":" ","MAREA":" ","LANE":"９４２巷","ALLEY":" ","HOUSE_NO":"２０號","E_COORD97":173637.63,"N_COORD97":2544507.6200000001,"ADDRESS":"大灣路９４２巷２０號","OBJECTID":448699},"geometry":{"x":173637.63000000082,"y":2544507.6200000029}},{"attributes":{"ID":448725,"DIS_CODE":0,"TOWNNAME":"善化區","LI":"坐駕里","LIN":"18鄰","STREET":"興華路","SECT":" ","MAREA":" ","LANE":"２２３巷","ALLEY":" ","HOUSE_NO":"１６號","E_COORD97":178171.47,"N_COORD97":2558514.4300000002,"ADDRESS":"興華路２２３巷１６號","OBJECTID":448700},"geometry":{"x":178171.47000000067,"y":2558514.4299999997}},{"attributes":{"ID":448726,"DIS_CODE":0,"TOWNNAME":"中西區","LI":"光賢里","LIN":"18鄰","STREET":"武聖路","SECT":" ","MAREA":" ","LANE":"１９７巷","ALLEY":" ","HOUSE_NO":"１１號","E_COORD97":166919.73000000001,"N_COORD97":2545182.8599999999,"ADDRESS":"武聖路１９７巷１１號","OBJECTID":448701},"geometry":{"x":166919.73000000045,"y":2545182.8599999994}},{"attributes":{"ID":448727,"DIS_CODE":0,"TOWNNAME":"中西區","LI":"光賢里","LIN":"18鄰","STREET":"武聖路","SECT":" ","MAREA":" ","LANE":"１９７巷","ALLEY":" ","HOUSE_NO":"１２號","E_COORD97":166896.73999999999,"N_COORD97":2545201.77,"ADDRESS":"武聖路１９７巷１２號","OBJECTID":448702},"geometry":{"x":166896.74000000115,"y":2545201.7700000033}},{"attributes":{"ID":448728,"DIS_CODE":0,"TOWNNAME":"中西區","LI":"光賢里","LIN":"18鄰","STREET":"武聖路","SECT":" ","MAREA":" ","LANE":"１９７巷","ALLEY":" ","HOUSE_NO":"１３號","E_COORD97":166915.13,"N_COORD97":2545180.1800000002,"ADDRESS":"武聖路１９７巷１３號","OBJECTID":448703},"geometry":{"x":166915.12999999989,"y":2545180.1800000016}},{"attributes":{"ID":448729,"DIS_CODE":0,"TOWNNAME":"中西區","LI":"光賢里","LIN":"18鄰","STREET":"武聖路","SECT":" ","MAREA":" ","LANE":"１９７巷","ALLEY":" ","HOUSE_NO":"１５號","E_COORD97":166912.82999999999,"N_COORD97":2545176.3500000001,"ADDRESS":"武聖路１９７巷１５號","OBJECTID":448704},"geometry":{"x":166912.83000000101,"y":2545176.3499999996}},{"attributes":{"ID":448730,"DIS_CODE":0,"TOWNNAME":"中西區","LI":"光賢里","LIN":"18鄰","STREET":"武聖路","SECT":" ","MAREA":" ","LANE":"１９７巷","ALLEY":" ","HOUSE_NO":"１７號","E_COORD97":166910.14000000001,"N_COORD97":2545171.3700000001,"ADDRESS":"武聖路１９７巷１７號","OBJECTID":448705},"geometry":{"x":166910.14000000153,"y":2545171.370000001}},{"attributes":{"ID":448731,"DIS_CODE":0,"TOWNNAME":"中西區","LI":"光賢里","LIN":"18鄰","STREET":"武聖路","SECT":" ","MAREA":" ","LANE":"１９７巷","ALLEY":" ","HOUSE_NO":"１８號","E_COORD97":166889.63,"N_COORD97":2545188.8999999999,"ADDRESS":"武聖路１９７巷１８號","OBJECTID":448706},"geometry":{"x":166889.62999999989,"y":2545188.9000000022}},{"attributes":{"ID":448732,"DIS_CODE":0,"TOWNNAME":"中西區","LI":"光賢里","LIN":"18鄰","STREET":"武聖路","SECT":" ","MAREA":" ","LANE":"１９７巷","ALLEY":" ","HOUSE_NO":"１號","E_COORD97":166933.89999999999,"N_COORD97":2545214.9399999999,"ADDRESS":"武聖路１９７巷１號","OBJECTID":448707},"geometry":{"x":166933.90000000037,"y":2545214.9400000013}},{"attributes":{"ID":448733,"DIS_CODE":0,"TOWNNAME":"中西區","LI":"光賢里","LIN":"18鄰","STREET":"武聖路","SECT":" ","MAREA":" ","LANE":"１９７巷","ALLEY":" ","HOUSE_NO":"２０號","E_COORD97":166887.42999999999,"N_COORD97":2545184.6699999999,"ADDRESS":"武聖路１９７巷２０號","OBJECTID":448708},"geometry":{"x":166887.4299999997,"y":2545184.6699999999}},{"attributes":{"ID":448734,"DIS_CODE":0,"TOWNNAME":"中西區","LI":"光賢里","LIN":"18鄰","STREET":"武聖路","SECT":" ","MAREA":" ","LANE":"１９７巷","ALLEY":" ","HOUSE_NO":"２１號","E_COORD97":166906.31,"N_COORD97":2545162.1699999999,"ADDRESS":"武聖路１９７巷２１號","OBJECTID":448709},"geometry":{"x":166906.31000000052,"y":2545162.1700000037}},{"attributes":{"ID":448735,"DIS_CODE":0,"TOWNNAME":"中西區","LI":"光賢里","LIN":"18鄰","STREET":"武聖路","SECT":" ","MAREA":" ","LANE":"１９７巷","ALLEY":" ","HOUSE_NO":"２２號","E_COORD97":166885.06,"N_COORD97":2545180.4399999999,"ADDRESS":"武聖路１９７巷２２號","OBJECTID":448710},"geometry":{"x":166885.05999999866,"y":2545180.4400000032}},{"attributes":{"ID":448736,"DIS_CODE":0,"TOWNNAME":"中西區","LI":"光賢里","LIN":"18鄰","STREET":"武聖路","SECT":" ","MAREA":" ","LANE":"１９７巷","ALLEY":" ","HOUSE_NO":"２３號","E_COORD97":166904,"N_COORD97":2545158.7200000002,"ADDRESS":"武聖路１９７巷２３號","OBJECTID":448711},"geometry":{"x":166904,"y":2545158.7200000007}},{"attributes":{"ID":448737,"DIS_CODE":0,"TOWNNAME":"中西區","LI":"光賢里","LIN":"18鄰","STREET":"武聖路","SECT":" ","MAREA":" ","LANE":"１９７巷","ALLEY":" ","HOUSE_NO":"２４號","E_COORD97":166882.69,"N_COORD97":2545176.2000000002,"ADDRESS":"武聖路１９７巷２４號","OBJECTID":448712},"geometry":{"x":166882.69000000041,"y":2545176.2000000011}},{"attributes":{"ID":448738,"DIS_CODE":0,"TOWNNAME":"中西區","LI":"光賢里","LIN":"18鄰","STREET":"武聖路","SECT":" ","MAREA":" ","LANE":"１９７巷","ALLEY":" ","HOUSE_NO":"２５號","E_COORD97":166902.47,"N_COORD97":2545154.1299999999,"ADDRESS":"武聖路１９７巷２５號","OBJECTID":448713},"geometry":{"x":166902.46999999974,"y":2545154.129999999}},{"attributes":{"ID":448739,"DIS_CODE":0,"TOWNNAME":"中西區","LI":"光賢里","LIN":"18鄰","STREET":"武聖路","SECT":" ","MAREA":" ","LANE":"１９７巷","ALLEY":" ","HOUSE_NO":"２６號","E_COORD97":166880.26000000001,"N_COORD97":2545171.7599999998,"ADDRESS":"武聖路１９７巷２６號","OBJECTID":448714},"geometry":{"x":166880.25999999978,"y":2545171.7600000035}},{"attributes":{"ID":448740,"DIS_CODE":0,"TOWNNAME":"佳里區","LI":"建南里","LIN":"17鄰","STREET":"建南街","SECT":" ","MAREA":" ","LANE":"１０７巷","ALLEY":" ","HOUSE_NO":"５號","E_COORD97":165618.67999999999,"N_COORD97":2562022.8199999998,"ADDRESS":"建南街１０７巷５號","OBJECTID":448715},"geometry":{"x":165618.68000000063,"y":2562022.8200000022}},{"attributes":{"ID":448741,"DIS_CODE":0,"TOWNNAME":"中西區","LI":"光賢里","LIN":"18鄰","STREET":"武聖路","SECT":" ","MAREA":" ","LANE":"１９７巷","ALLEY":" ","HOUSE_NO":"２７號","E_COORD97":166895.42999999999,"N_COORD97":2545143.6899999999,"ADDRESS":"武聖路１９７巷２７號","OBJECTID":448716},"geometry":{"x":166895.43000000063,"y":2545143.6899999995}},{"attributes":{"ID":448742,"DIS_CODE":0,"TOWNNAME":"中西區","LI":"光賢里","LIN":"18鄰","STREET":"武聖路","SECT":" ","MAREA":" ","LANE":"１９７巷","ALLEY":" ","HOUSE_NO":"２８號","E_COORD97":166878.10999999999,"N_COORD97":2545168.0800000001,"ADDRESS":"武聖路１９７巷２８號","OBJECTID":448717},"geometry":{"x":166878.11000000034,"y":2545168.0800000001}},{"attributes":{"ID":448743,"DIS_CODE":0,"TOWNNAME":"中西區","LI":"光賢里","LIN":"18鄰","STREET":"武聖路","SECT":" ","MAREA":" ","LANE":"１９７巷","ALLEY":" ","HOUSE_NO":"２９號","E_COORD97":166893.17000000001,"N_COORD97":2545138.5699999998,"ADDRESS":"武聖路１９７巷２９號","OBJECTID":448718},"geometry":{"x":166893.17000000179,"y":2545138.5700000003}},{"attributes":{"ID":448744,"DIS_CODE":0,"TOWNNAME":"中西區","LI":"光賢里","LIN":"18鄰","STREET":"武聖路","SECT":" ","MAREA":" ","LANE":"１９７巷","ALLEY":" ","HOUSE_NO":"２號","E_COORD97":166908.56,"N_COORD97":2545228.0800000001,"ADDRESS":"武聖路１９７巷２號","OBJECTID":448719},"geometry":{"x":166908.55999999959,"y":2545228.0800000019}},{"attributes":{"ID":448745,"DIS_CODE":0,"TOWNNAME":"中西區","LI":"光賢里","LIN":"18鄰","STREET":"武聖路","SECT":" ","MAREA":" ","LANE":"１９７巷","ALLEY":" ","HOUSE_NO":"３１號","E_COORD97":166890.22,"N_COORD97":2545135.5499999998,"ADDRESS":"武聖路１９７巷３１號","OBJECTID":448720},"geometry":{"x":166890.21999999974,"y":2545135.5500000007}},{"attributes":{"ID":448746,"DIS_CODE":0,"TOWNNAME":"中西區","LI":"光賢里","LIN":"18鄰","STREET":"武聖路","SECT":" ","MAREA":" ","LANE":"１９７巷","ALLEY":" ","HOUSE_NO":"３２號","E_COORD97":166871.34,"N_COORD97":2545156.8999999999,"ADDRESS":"武聖路１９７巷３２號","OBJECTID":448721},"geometry":{"x":166871.33999999985,"y":2545156.9000000004}},{"attributes":{"ID":448747,"DIS_CODE":0,"TOWNNAME":"中西區","LI":"光賢里","LIN":"18鄰","STREET":"武聖路","SECT":" ","MAREA":" ","LANE":"１９７巷","ALLEY":" ","HOUSE_NO":"３３號","E_COORD97":166886.54999999999,"N_COORD97":2545131.75,"ADDRESS":"武聖路１９７巷３３號","OBJECTID":448722},"geometry":{"x":166886.54999999981,"y":2545131.7500000019}},{"attributes":{"ID":448748,"DIS_CODE":0,"TOWNNAME":"中西區","LI":"光賢里","LIN":"18鄰","STREET":"武聖路","SECT":" ","MAREA":" ","LANE":"１９７巷","ALLEY":" ","HOUSE_NO":"３４號","E_COORD97":166869.48000000001,"N_COORD97":2545151.9900000002,"ADDRESS":"武聖路１９７巷３４號","OBJECTID":448723},"geometry":{"x":166869.48000000045,"y":2545151.9900000002}},{"attributes":{"ID":448749,"DIS_CODE":0,"TOWNNAME":"中西區","LI":"光賢里","LIN":"18鄰","STREET":"武聖路","SECT":" ","MAREA":" ","LANE":"１９７巷","ALLEY":" ","HOUSE_NO":"３５號","E_COORD97":166885.17000000001,"N_COORD97":2545126.23,"ADDRESS":"武聖路１９７巷３５號","OBJECTID":448724},"geometry":{"x":166885.17000000086,"y":2545126.2300000023}},{"attributes":{"ID":448750,"DIS_CODE":0,"TOWNNAME":"中西區","LI":"光賢里","LIN":"18鄰","STREET":"武聖路","SECT":" ","MAREA":" ","LANE":"１９７巷","ALLEY":" ","HOUSE_NO":"３６號","E_COORD97":166867.10999999999,"N_COORD97":2545148.0899999999,"ADDRESS":"武聖路１９７巷３６號","OBJECTID":448725},"geometry":{"x":166867.11000000127,"y":2545148.0899999999}},{"attributes":{"ID":448751,"DIS_CODE":0,"TOWNNAME":"中西區","LI":"光賢里","LIN":"18鄰","STREET":"武聖路","SECT":" ","MAREA":" ","LANE":"１９７巷","ALLEY":" ","HOUSE_NO":"３８號","E_COORD97":166864.73999999999,"N_COORD97":2545143.6899999999,"ADDRESS":"武聖路１９７巷３８號","OBJECTID":448726},"geometry":{"x":166864.74000000115,"y":2545143.6899999995}},{"attributes":{"ID":448752,"DIS_CODE":0,"TOWNNAME":"中西區","LI":"光賢里","LIN":"18鄰","STREET":"武聖路","SECT":" ","MAREA":" ","LANE":"１９７巷","ALLEY":" ","HOUSE_NO":"３９號","E_COORD97":166881.48000000001,"N_COORD97":2545117.04,"ADDRESS":"武聖路１９７巷３９號","OBJECTID":448727},"geometry":{"x":166881.48000000231,"y":2545117.0399999991}},{"attributes":{"ID":448753,"DIS_CODE":0,"TOWNNAME":"中西區","LI":"光賢里","LIN":"18鄰","STREET":"武聖路","SECT":" ","MAREA":" ","LANE":"１９７巷","ALLEY":" ","HOUSE_NO":"３號","E_COORD97":166929.45999999999,"N_COORD97":2545210.75,"ADDRESS":"武聖路１９７巷３號","OBJECTID":448728},"geometry":{"x":166929.45999999996,"y":2545210.7500000019}},{"attributes":{"ID":448754,"DIS_CODE":0,"TOWNNAME":"中西區","LI":"光賢里","LIN":"18鄰","STREET":"武聖路","SECT":" ","MAREA":" ","LANE":"１９７巷","ALLEY":" ","HOUSE_NO":"４０號","E_COORD97":166862.70999999999,"N_COORD97":2545139.1200000001,"ADDRESS":"武聖路１９７巷４０號","OBJECTID":448729},"geometry":{"x":166862.71000000089,"y":2545139.120000001}},{"attributes":{"ID":448755,"DIS_CODE":0,"TOWNNAME":"中西區","LI":"光賢里","LIN":"18鄰","STREET":"武聖路","SECT":" ","MAREA":" ","LANE":"１９７巷","ALLEY":" ","HOUSE_NO":"４１號","E_COORD97":166879.64000000001,"N_COORD97":2545111.98,"ADDRESS":"武聖路１９７巷４１號","OBJECTID":448730},"geometry":{"x":166879.64000000153,"y":2545111.9800000004}},{"attributes":{"ID":448756,"DIS_CODE":0,"TOWNNAME":"中西區","LI":"光賢里","LIN":"18鄰","STREET":"武聖路","SECT":" ","MAREA":" ","LANE":"１９７巷","ALLEY":" ","HOUSE_NO":"４２號","E_COORD97":166860,"N_COORD97":2545135.3900000001,"ADDRESS":"武聖路１９７巷４２號","OBJECTID":448731},"geometry":{"x":166860,"y":2545135.3900000025}},{"attributes":{"ID":448757,"DIS_CODE":0,"TOWNNAME":"中西區","LI":"光賢里","LIN":"18鄰","STREET":"武聖路","SECT":" ","MAREA":" ","LANE":"１９７巷","ALLEY":" ","HOUSE_NO":"４３號","E_COORD97":166878.26000000001,"N_COORD97":2545107.3799999999,"ADDRESS":"武聖路１９７巷４３號","OBJECTID":448732},"geometry":{"x":166878.25999999978,"y":2545107.379999999}},{"attributes":{"ID":448758,"DIS_CODE":0,"TOWNNAME":"中西區","LI":"光賢里","LIN":"18鄰","STREET":"武聖路","SECT":" ","MAREA":" ","LANE":"１９７巷","ALLEY":" ","HOUSE_NO":"４４號","E_COORD97":166857.79000000001,"N_COORD97":2545130.8199999998,"ADDRESS":"武聖路１９７巷４４號","OBJECTID":448733},"geometry":{"x":166857.79000000004,"y":2545130.8199999984}},{"attributes":{"ID":448759,"DIS_CODE":0,"TOWNNAME":"中西區","LI":"光賢里","LIN":"18鄰","STREET":"武聖路","SECT":" ","MAREA":" ","LANE":"１９７巷","ALLEY":" ","HOUSE_NO":"４５號","E_COORD97":166960.39999999999,"N_COORD97":2545095.1200000001,"ADDRESS":"武聖路１９７巷４５號","OBJECTID":448734},"geometry":{"x":166960.4000000013,"y":2545095.120000001}},{"attributes":{"ID":448760,"DIS_CODE":0,"TOWNNAME":"中西區","LI":"光賢里","LIN":"18鄰","STREET":"武聖路","SECT":" ","MAREA":" ","LANE":"１９７巷","ALLEY":" ","HOUSE_NO":"４６號","E_COORD97":166855.59,"N_COORD97":2545126.4199999999,"ADDRESS":"武聖路１９７巷４６號","OBJECTID":448735},"geometry":{"x":166855.58999999985,"y":2545126.4199999981}},{"attributes":{"ID":448761,"DIS_CODE":0,"TOWNNAME":"中西區","LI":"光賢里","LIN":"18鄰","STREET":"武聖路","SECT":" ","MAREA":" ","LANE":"１９７巷","ALLEY":" ","HOUSE_NO":"４７號","E_COORD97":166955.03,"N_COORD97":2545097.7999999998,"ADDRESS":"武聖路１９７巷４７號","OBJECTID":448736},"geometry":{"x":166955.03000000026,"y":2545097.8000000045}},{"attributes":{"ID":448762,"DIS_CODE":0,"TOWNNAME":"中西區","LI":"光賢里","LIN":"18鄰","STREET":"武聖路","SECT":" ","MAREA":" ","LANE":"１９７巷","ALLEY":" ","HOUSE_NO":"４８號","E_COORD97":166853.22,"N_COORD97":2545122.1899999999,"ADDRESS":"武聖路１９７巷４８號","OBJECTID":448737},"geometry":{"x":166853.21999999974,"y":2545122.1900000013}},{"attributes":{"ID":448763,"DIS_CODE":0,"TOWNNAME":"中西區","LI":"光賢里","LIN":"18鄰","STREET":"武聖路","SECT":" ","MAREA":" ","LANE":"１９７巷","ALLEY":" ","HOUSE_NO":"４號","E_COORD97":166907.87,"N_COORD97":2545223.4700000002,"ADDRESS":"武聖路１９７巷４號","OBJECTID":448738},"geometry":{"x":166907.87000000104,"y":2545223.4700000025}},{"attributes":{"ID":448764,"DIS_CODE":0,"TOWNNAME":"中西區","LI":"光賢里","LIN":"18鄰","STREET":"武聖路","SECT":" ","MAREA":" ","LANE":"１９７巷","ALLEY":" ","HOUSE_NO":"５號","E_COORD97":166926.98999999999,"N_COORD97":2545205.5800000001,"ADDRESS":"武聖路１９７巷５號","OBJECTID":448739},"geometry":{"x":166926.99000000209,"y":2545205.5800000001}},{"attributes":{"ID":448765,"DIS_CODE":0,"TOWNNAME":"中西區","LI":"光賢里","LIN":"18鄰","STREET":"武聖路","SECT":" ","MAREA":" ","LANE":"１９７巷","ALLEY":" ","HOUSE_NO":"６號","E_COORD97":166904.17999999999,"N_COORD97":2545217.9500000002,"ADDRESS":"武聖路１９７巷６號","OBJECTID":448740},"geometry":{"x":166904.1799999997,"y":2545217.9500000011}},{"attributes":{"ID":448766,"DIS_CODE":0,"TOWNNAME":"中西區","LI":"光賢里","LIN":"18鄰","STREET":"武聖路","SECT":" ","MAREA":" ","LANE":"１９７巷","ALLEY":" ","HOUSE_NO":"８號","E_COORD97":166899.10999999999,"N_COORD97":2545216.3399999999,"ADDRESS":"武聖路１９７巷８號","OBJECTID":448741},"geometry":{"x":166899.1100000022,"y":2545216.3400000017}},{"attributes":{"ID":448767,"DIS_CODE":0,"TOWNNAME":"中西區","LI":"光賢里","LIN":"18鄰","STREET":"武聖路","SECT":" ","MAREA":" ","LANE":"１９７巷","ALLEY":" ","HOUSE_NO":"９號","E_COORD97":166919.69,"N_COORD97":2545188.7599999998,"ADDRESS":"武聖路１９７巷９號","OBJECTID":448742},"geometry":{"x":166919.69000000134,"y":2545188.7600000035}},{"attributes":{"ID":448768,"DIS_CODE":0,"TOWNNAME":"新市區","LI":"港墘里","LIN":"18鄰","STREET":"華美街","SECT":" ","MAREA":" ","LANE":"１巷","ALLEY":" ","HOUSE_NO":"５號","E_COORD97":178094.92999999999,"N_COORD97":2552671.7999999998,"ADDRESS":"華美街１巷５號","OBJECTID":448743},"geometry":{"x":178094.93000000063,"y":2552671.8000000045}},{"attributes":{"ID":448769,"DIS_CODE":0,"TOWNNAME":"東區","LI":"崇善里","LIN":"18鄰","STREET":"崇善十一街","SECT":" ","MAREA":" ","LANE":"５４巷","ALLEY":" ","HOUSE_NO":"２２號","E_COORD97":171310.70000000001,"N_COORD97":2541188.23,"ADDRESS":"崇善十一街５４巷２２號","OBJECTID":448744},"geometry":{"x":171310.70000000019,"y":2541188.2300000004}},{"attributes":{"ID":448770,"DIS_CODE":0,"TOWNNAME":"東區","LI":"崇善里","LIN":"18鄰","STREET":"崇善十一街","SECT":" ","MAREA":" ","LANE":"５４巷","ALLEY":" ","HOUSE_NO":"２８號","E_COORD97":171317.57999999999,"N_COORD97":2541178.71,"ADDRESS":"崇善十一街５４巷２８號","OBJECTID":448745},"geometry":{"x":171317.58000000007,"y":2541178.7100000009}},{"attributes":{"ID":448771,"DIS_CODE":0,"TOWNNAME":"東區","LI":"崇善里","LIN":"18鄰","STREET":"崇善十一街","SECT":" ","MAREA":" ","LANE":"５４巷","ALLEY":" ","HOUSE_NO":"３０號","E_COORD97":171318.38,"N_COORD97":2541173.6800000002,"ADDRESS":"崇善十一街５４巷３０號","OBJECTID":448746},"geometry":{"x":171318.38000000082,"y":2541173.6799999997}},{"attributes":{"ID":448772,"DIS_CODE":0,"TOWNNAME":"東區","LI":"崇文里","LIN":"40鄰","STREET":"生產路","SECT":" ","MAREA":" ","LANE":" ","ALLEY":" ","HOUSE_NO":"２７３號八樓","E_COORD97":170903.01999999999,"N_COORD97":2540618.1099999999,"ADDRESS":"生產路２７３號八樓","OBJECTID":448747},"geometry":{"x":170903.02000000142,"y":2540618.1099999994}},{"attributes":{"ID":448773,"DIS_CODE":0,"TOWNNAME":"東區","LI":"崇善里","LIN":"18鄰","STREET":"崇善十一街","SECT":" ","MAREA":" ","LANE":"５４巷","ALLEY":" ","HOUSE_NO":"３２號","E_COORD97":171319.97,"N_COORD97":2541171.8300000001,"ADDRESS":"崇善十一街５４巷３２號","OBJECTID":448748},"geometry":{"x":171319.96999999974,"y":2541171.8300000019}},{"attributes":{"ID":448774,"DIS_CODE":0,"TOWNNAME":"新市區","LI":"新和里","LIN":"18鄰","STREET":"銘傳街","SECT":" ","MAREA":" ","LANE":"３０巷","ALLEY":" ","HOUSE_NO":"８號","E_COORD97":177507.64999999999,"N_COORD97":2552700.25,"ADDRESS":"銘傳街３０巷８號","OBJECTID":448749},"geometry":{"x":177507.6500000013,"y":2552700.25}},{"attributes":{"ID":448775,"DIS_CODE":0,"TOWNNAME":"新市區","LI":"新和里","LIN":"18鄰","STREET":"銘傳街","SECT":" ","MAREA":" ","LANE":"３０巷","ALLEY":" ","HOUSE_NO":"３號","E_COORD97":177498.14999999999,"N_COORD97":2552697,"ADDRESS":"銘傳街３０巷３號","OBJECTID":448750},"geometry":{"x":177498.15000000037,"y":2552697.0000000037}},{"attributes":{"ID":448776,"DIS_CODE":0,"TOWNNAME":"新市區","LI":"新和里","LIN":"18鄰","STREET":"銘傳街","SECT":" ","MAREA":" ","LANE":"２９巷","ALLEY":" ","HOUSE_NO":"１號","E_COORD97":177492.45000000001,"N_COORD97":2552637.75,"ADDRESS":"銘傳街２９巷１號","OBJECTID":448751},"geometry":{"x":177492.45000000112,"y":2552637.7500000037}},{"attributes":{"ID":448777,"DIS_CODE":0,"TOWNNAME":"永康區","LI":"大橋里","LIN":"18鄰","STREET":"大橋二街","SECT":" ","MAREA":" ","LANE":"１４８巷","ALLEY":" ","HOUSE_NO":"８號","E_COORD97":171043.16,"N_COORD97":2546683.1600000001,"ADDRESS":"大橋二街１４８巷８號","OBJECTID":448752},"geometry":{"x":171043.16000000015,"y":2546683.1600000001}},{"attributes":{"ID":448778,"DIS_CODE":0,"TOWNNAME":"永康區","LI":"大橋里","LIN":"18鄰","STREET":"大橋一街","SECT":" ","MAREA":" ","LANE":"１３９巷","ALLEY":" ","HOUSE_NO":"６２號","E_COORD97":170958.13,"N_COORD97":2546659.75,"ADDRESS":"大橋一街１３９巷６２號","OBJECTID":448753},"geometry":{"x":170958.12999999989,"y":2546659.75}},{"attributes":{"ID":448779,"DIS_CODE":0,"TOWNNAME":"永康區","LI":"五王里","LIN":"18鄰","STREET":"成功路","SECT":" ","MAREA":" ","LANE":"１８８巷","ALLEY":" ","HOUSE_NO":"５號","E_COORD97":171436.37,"N_COORD97":2545683.52,"ADDRESS":"成功路１８８巷５號","OBJECTID":448754},"geometry":{"x":171436.37000000011,"y":2545683.5199999996}},{"attributes":{"ID":448780,"DIS_CODE":0,"TOWNNAME":"永康區","LI":"五王里","LIN":"18鄰","STREET":"成功路","SECT":" ","MAREA":" ","LANE":"１７２巷","ALLEY":" ","HOUSE_NO":"４９號","E_COORD97":171563.14999999999,"N_COORD97":2545702.3900000001,"ADDRESS":"成功路１７２巷４９號","OBJECTID":448755},"geometry":{"x":171563.1500000013,"y":2545702.3900000006}},{"attributes":{"ID":448781,"DIS_CODE":0,"TOWNNAME":"永康區","LI":"崑山里","LIN":"18鄰","STREET":"大灣路","SECT":" ","MAREA":" ","LANE":"９４２巷","ALLEY":" ","HOUSE_NO":"２８號","E_COORD97":173644.13,"N_COORD97":2544526.8700000001,"ADDRESS":"大灣路９４２巷２８號","OBJECTID":448756},"geometry":{"x":173644.13000000082,"y":2544526.870000001}},{"attributes":{"ID":448782,"DIS_CODE":0,"TOWNNAME":"永康區","LI":"崑山里","LIN":"18鄰","STREET":"大灣路","SECT":" ","MAREA":" ","LANE":"８９６巷","ALLEY":" ","HOUSE_NO":"２２號","E_COORD97":173759.39000000001,"N_COORD97":2544522.8999999999,"ADDRESS":"大灣路８９６巷２２號","OBJECTID":448757},"geometry":{"x":173759.3900000006,"y":2544522.9000000004}},{"attributes":{"ID":448783,"DIS_CODE":0,"TOWNNAME":"永康區","LI":"復國里","LIN":"18鄰","STREET":"復國一路","SECT":" ","MAREA":" ","LANE":"３６２巷","ALLEY":" ","HOUSE_NO":"７號","E_COORD97":172801.81,"N_COORD97":2545785.5299999998,"ADDRESS":"復國一路３６２巷７號","OBJECTID":448758},"geometry":{"x":172801.81000000052,"y":2545785.5299999993}},{"attributes":{"ID":448784,"DIS_CODE":0,"TOWNNAME":"永康區","LI":"崑山里","LIN":"18鄰","STREET":"大仁街","SECT":" ","MAREA":" ","LANE":"１１巷","ALLEY":" ","HOUSE_NO":"２９號","E_COORD97":173689.64999999999,"N_COORD97":2544567.1400000001,"ADDRESS":"大仁街１１巷２９號","OBJECTID":448759},"geometry":{"x":173689.65000000037,"y":2544567.1400000025}},{"attributes":{"ID":448785,"DIS_CODE":0,"TOWNNAME":"永康區","LI":"\u25A0洲里","LIN":"18鄰","STREET":"\u25A0行路","SECT":" ","MAREA":" ","LANE":"２５巷","ALLEY":" ","HOUSE_NO":"１號","E_COORD97":171690.12,"N_COORD97":2549075.4100000001,"ADDRESS":"\u25A0行路２５巷１號","OBJECTID":448760},"geometry":{"x":171690.12000000104,"y":2549075.4100000001}},{"attributes":{"ID":448786,"DIS_CODE":0,"TOWNNAME":"安南區","LI":"理想里","LIN":"18鄰","STREET":"大安街","SECT":" ","MAREA":" ","LANE":"２５７巷","ALLEY":" ","HOUSE_NO":"１２號","E_COORD97":167441.5,"N_COORD97":2548478.4900000002,"ADDRESS":"大安街２５７巷１２號","OBJECTID":448761},"geometry":{"x":167441.5,"y":2548478.4900000002}},{"attributes":{"ID":448787,"DIS_CODE":0,"TOWNNAME":"安南區","LI":"州北里","LIN":"18鄰","STREET":"安昌街","SECT":" ","MAREA":" ","LANE":"８５巷","ALLEY":" ","HOUSE_NO":"１０１號","E_COORD97":169906.73000000001,"N_COORD97":2552417.0099999998,"ADDRESS":"安昌街８５巷１０１號","OBJECTID":448762},"geometry":{"x":169906.73000000045,"y":2552417.0099999998}},{"attributes":{"ID":448788,"DIS_CODE":0,"TOWNNAME":"安南區","LI":"州北里","LIN":"18鄰","STREET":"安昌街","SECT":" ","MAREA":" ","LANE":"８５巷","ALLEY":" ","HOUSE_NO":"１０３號","E_COORD97":169906.5,"N_COORD97":2552421.46,"ADDRESS":"安昌街８５巷１０３號","OBJECTID":448763},"geometry":{"x":169906.5,"y":2552421.4600000028}},{"attributes":{"ID":448789,"DIS_CODE":0,"TOWNNAME":"安南區","LI":"州北里","LIN":"18鄰","STREET":"安昌街","SECT":" ","MAREA":" ","LANE":"８５巷","ALLEY":" ","HOUSE_NO":"１０５號","E_COORD97":169906.5,"N_COORD97":2552426.21,"ADDRESS":"安昌街８５巷１０５號","OBJECTID":448764},"geometry":{"x":169906.5,"y":2552426.2100000028}},{"attributes":{"ID":448790,"DIS_CODE":0,"TOWNNAME":"安南區","LI":"州北里","LIN":"18鄰","STREET":"安昌街","SECT":" ","MAREA":" ","LANE":"８５巷","ALLEY":" ","HOUSE_NO":"１０７號","E_COORD97":169906.60999999999,"N_COORD97":2552429.71,"ADDRESS":"安昌街８５巷１０７號","OBJECTID":448765},"geometry":{"x":169906.61000000127,"y":2552429.7100000028}},{"attributes":{"ID":448791,"DIS_CODE":0,"TOWNNAME":"安南區","LI":"州北里","LIN":"18鄰","STREET":"安昌街","SECT":" ","MAREA":" ","LANE":"８５巷","ALLEY":" ","HOUSE_NO":"１０９號","E_COORD97":169906.38,"N_COORD97":2552434.0099999998,"ADDRESS":"安昌街８５巷１０９號","OBJECTID":448766},"geometry":{"x":169906.38000000082,"y":2552434.0099999998}},{"attributes":{"ID":448792,"DIS_CODE":0,"TOWNNAME":"安南區","LI":"州北里","LIN":"18鄰","STREET":"安昌街","SECT":" ","MAREA":" ","LANE":"８５巷","ALLEY":" ","HOUSE_NO":"１１１號","E_COORD97":169906.29999999999,"N_COORD97":2552439.0299999998,"ADDRESS":"安昌街８５巷１１１號","OBJECTID":448767},"geometry":{"x":169906.30000000168,"y":2552439.0300000012}},{"attributes":{"ID":448793,"DIS_CODE":0,"TOWNNAME":"安南區","LI":"州北里","LIN":"18鄰","STREET":"安昌街","SECT":" ","MAREA":" ","LANE":"８５巷","ALLEY":" ","HOUSE_NO":"１１３號","E_COORD97":169906.16,"N_COORD97":2552443.0800000001,"ADDRESS":"安昌街８５巷１１３號","OBJECTID":448768},"geometry":{"x":169906.16000000108,"y":2552443.0800000019}},{"attributes":{"ID":448794,"DIS_CODE":0,"TOWNNAME":"安南區","LI":"州北里","LIN":"18鄰","STREET":"安昌街","SECT":" ","MAREA":" ","LANE":"８５巷","ALLEY":" ","HOUSE_NO":"１１５號","E_COORD97":169905.92999999999,"N_COORD97":2552447.3799999999,"ADDRESS":"安昌街８５巷１１５號","OBJECTID":448769},"geometry":{"x":169905.93000000063,"y":2552447.379999999}},{"attributes":{"ID":448795,"DIS_CODE":0,"TOWNNAME":"安南區","LI":"州北里","LIN":"18鄰","STREET":"安昌街","SECT":" ","MAREA":" ","LANE":"８５巷","ALLEY":" ","HOUSE_NO":"１１７號","E_COORD97":169905.59,"N_COORD97":2552452.1299999999,"ADDRESS":"安昌街８５巷１１７號","OBJECTID":448770},"geometry":{"x":169905.58999999985,"y":2552452.1300000008}},{"attributes":{"ID":448796,"DIS_CODE":0,"TOWNNAME":"安南區","LI":"州北里","LIN":"18鄰","STREET":"安昌街","SECT":" ","MAREA":" ","LANE":"８５巷","ALLEY":" ","HOUSE_NO":"７７號","E_COORD97":169908.20000000001,"N_COORD97":2552352.6400000001,"ADDRESS":"安昌街８５巷７７號","OBJECTID":448771},"geometry":{"x":169908.20000000019,"y":2552352.6400000006}},{"attributes":{"ID":448797,"DIS_CODE":0,"TOWNNAME":"安南區","LI":"州北里","LIN":"18鄰","STREET":"安昌街","SECT":" ","MAREA":" ","LANE":"８５巷","ALLEY":" ","HOUSE_NO":"７９號","E_COORD97":169907.98000000001,"N_COORD97":2552356.8199999998,"ADDRESS":"安昌街８５巷７９號","OBJECTID":448772},"geometry":{"x":169907.98000000138,"y":2552356.8200000022}},{"attributes":{"ID":448798,"DIS_CODE":0,"TOWNNAME":"安南區","LI":"州北里","LIN":"18鄰","STREET":"安昌街","SECT":" ","MAREA":" ","LANE":"８５巷","ALLEY":" ","HOUSE_NO":"８１號","E_COORD97":169907.85999999999,"N_COORD97":2552361.0099999998,"ADDRESS":"安昌街８５巷８１號","OBJECTID":448773},"geometry":{"x":169907.86000000034,"y":2552361.0100000035}},{"attributes":{"ID":448799,"DIS_CODE":0,"TOWNNAME":"安南區","LI":"海東里","LIN":"18鄰","STREET":"海佃路","SECT":"二段","MAREA":" ","LANE":"３０７巷","ALLEY":" ","HOUSE_NO":"１８號","E_COORD97":166744.29000000001,"N_COORD97":2548700.1000000001,"ADDRESS":"海佃路二段３０７巷１８號","OBJECTID":448774},"geometry":{"x":166744.29000000004,"y":2548700.1000000015}},{"attributes":{"ID":448800,"DIS_CODE":0,"TOWNNAME":"安南區","LI":"海東里","LIN":"18鄰","STREET":"海佃路","SECT":"二段","MAREA":" ","LANE":"３０７巷","ALLEY":" ","HOUSE_NO":"２５號","E_COORD97":166724.79000000001,"N_COORD97":2548675.5499999998,"ADDRESS":"海佃路二段３０７巷２５號","OBJECTID":448775},"geometry":{"x":166724.7900000019,"y":2548675.5500000007}},{"attributes":{"ID":448801,"DIS_CODE":0,"TOWNNAME":"安南區","LI":"海東里","LIN":"18鄰","STREET":"海佃路","SECT":"二段","MAREA":" ","LANE":"３０７巷","ALLEY":" ","HOUSE_NO":"２７號","E_COORD97":166723.66,"N_COORD97":2548680.29,"ADDRESS":"海佃路二段３０７巷２７號","OBJECTID":448776},"geometry":{"x":166723.66000000015,"y":2548680.290000001}},{"attributes":{"ID":448802,"DIS_CODE":0,"TOWNNAME":"安南區","LI":"海東里","LIN":"18鄰","STREET":"海佃路","SECT":"二段","MAREA":" ","LANE":"３０７巷","ALLEY":" ","HOUSE_NO":"２９號","E_COORD97":166722.54000000001,"N_COORD97":2548684.3399999999,"ADDRESS":"海佃路二段３０７巷２９號","OBJECTID":448777},"geometry":{"x":166722.54000000004,"y":2548684.3400000017}},{"attributes":{"ID":448803,"DIS_CODE":0,"TOWNNAME":"安南區","LI":"海東里","LIN":"18鄰","STREET":"海佃路","SECT":"二段","MAREA":" ","LANE":"３０７巷","ALLEY":" ","HOUSE_NO":"３１號","E_COORD97":166721.04000000001,"N_COORD97":2548688.8199999998,"ADDRESS":"海佃路二段３０７巷３１號","OBJECTID":448778},"geometry":{"x":166721.04000000004,"y":2548688.8200000022}},{"attributes":{"ID":448804,"DIS_CODE":0,"TOWNNAME":"安南區","LI":"海東里","LIN":"18鄰","STREET":"海佃路","SECT":"二段","MAREA":" ","LANE":"３０７巷","ALLEY":" ","HOUSE_NO":"４１號","E_COORD97":166717.17000000001,"N_COORD97":2548712.21,"ADDRESS":"海佃路二段３０７巷４１號","OBJECTID":448779},"geometry":{"x":166717.17000000086,"y":2548712.2100000009}},{"attributes":{"ID":448805,"DIS_CODE":0,"TOWNNAME":"安南區","LI":"海東里","LIN":"18鄰","STREET":"海佃路","SECT":"二段","MAREA":" ","LANE":"３０７巷","ALLEY":" ","HOUSE_NO":"４３號","E_COORD97":166716.64000000001,"N_COORD97":2548717.0600000001,"ADDRESS":"海佃路二段３０７巷４３號","OBJECTID":448780},"geometry":{"x":166716.63999999966,"y":2548717.0600000024}},{"attributes":{"ID":448806,"DIS_CODE":0,"TOWNNAME":"安南區","LI":"海東里","LIN":"18鄰","STREET":"海佃路","SECT":"二段","MAREA":" ","LANE":"３０７巷","ALLEY":" ","HOUSE_NO":"４５號","E_COORD97":166716.31,"N_COORD97":2548721.3900000001,"ADDRESS":"海佃路二段３０７巷４５號","OBJECTID":448781},"geometry":{"x":166716.31000000052,"y":2548721.3900000043}},{"attributes":{"ID":448807,"DIS_CODE":0,"TOWNNAME":"安南區","LI":"海東里","LIN":"18鄰","STREET":"海佃路","SECT":"二段","MAREA":" ","LANE":"３０７巷","ALLEY":" ","HOUSE_NO":"４７號","E_COORD97":166715.26000000001,"N_COORD97":2548725.6600000001,"ADDRESS":"海佃路二段３０７巷４７號","OBJECTID":448782},"geometry":{"x":166715.26000000071,"y":2548725.6600000039}},{"attributes":{"ID":448808,"DIS_CODE":0,"TOWNNAME":"安南區","LI":"海東里","LIN":"18鄰","STREET":"海佃路","SECT":"二段","MAREA":" ","LANE":"３０７巷","ALLEY":" ","HOUSE_NO":"６號","E_COORD97":166764.47,"N_COORD97":2548697.0299999998,"ADDRESS":"海佃路二段３０７巷６號","OBJECTID":448783},"geometry":{"x":166764.47000000067,"y":2548697.0299999993}},{"attributes":{"ID":448809,"DIS_CODE":0,"TOWNNAME":"安南區","LI":"鳳凰里","LIN":"18鄰","STREET":"安中路","SECT":"一段","MAREA":" ","LANE":"７０２巷","ALLEY":" ","HOUSE_NO":"１００號之１","E_COORD97":167909.39000000001,"N_COORD97":2549333.2200000002,"ADDRESS":"安中路一段７０２巷１００號之１","OBJECTID":448784},"geometry":{"x":167909.3900000006,"y":2549333.2200000025}},{"attributes":{"ID":448810,"DIS_CODE":0,"TOWNNAME":"安南區","LI":"鳳凰里","LIN":"18鄰","STREET":"安中路","SECT":"一段","MAREA":" ","LANE":"７０２巷","ALLEY":" ","HOUSE_NO":"１０１號","E_COORD97":167915.04999999999,"N_COORD97":2549333.2200000002,"ADDRESS":"安中路一段７０２巷１０１號","OBJECTID":448785},"geometry":{"x":167915.05000000075,"y":2549333.2200000025}},{"attributes":{"ID":448811,"DIS_CODE":0,"TOWNNAME":"安南區","LI":"鳳凰里","LIN":"18鄰","STREET":"安中路","SECT":"一段","MAREA":" ","LANE":"７０２巷","ALLEY":" ","HOUSE_NO":"１０２號","E_COORD97":167921.41,"N_COORD97":2549332.75,"ADDRESS":"安中路一段７０２巷１０２號","OBJECTID":448786},"geometry":{"x":167921.41000000108,"y":2549332.7500000019}},{"attributes":{"ID":448812,"DIS_CODE":0,"TOWNNAME":"安南區","LI":"鳳凰里","LIN":"18鄰","STREET":"安中路","SECT":"一段","MAREA":" ","LANE":"７０２巷","ALLEY":" ","HOUSE_NO":"１０３號","E_COORD97":167924.59,"N_COORD97":2549327.2200000002,"ADDRESS":"安中路一段７０２巷１０３號","OBJECTID":448787},"geometry":{"x":167924.59000000078,"y":2549327.2200000025}},{"attributes":{"ID":448813,"DIS_CODE":0,"TOWNNAME":"安南區","LI":"鳳凰里","LIN":"18鄰","STREET":"安中路","SECT":"一段","MAREA":" ","LANE":"７０２巷","ALLEY":" ","HOUSE_NO":"１０４號","E_COORD97":167924,"N_COORD97":2549318.3999999999,"ADDRESS":"安中路一段７０２巷１０４號","OBJECTID":448788},"geometry":{"x":167924.00000000093,"y":2549318.4000000022}},{"attributes":{"ID":448814,"DIS_CODE":0,"TOWNNAME":"安南區","LI":"鳳凰里","LIN":"18鄰","STREET":"安中路","SECT":"一段","MAREA":" ","LANE":"７０２巷","ALLEY":" ","HOUSE_NO":"９５號之１","E_COORD97":167893.01999999999,"N_COORD97":2549304.6400000001,"ADDRESS":"安中路一段７０２巷９５號之１","OBJECTID":448789},"geometry":{"x":167893.02000000048,"y":2549304.6400000006}},{"attributes":{"ID":448815,"DIS_CODE":0,"TOWNNAME":"安南區","LI":"鳳凰里","LIN":"18鄰","STREET":"安中路","SECT":"一段","MAREA":" ","LANE":"７０２巷","ALLEY":" ","HOUSE_NO":"９６號","E_COORD97":167892.79000000001,"N_COORD97":2549314.2799999998,"ADDRESS":"安中路一段７０２巷９６號","OBJECTID":448790},"geometry":{"x":167892.7900000019,"y":2549314.2800000031}},{"attributes":{"ID":448816,"DIS_CODE":0,"TOWNNAME":"安南區","LI":"鳳凰里","LIN":"18鄰","STREET":"安中路","SECT":"一段","MAREA":" ","LANE":"７０２巷","ALLEY":" ","HOUSE_NO":"９７號","E_COORD97":167892.91,"N_COORD97":2549319.5800000001,"ADDRESS":"安中路一段７０２巷９７號","OBJECTID":448791},"geometry":{"x":167892.91000000015,"y":2549319.5800000038}},{"attributes":{"ID":448817,"DIS_CODE":0,"TOWNNAME":"新市區","LI":"潭頂里","LIN":"11鄰","STREET":" ","SECT":" ","MAREA":"潭頂","LANE":" ","ALLEY":" ","HOUSE_NO":"３６３號","E_COORD97":180641.01657899999,"N_COORD97":2552909.03834,"ADDRESS":"潭頂３６３號","OBJECTID":448792},"geometry":{"x":180641.01657900028,"y":2552909.038343003}},{"attributes":{"ID":448818,"DIS_CODE":0,"TOWNNAME":"安南區","LI":"鳳凰里","LIN":"18鄰","STREET":"安中路","SECT":"一段","MAREA":" ","LANE":"７０２巷","ALLEY":" ","HOUSE_NO":"９８號","E_COORD97":167893.14000000001,"N_COORD97":2549329.9300000002,"ADDRESS":"安中路一段７０２巷９８號","OBJECTID":448793},"geometry":{"x":167893.13999999966,"y":2549329.9299999997}},{"attributes":{"ID":448819,"DIS_CODE":0,"TOWNNAME":"安南區","LI":"鳳凰里","LIN":"18鄰","STREET":"安中路","SECT":"一段","MAREA":" ","LANE":"７０２巷","ALLEY":" ","HOUSE_NO":"９９號","E_COORD97":167901.97,"N_COORD97":2549334.04,"ADDRESS":"安中路一段７０２巷９９號","OBJECTID":448794},"geometry":{"x":167901.97000000067,"y":2549334.040000001}},{"attributes":{"ID":448820,"DIS_CODE":0,"TOWNNAME":"東區","LI":"東聖里","LIN":"18鄰","STREET":"中華東路","SECT":"二段","MAREA":" ","LANE":"１３３巷","ALLEY":" ","HOUSE_NO":"３１號","E_COORD97":171481,"N_COORD97":2542852.21,"ADDRESS":"中華東路二段１３３巷３１號","OBJECTID":448795},"geometry":{"x":171481,"y":2542852.2100000028}},{"attributes":{"ID":448821,"DIS_CODE":0,"TOWNNAME":"東區","LI":"後甲里","LIN":"18鄰","STREET":"建東街","SECT":" ","MAREA":" ","LANE":"４２巷","ALLEY":" ","HOUSE_NO":"１１號","E_COORD97":171825.41,"N_COORD97":2543411.3500000001,"ADDRESS":"建東街４２巷１１號","OBJECTID":448796},"geometry":{"x":171825.41000000108,"y":2543411.3500000034}},{"attributes":{"ID":448822,"DIS_CODE":0,"TOWNNAME":"東區","LI":"後甲里","LIN":"18鄰","STREET":"建東街","SECT":" ","MAREA":" ","LANE":"４２巷","ALLEY":" ","HOUSE_NO":"１３號","E_COORD97":171828.88,"N_COORD97":2543414.8199999998,"ADDRESS":"建東街４２巷１３號","OBJECTID":448797},"geometry":{"x":171828.88000000082,"y":2543414.8200000003}},{"attributes":{"ID":448823,"DIS_CODE":0,"TOWNNAME":"東區","LI":"後甲里","LIN":"18鄰","STREET":"建東街","SECT":" ","MAREA":" ","LANE":"４２巷","ALLEY":" ","HOUSE_NO":"１５號","E_COORD97":171832.67000000001,"N_COORD97":2543411.98,"ADDRESS":"建東街４２巷１５號","OBJECTID":448798},"geometry":{"x":171832.66999999993,"y":2543411.9800000023}},{"attributes":{"ID":448824,"DIS_CODE":0,"TOWNNAME":"東區","LI":"後甲里","LIN":"18鄰","STREET":"建東街","SECT":" ","MAREA":" ","LANE":"４２巷","ALLEY":" ","HOUSE_NO":"１７號","E_COORD97":171836.76999999999,"N_COORD97":2543414.5,"ADDRESS":"建東街４２巷１７號","OBJECTID":448799},"geometry":{"x":171836.76999999955,"y":2543414.5000000019}},{"attributes":{"ID":448825,"DIS_CODE":0,"TOWNNAME":"東區","LI":"後甲里","LIN":"18鄰","STREET":"建東街","SECT":" ","MAREA":" ","LANE":"４２巷","ALLEY":" ","HOUSE_NO":"１９號","E_COORD97":171840.25,"N_COORD97":2543415.7599999998,"ADDRESS":"建東街４２巷１９號","OBJECTID":448800},"geometry":{"x":171840.25,"y":2543415.7600000016}}]}