{"displayFieldName":"TOWNNAME","fieldAliases":{"ID":"ID","DIS_CODE":"DIS_CODE","TOWNNAME":"TOWNNAME","LI":"LI","LIN":"LIN","STREET":"STREET","SECT":"SECT","MAREA":"MAREA","LANE":"LANE","ALLEY":"ALLEY","HOUSE_NO":"HOUSE_NO","E_COORD97":"E_COORD97","N_COORD97":"N_COORD97","ADDRESS":"ADDRESS","OBJECTID":"OBJECTID"},"geometryType":"esriGeometryPoint","spatialReference":{"wkid":102443,"latestWkid":3826},"fields":[{"name":"ID","type":"esriFieldTypeDouble","alias":"ID"},{"name":"DIS_CODE","type":"esriFieldTypeInteger","alias":"DIS_CODE"},{"name":"TOWNNAME","type":"esriFieldTypeString","alias":"TOWNNAME","length":8},{"name":"LI","type":"esriFieldTypeString","alias":"LI","length":8},{"name":"LIN","type":"esriFieldTypeString","alias":"LIN","length":12},{"name":"STREET","type":"esriFieldTypeString","alias":"STREET","length":20},{"name":"SECT","type":"esriFieldTypeString","alias":"SECT","length":8},{"name":"MAREA","type":"esriFieldTypeString","alias":"MAREA","length":12},{"name":"LANE","type":"esriFieldTypeString","alias":"LANE","length":10},{"name":"ALLEY","type":"esriFieldTypeString","alias":"ALLEY","length":10},{"name":"HOUSE_NO","type":"esriFieldTypeString","alias":"HOUSE_NO","length":20},{"name":"E_COORD97","type":"esriFieldTypeDouble","alias":"E_COORD97"},{"name":"N_COORD97","type":"esriFieldTypeDouble","alias":"N_COORD97"},{"name":"ADDRESS","type":"esriFieldTypeString","alias":"ADDRESS","length":50},{"name":"OBJECTID","type":"esriFieldTypeOID","alias":"OBJECTID"}],"features":[{"attributes":{"ID":5601,"DIS_CODE":0,"TOWNNAME":"南區","LI":"佛壇里","LIN":"10鄰","STREET":"灣裡路","SECT":" ","MAREA":" ","LANE":"６４０巷","ALLEY":" ","HOUSE_NO":"１號","E_COORD97":166070.90676499999,"N_COORD97":2535621.9786499999,"ADDRESS":"灣裡路６４０巷１號","OBJECTID":5601},"geometry":{"x":166070.90676500089,"y":2535621.9786540009}},{"attributes":{"ID":5602,"DIS_CODE":0,"TOWNNAME":"南區","LI":"佛壇里","LIN":"10鄰","STREET":"灣裡路","SECT":" ","MAREA":" ","LANE":"６４０巷","ALLEY":" ","HOUSE_NO":"３號","E_COORD97":166068.789024,"N_COORD97":2535627.8524000002,"ADDRESS":"灣裡路６４０巷３號","OBJECTID":5602},"geometry":{"x":166068.78902400099,"y":2535627.8524009977}},{"attributes":{"ID":5603,"DIS_CODE":0,"TOWNNAME":"南區","LI":"佛壇里","LIN":"15鄰","STREET":"灣裡路","SECT":" ","MAREA":" ","LANE":"６４０巷","ALLEY":" ","HOUSE_NO":"５號","E_COORD97":166066.88305800001,"N_COORD97":2535632.7207300002,"ADDRESS":"灣裡路６４０巷５號","OBJECTID":5603},"geometry":{"x":166066.88305800036,"y":2535632.7207319997}},{"attributes":{"ID":5604,"DIS_CODE":0,"TOWNNAME":"南區","LI":"佛壇里","LIN":"15鄰","STREET":"灣裡路","SECT":" ","MAREA":" ","LANE":"６４０巷","ALLEY":" ","HOUSE_NO":"１１號","E_COORD97":166060.529836,"N_COORD97":2535647.5373900002,"ADDRESS":"灣裡路６４０巷１１號","OBJECTID":5604},"geometry":{"x":166060.52983600181,"y":2535647.5373900048}},{"attributes":{"ID":5605,"DIS_CODE":0,"TOWNNAME":"南區","LI":"佛壇里","LIN":"15鄰","STREET":"灣裡路","SECT":" ","MAREA":" ","LANE":"６４０巷","ALLEY":" ","HOUSE_NO":"７號","E_COORD97":166065.400639,"N_COORD97":2535637.2715599998,"ADDRESS":"灣裡路６４０巷７號","OBJECTID":5605},"geometry":{"x":166065.40063900035,"y":2535637.271563001}},{"attributes":{"ID":5606,"DIS_CODE":0,"TOWNNAME":"南區","LI":"佛壇里","LIN":"15鄰","STREET":"灣裡路","SECT":" ","MAREA":" ","LANE":"６４０巷","ALLEY":" ","HOUSE_NO":"９號","E_COORD97":166062.64757599999,"N_COORD97":2535643.6215599999,"ADDRESS":"灣裡路６４０巷９號","OBJECTID":5606},"geometry":{"x":166062.64757599961,"y":2535643.6215589996}},{"attributes":{"ID":5607,"DIS_CODE":0,"TOWNNAME":"安南區","LI":"\u25A0南里","LIN":"13鄰","STREET":"安昌街","SECT":" ","MAREA":" ","LANE":"１０６巷","ALLEY":"１３弄","HOUSE_NO":"９號","E_COORD97":170029.95000000001,"N_COORD97":2552191.96,"ADDRESS":"安昌街１０６巷１３弄９號","OBJECTID":5607},"geometry":{"x":170029.95000000112,"y":2552191.9600000009}},{"attributes":{"ID":5608,"DIS_CODE":0,"TOWNNAME":"南區","LI":"佛壇里","LIN":"15鄰","STREET":"灣裡路","SECT":" ","MAREA":" ","LANE":" ","ALLEY":" ","HOUSE_NO":"６４２之２號","E_COORD97":166071.33031300001,"N_COORD97":2535603.6165800001,"ADDRESS":"灣裡路６４２之２號","OBJECTID":5608},"geometry":{"x":166071.3303129999,"y":2535603.6165810023}},{"attributes":{"ID":5609,"DIS_CODE":0,"TOWNNAME":"南區","LI":"佛壇里","LIN":"15鄰","STREET":"灣裡路","SECT":" ","MAREA":" ","LANE":" ","ALLEY":" ","HOUSE_NO":"６４２之３號","E_COORD97":166066.671283,"N_COORD97":2535601.4999199999,"ADDRESS":"灣裡路６４２之３號","OBJECTID":5609},"geometry":{"x":166066.67128300015,"y":2535601.4999150001}},{"attributes":{"ID":5610,"DIS_CODE":0,"TOWNNAME":"南區","LI":"佛壇里","LIN":"15鄰","STREET":"灣裡路","SECT":" ","MAREA":" ","LANE":" ","ALLEY":" ","HOUSE_NO":"６４２之５號","E_COORD97":166061.58870600001,"N_COORD97":2535599.1715799998,"ADDRESS":"灣裡路６４２之５號","OBJECTID":5610},"geometry":{"x":166061.58870600071,"y":2535599.1715830024}},{"attributes":{"ID":5611,"DIS_CODE":0,"TOWNNAME":"南區","LI":"佛壇里","LIN":"18鄰","STREET":"灣裡路","SECT":" ","MAREA":" ","LANE":" ","ALLEY":" ","HOUSE_NO":"５９９號","E_COORD97":166086.36627100001,"N_COORD97":2535582.76743,"ADDRESS":"灣裡路５９９號","OBJECTID":5611},"geometry":{"x":166086.36627100129,"y":2535582.7674250025}},{"attributes":{"ID":5612,"DIS_CODE":0,"TOWNNAME":"南區","LI":"佛壇里","LIN":"18鄰","STREET":"灣裡路","SECT":" ","MAREA":" ","LANE":" ","ALLEY":" ","HOUSE_NO":"６０１號","E_COORD97":166081.07191999999,"N_COORD97":2535580.43909,"ADDRESS":"灣裡路６０１號","OBJECTID":5612},"geometry":{"x":166081.07192000095,"y":2535580.4390929993}},{"attributes":{"ID":5613,"DIS_CODE":0,"TOWNNAME":"山上區","LI":"豐德里","LIN":"4鄰","STREET":" ","SECT":" ","MAREA":"隙子口","LANE":" ","ALLEY":" ","HOUSE_NO":"６７號","E_COORD97":184482.04427400001,"N_COORD97":2553474.8606599998,"ADDRESS":"隙子口６７號","OBJECTID":5613},"geometry":{"x":184482.04427400138,"y":2553474.8606640007}},{"attributes":{"ID":5614,"DIS_CODE":0,"TOWNNAME":"安南區","LI":"\u25A0南里","LIN":"25鄰","STREET":"長和路","SECT":"二段","MAREA":" ","LANE":"１２巷","ALLEY":"２９９弄","HOUSE_NO":"３１號","E_COORD97":170312.23000000001,"N_COORD97":2552258.5299999998,"ADDRESS":"長和路二段１２巷２９９弄３１號","OBJECTID":5614},"geometry":{"x":170312.23000000045,"y":2552258.5300000031}},{"attributes":{"ID":5615,"DIS_CODE":0,"TOWNNAME":"山上區","LI":"平陽里","LIN":"2鄰","STREET":" ","SECT":" ","MAREA":"石子崎","LANE":" ","ALLEY":" ","HOUSE_NO":"２１號","E_COORD97":186513.65274399999,"N_COORD97":2553892.1330200001,"ADDRESS":"石子崎２１號","OBJECTID":5615},"geometry":{"x":186513.65274400078,"y":2553892.1330239996}},{"attributes":{"ID":5616,"DIS_CODE":0,"TOWNNAME":"仁德區","LI":"仁德里","LIN":"37鄰","STREET":"中山路","SECT":" ","MAREA":" ","LANE":" ","ALLEY":" ","HOUSE_NO":"７９４號","E_COORD97":172589.224831,"N_COORD97":2541589.37408,"ADDRESS":"中山路７９４號","OBJECTID":5616},"geometry":{"x":172589.2248310009,"y":2541589.3740780037}},{"attributes":{"ID":5617,"DIS_CODE":0,"TOWNNAME":"山上區","LI":"平陽里","LIN":"2鄰","STREET":" ","SECT":" ","MAREA":"石子崎","LANE":" ","ALLEY":" ","HOUSE_NO":"２１之１號","E_COORD97":186485.473734,"N_COORD97":2553898.2713500001,"ADDRESS":"石子崎２１之１號","OBJECTID":5617},"geometry":{"x":186485.47373400163,"y":2553898.271354001}},{"attributes":{"ID":5618,"DIS_CODE":0,"TOWNNAME":"仁德區","LI":"仁德里","LIN":"37鄰","STREET":"中山路","SECT":" ","MAREA":" ","LANE":" ","ALLEY":" ","HOUSE_NO":"７９０之１號","E_COORD97":172575.667961,"N_COORD97":2541572.4407500001,"ADDRESS":"中山路７９０之１號","OBJECTID":5618},"geometry":{"x":172575.6679610014,"y":2541572.4407540038}},{"attributes":{"ID":5619,"DIS_CODE":0,"TOWNNAME":"安南區","LI":"\u25A0南里","LIN":"11鄰","STREET":"環福街","SECT":" ","MAREA":" ","LANE":"１６１巷","ALLEY":" ","HOUSE_NO":"５８號","E_COORD97":170248.78,"N_COORD97":2552600.2799999998,"ADDRESS":"環福街１６１巷５８號","OBJECTID":5619},"geometry":{"x":170248.78000000026,"y":2552600.2800000012}},{"attributes":{"ID":5620,"DIS_CODE":0,"TOWNNAME":"仁德區","LI":"仁德里","LIN":"38鄰","STREET":"中山路","SECT":" ","MAREA":" ","LANE":" ","ALLEY":" ","HOUSE_NO":"８２６號","E_COORD97":172425.29084500001,"N_COORD97":2541623.8179600001,"ADDRESS":"中山路８２６號","OBJECTID":5620},"geometry":{"x":172425.29084500112,"y":2541623.8179630022}},{"attributes":{"ID":5621,"DIS_CODE":0,"TOWNNAME":"山上區","LI":"平陽里","LIN":"2鄰","STREET":" ","SECT":" ","MAREA":"石子崎","LANE":" ","ALLEY":" ","HOUSE_NO":"２０號","E_COORD97":186518.10206100001,"N_COORD97":2553872.8713699998,"ADDRESS":"石子崎２０號","OBJECTID":5621},"geometry":{"x":186518.10206099972,"y":2553872.8713680021}},{"attributes":{"ID":5622,"DIS_CODE":0,"TOWNNAME":"山上區","LI":"平陽里","LIN":"2鄰","STREET":" ","SECT":" ","MAREA":"石子崎","LANE":" ","ALLEY":" ","HOUSE_NO":"２１之２號","E_COORD97":186442.88741,"N_COORD97":2553870.96637,"ADDRESS":"石子崎２１之２號","OBJECTID":5622},"geometry":{"x":186442.88740999997,"y":2553870.9663690012}},{"attributes":{"ID":5623,"DIS_CODE":0,"TOWNNAME":"仁德區","LI":"保安里","LIN":"16鄰","STREET":"中正路","SECT":"一段","MAREA":" ","LANE":" ","ALLEY":" ","HOUSE_NO":"１１５號","E_COORD97":171337.56391999999,"N_COORD97":2535587.0878900001,"ADDRESS":"中正路一段１１５號","OBJECTID":5623},"geometry":{"x":171337.56392000057,"y":2535587.0878900029}},{"attributes":{"ID":5624,"DIS_CODE":0,"TOWNNAME":"仁德區","LI":"仁德里","LIN":"38鄰","STREET":"中山路","SECT":" ","MAREA":" ","LANE":"８４０巷","ALLEY":" ","HOUSE_NO":"８號","E_COORD97":172420.41884500001,"N_COORD97":2541667.3635100001,"ADDRESS":"中山路８４０巷８號","OBJECTID":5624},"geometry":{"x":172420.41884499975,"y":2541667.3635099996}},{"attributes":{"ID":5625,"DIS_CODE":0,"TOWNNAME":"山上區","LI":"平陽里","LIN":"2鄰","STREET":" ","SECT":" ","MAREA":"石子崎","LANE":" ","ALLEY":" ","HOUSE_NO":"２１之３號","E_COORD97":186431.65818,"N_COORD97":2553879.0096999998,"ADDRESS":"石子崎２１之３號","OBJECTID":5625},"geometry":{"x":186431.65818000026,"y":2553879.0096979998}},{"attributes":{"ID":5626,"DIS_CODE":0,"TOWNNAME":"山上區","LI":"平陽里","LIN":"2鄰","STREET":" ","SECT":" ","MAREA":"石子崎","LANE":" ","ALLEY":" ","HOUSE_NO":"２１之５號","E_COORD97":186358.350378,"N_COORD97":2553877.9513699999,"ADDRESS":"石子崎２１之５號","OBJECTID":5626},"geometry":{"x":186358.35037800204,"y":2553877.9513650015}},{"attributes":{"ID":5627,"DIS_CODE":0,"TOWNNAME":"山上區","LI":"平陽里","LIN":"2鄰","STREET":" ","SECT":" ","MAREA":"石子崎","LANE":" ","ALLEY":" ","HOUSE_NO":"２１之６號","E_COORD97":186346.909277,"N_COORD97":2553878.5863600001,"ADDRESS":"石子崎２１之６號","OBJECTID":5627},"geometry":{"x":186346.9092769986,"y":2553878.5863650013}},{"attributes":{"ID":5628,"DIS_CODE":0,"TOWNNAME":"山上區","LI":"豐德里","LIN":"4鄰","STREET":" ","SECT":" ","MAREA":"隙子口","LANE":" ","ALLEY":" ","HOUSE_NO":"５３號","E_COORD97":184505.61306,"N_COORD97":2553389.2415399998,"ADDRESS":"隙子口５３號","OBJECTID":5628},"geometry":{"x":184505.61306000222,"y":2553389.2415440027}},{"attributes":{"ID":5629,"DIS_CODE":0,"TOWNNAME":"山上區","LI":"豐德里","LIN":"4鄰","STREET":" ","SECT":" ","MAREA":"隙子口","LANE":" ","ALLEY":" ","HOUSE_NO":"５３號之１","E_COORD97":184489.40620900001,"N_COORD97":2553386.2782100001,"ADDRESS":"隙子口５３號之１","OBJECTID":5629},"geometry":{"x":184489.40620900132,"y":2553386.2782119997}},{"attributes":{"ID":5630,"DIS_CODE":0,"TOWNNAME":"安南區","LI":"砂崙里","LIN":"10鄰","STREET":"青砂街","SECT":"一段","MAREA":" ","LANE":"６３３巷","ALLEY":"２０弄","HOUSE_NO":"１０１號","E_COORD97":159833.197358,"N_COORD97":2552786.6899600001,"ADDRESS":"青砂街一段６３３巷２０弄１０１號","OBJECTID":5630},"geometry":{"x":159833.19735800195,"y":2552786.6899620015}},{"attributes":{"ID":5631,"DIS_CODE":0,"TOWNNAME":"安南區","LI":"砂崙里","LIN":"10鄰","STREET":"青砂街","SECT":"一段","MAREA":" ","LANE":"６３３巷","ALLEY":"２０弄","HOUSE_NO":"９７號","E_COORD97":159852.47433500001,"N_COORD97":2552791.7699600002,"ADDRESS":"青砂街一段６３３巷２０弄９７號","OBJECTID":5631},"geometry":{"x":159852.47433499992,"y":2552791.7699590009}},{"attributes":{"ID":5632,"DIS_CODE":0,"TOWNNAME":"安南區","LI":"砂崙里","LIN":"10鄰","STREET":"青砂街","SECT":"一段","MAREA":" ","LANE":"６９５巷","ALLEY":" ","HOUSE_NO":"３３號","E_COORD97":159825.57130099999,"N_COORD97":2552811.2432800001,"ADDRESS":"青砂街一段６９５巷３３號","OBJECTID":5632},"geometry":{"x":159825.57130099926,"y":2552811.2432820015}},{"attributes":{"ID":5633,"DIS_CODE":0,"TOWNNAME":"仁德區","LI":"太子里","LIN":"38鄰","STREET":"長興一街","SECT":" ","MAREA":" ","LANE":" ","ALLEY":" ","HOUSE_NO":"５７號","E_COORD97":174487.67832199999,"N_COORD97":2543801.3149799998,"ADDRESS":"長興一街５７號","OBJECTID":5633},"geometry":{"x":174487.67832200043,"y":2543801.3149770033}},{"attributes":{"ID":5634,"DIS_CODE":0,"TOWNNAME":"安南區","LI":"理想里","LIN":"13鄰","STREET":"海佃路","SECT":"二段","MAREA":" ","LANE":"１０２巷","ALLEY":" ","HOUSE_NO":"４０號","E_COORD97":167095.365835,"N_COORD97":2548005.0788799999,"ADDRESS":"海佃路二段１０２巷４０號","OBJECTID":5634},"geometry":{"x":167095.36583499983,"y":2548005.0788790025}},{"attributes":{"ID":5635,"DIS_CODE":0,"TOWNNAME":"安南區","LI":"理想里","LIN":"13鄰","STREET":"海佃路","SECT":"二段","MAREA":" ","LANE":"１０２巷","ALLEY":" ","HOUSE_NO":"４２號","E_COORD97":167100.93765199999,"N_COORD97":2548002.7956400001,"ADDRESS":"海佃路二段１０２巷４２號","OBJECTID":5635},"geometry":{"x":167100.93765200116,"y":2548002.7956390046}},{"attributes":{"ID":5636,"DIS_CODE":0,"TOWNNAME":"仁德區","LI":"太子里","LIN":"38鄰","STREET":"長興一街","SECT":" ","MAREA":" ","LANE":"５９巷","ALLEY":" ","HOUSE_NO":"５號","E_COORD97":174470.73656200001,"N_COORD97":2543779.3016599999,"ADDRESS":"長興一街５９巷５號","OBJECTID":5636},"geometry":{"x":174470.73656199966,"y":2543779.3016550001}},{"attributes":{"ID":5637,"DIS_CODE":0,"TOWNNAME":"山上區","LI":"豐德里","LIN":"3鄰","STREET":" ","SECT":" ","MAREA":"隙子口","LANE":" ","ALLEY":" ","HOUSE_NO":"４７號之５","E_COORD97":184715.772482,"N_COORD97":2553081.4783800002,"ADDRESS":"隙子口４７號之５","OBJECTID":5637},"geometry":{"x":184715.77248200215,"y":2553081.4783770014}},{"attributes":{"ID":5638,"DIS_CODE":0,"TOWNNAME":"安南區","LI":"砂崙里","LIN":"4鄰","STREET":"城北路","SECT":" ","MAREA":" ","LANE":"８７１巷","ALLEY":" ","HOUSE_NO":"２１０號","E_COORD97":160401.76227199999,"N_COORD97":2553241.5613799999,"ADDRESS":"城北路８７１巷２１０號","OBJECTID":5638},"geometry":{"x":160401.76227200031,"y":2553241.5613830015}},{"attributes":{"ID":5639,"DIS_CODE":0,"TOWNNAME":"山上區","LI":"豐德里","LIN":"4鄰","STREET":" ","SECT":" ","MAREA":"隙子口","LANE":" ","ALLEY":" ","HOUSE_NO":"５４號之１","E_COORD97":184495.23220100001,"N_COORD97":2553402.1532000001,"ADDRESS":"隙子口５４號之１","OBJECTID":5639},"geometry":{"x":184495.23220100068,"y":2553402.1532030012}},{"attributes":{"ID":5640,"DIS_CODE":0,"TOWNNAME":"山上區","LI":"豐德里","LIN":"4鄰","STREET":" ","SECT":" ","MAREA":"隙子口","LANE":" ","ALLEY":" ","HOUSE_NO":"５６號之１","E_COORD97":184524.468089,"N_COORD97":2553391.99321,"ADDRESS":"隙子口５６號之１","OBJECTID":5640},"geometry":{"x":184524.46808900125,"y":2553391.9932090025}},{"attributes":{"ID":5641,"DIS_CODE":0,"TOWNNAME":"安南區","LI":"砂崙里","LIN":"4鄰","STREET":"城北路","SECT":" ","MAREA":" ","LANE":"８７１巷","ALLEY":"５５弄","HOUSE_NO":"３６號","E_COORD97":160697.48381400001,"N_COORD97":2553164.3030900001,"ADDRESS":"城北路８７１巷５５弄３６號","OBJECTID":5641},"geometry":{"x":160697.48381400015,"y":2553164.3030919991}},{"attributes":{"ID":5642,"DIS_CODE":0,"TOWNNAME":"山上區","LI":"豐德里","LIN":"1鄰","STREET":" ","SECT":" ","MAREA":"隙子口","LANE":" ","ALLEY":" ","HOUSE_NO":"３之１號","E_COORD97":185246.679431,"N_COORD97":2553131.9081100002,"ADDRESS":"隙子口３之１號","OBJECTID":5642},"geometry":{"x":185246.67943100072,"y":2553131.9081140012}},{"attributes":{"ID":5643,"DIS_CODE":0,"TOWNNAME":"仁德區","LI":"一甲里","LIN":"14鄰","STREET":"忠義路","SECT":" ","MAREA":" ","LANE":"１９９巷","ALLEY":" ","HOUSE_NO":"２７號","E_COORD97":174047.00895600001,"N_COORD97":2541744.7983499998,"ADDRESS":"忠義路１９９巷２７號","OBJECTID":5643},"geometry":{"x":174047.00895600021,"y":2541744.7983449996}},{"attributes":{"ID":5644,"DIS_CODE":0,"TOWNNAME":"仁德區","LI":"太子里","LIN":"38鄰","STREET":"長興一街","SECT":" ","MAREA":" ","LANE":"７１巷","ALLEY":" ","HOUSE_NO":"５號","E_COORD97":174427.81299599999,"N_COORD97":2543809.2921899999,"ADDRESS":"長興一街７１巷５號","OBJECTID":5644},"geometry":{"x":174427.81299600005,"y":2543809.2921900004}},{"attributes":{"ID":5645,"DIS_CODE":0,"TOWNNAME":"仁德區","LI":"太子里","LIN":"38鄰","STREET":"長興一街","SECT":" ","MAREA":" ","LANE":" ","ALLEY":" ","HOUSE_NO":"９３號","E_COORD97":174286.13753000001,"N_COORD97":2543845.9105000002,"ADDRESS":"長興一街９３號","OBJECTID":5645},"geometry":{"x":174286.13752999995,"y":2543845.9105030019}},{"attributes":{"ID":5646,"DIS_CODE":0,"TOWNNAME":"仁德區","LI":"太子里","LIN":"38鄰","STREET":"長興一街","SECT":" ","MAREA":" ","LANE":" ","ALLEY":" ","HOUSE_NO":"９９號","E_COORD97":174231.92389899999,"N_COORD97":2543856.28217,"ADDRESS":"長興一街９９號","OBJECTID":5646},"geometry":{"x":174231.92389900051,"y":2543856.2821650021}},{"attributes":{"ID":5647,"DIS_CODE":0,"TOWNNAME":"仁德區","LI":"一甲里","LIN":"14鄰","STREET":"忠義路","SECT":" ","MAREA":" ","LANE":"１９９巷","ALLEY":"２９弄","HOUSE_NO":"１號","E_COORD97":174033.87065,"N_COORD97":2541734.3208499998,"ADDRESS":"忠義路１９９巷２９弄１號","OBJECTID":5647},"geometry":{"x":174033.87064999994,"y":2541734.3208510019}},{"attributes":{"ID":5648,"DIS_CODE":0,"TOWNNAME":"仁德區","LI":"一甲里","LIN":"14鄰","STREET":"忠義路","SECT":" ","MAREA":" ","LANE":"１９９巷","ALLEY":"２９弄","HOUSE_NO":"３號","E_COORD97":174040.01598699999,"N_COORD97":2541736.8608499998,"ADDRESS":"忠義路１９９巷２９弄３號","OBJECTID":5648},"geometry":{"x":174040.01598700136,"y":2541736.8608490024}},{"attributes":{"ID":5649,"DIS_CODE":0,"TOWNNAME":"仁德區","LI":"一甲里","LIN":"14鄰","STREET":"忠義路","SECT":" ","MAREA":" ","LANE":"１９９巷","ALLEY":"２９弄","HOUSE_NO":"５號","E_COORD97":174047.00895600001,"N_COORD97":2541738.9775100001,"ADDRESS":"忠義路１９９巷２９弄５號","OBJECTID":5649},"geometry":{"x":174047.00895600021,"y":2541738.9775150027}},{"attributes":{"ID":5650,"DIS_CODE":0,"TOWNNAME":"仁德區","LI":"一甲里","LIN":"14鄰","STREET":"忠義路","SECT":" ","MAREA":" ","LANE":"１９９巷","ALLEY":"２９弄","HOUSE_NO":"７號","E_COORD97":174053.154293,"N_COORD97":2541740.8825099999,"ADDRESS":"忠義路１９９巷２９弄７號","OBJECTID":5650},"geometry":{"x":174053.15429299977,"y":2541740.8825140037}},{"attributes":{"ID":5651,"DIS_CODE":0,"TOWNNAME":"安南區","LI":"淵中里","LIN":"7鄰","STREET":"安中路","SECT":"四段","MAREA":" ","LANE":"２９０巷","ALLEY":"２２０弄","HOUSE_NO":"２８之１號","E_COORD97":164926.916952,"N_COORD97":2550162.5458200001,"ADDRESS":"安中路四段２９０巷２２０弄２８之１號","OBJECTID":5651},"geometry":{"x":164926.91695199907,"y":2550162.5458169989}},{"attributes":{"ID":5652,"DIS_CODE":0,"TOWNNAME":"安南區","LI":"淵中里","LIN":"6鄰","STREET":"安中路","SECT":"四段","MAREA":" ","LANE":"１９７巷","ALLEY":"４９弄","HOUSE_NO":"２５號","E_COORD97":164899.49308799999,"N_COORD97":2549906.4292899999,"ADDRESS":"安中路四段１９７巷４９弄２５號","OBJECTID":5652},"geometry":{"x":164899.49308800045,"y":2549906.4292880017}},{"attributes":{"ID":5653,"DIS_CODE":0,"TOWNNAME":"安南區","LI":"東和里","LIN":"4鄰","STREET":"長和路","SECT":"一段","MAREA":" ","LANE":"８２３巷","ALLEY":" ","HOUSE_NO":"４１７號","E_COORD97":170918.02521699999,"N_COORD97":2550284.2540799999,"ADDRESS":"長和路一段８２３巷４１７號","OBJECTID":5653},"geometry":{"x":170918.0252170004,"y":2550284.2540840004}},{"attributes":{"ID":5654,"DIS_CODE":0,"TOWNNAME":"仁德區","LI":"仁德里","LIN":"35鄰","STREET":"中山路","SECT":" ","MAREA":" ","LANE":"７５８巷","ALLEY":"２弄","HOUSE_NO":"６５號","E_COORD97":172824.71762400001,"N_COORD97":2541602.8629700001,"ADDRESS":"中山路７５８巷２弄６５號","OBJECTID":5654},"geometry":{"x":172824.71762400214,"y":2541602.8629740011}},{"attributes":{"ID":5655,"DIS_CODE":0,"TOWNNAME":"安南區","LI":"公親里","LIN":"2鄰","STREET":"公學路","SECT":"一段","MAREA":" ","LANE":"２５０巷","ALLEY":" ","HOUSE_NO":"５號","E_COORD97":167948.15341699999,"N_COORD97":2553025.20261,"ADDRESS":"公學路一段２５０巷５號","OBJECTID":5655},"geometry":{"x":167948.15341700055,"y":2553025.2026150003}},{"attributes":{"ID":5656,"DIS_CODE":0,"TOWNNAME":"安南區","LI":"公親里","LIN":"2鄰","STREET":"公學路","SECT":"一段","MAREA":" ","LANE":"２５０巷","ALLEY":" ","HOUSE_NO":"６號","E_COORD97":167952.17699599999,"N_COORD97":2553046.3692700001,"ADDRESS":"公學路一段２５０巷６號","OBJECTID":5656},"geometry":{"x":167952.17699600011,"y":2553046.369270999}},{"attributes":{"ID":5657,"DIS_CODE":0,"TOWNNAME":"安南區","LI":"東和里","LIN":"4鄰","STREET":"長和路","SECT":"一段","MAREA":" ","LANE":"８２３巷","ALLEY":" ","HOUSE_NO":"４０１號","E_COORD97":170854.18848000001,"N_COORD97":2550362.2795199999,"ADDRESS":"長和路一段８２３巷４０１號","OBJECTID":5657},"geometry":{"x":170854.18848000094,"y":2550362.2795199994}},{"attributes":{"ID":5658,"DIS_CODE":0,"TOWNNAME":"新市區","LI":"永就里","LIN":"3鄰","STREET":" ","SECT":" ","MAREA":"永就","LANE":" ","ALLEY":" ","HOUSE_NO":"３７之３號","E_COORD97":178492.113342,"N_COORD97":2551444.9009099999,"ADDRESS":"永就３７之３號","OBJECTID":5658},"geometry":{"x":178492.1133420011,"y":2551444.9009109996}},{"attributes":{"ID":5659,"DIS_CODE":0,"TOWNNAME":"山上區","LI":"平陽里","LIN":"2鄰","STREET":" ","SECT":" ","MAREA":"石子崎","LANE":" ","ALLEY":" ","HOUSE_NO":"１６號之３","E_COORD97":186247.707433,"N_COORD97":2553671.7425600002,"ADDRESS":"石子崎１６號之３","OBJECTID":5659},"geometry":{"x":186247.70743300021,"y":2553671.7425610013}},{"attributes":{"ID":5660,"DIS_CODE":0,"TOWNNAME":"歸仁區","LI":"大潭里","LIN":"9鄰","STREET":"長大路","SECT":" ","MAREA":" ","LANE":" ","ALLEY":" ","HOUSE_NO":"１０號","E_COORD97":175491.97,"N_COORD97":2534175.2799999998,"ADDRESS":"長大路１０號","OBJECTID":5660},"geometry":{"x":175491.96999999974,"y":2534175.2799999993}},{"attributes":{"ID":5661,"DIS_CODE":0,"TOWNNAME":"歸仁區","LI":"大潭里","LIN":"9鄰","STREET":"長大路","SECT":" ","MAREA":" ","LANE":" ","ALLEY":" ","HOUSE_NO":"９號","E_COORD97":175444.76999999999,"N_COORD97":2534169.2799999998,"ADDRESS":"長大路９號","OBJECTID":5661},"geometry":{"x":175444.77000000048,"y":2534169.2800000031}},{"attributes":{"ID":5662,"DIS_CODE":0,"TOWNNAME":"歸仁區","LI":"大潭里","LIN":"9鄰","STREET":"長大路","SECT":" ","MAREA":" ","LANE":" ","ALLEY":" ","HOUSE_NO":"１號","E_COORD97":175471.97,"N_COORD97":2534451.2799999998,"ADDRESS":"長大路１號","OBJECTID":5662},"geometry":{"x":175471.9700000016,"y":2534451.2800000012}},{"attributes":{"ID":5663,"DIS_CODE":0,"TOWNNAME":"歸仁區","LI":"大潭里","LIN":"9鄰","STREET":"長大路","SECT":" ","MAREA":" ","LANE":" ","ALLEY":" ","HOUSE_NO":"５０號","E_COORD97":175492.397639,"N_COORD97":2534366.2583300001,"ADDRESS":"長大路５０號","OBJECTID":5663},"geometry":{"x":175492.39763900079,"y":2534366.2583260033}},{"attributes":{"ID":5664,"DIS_CODE":0,"TOWNNAME":"永康區","LI":"\u25A0行里","LIN":"10鄰","STREET":"正南五街","SECT":" ","MAREA":" ","LANE":" ","ALLEY":" ","HOUSE_NO":"２１０號","E_COORD97":172112.38850199999,"N_COORD97":2548190.6329299998,"ADDRESS":"正南五街２１０號","OBJECTID":5664},"geometry":{"x":172112.38850199897,"y":2548190.6329340022}},{"attributes":{"ID":5665,"DIS_CODE":0,"TOWNNAME":"歸仁區","LI":"大潭里","LIN":"9鄰","STREET":"長大路","SECT":" ","MAREA":" ","LANE":" ","ALLEY":" ","HOUSE_NO":"１１號","E_COORD97":175433.710031,"N_COORD97":2534208.5667500002,"ADDRESS":"長大路１１號","OBJECTID":5665},"geometry":{"x":175433.71003099997,"y":2534208.566745}},{"attributes":{"ID":5666,"DIS_CODE":0,"TOWNNAME":"龍崎區","LI":"龍船里","LIN":"9鄰","STREET":" ","SECT":" ","MAREA":"埤子","LANE":" ","ALLEY":" ","HOUSE_NO":"３號","E_COORD97":190946.591568,"N_COORD97":2539280.2713700002,"ADDRESS":"埤子３號","OBJECTID":5666},"geometry":{"x":190946.59156799968,"y":2539280.271368999}},{"attributes":{"ID":5667,"DIS_CODE":0,"TOWNNAME":"永康區","LI":"\u25A0行里","LIN":"9鄰","STREET":"正南五街","SECT":" ","MAREA":" ","LANE":" ","ALLEY":" ","HOUSE_NO":"６５號","E_COORD97":172194.20170100001,"N_COORD97":2548004.57803,"ADDRESS":"正南五街６５號","OBJECTID":5667},"geometry":{"x":172194.20170100126,"y":2548004.5780340023}},{"attributes":{"ID":5668,"DIS_CODE":0,"TOWNNAME":"歸仁區","LI":"大潭里","LIN":"9鄰","STREET":"長大路","SECT":" ","MAREA":" ","LANE":" ","ALLEY":" ","HOUSE_NO":"１５號","E_COORD97":175378.62419,"N_COORD97":2534236.50673,"ADDRESS":"長大路１５號","OBJECTID":5668},"geometry":{"x":175378.62418999989,"y":2534236.5067290012}},{"attributes":{"ID":5669,"DIS_CODE":0,"TOWNNAME":"歸仁區","LI":"大潭里","LIN":"9鄰","STREET":"長大路","SECT":" ","MAREA":" ","LANE":" ","ALLEY":" ","HOUSE_NO":"１７號","E_COORD97":175430.74387100001,"N_COORD97":2534246.6667200001,"ADDRESS":"長大路１７號","OBJECTID":5669},"geometry":{"x":175430.74387099966,"y":2534246.6667240039}},{"attributes":{"ID":5670,"DIS_CODE":0,"TOWNNAME":"山上區","LI":"平陽里","LIN":"2鄰","STREET":" ","SECT":" ","MAREA":"石子崎","LANE":" ","ALLEY":" ","HOUSE_NO":"１６之８號","E_COORD97":186213.38412800001,"N_COORD97":2553667.50923,"ADDRESS":"石子崎１６之８號","OBJECTID":5670},"geometry":{"x":186213.38412800059,"y":2553667.509229999}},{"attributes":{"ID":5671,"DIS_CODE":0,"TOWNNAME":"安南區","LI":"東和里","LIN":"4鄰","STREET":"長和路","SECT":"一段","MAREA":" ","LANE":"８２３巷","ALLEY":" ","HOUSE_NO":"４１９號","E_COORD97":170895.48310000001,"N_COORD97":2550228.08293,"ADDRESS":"長和路一段８２３巷４１９號","OBJECTID":5671},"geometry":{"x":170895.48309999891,"y":2550228.0829260033}},{"attributes":{"ID":5672,"DIS_CODE":0,"TOWNNAME":"歸仁區","LI":"大潭里","LIN":"9鄰","STREET":"長大路","SECT":" ","MAREA":" ","LANE":"３５巷","ALLEY":" ","HOUSE_NO":"２１號","E_COORD97":175416.97240999999,"N_COORD97":2534296.8317,"ADDRESS":"長大路３５巷２１號","OBJECTID":5672},"geometry":{"x":175416.97240999993,"y":2534296.8316969983}},{"attributes":{"ID":5673,"DIS_CODE":0,"TOWNNAME":"新營區","LI":"永生里","LIN":"6鄰","STREET":"光明街","SECT":" ","MAREA":" ","LANE":" ","ALLEY":" ","HOUSE_NO":"２０之１號","E_COORD97":180014.79117000001,"N_COORD97":2578000.8245600001,"ADDRESS":"光明街２０之１號","OBJECTID":5673},"geometry":{"x":180014.79117000103,"y":2578000.8245650008}},{"attributes":{"ID":5674,"DIS_CODE":0,"TOWNNAME":"新營區","LI":"永生里","LIN":"6鄰","STREET":"光明街","SECT":" ","MAREA":" ","LANE":" ","ALLEY":" ","HOUSE_NO":"２０之２號","E_COORD97":180020.93575400001,"N_COORD97":2577993.8395699998,"ADDRESS":"光明街２０之２號","OBJECTID":5674},"geometry":{"x":180020.93575400021,"y":2577993.8395690024}},{"attributes":{"ID":5675,"DIS_CODE":0,"TOWNNAME":"安定區","LI":"中榮里","LIN":"2鄰","STREET":" ","SECT":" ","MAREA":"許中營","LANE":" ","ALLEY":" ","HOUSE_NO":"２２之１號","E_COORD97":172591.91899800001,"N_COORD97":2554782.2494600001,"ADDRESS":"許中營２２之１號","OBJECTID":5675},"geometry":{"x":172591.91899800021,"y":2554782.2494630013}},{"attributes":{"ID":5676,"DIS_CODE":0,"TOWNNAME":"歸仁區","LI":"大潭里","LIN":"17鄰","STREET":"大潭二街","SECT":" ","MAREA":" ","LANE":"３０巷","ALLEY":" ","HOUSE_NO":"６６號","E_COORD97":175005.68244999999,"N_COORD97":2534737.5743800001,"ADDRESS":"大潭二街３０巷６６號","OBJECTID":5676},"geometry":{"x":175005.6824500002,"y":2534737.574376002}},{"attributes":{"ID":5677,"DIS_CODE":0,"TOWNNAME":"中西區","LI":"普濟里","LIN":"6鄰","STREET":"海安路","SECT":"二段","MAREA":" ","LANE":"３０２巷","ALLEY":" ","HOUSE_NO":"３號","E_COORD97":167804.145533,"N_COORD97":2544371.0583000001,"ADDRESS":"海安路二段３０２巷３號","OBJECTID":5677},"geometry":{"x":167804.14553300105,"y":2544371.0583030004}},{"attributes":{"ID":5678,"DIS_CODE":0,"TOWNNAME":"後壁區","LI":"嘉民里","LIN":"3鄰","STREET":" ","SECT":" ","MAREA":"上茄苳","LANE":" ","ALLEY":" ","HOUSE_NO":"１４６之９５號","E_COORD97":186227.16712100001,"N_COORD97":2587674.0172999999,"ADDRESS":"上茄苳１４６之９５號","OBJECTID":5678},"geometry":{"x":186227.16712100059,"y":2587674.0173030011}},{"attributes":{"ID":5679,"DIS_CODE":0,"TOWNNAME":"仁德區","LI":"仁德里","LIN":"35鄰","STREET":"中山路","SECT":" ","MAREA":" ","LANE":"７５８巷","ALLEY":"２弄","HOUSE_NO":"６８號","E_COORD97":172868.41160299999,"N_COORD97":2541565.8213300002,"ADDRESS":"中山路７５８巷２弄６８號","OBJECTID":5679},"geometry":{"x":172868.41160300095,"y":2541565.8213280011}},{"attributes":{"ID":5680,"DIS_CODE":0,"TOWNNAME":"新市區","LI":"新和里","LIN":"23鄰","STREET":"銘傳街","SECT":" ","MAREA":" ","LANE":" ","ALLEY":" ","HOUSE_NO":"１２２號","E_COORD97":177240.73108100001,"N_COORD97":2552682.7280100002,"ADDRESS":"銘傳街１２２號","OBJECTID":5680},"geometry":{"x":177240.73108100053,"y":2552682.7280100025}},{"attributes":{"ID":5681,"DIS_CODE":0,"TOWNNAME":"新市區","LI":"新和里","LIN":"23鄰","STREET":"銘傳街","SECT":" ","MAREA":" ","LANE":" ","ALLEY":" ","HOUSE_NO":"９８號","E_COORD97":177293.272666,"N_COORD97":2552681.03468,"ADDRESS":"銘傳街９８號","OBJECTID":5681},"geometry":{"x":177293.27266600076,"y":2552681.0346780047}},{"attributes":{"ID":5682,"DIS_CODE":0,"TOWNNAME":"龍崎區","LI":"龍船里","LIN":"6鄰","STREET":" ","SECT":" ","MAREA":"龍船窩","LANE":" ","ALLEY":" ","HOUSE_NO":"１４號","E_COORD97":191722.395601,"N_COORD97":2538847.7307699998,"ADDRESS":"龍船窩１４號","OBJECTID":5682},"geometry":{"x":191722.39560099971,"y":2538847.7307690047}},{"attributes":{"ID":5683,"DIS_CODE":0,"TOWNNAME":"新市區","LI":"新和里","LIN":"23鄰","STREET":"銘傳街","SECT":" ","MAREA":" ","LANE":" ","ALLEY":" ","HOUSE_NO":"１２０號","E_COORD97":177244.54458300001,"N_COORD97":2552682.5163400001,"ADDRESS":"銘傳街１２０號","OBJECTID":5683},"geometry":{"x":177244.54458300117,"y":2552682.5163439997}},{"attributes":{"ID":5684,"DIS_CODE":0,"TOWNNAME":"龍崎區","LI":"龍船里","LIN":"6鄰","STREET":" ","SECT":" ","MAREA":"龍船窩","LANE":" ","ALLEY":" ","HOUSE_NO":"１４之１號","E_COORD97":191707.35817699999,"N_COORD97":2538823.1774499998,"ADDRESS":"龍船窩１４之１號","OBJECTID":5684},"geometry":{"x":191707.35817700066,"y":2538823.177449001}},{"attributes":{"ID":5685,"DIS_CODE":0,"TOWNNAME":"新市區","LI":"新和里","LIN":"23鄰","STREET":"銘傳街","SECT":" ","MAREA":" ","LANE":" ","ALLEY":" ","HOUSE_NO":"１１６號","E_COORD97":177254.078339,"N_COORD97":2552682.3046800001,"ADDRESS":"銘傳街１１６號","OBJECTID":5685},"geometry":{"x":177254.07833900023,"y":2552682.3046770003}},{"attributes":{"ID":5686,"DIS_CODE":0,"TOWNNAME":"新市區","LI":"新和里","LIN":"23鄰","STREET":"銘傳街","SECT":" ","MAREA":" ","LANE":" ","ALLEY":" ","HOUSE_NO":"１１２號","E_COORD97":177258.52742500001,"N_COORD97":2552682.5163400001,"ADDRESS":"銘傳街１１２號","OBJECTID":5686},"geometry":{"x":177258.52742500044,"y":2552682.5163439997}},{"attributes":{"ID":5687,"DIS_CODE":0,"TOWNNAME":"新市區","LI":"新和里","LIN":"23鄰","STREET":"銘傳街","SECT":" ","MAREA":" ","LANE":" ","ALLEY":" ","HOUSE_NO":"１１０號","E_COORD97":177263.188372,"N_COORD97":2552682.09301,"ADDRESS":"銘傳街１１０號","OBJECTID":5687},"geometry":{"x":177263.18837200012,"y":2552682.0930100027}},{"attributes":{"ID":5688,"DIS_CODE":0,"TOWNNAME":"新市區","LI":"新和里","LIN":"23鄰","STREET":"銘傳街","SECT":" ","MAREA":" ","LANE":" ","ALLEY":" ","HOUSE_NO":"１０８號","E_COORD97":177267.42559599999,"N_COORD97":2552681.8813399998,"ADDRESS":"銘傳街１０８號","OBJECTID":5688},"geometry":{"x":177267.4255959997,"y":2552681.8813440017}},{"attributes":{"ID":5689,"DIS_CODE":0,"TOWNNAME":"新市區","LI":"新和里","LIN":"23鄰","STREET":"銘傳街","SECT":" ","MAREA":" ","LANE":" ","ALLEY":" ","HOUSE_NO":"１０６號","E_COORD97":177271.66282100001,"N_COORD97":2552681.6696799998,"ADDRESS":"銘傳街１０６號","OBJECTID":5689},"geometry":{"x":177271.6628210023,"y":2552681.6696770005}},{"attributes":{"ID":5690,"DIS_CODE":0,"TOWNNAME":"永康區","LI":"埔園里","LIN":"34鄰","STREET":"永大路","SECT":"三段","MAREA":" ","LANE":"６１８巷","ALLEY":" ","HOUSE_NO":"５９號","E_COORD97":174104.03886,"N_COORD97":2548745.0964000002,"ADDRESS":"永大路三段６１８巷５９號","OBJECTID":5690},"geometry":{"x":174104.03886000067,"y":2548745.0963989999}},{"attributes":{"ID":5691,"DIS_CODE":0,"TOWNNAME":"新市區","LI":"新和里","LIN":"23鄰","STREET":"銘傳街","SECT":" ","MAREA":" ","LANE":" ","ALLEY":" ","HOUSE_NO":"１０２號","E_COORD97":177278.230519,"N_COORD97":2552681.2463400001,"ADDRESS":"銘傳街１０２號","OBJECTID":5691},"geometry":{"x":177278.23051900137,"y":2552681.246344002}},{"attributes":{"ID":5692,"DIS_CODE":0,"TOWNNAME":"新市區","LI":"新和里","LIN":"23鄰","STREET":"銘傳街","SECT":" ","MAREA":" ","LANE":" ","ALLEY":" ","HOUSE_NO":"１００號","E_COORD97":177286.069384,"N_COORD97":2552681.03468,"ADDRESS":"銘傳街１００號","OBJECTID":5692},"geometry":{"x":177286.06938399933,"y":2552681.0346780047}},{"attributes":{"ID":5693,"DIS_CODE":0,"TOWNNAME":"龍崎區","LI":"龍船里","LIN":"6鄰","STREET":" ","SECT":" ","MAREA":"龍船窩","LANE":" ","ALLEY":" ","HOUSE_NO":"１３號","E_COORD97":191639.795663,"N_COORD97":2538774.0708099999,"ADDRESS":"龍船窩１３號","OBJECTID":5693},"geometry":{"x":191639.79566300008,"y":2538774.0708089992}},{"attributes":{"ID":5694,"DIS_CODE":0,"TOWNNAME":"安南區","LI":"公親里","LIN":"7鄰","STREET":"公學路","SECT":"一段","MAREA":" ","LANE":" ","ALLEY":" ","HOUSE_NO":"８０號","E_COORD97":168406.46280099999,"N_COORD97":2553066.9875400001,"ADDRESS":"公學路一段８０號","OBJECTID":5694},"geometry":{"x":168406.46280100103,"y":2553066.9875370003}},{"attributes":{"ID":5695,"DIS_CODE":0,"TOWNNAME":"新營區","LI":"永生里","LIN":"7鄰","STREET":"富源街","SECT":" ","MAREA":" ","LANE":" ","ALLEY":" ","HOUSE_NO":"１３號","E_COORD97":180055.26066999999,"N_COORD97":2577979.3404100002,"ADDRESS":"富源街１３號","OBJECTID":5695},"geometry":{"x":180055.26066999976,"y":2577979.3404100016}},{"attributes":{"ID":5696,"DIS_CODE":0,"TOWNNAME":"永康區","LI":"埔園里","LIN":"34鄰","STREET":"永大路","SECT":"三段","MAREA":" ","LANE":"６１８巷","ALLEY":" ","HOUSE_NO":"５７號","E_COORD97":174099.16398000001,"N_COORD97":2548745.0964000002,"ADDRESS":"永大路三段６１８巷５７號","OBJECTID":5696},"geometry":{"x":174099.16397999879,"y":2548745.0963989999}},{"attributes":{"ID":5697,"DIS_CODE":0,"TOWNNAME":"新市區","LI":"新和里","LIN":"23鄰","STREET":"銘傳街","SECT":" ","MAREA":" ","LANE":" ","ALLEY":" ","HOUSE_NO":"１１８號","E_COORD97":177248.887739,"N_COORD97":2552682.6221799999,"ADDRESS":"銘傳街１１８號","OBJECTID":5697},"geometry":{"x":177248.88773900084,"y":2552682.6221770011}},{"attributes":{"ID":5698,"DIS_CODE":0,"TOWNNAME":"新市區","LI":"新和里","LIN":"23鄰","STREET":"銘傳街","SECT":" ","MAREA":" ","LANE":" ","ALLEY":" ","HOUSE_NO":"９６號","E_COORD97":177298.25140499999,"N_COORD97":2552680.9288400002,"ADDRESS":"銘傳街９６號","OBJECTID":5698},"geometry":{"x":177298.25140500069,"y":2552680.928844003}},{"attributes":{"ID":5699,"DIS_CODE":0,"TOWNNAME":"仁德區","LI":"仁德里","LIN":"35鄰","STREET":"文山路","SECT":" ","MAREA":" ","LANE":" ","ALLEY":" ","HOUSE_NO":"１８號","E_COORD97":172871.30035500001,"N_COORD97":2541771.8884100001,"ADDRESS":"文山路１８號","OBJECTID":5699},"geometry":{"x":172871.30035500042,"y":2541771.8884090018}},{"attributes":{"ID":5700,"DIS_CODE":0,"TOWNNAME":"新市區","LI":"新和里","LIN":"23鄰","STREET":"銘傳街","SECT":" ","MAREA":" ","LANE":" ","ALLEY":" ","HOUSE_NO":"９２號","E_COORD97":177302.700491,"N_COORD97":2552680.9288400002,"ADDRESS":"銘傳街９２號","OBJECTID":5700},"geometry":{"x":177302.70049099997,"y":2552680.928844003}},{"attributes":{"ID":5701,"DIS_CODE":0,"TOWNNAME":"新市區","LI":"新和里","LIN":"23鄰","STREET":"銘傳街","SECT":" ","MAREA":" ","LANE":" ","ALLEY":" ","HOUSE_NO":"９０號","E_COORD97":177307.997022,"N_COORD97":2552681.1405099998,"ADDRESS":"銘傳街９０號","OBJECTID":5701},"geometry":{"x":177307.99702200014,"y":2552681.1405110005}},{"attributes":{"ID":5702,"DIS_CODE":0,"TOWNNAME":"新市區","LI":"新和里","LIN":"23鄰","STREET":"銘傳街","SECT":" ","MAREA":" ","LANE":" ","ALLEY":" ","HOUSE_NO":"８８號","E_COORD97":177313.081691,"N_COORD97":2552681.3521799999,"ADDRESS":"銘傳街８８號","OBJECTID":5702},"geometry":{"x":177313.08169100154,"y":2552681.3521780018}},{"attributes":{"ID":5703,"DIS_CODE":0,"TOWNNAME":"新市區","LI":"新和里","LIN":"23鄰","STREET":"銘傳街","SECT":" ","MAREA":" ","LANE":" ","ALLEY":" ","HOUSE_NO":"８６號","E_COORD97":177317.95449999999,"N_COORD97":2552680.9288400002,"ADDRESS":"銘傳街８６號","OBJECTID":5703},"geometry":{"x":177317.95450000092,"y":2552680.928844003}},{"attributes":{"ID":5704,"DIS_CODE":0,"TOWNNAME":"新市區","LI":"新和里","LIN":"23鄰","STREET":"銘傳街","SECT":" ","MAREA":" ","LANE":" ","ALLEY":" ","HOUSE_NO":"８２號","E_COORD97":177322.191724,"N_COORD97":2552680.50551,"ADDRESS":"銘傳街８２號","OBJECTID":5704},"geometry":{"x":177322.19172399957,"y":2552680.5055110008}},{"attributes":{"ID":5705,"DIS_CODE":0,"TOWNNAME":"安南區","LI":"學東里","LIN":"17鄰","STREET":"安明路","SECT":"四段","MAREA":" ","LANE":" ","ALLEY":" ","HOUSE_NO":"８２６號之３００","E_COORD97":161443.18325999999,"N_COORD97":2553215.9571799999,"ADDRESS":"安明路四段８２６號之３００","OBJECTID":5705},"geometry":{"x":161443.18326000124,"y":2553215.9571780004}},{"attributes":{"ID":5706,"DIS_CODE":0,"TOWNNAME":"山上區","LI":"豐德里","LIN":"1鄰","STREET":" ","SECT":" ","MAREA":"隙子口","LANE":" ","ALLEY":" ","HOUSE_NO":"２號","E_COORD97":185262.356646,"N_COORD97":2553140.7981099999,"ADDRESS":"隙子口２號","OBJECTID":5706},"geometry":{"x":185262.35664600134,"y":2553140.7981090005}},{"attributes":{"ID":5707,"DIS_CODE":0,"TOWNNAME":"新市區","LI":"新和里","LIN":"23鄰","STREET":"銘傳街","SECT":" ","MAREA":" ","LANE":" ","ALLEY":" ","HOUSE_NO":"８０號","E_COORD97":177326.217088,"N_COORD97":2552680.7171800002,"ADDRESS":"銘傳街８０號","OBJECTID":5707},"geometry":{"x":177326.21708799992,"y":2552680.717178002}},{"attributes":{"ID":5708,"DIS_CODE":0,"TOWNNAME":"新營區","LI":"永生里","LIN":"7鄰","STREET":"富源街","SECT":" ","MAREA":" ","LANE":" ","ALLEY":" ","HOUSE_NO":"１之１號","E_COORD97":180115.647107,"N_COORD97":2578008.0212300001,"ADDRESS":"富源街１之１號","OBJECTID":5708},"geometry":{"x":180115.64710700046,"y":2578008.0212280005}},{"attributes":{"ID":5709,"DIS_CODE":0,"TOWNNAME":"新市區","LI":"新和里","LIN":"23鄰","STREET":"銘傳街","SECT":" ","MAREA":" ","LANE":" ","ALLEY":" ","HOUSE_NO":"７８號","E_COORD97":177331.08989599999,"N_COORD97":2552680.7171800002,"ADDRESS":"銘傳街７８號","OBJECTID":5709},"geometry":{"x":177331.08989599999,"y":2552680.717178002}},{"attributes":{"ID":5710,"DIS_CODE":0,"TOWNNAME":"安南區","LI":"學東里","LIN":"16鄰","STREET":"安明路","SECT":"四段","MAREA":" ","LANE":" ","ALLEY":" ","HOUSE_NO":"１３００號之１","E_COORD97":161454.83465,"N_COORD97":2553484.9853699999,"ADDRESS":"安明路四段１３００號之１","OBJECTID":5710},"geometry":{"x":161454.83464999963,"y":2553484.9853660036}},{"attributes":{"ID":5711,"DIS_CODE":0,"TOWNNAME":"新市區","LI":"新和里","LIN":"23鄰","STREET":"銘傳街","SECT":" ","MAREA":" ","LANE":" ","ALLEY":" ","HOUSE_NO":"７６號","E_COORD97":177336.59828800001,"N_COORD97":2552680.7171800002,"ADDRESS":"銘傳街７６號","OBJECTID":5711},"geometry":{"x":177336.59828800149,"y":2552680.717178002}},{"attributes":{"ID":5712,"DIS_CODE":0,"TOWNNAME":"新營區","LI":"永生里","LIN":"7鄰","STREET":"富源街","SECT":" ","MAREA":" ","LANE":" ","ALLEY":" ","HOUSE_NO":"３號","E_COORD97":180109.92628700001,"N_COORD97":2578004.8462299998,"ADDRESS":"富源街３號","OBJECTID":5712},"geometry":{"x":180109.926287001,"y":2578004.8462300021}},{"attributes":{"ID":5713,"DIS_CODE":0,"TOWNNAME":"安南區","LI":"學東里","LIN":"3鄰","STREET":"公學路","SECT":"七段","MAREA":" ","LANE":" ","ALLEY":" ","HOUSE_NO":"６８號","E_COORD97":161871.530727,"N_COORD97":2553406.45707,"ADDRESS":"公學路七段６８號","OBJECTID":5713},"geometry":{"x":161871.53072700091,"y":2553406.4570749998}},{"attributes":{"ID":5714,"DIS_CODE":0,"TOWNNAME":"仁德區","LI":"太子里","LIN":"39鄰","STREET":"太子路","SECT":" ","MAREA":" ","LANE":" ","ALLEY":" ","HOUSE_NO":"１１４號","E_COORD97":174806.130581,"N_COORD97":2543543.5315100001,"ADDRESS":"太子路１１４號","OBJECTID":5714},"geometry":{"x":174806.13058100082,"y":2543543.5315140001}},{"attributes":{"ID":5715,"DIS_CODE":0,"TOWNNAME":"新市區","LI":"新和里","LIN":"23鄰","STREET":"信義街","SECT":" ","MAREA":" ","LANE":" ","ALLEY":" ","HOUSE_NO":"１８號","E_COORD97":177241.47259600001,"N_COORD97":2552689.1838400001,"ADDRESS":"信義街１８號","OBJECTID":5715},"geometry":{"x":177241.47259599995,"y":2552689.183840001}},{"attributes":{"ID":5716,"DIS_CODE":0,"TOWNNAME":"新市區","LI":"新和里","LIN":"23鄰","STREET":"信義街","SECT":" ","MAREA":" ","LANE":" ","ALLEY":" ","HOUSE_NO":"２０號","E_COORD97":177241.89631800001,"N_COORD97":2552695.1105,"ADDRESS":"信義街２０號","OBJECTID":5716},"geometry":{"x":177241.89631800074,"y":2552695.1105029974}},{"attributes":{"ID":5717,"DIS_CODE":0,"TOWNNAME":"山上區","LI":"豐德里","LIN":"3鄰","STREET":" ","SECT":" ","MAREA":"隙子口","LANE":" ","ALLEY":" ","HOUSE_NO":"４７號之１１","E_COORD97":184718.36697,"N_COORD97":2553029.9375700001,"ADDRESS":"隙子口４７號之１１","OBJECTID":5717},"geometry":{"x":184718.36697000079,"y":2553029.9375710022}},{"attributes":{"ID":5718,"DIS_CODE":0,"TOWNNAME":"新市區","LI":"新和里","LIN":"23鄰","STREET":"信義街","SECT":" ","MAREA":" ","LANE":" ","ALLEY":" ","HOUSE_NO":"２６號","E_COORD97":177242.108179,"N_COORD97":2552708.6571599999,"ADDRESS":"信義街２６號","OBJECTID":5718},"geometry":{"x":177242.10817900207,"y":2552708.6571630016}},{"attributes":{"ID":5719,"DIS_CODE":0,"TOWNNAME":"新市區","LI":"新和里","LIN":"23鄰","STREET":"信義街","SECT":" ","MAREA":" ","LANE":" ","ALLEY":" ","HOUSE_NO":"２８號","E_COORD97":177242.95562399999,"N_COORD97":2552713.9488300001,"ADDRESS":"信義街２８號","OBJECTID":5719},"geometry":{"x":177242.9556240011,"y":2552713.9488270022}},{"attributes":{"ID":5720,"DIS_CODE":0,"TOWNNAME":"安南區","LI":"學東里","LIN":"6鄰","STREET":"公學路","SECT":"七段","MAREA":" ","LANE":" ","ALLEY":" ","HOUSE_NO":"１６２之２１號","E_COORD97":161528.97985900001,"N_COORD97":2553533.8803400001,"ADDRESS":"公學路七段１６２之２１號","OBJECTID":5720},"geometry":{"x":161528.97985900007,"y":2553533.8803390004}},{"attributes":{"ID":5721,"DIS_CODE":0,"TOWNNAME":"新營區","LI":"永生里","LIN":"7鄰","STREET":"富源街","SECT":" ","MAREA":" ","LANE":" ","ALLEY":" ","HOUSE_NO":"７號之１","E_COORD97":180098.484647,"N_COORD97":2577994.79207,"ADDRESS":"富源街７號之１","OBJECTID":5721},"geometry":{"x":180098.48464700114,"y":2577994.792067999}},{"attributes":{"ID":5722,"DIS_CODE":0,"TOWNNAME":"仁德區","LI":"中洲里","LIN":"1鄰","STREET":" ","SECT":" ","MAREA":"中洲","LANE":" ","ALLEY":" ","HOUSE_NO":"１號之５１","E_COORD97":173644.97792199999,"N_COORD97":2534530.0052999998,"ADDRESS":"中洲１號之５１","OBJECTID":5722},"geometry":{"x":173644.97792199999,"y":2534530.0053029992}},{"attributes":{"ID":5723,"DIS_CODE":0,"TOWNNAME":"山上區","LI":"豐德里","LIN":"4鄰","STREET":" ","SECT":" ","MAREA":"隙子口","LANE":" ","ALLEY":" ","HOUSE_NO":"４７之１號","E_COORD97":184743.36577199999,"N_COORD97":2553036.2875700002,"ADDRESS":"隙子口４７之１號","OBJECTID":5723},"geometry":{"x":184743.36577199958,"y":2553036.2875679992}},{"attributes":{"ID":5724,"DIS_CODE":0,"TOWNNAME":"東山區","LI":"科里里","LIN":"13鄰","STREET":" ","SECT":" ","MAREA":"枋子林","LANE":" ","ALLEY":" ","HOUSE_NO":"７１號","E_COORD97":188047.25138,"N_COORD97":2576740.25813,"ADDRESS":"枋子林７１號","OBJECTID":5724},"geometry":{"x":188047.25138000026,"y":2576740.2581260018}},{"attributes":{"ID":5725,"DIS_CODE":0,"TOWNNAME":"新市區","LI":"新和里","LIN":"23鄰","STREET":"信義街","SECT":" ","MAREA":" ","LANE":" ","ALLEY":" ","HOUSE_NO":"３０號","E_COORD97":177242.95562399999,"N_COORD97":2552720.0871600001,"ADDRESS":"信義街３０號","OBJECTID":5725},"geometry":{"x":177242.9556240011,"y":2552720.0871569999}},{"attributes":{"ID":5726,"DIS_CODE":0,"TOWNNAME":"新市區","LI":"新和里","LIN":"23鄰","STREET":"信義街","SECT":" ","MAREA":" ","LANE":" ","ALLEY":" ","HOUSE_NO":"３２號","E_COORD97":177242.95562399999,"N_COORD97":2552725.8021499999,"ADDRESS":"信義街３２號","OBJECTID":5726},"geometry":{"x":177242.9556240011,"y":2552725.8021540027}},{"attributes":{"ID":5727,"DIS_CODE":0,"TOWNNAME":"安南區","LI":"學東里","LIN":"6鄰","STREET":"公學路","SECT":"七段","MAREA":" ","LANE":" ","ALLEY":" ","HOUSE_NO":"１６２之８１號","E_COORD97":161481.52692500001,"N_COORD97":2553572.4036500002,"ADDRESS":"公學路七段１６２之８１號","OBJECTID":5727},"geometry":{"x":161481.52692500129,"y":2553572.4036519993}},{"attributes":{"ID":5728,"DIS_CODE":0,"TOWNNAME":"山上區","LI":"豐德里","LIN":"3鄰","STREET":" ","SECT":" ","MAREA":"隙子口","LANE":" ","ALLEY":" ","HOUSE_NO":"４７號之２","E_COORD97":184738.17534300001,"N_COORD97":2553043.0608999999,"ADDRESS":"隙子口４７號之２","OBJECTID":5728},"geometry":{"x":184738.17534300033,"y":2553043.060897002}},{"attributes":{"ID":5729,"DIS_CODE":0,"TOWNNAME":"東山區","LI":"科里里","LIN":"13鄰","STREET":" ","SECT":" ","MAREA":"枋子林","LANE":" ","ALLEY":" ","HOUSE_NO":"７１號之４","E_COORD97":188069.50080000001,"N_COORD97":2576783.2264299998,"ADDRESS":"枋子林７１號之４","OBJECTID":5729},"geometry":{"x":188069.5008000005,"y":2576783.2264300007}},{"attributes":{"ID":5730,"DIS_CODE":0,"TOWNNAME":"新營區","LI":"永生里","LIN":"7鄰","STREET":"富源街","SECT":" ","MAREA":" ","LANE":" ","ALLEY":" ","HOUSE_NO":"９號","E_COORD97":180088.73806500001,"N_COORD97":2577995.8503999999,"ADDRESS":"富源街９號","OBJECTID":5730},"geometry":{"x":180088.73806500062,"y":2577995.8504010029}},{"attributes":{"ID":5731,"DIS_CODE":0,"TOWNNAME":"山上區","LI":"豐德里","LIN":"3鄰","STREET":" ","SECT":" ","MAREA":"隙子口","LANE":" ","ALLEY":" ","HOUSE_NO":"４７之３號","E_COORD97":184731.81971499999,"N_COORD97":2553051.1042300002,"ADDRESS":"隙子口４７之３號","OBJECTID":5731},"geometry":{"x":184731.81971499976,"y":2553051.1042260043}},{"attributes":{"ID":5732,"DIS_CODE":0,"TOWNNAME":"永康區","LI":"埔園里","LIN":"34鄰","STREET":"永大路","SECT":"三段","MAREA":" ","LANE":"６１８巷","ALLEY":"５５弄","HOUSE_NO":"１０號","E_COORD97":174093.673855,"N_COORD97":2548759.48972,"ADDRESS":"永大路三段６１８巷５５弄１０號","OBJECTID":5732},"geometry":{"x":174093.67385500111,"y":2548759.4897240009}},{"attributes":{"ID":5733,"DIS_CODE":0,"TOWNNAME":"仁德區","LI":"太子里","LIN":"39鄰","STREET":"太子路","SECT":" ","MAREA":" ","LANE":" ","ALLEY":" ","HOUSE_NO":"１０２號","E_COORD97":174902.27506000001,"N_COORD97":2543553.1623399998,"ADDRESS":"太子路１０２號","OBJECTID":5733},"geometry":{"x":174902.27506000083,"y":2543553.1623400003}},{"attributes":{"ID":5734,"DIS_CODE":0,"TOWNNAME":"東山區","LI":"科里里","LIN":"13鄰","STREET":" ","SECT":" ","MAREA":"枋子林","LANE":" ","ALLEY":" ","HOUSE_NO":"７２號之１","E_COORD97":188063.77952000001,"N_COORD97":2576748.08978,"ADDRESS":"枋子林７２號之１","OBJECTID":5734},"geometry":{"x":188063.77952000033,"y":2576748.0897799991}},{"attributes":{"ID":5735,"DIS_CODE":0,"TOWNNAME":"永康區","LI":"埔園里","LIN":"34鄰","STREET":"永大路","SECT":"三段","MAREA":" ","LANE":"６１８巷","ALLEY":"５５弄","HOUSE_NO":"１１號","E_COORD97":174089.222878,"N_COORD97":2548762.6647199998,"ADDRESS":"永大路三段６１８巷５５弄１１號","OBJECTID":5735},"geometry":{"x":174089.22287799977,"y":2548762.6647229996}},{"attributes":{"ID":5736,"DIS_CODE":0,"TOWNNAME":"新市區","LI":"新和里","LIN":"23鄰","STREET":"信義街","SECT":" ","MAREA":" ","LANE":"２２巷","ALLEY":" ","HOUSE_NO":"１號","E_COORD97":177246.133543,"N_COORD97":2552708.2338299998,"ADDRESS":"信義街２２巷１號","OBJECTID":5736},"geometry":{"x":177246.13354299963,"y":2552708.2338299993}},{"attributes":{"ID":5737,"DIS_CODE":0,"TOWNNAME":"新市區","LI":"新和里","LIN":"23鄰","STREET":"信義街","SECT":" ","MAREA":" ","LANE":"２２巷","ALLEY":" ","HOUSE_NO":"２號","E_COORD97":177246.133543,"N_COORD97":2552695.3221700001,"ADDRESS":"信義街２２巷２號","OBJECTID":5737},"geometry":{"x":177246.13354299963,"y":2552695.3221700042}},{"attributes":{"ID":5738,"DIS_CODE":0,"TOWNNAME":"新市區","LI":"新和里","LIN":"23鄰","STREET":"信義街","SECT":" ","MAREA":" ","LANE":"２２巷","ALLEY":" ","HOUSE_NO":"３號","E_COORD97":177252.91310199999,"N_COORD97":2552708.2338299998,"ADDRESS":"信義街２２巷３號","OBJECTID":5738},"geometry":{"x":177252.91310199909,"y":2552708.2338299993}},{"attributes":{"ID":5739,"DIS_CODE":0,"TOWNNAME":"仁德區","LI":"太子里","LIN":"39鄰","STREET":"太子路","SECT":" ","MAREA":" ","LANE":" ","ALLEY":" ","HOUSE_NO":"１０６號","E_COORD97":174863.94433599999,"N_COORD97":2543558.0306699998,"ADDRESS":"太子路１０６號","OBJECTID":5739},"geometry":{"x":174863.9443359999,"y":2543558.030673001}},{"attributes":{"ID":5740,"DIS_CODE":0,"TOWNNAME":"新市區","LI":"新和里","LIN":"23鄰","STREET":"信義街","SECT":" ","MAREA":" ","LANE":"２２巷","ALLEY":" ","HOUSE_NO":"６號","E_COORD97":177251.85379600001,"N_COORD97":2552695.5338400002,"ADDRESS":"信義街２２巷６號","OBJECTID":5740},"geometry":{"x":177251.85379599966,"y":2552695.5338369999}},{"attributes":{"ID":5741,"DIS_CODE":0,"TOWNNAME":"山上區","LI":"豐德里","LIN":"3鄰","STREET":" ","SECT":" ","MAREA":"隙子口","LANE":" ","ALLEY":" ","HOUSE_NO":"４７號之６","E_COORD97":184690.19035399999,"N_COORD97":2553076.0808799998,"ADDRESS":"隙子口４７號之６","OBJECTID":5741},"geometry":{"x":184690.19035399891,"y":2553076.0808790009}},{"attributes":{"ID":5742,"DIS_CODE":0,"TOWNNAME":"新市區","LI":"新和里","LIN":"23鄰","STREET":"信義街","SECT":" ","MAREA":" ","LANE":"２２巷","ALLEY":" ","HOUSE_NO":"５號","E_COORD97":177259.268939,"N_COORD97":2552708.0221600002,"ADDRESS":"信義街２２巷５號","OBJECTID":5742},"geometry":{"x":177259.26893900055,"y":2552708.0221630018}},{"attributes":{"ID":5743,"DIS_CODE":0,"TOWNNAME":"仁德區","LI":"仁德里","LIN":"39鄰","STREET":"太子路","SECT":" ","MAREA":" ","LANE":" ","ALLEY":" ","HOUSE_NO":"１０４號","E_COORD97":174875.59179499999,"N_COORD97":2543564.3806699999,"ADDRESS":"太子路１０４號","OBJECTID":5743},"geometry":{"x":174875.59179500211,"y":2543564.3806690015}},{"attributes":{"ID":5744,"DIS_CODE":0,"TOWNNAME":"東山區","LI":"科里里","LIN":"21鄰","STREET":" ","SECT":" ","MAREA":"枋子林","LANE":" ","ALLEY":" ","HOUSE_NO":"７４號","E_COORD97":188063.779523,"N_COORD97":2576748.0897900001,"ADDRESS":"枋子林７４號","OBJECTID":5744},"geometry":{"x":188063.77952300012,"y":2576748.089788001}},{"attributes":{"ID":5745,"DIS_CODE":0,"TOWNNAME":"新市區","LI":"新和里","LIN":"23鄰","STREET":"信義街","SECT":" ","MAREA":" ","LANE":"２２巷","ALLEY":" ","HOUSE_NO":"８號","E_COORD97":177257.57404899999,"N_COORD97":2552695.7455000002,"ADDRESS":"信義街２２巷８號","OBJECTID":5745},"geometry":{"x":177257.57404900156,"y":2552695.7455030028}},{"attributes":{"ID":5746,"DIS_CODE":0,"TOWNNAME":"新市區","LI":"新和里","LIN":"23鄰","STREET":"信義街","SECT":" ","MAREA":" ","LANE":"２２巷","ALLEY":" ","HOUSE_NO":"１０號","E_COORD97":177262.446857,"N_COORD97":2552695.9571699998,"ADDRESS":"信義街２２巷１０號","OBJECTID":5746},"geometry":{"x":177262.44685699884,"y":2552695.957170004}},{"attributes":{"ID":5747,"DIS_CODE":0,"TOWNNAME":"山上區","LI":"豐德里","LIN":"3鄰","STREET":" ","SECT":" ","MAREA":"隙子口","LANE":" ","ALLEY":" ","HOUSE_NO":"４７號之７","E_COORD97":184693.36816700001,"N_COORD97":2553065.2858899999,"ADDRESS":"隙子口４７號之７","OBJECTID":5747},"geometry":{"x":184693.36816700175,"y":2553065.2858850025}},{"attributes":{"ID":5748,"DIS_CODE":0,"TOWNNAME":"新市區","LI":"新和里","LIN":"23鄰","STREET":"信義街","SECT":" ","MAREA":" ","LANE":"２２巷","ALLEY":" ","HOUSE_NO":"９號","E_COORD97":177271.133168,"N_COORD97":2552708.2338299998,"ADDRESS":"信義街２２巷９號","OBJECTID":5748},"geometry":{"x":177271.13316800073,"y":2552708.2338299993}},{"attributes":{"ID":5749,"DIS_CODE":0,"TOWNNAME":"山上區","LI":"豐德里","LIN":"3鄰","STREET":" ","SECT":" ","MAREA":"隙子口","LANE":" ","ALLEY":" ","HOUSE_NO":"４７號之８","E_COORD97":184698.98230500001,"N_COORD97":2553058.7242200002,"ADDRESS":"隙子口４７號之８","OBJECTID":5749},"geometry":{"x":184698.9823049996,"y":2553058.7242220026}},{"attributes":{"ID":5750,"DIS_CODE":0,"TOWNNAME":"新市區","LI":"新和里","LIN":"23鄰","STREET":"信義街","SECT":" ","MAREA":" ","LANE":"２２巷","ALLEY":" ","HOUSE_NO":"１２號","E_COORD97":177267.107804,"N_COORD97":2552696.1688399999,"ADDRESS":"信義街２２巷１２號","OBJECTID":5750},"geometry":{"x":177267.10780400131,"y":2552696.1688360013}},{"attributes":{"ID":5751,"DIS_CODE":0,"TOWNNAME":"新市區","LI":"新和里","LIN":"23鄰","STREET":"信義街","SECT":" ","MAREA":" ","LANE":"２２巷","ALLEY":" ","HOUSE_NO":"１１號","E_COORD97":177274.84073900001,"N_COORD97":2552708.0221600002,"ADDRESS":"信義街２２巷１１號","OBJECTID":5751},"geometry":{"x":177274.84073900059,"y":2552708.0221630018}},{"attributes":{"ID":5752,"DIS_CODE":0,"TOWNNAME":"新市區","LI":"新和里","LIN":"23鄰","STREET":"信義街","SECT":" ","MAREA":" ","LANE":"２２巷","ALLEY":" ","HOUSE_NO":"１６號","E_COORD97":177271.87468199999,"N_COORD97":2552696.2746700002,"ADDRESS":"信義街２２巷１６號","OBJECTID":5752},"geometry":{"x":177271.87468200084,"y":2552696.2746690009}},{"attributes":{"ID":5753,"DIS_CODE":0,"TOWNNAME":"新市區","LI":"新和里","LIN":"23鄰","STREET":"信義街","SECT":" ","MAREA":" ","LANE":"２２巷","ALLEY":" ","HOUSE_NO":"７號","E_COORD97":177264.98919200001,"N_COORD97":2552708.2338299998,"ADDRESS":"信義街２２巷７號","OBJECTID":5753},"geometry":{"x":177264.98919200059,"y":2552708.2338299993}},{"attributes":{"ID":5754,"DIS_CODE":0,"TOWNNAME":"新市區","LI":"新和里","LIN":"23鄰","STREET":"信義街","SECT":" ","MAREA":" ","LANE":"２２巷","ALLEY":" ","HOUSE_NO":"１３號","E_COORD97":177278.33645,"N_COORD97":2552708.2338299998,"ADDRESS":"信義街２２巷１３號","OBJECTID":5754},"geometry":{"x":177278.33645000122,"y":2552708.2338299993}},{"attributes":{"ID":5755,"DIS_CODE":0,"TOWNNAME":"新市區","LI":"新和里","LIN":"23鄰","STREET":"信義街","SECT":" ","MAREA":" ","LANE":"２２巷","ALLEY":" ","HOUSE_NO":"１８號","E_COORD97":177274.94667,"N_COORD97":2552696.3805,"ADDRESS":"信義街２２巷１８號","OBJECTID":5755},"geometry":{"x":177274.94667000044,"y":2552696.3805030026}},{"attributes":{"ID":5756,"DIS_CODE":0,"TOWNNAME":"新市區","LI":"新和里","LIN":"23鄰","STREET":"信義街","SECT":" ","MAREA":" ","LANE":"２２巷","ALLEY":" ","HOUSE_NO":"１５號","E_COORD97":177281.30250699999,"N_COORD97":2552707.9163299999,"ADDRESS":"信義街２２巷１５號","OBJECTID":5756},"geometry":{"x":177281.30250700004,"y":2552707.9163300004}},{"attributes":{"ID":5757,"DIS_CODE":0,"TOWNNAME":"新市區","LI":"新和里","LIN":"23鄰","STREET":"信義街","SECT":" ","MAREA":" ","LANE":"２２巷","ALLEY":" ","HOUSE_NO":"２０號","E_COORD97":177278.972033,"N_COORD97":2552696.3805,"ADDRESS":"信義街２２巷２０號","OBJECTID":5757},"geometry":{"x":177278.97203300148,"y":2552696.3805030026}},{"attributes":{"ID":5758,"DIS_CODE":0,"TOWNNAME":"新市區","LI":"新和里","LIN":"23鄰","STREET":"信義街","SECT":" ","MAREA":" ","LANE":"２２巷","ALLEY":" ","HOUSE_NO":"１７號","E_COORD97":177284.58635600001,"N_COORD97":2552708.128,"ADDRESS":"信義街２２巷１７號","OBJECTID":5758},"geometry":{"x":177284.58635600004,"y":2552708.1279960033}},{"attributes":{"ID":5759,"DIS_CODE":0,"TOWNNAME":"仁德區","LI":"太子里","LIN":"39鄰","STREET":"太子路","SECT":" ","MAREA":" ","LANE":" ","ALLEY":" ","HOUSE_NO":"９６號","E_COORD97":174949.71199400001,"N_COORD97":2543565.0156700001,"ADDRESS":"太子路９６號","OBJECTID":5759},"geometry":{"x":174949.71199399978,"y":2543565.0156690013}},{"attributes":{"ID":5760,"DIS_CODE":0,"TOWNNAME":"新市區","LI":"新和里","LIN":"23鄰","STREET":"信義街","SECT":" ","MAREA":" ","LANE":"２２巷","ALLEY":" ","HOUSE_NO":"２２號","E_COORD97":177281.72622899999,"N_COORD97":2552696.2746700002,"ADDRESS":"信義街２２巷２２號","OBJECTID":5760},"geometry":{"x":177281.72622900084,"y":2552696.2746690009}},{"attributes":{"ID":5761,"DIS_CODE":0,"TOWNNAME":"永康區","LI":"王行里","LIN":"2鄰","STREET":"永科南路","SECT":" ","MAREA":" ","LANE":" ","ALLEY":" ","HOUSE_NO":"１００號","E_COORD97":176215.518262,"N_COORD97":2548202.9125299999,"ADDRESS":"永科南路１００號","OBJECTID":5761},"geometry":{"x":176215.51826199982,"y":2548202.9125250019}},{"attributes":{"ID":5762,"DIS_CODE":0,"TOWNNAME":"新市區","LI":"新和里","LIN":"23鄰","STREET":"信義街","SECT":" ","MAREA":" ","LANE":"２２巷","ALLEY":" ","HOUSE_NO":"１９號","E_COORD97":177287.446482,"N_COORD97":2552707.8105000001,"ADDRESS":"信義街２２巷１９號","OBJECTID":5762},"geometry":{"x":177287.44648200087,"y":2552707.8104970008}},{"attributes":{"ID":5763,"DIS_CODE":0,"TOWNNAME":"新營區","LI":"永生里","LIN":"7鄰","STREET":"富源街","SECT":" ","MAREA":" ","LANE":" ","ALLEY":" ","HOUSE_NO":"１５號","E_COORD97":180048.69232500001,"N_COORD97":2577976.0595800001,"ADDRESS":"富源街１５號","OBJECTID":5763},"geometry":{"x":180048.69232499972,"y":2577976.0595789999}},{"attributes":{"ID":5764,"DIS_CODE":0,"TOWNNAME":"仁德區","LI":"太子里","LIN":"39鄰","STREET":"太子路","SECT":" ","MAREA":" ","LANE":" ","ALLEY":" ","HOUSE_NO":"９４號","E_COORD97":174964.11249,"N_COORD97":2543590.2039899998,"ADDRESS":"太子路９４號","OBJECTID":5764},"geometry":{"x":174964.11249000113,"y":2543590.2039889991}},{"attributes":{"ID":5765,"DIS_CODE":0,"TOWNNAME":"新市區","LI":"新和里","LIN":"23鄰","STREET":"信義街","SECT":" ","MAREA":" ","LANE":"２２巷","ALLEY":" ","HOUSE_NO":"２６號","E_COORD97":177284.692286,"N_COORD97":2552696.3805,"ADDRESS":"信義街２２巷２６號","OBJECTID":5765},"geometry":{"x":177284.69228600152,"y":2552696.3805030026}},{"attributes":{"ID":5766,"DIS_CODE":0,"TOWNNAME":"新市區","LI":"新和里","LIN":"23鄰","STREET":"信義街","SECT":" ","MAREA":" ","LANE":"２２巷","ALLEY":" ","HOUSE_NO":"２１號","E_COORD97":177290.30660899999,"N_COORD97":2552707.9163299999,"ADDRESS":"信義街２２巷２１號","OBJECTID":5766},"geometry":{"x":177290.30660900008,"y":2552707.9163300004}},{"attributes":{"ID":5767,"DIS_CODE":0,"TOWNNAME":"新市區","LI":"新和里","LIN":"23鄰","STREET":"信義街","SECT":" ","MAREA":" ","LANE":"２２巷","ALLEY":" ","HOUSE_NO":"２８號","E_COORD97":177287.23462100001,"N_COORD97":2552696.4863399998,"ADDRESS":"信義街２２巷２８號","OBJECTID":5767},"geometry":{"x":177287.23462100048,"y":2552696.4863360021}},{"attributes":{"ID":5768,"DIS_CODE":0,"TOWNNAME":"中西區","LI":"普濟里","LIN":"16鄰","STREET":"海安路","SECT":"二段","MAREA":" ","LANE":"３３０巷","ALLEY":" ","HOUSE_NO":"６號","E_COORD97":167838.09,"N_COORD97":2544442.8599999999,"ADDRESS":"海安路二段３３０巷６號","OBJECTID":5768},"geometry":{"x":167838.09000000078,"y":2544442.8600000013}},{"attributes":{"ID":5769,"DIS_CODE":0,"TOWNNAME":"永康區","LI":"甲頂里","LIN":"30鄰","STREET":"中華路","SECT":" ","MAREA":" ","LANE":" ","ALLEY":" ","HOUSE_NO":"１０２８號","E_COORD97":169508.531506,"N_COORD97":2547080.55063,"ADDRESS":"中華路１０２８號","OBJECTID":5769},"geometry":{"x":169508.53150600102,"y":2547080.5506310035}},{"attributes":{"ID":5770,"DIS_CODE":0,"TOWNNAME":"新市區","LI":"新和里","LIN":"23鄰","STREET":"信義街","SECT":" ","MAREA":" ","LANE":"２２巷","ALLEY":" ","HOUSE_NO":"２３號","E_COORD97":177292.63708300001,"N_COORD97":2552708.0221600002,"ADDRESS":"信義街２２巷２３號","OBJECTID":5770},"geometry":{"x":177292.6370830005,"y":2552708.0221630018}},{"attributes":{"ID":5771,"DIS_CODE":0,"TOWNNAME":"新市區","LI":"新和里","LIN":"23鄰","STREET":"信義街","SECT":" ","MAREA":" ","LANE":"２２巷","ALLEY":" ","HOUSE_NO":"３０號","E_COORD97":177289.67102499999,"N_COORD97":2552696.6979999999,"ADDRESS":"信義街２２巷３０號","OBJECTID":5771},"geometry":{"x":177289.67102499865,"y":2552696.6980029996}},{"attributes":{"ID":5772,"DIS_CODE":0,"TOWNNAME":"新市區","LI":"新和里","LIN":"23鄰","STREET":"信義街","SECT":" ","MAREA":" ","LANE":"２２巷","ALLEY":" ","HOUSE_NO":"２５號","E_COORD97":177294.86162499999,"N_COORD97":2552707.8105000001,"ADDRESS":"信義街２２巷２５號","OBJECTID":5772},"geometry":{"x":177294.8616249999,"y":2552707.8104970008}},{"attributes":{"ID":5773,"DIS_CODE":0,"TOWNNAME":"新市區","LI":"新和里","LIN":"23鄰","STREET":"信義街","SECT":" ","MAREA":" ","LANE":"２２巷","ALLEY":" ","HOUSE_NO":"３２號","E_COORD97":177292.848944,"N_COORD97":2552696.4863399998,"ADDRESS":"信義街２２巷３２號","OBJECTID":5773},"geometry":{"x":177292.84894400183,"y":2552696.4863360021}},{"attributes":{"ID":5774,"DIS_CODE":0,"TOWNNAME":"新市區","LI":"新和里","LIN":"23鄰","STREET":"信義街","SECT":" ","MAREA":" ","LANE":"２２巷","ALLEY":" ","HOUSE_NO":"２７號","E_COORD97":177297.61582100001,"N_COORD97":2552708.0221600002,"ADDRESS":"信義街２２巷２７號","OBJECTID":5774},"geometry":{"x":177297.61582100205,"y":2552708.0221630018}},{"attributes":{"ID":5775,"DIS_CODE":0,"TOWNNAME":"新市區","LI":"新和里","LIN":"23鄰","STREET":"信義街","SECT":" ","MAREA":" ","LANE":"２２巷","ALLEY":" ","HOUSE_NO":"３６號","E_COORD97":177295.60313999999,"N_COORD97":2552696.4863399998,"ADDRESS":"信義街２２巷３６號","OBJECTID":5775},"geometry":{"x":177295.60314000119,"y":2552696.4863360021}},{"attributes":{"ID":5776,"DIS_CODE":0,"TOWNNAME":"新市區","LI":"新和里","LIN":"23鄰","STREET":"信義街","SECT":" ","MAREA":" ","LANE":"２２巷","ALLEY":" ","HOUSE_NO":"２９號","E_COORD97":177300.15815599999,"N_COORD97":2552707.9163299999,"ADDRESS":"信義街２２巷２９號","OBJECTID":5776},"geometry":{"x":177300.15815600101,"y":2552707.9163300004}},{"attributes":{"ID":5777,"DIS_CODE":0,"TOWNNAME":"山上區","LI":"豐德里","LIN":"3鄰","STREET":" ","SECT":" ","MAREA":"隙子口","LANE":" ","ALLEY":" ","HOUSE_NO":"４７號之９","E_COORD97":184704.80829700001,"N_COORD97":2553052.7975599999,"ADDRESS":"隙子口４７號之９","OBJECTID":5777},"geometry":{"x":184704.80829700083,"y":2553052.7975590024}},{"attributes":{"ID":5778,"DIS_CODE":0,"TOWNNAME":"新市區","LI":"新和里","LIN":"23鄰","STREET":"信義街","SECT":" ","MAREA":" ","LANE":"２２巷","ALLEY":" ","HOUSE_NO":"３８號","E_COORD97":177298.569197,"N_COORD97":2552696.1688399999,"ADDRESS":"信義街２２巷３８號","OBJECTID":5778},"geometry":{"x":177298.56919700094,"y":2552696.1688360013}},{"attributes":{"ID":5779,"DIS_CODE":0,"TOWNNAME":"新市區","LI":"新和里","LIN":"23鄰","STREET":"信義街","SECT":" ","MAREA":" ","LANE":"２２巷","ALLEY":" ","HOUSE_NO":"３１號","E_COORD97":177303.336075,"N_COORD97":2552707.8105000001,"ADDRESS":"信義街２２巷３１號","OBJECTID":5779},"geometry":{"x":177303.33607500046,"y":2552707.8104970008}},{"attributes":{"ID":5780,"DIS_CODE":0,"TOWNNAME":"山上區","LI":"豐德里","LIN":"3鄰","STREET":" ","SECT":" ","MAREA":"隙子口","LANE":" ","ALLEY":" ","HOUSE_NO":"４７之１０號","E_COORD97":184713.07061299999,"N_COORD97":2553041.5792299998,"ADDRESS":"隙子口４７之１０號","OBJECTID":5780},"geometry":{"x":184713.07061300054,"y":2553041.5792310014}},{"attributes":{"ID":5781,"DIS_CODE":0,"TOWNNAME":"新市區","LI":"新和里","LIN":"23鄰","STREET":"信義街","SECT":" ","MAREA":" ","LANE":"２２巷","ALLEY":" ","HOUSE_NO":"４０號","E_COORD97":177301.37635800001,"N_COORD97":2552696.5392499999,"ADDRESS":"信義街２２巷４０號","OBJECTID":5781},"geometry":{"x":177301.37635800149,"y":2552696.5392530002}},{"attributes":{"ID":5782,"DIS_CODE":0,"TOWNNAME":"中西區","LI":"普濟里","LIN":"16鄰","STREET":"海安路","SECT":"二段","MAREA":" ","LANE":"３３０巷","ALLEY":" ","HOUSE_NO":"１號","E_COORD97":167837.09091599999,"N_COORD97":2544451.4386800001,"ADDRESS":"海安路二段３３０巷１號","OBJECTID":5782},"geometry":{"x":167837.09091600124,"y":2544451.4386759996}},{"attributes":{"ID":5783,"DIS_CODE":0,"TOWNNAME":"新營區","LI":"永生里","LIN":"8鄰","STREET":"康樂街","SECT":" ","MAREA":" ","LANE":" ","ALLEY":" ","HOUSE_NO":"８之２號","E_COORD97":180043.39525999999,"N_COORD97":2577940.81709,"ADDRESS":"康樂街８之２號","OBJECTID":5783},"geometry":{"x":180043.3952600006,"y":2577940.817090001}},{"attributes":{"ID":5784,"DIS_CODE":0,"TOWNNAME":"永康區","LI":"\u25A0行里","LIN":" ","STREET":"正南三路","SECT":" ","MAREA":" ","LANE":" ","ALLEY":" ","HOUSE_NO":"１２９號","E_COORD97":171751.56,"N_COORD97":2547691.25,"ADDRESS":"正南三路１２９號","OBJECTID":5784},"geometry":{"x":171751.55999999959,"y":2547691.2500000019}},{"attributes":{"ID":5785,"DIS_CODE":0,"TOWNNAME":"永康區","LI":"\u25A0行里","LIN":"33鄰","STREET":" 中正北路","SECT":" ","MAREA":" ","LANE":"１９巷","ALLEY":" ","HOUSE_NO":"３號之１","E_COORD97":171919.14408599999,"N_COORD97":2549109.5859500002,"ADDRESS":" 中正北路１９巷３號之１","OBJECTID":5785},"geometry":{"x":171919.14408600051,"y":2549109.5859510005}},{"attributes":{"ID":5786,"DIS_CODE":0,"TOWNNAME":"永康區","LI":"\u25A0行里","LIN":" ","STREET":"仁愛街","SECT":" ","MAREA":" ","LANE":" ","ALLEY":" ","HOUSE_NO":"９４號","E_COORD97":172053.45000000001,"N_COORD97":2549436.4100000001,"ADDRESS":"仁愛街９４號","OBJECTID":5786},"geometry":{"x":172053.45000000205,"y":2549436.410000002}},{"attributes":{"ID":5787,"DIS_CODE":0,"TOWNNAME":"永康區","LI":"\u25A0行里","LIN":" ","STREET":"中正路","SECT":" ","MAREA":" ","LANE":" ","ALLEY":" ","HOUSE_NO":"７１６號","E_COORD97":172004.10999999999,"N_COORD97":2548899.75,"ADDRESS":"中正路７１６號","OBJECTID":5787},"geometry":{"x":172004.11000000127,"y":2548899.75}},{"attributes":{"ID":5788,"DIS_CODE":0,"TOWNNAME":"永康區","LI":"\u25A0行里","LIN":" ","STREET":"中正北路","SECT":" ","MAREA":" ","LANE":" ","ALLEY":" ","HOUSE_NO":"１２１號","E_COORD97":172167,"N_COORD97":2549102.5,"ADDRESS":"中正北路１２１號","OBJECTID":5788},"geometry":{"x":172167.00000000093,"y":2549102.5}},{"attributes":{"ID":5789,"DIS_CODE":0,"TOWNNAME":"永康區","LI":"\u25A0行里","LIN":" ","STREET":"中正北路","SECT":" ","MAREA":" ","LANE":" ","ALLEY":" ","HOUSE_NO":"２５３之１號","E_COORD97":172682.82000000001,"N_COORD97":2549117.5299999998,"ADDRESS":"中正北路２５３之１號","OBJECTID":5789},"geometry":{"x":172682.8200000003,"y":2549117.5299999993}},{"attributes":{"ID":5790,"DIS_CODE":0,"TOWNNAME":"永康區","LI":"\u25A0行里","LIN":" ","STREET":"中正七街","SECT":" ","MAREA":" ","LANE":" ","ALLEY":" ","HOUSE_NO":"１６號","E_COORD97":172082.60999999999,"N_COORD97":2548872.9500000002,"ADDRESS":"中正七街１６號","OBJECTID":5790},"geometry":{"x":172082.61000000034,"y":2548872.9500000011}},{"attributes":{"ID":5791,"DIS_CODE":0,"TOWNNAME":"永康區","LI":"\u25A0行里","LIN":" ","STREET":"仁愛街","SECT":" ","MAREA":" ","LANE":"１３６巷","ALLEY":" ","HOUSE_NO":"１７號","E_COORD97":172213.32999999999,"N_COORD97":2549607.02,"ADDRESS":"仁愛街１３６巷１７號","OBJECTID":5791},"geometry":{"x":172213.33000000007,"y":2549607.0199999996}},{"attributes":{"ID":5792,"DIS_CODE":0,"TOWNNAME":"永康區","LI":"\u25A0行里","LIN":" ","STREET":"中正路","SECT":" ","MAREA":" ","LANE":"９３２巷","ALLEY":" ","HOUSE_NO":"９３４之１號","E_COORD97":172033.17000000001,"N_COORD97":2548946.04,"ADDRESS":"中正路９３２巷９３４之１號","OBJECTID":5792},"geometry":{"x":172033.17000000086,"y":2548946.0400000028}},{"attributes":{"ID":5793,"DIS_CODE":0,"TOWNNAME":"永康區","LI":"\u25A0行里","LIN":" ","STREET":"中正七街","SECT":" ","MAREA":" ","LANE":" ","ALLEY":" ","HOUSE_NO":"１５之１號","E_COORD97":172053.10999999999,"N_COORD97":2548869.7999999998,"ADDRESS":"中正七街１５之１號","OBJECTID":5793},"geometry":{"x":172053.11000000127,"y":2548869.8000000007}},{"attributes":{"ID":5794,"DIS_CODE":0,"TOWNNAME":"永康區","LI":"\u25A0行里","LIN":" ","STREET":"三村一街","SECT":" ","MAREA":" ","LANE":" ","ALLEY":" ","HOUSE_NO":"１２０號","E_COORD97":172077.64999999999,"N_COORD97":2549251,"ADDRESS":"三村一街１２０號","OBJECTID":5794},"geometry":{"x":172077.65000000224,"y":2549251}},{"attributes":{"ID":5795,"DIS_CODE":0,"TOWNNAME":"永康區","LI":"\u25A0行里","LIN":" ","STREET":"中正路","SECT":" ","MAREA":" ","LANE":"９２巷","ALLEY":" ","HOUSE_NO":"５號","E_COORD97":172045.94,"N_COORD97":2548899.3999999999,"ADDRESS":"中正路９２巷５號","OBJECTID":5795},"geometry":{"x":172045.94000000134,"y":2548899.4000000004}},{"attributes":{"ID":5796,"DIS_CODE":0,"TOWNNAME":"永康區","LI":"\u25A0行里","LIN":" ","STREET":"中正南路","SECT":" ","MAREA":" ","LANE":"４９０巷","ALLEY":" ","HOUSE_NO":"１３１號","E_COORD97":171872.19,"N_COORD97":2547807.4900000002,"ADDRESS":"中正南路４９０巷１３１號","OBJECTID":5796},"geometry":{"x":171872.19000000041,"y":2547807.4900000002}},{"attributes":{"ID":5797,"DIS_CODE":0,"TOWNNAME":"永康區","LI":"\u25A0行里","LIN":" ","STREET":"中正南路","SECT":" ","MAREA":" ","LANE":" ","ALLEY":" ","HOUSE_NO":"７４０號","E_COORD97":171728.79999999999,"N_COORD97":2548954.2400000002,"ADDRESS":"中正南路７４０號","OBJECTID":5797},"geometry":{"x":171728.80000000075,"y":2548954.2400000002}},{"attributes":{"ID":5798,"DIS_CODE":0,"TOWNNAME":"永康區","LI":"\u25A0行里","LIN":" ","STREET":"中正北路","SECT":" ","MAREA":" ","LANE":" ","ALLEY":" ","HOUSE_NO":"３１３號","E_COORD97":172864.89000000001,"N_COORD97":2549160.7400000002,"ADDRESS":"中正北路３１３號","OBJECTID":5798},"geometry":{"x":172864.88999999966,"y":2549160.7400000021}},{"attributes":{"ID":5799,"DIS_CODE":0,"TOWNNAME":"永康區","LI":"\u25A0行里","LIN":" ","STREET":"中正七街","SECT":" ","MAREA":" ","LANE":" ","ALLEY":" ","HOUSE_NO":"８８號","E_COORD97":172166.73999999999,"N_COORD97":2548962,"ADDRESS":"中正七街８８號","OBJECTID":5799},"geometry":{"x":172166.74000000209,"y":2548962.0000000019}},{"attributes":{"ID":5800,"DIS_CODE":0,"TOWNNAME":"永康區","LI":"\u25A0行里","LIN":"18鄰","STREET":"中正南路","SECT":" ","MAREA":" ","LANE":" ","ALLEY":" ","HOUSE_NO":"６８０號","E_COORD97":171604.67999999999,"N_COORD97":2548839.9900000002,"ADDRESS":"中正南路６８０號","OBJECTID":5800},"geometry":{"x":171604.68000000063,"y":2548839.9900000021}}]}