{"displayFieldName":"TOWNNAME","fieldAliases":{"ID":"ID","DIS_CODE":"DIS_CODE","TOWNNAME":"TOWNNAME","LI":"LI","LIN":"LIN","STREET":"STREET","SECT":"SECT","MAREA":"MAREA","LANE":"LANE","ALLEY":"ALLEY","HOUSE_NO":"HOUSE_NO","E_COORD97":"E_COORD97","N_COORD97":"N_COORD97","ADDRESS":"ADDRESS","OBJECTID":"OBJECTID"},"geometryType":"esriGeometryPoint","spatialReference":{"wkid":102443,"latestWkid":3826},"fields":[{"name":"ID","type":"esriFieldTypeDouble","alias":"ID"},{"name":"DIS_CODE","type":"esriFieldTypeInteger","alias":"DIS_CODE"},{"name":"TOWNNAME","type":"esriFieldTypeString","alias":"TOWNNAME","length":8},{"name":"LI","type":"esriFieldTypeString","alias":"LI","length":8},{"name":"LIN","type":"esriFieldTypeString","alias":"LIN","length":12},{"name":"STREET","type":"esriFieldTypeString","alias":"STREET","length":20},{"name":"SECT","type":"esriFieldTypeString","alias":"SECT","length":8},{"name":"MAREA","type":"esriFieldTypeString","alias":"MAREA","length":12},{"name":"LANE","type":"esriFieldTypeString","alias":"LANE","length":10},{"name":"ALLEY","type":"esriFieldTypeString","alias":"ALLEY","length":10},{"name":"HOUSE_NO","type":"esriFieldTypeString","alias":"HOUSE_NO","length":20},{"name":"E_COORD97","type":"esriFieldTypeDouble","alias":"E_COORD97"},{"name":"N_COORD97","type":"esriFieldTypeDouble","alias":"N_COORD97"},{"name":"ADDRESS","type":"esriFieldTypeString","alias":"ADDRESS","length":50},{"name":"OBJECTID","type":"esriFieldTypeOID","alias":"OBJECTID"}],"features":[{"attributes":{"ID":113801,"DIS_CODE":0,"TOWNNAME":"永康區","LI":"正強里","LIN":"28鄰","STREET":"中正路","SECT":" ","MAREA":" ","LANE":"１５５巷","ALLEY":"６弄","HOUSE_NO":"２５號","E_COORD97":173158.32000000001,"N_COORD97":2547816.7400000002,"ADDRESS":"中正路１５５巷６弄２５號","OBJECTID":113801},"geometry":{"x":173158.32000000123,"y":2547816.7400000039}},{"attributes":{"ID":113802,"DIS_CODE":0,"TOWNNAME":"新化區","LI":"礁坑里","LIN":"1鄰","STREET":" ","SECT":" ","MAREA":"三十六崙","LANE":" ","ALLEY":" ","HOUSE_NO":"１０９號","E_COORD97":185154.87,"N_COORD97":2549634.25,"ADDRESS":"三十六崙１０９號","OBJECTID":113802},"geometry":{"x":185154.87000000104,"y":2549634.2500000019}},{"attributes":{"ID":113803,"DIS_CODE":0,"TOWNNAME":"西港區","LI":"西港里","LIN":"1鄰","STREET":" ","SECT":" ","MAREA":"中州","LANE":" ","ALLEY":" ","HOUSE_NO":"２４號之２０","E_COORD97":167717.41,"N_COORD97":2559798.2200000002,"ADDRESS":"中州２４號之２０","OBJECTID":113803},"geometry":{"x":167717.41000000201,"y":2559798.2200000007}},{"attributes":{"ID":113804,"DIS_CODE":0,"TOWNNAME":"西港區","LI":"西港里","LIN":"1鄰","STREET":" ","SECT":" ","MAREA":"中州","LANE":" ","ALLEY":" ","HOUSE_NO":"２４號之２１","E_COORD97":167730.01999999999,"N_COORD97":2559792.4900000002,"ADDRESS":"中州２４號之２１","OBJECTID":113804},"geometry":{"x":167730.02000000048,"y":2559792.4900000002}},{"attributes":{"ID":113805,"DIS_CODE":0,"TOWNNAME":"西港區","LI":"西港里","LIN":"1鄰","STREET":" ","SECT":" ","MAREA":"中州","LANE":" ","ALLEY":" ","HOUSE_NO":"２４號之２","E_COORD97":167694.87,"N_COORD97":2559834.5,"ADDRESS":"中州２４號之２","OBJECTID":113805},"geometry":{"x":167694.87000000011,"y":2559834.5000000019}},{"attributes":{"ID":113806,"DIS_CODE":0,"TOWNNAME":"西港區","LI":"西港里","LIN":"1鄰","STREET":" ","SECT":" ","MAREA":"中州","LANE":" ","ALLEY":" ","HOUSE_NO":"２４號之３０","E_COORD97":167461.60000000001,"N_COORD97":2560142.5699999998,"ADDRESS":"中州２４號之３０","OBJECTID":113806},"geometry":{"x":167461.60000000056,"y":2560142.5700000022}},{"attributes":{"ID":113807,"DIS_CODE":0,"TOWNNAME":"西港區","LI":"西港里","LIN":"1鄰","STREET":" ","SECT":" ","MAREA":"中州","LANE":" ","ALLEY":" ","HOUSE_NO":"２４號之３","E_COORD97":167719.26999999999,"N_COORD97":2559767.4199999999,"ADDRESS":"中州２４號之３","OBJECTID":113807},"geometry":{"x":167719.26999999862,"y":2559767.4200000018}},{"attributes":{"ID":113808,"DIS_CODE":0,"TOWNNAME":"西港區","LI":"慶安里","LIN":"1鄰","STREET":" ","SECT":" ","MAREA":"中州","LANE":" ","ALLEY":" ","HOUSE_NO":"９號之２","E_COORD97":167028.78,"N_COORD97":2559667.5299999998,"ADDRESS":"中州９號之２","OBJECTID":113808},"geometry":{"x":167028.78000000119,"y":2559667.5300000012}},{"attributes":{"ID":113809,"DIS_CODE":0,"TOWNNAME":"永康區","LI":"尚頂里","LIN":"28鄰","STREET":"南台街","SECT":" ","MAREA":" ","LANE":"５４巷","ALLEY":"４１弄","HOUSE_NO":"４７號","E_COORD97":170307.10000000001,"N_COORD97":2547074.75,"ADDRESS":"南台街５４巷４１弄４７號","OBJECTID":113809},"geometry":{"x":170307.09999999963,"y":2547074.7500000019}},{"attributes":{"ID":113810,"DIS_CODE":0,"TOWNNAME":"永康區","LI":"尚頂里","LIN":"28鄰","STREET":"南台街","SECT":" ","MAREA":" ","LANE":"５４巷","ALLEY":"４１弄","HOUSE_NO":"９號","E_COORD97":170299.01999999999,"N_COORD97":2547092.7000000002,"ADDRESS":"南台街５４巷４１弄９號","OBJECTID":113810},"geometry":{"x":170299.01999999955,"y":2547092.6999999993}},{"attributes":{"ID":113811,"DIS_CODE":0,"TOWNNAME":"東區","LI":"仁和里","LIN":"28鄰","STREET":"仁和路","SECT":" ","MAREA":" ","LANE":"１３９巷","ALLEY":"５１弄","HOUSE_NO":"１９號之２","E_COORD97":171719.45999999999,"N_COORD97":2541108.54,"ADDRESS":"仁和路１３９巷５１弄１９號之２","OBJECTID":113811},"geometry":{"x":171719.46000000089,"y":2541108.540000001}},{"attributes":{"ID":113812,"DIS_CODE":0,"TOWNNAME":"東區","LI":"仁和里","LIN":"28鄰","STREET":"仁和路","SECT":" ","MAREA":" ","LANE":"１３９巷","ALLEY":"５１弄","HOUSE_NO":"１９號之３","E_COORD97":171719.23000000001,"N_COORD97":2541114.2799999998,"ADDRESS":"仁和路１３９巷５１弄１９號之３","OBJECTID":113812},"geometry":{"x":171719.23000000045,"y":2541114.2800000012}},{"attributes":{"ID":113813,"DIS_CODE":0,"TOWNNAME":"東區","LI":"仁和里","LIN":"28鄰","STREET":"仁和路","SECT":" ","MAREA":" ","LANE":"１３９巷","ALLEY":"５１弄","HOUSE_NO":"１號","E_COORD97":171728.35999999999,"N_COORD97":2541066.6699999999,"ADDRESS":"仁和路１３９巷５１弄１號","OBJECTID":113813},"geometry":{"x":171728.36000000034,"y":2541066.6700000037}},{"attributes":{"ID":113814,"DIS_CODE":0,"TOWNNAME":"西港區","LI":"慶安里","LIN":"1鄰","STREET":" ","SECT":" ","MAREA":"中州","LANE":" ","ALLEY":" ","HOUSE_NO":"９號","E_COORD97":167003.48999999999,"N_COORD97":2559698.1400000001,"ADDRESS":"中州９號","OBJECTID":113814},"geometry":{"x":167003.49000000115,"y":2559698.1400000025}},{"attributes":{"ID":113815,"DIS_CODE":0,"TOWNNAME":"善化區","LI":"嘉北里","LIN":"4鄰","STREET":" ","SECT":" ","MAREA":"茄拔","LANE":" ","ALLEY":" ","HOUSE_NO":"３８號","E_COORD97":181085.37,"N_COORD97":2559703.7599999998,"ADDRESS":"茄拔３８號","OBJECTID":113815},"geometry":{"x":181085.37000000011,"y":2559703.7600000016}},{"attributes":{"ID":113816,"DIS_CODE":0,"TOWNNAME":"東區","LI":"仁和里","LIN":"28鄰","STREET":"仁和路","SECT":" ","MAREA":" ","LANE":"１３９巷","ALLEY":"５１弄","HOUSE_NO":"３號","E_COORD97":171729.04999999999,"N_COORD97":2541069.7799999998,"ADDRESS":"仁和路１３９巷５１弄３號","OBJECTID":113816},"geometry":{"x":171729.05000000075,"y":2541069.7800000012}},{"attributes":{"ID":113817,"DIS_CODE":0,"TOWNNAME":"東區","LI":"仁和里","LIN":"28鄰","STREET":"仁和路","SECT":" ","MAREA":" ","LANE":"１３９巷","ALLEY":"５１弄","HOUSE_NO":"５號","E_COORD97":171728.70999999999,"N_COORD97":2541072.4399999999,"ADDRESS":"仁和路１３９巷５１弄５號","OBJECTID":113817},"geometry":{"x":171728.70999999996,"y":2541072.4400000013}},{"attributes":{"ID":113818,"DIS_CODE":0,"TOWNNAME":"永康區","LI":"西灣里","LIN":"28鄰","STREET":"公園路","SECT":" ","MAREA":" ","LANE":"７巷","ALLEY":"４４弄","HOUSE_NO":"１８號","E_COORD97":174399.26000000001,"N_COORD97":2545866.6099999999,"ADDRESS":"公園路７巷４４弄１８號","OBJECTID":113818},"geometry":{"x":174399.26000000071,"y":2545866.6099999994}},{"attributes":{"ID":113819,"DIS_CODE":0,"TOWNNAME":"永康區","LI":"尚頂里","LIN":"28鄰","STREET":"南台街","SECT":" ","MAREA":" ","LANE":"５４巷","ALLEY":"４１弄","HOUSE_NO":"１號","E_COORD97":170333.14999999999,"N_COORD97":2547091.6899999999,"ADDRESS":"南台街５４巷４１弄１號","OBJECTID":113819},"geometry":{"x":170333.15000000037,"y":2547091.6900000013}},{"attributes":{"ID":113820,"DIS_CODE":0,"TOWNNAME":"永康區","LI":"西灣里","LIN":"28鄰","STREET":"公園路","SECT":" ","MAREA":" ","LANE":"７巷","ALLEY":"４４弄","HOUSE_NO":"８之１號","E_COORD97":174423.48999999999,"N_COORD97":2545869.9100000001,"ADDRESS":"公園路７巷４４弄８之１號","OBJECTID":113820},"geometry":{"x":174423.49000000115,"y":2545869.910000002}},{"attributes":{"ID":113821,"DIS_CODE":0,"TOWNNAME":"永康區","LI":"北灣里","LIN":"28鄰","STREET":"文賢街","SECT":" ","MAREA":" ","LANE":"７８巷","ALLEY":"１９弄","HOUSE_NO":"６６號","E_COORD97":175465.64000000001,"N_COORD97":2545442.6499999999,"ADDRESS":"文賢街７８巷１９弄６６號","OBJECTID":113821},"geometry":{"x":175465.63999999873,"y":2545442.6500000004}},{"attributes":{"ID":113822,"DIS_CODE":0,"TOWNNAME":"東區","LI":"富強里","LIN":"24鄰","STREET":"中華東路","SECT":"二段","MAREA":" ","LANE":"４８巷","ALLEY":"５弄","HOUSE_NO":"３０號","E_COORD97":171340.12,"N_COORD97":2542899.1200000001,"ADDRESS":"中華東路二段４８巷５弄３０號","OBJECTID":113822},"geometry":{"x":171340.11999999918,"y":2542899.1200000048}},{"attributes":{"ID":113823,"DIS_CODE":0,"TOWNNAME":"東區","LI":"富強里","LIN":"6鄰","STREET":"中華東路","SECT":"二段","MAREA":" ","LANE":"４８巷","ALLEY":"１７弄","HOUSE_NO":"９號","E_COORD97":171325.54999999999,"N_COORD97":2542962.7599999998,"ADDRESS":"中華東路二段４８巷１７弄９號","OBJECTID":113823},"geometry":{"x":171325.55000000075,"y":2542962.7599999998}},{"attributes":{"ID":113824,"DIS_CODE":0,"TOWNNAME":"東區","LI":"泉南里","LIN":"9鄰","STREET":"東門路","SECT":"一段","MAREA":" ","LANE":"５２巷","ALLEY":"３弄","HOUSE_NO":"１７號","E_COORD97":169350.12,"N_COORD97":2543165.6200000001,"ADDRESS":"東門路一段５２巷３弄１７號","OBJECTID":113824},"geometry":{"x":169350.12000000197,"y":2543165.620000001}},{"attributes":{"ID":113825,"DIS_CODE":0,"TOWNNAME":"永康區","LI":"西灣里","LIN":"28鄰","STREET":"公園路","SECT":" ","MAREA":" ","LANE":"７巷","ALLEY":"３０弄","HOUSE_NO":"３５號","E_COORD97":174383.20000000001,"N_COORD97":2545899.7200000002,"ADDRESS":"公園路７巷３０弄３５號","OBJECTID":113825},"geometry":{"x":174383.20000000112,"y":2545899.7200000025}},{"attributes":{"ID":113826,"DIS_CODE":0,"TOWNNAME":"仁德區","LI":"後壁里","LIN":"28鄰","STREET":"德洋路","SECT":" ","MAREA":" ","LANE":"２５巷","ALLEY":"３２弄","HOUSE_NO":"８號","E_COORD97":173083.98999999999,"N_COORD97":2538918.2599999998,"ADDRESS":"德洋路２５巷３２弄８號","OBJECTID":113826},"geometry":{"x":173083.99000000209,"y":2538918.2599999998}},{"attributes":{"ID":113827,"DIS_CODE":0,"TOWNNAME":"仁德區","LI":"後壁里","LIN":"28鄰","STREET":"德洋路","SECT":" ","MAREA":" ","LANE":"２５巷","ALLEY":"３５弄","HOUSE_NO":"９號","E_COORD97":173124.35000000001,"N_COORD97":2538917.0099999998,"ADDRESS":"德洋路２５巷３５弄９號","OBJECTID":113827},"geometry":{"x":173124.34999999963,"y":2538917.0099999998}},{"attributes":{"ID":113828,"DIS_CODE":0,"TOWNNAME":"仁德區","LI":"後壁里","LIN":"28鄰","STREET":"德洋路","SECT":" ","MAREA":" ","LANE":"２５巷","ALLEY":"３２弄","HOUSE_NO":"１２號","E_COORD97":173076.29000000001,"N_COORD97":2538918.5099999998,"ADDRESS":"德洋路２５巷３２弄１２號","OBJECTID":113828},"geometry":{"x":173076.29000000004,"y":2538918.5100000016}},{"attributes":{"ID":113829,"DIS_CODE":0,"TOWNNAME":"仁德區","LI":"後壁里","LIN":"28鄰","STREET":"德洋路","SECT":" ","MAREA":" ","LANE":"２５巷","ALLEY":"３２弄","HOUSE_NO":"４號","E_COORD97":173092.59,"N_COORD97":2538917.7599999998,"ADDRESS":"德洋路２５巷３２弄４號","OBJECTID":113829},"geometry":{"x":173092.58999999985,"y":2538917.7600000016}},{"attributes":{"ID":113830,"DIS_CODE":0,"TOWNNAME":"仁德區","LI":"後壁里","LIN":"28鄰","STREET":"德洋路","SECT":" ","MAREA":" ","LANE":"２５巷","ALLEY":"３２弄","HOUSE_NO":"１０號","E_COORD97":173080.76000000001,"N_COORD97":2538918.2599999998,"ADDRESS":"德洋路２５巷３２弄１０號","OBJECTID":113830},"geometry":{"x":173080.75999999978,"y":2538918.2599999998}},{"attributes":{"ID":113831,"DIS_CODE":0,"TOWNNAME":"仁德區","LI":"後壁里","LIN":"28鄰","STREET":"德洋路","SECT":" ","MAREA":" ","LANE":"２５巷","ALLEY":"３２弄","HOUSE_NO":"６號","E_COORD97":173088.25,"N_COORD97":2538918.0099999998,"ADDRESS":"德洋路２５巷３２弄６號","OBJECTID":113831},"geometry":{"x":173088.25,"y":2538918.0100000035}},{"attributes":{"ID":113832,"DIS_CODE":0,"TOWNNAME":"仁德區","LI":"後壁里","LIN":"28鄰","STREET":"德洋路","SECT":" ","MAREA":" ","LANE":"２５巷","ALLEY":"３５弄","HOUSE_NO":"５號","E_COORD97":173115.39999999999,"N_COORD97":2538917.2599999998,"ADDRESS":"德洋路２５巷３５弄５號","OBJECTID":113832},"geometry":{"x":173115.4000000013,"y":2538917.2600000016}},{"attributes":{"ID":113833,"DIS_CODE":0,"TOWNNAME":"仁德區","LI":"後壁里","LIN":"28鄰","STREET":"德洋路","SECT":" ","MAREA":" ","LANE":"２５巷","ALLEY":"３５弄","HOUSE_NO":"１號","E_COORD97":173106.60000000001,"N_COORD97":2538917.5099999998,"ADDRESS":"德洋路２５巷３５弄１號","OBJECTID":113833},"geometry":{"x":173106.60000000056,"y":2538917.5099999998}},{"attributes":{"ID":113834,"DIS_CODE":0,"TOWNNAME":"安南區","LI":"海佃里","LIN":"28鄰","STREET":"國安街","SECT":" ","MAREA":" ","LANE":"１５６巷","ALLEY":"１９８弄","HOUSE_NO":"１０號","E_COORD97":166683.94,"N_COORD97":2547497.8500000001,"ADDRESS":"國安街１５６巷１９８弄１０號","OBJECTID":113834},"geometry":{"x":166683.94000000134,"y":2547497.8500000015}},{"attributes":{"ID":113835,"DIS_CODE":0,"TOWNNAME":"安南區","LI":"海佃里","LIN":"28鄰","STREET":"國安街","SECT":" ","MAREA":" ","LANE":"１５６巷","ALLEY":"１９８弄","HOUSE_NO":"１２號","E_COORD97":166688.59,"N_COORD97":2547499.8399999999,"ADDRESS":"國安街１５６巷１９８弄１２號","OBJECTID":113835},"geometry":{"x":166688.59000000171,"y":2547499.8399999999}},{"attributes":{"ID":113836,"DIS_CODE":0,"TOWNNAME":"安南區","LI":"海佃里","LIN":"28鄰","STREET":"國安街","SECT":" ","MAREA":" ","LANE":"１５６巷","ALLEY":"１９８弄","HOUSE_NO":"１４號","E_COORD97":166693.91,"N_COORD97":2547497.8500000001,"ADDRESS":"國安街１５６巷１９８弄１４號","OBJECTID":113836},"geometry":{"x":166693.91000000108,"y":2547497.8500000015}},{"attributes":{"ID":113837,"DIS_CODE":0,"TOWNNAME":"安南區","LI":"海佃里","LIN":"28鄰","STREET":"國安街","SECT":" ","MAREA":" ","LANE":"１５６巷","ALLEY":"１９８弄","HOUSE_NO":"１６號","E_COORD97":166699.23999999999,"N_COORD97":2547498.5099999998,"ADDRESS":"國安街１５６巷１９８弄１６號","OBJECTID":113837},"geometry":{"x":166699.24000000022,"y":2547498.5099999998}},{"attributes":{"ID":113838,"DIS_CODE":0,"TOWNNAME":"安南區","LI":"海佃里","LIN":"28鄰","STREET":"國安街","SECT":" ","MAREA":" ","LANE":"１５６巷","ALLEY":"１９８弄","HOUSE_NO":"１８號","E_COORD97":166703.23000000001,"N_COORD97":2547498.5099999998,"ADDRESS":"國安街１５６巷１９８弄１８號","OBJECTID":113838},"geometry":{"x":166703.23000000045,"y":2547498.5099999998}},{"attributes":{"ID":113839,"DIS_CODE":0,"TOWNNAME":"安南區","LI":"海佃里","LIN":"28鄰","STREET":"國安街","SECT":" ","MAREA":" ","LANE":"１５６巷","ALLEY":"１９８弄","HOUSE_NO":"２０號","E_COORD97":166709.20999999999,"N_COORD97":2547499.1699999999,"ADDRESS":"國安街１５６巷１９８弄２０號","OBJECTID":113839},"geometry":{"x":166709.20999999996,"y":2547499.1700000018}},{"attributes":{"ID":113840,"DIS_CODE":0,"TOWNNAME":"安南區","LI":"海佃里","LIN":"28鄰","STREET":"國安街","SECT":" ","MAREA":" ","LANE":"１５６巷","ALLEY":"１９８弄","HOUSE_NO":"２２號","E_COORD97":166713.87,"N_COORD97":2547500.5,"ADDRESS":"國安街１５６巷１９８弄２２號","OBJECTID":113840},"geometry":{"x":166713.87000000011,"y":2547500.5000000019}},{"attributes":{"ID":113841,"DIS_CODE":0,"TOWNNAME":"東區","LI":"和平里","LIN":"1鄰","STREET":"仁和路","SECT":" ","MAREA":" ","LANE":" ","ALLEY":" ","HOUSE_NO":"９號","E_COORD97":171029.67999999999,"N_COORD97":2542306.79,"ADDRESS":"仁和路９號","OBJECTID":113841},"geometry":{"x":171029.68000000063,"y":2542306.790000001}},{"attributes":{"ID":113842,"DIS_CODE":0,"TOWNNAME":"善化區","LI":"胡厝里","LIN":"12鄰","STREET":" ","SECT":" ","MAREA":"百二甲","LANE":" ","ALLEY":" ","HOUSE_NO":"２４之１號","E_COORD97":175178.35000000001,"N_COORD97":2559766.7599999998,"ADDRESS":"百二甲２４之１號","OBJECTID":113842},"geometry":{"x":175178.35000000056,"y":2559766.7599999998}},{"attributes":{"ID":113843,"DIS_CODE":0,"TOWNNAME":"善化區","LI":"溪美里","LIN":"18鄰","STREET":" ","SECT":" ","MAREA":"溪尾","LANE":" ","ALLEY":" ","HOUSE_NO":"２１１號之１２","E_COORD97":177200.98999999999,"N_COORD97":2561331.02,"ADDRESS":"溪尾２１１號之１２","OBJECTID":113843},"geometry":{"x":177200.99000000022,"y":2561331.0199999996}},{"attributes":{"ID":113844,"DIS_CODE":0,"TOWNNAME":"善化區","LI":"溪美里","LIN":"30鄰","STREET":" ","SECT":" ","MAREA":"溪尾","LANE":" ","ALLEY":" ","HOUSE_NO":"１９６之１號","E_COORD97":177010.91,"N_COORD97":2561162.52,"ADDRESS":"溪尾１９６之１號","OBJECTID":113844},"geometry":{"x":177010.91000000108,"y":2561162.5200000014}},{"attributes":{"ID":113845,"DIS_CODE":0,"TOWNNAME":"善化區","LI":"溪美里","LIN":"22鄰","STREET":" ","SECT":" ","MAREA":"溪尾","LANE":" ","ALLEY":" ","HOUSE_NO":"１９３號","E_COORD97":176973.09,"N_COORD97":2561198.27,"ADDRESS":"溪尾１９３號","OBJECTID":113845},"geometry":{"x":176973.08999999985,"y":2561198.2700000014}},{"attributes":{"ID":113846,"DIS_CODE":0,"TOWNNAME":"善化區","LI":"嘉南里","LIN":"12鄰","STREET":" ","SECT":" ","MAREA":"茄拔","LANE":" ","ALLEY":" ","HOUSE_NO":"３５０之２２號","E_COORD97":180540.59,"N_COORD97":2559467.0099999998,"ADDRESS":"茄拔３５０之２２號","OBJECTID":113846},"geometry":{"x":180540.59000000078,"y":2559467.0100000035}},{"attributes":{"ID":113847,"DIS_CODE":0,"TOWNNAME":"麻豆區","LI":"南勢里","LIN":"23鄰","STREET":" ","SECT":" ","MAREA":"南勢","LANE":" ","ALLEY":" ","HOUSE_NO":"７３之２１號","E_COORD97":174752.51999999999,"N_COORD97":2564790.1400000001,"ADDRESS":"南勢７３之２１號","OBJECTID":113847},"geometry":{"x":174752.51999999955,"y":2564790.1400000043}},{"attributes":{"ID":113848,"DIS_CODE":0,"TOWNNAME":"安南區","LI":"海佃里","LIN":"28鄰","STREET":"國安街","SECT":" ","MAREA":" ","LANE":"１５６巷","ALLEY":"１９８弄","HOUSE_NO":"２４號","E_COORD97":166718.51999999999,"N_COORD97":2547501.8300000001,"ADDRESS":"國安街１５６巷１９８弄２４號","OBJECTID":113848},"geometry":{"x":166718.51999999955,"y":2547501.8300000019}},{"attributes":{"ID":113849,"DIS_CODE":0,"TOWNNAME":"麻豆區","LI":"南勢里","LIN":"23鄰","STREET":" ","SECT":" ","MAREA":"南勢","LANE":" ","ALLEY":" ","HOUSE_NO":"７２號","E_COORD97":174651.13,"N_COORD97":2564728.3599999999,"ADDRESS":"南勢７２號","OBJECTID":113849},"geometry":{"x":174651.13000000082,"y":2564728.3599999994}},{"attributes":{"ID":113850,"DIS_CODE":0,"TOWNNAME":"善化區","LI":"嘉南里","LIN":" ","STREET":" ","SECT":" ","MAREA":"茄拔","LANE":" ","ALLEY":" ","HOUSE_NO":"３２２之１號","E_COORD97":180883.03,"N_COORD97":2559561.77,"ADDRESS":"茄拔３２２之１號","OBJECTID":113850},"geometry":{"x":180883.03000000026,"y":2559561.7699999996}},{"attributes":{"ID":113851,"DIS_CODE":0,"TOWNNAME":"善化區","LI":"嘉北里","LIN":"4鄰","STREET":" ","SECT":" ","MAREA":"茄拔","LANE":" ","ALLEY":" ","HOUSE_NO":"３２號之１","E_COORD97":181088.73999999999,"N_COORD97":2559744.52,"ADDRESS":"茄拔３２號之１","OBJECTID":113851},"geometry":{"x":181088.74000000115,"y":2559744.5199999996}},{"attributes":{"ID":113852,"DIS_CODE":0,"TOWNNAME":"善化區","LI":"嘉南里","LIN":"13鄰","STREET":" ","SECT":" ","MAREA":"茄拔","LANE":" ","ALLEY":" ","HOUSE_NO":"３２９號","E_COORD97":180797.19,"N_COORD97":2559539.5099999998,"ADDRESS":"茄拔３２９號","OBJECTID":113852},"geometry":{"x":180797.19000000041,"y":2559539.5100000016}},{"attributes":{"ID":113853,"DIS_CODE":0,"TOWNNAME":"善化區","LI":"嘉南里","LIN":"1鄰","STREET":" ","SECT":" ","MAREA":"茄拔","LANE":" ","ALLEY":" ","HOUSE_NO":"６０號之１５","E_COORD97":181248.89999999999,"N_COORD97":2559507.5099999998,"ADDRESS":"茄拔６０號之１５","OBJECTID":113853},"geometry":{"x":181248.9000000013,"y":2559507.5099999998}},{"attributes":{"ID":113854,"DIS_CODE":0,"TOWNNAME":"善化區","LI":"溪美里","LIN":"22鄰","STREET":" ","SECT":" ","MAREA":"溪尾","LANE":" ","ALLEY":" ","HOUSE_NO":"１９０號之３","E_COORD97":176888.69,"N_COORD97":2561172.27,"ADDRESS":"溪尾１９０號之３","OBJECTID":113854},"geometry":{"x":176888.69000000134,"y":2561172.2699999996}},{"attributes":{"ID":113855,"DIS_CODE":0,"TOWNNAME":"善化區","LI":"溪美里","LIN":"22鄰","STREET":" ","SECT":" ","MAREA":"溪尾","LANE":" ","ALLEY":" ","HOUSE_NO":"１９５號","E_COORD97":177008.78,"N_COORD97":2561204.02,"ADDRESS":"溪尾１９５號","OBJECTID":113855},"geometry":{"x":177008.78000000119,"y":2561204.0200000014}},{"attributes":{"ID":113856,"DIS_CODE":0,"TOWNNAME":"善化區","LI":"嘉南里","LIN":"12鄰","STREET":" ","SECT":" ","MAREA":"茄拔","LANE":" ","ALLEY":" ","HOUSE_NO":"３５５之９號","E_COORD97":180672,"N_COORD97":2559585.27,"ADDRESS":"茄拔３５５之９號","OBJECTID":113856},"geometry":{"x":180672.00000000093,"y":2559585.2700000014}},{"attributes":{"ID":113857,"DIS_CODE":0,"TOWNNAME":"善化區","LI":"嘉南里","LIN":"12鄰","STREET":" ","SECT":" ","MAREA":"茄拔","LANE":" ","ALLEY":" ","HOUSE_NO":"３５０號之１２","E_COORD97":180577.78,"N_COORD97":2559644.52,"ADDRESS":"茄拔３５０號之１２","OBJECTID":113857},"geometry":{"x":180577.78000000026,"y":2559644.5200000014}},{"attributes":{"ID":113858,"DIS_CODE":0,"TOWNNAME":"麻豆區","LI":"南勢里","LIN":"23鄰","STREET":" ","SECT":" ","MAREA":"南勢","LANE":" ","ALLEY":" ","HOUSE_NO":"７３號之１１","E_COORD97":174860.76999999999,"N_COORD97":2564835.1699999999,"ADDRESS":"南勢７３號之１１","OBJECTID":113858},"geometry":{"x":174860.76999999955,"y":2564835.1699999999}},{"attributes":{"ID":113859,"DIS_CODE":0,"TOWNNAME":"麻豆區","LI":"南勢里","LIN":"23鄰","STREET":" ","SECT":" ","MAREA":"南勢","LANE":" ","ALLEY":" ","HOUSE_NO":"７３號之１２","E_COORD97":174864.59,"N_COORD97":2564835.4399999999,"ADDRESS":"南勢７３號之１２","OBJECTID":113859},"geometry":{"x":174864.59000000171,"y":2564835.4400000013}},{"attributes":{"ID":113860,"DIS_CODE":0,"TOWNNAME":"麻豆區","LI":"南勢里","LIN":"23鄰","STREET":" ","SECT":" ","MAREA":"南勢","LANE":" ","ALLEY":" ","HOUSE_NO":"７３號之１３","E_COORD97":174868.17000000001,"N_COORD97":2564835.2799999998,"ADDRESS":"南勢７３號之１３","OBJECTID":113860},"geometry":{"x":174868.17000000086,"y":2564835.2800000031}},{"attributes":{"ID":113861,"DIS_CODE":0,"TOWNNAME":"麻豆區","LI":"南勢里","LIN":"23鄰","STREET":" ","SECT":" ","MAREA":"南勢","LANE":" ","ALLEY":" ","HOUSE_NO":"７３號之１４","E_COORD97":174760.16,"N_COORD97":2564796.3399999999,"ADDRESS":"南勢７３號之１４","OBJECTID":113861},"geometry":{"x":174760.16000000015,"y":2564796.3399999999}},{"attributes":{"ID":113862,"DIS_CODE":0,"TOWNNAME":"麻豆區","LI":"南勢里","LIN":"23鄰","STREET":" ","SECT":" ","MAREA":"南勢","LANE":" ","ALLEY":" ","HOUSE_NO":"７３號之１５","E_COORD97":174864.32000000001,"N_COORD97":2564846.27,"ADDRESS":"南勢７３號之１５","OBJECTID":113862},"geometry":{"x":174864.3200000003,"y":2564846.2700000014}},{"attributes":{"ID":113863,"DIS_CODE":0,"TOWNNAME":"麻豆區","LI":"南勢里","LIN":"23鄰","STREET":" ","SECT":" ","MAREA":"南勢","LANE":" ","ALLEY":" ","HOUSE_NO":"７３號之１６","E_COORD97":174856.29999999999,"N_COORD97":2564860.4399999999,"ADDRESS":"南勢７３號之１６","OBJECTID":113863},"geometry":{"x":174856.30000000168,"y":2564860.4399999995}},{"attributes":{"ID":113864,"DIS_CODE":0,"TOWNNAME":"麻豆區","LI":"南勢里","LIN":"23鄰","STREET":" ","SECT":" ","MAREA":"南勢","LANE":" ","ALLEY":" ","HOUSE_NO":"７３號之１８","E_COORD97":174705.98000000001,"N_COORD97":2564786.3799999999,"ADDRESS":"南勢７３號之１８","OBJECTID":113864},"geometry":{"x":174705.98000000045,"y":2564786.3799999971}},{"attributes":{"ID":113865,"DIS_CODE":0,"TOWNNAME":"麻豆區","LI":"南勢里","LIN":"23鄰","STREET":" ","SECT":" ","MAREA":"南勢","LANE":" ","ALLEY":" ","HOUSE_NO":"７３號之１","E_COORD97":174746.48000000001,"N_COORD97":2564874.2200000002,"ADDRESS":"南勢７３號之１","OBJECTID":113865},"geometry":{"x":174746.48000000045,"y":2564874.2200000044}},{"attributes":{"ID":113866,"DIS_CODE":0,"TOWNNAME":"麻豆區","LI":"南勢里","LIN":"23鄰","STREET":" ","SECT":" ","MAREA":"南勢","LANE":" ","ALLEY":" ","HOUSE_NO":"７３號之２０","E_COORD97":174765.19,"N_COORD97":2564766.6499999999,"ADDRESS":"南勢７３號之２０","OBJECTID":113866},"geometry":{"x":174765.19000000134,"y":2564766.6500000022}},{"attributes":{"ID":113867,"DIS_CODE":0,"TOWNNAME":"麻豆區","LI":"南勢里","LIN":"23鄰","STREET":" ","SECT":" ","MAREA":"南勢","LANE":" ","ALLEY":" ","HOUSE_NO":"７３號之２１","E_COORD97":174752.51999999999,"N_COORD97":2564790.1400000001,"ADDRESS":"南勢７３號之２１","OBJECTID":113867},"geometry":{"x":174752.51999999955,"y":2564790.1400000043}},{"attributes":{"ID":113868,"DIS_CODE":0,"TOWNNAME":"麻豆區","LI":"南勢里","LIN":"23鄰","STREET":" ","SECT":" ","MAREA":"南勢","LANE":" ","ALLEY":" ","HOUSE_NO":"７３號之２４","E_COORD97":174872.64999999999,"N_COORD97":2564835.1600000001,"ADDRESS":"南勢７３號之２４","OBJECTID":113868},"geometry":{"x":174872.65000000037,"y":2564835.1600000001}},{"attributes":{"ID":113869,"DIS_CODE":0,"TOWNNAME":"麻豆區","LI":"南勢里","LIN":"23鄰","STREET":" ","SECT":" ","MAREA":"南勢","LANE":" ","ALLEY":" ","HOUSE_NO":"７３號之２５","E_COORD97":174765.23999999999,"N_COORD97":2564859.1499999999,"ADDRESS":"南勢７３號之２５","OBJECTID":113869},"geometry":{"x":174765.24000000022,"y":2564859.1500000022}},{"attributes":{"ID":113870,"DIS_CODE":0,"TOWNNAME":"麻豆區","LI":"南勢里","LIN":"23鄰","STREET":" ","SECT":" ","MAREA":"南勢","LANE":" ","ALLEY":" ","HOUSE_NO":"７３號之２","E_COORD97":174740.894768,"N_COORD97":2564844.8630400002,"ADDRESS":"南勢７３號之２","OBJECTID":113870},"geometry":{"x":174740.89476799965,"y":2564844.8630400039}},{"attributes":{"ID":113871,"DIS_CODE":0,"TOWNNAME":"麻豆區","LI":"南勢里","LIN":"23鄰","STREET":" ","SECT":" ","MAREA":"南勢","LANE":" ","ALLEY":" ","HOUSE_NO":"７３號之５","E_COORD97":174734.64000000001,"N_COORD97":2564832.7000000002,"ADDRESS":"南勢７３號之５","OBJECTID":113871},"geometry":{"x":174734.63999999966,"y":2564832.7000000011}},{"attributes":{"ID":113872,"DIS_CODE":0,"TOWNNAME":"安定區","LI":"蘇林里","LIN":"23鄰","STREET":" ","SECT":" ","MAREA":"蘇厝","LANE":" ","ALLEY":" ","HOUSE_NO":"２５７號","E_COORD97":173338.92000000001,"N_COORD97":2558675.25,"ADDRESS":"蘇厝２５７號","OBJECTID":113872},"geometry":{"x":173338.92000000086,"y":2558675.25}},{"attributes":{"ID":113873,"DIS_CODE":0,"TOWNNAME":"安定區","LI":"蘇林里","LIN":"23鄰","STREET":" ","SECT":" ","MAREA":"蘇厝","LANE":" ","ALLEY":" ","HOUSE_NO":"２５８之３號","E_COORD97":173361.32000000001,"N_COORD97":2558673.2999999998,"ADDRESS":"蘇厝２５８之３號","OBJECTID":113873},"geometry":{"x":173361.31999999937,"y":2558673.3000000026}},{"attributes":{"ID":113874,"DIS_CODE":0,"TOWNNAME":"官田區","LI":"渡頭里","LIN":"23鄰","STREET":" ","SECT":" ","MAREA":"渡子頭","LANE":" ","ALLEY":" ","HOUSE_NO":"１７７號之１","E_COORD97":181323.95000000001,"N_COORD97":2563159.3300000001,"ADDRESS":"渡子頭１７７號之１","OBJECTID":113874},"geometry":{"x":181323.95000000019,"y":2563159.3300000001}},{"attributes":{"ID":113875,"DIS_CODE":0,"TOWNNAME":"官田區","LI":"渡頭里","LIN":"23鄰","STREET":" ","SECT":" ","MAREA":"渡子頭","LANE":" ","ALLEY":" ","HOUSE_NO":"１７８號","E_COORD97":181333.97,"N_COORD97":2563161.1499999999,"ADDRESS":"渡子頭１７８號","OBJECTID":113875},"geometry":{"x":181333.9700000016,"y":2563161.1500000004}},{"attributes":{"ID":113876,"DIS_CODE":0,"TOWNNAME":"官田區","LI":"渡頭里","LIN":"23鄰","STREET":" ","SECT":" ","MAREA":"渡子頭","LANE":" ","ALLEY":" ","HOUSE_NO":"１７９號之１","E_COORD97":181306.79000000001,"N_COORD97":2563180.4399999999,"ADDRESS":"渡子頭１７９號之１","OBJECTID":113876},"geometry":{"x":181306.7900000019,"y":2563180.4400000013}},{"attributes":{"ID":113877,"DIS_CODE":0,"TOWNNAME":"官田區","LI":"渡頭里","LIN":"23鄰","STREET":" ","SECT":" ","MAREA":"渡子頭","LANE":" ","ALLEY":" ","HOUSE_NO":"１７９號","E_COORD97":181325.85999999999,"N_COORD97":2563171.7799999998,"ADDRESS":"渡子頭１７９號","OBJECTID":113877},"geometry":{"x":181325.86000000127,"y":2563171.7800000012}},{"attributes":{"ID":113878,"DIS_CODE":0,"TOWNNAME":"西港區","LI":"營西里","LIN":"1鄰","STREET":" ","SECT":" ","MAREA":"後營","LANE":" ","ALLEY":" ","HOUSE_NO":"１０號","E_COORD97":169768.03,"N_COORD97":2560059.3199999998,"ADDRESS":"後營１０號","OBJECTID":113878},"geometry":{"x":169768.03000000119,"y":2560059.3200000022}},{"attributes":{"ID":113879,"DIS_CODE":0,"TOWNNAME":"西港區","LI":"營西里","LIN":"1鄰","STREET":" ","SECT":" ","MAREA":"後營","LANE":" ","ALLEY":" ","HOUSE_NO":"２號之１０","E_COORD97":169506.03,"N_COORD97":2559919.3199999998,"ADDRESS":"後營２號之１０","OBJECTID":113879},"geometry":{"x":169506.03000000026,"y":2559919.3200000003}},{"attributes":{"ID":113880,"DIS_CODE":0,"TOWNNAME":"西港區","LI":"營西里","LIN":"1鄰","STREET":" ","SECT":" ","MAREA":"後營","LANE":" ","ALLEY":" ","HOUSE_NO":"２號之１１","E_COORD97":169504.26999999999,"N_COORD97":2559914.21,"ADDRESS":"後營２號之１１","OBJECTID":113880},"geometry":{"x":169504.26999999955,"y":2559914.209999999}},{"attributes":{"ID":113881,"DIS_CODE":0,"TOWNNAME":"安南區","LI":"海佃里","LIN":"28鄰","STREET":"國安街","SECT":" ","MAREA":" ","LANE":"１５６巷","ALLEY":"１９８弄","HOUSE_NO":"２６號","E_COORD97":166724.51000000001,"N_COORD97":2547501.1699999999,"ADDRESS":"國安街１５６巷１９８弄２６號","OBJECTID":113881},"geometry":{"x":166724.50999999885,"y":2547501.1699999999}},{"attributes":{"ID":113882,"DIS_CODE":0,"TOWNNAME":"西港區","LI":"營西里","LIN":"1鄰","STREET":" ","SECT":" ","MAREA":"後營","LANE":" ","ALLEY":" ","HOUSE_NO":"１號之２５","E_COORD97":169505.07999999999,"N_COORD97":2559990.3799999999,"ADDRESS":"後營１號之２５","OBJECTID":113882},"geometry":{"x":169505.08000000101,"y":2559990.3800000008}},{"attributes":{"ID":113883,"DIS_CODE":0,"TOWNNAME":"安南區","LI":"海佃里","LIN":"28鄰","STREET":"國安街","SECT":" ","MAREA":" ","LANE":"１５６巷","ALLEY":"１９８弄","HOUSE_NO":"２８號","E_COORD97":166728.5,"N_COORD97":2547502.5,"ADDRESS":"國安街１５６巷１９８弄２８號","OBJECTID":113883},"geometry":{"x":166728.50000000093,"y":2547502.5}},{"attributes":{"ID":113884,"DIS_CODE":0,"TOWNNAME":"新市區","LI":"三舍里","LIN":"1鄰","STREET":" ","SECT":" ","MAREA":"三舍","LANE":" ","ALLEY":" ","HOUSE_NO":"３４號","E_COORD97":177918.62,"N_COORD97":2554258.25,"ADDRESS":"三舍３４號","OBJECTID":113884},"geometry":{"x":177918.62000000011,"y":2554258.2500000037}},{"attributes":{"ID":113885,"DIS_CODE":0,"TOWNNAME":"新市區","LI":"三舍里","LIN":"1鄰","STREET":" ","SECT":" ","MAREA":"三舍","LANE":" ","ALLEY":" ","HOUSE_NO":"３５號","E_COORD97":177898.92999999999,"N_COORD97":2554257.25,"ADDRESS":"三舍３５號","OBJECTID":113885},"geometry":{"x":177898.9299999997,"y":2554257.25}},{"attributes":{"ID":113886,"DIS_CODE":0,"TOWNNAME":"新市區","LI":"大營里","LIN":"1鄰","STREET":" ","SECT":" ","MAREA":"大營","LANE":" ","ALLEY":" ","HOUSE_NO":"７之６號","E_COORD97":179962.09,"N_COORD97":2555074.5499999998,"ADDRESS":"大營７之６號","OBJECTID":113886},"geometry":{"x":179962.09000000078,"y":2555074.5500000026}},{"attributes":{"ID":113887,"DIS_CODE":0,"TOWNNAME":"新市區","LI":"三舍里","LIN":"1鄰","STREET":" ","SECT":" ","MAREA":"三舍","LANE":" ","ALLEY":" ","HOUSE_NO":"３３號","E_COORD97":177907.10000000001,"N_COORD97":2554244.5,"ADDRESS":"三舍３３號","OBJECTID":113887},"geometry":{"x":177907.10000000149,"y":2554244.5000000019}},{"attributes":{"ID":113888,"DIS_CODE":0,"TOWNNAME":"新市區","LI":"港墘里","LIN":"1鄰","STREET":"大同街","SECT":" ","MAREA":" ","LANE":" ","ALLEY":" ","HOUSE_NO":"３１號","E_COORD97":178469.73000000001,"N_COORD97":2553610,"ADDRESS":"大同街３１號","OBJECTID":113888},"geometry":{"x":178469.72999999952,"y":2553610.0000000019}},{"attributes":{"ID":113889,"DIS_CODE":0,"TOWNNAME":"新市區","LI":"永就里","LIN":"1鄰","STREET":" ","SECT":" ","MAREA":"永就","LANE":" ","ALLEY":" ","HOUSE_NO":"１５之１０號","E_COORD97":178339.84,"N_COORD97":2551358.7999999998,"ADDRESS":"永就１５之１０號","OBJECTID":113889},"geometry":{"x":178339.84000000078,"y":2551358.8000000007}},{"attributes":{"ID":113890,"DIS_CODE":0,"TOWNNAME":"新市區","LI":"港墘里","LIN":"1鄰","STREET":"大同街","SECT":" ","MAREA":" ","LANE":" ","ALLEY":" ","HOUSE_NO":"１之１號","E_COORD97":178525.17999999999,"N_COORD97":2553491.2999999998,"ADDRESS":"大同街１之１號","OBJECTID":113890},"geometry":{"x":178525.17999999877,"y":2553491.3000000007}},{"attributes":{"ID":113891,"DIS_CODE":0,"TOWNNAME":"新市區","LI":"永就里","LIN":"1鄰","STREET":" ","SECT":" ","MAREA":"永就","LANE":" ","ALLEY":" ","HOUSE_NO":"７之１３號","E_COORD97":178452.20999999999,"N_COORD97":2551286.2999999998,"ADDRESS":"永就７之１３號","OBJECTID":113891},"geometry":{"x":178452.20999999996,"y":2551286.3000000026}},{"attributes":{"ID":113892,"DIS_CODE":0,"TOWNNAME":"安南區","LI":"海佃里","LIN":"28鄰","STREET":"國安街","SECT":" ","MAREA":" ","LANE":"１５６巷","ALLEY":"１９８弄","HOUSE_NO":"２號","E_COORD97":166669.97,"N_COORD97":2547491.2000000002,"ADDRESS":"國安街１５６巷１９８弄２號","OBJECTID":113892},"geometry":{"x":166669.96999999974,"y":2547491.2000000011}},{"attributes":{"ID":113893,"DIS_CODE":0,"TOWNNAME":"新市區","LI":"社內里","LIN":"1鄰","STREET":" ","SECT":" ","MAREA":"社內","LANE":" ","ALLEY":" ","HOUSE_NO":"５號","E_COORD97":176894.01000000001,"N_COORD97":2553017.5,"ADDRESS":"社內５號","OBJECTID":113893},"geometry":{"x":176894.01000000164,"y":2553017.5}},{"attributes":{"ID":113894,"DIS_CODE":0,"TOWNNAME":"新市區","LI":"社內里","LIN":"1鄰","STREET":" ","SECT":" ","MAREA":"社內","LANE":" ","ALLEY":" ","HOUSE_NO":"６號","E_COORD97":176885.25,"N_COORD97":2553009,"ADDRESS":"社內６號","OBJECTID":113894},"geometry":{"x":176885.25,"y":2553009.0000000037}},{"attributes":{"ID":113895,"DIS_CODE":0,"TOWNNAME":"新市區","LI":"社內里","LIN":"1鄰","STREET":" ","SECT":" ","MAREA":"社內","LANE":" ","ALLEY":" ","HOUSE_NO":"２之３號","E_COORD97":177019.81,"N_COORD97":2553026.0499999998,"ADDRESS":"社內２之３號","OBJECTID":113895},"geometry":{"x":177019.81000000052,"y":2553026.0500000045}},{"attributes":{"ID":113896,"DIS_CODE":0,"TOWNNAME":"安南區","LI":"海佃里","LIN":"28鄰","STREET":"國安街","SECT":" ","MAREA":" ","LANE":"１５６巷","ALLEY":"１９８弄","HOUSE_NO":"３０號","E_COORD97":166733.82000000001,"N_COORD97":2547503.8199999998,"ADDRESS":"國安街１５６巷１９８弄３０號","OBJECTID":113896},"geometry":{"x":166733.82000000123,"y":2547503.8200000003}},{"attributes":{"ID":113897,"DIS_CODE":0,"TOWNNAME":"新市區","LI":"永就里","LIN":"1鄰","STREET":" ","SECT":" ","MAREA":"永就","LANE":" ","ALLEY":" ","HOUSE_NO":"１之２號","E_COORD97":178378.39999999999,"N_COORD97":2551223.2999999998,"ADDRESS":"永就１之２號","OBJECTID":113897},"geometry":{"x":178378.40000000037,"y":2551223.3000000007}},{"attributes":{"ID":113898,"DIS_CODE":0,"TOWNNAME":"新市區","LI":"社內里","LIN":"1鄰","STREET":" ","SECT":" ","MAREA":"社內","LANE":" ","ALLEY":" ","HOUSE_NO":"１３號","E_COORD97":176887.17000000001,"N_COORD97":2552965.5,"ADDRESS":"社內１３號","OBJECTID":113898},"geometry":{"x":176887.17000000086,"y":2552965.5000000019}},{"attributes":{"ID":113899,"DIS_CODE":0,"TOWNNAME":"新市區","LI":"社內里","LIN":"1鄰","STREET":" ","SECT":" ","MAREA":"社內","LANE":" ","ALLEY":" ","HOUSE_NO":"６之１１號","E_COORD97":176841.03,"N_COORD97":2553013.7999999998,"ADDRESS":"社內６之１１號","OBJECTID":113899},"geometry":{"x":176841.03000000119,"y":2553013.8000000007}},{"attributes":{"ID":113900,"DIS_CODE":0,"TOWNNAME":"新市區","LI":"社內里","LIN":"1鄰","STREET":" ","SECT":" ","MAREA":"社內","LANE":" ","ALLEY":" ","HOUSE_NO":"６之６號","E_COORD97":176830.87,"N_COORD97":2553013.0499999998,"ADDRESS":"社內６之６號","OBJECTID":113900},"geometry":{"x":176830.86999999918,"y":2553013.0500000026}},{"attributes":{"ID":113901,"DIS_CODE":0,"TOWNNAME":"新市區","LI":"社內里","LIN":"1鄰","STREET":" ","SECT":" ","MAREA":"社內","LANE":" ","ALLEY":" ","HOUSE_NO":"１４之６號","E_COORD97":176849.97,"N_COORD97":2552930.2999999998,"ADDRESS":"社內１４之６號","OBJECTID":113901},"geometry":{"x":176849.96999999974,"y":2552930.3000000026}},{"attributes":{"ID":113902,"DIS_CODE":0,"TOWNNAME":"新市區","LI":"社內里","LIN":"1鄰","STREET":" ","SECT":" ","MAREA":"社內","LANE":" ","ALLEY":" ","HOUSE_NO":"３之１號","E_COORD97":176926.32999999999,"N_COORD97":2552971.2999999998,"ADDRESS":"社內３之１號","OBJECTID":113902},"geometry":{"x":176926.33000000101,"y":2552971.3000000026}},{"attributes":{"ID":113903,"DIS_CODE":0,"TOWNNAME":"新市區","LI":"新市里","LIN":"1鄰","STREET":"中興街","SECT":" ","MAREA":" ","LANE":" ","ALLEY":" ","HOUSE_NO":"４７號","E_COORD97":177691.66,"N_COORD97":2553121.75,"ADDRESS":"中興街４７號","OBJECTID":113903},"geometry":{"x":177691.66000000015,"y":2553121.75}},{"attributes":{"ID":113904,"DIS_CODE":0,"TOWNNAME":"新市區","LI":"社內里","LIN":"1鄰","STREET":" ","SECT":" ","MAREA":"社內","LANE":" ","ALLEY":" ","HOUSE_NO":"１４之７號","E_COORD97":176844.09,"N_COORD97":2552928.2999999998,"ADDRESS":"社內１４之７號","OBJECTID":113904},"geometry":{"x":176844.08999999985,"y":2552928.3000000007}},{"attributes":{"ID":113905,"DIS_CODE":0,"TOWNNAME":"新市區","LI":"社內里","LIN":"1鄰","STREET":" ","SECT":" ","MAREA":"社內","LANE":" ","ALLEY":" ","HOUSE_NO":"１４之８號","E_COORD97":176839.20000000001,"N_COORD97":2552927.0499999998,"ADDRESS":"社內１４之８號","OBJECTID":113905},"geometry":{"x":176839.20000000112,"y":2552927.0500000007}},{"attributes":{"ID":113906,"DIS_CODE":0,"TOWNNAME":"新市區","LI":"社內里","LIN":"1鄰","STREET":" ","SECT":" ","MAREA":"社內","LANE":" ","ALLEY":" ","HOUSE_NO":"１４號","E_COORD97":176873.60999999999,"N_COORD97":2552950.75,"ADDRESS":"社內１４號","OBJECTID":113906},"geometry":{"x":176873.6100000022,"y":2552950.7500000019}},{"attributes":{"ID":113907,"DIS_CODE":0,"TOWNNAME":"新市區","LI":"社內里","LIN":"1鄰","STREET":" ","SECT":" ","MAREA":"社內","LANE":" ","ALLEY":" ","HOUSE_NO":"１４之３３號","E_COORD97":176829.62,"N_COORD97":2552976.0499999998,"ADDRESS":"社內１４之３３號","OBJECTID":113907},"geometry":{"x":176829.62000000104,"y":2552976.0500000026}},{"attributes":{"ID":113908,"DIS_CODE":0,"TOWNNAME":"新市區","LI":"新市里","LIN":"1鄰","STREET":"中興街","SECT":" ","MAREA":" ","LANE":" ","ALLEY":" ","HOUSE_NO":"３號","E_COORD97":177802.84,"N_COORD97":2553184.25,"ADDRESS":"中興街３號","OBJECTID":113908},"geometry":{"x":177802.84000000078,"y":2553184.2500000019}},{"attributes":{"ID":113909,"DIS_CODE":0,"TOWNNAME":"新市區","LI":"新市里","LIN":"1鄰","STREET":"中興街","SECT":" ","MAREA":" ","LANE":" ","ALLEY":" ","HOUSE_NO":"４３號","E_COORD97":177699.57000000001,"N_COORD97":2553126,"ADDRESS":"中興街４３號","OBJECTID":113909},"geometry":{"x":177699.57000000123,"y":2553126}},{"attributes":{"ID":113910,"DIS_CODE":0,"TOWNNAME":"新市區","LI":"社內里","LIN":"1鄰","STREET":" ","SECT":" ","MAREA":"社內","LANE":" ","ALLEY":" ","HOUSE_NO":"１４之２２號","E_COORD97":176826.75,"N_COORD97":2552962.0499999998,"ADDRESS":"社內１４之２２號","OBJECTID":113910},"geometry":{"x":176826.75000000093,"y":2552962.0500000026}},{"attributes":{"ID":113911,"DIS_CODE":0,"TOWNNAME":"新市區","LI":"新市里","LIN":"1鄰","STREET":"中興街","SECT":" ","MAREA":" ","LANE":" ","ALLEY":" ","HOUSE_NO":"３５號","E_COORD97":177716.48000000001,"N_COORD97":2553135.25,"ADDRESS":"中興街３５號","OBJECTID":113911},"geometry":{"x":177716.48000000045,"y":2553135.25}},{"attributes":{"ID":113912,"DIS_CODE":0,"TOWNNAME":"新市區","LI":"社內里","LIN":"1鄰","STREET":" ","SECT":" ","MAREA":"社內","LANE":" ","ALLEY":" ","HOUSE_NO":"１３之９號","E_COORD97":176890.89999999999,"N_COORD97":2552946.0499999998,"ADDRESS":"社內１３之９號","OBJECTID":113912},"geometry":{"x":176890.9000000013,"y":2552946.0500000026}},{"attributes":{"ID":113913,"DIS_CODE":0,"TOWNNAME":"安南區","LI":"海佃里","LIN":"28鄰","STREET":"國安街","SECT":" ","MAREA":" ","LANE":"１５６巷","ALLEY":"１９８弄","HOUSE_NO":"３２號","E_COORD97":166739.14000000001,"N_COORD97":2547505.8199999998,"ADDRESS":"國安街１５６巷１９８弄３２號","OBJECTID":113913},"geometry":{"x":166739.1400000006,"y":2547505.8200000022}},{"attributes":{"ID":113914,"DIS_CODE":0,"TOWNNAME":"安南區","LI":"海佃里","LIN":"28鄰","STREET":"國安街","SECT":" ","MAREA":" ","LANE":"１５６巷","ALLEY":"１９８弄","HOUSE_NO":"６號","E_COORD97":166674.63,"N_COORD97":2547493.8599999999,"ADDRESS":"國安街１５６巷１９８弄６號","OBJECTID":113914},"geometry":{"x":166674.62999999896,"y":2547493.8600000013}},{"attributes":{"ID":113915,"DIS_CODE":0,"TOWNNAME":"安南區","LI":"海佃里","LIN":"28鄰","STREET":"國安街","SECT":" ","MAREA":" ","LANE":"１５６巷","ALLEY":"１９８弄","HOUSE_NO":"８號","E_COORD97":166679.28,"N_COORD97":2547496.52,"ADDRESS":"國安街１５６巷１９８弄８號","OBJECTID":113915},"geometry":{"x":166679.28000000212,"y":2547496.5200000014}},{"attributes":{"ID":113916,"DIS_CODE":0,"TOWNNAME":"東區","LI":"虎尾里","LIN":"21鄰","STREET":"東門路","SECT":"三段","MAREA":" ","LANE":"２７３巷","ALLEY":"２４弄","HOUSE_NO":"１４號","E_COORD97":171761.26000000001,"N_COORD97":2541888.7799999998,"ADDRESS":"東門路三段２７３巷２４弄１４號","OBJECTID":113916},"geometry":{"x":171761.26000000071,"y":2541888.7799999993}},{"attributes":{"ID":113917,"DIS_CODE":0,"TOWNNAME":"新市區","LI":"港墘里","LIN":"1鄰","STREET":"大同街","SECT":" ","MAREA":" ","LANE":" ","ALLEY":" ","HOUSE_NO":"１之５號","E_COORD97":178515.73000000001,"N_COORD97":2553506.0499999998,"ADDRESS":"大同街１之５號","OBJECTID":113917},"geometry":{"x":178515.73000000138,"y":2553506.0500000007}},{"attributes":{"ID":113918,"DIS_CODE":0,"TOWNNAME":"永康區","LI":"永康里","LIN":"28鄰","STREET":"永康街","SECT":" ","MAREA":" ","LANE":"３１０巷","ALLEY":"２８弄","HOUSE_NO":"３號","E_COORD97":174203.01000000001,"N_COORD97":2546971.1099999999,"ADDRESS":"永康街３１０巷２８弄３號","OBJECTID":113918},"geometry":{"x":174203.00999999978,"y":2546971.1099999994}},{"attributes":{"ID":113919,"DIS_CODE":0,"TOWNNAME":"學甲區","LI":"中洲里","LIN":"23鄰","STREET":" ","SECT":" ","MAREA":"中洲","LANE":" ","ALLEY":" ","HOUSE_NO":"２９７號之１","E_COORD97":163688.17000000001,"N_COORD97":2571697.9500000002,"ADDRESS":"中洲２９７號之１","OBJECTID":113919},"geometry":{"x":163688.17000000086,"y":2571697.9499999993}},{"attributes":{"ID":113920,"DIS_CODE":0,"TOWNNAME":"東區","LI":"虎尾里","LIN":"9鄰","STREET":"東成街","SECT":" ","MAREA":" ","LANE":"１８２巷","ALLEY":"４弄","HOUSE_NO":"２２號","E_COORD97":171694.13,"N_COORD97":2542229.8399999999,"ADDRESS":"東成街１８２巷４弄２２號","OBJECTID":113920},"geometry":{"x":171694.12999999896,"y":2542229.8400000017}},{"attributes":{"ID":113921,"DIS_CODE":0,"TOWNNAME":"永康區","LI":"尚頂里","LIN":"28鄰","STREET":"南台街","SECT":" ","MAREA":" ","LANE":"５４巷","ALLEY":"４１弄","HOUSE_NO":"６號","E_COORD97":170311.72,"N_COORD97":2547092.9500000002,"ADDRESS":"南台街５４巷４１弄６號","OBJECTID":113921},"geometry":{"x":170311.71999999974,"y":2547092.9500000011}},{"attributes":{"ID":113922,"DIS_CODE":0,"TOWNNAME":"新市區","LI":"新市里","LIN":"1鄰","STREET":"中興街","SECT":" ","MAREA":" ","LANE":" ","ALLEY":" ","HOUSE_NO":"９號","E_COORD97":177762.01999999999,"N_COORD97":2553163.75,"ADDRESS":"中興街９號","OBJECTID":113922},"geometry":{"x":177762.02000000048,"y":2553163.7500000019}},{"attributes":{"ID":113923,"DIS_CODE":0,"TOWNNAME":"新市區","LI":"社內里","LIN":"1鄰","STREET":" ","SECT":" ","MAREA":"社內","LANE":" ","ALLEY":" ","HOUSE_NO":"１３之５號","E_COORD97":176888.70000000001,"N_COORD97":2552977.7999999998,"ADDRESS":"社內１３之５號","OBJECTID":113923},"geometry":{"x":176888.70000000112,"y":2552977.8000000026}},{"attributes":{"ID":113924,"DIS_CODE":0,"TOWNNAME":"新市區","LI":"社內里","LIN":"1鄰","STREET":" ","SECT":" ","MAREA":"社內","LANE":" ","ALLEY":" ","HOUSE_NO":"１３之６號","E_COORD97":176888.64999999999,"N_COORD97":2552982.2999999998,"ADDRESS":"社內１３之６號","OBJECTID":113924},"geometry":{"x":176888.65000000224,"y":2552982.3000000007}},{"attributes":{"ID":113925,"DIS_CODE":0,"TOWNNAME":"新市區","LI":"社內里","LIN":"1鄰","STREET":" ","SECT":" ","MAREA":"社內","LANE":" ","ALLEY":" ","HOUSE_NO":"１４之２號","E_COORD97":176877.09,"N_COORD97":2552938.5499999998,"ADDRESS":"社內１４之２號","OBJECTID":113925},"geometry":{"x":176877.09000000078,"y":2552938.5500000026}},{"attributes":{"ID":113926,"DIS_CODE":0,"TOWNNAME":"新市區","LI":"社內里","LIN":"1鄰","STREET":" ","SECT":" ","MAREA":"社內","LANE":" ","ALLEY":" ","HOUSE_NO":"１４之３２號","E_COORD97":176833.56,"N_COORD97":2552976.2999999998,"ADDRESS":"社內１４之３２號","OBJECTID":113926},"geometry":{"x":176833.55999999959,"y":2552976.3000000007}},{"attributes":{"ID":113927,"DIS_CODE":0,"TOWNNAME":"官田區","LI":"渡頭里","LIN":"23鄰","STREET":" ","SECT":" ","MAREA":"渡子頭","LANE":" ","ALLEY":" ","HOUSE_NO":"１８０號","E_COORD97":181320.56,"N_COORD97":2563208.6099999999,"ADDRESS":"渡子頭１８０號","OBJECTID":113927},"geometry":{"x":181320.55999999959,"y":2563208.6099999994}},{"attributes":{"ID":113928,"DIS_CODE":0,"TOWNNAME":"永康區","LI":"尚頂里","LIN":"28鄰","STREET":"南台街","SECT":" ","MAREA":" ","LANE":"５４巷","ALLEY":"４１弄","HOUSE_NO":"１１號","E_COORD97":170290.42999999999,"N_COORD97":2547092.8399999999,"ADDRESS":"南台街５４巷４１弄１１號","OBJECTID":113928},"geometry":{"x":170290.43000000063,"y":2547092.8399999999}},{"attributes":{"ID":113929,"DIS_CODE":0,"TOWNNAME":"永康區","LI":"尚頂里","LIN":"28鄰","STREET":"南台街","SECT":" ","MAREA":" ","LANE":"５４巷","ALLEY":"４１弄","HOUSE_NO":"３號","E_COORD97":170324.56,"N_COORD97":2547091.6899999999,"ADDRESS":"南台街５４巷４１弄３號","OBJECTID":113929},"geometry":{"x":170324.55999999866,"y":2547091.6900000013}},{"attributes":{"ID":113930,"DIS_CODE":0,"TOWNNAME":"永康區","LI":"東灣里","LIN":"28鄰","STREET":"民族路","SECT":" ","MAREA":" ","LANE":"１８１巷","ALLEY":"１弄","HOUSE_NO":"９號","E_COORD97":175262.32999999999,"N_COORD97":2544838.3399999999,"ADDRESS":"民族路１８１巷１弄９號","OBJECTID":113930},"geometry":{"x":175262.33000000007,"y":2544838.3399999999}},{"attributes":{"ID":113931,"DIS_CODE":0,"TOWNNAME":"永康區","LI":"東灣里","LIN":"28鄰","STREET":"民族路","SECT":" ","MAREA":" ","LANE":"１８１巷","ALLEY":"１弄","HOUSE_NO":"１５號","E_COORD97":175272.69,"N_COORD97":2544827.8399999999,"ADDRESS":"民族路１８１巷１弄１５號","OBJECTID":113931},"geometry":{"x":175272.69000000041,"y":2544827.8399999999}},{"attributes":{"ID":113932,"DIS_CODE":0,"TOWNNAME":"永康區","LI":"東灣里","LIN":"28鄰","STREET":"民族路","SECT":" ","MAREA":" ","LANE":"１８１巷","ALLEY":"１弄","HOUSE_NO":"１９號","E_COORD97":175278.38,"N_COORD97":2544821.0899999999,"ADDRESS":"民族路１８１巷１弄１９號","OBJECTID":113932},"geometry":{"x":175278.38000000082,"y":2544821.0900000017}},{"attributes":{"ID":113933,"DIS_CODE":0,"TOWNNAME":"永康區","LI":"東灣里","LIN":"28鄰","STREET":"民族路","SECT":" ","MAREA":" ","LANE":"１８１巷","ALLEY":"１弄","HOUSE_NO":"１７號","E_COORD97":175275.10000000001,"N_COORD97":2544824.5899999999,"ADDRESS":"民族路１８１巷１弄１７號","OBJECTID":113933},"geometry":{"x":175275.10000000056,"y":2544824.5900000017}},{"attributes":{"ID":113934,"DIS_CODE":0,"TOWNNAME":"永康區","LI":"東灣里","LIN":"28鄰","STREET":"民族路","SECT":" ","MAREA":" ","LANE":"１８１巷","ALLEY":"１弄","HOUSE_NO":"１３號","E_COORD97":175269.34,"N_COORD97":2544831.3399999999,"ADDRESS":"民族路１８１巷１弄１３號","OBJECTID":113934},"geometry":{"x":175269.33999999985,"y":2544831.3399999999}},{"attributes":{"ID":113935,"DIS_CODE":0,"TOWNNAME":"永康區","LI":"東灣里","LIN":"28鄰","STREET":"民族路","SECT":" ","MAREA":" ","LANE":"１８１巷","ALLEY":"１弄","HOUSE_NO":"２３號","E_COORD97":175284.28,"N_COORD97":2544814.5899999999,"ADDRESS":"民族路１８１巷１弄２３號","OBJECTID":113935},"geometry":{"x":175284.28000000119,"y":2544814.5900000017}},{"attributes":{"ID":113936,"DIS_CODE":0,"TOWNNAME":"永康區","LI":"東灣里","LIN":"28鄰","STREET":"民族路","SECT":" ","MAREA":" ","LANE":"１８１巷","ALLEY":"１弄","HOUSE_NO":"３號","E_COORD97":175253.78,"N_COORD97":2544848.3399999999,"ADDRESS":"民族路１８１巷１弄３號","OBJECTID":113936},"geometry":{"x":175253.78000000119,"y":2544848.3399999999}},{"attributes":{"ID":113937,"DIS_CODE":0,"TOWNNAME":"中西區","LI":"法華里","LIN":"1鄰","STREET":"法華街","SECT":" ","MAREA":" ","LANE":" ","ALLEY":" ","HOUSE_NO":"１９號","E_COORD97":169046.79000000001,"N_COORD97":2542759.7200000002,"ADDRESS":"法華街１９號","OBJECTID":113937},"geometry":{"x":169046.79000000004,"y":2542759.7200000025}},{"attributes":{"ID":113938,"DIS_CODE":0,"TOWNNAME":"安南區","LI":"海東里","LIN":"1鄰","STREET":"海佃路","SECT":"二段","MAREA":" ","LANE":" ","ALLEY":" ","HOUSE_NO":"５２５號","E_COORD97":166655.26999999999,"N_COORD97":2549254.9399999999,"ADDRESS":"海佃路二段５２５號","OBJECTID":113938},"geometry":{"x":166655.27000000048,"y":2549254.9399999995}},{"attributes":{"ID":113939,"DIS_CODE":0,"TOWNNAME":"安南區","LI":"海東里","LIN":"1鄰","STREET":"海佃路","SECT":"二段","MAREA":" ","LANE":" ","ALLEY":" ","HOUSE_NO":"５２９號","E_COORD97":166652.70999999999,"N_COORD97":2549263.02,"ADDRESS":"海佃路二段５２９號","OBJECTID":113939},"geometry":{"x":166652.71000000089,"y":2549263.0200000014}},{"attributes":{"ID":113940,"DIS_CODE":0,"TOWNNAME":"安南區","LI":"海東里","LIN":"1鄰","STREET":"海佃路","SECT":"二段","MAREA":" ","LANE":" ","ALLEY":" ","HOUSE_NO":"５３１號","E_COORD97":166650.91,"N_COORD97":2549266.54,"ADDRESS":"海佃路二段５３１號","OBJECTID":113940},"geometry":{"x":166650.91000000015,"y":2549266.5399999991}},{"attributes":{"ID":113941,"DIS_CODE":0,"TOWNNAME":"安南區","LI":"海東里","LIN":"1鄰","STREET":"海佃路","SECT":"二段","MAREA":" ","LANE":" ","ALLEY":" ","HOUSE_NO":"５３３號","E_COORD97":166649.63,"N_COORD97":2549270.4399999999,"ADDRESS":"海佃路二段５３３號","OBJECTID":113941},"geometry":{"x":166649.63000000082,"y":2549270.4400000013}},{"attributes":{"ID":113942,"DIS_CODE":0,"TOWNNAME":"安南區","LI":"海東里","LIN":"1鄰","STREET":"海佃路","SECT":"二段","MAREA":" ","LANE":" ","ALLEY":" ","HOUSE_NO":"５３５號","E_COORD97":166648.70000000001,"N_COORD97":2549280.75,"ADDRESS":"海佃路二段５３５號","OBJECTID":113942},"geometry":{"x":166648.70000000019,"y":2549280.75}},{"attributes":{"ID":113943,"DIS_CODE":0,"TOWNNAME":"安南區","LI":"海東里","LIN":"1鄰","STREET":"海佃路","SECT":"二段","MAREA":" ","LANE":" ","ALLEY":" ","HOUSE_NO":"５３７號","E_COORD97":166646.01999999999,"N_COORD97":2549284.9399999999,"ADDRESS":"海佃路二段５３７號","OBJECTID":113943},"geometry":{"x":166646.01999999955,"y":2549284.9399999995}},{"attributes":{"ID":113944,"DIS_CODE":0,"TOWNNAME":"安南區","LI":"海東里","LIN":"1鄰","STREET":"海佃路","SECT":"二段","MAREA":" ","LANE":" ","ALLEY":" ","HOUSE_NO":"５３９號","E_COORD97":166645.41,"N_COORD97":2549288.27,"ADDRESS":"海佃路二段５３９號","OBJECTID":113944},"geometry":{"x":166645.41000000015,"y":2549288.2700000014}},{"attributes":{"ID":113945,"DIS_CODE":0,"TOWNNAME":"安南區","LI":"海東里","LIN":"1鄰","STREET":"海佃路","SECT":"二段","MAREA":" ","LANE":" ","ALLEY":" ","HOUSE_NO":"５４３號","E_COORD97":166641.91,"N_COORD97":2549296.1299999999,"ADDRESS":"海佃路二段５４３號","OBJECTID":113945},"geometry":{"x":166641.91000000015,"y":2549296.129999999}},{"attributes":{"ID":113946,"DIS_CODE":0,"TOWNNAME":"官田區","LI":"渡頭里","LIN":"23鄰","STREET":" ","SECT":" ","MAREA":"渡子頭","LANE":" ","ALLEY":" ","HOUSE_NO":"１８１號之１","E_COORD97":181363.98000000001,"N_COORD97":2563223.4199999999,"ADDRESS":"渡子頭１８１號之１","OBJECTID":113946},"geometry":{"x":181363.98000000138,"y":2563223.4199999999}},{"attributes":{"ID":113947,"DIS_CODE":0,"TOWNNAME":"官田區","LI":"渡頭里","LIN":"23鄰","STREET":" ","SECT":" ","MAREA":"渡子頭","LANE":" ","ALLEY":" ","HOUSE_NO":"１８１號之２","E_COORD97":181370.85000000001,"N_COORD97":2563216.0699999998,"ADDRESS":"渡子頭１８１號之２","OBJECTID":113947},"geometry":{"x":181370.85000000056,"y":2563216.0700000003}},{"attributes":{"ID":113948,"DIS_CODE":0,"TOWNNAME":"官田區","LI":"渡頭里","LIN":"23鄰","STREET":" ","SECT":" ","MAREA":"渡子頭","LANE":" ","ALLEY":" ","HOUSE_NO":"１８１號之３","E_COORD97":181347.06,"N_COORD97":2563205.4300000002,"ADDRESS":"渡子頭１８１號之３","OBJECTID":113948},"geometry":{"x":181347.06000000052,"y":2563205.4300000016}},{"attributes":{"ID":113949,"DIS_CODE":0,"TOWNNAME":"官田區","LI":"渡頭里","LIN":"23鄰","STREET":" ","SECT":" ","MAREA":"渡子頭","LANE":" ","ALLEY":" ","HOUSE_NO":"１８１號","E_COORD97":181333.56,"N_COORD97":2563223.7799999998,"ADDRESS":"渡子頭１８１號","OBJECTID":113949},"geometry":{"x":181333.56000000052,"y":2563223.7799999993}},{"attributes":{"ID":113950,"DIS_CODE":0,"TOWNNAME":"官田區","LI":"渡頭里","LIN":"23鄰","STREET":" ","SECT":" ","MAREA":"渡子頭","LANE":" ","ALLEY":" ","HOUSE_NO":"１８２號之１","E_COORD97":181351.81,"N_COORD97":2563151.5,"ADDRESS":"渡子頭１８２號之１","OBJECTID":113950},"geometry":{"x":181351.81000000145,"y":2563151.5}},{"attributes":{"ID":113951,"DIS_CODE":0,"TOWNNAME":"官田區","LI":"渡頭里","LIN":"23鄰","STREET":" ","SECT":" ","MAREA":"渡子頭","LANE":" ","ALLEY":" ","HOUSE_NO":"１８２號之８","E_COORD97":181375.67999999999,"N_COORD97":2563190.2799999998,"ADDRESS":"渡子頭１８２號之８","OBJECTID":113951},"geometry":{"x":181375.68000000063,"y":2563190.2799999993}},{"attributes":{"ID":113952,"DIS_CODE":0,"TOWNNAME":"官田區","LI":"渡頭里","LIN":"23鄰","STREET":" ","SECT":" ","MAREA":"渡子頭","LANE":" ","ALLEY":" ","HOUSE_NO":"１８２號","E_COORD97":181352.23000000001,"N_COORD97":2563182.27,"ADDRESS":"渡子頭１８２號","OBJECTID":113952},"geometry":{"x":181352.23000000138,"y":2563182.2700000014}},{"attributes":{"ID":113953,"DIS_CODE":0,"TOWNNAME":"下營區","LI":"開化里","LIN":"1鄰","STREET":" ","SECT":" ","MAREA":"中營","LANE":" ","ALLEY":" ","HOUSE_NO":"３１號","E_COORD97":175655.47,"N_COORD97":2568283.5299999998,"ADDRESS":"中營３１號","OBJECTID":113953},"geometry":{"x":175655.47000000067,"y":2568283.5299999993}},{"attributes":{"ID":113954,"DIS_CODE":0,"TOWNNAME":"官田區","LI":"渡頭里","LIN":"23鄰","STREET":" ","SECT":" ","MAREA":"渡子頭","LANE":" ","ALLEY":" ","HOUSE_NO":"１８３號之１","E_COORD97":181381.66,"N_COORD97":2563231.46,"ADDRESS":"渡子頭１８３號之１","OBJECTID":113954},"geometry":{"x":181381.66000000015,"y":2563231.4600000009}},{"attributes":{"ID":113955,"DIS_CODE":0,"TOWNNAME":"官田區","LI":"渡頭里","LIN":"23鄰","STREET":" ","SECT":" ","MAREA":"渡子頭","LANE":" ","ALLEY":" ","HOUSE_NO":"１８３號之２","E_COORD97":181390.45999999999,"N_COORD97":2563205.52,"ADDRESS":"渡子頭１８３號之２","OBJECTID":113955},"geometry":{"x":181390.46000000089,"y":2563205.5199999996}},{"attributes":{"ID":113956,"DIS_CODE":0,"TOWNNAME":"官田區","LI":"渡頭里","LIN":"23鄰","STREET":" ","SECT":" ","MAREA":"渡子頭","LANE":" ","ALLEY":" ","HOUSE_NO":"１８３號","E_COORD97":181386.57000000001,"N_COORD97":2563203.2799999998,"ADDRESS":"渡子頭１８３號","OBJECTID":113956},"geometry":{"x":181386.57000000216,"y":2563203.2799999993}},{"attributes":{"ID":113957,"DIS_CODE":0,"TOWNNAME":"官田區","LI":"渡頭里","LIN":"23鄰","STREET":" ","SECT":" ","MAREA":"渡子頭","LANE":" ","ALLEY":" ","HOUSE_NO":"１８４號之１","E_COORD97":181408.92000000001,"N_COORD97":2563240.4700000002,"ADDRESS":"渡子頭１８４號之１","OBJECTID":113957},"geometry":{"x":181408.91999999993,"y":2563240.4700000007}},{"attributes":{"ID":113958,"DIS_CODE":0,"TOWNNAME":"官田區","LI":"渡頭里","LIN":"23鄰","STREET":" ","SECT":" ","MAREA":"渡子頭","LANE":" ","ALLEY":" ","HOUSE_NO":"１８４號","E_COORD97":181404.31,"N_COORD97":2563211,"ADDRESS":"渡子頭１８４號","OBJECTID":113958},"geometry":{"x":181404.30999999866,"y":2563211.0000000019}},{"attributes":{"ID":113959,"DIS_CODE":0,"TOWNNAME":"官田區","LI":"渡頭里","LIN":"23鄰","STREET":" ","SECT":" ","MAREA":"渡子頭","LANE":" ","ALLEY":" ","HOUSE_NO":"１８５號之１","E_COORD97":181462.28,"N_COORD97":2563291.0800000001,"ADDRESS":"渡子頭１８５號之１","OBJECTID":113959},"geometry":{"x":181462.28000000026,"y":2563291.0799999982}},{"attributes":{"ID":113960,"DIS_CODE":0,"TOWNNAME":"官田區","LI":"渡頭里","LIN":"23鄰","STREET":" ","SECT":" ","MAREA":"渡子頭","LANE":" ","ALLEY":" ","HOUSE_NO":"１８５號","E_COORD97":181479.17999999999,"N_COORD97":2563315.71,"ADDRESS":"渡子頭１８５號","OBJECTID":113960},"geometry":{"x":181479.1799999997,"y":2563315.7100000028}},{"attributes":{"ID":113961,"DIS_CODE":0,"TOWNNAME":"官田區","LI":"渡頭里","LIN":"23鄰","STREET":" ","SECT":" ","MAREA":"渡子頭","LANE":" ","ALLEY":" ","HOUSE_NO":"１８６號","E_COORD97":181371.29999999999,"N_COORD97":2563575.4900000002,"ADDRESS":"渡子頭１８６號","OBJECTID":113961},"geometry":{"x":181371.30000000075,"y":2563575.4900000002}},{"attributes":{"ID":113962,"DIS_CODE":0,"TOWNNAME":"善化區","LI":"胡厝里","LIN":"28鄰","STREET":" ","SECT":" ","MAREA":"烏橋","LANE":" ","ALLEY":" ","HOUSE_NO":"４９號","E_COORD97":175318.62,"N_COORD97":2558881.75,"ADDRESS":"烏橋４９號","OBJECTID":113962},"geometry":{"x":175318.62000000011,"y":2558881.75}},{"attributes":{"ID":113963,"DIS_CODE":0,"TOWNNAME":"善化區","LI":"嘉南里","LIN":"2鄰","STREET":" ","SECT":" ","MAREA":"茄拔","LANE":" ","ALLEY":" ","HOUSE_NO":"６４號","E_COORD97":181055.87,"N_COORD97":2559344.5099999998,"ADDRESS":"茄拔６４號","OBJECTID":113963},"geometry":{"x":181055.87000000104,"y":2559344.5099999998}},{"attributes":{"ID":113964,"DIS_CODE":0,"TOWNNAME":"善化區","LI":"嘉南里","LIN":"4鄰","STREET":" ","SECT":" ","MAREA":"茄拔","LANE":" ","ALLEY":" ","HOUSE_NO":"８６之２號","E_COORD97":181009.72,"N_COORD97":2559471.77,"ADDRESS":"茄拔８６之２號","OBJECTID":113964},"geometry":{"x":181009.71999999974,"y":2559471.7700000033}},{"attributes":{"ID":113965,"DIS_CODE":0,"TOWNNAME":"善化區","LI":"溪美里","LIN":"18鄰","STREET":" ","SECT":" ","MAREA":"溪尾","LANE":" ","ALLEY":" ","HOUSE_NO":"２１２號","E_COORD97":177220.38,"N_COORD97":2561399.52,"ADDRESS":"溪尾２１２號","OBJECTID":113965},"geometry":{"x":177220.37999999989,"y":2561399.5200000033}},{"attributes":{"ID":113966,"DIS_CODE":0,"TOWNNAME":"善化區","LI":"胡厝里","LIN":"25鄰","STREET":" ","SECT":" ","MAREA":"烏橋","LANE":" ","ALLEY":" ","HOUSE_NO":"２６號之９","E_COORD97":175403.73999999999,"N_COORD97":2558960.02,"ADDRESS":"烏橋２６號之９","OBJECTID":113966},"geometry":{"x":175403.74000000115,"y":2558960.0199999996}},{"attributes":{"ID":113967,"DIS_CODE":0,"TOWNNAME":"善化區","LI":"嘉南里","LIN":"1鄰","STREET":" ","SECT":" ","MAREA":"茄拔","LANE":" ","ALLEY":" ","HOUSE_NO":"６０號之１３","E_COORD97":181261.01999999999,"N_COORD97":2559542.27,"ADDRESS":"茄拔６０號之１３","OBJECTID":113967},"geometry":{"x":181261.02000000048,"y":2559542.2699999996}},{"attributes":{"ID":113968,"DIS_CODE":0,"TOWNNAME":"善化區","LI":"東昌里","LIN":"6鄰","STREET":" ","SECT":" ","MAREA":"東勢寮","LANE":" ","ALLEY":" ","HOUSE_NO":"６４之１號","E_COORD97":180520.29999999999,"N_COORD97":2561975.27,"ADDRESS":"東勢寮６４之１號","OBJECTID":113968},"geometry":{"x":180520.30000000075,"y":2561975.2700000014}},{"attributes":{"ID":113969,"DIS_CODE":0,"TOWNNAME":"善化區","LI":"溪美里","LIN":"22鄰","STREET":" ","SECT":" ","MAREA":"溪尾","LANE":" ","ALLEY":" ","HOUSE_NO":"１９９號","E_COORD97":176944.45999999999,"N_COORD97":2561164.2599999998,"ADDRESS":"溪尾１９９號","OBJECTID":113969},"geometry":{"x":176944.46000000089,"y":2561164.2600000035}},{"attributes":{"ID":113970,"DIS_CODE":0,"TOWNNAME":"善化區","LI":"嘉南里","LIN":"4鄰","STREET":" ","SECT":" ","MAREA":"茄拔","LANE":" ","ALLEY":" ","HOUSE_NO":"８６之１號","E_COORD97":181013.92000000001,"N_COORD97":2559472.02,"ADDRESS":"茄拔８６之１號","OBJECTID":113970},"geometry":{"x":181013.91999999993,"y":2559472.0199999996}},{"attributes":{"ID":113971,"DIS_CODE":0,"TOWNNAME":"善化區","LI":"嘉南里","LIN":"4鄰","STREET":" ","SECT":" ","MAREA":"茄拔","LANE":" ","ALLEY":" ","HOUSE_NO":"８４號","E_COORD97":181023.73000000001,"N_COORD97":2559451.5099999998,"ADDRESS":"茄拔８４號","OBJECTID":113971},"geometry":{"x":181023.73000000045,"y":2559451.5100000016}},{"attributes":{"ID":113972,"DIS_CODE":0,"TOWNNAME":"善化區","LI":"嘉南里","LIN":"5鄰","STREET":" ","SECT":" ","MAREA":"茄拔","LANE":" ","ALLEY":" ","HOUSE_NO":"９４號","E_COORD97":180961.25,"N_COORD97":2559501.5099999998,"ADDRESS":"茄拔９４號","OBJECTID":113972},"geometry":{"x":180961.25000000186,"y":2559501.5100000016}},{"attributes":{"ID":113973,"DIS_CODE":0,"TOWNNAME":"善化區","LI":"溪美里","LIN":"18鄰","STREET":" ","SECT":" ","MAREA":"溪尾","LANE":" ","ALLEY":" ","HOUSE_NO":"２１３號","E_COORD97":177226.10000000001,"N_COORD97":2561399.77,"ADDRESS":"溪尾２１３號","OBJECTID":113973},"geometry":{"x":177226.10000000056,"y":2561399.7699999996}},{"attributes":{"ID":113974,"DIS_CODE":0,"TOWNNAME":"善化區","LI":"胡厝里","LIN":"25鄰","STREET":" ","SECT":" ","MAREA":"烏橋","LANE":" ","ALLEY":" ","HOUSE_NO":"２６號之１３","E_COORD97":175414.84,"N_COORD97":2558952.02,"ADDRESS":"烏橋２６號之１３","OBJECTID":113974},"geometry":{"x":175414.83999999985,"y":2558952.0200000014}},{"attributes":{"ID":113975,"DIS_CODE":0,"TOWNNAME":"善化區","LI":"嘉南里","LIN":"13鄰","STREET":" ","SECT":" ","MAREA":"茄拔","LANE":" ","ALLEY":" ","HOUSE_NO":"３４１號之２","E_COORD97":180814.84,"N_COORD97":2559456.02,"ADDRESS":"茄拔３４１號之２","OBJECTID":113975},"geometry":{"x":180814.84000000078,"y":2559456.0199999996}},{"attributes":{"ID":113976,"DIS_CODE":0,"TOWNNAME":"善化區","LI":"嘉北里","LIN":"13鄰","STREET":" ","SECT":" ","MAREA":"茄拔","LANE":" ","ALLEY":" ","HOUSE_NO":"３００之５號","E_COORD97":180953.95000000001,"N_COORD97":2559712.77,"ADDRESS":"茄拔３００之５號","OBJECTID":113976},"geometry":{"x":180953.95000000112,"y":2559712.7700000033}},{"attributes":{"ID":113977,"DIS_CODE":0,"TOWNNAME":"善化區","LI":"嘉南里","LIN":"13鄰","STREET":" ","SECT":" ","MAREA":"茄拔","LANE":" ","ALLEY":" ","HOUSE_NO":"３２５號","E_COORD97":180888.03,"N_COORD97":2559511.0099999998,"ADDRESS":"茄拔３２５號","OBJECTID":113977},"geometry":{"x":180888.03000000026,"y":2559511.0099999979}},{"attributes":{"ID":113978,"DIS_CODE":0,"TOWNNAME":"善化區","LI":"溪美里","LIN":"1鄰","STREET":" ","SECT":" ","MAREA":"溪尾","LANE":" ","ALLEY":" ","HOUSE_NO":"１００１之３號","E_COORD97":177162.42000000001,"N_COORD97":2560027.27,"ADDRESS":"溪尾１００１之３號","OBJECTID":113978},"geometry":{"x":177162.41999999993,"y":2560027.2699999996}},{"attributes":{"ID":113979,"DIS_CODE":0,"TOWNNAME":"善化區","LI":"嘉南里","LIN":"1鄰","STREET":" ","SECT":" ","MAREA":"茄拔","LANE":" ","ALLEY":" ","HOUSE_NO":"６０號之１９","E_COORD97":181246.79999999999,"N_COORD97":2559465.02,"ADDRESS":"茄拔６０號之１９","OBJECTID":113979},"geometry":{"x":181246.79999999981,"y":2559465.0200000014}},{"attributes":{"ID":113980,"DIS_CODE":0,"TOWNNAME":"善化區","LI":"嘉南里","LIN":"1鄰","STREET":" ","SECT":" ","MAREA":"茄拔","LANE":" ","ALLEY":" ","HOUSE_NO":"６１號","E_COORD97":181082.28,"N_COORD97":2559409.7599999998,"ADDRESS":"茄拔６１號","OBJECTID":113980},"geometry":{"x":181082.28000000119,"y":2559409.7599999998}},{"attributes":{"ID":113981,"DIS_CODE":0,"TOWNNAME":"善化區","LI":"嘉南里","LIN":"1鄰","STREET":" ","SECT":" ","MAREA":"茄拔","LANE":" ","ALLEY":" ","HOUSE_NO":"６０號","E_COORD97":181242.14000000001,"N_COORD97":2559391.7599999998,"ADDRESS":"茄拔６０號","OBJECTID":113981},"geometry":{"x":181242.13999999966,"y":2559391.7600000016}},{"attributes":{"ID":113982,"DIS_CODE":0,"TOWNNAME":"善化區","LI":"溪美里","LIN":"22鄰","STREET":" ","SECT":" ","MAREA":"溪尾","LANE":" ","ALLEY":" ","HOUSE_NO":"１９６號之４","E_COORD97":176992.32999999999,"N_COORD97":2561087.27,"ADDRESS":"溪尾１９６號之４","OBJECTID":113982},"geometry":{"x":176992.33000000194,"y":2561087.2700000014}},{"attributes":{"ID":113983,"DIS_CODE":0,"TOWNNAME":"善化區","LI":"溪美里","LIN":"18鄰","STREET":" ","SECT":" ","MAREA":"溪尾","LANE":" ","ALLEY":" ","HOUSE_NO":"２１１號之７","E_COORD97":177208.87,"N_COORD97":2561352.52,"ADDRESS":"溪尾２１１號之７","OBJECTID":113983},"geometry":{"x":177208.86999999918,"y":2561352.5200000014}},{"attributes":{"ID":113984,"DIS_CODE":0,"TOWNNAME":"善化區","LI":"溪美里","LIN":"18鄰","STREET":" ","SECT":" ","MAREA":"溪尾","LANE":" ","ALLEY":" ","HOUSE_NO":"２１７號之２","E_COORD97":177291.79000000001,"N_COORD97":2561038.02,"ADDRESS":"溪尾２１７號之２","OBJECTID":113984},"geometry":{"x":177291.79000000004,"y":2561038.0200000014}},{"attributes":{"ID":113985,"DIS_CODE":0,"TOWNNAME":"善化區","LI":"嘉北里","LIN":"13鄰","STREET":" ","SECT":" ","MAREA":"茄拔","LANE":" ","ALLEY":" ","HOUSE_NO":"３００之３號","E_COORD97":180953.63,"N_COORD97":2559704.52,"ADDRESS":"茄拔３００之３號","OBJECTID":113985},"geometry":{"x":180953.63000000082,"y":2559704.5200000014}},{"attributes":{"ID":113986,"DIS_CODE":0,"TOWNNAME":"善化區","LI":"嘉南里","LIN":"1鄰","STREET":" ","SECT":" ","MAREA":"茄拔","LANE":" ","ALLEY":" ","HOUSE_NO":"６０號之２８","E_COORD97":181359.09,"N_COORD97":2559424.52,"ADDRESS":"茄拔６０號之２８","OBJECTID":113986},"geometry":{"x":181359.09000000078,"y":2559424.5199999996}},{"attributes":{"ID":113987,"DIS_CODE":0,"TOWNNAME":"學甲區","LI":"中洲里","LIN":"23鄰","STREET":" ","SECT":" ","MAREA":"中洲","LANE":" ","ALLEY":" ","HOUSE_NO":"２９７號","E_COORD97":163703.67999999999,"N_COORD97":2571703.5099999998,"ADDRESS":"中洲２９７號","OBJECTID":113987},"geometry":{"x":163703.6799999997,"y":2571703.5100000016}},{"attributes":{"ID":113988,"DIS_CODE":0,"TOWNNAME":"善化區","LI":"嘉南里","LIN":"1鄰","STREET":" ","SECT":" ","MAREA":"茄拔","LANE":" ","ALLEY":" ","HOUSE_NO":"６０號之１８","E_COORD97":181244.78,"N_COORD97":2559492.27,"ADDRESS":"茄拔６０號之１８","OBJECTID":113988},"geometry":{"x":181244.78000000119,"y":2559492.2700000033}},{"attributes":{"ID":113989,"DIS_CODE":0,"TOWNNAME":"善化區","LI":"嘉南里","LIN":"1鄰","STREET":" ","SECT":" ","MAREA":"茄拔","LANE":" ","ALLEY":" ","HOUSE_NO":"５９號之１５","E_COORD97":181103.59,"N_COORD97":2559471.02,"ADDRESS":"茄拔５９號之１５","OBJECTID":113989},"geometry":{"x":181103.59000000078,"y":2559471.0200000014}},{"attributes":{"ID":113990,"DIS_CODE":0,"TOWNNAME":"永康區","LI":"東灣里","LIN":"28鄰","STREET":"民族路","SECT":" ","MAREA":" ","LANE":"１８１巷","ALLEY":"１弄","HOUSE_NO":"７號","E_COORD97":175259.66,"N_COORD97":2544841.8399999999,"ADDRESS":"民族路１８１巷１弄７號","OBJECTID":113990},"geometry":{"x":175259.66000000108,"y":2544841.8399999999}},{"attributes":{"ID":113991,"DIS_CODE":0,"TOWNNAME":"安南區","LI":"\u25A0南里","LIN":"28鄰","STREET":"環福街","SECT":" ","MAREA":" ","LANE":"２２０巷","ALLEY":"２１弄","HOUSE_NO":"２之１號","E_COORD97":170279.28,"N_COORD97":2552743.3900000001,"ADDRESS":"環福街２２０巷２１弄２之１號","OBJECTID":113991},"geometry":{"x":170279.28000000026,"y":2552743.3900000025}},{"attributes":{"ID":113992,"DIS_CODE":0,"TOWNNAME":"東區","LI":"和平里","LIN":"12鄰","STREET":"東門路","SECT":"三段","MAREA":" ","LANE":"２２６巷","ALLEY":"９７弄","HOUSE_NO":"４５號","E_COORD97":171489.38,"N_COORD97":2541742.2799999998,"ADDRESS":"東門路三段２２６巷９７弄４５號","OBJECTID":113992},"geometry":{"x":171489.38000000082,"y":2541742.2799999993}},{"attributes":{"ID":113993,"DIS_CODE":0,"TOWNNAME":"東區","LI":"和平里","LIN":"12鄰","STREET":"東門路","SECT":"三段","MAREA":" ","LANE":"２２６巷","ALLEY":"９７弄","HOUSE_NO":"４６號","E_COORD97":171469.66,"N_COORD97":2541743.1600000001,"ADDRESS":"東門路三段２２６巷９７弄４６號","OBJECTID":113993},"geometry":{"x":171469.66000000108,"y":2541743.160000002}},{"attributes":{"ID":113994,"DIS_CODE":0,"TOWNNAME":"東區","LI":"和平里","LIN":"12鄰","STREET":"東門路","SECT":"三段","MAREA":" ","LANE":"２２６巷","ALLEY":"９７弄","HOUSE_NO":"４７號","E_COORD97":171496.03,"N_COORD97":2541742.1400000001,"ADDRESS":"東門路三段２２６巷９７弄４７號","OBJECTID":113994},"geometry":{"x":171496.03000000119,"y":2541742.1400000043}},{"attributes":{"ID":113995,"DIS_CODE":0,"TOWNNAME":"永康區","LI":"尚頂里","LIN":"28鄰","STREET":"南台街","SECT":" ","MAREA":" ","LANE":"５４巷","ALLEY":"４１弄","HOUSE_NO":"１０號","E_COORD97":170295.47,"N_COORD97":2547092.9500000002,"ADDRESS":"南台街５４巷４１弄１０號","OBJECTID":113995},"geometry":{"x":170295.47000000067,"y":2547092.9500000011}},{"attributes":{"ID":113996,"DIS_CODE":0,"TOWNNAME":"永康區","LI":"尚頂里","LIN":"28鄰","STREET":"南台街","SECT":" ","MAREA":" ","LANE":"５４巷","ALLEY":"４１弄","HOUSE_NO":"５號","E_COORD97":170316.10999999999,"N_COORD97":2547092.9500000002,"ADDRESS":"南台街５４巷４１弄５號","OBJECTID":113996},"geometry":{"x":170316.11000000034,"y":2547092.9500000011}},{"attributes":{"ID":113997,"DIS_CODE":0,"TOWNNAME":"永康區","LI":"尚頂里","LIN":"28鄰","STREET":"南台街","SECT":" ","MAREA":" ","LANE":"５４巷","ALLEY":"４１弄","HOUSE_NO":"１２號","E_COORD97":170285.31,"N_COORD97":2547092.8399999999,"ADDRESS":"南台街５４巷４１弄１２號","OBJECTID":113997},"geometry":{"x":170285.30999999959,"y":2547092.8399999999}},{"attributes":{"ID":113998,"DIS_CODE":0,"TOWNNAME":"永康區","LI":"尚頂里","LIN":"28鄰","STREET":"南台街","SECT":" ","MAREA":" ","LANE":"５４巷","ALLEY":"４１弄","HOUSE_NO":"７號","E_COORD97":170307.67000000001,"N_COORD97":2547092.9500000002,"ADDRESS":"南台街５４巷４１弄７號","OBJECTID":113998},"geometry":{"x":170307.67000000086,"y":2547092.9500000011}},{"attributes":{"ID":113999,"DIS_CODE":0,"TOWNNAME":"永康區","LI":"正強里","LIN":"28鄰","STREET":"中正路","SECT":" ","MAREA":" ","LANE":"１５５巷","ALLEY":"６弄","HOUSE_NO":"１９號","E_COORD97":173174.41,"N_COORD97":2547818.2400000002,"ADDRESS":"中正路１５５巷６弄１９號","OBJECTID":113999},"geometry":{"x":173174.41000000108,"y":2547818.2400000021}},{"attributes":{"ID":114000,"DIS_CODE":0,"TOWNNAME":"永康區","LI":"正強里","LIN":"28鄰","STREET":"中正路","SECT":" ","MAREA":" ","LANE":"１５５巷","ALLEY":"８弄","HOUSE_NO":"１８號","E_COORD97":173192.82999999999,"N_COORD97":2547792,"ADDRESS":"中正路１５５巷８弄１８號","OBJECTID":114000},"geometry":{"x":173192.83000000007,"y":2547792.0000000019}}]}