{"displayFieldName":"TOWNNAME","fieldAliases":{"ID":"ID","DIS_CODE":"DIS_CODE","TOWNNAME":"TOWNNAME","LI":"LI","LIN":"LIN","STREET":"STREET","SECT":"SECT","MAREA":"MAREA","LANE":"LANE","ALLEY":"ALLEY","HOUSE_NO":"HOUSE_NO","E_COORD97":"E_COORD97","N_COORD97":"N_COORD97","ADDRESS":"ADDRESS","OBJECTID":"OBJECTID"},"geometryType":"esriGeometryPoint","spatialReference":{"wkid":102443,"latestWkid":3826},"fields":[{"name":"ID","type":"esriFieldTypeDouble","alias":"ID"},{"name":"DIS_CODE","type":"esriFieldTypeInteger","alias":"DIS_CODE"},{"name":"TOWNNAME","type":"esriFieldTypeString","alias":"TOWNNAME","length":8},{"name":"LI","type":"esriFieldTypeString","alias":"LI","length":8},{"name":"LIN","type":"esriFieldTypeString","alias":"LIN","length":12},{"name":"STREET","type":"esriFieldTypeString","alias":"STREET","length":20},{"name":"SECT","type":"esriFieldTypeString","alias":"SECT","length":8},{"name":"MAREA","type":"esriFieldTypeString","alias":"MAREA","length":12},{"name":"LANE","type":"esriFieldTypeString","alias":"LANE","length":10},{"name":"ALLEY","type":"esriFieldTypeString","alias":"ALLEY","length":10},{"name":"HOUSE_NO","type":"esriFieldTypeString","alias":"HOUSE_NO","length":20},{"name":"E_COORD97","type":"esriFieldTypeDouble","alias":"E_COORD97"},{"name":"N_COORD97","type":"esriFieldTypeDouble","alias":"N_COORD97"},{"name":"ADDRESS","type":"esriFieldTypeString","alias":"ADDRESS","length":50},{"name":"OBJECTID","type":"esriFieldTypeOID","alias":"OBJECTID"}],"features":[{"attributes":{"ID":522228,"DIS_CODE":0,"TOWNNAME":"安平區","LI":"建平里","LIN":"6鄰","STREET":"慶平路","SECT":" ","MAREA":" ","LANE":" ","ALLEY":" ","HOUSE_NO":"１７２號","E_COORD97":165925.57000000001,"N_COORD97":2544204.7400000002,"ADDRESS":"慶平路１７２號","OBJECTID":522201},"geometry":{"x":165925.5700000003,"y":2544204.7400000002}},{"attributes":{"ID":522229,"DIS_CODE":0,"TOWNNAME":"安平區","LI":"建平里","LIN":"6鄰","STREET":"慶平路","SECT":" ","MAREA":" ","LANE":" ","ALLEY":" ","HOUSE_NO":"１７４號","E_COORD97":165920.04000000001,"N_COORD97":2544204.4700000002,"ADDRESS":"慶平路１７４號","OBJECTID":522202},"geometry":{"x":165920.04000000097,"y":2544204.4700000007}},{"attributes":{"ID":522230,"DIS_CODE":0,"TOWNNAME":"安平區","LI":"建平里","LIN":"6鄰","STREET":"慶平路","SECT":" ","MAREA":" ","LANE":" ","ALLEY":" ","HOUSE_NO":"１７６號","E_COORD97":165915.17999999999,"N_COORD97":2544203.9300000002,"ADDRESS":"慶平路１７６號","OBJECTID":522203},"geometry":{"x":165915.18000000063,"y":2544203.9299999978}},{"attributes":{"ID":522231,"DIS_CODE":0,"TOWNNAME":"安平區","LI":"建平里","LIN":"6鄰","STREET":"建平十七街","SECT":" ","MAREA":" ","LANE":" ","ALLEY":" ","HOUSE_NO":"１２３號","E_COORD97":165915.35999999999,"N_COORD97":2544235.8399999999,"ADDRESS":"建平十七街１２３號","OBJECTID":522204},"geometry":{"x":165915.36000000034,"y":2544235.8400000017}},{"attributes":{"ID":522232,"DIS_CODE":0,"TOWNNAME":"新營區","LI":"民權里","LIN":"6鄰","STREET":"信義街","SECT":" ","MAREA":" ","LANE":" ","ALLEY":" ","HOUSE_NO":"９號","E_COORD97":179950.39000000001,"N_COORD97":2578118.8900000001,"ADDRESS":"信義街９號","OBJECTID":522205},"geometry":{"x":179950.38999999966,"y":2578118.8900000006}},{"attributes":{"ID":522233,"DIS_CODE":0,"TOWNNAME":"新營區","LI":"民生里","LIN":"6鄰","STREET":"民生路","SECT":" ","MAREA":" ","LANE":" ","ALLEY":" ","HOUSE_NO":"３２號","E_COORD97":179360.17999999999,"N_COORD97":2578261.2400000002,"ADDRESS":"民生路３２號","OBJECTID":522206},"geometry":{"x":179360.18000000063,"y":2578261.2400000002}},{"attributes":{"ID":522234,"DIS_CODE":0,"TOWNNAME":"新營區","LI":"民權里","LIN":"6鄰","STREET":"中山路","SECT":" ","MAREA":" ","LANE":" ","ALLEY":" ","HOUSE_NO":"２６０號","E_COORD97":179874.67999999999,"N_COORD97":2577998.5499999998,"ADDRESS":"中山路２６０號","OBJECTID":522207},"geometry":{"x":179874.68000000156,"y":2577998.5500000007}},{"attributes":{"ID":522235,"DIS_CODE":0,"TOWNNAME":"楠西區","LI":"楠西里","LIN":"6鄰","STREET":"中興路","SECT":" ","MAREA":" ","LANE":" ","ALLEY":" ","HOUSE_NO":"３７號之１１","E_COORD97":197203.5,"N_COORD97":2564285.2999999998,"ADDRESS":"中興路３７號之１１","OBJECTID":522208},"geometry":{"x":197203.50000000093,"y":2564285.3000000026}},{"attributes":{"ID":522236,"DIS_CODE":0,"TOWNNAME":"新化區","LI":"竹林里","LIN":"6鄰","STREET":"仁愛街","SECT":" ","MAREA":" ","LANE":" ","ALLEY":" ","HOUSE_NO":"８０號","E_COORD97":178885.28,"N_COORD97":2548575.25,"ADDRESS":"仁愛街８０號","OBJECTID":522209},"geometry":{"x":178885.28000000119,"y":2548575.25}},{"attributes":{"ID":522237,"DIS_CODE":0,"TOWNNAME":"新化區","LI":"中央里","LIN":"6鄰","STREET":"信義路","SECT":" ","MAREA":" ","LANE":" ","ALLEY":" ","HOUSE_NO":"２９４號","E_COORD97":178967.23000000001,"N_COORD97":2548315.25,"ADDRESS":"信義路２９４號","OBJECTID":522210},"geometry":{"x":178967.23000000138,"y":2548315.2500000019}},{"attributes":{"ID":522238,"DIS_CODE":0,"TOWNNAME":"新化區","LI":"中央里","LIN":"6鄰","STREET":"信義路","SECT":" ","MAREA":" ","LANE":" ","ALLEY":" ","HOUSE_NO":"３１０號","E_COORD97":178939.73000000001,"N_COORD97":2548352.25,"ADDRESS":"信義路３１０號","OBJECTID":522211},"geometry":{"x":178939.73000000138,"y":2548352.2500000037}},{"attributes":{"ID":522239,"DIS_CODE":0,"TOWNNAME":"新化區","LI":"中央里","LIN":"6鄰","STREET":"信義路","SECT":" ","MAREA":" ","LANE":" ","ALLEY":" ","HOUSE_NO":"３５８號","E_COORD97":178824.92999999999,"N_COORD97":2548314.25,"ADDRESS":"信義路３５８號","OBJECTID":522212},"geometry":{"x":178824.9299999997,"y":2548314.25}},{"attributes":{"ID":522240,"DIS_CODE":0,"TOWNNAME":"新化區","LI":"清水里","LIN":"6鄰","STREET":"長青街","SECT":" ","MAREA":" ","LANE":" ","ALLEY":" ","HOUSE_NO":"３８號","E_COORD97":178734.17999999999,"N_COORD97":2548490.25,"ADDRESS":"長青街３８號","OBJECTID":522213},"geometry":{"x":178734.18000000063,"y":2548490.25}},{"attributes":{"ID":522241,"DIS_CODE":0,"TOWNNAME":"東區","LI":"泉南里","LIN":"6鄰","STREET":"東門路","SECT":"一段","MAREA":" ","LANE":" ","ALLEY":" ","HOUSE_NO":"１３２號之６","E_COORD97":169437.38,"N_COORD97":2543139.8599999999,"ADDRESS":"東門路一段１３２號之６","OBJECTID":522214},"geometry":{"x":169437.37999999989,"y":2543139.8600000031}},{"attributes":{"ID":522242,"DIS_CODE":0,"TOWNNAME":"東區","LI":"泉南里","LIN":"6鄰","STREET":"東門路","SECT":"一段","MAREA":" ","LANE":" ","ALLEY":" ","HOUSE_NO":"１３２號之８","E_COORD97":169446.23999999999,"N_COORD97":2543136.9100000001,"ADDRESS":"東門路一段１３２號之８","OBJECTID":522215},"geometry":{"x":169446.24000000115,"y":2543136.9100000039}},{"attributes":{"ID":522243,"DIS_CODE":0,"TOWNNAME":"東區","LI":"泉南里","LIN":"6鄰","STREET":"東門路","SECT":"一段","MAREA":" ","LANE":" ","ALLEY":" ","HOUSE_NO":"１３２號之１５","E_COORD97":169446.69,"N_COORD97":2543112.4900000002,"ADDRESS":"東門路一段１３２號之１５","OBJECTID":522216},"geometry":{"x":169446.69000000134,"y":2543112.4900000039}},{"attributes":{"ID":522244,"DIS_CODE":0,"TOWNNAME":"東區","LI":"泉南里","LIN":"6鄰","STREET":"東門路","SECT":"一段","MAREA":" ","LANE":" ","ALLEY":" ","HOUSE_NO":"１２２號","E_COORD97":169446.07000000001,"N_COORD97":2543161.5299999998,"ADDRESS":"東門路一段１２２號","OBJECTID":522217},"geometry":{"x":169446.07000000123,"y":2543161.5299999993}},{"attributes":{"ID":522245,"DIS_CODE":0,"TOWNNAME":"東區","LI":"泉南里","LIN":"6鄰","STREET":"東門路","SECT":"一段","MAREA":" ","LANE":" ","ALLEY":" ","HOUSE_NO":"１２４號","E_COORD97":169449.85999999999,"N_COORD97":2543160.0899999999,"ADDRESS":"東門路一段１２４號","OBJECTID":522218},"geometry":{"x":169449.86000000034,"y":2543160.0900000017}},{"attributes":{"ID":522246,"DIS_CODE":0,"TOWNNAME":"東區","LI":"泉南里","LIN":"6鄰","STREET":"東門路","SECT":"一段","MAREA":" ","LANE":" ","ALLEY":" ","HOUSE_NO":"１２８號","E_COORD97":169458.47,"N_COORD97":2543160.5099999998,"ADDRESS":"東門路一段１２８號","OBJECTID":522219},"geometry":{"x":169458.46999999974,"y":2543160.5100000016}},{"attributes":{"ID":522247,"DIS_CODE":0,"TOWNNAME":"東區","LI":"泉南里","LIN":"6鄰","STREET":"東門路","SECT":"一段","MAREA":" ","LANE":" ","ALLEY":" ","HOUSE_NO":"１３０號","E_COORD97":169461.67999999999,"N_COORD97":2543158.8300000001,"ADDRESS":"東門路一段１３０號","OBJECTID":522220},"geometry":{"x":169461.68000000063,"y":2543158.8300000019}},{"attributes":{"ID":522248,"DIS_CODE":0,"TOWNNAME":"東區","LI":"泉南里","LIN":"6鄰","STREET":"東門路","SECT":"一段","MAREA":" ","LANE":" ","ALLEY":" ","HOUSE_NO":"１３２號之１１","E_COORD97":169441.42999999999,"N_COORD97":2543118.7999999998,"ADDRESS":"東門路一段１３２號之１１","OBJECTID":522221},"geometry":{"x":169441.43000000063,"y":2543118.8000000026}},{"attributes":{"ID":522249,"DIS_CODE":0,"TOWNNAME":"永康區","LI":"龍潭里","LIN":"6鄰","STREET":"龍埔街","SECT":" ","MAREA":" ","LANE":" ","ALLEY":" ","HOUSE_NO":"４號","E_COORD97":174857.48999999999,"N_COORD97":2548192.75,"ADDRESS":"龍埔街４號","OBJECTID":522222},"geometry":{"x":174857.49000000115,"y":2548192.7500000037}},{"attributes":{"ID":522250,"DIS_CODE":0,"TOWNNAME":"永康區","LI":"龍潭里","LIN":"6鄰","STREET":"龍潭街","SECT":" ","MAREA":" ","LANE":" ","ALLEY":" ","HOUSE_NO":"１９６號","E_COORD97":174902.07000000001,"N_COORD97":2548216.1299999999,"ADDRESS":"龍潭街１９６號","OBJECTID":522223},"geometry":{"x":174902.0700000003,"y":2548216.1300000027}},{"attributes":{"ID":522251,"DIS_CODE":0,"TOWNNAME":"中西區","LI":"天后里","LIN":"6鄰","STREET":"民權路","SECT":"二段","MAREA":" ","LANE":" ","ALLEY":" ","HOUSE_NO":"２７２號","E_COORD97":167986.28,"N_COORD97":2544078.1699999999,"ADDRESS":"民權路二段２７２號","OBJECTID":522224},"geometry":{"x":167986.28000000212,"y":2544078.1700000018}},{"attributes":{"ID":522252,"DIS_CODE":0,"TOWNNAME":"中西區","LI":"天后里","LIN":"6鄰","STREET":"民權路","SECT":"二段","MAREA":" ","LANE":" ","ALLEY":" ","HOUSE_NO":"２７４號","E_COORD97":167977.56,"N_COORD97":2544080.6099999999,"ADDRESS":"民權路二段２７４號","OBJECTID":522225},"geometry":{"x":167977.56000000052,"y":2544080.6100000031}},{"attributes":{"ID":522253,"DIS_CODE":0,"TOWNNAME":"中西區","LI":"天后里","LIN":"6鄰","STREET":"民權路","SECT":"二段","MAREA":" ","LANE":" ","ALLEY":" ","HOUSE_NO":"２７６號","E_COORD97":167973.73999999999,"N_COORD97":2544081.5299999998,"ADDRESS":"民權路二段２７６號","OBJECTID":522226},"geometry":{"x":167973.74000000022,"y":2544081.5300000012}},{"attributes":{"ID":522254,"DIS_CODE":0,"TOWNNAME":"中西區","LI":"天后里","LIN":"6鄰","STREET":"民權路","SECT":"二段","MAREA":" ","LANE":" ","ALLEY":" ","HOUSE_NO":"２７８號","E_COORD97":167969.31,"N_COORD97":2544082.4399999999,"ADDRESS":"民權路二段２７８號","OBJECTID":522227},"geometry":{"x":167969.30999999959,"y":2544082.4400000013}},{"attributes":{"ID":522255,"DIS_CODE":0,"TOWNNAME":"中西區","LI":"天后里","LIN":"6鄰","STREET":"民權路","SECT":"二段","MAREA":" ","LANE":" ","ALLEY":" ","HOUSE_NO":"２８０號","E_COORD97":167964.73000000001,"N_COORD97":2544083.6699999999,"ADDRESS":"民權路二段２８０號","OBJECTID":522228},"geometry":{"x":167964.73000000231,"y":2544083.6699999999}},{"attributes":{"ID":522256,"DIS_CODE":0,"TOWNNAME":"中西區","LI":"天后里","LIN":"6鄰","STREET":"西門路","SECT":"二段","MAREA":" ","LANE":" ","ALLEY":" ","HOUSE_NO":"２６８號","E_COORD97":167960.35000000001,"N_COORD97":2544086.6299999999,"ADDRESS":"西門路二段２６８號","OBJECTID":522229},"geometry":{"x":167960.35000000056,"y":2544086.6300000027}},{"attributes":{"ID":522257,"DIS_CODE":0,"TOWNNAME":"中西區","LI":"天后里","LIN":"6鄰","STREET":"西門路","SECT":"二段","MAREA":" ","LANE":" ","ALLEY":" ","HOUSE_NO":"２７０號","E_COORD97":167961.09,"N_COORD97":2544088.5600000001,"ADDRESS":"西門路二段２７０號","OBJECTID":522230},"geometry":{"x":167961.08999999985,"y":2544088.5599999987}},{"attributes":{"ID":522258,"DIS_CODE":0,"TOWNNAME":"中西區","LI":"天后里","LIN":"6鄰","STREET":"西門路","SECT":"二段","MAREA":" ","LANE":" ","ALLEY":" ","HOUSE_NO":"２７２號","E_COORD97":167961.67999999999,"N_COORD97":2544090.5899999999,"ADDRESS":"西門路二段２７２號","OBJECTID":522231},"geometry":{"x":167961.68000000063,"y":2544090.5899999999}},{"attributes":{"ID":522259,"DIS_CODE":0,"TOWNNAME":"中西區","LI":"天后里","LIN":"6鄰","STREET":"西門路","SECT":"二段","MAREA":" ","LANE":" ","ALLEY":" ","HOUSE_NO":"２７４號","E_COORD97":167962.31,"N_COORD97":2544093.1800000002,"ADDRESS":"西門路二段２７４號","OBJECTID":522232},"geometry":{"x":167962.31000000052,"y":2544093.1799999997}},{"attributes":{"ID":522260,"DIS_CODE":0,"TOWNNAME":"中西區","LI":"天后里","LIN":"6鄰","STREET":"西門路","SECT":"二段","MAREA":" ","LANE":" ","ALLEY":" ","HOUSE_NO":"２７６號","E_COORD97":167963.59,"N_COORD97":2544094.8700000001,"ADDRESS":"西門路二段２７６號","OBJECTID":522233},"geometry":{"x":167963.59000000078,"y":2544094.8700000029}},{"attributes":{"ID":522261,"DIS_CODE":0,"TOWNNAME":"中西區","LI":"天后里","LIN":"6鄰","STREET":"西門路","SECT":"二段","MAREA":" ","LANE":" ","ALLEY":" ","HOUSE_NO":"２７８號","E_COORD97":167964.32999999999,"N_COORD97":2544099.2799999998,"ADDRESS":"西門路二段２７８號","OBJECTID":522234},"geometry":{"x":167964.33000000101,"y":2544099.2799999993}},{"attributes":{"ID":522262,"DIS_CODE":0,"TOWNNAME":"中西區","LI":"天后里","LIN":"6鄰","STREET":"西門路","SECT":"二段","MAREA":" ","LANE":" ","ALLEY":" ","HOUSE_NO":"２８０號","E_COORD97":167966.89999999999,"N_COORD97":2544101.6600000001,"ADDRESS":"西門路二段２８０號","OBJECTID":522235},"geometry":{"x":167966.90000000224,"y":2544101.660000002}},{"attributes":{"ID":522263,"DIS_CODE":0,"TOWNNAME":"中西區","LI":"天后里","LIN":"6鄰","STREET":"西門路","SECT":"二段","MAREA":" ","LANE":" ","ALLEY":" ","HOUSE_NO":"２８２號","E_COORD97":167968,"N_COORD97":2544105.3100000001,"ADDRESS":"西門路二段２８２號","OBJECTID":522236},"geometry":{"x":167968.00000000093,"y":2544105.3100000024}},{"attributes":{"ID":522264,"DIS_CODE":0,"TOWNNAME":"中西區","LI":"天后里","LIN":"6鄰","STREET":"西門路","SECT":"二段","MAREA":" ","LANE":" ","ALLEY":" ","HOUSE_NO":"２８４號","E_COORD97":167969.64999999999,"N_COORD97":2544109.7200000002,"ADDRESS":"西門路二段２８４號","OBJECTID":522237},"geometry":{"x":167969.65000000037,"y":2544109.7200000025}},{"attributes":{"ID":522265,"DIS_CODE":0,"TOWNNAME":"中西區","LI":"天后里","LIN":"6鄰","STREET":"西門路","SECT":"二段","MAREA":" ","LANE":" ","ALLEY":" ","HOUSE_NO":"２８６號","E_COORD97":167972.04000000001,"N_COORD97":2544114.1200000001,"ADDRESS":"西門路二段２８６號","OBJECTID":522238},"geometry":{"x":167972.04000000004,"y":2544114.1200000029}},{"attributes":{"ID":522266,"DIS_CODE":0,"TOWNNAME":"中西區","LI":"天后里","LIN":"6鄰","STREET":"西門路","SECT":"二段","MAREA":" ","LANE":" ","ALLEY":" ","HOUSE_NO":"２８８號","E_COORD97":167975.34,"N_COORD97":2544122.3799999999,"ADDRESS":"西門路二段２８８號","OBJECTID":522239},"geometry":{"x":167975.34000000171,"y":2544122.3800000027}},{"attributes":{"ID":522267,"DIS_CODE":0,"TOWNNAME":"中西區","LI":"天后里","LIN":"6鄰","STREET":"西門路","SECT":"二段","MAREA":" ","LANE":" ","ALLEY":" ","HOUSE_NO":"２９０號","E_COORD97":167976.39999999999,"N_COORD97":2544126.3700000001,"ADDRESS":"西門路二段２９０號","OBJECTID":522240},"geometry":{"x":167976.40000000037,"y":2544126.370000001}},{"attributes":{"ID":522268,"DIS_CODE":0,"TOWNNAME":"中西區","LI":"天后里","LIN":"6鄰","STREET":"西門路","SECT":"二段","MAREA":" ","LANE":" ","ALLEY":" ","HOUSE_NO":"２９２號","E_COORD97":167979.29000000001,"N_COORD97":2544134.1200000001,"ADDRESS":"西門路二段２９２號","OBJECTID":522241},"geometry":{"x":167979.29000000097,"y":2544134.1200000029}},{"attributes":{"ID":522269,"DIS_CODE":0,"TOWNNAME":"中西區","LI":"天后里","LIN":"6鄰","STREET":"西門路","SECT":"二段","MAREA":" ","LANE":" ","ALLEY":" ","HOUSE_NO":"２９４號","E_COORD97":167980.20000000001,"N_COORD97":2544137.4700000002,"ADDRESS":"西門路二段２９４號","OBJECTID":522242},"geometry":{"x":167980.20000000112,"y":2544137.4700000025}},{"attributes":{"ID":522270,"DIS_CODE":0,"TOWNNAME":"中西區","LI":"天后里","LIN":"6鄰","STREET":"西門路","SECT":"二段","MAREA":" ","LANE":" ","ALLEY":" ","HOUSE_NO":"２９６號","E_COORD97":167982.03,"N_COORD97":2544140.96,"ADDRESS":"西門路二段２９６號","OBJECTID":522243},"geometry":{"x":167982.03000000026,"y":2544140.9600000046}},{"attributes":{"ID":522271,"DIS_CODE":0,"TOWNNAME":"中西區","LI":"天后里","LIN":"6鄰","STREET":"西門路","SECT":"二段","MAREA":" ","LANE":" ","ALLEY":" ","HOUSE_NO":"２９８號","E_COORD97":167982.79000000001,"N_COORD97":2544144.6099999999,"ADDRESS":"西門路二段２９８號","OBJECTID":522244},"geometry":{"x":167982.79000000097,"y":2544144.6099999994}},{"attributes":{"ID":522272,"DIS_CODE":0,"TOWNNAME":"安南區","LI":"國安里","LIN":"6鄰","STREET":"國安街","SECT":" ","MAREA":" ","LANE":" ","ALLEY":" ","HOUSE_NO":"２２４號","E_COORD97":166576.67000000001,"N_COORD97":2546942.0600000001,"ADDRESS":"國安街２２４號","OBJECTID":522245},"geometry":{"x":166576.67000000086,"y":2546942.0600000005}},{"attributes":{"ID":522273,"DIS_CODE":0,"TOWNNAME":"安南區","LI":"國安里","LIN":"6鄰","STREET":"國安街","SECT":" ","MAREA":" ","LANE":" ","ALLEY":" ","HOUSE_NO":"２１４號","E_COORD97":166599.31,"N_COORD97":2546945.8100000001,"ADDRESS":"國安街２１４號","OBJECTID":522246},"geometry":{"x":166599.31000000052,"y":2546945.8100000024}},{"attributes":{"ID":522274,"DIS_CODE":0,"TOWNNAME":"安南區","LI":"國安里","LIN":"6鄰","STREET":"國安街","SECT":" ","MAREA":" ","LANE":" ","ALLEY":" ","HOUSE_NO":"２２８號","E_COORD97":166567.60999999999,"N_COORD97":2546939.7200000002,"ADDRESS":"國安街２２８號","OBJECTID":522247},"geometry":{"x":166567.61000000127,"y":2546939.7200000025}},{"attributes":{"ID":522275,"DIS_CODE":0,"TOWNNAME":"安南區","LI":"溪東里","LIN":"6鄰","STREET":"府安路","SECT":"五段","MAREA":" ","LANE":" ","ALLEY":" ","HOUSE_NO":"６５號","E_COORD97":168233.73999999999,"N_COORD97":2547190.7799999998,"ADDRESS":"府安路五段６５號","OBJECTID":522248},"geometry":{"x":168233.74000000022,"y":2547190.7799999993}},{"attributes":{"ID":522276,"DIS_CODE":0,"TOWNNAME":"中西區","LI":"民生里","LIN":"6鄰","STREET":"永華路","SECT":"一段","MAREA":" ","LANE":" ","ALLEY":" ","HOUSE_NO":"２６８號","E_COORD97":166935.16,"N_COORD97":2543261.0499999998,"ADDRESS":"永華路一段２６８號","OBJECTID":522249},"geometry":{"x":166935.16000000015,"y":2543261.0500000007}},{"attributes":{"ID":522277,"DIS_CODE":0,"TOWNNAME":"中西區","LI":"民生里","LIN":"6鄰","STREET":"永華路","SECT":"一段","MAREA":" ","LANE":" ","ALLEY":" ","HOUSE_NO":"２７０號","E_COORD97":166931.32999999999,"N_COORD97":2543261.1400000001,"ADDRESS":"永華路一段２７０號","OBJECTID":522250},"geometry":{"x":166931.33000000194,"y":2543261.1400000043}},{"attributes":{"ID":522278,"DIS_CODE":0,"TOWNNAME":"中西區","LI":"民生里","LIN":"6鄰","STREET":"永華路","SECT":"一段","MAREA":" ","LANE":" ","ALLEY":" ","HOUSE_NO":"２７０號之１","E_COORD97":166925.73000000001,"N_COORD97":2543262.4900000002,"ADDRESS":"永華路一段２７０號之１","OBJECTID":522251},"geometry":{"x":166925.73000000138,"y":2543262.4900000021}},{"attributes":{"ID":522279,"DIS_CODE":0,"TOWNNAME":"中西區","LI":"藥王里","LIN":"6鄰","STREET":"民族路","SECT":"三段","MAREA":" ","LANE":" ","ALLEY":" ","HOUSE_NO":"２５５號","E_COORD97":167287.62,"N_COORD97":2544474.3399999999,"ADDRESS":"民族路三段２５５號","OBJECTID":522252},"geometry":{"x":167287.62000000104,"y":2544474.3400000017}},{"attributes":{"ID":522280,"DIS_CODE":0,"TOWNNAME":"中西區","LI":"文賢里","LIN":"6鄰","STREET":"文和街","SECT":" ","MAREA":" ","LANE":" ","ALLEY":" ","HOUSE_NO":"１２１號","E_COORD97":167089.01000000001,"N_COORD97":2544773.54,"ADDRESS":"文和街１２１號","OBJECTID":522253},"geometry":{"x":167089.00999999885,"y":2544773.540000001}},{"attributes":{"ID":522281,"DIS_CODE":0,"TOWNNAME":"中西區","LI":"文賢里","LIN":"6鄰","STREET":"文和街","SECT":" ","MAREA":" ","LANE":" ","ALLEY":" ","HOUSE_NO":"１２３號","E_COORD97":167086.67999999999,"N_COORD97":2544770.5299999998,"ADDRESS":"文和街１２３號","OBJECTID":522254},"geometry":{"x":167086.68000000063,"y":2544770.5300000012}},{"attributes":{"ID":522282,"DIS_CODE":0,"TOWNNAME":"中西區","LI":"文賢里","LIN":"6鄰","STREET":"文和街","SECT":" ","MAREA":" ","LANE":" ","ALLEY":" ","HOUSE_NO":"１２５號","E_COORD97":167084.35999999999,"N_COORD97":2544768.48,"ADDRESS":"文和街１２５號","OBJECTID":522255},"geometry":{"x":167084.36000000127,"y":2544768.4800000023}},{"attributes":{"ID":522283,"DIS_CODE":0,"TOWNNAME":"中西區","LI":"文賢里","LIN":"6鄰","STREET":"文和街","SECT":" ","MAREA":" ","LANE":" ","ALLEY":" ","HOUSE_NO":"１２７號","E_COORD97":167080.53,"N_COORD97":2544764.7999999998,"ADDRESS":"文和街１２７號","OBJECTID":522256},"geometry":{"x":167080.53000000026,"y":2544764.8000000007}},{"attributes":{"ID":522284,"DIS_CODE":0,"TOWNNAME":"中西區","LI":"文賢里","LIN":"6鄰","STREET":"文和街","SECT":" ","MAREA":" ","LANE":" ","ALLEY":" ","HOUSE_NO":"１２９號","E_COORD97":167076.84,"N_COORD97":2544762.2000000002,"ADDRESS":"文和街１２９號","OBJECTID":522257},"geometry":{"x":167076.84000000171,"y":2544762.2000000011}},{"attributes":{"ID":522285,"DIS_CODE":0,"TOWNNAME":"中西區","LI":"文賢里","LIN":"6鄰","STREET":"文和街","SECT":" ","MAREA":" ","LANE":" ","ALLEY":" ","HOUSE_NO":"１３９號","E_COORD97":167058.06,"N_COORD97":2544748.75,"ADDRESS":"文和街１３９號","OBJECTID":522258},"geometry":{"x":167058.06000000145,"y":2544748.7500000019}},{"attributes":{"ID":522286,"DIS_CODE":0,"TOWNNAME":"中西區","LI":"文賢里","LIN":"6鄰","STREET":"西和路","SECT":" ","MAREA":" ","LANE":" ","ALLEY":" ","HOUSE_NO":"１９５號","E_COORD97":167050.51999999999,"N_COORD97":2544742.6000000001,"ADDRESS":"西和路１９５號","OBJECTID":522259},"geometry":{"x":167050.52000000048,"y":2544742.6000000015}},{"attributes":{"ID":522287,"DIS_CODE":0,"TOWNNAME":"中西區","LI":"文賢里","LIN":"6鄰","STREET":"文和街","SECT":" ","MAREA":" ","LANE":" ","ALLEY":" ","HOUSE_NO":"１４３號","E_COORD97":167046.82999999999,"N_COORD97":2544740.2799999998,"ADDRESS":"文和街１４３號","OBJECTID":522260},"geometry":{"x":167046.83000000101,"y":2544740.2800000031}},{"attributes":{"ID":522288,"DIS_CODE":0,"TOWNNAME":"中西區","LI":"文賢里","LIN":"6鄰","STREET":"文和街","SECT":" ","MAREA":" ","LANE":" ","ALLEY":" ","HOUSE_NO":"１４５號","E_COORD97":167042.85999999999,"N_COORD97":2544738.0899999999,"ADDRESS":"文和街１４５號","OBJECTID":522261},"geometry":{"x":167042.86000000034,"y":2544738.0899999999}},{"attributes":{"ID":522289,"DIS_CODE":0,"TOWNNAME":"中西區","LI":"文賢里","LIN":"6鄰","STREET":"文和街","SECT":" ","MAREA":" ","LANE":" ","ALLEY":" ","HOUSE_NO":"１４７號","E_COORD97":167038.89999999999,"N_COORD97":2544736.04,"ADDRESS":"文和街１４７號","OBJECTID":522262},"geometry":{"x":167038.90000000037,"y":2544736.040000001}},{"attributes":{"ID":522290,"DIS_CODE":0,"TOWNNAME":"中西區","LI":"文賢里","LIN":"6鄰","STREET":"文和街","SECT":" ","MAREA":" ","LANE":" ","ALLEY":" ","HOUSE_NO":"１４９號","E_COORD97":167035.60999999999,"N_COORD97":2544733.9900000002,"ADDRESS":"文和街１４９號","OBJECTID":522263},"geometry":{"x":167035.61000000034,"y":2544733.9900000021}},{"attributes":{"ID":522291,"DIS_CODE":0,"TOWNNAME":"中西區","LI":"文賢里","LIN":"6鄰","STREET":"文和街","SECT":" ","MAREA":" ","LANE":" ","ALLEY":" ","HOUSE_NO":"１５１號","E_COORD97":167031.64999999999,"N_COORD97":2544731.2599999998,"ADDRESS":"文和街１５１號","OBJECTID":522264},"geometry":{"x":167031.6500000013,"y":2544731.2600000016}},{"attributes":{"ID":522292,"DIS_CODE":0,"TOWNNAME":"中西區","LI":"文賢里","LIN":"6鄰","STREET":"文和街","SECT":" ","MAREA":" ","LANE":" ","ALLEY":" ","HOUSE_NO":"１５３號","E_COORD97":167027.14000000001,"N_COORD97":2544728.2599999998,"ADDRESS":"文和街１５３號","OBJECTID":522265},"geometry":{"x":167027.14000000153,"y":2544728.2600000016}},{"attributes":{"ID":522293,"DIS_CODE":0,"TOWNNAME":"中西區","LI":"文賢里","LIN":"6鄰","STREET":"文和街","SECT":" ","MAREA":" ","LANE":" ","ALLEY":" ","HOUSE_NO":"１５５號","E_COORD97":167024.37,"N_COORD97":2544725.8900000001,"ADDRESS":"文和街１５５號","OBJECTID":522266},"geometry":{"x":167024.37000000197,"y":2544725.8900000006}},{"attributes":{"ID":522294,"DIS_CODE":0,"TOWNNAME":"中西區","LI":"文賢里","LIN":"6鄰","STREET":"和美街","SECT":" ","MAREA":" ","LANE":" ","ALLEY":" ","HOUSE_NO":"４７號","E_COORD97":167115.13,"N_COORD97":2544779.7599999998,"ADDRESS":"和美街４７號","OBJECTID":522267},"geometry":{"x":167115.12999999989,"y":2544779.7600000016}},{"attributes":{"ID":522295,"DIS_CODE":0,"TOWNNAME":"中西區","LI":"文賢里","LIN":"6鄰","STREET":"和善街","SECT":" ","MAREA":" ","LANE":" ","ALLEY":" ","HOUSE_NO":"６０號","E_COORD97":167012.14000000001,"N_COORD97":2544699.25,"ADDRESS":"和善街６０號","OBJECTID":522268},"geometry":{"x":167012.1400000006,"y":2544699.25}},{"attributes":{"ID":522296,"DIS_CODE":0,"TOWNNAME":"中西區","LI":"文賢里","LIN":"6鄰","STREET":"和善街","SECT":" ","MAREA":" ","LANE":" ","ALLEY":" ","HOUSE_NO":"６２號","E_COORD97":167009.69,"N_COORD97":2544704.6699999999,"ADDRESS":"和善街６２號","OBJECTID":522269},"geometry":{"x":167009.69000000134,"y":2544704.6700000037}},{"attributes":{"ID":522297,"DIS_CODE":0,"TOWNNAME":"中西區","LI":"文賢里","LIN":"6鄰","STREET":"和善街","SECT":" ","MAREA":" ","LANE":" ","ALLEY":" ","HOUSE_NO":"６４號","E_COORD97":167008.20000000001,"N_COORD97":2544709.0600000001,"ADDRESS":"和善街６４號","OBJECTID":522270},"geometry":{"x":167008.20000000019,"y":2544709.0599999987}},{"attributes":{"ID":522298,"DIS_CODE":0,"TOWNNAME":"中西區","LI":"文賢里","LIN":"6鄰","STREET":"和善街","SECT":" ","MAREA":" ","LANE":" ","ALLEY":" ","HOUSE_NO":"６６號","E_COORD97":167005.75,"N_COORD97":2544713.21,"ADDRESS":"和善街６６號","OBJECTID":522271},"geometry":{"x":167005.75,"y":2544713.2100000028}},{"attributes":{"ID":522299,"DIS_CODE":0,"TOWNNAME":"中西區","LI":"文賢里","LIN":"6鄰","STREET":"西和路","SECT":" ","MAREA":" ","LANE":" ","ALLEY":" ","HOUSE_NO":"２１７號","E_COORD97":167104.20000000001,"N_COORD97":2544764.5099999998,"ADDRESS":"西和路２１７號","OBJECTID":522272},"geometry":{"x":167104.20000000112,"y":2544764.5100000016}},{"attributes":{"ID":522300,"DIS_CODE":0,"TOWNNAME":"中西區","LI":"文賢里","LIN":"6鄰","STREET":"文和街","SECT":" ","MAREA":" ","LANE":" ","ALLEY":" ","HOUSE_NO":"１３７號","E_COORD97":167062.85999999999,"N_COORD97":2544749.79,"ADDRESS":"文和街１３７號","OBJECTID":522273},"geometry":{"x":167062.86000000034,"y":2544749.7899999991}},{"attributes":{"ID":522301,"DIS_CODE":0,"TOWNNAME":"中西區","LI":"文賢里","LIN":"6鄰","STREET":"西和路","SECT":" ","MAREA":" ","LANE":" ","ALLEY":" ","HOUSE_NO":"１７９號","E_COORD97":167026.79999999999,"N_COORD97":2544712.5600000001,"ADDRESS":"西和路１７９號","OBJECTID":522274},"geometry":{"x":167026.80000000075,"y":2544712.5600000042}},{"attributes":{"ID":522302,"DIS_CODE":0,"TOWNNAME":"中西區","LI":"文賢里","LIN":"6鄰","STREET":"西和路","SECT":" ","MAREA":" ","LANE":" ","ALLEY":" ","HOUSE_NO":"１８５號","E_COORD97":167037.39999999999,"N_COORD97":2544720.9399999999,"ADDRESS":"西和路１８５號","OBJECTID":522275},"geometry":{"x":167037.40000000037,"y":2544720.9399999995}},{"attributes":{"ID":522303,"DIS_CODE":0,"TOWNNAME":"中西區","LI":"文賢里","LIN":"6鄰","STREET":"西和路","SECT":" ","MAREA":" ","LANE":" ","ALLEY":" ","HOUSE_NO":"１８７號","E_COORD97":167042.5,"N_COORD97":2544722.6000000001,"ADDRESS":"西和路１８７號","OBJECTID":522276},"geometry":{"x":167042.50000000093,"y":2544722.6000000015}},{"attributes":{"ID":522304,"DIS_CODE":0,"TOWNNAME":"中西區","LI":"文賢里","LIN":"6鄰","STREET":"西和路","SECT":" ","MAREA":" ","LANE":" ","ALLEY":" ","HOUSE_NO":"１９１號","E_COORD97":167049.20000000001,"N_COORD97":2544728.6800000002,"ADDRESS":"西和路１９１號","OBJECTID":522277},"geometry":{"x":167049.20000000205,"y":2544728.6800000016}},{"attributes":{"ID":522305,"DIS_CODE":0,"TOWNNAME":"中西區","LI":"文賢里","LIN":"6鄰","STREET":"西和路","SECT":" ","MAREA":" ","LANE":" ","ALLEY":" ","HOUSE_NO":"２０１號","E_COORD97":167071.60999999999,"N_COORD97":2544743.4100000001,"ADDRESS":"西和路２０１號","OBJECTID":522278},"geometry":{"x":167071.61000000034,"y":2544743.4100000001}},{"attributes":{"ID":522306,"DIS_CODE":0,"TOWNNAME":"中西區","LI":"文賢里","LIN":"6鄰","STREET":"西和路","SECT":" ","MAREA":" ","LANE":" ","ALLEY":" ","HOUSE_NO":"２０３號","E_COORD97":167076.81,"N_COORD97":2544746.4100000001,"ADDRESS":"西和路２０３號","OBJECTID":522279},"geometry":{"x":167076.81000000145,"y":2544746.4100000001}},{"attributes":{"ID":522307,"DIS_CODE":0,"TOWNNAME":"中西區","LI":"文賢里","LIN":"6鄰","STREET":"西和路","SECT":" ","MAREA":" ","LANE":" ","ALLEY":" ","HOUSE_NO":"２０５號","E_COORD97":167081.32000000001,"N_COORD97":2544750.5099999998,"ADDRESS":"西和路２０５號","OBJECTID":522280},"geometry":{"x":167081.32000000123,"y":2544750.5100000016}},{"attributes":{"ID":522308,"DIS_CODE":0,"TOWNNAME":"中西區","LI":"文賢里","LIN":"6鄰","STREET":"西和路","SECT":" ","MAREA":" ","LANE":" ","ALLEY":" ","HOUSE_NO":"２１３號","E_COORD97":167096.67999999999,"N_COORD97":2544757.4100000001,"ADDRESS":"西和路２１３號","OBJECTID":522281},"geometry":{"x":167096.68000000063,"y":2544757.4100000039}},{"attributes":{"ID":522309,"DIS_CODE":0,"TOWNNAME":"永康區","LI":"中華里","LIN":"6鄰","STREET":"華興街","SECT":" ","MAREA":" ","LANE":" ","ALLEY":" ","HOUSE_NO":"３７號","E_COORD97":171990.51999999999,"N_COORD97":2544562.71,"ADDRESS":"華興街３７號","OBJECTID":522282},"geometry":{"x":171990.51999999955,"y":2544562.7100000046}},{"attributes":{"ID":522310,"DIS_CODE":0,"TOWNNAME":"永康區","LI":"中華里","LIN":"6鄰","STREET":"華興街","SECT":" ","MAREA":" ","LANE":" ","ALLEY":" ","HOUSE_NO":"３１號","E_COORD97":172002.57999999999,"N_COORD97":2544563.3399999999,"ADDRESS":"華興街３１號","OBJECTID":522283},"geometry":{"x":172002.58000000007,"y":2544563.3399999999}},{"attributes":{"ID":522311,"DIS_CODE":0,"TOWNNAME":"永康區","LI":"中華里","LIN":"6鄰","STREET":"華興街","SECT":" ","MAREA":" ","LANE":" ","ALLEY":" ","HOUSE_NO":"２３號","E_COORD97":172021.48000000001,"N_COORD97":2544563.0899999999,"ADDRESS":"華興街２３號","OBJECTID":522284},"geometry":{"x":172021.48000000138,"y":2544563.0900000017}},{"attributes":{"ID":522312,"DIS_CODE":0,"TOWNNAME":"永康區","LI":"中華里","LIN":"6鄰","STREET":"華興街","SECT":" ","MAREA":" ","LANE":" ","ALLEY":" ","HOUSE_NO":"３３號","E_COORD97":171997.89000000001,"N_COORD97":2544562.8300000001,"ADDRESS":"華興街３３號","OBJECTID":522285},"geometry":{"x":171997.8900000006,"y":2544562.8300000019}},{"attributes":{"ID":522313,"DIS_CODE":0,"TOWNNAME":"中西區","LI":"文賢里","LIN":"6鄰","STREET":"文和街","SECT":" ","MAREA":" ","LANE":" ","ALLEY":" ","HOUSE_NO":"１１５號","E_COORD97":167107.73999999999,"N_COORD97":2544791.1499999999,"ADDRESS":"文和街１１５號","OBJECTID":522286},"geometry":{"x":167107.74000000022,"y":2544791.1500000022}},{"attributes":{"ID":522314,"DIS_CODE":0,"TOWNNAME":"中西區","LI":"文賢里","LIN":"6鄰","STREET":"文和街","SECT":" ","MAREA":" ","LANE":" ","ALLEY":" ","HOUSE_NO":"１１７號","E_COORD97":167103.64000000001,"N_COORD97":2544787.3300000001,"ADDRESS":"文和街１１７號","OBJECTID":522287},"geometry":{"x":167103.6400000006,"y":2544787.3300000001}},{"attributes":{"ID":522315,"DIS_CODE":0,"TOWNNAME":"中西區","LI":"文賢里","LIN":"6鄰","STREET":"文和街","SECT":" ","MAREA":" ","LANE":" ","ALLEY":" ","HOUSE_NO":"１１９號","E_COORD97":167100.48999999999,"N_COORD97":2544783.7799999998,"ADDRESS":"文和街１１９號","OBJECTID":522288},"geometry":{"x":167100.49000000115,"y":2544783.7799999993}},{"attributes":{"ID":522316,"DIS_CODE":0,"TOWNNAME":"中西區","LI":"文賢里","LIN":"6鄰","STREET":"文和街","SECT":" ","MAREA":" ","LANE":" ","ALLEY":" ","HOUSE_NO":"１１９號之１","E_COORD97":167096.39000000001,"N_COORD97":2544780.9100000001,"ADDRESS":"文和街１１９號之１","OBJECTID":522289},"geometry":{"x":167096.38999999966,"y":2544780.9099999983}},{"attributes":{"ID":522317,"DIS_CODE":0,"TOWNNAME":"中西區","LI":"文賢里","LIN":"6鄰","STREET":"文和街","SECT":" ","MAREA":" ","LANE":" ","ALLEY":" ","HOUSE_NO":"１１９號之２","E_COORD97":167093.51999999999,"N_COORD97":2544777.2200000002,"ADDRESS":"文和街１１９號之２","OBJECTID":522290},"geometry":{"x":167093.51999999955,"y":2544777.2200000025}},{"attributes":{"ID":522318,"DIS_CODE":0,"TOWNNAME":"仁德區","LI":"仁德里","LIN":"6鄰","STREET":"中正路","SECT":"二段","MAREA":" ","LANE":" ","ALLEY":" ","HOUSE_NO":"１１２５號","E_COORD97":173353.70000000001,"N_COORD97":2540969.4199999999,"ADDRESS":"中正路二段１１２５號","OBJECTID":522291},"geometry":{"x":173353.70000000205,"y":2540969.4199999999}},{"attributes":{"ID":522319,"DIS_CODE":0,"TOWNNAME":"仁德區","LI":"仁義里","LIN":"6鄰","STREET":"仁義一街","SECT":" ","MAREA":" ","LANE":" ","ALLEY":" ","HOUSE_NO":"１４７號","E_COORD97":173673.06,"N_COORD97":2541189.2599999998,"ADDRESS":"仁義一街１４７號","OBJECTID":522292},"geometry":{"x":173673.06000000052,"y":2541189.2600000016}},{"attributes":{"ID":522320,"DIS_CODE":0,"TOWNNAME":"仁德區","LI":"仁德里","LIN":"6鄰","STREET":"中正路","SECT":"二段","MAREA":" ","LANE":" ","ALLEY":" ","HOUSE_NO":"１１３１號","E_COORD97":173350.35999999999,"N_COORD97":2540983.6699999999,"ADDRESS":"中正路二段１１３１號","OBJECTID":522293},"geometry":{"x":173350.36000000034,"y":2540983.6699999999}},{"attributes":{"ID":522321,"DIS_CODE":0,"TOWNNAME":"仁德區","LI":"仁義里","LIN":"6鄰","STREET":"仁義二街","SECT":" ","MAREA":" ","LANE":" ","ALLEY":" ","HOUSE_NO":"２７號","E_COORD97":173798.85999999999,"N_COORD97":2541182.0099999998,"ADDRESS":"仁義二街２７號","OBJECTID":522294},"geometry":{"x":173798.86000000127,"y":2541182.0099999998}},{"attributes":{"ID":522322,"DIS_CODE":0,"TOWNNAME":"仁德區","LI":"仁義里","LIN":"6鄰","STREET":"仁義一街","SECT":" ","MAREA":" ","LANE":" ","ALLEY":" ","HOUSE_NO":"１６６號","E_COORD97":173687.89000000001,"N_COORD97":2541170.52,"ADDRESS":"仁義一街１６６號","OBJECTID":522295},"geometry":{"x":173687.8900000006,"y":2541170.5200000014}},{"attributes":{"ID":522323,"DIS_CODE":0,"TOWNNAME":"仁德區","LI":"太子里","LIN":"6鄰","STREET":"長興二街","SECT":" ","MAREA":" ","LANE":" ","ALLEY":" ","HOUSE_NO":"５５號","E_COORD97":174264.54000000001,"N_COORD97":2543687,"ADDRESS":"長興二街５５號","OBJECTID":522296},"geometry":{"x":174264.54000000004,"y":2543687}},{"attributes":{"ID":522324,"DIS_CODE":0,"TOWNNAME":"仁德區","LI":"成功里","LIN":"6鄰","STREET":"保華路","SECT":" ","MAREA":" ","LANE":" ","ALLEY":" ","HOUSE_NO":"１１３號","E_COORD97":171168.48999999999,"N_COORD97":2540053.2400000002,"ADDRESS":"保華路１１３號","OBJECTID":522297},"geometry":{"x":171168.49000000115,"y":2540053.2400000021}},{"attributes":{"ID":522325,"DIS_CODE":0,"TOWNNAME":"仁德區","LI":"仁義里","LIN":"6鄰","STREET":"仁義二街","SECT":" ","MAREA":" ","LANE":" ","ALLEY":" ","HOUSE_NO":"１３號","E_COORD97":173766.66,"N_COORD97":2541172.02,"ADDRESS":"仁義二街１３號","OBJECTID":522298},"geometry":{"x":173766.66000000108,"y":2541172.0199999996}},{"attributes":{"ID":522326,"DIS_CODE":0,"TOWNNAME":"仁德區","LI":"太子里","LIN":"6鄰","STREET":"長興二街","SECT":" ","MAREA":" ","LANE":" ","ALLEY":" ","HOUSE_NO":"５３號","E_COORD97":174268.70000000001,"N_COORD97":2543687.25,"ADDRESS":"長興二街５３號","OBJECTID":522299},"geometry":{"x":174268.70000000019,"y":2543687.2500000019}},{"attributes":{"ID":522327,"DIS_CODE":0,"TOWNNAME":"仁德區","LI":"仁義里","LIN":"6鄰","STREET":"仁義一街","SECT":" ","MAREA":" ","LANE":" ","ALLEY":" ","HOUSE_NO":"１６２號","E_COORD97":173679.14999999999,"N_COORD97":2541171.77,"ADDRESS":"仁義一街１６２號","OBJECTID":522300},"geometry":{"x":173679.15000000037,"y":2541171.7700000014}},{"attributes":{"ID":522328,"DIS_CODE":0,"TOWNNAME":"仁德區","LI":"仁義里","LIN":"6鄰","STREET":"仁義二街","SECT":" ","MAREA":" ","LANE":" ","ALLEY":" ","HOUSE_NO":"３號","E_COORD97":173737.59,"N_COORD97":2541166.52,"ADDRESS":"仁義二街３號","OBJECTID":522301},"geometry":{"x":173737.59000000078,"y":2541166.5200000014}},{"attributes":{"ID":522329,"DIS_CODE":0,"TOWNNAME":"仁德區","LI":"仁義里","LIN":"6鄰","STREET":"仁義二街","SECT":" ","MAREA":" ","LANE":" ","ALLEY":" ","HOUSE_NO":"１１號","E_COORD97":173762.14999999999,"N_COORD97":2541171.77,"ADDRESS":"仁義二街１１號","OBJECTID":522302},"geometry":{"x":173762.15000000037,"y":2541171.7700000014}},{"attributes":{"ID":522330,"DIS_CODE":0,"TOWNNAME":"仁德區","LI":"仁義里","LIN":"6鄰","STREET":"仁義二街","SECT":" ","MAREA":" ","LANE":" ","ALLEY":" ","HOUSE_NO":"５９號","E_COORD97":173865.92000000001,"N_COORD97":2541199.7599999998,"ADDRESS":"仁義二街５９號","OBJECTID":522303},"geometry":{"x":173865.92000000086,"y":2541199.7599999998}},{"attributes":{"ID":522331,"DIS_CODE":0,"TOWNNAME":"仁德區","LI":"仁義里","LIN":"6鄰","STREET":"中清路","SECT":" ","MAREA":" ","LANE":" ","ALLEY":" ","HOUSE_NO":"６５號","E_COORD97":173691.04000000001,"N_COORD97":2541187.79,"ADDRESS":"中清路６５號","OBJECTID":522304},"geometry":{"x":173691.04000000097,"y":2541187.790000001}},{"attributes":{"ID":522332,"DIS_CODE":0,"TOWNNAME":"仁德區","LI":"仁義里","LIN":"6鄰","STREET":"仁義二街","SECT":" ","MAREA":" ","LANE":" ","ALLEY":" ","HOUSE_NO":"３７號","E_COORD97":173822.25,"N_COORD97":2541186.2599999998,"ADDRESS":"仁義二街３７號","OBJECTID":522305},"geometry":{"x":173822.25,"y":2541186.2599999998}},{"attributes":{"ID":522333,"DIS_CODE":0,"TOWNNAME":"仁德區","LI":"仁義里","LIN":"6鄰","STREET":"仁義二街","SECT":" ","MAREA":" ","LANE":" ","ALLEY":" ","HOUSE_NO":"３９號","E_COORD97":173826.45000000001,"N_COORD97":2541185.5099999998,"ADDRESS":"仁義二街３９號","OBJECTID":522306},"geometry":{"x":173826.45000000019,"y":2541185.5099999998}},{"attributes":{"ID":522334,"DIS_CODE":0,"TOWNNAME":"仁德區","LI":"仁義里","LIN":"6鄰","STREET":"中清路","SECT":" ","MAREA":" ","LANE":" ","ALLEY":" ","HOUSE_NO":"７２號","E_COORD97":173712.5,"N_COORD97":2541175.04,"ADDRESS":"中清路７２號","OBJECTID":522307},"geometry":{"x":173712.50000000186,"y":2541175.0400000028}},{"attributes":{"ID":522335,"DIS_CODE":0,"TOWNNAME":"安南區","LI":"國安里","LIN":"6鄰","STREET":"國安街","SECT":" ","MAREA":" ","LANE":" ","ALLEY":" ","HOUSE_NO":"２１２號","E_COORD97":166604.38,"N_COORD97":2546946.5899999999,"ADDRESS":"國安街２１２號","OBJECTID":522308},"geometry":{"x":166604.38000000082,"y":2546946.5900000017}},{"attributes":{"ID":522336,"DIS_CODE":0,"TOWNNAME":"安南區","LI":"國安里","LIN":"6鄰","STREET":"國安街","SECT":" ","MAREA":" ","LANE":" ","ALLEY":" ","HOUSE_NO":"２１６號","E_COORD97":166594.70999999999,"N_COORD97":2546945.27,"ADDRESS":"國安街２１６號","OBJECTID":522309},"geometry":{"x":166594.71000000183,"y":2546945.2700000014}},{"attributes":{"ID":522337,"DIS_CODE":0,"TOWNNAME":"安南區","LI":"國安里","LIN":"6鄰","STREET":"國安街","SECT":" ","MAREA":" ","LANE":" ","ALLEY":" ","HOUSE_NO":"２１８號","E_COORD97":166590.45999999999,"N_COORD97":2546943.77,"ADDRESS":"國安街２１８號","OBJECTID":522310},"geometry":{"x":166590.45999999996,"y":2546943.7699999996}},{"attributes":{"ID":522338,"DIS_CODE":0,"TOWNNAME":"安南區","LI":"國安里","LIN":"6鄰","STREET":"國安街","SECT":" ","MAREA":" ","LANE":" ","ALLEY":" ","HOUSE_NO":"２２０號","E_COORD97":166586.25,"N_COORD97":2546943.0699999998,"ADDRESS":"國安街２２０號","OBJECTID":522311},"geometry":{"x":166586.25000000093,"y":2546943.070000004}},{"attributes":{"ID":522339,"DIS_CODE":0,"TOWNNAME":"安南區","LI":"國安里","LIN":"6鄰","STREET":"國安街","SECT":" ","MAREA":" ","LANE":" ","ALLEY":" ","HOUSE_NO":"２２２號","E_COORD97":166581.19,"N_COORD97":2546942.29,"ADDRESS":"國安街２２２號","OBJECTID":522312},"geometry":{"x":166581.19000000041,"y":2546942.2899999991}},{"attributes":{"ID":522340,"DIS_CODE":0,"TOWNNAME":"安南區","LI":"國安里","LIN":"6鄰","STREET":"國安街","SECT":" ","MAREA":" ","LANE":" ","ALLEY":" ","HOUSE_NO":"２２６號","E_COORD97":166572.13,"N_COORD97":2546940.8900000001,"ADDRESS":"國安街２２６號","OBJECTID":522313},"geometry":{"x":166572.13000000082,"y":2546940.8900000006}},{"attributes":{"ID":522341,"DIS_CODE":0,"TOWNNAME":"安南區","LI":"國安里","LIN":"6鄰","STREET":"國安街","SECT":" ","MAREA":" ","LANE":" ","ALLEY":" ","HOUSE_NO":"２３０號","E_COORD97":166562.07000000001,"N_COORD97":2546938.71,"ADDRESS":"國安街２３０號","OBJECTID":522314},"geometry":{"x":166562.07000000216,"y":2546938.7100000009}},{"attributes":{"ID":522342,"DIS_CODE":0,"TOWNNAME":"安南區","LI":"國安里","LIN":"6鄰","STREET":"國安街","SECT":" ","MAREA":" ","LANE":" ","ALLEY":" ","HOUSE_NO":"２３２號","E_COORD97":166558.56,"N_COORD97":2546938.3199999998,"ADDRESS":"國安街２３２號","OBJECTID":522315},"geometry":{"x":166558.56000000052,"y":2546938.320000004}},{"attributes":{"ID":522343,"DIS_CODE":0,"TOWNNAME":"安南區","LI":"國安里","LIN":"6鄰","STREET":"國安街","SECT":" ","MAREA":" ","LANE":" ","ALLEY":" ","HOUSE_NO":"２３４號","E_COORD97":166553.34,"N_COORD97":2546936.7599999998,"ADDRESS":"國安街２３４號","OBJECTID":522316},"geometry":{"x":166553.34000000078,"y":2546936.7599999998}},{"attributes":{"ID":522344,"DIS_CODE":0,"TOWNNAME":"麻豆區","LI":"中興里","LIN":"6鄰","STREET":"三民路","SECT":" ","MAREA":" ","LANE":" ","ALLEY":" ","HOUSE_NO":"２３號之１","E_COORD97":172807.88,"N_COORD97":2564568.1600000001,"ADDRESS":"三民路２３號之１","OBJECTID":522317},"geometry":{"x":172807.87999999896,"y":2564568.1600000001}},{"attributes":{"ID":522345,"DIS_CODE":0,"TOWNNAME":"麻豆區","LI":"中興里","LIN":"6鄰","STREET":"三民路","SECT":" ","MAREA":" ","LANE":" ","ALLEY":" ","HOUSE_NO":"２３號之２","E_COORD97":172804.23999999999,"N_COORD97":2564509.9199999999,"ADDRESS":"三民路２３號之２","OBJECTID":522318},"geometry":{"x":172804.24000000209,"y":2564509.9200000018}},{"attributes":{"ID":522346,"DIS_CODE":0,"TOWNNAME":"麻豆區","LI":"中興里","LIN":"6鄰","STREET":"三民路","SECT":" ","MAREA":" ","LANE":" ","ALLEY":" ","HOUSE_NO":"２３號","E_COORD97":172813.23999999999,"N_COORD97":2564534.8900000001,"ADDRESS":"三民路２３號","OBJECTID":522319},"geometry":{"x":172813.24000000115,"y":2564534.8900000025}},{"attributes":{"ID":522347,"DIS_CODE":0,"TOWNNAME":"麻豆區","LI":"中興里","LIN":"6鄰","STREET":"三民路","SECT":" ","MAREA":" ","LANE":" ","ALLEY":" ","HOUSE_NO":"２９號之１０","E_COORD97":172804.25,"N_COORD97":2564477.7000000002,"ADDRESS":"三民路２９號之１０","OBJECTID":522320},"geometry":{"x":172804.25000000093,"y":2564477.7000000011}},{"attributes":{"ID":522348,"DIS_CODE":0,"TOWNNAME":"麻豆區","LI":"中興里","LIN":"6鄰","STREET":"三民路","SECT":" ","MAREA":" ","LANE":" ","ALLEY":" ","HOUSE_NO":"２９號之１２","E_COORD97":172820.60000000001,"N_COORD97":2564485.6600000001,"ADDRESS":"三民路２９號之１２","OBJECTID":522321},"geometry":{"x":172820.60000000056,"y":2564485.660000002}},{"attributes":{"ID":522349,"DIS_CODE":0,"TOWNNAME":"麻豆區","LI":"中興里","LIN":"6鄰","STREET":"三民路","SECT":" ","MAREA":" ","LANE":" ","ALLEY":" ","HOUSE_NO":"２９號之１３","E_COORD97":172826.78,"N_COORD97":2564487.8100000001,"ADDRESS":"三民路２９號之１３","OBJECTID":522322},"geometry":{"x":172826.78000000119,"y":2564487.8100000024}},{"attributes":{"ID":522350,"DIS_CODE":0,"TOWNNAME":"麻豆區","LI":"中興里","LIN":"6鄰","STREET":"三民路","SECT":" ","MAREA":" ","LANE":" ","ALLEY":" ","HOUSE_NO":"２９號之１４","E_COORD97":172832.88,"N_COORD97":2564489.75,"ADDRESS":"三民路２９號之１４","OBJECTID":522323},"geometry":{"x":172832.87999999989,"y":2564489.75}},{"attributes":{"ID":522351,"DIS_CODE":0,"TOWNNAME":"麻豆區","LI":"中興里","LIN":"6鄰","STREET":"三民路","SECT":" ","MAREA":" ","LANE":" ","ALLEY":" ","HOUSE_NO":"２９號之１５","E_COORD97":172838.79000000001,"N_COORD97":2564491.6299999999,"ADDRESS":"三民路２９號之１５","OBJECTID":522324},"geometry":{"x":172838.79000000004,"y":2564491.6300000008}},{"attributes":{"ID":522352,"DIS_CODE":0,"TOWNNAME":"麻豆區","LI":"中興里","LIN":"6鄰","STREET":"三民路","SECT":" ","MAREA":" ","LANE":" ","ALLEY":" ","HOUSE_NO":"２９號之１６","E_COORD97":172843.82999999999,"N_COORD97":2564493.6400000001,"ADDRESS":"三民路２９號之１６","OBJECTID":522325},"geometry":{"x":172843.83000000007,"y":2564493.6400000006}},{"attributes":{"ID":522353,"DIS_CODE":0,"TOWNNAME":"麻豆區","LI":"中興里","LIN":"6鄰","STREET":"三民路","SECT":" ","MAREA":" ","LANE":" ","ALLEY":" ","HOUSE_NO":"２９號之１７","E_COORD97":172850.51000000001,"N_COORD97":2564495.6000000001,"ADDRESS":"三民路２９號之１７","OBJECTID":522326},"geometry":{"x":172850.50999999978,"y":2564495.6000000015}},{"attributes":{"ID":522354,"DIS_CODE":0,"TOWNNAME":"麻豆區","LI":"中興里","LIN":"6鄰","STREET":"三民路","SECT":" ","MAREA":" ","LANE":" ","ALLEY":" ","HOUSE_NO":"２９號之１８","E_COORD97":172848.91,"N_COORD97":2564515.21,"ADDRESS":"三民路２９號之１８","OBJECTID":522327},"geometry":{"x":172848.91000000108,"y":2564515.2100000046}},{"attributes":{"ID":522355,"DIS_CODE":0,"TOWNNAME":"麻豆區","LI":"中興里","LIN":"6鄰","STREET":"三民路","SECT":" ","MAREA":" ","LANE":" ","ALLEY":" ","HOUSE_NO":"２９號之１９","E_COORD97":172855.19,"N_COORD97":2564517.6000000001,"ADDRESS":"三民路２９號之１９","OBJECTID":522328},"geometry":{"x":172855.19000000041,"y":2564517.5999999996}},{"attributes":{"ID":522356,"DIS_CODE":0,"TOWNNAME":"麻豆區","LI":"中興里","LIN":"6鄰","STREET":"三民路","SECT":" ","MAREA":" ","LANE":" ","ALLEY":" ","HOUSE_NO":"２９號之１","E_COORD97":172831.28,"N_COORD97":2564508.5899999999,"ADDRESS":"三民路２９號之１","OBJECTID":522329},"geometry":{"x":172831.28000000119,"y":2564508.5900000017}},{"attributes":{"ID":522357,"DIS_CODE":0,"TOWNNAME":"麻豆區","LI":"中興里","LIN":"6鄰","STREET":"三民路","SECT":" ","MAREA":" ","LANE":" ","ALLEY":" ","HOUSE_NO":"２９號之２０","E_COORD97":172861.38,"N_COORD97":2564519.5499999998,"ADDRESS":"三民路２９號之２０","OBJECTID":522330},"geometry":{"x":172861.37999999989,"y":2564519.5500000045}},{"attributes":{"ID":522358,"DIS_CODE":0,"TOWNNAME":"麻豆區","LI":"中興里","LIN":"6鄰","STREET":"三民路","SECT":" ","MAREA":" ","LANE":" ","ALLEY":" ","HOUSE_NO":"２９號之２１","E_COORD97":172867.48999999999,"N_COORD97":2564520.8399999999,"ADDRESS":"三民路２９號之２１","OBJECTID":522331},"geometry":{"x":172867.49000000115,"y":2564520.8400000017}},{"attributes":{"ID":522359,"DIS_CODE":0,"TOWNNAME":"麻豆區","LI":"中興里","LIN":"6鄰","STREET":"三民路","SECT":" ","MAREA":" ","LANE":" ","ALLEY":" ","HOUSE_NO":"２９號之２２","E_COORD97":172873.41,"N_COORD97":2564523.6000000001,"ADDRESS":"三民路２９號之２２","OBJECTID":522332},"geometry":{"x":172873.41000000015,"y":2564523.5999999996}},{"attributes":{"ID":522360,"DIS_CODE":0,"TOWNNAME":"麻豆區","LI":"中興里","LIN":"6鄰","STREET":"三民路","SECT":" ","MAREA":" ","LANE":" ","ALLEY":" ","HOUSE_NO":"２９號之２３","E_COORD97":172855.70000000001,"N_COORD97":2564497.1800000002,"ADDRESS":"三民路２９號之２３","OBJECTID":522333},"geometry":{"x":172855.70000000112,"y":2564497.1800000034}},{"attributes":{"ID":522361,"DIS_CODE":0,"TOWNNAME":"麻豆區","LI":"中興里","LIN":"6鄰","STREET":"三民路","SECT":" ","MAREA":" ","LANE":" ","ALLEY":" ","HOUSE_NO":"２９號之２４","E_COORD97":172861.66,"N_COORD97":2564498.8700000001,"ADDRESS":"三民路２９號之２４","OBJECTID":522334},"geometry":{"x":172861.66000000015,"y":2564498.8700000029}},{"attributes":{"ID":522362,"DIS_CODE":0,"TOWNNAME":"麻豆區","LI":"中興里","LIN":"6鄰","STREET":"三民路","SECT":" ","MAREA":" ","LANE":" ","ALLEY":" ","HOUSE_NO":"２９號之２５","E_COORD97":172867.75,"N_COORD97":2564500.2599999998,"ADDRESS":"三民路２９號之２５","OBJECTID":522335},"geometry":{"x":172867.75,"y":2564500.2600000035}},{"attributes":{"ID":522363,"DIS_CODE":0,"TOWNNAME":"麻豆區","LI":"中興里","LIN":"6鄰","STREET":"三民路","SECT":" ","MAREA":" ","LANE":" ","ALLEY":" ","HOUSE_NO":"２９號之２６","E_COORD97":172873.41,"N_COORD97":2564501.9900000002,"ADDRESS":"三民路２９號之２６","OBJECTID":522336},"geometry":{"x":172873.41000000015,"y":2564501.9900000002}},{"attributes":{"ID":522364,"DIS_CODE":0,"TOWNNAME":"麻豆區","LI":"中興里","LIN":"6鄰","STREET":"三民路","SECT":" ","MAREA":" ","LANE":" ","ALLEY":" ","HOUSE_NO":"２９號之２７","E_COORD97":172879.23000000001,"N_COORD97":2564504.0899999999,"ADDRESS":"三民路２９號之２７","OBJECTID":522337},"geometry":{"x":172879.23000000138,"y":2564504.0899999999}},{"attributes":{"ID":522365,"DIS_CODE":0,"TOWNNAME":"麻豆區","LI":"中興里","LIN":"6鄰","STREET":"三民路","SECT":" ","MAREA":" ","LANE":" ","ALLEY":" ","HOUSE_NO":"２９號之２","E_COORD97":172843.38,"N_COORD97":2564512.75,"ADDRESS":"三民路２９號之２","OBJECTID":522338},"geometry":{"x":172843.37999999989,"y":2564512.75}},{"attributes":{"ID":522366,"DIS_CODE":0,"TOWNNAME":"麻豆區","LI":"中興里","LIN":"6鄰","STREET":"三民路","SECT":" ","MAREA":" ","LANE":" ","ALLEY":" ","HOUSE_NO":"２９號之３","E_COORD97":172837.85999999999,"N_COORD97":2564510.3999999999,"ADDRESS":"三民路２９號之３","OBJECTID":522339},"geometry":{"x":172837.86000000127,"y":2564510.4000000022}},{"attributes":{"ID":522367,"DIS_CODE":0,"TOWNNAME":"麻豆區","LI":"中興里","LIN":"6鄰","STREET":"三民路","SECT":" ","MAREA":" ","LANE":" ","ALLEY":" ","HOUSE_NO":"２９號之４","E_COORD97":172825.47,"N_COORD97":2564506.7400000002,"ADDRESS":"三民路２９號之４","OBJECTID":522340},"geometry":{"x":172825.46999999974,"y":2564506.7400000002}},{"attributes":{"ID":522368,"DIS_CODE":0,"TOWNNAME":"麻豆區","LI":"中興里","LIN":"6鄰","STREET":"三民路","SECT":" ","MAREA":" ","LANE":" ","ALLEY":" ","HOUSE_NO":"２９號之５","E_COORD97":172819.48999999999,"N_COORD97":2564504.3599999999,"ADDRESS":"三民路２９號之５","OBJECTID":522341},"geometry":{"x":172819.49000000209,"y":2564504.3599999994}},{"attributes":{"ID":522369,"DIS_CODE":0,"TOWNNAME":"麻豆區","LI":"中興里","LIN":"6鄰","STREET":"三民路","SECT":" ","MAREA":" ","LANE":" ","ALLEY":" ","HOUSE_NO":"２９號之６","E_COORD97":172802.29000000001,"N_COORD97":2564498.1699999999,"ADDRESS":"三民路２９號之６","OBJECTID":522342},"geometry":{"x":172802.29000000097,"y":2564498.1700000018}},{"attributes":{"ID":522370,"DIS_CODE":0,"TOWNNAME":"麻豆區","LI":"中興里","LIN":"6鄰","STREET":"三民路","SECT":" ","MAREA":" ","LANE":" ","ALLEY":" ","HOUSE_NO":"２９號之７","E_COORD97":172802.66,"N_COORD97":2564494.3599999999,"ADDRESS":"三民路２９號之７","OBJECTID":522343},"geometry":{"x":172802.66000000015,"y":2564494.3599999994}},{"attributes":{"ID":522371,"DIS_CODE":0,"TOWNNAME":"麻豆區","LI":"中興里","LIN":"6鄰","STREET":"三民路","SECT":" ","MAREA":" ","LANE":" ","ALLEY":" ","HOUSE_NO":"２９號之８","E_COORD97":172803.37,"N_COORD97":2564490.2599999998,"ADDRESS":"三民路２９號之８","OBJECTID":522344},"geometry":{"x":172803.37000000104,"y":2564490.2600000016}},{"attributes":{"ID":522372,"DIS_CODE":0,"TOWNNAME":"麻豆區","LI":"中興里","LIN":"6鄰","STREET":"三民路","SECT":" ","MAREA":" ","LANE":" ","ALLEY":" ","HOUSE_NO":"２９號之９","E_COORD97":172803.67000000001,"N_COORD97":2564481.7000000002,"ADDRESS":"三民路２９號之９","OBJECTID":522345},"geometry":{"x":172803.66999999993,"y":2564481.6999999993}},{"attributes":{"ID":522373,"DIS_CODE":0,"TOWNNAME":"安南區","LI":"溪頂里","LIN":"6鄰","STREET":"府安路","SECT":"四段","MAREA":" ","LANE":" ","ALLEY":" ","HOUSE_NO":"１６３號","E_COORD97":168786.60000000001,"N_COORD97":2547249.7400000002,"ADDRESS":"府安路四段１６３號","OBJECTID":522346},"geometry":{"x":168786.59999999963,"y":2547249.7400000002}},{"attributes":{"ID":522374,"DIS_CODE":0,"TOWNNAME":"安南區","LI":"溪頂里","LIN":"6鄰","STREET":"府安路","SECT":"四段","MAREA":" ","LANE":" ","ALLEY":" ","HOUSE_NO":"１６５號","E_COORD97":168775.67000000001,"N_COORD97":2547248.9500000002,"ADDRESS":"府安路四段１６５號","OBJECTID":522347},"geometry":{"x":168775.67000000086,"y":2547248.9500000011}},{"attributes":{"ID":522375,"DIS_CODE":0,"TOWNNAME":"安南區","LI":"溪頂里","LIN":"6鄰","STREET":"府安路","SECT":"四段","MAREA":" ","LANE":" ","ALLEY":" ","HOUSE_NO":"１６６號","E_COORD97":168770.76999999999,"N_COORD97":2547248.4900000002,"ADDRESS":"府安路四段１６６號","OBJECTID":522348},"geometry":{"x":168770.77000000048,"y":2547248.4900000002}},{"attributes":{"ID":522376,"DIS_CODE":0,"TOWNNAME":"安南區","LI":"溪頂里","LIN":"6鄰","STREET":"府安路","SECT":"四段","MAREA":" ","LANE":" ","ALLEY":" ","HOUSE_NO":"１６７號","E_COORD97":168765.76000000001,"N_COORD97":2547248.27,"ADDRESS":"府安路四段１６７號","OBJECTID":522349},"geometry":{"x":168765.76000000164,"y":2547248.2699999996}},{"attributes":{"ID":522377,"DIS_CODE":0,"TOWNNAME":"安南區","LI":"溪頂里","LIN":"6鄰","STREET":"府安路","SECT":"四段","MAREA":" ","LANE":" ","ALLEY":" ","HOUSE_NO":"１６８號","E_COORD97":168760.29000000001,"N_COORD97":2547248.27,"ADDRESS":"府安路四段１６８號","OBJECTID":522350},"geometry":{"x":168760.29000000004,"y":2547248.2699999996}},{"attributes":{"ID":522378,"DIS_CODE":0,"TOWNNAME":"善化區","LI":"坐駕里","LIN":"6鄰","STREET":"民生路","SECT":" ","MAREA":" ","LANE":" ","ALLEY":" ","HOUSE_NO":"３８８號","E_COORD97":177929.82999999999,"N_COORD97":2558887.5099999998,"ADDRESS":"民生路３８８號","OBJECTID":522351},"geometry":{"x":177929.83000000101,"y":2558887.5100000035}},{"attributes":{"ID":522379,"DIS_CODE":0,"TOWNNAME":"善化區","LI":"坐駕里","LIN":"6鄰","STREET":"民生路","SECT":" ","MAREA":" ","LANE":" ","ALLEY":" ","HOUSE_NO":"３９６號","E_COORD97":177911.73000000001,"N_COORD97":2558884.5099999998,"ADDRESS":"民生路３９６號","OBJECTID":522352},"geometry":{"x":177911.73000000045,"y":2558884.5100000016}},{"attributes":{"ID":522380,"DIS_CODE":0,"TOWNNAME":"善化區","LI":"坐駕里","LIN":"6鄰","STREET":"民生路","SECT":" ","MAREA":" ","LANE":" ","ALLEY":" ","HOUSE_NO":"４０２號","E_COORD97":177895.64999999999,"N_COORD97":2558882.2599999998,"ADDRESS":"民生路４０２號","OBJECTID":522353},"geometry":{"x":177895.65000000224,"y":2558882.2600000035}},{"attributes":{"ID":522381,"DIS_CODE":0,"TOWNNAME":"永康區","LI":"三合里","LIN":"6鄰","STREET":"南工街","SECT":" ","MAREA":" ","LANE":" ","ALLEY":" ","HOUSE_NO":"１１０號","E_COORD97":172106.14999999999,"N_COORD97":2545746.5099999998,"ADDRESS":"南工街１１０號","OBJECTID":522354},"geometry":{"x":172106.15000000037,"y":2545746.5100000035}},{"attributes":{"ID":522382,"DIS_CODE":0,"TOWNNAME":"善化區","LI":"西關里","LIN":"6鄰","STREET":"三民路","SECT":" ","MAREA":" ","LANE":" ","ALLEY":" ","HOUSE_NO":"６５號之５","E_COORD97":177100.53,"N_COORD97":2559072.27,"ADDRESS":"三民路６５號之５","OBJECTID":522355},"geometry":{"x":177100.53000000026,"y":2559072.2700000014}},{"attributes":{"ID":522383,"DIS_CODE":0,"TOWNNAME":"善化區","LI":"坐駕里","LIN":"6鄰","STREET":"民生路","SECT":" ","MAREA":" ","LANE":" ","ALLEY":" ","HOUSE_NO":"４０４號","E_COORD97":177889.54000000001,"N_COORD97":2558881.2599999998,"ADDRESS":"民生路４０４號","OBJECTID":522356},"geometry":{"x":177889.54000000097,"y":2558881.2599999998}},{"attributes":{"ID":522384,"DIS_CODE":0,"TOWNNAME":"善化區","LI":"坐駕里","LIN":"6鄰","STREET":"民生路","SECT":" ","MAREA":" ","LANE":" ","ALLEY":" ","HOUSE_NO":"３８４號","E_COORD97":177938.42999999999,"N_COORD97":2558890.0099999998,"ADDRESS":"民生路３８４號","OBJECTID":522357},"geometry":{"x":177938.4299999997,"y":2558890.0099999998}},{"attributes":{"ID":522385,"DIS_CODE":0,"TOWNNAME":"善化區","LI":"坐駕里","LIN":"6鄰","STREET":"建國路","SECT":" ","MAREA":" ","LANE":" ","ALLEY":" ","HOUSE_NO":"１４９號之１","E_COORD97":177937.59,"N_COORD97":2558989.0299999998,"ADDRESS":"建國路１４９號之１","OBJECTID":522358},"geometry":{"x":177937.58999999985,"y":2558989.0300000012}},{"attributes":{"ID":522386,"DIS_CODE":0,"TOWNNAME":"善化區","LI":"坐駕里","LIN":"6鄰","STREET":"青年路","SECT":" ","MAREA":" ","LANE":" ","ALLEY":" ","HOUSE_NO":"１６０號","E_COORD97":177849.62,"N_COORD97":2558884,"ADDRESS":"青年路１６０號","OBJECTID":522359},"geometry":{"x":177849.62000000011,"y":2558884}},{"attributes":{"ID":522387,"DIS_CODE":0,"TOWNNAME":"善化區","LI":"南關里","LIN":"6鄰","STREET":"永福路","SECT":" ","MAREA":" ","LANE":" ","ALLEY":" ","HOUSE_NO":"１６４號","E_COORD97":177148.89000000001,"N_COORD97":2558768.25,"ADDRESS":"永福路１６４號","OBJECTID":522360},"geometry":{"x":177148.88999999966,"y":2558768.2500000019}},{"attributes":{"ID":522388,"DIS_CODE":0,"TOWNNAME":"善化區","LI":"南關里","LIN":"6鄰","STREET":"文昌路","SECT":" ","MAREA":" ","LANE":" ","ALLEY":" ","HOUSE_NO":"１２１號","E_COORD97":177105.29000000001,"N_COORD97":2558642.2799999998,"ADDRESS":"文昌路１２１號","OBJECTID":522361},"geometry":{"x":177105.29000000004,"y":2558642.2800000012}},{"attributes":{"ID":522389,"DIS_CODE":0,"TOWNNAME":"善化區","LI":"東關里","LIN":"6鄰","STREET":"中山路","SECT":" ","MAREA":" ","LANE":" ","ALLEY":" ","HOUSE_NO":"４６４號","E_COORD97":177301.82999999999,"N_COORD97":2559134.25,"ADDRESS":"中山路４６４號","OBJECTID":522362},"geometry":{"x":177301.83000000007,"y":2559134.2500000019}},{"attributes":{"ID":522390,"DIS_CODE":0,"TOWNNAME":"善化區","LI":"坐駕里","LIN":"6鄰","STREET":"建國路","SECT":" ","MAREA":" ","LANE":" ","ALLEY":" ","HOUSE_NO":"１５１號","E_COORD97":177956.12,"N_COORD97":2558996.7799999998,"ADDRESS":"建國路１５１號","OBJECTID":522363},"geometry":{"x":177956.12000000011,"y":2558996.7799999975}},{"attributes":{"ID":522391,"DIS_CODE":0,"TOWNNAME":"善化區","LI":"坐駕里","LIN":"6鄰","STREET":"建國路","SECT":" ","MAREA":" ","LANE":" ","ALLEY":" ","HOUSE_NO":"１３９號","E_COORD97":177962.23999999999,"N_COORD97":2558953.2799999998,"ADDRESS":"建國路１３９號","OBJECTID":522364},"geometry":{"x":177962.24000000022,"y":2558953.2800000012}},{"attributes":{"ID":522392,"DIS_CODE":0,"TOWNNAME":"善化區","LI":"東關里","LIN":"6鄰","STREET":"中山路","SECT":" ","MAREA":" ","LANE":" ","ALLEY":" ","HOUSE_NO":"４５６號","E_COORD97":177319.28,"N_COORD97":2559132.75,"ADDRESS":"中山路４５６號","OBJECTID":522365},"geometry":{"x":177319.28000000026,"y":2559132.75}},{"attributes":{"ID":522393,"DIS_CODE":0,"TOWNNAME":"善化區","LI":"南關里","LIN":"6鄰","STREET":"文昌路","SECT":" ","MAREA":" ","LANE":" ","ALLEY":" ","HOUSE_NO":"５６號","E_COORD97":177128.31,"N_COORD97":2558683.2799999998,"ADDRESS":"文昌路５６號","OBJECTID":522366},"geometry":{"x":177128.31000000052,"y":2558683.2800000012}},{"attributes":{"ID":522394,"DIS_CODE":0,"TOWNNAME":"善化區","LI":"坐駕里","LIN":"6鄰","STREET":"建國路","SECT":" ","MAREA":" ","LANE":" ","ALLEY":" ","HOUSE_NO":"１５５號","E_COORD97":177954.67000000001,"N_COORD97":2559005.7799999998,"ADDRESS":"建國路１５５號","OBJECTID":522367},"geometry":{"x":177954.67000000086,"y":2559005.7799999993}},{"attributes":{"ID":522395,"DIS_CODE":0,"TOWNNAME":"善化區","LI":"東關里","LIN":"6鄰","STREET":"中山路","SECT":" ","MAREA":" ","LANE":" ","ALLEY":" ","HOUSE_NO":"４６６號","E_COORD97":177296.17000000001,"N_COORD97":2559134,"ADDRESS":"中山路４６６號","OBJECTID":522368},"geometry":{"x":177296.16999999993,"y":2559134}},{"attributes":{"ID":522396,"DIS_CODE":0,"TOWNNAME":"善化區","LI":"南關里","LIN":"6鄰","STREET":"文昌路","SECT":" ","MAREA":" ","LANE":" ","ALLEY":" ","HOUSE_NO":"１１５號","E_COORD97":177123.89999999999,"N_COORD97":2558658.5299999998,"ADDRESS":"文昌路１１５號","OBJECTID":522369},"geometry":{"x":177123.90000000037,"y":2558658.5299999993}},{"attributes":{"ID":522397,"DIS_CODE":0,"TOWNNAME":"善化區","LI":"南關里","LIN":"6鄰","STREET":"文昌路","SECT":" ","MAREA":" ","LANE":" ","ALLEY":" ","HOUSE_NO":"５４之１號","E_COORD97":177137.35999999999,"N_COORD97":2558686.0299999998,"ADDRESS":"文昌路５４之１號","OBJECTID":522370},"geometry":{"x":177137.36000000034,"y":2558686.0299999993}},{"attributes":{"ID":522398,"DIS_CODE":0,"TOWNNAME":"善化區","LI":"南關里","LIN":"6鄰","STREET":"文昌路","SECT":" ","MAREA":" ","LANE":" ","ALLEY":" ","HOUSE_NO":"５４之２號","E_COORD97":177133.26000000001,"N_COORD97":2558684.7799999998,"ADDRESS":"文昌路５４之２號","OBJECTID":522371},"geometry":{"x":177133.26000000071,"y":2558684.7799999975}},{"attributes":{"ID":522399,"DIS_CODE":0,"TOWNNAME":"善化區","LI":"坐駕里","LIN":"6鄰","STREET":"建國路","SECT":" ","MAREA":" ","LANE":" ","ALLEY":" ","HOUSE_NO":"１６７之１號","E_COORD97":177951.17999999999,"N_COORD97":2559034.7799999998,"ADDRESS":"建國路１６７之１號","OBJECTID":522372},"geometry":{"x":177951.18000000063,"y":2559034.7800000012}},{"attributes":{"ID":522400,"DIS_CODE":0,"TOWNNAME":"安南區","LI":"淵中里","LIN":"6鄰","STREET":"安中路","SECT":"四段","MAREA":" ","LANE":" ","ALLEY":" ","HOUSE_NO":"１３０號","E_COORD97":165020.26000000001,"N_COORD97":2550000.1699999999,"ADDRESS":"安中路四段１３０號","OBJECTID":522373},"geometry":{"x":165020.25999999978,"y":2550000.1700000037}},{"attributes":{"ID":522401,"DIS_CODE":0,"TOWNNAME":"安南區","LI":"淵中里","LIN":"6鄰","STREET":"安中路","SECT":"四段","MAREA":" ","LANE":" ","ALLEY":" ","HOUSE_NO":"１３２號","E_COORD97":165016.14999999999,"N_COORD97":2550001.6699999999,"ADDRESS":"安中路四段１３２號","OBJECTID":522374},"geometry":{"x":165016.1500000013,"y":2550001.6700000018}},{"attributes":{"ID":522402,"DIS_CODE":0,"TOWNNAME":"安南區","LI":"淵中里","LIN":"6鄰","STREET":"安中路","SECT":"四段","MAREA":" ","LANE":" ","ALLEY":" ","HOUSE_NO":"１３４號","E_COORD97":165011.64999999999,"N_COORD97":2550004.0699999998,"ADDRESS":"安中路四段１３４號","OBJECTID":522375},"geometry":{"x":165011.65000000037,"y":2550004.0700000003}},{"attributes":{"ID":522403,"DIS_CODE":0,"TOWNNAME":"安南區","LI":"安慶里","LIN":"6鄰","STREET":"怡安路","SECT":"一段","MAREA":" ","LANE":" ","ALLEY":" ","HOUSE_NO":"２８８之１號","E_COORD97":168963.42000000001,"N_COORD97":2549113.1499999999,"ADDRESS":"怡安路一段２８８之１號","OBJECTID":522376},"geometry":{"x":168963.42000000086,"y":2549113.1500000022}},{"attributes":{"ID":522404,"DIS_CODE":0,"TOWNNAME":"安南區","LI":"淵中里","LIN":"6鄰","STREET":"安中路","SECT":"四段","MAREA":" ","LANE":" ","ALLEY":" ","HOUSE_NO":"１４０號","E_COORD97":164997.42000000001,"N_COORD97":2550008.8799999999,"ADDRESS":"安中路四段１４０號","OBJECTID":522377},"geometry":{"x":164997.41999999993,"y":2550008.8800000008}},{"attributes":{"ID":522405,"DIS_CODE":0,"TOWNNAME":"安南區","LI":"淵中里","LIN":"6鄰","STREET":"安中路","SECT":"四段","MAREA":" ","LANE":" ","ALLEY":" ","HOUSE_NO":"１３６號","E_COORD97":165005.14000000001,"N_COORD97":2550006.1699999999,"ADDRESS":"安中路四段１３６號","OBJECTID":522378},"geometry":{"x":165005.1400000006,"y":2550006.1699999999}},{"attributes":{"ID":522406,"DIS_CODE":0,"TOWNNAME":"安南區","LI":"淵中里","LIN":"6鄰","STREET":"安中路","SECT":"四段","MAREA":" ","LANE":" ","ALLEY":" ","HOUSE_NO":"１３８號","E_COORD97":165000.82999999999,"N_COORD97":2550007.5699999998,"ADDRESS":"安中路四段１３８號","OBJECTID":522379},"geometry":{"x":165000.83000000101,"y":2550007.5700000003}},{"attributes":{"ID":522407,"DIS_CODE":0,"TOWNNAME":"安南區","LI":"淵中里","LIN":"6鄰","STREET":"安中路","SECT":"四段","MAREA":" ","LANE":" ","ALLEY":" ","HOUSE_NO":"１４２號","E_COORD97":164992.82000000001,"N_COORD97":2550011.0800000001,"ADDRESS":"安中路四段１４２號","OBJECTID":522380},"geometry":{"x":164992.82000000123,"y":2550011.0800000038}},{"attributes":{"ID":522408,"DIS_CODE":0,"TOWNNAME":"安南區","LI":"淵中里","LIN":"6鄰","STREET":"安中路","SECT":"四段","MAREA":" ","LANE":" ","ALLEY":" ","HOUSE_NO":"１４４號","E_COORD97":164988.60999999999,"N_COORD97":2550013.3799999999,"ADDRESS":"安中路四段１４４號","OBJECTID":522381},"geometry":{"x":164988.6100000022,"y":2550013.379999999}},{"attributes":{"ID":522409,"DIS_CODE":0,"TOWNNAME":"安南區","LI":"淵中里","LIN":"6鄰","STREET":"安中路","SECT":"四段","MAREA":" ","LANE":" ","ALLEY":" ","HOUSE_NO":"１４４號之１","E_COORD97":164984.60000000001,"N_COORD97":2550015.7799999998,"ADDRESS":"安中路四段１４４號之１","OBJECTID":522382},"geometry":{"x":164984.60000000149,"y":2550015.7800000031}},{"attributes":{"ID":522410,"DIS_CODE":0,"TOWNNAME":"麻豆區","LI":"中興里","LIN":"6鄰","STREET":"中興街","SECT":" ","MAREA":" ","LANE":" ","ALLEY":" ","HOUSE_NO":"５９號","E_COORD97":172882.89999999999,"N_COORD97":2564548.27,"ADDRESS":"中興街５９號","OBJECTID":522383},"geometry":{"x":172882.90000000224,"y":2564548.2700000014}},{"attributes":{"ID":522411,"DIS_CODE":0,"TOWNNAME":"麻豆區","LI":"中興里","LIN":"6鄰","STREET":"中興街","SECT":" ","MAREA":" ","LANE":" ","ALLEY":" ","HOUSE_NO":"６５號","E_COORD97":172866.5,"N_COORD97":2564545.3300000001,"ADDRESS":"中興街６５號","OBJECTID":522384},"geometry":{"x":172866.49999999907,"y":2564545.3300000019}},{"attributes":{"ID":522412,"DIS_CODE":0,"TOWNNAME":"麻豆區","LI":"新建里","LIN":"6鄰","STREET":"中山路","SECT":" ","MAREA":" ","LANE":" ","ALLEY":" ","HOUSE_NO":"１６７號之２","E_COORD97":172514.64999999999,"N_COORD97":2564857.8700000001,"ADDRESS":"中山路１６７號之２","OBJECTID":522385},"geometry":{"x":172514.65000000037,"y":2564857.8700000029}},{"attributes":{"ID":522413,"DIS_CODE":0,"TOWNNAME":"麻豆區","LI":"新建里","LIN":"6鄰","STREET":"中山路","SECT":" ","MAREA":" ","LANE":" ","ALLEY":" ","HOUSE_NO":"１６７號之３","E_COORD97":172510.95000000001,"N_COORD97":2564859.7999999998,"ADDRESS":"中山路１６７號之３","OBJECTID":522386},"geometry":{"x":172510.95000000019,"y":2564859.8000000007}},{"attributes":{"ID":522414,"DIS_CODE":0,"TOWNNAME":"麻豆區","LI":"新建里","LIN":"6鄰","STREET":"中山路","SECT":" ","MAREA":" ","LANE":" ","ALLEY":" ","HOUSE_NO":"１６７號之４","E_COORD97":172507.26000000001,"N_COORD97":2564861.73,"ADDRESS":"中山路１６７號之４","OBJECTID":522387},"geometry":{"x":172507.26000000071,"y":2564861.7300000023}},{"attributes":{"ID":522415,"DIS_CODE":0,"TOWNNAME":"麻豆區","LI":"新建里","LIN":"6鄰","STREET":"中山路","SECT":" ","MAREA":" ","LANE":" ","ALLEY":" ","HOUSE_NO":"１６７號之５","E_COORD97":172503.56,"N_COORD97":2564863.6600000001,"ADDRESS":"中山路１６７號之５","OBJECTID":522388},"geometry":{"x":172503.56000000052,"y":2564863.6600000001}},{"attributes":{"ID":522416,"DIS_CODE":0,"TOWNNAME":"麻豆區","LI":"新建里","LIN":"6鄰","STREET":"中山路","SECT":" ","MAREA":" ","LANE":" ","ALLEY":" ","HOUSE_NO":"１６７號之６","E_COORD97":172499.87,"N_COORD97":2564865.6000000001,"ADDRESS":"中山路１６７號之６","OBJECTID":522389},"geometry":{"x":172499.87000000197,"y":2564865.5999999996}},{"attributes":{"ID":522417,"DIS_CODE":0,"TOWNNAME":"麻豆區","LI":"新建里","LIN":"6鄰","STREET":"中山路","SECT":" ","MAREA":" ","LANE":" ","ALLEY":" ","HOUSE_NO":"１６７號之７","E_COORD97":172496.17000000001,"N_COORD97":2564867.5299999998,"ADDRESS":"中山路１６７號之７","OBJECTID":522390},"geometry":{"x":172496.17000000086,"y":2564867.5300000031}},{"attributes":{"ID":522418,"DIS_CODE":0,"TOWNNAME":"麻豆區","LI":"新建里","LIN":"6鄰","STREET":"中山路","SECT":" ","MAREA":" ","LANE":" ","ALLEY":" ","HOUSE_NO":"１６７號之８","E_COORD97":172492.47,"N_COORD97":2564869.46,"ADDRESS":"中山路１６７號之８","OBJECTID":522391},"geometry":{"x":172492.47000000067,"y":2564869.4600000046}},{"attributes":{"ID":522419,"DIS_CODE":0,"TOWNNAME":"麻豆區","LI":"新建里","LIN":"6鄰","STREET":"中山路","SECT":" ","MAREA":" ","LANE":" ","ALLEY":" ","HOUSE_NO":"１６７號之９","E_COORD97":172488.78,"N_COORD97":2564871.3900000001,"ADDRESS":"中山路１６７號之９","OBJECTID":522392},"geometry":{"x":172488.78000000119,"y":2564871.3900000006}},{"attributes":{"ID":522420,"DIS_CODE":0,"TOWNNAME":"麻豆區","LI":"新建里","LIN":"6鄰","STREET":"中山路","SECT":" ","MAREA":" ","LANE":" ","ALLEY":" ","HOUSE_NO":"１６９號之１","E_COORD97":172496.07999999999,"N_COORD97":2564846.0499999998,"ADDRESS":"中山路１６９號之１","OBJECTID":522393},"geometry":{"x":172496.08000000007,"y":2564846.0500000026}},{"attributes":{"ID":522421,"DIS_CODE":0,"TOWNNAME":"麻豆區","LI":"新建里","LIN":"6鄰","STREET":"中山路","SECT":" ","MAREA":" ","LANE":" ","ALLEY":" ","HOUSE_NO":"１６９號之２","E_COORD97":172500.48999999999,"N_COORD97":2564846.2599999998,"ADDRESS":"中山路１６９號之２","OBJECTID":522394},"geometry":{"x":172500.49000000022,"y":2564846.2600000016}},{"attributes":{"ID":522422,"DIS_CODE":0,"TOWNNAME":"麻豆區","LI":"新建里","LIN":"6鄰","STREET":"中山路","SECT":" ","MAREA":" ","LANE":" ","ALLEY":" ","HOUSE_NO":"１６９號之３","E_COORD97":172505.20000000001,"N_COORD97":2564846.4700000002,"ADDRESS":"中山路１６９號之３","OBJECTID":522395},"geometry":{"x":172505.20000000112,"y":2564846.4700000025}},{"attributes":{"ID":522423,"DIS_CODE":0,"TOWNNAME":"麻豆區","LI":"新建里","LIN":"6鄰","STREET":"中山路","SECT":" ","MAREA":" ","LANE":" ","ALLEY":" ","HOUSE_NO":"１６９號","E_COORD97":172491.31,"N_COORD97":2564845.7400000002,"ADDRESS":"中山路１６９號","OBJECTID":522396},"geometry":{"x":172491.31000000052,"y":2564845.7400000002}},{"attributes":{"ID":522424,"DIS_CODE":0,"TOWNNAME":"麻豆區","LI":"新建里","LIN":"6鄰","STREET":"中山路","SECT":" ","MAREA":" ","LANE":" ","ALLEY":" ","HOUSE_NO":"１７１號之１０","E_COORD97":172527.76999999999,"N_COORD97":2564823.4700000002,"ADDRESS":"中山路１７１號之１０","OBJECTID":522397},"geometry":{"x":172527.77000000048,"y":2564823.4700000007}},{"attributes":{"ID":522425,"DIS_CODE":0,"TOWNNAME":"麻豆區","LI":"新建里","LIN":"6鄰","STREET":"中山路","SECT":" ","MAREA":" ","LANE":" ","ALLEY":" ","HOUSE_NO":"１７１號之１１","E_COORD97":172531.70000000001,"N_COORD97":2564823.5499999998,"ADDRESS":"中山路１７１號之１１","OBJECTID":522398},"geometry":{"x":172531.70000000112,"y":2564823.5500000007}},{"attributes":{"ID":522426,"DIS_CODE":0,"TOWNNAME":"麻豆區","LI":"新建里","LIN":"6鄰","STREET":"中山路","SECT":" ","MAREA":" ","LANE":" ","ALLEY":" ","HOUSE_NO":"１７１號之１２","E_COORD97":172535.48999999999,"N_COORD97":2564823.7599999998,"ADDRESS":"中山路１７１號之１２","OBJECTID":522399},"geometry":{"x":172535.49000000115,"y":2564823.7600000016}},{"attributes":{"ID":522427,"DIS_CODE":0,"TOWNNAME":"麻豆區","LI":"新建里","LIN":"6鄰","STREET":"中山路","SECT":" ","MAREA":" ","LANE":" ","ALLEY":" ","HOUSE_NO":"１７１號之１３","E_COORD97":172514.81,"N_COORD97":2564835.4900000002,"ADDRESS":"中山路１７１號之１３","OBJECTID":522400},"geometry":{"x":172514.81000000145,"y":2564835.4900000021}}]}