{"displayFieldName":"TOWNNAME","fieldAliases":{"ID":"ID","DIS_CODE":"DIS_CODE","TOWNNAME":"TOWNNAME","LI":"LI","LIN":"LIN","STREET":"STREET","SECT":"SECT","MAREA":"MAREA","LANE":"LANE","ALLEY":"ALLEY","HOUSE_NO":"HOUSE_NO","E_COORD97":"E_COORD97","N_COORD97":"N_COORD97","ADDRESS":"ADDRESS","OBJECTID":"OBJECTID"},"geometryType":"esriGeometryPoint","spatialReference":{"wkid":102443,"latestWkid":3826},"fields":[{"name":"ID","type":"esriFieldTypeDouble","alias":"ID"},{"name":"DIS_CODE","type":"esriFieldTypeInteger","alias":"DIS_CODE"},{"name":"TOWNNAME","type":"esriFieldTypeString","alias":"TOWNNAME","length":8},{"name":"LI","type":"esriFieldTypeString","alias":"LI","length":8},{"name":"LIN","type":"esriFieldTypeString","alias":"LIN","length":12},{"name":"STREET","type":"esriFieldTypeString","alias":"STREET","length":20},{"name":"SECT","type":"esriFieldTypeString","alias":"SECT","length":8},{"name":"MAREA","type":"esriFieldTypeString","alias":"MAREA","length":12},{"name":"LANE","type":"esriFieldTypeString","alias":"LANE","length":10},{"name":"ALLEY","type":"esriFieldTypeString","alias":"ALLEY","length":10},{"name":"HOUSE_NO","type":"esriFieldTypeString","alias":"HOUSE_NO","length":20},{"name":"E_COORD97","type":"esriFieldTypeDouble","alias":"E_COORD97"},{"name":"N_COORD97","type":"esriFieldTypeDouble","alias":"N_COORD97"},{"name":"ADDRESS","type":"esriFieldTypeString","alias":"ADDRESS","length":50},{"name":"OBJECTID","type":"esriFieldTypeOID","alias":"OBJECTID"}],"features":[{"attributes":{"ID":93601,"DIS_CODE":0,"TOWNNAME":"東區","LI":"虎尾里","LIN":"21鄰","STREET":"東門路","SECT":"三段","MAREA":" ","LANE":"２７３巷","ALLEY":"２４弄","HOUSE_NO":"１３號","E_COORD97":171776.87,"N_COORD97":2541933.5299999998,"ADDRESS":"東門路三段２７３巷２４弄１３號","OBJECTID":93601},"geometry":{"x":171776.87000000011,"y":2541933.5299999993}},{"attributes":{"ID":93602,"DIS_CODE":0,"TOWNNAME":"七股區","LI":"中寮里","LIN":"10鄰","STREET":" ","SECT":" ","MAREA":"中寮","LANE":" ","ALLEY":" ","HOUSE_NO":"２２號","E_COORD97":158734.76999999999,"N_COORD97":2561349.5,"ADDRESS":"中寮２２號","OBJECTID":93602},"geometry":{"x":158734.76999999862,"y":2561349.5000000019}},{"attributes":{"ID":93603,"DIS_CODE":0,"TOWNNAME":"七股區","LI":"中寮里","LIN":"10鄰","STREET":" ","SECT":" ","MAREA":"中寮","LANE":" ","ALLEY":" ","HOUSE_NO":"７１號之１","E_COORD97":158785.38,"N_COORD97":2561578.2400000002,"ADDRESS":"中寮７１號之１","OBJECTID":93603},"geometry":{"x":158785.38000000175,"y":2561578.2400000039}},{"attributes":{"ID":93604,"DIS_CODE":0,"TOWNNAME":"七股區","LI":"中寮里","LIN":"10鄰","STREET":" ","SECT":" ","MAREA":"中寮","LANE":" ","ALLEY":" ","HOUSE_NO":"７１號之２","E_COORD97":158804.98999999999,"N_COORD97":2561582.02,"ADDRESS":"中寮７１號之２","OBJECTID":93604},"geometry":{"x":158804.99000000022,"y":2561582.0199999996}},{"attributes":{"ID":93605,"DIS_CODE":0,"TOWNNAME":"七股區","LI":"中寮里","LIN":"10鄰","STREET":" ","SECT":" ","MAREA":"中寮","LANE":" ","ALLEY":" ","HOUSE_NO":"７１號之３","E_COORD97":158810.01999999999,"N_COORD97":2561583.1200000001,"ADDRESS":"中寮７１號之３","OBJECTID":93605},"geometry":{"x":158810.02000000048,"y":2561583.1199999992}},{"attributes":{"ID":93606,"DIS_CODE":0,"TOWNNAME":"七股區","LI":"中寮里","LIN":"10鄰","STREET":" ","SECT":" ","MAREA":"中寮","LANE":" ","ALLEY":" ","HOUSE_NO":"７３號之１","E_COORD97":158872.60999999999,"N_COORD97":2561541.8199999998,"ADDRESS":"中寮７３號之１","OBJECTID":93606},"geometry":{"x":158872.61000000127,"y":2561541.8200000022}},{"attributes":{"ID":93607,"DIS_CODE":0,"TOWNNAME":"七股區","LI":"中寮里","LIN":"10鄰","STREET":" ","SECT":" ","MAREA":"中寮","LANE":" ","ALLEY":" ","HOUSE_NO":"７３號之２","E_COORD97":158863.45000000001,"N_COORD97":2561532.4399999999,"ADDRESS":"中寮７３號之２","OBJECTID":93607},"geometry":{"x":158863.45000000112,"y":2561532.4400000013}},{"attributes":{"ID":93608,"DIS_CODE":0,"TOWNNAME":"七股區","LI":"中寮里","LIN":"10鄰","STREET":" ","SECT":" ","MAREA":"中寮","LANE":" ","ALLEY":" ","HOUSE_NO":"７３號之３","E_COORD97":158823.78,"N_COORD97":2561535,"ADDRESS":"中寮７３號之３","OBJECTID":93608},"geometry":{"x":158823.78000000212,"y":2561535}},{"attributes":{"ID":93609,"DIS_CODE":0,"TOWNNAME":"七股區","LI":"中寮里","LIN":"10鄰","STREET":" ","SECT":" ","MAREA":"中寮","LANE":" ","ALLEY":" ","HOUSE_NO":"７３號","E_COORD97":158845.60999999999,"N_COORD97":2561543.7799999998,"ADDRESS":"中寮７３號","OBJECTID":93609},"geometry":{"x":158845.61000000127,"y":2561543.7800000012}},{"attributes":{"ID":93610,"DIS_CODE":0,"TOWNNAME":"七股區","LI":"大潭里","LIN":"10鄰","STREET":" ","SECT":" ","MAREA":"台潭","LANE":" ","ALLEY":" ","HOUSE_NO":"１０２號","E_COORD97":160952.32000000001,"N_COORD97":2565485.8100000001,"ADDRESS":"台潭１０２號","OBJECTID":93610},"geometry":{"x":160952.3200000003,"y":2565485.8100000005}},{"attributes":{"ID":93611,"DIS_CODE":0,"TOWNNAME":"七股區","LI":"大潭里","LIN":"10鄰","STREET":" ","SECT":" ","MAREA":"台潭","LANE":" ","ALLEY":" ","HOUSE_NO":"１０３號","E_COORD97":160963.89999999999,"N_COORD97":2565477.75,"ADDRESS":"台潭１０３號","OBJECTID":93611},"geometry":{"x":160963.90000000037,"y":2565477.7500000019}},{"attributes":{"ID":93612,"DIS_CODE":0,"TOWNNAME":"七股區","LI":"大潭里","LIN":"10鄰","STREET":" ","SECT":" ","MAREA":"台潭","LANE":" ","ALLEY":" ","HOUSE_NO":"１０５號","E_COORD97":160991.97,"N_COORD97":2565460.4100000001,"ADDRESS":"台潭１０５號","OBJECTID":93612},"geometry":{"x":160991.97000000067,"y":2565460.410000002}},{"attributes":{"ID":93613,"DIS_CODE":0,"TOWNNAME":"七股區","LI":"大潭里","LIN":"10鄰","STREET":" ","SECT":" ","MAREA":"台潭","LANE":" ","ALLEY":" ","HOUSE_NO":"１０６號","E_COORD97":160987.48000000001,"N_COORD97":2565444.27,"ADDRESS":"台潭１０６號","OBJECTID":93613},"geometry":{"x":160987.48000000138,"y":2565444.2699999996}},{"attributes":{"ID":93614,"DIS_CODE":0,"TOWNNAME":"七股區","LI":"大潭里","LIN":"10鄰","STREET":" ","SECT":" ","MAREA":"台潭","LANE":" ","ALLEY":" ","HOUSE_NO":"１０７號","E_COORD97":160953.14000000001,"N_COORD97":2565434.5800000001,"ADDRESS":"台潭１０７號","OBJECTID":93614},"geometry":{"x":160953.14000000153,"y":2565434.5800000019}},{"attributes":{"ID":93615,"DIS_CODE":0,"TOWNNAME":"七股區","LI":"大潭里","LIN":"10鄰","STREET":" ","SECT":" ","MAREA":"台潭","LANE":" ","ALLEY":" ","HOUSE_NO":"１０８號","E_COORD97":160962.17000000001,"N_COORD97":2565449.4399999999,"ADDRESS":"台潭１０８號","OBJECTID":93615},"geometry":{"x":160962.17000000086,"y":2565449.4400000013}},{"attributes":{"ID":93616,"DIS_CODE":0,"TOWNNAME":"七股區","LI":"大潭里","LIN":"10鄰","STREET":" ","SECT":" ","MAREA":"台潭","LANE":" ","ALLEY":" ","HOUSE_NO":"１０９號","E_COORD97":160942.51000000001,"N_COORD97":2565460.3599999999,"ADDRESS":"台潭１０９號","OBJECTID":93616},"geometry":{"x":160942.51000000071,"y":2565460.3599999994}},{"attributes":{"ID":93617,"DIS_CODE":0,"TOWNNAME":"七股區","LI":"大潭里","LIN":"10鄰","STREET":" ","SECT":" ","MAREA":"台潭","LANE":" ","ALLEY":" ","HOUSE_NO":"１１０號","E_COORD97":160929.48000000001,"N_COORD97":2565471.6299999999,"ADDRESS":"台潭１１０號","OBJECTID":93617},"geometry":{"x":160929.48000000045,"y":2565471.629999999}},{"attributes":{"ID":93618,"DIS_CODE":0,"TOWNNAME":"七股區","LI":"永吉里","LIN":"10鄰","STREET":" ","SECT":" ","MAREA":"永吉","LANE":" ","ALLEY":" ","HOUSE_NO":"１００號之１","E_COORD97":160482.38,"N_COORD97":2554930.0299999998,"ADDRESS":"永吉１００號之１","OBJECTID":93618},"geometry":{"x":160482.38000000082,"y":2554930.0299999975}},{"attributes":{"ID":93619,"DIS_CODE":0,"TOWNNAME":"七股區","LI":"永吉里","LIN":"10鄰","STREET":" ","SECT":" ","MAREA":"永吉","LANE":" ","ALLEY":" ","HOUSE_NO":"１００號","E_COORD97":159696.47,"N_COORD97":2554746.4700000002,"ADDRESS":"永吉１００號","OBJECTID":93619},"geometry":{"x":159696.46999999881,"y":2554746.4700000025}},{"attributes":{"ID":93620,"DIS_CODE":0,"TOWNNAME":"七股區","LI":"永吉里","LIN":"10鄰","STREET":" ","SECT":" ","MAREA":"永吉","LANE":" ","ALLEY":" ","HOUSE_NO":"１０１號之１","E_COORD97":159633.07000000001,"N_COORD97":2554787.4100000001,"ADDRESS":"永吉１０１號之１","OBJECTID":93620},"geometry":{"x":159633.0700000003,"y":2554787.410000002}},{"attributes":{"ID":93621,"DIS_CODE":0,"TOWNNAME":"七股區","LI":"永吉里","LIN":"10鄰","STREET":" ","SECT":" ","MAREA":"永吉","LANE":" ","ALLEY":" ","HOUSE_NO":"１０１號之２","E_COORD97":159445.67000000001,"N_COORD97":2555006.1200000001,"ADDRESS":"永吉１０１號之２","OBJECTID":93621},"geometry":{"x":159445.66999999993,"y":2555006.1200000048}},{"attributes":{"ID":93622,"DIS_CODE":0,"TOWNNAME":"東區","LI":"虎尾里","LIN":"21鄰","STREET":"東門路","SECT":"三段","MAREA":" ","LANE":"２７３巷","ALLEY":"２４弄","HOUSE_NO":"１５號","E_COORD97":171781.06,"N_COORD97":2541933.7200000002,"ADDRESS":"東門路三段２７３巷２４弄１５號","OBJECTID":93622},"geometry":{"x":171781.06000000052,"y":2541933.7200000007}},{"attributes":{"ID":93623,"DIS_CODE":0,"TOWNNAME":"東區","LI":"虎尾里","LIN":"21鄰","STREET":"東門路","SECT":"三段","MAREA":" ","LANE":"２７３巷","ALLEY":"２４弄","HOUSE_NO":"１６號","E_COORD97":171761.60999999999,"N_COORD97":2541884.73,"ADDRESS":"東門路三段２７３巷２４弄１６號","OBJECTID":93623},"geometry":{"x":171761.61000000127,"y":2541884.7300000023}},{"attributes":{"ID":93624,"DIS_CODE":0,"TOWNNAME":"東區","LI":"虎尾里","LIN":"21鄰","STREET":"東門路","SECT":"三段","MAREA":" ","LANE":"２７３巷","ALLEY":"２４弄","HOUSE_NO":"１７號","E_COORD97":171786.20000000001,"N_COORD97":2541934.48,"ADDRESS":"東門路三段２７３巷２４弄１７號","OBJECTID":93624},"geometry":{"x":171786.20000000112,"y":2541934.4800000023}},{"attributes":{"ID":93625,"DIS_CODE":0,"TOWNNAME":"七股區","LI":"永吉里","LIN":"10鄰","STREET":" ","SECT":" ","MAREA":"永吉","LANE":" ","ALLEY":" ","HOUSE_NO":"１０１號","E_COORD97":159625.29000000001,"N_COORD97":2554881.29,"ADDRESS":"永吉１０１號","OBJECTID":93625},"geometry":{"x":159625.2900000019,"y":2554881.290000001}},{"attributes":{"ID":93626,"DIS_CODE":0,"TOWNNAME":"七股區","LI":"永吉里","LIN":"10鄰","STREET":" ","SECT":" ","MAREA":"永吉","LANE":" ","ALLEY":" ","HOUSE_NO":"１０２號之１","E_COORD97":159517.26999999999,"N_COORD97":2554791.8100000001,"ADDRESS":"永吉１０２號之１","OBJECTID":93626},"geometry":{"x":159517.26999999955,"y":2554791.8100000024}},{"attributes":{"ID":93627,"DIS_CODE":0,"TOWNNAME":"七股區","LI":"永吉里","LIN":"10鄰","STREET":" ","SECT":" ","MAREA":"永吉","LANE":" ","ALLEY":" ","HOUSE_NO":"１０２號","E_COORD97":159277.73000000001,"N_COORD97":2554816.4300000002,"ADDRESS":"永吉１０２號","OBJECTID":93627},"geometry":{"x":159277.73000000045,"y":2554816.4300000016}},{"attributes":{"ID":93628,"DIS_CODE":0,"TOWNNAME":"七股區","LI":"永吉里","LIN":"10鄰","STREET":" ","SECT":" ","MAREA":"永吉","LANE":" ","ALLEY":" ","HOUSE_NO":"１０３號之１","E_COORD97":159230.69,"N_COORD97":2555070.4500000002,"ADDRESS":"永吉１０３號之１","OBJECTID":93628},"geometry":{"x":159230.69000000041,"y":2555070.4500000011}},{"attributes":{"ID":93629,"DIS_CODE":0,"TOWNNAME":"七股區","LI":"永吉里","LIN":"10鄰","STREET":" ","SECT":" ","MAREA":"永吉","LANE":" ","ALLEY":" ","HOUSE_NO":"１０４號","E_COORD97":159166.26999999999,"N_COORD97":2554550.5299999998,"ADDRESS":"永吉１０４號","OBJECTID":93629},"geometry":{"x":159166.27000000048,"y":2554550.5300000031}},{"attributes":{"ID":93630,"DIS_CODE":0,"TOWNNAME":"七股區","LI":"永吉里","LIN":"10鄰","STREET":" ","SECT":" ","MAREA":"永吉","LANE":" ","ALLEY":" ","HOUSE_NO":"１０５號之１","E_COORD97":159399.85999999999,"N_COORD97":2554582.0699999998,"ADDRESS":"永吉１０５號之１","OBJECTID":93630},"geometry":{"x":159399.86000000127,"y":2554582.0700000022}},{"attributes":{"ID":93631,"DIS_CODE":0,"TOWNNAME":"七股區","LI":"永吉里","LIN":"10鄰","STREET":" ","SECT":" ","MAREA":"永吉","LANE":" ","ALLEY":" ","HOUSE_NO":"１０５號","E_COORD97":159470.56,"N_COORD97":2554594.0899999999,"ADDRESS":"永吉１０５號","OBJECTID":93631},"geometry":{"x":159470.56000000052,"y":2554594.0899999999}},{"attributes":{"ID":93632,"DIS_CODE":0,"TOWNNAME":"七股區","LI":"永吉里","LIN":"10鄰","STREET":" ","SECT":" ","MAREA":"永吉","LANE":" ","ALLEY":" ","HOUSE_NO":"１０７號","E_COORD97":159536.31,"N_COORD97":2554651.3500000001,"ADDRESS":"永吉１０７號","OBJECTID":93632},"geometry":{"x":159536.30999999959,"y":2554651.3500000015}},{"attributes":{"ID":93633,"DIS_CODE":0,"TOWNNAME":"東區","LI":"虎尾里","LIN":"21鄰","STREET":"東門路","SECT":"三段","MAREA":" ","LANE":"２７３巷","ALLEY":"２４弄","HOUSE_NO":"１８號","E_COORD97":171762.31,"N_COORD97":2541879.7999999998,"ADDRESS":"東門路三段２７３巷２４弄１８號","OBJECTID":93633},"geometry":{"x":171762.31000000145,"y":2541879.8000000007}},{"attributes":{"ID":93634,"DIS_CODE":0,"TOWNNAME":"東區","LI":"虎尾里","LIN":"21鄰","STREET":"東門路","SECT":"三段","MAREA":" ","LANE":"２７３巷","ALLEY":"２４弄","HOUSE_NO":"１９號","E_COORD97":171797.62,"N_COORD97":2541935.8100000001,"ADDRESS":"東門路三段２７３巷２４弄１９號","OBJECTID":93634},"geometry":{"x":171797.62000000011,"y":2541935.8100000024}},{"attributes":{"ID":93635,"DIS_CODE":0,"TOWNNAME":"東區","LI":"虎尾里","LIN":"21鄰","STREET":"東門路","SECT":"三段","MAREA":" ","LANE":"２７３巷","ALLEY":"２４弄","HOUSE_NO":"１號","E_COORD97":171740.89000000001,"N_COORD97":2541930.8700000001,"ADDRESS":"東門路三段２７３巷２４弄１號","OBJECTID":93635},"geometry":{"x":171740.88999999966,"y":2541930.8700000048}},{"attributes":{"ID":93636,"DIS_CODE":0,"TOWNNAME":"東區","LI":"虎尾里","LIN":"21鄰","STREET":"東門路","SECT":"三段","MAREA":" ","LANE":"２７３巷","ALLEY":"２４弄","HOUSE_NO":"２０號","E_COORD97":171762.31,"N_COORD97":2541874.7000000002,"ADDRESS":"東門路三段２７３巷２４弄２０號","OBJECTID":93636},"geometry":{"x":171762.31000000145,"y":2541874.6999999993}},{"attributes":{"ID":93637,"DIS_CODE":0,"TOWNNAME":"東區","LI":"虎尾里","LIN":"21鄰","STREET":"東門路","SECT":"三段","MAREA":" ","LANE":"２７３巷","ALLEY":"２４弄","HOUSE_NO":"２２號","E_COORD97":171763.01999999999,"N_COORD97":2541870.2999999998,"ADDRESS":"東門路三段２７３巷２４弄２２號","OBJECTID":93637},"geometry":{"x":171763.02000000048,"y":2541870.3000000045}},{"attributes":{"ID":93638,"DIS_CODE":0,"TOWNNAME":"東區","LI":"虎尾里","LIN":"21鄰","STREET":"東門路","SECT":"三段","MAREA":" ","LANE":"２７３巷","ALLEY":"２４弄","HOUSE_NO":"２６號","E_COORD97":171778.34,"N_COORD97":2541871.5299999998,"ADDRESS":"東門路三段２７３巷２４弄２６號","OBJECTID":93638},"geometry":{"x":171778.34000000078,"y":2541871.5300000012}},{"attributes":{"ID":93639,"DIS_CODE":0,"TOWNNAME":"七股區","LI":"永吉里","LIN":"10鄰","STREET":" ","SECT":" ","MAREA":"永吉","LANE":" ","ALLEY":" ","HOUSE_NO":"１０８號","E_COORD97":159862.67999999999,"N_COORD97":2554649.3799999999,"ADDRESS":"永吉１０８號","OBJECTID":93639},"geometry":{"x":159862.6799999997,"y":2554649.3800000027}},{"attributes":{"ID":93640,"DIS_CODE":0,"TOWNNAME":"七股區","LI":"玉成里","LIN":"10鄰","STREET":" ","SECT":" ","MAREA":"玉成","LANE":" ","ALLEY":" ","HOUSE_NO":"８６號之２０","E_COORD97":161396.20999999999,"N_COORD97":2560895.3199999998,"ADDRESS":"玉成８６號之２０","OBJECTID":93640},"geometry":{"x":161396.21000000089,"y":2560895.3200000003}},{"attributes":{"ID":93641,"DIS_CODE":0,"TOWNNAME":"新市區","LI":"社內里","LIN":"10鄰","STREET":" ","SECT":" ","MAREA":"社內","LANE":" ","ALLEY":" ","HOUSE_NO":"１０２之９號","E_COORD97":176260.87,"N_COORD97":2552878.5499999998,"ADDRESS":"社內１０２之９號","OBJECTID":93641},"geometry":{"x":176260.87000000011,"y":2552878.5500000026}},{"attributes":{"ID":93642,"DIS_CODE":0,"TOWNNAME":"新市區","LI":"港墘里","LIN":"10鄰","STREET":" ","SECT":" ","MAREA":"崙頂","LANE":" ","ALLEY":" ","HOUSE_NO":"５０號","E_COORD97":178808.01000000001,"N_COORD97":2552629.5,"ADDRESS":"崙頂５０號","OBJECTID":93642},"geometry":{"x":178808.01000000164,"y":2552629.5000000019}},{"attributes":{"ID":93643,"DIS_CODE":0,"TOWNNAME":"新市區","LI":"港墘里","LIN":"10鄰","STREET":" ","SECT":" ","MAREA":"崙頂","LANE":" ","ALLEY":" ","HOUSE_NO":"５２號","E_COORD97":178830.29000000001,"N_COORD97":2552641.25,"ADDRESS":"崙頂５２號","OBJECTID":93643},"geometry":{"x":178830.29000000097,"y":2552641.2500000019}},{"attributes":{"ID":93644,"DIS_CODE":0,"TOWNNAME":"東區","LI":"虎尾里","LIN":"21鄰","STREET":"東門路","SECT":"三段","MAREA":" ","LANE":"２７３巷","ALLEY":"２４弄","HOUSE_NO":"２８號","E_COORD97":171778.51999999999,"N_COORD97":2541880.1499999999,"ADDRESS":"東門路三段２７３巷２４弄２８號","OBJECTID":93644},"geometry":{"x":171778.52000000048,"y":2541880.1500000004}},{"attributes":{"ID":93645,"DIS_CODE":0,"TOWNNAME":"東區","LI":"虎尾里","LIN":"21鄰","STREET":"東門路","SECT":"三段","MAREA":" ","LANE":"２７３巷","ALLEY":"２４弄","HOUSE_NO":"２號","E_COORD97":171757.56,"N_COORD97":2541917.1099999999,"ADDRESS":"東門路三段２７３巷２４弄２號","OBJECTID":93645},"geometry":{"x":171757.56000000052,"y":2541917.1099999994}},{"attributes":{"ID":93646,"DIS_CODE":0,"TOWNNAME":"東區","LI":"虎尾里","LIN":"21鄰","STREET":"東門路","SECT":"三段","MAREA":" ","LANE":"２７３巷","ALLEY":"２４弄","HOUSE_NO":"３０號","E_COORD97":171778.34,"N_COORD97":2541887.02,"ADDRESS":"東門路三段２７３巷２４弄３０號","OBJECTID":93646},"geometry":{"x":171778.34000000078,"y":2541887.0199999996}},{"attributes":{"ID":93647,"DIS_CODE":0,"TOWNNAME":"東區","LI":"虎尾里","LIN":"21鄰","STREET":"東門路","SECT":"三段","MAREA":" ","LANE":"２７３巷","ALLEY":"２４弄","HOUSE_NO":"３２號","E_COORD97":171778.17000000001,"N_COORD97":2541893,"ADDRESS":"東門路三段２７３巷２４弄３２號","OBJECTID":93647},"geometry":{"x":171778.16999999993,"y":2541893.0000000019}},{"attributes":{"ID":93648,"DIS_CODE":0,"TOWNNAME":"東區","LI":"虎尾里","LIN":"21鄰","STREET":"東門路","SECT":"三段","MAREA":" ","LANE":"２７３巷","ALLEY":"２４弄","HOUSE_NO":"３４號","E_COORD97":171777.82000000001,"N_COORD97":2541899.6899999999,"ADDRESS":"東門路三段２７３巷２４弄３４號","OBJECTID":93648},"geometry":{"x":171777.8200000003,"y":2541899.6899999995}},{"attributes":{"ID":93649,"DIS_CODE":0,"TOWNNAME":"東區","LI":"虎尾里","LIN":"21鄰","STREET":"東門路","SECT":"三段","MAREA":" ","LANE":"２７３巷","ALLEY":"２４弄","HOUSE_NO":"３６號","E_COORD97":171778.34,"N_COORD97":2541904.4399999999,"ADDRESS":"東門路三段２７３巷２４弄３６號","OBJECTID":93649},"geometry":{"x":171778.34000000078,"y":2541904.4399999995}},{"attributes":{"ID":93650,"DIS_CODE":0,"TOWNNAME":"北門區","LI":"雙春里","LIN":"10鄰","STREET":" ","SECT":" ","MAREA":"雙春","LANE":" ","ALLEY":" ","HOUSE_NO":"６７號之１","E_COORD97":160990.07000000001,"N_COORD97":2577751.3300000001,"ADDRESS":"雙春６７號之１","OBJECTID":93650},"geometry":{"x":160990.07000000216,"y":2577751.3300000001}},{"attributes":{"ID":93651,"DIS_CODE":0,"TOWNNAME":"東區","LI":"虎尾里","LIN":"21鄰","STREET":"東門路","SECT":"三段","MAREA":" ","LANE":"２７３巷","ALLEY":"２４弄","HOUSE_NO":"３８號","E_COORD97":171777.98999999999,"N_COORD97":2541909.8900000001,"ADDRESS":"東門路三段２７３巷２４弄３８號","OBJECTID":93651},"geometry":{"x":171777.99000000022,"y":2541909.8899999987}},{"attributes":{"ID":93652,"DIS_CODE":0,"TOWNNAME":"東區","LI":"虎尾里","LIN":"21鄰","STREET":"東門路","SECT":"三段","MAREA":" ","LANE":"２７３巷","ALLEY":"２４弄","HOUSE_NO":"３號","E_COORD97":171748.31,"N_COORD97":2541931.25,"ADDRESS":"東門路三段２７３巷２４弄３號","OBJECTID":93652},"geometry":{"x":171748.30999999959,"y":2541931.2500000019}},{"attributes":{"ID":93653,"DIS_CODE":0,"TOWNNAME":"東區","LI":"虎尾里","LIN":"21鄰","STREET":"東門路","SECT":"三段","MAREA":" ","LANE":"２７３巷","ALLEY":"２４弄","HOUSE_NO":"４０號","E_COORD97":171777.98999999999,"N_COORD97":2541914.4700000002,"ADDRESS":"東門路三段２７３巷２４弄４０號","OBJECTID":93653},"geometry":{"x":171777.99000000022,"y":2541914.4700000025}},{"attributes":{"ID":93654,"DIS_CODE":0,"TOWNNAME":"東區","LI":"虎尾里","LIN":"21鄰","STREET":"東門路","SECT":"三段","MAREA":" ","LANE":"２７３巷","ALLEY":"２４弄","HOUSE_NO":"４２號","E_COORD97":171777.82000000001,"N_COORD97":2541919.2200000002,"ADDRESS":"東門路三段２７３巷２４弄４２號","OBJECTID":93654},"geometry":{"x":171777.8200000003,"y":2541919.2200000025}},{"attributes":{"ID":93655,"DIS_CODE":0,"TOWNNAME":"東區","LI":"虎尾里","LIN":"21鄰","STREET":"東門路","SECT":"三段","MAREA":" ","LANE":"２７３巷","ALLEY":"２４弄","HOUSE_NO":"４號","E_COORD97":171758.44,"N_COORD97":2541912.3599999999,"ADDRESS":"東門路三段２７３巷２４弄４號","OBJECTID":93655},"geometry":{"x":171758.44000000041,"y":2541912.3600000031}},{"attributes":{"ID":93656,"DIS_CODE":0,"TOWNNAME":"東區","LI":"虎尾里","LIN":"21鄰","STREET":"東門路","SECT":"三段","MAREA":" ","LANE":"２７３巷","ALLEY":"２４弄","HOUSE_NO":"５號","E_COORD97":171757.26000000001,"N_COORD97":2541931.4399999999,"ADDRESS":"東門路三段２７３巷２４弄５號","OBJECTID":93656},"geometry":{"x":171757.25999999978,"y":2541931.4399999995}},{"attributes":{"ID":93657,"DIS_CODE":0,"TOWNNAME":"東區","LI":"虎尾里","LIN":"21鄰","STREET":"東門路","SECT":"三段","MAREA":" ","LANE":"２７３巷","ALLEY":"２４弄","HOUSE_NO":"６號","E_COORD97":171759.32000000001,"N_COORD97":2541907.4300000002,"ADDRESS":"東門路三段２７３巷２４弄６號","OBJECTID":93657},"geometry":{"x":171759.3200000003,"y":2541907.4299999997}},{"attributes":{"ID":93658,"DIS_CODE":0,"TOWNNAME":"東區","LI":"虎尾里","LIN":"21鄰","STREET":"東門路","SECT":"三段","MAREA":" ","LANE":"２７３巷","ALLEY":"２４弄","HOUSE_NO":"８號","E_COORD97":171759.5,"N_COORD97":2541903.0299999998,"ADDRESS":"東門路三段２７３巷２４弄８號","OBJECTID":93658},"geometry":{"x":171759.5,"y":2541903.0299999993}},{"attributes":{"ID":93659,"DIS_CODE":0,"TOWNNAME":"東區","LI":"虎尾里","LIN":"21鄰","STREET":"東門路","SECT":"三段","MAREA":" ","LANE":"２７３巷","ALLEY":"２４弄","HOUSE_NO":"９號","E_COORD97":171768.67999999999,"N_COORD97":2541932.77,"ADDRESS":"東門路三段２７３巷２４弄９號","OBJECTID":93659},"geometry":{"x":171768.68000000063,"y":2541932.7699999996}},{"attributes":{"ID":93660,"DIS_CODE":0,"TOWNNAME":"下營區","LI":"大埤里","LIN":"10鄰","STREET":" ","SECT":" ","MAREA":"大埤寮","LANE":" ","ALLEY":" ","HOUSE_NO":"８１號","E_COORD97":172781.60999999999,"N_COORD97":2568832.29,"ADDRESS":"大埤寮８１號","OBJECTID":93660},"geometry":{"x":172781.61000000127,"y":2568832.2900000028}},{"attributes":{"ID":93661,"DIS_CODE":0,"TOWNNAME":"東區","LI":"虎尾里","LIN":"21鄰","STREET":"東門路","SECT":"三段","MAREA":" ","LANE":"２７３巷","ALLEY":"２４弄","HOUSE_NO":"７號","E_COORD97":171764.12,"N_COORD97":2541932.2000000002,"ADDRESS":"東門路三段２７３巷２４弄７號","OBJECTID":93661},"geometry":{"x":171764.12000000197,"y":2541932.1999999993}},{"attributes":{"ID":93662,"DIS_CODE":0,"TOWNNAME":"東區","LI":"虎尾里","LIN":"21鄰","STREET":"東門路","SECT":"三段","MAREA":" ","LANE":"２７３巷","ALLEY":"２４弄","HOUSE_NO":"１０號","E_COORD97":171760.03,"N_COORD97":2541898.27,"ADDRESS":"東門路三段２７３巷２４弄１０號","OBJECTID":93662},"geometry":{"x":171760.03000000119,"y":2541898.2699999996}},{"attributes":{"ID":93663,"DIS_CODE":0,"TOWNNAME":"東區","LI":"富強里","LIN":"21鄰","STREET":"東門路","SECT":"二段","MAREA":" ","LANE":"３０１巷","ALLEY":"８弄","HOUSE_NO":"１號","E_COORD97":170778.85000000001,"N_COORD97":2542645.77,"ADDRESS":"東門路二段３０１巷８弄１號","OBJECTID":93663},"geometry":{"x":170778.85000000149,"y":2542645.7700000014}},{"attributes":{"ID":93664,"DIS_CODE":0,"TOWNNAME":"東區","LI":"富強里","LIN":"21鄰","STREET":"東門路","SECT":"二段","MAREA":" ","LANE":"３０１巷","ALLEY":"８弄","HOUSE_NO":"３號","E_COORD97":170781.48999999999,"N_COORD97":2542642.3799999999,"ADDRESS":"東門路二段３０１巷８弄３號","OBJECTID":93664},"geometry":{"x":170781.49000000022,"y":2542642.379999999}},{"attributes":{"ID":93665,"DIS_CODE":0,"TOWNNAME":"東區","LI":"富強里","LIN":"21鄰","STREET":"東門路","SECT":"二段","MAREA":" ","LANE":"３０１巷","ALLEY":"１２弄","HOUSE_NO":"１號","E_COORD97":170796.79999999999,"N_COORD97":2542669.9100000001,"ADDRESS":"東門路二段３０１巷１２弄１號","OBJECTID":93665},"geometry":{"x":170796.80000000075,"y":2542669.910000002}},{"attributes":{"ID":93666,"DIS_CODE":0,"TOWNNAME":"東區","LI":"富強里","LIN":"21鄰","STREET":"東門路","SECT":"二段","MAREA":" ","LANE":"３０１巷","ALLEY":"２６弄","HOUSE_NO":"２號","E_COORD97":170812.35000000001,"N_COORD97":2542672.25,"ADDRESS":"東門路二段３０１巷２６弄２號","OBJECTID":93666},"geometry":{"x":170812.34999999963,"y":2542672.25}},{"attributes":{"ID":93667,"DIS_CODE":0,"TOWNNAME":"東區","LI":"富強里","LIN":"21鄰","STREET":"東門路","SECT":"二段","MAREA":" ","LANE":"３０１巷","ALLEY":"２６弄","HOUSE_NO":"７號","E_COORD97":170834.98000000001,"N_COORD97":2542668.6200000001,"ADDRESS":"東門路二段３０１巷２６弄７號","OBJECTID":93667},"geometry":{"x":170834.98000000138,"y":2542668.6200000048}},{"attributes":{"ID":93668,"DIS_CODE":0,"TOWNNAME":"東區","LI":"富強里","LIN":"21鄰","STREET":"東門路","SECT":"二段","MAREA":" ","LANE":"３０１巷","ALLEY":"２６弄","HOUSE_NO":"８號","E_COORD97":170820.76000000001,"N_COORD97":2542663.8500000001,"ADDRESS":"東門路二段３０１巷２６弄８號","OBJECTID":93668},"geometry":{"x":170820.76000000071,"y":2542663.8499999996}},{"attributes":{"ID":93669,"DIS_CODE":0,"TOWNNAME":"東區","LI":"富強里","LIN":"21鄰","STREET":"東門路","SECT":"二段","MAREA":" ","LANE":"３０１巷","ALLEY":"２６弄","HOUSE_NO":"９號","E_COORD97":170836.23000000001,"N_COORD97":2542663.98,"ADDRESS":"東門路二段３０１巷２６弄９號","OBJECTID":93669},"geometry":{"x":170836.23000000045,"y":2542663.9800000004}},{"attributes":{"ID":93670,"DIS_CODE":0,"TOWNNAME":"永康區","LI":"復興里","LIN":"21鄰","STREET":"復興路","SECT":" ","MAREA":" ","LANE":"２９６巷","ALLEY":"１３弄","HOUSE_NO":"９號","E_COORD97":172320.06,"N_COORD97":2544386.52,"ADDRESS":"復興路２９６巷１３弄９號","OBJECTID":93670},"geometry":{"x":172320.06000000052,"y":2544386.5200000033}},{"attributes":{"ID":93671,"DIS_CODE":0,"TOWNNAME":"永康區","LI":"復興里","LIN":"21鄰","STREET":"復興路","SECT":" ","MAREA":" ","LANE":"２９６巷","ALLEY":"１３弄","HOUSE_NO":"７號","E_COORD97":172310.56,"N_COORD97":2544389.52,"ADDRESS":"復興路２９６巷１３弄７號","OBJECTID":93671},"geometry":{"x":172310.56000000052,"y":2544389.5199999996}},{"attributes":{"ID":93672,"DIS_CODE":0,"TOWNNAME":"永康區","LI":"復興里","LIN":"21鄰","STREET":"復興路","SECT":" ","MAREA":" ","LANE":"２９６巷","ALLEY":"１３弄","HOUSE_NO":"１０號","E_COORD97":172326.14999999999,"N_COORD97":2544385.02,"ADDRESS":"復興路２９６巷１３弄１０號","OBJECTID":93672},"geometry":{"x":172326.15000000037,"y":2544385.0199999996}},{"attributes":{"ID":93673,"DIS_CODE":0,"TOWNNAME":"永康區","LI":"\u25A0行里","LIN":"21鄰","STREET":"正南五街","SECT":" ","MAREA":" ","LANE":"５２０巷","ALLEY":"５６弄","HOUSE_NO":"３３號","E_COORD97":171729.29000000001,"N_COORD97":2548706.9399999999,"ADDRESS":"正南五街５２０巷５６弄３３號","OBJECTID":93673},"geometry":{"x":171729.29000000097,"y":2548706.9400000013}},{"attributes":{"ID":93674,"DIS_CODE":0,"TOWNNAME":"安南區","LI":"長安里","LIN":"21鄰","STREET":"長溪路","SECT":"三段","MAREA":" ","LANE":"３８０巷","ALLEY":"１６８弄","HOUSE_NO":"６號","E_COORD97":167944.70000000001,"N_COORD97":2552414.4300000002,"ADDRESS":"長溪路三段３８０巷１６８弄６號","OBJECTID":93674},"geometry":{"x":167944.70000000112,"y":2552414.4299999997}},{"attributes":{"ID":93675,"DIS_CODE":0,"TOWNNAME":"新市區","LI":"港墘里","LIN":"10鄰","STREET":" ","SECT":" ","MAREA":"崙頂","LANE":" ","ALLEY":" ","HOUSE_NO":"５８之２號","E_COORD97":178878.26000000001,"N_COORD97":2552631.2999999998,"ADDRESS":"崙頂５８之２號","OBJECTID":93675},"geometry":{"x":178878.26000000071,"y":2552631.3000000045}},{"attributes":{"ID":93676,"DIS_CODE":0,"TOWNNAME":"新市區","LI":"永就里","LIN":"10鄰","STREET":" ","SECT":" ","MAREA":"永就","LANE":" ","ALLEY":" ","HOUSE_NO":"１３９之１５號","E_COORD97":177233.79000000001,"N_COORD97":2551406.7999999998,"ADDRESS":"永就１３９之１５號","OBJECTID":93676},"geometry":{"x":177233.79000000097,"y":2551406.8000000007}},{"attributes":{"ID":93677,"DIS_CODE":0,"TOWNNAME":"新市區","LI":"永就里","LIN":"10鄰","STREET":" ","SECT":" ","MAREA":"永就","LANE":" ","ALLEY":" ","HOUSE_NO":"１３６之１號","E_COORD97":177257.14999999999,"N_COORD97":2551400.2999999998,"ADDRESS":"永就１３６之１號","OBJECTID":93677},"geometry":{"x":177257.1500000013,"y":2551400.2999999989}},{"attributes":{"ID":93678,"DIS_CODE":0,"TOWNNAME":"新市區","LI":"港墘里","LIN":"10鄰","STREET":" ","SECT":" ","MAREA":"崙頂","LANE":" ","ALLEY":" ","HOUSE_NO":"６２之２號","E_COORD97":178929.69,"N_COORD97":2552666.1200000001,"ADDRESS":"崙頂６２之２號","OBJECTID":93678},"geometry":{"x":178929.69000000134,"y":2552666.120000001}},{"attributes":{"ID":93679,"DIS_CODE":0,"TOWNNAME":"新市區","LI":"永就里","LIN":"10鄰","STREET":" ","SECT":" ","MAREA":"永就","LANE":" ","ALLEY":" ","HOUSE_NO":"１３９之２２號","E_COORD97":177203.39999999999,"N_COORD97":2551397.0499999998,"ADDRESS":"永就１３９之２２號","OBJECTID":93679},"geometry":{"x":177203.40000000037,"y":2551397.0500000026}},{"attributes":{"ID":93680,"DIS_CODE":0,"TOWNNAME":"新市區","LI":"永就里","LIN":"10鄰","STREET":" ","SECT":" ","MAREA":"永就","LANE":" ","ALLEY":" ","HOUSE_NO":"１１３號","E_COORD97":177454.95000000001,"N_COORD97":2551538.5,"ADDRESS":"永就１１３號","OBJECTID":93680},"geometry":{"x":177454.95000000112,"y":2551538.5000000019}},{"attributes":{"ID":93681,"DIS_CODE":0,"TOWNNAME":"新市區","LI":"社內里","LIN":"10鄰","STREET":" ","SECT":" ","MAREA":"社內","LANE":" ","ALLEY":" ","HOUSE_NO":"１０３之２３號","E_COORD97":176306.32999999999,"N_COORD97":2552865.0499999998,"ADDRESS":"社內１０３之２３號","OBJECTID":93681},"geometry":{"x":176306.33000000101,"y":2552865.0500000026}},{"attributes":{"ID":93682,"DIS_CODE":0,"TOWNNAME":"新市區","LI":"港墘里","LIN":"10鄰","STREET":" ","SECT":" ","MAREA":"崙頂","LANE":" ","ALLEY":" ","HOUSE_NO":"６２號","E_COORD97":178940.48000000001,"N_COORD97":2552658,"ADDRESS":"崙頂６２號","OBJECTID":93682},"geometry":{"x":178940.48000000045,"y":2552658}},{"attributes":{"ID":93683,"DIS_CODE":0,"TOWNNAME":"新市區","LI":"港墘里","LIN":"10鄰","STREET":" ","SECT":" ","MAREA":"崙頂","LANE":" ","ALLEY":" ","HOUSE_NO":"２０之７號","E_COORD97":178940.73000000001,"N_COORD97":2552548.7999999998,"ADDRESS":"崙頂２０之７號","OBJECTID":93683},"geometry":{"x":178940.73000000045,"y":2552548.8000000007}},{"attributes":{"ID":93684,"DIS_CODE":0,"TOWNNAME":"麻豆區","LI":"磚井里","LIN":"10鄰","STREET":" ","SECT":" ","MAREA":"磚子井","LANE":" ","ALLEY":" ","HOUSE_NO":"９４號","E_COORD97":173419.73999999999,"N_COORD97":2563129.1200000001,"ADDRESS":"磚子井９４號","OBJECTID":93684},"geometry":{"x":173419.74000000115,"y":2563129.1199999992}},{"attributes":{"ID":93685,"DIS_CODE":0,"TOWNNAME":"麻豆區","LI":"磚井里","LIN":"10鄰","STREET":" ","SECT":" ","MAREA":"磚子井","LANE":" ","ALLEY":" ","HOUSE_NO":"９５號","E_COORD97":173459.03,"N_COORD97":2563139.8999999999,"ADDRESS":"磚子井９５號","OBJECTID":93685},"geometry":{"x":173459.03000000119,"y":2563139.9000000004}},{"attributes":{"ID":93686,"DIS_CODE":0,"TOWNNAME":"麻豆區","LI":"磚井里","LIN":"10鄰","STREET":" ","SECT":" ","MAREA":"磚子井","LANE":" ","ALLEY":" ","HOUSE_NO":"９６號","E_COORD97":173459.35999999999,"N_COORD97":2563123.0800000001,"ADDRESS":"磚子井９６號","OBJECTID":93686},"geometry":{"x":173459.36000000034,"y":2563123.0800000019}},{"attributes":{"ID":93687,"DIS_CODE":0,"TOWNNAME":"安南區","LI":"安富里","LIN":"21鄰","STREET":"郡安路","SECT":"五段","MAREA":" ","LANE":"１６４巷","ALLEY":"１１弄","HOUSE_NO":"１８號","E_COORD97":167736.53,"N_COORD97":2547554.0699999998,"ADDRESS":"郡安路五段１６４巷１１弄１８號","OBJECTID":93687},"geometry":{"x":167736.53000000026,"y":2547554.0700000022}},{"attributes":{"ID":93688,"DIS_CODE":0,"TOWNNAME":"麻豆區","LI":"磚井里","LIN":"10鄰","STREET":" ","SECT":" ","MAREA":"磚子井","LANE":" ","ALLEY":" ","HOUSE_NO":"９８號之２","E_COORD97":173450.29999999999,"N_COORD97":2563117.3500000001,"ADDRESS":"磚子井９８號之２","OBJECTID":93688},"geometry":{"x":173450.29999999981,"y":2563117.3500000015}},{"attributes":{"ID":93689,"DIS_CODE":0,"TOWNNAME":"麻豆區","LI":"磚井里","LIN":"10鄰","STREET":" ","SECT":" ","MAREA":"磚子井","LANE":" ","ALLEY":" ","HOUSE_NO":"９９號","E_COORD97":173424.23999999999,"N_COORD97":2563108.73,"ADDRESS":"磚子井９９號","OBJECTID":93689},"geometry":{"x":173424.24000000022,"y":2563108.7300000023}},{"attributes":{"ID":93690,"DIS_CODE":0,"TOWNNAME":"北門區","LI":"中樞里","LIN":"10鄰","STREET":" ","SECT":" ","MAREA":"溪底寮","LANE":" ","ALLEY":" ","HOUSE_NO":"８７號","E_COORD97":161106.51999999999,"N_COORD97":2571288.9199999999,"ADDRESS":"溪底寮８７號","OBJECTID":93690},"geometry":{"x":161106.52000000142,"y":2571288.9199999999}},{"attributes":{"ID":93691,"DIS_CODE":0,"TOWNNAME":"北門區","LI":"中樞里","LIN":"10鄰","STREET":" ","SECT":" ","MAREA":"溪底寮","LANE":" ","ALLEY":" ","HOUSE_NO":"８８號","E_COORD97":161113.91,"N_COORD97":2571302.2599999998,"ADDRESS":"溪底寮８８號","OBJECTID":93691},"geometry":{"x":161113.91000000015,"y":2571302.2600000016}},{"attributes":{"ID":93692,"DIS_CODE":0,"TOWNNAME":"北門區","LI":"中樞里","LIN":"10鄰","STREET":" ","SECT":" ","MAREA":"溪底寮","LANE":" ","ALLEY":" ","HOUSE_NO":"８９號","E_COORD97":161119.14999999999,"N_COORD97":2571320.1200000001,"ADDRESS":"溪底寮８９號","OBJECTID":93692},"geometry":{"x":161119.1500000013,"y":2571320.120000001}},{"attributes":{"ID":93693,"DIS_CODE":0,"TOWNNAME":"下營區","LI":"大埤里","LIN":"10鄰","STREET":" ","SECT":" ","MAREA":"大埤寮","LANE":" ","ALLEY":" ","HOUSE_NO":"８０號","E_COORD97":172778.91,"N_COORD97":2568861.5299999998,"ADDRESS":"大埤寮８０號","OBJECTID":93693},"geometry":{"x":172778.91000000015,"y":2568861.5300000012}},{"attributes":{"ID":93694,"DIS_CODE":0,"TOWNNAME":"下營區","LI":"大埤里","LIN":"10鄰","STREET":" ","SECT":" ","MAREA":"大埤寮","LANE":" ","ALLEY":" ","HOUSE_NO":"８２號之１","E_COORD97":172803.04000000001,"N_COORD97":2568841.52,"ADDRESS":"大埤寮８２號之１","OBJECTID":93694},"geometry":{"x":172803.04000000004,"y":2568841.5200000014}},{"attributes":{"ID":93695,"DIS_CODE":0,"TOWNNAME":"下營區","LI":"大埤里","LIN":"10鄰","STREET":" ","SECT":" ","MAREA":"大埤寮","LANE":" ","ALLEY":" ","HOUSE_NO":"８２號之２","E_COORD97":172798.57000000001,"N_COORD97":2568841.6699999999,"ADDRESS":"大埤寮８２號之２","OBJECTID":93695},"geometry":{"x":172798.57000000216,"y":2568841.6700000018}},{"attributes":{"ID":93696,"DIS_CODE":0,"TOWNNAME":"下營區","LI":"大埤里","LIN":"10鄰","STREET":" ","SECT":" ","MAREA":"大埤寮","LANE":" ","ALLEY":" ","HOUSE_NO":"８２號","E_COORD97":172804.73999999999,"N_COORD97":2568812.1299999999,"ADDRESS":"大埤寮８２號","OBJECTID":93696},"geometry":{"x":172804.74000000115,"y":2568812.129999999}},{"attributes":{"ID":93697,"DIS_CODE":0,"TOWNNAME":"下營區","LI":"大埤里","LIN":"10鄰","STREET":" ","SECT":" ","MAREA":"大埤寮","LANE":" ","ALLEY":" ","HOUSE_NO":"８３號","E_COORD97":172815.07999999999,"N_COORD97":2568845.25,"ADDRESS":"大埤寮８３號","OBJECTID":93697},"geometry":{"x":172815.08000000007,"y":2568845.25}},{"attributes":{"ID":93698,"DIS_CODE":0,"TOWNNAME":"下營區","LI":"大埤里","LIN":"10鄰","STREET":" ","SECT":" ","MAREA":"大埤寮","LANE":" ","ALLEY":" ","HOUSE_NO":"８４號","E_COORD97":172831.42999999999,"N_COORD97":2568839.3100000001,"ADDRESS":"大埤寮８４號","OBJECTID":93698},"geometry":{"x":172831.43000000063,"y":2568839.3100000005}},{"attributes":{"ID":93699,"DIS_CODE":0,"TOWNNAME":"下營區","LI":"大埤里","LIN":"10鄰","STREET":" ","SECT":" ","MAREA":"大埤寮","LANE":" ","ALLEY":" ","HOUSE_NO":"８５號之１０","E_COORD97":172777.07000000001,"N_COORD97":2568905.1800000002,"ADDRESS":"大埤寮８５號之１０","OBJECTID":93699},"geometry":{"x":172777.07000000123,"y":2568905.1800000016}},{"attributes":{"ID":93700,"DIS_CODE":0,"TOWNNAME":"下營區","LI":"大埤里","LIN":"10鄰","STREET":" ","SECT":" ","MAREA":"大埤寮","LANE":" ","ALLEY":" ","HOUSE_NO":"８５號之１５","E_COORD97":172933.5,"N_COORD97":2568858.4500000002,"ADDRESS":"大埤寮８５號之１５","OBJECTID":93700},"geometry":{"x":172933.50000000093,"y":2568858.450000003}},{"attributes":{"ID":93701,"DIS_CODE":0,"TOWNNAME":"下營區","LI":"大埤里","LIN":"10鄰","STREET":" ","SECT":" ","MAREA":"大埤寮","LANE":" ","ALLEY":" ","HOUSE_NO":"８５號之２０","E_COORD97":171944.97,"N_COORD97":2569637.29,"ADDRESS":"大埤寮８５號之２０","OBJECTID":93701},"geometry":{"x":171944.97000000067,"y":2569637.290000001}},{"attributes":{"ID":93702,"DIS_CODE":0,"TOWNNAME":"下營區","LI":"大埤里","LIN":"10鄰","STREET":" ","SECT":" ","MAREA":"大埤寮","LANE":" ","ALLEY":" ","HOUSE_NO":"８５號","E_COORD97":172870.03,"N_COORD97":2568906.5699999998,"ADDRESS":"大埤寮８５號","OBJECTID":93702},"geometry":{"x":172870.03000000212,"y":2568906.5700000022}},{"attributes":{"ID":93703,"DIS_CODE":0,"TOWNNAME":"安南區","LI":"安富里","LIN":"21鄰","STREET":"郡安路","SECT":"五段","MAREA":" ","LANE":"１６４巷","ALLEY":"１１弄","HOUSE_NO":"９號","E_COORD97":167703.73000000001,"N_COORD97":2547568.9900000002,"ADDRESS":"郡安路五段１６４巷１１弄９號","OBJECTID":93703},"geometry":{"x":167703.73000000231,"y":2547568.9900000021}},{"attributes":{"ID":93704,"DIS_CODE":0,"TOWNNAME":"永康區","LI":"西橋里","LIN":"21鄰","STREET":"大橋三街","SECT":" ","MAREA":" ","LANE":"５７巷","ALLEY":"７弄","HOUSE_NO":"６８號","E_COORD97":170471.57999999999,"N_COORD97":2546440.96,"ADDRESS":"大橋三街５７巷７弄６８號","OBJECTID":93704},"geometry":{"x":170471.58000000101,"y":2546440.9600000028}},{"attributes":{"ID":93705,"DIS_CODE":0,"TOWNNAME":"下營區","LI":"大埤里","LIN":"10鄰","STREET":" ","SECT":" ","MAREA":"大埤寮","LANE":" ","ALLEY":" ","HOUSE_NO":"８６號","E_COORD97":172767.42999999999,"N_COORD97":2568833.73,"ADDRESS":"大埤寮８６號","OBJECTID":93705},"geometry":{"x":172767.43000000063,"y":2568833.7299999986}},{"attributes":{"ID":93706,"DIS_CODE":0,"TOWNNAME":"下營區","LI":"大埤里","LIN":"10鄰","STREET":" ","SECT":" ","MAREA":"大埤寮","LANE":" ","ALLEY":" ","HOUSE_NO":"８７之１號","E_COORD97":172723.95000000001,"N_COORD97":2568829.3799999999,"ADDRESS":"大埤寮８７之１號","OBJECTID":93706},"geometry":{"x":172723.95000000019,"y":2568829.3800000008}},{"attributes":{"ID":93707,"DIS_CODE":0,"TOWNNAME":"下營區","LI":"大埤里","LIN":"10鄰","STREET":" ","SECT":" ","MAREA":"大埤寮","LANE":" ","ALLEY":" ","HOUSE_NO":"８７號","E_COORD97":172744.73999999999,"N_COORD97":2568834.8999999999,"ADDRESS":"大埤寮８７號","OBJECTID":93707},"geometry":{"x":172744.73999999929,"y":2568834.9000000004}},{"attributes":{"ID":93708,"DIS_CODE":0,"TOWNNAME":"下營區","LI":"大埤里","LIN":"10鄰","STREET":" ","SECT":" ","MAREA":"大埤寮","LANE":" ","ALLEY":" ","HOUSE_NO":"８８號之１０","E_COORD97":172418.78,"N_COORD97":2568422.4199999999,"ADDRESS":"大埤寮８８號之１０","OBJECTID":93708},"geometry":{"x":172418.78000000026,"y":2568422.4200000018}},{"attributes":{"ID":93709,"DIS_CODE":0,"TOWNNAME":"下營區","LI":"大埤里","LIN":"10鄰","STREET":" ","SECT":" ","MAREA":"大埤寮","LANE":" ","ALLEY":" ","HOUSE_NO":"８８號之９","E_COORD97":172462.23000000001,"N_COORD97":2568217.1200000001,"ADDRESS":"大埤寮８８號之９","OBJECTID":93709},"geometry":{"x":172462.23000000138,"y":2568217.120000001}},{"attributes":{"ID":93710,"DIS_CODE":0,"TOWNNAME":"下營區","LI":"大埤里","LIN":"10鄰","STREET":" ","SECT":" ","MAREA":"大埤寮","LANE":" ","ALLEY":" ","HOUSE_NO":"８８號","E_COORD97":172758.67000000001,"N_COORD97":2568802.8999999999,"ADDRESS":"大埤寮８８號","OBJECTID":93710},"geometry":{"x":172758.67000000179,"y":2568802.9000000022}},{"attributes":{"ID":93711,"DIS_CODE":0,"TOWNNAME":"永康區","LI":"二王里","LIN":"21鄰","STREET":"中山南路","SECT":" ","MAREA":" ","LANE":"６４４巷","ALLEY":"４２弄","HOUSE_NO":"１７號","E_COORD97":172354.26999999999,"N_COORD97":2546523.9700000002,"ADDRESS":"中山南路６４４巷４２弄１７號","OBJECTID":93711},"geometry":{"x":172354.27000000048,"y":2546523.9700000044}},{"attributes":{"ID":93712,"DIS_CODE":0,"TOWNNAME":"安平區","LI":"億載里","LIN":"15鄰","STREET":"光州三街","SECT":" ","MAREA":" ","LANE":" ","ALLEY":" ","HOUSE_NO":"５１號","E_COORD97":164140.67000000001,"N_COORD97":2543158.98,"ADDRESS":"光州三街５１號","OBJECTID":93712},"geometry":{"x":164140.67000000086,"y":2543158.9800000004}},{"attributes":{"ID":93713,"DIS_CODE":0,"TOWNNAME":"安平區","LI":"億載里","LIN":"15鄰","STREET":"光州三街","SECT":" ","MAREA":" ","LANE":" ","ALLEY":" ","HOUSE_NO":"５３號","E_COORD97":164145.56,"N_COORD97":2543159.3799999999,"ADDRESS":"光州三街５３號","OBJECTID":93713},"geometry":{"x":164145.55999999959,"y":2543159.3800000027}},{"attributes":{"ID":93714,"DIS_CODE":0,"TOWNNAME":"下營區","LI":"大埤里","LIN":"10鄰","STREET":" ","SECT":" ","MAREA":"大埤寮","LANE":" ","ALLEY":" ","HOUSE_NO":"８９之１號","E_COORD97":172804.28,"N_COORD97":2568786.9900000002,"ADDRESS":"大埤寮８９之１號","OBJECTID":93714},"geometry":{"x":172804.28000000119,"y":2568786.9900000002}},{"attributes":{"ID":93715,"DIS_CODE":0,"TOWNNAME":"下營區","LI":"大埤里","LIN":"10鄰","STREET":" ","SECT":" ","MAREA":"大埤寮","LANE":" ","ALLEY":" ","HOUSE_NO":"８９號","E_COORD97":172789.44151999999,"N_COORD97":2568780.5640599998,"ADDRESS":"大埤寮８９號（已拆除）","OBJECTID":93715},"geometry":{"x":172789.44151999988,"y":2568780.5640599988}},{"attributes":{"ID":93716,"DIS_CODE":0,"TOWNNAME":"下營區","LI":"大埤里","LIN":"10鄰","STREET":" ","SECT":" ","MAREA":"大埤寮","LANE":" ","ALLEY":" ","HOUSE_NO":"９０之１號","E_COORD97":172747.5,"N_COORD97":2568857.7200000002,"ADDRESS":"大埤寮９０之１號","OBJECTID":93716},"geometry":{"x":172747.5,"y":2568857.7199999988}},{"attributes":{"ID":93717,"DIS_CODE":0,"TOWNNAME":"下營區","LI":"大埤里","LIN":"10鄰","STREET":" ","SECT":" ","MAREA":"大埤寮","LANE":" ","ALLEY":" ","HOUSE_NO":"９０號","E_COORD97":172738.81,"N_COORD97":2568854.7599999998,"ADDRESS":"大埤寮９０號","OBJECTID":93717},"geometry":{"x":172738.81000000052,"y":2568854.7600000016}},{"attributes":{"ID":93718,"DIS_CODE":0,"TOWNNAME":"下營區","LI":"大埤里","LIN":"10鄰","STREET":" ","SECT":" ","MAREA":"大埤寮","LANE":" ","ALLEY":" ","HOUSE_NO":"９２號之２１","E_COORD97":172963.70999999999,"N_COORD97":2568137.7999999998,"ADDRESS":"大埤寮９２號之２１","OBJECTID":93718},"geometry":{"x":172963.71000000089,"y":2568137.8000000007}},{"attributes":{"ID":93719,"DIS_CODE":0,"TOWNNAME":"下營區","LI":"大埤里","LIN":"10鄰","STREET":" ","SECT":" ","MAREA":"大埤寮","LANE":" ","ALLEY":" ","HOUSE_NO":"９２號之２２","E_COORD97":173149.17999999999,"N_COORD97":2568122.9500000002,"ADDRESS":"大埤寮９２號之２２","OBJECTID":93719},"geometry":{"x":173149.1799999997,"y":2568122.9500000011}},{"attributes":{"ID":93720,"DIS_CODE":0,"TOWNNAME":"下營區","LI":"大埤里","LIN":"10鄰","STREET":" ","SECT":" ","MAREA":"大埤寮","LANE":" ","ALLEY":" ","HOUSE_NO":"９２號之２","E_COORD97":172954.92000000001,"N_COORD97":2568453,"ADDRESS":"大埤寮９２號之２","OBJECTID":93720},"geometry":{"x":172954.91999999993,"y":2568453.0000000019}},{"attributes":{"ID":93721,"DIS_CODE":0,"TOWNNAME":"下營區","LI":"大埤里","LIN":"10鄰","STREET":" ","SECT":" ","MAREA":"大埤寮","LANE":" ","ALLEY":" ","HOUSE_NO":"９２號之３","E_COORD97":173102.95999999999,"N_COORD97":2568476.6499999999,"ADDRESS":"大埤寮９２號之３","OBJECTID":93721},"geometry":{"x":173102.96000000089,"y":2568476.6500000022}},{"attributes":{"ID":93722,"DIS_CODE":0,"TOWNNAME":"下營區","LI":"大埤里","LIN":"10鄰","STREET":" ","SECT":" ","MAREA":"大埤寮","LANE":" ","ALLEY":" ","HOUSE_NO":"９２號之４","E_COORD97":173205.64000000001,"N_COORD97":2568450.7999999998,"ADDRESS":"大埤寮９２號之４","OBJECTID":93722},"geometry":{"x":173205.63999999966,"y":2568450.8000000045}},{"attributes":{"ID":93723,"DIS_CODE":0,"TOWNNAME":"下營區","LI":"大埤里","LIN":"10鄰","STREET":" ","SECT":" ","MAREA":"大埤寮","LANE":" ","ALLEY":" ","HOUSE_NO":"９２號之５","E_COORD97":173129.82000000001,"N_COORD97":2568502.96,"ADDRESS":"大埤寮９２號之５","OBJECTID":93723},"geometry":{"x":173129.82000000123,"y":2568502.9600000009}},{"attributes":{"ID":93724,"DIS_CODE":0,"TOWNNAME":"安平區","LI":"億載里","LIN":"15鄰","STREET":"光州三街","SECT":" ","MAREA":" ","LANE":" ","ALLEY":" ","HOUSE_NO":"５５號","E_COORD97":164150.45000000001,"N_COORD97":2543160.6099999999,"ADDRESS":"光州三街５５號","OBJECTID":93724},"geometry":{"x":164150.45000000205,"y":2543160.6099999994}},{"attributes":{"ID":93725,"DIS_CODE":0,"TOWNNAME":"永康區","LI":"二王里","LIN":"21鄰","STREET":"中山南路","SECT":" ","MAREA":" ","LANE":"６４４巷","ALLEY":"４２弄","HOUSE_NO":"１號之２","E_COORD97":172401.98000000001,"N_COORD97":2546525.8900000001,"ADDRESS":"中山南路６４４巷４２弄１號之２","OBJECTID":93725},"geometry":{"x":172401.98000000045,"y":2546525.8900000025}},{"attributes":{"ID":93726,"DIS_CODE":0,"TOWNNAME":"永康區","LI":"二王里","LIN":"21鄰","STREET":"中山南路","SECT":" ","MAREA":" ","LANE":"６４４巷","ALLEY":"３９弄","HOUSE_NO":"１號之２","E_COORD97":172421.34,"N_COORD97":2546547.54,"ADDRESS":"中山南路６４４巷３９弄１號之２","OBJECTID":93726},"geometry":{"x":172421.33999999985,"y":2546547.5399999991}},{"attributes":{"ID":93727,"DIS_CODE":0,"TOWNNAME":"永康區","LI":"二王里","LIN":"21鄰","STREET":"中山南路","SECT":" ","MAREA":" ","LANE":"６４４巷","ALLEY":"４２弄","HOUSE_NO":"４號","E_COORD97":172376.20000000001,"N_COORD97":2546545.8799999999,"ADDRESS":"中山南路６４４巷４２弄４號","OBJECTID":93727},"geometry":{"x":172376.20000000112,"y":2546545.879999999}},{"attributes":{"ID":93728,"DIS_CODE":0,"TOWNNAME":"官田區","LI":"二鎮里","LIN":"10鄰","STREET":" ","SECT":" ","MAREA":"二鎮","LANE":" ","ALLEY":" ","HOUSE_NO":"８７號之１２","E_COORD97":181624.94,"N_COORD97":2568401.1600000001,"ADDRESS":"二鎮８７號之１２","OBJECTID":93728},"geometry":{"x":181624.94000000134,"y":2568401.160000002}},{"attributes":{"ID":93729,"DIS_CODE":0,"TOWNNAME":"永康區","LI":"二王里","LIN":"21鄰","STREET":"中山南路","SECT":" ","MAREA":" ","LANE":"６４４巷","ALLEY":"４２弄","HOUSE_NO":"２號之２","E_COORD97":172397.28,"N_COORD97":2546546.9300000002,"ADDRESS":"中山南路６４４巷４２弄２號之２","OBJECTID":93729},"geometry":{"x":172397.28000000119,"y":2546546.9300000034}},{"attributes":{"ID":93730,"DIS_CODE":0,"TOWNNAME":"永康區","LI":"二王里","LIN":"21鄰","STREET":"中山南路","SECT":" ","MAREA":" ","LANE":"６４４巷","ALLEY":"３９弄","HOUSE_NO":"１號","E_COORD97":172430.09,"N_COORD97":2546547.7400000002,"ADDRESS":"中山南路６４４巷３９弄１號","OBJECTID":93730},"geometry":{"x":172430.08999999892,"y":2546547.7400000002}},{"attributes":{"ID":93731,"DIS_CODE":0,"TOWNNAME":"永康區","LI":"二王里","LIN":"21鄰","STREET":"中山南路","SECT":" ","MAREA":" ","LANE":"６４４巷","ALLEY":"４２弄","HOUSE_NO":"２號","E_COORD97":172380.39999999999,"N_COORD97":2546546.3799999999,"ADDRESS":"中山南路６４４巷４２弄２號","OBJECTID":93731},"geometry":{"x":172380.40000000037,"y":2546546.3800000027}},{"attributes":{"ID":93732,"DIS_CODE":0,"TOWNNAME":"永康區","LI":"二王里","LIN":"21鄰","STREET":"中山南路","SECT":" ","MAREA":" ","LANE":"６４４巷","ALLEY":"３９弄","HOUSE_NO":"５號","E_COORD97":172439.06,"N_COORD97":2546548.2400000002,"ADDRESS":"中山南路６４４巷３９弄５號","OBJECTID":93732},"geometry":{"x":172439.06000000052,"y":2546548.2400000002}},{"attributes":{"ID":93733,"DIS_CODE":0,"TOWNNAME":"永康區","LI":"二王里","LIN":"21鄰","STREET":"中山南路","SECT":" ","MAREA":" ","LANE":"６４４巷","ALLEY":"４２弄","HOUSE_NO":"１１號","E_COORD97":172365.92999999999,"N_COORD97":2546524.2200000002,"ADDRESS":"中山南路６４４巷４２弄１１號","OBJECTID":93733},"geometry":{"x":172365.9299999997,"y":2546524.2200000007}},{"attributes":{"ID":93734,"DIS_CODE":0,"TOWNNAME":"永康區","LI":"二王里","LIN":"21鄰","STREET":"中山南路","SECT":" ","MAREA":" ","LANE":"６４４巷","ALLEY":"４２弄","HOUSE_NO":"５號","E_COORD97":172376.60999999999,"N_COORD97":2546525.0099999998,"ADDRESS":"中山南路６４４巷４２弄５號","OBJECTID":93734},"geometry":{"x":172376.61000000127,"y":2546525.0099999998}},{"attributes":{"ID":93735,"DIS_CODE":0,"TOWNNAME":"永康區","LI":"二王里","LIN":"21鄰","STREET":"中山南路","SECT":" ","MAREA":" ","LANE":"６４４巷","ALLEY":"４２弄","HOUSE_NO":"１號之３","E_COORD97":172397.01999999999,"N_COORD97":2546525.6400000001,"ADDRESS":"中山南路６４４巷４２弄１號之３","OBJECTID":93735},"geometry":{"x":172397.02000000048,"y":2546525.6400000006}},{"attributes":{"ID":93736,"DIS_CODE":0,"TOWNNAME":"仁德區","LI":"仁德里","LIN":"21鄰","STREET":"中山路","SECT":" ","MAREA":" ","LANE":"８７５巷","ALLEY":"５３弄","HOUSE_NO":"８號","E_COORD97":172391.87,"N_COORD97":2541392.3799999999,"ADDRESS":"中山路８７５巷５３弄８號","OBJECTID":93736},"geometry":{"x":172391.87000000104,"y":2541392.379999999}},{"attributes":{"ID":93737,"DIS_CODE":0,"TOWNNAME":"仁德區","LI":"仁義里","LIN":"21鄰","STREET":"中山路","SECT":" ","MAREA":" ","LANE":"３２８巷","ALLEY":"１１弄","HOUSE_NO":"２４號","E_COORD97":173886.79999999999,"N_COORD97":2541351.96,"ADDRESS":"中山路３２８巷１１弄２４號","OBJECTID":93737},"geometry":{"x":173886.80000000075,"y":2541351.9600000028}},{"attributes":{"ID":93738,"DIS_CODE":0,"TOWNNAME":"仁德區","LI":"仁德里","LIN":"21鄰","STREET":"中山路","SECT":" ","MAREA":" ","LANE":"８７５巷","ALLEY":"５３弄","HOUSE_NO":"１０號","E_COORD97":172397.78,"N_COORD97":2541391.3799999999,"ADDRESS":"中山路８７５巷５３弄１０號","OBJECTID":93738},"geometry":{"x":172397.78000000119,"y":2541391.379999999}},{"attributes":{"ID":93739,"DIS_CODE":0,"TOWNNAME":"仁德區","LI":"仁義里","LIN":"21鄰","STREET":"中山路","SECT":" ","MAREA":" ","LANE":"３２８巷","ALLEY":"１１弄","HOUSE_NO":"１７號","E_COORD97":173888.14999999999,"N_COORD97":2541336.71,"ADDRESS":"中山路３２８巷１１弄１７號","OBJECTID":93739},"geometry":{"x":173888.15000000224,"y":2541336.7100000028}},{"attributes":{"ID":93740,"DIS_CODE":0,"TOWNNAME":"仁德區","LI":"仁德里","LIN":"21鄰","STREET":"中山路","SECT":" ","MAREA":" ","LANE":"８７５巷","ALLEY":"１０１弄","HOUSE_NO":"５號","E_COORD97":172377.5,"N_COORD97":2541272.6800000002,"ADDRESS":"中山路８７５巷１０１弄５號","OBJECTID":93740},"geometry":{"x":172377.50000000093,"y":2541272.6799999997}},{"attributes":{"ID":93741,"DIS_CODE":0,"TOWNNAME":"仁德區","LI":"仁德里","LIN":"21鄰","STREET":"中山路","SECT":" ","MAREA":" ","LANE":"８７５巷","ALLEY":"１０１弄","HOUSE_NO":"４號","E_COORD97":172368.81,"N_COORD97":2541256.9300000002,"ADDRESS":"中山路８７５巷１０１弄４號","OBJECTID":93741},"geometry":{"x":172368.80999999959,"y":2541256.9299999997}},{"attributes":{"ID":93742,"DIS_CODE":0,"TOWNNAME":"下營區","LI":"大埤里","LIN":"10鄰","STREET":" ","SECT":" ","MAREA":"大埤寮","LANE":" ","ALLEY":" ","HOUSE_NO":"９２號","E_COORD97":173007.32000000001,"N_COORD97":2568289.3700000001,"ADDRESS":"大埤寮９２號","OBJECTID":93742},"geometry":{"x":173007.32000000123,"y":2568289.3700000029}},{"attributes":{"ID":93743,"DIS_CODE":0,"TOWNNAME":"下營區","LI":"大埤里","LIN":"10鄰","STREET":" ","SECT":" ","MAREA":"大埤寮","LANE":" ","ALLEY":" ","HOUSE_NO":"９９號","E_COORD97":171733.53,"N_COORD97":2568818.6699999999,"ADDRESS":"大埤寮９９號","OBJECTID":93743},"geometry":{"x":171733.53000000026,"y":2568818.6699999999}},{"attributes":{"ID":93744,"DIS_CODE":0,"TOWNNAME":"仁德區","LI":"仁義里","LIN":"21鄰","STREET":"中山路","SECT":" ","MAREA":" ","LANE":"３２８巷","ALLEY":"１１弄","HOUSE_NO":"３２號","E_COORD97":173869.91,"N_COORD97":2541353.71,"ADDRESS":"中山路３２８巷１１弄３２號","OBJECTID":93744},"geometry":{"x":173869.91000000108,"y":2541353.7100000028}},{"attributes":{"ID":93745,"DIS_CODE":0,"TOWNNAME":"仁德區","LI":"仁義里","LIN":"21鄰","STREET":"中山路","SECT":" ","MAREA":" ","LANE":"３２８巷","ALLEY":"１１弄","HOUSE_NO":"３１號","E_COORD97":173867.64000000001,"N_COORD97":2541320.2400000002,"ADDRESS":"中山路３２８巷１１弄３１號","OBJECTID":93745},"geometry":{"x":173867.6400000006,"y":2541320.2400000002}},{"attributes":{"ID":93746,"DIS_CODE":0,"TOWNNAME":"仁德區","LI":"仁義里","LIN":"21鄰","STREET":"中山路","SECT":" ","MAREA":" ","LANE":"３２８巷","ALLEY":"１１弄","HOUSE_NO":"３３號","E_COORD97":173867.70999999999,"N_COORD97":2541316.2400000002,"ADDRESS":"中山路３２８巷１１弄３３號","OBJECTID":93746},"geometry":{"x":173867.71000000089,"y":2541316.2400000002}},{"attributes":{"ID":93747,"DIS_CODE":0,"TOWNNAME":"仁德區","LI":"仁義里","LIN":"21鄰","STREET":"中山路","SECT":" ","MAREA":" ","LANE":"３２８巷","ALLEY":"１１弄","HOUSE_NO":"３７號","E_COORD97":173871.75,"N_COORD97":2541294.8900000001,"ADDRESS":"中山路３２８巷１１弄３７號","OBJECTID":93747},"geometry":{"x":173871.74999999907,"y":2541294.8900000006}},{"attributes":{"ID":93748,"DIS_CODE":0,"TOWNNAME":"仁德區","LI":"仁義里","LIN":"21鄰","STREET":"中山路","SECT":" ","MAREA":" ","LANE":"３２８巷","ALLEY":"１１弄","HOUSE_NO":"２２號","E_COORD97":173890.69,"N_COORD97":2541351.46,"ADDRESS":"中山路３２８巷１１弄２２號","OBJECTID":93748},"geometry":{"x":173890.69000000041,"y":2541351.4600000028}},{"attributes":{"ID":93749,"DIS_CODE":0,"TOWNNAME":"仁德區","LI":"仁德里","LIN":"21鄰","STREET":"中山路","SECT":" ","MAREA":" ","LANE":"８７５巷","ALLEY":"１０１弄","HOUSE_NO":"２號","E_COORD97":172364.72,"N_COORD97":2541257.6800000002,"ADDRESS":"中山路８７５巷１０１弄２號","OBJECTID":93749},"geometry":{"x":172364.7200000016,"y":2541257.6800000016}},{"attributes":{"ID":93750,"DIS_CODE":0,"TOWNNAME":"仁德區","LI":"仁義里","LIN":"21鄰","STREET":"中山路","SECT":" ","MAREA":" ","LANE":"３２８巷","ALLEY":"１１弄","HOUSE_NO":"３９號","E_COORD97":173878.20999999999,"N_COORD97":2541297.3900000001,"ADDRESS":"中山路３２８巷１１弄３９號","OBJECTID":93750},"geometry":{"x":173878.20999999996,"y":2541297.3900000025}},{"attributes":{"ID":93751,"DIS_CODE":0,"TOWNNAME":"仁德區","LI":"仁義里","LIN":"21鄰","STREET":"中山路","SECT":" ","MAREA":" ","LANE":"３２８巷","ALLEY":"１１弄","HOUSE_NO":"３４號","E_COORD97":173865.85000000001,"N_COORD97":2541354.46,"ADDRESS":"中山路３２８巷１１弄３４號","OBJECTID":93751},"geometry":{"x":173865.85000000056,"y":2541354.4600000028}},{"attributes":{"ID":93752,"DIS_CODE":0,"TOWNNAME":"仁德區","LI":"仁義里","LIN":"21鄰","STREET":"中山路","SECT":" ","MAREA":" ","LANE":"３２８巷","ALLEY":"１１弄","HOUSE_NO":"２６號","E_COORD97":173882.51999999999,"N_COORD97":2541352.46,"ADDRESS":"中山路３２８巷１１弄２６號","OBJECTID":93752},"geometry":{"x":173882.51999999955,"y":2541352.4600000009}},{"attributes":{"ID":93753,"DIS_CODE":0,"TOWNNAME":"仁德區","LI":"仁義里","LIN":"21鄰","STREET":"中山路","SECT":" ","MAREA":" ","LANE":"３２８巷","ALLEY":"１１弄","HOUSE_NO":"２１號","E_COORD97":173879.53,"N_COORD97":2541337.21,"ADDRESS":"中山路３２８巷１１弄２１號","OBJECTID":93753},"geometry":{"x":173879.53000000119,"y":2541337.2100000009}},{"attributes":{"ID":93754,"DIS_CODE":0,"TOWNNAME":"安南區","LI":"長安里","LIN":"21鄰","STREET":"長溪路","SECT":"三段","MAREA":" ","LANE":"３８０巷","ALLEY":"１３９弄","HOUSE_NO":"２號之１","E_COORD97":168000.82999999999,"N_COORD97":2552305.4399999999,"ADDRESS":"長溪路三段３８０巷１３９弄２號之１","OBJECTID":93754},"geometry":{"x":168000.82999999914,"y":2552305.4399999995}},{"attributes":{"ID":93755,"DIS_CODE":0,"TOWNNAME":"安南區","LI":"安富里","LIN":"21鄰","STREET":"郡安路","SECT":"五段","MAREA":" ","LANE":"１６４巷","ALLEY":"１２弄","HOUSE_NO":"８號","E_COORD97":167648.03,"N_COORD97":2547557.1000000001,"ADDRESS":"郡安路五段１６４巷１２弄８號","OBJECTID":93755},"geometry":{"x":167648.03000000026,"y":2547557.1000000015}},{"attributes":{"ID":93756,"DIS_CODE":0,"TOWNNAME":"安南區","LI":"佃東里","LIN":"21鄰","STREET":"公學路","SECT":"四段","MAREA":" ","LANE":"１２２巷","ALLEY":"８５弄","HOUSE_NO":"１０號","E_COORD97":165544.69,"N_COORD97":2552265.04,"ADDRESS":"公學路四段１２２巷８５弄１０號","OBJECTID":93756},"geometry":{"x":165544.69000000134,"y":2552265.0400000028}},{"attributes":{"ID":93757,"DIS_CODE":0,"TOWNNAME":"安南區","LI":"佃東里","LIN":"21鄰","STREET":"公學路","SECT":"四段","MAREA":" ","LANE":"１２２巷","ALLEY":"８５弄","HOUSE_NO":"１２號","E_COORD97":165540.32000000001,"N_COORD97":2552262.4300000002,"ADDRESS":"公學路四段１２２巷８５弄１２號","OBJECTID":93757},"geometry":{"x":165540.32000000123,"y":2552262.4299999997}},{"attributes":{"ID":93758,"DIS_CODE":0,"TOWNNAME":"安南區","LI":"佃東里","LIN":"21鄰","STREET":"公學路","SECT":"四段","MAREA":" ","LANE":"１２２巷","ALLEY":"８５弄","HOUSE_NO":"１４號","E_COORD97":165536.25,"N_COORD97":2552265.5800000001,"ADDRESS":"公學路四段１２２巷８５弄１４號","OBJECTID":93758},"geometry":{"x":165536.25,"y":2552265.5799999982}},{"attributes":{"ID":93759,"DIS_CODE":0,"TOWNNAME":"安南區","LI":"佃東里","LIN":"21鄰","STREET":"公學路","SECT":"四段","MAREA":" ","LANE":"１２２巷","ALLEY":"８５弄","HOUSE_NO":"１６號","E_COORD97":165531.95000000001,"N_COORD97":2552262.8900000001,"ADDRESS":"公學路四段１２２巷８５弄１６號","OBJECTID":93759},"geometry":{"x":165531.94999999925,"y":2552262.8900000006}},{"attributes":{"ID":93760,"DIS_CODE":0,"TOWNNAME":"安南區","LI":"佃東里","LIN":"21鄰","STREET":"公學路","SECT":"四段","MAREA":" ","LANE":"１２２巷","ALLEY":"８５弄","HOUSE_NO":"１８號","E_COORD97":165527.62,"N_COORD97":2552265.27,"ADDRESS":"公學路四段１２２巷８５弄１８號","OBJECTID":93760},"geometry":{"x":165527.62000000104,"y":2552265.2700000014}},{"attributes":{"ID":93761,"DIS_CODE":0,"TOWNNAME":"安南區","LI":"佃東里","LIN":"21鄰","STREET":"公學路","SECT":"四段","MAREA":" ","LANE":"１２２巷","ALLEY":"８５弄","HOUSE_NO":"２０號","E_COORD97":165533.73000000001,"N_COORD97":2552286.3199999998,"ADDRESS":"公學路四段１２２巷８５弄２０號","OBJECTID":93761},"geometry":{"x":165533.72999999952,"y":2552286.3200000022}},{"attributes":{"ID":93762,"DIS_CODE":0,"TOWNNAME":"安南區","LI":"佃東里","LIN":"21鄰","STREET":"公學路","SECT":"四段","MAREA":" ","LANE":"１２２巷","ALLEY":"８５弄","HOUSE_NO":"２２號","E_COORD97":165536.07000000001,"N_COORD97":2552284.3199999998,"ADDRESS":"公學路四段１２２巷８５弄２２號","OBJECTID":93762},"geometry":{"x":165536.0700000003,"y":2552284.3200000003}},{"attributes":{"ID":93763,"DIS_CODE":0,"TOWNNAME":"安南區","LI":"佃東里","LIN":"21鄰","STREET":"公學路","SECT":"四段","MAREA":" ","LANE":"１２２巷","ALLEY":"８５弄","HOUSE_NO":"２４號","E_COORD97":165540.60000000001,"N_COORD97":2552286.0099999998,"ADDRESS":"公學路四段１２２巷８５弄２４號","OBJECTID":93763},"geometry":{"x":165540.60000000149,"y":2552286.0099999998}},{"attributes":{"ID":93764,"DIS_CODE":0,"TOWNNAME":"安南區","LI":"佃東里","LIN":"21鄰","STREET":"公學路","SECT":"四段","MAREA":" ","LANE":"１２２巷","ALLEY":"８５弄","HOUSE_NO":"２６號","E_COORD97":165544.44,"N_COORD97":2552283.02,"ADDRESS":"公學路四段１２２巷８５弄２６號","OBJECTID":93764},"geometry":{"x":165544.44000000134,"y":2552283.0200000014}},{"attributes":{"ID":93765,"DIS_CODE":0,"TOWNNAME":"安南區","LI":"佃東里","LIN":"21鄰","STREET":"公學路","SECT":"四段","MAREA":" ","LANE":"１２２巷","ALLEY":"８５弄","HOUSE_NO":"２８號","E_COORD97":165548.89000000001,"N_COORD97":2552284.8599999999,"ADDRESS":"公學路四段１２２巷８５弄２８號","OBJECTID":93765},"geometry":{"x":165548.89000000153,"y":2552284.8600000013}},{"attributes":{"ID":93766,"DIS_CODE":0,"TOWNNAME":"安南區","LI":"佃東里","LIN":"21鄰","STREET":"公學路","SECT":"四段","MAREA":" ","LANE":"１２２巷","ALLEY":"８５弄","HOUSE_NO":"２號","E_COORD97":165557.13,"N_COORD97":2552261.9700000002,"ADDRESS":"公學路四段１２２巷８５弄２號","OBJECTID":93766},"geometry":{"x":165557.12999999989,"y":2552261.9700000025}},{"attributes":{"ID":93767,"DIS_CODE":0,"TOWNNAME":"安南區","LI":"佃東里","LIN":"21鄰","STREET":"公學路","SECT":"四段","MAREA":" ","LANE":"１２２巷","ALLEY":"８５弄","HOUSE_NO":"３０號","E_COORD97":165552.64999999999,"N_COORD97":2552281.3300000001,"ADDRESS":"公學路四段１２２巷８５弄３０號","OBJECTID":93767},"geometry":{"x":165552.65000000037,"y":2552281.3300000019}},{"attributes":{"ID":93768,"DIS_CODE":0,"TOWNNAME":"安南區","LI":"佃東里","LIN":"21鄰","STREET":"公學路","SECT":"四段","MAREA":" ","LANE":"１２２巷","ALLEY":"８５弄","HOUSE_NO":"３２號","E_COORD97":165557.10999999999,"N_COORD97":2552283.25,"ADDRESS":"公學路四段１２２巷８５弄３２號","OBJECTID":93768},"geometry":{"x":165557.11000000127,"y":2552283.25}},{"attributes":{"ID":93769,"DIS_CODE":0,"TOWNNAME":"安南區","LI":"佃東里","LIN":"21鄰","STREET":"公學路","SECT":"四段","MAREA":" ","LANE":"１２２巷","ALLEY":"８５弄","HOUSE_NO":"３４號","E_COORD97":165540.22,"N_COORD97":2552319.2799999998,"ADDRESS":"公學路四段１２２巷８５弄３４號","OBJECTID":93769},"geometry":{"x":165540.22000000067,"y":2552319.2800000012}},{"attributes":{"ID":93770,"DIS_CODE":0,"TOWNNAME":"安南區","LI":"佃東里","LIN":"21鄰","STREET":"公學路","SECT":"四段","MAREA":" ","LANE":"１２２巷","ALLEY":"８５弄","HOUSE_NO":"３６號","E_COORD97":165541.51000000001,"N_COORD97":2552323.4199999999,"ADDRESS":"公學路四段１２２巷８５弄３６號","OBJECTID":93770},"geometry":{"x":165541.51000000164,"y":2552323.4199999999}},{"attributes":{"ID":93771,"DIS_CODE":0,"TOWNNAME":"安南區","LI":"佃東里","LIN":"21鄰","STREET":"公學路","SECT":"四段","MAREA":" ","LANE":"１２２巷","ALLEY":"８５弄","HOUSE_NO":"３８號","E_COORD97":165541.51000000001,"N_COORD97":2552327.2799999998,"ADDRESS":"公學路四段１２２巷８５弄３８號","OBJECTID":93771},"geometry":{"x":165541.51000000164,"y":2552327.2799999993}},{"attributes":{"ID":93772,"DIS_CODE":0,"TOWNNAME":"安南區","LI":"佃東里","LIN":"21鄰","STREET":"公學路","SECT":"四段","MAREA":" ","LANE":"１２２巷","ALLEY":"８５弄","HOUSE_NO":"４０號","E_COORD97":165543.39000000001,"N_COORD97":2552331.3399999999,"ADDRESS":"公學路四段１２２巷８５弄４０號","OBJECTID":93772},"geometry":{"x":165543.38999999966,"y":2552331.339999998}},{"attributes":{"ID":93773,"DIS_CODE":0,"TOWNNAME":"安南區","LI":"佃東里","LIN":"21鄰","STREET":"公學路","SECT":"四段","MAREA":" ","LANE":"１２２巷","ALLEY":"８５弄","HOUSE_NO":"４２號","E_COORD97":165544.25,"N_COORD97":2552335.2000000002,"ADDRESS":"公學路四段１２２巷８５弄４２號","OBJECTID":93773},"geometry":{"x":165544.25,"y":2552335.200000003}},{"attributes":{"ID":93774,"DIS_CODE":0,"TOWNNAME":"安南區","LI":"佃東里","LIN":"21鄰","STREET":"公學路","SECT":"四段","MAREA":" ","LANE":"１２２巷","ALLEY":"８５弄","HOUSE_NO":"４６號","E_COORD97":165544.39000000001,"N_COORD97":2552339.6200000001,"ADDRESS":"公學路四段１２２巷８５弄４６號","OBJECTID":93774},"geometry":{"x":165544.3900000006,"y":2552339.620000001}},{"attributes":{"ID":93775,"DIS_CODE":0,"TOWNNAME":"安南區","LI":"佃東里","LIN":"21鄰","STREET":"公學路","SECT":"四段","MAREA":" ","LANE":"１２２巷","ALLEY":"８５弄","HOUSE_NO":"４８號","E_COORD97":165545.53,"N_COORD97":2552343.7599999998,"ADDRESS":"公學路四段１２２巷８５弄４８號","OBJECTID":93775},"geometry":{"x":165545.53000000119,"y":2552343.7600000016}},{"attributes":{"ID":93776,"DIS_CODE":0,"TOWNNAME":"北門區","LI":"雙春里","LIN":"10鄰","STREET":" ","SECT":" ","MAREA":"雙春","LANE":" ","ALLEY":" ","HOUSE_NO":"６８之１號","E_COORD97":160999.97,"N_COORD97":2577733.3100000001,"ADDRESS":"雙春６８之１號","OBJECTID":93776},"geometry":{"x":160999.96999999974,"y":2577733.3100000042}},{"attributes":{"ID":93777,"DIS_CODE":0,"TOWNNAME":"北門區","LI":"雙春里","LIN":"10鄰","STREET":" ","SECT":" ","MAREA":"雙春","LANE":" ","ALLEY":" ","HOUSE_NO":"６８號之１","E_COORD97":160999.97,"N_COORD97":2577733.3100000001,"ADDRESS":"雙春６８號之１","OBJECTID":93777},"geometry":{"x":160999.96999999974,"y":2577733.3100000042}},{"attributes":{"ID":93778,"DIS_CODE":0,"TOWNNAME":"北門區","LI":"雙春里","LIN":"10鄰","STREET":" ","SECT":" ","MAREA":"雙春","LANE":" ","ALLEY":" ","HOUSE_NO":"６８號","E_COORD97":160986.23000000001,"N_COORD97":2577716.6400000001,"ADDRESS":"雙春６８號","OBJECTID":93778},"geometry":{"x":160986.23000000138,"y":2577716.6400000006}},{"attributes":{"ID":93779,"DIS_CODE":0,"TOWNNAME":"北門區","LI":"雙春里","LIN":"10鄰","STREET":" ","SECT":" ","MAREA":"雙春","LANE":" ","ALLEY":" ","HOUSE_NO":"６９號之１","E_COORD97":160953.57999999999,"N_COORD97":2577706.8700000001,"ADDRESS":"雙春６９號之１","OBJECTID":93779},"geometry":{"x":160953.58000000007,"y":2577706.8700000029}},{"attributes":{"ID":93780,"DIS_CODE":0,"TOWNNAME":"北門區","LI":"雙春里","LIN":"10鄰","STREET":" ","SECT":" ","MAREA":"雙春","LANE":" ","ALLEY":" ","HOUSE_NO":"６９號","E_COORD97":160966.98000000001,"N_COORD97":2577724.5,"ADDRESS":"雙春６９號","OBJECTID":93780},"geometry":{"x":160966.98000000231,"y":2577724.5000000037}},{"attributes":{"ID":93781,"DIS_CODE":0,"TOWNNAME":"北門區","LI":"雙春里","LIN":"10鄰","STREET":" ","SECT":" ","MAREA":"雙春","LANE":" ","ALLEY":" ","HOUSE_NO":"７０號","E_COORD97":160968.63,"N_COORD97":2577709.5,"ADDRESS":"雙春７０號","OBJECTID":93781},"geometry":{"x":160968.62999999896,"y":2577709.5}},{"attributes":{"ID":93782,"DIS_CODE":0,"TOWNNAME":"北門區","LI":"雙春里","LIN":"10鄰","STREET":" ","SECT":" ","MAREA":"雙春","LANE":" ","ALLEY":" ","HOUSE_NO":"７１號之１","E_COORD97":160929.48000000001,"N_COORD97":2577687.2599999998,"ADDRESS":"雙春７１號之１","OBJECTID":93782},"geometry":{"x":160929.48000000045,"y":2577687.2599999998}},{"attributes":{"ID":93783,"DIS_CODE":0,"TOWNNAME":"北門區","LI":"雙春里","LIN":"10鄰","STREET":" ","SECT":" ","MAREA":"雙春","LANE":" ","ALLEY":" ","HOUSE_NO":"７１號","E_COORD97":160945.45000000001,"N_COORD97":2577689.71,"ADDRESS":"雙春７１號","OBJECTID":93783},"geometry":{"x":160945.45000000112,"y":2577689.7100000009}},{"attributes":{"ID":93784,"DIS_CODE":0,"TOWNNAME":"北門區","LI":"雙春里","LIN":"10鄰","STREET":" ","SECT":" ","MAREA":"雙春","LANE":" ","ALLEY":" ","HOUSE_NO":"７２號之２","E_COORD97":161035.01999999999,"N_COORD97":2577688.8199999998,"ADDRESS":"雙春７２號之２","OBJECTID":93784},"geometry":{"x":161035.01999999955,"y":2577688.820000004}},{"attributes":{"ID":93785,"DIS_CODE":0,"TOWNNAME":"新化區","LI":"全興里","LIN":"15鄰","STREET":" ","SECT":" ","MAREA":"竹子\u25A0","LANE":" ","ALLEY":" ","HOUSE_NO":"２４７號之５３３","E_COORD97":178179.07999999999,"N_COORD97":2546666.2599999998,"ADDRESS":"竹子\u25A0２４７號之５３３","OBJECTID":93785},"geometry":{"x":178179.08000000101,"y":2546666.2599999998}},{"attributes":{"ID":93786,"DIS_CODE":0,"TOWNNAME":"新化區","LI":"全興里","LIN":"15鄰","STREET":" ","SECT":" ","MAREA":"竹子\u25A0","LANE":" ","ALLEY":" ","HOUSE_NO":"２４７號之４３８","E_COORD97":178141.59,"N_COORD97":2546681.2599999998,"ADDRESS":"竹子\u25A0２４７號之４３８","OBJECTID":93786},"geometry":{"x":178141.59000000078,"y":2546681.2600000016}},{"attributes":{"ID":93787,"DIS_CODE":0,"TOWNNAME":"新化區","LI":"全興里","LIN":"15鄰","STREET":" ","SECT":" ","MAREA":"竹子\u25A0","LANE":" ","ALLEY":" ","HOUSE_NO":"２４７號之６８１","E_COORD97":178151.35999999999,"N_COORD97":2546611.2599999998,"ADDRESS":"竹子\u25A0２４７號之６８１","OBJECTID":93787},"geometry":{"x":178151.36000000034,"y":2546611.2599999998}},{"attributes":{"ID":93788,"DIS_CODE":0,"TOWNNAME":"安南區","LI":"佃東里","LIN":"21鄰","STREET":"公學路","SECT":"四段","MAREA":" ","LANE":"１２２巷","ALLEY":"８５弄","HOUSE_NO":"５０號","E_COORD97":165545.25,"N_COORD97":2552347.8999999999,"ADDRESS":"公學路四段１２２巷８５弄５０號","OBJECTID":93788},"geometry":{"x":165545.25000000093,"y":2552347.9000000004}},{"attributes":{"ID":93789,"DIS_CODE":0,"TOWNNAME":"安南區","LI":"佃東里","LIN":"21鄰","STREET":"公學路","SECT":"四段","MAREA":" ","LANE":"１２２巷","ALLEY":"８５弄","HOUSE_NO":"５２號","E_COORD97":165545.95999999999,"N_COORD97":2552352.0499999998,"ADDRESS":"公學路四段１２２巷８５弄５２號","OBJECTID":93789},"geometry":{"x":165545.96000000089,"y":2552352.0500000026}},{"attributes":{"ID":93790,"DIS_CODE":0,"TOWNNAME":"安南區","LI":"佃東里","LIN":"21鄰","STREET":"公學路","SECT":"四段","MAREA":" ","LANE":"１２２巷","ALLEY":"８５弄","HOUSE_NO":"５４號","E_COORD97":165546.39000000001,"N_COORD97":2552356.7599999998,"ADDRESS":"公學路四段１２２巷８５弄５４號","OBJECTID":93790},"geometry":{"x":165546.38999999966,"y":2552356.7600000016}},{"attributes":{"ID":93791,"DIS_CODE":0,"TOWNNAME":"安南區","LI":"佃東里","LIN":"21鄰","STREET":"公學路","SECT":"四段","MAREA":" ","LANE":"１２２巷","ALLEY":"８５弄","HOUSE_NO":"６號","E_COORD97":165553.14000000001,"N_COORD97":2552263.7400000002,"ADDRESS":"公學路四段１２２巷８５弄６號","OBJECTID":93791},"geometry":{"x":165553.13999999966,"y":2552263.7400000002}},{"attributes":{"ID":93792,"DIS_CODE":0,"TOWNNAME":"安南區","LI":"佃東里","LIN":"21鄰","STREET":"公學路","SECT":"四段","MAREA":" ","LANE":"１２２巷","ALLEY":"８５弄","HOUSE_NO":"８號","E_COORD97":165548.69,"N_COORD97":2552262.0499999998,"ADDRESS":"公學路四段１２２巷８５弄８號","OBJECTID":93792},"geometry":{"x":165548.69000000041,"y":2552262.0500000007}},{"attributes":{"ID":93793,"DIS_CODE":0,"TOWNNAME":"安南區","LI":"長安里","LIN":"21鄰","STREET":"長溪路","SECT":"三段","MAREA":" ","LANE":"３８０巷","ALLEY":"１３９弄","HOUSE_NO":"１０號","E_COORD97":167993.66,"N_COORD97":2552316.7999999998,"ADDRESS":"長溪路三段３８０巷１３９弄１０號","OBJECTID":93793},"geometry":{"x":167993.66000000201,"y":2552316.8000000026}},{"attributes":{"ID":93794,"DIS_CODE":0,"TOWNNAME":"安南區","LI":"長安里","LIN":"21鄰","STREET":"長溪路","SECT":"三段","MAREA":" ","LANE":"３８０巷","ALLEY":"１３９弄","HOUSE_NO":"１１號","E_COORD97":167966.51999999999,"N_COORD97":2552309.27,"ADDRESS":"長溪路三段３８０巷１３９弄１１號","OBJECTID":93794},"geometry":{"x":167966.51999999955,"y":2552309.2700000014}},{"attributes":{"ID":93795,"DIS_CODE":0,"TOWNNAME":"安南區","LI":"長安里","LIN":"21鄰","STREET":"長溪路","SECT":"三段","MAREA":" ","LANE":"３８０巷","ALLEY":"１３９弄","HOUSE_NO":"１２號","E_COORD97":167990.14000000001,"N_COORD97":2552319.8300000001,"ADDRESS":"長溪路三段３８０巷１３９弄１２號","OBJECTID":93795},"geometry":{"x":167990.1400000006,"y":2552319.8300000019}},{"attributes":{"ID":93796,"DIS_CODE":0,"TOWNNAME":"北門區","LI":"雙春里","LIN":"10鄰","STREET":" ","SECT":" ","MAREA":"雙春","LANE":" ","ALLEY":" ","HOUSE_NO":"７２號之３","E_COORD97":161024.70999999999,"N_COORD97":2577731.21,"ADDRESS":"雙春７２號之３","OBJECTID":93796},"geometry":{"x":161024.71000000089,"y":2577731.2100000028}},{"attributes":{"ID":93797,"DIS_CODE":0,"TOWNNAME":"北門區","LI":"雙春里","LIN":"10鄰","STREET":" ","SECT":" ","MAREA":"雙春","LANE":" ","ALLEY":" ","HOUSE_NO":"７２號之４","E_COORD97":161008.45000000001,"N_COORD97":2577701.8199999998,"ADDRESS":"雙春７２號之４","OBJECTID":93797},"geometry":{"x":161008.45000000019,"y":2577701.8200000003}},{"attributes":{"ID":93798,"DIS_CODE":0,"TOWNNAME":"北門區","LI":"雙春里","LIN":"10鄰","STREET":" ","SECT":" ","MAREA":"雙春","LANE":" ","ALLEY":" ","HOUSE_NO":"７２號","E_COORD97":161020.56,"N_COORD97":2577718.8300000001,"ADDRESS":"雙春７２號","OBJECTID":93798},"geometry":{"x":161020.56000000052,"y":2577718.8299999982}},{"attributes":{"ID":93799,"DIS_CODE":0,"TOWNNAME":"官田區","LI":"二鎮里","LIN":"10鄰","STREET":" ","SECT":" ","MAREA":"二鎮","LANE":" ","ALLEY":" ","HOUSE_NO":"８７號之１００","E_COORD97":181705.42000000001,"N_COORD97":2568399.46,"ADDRESS":"二鎮８７號之１００","OBJECTID":93799},"geometry":{"x":181705.41999999993,"y":2568399.4600000028}},{"attributes":{"ID":93800,"DIS_CODE":0,"TOWNNAME":"官田區","LI":"二鎮里","LIN":"10鄰","STREET":" ","SECT":" ","MAREA":"二鎮","LANE":" ","ALLEY":" ","HOUSE_NO":"８７號之１０１","E_COORD97":181705.47,"N_COORD97":2568406.71,"ADDRESS":"二鎮８７號之１０１","OBJECTID":93800},"geometry":{"x":181705.47000000067,"y":2568406.7100000009}}]}