{"displayFieldName":"TOWNNAME","fieldAliases":{"ID":"ID","DIS_CODE":"DIS_CODE","TOWNNAME":"TOWNNAME","LI":"LI","LIN":"LIN","STREET":"STREET","SECT":"SECT","MAREA":"MAREA","LANE":"LANE","ALLEY":"ALLEY","HOUSE_NO":"HOUSE_NO","E_COORD97":"E_COORD97","N_COORD97":"N_COORD97","ADDRESS":"ADDRESS","OBJECTID":"OBJECTID"},"geometryType":"esriGeometryPoint","spatialReference":{"wkid":102443,"latestWkid":3826},"fields":[{"name":"ID","type":"esriFieldTypeDouble","alias":"ID"},{"name":"DIS_CODE","type":"esriFieldTypeInteger","alias":"DIS_CODE"},{"name":"TOWNNAME","type":"esriFieldTypeString","alias":"TOWNNAME","length":8},{"name":"LI","type":"esriFieldTypeString","alias":"LI","length":8},{"name":"LIN","type":"esriFieldTypeString","alias":"LIN","length":12},{"name":"STREET","type":"esriFieldTypeString","alias":"STREET","length":20},{"name":"SECT","type":"esriFieldTypeString","alias":"SECT","length":8},{"name":"MAREA","type":"esriFieldTypeString","alias":"MAREA","length":12},{"name":"LANE","type":"esriFieldTypeString","alias":"LANE","length":10},{"name":"ALLEY","type":"esriFieldTypeString","alias":"ALLEY","length":10},{"name":"HOUSE_NO","type":"esriFieldTypeString","alias":"HOUSE_NO","length":20},{"name":"E_COORD97","type":"esriFieldTypeDouble","alias":"E_COORD97"},{"name":"N_COORD97","type":"esriFieldTypeDouble","alias":"N_COORD97"},{"name":"ADDRESS","type":"esriFieldTypeString","alias":"ADDRESS","length":50},{"name":"OBJECTID","type":"esriFieldTypeOID","alias":"OBJECTID"}],"features":[{"attributes":{"ID":186402,"DIS_CODE":0,"TOWNNAME":"後壁區","LI":"嘉苳里","LIN":"11鄰","STREET":" ","SECT":" ","MAREA":"本協","LANE":" ","ALLEY":" ","HOUSE_NO":"５號之２９","E_COORD97":187188.85000000001,"N_COORD97":2583604.5699999998,"ADDRESS":"本協５號之２９","OBJECTID":186401},"geometry":{"x":187188.85000000056,"y":2583604.5700000022}},{"attributes":{"ID":186403,"DIS_CODE":0,"TOWNNAME":"永康區","LI":"埔園里","LIN":"36鄰","STREET":"永大路","SECT":"三段","MAREA":" ","LANE":"３６０巷","ALLEY":"２１弄","HOUSE_NO":"５號","E_COORD97":174221.14999999999,"N_COORD97":2548202.6499999999,"ADDRESS":"永大路三段３６０巷２１弄５號","OBJECTID":186402},"geometry":{"x":174221.1500000013,"y":2548202.6500000004}},{"attributes":{"ID":186404,"DIS_CODE":0,"TOWNNAME":"永康區","LI":"東灣里","LIN":"36鄰","STREET":"民族路","SECT":" ","MAREA":" ","LANE":"２７３巷","ALLEY":"２３弄","HOUSE_NO":"８號","E_COORD97":175082.73999999999,"N_COORD97":2544929.3599999999,"ADDRESS":"民族路２７３巷２３弄８號","OBJECTID":186403},"geometry":{"x":175082.74000000115,"y":2544929.3599999994}},{"attributes":{"ID":186405,"DIS_CODE":0,"TOWNNAME":"永康區","LI":"成功里","LIN":"36鄰","STREET":"中華路","SECT":" ","MAREA":" ","LANE":"１５４巷","ALLEY":"８７弄","HOUSE_NO":"１１號","E_COORD97":171827.01000000001,"N_COORD97":2544943.54,"ADDRESS":"中華路１５４巷８７弄１１號","OBJECTID":186404},"geometry":{"x":171827.00999999885,"y":2544943.5399999991}},{"attributes":{"ID":186406,"DIS_CODE":0,"TOWNNAME":"永康區","LI":"成功里","LIN":"36鄰","STREET":"中華路","SECT":" ","MAREA":" ","LANE":"１５４巷","ALLEY":"８７弄","HOUSE_NO":"６號","E_COORD97":171845.41,"N_COORD97":2544946.9900000002,"ADDRESS":"中華路１５４巷８７弄６號","OBJECTID":186405},"geometry":{"x":171845.41000000108,"y":2544946.9900000039}},{"attributes":{"ID":186407,"DIS_CODE":0,"TOWNNAME":"永康區","LI":"龍潭里","LIN":"36鄰","STREET":"中山北路","SECT":" ","MAREA":" ","LANE":"１６４巷","ALLEY":"１６０弄","HOUSE_NO":"２６號","E_COORD97":174656.67000000001,"N_COORD97":2547351.5499999998,"ADDRESS":"中山北路１６４巷１６０弄２６號","OBJECTID":186406},"geometry":{"x":174656.66999999993,"y":2547351.5500000026}},{"attributes":{"ID":186408,"DIS_CODE":0,"TOWNNAME":"永康區","LI":"龍潭里","LIN":"36鄰","STREET":"中山北路","SECT":" ","MAREA":" ","LANE":"１６４巷","ALLEY":"１６０弄","HOUSE_NO":"２９號","E_COORD97":174698.26000000001,"N_COORD97":2547350,"ADDRESS":"中山北路１６４巷１６０弄２９號","OBJECTID":186407},"geometry":{"x":174698.25999999978,"y":2547349.9999999981}},{"attributes":{"ID":186409,"DIS_CODE":0,"TOWNNAME":"永康區","LI":"\u25A0行里","LIN":"36鄰","STREET":"三村一街","SECT":" ","MAREA":" ","LANE":"１３８巷","ALLEY":"４８弄","HOUSE_NO":"２０號","E_COORD97":172109.20000000001,"N_COORD97":2549332.1899999999,"ADDRESS":"三村一街１３８巷４８弄２０號","OBJECTID":186408},"geometry":{"x":172109.20000000019,"y":2549332.1900000013}},{"attributes":{"ID":186410,"DIS_CODE":0,"TOWNNAME":"永康區","LI":"龍潭里","LIN":"36鄰","STREET":"中山北路","SECT":" ","MAREA":" ","LANE":"１６４巷","ALLEY":"１６０弄","HOUSE_NO":"４０號","E_COORD97":174679.20999999999,"N_COORD97":2547333.7200000002,"ADDRESS":"中山北路１６４巷１６０弄４０號","OBJECTID":186409},"geometry":{"x":174679.21000000089,"y":2547333.7200000025}},{"attributes":{"ID":186411,"DIS_CODE":0,"TOWNNAME":"永康區","LI":"龍潭里","LIN":"36鄰","STREET":"中山北路","SECT":" ","MAREA":" ","LANE":"１６４巷","ALLEY":"１６０弄","HOUSE_NO":"２０號","E_COORD97":174664.51999999999,"N_COORD97":2547365.52,"ADDRESS":"中山北路１６４巷１６０弄２０號","OBJECTID":186410},"geometry":{"x":174664.52000000142,"y":2547365.5199999996}},{"attributes":{"ID":186412,"DIS_CODE":0,"TOWNNAME":"永康區","LI":"\u25A0行里","LIN":"36鄰","STREET":"三村一街","SECT":" ","MAREA":" ","LANE":"１３８巷","ALLEY":"１８弄","HOUSE_NO":"２７號","E_COORD97":172123.79000000001,"N_COORD97":2549296.1800000002,"ADDRESS":"三村一街１３８巷１８弄２７號","OBJECTID":186411},"geometry":{"x":172123.78999999911,"y":2549296.1800000016}},{"attributes":{"ID":186413,"DIS_CODE":0,"TOWNNAME":"永康區","LI":"\u25A0行里","LIN":"36鄰","STREET":"三村一街","SECT":" ","MAREA":" ","LANE":"１３８巷","ALLEY":"１８弄","HOUSE_NO":"２５號","E_COORD97":172119.60999999999,"N_COORD97":2549295.1800000002,"ADDRESS":"三村一街１３８巷１８弄２５號","OBJECTID":186412},"geometry":{"x":172119.61000000034,"y":2549295.1800000016}},{"attributes":{"ID":186414,"DIS_CODE":0,"TOWNNAME":"永康區","LI":"龍潭里","LIN":"36鄰","STREET":"中山北路","SECT":" ","MAREA":" ","LANE":"１６４巷","ALLEY":"１６０弄","HOUSE_NO":"４６號","E_COORD97":174677.98000000001,"N_COORD97":2547311.48,"ADDRESS":"中山北路１６４巷１６０弄４６號","OBJECTID":186413},"geometry":{"x":174677.98000000138,"y":2547311.4800000023}},{"attributes":{"ID":186415,"DIS_CODE":0,"TOWNNAME":"後壁區","LI":"嘉苳里","LIN":"11鄰","STREET":" ","SECT":" ","MAREA":"本協","LANE":" ","ALLEY":" ","HOUSE_NO":"５號之３１","E_COORD97":187186.89999999999,"N_COORD97":2583615.25,"ADDRESS":"本協５號之３１","OBJECTID":186414},"geometry":{"x":187186.90000000224,"y":2583615.2499999981}},{"attributes":{"ID":186416,"DIS_CODE":0,"TOWNNAME":"後壁區","LI":"嘉苳里","LIN":"11鄰","STREET":" ","SECT":" ","MAREA":"本協","LANE":" ","ALLEY":" ","HOUSE_NO":"５號之３２","E_COORD97":187185.57000000001,"N_COORD97":2583620.79,"ADDRESS":"本協５號之３２","OBJECTID":186415},"geometry":{"x":187185.56999999937,"y":2583620.7899999972}},{"attributes":{"ID":186417,"DIS_CODE":0,"TOWNNAME":"後壁區","LI":"嘉苳里","LIN":"11鄰","STREET":" ","SECT":" ","MAREA":"本協","LANE":" ","ALLEY":" ","HOUSE_NO":"５號之３３","E_COORD97":187184.34,"N_COORD97":2583626.6200000001,"ADDRESS":"本協５號之３３","OBJECTID":186416},"geometry":{"x":187184.33999999985,"y":2583626.620000001}},{"attributes":{"ID":186418,"DIS_CODE":0,"TOWNNAME":"後壁區","LI":"嘉苳里","LIN":"11鄰","STREET":" ","SECT":" ","MAREA":"本協","LANE":" ","ALLEY":" ","HOUSE_NO":"５號之３４","E_COORD97":187163.03,"N_COORD97":2583623.23,"ADDRESS":"本協５號之３４","OBJECTID":186417},"geometry":{"x":187163.03000000119,"y":2583623.2300000023}},{"attributes":{"ID":186419,"DIS_CODE":0,"TOWNNAME":"後壁區","LI":"嘉苳里","LIN":"11鄰","STREET":" ","SECT":" ","MAREA":"本協","LANE":" ","ALLEY":" ","HOUSE_NO":"５號之３５","E_COORD97":187163.26999999999,"N_COORD97":2583617.79,"ADDRESS":"本協５號之３５","OBJECTID":186418},"geometry":{"x":187163.27000000142,"y":2583617.7900000028}},{"attributes":{"ID":186420,"DIS_CODE":0,"TOWNNAME":"後壁區","LI":"嘉苳里","LIN":"11鄰","STREET":" ","SECT":" ","MAREA":"本協","LANE":" ","ALLEY":" ","HOUSE_NO":"５號之３６","E_COORD97":187164.37,"N_COORD97":2583611.8700000001,"ADDRESS":"本協５號之３６","OBJECTID":186419},"geometry":{"x":187164.37000000011,"y":2583611.870000001}},{"attributes":{"ID":186421,"DIS_CODE":0,"TOWNNAME":"後壁區","LI":"嘉苳里","LIN":"11鄰","STREET":" ","SECT":" ","MAREA":"本協","LANE":" ","ALLEY":" ","HOUSE_NO":"５號之３７","E_COORD97":187165.41,"N_COORD97":2583606.4199999999,"ADDRESS":"本協５號之３７","OBJECTID":186420},"geometry":{"x":187165.41000000108,"y":2583606.4199999999}},{"attributes":{"ID":186422,"DIS_CODE":0,"TOWNNAME":"後壁區","LI":"嘉苳里","LIN":"11鄰","STREET":" ","SECT":" ","MAREA":"本協","LANE":" ","ALLEY":" ","HOUSE_NO":"５號之３８","E_COORD97":187166.22,"N_COORD97":2583601.3900000001,"ADDRESS":"本協５號之３８","OBJECTID":186421},"geometry":{"x":187166.22000000067,"y":2583601.3900000043}},{"attributes":{"ID":186423,"DIS_CODE":0,"TOWNNAME":"後壁區","LI":"嘉苳里","LIN":"11鄰","STREET":" ","SECT":" ","MAREA":"本協","LANE":" ","ALLEY":" ","HOUSE_NO":"５號之３９","E_COORD97":187166.32000000001,"N_COORD97":2583595.7799999998,"ADDRESS":"本協５號之３９","OBJECTID":186422},"geometry":{"x":187166.3200000003,"y":2583595.7800000012}},{"attributes":{"ID":186424,"DIS_CODE":0,"TOWNNAME":"後壁區","LI":"嘉苳里","LIN":"11鄰","STREET":" ","SECT":" ","MAREA":"本協","LANE":" ","ALLEY":" ","HOUSE_NO":"５號之４０","E_COORD97":187167.32000000001,"N_COORD97":2583590.1200000001,"ADDRESS":"本協５號之４０","OBJECTID":186423},"geometry":{"x":187167.32000000123,"y":2583590.1200000048}},{"attributes":{"ID":186425,"DIS_CODE":0,"TOWNNAME":"後壁區","LI":"嘉苳里","LIN":"11鄰","STREET":" ","SECT":" ","MAREA":"本協","LANE":" ","ALLEY":" ","HOUSE_NO":"５號之４１","E_COORD97":187168.47,"N_COORD97":2583584.6400000001,"ADDRESS":"本協５號之４１","OBJECTID":186424},"geometry":{"x":187168.46999999974,"y":2583584.6400000006}},{"attributes":{"ID":186426,"DIS_CODE":0,"TOWNNAME":"永康區","LI":"西灣里","LIN":"36鄰","STREET":"國光八街","SECT":" ","MAREA":" ","LANE":"８７巷","ALLEY":"２２弄","HOUSE_NO":"１９號","E_COORD97":174197.32000000001,"N_COORD97":2545694.4700000002,"ADDRESS":"國光八街８７巷２２弄１９號","OBJECTID":186425},"geometry":{"x":174197.32000000123,"y":2545694.4700000025}},{"attributes":{"ID":186427,"DIS_CODE":0,"TOWNNAME":"永康區","LI":"西灣里","LIN":"36鄰","STREET":"國光八街","SECT":" ","MAREA":" ","LANE":"８７巷","ALLEY":"２２弄","HOUSE_NO":"３５號","E_COORD97":174162.13,"N_COORD97":2545687.8500000001,"ADDRESS":"國光八街８７巷２２弄３５號","OBJECTID":186426},"geometry":{"x":174162.12999999989,"y":2545687.8500000015}},{"attributes":{"ID":186428,"DIS_CODE":0,"TOWNNAME":"安南區","LI":"淵中里","LIN":"10鄰","STREET":"本原街","SECT":"三段","MAREA":" ","LANE":" ","ALLEY":" ","HOUSE_NO":"２８０號","E_COORD97":165314.51000000001,"N_COORD97":2550178.4399999999,"ADDRESS":"本原街三段２８０號","OBJECTID":186427},"geometry":{"x":165314.51000000071,"y":2550178.4400000013}},{"attributes":{"ID":186429,"DIS_CODE":0,"TOWNNAME":"安南區","LI":"淵中里","LIN":"10鄰","STREET":"本原街","SECT":"三段","MAREA":" ","LANE":" ","ALLEY":" ","HOUSE_NO":"２７８號","E_COORD97":165314.69,"N_COORD97":2550182.1400000001,"ADDRESS":"本原街三段２７８號","OBJECTID":186428},"geometry":{"x":165314.69000000041,"y":2550182.1400000025}},{"attributes":{"ID":186430,"DIS_CODE":0,"TOWNNAME":"安南區","LI":"淵中里","LIN":"10鄰","STREET":"本原街","SECT":"三段","MAREA":" ","LANE":" ","ALLEY":" ","HOUSE_NO":"２６２號","E_COORD97":165318.31,"N_COORD97":2550206.1099999999,"ADDRESS":"本原街三段２６２號","OBJECTID":186429},"geometry":{"x":165318.30999999959,"y":2550206.1099999994}},{"attributes":{"ID":186431,"DIS_CODE":0,"TOWNNAME":"永康區","LI":"西灣里","LIN":"36鄰","STREET":"國光八街","SECT":" ","MAREA":" ","LANE":"８７巷","ALLEY":"２２弄","HOUSE_NO":"１６號","E_COORD97":174207.84,"N_COORD97":2545716.1299999999,"ADDRESS":"國光八街８７巷２２弄１６號","OBJECTID":186430},"geometry":{"x":174207.83999999985,"y":2545716.129999999}},{"attributes":{"ID":186432,"DIS_CODE":0,"TOWNNAME":"後壁區","LI":"嘉苳里","LIN":"11鄰","STREET":" ","SECT":" ","MAREA":"本協","LANE":" ","ALLEY":" ","HOUSE_NO":"５號之６","E_COORD97":187256.64999999999,"N_COORD97":2583568.2599999998,"ADDRESS":"本協５號之６","OBJECTID":186431},"geometry":{"x":187256.6500000013,"y":2583568.2600000016}},{"attributes":{"ID":186433,"DIS_CODE":0,"TOWNNAME":"後壁區","LI":"嘉苳里","LIN":"11鄰","STREET":" ","SECT":" ","MAREA":"本協","LANE":" ","ALLEY":" ","HOUSE_NO":"５號","E_COORD97":187245.51999999999,"N_COORD97":2583611.8199999998,"ADDRESS":"本協５號","OBJECTID":186432},"geometry":{"x":187245.51999999955,"y":2583611.820000004}},{"attributes":{"ID":186434,"DIS_CODE":0,"TOWNNAME":"後壁區","LI":"嘉苳里","LIN":"11鄰","STREET":" ","SECT":" ","MAREA":"本協","LANE":" ","ALLEY":" ","HOUSE_NO":"７號","E_COORD97":187172.53,"N_COORD97":2583574.9399999999,"ADDRESS":"本協７號","OBJECTID":186433},"geometry":{"x":187172.53000000119,"y":2583574.9399999995}},{"attributes":{"ID":186435,"DIS_CODE":0,"TOWNNAME":"後壁區","LI":"嘉苳里","LIN":"11鄰","STREET":" ","SECT":" ","MAREA":"本協","LANE":" ","ALLEY":" ","HOUSE_NO":"８號","E_COORD97":187176.64999999999,"N_COORD97":2583554.3700000001,"ADDRESS":"本協８號","OBJECTID":186434},"geometry":{"x":187176.64999999944,"y":2583554.370000001}},{"attributes":{"ID":186436,"DIS_CODE":0,"TOWNNAME":"後壁區","LI":"嘉苳里","LIN":"11鄰","STREET":" ","SECT":" ","MAREA":"本協","LANE":" ","ALLEY":" ","HOUSE_NO":"９號","E_COORD97":187152.32000000001,"N_COORD97":2583572.5499999998,"ADDRESS":"本協９號","OBJECTID":186435},"geometry":{"x":187152.32000000123,"y":2583572.5500000007}},{"attributes":{"ID":186437,"DIS_CODE":0,"TOWNNAME":"後壁區","LI":"新嘉里","LIN":"11鄰","STREET":" ","SECT":" ","MAREA":"白沙屯","LANE":" ","ALLEY":" ","HOUSE_NO":"１０８號","E_COORD97":179626.82000000001,"N_COORD97":2585542.79,"ADDRESS":"白沙屯１０８號","OBJECTID":186436},"geometry":{"x":179626.82000000216,"y":2585542.7899999991}},{"attributes":{"ID":186438,"DIS_CODE":0,"TOWNNAME":"後壁區","LI":"新嘉里","LIN":"11鄰","STREET":" ","SECT":" ","MAREA":"白沙屯","LANE":" ","ALLEY":" ","HOUSE_NO":"１０９號","E_COORD97":179628.60999999999,"N_COORD97":2585571.3700000001,"ADDRESS":"白沙屯１０９號","OBJECTID":186437},"geometry":{"x":179628.61000000127,"y":2585571.370000001}},{"attributes":{"ID":186439,"DIS_CODE":0,"TOWNNAME":"後壁區","LI":"新嘉里","LIN":"11鄰","STREET":" ","SECT":" ","MAREA":"白沙屯","LANE":" ","ALLEY":" ","HOUSE_NO":"１１０號","E_COORD97":179613.41,"N_COORD97":2585586.1400000001,"ADDRESS":"白沙屯１１０號","OBJECTID":186438},"geometry":{"x":179613.41000000015,"y":2585586.1400000006}},{"attributes":{"ID":186440,"DIS_CODE":0,"TOWNNAME":"後壁區","LI":"新嘉里","LIN":"11鄰","STREET":" ","SECT":" ","MAREA":"白沙屯","LANE":" ","ALLEY":" ","HOUSE_NO":"１１１號","E_COORD97":179612.01000000001,"N_COORD97":2585597.3399999999,"ADDRESS":"白沙屯１１１號","OBJECTID":186439},"geometry":{"x":179612.01000000071,"y":2585597.3399999999}},{"attributes":{"ID":186441,"DIS_CODE":0,"TOWNNAME":"後壁區","LI":"新嘉里","LIN":"11鄰","STREET":" ","SECT":" ","MAREA":"白沙屯","LANE":" ","ALLEY":" ","HOUSE_NO":"１１２號","E_COORD97":179602.92000000001,"N_COORD97":2585590.3100000001,"ADDRESS":"白沙屯１１２號","OBJECTID":186440},"geometry":{"x":179602.91999999993,"y":2585590.3100000024}},{"attributes":{"ID":186442,"DIS_CODE":0,"TOWNNAME":"後壁區","LI":"新嘉里","LIN":"11鄰","STREET":" ","SECT":" ","MAREA":"白沙屯","LANE":" ","ALLEY":" ","HOUSE_NO":"１１３號","E_COORD97":179592.60999999999,"N_COORD97":2585618.1000000001,"ADDRESS":"白沙屯１１３號","OBJECTID":186441},"geometry":{"x":179592.6099999994,"y":2585618.0999999996}},{"attributes":{"ID":186443,"DIS_CODE":0,"TOWNNAME":"後壁區","LI":"新嘉里","LIN":"11鄰","STREET":" ","SECT":" ","MAREA":"白沙屯","LANE":" ","ALLEY":" ","HOUSE_NO":"１１５號之１","E_COORD97":179611.14000000001,"N_COORD97":2585625.3999999999,"ADDRESS":"白沙屯１１５號之１","OBJECTID":186442},"geometry":{"x":179611.1400000006,"y":2585625.4000000041}},{"attributes":{"ID":186444,"DIS_CODE":0,"TOWNNAME":"後壁區","LI":"新嘉里","LIN":"11鄰","STREET":" ","SECT":" ","MAREA":"白沙屯","LANE":" ","ALLEY":" ","HOUSE_NO":"１１５號","E_COORD97":179627.48999999999,"N_COORD97":2585630.6400000001,"ADDRESS":"白沙屯１１５號","OBJECTID":186443},"geometry":{"x":179627.49000000115,"y":2585630.6400000043}},{"attributes":{"ID":186445,"DIS_CODE":0,"TOWNNAME":"後壁區","LI":"竹新里","LIN":"11鄰","STREET":" ","SECT":" ","MAREA":"竹圍後","LANE":" ","ALLEY":" ","HOUSE_NO":"１０４號之１","E_COORD97":178716.10000000001,"N_COORD97":2582423.8700000001,"ADDRESS":"竹圍後１０４號之１","OBJECTID":186444},"geometry":{"x":178716.10000000056,"y":2582423.8700000029}},{"attributes":{"ID":186446,"DIS_CODE":0,"TOWNNAME":"後壁區","LI":"竹新里","LIN":"11鄰","STREET":" ","SECT":" ","MAREA":"竹圍後","LANE":" ","ALLEY":" ","HOUSE_NO":"１０７號之３","E_COORD97":178673.82999999999,"N_COORD97":2582446.2999999998,"ADDRESS":"竹圍後１０７號之３","OBJECTID":186445},"geometry":{"x":178673.83000000194,"y":2582446.3000000045}},{"attributes":{"ID":186447,"DIS_CODE":0,"TOWNNAME":"永康區","LI":"西灣里","LIN":"36鄰","STREET":"國光八街","SECT":" ","MAREA":" ","LANE":"８７巷","ALLEY":"２２弄","HOUSE_NO":"２７號","E_COORD97":174178.32999999999,"N_COORD97":2545692.1499999999,"ADDRESS":"國光八街８７巷２２弄２７號","OBJECTID":186446},"geometry":{"x":174178.33000000194,"y":2545692.1500000022}},{"attributes":{"ID":186448,"DIS_CODE":0,"TOWNNAME":"永康區","LI":"西灣里","LIN":"36鄰","STREET":"國光八街","SECT":" ","MAREA":" ","LANE":"８７巷","ALLEY":"２２弄","HOUSE_NO":"２５號","E_COORD97":174182.94,"N_COORD97":2545692.8999999999,"ADDRESS":"國光八街８７巷２２弄２５號","OBJECTID":186447},"geometry":{"x":174182.94000000227,"y":2545692.9000000004}},{"attributes":{"ID":186449,"DIS_CODE":0,"TOWNNAME":"永康區","LI":"西灣里","LIN":"36鄰","STREET":"國光八街","SECT":" ","MAREA":" ","LANE":"８７巷","ALLEY":"２２弄","HOUSE_NO":"２３號","E_COORD97":174187.44,"N_COORD97":2545693.3999999999,"ADDRESS":"國光八街８７巷２２弄２３號","OBJECTID":186448},"geometry":{"x":174187.44000000041,"y":2545693.4000000041}},{"attributes":{"ID":186450,"DIS_CODE":0,"TOWNNAME":"永康區","LI":"西灣里","LIN":"36鄰","STREET":"國光八街","SECT":" ","MAREA":" ","LANE":"８７巷","ALLEY":"２２弄","HOUSE_NO":"３７號","E_COORD97":174156.92999999999,"N_COORD97":2545686.6000000001,"ADDRESS":"國光八街８７巷２２弄３７號","OBJECTID":186449},"geometry":{"x":174156.93000000156,"y":2545686.5999999996}},{"attributes":{"ID":186451,"DIS_CODE":0,"TOWNNAME":"安南區","LI":"淵中里","LIN":"10鄰","STREET":"本原街","SECT":"三段","MAREA":" ","LANE":" ","ALLEY":" ","HOUSE_NO":"２６４號","E_COORD97":165316.76999999999,"N_COORD97":2550202.8599999999,"ADDRESS":"本原街三段２６４號","OBJECTID":186450},"geometry":{"x":165316.76999999955,"y":2550202.8600000013}},{"attributes":{"ID":186452,"DIS_CODE":0,"TOWNNAME":"後壁區","LI":"竹新里","LIN":"11鄰","STREET":" ","SECT":" ","MAREA":"竹圍後","LANE":" ","ALLEY":" ","HOUSE_NO":"１０８號之１","E_COORD97":178686.98999999999,"N_COORD97":2582488.1699999999,"ADDRESS":"竹圍後１０８號之１","OBJECTID":186451},"geometry":{"x":178686.99000000115,"y":2582488.1700000018}},{"attributes":{"ID":186453,"DIS_CODE":0,"TOWNNAME":"後壁區","LI":"竹新里","LIN":"11鄰","STREET":" ","SECT":" ","MAREA":"竹圍後","LANE":" ","ALLEY":" ","HOUSE_NO":"１０８號之２","E_COORD97":178701.95000000001,"N_COORD97":2582494.4399999999,"ADDRESS":"竹圍後１０８號之２","OBJECTID":186452},"geometry":{"x":178701.95000000205,"y":2582494.4399999995}},{"attributes":{"ID":186454,"DIS_CODE":0,"TOWNNAME":"後壁區","LI":"竹新里","LIN":"11鄰","STREET":" ","SECT":" ","MAREA":"竹圍後","LANE":" ","ALLEY":" ","HOUSE_NO":"１０８號之３","E_COORD97":178700.78,"N_COORD97":2582473.3900000001,"ADDRESS":"竹圍後１０８號之３","OBJECTID":186453},"geometry":{"x":178700.78000000026,"y":2582473.3900000025}},{"attributes":{"ID":186455,"DIS_CODE":0,"TOWNNAME":"後壁區","LI":"竹新里","LIN":"11鄰","STREET":" ","SECT":" ","MAREA":"竹圍後","LANE":" ","ALLEY":" ","HOUSE_NO":"１０８號","E_COORD97":178685.92000000001,"N_COORD97":2582461.0499999998,"ADDRESS":"竹圍後１０８號","OBJECTID":186454},"geometry":{"x":178685.91999999993,"y":2582461.0500000007}},{"attributes":{"ID":186456,"DIS_CODE":0,"TOWNNAME":"後壁區","LI":"竹新里","LIN":"11鄰","STREET":" ","SECT":" ","MAREA":"竹圍後","LANE":" ","ALLEY":" ","HOUSE_NO":"１１０號之２","E_COORD97":178735.94,"N_COORD97":2582486.1299999999,"ADDRESS":"竹圍後１１０號之２","OBJECTID":186455},"geometry":{"x":178735.94000000041,"y":2582486.1300000027}},{"attributes":{"ID":186457,"DIS_CODE":0,"TOWNNAME":"後壁區","LI":"竹新里","LIN":"11鄰","STREET":" ","SECT":" ","MAREA":"竹圍後","LANE":" ","ALLEY":" ","HOUSE_NO":"１１２號之１","E_COORD97":178725.95000000001,"N_COORD97":2582495.2000000002,"ADDRESS":"竹圍後１１２號之１","OBJECTID":186456},"geometry":{"x":178725.95000000112,"y":2582495.1999999993}},{"attributes":{"ID":186458,"DIS_CODE":0,"TOWNNAME":"後壁區","LI":"後壁里","LIN":"11鄰","STREET":" ","SECT":" ","MAREA":"後壁","LANE":" ","ALLEY":" ","HOUSE_NO":"１８０號之５","E_COORD97":185060.51000000001,"N_COORD97":2584942.9199999999,"ADDRESS":"後壁１８０號之５","OBJECTID":186457},"geometry":{"x":185060.51000000071,"y":2584942.9199999981}},{"attributes":{"ID":186459,"DIS_CODE":0,"TOWNNAME":"後壁區","LI":"後壁里","LIN":"11鄰","STREET":" ","SECT":" ","MAREA":"後壁","LANE":" ","ALLEY":" ","HOUSE_NO":"１８０號之６","E_COORD97":185060.42000000001,"N_COORD97":2584938.7400000002,"ADDRESS":"後壁１８０號之６","OBJECTID":186458},"geometry":{"x":185060.41999999993,"y":2584938.7400000021}},{"attributes":{"ID":186460,"DIS_CODE":0,"TOWNNAME":"安南區","LI":"城南里","LIN":"10鄰","STREET":"城西街","SECT":"一段","MAREA":" ","LANE":" ","ALLEY":" ","HOUSE_NO":"２７２號","E_COORD97":160295.57999999999,"N_COORD97":2551173.1099999999,"ADDRESS":"城西街一段２７２號","OBJECTID":186459},"geometry":{"x":160295.58000000007,"y":2551173.1100000031}},{"attributes":{"ID":186461,"DIS_CODE":0,"TOWNNAME":"安南區","LI":"新順里","LIN":"10鄰","STREET":"安和路","SECT":"二段","MAREA":" ","LANE":" ","ALLEY":" ","HOUSE_NO":"３０７號","E_COORD97":169701.67000000001,"N_COORD97":2549296.7799999998,"ADDRESS":"安和路二段３０７號","OBJECTID":186460},"geometry":{"x":169701.66999999993,"y":2549296.7799999993}},{"attributes":{"ID":186462,"DIS_CODE":0,"TOWNNAME":"東區","LI":"東光里","LIN":"6鄰","STREET":"東興路","SECT":" ","MAREA":" ","LANE":" ","ALLEY":" ","HOUSE_NO":"１３８號","E_COORD97":170998.01000000001,"N_COORD97":2543699.1000000001,"ADDRESS":"東興路１３８號","OBJECTID":186461},"geometry":{"x":170998.00999999978,"y":2543699.1000000015}},{"attributes":{"ID":186463,"DIS_CODE":0,"TOWNNAME":"永康區","LI":"西灣里","LIN":"36鄰","STREET":"國光八街","SECT":" ","MAREA":" ","LANE":"８７巷","ALLEY":"２２弄","HOUSE_NO":"３３號","E_COORD97":174166.42000000001,"N_COORD97":2545688.3500000001,"ADDRESS":"國光八街８７巷２２弄３３號","OBJECTID":186462},"geometry":{"x":174166.42000000086,"y":2545688.3499999996}},{"attributes":{"ID":186464,"DIS_CODE":0,"TOWNNAME":"後壁區","LI":"侯伯里","LIN":"11鄰","STREET":" ","SECT":" ","MAREA":"後壁寮","LANE":" ","ALLEY":" ","HOUSE_NO":"９２號之４","E_COORD97":185500.42999999999,"N_COORD97":2585420.4100000001,"ADDRESS":"後壁寮９２號之４","OBJECTID":186463},"geometry":{"x":185500.4299999997,"y":2585420.4100000001}},{"attributes":{"ID":186465,"DIS_CODE":0,"TOWNNAME":"永康區","LI":"龍潭里","LIN":"36鄰","STREET":"中山北路","SECT":" ","MAREA":" ","LANE":"１６４巷","ALLEY":"１６０弄","HOUSE_NO":"２１號","E_COORD97":174698,"N_COORD97":2547366,"ADDRESS":"中山北路１６４巷１６０弄２１號","OBJECTID":186464},"geometry":{"x":174698.00000000093,"y":2547366}},{"attributes":{"ID":186466,"DIS_CODE":0,"TOWNNAME":"永康區","LI":"龍潭里","LIN":"36鄰","STREET":"中山北路","SECT":" ","MAREA":" ","LANE":"１６４巷","ALLEY":"１６０弄","HOUSE_NO":"４３號","E_COORD97":174699.45000000001,"N_COORD97":2547322.2400000002,"ADDRESS":"中山北路１６４巷１６０弄４３號","OBJECTID":186465},"geometry":{"x":174699.45000000019,"y":2547322.2400000021}},{"attributes":{"ID":186467,"DIS_CODE":0,"TOWNNAME":"歸仁區","LI":"南保里","LIN":"59鄰","STREET":"中山路","SECT":"三段","MAREA":" ","LANE":"８１巷","ALLEY":"２３弄","HOUSE_NO":"８號","E_COORD97":176795.09,"N_COORD97":2540788.0299999998,"ADDRESS":"中山路三段８１巷２３弄８號","OBJECTID":186466},"geometry":{"x":176795.08999999985,"y":2540788.0299999993}},{"attributes":{"ID":186468,"DIS_CODE":0,"TOWNNAME":"永康區","LI":"龍潭里","LIN":"36鄰","STREET":"中山北路","SECT":" ","MAREA":" ","LANE":"１６４巷","ALLEY":"１６０弄","HOUSE_NO":"１４號","E_COORD97":174676.47,"N_COORD97":2547365.52,"ADDRESS":"中山北路１６４巷１６０弄１４號","OBJECTID":186467},"geometry":{"x":174676.46999999974,"y":2547365.5199999996}},{"attributes":{"ID":186469,"DIS_CODE":0,"TOWNNAME":"永康區","LI":"龍潭里","LIN":"36鄰","STREET":"中山北路","SECT":" ","MAREA":" ","LANE":"１６４巷","ALLEY":"１６０弄","HOUSE_NO":"５０號","E_COORD97":174669.98000000001,"N_COORD97":2547311.48,"ADDRESS":"中山北路１６４巷１６０弄５０號","OBJECTID":186468},"geometry":{"x":174669.98000000138,"y":2547311.4800000023}},{"attributes":{"ID":186470,"DIS_CODE":0,"TOWNNAME":"永康區","LI":"龍潭里","LIN":"36鄰","STREET":"中山北路","SECT":" ","MAREA":" ","LANE":"１６４巷","ALLEY":"１６０弄","HOUSE_NO":"１８號","E_COORD97":174668.51999999999,"N_COORD97":2547365.52,"ADDRESS":"中山北路１６４巷１６０弄１８號","OBJECTID":186469},"geometry":{"x":174668.52000000048,"y":2547365.5199999996}},{"attributes":{"ID":186471,"DIS_CODE":0,"TOWNNAME":"永康區","LI":"龍潭里","LIN":"36鄰","STREET":"中山北路","SECT":" ","MAREA":" ","LANE":"１６４巷","ALLEY":"１６０弄","HOUSE_NO":"４８號","E_COORD97":174674.03,"N_COORD97":2547311.48,"ADDRESS":"中山北路１６４巷１６０弄４８號","OBJECTID":186470},"geometry":{"x":174674.03000000119,"y":2547311.4800000023}},{"attributes":{"ID":186472,"DIS_CODE":0,"TOWNNAME":"永康區","LI":"龍潭里","LIN":"36鄰","STREET":"中山北路","SECT":" ","MAREA":" ","LANE":"１６４巷","ALLEY":"１６０弄","HOUSE_NO":"４１號","E_COORD97":174698.66,"N_COORD97":2547325.9900000002,"ADDRESS":"中山北路１６４巷１６０弄４１號","OBJECTID":186471},"geometry":{"x":174698.66000000108,"y":2547325.9900000002}},{"attributes":{"ID":186473,"DIS_CODE":0,"TOWNNAME":"永康區","LI":"\u25A0行里","LIN":"36鄰","STREET":"三村一街","SECT":" ","MAREA":" ","LANE":"１３８巷","ALLEY":"１８弄","HOUSE_NO":"２０號","E_COORD97":172110.01000000001,"N_COORD97":2549283.96,"ADDRESS":"三村一街１３８巷１８弄２０號","OBJECTID":186472},"geometry":{"x":172110.00999999978,"y":2549283.9600000046}},{"attributes":{"ID":186474,"DIS_CODE":0,"TOWNNAME":"永康區","LI":"龍潭里","LIN":"36鄰","STREET":"中山北路","SECT":" ","MAREA":" ","LANE":"１６４巷","ALLEY":"１６０弄","HOUSE_NO":"３４號","E_COORD97":174673.32000000001,"N_COORD97":2547351.9900000002,"ADDRESS":"中山北路１６４巷１６０弄３４號","OBJECTID":186473},"geometry":{"x":174673.3200000003,"y":2547351.9900000021}},{"attributes":{"ID":186475,"DIS_CODE":0,"TOWNNAME":"永康區","LI":"龍潭里","LIN":"36鄰","STREET":"中山北路","SECT":" ","MAREA":" ","LANE":"１６４巷","ALLEY":"１６０弄","HOUSE_NO":"１９號","E_COORD97":174697.81,"N_COORD97":2547369.75,"ADDRESS":"中山北路１６４巷１６０弄１９號","OBJECTID":186474},"geometry":{"x":174697.80999999959,"y":2547369.7500000019}},{"attributes":{"ID":186476,"DIS_CODE":0,"TOWNNAME":"永康區","LI":"龍潭里","LIN":"36鄰","STREET":"中山北路","SECT":" ","MAREA":" ","LANE":"１６４巷","ALLEY":"１６０弄","HOUSE_NO":"５６號","E_COORD97":174657.69,"N_COORD97":2547315.6099999999,"ADDRESS":"中山北路１６４巷１６０弄５６號","OBJECTID":186475},"geometry":{"x":174657.69000000227,"y":2547315.6100000013}},{"attributes":{"ID":186477,"DIS_CODE":0,"TOWNNAME":"永康區","LI":"龍潭里","LIN":"36鄰","STREET":"中山北路","SECT":" ","MAREA":" ","LANE":"１６４巷","ALLEY":"１６０弄","HOUSE_NO":"３６號","E_COORD97":174677.17999999999,"N_COORD97":2547351.9900000002,"ADDRESS":"中山北路１６４巷１６０弄３６號","OBJECTID":186476},"geometry":{"x":174677.18000000156,"y":2547351.9900000021}},{"attributes":{"ID":186478,"DIS_CODE":0,"TOWNNAME":"永康區","LI":"龍潭里","LIN":"36鄰","STREET":"中山北路","SECT":" ","MAREA":" ","LANE":"１６４巷","ALLEY":"１６０弄","HOUSE_NO":"３２號","E_COORD97":174669.17999999999,"N_COORD97":2547351.9900000002,"ADDRESS":"中山北路１６４巷１６０弄３２號","OBJECTID":186477},"geometry":{"x":174669.18000000063,"y":2547351.9900000021}},{"attributes":{"ID":186479,"DIS_CODE":0,"TOWNNAME":"永康區","LI":"\u25A0行里","LIN":"36鄰","STREET":"三村一街","SECT":" ","MAREA":" ","LANE":"１３８巷","ALLEY":"１８弄","HOUSE_NO":"３６號","E_COORD97":172132.75,"N_COORD97":2549285.6800000002,"ADDRESS":"三村一街１３８巷１８弄３６號","OBJECTID":186478},"geometry":{"x":172132.75000000093,"y":2549285.6800000016}},{"attributes":{"ID":186480,"DIS_CODE":0,"TOWNNAME":"永康區","LI":"龍潭里","LIN":"36鄰","STREET":"中山北路","SECT":" ","MAREA":" ","LANE":"１６４巷","ALLEY":"１６０弄","HOUSE_NO":"４２號","E_COORD97":174679.41,"N_COORD97":2547329.4700000002,"ADDRESS":"中山北路１６４巷１６０弄４２號","OBJECTID":186479},"geometry":{"x":174679.40999999922,"y":2547329.4700000007}},{"attributes":{"ID":186481,"DIS_CODE":0,"TOWNNAME":"仁德區","LI":"仁德里","LIN":"39鄰","STREET":"文宏路","SECT":" ","MAREA":" ","LANE":" ","ALLEY":" ","HOUSE_NO":"１６０號","E_COORD97":172432.91658399999,"N_COORD97":2541852.93731,"ADDRESS":"文宏路１６０號","OBJECTID":186480},"geometry":{"x":172432.91658399999,"y":2541852.9373129997}},{"attributes":{"ID":186482,"DIS_CODE":0,"TOWNNAME":"永康區","LI":"龍潭里","LIN":"36鄰","STREET":"中山北路","SECT":" ","MAREA":" ","LANE":"１６４巷","ALLEY":"１６０弄","HOUSE_NO":"２７號","E_COORD97":174698.16,"N_COORD97":2547354.25,"ADDRESS":"中山北路１６４巷１６０弄２７號","OBJECTID":186481},"geometry":{"x":174698.16000000201,"y":2547354.25}},{"attributes":{"ID":186483,"DIS_CODE":0,"TOWNNAME":"永康區","LI":"龍潭里","LIN":"36鄰","STREET":"中山北路","SECT":" ","MAREA":" ","LANE":"１６４巷","ALLEY":"１６０弄","HOUSE_NO":"４４號","E_COORD97":174682.41,"N_COORD97":2547311.48,"ADDRESS":"中山北路１６４巷１６０弄４４號","OBJECTID":186482},"geometry":{"x":174682.41000000015,"y":2547311.4800000023}},{"attributes":{"ID":186484,"DIS_CODE":0,"TOWNNAME":"永康區","LI":"龍潭里","LIN":"36鄰","STREET":"中山北路","SECT":" ","MAREA":" ","LANE":"１６４巷","ALLEY":"１６０弄","HOUSE_NO":"３５號","E_COORD97":174698.31,"N_COORD97":2547338.25,"ADDRESS":"中山北路１６４巷１６０弄３５號","OBJECTID":186483},"geometry":{"x":174698.31000000145,"y":2547338.2500000037}},{"attributes":{"ID":186485,"DIS_CODE":0,"TOWNNAME":"永康區","LI":"龍潭里","LIN":"36鄰","STREET":"中山北路","SECT":" ","MAREA":" ","LANE":"１６４巷","ALLEY":"１６０弄","HOUSE_NO":"３８號","E_COORD97":174681.57000000001,"N_COORD97":2547351.9900000002,"ADDRESS":"中山北路１６４巷１６０弄３８號","OBJECTID":186484},"geometry":{"x":174681.5700000003,"y":2547351.9900000021}},{"attributes":{"ID":186486,"DIS_CODE":0,"TOWNNAME":"永康區","LI":"龍潭里","LIN":"36鄰","STREET":"中山北路","SECT":" ","MAREA":" ","LANE":"１６４巷","ALLEY":"１６０弄","HOUSE_NO":"１７號","E_COORD97":174697.47,"N_COORD97":2547374,"ADDRESS":"中山北路１６４巷１６０弄１７號","OBJECTID":186485},"geometry":{"x":174697.47000000067,"y":2547374.0000000037}},{"attributes":{"ID":186487,"DIS_CODE":0,"TOWNNAME":"安南區","LI":"海南里","LIN":"10鄰","STREET":"府安路","SECT":"七段","MAREA":" ","LANE":" ","ALLEY":" ","HOUSE_NO":"１８號","E_COORD97":166095.16,"N_COORD97":2546014.54,"ADDRESS":"府安路七段１８號","OBJECTID":186486},"geometry":{"x":166095.16000000201,"y":2546014.540000001}},{"attributes":{"ID":186488,"DIS_CODE":0,"TOWNNAME":"後壁區","LI":"後壁里","LIN":"11鄰","STREET":" ","SECT":" ","MAREA":"後壁","LANE":" ","ALLEY":" ","HOUSE_NO":"１８０號之７","E_COORD97":185060.45999999999,"N_COORD97":2584934.6099999999,"ADDRESS":"後壁１８０號之７","OBJECTID":186487},"geometry":{"x":185060.46000000183,"y":2584934.6100000031}},{"attributes":{"ID":186489,"DIS_CODE":0,"TOWNNAME":"後壁區","LI":"後壁里","LIN":"11鄰","STREET":" ","SECT":" ","MAREA":"後壁","LANE":" ","ALLEY":" ","HOUSE_NO":"１８０號之８","E_COORD97":185060.22,"N_COORD97":2584930.3100000001,"ADDRESS":"後壁１８０號之８","OBJECTID":186488},"geometry":{"x":185060.22000000067,"y":2584930.3100000005}},{"attributes":{"ID":186490,"DIS_CODE":0,"TOWNNAME":"後壁區","LI":"後壁里","LIN":"11鄰","STREET":" ","SECT":" ","MAREA":"後壁","LANE":" ","ALLEY":" ","HOUSE_NO":"１８０號之９","E_COORD97":185059.79999999999,"N_COORD97":2584926.0800000001,"ADDRESS":"後壁１８０號之９","OBJECTID":186489},"geometry":{"x":185059.80000000075,"y":2584926.0800000019}},{"attributes":{"ID":186491,"DIS_CODE":0,"TOWNNAME":"永康區","LI":"龍潭里","LIN":"36鄰","STREET":"中山北路","SECT":" ","MAREA":" ","LANE":"１６４巷","ALLEY":"１６０弄","HOUSE_NO":"３１號","E_COORD97":174698.26000000001,"N_COORD97":2547346,"ADDRESS":"中山北路１６４巷１６０弄３１號","OBJECTID":186490},"geometry":{"x":174698.25999999978,"y":2547346}},{"attributes":{"ID":186492,"DIS_CODE":0,"TOWNNAME":"永康區","LI":"\u25A0行里","LIN":"36鄰","STREET":"三村一街","SECT":" ","MAREA":" ","LANE":"１３８巷","ALLEY":"４８弄","HOUSE_NO":"１６號","E_COORD97":172100.79000000001,"N_COORD97":2549331.6899999999,"ADDRESS":"三村一街１３８巷４８弄１６號","OBJECTID":186491},"geometry":{"x":172100.79000000097,"y":2549331.6900000032}},{"attributes":{"ID":186493,"DIS_CODE":0,"TOWNNAME":"永康區","LI":"龍潭里","LIN":"36鄰","STREET":"中山北路","SECT":" ","MAREA":" ","LANE":"１６４巷","ALLEY":"１６０弄","HOUSE_NO":"５４號","E_COORD97":174661.79000000001,"N_COORD97":2547315.6099999999,"ADDRESS":"中山北路１６４巷１６０弄５４號","OBJECTID":186492},"geometry":{"x":174661.79000000097,"y":2547315.6100000013}},{"attributes":{"ID":186494,"DIS_CODE":0,"TOWNNAME":"永康區","LI":"龍潭里","LIN":"36鄰","STREET":"中山北路","SECT":" ","MAREA":" ","LANE":"１６４巷","ALLEY":"１６０弄","HOUSE_NO":"３７號","E_COORD97":174698.35999999999,"N_COORD97":2547333.9900000002,"ADDRESS":"中山北路１６４巷１６０弄３７號","OBJECTID":186493},"geometry":{"x":174698.36000000034,"y":2547333.9900000021}},{"attributes":{"ID":186495,"DIS_CODE":0,"TOWNNAME":"永康區","LI":"龍潭里","LIN":"36鄰","STREET":"中山北路","SECT":" ","MAREA":" ","LANE":"１６４巷","ALLEY":"１６０弄","HOUSE_NO":"１６號","E_COORD97":174672.10000000001,"N_COORD97":2547365.52,"ADDRESS":"中山北路１６４巷１６０弄１６號","OBJECTID":186494},"geometry":{"x":174672.09999999963,"y":2547365.5199999996}},{"attributes":{"ID":186496,"DIS_CODE":0,"TOWNNAME":"永康區","LI":"\u25A0行里","LIN":"36鄰","STREET":"三村一街","SECT":" ","MAREA":" ","LANE":"１３８巷","ALLEY":"１８弄","HOUSE_NO":"２３號","E_COORD97":172114.89999999999,"N_COORD97":2549304.4300000002,"ADDRESS":"三村一街１３８巷１８弄２３號","OBJECTID":186495},"geometry":{"x":172114.89999999944,"y":2549304.4300000016}},{"attributes":{"ID":186497,"DIS_CODE":0,"TOWNNAME":"永康區","LI":"\u25A0行里","LIN":"36鄰","STREET":"三村一街","SECT":" ","MAREA":" ","LANE":"１３８巷","ALLEY":"１８弄","HOUSE_NO":"１７號","E_COORD97":172102.19,"N_COORD97":2549303.9300000002,"ADDRESS":"三村一街１３８巷１８弄１７號","OBJECTID":186496},"geometry":{"x":172102.19000000041,"y":2549303.9300000016}},{"attributes":{"ID":186498,"DIS_CODE":0,"TOWNNAME":"永康區","LI":"\u25A0行里","LIN":"36鄰","STREET":"三村一街","SECT":" ","MAREA":" ","LANE":"１３８巷","ALLEY":"４８弄","HOUSE_NO":"１８號","E_COORD97":172104.64999999999,"N_COORD97":2549331.9399999999,"ADDRESS":"三村一街１３８巷４８弄１８號","OBJECTID":186497},"geometry":{"x":172104.65000000037,"y":2549331.9399999995}},{"attributes":{"ID":186499,"DIS_CODE":0,"TOWNNAME":"後壁區","LI":"後壁里","LIN":"11鄰","STREET":" ","SECT":" ","MAREA":"後壁","LANE":" ","ALLEY":" ","HOUSE_NO":"１８０號","E_COORD97":185092.57999999999,"N_COORD97":2584923.1099999999,"ADDRESS":"後壁１８０號","OBJECTID":186498},"geometry":{"x":185092.58000000101,"y":2584923.1099999994}},{"attributes":{"ID":186500,"DIS_CODE":0,"TOWNNAME":"永康區","LI":"龍潭里","LIN":"36鄰","STREET":"中山北路","SECT":" ","MAREA":" ","LANE":"１６４巷","ALLEY":"１６０弄","HOUSE_NO":"１５號","E_COORD97":174697.20999999999,"N_COORD97":2547377.9900000002,"ADDRESS":"中山北路１６４巷１６０弄１５號","OBJECTID":186499},"geometry":{"x":174697.20999999996,"y":2547377.9900000021}},{"attributes":{"ID":186501,"DIS_CODE":0,"TOWNNAME":"永康區","LI":"\u25A0行里","LIN":"36鄰","STREET":"三村一街","SECT":" ","MAREA":" ","LANE":"１３８巷","ALLEY":"４８弄","HOUSE_NO":"３２號","E_COORD97":172130.44,"N_COORD97":2549333.1899999999,"ADDRESS":"三村一街１３８巷４８弄３２號","OBJECTID":186500},"geometry":{"x":172130.44000000134,"y":2549333.1900000013}},{"attributes":{"ID":186502,"DIS_CODE":0,"TOWNNAME":"後壁區","LI":"後壁里","LIN":"11鄰","STREET":" ","SECT":" ","MAREA":"後壁","LANE":" ","ALLEY":" ","HOUSE_NO":"１８１號","E_COORD97":185097.29000000001,"N_COORD97":2584953.5800000001,"ADDRESS":"後壁１８１號","OBJECTID":186501},"geometry":{"x":185097.2900000019,"y":2584953.5800000019}},{"attributes":{"ID":186503,"DIS_CODE":0,"TOWNNAME":"後壁區","LI":"後壁里","LIN":"11鄰","STREET":" ","SECT":" ","MAREA":"後壁","LANE":" ","ALLEY":" ","HOUSE_NO":"１８２號","E_COORD97":185096.39000000001,"N_COORD97":2584969.4399999999,"ADDRESS":"後壁１８２號","OBJECTID":186502},"geometry":{"x":185096.3900000006,"y":2584969.4399999976}},{"attributes":{"ID":186504,"DIS_CODE":0,"TOWNNAME":"後壁區","LI":"後壁里","LIN":"11鄰","STREET":" ","SECT":" ","MAREA":"後壁","LANE":" ","ALLEY":" ","HOUSE_NO":"１８３號","E_COORD97":185113.14000000001,"N_COORD97":2584967.1800000002,"ADDRESS":"後壁１８３號","OBJECTID":186503},"geometry":{"x":185113.14000000153,"y":2584967.1799999997}},{"attributes":{"ID":186505,"DIS_CODE":0,"TOWNNAME":"後壁區","LI":"後壁里","LIN":"11鄰","STREET":" ","SECT":" ","MAREA":"後壁","LANE":" ","ALLEY":" ","HOUSE_NO":"１８４號之１","E_COORD97":185142.45999999999,"N_COORD97":2584957.79,"ADDRESS":"後壁１８４號之１","OBJECTID":186504},"geometry":{"x":185142.46000000089,"y":2584957.790000001}},{"attributes":{"ID":186506,"DIS_CODE":0,"TOWNNAME":"後壁區","LI":"後壁里","LIN":"11鄰","STREET":" ","SECT":" ","MAREA":"後壁","LANE":" ","ALLEY":" ","HOUSE_NO":"１８４號","E_COORD97":185133.26999999999,"N_COORD97":2584963.3799999999,"ADDRESS":"後壁１８４號","OBJECTID":186505},"geometry":{"x":185133.26999999955,"y":2584963.3800000008}},{"attributes":{"ID":186507,"DIS_CODE":0,"TOWNNAME":"後壁區","LI":"後壁里","LIN":"11鄰","STREET":" ","SECT":" ","MAREA":"後壁","LANE":" ","ALLEY":" ","HOUSE_NO":"１８５號","E_COORD97":185132.45999999999,"N_COORD97":2584995.71,"ADDRESS":"後壁１８５號","OBJECTID":186506},"geometry":{"x":185132.45999999996,"y":2584995.7100000009}},{"attributes":{"ID":186508,"DIS_CODE":0,"TOWNNAME":"永康區","LI":"\u25A0行里","LIN":"36鄰","STREET":"三村一街","SECT":" ","MAREA":" ","LANE":"１３８巷","ALLEY":"１８弄","HOUSE_NO":"３２號","E_COORD97":172128.70000000001,"N_COORD97":2549285.4300000002,"ADDRESS":"三村一街１３８巷１８弄３２號","OBJECTID":186507},"geometry":{"x":172128.70000000112,"y":2549285.4299999997}},{"attributes":{"ID":186509,"DIS_CODE":0,"TOWNNAME":"東區","LI":"大智里","LIN":"5鄰","STREET":"長東街","SECT":" ","MAREA":" ","LANE":"４１巷","ALLEY":"７弄","HOUSE_NO":"７號","E_COORD97":171038.20000000001,"N_COORD97":2540543.5299999998,"ADDRESS":"長東街４１巷７弄７號","OBJECTID":186508},"geometry":{"x":171038.20000000112,"y":2540543.5299999993}},{"attributes":{"ID":186510,"DIS_CODE":0,"TOWNNAME":"永康區","LI":"龍潭里","LIN":"36鄰","STREET":"中山北路","SECT":" ","MAREA":" ","LANE":"１６４巷","ALLEY":"１６０弄","HOUSE_NO":"１３號","E_COORD97":174698.54000000001,"N_COORD97":2547382,"ADDRESS":"中山北路１６４巷１６０弄１３號","OBJECTID":186509},"geometry":{"x":174698.54000000004,"y":2547382.0000000019}},{"attributes":{"ID":186511,"DIS_CODE":0,"TOWNNAME":"永康區","LI":"龍潭里","LIN":"36鄰","STREET":"中山北路","SECT":" ","MAREA":" ","LANE":"１６４巷","ALLEY":"１６０弄","HOUSE_NO":"１０號","E_COORD97":174678.79000000001,"N_COORD97":2547387.27,"ADDRESS":"中山北路１６４巷１６０弄１０號","OBJECTID":186510},"geometry":{"x":174678.79000000097,"y":2547387.2699999996}},{"attributes":{"ID":186512,"DIS_CODE":0,"TOWNNAME":"白河區","LI":"外角里","LIN":"3鄰","STREET":" ","SECT":" ","MAREA":"外角","LANE":" ","ALLEY":" ","HOUSE_NO":"２２號","E_COORD97":190626.35000000001,"N_COORD97":2583156.4700000002,"ADDRESS":"外角２２號","OBJECTID":186511},"geometry":{"x":190626.35000000056,"y":2583156.4700000007}},{"attributes":{"ID":186513,"DIS_CODE":0,"TOWNNAME":"永康區","LI":"\u25A0行里","LIN":"36鄰","STREET":"三村一街","SECT":" ","MAREA":" ","LANE":"１３８巷","ALLEY":"１８弄","HOUSE_NO":"１１號","E_COORD97":172087.69,"N_COORD97":2549297.9300000002,"ADDRESS":"三村一街１３８巷１８弄１１號","OBJECTID":186512},"geometry":{"x":172087.69000000227,"y":2549297.9300000016}},{"attributes":{"ID":186514,"DIS_CODE":0,"TOWNNAME":"永康區","LI":"龍潭里","LIN":"36鄰","STREET":"中山北路","SECT":" ","MAREA":" ","LANE":"１６４巷","ALLEY":"１５８弄","HOUSE_NO":"３號","E_COORD97":174647.45999999999,"N_COORD97":2547394.79,"ADDRESS":"中山北路１６４巷１５８弄３號","OBJECTID":186513},"geometry":{"x":174647.46000000089,"y":2547394.7900000028}},{"attributes":{"ID":186515,"DIS_CODE":0,"TOWNNAME":"仁德區","LI":"太子里","LIN":"36鄰","STREET":"長興一街","SECT":" ","MAREA":" ","LANE":"８６巷","ALLEY":"４弄","HOUSE_NO":"１號","E_COORD97":174438.79000000001,"N_COORD97":2543882,"ADDRESS":"長興一街８６巷４弄１號","OBJECTID":186514},"geometry":{"x":174438.79000000004,"y":2543882.0000000037}},{"attributes":{"ID":186516,"DIS_CODE":0,"TOWNNAME":"仁德區","LI":"太子里","LIN":"36鄰","STREET":"長興一街","SECT":" ","MAREA":" ","LANE":"８６巷","ALLEY":"２弄","HOUSE_NO":"９號","E_COORD97":174462.07000000001,"N_COORD97":2543855.7599999998,"ADDRESS":"長興一街８６巷２弄９號","OBJECTID":186515},"geometry":{"x":174462.07000000123,"y":2543855.7599999998}},{"attributes":{"ID":186517,"DIS_CODE":0,"TOWNNAME":"仁德區","LI":"太子里","LIN":"36鄰","STREET":"長興一街","SECT":" ","MAREA":" ","LANE":"８６巷","ALLEY":"４弄","HOUSE_NO":"５號","E_COORD97":174467.51999999999,"N_COORD97":2543879,"ADDRESS":"長興一街８６巷４弄５號","OBJECTID":186516},"geometry":{"x":174467.51999999955,"y":2543879.0000000019}},{"attributes":{"ID":186518,"DIS_CODE":0,"TOWNNAME":"後壁區","LI":"後壁里","LIN":"11鄰","STREET":" ","SECT":" ","MAREA":"後壁","LANE":" ","ALLEY":" ","HOUSE_NO":"１８６號","E_COORD97":185109.89000000001,"N_COORD97":2584998.0600000001,"ADDRESS":"後壁１８６號","OBJECTID":186517},"geometry":{"x":185109.8900000006,"y":2584998.0600000024}},{"attributes":{"ID":186519,"DIS_CODE":0,"TOWNNAME":"後壁區","LI":"後壁里","LIN":"11鄰","STREET":" ","SECT":" ","MAREA":"後壁","LANE":" ","ALLEY":" ","HOUSE_NO":"１８８號之１","E_COORD97":185100.75,"N_COORD97":2585033.1600000001,"ADDRESS":"後壁１８８號之１","OBJECTID":186518},"geometry":{"x":185100.75000000186,"y":2585033.1599999983}},{"attributes":{"ID":186520,"DIS_CODE":0,"TOWNNAME":"後壁區","LI":"後壁里","LIN":"11鄰","STREET":" ","SECT":" ","MAREA":"後壁","LANE":" ","ALLEY":" ","HOUSE_NO":"１８８號","E_COORD97":185097.56,"N_COORD97":2585013.5600000001,"ADDRESS":"後壁１８８號","OBJECTID":186519},"geometry":{"x":185097.55999999959,"y":2585013.5600000005}},{"attributes":{"ID":186521,"DIS_CODE":0,"TOWNNAME":"西港區","LI":"西港里","LIN":"10鄰","STREET":"中山路","SECT":" ","MAREA":" ","LANE":" ","ALLEY":" ","HOUSE_NO":"３２８號","E_COORD97":168415.85999999999,"N_COORD97":2557960.7400000002,"ADDRESS":"中山路３２８號","OBJECTID":186520},"geometry":{"x":168415.86000000034,"y":2557960.7400000039}},{"attributes":{"ID":186522,"DIS_CODE":0,"TOWNNAME":"善化區","LI":"文昌里","LIN":"10鄰","STREET":"大同路","SECT":" ","MAREA":" ","LANE":" ","ALLEY":" ","HOUSE_NO":"２５１號","E_COORD97":177384.98000000001,"N_COORD97":2558841.5,"ADDRESS":"大同路２５１號","OBJECTID":186521},"geometry":{"x":177384.98000000231,"y":2558841.5000000019}},{"attributes":{"ID":186523,"DIS_CODE":0,"TOWNNAME":"仁德區","LI":"上崙里","LIN":"20鄰","STREET":"上崙一街","SECT":" ","MAREA":" ","LANE":" ","ALLEY":" ","HOUSE_NO":"３２號","E_COORD97":173788.12,"N_COORD97":2538028.25,"ADDRESS":"上崙一街３２號","OBJECTID":186522},"geometry":{"x":173788.12000000197,"y":2538028.2500000037}},{"attributes":{"ID":186524,"DIS_CODE":0,"TOWNNAME":"仁德區","LI":"仁義里","LIN":"36鄰","STREET":"勝利路","SECT":" ","MAREA":" ","LANE":"３１巷","ALLEY":"３弄","HOUSE_NO":"３號","E_COORD97":173489.37,"N_COORD97":2540021.0099999998,"ADDRESS":"勝利路３１巷３弄３號","OBJECTID":186523},"geometry":{"x":173489.37000000011,"y":2540021.0100000016}},{"attributes":{"ID":186525,"DIS_CODE":0,"TOWNNAME":"仁德區","LI":"上崙里","LIN":"26鄰","STREET":"中正路","SECT":"一段","MAREA":" ","LANE":" ","ALLEY":" ","HOUSE_NO":"６９８號","E_COORD97":172909.63,"N_COORD97":2537655.02,"ADDRESS":"中正路一段６９８號","OBJECTID":186524},"geometry":{"x":172909.63000000175,"y":2537655.0199999996}},{"attributes":{"ID":186526,"DIS_CODE":0,"TOWNNAME":"仁德區","LI":"上崙里","LIN":"13鄰","STREET":"崑崙路","SECT":" ","MAREA":" ","LANE":" ","ALLEY":" ","HOUSE_NO":"７３３號","E_COORD97":174224.16,"N_COORD97":2537873.2400000002,"ADDRESS":"崑崙路７３３號","OBJECTID":186525},"geometry":{"x":174224.16000000108,"y":2537873.2400000021}},{"attributes":{"ID":186527,"DIS_CODE":0,"TOWNNAME":"永康區","LI":"龍潭里","LIN":"36鄰","STREET":"中山北路","SECT":" ","MAREA":" ","LANE":"１６４巷","ALLEY":"１５８弄","HOUSE_NO":"８號","E_COORD97":174632.88,"N_COORD97":2547383.21,"ADDRESS":"中山北路１６４巷１５８弄８號","OBJECTID":186526},"geometry":{"x":174632.87999999989,"y":2547383.2100000009}},{"attributes":{"ID":186528,"DIS_CODE":0,"TOWNNAME":"永康區","LI":"龍潭里","LIN":"36鄰","STREET":"中山北路","SECT":" ","MAREA":" ","LANE":"１６４巷","ALLEY":"１５８弄","HOUSE_NO":"１３號","E_COORD97":174649.17000000001,"N_COORD97":2547364.2999999998,"ADDRESS":"中山北路１６４巷１５８弄１３號","OBJECTID":186527},"geometry":{"x":174649.17000000086,"y":2547364.3000000007}},{"attributes":{"ID":186529,"DIS_CODE":0,"TOWNNAME":"永康區","LI":"龍潭里","LIN":"36鄰","STREET":"中山北路","SECT":" ","MAREA":" ","LANE":"１６４巷","ALLEY":"１５８弄","HOUSE_NO":"２４號","E_COORD97":174635.07000000001,"N_COORD97":2547322.1699999999,"ADDRESS":"中山北路１６４巷１５８弄２４號","OBJECTID":186528},"geometry":{"x":174635.07000000123,"y":2547322.1700000018}},{"attributes":{"ID":186530,"DIS_CODE":0,"TOWNNAME":"永康區","LI":"龍潭里","LIN":"36鄰","STREET":"中山北路","SECT":" ","MAREA":" ","LANE":"１６４巷","ALLEY":"１５８弄","HOUSE_NO":"９號","E_COORD97":174647.54999999999,"N_COORD97":2547377.54,"ADDRESS":"中山北路１６４巷１５８弄９號","OBJECTID":186529},"geometry":{"x":174647.54999999981,"y":2547377.540000001}},{"attributes":{"ID":186531,"DIS_CODE":0,"TOWNNAME":"永康區","LI":"龍潭里","LIN":"36鄰","STREET":"中山北路","SECT":" ","MAREA":" ","LANE":"１６４巷","ALLEY":"１５８弄","HOUSE_NO":"２號","E_COORD97":174632.62,"N_COORD97":2547404.4500000002,"ADDRESS":"中山北路１６４巷１５８弄２號","OBJECTID":186530},"geometry":{"x":174632.62000000104,"y":2547404.4500000011}},{"attributes":{"ID":186532,"DIS_CODE":0,"TOWNNAME":"永康區","LI":"龍潭里","LIN":"36鄰","STREET":"中山北路","SECT":" ","MAREA":" ","LANE":"１６４巷","ALLEY":"１５８弄","HOUSE_NO":"１２號","E_COORD97":174634.39000000001,"N_COORD97":2547370.46,"ADDRESS":"中山北路１６４巷１５８弄１２號","OBJECTID":186531},"geometry":{"x":174634.38999999966,"y":2547370.4600000009}},{"attributes":{"ID":186533,"DIS_CODE":0,"TOWNNAME":"永康區","LI":"龍潭里","LIN":"36鄰","STREET":"中山北路","SECT":" ","MAREA":" ","LANE":"１６４巷","ALLEY":"１５８弄","HOUSE_NO":"２０號","E_COORD97":174636.38,"N_COORD97":2547335.4199999999,"ADDRESS":"中山北路１６４巷１５８弄２０號","OBJECTID":186532},"geometry":{"x":174636.37999999989,"y":2547335.4199999999}},{"attributes":{"ID":186534,"DIS_CODE":0,"TOWNNAME":"永康區","LI":"龍潭里","LIN":"36鄰","STREET":"中山北路","SECT":" ","MAREA":" ","LANE":"１６４巷","ALLEY":"１６０弄","HOUSE_NO":"２號","E_COORD97":174677.75,"N_COORD97":2547404.27,"ADDRESS":"中山北路１６４巷１６０弄２號","OBJECTID":186533},"geometry":{"x":174677.75000000093,"y":2547404.2699999996}},{"attributes":{"ID":186535,"DIS_CODE":0,"TOWNNAME":"永康區","LI":"龍潭里","LIN":"36鄰","STREET":"中山北路","SECT":" ","MAREA":" ","LANE":"１６４巷","ALLEY":"１６０弄","HOUSE_NO":"１１號","E_COORD97":174698.25,"N_COORD97":2547386.2400000002,"ADDRESS":"中山北路１６４巷１６０弄１１號","OBJECTID":186534},"geometry":{"x":174698.25,"y":2547386.2400000039}},{"attributes":{"ID":186536,"DIS_CODE":0,"TOWNNAME":"永康區","LI":"\u25A0行里","LIN":"36鄰","STREET":"三村一街","SECT":" ","MAREA":" ","LANE":"１３８巷","ALLEY":"１８弄","HOUSE_NO":"６號","E_COORD97":172075.44,"N_COORD97":2549283.2400000002,"ADDRESS":"三村一街１３８巷１８弄６號","OBJECTID":186535},"geometry":{"x":172075.44000000041,"y":2549283.2400000002}},{"attributes":{"ID":186537,"DIS_CODE":0,"TOWNNAME":"永康區","LI":"龍潭里","LIN":"36鄰","STREET":"中山北路","SECT":" ","MAREA":" ","LANE":"１６４巷","ALLEY":"１６０弄","HOUSE_NO":"５號","E_COORD97":174696.75,"N_COORD97":2547397.7400000002,"ADDRESS":"中山北路１６４巷１６０弄５號","OBJECTID":186536},"geometry":{"x":174696.75,"y":2547397.7400000021}},{"attributes":{"ID":186538,"DIS_CODE":0,"TOWNNAME":"永康區","LI":"\u25A0行里","LIN":"36鄰","STREET":"三村一街","SECT":" ","MAREA":" ","LANE":"１３８巷","ALLEY":"１８弄","HOUSE_NO":"１３號","E_COORD97":172093.48999999999,"N_COORD97":2549303.4300000002,"ADDRESS":"三村一街１３８巷１８弄１３號","OBJECTID":186537},"geometry":{"x":172093.49000000022,"y":2549303.4300000034}},{"attributes":{"ID":186539,"DIS_CODE":0,"TOWNNAME":"永康區","LI":"龍潭里","LIN":"36鄰","STREET":"中山北路","SECT":" ","MAREA":" ","LANE":"１６４巷","ALLEY":"１６０弄","HOUSE_NO":"９號","E_COORD97":174696.79000000001,"N_COORD97":2547389.7400000002,"ADDRESS":"中山北路１６４巷１６０弄９號","OBJECTID":186538},"geometry":{"x":174696.79000000004,"y":2547389.7400000039}},{"attributes":{"ID":186540,"DIS_CODE":0,"TOWNNAME":"仁德區","LI":"一甲里","LIN":"14鄰","STREET":"忠義路","SECT":" ","MAREA":" ","LANE":" ","ALLEY":" ","HOUSE_NO":"２７７號","E_COORD97":173778.14999999999,"N_COORD97":2541850.02,"ADDRESS":"忠義路２７７號","OBJECTID":186539},"geometry":{"x":173778.1500000013,"y":2541850.0199999996}},{"attributes":{"ID":186541,"DIS_CODE":0,"TOWNNAME":"仁德區","LI":"一甲里","LIN":"20鄰","STREET":"太乙七街","SECT":" ","MAREA":" ","LANE":" ","ALLEY":" ","HOUSE_NO":"４０號","E_COORD97":173073.60999999999,"N_COORD97":2542148.75,"ADDRESS":"太乙七街４０號","OBJECTID":186540},"geometry":{"x":173073.61000000127,"y":2542148.7500000019}},{"attributes":{"ID":186542,"DIS_CODE":0,"TOWNNAME":"善化區","LI":"什乃里","LIN":"10鄰","STREET":" ","SECT":" ","MAREA":"什乃","LANE":" ","ALLEY":" ","HOUSE_NO":"９２號之２","E_COORD97":176059.79000000001,"N_COORD97":2560331.52,"ADDRESS":"什乃９２號之２","OBJECTID":186541},"geometry":{"x":176059.79000000004,"y":2560331.5200000033}},{"attributes":{"ID":186543,"DIS_CODE":0,"TOWNNAME":"仁德區","LI":"一甲里","LIN":"17鄰","STREET":"正義三街","SECT":" ","MAREA":" ","LANE":" ","ALLEY":" ","HOUSE_NO":"２９３號","E_COORD97":174180.57000000001,"N_COORD97":2541465.52,"ADDRESS":"正義三街２９３號","OBJECTID":186542},"geometry":{"x":174180.57000000123,"y":2541465.5200000014}},{"attributes":{"ID":186544,"DIS_CODE":0,"TOWNNAME":"善化區","LI":"什乃里","LIN":"10鄰","STREET":" ","SECT":" ","MAREA":"什乃","LANE":" ","ALLEY":" ","HOUSE_NO":"１３８號","E_COORD97":176513.87,"N_COORD97":2560178,"ADDRESS":"什乃１３８號","OBJECTID":186543},"geometry":{"x":176513.86999999918,"y":2560178}},{"attributes":{"ID":186545,"DIS_CODE":0,"TOWNNAME":"永康區","LI":"龍潭里","LIN":"36鄰","STREET":"中山北路","SECT":" ","MAREA":" ","LANE":"１６４巷","ALLEY":"１６０弄","HOUSE_NO":"７號","E_COORD97":174696.79000000001,"N_COORD97":2547393.7400000002,"ADDRESS":"中山北路１６４巷１６０弄７號","OBJECTID":186544},"geometry":{"x":174696.79000000004,"y":2547393.7400000021}},{"attributes":{"ID":186546,"DIS_CODE":0,"TOWNNAME":"善化區","LI":"田寮里","LIN":"10鄰","STREET":" ","SECT":" ","MAREA":"六分寮","LANE":" ","ALLEY":" ","HOUSE_NO":"１０６號","E_COORD97":178536.67999999999,"N_COORD97":2561412.25,"ADDRESS":"六分寮１０６號","OBJECTID":186545},"geometry":{"x":178536.6799999997,"y":2561412.2500000019}},{"attributes":{"ID":186547,"DIS_CODE":0,"TOWNNAME":"永康區","LI":"\u25A0行里","LIN":"36鄰","STREET":"三村一街","SECT":" ","MAREA":" ","LANE":"１３８巷","ALLEY":"１８弄","HOUSE_NO":"１６號","E_COORD97":172093.29000000001,"N_COORD97":2549281.4300000002,"ADDRESS":"三村一街１３８巷１８弄１６號","OBJECTID":186546},"geometry":{"x":172093.28999999911,"y":2549281.4299999997}},{"attributes":{"ID":186548,"DIS_CODE":0,"TOWNNAME":"永康區","LI":"永康里","LIN":"36鄰","STREET":"永平街","SECT":" ","MAREA":" ","LANE":"５６巷","ALLEY":"１弄","HOUSE_NO":"１８號","E_COORD97":174406.13,"N_COORD97":2546834.1099999999,"ADDRESS":"永平街５６巷１弄１８號","OBJECTID":186547},"geometry":{"x":174406.12999999989,"y":2546834.1100000013}},{"attributes":{"ID":186549,"DIS_CODE":0,"TOWNNAME":"歸仁區","LI":"南保里","LIN":"59鄰","STREET":"中山路","SECT":"三段","MAREA":" ","LANE":"８１巷","ALLEY":"２３弄","HOUSE_NO":"２２號","E_COORD97":176809.64000000001,"N_COORD97":2540797.0299999998,"ADDRESS":"中山路三段８１巷２３弄２２號","OBJECTID":186548},"geometry":{"x":176809.63999999966,"y":2540797.0300000012}},{"attributes":{"ID":186550,"DIS_CODE":0,"TOWNNAME":"歸仁區","LI":"南保里","LIN":"59鄰","STREET":"中山路","SECT":"三段","MAREA":" ","LANE":"８１巷","ALLEY":"２３弄","HOUSE_NO":"１１號","E_COORD97":176840.60999999999,"N_COORD97":2540814.2799999998,"ADDRESS":"中山路三段８１巷２３弄１１號","OBJECTID":186549},"geometry":{"x":176840.61000000034,"y":2540814.2800000031}},{"attributes":{"ID":186551,"DIS_CODE":0,"TOWNNAME":"善化區","LI":"什乃里","LIN":"10鄰","STREET":" ","SECT":" ","MAREA":"什乃","LANE":" ","ALLEY":" ","HOUSE_NO":"１９０號","E_COORD97":177098.10999999999,"N_COORD97":2559872.75,"ADDRESS":"什乃１９０號","OBJECTID":186550},"geometry":{"x":177098.11000000127,"y":2559872.7500000037}},{"attributes":{"ID":186552,"DIS_CODE":0,"TOWNNAME":"善化區","LI":"什乃里","LIN":"10鄰","STREET":" ","SECT":" ","MAREA":"什乃","LANE":" ","ALLEY":" ","HOUSE_NO":"１４０號","E_COORD97":177072.42999999999,"N_COORD97":2559976,"ADDRESS":"什乃１４０號","OBJECTID":186551},"geometry":{"x":177072.42999999877,"y":2559976.0000000037}},{"attributes":{"ID":186553,"DIS_CODE":0,"TOWNNAME":"善化區","LI":"什乃里","LIN":"10鄰","STREET":" ","SECT":" ","MAREA":"什乃","LANE":" ","ALLEY":" ","HOUSE_NO":"１８０之１號","E_COORD97":176785.35999999999,"N_COORD97":2559849.52,"ADDRESS":"什乃１８０之１號","OBJECTID":186552},"geometry":{"x":176785.3599999994,"y":2559849.5199999996}},{"attributes":{"ID":186554,"DIS_CODE":0,"TOWNNAME":"善化區","LI":"什乃里","LIN":"10鄰","STREET":" ","SECT":" ","MAREA":"什乃","LANE":" ","ALLEY":" ","HOUSE_NO":"１０４之１６號","E_COORD97":176336.38,"N_COORD97":2560193.52,"ADDRESS":"什乃１０４之１６號","OBJECTID":186553},"geometry":{"x":176336.38000000082,"y":2560193.5200000014}},{"attributes":{"ID":186555,"DIS_CODE":0,"TOWNNAME":"善化區","LI":"什乃里","LIN":"10鄰","STREET":" ","SECT":" ","MAREA":"什乃","LANE":" ","ALLEY":" ","HOUSE_NO":"１０９號之１","E_COORD97":176308.04999999999,"N_COORD97":2560122.27,"ADDRESS":"什乃１０９號之１","OBJECTID":186554},"geometry":{"x":176308.05000000075,"y":2560122.2699999996}},{"attributes":{"ID":186556,"DIS_CODE":0,"TOWNNAME":"善化區","LI":"什乃里","LIN":"10鄰","STREET":" ","SECT":" ","MAREA":"什乃","LANE":" ","ALLEY":" ","HOUSE_NO":"９４之１４號","E_COORD97":176233.13,"N_COORD97":2560213.77,"ADDRESS":"什乃９４之１４號","OBJECTID":186555},"geometry":{"x":176233.12999999989,"y":2560213.7699999996}},{"attributes":{"ID":186557,"DIS_CODE":0,"TOWNNAME":"善化區","LI":"什乃里","LIN":"10鄰","STREET":" ","SECT":" ","MAREA":"什乃","LANE":" ","ALLEY":" ","HOUSE_NO":"１０４號之３","E_COORD97":176277.04000000001,"N_COORD97":2560168.52,"ADDRESS":"什乃１０４號之３","OBJECTID":186556},"geometry":{"x":176277.0400000019,"y":2560168.5200000033}},{"attributes":{"ID":186558,"DIS_CODE":0,"TOWNNAME":"歸仁區","LI":"南保里","LIN":"59鄰","STREET":"中山路","SECT":"三段","MAREA":" ","LANE":"８１巷","ALLEY":"２３弄","HOUSE_NO":"５４號","E_COORD97":176825.94,"N_COORD97":2540767.0299999998,"ADDRESS":"中山路三段８１巷２３弄５４號","OBJECTID":186557},"geometry":{"x":176825.94000000134,"y":2540767.0299999993}},{"attributes":{"ID":186559,"DIS_CODE":0,"TOWNNAME":"歸仁區","LI":"南保里","LIN":"59鄰","STREET":"中山路","SECT":"三段","MAREA":" ","LANE":"８１巷","ALLEY":"２３弄","HOUSE_NO":"１１０號","E_COORD97":176870.19,"N_COORD97":2540756.0299999998,"ADDRESS":"中山路三段８１巷２３弄１１０號","OBJECTID":186558},"geometry":{"x":176870.19000000134,"y":2540756.0300000012}},{"attributes":{"ID":186560,"DIS_CODE":0,"TOWNNAME":"歸仁區","LI":"南保里","LIN":"59鄰","STREET":"中山路","SECT":"三段","MAREA":" ","LANE":"８１巷","ALLEY":"２３弄","HOUSE_NO":"３８號","E_COORD97":176792.59,"N_COORD97":2540761.0099999998,"ADDRESS":"中山路三段８１巷２３弄３８號","OBJECTID":186559},"geometry":{"x":176792.59000000078,"y":2540761.0099999998}},{"attributes":{"ID":186561,"DIS_CODE":0,"TOWNNAME":"歸仁區","LI":"南保里","LIN":"59鄰","STREET":"中山路","SECT":"三段","MAREA":" ","LANE":"８１巷","ALLEY":"２３弄","HOUSE_NO":"４８號","E_COORD97":176826.04000000001,"N_COORD97":2540780.0299999998,"ADDRESS":"中山路三段８１巷２３弄４８號","OBJECTID":186560},"geometry":{"x":176826.04000000004,"y":2540780.0300000012}},{"attributes":{"ID":186562,"DIS_CODE":0,"TOWNNAME":"歸仁區","LI":"南保里","LIN":"59鄰","STREET":"中山路","SECT":"三段","MAREA":" ","LANE":"８１巷","ALLEY":"２３弄","HOUSE_NO":"１０２號","E_COORD97":176871.29000000001,"N_COORD97":2540773.0299999998,"ADDRESS":"中山路三段８１巷２３弄１０２號","OBJECTID":186561},"geometry":{"x":176871.29000000004,"y":2540773.0300000012}},{"attributes":{"ID":186563,"DIS_CODE":0,"TOWNNAME":"歸仁區","LI":"南保里","LIN":"59鄰","STREET":"中山路","SECT":"三段","MAREA":" ","LANE":"８１巷","ALLEY":"２３弄","HOUSE_NO":"１０８號","E_COORD97":176870.19,"N_COORD97":2540760.0299999998,"ADDRESS":"中山路三段８１巷２３弄１０８號","OBJECTID":186562},"geometry":{"x":176870.19000000134,"y":2540760.0300000012}},{"attributes":{"ID":186564,"DIS_CODE":0,"TOWNNAME":"歸仁區","LI":"南保里","LIN":"59鄰","STREET":"中山路","SECT":"三段","MAREA":" ","LANE":"８１巷","ALLEY":"２３弄","HOUSE_NO":"６０號","E_COORD97":176840.44,"N_COORD97":2540791.0299999998,"ADDRESS":"中山路三段８１巷２３弄６０號","OBJECTID":186563},"geometry":{"x":176840.44000000041,"y":2540791.0299999993}},{"attributes":{"ID":186565,"DIS_CODE":0,"TOWNNAME":"歸仁區","LI":"南保里","LIN":"59鄰","STREET":"中山路","SECT":"三段","MAREA":" ","LANE":"８１巷","ALLEY":"２３弄","HOUSE_NO":"２０號","E_COORD97":176793.14000000001,"N_COORD97":2540763.0299999998,"ADDRESS":"中山路三段８１巷２３弄２０號","OBJECTID":186564},"geometry":{"x":176793.14000000153,"y":2540763.0300000012}},{"attributes":{"ID":186566,"DIS_CODE":0,"TOWNNAME":"善化區","LI":"田寮里","LIN":"10鄰","STREET":" ","SECT":" ","MAREA":"六分寮","LANE":" ","ALLEY":" ","HOUSE_NO":"１１１號","E_COORD97":178606.26000000001,"N_COORD97":2561416.5,"ADDRESS":"六分寮１１１號","OBJECTID":186565},"geometry":{"x":178606.26000000164,"y":2561416.5}},{"attributes":{"ID":186567,"DIS_CODE":0,"TOWNNAME":"善化區","LI":"什乃里","LIN":"10鄰","STREET":" ","SECT":" ","MAREA":"什乃","LANE":" ","ALLEY":" ","HOUSE_NO":"９６號","E_COORD97":176215.66,"N_COORD97":2560273,"ADDRESS":"什乃９６號","OBJECTID":186566},"geometry":{"x":176215.66000000108,"y":2560273}},{"attributes":{"ID":186568,"DIS_CODE":0,"TOWNNAME":"善化區","LI":"什乃里","LIN":"10鄰","STREET":" ","SECT":" ","MAREA":"什乃","LANE":" ","ALLEY":" ","HOUSE_NO":"８６號之１","E_COORD97":176003.67000000001,"N_COORD97":2560380.77,"ADDRESS":"什乃８６號之１","OBJECTID":186567},"geometry":{"x":176003.67000000086,"y":2560380.7700000033}},{"attributes":{"ID":186569,"DIS_CODE":0,"TOWNNAME":"善化區","LI":"六分里","LIN":"10鄰","STREET":" ","SECT":" ","MAREA":"溪底寮","LANE":" ","ALLEY":" ","HOUSE_NO":"６４號","E_COORD97":175186.37,"N_COORD97":2563083.52,"ADDRESS":"溪底寮６４號","OBJECTID":186568},"geometry":{"x":175186.37000000011,"y":2563083.5199999996}},{"attributes":{"ID":186570,"DIS_CODE":0,"TOWNNAME":"善化區","LI":"田寮里","LIN":"10鄰","STREET":" ","SECT":" ","MAREA":"六分寮","LANE":" ","ALLEY":" ","HOUSE_NO":"１０７號","E_COORD97":178549.98999999999,"N_COORD97":2561392,"ADDRESS":"六分寮１０７號","OBJECTID":186569},"geometry":{"x":178549.99000000115,"y":2561392}},{"attributes":{"ID":186571,"DIS_CODE":0,"TOWNNAME":"善化區","LI":"六德里","LIN":"10鄰","STREET":" ","SECT":" ","MAREA":"六分寮","LANE":" ","ALLEY":" ","HOUSE_NO":"２８０號","E_COORD97":178626.29999999999,"N_COORD97":2561527.5,"ADDRESS":"六分寮２８０號","OBJECTID":186570},"geometry":{"x":178626.30000000168,"y":2561527.5}},{"attributes":{"ID":186572,"DIS_CODE":0,"TOWNNAME":"善化區","LI":"小新里","LIN":"10鄰","STREET":" ","SECT":" ","MAREA":"小新營","LANE":" ","ALLEY":" ","HOUSE_NO":"８０號之１","E_COORD97":179494.10999999999,"N_COORD97":2558360.77,"ADDRESS":"小新營８０號之１","OBJECTID":186571},"geometry":{"x":179494.11000000034,"y":2558360.7700000014}},{"attributes":{"ID":186573,"DIS_CODE":0,"TOWNNAME":"善化區","LI":"六德里","LIN":"10鄰","STREET":" ","SECT":" ","MAREA":"六分寮","LANE":" ","ALLEY":" ","HOUSE_NO":"２８６之４號","E_COORD97":178613.51999999999,"N_COORD97":2561582.02,"ADDRESS":"六分寮２８６之４號","OBJECTID":186572},"geometry":{"x":178613.52000000048,"y":2561582.0199999996}},{"attributes":{"ID":186574,"DIS_CODE":0,"TOWNNAME":"善化區","LI":"什乃里","LIN":"10鄰","STREET":" ","SECT":" ","MAREA":"什乃","LANE":" ","ALLEY":" ","HOUSE_NO":"９３之１號","E_COORD97":176122.26999999999,"N_COORD97":2560243.52,"ADDRESS":"什乃９３之１號","OBJECTID":186573},"geometry":{"x":176122.26999999955,"y":2560243.5200000014}},{"attributes":{"ID":186575,"DIS_CODE":0,"TOWNNAME":"善化區","LI":"什乃里","LIN":"10鄰","STREET":" ","SECT":" ","MAREA":"什乃","LANE":" ","ALLEY":" ","HOUSE_NO":"９６之１０號","E_COORD97":176185.23000000001,"N_COORD97":2560297.77,"ADDRESS":"什乃９６之１０號","OBJECTID":186574},"geometry":{"x":176185.23000000138,"y":2560297.7699999996}},{"attributes":{"ID":186576,"DIS_CODE":0,"TOWNNAME":"善化區","LI":"小新里","LIN":"10鄰","STREET":" ","SECT":" ","MAREA":"小新營","LANE":" ","ALLEY":" ","HOUSE_NO":"７５號之１","E_COORD97":179526.01000000001,"N_COORD97":2558295.27,"ADDRESS":"小新營７５號之１","OBJECTID":186575},"geometry":{"x":179526.00999999978,"y":2558295.2699999977}},{"attributes":{"ID":186577,"DIS_CODE":0,"TOWNNAME":"善化區","LI":"什乃里","LIN":"10鄰","STREET":" ","SECT":" ","MAREA":"什乃","LANE":" ","ALLEY":" ","HOUSE_NO":"９４之１７號","E_COORD97":176180.47,"N_COORD97":2560259.27,"ADDRESS":"什乃９４之１７號","OBJECTID":186576},"geometry":{"x":176180.46999999974,"y":2560259.2700000014}},{"attributes":{"ID":186578,"DIS_CODE":0,"TOWNNAME":"善化區","LI":"什乃里","LIN":"10鄰","STREET":" ","SECT":" ","MAREA":"什乃","LANE":" ","ALLEY":" ","HOUSE_NO":"９３之２號","E_COORD97":176124.22,"N_COORD97":2560239.02,"ADDRESS":"什乃９３之２號","OBJECTID":186577},"geometry":{"x":176124.21999999974,"y":2560239.0199999996}},{"attributes":{"ID":186579,"DIS_CODE":0,"TOWNNAME":"善化區","LI":"小新里","LIN":"10鄰","STREET":" ","SECT":" ","MAREA":"小新營","LANE":" ","ALLEY":" ","HOUSE_NO":"８０號之２","E_COORD97":179462.60000000001,"N_COORD97":2558349.02,"ADDRESS":"小新營８０號之２","OBJECTID":186578},"geometry":{"x":179462.59999999963,"y":2558349.0200000014}},{"attributes":{"ID":186580,"DIS_CODE":0,"TOWNNAME":"歸仁區","LI":"南保里","LIN":"59鄰","STREET":"中山路","SECT":"三段","MAREA":" ","LANE":"８１巷","ALLEY":"２３弄","HOUSE_NO":"１８號","E_COORD97":176793.14000000001,"N_COORD97":2540767.0299999998,"ADDRESS":"中山路三段８１巷２３弄１８號","OBJECTID":186579},"geometry":{"x":176793.14000000153,"y":2540767.0299999993}},{"attributes":{"ID":186581,"DIS_CODE":0,"TOWNNAME":"善化區","LI":"牛庄里","LIN":"10鄰","STREET":" ","SECT":" ","MAREA":"牛庄","LANE":" ","ALLEY":" ","HOUSE_NO":"１１３之６號","E_COORD97":180027.26999999999,"N_COORD97":2559911.52,"ADDRESS":"牛庄１１３之６號","OBJECTID":186580},"geometry":{"x":180027.27000000048,"y":2559911.5200000014}},{"attributes":{"ID":186582,"DIS_CODE":0,"TOWNNAME":"善化區","LI":"東昌里","LIN":"10鄰","STREET":" ","SECT":" ","MAREA":"東勢寮","LANE":" ","ALLEY":" ","HOUSE_NO":"１１６號","E_COORD97":180263.88,"N_COORD97":2561863.0099999998,"ADDRESS":"東勢寮１１６號","OBJECTID":186581},"geometry":{"x":180263.88000000082,"y":2561863.0099999998}},{"attributes":{"ID":186583,"DIS_CODE":0,"TOWNNAME":"善化區","LI":"牛庄里","LIN":"10鄰","STREET":" ","SECT":" ","MAREA":"牛庄","LANE":" ","ALLEY":" ","HOUSE_NO":"１１３號之３","E_COORD97":180055.54000000001,"N_COORD97":2559903.27,"ADDRESS":"牛庄１１３號之３","OBJECTID":186582},"geometry":{"x":180055.53999999911,"y":2559903.2700000014}},{"attributes":{"ID":186584,"DIS_CODE":0,"TOWNNAME":"歸仁區","LI":"南保里","LIN":"59鄰","STREET":"中山路","SECT":"三段","MAREA":" ","LANE":"８１巷","ALLEY":"２３弄","HOUSE_NO":"７４號","E_COORD97":176837.14000000001,"N_COORD97":2540758.0299999998,"ADDRESS":"中山路三段８１巷２３弄７４號","OBJECTID":186583},"geometry":{"x":176837.14000000153,"y":2540758.0299999993}},{"attributes":{"ID":186585,"DIS_CODE":0,"TOWNNAME":"善化區","LI":"牛庄里","LIN":"10鄰","STREET":" ","SECT":" ","MAREA":"牛庄","LANE":" ","ALLEY":" ","HOUSE_NO":"１１３號之５","E_COORD97":180068.48999999999,"N_COORD97":2559904.02,"ADDRESS":"牛庄１１３號之５","OBJECTID":186584},"geometry":{"x":180068.49000000115,"y":2559904.0199999977}},{"attributes":{"ID":186586,"DIS_CODE":0,"TOWNNAME":"善化區","LI":"牛庄里","LIN":"10鄰","STREET":" ","SECT":" ","MAREA":"牛庄","LANE":" ","ALLEY":" ","HOUSE_NO":"１００之５號","E_COORD97":180034.07999999999,"N_COORD97":2560040.02,"ADDRESS":"牛庄１００之５號","OBJECTID":186585},"geometry":{"x":180034.08000000101,"y":2560040.0200000033}},{"attributes":{"ID":186587,"DIS_CODE":0,"TOWNNAME":"歸仁區","LI":"南保里","LIN":"59鄰","STREET":"中山路","SECT":"三段","MAREA":" ","LANE":"８１巷","ALLEY":"２３弄","HOUSE_NO":"６８號","E_COORD97":176839.34,"N_COORD97":2540771.0299999998,"ADDRESS":"中山路三段８１巷２３弄６８號","OBJECTID":186586},"geometry":{"x":176839.34000000171,"y":2540771.0299999993}},{"attributes":{"ID":186588,"DIS_CODE":0,"TOWNNAME":"善化區","LI":"牛庄里","LIN":"10鄰","STREET":" ","SECT":" ","MAREA":"牛庄","LANE":" ","ALLEY":" ","HOUSE_NO":"１０２號","E_COORD97":180025.57000000001,"N_COORD97":2559998.25,"ADDRESS":"牛庄１０２號","OBJECTID":186587},"geometry":{"x":180025.57000000123,"y":2559998.2500000037}},{"attributes":{"ID":186589,"DIS_CODE":0,"TOWNNAME":"善化區","LI":"牛庄里","LIN":"10鄰","STREET":" ","SECT":" ","MAREA":"牛庄","LANE":" ","ALLEY":" ","HOUSE_NO":"１１３號","E_COORD97":180070.54000000001,"N_COORD97":2559916.5,"ADDRESS":"牛庄１１３號","OBJECTID":186588},"geometry":{"x":180070.54000000004,"y":2559916.5000000019}},{"attributes":{"ID":186590,"DIS_CODE":0,"TOWNNAME":"鹽水區","LI":"義稠里","LIN":"3鄰","STREET":" ","SECT":" ","MAREA":"義稠","LANE":" ","ALLEY":" ","HOUSE_NO":"４１號","E_COORD97":174147.72,"N_COORD97":2580712.7000000002,"ADDRESS":"義稠４１號","OBJECTID":186589},"geometry":{"x":174147.71999999974,"y":2580712.700000003}},{"attributes":{"ID":186591,"DIS_CODE":0,"TOWNNAME":"歸仁區","LI":"南保里","LIN":"59鄰","STREET":"中山路","SECT":"三段","MAREA":" ","LANE":"８１巷","ALLEY":"２３弄","HOUSE_NO":"４２號","E_COORD97":176827.04000000001,"N_COORD97":2540790.0299999998,"ADDRESS":"中山路三段８１巷２３弄４２號","OBJECTID":186590},"geometry":{"x":176827.04000000097,"y":2540790.0300000012}},{"attributes":{"ID":186592,"DIS_CODE":0,"TOWNNAME":"善化區","LI":"東昌里","LIN":"10鄰","STREET":" ","SECT":" ","MAREA":"東勢寮","LANE":" ","ALLEY":" ","HOUSE_NO":"１１５號之２","E_COORD97":180278.60000000001,"N_COORD97":2561837.27,"ADDRESS":"東勢寮１１５號之２","OBJECTID":186591},"geometry":{"x":180278.60000000149,"y":2561837.2699999996}},{"attributes":{"ID":186593,"DIS_CODE":0,"TOWNNAME":"善化區","LI":"東昌里","LIN":"10鄰","STREET":" ","SECT":" ","MAREA":"東勢寮","LANE":" ","ALLEY":" ","HOUSE_NO":"１１３號","E_COORD97":180244.44,"N_COORD97":2561839.5099999998,"ADDRESS":"東勢寮１１３號","OBJECTID":186592},"geometry":{"x":180244.44000000041,"y":2561839.5099999998}},{"attributes":{"ID":186594,"DIS_CODE":0,"TOWNNAME":"善化區","LI":"牛庄里","LIN":"10鄰","STREET":" ","SECT":" ","MAREA":"牛庄","LANE":" ","ALLEY":" ","HOUSE_NO":"１１３號之２","E_COORD97":180056.35999999999,"N_COORD97":2559913.52,"ADDRESS":"牛庄１１３號之２","OBJECTID":186593},"geometry":{"x":180056.36000000034,"y":2559913.5199999996}},{"attributes":{"ID":186595,"DIS_CODE":0,"TOWNNAME":"善化區","LI":"牛庄里","LIN":"10鄰","STREET":" ","SECT":" ","MAREA":"牛庄","LANE":" ","ALLEY":" ","HOUSE_NO":"１００之１號","E_COORD97":180033.13,"N_COORD97":2560023.27,"ADDRESS":"牛庄１００之１號","OBJECTID":186594},"geometry":{"x":180033.13000000082,"y":2560023.2699999996}},{"attributes":{"ID":186596,"DIS_CODE":0,"TOWNNAME":"大內區","LI":"內郭里","LIN":"10鄰","STREET":" ","SECT":" ","MAREA":"後堀","LANE":" ","ALLEY":" ","HOUSE_NO":"６１之２號","E_COORD97":186111.16,"N_COORD97":2557719.3199999998,"ADDRESS":"後堀６１之２號","OBJECTID":186595},"geometry":{"x":186111.16000000015,"y":2557719.3199999984}},{"attributes":{"ID":186597,"DIS_CODE":0,"TOWNNAME":"歸仁區","LI":"南保里","LIN":"59鄰","STREET":"中山路","SECT":"三段","MAREA":" ","LANE":"８１巷","ALLEY":"２３弄","HOUSE_NO":"９６號","E_COORD97":176871.14000000001,"N_COORD97":2540787.0299999998,"ADDRESS":"中山路三段８１巷２３弄９６號","OBJECTID":186596},"geometry":{"x":176871.14000000153,"y":2540787.0300000012}},{"attributes":{"ID":186598,"DIS_CODE":0,"TOWNNAME":"大內區","LI":"石城里","LIN":"10鄰","STREET":" ","SECT":" ","MAREA":"石子瀨","LANE":" ","ALLEY":" ","HOUSE_NO":"８７號","E_COORD97":184153.72,"N_COORD97":2557965.25,"ADDRESS":"石子瀨８７號","OBJECTID":186597},"geometry":{"x":184153.72000000067,"y":2557965.2500000019}},{"attributes":{"ID":186599,"DIS_CODE":0,"TOWNNAME":"大內區","LI":"大內里","LIN":"10鄰","STREET":" ","SECT":" ","MAREA":"內庄","LANE":" ","ALLEY":" ","HOUSE_NO":"１１２號","E_COORD97":184736.98000000001,"N_COORD97":2557439.25,"ADDRESS":"內庄１１２號","OBJECTID":186598},"geometry":{"x":184736.98000000231,"y":2557439.2500000019}},{"attributes":{"ID":186600,"DIS_CODE":0,"TOWNNAME":"歸仁區","LI":"南保里","LIN":"59鄰","STREET":"中山路","SECT":"三段","MAREA":" ","LANE":"８１巷","ALLEY":"２３弄","HOUSE_NO":"１０４號","E_COORD97":176871.29000000001,"N_COORD97":2540769.0299999998,"ADDRESS":"中山路三段８１巷２３弄１０４號","OBJECTID":186599},"geometry":{"x":176871.29000000004,"y":2540769.0300000012}},{"attributes":{"ID":186601,"DIS_CODE":0,"TOWNNAME":"歸仁區","LI":"南保里","LIN":"59鄰","STREET":"中山路","SECT":"三段","MAREA":" ","LANE":"８１巷","ALLEY":"２３弄","HOUSE_NO":"８８號","E_COORD97":176856.73999999999,"N_COORD97":2540766.0299999998,"ADDRESS":"中山路三段８１巷２３弄８８號","OBJECTID":186600},"geometry":{"x":176856.74000000022,"y":2540766.0300000012}}]}