{"displayFieldName":"TOWNNAME","fieldAliases":{"ID":"ID","DIS_CODE":"DIS_CODE","TOWNNAME":"TOWNNAME","LI":"LI","LIN":"LIN","STREET":"STREET","SECT":"SECT","MAREA":"MAREA","LANE":"LANE","ALLEY":"ALLEY","HOUSE_NO":"HOUSE_NO","E_COORD97":"E_COORD97","N_COORD97":"N_COORD97","ADDRESS":"ADDRESS","OBJECTID":"OBJECTID"},"geometryType":"esriGeometryPoint","spatialReference":{"wkid":102443,"latestWkid":3826},"fields":[{"name":"ID","type":"esriFieldTypeDouble","alias":"ID"},{"name":"DIS_CODE","type":"esriFieldTypeInteger","alias":"DIS_CODE"},{"name":"TOWNNAME","type":"esriFieldTypeString","alias":"TOWNNAME","length":8},{"name":"LI","type":"esriFieldTypeString","alias":"LI","length":8},{"name":"LIN","type":"esriFieldTypeString","alias":"LIN","length":12},{"name":"STREET","type":"esriFieldTypeString","alias":"STREET","length":20},{"name":"SECT","type":"esriFieldTypeString","alias":"SECT","length":8},{"name":"MAREA","type":"esriFieldTypeString","alias":"MAREA","length":12},{"name":"LANE","type":"esriFieldTypeString","alias":"LANE","length":10},{"name":"ALLEY","type":"esriFieldTypeString","alias":"ALLEY","length":10},{"name":"HOUSE_NO","type":"esriFieldTypeString","alias":"HOUSE_NO","length":20},{"name":"E_COORD97","type":"esriFieldTypeDouble","alias":"E_COORD97"},{"name":"N_COORD97","type":"esriFieldTypeDouble","alias":"N_COORD97"},{"name":"ADDRESS","type":"esriFieldTypeString","alias":"ADDRESS","length":50},{"name":"OBJECTID","type":"esriFieldTypeOID","alias":"OBJECTID"}],"features":[{"attributes":{"ID":332410,"DIS_CODE":0,"TOWNNAME":"將軍區","LI":"嘉昌里","LIN":"20鄰","STREET":" ","SECT":" ","MAREA":"昌平","LANE":" ","ALLEY":" ","HOUSE_NO":"８０之１號","E_COORD97":163278.81,"N_COORD97":2567289.25,"ADDRESS":"昌平８０之１號","OBJECTID":332401},"geometry":{"x":163278.80999999959,"y":2567289.25}},{"attributes":{"ID":332411,"DIS_CODE":0,"TOWNNAME":"將軍區","LI":"嘉昌里","LIN":"20鄰","STREET":" ","SECT":" ","MAREA":"昌平","LANE":" ","ALLEY":" ","HOUSE_NO":"８０號","E_COORD97":163290.75,"N_COORD97":2567275.1600000001,"ADDRESS":"昌平８０號","OBJECTID":332402},"geometry":{"x":163290.75000000093,"y":2567275.160000002}},{"attributes":{"ID":332412,"DIS_CODE":0,"TOWNNAME":"將軍區","LI":"嘉昌里","LIN":"20鄰","STREET":" ","SECT":" ","MAREA":"昌平","LANE":" ","ALLEY":" ","HOUSE_NO":"８１號","E_COORD97":163265.41,"N_COORD97":2567288.1499999999,"ADDRESS":"昌平８１號","OBJECTID":332403},"geometry":{"x":163265.41000000015,"y":2567288.1499999985}},{"attributes":{"ID":332413,"DIS_CODE":0,"TOWNNAME":"將軍區","LI":"嘉昌里","LIN":"20鄰","STREET":" ","SECT":" ","MAREA":"昌平","LANE":" ","ALLEY":" ","HOUSE_NO":"８２之１號","E_COORD97":163246,"N_COORD97":2567271.4399999999,"ADDRESS":"昌平８２之１號","OBJECTID":332404},"geometry":{"x":163246,"y":2567271.4399999995}},{"attributes":{"ID":332414,"DIS_CODE":0,"TOWNNAME":"歸仁區","LI":"武東里","LIN":"6鄰","STREET":"高鐵七路","SECT":" ","MAREA":" ","LANE":"１１０巷","ALLEY":" ","HOUSE_NO":"６２號","E_COORD97":175849.090203,"N_COORD97":2535700.4912100001,"ADDRESS":"高鐵七路１１０巷６２號","OBJECTID":332405},"geometry":{"x":175849.0902030021,"y":2535700.491208002}},{"attributes":{"ID":332415,"DIS_CODE":0,"TOWNNAME":"東區","LI":"東光里","LIN":"15鄰","STREET":"東光路","SECT":"一段","MAREA":" ","LANE":"１０２巷","ALLEY":" ","HOUSE_NO":"３號","E_COORD97":171219.25,"N_COORD97":2543835.9500000002,"ADDRESS":"東光路一段１０２巷３號","OBJECTID":332406},"geometry":{"x":171219.25000000093,"y":2543835.9499999993}},{"attributes":{"ID":332416,"DIS_CODE":0,"TOWNNAME":"東區","LI":"東安里","LIN":"15鄰","STREET":"衛國街","SECT":" ","MAREA":" ","LANE":"２５巷","ALLEY":" ","HOUSE_NO":"２２號","E_COORD97":170164.14999999999,"N_COORD97":2543041.3300000001,"ADDRESS":"衛國街２５巷２２號","OBJECTID":332407},"geometry":{"x":170164.1500000013,"y":2543041.3300000001}},{"attributes":{"ID":332417,"DIS_CODE":0,"TOWNNAME":"東區","LI":"東光里","LIN":"15鄰","STREET":"東光路","SECT":"一段","MAREA":" ","LANE":"１２６巷","ALLEY":" ","HOUSE_NO":"２號","E_COORD97":171220.12,"N_COORD97":2543876.25,"ADDRESS":"東光路一段１２６巷２號","OBJECTID":332408},"geometry":{"x":171220.12000000104,"y":2543876.25}},{"attributes":{"ID":332418,"DIS_CODE":0,"TOWNNAME":"東區","LI":"東光里","LIN":"15鄰","STREET":"東光路","SECT":"一段","MAREA":" ","LANE":"１２６巷","ALLEY":" ","HOUSE_NO":"６號","E_COORD97":171228.79000000001,"N_COORD97":2543874.9399999999,"ADDRESS":"東光路一段１２６巷６號","OBJECTID":332409},"geometry":{"x":171228.7900000019,"y":2543874.9400000032}},{"attributes":{"ID":332419,"DIS_CODE":0,"TOWNNAME":"東區","LI":"東光里","LIN":"15鄰","STREET":"東光路","SECT":"一段","MAREA":" ","LANE":"１２６巷","ALLEY":" ","HOUSE_NO":"８號","E_COORD97":171237.31,"N_COORD97":2543873.4700000002,"ADDRESS":"東光路一段１２６巷８號","OBJECTID":332410},"geometry":{"x":171237.31000000052,"y":2543873.4700000025}},{"attributes":{"ID":332420,"DIS_CODE":0,"TOWNNAME":"東區","LI":"東光里","LIN":"15鄰","STREET":"東光路","SECT":"一段","MAREA":" ","LANE":"１２６巷","ALLEY":" ","HOUSE_NO":"１０號","E_COORD97":171246.47,"N_COORD97":2543872.4900000002,"ADDRESS":"東光路一段１２６巷１０號","OBJECTID":332411},"geometry":{"x":171246.47000000067,"y":2543872.4900000021}},{"attributes":{"ID":332421,"DIS_CODE":0,"TOWNNAME":"東區","LI":"東光里","LIN":"15鄰","STREET":"東光路","SECT":"一段","MAREA":" ","LANE":"１２６巷","ALLEY":" ","HOUSE_NO":"１２號","E_COORD97":171256.95000000001,"N_COORD97":2543871.8300000001,"ADDRESS":"東光路一段１２６巷１２號","OBJECTID":332412},"geometry":{"x":171256.95000000112,"y":2543871.8300000001}},{"attributes":{"ID":332422,"DIS_CODE":0,"TOWNNAME":"東區","LI":"東光里","LIN":"15鄰","STREET":"東光路","SECT":"一段","MAREA":" ","LANE":"１２６巷","ALLEY":" ","HOUSE_NO":"１６號","E_COORD97":171267.42999999999,"N_COORD97":2543870.3599999999,"ADDRESS":"東光路一段１２６巷１６號","OBJECTID":332413},"geometry":{"x":171267.4299999997,"y":2543870.3599999994}},{"attributes":{"ID":332423,"DIS_CODE":0,"TOWNNAME":"東區","LI":"東光里","LIN":"15鄰","STREET":"東光路","SECT":"一段","MAREA":" ","LANE":"１０２巷","ALLEY":" ","HOUSE_NO":"１９號","E_COORD97":171266.35000000001,"N_COORD97":2543831.0600000001,"ADDRESS":"東光路一段１０２巷１９號","OBJECTID":332414},"geometry":{"x":171266.34999999963,"y":2543831.0600000042}},{"attributes":{"ID":332424,"DIS_CODE":0,"TOWNNAME":"東區","LI":"崇德里","LIN":"15鄰","STREET":"崇明十三街","SECT":" ","MAREA":" ","LANE":"１０巷","ALLEY":" ","HOUSE_NO":"１號","E_COORD97":170498.20000000001,"N_COORD97":2541582.8700000001,"ADDRESS":"崇明十三街１０巷１號","OBJECTID":332415},"geometry":{"x":170498.20000000019,"y":2541582.8700000029}},{"attributes":{"ID":332425,"DIS_CODE":0,"TOWNNAME":"西港區","LI":"慶安里","LIN":"15鄰","STREET":"慶安路","SECT":" ","MAREA":" ","LANE":"１７０巷","ALLEY":" ","HOUSE_NO":"８號","E_COORD97":167961.34,"N_COORD97":2557921.4399999999,"ADDRESS":"慶安路１７０巷８號","OBJECTID":332416},"geometry":{"x":167961.33999999985,"y":2557921.4400000032}},{"attributes":{"ID":332426,"DIS_CODE":0,"TOWNNAME":"安南區","LI":"海東里","LIN":"15鄰","STREET":"海中街","SECT":" ","MAREA":" ","LANE":"１８巷","ALLEY":" ","HOUSE_NO":"２號","E_COORD97":166559.92999999999,"N_COORD97":2548833.6699999999,"ADDRESS":"海中街１８巷２號","OBJECTID":332417},"geometry":{"x":166559.9299999997,"y":2548833.6699999999}},{"attributes":{"ID":332427,"DIS_CODE":0,"TOWNNAME":"仁德區","LI":"仁德里","LIN":"3鄰","STREET":"仁中三街","SECT":" ","MAREA":" ","LANE":" ","ALLEY":" ","HOUSE_NO":"１０５號","E_COORD97":173181.70397800001,"N_COORD97":2540412.3467199998,"ADDRESS":"仁中三街１０５號","OBJECTID":332418},"geometry":{"x":173181.70397800114,"y":2540412.3467190024}},{"attributes":{"ID":332428,"DIS_CODE":0,"TOWNNAME":"南區","LI":"佛壇里","LIN":"15鄰","STREET":"興南街","SECT":" ","MAREA":" ","LANE":"１５１巷","ALLEY":" ","HOUSE_NO":"５０號","E_COORD97":166111.60000000001,"N_COORD97":2535691.4199999999,"ADDRESS":"興南街１５１巷５０號","OBJECTID":332419},"geometry":{"x":166111.59999999963,"y":2535691.4200000037}},{"attributes":{"ID":332429,"DIS_CODE":0,"TOWNNAME":"南區","LI":"佛壇里","LIN":"15鄰","STREET":"興南街","SECT":" ","MAREA":" ","LANE":"１５１巷","ALLEY":" ","HOUSE_NO":"４８號","E_COORD97":166109.38,"N_COORD97":2535696.02,"ADDRESS":"興南街１５１巷４８號","OBJECTID":332420},"geometry":{"x":166109.38000000082,"y":2535696.0199999996}},{"attributes":{"ID":332430,"DIS_CODE":0,"TOWNNAME":"南區","LI":"佛壇里","LIN":"15鄰","STREET":"興南街","SECT":" ","MAREA":" ","LANE":"１５１巷","ALLEY":" ","HOUSE_NO":"４６號","E_COORD97":166107.63,"N_COORD97":2535700.4700000002,"ADDRESS":"興南街１５１巷４６號","OBJECTID":332421},"geometry":{"x":166107.63000000082,"y":2535700.4700000007}},{"attributes":{"ID":332431,"DIS_CODE":0,"TOWNNAME":"將軍區","LI":"廣山里","LIN":"11鄰","STREET":" ","SECT":" ","MAREA":"廣山","LANE":" ","ALLEY":" ","HOUSE_NO":"１０３號","E_COORD97":159505.69896899999,"N_COORD97":2569043.3612799998,"ADDRESS":"廣山１０３號","OBJECTID":332422},"geometry":{"x":159505.69896900002,"y":2569043.3612820003}},{"attributes":{"ID":332432,"DIS_CODE":0,"TOWNNAME":"佳里區","LI":"東寧里","LIN":"20鄰","STREET":" ","SECT":" ","MAREA":"東寧","LANE":" ","ALLEY":" ","HOUSE_NO":"６４號","E_COORD97":166367.64000000001,"N_COORD97":2562636.3300000001,"ADDRESS":"東寧６４號","OBJECTID":332423},"geometry":{"x":166367.64000000153,"y":2562636.3300000019}},{"attributes":{"ID":332433,"DIS_CODE":0,"TOWNNAME":"佳里區","LI":"東寧里","LIN":"20鄰","STREET":" ","SECT":" ","MAREA":"東寧","LANE":" ","ALLEY":" ","HOUSE_NO":"６５號","E_COORD97":166514.04000000001,"N_COORD97":2562639.3799999999,"ADDRESS":"東寧６５號","OBJECTID":332424},"geometry":{"x":166514.04000000004,"y":2562639.379999999}},{"attributes":{"ID":332434,"DIS_CODE":0,"TOWNNAME":"佳里區","LI":"東寧里","LIN":"20鄰","STREET":" ","SECT":" ","MAREA":"東寧","LANE":" ","ALLEY":" ","HOUSE_NO":"６８號","E_COORD97":166525.92999999999,"N_COORD97":2562595.3199999998,"ADDRESS":"東寧６８號","OBJECTID":332425},"geometry":{"x":166525.9299999997,"y":2562595.3200000022}},{"attributes":{"ID":332435,"DIS_CODE":0,"TOWNNAME":"佳里區","LI":"東寧里","LIN":"20鄰","STREET":" ","SECT":" ","MAREA":"東寧","LANE":" ","ALLEY":" ","HOUSE_NO":"６９號之１","E_COORD97":166540.98000000001,"N_COORD97":2562567.4100000001,"ADDRESS":"東寧６９號之１","OBJECTID":332426},"geometry":{"x":166540.98000000138,"y":2562567.410000002}},{"attributes":{"ID":332436,"DIS_CODE":0,"TOWNNAME":"佳里區","LI":"東寧里","LIN":"20鄰","STREET":" ","SECT":" ","MAREA":"東寧","LANE":" ","ALLEY":" ","HOUSE_NO":"６９號","E_COORD97":166538.20999999999,"N_COORD97":2562587.1299999999,"ADDRESS":"東寧６９號","OBJECTID":332427},"geometry":{"x":166538.20999999996,"y":2562587.129999999}},{"attributes":{"ID":332437,"DIS_CODE":0,"TOWNNAME":"佳里區","LI":"東寧里","LIN":"20鄰","STREET":" ","SECT":" ","MAREA":"東寧","LANE":" ","ALLEY":" ","HOUSE_NO":"７０號之１","E_COORD97":166578.85000000001,"N_COORD97":2562714.0299999998,"ADDRESS":"東寧７０號之１","OBJECTID":332428},"geometry":{"x":166578.85000000056,"y":2562714.0299999993}},{"attributes":{"ID":332438,"DIS_CODE":0,"TOWNNAME":"歸仁區","LI":"武東里","LIN":"6鄰","STREET":"高鐵七路","SECT":" ","MAREA":" ","LANE":"１１０巷","ALLEY":" ","HOUSE_NO":"９０號","E_COORD97":175803.10894000001,"N_COORD97":2535722.4161200002,"ADDRESS":"高鐵七路１１０巷９０號","OBJECTID":332429},"geometry":{"x":175803.10894000065,"y":2535722.4161220025}},{"attributes":{"ID":332439,"DIS_CODE":0,"TOWNNAME":"佳里區","LI":"東寧里","LIN":"20鄰","STREET":" ","SECT":" ","MAREA":"東寧","LANE":" ","ALLEY":" ","HOUSE_NO":"７０號","E_COORD97":166561.20999999999,"N_COORD97":2562697.4199999999,"ADDRESS":"東寧７０號","OBJECTID":332430},"geometry":{"x":166561.21000000089,"y":2562697.4199999999}},{"attributes":{"ID":332440,"DIS_CODE":0,"TOWNNAME":"關廟區","LI":"北勢里","LIN":"21鄰","STREET":"成功路","SECT":" ","MAREA":" ","LANE":"３０７巷","ALLEY":" ","HOUSE_NO":"２號","E_COORD97":181354.354784,"N_COORD97":2540452.81586,"ADDRESS":"成功路３０７巷２號","OBJECTID":332431},"geometry":{"x":181354.35478399973,"y":2540452.8158550002}},{"attributes":{"ID":332441,"DIS_CODE":0,"TOWNNAME":"仁德區","LI":"仁德里","LIN":"3鄰","STREET":"仁中三街","SECT":" ","MAREA":" ","LANE":" ","ALLEY":" ","HOUSE_NO":"１０９號","E_COORD97":173172.86874199999,"N_COORD97":2540412.7443200001,"ADDRESS":"仁中三街１０９號","OBJECTID":332432},"geometry":{"x":173172.86874200031,"y":2540412.7443250008}},{"attributes":{"ID":332442,"DIS_CODE":0,"TOWNNAME":"仁德區","LI":"仁德里","LIN":"3鄰","STREET":"仁中三街","SECT":" ","MAREA":" ","LANE":" ","ALLEY":" ","HOUSE_NO":"１１１號","E_COORD97":173168.41132499999,"N_COORD97":2540412.5057600001,"ADDRESS":"仁中三街１１１號","OBJECTID":332433},"geometry":{"x":173168.4113249993,"y":2540412.5057609994}},{"attributes":{"ID":332443,"DIS_CODE":0,"TOWNNAME":"南區","LI":"佛壇里","LIN":"15鄰","STREET":"興南街","SECT":" ","MAREA":" ","LANE":"１５１巷","ALLEY":" ","HOUSE_NO":"６２號","E_COORD97":166119.54000000001,"N_COORD97":2535672.77,"ADDRESS":"興南街１５１巷６２號","OBJECTID":332434},"geometry":{"x":166119.5400000019,"y":2535672.7700000014}},{"attributes":{"ID":332444,"DIS_CODE":0,"TOWNNAME":"南區","LI":"佛壇里","LIN":"15鄰","STREET":"興南街","SECT":" ","MAREA":" ","LANE":"１５１巷","ALLEY":" ","HOUSE_NO":"６６號","E_COORD97":166121.13,"N_COORD97":2535669.1200000001,"ADDRESS":"興南街１５１巷６６號","OBJECTID":332435},"geometry":{"x":166121.13000000082,"y":2535669.120000001}},{"attributes":{"ID":332445,"DIS_CODE":0,"TOWNNAME":"南區","LI":"佛壇里","LIN":"15鄰","STREET":"興南街","SECT":" ","MAREA":" ","LANE":"１５１巷","ALLEY":" ","HOUSE_NO":"６８號","E_COORD97":166123.19,"N_COORD97":2535665.46,"ADDRESS":"興南街１５１巷６８號","OBJECTID":332436},"geometry":{"x":166123.19000000041,"y":2535665.4600000028}},{"attributes":{"ID":332446,"DIS_CODE":0,"TOWNNAME":"南區","LI":"佛壇里","LIN":"15鄰","STREET":"興南街","SECT":" ","MAREA":" ","LANE":"１５１巷","ALLEY":" ","HOUSE_NO":"７０號","E_COORD97":166124.62,"N_COORD97":2535661.5,"ADDRESS":"興南街１５１巷７０號","OBJECTID":332437},"geometry":{"x":166124.62000000104,"y":2535661.5000000019}},{"attributes":{"ID":332447,"DIS_CODE":0,"TOWNNAME":"南區","LI":"佛壇里","LIN":"15鄰","STREET":"興南街","SECT":" ","MAREA":" ","LANE":"１５１巷","ALLEY":" ","HOUSE_NO":"７２號","E_COORD97":166126.37,"N_COORD97":2535657.3700000001,"ADDRESS":"興南街１５１巷７２號","OBJECTID":332438},"geometry":{"x":166126.37000000104,"y":2535657.370000001}},{"attributes":{"ID":332448,"DIS_CODE":0,"TOWNNAME":"南區","LI":"佛壇里","LIN":"15鄰","STREET":"興南街","SECT":" ","MAREA":" ","LANE":"１５１巷","ALLEY":" ","HOUSE_NO":"７６號","E_COORD97":166128.26999999999,"N_COORD97":2535652.8399999999,"ADDRESS":"興南街１５１巷７６號","OBJECTID":332439},"geometry":{"x":166128.27000000048,"y":2535652.8399999999}},{"attributes":{"ID":332449,"DIS_CODE":0,"TOWNNAME":"南區","LI":"佛壇里","LIN":"15鄰","STREET":"興南街","SECT":" ","MAREA":" ","LANE":"１５１巷","ALLEY":" ","HOUSE_NO":"７８號","E_COORD97":166130.48999999999,"N_COORD97":2535648.8700000001,"ADDRESS":"興南街１５１巷７８號","OBJECTID":332440},"geometry":{"x":166130.49000000115,"y":2535648.8700000048}},{"attributes":{"ID":332450,"DIS_CODE":0,"TOWNNAME":"南區","LI":"佛壇里","LIN":"15鄰","STREET":"興南街","SECT":" ","MAREA":" ","LANE":"１５１巷","ALLEY":" ","HOUSE_NO":"８０號","E_COORD97":166132.23999999999,"N_COORD97":2535645.0600000001,"ADDRESS":"興南街１５１巷８０號","OBJECTID":332441},"geometry":{"x":166132.24000000115,"y":2535645.0600000024}},{"attributes":{"ID":332451,"DIS_CODE":0,"TOWNNAME":"南區","LI":"佛壇里","LIN":"15鄰","STREET":"興南街","SECT":" ","MAREA":" ","LANE":"１５１巷","ALLEY":" ","HOUSE_NO":"８２號","E_COORD97":166134.14000000001,"N_COORD97":2535641.1000000001,"ADDRESS":"興南街１５１巷８２號","OBJECTID":332442},"geometry":{"x":166134.1400000006,"y":2535641.0999999996}},{"attributes":{"ID":332452,"DIS_CODE":0,"TOWNNAME":"南區","LI":"佛壇里","LIN":"15鄰","STREET":"興南街","SECT":" ","MAREA":" ","LANE":"１５１巷","ALLEY":" ","HOUSE_NO":"５２號","E_COORD97":166113.67000000001,"N_COORD97":2535686.9700000002,"ADDRESS":"興南街１５１巷５２號","OBJECTID":332443},"geometry":{"x":166113.67000000086,"y":2535686.9700000007}},{"attributes":{"ID":332453,"DIS_CODE":0,"TOWNNAME":"南區","LI":"佛壇里","LIN":"15鄰","STREET":"灣裡路","SECT":" ","MAREA":" ","LANE":"６４０巷","ALLEY":" ","HOUSE_NO":"１６號","E_COORD97":166080.73000000001,"N_COORD97":2535650.04,"ADDRESS":"灣裡路６４０巷１６號","OBJECTID":332444},"geometry":{"x":166080.73000000045,"y":2535650.040000001}},{"attributes":{"ID":332454,"DIS_CODE":0,"TOWNNAME":"南區","LI":"佛壇里","LIN":"15鄰","STREET":"灣裡路","SECT":" ","MAREA":" ","LANE":"６４０巷","ALLEY":" ","HOUSE_NO":"１８號","E_COORD97":166096.01999999999,"N_COORD97":2535644.7599999998,"ADDRESS":"灣裡路６４０巷１８號","OBJECTID":332445},"geometry":{"x":166096.02000000048,"y":2535644.7600000035}},{"attributes":{"ID":332455,"DIS_CODE":0,"TOWNNAME":"山上區","LI":"明和里","LIN":"1鄰","STREET":" ","SECT":" ","MAREA":"明和","LANE":" ","ALLEY":" ","HOUSE_NO":"７６之８號","E_COORD97":182707.33644099999,"N_COORD97":2556037.7250899998,"ADDRESS":"明和７６之８號","OBJECTID":332446},"geometry":{"x":182707.33644099999,"y":2556037.7250919994}},{"attributes":{"ID":332456,"DIS_CODE":0,"TOWNNAME":"下營區","LI":"茅港里","LIN":"16鄰","STREET":" ","SECT":" ","MAREA":"中營","LANE":" ","ALLEY":" ","HOUSE_NO":"７９８號","E_COORD97":176085.73073800001,"N_COORD97":2568462.7484499998,"ADDRESS":"中營７９８號","OBJECTID":332447},"geometry":{"x":176085.73073800001,"y":2568462.7484510019}},{"attributes":{"ID":332457,"DIS_CODE":0,"TOWNNAME":"佳里區","LI":"龍安里","LIN":"5鄰","STREET":" ","SECT":" ","MAREA":"塭子內","LANE":" ","ALLEY":" ","HOUSE_NO":"５６號之６","E_COORD97":164650.09357600001,"N_COORD97":2558287.8096799999,"ADDRESS":"塭子內５６號之６","OBJECTID":332448},"geometry":{"x":164650.09357600007,"y":2558287.8096750025}},{"attributes":{"ID":332458,"DIS_CODE":0,"TOWNNAME":"佳里區","LI":"東寧里","LIN":"20鄰","STREET":" ","SECT":" ","MAREA":"東寧","LANE":" ","ALLEY":" ","HOUSE_NO":"７１號","E_COORD97":166675.34,"N_COORD97":2562537.9399999999,"ADDRESS":"東寧７１號","OBJECTID":332449},"geometry":{"x":166675.34000000078,"y":2562537.9399999995}},{"attributes":{"ID":332459,"DIS_CODE":0,"TOWNNAME":"佳里區","LI":"東寧里","LIN":"20鄰","STREET":" ","SECT":" ","MAREA":"東寧","LANE":" ","ALLEY":" ","HOUSE_NO":"７２號之１","E_COORD97":166703.19,"N_COORD97":2562731.0600000001,"ADDRESS":"東寧７２號之１","OBJECTID":332450},"geometry":{"x":166703.19000000041,"y":2562731.0600000005}},{"attributes":{"ID":332460,"DIS_CODE":0,"TOWNNAME":"佳里區","LI":"東寧里","LIN":"20鄰","STREET":" ","SECT":" ","MAREA":"東寧","LANE":" ","ALLEY":" ","HOUSE_NO":"７２號之２","E_COORD97":166719.48999999999,"N_COORD97":2562734.96,"ADDRESS":"東寧７２號之２","OBJECTID":332451},"geometry":{"x":166719.49000000022,"y":2562734.9600000028}},{"attributes":{"ID":332461,"DIS_CODE":0,"TOWNNAME":"佳里區","LI":"東寧里","LIN":"20鄰","STREET":" ","SECT":" ","MAREA":"東寧","LANE":" ","ALLEY":" ","HOUSE_NO":"７２號","E_COORD97":166690.53,"N_COORD97":2562727.1499999999,"ADDRESS":"東寧７２號","OBJECTID":332452},"geometry":{"x":166690.53000000026,"y":2562727.1500000004}},{"attributes":{"ID":332462,"DIS_CODE":0,"TOWNNAME":"佳里區","LI":"東寧里","LIN":"20鄰","STREET":" ","SECT":" ","MAREA":"東寧","LANE":" ","ALLEY":" ","HOUSE_NO":"７３號","E_COORD97":166751.45000000001,"N_COORD97":2562741.04,"ADDRESS":"東寧７３號","OBJECTID":332453},"geometry":{"x":166751.45000000112,"y":2562741.0399999972}},{"attributes":{"ID":332463,"DIS_CODE":0,"TOWNNAME":"東區","LI":"大德里","LIN":"8鄰","STREET":"大同路","SECT":"二段","MAREA":" ","LANE":" ","ALLEY":" ","HOUSE_NO":"１１７號","E_COORD97":169377.45999999999,"N_COORD97":2542093.8300000001,"ADDRESS":"大同路二段１１７號","OBJECTID":332454},"geometry":{"x":169377.45999999996,"y":2542093.8300000019}},{"attributes":{"ID":332464,"DIS_CODE":0,"TOWNNAME":"東區","LI":"大福里","LIN":"1鄰","STREET":"大同路","SECT":"二段","MAREA":" ","LANE":" ","ALLEY":" ","HOUSE_NO":"２７１號","E_COORD97":169458.10999999999,"N_COORD97":2541701.6699999999,"ADDRESS":"大同路二段２７１號","OBJECTID":332455},"geometry":{"x":169458.11000000034,"y":2541701.6700000018}},{"attributes":{"ID":332465,"DIS_CODE":0,"TOWNNAME":"東區","LI":"大福里","LIN":"1鄰","STREET":"大同路","SECT":"二段","MAREA":" ","LANE":" ","ALLEY":" ","HOUSE_NO":"３０５號","E_COORD97":169468.10000000001,"N_COORD97":2541639.4500000002,"ADDRESS":"大同路二段３０５號","OBJECTID":332456},"geometry":{"x":169468.09999999963,"y":2541639.4499999993}},{"attributes":{"ID":332466,"DIS_CODE":0,"TOWNNAME":"東區","LI":"大福里","LIN":"1鄰","STREET":"大同路","SECT":"二段","MAREA":" ","LANE":" ","ALLEY":" ","HOUSE_NO":"３１５號","E_COORD97":169472.57000000001,"N_COORD97":2541615.6899999999,"ADDRESS":"大同路二段３１５號","OBJECTID":332457},"geometry":{"x":169472.56999999937,"y":2541615.6900000013}},{"attributes":{"ID":332467,"DIS_CODE":0,"TOWNNAME":"東區","LI":"大福里","LIN":"1鄰","STREET":"大同路","SECT":"二段","MAREA":" ","LANE":" ","ALLEY":" ","HOUSE_NO":"３１７號","E_COORD97":169472.95000000001,"N_COORD97":2541612.6400000001,"ADDRESS":"大同路二段３１７號","OBJECTID":332458},"geometry":{"x":169472.95000000019,"y":2541612.6400000006}},{"attributes":{"ID":332468,"DIS_CODE":0,"TOWNNAME":"佳里區","LI":"東寧里","LIN":"20鄰","STREET":" ","SECT":" ","MAREA":"東寧","LANE":" ","ALLEY":" ","HOUSE_NO":"７４號之１","E_COORD97":166679.87,"N_COORD97":2562729.23,"ADDRESS":"東寧７４號之１","OBJECTID":332459},"geometry":{"x":166679.87000000011,"y":2562729.2300000023}},{"attributes":{"ID":332469,"DIS_CODE":0,"TOWNNAME":"關廟區","LI":"山西里","LIN":"19鄰","STREET":"文衡路","SECT":" ","MAREA":" ","LANE":"１１９巷","ALLEY":" ","HOUSE_NO":"２７號","E_COORD97":180683.756272,"N_COORD97":2540429.7140799998,"ADDRESS":"文衡路１１９巷２７號","OBJECTID":332460},"geometry":{"x":180683.75627200119,"y":2540429.7140750028}},{"attributes":{"ID":332470,"DIS_CODE":0,"TOWNNAME":"東山區","LI":"科里里","LIN":"23鄰","STREET":" ","SECT":" ","MAREA":"下庄子","LANE":" ","ALLEY":" ","HOUSE_NO":"３７號","E_COORD97":189702.50194399999,"N_COORD97":2578254.5200499999,"ADDRESS":"下庄子３７號","OBJECTID":332461},"geometry":{"x":189702.50194400176,"y":2578254.5200520009}},{"attributes":{"ID":332471,"DIS_CODE":0,"TOWNNAME":"將軍區","LI":"廣山里","LIN":"14鄰","STREET":" ","SECT":" ","MAREA":"廣山","LANE":" ","ALLEY":" ","HOUSE_NO":"１３７號","E_COORD97":159540.23540800001,"N_COORD97":2569216.47646,"ADDRESS":"廣山１３７號","OBJECTID":332462},"geometry":{"x":159540.23540799972,"y":2569216.4764549993}},{"attributes":{"ID":332472,"DIS_CODE":0,"TOWNNAME":"將軍區","LI":"廣山里","LIN":"14鄰","STREET":" ","SECT":" ","MAREA":"廣山","LANE":" ","ALLEY":" ","HOUSE_NO":"１３８號","E_COORD97":159531.97208800001,"N_COORD97":2569232.7747800001,"ADDRESS":"廣山１３８號","OBJECTID":332463},"geometry":{"x":159531.97208800074,"y":2569232.7747799978}},{"attributes":{"ID":332473,"DIS_CODE":0,"TOWNNAME":"將軍區","LI":"廣山里","LIN":"14鄰","STREET":" ","SECT":" ","MAREA":"廣山","LANE":" ","ALLEY":" ","HOUSE_NO":"１３９號","E_COORD97":159519.471169,"N_COORD97":2569241.4531100001,"ADDRESS":"廣山１３９號","OBJECTID":332464},"geometry":{"x":159519.47116900049,"y":2569241.4531080015}},{"attributes":{"ID":332474,"DIS_CODE":0,"TOWNNAME":"新營區","LI":"太北里","LIN":"1鄰","STREET":" ","SECT":" ","MAREA":"太子宮","LANE":" ","ALLEY":" ","HOUSE_NO":"１號之６","E_COORD97":176477.61710999999,"N_COORD97":2577207.3463400002,"ADDRESS":"太子宮１號之６","OBJECTID":332465},"geometry":{"x":176477.61711000092,"y":2577207.3463400025}},{"attributes":{"ID":332475,"DIS_CODE":0,"TOWNNAME":"關廟區","LI":"山西里","LIN":"7鄰","STREET":"文衡路","SECT":" ","MAREA":" ","LANE":"１１９巷","ALLEY":" ","HOUSE_NO":"２９號","E_COORD97":180677.82384900001,"N_COORD97":2540430.9840699998,"ADDRESS":"文衡路１１９巷２９號","OBJECTID":332466},"geometry":{"x":180677.82384900004,"y":2540430.9840740021}},{"attributes":{"ID":332476,"DIS_CODE":0,"TOWNNAME":"安定區","LI":"蘇林里","LIN":"20鄰","STREET":" ","SECT":" ","MAREA":"蘇厝","LANE":" ","ALLEY":" ","HOUSE_NO":"２２８之１號","E_COORD97":173327.42000000001,"N_COORD97":2558831.2999999998,"ADDRESS":"蘇厝２２８之１號","OBJECTID":332467},"geometry":{"x":173327.41999999993,"y":2558831.3000000007}},{"attributes":{"ID":332477,"DIS_CODE":0,"TOWNNAME":"安定區","LI":"蘇厝里","LIN":"20鄰","STREET":" ","SECT":" ","MAREA":"蘇厝","LANE":" ","ALLEY":" ","HOUSE_NO":"４７７號之１","E_COORD97":173187.75,"N_COORD97":2558933.2999999998,"ADDRESS":"蘇厝４７７號之１","OBJECTID":332468},"geometry":{"x":173187.75000000093,"y":2558933.3000000007}},{"attributes":{"ID":332478,"DIS_CODE":0,"TOWNNAME":"安定區","LI":"蘇林里","LIN":"20鄰","STREET":" ","SECT":" ","MAREA":"蘇厝","LANE":" ","ALLEY":" ","HOUSE_NO":"２２８之６號","E_COORD97":173349.51999999999,"N_COORD97":2558832.2999999998,"ADDRESS":"蘇厝２２８之６號","OBJECTID":332469},"geometry":{"x":173349.52000000048,"y":2558832.3000000045}},{"attributes":{"ID":332479,"DIS_CODE":0,"TOWNNAME":"仁德區","LI":"保安里","LIN":"3鄰","STREET":"保安路","SECT":"一段","MAREA":" ","LANE":" ","ALLEY":" ","HOUSE_NO":"１１２號","E_COORD97":171010.21648500001,"N_COORD97":2536762.8546899999,"ADDRESS":"保安路一段１１２號","OBJECTID":332470},"geometry":{"x":171010.21648500208,"y":2536762.8546850011}},{"attributes":{"ID":332480,"DIS_CODE":0,"TOWNNAME":"將軍區","LI":"玉山里","LIN":"16鄰","STREET":"玉山","SECT":" ","MAREA":" ","LANE":" ","ALLEY":" ","HOUSE_NO":"１３２號","E_COORD97":159896.569873,"N_COORD97":2568306.1788599999,"ADDRESS":"玉山１３２號","OBJECTID":332471},"geometry":{"x":159896.5698730005,"y":2568306.178859001}},{"attributes":{"ID":332481,"DIS_CODE":0,"TOWNNAME":"關廟區","LI":"山西里","LIN":"21鄰","STREET":"南雄路","SECT":"二段","MAREA":" ","LANE":" ","ALLEY":" ","HOUSE_NO":"４７６號","E_COORD97":181092.45785899999,"N_COORD97":2540739.48807,"ADDRESS":"南雄路二段４７６號","OBJECTID":332472},"geometry":{"x":181092.45785900019,"y":2540739.4880740028}},{"attributes":{"ID":332482,"DIS_CODE":0,"TOWNNAME":"將軍區","LI":"玉山里","LIN":"16鄰","STREET":"玉山","SECT":" ","MAREA":" ","LANE":" ","ALLEY":" ","HOUSE_NO":"１３８號","E_COORD97":159871.61564500001,"N_COORD97":2568253.4890600001,"ADDRESS":"玉山１３８號","OBJECTID":332473},"geometry":{"x":159871.61564499978,"y":2568253.4890650027}},{"attributes":{"ID":332483,"DIS_CODE":0,"TOWNNAME":"將軍區","LI":"玉山里","LIN":"16鄰","STREET":"玉山","SECT":" ","MAREA":" ","LANE":" ","ALLEY":" ","HOUSE_NO":"１３９號","E_COORD97":159863.87529299999,"N_COORD97":2568250.50495,"ADDRESS":"玉山１３９號","OBJECTID":332474},"geometry":{"x":159863.87529299874,"y":2568250.5049489997}},{"attributes":{"ID":332484,"DIS_CODE":0,"TOWNNAME":"仁德區","LI":"保安里","LIN":"3鄰","STREET":"保安路","SECT":"一段","MAREA":" ","LANE":" ","ALLEY":" ","HOUSE_NO":"１５８之１號","E_COORD97":171167.581217,"N_COORD97":2536833.1279799999,"ADDRESS":"保安路一段１５８之１號","OBJECTID":332475},"geometry":{"x":171167.58121700026,"y":2536833.1279800013}},{"attributes":{"ID":332485,"DIS_CODE":0,"TOWNNAME":"關廟區","LI":"山西里","LIN":"4鄰","STREET":"正義街","SECT":" ","MAREA":" ","LANE":" ","ALLEY":" ","HOUSE_NO":"３８號","E_COORD97":180847.32165599999,"N_COORD97":2540244.7175099999,"ADDRESS":"正義街３８號","OBJECTID":332476},"geometry":{"x":180847.32165599987,"y":2540244.7175080013}},{"attributes":{"ID":332486,"DIS_CODE":0,"TOWNNAME":"南區","LI":"佛壇里","LIN":"15鄰","STREET":"灣裡路","SECT":" ","MAREA":" ","LANE":"６４０巷","ALLEY":" ","HOUSE_NO":"２０號","E_COORD97":166100.51000000001,"N_COORD97":2535647.0299999998,"ADDRESS":"灣裡路６４０巷２０號","OBJECTID":332477},"geometry":{"x":166100.50999999978,"y":2535647.0300000012}},{"attributes":{"ID":332487,"DIS_CODE":0,"TOWNNAME":"南區","LI":"佛壇里","LIN":"15鄰","STREET":"灣裡路","SECT":" ","MAREA":" ","LANE":"６４０巷","ALLEY":" ","HOUSE_NO":"２２號","E_COORD97":166105.85999999999,"N_COORD97":2535649.9199999999,"ADDRESS":"灣裡路６４０巷２２號","OBJECTID":332478},"geometry":{"x":166105.8600000022,"y":2535649.9199999999}},{"attributes":{"ID":332488,"DIS_CODE":0,"TOWNNAME":"關廟區","LI":"山西里","LIN":"5鄰","STREET":"文衡路","SECT":" ","MAREA":" ","LANE":" ","ALLEY":" ","HOUSE_NO":"１１３號","E_COORD97":180901.56095399999,"N_COORD97":2540359.4407799998,"ADDRESS":"文衡路１１３號","OBJECTID":332479},"geometry":{"x":180901.56095399987,"y":2540359.4407790024}},{"attributes":{"ID":332489,"DIS_CODE":0,"TOWNNAME":"佳里區","LI":"六安里","LIN":"22鄰","STREET":"佳北路","SECT":" ","MAREA":" ","LANE":" ","ALLEY":" ","HOUSE_NO":"２６０號","E_COORD97":165671.063146,"N_COORD97":2563491.1198900002,"ADDRESS":"佳北路２６０號","OBJECTID":332480},"geometry":{"x":165671.0631459998,"y":2563491.1198900007}},{"attributes":{"ID":332490,"DIS_CODE":0,"TOWNNAME":"南區","LI":"佛壇里","LIN":"15鄰","STREET":"灣裡路","SECT":" ","MAREA":" ","LANE":"６４０巷","ALLEY":" ","HOUSE_NO":"２６號","E_COORD97":166093.91,"N_COORD97":2535677.1600000001,"ADDRESS":"灣裡路６４０巷２６號","OBJECTID":332481},"geometry":{"x":166093.91000000108,"y":2535677.160000002}},{"attributes":{"ID":332491,"DIS_CODE":0,"TOWNNAME":"南區","LI":"省躬里","LIN":"15鄰","STREET":"萬年一街","SECT":" ","MAREA":" ","LANE":"３６８巷","ALLEY":" ","HOUSE_NO":"２０號","E_COORD97":166353.35000000001,"N_COORD97":2537118.7799999998,"ADDRESS":"萬年一街３６８巷２０號","OBJECTID":332482},"geometry":{"x":166353.35000000056,"y":2537118.7800000031}},{"attributes":{"ID":332492,"DIS_CODE":0,"TOWNNAME":"東區","LI":"後甲里","LIN":"15鄰","STREET":"裕農路","SECT":" ","MAREA":" ","LANE":"６２１巷","ALLEY":" ","HOUSE_NO":"５１號","E_COORD97":171525.16,"N_COORD97":2543444.52,"ADDRESS":"裕農路６２１巷５１號","OBJECTID":332483},"geometry":{"x":171525.16000000108,"y":2543444.5200000014}},{"attributes":{"ID":332493,"DIS_CODE":0,"TOWNNAME":"東區","LI":"後甲里","LIN":"15鄰","STREET":"裕農路","SECT":" ","MAREA":" ","LANE":"６２１巷","ALLEY":" ","HOUSE_NO":"５３號","E_COORD97":171515.26999999999,"N_COORD97":2543430.3100000001,"ADDRESS":"裕農路６２１巷５３號","OBJECTID":332484},"geometry":{"x":171515.27000000048,"y":2543430.3100000024}},{"attributes":{"ID":332494,"DIS_CODE":0,"TOWNNAME":"東區","LI":"後甲里","LIN":"15鄰","STREET":"裕農路","SECT":" ","MAREA":" ","LANE":"６２１巷","ALLEY":" ","HOUSE_NO":"６３號","E_COORD97":171531.85999999999,"N_COORD97":2543497.7999999998,"ADDRESS":"裕農路６２１巷６３號","OBJECTID":332485},"geometry":{"x":171531.86000000034,"y":2543497.8000000026}},{"attributes":{"ID":332495,"DIS_CODE":0,"TOWNNAME":"東區","LI":"後甲里","LIN":"15鄰","STREET":"裕農路","SECT":" ","MAREA":" ","LANE":"６２１巷","ALLEY":" ","HOUSE_NO":"６９號","E_COORD97":171500.79999999999,"N_COORD97":2543473.7599999998,"ADDRESS":"裕農路６２１巷６９號","OBJECTID":332486},"geometry":{"x":171500.79999999981,"y":2543473.7600000016}},{"attributes":{"ID":332496,"DIS_CODE":0,"TOWNNAME":"東區","LI":"後甲里","LIN":"15鄰","STREET":"裕農路","SECT":" ","MAREA":" ","LANE":"６２１巷","ALLEY":" ","HOUSE_NO":"６７號","E_COORD97":171503.20000000001,"N_COORD97":2543461.7000000002,"ADDRESS":"裕農路６２１巷６７號","OBJECTID":332487},"geometry":{"x":171503.20000000112,"y":2543461.6999999993}},{"attributes":{"ID":332497,"DIS_CODE":0,"TOWNNAME":"東區","LI":"忠孝里","LIN":"15鄰","STREET":"榮譽街","SECT":" ","MAREA":" ","LANE":"１０７巷","ALLEY":" ","HOUSE_NO":"１號","E_COORD97":169817.17000000001,"N_COORD97":2541761.3399999999,"ADDRESS":"榮譽街１０７巷１號","OBJECTID":332488},"geometry":{"x":169817.16999999993,"y":2541761.3400000017}},{"attributes":{"ID":332498,"DIS_CODE":0,"TOWNNAME":"東區","LI":"忠孝里","LIN":"15鄰","STREET":"榮譽街","SECT":" ","MAREA":" ","LANE":"１０７巷","ALLEY":" ","HOUSE_NO":"３號","E_COORD97":169809.23999999999,"N_COORD97":2541770.54,"ADDRESS":"榮譽街１０７巷３號","OBJECTID":332489},"geometry":{"x":169809.24000000115,"y":2541770.5399999991}},{"attributes":{"ID":332499,"DIS_CODE":0,"TOWNNAME":"關廟區","LI":"山西里","LIN":"8鄰","STREET":"成功路","SECT":" ","MAREA":" ","LANE":"５３０巷","ALLEY":" ","HOUSE_NO":"３１號","E_COORD97":180813.42209499999,"N_COORD97":2540708.95517,"ADDRESS":"成功路５３０巷３１號","OBJECTID":332490},"geometry":{"x":180813.42209499981,"y":2540708.9551740009}},{"attributes":{"ID":332500,"DIS_CODE":0,"TOWNNAME":"關廟區","LI":"山西里","LIN":"9鄰","STREET":"南雄路","SECT":"二段","MAREA":" ","LANE":"７０５巷","ALLEY":" ","HOUSE_NO":"３１號","E_COORD97":180814.69331999999,"N_COORD97":2541049.73832,"ADDRESS":"文衡路７０５巷３１號","OBJECTID":332491},"geometry":{"x":180814.69332000054,"y":2541049.7383200023}},{"attributes":{"ID":332501,"DIS_CODE":0,"TOWNNAME":"歸仁區","LI":"大潭里","LIN":"13鄰","STREET":"長榮路","SECT":"一段","MAREA":" ","LANE":"１６３巷","ALLEY":" ","HOUSE_NO":"１２號","E_COORD97":174973.992405,"N_COORD97":2534618.6680800002,"ADDRESS":"長榮路一段１６３巷１２號","OBJECTID":332492},"geometry":{"x":174973.99240500014,"y":2534618.6680760011}},{"attributes":{"ID":332502,"DIS_CODE":0,"TOWNNAME":"歸仁區","LI":"大潭里","LIN":"13鄰","STREET":"長榮路","SECT":"一段","MAREA":" ","LANE":"１６３巷","ALLEY":" ","HOUSE_NO":"１４號","E_COORD97":174976.111091,"N_COORD97":2534628.19307,"ADDRESS":"長榮路一段１６３巷１４號","OBJECTID":332493},"geometry":{"x":174976.11109100096,"y":2534628.19307}},{"attributes":{"ID":332503,"DIS_CODE":0,"TOWNNAME":"佳里區","LI":"建南里","LIN":"25鄰","STREET":"公園路","SECT":" ","MAREA":" ","LANE":"１７０巷","ALLEY":" ","HOUSE_NO":"５號之１","E_COORD97":165350.443585,"N_COORD97":2561820.6784000001,"ADDRESS":"公園路１７０巷５號之１","OBJECTID":332494},"geometry":{"x":165350.44358500093,"y":2561820.6784050036}},{"attributes":{"ID":332504,"DIS_CODE":0,"TOWNNAME":"仁德區","LI":"仁愛里","LIN":"24鄰","STREET":"保仁路","SECT":" ","MAREA":" ","LANE":" ","ALLEY":" ","HOUSE_NO":"２５０號二樓之１","E_COORD97":169990.08523999999,"N_COORD97":2540066.0099999998,"ADDRESS":"保仁路２５０號二樓之１","OBJECTID":332495},"geometry":{"x":169990.08524000179,"y":2540066.0099999998}},{"attributes":{"ID":332505,"DIS_CODE":0,"TOWNNAME":"關廟區","LI":"山西里","LIN":"9鄰","STREET":"文衡路","SECT":" ","MAREA":" ","LANE":" ","ALLEY":" ","HOUSE_NO":"３００號","E_COORD97":180927.40937000001,"N_COORD97":2540738.2709900001,"ADDRESS":"文衡路３００號","OBJECTID":332496},"geometry":{"x":180927.40936999954,"y":2540738.2709910013}},{"attributes":{"ID":332506,"DIS_CODE":0,"TOWNNAME":"關廟區","LI":"山西里","LIN":"10鄰","STREET":"文衡路","SECT":" ","MAREA":" ","LANE":" ","ALLEY":" ","HOUSE_NO":"２２６號","E_COORD97":180926.77375299999,"N_COORD97":2540604.8152299998,"ADDRESS":"文衡路２２６號","OBJECTID":332497},"geometry":{"x":180926.77375300042,"y":2540604.8152300008}},{"attributes":{"ID":332507,"DIS_CODE":0,"TOWNNAME":"仁德區","LI":"保安里","LIN":"2鄰","STREET":"保安路","SECT":"一段","MAREA":" ","LANE":" ","ALLEY":" ","HOUSE_NO":"７９之１號","E_COORD97":170908.43227399999,"N_COORD97":2536741.2647000002,"ADDRESS":"保安路一段７９之１號","OBJECTID":332498},"geometry":{"x":170908.43227399979,"y":2536741.264696002}},{"attributes":{"ID":332508,"DIS_CODE":0,"TOWNNAME":"仁德區","LI":"保安里","LIN":"2鄰","STREET":"保安路","SECT":"一段","MAREA":" ","LANE":" ","ALLEY":" ","HOUSE_NO":"７９號","E_COORD97":170917.327724,"N_COORD97":2536796.298,"ADDRESS":"保安路一段７９號","OBJECTID":332499},"geometry":{"x":170917.3277240023,"y":2536796.2980000041}},{"attributes":{"ID":332509,"DIS_CODE":0,"TOWNNAME":"仁德區","LI":"保安里","LIN":"3鄰","STREET":"保安路","SECT":"一段","MAREA":" ","LANE":" ","ALLEY":" ","HOUSE_NO":"１１０號","E_COORD97":170971.12401100001,"N_COORD97":2536740.4180299998,"ADDRESS":"保安路一段１１０號","OBJECTID":332500},"geometry":{"x":170971.12401100062,"y":2536740.4180299994}},{"attributes":{"ID":332510,"DIS_CODE":0,"TOWNNAME":"仁德區","LI":"太子里","LIN":"17鄰","STREET":"長興四街","SECT":" ","MAREA":" ","LANE":" ","ALLEY":" ","HOUSE_NO":"４１號","E_COORD97":174008.63674099999,"N_COORD97":2543607.7723099999,"ADDRESS":"長興四街４１號","OBJECTID":332501},"geometry":{"x":174008.63674100209,"y":2543607.7723130025}},{"attributes":{"ID":332511,"DIS_CODE":0,"TOWNNAME":"東區","LI":"忠孝里","LIN":"15鄰","STREET":"榮譽街","SECT":" ","MAREA":" ","LANE":"１０７巷","ALLEY":" ","HOUSE_NO":"９號","E_COORD97":169803.35000000001,"N_COORD97":2541793.0499999998,"ADDRESS":"榮譽街１０７巷９號","OBJECTID":332502},"geometry":{"x":169803.34999999963,"y":2541793.0500000007}},{"attributes":{"ID":332512,"DIS_CODE":0,"TOWNNAME":"安南區","LI":"淵中里","LIN":"17鄰","STREET":"海中街","SECT":" ","MAREA":" ","LANE":" ","ALLEY":" ","HOUSE_NO":"７６１號","E_COORD97":165823.60000000001,"N_COORD97":2549803.1099999999,"ADDRESS":"海中街７６１號","OBJECTID":332503},"geometry":{"x":165823.5999999987,"y":2549803.1099999994}},{"attributes":{"ID":332513,"DIS_CODE":0,"TOWNNAME":"安南區","LI":"淵中里","LIN":"17鄰","STREET":"海中街","SECT":" ","MAREA":" ","LANE":" ","ALLEY":" ","HOUSE_NO":"７６５號","E_COORD97":165824.79000000001,"N_COORD97":2549812.23,"ADDRESS":"海中街７６５號","OBJECTID":332504},"geometry":{"x":165824.79000000097,"y":2549812.2300000023}},{"attributes":{"ID":332514,"DIS_CODE":0,"TOWNNAME":"安南區","LI":"淵中里","LIN":"17鄰","STREET":"海中街","SECT":" ","MAREA":" ","LANE":" ","ALLEY":" ","HOUSE_NO":"７６９號","E_COORD97":165822.73999999999,"N_COORD97":2549819.6400000001,"ADDRESS":"海中街７６９號","OBJECTID":332505},"geometry":{"x":165822.74000000022,"y":2549819.6400000025}},{"attributes":{"ID":332515,"DIS_CODE":0,"TOWNNAME":"安南區","LI":"淵中里","LIN":"17鄰","STREET":"海中街","SECT":" ","MAREA":" ","LANE":" ","ALLEY":" ","HOUSE_NO":"７７１號","E_COORD97":165823.14000000001,"N_COORD97":2549823.2599999998,"ADDRESS":"海中街７７１號","OBJECTID":332506},"geometry":{"x":165823.13999999966,"y":2549823.2600000035}},{"attributes":{"ID":332516,"DIS_CODE":0,"TOWNNAME":"安南區","LI":"淵中里","LIN":"17鄰","STREET":"海中街","SECT":" ","MAREA":" ","LANE":" ","ALLEY":" ","HOUSE_NO":"７７３號","E_COORD97":165821.69,"N_COORD97":2549827.02,"ADDRESS":"海中街７７３號","OBJECTID":332507},"geometry":{"x":165821.69000000041,"y":2549827.0199999996}},{"attributes":{"ID":332517,"DIS_CODE":0,"TOWNNAME":"東區","LI":"忠孝里","LIN":"15鄰","STREET":"榮譽街","SECT":" ","MAREA":" ","LANE":"８７巷","ALLEY":" ","HOUSE_NO":"１６號","E_COORD97":169783.42000000001,"N_COORD97":2541748.8799999999,"ADDRESS":"榮譽街８７巷１６號","OBJECTID":332508},"geometry":{"x":169783.41999999899,"y":2541748.8800000027}},{"attributes":{"ID":332518,"DIS_CODE":0,"TOWNNAME":"東區","LI":"忠孝里","LIN":"15鄰","STREET":"榮譽街","SECT":" ","MAREA":" ","LANE":"８７巷","ALLEY":" ","HOUSE_NO":"１８號","E_COORD97":169797.07000000001,"N_COORD97":2541762.5299999998,"ADDRESS":"榮譽街８７巷１８號","OBJECTID":332509},"geometry":{"x":169797.07000000123,"y":2541762.5300000012}},{"attributes":{"ID":332519,"DIS_CODE":0,"TOWNNAME":"東區","LI":"忠孝里","LIN":"15鄰","STREET":"榮譽街","SECT":" ","MAREA":" ","LANE":"８７巷","ALLEY":" ","HOUSE_NO":"３０號","E_COORD97":169772.31,"N_COORD97":2541808.7200000002,"ADDRESS":"榮譽街８７巷３０號","OBJECTID":332510},"geometry":{"x":169772.31000000052,"y":2541808.7200000007}},{"attributes":{"ID":332520,"DIS_CODE":0,"TOWNNAME":"安南區","LI":"淵中里","LIN":"17鄰","STREET":"海中街","SECT":" ","MAREA":" ","LANE":" ","ALLEY":" ","HOUSE_NO":"７７５號","E_COORD97":165820.35999999999,"N_COORD97":2549831.54,"ADDRESS":"海中街７７５號","OBJECTID":332511},"geometry":{"x":165820.36000000034,"y":2549831.540000001}},{"attributes":{"ID":332521,"DIS_CODE":0,"TOWNNAME":"安南區","LI":"淵中里","LIN":"17鄰","STREET":"海中街","SECT":" ","MAREA":" ","LANE":" ","ALLEY":" ","HOUSE_NO":"７７７號","E_COORD97":165819.97,"N_COORD97":2549835.5,"ADDRESS":"海中街７７７號","OBJECTID":332512},"geometry":{"x":165819.97000000067,"y":2549835.5000000037}},{"attributes":{"ID":332522,"DIS_CODE":0,"TOWNNAME":"安南區","LI":"淵中里","LIN":"17鄰","STREET":"海中街","SECT":" ","MAREA":" ","LANE":" ","ALLEY":" ","HOUSE_NO":"７７９號","E_COORD97":165819.82999999999,"N_COORD97":2549839.98,"ADDRESS":"海中街７７９號","OBJECTID":332513},"geometry":{"x":165819.83000000101,"y":2549839.9800000023}},{"attributes":{"ID":332523,"DIS_CODE":0,"TOWNNAME":"安南區","LI":"淵中里","LIN":"17鄰","STREET":"海中街","SECT":" ","MAREA":" ","LANE":" ","ALLEY":" ","HOUSE_NO":"７８１號","E_COORD97":165818.64999999999,"N_COORD97":2549843.8700000001,"ADDRESS":"海中街７８１號","OBJECTID":332514},"geometry":{"x":165818.65000000037,"y":2549843.8699999992}},{"attributes":{"ID":332524,"DIS_CODE":0,"TOWNNAME":"安南區","LI":"淵中里","LIN":"17鄰","STREET":"海中街","SECT":" ","MAREA":" ","LANE":" ","ALLEY":" ","HOUSE_NO":"７８３號","E_COORD97":165817.51999999999,"N_COORD97":2549847.5,"ADDRESS":"海中街７８３號","OBJECTID":332515},"geometry":{"x":165817.52000000142,"y":2549847.5}},{"attributes":{"ID":332525,"DIS_CODE":0,"TOWNNAME":"歸仁區","LI":"大潭里","LIN":"12鄰","STREET":"長榮路","SECT":"一段","MAREA":" ","LANE":"１７１巷","ALLEY":" ","HOUSE_NO":"９號","E_COORD97":174993.69618699999,"N_COORD97":2534607.6614199998,"ADDRESS":"長榮路一段１７１巷９號","OBJECTID":332516},"geometry":{"x":174993.69618699979,"y":2534607.6614150014}},{"attributes":{"ID":332526,"DIS_CODE":0,"TOWNNAME":"關廟區","LI":"山西里","LIN":"19鄰","STREET":"文衡路","SECT":" ","MAREA":" ","LANE":"１１９巷","ALLEY":" ","HOUSE_NO":"１７號","E_COORD97":180833.232151,"N_COORD97":2540369.81244,"ADDRESS":"文衡路１１９巷１７號","OBJECTID":332517},"geometry":{"x":180833.23215099983,"y":2540369.8124400023}},{"attributes":{"ID":332527,"DIS_CODE":0,"TOWNNAME":"歸仁區","LI":"大潭里","LIN":"9鄰","STREET":"長榮路","SECT":"一段","MAREA":" ","LANE":"２００巷","ALLEY":" ","HOUSE_NO":"６８號","E_COORD97":175118.48680399999,"N_COORD97":2534395.7831999999,"ADDRESS":"長榮路一段２００巷６８號","OBJECTID":332518},"geometry":{"x":175118.48680400196,"y":2534395.7831960022}},{"attributes":{"ID":332528,"DIS_CODE":0,"TOWNNAME":"歸仁區","LI":"大潭里","LIN":"9鄰","STREET":"長榮路","SECT":"一段","MAREA":" ","LANE":"２００巷","ALLEY":" ","HOUSE_NO":"７０號","E_COORD97":175121.24109600001,"N_COORD97":2534389.85653,"ADDRESS":"長榮路一段２００巷７０號","OBJECTID":332519},"geometry":{"x":175121.24109600205,"y":2534389.8565330021}},{"attributes":{"ID":332529,"DIS_CODE":0,"TOWNNAME":"新營區","LI":"民榮里","LIN":"16鄰","STREET":"太子路","SECT":" ","MAREA":" ","LANE":"１９巷","ALLEY":" ","HOUSE_NO":"４９之１號","E_COORD97":178417.22576299999,"N_COORD97":2578000.8698100001,"ADDRESS":"太子路１９巷４９之１號","OBJECTID":332520},"geometry":{"x":178417.22576300055,"y":2578000.8698149994}},{"attributes":{"ID":332530,"DIS_CODE":0,"TOWNNAME":"新營區","LI":"民榮里","LIN":"13鄰","STREET":"新進路","SECT":"二段","MAREA":" ","LANE":" ","ALLEY":" ","HOUSE_NO":"１９９號","E_COORD97":179192.660519,"N_COORD97":2577723.0574699999,"ADDRESS":"新進路二段１９９號","OBJECTID":332521},"geometry":{"x":179192.66051900107,"y":2577723.0574649982}},{"attributes":{"ID":332531,"DIS_CODE":0,"TOWNNAME":"安南區","LI":"州南里","LIN":"20鄰","STREET":"安和路","SECT":"四段","MAREA":" ","LANE":"５３３巷","ALLEY":" ","HOUSE_NO":"２３號","E_COORD97":169884.07999999999,"N_COORD97":2551285.27,"ADDRESS":"安和路四段５３３巷２３號","OBJECTID":332522},"geometry":{"x":169884.08000000007,"y":2551285.2700000014}},{"attributes":{"ID":332532,"DIS_CODE":0,"TOWNNAME":"安南區","LI":"州南里","LIN":"20鄰","STREET":"安和路","SECT":"四段","MAREA":" ","LANE":"５３３巷","ALLEY":" ","HOUSE_NO":"２７號","E_COORD97":169879.32999999999,"N_COORD97":2551283.8799999999,"ADDRESS":"安和路四段５３３巷２７號","OBJECTID":332523},"geometry":{"x":169879.33000000194,"y":2551283.8800000008}},{"attributes":{"ID":332533,"DIS_CODE":0,"TOWNNAME":"安南區","LI":"州南里","LIN":"20鄰","STREET":"安和路","SECT":"四段","MAREA":" ","LANE":"５３３巷","ALLEY":" ","HOUSE_NO":"２９號","E_COORD97":169874.76999999999,"N_COORD97":2551281.7000000002,"ADDRESS":"安和路四段５３３巷２９號","OBJECTID":332524},"geometry":{"x":169874.77000000048,"y":2551281.7000000011}},{"attributes":{"ID":332534,"DIS_CODE":0,"TOWNNAME":"安南區","LI":"州南里","LIN":"20鄰","STREET":"安和路","SECT":"四段","MAREA":" ","LANE":"５３３巷","ALLEY":" ","HOUSE_NO":"３１號","E_COORD97":169869.70999999999,"N_COORD97":2551278.2400000002,"ADDRESS":"安和路四段５３３巷３１號","OBJECTID":332525},"geometry":{"x":169869.71000000183,"y":2551278.2400000039}},{"attributes":{"ID":332535,"DIS_CODE":0,"TOWNNAME":"安南區","LI":"州南里","LIN":"20鄰","STREET":"安和路","SECT":"四段","MAREA":" ","LANE":"５３３巷","ALLEY":" ","HOUSE_NO":"３３號","E_COORD97":169866.10999999999,"N_COORD97":2551273.9500000002,"ADDRESS":"安和路四段５３３巷３３號","OBJECTID":332526},"geometry":{"x":169866.11000000127,"y":2551273.9500000011}},{"attributes":{"ID":332536,"DIS_CODE":0,"TOWNNAME":"東區","LI":"忠孝里","LIN":"15鄰","STREET":"榮譽街","SECT":" ","MAREA":" ","LANE":"８７巷","ALLEY":" ","HOUSE_NO":"３２號","E_COORD97":169765.07000000001,"N_COORD97":2541806.1400000001,"ADDRESS":"榮譽街８７巷３２號","OBJECTID":332527},"geometry":{"x":169765.07000000123,"y":2541806.1400000006}},{"attributes":{"ID":332537,"DIS_CODE":0,"TOWNNAME":"東區","LI":"忠孝里","LIN":"15鄰","STREET":"榮譽街","SECT":" ","MAREA":" ","LANE":"８７巷","ALLEY":" ","HOUSE_NO":"８號","E_COORD97":169788.04999999999,"N_COORD97":2541739.7799999998,"ADDRESS":"榮譽街８７巷８號","OBJECTID":332528},"geometry":{"x":169788.05000000075,"y":2541739.7800000031}},{"attributes":{"ID":332538,"DIS_CODE":0,"TOWNNAME":"東區","LI":"忠孝里","LIN":"15鄰","STREET":"榮譽街","SECT":" ","MAREA":" ","LANE":"８７巷","ALLEY":" ","HOUSE_NO":"６號","E_COORD97":169790.89000000001,"N_COORD97":2541733.8100000001,"ADDRESS":"榮譽街８７巷６號","OBJECTID":332529},"geometry":{"x":169790.8900000006,"y":2541733.8100000005}},{"attributes":{"ID":332539,"DIS_CODE":0,"TOWNNAME":"東區","LI":"忠孝里","LIN":"15鄰","STREET":"榮譽街","SECT":" ","MAREA":" ","LANE":"１０７巷","ALLEY":" ","HOUSE_NO":"７號","E_COORD97":169796.63,"N_COORD97":2541791.9300000002,"ADDRESS":"榮譽街１０７巷７號","OBJECTID":332530},"geometry":{"x":169796.62999999989,"y":2541791.9299999997}},{"attributes":{"ID":332540,"DIS_CODE":0,"TOWNNAME":"東區","LI":"後甲里","LIN":"15鄰","STREET":"裕農路","SECT":" ","MAREA":" ","LANE":"６２１巷","ALLEY":" ","HOUSE_NO":"５１號之４","E_COORD97":171537.95000000001,"N_COORD97":2543449.5800000001,"ADDRESS":"裕農路６２１巷５１號之４","OBJECTID":332531},"geometry":{"x":171537.95000000019,"y":2543449.5800000001}},{"attributes":{"ID":332541,"DIS_CODE":0,"TOWNNAME":"東區","LI":"後甲里","LIN":"15鄰","STREET":"裕農路","SECT":" ","MAREA":" ","LANE":"６２１巷","ALLEY":" ","HOUSE_NO":"５１號之５","E_COORD97":171538.42999999999,"N_COORD97":2543446.21,"ADDRESS":"裕農路６２１巷５１號之５","OBJECTID":332532},"geometry":{"x":171538.43000000063,"y":2543446.2100000009}},{"attributes":{"ID":332542,"DIS_CODE":0,"TOWNNAME":"東區","LI":"後甲里","LIN":"15鄰","STREET":"裕農路","SECT":" ","MAREA":" ","LANE":"６２１巷","ALLEY":" ","HOUSE_NO":"５９號之１","E_COORD97":171530.23000000001,"N_COORD97":2543458.7400000002,"ADDRESS":"裕農路６２１巷５９號之１","OBJECTID":332533},"geometry":{"x":171530.23000000138,"y":2543458.7400000002}},{"attributes":{"ID":332543,"DIS_CODE":0,"TOWNNAME":"安南區","LI":"淵中里","LIN":"17鄰","STREET":"安中路","SECT":"三段","MAREA":" ","LANE":" ","ALLEY":" ","HOUSE_NO":"２５１號","E_COORD97":165767.76999999999,"N_COORD97":2549864.8199999998,"ADDRESS":"安中路三段２５１號","OBJECTID":332534},"geometry":{"x":165767.76999999955,"y":2549864.8200000022}},{"attributes":{"ID":332544,"DIS_CODE":0,"TOWNNAME":"安南區","LI":"淵中里","LIN":"17鄰","STREET":"海中街","SECT":" ","MAREA":" ","LANE":" ","ALLEY":" ","HOUSE_NO":"７６７號","E_COORD97":165823.20999999999,"N_COORD97":2549816.0699999998,"ADDRESS":"海中街７６７號","OBJECTID":332535},"geometry":{"x":165823.20999999903,"y":2549816.0700000022}},{"attributes":{"ID":332545,"DIS_CODE":0,"TOWNNAME":"善化區","LI":"光文里","LIN":"17鄰","STREET":"和平路","SECT":" ","MAREA":" ","LANE":" ","ALLEY":" ","HOUSE_NO":"１４６號","E_COORD97":178124.35999999999,"N_COORD97":2558964.5,"ADDRESS":"和平路１４６號","OBJECTID":332536},"geometry":{"x":178124.36000000034,"y":2558964.5}},{"attributes":{"ID":332546,"DIS_CODE":0,"TOWNNAME":"北區","LI":"成德里","LIN":"26鄰","STREET":"育德一街","SECT":" ","MAREA":" ","LANE":" ","ALLEY":" ","HOUSE_NO":"１３號","E_COORD97":168466.29000000001,"N_COORD97":2545821.7999999998,"ADDRESS":"育德一街１３號","OBJECTID":332537},"geometry":{"x":168466.29000000097,"y":2545821.8000000007}},{"attributes":{"ID":332547,"DIS_CODE":0,"TOWNNAME":"北區","LI":"成德里","LIN":"26鄰","STREET":"育德一街","SECT":" ","MAREA":" ","LANE":" ","ALLEY":" ","HOUSE_NO":"１５號","E_COORD97":168451.04999999999,"N_COORD97":2545822.1099999999,"ADDRESS":"育德一街１５號","OBJECTID":332538},"geometry":{"x":168451.04999999981,"y":2545822.1099999994}},{"attributes":{"ID":332548,"DIS_CODE":0,"TOWNNAME":"北區","LI":"成德里","LIN":"25鄰","STREET":"育德一街","SECT":" ","MAREA":" ","LANE":" ","ALLEY":" ","HOUSE_NO":"１２號","E_COORD97":168572.97,"N_COORD97":2545791.6299999999,"ADDRESS":"育德一街１２號","OBJECTID":332539},"geometry":{"x":168572.97000000067,"y":2545791.629999999}},{"attributes":{"ID":332549,"DIS_CODE":0,"TOWNNAME":"北區","LI":"成德里","LIN":"25鄰","STREET":"育德一街","SECT":" ","MAREA":" ","LANE":" ","ALLEY":" ","HOUSE_NO":"１６號","E_COORD97":168559.31,"N_COORD97":2545793.8500000001,"ADDRESS":"育德一街１６號","OBJECTID":332540},"geometry":{"x":168559.30999999959,"y":2545793.8499999996}},{"attributes":{"ID":332550,"DIS_CODE":0,"TOWNNAME":"善化區","LI":"光文里","LIN":"17鄰","STREET":"民權路","SECT":" ","MAREA":" ","LANE":" ","ALLEY":" ","HOUSE_NO":"１８１號","E_COORD97":178224.64000000001,"N_COORD97":2558997.7599999998,"ADDRESS":"民權路１８１號","OBJECTID":332541},"geometry":{"x":178224.63999999966,"y":2558997.7600000035}},{"attributes":{"ID":332551,"DIS_CODE":0,"TOWNNAME":"善化區","LI":"光文里","LIN":"17鄰","STREET":"民權路","SECT":" ","MAREA":" ","LANE":" ","ALLEY":" ","HOUSE_NO":"１７７號","E_COORD97":178233.70999999999,"N_COORD97":2558999.0099999998,"ADDRESS":"民權路１７７號","OBJECTID":332542},"geometry":{"x":178233.70999999903,"y":2558999.0099999979}},{"attributes":{"ID":332552,"DIS_CODE":0,"TOWNNAME":"善化區","LI":"坐駕里","LIN":"17鄰","STREET":"興華路","SECT":" ","MAREA":" ","LANE":" ","ALLEY":" ","HOUSE_NO":"２５４號","E_COORD97":177998.85000000001,"N_COORD97":2558557,"ADDRESS":"興華路２５４號","OBJECTID":332543},"geometry":{"x":177998.85000000056,"y":2558557.0000000019}},{"attributes":{"ID":332553,"DIS_CODE":0,"TOWNNAME":"善化區","LI":"坐駕里","LIN":"17鄰","STREET":"興華路","SECT":" ","MAREA":" ","LANE":" ","ALLEY":" ","HOUSE_NO":"２７１之１號","E_COORD97":177881.91,"N_COORD97":2558486.27,"ADDRESS":"興華路２７１之１號","OBJECTID":332544},"geometry":{"x":177881.91000000108,"y":2558486.2700000014}},{"attributes":{"ID":332554,"DIS_CODE":0,"TOWNNAME":"仁德區","LI":"保安里","LIN":"3鄰","STREET":"保安路","SECT":"一段","MAREA":" ","LANE":"５６巷","ALLEY":" ","HOUSE_NO":"３號","E_COORD97":170625.112823,"N_COORD97":2536070.16622,"ADDRESS":"保安路一段５６巷３號","OBJECTID":332545},"geometry":{"x":170625.11282300111,"y":2536070.1662160028}},{"attributes":{"ID":332555,"DIS_CODE":0,"TOWNNAME":"仁德區","LI":"保安里","LIN":"3鄰","STREET":"保安路","SECT":"一段","MAREA":" ","LANE":"５６巷","ALLEY":" ","HOUSE_NO":"６號","E_COORD97":170560.93851099999,"N_COORD97":2536070.5895500001,"ADDRESS":"保安路一段５６巷６號","OBJECTID":332546},"geometry":{"x":170560.93851100188,"y":2536070.5895500015}},{"attributes":{"ID":332556,"DIS_CODE":0,"TOWNNAME":"下營區","LI":"營前里","LIN":"23鄰","STREET":"中山路","SECT":"二段","MAREA":" ","LANE":"３０５巷","ALLEY":" ","HOUSE_NO":"５６號","E_COORD97":174983.74918399999,"N_COORD97":2569478.5663399999,"ADDRESS":"中山路二段３０５巷５６號","OBJECTID":332547},"geometry":{"x":174983.74918400031,"y":2569478.5663409997}},{"attributes":{"ID":332557,"DIS_CODE":0,"TOWNNAME":"仁德區","LI":"仁愛里","LIN":"24鄰","STREET":"保仁路","SECT":" ","MAREA":" ","LANE":" ","ALLEY":" ","HOUSE_NO":"２５８號五樓之１","E_COORD97":169971.37372,"N_COORD97":2540089.35286,"ADDRESS":"保仁路２５８號五樓之１","OBJECTID":332548},"geometry":{"x":169971.37372000143,"y":2540089.3528600018}},{"attributes":{"ID":332558,"DIS_CODE":0,"TOWNNAME":"新營區","LI":"民榮里","LIN":"12鄰","STREET":"興農街","SECT":" ","MAREA":" ","LANE":" ","ALLEY":" ","HOUSE_NO":"４９號","E_COORD97":179267.66158499999,"N_COORD97":2577852.3063500002,"ADDRESS":"興農街４９號","OBJECTID":332549},"geometry":{"x":179267.66158500034,"y":2577852.3063529991}},{"attributes":{"ID":332559,"DIS_CODE":0,"TOWNNAME":"新營區","LI":"民榮里","LIN":"12鄰","STREET":"興農街","SECT":" ","MAREA":" ","LANE":" ","ALLEY":" ","HOUSE_NO":"５１號","E_COORD97":179267.66158499999,"N_COORD97":2577839.18303,"ADDRESS":"興農街５１號","OBJECTID":332550},"geometry":{"x":179267.66158500034,"y":2577839.183027003}},{"attributes":{"ID":332560,"DIS_CODE":0,"TOWNNAME":"仁德區","LI":"保安里","LIN":"3鄰","STREET":"保安路","SECT":"一段","MAREA":" ","LANE":" ","ALLEY":" ","HOUSE_NO":"５０號","E_COORD97":170520.48539700001,"N_COORD97":2536021.2712400001,"ADDRESS":"保安路一段５０號","OBJECTID":332551},"geometry":{"x":170520.48539699987,"y":2536021.2712430023}},{"attributes":{"ID":332561,"DIS_CODE":0,"TOWNNAME":"東區","LI":"後甲里","LIN":"15鄰","STREET":"裕農路","SECT":" ","MAREA":" ","LANE":"６２１巷","ALLEY":" ","HOUSE_NO":"６３號之１","E_COORD97":171509.95999999999,"N_COORD97":2543499.21,"ADDRESS":"裕農路６２１巷６３號之１","OBJECTID":332552},"geometry":{"x":171509.95999999996,"y":2543499.2100000028}},{"attributes":{"ID":332562,"DIS_CODE":0,"TOWNNAME":"東區","LI":"後甲里","LIN":"15鄰","STREET":"裕農路","SECT":" ","MAREA":" ","LANE":"６２１巷","ALLEY":" ","HOUSE_NO":"５３號之１","E_COORD97":171503.69,"N_COORD97":2543449.8199999998,"ADDRESS":"裕農路６２１巷５３號之１","OBJECTID":332553},"geometry":{"x":171503.69000000041,"y":2543449.8200000022}},{"attributes":{"ID":332563,"DIS_CODE":0,"TOWNNAME":"東區","LI":"後甲里","LIN":"15鄰","STREET":"裕農路","SECT":" ","MAREA":" ","LANE":"６２１巷","ALLEY":" ","HOUSE_NO":"６９號之３","E_COORD97":171472.32999999999,"N_COORD97":2543467.0099999998,"ADDRESS":"裕農路６２１巷６９號之３","OBJECTID":332554},"geometry":{"x":171472.33000000007,"y":2543467.0099999998}},{"attributes":{"ID":332564,"DIS_CODE":0,"TOWNNAME":"東區","LI":"後甲里","LIN":"15鄰","STREET":"裕農路","SECT":" ","MAREA":" ","LANE":"６２１巷","ALLEY":" ","HOUSE_NO":"６３號之４","E_COORD97":171527.48000000001,"N_COORD97":2543499.5699999998,"ADDRESS":"裕農路６２１巷６３號之４","OBJECTID":332555},"geometry":{"x":171527.48000000045,"y":2543499.5700000022}},{"attributes":{"ID":332565,"DIS_CODE":0,"TOWNNAME":"安南區","LI":"淵東里","LIN":"15鄰","STREET":"本原街","SECT":"三段","MAREA":" ","LANE":"１６９巷","ALLEY":" ","HOUSE_NO":"１１號","E_COORD97":165507.48000000001,"N_COORD97":2550295.2999999998,"ADDRESS":"本原街三段１６９巷１１號","OBJECTID":332556},"geometry":{"x":165507.48000000138,"y":2550295.3000000045}},{"attributes":{"ID":332566,"DIS_CODE":0,"TOWNNAME":"安南區","LI":"淵東里","LIN":"15鄰","STREET":"本原街","SECT":"三段","MAREA":" ","LANE":"１６９巷","ALLEY":" ","HOUSE_NO":"１２號","E_COORD97":165488.07999999999,"N_COORD97":2550282.0099999998,"ADDRESS":"本原街三段１６９巷１２號","OBJECTID":332557},"geometry":{"x":165488.08000000007,"y":2550282.0099999998}},{"attributes":{"ID":332567,"DIS_CODE":0,"TOWNNAME":"安南區","LI":"淵東里","LIN":"15鄰","STREET":"本原街","SECT":"三段","MAREA":" ","LANE":"１６９巷","ALLEY":" ","HOUSE_NO":"１３號","E_COORD97":165508.53,"N_COORD97":2550290.98,"ADDRESS":"本原街三段１６９巷１３號","OBJECTID":332558},"geometry":{"x":165508.53000000119,"y":2550290.9800000023}},{"attributes":{"ID":332568,"DIS_CODE":0,"TOWNNAME":"安南區","LI":"淵東里","LIN":"15鄰","STREET":"本原街","SECT":"三段","MAREA":" ","LANE":"１６９巷","ALLEY":" ","HOUSE_NO":"１７號","E_COORD97":165523.23000000001,"N_COORD97":2550298.6600000001,"ADDRESS":"本原街三段１６９巷１７號","OBJECTID":332559},"geometry":{"x":165523.23000000045,"y":2550298.6599999983}},{"attributes":{"ID":332569,"DIS_CODE":0,"TOWNNAME":"安南區","LI":"淵東里","LIN":"15鄰","STREET":"本原街","SECT":"三段","MAREA":" ","LANE":"１６９巷","ALLEY":" ","HOUSE_NO":"１９號","E_COORD97":165527.26000000001,"N_COORD97":2550299.4300000002,"ADDRESS":"本原街三段１６９巷１９號","OBJECTID":332560},"geometry":{"x":165527.25999999978,"y":2550299.4299999997}},{"attributes":{"ID":332570,"DIS_CODE":0,"TOWNNAME":"安南區","LI":"淵東里","LIN":"15鄰","STREET":"本原街","SECT":"三段","MAREA":" ","LANE":"１６９巷","ALLEY":" ","HOUSE_NO":"１號","E_COORD97":165502.26000000001,"N_COORD97":2550315.3900000001,"ADDRESS":"本原街三段１６９巷１號","OBJECTID":332561},"geometry":{"x":165502.25999999885,"y":2550315.3900000025}},{"attributes":{"ID":332571,"DIS_CODE":0,"TOWNNAME":"安南區","LI":"淵東里","LIN":"15鄰","STREET":"本原街","SECT":"三段","MAREA":" ","LANE":"１６９巷","ALLEY":" ","HOUSE_NO":"２１號","E_COORD97":165531.67000000001,"N_COORD97":2550300.5800000001,"ADDRESS":"本原街三段１６９巷２１號","OBJECTID":332562},"geometry":{"x":165531.66999999993,"y":2550300.5800000019}},{"attributes":{"ID":332572,"DIS_CODE":0,"TOWNNAME":"安南區","LI":"淵東里","LIN":"15鄰","STREET":"本原街","SECT":"三段","MAREA":" ","LANE":"１６９巷","ALLEY":" ","HOUSE_NO":"２號","E_COORD97":165481.07000000001,"N_COORD97":2550308.1400000001,"ADDRESS":"本原街三段１６９巷２號","OBJECTID":332563},"geometry":{"x":165481.07000000123,"y":2550308.1400000006}},{"attributes":{"ID":332573,"DIS_CODE":0,"TOWNNAME":"安南區","LI":"淵東里","LIN":"15鄰","STREET":"本原街","SECT":"三段","MAREA":" ","LANE":"１６９巷","ALLEY":" ","HOUSE_NO":"４號","E_COORD97":165482.16,"N_COORD97":2550301.3900000001,"ADDRESS":"本原街三段１６９巷４號","OBJECTID":332564},"geometry":{"x":165482.16000000108,"y":2550301.3900000043}},{"attributes":{"ID":332574,"DIS_CODE":0,"TOWNNAME":"安南區","LI":"淵東里","LIN":"15鄰","STREET":"本原街","SECT":"三段","MAREA":" ","LANE":"１６９巷","ALLEY":" ","HOUSE_NO":"５號","E_COORD97":165504.5,"N_COORD97":2550307.0800000001,"ADDRESS":"本原街三段１６９巷５號","OBJECTID":332565},"geometry":{"x":165504.50000000186,"y":2550307.0800000019}},{"attributes":{"ID":332575,"DIS_CODE":0,"TOWNNAME":"安南區","LI":"淵東里","LIN":"15鄰","STREET":"本原街","SECT":"三段","MAREA":" ","LANE":"１６９巷","ALLEY":" ","HOUSE_NO":"６號","E_COORD97":165483.73999999999,"N_COORD97":2550295.7599999998,"ADDRESS":"本原街三段１６９巷６號","OBJECTID":332566},"geometry":{"x":165483.74000000022,"y":2550295.7600000016}},{"attributes":{"ID":332576,"DIS_CODE":0,"TOWNNAME":"安南區","LI":"淵東里","LIN":"15鄰","STREET":"本原街","SECT":"三段","MAREA":" ","LANE":"１６９巷","ALLEY":" ","HOUSE_NO":"７號","E_COORD97":165505.54000000001,"N_COORD97":2550303.3500000001,"ADDRESS":"本原街三段１６９巷７號","OBJECTID":332567},"geometry":{"x":165505.54000000004,"y":2550303.3499999996}},{"attributes":{"ID":332577,"DIS_CODE":0,"TOWNNAME":"安南區","LI":"淵東里","LIN":"15鄰","STREET":"本原街","SECT":"三段","MAREA":" ","LANE":"１６９巷","ALLEY":" ","HOUSE_NO":"８號","E_COORD97":165485.48000000001,"N_COORD97":2550290.8900000001,"ADDRESS":"本原街三段１６９巷８號","OBJECTID":332568},"geometry":{"x":165485.48000000138,"y":2550290.8899999987}},{"attributes":{"ID":332578,"DIS_CODE":0,"TOWNNAME":"安南區","LI":"淵東里","LIN":"15鄰","STREET":"本原街","SECT":"三段","MAREA":" ","LANE":"１６９巷","ALLEY":" ","HOUSE_NO":"９號","E_COORD97":165506.59,"N_COORD97":2550299.48,"ADDRESS":"本原街三段１６９巷９號","OBJECTID":332569},"geometry":{"x":165506.58999999985,"y":2550299.4800000004}},{"attributes":{"ID":332579,"DIS_CODE":0,"TOWNNAME":"東區","LI":"小東里","LIN":"19鄰","STREET":"東興路","SECT":" ","MAREA":" ","LANE":" ","ALLEY":" ","HOUSE_NO":"３２８號","E_COORD97":171069.72,"N_COORD97":2544126.4900000002,"ADDRESS":"東興路３２８號","OBJECTID":332570},"geometry":{"x":171069.7200000016,"y":2544126.4900000039}},{"attributes":{"ID":332580,"DIS_CODE":0,"TOWNNAME":"安南區","LI":"淵東里","LIN":"15鄰","STREET":"安中路","SECT":"三段","MAREA":" ","LANE":"４００巷","ALLEY":" ","HOUSE_NO":"１０７之１號","E_COORD97":165506.28,"N_COORD97":2550203.1299999999,"ADDRESS":"安中路三段４００巷１０７之１號","OBJECTID":332571},"geometry":{"x":165506.28000000212,"y":2550203.1300000027}},{"attributes":{"ID":332581,"DIS_CODE":0,"TOWNNAME":"安南區","LI":"淵東里","LIN":"15鄰","STREET":"安中路","SECT":"三段","MAREA":" ","LANE":"４００巷","ALLEY":" ","HOUSE_NO":"１０７號","E_COORD97":165501.69,"N_COORD97":2550201.6000000001,"ADDRESS":"安中路三段４００巷１０７號","OBJECTID":332572},"geometry":{"x":165501.69000000041,"y":2550201.6000000015}},{"attributes":{"ID":332582,"DIS_CODE":0,"TOWNNAME":"安南區","LI":"淵東里","LIN":"15鄰","STREET":"安中路","SECT":"三段","MAREA":" ","LANE":"４００巷","ALLEY":" ","HOUSE_NO":"１０７號之２","E_COORD97":165510.25,"N_COORD97":2550204.6499999999,"ADDRESS":"安中路三段４００巷１０７號之２","OBJECTID":332573},"geometry":{"x":165510.25000000093,"y":2550204.6500000022}},{"attributes":{"ID":332583,"DIS_CODE":0,"TOWNNAME":"安南區","LI":"淵東里","LIN":"15鄰","STREET":"安中路","SECT":"三段","MAREA":" ","LANE":"４００巷","ALLEY":" ","HOUSE_NO":"１０７號之３","E_COORD97":165514.84,"N_COORD97":2550206.4900000002,"ADDRESS":"安中路三段４００巷１０７號之３","OBJECTID":332574},"geometry":{"x":165514.83999999985,"y":2550206.4900000021}},{"attributes":{"ID":332584,"DIS_CODE":0,"TOWNNAME":"歸仁區","LI":"西埔里","LIN":"3鄰","STREET":"保大路","SECT":"二段","MAREA":" ","LANE":"１２９巷","ALLEY":" ","HOUSE_NO":"１號","E_COORD97":176975.591495,"N_COORD97":2544103.0144600002,"ADDRESS":"保大路二段１２９巷１號","OBJECTID":332575},"geometry":{"x":176975.59149500076,"y":2544103.0144560039}},{"attributes":{"ID":332585,"DIS_CODE":0,"TOWNNAME":"仁德區","LI":"保安里","LIN":"3鄰","STREET":"保安路","SECT":"一段","MAREA":" ","LANE":"７２巷","ALLEY":" ","HOUSE_NO":"１２號","E_COORD97":170816.42277100001,"N_COORD97":2536250.8974000001,"ADDRESS":"保安路一段７２巷１２號","OBJECTID":332576},"geometry":{"x":170816.4227710003,"y":2536250.8974000011}},{"attributes":{"ID":332586,"DIS_CODE":0,"TOWNNAME":"下營區","LI":"營前里","LIN":"23鄰","STREET":"中山路","SECT":"二段","MAREA":" ","LANE":"３０５巷","ALLEY":" ","HOUSE_NO":"３６號","E_COORD97":174958.689247,"N_COORD97":2569395.4342999998,"ADDRESS":"中山路二段３０５巷３６號","OBJECTID":332577},"geometry":{"x":174958.68924700003,"y":2569395.4343030024}},{"attributes":{"ID":332587,"DIS_CODE":0,"TOWNNAME":"歸仁區","LI":"西埔里","LIN":"3鄰","STREET":"保大路","SECT":"二段","MAREA":" ","LANE":"１２９巷","ALLEY":" ","HOUSE_NO":"２６號","E_COORD97":176971.24479,"N_COORD97":2544074.2278,"ADDRESS":"保大路二段１２９巷２６號","OBJECTID":332578},"geometry":{"x":176971.24479000177,"y":2544074.2278000005}},{"attributes":{"ID":332588,"DIS_CODE":0,"TOWNNAME":"歸仁區","LI":"西埔里","LIN":"3鄰","STREET":"保大路","SECT":"二段","MAREA":" ","LANE":"１２９巷","ALLEY":" ","HOUSE_NO":"３０號","E_COORD97":176973.25911899999,"N_COORD97":2544064.0678099999,"ADDRESS":"保大路二段１２９巷３０號","OBJECTID":332579},"geometry":{"x":176973.25911900122,"y":2544064.067811003}},{"attributes":{"ID":332589,"DIS_CODE":0,"TOWNNAME":"仁德區","LI":"保安里","LIN":"3鄰","STREET":"保安路","SECT":"一段","MAREA":" ","LANE":"７２巷","ALLEY":" ","HOUSE_NO":"１８號","E_COORD97":170805.409357,"N_COORD97":2536224.8624100001,"ADDRESS":"保安路一段７２巷１８號","OBJECTID":332580},"geometry":{"x":170805.409357002,"y":2536224.8624140024}},{"attributes":{"ID":332590,"DIS_CODE":0,"TOWNNAME":"關廟區","LI":"關廟里","LIN":"5鄰","STREET":"中山路","SECT":"二段","MAREA":" ","LANE":" ","ALLEY":" ","HOUSE_NO":"２６５之４號","E_COORD97":179645.74437599999,"N_COORD97":2540231.9415899999,"ADDRESS":"中山路二段２６５之４號","OBJECTID":332581},"geometry":{"x":179645.74437600095,"y":2540231.941585999}},{"attributes":{"ID":332591,"DIS_CODE":0,"TOWNNAME":"關廟區","LI":"關廟里","LIN":"5鄰","STREET":"中山路","SECT":"二段","MAREA":" ","LANE":" ","ALLEY":" ","HOUSE_NO":"２６５之５號","E_COORD97":179644.47348399999,"N_COORD97":2540227.07326,"ADDRESS":"中山路二段２６５之５號","OBJECTID":332582},"geometry":{"x":179644.47348400205,"y":2540227.0732550025}},{"attributes":{"ID":332592,"DIS_CODE":0,"TOWNNAME":"關廟區","LI":"關廟里","LIN":"5鄰","STREET":"中山路","SECT":"二段","MAREA":" ","LANE":" ","ALLEY":" ","HOUSE_NO":"２６５之６號","E_COORD97":179637.48357800001,"N_COORD97":2540226.01492,"ADDRESS":"中山路二段２６５之６號","OBJECTID":332583},"geometry":{"x":179637.48357800115,"y":2540226.0149229988}},{"attributes":{"ID":332593,"DIS_CODE":0,"TOWNNAME":"關廟區","LI":"關廟里","LIN":"5鄰","STREET":"中山路","SECT":"二段","MAREA":" ","LANE":" ","ALLEY":" ","HOUSE_NO":"２６５之７號","E_COORD97":179642.56714599999,"N_COORD97":2540222.41659,"ADDRESS":"中山路二段２６５之７號","OBJECTID":332584},"geometry":{"x":179642.56714599859,"y":2540222.4165910017}},{"attributes":{"ID":332594,"DIS_CODE":0,"TOWNNAME":"新營區","LI":"王公里","LIN":"34鄰","STREET":"長榮路","SECT":"一段","MAREA":" ","LANE":" ","ALLEY":" ","HOUSE_NO":"５３１號","E_COORD97":180238.15642300001,"N_COORD97":2579851.3277799999,"ADDRESS":"長榮路一段５３１號","OBJECTID":332585},"geometry":{"x":180238.15642300062,"y":2579851.3277819995}},{"attributes":{"ID":332595,"DIS_CODE":0,"TOWNNAME":"關廟區","LI":"關廟里","LIN":"5鄰","STREET":"中山路","SECT":"二段","MAREA":" ","LANE":" ","ALLEY":" ","HOUSE_NO":"２６５之８號","E_COORD97":179638.939808,"N_COORD97":2540236.7305399999,"ADDRESS":"中山路二段２６５之８號","OBJECTID":332586},"geometry":{"x":179638.93980799988,"y":2540236.7305420022}},{"attributes":{"ID":332596,"DIS_CODE":0,"TOWNNAME":"關廟區","LI":"關廟里","LIN":"5鄰","STREET":"中山路","SECT":"二段","MAREA":" ","LANE":" ","ALLEY":" ","HOUSE_NO":"２６５之９號","E_COORD97":179639.94593099999,"N_COORD97":2540235.0636700001,"ADDRESS":"中山路二段２６５之９號","OBJECTID":332587},"geometry":{"x":179639.94593100157,"y":2540235.0636680014}},{"attributes":{"ID":332597,"DIS_CODE":0,"TOWNNAME":"關廟區","LI":"關廟里","LIN":"5鄰","STREET":"中山路","SECT":"二段","MAREA":" ","LANE":" ","ALLEY":" ","HOUSE_NO":"２６５號","E_COORD97":179635.30585100001,"N_COORD97":2540244.55559,"ADDRESS":"中山路二段２６５號","OBJECTID":332588},"geometry":{"x":179635.30585100036,"y":2540244.55559}},{"attributes":{"ID":332598,"DIS_CODE":0,"TOWNNAME":"歸仁區","LI":"西埔里","LIN":"2鄰","STREET":"保大路","SECT":"二段","MAREA":" ","LANE":" ","ALLEY":" ","HOUSE_NO":"１６９號","E_COORD97":176839.889651,"N_COORD97":2544119.3127799998,"ADDRESS":"保大路二段１６９號","OBJECTID":332589},"geometry":{"x":176839.8896510005,"y":2544119.3127810024}},{"attributes":{"ID":332599,"DIS_CODE":0,"TOWNNAME":"安南區","LI":"州南里","LIN":"20鄰","STREET":"安和路","SECT":"四段","MAREA":" ","LANE":"５３３巷","ALLEY":" ","HOUSE_NO":"３９號","E_COORD97":169850.66,"N_COORD97":2551272.21,"ADDRESS":"安和路四段５３３巷３９號","OBJECTID":332590},"geometry":{"x":169850.66000000108,"y":2551272.209999999}},{"attributes":{"ID":332600,"DIS_CODE":0,"TOWNNAME":"東區","LI":"大福里","LIN":"1鄰","STREET":"大同路","SECT":"二段","MAREA":" ","LANE":" ","ALLEY":" ","HOUSE_NO":"３１９號","E_COORD97":169472.95000000001,"N_COORD97":2541609.21,"ADDRESS":"大同路二段３１９號","OBJECTID":332591},"geometry":{"x":169472.95000000019,"y":2541609.2100000009}},{"attributes":{"ID":332601,"DIS_CODE":0,"TOWNNAME":"安南區","LI":"州南里","LIN":"20鄰","STREET":"安和路","SECT":"四段","MAREA":" ","LANE":"５３３巷","ALLEY":" ","HOUSE_NO":"４１號","E_COORD97":169846.82999999999,"N_COORD97":2551268.7400000002,"ADDRESS":"安和路四段５３３巷４１號","OBJECTID":332592},"geometry":{"x":169846.83000000007,"y":2551268.7400000021}},{"attributes":{"ID":332602,"DIS_CODE":0,"TOWNNAME":"安南區","LI":"州南里","LIN":"20鄰","STREET":"安和路","SECT":"四段","MAREA":" ","LANE":"５３３巷","ALLEY":" ","HOUSE_NO":"４３號","E_COORD97":169841.95999999999,"N_COORD97":2551268.9700000002,"ADDRESS":"安和路四段５３３巷４３號","OBJECTID":332593},"geometry":{"x":169841.95999999996,"y":2551268.9700000007}},{"attributes":{"ID":332603,"DIS_CODE":0,"TOWNNAME":"安南區","LI":"州南里","LIN":"20鄰","STREET":"安和路","SECT":"四段","MAREA":" ","LANE":"５３３巷","ALLEY":" ","HOUSE_NO":"５９號","E_COORD97":169817.95000000001,"N_COORD97":2551251.8300000001,"ADDRESS":"安和路四段５３３巷５９號","OBJECTID":332594},"geometry":{"x":169817.95000000112,"y":2551251.8300000019}},{"attributes":{"ID":332604,"DIS_CODE":0,"TOWNNAME":"安南區","LI":"溪心里","LIN":"17鄰","STREET":"智安四街","SECT":" ","MAREA":" ","LANE":" ","ALLEY":" ","HOUSE_NO":"７９號","E_COORD97":166157.35000000001,"N_COORD97":2550278.25,"ADDRESS":"智安四街７９號","OBJECTID":332595},"geometry":{"x":166157.34999999963,"y":2550278.2500000019}},{"attributes":{"ID":332605,"DIS_CODE":0,"TOWNNAME":"東區","LI":"大德里","LIN":"20鄰","STREET":"大同路","SECT":"二段","MAREA":" ","LANE":" ","ALLEY":" ","HOUSE_NO":"１２５號","E_COORD97":169384.82999999999,"N_COORD97":2542058.4199999999,"ADDRESS":"大同路二段１２５號","OBJECTID":332596},"geometry":{"x":169384.83000000101,"y":2542058.4200000037}},{"attributes":{"ID":332606,"DIS_CODE":0,"TOWNNAME":"東區","LI":"大德里","LIN":"20鄰","STREET":"大同路","SECT":"二段","MAREA":" ","LANE":" ","ALLEY":" ","HOUSE_NO":"１２７號","E_COORD97":169385.23999999999,"N_COORD97":2542054.1099999999,"ADDRESS":"大同路二段１２７號","OBJECTID":332597},"geometry":{"x":169385.24000000115,"y":2542054.1100000013}},{"attributes":{"ID":332607,"DIS_CODE":0,"TOWNNAME":"東區","LI":"大德里","LIN":"20鄰","STREET":"大同路","SECT":"二段","MAREA":" ","LANE":" ","ALLEY":" ","HOUSE_NO":"１３１號","E_COORD97":169386.26000000001,"N_COORD97":2542048.1699999999,"ADDRESS":"大同路二段１３１號","OBJECTID":332598},"geometry":{"x":169386.26000000071,"y":2542048.1699999999}},{"attributes":{"ID":332608,"DIS_CODE":0,"TOWNNAME":"麻豆區","LI":"東角里","LIN":"11鄰","STREET":"國中街","SECT":" ","MAREA":" ","LANE":" ","ALLEY":" ","HOUSE_NO":"８８號","E_COORD97":173968.63,"N_COORD97":2564569.3100000001,"ADDRESS":"國中街８８號","OBJECTID":332599},"geometry":{"x":173968.62999999989,"y":2564569.3100000024}},{"attributes":{"ID":332609,"DIS_CODE":0,"TOWNNAME":"東區","LI":"圍下里","LIN":"20鄰","STREET":"前鋒路","SECT":" ","MAREA":" ","LANE":" ","ALLEY":" ","HOUSE_NO":"７９號","E_COORD97":169298.64999999999,"N_COORD97":2543578.54,"ADDRESS":"前鋒路７９號","OBJECTID":332600},"geometry":{"x":169298.65000000037,"y":2543578.5399999991}}]}