{"displayFieldName":"TOWNNAME","fieldAliases":{"ID":"ID","DIS_CODE":"DIS_CODE","TOWNNAME":"TOWNNAME","LI":"LI","LIN":"LIN","STREET":"STREET","SECT":"SECT","MAREA":"MAREA","LANE":"LANE","ALLEY":"ALLEY","HOUSE_NO":"HOUSE_NO","E_COORD97":"E_COORD97","N_COORD97":"N_COORD97","ADDRESS":"ADDRESS","OBJECTID":"OBJECTID"},"geometryType":"esriGeometryPoint","spatialReference":{"wkid":102443,"latestWkid":3826},"fields":[{"name":"ID","type":"esriFieldTypeDouble","alias":"ID"},{"name":"DIS_CODE","type":"esriFieldTypeInteger","alias":"DIS_CODE"},{"name":"TOWNNAME","type":"esriFieldTypeString","alias":"TOWNNAME","length":8},{"name":"LI","type":"esriFieldTypeString","alias":"LI","length":8},{"name":"LIN","type":"esriFieldTypeString","alias":"LIN","length":12},{"name":"STREET","type":"esriFieldTypeString","alias":"STREET","length":20},{"name":"SECT","type":"esriFieldTypeString","alias":"SECT","length":8},{"name":"MAREA","type":"esriFieldTypeString","alias":"MAREA","length":12},{"name":"LANE","type":"esriFieldTypeString","alias":"LANE","length":10},{"name":"ALLEY","type":"esriFieldTypeString","alias":"ALLEY","length":10},{"name":"HOUSE_NO","type":"esriFieldTypeString","alias":"HOUSE_NO","length":20},{"name":"E_COORD97","type":"esriFieldTypeDouble","alias":"E_COORD97"},{"name":"N_COORD97","type":"esriFieldTypeDouble","alias":"N_COORD97"},{"name":"ADDRESS","type":"esriFieldTypeString","alias":"ADDRESS","length":50},{"name":"OBJECTID","type":"esriFieldTypeOID","alias":"OBJECTID"}],"features":[{"attributes":{"ID":7201,"DIS_CODE":0,"TOWNNAME":"下營區","LI":"大埤里","LIN":" ","STREET":" ","SECT":" ","MAREA":"大埤寮","LANE":" ","ALLEY":" ","HOUSE_NO":"９號","E_COORD97":173097.20000000001,"N_COORD97":2569758.77,"ADDRESS":"大埤寮９號","OBJECTID":7201},"geometry":{"x":173097.20000000019,"y":2569758.7700000014}},{"attributes":{"ID":7202,"DIS_CODE":0,"TOWNNAME":"麻豆區","LI":"油車里","LIN":"6鄰","STREET":" ","SECT":" ","MAREA":"油車","LANE":" ","ALLEY":" ","HOUSE_NO":"１號","E_COORD97":172547.94,"N_COORD97":2565326.9199999999,"ADDRESS":"油車１號","OBJECTID":7202},"geometry":{"x":172547.94000000041,"y":2565326.9200000018}},{"attributes":{"ID":7203,"DIS_CODE":0,"TOWNNAME":"柳營區","LI":"重溪里","LIN":" ","STREET":" ","SECT":" ","MAREA":"小腳腿","LANE":" ","ALLEY":" ","HOUSE_NO":"９１號","E_COORD97":185278.97,"N_COORD97":2576727.23,"ADDRESS":"小腳腿９１號","OBJECTID":7203},"geometry":{"x":185278.97000000067,"y":2576727.2300000023}},{"attributes":{"ID":7204,"DIS_CODE":0,"TOWNNAME":"柳營區","LI":"大農里","LIN":" ","STREET":" ","SECT":" ","MAREA":"大腳腿","LANE":" ","ALLEY":" ","HOUSE_NO":"３號","E_COORD97":186046.20999999999,"N_COORD97":2575764.1800000002,"ADDRESS":"大腳腿３號","OBJECTID":7204},"geometry":{"x":186046.20999999996,"y":2575764.1800000016}},{"attributes":{"ID":7205,"DIS_CODE":0,"TOWNNAME":"永康區","LI":"龍潭里","LIN":"33鄰","STREET":"龍國街","SECT":" ","MAREA":" ","LANE":" ","ALLEY":" ","HOUSE_NO":"２５２號","E_COORD97":174505.39999999999,"N_COORD97":2548028.6200000001,"ADDRESS":"龍國街２５２號","OBJECTID":7205},"geometry":{"x":174505.4000000013,"y":2548028.6200000048}},{"attributes":{"ID":7206,"DIS_CODE":0,"TOWNNAME":"南化區","LI":"玉山里","LIN":" ","STREET":" ","SECT":" ","MAREA":"玉山","LANE":" ","ALLEY":" ","HOUSE_NO":"７０號","E_COORD97":200761.17000000001,"N_COORD97":2552786.75,"ADDRESS":"玉山７０號","OBJECTID":7206},"geometry":{"x":200761.16999999993,"y":2552786.7500000037}},{"attributes":{"ID":7207,"DIS_CODE":0,"TOWNNAME":"南化區","LI":"北寮里","LIN":" ","STREET":" ","SECT":" ","MAREA":"北寮","LANE":" ","ALLEY":" ","HOUSE_NO":"３號","E_COORD97":197892.54000000001,"N_COORD97":2552973.75,"ADDRESS":"北寮３號","OBJECTID":7207},"geometry":{"x":197892.5400000019,"y":2552973.7500000019}},{"attributes":{"ID":7208,"DIS_CODE":0,"TOWNNAME":"南化區","LI":"北平里","LIN":" ","STREET":" ","SECT":" ","MAREA":"北平","LANE":" ","ALLEY":" ","HOUSE_NO":"８６號","E_COORD97":194118.59,"N_COORD97":2550991.75,"ADDRESS":"北平８６號","OBJECTID":7208},"geometry":{"x":194118.59000000078,"y":2550991.75}},{"attributes":{"ID":7209,"DIS_CODE":0,"TOWNNAME":"東山區","LI":"大客里","LIN":" ","STREET":" ","SECT":" ","MAREA":"大庄","LANE":" ","ALLEY":" ","HOUSE_NO":"１３號","E_COORD97":189656.03,"N_COORD97":2578859.1699999999,"ADDRESS":"大庄１３號","OBJECTID":7209},"geometry":{"x":189656.03000000119,"y":2578859.1700000037}},{"attributes":{"ID":7210,"DIS_CODE":0,"TOWNNAME":"東山區","LI":"水雲里","LIN":" ","STREET":" ","SECT":" ","MAREA":"牛肉崎","LANE":" ","ALLEY":" ","HOUSE_NO":"５８號","E_COORD97":190289.10000000001,"N_COORD97":2573387.2000000002,"ADDRESS":"牛肉崎５８號","OBJECTID":7210},"geometry":{"x":190289.10000000056,"y":2573387.2000000011}},{"attributes":{"ID":7211,"DIS_CODE":0,"TOWNNAME":"東山區","LI":"林安里","LIN":" ","STREET":" ","SECT":" ","MAREA":"林安","LANE":" ","ALLEY":" ","HOUSE_NO":"２５號","E_COORD97":192173.82999999999,"N_COORD97":2575069.3999999999,"ADDRESS":"林安２５號","OBJECTID":7211},"geometry":{"x":192173.83000000007,"y":2575069.4000000004}},{"attributes":{"ID":7212,"DIS_CODE":0,"TOWNNAME":"官田區","LI":"嘉南里","LIN":"1鄰","STREET":" ","SECT":" ","MAREA":"嘉南","LANE":" ","ALLEY":" ","HOUSE_NO":"９號","E_COORD97":184665.30392899999,"N_COORD97":2568069.7512500002,"ADDRESS":"嘉南９號","OBJECTID":7212},"geometry":{"x":184665.30392900109,"y":2568069.7512519974}},{"attributes":{"ID":7213,"DIS_CODE":0,"TOWNNAME":"新市區","LI":"新市里","LIN":"18鄰","STREET":"和平街","SECT":" ","MAREA":" ","LANE":" ","ALLEY":" ","HOUSE_NO":"５號","E_COORD97":177773.56,"N_COORD97":2553459.75,"ADDRESS":"和平街５號","OBJECTID":7213},"geometry":{"x":177773.56000000052,"y":2553459.75}},{"attributes":{"ID":7214,"DIS_CODE":0,"TOWNNAME":"善化區","LI":"坐駕里","LIN":"19鄰","STREET":" ","SECT":" ","MAREA":"坐駕","LANE":" ","ALLEY":" ","HOUSE_NO":"５號","E_COORD97":178309.10999999999,"N_COORD97":2558405.75,"ADDRESS":"坐駕５號","OBJECTID":7214},"geometry":{"x":178309.11000000034,"y":2558405.7500000019}},{"attributes":{"ID":7215,"DIS_CODE":0,"TOWNNAME":"龍崎區","LI":"石嘈里","LIN":"5鄰","STREET":" ","SECT":" ","MAREA":"石嘈","LANE":" ","ALLEY":" ","HOUSE_NO":"６號","E_COORD97":189702.72,"N_COORD97":2540183.25,"ADDRESS":"石嘈６號","OBJECTID":7215},"geometry":{"x":189702.71999999974,"y":2540183.25}},{"attributes":{"ID":7216,"DIS_CODE":0,"TOWNNAME":"南區","LI":"彰南里","LIN":"15鄰","STREET":"新信路","SECT":" ","MAREA":" ","LANE":" ","ALLEY":" ","HOUSE_NO":"７號","E_COORD97":166039.57999999999,"N_COORD97":2541466.8199999998,"ADDRESS":"新信路７號","OBJECTID":7216},"geometry":{"x":166039.58000000194,"y":2541466.8200000022}},{"attributes":{"ID":7217,"DIS_CODE":0,"TOWNNAME":"下營區","LI":"甲中里","LIN":"18鄰","STREET":" ","SECT":" ","MAREA":"中庄子","LANE":" ","ALLEY":" ","HOUSE_NO":"６號","E_COORD97":175365.41,"N_COORD97":2572200.5899999999,"ADDRESS":"中庄子６號","OBJECTID":7217},"geometry":{"x":175365.41000000015,"y":2572200.5899999999}},{"attributes":{"ID":7218,"DIS_CODE":0,"TOWNNAME":"永康區","LI":"埔園里","LIN":"39鄰","STREET":"龍國街","SECT":" ","MAREA":" ","LANE":" ","ALLEY":" ","HOUSE_NO":"９號","E_COORD97":174011.91,"N_COORD97":2548108.9300000002,"ADDRESS":"龍國街９號","OBJECTID":7218},"geometry":{"x":174011.91000000108,"y":2548108.9299999997}},{"attributes":{"ID":7219,"DIS_CODE":0,"TOWNNAME":"永康區","LI":"復華里","LIN":"24鄰","STREET":"國華街","SECT":" ","MAREA":" ","LANE":"１３２巷","ALLEY":"３弄","HOUSE_NO":"２號","E_COORD97":172839.44176399999,"N_COORD97":2546324.219,"ADDRESS":"國華街１３２巷３弄２號","OBJECTID":7219},"geometry":{"x":172839.44176399987,"y":2546324.2189979982}},{"attributes":{"ID":7220,"DIS_CODE":0,"TOWNNAME":"仁德區","LI":"保安里","LIN":"12鄰","STREET":"民生路","SECT":" ","MAREA":" ","LANE":" ","ALLEY":" ","HOUSE_NO":"１號","E_COORD97":172797.10999999999,"N_COORD97":2536180.54,"ADDRESS":"民生路１號","OBJECTID":7220},"geometry":{"x":172797.11000000127,"y":2536180.5399999991}},{"attributes":{"ID":7221,"DIS_CODE":0,"TOWNNAME":"南區","LI":"郡南里","LIN":"4鄰","STREET":"德興路","SECT":" ","MAREA":" ","LANE":" ","ALLEY":" ","HOUSE_NO":"１號","E_COORD97":167189.89000000001,"N_COORD97":2540856.4399999999,"ADDRESS":"德興路１號","OBJECTID":7221},"geometry":{"x":167189.89000000153,"y":2540856.4399999995}},{"attributes":{"ID":7222,"DIS_CODE":0,"TOWNNAME":"佳里區","LI":"東寧里","LIN":"12鄰","STREET":"和平街","SECT":" ","MAREA":" ","LANE":" ","ALLEY":" ","HOUSE_NO":"６號","E_COORD97":166084.23999999999,"N_COORD97":2562522.29,"ADDRESS":"和平街６號","OBJECTID":7222},"geometry":{"x":166084.24000000022,"y":2562522.2899999991}},{"attributes":{"ID":7223,"DIS_CODE":0,"TOWNNAME":"下營區","LI":"賀建里","LIN":"12鄰","STREET":" ","SECT":" ","MAREA":"洲子","LANE":" ","ALLEY":" ","HOUSE_NO":"５號","E_COORD97":177315.13,"N_COORD97":2572054.1699999999,"ADDRESS":"洲子５號","OBJECTID":7223},"geometry":{"x":177315.12999999989,"y":2572054.1699999999}},{"attributes":{"ID":7224,"DIS_CODE":0,"TOWNNAME":"永康區","LI":"復華里","LIN":"21鄰","STREET":"國華街","SECT":" ","MAREA":" ","LANE":"１３２巷","ALLEY":"１０弄","HOUSE_NO":"５號","E_COORD97":172872.388875,"N_COORD97":2546358.3200699999,"ADDRESS":"國華街１３２巷１０弄５號","OBJECTID":7224},"geometry":{"x":172872.38887500111,"y":2546358.3200710043}},{"attributes":{"ID":7225,"DIS_CODE":0,"TOWNNAME":"北區","LI":"力行里","LIN":"12鄰","STREET":"力行街","SECT":" ","MAREA":" ","LANE":" ","ALLEY":" ","HOUSE_NO":"２號","E_COORD97":170909.26000000001,"N_COORD97":2545346.3999999999,"ADDRESS":"力行街２號","OBJECTID":7225},"geometry":{"x":170909.25999999978,"y":2545346.4000000004}},{"attributes":{"ID":7226,"DIS_CODE":0,"TOWNNAME":"東區","LI":"和平里","LIN":"20鄰","STREET":"文化路","SECT":" ","MAREA":" ","LANE":" ","ALLEY":" ","HOUSE_NO":"３號","E_COORD97":171114.34,"N_COORD97":2541931.8900000001,"ADDRESS":"文化路３號","OBJECTID":7226},"geometry":{"x":171114.33999999985,"y":2541931.8900000025}},{"attributes":{"ID":7227,"DIS_CODE":0,"TOWNNAME":"楠西區","LI":"照興里","LIN":"10鄰","STREET":" ","SECT":" ","MAREA":"興南","LANE":" ","ALLEY":" ","HOUSE_NO":"２號","E_COORD97":196530.51999999999,"N_COORD97":2565219.25,"ADDRESS":"興南２號","OBJECTID":7227},"geometry":{"x":196530.51999999955,"y":2565219.2500000037}},{"attributes":{"ID":7228,"DIS_CODE":0,"TOWNNAME":"官田區","LI":"南\u25A0里","LIN":"11鄰","STREET":" ","SECT":" ","MAREA":"三結義","LANE":" ","ALLEY":" ","HOUSE_NO":"４號","E_COORD97":179853.51000000001,"N_COORD97":2568071.71,"ADDRESS":"三結義４號","OBJECTID":7228},"geometry":{"x":179853.50999999978,"y":2568071.7100000046}},{"attributes":{"ID":7229,"DIS_CODE":0,"TOWNNAME":"六甲區","LI":"甲東里","LIN":"2鄰","STREET":"仁愛街","SECT":" ","MAREA":" ","LANE":"６０巷","ALLEY":"２弄","HOUSE_NO":"１號","E_COORD97":183941.802127,"N_COORD97":2570001.1371300002,"ADDRESS":"仁愛街６０巷２弄１號","OBJECTID":7229},"geometry":{"x":183941.80212700181,"y":2570001.1371290013}},{"attributes":{"ID":7230,"DIS_CODE":0,"TOWNNAME":"玉井區","LI":"望明里","LIN":"11鄰","STREET":" ","SECT":" ","MAREA":"劉陳","LANE":" ","ALLEY":" ","HOUSE_NO":"７號","E_COORD97":193395.26000000001,"N_COORD97":2556012.2400000002,"ADDRESS":"劉陳７號","OBJECTID":7230},"geometry":{"x":193395.26000000071,"y":2556012.2400000021}},{"attributes":{"ID":7231,"DIS_CODE":0,"TOWNNAME":"柳營區","LI":"太康里","LIN":"21鄰","STREET":" ","SECT":" ","MAREA":"太康","LANE":" ","ALLEY":" ","HOUSE_NO":"２號","E_COORD97":180362.85999999999,"N_COORD97":2576678.7400000002,"ADDRESS":"太康２號","OBJECTID":7231},"geometry":{"x":180362.86000000127,"y":2576678.7399999984}},{"attributes":{"ID":7232,"DIS_CODE":0,"TOWNNAME":"安南區","LI":"海東里","LIN":"21鄰","STREET":"海東二街","SECT":" ","MAREA":" ","LANE":" ","ALLEY":" ","HOUSE_NO":"６６號","E_COORD97":166881.92350800001,"N_COORD97":2547919.3680199999,"ADDRESS":"海東二街６６號","OBJECTID":7232},"geometry":{"x":166881.92350800056,"y":2547919.3680189997}},{"attributes":{"ID":7233,"DIS_CODE":0,"TOWNNAME":"安南區","LI":"海東里","LIN":"21鄰","STREET":"海東三街","SECT":" ","MAREA":" ","LANE":" ","ALLEY":" ","HOUSE_NO":"３３號","E_COORD97":166916.77309800001,"N_COORD97":2547950.5007199999,"ADDRESS":"海東三街３３號","OBJECTID":7233},"geometry":{"x":166916.77309800033,"y":2547950.5007199999}},{"attributes":{"ID":7234,"DIS_CODE":0,"TOWNNAME":"安南區","LI":"海東里","LIN":"21鄰","STREET":"海東二街","SECT":" ","MAREA":" ","LANE":" ","ALLEY":" ","HOUSE_NO":"４０號","E_COORD97":166926.786934,"N_COORD97":2547923.1277299998,"ADDRESS":"海東二街４０號","OBJECTID":7234},"geometry":{"x":166926.78693400044,"y":2547923.1277319994}},{"attributes":{"ID":7235,"DIS_CODE":0,"TOWNNAME":"安南區","LI":"海東里","LIN":"21鄰","STREET":"海東三街","SECT":" ","MAREA":" ","LANE":" ","ALLEY":" ","HOUSE_NO":"２３號","E_COORD97":166940.70280100001,"N_COORD97":2547951.5590499998,"ADDRESS":"海東三街２３號","OBJECTID":7235},"geometry":{"x":166940.70280100033,"y":2547951.5590530019}},{"attributes":{"ID":7236,"DIS_CODE":0,"TOWNNAME":"安定區","LI":"安定里","LIN":"3鄰","STREET":" ","SECT":" ","MAREA":"安定","LANE":" ","ALLEY":" ","HOUSE_NO":"３號","E_COORD97":172642.62,"N_COORD97":2558048.3199999998,"ADDRESS":"安定３號","OBJECTID":7236},"geometry":{"x":172642.62000000104,"y":2558048.320000004}},{"attributes":{"ID":7237,"DIS_CODE":0,"TOWNNAME":"新營區","LI":"民權里","LIN":"9鄰","STREET":"仁愛街","SECT":" ","MAREA":" ","LANE":" ","ALLEY":" ","HOUSE_NO":"６號","E_COORD97":179827.95999999999,"N_COORD97":2578177.0499999998,"ADDRESS":"仁愛街６號","OBJECTID":7237},"geometry":{"x":179827.96000000089,"y":2578177.0500000026}},{"attributes":{"ID":7238,"DIS_CODE":0,"TOWNNAME":"南化區","LI":"西埔里","LIN":"2鄰","STREET":" ","SECT":" ","MAREA":"西埔","LANE":" ","ALLEY":" ","HOUSE_NO":"８號","E_COORD97":196117.69,"N_COORD97":2547909.75,"ADDRESS":"西埔８號","OBJECTID":7238},"geometry":{"x":196117.69000000134,"y":2547909.75}},{"attributes":{"ID":7239,"DIS_CODE":0,"TOWNNAME":"永康區","LI":"\u25A0洲里","LIN":" ","STREET":"洲尾街","SECT":" ","MAREA":" ","LANE":" ","ALLEY":" ","HOUSE_NO":"２號","E_COORD97":170899.88,"N_COORD97":2549083.8900000001,"ADDRESS":"洲尾街２號","OBJECTID":7239},"geometry":{"x":170899.88000000082,"y":2549083.8899999987}},{"attributes":{"ID":7240,"DIS_CODE":0,"TOWNNAME":"安南區","LI":"淵中里","LIN":"6鄰","STREET":"本田路","SECT":"三段","MAREA":" ","LANE":"３３９巷","ALLEY":" ","HOUSE_NO":"７７號","E_COORD97":164516.10520300001,"N_COORD97":2549761.4906700002,"ADDRESS":"本田路三段３３９巷７７號","OBJECTID":7240},"geometry":{"x":164516.1052029999,"y":2549761.4906720016}},{"attributes":{"ID":7241,"DIS_CODE":0,"TOWNNAME":"中西區","LI":"赤嵌里","LIN":"20鄰","STREET":"赤崁東街","SECT":" ","MAREA":" ","LANE":"９０巷","ALLEY":" ","HOUSE_NO":"６號","E_COORD97":168357.51689699999,"N_COORD97":2544251.9737999998,"ADDRESS":"赤崁東街９０巷６號","OBJECTID":7241},"geometry":{"x":168357.51689700037,"y":2544251.9737990014}},{"attributes":{"ID":7242,"DIS_CODE":0,"TOWNNAME":"麻豆區","LI":"港尾里","LIN":"9鄰","STREET":" ","SECT":" ","MAREA":"港子尾","LANE":" ","ALLEY":" ","HOUSE_NO":"４７號之１","E_COORD97":168459.45093600001,"N_COORD97":2567182.4898600001,"ADDRESS":"港子尾４７號之１","OBJECTID":7242},"geometry":{"x":168459.45093600079,"y":2567182.4898570012}},{"attributes":{"ID":7243,"DIS_CODE":0,"TOWNNAME":"歸仁區","LI":"許厝里","LIN":"37鄰","STREET":"復興路","SECT":" ","MAREA":" ","LANE":" ","ALLEY":" ","HOUSE_NO":"５號","E_COORD97":177996.78,"N_COORD97":2540625.29,"ADDRESS":"復興路５號","OBJECTID":7243},"geometry":{"x":177996.78000000119,"y":2540625.290000001}},{"attributes":{"ID":7244,"DIS_CODE":0,"TOWNNAME":"安定區","LI":"大同里","LIN":" ","STREET":" ","SECT":" ","MAREA":"\u25A0財","LANE":" ","ALLEY":" ","HOUSE_NO":"１８號","E_COORD97":172324.73999999999,"N_COORD97":2552235.25,"ADDRESS":"\u25A0財１８號","OBJECTID":7244},"geometry":{"x":172324.74000000115,"y":2552235.2500000019}},{"attributes":{"ID":7245,"DIS_CODE":0,"TOWNNAME":"麻豆區","LI":"大埕里","LIN":"6鄰","STREET":" ","SECT":" ","MAREA":"大埕","LANE":" ","ALLEY":" ","HOUSE_NO":"６號","E_COORD97":173340.51000000001,"N_COORD97":2565090.4500000002,"ADDRESS":"大埕６號","OBJECTID":7245},"geometry":{"x":173340.50999999978,"y":2565090.4499999993}},{"attributes":{"ID":7246,"DIS_CODE":0,"TOWNNAME":"新營區","LI":"土庫里","LIN":"16鄰","STREET":" ","SECT":" ","MAREA":"卯舍","LANE":" ","ALLEY":" ","HOUSE_NO":"１號","E_COORD97":182004.73000000001,"N_COORD97":2580202.3999999999,"ADDRESS":"卯舍１號","OBJECTID":7246},"geometry":{"x":182004.73000000138,"y":2580202.4000000004}},{"attributes":{"ID":7247,"DIS_CODE":0,"TOWNNAME":"善化區","LI":"坐駕里","LIN":"16鄰","STREET":"大成路","SECT":" ","MAREA":" ","LANE":" ","ALLEY":" ","HOUSE_NO":"９號","E_COORD97":178906.10000000001,"N_COORD97":2558902,"ADDRESS":"大成路９號","OBJECTID":7247},"geometry":{"x":178906.10000000056,"y":2558902.0000000019}},{"attributes":{"ID":7248,"DIS_CODE":0,"TOWNNAME":"大內區","LI":"二溪里","LIN":"11鄰","STREET":" ","SECT":" ","MAREA":"其子瓦","LANE":" ","ALLEY":" ","HOUSE_NO":"９號","E_COORD97":190095.67000000001,"N_COORD97":2557429.25,"ADDRESS":"其子瓦９號","OBJECTID":7248},"geometry":{"x":190095.67000000086,"y":2557429.2500000019}},{"attributes":{"ID":7249,"DIS_CODE":0,"TOWNNAME":"新市區","LI":"潭頂里","LIN":"11鄰","STREET":" ","SECT":" ","MAREA":"潭頂","LANE":" ","ALLEY":" ","HOUSE_NO":"３７３號","E_COORD97":180600.54773799999,"N_COORD97":2552933.8327799998,"ADDRESS":"潭頂３７３號","OBJECTID":7249},"geometry":{"x":180600.54773800075,"y":2552933.8327840008}},{"attributes":{"ID":7250,"DIS_CODE":0,"TOWNNAME":"官田區","LI":"隆本里","LIN":"11鄰","STREET":"復興街","SECT":" ","MAREA":" ","LANE":" ","ALLEY":" ","HOUSE_NO":"８號","E_COORD97":179965.94,"N_COORD97":2566466.1099999999,"ADDRESS":"復興街８號","OBJECTID":7250},"geometry":{"x":179965.94000000134,"y":2566466.1099999994}},{"attributes":{"ID":7251,"DIS_CODE":0,"TOWNNAME":"新營區","LI":"太北里","LIN":"6鄰","STREET":" ","SECT":" ","MAREA":"太子宮","LANE":" ","ALLEY":" ","HOUSE_NO":"５４號之２","E_COORD97":175909.66257300001,"N_COORD97":2577187.8613800001,"ADDRESS":"太子宮５４號之２","OBJECTID":7251},"geometry":{"x":175909.66257300042,"y":2577187.861382002}},{"attributes":{"ID":7252,"DIS_CODE":0,"TOWNNAME":"北門區","LI":"永隆里","LIN":"11鄰","STREET":" ","SECT":" ","MAREA":"港北","LANE":" ","ALLEY":" ","HOUSE_NO":"２號","E_COORD97":160289.04999999999,"N_COORD97":2574511.6600000001,"ADDRESS":"港北２號","OBJECTID":7252},"geometry":{"x":160289.04999999981,"y":2574511.6600000001}},{"attributes":{"ID":7253,"DIS_CODE":0,"TOWNNAME":"新營區","LI":"延平里","LIN":" ","STREET":"延平路","SECT":" ","MAREA":" ","LANE":" ","ALLEY":" ","HOUSE_NO":"２號","E_COORD97":179784.85000000001,"N_COORD97":2577919.23,"ADDRESS":"延平路２號","OBJECTID":7253},"geometry":{"x":179784.84999999963,"y":2577919.2300000004}},{"attributes":{"ID":7254,"DIS_CODE":0,"TOWNNAME":"新營區","LI":"新東里","LIN":"20鄰","STREET":"東安街","SECT":" ","MAREA":" ","LANE":" ","ALLEY":" ","HOUSE_NO":"７號","E_COORD97":180937.78659,"N_COORD97":2579510.8852599999,"ADDRESS":"東安街７號","OBJECTID":7254},"geometry":{"x":180937.78658999968,"y":2579510.8852600008}},{"attributes":{"ID":7255,"DIS_CODE":0,"TOWNNAME":"楠西區","LI":"灣丘里","LIN":"9鄰","STREET":" ","SECT":" ","MAREA":"香蕉山","LANE":" ","ALLEY":" ","HOUSE_NO":"３號之３","E_COORD97":202195.57960999999,"N_COORD97":2564739.0470599998,"ADDRESS":"香蕉山３號之３","OBJECTID":7255},"geometry":{"x":202195.57961000036,"y":2564739.0470600016}},{"attributes":{"ID":7256,"DIS_CODE":0,"TOWNNAME":"新營區","LI":"南興里","LIN":"24鄰","STREET":"建業路","SECT":" ","MAREA":" ","LANE":" ","ALLEY":" ","HOUSE_NO":"８號","E_COORD97":179626.72,"N_COORD97":2577577.77,"ADDRESS":"建業路８號","OBJECTID":7256},"geometry":{"x":179626.71999999974,"y":2577577.7700000014}},{"attributes":{"ID":7257,"DIS_CODE":0,"TOWNNAME":"新營區","LI":"王公里","LIN":"30鄰","STREET":"民族路","SECT":" ","MAREA":" ","LANE":"２６８巷","ALLEY":" ","HOUSE_NO":"６號","E_COORD97":180421.94109199999,"N_COORD97":2579554.3827399998,"ADDRESS":"民族路２６８巷６號","OBJECTID":7257},"geometry":{"x":180421.94109200127,"y":2579554.3827420007}},{"attributes":{"ID":7258,"DIS_CODE":0,"TOWNNAME":"仁德區","LI":"後壁里","LIN":"12鄰","STREET":"德南路","SECT":" ","MAREA":" ","LANE":"２０９巷","ALLEY":" ","HOUSE_NO":"９０號","E_COORD97":173796.35359399999,"N_COORD97":2538560.4643000001,"ADDRESS":"德南路２０９巷９０號","OBJECTID":7258},"geometry":{"x":173796.35359399952,"y":2538560.4643019997}},{"attributes":{"ID":7259,"DIS_CODE":0,"TOWNNAME":"新營區","LI":"新南里","LIN":"28鄰","STREET":"秦漢街","SECT":" ","MAREA":" ","LANE":" ","ALLEY":" ","HOUSE_NO":"６３號","E_COORD97":178453.022084,"N_COORD97":2578738.8182199998,"ADDRESS":"秦漢街６３號","OBJECTID":7259},"geometry":{"x":178453.02208399959,"y":2578738.818217}},{"attributes":{"ID":7260,"DIS_CODE":0,"TOWNNAME":"仁德區","LI":"後壁里","LIN":"12鄰","STREET":"德南路","SECT":" ","MAREA":" ","LANE":" ","ALLEY":" ","HOUSE_NO":"２５５號","E_COORD97":173825.80401600001,"N_COORD97":2538407.1494300002,"ADDRESS":"德南路２５５號","OBJECTID":7260},"geometry":{"x":173825.80401599966,"y":2538407.1494309995}},{"attributes":{"ID":7261,"DIS_CODE":0,"TOWNNAME":"安南區","LI":"四草里","LIN":"1鄰","STREET":"大眾六街","SECT":" ","MAREA":" ","LANE":" ","ALLEY":" ","HOUSE_NO":"９８號","E_COORD97":160484.06718000001,"N_COORD97":2546591.1128199999,"ADDRESS":"大眾六街９８號","OBJECTID":7261},"geometry":{"x":160484.06718000118,"y":2546591.1128150001}},{"attributes":{"ID":7262,"DIS_CODE":0,"TOWNNAME":"東山區","LI":"東中里","LIN":"20鄰","STREET":"中興路","SECT":" ","MAREA":" ","LANE":" ","ALLEY":" ","HOUSE_NO":"３１號","E_COORD97":188978.595493,"N_COORD97":2580168.9048899999,"ADDRESS":"中興路３１號","OBJECTID":7262},"geometry":{"x":188978.59549300093,"y":2580168.904887002}},{"attributes":{"ID":7263,"DIS_CODE":0,"TOWNNAME":"歸仁區","LI":"七甲里","LIN":"1鄰","STREET":"七甲五街","SECT":" ","MAREA":" ","LANE":" ","ALLEY":" ","HOUSE_NO":"２１號","E_COORD97":177442.226031,"N_COORD97":2542600.8950399999,"ADDRESS":"七甲五街２１號","OBJECTID":7263},"geometry":{"x":177442.22603100073,"y":2542600.8950350024}},{"attributes":{"ID":7264,"DIS_CODE":0,"TOWNNAME":"仁德區","LI":"後壁里","LIN":"12鄰","STREET":"德南路","SECT":" ","MAREA":" ","LANE":" ","ALLEY":" ","HOUSE_NO":"１９５號","E_COORD97":173684.47588899999,"N_COORD97":2538528.1057899999,"ADDRESS":"德南路１９５號","OBJECTID":7264},"geometry":{"x":173684.47588900011,"y":2538528.1057940014}},{"attributes":{"ID":7265,"DIS_CODE":0,"TOWNNAME":"安南區","LI":"州北里","LIN":"8鄰","STREET":"長和一街","SECT":" ","MAREA":" ","LANE":" ","ALLEY":" ","HOUSE_NO":"２０號","E_COORD97":169534.56178799999,"N_COORD97":2551516.1187499999,"ADDRESS":"長和一街２０號","OBJECTID":7265},"geometry":{"x":169534.5617880011,"y":2551516.1187480036}},{"attributes":{"ID":7266,"DIS_CODE":0,"TOWNNAME":"安平區","LI":"石門里","LIN":"14鄰","STREET":"延平街","SECT":" ","MAREA":" ","LANE":"３０巷","ALLEY":" ","HOUSE_NO":"３號","E_COORD97":164284.32999999999,"N_COORD97":2544594.6699999999,"ADDRESS":"延平街３０巷３號","OBJECTID":7266},"geometry":{"x":164284.33000000007,"y":2544594.6699999999}},{"attributes":{"ID":7267,"DIS_CODE":0,"TOWNNAME":"仁德區","LI":"新田里","LIN":"4鄰","STREET":"勝利路","SECT":" ","MAREA":" ","LANE":" ","ALLEY":" ","HOUSE_NO":"１９１號","E_COORD97":174454.51337,"N_COORD97":2539569.10739,"ADDRESS":"勝利路１９１號","OBJECTID":7267},"geometry":{"x":174454.51337000169,"y":2539569.1073850002}},{"attributes":{"ID":7268,"DIS_CODE":0,"TOWNNAME":"仁德區","LI":"新田里","LIN":"4鄰","STREET":"勝利路","SECT":" ","MAREA":" ","LANE":" ","ALLEY":" ","HOUSE_NO":"２１７號","E_COORD97":174542.009345,"N_COORD97":2539526.5624099998,"ADDRESS":"勝利路２１７號","OBJECTID":7268},"geometry":{"x":174542.00934500061,"y":2539526.562408004}},{"attributes":{"ID":7269,"DIS_CODE":0,"TOWNNAME":"仁德區","LI":"新田里","LIN":"4鄰","STREET":"勝利路","SECT":" ","MAREA":" ","LANE":" ","ALLEY":" ","HOUSE_NO":"２２５號","E_COORD97":174606.41316200001,"N_COORD97":2539510.0524200001,"ADDRESS":"勝利路２２５號","OBJECTID":7269},"geometry":{"x":174606.41316200048,"y":2539510.0524170008}},{"attributes":{"ID":7270,"DIS_CODE":0,"TOWNNAME":"六甲區","LI":"王爺里","LIN":"3鄰","STREET":" ","SECT":" ","MAREA":"水流東","LANE":" ","ALLEY":" ","HOUSE_NO":"１號","E_COORD97":187769.01999999999,"N_COORD97":2570330.8199999998,"ADDRESS":"水流東１號","OBJECTID":7270},"geometry":{"x":187769.02000000048,"y":2570330.8200000003}},{"attributes":{"ID":7271,"DIS_CODE":0,"TOWNNAME":"安南區","LI":"四草里","LIN":"4鄰","STREET":"大眾六街","SECT":" ","MAREA":" ","LANE":" ","ALLEY":" ","HOUSE_NO":"２０號","E_COORD97":160615.78656499999,"N_COORD97":2546460.7941200002,"ADDRESS":"大眾六街２０號","OBJECTID":7271},"geometry":{"x":160615.78656500205,"y":2546460.7941200025}},{"attributes":{"ID":7272,"DIS_CODE":0,"TOWNNAME":"仁德區","LI":"中生里","LIN":"8鄰","STREET":" ","SECT":" ","MAREA":"中洲","LANE":" ","ALLEY":" ","HOUSE_NO":"１５０之６號","E_COORD97":173058.262212,"N_COORD97":2534160.4096400002,"ADDRESS":"中洲１５０之６號","OBJECTID":7272},"geometry":{"x":173058.26221199892,"y":2534160.4096440021}},{"attributes":{"ID":7273,"DIS_CODE":0,"TOWNNAME":"安南區","LI":"安慶里","LIN":"13鄰","STREET":"培安路","SECT":" ","MAREA":" ","LANE":" ","ALLEY":" ","HOUSE_NO":"５１０號","E_COORD97":169378.89726900001,"N_COORD97":2548542.57326,"ADDRESS":"培安路５１０號","OBJECTID":7273},"geometry":{"x":169378.89726900123,"y":2548542.5732650012}},{"attributes":{"ID":7274,"DIS_CODE":0,"TOWNNAME":"東山區","LI":"高原里","LIN":"3鄰","STREET":" ","SECT":" ","MAREA":"高原","LANE":" ","ALLEY":" ","HOUSE_NO":"２７號","E_COORD97":196052.57000000001,"N_COORD97":2575607.2200000002,"ADDRESS":"高原２７號","OBJECTID":7274},"geometry":{"x":196052.5700000003,"y":2575607.2200000007}},{"attributes":{"ID":7275,"DIS_CODE":0,"TOWNNAME":"鹽水區","LI":"三生里","LIN":"3鄰","STREET":"民生街","SECT":" ","MAREA":" ","LANE":" ","ALLEY":" ","HOUSE_NO":"１７號","E_COORD97":175108.09,"N_COORD97":2580123.8500000001,"ADDRESS":"民生街１７號","OBJECTID":7275},"geometry":{"x":175108.08999999985,"y":2580123.8500000015}},{"attributes":{"ID":7276,"DIS_CODE":0,"TOWNNAME":"北區","LI":"賢北里","LIN":"3鄰","STREET":"大興街","SECT":" ","MAREA":" ","LANE":" ","ALLEY":" ","HOUSE_NO":"３６３號","E_COORD97":166445.29999999999,"N_COORD97":2545592.4399999999,"ADDRESS":"大興街３６３號","OBJECTID":7276},"geometry":{"x":166445.30000000075,"y":2545592.4399999995}},{"attributes":{"ID":7277,"DIS_CODE":0,"TOWNNAME":"新營區","LI":"大宏里","LIN":"2鄰","STREET":"民族路","SECT":" ","MAREA":" ","LANE":" ","ALLEY":" ","HOUSE_NO":"５８號","E_COORD97":180309.75969499999,"N_COORD97":2578842.3162699998,"ADDRESS":"民族路５８號","OBJECTID":7277},"geometry":{"x":180309.75969500095,"y":2578842.3162710015}},{"attributes":{"ID":7278,"DIS_CODE":0,"TOWNNAME":"善化區","LI":"文昌里","LIN":"4鄰","STREET":"平等路","SECT":" ","MAREA":" ","LANE":" ","ALLEY":" ","HOUSE_NO":"２１號","E_COORD97":177267.34,"N_COORD97":2558941,"ADDRESS":"平等路２１號","OBJECTID":7278},"geometry":{"x":177267.34000000078,"y":2558941}},{"attributes":{"ID":7279,"DIS_CODE":0,"TOWNNAME":"學甲區","LI":"新榮里","LIN":"8鄰","STREET":"濟生路","SECT":" ","MAREA":" ","LANE":"３巷","ALLEY":" ","HOUSE_NO":"１號","E_COORD97":166874.70000000001,"N_COORD97":2570138.6800000002,"ADDRESS":"濟生路３巷１號","OBJECTID":7279},"geometry":{"x":166874.70000000205,"y":2570138.6800000034}},{"attributes":{"ID":7280,"DIS_CODE":0,"TOWNNAME":"新營區","LI":"中營里","LIN":"3鄰","STREET":"中山路","SECT":" ","MAREA":" ","LANE":" ","ALLEY":" ","HOUSE_NO":"５８號","E_COORD97":180440.81,"N_COORD97":2578345.23,"ADDRESS":"中山路５８號","OBJECTID":7280},"geometry":{"x":180440.80999999959,"y":2578345.2300000023}},{"attributes":{"ID":7281,"DIS_CODE":0,"TOWNNAME":"新化區","LI":"太平里","LIN":"3鄰","STREET":"太平街","SECT":" ","MAREA":" ","LANE":" ","ALLEY":" ","HOUSE_NO":"９號之１","E_COORD97":179055.79461800001,"N_COORD97":2548830.87482,"ADDRESS":"太平街９號之１","OBJECTID":7281},"geometry":{"x":179055.79461800028,"y":2548830.8748210017}},{"attributes":{"ID":7282,"DIS_CODE":0,"TOWNNAME":"西港區","LI":"營西里","LIN":"3鄰","STREET":" ","SECT":" ","MAREA":"後營","LANE":" ","ALLEY":" ","HOUSE_NO":"２８號","E_COORD97":169635.32999999999,"N_COORD97":2560232.98,"ADDRESS":"後營２８號","OBJECTID":7282},"geometry":{"x":169635.33000000101,"y":2560232.9800000004}},{"attributes":{"ID":7283,"DIS_CODE":0,"TOWNNAME":"仁德區","LI":"仁義里","LIN":"14鄰","STREET":"林頂街","SECT":" ","MAREA":" ","LANE":" ","ALLEY":" ","HOUSE_NO":"１５２號","E_COORD97":174717.58651600001,"N_COORD97":2541342.9347199998,"ADDRESS":"林頂街１５２號","OBJECTID":7283},"geometry":{"x":174717.58651600219,"y":2541342.934714999}},{"attributes":{"ID":7284,"DIS_CODE":0,"TOWNNAME":"新市區","LI":"新和里","LIN":"7鄰","STREET":"富強路","SECT":" ","MAREA":" ","LANE":"５１巷","ALLEY":" ","HOUSE_NO":"９號","E_COORD97":177294.67999999999,"N_COORD97":2552378,"ADDRESS":"富強路５１巷９號","OBJECTID":7284},"geometry":{"x":177294.68000000156,"y":2552377.9999999981}},{"attributes":{"ID":7285,"DIS_CODE":0,"TOWNNAME":"東區","LI":"裕聖里","LIN":"3鄰","STREET":"裕敬三街","SECT":" ","MAREA":" ","LANE":" ","ALLEY":" ","HOUSE_NO":"１３號","E_COORD97":172761.42000000001,"N_COORD97":2542292.3599999999,"ADDRESS":"裕敬三街１３號","OBJECTID":7285},"geometry":{"x":172761.41999999993,"y":2542292.3600000013}},{"attributes":{"ID":7286,"DIS_CODE":0,"TOWNNAME":"安南區","LI":"四草里","LIN":"5鄰","STREET":"北汕尾一路","SECT":" ","MAREA":" ","LANE":" ","ALLEY":" ","HOUSE_NO":"１號","E_COORD97":161028.11483499999,"N_COORD97":2545776.74027,"ADDRESS":"北汕尾一路１號","OBJECTID":7286},"geometry":{"x":161028.1148350006,"y":2545776.7402679995}},{"attributes":{"ID":7287,"DIS_CODE":0,"TOWNNAME":"東區","LI":"大學里","LIN":"1鄰","STREET":"大學路","SECT":" ","MAREA":" ","LANE":" ","ALLEY":" ","HOUSE_NO":"６號","E_COORD97":169986.13,"N_COORD97":2543998.8599999999,"ADDRESS":"大學路６號","OBJECTID":7287},"geometry":{"x":169986.13000000082,"y":2543998.8600000013}},{"attributes":{"ID":7288,"DIS_CODE":0,"TOWNNAME":"關廟區","LI":"五甲里","LIN":"7鄰","STREET":"五慧街","SECT":" ","MAREA":" ","LANE":"１６巷","ALLEY":" ","HOUSE_NO":"６號","E_COORD97":181233.82000000001,"N_COORD97":2539288.25,"ADDRESS":"五慧街１６巷６號","OBJECTID":7288},"geometry":{"x":181233.81999999937,"y":2539288.25}},{"attributes":{"ID":7289,"DIS_CODE":0,"TOWNNAME":"仁德區","LI":"仁義里","LIN":"13鄰","STREET":"中山路","SECT":" ","MAREA":" ","LANE":" ","ALLEY":" ","HOUSE_NO":"１６８號","E_COORD97":174517.81958099999,"N_COORD97":2541198.5017599999,"ADDRESS":"中山路１６８號","OBJECTID":7289},"geometry":{"x":174517.819581002,"y":2541198.5017570015}},{"attributes":{"ID":7290,"DIS_CODE":0,"TOWNNAME":"鹽水區","LI":"水仙里","LIN":"7鄰","STREET":"西門路","SECT":" ","MAREA":" ","LANE":"２４巷","ALLEY":" ","HOUSE_NO":"９號","E_COORD97":175007.51000000001,"N_COORD97":2579824.2799999998,"ADDRESS":"西門路２４巷９號","OBJECTID":7290},"geometry":{"x":175007.51000000071,"y":2579824.2800000031}},{"attributes":{"ID":7291,"DIS_CODE":0,"TOWNNAME":"新營區","LI":"埤寮里","LIN":"1鄰","STREET":"中正路","SECT":" ","MAREA":" ","LANE":" ","ALLEY":" ","HOUSE_NO":"５８３號","E_COORD97":180091.429087,"N_COORD97":2581000.4785000002,"ADDRESS":"中正路５８３號","OBJECTID":7291},"geometry":{"x":180091.42908699997,"y":2581000.478503}},{"attributes":{"ID":7292,"DIS_CODE":0,"TOWNNAME":"新營區","LI":"埤寮里","LIN":"1鄰","STREET":"許丑","SECT":" ","MAREA":" ","LANE":" ","ALLEY":" ","HOUSE_NO":"１４號","E_COORD97":180034.84711900001,"N_COORD97":2581001.85433,"ADDRESS":"許丑１４號","OBJECTID":7292},"geometry":{"x":180034.84711899888,"y":2581001.8543350007}},{"attributes":{"ID":7293,"DIS_CODE":0,"TOWNNAME":"將軍區","LI":"仁和里","LIN":"3鄰","STREET":" ","SECT":" ","MAREA":"仁巷","LANE":" ","ALLEY":" ","HOUSE_NO":"２５號","E_COORD97":164037.07000000001,"N_COORD97":2569327.7999999998,"ADDRESS":"仁巷２５號","OBJECTID":7293},"geometry":{"x":164037.0700000003,"y":2569327.8000000007}},{"attributes":{"ID":7294,"DIS_CODE":0,"TOWNNAME":"白河區","LI":"永安里","LIN":" ","STREET":"昇平街","SECT":" ","MAREA":" ","LANE":" ","ALLEY":" ","HOUSE_NO":"１號","E_COORD97":190139.70000000001,"N_COORD97":2583149.9100000001,"ADDRESS":"昇平街１號","OBJECTID":7294},"geometry":{"x":190139.70000000112,"y":2583149.9100000039}},{"attributes":{"ID":7295,"DIS_CODE":0,"TOWNNAME":"安定區","LI":"中榮里","LIN":"3鄰","STREET":" ","SECT":" ","MAREA":"許中營","LANE":" ","ALLEY":" ","HOUSE_NO":"３８號","E_COORD97":172495.64000000001,"N_COORD97":2555045.25,"ADDRESS":"許中營３８號","OBJECTID":7295},"geometry":{"x":172495.63999999873,"y":2555045.2500000019}},{"attributes":{"ID":7296,"DIS_CODE":0,"TOWNNAME":"安南區","LI":"新順里","LIN":"3鄰","STREET":"安和路","SECT":"三段","MAREA":" ","LANE":" ","ALLEY":" ","HOUSE_NO":"８號","E_COORD97":169752.38,"N_COORD97":2549338.9500000002,"ADDRESS":"安和路三段８號","OBJECTID":7296},"geometry":{"x":169752.38000000082,"y":2549338.9499999993}},{"attributes":{"ID":7297,"DIS_CODE":0,"TOWNNAME":"新營區","LI":"新東里","LIN":" ","STREET":"樂仁街","SECT":" ","MAREA":" ","LANE":"８巷","ALLEY":" ","HOUSE_NO":"３號","E_COORD97":180552.44,"N_COORD97":2579093.9300000002,"ADDRESS":"樂仁街８巷３號","OBJECTID":7297},"geometry":{"x":180552.44000000134,"y":2579093.9299999997}},{"attributes":{"ID":7298,"DIS_CODE":0,"TOWNNAME":"南區","LI":"文南里","LIN":"1鄰","STREET":"建南路","SECT":" ","MAREA":" ","LANE":"９９巷","ALLEY":" ","HOUSE_NO":"８號","E_COORD97":167068.57000000001,"N_COORD97":2542796.2799999998,"ADDRESS":"建南路９９巷８號","OBJECTID":7298},"geometry":{"x":167068.5700000003,"y":2542796.2799999993}},{"attributes":{"ID":7299,"DIS_CODE":0,"TOWNNAME":"仁德區","LI":"仁義里","LIN":"2鄰","STREET":"仁義路","SECT":" ","MAREA":" ","LANE":" ","ALLEY":" ","HOUSE_NO":"２８５號","E_COORD97":174028.02660799999,"N_COORD97":2541109.7341,"ADDRESS":"仁義路２８５號","OBJECTID":7299},"geometry":{"x":174028.02660799958,"y":2541109.7340960018}},{"attributes":{"ID":7300,"DIS_CODE":0,"TOWNNAME":"新營區","LI":"南興里","LIN":"2鄰","STREET":"建業路","SECT":" ","MAREA":" ","LANE":" ","ALLEY":" ","HOUSE_NO":"２號之４","E_COORD97":179691.758489,"N_COORD97":2577592.3957400001,"ADDRESS":"建業路２號之４","OBJECTID":7300},"geometry":{"x":179691.75848900061,"y":2577592.3957359996}},{"attributes":{"ID":7301,"DIS_CODE":0,"TOWNNAME":"仁德區","LI":"新田里","LIN":"4鄰","STREET":"勝利路","SECT":" ","MAREA":" ","LANE":" ","ALLEY":" ","HOUSE_NO":"１０２號","E_COORD97":174101.03387000001,"N_COORD97":2539669.22566,"ADDRESS":"勝利路１０２號","OBJECTID":7301},"geometry":{"x":174101.03387000039,"y":2539669.2256649993}},{"attributes":{"ID":7302,"DIS_CODE":0,"TOWNNAME":"仁德區","LI":"仁德里","LIN":"33鄰","STREET":"文德路","SECT":" ","MAREA":" ","LANE":" ","ALLEY":" ","HOUSE_NO":"９８號","E_COORD97":172948.42405500001,"N_COORD97":2541651.75795,"ADDRESS":"文德路９８號","OBJECTID":7302},"geometry":{"x":172948.42405499984,"y":2541651.7579480018}},{"attributes":{"ID":7303,"DIS_CODE":0,"TOWNNAME":"仁德區","LI":"仁德里","LIN":"1鄰","STREET":"中正路","SECT":"二段","MAREA":" ","LANE":" ","ALLEY":" ","HOUSE_NO":"６３７號","E_COORD97":173382.04510799999,"N_COORD97":2539961.5765399998,"ADDRESS":"中正路二段６３７號","OBJECTID":7303},"geometry":{"x":173382.04510799982,"y":2539961.5765409991}},{"attributes":{"ID":7304,"DIS_CODE":0,"TOWNNAME":"左鎮區","LI":"榮和里","LIN":"1鄰","STREET":" ","SECT":" ","MAREA":"菜寮","LANE":" ","ALLEY":" ","HOUSE_NO":"６號","E_COORD97":186760.418209,"N_COORD97":2551622.57815,"ADDRESS":"菜寮６號","OBJECTID":7304},"geometry":{"x":186760.41820899956,"y":2551622.5781500023}},{"attributes":{"ID":7305,"DIS_CODE":0,"TOWNNAME":"大內區","LI":"環湖里","LIN":"3鄰","STREET":" ","SECT":" ","MAREA":"環湖","LANE":" ","ALLEY":" ","HOUSE_NO":"２５號","E_COORD97":190603.48994500001,"N_COORD97":2560633.40093,"ADDRESS":"環湖２５號","OBJECTID":7305},"geometry":{"x":190603.48994500004,"y":2560633.4009320028}},{"attributes":{"ID":7306,"DIS_CODE":0,"TOWNNAME":"佳里區","LI":"東寧里","LIN":"11鄰","STREET":"進學路","SECT":" ","MAREA":" ","LANE":" ","ALLEY":" ","HOUSE_NO":"１０５號","E_COORD97":166057.605251,"N_COORD97":2562659.3127299999,"ADDRESS":"進學路１０５號","OBJECTID":7306},"geometry":{"x":166057.60525100119,"y":2562659.3127280027}},{"attributes":{"ID":7307,"DIS_CODE":0,"TOWNNAME":"安南區","LI":"四草里","LIN":"3鄰","STREET":"大眾路","SECT":" ","MAREA":" ","LANE":" ","ALLEY":" ","HOUSE_NO":"６０１號","E_COORD97":160739.785301,"N_COORD97":2546479.9986,"ADDRESS":"大眾路６０１號","OBJECTID":7307},"geometry":{"x":160739.78530099988,"y":2546479.9986049999}},{"attributes":{"ID":7308,"DIS_CODE":0,"TOWNNAME":"新營區","LI":"舊部里","LIN":"1鄰","STREET":" ","SECT":" ","MAREA":"舊部","LANE":" ","ALLEY":" ","HOUSE_NO":"２號","E_COORD97":176949.30183499999,"N_COORD97":2575415.1795000001,"ADDRESS":"舊部２號","OBJECTID":7308},"geometry":{"x":176949.30183500051,"y":2575415.1794970017}},{"attributes":{"ID":7309,"DIS_CODE":0,"TOWNNAME":"六甲區","LI":"中社里","LIN":"2鄰","STREET":" ","SECT":" ","MAREA":"中社","LANE":" ","ALLEY":" ","HOUSE_NO":"３０號","E_COORD97":181227.97982199999,"N_COORD97":2571007.8805200001,"ADDRESS":"中社３０號","OBJECTID":7309},"geometry":{"x":181227.97982200049,"y":2571007.8805180006}},{"attributes":{"ID":7310,"DIS_CODE":0,"TOWNNAME":"新營區","LI":"王公里","LIN":"27鄰","STREET":"民族路","SECT":" ","MAREA":" ","LANE":"３０８巷","ALLEY":" ","HOUSE_NO":"５８號","E_COORD97":180517.29475100001,"N_COORD97":2579734.60256,"ADDRESS":"民族路３０８巷５８號","OBJECTID":7310},"geometry":{"x":180517.29475100152,"y":2579734.6025609989}},{"attributes":{"ID":7311,"DIS_CODE":0,"TOWNNAME":"新市區","LI":"永就里","LIN":"6鄰","STREET":" ","SECT":" ","MAREA":"永就","LANE":" ","ALLEY":" ","HOUSE_NO":"６８之２５號","E_COORD97":177712.047567,"N_COORD97":2550513.6044800002,"ADDRESS":"永就６８之２５號","OBJECTID":7311},"geometry":{"x":177712.04756700061,"y":2550513.6044800002}},{"attributes":{"ID":7312,"DIS_CODE":0,"TOWNNAME":"麻豆區","LI":"南勢里","LIN":" ","STREET":" ","SECT":" ","MAREA":"總爺","LANE":" ","ALLEY":" ","HOUSE_NO":"５號","E_COORD97":175115.70999999999,"N_COORD97":2564914.6499999999,"ADDRESS":"總爺５號","OBJECTID":7312},"geometry":{"x":175115.70999999996,"y":2564914.6500000004}},{"attributes":{"ID":7313,"DIS_CODE":0,"TOWNNAME":"歸仁區","LI":"沙崙里","LIN":"5鄰","STREET":" ","SECT":" ","MAREA":"沙崙","LANE":" ","ALLEY":" ","HOUSE_NO":"３２６號","E_COORD97":179545.68468199999,"N_COORD97":2538046.4589300002,"ADDRESS":"沙崙３２６號","OBJECTID":7313},"geometry":{"x":179545.68468200043,"y":2538046.4589310009}},{"attributes":{"ID":7314,"DIS_CODE":0,"TOWNNAME":"歸仁區","LI":"崙頂里","LIN":"4鄰","STREET":"大成路","SECT":" ","MAREA":" ","LANE":" ","ALLEY":" ","HOUSE_NO":"２０９號","E_COORD97":177974.355342,"N_COORD97":2540122.5808799998,"ADDRESS":"大成路２０９號","OBJECTID":7314},"geometry":{"x":177974.35534200072,"y":2540122.5808840003}},{"attributes":{"ID":7315,"DIS_CODE":0,"TOWNNAME":"佳里區","LI":"營頂里","LIN":"5鄰","STREET":" ","SECT":" ","MAREA":"營頂","LANE":" ","ALLEY":" ","HOUSE_NO":"５８號","E_COORD97":166986.86632999999,"N_COORD97":2566659.83396,"ADDRESS":"營頂５８號","OBJECTID":7315},"geometry":{"x":166986.86633000057,"y":2566659.8339640014}},{"attributes":{"ID":7316,"DIS_CODE":0,"TOWNNAME":"中西區","LI":"大涼里","LIN":"2鄰","STREET":"金華新路","SECT":" ","MAREA":" ","LANE":" ","ALLEY":" ","HOUSE_NO":"５３號","E_COORD97":167213.02901200001,"N_COORD97":2543774.0203,"ADDRESS":"金華新路５３號","OBJECTID":7316},"geometry":{"x":167213.02901200112,"y":2543774.0202970002}},{"attributes":{"ID":7317,"DIS_CODE":0,"TOWNNAME":"安南區","LI":"海東里","LIN":"21鄰","STREET":"海東三街","SECT":" ","MAREA":" ","LANE":" ","ALLEY":" ","HOUSE_NO":"３５號","E_COORD97":166911.902451,"N_COORD97":2547950.92405,"ADDRESS":"海東三街３５號","OBJECTID":7317},"geometry":{"x":166911.90245100111,"y":2547950.9240540024}},{"attributes":{"ID":7318,"DIS_CODE":0,"TOWNNAME":"新市區","LI":"永就里","LIN":"6鄰","STREET":" ","SECT":" ","MAREA":"永就","LANE":" ","ALLEY":" ","HOUSE_NO":"６７之２號","E_COORD97":177667.03537299999,"N_COORD97":2551478.0694800001,"ADDRESS":"永就６７之２號","OBJECTID":7318},"geometry":{"x":177667.03537300043,"y":2551478.0694760028}},{"attributes":{"ID":7319,"DIS_CODE":0,"TOWNNAME":"關廟區","LI":"關廟里","LIN":"2鄰","STREET":"忠孝街","SECT":" ","MAREA":" ","LANE":" ","ALLEY":" ","HOUSE_NO":"２７號","E_COORD97":180953.773866,"N_COORD97":2540105.7102999999,"ADDRESS":"忠孝街２７號","OBJECTID":7319},"geometry":{"x":180953.77386600059,"y":2540105.7102970015}},{"attributes":{"ID":7320,"DIS_CODE":0,"TOWNNAME":"歸仁區","LI":"崙頂里","LIN":"4鄰","STREET":"大成路","SECT":" ","MAREA":" ","LANE":" ","ALLEY":" ","HOUSE_NO":"３０１號","E_COORD97":177987.28283800001,"N_COORD97":2540122.1575500001,"ADDRESS":"大成路３０１號","OBJECTID":7320},"geometry":{"x":177987.28283799998,"y":2540122.1575510018}},{"attributes":{"ID":7321,"DIS_CODE":0,"TOWNNAME":"中西區","LI":"郡西里","LIN":"13鄰","STREET":"大仁街","SECT":" ","MAREA":" ","LANE":" ","ALLEY":" ","HOUSE_NO":"１６號","E_COORD97":167473.85031000001,"N_COORD97":2543407.4629799998,"ADDRESS":"大仁街１６號","OBJECTID":7321},"geometry":{"x":167473.85030999966,"y":2543407.4629790001}},{"attributes":{"ID":7322,"DIS_CODE":0,"TOWNNAME":"大內區","LI":"環湖里","LIN":"4鄰","STREET":" ","SECT":" ","MAREA":"環湖","LANE":" ","ALLEY":" ","HOUSE_NO":"４２號","E_COORD97":190569.33551500001,"N_COORD97":2560741.7626399999,"ADDRESS":"環湖４２號","OBJECTID":7322},"geometry":{"x":190569.33551500086,"y":2560741.7626400013}},{"attributes":{"ID":7323,"DIS_CODE":0,"TOWNNAME":"大內區","LI":"環湖里","LIN":"10鄰","STREET":" ","SECT":" ","MAREA":"燒灰子","LANE":" ","ALLEY":" ","HOUSE_NO":"２號","E_COORD97":188911.537469,"N_COORD97":2562303.3592300001,"ADDRESS":"燒灰子２號","OBJECTID":7323},"geometry":{"x":188911.53746900056,"y":2562303.3592300024}},{"attributes":{"ID":7324,"DIS_CODE":0,"TOWNNAME":"官田區","LI":"官田里","LIN":"1鄰","STREET":" ","SECT":" ","MAREA":"官田","LANE":" ","ALLEY":" ","HOUSE_NO":"２號","E_COORD97":182490.16,"N_COORD97":2565342.02,"ADDRESS":"官田２號","OBJECTID":7324},"geometry":{"x":182490.16000000015,"y":2565342.0199999996}},{"attributes":{"ID":7325,"DIS_CODE":0,"TOWNNAME":"南區","LI":"文南里","LIN":"17鄰","STREET":"永南街","SECT":" ","MAREA":" ","LANE":" ","ALLEY":" ","HOUSE_NO":"３號","E_COORD97":166797.10999999999,"N_COORD97":2542546.8599999999,"ADDRESS":"永南街３號","OBJECTID":7325},"geometry":{"x":166797.11000000034,"y":2542546.8600000013}},{"attributes":{"ID":7326,"DIS_CODE":0,"TOWNNAME":"大內區","LI":"環湖里","LIN":"10鄰","STREET":" ","SECT":" ","MAREA":"燒灰子","LANE":" ","ALLEY":" ","HOUSE_NO":"１０號","E_COORD97":188938.23462900001,"N_COORD97":2562314.7892200002,"ADDRESS":"燒灰子１０號","OBJECTID":7326},"geometry":{"x":188938.23462900147,"y":2562314.7892240006}},{"attributes":{"ID":7327,"DIS_CODE":0,"TOWNNAME":"山上區","LI":"明和里","LIN":"1鄰","STREET":" ","SECT":" ","MAREA":"明和","LANE":" ","ALLEY":" ","HOUSE_NO":"７６之８１號","E_COORD97":182426.842859,"N_COORD97":2556018.6736499998,"ADDRESS":"明和７６之８１號","OBJECTID":7327},"geometry":{"x":182426.84285899997,"y":2556018.673649}},{"attributes":{"ID":7328,"DIS_CODE":0,"TOWNNAME":"歸仁區","LI":"新厝里","LIN":"3鄰","STREET":"和平南街","SECT":" ","MAREA":" ","LANE":" ","ALLEY":" ","HOUSE_NO":"２６號","E_COORD97":177808.36587499999,"N_COORD97":2540682.6427099998,"ADDRESS":"和平南街２６號","OBJECTID":7328},"geometry":{"x":177808.365875002,"y":2540682.6427079998}},{"attributes":{"ID":7329,"DIS_CODE":0,"TOWNNAME":"下營區","LI":"下營里","LIN":"8鄰","STREET":"民生街","SECT":" ","MAREA":" ","LANE":" ","ALLEY":" ","HOUSE_NO":"１８號","E_COORD97":174494.17644800001,"N_COORD97":2570432.5536500001,"ADDRESS":"民生街１８號","OBJECTID":7329},"geometry":{"x":174494.17644800059,"y":2570432.5536540039}},{"attributes":{"ID":7330,"DIS_CODE":0,"TOWNNAME":"大內區","LI":"石城里","LIN":"15鄰","STREET":" ","SECT":" ","MAREA":"石子瀨","LANE":" ","ALLEY":" ","HOUSE_NO":"１２２號之１０","E_COORD97":183873.30985799999,"N_COORD97":2557874.1946200002,"ADDRESS":"石子瀨１２２號之１０","OBJECTID":7330},"geometry":{"x":183873.30985800084,"y":2557874.1946210042}},{"attributes":{"ID":7331,"DIS_CODE":0,"TOWNNAME":"歸仁區","LI":"沙崙里","LIN":"2鄰","STREET":" ","SECT":" ","MAREA":"二甲","LANE":" ","ALLEY":" ","HOUSE_NO":"４１號","E_COORD97":178245.34854499999,"N_COORD97":2538953.0005399999,"ADDRESS":"二甲４１號","OBJECTID":7331},"geometry":{"x":178245.34854500182,"y":2538953.0005420018}},{"attributes":{"ID":7332,"DIS_CODE":0,"TOWNNAME":"大內區","LI":"環湖里","LIN":"1鄰","STREET":" ","SECT":" ","MAREA":"環湖","LANE":" ","ALLEY":" ","HOUSE_NO":"４號","E_COORD97":190723.627164,"N_COORD97":2559990.2405500002,"ADDRESS":"環湖４號","OBJECTID":7332},"geometry":{"x":190723.62716400065,"y":2559990.2405460011}},{"attributes":{"ID":7333,"DIS_CODE":0,"TOWNNAME":"下營區","LI":"開化里","LIN":"10鄰","STREET":" ","SECT":" ","MAREA":"中營","LANE":" ","ALLEY":" ","HOUSE_NO":"５６６號之１","E_COORD97":176180.457544,"N_COORD97":2568295.4923100001,"ADDRESS":"中營５６６號之１","OBJECTID":7333},"geometry":{"x":176180.45754400082,"y":2568295.4923080038}},{"attributes":{"ID":7334,"DIS_CODE":0,"TOWNNAME":"下營區","LI":"西連里","LIN":"5鄰","STREET":" ","SECT":" ","MAREA":"西寮","LANE":" ","ALLEY":" ","HOUSE_NO":"１號","E_COORD97":174523.226005,"N_COORD97":2567382.6458200002,"ADDRESS":"西寮１號","OBJECTID":7334},"geometry":{"x":174523.22600500006,"y":2567382.6458180007}},{"attributes":{"ID":7335,"DIS_CODE":0,"TOWNNAME":"下營區","LI":"西連里","LIN":"2鄰","STREET":" ","SECT":" ","MAREA":"連表","LANE":" ","ALLEY":" ","HOUSE_NO":"１８號之２","E_COORD97":175023.18134099999,"N_COORD97":2567859.2199599999,"ADDRESS":"連表１８號之２","OBJECTID":7335},"geometry":{"x":175023.18134100083,"y":2567859.2199569996}},{"attributes":{"ID":7336,"DIS_CODE":0,"TOWNNAME":"新市區","LI":"潭頂里","LIN":"12鄰","STREET":" ","SECT":" ","MAREA":"潭頂","LANE":" ","ALLEY":" ","HOUSE_NO":"４０６之３號","E_COORD97":180469.50887200001,"N_COORD97":2553063.95053,"ADDRESS":"潭頂４０６之３號","OBJECTID":7336},"geometry":{"x":180469.50887199957,"y":2553063.9505350012}},{"attributes":{"ID":7337,"DIS_CODE":0,"TOWNNAME":"新市區","LI":"大營里","LIN":"7鄰","STREET":" ","SECT":" ","MAREA":"大營","LANE":" ","ALLEY":" ","HOUSE_NO":"１６４號","E_COORD97":179384.771829,"N_COORD97":2555521.7636899999,"ADDRESS":"大營１６４號","OBJECTID":7337},"geometry":{"x":179384.77182900067,"y":2555521.7636900004}},{"attributes":{"ID":7338,"DIS_CODE":0,"TOWNNAME":"中西區","LI":"安海里","LIN":"1鄰","STREET":"康樂街","SECT":" ","MAREA":" ","LANE":" ","ALLEY":" ","HOUSE_NO":"２５１號","E_COORD97":167486.726452,"N_COORD97":2544020.50801,"ADDRESS":"康樂街２５１號","OBJECTID":7338},"geometry":{"x":167486.72645200044,"y":2544020.5080050007}},{"attributes":{"ID":7339,"DIS_CODE":0,"TOWNNAME":"仁德區","LI":"仁德里","LIN":"3鄰","STREET":"仁中五街","SECT":" ","MAREA":" ","LANE":" ","ALLEY":" ","HOUSE_NO":"８６號","E_COORD97":173333.80489100001,"N_COORD97":2540306.4354300001,"ADDRESS":"仁中五街８６號","OBJECTID":7339},"geometry":{"x":173333.8048910005,"y":2540306.4354310017}},{"attributes":{"ID":7340,"DIS_CODE":0,"TOWNNAME":"白河區","LI":"河東里","LIN":"1鄰","STREET":" ","SECT":" ","MAREA":"糞箕湖","LANE":" ","ALLEY":" ","HOUSE_NO":"９號","E_COORD97":192263.680964,"N_COORD97":2582317.2143899999,"ADDRESS":"糞箕湖９號","OBJECTID":7340},"geometry":{"x":192263.68096399959,"y":2582317.2143940013}},{"attributes":{"ID":7341,"DIS_CODE":0,"TOWNNAME":"下營區","LI":"新興里","LIN":"15鄰","STREET":"寮前二街","SECT":" ","MAREA":" ","LANE":" ","ALLEY":" ","HOUSE_NO":"２２號","E_COORD97":175226.033624,"N_COORD97":2570363.31066,"ADDRESS":"寮前二街２２號","OBJECTID":7341},"geometry":{"x":175226.03362399992,"y":2570363.3106609993}},{"attributes":{"ID":7342,"DIS_CODE":0,"TOWNNAME":"安南區","LI":"顯宮里","LIN":"3鄰","STREET":"北汕尾三路","SECT":" ","MAREA":" ","LANE":" ","ALLEY":" ","HOUSE_NO":"４２６號","E_COORD97":161910.79277299999,"N_COORD97":2550647.3474499998,"ADDRESS":"北汕尾三路４２６號","OBJECTID":7342},"geometry":{"x":161910.79277300183,"y":2550647.3474460039}},{"attributes":{"ID":7343,"DIS_CODE":0,"TOWNNAME":"仁德區","LI":"保安里","LIN":"12鄰","STREET":"開發二路","SECT":" ","MAREA":" ","LANE":" ","ALLEY":" ","HOUSE_NO":"４之１號","E_COORD97":172560.46943999999,"N_COORD97":2535880.33225,"ADDRESS":"開發二路４之１號","OBJECTID":7343},"geometry":{"x":172560.46944000013,"y":2535880.3322490007}},{"attributes":{"ID":7344,"DIS_CODE":0,"TOWNNAME":"南化區","LI":"中坑里","LIN":"6鄰","STREET":" ","SECT":" ","MAREA":"中坑","LANE":" ","ALLEY":" ","HOUSE_NO":"５０號","E_COORD97":193729.46417399999,"N_COORD97":2550329.9156499999,"ADDRESS":"中坑５０號","OBJECTID":7344},"geometry":{"x":193729.46417399962,"y":2550329.9156540018}},{"attributes":{"ID":7345,"DIS_CODE":0,"TOWNNAME":"南區","LI":"彰南里","LIN":"18鄰","STREET":"新和一路","SECT":" ","MAREA":" ","LANE":"３巷","ALLEY":" ","HOUSE_NO":"６號之１","E_COORD97":166130.88644199999,"N_COORD97":2540670.5910700001,"ADDRESS":"新和一路３巷６號之１","OBJECTID":7345},"geometry":{"x":166130.88644200191,"y":2540670.5910730008}},{"attributes":{"ID":7346,"DIS_CODE":0,"TOWNNAME":"南區","LI":"彰南里","LIN":"18鄰","STREET":"新和路","SECT":" ","MAREA":" ","LANE":" ","ALLEY":" ","HOUSE_NO":"７號之２","E_COORD97":166053.64185399999,"N_COORD97":2540875.2025199998,"ADDRESS":"新和路７號之２","OBJECTID":7346},"geometry":{"x":166053.64185400028,"y":2540875.202517001}},{"attributes":{"ID":7347,"DIS_CODE":0,"TOWNNAME":"麻豆區","LI":"北勢里","LIN":"5鄰","STREET":" ","SECT":" ","MAREA":"北勢寮","LANE":" ","ALLEY":" ","HOUSE_NO":"２號","E_COORD97":172594.94,"N_COORD97":2567220.29,"ADDRESS":"北勢寮２號","OBJECTID":7347},"geometry":{"x":172594.94000000134,"y":2567220.2899999991}},{"attributes":{"ID":7348,"DIS_CODE":0,"TOWNNAME":"新營區","LI":"埤寮里","LIN":"5鄰","STREET":" ","SECT":" ","MAREA":"埤寮","LANE":" ","ALLEY":" ","HOUSE_NO":"６號","E_COORD97":180168.5,"N_COORD97":2580981.73,"ADDRESS":"埤寮６號","OBJECTID":7348},"geometry":{"x":180168.50000000093,"y":2580981.7300000042}},{"attributes":{"ID":7349,"DIS_CODE":0,"TOWNNAME":"東山區","LI":"三榮里","LIN":"5鄰","STREET":" ","SECT":" ","MAREA":"木柵","LANE":" ","ALLEY":" ","HOUSE_NO":"２號","E_COORD97":187726.66,"N_COORD97":2579814.73,"ADDRESS":"木柵２號","OBJECTID":7349},"geometry":{"x":187726.66000000015,"y":2579814.7300000004}},{"attributes":{"ID":7350,"DIS_CODE":0,"TOWNNAME":"關廟區","LI":"布袋里","LIN":"5鄰","STREET":"長文街","SECT":" ","MAREA":" ","LANE":" ","ALLEY":" ","HOUSE_NO":"９號","E_COORD97":183080.69,"N_COORD97":2535524.25,"ADDRESS":"長文街９號","OBJECTID":7350},"geometry":{"x":183080.69000000041,"y":2535524.2500000019}},{"attributes":{"ID":7351,"DIS_CODE":0,"TOWNNAME":"永康區","LI":"三民里","LIN":"6鄰","STREET":"三民街","SECT":" ","MAREA":" ","LANE":"１８巷","ALLEY":" ","HOUSE_NO":"２號","E_COORD97":173263.85999999999,"N_COORD97":2550132.5299999998,"ADDRESS":"三民街１８巷２號","OBJECTID":7351},"geometry":{"x":173263.86000000034,"y":2550132.5299999975}},{"attributes":{"ID":7352,"DIS_CODE":0,"TOWNNAME":"東區","LI":"富裕里","LIN":"21鄰","STREET":"裕豐街","SECT":" ","MAREA":" ","LANE":"４０巷","ALLEY":" ","HOUSE_NO":"８號","E_COORD97":170739.17000000001,"N_COORD97":2542723.6000000001,"ADDRESS":"裕豐街４０巷８號","OBJECTID":7352},"geometry":{"x":170739.16999999993,"y":2542723.5999999996}},{"attributes":{"ID":7353,"DIS_CODE":0,"TOWNNAME":"東區","LI":"崇善里","LIN":"8鄰","STREET":"崇善七街","SECT":" ","MAREA":" ","LANE":" ","ALLEY":" ","HOUSE_NO":"５２號","E_COORD97":171183.39999999999,"N_COORD97":2541498.2400000002,"ADDRESS":"崇善七街５２號","OBJECTID":7353},"geometry":{"x":171183.4000000013,"y":2541498.2400000021}},{"attributes":{"ID":7354,"DIS_CODE":0,"TOWNNAME":"永康區","LI":"甲頂里","LIN":" ","STREET":"小北路","SECT":" ","MAREA":" ","LANE":" ","ALLEY":" ","HOUSE_NO":"５號","E_COORD97":169450.89999999999,"N_COORD97":2546779.7400000002,"ADDRESS":"小北路５號","OBJECTID":7354},"geometry":{"x":169450.9000000013,"y":2546779.7400000021}},{"attributes":{"ID":7355,"DIS_CODE":0,"TOWNNAME":"中西區","LI":"藥王里","LIN":"8鄰","STREET":"大新街","SECT":" ","MAREA":" ","LANE":" ","ALLEY":" ","HOUSE_NO":"６號","E_COORD97":167133.69,"N_COORD97":2544304.7400000002,"ADDRESS":"大新街６號","OBJECTID":7355},"geometry":{"x":167133.69000000041,"y":2544304.7400000021}},{"attributes":{"ID":7356,"DIS_CODE":0,"TOWNNAME":"北門區","LI":"保吉里","LIN":"18鄰","STREET":" ","SECT":" ","MAREA":"蚵寮","LANE":" ","ALLEY":" ","HOUSE_NO":"４２０號","E_COORD97":161611.72,"N_COORD97":2576307.8700000001,"ADDRESS":"蚵寮４２０號","OBJECTID":7356},"geometry":{"x":161611.71999999974,"y":2576307.870000001}},{"attributes":{"ID":7357,"DIS_CODE":0,"TOWNNAME":"永康區","LI":"蔦松里","LIN":"8鄰","STREET":"蔦松二街","SECT":" ","MAREA":" ","LANE":" ","ALLEY":" ","HOUSE_NO":"３６號","E_COORD97":173660.87,"N_COORD97":2549170.9399999999,"ADDRESS":"蔦松二街３６號","OBJECTID":7357},"geometry":{"x":173660.86999999918,"y":2549170.9400000032}},{"attributes":{"ID":7358,"DIS_CODE":0,"TOWNNAME":"白河區","LI":"庄內里","LIN":"8鄰","STREET":"仁德街","SECT":" ","MAREA":" ","LANE":" ","ALLEY":" ","HOUSE_NO":"２１號","E_COORD97":190912.73000000001,"N_COORD97":2583617.4700000002,"ADDRESS":"仁德街２１號","OBJECTID":7358},"geometry":{"x":190912.73000000138,"y":2583617.4700000007}},{"attributes":{"ID":7359,"DIS_CODE":0,"TOWNNAME":"永康區","LI":"永康里","LIN":"9鄰","STREET":"永中街","SECT":" ","MAREA":" ","LANE":"３９巷","ALLEY":" ","HOUSE_NO":"７號","E_COORD97":173865.23000000001,"N_COORD97":2547193.9900000002,"ADDRESS":"永中街３９巷７號","OBJECTID":7359},"geometry":{"x":173865.23000000045,"y":2547193.9900000002}},{"attributes":{"ID":7360,"DIS_CODE":0,"TOWNNAME":"白河區","LI":"永安里","LIN":"18鄰","STREET":" ","SECT":" ","MAREA":"新厝子","LANE":" ","ALLEY":" ","HOUSE_NO":"１５１號","E_COORD97":189462.89000000001,"N_COORD97":2583045.9300000002,"ADDRESS":"新厝子１５１號","OBJECTID":7360},"geometry":{"x":189462.89000000153,"y":2583045.9300000016}},{"attributes":{"ID":7361,"DIS_CODE":0,"TOWNNAME":"南區","LI":"彰南里","LIN":"18鄰","STREET":"新和一路","SECT":" ","MAREA":" ","LANE":"１巷","ALLEY":" ","HOUSE_NO":"３號之１","E_COORD97":166093.33762999999,"N_COORD97":2540823.71826,"ADDRESS":"新和一路１巷３號之１","OBJECTID":7361},"geometry":{"x":166093.3376300009,"y":2540823.7182599995}},{"attributes":{"ID":7362,"DIS_CODE":0,"TOWNNAME":"東區","LI":"崇信里","LIN":"18鄰","STREET":"崇善一街","SECT":" ","MAREA":" ","LANE":" ","ALLEY":" ","HOUSE_NO":"５號","E_COORD97":170689.47,"N_COORD97":2542151.3900000001,"ADDRESS":"崇善一街５號","OBJECTID":7362},"geometry":{"x":170689.46999999974,"y":2542151.3900000025}},{"attributes":{"ID":7363,"DIS_CODE":0,"TOWNNAME":"北區","LI":"安民里","LIN":"8鄰","STREET":"海成街","SECT":" ","MAREA":" ","LANE":" ","ALLEY":" ","HOUSE_NO":"４１號","E_COORD97":167859.75,"N_COORD97":2544666.0099999998,"ADDRESS":"海成街４１號","OBJECTID":7363},"geometry":{"x":167859.75000000093,"y":2544666.0100000016}},{"attributes":{"ID":7364,"DIS_CODE":0,"TOWNNAME":"七股區","LI":"大潭里","LIN":"20鄰","STREET":" ","SECT":" ","MAREA":"頂潭","LANE":" ","ALLEY":" ","HOUSE_NO":"３８號","E_COORD97":160954.14999999999,"N_COORD97":2565825,"ADDRESS":"頂潭３８號","OBJECTID":7364},"geometry":{"x":160954.1500000013,"y":2565825.0000000019}},{"attributes":{"ID":7365,"DIS_CODE":0,"TOWNNAME":"南區","LI":"竹溪里","LIN":"4鄰","STREET":"體育路","SECT":" ","MAREA":" ","LANE":"４１巷","ALLEY":" ","HOUSE_NO":"６號","E_COORD97":168728.76000000001,"N_COORD97":2542238.3900000001,"ADDRESS":"體育路４１巷６號","OBJECTID":7365},"geometry":{"x":168728.76000000071,"y":2542238.3900000006}},{"attributes":{"ID":7366,"DIS_CODE":0,"TOWNNAME":"永康區","LI":"\u25A0行里","LIN":"6鄰","STREET":"新行街","SECT":" ","MAREA":" ","LANE":"３３巷","ALLEY":" ","HOUSE_NO":"７號","E_COORD97":172222.23999999999,"N_COORD97":2548822.1400000001,"ADDRESS":"新行街３３巷７號","OBJECTID":7366},"geometry":{"x":172222.24000000022,"y":2548822.1400000025}},{"attributes":{"ID":7367,"DIS_CODE":0,"TOWNNAME":"安南區","LI":"理想里","LIN":"20鄰","STREET":"同安路","SECT":" ","MAREA":" ","LANE":"６８巷","ALLEY":" ","HOUSE_NO":"１３２號","E_COORD97":167061.27014000001,"N_COORD97":2548670.1440400002,"ADDRESS":"同安路６８巷１３２號","OBJECTID":7367},"geometry":{"x":167061.27014000062,"y":2548670.1440400016}},{"attributes":{"ID":7368,"DIS_CODE":0,"TOWNNAME":"北區","LI":"長榮里","LIN":"5鄰","STREET":"長勝路","SECT":" ","MAREA":" ","LANE":" ","ALLEY":" ","HOUSE_NO":"４５號","E_COORD97":169962.38,"N_COORD97":2545606.7999999998,"ADDRESS":"長勝路４５號","OBJECTID":7368},"geometry":{"x":169962.38000000082,"y":2545606.8000000026}},{"attributes":{"ID":7369,"DIS_CODE":0,"TOWNNAME":"永康區","LI":"埔園里","LIN":"34鄰","STREET":"八德街","SECT":" ","MAREA":" ","LANE":"８８巷","ALLEY":" ","HOUSE_NO":"８號","E_COORD97":174191.12,"N_COORD97":2548546.0099999998,"ADDRESS":"八德街８８巷８號","OBJECTID":7369},"geometry":{"x":174191.12000000011,"y":2548546.0099999998}},{"attributes":{"ID":7370,"DIS_CODE":0,"TOWNNAME":"新營區","LI":"忠政里","LIN":"30鄰","STREET":"府西路","SECT":" ","MAREA":" ","LANE":"３３巷","ALLEY":" ","HOUSE_NO":"１號","E_COORD97":179793.85000000001,"N_COORD97":2578967.9399999999,"ADDRESS":"府西路３３巷１號","OBJECTID":7370},"geometry":{"x":179793.85000000149,"y":2578967.9399999995}},{"attributes":{"ID":7371,"DIS_CODE":0,"TOWNNAME":"永康區","LI":"龍潭里","LIN":"30鄰","STREET":"龍昌街","SECT":" ","MAREA":" ","LANE":"８４巷","ALLEY":" ","HOUSE_NO":"６號","E_COORD97":175032.95999999999,"N_COORD97":2547949.8199999998,"ADDRESS":"龍昌街８４巷６號","OBJECTID":7371},"geometry":{"x":175032.95999999996,"y":2547949.8200000022}},{"attributes":{"ID":7372,"DIS_CODE":0,"TOWNNAME":"安南區","LI":"溪墘里","LIN":"25鄰","STREET":"安寧街","SECT":" ","MAREA":" ","LANE":"９巷","ALLEY":" ","HOUSE_NO":"２號","E_COORD97":167414.95000000001,"N_COORD97":2546896.52,"ADDRESS":"安寧街９巷２號","OBJECTID":7372},"geometry":{"x":167414.95000000019,"y":2546896.5200000014}},{"attributes":{"ID":7373,"DIS_CODE":0,"TOWNNAME":"六甲區","LI":"六甲里","LIN":"13鄰","STREET":"建國街","SECT":" ","MAREA":" ","LANE":" ","ALLEY":" ","HOUSE_NO":"３１號","E_COORD97":183666.17000000001,"N_COORD97":2569902.3500000001,"ADDRESS":"建國街３１號","OBJECTID":7373},"geometry":{"x":183666.17000000086,"y":2569902.3499999996}},{"attributes":{"ID":7374,"DIS_CODE":0,"TOWNNAME":"下營區","LI":"營前里","LIN":"19鄰","STREET":"文化街","SECT":" ","MAREA":" ","LANE":"２１巷","ALLEY":" ","HOUSE_NO":"３號","E_COORD97":174774.07999999999,"N_COORD97":2570256.98,"ADDRESS":"文化街２１巷３號","OBJECTID":7374},"geometry":{"x":174774.08000000007,"y":2570256.9800000023}},{"attributes":{"ID":7375,"DIS_CODE":0,"TOWNNAME":"柳營區","LI":"東昇里","LIN":"13鄰","STREET":"康樂街","SECT":" ","MAREA":" ","LANE":" ","ALLEY":" ","HOUSE_NO":"７１號","E_COORD97":180366.45999999999,"N_COORD97":2575125.5299999998,"ADDRESS":"康樂街７１號","OBJECTID":7375},"geometry":{"x":180366.46000000183,"y":2575125.5299999993}},{"attributes":{"ID":7376,"DIS_CODE":0,"TOWNNAME":"新營區","LI":"新東里","LIN":"19鄰","STREET":"東學路","SECT":" ","MAREA":" ","LANE":"８０巷","ALLEY":" ","HOUSE_NO":"１號","E_COORD97":180900.19,"N_COORD97":2579329.2999999998,"ADDRESS":"東學路８０巷１號","OBJECTID":7376},"geometry":{"x":180900.19000000041,"y":2579329.3000000007}},{"attributes":{"ID":7377,"DIS_CODE":0,"TOWNNAME":"歸仁區","LI":"後市里","LIN":"42鄰","STREET":"國光街","SECT":" ","MAREA":" ","LANE":" ","ALLEY":" ","HOUSE_NO":"６號","E_COORD97":177019.23000000001,"N_COORD97":2540944.75,"ADDRESS":"國光街６號","OBJECTID":7377},"geometry":{"x":177019.23000000138,"y":2540944.7500000019}},{"attributes":{"ID":7378,"DIS_CODE":0,"TOWNNAME":"官田區","LI":"官田里","LIN":"29鄰","STREET":" ","SECT":" ","MAREA":"中\u25A0","LANE":" ","ALLEY":" ","HOUSE_NO":"４５號之１","E_COORD97":183494.54999999999,"N_COORD97":2566541.9399999999,"ADDRESS":"中\u25A0４５號之１","OBJECTID":7378},"geometry":{"x":183494.54999999981,"y":2566541.9399999995}},{"attributes":{"ID":7379,"DIS_CODE":0,"TOWNNAME":"北區","LI":"正覺里","LIN":"12鄰","STREET":"正覺街","SECT":" ","MAREA":" ","LANE":"３３巷","ALLEY":" ","HOUSE_NO":"５號","E_COORD97":169254.29000000001,"N_COORD97":2546283.8799999999,"ADDRESS":"正覺街３３巷５號","OBJECTID":7379},"geometry":{"x":169254.29000000097,"y":2546283.879999999}},{"attributes":{"ID":7380,"DIS_CODE":0,"TOWNNAME":"楠西區","LI":"照興里","LIN":"4鄰","STREET":" ","SECT":" ","MAREA":"興北","LANE":" ","ALLEY":" ","HOUSE_NO":"５０號之１","E_COORD97":197840.10000000001,"N_COORD97":2567125.2999999998,"ADDRESS":"興北５０號之１","OBJECTID":7380},"geometry":{"x":197840.09999999963,"y":2567125.3000000045}},{"attributes":{"ID":7381,"DIS_CODE":0,"TOWNNAME":"安南區","LI":"大安里","LIN":"13鄰","STREET":"義安街","SECT":" ","MAREA":" ","LANE":" ","ALLEY":" ","HOUSE_NO":"６２號","E_COORD97":167406.98999999999,"N_COORD97":2547999.5499999998,"ADDRESS":"義安街６２號","OBJECTID":7381},"geometry":{"x":167406.99000000115,"y":2547999.5500000026}},{"attributes":{"ID":7382,"DIS_CODE":0,"TOWNNAME":"永康區","LI":"南灣里","LIN":"13鄰","STREET":"大灣路","SECT":" ","MAREA":" ","LANE":" ","ALLEY":" ","HOUSE_NO":"５８４號","E_COORD97":174617.5,"N_COORD97":2544679.5099999998,"ADDRESS":"大灣路５８４號","OBJECTID":7382},"geometry":{"x":174617.5,"y":2544679.5100000016}},{"attributes":{"ID":7383,"DIS_CODE":0,"TOWNNAME":"南區","LI":"文南里","LIN":"13鄰","STREET":"育南街","SECT":" ","MAREA":" ","LANE":" ","ALLEY":" ","HOUSE_NO":"４１號","E_COORD97":166859.79999999999,"N_COORD97":2542667.8799999999,"ADDRESS":"育南街４１號","OBJECTID":7383},"geometry":{"x":166859.79999999981,"y":2542667.8800000027}},{"attributes":{"ID":7384,"DIS_CODE":0,"TOWNNAME":"東區","LI":"圍下里","LIN":"13鄰","STREET":"衛民街","SECT":" ","MAREA":" ","LANE":" ","ALLEY":" ","HOUSE_NO":"１號之８","E_COORD97":169394.63,"N_COORD97":2543698.9399999999,"ADDRESS":"衛民街１號之８","OBJECTID":7384},"geometry":{"x":169394.63000000082,"y":2543698.9400000013}},{"attributes":{"ID":7385,"DIS_CODE":0,"TOWNNAME":"學甲區","LI":"三慶里","LIN":"5鄰","STREET":" ","SECT":" ","MAREA":"頂洲","LANE":" ","ALLEY":" ","HOUSE_NO":"６２號","E_COORD97":168638.25,"N_COORD97":2576442.3799999999,"ADDRESS":"頂洲６２號","OBJECTID":7385},"geometry":{"x":168638.25,"y":2576442.379999999}},{"attributes":{"ID":7386,"DIS_CODE":0,"TOWNNAME":"永康區","LI":"六合里","LIN":"12鄰","STREET":"六合路","SECT":" ","MAREA":" ","LANE":"５４巷","ALLEY":" ","HOUSE_NO":"９號","E_COORD97":171195.64000000001,"N_COORD97":2545637.4900000002,"ADDRESS":"六合路５４巷９號","OBJECTID":7386},"geometry":{"x":171195.64000000153,"y":2545637.4900000002}},{"attributes":{"ID":7387,"DIS_CODE":0,"TOWNNAME":"東區","LI":"和平里","LIN":"1鄰","STREET":"文化一街","SECT":" ","MAREA":" ","LANE":" ","ALLEY":" ","HOUSE_NO":"２號七樓","E_COORD97":171099.45000000001,"N_COORD97":2542097.2200000002,"ADDRESS":"文化一街２號七樓","OBJECTID":7387},"geometry":{"x":171099.45000000112,"y":2542097.2200000007}},{"attributes":{"ID":7388,"DIS_CODE":0,"TOWNNAME":"永康區","LI":"南灣里","LIN":"12鄰","STREET":"立興街","SECT":" ","MAREA":" ","LANE":"５７巷","ALLEY":" ","HOUSE_NO":"３號","E_COORD97":174615.64000000001,"N_COORD97":2544815.6699999999,"ADDRESS":"立興街５７巷３號","OBJECTID":7388},"geometry":{"x":174615.63999999966,"y":2544815.6699999999}},{"attributes":{"ID":7389,"DIS_CODE":0,"TOWNNAME":"仁德區","LI":"仁義里","LIN":"12鄰","STREET":"中山路","SECT":" ","MAREA":" ","LANE":"４０巷","ALLEY":" ","HOUSE_NO":"１號","E_COORD97":174953.64999999999,"N_COORD97":2541187.7400000002,"ADDRESS":"中山路４０巷１號","OBJECTID":7389},"geometry":{"x":174953.65000000037,"y":2541187.7400000002}},{"attributes":{"ID":7390,"DIS_CODE":0,"TOWNNAME":"永康區","LI":"正強里","LIN":"10鄰","STREET":"正義街","SECT":" ","MAREA":" ","LANE":"８９巷","ALLEY":" ","HOUSE_NO":"６號","E_COORD97":173446.48000000001,"N_COORD97":2547542.2599999998,"ADDRESS":"正義街８９巷６號","OBJECTID":7390},"geometry":{"x":173446.48000000045,"y":2547542.2600000016}},{"attributes":{"ID":7391,"DIS_CODE":0,"TOWNNAME":"永康區","LI":"六合里","LIN":"15鄰","STREET":"六合路","SECT":" ","MAREA":" ","LANE":"４４巷","ALLEY":" ","HOUSE_NO":"５號","E_COORD97":171191.39999999999,"N_COORD97":2545571.4900000002,"ADDRESS":"六合路４４巷５號","OBJECTID":7391},"geometry":{"x":171191.4000000013,"y":2545571.4900000021}},{"attributes":{"ID":7392,"DIS_CODE":0,"TOWNNAME":"永康區","LI":"南灣里","LIN":"10鄰","STREET":"南興路","SECT":" ","MAREA":" ","LANE":"３巷","ALLEY":" ","HOUSE_NO":"４號","E_COORD97":173998.45000000001,"N_COORD97":2543842.25,"ADDRESS":"南興路３巷４號","OBJECTID":7392},"geometry":{"x":173998.45000000112,"y":2543842.25}},{"attributes":{"ID":7393,"DIS_CODE":0,"TOWNNAME":"下營區","LI":"仁里里","LIN":"21鄰","STREET":"仁中街","SECT":" ","MAREA":" ","LANE":"８５巷","ALLEY":" ","HOUSE_NO":"９號","E_COORD97":174273.14000000001,"N_COORD97":2569796.1400000001,"ADDRESS":"仁中街８５巷９號","OBJECTID":7393},"geometry":{"x":174273.1400000006,"y":2569796.1400000006}},{"attributes":{"ID":7394,"DIS_CODE":0,"TOWNNAME":"新化區","LI":"武安里","LIN":"13鄰","STREET":"健康路","SECT":" ","MAREA":" ","LANE":"６０巷","ALLEY":" ","HOUSE_NO":"８號","E_COORD97":178886.28,"N_COORD97":2548091.2599999998,"ADDRESS":"健康路６０巷８號","OBJECTID":7394},"geometry":{"x":178886.28000000212,"y":2548091.2600000016}},{"attributes":{"ID":7395,"DIS_CODE":0,"TOWNNAME":"關廟區","LI":"香洋里","LIN":"21鄰","STREET":"中央路","SECT":" ","MAREA":" ","LANE":"１７巷","ALLEY":" ","HOUSE_NO":"３號","E_COORD97":181619.91,"N_COORD97":2539929.3199999998,"ADDRESS":"中央路１７巷３號","OBJECTID":7395},"geometry":{"x":181619.91000000108,"y":2539929.3200000003}},{"attributes":{"ID":7396,"DIS_CODE":0,"TOWNNAME":"善化區","LI":"文昌里","LIN":"21鄰","STREET":"中正路","SECT":" ","MAREA":" ","LANE":"３１巷","ALLEY":" ","HOUSE_NO":"８號","E_COORD97":177634.92000000001,"N_COORD97":2557654.5,"ADDRESS":"中正路３１巷８號","OBJECTID":7396},"geometry":{"x":177634.91999999993,"y":2557654.5000000019}},{"attributes":{"ID":7397,"DIS_CODE":0,"TOWNNAME":"東區","LI":"富裕里","LIN":"21鄰","STREET":"裕豐街","SECT":" ","MAREA":" ","LANE":"４０巷","ALLEY":" ","HOUSE_NO":"１號","E_COORD97":170729.28,"N_COORD97":2542745.2999999998,"ADDRESS":"裕豐街４０巷１號","OBJECTID":7397},"geometry":{"x":170729.28000000119,"y":2542745.3000000026}},{"attributes":{"ID":7398,"DIS_CODE":0,"TOWNNAME":"歸仁區","LI":"看西里","LIN":"9鄰","STREET":"仁愛五街","SECT":" ","MAREA":" ","LANE":"２巷","ALLEY":" ","HOUSE_NO":"５號","E_COORD97":178334.67999999999,"N_COORD97":2540294.2000000002,"ADDRESS":"仁愛五街２巷５號","OBJECTID":7398},"geometry":{"x":178334.6799999997,"y":2540294.2000000011}},{"attributes":{"ID":7399,"DIS_CODE":0,"TOWNNAME":"白河區","LI":"外角里","LIN":"13鄰","STREET":"三民路","SECT":" ","MAREA":" ","LANE":" ","ALLEY":" ","HOUSE_NO":"１９７號","E_COORD97":190811.14999999999,"N_COORD97":2583289.3999999999,"ADDRESS":"三民路１９７號","OBJECTID":7399},"geometry":{"x":190811.14999999944,"y":2583289.4000000041}},{"attributes":{"ID":7400,"DIS_CODE":0,"TOWNNAME":"學甲區","LI":"新達里","LIN":"9鄰","STREET":"中學路","SECT":" ","MAREA":" ","LANE":"３３巷","ALLEY":" ","HOUSE_NO":"４號","E_COORD97":166620.07000000001,"N_COORD97":2570665.1400000001,"ADDRESS":"中學路３３巷４號","OBJECTID":7400},"geometry":{"x":166620.07000000123,"y":2570665.1400000006}}]}