{"displayFieldName":"TOWNNAME","fieldAliases":{"ID":"ID","DIS_CODE":"DIS_CODE","TOWNNAME":"TOWNNAME","LI":"LI","LIN":"LIN","STREET":"STREET","SECT":"SECT","MAREA":"MAREA","LANE":"LANE","ALLEY":"ALLEY","HOUSE_NO":"HOUSE_NO","E_COORD97":"E_COORD97","N_COORD97":"N_COORD97","ADDRESS":"ADDRESS","OBJECTID":"OBJECTID"},"geometryType":"esriGeometryPoint","spatialReference":{"wkid":102443,"latestWkid":3826},"fields":[{"name":"ID","type":"esriFieldTypeDouble","alias":"ID"},{"name":"DIS_CODE","type":"esriFieldTypeInteger","alias":"DIS_CODE"},{"name":"TOWNNAME","type":"esriFieldTypeString","alias":"TOWNNAME","length":8},{"name":"LI","type":"esriFieldTypeString","alias":"LI","length":8},{"name":"LIN","type":"esriFieldTypeString","alias":"LIN","length":12},{"name":"STREET","type":"esriFieldTypeString","alias":"STREET","length":20},{"name":"SECT","type":"esriFieldTypeString","alias":"SECT","length":8},{"name":"MAREA","type":"esriFieldTypeString","alias":"MAREA","length":12},{"name":"LANE","type":"esriFieldTypeString","alias":"LANE","length":10},{"name":"ALLEY","type":"esriFieldTypeString","alias":"ALLEY","length":10},{"name":"HOUSE_NO","type":"esriFieldTypeString","alias":"HOUSE_NO","length":20},{"name":"E_COORD97","type":"esriFieldTypeDouble","alias":"E_COORD97"},{"name":"N_COORD97","type":"esriFieldTypeDouble","alias":"N_COORD97"},{"name":"ADDRESS","type":"esriFieldTypeString","alias":"ADDRESS","length":50},{"name":"OBJECTID","type":"esriFieldTypeOID","alias":"OBJECTID"}],"features":[{"attributes":{"ID":503028,"DIS_CODE":0,"TOWNNAME":"新化區","LI":"北勢里","LIN":"7鄰","STREET":"中正路","SECT":" ","MAREA":" ","LANE":" ","ALLEY":" ","HOUSE_NO":"１２１１號地下一樓","E_COORD97":177942.31,"N_COORD97":2551050.2599999998,"ADDRESS":"中正路１２１１號地下一樓","OBJECTID":503001},"geometry":{"x":177942.30999999959,"y":2551050.2599999979}},{"attributes":{"ID":503029,"DIS_CODE":0,"TOWNNAME":"新化區","LI":"北勢里","LIN":"7鄰","STREET":"中正路","SECT":" ","MAREA":" ","LANE":" ","ALLEY":" ","HOUSE_NO":"１２１１號四樓之２０","E_COORD97":177943.25,"N_COORD97":2551050.2999999998,"ADDRESS":"中正路１２１１號四樓之２０","OBJECTID":503002},"geometry":{"x":177943.25,"y":2551050.3000000007}},{"attributes":{"ID":503030,"DIS_CODE":0,"TOWNNAME":"永康區","LI":"安康里","LIN":"7鄰","STREET":"中山南路","SECT":" ","MAREA":" ","LANE":" ","ALLEY":" ","HOUSE_NO":"１１７號四樓之４","E_COORD97":170954.06,"N_COORD97":2545954.04,"ADDRESS":"中山南路１１７號四樓之４","OBJECTID":503003},"geometry":{"x":170954.06000000052,"y":2545954.0399999991}},{"attributes":{"ID":503031,"DIS_CODE":0,"TOWNNAME":"永康區","LI":"安康里","LIN":"7鄰","STREET":"中山南路","SECT":" ","MAREA":" ","LANE":" ","ALLEY":" ","HOUSE_NO":"１１７號七樓之１","E_COORD97":170954.04000000001,"N_COORD97":2545954.04,"ADDRESS":"中山南路１１７號七樓之１","OBJECTID":503004},"geometry":{"x":170954.04000000004,"y":2545954.0399999991}},{"attributes":{"ID":503032,"DIS_CODE":0,"TOWNNAME":"永康區","LI":"復華里","LIN":"7鄰","STREET":"復國二路","SECT":" ","MAREA":" ","LANE":" ","ALLEY":" ","HOUSE_NO":"２１７號五樓之２","E_COORD97":173002.25,"N_COORD97":2546054.54,"ADDRESS":"復國二路２１７號五樓之２","OBJECTID":503005},"geometry":{"x":173002.25000000186,"y":2546054.540000001}},{"attributes":{"ID":503033,"DIS_CODE":0,"TOWNNAME":"永康區","LI":"安康里","LIN":"7鄰","STREET":"中山南路","SECT":" ","MAREA":" ","LANE":" ","ALLEY":" ","HOUSE_NO":"１１１號三樓","E_COORD97":170945.59,"N_COORD97":2545927.7599999998,"ADDRESS":"中山南路１１１號三樓","OBJECTID":503006},"geometry":{"x":170945.59000000078,"y":2545927.7600000035}},{"attributes":{"ID":503034,"DIS_CODE":0,"TOWNNAME":"永康區","LI":"安康里","LIN":"7鄰","STREET":"中山南路","SECT":" ","MAREA":" ","LANE":" ","ALLEY":" ","HOUSE_NO":"１１５號五樓之１","E_COORD97":170939.39999999999,"N_COORD97":2545957.29,"ADDRESS":"中山南路１１５號五樓之１","OBJECTID":503007},"geometry":{"x":170939.40000000037,"y":2545957.2900000028}},{"attributes":{"ID":503035,"DIS_CODE":0,"TOWNNAME":"中西區","LI":"銀同里","LIN":"7鄰","STREET":"府中街","SECT":" ","MAREA":" ","LANE":" ","ALLEY":" ","HOUSE_NO":"４６號二樓之１","E_COORD97":168730.39000000001,"N_COORD97":2543481.4500000002,"ADDRESS":"府中街４６號二樓之１","OBJECTID":503008},"geometry":{"x":168730.38999999966,"y":2543481.450000003}},{"attributes":{"ID":503036,"DIS_CODE":0,"TOWNNAME":"中西區","LI":"銀同里","LIN":"7鄰","STREET":"府中街","SECT":" ","MAREA":" ","LANE":" ","ALLEY":" ","HOUSE_NO":"４６號二樓之２","E_COORD97":168730.39000000001,"N_COORD97":2543481.4500000002,"ADDRESS":"府中街４６號二樓之２","OBJECTID":503009},"geometry":{"x":168730.38999999966,"y":2543481.450000003}},{"attributes":{"ID":503037,"DIS_CODE":0,"TOWNNAME":"中西區","LI":"銀同里","LIN":"7鄰","STREET":"府中街","SECT":" ","MAREA":" ","LANE":" ","ALLEY":" ","HOUSE_NO":"４６號三樓之１","E_COORD97":168730.39000000001,"N_COORD97":2543481.4500000002,"ADDRESS":"府中街４６號三樓之１","OBJECTID":503010},"geometry":{"x":168730.38999999966,"y":2543481.450000003}},{"attributes":{"ID":503038,"DIS_CODE":0,"TOWNNAME":"中西區","LI":"銀同里","LIN":"7鄰","STREET":"府中街","SECT":" ","MAREA":" ","LANE":" ","ALLEY":" ","HOUSE_NO":"４６號三樓之２","E_COORD97":168730.39000000001,"N_COORD97":2543481.4500000002,"ADDRESS":"府中街４６號三樓之２","OBJECTID":503011},"geometry":{"x":168730.38999999966,"y":2543481.450000003}},{"attributes":{"ID":503039,"DIS_CODE":0,"TOWNNAME":"中西區","LI":"銀同里","LIN":"7鄰","STREET":"府中街","SECT":" ","MAREA":" ","LANE":" ","ALLEY":" ","HOUSE_NO":"４６號三樓之３","E_COORD97":168730.39000000001,"N_COORD97":2543481.4500000002,"ADDRESS":"府中街４６號三樓之３","OBJECTID":503012},"geometry":{"x":168730.38999999966,"y":2543481.450000003}},{"attributes":{"ID":503040,"DIS_CODE":0,"TOWNNAME":"中西區","LI":"銀同里","LIN":"7鄰","STREET":"府中街","SECT":" ","MAREA":" ","LANE":" ","ALLEY":" ","HOUSE_NO":"４６號五樓之１","E_COORD97":168730.39000000001,"N_COORD97":2543481.4500000002,"ADDRESS":"府中街４６號五樓之１","OBJECTID":503013},"geometry":{"x":168730.38999999966,"y":2543481.450000003}},{"attributes":{"ID":503041,"DIS_CODE":0,"TOWNNAME":"中西區","LI":"銀同里","LIN":"7鄰","STREET":"府中街","SECT":" ","MAREA":" ","LANE":" ","ALLEY":" ","HOUSE_NO":"４６號五樓之２","E_COORD97":168730.39000000001,"N_COORD97":2543481.4500000002,"ADDRESS":"府中街４６號五樓之２","OBJECTID":503014},"geometry":{"x":168730.38999999966,"y":2543481.450000003}},{"attributes":{"ID":503042,"DIS_CODE":0,"TOWNNAME":"中西區","LI":"銀同里","LIN":"7鄰","STREET":"府中街","SECT":" ","MAREA":" ","LANE":" ","ALLEY":" ","HOUSE_NO":"４６號五樓之３","E_COORD97":168730.39000000001,"N_COORD97":2543481.4500000002,"ADDRESS":"府中街４６號五樓之３","OBJECTID":503015},"geometry":{"x":168730.38999999966,"y":2543481.450000003}},{"attributes":{"ID":503043,"DIS_CODE":0,"TOWNNAME":"中西區","LI":"銀同里","LIN":"7鄰","STREET":"府中街","SECT":" ","MAREA":" ","LANE":" ","ALLEY":" ","HOUSE_NO":"４６號四樓之１","E_COORD97":168730.39000000001,"N_COORD97":2543481.4500000002,"ADDRESS":"府中街４６號四樓之１","OBJECTID":503016},"geometry":{"x":168730.38999999966,"y":2543481.450000003}},{"attributes":{"ID":503044,"DIS_CODE":0,"TOWNNAME":"中西區","LI":"銀同里","LIN":"7鄰","STREET":"府中街","SECT":" ","MAREA":" ","LANE":" ","ALLEY":" ","HOUSE_NO":"４６號四樓之２","E_COORD97":168730.39000000001,"N_COORD97":2543481.4500000002,"ADDRESS":"府中街４６號四樓之２","OBJECTID":503017},"geometry":{"x":168730.38999999966,"y":2543481.450000003}},{"attributes":{"ID":503045,"DIS_CODE":0,"TOWNNAME":"中西區","LI":"銀同里","LIN":"7鄰","STREET":"府中街","SECT":" ","MAREA":" ","LANE":" ","ALLEY":" ","HOUSE_NO":"４６號四樓之３","E_COORD97":168730.39000000001,"N_COORD97":2543481.4500000002,"ADDRESS":"府中街４６號四樓之３","OBJECTID":503018},"geometry":{"x":168730.38999999966,"y":2543481.450000003}},{"attributes":{"ID":503046,"DIS_CODE":0,"TOWNNAME":"中西區","LI":"赤嵌里","LIN":"7鄰","STREET":"民族路","SECT":"二段","MAREA":" ","LANE":" ","ALLEY":" ","HOUSE_NO":"１００號七樓","E_COORD97":168625.72,"N_COORD97":2544029.6099999999,"ADDRESS":"民族路二段１００號七樓","OBJECTID":503019},"geometry":{"x":168625.72000000067,"y":2544029.6100000031}},{"attributes":{"ID":503047,"DIS_CODE":0,"TOWNNAME":"中西區","LI":"赤嵌里","LIN":"7鄰","STREET":"民族路","SECT":"二段","MAREA":" ","LANE":" ","ALLEY":" ","HOUSE_NO":"１００號九樓","E_COORD97":168625.72,"N_COORD97":2544029.6099999999,"ADDRESS":"民族路二段１００號九樓","OBJECTID":503020},"geometry":{"x":168625.72000000067,"y":2544029.6100000031}},{"attributes":{"ID":503048,"DIS_CODE":0,"TOWNNAME":"中西區","LI":"赤嵌里","LIN":"7鄰","STREET":"民族路","SECT":"二段","MAREA":" ","LANE":" ","ALLEY":" ","HOUSE_NO":"１００號二樓","E_COORD97":168625.72,"N_COORD97":2544029.6099999999,"ADDRESS":"民族路二段１００號二樓","OBJECTID":503021},"geometry":{"x":168625.72000000067,"y":2544029.6100000031}},{"attributes":{"ID":503049,"DIS_CODE":0,"TOWNNAME":"中西區","LI":"赤嵌里","LIN":"7鄰","STREET":"民族路","SECT":"二段","MAREA":" ","LANE":" ","ALLEY":" ","HOUSE_NO":"１００號八樓","E_COORD97":168625.72,"N_COORD97":2544029.6099999999,"ADDRESS":"民族路二段１００號八樓","OBJECTID":503022},"geometry":{"x":168625.72000000067,"y":2544029.6100000031}},{"attributes":{"ID":503050,"DIS_CODE":0,"TOWNNAME":"中西區","LI":"赤嵌里","LIN":"7鄰","STREET":"民族路","SECT":"二段","MAREA":" ","LANE":" ","ALLEY":" ","HOUSE_NO":"１００號十一樓","E_COORD97":168625.72,"N_COORD97":2544029.6099999999,"ADDRESS":"民族路二段１００號十一樓","OBJECTID":503023},"geometry":{"x":168625.72000000067,"y":2544029.6100000031}},{"attributes":{"ID":503051,"DIS_CODE":0,"TOWNNAME":"中西區","LI":"赤嵌里","LIN":"7鄰","STREET":"民族路","SECT":"二段","MAREA":" ","LANE":" ","ALLEY":" ","HOUSE_NO":"１００號十二樓","E_COORD97":168625.72,"N_COORD97":2544029.6099999999,"ADDRESS":"民族路二段１００號十二樓","OBJECTID":503024},"geometry":{"x":168625.72000000067,"y":2544029.6100000031}},{"attributes":{"ID":503052,"DIS_CODE":0,"TOWNNAME":"中西區","LI":"赤嵌里","LIN":"7鄰","STREET":"民族路","SECT":"二段","MAREA":" ","LANE":" ","ALLEY":" ","HOUSE_NO":"１００號十三樓","E_COORD97":168625.72,"N_COORD97":2544029.6099999999,"ADDRESS":"民族路二段１００號十三樓","OBJECTID":503025},"geometry":{"x":168625.72000000067,"y":2544029.6100000031}},{"attributes":{"ID":503053,"DIS_CODE":0,"TOWNNAME":"中西區","LI":"赤嵌里","LIN":"7鄰","STREET":"民族路","SECT":"二段","MAREA":" ","LANE":" ","ALLEY":" ","HOUSE_NO":"１００號十樓","E_COORD97":168625.72,"N_COORD97":2544029.6099999999,"ADDRESS":"民族路二段１００號十樓","OBJECTID":503026},"geometry":{"x":168625.72000000067,"y":2544029.6100000031}},{"attributes":{"ID":503054,"DIS_CODE":0,"TOWNNAME":"中西區","LI":"赤嵌里","LIN":"7鄰","STREET":"民族路","SECT":"二段","MAREA":" ","LANE":" ","ALLEY":" ","HOUSE_NO":"１００號三樓","E_COORD97":168625.72,"N_COORD97":2544029.6099999999,"ADDRESS":"民族路二段１００號三樓","OBJECTID":503027},"geometry":{"x":168625.72000000067,"y":2544029.6100000031}},{"attributes":{"ID":503055,"DIS_CODE":0,"TOWNNAME":"中西區","LI":"赤嵌里","LIN":"7鄰","STREET":"民族路","SECT":"二段","MAREA":" ","LANE":" ","ALLEY":" ","HOUSE_NO":"１００號五樓","E_COORD97":168625.72,"N_COORD97":2544029.6099999999,"ADDRESS":"民族路二段１００號五樓","OBJECTID":503028},"geometry":{"x":168625.72000000067,"y":2544029.6100000031}},{"attributes":{"ID":503056,"DIS_CODE":0,"TOWNNAME":"中西區","LI":"赤嵌里","LIN":"7鄰","STREET":"民族路","SECT":"二段","MAREA":" ","LANE":" ","ALLEY":" ","HOUSE_NO":"１００號六樓","E_COORD97":168625.72,"N_COORD97":2544029.6099999999,"ADDRESS":"民族路二段１００號六樓","OBJECTID":503029},"geometry":{"x":168625.72000000067,"y":2544029.6100000031}},{"attributes":{"ID":503057,"DIS_CODE":0,"TOWNNAME":"中西區","LI":"赤嵌里","LIN":"7鄰","STREET":"民族路","SECT":"二段","MAREA":" ","LANE":" ","ALLEY":" ","HOUSE_NO":"１００號四樓","E_COORD97":168625.72,"N_COORD97":2544029.6099999999,"ADDRESS":"民族路二段１００號四樓","OBJECTID":503030},"geometry":{"x":168625.72000000067,"y":2544029.6100000031}},{"attributes":{"ID":503058,"DIS_CODE":0,"TOWNNAME":"中西區","LI":"赤嵌里","LIN":"7鄰","STREET":"廣慈街","SECT":" ","MAREA":" ","LANE":" ","ALLEY":" ","HOUSE_NO":"１１號二樓","E_COORD97":168647.85999999999,"N_COORD97":2544047.77,"ADDRESS":"廣慈街１１號二樓","OBJECTID":503031},"geometry":{"x":168647.86000000034,"y":2544047.7699999996}},{"attributes":{"ID":503059,"DIS_CODE":0,"TOWNNAME":"中西區","LI":"赤嵌里","LIN":"7鄰","STREET":"廣慈街","SECT":" ","MAREA":" ","LANE":" ","ALLEY":" ","HOUSE_NO":"１１號三樓","E_COORD97":168647.85999999999,"N_COORD97":2544047.77,"ADDRESS":"廣慈街１１號三樓","OBJECTID":503032},"geometry":{"x":168647.86000000034,"y":2544047.7699999996}},{"attributes":{"ID":503060,"DIS_CODE":0,"TOWNNAME":"中西區","LI":"赤嵌里","LIN":"7鄰","STREET":"廣慈街","SECT":" ","MAREA":" ","LANE":" ","ALLEY":" ","HOUSE_NO":"１１號五樓","E_COORD97":168647.85999999999,"N_COORD97":2544047.77,"ADDRESS":"廣慈街１１號五樓","OBJECTID":503033},"geometry":{"x":168647.86000000034,"y":2544047.7699999996}},{"attributes":{"ID":503061,"DIS_CODE":0,"TOWNNAME":"仁德區","LI":"新田里","LIN":"7鄰","STREET":"新田路","SECT":" ","MAREA":" ","LANE":" ","ALLEY":" ","HOUSE_NO":"１２號六樓之３","E_COORD97":174467.89000000001,"N_COORD97":2538932.29,"ADDRESS":"新田路１２號六樓之３","OBJECTID":503034},"geometry":{"x":174467.8900000006,"y":2538932.2900000028}},{"attributes":{"ID":503062,"DIS_CODE":0,"TOWNNAME":"仁德區","LI":"新田里","LIN":"7鄰","STREET":"新田路","SECT":" ","MAREA":" ","LANE":" ","ALLEY":" ","HOUSE_NO":"１２號五樓之３","E_COORD97":174467.89000000001,"N_COORD97":2538932.29,"ADDRESS":"新田路１２號五樓之３","OBJECTID":503035},"geometry":{"x":174467.8900000006,"y":2538932.2900000028}},{"attributes":{"ID":503063,"DIS_CODE":0,"TOWNNAME":"仁德區","LI":"新田里","LIN":"7鄰","STREET":"新田路","SECT":" ","MAREA":" ","LANE":" ","ALLEY":" ","HOUSE_NO":"１２號三樓之３","E_COORD97":174467.89000000001,"N_COORD97":2538932.29,"ADDRESS":"新田路１２號三樓之３","OBJECTID":503036},"geometry":{"x":174467.8900000006,"y":2538932.2900000028}},{"attributes":{"ID":503064,"DIS_CODE":0,"TOWNNAME":"仁德區","LI":"新田里","LIN":"7鄰","STREET":"新田路","SECT":" ","MAREA":" ","LANE":" ","ALLEY":" ","HOUSE_NO":"１２號四樓之２","E_COORD97":174467.92999999999,"N_COORD97":2538932.29,"ADDRESS":"新田路１２號四樓之２","OBJECTID":503037},"geometry":{"x":174467.9299999997,"y":2538932.2900000028}},{"attributes":{"ID":503065,"DIS_CODE":0,"TOWNNAME":"仁德區","LI":"新田里","LIN":"7鄰","STREET":"新田路","SECT":" ","MAREA":" ","LANE":" ","ALLEY":" ","HOUSE_NO":"１２號三樓之１","E_COORD97":174467.79000000001,"N_COORD97":2538932.29,"ADDRESS":"新田路１２號三樓之１","OBJECTID":503038},"geometry":{"x":174467.79000000004,"y":2538932.2900000028}},{"attributes":{"ID":503066,"DIS_CODE":0,"TOWNNAME":"仁德區","LI":"新田里","LIN":"7鄰","STREET":"新田路","SECT":" ","MAREA":" ","LANE":" ","ALLEY":" ","HOUSE_NO":"１２號四樓之３","E_COORD97":174467.89000000001,"N_COORD97":2538932.29,"ADDRESS":"新田路１２號四樓之３","OBJECTID":503039},"geometry":{"x":174467.8900000006,"y":2538932.2900000028}},{"attributes":{"ID":503067,"DIS_CODE":0,"TOWNNAME":"中西區","LI":"安海里","LIN":"7鄰","STREET":"中正路","SECT":" ","MAREA":" ","LANE":" ","ALLEY":" ","HOUSE_NO":"３５６號九樓之３","E_COORD97":167393.22,"N_COORD97":2543850.4500000002,"ADDRESS":"中正路３５６號九樓之３","OBJECTID":503040},"geometry":{"x":167393.22000000067,"y":2543850.4499999993}},{"attributes":{"ID":503068,"DIS_CODE":0,"TOWNNAME":"中西區","LI":"安海里","LIN":"7鄰","STREET":"中正路","SECT":" ","MAREA":" ","LANE":" ","ALLEY":" ","HOUSE_NO":"３５６號九樓之５","E_COORD97":167393.22,"N_COORD97":2543850.4500000002,"ADDRESS":"中正路３５６號九樓之５","OBJECTID":503041},"geometry":{"x":167393.22000000067,"y":2543850.4499999993}},{"attributes":{"ID":503069,"DIS_CODE":0,"TOWNNAME":"中西區","LI":"安海里","LIN":"7鄰","STREET":"中正路","SECT":" ","MAREA":" ","LANE":" ","ALLEY":" ","HOUSE_NO":"３５６號九樓之６","E_COORD97":167393.22,"N_COORD97":2543850.4500000002,"ADDRESS":"中正路３５６號九樓之６","OBJECTID":503042},"geometry":{"x":167393.22000000067,"y":2543850.4499999993}},{"attributes":{"ID":503070,"DIS_CODE":0,"TOWNNAME":"中西區","LI":"安海里","LIN":"7鄰","STREET":"中正路","SECT":" ","MAREA":" ","LANE":" ","ALLEY":" ","HOUSE_NO":"３５６號九樓之７","E_COORD97":167393.22,"N_COORD97":2543850.4500000002,"ADDRESS":"中正路３５６號九樓之７","OBJECTID":503043},"geometry":{"x":167393.22000000067,"y":2543850.4499999993}},{"attributes":{"ID":503071,"DIS_CODE":0,"TOWNNAME":"中西區","LI":"安海里","LIN":"7鄰","STREET":"中正路","SECT":" ","MAREA":" ","LANE":" ","ALLEY":" ","HOUSE_NO":"３５６號十樓之１","E_COORD97":167393.22,"N_COORD97":2543850.4500000002,"ADDRESS":"中正路３５６號十樓之１","OBJECTID":503044},"geometry":{"x":167393.22000000067,"y":2543850.4499999993}},{"attributes":{"ID":503072,"DIS_CODE":0,"TOWNNAME":"中西區","LI":"安海里","LIN":"7鄰","STREET":"中正路","SECT":" ","MAREA":" ","LANE":" ","ALLEY":" ","HOUSE_NO":"３５６號十樓之２","E_COORD97":167393.22,"N_COORD97":2543850.4500000002,"ADDRESS":"中正路３５６號十樓之２","OBJECTID":503045},"geometry":{"x":167393.22000000067,"y":2543850.4499999993}},{"attributes":{"ID":503073,"DIS_CODE":0,"TOWNNAME":"中西區","LI":"安海里","LIN":"7鄰","STREET":"中正路","SECT":" ","MAREA":" ","LANE":" ","ALLEY":" ","HOUSE_NO":"３５６號十樓之３","E_COORD97":167393.22,"N_COORD97":2543850.4500000002,"ADDRESS":"中正路３５６號十樓之３","OBJECTID":503046},"geometry":{"x":167393.22000000067,"y":2543850.4499999993}},{"attributes":{"ID":503074,"DIS_CODE":0,"TOWNNAME":"中西區","LI":"安海里","LIN":"7鄰","STREET":"中正路","SECT":" ","MAREA":" ","LANE":" ","ALLEY":" ","HOUSE_NO":"３５６號十樓之５","E_COORD97":167393.22,"N_COORD97":2543850.4500000002,"ADDRESS":"中正路３５６號十樓之５","OBJECTID":503047},"geometry":{"x":167393.22000000067,"y":2543850.4499999993}},{"attributes":{"ID":503075,"DIS_CODE":0,"TOWNNAME":"中西區","LI":"安海里","LIN":"7鄰","STREET":"中正路","SECT":" ","MAREA":" ","LANE":" ","ALLEY":" ","HOUSE_NO":"３５６號十樓之６","E_COORD97":167393.22,"N_COORD97":2543850.4500000002,"ADDRESS":"中正路３５６號十樓之６","OBJECTID":503048},"geometry":{"x":167393.22000000067,"y":2543850.4499999993}},{"attributes":{"ID":503076,"DIS_CODE":0,"TOWNNAME":"中西區","LI":"安海里","LIN":"7鄰","STREET":"中正路","SECT":" ","MAREA":" ","LANE":" ","ALLEY":" ","HOUSE_NO":"３５６號十樓之７","E_COORD97":167393.22,"N_COORD97":2543850.4500000002,"ADDRESS":"中正路３５６號十樓之７","OBJECTID":503049},"geometry":{"x":167393.22000000067,"y":2543850.4499999993}},{"attributes":{"ID":503077,"DIS_CODE":0,"TOWNNAME":"中西區","LI":"安海里","LIN":"7鄰","STREET":"中正路","SECT":" ","MAREA":" ","LANE":" ","ALLEY":" ","HOUSE_NO":"３５６號十一樓之１","E_COORD97":167393.22,"N_COORD97":2543850.4500000002,"ADDRESS":"中正路３５６號十一樓之１","OBJECTID":503050},"geometry":{"x":167393.22000000067,"y":2543850.4499999993}},{"attributes":{"ID":503078,"DIS_CODE":0,"TOWNNAME":"中西區","LI":"安海里","LIN":"7鄰","STREET":"中正路","SECT":" ","MAREA":" ","LANE":" ","ALLEY":" ","HOUSE_NO":"３５６號十一樓之２","E_COORD97":167393.22,"N_COORD97":2543850.4500000002,"ADDRESS":"中正路３５６號十一樓之２","OBJECTID":503051},"geometry":{"x":167393.22000000067,"y":2543850.4499999993}},{"attributes":{"ID":503079,"DIS_CODE":0,"TOWNNAME":"中西區","LI":"安海里","LIN":"7鄰","STREET":"中正路","SECT":" ","MAREA":" ","LANE":" ","ALLEY":" ","HOUSE_NO":"３５６號十一樓之３","E_COORD97":167393.22,"N_COORD97":2543850.4500000002,"ADDRESS":"中正路３５６號十一樓之３","OBJECTID":503052},"geometry":{"x":167393.22000000067,"y":2543850.4499999993}},{"attributes":{"ID":503080,"DIS_CODE":0,"TOWNNAME":"中西區","LI":"安海里","LIN":"7鄰","STREET":"中正路","SECT":" ","MAREA":" ","LANE":" ","ALLEY":" ","HOUSE_NO":"３５６號十一樓之５","E_COORD97":167393.22,"N_COORD97":2543850.4500000002,"ADDRESS":"中正路３５６號十一樓之５","OBJECTID":503053},"geometry":{"x":167393.22000000067,"y":2543850.4499999993}},{"attributes":{"ID":503081,"DIS_CODE":0,"TOWNNAME":"中西區","LI":"安海里","LIN":"7鄰","STREET":"中正路","SECT":" ","MAREA":" ","LANE":" ","ALLEY":" ","HOUSE_NO":"３５６號十一樓之６","E_COORD97":167393.22,"N_COORD97":2543850.4500000002,"ADDRESS":"中正路３５６號十一樓之６","OBJECTID":503054},"geometry":{"x":167393.22000000067,"y":2543850.4499999993}},{"attributes":{"ID":503082,"DIS_CODE":0,"TOWNNAME":"中西區","LI":"安海里","LIN":"7鄰","STREET":"中正路","SECT":" ","MAREA":" ","LANE":" ","ALLEY":" ","HOUSE_NO":"３５６號十一樓之７","E_COORD97":167393.22,"N_COORD97":2543850.4500000002,"ADDRESS":"中正路３５６號十一樓之７","OBJECTID":503055},"geometry":{"x":167393.22000000067,"y":2543850.4499999993}},{"attributes":{"ID":503083,"DIS_CODE":0,"TOWNNAME":"中西區","LI":"安海里","LIN":"7鄰","STREET":"中正路","SECT":" ","MAREA":" ","LANE":" ","ALLEY":" ","HOUSE_NO":"３５６號十二樓之１","E_COORD97":167393.22,"N_COORD97":2543850.4500000002,"ADDRESS":"中正路３５６號十二樓之１","OBJECTID":503056},"geometry":{"x":167393.22000000067,"y":2543850.4499999993}},{"attributes":{"ID":503084,"DIS_CODE":0,"TOWNNAME":"中西區","LI":"安海里","LIN":"7鄰","STREET":"中正路","SECT":" ","MAREA":" ","LANE":" ","ALLEY":" ","HOUSE_NO":"３５６號十二樓之２","E_COORD97":167393.22,"N_COORD97":2543850.4500000002,"ADDRESS":"中正路３５６號十二樓之２","OBJECTID":503057},"geometry":{"x":167393.22000000067,"y":2543850.4499999993}},{"attributes":{"ID":503085,"DIS_CODE":0,"TOWNNAME":"中西區","LI":"安海里","LIN":"7鄰","STREET":"中正路","SECT":" ","MAREA":" ","LANE":" ","ALLEY":" ","HOUSE_NO":"３５６號十二樓之３","E_COORD97":167393.22,"N_COORD97":2543850.4500000002,"ADDRESS":"中正路３５６號十二樓之３","OBJECTID":503058},"geometry":{"x":167393.22000000067,"y":2543850.4499999993}},{"attributes":{"ID":503086,"DIS_CODE":0,"TOWNNAME":"中西區","LI":"安海里","LIN":"7鄰","STREET":"中正路","SECT":" ","MAREA":" ","LANE":" ","ALLEY":" ","HOUSE_NO":"３５６號十二樓之５","E_COORD97":167393.22,"N_COORD97":2543850.4500000002,"ADDRESS":"中正路３５６號十二樓之５","OBJECTID":503059},"geometry":{"x":167393.22000000067,"y":2543850.4499999993}},{"attributes":{"ID":503087,"DIS_CODE":0,"TOWNNAME":"歸仁區","LI":"文化里","LIN":"7鄰","STREET":"文化三街","SECT":" ","MAREA":" ","LANE":" ","ALLEY":" ","HOUSE_NO":"４８號","E_COORD97":177223.95999999999,"N_COORD97":2541313.3399999999,"ADDRESS":"文化三街４８號","OBJECTID":503060},"geometry":{"x":177223.96000000089,"y":2541313.3400000017}},{"attributes":{"ID":503088,"DIS_CODE":0,"TOWNNAME":"中西區","LI":"安海里","LIN":"7鄰","STREET":"中正路","SECT":" ","MAREA":" ","LANE":" ","ALLEY":" ","HOUSE_NO":"３５６號十二樓之６","E_COORD97":167393.22,"N_COORD97":2543850.4500000002,"ADDRESS":"中正路３５６號十二樓之６","OBJECTID":503061},"geometry":{"x":167393.22000000067,"y":2543850.4499999993}},{"attributes":{"ID":503089,"DIS_CODE":0,"TOWNNAME":"中西區","LI":"安海里","LIN":"7鄰","STREET":"中正路","SECT":" ","MAREA":" ","LANE":" ","ALLEY":" ","HOUSE_NO":"３５６號十二樓之７","E_COORD97":167393.22,"N_COORD97":2543850.4500000002,"ADDRESS":"中正路３５６號十二樓之７","OBJECTID":503062},"geometry":{"x":167393.22000000067,"y":2543850.4499999993}},{"attributes":{"ID":503090,"DIS_CODE":0,"TOWNNAME":"中西區","LI":"安海里","LIN":"7鄰","STREET":"中正路","SECT":" ","MAREA":" ","LANE":" ","ALLEY":" ","HOUSE_NO":"３５６號十三樓之１","E_COORD97":167393.22,"N_COORD97":2543850.4500000002,"ADDRESS":"中正路３５６號十三樓之１","OBJECTID":503063},"geometry":{"x":167393.22000000067,"y":2543850.4499999993}},{"attributes":{"ID":503091,"DIS_CODE":0,"TOWNNAME":"中西區","LI":"安海里","LIN":"7鄰","STREET":"中正路","SECT":" ","MAREA":" ","LANE":" ","ALLEY":" ","HOUSE_NO":"３５６號十三樓之２","E_COORD97":167393.22,"N_COORD97":2543850.4500000002,"ADDRESS":"中正路３５６號十三樓之２","OBJECTID":503064},"geometry":{"x":167393.22000000067,"y":2543850.4499999993}},{"attributes":{"ID":503092,"DIS_CODE":0,"TOWNNAME":"中西區","LI":"安海里","LIN":"7鄰","STREET":"中正路","SECT":" ","MAREA":" ","LANE":" ","ALLEY":" ","HOUSE_NO":"３５６號十三樓之３","E_COORD97":167393.22,"N_COORD97":2543850.4500000002,"ADDRESS":"中正路３５６號十三樓之３","OBJECTID":503065},"geometry":{"x":167393.22000000067,"y":2543850.4499999993}},{"attributes":{"ID":503093,"DIS_CODE":0,"TOWNNAME":"中西區","LI":"安海里","LIN":"7鄰","STREET":"中正路","SECT":" ","MAREA":" ","LANE":" ","ALLEY":" ","HOUSE_NO":"３５６號十三樓之５","E_COORD97":167393.22,"N_COORD97":2543850.4500000002,"ADDRESS":"中正路３５６號十三樓之５","OBJECTID":503066},"geometry":{"x":167393.22000000067,"y":2543850.4499999993}},{"attributes":{"ID":503094,"DIS_CODE":0,"TOWNNAME":"中西區","LI":"安海里","LIN":"7鄰","STREET":"中正路","SECT":" ","MAREA":" ","LANE":" ","ALLEY":" ","HOUSE_NO":"３５６號十三樓之６","E_COORD97":167393.22,"N_COORD97":2543850.4500000002,"ADDRESS":"中正路３５６號十三樓之６","OBJECTID":503067},"geometry":{"x":167393.22000000067,"y":2543850.4499999993}},{"attributes":{"ID":503095,"DIS_CODE":0,"TOWNNAME":"中西區","LI":"安海里","LIN":"7鄰","STREET":"中正路","SECT":" ","MAREA":" ","LANE":" ","ALLEY":" ","HOUSE_NO":"３５６號十三樓之７","E_COORD97":167393.22,"N_COORD97":2543850.4500000002,"ADDRESS":"中正路３５６號十三樓之７","OBJECTID":503068},"geometry":{"x":167393.22000000067,"y":2543850.4499999993}},{"attributes":{"ID":503096,"DIS_CODE":0,"TOWNNAME":"中西區","LI":"安海里","LIN":"7鄰","STREET":"中正路","SECT":" ","MAREA":" ","LANE":" ","ALLEY":" ","HOUSE_NO":"３５６號十四樓之１","E_COORD97":167393.22,"N_COORD97":2543850.4500000002,"ADDRESS":"中正路３５６號十四樓之１","OBJECTID":503069},"geometry":{"x":167393.22000000067,"y":2543850.4499999993}},{"attributes":{"ID":503097,"DIS_CODE":0,"TOWNNAME":"東區","LI":"文聖里","LIN":"20鄰","STREET":"裕文一街","SECT":" ","MAREA":" ","LANE":" ","ALLEY":" ","HOUSE_NO":"１８號","E_COORD97":172743.32999999999,"N_COORD97":2542567.4900000002,"ADDRESS":"裕文一街１８號","OBJECTID":503070},"geometry":{"x":172743.33000000007,"y":2542567.4900000021}},{"attributes":{"ID":503098,"DIS_CODE":0,"TOWNNAME":"中西區","LI":"安海里","LIN":"7鄰","STREET":"中正路","SECT":" ","MAREA":" ","LANE":" ","ALLEY":" ","HOUSE_NO":"３５６號十四樓之２","E_COORD97":167393.22,"N_COORD97":2543850.4500000002,"ADDRESS":"中正路３５６號十四樓之２","OBJECTID":503071},"geometry":{"x":167393.22000000067,"y":2543850.4499999993}},{"attributes":{"ID":503099,"DIS_CODE":0,"TOWNNAME":"中西區","LI":"安海里","LIN":"7鄰","STREET":"中正路","SECT":" ","MAREA":" ","LANE":" ","ALLEY":" ","HOUSE_NO":"３５６號十四樓之３","E_COORD97":167393.22,"N_COORD97":2543850.4500000002,"ADDRESS":"中正路３５６號十四樓之３","OBJECTID":503072},"geometry":{"x":167393.22000000067,"y":2543850.4499999993}},{"attributes":{"ID":503100,"DIS_CODE":0,"TOWNNAME":"中西區","LI":"安海里","LIN":"7鄰","STREET":"中正路","SECT":" ","MAREA":" ","LANE":" ","ALLEY":" ","HOUSE_NO":"３５６號十四樓之５","E_COORD97":167393.22,"N_COORD97":2543850.4500000002,"ADDRESS":"中正路３５６號十四樓之５","OBJECTID":503073},"geometry":{"x":167393.22000000067,"y":2543850.4499999993}},{"attributes":{"ID":503101,"DIS_CODE":0,"TOWNNAME":"中西區","LI":"安海里","LIN":"7鄰","STREET":"中正路","SECT":" ","MAREA":" ","LANE":" ","ALLEY":" ","HOUSE_NO":"３５６號十四樓之６","E_COORD97":167393.22,"N_COORD97":2543850.4500000002,"ADDRESS":"中正路３５６號十四樓之６","OBJECTID":503074},"geometry":{"x":167393.22000000067,"y":2543850.4499999993}},{"attributes":{"ID":503102,"DIS_CODE":0,"TOWNNAME":"中西區","LI":"安海里","LIN":"7鄰","STREET":"中正路","SECT":" ","MAREA":" ","LANE":" ","ALLEY":" ","HOUSE_NO":"３５６號十四樓之７","E_COORD97":167393.22,"N_COORD97":2543850.4500000002,"ADDRESS":"中正路３５６號十四樓之７","OBJECTID":503075},"geometry":{"x":167393.22000000067,"y":2543850.4499999993}},{"attributes":{"ID":503103,"DIS_CODE":0,"TOWNNAME":"中西區","LI":"安海里","LIN":"7鄰","STREET":"中正路","SECT":" ","MAREA":" ","LANE":" ","ALLEY":" ","HOUSE_NO":"３５６號三樓之３","E_COORD97":167393.22,"N_COORD97":2543850.4500000002,"ADDRESS":"中正路３５６號三樓之３","OBJECTID":503076},"geometry":{"x":167393.22000000067,"y":2543850.4499999993}},{"attributes":{"ID":503104,"DIS_CODE":0,"TOWNNAME":"中西區","LI":"安海里","LIN":"7鄰","STREET":"中正路","SECT":" ","MAREA":" ","LANE":" ","ALLEY":" ","HOUSE_NO":"３５６號三樓之５","E_COORD97":167393.22,"N_COORD97":2543850.4500000002,"ADDRESS":"中正路３５６號三樓之５","OBJECTID":503077},"geometry":{"x":167393.22000000067,"y":2543850.4499999993}},{"attributes":{"ID":503105,"DIS_CODE":0,"TOWNNAME":"中西區","LI":"安海里","LIN":"7鄰","STREET":"中正路","SECT":" ","MAREA":" ","LANE":" ","ALLEY":" ","HOUSE_NO":"３５６號三樓之６","E_COORD97":167393.22,"N_COORD97":2543850.4500000002,"ADDRESS":"中正路３５６號三樓之６","OBJECTID":503078},"geometry":{"x":167393.22000000067,"y":2543850.4499999993}},{"attributes":{"ID":503106,"DIS_CODE":0,"TOWNNAME":"中西區","LI":"安海里","LIN":"7鄰","STREET":"中正路","SECT":" ","MAREA":" ","LANE":" ","ALLEY":" ","HOUSE_NO":"３５６號三樓之７","E_COORD97":167393.22,"N_COORD97":2543850.4500000002,"ADDRESS":"中正路３５６號三樓之７","OBJECTID":503079},"geometry":{"x":167393.22000000067,"y":2543850.4499999993}},{"attributes":{"ID":503107,"DIS_CODE":0,"TOWNNAME":"中西區","LI":"安海里","LIN":"7鄰","STREET":"中正路","SECT":" ","MAREA":" ","LANE":" ","ALLEY":" ","HOUSE_NO":"３５６號四樓之１","E_COORD97":167393.22,"N_COORD97":2543850.4500000002,"ADDRESS":"中正路３５６號四樓之１","OBJECTID":503080},"geometry":{"x":167393.22000000067,"y":2543850.4499999993}},{"attributes":{"ID":503108,"DIS_CODE":0,"TOWNNAME":"中西區","LI":"安海里","LIN":"7鄰","STREET":"中正路","SECT":" ","MAREA":" ","LANE":" ","ALLEY":" ","HOUSE_NO":"３５６號四樓之２","E_COORD97":167393.22,"N_COORD97":2543850.4500000002,"ADDRESS":"中正路３５６號四樓之２","OBJECTID":503081},"geometry":{"x":167393.22000000067,"y":2543850.4499999993}},{"attributes":{"ID":503109,"DIS_CODE":0,"TOWNNAME":"中西區","LI":"安海里","LIN":"7鄰","STREET":"中正路","SECT":" ","MAREA":" ","LANE":" ","ALLEY":" ","HOUSE_NO":"３５６號四樓之３","E_COORD97":167393.22,"N_COORD97":2543850.4500000002,"ADDRESS":"中正路３５６號四樓之３","OBJECTID":503082},"geometry":{"x":167393.22000000067,"y":2543850.4499999993}},{"attributes":{"ID":503110,"DIS_CODE":0,"TOWNNAME":"中西區","LI":"安海里","LIN":"7鄰","STREET":"中正路","SECT":" ","MAREA":" ","LANE":" ","ALLEY":" ","HOUSE_NO":"３５６號四樓之５","E_COORD97":167393.22,"N_COORD97":2543850.4500000002,"ADDRESS":"中正路３５６號四樓之５","OBJECTID":503083},"geometry":{"x":167393.22000000067,"y":2543850.4499999993}},{"attributes":{"ID":503111,"DIS_CODE":0,"TOWNNAME":"中西區","LI":"安海里","LIN":"7鄰","STREET":"中正路","SECT":" ","MAREA":" ","LANE":" ","ALLEY":" ","HOUSE_NO":"３５６號四樓之６","E_COORD97":167393.22,"N_COORD97":2543850.4500000002,"ADDRESS":"中正路３５６號四樓之６","OBJECTID":503084},"geometry":{"x":167393.22000000067,"y":2543850.4499999993}},{"attributes":{"ID":503112,"DIS_CODE":0,"TOWNNAME":"中西區","LI":"安海里","LIN":"7鄰","STREET":"中正路","SECT":" ","MAREA":" ","LANE":" ","ALLEY":" ","HOUSE_NO":"３５６號四樓之７","E_COORD97":167393.22,"N_COORD97":2543850.4500000002,"ADDRESS":"中正路３５６號四樓之７","OBJECTID":503085},"geometry":{"x":167393.22000000067,"y":2543850.4499999993}},{"attributes":{"ID":503113,"DIS_CODE":0,"TOWNNAME":"中西區","LI":"安海里","LIN":"7鄰","STREET":"中正路","SECT":" ","MAREA":" ","LANE":" ","ALLEY":" ","HOUSE_NO":"３５６號五樓之１","E_COORD97":167393.22,"N_COORD97":2543850.4500000002,"ADDRESS":"中正路３５６號五樓之１","OBJECTID":503086},"geometry":{"x":167393.22000000067,"y":2543850.4499999993}},{"attributes":{"ID":503114,"DIS_CODE":0,"TOWNNAME":"中西區","LI":"安海里","LIN":"7鄰","STREET":"中正路","SECT":" ","MAREA":" ","LANE":" ","ALLEY":" ","HOUSE_NO":"３５６號五樓之２","E_COORD97":167393.22,"N_COORD97":2543850.4500000002,"ADDRESS":"中正路３５６號五樓之２","OBJECTID":503087},"geometry":{"x":167393.22000000067,"y":2543850.4499999993}},{"attributes":{"ID":503115,"DIS_CODE":0,"TOWNNAME":"中西區","LI":"安海里","LIN":"7鄰","STREET":"中正路","SECT":" ","MAREA":" ","LANE":" ","ALLEY":" ","HOUSE_NO":"３５６號五樓之３","E_COORD97":167393.22,"N_COORD97":2543850.4500000002,"ADDRESS":"中正路３５６號五樓之３","OBJECTID":503088},"geometry":{"x":167393.22000000067,"y":2543850.4499999993}},{"attributes":{"ID":503116,"DIS_CODE":0,"TOWNNAME":"中西區","LI":"安海里","LIN":"7鄰","STREET":"中正路","SECT":" ","MAREA":" ","LANE":" ","ALLEY":" ","HOUSE_NO":"３５６號五樓之５","E_COORD97":167393.22,"N_COORD97":2543850.4500000002,"ADDRESS":"中正路３５６號五樓之５","OBJECTID":503089},"geometry":{"x":167393.22000000067,"y":2543850.4499999993}},{"attributes":{"ID":503117,"DIS_CODE":0,"TOWNNAME":"中西區","LI":"安海里","LIN":"7鄰","STREET":"中正路","SECT":" ","MAREA":" ","LANE":" ","ALLEY":" ","HOUSE_NO":"３５６號五樓之６","E_COORD97":167393.22,"N_COORD97":2543850.4500000002,"ADDRESS":"中正路３５６號五樓之６","OBJECTID":503090},"geometry":{"x":167393.22000000067,"y":2543850.4499999993}},{"attributes":{"ID":503118,"DIS_CODE":0,"TOWNNAME":"中西區","LI":"安海里","LIN":"7鄰","STREET":"中正路","SECT":" ","MAREA":" ","LANE":" ","ALLEY":" ","HOUSE_NO":"３５６號五樓之７","E_COORD97":167393.22,"N_COORD97":2543850.4500000002,"ADDRESS":"中正路３５６號五樓之７","OBJECTID":503091},"geometry":{"x":167393.22000000067,"y":2543850.4499999993}},{"attributes":{"ID":503119,"DIS_CODE":0,"TOWNNAME":"中西區","LI":"安海里","LIN":"7鄰","STREET":"中正路","SECT":" ","MAREA":" ","LANE":" ","ALLEY":" ","HOUSE_NO":"３５６號六樓之１","E_COORD97":167393.22,"N_COORD97":2543850.4500000002,"ADDRESS":"中正路３５６號六樓之１","OBJECTID":503092},"geometry":{"x":167393.22000000067,"y":2543850.4499999993}},{"attributes":{"ID":503120,"DIS_CODE":0,"TOWNNAME":"中西區","LI":"安海里","LIN":"7鄰","STREET":"中正路","SECT":" ","MAREA":" ","LANE":" ","ALLEY":" ","HOUSE_NO":"３５６號六樓之２","E_COORD97":167393.22,"N_COORD97":2543850.4500000002,"ADDRESS":"中正路３５６號六樓之２","OBJECTID":503093},"geometry":{"x":167393.22000000067,"y":2543850.4499999993}},{"attributes":{"ID":503121,"DIS_CODE":0,"TOWNNAME":"中西區","LI":"安海里","LIN":"7鄰","STREET":"中正路","SECT":" ","MAREA":" ","LANE":" ","ALLEY":" ","HOUSE_NO":"３５６號六樓之３","E_COORD97":167393.22,"N_COORD97":2543850.4500000002,"ADDRESS":"中正路３５６號六樓之３","OBJECTID":503094},"geometry":{"x":167393.22000000067,"y":2543850.4499999993}},{"attributes":{"ID":503122,"DIS_CODE":0,"TOWNNAME":"中西區","LI":"安海里","LIN":"7鄰","STREET":"中正路","SECT":" ","MAREA":" ","LANE":" ","ALLEY":" ","HOUSE_NO":"３５６號六樓之５","E_COORD97":167393.22,"N_COORD97":2543850.4500000002,"ADDRESS":"中正路３５６號六樓之５","OBJECTID":503095},"geometry":{"x":167393.22000000067,"y":2543850.4499999993}},{"attributes":{"ID":503123,"DIS_CODE":0,"TOWNNAME":"中西區","LI":"安海里","LIN":"7鄰","STREET":"中正路","SECT":" ","MAREA":" ","LANE":" ","ALLEY":" ","HOUSE_NO":"３５６號六樓之６","E_COORD97":167393.22,"N_COORD97":2543850.4500000002,"ADDRESS":"中正路３５６號六樓之６","OBJECTID":503096},"geometry":{"x":167393.22000000067,"y":2543850.4499999993}},{"attributes":{"ID":503124,"DIS_CODE":0,"TOWNNAME":"中西區","LI":"安海里","LIN":"7鄰","STREET":"中正路","SECT":" ","MAREA":" ","LANE":" ","ALLEY":" ","HOUSE_NO":"３５６號六樓之７","E_COORD97":167393.22,"N_COORD97":2543850.4500000002,"ADDRESS":"中正路３５６號六樓之７","OBJECTID":503097},"geometry":{"x":167393.22000000067,"y":2543850.4499999993}},{"attributes":{"ID":503125,"DIS_CODE":0,"TOWNNAME":"中西區","LI":"安海里","LIN":"7鄰","STREET":"中正路","SECT":" ","MAREA":" ","LANE":" ","ALLEY":" ","HOUSE_NO":"３５６號七樓之１","E_COORD97":167393.22,"N_COORD97":2543850.4500000002,"ADDRESS":"中正路３５６號七樓之１","OBJECTID":503098},"geometry":{"x":167393.22000000067,"y":2543850.4499999993}},{"attributes":{"ID":503126,"DIS_CODE":0,"TOWNNAME":"中西區","LI":"安海里","LIN":"7鄰","STREET":"中正路","SECT":" ","MAREA":" ","LANE":" ","ALLEY":" ","HOUSE_NO":"３５６號七樓之２","E_COORD97":167393.22,"N_COORD97":2543850.4500000002,"ADDRESS":"中正路３５６號七樓之２","OBJECTID":503099},"geometry":{"x":167393.22000000067,"y":2543850.4499999993}},{"attributes":{"ID":503127,"DIS_CODE":0,"TOWNNAME":"中西區","LI":"安海里","LIN":"7鄰","STREET":"中正路","SECT":" ","MAREA":" ","LANE":" ","ALLEY":" ","HOUSE_NO":"３５６號七樓之３","E_COORD97":167393.22,"N_COORD97":2543850.4500000002,"ADDRESS":"中正路３５６號七樓之３","OBJECTID":503100},"geometry":{"x":167393.22000000067,"y":2543850.4499999993}},{"attributes":{"ID":503128,"DIS_CODE":0,"TOWNNAME":"中西區","LI":"安海里","LIN":"7鄰","STREET":"中正路","SECT":" ","MAREA":" ","LANE":" ","ALLEY":" ","HOUSE_NO":"３５６號七樓之５","E_COORD97":167393.22,"N_COORD97":2543850.4500000002,"ADDRESS":"中正路３５６號七樓之５","OBJECTID":503101},"geometry":{"x":167393.22000000067,"y":2543850.4499999993}},{"attributes":{"ID":503129,"DIS_CODE":0,"TOWNNAME":"中西區","LI":"安海里","LIN":"7鄰","STREET":"中正路","SECT":" ","MAREA":" ","LANE":" ","ALLEY":" ","HOUSE_NO":"３５６號七樓之６","E_COORD97":167393.22,"N_COORD97":2543850.4500000002,"ADDRESS":"中正路３５６號七樓之６","OBJECTID":503102},"geometry":{"x":167393.22000000067,"y":2543850.4499999993}},{"attributes":{"ID":503130,"DIS_CODE":0,"TOWNNAME":"中西區","LI":"安海里","LIN":"7鄰","STREET":"中正路","SECT":" ","MAREA":" ","LANE":" ","ALLEY":" ","HOUSE_NO":"３５６號七樓之７","E_COORD97":167393.22,"N_COORD97":2543850.4500000002,"ADDRESS":"中正路３５６號七樓之７","OBJECTID":503103},"geometry":{"x":167393.22000000067,"y":2543850.4499999993}},{"attributes":{"ID":503131,"DIS_CODE":0,"TOWNNAME":"中西區","LI":"安海里","LIN":"7鄰","STREET":"中正路","SECT":" ","MAREA":" ","LANE":" ","ALLEY":" ","HOUSE_NO":"３５６號八樓之１","E_COORD97":167393.22,"N_COORD97":2543850.4500000002,"ADDRESS":"中正路３５６號八樓之１","OBJECTID":503104},"geometry":{"x":167393.22000000067,"y":2543850.4499999993}},{"attributes":{"ID":503132,"DIS_CODE":0,"TOWNNAME":"中西區","LI":"安海里","LIN":"7鄰","STREET":"中正路","SECT":" ","MAREA":" ","LANE":" ","ALLEY":" ","HOUSE_NO":"３５６號八樓之２","E_COORD97":167393.22,"N_COORD97":2543850.4500000002,"ADDRESS":"中正路３５６號八樓之２","OBJECTID":503105},"geometry":{"x":167393.22000000067,"y":2543850.4499999993}},{"attributes":{"ID":503133,"DIS_CODE":0,"TOWNNAME":"中西區","LI":"安海里","LIN":"7鄰","STREET":"中正路","SECT":" ","MAREA":" ","LANE":" ","ALLEY":" ","HOUSE_NO":"３５６號八樓之３","E_COORD97":167393.22,"N_COORD97":2543850.4500000002,"ADDRESS":"中正路３５６號八樓之３","OBJECTID":503106},"geometry":{"x":167393.22000000067,"y":2543850.4499999993}},{"attributes":{"ID":503134,"DIS_CODE":0,"TOWNNAME":"中西區","LI":"安海里","LIN":"7鄰","STREET":"中正路","SECT":" ","MAREA":" ","LANE":" ","ALLEY":" ","HOUSE_NO":"３５６號八樓之５","E_COORD97":167393.22,"N_COORD97":2543850.4500000002,"ADDRESS":"中正路３５６號八樓之５","OBJECTID":503107},"geometry":{"x":167393.22000000067,"y":2543850.4499999993}},{"attributes":{"ID":503135,"DIS_CODE":0,"TOWNNAME":"中西區","LI":"安海里","LIN":"7鄰","STREET":"中正路","SECT":" ","MAREA":" ","LANE":" ","ALLEY":" ","HOUSE_NO":"３５６號八樓之６","E_COORD97":167393.22,"N_COORD97":2543850.4500000002,"ADDRESS":"中正路３５６號八樓之６","OBJECTID":503108},"geometry":{"x":167393.22000000067,"y":2543850.4499999993}},{"attributes":{"ID":503136,"DIS_CODE":0,"TOWNNAME":"中西區","LI":"安海里","LIN":"7鄰","STREET":"中正路","SECT":" ","MAREA":" ","LANE":" ","ALLEY":" ","HOUSE_NO":"３５６號八樓之７","E_COORD97":167393.22,"N_COORD97":2543850.4500000002,"ADDRESS":"中正路３５６號八樓之７","OBJECTID":503109},"geometry":{"x":167393.22000000067,"y":2543850.4499999993}},{"attributes":{"ID":503137,"DIS_CODE":0,"TOWNNAME":"中西區","LI":"安海里","LIN":"7鄰","STREET":"中正路","SECT":" ","MAREA":" ","LANE":" ","ALLEY":" ","HOUSE_NO":"３５６號九樓之１","E_COORD97":167393.22,"N_COORD97":2543850.4500000002,"ADDRESS":"中正路３５６號九樓之１","OBJECTID":503110},"geometry":{"x":167393.22000000067,"y":2543850.4499999993}},{"attributes":{"ID":503138,"DIS_CODE":0,"TOWNNAME":"中西區","LI":"安海里","LIN":"7鄰","STREET":"中正路","SECT":" ","MAREA":" ","LANE":" ","ALLEY":" ","HOUSE_NO":"３５６號九樓之２","E_COORD97":167393.22,"N_COORD97":2543850.4500000002,"ADDRESS":"中正路３５６號九樓之２","OBJECTID":503111},"geometry":{"x":167393.22000000067,"y":2543850.4499999993}},{"attributes":{"ID":503139,"DIS_CODE":0,"TOWNNAME":"中西區","LI":"協和里","LIN":"7鄰","STREET":"臨安路","SECT":"一段","MAREA":" ","LANE":" ","ALLEY":" ","HOUSE_NO":"１９３號三樓","E_COORD97":167232.60000000001,"N_COORD97":2544622.54,"ADDRESS":"臨安路一段１９３號三樓","OBJECTID":503112},"geometry":{"x":167232.60000000056,"y":2544622.5399999991}},{"attributes":{"ID":503140,"DIS_CODE":0,"TOWNNAME":"中西區","LI":"協和里","LIN":"7鄰","STREET":"臨安路","SECT":"一段","MAREA":" ","LANE":" ","ALLEY":" ","HOUSE_NO":"１９３號四樓","E_COORD97":167232.60000000001,"N_COORD97":2544622.54,"ADDRESS":"臨安路一段１９３號四樓","OBJECTID":503113},"geometry":{"x":167232.60000000056,"y":2544622.5399999991}},{"attributes":{"ID":503141,"DIS_CODE":0,"TOWNNAME":"中西區","LI":"協和里","LIN":"7鄰","STREET":"臨安路","SECT":"一段","MAREA":" ","LANE":" ","ALLEY":" ","HOUSE_NO":"１９３號二樓","E_COORD97":167232.60000000001,"N_COORD97":2544622.54,"ADDRESS":"臨安路一段１９３號二樓","OBJECTID":503114},"geometry":{"x":167232.60000000056,"y":2544622.5399999991}},{"attributes":{"ID":503142,"DIS_CODE":0,"TOWNNAME":"永康區","LI":"復華里","LIN":"7鄰","STREET":"復國二路","SECT":" ","MAREA":" ","LANE":" ","ALLEY":" ","HOUSE_NO":"２１７號七樓之２","E_COORD97":173002.25,"N_COORD97":2546054.54,"ADDRESS":"復國二路２１７號七樓之２","OBJECTID":503115},"geometry":{"x":173002.25000000186,"y":2546054.540000001}},{"attributes":{"ID":503143,"DIS_CODE":0,"TOWNNAME":"永康區","LI":"安康里","LIN":"7鄰","STREET":"中山南路","SECT":" ","MAREA":" ","LANE":" ","ALLEY":" ","HOUSE_NO":"１１７號六樓之１","E_COORD97":170954.04000000001,"N_COORD97":2545954.04,"ADDRESS":"中山南路１１７號六樓之１","OBJECTID":503116},"geometry":{"x":170954.04000000004,"y":2545954.0399999991}},{"attributes":{"ID":503144,"DIS_CODE":0,"TOWNNAME":"永康區","LI":"安康里","LIN":"7鄰","STREET":"中山南路","SECT":" ","MAREA":" ","LANE":" ","ALLEY":" ","HOUSE_NO":"１１５號七樓之２","E_COORD97":170939.53,"N_COORD97":2545957.29,"ADDRESS":"中山南路１１５號七樓之２","OBJECTID":503117},"geometry":{"x":170939.53000000119,"y":2545957.2900000028}},{"attributes":{"ID":503145,"DIS_CODE":0,"TOWNNAME":"中西區","LI":"民主里","LIN":"7鄰","STREET":"保安路","SECT":" ","MAREA":" ","LANE":" ","ALLEY":" ","HOUSE_NO":"１８２號七樓之１","E_COORD97":167216.78,"N_COORD97":2543537.1800000002,"ADDRESS":"保安路１８２號七樓之１","OBJECTID":503118},"geometry":{"x":167216.78000000119,"y":2543537.1799999997}},{"attributes":{"ID":503146,"DIS_CODE":0,"TOWNNAME":"中西區","LI":"民主里","LIN":"7鄰","STREET":"保安路","SECT":" ","MAREA":" ","LANE":" ","ALLEY":" ","HOUSE_NO":"１８２號七樓之２","E_COORD97":167216.78,"N_COORD97":2543537.1800000002,"ADDRESS":"保安路１８２號七樓之２","OBJECTID":503119},"geometry":{"x":167216.78000000119,"y":2543537.1799999997}},{"attributes":{"ID":503147,"DIS_CODE":0,"TOWNNAME":"中西區","LI":"民主里","LIN":"7鄰","STREET":"保安路","SECT":" ","MAREA":" ","LANE":" ","ALLEY":" ","HOUSE_NO":"１８２號七樓之３","E_COORD97":167216.78,"N_COORD97":2543537.1800000002,"ADDRESS":"保安路１８２號七樓之３","OBJECTID":503120},"geometry":{"x":167216.78000000119,"y":2543537.1799999997}},{"attributes":{"ID":503148,"DIS_CODE":0,"TOWNNAME":"中西區","LI":"民主里","LIN":"7鄰","STREET":"保安路","SECT":" ","MAREA":" ","LANE":" ","ALLEY":" ","HOUSE_NO":"１８２號七樓之４","E_COORD97":167216.78,"N_COORD97":2543537.1800000002,"ADDRESS":"保安路１８２號七樓之４","OBJECTID":503121},"geometry":{"x":167216.78000000119,"y":2543537.1799999997}},{"attributes":{"ID":503149,"DIS_CODE":0,"TOWNNAME":"中西區","LI":"民主里","LIN":"7鄰","STREET":"保安路","SECT":" ","MAREA":" ","LANE":" ","ALLEY":" ","HOUSE_NO":"１８２號七樓之５","E_COORD97":167216.78,"N_COORD97":2543537.1800000002,"ADDRESS":"保安路１８２號七樓之５","OBJECTID":503122},"geometry":{"x":167216.78000000119,"y":2543537.1799999997}},{"attributes":{"ID":503150,"DIS_CODE":0,"TOWNNAME":"中西區","LI":"民主里","LIN":"7鄰","STREET":"保安路","SECT":" ","MAREA":" ","LANE":" ","ALLEY":" ","HOUSE_NO":"１８２號七樓之６","E_COORD97":167216.78,"N_COORD97":2543537.1800000002,"ADDRESS":"保安路１８２號七樓之６","OBJECTID":503123},"geometry":{"x":167216.78000000119,"y":2543537.1799999997}},{"attributes":{"ID":503151,"DIS_CODE":0,"TOWNNAME":"中西區","LI":"民主里","LIN":"7鄰","STREET":"保安路","SECT":" ","MAREA":" ","LANE":" ","ALLEY":" ","HOUSE_NO":"１８２號七樓之７","E_COORD97":167216.78,"N_COORD97":2543537.1800000002,"ADDRESS":"保安路１８２號七樓之７","OBJECTID":503124},"geometry":{"x":167216.78000000119,"y":2543537.1799999997}},{"attributes":{"ID":503152,"DIS_CODE":0,"TOWNNAME":"中西區","LI":"民主里","LIN":"7鄰","STREET":"保安路","SECT":" ","MAREA":" ","LANE":" ","ALLEY":" ","HOUSE_NO":"１８２號七樓之８","E_COORD97":167216.78,"N_COORD97":2543537.1800000002,"ADDRESS":"保安路１８２號七樓之８","OBJECTID":503125},"geometry":{"x":167216.78000000119,"y":2543537.1799999997}},{"attributes":{"ID":503153,"DIS_CODE":0,"TOWNNAME":"中西區","LI":"民主里","LIN":"7鄰","STREET":"保安路","SECT":" ","MAREA":" ","LANE":" ","ALLEY":" ","HOUSE_NO":"１８２號七樓之９","E_COORD97":167216.78,"N_COORD97":2543537.1800000002,"ADDRESS":"保安路１８２號七樓之９","OBJECTID":503126},"geometry":{"x":167216.78000000119,"y":2543537.1799999997}},{"attributes":{"ID":503154,"DIS_CODE":0,"TOWNNAME":"中西區","LI":"民主里","LIN":"7鄰","STREET":"保安路","SECT":" ","MAREA":" ","LANE":" ","ALLEY":" ","HOUSE_NO":"１８２號二樓之１","E_COORD97":167216.78,"N_COORD97":2543537.1800000002,"ADDRESS":"保安路１８２號二樓之１","OBJECTID":503127},"geometry":{"x":167216.78000000119,"y":2543537.1799999997}},{"attributes":{"ID":503155,"DIS_CODE":0,"TOWNNAME":"中西區","LI":"民主里","LIN":"7鄰","STREET":"保安路","SECT":" ","MAREA":" ","LANE":" ","ALLEY":" ","HOUSE_NO":"１８２號二樓之２","E_COORD97":167216.78,"N_COORD97":2543537.1800000002,"ADDRESS":"保安路１８２號二樓之２","OBJECTID":503128},"geometry":{"x":167216.78000000119,"y":2543537.1799999997}},{"attributes":{"ID":503156,"DIS_CODE":0,"TOWNNAME":"中西區","LI":"民主里","LIN":"7鄰","STREET":"保安路","SECT":" ","MAREA":" ","LANE":" ","ALLEY":" ","HOUSE_NO":"１８２號二樓之３","E_COORD97":167216.78,"N_COORD97":2543537.1800000002,"ADDRESS":"保安路１８２號二樓之３","OBJECTID":503129},"geometry":{"x":167216.78000000119,"y":2543537.1799999997}},{"attributes":{"ID":503157,"DIS_CODE":0,"TOWNNAME":"中西區","LI":"民主里","LIN":"7鄰","STREET":"保安路","SECT":" ","MAREA":" ","LANE":" ","ALLEY":" ","HOUSE_NO":"１８２號二樓之４","E_COORD97":167216.78,"N_COORD97":2543537.1800000002,"ADDRESS":"保安路１８２號二樓之４","OBJECTID":503130},"geometry":{"x":167216.78000000119,"y":2543537.1799999997}},{"attributes":{"ID":503158,"DIS_CODE":0,"TOWNNAME":"中西區","LI":"民主里","LIN":"7鄰","STREET":"保安路","SECT":" ","MAREA":" ","LANE":" ","ALLEY":" ","HOUSE_NO":"１８２號二樓之５","E_COORD97":167216.78,"N_COORD97":2543537.1800000002,"ADDRESS":"保安路１８２號二樓之５","OBJECTID":503131},"geometry":{"x":167216.78000000119,"y":2543537.1799999997}},{"attributes":{"ID":503159,"DIS_CODE":0,"TOWNNAME":"中西區","LI":"民主里","LIN":"7鄰","STREET":"保安路","SECT":" ","MAREA":" ","LANE":" ","ALLEY":" ","HOUSE_NO":"１８２號二樓之６","E_COORD97":167216.78,"N_COORD97":2543537.1800000002,"ADDRESS":"保安路１８２號二樓之６","OBJECTID":503132},"geometry":{"x":167216.78000000119,"y":2543537.1799999997}},{"attributes":{"ID":503160,"DIS_CODE":0,"TOWNNAME":"中西區","LI":"民主里","LIN":"7鄰","STREET":"保安路","SECT":" ","MAREA":" ","LANE":" ","ALLEY":" ","HOUSE_NO":"１８２號二樓之７","E_COORD97":167216.78,"N_COORD97":2543537.1800000002,"ADDRESS":"保安路１８２號二樓之７","OBJECTID":503133},"geometry":{"x":167216.78000000119,"y":2543537.1799999997}},{"attributes":{"ID":503161,"DIS_CODE":0,"TOWNNAME":"中西區","LI":"民主里","LIN":"7鄰","STREET":"保安路","SECT":" ","MAREA":" ","LANE":" ","ALLEY":" ","HOUSE_NO":"１８２號二樓之８","E_COORD97":167216.78,"N_COORD97":2543537.1800000002,"ADDRESS":"保安路１８２號二樓之８","OBJECTID":503134},"geometry":{"x":167216.78000000119,"y":2543537.1799999997}},{"attributes":{"ID":503162,"DIS_CODE":0,"TOWNNAME":"中西區","LI":"民主里","LIN":"7鄰","STREET":"保安路","SECT":" ","MAREA":" ","LANE":" ","ALLEY":" ","HOUSE_NO":"１８２號三樓之１","E_COORD97":167216.78,"N_COORD97":2543537.1800000002,"ADDRESS":"保安路１８２號三樓之１","OBJECTID":503135},"geometry":{"x":167216.78000000119,"y":2543537.1799999997}},{"attributes":{"ID":503163,"DIS_CODE":0,"TOWNNAME":"中西區","LI":"民主里","LIN":"7鄰","STREET":"保安路","SECT":" ","MAREA":" ","LANE":" ","ALLEY":" ","HOUSE_NO":"１８２號三樓之２","E_COORD97":167216.78,"N_COORD97":2543537.1800000002,"ADDRESS":"保安路１８２號三樓之２","OBJECTID":503136},"geometry":{"x":167216.78000000119,"y":2543537.1799999997}},{"attributes":{"ID":503164,"DIS_CODE":0,"TOWNNAME":"中西區","LI":"民主里","LIN":"7鄰","STREET":"保安路","SECT":" ","MAREA":" ","LANE":" ","ALLEY":" ","HOUSE_NO":"１８２號三樓之３","E_COORD97":167216.78,"N_COORD97":2543537.1800000002,"ADDRESS":"保安路１８２號三樓之３","OBJECTID":503137},"geometry":{"x":167216.78000000119,"y":2543537.1799999997}},{"attributes":{"ID":503165,"DIS_CODE":0,"TOWNNAME":"中西區","LI":"民主里","LIN":"7鄰","STREET":"保安路","SECT":" ","MAREA":" ","LANE":" ","ALLEY":" ","HOUSE_NO":"１８２號三樓之４","E_COORD97":167216.78,"N_COORD97":2543537.1800000002,"ADDRESS":"保安路１８２號三樓之４","OBJECTID":503138},"geometry":{"x":167216.78000000119,"y":2543537.1799999997}},{"attributes":{"ID":503166,"DIS_CODE":0,"TOWNNAME":"中西區","LI":"民主里","LIN":"7鄰","STREET":"保安路","SECT":" ","MAREA":" ","LANE":" ","ALLEY":" ","HOUSE_NO":"１８２號三樓之５","E_COORD97":167216.78,"N_COORD97":2543537.1800000002,"ADDRESS":"保安路１８２號三樓之５","OBJECTID":503139},"geometry":{"x":167216.78000000119,"y":2543537.1799999997}},{"attributes":{"ID":503167,"DIS_CODE":0,"TOWNNAME":"中西區","LI":"民主里","LIN":"7鄰","STREET":"保安路","SECT":" ","MAREA":" ","LANE":" ","ALLEY":" ","HOUSE_NO":"１８２號三樓之６","E_COORD97":167216.78,"N_COORD97":2543537.1800000002,"ADDRESS":"保安路１８２號三樓之６","OBJECTID":503140},"geometry":{"x":167216.78000000119,"y":2543537.1799999997}},{"attributes":{"ID":503168,"DIS_CODE":0,"TOWNNAME":"中西區","LI":"民主里","LIN":"7鄰","STREET":"保安路","SECT":" ","MAREA":" ","LANE":" ","ALLEY":" ","HOUSE_NO":"１８２號三樓之７","E_COORD97":167216.78,"N_COORD97":2543537.1800000002,"ADDRESS":"保安路１８２號三樓之７","OBJECTID":503141},"geometry":{"x":167216.78000000119,"y":2543537.1799999997}},{"attributes":{"ID":503169,"DIS_CODE":0,"TOWNNAME":"中西區","LI":"民主里","LIN":"7鄰","STREET":"保安路","SECT":" ","MAREA":" ","LANE":" ","ALLEY":" ","HOUSE_NO":"１８２號三樓之８","E_COORD97":167216.78,"N_COORD97":2543537.1800000002,"ADDRESS":"保安路１８２號三樓之８","OBJECTID":503142},"geometry":{"x":167216.78000000119,"y":2543537.1799999997}},{"attributes":{"ID":503170,"DIS_CODE":0,"TOWNNAME":"中西區","LI":"民主里","LIN":"7鄰","STREET":"保安路","SECT":" ","MAREA":" ","LANE":" ","ALLEY":" ","HOUSE_NO":"１８２號三樓之９","E_COORD97":167216.78,"N_COORD97":2543537.1800000002,"ADDRESS":"保安路１８２號三樓之９","OBJECTID":503143},"geometry":{"x":167216.78000000119,"y":2543537.1799999997}},{"attributes":{"ID":503171,"DIS_CODE":0,"TOWNNAME":"中西區","LI":"民主里","LIN":"7鄰","STREET":"保安路","SECT":" ","MAREA":" ","LANE":" ","ALLEY":" ","HOUSE_NO":"１８２號五樓之１","E_COORD97":167216.78,"N_COORD97":2543537.1800000002,"ADDRESS":"保安路１８２號五樓之１","OBJECTID":503144},"geometry":{"x":167216.78000000119,"y":2543537.1799999997}},{"attributes":{"ID":503172,"DIS_CODE":0,"TOWNNAME":"中西區","LI":"民主里","LIN":"7鄰","STREET":"保安路","SECT":" ","MAREA":" ","LANE":" ","ALLEY":" ","HOUSE_NO":"１８２號五樓之２","E_COORD97":167216.78,"N_COORD97":2543537.1800000002,"ADDRESS":"保安路１８２號五樓之２","OBJECTID":503145},"geometry":{"x":167216.78000000119,"y":2543537.1799999997}},{"attributes":{"ID":503173,"DIS_CODE":0,"TOWNNAME":"中西區","LI":"民主里","LIN":"7鄰","STREET":"保安路","SECT":" ","MAREA":" ","LANE":" ","ALLEY":" ","HOUSE_NO":"１８２號五樓之３","E_COORD97":167216.78,"N_COORD97":2543537.1800000002,"ADDRESS":"保安路１８２號五樓之３","OBJECTID":503146},"geometry":{"x":167216.78000000119,"y":2543537.1799999997}},{"attributes":{"ID":503174,"DIS_CODE":0,"TOWNNAME":"中西區","LI":"民主里","LIN":"7鄰","STREET":"保安路","SECT":" ","MAREA":" ","LANE":" ","ALLEY":" ","HOUSE_NO":"１８２號五樓之４","E_COORD97":167216.78,"N_COORD97":2543537.1800000002,"ADDRESS":"保安路１８２號五樓之４","OBJECTID":503147},"geometry":{"x":167216.78000000119,"y":2543537.1799999997}},{"attributes":{"ID":503175,"DIS_CODE":0,"TOWNNAME":"中西區","LI":"民主里","LIN":"7鄰","STREET":"保安路","SECT":" ","MAREA":" ","LANE":" ","ALLEY":" ","HOUSE_NO":"１８２號五樓之５","E_COORD97":167216.78,"N_COORD97":2543537.1800000002,"ADDRESS":"保安路１８２號五樓之５","OBJECTID":503148},"geometry":{"x":167216.78000000119,"y":2543537.1799999997}},{"attributes":{"ID":503176,"DIS_CODE":0,"TOWNNAME":"中西區","LI":"民主里","LIN":"7鄰","STREET":"保安路","SECT":" ","MAREA":" ","LANE":" ","ALLEY":" ","HOUSE_NO":"１８２號五樓之６","E_COORD97":167216.78,"N_COORD97":2543537.1800000002,"ADDRESS":"保安路１８２號五樓之６","OBJECTID":503149},"geometry":{"x":167216.78000000119,"y":2543537.1799999997}},{"attributes":{"ID":503177,"DIS_CODE":0,"TOWNNAME":"中西區","LI":"民主里","LIN":"7鄰","STREET":"保安路","SECT":" ","MAREA":" ","LANE":" ","ALLEY":" ","HOUSE_NO":"１８２號五樓之７","E_COORD97":167216.78,"N_COORD97":2543537.1800000002,"ADDRESS":"保安路１８２號五樓之７","OBJECTID":503150},"geometry":{"x":167216.78000000119,"y":2543537.1799999997}},{"attributes":{"ID":503178,"DIS_CODE":0,"TOWNNAME":"中西區","LI":"民主里","LIN":"7鄰","STREET":"保安路","SECT":" ","MAREA":" ","LANE":" ","ALLEY":" ","HOUSE_NO":"１８２號五樓之８","E_COORD97":167216.78,"N_COORD97":2543537.1800000002,"ADDRESS":"保安路１８２號五樓之８","OBJECTID":503151},"geometry":{"x":167216.78000000119,"y":2543537.1799999997}},{"attributes":{"ID":503179,"DIS_CODE":0,"TOWNNAME":"中西區","LI":"民主里","LIN":"7鄰","STREET":"保安路","SECT":" ","MAREA":" ","LANE":" ","ALLEY":" ","HOUSE_NO":"１８２號五樓之９","E_COORD97":167216.78,"N_COORD97":2543537.1800000002,"ADDRESS":"保安路１８２號五樓之９","OBJECTID":503152},"geometry":{"x":167216.78000000119,"y":2543537.1799999997}},{"attributes":{"ID":503180,"DIS_CODE":0,"TOWNNAME":"中西區","LI":"民主里","LIN":"7鄰","STREET":"保安路","SECT":" ","MAREA":" ","LANE":" ","ALLEY":" ","HOUSE_NO":"１８２號六樓之１","E_COORD97":167216.78,"N_COORD97":2543537.1800000002,"ADDRESS":"保安路１８２號六樓之１","OBJECTID":503153},"geometry":{"x":167216.78000000119,"y":2543537.1799999997}},{"attributes":{"ID":503181,"DIS_CODE":0,"TOWNNAME":"中西區","LI":"民主里","LIN":"7鄰","STREET":"保安路","SECT":" ","MAREA":" ","LANE":" ","ALLEY":" ","HOUSE_NO":"１８２號六樓之２","E_COORD97":167216.78,"N_COORD97":2543537.1800000002,"ADDRESS":"保安路１８２號六樓之２","OBJECTID":503154},"geometry":{"x":167216.78000000119,"y":2543537.1799999997}},{"attributes":{"ID":503182,"DIS_CODE":0,"TOWNNAME":"中西區","LI":"民主里","LIN":"7鄰","STREET":"保安路","SECT":" ","MAREA":" ","LANE":" ","ALLEY":" ","HOUSE_NO":"１８２號六樓之３","E_COORD97":167216.78,"N_COORD97":2543537.1800000002,"ADDRESS":"保安路１８２號六樓之３","OBJECTID":503155},"geometry":{"x":167216.78000000119,"y":2543537.1799999997}},{"attributes":{"ID":503183,"DIS_CODE":0,"TOWNNAME":"中西區","LI":"民主里","LIN":"7鄰","STREET":"保安路","SECT":" ","MAREA":" ","LANE":" ","ALLEY":" ","HOUSE_NO":"１８２號六樓之４","E_COORD97":167216.78,"N_COORD97":2543537.1800000002,"ADDRESS":"保安路１８２號六樓之４","OBJECTID":503156},"geometry":{"x":167216.78000000119,"y":2543537.1799999997}},{"attributes":{"ID":503184,"DIS_CODE":0,"TOWNNAME":"中西區","LI":"民主里","LIN":"7鄰","STREET":"保安路","SECT":" ","MAREA":" ","LANE":" ","ALLEY":" ","HOUSE_NO":"１８２號六樓之５","E_COORD97":167216.78,"N_COORD97":2543537.1800000002,"ADDRESS":"保安路１８２號六樓之５","OBJECTID":503157},"geometry":{"x":167216.78000000119,"y":2543537.1799999997}},{"attributes":{"ID":503185,"DIS_CODE":0,"TOWNNAME":"中西區","LI":"民主里","LIN":"7鄰","STREET":"保安路","SECT":" ","MAREA":" ","LANE":" ","ALLEY":" ","HOUSE_NO":"１８２號六樓之６","E_COORD97":167216.78,"N_COORD97":2543537.1800000002,"ADDRESS":"保安路１８２號六樓之６","OBJECTID":503158},"geometry":{"x":167216.78000000119,"y":2543537.1799999997}},{"attributes":{"ID":503186,"DIS_CODE":0,"TOWNNAME":"中西區","LI":"民主里","LIN":"7鄰","STREET":"保安路","SECT":" ","MAREA":" ","LANE":" ","ALLEY":" ","HOUSE_NO":"１８２號六樓之７","E_COORD97":167216.78,"N_COORD97":2543537.1800000002,"ADDRESS":"保安路１８２號六樓之７","OBJECTID":503159},"geometry":{"x":167216.78000000119,"y":2543537.1799999997}},{"attributes":{"ID":503187,"DIS_CODE":0,"TOWNNAME":"中西區","LI":"民主里","LIN":"7鄰","STREET":"保安路","SECT":" ","MAREA":" ","LANE":" ","ALLEY":" ","HOUSE_NO":"１８２號六樓之８","E_COORD97":167216.78,"N_COORD97":2543537.1800000002,"ADDRESS":"保安路１８２號六樓之８","OBJECTID":503160},"geometry":{"x":167216.78000000119,"y":2543537.1799999997}},{"attributes":{"ID":503188,"DIS_CODE":0,"TOWNNAME":"中西區","LI":"民主里","LIN":"7鄰","STREET":"保安路","SECT":" ","MAREA":" ","LANE":" ","ALLEY":" ","HOUSE_NO":"１８２號六樓之９","E_COORD97":167216.78,"N_COORD97":2543537.1800000002,"ADDRESS":"保安路１８２號六樓之９","OBJECTID":503161},"geometry":{"x":167216.78000000119,"y":2543537.1799999997}},{"attributes":{"ID":503189,"DIS_CODE":0,"TOWNNAME":"中西區","LI":"民主里","LIN":"7鄰","STREET":"保安路","SECT":" ","MAREA":" ","LANE":" ","ALLEY":" ","HOUSE_NO":"１８２號四樓之１","E_COORD97":167216.78,"N_COORD97":2543537.1800000002,"ADDRESS":"保安路１８２號四樓之１","OBJECTID":503162},"geometry":{"x":167216.78000000119,"y":2543537.1799999997}},{"attributes":{"ID":503190,"DIS_CODE":0,"TOWNNAME":"中西區","LI":"民主里","LIN":"7鄰","STREET":"保安路","SECT":" ","MAREA":" ","LANE":" ","ALLEY":" ","HOUSE_NO":"１８２號四樓之２","E_COORD97":167216.78,"N_COORD97":2543537.1800000002,"ADDRESS":"保安路１８２號四樓之２","OBJECTID":503163},"geometry":{"x":167216.78000000119,"y":2543537.1799999997}},{"attributes":{"ID":503191,"DIS_CODE":0,"TOWNNAME":"中西區","LI":"民主里","LIN":"7鄰","STREET":"保安路","SECT":" ","MAREA":" ","LANE":" ","ALLEY":" ","HOUSE_NO":"１８２號四樓之３","E_COORD97":167216.78,"N_COORD97":2543537.1800000002,"ADDRESS":"保安路１８２號四樓之３","OBJECTID":503164},"geometry":{"x":167216.78000000119,"y":2543537.1799999997}},{"attributes":{"ID":503192,"DIS_CODE":0,"TOWNNAME":"中西區","LI":"民主里","LIN":"7鄰","STREET":"保安路","SECT":" ","MAREA":" ","LANE":" ","ALLEY":" ","HOUSE_NO":"１８２號四樓之４","E_COORD97":167216.78,"N_COORD97":2543537.1800000002,"ADDRESS":"保安路１８２號四樓之４","OBJECTID":503165},"geometry":{"x":167216.78000000119,"y":2543537.1799999997}},{"attributes":{"ID":503193,"DIS_CODE":0,"TOWNNAME":"中西區","LI":"民主里","LIN":"7鄰","STREET":"保安路","SECT":" ","MAREA":" ","LANE":" ","ALLEY":" ","HOUSE_NO":"１８２號四樓之５","E_COORD97":167216.78,"N_COORD97":2543537.1800000002,"ADDRESS":"保安路１８２號四樓之５","OBJECTID":503166},"geometry":{"x":167216.78000000119,"y":2543537.1799999997}},{"attributes":{"ID":503194,"DIS_CODE":0,"TOWNNAME":"中西區","LI":"民主里","LIN":"7鄰","STREET":"保安路","SECT":" ","MAREA":" ","LANE":" ","ALLEY":" ","HOUSE_NO":"１８２號四樓之６","E_COORD97":167216.78,"N_COORD97":2543537.1800000002,"ADDRESS":"保安路１８２號四樓之６","OBJECTID":503167},"geometry":{"x":167216.78000000119,"y":2543537.1799999997}},{"attributes":{"ID":503195,"DIS_CODE":0,"TOWNNAME":"中西區","LI":"民主里","LIN":"7鄰","STREET":"保安路","SECT":" ","MAREA":" ","LANE":" ","ALLEY":" ","HOUSE_NO":"１８２號四樓之７","E_COORD97":167216.78,"N_COORD97":2543537.1800000002,"ADDRESS":"保安路１８２號四樓之７","OBJECTID":503168},"geometry":{"x":167216.78000000119,"y":2543537.1799999997}},{"attributes":{"ID":503196,"DIS_CODE":0,"TOWNNAME":"中西區","LI":"民主里","LIN":"7鄰","STREET":"保安路","SECT":" ","MAREA":" ","LANE":" ","ALLEY":" ","HOUSE_NO":"１８２號四樓之８","E_COORD97":167216.78,"N_COORD97":2543537.1800000002,"ADDRESS":"保安路１８２號四樓之８","OBJECTID":503169},"geometry":{"x":167216.78000000119,"y":2543537.1799999997}},{"attributes":{"ID":503197,"DIS_CODE":0,"TOWNNAME":"中西區","LI":"民主里","LIN":"7鄰","STREET":"保安路","SECT":" ","MAREA":" ","LANE":" ","ALLEY":" ","HOUSE_NO":"１８２號四樓之９","E_COORD97":167216.78,"N_COORD97":2543537.1800000002,"ADDRESS":"保安路１８２號四樓之９","OBJECTID":503170},"geometry":{"x":167216.78000000119,"y":2543537.1799999997}},{"attributes":{"ID":503198,"DIS_CODE":0,"TOWNNAME":"中西區","LI":"民主里","LIN":"7鄰","STREET":"南華街","SECT":" ","MAREA":" ","LANE":" ","ALLEY":" ","HOUSE_NO":"１０１號七樓","E_COORD97":167125.35999999999,"N_COORD97":2543577.25,"ADDRESS":"南華街１０１號七樓","OBJECTID":503171},"geometry":{"x":167125.36000000127,"y":2543577.25}},{"attributes":{"ID":503199,"DIS_CODE":0,"TOWNNAME":"中西區","LI":"民主里","LIN":"7鄰","STREET":"南華街","SECT":" ","MAREA":" ","LANE":" ","ALLEY":" ","HOUSE_NO":"１０１號九樓","E_COORD97":167125.35999999999,"N_COORD97":2543577.25,"ADDRESS":"南華街１０１號九樓","OBJECTID":503172},"geometry":{"x":167125.36000000127,"y":2543577.25}},{"attributes":{"ID":503200,"DIS_CODE":0,"TOWNNAME":"中西區","LI":"民主里","LIN":"7鄰","STREET":"南華街","SECT":" ","MAREA":" ","LANE":" ","ALLEY":" ","HOUSE_NO":"１０１號八樓","E_COORD97":167125.35999999999,"N_COORD97":2543577.25,"ADDRESS":"南華街１０１號八樓","OBJECTID":503173},"geometry":{"x":167125.36000000127,"y":2543577.25}},{"attributes":{"ID":503201,"DIS_CODE":0,"TOWNNAME":"中西區","LI":"民主里","LIN":"7鄰","STREET":"南華街","SECT":" ","MAREA":" ","LANE":" ","ALLEY":" ","HOUSE_NO":"１０１號十一樓","E_COORD97":167125.35999999999,"N_COORD97":2543577.25,"ADDRESS":"南華街１０１號十一樓","OBJECTID":503174},"geometry":{"x":167125.36000000127,"y":2543577.25}},{"attributes":{"ID":503202,"DIS_CODE":0,"TOWNNAME":"中西區","LI":"民主里","LIN":"7鄰","STREET":"南華街","SECT":" ","MAREA":" ","LANE":" ","ALLEY":" ","HOUSE_NO":"１０１號十樓","E_COORD97":167125.35999999999,"N_COORD97":2543577.25,"ADDRESS":"南華街１０１號十樓","OBJECTID":503175},"geometry":{"x":167125.36000000127,"y":2543577.25}},{"attributes":{"ID":503203,"DIS_CODE":0,"TOWNNAME":"中西區","LI":"民主里","LIN":"7鄰","STREET":"南華街","SECT":" ","MAREA":" ","LANE":" ","ALLEY":" ","HOUSE_NO":"１０１號三樓","E_COORD97":167125.35999999999,"N_COORD97":2543577.25,"ADDRESS":"南華街１０１號三樓","OBJECTID":503176},"geometry":{"x":167125.36000000127,"y":2543577.25}},{"attributes":{"ID":503204,"DIS_CODE":0,"TOWNNAME":"中西區","LI":"民主里","LIN":"7鄰","STREET":"南華街","SECT":" ","MAREA":" ","LANE":" ","ALLEY":" ","HOUSE_NO":"１０１號五樓","E_COORD97":167125.35999999999,"N_COORD97":2543577.25,"ADDRESS":"南華街１０１號五樓","OBJECTID":503177},"geometry":{"x":167125.36000000127,"y":2543577.25}},{"attributes":{"ID":503205,"DIS_CODE":0,"TOWNNAME":"中西區","LI":"民主里","LIN":"7鄰","STREET":"南華街","SECT":" ","MAREA":" ","LANE":" ","ALLEY":" ","HOUSE_NO":"１０１號六樓","E_COORD97":167125.35999999999,"N_COORD97":2543577.25,"ADDRESS":"南華街１０１號六樓","OBJECTID":503178},"geometry":{"x":167125.36000000127,"y":2543577.25}},{"attributes":{"ID":503206,"DIS_CODE":0,"TOWNNAME":"中西區","LI":"民主里","LIN":"7鄰","STREET":"南華街","SECT":" ","MAREA":" ","LANE":" ","ALLEY":" ","HOUSE_NO":"１０１號六樓之１","E_COORD97":167125.35999999999,"N_COORD97":2543577.25,"ADDRESS":"南華街１０１號六樓之１","OBJECTID":503179},"geometry":{"x":167125.36000000127,"y":2543577.25}},{"attributes":{"ID":503207,"DIS_CODE":0,"TOWNNAME":"中西區","LI":"民主里","LIN":"7鄰","STREET":"南華街","SECT":" ","MAREA":" ","LANE":" ","ALLEY":" ","HOUSE_NO":"１０１號四樓","E_COORD97":167125.35999999999,"N_COORD97":2543577.25,"ADDRESS":"南華街１０１號四樓","OBJECTID":503180},"geometry":{"x":167125.36000000127,"y":2543577.25}},{"attributes":{"ID":503208,"DIS_CODE":0,"TOWNNAME":"中西區","LI":"民主里","LIN":"7鄰","STREET":"南華街","SECT":" ","MAREA":" ","LANE":" ","ALLEY":" ","HOUSE_NO":"９９號七樓","E_COORD97":167122.64000000001,"N_COORD97":2543564.5099999998,"ADDRESS":"南華街９９號七樓","OBJECTID":503181},"geometry":{"x":167122.6400000006,"y":2543564.5100000016}},{"attributes":{"ID":503209,"DIS_CODE":0,"TOWNNAME":"中西區","LI":"民主里","LIN":"7鄰","STREET":"南華街","SECT":" ","MAREA":" ","LANE":" ","ALLEY":" ","HOUSE_NO":"９９號八樓","E_COORD97":167122.64000000001,"N_COORD97":2543564.5099999998,"ADDRESS":"南華街９９號八樓","OBJECTID":503182},"geometry":{"x":167122.6400000006,"y":2543564.5100000016}},{"attributes":{"ID":503210,"DIS_CODE":0,"TOWNNAME":"中西區","LI":"民主里","LIN":"7鄰","STREET":"南華街","SECT":" ","MAREA":" ","LANE":" ","ALLEY":" ","HOUSE_NO":"９９號三樓","E_COORD97":167122.64000000001,"N_COORD97":2543564.5099999998,"ADDRESS":"南華街９９號三樓","OBJECTID":503183},"geometry":{"x":167122.6400000006,"y":2543564.5100000016}},{"attributes":{"ID":503211,"DIS_CODE":0,"TOWNNAME":"中西區","LI":"民主里","LIN":"7鄰","STREET":"南華街","SECT":" ","MAREA":" ","LANE":" ","ALLEY":" ","HOUSE_NO":"９９號五樓","E_COORD97":167122.64000000001,"N_COORD97":2543564.5099999998,"ADDRESS":"南華街９９號五樓","OBJECTID":503184},"geometry":{"x":167122.6400000006,"y":2543564.5100000016}},{"attributes":{"ID":503212,"DIS_CODE":0,"TOWNNAME":"中西區","LI":"民主里","LIN":"7鄰","STREET":"南華街","SECT":" ","MAREA":" ","LANE":" ","ALLEY":" ","HOUSE_NO":"９９號六樓","E_COORD97":167122.64000000001,"N_COORD97":2543564.5099999998,"ADDRESS":"南華街９９號六樓","OBJECTID":503185},"geometry":{"x":167122.6400000006,"y":2543564.5100000016}},{"attributes":{"ID":503213,"DIS_CODE":0,"TOWNNAME":"中西區","LI":"民主里","LIN":"7鄰","STREET":"南華街","SECT":" ","MAREA":" ","LANE":" ","ALLEY":" ","HOUSE_NO":"９９號四樓","E_COORD97":167122.64000000001,"N_COORD97":2543564.5099999998,"ADDRESS":"南華街９９號四樓","OBJECTID":503186},"geometry":{"x":167122.6400000006,"y":2543564.5100000016}},{"attributes":{"ID":503214,"DIS_CODE":0,"TOWNNAME":"中西區","LI":"安海里","LIN":"7鄰","STREET":"中正路","SECT":" ","MAREA":" ","LANE":" ","ALLEY":" ","HOUSE_NO":"３５６號一樓之２","E_COORD97":167393.22,"N_COORD97":2543850.4500000002,"ADDRESS":"中正路３５６號一樓之２","OBJECTID":503187},"geometry":{"x":167393.22000000067,"y":2543850.4499999993}},{"attributes":{"ID":503215,"DIS_CODE":0,"TOWNNAME":"中西區","LI":"安海里","LIN":"7鄰","STREET":"中正路","SECT":" ","MAREA":" ","LANE":" ","ALLEY":" ","HOUSE_NO":"３５６號一樓之１","E_COORD97":167393.22,"N_COORD97":2543850.4500000002,"ADDRESS":"中正路３５６號一樓之１","OBJECTID":503188},"geometry":{"x":167393.22000000067,"y":2543850.4499999993}},{"attributes":{"ID":503216,"DIS_CODE":0,"TOWNNAME":"中西區","LI":"安海里","LIN":"7鄰","STREET":"中正路","SECT":" ","MAREA":" ","LANE":" ","ALLEY":" ","HOUSE_NO":"３５６號二樓之１","E_COORD97":167393.22,"N_COORD97":2543850.4500000002,"ADDRESS":"中正路３５６號二樓之１","OBJECTID":503189},"geometry":{"x":167393.22000000067,"y":2543850.4499999993}},{"attributes":{"ID":503217,"DIS_CODE":0,"TOWNNAME":"中西區","LI":"安海里","LIN":"7鄰","STREET":"中正路","SECT":" ","MAREA":" ","LANE":" ","ALLEY":" ","HOUSE_NO":"３５６號二樓之２","E_COORD97":167393.22,"N_COORD97":2543850.4500000002,"ADDRESS":"中正路３５６號二樓之２","OBJECTID":503190},"geometry":{"x":167393.22000000067,"y":2543850.4499999993}},{"attributes":{"ID":503218,"DIS_CODE":0,"TOWNNAME":"中西區","LI":"安海里","LIN":"7鄰","STREET":"中正路","SECT":" ","MAREA":" ","LANE":" ","ALLEY":" ","HOUSE_NO":"３５６號二樓之３","E_COORD97":167393.22,"N_COORD97":2543850.4500000002,"ADDRESS":"中正路３５６號二樓之３","OBJECTID":503191},"geometry":{"x":167393.22000000067,"y":2543850.4499999993}},{"attributes":{"ID":503219,"DIS_CODE":0,"TOWNNAME":"中西區","LI":"安海里","LIN":"7鄰","STREET":"中正路","SECT":" ","MAREA":" ","LANE":" ","ALLEY":" ","HOUSE_NO":"３５６號二樓之５","E_COORD97":167393.22,"N_COORD97":2543850.4500000002,"ADDRESS":"中正路３５６號二樓之５","OBJECTID":503192},"geometry":{"x":167393.22000000067,"y":2543850.4499999993}},{"attributes":{"ID":503220,"DIS_CODE":0,"TOWNNAME":"中西區","LI":"安海里","LIN":"7鄰","STREET":"中正路","SECT":" ","MAREA":" ","LANE":" ","ALLEY":" ","HOUSE_NO":"３５６號二樓之６","E_COORD97":167393.22,"N_COORD97":2543850.4500000002,"ADDRESS":"中正路３５６號二樓之６","OBJECTID":503193},"geometry":{"x":167393.22000000067,"y":2543850.4499999993}},{"attributes":{"ID":503221,"DIS_CODE":0,"TOWNNAME":"中西區","LI":"安海里","LIN":"7鄰","STREET":"中正路","SECT":" ","MAREA":" ","LANE":" ","ALLEY":" ","HOUSE_NO":"３５６號二樓之７","E_COORD97":167393.22,"N_COORD97":2543850.4500000002,"ADDRESS":"中正路３５６號二樓之７","OBJECTID":503194},"geometry":{"x":167393.22000000067,"y":2543850.4499999993}},{"attributes":{"ID":503222,"DIS_CODE":0,"TOWNNAME":"中西區","LI":"安海里","LIN":"7鄰","STREET":"中正路","SECT":" ","MAREA":" ","LANE":" ","ALLEY":" ","HOUSE_NO":"３５６號三樓之１","E_COORD97":167393.22,"N_COORD97":2543850.4500000002,"ADDRESS":"中正路３５６號三樓之１","OBJECTID":503195},"geometry":{"x":167393.22000000067,"y":2543850.4499999993}},{"attributes":{"ID":503223,"DIS_CODE":0,"TOWNNAME":"中西區","LI":"安海里","LIN":"7鄰","STREET":"中正路","SECT":" ","MAREA":" ","LANE":" ","ALLEY":" ","HOUSE_NO":"３５６號三樓之２","E_COORD97":167393.22,"N_COORD97":2543850.4500000002,"ADDRESS":"中正路３５６號三樓之２","OBJECTID":503196},"geometry":{"x":167393.22000000067,"y":2543850.4499999993}},{"attributes":{"ID":503224,"DIS_CODE":0,"TOWNNAME":"中西區","LI":"安海里","LIN":"7鄰","STREET":"中正路","SECT":" ","MAREA":" ","LANE":" ","ALLEY":" ","HOUSE_NO":"３５６號一樓之１","E_COORD97":167399.48999999999,"N_COORD97":2543870.4900000002,"ADDRESS":"中正路３５６號一樓之１","OBJECTID":503197},"geometry":{"x":167399.49000000022,"y":2543870.4900000002}},{"attributes":{"ID":503225,"DIS_CODE":0,"TOWNNAME":"中西區","LI":"安海里","LIN":"7鄰","STREET":"中正路","SECT":" ","MAREA":" ","LANE":" ","ALLEY":" ","HOUSE_NO":"３５６號一樓之２","E_COORD97":167399.48999999999,"N_COORD97":2543870.4900000002,"ADDRESS":"中正路３５６號一樓之２","OBJECTID":503198},"geometry":{"x":167399.49000000022,"y":2543870.4900000002}},{"attributes":{"ID":503226,"DIS_CODE":0,"TOWNNAME":"中西區","LI":"安海里","LIN":"7鄰","STREET":"中正路","SECT":" ","MAREA":" ","LANE":" ","ALLEY":" ","HOUSE_NO":"３５６號二樓之１","E_COORD97":167399.48999999999,"N_COORD97":2543870.4900000002,"ADDRESS":"中正路３５６號二樓之１","OBJECTID":503199},"geometry":{"x":167399.49000000022,"y":2543870.4900000002}},{"attributes":{"ID":503227,"DIS_CODE":0,"TOWNNAME":"中西區","LI":"安海里","LIN":"7鄰","STREET":"中正路","SECT":" ","MAREA":" ","LANE":" ","ALLEY":" ","HOUSE_NO":"３５６號二樓之２","E_COORD97":167399.48999999999,"N_COORD97":2543870.4900000002,"ADDRESS":"中正路３５６號二樓之２","OBJECTID":503200},"geometry":{"x":167399.49000000022,"y":2543870.4900000002}}]}