{"displayFieldName":"TOWNNAME","fieldAliases":{"ID":"ID","DIS_CODE":"DIS_CODE","TOWNNAME":"TOWNNAME","LI":"LI","LIN":"LIN","STREET":"STREET","SECT":"SECT","MAREA":"MAREA","LANE":"LANE","ALLEY":"ALLEY","HOUSE_NO":"HOUSE_NO","E_COORD97":"E_COORD97","N_COORD97":"N_COORD97","ADDRESS":"ADDRESS","OBJECTID":"OBJECTID"},"geometryType":"esriGeometryPoint","spatialReference":{"wkid":102443,"latestWkid":3826},"fields":[{"name":"ID","type":"esriFieldTypeDouble","alias":"ID"},{"name":"DIS_CODE","type":"esriFieldTypeInteger","alias":"DIS_CODE"},{"name":"TOWNNAME","type":"esriFieldTypeString","alias":"TOWNNAME","length":8},{"name":"LI","type":"esriFieldTypeString","alias":"LI","length":8},{"name":"LIN","type":"esriFieldTypeString","alias":"LIN","length":12},{"name":"STREET","type":"esriFieldTypeString","alias":"STREET","length":20},{"name":"SECT","type":"esriFieldTypeString","alias":"SECT","length":8},{"name":"MAREA","type":"esriFieldTypeString","alias":"MAREA","length":12},{"name":"LANE","type":"esriFieldTypeString","alias":"LANE","length":10},{"name":"ALLEY","type":"esriFieldTypeString","alias":"ALLEY","length":10},{"name":"HOUSE_NO","type":"esriFieldTypeString","alias":"HOUSE_NO","length":20},{"name":"E_COORD97","type":"esriFieldTypeDouble","alias":"E_COORD97"},{"name":"N_COORD97","type":"esriFieldTypeDouble","alias":"N_COORD97"},{"name":"ADDRESS","type":"esriFieldTypeString","alias":"ADDRESS","length":50},{"name":"OBJECTID","type":"esriFieldTypeOID","alias":"OBJECTID"}],"features":[{"attributes":{"ID":479026,"DIS_CODE":0,"TOWNNAME":"中西區","LI":"萬昌里","LIN":"20鄰","STREET":"萬昌街","SECT":" ","MAREA":" ","LANE":" ","ALLEY":" ","HOUSE_NO":"６３號五樓之３","E_COORD97":169027.23999999999,"N_COORD97":2543474.27,"ADDRESS":"萬昌街６３號五樓之３","OBJECTID":479001},"geometry":{"x":169027.24000000209,"y":2543474.2700000014}},{"attributes":{"ID":479027,"DIS_CODE":0,"TOWNNAME":"中西區","LI":"萬昌里","LIN":"20鄰","STREET":"萬昌街","SECT":" ","MAREA":" ","LANE":" ","ALLEY":" ","HOUSE_NO":"６３號五樓之４","E_COORD97":169027.23999999999,"N_COORD97":2543474.27,"ADDRESS":"萬昌街６３號五樓之４","OBJECTID":479002},"geometry":{"x":169027.24000000209,"y":2543474.2700000014}},{"attributes":{"ID":479028,"DIS_CODE":0,"TOWNNAME":"中西區","LI":"萬昌里","LIN":"20鄰","STREET":"萬昌街","SECT":" ","MAREA":" ","LANE":" ","ALLEY":" ","HOUSE_NO":"６３號四樓之１","E_COORD97":169027.23999999999,"N_COORD97":2543474.27,"ADDRESS":"萬昌街６３號四樓之１","OBJECTID":479003},"geometry":{"x":169027.24000000209,"y":2543474.2700000014}},{"attributes":{"ID":479029,"DIS_CODE":0,"TOWNNAME":"中西區","LI":"萬昌里","LIN":"20鄰","STREET":"萬昌街","SECT":" ","MAREA":" ","LANE":" ","ALLEY":" ","HOUSE_NO":"６３號四樓之２","E_COORD97":169027.23999999999,"N_COORD97":2543474.27,"ADDRESS":"萬昌街６３號四樓之２","OBJECTID":479004},"geometry":{"x":169027.24000000209,"y":2543474.2700000014}},{"attributes":{"ID":479030,"DIS_CODE":0,"TOWNNAME":"中西區","LI":"萬昌里","LIN":"20鄰","STREET":"萬昌街","SECT":" ","MAREA":" ","LANE":" ","ALLEY":" ","HOUSE_NO":"６３號四樓之３","E_COORD97":169027.23999999999,"N_COORD97":2543474.27,"ADDRESS":"萬昌街６３號四樓之３","OBJECTID":479005},"geometry":{"x":169027.24000000209,"y":2543474.2700000014}},{"attributes":{"ID":479031,"DIS_CODE":0,"TOWNNAME":"中西區","LI":"萬昌里","LIN":"20鄰","STREET":"萬昌街","SECT":" ","MAREA":" ","LANE":" ","ALLEY":" ","HOUSE_NO":"６３號四樓之４","E_COORD97":169027.23999999999,"N_COORD97":2543474.27,"ADDRESS":"萬昌街６３號四樓之４","OBJECTID":479006},"geometry":{"x":169027.24000000209,"y":2543474.2700000014}},{"attributes":{"ID":479032,"DIS_CODE":0,"TOWNNAME":"中西區","LI":"萬昌里","LIN":"20鄰","STREET":"萬昌街","SECT":" ","MAREA":" ","LANE":" ","ALLEY":" ","HOUSE_NO":"６３號四樓之５","E_COORD97":169027.23999999999,"N_COORD97":2543474.27,"ADDRESS":"萬昌街６３號四樓之５","OBJECTID":479007},"geometry":{"x":169027.24000000209,"y":2543474.2700000014}},{"attributes":{"ID":479033,"DIS_CODE":0,"TOWNNAME":"安南區","LI":"溪北里","LIN":"20鄰","STREET":"郡安路","SECT":"四段","MAREA":" ","LANE":" ","ALLEY":" ","HOUSE_NO":"７６號之１２五樓","E_COORD97":169109.23000000001,"N_COORD97":2547587.5899999999,"ADDRESS":"郡安路四段７６號之１２五樓","OBJECTID":479008},"geometry":{"x":169109.23000000138,"y":2547587.5900000017}},{"attributes":{"ID":479034,"DIS_CODE":0,"TOWNNAME":"安南區","LI":"溪北里","LIN":"20鄰","STREET":"郡安路","SECT":"四段","MAREA":" ","LANE":" ","ALLEY":" ","HOUSE_NO":"７６號之１３七樓","E_COORD97":169114.62,"N_COORD97":2547587.6299999999,"ADDRESS":"郡安路四段７６號之１３七樓","OBJECTID":479009},"geometry":{"x":169114.62000000104,"y":2547587.629999999}},{"attributes":{"ID":479035,"DIS_CODE":0,"TOWNNAME":"安南區","LI":"溪北里","LIN":"20鄰","STREET":"郡安路","SECT":"四段","MAREA":" ","LANE":" ","ALLEY":" ","HOUSE_NO":"７６號之１４六樓","E_COORD97":169119.01000000001,"N_COORD97":2547587.6600000001,"ADDRESS":"郡安路四段７６號之１４六樓","OBJECTID":479010},"geometry":{"x":169119.01000000071,"y":2547587.660000002}},{"attributes":{"ID":479036,"DIS_CODE":0,"TOWNNAME":"安南區","LI":"溪北里","LIN":"20鄰","STREET":"郡安路","SECT":"四段","MAREA":" ","LANE":" ","ALLEY":" ","HOUSE_NO":"７６號之１４十樓","E_COORD97":169119.01000000001,"N_COORD97":2547587.6600000001,"ADDRESS":"郡安路四段７６號之１４十樓","OBJECTID":479011},"geometry":{"x":169119.01000000071,"y":2547587.660000002}},{"attributes":{"ID":479037,"DIS_CODE":0,"TOWNNAME":"安南區","LI":"溪北里","LIN":"20鄰","STREET":"郡安路","SECT":"四段","MAREA":" ","LANE":" ","ALLEY":" ","HOUSE_NO":"７６號之１０六樓","E_COORD97":169094.82000000001,"N_COORD97":2547587.4900000002,"ADDRESS":"郡安路四段７６號之１０六樓","OBJECTID":479012},"geometry":{"x":169094.82000000123,"y":2547587.4900000002}},{"attributes":{"ID":479038,"DIS_CODE":0,"TOWNNAME":"安南區","LI":"溪北里","LIN":"20鄰","STREET":"郡安路","SECT":"四段","MAREA":" ","LANE":" ","ALLEY":" ","HOUSE_NO":"７６號之７三樓","E_COORD97":169077.53,"N_COORD97":2547587.3700000001,"ADDRESS":"郡安路四段７６號之７三樓","OBJECTID":479013},"geometry":{"x":169077.53000000026,"y":2547587.3700000029}},{"attributes":{"ID":479039,"DIS_CODE":0,"TOWNNAME":"安南區","LI":"溪北里","LIN":"20鄰","STREET":"郡安路","SECT":"四段","MAREA":" ","LANE":" ","ALLEY":" ","HOUSE_NO":"７６號之７五樓","E_COORD97":169077.53,"N_COORD97":2547587.3700000001,"ADDRESS":"郡安路四段７６號之７五樓","OBJECTID":479014},"geometry":{"x":169077.53000000026,"y":2547587.3700000029}},{"attributes":{"ID":479040,"DIS_CODE":0,"TOWNNAME":"安南區","LI":"溪北里","LIN":"20鄰","STREET":"郡安路","SECT":"四段","MAREA":" ","LANE":" ","ALLEY":" ","HOUSE_NO":"７６號之７十一樓","E_COORD97":169077.53,"N_COORD97":2547587.3700000001,"ADDRESS":"郡安路四段７６號之７十一樓","OBJECTID":479015},"geometry":{"x":169077.53000000026,"y":2547587.3700000029}},{"attributes":{"ID":479041,"DIS_CODE":0,"TOWNNAME":"安南區","LI":"溪北里","LIN":"20鄰","STREET":"郡安路","SECT":"四段","MAREA":" ","LANE":" ","ALLEY":" ","HOUSE_NO":"７６號之９三樓","E_COORD97":169089.04999999999,"N_COORD97":2547587.1600000001,"ADDRESS":"郡安路四段７６號之９三樓","OBJECTID":479016},"geometry":{"x":169089.04999999888,"y":2547587.160000002}},{"attributes":{"ID":479042,"DIS_CODE":0,"TOWNNAME":"安南區","LI":"溪北里","LIN":"20鄰","STREET":"郡安路","SECT":"四段","MAREA":" ","LANE":" ","ALLEY":" ","HOUSE_NO":"７６號之９七樓","E_COORD97":169089.04999999999,"N_COORD97":2547587.1600000001,"ADDRESS":"郡安路四段７６號之９七樓","OBJECTID":479017},"geometry":{"x":169089.04999999888,"y":2547587.160000002}},{"attributes":{"ID":479043,"DIS_CODE":0,"TOWNNAME":"東區","LI":"崇明里","LIN":"20鄰","STREET":"中華東路","SECT":"三段","MAREA":" ","LANE":" ","ALLEY":" ","HOUSE_NO":"３８９號四樓之３","E_COORD97":170087.92999999999,"N_COORD97":2541540.6899999999,"ADDRESS":"中華東路三段３８９號四樓之３","OBJECTID":479018},"geometry":{"x":170087.9299999997,"y":2541540.6900000032}},{"attributes":{"ID":479044,"DIS_CODE":0,"TOWNNAME":"東區","LI":"大德里","LIN":"20鄰","STREET":"立德十一路","SECT":" ","MAREA":" ","LANE":" ","ALLEY":" ","HOUSE_NO":"２號三樓之６","E_COORD97":169417.32999999999,"N_COORD97":2542072.04,"ADDRESS":"立德十一路２號三樓之６","OBJECTID":479019},"geometry":{"x":169417.33000000007,"y":2542072.0399999991}},{"attributes":{"ID":479045,"DIS_CODE":0,"TOWNNAME":"東區","LI":"崇明里","LIN":"20鄰","STREET":"中華東路","SECT":"三段","MAREA":" ","LANE":" ","ALLEY":" ","HOUSE_NO":"３８９號五樓之１","E_COORD97":170087.92999999999,"N_COORD97":2541540.6899999999,"ADDRESS":"中華東路三段３８９號五樓之１","OBJECTID":479020},"geometry":{"x":170087.9299999997,"y":2541540.6900000032}},{"attributes":{"ID":479046,"DIS_CODE":0,"TOWNNAME":"東區","LI":"崇明里","LIN":"20鄰","STREET":"中華東路","SECT":"三段","MAREA":" ","LANE":" ","ALLEY":" ","HOUSE_NO":"３８９號五樓之２","E_COORD97":170087.92999999999,"N_COORD97":2541540.6899999999,"ADDRESS":"中華東路三段３８９號五樓之２","OBJECTID":479021},"geometry":{"x":170087.9299999997,"y":2541540.6900000032}},{"attributes":{"ID":479047,"DIS_CODE":0,"TOWNNAME":"東區","LI":"崇明里","LIN":"20鄰","STREET":"中華東路","SECT":"三段","MAREA":" ","LANE":" ","ALLEY":" ","HOUSE_NO":"３８９號五樓之３","E_COORD97":170087.92999999999,"N_COORD97":2541540.6899999999,"ADDRESS":"中華東路三段３８９號五樓之３","OBJECTID":479022},"geometry":{"x":170087.9299999997,"y":2541540.6900000032}},{"attributes":{"ID":479048,"DIS_CODE":0,"TOWNNAME":"東區","LI":"崇明里","LIN":"20鄰","STREET":"中華東路","SECT":"三段","MAREA":" ","LANE":" ","ALLEY":" ","HOUSE_NO":"３８９號六樓之１","E_COORD97":170087.92999999999,"N_COORD97":2541540.6899999999,"ADDRESS":"中華東路三段３８９號六樓之１","OBJECTID":479023},"geometry":{"x":170087.9299999997,"y":2541540.6900000032}},{"attributes":{"ID":479049,"DIS_CODE":0,"TOWNNAME":"東區","LI":"崇明里","LIN":"20鄰","STREET":"中華東路","SECT":"三段","MAREA":" ","LANE":" ","ALLEY":" ","HOUSE_NO":"３８９號六樓之２","E_COORD97":170087.92999999999,"N_COORD97":2541540.6899999999,"ADDRESS":"中華東路三段３８９號六樓之２","OBJECTID":479024},"geometry":{"x":170087.9299999997,"y":2541540.6900000032}},{"attributes":{"ID":479050,"DIS_CODE":0,"TOWNNAME":"東區","LI":"崇明里","LIN":"20鄰","STREET":"中華東路","SECT":"三段","MAREA":" ","LANE":" ","ALLEY":" ","HOUSE_NO":"３８９號六樓之３","E_COORD97":170087.92999999999,"N_COORD97":2541540.6899999999,"ADDRESS":"中華東路三段３８９號六樓之３","OBJECTID":479025},"geometry":{"x":170087.9299999997,"y":2541540.6900000032}},{"attributes":{"ID":479051,"DIS_CODE":0,"TOWNNAME":"東區","LI":"崇明里","LIN":"20鄰","STREET":"中華東路","SECT":"三段","MAREA":" ","LANE":" ","ALLEY":" ","HOUSE_NO":"３８９號七樓之１","E_COORD97":170087.92999999999,"N_COORD97":2541540.6899999999,"ADDRESS":"中華東路三段３８９號七樓之１","OBJECTID":479026},"geometry":{"x":170087.9299999997,"y":2541540.6900000032}},{"attributes":{"ID":479052,"DIS_CODE":0,"TOWNNAME":"東區","LI":"崇明里","LIN":"20鄰","STREET":"中華東路","SECT":"三段","MAREA":" ","LANE":" ","ALLEY":" ","HOUSE_NO":"３８９號七樓之２","E_COORD97":170087.92999999999,"N_COORD97":2541540.6899999999,"ADDRESS":"中華東路三段３８９號七樓之２","OBJECTID":479027},"geometry":{"x":170087.9299999997,"y":2541540.6900000032}},{"attributes":{"ID":479053,"DIS_CODE":0,"TOWNNAME":"東區","LI":"崇明里","LIN":"20鄰","STREET":"中華東路","SECT":"三段","MAREA":" ","LANE":" ","ALLEY":" ","HOUSE_NO":"３８９號七樓之３","E_COORD97":170087.92999999999,"N_COORD97":2541540.6899999999,"ADDRESS":"中華東路三段３８９號七樓之３","OBJECTID":479028},"geometry":{"x":170087.9299999997,"y":2541540.6900000032}},{"attributes":{"ID":479054,"DIS_CODE":0,"TOWNNAME":"東區","LI":"崇明里","LIN":"20鄰","STREET":"中華東路","SECT":"三段","MAREA":" ","LANE":" ","ALLEY":" ","HOUSE_NO":"３８９號八樓之１","E_COORD97":170087.92999999999,"N_COORD97":2541540.6899999999,"ADDRESS":"中華東路三段３８９號八樓之１","OBJECTID":479029},"geometry":{"x":170087.9299999997,"y":2541540.6900000032}},{"attributes":{"ID":479055,"DIS_CODE":0,"TOWNNAME":"東區","LI":"崇明里","LIN":"20鄰","STREET":"中華東路","SECT":"三段","MAREA":" ","LANE":" ","ALLEY":" ","HOUSE_NO":"３８９號八樓之２","E_COORD97":170087.92999999999,"N_COORD97":2541540.6899999999,"ADDRESS":"中華東路三段３８９號八樓之２","OBJECTID":479030},"geometry":{"x":170087.9299999997,"y":2541540.6900000032}},{"attributes":{"ID":479056,"DIS_CODE":0,"TOWNNAME":"東區","LI":"崇明里","LIN":"20鄰","STREET":"中華東路","SECT":"三段","MAREA":" ","LANE":" ","ALLEY":" ","HOUSE_NO":"３８９號八樓之３","E_COORD97":170087.92999999999,"N_COORD97":2541540.6899999999,"ADDRESS":"中華東路三段３８９號八樓之３","OBJECTID":479031},"geometry":{"x":170087.9299999997,"y":2541540.6900000032}},{"attributes":{"ID":479057,"DIS_CODE":0,"TOWNNAME":"東區","LI":"崇明里","LIN":"20鄰","STREET":"中華東路","SECT":"三段","MAREA":" ","LANE":" ","ALLEY":" ","HOUSE_NO":"３８９號九樓之１","E_COORD97":170087.92999999999,"N_COORD97":2541540.6899999999,"ADDRESS":"中華東路三段３８９號九樓之１","OBJECTID":479032},"geometry":{"x":170087.9299999997,"y":2541540.6900000032}},{"attributes":{"ID":479058,"DIS_CODE":0,"TOWNNAME":"東區","LI":"崇明里","LIN":"20鄰","STREET":"中華東路","SECT":"三段","MAREA":" ","LANE":" ","ALLEY":" ","HOUSE_NO":"３８９號九樓之２","E_COORD97":170087.92999999999,"N_COORD97":2541540.6899999999,"ADDRESS":"中華東路三段３８９號九樓之２","OBJECTID":479033},"geometry":{"x":170087.9299999997,"y":2541540.6900000032}},{"attributes":{"ID":479059,"DIS_CODE":0,"TOWNNAME":"東區","LI":"崇明里","LIN":"20鄰","STREET":"中華東路","SECT":"三段","MAREA":" ","LANE":" ","ALLEY":" ","HOUSE_NO":"３８９號九樓之３","E_COORD97":170087.92999999999,"N_COORD97":2541540.6899999999,"ADDRESS":"中華東路三段３８９號九樓之３","OBJECTID":479034},"geometry":{"x":170087.9299999997,"y":2541540.6900000032}},{"attributes":{"ID":479060,"DIS_CODE":0,"TOWNNAME":"東區","LI":"崇明里","LIN":"20鄰","STREET":"中華東路","SECT":"三段","MAREA":" ","LANE":" ","ALLEY":" ","HOUSE_NO":"３８９號十樓之１","E_COORD97":170087.92999999999,"N_COORD97":2541540.6899999999,"ADDRESS":"中華東路三段３８９號十樓之１","OBJECTID":479035},"geometry":{"x":170087.9299999997,"y":2541540.6900000032}},{"attributes":{"ID":479061,"DIS_CODE":0,"TOWNNAME":"東區","LI":"崇明里","LIN":"20鄰","STREET":"中華東路","SECT":"三段","MAREA":" ","LANE":" ","ALLEY":" ","HOUSE_NO":"３８９號十樓之２","E_COORD97":170087.92999999999,"N_COORD97":2541540.6899999999,"ADDRESS":"中華東路三段３８９號十樓之２","OBJECTID":479036},"geometry":{"x":170087.9299999997,"y":2541540.6900000032}},{"attributes":{"ID":479062,"DIS_CODE":0,"TOWNNAME":"東區","LI":"崇明里","LIN":"20鄰","STREET":"中華東路","SECT":"三段","MAREA":" ","LANE":" ","ALLEY":" ","HOUSE_NO":"３８９號十樓之３","E_COORD97":170087.92999999999,"N_COORD97":2541540.6899999999,"ADDRESS":"中華東路三段３８９號十樓之３","OBJECTID":479037},"geometry":{"x":170087.9299999997,"y":2541540.6900000032}},{"attributes":{"ID":479063,"DIS_CODE":0,"TOWNNAME":"東區","LI":"崇明里","LIN":"20鄰","STREET":"中華東路","SECT":"三段","MAREA":" ","LANE":" ","ALLEY":" ","HOUSE_NO":"３８９號十一樓之１","E_COORD97":170087.92999999999,"N_COORD97":2541540.6899999999,"ADDRESS":"中華東路三段３８９號十一樓之１","OBJECTID":479038},"geometry":{"x":170087.9299999997,"y":2541540.6900000032}},{"attributes":{"ID":479064,"DIS_CODE":0,"TOWNNAME":"東區","LI":"崇明里","LIN":"20鄰","STREET":"中華東路","SECT":"三段","MAREA":" ","LANE":" ","ALLEY":" ","HOUSE_NO":"３８９號十一樓之２","E_COORD97":170087.92999999999,"N_COORD97":2541540.6899999999,"ADDRESS":"中華東路三段３８９號十一樓之２","OBJECTID":479039},"geometry":{"x":170087.9299999997,"y":2541540.6900000032}},{"attributes":{"ID":479065,"DIS_CODE":0,"TOWNNAME":"東區","LI":"崇明里","LIN":"20鄰","STREET":"中華東路","SECT":"三段","MAREA":" ","LANE":" ","ALLEY":" ","HOUSE_NO":"３８９號十一樓之３","E_COORD97":170087.92999999999,"N_COORD97":2541540.6899999999,"ADDRESS":"中華東路三段３８９號十一樓之３","OBJECTID":479040},"geometry":{"x":170087.9299999997,"y":2541540.6900000032}},{"attributes":{"ID":479066,"DIS_CODE":0,"TOWNNAME":"東區","LI":"崇明里","LIN":"20鄰","STREET":"中華東路","SECT":"三段","MAREA":" ","LANE":" ","ALLEY":" ","HOUSE_NO":"３８９號十二樓之１","E_COORD97":170087.92999999999,"N_COORD97":2541540.6899999999,"ADDRESS":"中華東路三段３８９號十二樓之１","OBJECTID":479041},"geometry":{"x":170087.9299999997,"y":2541540.6900000032}},{"attributes":{"ID":479067,"DIS_CODE":0,"TOWNNAME":"安平區","LI":"平安里","LIN":"4鄰","STREET":"民權路","SECT":"四段","MAREA":" ","LANE":" ","ALLEY":" ","HOUSE_NO":"２１１號","E_COORD97":165965.07000000001,"N_COORD97":2544407.1699999999,"ADDRESS":"民權路四段２１１號","OBJECTID":479042},"geometry":{"x":165965.0700000003,"y":2544407.1700000018}},{"attributes":{"ID":479068,"DIS_CODE":0,"TOWNNAME":"東區","LI":"崇明里","LIN":"20鄰","STREET":"中華東路","SECT":"三段","MAREA":" ","LANE":" ","ALLEY":" ","HOUSE_NO":"３８９號十二樓之２","E_COORD97":170087.92999999999,"N_COORD97":2541540.6899999999,"ADDRESS":"中華東路三段３８９號十二樓之２","OBJECTID":479043},"geometry":{"x":170087.9299999997,"y":2541540.6900000032}},{"attributes":{"ID":479069,"DIS_CODE":0,"TOWNNAME":"東區","LI":"崇明里","LIN":"20鄰","STREET":"中華東路","SECT":"三段","MAREA":" ","LANE":" ","ALLEY":" ","HOUSE_NO":"３８９號十二樓之３","E_COORD97":170087.92999999999,"N_COORD97":2541540.6899999999,"ADDRESS":"中華東路三段３８９號十二樓之３","OBJECTID":479044},"geometry":{"x":170087.9299999997,"y":2541540.6900000032}},{"attributes":{"ID":479070,"DIS_CODE":0,"TOWNNAME":"東區","LI":"崇明里","LIN":"20鄰","STREET":"中華東路","SECT":"三段","MAREA":" ","LANE":" ","ALLEY":" ","HOUSE_NO":"３８９號十三樓之１","E_COORD97":170087.92999999999,"N_COORD97":2541540.6899999999,"ADDRESS":"中華東路三段３８９號十三樓之１","OBJECTID":479045},"geometry":{"x":170087.9299999997,"y":2541540.6900000032}},{"attributes":{"ID":479071,"DIS_CODE":0,"TOWNNAME":"東區","LI":"崇明里","LIN":"20鄰","STREET":"中華東路","SECT":"三段","MAREA":" ","LANE":" ","ALLEY":" ","HOUSE_NO":"３８９號十三樓之２","E_COORD97":170087.92999999999,"N_COORD97":2541540.6899999999,"ADDRESS":"中華東路三段３８９號十三樓之２","OBJECTID":479046},"geometry":{"x":170087.9299999997,"y":2541540.6900000032}},{"attributes":{"ID":479072,"DIS_CODE":0,"TOWNNAME":"東區","LI":"崇明里","LIN":"20鄰","STREET":"中華東路","SECT":"三段","MAREA":" ","LANE":" ","ALLEY":" ","HOUSE_NO":"３８９號十三樓之３","E_COORD97":170087.92999999999,"N_COORD97":2541540.6899999999,"ADDRESS":"中華東路三段３８９號十三樓之３","OBJECTID":479047},"geometry":{"x":170087.9299999997,"y":2541540.6900000032}},{"attributes":{"ID":479073,"DIS_CODE":0,"TOWNNAME":"東區","LI":"崇明里","LIN":"20鄰","STREET":"中華東路","SECT":"三段","MAREA":" ","LANE":" ","ALLEY":" ","HOUSE_NO":"３８９號十四樓之１","E_COORD97":170087.92999999999,"N_COORD97":2541540.6899999999,"ADDRESS":"中華東路三段３８９號十四樓之１","OBJECTID":479048},"geometry":{"x":170087.9299999997,"y":2541540.6900000032}},{"attributes":{"ID":479074,"DIS_CODE":0,"TOWNNAME":"東區","LI":"崇明里","LIN":"20鄰","STREET":"中華東路","SECT":"三段","MAREA":" ","LANE":" ","ALLEY":" ","HOUSE_NO":"３８９號十四樓之２","E_COORD97":170087.92999999999,"N_COORD97":2541540.6899999999,"ADDRESS":"中華東路三段３８９號十四樓之２","OBJECTID":479049},"geometry":{"x":170087.9299999997,"y":2541540.6900000032}},{"attributes":{"ID":479075,"DIS_CODE":0,"TOWNNAME":"東區","LI":"崇明里","LIN":"20鄰","STREET":"中華東路","SECT":"三段","MAREA":" ","LANE":" ","ALLEY":" ","HOUSE_NO":"３８９號十四樓之３","E_COORD97":170087.92999999999,"N_COORD97":2541540.6899999999,"ADDRESS":"中華東路三段３８９號十四樓之３","OBJECTID":479050},"geometry":{"x":170087.9299999997,"y":2541540.6900000032}},{"attributes":{"ID":479076,"DIS_CODE":0,"TOWNNAME":"鹽水區","LI":"橋南里","LIN":"8鄰","STREET":"新太路","SECT":" ","MAREA":" ","LANE":"１２巷","ALLEY":" ","HOUSE_NO":"１號","E_COORD97":175500.35000000001,"N_COORD97":2578647.8799999999,"ADDRESS":"新太路１２巷１號","OBJECTID":479051},"geometry":{"x":175500.35000000056,"y":2578647.8800000008}},{"attributes":{"ID":479077,"DIS_CODE":0,"TOWNNAME":"東區","LI":"崇明里","LIN":"20鄰","STREET":"中華東路","SECT":"三段","MAREA":" ","LANE":" ","ALLEY":" ","HOUSE_NO":"３８９號十五樓之１","E_COORD97":170087.92999999999,"N_COORD97":2541540.6899999999,"ADDRESS":"中華東路三段３８９號十五樓之１","OBJECTID":479052},"geometry":{"x":170087.9299999997,"y":2541540.6900000032}},{"attributes":{"ID":479078,"DIS_CODE":0,"TOWNNAME":"東區","LI":"崇明里","LIN":"20鄰","STREET":"中華東路","SECT":"三段","MAREA":" ","LANE":" ","ALLEY":" ","HOUSE_NO":"３８９號十五樓之２","E_COORD97":170087.92999999999,"N_COORD97":2541540.6899999999,"ADDRESS":"中華東路三段３８９號十五樓之２","OBJECTID":479053},"geometry":{"x":170087.9299999997,"y":2541540.6900000032}},{"attributes":{"ID":479079,"DIS_CODE":0,"TOWNNAME":"東區","LI":"崇明里","LIN":"20鄰","STREET":"中華東路","SECT":"三段","MAREA":" ","LANE":" ","ALLEY":" ","HOUSE_NO":"３８９號十五樓之３","E_COORD97":170087.92999999999,"N_COORD97":2541540.6899999999,"ADDRESS":"中華東路三段３８９號十五樓之３","OBJECTID":479054},"geometry":{"x":170087.9299999997,"y":2541540.6900000032}},{"attributes":{"ID":479080,"DIS_CODE":0,"TOWNNAME":"東區","LI":"崇明里","LIN":"20鄰","STREET":"中華東路","SECT":"三段","MAREA":" ","LANE":" ","ALLEY":" ","HOUSE_NO":"３８９號十六樓之１","E_COORD97":170087.92999999999,"N_COORD97":2541540.6899999999,"ADDRESS":"中華東路三段３８９號十六樓之１","OBJECTID":479055},"geometry":{"x":170087.9299999997,"y":2541540.6900000032}},{"attributes":{"ID":479081,"DIS_CODE":0,"TOWNNAME":"東區","LI":"崇明里","LIN":"20鄰","STREET":"中華東路","SECT":"三段","MAREA":" ","LANE":" ","ALLEY":" ","HOUSE_NO":"３８９號十六樓之２","E_COORD97":170087.92999999999,"N_COORD97":2541540.6899999999,"ADDRESS":"中華東路三段３８９號十六樓之２","OBJECTID":479056},"geometry":{"x":170087.9299999997,"y":2541540.6900000032}},{"attributes":{"ID":479082,"DIS_CODE":0,"TOWNNAME":"東區","LI":"崇明里","LIN":"20鄰","STREET":"中華東路","SECT":"三段","MAREA":" ","LANE":" ","ALLEY":" ","HOUSE_NO":"３８９號十六樓之３","E_COORD97":170087.92999999999,"N_COORD97":2541540.6899999999,"ADDRESS":"中華東路三段３８９號十六樓之３","OBJECTID":479057},"geometry":{"x":170087.9299999997,"y":2541540.6900000032}},{"attributes":{"ID":479083,"DIS_CODE":0,"TOWNNAME":"東區","LI":"崇明里","LIN":"20鄰","STREET":"中華東路","SECT":"三段","MAREA":" ","LANE":" ","ALLEY":" ","HOUSE_NO":"３８９號十七樓之１","E_COORD97":170087.92999999999,"N_COORD97":2541540.6899999999,"ADDRESS":"中華東路三段３８９號十七樓之１","OBJECTID":479058},"geometry":{"x":170087.9299999997,"y":2541540.6900000032}},{"attributes":{"ID":479084,"DIS_CODE":0,"TOWNNAME":"東區","LI":"崇明里","LIN":"20鄰","STREET":"中華東路","SECT":"三段","MAREA":" ","LANE":" ","ALLEY":" ","HOUSE_NO":"３８９號十七樓之２","E_COORD97":170087.92999999999,"N_COORD97":2541540.6899999999,"ADDRESS":"中華東路三段３８９號十七樓之２","OBJECTID":479059},"geometry":{"x":170087.9299999997,"y":2541540.6900000032}},{"attributes":{"ID":479085,"DIS_CODE":0,"TOWNNAME":"東區","LI":"崇明里","LIN":"20鄰","STREET":"中華東路","SECT":"三段","MAREA":" ","LANE":" ","ALLEY":" ","HOUSE_NO":"３８９號十七樓之３","E_COORD97":170087.92999999999,"N_COORD97":2541540.6899999999,"ADDRESS":"中華東路三段３８９號十七樓之３","OBJECTID":479060},"geometry":{"x":170087.9299999997,"y":2541540.6900000032}},{"attributes":{"ID":479086,"DIS_CODE":0,"TOWNNAME":"東區","LI":"崇明里","LIN":"20鄰","STREET":"中華東路","SECT":"三段","MAREA":" ","LANE":" ","ALLEY":" ","HOUSE_NO":"３８９號十八樓之１","E_COORD97":170087.92999999999,"N_COORD97":2541540.6899999999,"ADDRESS":"中華東路三段３８９號十八樓之１","OBJECTID":479061},"geometry":{"x":170087.9299999997,"y":2541540.6900000032}},{"attributes":{"ID":479087,"DIS_CODE":0,"TOWNNAME":"東區","LI":"崇明里","LIN":"20鄰","STREET":"中華東路","SECT":"三段","MAREA":" ","LANE":" ","ALLEY":" ","HOUSE_NO":"３８９號十八樓之２","E_COORD97":170087.92999999999,"N_COORD97":2541540.6899999999,"ADDRESS":"中華東路三段３８９號十八樓之２","OBJECTID":479062},"geometry":{"x":170087.9299999997,"y":2541540.6900000032}},{"attributes":{"ID":479088,"DIS_CODE":0,"TOWNNAME":"東區","LI":"崇明里","LIN":"20鄰","STREET":"中華東路","SECT":"三段","MAREA":" ","LANE":" ","ALLEY":" ","HOUSE_NO":"３８９號十八樓之３","E_COORD97":170087.92999999999,"N_COORD97":2541540.6899999999,"ADDRESS":"中華東路三段３８９號十八樓之３","OBJECTID":479063},"geometry":{"x":170087.9299999997,"y":2541540.6900000032}},{"attributes":{"ID":479089,"DIS_CODE":0,"TOWNNAME":"東區","LI":"崇明里","LIN":"20鄰","STREET":"中華東路","SECT":"三段","MAREA":" ","LANE":" ","ALLEY":" ","HOUSE_NO":"３８９號十九樓之１","E_COORD97":170087.92999999999,"N_COORD97":2541540.6899999999,"ADDRESS":"中華東路三段３８９號十九樓之１","OBJECTID":479064},"geometry":{"x":170087.9299999997,"y":2541540.6900000032}},{"attributes":{"ID":479090,"DIS_CODE":0,"TOWNNAME":"東區","LI":"崇明里","LIN":"20鄰","STREET":"中華東路","SECT":"三段","MAREA":" ","LANE":" ","ALLEY":" ","HOUSE_NO":"３８９號十九樓之２","E_COORD97":170087.92999999999,"N_COORD97":2541540.6899999999,"ADDRESS":"中華東路三段３８９號十九樓之２","OBJECTID":479065},"geometry":{"x":170087.9299999997,"y":2541540.6900000032}},{"attributes":{"ID":479091,"DIS_CODE":0,"TOWNNAME":"東區","LI":"崇明里","LIN":"20鄰","STREET":"中華東路","SECT":"三段","MAREA":" ","LANE":" ","ALLEY":" ","HOUSE_NO":"３８９號十九樓之３","E_COORD97":170087.92999999999,"N_COORD97":2541540.6899999999,"ADDRESS":"中華東路三段３８９號十九樓之３","OBJECTID":479066},"geometry":{"x":170087.9299999997,"y":2541540.6900000032}},{"attributes":{"ID":479092,"DIS_CODE":0,"TOWNNAME":"東區","LI":"崇明里","LIN":"20鄰","STREET":"中華東路","SECT":"三段","MAREA":" ","LANE":" ","ALLEY":" ","HOUSE_NO":"３８９號二十樓之１","E_COORD97":170087.92999999999,"N_COORD97":2541540.6899999999,"ADDRESS":"中華東路三段３８９號二十樓之１","OBJECTID":479067},"geometry":{"x":170087.9299999997,"y":2541540.6900000032}},{"attributes":{"ID":479093,"DIS_CODE":0,"TOWNNAME":"東區","LI":"崇明里","LIN":"20鄰","STREET":"中華東路","SECT":"三段","MAREA":" ","LANE":" ","ALLEY":" ","HOUSE_NO":"３８９號二十樓之２","E_COORD97":170087.92999999999,"N_COORD97":2541540.6899999999,"ADDRESS":"中華東路三段３８９號二十樓之２","OBJECTID":479068},"geometry":{"x":170087.9299999997,"y":2541540.6900000032}},{"attributes":{"ID":479094,"DIS_CODE":0,"TOWNNAME":"東區","LI":"崇明里","LIN":"20鄰","STREET":"中華東路","SECT":"三段","MAREA":" ","LANE":" ","ALLEY":" ","HOUSE_NO":"３８９號二十樓之３","E_COORD97":170087.92999999999,"N_COORD97":2541540.6899999999,"ADDRESS":"中華東路三段３８９號二十樓之３","OBJECTID":479069},"geometry":{"x":170087.9299999997,"y":2541540.6900000032}},{"attributes":{"ID":479095,"DIS_CODE":0,"TOWNNAME":"東區","LI":"崇明里","LIN":"20鄰","STREET":"中華東路","SECT":"三段","MAREA":" ","LANE":" ","ALLEY":" ","HOUSE_NO":"３７９號十九樓之１","E_COORD97":170157.42999999999,"N_COORD97":2541555.7599999998,"ADDRESS":"中華東路三段３７９號十九樓之１","OBJECTID":479070},"geometry":{"x":170157.4299999997,"y":2541555.7599999998}},{"attributes":{"ID":479096,"DIS_CODE":0,"TOWNNAME":"東區","LI":"崇明里","LIN":"20鄰","STREET":"中華東路","SECT":"三段","MAREA":" ","LANE":" ","ALLEY":" ","HOUSE_NO":"３７９號十九樓之２","E_COORD97":170157.42999999999,"N_COORD97":2541555.7599999998,"ADDRESS":"中華東路三段３７９號十九樓之２","OBJECTID":479071},"geometry":{"x":170157.4299999997,"y":2541555.7599999998}},{"attributes":{"ID":479097,"DIS_CODE":0,"TOWNNAME":"東區","LI":"崇明里","LIN":"20鄰","STREET":"中華東路","SECT":"三段","MAREA":" ","LANE":" ","ALLEY":" ","HOUSE_NO":"３７９號二十樓之１","E_COORD97":170157.42999999999,"N_COORD97":2541555.7599999998,"ADDRESS":"中華東路三段３７９號二十樓之１","OBJECTID":479072},"geometry":{"x":170157.4299999997,"y":2541555.7599999998}},{"attributes":{"ID":479098,"DIS_CODE":0,"TOWNNAME":"東區","LI":"富裕里","LIN":"20鄰","STREET":"裕豐街","SECT":" ","MAREA":" ","LANE":" ","ALLEY":" ","HOUSE_NO":"１６號五樓","E_COORD97":170783.20999999999,"N_COORD97":2542705.7999999998,"ADDRESS":"裕豐街１６號五樓","OBJECTID":479073},"geometry":{"x":170783.20999999996,"y":2542705.8000000026}},{"attributes":{"ID":479099,"DIS_CODE":0,"TOWNNAME":"東區","LI":"崇明里","LIN":"20鄰","STREET":"中華東路","SECT":"三段","MAREA":" ","LANE":" ","ALLEY":" ","HOUSE_NO":"３７９號二十樓之２","E_COORD97":170157.42999999999,"N_COORD97":2541555.7599999998,"ADDRESS":"中華東路三段３７９號二十樓之２","OBJECTID":479074},"geometry":{"x":170157.4299999997,"y":2541555.7599999998}},{"attributes":{"ID":479100,"DIS_CODE":0,"TOWNNAME":"東區","LI":"崇明里","LIN":"20鄰","STREET":"中華東路","SECT":"三段","MAREA":" ","LANE":" ","ALLEY":" ","HOUSE_NO":"３８３號三樓之１","E_COORD97":170122.07000000001,"N_COORD97":2541549.1800000002,"ADDRESS":"中華東路三段３８３號三樓之１","OBJECTID":479075},"geometry":{"x":170122.07000000123,"y":2541549.1800000016}},{"attributes":{"ID":479101,"DIS_CODE":0,"TOWNNAME":"東區","LI":"崇明里","LIN":"20鄰","STREET":"中華東路","SECT":"三段","MAREA":" ","LANE":" ","ALLEY":" ","HOUSE_NO":"３８３號三樓之２","E_COORD97":170122.07000000001,"N_COORD97":2541549.1800000002,"ADDRESS":"中華東路三段３８３號三樓之２","OBJECTID":479076},"geometry":{"x":170122.07000000123,"y":2541549.1800000016}},{"attributes":{"ID":479102,"DIS_CODE":0,"TOWNNAME":"東區","LI":"崇明里","LIN":"20鄰","STREET":"中華東路","SECT":"三段","MAREA":" ","LANE":" ","ALLEY":" ","HOUSE_NO":"３８３號四樓之１","E_COORD97":170122.07000000001,"N_COORD97":2541549.1800000002,"ADDRESS":"中華東路三段３８３號四樓之１","OBJECTID":479077},"geometry":{"x":170122.07000000123,"y":2541549.1800000016}},{"attributes":{"ID":479103,"DIS_CODE":0,"TOWNNAME":"東區","LI":"崇明里","LIN":"20鄰","STREET":"中華東路","SECT":"三段","MAREA":" ","LANE":" ","ALLEY":" ","HOUSE_NO":"３８３號四樓之２","E_COORD97":170122.07000000001,"N_COORD97":2541549.1800000002,"ADDRESS":"中華東路三段３８３號四樓之２","OBJECTID":479078},"geometry":{"x":170122.07000000123,"y":2541549.1800000016}},{"attributes":{"ID":479104,"DIS_CODE":0,"TOWNNAME":"東區","LI":"崇明里","LIN":"20鄰","STREET":"中華東路","SECT":"三段","MAREA":" ","LANE":" ","ALLEY":" ","HOUSE_NO":"３８３號五樓之１","E_COORD97":170122.07000000001,"N_COORD97":2541549.1800000002,"ADDRESS":"中華東路三段３８３號五樓之１","OBJECTID":479079},"geometry":{"x":170122.07000000123,"y":2541549.1800000016}},{"attributes":{"ID":479105,"DIS_CODE":0,"TOWNNAME":"東區","LI":"崇明里","LIN":"20鄰","STREET":"中華東路","SECT":"三段","MAREA":" ","LANE":" ","ALLEY":" ","HOUSE_NO":"３８３號五樓之２","E_COORD97":170122.07000000001,"N_COORD97":2541549.1800000002,"ADDRESS":"中華東路三段３８３號五樓之２","OBJECTID":479080},"geometry":{"x":170122.07000000123,"y":2541549.1800000016}},{"attributes":{"ID":479106,"DIS_CODE":0,"TOWNNAME":"東區","LI":"崇明里","LIN":"20鄰","STREET":"中華東路","SECT":"三段","MAREA":" ","LANE":" ","ALLEY":" ","HOUSE_NO":"３８３號六樓之１","E_COORD97":170122.07000000001,"N_COORD97":2541549.1800000002,"ADDRESS":"中華東路三段３８３號六樓之１","OBJECTID":479081},"geometry":{"x":170122.07000000123,"y":2541549.1800000016}},{"attributes":{"ID":479107,"DIS_CODE":0,"TOWNNAME":"東區","LI":"崇明里","LIN":"20鄰","STREET":"中華東路","SECT":"三段","MAREA":" ","LANE":" ","ALLEY":" ","HOUSE_NO":"３８３號六樓之２","E_COORD97":170122.07000000001,"N_COORD97":2541549.1800000002,"ADDRESS":"中華東路三段３８３號六樓之２","OBJECTID":479082},"geometry":{"x":170122.07000000123,"y":2541549.1800000016}},{"attributes":{"ID":479108,"DIS_CODE":0,"TOWNNAME":"東區","LI":"崇明里","LIN":"20鄰","STREET":"中華東路","SECT":"三段","MAREA":" ","LANE":" ","ALLEY":" ","HOUSE_NO":"３８３號七樓之１","E_COORD97":170122.07000000001,"N_COORD97":2541549.1800000002,"ADDRESS":"中華東路三段３８３號七樓之１","OBJECTID":479083},"geometry":{"x":170122.07000000123,"y":2541549.1800000016}},{"attributes":{"ID":479109,"DIS_CODE":0,"TOWNNAME":"東區","LI":"崇明里","LIN":"20鄰","STREET":"中華東路","SECT":"三段","MAREA":" ","LANE":" ","ALLEY":" ","HOUSE_NO":"３８３號七樓之２","E_COORD97":170122.07000000001,"N_COORD97":2541549.1800000002,"ADDRESS":"中華東路三段３８３號七樓之２","OBJECTID":479084},"geometry":{"x":170122.07000000123,"y":2541549.1800000016}},{"attributes":{"ID":479110,"DIS_CODE":0,"TOWNNAME":"東區","LI":"崇明里","LIN":"20鄰","STREET":"中華東路","SECT":"三段","MAREA":" ","LANE":" ","ALLEY":" ","HOUSE_NO":"３８３號八樓之１","E_COORD97":170122.07000000001,"N_COORD97":2541549.1800000002,"ADDRESS":"中華東路三段３８３號八樓之１","OBJECTID":479085},"geometry":{"x":170122.07000000123,"y":2541549.1800000016}},{"attributes":{"ID":479111,"DIS_CODE":0,"TOWNNAME":"東區","LI":"富裕里","LIN":"20鄰","STREET":"裕豐街","SECT":" ","MAREA":" ","LANE":" ","ALLEY":" ","HOUSE_NO":"１０號五樓","E_COORD97":170765.85000000001,"N_COORD97":2542700.8300000001,"ADDRESS":"裕豐街１０號五樓","OBJECTID":479086},"geometry":{"x":170765.85000000056,"y":2542700.8300000019}},{"attributes":{"ID":479112,"DIS_CODE":0,"TOWNNAME":"東區","LI":"崇明里","LIN":"20鄰","STREET":"中華東路","SECT":"三段","MAREA":" ","LANE":" ","ALLEY":" ","HOUSE_NO":"３８３號八樓之２","E_COORD97":170122.07000000001,"N_COORD97":2541549.1800000002,"ADDRESS":"中華東路三段３８３號八樓之２","OBJECTID":479087},"geometry":{"x":170122.07000000123,"y":2541549.1800000016}},{"attributes":{"ID":479113,"DIS_CODE":0,"TOWNNAME":"東區","LI":"崇明里","LIN":"20鄰","STREET":"中華東路","SECT":"三段","MAREA":" ","LANE":" ","ALLEY":" ","HOUSE_NO":"３８３號九樓之１","E_COORD97":170122.07000000001,"N_COORD97":2541549.1800000002,"ADDRESS":"中華東路三段３８３號九樓之１","OBJECTID":479088},"geometry":{"x":170122.07000000123,"y":2541549.1800000016}},{"attributes":{"ID":479114,"DIS_CODE":0,"TOWNNAME":"東區","LI":"崇明里","LIN":"20鄰","STREET":"中華東路","SECT":"三段","MAREA":" ","LANE":" ","ALLEY":" ","HOUSE_NO":"３８３號九樓之２","E_COORD97":170122.07000000001,"N_COORD97":2541549.1800000002,"ADDRESS":"中華東路三段３８３號九樓之２","OBJECTID":479089},"geometry":{"x":170122.07000000123,"y":2541549.1800000016}},{"attributes":{"ID":479115,"DIS_CODE":0,"TOWNNAME":"東區","LI":"崇明里","LIN":"20鄰","STREET":"中華東路","SECT":"三段","MAREA":" ","LANE":" ","ALLEY":" ","HOUSE_NO":"３８３號十樓之１","E_COORD97":170122.07000000001,"N_COORD97":2541549.1800000002,"ADDRESS":"中華東路三段３８３號十樓之１","OBJECTID":479090},"geometry":{"x":170122.07000000123,"y":2541549.1800000016}},{"attributes":{"ID":479116,"DIS_CODE":0,"TOWNNAME":"東區","LI":"崇明里","LIN":"20鄰","STREET":"中華東路","SECT":"三段","MAREA":" ","LANE":" ","ALLEY":" ","HOUSE_NO":"３８３號十樓之２","E_COORD97":170122.07000000001,"N_COORD97":2541549.1800000002,"ADDRESS":"中華東路三段３８３號十樓之２","OBJECTID":479091},"geometry":{"x":170122.07000000123,"y":2541549.1800000016}},{"attributes":{"ID":479117,"DIS_CODE":0,"TOWNNAME":"東區","LI":"崇明里","LIN":"20鄰","STREET":"中華東路","SECT":"三段","MAREA":" ","LANE":" ","ALLEY":" ","HOUSE_NO":"３７９號三樓之１","E_COORD97":170157.42999999999,"N_COORD97":2541555.7599999998,"ADDRESS":"中華東路三段３７９號三樓之１","OBJECTID":479092},"geometry":{"x":170157.4299999997,"y":2541555.7599999998}},{"attributes":{"ID":479118,"DIS_CODE":0,"TOWNNAME":"東區","LI":"崇明里","LIN":"20鄰","STREET":"中華東路","SECT":"三段","MAREA":" ","LANE":" ","ALLEY":" ","HOUSE_NO":"３７９號三樓之２","E_COORD97":170157.42999999999,"N_COORD97":2541555.7599999998,"ADDRESS":"中華東路三段３７９號三樓之２","OBJECTID":479093},"geometry":{"x":170157.4299999997,"y":2541555.7599999998}},{"attributes":{"ID":479119,"DIS_CODE":0,"TOWNNAME":"東區","LI":"崇明里","LIN":"20鄰","STREET":"中華東路","SECT":"三段","MAREA":" ","LANE":" ","ALLEY":" ","HOUSE_NO":"３７９號四樓之１","E_COORD97":170157.42999999999,"N_COORD97":2541555.7599999998,"ADDRESS":"中華東路三段３７９號四樓之１","OBJECTID":479094},"geometry":{"x":170157.4299999997,"y":2541555.7599999998}},{"attributes":{"ID":479120,"DIS_CODE":0,"TOWNNAME":"東區","LI":"崇明里","LIN":"20鄰","STREET":"中華東路","SECT":"三段","MAREA":" ","LANE":" ","ALLEY":" ","HOUSE_NO":"３７９號四樓之２","E_COORD97":170157.42999999999,"N_COORD97":2541555.7599999998,"ADDRESS":"中華東路三段３７９號四樓之２","OBJECTID":479095},"geometry":{"x":170157.4299999997,"y":2541555.7599999998}},{"attributes":{"ID":479121,"DIS_CODE":0,"TOWNNAME":"東區","LI":"崇明里","LIN":"20鄰","STREET":"中華東路","SECT":"三段","MAREA":" ","LANE":" ","ALLEY":" ","HOUSE_NO":"３７９號五樓之１","E_COORD97":170157.42999999999,"N_COORD97":2541555.7599999998,"ADDRESS":"中華東路三段３７９號五樓之１","OBJECTID":479096},"geometry":{"x":170157.4299999997,"y":2541555.7599999998}},{"attributes":{"ID":479122,"DIS_CODE":0,"TOWNNAME":"東區","LI":"崇明里","LIN":"20鄰","STREET":"中華東路","SECT":"三段","MAREA":" ","LANE":" ","ALLEY":" ","HOUSE_NO":"３７９號五樓之２","E_COORD97":170157.42999999999,"N_COORD97":2541555.7599999998,"ADDRESS":"中華東路三段３７９號五樓之２","OBJECTID":479097},"geometry":{"x":170157.4299999997,"y":2541555.7599999998}},{"attributes":{"ID":479123,"DIS_CODE":0,"TOWNNAME":"東區","LI":"崇明里","LIN":"20鄰","STREET":"中華東路","SECT":"三段","MAREA":" ","LANE":" ","ALLEY":" ","HOUSE_NO":"３７９號六樓之１","E_COORD97":170157.42999999999,"N_COORD97":2541555.7599999998,"ADDRESS":"中華東路三段３７９號六樓之１","OBJECTID":479098},"geometry":{"x":170157.4299999997,"y":2541555.7599999998}},{"attributes":{"ID":479124,"DIS_CODE":0,"TOWNNAME":"東區","LI":"崇明里","LIN":"20鄰","STREET":"中華東路","SECT":"三段","MAREA":" ","LANE":" ","ALLEY":" ","HOUSE_NO":"３７９號六樓之２","E_COORD97":170157.42999999999,"N_COORD97":2541555.7599999998,"ADDRESS":"中華東路三段３７９號六樓之２","OBJECTID":479099},"geometry":{"x":170157.4299999997,"y":2541555.7599999998}},{"attributes":{"ID":479125,"DIS_CODE":0,"TOWNNAME":"東區","LI":"崇明里","LIN":"20鄰","STREET":"中華東路","SECT":"三段","MAREA":" ","LANE":" ","ALLEY":" ","HOUSE_NO":"３７９號七樓之１","E_COORD97":170157.42999999999,"N_COORD97":2541555.7599999998,"ADDRESS":"中華東路三段３７９號七樓之１","OBJECTID":479100},"geometry":{"x":170157.4299999997,"y":2541555.7599999998}},{"attributes":{"ID":479126,"DIS_CODE":0,"TOWNNAME":"東區","LI":"崇明里","LIN":"20鄰","STREET":"中華東路","SECT":"三段","MAREA":" ","LANE":" ","ALLEY":" ","HOUSE_NO":"３７９號七樓之２","E_COORD97":170157.42999999999,"N_COORD97":2541555.7599999998,"ADDRESS":"中華東路三段３７９號七樓之２","OBJECTID":479101},"geometry":{"x":170157.4299999997,"y":2541555.7599999998}},{"attributes":{"ID":479127,"DIS_CODE":0,"TOWNNAME":"東區","LI":"崇明里","LIN":"20鄰","STREET":"中華東路","SECT":"三段","MAREA":" ","LANE":" ","ALLEY":" ","HOUSE_NO":"３７９號八樓之１","E_COORD97":170157.42999999999,"N_COORD97":2541555.7599999998,"ADDRESS":"中華東路三段３７９號八樓之１","OBJECTID":479102},"geometry":{"x":170157.4299999997,"y":2541555.7599999998}},{"attributes":{"ID":479128,"DIS_CODE":0,"TOWNNAME":"東區","LI":"崇明里","LIN":"20鄰","STREET":"中華東路","SECT":"三段","MAREA":" ","LANE":" ","ALLEY":" ","HOUSE_NO":"３７９號八樓之２","E_COORD97":170157.42999999999,"N_COORD97":2541555.7599999998,"ADDRESS":"中華東路三段３７９號八樓之２","OBJECTID":479103},"geometry":{"x":170157.4299999997,"y":2541555.7599999998}},{"attributes":{"ID":479129,"DIS_CODE":0,"TOWNNAME":"東區","LI":"崇明里","LIN":"20鄰","STREET":"中華東路","SECT":"三段","MAREA":" ","LANE":" ","ALLEY":" ","HOUSE_NO":"３７９號九樓之１","E_COORD97":170157.42999999999,"N_COORD97":2541555.7599999998,"ADDRESS":"中華東路三段３７９號九樓之１","OBJECTID":479104},"geometry":{"x":170157.4299999997,"y":2541555.7599999998}},{"attributes":{"ID":479130,"DIS_CODE":0,"TOWNNAME":"東區","LI":"崇明里","LIN":"20鄰","STREET":"中華東路","SECT":"三段","MAREA":" ","LANE":" ","ALLEY":" ","HOUSE_NO":"３７９號九樓之２","E_COORD97":170157.42999999999,"N_COORD97":2541555.7599999998,"ADDRESS":"中華東路三段３７９號九樓之２","OBJECTID":479105},"geometry":{"x":170157.4299999997,"y":2541555.7599999998}},{"attributes":{"ID":479131,"DIS_CODE":0,"TOWNNAME":"東區","LI":"崇明里","LIN":"20鄰","STREET":"中華東路","SECT":"三段","MAREA":" ","LANE":" ","ALLEY":" ","HOUSE_NO":"３７９號十樓之１","E_COORD97":170157.42999999999,"N_COORD97":2541555.7599999998,"ADDRESS":"中華東路三段３７９號十樓之１","OBJECTID":479106},"geometry":{"x":170157.4299999997,"y":2541555.7599999998}},{"attributes":{"ID":479132,"DIS_CODE":0,"TOWNNAME":"東區","LI":"崇明里","LIN":"20鄰","STREET":"中華東路","SECT":"三段","MAREA":" ","LANE":" ","ALLEY":" ","HOUSE_NO":"３７９號十樓之２","E_COORD97":170157.42999999999,"N_COORD97":2541555.7599999998,"ADDRESS":"中華東路三段３７９號十樓之２","OBJECTID":479107},"geometry":{"x":170157.4299999997,"y":2541555.7599999998}},{"attributes":{"ID":479133,"DIS_CODE":0,"TOWNNAME":"東區","LI":"崇明里","LIN":"20鄰","STREET":"中華東路","SECT":"三段","MAREA":" ","LANE":" ","ALLEY":" ","HOUSE_NO":"３７９號十一樓之１","E_COORD97":170157.42999999999,"N_COORD97":2541555.7599999998,"ADDRESS":"中華東路三段３７９號十一樓之１","OBJECTID":479108},"geometry":{"x":170157.4299999997,"y":2541555.7599999998}},{"attributes":{"ID":479134,"DIS_CODE":0,"TOWNNAME":"東區","LI":"崇明里","LIN":"20鄰","STREET":"中華東路","SECT":"三段","MAREA":" ","LANE":" ","ALLEY":" ","HOUSE_NO":"３７９號十一樓之２","E_COORD97":170157.42999999999,"N_COORD97":2541555.7599999998,"ADDRESS":"中華東路三段３７９號十一樓之２","OBJECTID":479109},"geometry":{"x":170157.4299999997,"y":2541555.7599999998}},{"attributes":{"ID":479135,"DIS_CODE":0,"TOWNNAME":"東區","LI":"崇明里","LIN":"20鄰","STREET":"中華東路","SECT":"三段","MAREA":" ","LANE":" ","ALLEY":" ","HOUSE_NO":"３７９號十二樓之１","E_COORD97":170157.42999999999,"N_COORD97":2541555.7599999998,"ADDRESS":"中華東路三段３７９號十二樓之１","OBJECTID":479110},"geometry":{"x":170157.4299999997,"y":2541555.7599999998}},{"attributes":{"ID":479136,"DIS_CODE":0,"TOWNNAME":"東區","LI":"崇明里","LIN":"20鄰","STREET":"中華東路","SECT":"三段","MAREA":" ","LANE":" ","ALLEY":" ","HOUSE_NO":"３８３號十一樓之１","E_COORD97":170122.07000000001,"N_COORD97":2541549.1800000002,"ADDRESS":"中華東路三段３８３號十一樓之１","OBJECTID":479111},"geometry":{"x":170122.07000000123,"y":2541549.1800000016}},{"attributes":{"ID":479137,"DIS_CODE":0,"TOWNNAME":"東區","LI":"崇明里","LIN":"20鄰","STREET":"中華東路","SECT":"三段","MAREA":" ","LANE":" ","ALLEY":" ","HOUSE_NO":"３８３號十一樓之２","E_COORD97":170122.07000000001,"N_COORD97":2541549.1800000002,"ADDRESS":"中華東路三段３８３號十一樓之２","OBJECTID":479112},"geometry":{"x":170122.07000000123,"y":2541549.1800000016}},{"attributes":{"ID":479138,"DIS_CODE":0,"TOWNNAME":"東區","LI":"崇明里","LIN":"20鄰","STREET":"中華東路","SECT":"三段","MAREA":" ","LANE":" ","ALLEY":" ","HOUSE_NO":"３８３號十二樓之１","E_COORD97":170122.07000000001,"N_COORD97":2541549.1800000002,"ADDRESS":"中華東路三段３８３號十二樓之１","OBJECTID":479113},"geometry":{"x":170122.07000000123,"y":2541549.1800000016}},{"attributes":{"ID":479139,"DIS_CODE":0,"TOWNNAME":"東區","LI":"崇明里","LIN":"20鄰","STREET":"中華東路","SECT":"三段","MAREA":" ","LANE":" ","ALLEY":" ","HOUSE_NO":"３８３號十二樓之２","E_COORD97":170122.07000000001,"N_COORD97":2541549.1800000002,"ADDRESS":"中華東路三段３８３號十二樓之２","OBJECTID":479114},"geometry":{"x":170122.07000000123,"y":2541549.1800000016}},{"attributes":{"ID":479140,"DIS_CODE":0,"TOWNNAME":"東區","LI":"崇明里","LIN":"20鄰","STREET":"中華東路","SECT":"三段","MAREA":" ","LANE":" ","ALLEY":" ","HOUSE_NO":"３８３號十三樓之１","E_COORD97":170122.07000000001,"N_COORD97":2541549.1800000002,"ADDRESS":"中華東路三段３８３號十三樓之１","OBJECTID":479115},"geometry":{"x":170122.07000000123,"y":2541549.1800000016}},{"attributes":{"ID":479141,"DIS_CODE":0,"TOWNNAME":"東區","LI":"崇明里","LIN":"20鄰","STREET":"中華東路","SECT":"三段","MAREA":" ","LANE":" ","ALLEY":" ","HOUSE_NO":"３８３號十三樓之２","E_COORD97":170122.07000000001,"N_COORD97":2541549.1800000002,"ADDRESS":"中華東路三段３８３號十三樓之２","OBJECTID":479116},"geometry":{"x":170122.07000000123,"y":2541549.1800000016}},{"attributes":{"ID":479142,"DIS_CODE":0,"TOWNNAME":"東區","LI":"崇明里","LIN":"20鄰","STREET":"中華東路","SECT":"三段","MAREA":" ","LANE":" ","ALLEY":" ","HOUSE_NO":"３８３號十四樓之１","E_COORD97":170122.07000000001,"N_COORD97":2541549.1800000002,"ADDRESS":"中華東路三段３８３號十四樓之１","OBJECTID":479117},"geometry":{"x":170122.07000000123,"y":2541549.1800000016}},{"attributes":{"ID":479143,"DIS_CODE":0,"TOWNNAME":"東區","LI":"崇明里","LIN":"20鄰","STREET":"中華東路","SECT":"三段","MAREA":" ","LANE":" ","ALLEY":" ","HOUSE_NO":"３８３號十四樓之２","E_COORD97":170122.07000000001,"N_COORD97":2541549.1800000002,"ADDRESS":"中華東路三段３８３號十四樓之２","OBJECTID":479118},"geometry":{"x":170122.07000000123,"y":2541549.1800000016}},{"attributes":{"ID":479144,"DIS_CODE":0,"TOWNNAME":"東區","LI":"崇明里","LIN":"20鄰","STREET":"中華東路","SECT":"三段","MAREA":" ","LANE":" ","ALLEY":" ","HOUSE_NO":"３８３號十五樓之１","E_COORD97":170122.07000000001,"N_COORD97":2541549.1800000002,"ADDRESS":"中華東路三段３８３號十五樓之１","OBJECTID":479119},"geometry":{"x":170122.07000000123,"y":2541549.1800000016}},{"attributes":{"ID":479145,"DIS_CODE":0,"TOWNNAME":"東區","LI":"崇明里","LIN":"20鄰","STREET":"中華東路","SECT":"三段","MAREA":" ","LANE":" ","ALLEY":" ","HOUSE_NO":"３８３號十五樓之２","E_COORD97":170122.07000000001,"N_COORD97":2541549.1800000002,"ADDRESS":"中華東路三段３８３號十五樓之２","OBJECTID":479120},"geometry":{"x":170122.07000000123,"y":2541549.1800000016}},{"attributes":{"ID":479146,"DIS_CODE":0,"TOWNNAME":"東區","LI":"崇明里","LIN":"20鄰","STREET":"中華東路","SECT":"三段","MAREA":" ","LANE":" ","ALLEY":" ","HOUSE_NO":"３８３號十六樓之１","E_COORD97":170122.07000000001,"N_COORD97":2541549.1800000002,"ADDRESS":"中華東路三段３８３號十六樓之１","OBJECTID":479121},"geometry":{"x":170122.07000000123,"y":2541549.1800000016}},{"attributes":{"ID":479147,"DIS_CODE":0,"TOWNNAME":"東區","LI":"崇明里","LIN":"20鄰","STREET":"中華東路","SECT":"三段","MAREA":" ","LANE":" ","ALLEY":" ","HOUSE_NO":"３８３號十六樓之２","E_COORD97":170122.07000000001,"N_COORD97":2541549.1800000002,"ADDRESS":"中華東路三段３８３號十六樓之２","OBJECTID":479122},"geometry":{"x":170122.07000000123,"y":2541549.1800000016}},{"attributes":{"ID":479148,"DIS_CODE":0,"TOWNNAME":"東區","LI":"崇明里","LIN":"20鄰","STREET":"中華東路","SECT":"三段","MAREA":" ","LANE":" ","ALLEY":" ","HOUSE_NO":"３８３號十七樓之１","E_COORD97":170122.07000000001,"N_COORD97":2541549.1800000002,"ADDRESS":"中華東路三段３８３號十七樓之１","OBJECTID":479123},"geometry":{"x":170122.07000000123,"y":2541549.1800000016}},{"attributes":{"ID":479149,"DIS_CODE":0,"TOWNNAME":"東區","LI":"崇明里","LIN":"20鄰","STREET":"中華東路","SECT":"三段","MAREA":" ","LANE":" ","ALLEY":" ","HOUSE_NO":"３８３號十七樓之２","E_COORD97":170122.07000000001,"N_COORD97":2541549.1800000002,"ADDRESS":"中華東路三段３８３號十七樓之２","OBJECTID":479124},"geometry":{"x":170122.07000000123,"y":2541549.1800000016}},{"attributes":{"ID":479150,"DIS_CODE":0,"TOWNNAME":"東區","LI":"崇明里","LIN":"20鄰","STREET":"中華東路","SECT":"三段","MAREA":" ","LANE":" ","ALLEY":" ","HOUSE_NO":"３８３號十八樓之１","E_COORD97":170122.07000000001,"N_COORD97":2541549.1800000002,"ADDRESS":"中華東路三段３８３號十八樓之１","OBJECTID":479125},"geometry":{"x":170122.07000000123,"y":2541549.1800000016}},{"attributes":{"ID":479151,"DIS_CODE":0,"TOWNNAME":"東區","LI":"崇明里","LIN":"20鄰","STREET":"中華東路","SECT":"三段","MAREA":" ","LANE":" ","ALLEY":" ","HOUSE_NO":"３８３號十八樓之２","E_COORD97":170122.07000000001,"N_COORD97":2541549.1800000002,"ADDRESS":"中華東路三段３８３號十八樓之２","OBJECTID":479126},"geometry":{"x":170122.07000000123,"y":2541549.1800000016}},{"attributes":{"ID":479152,"DIS_CODE":0,"TOWNNAME":"東區","LI":"崇明里","LIN":"20鄰","STREET":"中華東路","SECT":"三段","MAREA":" ","LANE":" ","ALLEY":" ","HOUSE_NO":"３８３號十九樓之１","E_COORD97":170122.07000000001,"N_COORD97":2541549.1800000002,"ADDRESS":"中華東路三段３８３號十九樓之１","OBJECTID":479127},"geometry":{"x":170122.07000000123,"y":2541549.1800000016}},{"attributes":{"ID":479153,"DIS_CODE":0,"TOWNNAME":"東區","LI":"富裕里","LIN":"20鄰","STREET":"裕豐街","SECT":" ","MAREA":" ","LANE":" ","ALLEY":" ","HOUSE_NO":"１６號六樓","E_COORD97":170783.20999999999,"N_COORD97":2542705.7999999998,"ADDRESS":"裕豐街１６號六樓","OBJECTID":479128},"geometry":{"x":170783.20999999996,"y":2542705.8000000026}},{"attributes":{"ID":479154,"DIS_CODE":0,"TOWNNAME":"東區","LI":"崇明里","LIN":"20鄰","STREET":"中華東路","SECT":"三段","MAREA":" ","LANE":" ","ALLEY":" ","HOUSE_NO":"３８３號十九樓之２","E_COORD97":170122.07000000001,"N_COORD97":2541549.1800000002,"ADDRESS":"中華東路三段３８３號十九樓之２","OBJECTID":479129},"geometry":{"x":170122.07000000123,"y":2541549.1800000016}},{"attributes":{"ID":479155,"DIS_CODE":0,"TOWNNAME":"東區","LI":"崇明里","LIN":"20鄰","STREET":"中華東路","SECT":"三段","MAREA":" ","LANE":" ","ALLEY":" ","HOUSE_NO":"３８３號二十樓之１","E_COORD97":170122.07000000001,"N_COORD97":2541549.1800000002,"ADDRESS":"中華東路三段３８３號二十樓之１","OBJECTID":479130},"geometry":{"x":170122.07000000123,"y":2541549.1800000016}},{"attributes":{"ID":479156,"DIS_CODE":0,"TOWNNAME":"東區","LI":"崇明里","LIN":"20鄰","STREET":"中華東路","SECT":"三段","MAREA":" ","LANE":" ","ALLEY":" ","HOUSE_NO":"３８３號二十樓之２","E_COORD97":170122.07000000001,"N_COORD97":2541549.1800000002,"ADDRESS":"中華東路三段３８３號二十樓之２","OBJECTID":479131},"geometry":{"x":170122.07000000123,"y":2541549.1800000016}},{"attributes":{"ID":479157,"DIS_CODE":0,"TOWNNAME":"東區","LI":"大德里","LIN":"20鄰","STREET":"立德十一路","SECT":" ","MAREA":" ","LANE":" ","ALLEY":" ","HOUSE_NO":"２號七樓","E_COORD97":169417.32999999999,"N_COORD97":2542072.04,"ADDRESS":"立德十一路２號七樓","OBJECTID":479132},"geometry":{"x":169417.33000000007,"y":2542072.0399999991}},{"attributes":{"ID":479158,"DIS_CODE":0,"TOWNNAME":"東區","LI":"大德里","LIN":"20鄰","STREET":"立德十一路","SECT":" ","MAREA":" ","LANE":" ","ALLEY":" ","HOUSE_NO":"２號七樓之１","E_COORD97":169417.32999999999,"N_COORD97":2542072.04,"ADDRESS":"立德十一路２號七樓之１","OBJECTID":479133},"geometry":{"x":169417.33000000007,"y":2542072.0399999991}},{"attributes":{"ID":479159,"DIS_CODE":0,"TOWNNAME":"東區","LI":"大德里","LIN":"20鄰","STREET":"立德十一路","SECT":" ","MAREA":" ","LANE":" ","ALLEY":" ","HOUSE_NO":"２號七樓之２","E_COORD97":169417.32999999999,"N_COORD97":2542072.04,"ADDRESS":"立德十一路２號七樓之２","OBJECTID":479134},"geometry":{"x":169417.33000000007,"y":2542072.0399999991}},{"attributes":{"ID":479160,"DIS_CODE":0,"TOWNNAME":"東區","LI":"大德里","LIN":"20鄰","STREET":"立德十一路","SECT":" ","MAREA":" ","LANE":" ","ALLEY":" ","HOUSE_NO":"２號七樓之３","E_COORD97":169417.32999999999,"N_COORD97":2542072.04,"ADDRESS":"立德十一路２號七樓之３","OBJECTID":479135},"geometry":{"x":169417.33000000007,"y":2542072.0399999991}},{"attributes":{"ID":479161,"DIS_CODE":0,"TOWNNAME":"東區","LI":"大德里","LIN":"20鄰","STREET":"立德十一路","SECT":" ","MAREA":" ","LANE":" ","ALLEY":" ","HOUSE_NO":"２號七樓之４","E_COORD97":169417.32999999999,"N_COORD97":2542072.04,"ADDRESS":"立德十一路２號七樓之４","OBJECTID":479136},"geometry":{"x":169417.33000000007,"y":2542072.0399999991}},{"attributes":{"ID":479162,"DIS_CODE":0,"TOWNNAME":"東區","LI":"大德里","LIN":"20鄰","STREET":"立德十一路","SECT":" ","MAREA":" ","LANE":" ","ALLEY":" ","HOUSE_NO":"２號七樓之５","E_COORD97":169417.32999999999,"N_COORD97":2542072.04,"ADDRESS":"立德十一路２號七樓之５","OBJECTID":479137},"geometry":{"x":169417.33000000007,"y":2542072.0399999991}},{"attributes":{"ID":479163,"DIS_CODE":0,"TOWNNAME":"東區","LI":"大德里","LIN":"20鄰","STREET":"立德十一路","SECT":" ","MAREA":" ","LANE":" ","ALLEY":" ","HOUSE_NO":"２號七樓之６","E_COORD97":169417.32999999999,"N_COORD97":2542072.04,"ADDRESS":"立德十一路２號七樓之６","OBJECTID":479138},"geometry":{"x":169417.33000000007,"y":2542072.0399999991}},{"attributes":{"ID":479164,"DIS_CODE":0,"TOWNNAME":"東區","LI":"大德里","LIN":"20鄰","STREET":"立德十一路","SECT":" ","MAREA":" ","LANE":" ","ALLEY":" ","HOUSE_NO":"２號七樓之７","E_COORD97":169417.32999999999,"N_COORD97":2542072.04,"ADDRESS":"立德十一路２號七樓之７","OBJECTID":479139},"geometry":{"x":169417.33000000007,"y":2542072.0399999991}},{"attributes":{"ID":479165,"DIS_CODE":0,"TOWNNAME":"東區","LI":"大德里","LIN":"20鄰","STREET":"立德十一路","SECT":" ","MAREA":" ","LANE":" ","ALLEY":" ","HOUSE_NO":"２號九樓","E_COORD97":169417.32999999999,"N_COORD97":2542072.04,"ADDRESS":"立德十一路２號九樓","OBJECTID":479140},"geometry":{"x":169417.33000000007,"y":2542072.0399999991}},{"attributes":{"ID":479166,"DIS_CODE":0,"TOWNNAME":"東區","LI":"大德里","LIN":"20鄰","STREET":"立德十一路","SECT":" ","MAREA":" ","LANE":" ","ALLEY":" ","HOUSE_NO":"２號九樓之１","E_COORD97":169417.32999999999,"N_COORD97":2542072.04,"ADDRESS":"立德十一路２號九樓之１","OBJECTID":479141},"geometry":{"x":169417.33000000007,"y":2542072.0399999991}},{"attributes":{"ID":479167,"DIS_CODE":0,"TOWNNAME":"東區","LI":"大德里","LIN":"20鄰","STREET":"立德十一路","SECT":" ","MAREA":" ","LANE":" ","ALLEY":" ","HOUSE_NO":"２號九樓之２","E_COORD97":169417.32999999999,"N_COORD97":2542072.04,"ADDRESS":"立德十一路２號九樓之２","OBJECTID":479142},"geometry":{"x":169417.33000000007,"y":2542072.0399999991}},{"attributes":{"ID":479168,"DIS_CODE":0,"TOWNNAME":"東區","LI":"大德里","LIN":"20鄰","STREET":"立德十一路","SECT":" ","MAREA":" ","LANE":" ","ALLEY":" ","HOUSE_NO":"２號九樓之３","E_COORD97":169417.32999999999,"N_COORD97":2542072.04,"ADDRESS":"立德十一路２號九樓之３","OBJECTID":479143},"geometry":{"x":169417.33000000007,"y":2542072.0399999991}},{"attributes":{"ID":479169,"DIS_CODE":0,"TOWNNAME":"東區","LI":"大德里","LIN":"20鄰","STREET":"立德十一路","SECT":" ","MAREA":" ","LANE":" ","ALLEY":" ","HOUSE_NO":"２號九樓之４","E_COORD97":169417.32999999999,"N_COORD97":2542072.04,"ADDRESS":"立德十一路２號九樓之４","OBJECTID":479144},"geometry":{"x":169417.33000000007,"y":2542072.0399999991}},{"attributes":{"ID":479170,"DIS_CODE":0,"TOWNNAME":"東區","LI":"大德里","LIN":"20鄰","STREET":"立德十一路","SECT":" ","MAREA":" ","LANE":" ","ALLEY":" ","HOUSE_NO":"２號九樓之５","E_COORD97":169417.32999999999,"N_COORD97":2542072.04,"ADDRESS":"立德十一路２號九樓之５","OBJECTID":479145},"geometry":{"x":169417.33000000007,"y":2542072.0399999991}},{"attributes":{"ID":479171,"DIS_CODE":0,"TOWNNAME":"東區","LI":"大德里","LIN":"20鄰","STREET":"立德十一路","SECT":" ","MAREA":" ","LANE":" ","ALLEY":" ","HOUSE_NO":"２號九樓之６","E_COORD97":169417.32999999999,"N_COORD97":2542072.04,"ADDRESS":"立德十一路２號九樓之６","OBJECTID":479146},"geometry":{"x":169417.33000000007,"y":2542072.0399999991}},{"attributes":{"ID":479172,"DIS_CODE":0,"TOWNNAME":"東區","LI":"大德里","LIN":"20鄰","STREET":"立德十一路","SECT":" ","MAREA":" ","LANE":" ","ALLEY":" ","HOUSE_NO":"２號九樓之７","E_COORD97":169417.32999999999,"N_COORD97":2542072.04,"ADDRESS":"立德十一路２號九樓之７","OBJECTID":479147},"geometry":{"x":169417.33000000007,"y":2542072.0399999991}},{"attributes":{"ID":479173,"DIS_CODE":0,"TOWNNAME":"東區","LI":"大德里","LIN":"20鄰","STREET":"立德十一路","SECT":" ","MAREA":" ","LANE":" ","ALLEY":" ","HOUSE_NO":"２號八樓之１","E_COORD97":169417.32999999999,"N_COORD97":2542072.04,"ADDRESS":"立德十一路２號八樓之１","OBJECTID":479148},"geometry":{"x":169417.33000000007,"y":2542072.0399999991}},{"attributes":{"ID":479174,"DIS_CODE":0,"TOWNNAME":"東區","LI":"大德里","LIN":"20鄰","STREET":"立德十一路","SECT":" ","MAREA":" ","LANE":" ","ALLEY":" ","HOUSE_NO":"２號八樓之２","E_COORD97":169417.32999999999,"N_COORD97":2542072.04,"ADDRESS":"立德十一路２號八樓之２","OBJECTID":479149},"geometry":{"x":169417.33000000007,"y":2542072.0399999991}},{"attributes":{"ID":479175,"DIS_CODE":0,"TOWNNAME":"東區","LI":"大德里","LIN":"20鄰","STREET":"立德十一路","SECT":" ","MAREA":" ","LANE":" ","ALLEY":" ","HOUSE_NO":"２號八樓之３","E_COORD97":169417.32999999999,"N_COORD97":2542072.04,"ADDRESS":"立德十一路２號八樓之３","OBJECTID":479150},"geometry":{"x":169417.33000000007,"y":2542072.0399999991}},{"attributes":{"ID":479176,"DIS_CODE":0,"TOWNNAME":"東區","LI":"大德里","LIN":"20鄰","STREET":"立德十一路","SECT":" ","MAREA":" ","LANE":" ","ALLEY":" ","HOUSE_NO":"２號八樓之４","E_COORD97":169417.32999999999,"N_COORD97":2542072.04,"ADDRESS":"立德十一路２號八樓之４","OBJECTID":479151},"geometry":{"x":169417.33000000007,"y":2542072.0399999991}},{"attributes":{"ID":479177,"DIS_CODE":0,"TOWNNAME":"東區","LI":"大德里","LIN":"20鄰","STREET":"立德十一路","SECT":" ","MAREA":" ","LANE":" ","ALLEY":" ","HOUSE_NO":"２號八樓之５","E_COORD97":169417.32999999999,"N_COORD97":2542072.04,"ADDRESS":"立德十一路２號八樓之５","OBJECTID":479152},"geometry":{"x":169417.33000000007,"y":2542072.0399999991}},{"attributes":{"ID":479178,"DIS_CODE":0,"TOWNNAME":"東區","LI":"大德里","LIN":"20鄰","STREET":"立德十一路","SECT":" ","MAREA":" ","LANE":" ","ALLEY":" ","HOUSE_NO":"２號八樓之６","E_COORD97":169417.32999999999,"N_COORD97":2542072.04,"ADDRESS":"立德十一路２號八樓之６","OBJECTID":479153},"geometry":{"x":169417.33000000007,"y":2542072.0399999991}},{"attributes":{"ID":479179,"DIS_CODE":0,"TOWNNAME":"東區","LI":"大德里","LIN":"20鄰","STREET":"立德十一路","SECT":" ","MAREA":" ","LANE":" ","ALLEY":" ","HOUSE_NO":"２號八樓之７","E_COORD97":169417.32999999999,"N_COORD97":2542072.04,"ADDRESS":"立德十一路２號八樓之７","OBJECTID":479154},"geometry":{"x":169417.33000000007,"y":2542072.0399999991}},{"attributes":{"ID":479180,"DIS_CODE":0,"TOWNNAME":"東區","LI":"大德里","LIN":"20鄰","STREET":"立德十一路","SECT":" ","MAREA":" ","LANE":" ","ALLEY":" ","HOUSE_NO":"２號三樓","E_COORD97":169417.32999999999,"N_COORD97":2542072.04,"ADDRESS":"立德十一路２號三樓","OBJECTID":479155},"geometry":{"x":169417.33000000007,"y":2542072.0399999991}},{"attributes":{"ID":479181,"DIS_CODE":0,"TOWNNAME":"東區","LI":"大德里","LIN":"20鄰","STREET":"立德十一路","SECT":" ","MAREA":" ","LANE":" ","ALLEY":" ","HOUSE_NO":"２號三樓之１","E_COORD97":169417.32999999999,"N_COORD97":2542072.04,"ADDRESS":"立德十一路２號三樓之１","OBJECTID":479156},"geometry":{"x":169417.33000000007,"y":2542072.0399999991}},{"attributes":{"ID":479182,"DIS_CODE":0,"TOWNNAME":"東區","LI":"大德里","LIN":"20鄰","STREET":"立德十一路","SECT":" ","MAREA":" ","LANE":" ","ALLEY":" ","HOUSE_NO":"２號三樓之２","E_COORD97":169417.32999999999,"N_COORD97":2542072.04,"ADDRESS":"立德十一路２號三樓之２","OBJECTID":479157},"geometry":{"x":169417.33000000007,"y":2542072.0399999991}},{"attributes":{"ID":479183,"DIS_CODE":0,"TOWNNAME":"東區","LI":"大德里","LIN":"20鄰","STREET":"立德十一路","SECT":" ","MAREA":" ","LANE":" ","ALLEY":" ","HOUSE_NO":"２號三樓之３","E_COORD97":169417.32999999999,"N_COORD97":2542072.04,"ADDRESS":"立德十一路２號三樓之３","OBJECTID":479158},"geometry":{"x":169417.33000000007,"y":2542072.0399999991}},{"attributes":{"ID":479184,"DIS_CODE":0,"TOWNNAME":"東區","LI":"大德里","LIN":"20鄰","STREET":"立德十一路","SECT":" ","MAREA":" ","LANE":" ","ALLEY":" ","HOUSE_NO":"２號三樓之４","E_COORD97":169417.32999999999,"N_COORD97":2542072.04,"ADDRESS":"立德十一路２號三樓之４","OBJECTID":479159},"geometry":{"x":169417.33000000007,"y":2542072.0399999991}},{"attributes":{"ID":479185,"DIS_CODE":0,"TOWNNAME":"東區","LI":"大德里","LIN":"20鄰","STREET":"立德十一路","SECT":" ","MAREA":" ","LANE":" ","ALLEY":" ","HOUSE_NO":"２號三樓之５","E_COORD97":169417.32999999999,"N_COORD97":2542072.04,"ADDRESS":"立德十一路２號三樓之５","OBJECTID":479160},"geometry":{"x":169417.33000000007,"y":2542072.0399999991}},{"attributes":{"ID":479186,"DIS_CODE":0,"TOWNNAME":"東區","LI":"大德里","LIN":"20鄰","STREET":"立德十一路","SECT":" ","MAREA":" ","LANE":" ","ALLEY":" ","HOUSE_NO":"２號三樓之７","E_COORD97":169417.32999999999,"N_COORD97":2542072.04,"ADDRESS":"立德十一路２號三樓之７","OBJECTID":479161},"geometry":{"x":169417.33000000007,"y":2542072.0399999991}},{"attributes":{"ID":479187,"DIS_CODE":0,"TOWNNAME":"東區","LI":"大德里","LIN":"20鄰","STREET":"立德十一路","SECT":" ","MAREA":" ","LANE":" ","ALLEY":" ","HOUSE_NO":"２號五樓","E_COORD97":169417.32999999999,"N_COORD97":2542072.04,"ADDRESS":"立德十一路２號五樓","OBJECTID":479162},"geometry":{"x":169417.33000000007,"y":2542072.0399999991}},{"attributes":{"ID":479188,"DIS_CODE":0,"TOWNNAME":"東區","LI":"大德里","LIN":"20鄰","STREET":"立德十一路","SECT":" ","MAREA":" ","LANE":" ","ALLEY":" ","HOUSE_NO":"２號五樓之１","E_COORD97":169417.32999999999,"N_COORD97":2542072.04,"ADDRESS":"立德十一路２號五樓之１","OBJECTID":479163},"geometry":{"x":169417.33000000007,"y":2542072.0399999991}},{"attributes":{"ID":479189,"DIS_CODE":0,"TOWNNAME":"東區","LI":"大德里","LIN":"20鄰","STREET":"立德十一路","SECT":" ","MAREA":" ","LANE":" ","ALLEY":" ","HOUSE_NO":"２號五樓之２","E_COORD97":169417.32999999999,"N_COORD97":2542072.04,"ADDRESS":"立德十一路２號五樓之２","OBJECTID":479164},"geometry":{"x":169417.33000000007,"y":2542072.0399999991}},{"attributes":{"ID":479190,"DIS_CODE":0,"TOWNNAME":"東區","LI":"大德里","LIN":"20鄰","STREET":"立德十一路","SECT":" ","MAREA":" ","LANE":" ","ALLEY":" ","HOUSE_NO":"２號五樓之３","E_COORD97":169417.32999999999,"N_COORD97":2542072.04,"ADDRESS":"立德十一路２號五樓之３","OBJECTID":479165},"geometry":{"x":169417.33000000007,"y":2542072.0399999991}},{"attributes":{"ID":479191,"DIS_CODE":0,"TOWNNAME":"東區","LI":"大德里","LIN":"20鄰","STREET":"立德十一路","SECT":" ","MAREA":" ","LANE":" ","ALLEY":" ","HOUSE_NO":"２號五樓之４","E_COORD97":169417.32999999999,"N_COORD97":2542072.04,"ADDRESS":"立德十一路２號五樓之４","OBJECTID":479166},"geometry":{"x":169417.33000000007,"y":2542072.0399999991}},{"attributes":{"ID":479192,"DIS_CODE":0,"TOWNNAME":"東區","LI":"大德里","LIN":"20鄰","STREET":"立德十一路","SECT":" ","MAREA":" ","LANE":" ","ALLEY":" ","HOUSE_NO":"２號五樓之５","E_COORD97":169417.32999999999,"N_COORD97":2542072.04,"ADDRESS":"立德十一路２號五樓之５","OBJECTID":479167},"geometry":{"x":169417.33000000007,"y":2542072.0399999991}},{"attributes":{"ID":479193,"DIS_CODE":0,"TOWNNAME":"東區","LI":"大德里","LIN":"20鄰","STREET":"立德十一路","SECT":" ","MAREA":" ","LANE":" ","ALLEY":" ","HOUSE_NO":"２號五樓之６","E_COORD97":169417.32999999999,"N_COORD97":2542072.04,"ADDRESS":"立德十一路２號五樓之６","OBJECTID":479168},"geometry":{"x":169417.33000000007,"y":2542072.0399999991}},{"attributes":{"ID":479194,"DIS_CODE":0,"TOWNNAME":"東區","LI":"大德里","LIN":"20鄰","STREET":"立德十一路","SECT":" ","MAREA":" ","LANE":" ","ALLEY":" ","HOUSE_NO":"２號五樓之７","E_COORD97":169417.32999999999,"N_COORD97":2542072.04,"ADDRESS":"立德十一路２號五樓之７","OBJECTID":479169},"geometry":{"x":169417.33000000007,"y":2542072.0399999991}},{"attributes":{"ID":479195,"DIS_CODE":0,"TOWNNAME":"東區","LI":"大德里","LIN":"20鄰","STREET":"立德十一路","SECT":" ","MAREA":" ","LANE":" ","ALLEY":" ","HOUSE_NO":"２號六樓","E_COORD97":169417.32999999999,"N_COORD97":2542072.04,"ADDRESS":"立德十一路２號六樓","OBJECTID":479170},"geometry":{"x":169417.33000000007,"y":2542072.0399999991}},{"attributes":{"ID":479196,"DIS_CODE":0,"TOWNNAME":"東區","LI":"大德里","LIN":"20鄰","STREET":"立德十一路","SECT":" ","MAREA":" ","LANE":" ","ALLEY":" ","HOUSE_NO":"２號六樓之１","E_COORD97":169417.32999999999,"N_COORD97":2542072.04,"ADDRESS":"立德十一路２號六樓之１","OBJECTID":479171},"geometry":{"x":169417.33000000007,"y":2542072.0399999991}},{"attributes":{"ID":479197,"DIS_CODE":0,"TOWNNAME":"東區","LI":"大德里","LIN":"20鄰","STREET":"立德十一路","SECT":" ","MAREA":" ","LANE":" ","ALLEY":" ","HOUSE_NO":"２號六樓之２","E_COORD97":169417.32999999999,"N_COORD97":2542072.04,"ADDRESS":"立德十一路２號六樓之２","OBJECTID":479172},"geometry":{"x":169417.33000000007,"y":2542072.0399999991}},{"attributes":{"ID":479198,"DIS_CODE":0,"TOWNNAME":"東區","LI":"大德里","LIN":"20鄰","STREET":"立德十一路","SECT":" ","MAREA":" ","LANE":" ","ALLEY":" ","HOUSE_NO":"２號六樓之３","E_COORD97":169417.32999999999,"N_COORD97":2542072.04,"ADDRESS":"立德十一路２號六樓之３","OBJECTID":479173},"geometry":{"x":169417.33000000007,"y":2542072.0399999991}},{"attributes":{"ID":479199,"DIS_CODE":0,"TOWNNAME":"東區","LI":"大德里","LIN":"20鄰","STREET":"立德十一路","SECT":" ","MAREA":" ","LANE":" ","ALLEY":" ","HOUSE_NO":"２號六樓之４","E_COORD97":169417.32999999999,"N_COORD97":2542072.04,"ADDRESS":"立德十一路２號六樓之４","OBJECTID":479174},"geometry":{"x":169417.33000000007,"y":2542072.0399999991}},{"attributes":{"ID":479200,"DIS_CODE":0,"TOWNNAME":"東區","LI":"大德里","LIN":"20鄰","STREET":"立德十一路","SECT":" ","MAREA":" ","LANE":" ","ALLEY":" ","HOUSE_NO":"２號六樓之５","E_COORD97":169417.32999999999,"N_COORD97":2542072.04,"ADDRESS":"立德十一路２號六樓之５","OBJECTID":479175},"geometry":{"x":169417.33000000007,"y":2542072.0399999991}},{"attributes":{"ID":479201,"DIS_CODE":0,"TOWNNAME":"東區","LI":"大德里","LIN":"20鄰","STREET":"立德十一路","SECT":" ","MAREA":" ","LANE":" ","ALLEY":" ","HOUSE_NO":"２號六樓之６","E_COORD97":169417.32999999999,"N_COORD97":2542072.04,"ADDRESS":"立德十一路２號六樓之６","OBJECTID":479176},"geometry":{"x":169417.33000000007,"y":2542072.0399999991}},{"attributes":{"ID":479202,"DIS_CODE":0,"TOWNNAME":"東區","LI":"大德里","LIN":"20鄰","STREET":"立德十一路","SECT":" ","MAREA":" ","LANE":" ","ALLEY":" ","HOUSE_NO":"２號四樓","E_COORD97":169417.32999999999,"N_COORD97":2542072.04,"ADDRESS":"立德十一路２號四樓","OBJECTID":479177},"geometry":{"x":169417.33000000007,"y":2542072.0399999991}},{"attributes":{"ID":479203,"DIS_CODE":0,"TOWNNAME":"東區","LI":"大德里","LIN":"20鄰","STREET":"立德十一路","SECT":" ","MAREA":" ","LANE":" ","ALLEY":" ","HOUSE_NO":"２號四樓之１","E_COORD97":169417.32999999999,"N_COORD97":2542072.04,"ADDRESS":"立德十一路２號四樓之１","OBJECTID":479178},"geometry":{"x":169417.33000000007,"y":2542072.0399999991}},{"attributes":{"ID":479204,"DIS_CODE":0,"TOWNNAME":"東區","LI":"大德里","LIN":"20鄰","STREET":"立德十一路","SECT":" ","MAREA":" ","LANE":" ","ALLEY":" ","HOUSE_NO":"２號四樓之２","E_COORD97":169417.32999999999,"N_COORD97":2542072.04,"ADDRESS":"立德十一路２號四樓之２","OBJECTID":479179},"geometry":{"x":169417.33000000007,"y":2542072.0399999991}},{"attributes":{"ID":479205,"DIS_CODE":0,"TOWNNAME":"東區","LI":"大德里","LIN":"20鄰","STREET":"立德十一路","SECT":" ","MAREA":" ","LANE":" ","ALLEY":" ","HOUSE_NO":"２號四樓之３","E_COORD97":169417.32999999999,"N_COORD97":2542072.04,"ADDRESS":"立德十一路２號四樓之３","OBJECTID":479180},"geometry":{"x":169417.33000000007,"y":2542072.0399999991}},{"attributes":{"ID":479206,"DIS_CODE":0,"TOWNNAME":"東區","LI":"大德里","LIN":"20鄰","STREET":"立德十一路","SECT":" ","MAREA":" ","LANE":" ","ALLEY":" ","HOUSE_NO":"２號四樓之４","E_COORD97":169417.32999999999,"N_COORD97":2542072.04,"ADDRESS":"立德十一路２號四樓之４","OBJECTID":479181},"geometry":{"x":169417.33000000007,"y":2542072.0399999991}},{"attributes":{"ID":479207,"DIS_CODE":0,"TOWNNAME":"東區","LI":"大德里","LIN":"20鄰","STREET":"立德十一路","SECT":" ","MAREA":" ","LANE":" ","ALLEY":" ","HOUSE_NO":"２號四樓之５","E_COORD97":169417.32999999999,"N_COORD97":2542072.04,"ADDRESS":"立德十一路２號四樓之５","OBJECTID":479182},"geometry":{"x":169417.33000000007,"y":2542072.0399999991}},{"attributes":{"ID":479208,"DIS_CODE":0,"TOWNNAME":"東區","LI":"大德里","LIN":"20鄰","STREET":"立德十一路","SECT":" ","MAREA":" ","LANE":" ","ALLEY":" ","HOUSE_NO":"２號四樓之６","E_COORD97":169417.32999999999,"N_COORD97":2542072.04,"ADDRESS":"立德十一路２號四樓之６","OBJECTID":479183},"geometry":{"x":169417.33000000007,"y":2542072.0399999991}},{"attributes":{"ID":479209,"DIS_CODE":0,"TOWNNAME":"東區","LI":"富裕里","LIN":"20鄰","STREET":"裕豐街","SECT":" ","MAREA":" ","LANE":" ","ALLEY":" ","HOUSE_NO":"８號十樓","E_COORD97":170736.51000000001,"N_COORD97":2542700.3300000001,"ADDRESS":"裕豐街８號十樓","OBJECTID":479184},"geometry":{"x":170736.50999999978,"y":2542700.3300000019}},{"attributes":{"ID":479210,"DIS_CODE":0,"TOWNNAME":"東區","LI":"富裕里","LIN":"20鄰","STREET":"裕豐街","SECT":" ","MAREA":" ","LANE":" ","ALLEY":" ","HOUSE_NO":"８號三樓","E_COORD97":170736.51000000001,"N_COORD97":2542700.3300000001,"ADDRESS":"裕豐街８號三樓","OBJECTID":479185},"geometry":{"x":170736.50999999978,"y":2542700.3300000019}},{"attributes":{"ID":479211,"DIS_CODE":0,"TOWNNAME":"東區","LI":"富裕里","LIN":"20鄰","STREET":"裕豐街","SECT":" ","MAREA":" ","LANE":" ","ALLEY":" ","HOUSE_NO":"８號五樓","E_COORD97":170736.51000000001,"N_COORD97":2542700.3300000001,"ADDRESS":"裕豐街８號五樓","OBJECTID":479186},"geometry":{"x":170736.50999999978,"y":2542700.3300000019}},{"attributes":{"ID":479212,"DIS_CODE":0,"TOWNNAME":"永康區","LI":"復國里","LIN":"20鄰","STREET":"國華街","SECT":" ","MAREA":" ","LANE":" ","ALLEY":" ","HOUSE_NO":"６３號十樓之３","E_COORD97":172819.39999999999,"N_COORD97":2545744.3100000001,"ADDRESS":"國華街６３號十樓之３","OBJECTID":479187},"geometry":{"x":172819.40000000037,"y":2545744.3100000005}},{"attributes":{"ID":479213,"DIS_CODE":0,"TOWNNAME":"永康區","LI":"中華里","LIN":"20鄰","STREET":"小東路","SECT":" ","MAREA":" ","LANE":" ","ALLEY":" ","HOUSE_NO":"４７３號之５４七樓","E_COORD97":171593.10999999999,"N_COORD97":2544367.3500000001,"ADDRESS":"小東路４７３號之５４七樓","OBJECTID":479188},"geometry":{"x":171593.1100000022,"y":2544367.3500000034}},{"attributes":{"ID":479214,"DIS_CODE":0,"TOWNNAME":"東區","LI":"富裕里","LIN":"20鄰","STREET":"裕豐街","SECT":" ","MAREA":" ","LANE":" ","ALLEY":" ","HOUSE_NO":"８號四樓","E_COORD97":170736.51000000001,"N_COORD97":2542700.3300000001,"ADDRESS":"裕豐街８號四樓","OBJECTID":479189},"geometry":{"x":170736.50999999978,"y":2542700.3300000019}},{"attributes":{"ID":479215,"DIS_CODE":0,"TOWNNAME":"永康區","LI":"復國里","LIN":"20鄰","STREET":"國華街","SECT":" ","MAREA":" ","LANE":" ","ALLEY":" ","HOUSE_NO":"５５號四樓之１","E_COORD97":172799.42000000001,"N_COORD97":2545761.4199999999,"ADDRESS":"國華街５５號四樓之１","OBJECTID":479190},"geometry":{"x":172799.42000000086,"y":2545761.4200000018}},{"attributes":{"ID":479216,"DIS_CODE":0,"TOWNNAME":"永康區","LI":"復國里","LIN":"20鄰","STREET":"國華街","SECT":" ","MAREA":" ","LANE":" ","ALLEY":" ","HOUSE_NO":"６１號十樓之３","E_COORD97":172830.32999999999,"N_COORD97":2545750.4199999999,"ADDRESS":"國華街６１號十樓之３","OBJECTID":479191},"geometry":{"x":172830.33000000007,"y":2545750.4200000037}},{"attributes":{"ID":479217,"DIS_CODE":0,"TOWNNAME":"永康區","LI":"西灣里","LIN":"20鄰","STREET":"文賢街","SECT":" ","MAREA":" ","LANE":" ","ALLEY":" ","HOUSE_NO":"４７８號三樓","E_COORD97":174582.26000000001,"N_COORD97":2545854.8199999998,"ADDRESS":"文賢街４７８號三樓","OBJECTID":479192},"geometry":{"x":174582.26000000071,"y":2545854.8200000022}},{"attributes":{"ID":479218,"DIS_CODE":0,"TOWNNAME":"下營區","LI":"下營里","LIN":"20鄰","STREET":"中山路","SECT":"二段","MAREA":" ","LANE":" ","ALLEY":" ","HOUSE_NO":"２７號二樓","E_COORD97":174403.70000000001,"N_COORD97":2570397.2000000002,"ADDRESS":"中山路二段２７號二樓","OBJECTID":479193},"geometry":{"x":174403.70000000112,"y":2570397.2000000011}},{"attributes":{"ID":479219,"DIS_CODE":0,"TOWNNAME":"永康區","LI":"西灣里","LIN":"20鄰","STREET":"文賢街","SECT":" ","MAREA":" ","LANE":" ","ALLEY":" ","HOUSE_NO":"４７８號二樓","E_COORD97":174582.26000000001,"N_COORD97":2545854.8199999998,"ADDRESS":"文賢街４７８號二樓","OBJECTID":479194},"geometry":{"x":174582.26000000071,"y":2545854.8200000022}},{"attributes":{"ID":479220,"DIS_CODE":0,"TOWNNAME":"永康區","LI":"西灣里","LIN":"20鄰","STREET":"文賢街","SECT":" ","MAREA":" ","LANE":" ","ALLEY":" ","HOUSE_NO":"４７８號五樓","E_COORD97":174582.26000000001,"N_COORD97":2545854.8199999998,"ADDRESS":"文賢街４７８號五樓","OBJECTID":479195},"geometry":{"x":174582.26000000071,"y":2545854.8200000022}},{"attributes":{"ID":479221,"DIS_CODE":0,"TOWNNAME":"東區","LI":"富裕里","LIN":"20鄰","STREET":"裕豐街","SECT":" ","MAREA":" ","LANE":" ","ALLEY":" ","HOUSE_NO":"１０號六樓","E_COORD97":170765.85000000001,"N_COORD97":2542700.8300000001,"ADDRESS":"裕豐街１０號六樓","OBJECTID":479196},"geometry":{"x":170765.85000000056,"y":2542700.8300000019}},{"attributes":{"ID":479222,"DIS_CODE":0,"TOWNNAME":"中西區","LI":"安海里","LIN":"20鄰","STREET":"民生路","SECT":"二段","MAREA":" ","LANE":" ","ALLEY":" ","HOUSE_NO":"３９３號七樓之１","E_COORD97":166822.73000000001,"N_COORD97":2544214.4900000002,"ADDRESS":"民生路二段３９３號七樓之１","OBJECTID":479197},"geometry":{"x":166822.73000000138,"y":2544214.4900000039}},{"attributes":{"ID":479223,"DIS_CODE":0,"TOWNNAME":"中西區","LI":"安海里","LIN":"20鄰","STREET":"民生路","SECT":"二段","MAREA":" ","LANE":" ","ALLEY":" ","HOUSE_NO":"３９３號七樓之２","E_COORD97":166822.73000000001,"N_COORD97":2544214.4900000002,"ADDRESS":"民生路二段３９３號七樓之２","OBJECTID":479198},"geometry":{"x":166822.73000000138,"y":2544214.4900000039}},{"attributes":{"ID":479224,"DIS_CODE":0,"TOWNNAME":"中西區","LI":"安海里","LIN":"20鄰","STREET":"民生路","SECT":"二段","MAREA":" ","LANE":" ","ALLEY":" ","HOUSE_NO":"３９３號七樓之３","E_COORD97":166822.73000000001,"N_COORD97":2544214.4900000002,"ADDRESS":"民生路二段３９３號七樓之３","OBJECTID":479199},"geometry":{"x":166822.73000000138,"y":2544214.4900000039}},{"attributes":{"ID":479225,"DIS_CODE":0,"TOWNNAME":"中西區","LI":"安海里","LIN":"20鄰","STREET":"民生路","SECT":"二段","MAREA":" ","LANE":" ","ALLEY":" ","HOUSE_NO":"３９３號七樓之５","E_COORD97":166822.73000000001,"N_COORD97":2544214.4900000002,"ADDRESS":"民生路二段３９３號七樓之５","OBJECTID":479200},"geometry":{"x":166822.73000000138,"y":2544214.4900000039}}]}