{"displayFieldName":"TOWNNAME","fieldAliases":{"ID":"ID","DIS_CODE":"DIS_CODE","TOWNNAME":"TOWNNAME","LI":"LI","LIN":"LIN","STREET":"STREET","SECT":"SECT","MAREA":"MAREA","LANE":"LANE","ALLEY":"ALLEY","HOUSE_NO":"HOUSE_NO","E_COORD97":"E_COORD97","N_COORD97":"N_COORD97","ADDRESS":"ADDRESS","OBJECTID":"OBJECTID"},"geometryType":"esriGeometryPoint","spatialReference":{"wkid":102443,"latestWkid":3826},"fields":[{"name":"ID","type":"esriFieldTypeDouble","alias":"ID"},{"name":"DIS_CODE","type":"esriFieldTypeInteger","alias":"DIS_CODE"},{"name":"TOWNNAME","type":"esriFieldTypeString","alias":"TOWNNAME","length":8},{"name":"LI","type":"esriFieldTypeString","alias":"LI","length":8},{"name":"LIN","type":"esriFieldTypeString","alias":"LIN","length":12},{"name":"STREET","type":"esriFieldTypeString","alias":"STREET","length":20},{"name":"SECT","type":"esriFieldTypeString","alias":"SECT","length":8},{"name":"MAREA","type":"esriFieldTypeString","alias":"MAREA","length":12},{"name":"LANE","type":"esriFieldTypeString","alias":"LANE","length":10},{"name":"ALLEY","type":"esriFieldTypeString","alias":"ALLEY","length":10},{"name":"HOUSE_NO","type":"esriFieldTypeString","alias":"HOUSE_NO","length":20},{"name":"E_COORD97","type":"esriFieldTypeDouble","alias":"E_COORD97"},{"name":"N_COORD97","type":"esriFieldTypeDouble","alias":"N_COORD97"},{"name":"ADDRESS","type":"esriFieldTypeString","alias":"ADDRESS","length":50},{"name":"OBJECTID","type":"esriFieldTypeOID","alias":"OBJECTID"}],"features":[{"attributes":{"ID":80601,"DIS_CODE":0,"TOWNNAME":"南區","LI":"南華里","LIN":" ","STREET":"金華路","SECT":"一段","MAREA":" ","LANE":" ","ALLEY":" ","HOUSE_NO":"５９號","E_COORD97":166867,"N_COORD97":2540383.75,"ADDRESS":"金華路一段５９號","OBJECTID":80601},"geometry":{"x":166867,"y":2540383.75}},{"attributes":{"ID":80602,"DIS_CODE":0,"TOWNNAME":"永康區","LI":"中華里","LIN":"19鄰","STREET":"小東路","SECT":" ","MAREA":" ","LANE":"４７７巷","ALLEY":"４６弄","HOUSE_NO":"１號之１３","E_COORD97":171658.45999999999,"N_COORD97":2544537.0499999998,"ADDRESS":"小東路４７７巷４６弄１號之１３","OBJECTID":80602},"geometry":{"x":171658.46000000089,"y":2544537.0500000026}},{"attributes":{"ID":80603,"DIS_CODE":0,"TOWNNAME":"永康區","LI":"中華里","LIN":"19鄰","STREET":"小東路","SECT":" ","MAREA":" ","LANE":"４７７巷","ALLEY":"４６弄","HOUSE_NO":"５號之２","E_COORD97":171653.20000000001,"N_COORD97":2544535.6600000001,"ADDRESS":"小東路４７７巷４６弄５號之２","OBJECTID":80603},"geometry":{"x":171653.20000000019,"y":2544535.660000002}},{"attributes":{"ID":80604,"DIS_CODE":0,"TOWNNAME":"安南區","LI":"安慶里","LIN":"7鄰","STREET":"怡安路","SECT":"一段","MAREA":" ","LANE":" ","ALLEY":" ","HOUSE_NO":"３１７號","E_COORD97":168849.54000000001,"N_COORD97":2549102.6000000001,"ADDRESS":"怡安路一段３１７號","OBJECTID":80604},"geometry":{"x":168849.54000000097,"y":2549102.6000000015}},{"attributes":{"ID":80605,"DIS_CODE":0,"TOWNNAME":"善化區","LI":"坐駕里","LIN":"7鄰","STREET":"大成路","SECT":" ","MAREA":" ","LANE":" ","ALLEY":" ","HOUSE_NO":"３８０號","E_COORD97":177902.53,"N_COORD97":2558804.3900000001,"ADDRESS":"大成路３８０號","OBJECTID":80605},"geometry":{"x":177902.53000000026,"y":2558804.3900000043}},{"attributes":{"ID":80606,"DIS_CODE":0,"TOWNNAME":"善化區","LI":"文昌里","LIN":"7鄰","STREET":"光復路","SECT":" ","MAREA":" ","LANE":" ","ALLEY":" ","HOUSE_NO":"１９８號","E_COORD97":177261.59,"N_COORD97":2558610.5099999998,"ADDRESS":"光復路１９８號","OBJECTID":80606},"geometry":{"x":177261.59000000171,"y":2558610.5100000016}},{"attributes":{"ID":80607,"DIS_CODE":0,"TOWNNAME":"善化區","LI":"文昌里","LIN":"7鄰","STREET":"永福路","SECT":" ","MAREA":" ","LANE":" ","ALLEY":" ","HOUSE_NO":"１３２號","E_COORD97":177276.23999999999,"N_COORD97":2558798.75,"ADDRESS":"永福路１３２號","OBJECTID":80607},"geometry":{"x":177276.24000000115,"y":2558798.7500000019}},{"attributes":{"ID":80608,"DIS_CODE":0,"TOWNNAME":"善化區","LI":"文昌里","LIN":"7鄰","STREET":"文昌路","SECT":" ","MAREA":" ","LANE":" ","ALLEY":" ","HOUSE_NO":"３８號之１０","E_COORD97":177320.39000000001,"N_COORD97":2558748.2799999998,"ADDRESS":"文昌路３８號之１０","OBJECTID":80608},"geometry":{"x":177320.3900000006,"y":2558748.2799999993}},{"attributes":{"ID":80609,"DIS_CODE":0,"TOWNNAME":"南區","LI":"南華里","LIN":" ","STREET":"金華路","SECT":"一段","MAREA":" ","LANE":" ","ALLEY":" ","HOUSE_NO":"４１號之２","E_COORD97":166864.82000000001,"N_COORD97":2540349.27,"ADDRESS":"金華路一段４１號之２","OBJECTID":80609},"geometry":{"x":166864.8200000003,"y":2540349.2699999996}},{"attributes":{"ID":80610,"DIS_CODE":0,"TOWNNAME":"善化區","LI":"田寮里","LIN":"7鄰","STREET":" ","SECT":" ","MAREA":"六分寮","LANE":" ","ALLEY":" ","HOUSE_NO":"８６號之９","E_COORD97":178504.31,"N_COORD97":2561403.77,"ADDRESS":"六分寮８６號之９","OBJECTID":80610},"geometry":{"x":178504.31000000052,"y":2561403.7699999996}},{"attributes":{"ID":80611,"DIS_CODE":0,"TOWNNAME":"北門區","LI":"永華里","LIN":"3鄰","STREET":" ","SECT":" ","MAREA":"井子\u25A0","LANE":" ","ALLEY":" ","HOUSE_NO":"３３號","E_COORD97":159908.60999999999,"N_COORD97":2573003.2599999998,"ADDRESS":"井子\u25A0３３號","OBJECTID":80611},"geometry":{"x":159908.61000000127,"y":2573003.2600000035}},{"attributes":{"ID":80612,"DIS_CODE":0,"TOWNNAME":"北門區","LI":"永華里","LIN":"3鄰","STREET":" ","SECT":" ","MAREA":"井子\u25A0","LANE":" ","ALLEY":" ","HOUSE_NO":"３４號","E_COORD97":159886.82999999999,"N_COORD97":2572999.8900000001,"ADDRESS":"井子\u25A0３４號","OBJECTID":80612},"geometry":{"x":159886.83000000101,"y":2572999.8900000043}},{"attributes":{"ID":80613,"DIS_CODE":0,"TOWNNAME":"北門區","LI":"玉港里","LIN":"3鄰","STREET":" ","SECT":" ","MAREA":"灰\u25A0港","LANE":" ","ALLEY":" ","HOUSE_NO":"２２之１號","E_COORD97":161884.69,"N_COORD97":2573715.7599999998,"ADDRESS":"灰\u25A0港２２之１號","OBJECTID":80613},"geometry":{"x":161884.69000000134,"y":2573715.7600000016}},{"attributes":{"ID":80614,"DIS_CODE":0,"TOWNNAME":"北門區","LI":"玉港里","LIN":"3鄰","STREET":" ","SECT":" ","MAREA":"灰\u25A0港","LANE":" ","ALLEY":" ","HOUSE_NO":"２２之２號","E_COORD97":161880.85000000001,"N_COORD97":2573714.8599999999,"ADDRESS":"灰\u25A0港２２之２號","OBJECTID":80614},"geometry":{"x":161880.85000000056,"y":2573714.8600000013}},{"attributes":{"ID":80615,"DIS_CODE":0,"TOWNNAME":"善化區","LI":"文昌里","LIN":"7鄰","STREET":"永福路","SECT":" ","MAREA":" ","LANE":" ","ALLEY":" ","HOUSE_NO":"１２０號","E_COORD97":177307.53,"N_COORD97":2558811.25,"ADDRESS":"永福路１２０號","OBJECTID":80615},"geometry":{"x":177307.53000000026,"y":2558811.2500000037}},{"attributes":{"ID":80616,"DIS_CODE":0,"TOWNNAME":"北門區","LI":"玉港里","LIN":"3鄰","STREET":" ","SECT":" ","MAREA":"灰\u25A0港","LANE":" ","ALLEY":" ","HOUSE_NO":"２２號","E_COORD97":161888.53,"N_COORD97":2573716.21,"ADDRESS":"灰\u25A0港２２號","OBJECTID":80616},"geometry":{"x":161888.52999999933,"y":2573716.2100000009}},{"attributes":{"ID":80617,"DIS_CODE":0,"TOWNNAME":"善化區","LI":"小新里","LIN":"7鄰","STREET":" ","SECT":" ","MAREA":"小新營","LANE":" ","ALLEY":" ","HOUSE_NO":"５６號之１３","E_COORD97":179605.51999999999,"N_COORD97":2558653.77,"ADDRESS":"小新營５６號之１３","OBJECTID":80617},"geometry":{"x":179605.51999999955,"y":2558653.7699999996}},{"attributes":{"ID":80618,"DIS_CODE":0,"TOWNNAME":"善化區","LI":"田寮里","LIN":"7鄰","STREET":" ","SECT":" ","MAREA":"六分寮","LANE":" ","ALLEY":" ","HOUSE_NO":"７７號","E_COORD97":178470.10000000001,"N_COORD97":2561389.75,"ADDRESS":"六分寮７７號","OBJECTID":80618},"geometry":{"x":178470.10000000056,"y":2561389.7500000019}},{"attributes":{"ID":80619,"DIS_CODE":0,"TOWNNAME":"永康區","LI":"中華里","LIN":"19鄰","STREET":"小東路","SECT":" ","MAREA":" ","LANE":"４７７巷","ALLEY":"４６弄","HOUSE_NO":"５號之４４","E_COORD97":171654.34,"N_COORD97":2544535.6600000001,"ADDRESS":"小東路４７７巷４６弄５號之４４","OBJECTID":80619},"geometry":{"x":171654.34000000078,"y":2544535.660000002}},{"attributes":{"ID":80620,"DIS_CODE":0,"TOWNNAME":"善化區","LI":"什乃里","LIN":"7鄰","STREET":" ","SECT":" ","MAREA":"什乃","LANE":" ","ALLEY":" ","HOUSE_NO":"５９號","E_COORD97":176075.47,"N_COORD97":2560400.75,"ADDRESS":"什乃５９號","OBJECTID":80620},"geometry":{"x":176075.4700000016,"y":2560400.75}},{"attributes":{"ID":80621,"DIS_CODE":0,"TOWNNAME":"永康區","LI":"甲頂里","LIN":"19鄰","STREET":"中正南路","SECT":" ","MAREA":" ","LANE":"５２巷","ALLEY":"４６弄","HOUSE_NO":"７６號","E_COORD97":169913.29000000001,"N_COORD97":2546566.4399999999,"ADDRESS":"中正南路５２巷４６弄７６號","OBJECTID":80621},"geometry":{"x":169913.2900000019,"y":2546566.4399999995}},{"attributes":{"ID":80622,"DIS_CODE":0,"TOWNNAME":"永康區","LI":"正強里","LIN":"19鄰","STREET":"自強路","SECT":" ","MAREA":" ","LANE":"１８８巷","ALLEY":"７６弄","HOUSE_NO":"２９號","E_COORD97":173211,"N_COORD97":2547230.7400000002,"ADDRESS":"自強路１８８巷７６弄２９號","OBJECTID":80622},"geometry":{"x":173211.00000000093,"y":2547230.7400000021}},{"attributes":{"ID":80623,"DIS_CODE":0,"TOWNNAME":"善化區","LI":"田寮里","LIN":"7鄰","STREET":" ","SECT":" ","MAREA":"六分寮","LANE":" ","ALLEY":" ","HOUSE_NO":"８６號之８","E_COORD97":178506.41,"N_COORD97":2561352.52,"ADDRESS":"六分寮８６號之８","OBJECTID":80623},"geometry":{"x":178506.41000000108,"y":2561352.5200000014}},{"attributes":{"ID":80624,"DIS_CODE":0,"TOWNNAME":"善化區","LI":"小新里","LIN":"7鄰","STREET":" ","SECT":" ","MAREA":"小新營","LANE":" ","ALLEY":" ","HOUSE_NO":"５６號之２０","E_COORD97":179611.45999999999,"N_COORD97":2558543.27,"ADDRESS":"小新營５６號之２０","OBJECTID":80624},"geometry":{"x":179611.45999999996,"y":2558543.2700000014}},{"attributes":{"ID":80625,"DIS_CODE":0,"TOWNNAME":"善化區","LI":"什乃里","LIN":"7鄰","STREET":" ","SECT":" ","MAREA":"什乃","LANE":" ","ALLEY":" ","HOUSE_NO":"６１號","E_COORD97":176089.95999999999,"N_COORD97":2560397.5,"ADDRESS":"什乃６１號","OBJECTID":80625},"geometry":{"x":176089.96000000089,"y":2560397.5000000019}},{"attributes":{"ID":80626,"DIS_CODE":0,"TOWNNAME":"善化區","LI":"胡家里","LIN":"7鄰","STREET":" ","SECT":" ","MAREA":"胡厝寮","LANE":" ","ALLEY":" ","HOUSE_NO":"５４號之１","E_COORD97":175433.73000000001,"N_COORD97":2560662.77,"ADDRESS":"胡厝寮５４號之１","OBJECTID":80626},"geometry":{"x":175433.73000000231,"y":2560662.7700000014}},{"attributes":{"ID":80627,"DIS_CODE":0,"TOWNNAME":"新營區","LI":"新南里","LIN":"19鄰","STREET":"隋唐街","SECT":" ","MAREA":" ","LANE":"３１巷","ALLEY":"４８弄","HOUSE_NO":"３號","E_COORD97":178644.12,"N_COORD97":2578298.9900000002,"ADDRESS":"隋唐街３１巷４８弄３號","OBJECTID":80627},"geometry":{"x":178644.12000000011,"y":2578298.9900000021}},{"attributes":{"ID":80628,"DIS_CODE":0,"TOWNNAME":"歸仁區","LI":"七甲里","LIN":"19鄰","STREET":"南潭三街","SECT":" ","MAREA":" ","LANE":"１６２巷","ALLEY":"３弄","HOUSE_NO":"２號","E_COORD97":176447.48000000001,"N_COORD97":2543175.0299999998,"ADDRESS":"南潭三街１６２巷３弄２號","OBJECTID":80628},"geometry":{"x":176447.48000000231,"y":2543175.0299999993}},{"attributes":{"ID":80629,"DIS_CODE":0,"TOWNNAME":"南區","LI":"南華里","LIN":"19鄰","STREET":"中華南路","SECT":"二段","MAREA":" ","LANE":"３００巷","ALLEY":"２弄","HOUSE_NO":"１９號","E_COORD97":166810.79000000001,"N_COORD97":2540300.6200000001,"ADDRESS":"中華南路二段３００巷２弄１９號","OBJECTID":80629},"geometry":{"x":166810.79000000004,"y":2540300.620000001}},{"attributes":{"ID":80630,"DIS_CODE":0,"TOWNNAME":"善化區","LI":"胡家里","LIN":"7鄰","STREET":" ","SECT":" ","MAREA":"胡厝寮","LANE":" ","ALLEY":" ","HOUSE_NO":"５６號","E_COORD97":175431.75,"N_COORD97":2560681.75,"ADDRESS":"胡厝寮５６號","OBJECTID":80630},"geometry":{"x":175431.75000000093,"y":2560681.75}},{"attributes":{"ID":80631,"DIS_CODE":0,"TOWNNAME":"南區","LI":"南華里","LIN":"19鄰","STREET":"中華南路","SECT":"二段","MAREA":" ","LANE":"３００巷","ALLEY":"２弄","HOUSE_NO":"１號","E_COORD97":166730.47,"N_COORD97":2540311.52,"ADDRESS":"中華南路二段３００巷２弄１號","OBJECTID":80631},"geometry":{"x":166730.47000000067,"y":2540311.5200000014}},{"attributes":{"ID":80632,"DIS_CODE":0,"TOWNNAME":"善化區","LI":"田寮里","LIN":"7鄰","STREET":" ","SECT":" ","MAREA":"六分寮","LANE":" ","ALLEY":" ","HOUSE_NO":"７７號之２","E_COORD97":178479.67999999999,"N_COORD97":2561421.77,"ADDRESS":"六分寮７７號之２","OBJECTID":80632},"geometry":{"x":178479.68000000063,"y":2561421.7700000014}},{"attributes":{"ID":80633,"DIS_CODE":0,"TOWNNAME":"善化區","LI":"小新里","LIN":"7鄰","STREET":" ","SECT":" ","MAREA":"小新營","LANE":" ","ALLEY":" ","HOUSE_NO":"５６之８８號","E_COORD97":179474.76000000001,"N_COORD97":2558426.77,"ADDRESS":"小新營５６之８８號","OBJECTID":80633},"geometry":{"x":179474.76000000071,"y":2558426.7699999996}},{"attributes":{"ID":80634,"DIS_CODE":0,"TOWNNAME":"北門區","LI":"玉港里","LIN":"3鄰","STREET":" ","SECT":" ","MAREA":"灰\u25A0港","LANE":" ","ALLEY":" ","HOUSE_NO":"２３號","E_COORD97":161870.94,"N_COORD97":2573705.9900000002,"ADDRESS":"灰\u25A0港２３號","OBJECTID":80634},"geometry":{"x":161870.94000000134,"y":2573705.9900000002}},{"attributes":{"ID":80635,"DIS_CODE":0,"TOWNNAME":"北門區","LI":"玉港里","LIN":"3鄰","STREET":" ","SECT":" ","MAREA":"灰\u25A0港","LANE":" ","ALLEY":" ","HOUSE_NO":"２４號","E_COORD97":161868.54000000001,"N_COORD97":2573688.8199999998,"ADDRESS":"灰\u25A0港２４號","OBJECTID":80635},"geometry":{"x":161868.54000000097,"y":2573688.8200000022}},{"attributes":{"ID":80636,"DIS_CODE":0,"TOWNNAME":"北門區","LI":"玉港里","LIN":"3鄰","STREET":" ","SECT":" ","MAREA":"灰\u25A0港","LANE":" ","ALLEY":" ","HOUSE_NO":"２５號","E_COORD97":161888.29999999999,"N_COORD97":2573681.96,"ADDRESS":"灰\u25A0港２５號","OBJECTID":80636},"geometry":{"x":161888.30000000075,"y":2573681.9600000028}},{"attributes":{"ID":80637,"DIS_CODE":0,"TOWNNAME":"北門區","LI":"玉港里","LIN":"3鄰","STREET":" ","SECT":" ","MAREA":"灰\u25A0港","LANE":" ","ALLEY":" ","HOUSE_NO":"２６號","E_COORD97":161916.39999999999,"N_COORD97":2573678.54,"ADDRESS":"灰\u25A0港２６號","OBJECTID":80637},"geometry":{"x":161916.40000000037,"y":2573678.5400000028}},{"attributes":{"ID":80638,"DIS_CODE":0,"TOWNNAME":"北門區","LI":"玉港里","LIN":"3鄰","STREET":" ","SECT":" ","MAREA":"灰\u25A0港","LANE":" ","ALLEY":" ","HOUSE_NO":"２７號之１","E_COORD97":162060.91,"N_COORD97":2573681.4700000002,"ADDRESS":"灰\u25A0港２７號之１","OBJECTID":80638},"geometry":{"x":162060.91000000108,"y":2573681.4700000025}},{"attributes":{"ID":80639,"DIS_CODE":0,"TOWNNAME":"北門區","LI":"玉港里","LIN":"3鄰","STREET":" ","SECT":" ","MAREA":"灰\u25A0港","LANE":" ","ALLEY":" ","HOUSE_NO":"２８號之１","E_COORD97":161957.66,"N_COORD97":2573671.6299999999,"ADDRESS":"灰\u25A0港２８號之１","OBJECTID":80639},"geometry":{"x":161957.66000000108,"y":2573671.6300000008}},{"attributes":{"ID":80640,"DIS_CODE":0,"TOWNNAME":"北門區","LI":"玉港里","LIN":"3鄰","STREET":" ","SECT":" ","MAREA":"灰\u25A0港","LANE":" ","ALLEY":" ","HOUSE_NO":"２８號","E_COORD97":161946.06,"N_COORD97":2573684.9199999999,"ADDRESS":"灰\u25A0港２８號","OBJECTID":80640},"geometry":{"x":161946.06000000052,"y":2573684.9200000018}},{"attributes":{"ID":80641,"DIS_CODE":0,"TOWNNAME":"後壁區","LI":"後部里","LIN":"3鄰","STREET":" ","SECT":" ","MAREA":"後部","LANE":" ","ALLEY":" ","HOUSE_NO":"２１號之２","E_COORD97":182135.19,"N_COORD97":2586910.6200000001,"ADDRESS":"後部２１號之２","OBJECTID":80641},"geometry":{"x":182135.19000000134,"y":2586910.6200000029}},{"attributes":{"ID":80642,"DIS_CODE":0,"TOWNNAME":"善化區","LI":"田寮里","LIN":"7鄰","STREET":" ","SECT":" ","MAREA":"六分寮","LANE":" ","ALLEY":" ","HOUSE_NO":"８６號之６","E_COORD97":178508.29000000001,"N_COORD97":2561439.52,"ADDRESS":"六分寮８６號之６","OBJECTID":80642},"geometry":{"x":178508.29000000097,"y":2561439.5199999996}},{"attributes":{"ID":80643,"DIS_CODE":0,"TOWNNAME":"善化區","LI":"胡家里","LIN":"7鄰","STREET":" ","SECT":" ","MAREA":"胡厝寮","LANE":" ","ALLEY":" ","HOUSE_NO":"５３號","E_COORD97":175473.95999999999,"N_COORD97":2560653,"ADDRESS":"胡厝寮５３號","OBJECTID":80643},"geometry":{"x":175473.95999999903,"y":2560653}},{"attributes":{"ID":80644,"DIS_CODE":0,"TOWNNAME":"善化區","LI":"田寮里","LIN":"7鄰","STREET":" ","SECT":" ","MAREA":"六分寮","LANE":" ","ALLEY":" ","HOUSE_NO":"７５號","E_COORD97":178446.57000000001,"N_COORD97":2561376.25,"ADDRESS":"六分寮７５號","OBJECTID":80644},"geometry":{"x":178446.5700000003,"y":2561376.25}},{"attributes":{"ID":80645,"DIS_CODE":0,"TOWNNAME":"善化區","LI":"田寮里","LIN":"7鄰","STREET":" ","SECT":" ","MAREA":"六分寮","LANE":" ","ALLEY":" ","HOUSE_NO":"８６號之１","E_COORD97":178521.10000000001,"N_COORD97":2561391.52,"ADDRESS":"六分寮８６號之１","OBJECTID":80645},"geometry":{"x":178521.10000000056,"y":2561391.5199999996}},{"attributes":{"ID":80646,"DIS_CODE":0,"TOWNNAME":"善化區","LI":"小新里","LIN":"7鄰","STREET":" ","SECT":" ","MAREA":"小新營","LANE":" ","ALLEY":" ","HOUSE_NO":"５２號之１","E_COORD97":179695.35000000001,"N_COORD97":2558318.02,"ADDRESS":"小新營５２號之１","OBJECTID":80646},"geometry":{"x":179695.3499999987,"y":2558318.0200000014}},{"attributes":{"ID":80647,"DIS_CODE":0,"TOWNNAME":"南區","LI":"南華里","LIN":"19鄰","STREET":"中華南路","SECT":"二段","MAREA":" ","LANE":"３００巷","ALLEY":"２弄","HOUSE_NO":"２１號","E_COORD97":166818.45999999999,"N_COORD97":2540299.4199999999,"ADDRESS":"中華南路二段３００巷２弄２１號","OBJECTID":80647},"geometry":{"x":166818.46000000183,"y":2540299.4200000018}},{"attributes":{"ID":80648,"DIS_CODE":0,"TOWNNAME":"善化區","LI":"小新里","LIN":"7鄰","STREET":" ","SECT":" ","MAREA":"小新營","LANE":" ","ALLEY":" ","HOUSE_NO":"５６號之５７","E_COORD97":179501.42999999999,"N_COORD97":2558545.77,"ADDRESS":"小新營５６號之５７","OBJECTID":80648},"geometry":{"x":179501.4299999997,"y":2558545.7699999996}},{"attributes":{"ID":80649,"DIS_CODE":0,"TOWNNAME":"南區","LI":"南華里","LIN":"19鄰","STREET":"中華南路","SECT":"二段","MAREA":" ","LANE":"３００巷","ALLEY":"２弄","HOUSE_NO":"２３號","E_COORD97":166826.60000000001,"N_COORD97":2540298.1299999999,"ADDRESS":"中華南路二段３００巷２弄２３號","OBJECTID":80649},"geometry":{"x":166826.59999999963,"y":2540298.129999999}},{"attributes":{"ID":80650,"DIS_CODE":0,"TOWNNAME":"下營區","LI":"賀建里","LIN":"15鄰","STREET":" ","SECT":" ","MAREA":"洲子","LANE":" ","ALLEY":" ","HOUSE_NO":"３６號","E_COORD97":177317.01000000001,"N_COORD97":2571937.2400000002,"ADDRESS":"洲子３６號","OBJECTID":80650},"geometry":{"x":177317.01000000071,"y":2571937.2400000021}},{"attributes":{"ID":80651,"DIS_CODE":0,"TOWNNAME":"善化區","LI":"小新里","LIN":"7鄰","STREET":" ","SECT":" ","MAREA":"小新營","LANE":" ","ALLEY":" ","HOUSE_NO":"５６號之４５","E_COORD97":179449.45999999999,"N_COORD97":2558515.77,"ADDRESS":"小新營５６號之４５","OBJECTID":80651},"geometry":{"x":179449.46000000089,"y":2558515.7700000033}},{"attributes":{"ID":80652,"DIS_CODE":0,"TOWNNAME":"善化區","LI":"小新里","LIN":"7鄰","STREET":" ","SECT":" ","MAREA":"小新營","LANE":" ","ALLEY":" ","HOUSE_NO":"５６之９１號","E_COORD97":179493.01999999999,"N_COORD97":2558445.27,"ADDRESS":"小新營５６之９１號","OBJECTID":80652},"geometry":{"x":179493.02000000048,"y":2558445.2700000014}},{"attributes":{"ID":80653,"DIS_CODE":0,"TOWNNAME":"善化區","LI":"小新里","LIN":"7鄰","STREET":" ","SECT":" ","MAREA":"小新營","LANE":" ","ALLEY":" ","HOUSE_NO":"５６號之４６","E_COORD97":179470.35000000001,"N_COORD97":2558500.52,"ADDRESS":"小新營５６號之４６","OBJECTID":80653},"geometry":{"x":179470.35000000056,"y":2558500.5200000033}},{"attributes":{"ID":80654,"DIS_CODE":0,"TOWNNAME":"善化區","LI":"小新里","LIN":"7鄰","STREET":" ","SECT":" ","MAREA":"小新營","LANE":" ","ALLEY":" ","HOUSE_NO":"５６號之６２","E_COORD97":179488.13,"N_COORD97":2558502.52,"ADDRESS":"小新營５６號之６２","OBJECTID":80654},"geometry":{"x":179488.12999999989,"y":2558502.5199999996}},{"attributes":{"ID":80655,"DIS_CODE":0,"TOWNNAME":"南區","LI":"南華里","LIN":"19鄰","STREET":"中華南路","SECT":"二段","MAREA":" ","LANE":"３００巷","ALLEY":"２弄","HOUSE_NO":"３號","E_COORD97":166737.13,"N_COORD97":2540310.5,"ADDRESS":"中華南路二段３００巷２弄３號","OBJECTID":80655},"geometry":{"x":166737.12999999989,"y":2540310.5}},{"attributes":{"ID":80656,"DIS_CODE":0,"TOWNNAME":"南區","LI":"南華里","LIN":"19鄰","STREET":"中華南路","SECT":"二段","MAREA":" ","LANE":"３００巷","ALLEY":"２弄","HOUSE_NO":"５號","E_COORD97":166746.17999999999,"N_COORD97":2540309.4900000002,"ADDRESS":"中華南路二段３００巷２弄５號","OBJECTID":80656},"geometry":{"x":166746.18000000063,"y":2540309.4900000021}},{"attributes":{"ID":80657,"DIS_CODE":0,"TOWNNAME":"南區","LI":"南華里","LIN":"19鄰","STREET":"中華南路","SECT":"二段","MAREA":" ","LANE":"３００巷","ALLEY":"２弄","HOUSE_NO":"７號","E_COORD97":166754.67999999999,"N_COORD97":2540308.8399999999,"ADDRESS":"中華南路二段３００巷２弄７號","OBJECTID":80657},"geometry":{"x":166754.68000000063,"y":2540308.8399999999}},{"attributes":{"ID":80658,"DIS_CODE":0,"TOWNNAME":"善化區","LI":"小新里","LIN":"7鄰","STREET":" ","SECT":" ","MAREA":"小新營","LANE":" ","ALLEY":" ","HOUSE_NO":"５６號之７７","E_COORD97":179548.47,"N_COORD97":2558445.52,"ADDRESS":"小新營５６號之７７","OBJECTID":80658},"geometry":{"x":179548.46999999974,"y":2558445.5199999996}},{"attributes":{"ID":80659,"DIS_CODE":0,"TOWNNAME":"安平區","LI":"建平里","LIN":"19鄰","STREET":"怡平路","SECT":" ","MAREA":" ","LANE":"１４０巷","ALLEY":"１７弄","HOUSE_NO":"１６號","E_COORD97":165850.01999999999,"N_COORD97":2543828.3199999998,"ADDRESS":"怡平路１４０巷１７弄１６號","OBJECTID":80659},"geometry":{"x":165850.02000000048,"y":2543828.3200000003}},{"attributes":{"ID":80660,"DIS_CODE":0,"TOWNNAME":"善化區","LI":"小新里","LIN":"7鄰","STREET":" ","SECT":" ","MAREA":"小新營","LANE":" ","ALLEY":" ","HOUSE_NO":"５６號之３９","E_COORD97":179472.85000000001,"N_COORD97":2558509.02,"ADDRESS":"小新營５６號之３９","OBJECTID":80660},"geometry":{"x":179472.84999999963,"y":2558509.0200000014}},{"attributes":{"ID":80661,"DIS_CODE":0,"TOWNNAME":"安平區","LI":"建平里","LIN":"19鄰","STREET":"怡平路","SECT":" ","MAREA":" ","LANE":"１４０巷","ALLEY":"１７弄","HOUSE_NO":"６號","E_COORD97":165877.03,"N_COORD97":2543823.9100000001,"ADDRESS":"怡平路１４０巷１７弄６號","OBJECTID":80661},"geometry":{"x":165877.03000000026,"y":2543823.9100000001}},{"attributes":{"ID":80662,"DIS_CODE":0,"TOWNNAME":"安平區","LI":"建平里","LIN":"19鄰","STREET":"怡平路","SECT":" ","MAREA":" ","LANE":"１４０巷","ALLEY":"１７弄","HOUSE_NO":"８號","E_COORD97":165867.44,"N_COORD97":2543825.3500000001,"ADDRESS":"怡平路１４０巷１７弄８號","OBJECTID":80662},"geometry":{"x":165867.44000000041,"y":2543825.3500000015}},{"attributes":{"ID":80663,"DIS_CODE":0,"TOWNNAME":"善化區","LI":"小新里","LIN":"7鄰","STREET":" ","SECT":" ","MAREA":"小新營","LANE":" ","ALLEY":" ","HOUSE_NO":"５６號之２９","E_COORD97":179468.84,"N_COORD97":2558566.52,"ADDRESS":"小新營５６號之２９","OBJECTID":80663},"geometry":{"x":179468.84000000078,"y":2558566.5200000014}},{"attributes":{"ID":80664,"DIS_CODE":0,"TOWNNAME":"安平區","LI":"建平里","LIN":"19鄰","STREET":"怡平路","SECT":" ","MAREA":" ","LANE":"１４０巷","ALLEY":"２７弄","HOUSE_NO":"１５號","E_COORD97":165856.42000000001,"N_COORD97":2543847.3199999998,"ADDRESS":"怡平路１４０巷２７弄１５號","OBJECTID":80664},"geometry":{"x":165856.42000000086,"y":2543847.3200000022}},{"attributes":{"ID":80665,"DIS_CODE":0,"TOWNNAME":"安平區","LI":"建平里","LIN":"19鄰","STREET":"怡平路","SECT":" ","MAREA":" ","LANE":"１４０巷","ALLEY":"２７弄","HOUSE_NO":"１７號","E_COORD97":165852.04000000001,"N_COORD97":2543848.1600000001,"ADDRESS":"怡平路１４０巷２７弄１７號","OBJECTID":80665},"geometry":{"x":165852.04000000097,"y":2543848.160000002}},{"attributes":{"ID":80666,"DIS_CODE":0,"TOWNNAME":"安平區","LI":"建平里","LIN":"19鄰","STREET":"怡平路","SECT":" ","MAREA":" ","LANE":"１４０巷","ALLEY":"２７弄","HOUSE_NO":"１號","E_COORD97":165893.70999999999,"N_COORD97":2543848.77,"ADDRESS":"怡平路１４０巷２７弄１號","OBJECTID":80666},"geometry":{"x":165893.70999999996,"y":2543848.7699999977}},{"attributes":{"ID":80667,"DIS_CODE":0,"TOWNNAME":"安平區","LI":"建平里","LIN":"19鄰","STREET":"怡平路","SECT":" ","MAREA":" ","LANE":"１４０巷","ALLEY":"２７弄","HOUSE_NO":"５號","E_COORD97":165880.23000000001,"N_COORD97":2543850.1699999999,"ADDRESS":"怡平路１４０巷２７弄５號","OBJECTID":80667},"geometry":{"x":165880.23000000138,"y":2543850.1700000037}},{"attributes":{"ID":80668,"DIS_CODE":0,"TOWNNAME":"安平區","LI":"建平里","LIN":"19鄰","STREET":"怡平路","SECT":" ","MAREA":" ","LANE":"１４０巷","ALLEY":"２７弄","HOUSE_NO":"７號","E_COORD97":165876.03,"N_COORD97":2543850.8700000001,"ADDRESS":"怡平路１４０巷２７弄７號","OBJECTID":80668},"geometry":{"x":165876.03000000119,"y":2543850.8700000029}},{"attributes":{"ID":80669,"DIS_CODE":0,"TOWNNAME":"善化區","LI":"文昌里","LIN":"7鄰","STREET":"文昌路","SECT":" ","MAREA":" ","LANE":" ","ALLEY":" ","HOUSE_NO":"９１號","E_COORD97":177188.34,"N_COORD97":2558680.5299999998,"ADDRESS":"文昌路９１號","OBJECTID":80669},"geometry":{"x":177188.33999999985,"y":2558680.5300000012}},{"attributes":{"ID":80670,"DIS_CODE":0,"TOWNNAME":"善化區","LI":"六分里","LIN":"7鄰","STREET":" ","SECT":" ","MAREA":"溪底寮","LANE":" ","ALLEY":" ","HOUSE_NO":"５號之６","E_COORD97":177977.88,"N_COORD97":2561997.52,"ADDRESS":"溪底寮５號之６","OBJECTID":80670},"geometry":{"x":177977.87999999989,"y":2561997.5200000014}},{"attributes":{"ID":80671,"DIS_CODE":0,"TOWNNAME":"善化區","LI":"小新里","LIN":"7鄰","STREET":" ","SECT":" ","MAREA":"小新營","LANE":" ","ALLEY":" ","HOUSE_NO":"５６之４９號","E_COORD97":179456.45000000001,"N_COORD97":2558504.77,"ADDRESS":"小新營５６之４９號","OBJECTID":80671},"geometry":{"x":179456.45000000205,"y":2558504.7699999996}},{"attributes":{"ID":80672,"DIS_CODE":0,"TOWNNAME":"善化區","LI":"小新里","LIN":"7鄰","STREET":" ","SECT":" ","MAREA":"小新營","LANE":" ","ALLEY":" ","HOUSE_NO":"５６之８３號","E_COORD97":179476.70999999999,"N_COORD97":2558448.02,"ADDRESS":"小新營５６之８３號","OBJECTID":80672},"geometry":{"x":179476.71000000089,"y":2558448.0199999996}},{"attributes":{"ID":80673,"DIS_CODE":0,"TOWNNAME":"善化區","LI":"小新里","LIN":"7鄰","STREET":" ","SECT":" ","MAREA":"小新營","LANE":" ","ALLEY":" ","HOUSE_NO":"５６號之２８","E_COORD97":179484.35000000001,"N_COORD97":2558562.27,"ADDRESS":"小新營５６號之２８","OBJECTID":80673},"geometry":{"x":179484.35000000056,"y":2558562.2699999996}},{"attributes":{"ID":80674,"DIS_CODE":0,"TOWNNAME":"善化區","LI":"小新里","LIN":"7鄰","STREET":" ","SECT":" ","MAREA":"小新營","LANE":" ","ALLEY":" ","HOUSE_NO":"５６號之３３","E_COORD97":179459.56,"N_COORD97":2558546.77,"ADDRESS":"小新營５６號之３３","OBJECTID":80674},"geometry":{"x":179459.55999999959,"y":2558546.7700000014}},{"attributes":{"ID":80675,"DIS_CODE":0,"TOWNNAME":"善化區","LI":"小新里","LIN":"7鄰","STREET":" ","SECT":" ","MAREA":"小新營","LANE":" ","ALLEY":" ","HOUSE_NO":"５６號之３２","E_COORD97":179465.82999999999,"N_COORD97":2558545.02,"ADDRESS":"小新營５６號之３２","OBJECTID":80675},"geometry":{"x":179465.83000000101,"y":2558545.0200000014}},{"attributes":{"ID":80676,"DIS_CODE":0,"TOWNNAME":"安平區","LI":"怡平里","LIN":"19鄰","STREET":"文平路","SECT":" ","MAREA":" ","LANE":"４６１巷","ALLEY":"２１弄","HOUSE_NO":"２９號","E_COORD97":165713.17000000001,"N_COORD97":2543824.5699999998,"ADDRESS":"文平路４６１巷２１弄２９號","OBJECTID":80676},"geometry":{"x":165713.16999999993,"y":2543824.5700000022}},{"attributes":{"ID":80677,"DIS_CODE":0,"TOWNNAME":"善化區","LI":"小新里","LIN":"7鄰","STREET":" ","SECT":" ","MAREA":"小新營","LANE":" ","ALLEY":" ","HOUSE_NO":"５６號之７８","E_COORD97":179553.47,"N_COORD97":2558444.52,"ADDRESS":"小新營５６號之７８","OBJECTID":80677},"geometry":{"x":179553.46999999974,"y":2558444.5200000014}},{"attributes":{"ID":80678,"DIS_CODE":0,"TOWNNAME":"善化區","LI":"小新里","LIN":"7鄰","STREET":" ","SECT":" ","MAREA":"小新營","LANE":" ","ALLEY":" ","HOUSE_NO":"５６之１號","E_COORD97":179579.66,"N_COORD97":2558569.52,"ADDRESS":"小新營５６之１號","OBJECTID":80678},"geometry":{"x":179579.66000000015,"y":2558569.5200000014}},{"attributes":{"ID":80679,"DIS_CODE":0,"TOWNNAME":"善化區","LI":"小新里","LIN":"7鄰","STREET":" ","SECT":" ","MAREA":"小新營","LANE":" ","ALLEY":" ","HOUSE_NO":"５６之８９號","E_COORD97":179474.82999999999,"N_COORD97":2558421.27,"ADDRESS":"小新營５６之８９號","OBJECTID":80679},"geometry":{"x":179474.83000000007,"y":2558421.2700000014}},{"attributes":{"ID":80680,"DIS_CODE":0,"TOWNNAME":"善化區","LI":"小新里","LIN":"7鄰","STREET":" ","SECT":" ","MAREA":"小新營","LANE":" ","ALLEY":" ","HOUSE_NO":"５６號之７３","E_COORD97":179534.35000000001,"N_COORD97":2558450.02,"ADDRESS":"小新營５６號之７３","OBJECTID":80680},"geometry":{"x":179534.35000000149,"y":2558450.0200000014}},{"attributes":{"ID":80681,"DIS_CODE":0,"TOWNNAME":"安平區","LI":"怡平里","LIN":"19鄰","STREET":"文平路","SECT":" ","MAREA":" ","LANE":"４６１巷","ALLEY":"２１弄","HOUSE_NO":"２５號","E_COORD97":165726.39999999999,"N_COORD97":2543823.7400000002,"ADDRESS":"文平路４６１巷２１弄２５號","OBJECTID":80681},"geometry":{"x":165726.4000000013,"y":2543823.7400000021}},{"attributes":{"ID":80682,"DIS_CODE":0,"TOWNNAME":"安平區","LI":"怡平里","LIN":"19鄰","STREET":"文平路","SECT":" ","MAREA":" ","LANE":"４６１巷","ALLEY":"２１弄","HOUSE_NO":"２７號","E_COORD97":165717.19,"N_COORD97":2543824.3999999999,"ADDRESS":"文平路４６１巷２１弄２７號","OBJECTID":80682},"geometry":{"x":165717.19000000227,"y":2543824.4000000004}},{"attributes":{"ID":80683,"DIS_CODE":0,"TOWNNAME":"善化區","LI":"小新里","LIN":"7鄰","STREET":" ","SECT":" ","MAREA":"小新營","LANE":" ","ALLEY":" ","HOUSE_NO":"５６號之７２","E_COORD97":179528.87,"N_COORD97":2558451.27,"ADDRESS":"小新營５６號之７２","OBJECTID":80683},"geometry":{"x":179528.87000000011,"y":2558451.2700000033}},{"attributes":{"ID":80684,"DIS_CODE":0,"TOWNNAME":"善化區","LI":"小新里","LIN":"7鄰","STREET":" ","SECT":" ","MAREA":"小新營","LANE":" ","ALLEY":" ","HOUSE_NO":"５６號之６１","E_COORD97":179490.17000000001,"N_COORD97":2558509.27,"ADDRESS":"小新營５６號之６１","OBJECTID":80684},"geometry":{"x":179490.17000000179,"y":2558509.2700000033}},{"attributes":{"ID":80685,"DIS_CODE":0,"TOWNNAME":"安平區","LI":"怡平里","LIN":"19鄰","STREET":"文平路","SECT":" ","MAREA":" ","LANE":"４６１巷","ALLEY":"２１弄","HOUSE_NO":"３１號","E_COORD97":165708.98999999999,"N_COORD97":2543824.9100000001,"ADDRESS":"文平路４６１巷２１弄３１號","OBJECTID":80685},"geometry":{"x":165708.99000000022,"y":2543824.9100000039}},{"attributes":{"ID":80686,"DIS_CODE":0,"TOWNNAME":"善化區","LI":"六分里","LIN":"7鄰","STREET":" ","SECT":" ","MAREA":"溪底寮","LANE":" ","ALLEY":" ","HOUSE_NO":"５之２號","E_COORD97":177972.56,"N_COORD97":2562012.77,"ADDRESS":"溪底寮５之２號","OBJECTID":80686},"geometry":{"x":177972.55999999959,"y":2562012.7700000014}},{"attributes":{"ID":80687,"DIS_CODE":0,"TOWNNAME":"善化區","LI":"小新里","LIN":"7鄰","STREET":" ","SECT":" ","MAREA":"小新營","LANE":" ","ALLEY":" ","HOUSE_NO":"５６號之５５","E_COORD97":179505.39999999999,"N_COORD97":2558559.27,"ADDRESS":"小新營５６號之５５","OBJECTID":80687},"geometry":{"x":179505.40000000037,"y":2558559.2699999996}},{"attributes":{"ID":80688,"DIS_CODE":0,"TOWNNAME":"善化區","LI":"小新里","LIN":"7鄰","STREET":" ","SECT":" ","MAREA":"小新營","LANE":" ","ALLEY":" ","HOUSE_NO":"５６之６６號","E_COORD97":179478.66,"N_COORD97":2558462.27,"ADDRESS":"小新營５６之６６號","OBJECTID":80688},"geometry":{"x":179478.66000000201,"y":2558462.2700000014}},{"attributes":{"ID":80689,"DIS_CODE":0,"TOWNNAME":"安平區","LI":"怡平里","LIN":"19鄰","STREET":"文平路","SECT":" ","MAREA":" ","LANE":"４６１巷","ALLEY":"２１弄","HOUSE_NO":"３３號","E_COORD97":165704.97,"N_COORD97":2543825.9100000001,"ADDRESS":"文平路４６１巷２１弄３３號","OBJECTID":80689},"geometry":{"x":165704.97000000067,"y":2543825.910000002}},{"attributes":{"ID":80690,"DIS_CODE":0,"TOWNNAME":"善化區","LI":"小新里","LIN":"7鄰","STREET":" ","SECT":" ","MAREA":"小新營","LANE":" ","ALLEY":" ","HOUSE_NO":"５６號之５２","E_COORD97":179509.57999999999,"N_COORD97":2558573.52,"ADDRESS":"小新營５６號之５２","OBJECTID":80690},"geometry":{"x":179509.58000000194,"y":2558573.5199999996}},{"attributes":{"ID":80691,"DIS_CODE":0,"TOWNNAME":"安平區","LI":"怡平里","LIN":"19鄰","STREET":"文平路","SECT":" ","MAREA":" ","LANE":"４６１巷","ALLEY":"２１弄","HOUSE_NO":"３５號","E_COORD97":165700.60999999999,"N_COORD97":2543826.2400000002,"ADDRESS":"文平路４６１巷２１弄３５號","OBJECTID":80691},"geometry":{"x":165700.6100000022,"y":2543826.2400000039}},{"attributes":{"ID":80692,"DIS_CODE":0,"TOWNNAME":"安平區","LI":"怡平里","LIN":"19鄰","STREET":"文平路","SECT":" ","MAREA":" ","LANE":"４６１巷","ALLEY":"２１弄","HOUSE_NO":"３７號","E_COORD97":165696.42999999999,"N_COORD97":2543826.75,"ADDRESS":"文平路４６１巷２１弄３７號","OBJECTID":80692},"geometry":{"x":165696.43000000063,"y":2543826.7500000019}},{"attributes":{"ID":80693,"DIS_CODE":0,"TOWNNAME":"善化區","LI":"小新里","LIN":"7鄰","STREET":" ","SECT":" ","MAREA":"小新營","LANE":" ","ALLEY":" ","HOUSE_NO":"５６號之３６","E_COORD97":179472.26000000001,"N_COORD97":2558532.52,"ADDRESS":"小新營５６號之３６","OBJECTID":80693},"geometry":{"x":179472.25999999978,"y":2558532.5200000014}},{"attributes":{"ID":80694,"DIS_CODE":0,"TOWNNAME":"安平區","LI":"怡平里","LIN":"19鄰","STREET":"文平路","SECT":" ","MAREA":" ","LANE":"４６１巷","ALLEY":"２１弄","HOUSE_NO":"３９號","E_COORD97":165693.23999999999,"N_COORD97":2543827.25,"ADDRESS":"文平路４６１巷２１弄３９號","OBJECTID":80694},"geometry":{"x":165693.24000000115,"y":2543827.2500000019}},{"attributes":{"ID":80695,"DIS_CODE":0,"TOWNNAME":"善化區","LI":"小新里","LIN":"7鄰","STREET":" ","SECT":" ","MAREA":"小新營","LANE":" ","ALLEY":" ","HOUSE_NO":"５６號之４０","E_COORD97":179468.04000000001,"N_COORD97":2558510.52,"ADDRESS":"小新營５６號之４０","OBJECTID":80695},"geometry":{"x":179468.04000000097,"y":2558510.5199999977}},{"attributes":{"ID":80696,"DIS_CODE":0,"TOWNNAME":"善化區","LI":"小新里","LIN":"7鄰","STREET":" ","SECT":" ","MAREA":"小新營","LANE":" ","ALLEY":" ","HOUSE_NO":"５６之９５號","E_COORD97":179511.73999999999,"N_COORD97":2558443.02,"ADDRESS":"小新營５６之９５號","OBJECTID":80696},"geometry":{"x":179511.74000000022,"y":2558443.0200000033}},{"attributes":{"ID":80697,"DIS_CODE":0,"TOWNNAME":"安平區","LI":"怡平里","LIN":"19鄰","STREET":"文平路","SECT":" ","MAREA":" ","LANE":"４６１巷","ALLEY":"２１弄","HOUSE_NO":"４９號","E_COORD97":165671.14000000001,"N_COORD97":2543831.4300000002,"ADDRESS":"文平路４６１巷２１弄４９號","OBJECTID":80697},"geometry":{"x":165671.1400000006,"y":2543831.4300000016}},{"attributes":{"ID":80698,"DIS_CODE":0,"TOWNNAME":"善化區","LI":"六德里","LIN":"7鄰","STREET":" ","SECT":" ","MAREA":"六分寮","LANE":" ","ALLEY":" ","HOUSE_NO":"２５８號","E_COORD97":178732.95999999999,"N_COORD97":2561615,"ADDRESS":"六分寮２５８號","OBJECTID":80698},"geometry":{"x":178732.96000000089,"y":2561615.0000000019}},{"attributes":{"ID":80699,"DIS_CODE":0,"TOWNNAME":"北區","LI":"文成里","LIN":"19鄰","STREET":"文賢路","SECT":" ","MAREA":" ","LANE":"２４２巷","ALLEY":"７２弄","HOUSE_NO":"１號","E_COORD97":167552.42000000001,"N_COORD97":2545056.8700000001,"ADDRESS":"文賢路２４２巷７２弄１號","OBJECTID":80699},"geometry":{"x":167552.41999999993,"y":2545056.8700000048}},{"attributes":{"ID":80700,"DIS_CODE":0,"TOWNNAME":"北區","LI":"文成里","LIN":"19鄰","STREET":"文賢路","SECT":" ","MAREA":" ","LANE":"２４２巷","ALLEY":"７２弄","HOUSE_NO":"３號","E_COORD97":167551.28,"N_COORD97":2545050.1400000001,"ADDRESS":"文賢路２４２巷７２弄３號","OBJECTID":80700},"geometry":{"x":167551.28000000119,"y":2545050.1400000006}},{"attributes":{"ID":80701,"DIS_CODE":0,"TOWNNAME":"北區","LI":"文成里","LIN":"19鄰","STREET":"文賢路","SECT":" ","MAREA":" ","LANE":"２４２巷","ALLEY":"７２弄","HOUSE_NO":"５號","E_COORD97":167550.13,"N_COORD97":2545042.8999999999,"ADDRESS":"文賢路２４２巷７２弄５號","OBJECTID":80701},"geometry":{"x":167550.13000000082,"y":2545042.9000000022}},{"attributes":{"ID":80702,"DIS_CODE":0,"TOWNNAME":"北區","LI":"文成里","LIN":"19鄰","STREET":"文賢路","SECT":" ","MAREA":" ","LANE":"２４２巷","ALLEY":"７２弄","HOUSE_NO":"７號","E_COORD97":167548.98999999999,"N_COORD97":2545034.8999999999,"ADDRESS":"文賢路２４２巷７２弄７號","OBJECTID":80702},"geometry":{"x":167548.98999999929,"y":2545034.9000000004}},{"attributes":{"ID":80703,"DIS_CODE":0,"TOWNNAME":"北區","LI":"文元里","LIN":"19鄰","STREET":"文賢路","SECT":" ","MAREA":" ","LANE":"１０３０巷","ALLEY":"３８弄","HOUSE_NO":"１號","E_COORD97":167495.85999999999,"N_COORD97":2546041.2400000002,"ADDRESS":"文賢路１０３０巷３８弄１號","OBJECTID":80703},"geometry":{"x":167495.8600000022,"y":2546041.2400000021}},{"attributes":{"ID":80704,"DIS_CODE":0,"TOWNNAME":"北區","LI":"文元里","LIN":"19鄰","STREET":"文賢路","SECT":" ","MAREA":" ","LANE":"１０３０巷","ALLEY":"３８弄","HOUSE_NO":"３號","E_COORD97":167496.20999999999,"N_COORD97":2546038.1000000001,"ADDRESS":"文賢路１０３０巷３８弄３號","OBJECTID":80704},"geometry":{"x":167496.20999999996,"y":2546038.1000000015}},{"attributes":{"ID":80705,"DIS_CODE":0,"TOWNNAME":"北區","LI":"文元里","LIN":"19鄰","STREET":"文賢路","SECT":" ","MAREA":" ","LANE":"１０３０巷","ALLEY":"４８弄","HOUSE_NO":"１號","E_COORD97":167511.16,"N_COORD97":2546042.1000000001,"ADDRESS":"文賢路１０３０巷４８弄１號","OBJECTID":80705},"geometry":{"x":167511.16000000108,"y":2546042.1000000015}},{"attributes":{"ID":80706,"DIS_CODE":0,"TOWNNAME":"善化區","LI":"小新里","LIN":"7鄰","STREET":" ","SECT":" ","MAREA":"小新營","LANE":" ","ALLEY":" ","HOUSE_NO":"５６之９７號","E_COORD97":179494.88,"N_COORD97":2558426.52,"ADDRESS":"小新營５６之９７號","OBJECTID":80706},"geometry":{"x":179494.87999999989,"y":2558426.5200000014}},{"attributes":{"ID":80707,"DIS_CODE":0,"TOWNNAME":"中西區","LI":"小西里","LIN":"7鄰","STREET":"西門路","SECT":"一段","MAREA":" ","LANE":"７３４巷","ALLEY":"１６弄","HOUSE_NO":"８號","E_COORD97":167825.20000000001,"N_COORD97":2543322.9900000002,"ADDRESS":"西門路一段７３４巷１６弄８號","OBJECTID":80707},"geometry":{"x":167825.20000000019,"y":2543322.9900000039}},{"attributes":{"ID":80708,"DIS_CODE":0,"TOWNNAME":"安平區","LI":"建平里","LIN":"19鄰","STREET":"怡平路","SECT":" ","MAREA":" ","LANE":"１４０巷","ALLEY":"１７弄","HOUSE_NO":"１號","E_COORD97":165878.48999999999,"N_COORD97":2543803.3399999999,"ADDRESS":"怡平路１４０巷１７弄１號","OBJECTID":80708},"geometry":{"x":165878.49000000022,"y":2543803.3399999999}},{"attributes":{"ID":80709,"DIS_CODE":0,"TOWNNAME":"善化區","LI":"小新里","LIN":"7鄰","STREET":" ","SECT":" ","MAREA":"小新營","LANE":" ","ALLEY":" ","HOUSE_NO":"５６之７１號","E_COORD97":179511.82000000001,"N_COORD97":2558455.27,"ADDRESS":"小新營５６之７１號","OBJECTID":80709},"geometry":{"x":179511.82000000123,"y":2558455.2700000014}},{"attributes":{"ID":80710,"DIS_CODE":0,"TOWNNAME":"安平區","LI":"建平里","LIN":"19鄰","STREET":"怡平路","SECT":" ","MAREA":" ","LANE":"１４０巷","ALLEY":"１７弄","HOUSE_NO":"３號","E_COORD97":165856.32999999999,"N_COORD97":2543806.5699999998,"ADDRESS":"怡平路１４０巷１７弄３號","OBJECTID":80710},"geometry":{"x":165856.33000000007,"y":2543806.5700000003}},{"attributes":{"ID":80711,"DIS_CODE":0,"TOWNNAME":"安平區","LI":"建平里","LIN":"19鄰","STREET":"怡平路","SECT":" ","MAREA":" ","LANE":"１４０巷","ALLEY":"１７弄","HOUSE_NO":"５號","E_COORD97":165842.75,"N_COORD97":2543808.8399999999,"ADDRESS":"怡平路１４０巷１７弄５號","OBJECTID":80711},"geometry":{"x":165842.75,"y":2543808.8400000017}},{"attributes":{"ID":80712,"DIS_CODE":0,"TOWNNAME":"南區","LI":"日新里","LIN":"1鄰","STREET":"利南街","SECT":" ","MAREA":" ","LANE":" ","ALLEY":" ","HOUSE_NO":"２６號","E_COORD97":166892.04999999999,"N_COORD97":2541110.3500000001,"ADDRESS":"利南街２６號","OBJECTID":80712},"geometry":{"x":166892.04999999981,"y":2541110.3500000015}},{"attributes":{"ID":80713,"DIS_CODE":0,"TOWNNAME":"南區","LI":"日新里","LIN":" ","STREET":"鹽埕路","SECT":" ","MAREA":" ","LANE":" ","ALLEY":" ","HOUSE_NO":"２４６號","E_COORD97":166914.25,"N_COORD97":2541178.2799999998,"ADDRESS":"鹽埕路２４６號","OBJECTID":80713},"geometry":{"x":166914.25,"y":2541178.2800000012}},{"attributes":{"ID":80714,"DIS_CODE":0,"TOWNNAME":"南區","LI":"日新里","LIN":" ","STREET":"鹽埕路","SECT":" ","MAREA":" ","LANE":" ","ALLEY":" ","HOUSE_NO":"２２３號","E_COORD97":166880.60000000001,"N_COORD97":2541192.29,"ADDRESS":"鹽埕路２２３號","OBJECTID":80714},"geometry":{"x":166880.60000000056,"y":2541192.2899999991}},{"attributes":{"ID":80715,"DIS_CODE":0,"TOWNNAME":"南區","LI":"日新里","LIN":" ","STREET":"鹽埕路","SECT":" ","MAREA":" ","LANE":" ","ALLEY":" ","HOUSE_NO":"２０３號","E_COORD97":166871.85999999999,"N_COORD97":2541145.0499999998,"ADDRESS":"鹽埕路２０３號","OBJECTID":80715},"geometry":{"x":166871.86000000034,"y":2541145.0500000007}},{"attributes":{"ID":80716,"DIS_CODE":0,"TOWNNAME":"南區","LI":"日新里","LIN":" ","STREET":"鹽埕路","SECT":" ","MAREA":" ","LANE":" ","ALLEY":" ","HOUSE_NO":"２０７號","E_COORD97":166878.51000000001,"N_COORD97":2541153.4900000002,"ADDRESS":"鹽埕路２０７號","OBJECTID":80716},"geometry":{"x":166878.50999999978,"y":2541153.4900000021}},{"attributes":{"ID":80717,"DIS_CODE":0,"TOWNNAME":"南區","LI":"日新里","LIN":" ","STREET":"鹽埕路","SECT":" ","MAREA":" ","LANE":" ","ALLEY":" ","HOUSE_NO":"２０９號","E_COORD97":166881.84,"N_COORD97":2541156.2799999998,"ADDRESS":"鹽埕路２０９號","OBJECTID":80717},"geometry":{"x":166881.84000000171,"y":2541156.2799999993}},{"attributes":{"ID":80718,"DIS_CODE":0,"TOWNNAME":"南區","LI":"日新里","LIN":" ","STREET":"鹽埕路","SECT":" ","MAREA":" ","LANE":" ","ALLEY":" ","HOUSE_NO":"２１０號","E_COORD97":166880.22,"N_COORD97":2541118.21,"ADDRESS":"鹽埕路２１０號","OBJECTID":80718},"geometry":{"x":166880.21999999974,"y":2541118.2100000046}},{"attributes":{"ID":80719,"DIS_CODE":0,"TOWNNAME":"南區","LI":"日新里","LIN":" ","STREET":"鹽埕路","SECT":" ","MAREA":" ","LANE":" ","ALLEY":" ","HOUSE_NO":"２１１號","E_COORD97":166883.10000000001,"N_COORD97":2541160.1400000001,"ADDRESS":"鹽埕路２１１號","OBJECTID":80719},"geometry":{"x":166883.0999999987,"y":2541160.1400000025}},{"attributes":{"ID":80720,"DIS_CODE":0,"TOWNNAME":"南區","LI":"日新里","LIN":" ","STREET":"鹽埕路","SECT":" ","MAREA":" ","LANE":" ","ALLEY":" ","HOUSE_NO":"２１２號","E_COORD97":166881.23000000001,"N_COORD97":2541123.6800000002,"ADDRESS":"鹽埕路２１２號","OBJECTID":80720},"geometry":{"x":166881.23000000045,"y":2541123.6799999978}},{"attributes":{"ID":80721,"DIS_CODE":0,"TOWNNAME":"南區","LI":"日新里","LIN":" ","STREET":"鹽埕路","SECT":" ","MAREA":" ","LANE":" ","ALLEY":" ","HOUSE_NO":"２１３號","E_COORD97":166885.79000000001,"N_COORD97":2541163.0099999998,"ADDRESS":"鹽埕路２１３號","OBJECTID":80721},"geometry":{"x":166885.7900000019,"y":2541163.0100000016}},{"attributes":{"ID":80722,"DIS_CODE":0,"TOWNNAME":"大內區","LI":"頭社里","LIN":"7鄰","STREET":" ","SECT":" ","MAREA":"頭社","LANE":" ","ALLEY":" ","HOUSE_NO":"８７號","E_COORD97":186607.44,"N_COORD97":2561163.25,"ADDRESS":"頭社８７號","OBJECTID":80722},"geometry":{"x":186607.44000000134,"y":2561163.25}},{"attributes":{"ID":80723,"DIS_CODE":0,"TOWNNAME":"安平區","LI":"建平里","LIN":"19鄰","STREET":"怡平路","SECT":" ","MAREA":" ","LANE":"１４０巷","ALLEY":"１７弄","HOUSE_NO":"７號","E_COORD97":165832.56,"N_COORD97":2543810.4500000002,"ADDRESS":"怡平路１４０巷１７弄７號","OBJECTID":80723},"geometry":{"x":165832.56000000052,"y":2543810.450000003}},{"attributes":{"ID":80724,"DIS_CODE":0,"TOWNNAME":"大內區","LI":"環湖里","LIN":"7鄰","STREET":" ","SECT":" ","MAREA":"環湖","LANE":" ","ALLEY":" ","HOUSE_NO":"９１號之４","E_COORD97":190341.29999999999,"N_COORD97":2560661.2999999998,"ADDRESS":"環湖９１號之４","OBJECTID":80724},"geometry":{"x":190341.29999999981,"y":2560661.3000000007}},{"attributes":{"ID":80725,"DIS_CODE":0,"TOWNNAME":"新營區","LI":"新東里","LIN":"19鄰","STREET":"東學路","SECT":" ","MAREA":" ","LANE":"８０巷","ALLEY":"８弄","HOUSE_NO":"５號","E_COORD97":180872.29000000001,"N_COORD97":2579266.3100000001,"ADDRESS":"東學路８０巷８弄５號","OBJECTID":80725},"geometry":{"x":180872.29000000004,"y":2579266.3100000024}},{"attributes":{"ID":80726,"DIS_CODE":0,"TOWNNAME":"中西區","LI":"福安里","LIN":"1鄰","STREET":"府前路","SECT":"一段","MAREA":" ","LANE":"３０４巷","ALLEY":"１５弄","HOUSE_NO":"１０號","E_COORD97":167837.54999999999,"N_COORD97":2543504.0499999998,"ADDRESS":"府前路一段３０４巷１５弄１０號","OBJECTID":80726},"geometry":{"x":167837.54999999981,"y":2543504.0500000026}},{"attributes":{"ID":80727,"DIS_CODE":0,"TOWNNAME":"北區","LI":"力行里","LIN":"19鄰","STREET":"開元路","SECT":" ","MAREA":" ","LANE":"４４２巷","ALLEY":"５１弄","HOUSE_NO":"１８號","E_COORD97":170888.73999999999,"N_COORD97":2545565.2000000002,"ADDRESS":"開元路４４２巷５１弄１８號","OBJECTID":80727},"geometry":{"x":170888.74000000209,"y":2545565.2000000011}},{"attributes":{"ID":80728,"DIS_CODE":0,"TOWNNAME":"北區","LI":"力行里","LIN":"19鄰","STREET":"開元路","SECT":" ","MAREA":" ","LANE":"４４２巷","ALLEY":"５１弄","HOUSE_NO":"２０號","E_COORD97":170892.48000000001,"N_COORD97":2545566.9700000002,"ADDRESS":"開元路４４２巷５１弄２０號","OBJECTID":80728},"geometry":{"x":170892.48000000138,"y":2545566.9700000007}},{"attributes":{"ID":80729,"DIS_CODE":0,"TOWNNAME":"後壁區","LI":"後部里","LIN":"3鄰","STREET":" ","SECT":" ","MAREA":"後部","LANE":" ","ALLEY":" ","HOUSE_NO":"２４號之１","E_COORD97":182081.10000000001,"N_COORD97":2586903.1299999999,"ADDRESS":"後部２４號之１","OBJECTID":80729},"geometry":{"x":182081.10000000056,"y":2586903.129999999}},{"attributes":{"ID":80730,"DIS_CODE":0,"TOWNNAME":"北區","LI":"力行里","LIN":"19鄰","STREET":"開元路","SECT":" ","MAREA":" ","LANE":"４４２巷","ALLEY":"５１弄","HOUSE_NO":"２２號","E_COORD97":170896.60000000001,"N_COORD97":2545568.5299999998,"ADDRESS":"開元路４４２巷５１弄２２號","OBJECTID":80730},"geometry":{"x":170896.59999999963,"y":2545568.5299999993}},{"attributes":{"ID":80731,"DIS_CODE":0,"TOWNNAME":"北區","LI":"力行里","LIN":"19鄰","STREET":"開元路","SECT":" ","MAREA":" ","LANE":"４４２巷","ALLEY":"５１弄","HOUSE_NO":"２４號","E_COORD97":170900.92000000001,"N_COORD97":2545570.1000000001,"ADDRESS":"開元路４４２巷５１弄２４號","OBJECTID":80731},"geometry":{"x":170900.92000000086,"y":2545570.1000000015}},{"attributes":{"ID":80732,"DIS_CODE":0,"TOWNNAME":"北區","LI":"力行里","LIN":"19鄰","STREET":"開元路","SECT":" ","MAREA":" ","LANE":"４４２巷","ALLEY":"５１弄","HOUSE_NO":"２６號","E_COORD97":170905.04999999999,"N_COORD97":2545572.0699999998,"ADDRESS":"開元路４４２巷５１弄２６號","OBJECTID":80732},"geometry":{"x":170905.05000000075,"y":2545572.0700000003}},{"attributes":{"ID":80733,"DIS_CODE":0,"TOWNNAME":"北區","LI":"力行里","LIN":"19鄰","STREET":"開元路","SECT":" ","MAREA":" ","LANE":"４４２巷","ALLEY":"５１弄","HOUSE_NO":"２８號","E_COORD97":170908.39000000001,"N_COORD97":2545573.6400000001,"ADDRESS":"開元路４４２巷５１弄２８號","OBJECTID":80733},"geometry":{"x":170908.38999999966,"y":2545573.6400000025}},{"attributes":{"ID":80734,"DIS_CODE":0,"TOWNNAME":"中西區","LI":"福安里","LIN":"1鄰","STREET":"府前路","SECT":"一段","MAREA":" ","LANE":"３０４巷","ALLEY":"１５弄","HOUSE_NO":"１２號","E_COORD97":167832.5,"N_COORD97":2543504.8399999999,"ADDRESS":"府前路一段３０４巷１５弄１２號","OBJECTID":80734},"geometry":{"x":167832.50000000093,"y":2543504.8399999999}},{"attributes":{"ID":80735,"DIS_CODE":0,"TOWNNAME":"中西區","LI":"福安里","LIN":"1鄰","STREET":"府前路","SECT":"一段","MAREA":" ","LANE":"３０４巷","ALLEY":"１５弄","HOUSE_NO":"２號","E_COORD97":167862.51000000001,"N_COORD97":2543499.75,"ADDRESS":"府前路一段３０４巷１５弄２號","OBJECTID":80735},"geometry":{"x":167862.51000000071,"y":2543499.75}},{"attributes":{"ID":80736,"DIS_CODE":0,"TOWNNAME":"東區","LI":"仁和里","LIN":"7鄰","STREET":"仁和路","SECT":" ","MAREA":" ","LANE":" ","ALLEY":" ","HOUSE_NO":"１２９號","E_COORD97":171481.79999999999,"N_COORD97":2541135.3999999999,"ADDRESS":"仁和路１２９號","OBJECTID":80736},"geometry":{"x":171481.80000000075,"y":2541135.4000000004}},{"attributes":{"ID":80737,"DIS_CODE":0,"TOWNNAME":"東區","LI":"小東里","LIN":"7鄰","STREET":"東平路","SECT":" ","MAREA":" ","LANE":" ","ALLEY":" ","HOUSE_NO":"１６６號","E_COORD97":170973.25,"N_COORD97":2543995.48,"ADDRESS":"東平路１６６號","OBJECTID":80737},"geometry":{"x":170973.25000000093,"y":2543995.4800000023}},{"attributes":{"ID":80738,"DIS_CODE":0,"TOWNNAME":"東區","LI":"小東里","LIN":"7鄰","STREET":"東平路","SECT":" ","MAREA":" ","LANE":" ","ALLEY":" ","HOUSE_NO":"１４２號","E_COORD97":171024.76999999999,"N_COORD97":2543989.0099999998,"ADDRESS":"東平路１４２號","OBJECTID":80738},"geometry":{"x":171024.76999999955,"y":2543989.0099999998}},{"attributes":{"ID":80739,"DIS_CODE":0,"TOWNNAME":"東區","LI":"小東里","LIN":"7鄰","STREET":"東平路","SECT":" ","MAREA":" ","LANE":" ","ALLEY":" ","HOUSE_NO":"１５２號","E_COORD97":171005.10000000001,"N_COORD97":2543992.1200000001,"ADDRESS":"東平路１５２號","OBJECTID":80739},"geometry":{"x":171005.09999999963,"y":2543992.1200000029}},{"attributes":{"ID":80740,"DIS_CODE":0,"TOWNNAME":"東區","LI":"小東里","LIN":"7鄰","STREET":"東平路","SECT":" ","MAREA":" ","LANE":" ","ALLEY":" ","HOUSE_NO":"１５４號","E_COORD97":171000.44,"N_COORD97":2543992.8900000001,"ADDRESS":"東平路１５４號","OBJECTID":80740},"geometry":{"x":171000.44000000041,"y":2543992.8900000025}},{"attributes":{"ID":80741,"DIS_CODE":0,"TOWNNAME":"東區","LI":"仁和里","LIN":"7鄰","STREET":"仁和路","SECT":" ","MAREA":" ","LANE":" ","ALLEY":" ","HOUSE_NO":"１１５號之９","E_COORD97":171412.79000000001,"N_COORD97":2541244.3799999999,"ADDRESS":"仁和路１１５號之９","OBJECTID":80741},"geometry":{"x":171412.79000000004,"y":2541244.3800000008}},{"attributes":{"ID":80742,"DIS_CODE":0,"TOWNNAME":"後壁區","LI":"後部里","LIN":"3鄰","STREET":" ","SECT":" ","MAREA":"後部","LANE":" ","ALLEY":" ","HOUSE_NO":"２６號","E_COORD97":182089.54000000001,"N_COORD97":2586873.27,"ADDRESS":"後部２６號","OBJECTID":80742},"geometry":{"x":182089.54000000004,"y":2586873.2700000014}},{"attributes":{"ID":80743,"DIS_CODE":0,"TOWNNAME":"後壁區","LI":"後部里","LIN":"3鄰","STREET":" ","SECT":" ","MAREA":"後部","LANE":" ","ALLEY":" ","HOUSE_NO":"２７號","E_COORD97":182115.69,"N_COORD97":2586866.7799999998,"ADDRESS":"後部２７號","OBJECTID":80743},"geometry":{"x":182115.69000000041,"y":2586866.7800000012}},{"attributes":{"ID":80744,"DIS_CODE":0,"TOWNNAME":"佳里區","LI":"海澄里","LIN":"3鄰","STREET":" ","SECT":" ","MAREA":"萊竿寮","LANE":" ","ALLEY":" ","HOUSE_NO":"１９號","E_COORD97":165385.67000000001,"N_COORD97":2564565.8399999999,"ADDRESS":"萊竿寮１９號","OBJECTID":80744},"geometry":{"x":165385.66999999993,"y":2564565.8399999999}},{"attributes":{"ID":80745,"DIS_CODE":0,"TOWNNAME":"中西區","LI":"福安里","LIN":"1鄰","STREET":"府前路","SECT":"一段","MAREA":" ","LANE":"３０４巷","ALLEY":"１５弄","HOUSE_NO":"６號","E_COORD97":167861.66,"N_COORD97":2543504.8500000001,"ADDRESS":"府前路一段３０４巷１５弄６號","OBJECTID":80745},"geometry":{"x":167861.66000000108,"y":2543504.8499999996}},{"attributes":{"ID":80746,"DIS_CODE":0,"TOWNNAME":"中西區","LI":"福安里","LIN":"1鄰","STREET":"府前路","SECT":"一段","MAREA":" ","LANE":"３０４巷","ALLEY":"１５弄","HOUSE_NO":"８號","E_COORD97":167843.26999999999,"N_COORD97":2543504.4399999999,"ADDRESS":"府前路一段３０４巷１５弄８號","OBJECTID":80746},"geometry":{"x":167843.27000000142,"y":2543504.4399999995}},{"attributes":{"ID":80747,"DIS_CODE":0,"TOWNNAME":"北區","LI":"力行里","LIN":"19鄰","STREET":"開元路","SECT":" ","MAREA":" ","LANE":"４４２巷","ALLEY":"５１弄","HOUSE_NO":"３０號","E_COORD97":170913.10000000001,"N_COORD97":2545575.3999999999,"ADDRESS":"開元路４４２巷５１弄３０號","OBJECTID":80747},"geometry":{"x":170913.10000000056,"y":2545575.4000000022}},{"attributes":{"ID":80748,"DIS_CODE":0,"TOWNNAME":"安平區","LI":"平安里","LIN":"19鄰","STREET":"安平路","SECT":" ","MAREA":" ","LANE":"６０６巷","ALLEY":"３５弄","HOUSE_NO":"２９號","E_COORD97":164796.94,"N_COORD97":2544541.0299999998,"ADDRESS":"安平路６０６巷３５弄２９號","OBJECTID":80748},"geometry":{"x":164796.94000000134,"y":2544541.0299999993}},{"attributes":{"ID":80749,"DIS_CODE":0,"TOWNNAME":"安平區","LI":"平安里","LIN":"19鄰","STREET":"安平路","SECT":" ","MAREA":" ","LANE":"６０６巷","ALLEY":"３５弄","HOUSE_NO":"２９號之４","E_COORD97":164781.64000000001,"N_COORD97":2544545.4700000002,"ADDRESS":"安平路６０６巷３５弄２９號之４","OBJECTID":80749},"geometry":{"x":164781.6400000006,"y":2544545.4700000025}},{"attributes":{"ID":80750,"DIS_CODE":0,"TOWNNAME":"安平區","LI":"平安里","LIN":"19鄰","STREET":"安平路","SECT":" ","MAREA":" ","LANE":"６０６巷","ALLEY":"３５弄","HOUSE_NO":"２９號之５","E_COORD97":164777.95999999999,"N_COORD97":2544547.1499999999,"ADDRESS":"安平路６０６巷３５弄２９號之５","OBJECTID":80750},"geometry":{"x":164777.96000000089,"y":2544547.1500000022}},{"attributes":{"ID":80751,"DIS_CODE":0,"TOWNNAME":"安平區","LI":"平安里","LIN":"19鄰","STREET":"安平路","SECT":" ","MAREA":" ","LANE":"６０６巷","ALLEY":"３５弄","HOUSE_NO":"２號","E_COORD97":164849.20000000001,"N_COORD97":2544538,"ADDRESS":"安平路６０６巷３５弄２號","OBJECTID":80751},"geometry":{"x":164849.20000000112,"y":2544538}},{"attributes":{"ID":80752,"DIS_CODE":0,"TOWNNAME":"安平區","LI":"平安里","LIN":"19鄰","STREET":"安平路","SECT":" ","MAREA":" ","LANE":"６０６巷","ALLEY":"３５弄","HOUSE_NO":"３０號","E_COORD97":164791.73999999999,"N_COORD97":2544557.1000000001,"ADDRESS":"安平路６０６巷３５弄３０號","OBJECTID":80752},"geometry":{"x":164791.74000000115,"y":2544557.1000000015}},{"attributes":{"ID":80753,"DIS_CODE":0,"TOWNNAME":"安平區","LI":"平安里","LIN":"19鄰","STREET":"安平路","SECT":" ","MAREA":" ","LANE":"６０６巷","ALLEY":"３５弄","HOUSE_NO":"３１號","E_COORD97":164817.85000000001,"N_COORD97":2544520.4700000002,"ADDRESS":"安平路６０６巷３５弄３１號","OBJECTID":80753},"geometry":{"x":164817.84999999963,"y":2544520.4700000025}},{"attributes":{"ID":80754,"DIS_CODE":0,"TOWNNAME":"安平區","LI":"平安里","LIN":"19鄰","STREET":"安平路","SECT":" ","MAREA":" ","LANE":"６０６巷","ALLEY":"３５弄","HOUSE_NO":"３２號","E_COORD97":164787.45000000001,"N_COORD97":2544558.6299999999,"ADDRESS":"安平路６０６巷３５弄３２號","OBJECTID":80754},"geometry":{"x":164787.45000000019,"y":2544558.6300000008}},{"attributes":{"ID":80755,"DIS_CODE":0,"TOWNNAME":"安平區","LI":"平安里","LIN":"19鄰","STREET":"安平路","SECT":" ","MAREA":" ","LANE":"６０６巷","ALLEY":"３５弄","HOUSE_NO":"３３號","E_COORD97":164810.64999999999,"N_COORD97":2544522.3799999999,"ADDRESS":"安平路６０６巷３５弄３３號","OBJECTID":80755},"geometry":{"x":164810.6500000013,"y":2544522.3800000027}},{"attributes":{"ID":80756,"DIS_CODE":0,"TOWNNAME":"安平區","LI":"平安里","LIN":"19鄰","STREET":"安平路","SECT":" ","MAREA":" ","LANE":"６０６巷","ALLEY":"３５弄","HOUSE_NO":"３５號","E_COORD97":164804.92999999999,"N_COORD97":2544524.2799999998,"ADDRESS":"安平路６０６巷３５弄３５號","OBJECTID":80756},"geometry":{"x":164804.93000000063,"y":2544524.2800000012}},{"attributes":{"ID":80757,"DIS_CODE":0,"TOWNNAME":"安平區","LI":"平安里","LIN":"19鄰","STREET":"安平路","SECT":" ","MAREA":" ","LANE":"６０６巷","ALLEY":"３５弄","HOUSE_NO":"３７號","E_COORD97":164797.73000000001,"N_COORD97":2544526.1899999999,"ADDRESS":"安平路６０６巷３５弄３７號","OBJECTID":80757},"geometry":{"x":164797.73000000045,"y":2544526.1899999995}},{"attributes":{"ID":80758,"DIS_CODE":0,"TOWNNAME":"歸仁區","LI":"歸南里","LIN":"19鄰","STREET":"民生八街","SECT":" ","MAREA":" ","LANE":"２８巷","ALLEY":"１弄","HOUSE_NO":"５３號","E_COORD97":176002.76000000001,"N_COORD97":2540377.25,"ADDRESS":"民生八街２８巷１弄５３號","OBJECTID":80758},"geometry":{"x":176002.76000000071,"y":2540377.25}},{"attributes":{"ID":80759,"DIS_CODE":0,"TOWNNAME":"歸仁區","LI":"歸南里","LIN":"19鄰","STREET":"民生八街","SECT":" ","MAREA":" ","LANE":"２８巷","ALLEY":"１弄","HOUSE_NO":"６１號","E_COORD97":175984.26000000001,"N_COORD97":2540378.25,"ADDRESS":"民生八街２８巷１弄６１號","OBJECTID":80759},"geometry":{"x":175984.26000000071,"y":2540378.2500000019}},{"attributes":{"ID":80760,"DIS_CODE":0,"TOWNNAME":"大內區","LI":"內江里","LIN":"7鄰","STREET":" ","SECT":" ","MAREA":"內庄","LANE":" ","ALLEY":" ","HOUSE_NO":"２８５號之２３","E_COORD97":184360.06,"N_COORD97":2557486.2999999998,"ADDRESS":"內庄２８５號之２３","OBJECTID":80760},"geometry":{"x":184360.05999999959,"y":2557486.3000000045}},{"attributes":{"ID":80761,"DIS_CODE":0,"TOWNNAME":"大內區","LI":"石湖里","LIN":"7鄰","STREET":" ","SECT":" ","MAREA":"石子瀨","LANE":" ","ALLEY":" ","HOUSE_NO":"２８７號之２","E_COORD97":183980.44,"N_COORD97":2558324.2999999998,"ADDRESS":"石子瀨２８７號之２","OBJECTID":80761},"geometry":{"x":183980.44000000041,"y":2558324.3000000026}},{"attributes":{"ID":80762,"DIS_CODE":0,"TOWNNAME":"大內區","LI":"環湖里","LIN":"7鄰","STREET":" ","SECT":" ","MAREA":"環湖","LANE":" ","ALLEY":" ","HOUSE_NO":"９０號","E_COORD97":190369.14000000001,"N_COORD97":2560646.2400000002,"ADDRESS":"環湖９０號","OBJECTID":80762},"geometry":{"x":190369.13999999966,"y":2560646.2400000021}},{"attributes":{"ID":80763,"DIS_CODE":0,"TOWNNAME":"大內區","LI":"石湖里","LIN":"7鄰","STREET":" ","SECT":" ","MAREA":"石子瀨","LANE":" ","ALLEY":" ","HOUSE_NO":"２９５號","E_COORD97":183926.07000000001,"N_COORD97":2558281.25,"ADDRESS":"石子瀨２９５號","OBJECTID":80763},"geometry":{"x":183926.07000000123,"y":2558281.25}},{"attributes":{"ID":80764,"DIS_CODE":0,"TOWNNAME":"大內區","LI":"內江里","LIN":"7鄰","STREET":" ","SECT":" ","MAREA":"內庄","LANE":" ","ALLEY":" ","HOUSE_NO":"２８６號之５","E_COORD97":184479.57000000001,"N_COORD97":2557434.2999999998,"ADDRESS":"內庄２８６號之５","OBJECTID":80764},"geometry":{"x":184479.5700000003,"y":2557434.3000000007}},{"attributes":{"ID":80765,"DIS_CODE":0,"TOWNNAME":"大內區","LI":"內江里","LIN":"7鄰","STREET":" ","SECT":" ","MAREA":"內庄","LANE":" ","ALLEY":" ","HOUSE_NO":"２８５號之１８","E_COORD97":184349.01000000001,"N_COORD97":2557490.2999999998,"ADDRESS":"內庄２８５號之１８","OBJECTID":80765},"geometry":{"x":184349.00999999978,"y":2557490.3000000026}},{"attributes":{"ID":80766,"DIS_CODE":0,"TOWNNAME":"大內區","LI":"內郭里","LIN":"7鄰","STREET":" ","SECT":" ","MAREA":"後堀","LANE":" ","ALLEY":" ","HOUSE_NO":"２之１５號","E_COORD97":185456.85999999999,"N_COORD97":2557962.3199999998,"ADDRESS":"後堀２之１５號","OBJECTID":80766},"geometry":{"x":185456.86000000127,"y":2557962.3200000003}},{"attributes":{"ID":80767,"DIS_CODE":0,"TOWNNAME":"大內區","LI":"石湖里","LIN":"7鄰","STREET":" ","SECT":" ","MAREA":"石子瀨","LANE":" ","ALLEY":" ","HOUSE_NO":"２９８號","E_COORD97":183896.37,"N_COORD97":2558331.25,"ADDRESS":"石子瀨２９８號","OBJECTID":80767},"geometry":{"x":183896.36999999918,"y":2558331.2500000019}},{"attributes":{"ID":80768,"DIS_CODE":0,"TOWNNAME":"大內區","LI":"環湖里","LIN":"7鄰","STREET":" ","SECT":" ","MAREA":"環湖","LANE":" ","ALLEY":" ","HOUSE_NO":"９６號之１","E_COORD97":190409.07999999999,"N_COORD97":2560675.2999999998,"ADDRESS":"環湖９６號之１","OBJECTID":80768},"geometry":{"x":190409.08000000007,"y":2560675.3000000007}},{"attributes":{"ID":80769,"DIS_CODE":0,"TOWNNAME":"大內區","LI":"內江里","LIN":"7鄰","STREET":" ","SECT":" ","MAREA":"內庄","LANE":" ","ALLEY":" ","HOUSE_NO":"２８９號之２２","E_COORD97":184261.89999999999,"N_COORD97":2557395.2999999998,"ADDRESS":"內庄２８９號之２２","OBJECTID":80769},"geometry":{"x":184261.90000000037,"y":2557395.3000000026}},{"attributes":{"ID":80770,"DIS_CODE":0,"TOWNNAME":"大內區","LI":"內郭里","LIN":"7鄰","STREET":" ","SECT":" ","MAREA":"後堀","LANE":" ","ALLEY":" ","HOUSE_NO":"１０號","E_COORD97":185572.56,"N_COORD97":2557441.3199999998,"ADDRESS":"後堀１０號","OBJECTID":80770},"geometry":{"x":185572.55999999959,"y":2557441.3199999984}},{"attributes":{"ID":80771,"DIS_CODE":0,"TOWNNAME":"大內區","LI":"石湖里","LIN":"7鄰","STREET":" ","SECT":" ","MAREA":"石子瀨","LANE":" ","ALLEY":" ","HOUSE_NO":"２８７號之６","E_COORD97":183981.51000000001,"N_COORD97":2558304.2999999998,"ADDRESS":"石子瀨２８７號之６","OBJECTID":80771},"geometry":{"x":183981.50999999978,"y":2558304.3000000026}},{"attributes":{"ID":80772,"DIS_CODE":0,"TOWNNAME":"歸仁區","LI":"歸南里","LIN":"19鄰","STREET":"民生八街","SECT":" ","MAREA":" ","LANE":"２８巷","ALLEY":"１弄","HOUSE_NO":"４５號","E_COORD97":176019.16,"N_COORD97":2540377.25,"ADDRESS":"民生八街２８巷１弄４５號","OBJECTID":80772},"geometry":{"x":176019.16000000108,"y":2540377.25}},{"attributes":{"ID":80773,"DIS_CODE":0,"TOWNNAME":"大內區","LI":"石湖里","LIN":"7鄰","STREET":" ","SECT":" ","MAREA":"石子瀨","LANE":" ","ALLEY":" ","HOUSE_NO":"２９１號","E_COORD97":183958.17000000001,"N_COORD97":2558230.25,"ADDRESS":"石子瀨２９１號","OBJECTID":80773},"geometry":{"x":183958.16999999993,"y":2558230.25}},{"attributes":{"ID":80774,"DIS_CODE":0,"TOWNNAME":"大內區","LI":"石湖里","LIN":"7鄰","STREET":" ","SECT":" ","MAREA":"石子瀨","LANE":" ","ALLEY":" ","HOUSE_NO":"２９３號之７","E_COORD97":183914.57999999999,"N_COORD97":2558254.2999999998,"ADDRESS":"石子瀨２９３號之７","OBJECTID":80774},"geometry":{"x":183914.58000000007,"y":2558254.3000000007}},{"attributes":{"ID":80775,"DIS_CODE":0,"TOWNNAME":"大內區","LI":"石湖里","LIN":"7鄰","STREET":" ","SECT":" ","MAREA":"石子瀨","LANE":" ","ALLEY":" ","HOUSE_NO":"２８７號之３","E_COORD97":183980.89999999999,"N_COORD97":2558317.2999999998,"ADDRESS":"石子瀨２８７號之３","OBJECTID":80775},"geometry":{"x":183980.90000000037,"y":2558317.3000000026}},{"attributes":{"ID":80776,"DIS_CODE":0,"TOWNNAME":"大內區","LI":"內江里","LIN":"7鄰","STREET":" ","SECT":" ","MAREA":"內庄","LANE":" ","ALLEY":" ","HOUSE_NO":"２８６號","E_COORD97":184472.48000000001,"N_COORD97":2557441.25,"ADDRESS":"內庄２８６號","OBJECTID":80776},"geometry":{"x":184472.48000000231,"y":2557441.25}},{"attributes":{"ID":80777,"DIS_CODE":0,"TOWNNAME":"大內區","LI":"石湖里","LIN":"7鄰","STREET":" ","SECT":" ","MAREA":"石子瀨","LANE":" ","ALLEY":" ","HOUSE_NO":"２８６號","E_COORD97":183972.67000000001,"N_COORD97":2558342.25,"ADDRESS":"石子瀨２８６號","OBJECTID":80777},"geometry":{"x":183972.67000000086,"y":2558342.25}},{"attributes":{"ID":80778,"DIS_CODE":0,"TOWNNAME":"中西區","LI":"水仙里","LIN":"7鄰","STREET":"和平街","SECT":" ","MAREA":" ","LANE":" ","ALLEY":" ","HOUSE_NO":"８號","E_COORD97":167812.04999999999,"N_COORD97":2544094.25,"ADDRESS":"和平街８號","OBJECTID":80778},"geometry":{"x":167812.04999999981,"y":2544094.2500000019}},{"attributes":{"ID":80779,"DIS_CODE":0,"TOWNNAME":"麻豆區","LI":"安正里","LIN":"7鄰","STREET":" ","SECT":" ","MAREA":"社子","LANE":" ","ALLEY":" ","HOUSE_NO":"９號之５","E_COORD97":171773.79000000001,"N_COORD97":2562198.9900000002,"ADDRESS":"社子９號之５","OBJECTID":80779},"geometry":{"x":171773.79000000097,"y":2562198.9900000002}},{"attributes":{"ID":80780,"DIS_CODE":0,"TOWNNAME":"中西區","LI":"開山里","LIN":"6鄰","STREET":"府前路","SECT":"一段","MAREA":" ","LANE":"８５巷","ALLEY":"１４弄","HOUSE_NO":"３２號","E_COORD97":168901.76000000001,"N_COORD97":2543210.3100000001,"ADDRESS":"府前路一段８５巷１４弄３２號","OBJECTID":80780},"geometry":{"x":168901.76000000071,"y":2543210.3100000024}},{"attributes":{"ID":80781,"DIS_CODE":0,"TOWNNAME":"大內區","LI":"內江里","LIN":"7鄰","STREET":" ","SECT":" ","MAREA":"內庄","LANE":" ","ALLEY":" ","HOUSE_NO":"２８５號之３１","E_COORD97":184373.95999999999,"N_COORD97":2557463.2999999998,"ADDRESS":"內庄２８５號之３１","OBJECTID":80781},"geometry":{"x":184373.96000000089,"y":2557463.3000000026}},{"attributes":{"ID":80782,"DIS_CODE":0,"TOWNNAME":"大內區","LI":"內江里","LIN":"7鄰","STREET":" ","SECT":" ","MAREA":"內庄","LANE":" ","ALLEY":" ","HOUSE_NO":"２８５號之３０","E_COORD97":184379.82000000001,"N_COORD97":2557466.2999999998,"ADDRESS":"內庄２８５號之３０","OBJECTID":80782},"geometry":{"x":184379.8200000003,"y":2557466.3000000026}},{"attributes":{"ID":80783,"DIS_CODE":0,"TOWNNAME":"大內區","LI":"內江里","LIN":"7鄰","STREET":" ","SECT":" ","MAREA":"內庄","LANE":" ","ALLEY":" ","HOUSE_NO":"２８６號之６","E_COORD97":184466.42000000001,"N_COORD97":2557427.2999999998,"ADDRESS":"內庄２８６號之６","OBJECTID":80783},"geometry":{"x":184466.41999999993,"y":2557427.3000000007}},{"attributes":{"ID":80784,"DIS_CODE":0,"TOWNNAME":"中西區","LI":"開山里","LIN":"6鄰","STREET":"府前路","SECT":"一段","MAREA":" ","LANE":"８５巷","ALLEY":"１４弄","HOUSE_NO":"３４號","E_COORD97":168897.76000000001,"N_COORD97":2543212.3100000001,"ADDRESS":"府前路一段８５巷１４弄３４號","OBJECTID":80784},"geometry":{"x":168897.75999999885,"y":2543212.3100000042}},{"attributes":{"ID":80785,"DIS_CODE":0,"TOWNNAME":"大內區","LI":"內江里","LIN":"7鄰","STREET":" ","SECT":" ","MAREA":"內庄","LANE":" ","ALLEY":" ","HOUSE_NO":"２９２號之１","E_COORD97":184496.60999999999,"N_COORD97":2557405.2999999998,"ADDRESS":"內庄２９２號之１","OBJECTID":80785},"geometry":{"x":184496.61000000034,"y":2557405.3000000026}},{"attributes":{"ID":80786,"DIS_CODE":0,"TOWNNAME":"大內區","LI":"內江里","LIN":"7鄰","STREET":" ","SECT":" ","MAREA":"內庄","LANE":" ","ALLEY":" ","HOUSE_NO":"２８９號之６","E_COORD97":184246.01999999999,"N_COORD97":2557271.2999999998,"ADDRESS":"內庄２８９號之６","OBJECTID":80786},"geometry":{"x":184246.02000000048,"y":2557271.3000000007}},{"attributes":{"ID":80787,"DIS_CODE":0,"TOWNNAME":"永康區","LI":"二王里","LIN":"44鄰","STREET":"南工街","SECT":" ","MAREA":" ","LANE":"２１４巷","ALLEY":"３２弄","HOUSE_NO":"２３號","E_COORD97":172091.5,"N_COORD97":2546090.0299999998,"ADDRESS":"南工街２１４巷３２弄２３號","OBJECTID":80787},"geometry":{"x":172091.5,"y":2546090.0299999993}},{"attributes":{"ID":80788,"DIS_CODE":0,"TOWNNAME":"大內區","LI":"內江里","LIN":"7鄰","STREET":" ","SECT":" ","MAREA":"內庄","LANE":" ","ALLEY":" ","HOUSE_NO":"２８９之１２號","E_COORD97":184320.32999999999,"N_COORD97":2557169.2999999998,"ADDRESS":"內庄２８９之１２號","OBJECTID":80788},"geometry":{"x":184320.33000000007,"y":2557169.3000000007}},{"attributes":{"ID":80789,"DIS_CODE":0,"TOWNNAME":"大內區","LI":"內江里","LIN":"7鄰","STREET":" ","SECT":" ","MAREA":"內庄","LANE":" ","ALLEY":" ","HOUSE_NO":"２８９號","E_COORD97":184288.48000000001,"N_COORD97":2557151.25,"ADDRESS":"內庄２８９號","OBJECTID":80789},"geometry":{"x":184288.48000000138,"y":2557151.2500000019}},{"attributes":{"ID":80790,"DIS_CODE":0,"TOWNNAME":"永康區","LI":"\u25A0洲里","LIN":"7鄰","STREET":"三村二街","SECT":" ","MAREA":" ","LANE":" ","ALLEY":" ","HOUSE_NO":"８５號","E_COORD97":171742.98000000001,"N_COORD97":2549514,"ADDRESS":"三村二街８５號","OBJECTID":80790},"geometry":{"x":171742.98000000045,"y":2549514.0000000019}},{"attributes":{"ID":80791,"DIS_CODE":0,"TOWNNAME":"大內區","LI":"石湖里","LIN":"7鄰","STREET":" ","SECT":" ","MAREA":"石子瀨","LANE":" ","ALLEY":" ","HOUSE_NO":"２９３號","E_COORD97":183929.76999999999,"N_COORD97":2558237.25,"ADDRESS":"石子瀨２９３號","OBJECTID":80791},"geometry":{"x":183929.76999999955,"y":2558237.25}},{"attributes":{"ID":80792,"DIS_CODE":0,"TOWNNAME":"大內區","LI":"內江里","LIN":"7鄰","STREET":" ","SECT":" ","MAREA":"內庄","LANE":" ","ALLEY":" ","HOUSE_NO":"２９０號","E_COORD97":184470.88,"N_COORD97":2557412.25,"ADDRESS":"內庄２９０號","OBJECTID":80792},"geometry":{"x":184470.88000000175,"y":2557412.2500000019}},{"attributes":{"ID":80793,"DIS_CODE":0,"TOWNNAME":"大內區","LI":"內江里","LIN":"7鄰","STREET":" ","SECT":" ","MAREA":"內庄","LANE":" ","ALLEY":" ","HOUSE_NO":"２８９號之１９","E_COORD97":184270.04999999999,"N_COORD97":2557375.2999999998,"ADDRESS":"內庄２８９號之１９","OBJECTID":80793},"geometry":{"x":184270.05000000075,"y":2557375.3000000026}},{"attributes":{"ID":80794,"DIS_CODE":0,"TOWNNAME":"大內區","LI":"內郭里","LIN":"7鄰","STREET":" ","SECT":" ","MAREA":"後堀","LANE":" ","ALLEY":" ","HOUSE_NO":"４號之７","E_COORD97":185448.92000000001,"N_COORD97":2557317.3199999998,"ADDRESS":"後堀４號之７","OBJECTID":80794},"geometry":{"x":185448.92000000086,"y":2557317.3200000022}},{"attributes":{"ID":80795,"DIS_CODE":0,"TOWNNAME":"大內區","LI":"曲溪里","LIN":"7鄰","STREET":" ","SECT":" ","MAREA":"二重溪","LANE":" ","ALLEY":" ","HOUSE_NO":"６５之２號","E_COORD97":187151.29000000001,"N_COORD97":2557692.3100000001,"ADDRESS":"二重溪６５之２號","OBJECTID":80795},"geometry":{"x":187151.29000000004,"y":2557692.3100000005}},{"attributes":{"ID":80796,"DIS_CODE":0,"TOWNNAME":"大內區","LI":"頭社里","LIN":"7鄰","STREET":" ","SECT":" ","MAREA":"頭社","LANE":" ","ALLEY":" ","HOUSE_NO":"９２號之２","E_COORD97":186590.91,"N_COORD97":2561173.2999999998,"ADDRESS":"頭社９２號之２","OBJECTID":80796},"geometry":{"x":186590.91000000015,"y":2561173.3000000007}},{"attributes":{"ID":80797,"DIS_CODE":0,"TOWNNAME":"大內區","LI":"曲溪里","LIN":"7鄰","STREET":" ","SECT":" ","MAREA":"二重溪","LANE":" ","ALLEY":" ","HOUSE_NO":"６５號之１","E_COORD97":187165.82999999999,"N_COORD97":2557711.3100000001,"ADDRESS":"二重溪６５號之１","OBJECTID":80797},"geometry":{"x":187165.83000000101,"y":2557711.3100000024}},{"attributes":{"ID":80798,"DIS_CODE":0,"TOWNNAME":"大內區","LI":"頭社里","LIN":"7鄰","STREET":" ","SECT":" ","MAREA":"頭社","LANE":" ","ALLEY":" ","HOUSE_NO":"１００號","E_COORD97":186511.69,"N_COORD97":2561111.25,"ADDRESS":"頭社１００號","OBJECTID":80798},"geometry":{"x":186511.69000000041,"y":2561111.2500000019}},{"attributes":{"ID":80799,"DIS_CODE":0,"TOWNNAME":"大內區","LI":"石城里","LIN":"7鄰","STREET":" ","SECT":" ","MAREA":"石子瀨","LANE":" ","ALLEY":" ","HOUSE_NO":"６２號","E_COORD97":184172.42000000001,"N_COORD97":2557978.25,"ADDRESS":"石子瀨６２號","OBJECTID":80799},"geometry":{"x":184172.42000000086,"y":2557978.2500000019}},{"attributes":{"ID":80800,"DIS_CODE":0,"TOWNNAME":"大內區","LI":"石城里","LIN":"7鄰","STREET":" ","SECT":" ","MAREA":"石子瀨","LANE":" ","ALLEY":" ","HOUSE_NO":"６３號","E_COORD97":184183.22,"N_COORD97":2557969.25,"ADDRESS":"石子瀨６３號","OBJECTID":80800},"geometry":{"x":184183.21999999974,"y":2557969.25}}]}