{"displayFieldName":"TOWNNAME","fieldAliases":{"ID":"ID","DIS_CODE":"DIS_CODE","TOWNNAME":"TOWNNAME","LI":"LI","LIN":"LIN","STREET":"STREET","SECT":"SECT","MAREA":"MAREA","LANE":"LANE","ALLEY":"ALLEY","HOUSE_NO":"HOUSE_NO","E_COORD97":"E_COORD97","N_COORD97":"N_COORD97","ADDRESS":"ADDRESS","OBJECTID":"OBJECTID"},"geometryType":"esriGeometryPoint","spatialReference":{"wkid":102443,"latestWkid":3826},"fields":[{"name":"ID","type":"esriFieldTypeDouble","alias":"ID"},{"name":"DIS_CODE","type":"esriFieldTypeInteger","alias":"DIS_CODE"},{"name":"TOWNNAME","type":"esriFieldTypeString","alias":"TOWNNAME","length":8},{"name":"LI","type":"esriFieldTypeString","alias":"LI","length":8},{"name":"LIN","type":"esriFieldTypeString","alias":"LIN","length":12},{"name":"STREET","type":"esriFieldTypeString","alias":"STREET","length":20},{"name":"SECT","type":"esriFieldTypeString","alias":"SECT","length":8},{"name":"MAREA","type":"esriFieldTypeString","alias":"MAREA","length":12},{"name":"LANE","type":"esriFieldTypeString","alias":"LANE","length":10},{"name":"ALLEY","type":"esriFieldTypeString","alias":"ALLEY","length":10},{"name":"HOUSE_NO","type":"esriFieldTypeString","alias":"HOUSE_NO","length":20},{"name":"E_COORD97","type":"esriFieldTypeDouble","alias":"E_COORD97"},{"name":"N_COORD97","type":"esriFieldTypeDouble","alias":"N_COORD97"},{"name":"ADDRESS","type":"esriFieldTypeString","alias":"ADDRESS","length":50},{"name":"OBJECTID","type":"esriFieldTypeOID","alias":"OBJECTID"}],"features":[{"attributes":{"ID":66601,"DIS_CODE":0,"TOWNNAME":"永康區","LI":"安康里","LIN":"14鄰","STREET":"中華路","SECT":" ","MAREA":" ","LANE":"６１９巷","ALLEY":"８８弄","HOUSE_NO":"３８號","E_COORD97":170895.42000000001,"N_COORD97":2546080.4900000002,"ADDRESS":"中華路６１９巷８８弄３８號","OBJECTID":66601},"geometry":{"x":170895.41999999899,"y":2546080.4900000021}},{"attributes":{"ID":66602,"DIS_CODE":0,"TOWNNAME":"善化區","LI":"東隆里","LIN":"8鄰","STREET":" ","SECT":" ","MAREA":"東勢寮","LANE":" ","ALLEY":" ","HOUSE_NO":"２０１之６號","E_COORD97":179805.57000000001,"N_COORD97":2561720.27,"ADDRESS":"東勢寮２０１之６號","OBJECTID":66602},"geometry":{"x":179805.57000000123,"y":2561720.2700000014}},{"attributes":{"ID":66603,"DIS_CODE":0,"TOWNNAME":"善化區","LI":"牛庄里","LIN":"8鄰","STREET":" ","SECT":" ","MAREA":"牛庄","LANE":" ","ALLEY":" ","HOUSE_NO":"９６之７號","E_COORD97":180034.88,"N_COORD97":2560189.77,"ADDRESS":"牛庄９６之７號","OBJECTID":66603},"geometry":{"x":180034.88000000082,"y":2560189.7699999996}},{"attributes":{"ID":66604,"DIS_CODE":0,"TOWNNAME":"永康區","LI":"安康里","LIN":"8鄰","STREET":"中山南路","SECT":" ","MAREA":" ","LANE":"１１９巷","ALLEY":"１１弄","HOUSE_NO":"２號","E_COORD97":171034.51999999999,"N_COORD97":2546008,"ADDRESS":"中山南路１１９巷１１弄２號","OBJECTID":66604},"geometry":{"x":171034.51999999955,"y":2546008.0000000019}},{"attributes":{"ID":66605,"DIS_CODE":0,"TOWNNAME":"善化區","LI":"東隆里","LIN":"8鄰","STREET":" ","SECT":" ","MAREA":"東勢寮","LANE":" ","ALLEY":" ","HOUSE_NO":"２０３號","E_COORD97":179776.10000000001,"N_COORD97":2561804.0099999998,"ADDRESS":"東勢寮２０３號","OBJECTID":66605},"geometry":{"x":179776.09999999963,"y":2561804.0100000016}},{"attributes":{"ID":66606,"DIS_CODE":0,"TOWNNAME":"善化區","LI":"東隆里","LIN":"8鄰","STREET":" ","SECT":" ","MAREA":"東勢寮","LANE":" ","ALLEY":" ","HOUSE_NO":"２０１號","E_COORD97":179779.45999999999,"N_COORD97":2561706.2599999998,"ADDRESS":"東勢寮２０１號","OBJECTID":66606},"geometry":{"x":179779.45999999996,"y":2561706.2599999979}},{"attributes":{"ID":66607,"DIS_CODE":0,"TOWNNAME":"永康區","LI":"成功里","LIN":"33鄰","STREET":"忠孝路","SECT":" ","MAREA":" ","LANE":"２０７巷","ALLEY":"４２弄","HOUSE_NO":"５號","E_COORD97":171892.84,"N_COORD97":2544945.7400000002,"ADDRESS":"忠孝路２０７巷４２弄５號","OBJECTID":66607},"geometry":{"x":171892.84000000171,"y":2544945.7400000021}},{"attributes":{"ID":66608,"DIS_CODE":0,"TOWNNAME":"善化區","LI":"東隆里","LIN":"8鄰","STREET":" ","SECT":" ","MAREA":"東勢寮","LANE":" ","ALLEY":" ","HOUSE_NO":"２０２之１２號","E_COORD97":179725.88,"N_COORD97":2561469.02,"ADDRESS":"東勢寮２０２之１２號","OBJECTID":66608},"geometry":{"x":179725.87999999989,"y":2561469.0199999996}},{"attributes":{"ID":66609,"DIS_CODE":0,"TOWNNAME":"善化區","LI":"東隆里","LIN":"8鄰","STREET":" ","SECT":" ","MAREA":"東勢寮","LANE":" ","ALLEY":" ","HOUSE_NO":"２１０號","E_COORD97":179745.44,"N_COORD97":2561836.0099999998,"ADDRESS":"東勢寮２１０號","OBJECTID":66609},"geometry":{"x":179745.44000000134,"y":2561836.0099999998}},{"attributes":{"ID":66610,"DIS_CODE":0,"TOWNNAME":"善化區","LI":"嘉北里","LIN":"8鄰","STREET":" ","SECT":" ","MAREA":"茄拔","LANE":" ","ALLEY":" ","HOUSE_NO":"１８１號之２５","E_COORD97":181125.19,"N_COORD97":2560176.27,"ADDRESS":"茄拔１８１號之２５","OBJECTID":66610},"geometry":{"x":181125.19000000134,"y":2560176.2699999996}},{"attributes":{"ID":66611,"DIS_CODE":0,"TOWNNAME":"永康區","LI":"甲頂里","LIN":"4鄰","STREET":"中正南路","SECT":" ","MAREA":" ","LANE":"１６８巷","ALLEY":"２弄","HOUSE_NO":"４２號","E_COORD97":169861,"N_COORD97":2546937,"ADDRESS":"中正南路１６８巷２弄４２號","OBJECTID":66611},"geometry":{"x":169861.00000000186,"y":2546937.0000000019}},{"attributes":{"ID":66612,"DIS_CODE":0,"TOWNNAME":"善化區","LI":"嘉北里","LIN":"8鄰","STREET":" ","SECT":" ","MAREA":"茄拔","LANE":" ","ALLEY":" ","HOUSE_NO":"１８０之３０號","E_COORD97":181107.04000000001,"N_COORD97":2560110.77,"ADDRESS":"茄拔１８０之３０號","OBJECTID":66612},"geometry":{"x":181107.04000000097,"y":2560110.7700000014}},{"attributes":{"ID":66613,"DIS_CODE":0,"TOWNNAME":"永康區","LI":"正強里","LIN":"9鄰","STREET":"自強路","SECT":" ","MAREA":" ","LANE":"３３０巷","ALLEY":"１２弄","HOUSE_NO":"２號","E_COORD97":173422.29999999999,"N_COORD97":2547640.5499999998,"ADDRESS":"自強路３３０巷１２弄２號","OBJECTID":66613},"geometry":{"x":173422.30000000075,"y":2547640.5500000007}},{"attributes":{"ID":66614,"DIS_CODE":0,"TOWNNAME":"善化區","LI":"南關里","LIN":"8鄰","STREET":"光復路","SECT":" ","MAREA":" ","LANE":" ","ALLEY":" ","HOUSE_NO":"５０６號","E_COORD97":176822.01000000001,"N_COORD97":2558845.0099999998,"ADDRESS":"光復路５０６號","OBJECTID":66614},"geometry":{"x":176822.01000000071,"y":2558845.0099999998}},{"attributes":{"ID":66615,"DIS_CODE":0,"TOWNNAME":"善化區","LI":"嘉北里","LIN":"8鄰","STREET":" ","SECT":" ","MAREA":"茄拔","LANE":" ","ALLEY":" ","HOUSE_NO":"１８１號之２３","E_COORD97":181131.64999999999,"N_COORD97":2560138.52,"ADDRESS":"茄拔１８１號之２３","OBJECTID":66615},"geometry":{"x":181131.65000000224,"y":2560138.5200000014}},{"attributes":{"ID":66616,"DIS_CODE":0,"TOWNNAME":"永康區","LI":"甲頂里","LIN":"5鄰","STREET":"中正南路","SECT":" ","MAREA":" ","LANE":"１６８巷","ALLEY":"２弄","HOUSE_NO":"８２號","E_COORD97":169841.79000000001,"N_COORD97":2546862,"ADDRESS":"中正南路１６８巷２弄８２號","OBJECTID":66616},"geometry":{"x":169841.79000000004,"y":2546862.0000000037}},{"attributes":{"ID":66617,"DIS_CODE":0,"TOWNNAME":"善化區","LI":"東隆里","LIN":"8鄰","STREET":" ","SECT":" ","MAREA":"東勢寮","LANE":" ","ALLEY":" ","HOUSE_NO":"２０２號之１０","E_COORD97":179607.14999999999,"N_COORD97":2561667.52,"ADDRESS":"東勢寮２０２號之１０","OBJECTID":66617},"geometry":{"x":179607.15000000037,"y":2561667.5200000014}},{"attributes":{"ID":66618,"DIS_CODE":0,"TOWNNAME":"善化區","LI":"胡厝里","LIN":"8鄰","STREET":" ","SECT":" ","MAREA":"胡厝寮","LANE":" ","ALLEY":" ","HOUSE_NO":"２０８號之３","E_COORD97":175264,"N_COORD97":2560319.52,"ADDRESS":"胡厝寮２０８號之３","OBJECTID":66618},"geometry":{"x":175264.00000000093,"y":2560319.5199999996}},{"attributes":{"ID":66619,"DIS_CODE":0,"TOWNNAME":"永康區","LI":"甲頂里","LIN":"4鄰","STREET":"中正南路","SECT":" ","MAREA":" ","LANE":"１６８巷","ALLEY":"２弄","HOUSE_NO":"５０號","E_COORD97":169892.70999999999,"N_COORD97":2546900.4900000002,"ADDRESS":"中正南路１６８巷２弄５０號","OBJECTID":66619},"geometry":{"x":169892.70999999996,"y":2546900.4900000021}},{"attributes":{"ID":66620,"DIS_CODE":0,"TOWNNAME":"永康區","LI":"成功里","LIN":"40鄰","STREET":"中華路","SECT":" ","MAREA":" ","LANE":"１５４巷","ALLEY":"６９弄","HOUSE_NO":"２５號","E_COORD97":171728.04000000001,"N_COORD97":2544911.5600000001,"ADDRESS":"中華路１５４巷６９弄２５號","OBJECTID":66620},"geometry":{"x":171728.04000000097,"y":2544911.5600000005}},{"attributes":{"ID":66621,"DIS_CODE":0,"TOWNNAME":"安定區","LI":"大同里","LIN":"8鄰","STREET":" ","SECT":" ","MAREA":"大同","LANE":" ","ALLEY":" ","HOUSE_NO":"８９號之１１","E_COORD97":170417.75,"N_COORD97":2553756.2999999998,"ADDRESS":"大同８９號之１１","OBJECTID":66621},"geometry":{"x":170417.75000000093,"y":2553756.3000000007}},{"attributes":{"ID":66622,"DIS_CODE":0,"TOWNNAME":"永康區","LI":"成功里","LIN":"40鄰","STREET":"中華路","SECT":" ","MAREA":" ","LANE":"１５４巷","ALLEY":"６９弄","HOUSE_NO":"３５號","E_COORD97":171706.76999999999,"N_COORD97":2544914.0600000001,"ADDRESS":"中華路１５４巷６９弄３５號","OBJECTID":66622},"geometry":{"x":171706.77000000048,"y":2544914.0600000024}},{"attributes":{"ID":66623,"DIS_CODE":0,"TOWNNAME":"善化區","LI":"東關里","LIN":"8鄰","STREET":"中興路","SECT":" ","MAREA":" ","LANE":" ","ALLEY":" ","HOUSE_NO":"１５８號","E_COORD97":177264.98000000001,"N_COORD97":2559054.5,"ADDRESS":"中興路１５８號","OBJECTID":66623},"geometry":{"x":177264.98000000138,"y":2559054.5000000019}},{"attributes":{"ID":66624,"DIS_CODE":0,"TOWNNAME":"永康區","LI":"西勢里","LIN":"24鄰","STREET":"廣興街","SECT":" ","MAREA":" ","LANE":"３８巷","ALLEY":"２５弄","HOUSE_NO":"５２號","E_COORD97":176067.04999999999,"N_COORD97":2546525.98,"ADDRESS":"廣興街３８巷２５弄５２號","OBJECTID":66624},"geometry":{"x":176067.05000000075,"y":2546525.9800000004}},{"attributes":{"ID":66625,"DIS_CODE":0,"TOWNNAME":"善化區","LI":"溪美里","LIN":"8鄰","STREET":" ","SECT":" ","MAREA":"溪尾","LANE":" ","ALLEY":" ","HOUSE_NO":"７２之１６號","E_COORD97":176487.26999999999,"N_COORD97":2561335.77,"ADDRESS":"溪尾７２之１６號","OBJECTID":66625},"geometry":{"x":176487.27000000048,"y":2561335.7699999996}},{"attributes":{"ID":66626,"DIS_CODE":0,"TOWNNAME":"永康區","LI":"永康里","LIN":"31鄰","STREET":"聖龍街","SECT":" ","MAREA":" ","LANE":"１８６巷","ALLEY":"３弄","HOUSE_NO":"１０號","E_COORD97":174260.85999999999,"N_COORD97":2547798.6499999999,"ADDRESS":"聖龍街１８６巷３弄１０號","OBJECTID":66626},"geometry":{"x":174260.86000000034,"y":2547798.6500000022}},{"attributes":{"ID":66627,"DIS_CODE":0,"TOWNNAME":"善化區","LI":"嘉北里","LIN":"8鄰","STREET":" ","SECT":" ","MAREA":"茄拔","LANE":" ","ALLEY":" ","HOUSE_NO":"１８４號之３","E_COORD97":181050.73000000001,"N_COORD97":2560040.77,"ADDRESS":"茄拔１８４號之３","OBJECTID":66627},"geometry":{"x":181050.73000000138,"y":2560040.7699999996}},{"attributes":{"ID":66628,"DIS_CODE":0,"TOWNNAME":"永康區","LI":"成功里","LIN":"42鄰","STREET":"中華路","SECT":" ","MAREA":" ","LANE":"１５４巷","ALLEY":"１８弄","HOUSE_NO":"２５號","E_COORD97":171746.54999999999,"N_COORD97":2544864.25,"ADDRESS":"中華路１５４巷１８弄２５號","OBJECTID":66628},"geometry":{"x":171746.54999999981,"y":2544864.2500000019}},{"attributes":{"ID":66629,"DIS_CODE":0,"TOWNNAME":"善化區","LI":"什乃里","LIN":"8鄰","STREET":" ","SECT":" ","MAREA":"什乃","LANE":" ","ALLEY":" ","HOUSE_NO":"６９號之１","E_COORD97":176180.29999999999,"N_COORD97":2560385.77,"ADDRESS":"什乃６９號之１","OBJECTID":66629},"geometry":{"x":176180.30000000075,"y":2560385.7699999996}},{"attributes":{"ID":66630,"DIS_CODE":0,"TOWNNAME":"善化區","LI":"田寮里","LIN":"8鄰","STREET":" ","SECT":" ","MAREA":"六分寮","LANE":" ","ALLEY":" ","HOUSE_NO":"１０２號之２","E_COORD97":178565.89999999999,"N_COORD97":2561470.77,"ADDRESS":"六分寮１０２號之２","OBJECTID":66630},"geometry":{"x":178565.9000000013,"y":2561470.7699999996}},{"attributes":{"ID":66631,"DIS_CODE":0,"TOWNNAME":"善化區","LI":"牛庄里","LIN":"8鄰","STREET":" ","SECT":" ","MAREA":"牛庄","LANE":" ","ALLEY":" ","HOUSE_NO":"９６之８號","E_COORD97":180016.39000000001,"N_COORD97":2560160.02,"ADDRESS":"牛庄９６之８號","OBJECTID":66631},"geometry":{"x":180016.3900000006,"y":2560160.0200000014}},{"attributes":{"ID":66632,"DIS_CODE":0,"TOWNNAME":"永康區","LI":"甲頂里","LIN":"17鄰","STREET":"中正南路","SECT":" ","MAREA":" ","LANE":"５２巷","ALLEY":"４６弄","HOUSE_NO":"７號","E_COORD97":169833.32000000001,"N_COORD97":2546729.0600000001,"ADDRESS":"中正南路５２巷４６弄７號","OBJECTID":66632},"geometry":{"x":169833.3200000003,"y":2546729.0600000005}},{"attributes":{"ID":66633,"DIS_CODE":0,"TOWNNAME":"永康區","LI":"永康里","LIN":"31鄰","STREET":"聖龍街","SECT":" ","MAREA":" ","LANE":"１８６巷","ALLEY":"３弄","HOUSE_NO":"１６號","E_COORD97":174269.04000000001,"N_COORD97":2547797.3999999999,"ADDRESS":"聖龍街１８６巷３弄１６號","OBJECTID":66633},"geometry":{"x":174269.04000000097,"y":2547797.4000000004}},{"attributes":{"ID":66634,"DIS_CODE":0,"TOWNNAME":"善化區","LI":"牛庄里","LIN":"8鄰","STREET":" ","SECT":" ","MAREA":"牛庄","LANE":" ","ALLEY":" ","HOUSE_NO":"９６之３號","E_COORD97":180035.16,"N_COORD97":2560172.27,"ADDRESS":"牛庄９６之３號","OBJECTID":66634},"geometry":{"x":180035.16000000108,"y":2560172.2699999996}},{"attributes":{"ID":66635,"DIS_CODE":0,"TOWNNAME":"善化區","LI":"田寮里","LIN":"8鄰","STREET":" ","SECT":" ","MAREA":"六分寮","LANE":" ","ALLEY":" ","HOUSE_NO":"１０５號之２","E_COORD97":178532.01000000001,"N_COORD97":2561429.02,"ADDRESS":"六分寮１０５號之２","OBJECTID":66635},"geometry":{"x":178532.01000000071,"y":2561429.0199999996}},{"attributes":{"ID":66636,"DIS_CODE":0,"TOWNNAME":"善化區","LI":"牛庄里","LIN":"8鄰","STREET":" ","SECT":" ","MAREA":"牛庄","LANE":" ","ALLEY":" ","HOUSE_NO":"９７之２號","E_COORD97":179993.35000000001,"N_COORD97":2560146.52,"ADDRESS":"牛庄９７之２號","OBJECTID":66636},"geometry":{"x":179993.34999999963,"y":2560146.5200000014}},{"attributes":{"ID":66637,"DIS_CODE":0,"TOWNNAME":"永康區","LI":"成功里","LIN":"32鄰","STREET":"忠孝路","SECT":" ","MAREA":" ","LANE":"２０３巷","ALLEY":"６４弄","HOUSE_NO":"１０號","E_COORD97":171909.73999999999,"N_COORD97":2544883.5800000001,"ADDRESS":"忠孝路２０３巷６４弄１０號","OBJECTID":66637},"geometry":{"x":171909.74000000115,"y":2544883.5800000001}},{"attributes":{"ID":66638,"DIS_CODE":0,"TOWNNAME":"永康區","LI":"西勢里","LIN":"24鄰","STREET":"廣興街","SECT":" ","MAREA":" ","LANE":"３８巷","ALLEY":"２５弄","HOUSE_NO":"５０號","E_COORD97":176063.10000000001,"N_COORD97":2546528.23,"ADDRESS":"廣興街３８巷２５弄５０號","OBJECTID":66638},"geometry":{"x":176063.10000000056,"y":2546528.2300000004}},{"attributes":{"ID":66639,"DIS_CODE":0,"TOWNNAME":"永康區","LI":"甲頂里","LIN":"17鄰","STREET":"中正南路","SECT":" ","MAREA":" ","LANE":"５２巷","ALLEY":"４６弄","HOUSE_NO":"２號","E_COORD97":169833.54999999999,"N_COORD97":2546751.5600000001,"ADDRESS":"中正南路５２巷４６弄２號","OBJECTID":66639},"geometry":{"x":169833.55000000075,"y":2546751.5600000024}},{"attributes":{"ID":66640,"DIS_CODE":0,"TOWNNAME":"永康區","LI":"甲頂里","LIN":"7鄰","STREET":"中正南路","SECT":" ","MAREA":" ","LANE":"５２巷","ALLEY":"７１弄","HOUSE_NO":"２６號","E_COORD97":169923.53,"N_COORD97":2546846.5,"ADDRESS":"中正南路５２巷７１弄２６號","OBJECTID":66640},"geometry":{"x":169923.53000000026,"y":2546846.5000000019}},{"attributes":{"ID":66641,"DIS_CODE":0,"TOWNNAME":"新市區","LI":"新市里","LIN":" ","STREET":"和平路","SECT":" ","MAREA":" ","LANE":" ","ALLEY":" ","HOUSE_NO":"２９５號","E_COORD97":174465.17000000001,"N_COORD97":2551281,"ADDRESS":"和平路２９５號","OBJECTID":66641},"geometry":{"x":174465.16999999993,"y":2551281.0000000019}},{"attributes":{"ID":66642,"DIS_CODE":0,"TOWNNAME":"新市區","LI":"新市里","LIN":" ","STREET":"仁愛街","SECT":" ","MAREA":" ","LANE":" ","ALLEY":" ","HOUSE_NO":"３０６之１４號","E_COORD97":177686.95000000001,"N_COORD97":2553016.7999999998,"ADDRESS":"仁愛街３０６之１４號","OBJECTID":66642},"geometry":{"x":177686.95000000112,"y":2553016.8000000007}},{"attributes":{"ID":66643,"DIS_CODE":0,"TOWNNAME":"新市區","LI":"永就里","LIN":" ","STREET":"中華路","SECT":" ","MAREA":" ","LANE":" ","ALLEY":" ","HOUSE_NO":"６９之１號","E_COORD97":177765.12,"N_COORD97":2551572.2999999998,"ADDRESS":"中華路６９之１號","OBJECTID":66643},"geometry":{"x":177765.12000000197,"y":2551572.3000000007}},{"attributes":{"ID":66644,"DIS_CODE":0,"TOWNNAME":"新市區","LI":"新和里","LIN":" ","STREET":"仁愛街","SECT":" ","MAREA":" ","LANE":" ","ALLEY":" ","HOUSE_NO":"１６２號","E_COORD97":177625.89999999999,"N_COORD97":2552736.7799999998,"ADDRESS":"仁愛街１６２號","OBJECTID":66644},"geometry":{"x":177625.90000000037,"y":2552736.7799999993}},{"attributes":{"ID":66645,"DIS_CODE":0,"TOWNNAME":"永康區","LI":"西勢里","LIN":"24鄰","STREET":"廣興街","SECT":" ","MAREA":" ","LANE":"３８巷","ALLEY":"２５弄","HOUSE_NO":"６８號","E_COORD97":176092.25,"N_COORD97":2546544.2000000002,"ADDRESS":"廣興街３８巷２５弄６８號","OBJECTID":66645},"geometry":{"x":176092.25,"y":2546544.1999999993}},{"attributes":{"ID":66646,"DIS_CODE":0,"TOWNNAME":"新市區","LI":"港墘里","LIN":" ","STREET":"自由街","SECT":" ","MAREA":" ","LANE":" ","ALLEY":" ","HOUSE_NO":"２之６號","E_COORD97":178294.57999999999,"N_COORD97":2552887.5499999998,"ADDRESS":"自由街２之６號","OBJECTID":66646},"geometry":{"x":178294.58000000101,"y":2552887.5500000026}},{"attributes":{"ID":66647,"DIS_CODE":0,"TOWNNAME":"永康區","LI":"甲頂里","LIN":"21鄰","STREET":"中正南路","SECT":" ","MAREA":" ","LANE":"５２巷","ALLEY":"１３弄","HOUSE_NO":"２號之１","E_COORD97":169727.07999999999,"N_COORD97":2546761.2400000002,"ADDRESS":"中正南路５２巷１３弄２號之１","OBJECTID":66647},"geometry":{"x":169727.08000000101,"y":2546761.2400000002}},{"attributes":{"ID":66648,"DIS_CODE":0,"TOWNNAME":"永康區","LI":"甲頂里","LIN":"19鄰","STREET":"中正南路","SECT":" ","MAREA":" ","LANE":"５２巷","ALLEY":"４６弄","HOUSE_NO":"８１號","E_COORD97":169881.98999999999,"N_COORD97":2546565.4399999999,"ADDRESS":"中正南路５２巷４６弄８１號","OBJECTID":66648},"geometry":{"x":169881.99000000115,"y":2546565.4399999995}},{"attributes":{"ID":66649,"DIS_CODE":0,"TOWNNAME":"新市區","LI":"永就里","LIN":"17鄰","STREET":"永華二街","SECT":" ","MAREA":" ","LANE":" ","ALLEY":" ","HOUSE_NO":"３４號","E_COORD97":177648.60999999999,"N_COORD97":2551074.2400000002,"ADDRESS":"永華二街３４號","OBJECTID":66649},"geometry":{"x":177648.61000000127,"y":2551074.2400000002}},{"attributes":{"ID":66650,"DIS_CODE":0,"TOWNNAME":"新市區","LI":"新市里","LIN":" ","STREET":"仁愛街","SECT":" ","MAREA":" ","LANE":" ","ALLEY":" ","HOUSE_NO":"３０６之７號","E_COORD97":177682,"N_COORD97":2553022.5499999998,"ADDRESS":"仁愛街３０６之７號","OBJECTID":66650},"geometry":{"x":177682,"y":2553022.5499999989}},{"attributes":{"ID":66651,"DIS_CODE":0,"TOWNNAME":"永康區","LI":"永康里","LIN":"13鄰","STREET":"永康街","SECT":" ","MAREA":" ","LANE":"１３６巷","ALLEY":"１３弄","HOUSE_NO":"１７號","E_COORD97":173957.98999999999,"N_COORD97":2547020.1299999999,"ADDRESS":"永康街１３６巷１３弄１７號","OBJECTID":66651},"geometry":{"x":173957.99000000022,"y":2547020.1300000008}},{"attributes":{"ID":66652,"DIS_CODE":0,"TOWNNAME":"新市區","LI":"永就里","LIN":" ","STREET":"中華路","SECT":" ","MAREA":" ","LANE":" ","ALLEY":" ","HOUSE_NO":"２０４號","E_COORD97":177825.45999999999,"N_COORD97":2551302.5,"ADDRESS":"中華路２０４號","OBJECTID":66652},"geometry":{"x":177825.46000000089,"y":2551302.5}},{"attributes":{"ID":66653,"DIS_CODE":0,"TOWNNAME":"永康區","LI":"五王里","LIN":"6鄰","STREET":"中華二路","SECT":" ","MAREA":" ","LANE":"２０６巷","ALLEY":"６８弄","HOUSE_NO":"１０號四樓之２","E_COORD97":171630.60000000001,"N_COORD97":2545649.8500000001,"ADDRESS":"中華二路２０６巷６８弄１０號四樓之２","OBJECTID":66653},"geometry":{"x":171630.59999999963,"y":2545649.8500000015}},{"attributes":{"ID":66654,"DIS_CODE":0,"TOWNNAME":"白河區","LI":"昇安里","LIN":"1鄰","STREET":" ","SECT":" ","MAREA":"三間厝","LANE":" ","ALLEY":" ","HOUSE_NO":"２之４１號","E_COORD97":191340.81,"N_COORD97":2584616.2400000002,"ADDRESS":"三間厝２之４１號","OBJECTID":66654},"geometry":{"x":191340.80999999959,"y":2584616.2400000021}},{"attributes":{"ID":66655,"DIS_CODE":0,"TOWNNAME":"白河區","LI":"昇安里","LIN":"1鄰","STREET":" ","SECT":" ","MAREA":"三間厝","LANE":" ","ALLEY":" ","HOUSE_NO":"２之４２號","E_COORD97":191339.48999999999,"N_COORD97":2584620.7999999998,"ADDRESS":"三間厝２之４２號","OBJECTID":66655},"geometry":{"x":191339.49000000209,"y":2584620.8000000026}},{"attributes":{"ID":66656,"DIS_CODE":0,"TOWNNAME":"永康區","LI":"正強里","LIN":"6鄰","STREET":"自強路","SECT":" ","MAREA":" ","LANE":"３３０巷","ALLEY":"２１弄","HOUSE_NO":"１７號","E_COORD97":173491.73000000001,"N_COORD97":2547663.79,"ADDRESS":"自強路３３０巷２１弄１７號","OBJECTID":66656},"geometry":{"x":173491.73000000138,"y":2547663.790000001}},{"attributes":{"ID":66657,"DIS_CODE":0,"TOWNNAME":"永康區","LI":"永康里","LIN":"30鄰","STREET":"永華路","SECT":" ","MAREA":" ","LANE":"７０２巷","ALLEY":"４７弄","HOUSE_NO":"１號","E_COORD97":174169.07000000001,"N_COORD97":2547056.25,"ADDRESS":"永華路７０２巷４７弄１號","OBJECTID":66657},"geometry":{"x":174169.07000000123,"y":2547056.25}},{"attributes":{"ID":66658,"DIS_CODE":0,"TOWNNAME":"永康區","LI":"正強里","LIN":"18鄰","STREET":"自強路","SECT":" ","MAREA":" ","LANE":"１８８巷","ALLEY":"６２弄","HOUSE_NO":"２７號","E_COORD97":173153.54999999999,"N_COORD97":2547260.6600000001,"ADDRESS":"自強路１８８巷６２弄２７號","OBJECTID":66658},"geometry":{"x":173153.54999999981,"y":2547260.6600000001}},{"attributes":{"ID":66659,"DIS_CODE":0,"TOWNNAME":"永康區","LI":"永康里","LIN":"31鄰","STREET":"埔聖街","SECT":" ","MAREA":" ","LANE":"１７１巷","ALLEY":"１弄","HOUSE_NO":"８號","E_COORD97":174293.78,"N_COORD97":2547708.8999999999,"ADDRESS":"埔聖街１７１巷１弄８號","OBJECTID":66659},"geometry":{"x":174293.78000000026,"y":2547708.9000000022}},{"attributes":{"ID":66660,"DIS_CODE":0,"TOWNNAME":"永康區","LI":"安康里","LIN":"6鄰","STREET":"中華路","SECT":" ","MAREA":" ","LANE":"７２７巷","ALLEY":"２８弄","HOUSE_NO":"６號","E_COORD97":170768.60000000001,"N_COORD97":2546404.25,"ADDRESS":"中華路７２７巷２８弄６號","OBJECTID":66660},"geometry":{"x":170768.60000000149,"y":2546404.2500000019}},{"attributes":{"ID":66661,"DIS_CODE":0,"TOWNNAME":"永康區","LI":"正強里","LIN":"7鄰","STREET":"自強路","SECT":" ","MAREA":" ","LANE":"３３０巷","ALLEY":"２１弄","HOUSE_NO":"１６號","E_COORD97":173473.10000000001,"N_COORD97":2547618.7400000002,"ADDRESS":"自強路３３０巷２１弄１６號","OBJECTID":66661},"geometry":{"x":173473.10000000056,"y":2547618.7400000002}},{"attributes":{"ID":66662,"DIS_CODE":0,"TOWNNAME":"永康區","LI":"永康里","LIN":"13鄰","STREET":"永康街","SECT":" ","MAREA":" ","LANE":"１３６巷","ALLEY":"１３弄","HOUSE_NO":"７號","E_COORD97":173939.54000000001,"N_COORD97":2547029.77,"ADDRESS":"永康街１３６巷１３弄７號","OBJECTID":66662},"geometry":{"x":173939.5400000019,"y":2547029.7700000014}},{"attributes":{"ID":66663,"DIS_CODE":0,"TOWNNAME":"永康區","LI":"\u25A0行里","LIN":"8鄰","STREET":"中正一街","SECT":" ","MAREA":" ","LANE":" ","ALLEY":" ","HOUSE_NO":"４２號","E_COORD97":172794.01999999999,"N_COORD97":2548368.4900000002,"ADDRESS":"中正一街４２號","OBJECTID":66663},"geometry":{"x":172794.01999999955,"y":2548368.4900000021}},{"attributes":{"ID":66664,"DIS_CODE":0,"TOWNNAME":"永康區","LI":"蔦松里","LIN":"8鄰","STREET":"蔦松二街","SECT":" ","MAREA":" ","LANE":" ","ALLEY":" ","HOUSE_NO":"１８號","E_COORD97":173472.78,"N_COORD97":2548891.25,"ADDRESS":"蔦松二街１８號","OBJECTID":66664},"geometry":{"x":173472.78000000026,"y":2548891.2500000037}},{"attributes":{"ID":66665,"DIS_CODE":0,"TOWNNAME":"永康區","LI":"蔦松里","LIN":"8鄰","STREET":"蔦松二街","SECT":" ","MAREA":" ","LANE":" ","ALLEY":" ","HOUSE_NO":"３３號","E_COORD97":173655.19,"N_COORD97":2549205.5800000001,"ADDRESS":"蔦松二街３３號","OBJECTID":66665},"geometry":{"x":173655.19000000041,"y":2549205.5800000019}},{"attributes":{"ID":66666,"DIS_CODE":0,"TOWNNAME":"永康區","LI":"蔦松里","LIN":"8鄰","STREET":"蔦松二街","SECT":" ","MAREA":" ","LANE":" ","ALLEY":" ","HOUSE_NO":"３５號","E_COORD97":173657.76000000001,"N_COORD97":2549210.0800000001,"ADDRESS":"蔦松二街３５號","OBJECTID":66666},"geometry":{"x":173657.75999999978,"y":2549210.0800000001}},{"attributes":{"ID":66667,"DIS_CODE":0,"TOWNNAME":"永康區","LI":"網寮里","LIN":"8鄰","STREET":"永二街","SECT":" ","MAREA":" ","LANE":" ","ALLEY":" ","HOUSE_NO":"２４８號","E_COORD97":173238.20000000001,"N_COORD97":2546310.96,"ADDRESS":"永二街２４８號","OBJECTID":66667},"geometry":{"x":173238.20000000019,"y":2546310.9600000028}},{"attributes":{"ID":66668,"DIS_CODE":0,"TOWNNAME":"白河區","LI":"昇安里","LIN":"1鄰","STREET":" ","SECT":" ","MAREA":"三間厝","LANE":" ","ALLEY":" ","HOUSE_NO":"２之４３號","E_COORD97":191338.17000000001,"N_COORD97":2584625.3700000001,"ADDRESS":"三間厝２之４３號","OBJECTID":66668},"geometry":{"x":191338.17000000086,"y":2584625.370000001}},{"attributes":{"ID":66669,"DIS_CODE":0,"TOWNNAME":"永康區","LI":"永康里","LIN":"14鄰","STREET":"永中街","SECT":" ","MAREA":" ","LANE":"１００巷","ALLEY":"２６弄","HOUSE_NO":"１５號","E_COORD97":174045.67999999999,"N_COORD97":2547106.4300000002,"ADDRESS":"永中街１００巷２６弄１５號","OBJECTID":66669},"geometry":{"x":174045.68000000063,"y":2547106.4300000034}},{"attributes":{"ID":66670,"DIS_CODE":0,"TOWNNAME":"永康區","LI":"永康里","LIN":"31鄰","STREET":"埔聖街","SECT":" ","MAREA":" ","LANE":"１７１巷","ALLEY":"１弄","HOUSE_NO":"１０號","E_COORD97":174290.82999999999,"N_COORD97":2547709.6499999999,"ADDRESS":"埔聖街１７１巷１弄１０號","OBJECTID":66670},"geometry":{"x":174290.83000000101,"y":2547709.6500000022}},{"attributes":{"ID":66671,"DIS_CODE":0,"TOWNNAME":"永康區","LI":"永康里","LIN":"14鄰","STREET":"永中街","SECT":" ","MAREA":" ","LANE":"１００巷","ALLEY":"２６弄","HOUSE_NO":"９號","E_COORD97":174052,"N_COORD97":2547115.54,"ADDRESS":"永中街１００巷２６弄９號","OBJECTID":66671},"geometry":{"x":174052.00000000093,"y":2547115.540000001}},{"attributes":{"ID":66672,"DIS_CODE":0,"TOWNNAME":"永康區","LI":"甲頂里","LIN":"18鄰","STREET":"中正南路","SECT":" ","MAREA":" ","LANE":"５２巷","ALLEY":"４６弄","HOUSE_NO":"６３號","E_COORD97":169872.57999999999,"N_COORD97":2546602.0800000001,"ADDRESS":"中正南路５２巷４６弄６３號","OBJECTID":66672},"geometry":{"x":169872.58000000101,"y":2546602.0800000019}},{"attributes":{"ID":66673,"DIS_CODE":0,"TOWNNAME":"永康區","LI":"正強里","LIN":"31鄰","STREET":"自強路","SECT":" ","MAREA":" ","LANE":"２５５巷","ALLEY":"３５弄","HOUSE_NO":"２號之２","E_COORD97":173128.45999999999,"N_COORD97":2547586.5499999998,"ADDRESS":"自強路２５５巷３５弄２號之２","OBJECTID":66673},"geometry":{"x":173128.46000000089,"y":2547586.5500000007}},{"attributes":{"ID":66674,"DIS_CODE":0,"TOWNNAME":"永康區","LI":"永康里","LIN":"38鄰","STREET":"大同街","SECT":" ","MAREA":" ","LANE":"７１５巷","ALLEY":"２弄","HOUSE_NO":"７號","E_COORD97":174484.75,"N_COORD97":2546703.4900000002,"ADDRESS":"大同街７１５巷２弄７號","OBJECTID":66674},"geometry":{"x":174484.75,"y":2546703.4900000021}},{"attributes":{"ID":66675,"DIS_CODE":0,"TOWNNAME":"永康區","LI":"正強里","LIN":"18鄰","STREET":"自強路","SECT":" ","MAREA":" ","LANE":"１８８巷","ALLEY":"６２弄","HOUSE_NO":"３９號","E_COORD97":173124.95000000001,"N_COORD97":2547261.77,"ADDRESS":"自強路１８８巷６２弄３９號","OBJECTID":66675},"geometry":{"x":173124.95000000112,"y":2547261.7699999996}},{"attributes":{"ID":66676,"DIS_CODE":0,"TOWNNAME":"永康區","LI":"永康里","LIN":"31鄰","STREET":"埔聖街","SECT":" ","MAREA":" ","LANE":"１７１巷","ALLEY":"１弄","HOUSE_NO":"５號","E_COORD97":174291.56,"N_COORD97":2547684.7599999998,"ADDRESS":"埔聖街１７１巷１弄５號","OBJECTID":66676},"geometry":{"x":174291.56000000052,"y":2547684.7600000016}},{"attributes":{"ID":66677,"DIS_CODE":0,"TOWNNAME":"永康區","LI":"安康里","LIN":"15鄰","STREET":"中華路","SECT":" ","MAREA":" ","LANE":"６１９巷","ALLEY":"８８弄","HOUSE_NO":"６８號","E_COORD97":170958.82000000001,"N_COORD97":2546120.5,"ADDRESS":"中華路６１９巷８８弄６８號","OBJECTID":66677},"geometry":{"x":170958.8200000003,"y":2546120.5000000019}},{"attributes":{"ID":66678,"DIS_CODE":0,"TOWNNAME":"永康區","LI":"正強里","LIN":"31鄰","STREET":"自強路","SECT":" ","MAREA":" ","LANE":"２５５巷","ALLEY":"４２弄","HOUSE_NO":"１號之１７","E_COORD97":173121.04000000001,"N_COORD97":2547625.29,"ADDRESS":"自強路２５５巷４２弄１號之１７","OBJECTID":66678},"geometry":{"x":173121.04000000097,"y":2547625.2900000028}},{"attributes":{"ID":66679,"DIS_CODE":0,"TOWNNAME":"永康區","LI":"成功里","LIN":"37鄰","STREET":"中華路","SECT":" ","MAREA":" ","LANE":"１５４巷","ALLEY":"８７弄","HOUSE_NO":"２２號","E_COORD97":171801.23000000001,"N_COORD97":2544926.7400000002,"ADDRESS":"中華路１５４巷８７弄２２號","OBJECTID":66679},"geometry":{"x":171801.23000000138,"y":2544926.7400000002}},{"attributes":{"ID":66680,"DIS_CODE":0,"TOWNNAME":"永康區","LI":"正強里","LIN":"18鄰","STREET":"自強路","SECT":" ","MAREA":" ","LANE":"１８８巷","ALLEY":"７６弄","HOUSE_NO":"１１號","E_COORD97":173169.25,"N_COORD97":2547238,"ADDRESS":"自強路１８８巷７６弄１１號","OBJECTID":66680},"geometry":{"x":173169.25,"y":2547238}},{"attributes":{"ID":66681,"DIS_CODE":0,"TOWNNAME":"東區","LI":"虎尾里","LIN":"8鄰","STREET":"東成街","SECT":" ","MAREA":" ","LANE":" ","ALLEY":" ","HOUSE_NO":"１２６號","E_COORD97":171619.54000000001,"N_COORD97":2542288.1099999999,"ADDRESS":"東成街１２６號","OBJECTID":66681},"geometry":{"x":171619.54000000097,"y":2542288.1100000013}},{"attributes":{"ID":66682,"DIS_CODE":0,"TOWNNAME":"東區","LI":"虎尾里","LIN":"8鄰","STREET":"東成街","SECT":" ","MAREA":" ","LANE":" ","ALLEY":" ","HOUSE_NO":"１２８號","E_COORD97":171622.85999999999,"N_COORD97":2542289.2200000002,"ADDRESS":"東成街１２８號","OBJECTID":66682},"geometry":{"x":171622.86000000034,"y":2542289.2200000025}},{"attributes":{"ID":66683,"DIS_CODE":0,"TOWNNAME":"東區","LI":"虎尾里","LIN":"8鄰","STREET":"東成街","SECT":" ","MAREA":" ","LANE":" ","ALLEY":" ","HOUSE_NO":"１３０號","E_COORD97":171626.82000000001,"N_COORD97":2542290.0099999998,"ADDRESS":"東成街１３０號","OBJECTID":66683},"geometry":{"x":171626.8200000003,"y":2542290.0099999998}},{"attributes":{"ID":66684,"DIS_CODE":0,"TOWNNAME":"新市區","LI":"永就里","LIN":" ","STREET":"中華路","SECT":" ","MAREA":" ","LANE":" ","ALLEY":" ","HOUSE_NO":"６７號","E_COORD97":177733.81,"N_COORD97":2551561.25,"ADDRESS":"中華路６７號","OBJECTID":66684},"geometry":{"x":177733.80999999959,"y":2551561.25}},{"attributes":{"ID":66685,"DIS_CODE":0,"TOWNNAME":"新市區","LI":"永就里","LIN":" ","STREET":"中華路","SECT":" ","MAREA":" ","LANE":" ","ALLEY":" ","HOUSE_NO":"２０８號","E_COORD97":177825.12,"N_COORD97":2551292.5,"ADDRESS":"中華路２０８號","OBJECTID":66685},"geometry":{"x":177825.12000000104,"y":2551292.5}},{"attributes":{"ID":66686,"DIS_CODE":0,"TOWNNAME":"新市區","LI":"永就里","LIN":" ","STREET":"中華路","SECT":" ","MAREA":" ","LANE":" ","ALLEY":" ","HOUSE_NO":"６５號","E_COORD97":177731.81,"N_COORD97":2551564.75,"ADDRESS":"中華路６５號","OBJECTID":66686},"geometry":{"x":177731.80999999959,"y":2551564.75}},{"attributes":{"ID":66687,"DIS_CODE":0,"TOWNNAME":"新市區","LI":"永就里","LIN":" ","STREET":"中山路","SECT":" ","MAREA":" ","LANE":" ","ALLEY":" ","HOUSE_NO":"２６５號","E_COORD97":177042.23999999999,"N_COORD97":2551685,"ADDRESS":"中山路２６５號","OBJECTID":66687},"geometry":{"x":177042.24000000209,"y":2551685}},{"attributes":{"ID":66688,"DIS_CODE":0,"TOWNNAME":"新市區","LI":"新市里","LIN":" ","STREET":"仁愛街","SECT":" ","MAREA":" ","LANE":" ","ALLEY":" ","HOUSE_NO":"３０６之４號","E_COORD97":177663.60999999999,"N_COORD97":2553017.5499999998,"ADDRESS":"仁愛街３０６之４號","OBJECTID":66688},"geometry":{"x":177663.6100000022,"y":2553017.5500000026}},{"attributes":{"ID":66689,"DIS_CODE":0,"TOWNNAME":"新市區","LI":"新和里","LIN":" ","STREET":"華興街","SECT":" ","MAREA":" ","LANE":" ","ALLEY":" ","HOUSE_NO":"９７號","E_COORD97":177532.95000000001,"N_COORD97":2552964,"ADDRESS":"華興街９７號","OBJECTID":66689},"geometry":{"x":177532.95000000112,"y":2552964}},{"attributes":{"ID":66690,"DIS_CODE":0,"TOWNNAME":"新市區","LI":"新市里","LIN":" ","STREET":"復興路","SECT":" ","MAREA":" ","LANE":" ","ALLEY":" ","HOUSE_NO":"１１６之１號","E_COORD97":177850.48999999999,"N_COORD97":2553686.0499999998,"ADDRESS":"復興路１１６之１號","OBJECTID":66690},"geometry":{"x":177850.49000000022,"y":2553686.0500000007}},{"attributes":{"ID":66691,"DIS_CODE":0,"TOWNNAME":"仁德區","LI":"上崙里","LIN":" ","STREET":"上崙一街","SECT":" ","MAREA":" ","LANE":" ","ALLEY":" ","HOUSE_NO":"６號","E_COORD97":173811.64999999999,"N_COORD97":2538111.9900000002,"ADDRESS":"上崙一街６號","OBJECTID":66691},"geometry":{"x":173811.65000000037,"y":2538111.9900000039}},{"attributes":{"ID":66692,"DIS_CODE":0,"TOWNNAME":"新市區","LI":"潭頂里","LIN":"8鄰","STREET":" ","SECT":" ","MAREA":"潭頂","LANE":" ","ALLEY":" ","HOUSE_NO":"３２３之８１號","E_COORD97":181117.29806500001,"N_COORD97":2553506.5092199999,"ADDRESS":"潭頂３２３之８１號","OBJECTID":66692},"geometry":{"x":181117.29806499928,"y":2553506.5092210025}},{"attributes":{"ID":66693,"DIS_CODE":0,"TOWNNAME":"麻豆區","LI":"麻口里","LIN":"8鄰","STREET":" ","SECT":" ","MAREA":"麻豆口","LANE":" ","ALLEY":" ","HOUSE_NO":"８１號之６","E_COORD97":169876.71226,"N_COORD97":2564317.8266500002,"ADDRESS":"麻豆口８１號之６","OBJECTID":66693},"geometry":{"x":169876.71226000041,"y":2564317.8266500011}},{"attributes":{"ID":66694,"DIS_CODE":0,"TOWNNAME":"白河區","LI":"昇安里","LIN":"1鄰","STREET":" ","SECT":" ","MAREA":"三間厝","LANE":" ","ALLEY":" ","HOUSE_NO":"２之４４號","E_COORD97":191336.84,"N_COORD97":2584629.9300000002,"ADDRESS":"三間厝２之４４號","OBJECTID":66694},"geometry":{"x":191336.84000000078,"y":2584629.9299999997}},{"attributes":{"ID":66695,"DIS_CODE":0,"TOWNNAME":"白河區","LI":"昇安里","LIN":"1鄰","STREET":" ","SECT":" ","MAREA":"三間厝","LANE":" ","ALLEY":" ","HOUSE_NO":"２之４５號","E_COORD97":191335.51999999999,"N_COORD97":2584634.5,"ADDRESS":"三間厝２之４５號","OBJECTID":66695},"geometry":{"x":191335.52000000048,"y":2584634.5000000019}},{"attributes":{"ID":66696,"DIS_CODE":0,"TOWNNAME":"白河區","LI":"昇安里","LIN":"1鄰","STREET":" ","SECT":" ","MAREA":"三間厝","LANE":" ","ALLEY":" ","HOUSE_NO":"２之４６號","E_COORD97":191369.10000000001,"N_COORD97":2584605.3900000001,"ADDRESS":"三間厝２之４６號","OBJECTID":66696},"geometry":{"x":191369.10000000056,"y":2584605.3900000025}},{"attributes":{"ID":66697,"DIS_CODE":0,"TOWNNAME":"東區","LI":"虎尾里","LIN":"8鄰","STREET":"東成街","SECT":" ","MAREA":" ","LANE":" ","ALLEY":" ","HOUSE_NO":"１３２號","E_COORD97":171631.89000000001,"N_COORD97":2542290.71,"ADDRESS":"東成街１３２號","OBJECTID":66697},"geometry":{"x":171631.8900000006,"y":2542290.7100000009}},{"attributes":{"ID":66698,"DIS_CODE":0,"TOWNNAME":"東區","LI":"虎尾里","LIN":"8鄰","STREET":"東成街","SECT":" ","MAREA":" ","LANE":" ","ALLEY":" ","HOUSE_NO":"１３４號","E_COORD97":171635.60999999999,"N_COORD97":2542290.98,"ADDRESS":"東成街１３４號","OBJECTID":66698},"geometry":{"x":171635.6100000022,"y":2542290.9800000004}},{"attributes":{"ID":66699,"DIS_CODE":0,"TOWNNAME":"東區","LI":"虎尾里","LIN":"8鄰","STREET":"東成街","SECT":" ","MAREA":" ","LANE":" ","ALLEY":" ","HOUSE_NO":"１３６號","E_COORD97":171639.87,"N_COORD97":2542291.7799999998,"ADDRESS":"東成街１３６號","OBJECTID":66699},"geometry":{"x":171639.87000000011,"y":2542291.7799999993}},{"attributes":{"ID":66700,"DIS_CODE":0,"TOWNNAME":"東區","LI":"虎尾里","LIN":"8鄰","STREET":"東成街","SECT":" ","MAREA":" ","LANE":" ","ALLEY":" ","HOUSE_NO":"１３８號","E_COORD97":171643.87,"N_COORD97":2542292.1699999999,"ADDRESS":"東成街１３８號","OBJECTID":66700},"geometry":{"x":171643.87000000104,"y":2542292.1700000018}},{"attributes":{"ID":66701,"DIS_CODE":0,"TOWNNAME":"白河區","LI":"昇安里","LIN":"1鄰","STREET":" ","SECT":" ","MAREA":"三間厝","LANE":" ","ALLEY":" ","HOUSE_NO":"２之４７號","E_COORD97":191367.79000000001,"N_COORD97":2584609.4900000002,"ADDRESS":"三間厝２之４７號","OBJECTID":66701},"geometry":{"x":191367.7900000019,"y":2584609.4900000002}},{"attributes":{"ID":66702,"DIS_CODE":0,"TOWNNAME":"大內區","LI":"石城里","LIN":"8鄰","STREET":" ","SECT":" ","MAREA":"石子瀨","LANE":" ","ALLEY":" ","HOUSE_NO":"７７號之７","E_COORD97":184142.62,"N_COORD97":2557752.2999999998,"ADDRESS":"石子瀨７７號之７","OBJECTID":66702},"geometry":{"x":184142.62000000104,"y":2557752.3000000026}},{"attributes":{"ID":66703,"DIS_CODE":0,"TOWNNAME":"新市區","LI":"港墘里","LIN":"8鄰","STREET":" ","SECT":" ","MAREA":"崙頂","LANE":" ","ALLEY":" ","HOUSE_NO":"１號之１","E_COORD97":179014.51000000001,"N_COORD97":2552764.7999999998,"ADDRESS":"崙頂１號之１","OBJECTID":66703},"geometry":{"x":179014.50999999978,"y":2552764.8000000026}},{"attributes":{"ID":66704,"DIS_CODE":0,"TOWNNAME":"白河區","LI":"大竹里","LIN":"8鄰","STREET":" ","SECT":" ","MAREA":"大排竹","LANE":" ","ALLEY":" ","HOUSE_NO":"１１７號","E_COORD97":189767.39334899999,"N_COORD97":2585111.1236399999,"ADDRESS":"大排竹１１７號","OBJECTID":66704},"geometry":{"x":189767.39334900025,"y":2585111.1236429997}},{"attributes":{"ID":66705,"DIS_CODE":0,"TOWNNAME":"佳里區","LI":"佳化里","LIN":"8鄰","STREET":" ","SECT":" ","MAREA":"佳里興","LANE":" ","ALLEY":" ","HOUSE_NO":"７８號","E_COORD97":167644.12,"N_COORD97":2564995.4199999999,"ADDRESS":"佳里興７８號","OBJECTID":66705},"geometry":{"x":167644.12000000011,"y":2564995.4200000018}},{"attributes":{"ID":66706,"DIS_CODE":0,"TOWNNAME":"永康區","LI":"甲頂里","LIN":"19鄰","STREET":"中正南路","SECT":" ","MAREA":" ","LANE":"５２巷","ALLEY":"４６弄","HOUSE_NO":"７４號","E_COORD97":169915.79000000001,"N_COORD97":2546594.3300000001,"ADDRESS":"中正南路５２巷４６弄７４號","OBJECTID":66706},"geometry":{"x":169915.79000000097,"y":2546594.3300000001}},{"attributes":{"ID":66707,"DIS_CODE":0,"TOWNNAME":"白河區","LI":"昇安里","LIN":"1鄰","STREET":" ","SECT":" ","MAREA":"三間厝","LANE":" ","ALLEY":" ","HOUSE_NO":"２之４８號","E_COORD97":191366.48000000001,"N_COORD97":2584613.6000000001,"ADDRESS":"三間厝２之４８號","OBJECTID":66707},"geometry":{"x":191366.48000000045,"y":2584613.6000000015}},{"attributes":{"ID":66708,"DIS_CODE":0,"TOWNNAME":"白河區","LI":"昇安里","LIN":"1鄰","STREET":" ","SECT":" ","MAREA":"三間厝","LANE":" ","ALLEY":" ","HOUSE_NO":"２之４９號","E_COORD97":191365.17000000001,"N_COORD97":2584617.71,"ADDRESS":"三間厝２之４９號","OBJECTID":66708},"geometry":{"x":191365.17000000086,"y":2584617.7100000028}},{"attributes":{"ID":66709,"DIS_CODE":0,"TOWNNAME":"白河區","LI":"昇安里","LIN":"1鄰","STREET":" ","SECT":" ","MAREA":"三間厝","LANE":" ","ALLEY":" ","HOUSE_NO":"２之４號","E_COORD97":191372.48000000001,"N_COORD97":2584670.3399999999,"ADDRESS":"三間厝２之４號","OBJECTID":66709},"geometry":{"x":191372.48000000138,"y":2584670.3400000017}},{"attributes":{"ID":66710,"DIS_CODE":0,"TOWNNAME":"白河區","LI":"昇安里","LIN":"1鄰","STREET":" ","SECT":" ","MAREA":"三間厝","LANE":" ","ALLEY":" ","HOUSE_NO":"２之５２號","E_COORD97":191361.25,"N_COORD97":2584630.0299999998,"ADDRESS":"三間厝２之５２號","OBJECTID":66710},"geometry":{"x":191361.25000000186,"y":2584630.0300000031}},{"attributes":{"ID":66711,"DIS_CODE":0,"TOWNNAME":"白河區","LI":"昇安里","LIN":"1鄰","STREET":" ","SECT":" ","MAREA":"三間厝","LANE":" ","ALLEY":" ","HOUSE_NO":"２之５３號","E_COORD97":191359.94,"N_COORD97":2584634.1299999999,"ADDRESS":"三間厝２之５３號","OBJECTID":66711},"geometry":{"x":191359.94000000041,"y":2584634.129999999}},{"attributes":{"ID":66712,"DIS_CODE":0,"TOWNNAME":"白河區","LI":"昇安里","LIN":"1鄰","STREET":" ","SECT":" ","MAREA":"三間厝","LANE":" ","ALLEY":" ","HOUSE_NO":"２之５４號","E_COORD97":191358.64000000001,"N_COORD97":2584638.2400000002,"ADDRESS":"三間厝２之５４號","OBJECTID":66712},"geometry":{"x":191358.6400000006,"y":2584638.2400000002}},{"attributes":{"ID":66713,"DIS_CODE":0,"TOWNNAME":"白河區","LI":"昇安里","LIN":"1鄰","STREET":" ","SECT":" ","MAREA":"三間厝","LANE":" ","ALLEY":" ","HOUSE_NO":"２之５５號","E_COORD97":191357.32999999999,"N_COORD97":2584642.3500000001,"ADDRESS":"三間厝２之５５號","OBJECTID":66713},"geometry":{"x":191357.33000000194,"y":2584642.3500000015}},{"attributes":{"ID":66714,"DIS_CODE":0,"TOWNNAME":"永康區","LI":"永康里","LIN":"13鄰","STREET":"永康街","SECT":" ","MAREA":" ","LANE":"１３６巷","ALLEY":"１３弄","HOUSE_NO":"２８號","E_COORD97":173971.5,"N_COORD97":2546995.6200000001,"ADDRESS":"永康街１３６巷１３弄２８號","OBJECTID":66714},"geometry":{"x":173971.5,"y":2546995.6200000029}},{"attributes":{"ID":66715,"DIS_CODE":0,"TOWNNAME":"永康區","LI":"永康里","LIN":"30鄰","STREET":"永華路","SECT":" ","MAREA":" ","LANE":"７０２巷","ALLEY":"３５弄","HOUSE_NO":"４１號","E_COORD97":174192.42000000001,"N_COORD97":2547130.25,"ADDRESS":"永華路７０２巷３５弄４１號","OBJECTID":66715},"geometry":{"x":174192.41999999993,"y":2547130.25}},{"attributes":{"ID":66716,"DIS_CODE":0,"TOWNNAME":"永康區","LI":"正強里","LIN":"13鄰","STREET":"正強街","SECT":" ","MAREA":" ","LANE":"１１１巷","ALLEY":"１６弄","HOUSE_NO":"１７號","E_COORD97":173259.54999999999,"N_COORD97":2547446.1299999999,"ADDRESS":"正強街１１１巷１６弄１７號","OBJECTID":66716},"geometry":{"x":173259.55000000075,"y":2547446.129999999}},{"attributes":{"ID":66717,"DIS_CODE":0,"TOWNNAME":"永康區","LI":"安康里","LIN":"13鄰","STREET":"中華路","SECT":" ","MAREA":" ","LANE":"６１９巷","ALLEY":"８８弄","HOUSE_NO":"１５號","E_COORD97":170829.45000000001,"N_COORD97":2546030,"ADDRESS":"中華路６１９巷８８弄１５號","OBJECTID":66717},"geometry":{"x":170829.45000000205,"y":2546030}},{"attributes":{"ID":66718,"DIS_CODE":0,"TOWNNAME":"永康區","LI":"西橋里","LIN":"24鄰","STREET":"大橋三街","SECT":" ","MAREA":" ","LANE":"５７巷","ALLEY":"６０弄","HOUSE_NO":"１號","E_COORD97":170505.22,"N_COORD97":2546616.75,"ADDRESS":"大橋三街５７巷６０弄１號","OBJECTID":66718},"geometry":{"x":170505.2200000016,"y":2546616.7500000019}},{"attributes":{"ID":66719,"DIS_CODE":0,"TOWNNAME":"永康區","LI":"安康里","LIN":"17鄰","STREET":"中華路","SECT":" ","MAREA":" ","LANE":"６１９巷","ALLEY":"２２弄","HOUSE_NO":"４號","E_COORD97":170998.95999999999,"N_COORD97":2546106.25,"ADDRESS":"中華路６１９巷２２弄４號","OBJECTID":66719},"geometry":{"x":170998.96000000089,"y":2546106.25}},{"attributes":{"ID":66720,"DIS_CODE":0,"TOWNNAME":"永康區","LI":"甲頂里","LIN":"18鄰","STREET":"中正南路","SECT":" ","MAREA":" ","LANE":"５２巷","ALLEY":"４６弄","HOUSE_NO":"４３號","E_COORD97":169838.22,"N_COORD97":2546643.5899999999,"ADDRESS":"中正南路５２巷４６弄４３號","OBJECTID":66720},"geometry":{"x":169838.21999999974,"y":2546643.5899999999}},{"attributes":{"ID":66721,"DIS_CODE":0,"TOWNNAME":"永康區","LI":"永康里","LIN":"1鄰","STREET":"中山北路","SECT":" ","MAREA":" ","LANE":"３５巷","ALLEY":"３６弄","HOUSE_NO":"３號","E_COORD97":173918.81,"N_COORD97":2547541.4900000002,"ADDRESS":"中山北路３５巷３６弄３號","OBJECTID":66721},"geometry":{"x":173918.81000000052,"y":2547541.4900000021}},{"attributes":{"ID":66722,"DIS_CODE":0,"TOWNNAME":"永康區","LI":"正強里","LIN":"6鄰","STREET":"自強路","SECT":" ","MAREA":" ","LANE":"３３０巷","ALLEY":"９弄","HOUSE_NO":"１０號","E_COORD97":173473.47,"N_COORD97":2547683,"ADDRESS":"自強路３３０巷９弄１０號","OBJECTID":66722},"geometry":{"x":173473.4700000016,"y":2547683.0000000019}},{"attributes":{"ID":66723,"DIS_CODE":0,"TOWNNAME":"南區","LI":"南都里","LIN":"6鄰","STREET":"中華南路","SECT":"二段","MAREA":" ","LANE":"３１５巷","ALLEY":"１２弄","HOUSE_NO":"１０號三樓","E_COORD97":166429.09,"N_COORD97":2540088.73,"ADDRESS":"中華南路二段３１５巷１２弄１０號三樓","OBJECTID":66723},"geometry":{"x":166429.08999999892,"y":2540088.7300000004}},{"attributes":{"ID":66724,"DIS_CODE":0,"TOWNNAME":"南區","LI":"南都里","LIN":"6鄰","STREET":"中華南路","SECT":"二段","MAREA":" ","LANE":"３１５巷","ALLEY":"１２弄","HOUSE_NO":"１０號五樓","E_COORD97":166429.09,"N_COORD97":2540088.73,"ADDRESS":"中華南路二段３１５巷１２弄１０號五樓","OBJECTID":66724},"geometry":{"x":166429.08999999892,"y":2540088.7300000004}},{"attributes":{"ID":66725,"DIS_CODE":0,"TOWNNAME":"安平區","LI":"文平里","LIN":"8鄰","STREET":"建平六街","SECT":" ","MAREA":" ","LANE":" ","ALLEY":" ","HOUSE_NO":"１１４號之１","E_COORD97":166197.59929000001,"N_COORD97":2543142.35867,"ADDRESS":"建平六街１１４號之１","OBJECTID":66725},"geometry":{"x":166197.59929000121,"y":2543142.3586700018}},{"attributes":{"ID":66726,"DIS_CODE":0,"TOWNNAME":"新營區","LI":"民權里","LIN":"8鄰","STREET":"民有街","SECT":" ","MAREA":" ","LANE":" ","ALLEY":" ","HOUSE_NO":"１８號","E_COORD97":179910.103565,"N_COORD97":2578092.9835299999,"ADDRESS":"民有街１８號","OBJECTID":66726},"geometry":{"x":179910.10356500093,"y":2578092.9835260008}},{"attributes":{"ID":66727,"DIS_CODE":0,"TOWNNAME":"東區","LI":"中西里","LIN":"8鄰","STREET":"勝利路","SECT":" ","MAREA":" ","LANE":" ","ALLEY":" ","HOUSE_NO":"２０號之１","E_COORD97":169819.86311199999,"N_COORD97":2543398.5663200002,"ADDRESS":"勝利路２０號之１","OBJECTID":66727},"geometry":{"x":169819.86311199982,"y":2543398.5663239993}},{"attributes":{"ID":66728,"DIS_CODE":0,"TOWNNAME":"東區","LI":"德高里","LIN":"8鄰","STREET":"仁和路","SECT":" ","MAREA":" ","LANE":" ","ALLEY":" ","HOUSE_NO":"１６２之１號","E_COORD97":171459.91,"N_COORD97":2541124.8999999999,"ADDRESS":"仁和路１６２之１號","OBJECTID":66728},"geometry":{"x":171459.91000000015,"y":2541124.9000000004}},{"attributes":{"ID":66729,"DIS_CODE":0,"TOWNNAME":"東區","LI":"虎尾里","LIN":"8鄰","STREET":"富農街","SECT":"一段","MAREA":" ","LANE":"４８巷","ALLEY":" ","HOUSE_NO":"３４號","E_COORD97":171654.82999999999,"N_COORD97":2542139.2400000002,"ADDRESS":"富農街一段４８巷３４號","OBJECTID":66729},"geometry":{"x":171654.83000000101,"y":2542139.2400000021}},{"attributes":{"ID":66730,"DIS_CODE":0,"TOWNNAME":"永康區","LI":"正強里","LIN":"8鄰","STREET":"正義街","SECT":" ","MAREA":" ","LANE":" ","ALLEY":" ","HOUSE_NO":"６３號","E_COORD97":173535.09,"N_COORD97":2547616.7000000002,"ADDRESS":"正義街６３號","OBJECTID":66730},"geometry":{"x":173535.08999999985,"y":2547616.7000000011}},{"attributes":{"ID":66731,"DIS_CODE":0,"TOWNNAME":"永康區","LI":"永康里","LIN":"8鄰","STREET":"永康街","SECT":" ","MAREA":" ","LANE":" ","ALLEY":" ","HOUSE_NO":"７號","E_COORD97":173788.32000000001,"N_COORD97":2547304.9399999999,"ADDRESS":"永康街７號","OBJECTID":66731},"geometry":{"x":173788.3200000003,"y":2547304.9399999995}},{"attributes":{"ID":66732,"DIS_CODE":0,"TOWNNAME":"南區","LI":"南都里","LIN":"6鄰","STREET":"中華南路","SECT":"二段","MAREA":" ","LANE":"３１５巷","ALLEY":"１２弄","HOUSE_NO":"１０號四樓","E_COORD97":166429.09,"N_COORD97":2540088.73,"ADDRESS":"中華南路二段３１５巷１２弄１０號四樓","OBJECTID":66732},"geometry":{"x":166429.08999999892,"y":2540088.7300000004}},{"attributes":{"ID":66733,"DIS_CODE":0,"TOWNNAME":"南區","LI":"南都里","LIN":"6鄰","STREET":"中華南路","SECT":"二段","MAREA":" ","LANE":"３１５巷","ALLEY":"１２弄","HOUSE_NO":"１２號二樓","E_COORD97":166420.45999999999,"N_COORD97":2540089.3300000001,"ADDRESS":"中華南路二段３１５巷１２弄１２號二樓","OBJECTID":66733},"geometry":{"x":166420.46000000089,"y":2540089.3300000038}},{"attributes":{"ID":66734,"DIS_CODE":0,"TOWNNAME":"南區","LI":"南都里","LIN":"6鄰","STREET":"中華南路","SECT":"二段","MAREA":" ","LANE":"３１５巷","ALLEY":"１２弄","HOUSE_NO":"１２號三樓","E_COORD97":166420.45999999999,"N_COORD97":2540089.3300000001,"ADDRESS":"中華南路二段３１５巷１２弄１２號三樓","OBJECTID":66734},"geometry":{"x":166420.46000000089,"y":2540089.3300000038}},{"attributes":{"ID":66735,"DIS_CODE":0,"TOWNNAME":"南區","LI":"南都里","LIN":"6鄰","STREET":"中華南路","SECT":"二段","MAREA":" ","LANE":"３１５巷","ALLEY":"１２弄","HOUSE_NO":"１２號五樓","E_COORD97":166420.45999999999,"N_COORD97":2540089.3300000001,"ADDRESS":"中華南路二段３１５巷１２弄１２號五樓","OBJECTID":66735},"geometry":{"x":166420.46000000089,"y":2540089.3300000038}},{"attributes":{"ID":66736,"DIS_CODE":0,"TOWNNAME":"仁德區","LI":"保安里","LIN":" ","STREET":"保安路","SECT":"一段","MAREA":" ","LANE":" ","ALLEY":" ","HOUSE_NO":"９０之２號","E_COORD97":170866.57000000001,"N_COORD97":2536496.5699999998,"ADDRESS":"保安路一段９０之２號","OBJECTID":66736},"geometry":{"x":170866.57000000123,"y":2536496.5700000003}},{"attributes":{"ID":66737,"DIS_CODE":0,"TOWNNAME":"仁德區","LI":"保安里","LIN":" ","STREET":"文賢路","SECT":"一段","MAREA":" ","LANE":" ","ALLEY":" ","HOUSE_NO":"７８７號","E_COORD97":171528.82000000001,"N_COORD97":2536113.3199999998,"ADDRESS":"文賢路一段７８７號","OBJECTID":66737},"geometry":{"x":171528.81999999937,"y":2536113.3200000022}},{"attributes":{"ID":66738,"DIS_CODE":0,"TOWNNAME":"仁德區","LI":"田厝里","LIN":" ","STREET":"中正路","SECT":"一段","MAREA":" ","LANE":" ","ALLEY":" ","HOUSE_NO":"４５７號","E_COORD97":172772.10000000001,"N_COORD97":2537324.2799999998,"ADDRESS":"中正路一段４５７號","OBJECTID":66738},"geometry":{"x":172772.09999999963,"y":2537324.2799999993}},{"attributes":{"ID":66739,"DIS_CODE":0,"TOWNNAME":"仁德區","LI":"上崙里","LIN":" ","STREET":"中正路","SECT":"一段","MAREA":" ","LANE":" ","ALLEY":" ","HOUSE_NO":"７６２號","E_COORD97":172964.10999999999,"N_COORD97":2537849.7799999998,"ADDRESS":"中正路一段７６２號","OBJECTID":66739},"geometry":{"x":172964.11000000034,"y":2537849.7799999993}},{"attributes":{"ID":66740,"DIS_CODE":0,"TOWNNAME":"南區","LI":"南都里","LIN":"6鄰","STREET":"中華南路","SECT":"二段","MAREA":" ","LANE":"３１５巷","ALLEY":"１２弄","HOUSE_NO":"１２號四樓","E_COORD97":166420.45999999999,"N_COORD97":2540089.3300000001,"ADDRESS":"中華南路二段３１５巷１２弄１２號四樓","OBJECTID":66740},"geometry":{"x":166420.46000000089,"y":2540089.3300000038}},{"attributes":{"ID":66741,"DIS_CODE":0,"TOWNNAME":"南區","LI":"南都里","LIN":"6鄰","STREET":"中華南路","SECT":"二段","MAREA":" ","LANE":"３１５巷","ALLEY":"１２弄","HOUSE_NO":"１４號二樓","E_COORD97":166409.10000000001,"N_COORD97":2540089.02,"ADDRESS":"中華南路二段３１５巷１２弄１４號二樓","OBJECTID":66741},"geometry":{"x":166409.10000000056,"y":2540089.0200000014}},{"attributes":{"ID":66742,"DIS_CODE":0,"TOWNNAME":"仁德區","LI":"上崙里","LIN":" ","STREET":"德崙路","SECT":" ","MAREA":" ","LANE":" ","ALLEY":" ","HOUSE_NO":"３１０號","E_COORD97":173867.92000000001,"N_COORD97":2538119.77,"ADDRESS":"德崙路３１０號","OBJECTID":66742},"geometry":{"x":173867.92000000086,"y":2538119.7700000014}},{"attributes":{"ID":66743,"DIS_CODE":0,"TOWNNAME":"南區","LI":"南都里","LIN":"6鄰","STREET":"中華南路","SECT":"二段","MAREA":" ","LANE":"３１５巷","ALLEY":"１２弄","HOUSE_NO":"１４號三樓","E_COORD97":166409.10000000001,"N_COORD97":2540089.02,"ADDRESS":"中華南路二段３１５巷１２弄１４號三樓","OBJECTID":66743},"geometry":{"x":166409.10000000056,"y":2540089.0200000014}},{"attributes":{"ID":66744,"DIS_CODE":0,"TOWNNAME":"南區","LI":"南都里","LIN":"6鄰","STREET":"中華南路","SECT":"二段","MAREA":" ","LANE":"３１５巷","ALLEY":"１２弄","HOUSE_NO":"１４號五樓","E_COORD97":166409.10000000001,"N_COORD97":2540089.02,"ADDRESS":"中華南路二段３１５巷１２弄１４號五樓","OBJECTID":66744},"geometry":{"x":166409.10000000056,"y":2540089.0200000014}},{"attributes":{"ID":66745,"DIS_CODE":0,"TOWNNAME":"南區","LI":"南都里","LIN":"6鄰","STREET":"中華南路","SECT":"二段","MAREA":" ","LANE":"３１５巷","ALLEY":"１２弄","HOUSE_NO":"１４號四樓","E_COORD97":166409.10000000001,"N_COORD97":2540089.02,"ADDRESS":"中華南路二段３１５巷１２弄１４號四樓","OBJECTID":66745},"geometry":{"x":166409.10000000056,"y":2540089.0200000014}},{"attributes":{"ID":66746,"DIS_CODE":0,"TOWNNAME":"南區","LI":"南都里","LIN":"6鄰","STREET":"中華南路","SECT":"二段","MAREA":" ","LANE":"３１５巷","ALLEY":"１２弄","HOUSE_NO":"１６號二樓","E_COORD97":166401.10999999999,"N_COORD97":2540089.02,"ADDRESS":"中華南路二段３１５巷１２弄１６號二樓","OBJECTID":66746},"geometry":{"x":166401.11000000127,"y":2540089.0200000014}},{"attributes":{"ID":66747,"DIS_CODE":0,"TOWNNAME":"安南區","LI":"總頭里","LIN":"8鄰","STREET":"長溪路","SECT":"二段","MAREA":" ","LANE":" ","ALLEY":" ","HOUSE_NO":"６７３號","E_COORD97":168109.923412,"N_COORD97":2550936.7993999999,"ADDRESS":"長溪路二段６７３號","OBJECTID":66747},"geometry":{"x":168109.92341199983,"y":2550936.7993979994}},{"attributes":{"ID":66748,"DIS_CODE":0,"TOWNNAME":"永康區","LI":"復國里","LIN":"8鄰","STREET":"復國二路","SECT":" ","MAREA":" ","LANE":"６３巷","ALLEY":" ","HOUSE_NO":"８號","E_COORD97":172799.98000000001,"N_COORD97":2545144.02,"ADDRESS":"復國二路６３巷８號","OBJECTID":66748},"geometry":{"x":172799.98000000138,"y":2545144.0200000014}},{"attributes":{"ID":66749,"DIS_CODE":0,"TOWNNAME":"永康區","LI":"蔦松里","LIN":"8鄰","STREET":"蔦松二街","SECT":" ","MAREA":" ","LANE":" ","ALLEY":" ","HOUSE_NO":"２７號","E_COORD97":173647.60999999999,"N_COORD97":2549193.0699999998,"ADDRESS":"蔦松二街２７號","OBJECTID":66749},"geometry":{"x":173647.6099999994,"y":2549193.0700000003}},{"attributes":{"ID":66750,"DIS_CODE":0,"TOWNNAME":"仁德區","LI":"保安里","LIN":" ","STREET":"保安路","SECT":"一段","MAREA":" ","LANE":" ","ALLEY":" ","HOUSE_NO":"５９之１０號","E_COORD97":170848.19,"N_COORD97":2536713.0699999998,"ADDRESS":"保安路一段５９之１０號","OBJECTID":66750},"geometry":{"x":170848.19000000041,"y":2536713.0700000003}},{"attributes":{"ID":66751,"DIS_CODE":0,"TOWNNAME":"麻豆區","LI":"大埕里","LIN":"8鄰","STREET":" ","SECT":" ","MAREA":"大埕","LANE":" ","ALLEY":" ","HOUSE_NO":"１５號之１９","E_COORD97":173174.06487999999,"N_COORD97":2565339.1363300001,"ADDRESS":"大埕１５號之１９","OBJECTID":66751},"geometry":{"x":173174.06488000136,"y":2565339.1363300029}},{"attributes":{"ID":66752,"DIS_CODE":0,"TOWNNAME":"下營區","LI":"賀建里","LIN":"8鄰","STREET":" ","SECT":" ","MAREA":"火燒珠","LANE":" ","ALLEY":" ","HOUSE_NO":"１號之１","E_COORD97":176646.48999999999,"N_COORD97":2572706.8999999999,"ADDRESS":"火燒珠１號之１","OBJECTID":66752},"geometry":{"x":176646.49000000022,"y":2572706.9000000004}},{"attributes":{"ID":66753,"DIS_CODE":0,"TOWNNAME":"將軍區","LI":"嘉昌里","LIN":"8鄰","STREET":" ","SECT":" ","MAREA":"北嘉","LANE":" ","ALLEY":" ","HOUSE_NO":"６２號","E_COORD97":163410.57999999999,"N_COORD97":2567808.1099999999,"ADDRESS":"北嘉６２號","OBJECTID":66753},"geometry":{"x":163410.58000000101,"y":2567808.1099999994}},{"attributes":{"ID":66754,"DIS_CODE":0,"TOWNNAME":"永康區","LI":"甲頂里","LIN":"19鄰","STREET":"中正南路","SECT":" ","MAREA":" ","LANE":"５２巷","ALLEY":"４６弄","HOUSE_NO":"７５號","E_COORD97":169919.39999999999,"N_COORD97":2546566.6899999999,"ADDRESS":"中正南路５２巷４６弄７５號","OBJECTID":66754},"geometry":{"x":169919.40000000037,"y":2546566.6900000013}},{"attributes":{"ID":66755,"DIS_CODE":0,"TOWNNAME":"佳里區","LI":"忠仁里","LIN":"8鄰","STREET":" ","SECT":" ","MAREA":"忠仁","LANE":" ","ALLEY":" ","HOUSE_NO":"４４號之１","E_COORD97":165963.47,"N_COORD97":2562080.23,"ADDRESS":"忠仁４４號之１","OBJECTID":66755},"geometry":{"x":165963.46999999974,"y":2562080.2300000042}},{"attributes":{"ID":66756,"DIS_CODE":0,"TOWNNAME":"永康區","LI":"永康里","LIN":"38鄰","STREET":"大同街","SECT":" ","MAREA":" ","LANE":"７１５巷","ALLEY":"２弄","HOUSE_NO":"２號","E_COORD97":174495.98999999999,"N_COORD97":2546689.21,"ADDRESS":"大同街７１５巷２弄２號","OBJECTID":66756},"geometry":{"x":174495.99000000209,"y":2546689.2100000028}},{"attributes":{"ID":66757,"DIS_CODE":0,"TOWNNAME":"南區","LI":"南都里","LIN":"6鄰","STREET":"中華南路","SECT":"二段","MAREA":" ","LANE":"３１５巷","ALLEY":"１２弄","HOUSE_NO":"１６號三樓","E_COORD97":166401.10999999999,"N_COORD97":2540089.02,"ADDRESS":"中華南路二段３１５巷１２弄１６號三樓","OBJECTID":66757},"geometry":{"x":166401.11000000127,"y":2540089.0200000014}},{"attributes":{"ID":66758,"DIS_CODE":0,"TOWNNAME":"南區","LI":"南都里","LIN":"6鄰","STREET":"中華南路","SECT":"二段","MAREA":" ","LANE":"３１５巷","ALLEY":"１２弄","HOUSE_NO":"１６號五樓","E_COORD97":166401.10999999999,"N_COORD97":2540089.02,"ADDRESS":"中華南路二段３１５巷１２弄１６號五樓","OBJECTID":66758},"geometry":{"x":166401.11000000127,"y":2540089.0200000014}},{"attributes":{"ID":66759,"DIS_CODE":0,"TOWNNAME":"白河區","LI":"昇安里","LIN":"1鄰","STREET":" ","SECT":" ","MAREA":"三間厝","LANE":" ","ALLEY":" ","HOUSE_NO":"２之５６號","E_COORD97":191242.84,"N_COORD97":2584599.1899999999,"ADDRESS":"三間厝２之５６號","OBJECTID":66759},"geometry":{"x":191242.83999999985,"y":2584599.1900000013}},{"attributes":{"ID":66760,"DIS_CODE":0,"TOWNNAME":"白河區","LI":"昇安里","LIN":"1鄰","STREET":" ","SECT":" ","MAREA":"三間厝","LANE":" ","ALLEY":" ","HOUSE_NO":"２之５８號","E_COORD97":191171.59,"N_COORD97":2584498.2999999998,"ADDRESS":"三間厝２之５８號","OBJECTID":66760},"geometry":{"x":191171.58999999985,"y":2584498.3000000026}},{"attributes":{"ID":66761,"DIS_CODE":0,"TOWNNAME":"白河區","LI":"昇安里","LIN":"1鄰","STREET":" ","SECT":" ","MAREA":"三間厝","LANE":" ","ALLEY":" ","HOUSE_NO":"２之５號","E_COORD97":191368.31,"N_COORD97":2584668.46,"ADDRESS":"三間厝２之５號","OBJECTID":66761},"geometry":{"x":191368.30999999959,"y":2584668.4600000009}},{"attributes":{"ID":66762,"DIS_CODE":0,"TOWNNAME":"南區","LI":"南都里","LIN":"6鄰","STREET":"中華南路","SECT":"二段","MAREA":" ","LANE":"３１５巷","ALLEY":"１２弄","HOUSE_NO":"１６號四樓","E_COORD97":166401.10999999999,"N_COORD97":2540089.02,"ADDRESS":"中華南路二段３１５巷１２弄１６號四樓","OBJECTID":66762},"geometry":{"x":166401.11000000127,"y":2540089.0200000014}},{"attributes":{"ID":66763,"DIS_CODE":0,"TOWNNAME":"南區","LI":"南都里","LIN":"6鄰","STREET":"中華南路","SECT":"二段","MAREA":" ","LANE":"３１５巷","ALLEY":"１２弄","HOUSE_NO":"１８號二樓","E_COORD97":166392.82000000001,"N_COORD97":2540089.02,"ADDRESS":"中華南路二段３１５巷１２弄１８號二樓","OBJECTID":66763},"geometry":{"x":166392.82000000123,"y":2540089.0200000014}},{"attributes":{"ID":66764,"DIS_CODE":0,"TOWNNAME":"南區","LI":"南都里","LIN":"6鄰","STREET":"中華南路","SECT":"二段","MAREA":" ","LANE":"３１５巷","ALLEY":"１２弄","HOUSE_NO":"１８號三樓","E_COORD97":166392.82000000001,"N_COORD97":2540089.02,"ADDRESS":"中華南路二段３１５巷１２弄１８號三樓","OBJECTID":66764},"geometry":{"x":166392.82000000123,"y":2540089.0200000014}},{"attributes":{"ID":66765,"DIS_CODE":0,"TOWNNAME":"白河區","LI":"昇安里","LIN":"1鄰","STREET":" ","SECT":" ","MAREA":"三間厝","LANE":" ","ALLEY":" ","HOUSE_NO":"２之６０號","E_COORD97":191228.82999999999,"N_COORD97":2584562.1400000001,"ADDRESS":"三間厝２之６０號","OBJECTID":66765},"geometry":{"x":191228.83000000101,"y":2584562.1400000006}},{"attributes":{"ID":66766,"DIS_CODE":0,"TOWNNAME":"白河區","LI":"昇安里","LIN":"1鄰","STREET":" ","SECT":" ","MAREA":"三間厝","LANE":" ","ALLEY":" ","HOUSE_NO":"２之６號","E_COORD97":191363.35999999999,"N_COORD97":2584666.5499999998,"ADDRESS":"三間厝２之６號","OBJECTID":66766},"geometry":{"x":191363.36000000034,"y":2584666.5500000026}},{"attributes":{"ID":66767,"DIS_CODE":0,"TOWNNAME":"白河區","LI":"昇安里","LIN":"1鄰","STREET":" ","SECT":" ","MAREA":"三間厝","LANE":" ","ALLEY":" ","HOUSE_NO":"２之７號","E_COORD97":191358.10000000001,"N_COORD97":2584664.1600000001,"ADDRESS":"三間厝２之７號","OBJECTID":66767},"geometry":{"x":191358.09999999963,"y":2584664.160000002}},{"attributes":{"ID":66768,"DIS_CODE":0,"TOWNNAME":"南區","LI":"南都里","LIN":"6鄰","STREET":"中華南路","SECT":"二段","MAREA":" ","LANE":"３１５巷","ALLEY":"１２弄","HOUSE_NO":"１８號五樓","E_COORD97":166392.82000000001,"N_COORD97":2540089.02,"ADDRESS":"中華南路二段３１５巷１２弄１８號五樓","OBJECTID":66768},"geometry":{"x":166392.82000000123,"y":2540089.0200000014}},{"attributes":{"ID":66769,"DIS_CODE":0,"TOWNNAME":"白河區","LI":"昇安里","LIN":"1鄰","STREET":" ","SECT":" ","MAREA":"三間厝","LANE":" ","ALLEY":" ","HOUSE_NO":"２之８號","E_COORD97":191352.82999999999,"N_COORD97":2584661.77,"ADDRESS":"三間厝２之８號","OBJECTID":66769},"geometry":{"x":191352.83000000101,"y":2584661.7699999996}},{"attributes":{"ID":66770,"DIS_CODE":0,"TOWNNAME":"白河區","LI":"昇安里","LIN":"1鄰","STREET":" ","SECT":" ","MAREA":"三間厝","LANE":" ","ALLEY":" ","HOUSE_NO":"２之９號","E_COORD97":191347.57000000001,"N_COORD97":2584659.3799999999,"ADDRESS":"三間厝２之９號","OBJECTID":66770},"geometry":{"x":191347.57000000123,"y":2584659.379999999}},{"attributes":{"ID":66771,"DIS_CODE":0,"TOWNNAME":"白河區","LI":"昇安里","LIN":"1鄰","STREET":" ","SECT":" ","MAREA":"三間厝","LANE":" ","ALLEY":" ","HOUSE_NO":"２號","E_COORD97":191397.95999999999,"N_COORD97":2584679.25,"ADDRESS":"三間厝２號","OBJECTID":66771},"geometry":{"x":191397.95999999996,"y":2584679.25}},{"attributes":{"ID":66772,"DIS_CODE":0,"TOWNNAME":"白河區","LI":"昇安里","LIN":"1鄰","STREET":" ","SECT":" ","MAREA":"三間厝","LANE":" ","ALLEY":" ","HOUSE_NO":"３００之１號","E_COORD97":191669.04000000001,"N_COORD97":2585766.6299999999,"ADDRESS":"三間厝３００之１號","OBJECTID":66772},"geometry":{"x":191669.04000000004,"y":2585766.629999999}},{"attributes":{"ID":66773,"DIS_CODE":0,"TOWNNAME":"新化區","LI":"崙頂里","LIN":"11鄰","STREET":" ","SECT":" ","MAREA":"崙子頂","LANE":" ","ALLEY":" ","HOUSE_NO":"４０８號","E_COORD97":176995.53,"N_COORD97":2546863.25,"ADDRESS":"崙子頂４０８號","OBJECTID":66773},"geometry":{"x":176995.53000000026,"y":2546863.25}},{"attributes":{"ID":66774,"DIS_CODE":0,"TOWNNAME":"白河區","LI":"昇安里","LIN":"1鄰","STREET":" ","SECT":" ","MAREA":"三間厝","LANE":" ","ALLEY":" ","HOUSE_NO":"３００號","E_COORD97":191663.57999999999,"N_COORD97":2585750.1400000001,"ADDRESS":"三間厝３００號","OBJECTID":66774},"geometry":{"x":191663.58000000007,"y":2585750.1400000025}},{"attributes":{"ID":66775,"DIS_CODE":0,"TOWNNAME":"白河區","LI":"昇安里","LIN":"1鄰","STREET":" ","SECT":" ","MAREA":"三間厝","LANE":" ","ALLEY":" ","HOUSE_NO":"３８８號","E_COORD97":191600.51000000001,"N_COORD97":2585734.2599999998,"ADDRESS":"三間厝３８８號","OBJECTID":66775},"geometry":{"x":191600.51000000071,"y":2585734.2600000035}},{"attributes":{"ID":66776,"DIS_CODE":0,"TOWNNAME":"白河區","LI":"昇安里","LIN":"1鄰","STREET":" ","SECT":" ","MAREA":"三間厝","LANE":" ","ALLEY":" ","HOUSE_NO":"３１０號","E_COORD97":191719,"N_COORD97":2585882.0600000001,"ADDRESS":"三間厝３１０號","OBJECTID":66776},"geometry":{"x":191719.00000000093,"y":2585882.0600000042}},{"attributes":{"ID":66777,"DIS_CODE":0,"TOWNNAME":"白河區","LI":"昇安里","LIN":"1鄰","STREET":" ","SECT":" ","MAREA":"三間厝","LANE":" ","ALLEY":" ","HOUSE_NO":"３１５之１號","E_COORD97":191708.51000000001,"N_COORD97":2585936.5800000001,"ADDRESS":"三間厝３１５之１號","OBJECTID":66777},"geometry":{"x":191708.51000000071,"y":2585936.5800000019}},{"attributes":{"ID":66778,"DIS_CODE":0,"TOWNNAME":"白河區","LI":"昇安里","LIN":"1鄰","STREET":" ","SECT":" ","MAREA":"三間厝","LANE":" ","ALLEY":" ","HOUSE_NO":"３１５之２號","E_COORD97":191851.64999999999,"N_COORD97":2585914.3399999999,"ADDRESS":"三間厝３１５之２號","OBJECTID":66778},"geometry":{"x":191851.65000000037,"y":2585914.3400000017}},{"attributes":{"ID":66779,"DIS_CODE":0,"TOWNNAME":"中西區","LI":"郡西里","LIN":"8鄰","STREET":"建安街","SECT":" ","MAREA":" ","LANE":" ","ALLEY":" ","HOUSE_NO":"６８號","E_COORD97":167430.14000000001,"N_COORD97":2543263.4500000002,"ADDRESS":"建安街６８號","OBJECTID":66779},"geometry":{"x":167430.13999999966,"y":2543263.4499999993}},{"attributes":{"ID":66780,"DIS_CODE":0,"TOWNNAME":"將軍區","LI":"仁和里","LIN":"8鄰","STREET":" ","SECT":" ","MAREA":"仁巷","LANE":" ","ALLEY":" ","HOUSE_NO":"７６號","E_COORD97":164001.89999999999,"N_COORD97":2569230.0600000001,"ADDRESS":"仁巷７６號","OBJECTID":66780},"geometry":{"x":164001.90000000224,"y":2569230.0600000024}},{"attributes":{"ID":66781,"DIS_CODE":0,"TOWNNAME":"白河區","LI":"昇安里","LIN":"1鄰","STREET":" ","SECT":" ","MAREA":"三間厝","LANE":" ","ALLEY":" ","HOUSE_NO":"３１８之６號","E_COORD97":191631.41,"N_COORD97":2585841.3500000001,"ADDRESS":"三間厝３１８之６號","OBJECTID":66781},"geometry":{"x":191631.41000000201,"y":2585841.3499999996}},{"attributes":{"ID":66782,"DIS_CODE":0,"TOWNNAME":"南區","LI":"南都里","LIN":"6鄰","STREET":"中華南路","SECT":"二段","MAREA":" ","LANE":"３１５巷","ALLEY":"１２弄","HOUSE_NO":"１８號四樓","E_COORD97":166392.82000000001,"N_COORD97":2540089.02,"ADDRESS":"中華南路二段３１５巷１２弄１８號四樓","OBJECTID":66782},"geometry":{"x":166392.82000000123,"y":2540089.0200000014}},{"attributes":{"ID":66783,"DIS_CODE":0,"TOWNNAME":"白河區","LI":"昇安里","LIN":"1鄰","STREET":" ","SECT":" ","MAREA":"三間厝","LANE":" ","ALLEY":" ","HOUSE_NO":"３２０之６號","E_COORD97":191387.22,"N_COORD97":2584986.79,"ADDRESS":"三間厝３２０之６號","OBJECTID":66783},"geometry":{"x":191387.22000000067,"y":2584986.7899999991}},{"attributes":{"ID":66784,"DIS_CODE":0,"TOWNNAME":"白河區","LI":"昇安里","LIN":"1鄰","STREET":" ","SECT":" ","MAREA":"三間厝","LANE":" ","ALLEY":" ","HOUSE_NO":"３２１號","E_COORD97":191573.97,"N_COORD97":2585643.3999999999,"ADDRESS":"三間厝３２１號","OBJECTID":66784},"geometry":{"x":191573.96999999974,"y":2585643.4000000022}},{"attributes":{"ID":66785,"DIS_CODE":0,"TOWNNAME":"白河區","LI":"昇安里","LIN":"1鄰","STREET":" ","SECT":" ","MAREA":"三間厝","LANE":" ","ALLEY":" ","HOUSE_NO":"３２５號","E_COORD97":191639.42999999999,"N_COORD97":2585889.6099999999,"ADDRESS":"三間厝３２５號","OBJECTID":66785},"geometry":{"x":191639.43000000063,"y":2585889.6099999994}},{"attributes":{"ID":66786,"DIS_CODE":0,"TOWNNAME":"白河區","LI":"昇安里","LIN":"1鄰","STREET":" ","SECT":" ","MAREA":"三間厝","LANE":" ","ALLEY":" ","HOUSE_NO":"３２７號","E_COORD97":191600.09,"N_COORD97":2584930,"ADDRESS":"三間厝３２７號","OBJECTID":66786},"geometry":{"x":191600.09000000078,"y":2584930.0000000019}},{"attributes":{"ID":66787,"DIS_CODE":0,"TOWNNAME":"白河區","LI":"昇安里","LIN":"1鄰","STREET":" ","SECT":" ","MAREA":"三間厝","LANE":" ","ALLEY":" ","HOUSE_NO":"３２８號","E_COORD97":191661.57000000001,"N_COORD97":2584930.4399999999,"ADDRESS":"三間厝３２８號","OBJECTID":66787},"geometry":{"x":191661.57000000123,"y":2584930.4400000013}},{"attributes":{"ID":66788,"DIS_CODE":0,"TOWNNAME":"白河區","LI":"昇安里","LIN":"1鄰","STREET":" ","SECT":" ","MAREA":"三間厝","LANE":" ","ALLEY":" ","HOUSE_NO":"３３０號","E_COORD97":191658.35000000001,"N_COORD97":2584976.6000000001,"ADDRESS":"三間厝３３０號","OBJECTID":66788},"geometry":{"x":191658.35000000149,"y":2584976.6000000015}},{"attributes":{"ID":66789,"DIS_CODE":0,"TOWNNAME":"白河區","LI":"昇安里","LIN":"1鄰","STREET":" ","SECT":" ","MAREA":"三間厝","LANE":" ","ALLEY":" ","HOUSE_NO":"３５０之２６號","E_COORD97":191696.89999999999,"N_COORD97":2585473.4300000002,"ADDRESS":"三間厝３５０之２６號","OBJECTID":66789},"geometry":{"x":191696.9000000013,"y":2585473.4300000016}},{"attributes":{"ID":66790,"DIS_CODE":0,"TOWNNAME":"白河區","LI":"昇安里","LIN":"1鄰","STREET":" ","SECT":" ","MAREA":"三間厝","LANE":" ","ALLEY":" ","HOUSE_NO":"３５０之２７號","E_COORD97":191858.94,"N_COORD97":2585457.3399999999,"ADDRESS":"三間厝３５０之２７號","OBJECTID":66790},"geometry":{"x":191858.94000000134,"y":2585457.3399999999}},{"attributes":{"ID":66791,"DIS_CODE":0,"TOWNNAME":"白河區","LI":"昇安里","LIN":"1鄰","STREET":" ","SECT":" ","MAREA":"三間厝","LANE":" ","ALLEY":" ","HOUSE_NO":"３５０號","E_COORD97":191542.66,"N_COORD97":2585416.3799999999,"ADDRESS":"三間厝３５０號","OBJECTID":66791},"geometry":{"x":191542.66000000015,"y":2585416.379999999}},{"attributes":{"ID":66792,"DIS_CODE":0,"TOWNNAME":"白河區","LI":"昇安里","LIN":"1鄰","STREET":" ","SECT":" ","MAREA":"三間厝","LANE":" ","ALLEY":" ","HOUSE_NO":"３６０號","E_COORD97":192228.89000000001,"N_COORD97":2585487.8700000001,"ADDRESS":"三間厝３６０號","OBJECTID":66792},"geometry":{"x":192228.88999999966,"y":2585487.8700000029}},{"attributes":{"ID":66793,"DIS_CODE":0,"TOWNNAME":"白河區","LI":"昇安里","LIN":"1鄰","STREET":" ","SECT":" ","MAREA":"三間厝","LANE":" ","ALLEY":" ","HOUSE_NO":"３８１號","E_COORD97":191590.76000000001,"N_COORD97":2585704.3599999999,"ADDRESS":"三間厝３８１號","OBJECTID":66793},"geometry":{"x":191590.75999999978,"y":2585704.3599999994}},{"attributes":{"ID":66794,"DIS_CODE":0,"TOWNNAME":"白河區","LI":"昇安里","LIN":"1鄰","STREET":" ","SECT":" ","MAREA":"三間厝","LANE":" ","ALLEY":" ","HOUSE_NO":"３８２號","E_COORD97":191592.14999999999,"N_COORD97":2585708.6299999999,"ADDRESS":"三間厝３８２號","OBJECTID":66794},"geometry":{"x":191592.15000000037,"y":2585708.6300000008}},{"attributes":{"ID":66795,"DIS_CODE":0,"TOWNNAME":"白河區","LI":"昇安里","LIN":"1鄰","STREET":" ","SECT":" ","MAREA":"三間厝","LANE":" ","ALLEY":" ","HOUSE_NO":"３８５號","E_COORD97":191596.32999999999,"N_COORD97":2585721.4500000002,"ADDRESS":"三間厝３８５號","OBJECTID":66795},"geometry":{"x":191596.33000000194,"y":2585721.4499999993}},{"attributes":{"ID":66796,"DIS_CODE":0,"TOWNNAME":"白河區","LI":"昇安里","LIN":"1鄰","STREET":" ","SECT":" ","MAREA":"三間厝","LANE":" ","ALLEY":" ","HOUSE_NO":"３８６號","E_COORD97":191597.72,"N_COORD97":2585725.7200000002,"ADDRESS":"三間厝３８６號","OBJECTID":66796},"geometry":{"x":191597.71999999974,"y":2585725.7200000025}},{"attributes":{"ID":66797,"DIS_CODE":0,"TOWNNAME":"白河區","LI":"昇安里","LIN":"1鄰","STREET":" ","SECT":" ","MAREA":"三間厝","LANE":" ","ALLEY":" ","HOUSE_NO":"３８７號","E_COORD97":191599.12,"N_COORD97":2585729.9900000002,"ADDRESS":"三間厝３８７號","OBJECTID":66797},"geometry":{"x":191599.12000000011,"y":2585729.9900000021}},{"attributes":{"ID":66798,"DIS_CODE":0,"TOWNNAME":"白河區","LI":"昇安里","LIN":"1鄰","STREET":" ","SECT":" ","MAREA":"三間厝","LANE":" ","ALLEY":" ","HOUSE_NO":"３８９號","E_COORD97":191601.89999999999,"N_COORD97":2585738.5299999998,"ADDRESS":"三間厝３８９號","OBJECTID":66798},"geometry":{"x":191601.9000000013,"y":2585738.5300000031}},{"attributes":{"ID":66799,"DIS_CODE":0,"TOWNNAME":"白河區","LI":"昇安里","LIN":"1鄰","STREET":" ","SECT":" ","MAREA":"三間厝","LANE":" ","ALLEY":" ","HOUSE_NO":"３９０號","E_COORD97":191603.29000000001,"N_COORD97":2585742.8100000001,"ADDRESS":"三間厝３９０號","OBJECTID":66799},"geometry":{"x":191603.2900000019,"y":2585742.8100000024}},{"attributes":{"ID":66800,"DIS_CODE":0,"TOWNNAME":"白河區","LI":"昇安里","LIN":"1鄰","STREET":" ","SECT":" ","MAREA":"三間厝","LANE":" ","ALLEY":" ","HOUSE_NO":"３９１號","E_COORD97":191604.67999999999,"N_COORD97":2585747.0800000001,"ADDRESS":"三間厝３９１號","OBJECTID":66800},"geometry":{"x":191604.6799999997,"y":2585747.0800000019}}]}