{"displayFieldName":"TOWNNAME","fieldAliases":{"ID":"ID","DIS_CODE":"DIS_CODE","TOWNNAME":"TOWNNAME","LI":"LI","LIN":"LIN","STREET":"STREET","SECT":"SECT","MAREA":"MAREA","LANE":"LANE","ALLEY":"ALLEY","HOUSE_NO":"HOUSE_NO","E_COORD97":"E_COORD97","N_COORD97":"N_COORD97","ADDRESS":"ADDRESS","OBJECTID":"OBJECTID"},"geometryType":"esriGeometryPoint","spatialReference":{"wkid":102443,"latestWkid":3826},"fields":[{"name":"ID","type":"esriFieldTypeDouble","alias":"ID"},{"name":"DIS_CODE","type":"esriFieldTypeInteger","alias":"DIS_CODE"},{"name":"TOWNNAME","type":"esriFieldTypeString","alias":"TOWNNAME","length":8},{"name":"LI","type":"esriFieldTypeString","alias":"LI","length":8},{"name":"LIN","type":"esriFieldTypeString","alias":"LIN","length":12},{"name":"STREET","type":"esriFieldTypeString","alias":"STREET","length":20},{"name":"SECT","type":"esriFieldTypeString","alias":"SECT","length":8},{"name":"MAREA","type":"esriFieldTypeString","alias":"MAREA","length":12},{"name":"LANE","type":"esriFieldTypeString","alias":"LANE","length":10},{"name":"ALLEY","type":"esriFieldTypeString","alias":"ALLEY","length":10},{"name":"HOUSE_NO","type":"esriFieldTypeString","alias":"HOUSE_NO","length":20},{"name":"E_COORD97","type":"esriFieldTypeDouble","alias":"E_COORD97"},{"name":"N_COORD97","type":"esriFieldTypeDouble","alias":"N_COORD97"},{"name":"ADDRESS","type":"esriFieldTypeString","alias":"ADDRESS","length":50},{"name":"OBJECTID","type":"esriFieldTypeOID","alias":"OBJECTID"}],"features":[{"attributes":{"ID":594228,"DIS_CODE":0,"TOWNNAME":"中西區","LI":"公正里","LIN":"11鄰","STREET":"衛民街","SECT":" ","MAREA":" ","LANE":" ","ALLEY":" ","HOUSE_NO":"６２號七樓之１０","E_COORD97":169041.04999999999,"N_COORD97":2543741.3100000001,"ADDRESS":"衛民街６２號七樓之１０","OBJECTID":594201},"geometry":{"x":169041.04999999981,"y":2543741.3100000042}},{"attributes":{"ID":594229,"DIS_CODE":0,"TOWNNAME":"中西區","LI":"公正里","LIN":"11鄰","STREET":"衛民街","SECT":" ","MAREA":" ","LANE":" ","ALLEY":" ","HOUSE_NO":"６２號七樓之１１","E_COORD97":169040.41,"N_COORD97":2543741.6899999999,"ADDRESS":"衛民街６２號七樓之１１","OBJECTID":594202},"geometry":{"x":169040.41000000108,"y":2543741.6900000013}},{"attributes":{"ID":594230,"DIS_CODE":0,"TOWNNAME":"中西區","LI":"公正里","LIN":"11鄰","STREET":"衛民街","SECT":" ","MAREA":" ","LANE":" ","ALLEY":" ","HOUSE_NO":"６２號七樓之１２","E_COORD97":169040.41,"N_COORD97":2543741.8199999998,"ADDRESS":"衛民街６２號七樓之１２","OBJECTID":594203},"geometry":{"x":169040.41000000108,"y":2543741.8200000022}},{"attributes":{"ID":594231,"DIS_CODE":0,"TOWNNAME":"中西區","LI":"公正里","LIN":"11鄰","STREET":"衛民街","SECT":" ","MAREA":" ","LANE":" ","ALLEY":" ","HOUSE_NO":"６２號七樓之１３","E_COORD97":169040.41,"N_COORD97":2543741.8199999998,"ADDRESS":"衛民街６２號七樓之１３","OBJECTID":594204},"geometry":{"x":169040.41000000108,"y":2543741.8200000022}},{"attributes":{"ID":594232,"DIS_CODE":0,"TOWNNAME":"中西區","LI":"公正里","LIN":"11鄰","STREET":"衛民街","SECT":" ","MAREA":" ","LANE":" ","ALLEY":" ","HOUSE_NO":"６２號七樓之２","E_COORD97":169040.41,"N_COORD97":2543741.8199999998,"ADDRESS":"衛民街６２號七樓之２","OBJECTID":594205},"geometry":{"x":169040.41000000108,"y":2543741.8200000022}},{"attributes":{"ID":594233,"DIS_CODE":0,"TOWNNAME":"中西區","LI":"公正里","LIN":"11鄰","STREET":"衛民街","SECT":" ","MAREA":" ","LANE":" ","ALLEY":" ","HOUSE_NO":"６２號七樓之３","E_COORD97":169040.41,"N_COORD97":2543741.8199999998,"ADDRESS":"衛民街６２號七樓之３","OBJECTID":594206},"geometry":{"x":169040.41000000108,"y":2543741.8200000022}},{"attributes":{"ID":594234,"DIS_CODE":0,"TOWNNAME":"中西區","LI":"公正里","LIN":"11鄰","STREET":"衛民街","SECT":" ","MAREA":" ","LANE":" ","ALLEY":" ","HOUSE_NO":"６２號七樓之５","E_COORD97":169040.54000000001,"N_COORD97":2543741.6899999999,"ADDRESS":"衛民街６２號七樓之５","OBJECTID":594207},"geometry":{"x":169040.54000000097,"y":2543741.6900000013}},{"attributes":{"ID":594235,"DIS_CODE":0,"TOWNNAME":"中西區","LI":"公正里","LIN":"11鄰","STREET":"衛民街","SECT":" ","MAREA":" ","LANE":" ","ALLEY":" ","HOUSE_NO":"６２號七樓之６","E_COORD97":169040.92000000001,"N_COORD97":2543741.8199999998,"ADDRESS":"衛民街６２號七樓之６","OBJECTID":594208},"geometry":{"x":169040.91999999899,"y":2543741.8200000022}},{"attributes":{"ID":594236,"DIS_CODE":0,"TOWNNAME":"中西區","LI":"公正里","LIN":"11鄰","STREET":"衛民街","SECT":" ","MAREA":" ","LANE":" ","ALLEY":" ","HOUSE_NO":"６２號七樓之７","E_COORD97":169040.54000000001,"N_COORD97":2543741.8199999998,"ADDRESS":"衛民街６２號七樓之７","OBJECTID":594209},"geometry":{"x":169040.54000000097,"y":2543741.8200000022}},{"attributes":{"ID":594237,"DIS_CODE":0,"TOWNNAME":"中西區","LI":"公正里","LIN":"11鄰","STREET":"衛民街","SECT":" ","MAREA":" ","LANE":" ","ALLEY":" ","HOUSE_NO":"６２號七樓之８","E_COORD97":169040.67000000001,"N_COORD97":2543741.8199999998,"ADDRESS":"衛民街６２號七樓之８","OBJECTID":594210},"geometry":{"x":169040.66999999993,"y":2543741.8200000022}},{"attributes":{"ID":594238,"DIS_CODE":0,"TOWNNAME":"中西區","LI":"公正里","LIN":"11鄰","STREET":"衛民街","SECT":" ","MAREA":" ","LANE":" ","ALLEY":" ","HOUSE_NO":"６２號七樓之９","E_COORD97":169040.67000000001,"N_COORD97":2543741.6899999999,"ADDRESS":"衛民街６２號七樓之９","OBJECTID":594211},"geometry":{"x":169040.66999999993,"y":2543741.6900000013}},{"attributes":{"ID":594239,"DIS_CODE":0,"TOWNNAME":"中西區","LI":"公正里","LIN":"11鄰","STREET":"衛民街","SECT":" ","MAREA":" ","LANE":" ","ALLEY":" ","HOUSE_NO":"６２號九樓之１","E_COORD97":169040.54000000001,"N_COORD97":2543741.8199999998,"ADDRESS":"衛民街６２號九樓之１","OBJECTID":594212},"geometry":{"x":169040.54000000097,"y":2543741.8200000022}},{"attributes":{"ID":594240,"DIS_CODE":0,"TOWNNAME":"中西區","LI":"公正里","LIN":"11鄰","STREET":"衛民街","SECT":" ","MAREA":" ","LANE":" ","ALLEY":" ","HOUSE_NO":"６２號九樓之１０","E_COORD97":169040.67000000001,"N_COORD97":2543741.6899999999,"ADDRESS":"衛民街６２號九樓之１０","OBJECTID":594213},"geometry":{"x":169040.66999999993,"y":2543741.6900000013}},{"attributes":{"ID":594241,"DIS_CODE":0,"TOWNNAME":"中西區","LI":"公正里","LIN":"11鄰","STREET":"衛民街","SECT":" ","MAREA":" ","LANE":" ","ALLEY":" ","HOUSE_NO":"６２號九樓之１１","E_COORD97":169040.54000000001,"N_COORD97":2543741.6899999999,"ADDRESS":"衛民街６２號九樓之１１","OBJECTID":594214},"geometry":{"x":169040.54000000097,"y":2543741.6900000013}},{"attributes":{"ID":594242,"DIS_CODE":0,"TOWNNAME":"中西區","LI":"公正里","LIN":"11鄰","STREET":"衛民街","SECT":" ","MAREA":" ","LANE":" ","ALLEY":" ","HOUSE_NO":"６２號九樓之１２","E_COORD97":169040.67000000001,"N_COORD97":2543741.6899999999,"ADDRESS":"衛民街６２號九樓之１２","OBJECTID":594215},"geometry":{"x":169040.66999999993,"y":2543741.6900000013}},{"attributes":{"ID":594243,"DIS_CODE":0,"TOWNNAME":"中西區","LI":"公正里","LIN":"11鄰","STREET":"衛民街","SECT":" ","MAREA":" ","LANE":" ","ALLEY":" ","HOUSE_NO":"６２號九樓之１３","E_COORD97":169040.54000000001,"N_COORD97":2543741.3100000001,"ADDRESS":"衛民街６２號九樓之１３","OBJECTID":594216},"geometry":{"x":169040.54000000097,"y":2543741.3100000042}},{"attributes":{"ID":594244,"DIS_CODE":0,"TOWNNAME":"中西區","LI":"公正里","LIN":"11鄰","STREET":"衛民街","SECT":" ","MAREA":" ","LANE":" ","ALLEY":" ","HOUSE_NO":"６２號九樓之２","E_COORD97":169040.41,"N_COORD97":2543741.9399999999,"ADDRESS":"衛民街６２號九樓之２","OBJECTID":594217},"geometry":{"x":169040.41000000108,"y":2543741.9399999995}},{"attributes":{"ID":594245,"DIS_CODE":0,"TOWNNAME":"中西區","LI":"公正里","LIN":"11鄰","STREET":"衛民街","SECT":" ","MAREA":" ","LANE":" ","ALLEY":" ","HOUSE_NO":"６２號九樓之３","E_COORD97":169040.41,"N_COORD97":2543742.0699999998,"ADDRESS":"衛民街６２號九樓之３","OBJECTID":594218},"geometry":{"x":169040.41000000108,"y":2543742.0700000003}},{"attributes":{"ID":594246,"DIS_CODE":0,"TOWNNAME":"中西區","LI":"公正里","LIN":"11鄰","STREET":"衛民街","SECT":" ","MAREA":" ","LANE":" ","ALLEY":" ","HOUSE_NO":"６２號九樓之５","E_COORD97":169040.41,"N_COORD97":2543741.9399999999,"ADDRESS":"衛民街６２號九樓之５","OBJECTID":594219},"geometry":{"x":169040.41000000108,"y":2543741.9399999995}},{"attributes":{"ID":594247,"DIS_CODE":0,"TOWNNAME":"中西區","LI":"公正里","LIN":"11鄰","STREET":"衛民街","SECT":" ","MAREA":" ","LANE":" ","ALLEY":" ","HOUSE_NO":"６２號九樓之６","E_COORD97":169040.41,"N_COORD97":2543741.9399999999,"ADDRESS":"衛民街６２號九樓之６","OBJECTID":594220},"geometry":{"x":169040.41000000108,"y":2543741.9399999995}},{"attributes":{"ID":594248,"DIS_CODE":0,"TOWNNAME":"中西區","LI":"公正里","LIN":"11鄰","STREET":"衛民街","SECT":" ","MAREA":" ","LANE":" ","ALLEY":" ","HOUSE_NO":"６２號九樓之７","E_COORD97":169040.41,"N_COORD97":2543741.8199999998,"ADDRESS":"衛民街６２號九樓之７","OBJECTID":594221},"geometry":{"x":169040.41000000108,"y":2543741.8200000022}},{"attributes":{"ID":594249,"DIS_CODE":0,"TOWNNAME":"中西區","LI":"公正里","LIN":"11鄰","STREET":"衛民街","SECT":" ","MAREA":" ","LANE":" ","ALLEY":" ","HOUSE_NO":"６２號九樓之８","E_COORD97":169040.41,"N_COORD97":2543741.8199999998,"ADDRESS":"衛民街６２號九樓之８","OBJECTID":594222},"geometry":{"x":169040.41000000108,"y":2543741.8200000022}},{"attributes":{"ID":594250,"DIS_CODE":0,"TOWNNAME":"中西區","LI":"公正里","LIN":"11鄰","STREET":"衛民街","SECT":" ","MAREA":" ","LANE":" ","ALLEY":" ","HOUSE_NO":"６２號九樓之９","E_COORD97":169040.41,"N_COORD97":2543741.9399999999,"ADDRESS":"衛民街６２號九樓之９","OBJECTID":594223},"geometry":{"x":169040.41000000108,"y":2543741.9399999995}},{"attributes":{"ID":594251,"DIS_CODE":0,"TOWNNAME":"中西區","LI":"公正里","LIN":"11鄰","STREET":"衛民街","SECT":" ","MAREA":" ","LANE":" ","ALLEY":" ","HOUSE_NO":"６２號二樓之１","E_COORD97":169040.41,"N_COORD97":2543742.0699999998,"ADDRESS":"衛民街６２號二樓之１","OBJECTID":594224},"geometry":{"x":169040.41000000108,"y":2543742.0700000003}},{"attributes":{"ID":594252,"DIS_CODE":0,"TOWNNAME":"中西區","LI":"公正里","LIN":"11鄰","STREET":"衛民街","SECT":" ","MAREA":" ","LANE":" ","ALLEY":" ","HOUSE_NO":"６２號二樓之１０","E_COORD97":169040.54000000001,"N_COORD97":2543742.0699999998,"ADDRESS":"衛民街６２號二樓之１０","OBJECTID":594225},"geometry":{"x":169040.54000000097,"y":2543742.0700000003}},{"attributes":{"ID":594253,"DIS_CODE":0,"TOWNNAME":"中西區","LI":"公正里","LIN":"11鄰","STREET":"衛民街","SECT":" ","MAREA":" ","LANE":" ","ALLEY":" ","HOUSE_NO":"６２號二樓之１１","E_COORD97":169040.41,"N_COORD97":2543742.0699999998,"ADDRESS":"衛民街６２號二樓之１１","OBJECTID":594226},"geometry":{"x":169040.41000000108,"y":2543742.0700000003}},{"attributes":{"ID":594254,"DIS_CODE":0,"TOWNNAME":"中西區","LI":"公正里","LIN":"11鄰","STREET":"衛民街","SECT":" ","MAREA":" ","LANE":" ","ALLEY":" ","HOUSE_NO":"６２號二樓之１２","E_COORD97":169040.41,"N_COORD97":2543742.2000000002,"ADDRESS":"衛民街６２號二樓之１２","OBJECTID":594227},"geometry":{"x":169040.41000000108,"y":2543742.2000000011}},{"attributes":{"ID":594255,"DIS_CODE":0,"TOWNNAME":"中西區","LI":"公正里","LIN":"11鄰","STREET":"衛民街","SECT":" ","MAREA":" ","LANE":" ","ALLEY":" ","HOUSE_NO":"６２號二樓之１３","E_COORD97":169040.41,"N_COORD97":2543741.6899999999,"ADDRESS":"衛民街６２號二樓之１３","OBJECTID":594228},"geometry":{"x":169040.41000000108,"y":2543741.6900000013}},{"attributes":{"ID":594256,"DIS_CODE":0,"TOWNNAME":"中西區","LI":"公正里","LIN":"11鄰","STREET":"衛民街","SECT":" ","MAREA":" ","LANE":" ","ALLEY":" ","HOUSE_NO":"６２號二樓之２","E_COORD97":169040.41,"N_COORD97":2543742.2000000002,"ADDRESS":"衛民街６２號二樓之２","OBJECTID":594229},"geometry":{"x":169040.41000000108,"y":2543742.2000000011}},{"attributes":{"ID":594257,"DIS_CODE":0,"TOWNNAME":"中西區","LI":"公正里","LIN":"11鄰","STREET":"衛民街","SECT":" ","MAREA":" ","LANE":" ","ALLEY":" ","HOUSE_NO":"６２號二樓之３","E_COORD97":169040.41,"N_COORD97":2543741.9399999999,"ADDRESS":"衛民街６２號二樓之３","OBJECTID":594230},"geometry":{"x":169040.41000000108,"y":2543741.9399999995}},{"attributes":{"ID":594258,"DIS_CODE":0,"TOWNNAME":"中西區","LI":"公正里","LIN":"11鄰","STREET":"衛民街","SECT":" ","MAREA":" ","LANE":" ","ALLEY":" ","HOUSE_NO":"６２號二樓之５","E_COORD97":169040.41,"N_COORD97":2543742.2000000002,"ADDRESS":"衛民街６２號二樓之５","OBJECTID":594231},"geometry":{"x":169040.41000000108,"y":2543742.2000000011}},{"attributes":{"ID":594259,"DIS_CODE":0,"TOWNNAME":"中西區","LI":"公正里","LIN":"11鄰","STREET":"衛民街","SECT":" ","MAREA":" ","LANE":" ","ALLEY":" ","HOUSE_NO":"６２號二樓之６","E_COORD97":169040.67000000001,"N_COORD97":2543741.9399999999,"ADDRESS":"衛民街６２號二樓之６","OBJECTID":594232},"geometry":{"x":169040.66999999993,"y":2543741.9399999995}},{"attributes":{"ID":594260,"DIS_CODE":0,"TOWNNAME":"中西區","LI":"公正里","LIN":"11鄰","STREET":"衛民街","SECT":" ","MAREA":" ","LANE":" ","ALLEY":" ","HOUSE_NO":"６２號二樓之７","E_COORD97":169040.41,"N_COORD97":2543742.0699999998,"ADDRESS":"衛民街６２號二樓之７","OBJECTID":594233},"geometry":{"x":169040.41000000108,"y":2543742.0700000003}},{"attributes":{"ID":594261,"DIS_CODE":0,"TOWNNAME":"中西區","LI":"公正里","LIN":"11鄰","STREET":"衛民街","SECT":" ","MAREA":" ","LANE":" ","ALLEY":" ","HOUSE_NO":"６２號二樓之８","E_COORD97":169040.41,"N_COORD97":2543742.2000000002,"ADDRESS":"衛民街６２號二樓之８","OBJECTID":594234},"geometry":{"x":169040.41000000108,"y":2543742.2000000011}},{"attributes":{"ID":594262,"DIS_CODE":0,"TOWNNAME":"中西區","LI":"公正里","LIN":"11鄰","STREET":"衛民街","SECT":" ","MAREA":" ","LANE":" ","ALLEY":" ","HOUSE_NO":"６２號二樓之９","E_COORD97":169040.41,"N_COORD97":2543742.0699999998,"ADDRESS":"衛民街６２號二樓之９","OBJECTID":594235},"geometry":{"x":169040.41000000108,"y":2543742.0700000003}},{"attributes":{"ID":594263,"DIS_CODE":0,"TOWNNAME":"中西區","LI":"公正里","LIN":"11鄰","STREET":"衛民街","SECT":" ","MAREA":" ","LANE":" ","ALLEY":" ","HOUSE_NO":"６２號八樓之１","E_COORD97":169040.41,"N_COORD97":2543742.2000000002,"ADDRESS":"衛民街６２號八樓之１","OBJECTID":594236},"geometry":{"x":169040.41000000108,"y":2543742.2000000011}},{"attributes":{"ID":594264,"DIS_CODE":0,"TOWNNAME":"中西區","LI":"公正里","LIN":"11鄰","STREET":"衛民街","SECT":" ","MAREA":" ","LANE":" ","ALLEY":" ","HOUSE_NO":"６２號八樓之１０","E_COORD97":169040.41,"N_COORD97":2543742.2000000002,"ADDRESS":"衛民街６２號八樓之１０","OBJECTID":594237},"geometry":{"x":169040.41000000108,"y":2543742.2000000011}},{"attributes":{"ID":594265,"DIS_CODE":0,"TOWNNAME":"中西區","LI":"公正里","LIN":"11鄰","STREET":"衛民街","SECT":" ","MAREA":" ","LANE":" ","ALLEY":" ","HOUSE_NO":"６２號八樓之１１","E_COORD97":169040.54000000001,"N_COORD97":2543741.9399999999,"ADDRESS":"衛民街６２號八樓之１１","OBJECTID":594238},"geometry":{"x":169040.54000000097,"y":2543741.9399999995}},{"attributes":{"ID":594266,"DIS_CODE":0,"TOWNNAME":"中西區","LI":"公正里","LIN":"11鄰","STREET":"衛民街","SECT":" ","MAREA":" ","LANE":" ","ALLEY":" ","HOUSE_NO":"６２號八樓之１２","E_COORD97":169040.41,"N_COORD97":2543742.0699999998,"ADDRESS":"衛民街６２號八樓之１２","OBJECTID":594239},"geometry":{"x":169040.41000000108,"y":2543742.0700000003}},{"attributes":{"ID":594267,"DIS_CODE":0,"TOWNNAME":"中西區","LI":"公正里","LIN":"11鄰","STREET":"衛民街","SECT":" ","MAREA":" ","LANE":" ","ALLEY":" ","HOUSE_NO":"６２號八樓之１３","E_COORD97":169040.41,"N_COORD97":2543741.9399999999,"ADDRESS":"衛民街６２號八樓之１３","OBJECTID":594240},"geometry":{"x":169040.41000000108,"y":2543741.9399999995}},{"attributes":{"ID":594268,"DIS_CODE":0,"TOWNNAME":"中西區","LI":"公正里","LIN":"11鄰","STREET":"衛民街","SECT":" ","MAREA":" ","LANE":" ","ALLEY":" ","HOUSE_NO":"６２號八樓之２","E_COORD97":169040.28,"N_COORD97":2543742.0699999998,"ADDRESS":"衛民街６２號八樓之２","OBJECTID":594241},"geometry":{"x":169040.28000000026,"y":2543742.0700000003}},{"attributes":{"ID":594269,"DIS_CODE":0,"TOWNNAME":"中西區","LI":"公正里","LIN":"11鄰","STREET":"衛民街","SECT":" ","MAREA":" ","LANE":" ","ALLEY":" ","HOUSE_NO":"６２號八樓之３","E_COORD97":169040.41,"N_COORD97":2543742.2000000002,"ADDRESS":"衛民街６２號八樓之３","OBJECTID":594242},"geometry":{"x":169040.41000000108,"y":2543742.2000000011}},{"attributes":{"ID":594270,"DIS_CODE":0,"TOWNNAME":"中西區","LI":"公正里","LIN":"11鄰","STREET":"衛民街","SECT":" ","MAREA":" ","LANE":" ","ALLEY":" ","HOUSE_NO":"６２號八樓之５","E_COORD97":169040.41,"N_COORD97":2543742.2000000002,"ADDRESS":"衛民街６２號八樓之５","OBJECTID":594243},"geometry":{"x":169040.41000000108,"y":2543742.2000000011}},{"attributes":{"ID":594271,"DIS_CODE":0,"TOWNNAME":"中西區","LI":"公正里","LIN":"11鄰","STREET":"衛民街","SECT":" ","MAREA":" ","LANE":" ","ALLEY":" ","HOUSE_NO":"６２號八樓之６","E_COORD97":169040.54000000001,"N_COORD97":2543742.2000000002,"ADDRESS":"衛民街６２號八樓之６","OBJECTID":594244},"geometry":{"x":169040.54000000097,"y":2543742.2000000011}},{"attributes":{"ID":594272,"DIS_CODE":0,"TOWNNAME":"中西區","LI":"公正里","LIN":"11鄰","STREET":"衛民街","SECT":" ","MAREA":" ","LANE":" ","ALLEY":" ","HOUSE_NO":"６２號八樓之７","E_COORD97":169040.54000000001,"N_COORD97":2543742.2000000002,"ADDRESS":"衛民街６２號八樓之７","OBJECTID":594245},"geometry":{"x":169040.54000000097,"y":2543742.2000000011}},{"attributes":{"ID":594273,"DIS_CODE":0,"TOWNNAME":"中西區","LI":"公正里","LIN":"11鄰","STREET":"衛民街","SECT":" ","MAREA":" ","LANE":" ","ALLEY":" ","HOUSE_NO":"６２號八樓之８","E_COORD97":169040.28,"N_COORD97":2543742.0699999998,"ADDRESS":"衛民街６２號八樓之８","OBJECTID":594246},"geometry":{"x":169040.28000000026,"y":2543742.0700000003}},{"attributes":{"ID":594274,"DIS_CODE":0,"TOWNNAME":"中西區","LI":"公正里","LIN":"11鄰","STREET":"衛民街","SECT":" ","MAREA":" ","LANE":" ","ALLEY":" ","HOUSE_NO":"６２號八樓之９","E_COORD97":169040.41,"N_COORD97":2543742.0699999998,"ADDRESS":"衛民街６２號八樓之９","OBJECTID":594247},"geometry":{"x":169040.41000000108,"y":2543742.0700000003}},{"attributes":{"ID":594275,"DIS_CODE":0,"TOWNNAME":"中西區","LI":"公正里","LIN":"11鄰","STREET":"衛民街","SECT":" ","MAREA":" ","LANE":" ","ALLEY":" ","HOUSE_NO":"６２號三樓之１","E_COORD97":169040.54000000001,"N_COORD97":2543742.0699999998,"ADDRESS":"衛民街６２號三樓之１","OBJECTID":594248},"geometry":{"x":169040.54000000097,"y":2543742.0700000003}},{"attributes":{"ID":594276,"DIS_CODE":0,"TOWNNAME":"中西區","LI":"公正里","LIN":"11鄰","STREET":"衛民街","SECT":" ","MAREA":" ","LANE":" ","ALLEY":" ","HOUSE_NO":"６２號三樓之１０","E_COORD97":169040.41,"N_COORD97":2543742.0699999998,"ADDRESS":"衛民街６２號三樓之１０","OBJECTID":594249},"geometry":{"x":169040.41000000108,"y":2543742.0700000003}},{"attributes":{"ID":594277,"DIS_CODE":0,"TOWNNAME":"中西區","LI":"公正里","LIN":"11鄰","STREET":"衛民街","SECT":" ","MAREA":" ","LANE":" ","ALLEY":" ","HOUSE_NO":"６２號三樓之１１","E_COORD97":169040.54000000001,"N_COORD97":2543742.2000000002,"ADDRESS":"衛民街６２號三樓之１１","OBJECTID":594250},"geometry":{"x":169040.54000000097,"y":2543742.2000000011}},{"attributes":{"ID":594278,"DIS_CODE":0,"TOWNNAME":"中西區","LI":"公正里","LIN":"11鄰","STREET":"衛民街","SECT":" ","MAREA":" ","LANE":" ","ALLEY":" ","HOUSE_NO":"６２號三樓之１２","E_COORD97":169040.41,"N_COORD97":2543741.8199999998,"ADDRESS":"衛民街６２號三樓之１２","OBJECTID":594251},"geometry":{"x":169040.41000000108,"y":2543741.8200000022}},{"attributes":{"ID":594279,"DIS_CODE":0,"TOWNNAME":"中西區","LI":"公正里","LIN":"11鄰","STREET":"衛民街","SECT":" ","MAREA":" ","LANE":" ","ALLEY":" ","HOUSE_NO":"６２號三樓之１３","E_COORD97":169040.41,"N_COORD97":2543742.3300000001,"ADDRESS":"衛民街６２號三樓之１３","OBJECTID":594252},"geometry":{"x":169040.41000000108,"y":2543742.3300000019}},{"attributes":{"ID":594280,"DIS_CODE":0,"TOWNNAME":"中西區","LI":"公正里","LIN":"11鄰","STREET":"衛民街","SECT":" ","MAREA":" ","LANE":" ","ALLEY":" ","HOUSE_NO":"６２號三樓之２","E_COORD97":169040.41,"N_COORD97":2543742.0699999998,"ADDRESS":"衛民街６２號三樓之２","OBJECTID":594253},"geometry":{"x":169040.41000000108,"y":2543742.0700000003}},{"attributes":{"ID":594281,"DIS_CODE":0,"TOWNNAME":"中西區","LI":"公正里","LIN":"11鄰","STREET":"衛民街","SECT":" ","MAREA":" ","LANE":" ","ALLEY":" ","HOUSE_NO":"６２號三樓之３","E_COORD97":169040.54000000001,"N_COORD97":2543742.3300000001,"ADDRESS":"衛民街６２號三樓之３","OBJECTID":594254},"geometry":{"x":169040.54000000097,"y":2543742.3300000019}},{"attributes":{"ID":594282,"DIS_CODE":0,"TOWNNAME":"中西區","LI":"公正里","LIN":"11鄰","STREET":"衛民街","SECT":" ","MAREA":" ","LANE":" ","ALLEY":" ","HOUSE_NO":"６２號三樓之５","E_COORD97":169040.41,"N_COORD97":2543741.9399999999,"ADDRESS":"衛民街６２號三樓之５","OBJECTID":594255},"geometry":{"x":169040.41000000108,"y":2543741.9399999995}},{"attributes":{"ID":594283,"DIS_CODE":0,"TOWNNAME":"中西區","LI":"公正里","LIN":"11鄰","STREET":"衛民街","SECT":" ","MAREA":" ","LANE":" ","ALLEY":" ","HOUSE_NO":"６２號三樓之６","E_COORD97":169040.41,"N_COORD97":2543742.0699999998,"ADDRESS":"衛民街６２號三樓之６","OBJECTID":594256},"geometry":{"x":169040.41000000108,"y":2543742.0700000003}},{"attributes":{"ID":594284,"DIS_CODE":0,"TOWNNAME":"東區","LI":"崇善里","LIN":"10鄰","STREET":"崇善八街","SECT":" ","MAREA":" ","LANE":" ","ALLEY":" ","HOUSE_NO":"２５號","E_COORD97":171139.87,"N_COORD97":2541415.6299999999,"ADDRESS":"崇善八街２５號","OBJECTID":594257},"geometry":{"x":171139.87000000011,"y":2541415.6300000008}},{"attributes":{"ID":594285,"DIS_CODE":0,"TOWNNAME":"東區","LI":"崇善里","LIN":"9鄰","STREET":"仁和路","SECT":" ","MAREA":" ","LANE":" ","ALLEY":" ","HOUSE_NO":"１０４號之８","E_COORD97":171279.57999999999,"N_COORD97":2541423.0299999998,"ADDRESS":"仁和路１０４號之８","OBJECTID":594258},"geometry":{"x":171279.58000000101,"y":2541423.0300000031}},{"attributes":{"ID":594286,"DIS_CODE":0,"TOWNNAME":"中西區","LI":"公正里","LIN":"11鄰","STREET":"衛民街","SECT":" ","MAREA":" ","LANE":" ","ALLEY":" ","HOUSE_NO":"６２號三樓之７","E_COORD97":169040.54000000001,"N_COORD97":2543742.0699999998,"ADDRESS":"衛民街６２號三樓之７","OBJECTID":594259},"geometry":{"x":169040.54000000097,"y":2543742.0700000003}},{"attributes":{"ID":594287,"DIS_CODE":0,"TOWNNAME":"東區","LI":"崇善里","LIN":"15鄰","STREET":"崇善路","SECT":" ","MAREA":" ","LANE":" ","ALLEY":" ","HOUSE_NO":"６８３號","E_COORD97":171132.5,"N_COORD97":2541166.1000000001,"ADDRESS":"崇善路６８３號","OBJECTID":594260},"geometry":{"x":171132.50000000186,"y":2541166.1000000015}},{"attributes":{"ID":594288,"DIS_CODE":0,"TOWNNAME":"中西區","LI":"公正里","LIN":"11鄰","STREET":"衛民街","SECT":" ","MAREA":" ","LANE":" ","ALLEY":" ","HOUSE_NO":"６２號三樓之９","E_COORD97":169040.41,"N_COORD97":2543742.0699999998,"ADDRESS":"衛民街６２號三樓之９","OBJECTID":594261},"geometry":{"x":169040.41000000108,"y":2543742.0700000003}},{"attributes":{"ID":594289,"DIS_CODE":0,"TOWNNAME":"中西區","LI":"公正里","LIN":"11鄰","STREET":"衛民街","SECT":" ","MAREA":" ","LANE":" ","ALLEY":" ","HOUSE_NO":"６２號五樓之１","E_COORD97":169040.54000000001,"N_COORD97":2543741.9399999999,"ADDRESS":"衛民街６２號五樓之１","OBJECTID":594262},"geometry":{"x":169040.54000000097,"y":2543741.9399999995}},{"attributes":{"ID":594290,"DIS_CODE":0,"TOWNNAME":"中西區","LI":"公正里","LIN":"11鄰","STREET":"衛民街","SECT":" ","MAREA":" ","LANE":" ","ALLEY":" ","HOUSE_NO":"６２號五樓之１０","E_COORD97":169040.54000000001,"N_COORD97":2543742.0699999998,"ADDRESS":"衛民街６２號五樓之１０","OBJECTID":594263},"geometry":{"x":169040.54000000097,"y":2543742.0700000003}},{"attributes":{"ID":594291,"DIS_CODE":0,"TOWNNAME":"中西區","LI":"公正里","LIN":"11鄰","STREET":"衛民街","SECT":" ","MAREA":" ","LANE":" ","ALLEY":" ","HOUSE_NO":"６２號五樓之１１","E_COORD97":169040.28,"N_COORD97":2543742.2000000002,"ADDRESS":"衛民街６２號五樓之１１","OBJECTID":594264},"geometry":{"x":169040.28000000026,"y":2543742.2000000011}},{"attributes":{"ID":594292,"DIS_CODE":0,"TOWNNAME":"中西區","LI":"公正里","LIN":"11鄰","STREET":"衛民街","SECT":" ","MAREA":" ","LANE":" ","ALLEY":" ","HOUSE_NO":"６２號五樓之１２","E_COORD97":169040.41,"N_COORD97":2543741.9399999999,"ADDRESS":"衛民街６２號五樓之１２","OBJECTID":594265},"geometry":{"x":169040.41000000108,"y":2543741.9399999995}},{"attributes":{"ID":594293,"DIS_CODE":0,"TOWNNAME":"中西區","LI":"公正里","LIN":"11鄰","STREET":"衛民街","SECT":" ","MAREA":" ","LANE":" ","ALLEY":" ","HOUSE_NO":"６２號五樓之１３","E_COORD97":169040.41,"N_COORD97":2543742.2000000002,"ADDRESS":"衛民街６２號五樓之１３","OBJECTID":594266},"geometry":{"x":169040.41000000108,"y":2543742.2000000011}},{"attributes":{"ID":594294,"DIS_CODE":0,"TOWNNAME":"中西區","LI":"公正里","LIN":"11鄰","STREET":"衛民街","SECT":" ","MAREA":" ","LANE":" ","ALLEY":" ","HOUSE_NO":"６２號五樓之２","E_COORD97":169040.41,"N_COORD97":2543742.0699999998,"ADDRESS":"衛民街６２號五樓之２","OBJECTID":594267},"geometry":{"x":169040.41000000108,"y":2543742.0700000003}},{"attributes":{"ID":594295,"DIS_CODE":0,"TOWNNAME":"中西區","LI":"公正里","LIN":"11鄰","STREET":"衛民街","SECT":" ","MAREA":" ","LANE":" ","ALLEY":" ","HOUSE_NO":"６２號五樓之３","E_COORD97":169040.41,"N_COORD97":2543742.0699999998,"ADDRESS":"衛民街６２號五樓之３","OBJECTID":594268},"geometry":{"x":169040.41000000108,"y":2543742.0700000003}},{"attributes":{"ID":594296,"DIS_CODE":0,"TOWNNAME":"中西區","LI":"公正里","LIN":"11鄰","STREET":"衛民街","SECT":" ","MAREA":" ","LANE":" ","ALLEY":" ","HOUSE_NO":"６２號五樓之５","E_COORD97":169040.54000000001,"N_COORD97":2543742.2000000002,"ADDRESS":"衛民街６２號五樓之５","OBJECTID":594269},"geometry":{"x":169040.54000000097,"y":2543742.2000000011}},{"attributes":{"ID":594297,"DIS_CODE":0,"TOWNNAME":"中西區","LI":"公正里","LIN":"11鄰","STREET":"衛民街","SECT":" ","MAREA":" ","LANE":" ","ALLEY":" ","HOUSE_NO":"６２號五樓之６","E_COORD97":169040.41,"N_COORD97":2543742.2000000002,"ADDRESS":"衛民街６２號五樓之６","OBJECTID":594270},"geometry":{"x":169040.41000000108,"y":2543742.2000000011}},{"attributes":{"ID":594298,"DIS_CODE":0,"TOWNNAME":"中西區","LI":"公正里","LIN":"11鄰","STREET":"衛民街","SECT":" ","MAREA":" ","LANE":" ","ALLEY":" ","HOUSE_NO":"６２號五樓之７","E_COORD97":169040.54000000001,"N_COORD97":2543741.9399999999,"ADDRESS":"衛民街６２號五樓之７","OBJECTID":594271},"geometry":{"x":169040.54000000097,"y":2543741.9399999995}},{"attributes":{"ID":594299,"DIS_CODE":0,"TOWNNAME":"中西區","LI":"公正里","LIN":"11鄰","STREET":"衛民街","SECT":" ","MAREA":" ","LANE":" ","ALLEY":" ","HOUSE_NO":"６２號五樓之８","E_COORD97":169040.54000000001,"N_COORD97":2543742.0699999998,"ADDRESS":"衛民街６２號五樓之８","OBJECTID":594272},"geometry":{"x":169040.54000000097,"y":2543742.0700000003}},{"attributes":{"ID":594300,"DIS_CODE":0,"TOWNNAME":"中西區","LI":"公正里","LIN":"11鄰","STREET":"衛民街","SECT":" ","MAREA":" ","LANE":" ","ALLEY":" ","HOUSE_NO":"６２號五樓之９","E_COORD97":169040.41,"N_COORD97":2543741.9399999999,"ADDRESS":"衛民街６２號五樓之９","OBJECTID":594273},"geometry":{"x":169040.41000000108,"y":2543741.9399999995}},{"attributes":{"ID":594301,"DIS_CODE":0,"TOWNNAME":"中西區","LI":"公正里","LIN":"11鄰","STREET":"衛民街","SECT":" ","MAREA":" ","LANE":" ","ALLEY":" ","HOUSE_NO":"６２號六樓之１","E_COORD97":169040.41,"N_COORD97":2543742.3300000001,"ADDRESS":"衛民街６２號六樓之１","OBJECTID":594274},"geometry":{"x":169040.41000000108,"y":2543742.3300000019}},{"attributes":{"ID":594302,"DIS_CODE":0,"TOWNNAME":"中西區","LI":"公正里","LIN":"11鄰","STREET":"衛民街","SECT":" ","MAREA":" ","LANE":" ","ALLEY":" ","HOUSE_NO":"６２號六樓之１０","E_COORD97":169040.41,"N_COORD97":2543742.3300000001,"ADDRESS":"衛民街６２號六樓之１０","OBJECTID":594275},"geometry":{"x":169040.41000000108,"y":2543742.3300000019}},{"attributes":{"ID":594303,"DIS_CODE":0,"TOWNNAME":"中西區","LI":"公正里","LIN":"11鄰","STREET":"衛民街","SECT":" ","MAREA":" ","LANE":" ","ALLEY":" ","HOUSE_NO":"６２號六樓之１１","E_COORD97":169040.28,"N_COORD97":2543742.3300000001,"ADDRESS":"衛民街６２號六樓之１１","OBJECTID":594276},"geometry":{"x":169040.28000000026,"y":2543742.3300000019}},{"attributes":{"ID":594304,"DIS_CODE":0,"TOWNNAME":"中西區","LI":"公正里","LIN":"11鄰","STREET":"衛民街","SECT":" ","MAREA":" ","LANE":" ","ALLEY":" ","HOUSE_NO":"６２號六樓之２","E_COORD97":169040.41,"N_COORD97":2543742.3300000001,"ADDRESS":"衛民街６２號六樓之２","OBJECTID":594277},"geometry":{"x":169040.41000000108,"y":2543742.3300000019}},{"attributes":{"ID":594305,"DIS_CODE":0,"TOWNNAME":"中西區","LI":"公正里","LIN":"11鄰","STREET":"衛民街","SECT":" ","MAREA":" ","LANE":" ","ALLEY":" ","HOUSE_NO":"６２號六樓之３","E_COORD97":169040.41,"N_COORD97":2543742.3300000001,"ADDRESS":"衛民街６２號六樓之３","OBJECTID":594278},"geometry":{"x":169040.41000000108,"y":2543742.3300000019}},{"attributes":{"ID":594306,"DIS_CODE":0,"TOWNNAME":"中西區","LI":"公正里","LIN":"11鄰","STREET":"衛民街","SECT":" ","MAREA":" ","LANE":" ","ALLEY":" ","HOUSE_NO":"６２號六樓之５","E_COORD97":169040.41,"N_COORD97":2543742.3300000001,"ADDRESS":"衛民街６２號六樓之５","OBJECTID":594279},"geometry":{"x":169040.41000000108,"y":2543742.3300000019}},{"attributes":{"ID":594307,"DIS_CODE":0,"TOWNNAME":"中西區","LI":"公正里","LIN":"11鄰","STREET":"衛民街","SECT":" ","MAREA":" ","LANE":" ","ALLEY":" ","HOUSE_NO":"６２號六樓之６","E_COORD97":169040.54000000001,"N_COORD97":2543742.0699999998,"ADDRESS":"衛民街６２號六樓之６","OBJECTID":594280},"geometry":{"x":169040.54000000097,"y":2543742.0700000003}},{"attributes":{"ID":594308,"DIS_CODE":0,"TOWNNAME":"中西區","LI":"公正里","LIN":"11鄰","STREET":"衛民街","SECT":" ","MAREA":" ","LANE":" ","ALLEY":" ","HOUSE_NO":"６２號六樓之７","E_COORD97":169040.41,"N_COORD97":2543742.4500000002,"ADDRESS":"衛民街６２號六樓之７","OBJECTID":594281},"geometry":{"x":169040.41000000108,"y":2543742.450000003}},{"attributes":{"ID":594309,"DIS_CODE":0,"TOWNNAME":"中西區","LI":"公正里","LIN":"11鄰","STREET":"衛民街","SECT":" ","MAREA":" ","LANE":" ","ALLEY":" ","HOUSE_NO":"６２號六樓之８","E_COORD97":169040.28,"N_COORD97":2543742.3300000001,"ADDRESS":"衛民街６２號六樓之８","OBJECTID":594282},"geometry":{"x":169040.28000000026,"y":2543742.3300000019}},{"attributes":{"ID":594310,"DIS_CODE":0,"TOWNNAME":"中西區","LI":"公正里","LIN":"11鄰","STREET":"衛民街","SECT":" ","MAREA":" ","LANE":" ","ALLEY":" ","HOUSE_NO":"６２號六樓之９","E_COORD97":169040.16,"N_COORD97":2543742.3300000001,"ADDRESS":"衛民街６２號六樓之９","OBJECTID":594283},"geometry":{"x":169040.16000000108,"y":2543742.3300000019}},{"attributes":{"ID":594311,"DIS_CODE":0,"TOWNNAME":"中西區","LI":"公正里","LIN":"11鄰","STREET":"衛民街","SECT":" ","MAREA":" ","LANE":" ","ALLEY":" ","HOUSE_NO":"６２號四樓之１","E_COORD97":169040.41,"N_COORD97":2543742.3300000001,"ADDRESS":"衛民街６２號四樓之１","OBJECTID":594284},"geometry":{"x":169040.41000000108,"y":2543742.3300000019}},{"attributes":{"ID":594312,"DIS_CODE":0,"TOWNNAME":"中西區","LI":"公正里","LIN":"11鄰","STREET":"衛民街","SECT":" ","MAREA":" ","LANE":" ","ALLEY":" ","HOUSE_NO":"６２號四樓之１０","E_COORD97":169040.41,"N_COORD97":2543742.2000000002,"ADDRESS":"衛民街６２號四樓之１０","OBJECTID":594285},"geometry":{"x":169040.41000000108,"y":2543742.2000000011}},{"attributes":{"ID":594313,"DIS_CODE":0,"TOWNNAME":"中西區","LI":"公正里","LIN":"11鄰","STREET":"衛民街","SECT":" ","MAREA":" ","LANE":" ","ALLEY":" ","HOUSE_NO":"６２號四樓之１１","E_COORD97":169040.41,"N_COORD97":2543742.2000000002,"ADDRESS":"衛民街６２號四樓之１１","OBJECTID":594286},"geometry":{"x":169040.41000000108,"y":2543742.2000000011}},{"attributes":{"ID":594314,"DIS_CODE":0,"TOWNNAME":"中西區","LI":"公正里","LIN":"11鄰","STREET":"衛民街","SECT":" ","MAREA":" ","LANE":" ","ALLEY":" ","HOUSE_NO":"６２號四樓之１２","E_COORD97":169040.28,"N_COORD97":2543742.3300000001,"ADDRESS":"衛民街６２號四樓之１２","OBJECTID":594287},"geometry":{"x":169040.28000000026,"y":2543742.3300000019}},{"attributes":{"ID":594315,"DIS_CODE":0,"TOWNNAME":"中西區","LI":"公正里","LIN":"11鄰","STREET":"衛民街","SECT":" ","MAREA":" ","LANE":" ","ALLEY":" ","HOUSE_NO":"６２號四樓之１３","E_COORD97":169040.41,"N_COORD97":2543742.2000000002,"ADDRESS":"衛民街６２號四樓之１３","OBJECTID":594288},"geometry":{"x":169040.41000000108,"y":2543742.2000000011}},{"attributes":{"ID":594316,"DIS_CODE":0,"TOWNNAME":"中西區","LI":"公正里","LIN":"11鄰","STREET":"衛民街","SECT":" ","MAREA":" ","LANE":" ","ALLEY":" ","HOUSE_NO":"６２號四樓之２","E_COORD97":169040.41,"N_COORD97":2543742.2000000002,"ADDRESS":"衛民街６２號四樓之２","OBJECTID":594289},"geometry":{"x":169040.41000000108,"y":2543742.2000000011}},{"attributes":{"ID":594317,"DIS_CODE":0,"TOWNNAME":"中西區","LI":"公正里","LIN":"11鄰","STREET":"衛民街","SECT":" ","MAREA":" ","LANE":" ","ALLEY":" ","HOUSE_NO":"６２號四樓之３","E_COORD97":169040.41,"N_COORD97":2543742.0699999998,"ADDRESS":"衛民街６２號四樓之３","OBJECTID":594290},"geometry":{"x":169040.41000000108,"y":2543742.0700000003}},{"attributes":{"ID":594318,"DIS_CODE":0,"TOWNNAME":"中西區","LI":"公正里","LIN":"11鄰","STREET":"衛民街","SECT":" ","MAREA":" ","LANE":" ","ALLEY":" ","HOUSE_NO":"６２號四樓之５","E_COORD97":169040.28,"N_COORD97":2543742.2000000002,"ADDRESS":"衛民街６２號四樓之５","OBJECTID":594291},"geometry":{"x":169040.28000000026,"y":2543742.2000000011}},{"attributes":{"ID":594319,"DIS_CODE":0,"TOWNNAME":"東區","LI":"崇善里","LIN":"15鄰","STREET":"崇善十一街","SECT":" ","MAREA":" ","LANE":" ","ALLEY":" ","HOUSE_NO":"５７號","E_COORD97":171261.20999999999,"N_COORD97":2541258.2999999998,"ADDRESS":"崇善十一街５７號","OBJECTID":594292},"geometry":{"x":171261.20999999996,"y":2541258.3000000007}},{"attributes":{"ID":594320,"DIS_CODE":0,"TOWNNAME":"東區","LI":"崇善里","LIN":"15鄰","STREET":"崇善十一街","SECT":" ","MAREA":" ","LANE":" ","ALLEY":" ","HOUSE_NO":"６５號","E_COORD97":171276.81,"N_COORD97":2541264.9300000002,"ADDRESS":"崇善十一街６５號","OBJECTID":594293},"geometry":{"x":171276.80999999959,"y":2541264.9300000016}},{"attributes":{"ID":594321,"DIS_CODE":0,"TOWNNAME":"東區","LI":"崇善里","LIN":"15鄰","STREET":"崇善路","SECT":" ","MAREA":" ","LANE":" ","ALLEY":" ","HOUSE_NO":"６８５號","E_COORD97":171132.98000000001,"N_COORD97":2541159.3500000001,"ADDRESS":"崇善路６８５號","OBJECTID":594294},"geometry":{"x":171132.98000000231,"y":2541159.3499999996}},{"attributes":{"ID":594322,"DIS_CODE":0,"TOWNNAME":"東區","LI":"崇善里","LIN":"19鄰","STREET":"崇善十一街","SECT":" ","MAREA":" ","LANE":" ","ALLEY":" ","HOUSE_NO":"４號","E_COORD97":171149.39000000001,"N_COORD97":2541172.3700000001,"ADDRESS":"崇善十一街４號","OBJECTID":594295},"geometry":{"x":171149.38999999966,"y":2541172.3700000029}},{"attributes":{"ID":594323,"DIS_CODE":0,"TOWNNAME":"東區","LI":"崇善里","LIN":"19鄰","STREET":"崇善十一街","SECT":" ","MAREA":" ","LANE":" ","ALLEY":" ","HOUSE_NO":"６號","E_COORD97":171153.98000000001,"N_COORD97":2541170.6800000002,"ADDRESS":"崇善十一街６號","OBJECTID":594296},"geometry":{"x":171153.98000000138,"y":2541170.6799999997}},{"attributes":{"ID":594324,"DIS_CODE":0,"TOWNNAME":"中西區","LI":"公正里","LIN":"11鄰","STREET":"衛民街","SECT":" ","MAREA":" ","LANE":" ","ALLEY":" ","HOUSE_NO":"６２號四樓之６","E_COORD97":169040.41,"N_COORD97":2543742.0699999998,"ADDRESS":"衛民街６２號四樓之６","OBJECTID":594297},"geometry":{"x":169040.41000000108,"y":2543742.0700000003}},{"attributes":{"ID":594325,"DIS_CODE":0,"TOWNNAME":"中西區","LI":"公正里","LIN":"11鄰","STREET":"衛民街","SECT":" ","MAREA":" ","LANE":" ","ALLEY":" ","HOUSE_NO":"６２號四樓之７","E_COORD97":169040.28,"N_COORD97":2543742.2000000002,"ADDRESS":"衛民街６２號四樓之７","OBJECTID":594298},"geometry":{"x":169040.28000000026,"y":2543742.2000000011}},{"attributes":{"ID":594326,"DIS_CODE":0,"TOWNNAME":"中西區","LI":"公正里","LIN":"11鄰","STREET":"衛民街","SECT":" ","MAREA":" ","LANE":" ","ALLEY":" ","HOUSE_NO":"６２號四樓之８","E_COORD97":169040.41,"N_COORD97":2543742.0699999998,"ADDRESS":"衛民街６２號四樓之８","OBJECTID":594299},"geometry":{"x":169040.41000000108,"y":2543742.0700000003}},{"attributes":{"ID":594327,"DIS_CODE":0,"TOWNNAME":"中西區","LI":"公正里","LIN":"11鄰","STREET":"衛民街","SECT":" ","MAREA":" ","LANE":" ","ALLEY":" ","HOUSE_NO":"６２號四樓之９","E_COORD97":169040.16,"N_COORD97":2543742.2000000002,"ADDRESS":"衛民街６２號四樓之９","OBJECTID":594300},"geometry":{"x":169040.16000000108,"y":2543742.2000000011}},{"attributes":{"ID":594328,"DIS_CODE":0,"TOWNNAME":"中西區","LI":"光賢里","LIN":"11鄰","STREET":"中華西路","SECT":"二段","MAREA":" ","LANE":" ","ALLEY":" ","HOUSE_NO":"５８８號二樓","E_COORD97":166667.32999999999,"N_COORD97":2544914.1400000001,"ADDRESS":"中華西路二段５８８號二樓","OBJECTID":594301},"geometry":{"x":166667.33000000101,"y":2544914.1400000006}},{"attributes":{"ID":594329,"DIS_CODE":0,"TOWNNAME":"中西區","LI":"光賢里","LIN":"11鄰","STREET":"中華西路","SECT":"二段","MAREA":" ","LANE":" ","ALLEY":" ","HOUSE_NO":"５８８號三樓","E_COORD97":166667.32999999999,"N_COORD97":2544914.1400000001,"ADDRESS":"中華西路二段５８８號三樓","OBJECTID":594302},"geometry":{"x":166667.33000000101,"y":2544914.1400000006}},{"attributes":{"ID":594330,"DIS_CODE":0,"TOWNNAME":"東區","LI":"崇善里","LIN":"19鄰","STREET":"崇善路","SECT":" ","MAREA":" ","LANE":" ","ALLEY":" ","HOUSE_NO":"７１７號","E_COORD97":171155.67000000001,"N_COORD97":2541096.25,"ADDRESS":"崇善路７１７號","OBJECTID":594303},"geometry":{"x":171155.67000000086,"y":2541096.25}},{"attributes":{"ID":594331,"DIS_CODE":0,"TOWNNAME":"東區","LI":"崇善里","LIN":"19鄰","STREET":"崇善十一街","SECT":" ","MAREA":" ","LANE":" ","ALLEY":" ","HOUSE_NO":"３４號","E_COORD97":171232.60999999999,"N_COORD97":2541203.6499999999,"ADDRESS":"崇善十一街３４號","OBJECTID":594304},"geometry":{"x":171232.61000000127,"y":2541203.6500000022}},{"attributes":{"ID":594332,"DIS_CODE":0,"TOWNNAME":"中西區","LI":"光賢里","LIN":"11鄰","STREET":"中華西路","SECT":"二段","MAREA":" ","LANE":" ","ALLEY":" ","HOUSE_NO":"５８８號四樓","E_COORD97":166667.32999999999,"N_COORD97":2544914.1400000001,"ADDRESS":"中華西路二段５８８號四樓","OBJECTID":594305},"geometry":{"x":166667.33000000101,"y":2544914.1400000006}},{"attributes":{"ID":594333,"DIS_CODE":0,"TOWNNAME":"中西區","LI":"光賢里","LIN":"11鄰","STREET":"中華西路","SECT":"二段","MAREA":" ","LANE":" ","ALLEY":" ","HOUSE_NO":"５８８號五樓","E_COORD97":166667.32999999999,"N_COORD97":2544914.1400000001,"ADDRESS":"中華西路二段５８８號五樓","OBJECTID":594306},"geometry":{"x":166667.33000000101,"y":2544914.1400000006}},{"attributes":{"ID":594334,"DIS_CODE":0,"TOWNNAME":"東區","LI":"崇文里","LIN":"11鄰","STREET":"崇德十八街","SECT":" ","MAREA":" ","LANE":" ","ALLEY":" ","HOUSE_NO":"７４號七樓","E_COORD97":171001.20999999999,"N_COORD97":2541016.3999999999,"ADDRESS":"崇德十八街７４號七樓","OBJECTID":594307},"geometry":{"x":171001.21000000089,"y":2541016.4000000004}},{"attributes":{"ID":594335,"DIS_CODE":0,"TOWNNAME":"東區","LI":"崇文里","LIN":"11鄰","STREET":"崇德十八街","SECT":" ","MAREA":" ","LANE":" ","ALLEY":" ","HOUSE_NO":"７４號七樓之１","E_COORD97":171001.20999999999,"N_COORD97":2541016.3999999999,"ADDRESS":"崇德十八街７４號七樓之１","OBJECTID":594308},"geometry":{"x":171001.21000000089,"y":2541016.4000000004}},{"attributes":{"ID":594336,"DIS_CODE":0,"TOWNNAME":"東區","LI":"崇文里","LIN":"11鄰","STREET":"崇德十八街","SECT":" ","MAREA":" ","LANE":" ","ALLEY":" ","HOUSE_NO":"７４號七樓之２","E_COORD97":171001.20999999999,"N_COORD97":2541016.3999999999,"ADDRESS":"崇德十八街７４號七樓之２","OBJECTID":594309},"geometry":{"x":171001.21000000089,"y":2541016.4000000004}},{"attributes":{"ID":594337,"DIS_CODE":0,"TOWNNAME":"東區","LI":"崇文里","LIN":"11鄰","STREET":"崇德十八街","SECT":" ","MAREA":" ","LANE":" ","ALLEY":" ","HOUSE_NO":"７４號二樓","E_COORD97":171001.20999999999,"N_COORD97":2541016.3999999999,"ADDRESS":"崇德十八街７４號二樓","OBJECTID":594310},"geometry":{"x":171001.21000000089,"y":2541016.4000000004}},{"attributes":{"ID":594338,"DIS_CODE":0,"TOWNNAME":"東區","LI":"龍山里","LIN":"11鄰","STREET":"光華街","SECT":" ","MAREA":" ","LANE":" ","ALLEY":" ","HOUSE_NO":"２０號","E_COORD97":169924.17000000001,"N_COORD97":2542798.9399999999,"ADDRESS":"光華街２０號","OBJECTID":594311},"geometry":{"x":169924.17000000179,"y":2542798.9399999995}},{"attributes":{"ID":594339,"DIS_CODE":0,"TOWNNAME":"東區","LI":"崇文里","LIN":"11鄰","STREET":"崇德十八街","SECT":" ","MAREA":" ","LANE":" ","ALLEY":" ","HOUSE_NO":"７４號二樓之１","E_COORD97":171001.20999999999,"N_COORD97":2541016.3999999999,"ADDRESS":"崇德十八街７４號二樓之１","OBJECTID":594312},"geometry":{"x":171001.21000000089,"y":2541016.4000000004}},{"attributes":{"ID":594340,"DIS_CODE":0,"TOWNNAME":"東區","LI":"崇文里","LIN":"11鄰","STREET":"崇德十八街","SECT":" ","MAREA":" ","LANE":" ","ALLEY":" ","HOUSE_NO":"７４號二樓之２","E_COORD97":171001.20999999999,"N_COORD97":2541016.3999999999,"ADDRESS":"崇德十八街７４號二樓之２","OBJECTID":594313},"geometry":{"x":171001.21000000089,"y":2541016.4000000004}},{"attributes":{"ID":594341,"DIS_CODE":0,"TOWNNAME":"東區","LI":"崇文里","LIN":"11鄰","STREET":"崇德十八街","SECT":" ","MAREA":" ","LANE":" ","ALLEY":" ","HOUSE_NO":"７４號八樓","E_COORD97":171001.20999999999,"N_COORD97":2541016.3999999999,"ADDRESS":"崇德十八街７４號八樓","OBJECTID":594314},"geometry":{"x":171001.21000000089,"y":2541016.4000000004}},{"attributes":{"ID":594342,"DIS_CODE":0,"TOWNNAME":"東區","LI":"崇善里","LIN":"26鄰","STREET":"崇善十三街","SECT":" ","MAREA":" ","LANE":" ","ALLEY":" ","HOUSE_NO":"８號","E_COORD97":171231.17999999999,"N_COORD97":2540973.6200000001,"ADDRESS":"崇善十三街８號","OBJECTID":594315},"geometry":{"x":171231.18000000063,"y":2540973.6200000029}},{"attributes":{"ID":594343,"DIS_CODE":0,"TOWNNAME":"東區","LI":"崇善里","LIN":"26鄰","STREET":"崇善十三街","SECT":" ","MAREA":" ","LANE":" ","ALLEY":" ","HOUSE_NO":"１０號","E_COORD97":171233.01999999999,"N_COORD97":2540968.3799999999,"ADDRESS":"崇善十三街１０號","OBJECTID":594316},"geometry":{"x":171233.01999999955,"y":2540968.379999999}},{"attributes":{"ID":594344,"DIS_CODE":0,"TOWNNAME":"東區","LI":"崇善里","LIN":"26鄰","STREET":"崇善十三街","SECT":" ","MAREA":" ","LANE":" ","ALLEY":" ","HOUSE_NO":"１２號","E_COORD97":171239.29999999999,"N_COORD97":2540962.6299999999,"ADDRESS":"崇善十三街１２號","OBJECTID":594317},"geometry":{"x":171239.30000000075,"y":2540962.629999999}},{"attributes":{"ID":594345,"DIS_CODE":0,"TOWNNAME":"東區","LI":"崇善里","LIN":"26鄰","STREET":"崇善十三街","SECT":" ","MAREA":" ","LANE":" ","ALLEY":" ","HOUSE_NO":"１４號","E_COORD97":171252.39999999999,"N_COORD97":2540968.6400000001,"ADDRESS":"崇善十三街１４號","OBJECTID":594318},"geometry":{"x":171252.4000000013,"y":2540968.6400000006}},{"attributes":{"ID":594346,"DIS_CODE":0,"TOWNNAME":"東區","LI":"崇善里","LIN":"26鄰","STREET":"崇善十三街","SECT":" ","MAREA":" ","LANE":" ","ALLEY":" ","HOUSE_NO":"１６號","E_COORD97":171248.47,"N_COORD97":2540977.54,"ADDRESS":"崇善十三街１６號","OBJECTID":594319},"geometry":{"x":171248.46999999974,"y":2540977.5399999991}},{"attributes":{"ID":594347,"DIS_CODE":0,"TOWNNAME":"東區","LI":"崇善里","LIN":"1鄰","STREET":"中華東路","SECT":"三段","MAREA":" ","LANE":" ","ALLEY":" ","HOUSE_NO":"１２７號","E_COORD97":170765.17000000001,"N_COORD97":2542090.98,"ADDRESS":"中華東路三段１２７號","OBJECTID":594320},"geometry":{"x":170765.17000000086,"y":2542090.9800000004}},{"attributes":{"ID":594348,"DIS_CODE":0,"TOWNNAME":"東區","LI":"崇文里","LIN":"11鄰","STREET":"崇德十八街","SECT":" ","MAREA":" ","LANE":" ","ALLEY":" ","HOUSE_NO":"７４號八樓之１","E_COORD97":171001.20999999999,"N_COORD97":2541016.3999999999,"ADDRESS":"崇德十八街７４號八樓之１","OBJECTID":594321},"geometry":{"x":171001.21000000089,"y":2541016.4000000004}},{"attributes":{"ID":594349,"DIS_CODE":0,"TOWNNAME":"東區","LI":"崇文里","LIN":"11鄰","STREET":"崇德十八街","SECT":" ","MAREA":" ","LANE":" ","ALLEY":" ","HOUSE_NO":"７４號八樓之２","E_COORD97":171001.20999999999,"N_COORD97":2541016.3999999999,"ADDRESS":"崇德十八街７４號八樓之２","OBJECTID":594322},"geometry":{"x":171001.21000000089,"y":2541016.4000000004}},{"attributes":{"ID":594350,"DIS_CODE":0,"TOWNNAME":"東區","LI":"崇文里","LIN":"11鄰","STREET":"崇德十八街","SECT":" ","MAREA":" ","LANE":" ","ALLEY":" ","HOUSE_NO":"７４號三樓","E_COORD97":171001.20999999999,"N_COORD97":2541016.3999999999,"ADDRESS":"崇德十八街７４號三樓","OBJECTID":594323},"geometry":{"x":171001.21000000089,"y":2541016.4000000004}},{"attributes":{"ID":594351,"DIS_CODE":0,"TOWNNAME":"東區","LI":"崇文里","LIN":"11鄰","STREET":"崇德十八街","SECT":" ","MAREA":" ","LANE":" ","ALLEY":" ","HOUSE_NO":"７４號三樓之１","E_COORD97":171001.20999999999,"N_COORD97":2541016.3999999999,"ADDRESS":"崇德十八街７４號三樓之１","OBJECTID":594324},"geometry":{"x":171001.21000000089,"y":2541016.4000000004}},{"attributes":{"ID":594352,"DIS_CODE":0,"TOWNNAME":"東區","LI":"崇文里","LIN":"11鄰","STREET":"崇德十八街","SECT":" ","MAREA":" ","LANE":" ","ALLEY":" ","HOUSE_NO":"７４號三樓之２","E_COORD97":171001.20999999999,"N_COORD97":2541016.3999999999,"ADDRESS":"崇德十八街７４號三樓之２","OBJECTID":594325},"geometry":{"x":171001.21000000089,"y":2541016.4000000004}},{"attributes":{"ID":594353,"DIS_CODE":0,"TOWNNAME":"東區","LI":"崇文里","LIN":"11鄰","STREET":"崇德十八街","SECT":" ","MAREA":" ","LANE":" ","ALLEY":" ","HOUSE_NO":"７４號五樓","E_COORD97":171001.20999999999,"N_COORD97":2541016.3999999999,"ADDRESS":"崇德十八街７４號五樓","OBJECTID":594326},"geometry":{"x":171001.21000000089,"y":2541016.4000000004}},{"attributes":{"ID":594354,"DIS_CODE":0,"TOWNNAME":"東區","LI":"崇文里","LIN":"11鄰","STREET":"崇德十八街","SECT":" ","MAREA":" ","LANE":" ","ALLEY":" ","HOUSE_NO":"７４號五樓之１","E_COORD97":171001.20999999999,"N_COORD97":2541016.3999999999,"ADDRESS":"崇德十八街７４號五樓之１","OBJECTID":594327},"geometry":{"x":171001.21000000089,"y":2541016.4000000004}},{"attributes":{"ID":594355,"DIS_CODE":0,"TOWNNAME":"東區","LI":"崇文里","LIN":"11鄰","STREET":"崇德十八街","SECT":" ","MAREA":" ","LANE":" ","ALLEY":" ","HOUSE_NO":"７４號五樓之２","E_COORD97":171001.20999999999,"N_COORD97":2541016.3999999999,"ADDRESS":"崇德十八街７４號五樓之２","OBJECTID":594328},"geometry":{"x":171001.21000000089,"y":2541016.4000000004}},{"attributes":{"ID":594356,"DIS_CODE":0,"TOWNNAME":"東區","LI":"崇文里","LIN":"11鄰","STREET":"崇德十八街","SECT":" ","MAREA":" ","LANE":" ","ALLEY":" ","HOUSE_NO":"７４號六樓","E_COORD97":171001.20999999999,"N_COORD97":2541016.3999999999,"ADDRESS":"崇德十八街７４號六樓","OBJECTID":594329},"geometry":{"x":171001.21000000089,"y":2541016.4000000004}},{"attributes":{"ID":594357,"DIS_CODE":0,"TOWNNAME":"東區","LI":"崇文里","LIN":"11鄰","STREET":"崇德十八街","SECT":" ","MAREA":" ","LANE":" ","ALLEY":" ","HOUSE_NO":"７４號六樓之１","E_COORD97":171001.20999999999,"N_COORD97":2541016.3999999999,"ADDRESS":"崇德十八街７４號六樓之１","OBJECTID":594330},"geometry":{"x":171001.21000000089,"y":2541016.4000000004}},{"attributes":{"ID":594358,"DIS_CODE":0,"TOWNNAME":"東區","LI":"崇文里","LIN":"11鄰","STREET":"崇德十八街","SECT":" ","MAREA":" ","LANE":" ","ALLEY":" ","HOUSE_NO":"７４號六樓之２","E_COORD97":171001.20999999999,"N_COORD97":2541016.3999999999,"ADDRESS":"崇德十八街７４號六樓之２","OBJECTID":594331},"geometry":{"x":171001.21000000089,"y":2541016.4000000004}},{"attributes":{"ID":594359,"DIS_CODE":0,"TOWNNAME":"東區","LI":"崇文里","LIN":"11鄰","STREET":"崇德十八街","SECT":" ","MAREA":" ","LANE":" ","ALLEY":" ","HOUSE_NO":"７４號四樓","E_COORD97":171001.20999999999,"N_COORD97":2541016.3999999999,"ADDRESS":"崇德十八街７４號四樓","OBJECTID":594332},"geometry":{"x":171001.21000000089,"y":2541016.4000000004}},{"attributes":{"ID":594360,"DIS_CODE":0,"TOWNNAME":"東區","LI":"崇文里","LIN":"11鄰","STREET":"崇德十八街","SECT":" ","MAREA":" ","LANE":" ","ALLEY":" ","HOUSE_NO":"７４號四樓之１","E_COORD97":171001.20999999999,"N_COORD97":2541016.3999999999,"ADDRESS":"崇德十八街７４號四樓之１","OBJECTID":594333},"geometry":{"x":171001.21000000089,"y":2541016.4000000004}},{"attributes":{"ID":594361,"DIS_CODE":0,"TOWNNAME":"東區","LI":"崇文里","LIN":"11鄰","STREET":"崇德十八街","SECT":" ","MAREA":" ","LANE":" ","ALLEY":" ","HOUSE_NO":"７４號四樓之２","E_COORD97":171001.20999999999,"N_COORD97":2541016.3999999999,"ADDRESS":"崇德十八街７４號四樓之２","OBJECTID":594334},"geometry":{"x":171001.21000000089,"y":2541016.4000000004}},{"attributes":{"ID":594362,"DIS_CODE":0,"TOWNNAME":"東區","LI":"崇文里","LIN":"11鄰","STREET":"崇德十八街","SECT":" ","MAREA":" ","LANE":" ","ALLEY":" ","HOUSE_NO":"８０號七樓","E_COORD97":171014.64999999999,"N_COORD97":2541016.5,"ADDRESS":"崇德十八街８０號七樓","OBJECTID":594335},"geometry":{"x":171014.65000000037,"y":2541016.5}},{"attributes":{"ID":594363,"DIS_CODE":0,"TOWNNAME":"東區","LI":"崇文里","LIN":"11鄰","STREET":"崇德十八街","SECT":" ","MAREA":" ","LANE":" ","ALLEY":" ","HOUSE_NO":"８０號七樓之１","E_COORD97":171014.64999999999,"N_COORD97":2541016.5,"ADDRESS":"崇德十八街８０號七樓之１","OBJECTID":594336},"geometry":{"x":171014.65000000037,"y":2541016.5}},{"attributes":{"ID":594364,"DIS_CODE":0,"TOWNNAME":"東區","LI":"崇文里","LIN":"11鄰","STREET":"崇德十八街","SECT":" ","MAREA":" ","LANE":" ","ALLEY":" ","HOUSE_NO":"８０號七樓之２","E_COORD97":171014.64999999999,"N_COORD97":2541016.5,"ADDRESS":"崇德十八街８０號七樓之２","OBJECTID":594337},"geometry":{"x":171014.65000000037,"y":2541016.5}},{"attributes":{"ID":594365,"DIS_CODE":0,"TOWNNAME":"東區","LI":"崇文里","LIN":"11鄰","STREET":"崇德十八街","SECT":" ","MAREA":" ","LANE":" ","ALLEY":" ","HOUSE_NO":"８０號九樓","E_COORD97":171014.64999999999,"N_COORD97":2541016.5,"ADDRESS":"崇德十八街８０號九樓","OBJECTID":594338},"geometry":{"x":171014.65000000037,"y":2541016.5}},{"attributes":{"ID":594366,"DIS_CODE":0,"TOWNNAME":"東區","LI":"崇文里","LIN":"11鄰","STREET":"崇德十八街","SECT":" ","MAREA":" ","LANE":" ","ALLEY":" ","HOUSE_NO":"８０號二樓","E_COORD97":171014.64999999999,"N_COORD97":2541016.5,"ADDRESS":"崇德十八街８０號二樓","OBJECTID":594339},"geometry":{"x":171014.65000000037,"y":2541016.5}},{"attributes":{"ID":594367,"DIS_CODE":0,"TOWNNAME":"東區","LI":"崇文里","LIN":"11鄰","STREET":"崇德十八街","SECT":" ","MAREA":" ","LANE":" ","ALLEY":" ","HOUSE_NO":"８０號二樓之１","E_COORD97":171014.64999999999,"N_COORD97":2541016.5,"ADDRESS":"崇德十八街８０號二樓之１","OBJECTID":594340},"geometry":{"x":171014.65000000037,"y":2541016.5}},{"attributes":{"ID":594368,"DIS_CODE":0,"TOWNNAME":"東區","LI":"崇文里","LIN":"11鄰","STREET":"崇德十八街","SECT":" ","MAREA":" ","LANE":" ","ALLEY":" ","HOUSE_NO":"８０號二樓之２","E_COORD97":171014.64999999999,"N_COORD97":2541016.5,"ADDRESS":"崇德十八街８０號二樓之２","OBJECTID":594341},"geometry":{"x":171014.65000000037,"y":2541016.5}},{"attributes":{"ID":594369,"DIS_CODE":0,"TOWNNAME":"東區","LI":"崇文里","LIN":"11鄰","STREET":"崇德十八街","SECT":" ","MAREA":" ","LANE":" ","ALLEY":" ","HOUSE_NO":"８０號八樓","E_COORD97":171014.64999999999,"N_COORD97":2541016.5,"ADDRESS":"崇德十八街８０號八樓","OBJECTID":594342},"geometry":{"x":171014.65000000037,"y":2541016.5}},{"attributes":{"ID":594370,"DIS_CODE":0,"TOWNNAME":"東區","LI":"崇文里","LIN":"11鄰","STREET":"崇德十八街","SECT":" ","MAREA":" ","LANE":" ","ALLEY":" ","HOUSE_NO":"８０號八樓之１","E_COORD97":171014.64999999999,"N_COORD97":2541016.5,"ADDRESS":"崇德十八街８０號八樓之１","OBJECTID":594343},"geometry":{"x":171014.65000000037,"y":2541016.5}},{"attributes":{"ID":594371,"DIS_CODE":0,"TOWNNAME":"東區","LI":"崇文里","LIN":"11鄰","STREET":"崇德十八街","SECT":" ","MAREA":" ","LANE":" ","ALLEY":" ","HOUSE_NO":"８０號八樓之２","E_COORD97":171014.64999999999,"N_COORD97":2541016.5,"ADDRESS":"崇德十八街８０號八樓之２","OBJECTID":594344},"geometry":{"x":171014.65000000037,"y":2541016.5}},{"attributes":{"ID":594372,"DIS_CODE":0,"TOWNNAME":"東區","LI":"崇文里","LIN":"11鄰","STREET":"崇德十八街","SECT":" ","MAREA":" ","LANE":" ","ALLEY":" ","HOUSE_NO":"８０號三樓","E_COORD97":171014.64999999999,"N_COORD97":2541016.5,"ADDRESS":"崇德十八街８０號三樓","OBJECTID":594345},"geometry":{"x":171014.65000000037,"y":2541016.5}},{"attributes":{"ID":594373,"DIS_CODE":0,"TOWNNAME":"東區","LI":"崇文里","LIN":"11鄰","STREET":"崇德十八街","SECT":" ","MAREA":" ","LANE":" ","ALLEY":" ","HOUSE_NO":"８０號三樓之１","E_COORD97":171014.64999999999,"N_COORD97":2541016.5,"ADDRESS":"崇德十八街８０號三樓之１","OBJECTID":594346},"geometry":{"x":171014.65000000037,"y":2541016.5}},{"attributes":{"ID":594374,"DIS_CODE":0,"TOWNNAME":"東區","LI":"大智里","LIN":"26鄰","STREET":"德東街","SECT":" ","MAREA":" ","LANE":" ","ALLEY":" ","HOUSE_NO":"２０９號","E_COORD97":171335.37,"N_COORD97":2540270.7400000002,"ADDRESS":"德東街２０９號","OBJECTID":594347},"geometry":{"x":171335.37000000104,"y":2540270.7400000021}},{"attributes":{"ID":594375,"DIS_CODE":0,"TOWNNAME":"東區","LI":"崇善里","LIN":"26鄰","STREET":"崇善十三街","SECT":" ","MAREA":" ","LANE":" ","ALLEY":" ","HOUSE_NO":"１７號","E_COORD97":171253.54999999999,"N_COORD97":2541011.6200000001,"ADDRESS":"崇善十三街１７號","OBJECTID":594348},"geometry":{"x":171253.54999999981,"y":2541011.6200000029}},{"attributes":{"ID":594376,"DIS_CODE":0,"TOWNNAME":"東區","LI":"崇善里","LIN":"26鄰","STREET":"崇善十三街","SECT":" ","MAREA":" ","LANE":" ","ALLEY":" ","HOUSE_NO":"２１號","E_COORD97":171267.19,"N_COORD97":2541022.3500000001,"ADDRESS":"崇善十三街２１號","OBJECTID":594349},"geometry":{"x":171267.19000000227,"y":2541022.3500000015}},{"attributes":{"ID":594377,"DIS_CODE":0,"TOWNNAME":"東區","LI":"崇善里","LIN":"26鄰","STREET":"崇善十三街","SECT":" ","MAREA":" ","LANE":" ","ALLEY":" ","HOUSE_NO":"１０號地下層","E_COORD97":171233.01999999999,"N_COORD97":2540968.3799999999,"ADDRESS":"崇善十三街１０號地下層","OBJECTID":594350},"geometry":{"x":171233.01999999955,"y":2540968.379999999}},{"attributes":{"ID":594378,"DIS_CODE":0,"TOWNNAME":"東區","LI":"崇善里","LIN":"23鄰","STREET":"崇善十二街","SECT":" ","MAREA":" ","LANE":" ","ALLEY":" ","HOUSE_NO":"１１號","E_COORD97":171199.37,"N_COORD97":2541089.8500000001,"ADDRESS":"崇善十二街１１號","OBJECTID":594351},"geometry":{"x":171199.37000000011,"y":2541089.8500000015}},{"attributes":{"ID":594379,"DIS_CODE":0,"TOWNNAME":"東區","LI":"崇善里","LIN":"23鄰","STREET":"崇善十二街","SECT":" ","MAREA":" ","LANE":" ","ALLEY":" ","HOUSE_NO":"３９號","E_COORD97":171255.60999999999,"N_COORD97":2541115.21,"ADDRESS":"崇善十二街３９號","OBJECTID":594352},"geometry":{"x":171255.61000000034,"y":2541115.2100000028}},{"attributes":{"ID":594380,"DIS_CODE":0,"TOWNNAME":"東區","LI":"崇善里","LIN":"23鄰","STREET":"崇善十二街","SECT":" ","MAREA":" ","LANE":" ","ALLEY":" ","HOUSE_NO":"５０號","E_COORD97":171328.97,"N_COORD97":2541128.0899999999,"ADDRESS":"崇善十二街５０號","OBJECTID":594353},"geometry":{"x":171328.9700000016,"y":2541128.0900000036}},{"attributes":{"ID":594381,"DIS_CODE":0,"TOWNNAME":"東區","LI":"崇文里","LIN":"11鄰","STREET":"崇德十八街","SECT":" ","MAREA":" ","LANE":" ","ALLEY":" ","HOUSE_NO":"８０號三樓之２","E_COORD97":171014.64999999999,"N_COORD97":2541016.5,"ADDRESS":"崇德十八街８０號三樓之２","OBJECTID":594354},"geometry":{"x":171014.65000000037,"y":2541016.5}},{"attributes":{"ID":594382,"DIS_CODE":0,"TOWNNAME":"東區","LI":"崇文里","LIN":"11鄰","STREET":"崇德十八街","SECT":" ","MAREA":" ","LANE":" ","ALLEY":" ","HOUSE_NO":"８０號五樓","E_COORD97":171014.64999999999,"N_COORD97":2541016.5,"ADDRESS":"崇德十八街８０號五樓","OBJECTID":594355},"geometry":{"x":171014.65000000037,"y":2541016.5}},{"attributes":{"ID":594383,"DIS_CODE":0,"TOWNNAME":"東區","LI":"崇文里","LIN":"11鄰","STREET":"崇德十八街","SECT":" ","MAREA":" ","LANE":" ","ALLEY":" ","HOUSE_NO":"８０號五樓之１","E_COORD97":171014.64999999999,"N_COORD97":2541016.5,"ADDRESS":"崇德十八街８０號五樓之１","OBJECTID":594356},"geometry":{"x":171014.65000000037,"y":2541016.5}},{"attributes":{"ID":594384,"DIS_CODE":0,"TOWNNAME":"東區","LI":"崇文里","LIN":"11鄰","STREET":"崇德十八街","SECT":" ","MAREA":" ","LANE":" ","ALLEY":" ","HOUSE_NO":"８０號五樓之２","E_COORD97":171014.64999999999,"N_COORD97":2541016.5,"ADDRESS":"崇德十八街８０號五樓之２","OBJECTID":594357},"geometry":{"x":171014.65000000037,"y":2541016.5}},{"attributes":{"ID":594385,"DIS_CODE":0,"TOWNNAME":"東區","LI":"崇文里","LIN":"11鄰","STREET":"崇德十八街","SECT":" ","MAREA":" ","LANE":" ","ALLEY":" ","HOUSE_NO":"８０號六樓","E_COORD97":171014.64999999999,"N_COORD97":2541016.5,"ADDRESS":"崇德十八街８０號六樓","OBJECTID":594358},"geometry":{"x":171014.65000000037,"y":2541016.5}},{"attributes":{"ID":594386,"DIS_CODE":0,"TOWNNAME":"東區","LI":"崇成里","LIN":"1鄰","STREET":"崇道路","SECT":" ","MAREA":" ","LANE":" ","ALLEY":" ","HOUSE_NO":"９８號","E_COORD97":170867.34,"N_COORD97":2541383.5899999999,"ADDRESS":"崇道路９８號","OBJECTID":594359},"geometry":{"x":170867.34000000078,"y":2541383.5900000017}},{"attributes":{"ID":594387,"DIS_CODE":0,"TOWNNAME":"東區","LI":"崇文里","LIN":"11鄰","STREET":"崇德十八街","SECT":" ","MAREA":" ","LANE":" ","ALLEY":" ","HOUSE_NO":"８０號六樓之１","E_COORD97":171014.64999999999,"N_COORD97":2541016.5,"ADDRESS":"崇德十八街８０號六樓之１","OBJECTID":594360},"geometry":{"x":171014.65000000037,"y":2541016.5}},{"attributes":{"ID":594388,"DIS_CODE":0,"TOWNNAME":"東區","LI":"崇文里","LIN":"11鄰","STREET":"崇德十八街","SECT":" ","MAREA":" ","LANE":" ","ALLEY":" ","HOUSE_NO":"８０號六樓之２","E_COORD97":171014.64999999999,"N_COORD97":2541016.5,"ADDRESS":"崇德十八街８０號六樓之２","OBJECTID":594361},"geometry":{"x":171014.65000000037,"y":2541016.5}},{"attributes":{"ID":594389,"DIS_CODE":0,"TOWNNAME":"東區","LI":"崇文里","LIN":"11鄰","STREET":"崇德十八街","SECT":" ","MAREA":" ","LANE":" ","ALLEY":" ","HOUSE_NO":"８０號四樓","E_COORD97":171014.64999999999,"N_COORD97":2541016.5,"ADDRESS":"崇德十八街８０號四樓","OBJECTID":594362},"geometry":{"x":171014.65000000037,"y":2541016.5}},{"attributes":{"ID":594390,"DIS_CODE":0,"TOWNNAME":"東區","LI":"崇文里","LIN":"11鄰","STREET":"崇德十八街","SECT":" ","MAREA":" ","LANE":" ","ALLEY":" ","HOUSE_NO":"８０號四樓之１","E_COORD97":171014.64999999999,"N_COORD97":2541016.5,"ADDRESS":"崇德十八街８０號四樓之１","OBJECTID":594363},"geometry":{"x":171014.65000000037,"y":2541016.5}},{"attributes":{"ID":594391,"DIS_CODE":0,"TOWNNAME":"東區","LI":"崇文里","LIN":"11鄰","STREET":"崇德十八街","SECT":" ","MAREA":" ","LANE":" ","ALLEY":" ","HOUSE_NO":"８０號四樓之２","E_COORD97":171014.64999999999,"N_COORD97":2541016.5,"ADDRESS":"崇德十八街８０號四樓之２","OBJECTID":594364},"geometry":{"x":171014.65000000037,"y":2541016.5}},{"attributes":{"ID":594392,"DIS_CODE":0,"TOWNNAME":"中西區","LI":"安海里","LIN":"11鄰","STREET":"環河街","SECT":" ","MAREA":" ","LANE":" ","ALLEY":" ","HOUSE_NO":"８６號五樓之３","E_COORD97":167220.34,"N_COORD97":2543917.3799999999,"ADDRESS":"環河街８６號五樓之３","OBJECTID":594365},"geometry":{"x":167220.33999999985,"y":2543917.379999999}},{"attributes":{"ID":594393,"DIS_CODE":0,"TOWNNAME":"中西區","LI":"安海里","LIN":"11鄰","STREET":"環河街","SECT":" ","MAREA":" ","LANE":" ","ALLEY":" ","HOUSE_NO":"８６號五樓之４","E_COORD97":167220.34,"N_COORD97":2543917.3799999999,"ADDRESS":"環河街８６號五樓之４","OBJECTID":594366},"geometry":{"x":167220.33999999985,"y":2543917.379999999}},{"attributes":{"ID":594394,"DIS_CODE":0,"TOWNNAME":"東區","LI":"大智里","LIN":"26鄰","STREET":"德東街","SECT":" ","MAREA":" ","LANE":" ","ALLEY":" ","HOUSE_NO":"１８７號","E_COORD97":171288.70999999999,"N_COORD97":2540272.3100000001,"ADDRESS":"德東街１８７號","OBJECTID":594367},"geometry":{"x":171288.71000000183,"y":2540272.3100000005}},{"attributes":{"ID":594395,"DIS_CODE":0,"TOWNNAME":"東區","LI":"大智里","LIN":"26鄰","STREET":"德東街","SECT":" ","MAREA":" ","LANE":" ","ALLEY":" ","HOUSE_NO":"２１３號","E_COORD97":171343.89000000001,"N_COORD97":2540269.1299999999,"ADDRESS":"德東街２１３號","OBJECTID":594368},"geometry":{"x":171343.88999999966,"y":2540269.1300000027}},{"attributes":{"ID":594396,"DIS_CODE":0,"TOWNNAME":"東區","LI":"大智里","LIN":"26鄰","STREET":"德東街","SECT":" ","MAREA":" ","LANE":" ","ALLEY":" ","HOUSE_NO":"２１９號","E_COORD97":171357.39999999999,"N_COORD97":2540266.5600000001,"ADDRESS":"德東街２１９號","OBJECTID":594369},"geometry":{"x":171357.4000000013,"y":2540266.5600000005}},{"attributes":{"ID":594397,"DIS_CODE":0,"TOWNNAME":"東區","LI":"大智里","LIN":"26鄰","STREET":"德東街","SECT":" ","MAREA":" ","LANE":" ","ALLEY":" ","HOUSE_NO":"２１０號","E_COORD97":171363.01000000001,"N_COORD97":2540246.9900000002,"ADDRESS":"德東街２１０號","OBJECTID":594370},"geometry":{"x":171363.01000000071,"y":2540246.9900000002}},{"attributes":{"ID":594398,"DIS_CODE":0,"TOWNNAME":"中西區","LI":"安海里","LIN":"11鄰","STREET":"環河街","SECT":" ","MAREA":" ","LANE":" ","ALLEY":" ","HOUSE_NO":"８６號五樓之５","E_COORD97":167220.34,"N_COORD97":2543917.3799999999,"ADDRESS":"環河街８６號五樓之５","OBJECTID":594371},"geometry":{"x":167220.33999999985,"y":2543917.379999999}},{"attributes":{"ID":594399,"DIS_CODE":0,"TOWNNAME":"中西區","LI":"安海里","LIN":"11鄰","STREET":"環河街","SECT":" ","MAREA":" ","LANE":" ","ALLEY":" ","HOUSE_NO":"８６號五樓之６","E_COORD97":167220.34,"N_COORD97":2543917.3799999999,"ADDRESS":"環河街８６號五樓之６","OBJECTID":594372},"geometry":{"x":167220.33999999985,"y":2543917.379999999}},{"attributes":{"ID":594400,"DIS_CODE":0,"TOWNNAME":"中西區","LI":"安海里","LIN":"11鄰","STREET":"環河街","SECT":" ","MAREA":" ","LANE":" ","ALLEY":" ","HOUSE_NO":"８６號五樓之７","E_COORD97":167220.34,"N_COORD97":2543917.3799999999,"ADDRESS":"環河街８６號五樓之７","OBJECTID":594373},"geometry":{"x":167220.33999999985,"y":2543917.379999999}},{"attributes":{"ID":594401,"DIS_CODE":0,"TOWNNAME":"中西區","LI":"安海里","LIN":"11鄰","STREET":"環河街","SECT":" ","MAREA":" ","LANE":" ","ALLEY":" ","HOUSE_NO":"８６號五樓之８","E_COORD97":167220.34,"N_COORD97":2543917.3799999999,"ADDRESS":"環河街８６號五樓之８","OBJECTID":594374},"geometry":{"x":167220.33999999985,"y":2543917.379999999}},{"attributes":{"ID":594402,"DIS_CODE":0,"TOWNNAME":"中西區","LI":"安海里","LIN":"11鄰","STREET":"環河街","SECT":" ","MAREA":" ","LANE":" ","ALLEY":" ","HOUSE_NO":"８６號五樓之９","E_COORD97":167220.34,"N_COORD97":2543917.3799999999,"ADDRESS":"環河街８６號五樓之９","OBJECTID":594375},"geometry":{"x":167220.33999999985,"y":2543917.379999999}},{"attributes":{"ID":594403,"DIS_CODE":0,"TOWNNAME":"中西區","LI":"安海里","LIN":"11鄰","STREET":"環河街","SECT":" ","MAREA":" ","LANE":" ","ALLEY":" ","HOUSE_NO":"８６號六樓之１","E_COORD97":167220.34,"N_COORD97":2543917.3799999999,"ADDRESS":"環河街８６號六樓之１","OBJECTID":594376},"geometry":{"x":167220.33999999985,"y":2543917.379999999}},{"attributes":{"ID":594404,"DIS_CODE":0,"TOWNNAME":"中西區","LI":"安海里","LIN":"11鄰","STREET":"環河街","SECT":" ","MAREA":" ","LANE":" ","ALLEY":" ","HOUSE_NO":"８６號六樓之２","E_COORD97":167220.34,"N_COORD97":2543917.3799999999,"ADDRESS":"環河街８６號六樓之２","OBJECTID":594377},"geometry":{"x":167220.33999999985,"y":2543917.379999999}},{"attributes":{"ID":594405,"DIS_CODE":0,"TOWNNAME":"中西區","LI":"安海里","LIN":"11鄰","STREET":"環河街","SECT":" ","MAREA":" ","LANE":" ","ALLEY":" ","HOUSE_NO":"８６號六樓之３","E_COORD97":167220.34,"N_COORD97":2543917.3799999999,"ADDRESS":"環河街８６號六樓之３","OBJECTID":594378},"geometry":{"x":167220.33999999985,"y":2543917.379999999}},{"attributes":{"ID":594406,"DIS_CODE":0,"TOWNNAME":"中西區","LI":"安海里","LIN":"11鄰","STREET":"環河街","SECT":" ","MAREA":" ","LANE":" ","ALLEY":" ","HOUSE_NO":"８６號六樓之４","E_COORD97":167220.34,"N_COORD97":2543917.3799999999,"ADDRESS":"環河街８６號六樓之４","OBJECTID":594379},"geometry":{"x":167220.33999999985,"y":2543917.379999999}},{"attributes":{"ID":594407,"DIS_CODE":0,"TOWNNAME":"中西區","LI":"安海里","LIN":"11鄰","STREET":"環河街","SECT":" ","MAREA":" ","LANE":" ","ALLEY":" ","HOUSE_NO":"８６號六樓之５","E_COORD97":167220.34,"N_COORD97":2543917.3799999999,"ADDRESS":"環河街８６號六樓之５","OBJECTID":594380},"geometry":{"x":167220.33999999985,"y":2543917.379999999}},{"attributes":{"ID":594408,"DIS_CODE":0,"TOWNNAME":"中西區","LI":"安海里","LIN":"11鄰","STREET":"環河街","SECT":" ","MAREA":" ","LANE":" ","ALLEY":" ","HOUSE_NO":"８６號六樓之６","E_COORD97":167220.34,"N_COORD97":2543917.3799999999,"ADDRESS":"環河街８６號六樓之６","OBJECTID":594381},"geometry":{"x":167220.33999999985,"y":2543917.379999999}},{"attributes":{"ID":594409,"DIS_CODE":0,"TOWNNAME":"中西區","LI":"安海里","LIN":"11鄰","STREET":"環河街","SECT":" ","MAREA":" ","LANE":" ","ALLEY":" ","HOUSE_NO":"８６號六樓之７","E_COORD97":167220.34,"N_COORD97":2543917.3799999999,"ADDRESS":"環河街８６號六樓之７","OBJECTID":594382},"geometry":{"x":167220.33999999985,"y":2543917.379999999}},{"attributes":{"ID":594410,"DIS_CODE":0,"TOWNNAME":"中西區","LI":"安海里","LIN":"11鄰","STREET":"環河街","SECT":" ","MAREA":" ","LANE":" ","ALLEY":" ","HOUSE_NO":"８６號六樓之８","E_COORD97":167220.34,"N_COORD97":2543917.3799999999,"ADDRESS":"環河街８６號六樓之８","OBJECTID":594383},"geometry":{"x":167220.33999999985,"y":2543917.379999999}},{"attributes":{"ID":594411,"DIS_CODE":0,"TOWNNAME":"中西區","LI":"安海里","LIN":"11鄰","STREET":"環河街","SECT":" ","MAREA":" ","LANE":" ","ALLEY":" ","HOUSE_NO":"８６號四樓之１","E_COORD97":167220.34,"N_COORD97":2543917.3799999999,"ADDRESS":"環河街８６號四樓之１","OBJECTID":594384},"geometry":{"x":167220.33999999985,"y":2543917.379999999}},{"attributes":{"ID":594412,"DIS_CODE":0,"TOWNNAME":"中西區","LI":"安海里","LIN":"11鄰","STREET":"環河街","SECT":" ","MAREA":" ","LANE":" ","ALLEY":" ","HOUSE_NO":"８６號四樓之２","E_COORD97":167220.34,"N_COORD97":2543917.3799999999,"ADDRESS":"環河街８６號四樓之２","OBJECTID":594385},"geometry":{"x":167220.33999999985,"y":2543917.379999999}},{"attributes":{"ID":594413,"DIS_CODE":0,"TOWNNAME":"中西區","LI":"安海里","LIN":"11鄰","STREET":"環河街","SECT":" ","MAREA":" ","LANE":" ","ALLEY":" ","HOUSE_NO":"８６號四樓之３","E_COORD97":167220.34,"N_COORD97":2543917.3799999999,"ADDRESS":"環河街８６號四樓之３","OBJECTID":594386},"geometry":{"x":167220.33999999985,"y":2543917.379999999}},{"attributes":{"ID":594414,"DIS_CODE":0,"TOWNNAME":"中西區","LI":"安海里","LIN":"11鄰","STREET":"環河街","SECT":" ","MAREA":" ","LANE":" ","ALLEY":" ","HOUSE_NO":"８６號四樓之４","E_COORD97":167220.34,"N_COORD97":2543917.3799999999,"ADDRESS":"環河街８６號四樓之４","OBJECTID":594387},"geometry":{"x":167220.33999999985,"y":2543917.379999999}},{"attributes":{"ID":594415,"DIS_CODE":0,"TOWNNAME":"中西區","LI":"安海里","LIN":"11鄰","STREET":"環河街","SECT":" ","MAREA":" ","LANE":" ","ALLEY":" ","HOUSE_NO":"８６號四樓之５","E_COORD97":167220.34,"N_COORD97":2543917.3799999999,"ADDRESS":"環河街８６號四樓之５","OBJECTID":594388},"geometry":{"x":167220.33999999985,"y":2543917.379999999}},{"attributes":{"ID":594416,"DIS_CODE":0,"TOWNNAME":"中西區","LI":"安海里","LIN":"11鄰","STREET":"環河街","SECT":" ","MAREA":" ","LANE":" ","ALLEY":" ","HOUSE_NO":"８６號四樓之６","E_COORD97":167220.34,"N_COORD97":2543917.3799999999,"ADDRESS":"環河街８６號四樓之６","OBJECTID":594389},"geometry":{"x":167220.33999999985,"y":2543917.379999999}},{"attributes":{"ID":594417,"DIS_CODE":0,"TOWNNAME":"中西區","LI":"安海里","LIN":"11鄰","STREET":"環河街","SECT":" ","MAREA":" ","LANE":" ","ALLEY":" ","HOUSE_NO":"８６號四樓之７","E_COORD97":167220.34,"N_COORD97":2543917.3799999999,"ADDRESS":"環河街８６號四樓之７","OBJECTID":594390},"geometry":{"x":167220.33999999985,"y":2543917.379999999}},{"attributes":{"ID":594418,"DIS_CODE":0,"TOWNNAME":"麻豆區","LI":"中興里","LIN":"11鄰","STREET":"興國路","SECT":" ","MAREA":" ","LANE":" ","ALLEY":" ","HOUSE_NO":"５６號之１１七樓","E_COORD97":172947.67999999999,"N_COORD97":2564178.7200000002,"ADDRESS":"興國路５６號之１１七樓","OBJECTID":594391},"geometry":{"x":172947.6799999997,"y":2564178.7200000007}},{"attributes":{"ID":594419,"DIS_CODE":0,"TOWNNAME":"東區","LI":"崇成里","LIN":"1鄰","STREET":"崇道路","SECT":" ","MAREA":" ","LANE":" ","ALLEY":" ","HOUSE_NO":"９４號地下一層","E_COORD97":170847.25,"N_COORD97":2541383.2999999998,"ADDRESS":"崇道路９４號地下一層","OBJECTID":594392},"geometry":{"x":170847.25,"y":2541383.3000000026}},{"attributes":{"ID":594420,"DIS_CODE":0,"TOWNNAME":"東區","LI":"崇成里","LIN":"1鄰","STREET":"崇道路","SECT":" ","MAREA":" ","LANE":" ","ALLEY":" ","HOUSE_NO":"１０２號","E_COORD97":170881.82999999999,"N_COORD97":2541393.8599999999,"ADDRESS":"崇道路１０２號","OBJECTID":594393},"geometry":{"x":170881.83000000101,"y":2541393.8600000031}},{"attributes":{"ID":594421,"DIS_CODE":0,"TOWNNAME":"東區","LI":"崇成里","LIN":"1鄰","STREET":"崇道路","SECT":" ","MAREA":" ","LANE":" ","ALLEY":" ","HOUSE_NO":"１０２號之１","E_COORD97":170886.14999999999,"N_COORD97":2541393.96,"ADDRESS":"崇道路１０２號之１","OBJECTID":594394},"geometry":{"x":170886.1500000013,"y":2541393.9600000009}},{"attributes":{"ID":594422,"DIS_CODE":0,"TOWNNAME":"東區","LI":"崇成里","LIN":"1鄰","STREET":"崇道路","SECT":" ","MAREA":" ","LANE":" ","ALLEY":" ","HOUSE_NO":"１０２號之２","E_COORD97":170891.03,"N_COORD97":2541394.1400000001,"ADDRESS":"崇道路１０２號之２","OBJECTID":594395},"geometry":{"x":170891.03000000026,"y":2541394.1400000025}},{"attributes":{"ID":594423,"DIS_CODE":0,"TOWNNAME":"東區","LI":"崇成里","LIN":"1鄰","STREET":"崇道路","SECT":" ","MAREA":" ","LANE":" ","ALLEY":" ","HOUSE_NO":"１０２號之３","E_COORD97":170896.38,"N_COORD97":2541393.8900000001,"ADDRESS":"崇道路１０２號之３","OBJECTID":594396},"geometry":{"x":170896.38000000082,"y":2541393.8900000006}},{"attributes":{"ID":594424,"DIS_CODE":0,"TOWNNAME":"東區","LI":"崇成里","LIN":"1鄰","STREET":"崇道路","SECT":" ","MAREA":" ","LANE":" ","ALLEY":" ","HOUSE_NO":"１０２號之４","E_COORD97":170901.03,"N_COORD97":2541393.8599999999,"ADDRESS":"崇道路１０２號之４","OBJECTID":594397},"geometry":{"x":170901.03000000119,"y":2541393.8600000031}},{"attributes":{"ID":594425,"DIS_CODE":0,"TOWNNAME":"東區","LI":"崇成里","LIN":"1鄰","STREET":"崇道路","SECT":" ","MAREA":" ","LANE":" ","ALLEY":" ","HOUSE_NO":"１０２號之５","E_COORD97":170905.54000000001,"N_COORD97":2541393.77,"ADDRESS":"崇道路１０２號之５","OBJECTID":594398},"geometry":{"x":170905.54000000097,"y":2541393.7699999996}},{"attributes":{"ID":594426,"DIS_CODE":0,"TOWNNAME":"東區","LI":"崇成里","LIN":"1鄰","STREET":"崇道路","SECT":" ","MAREA":" ","LANE":" ","ALLEY":" ","HOUSE_NO":"１０２號之６","E_COORD97":170910.29000000001,"N_COORD97":2541393.77,"ADDRESS":"崇道路１０２號之６","OBJECTID":594399},"geometry":{"x":170910.29000000097,"y":2541393.7699999996}},{"attributes":{"ID":594427,"DIS_CODE":0,"TOWNNAME":"東區","LI":"東聖里","LIN":"10鄰","STREET":"富農街","SECT":"二段","MAREA":" ","LANE":" ","ALLEY":" ","HOUSE_NO":"３號之２","E_COORD97":171625.62,"N_COORD97":2542836.04,"ADDRESS":"富農街二段３號之２","OBJECTID":594400},"geometry":{"x":171625.62000000104,"y":2542836.0399999991}}]}