{"displayFieldName":"TOWNNAME","fieldAliases":{"ID":"ID","DIS_CODE":"DIS_CODE","TOWNNAME":"TOWNNAME","LI":"LI","LIN":"LIN","STREET":"STREET","SECT":"SECT","MAREA":"MAREA","LANE":"LANE","ALLEY":"ALLEY","HOUSE_NO":"HOUSE_NO","E_COORD97":"E_COORD97","N_COORD97":"N_COORD97","ADDRESS":"ADDRESS","OBJECTID":"OBJECTID"},"geometryType":"esriGeometryPoint","spatialReference":{"wkid":102443,"latestWkid":3826},"fields":[{"name":"ID","type":"esriFieldTypeDouble","alias":"ID"},{"name":"DIS_CODE","type":"esriFieldTypeInteger","alias":"DIS_CODE"},{"name":"TOWNNAME","type":"esriFieldTypeString","alias":"TOWNNAME","length":8},{"name":"LI","type":"esriFieldTypeString","alias":"LI","length":8},{"name":"LIN","type":"esriFieldTypeString","alias":"LIN","length":12},{"name":"STREET","type":"esriFieldTypeString","alias":"STREET","length":20},{"name":"SECT","type":"esriFieldTypeString","alias":"SECT","length":8},{"name":"MAREA","type":"esriFieldTypeString","alias":"MAREA","length":12},{"name":"LANE","type":"esriFieldTypeString","alias":"LANE","length":10},{"name":"ALLEY","type":"esriFieldTypeString","alias":"ALLEY","length":10},{"name":"HOUSE_NO","type":"esriFieldTypeString","alias":"HOUSE_NO","length":20},{"name":"E_COORD97","type":"esriFieldTypeDouble","alias":"E_COORD97"},{"name":"N_COORD97","type":"esriFieldTypeDouble","alias":"N_COORD97"},{"name":"ADDRESS","type":"esriFieldTypeString","alias":"ADDRESS","length":50},{"name":"OBJECTID","type":"esriFieldTypeOID","alias":"OBJECTID"}],"features":[{"attributes":{"ID":47401,"DIS_CODE":0,"TOWNNAME":"永康區","LI":"五王里","LIN":"15鄰","STREET":"中華二路","SECT":" ","MAREA":" ","LANE":"２０６巷","ALLEY":"６８弄","HOUSE_NO":"１１號","E_COORD97":171620.92999999999,"N_COORD97":2545684.3500000001,"ADDRESS":"中華二路２０６巷６８弄１１號","OBJECTID":47401},"geometry":{"x":171620.93000000063,"y":2545684.3500000015}},{"attributes":{"ID":47402,"DIS_CODE":0,"TOWNNAME":"永康區","LI":"五王里","LIN":"15鄰","STREET":"中華二路","SECT":" ","MAREA":" ","LANE":"２０６巷","ALLEY":"６８弄","HOUSE_NO":"７號","E_COORD97":171614.81,"N_COORD97":2545665.4500000002,"ADDRESS":"中華二路２０６巷６８弄７號","OBJECTID":47402},"geometry":{"x":171614.81000000145,"y":2545665.4500000011}},{"attributes":{"ID":47403,"DIS_CODE":0,"TOWNNAME":"永康區","LI":"大灣里","LIN":"15鄰","STREET":"大灣路","SECT":" ","MAREA":" ","LANE":"２８８巷","ALLEY":"２９弄","HOUSE_NO":"１號","E_COORD97":174822.92000000001,"N_COORD97":2545262.1000000001,"ADDRESS":"大灣路２８８巷２９弄１號","OBJECTID":47403},"geometry":{"x":174822.91999999993,"y":2545262.1000000015}},{"attributes":{"ID":47404,"DIS_CODE":0,"TOWNNAME":"永康區","LI":"大橋里","LIN":"15鄰","STREET":"大橋一街","SECT":" ","MAREA":" ","LANE":"１０３巷","ALLEY":"４１弄","HOUSE_NO":"１號","E_COORD97":170948.32999999999,"N_COORD97":2546506.0499999998,"ADDRESS":"大橋一街１０３巷４１弄１號","OBJECTID":47404},"geometry":{"x":170948.33000000007,"y":2546506.0500000007}},{"attributes":{"ID":47405,"DIS_CODE":0,"TOWNNAME":"永康區","LI":"三合里","LIN":"15鄰","STREET":"南工街","SECT":" ","MAREA":" ","LANE":"２４７巷","ALLEY":"２３弄","HOUSE_NO":"３號","E_COORD97":171999.79000000001,"N_COORD97":2545884.8500000001,"ADDRESS":"南工街２４７巷２３弄３號","OBJECTID":47405},"geometry":{"x":171999.79000000004,"y":2545884.8499999996}},{"attributes":{"ID":47406,"DIS_CODE":0,"TOWNNAME":"永康區","LI":"五王里","LIN":"15鄰","STREET":"中華二路","SECT":" ","MAREA":" ","LANE":"２０６巷","ALLEY":"６８弄","HOUSE_NO":"１３號","E_COORD97":171619.51999999999,"N_COORD97":2545688.3500000001,"ADDRESS":"中華二路２０６巷６８弄１３號","OBJECTID":47406},"geometry":{"x":171619.51999999955,"y":2545688.3499999996}},{"attributes":{"ID":47407,"DIS_CODE":0,"TOWNNAME":"永康區","LI":"五王里","LIN":"15鄰","STREET":"中華二路","SECT":" ","MAREA":" ","LANE":"２０６巷","ALLEY":"６８弄","HOUSE_NO":"１９號","E_COORD97":171616.32000000001,"N_COORD97":2545699.8500000001,"ADDRESS":"中華二路２０６巷６８弄１９號","OBJECTID":47407},"geometry":{"x":171616.3200000003,"y":2545699.8500000034}},{"attributes":{"ID":47408,"DIS_CODE":0,"TOWNNAME":"安南區","LI":"溪東里","LIN":"15鄰","STREET":"府安路","SECT":"五段","MAREA":" ","LANE":"１１巷","ALLEY":"５９弄","HOUSE_NO":"１１號","E_COORD97":168402.17000000001,"N_COORD97":2547468.1200000001,"ADDRESS":"府安路五段１１巷５９弄１１號","OBJECTID":47408},"geometry":{"x":168402.17000000086,"y":2547468.120000001}},{"attributes":{"ID":47409,"DIS_CODE":0,"TOWNNAME":"安南區","LI":"溪東里","LIN":"15鄰","STREET":"府安路","SECT":"五段","MAREA":" ","LANE":"１１巷","ALLEY":"５９弄","HOUSE_NO":"１２號","E_COORD97":168399.01999999999,"N_COORD97":2547490.96,"ADDRESS":"府安路五段１１巷５９弄１２號","OBJECTID":47409},"geometry":{"x":168399.01999999955,"y":2547490.9600000028}},{"attributes":{"ID":47410,"DIS_CODE":0,"TOWNNAME":"安南區","LI":"溪東里","LIN":"15鄰","STREET":"府安路","SECT":"五段","MAREA":" ","LANE":"１１巷","ALLEY":"５９弄","HOUSE_NO":"１４號","E_COORD97":168392.89999999999,"N_COORD97":2547490.5,"ADDRESS":"府安路五段１１巷５９弄１４號","OBJECTID":47410},"geometry":{"x":168392.9000000013,"y":2547490.5000000019}},{"attributes":{"ID":47411,"DIS_CODE":0,"TOWNNAME":"安南區","LI":"溪東里","LIN":"15鄰","STREET":"府安路","SECT":"五段","MAREA":" ","LANE":"１１巷","ALLEY":"５９弄","HOUSE_NO":"１５號","E_COORD97":168388.95999999999,"N_COORD97":2547464.7599999998,"ADDRESS":"府安路五段１１巷５９弄１５號","OBJECTID":47411},"geometry":{"x":168388.96000000089,"y":2547464.7600000016}},{"attributes":{"ID":47412,"DIS_CODE":0,"TOWNNAME":"安南區","LI":"溪東里","LIN":"15鄰","STREET":"府安路","SECT":"五段","MAREA":" ","LANE":"１１巷","ALLEY":"５９弄","HOUSE_NO":"１６號","E_COORD97":168385.85999999999,"N_COORD97":2547488.3599999999,"ADDRESS":"府安路五段１１巷５９弄１６號","OBJECTID":47412},"geometry":{"x":168385.8600000022,"y":2547488.3599999994}},{"attributes":{"ID":47413,"DIS_CODE":0,"TOWNNAME":"安南區","LI":"溪東里","LIN":"15鄰","STREET":"府安路","SECT":"五段","MAREA":" ","LANE":"１１巷","ALLEY":"５９弄","HOUSE_NO":"１７號","E_COORD97":168382.98000000001,"N_COORD97":2547464.0299999998,"ADDRESS":"府安路五段１１巷５９弄１７號","OBJECTID":47413},"geometry":{"x":168382.98000000045,"y":2547464.0299999993}},{"attributes":{"ID":47414,"DIS_CODE":0,"TOWNNAME":"安南區","LI":"溪東里","LIN":"15鄰","STREET":"府安路","SECT":"五段","MAREA":" ","LANE":"１１巷","ALLEY":"５９弄","HOUSE_NO":"１９號","E_COORD97":168376.12,"N_COORD97":2547463.1600000001,"ADDRESS":"府安路五段１１巷５９弄１９號","OBJECTID":47414},"geometry":{"x":168376.12000000104,"y":2547463.1600000001}},{"attributes":{"ID":47415,"DIS_CODE":0,"TOWNNAME":"安南區","LI":"溪東里","LIN":"15鄰","STREET":"府安路","SECT":"五段","MAREA":" ","LANE":"１１巷","ALLEY":"５９弄","HOUSE_NO":"１號","E_COORD97":168434.70000000001,"N_COORD97":2547470.7400000002,"ADDRESS":"府安路五段１１巷５９弄１號","OBJECTID":47415},"geometry":{"x":168434.70000000112,"y":2547470.7400000039}},{"attributes":{"ID":47416,"DIS_CODE":0,"TOWNNAME":"安南區","LI":"溪東里","LIN":"15鄰","STREET":"府安路","SECT":"五段","MAREA":" ","LANE":"１１巷","ALLEY":"５９弄","HOUSE_NO":"２０號","E_COORD97":168373.54000000001,"N_COORD97":2547486.6600000001,"ADDRESS":"府安路五段１１巷５９弄２０號","OBJECTID":47416},"geometry":{"x":168373.54000000004,"y":2547486.6600000001}},{"attributes":{"ID":47417,"DIS_CODE":0,"TOWNNAME":"安南區","LI":"溪東里","LIN":"15鄰","STREET":"府安路","SECT":"五段","MAREA":" ","LANE":"１１巷","ALLEY":"５９弄","HOUSE_NO":"２２號","E_COORD97":168367.10999999999,"N_COORD97":2547486.3599999999,"ADDRESS":"府安路五段１１巷５９弄２２號","OBJECTID":47417},"geometry":{"x":168367.1100000022,"y":2547486.3600000031}},{"attributes":{"ID":47418,"DIS_CODE":0,"TOWNNAME":"安南區","LI":"溪東里","LIN":"15鄰","STREET":"府安路","SECT":"五段","MAREA":" ","LANE":"１１巷","ALLEY":"５９弄","HOUSE_NO":"２３號","E_COORD97":168363.42999999999,"N_COORD97":2547461.7000000002,"ADDRESS":"府安路五段１１巷５９弄２３號","OBJECTID":47418},"geometry":{"x":168363.43000000063,"y":2547461.6999999993}},{"attributes":{"ID":47419,"DIS_CODE":0,"TOWNNAME":"安南區","LI":"溪東里","LIN":"15鄰","STREET":"府安路","SECT":"五段","MAREA":" ","LANE":"１１巷","ALLEY":"５９弄","HOUSE_NO":"２４號","E_COORD97":168360.98999999999,"N_COORD97":2547484.98,"ADDRESS":"府安路五段１１巷５９弄２４號","OBJECTID":47419},"geometry":{"x":168360.98999999929,"y":2547484.9800000004}},{"attributes":{"ID":47420,"DIS_CODE":0,"TOWNNAME":"安南區","LI":"溪東里","LIN":"15鄰","STREET":"府安路","SECT":"五段","MAREA":" ","LANE":"１１巷","ALLEY":"５９弄","HOUSE_NO":"２５號","E_COORD97":168356.72,"N_COORD97":2547460.9700000002,"ADDRESS":"府安路五段１１巷５９弄２５號","OBJECTID":47420},"geometry":{"x":168356.71999999974,"y":2547460.9700000025}},{"attributes":{"ID":47421,"DIS_CODE":0,"TOWNNAME":"安南區","LI":"溪東里","LIN":"15鄰","STREET":"府安路","SECT":"五段","MAREA":" ","LANE":"１１巷","ALLEY":"５９弄","HOUSE_NO":"２６號","E_COORD97":168353.64000000001,"N_COORD97":2547484.2200000002,"ADDRESS":"府安路五段１１巷５９弄２６號","OBJECTID":47421},"geometry":{"x":168353.63999999966,"y":2547484.2200000007}},{"attributes":{"ID":47422,"DIS_CODE":0,"TOWNNAME":"安南區","LI":"溪東里","LIN":"15鄰","STREET":"府安路","SECT":"五段","MAREA":" ","LANE":"１１巷","ALLEY":"５９弄","HOUSE_NO":"２８號","E_COORD97":168347.82999999999,"N_COORD97":2547483.6099999999,"ADDRESS":"府安路五段１１巷５９弄２８號","OBJECTID":47422},"geometry":{"x":168347.83000000007,"y":2547483.6099999994}},{"attributes":{"ID":47423,"DIS_CODE":0,"TOWNNAME":"安南區","LI":"溪東里","LIN":"15鄰","STREET":"府安路","SECT":"五段","MAREA":" ","LANE":"１１巷","ALLEY":"５９弄","HOUSE_NO":"２９號","E_COORD97":168343.51999999999,"N_COORD97":2547459.9399999999,"ADDRESS":"府安路五段１１巷５９弄２９號","OBJECTID":47423},"geometry":{"x":168343.52000000048,"y":2547459.9400000013}},{"attributes":{"ID":47424,"DIS_CODE":0,"TOWNNAME":"安南區","LI":"溪東里","LIN":"15鄰","STREET":"府安路","SECT":"五段","MAREA":" ","LANE":"１１巷","ALLEY":"５９弄","HOUSE_NO":"２號","E_COORD97":168431.45999999999,"N_COORD97":2547494.0099999998,"ADDRESS":"府安路五段１１巷５９弄２號","OBJECTID":47424},"geometry":{"x":168431.45999999996,"y":2547494.0099999998}},{"attributes":{"ID":47425,"DIS_CODE":0,"TOWNNAME":"安南區","LI":"溪東里","LIN":"15鄰","STREET":"府安路","SECT":"五段","MAREA":" ","LANE":"１１巷","ALLEY":"５９弄","HOUSE_NO":"３０號","E_COORD97":168340.94,"N_COORD97":2547482.54,"ADDRESS":"府安路五段１１巷５９弄３０號","OBJECTID":47425},"geometry":{"x":168340.94000000041,"y":2547482.540000001}},{"attributes":{"ID":47426,"DIS_CODE":0,"TOWNNAME":"安南區","LI":"溪東里","LIN":"15鄰","STREET":"府安路","SECT":"五段","MAREA":" ","LANE":"１１巷","ALLEY":"５９弄","HOUSE_NO":"３１號","E_COORD97":168337.25,"N_COORD97":2547459.3500000001,"ADDRESS":"府安路五段１１巷５９弄３１號","OBJECTID":47426},"geometry":{"x":168337.25000000093,"y":2547459.3500000034}},{"attributes":{"ID":47427,"DIS_CODE":0,"TOWNNAME":"安南區","LI":"溪東里","LIN":"15鄰","STREET":"府安路","SECT":"五段","MAREA":" ","LANE":"１１巷","ALLEY":"５９弄","HOUSE_NO":"３２號","E_COORD97":168334.66,"N_COORD97":2547482.3799999999,"ADDRESS":"府安路五段１１巷５９弄３２號","OBJECTID":47427},"geometry":{"x":168334.66000000108,"y":2547482.3800000027}},{"attributes":{"ID":47428,"DIS_CODE":0,"TOWNNAME":"安南區","LI":"溪東里","LIN":"15鄰","STREET":"府安路","SECT":"五段","MAREA":" ","LANE":"１１巷","ALLEY":"５９弄","HOUSE_NO":"３３號","E_COORD97":168331.85000000001,"N_COORD97":2547458.04,"ADDRESS":"府安路五段１１巷５９弄３３號","OBJECTID":47428},"geometry":{"x":168331.84999999963,"y":2547458.040000001}},{"attributes":{"ID":47429,"DIS_CODE":0,"TOWNNAME":"安南區","LI":"溪東里","LIN":"15鄰","STREET":"府安路","SECT":"五段","MAREA":" ","LANE":"１１巷","ALLEY":"５９弄","HOUSE_NO":"３４號","E_COORD97":168328.39000000001,"N_COORD97":2547481.6200000001,"ADDRESS":"府安路五段１１巷５９弄３４號","OBJECTID":47429},"geometry":{"x":168328.38999999966,"y":2547481.620000001}},{"attributes":{"ID":47430,"DIS_CODE":0,"TOWNNAME":"安南區","LI":"溪東里","LIN":"15鄰","STREET":"府安路","SECT":"五段","MAREA":" ","LANE":"１１巷","ALLEY":"５９弄","HOUSE_NO":"３５號","E_COORD97":168323.97,"N_COORD97":2547457.46,"ADDRESS":"府安路五段１１巷５９弄３５號","OBJECTID":47430},"geometry":{"x":168323.97000000067,"y":2547457.4600000028}},{"attributes":{"ID":47431,"DIS_CODE":0,"TOWNNAME":"安南區","LI":"溪東里","LIN":"15鄰","STREET":"府安路","SECT":"五段","MAREA":" ","LANE":"１１巷","ALLEY":"５９弄","HOUSE_NO":"３６號","E_COORD97":168321.20000000001,"N_COORD97":2547481.4700000002,"ADDRESS":"府安路五段１１巷５９弄３６號","OBJECTID":47431},"geometry":{"x":168321.20000000112,"y":2547481.4700000025}},{"attributes":{"ID":47432,"DIS_CODE":0,"TOWNNAME":"安南區","LI":"溪東里","LIN":"15鄰","STREET":"府安路","SECT":"五段","MAREA":" ","LANE":"１１巷","ALLEY":"５９弄","HOUSE_NO":"３８號","E_COORD97":168314.92000000001,"N_COORD97":2547479.9399999999,"ADDRESS":"府安路五段１１巷５９弄３８號","OBJECTID":47432},"geometry":{"x":168314.91999999993,"y":2547479.9400000013}},{"attributes":{"ID":47433,"DIS_CODE":0,"TOWNNAME":"安南區","LI":"溪東里","LIN":"15鄰","STREET":"府安路","SECT":"五段","MAREA":" ","LANE":"１１巷","ALLEY":"５９弄","HOUSE_NO":"３號","E_COORD97":168428.13,"N_COORD97":2547470.2999999998,"ADDRESS":"府安路五段１１巷５９弄３號","OBJECTID":47433},"geometry":{"x":168428.13000000082,"y":2547470.3000000007}},{"attributes":{"ID":47434,"DIS_CODE":0,"TOWNNAME":"安南區","LI":"溪東里","LIN":"15鄰","STREET":"府安路","SECT":"五段","MAREA":" ","LANE":"１１巷","ALLEY":"５９弄","HOUSE_NO":"４０號","E_COORD97":168300.03,"N_COORD97":2547479.0299999998,"ADDRESS":"府安路五段１１巷５９弄４０號","OBJECTID":47434},"geometry":{"x":168300.03000000119,"y":2547479.0300000012}},{"attributes":{"ID":47435,"DIS_CODE":0,"TOWNNAME":"安南區","LI":"溪東里","LIN":"15鄰","STREET":"府安路","SECT":"五段","MAREA":" ","LANE":"１１巷","ALLEY":"５９弄","HOUSE_NO":"４２號","E_COORD97":168294.14000000001,"N_COORD97":2547474.6499999999,"ADDRESS":"府安路五段１１巷５９弄４２號","OBJECTID":47435},"geometry":{"x":168294.1400000006,"y":2547474.6500000004}},{"attributes":{"ID":47436,"DIS_CODE":0,"TOWNNAME":"安南區","LI":"溪東里","LIN":"15鄰","STREET":"府安路","SECT":"五段","MAREA":" ","LANE":"１１巷","ALLEY":"５９弄","HOUSE_NO":"４５號","E_COORD97":168287.56,"N_COORD97":2547457.1000000001,"ADDRESS":"府安路五段１１巷５９弄４５號","OBJECTID":47436},"geometry":{"x":168287.56000000052,"y":2547457.0999999996}},{"attributes":{"ID":47437,"DIS_CODE":0,"TOWNNAME":"安南區","LI":"溪東里","LIN":"15鄰","STREET":"府安路","SECT":"五段","MAREA":" ","LANE":"１１巷","ALLEY":"５９弄","HOUSE_NO":"４６號","E_COORD97":168280.14999999999,"N_COORD97":2547476.3300000001,"ADDRESS":"府安路五段１１巷５９弄４６號","OBJECTID":47437},"geometry":{"x":168280.15000000037,"y":2547476.3300000001}},{"attributes":{"ID":47438,"DIS_CODE":0,"TOWNNAME":"安南區","LI":"溪東里","LIN":"15鄰","STREET":"府安路","SECT":"五段","MAREA":" ","LANE":"１１巷","ALLEY":"５９弄","HOUSE_NO":"４８號","E_COORD97":168272.94,"N_COORD97":2547475.1699999999,"ADDRESS":"府安路五段１１巷５９弄４８號","OBJECTID":47438},"geometry":{"x":168272.94000000041,"y":2547475.1700000018}},{"attributes":{"ID":47439,"DIS_CODE":0,"TOWNNAME":"安南區","LI":"溪東里","LIN":"15鄰","STREET":"府安路","SECT":"五段","MAREA":" ","LANE":"１１巷","ALLEY":"５９弄","HOUSE_NO":"４９號","E_COORD97":168276.14999999999,"N_COORD97":2547453.29,"ADDRESS":"府安路五段１１巷５９弄４９號","OBJECTID":47439},"geometry":{"x":168276.1500000013,"y":2547453.290000001}},{"attributes":{"ID":47440,"DIS_CODE":0,"TOWNNAME":"西港區","LI":"後營里","LIN":"15鄰","STREET":" ","SECT":" ","MAREA":"後營","LANE":" ","ALLEY":" ","HOUSE_NO":"３６７號之９","E_COORD97":169947.82000000001,"N_COORD97":2559858.3599999999,"ADDRESS":"後營３６７號之９","OBJECTID":47440},"geometry":{"x":169947.82000000123,"y":2559858.3600000013}},{"attributes":{"ID":47441,"DIS_CODE":0,"TOWNNAME":"安南區","LI":"溪東里","LIN":"15鄰","STREET":"府安路","SECT":"五段","MAREA":" ","LANE":"１１巷","ALLEY":"５９弄","HOUSE_NO":"４號","E_COORD97":168424.57999999999,"N_COORD97":2547494.4700000002,"ADDRESS":"府安路五段１１巷５９弄４號","OBJECTID":47441},"geometry":{"x":168424.58000000007,"y":2547494.4700000025}},{"attributes":{"ID":47442,"DIS_CODE":0,"TOWNNAME":"永康區","LI":"西橋里","LIN":"20鄰","STREET":"大橋三街","SECT":" ","MAREA":" ","LANE":"５７巷","ALLEY":"７弄","HOUSE_NO":"２１號","E_COORD97":170550.91,"N_COORD97":2546506.7400000002,"ADDRESS":"大橋三街５７巷７弄２１號","OBJECTID":47442},"geometry":{"x":170550.91000000015,"y":2546506.7400000002}},{"attributes":{"ID":47443,"DIS_CODE":0,"TOWNNAME":"安南區","LI":"溪東里","LIN":"15鄰","STREET":"府安路","SECT":"五段","MAREA":" ","LANE":"１１巷","ALLEY":"５９弄","HOUSE_NO":"５０號","E_COORD97":168268.28,"N_COORD97":2547474.27,"ADDRESS":"府安路五段１１巷５９弄５０號","OBJECTID":47443},"geometry":{"x":168268.28000000119,"y":2547474.2700000014}},{"attributes":{"ID":47444,"DIS_CODE":0,"TOWNNAME":"安南區","LI":"溪東里","LIN":"15鄰","STREET":"府安路","SECT":"五段","MAREA":" ","LANE":"１１巷","ALLEY":"５９弄","HOUSE_NO":"５１號","E_COORD97":168271.03,"N_COORD97":2547452.04,"ADDRESS":"府安路五段１１巷５９弄５１號","OBJECTID":47444},"geometry":{"x":168271.03000000212,"y":2547452.040000001}},{"attributes":{"ID":47445,"DIS_CODE":0,"TOWNNAME":"安南區","LI":"溪東里","LIN":"15鄰","STREET":"府安路","SECT":"五段","MAREA":" ","LANE":"１１巷","ALLEY":"５９弄","HOUSE_NO":"５２號","E_COORD97":168262.63,"N_COORD97":2547473.6400000001,"ADDRESS":"府安路五段１１巷５９弄５２號","OBJECTID":47445},"geometry":{"x":168262.62999999989,"y":2547473.6400000006}},{"attributes":{"ID":47446,"DIS_CODE":0,"TOWNNAME":"安南區","LI":"溪東里","LIN":"15鄰","STREET":"府安路","SECT":"五段","MAREA":" ","LANE":"１１巷","ALLEY":"５９弄","HOUSE_NO":"５３號","E_COORD97":168265.89999999999,"N_COORD97":2547451.5800000001,"ADDRESS":"府安路五段１１巷５９弄５３號","OBJECTID":47446},"geometry":{"x":168265.9000000013,"y":2547451.5800000038}},{"attributes":{"ID":47447,"DIS_CODE":0,"TOWNNAME":"安南區","LI":"溪東里","LIN":"15鄰","STREET":"府安路","SECT":"五段","MAREA":" ","LANE":"１１巷","ALLEY":"５９弄","HOUSE_NO":"５４號","E_COORD97":168257.82999999999,"N_COORD97":2547472.6600000001,"ADDRESS":"府安路五段１１巷５９弄５４號","OBJECTID":47447},"geometry":{"x":168257.83000000007,"y":2547472.660000002}},{"attributes":{"ID":47448,"DIS_CODE":0,"TOWNNAME":"永康區","LI":"正強里","LIN":"28鄰","STREET":"中正路","SECT":" ","MAREA":" ","LANE":"１５５巷","ALLEY":"８弄","HOUSE_NO":"２０號","E_COORD97":173188.54000000001,"N_COORD97":2547791.5,"ADDRESS":"中正路１５５巷８弄２０號","OBJECTID":47448},"geometry":{"x":173188.5400000019,"y":2547791.5000000019}},{"attributes":{"ID":47449,"DIS_CODE":0,"TOWNNAME":"安南區","LI":"溪東里","LIN":"15鄰","STREET":"府安路","SECT":"五段","MAREA":" ","LANE":"１１巷","ALLEY":"５９弄","HOUSE_NO":"５５號","E_COORD97":168260.44,"N_COORD97":2547450.4399999999,"ADDRESS":"府安路五段１１巷５９弄５５號","OBJECTID":47449},"geometry":{"x":168260.44000000134,"y":2547450.4399999995}},{"attributes":{"ID":47450,"DIS_CODE":0,"TOWNNAME":"安南區","LI":"溪東里","LIN":"15鄰","STREET":"府安路","SECT":"五段","MAREA":" ","LANE":"１１巷","ALLEY":"５９弄","HOUSE_NO":"５６號","E_COORD97":168252.45000000001,"N_COORD97":2547472.1200000001,"ADDRESS":"府安路五段１１巷５９弄５６號","OBJECTID":47450},"geometry":{"x":168252.45000000019,"y":2547472.120000001}},{"attributes":{"ID":47451,"DIS_CODE":0,"TOWNNAME":"安南區","LI":"溪東里","LIN":"15鄰","STREET":"府安路","SECT":"五段","MAREA":" ","LANE":"１１巷","ALLEY":"５９弄","HOUSE_NO":"５７號","E_COORD97":168256,"N_COORD97":2547450.2200000002,"ADDRESS":"府安路五段１１巷５９弄５７號","OBJECTID":47451},"geometry":{"x":168256.00000000093,"y":2547450.2200000007}},{"attributes":{"ID":47452,"DIS_CODE":0,"TOWNNAME":"安南區","LI":"溪東里","LIN":"15鄰","STREET":"府安路","SECT":"五段","MAREA":" ","LANE":"１１巷","ALLEY":"５９弄","HOUSE_NO":"５９號","E_COORD97":168250.07000000001,"N_COORD97":2547449.3100000001,"ADDRESS":"府安路五段１１巷５９弄５９號","OBJECTID":47452},"geometry":{"x":168250.0700000003,"y":2547449.3100000005}},{"attributes":{"ID":47453,"DIS_CODE":0,"TOWNNAME":"安南區","LI":"溪東里","LIN":"15鄰","STREET":"府安路","SECT":"五段","MAREA":" ","LANE":"１１巷","ALLEY":"５９弄","HOUSE_NO":"５號","E_COORD97":168421.85999999999,"N_COORD97":2547469.4300000002,"ADDRESS":"府安路五段１１巷５９弄５號","OBJECTID":47453},"geometry":{"x":168421.86000000127,"y":2547469.4300000016}},{"attributes":{"ID":47454,"DIS_CODE":0,"TOWNNAME":"安南區","LI":"溪東里","LIN":"15鄰","STREET":"府安路","SECT":"五段","MAREA":" ","LANE":"１１巷","ALLEY":"５９弄","HOUSE_NO":"６０號","E_COORD97":168242.31,"N_COORD97":2547471.1299999999,"ADDRESS":"府安路五段１１巷５９弄６０號","OBJECTID":47454},"geometry":{"x":168242.30999999959,"y":2547471.1300000008}},{"attributes":{"ID":47455,"DIS_CODE":0,"TOWNNAME":"安南區","LI":"溪東里","LIN":"15鄰","STREET":"府安路","SECT":"五段","MAREA":" ","LANE":"１１巷","ALLEY":"５９弄","HOUSE_NO":"６１號","E_COORD97":168245.51999999999,"N_COORD97":2547449.0800000001,"ADDRESS":"府安路五段１１巷５９弄６１號","OBJECTID":47455},"geometry":{"x":168245.52000000048,"y":2547449.0800000019}},{"attributes":{"ID":47456,"DIS_CODE":0,"TOWNNAME":"安南區","LI":"溪東里","LIN":"15鄰","STREET":"府安路","SECT":"五段","MAREA":" ","LANE":"１１巷","ALLEY":"５９弄","HOUSE_NO":"６２號","E_COORD97":168236.76000000001,"N_COORD97":2547470.3300000001,"ADDRESS":"府安路五段１１巷５９弄６２號","OBJECTID":47456},"geometry":{"x":168236.76000000164,"y":2547470.3300000038}},{"attributes":{"ID":47457,"DIS_CODE":0,"TOWNNAME":"安南區","LI":"溪東里","LIN":"15鄰","STREET":"府安路","SECT":"五段","MAREA":" ","LANE":"１１巷","ALLEY":"５９弄","HOUSE_NO":"６３號","E_COORD97":168239.88,"N_COORD97":2547448.5,"ADDRESS":"府安路五段１１巷５９弄６３號","OBJECTID":47457},"geometry":{"x":168239.88000000082,"y":2547448.5000000037}},{"attributes":{"ID":47458,"DIS_CODE":0,"TOWNNAME":"安南區","LI":"溪東里","LIN":"15鄰","STREET":"府安路","SECT":"五段","MAREA":" ","LANE":"１１巷","ALLEY":"５９弄","HOUSE_NO":"６４號","E_COORD97":168231.10999999999,"N_COORD97":2547469.3399999999,"ADDRESS":"府安路五段１１巷５９弄６４號","OBJECTID":47458},"geometry":{"x":168231.11000000034,"y":2547469.3399999999}},{"attributes":{"ID":47459,"DIS_CODE":0,"TOWNNAME":"安南區","LI":"溪東里","LIN":"15鄰","STREET":"府安路","SECT":"五段","MAREA":" ","LANE":"１１巷","ALLEY":"５９弄","HOUSE_NO":"６５號","E_COORD97":168234.98000000001,"N_COORD97":2547447.48,"ADDRESS":"府安路五段１１巷５９弄６５號","OBJECTID":47459},"geometry":{"x":168234.98000000138,"y":2547447.4800000004}},{"attributes":{"ID":47460,"DIS_CODE":0,"TOWNNAME":"安南區","LI":"溪東里","LIN":"15鄰","STREET":"府安路","SECT":"五段","MAREA":" ","LANE":"１１巷","ALLEY":"５９弄","HOUSE_NO":"６６號","E_COORD97":168225.91,"N_COORD97":2547468.3599999999,"ADDRESS":"府安路五段１１巷５９弄６６號","OBJECTID":47460},"geometry":{"x":168225.91000000201,"y":2547468.3599999994}},{"attributes":{"ID":47461,"DIS_CODE":0,"TOWNNAME":"安南區","LI":"溪東里","LIN":"15鄰","STREET":"府安路","SECT":"五段","MAREA":" ","LANE":"１１巷","ALLEY":"５９弄","HOUSE_NO":"６７號","E_COORD97":168229.85999999999,"N_COORD97":2547446.7999999998,"ADDRESS":"府安路五段１１巷５９弄６７號","OBJECTID":47461},"geometry":{"x":168229.8600000022,"y":2547446.8000000007}},{"attributes":{"ID":47462,"DIS_CODE":0,"TOWNNAME":"安南區","LI":"溪東里","LIN":"15鄰","STREET":"府安路","SECT":"五段","MAREA":" ","LANE":"１１巷","ALLEY":"５９弄","HOUSE_NO":"６８號","E_COORD97":168220.89999999999,"N_COORD97":2547467.7599999998,"ADDRESS":"府安路五段１１巷５９弄６８號","OBJECTID":47462},"geometry":{"x":168220.90000000037,"y":2547467.7600000016}},{"attributes":{"ID":47463,"DIS_CODE":0,"TOWNNAME":"安南區","LI":"溪東里","LIN":"15鄰","STREET":"府安路","SECT":"五段","MAREA":" ","LANE":"１１巷","ALLEY":"５９弄","HOUSE_NO":"６９號","E_COORD97":168224.04999999999,"N_COORD97":2547446.6800000002,"ADDRESS":"府安路五段１１巷５９弄６９號","OBJECTID":47463},"geometry":{"x":168224.04999999981,"y":2547446.6799999997}},{"attributes":{"ID":47464,"DIS_CODE":0,"TOWNNAME":"西港區","LI":"後營里","LIN":"15鄰","STREET":" ","SECT":" ","MAREA":"後營","LANE":" ","ALLEY":" ","HOUSE_NO":"３６５之２０號","E_COORD97":170026.81,"N_COORD97":2559926.73,"ADDRESS":"後營３６５之２０號","OBJECTID":47464},"geometry":{"x":170026.81000000052,"y":2559926.7300000004}},{"attributes":{"ID":47465,"DIS_CODE":0,"TOWNNAME":"西港區","LI":"後營里","LIN":"15鄰","STREET":" ","SECT":" ","MAREA":"後營","LANE":" ","ALLEY":" ","HOUSE_NO":"３６５號","E_COORD97":169967.78,"N_COORD97":2559924.75,"ADDRESS":"後營３６５號","OBJECTID":47465},"geometry":{"x":169967.77999999933,"y":2559924.7500000019}},{"attributes":{"ID":47466,"DIS_CODE":0,"TOWNNAME":"西港區","LI":"後營里","LIN":"15鄰","STREET":" ","SECT":" ","MAREA":"後營","LANE":" ","ALLEY":" ","HOUSE_NO":"３６６號之１","E_COORD97":169964.32000000001,"N_COORD97":2559906.5600000001,"ADDRESS":"後營３６６號之１","OBJECTID":47466},"geometry":{"x":169964.32000000216,"y":2559906.5600000024}},{"attributes":{"ID":47467,"DIS_CODE":0,"TOWNNAME":"安南區","LI":"溪東里","LIN":"15鄰","STREET":"府安路","SECT":"五段","MAREA":" ","LANE":"１１巷","ALLEY":"５９弄","HOUSE_NO":"６號","E_COORD97":168418.92000000001,"N_COORD97":2547494.3199999998,"ADDRESS":"府安路五段１１巷５９弄６號","OBJECTID":47467},"geometry":{"x":168418.92000000179,"y":2547494.320000004}},{"attributes":{"ID":47468,"DIS_CODE":0,"TOWNNAME":"安南區","LI":"溪東里","LIN":"15鄰","STREET":"府安路","SECT":"五段","MAREA":" ","LANE":"１１巷","ALLEY":"５９弄","HOUSE_NO":"７０號","E_COORD97":168216.35999999999,"N_COORD97":2547468.1800000002,"ADDRESS":"府安路五段１１巷５９弄７０號","OBJECTID":47468},"geometry":{"x":168216.3600000022,"y":2547468.1800000016}},{"attributes":{"ID":47469,"DIS_CODE":0,"TOWNNAME":"安南區","LI":"溪東里","LIN":"15鄰","STREET":"府安路","SECT":"五段","MAREA":" ","LANE":"１１巷","ALLEY":"５９弄","HOUSE_NO":"７１號","E_COORD97":168219.04000000001,"N_COORD97":2547445.3199999998,"ADDRESS":"府安路五段１１巷５９弄７１號","OBJECTID":47469},"geometry":{"x":168219.04000000004,"y":2547445.3200000003}},{"attributes":{"ID":47470,"DIS_CODE":0,"TOWNNAME":"安南區","LI":"溪東里","LIN":"15鄰","STREET":"府安路","SECT":"五段","MAREA":" ","LANE":"１１巷","ALLEY":"５９弄","HOUSE_NO":"７２號","E_COORD97":168205.63,"N_COORD97":2547466.9399999999,"ADDRESS":"府安路五段１１巷５９弄７２號","OBJECTID":47470},"geometry":{"x":168205.63000000175,"y":2547466.9400000013}},{"attributes":{"ID":47471,"DIS_CODE":0,"TOWNNAME":"安南區","LI":"溪東里","LIN":"15鄰","STREET":"府安路","SECT":"五段","MAREA":" ","LANE":"１１巷","ALLEY":"５９弄","HOUSE_NO":"７５號","E_COORD97":168208.57000000001,"N_COORD97":2547444.2999999998,"ADDRESS":"府安路五段１１巷５９弄７５號","OBJECTID":47471},"geometry":{"x":168208.57000000123,"y":2547444.3000000026}},{"attributes":{"ID":47472,"DIS_CODE":0,"TOWNNAME":"安南區","LI":"溪東里","LIN":"15鄰","STREET":"府安路","SECT":"五段","MAREA":" ","LANE":"１１巷","ALLEY":"５９弄","HOUSE_NO":"７７號","E_COORD97":168201.95999999999,"N_COORD97":2547443.27,"ADDRESS":"府安路五段１１巷５９弄７７號","OBJECTID":47472},"geometry":{"x":168201.96000000089,"y":2547443.2700000014}},{"attributes":{"ID":47473,"DIS_CODE":0,"TOWNNAME":"安南區","LI":"溪東里","LIN":"15鄰","STREET":"府安路","SECT":"五段","MAREA":" ","LANE":"１１巷","ALLEY":"５９弄","HOUSE_NO":"７號","E_COORD97":168415.73999999999,"N_COORD97":2547468.7000000002,"ADDRESS":"府安路五段１１巷５９弄７號","OBJECTID":47473},"geometry":{"x":168415.74000000115,"y":2547468.6999999993}},{"attributes":{"ID":47474,"DIS_CODE":0,"TOWNNAME":"安南區","LI":"溪東里","LIN":"15鄰","STREET":"府安路","SECT":"五段","MAREA":" ","LANE":"１１巷","ALLEY":"５９弄","HOUSE_NO":"８號","E_COORD97":168412.32999999999,"N_COORD97":2547492.3300000001,"ADDRESS":"府安路五段１１巷５９弄８號","OBJECTID":47474},"geometry":{"x":168412.33000000007,"y":2547492.3300000001}},{"attributes":{"ID":47475,"DIS_CODE":0,"TOWNNAME":"安平區","LI":"平安里","LIN":"20鄰","STREET":"民權路","SECT":"四段","MAREA":" ","LANE":"６７９巷","ALLEY":"２弄","HOUSE_NO":"８號","E_COORD97":164860.79000000001,"N_COORD97":2544618.0499999998,"ADDRESS":"民權路四段６７９巷２弄８號","OBJECTID":47475},"geometry":{"x":164860.79000000097,"y":2544618.0500000045}},{"attributes":{"ID":47476,"DIS_CODE":0,"TOWNNAME":"安平區","LI":"國平里","LIN":" ","STREET":"文平路","SECT":" ","MAREA":" ","LANE":"１８７巷","ALLEY":"８８弄","HOUSE_NO":"２７號","E_COORD97":165477.19,"N_COORD97":2543175.1600000001,"ADDRESS":"文平路１８７巷８８弄２７號","OBJECTID":47476},"geometry":{"x":165477.19000000134,"y":2543175.1600000001}},{"attributes":{"ID":47477,"DIS_CODE":0,"TOWNNAME":"永康區","LI":"神洲里","LIN":"15鄰","STREET":"忠孝路","SECT":" ","MAREA":" ","LANE":"７６巷","ALLEY":"４９弄","HOUSE_NO":"６號","E_COORD97":172175.14000000001,"N_COORD97":2544985.23,"ADDRESS":"忠孝路７６巷４９弄６號","OBJECTID":47477},"geometry":{"x":172175.13999999966,"y":2544985.2300000004}},{"attributes":{"ID":47478,"DIS_CODE":0,"TOWNNAME":"南區","LI":"府南里","LIN":"20鄰","STREET":"永成路","SECT":"三段","MAREA":" ","LANE":"４６１巷","ALLEY":"６弄","HOUSE_NO":"１８號","E_COORD97":167423.68371799999,"N_COORD97":2541571.58813,"ADDRESS":"永成路三段４６１巷６弄１８號","OBJECTID":47478},"geometry":{"x":167423.68371800054,"y":2541571.5881350022}},{"attributes":{"ID":47479,"DIS_CODE":0,"TOWNNAME":"永康區","LI":"勝利里","LIN":"15鄰","STREET":"勝利街","SECT":" ","MAREA":" ","LANE":"９５巷","ALLEY":"９弄","HOUSE_NO":"１９號","E_COORD97":171265.07999999999,"N_COORD97":2544818.5,"ADDRESS":"勝利街９５巷９弄１９號","OBJECTID":47479},"geometry":{"x":171265.08000000007,"y":2544818.5000000019}},{"attributes":{"ID":47480,"DIS_CODE":0,"TOWNNAME":"永康區","LI":"勝利里","LIN":"15鄰","STREET":"勝利街","SECT":" ","MAREA":" ","LANE":"９５巷","ALLEY":"９弄","HOUSE_NO":"１７號","E_COORD97":171265.95000000001,"N_COORD97":2544824.5,"ADDRESS":"勝利街９５巷９弄１７號","OBJECTID":47480},"geometry":{"x":171265.95000000112,"y":2544824.5000000037}},{"attributes":{"ID":47481,"DIS_CODE":0,"TOWNNAME":"永康區","LI":"勝利里","LIN":"15鄰","STREET":"勝利街","SECT":" ","MAREA":" ","LANE":"２２巷","ALLEY":"４５弄","HOUSE_NO":"７７號","E_COORD97":171238.89999999999,"N_COORD97":2544820.7400000002,"ADDRESS":"勝利街２２巷４５弄７７號","OBJECTID":47481},"geometry":{"x":171238.9000000013,"y":2544820.7400000021}},{"attributes":{"ID":47482,"DIS_CODE":0,"TOWNNAME":"永康區","LI":"勝利里","LIN":"15鄰","STREET":"勝利街","SECT":" ","MAREA":" ","LANE":"２２巷","ALLEY":"４５弄","HOUSE_NO":"７９號","E_COORD97":171239.32000000001,"N_COORD97":2544825.4900000002,"ADDRESS":"勝利街２２巷４５弄７９號","OBJECTID":47482},"geometry":{"x":171239.32000000123,"y":2544825.4900000021}},{"attributes":{"ID":47483,"DIS_CODE":0,"TOWNNAME":"永康區","LI":"勝利里","LIN":"15鄰","STREET":"勝利街","SECT":" ","MAREA":" ","LANE":"９５巷","ALLEY":"９弄","HOUSE_NO":"１３號","E_COORD97":171266.81,"N_COORD97":2544836.25,"ADDRESS":"勝利街９５巷９弄１３號","OBJECTID":47483},"geometry":{"x":171266.80999999959,"y":2544836.2500000037}},{"attributes":{"ID":47484,"DIS_CODE":0,"TOWNNAME":"永康區","LI":"勝利里","LIN":"15鄰","STREET":"勝利街","SECT":" ","MAREA":" ","LANE":"９５巷","ALLEY":"９弄","HOUSE_NO":"１２號","E_COORD97":171260.64999999999,"N_COORD97":2544843.25,"ADDRESS":"勝利街９５巷９弄１２號","OBJECTID":47484},"geometry":{"x":171260.65000000224,"y":2544843.2500000037}},{"attributes":{"ID":47485,"DIS_CODE":0,"TOWNNAME":"永康區","LI":"勝利里","LIN":"15鄰","STREET":"勝利街","SECT":" ","MAREA":" ","LANE":"９５巷","ALLEY":"９弄","HOUSE_NO":"２２號","E_COORD97":171257.54999999999,"N_COORD97":2544813.5,"ADDRESS":"勝利街９５巷９弄２２號","OBJECTID":47485},"geometry":{"x":171257.55000000075,"y":2544813.5}},{"attributes":{"ID":47486,"DIS_CODE":0,"TOWNNAME":"永康區","LI":"勝利里","LIN":"15鄰","STREET":"勝利街","SECT":" ","MAREA":" ","LANE":"２２巷","ALLEY":"４５弄","HOUSE_NO":"８１號","E_COORD97":171239.54000000001,"N_COORD97":2544829.2400000002,"ADDRESS":"勝利街２２巷４５弄８１號","OBJECTID":47486},"geometry":{"x":171239.54000000097,"y":2544829.2400000002}},{"attributes":{"ID":47487,"DIS_CODE":0,"TOWNNAME":"永康區","LI":"勝利里","LIN":"15鄰","STREET":"勝利街","SECT":" ","MAREA":" ","LANE":"９５巷","ALLEY":"９弄","HOUSE_NO":"２１號","E_COORD97":171264.45000000001,"N_COORD97":2544812.75,"ADDRESS":"勝利街９５巷９弄２１號","OBJECTID":47487},"geometry":{"x":171264.45000000019,"y":2544812.7500000037}},{"attributes":{"ID":47488,"DIS_CODE":0,"TOWNNAME":"永康區","LI":"勝利里","LIN":"15鄰","STREET":"勝利街","SECT":" ","MAREA":" ","LANE":"２２巷","ALLEY":"４５弄","HOUSE_NO":"９７號","E_COORD97":171243.34,"N_COORD97":2544876,"ADDRESS":"勝利街２２巷４５弄９７號","OBJECTID":47488},"geometry":{"x":171243.33999999985,"y":2544876.0000000019}},{"attributes":{"ID":47489,"DIS_CODE":0,"TOWNNAME":"佳里區","LI":"鎮山里","LIN":"20鄰","STREET":"鎮山街","SECT":" ","MAREA":" ","LANE":"３４６巷","ALLEY":"１６弄","HOUSE_NO":"１１號","E_COORD97":166172.82999999999,"N_COORD97":2560859.4900000002,"ADDRESS":"鎮山街３４６巷１６弄１１號","OBJECTID":47489},"geometry":{"x":166172.83000000007,"y":2560859.4900000002}},{"attributes":{"ID":47490,"DIS_CODE":0,"TOWNNAME":"佳里區","LI":"鎮山里","LIN":"20鄰","STREET":"鎮山街","SECT":" ","MAREA":" ","LANE":"３４６巷","ALLEY":"１６弄","HOUSE_NO":"１３號","E_COORD97":166177.59,"N_COORD97":2560860.8700000001,"ADDRESS":"鎮山街３４６巷１６弄１３號","OBJECTID":47490},"geometry":{"x":166177.58999999985,"y":2560860.8700000029}},{"attributes":{"ID":47491,"DIS_CODE":0,"TOWNNAME":"佳里區","LI":"鎮山里","LIN":"20鄰","STREET":"鎮山街","SECT":" ","MAREA":" ","LANE":"３４６巷","ALLEY":"１６弄","HOUSE_NO":"１５號","E_COORD97":166182.34,"N_COORD97":2560862.25,"ADDRESS":"鎮山街３４６巷１６弄１５號","OBJECTID":47491},"geometry":{"x":166182.34000000078,"y":2560862.25}},{"attributes":{"ID":47492,"DIS_CODE":0,"TOWNNAME":"佳里區","LI":"鎮山里","LIN":"20鄰","STREET":"鎮山街","SECT":" ","MAREA":" ","LANE":"３４６巷","ALLEY":"１６弄","HOUSE_NO":"１號","E_COORD97":166149.06,"N_COORD97":2560852.5699999998,"ADDRESS":"鎮山街３４６巷１６弄１號","OBJECTID":47492},"geometry":{"x":166149.05999999959,"y":2560852.5700000003}},{"attributes":{"ID":47493,"DIS_CODE":0,"TOWNNAME":"佳里區","LI":"鎮山里","LIN":"20鄰","STREET":"鎮山街","SECT":" ","MAREA":" ","LANE":"３４６巷","ALLEY":"１６弄","HOUSE_NO":"３號","E_COORD97":166153.82000000001,"N_COORD97":2560853.9500000002,"ADDRESS":"鎮山街３４６巷１６弄３號","OBJECTID":47493},"geometry":{"x":166153.82000000123,"y":2560853.9500000011}},{"attributes":{"ID":47494,"DIS_CODE":0,"TOWNNAME":"佳里區","LI":"鎮山里","LIN":"20鄰","STREET":"鎮山街","SECT":" ","MAREA":" ","LANE":"３４６巷","ALLEY":"１６弄","HOUSE_NO":"５號","E_COORD97":166158.57000000001,"N_COORD97":2560855.3300000001,"ADDRESS":"鎮山街３４６巷１６弄５號","OBJECTID":47494},"geometry":{"x":166158.57000000216,"y":2560855.3300000038}},{"attributes":{"ID":47495,"DIS_CODE":0,"TOWNNAME":"佳里區","LI":"鎮山里","LIN":"20鄰","STREET":"鎮山街","SECT":" ","MAREA":" ","LANE":"３４６巷","ALLEY":"１６弄","HOUSE_NO":"７號","E_COORD97":166163.32000000001,"N_COORD97":2560856.7200000002,"ADDRESS":"鎮山街３４６巷１６弄７號","OBJECTID":47495},"geometry":{"x":166163.3200000003,"y":2560856.7200000044}},{"attributes":{"ID":47496,"DIS_CODE":0,"TOWNNAME":"佳里區","LI":"鎮山里","LIN":"20鄰","STREET":"鎮山街","SECT":" ","MAREA":" ","LANE":"３４６巷","ALLEY":"１６弄","HOUSE_NO":"９號","E_COORD97":166168.07999999999,"N_COORD97":2560858.1000000001,"ADDRESS":"鎮山街３４６巷１６弄９號","OBJECTID":47496},"geometry":{"x":166168.08000000007,"y":2560858.1000000015}},{"attributes":{"ID":47497,"DIS_CODE":0,"TOWNNAME":"佳里區","LI":"鎮山里","LIN":"20鄰","STREET":"鎮山街","SECT":" ","MAREA":" ","LANE":"３４６巷","ALLEY":"１８弄","HOUSE_NO":"１０號","E_COORD97":166159.75,"N_COORD97":2560882.3599999999,"ADDRESS":"鎮山街３４６巷１８弄１０號","OBJECTID":47497},"geometry":{"x":166159.75,"y":2560882.3600000013}},{"attributes":{"ID":47498,"DIS_CODE":0,"TOWNNAME":"佳里區","LI":"鎮山里","LIN":"20鄰","STREET":"鎮山街","SECT":" ","MAREA":" ","LANE":"３４６巷","ALLEY":"１８弄","HOUSE_NO":"１１號","E_COORD97":166160.06,"N_COORD97":2560899.9700000002,"ADDRESS":"鎮山街３４６巷１８弄１１號","OBJECTID":47498},"geometry":{"x":166160.06000000052,"y":2560899.9700000025}},{"attributes":{"ID":47499,"DIS_CODE":0,"TOWNNAME":"佳里區","LI":"鎮山里","LIN":"20鄰","STREET":"鎮山街","SECT":" ","MAREA":" ","LANE":"３４６巷","ALLEY":"１８弄","HOUSE_NO":"１２號","E_COORD97":166164.20000000001,"N_COORD97":2560883.8999999999,"ADDRESS":"鎮山街３４６巷１８弄１２號","OBJECTID":47499},"geometry":{"x":166164.20000000019,"y":2560883.9000000022}},{"attributes":{"ID":47500,"DIS_CODE":0,"TOWNNAME":"佳里區","LI":"鎮山里","LIN":"20鄰","STREET":"鎮山街","SECT":" ","MAREA":" ","LANE":"３４６巷","ALLEY":"１８弄","HOUSE_NO":"１３號","E_COORD97":166164.14999999999,"N_COORD97":2560901.2400000002,"ADDRESS":"鎮山街３４６巷１８弄１３號","OBJECTID":47500},"geometry":{"x":166164.15000000037,"y":2560901.2400000021}},{"attributes":{"ID":47501,"DIS_CODE":0,"TOWNNAME":"佳里區","LI":"鎮山里","LIN":"20鄰","STREET":"鎮山街","SECT":" ","MAREA":" ","LANE":"３４６巷","ALLEY":"１８弄","HOUSE_NO":"１５號","E_COORD97":166159.89000000001,"N_COORD97":2560918.48,"ADDRESS":"鎮山街３４６巷１８弄１５號","OBJECTID":47501},"geometry":{"x":166159.8900000006,"y":2560918.4800000004}},{"attributes":{"ID":47502,"DIS_CODE":0,"TOWNNAME":"佳里區","LI":"鎮山里","LIN":"20鄰","STREET":"鎮山街","SECT":" ","MAREA":" ","LANE":"３４６巷","ALLEY":"１８弄","HOUSE_NO":"１６號","E_COORD97":166168.04999999999,"N_COORD97":2560884.75,"ADDRESS":"鎮山街３４６巷１８弄１６號","OBJECTID":47502},"geometry":{"x":166168.04999999981,"y":2560884.75}},{"attributes":{"ID":47503,"DIS_CODE":0,"TOWNNAME":"佳里區","LI":"鎮山里","LIN":"20鄰","STREET":"鎮山街","SECT":" ","MAREA":" ","LANE":"３４６巷","ALLEY":"１８弄","HOUSE_NO":"１７號","E_COORD97":166172.62,"N_COORD97":2560903.1200000001,"ADDRESS":"鎮山街３４６巷１８弄１７號","OBJECTID":47503},"geometry":{"x":166172.62000000011,"y":2560903.1200000029}},{"attributes":{"ID":47504,"DIS_CODE":0,"TOWNNAME":"佳里區","LI":"鎮山里","LIN":"20鄰","STREET":"鎮山街","SECT":" ","MAREA":" ","LANE":"３４６巷","ALLEY":"１８弄","HOUSE_NO":"１８號","E_COORD97":166172.72,"N_COORD97":2560886.3199999998,"ADDRESS":"鎮山街３４６巷１８弄１８號","OBJECTID":47504},"geometry":{"x":166172.72000000067,"y":2560886.320000004}},{"attributes":{"ID":47505,"DIS_CODE":0,"TOWNNAME":"佳里區","LI":"鎮山里","LIN":"20鄰","STREET":"鎮山街","SECT":" ","MAREA":" ","LANE":"３４６巷","ALLEY":"１８弄","HOUSE_NO":"１９號","E_COORD97":166176.95000000001,"N_COORD97":2560903.6299999999,"ADDRESS":"鎮山街３４６巷１８弄１９號","OBJECTID":47505},"geometry":{"x":166176.95000000112,"y":2560903.6300000008}},{"attributes":{"ID":47506,"DIS_CODE":0,"TOWNNAME":"佳里區","LI":"鎮山里","LIN":"20鄰","STREET":"鎮山街","SECT":" ","MAREA":" ","LANE":"３４６巷","ALLEY":"１８弄","HOUSE_NO":"２０號","E_COORD97":166176.69,"N_COORD97":2560887.73,"ADDRESS":"鎮山街３４６巷１８弄２０號","OBJECTID":47506},"geometry":{"x":166176.69000000134,"y":2560887.7300000023}},{"attributes":{"ID":47507,"DIS_CODE":0,"TOWNNAME":"佳里區","LI":"鎮山里","LIN":"20鄰","STREET":"鎮山街","SECT":" ","MAREA":" ","LANE":"３４６巷","ALLEY":"１８弄","HOUSE_NO":"２１號","E_COORD97":166181.48999999999,"N_COORD97":2560904.96,"ADDRESS":"鎮山街３４６巷１８弄２１號","OBJECTID":47507},"geometry":{"x":166181.49000000115,"y":2560904.9600000009}},{"attributes":{"ID":47508,"DIS_CODE":0,"TOWNNAME":"佳里區","LI":"鎮山里","LIN":"20鄰","STREET":"鎮山街","SECT":" ","MAREA":" ","LANE":"３４６巷","ALLEY":"１８弄","HOUSE_NO":"２２號","E_COORD97":166181.04000000001,"N_COORD97":2560889.1600000001,"ADDRESS":"鎮山街３４６巷１８弄２２號","OBJECTID":47508},"geometry":{"x":166181.04000000097,"y":2560889.1600000001}},{"attributes":{"ID":47509,"DIS_CODE":0,"TOWNNAME":"佳里區","LI":"鎮山里","LIN":"20鄰","STREET":"鎮山街","SECT":" ","MAREA":" ","LANE":"３４６巷","ALLEY":"１８弄","HOUSE_NO":"２３號","E_COORD97":166185.54000000001,"N_COORD97":2560906.3399999999,"ADDRESS":"鎮山街３４６巷１８弄２３號","OBJECTID":47509},"geometry":{"x":166185.53999999911,"y":2560906.3400000017}},{"attributes":{"ID":47510,"DIS_CODE":0,"TOWNNAME":"佳里區","LI":"鎮山里","LIN":"20鄰","STREET":"鎮山街","SECT":" ","MAREA":" ","LANE":"３４６巷","ALLEY":"１８弄","HOUSE_NO":"２號","E_COORD97":166146.89000000001,"N_COORD97":2560878.6000000001,"ADDRESS":"鎮山街３４６巷１８弄２號","OBJECTID":47510},"geometry":{"x":166146.88999999966,"y":2560878.5999999996}},{"attributes":{"ID":47511,"DIS_CODE":0,"TOWNNAME":"佳里區","LI":"鎮山里","LIN":"20鄰","STREET":"鎮山街","SECT":" ","MAREA":" ","LANE":"３４６巷","ALLEY":"１８弄","HOUSE_NO":"６號","E_COORD97":166151.26999999999,"N_COORD97":2560879.9100000001,"ADDRESS":"鎮山街３４６巷１８弄６號","OBJECTID":47511},"geometry":{"x":166151.26999999862,"y":2560879.910000002}},{"attributes":{"ID":47512,"DIS_CODE":0,"TOWNNAME":"佳里區","LI":"鎮山里","LIN":"20鄰","STREET":"鎮山街","SECT":" ","MAREA":" ","LANE":"３４６巷","ALLEY":"１８弄","HOUSE_NO":"７號","E_COORD97":166151.67999999999,"N_COORD97":2560898.1200000001,"ADDRESS":"鎮山街３４６巷１８弄７號","OBJECTID":47512},"geometry":{"x":166151.6799999997,"y":2560898.120000001}},{"attributes":{"ID":47513,"DIS_CODE":0,"TOWNNAME":"佳里區","LI":"鎮山里","LIN":"20鄰","STREET":"鎮山街","SECT":" ","MAREA":" ","LANE":"３４６巷","ALLEY":"１８弄","HOUSE_NO":"８號","E_COORD97":166155.19,"N_COORD97":2560881.46,"ADDRESS":"鎮山街３４６巷１８弄８號","OBJECTID":47513},"geometry":{"x":166155.19000000134,"y":2560881.4600000009}},{"attributes":{"ID":47514,"DIS_CODE":0,"TOWNNAME":"佳里區","LI":"鎮山里","LIN":"20鄰","STREET":"鎮山街","SECT":" ","MAREA":" ","LANE":"３４６巷","ALLEY":"１８弄","HOUSE_NO":"９號","E_COORD97":166156.14000000001,"N_COORD97":2560898.9900000002,"ADDRESS":"鎮山街３４６巷１８弄９號","OBJECTID":47514},"geometry":{"x":166156.1400000006,"y":2560898.9900000021}},{"attributes":{"ID":47515,"DIS_CODE":0,"TOWNNAME":"南區","LI":"明亮里","LIN":"20鄰","STREET":"金華路","SECT":"一段","MAREA":" ","LANE":"３５２巷","ALLEY":"３４弄","HOUSE_NO":"２７號","E_COORD97":167147.22,"N_COORD97":2541090.3199999998,"ADDRESS":"金華路一段３５２巷３４弄２７號","OBJECTID":47515},"geometry":{"x":167147.22000000067,"y":2541090.3200000022}},{"attributes":{"ID":47516,"DIS_CODE":0,"TOWNNAME":"南區","LI":"明亮里","LIN":"20鄰","STREET":"金華路","SECT":"一段","MAREA":" ","LANE":"３５２巷","ALLEY":"３４弄","HOUSE_NO":"２９號","E_COORD97":167143.23000000001,"N_COORD97":2541093.7000000002,"ADDRESS":"金華路一段３５２巷３４弄２９號","OBJECTID":47516},"geometry":{"x":167143.23000000138,"y":2541093.7000000011}},{"attributes":{"ID":47517,"DIS_CODE":0,"TOWNNAME":"南區","LI":"明亮里","LIN":"20鄰","STREET":"金華路","SECT":"一段","MAREA":" ","LANE":"３５２巷","ALLEY":"３４弄","HOUSE_NO":"３１號","E_COORD97":167141.69,"N_COORD97":2541097.3799999999,"ADDRESS":"金華路一段３５２巷３４弄３１號","OBJECTID":47517},"geometry":{"x":167141.69000000134,"y":2541097.379999999}},{"attributes":{"ID":47518,"DIS_CODE":0,"TOWNNAME":"南區","LI":"明亮里","LIN":"20鄰","STREET":"金華路","SECT":"一段","MAREA":" ","LANE":"３５２巷","ALLEY":"３４弄","HOUSE_NO":"３３號","E_COORD97":167137.39000000001,"N_COORD97":2541099.8300000001,"ADDRESS":"金華路一段３５２巷３４弄３３號","OBJECTID":47518},"geometry":{"x":167137.3900000006,"y":2541099.8300000038}},{"attributes":{"ID":47519,"DIS_CODE":0,"TOWNNAME":"西港區","LI":"後營里","LIN":"15鄰","STREET":" ","SECT":" ","MAREA":"後營","LANE":" ","ALLEY":" ","HOUSE_NO":"３６６號之２","E_COORD97":169964.87,"N_COORD97":2559895.2799999998,"ADDRESS":"後營３６６號之２","OBJECTID":47519},"geometry":{"x":169964.87000000011,"y":2559895.2800000031}},{"attributes":{"ID":47520,"DIS_CODE":0,"TOWNNAME":"西港區","LI":"後營里","LIN":"15鄰","STREET":" ","SECT":" ","MAREA":"後營","LANE":" ","ALLEY":" ","HOUSE_NO":"３６６號之３","E_COORD97":169965.79000000001,"N_COORD97":2559883.6299999999,"ADDRESS":"後營３６６號之３","OBJECTID":47520},"geometry":{"x":169965.78999999911,"y":2559883.6300000008}},{"attributes":{"ID":47521,"DIS_CODE":0,"TOWNNAME":"西港區","LI":"後營里","LIN":"15鄰","STREET":" ","SECT":" ","MAREA":"後營","LANE":" ","ALLEY":" ","HOUSE_NO":"３６６號之４","E_COORD97":169965.78,"N_COORD97":2559870.5299999998,"ADDRESS":"後營３６６號之４","OBJECTID":47521},"geometry":{"x":169965.78000000026,"y":2559870.5300000012}},{"attributes":{"ID":47522,"DIS_CODE":0,"TOWNNAME":"西港區","LI":"後營里","LIN":"15鄰","STREET":" ","SECT":" ","MAREA":"後營","LANE":" ","ALLEY":" ","HOUSE_NO":"３６６號","E_COORD97":169963.13,"N_COORD97":2559924.6600000001,"ADDRESS":"後營３６６號","OBJECTID":47522},"geometry":{"x":169963.12999999989,"y":2559924.660000002}},{"attributes":{"ID":47523,"DIS_CODE":0,"TOWNNAME":"西港區","LI":"後營里","LIN":"15鄰","STREET":" ","SECT":" ","MAREA":"後營","LANE":" ","ALLEY":" ","HOUSE_NO":"３６７號之１０","E_COORD97":169945.07999999999,"N_COORD97":2559852.3300000001,"ADDRESS":"後營３６７號之１０","OBJECTID":47523},"geometry":{"x":169945.08000000007,"y":2559852.3300000019}},{"attributes":{"ID":47524,"DIS_CODE":0,"TOWNNAME":"西港區","LI":"後營里","LIN":"15鄰","STREET":" ","SECT":" ","MAREA":"後營","LANE":" ","ALLEY":" ","HOUSE_NO":"３６７號之１","E_COORD97":169947.82000000001,"N_COORD97":2559907.7999999998,"ADDRESS":"後營３６７號之１","OBJECTID":47524},"geometry":{"x":169947.82000000123,"y":2559907.8000000026}},{"attributes":{"ID":47525,"DIS_CODE":0,"TOWNNAME":"西港區","LI":"後營里","LIN":"15鄰","STREET":" ","SECT":" ","MAREA":"後營","LANE":" ","ALLEY":" ","HOUSE_NO":"３６７號之２","E_COORD97":169947.82000000001,"N_COORD97":2559901.6200000001,"ADDRESS":"後營３６７號之２","OBJECTID":47525},"geometry":{"x":169947.82000000123,"y":2559901.6200000048}},{"attributes":{"ID":47526,"DIS_CODE":0,"TOWNNAME":"西港區","LI":"後營里","LIN":"15鄰","STREET":" ","SECT":" ","MAREA":"後營","LANE":" ","ALLEY":" ","HOUSE_NO":"３６７號之３","E_COORD97":169947.82000000001,"N_COORD97":2559895.4399999999,"ADDRESS":"後營３６７號之３","OBJECTID":47526},"geometry":{"x":169947.82000000123,"y":2559895.4400000013}},{"attributes":{"ID":47527,"DIS_CODE":0,"TOWNNAME":"西港區","LI":"後營里","LIN":"15鄰","STREET":" ","SECT":" ","MAREA":"後營","LANE":" ","ALLEY":" ","HOUSE_NO":"３６７號之４","E_COORD97":169947.82000000001,"N_COORD97":2559889.2599999998,"ADDRESS":"後營３６７號之４","OBJECTID":47527},"geometry":{"x":169947.82000000123,"y":2559889.2600000035}},{"attributes":{"ID":47528,"DIS_CODE":0,"TOWNNAME":"西港區","LI":"後營里","LIN":"15鄰","STREET":" ","SECT":" ","MAREA":"後營","LANE":" ","ALLEY":" ","HOUSE_NO":"３６７號之５","E_COORD97":169947.82000000001,"N_COORD97":2559883.0800000001,"ADDRESS":"後營３６７號之５","OBJECTID":47528},"geometry":{"x":169947.82000000123,"y":2559883.0800000001}},{"attributes":{"ID":47529,"DIS_CODE":0,"TOWNNAME":"西港區","LI":"後營里","LIN":"15鄰","STREET":" ","SECT":" ","MAREA":"後營","LANE":" ","ALLEY":" ","HOUSE_NO":"３６７號之６","E_COORD97":169947.82000000001,"N_COORD97":2559876.8999999999,"ADDRESS":"後營３６７號之６","OBJECTID":47529},"geometry":{"x":169947.82000000123,"y":2559876.9000000022}},{"attributes":{"ID":47530,"DIS_CODE":0,"TOWNNAME":"西港區","LI":"後營里","LIN":"15鄰","STREET":" ","SECT":" ","MAREA":"後營","LANE":" ","ALLEY":" ","HOUSE_NO":"３６７號之７","E_COORD97":169947.82000000001,"N_COORD97":2559870.7200000002,"ADDRESS":"後營３６７號之７","OBJECTID":47530},"geometry":{"x":169947.82000000123,"y":2559870.7200000025}},{"attributes":{"ID":47531,"DIS_CODE":0,"TOWNNAME":"西港區","LI":"後營里","LIN":"15鄰","STREET":" ","SECT":" ","MAREA":"後營","LANE":" ","ALLEY":" ","HOUSE_NO":"３６７號之８","E_COORD97":169947.82000000001,"N_COORD97":2559864.54,"ADDRESS":"後營３６７號之８","OBJECTID":47531},"geometry":{"x":169947.82000000123,"y":2559864.540000001}},{"attributes":{"ID":47532,"DIS_CODE":0,"TOWNNAME":"西港區","LI":"後營里","LIN":"15鄰","STREET":" ","SECT":" ","MAREA":"後營","LANE":" ","ALLEY":" ","HOUSE_NO":"３６７號","E_COORD97":169952.88,"N_COORD97":2559920.3700000001,"ADDRESS":"後營３６７號","OBJECTID":47532},"geometry":{"x":169952.87999999989,"y":2559920.3700000048}},{"attributes":{"ID":47533,"DIS_CODE":0,"TOWNNAME":"西港區","LI":"後營里","LIN":"15鄰","STREET":" ","SECT":" ","MAREA":"後營","LANE":" ","ALLEY":" ","HOUSE_NO":"３６８號","E_COORD97":169948.23999999999,"N_COORD97":2559920.29,"ADDRESS":"後營３６８號","OBJECTID":47533},"geometry":{"x":169948.24000000115,"y":2559920.290000001}},{"attributes":{"ID":47534,"DIS_CODE":0,"TOWNNAME":"西港區","LI":"後營里","LIN":"15鄰","STREET":" ","SECT":" ","MAREA":"後營","LANE":" ","ALLEY":" ","HOUSE_NO":"３６９號","E_COORD97":169943.29000000001,"N_COORD97":2559920,"ADDRESS":"後營３６９號","OBJECTID":47534},"geometry":{"x":169943.29000000004,"y":2559920.0000000019}},{"attributes":{"ID":47535,"DIS_CODE":0,"TOWNNAME":"西港區","LI":"後營里","LIN":"15鄰","STREET":" ","SECT":" ","MAREA":"後營","LANE":" ","ALLEY":" ","HOUSE_NO":"３７０號","E_COORD97":169938.20000000001,"N_COORD97":2559920.0099999998,"ADDRESS":"後營３７０號","OBJECTID":47535},"geometry":{"x":169938.20000000112,"y":2559920.0099999998}},{"attributes":{"ID":47536,"DIS_CODE":0,"TOWNNAME":"西港區","LI":"後營里","LIN":"15鄰","STREET":" ","SECT":" ","MAREA":"後營","LANE":" ","ALLEY":" ","HOUSE_NO":"３７１號","E_COORD97":169934.39999999999,"N_COORD97":2559919.8700000001,"ADDRESS":"後營３７１號","OBJECTID":47536},"geometry":{"x":169934.40000000037,"y":2559919.870000001}},{"attributes":{"ID":47537,"DIS_CODE":0,"TOWNNAME":"西港區","LI":"後營里","LIN":"15鄰","STREET":" ","SECT":" ","MAREA":"後營","LANE":" ","ALLEY":" ","HOUSE_NO":"３７２號","E_COORD97":169930.16,"N_COORD97":2559919.71,"ADDRESS":"後營３７２號","OBJECTID":47537},"geometry":{"x":169930.16000000108,"y":2559919.7100000009}},{"attributes":{"ID":47538,"DIS_CODE":0,"TOWNNAME":"西港區","LI":"後營里","LIN":"15鄰","STREET":" ","SECT":" ","MAREA":"後營","LANE":" ","ALLEY":" ","HOUSE_NO":"３７３號","E_COORD97":169925.63,"N_COORD97":2559919.5,"ADDRESS":"後營３７３號","OBJECTID":47538},"geometry":{"x":169925.62999999989,"y":2559919.5000000019}},{"attributes":{"ID":47539,"DIS_CODE":0,"TOWNNAME":"西港區","LI":"後營里","LIN":"15鄰","STREET":" ","SECT":" ","MAREA":"後營","LANE":" ","ALLEY":" ","HOUSE_NO":"３７４號之１０","E_COORD97":169926.42999999999,"N_COORD97":2559865.79,"ADDRESS":"後營３７４號之１０","OBJECTID":47539},"geometry":{"x":169926.43000000063,"y":2559865.790000001}},{"attributes":{"ID":47540,"DIS_CODE":0,"TOWNNAME":"西港區","LI":"後營里","LIN":"15鄰","STREET":" ","SECT":" ","MAREA":"後營","LANE":" ","ALLEY":" ","HOUSE_NO":"３７４號之１１","E_COORD97":169926.56,"N_COORD97":2559861.2999999998,"ADDRESS":"後營３７４號之１１","OBJECTID":47540},"geometry":{"x":169926.56000000052,"y":2559861.3000000007}},{"attributes":{"ID":47541,"DIS_CODE":0,"TOWNNAME":"西港區","LI":"後營里","LIN":"15鄰","STREET":" ","SECT":" ","MAREA":"後營","LANE":" ","ALLEY":" ","HOUSE_NO":"３７４號之１２","E_COORD97":169926.69,"N_COORD97":2559856.8100000001,"ADDRESS":"後營３７４號之１２","OBJECTID":47541},"geometry":{"x":169926.69000000134,"y":2559856.8100000024}},{"attributes":{"ID":47542,"DIS_CODE":0,"TOWNNAME":"西港區","LI":"後營里","LIN":"15鄰","STREET":" ","SECT":" ","MAREA":"後營","LANE":" ","ALLEY":" ","HOUSE_NO":"３７４號之１３","E_COORD97":169932.07000000001,"N_COORD97":2559852.7599999998,"ADDRESS":"後營３７４號之１３","OBJECTID":47542},"geometry":{"x":169932.07000000216,"y":2559852.7600000016}},{"attributes":{"ID":47543,"DIS_CODE":0,"TOWNNAME":"西港區","LI":"後營里","LIN":"15鄰","STREET":" ","SECT":" ","MAREA":"後營","LANE":" ","ALLEY":" ","HOUSE_NO":"３７４號之１４","E_COORD97":169927.45000000001,"N_COORD97":2559846.77,"ADDRESS":"後營３７４號之１４","OBJECTID":47543},"geometry":{"x":169927.45000000019,"y":2559846.7699999996}},{"attributes":{"ID":47544,"DIS_CODE":0,"TOWNNAME":"西港區","LI":"後營里","LIN":"15鄰","STREET":" ","SECT":" ","MAREA":"後營","LANE":" ","ALLEY":" ","HOUSE_NO":"３７４號之１５","E_COORD97":169925.01000000001,"N_COORD97":2559837.9700000002,"ADDRESS":"後營３７４號之１５","OBJECTID":47544},"geometry":{"x":169925.00999999885,"y":2559837.9700000044}},{"attributes":{"ID":47545,"DIS_CODE":0,"TOWNNAME":"西港區","LI":"後營里","LIN":"15鄰","STREET":" ","SECT":" ","MAREA":"後營","LANE":" ","ALLEY":" ","HOUSE_NO":"３７４號之１","E_COORD97":169925.75,"N_COORD97":2559903.9700000002,"ADDRESS":"後營３７４號之１","OBJECTID":47545},"geometry":{"x":169925.75000000093,"y":2559903.9700000025}},{"attributes":{"ID":47546,"DIS_CODE":0,"TOWNNAME":"西港區","LI":"後營里","LIN":"15鄰","STREET":" ","SECT":" ","MAREA":"後營","LANE":" ","ALLEY":" ","HOUSE_NO":"３７４號之２","E_COORD97":169925.82999999999,"N_COORD97":2559899.71,"ADDRESS":"後營３７４號之２","OBJECTID":47546},"geometry":{"x":169925.83000000007,"y":2559899.7100000009}},{"attributes":{"ID":47547,"DIS_CODE":0,"TOWNNAME":"西港區","LI":"後營里","LIN":"15鄰","STREET":" ","SECT":" ","MAREA":"後營","LANE":" ","ALLEY":" ","HOUSE_NO":"３７４號之３","E_COORD97":169925.91,"N_COORD97":2559895.4399999999,"ADDRESS":"後營３７４號之３","OBJECTID":47547},"geometry":{"x":169925.91000000015,"y":2559895.4400000013}},{"attributes":{"ID":47548,"DIS_CODE":0,"TOWNNAME":"西港區","LI":"後營里","LIN":"15鄰","STREET":" ","SECT":" ","MAREA":"後營","LANE":" ","ALLEY":" ","HOUSE_NO":"３７４號之４","E_COORD97":169925.98000000001,"N_COORD97":2559891.1699999999,"ADDRESS":"後營３７４號之４","OBJECTID":47548},"geometry":{"x":169925.97999999952,"y":2559891.1700000018}},{"attributes":{"ID":47549,"DIS_CODE":0,"TOWNNAME":"西港區","LI":"後營里","LIN":"15鄰","STREET":" ","SECT":" ","MAREA":"後營","LANE":" ","ALLEY":" ","HOUSE_NO":"３７４號之６","E_COORD97":169926.13,"N_COORD97":2559882.6299999999,"ADDRESS":"後營３７４號之６","OBJECTID":47549},"geometry":{"x":169926.13000000175,"y":2559882.6300000027}},{"attributes":{"ID":47550,"DIS_CODE":0,"TOWNNAME":"西港區","LI":"後營里","LIN":"15鄰","STREET":" ","SECT":" ","MAREA":"後營","LANE":" ","ALLEY":" ","HOUSE_NO":"３７４號之７","E_COORD97":169926.20999999999,"N_COORD97":2559878.3700000001,"ADDRESS":"後營３７４號之７","OBJECTID":47550},"geometry":{"x":169926.21000000089,"y":2559878.370000001}},{"attributes":{"ID":47551,"DIS_CODE":0,"TOWNNAME":"西港區","LI":"後營里","LIN":"15鄰","STREET":" ","SECT":" ","MAREA":"後營","LANE":" ","ALLEY":" ","HOUSE_NO":"３７４號之８","E_COORD97":169926.28,"N_COORD97":2559874.1000000001,"ADDRESS":"後營３７４號之８","OBJECTID":47551},"geometry":{"x":169926.28000000119,"y":2559874.1000000015}},{"attributes":{"ID":47552,"DIS_CODE":0,"TOWNNAME":"西港區","LI":"後營里","LIN":"15鄰","STREET":" ","SECT":" ","MAREA":"後營","LANE":" ","ALLEY":" ","HOUSE_NO":"３７４號之９","E_COORD97":169926.35999999999,"N_COORD97":2559869.8300000001,"ADDRESS":"後營３７４號之９","OBJECTID":47552},"geometry":{"x":169926.36000000034,"y":2559869.8300000019}},{"attributes":{"ID":47553,"DIS_CODE":0,"TOWNNAME":"西港區","LI":"後營里","LIN":"15鄰","STREET":" ","SECT":" ","MAREA":"後營","LANE":" ","ALLEY":" ","HOUSE_NO":"３７４號","E_COORD97":169922.07000000001,"N_COORD97":2559919.3199999998,"ADDRESS":"後營３７４號","OBJECTID":47553},"geometry":{"x":169922.07000000123,"y":2559919.3200000003}},{"attributes":{"ID":47554,"DIS_CODE":0,"TOWNNAME":"西港區","LI":"後營里","LIN":"15鄰","STREET":" ","SECT":" ","MAREA":"後營","LANE":" ","ALLEY":" ","HOUSE_NO":"３７５號之１１","E_COORD97":169907.17000000001,"N_COORD97":2559857.3199999998,"ADDRESS":"後營３７５號之１１","OBJECTID":47554},"geometry":{"x":169907.16999999899,"y":2559857.3200000003}},{"attributes":{"ID":47555,"DIS_CODE":0,"TOWNNAME":"南區","LI":"明亮里","LIN":"20鄰","STREET":"金華路","SECT":"一段","MAREA":" ","LANE":"３５２巷","ALLEY":"３４弄","HOUSE_NO":"３５號","E_COORD97":167134.01000000001,"N_COORD97":2541101.98,"ADDRESS":"金華路一段３５２巷３４弄３５號","OBJECTID":47555},"geometry":{"x":167134.01000000071,"y":2541101.9800000004}},{"attributes":{"ID":47556,"DIS_CODE":0,"TOWNNAME":"南區","LI":"文華里","LIN":"17鄰","STREET":"南樂街","SECT":" ","MAREA":" ","LANE":" ","ALLEY":" ","HOUSE_NO":"１５號三樓之１","E_COORD97":166852.84,"N_COORD97":2543159.1499999999,"ADDRESS":"南樂街１５號三樓之１","OBJECTID":47556},"geometry":{"x":166852.83999999985,"y":2543159.1500000041}},{"attributes":{"ID":47557,"DIS_CODE":0,"TOWNNAME":"新市區","LI":"大營里","LIN":"15鄰","STREET":" ","SECT":" ","MAREA":"大營","LANE":" ","ALLEY":" ","HOUSE_NO":"２８４之１３號","E_COORD97":178984.51999999999,"N_COORD97":2555481.0499999998,"ADDRESS":"大營２８４之１３號","OBJECTID":47557},"geometry":{"x":178984.52000000048,"y":2555481.0500000045}},{"attributes":{"ID":47558,"DIS_CODE":0,"TOWNNAME":"新市區","LI":"大營里","LIN":"15鄰","STREET":" ","SECT":" ","MAREA":"大營","LANE":" ","ALLEY":" ","HOUSE_NO":"２８４之１７號","E_COORD97":179007.62,"N_COORD97":2555462.5499999998,"ADDRESS":"大營２８４之１７號","OBJECTID":47558},"geometry":{"x":179007.62000000197,"y":2555462.5500000007}},{"attributes":{"ID":47559,"DIS_CODE":0,"TOWNNAME":"新市區","LI":"大社里","LIN":"15鄰","STREET":" ","SECT":" ","MAREA":"大社","LANE":" ","ALLEY":" ","HOUSE_NO":"６０３之１號","E_COORD97":179589.13,"N_COORD97":2554220.0499999998,"ADDRESS":"大社６０３之１號","OBJECTID":47559},"geometry":{"x":179589.13000000082,"y":2554220.0500000026}},{"attributes":{"ID":47560,"DIS_CODE":0,"TOWNNAME":"新市區","LI":"大社里","LIN":"15鄰","STREET":" ","SECT":" ","MAREA":"大社","LANE":" ","ALLEY":" ","HOUSE_NO":"６１９號","E_COORD97":180034.48999999999,"N_COORD97":2554449.75,"ADDRESS":"大社６１９號","OBJECTID":47560},"geometry":{"x":180034.49000000115,"y":2554449.75}},{"attributes":{"ID":47561,"DIS_CODE":0,"TOWNNAME":"新市區","LI":"大營里","LIN":"15鄰","STREET":" ","SECT":" ","MAREA":"大營","LANE":" ","ALLEY":" ","HOUSE_NO":"２９２號","E_COORD97":178924.29000000001,"N_COORD97":2555353.5,"ADDRESS":"大營２９２號","OBJECTID":47561},"geometry":{"x":178924.29000000004,"y":2555353.5}},{"attributes":{"ID":47562,"DIS_CODE":0,"TOWNNAME":"新市區","LI":"大營里","LIN":"15鄰","STREET":" ","SECT":" ","MAREA":"大營","LANE":" ","ALLEY":" ","HOUSE_NO":"２８１之１８號","E_COORD97":179067.37,"N_COORD97":2555485.2999999998,"ADDRESS":"大營２８１之１８號","OBJECTID":47562},"geometry":{"x":179067.37000000104,"y":2555485.3000000007}},{"attributes":{"ID":47563,"DIS_CODE":0,"TOWNNAME":"新市區","LI":"大營里","LIN":"15鄰","STREET":" ","SECT":" ","MAREA":"大營","LANE":" ","ALLEY":" ","HOUSE_NO":"２８６號","E_COORD97":178933.17999999999,"N_COORD97":2555521,"ADDRESS":"大營２８６號","OBJECTID":47563},"geometry":{"x":178933.1799999997,"y":2555521.0000000037}},{"attributes":{"ID":47564,"DIS_CODE":0,"TOWNNAME":"新市區","LI":"大營里","LIN":"15鄰","STREET":" ","SECT":" ","MAREA":"大營","LANE":" ","ALLEY":" ","HOUSE_NO":"２８４號","E_COORD97":178975.14999999999,"N_COORD97":2555445.25,"ADDRESS":"大營２８４號","OBJECTID":47564},"geometry":{"x":178975.15000000037,"y":2555445.2500000019}},{"attributes":{"ID":47565,"DIS_CODE":0,"TOWNNAME":"新市區","LI":"大營里","LIN":"15鄰","STREET":" ","SECT":" ","MAREA":"大營","LANE":" ","ALLEY":" ","HOUSE_NO":"２９５之２號","E_COORD97":179063.60000000001,"N_COORD97":2555383.0499999998,"ADDRESS":"大營２９５之２號","OBJECTID":47565},"geometry":{"x":179063.60000000056,"y":2555383.0500000026}},{"attributes":{"ID":47566,"DIS_CODE":0,"TOWNNAME":"新市區","LI":"大社里","LIN":"15鄰","STREET":" ","SECT":" ","MAREA":"大社","LANE":" ","ALLEY":" ","HOUSE_NO":"６２４號","E_COORD97":180045.04000000001,"N_COORD97":2554431,"ADDRESS":"大社６２４號","OBJECTID":47566},"geometry":{"x":180045.04000000004,"y":2554431.0000000019}},{"attributes":{"ID":47567,"DIS_CODE":0,"TOWNNAME":"新市區","LI":"大社里","LIN":"15鄰","STREET":" ","SECT":" ","MAREA":"大社","LANE":" ","ALLEY":" ","HOUSE_NO":"６４７號","E_COORD97":180028.37,"N_COORD97":2554366.75,"ADDRESS":"大社６４７號","OBJECTID":47567},"geometry":{"x":180028.37000000104,"y":2554366.7500000037}},{"attributes":{"ID":47568,"DIS_CODE":0,"TOWNNAME":"新市區","LI":"大社里","LIN":"15鄰","STREET":" ","SECT":" ","MAREA":"大社","LANE":" ","ALLEY":" ","HOUSE_NO":"５７１號","E_COORD97":180016.26999999999,"N_COORD97":2554490,"ADDRESS":"大社５７１號","OBJECTID":47568},"geometry":{"x":180016.27000000142,"y":2554490}},{"attributes":{"ID":47569,"DIS_CODE":0,"TOWNNAME":"新市區","LI":"大社里","LIN":"15鄰","STREET":" ","SECT":" ","MAREA":"大社","LANE":" ","ALLEY":" ","HOUSE_NO":"６４６號","E_COORD97":180032.26999999999,"N_COORD97":2554367.75,"ADDRESS":"大社６４６號","OBJECTID":47569},"geometry":{"x":180032.27000000048,"y":2554367.7500000019}},{"attributes":{"ID":47570,"DIS_CODE":0,"TOWNNAME":"新市區","LI":"大社里","LIN":"15鄰","STREET":" ","SECT":" ","MAREA":"大社","LANE":" ","ALLEY":" ","HOUSE_NO":"６４８號","E_COORD97":180018.62,"N_COORD97":2554381,"ADDRESS":"大社６４８號","OBJECTID":47570},"geometry":{"x":180018.62000000104,"y":2554381}},{"attributes":{"ID":47571,"DIS_CODE":0,"TOWNNAME":"新市區","LI":"大營里","LIN":"15鄰","STREET":" ","SECT":" ","MAREA":"大營","LANE":" ","ALLEY":" ","HOUSE_NO":"２９５之１６號","E_COORD97":179087.14999999999,"N_COORD97":2555390.2999999998,"ADDRESS":"大營２９５之１６號","OBJECTID":47571},"geometry":{"x":179087.15000000037,"y":2555390.3000000007}},{"attributes":{"ID":47572,"DIS_CODE":0,"TOWNNAME":"新市區","LI":"大營里","LIN":"15鄰","STREET":" ","SECT":" ","MAREA":"大營","LANE":" ","ALLEY":" ","HOUSE_NO":"２９５之４號","E_COORD97":179060.89999999999,"N_COORD97":2555390.7999999998,"ADDRESS":"大營２９５之４號","OBJECTID":47572},"geometry":{"x":179060.9000000013,"y":2555390.7999999989}},{"attributes":{"ID":47573,"DIS_CODE":0,"TOWNNAME":"新市區","LI":"大營里","LIN":"15鄰","STREET":" ","SECT":" ","MAREA":"大營","LANE":" ","ALLEY":" ","HOUSE_NO":"２９５之５號","E_COORD97":179059.60000000001,"N_COORD97":2555394.5499999998,"ADDRESS":"大營２９５之５號","OBJECTID":47573},"geometry":{"x":179059.59999999963,"y":2555394.5500000007}},{"attributes":{"ID":47574,"DIS_CODE":0,"TOWNNAME":"新市區","LI":"大營里","LIN":"15鄰","STREET":" ","SECT":" ","MAREA":"大營","LANE":" ","ALLEY":" ","HOUSE_NO":"２９５之７號","E_COORD97":179058.64999999999,"N_COORD97":2555409.0499999998,"ADDRESS":"大營２９５之７號","OBJECTID":47574},"geometry":{"x":179058.6500000013,"y":2555409.0500000007}},{"attributes":{"ID":47575,"DIS_CODE":0,"TOWNNAME":"新市區","LI":"大營里","LIN":"15鄰","STREET":" ","SECT":" ","MAREA":"大營","LANE":" ","ALLEY":" ","HOUSE_NO":"２７７號","E_COORD97":179084.95999999999,"N_COORD97":2555536.75,"ADDRESS":"大營２７７號","OBJECTID":47575},"geometry":{"x":179084.96000000089,"y":2555536.7500000019}},{"attributes":{"ID":47576,"DIS_CODE":0,"TOWNNAME":"新市區","LI":"大營里","LIN":"15鄰","STREET":" ","SECT":" ","MAREA":"大營","LANE":" ","ALLEY":" ","HOUSE_NO":"２７７之５號","E_COORD97":179073.67000000001,"N_COORD97":2555517.5499999998,"ADDRESS":"大營２７７之５號","OBJECTID":47576},"geometry":{"x":179073.67000000086,"y":2555517.5500000007}},{"attributes":{"ID":47577,"DIS_CODE":0,"TOWNNAME":"山上區","LI":"山上里","LIN":"15鄰","STREET":" ","SECT":" ","MAREA":"山上","LANE":" ","ALLEY":" ","HOUSE_NO":"２３７之１５號","E_COORD97":184053.76207900001,"N_COORD97":2555780.4121500002,"ADDRESS":"山上２３７之１５號","OBJECTID":47577},"geometry":{"x":184053.7620790014,"y":2555780.4121480007}},{"attributes":{"ID":47578,"DIS_CODE":0,"TOWNNAME":"山上區","LI":"山上里","LIN":"15鄰","STREET":" ","SECT":" ","MAREA":"山上","LANE":" ","ALLEY":" ","HOUSE_NO":"２２９號","E_COORD97":184044.31,"N_COORD97":2555694.25,"ADDRESS":"山上２２９號","OBJECTID":47578},"geometry":{"x":184044.31000000052,"y":2555694.25}},{"attributes":{"ID":47579,"DIS_CODE":0,"TOWNNAME":"山上區","LI":"明和里","LIN":"15鄰","STREET":" ","SECT":" ","MAREA":"明和","LANE":" ","ALLEY":" ","HOUSE_NO":"１９５之５號","E_COORD97":183520.14000000001,"N_COORD97":2556043.2999999998,"ADDRESS":"明和１９５之５號","OBJECTID":47579},"geometry":{"x":183520.1400000006,"y":2556043.3000000026}},{"attributes":{"ID":47580,"DIS_CODE":0,"TOWNNAME":"山上區","LI":"明和里","LIN":"15鄰","STREET":" ","SECT":" ","MAREA":"明和","LANE":" ","ALLEY":" ","HOUSE_NO":"１０之８號","E_COORD97":183455.79000000001,"N_COORD97":2555910.2999999998,"ADDRESS":"明和１０之８號","OBJECTID":47580},"geometry":{"x":183455.79000000004,"y":2555910.3000000026}},{"attributes":{"ID":47581,"DIS_CODE":0,"TOWNNAME":"山上區","LI":"山上里","LIN":"15鄰","STREET":" ","SECT":" ","MAREA":"山上","LANE":" ","ALLEY":" ","HOUSE_NO":"２３５號","E_COORD97":184021.51000000001,"N_COORD97":2555700.25,"ADDRESS":"山上２３５號","OBJECTID":47581},"geometry":{"x":184021.50999999978,"y":2555700.2500000019}},{"attributes":{"ID":47582,"DIS_CODE":0,"TOWNNAME":"山上區","LI":"明和里","LIN":"15鄰","STREET":" ","SECT":" ","MAREA":"明和","LANE":" ","ALLEY":" ","HOUSE_NO":"１５號","E_COORD97":183371.98999999999,"N_COORD97":2555858.25,"ADDRESS":"明和１５號","OBJECTID":47582},"geometry":{"x":183371.99000000209,"y":2555858.2500000037}},{"attributes":{"ID":47583,"DIS_CODE":0,"TOWNNAME":"山上區","LI":"明和里","LIN":"15鄰","STREET":" ","SECT":" ","MAREA":"明和","LANE":" ","ALLEY":" ","HOUSE_NO":"１８之１５號","E_COORD97":183463.04000000001,"N_COORD97":2556028.2999999998,"ADDRESS":"明和１８之１５號","OBJECTID":47583},"geometry":{"x":183463.0400000019,"y":2556028.3000000045}},{"attributes":{"ID":47584,"DIS_CODE":0,"TOWNNAME":"山上區","LI":"山上里","LIN":"15鄰","STREET":" ","SECT":" ","MAREA":"山上","LANE":" ","ALLEY":" ","HOUSE_NO":"２３７之２號","E_COORD97":183994.91,"N_COORD97":2555721.2999999998,"ADDRESS":"山上２３７之２號","OBJECTID":47584},"geometry":{"x":183994.91000000108,"y":2555721.3000000026}},{"attributes":{"ID":47585,"DIS_CODE":0,"TOWNNAME":"山上區","LI":"明和里","LIN":"15鄰","STREET":" ","SECT":" ","MAREA":"明和","LANE":" ","ALLEY":" ","HOUSE_NO":"１３號","E_COORD97":183431.98999999999,"N_COORD97":2555917.25,"ADDRESS":"明和１３號","OBJECTID":47585},"geometry":{"x":183431.99000000115,"y":2555917.2500000019}},{"attributes":{"ID":47586,"DIS_CODE":0,"TOWNNAME":"山上區","LI":"山上里","LIN":"15鄰","STREET":" ","SECT":" ","MAREA":"山上","LANE":" ","ALLEY":" ","HOUSE_NO":"２４３號","E_COORD97":184004.51000000001,"N_COORD97":2555658.25,"ADDRESS":"山上２４３號","OBJECTID":47586},"geometry":{"x":184004.51000000071,"y":2555658.2500000037}},{"attributes":{"ID":47587,"DIS_CODE":0,"TOWNNAME":"山上區","LI":"明和里","LIN":"15鄰","STREET":" ","SECT":" ","MAREA":"明和","LANE":" ","ALLEY":" ","HOUSE_NO":"１８之８號","E_COORD97":183445.39000000001,"N_COORD97":2555980.2999999998,"ADDRESS":"明和１８之８號","OBJECTID":47587},"geometry":{"x":183445.3900000006,"y":2555980.3000000007}},{"attributes":{"ID":47588,"DIS_CODE":0,"TOWNNAME":"山上區","LI":"明和里","LIN":"15鄰","STREET":" ","SECT":" ","MAREA":"明和","LANE":" ","ALLEY":" ","HOUSE_NO":"２２７號","E_COORD97":183578.44,"N_COORD97":2555969.25,"ADDRESS":"明和２２７號","OBJECTID":47588},"geometry":{"x":183578.44000000134,"y":2555969.25}},{"attributes":{"ID":47589,"DIS_CODE":0,"TOWNNAME":"山上區","LI":"明和里","LIN":"15鄰","STREET":" ","SECT":" ","MAREA":"明和","LANE":" ","ALLEY":" ","HOUSE_NO":"１９９之２號","E_COORD97":183469.73999999999,"N_COORD97":2556094.2999999998,"ADDRESS":"明和１９９之２號","OBJECTID":47589},"geometry":{"x":183469.74000000022,"y":2556094.3000000026}},{"attributes":{"ID":47590,"DIS_CODE":0,"TOWNNAME":"山上區","LI":"明和里","LIN":"15鄰","STREET":" ","SECT":" ","MAREA":"明和","LANE":" ","ALLEY":" ","HOUSE_NO":"１０之７號","E_COORD97":183460.79000000001,"N_COORD97":2555912.2999999998,"ADDRESS":"明和１０之７號","OBJECTID":47590},"geometry":{"x":183460.79000000004,"y":2555912.3000000007}},{"attributes":{"ID":47591,"DIS_CODE":0,"TOWNNAME":"山上區","LI":"山上里","LIN":"15鄰","STREET":" ","SECT":" ","MAREA":"山上","LANE":" ","ALLEY":" ","HOUSE_NO":"２３７之１８號","E_COORD97":184041.68335000001,"N_COORD97":2555785.4921499998,"ADDRESS":"山上２３７之１８號","OBJECTID":47591},"geometry":{"x":184041.68335000146,"y":2555785.492145}},{"attributes":{"ID":47592,"DIS_CODE":0,"TOWNNAME":"山上區","LI":"山上里","LIN":"15鄰","STREET":" ","SECT":" ","MAREA":"山上","LANE":" ","ALLEY":" ","HOUSE_NO":"２１８號","E_COORD97":184085.51000000001,"N_COORD97":2555586.25,"ADDRESS":"山上２１８號","OBJECTID":47592},"geometry":{"x":184085.51000000071,"y":2555586.25}},{"attributes":{"ID":47593,"DIS_CODE":0,"TOWNNAME":"山上區","LI":"山上里","LIN":"15鄰","STREET":" ","SECT":" ","MAREA":"山上","LANE":" ","ALLEY":" ","HOUSE_NO":"３１７號","E_COORD97":184099.60999999999,"N_COORD97":2555636.25,"ADDRESS":"山上３１７號","OBJECTID":47593},"geometry":{"x":184099.61000000034,"y":2555636.2500000019}},{"attributes":{"ID":47594,"DIS_CODE":0,"TOWNNAME":"山上區","LI":"明和里","LIN":"15鄰","STREET":" ","SECT":" ","MAREA":"明和","LANE":" ","ALLEY":" ","HOUSE_NO":"１１號之１６","E_COORD97":183456.48000000001,"N_COORD97":2555969.2999999998,"ADDRESS":"明和１１號之１６","OBJECTID":47594},"geometry":{"x":183456.48000000045,"y":2555969.3000000007}},{"attributes":{"ID":47595,"DIS_CODE":0,"TOWNNAME":"山上區","LI":"明和里","LIN":"15鄰","STREET":" ","SECT":" ","MAREA":"明和","LANE":" ","ALLEY":" ","HOUSE_NO":"２２９之１０號","E_COORD97":183548.69,"N_COORD97":2556048.2999999998,"ADDRESS":"明和２２９之１０號","OBJECTID":47595},"geometry":{"x":183548.68999999948,"y":2556048.3000000007}},{"attributes":{"ID":47596,"DIS_CODE":0,"TOWNNAME":"山上區","LI":"明和里","LIN":"15鄰","STREET":" ","SECT":" ","MAREA":"明和","LANE":" ","ALLEY":" ","HOUSE_NO":"１８號之９","E_COORD97":183462.69,"N_COORD97":2556023.2999999998,"ADDRESS":"明和１８號之９","OBJECTID":47596},"geometry":{"x":183462.69000000134,"y":2556023.3000000007}},{"attributes":{"ID":47597,"DIS_CODE":0,"TOWNNAME":"山上區","LI":"山上里","LIN":"15鄰","STREET":" ","SECT":" ","MAREA":"山上","LANE":" ","ALLEY":" ","HOUSE_NO":"２２４之４號","E_COORD97":184108.70999999999,"N_COORD97":2555707.2999999998,"ADDRESS":"山上２２４之４號","OBJECTID":47597},"geometry":{"x":184108.70999999996,"y":2555707.3000000026}},{"attributes":{"ID":47598,"DIS_CODE":0,"TOWNNAME":"山上區","LI":"明和里","LIN":"15鄰","STREET":" ","SECT":" ","MAREA":"明和","LANE":" ","ALLEY":" ","HOUSE_NO":"２２９之１號","E_COORD97":183561.34,"N_COORD97":2556014.2999999998,"ADDRESS":"明和２２９之１號","OBJECTID":47598},"geometry":{"x":183561.34000000078,"y":2556014.3000000007}},{"attributes":{"ID":47599,"DIS_CODE":0,"TOWNNAME":"山上區","LI":"明和里","LIN":"15鄰","STREET":" ","SECT":" ","MAREA":"明和","LANE":" ","ALLEY":" ","HOUSE_NO":"２２６號","E_COORD97":183604.04000000001,"N_COORD97":2555976.25,"ADDRESS":"明和２２６號","OBJECTID":47599},"geometry":{"x":183604.04000000097,"y":2555976.25}},{"attributes":{"ID":47600,"DIS_CODE":0,"TOWNNAME":"學甲區","LI":"中洲里","LIN":"8鄰","STREET":" ","SECT":" ","MAREA":"中洲","LANE":" ","ALLEY":" ","HOUSE_NO":"７７號","E_COORD97":163829.54999999999,"N_COORD97":2571356.4900000002,"ADDRESS":"中洲７７號","OBJECTID":47600},"geometry":{"x":163829.55000000075,"y":2571356.4900000002}}]}