{"displayFieldName":"TOWNNAME","fieldAliases":{"ID":"ID","DIS_CODE":"DIS_CODE","TOWNNAME":"TOWNNAME","LI":"LI","LIN":"LIN","STREET":"STREET","SECT":"SECT","MAREA":"MAREA","LANE":"LANE","ALLEY":"ALLEY","HOUSE_NO":"HOUSE_NO","E_COORD97":"E_COORD97","N_COORD97":"N_COORD97","ADDRESS":"ADDRESS","OBJECTID":"OBJECTID"},"geometryType":"esriGeometryPoint","spatialReference":{"wkid":102443,"latestWkid":3826},"fields":[{"name":"ID","type":"esriFieldTypeDouble","alias":"ID"},{"name":"DIS_CODE","type":"esriFieldTypeInteger","alias":"DIS_CODE"},{"name":"TOWNNAME","type":"esriFieldTypeString","alias":"TOWNNAME","length":8},{"name":"LI","type":"esriFieldTypeString","alias":"LI","length":8},{"name":"LIN","type":"esriFieldTypeString","alias":"LIN","length":12},{"name":"STREET","type":"esriFieldTypeString","alias":"STREET","length":20},{"name":"SECT","type":"esriFieldTypeString","alias":"SECT","length":8},{"name":"MAREA","type":"esriFieldTypeString","alias":"MAREA","length":12},{"name":"LANE","type":"esriFieldTypeString","alias":"LANE","length":10},{"name":"ALLEY","type":"esriFieldTypeString","alias":"ALLEY","length":10},{"name":"HOUSE_NO","type":"esriFieldTypeString","alias":"HOUSE_NO","length":20},{"name":"E_COORD97","type":"esriFieldTypeDouble","alias":"E_COORD97"},{"name":"N_COORD97","type":"esriFieldTypeDouble","alias":"N_COORD97"},{"name":"ADDRESS","type":"esriFieldTypeString","alias":"ADDRESS","length":50},{"name":"OBJECTID","type":"esriFieldTypeOID","alias":"OBJECTID"}],"features":[{"attributes":{"ID":214202,"DIS_CODE":0,"TOWNNAME":"歸仁區","LI":"七甲里","LIN":"11鄰","STREET":"南丁路","SECT":" ","MAREA":" ","LANE":"７８巷","ALLEY":" ","HOUSE_NO":"１６號","E_COORD97":176203.28240500001,"N_COORD97":2541720.9316699998,"ADDRESS":"南丁路７８巷１６號","OBJECTID":214201},"geometry":{"x":176203.28240500018,"y":2541720.9316680003}},{"attributes":{"ID":214203,"DIS_CODE":0,"TOWNNAME":"關廟區","LI":"田中里","LIN":"2鄰","STREET":"田大路","SECT":" ","MAREA":" ","LANE":"１６１巷","ALLEY":" ","HOUSE_NO":"１２號","E_COORD97":184465.413608,"N_COORD97":2533868.0153199998,"ADDRESS":"田大路１６１巷１２號","OBJECTID":214202},"geometry":{"x":184465.41360799968,"y":2533868.0153219998}},{"attributes":{"ID":214204,"DIS_CODE":0,"TOWNNAME":"關廟區","LI":"田中里","LIN":"3鄰","STREET":"田大路","SECT":" ","MAREA":" ","LANE":"１７２巷","ALLEY":" ","HOUSE_NO":"１１號","E_COORD97":184651.755259,"N_COORD97":2533749.7201800002,"ADDRESS":"田大路１７２巷１１號","OBJECTID":214203},"geometry":{"x":184651.75525899976,"y":2533749.7201780025}},{"attributes":{"ID":214205,"DIS_CODE":0,"TOWNNAME":"永康區","LI":"西勢里","LIN":"9鄰","STREET":"富強路","SECT":"一段","MAREA":" ","LANE":" ","ALLEY":" ","HOUSE_NO":"３４６號","E_COORD97":175733.5,"N_COORD97":2546743.4300000002,"ADDRESS":"富強路一段３４６號","OBJECTID":214204},"geometry":{"x":175733.50000000093,"y":2546743.4300000034}},{"attributes":{"ID":214206,"DIS_CODE":0,"TOWNNAME":"關廟區","LI":"田中里","LIN":"3鄰","STREET":"田大路","SECT":" ","MAREA":" ","LANE":"１７２巷","ALLEY":" ","HOUSE_NO":"１７號","E_COORD97":184601.11778900001,"N_COORD97":2533655.8460599999,"ADDRESS":"田大路１７２巷１７號","OBJECTID":214205},"geometry":{"x":184601.1177890012,"y":2533655.8460620008}},{"attributes":{"ID":214207,"DIS_CODE":0,"TOWNNAME":"永康區","LI":"西灣里","LIN":"9鄰","STREET":"大灣五街","SECT":" ","MAREA":" ","LANE":" ","ALLEY":" ","HOUSE_NO":"１４９號","E_COORD97":174407.70000000001,"N_COORD97":2545336.8500000001,"ADDRESS":"大灣五街１４９號","OBJECTID":214206},"geometry":{"x":174407.70000000019,"y":2545336.8500000034}},{"attributes":{"ID":214208,"DIS_CODE":0,"TOWNNAME":"永康區","LI":"西勢里","LIN":"9鄰","STREET":"富強路","SECT":"一段","MAREA":" ","LANE":" ","ALLEY":" ","HOUSE_NO":"３２６號","E_COORD97":175730.85999999999,"N_COORD97":2546704.4199999999,"ADDRESS":"富強路一段３２６號","OBJECTID":214207},"geometry":{"x":175730.86000000034,"y":2546704.4200000018}},{"attributes":{"ID":214209,"DIS_CODE":0,"TOWNNAME":"永康區","LI":"西勢里","LIN":"9鄰","STREET":"富強路","SECT":"一段","MAREA":" ","LANE":" ","ALLEY":" ","HOUSE_NO":"３５６號","E_COORD97":175725.54999999999,"N_COORD97":2546763.98,"ADDRESS":"富強路一段３５６號","OBJECTID":214208},"geometry":{"x":175725.54999999981,"y":2546763.9800000004}},{"attributes":{"ID":214210,"DIS_CODE":0,"TOWNNAME":"永康區","LI":"西勢里","LIN":"9鄰","STREET":"富強路","SECT":"一段","MAREA":" ","LANE":" ","ALLEY":" ","HOUSE_NO":"３６２號","E_COORD97":175723.23999999999,"N_COORD97":2546779.4700000002,"ADDRESS":"富強路一段３６２號","OBJECTID":214209},"geometry":{"x":175723.24000000209,"y":2546779.4700000025}},{"attributes":{"ID":214211,"DIS_CODE":0,"TOWNNAME":"永康區","LI":"西勢里","LIN":"9鄰","STREET":"富強路","SECT":"一段","MAREA":" ","LANE":" ","ALLEY":" ","HOUSE_NO":"３４２號","E_COORD97":175726.66,"N_COORD97":2546736.9300000002,"ADDRESS":"富強路一段３４２號","OBJECTID":214210},"geometry":{"x":175726.66000000015,"y":2546736.9300000034}},{"attributes":{"ID":214212,"DIS_CODE":0,"TOWNNAME":"麻豆區","LI":"保安里","LIN":"9鄰","STREET":"文昌路","SECT":" ","MAREA":" ","LANE":" ","ALLEY":" ","HOUSE_NO":"１號","E_COORD97":173417.67999999999,"N_COORD97":2564872.3599999999,"ADDRESS":"文昌路１號","OBJECTID":214211},"geometry":{"x":173417.68000000156,"y":2564872.3600000013}},{"attributes":{"ID":214213,"DIS_CODE":0,"TOWNNAME":"永康區","LI":"尚頂里","LIN":"9鄰","STREET":"正南一街","SECT":" ","MAREA":" ","LANE":" ","ALLEY":" ","HOUSE_NO":"１３７號","E_COORD97":170808.73999999999,"N_COORD97":2547254.0800000001,"ADDRESS":"正南一街１３７號","OBJECTID":214212},"geometry":{"x":170808.74000000022,"y":2547254.0800000001}},{"attributes":{"ID":214214,"DIS_CODE":0,"TOWNNAME":"歸仁區","LI":"七甲里","LIN":"14鄰","STREET":"南潭一街","SECT":" ","MAREA":" ","LANE":"４２巷","ALLEY":" ","HOUSE_NO":"３８號","E_COORD97":175908.448947,"N_COORD97":2543072.4226099998,"ADDRESS":"南潭一街４２巷３８號","OBJECTID":214213},"geometry":{"x":175908.44894700125,"y":2543072.4226050004}},{"attributes":{"ID":214215,"DIS_CODE":0,"TOWNNAME":"永康區","LI":"西勢里","LIN":"9鄰","STREET":"富強路","SECT":"一段","MAREA":" ","LANE":" ","ALLEY":" ","HOUSE_NO":"３５４號","E_COORD97":175725.82000000001,"N_COORD97":2546759.73,"ADDRESS":"富強路一段３５４號","OBJECTID":214214},"geometry":{"x":175725.8200000003,"y":2546759.7300000023}},{"attributes":{"ID":214216,"DIS_CODE":0,"TOWNNAME":"官田區","LI":"隆田里","LIN":"5鄰","STREET":"中山路","SECT":"一段","MAREA":" ","LANE":"５５巷","ALLEY":" ","HOUSE_NO":"２號","E_COORD97":180128.10912400001,"N_COORD97":2565737.6440499998,"ADDRESS":"中山路一段５５巷２號","OBJECTID":214215},"geometry":{"x":180128.10912400018,"y":2565737.644049}},{"attributes":{"ID":214217,"DIS_CODE":0,"TOWNNAME":"關廟區","LI":"田中里","LIN":"2鄰","STREET":"田大路","SECT":" ","MAREA":" ","LANE":"１６８巷","ALLEY":" ","HOUSE_NO":"２號","E_COORD97":184462.765205,"N_COORD97":2533774.06183,"ADDRESS":"田大路１６８巷２號","OBJECTID":214216},"geometry":{"x":184462.7652049996,"y":2533774.0618309993}},{"attributes":{"ID":214218,"DIS_CODE":0,"TOWNNAME":"關廟區","LI":"北勢里","LIN":"7鄰","STREET":"成功路","SECT":" ","MAREA":" ","LANE":"８６巷","ALLEY":" ","HOUSE_NO":"２５號","E_COORD97":181728.552134,"N_COORD97":2540500.9589900002,"ADDRESS":"成功路８６巷２５號","OBJECTID":214217},"geometry":{"x":181728.5521340007,"y":2540500.958992999}},{"attributes":{"ID":214219,"DIS_CODE":0,"TOWNNAME":"歸仁區","LI":"大潭里","LIN":"1鄰","STREET":"中正南路","SECT":"三段","MAREA":" ","LANE":"１４７巷","ALLEY":" ","HOUSE_NO":"５５號","E_COORD97":175327.715864,"N_COORD97":2534883.0408299998,"ADDRESS":"中正南路三段１４７巷５５號","OBJECTID":214218},"geometry":{"x":175327.71586400177,"y":2534883.0408280045}},{"attributes":{"ID":214220,"DIS_CODE":0,"TOWNNAME":"歸仁區","LI":"武東里","LIN":"10鄰","STREET":"武東三街","SECT":" ","MAREA":" ","LANE":"２６巷","ALLEY":" ","HOUSE_NO":"２５號","E_COORD97":175237.79651399999,"N_COORD97":2535283.1449899999,"ADDRESS":"武東三街２６巷２５號","OBJECTID":214219},"geometry":{"x":175237.79651399888,"y":2535283.1449900027}},{"attributes":{"ID":214221,"DIS_CODE":0,"TOWNNAME":"歸仁區","LI":"武東里","LIN":"10鄰","STREET":"武東三街","SECT":" ","MAREA":" ","LANE":"３６巷","ALLEY":" ","HOUSE_NO":"１５號","E_COORD97":175195.93064999999,"N_COORD97":2535276.3055099999,"ADDRESS":"武東三街３６巷１５號","OBJECTID":214220},"geometry":{"x":175195.93064999953,"y":2535276.3055100031}},{"attributes":{"ID":214222,"DIS_CODE":0,"TOWNNAME":"歸仁區","LI":"武東里","LIN":"9鄰","STREET":"武東三街","SECT":" ","MAREA":" ","LANE":"５３巷","ALLEY":" ","HOUSE_NO":"４０號","E_COORD97":175109.92303000001,"N_COORD97":2535134.4360099998,"ADDRESS":"武東三街５３巷４０號","OBJECTID":214221},"geometry":{"x":175109.92303000018,"y":2535134.4360080007}},{"attributes":{"ID":214223,"DIS_CODE":0,"TOWNNAME":"歸仁區","LI":"武東里","LIN":"6鄰","STREET":"高鐵七路","SECT":" ","MAREA":" ","LANE":"１１０巷","ALLEY":" ","HOUSE_NO":"６號","E_COORD97":175923.573989,"N_COORD97":2535671.2319399999,"ADDRESS":"高鐵七路１１０巷６號","OBJECTID":214222},"geometry":{"x":175923.57398900017,"y":2535671.2319370024}},{"attributes":{"ID":214224,"DIS_CODE":0,"TOWNNAME":"東區","LI":"裕聖里","LIN":"15鄰","STREET":"裕信路","SECT":" ","MAREA":" ","LANE":" ","ALLEY":" ","HOUSE_NO":"３３０之６號","E_COORD97":172562.32999999999,"N_COORD97":2542388.9300000002,"ADDRESS":"裕信路３３０之６號","OBJECTID":214223},"geometry":{"x":172562.33000000007,"y":2542388.9299999997}},{"attributes":{"ID":214225,"DIS_CODE":0,"TOWNNAME":"關廟區","LI":"北勢里","LIN":"15鄰","STREET":"成功路","SECT":" ","MAREA":" ","LANE":"３２８巷","ALLEY":" ","HOUSE_NO":"８號","E_COORD97":181324.48079500001,"N_COORD97":2540547.6424699998,"ADDRESS":"成功路３２８巷８號","OBJECTID":214224},"geometry":{"x":181324.48079500068,"y":2540547.642470004}},{"attributes":{"ID":214226,"DIS_CODE":0,"TOWNNAME":"歸仁區","LI":"西埔里","LIN":"10鄰","STREET":"西埔一街","SECT":" ","MAREA":" ","LANE":"５８０巷","ALLEY":" ","HOUSE_NO":"６號","E_COORD97":177214.15682,"N_COORD97":2545188.9714000002,"ADDRESS":"西埔一街５８０巷６號","OBJECTID":214225},"geometry":{"x":177214.15682000201,"y":2545188.9714020006}},{"attributes":{"ID":214227,"DIS_CODE":0,"TOWNNAME":"歸仁區","LI":"西埔里","LIN":"11鄰","STREET":"西埔一街","SECT":" ","MAREA":" ","LANE":"２３０巷","ALLEY":" ","HOUSE_NO":"４３號","E_COORD97":177120.94089,"N_COORD97":2544726.1481900001,"ADDRESS":"西埔一街２３０巷４３號","OBJECTID":214226},"geometry":{"x":177120.94089000113,"y":2544726.1481940001}},{"attributes":{"ID":214228,"DIS_CODE":0,"TOWNNAME":"仁德區","LI":"仁愛里","LIN":"30鄰","STREET":"亞航街","SECT":" ","MAREA":" ","LANE":"１９８巷","ALLEY":" ","HOUSE_NO":"３７號","E_COORD97":170074.946,"N_COORD97":2539051.4950000001,"ADDRESS":"亞航街１９８巷３７號","OBJECTID":214227},"geometry":{"x":170074.94600000139,"y":2539051.4950000029}},{"attributes":{"ID":214229,"DIS_CODE":0,"TOWNNAME":"歸仁區","LI":"西埔里","LIN":"14鄰","STREET":"西埔一街","SECT":" ","MAREA":" ","LANE":"１８５巷","ALLEY":" ","HOUSE_NO":"５１之１號","E_COORD97":176941.029931,"N_COORD97":2544713.0248699998,"ADDRESS":"西埔一街１８５巷５１之１號","OBJECTID":214228},"geometry":{"x":176941.02993100137,"y":2544713.0248680022}},{"attributes":{"ID":214230,"DIS_CODE":0,"TOWNNAME":"七股區","LI":"溪南里","LIN":"2鄰","STREET":" ","SECT":" ","MAREA":"溪南","LANE":" ","ALLEY":" ","HOUSE_NO":"１６號之１","E_COORD97":160016.67999999999,"N_COORD97":2558751.4399999999,"ADDRESS":"溪南１６號之１","OBJECTID":214229},"geometry":{"x":160016.6799999997,"y":2558751.4399999995}},{"attributes":{"ID":214231,"DIS_CODE":0,"TOWNNAME":"七股區","LI":"溪南里","LIN":"2鄰","STREET":" ","SECT":" ","MAREA":"溪南","LANE":" ","ALLEY":" ","HOUSE_NO":"１６號","E_COORD97":160005.09,"N_COORD97":2558770,"ADDRESS":"溪南１６號","OBJECTID":214230},"geometry":{"x":160005.09000000078,"y":2558770.0000000019}},{"attributes":{"ID":214232,"DIS_CODE":0,"TOWNNAME":"七股區","LI":"溪南里","LIN":"2鄰","STREET":" ","SECT":" ","MAREA":"溪南","LANE":" ","ALLEY":" ","HOUSE_NO":"１８號","E_COORD97":160023.88,"N_COORD97":2558785.4500000002,"ADDRESS":"溪南１８號","OBJECTID":214231},"geometry":{"x":160023.87999999989,"y":2558785.450000003}},{"attributes":{"ID":214233,"DIS_CODE":0,"TOWNNAME":"七股區","LI":"溪南里","LIN":"2鄰","STREET":" ","SECT":" ","MAREA":"溪南","LANE":" ","ALLEY":" ","HOUSE_NO":"１９號之１","E_COORD97":160049.95000000001,"N_COORD97":2558752.8199999998,"ADDRESS":"溪南１９號之１","OBJECTID":214232},"geometry":{"x":160049.95000000112,"y":2558752.8200000003}},{"attributes":{"ID":214234,"DIS_CODE":0,"TOWNNAME":"七股區","LI":"溪南里","LIN":"2鄰","STREET":" ","SECT":" ","MAREA":"溪南","LANE":" ","ALLEY":" ","HOUSE_NO":"１９號","E_COORD97":160042.84,"N_COORD97":2558787.9900000002,"ADDRESS":"溪南１９號","OBJECTID":214233},"geometry":{"x":160042.83999999985,"y":2558787.9900000002}},{"attributes":{"ID":214235,"DIS_CODE":0,"TOWNNAME":"七股區","LI":"溪南里","LIN":"2鄰","STREET":" ","SECT":" ","MAREA":"溪南","LANE":" ","ALLEY":" ","HOUSE_NO":"２１號之１","E_COORD97":159906.57999999999,"N_COORD97":2558650.79,"ADDRESS":"溪南２１號之１","OBJECTID":214234},"geometry":{"x":159906.58000000101,"y":2558650.7900000028}},{"attributes":{"ID":214236,"DIS_CODE":0,"TOWNNAME":"七股區","LI":"溪南里","LIN":"2鄰","STREET":" ","SECT":" ","MAREA":"溪南","LANE":" ","ALLEY":" ","HOUSE_NO":"２１號之２","E_COORD97":159901.22,"N_COORD97":2558618.8599999999,"ADDRESS":"溪南２１號之２","OBJECTID":214235},"geometry":{"x":159901.21999999974,"y":2558618.8599999994}},{"attributes":{"ID":214237,"DIS_CODE":0,"TOWNNAME":"七股區","LI":"溪南里","LIN":"2鄰","STREET":" ","SECT":" ","MAREA":"溪南","LANE":" ","ALLEY":" ","HOUSE_NO":"２１號","E_COORD97":159926.32000000001,"N_COORD97":2558644.3599999999,"ADDRESS":"溪南２１號","OBJECTID":214236},"geometry":{"x":159926.3200000003,"y":2558644.3600000013}},{"attributes":{"ID":214238,"DIS_CODE":0,"TOWNNAME":"七股區","LI":"義合里","LIN":"2鄰","STREET":" ","SECT":" ","MAREA":"義合","LANE":" ","ALLEY":" ","HOUSE_NO":"１０號","E_COORD97":163041.72,"N_COORD97":2556549.4300000002,"ADDRESS":"義合１０號","OBJECTID":214237},"geometry":{"x":163041.72000000067,"y":2556549.4300000016}},{"attributes":{"ID":214239,"DIS_CODE":0,"TOWNNAME":"七股區","LI":"義合里","LIN":"2鄰","STREET":" ","SECT":" ","MAREA":"義合","LANE":" ","ALLEY":" ","HOUSE_NO":"１１號","E_COORD97":162997.88,"N_COORD97":2556531.73,"ADDRESS":"義合１１號","OBJECTID":214238},"geometry":{"x":162997.88000000175,"y":2556531.7300000023}},{"attributes":{"ID":214240,"DIS_CODE":0,"TOWNNAME":"歸仁區","LI":"西埔里","LIN":"10鄰","STREET":"西埔一街","SECT":" ","MAREA":" ","LANE":"５８０巷","ALLEY":" ","HOUSE_NO":"２０號","E_COORD97":177388.276384,"N_COORD97":2545202.5306500001,"ADDRESS":"西埔一街５８０巷２０號","OBJECTID":214239},"geometry":{"x":177388.27638399974,"y":2545202.5306530017}},{"attributes":{"ID":214241,"DIS_CODE":0,"TOWNNAME":"歸仁區","LI":"西埔里","LIN":"15鄰","STREET":"西埔一街","SECT":" ","MAREA":" ","LANE":"５４５巷","ALLEY":" ","HOUSE_NO":"５７號","E_COORD97":176973.643644,"N_COORD97":2545177.7656700001,"ADDRESS":"西埔一街５４５巷５７號","OBJECTID":214240},"geometry":{"x":176973.64364400227,"y":2545177.7656670008}},{"attributes":{"ID":214242,"DIS_CODE":0,"TOWNNAME":"新營區","LI":"南紙里","LIN":"19鄰","STREET":"太子路","SECT":" ","MAREA":" ","LANE":"２３８巷","ALLEY":" ","HOUSE_NO":"３７之１號","E_COORD97":177749.60226000001,"N_COORD97":2577922.35304,"ADDRESS":"太子路２３８巷３７之１號","OBJECTID":214241},"geometry":{"x":177749.60226000007,"y":2577922.3530379999}},{"attributes":{"ID":214243,"DIS_CODE":0,"TOWNNAME":"七股區","LI":"義合里","LIN":"2鄰","STREET":" ","SECT":" ","MAREA":"義合","LANE":" ","ALLEY":" ","HOUSE_NO":"１２號","E_COORD97":162952.72,"N_COORD97":2556488.9500000002,"ADDRESS":"義合１２號","OBJECTID":214242},"geometry":{"x":162952.71999999974,"y":2556488.9499999993}},{"attributes":{"ID":214244,"DIS_CODE":0,"TOWNNAME":"南區","LI":"喜東里","LIN":"10鄰","STREET":"明興路","SECT":" ","MAREA":" ","LANE":"６１９巷","ALLEY":" ","HOUSE_NO":"３４５號","E_COORD97":166743.02001400001,"N_COORD97":2537950.12647,"ADDRESS":"明興路６１９巷３４５號","OBJECTID":214243},"geometry":{"x":166743.02001400013,"y":2537950.126469003}},{"attributes":{"ID":214245,"DIS_CODE":0,"TOWNNAME":"七股區","LI":"義合里","LIN":"2鄰","STREET":" ","SECT":" ","MAREA":"義合","LANE":" ","ALLEY":" ","HOUSE_NO":"１３號之１","E_COORD97":162934.29000000001,"N_COORD97":2556479.79,"ADDRESS":"義合１３號之１","OBJECTID":214244},"geometry":{"x":162934.2900000019,"y":2556479.7899999991}},{"attributes":{"ID":214246,"DIS_CODE":0,"TOWNNAME":"新營區","LI":"南紙里","LIN":"19鄰","STREET":"太子路","SECT":" ","MAREA":" ","LANE":"２３８巷","ALLEY":" ","HOUSE_NO":"９號","E_COORD97":177786.085185,"N_COORD97":2577863.82724,"ADDRESS":"太子路２３８巷９號","OBJECTID":214245},"geometry":{"x":177786.08518499974,"y":2577863.8272360004}},{"attributes":{"ID":214247,"DIS_CODE":0,"TOWNNAME":"中西區","LI":"赤嵌里","LIN":"20鄰","STREET":"赤崁東街","SECT":" ","MAREA":" ","LANE":"９０巷","ALLEY":" ","HOUSE_NO":"１號","E_COORD97":168356.66935800001,"N_COORD97":2544252.1854699999,"ADDRESS":"赤崁東街９０巷１號","OBJECTID":214246},"geometry":{"x":168356.66935800109,"y":2544252.1854659989}},{"attributes":{"ID":214248,"DIS_CODE":0,"TOWNNAME":"永康區","LI":"尚頂里","LIN":"9鄰","STREET":"正南一街","SECT":" ","MAREA":" ","LANE":" ","ALLEY":" ","HOUSE_NO":"１３１號","E_COORD97":170838.17999999999,"N_COORD97":2547243.3799999999,"ADDRESS":"正南一街１３１號","OBJECTID":214247},"geometry":{"x":170838.18000000063,"y":2547243.379999999}},{"attributes":{"ID":214249,"DIS_CODE":0,"TOWNNAME":"永康區","LI":"西勢里","LIN":"9鄰","STREET":"富強路","SECT":"一段","MAREA":" ","LANE":" ","ALLEY":" ","HOUSE_NO":"３４０號之１","E_COORD97":175730.03,"N_COORD97":2546730.7000000002,"ADDRESS":"富強路一段３４０號之１","OBJECTID":214248},"geometry":{"x":175730.03000000119,"y":2546730.6999999993}},{"attributes":{"ID":214250,"DIS_CODE":0,"TOWNNAME":"永康區","LI":"西勢里","LIN":"9鄰","STREET":"富強路","SECT":"一段","MAREA":" ","LANE":" ","ALLEY":" ","HOUSE_NO":"３５８號","E_COORD97":175724.60999999999,"N_COORD97":2546769.4700000002,"ADDRESS":"富強路一段３５８號","OBJECTID":214249},"geometry":{"x":175724.61000000127,"y":2546769.4700000025}},{"attributes":{"ID":214251,"DIS_CODE":0,"TOWNNAME":"永康區","LI":"尚頂里","LIN":"9鄰","STREET":"正南一街","SECT":" ","MAREA":" ","LANE":" ","ALLEY":" ","HOUSE_NO":"１３９號","E_COORD97":170800.47,"N_COORD97":2547258.1299999999,"ADDRESS":"正南一街１３９號","OBJECTID":214250},"geometry":{"x":170800.47000000067,"y":2547258.1300000008}},{"attributes":{"ID":214252,"DIS_CODE":0,"TOWNNAME":"七股區","LI":"義合里","LIN":"2鄰","STREET":" ","SECT":" ","MAREA":"義合","LANE":" ","ALLEY":" ","HOUSE_NO":"１３號之２","E_COORD97":162928.07999999999,"N_COORD97":2556509.5600000001,"ADDRESS":"義合１３號之２","OBJECTID":214251},"geometry":{"x":162928.08000000101,"y":2556509.5600000005}},{"attributes":{"ID":214253,"DIS_CODE":0,"TOWNNAME":"七股區","LI":"義合里","LIN":"2鄰","STREET":" ","SECT":" ","MAREA":"義合","LANE":" ","ALLEY":" ","HOUSE_NO":"１３號","E_COORD97":162939.48999999999,"N_COORD97":2556512.75,"ADDRESS":"義合１３號","OBJECTID":214252},"geometry":{"x":162939.49000000022,"y":2556512.7500000037}},{"attributes":{"ID":214254,"DIS_CODE":0,"TOWNNAME":"七股區","LI":"義合里","LIN":"2鄰","STREET":" ","SECT":" ","MAREA":"義合","LANE":" ","ALLEY":" ","HOUSE_NO":"１４號","E_COORD97":162912.62,"N_COORD97":2556482.1200000001,"ADDRESS":"義合１４號","OBJECTID":214253},"geometry":{"x":162912.62000000011,"y":2556482.1200000029}},{"attributes":{"ID":214255,"DIS_CODE":0,"TOWNNAME":"七股區","LI":"義合里","LIN":"2鄰","STREET":" ","SECT":" ","MAREA":"義合","LANE":" ","ALLEY":" ","HOUSE_NO":"１５號","E_COORD97":162883.14999999999,"N_COORD97":2556479.02,"ADDRESS":"義合１５號","OBJECTID":214254},"geometry":{"x":162883.1500000013,"y":2556479.0199999996}},{"attributes":{"ID":214256,"DIS_CODE":0,"TOWNNAME":"七股區","LI":"義合里","LIN":"2鄰","STREET":" ","SECT":" ","MAREA":"義合","LANE":" ","ALLEY":" ","HOUSE_NO":"８號之２","E_COORD97":163051.20999999999,"N_COORD97":2556580.25,"ADDRESS":"義合８號之２","OBJECTID":214255},"geometry":{"x":163051.20999999996,"y":2556580.2499999981}},{"attributes":{"ID":214257,"DIS_CODE":0,"TOWNNAME":"七股區","LI":"義合里","LIN":"2鄰","STREET":" ","SECT":" ","MAREA":"義合","LANE":" ","ALLEY":" ","HOUSE_NO":"８號","E_COORD97":163029.13,"N_COORD97":2556517.1699999999,"ADDRESS":"義合８號","OBJECTID":214256},"geometry":{"x":163029.13000000082,"y":2556517.1700000018}},{"attributes":{"ID":214258,"DIS_CODE":0,"TOWNNAME":"七股區","LI":"義合里","LIN":"2鄰","STREET":" ","SECT":" ","MAREA":"義合","LANE":" ","ALLEY":" ","HOUSE_NO":"９號之１","E_COORD97":163046.67999999999,"N_COORD97":2556580.0699999998,"ADDRESS":"義合９號之１","OBJECTID":214257},"geometry":{"x":163046.68000000063,"y":2556580.0700000022}},{"attributes":{"ID":214259,"DIS_CODE":0,"TOWNNAME":"七股區","LI":"義合里","LIN":"2鄰","STREET":" ","SECT":" ","MAREA":"義合","LANE":" ","ALLEY":" ","HOUSE_NO":"９號之２","E_COORD97":163035.89999999999,"N_COORD97":2556580.77,"ADDRESS":"義合９號之２","OBJECTID":214258},"geometry":{"x":163035.9000000013,"y":2556580.7700000014}},{"attributes":{"ID":214260,"DIS_CODE":0,"TOWNNAME":"七股區","LI":"義合里","LIN":"2鄰","STREET":" ","SECT":" ","MAREA":"義合","LANE":" ","ALLEY":" ","HOUSE_NO":"９號之３","E_COORD97":163010.31,"N_COORD97":2556567.6299999999,"ADDRESS":"義合９號之３","OBJECTID":214259},"geometry":{"x":163010.31000000052,"y":2556567.6300000008}},{"attributes":{"ID":214261,"DIS_CODE":0,"TOWNNAME":"七股區","LI":"義合里","LIN":"2鄰","STREET":" ","SECT":" ","MAREA":"義合","LANE":" ","ALLEY":" ","HOUSE_NO":"９號之４","E_COORD97":163000.57999999999,"N_COORD97":2556563.1699999999,"ADDRESS":"義合９號之４","OBJECTID":214260},"geometry":{"x":163000.58000000101,"y":2556563.1699999999}},{"attributes":{"ID":214262,"DIS_CODE":0,"TOWNNAME":"七股區","LI":"義合里","LIN":"2鄰","STREET":" ","SECT":" ","MAREA":"義合","LANE":" ","ALLEY":" ","HOUSE_NO":"９號之５","E_COORD97":162994.26000000001,"N_COORD97":2556561.6899999999,"ADDRESS":"義合９號之５","OBJECTID":214261},"geometry":{"x":162994.26000000071,"y":2556561.6900000013}},{"attributes":{"ID":214263,"DIS_CODE":0,"TOWNNAME":"七股區","LI":"義合里","LIN":"2鄰","STREET":" ","SECT":" ","MAREA":"義合","LANE":" ","ALLEY":" ","HOUSE_NO":"９號之９","E_COORD97":163075.14999999999,"N_COORD97":2556588.6899999999,"ADDRESS":"義合９號之９","OBJECTID":214262},"geometry":{"x":163075.1500000013,"y":2556588.6900000013}},{"attributes":{"ID":214264,"DIS_CODE":0,"TOWNNAME":"七股區","LI":"義合里","LIN":"2鄰","STREET":" ","SECT":" ","MAREA":"義合","LANE":" ","ALLEY":" ","HOUSE_NO":"９號","E_COORD97":163019.88,"N_COORD97":2556572.4100000001,"ADDRESS":"義合９號","OBJECTID":214263},"geometry":{"x":163019.88000000175,"y":2556572.4100000001}},{"attributes":{"ID":214265,"DIS_CODE":0,"TOWNNAME":"七股區","LI":"樹林里","LIN":"2鄰","STREET":" ","SECT":" ","MAREA":"樹林","LANE":" ","ALLEY":" ","HOUSE_NO":"１０號之２","E_COORD97":163783.72,"N_COORD97":2557158.3999999999,"ADDRESS":"樹林１０號之２","OBJECTID":214264},"geometry":{"x":163783.7200000016,"y":2557158.4000000004}},{"attributes":{"ID":214266,"DIS_CODE":0,"TOWNNAME":"七股區","LI":"樹林里","LIN":"2鄰","STREET":" ","SECT":" ","MAREA":"樹林","LANE":" ","ALLEY":" ","HOUSE_NO":"１０號","E_COORD97":163784.67999999999,"N_COORD97":2557204.3700000001,"ADDRESS":"樹林１０號","OBJECTID":214265},"geometry":{"x":163784.68000000063,"y":2557204.3699999992}},{"attributes":{"ID":214267,"DIS_CODE":0,"TOWNNAME":"七股區","LI":"樹林里","LIN":"2鄰","STREET":" ","SECT":" ","MAREA":"樹林","LANE":" ","ALLEY":" ","HOUSE_NO":"１３號之１","E_COORD97":163824.17999999999,"N_COORD97":2557209.0299999998,"ADDRESS":"樹林１３號之１","OBJECTID":214266},"geometry":{"x":163824.1799999997,"y":2557209.0300000012}},{"attributes":{"ID":214268,"DIS_CODE":0,"TOWNNAME":"七股區","LI":"樹林里","LIN":"2鄰","STREET":" ","SECT":" ","MAREA":"樹林","LANE":" ","ALLEY":" ","HOUSE_NO":"１３號","E_COORD97":163807.82999999999,"N_COORD97":2557217.0299999998,"ADDRESS":"樹林１３號","OBJECTID":214267},"geometry":{"x":163807.83000000101,"y":2557217.0299999993}},{"attributes":{"ID":214269,"DIS_CODE":0,"TOWNNAME":"七股區","LI":"樹林里","LIN":"2鄰","STREET":" ","SECT":" ","MAREA":"樹林","LANE":" ","ALLEY":" ","HOUSE_NO":"１４號之２","E_COORD97":163836.29999999999,"N_COORD97":2557131.75,"ADDRESS":"樹林１４號之２","OBJECTID":214268},"geometry":{"x":163836.30000000075,"y":2557131.75}},{"attributes":{"ID":214270,"DIS_CODE":0,"TOWNNAME":"七股區","LI":"樹林里","LIN":"2鄰","STREET":" ","SECT":" ","MAREA":"樹林","LANE":" ","ALLEY":" ","HOUSE_NO":"１４號","E_COORD97":163829.44,"N_COORD97":2557158.6000000001,"ADDRESS":"樹林１４號","OBJECTID":214269},"geometry":{"x":163829.44000000134,"y":2557158.6000000015}},{"attributes":{"ID":214271,"DIS_CODE":0,"TOWNNAME":"七股區","LI":"龍山里","LIN":"2鄰","STREET":" ","SECT":" ","MAREA":"龍山","LANE":" ","ALLEY":" ","HOUSE_NO":"１５號之１","E_COORD97":159519.82000000001,"N_COORD97":2559820.1400000001,"ADDRESS":"龍山１５號之１","OBJECTID":214270},"geometry":{"x":159519.8200000003,"y":2559820.1400000025}},{"attributes":{"ID":214272,"DIS_CODE":0,"TOWNNAME":"七股區","LI":"龍山里","LIN":"2鄰","STREET":" ","SECT":" ","MAREA":"龍山","LANE":" ","ALLEY":" ","HOUSE_NO":"１５號","E_COORD97":159527.53,"N_COORD97":2559815.6499999999,"ADDRESS":"龍山１５號","OBJECTID":214271},"geometry":{"x":159527.53000000119,"y":2559815.6500000004}},{"attributes":{"ID":214273,"DIS_CODE":0,"TOWNNAME":"七股區","LI":"龍山里","LIN":"2鄰","STREET":" ","SECT":" ","MAREA":"龍山","LANE":" ","ALLEY":" ","HOUSE_NO":"１６號","E_COORD97":159535.81,"N_COORD97":2559822.3100000001,"ADDRESS":"龍山１６號","OBJECTID":214272},"geometry":{"x":159535.80999999959,"y":2559822.3100000024}},{"attributes":{"ID":214274,"DIS_CODE":0,"TOWNNAME":"七股區","LI":"樹林里","LIN":"2鄰","STREET":" ","SECT":" ","MAREA":"樹林","LANE":" ","ALLEY":" ","HOUSE_NO":"５９號之１","E_COORD97":163820.45999999999,"N_COORD97":2557126.23,"ADDRESS":"樹林５９號之１","OBJECTID":214273},"geometry":{"x":163820.45999999996,"y":2557126.2300000004}},{"attributes":{"ID":214275,"DIS_CODE":0,"TOWNNAME":"七股區","LI":"樹林里","LIN":"2鄰","STREET":" ","SECT":" ","MAREA":"樹林","LANE":" ","ALLEY":" ","HOUSE_NO":"５９號之２","E_COORD97":163816.25,"N_COORD97":2557120.8799999999,"ADDRESS":"樹林５９號之２","OBJECTID":214274},"geometry":{"x":163816.25000000093,"y":2557120.8800000027}},{"attributes":{"ID":214276,"DIS_CODE":0,"TOWNNAME":"七股區","LI":"樹林里","LIN":"2鄰","STREET":" ","SECT":" ","MAREA":"樹林","LANE":" ","ALLEY":" ","HOUSE_NO":"５９號","E_COORD97":163827.5,"N_COORD97":2557128.5800000001,"ADDRESS":"樹林５９號","OBJECTID":214275},"geometry":{"x":163827.5,"y":2557128.5800000019}},{"attributes":{"ID":214277,"DIS_CODE":0,"TOWNNAME":"七股區","LI":"篤加里","LIN":"2鄰","STREET":" ","SECT":" ","MAREA":"篤加","LANE":" ","ALLEY":" ","HOUSE_NO":"１８號之１","E_COORD97":161079.04999999999,"N_COORD97":2562279.8199999998,"ADDRESS":"篤加１８號之１","OBJECTID":214276},"geometry":{"x":161079.04999999981,"y":2562279.820000004}},{"attributes":{"ID":214278,"DIS_CODE":0,"TOWNNAME":"七股區","LI":"篤加里","LIN":"2鄰","STREET":" ","SECT":" ","MAREA":"篤加","LANE":" ","ALLEY":" ","HOUSE_NO":"１８號","E_COORD97":161053.64999999999,"N_COORD97":2562165.4500000002,"ADDRESS":"篤加１８號","OBJECTID":214277},"geometry":{"x":161053.65000000037,"y":2562165.4499999974}},{"attributes":{"ID":214279,"DIS_CODE":0,"TOWNNAME":"七股區","LI":"篤加里","LIN":"2鄰","STREET":" ","SECT":" ","MAREA":"篤加","LANE":" ","ALLEY":" ","HOUSE_NO":"１９號","E_COORD97":161056.32999999999,"N_COORD97":2562297.9399999999,"ADDRESS":"篤加１９號","OBJECTID":214278},"geometry":{"x":161056.33000000101,"y":2562297.9399999995}},{"attributes":{"ID":214280,"DIS_CODE":0,"TOWNNAME":"七股區","LI":"篤加里","LIN":"2鄰","STREET":" ","SECT":" ","MAREA":"篤加","LANE":" ","ALLEY":" ","HOUSE_NO":"２０號之１","E_COORD97":160972.45000000001,"N_COORD97":2562307.0299999998,"ADDRESS":"篤加２０號之１","OBJECTID":214279},"geometry":{"x":160972.45000000112,"y":2562307.0299999993}},{"attributes":{"ID":214281,"DIS_CODE":0,"TOWNNAME":"七股區","LI":"篤加里","LIN":"2鄰","STREET":" ","SECT":" ","MAREA":"篤加","LANE":" ","ALLEY":" ","HOUSE_NO":"２０號","E_COORD97":161027.48999999999,"N_COORD97":2562301.6499999999,"ADDRESS":"篤加２０號","OBJECTID":214280},"geometry":{"x":161027.49000000022,"y":2562301.6500000022}},{"attributes":{"ID":214282,"DIS_CODE":0,"TOWNNAME":"七股區","LI":"篤加里","LIN":"2鄰","STREET":" ","SECT":" ","MAREA":"篤加","LANE":" ","ALLEY":" ","HOUSE_NO":"２１號之１","E_COORD97":161052.95999999999,"N_COORD97":2562275.2999999998,"ADDRESS":"篤加２１號之１","OBJECTID":214281},"geometry":{"x":161052.95999999903,"y":2562275.3000000007}},{"attributes":{"ID":214283,"DIS_CODE":0,"TOWNNAME":"七股區","LI":"篤加里","LIN":"2鄰","STREET":" ","SECT":" ","MAREA":"篤加","LANE":" ","ALLEY":" ","HOUSE_NO":"２１號之２","E_COORD97":161062.04999999999,"N_COORD97":2562277.48,"ADDRESS":"篤加２１號之２","OBJECTID":214282},"geometry":{"x":161062.04999999981,"y":2562277.4800000004}},{"attributes":{"ID":214284,"DIS_CODE":0,"TOWNNAME":"七股區","LI":"篤加里","LIN":"2鄰","STREET":" ","SECT":" ","MAREA":"篤加","LANE":" ","ALLEY":" ","HOUSE_NO":"２２號之１","E_COORD97":161002.09,"N_COORD97":2562251.2200000002,"ADDRESS":"篤加２２號之１","OBJECTID":214283},"geometry":{"x":161002.08999999985,"y":2562251.2200000025}},{"attributes":{"ID":214285,"DIS_CODE":0,"TOWNNAME":"七股區","LI":"篤加里","LIN":"2鄰","STREET":" ","SECT":" ","MAREA":"篤加","LANE":" ","ALLEY":" ","HOUSE_NO":"２３號","E_COORD97":161016.06,"N_COORD97":2562216.8300000001,"ADDRESS":"篤加２３號","OBJECTID":214284},"geometry":{"x":161016.05999999959,"y":2562216.8300000001}},{"attributes":{"ID":214286,"DIS_CODE":0,"TOWNNAME":"七股區","LI":"篤加里","LIN":"2鄰","STREET":" ","SECT":" ","MAREA":"篤加","LANE":" ","ALLEY":" ","HOUSE_NO":"２４號","E_COORD97":161076.32000000001,"N_COORD97":2562205.29,"ADDRESS":"篤加２４號","OBJECTID":214285},"geometry":{"x":161076.31999999937,"y":2562205.290000001}},{"attributes":{"ID":214287,"DIS_CODE":0,"TOWNNAME":"七股區","LI":"篤加里","LIN":"2鄰","STREET":" ","SECT":" ","MAREA":"篤加","LANE":" ","ALLEY":" ","HOUSE_NO":"２５號之２","E_COORD97":161001.82999999999,"N_COORD97":2562191.02,"ADDRESS":"篤加２５號之２","OBJECTID":214286},"geometry":{"x":161001.83000000101,"y":2562191.0199999996}},{"attributes":{"ID":214288,"DIS_CODE":0,"TOWNNAME":"七股區","LI":"篤加里","LIN":"2鄰","STREET":" ","SECT":" ","MAREA":"篤加","LANE":" ","ALLEY":" ","HOUSE_NO":"２６號之１","E_COORD97":160991.01000000001,"N_COORD97":2562224.8500000001,"ADDRESS":"篤加２６號之１","OBJECTID":214287},"geometry":{"x":160991.00999999978,"y":2562224.8500000015}},{"attributes":{"ID":214289,"DIS_CODE":0,"TOWNNAME":"七股區","LI":"篤加里","LIN":"2鄰","STREET":" ","SECT":" ","MAREA":"篤加","LANE":" ","ALLEY":" ","HOUSE_NO":"２６號","E_COORD97":160941.01000000001,"N_COORD97":2562197.9900000002,"ADDRESS":"篤加２６號","OBJECTID":214288},"geometry":{"x":160941.01000000071,"y":2562197.9900000021}},{"attributes":{"ID":214290,"DIS_CODE":0,"TOWNNAME":"七股區","LI":"龍山里","LIN":"2鄰","STREET":" ","SECT":" ","MAREA":"龍山","LANE":" ","ALLEY":" ","HOUSE_NO":"１１號之１","E_COORD97":159515.92000000001,"N_COORD97":2559755.6800000002,"ADDRESS":"龍山１１號之１","OBJECTID":214289},"geometry":{"x":159515.92000000086,"y":2559755.6800000016}},{"attributes":{"ID":214291,"DIS_CODE":0,"TOWNNAME":"七股區","LI":"龍山里","LIN":"2鄰","STREET":" ","SECT":" ","MAREA":"龍山","LANE":" ","ALLEY":" ","HOUSE_NO":"１１號之２","E_COORD97":159553.34,"N_COORD97":2559718.5699999998,"ADDRESS":"龍山１１號之２","OBJECTID":214290},"geometry":{"x":159553.33999999985,"y":2559718.5700000022}},{"attributes":{"ID":214292,"DIS_CODE":0,"TOWNNAME":"七股區","LI":"龍山里","LIN":"2鄰","STREET":" ","SECT":" ","MAREA":"龍山","LANE":" ","ALLEY":" ","HOUSE_NO":"１１號之６","E_COORD97":159579.57999999999,"N_COORD97":2559730.54,"ADDRESS":"龍山１１號之６","OBJECTID":214291},"geometry":{"x":159579.58000000101,"y":2559730.5400000028}},{"attributes":{"ID":214293,"DIS_CODE":0,"TOWNNAME":"七股區","LI":"龍山里","LIN":"2鄰","STREET":" ","SECT":" ","MAREA":"龍山","LANE":" ","ALLEY":" ","HOUSE_NO":"１１號","E_COORD97":159524.98999999999,"N_COORD97":2559728.1699999999,"ADDRESS":"龍山１１號","OBJECTID":214292},"geometry":{"x":159524.99000000022,"y":2559728.1700000018}},{"attributes":{"ID":214294,"DIS_CODE":0,"TOWNNAME":"七股區","LI":"龍山里","LIN":"2鄰","STREET":" ","SECT":" ","MAREA":"龍山","LANE":" ","ALLEY":" ","HOUSE_NO":"１２號之１２","E_COORD97":159346.39000000001,"N_COORD97":2559621.9500000002,"ADDRESS":"龍山１２號之１２","OBJECTID":214293},"geometry":{"x":159346.3900000006,"y":2559621.9499999993}},{"attributes":{"ID":214295,"DIS_CODE":0,"TOWNNAME":"七股區","LI":"龍山里","LIN":"2鄰","STREET":" ","SECT":" ","MAREA":"龍山","LANE":" ","ALLEY":" ","HOUSE_NO":"１２號之１","E_COORD97":159343.54999999999,"N_COORD97":2559670.7999999998,"ADDRESS":"龍山１２號之１","OBJECTID":214294},"geometry":{"x":159343.55000000168,"y":2559670.8000000026}},{"attributes":{"ID":214296,"DIS_CODE":0,"TOWNNAME":"七股區","LI":"龍山里","LIN":"2鄰","STREET":" ","SECT":" ","MAREA":"龍山","LANE":" ","ALLEY":" ","HOUSE_NO":"１２號之２","E_COORD97":159552.32999999999,"N_COORD97":2559746.8999999999,"ADDRESS":"龍山１２號之２","OBJECTID":214295},"geometry":{"x":159552.33000000101,"y":2559746.9000000022}},{"attributes":{"ID":214297,"DIS_CODE":0,"TOWNNAME":"七股區","LI":"龍山里","LIN":"2鄰","STREET":" ","SECT":" ","MAREA":"龍山","LANE":" ","ALLEY":" ","HOUSE_NO":"１２號之４５","E_COORD97":159331.60000000001,"N_COORD97":2559491.5600000001,"ADDRESS":"龍山１２號之４５","OBJECTID":214296},"geometry":{"x":159331.60000000056,"y":2559491.5600000042}},{"attributes":{"ID":214298,"DIS_CODE":0,"TOWNNAME":"七股區","LI":"龍山里","LIN":"2鄰","STREET":" ","SECT":" ","MAREA":"龍山","LANE":" ","ALLEY":" ","HOUSE_NO":"１２號之４７","E_COORD97":159266.70999999999,"N_COORD97":2559349.1499999999,"ADDRESS":"龍山１２號之４７","OBJECTID":214297},"geometry":{"x":159266.71000000089,"y":2559349.1500000022}},{"attributes":{"ID":214299,"DIS_CODE":0,"TOWNNAME":"七股區","LI":"龍山里","LIN":"2鄰","STREET":" ","SECT":" ","MAREA":"龍山","LANE":" ","ALLEY":" ","HOUSE_NO":"１２號之５６","E_COORD97":159375.12,"N_COORD97":2559291.1899999999,"ADDRESS":"龍山１２號之５６","OBJECTID":214298},"geometry":{"x":159375.12000000011,"y":2559291.1899999995}},{"attributes":{"ID":214300,"DIS_CODE":0,"TOWNNAME":"七股區","LI":"龍山里","LIN":"2鄰","STREET":" ","SECT":" ","MAREA":"龍山","LANE":" ","ALLEY":" ","HOUSE_NO":"１２號之６０","E_COORD97":159251.29000000001,"N_COORD97":2559212.0299999998,"ADDRESS":"龍山１２號之６０","OBJECTID":214299},"geometry":{"x":159251.29000000097,"y":2559212.0299999975}},{"attributes":{"ID":214301,"DIS_CODE":0,"TOWNNAME":"七股區","LI":"龍山里","LIN":"2鄰","STREET":" ","SECT":" ","MAREA":"龍山","LANE":" ","ALLEY":" ","HOUSE_NO":"１２號之６","E_COORD97":159317.32000000001,"N_COORD97":2559656.4300000002,"ADDRESS":"龍山１２號之６","OBJECTID":214300},"geometry":{"x":159317.32000000123,"y":2559656.4299999997}},{"attributes":{"ID":214302,"DIS_CODE":0,"TOWNNAME":"七股區","LI":"龍山里","LIN":"2鄰","STREET":" ","SECT":" ","MAREA":"龍山","LANE":" ","ALLEY":" ","HOUSE_NO":"１２號之７","E_COORD97":159319.25,"N_COORD97":2559671.4900000002,"ADDRESS":"龍山１２號之７","OBJECTID":214301},"geometry":{"x":159319.25000000093,"y":2559671.4900000021}},{"attributes":{"ID":214303,"DIS_CODE":0,"TOWNNAME":"七股區","LI":"龍山里","LIN":"2鄰","STREET":" ","SECT":" ","MAREA":"龍山","LANE":" ","ALLEY":" ","HOUSE_NO":"１２號","E_COORD97":159444.35000000001,"N_COORD97":2559740.5899999999,"ADDRESS":"龍山１２號","OBJECTID":214302},"geometry":{"x":159444.34999999963,"y":2559740.5899999999}},{"attributes":{"ID":214304,"DIS_CODE":0,"TOWNNAME":"七股區","LI":"龍山里","LIN":"2鄰","STREET":" ","SECT":" ","MAREA":"龍山","LANE":" ","ALLEY":" ","HOUSE_NO":"１３號","E_COORD97":159529.45000000001,"N_COORD97":2559777.48,"ADDRESS":"龍山１３號","OBJECTID":214303},"geometry":{"x":159529.45000000205,"y":2559777.4800000023}},{"attributes":{"ID":214305,"DIS_CODE":0,"TOWNNAME":"七股區","LI":"龍山里","LIN":"2鄰","STREET":" ","SECT":" ","MAREA":"龍山","LANE":" ","ALLEY":" ","HOUSE_NO":"１４號之１０","E_COORD97":159394,"N_COORD97":2559806.6699999999,"ADDRESS":"龍山１４號之１０","OBJECTID":214304},"geometry":{"x":159394.00000000093,"y":2559806.6700000018}},{"attributes":{"ID":214306,"DIS_CODE":0,"TOWNNAME":"七股區","LI":"龍山里","LIN":"2鄰","STREET":" ","SECT":" ","MAREA":"龍山","LANE":" ","ALLEY":" ","HOUSE_NO":"１４號之１１","E_COORD97":159383.04000000001,"N_COORD97":2559808.2400000002,"ADDRESS":"龍山１４號之１１","OBJECTID":214305},"geometry":{"x":159383.04000000097,"y":2559808.2399999984}},{"attributes":{"ID":214307,"DIS_CODE":0,"TOWNNAME":"七股區","LI":"龍山里","LIN":"2鄰","STREET":" ","SECT":" ","MAREA":"龍山","LANE":" ","ALLEY":" ","HOUSE_NO":"１４號之１２","E_COORD97":159378.73999999999,"N_COORD97":2559808.8900000001,"ADDRESS":"龍山１４號之１２","OBJECTID":214306},"geometry":{"x":159378.74000000115,"y":2559808.8900000025}},{"attributes":{"ID":214308,"DIS_CODE":0,"TOWNNAME":"七股區","LI":"龍山里","LIN":"2鄰","STREET":" ","SECT":" ","MAREA":"龍山","LANE":" ","ALLEY":" ","HOUSE_NO":"１４號之１３","E_COORD97":159374.44,"N_COORD97":2559809.54,"ADDRESS":"龍山１４號之１３","OBJECTID":214307},"geometry":{"x":159374.44000000134,"y":2559809.540000001}},{"attributes":{"ID":214309,"DIS_CODE":0,"TOWNNAME":"七股區","LI":"龍山里","LIN":"2鄰","STREET":" ","SECT":" ","MAREA":"龍山","LANE":" ","ALLEY":" ","HOUSE_NO":"１４號之１４","E_COORD97":159370.14000000001,"N_COORD97":2559810.2000000002,"ADDRESS":"龍山１４號之１４","OBJECTID":214308},"geometry":{"x":159370.1400000006,"y":2559810.1999999993}},{"attributes":{"ID":214310,"DIS_CODE":0,"TOWNNAME":"七股區","LI":"龍山里","LIN":"2鄰","STREET":" ","SECT":" ","MAREA":"龍山","LANE":" ","ALLEY":" ","HOUSE_NO":"１４號之１５","E_COORD97":159365.84,"N_COORD97":2559810.8500000001,"ADDRESS":"龍山１４號之１５","OBJECTID":214309},"geometry":{"x":159365.84000000078,"y":2559810.8500000015}},{"attributes":{"ID":214311,"DIS_CODE":0,"TOWNNAME":"七股區","LI":"龍山里","LIN":"2鄰","STREET":" ","SECT":" ","MAREA":"龍山","LANE":" ","ALLEY":" ","HOUSE_NO":"１４號之１６","E_COORD97":159474.62,"N_COORD97":2559810.8300000001,"ADDRESS":"龍山１４號之１６","OBJECTID":214310},"geometry":{"x":159474.62000000104,"y":2559810.8299999982}},{"attributes":{"ID":214312,"DIS_CODE":0,"TOWNNAME":"七股區","LI":"龍山里","LIN":"2鄰","STREET":" ","SECT":" ","MAREA":"龍山","LANE":" ","ALLEY":" ","HOUSE_NO":"１４號之１７","E_COORD97":159476.78,"N_COORD97":2559788.23,"ADDRESS":"龍山１４號之１７","OBJECTID":214311},"geometry":{"x":159476.78000000119,"y":2559788.2299999986}},{"attributes":{"ID":214313,"DIS_CODE":0,"TOWNNAME":"七股區","LI":"龍山里","LIN":"2鄰","STREET":" ","SECT":" ","MAREA":"龍山","LANE":" ","ALLEY":" ","HOUSE_NO":"１４號之１８","E_COORD97":159406.17000000001,"N_COORD97":2559804.77,"ADDRESS":"龍山１４號之１８","OBJECTID":214312},"geometry":{"x":159406.17000000086,"y":2559804.7700000014}},{"attributes":{"ID":214314,"DIS_CODE":0,"TOWNNAME":"中西區","LI":"赤嵌里","LIN":"20鄰","STREET":"赤崁東街","SECT":" ","MAREA":" ","LANE":"９０巷","ALLEY":" ","HOUSE_NO":"８號","E_COORD97":168359.635744,"N_COORD97":2544250.9154699999,"ADDRESS":"赤崁東街９０巷８號","OBJECTID":214313},"geometry":{"x":168359.63574400172,"y":2544250.9154659994}},{"attributes":{"ID":214315,"DIS_CODE":0,"TOWNNAME":"中西區","LI":"赤嵌里","LIN":"20鄰","STREET":"赤崁東街","SECT":" ","MAREA":" ","LANE":"９０巷","ALLEY":" ","HOUSE_NO":"１０號","E_COORD97":168361.754591,"N_COORD97":2544250.0688,"ADDRESS":"赤崁東街９０巷１０號","OBJECTID":214314},"geometry":{"x":168361.75459100027,"y":2544250.0688000023}},{"attributes":{"ID":214316,"DIS_CODE":0,"TOWNNAME":"關廟區","LI":"田中里","LIN":"6鄰","STREET":"南雄南路","SECT":" ","MAREA":" ","LANE":"５６３巷","ALLEY":" ","HOUSE_NO":"８號","E_COORD97":183649.36478999999,"N_COORD97":2532864.6629400002,"ADDRESS":"南雄南路５６３巷８號","OBJECTID":214315},"geometry":{"x":183649.36479000002,"y":2532864.6629399993}},{"attributes":{"ID":214317,"DIS_CODE":0,"TOWNNAME":"歸仁區","LI":"大潭里","LIN":"9鄰","STREET":"長榮路","SECT":"一段","MAREA":" ","LANE":"５６０巷","ALLEY":" ","HOUSE_NO":"２００號","E_COORD97":175921.46569800001,"N_COORD97":2534067.2072100001,"ADDRESS":"長榮路一段５６０巷２００號","OBJECTID":214316},"geometry":{"x":175921.46569800004,"y":2534067.2072100025}},{"attributes":{"ID":214318,"DIS_CODE":0,"TOWNNAME":"歸仁區","LI":"大潭里","LIN":"9鄰","STREET":"長榮路","SECT":"一段","MAREA":" ","LANE":"５６０巷","ALLEY":" ","HOUSE_NO":"１９８號","E_COORD97":175914.47403400001,"N_COORD97":2534068.9005399998,"ADDRESS":"長榮路一段５６０巷１９８號","OBJECTID":214317},"geometry":{"x":175914.47403400112,"y":2534068.9005420022}},{"attributes":{"ID":214319,"DIS_CODE":0,"TOWNNAME":"安南區","LI":"安富里","LIN":"5鄰","STREET":"郡安路","SECT":"五段","MAREA":" ","LANE":"１８４巷","ALLEY":"５２弄","HOUSE_NO":"４６號","E_COORD97":167316.5,"N_COORD97":2547594.54,"ADDRESS":"郡安路五段１８４巷５２弄４６號","OBJECTID":214318},"geometry":{"x":167316.50000000186,"y":2547594.540000001}},{"attributes":{"ID":214320,"DIS_CODE":0,"TOWNNAME":"永康區","LI":"龍潭里","LIN":"28鄰","STREET":"中山北路","SECT":" ","MAREA":" ","LANE":"３８５巷","ALLEY":"６弄","HOUSE_NO":"１７號之２","E_COORD97":174953.03,"N_COORD97":2547760.6800000002,"ADDRESS":"中山北路３８５巷６弄１７號之２","OBJECTID":214319},"geometry":{"x":174953.03000000026,"y":2547760.6799999997}},{"attributes":{"ID":214321,"DIS_CODE":0,"TOWNNAME":"永康區","LI":"北灣里","LIN":"28鄰","STREET":"文賢街","SECT":" ","MAREA":" ","LANE":"７８巷","ALLEY":"１９弄","HOUSE_NO":"５６號","E_COORD97":175464.67999999999,"N_COORD97":2545425.6499999999,"ADDRESS":"文賢街７８巷１９弄５６號","OBJECTID":214320},"geometry":{"x":175464.6799999997,"y":2545425.6500000004}},{"attributes":{"ID":214322,"DIS_CODE":0,"TOWNNAME":"佳里區","LI":"安西里","LIN":"28鄰","STREET":"忠孝路","SECT":" ","MAREA":" ","LANE":"２２９巷","ALLEY":"３２弄","HOUSE_NO":"１０號","E_COORD97":165171.79999999999,"N_COORD97":2563113.3799999999,"ADDRESS":"忠孝路２２９巷３２弄１０號","OBJECTID":214321},"geometry":{"x":165171.80000000075,"y":2563113.3800000008}},{"attributes":{"ID":214323,"DIS_CODE":0,"TOWNNAME":"佳里區","LI":"安西里","LIN":"28鄰","STREET":"忠孝路","SECT":" ","MAREA":" ","LANE":"２２９巷","ALLEY":"３２弄","HOUSE_NO":"１２號","E_COORD97":165184.12,"N_COORD97":2563126.4399999999,"ADDRESS":"忠孝路２２９巷３２弄１２號","OBJECTID":214322},"geometry":{"x":165184.12000000104,"y":2563126.4400000013}},{"attributes":{"ID":214324,"DIS_CODE":0,"TOWNNAME":"佳里區","LI":"安西里","LIN":"28鄰","STREET":"忠孝路","SECT":" ","MAREA":" ","LANE":"２２９巷","ALLEY":"３２弄","HOUSE_NO":"１６號","E_COORD97":165186.73999999999,"N_COORD97":2563129.6800000002,"ADDRESS":"忠孝路２２９巷３２弄１６號","OBJECTID":214323},"geometry":{"x":165186.74000000115,"y":2563129.6799999997}},{"attributes":{"ID":214325,"DIS_CODE":0,"TOWNNAME":"佳里區","LI":"安西里","LIN":"28鄰","STREET":"忠孝路","SECT":" ","MAREA":" ","LANE":"２２９巷","ALLEY":"３２弄","HOUSE_NO":"１８號","E_COORD97":165189.32000000001,"N_COORD97":2563132.9100000001,"ADDRESS":"忠孝路２２９巷３２弄１８號","OBJECTID":214324},"geometry":{"x":165189.32000000123,"y":2563132.9100000001}},{"attributes":{"ID":214326,"DIS_CODE":0,"TOWNNAME":"佳里區","LI":"安西里","LIN":"28鄰","STREET":"忠孝路","SECT":" ","MAREA":" ","LANE":"２２９巷","ALLEY":"３２弄","HOUSE_NO":"１號","E_COORD97":165184.45999999999,"N_COORD97":2563085.5299999998,"ADDRESS":"忠孝路２２９巷３２弄１號","OBJECTID":214325},"geometry":{"x":165184.46000000089,"y":2563085.5300000012}},{"attributes":{"ID":214327,"DIS_CODE":0,"TOWNNAME":"佳里區","LI":"安西里","LIN":"28鄰","STREET":"忠孝路","SECT":" ","MAREA":" ","LANE":"２２９巷","ALLEY":"３２弄","HOUSE_NO":"２０號","E_COORD97":165191.25,"N_COORD97":2563135.9399999999,"ADDRESS":"忠孝路２２９巷３２弄２０號","OBJECTID":214326},"geometry":{"x":165191.25000000093,"y":2563135.9400000032}},{"attributes":{"ID":214328,"DIS_CODE":0,"TOWNNAME":"佳里區","LI":"安西里","LIN":"28鄰","STREET":"忠孝路","SECT":" ","MAREA":" ","LANE":"２２９巷","ALLEY":"３２弄","HOUSE_NO":"２２號","E_COORD97":165193.75,"N_COORD97":2563139.3300000001,"ADDRESS":"忠孝路２２９巷３２弄２２號","OBJECTID":214327},"geometry":{"x":165193.75,"y":2563139.3300000001}},{"attributes":{"ID":214329,"DIS_CODE":0,"TOWNNAME":"佳里區","LI":"安西里","LIN":"28鄰","STREET":"忠孝路","SECT":" ","MAREA":" ","LANE":"２２９巷","ALLEY":"３２弄","HOUSE_NO":"２６號","E_COORD97":165195.98999999999,"N_COORD97":2563142.3799999999,"ADDRESS":"忠孝路２２９巷３２弄２６號","OBJECTID":214328},"geometry":{"x":165195.99000000022,"y":2563142.3800000027}},{"attributes":{"ID":214330,"DIS_CODE":0,"TOWNNAME":"佳里區","LI":"安西里","LIN":"28鄰","STREET":"忠孝路","SECT":" ","MAREA":" ","LANE":"２２９巷","ALLEY":"３２弄","HOUSE_NO":"２８號","E_COORD97":165198.51999999999,"N_COORD97":2563145.9500000002,"ADDRESS":"忠孝路２２９巷３２弄２８號","OBJECTID":214329},"geometry":{"x":165198.51999999862,"y":2563145.9500000011}},{"attributes":{"ID":214331,"DIS_CODE":0,"TOWNNAME":"西港區","LI":"劉厝里","LIN":"9鄰","STREET":" ","SECT":" ","MAREA":"劉厝","LANE":" ","ALLEY":" ","HOUSE_NO":"６８號","E_COORD97":166020.97,"N_COORD97":2558840.9100000001,"ADDRESS":"劉厝６８號","OBJECTID":214330},"geometry":{"x":166020.96999999974,"y":2558840.9100000039}},{"attributes":{"ID":214332,"DIS_CODE":0,"TOWNNAME":"佳里區","LI":"安西里","LIN":"28鄰","STREET":"忠孝路","SECT":" ","MAREA":" ","LANE":"２２９巷","ALLEY":"３２弄","HOUSE_NO":"２號","E_COORD97":165182.19,"N_COORD97":2563105.6699999999,"ADDRESS":"忠孝路２２９巷３２弄２號","OBJECTID":214331},"geometry":{"x":165182.19000000134,"y":2563105.6700000018}},{"attributes":{"ID":214333,"DIS_CODE":0,"TOWNNAME":"善化區","LI":"溪美里","LIN":" ","STREET":" ","SECT":" ","MAREA":"溪尾","LANE":" ","ALLEY":" ","HOUSE_NO":"６９之１號","E_COORD97":176747.04000000001,"N_COORD97":2561257.77,"ADDRESS":"溪尾６９之１號","OBJECTID":214332},"geometry":{"x":176747.04000000097,"y":2561257.7699999996}},{"attributes":{"ID":214334,"DIS_CODE":0,"TOWNNAME":"善化區","LI":"嘉北里","LIN":"1鄰","STREET":" ","SECT":" ","MAREA":"茄拔","LANE":" ","ALLEY":" ","HOUSE_NO":"３號之１","E_COORD97":181231.95000000001,"N_COORD97":2560091.27,"ADDRESS":"茄拔３號之１","OBJECTID":214333},"geometry":{"x":181231.95000000112,"y":2560091.2699999996}},{"attributes":{"ID":214335,"DIS_CODE":0,"TOWNNAME":"七股區","LI":"龍山里","LIN":"2鄰","STREET":" ","SECT":" ","MAREA":"龍山","LANE":" ","ALLEY":" ","HOUSE_NO":"１４號之１９","E_COORD97":159390.16,"N_COORD97":2559807.1000000001,"ADDRESS":"龍山１４號之１９","OBJECTID":214334},"geometry":{"x":159390.16000000015,"y":2559807.0999999996}},{"attributes":{"ID":214336,"DIS_CODE":0,"TOWNNAME":"七股區","LI":"龍山里","LIN":"2鄰","STREET":" ","SECT":" ","MAREA":"龍山","LANE":" ","ALLEY":" ","HOUSE_NO":"１４號之１","E_COORD97":159481.01999999999,"N_COORD97":2559787.7799999998,"ADDRESS":"龍山１４號之１","OBJECTID":214335},"geometry":{"x":159481.02000000048,"y":2559787.7800000012}},{"attributes":{"ID":214337,"DIS_CODE":0,"TOWNNAME":"七股區","LI":"龍山里","LIN":"2鄰","STREET":" ","SECT":" ","MAREA":"龍山","LANE":" ","ALLEY":" ","HOUSE_NO":"１４號之２０","E_COORD97":159454.39000000001,"N_COORD97":2559799.2200000002,"ADDRESS":"龍山１４號之２０","OBJECTID":214336},"geometry":{"x":159454.38999999966,"y":2559799.2200000025}},{"attributes":{"ID":214338,"DIS_CODE":0,"TOWNNAME":"七股區","LI":"龍山里","LIN":"2鄰","STREET":" ","SECT":" ","MAREA":"龍山","LANE":" ","ALLEY":" ","HOUSE_NO":"１４號之２１","E_COORD97":159447.47,"N_COORD97":2559799.4100000001,"ADDRESS":"龍山１４號之２１","OBJECTID":214337},"geometry":{"x":159447.4700000016,"y":2559799.4100000001}},{"attributes":{"ID":214339,"DIS_CODE":0,"TOWNNAME":"七股區","LI":"龍山里","LIN":"2鄰","STREET":" ","SECT":" ","MAREA":"龍山","LANE":" ","ALLEY":" ","HOUSE_NO":"１４號之２３","E_COORD97":159472.79000000001,"N_COORD97":2559788.8700000001,"ADDRESS":"龍山１４號之２３","OBJECTID":214338},"geometry":{"x":159472.7900000019,"y":2559788.8700000029}},{"attributes":{"ID":214340,"DIS_CODE":0,"TOWNNAME":"佳里區","LI":"安西里","LIN":"28鄰","STREET":"忠孝路","SECT":" ","MAREA":" ","LANE":"２２９巷","ALLEY":"３２弄","HOUSE_NO":"３０號","E_COORD97":165201.35000000001,"N_COORD97":2563149.2799999998,"ADDRESS":"忠孝路２２９巷３２弄３０號","OBJECTID":214339},"geometry":{"x":165201.34999999963,"y":2563149.2799999993}},{"attributes":{"ID":214341,"DIS_CODE":0,"TOWNNAME":"七股區","LI":"龍山里","LIN":"2鄰","STREET":" ","SECT":" ","MAREA":"龍山","LANE":" ","ALLEY":" ","HOUSE_NO":"１４號之２４","E_COORD97":159468.54999999999,"N_COORD97":2559789.46,"ADDRESS":"龍山１４號之２４","OBJECTID":214340},"geometry":{"x":159468.54999999981,"y":2559789.4600000009}},{"attributes":{"ID":214342,"DIS_CODE":0,"TOWNNAME":"七股區","LI":"龍山里","LIN":"2鄰","STREET":" ","SECT":" ","MAREA":"龍山","LANE":" ","ALLEY":" ","HOUSE_NO":"１４號之２５","E_COORD97":159464.41,"N_COORD97":2559790.3500000001,"ADDRESS":"龍山１４號之２５","OBJECTID":214341},"geometry":{"x":159464.41000000015,"y":2559790.3500000034}},{"attributes":{"ID":214343,"DIS_CODE":0,"TOWNNAME":"佳里區","LI":"安西里","LIN":"28鄰","STREET":"忠孝路","SECT":" ","MAREA":" ","LANE":"２２９巷","ALLEY":"３２弄","HOUSE_NO":"３２號","E_COORD97":165180.64000000001,"N_COORD97":2563148.3199999998,"ADDRESS":"忠孝路２２９巷３２弄３２號","OBJECTID":214342},"geometry":{"x":165180.63999999966,"y":2563148.3200000022}},{"attributes":{"ID":214344,"DIS_CODE":0,"TOWNNAME":"佳里區","LI":"安西里","LIN":"28鄰","STREET":"忠孝路","SECT":" ","MAREA":" ","LANE":"２２９巷","ALLEY":"３２弄","HOUSE_NO":"３６號","E_COORD97":165177.19,"N_COORD97":2563143.1299999999,"ADDRESS":"忠孝路２２９巷３２弄３６號","OBJECTID":214343},"geometry":{"x":165177.19000000134,"y":2563143.129999999}},{"attributes":{"ID":214345,"DIS_CODE":0,"TOWNNAME":"佳里區","LI":"安西里","LIN":"28鄰","STREET":"忠孝路","SECT":" ","MAREA":" ","LANE":"２２９巷","ALLEY":"３２弄","HOUSE_NO":"３８號","E_COORD97":165174.85000000001,"N_COORD97":2563139.1400000001,"ADDRESS":"忠孝路２２９巷３２弄３８號","OBJECTID":214344},"geometry":{"x":165174.85000000056,"y":2563139.1400000043}},{"attributes":{"ID":214346,"DIS_CODE":0,"TOWNNAME":"佳里區","LI":"安西里","LIN":"28鄰","STREET":"忠孝路","SECT":" ","MAREA":" ","LANE":"２２９巷","ALLEY":"３２弄","HOUSE_NO":"３號","E_COORD97":165181.34,"N_COORD97":2563087.96,"ADDRESS":"忠孝路２２９巷３２弄３號","OBJECTID":214345},"geometry":{"x":165181.33999999985,"y":2563087.9600000009}},{"attributes":{"ID":214347,"DIS_CODE":0,"TOWNNAME":"佳里區","LI":"安西里","LIN":"28鄰","STREET":"忠孝路","SECT":" ","MAREA":" ","LANE":"２２９巷","ALLEY":"３２弄","HOUSE_NO":"４０號","E_COORD97":165172.23999999999,"N_COORD97":2563135.9199999999,"ADDRESS":"忠孝路２２９巷３２弄４０號","OBJECTID":214346},"geometry":{"x":165172.24000000022,"y":2563135.9199999999}},{"attributes":{"ID":214348,"DIS_CODE":0,"TOWNNAME":"佳里區","LI":"安西里","LIN":"28鄰","STREET":"忠孝路","SECT":" ","MAREA":" ","LANE":"２２９巷","ALLEY":"３２弄","HOUSE_NO":"４２號","E_COORD97":165168.70999999999,"N_COORD97":2563131.1099999999,"ADDRESS":"忠孝路２２９巷３２弄４２號","OBJECTID":214347},"geometry":{"x":165168.70999999996,"y":2563131.1100000031}},{"attributes":{"ID":214349,"DIS_CODE":0,"TOWNNAME":"佳里區","LI":"安西里","LIN":"28鄰","STREET":"忠孝路","SECT":" ","MAREA":" ","LANE":"２２９巷","ALLEY":"３２弄","HOUSE_NO":"４６號","E_COORD97":165166.10999999999,"N_COORD97":2563123.8799999999,"ADDRESS":"忠孝路２２９巷３２弄４６號","OBJECTID":214348},"geometry":{"x":165166.11000000034,"y":2563123.879999999}},{"attributes":{"ID":214350,"DIS_CODE":0,"TOWNNAME":"佳里區","LI":"安西里","LIN":"28鄰","STREET":"忠孝路","SECT":" ","MAREA":" ","LANE":"２２９巷","ALLEY":"３２弄","HOUSE_NO":"５號","E_COORD97":165177.89999999999,"N_COORD97":2563090.1699999999,"ADDRESS":"忠孝路２２９巷３２弄５號","OBJECTID":214349},"geometry":{"x":165177.90000000037,"y":2563090.1699999999}},{"attributes":{"ID":214351,"DIS_CODE":0,"TOWNNAME":"佳里區","LI":"安西里","LIN":"28鄰","STREET":"忠孝路","SECT":" ","MAREA":" ","LANE":"２２９巷","ALLEY":"３２弄","HOUSE_NO":"６號","E_COORD97":165178.39000000001,"N_COORD97":2563108.8700000001,"ADDRESS":"忠孝路２２９巷３２弄６號","OBJECTID":214350},"geometry":{"x":165178.3900000006,"y":2563108.8700000029}},{"attributes":{"ID":214352,"DIS_CODE":0,"TOWNNAME":"佳里區","LI":"安西里","LIN":"28鄰","STREET":"忠孝路","SECT":" ","MAREA":" ","LANE":"２２９巷","ALLEY":"３２弄","HOUSE_NO":"７號","E_COORD97":165173.73000000001,"N_COORD97":2563093.2000000002,"ADDRESS":"忠孝路２２９巷３２弄７號","OBJECTID":214351},"geometry":{"x":165173.73000000045,"y":2563093.200000003}},{"attributes":{"ID":214353,"DIS_CODE":0,"TOWNNAME":"佳里區","LI":"安西里","LIN":"28鄰","STREET":"忠孝路","SECT":" ","MAREA":" ","LANE":"２２９巷","ALLEY":"３２弄","HOUSE_NO":"８號","E_COORD97":165174.98000000001,"N_COORD97":2563111.3500000001,"ADDRESS":"忠孝路２２９巷３２弄８號","OBJECTID":214352},"geometry":{"x":165174.98000000138,"y":2563111.3499999996}},{"attributes":{"ID":214354,"DIS_CODE":0,"TOWNNAME":"佳里區","LI":"安西里","LIN":"28鄰","STREET":"忠孝路","SECT":" ","MAREA":" ","LANE":"２２９巷","ALLEY":"３２弄","HOUSE_NO":"９號","E_COORD97":165170.29000000001,"N_COORD97":2563096.3700000001,"ADDRESS":"忠孝路２２９巷３２弄９號","OBJECTID":214353},"geometry":{"x":165170.2900000019,"y":2563096.370000001}},{"attributes":{"ID":214355,"DIS_CODE":0,"TOWNNAME":"新營區","LI":"王公里","LIN":"28鄰","STREET":"大公街","SECT":" ","MAREA":" ","LANE":"４６巷","ALLEY":"４弄","HOUSE_NO":"１２號","E_COORD97":180203.13,"N_COORD97":2579603.8999999999,"ADDRESS":"大公街４６巷４弄１２號","OBJECTID":214354},"geometry":{"x":180203.13000000082,"y":2579603.9000000041}},{"attributes":{"ID":214356,"DIS_CODE":0,"TOWNNAME":"新營區","LI":"王公里","LIN":"28鄰","STREET":"大公街","SECT":" ","MAREA":" ","LANE":"４６巷","ALLEY":"４弄","HOUSE_NO":"２號","E_COORD97":180229.54000000001,"N_COORD97":2579599.3399999999,"ADDRESS":"大公街４６巷４弄２號","OBJECTID":214355},"geometry":{"x":180229.54000000004,"y":2579599.3399999999}},{"attributes":{"ID":214357,"DIS_CODE":0,"TOWNNAME":"六甲區","LI":"六甲里","LIN":"28鄰","STREET":"中正路","SECT":" ","MAREA":" ","LANE":"４８５巷","ALLEY":"４１弄","HOUSE_NO":"１１號","E_COORD97":183484.53,"N_COORD97":2569966.5800000001,"ADDRESS":"中正路４８５巷４１弄１１號","OBJECTID":214356},"geometry":{"x":183484.53000000026,"y":2569966.5800000001}},{"attributes":{"ID":214358,"DIS_CODE":0,"TOWNNAME":"六甲區","LI":"六甲里","LIN":"28鄰","STREET":"中正路","SECT":" ","MAREA":" ","LANE":"４８５巷","ALLEY":"４１弄","HOUSE_NO":"１３號","E_COORD97":183485.98999999999,"N_COORD97":2569970.5499999998,"ADDRESS":"中正路４８５巷４１弄１３號","OBJECTID":214357},"geometry":{"x":183485.99000000115,"y":2569970.5500000007}},{"attributes":{"ID":214359,"DIS_CODE":0,"TOWNNAME":"六甲區","LI":"六甲里","LIN":"28鄰","STREET":"中正路","SECT":" ","MAREA":" ","LANE":"４８５巷","ALLEY":"４１弄","HOUSE_NO":"１５號","E_COORD97":183487.32999999999,"N_COORD97":2569974.5600000001,"ADDRESS":"中正路４８５巷４１弄１５號","OBJECTID":214358},"geometry":{"x":183487.33000000101,"y":2569974.5600000042}},{"attributes":{"ID":214360,"DIS_CODE":0,"TOWNNAME":"六甲區","LI":"六甲里","LIN":"28鄰","STREET":"中正路","SECT":" ","MAREA":" ","LANE":"４８５巷","ALLEY":"４１弄","HOUSE_NO":"１７號","E_COORD97":183488.62,"N_COORD97":2569978.8199999998,"ADDRESS":"中正路４８５巷４１弄１７號","OBJECTID":214359},"geometry":{"x":183488.62000000104,"y":2569978.8200000003}},{"attributes":{"ID":214361,"DIS_CODE":0,"TOWNNAME":"六甲區","LI":"六甲里","LIN":"28鄰","STREET":"中正路","SECT":" ","MAREA":" ","LANE":"４８５巷","ALLEY":"４１弄","HOUSE_NO":"１號","E_COORD97":183465.47,"N_COORD97":2569956.0099999998,"ADDRESS":"中正路４８５巷４１弄１號","OBJECTID":214360},"geometry":{"x":183465.47000000067,"y":2569956.0099999998}},{"attributes":{"ID":214362,"DIS_CODE":0,"TOWNNAME":"六甲區","LI":"六甲里","LIN":"28鄰","STREET":"中正路","SECT":" ","MAREA":" ","LANE":"４８５巷","ALLEY":"４１弄","HOUSE_NO":"２０號","E_COORD97":183486.35000000001,"N_COORD97":2569929.2400000002,"ADDRESS":"中正路４８５巷４１弄２０號","OBJECTID":214361},"geometry":{"x":183486.35000000056,"y":2569929.2400000021}},{"attributes":{"ID":214363,"DIS_CODE":0,"TOWNNAME":"善化區","LI":"溪美里","LIN":"1鄰","STREET":" ","SECT":" ","MAREA":"溪尾","LANE":" ","ALLEY":" ","HOUSE_NO":"６５５號","E_COORD97":177136.48999999999,"N_COORD97":2560992.02,"ADDRESS":"溪尾６５５號","OBJECTID":214362},"geometry":{"x":177136.49000000022,"y":2560992.0199999996}},{"attributes":{"ID":214364,"DIS_CODE":0,"TOWNNAME":"六甲區","LI":"六甲里","LIN":"28鄰","STREET":"中正路","SECT":" ","MAREA":" ","LANE":"４８５巷","ALLEY":"４１弄","HOUSE_NO":"２７號","E_COORD97":183500.60000000001,"N_COORD97":2569962.6000000001,"ADDRESS":"中正路４８５巷４１弄２７號","OBJECTID":214363},"geometry":{"x":183500.59999999963,"y":2569962.5999999996}},{"attributes":{"ID":214365,"DIS_CODE":0,"TOWNNAME":"七股區","LI":"龍山里","LIN":"2鄰","STREET":" ","SECT":" ","MAREA":"龍山","LANE":" ","ALLEY":" ","HOUSE_NO":"１４號之２６","E_COORD97":159460.32000000001,"N_COORD97":2559791.0800000001,"ADDRESS":"龍山１４號之２６","OBJECTID":214364},"geometry":{"x":159460.3200000003,"y":2559791.0800000001}},{"attributes":{"ID":214366,"DIS_CODE":0,"TOWNNAME":"七股區","LI":"龍山里","LIN":"2鄰","STREET":" ","SECT":" ","MAREA":"龍山","LANE":" ","ALLEY":" ","HOUSE_NO":"１４號之２","E_COORD97":159441.16,"N_COORD97":2559798.5,"ADDRESS":"龍山１４號之２","OBJECTID":214365},"geometry":{"x":159441.16000000015,"y":2559798.5}},{"attributes":{"ID":214367,"DIS_CODE":0,"TOWNNAME":"七股區","LI":"龍山里","LIN":"2鄰","STREET":" ","SECT":" ","MAREA":"龍山","LANE":" ","ALLEY":" ","HOUSE_NO":"１４號之３","E_COORD97":159431.42000000001,"N_COORD97":2559797.27,"ADDRESS":"龍山１４號之３","OBJECTID":214366},"geometry":{"x":159431.42000000086,"y":2559797.2700000033}},{"attributes":{"ID":214368,"DIS_CODE":0,"TOWNNAME":"七股區","LI":"龍山里","LIN":"2鄰","STREET":" ","SECT":" ","MAREA":"龍山","LANE":" ","ALLEY":" ","HOUSE_NO":"１４號之４","E_COORD97":159423.06,"N_COORD97":2559802.8399999999,"ADDRESS":"龍山１４號之４","OBJECTID":214367},"geometry":{"x":159423.06000000052,"y":2559802.8399999999}},{"attributes":{"ID":214369,"DIS_CODE":0,"TOWNNAME":"七股區","LI":"龍山里","LIN":"2鄰","STREET":" ","SECT":" ","MAREA":"龍山","LANE":" ","ALLEY":" ","HOUSE_NO":"１４號之５","E_COORD97":159418.51000000001,"N_COORD97":2559803.4500000002,"ADDRESS":"龍山１４號之５","OBJECTID":214368},"geometry":{"x":159418.51000000071,"y":2559803.4500000011}},{"attributes":{"ID":214370,"DIS_CODE":0,"TOWNNAME":"七股區","LI":"龍山里","LIN":"2鄰","STREET":" ","SECT":" ","MAREA":"龍山","LANE":" ","ALLEY":" ","HOUSE_NO":"１４號之６","E_COORD97":159414.45999999999,"N_COORD97":2559803.9700000002,"ADDRESS":"龍山１４號之６","OBJECTID":214369},"geometry":{"x":159414.46000000089,"y":2559803.9700000044}},{"attributes":{"ID":214371,"DIS_CODE":0,"TOWNNAME":"七股區","LI":"龍山里","LIN":"2鄰","STREET":" ","SECT":" ","MAREA":"龍山","LANE":" ","ALLEY":" ","HOUSE_NO":"１４號之７","E_COORD97":159410.22,"N_COORD97":2559804.3500000001,"ADDRESS":"龍山１４號之７","OBJECTID":214370},"geometry":{"x":159410.2200000016,"y":2559804.3500000015}},{"attributes":{"ID":214372,"DIS_CODE":0,"TOWNNAME":"七股區","LI":"龍山里","LIN":"2鄰","STREET":" ","SECT":" ","MAREA":"龍山","LANE":" ","ALLEY":" ","HOUSE_NO":"１４號之８","E_COORD97":159402.31,"N_COORD97":2559805.5299999998,"ADDRESS":"龍山１４號之８","OBJECTID":214371},"geometry":{"x":159402.30999999959,"y":2559805.5300000031}},{"attributes":{"ID":214373,"DIS_CODE":0,"TOWNNAME":"七股區","LI":"龍山里","LIN":"2鄰","STREET":" ","SECT":" ","MAREA":"龍山","LANE":" ","ALLEY":" ","HOUSE_NO":"１４號之９","E_COORD97":159398.35000000001,"N_COORD97":2559806.04,"ADDRESS":"龍山１４號之９","OBJECTID":214372},"geometry":{"x":159398.34999999963,"y":2559806.040000001}},{"attributes":{"ID":214374,"DIS_CODE":0,"TOWNNAME":"七股區","LI":"龍山里","LIN":"2鄰","STREET":" ","SECT":" ","MAREA":"龍山","LANE":" ","ALLEY":" ","HOUSE_NO":"１４號","E_COORD97":159460.26000000001,"N_COORD97":2559809.6699999999,"ADDRESS":"龍山１４號","OBJECTID":214373},"geometry":{"x":159460.25999999978,"y":2559809.6700000018}},{"attributes":{"ID":214375,"DIS_CODE":0,"TOWNNAME":"七股區","LI":"龍山里","LIN":"2鄰","STREET":" ","SECT":" ","MAREA":"龍山","LANE":" ","ALLEY":" ","HOUSE_NO":"２１號之１","E_COORD97":159552.56,"N_COORD97":2559842.6699999999,"ADDRESS":"龍山２１號之１","OBJECTID":214374},"geometry":{"x":159552.56000000052,"y":2559842.6700000037}},{"attributes":{"ID":214376,"DIS_CODE":0,"TOWNNAME":"七股區","LI":"龍山里","LIN":"2鄰","STREET":" ","SECT":" ","MAREA":"龍山","LANE":" ","ALLEY":" ","HOUSE_NO":"２１號","E_COORD97":159547.56,"N_COORD97":2559863.8599999999,"ADDRESS":"龍山２１號","OBJECTID":214375},"geometry":{"x":159547.55999999959,"y":2559863.8599999994}},{"attributes":{"ID":214377,"DIS_CODE":0,"TOWNNAME":"七股區","LI":"龍山里","LIN":"2鄰","STREET":" ","SECT":" ","MAREA":"龍山","LANE":" ","ALLEY":" ","HOUSE_NO":"２２號","E_COORD97":159561.91,"N_COORD97":2559868.0099999998,"ADDRESS":"龍山２２號","OBJECTID":214376},"geometry":{"x":159561.91000000201,"y":2559868.0100000016}},{"attributes":{"ID":214378,"DIS_CODE":0,"TOWNNAME":"將軍區","LI":"三吉里","LIN":"2鄰","STREET":" ","SECT":" ","MAREA":"三吉","LANE":" ","ALLEY":" ","HOUSE_NO":"１０號","E_COORD97":161372.35999999999,"N_COORD97":2567683.6699999999,"ADDRESS":"三吉１０號","OBJECTID":214377},"geometry":{"x":161372.36000000034,"y":2567683.6699999999}},{"attributes":{"ID":214379,"DIS_CODE":0,"TOWNNAME":"將軍區","LI":"三吉里","LIN":"2鄰","STREET":" ","SECT":" ","MAREA":"三吉","LANE":" ","ALLEY":" ","HOUSE_NO":"１１號","E_COORD97":161390.70000000001,"N_COORD97":2567678.6299999999,"ADDRESS":"三吉１１號","OBJECTID":214378},"geometry":{"x":161390.70000000205,"y":2567678.6300000008}},{"attributes":{"ID":214380,"DIS_CODE":0,"TOWNNAME":"將軍區","LI":"三吉里","LIN":"2鄰","STREET":" ","SECT":" ","MAREA":"三吉","LANE":" ","ALLEY":" ","HOUSE_NO":"１２之１號","E_COORD97":161406.56,"N_COORD97":2567707.4399999999,"ADDRESS":"三吉１２之１號","OBJECTID":214379},"geometry":{"x":161406.56000000052,"y":2567707.4400000013}},{"attributes":{"ID":214381,"DIS_CODE":0,"TOWNNAME":"將軍區","LI":"三吉里","LIN":"2鄰","STREET":" ","SECT":" ","MAREA":"三吉","LANE":" ","ALLEY":" ","HOUSE_NO":"５之１號","E_COORD97":161346.47,"N_COORD97":2567702.8900000001,"ADDRESS":"三吉５之１號","OBJECTID":214380},"geometry":{"x":161346.47000000067,"y":2567702.8900000006}},{"attributes":{"ID":214382,"DIS_CODE":0,"TOWNNAME":"將軍區","LI":"三吉里","LIN":"2鄰","STREET":" ","SECT":" ","MAREA":"三吉","LANE":" ","ALLEY":" ","HOUSE_NO":"５號","E_COORD97":161352.10999999999,"N_COORD97":2567716.8300000001,"ADDRESS":"三吉５號","OBJECTID":214381},"geometry":{"x":161352.11000000034,"y":2567716.8300000001}},{"attributes":{"ID":214383,"DIS_CODE":0,"TOWNNAME":"將軍區","LI":"三吉里","LIN":"2鄰","STREET":" ","SECT":" ","MAREA":"三吉","LANE":" ","ALLEY":" ","HOUSE_NO":"６號","E_COORD97":161317.22,"N_COORD97":2567742.5,"ADDRESS":"三吉６號","OBJECTID":214382},"geometry":{"x":161317.2200000016,"y":2567742.5}},{"attributes":{"ID":214384,"DIS_CODE":0,"TOWNNAME":"將軍區","LI":"三吉里","LIN":"2鄰","STREET":" ","SECT":" ","MAREA":"三吉","LANE":" ","ALLEY":" ","HOUSE_NO":"７號","E_COORD97":161302.34,"N_COORD97":2567739.9900000002,"ADDRESS":"三吉７號","OBJECTID":214383},"geometry":{"x":161302.33999999985,"y":2567739.9899999984}},{"attributes":{"ID":214385,"DIS_CODE":0,"TOWNNAME":"西港區","LI":"劉厝里","LIN":"9鄰","STREET":" ","SECT":" ","MAREA":"劉厝","LANE":" ","ALLEY":" ","HOUSE_NO":"５９號","E_COORD97":165969.72,"N_COORD97":2558745.2400000002,"ADDRESS":"劉厝５９號","OBJECTID":214384},"geometry":{"x":165969.71999999974,"y":2558745.2400000021}},{"attributes":{"ID":214386,"DIS_CODE":0,"TOWNNAME":"西港區","LI":"劉厝里","LIN":"9鄰","STREET":" ","SECT":" ","MAREA":"劉厝","LANE":" ","ALLEY":" ","HOUSE_NO":"６１號之１","E_COORD97":165988.31,"N_COORD97":2558778.2400000002,"ADDRESS":"劉厝６１號之１","OBJECTID":214385},"geometry":{"x":165988.31000000145,"y":2558778.2400000021}},{"attributes":{"ID":214387,"DIS_CODE":0,"TOWNNAME":"西港區","LI":"劉厝里","LIN":"9鄰","STREET":" ","SECT":" ","MAREA":"劉厝","LANE":" ","ALLEY":" ","HOUSE_NO":"６１號之３","E_COORD97":165991.39000000001,"N_COORD97":2558746.5600000001,"ADDRESS":"劉厝６１號之３","OBJECTID":214386},"geometry":{"x":165991.39000000153,"y":2558746.5600000024}},{"attributes":{"ID":214388,"DIS_CODE":0,"TOWNNAME":"西港區","LI":"劉厝里","LIN":"9鄰","STREET":" ","SECT":" ","MAREA":"劉厝","LANE":" ","ALLEY":" ","HOUSE_NO":"６１號","E_COORD97":166005.79000000001,"N_COORD97":2558767.1699999999,"ADDRESS":"劉厝６１號","OBJECTID":214387},"geometry":{"x":166005.79000000004,"y":2558767.1699999999}},{"attributes":{"ID":214389,"DIS_CODE":0,"TOWNNAME":"西港區","LI":"劉厝里","LIN":"9鄰","STREET":" ","SECT":" ","MAREA":"劉厝","LANE":" ","ALLEY":" ","HOUSE_NO":"６２號","E_COORD97":166006.56,"N_COORD97":2558729.27,"ADDRESS":"劉厝６２號","OBJECTID":214388},"geometry":{"x":166006.55999999959,"y":2558729.2699999977}},{"attributes":{"ID":214390,"DIS_CODE":0,"TOWNNAME":"西港區","LI":"劉厝里","LIN":"9鄰","STREET":" ","SECT":" ","MAREA":"劉厝","LANE":" ","ALLEY":" ","HOUSE_NO":"６３號之１０","E_COORD97":166898.44,"N_COORD97":2558689.5699999998,"ADDRESS":"劉厝６３號之１０","OBJECTID":214389},"geometry":{"x":166898.44000000041,"y":2558689.5700000003}},{"attributes":{"ID":214391,"DIS_CODE":0,"TOWNNAME":"西港區","LI":"劉厝里","LIN":"9鄰","STREET":" ","SECT":" ","MAREA":"劉厝","LANE":" ","ALLEY":" ","HOUSE_NO":"６３號之１１","E_COORD97":166804.53,"N_COORD97":2558686.4300000002,"ADDRESS":"劉厝６３號之１１","OBJECTID":214390},"geometry":{"x":166804.53000000026,"y":2558686.4299999997}},{"attributes":{"ID":214392,"DIS_CODE":0,"TOWNNAME":"西港區","LI":"劉厝里","LIN":"9鄰","STREET":" ","SECT":" ","MAREA":"劉厝","LANE":" ","ALLEY":" ","HOUSE_NO":"６３號之１２","E_COORD97":166357.23999999999,"N_COORD97":2558749.0299999998,"ADDRESS":"劉厝６３號之１２","OBJECTID":214391},"geometry":{"x":166357.23999999929,"y":2558749.0300000012}},{"attributes":{"ID":214393,"DIS_CODE":0,"TOWNNAME":"西港區","LI":"竹林里","LIN":"7鄰","STREET":" ","SECT":" ","MAREA":"大竹林","LANE":" ","ALLEY":" ","HOUSE_NO":"５６號之３２","E_COORD97":166880.09,"N_COORD97":2558920.1699999999,"ADDRESS":"大竹林５６號之３２","OBJECTID":214392},"geometry":{"x":166880.09000000171,"y":2558920.1699999981}},{"attributes":{"ID":214394,"DIS_CODE":0,"TOWNNAME":"西港區","LI":"劉厝里","LIN":"9鄰","STREET":" ","SECT":" ","MAREA":"劉厝","LANE":" ","ALLEY":" ","HOUSE_NO":"６３號之３","E_COORD97":166051.91,"N_COORD97":2558656.54,"ADDRESS":"劉厝６３號之３","OBJECTID":214393},"geometry":{"x":166051.91000000015,"y":2558656.540000001}},{"attributes":{"ID":214395,"DIS_CODE":0,"TOWNNAME":"西港區","LI":"劉厝里","LIN":"9鄰","STREET":" ","SECT":" ","MAREA":"劉厝","LANE":" ","ALLEY":" ","HOUSE_NO":"６３之５號","E_COORD97":166219.53,"N_COORD97":2558634.46,"ADDRESS":"劉厝６３之５號","OBJECTID":214394},"geometry":{"x":166219.53000000026,"y":2558634.459999999}},{"attributes":{"ID":214396,"DIS_CODE":0,"TOWNNAME":"西港區","LI":"劉厝里","LIN":"9鄰","STREET":" ","SECT":" ","MAREA":"劉厝","LANE":" ","ALLEY":" ","HOUSE_NO":"６３號","E_COORD97":166027.64000000001,"N_COORD97":2558686.27,"ADDRESS":"劉厝６３號","OBJECTID":214395},"geometry":{"x":166027.6400000006,"y":2558686.2700000014}},{"attributes":{"ID":214397,"DIS_CODE":0,"TOWNNAME":"西港區","LI":"劉厝里","LIN":"9鄰","STREET":" ","SECT":" ","MAREA":"劉厝","LANE":" ","ALLEY":" ","HOUSE_NO":"６４號之１","E_COORD97":166025.60999999999,"N_COORD97":2558716.21,"ADDRESS":"劉厝６４號之１","OBJECTID":214396},"geometry":{"x":166025.61000000034,"y":2558716.2100000009}},{"attributes":{"ID":214398,"DIS_CODE":0,"TOWNNAME":"西港區","LI":"劉厝里","LIN":"9鄰","STREET":" ","SECT":" ","MAREA":"劉厝","LANE":" ","ALLEY":" ","HOUSE_NO":"６５號","E_COORD97":166077.12,"N_COORD97":2558716.6800000002,"ADDRESS":"劉厝６５號","OBJECTID":214397},"geometry":{"x":166077.12000000104,"y":2558716.6800000034}},{"attributes":{"ID":214399,"DIS_CODE":0,"TOWNNAME":"西港區","LI":"劉厝里","LIN":"9鄰","STREET":" ","SECT":" ","MAREA":"劉厝","LANE":" ","ALLEY":" ","HOUSE_NO":"６６號之１","E_COORD97":166028.92999999999,"N_COORD97":2558753.0299999998,"ADDRESS":"劉厝６６號之１","OBJECTID":214398},"geometry":{"x":166028.93000000063,"y":2558753.0299999993}},{"attributes":{"ID":214400,"DIS_CODE":0,"TOWNNAME":"西港區","LI":"劉厝里","LIN":"9鄰","STREET":" ","SECT":" ","MAREA":"劉厝","LANE":" ","ALLEY":" ","HOUSE_NO":"６６號","E_COORD97":166028.60000000001,"N_COORD97":2558734.8599999999,"ADDRESS":"劉厝６６號","OBJECTID":214399},"geometry":{"x":166028.59999999963,"y":2558734.8599999994}},{"attributes":{"ID":214401,"DIS_CODE":0,"TOWNNAME":"西港區","LI":"劉厝里","LIN":"9鄰","STREET":" ","SECT":" ","MAREA":"劉厝","LANE":" ","ALLEY":" ","HOUSE_NO":"６７號之１","E_COORD97":166161.23000000001,"N_COORD97":2558826.7000000002,"ADDRESS":"劉厝６７號之１","OBJECTID":214400},"geometry":{"x":166161.23000000138,"y":2558826.6999999993}}]}