{"displayFieldName":"TOWNNAME","fieldAliases":{"ID":"ID","DIS_CODE":"DIS_CODE","TOWNNAME":"TOWNNAME","LI":"LI","LIN":"LIN","STREET":"STREET","SECT":"SECT","MAREA":"MAREA","LANE":"LANE","ALLEY":"ALLEY","HOUSE_NO":"HOUSE_NO","E_COORD97":"E_COORD97","N_COORD97":"N_COORD97","ADDRESS":"ADDRESS","OBJECTID":"OBJECTID"},"geometryType":"esriGeometryPoint","spatialReference":{"wkid":102443,"latestWkid":3826},"fields":[{"name":"ID","type":"esriFieldTypeDouble","alias":"ID"},{"name":"DIS_CODE","type":"esriFieldTypeInteger","alias":"DIS_CODE"},{"name":"TOWNNAME","type":"esriFieldTypeString","alias":"TOWNNAME","length":8},{"name":"LI","type":"esriFieldTypeString","alias":"LI","length":8},{"name":"LIN","type":"esriFieldTypeString","alias":"LIN","length":12},{"name":"STREET","type":"esriFieldTypeString","alias":"STREET","length":20},{"name":"SECT","type":"esriFieldTypeString","alias":"SECT","length":8},{"name":"MAREA","type":"esriFieldTypeString","alias":"MAREA","length":12},{"name":"LANE","type":"esriFieldTypeString","alias":"LANE","length":10},{"name":"ALLEY","type":"esriFieldTypeString","alias":"ALLEY","length":10},{"name":"HOUSE_NO","type":"esriFieldTypeString","alias":"HOUSE_NO","length":20},{"name":"E_COORD97","type":"esriFieldTypeDouble","alias":"E_COORD97"},{"name":"N_COORD97","type":"esriFieldTypeDouble","alias":"N_COORD97"},{"name":"ADDRESS","type":"esriFieldTypeString","alias":"ADDRESS","length":50},{"name":"OBJECTID","type":"esriFieldTypeOID","alias":"OBJECTID"}],"features":[{"attributes":{"ID":164402,"DIS_CODE":0,"TOWNNAME":"北區","LI":"小康里","LIN":"12鄰","STREET":"大武街","SECT":" ","MAREA":" ","LANE":" ","ALLEY":" ","HOUSE_NO":"２９５號之１","E_COORD97":169665.67000000001,"N_COORD97":2546253.3900000001,"ADDRESS":"大武街２９５號之１","OBJECTID":164401},"geometry":{"x":169665.67000000086,"y":2546253.3900000025}},{"attributes":{"ID":164403,"DIS_CODE":0,"TOWNNAME":"北區","LI":"小康里","LIN":"12鄰","STREET":"大武街","SECT":" ","MAREA":" ","LANE":" ","ALLEY":" ","HOUSE_NO":"２９５號之２","E_COORD97":169647.07999999999,"N_COORD97":2546263.75,"ADDRESS":"大武街２９５號之２","OBJECTID":164402},"geometry":{"x":169647.08000000194,"y":2546263.7500000037}},{"attributes":{"ID":164404,"DIS_CODE":0,"TOWNNAME":"佳里區","LI":"鎮山里","LIN":"20鄰","STREET":"鎮山街","SECT":" ","MAREA":" ","LANE":" ","ALLEY":" ","HOUSE_NO":"１７２號","E_COORD97":166262.95999999999,"N_COORD97":2560945.1200000001,"ADDRESS":"鎮山街１７２號","OBJECTID":164403},"geometry":{"x":166262.96000000089,"y":2560945.120000001}},{"attributes":{"ID":164405,"DIS_CODE":0,"TOWNNAME":"安南區","LI":"佃西里","LIN":"8鄰","STREET":"公學路","SECT":"四段","MAREA":" ","LANE":" ","ALLEY":" ","HOUSE_NO":"３０６號","E_COORD97":165339.48000000001,"N_COORD97":2551785.9199999999,"ADDRESS":"公學路四段３０６號","OBJECTID":164404},"geometry":{"x":165339.48000000138,"y":2551785.9200000018}},{"attributes":{"ID":164406,"DIS_CODE":0,"TOWNNAME":"安南區","LI":"佃西里","LIN":"8鄰","STREET":"公學路","SECT":"四段","MAREA":" ","LANE":" ","ALLEY":" ","HOUSE_NO":"３００號","E_COORD97":165358.29000000001,"N_COORD97":2551791.4100000001,"ADDRESS":"公學路四段３００號","OBJECTID":164405},"geometry":{"x":165358.28999999911,"y":2551791.4100000001}},{"attributes":{"ID":164407,"DIS_CODE":0,"TOWNNAME":"麻豆區","LI":"南勢里","LIN":"18鄰","STREET":" ","SECT":" ","MAREA":"南勢","LANE":" ","ALLEY":" ","HOUSE_NO":"３６號之７３","E_COORD97":174433.63,"N_COORD97":2564661.5600000001,"ADDRESS":"南勢３６號之７３","OBJECTID":164406},"geometry":{"x":174433.63000000175,"y":2564661.5600000042}},{"attributes":{"ID":164408,"DIS_CODE":0,"TOWNNAME":"麻豆區","LI":"南勢里","LIN":"18鄰","STREET":" ","SECT":" ","MAREA":"南勢","LANE":" ","ALLEY":" ","HOUSE_NO":"３６號之７４","E_COORD97":174428.35000000001,"N_COORD97":2564661.2599999998,"ADDRESS":"南勢３６號之７４","OBJECTID":164407},"geometry":{"x":174428.34999999963,"y":2564661.2599999998}},{"attributes":{"ID":164409,"DIS_CODE":0,"TOWNNAME":"麻豆區","LI":"南勢里","LIN":"18鄰","STREET":" ","SECT":" ","MAREA":"南勢","LANE":" ","ALLEY":" ","HOUSE_NO":"３６號之７５","E_COORD97":174422.92999999999,"N_COORD97":2564661.3799999999,"ADDRESS":"南勢３６號之７５","OBJECTID":164408},"geometry":{"x":174422.93000000156,"y":2564661.3800000027}},{"attributes":{"ID":164410,"DIS_CODE":0,"TOWNNAME":"麻豆區","LI":"南勢里","LIN":"18鄰","STREET":" ","SECT":" ","MAREA":"南勢","LANE":" ","ALLEY":" ","HOUSE_NO":"３６號之７６","E_COORD97":174417.67999999999,"N_COORD97":2564660.98,"ADDRESS":"南勢３６號之７６","OBJECTID":164409},"geometry":{"x":174417.6799999997,"y":2564660.9800000004}},{"attributes":{"ID":164411,"DIS_CODE":0,"TOWNNAME":"麻豆區","LI":"南勢里","LIN":"18鄰","STREET":" ","SECT":" ","MAREA":"南勢","LANE":" ","ALLEY":" ","HOUSE_NO":"３６號之７７","E_COORD97":174412.51999999999,"N_COORD97":2564661.1000000001,"ADDRESS":"南勢３６號之７７","OBJECTID":164410},"geometry":{"x":174412.52000000048,"y":2564661.1000000015}},{"attributes":{"ID":164412,"DIS_CODE":0,"TOWNNAME":"麻豆區","LI":"南勢里","LIN":"18鄰","STREET":" ","SECT":" ","MAREA":"南勢","LANE":" ","ALLEY":" ","HOUSE_NO":"３６號之７８","E_COORD97":174407.16,"N_COORD97":2564661.52,"ADDRESS":"南勢３６號之７８","OBJECTID":164411},"geometry":{"x":174407.16000000108,"y":2564661.5200000014}},{"attributes":{"ID":164413,"DIS_CODE":0,"TOWNNAME":"北區","LI":"小康里","LIN":"12鄰","STREET":"大武街","SECT":" ","MAREA":" ","LANE":" ","ALLEY":" ","HOUSE_NO":"２９７號","E_COORD97":169667.60000000001,"N_COORD97":2546258.79,"ADDRESS":"大武街２９７號","OBJECTID":164412},"geometry":{"x":169667.59999999963,"y":2546258.7899999972}},{"attributes":{"ID":164414,"DIS_CODE":0,"TOWNNAME":"北區","LI":"小康里","LIN":"12鄰","STREET":"大武街","SECT":" ","MAREA":" ","LANE":" ","ALLEY":" ","HOUSE_NO":"２９７號之１","E_COORD97":169670.07000000001,"N_COORD97":2546262.27,"ADDRESS":"大武街２９７號之１","OBJECTID":164413},"geometry":{"x":169670.07000000123,"y":2546262.2699999996}},{"attributes":{"ID":164415,"DIS_CODE":0,"TOWNNAME":"北區","LI":"小康里","LIN":"12鄰","STREET":"大武街","SECT":" ","MAREA":" ","LANE":" ","ALLEY":" ","HOUSE_NO":"２９９號","E_COORD97":169670.89000000001,"N_COORD97":2546266.1099999999,"ADDRESS":"大武街２９９號","OBJECTID":164414},"geometry":{"x":169670.88999999966,"y":2546266.1099999994}},{"attributes":{"ID":164416,"DIS_CODE":0,"TOWNNAME":"北區","LI":"小康里","LIN":"12鄰","STREET":"大武街","SECT":" ","MAREA":" ","LANE":" ","ALLEY":" ","HOUSE_NO":"３０１號","E_COORD97":169672.54000000001,"N_COORD97":2546270.1299999999,"ADDRESS":"大武街３０１號","OBJECTID":164415},"geometry":{"x":169672.53999999911,"y":2546270.1300000027}},{"attributes":{"ID":164417,"DIS_CODE":0,"TOWNNAME":"安南區","LI":"安慶里","LIN":"4鄰","STREET":"長溪路","SECT":"一段","MAREA":" ","LANE":"１６８巷","ALLEY":"６０弄","HOUSE_NO":"３０號","E_COORD97":169118.23999999999,"N_COORD97":2548657.4900000002,"ADDRESS":"長溪路一段１６８巷６０弄３０號","OBJECTID":164416},"geometry":{"x":169118.24000000022,"y":2548657.4900000021}},{"attributes":{"ID":164418,"DIS_CODE":0,"TOWNNAME":"安南區","LI":"安慶里","LIN":"8鄰","STREET":"長溪路","SECT":"一段","MAREA":" ","LANE":"３４２巷","ALLEY":"３８弄","HOUSE_NO":"２９號","E_COORD97":168756.17999999999,"N_COORD97":2548976.77,"ADDRESS":"長溪路一段３４２巷３８弄２９號","OBJECTID":164417},"geometry":{"x":168756.18000000063,"y":2548976.7700000014}},{"attributes":{"ID":164419,"DIS_CODE":0,"TOWNNAME":"新市區","LI":"新市里","LIN":"26鄰","STREET":"復興路","SECT":" ","MAREA":" ","LANE":"６巷","ALLEY":"１９弄","HOUSE_NO":"１２號","E_COORD97":177891.51000000001,"N_COORD97":2553401.5299999998,"ADDRESS":"復興路６巷１９弄１２號","OBJECTID":164418},"geometry":{"x":177891.51000000071,"y":2553401.5300000012}},{"attributes":{"ID":164420,"DIS_CODE":0,"TOWNNAME":"新市區","LI":"新和里","LIN":"46鄰","STREET":"和平街","SECT":" ","MAREA":" ","LANE":"２０８巷","ALLEY":"１３弄","HOUSE_NO":"２號","E_COORD97":177342.37,"N_COORD97":2553295.5,"ADDRESS":"和平街２０８巷１３弄２號","OBJECTID":164419},"geometry":{"x":177342.37000000011,"y":2553295.5}},{"attributes":{"ID":164421,"DIS_CODE":0,"TOWNNAME":"新市區","LI":"新市里","LIN":"26鄰","STREET":"復興路","SECT":" ","MAREA":" ","LANE":"６巷","ALLEY":"１９弄","HOUSE_NO":"１２之８號","E_COORD97":177921.73999999999,"N_COORD97":2553401.5499999998,"ADDRESS":"復興路６巷１９弄１２之８號","OBJECTID":164420},"geometry":{"x":177921.74000000022,"y":2553401.5500000007}},{"attributes":{"ID":164422,"DIS_CODE":0,"TOWNNAME":"新市區","LI":"新和里","LIN":"46鄰","STREET":"和平街","SECT":" ","MAREA":" ","LANE":"２０８巷","ALLEY":"１０弄","HOUSE_NO":"１８號","E_COORD97":177392.57000000001,"N_COORD97":2553310.25,"ADDRESS":"和平街２０８巷１０弄１８號","OBJECTID":164421},"geometry":{"x":177392.57000000216,"y":2553310.2500000019}},{"attributes":{"ID":164423,"DIS_CODE":0,"TOWNNAME":"新市區","LI":"新市里","LIN":"26鄰","STREET":"復興路","SECT":" ","MAREA":" ","LANE":"６巷","ALLEY":"１９弄","HOUSE_NO":"１２之６號","E_COORD97":177917.64000000001,"N_COORD97":2553401.5499999998,"ADDRESS":"復興路６巷１９弄１２之６號","OBJECTID":164422},"geometry":{"x":177917.6400000006,"y":2553401.5500000007}},{"attributes":{"ID":164424,"DIS_CODE":0,"TOWNNAME":"新市區","LI":"新和里","LIN":"20鄰","STREET":"中正路","SECT":" ","MAREA":" ","LANE":"１１６巷","ALLEY":"２弄","HOUSE_NO":"５號","E_COORD97":177466.17999999999,"N_COORD97":2552554,"ADDRESS":"中正路１１６巷２弄５號","OBJECTID":164423},"geometry":{"x":177466.18000000063,"y":2552554}},{"attributes":{"ID":164425,"DIS_CODE":0,"TOWNNAME":"新市區","LI":"新市里","LIN":"26鄰","STREET":"復興路","SECT":" ","MAREA":" ","LANE":"６巷","ALLEY":"１９弄","HOUSE_NO":"１２之５號","E_COORD97":177921.12,"N_COORD97":2553412.7999999998,"ADDRESS":"復興路６巷１９弄１２之５號","OBJECTID":164424},"geometry":{"x":177921.12000000104,"y":2553412.8000000007}},{"attributes":{"ID":164426,"DIS_CODE":0,"TOWNNAME":"新市區","LI":"新市里","LIN":"26鄰","STREET":"復興路","SECT":" ","MAREA":" ","LANE":"６巷","ALLEY":"１９弄","HOUSE_NO":"２６號","E_COORD97":177891.12,"N_COORD97":2553430.5299999998,"ADDRESS":"復興路６巷１９弄２６號","OBJECTID":164425},"geometry":{"x":177891.12000000104,"y":2553430.5299999993}},{"attributes":{"ID":164427,"DIS_CODE":0,"TOWNNAME":"新市區","LI":"港墘里","LIN":"13鄰","STREET":"中山路","SECT":" ","MAREA":" ","LANE":"７８巷","ALLEY":"１３弄","HOUSE_NO":"９號","E_COORD97":178374.29000000001,"N_COORD97":2552813.25,"ADDRESS":"中山路７８巷１３弄９號","OBJECTID":164426},"geometry":{"x":178374.29000000097,"y":2552813.25}},{"attributes":{"ID":164428,"DIS_CODE":0,"TOWNNAME":"新市區","LI":"港墘里","LIN":"13鄰","STREET":"中山路","SECT":" ","MAREA":" ","LANE":"７８巷","ALLEY":"１３弄","HOUSE_NO":"５號","E_COORD97":178374.42999999999,"N_COORD97":2552821,"ADDRESS":"中山路７８巷１３弄５號","OBJECTID":164427},"geometry":{"x":178374.43000000156,"y":2552821}},{"attributes":{"ID":164429,"DIS_CODE":0,"TOWNNAME":"新市區","LI":"港墘里","LIN":"18鄰","STREET":"光華街","SECT":" ","MAREA":" ","LANE":"８４巷","ALLEY":"１８弄","HOUSE_NO":"１號","E_COORD97":178078.20999999999,"N_COORD97":2552711.5,"ADDRESS":"光華街８４巷１８弄１號","OBJECTID":164428},"geometry":{"x":178078.21000000089,"y":2552711.5000000019}},{"attributes":{"ID":164430,"DIS_CODE":0,"TOWNNAME":"新市區","LI":"港墘里","LIN":"13鄰","STREET":"中山路","SECT":" ","MAREA":" ","LANE":"７８巷","ALLEY":"５３弄","HOUSE_NO":"７號","E_COORD97":178225.29000000001,"N_COORD97":2552819.5,"ADDRESS":"中山路７８巷５３弄７號","OBJECTID":164429},"geometry":{"x":178225.29000000097,"y":2552819.5000000019}},{"attributes":{"ID":164431,"DIS_CODE":0,"TOWNNAME":"麻豆區","LI":"南勢里","LIN":"18鄰","STREET":" ","SECT":" ","MAREA":"南勢","LANE":" ","ALLEY":" ","HOUSE_NO":"３６號之７９","E_COORD97":174402.62,"N_COORD97":2564661.4900000002,"ADDRESS":"南勢３６號之７９","OBJECTID":164430},"geometry":{"x":174402.62000000011,"y":2564661.4900000002}},{"attributes":{"ID":164432,"DIS_CODE":0,"TOWNNAME":"麻豆區","LI":"南勢里","LIN":"18鄰","STREET":" ","SECT":" ","MAREA":"南勢","LANE":" ","ALLEY":" ","HOUSE_NO":"３６號之８０","E_COORD97":174387.76999999999,"N_COORD97":2564653.0899999999,"ADDRESS":"南勢３６號之８０","OBJECTID":164431},"geometry":{"x":174387.76999999955,"y":2564653.0899999999}},{"attributes":{"ID":164433,"DIS_CODE":0,"TOWNNAME":"新市區","LI":"港墘里","LIN":"18鄰","STREET":"光華街","SECT":" ","MAREA":" ","LANE":"８４巷","ALLEY":"４弄","HOUSE_NO":"１之２號","E_COORD97":178079.62,"N_COORD97":2552729.7999999998,"ADDRESS":"光華街８４巷４弄１之２號","OBJECTID":164432},"geometry":{"x":178079.62000000011,"y":2552729.8000000026}},{"attributes":{"ID":164434,"DIS_CODE":0,"TOWNNAME":"麻豆區","LI":"南勢里","LIN":"18鄰","STREET":" ","SECT":" ","MAREA":"南勢","LANE":" ","ALLEY":" ","HOUSE_NO":"３６號之８１","E_COORD97":174383.12,"N_COORD97":2564653.3599999999,"ADDRESS":"南勢３６號之８１","OBJECTID":164433},"geometry":{"x":174383.12000000197,"y":2564653.3599999994}},{"attributes":{"ID":164435,"DIS_CODE":0,"TOWNNAME":"新市區","LI":"新市里","LIN":"14鄰","STREET":"中正路","SECT":" ","MAREA":" ","LANE":"３０１巷","ALLEY":"１８弄","HOUSE_NO":"２號","E_COORD97":177603.35000000001,"N_COORD97":2553311.75,"ADDRESS":"中正路３０１巷１８弄２號","OBJECTID":164434},"geometry":{"x":177603.34999999963,"y":2553311.75}},{"attributes":{"ID":164436,"DIS_CODE":0,"TOWNNAME":"麻豆區","LI":"南勢里","LIN":"18鄰","STREET":" ","SECT":" ","MAREA":"南勢","LANE":" ","ALLEY":" ","HOUSE_NO":"３６號之８２","E_COORD97":174378.56,"N_COORD97":2564653.3199999998,"ADDRESS":"南勢３６號之８２","OBJECTID":164435},"geometry":{"x":174378.56000000052,"y":2564653.3200000022}},{"attributes":{"ID":164437,"DIS_CODE":0,"TOWNNAME":"麻豆區","LI":"南勢里","LIN":"18鄰","STREET":" ","SECT":" ","MAREA":"南勢","LANE":" ","ALLEY":" ","HOUSE_NO":"３６號之８３","E_COORD97":174373.78,"N_COORD97":2564653.3399999999,"ADDRESS":"南勢３６號之８３","OBJECTID":164436},"geometry":{"x":174373.78000000212,"y":2564653.3400000017}},{"attributes":{"ID":164438,"DIS_CODE":0,"TOWNNAME":"新市區","LI":"港墘里","LIN":"18鄰","STREET":"光華街","SECT":" ","MAREA":" ","LANE":"８４巷","ALLEY":"４弄","HOUSE_NO":"１之３號","E_COORD97":178084.23000000001,"N_COORD97":2552730.5499999998,"ADDRESS":"光華街８４巷４弄１之３號","OBJECTID":164437},"geometry":{"x":178084.23000000045,"y":2552730.5500000007}},{"attributes":{"ID":164439,"DIS_CODE":0,"TOWNNAME":"麻豆區","LI":"南勢里","LIN":"18鄰","STREET":" ","SECT":" ","MAREA":"南勢","LANE":" ","ALLEY":" ","HOUSE_NO":"３６號之８４","E_COORD97":174369.13,"N_COORD97":2564653.3999999999,"ADDRESS":"南勢３６號之８４","OBJECTID":164438},"geometry":{"x":174369.12999999896,"y":2564653.4000000022}},{"attributes":{"ID":164440,"DIS_CODE":0,"TOWNNAME":"北區","LI":"小康里","LIN":"12鄰","STREET":"大武街","SECT":" ","MAREA":" ","LANE":" ","ALLEY":" ","HOUSE_NO":"３０３號","E_COORD97":169674.73999999999,"N_COORD97":2546283.21,"ADDRESS":"大武街３０３號","OBJECTID":164439},"geometry":{"x":169674.73999999929,"y":2546283.2100000028}},{"attributes":{"ID":164441,"DIS_CODE":0,"TOWNNAME":"麻豆區","LI":"南勢里","LIN":"18鄰","STREET":" ","SECT":" ","MAREA":"南勢","LANE":" ","ALLEY":" ","HOUSE_NO":"３６號之８５","E_COORD97":174364.17999999999,"N_COORD97":2564653.4100000001,"ADDRESS":"南勢３６號之８５","OBJECTID":164440},"geometry":{"x":174364.18000000063,"y":2564653.410000002}},{"attributes":{"ID":164442,"DIS_CODE":0,"TOWNNAME":"麻豆區","LI":"南勢里","LIN":"18鄰","STREET":" ","SECT":" ","MAREA":"南勢","LANE":" ","ALLEY":" ","HOUSE_NO":"３６號之８６","E_COORD97":174364.20999999999,"N_COORD97":2564643.5800000001,"ADDRESS":"南勢３６號之８６","OBJECTID":164441},"geometry":{"x":174364.21000000089,"y":2564643.5800000001}},{"attributes":{"ID":164443,"DIS_CODE":0,"TOWNNAME":"麻豆區","LI":"南勢里","LIN":"18鄰","STREET":" ","SECT":" ","MAREA":"南勢","LANE":" ","ALLEY":" ","HOUSE_NO":"３６號之８７","E_COORD97":174369.91,"N_COORD97":2564643.4100000001,"ADDRESS":"南勢３６號之８７","OBJECTID":164442},"geometry":{"x":174369.91000000108,"y":2564643.410000002}},{"attributes":{"ID":164444,"DIS_CODE":0,"TOWNNAME":"麻豆區","LI":"南勢里","LIN":"18鄰","STREET":" ","SECT":" ","MAREA":"南勢","LANE":" ","ALLEY":" ","HOUSE_NO":"３６號之８８","E_COORD97":174375.13,"N_COORD97":2564643.5600000001,"ADDRESS":"南勢３６號之８８","OBJECTID":164443},"geometry":{"x":174375.13000000082,"y":2564643.5600000005}},{"attributes":{"ID":164445,"DIS_CODE":0,"TOWNNAME":"新市區","LI":"港墘里","LIN":"18鄰","STREET":"光華街","SECT":" ","MAREA":" ","LANE":"８４巷","ALLEY":"１８弄","HOUSE_NO":"３號","E_COORD97":178073.07000000001,"N_COORD97":2552700.25,"ADDRESS":"光華街８４巷１８弄３號","OBJECTID":164444},"geometry":{"x":178073.07000000123,"y":2552700.25}},{"attributes":{"ID":164446,"DIS_CODE":0,"TOWNNAME":"新市區","LI":"新市里","LIN":"14鄰","STREET":"中正路","SECT":" ","MAREA":" ","LANE":"３０１巷","ALLEY":"１８弄","HOUSE_NO":"６之７號","E_COORD97":177639.51000000001,"N_COORD97":2553312.7999999998,"ADDRESS":"中正路３０１巷１８弄６之７號","OBJECTID":164445},"geometry":{"x":177639.50999999978,"y":2553312.8000000045}},{"attributes":{"ID":164447,"DIS_CODE":0,"TOWNNAME":"新市區","LI":"港墘里","LIN":"13鄰","STREET":"中山路","SECT":" ","MAREA":" ","LANE":"７８巷","ALLEY":"１３弄","HOUSE_NO":"２號","E_COORD97":178363.64999999999,"N_COORD97":2552825.75,"ADDRESS":"中山路７８巷１３弄２號","OBJECTID":164446},"geometry":{"x":178363.6500000013,"y":2552825.75}},{"attributes":{"ID":164448,"DIS_CODE":0,"TOWNNAME":"新營區","LI":"鐵線里","LIN":"12鄰","STREET":" ","SECT":" ","MAREA":"鐵線橋","LANE":" ","ALLEY":" ","HOUSE_NO":"１３０之３號","E_COORD97":175739.94,"N_COORD97":2573801.5600000001,"ADDRESS":"鐵線橋１３０之３號","OBJECTID":164447},"geometry":{"x":175739.94000000041,"y":2573801.5600000005}},{"attributes":{"ID":164449,"DIS_CODE":0,"TOWNNAME":"新市區","LI":"港墘里","LIN":"18鄰","STREET":"光華街","SECT":" ","MAREA":" ","LANE":"８４巷","ALLEY":"１８弄","HOUSE_NO":"７號","E_COORD97":178075.92000000001,"N_COORD97":2552691.25,"ADDRESS":"光華街８４巷１８弄７號","OBJECTID":164448},"geometry":{"x":178075.91999999993,"y":2552691.25}},{"attributes":{"ID":164450,"DIS_CODE":0,"TOWNNAME":"新市區","LI":"港墘里","LIN":"13鄰","STREET":"中山路","SECT":" ","MAREA":" ","LANE":"７８巷","ALLEY":"５３弄","HOUSE_NO":"５號","E_COORD97":178224.48999999999,"N_COORD97":2552823.75,"ADDRESS":"中山路７８巷５３弄５號","OBJECTID":164449},"geometry":{"x":178224.49000000115,"y":2552823.7499999981}},{"attributes":{"ID":164451,"DIS_CODE":0,"TOWNNAME":"新營區","LI":"土庫里","LIN":"12鄰","STREET":" ","SECT":" ","MAREA":"土庫","LANE":" ","ALLEY":" ","HOUSE_NO":"９９之１號","E_COORD97":183298.54999999999,"N_COORD97":2579845.5099999998,"ADDRESS":"土庫９９之１號","OBJECTID":164450},"geometry":{"x":183298.55000000075,"y":2579845.5099999998}},{"attributes":{"ID":164452,"DIS_CODE":0,"TOWNNAME":"安南區","LI":"理想里","LIN":"4鄰","STREET":"海佃路","SECT":"二段","MAREA":" ","LANE":"３４２巷","ALLEY":"２１弄","HOUSE_NO":"２１號","E_COORD97":166961.01000000001,"N_COORD97":2548627.2400000002,"ADDRESS":"海佃路二段３４２巷２１弄２１號","OBJECTID":164451},"geometry":{"x":166961.01000000071,"y":2548627.2400000039}},{"attributes":{"ID":164453,"DIS_CODE":0,"TOWNNAME":"安南區","LI":"理想里","LIN":"4鄰","STREET":"海佃路","SECT":"二段","MAREA":" ","LANE":"３４２巷","ALLEY":"２１弄","HOUSE_NO":"２１之１號","E_COORD97":166969.39000000001,"N_COORD97":2548629.3999999999,"ADDRESS":"海佃路二段３４２巷２１弄２１之１號","OBJECTID":164452},"geometry":{"x":166969.39000000153,"y":2548629.4000000041}},{"attributes":{"ID":164454,"DIS_CODE":0,"TOWNNAME":"安南區","LI":"理想里","LIN":"4鄰","STREET":"海佃路","SECT":"二段","MAREA":" ","LANE":"３４２巷","ALLEY":"２１弄","HOUSE_NO":"４８號之３","E_COORD97":167035.70671500001,"N_COORD97":2548688.9188100002,"ADDRESS":"海佃路二段３４２巷２１弄４８號之３","OBJECTID":164453},"geometry":{"x":167035.70671500079,"y":2548688.9188100025}},{"attributes":{"ID":164455,"DIS_CODE":0,"TOWNNAME":"安南區","LI":"理想里","LIN":"4鄰","STREET":"海佃路","SECT":"二段","MAREA":" ","LANE":"３４２巷","ALLEY":"２１弄","HOUSE_NO":"４８號之１","E_COORD97":167024.26336800001,"N_COORD97":2548676.8538199998,"ADDRESS":"海佃路二段３４２巷２１弄４８號之１","OBJECTID":164454},"geometry":{"x":167024.26336800028,"y":2548676.8538160007}},{"attributes":{"ID":164456,"DIS_CODE":0,"TOWNNAME":"安南區","LI":"佃東里","LIN":"4鄰","STREET":"公學路","SECT":"四段","MAREA":" ","LANE":"１２２巷","ALLEY":"４８弄","HOUSE_NO":"２９號","E_COORD97":165673.29000000001,"N_COORD97":2552196.79,"ADDRESS":"公學路四段１２２巷４８弄２９號","OBJECTID":164455},"geometry":{"x":165673.29000000004,"y":2552196.790000001}},{"attributes":{"ID":164457,"DIS_CODE":0,"TOWNNAME":"安南區","LI":"頂安里","LIN":"4鄰","STREET":"長溪路","SECT":"一段","MAREA":" ","LANE":"４０６巷","ALLEY":"５１弄","HOUSE_NO":"６號之１","E_COORD97":168626.81,"N_COORD97":2549109.8199999998,"ADDRESS":"長溪路一段４０６巷５１弄６號之１","OBJECTID":164456},"geometry":{"x":168626.81000000052,"y":2549109.8200000003}},{"attributes":{"ID":164458,"DIS_CODE":0,"TOWNNAME":"安南區","LI":"州北里","LIN":"5鄰","STREET":"安和路","SECT":"五段","MAREA":" ","LANE":"１７１巷","ALLEY":"４７弄","HOUSE_NO":"４１號","E_COORD97":169734,"N_COORD97":2551705.4900000002,"ADDRESS":"安和路五段１７１巷４７弄４１號","OBJECTID":164457},"geometry":{"x":169734.00000000186,"y":2551705.4900000002}},{"attributes":{"ID":164459,"DIS_CODE":0,"TOWNNAME":"安南區","LI":"總頭里","LIN":"4鄰","STREET":"長溪路","SECT":"二段","MAREA":" ","LANE":"５７０巷","ALLEY":"２２弄","HOUSE_NO":"２號","E_COORD97":168308.60000000001,"N_COORD97":2550574.2200000002,"ADDRESS":"長溪路二段５７０巷２２弄２號","OBJECTID":164458},"geometry":{"x":168308.59999999963,"y":2550574.2200000025}},{"attributes":{"ID":164460,"DIS_CODE":0,"TOWNNAME":"新營區","LI":"埤寮里","LIN":"12鄰","STREET":" ","SECT":" ","MAREA":"埤寮","LANE":" ","ALLEY":" ","HOUSE_NO":"８９號","E_COORD97":180419.57000000001,"N_COORD97":2580812.23,"ADDRESS":"埤寮８９號","OBJECTID":164459},"geometry":{"x":180419.5700000003,"y":2580812.2300000042}},{"attributes":{"ID":164461,"DIS_CODE":0,"TOWNNAME":"安南區","LI":"總頭里","LIN":"4鄰","STREET":"長溪路","SECT":"二段","MAREA":" ","LANE":"５７０巷","ALLEY":"２２弄","HOUSE_NO":"６號","E_COORD97":168303.17999999999,"N_COORD97":2550574.6800000002,"ADDRESS":"長溪路二段５７０巷２２弄６號","OBJECTID":164460},"geometry":{"x":168303.17999999877,"y":2550574.6799999997}},{"attributes":{"ID":164462,"DIS_CODE":0,"TOWNNAME":"安南區","LI":"總頭里","LIN":"4鄰","STREET":"長溪路","SECT":"二段","MAREA":" ","LANE":"５７０巷","ALLEY":"２２弄","HOUSE_NO":"８號","E_COORD97":168297.29999999999,"N_COORD97":2550575.5800000001,"ADDRESS":"長溪路二段５７０巷２２弄８號","OBJECTID":164461},"geometry":{"x":168297.29999999981,"y":2550575.5800000019}},{"attributes":{"ID":164463,"DIS_CODE":0,"TOWNNAME":"新營區","LI":"土庫里","LIN":"12鄰","STREET":" ","SECT":" ","MAREA":"土庫","LANE":" ","ALLEY":" ","HOUSE_NO":"９６號","E_COORD97":183293.85999999999,"N_COORD97":2579812.25,"ADDRESS":"土庫９６號","OBJECTID":164462},"geometry":{"x":183293.86000000127,"y":2579812.2500000019}},{"attributes":{"ID":164464,"DIS_CODE":0,"TOWNNAME":"安南區","LI":"總頭里","LIN":"4鄰","STREET":"長溪路","SECT":"二段","MAREA":" ","LANE":"５７０巷","ALLEY":"２２弄","HOUSE_NO":"１０號","E_COORD97":168292.32000000001,"N_COORD97":2550572.4199999999,"ADDRESS":"長溪路二段５７０巷２２弄１０號","OBJECTID":164463},"geometry":{"x":168292.3200000003,"y":2550572.4200000018}},{"attributes":{"ID":164465,"DIS_CODE":0,"TOWNNAME":"新營區","LI":"埤寮里","LIN":"12鄰","STREET":" ","SECT":" ","MAREA":"埤寮","LANE":" ","ALLEY":" ","HOUSE_NO":"９４號","E_COORD97":180471.28,"N_COORD97":2580736.6699999999,"ADDRESS":"埤寮９４號","OBJECTID":164464},"geometry":{"x":180471.28000000212,"y":2580736.6699999999}},{"attributes":{"ID":164466,"DIS_CODE":0,"TOWNNAME":"新營區","LI":"土庫里","LIN":"12鄰","STREET":" ","SECT":" ","MAREA":"土庫","LANE":" ","ALLEY":" ","HOUSE_NO":"１０３之２號","E_COORD97":183346.94,"N_COORD97":2579860.8100000001,"ADDRESS":"土庫１０３之２號","OBJECTID":164465},"geometry":{"x":183346.94000000041,"y":2579860.8100000005}},{"attributes":{"ID":164467,"DIS_CODE":0,"TOWNNAME":"新營區","LI":"鐵線里","LIN":"12鄰","STREET":" ","SECT":" ","MAREA":"鐵線橋","LANE":" ","ALLEY":" ","HOUSE_NO":"１３９之７號","E_COORD97":175575.04999999999,"N_COORD97":2573770.27,"ADDRESS":"鐵線橋１３９之７號","OBJECTID":164466},"geometry":{"x":175575.05000000168,"y":2573770.2700000014}},{"attributes":{"ID":164468,"DIS_CODE":0,"TOWNNAME":"麻豆區","LI":"南勢里","LIN":"18鄰","STREET":" ","SECT":" ","MAREA":"南勢","LANE":" ","ALLEY":" ","HOUSE_NO":"３６號之８９","E_COORD97":174380.29000000001,"N_COORD97":2564643.7799999998,"ADDRESS":"南勢３６號之８９","OBJECTID":164467},"geometry":{"x":174380.2900000019,"y":2564643.7799999993}},{"attributes":{"ID":164469,"DIS_CODE":0,"TOWNNAME":"麻豆區","LI":"南勢里","LIN":"18鄰","STREET":" ","SECT":" ","MAREA":"南勢","LANE":" ","ALLEY":" ","HOUSE_NO":"３６號之９０","E_COORD97":174385.37,"N_COORD97":2564643.6400000001,"ADDRESS":"南勢３６號之９０","OBJECTID":164468},"geometry":{"x":174385.37000000104,"y":2564643.6400000006}},{"attributes":{"ID":164470,"DIS_CODE":0,"TOWNNAME":"南區","LI":"新興里","LIN":"12鄰","STREET":"夏林路","SECT":" ","MAREA":" ","LANE":" ","ALLEY":" ","HOUSE_NO":"２４２號","E_COORD97":167452.53,"N_COORD97":2542158.1099999999,"ADDRESS":"夏林路２４２號","OBJECTID":164469},"geometry":{"x":167452.53000000119,"y":2542158.1100000031}},{"attributes":{"ID":164471,"DIS_CODE":0,"TOWNNAME":"南區","LI":"新興里","LIN":"12鄰","STREET":"夏林路","SECT":" ","MAREA":" ","LANE":" ","ALLEY":" ","HOUSE_NO":"２４６號","E_COORD97":167453.04999999999,"N_COORD97":2542153.0099999998,"ADDRESS":"夏林路２４６號","OBJECTID":164470},"geometry":{"x":167453.04999999981,"y":2542153.0100000016}},{"attributes":{"ID":164472,"DIS_CODE":0,"TOWNNAME":"南區","LI":"新興里","LIN":"12鄰","STREET":"夏林路","SECT":" ","MAREA":" ","LANE":" ","ALLEY":" ","HOUSE_NO":"２４８號","E_COORD97":167452.53,"N_COORD97":2542147.4300000002,"ADDRESS":"夏林路２４８號","OBJECTID":164471},"geometry":{"x":167452.53000000119,"y":2542147.4300000016}},{"attributes":{"ID":164473,"DIS_CODE":0,"TOWNNAME":"南區","LI":"新興里","LIN":"12鄰","STREET":"夏林路","SECT":" ","MAREA":" ","LANE":" ","ALLEY":" ","HOUSE_NO":"２５０號","E_COORD97":167451.94,"N_COORD97":2542141.98,"ADDRESS":"夏林路２５０號","OBJECTID":164472},"geometry":{"x":167451.94000000134,"y":2542141.9800000004}},{"attributes":{"ID":164474,"DIS_CODE":0,"TOWNNAME":"南區","LI":"新興里","LIN":"12鄰","STREET":"夏林路","SECT":" ","MAREA":" ","LANE":" ","ALLEY":" ","HOUSE_NO":"２５２號","E_COORD97":167451.07999999999,"N_COORD97":2542137.3799999999,"ADDRESS":"夏林路２５２號","OBJECTID":164473},"geometry":{"x":167451.08000000007,"y":2542137.379999999}},{"attributes":{"ID":164475,"DIS_CODE":0,"TOWNNAME":"南區","LI":"新興里","LIN":"12鄰","STREET":"夏林路","SECT":" ","MAREA":" ","LANE":" ","ALLEY":" ","HOUSE_NO":"２５４號","E_COORD97":167442.59,"N_COORD97":2542133.48,"ADDRESS":"夏林路２５４號","OBJECTID":164474},"geometry":{"x":167442.58999999985,"y":2542133.4800000023}},{"attributes":{"ID":164476,"DIS_CODE":0,"TOWNNAME":"安南區","LI":"總頭里","LIN":"4鄰","STREET":"長溪路","SECT":"二段","MAREA":" ","LANE":"５７０巷","ALLEY":"２２弄","HOUSE_NO":"１２號","E_COORD97":168288.70999999999,"N_COORD97":2550560.23,"ADDRESS":"長溪路二段５７０巷２２弄１２號","OBJECTID":164475},"geometry":{"x":168288.71000000089,"y":2550560.2300000023}},{"attributes":{"ID":164477,"DIS_CODE":0,"TOWNNAME":"安南區","LI":"總頭里","LIN":"4鄰","STREET":"長溪路","SECT":"二段","MAREA":" ","LANE":"５７０巷","ALLEY":"２２弄","HOUSE_NO":"１６號","E_COORD97":168295.04000000001,"N_COORD97":2550557.52,"ADDRESS":"長溪路二段５７０巷２２弄１６號","OBJECTID":164476},"geometry":{"x":168295.04000000097,"y":2550557.5200000014}},{"attributes":{"ID":164478,"DIS_CODE":0,"TOWNNAME":"安南區","LI":"總頭里","LIN":"4鄰","STREET":"長溪路","SECT":"二段","MAREA":" ","LANE":"５７０巷","ALLEY":"２２弄","HOUSE_NO":"１８號","E_COORD97":168301.37,"N_COORD97":2550557.0699999998,"ADDRESS":"長溪路二段５７０巷２２弄１８號","OBJECTID":164477},"geometry":{"x":168301.37000000104,"y":2550557.0700000003}},{"attributes":{"ID":164479,"DIS_CODE":0,"TOWNNAME":"安南區","LI":"總頭里","LIN":"4鄰","STREET":"長溪路","SECT":"二段","MAREA":" ","LANE":"５７０巷","ALLEY":"２２弄","HOUSE_NO":"２０號","E_COORD97":168307.23999999999,"N_COORD97":2550557.0699999998,"ADDRESS":"長溪路二段５７０巷２２弄２０號","OBJECTID":164478},"geometry":{"x":168307.24000000115,"y":2550557.0700000003}},{"attributes":{"ID":164480,"DIS_CODE":0,"TOWNNAME":"安南區","LI":"佃東里","LIN":"4鄰","STREET":"公學路","SECT":"四段","MAREA":" ","LANE":"１２２巷","ALLEY":"４８弄","HOUSE_NO":"３９號","E_COORD97":165672.79999999999,"N_COORD97":2552212.71,"ADDRESS":"公學路四段１２２巷４８弄３９號","OBJECTID":164479},"geometry":{"x":165672.79999999981,"y":2552212.7100000028}},{"attributes":{"ID":164481,"DIS_CODE":0,"TOWNNAME":"安南區","LI":"佃東里","LIN":"4鄰","STREET":"公學路","SECT":"四段","MAREA":" ","LANE":"１２２巷","ALLEY":"４８弄","HOUSE_NO":"４１號","E_COORD97":165667.89999999999,"N_COORD97":2552213.9300000002,"ADDRESS":"公學路四段１２２巷４８弄４１號","OBJECTID":164480},"geometry":{"x":165667.90000000037,"y":2552213.9299999997}},{"attributes":{"ID":164482,"DIS_CODE":0,"TOWNNAME":"安南區","LI":"長安里","LIN":"13鄰","STREET":"公學路","SECT":"二段","MAREA":" ","LANE":"１２３巷","ALLEY":"４６弄","HOUSE_NO":"６０號","E_COORD97":167826.26000000001,"N_COORD97":2552146.77,"ADDRESS":"公學路二段１２３巷４６弄６０號","OBJECTID":164481},"geometry":{"x":167826.25999999978,"y":2552146.7700000014}},{"attributes":{"ID":164483,"DIS_CODE":0,"TOWNNAME":"安南區","LI":"安富里","LIN":"35鄰","STREET":"海佃路","SECT":"一段","MAREA":" ","LANE":"１５８巷","ALLEY":"１３４弄","HOUSE_NO":"６號","E_COORD97":167641.47,"N_COORD97":2547238.2599999998,"ADDRESS":"海佃路一段１５８巷１３４弄６號","OBJECTID":164482},"geometry":{"x":167641.46999999974,"y":2547238.2599999998}},{"attributes":{"ID":164484,"DIS_CODE":0,"TOWNNAME":"安南區","LI":"安富里","LIN":"35鄰","STREET":"海佃路","SECT":"一段","MAREA":" ","LANE":"１５８巷","ALLEY":"１３４弄","HOUSE_NO":"７號","E_COORD97":167665.47,"N_COORD97":2547239.3999999999,"ADDRESS":"海佃路一段１５８巷１３４弄７號","OBJECTID":164483},"geometry":{"x":167665.46999999974,"y":2547239.4000000041}},{"attributes":{"ID":164485,"DIS_CODE":0,"TOWNNAME":"安南區","LI":"安富里","LIN":"35鄰","STREET":"海佃路","SECT":"一段","MAREA":" ","LANE":"１５８巷","ALLEY":"１３４弄","HOUSE_NO":"８號","E_COORD97":167643,"N_COORD97":2547235.21,"ADDRESS":"海佃路一段１５８巷１３４弄８號","OBJECTID":164484},"geometry":{"x":167643,"y":2547235.2100000028}},{"attributes":{"ID":164486,"DIS_CODE":0,"TOWNNAME":"安南區","LI":"安富里","LIN":"35鄰","STREET":"海佃路","SECT":"一段","MAREA":" ","LANE":"１５８巷","ALLEY":"１３４弄","HOUSE_NO":"９號","E_COORD97":167663.95000000001,"N_COORD97":2547233.3100000001,"ADDRESS":"海佃路一段１５８巷１３４弄９號","OBJECTID":164485},"geometry":{"x":167663.95000000019,"y":2547233.3100000042}},{"attributes":{"ID":164487,"DIS_CODE":0,"TOWNNAME":"安南區","LI":"安富里","LIN":"36鄰","STREET":"府安路","SECT":"五段","MAREA":" ","LANE":"１５３巷","ALLEY":"７弄","HOUSE_NO":"４號","E_COORD97":167827.01999999999,"N_COORD97":2547105.3900000001,"ADDRESS":"府安路五段１５３巷７弄４號","OBJECTID":164486},"geometry":{"x":167827.02000000048,"y":2547105.3900000025}},{"attributes":{"ID":164488,"DIS_CODE":0,"TOWNNAME":"安南區","LI":"長安里","LIN":"3鄰","STREET":"長溪路","SECT":"三段","MAREA":" ","LANE":"３７３巷","ALLEY":"２１弄","HOUSE_NO":"１４２號","E_COORD97":167427.5,"N_COORD97":2551846.7999999998,"ADDRESS":"長溪路三段３７３巷２１弄１４２號","OBJECTID":164487},"geometry":{"x":167427.50000000093,"y":2551846.8000000007}},{"attributes":{"ID":164489,"DIS_CODE":0,"TOWNNAME":"安南區","LI":"長安里","LIN":"3鄰","STREET":"長溪路","SECT":"三段","MAREA":" ","LANE":"３７３巷","ALLEY":"２１弄","HOUSE_NO":"１４４號","E_COORD97":167429.51999999999,"N_COORD97":2551843.1499999999,"ADDRESS":"長溪路三段３７３巷２１弄１４４號","OBJECTID":164488},"geometry":{"x":167429.52000000142,"y":2551843.1500000022}},{"attributes":{"ID":164490,"DIS_CODE":0,"TOWNNAME":"安南區","LI":"長安里","LIN":"3鄰","STREET":"長溪路","SECT":"三段","MAREA":" ","LANE":"３７３巷","ALLEY":"２１弄","HOUSE_NO":"１４６號","E_COORD97":167431.54000000001,"N_COORD97":2551839.7599999998,"ADDRESS":"長溪路三段３７３巷２１弄１４６號","OBJECTID":164489},"geometry":{"x":167431.5400000019,"y":2551839.7599999998}},{"attributes":{"ID":164491,"DIS_CODE":0,"TOWNNAME":"安南區","LI":"長安里","LIN":"3鄰","STREET":"長溪路","SECT":"三段","MAREA":" ","LANE":"３７３巷","ALLEY":"２１弄","HOUSE_NO":"１４８號","E_COORD97":167433.81,"N_COORD97":2551836.0600000001,"ADDRESS":"長溪路三段３７３巷２１弄１４８號","OBJECTID":164490},"geometry":{"x":167433.80999999959,"y":2551836.0600000042}},{"attributes":{"ID":164492,"DIS_CODE":0,"TOWNNAME":"安南區","LI":"長安里","LIN":"3鄰","STREET":"長溪路","SECT":"三段","MAREA":" ","LANE":"３７３巷","ALLEY":"２１弄","HOUSE_NO":"１５０號","E_COORD97":167436.31,"N_COORD97":2551832.5699999998,"ADDRESS":"長溪路三段３７３巷２１弄１５０號","OBJECTID":164491},"geometry":{"x":167436.31000000052,"y":2551832.5700000022}},{"attributes":{"ID":164493,"DIS_CODE":0,"TOWNNAME":"安南區","LI":"長安里","LIN":"3鄰","STREET":"長溪路","SECT":"三段","MAREA":" ","LANE":"３７３巷","ALLEY":"２１弄","HOUSE_NO":"１５２號","E_COORD97":167438.78,"N_COORD97":2551829.2999999998,"ADDRESS":"長溪路三段３７３巷２１弄１５２號","OBJECTID":164492},"geometry":{"x":167438.78000000212,"y":2551829.3000000026}},{"attributes":{"ID":164494,"DIS_CODE":0,"TOWNNAME":"麻豆區","LI":"南勢里","LIN":"18鄰","STREET":" ","SECT":" ","MAREA":"南勢","LANE":" ","ALLEY":" ","HOUSE_NO":"３６號之９１","E_COORD97":174390.29999999999,"N_COORD97":2564643.6000000001,"ADDRESS":"南勢３６號之９１","OBJECTID":164493},"geometry":{"x":174390.30000000075,"y":2564643.6000000034}},{"attributes":{"ID":164495,"DIS_CODE":0,"TOWNNAME":"善化區","LI":"胡厝里","LIN":"18鄰","STREET":" ","SECT":" ","MAREA":"西衛","LANE":" ","ALLEY":" ","HOUSE_NO":"９號","E_COORD97":174441.95999999999,"N_COORD97":2559436.25,"ADDRESS":"西衛９號","OBJECTID":164494},"geometry":{"x":174441.96000000089,"y":2559436.2500000019}},{"attributes":{"ID":164496,"DIS_CODE":0,"TOWNNAME":"善化區","LI":"胡厝里","LIN":"18鄰","STREET":" ","SECT":" ","MAREA":"西衛","LANE":" ","ALLEY":" ","HOUSE_NO":"１２號之４","E_COORD97":174452.12,"N_COORD97":2559328.27,"ADDRESS":"西衛１２號之４","OBJECTID":164495},"geometry":{"x":174452.12000000011,"y":2559328.2699999996}},{"attributes":{"ID":164497,"DIS_CODE":0,"TOWNNAME":"善化區","LI":"胡家里","LIN":"18鄰","STREET":" ","SECT":" ","MAREA":"胡厝寮","LANE":" ","ALLEY":" ","HOUSE_NO":"１２０號","E_COORD97":175271.26999999999,"N_COORD97":2560645.75,"ADDRESS":"胡厝寮１２０號","OBJECTID":164496},"geometry":{"x":175271.26999999955,"y":2560645.7500000037}},{"attributes":{"ID":164498,"DIS_CODE":0,"TOWNNAME":"善化區","LI":"胡家里","LIN":"18鄰","STREET":" ","SECT":" ","MAREA":"胡厝寮","LANE":" ","ALLEY":" ","HOUSE_NO":"１１９之３號","E_COORD97":175215.51999999999,"N_COORD97":2560653.27,"ADDRESS":"胡厝寮１１９之３號","OBJECTID":164497},"geometry":{"x":175215.52000000142,"y":2560653.2700000014}},{"attributes":{"ID":164499,"DIS_CODE":0,"TOWNNAME":"柳營區","LI":"旭山里","LIN":"18鄰","STREET":" ","SECT":" ","MAREA":"山子腳","LANE":" ","ALLEY":" ","HOUSE_NO":"２０號之２","E_COORD97":187049.60000000001,"N_COORD97":2574545.8199999998,"ADDRESS":"山子腳２０號之２","OBJECTID":164498},"geometry":{"x":187049.60000000056,"y":2574545.8199999984}},{"attributes":{"ID":164500,"DIS_CODE":0,"TOWNNAME":"安南區","LI":"長安里","LIN":"3鄰","STREET":"長溪路","SECT":"三段","MAREA":" ","LANE":"３７３巷","ALLEY":"２１弄","HOUSE_NO":"１５４號","E_COORD97":167440.89999999999,"N_COORD97":2551825.6699999999,"ADDRESS":"長溪路三段３７３巷２１弄１５４號","OBJECTID":164499},"geometry":{"x":167440.90000000037,"y":2551825.6700000018}},{"attributes":{"ID":164501,"DIS_CODE":0,"TOWNNAME":"安南區","LI":"長安里","LIN":"3鄰","STREET":"長溪路","SECT":"三段","MAREA":" ","LANE":"３７３巷","ALLEY":"２１弄","HOUSE_NO":"１５６號","E_COORD97":167442.97,"N_COORD97":2551822.2999999998,"ADDRESS":"長溪路三段３７３巷２１弄１５６號","OBJECTID":164500},"geometry":{"x":167442.96999999974,"y":2551822.3000000026}},{"attributes":{"ID":164502,"DIS_CODE":0,"TOWNNAME":"安南區","LI":"長安里","LIN":"3鄰","STREET":"長溪路","SECT":"三段","MAREA":" ","LANE":"３７３巷","ALLEY":"２１弄","HOUSE_NO":"１５８號","E_COORD97":167444.94,"N_COORD97":2551818.5099999998,"ADDRESS":"長溪路三段３７３巷２１弄１５８號","OBJECTID":164501},"geometry":{"x":167444.94000000134,"y":2551818.5100000035}},{"attributes":{"ID":164503,"DIS_CODE":0,"TOWNNAME":"安南區","LI":"長安里","LIN":"3鄰","STREET":"長溪路","SECT":"三段","MAREA":" ","LANE":"３７３巷","ALLEY":"２１弄","HOUSE_NO":"１６０號","E_COORD97":167447.67999999999,"N_COORD97":2551815.3900000001,"ADDRESS":"長溪路三段３７３巷２１弄１６０號","OBJECTID":164502},"geometry":{"x":167447.68000000063,"y":2551815.3900000006}},{"attributes":{"ID":164504,"DIS_CODE":0,"TOWNNAME":"安南區","LI":"長安里","LIN":"23鄰","STREET":"長溪路","SECT":"三段","MAREA":" ","LANE":"３７３巷","ALLEY":"２１弄","HOUSE_NO":"１６６號","E_COORD97":167455.14999999999,"N_COORD97":2551789.6699999999,"ADDRESS":"長溪路三段３７３巷２１弄１６６號","OBJECTID":164503},"geometry":{"x":167455.1500000013,"y":2551789.6699999999}},{"attributes":{"ID":164505,"DIS_CODE":0,"TOWNNAME":"安南區","LI":"海佃里","LIN":"26鄰","STREET":"國安街","SECT":" ","MAREA":" ","LANE":"１５６巷","ALLEY":"４４弄","HOUSE_NO":"１５號","E_COORD97":166783.04000000001,"N_COORD97":2547114.3999999999,"ADDRESS":"國安街１５６巷４４弄１５號","OBJECTID":164504},"geometry":{"x":166783.04000000097,"y":2547114.4000000022}},{"attributes":{"ID":164506,"DIS_CODE":0,"TOWNNAME":"安南區","LI":"海佃里","LIN":"27鄰","STREET":"國安街","SECT":" ","MAREA":" ","LANE":"５６巷","ALLEY":"３１弄","HOUSE_NO":"１０號","E_COORD97":166931.13,"N_COORD97":2547127.6200000001,"ADDRESS":"國安街５６巷３１弄１０號","OBJECTID":164505},"geometry":{"x":166931.13000000082,"y":2547127.6200000029}},{"attributes":{"ID":164507,"DIS_CODE":0,"TOWNNAME":"安南區","LI":"海佃里","LIN":"27鄰","STREET":"國安街","SECT":" ","MAREA":" ","LANE":"５６巷","ALLEY":"３１弄","HOUSE_NO":"１２號","E_COORD97":166925.81,"N_COORD97":2547126.29,"ADDRESS":"國安街５６巷３１弄１２號","OBJECTID":164506},"geometry":{"x":166925.81000000145,"y":2547126.2899999991}},{"attributes":{"ID":164508,"DIS_CODE":0,"TOWNNAME":"安南區","LI":"海佃里","LIN":"27鄰","STREET":"國安街","SECT":" ","MAREA":" ","LANE":"５６巷","ALLEY":"３１弄","HOUSE_NO":"１４號","E_COORD97":166920.48999999999,"N_COORD97":2547125.6299999999,"ADDRESS":"國安街５６巷３１弄１４號","OBJECTID":164507},"geometry":{"x":166920.49000000115,"y":2547125.6300000008}},{"attributes":{"ID":164509,"DIS_CODE":0,"TOWNNAME":"安南區","LI":"海佃里","LIN":"27鄰","STREET":"國安街","SECT":" ","MAREA":" ","LANE":"５６巷","ALLEY":"３１弄","HOUSE_NO":"１６號","E_COORD97":166915.17000000001,"N_COORD97":2547124.96,"ADDRESS":"國安街５６巷３１弄１６號","OBJECTID":164508},"geometry":{"x":166915.16999999899,"y":2547124.9600000028}},{"attributes":{"ID":164510,"DIS_CODE":0,"TOWNNAME":"安南區","LI":"海佃里","LIN":"27鄰","STREET":"國安街","SECT":" ","MAREA":" ","LANE":"５６巷","ALLEY":"３１弄","HOUSE_NO":"１８號","E_COORD97":166909.17999999999,"N_COORD97":2547123.6299999999,"ADDRESS":"國安街５６巷３１弄１８號","OBJECTID":164509},"geometry":{"x":166909.1799999997,"y":2547123.629999999}},{"attributes":{"ID":164511,"DIS_CODE":0,"TOWNNAME":"安南區","LI":"海佃里","LIN":"27鄰","STREET":"國安街","SECT":" ","MAREA":" ","LANE":"５６巷","ALLEY":"３１弄","HOUSE_NO":"２０號","E_COORD97":166903.85999999999,"N_COORD97":2547122.3100000001,"ADDRESS":"國安街５６巷３１弄２０號","OBJECTID":164510},"geometry":{"x":166903.86000000034,"y":2547122.3100000024}},{"attributes":{"ID":164512,"DIS_CODE":0,"TOWNNAME":"安南區","LI":"海佃里","LIN":"27鄰","STREET":"國安街","SECT":" ","MAREA":" ","LANE":"５６巷","ALLEY":"３１弄","HOUSE_NO":"２２號","E_COORD97":166898.54000000001,"N_COORD97":2547121.6400000001,"ADDRESS":"國安街５６巷３１弄２２號","OBJECTID":164511},"geometry":{"x":166898.54000000004,"y":2547121.6400000006}},{"attributes":{"ID":164513,"DIS_CODE":0,"TOWNNAME":"安南區","LI":"海佃里","LIN":"27鄰","STREET":"國安街","SECT":" ","MAREA":" ","LANE":"５６巷","ALLEY":"３１弄","HOUSE_NO":"２４號","E_COORD97":166893.22,"N_COORD97":2547120.98,"ADDRESS":"國安街５６巷３１弄２４號","OBJECTID":164512},"geometry":{"x":166893.22000000067,"y":2547120.9800000023}},{"attributes":{"ID":164514,"DIS_CODE":0,"TOWNNAME":"柳營區","LI":"旭山里","LIN":"18鄰","STREET":" ","SECT":" ","MAREA":"山子腳","LANE":" ","ALLEY":" ","HOUSE_NO":"２５號之３","E_COORD97":187060.51999999999,"N_COORD97":2574433.3700000001,"ADDRESS":"山子腳２５號之３","OBJECTID":164513},"geometry":{"x":187060.52000000048,"y":2574433.370000001}},{"attributes":{"ID":164515,"DIS_CODE":0,"TOWNNAME":"柳營區","LI":"旭山里","LIN":"18鄰","STREET":" ","SECT":" ","MAREA":"山子腳","LANE":" ","ALLEY":" ","HOUSE_NO":"２６號","E_COORD97":187360.54999999999,"N_COORD97":2575800.1000000001,"ADDRESS":"山子腳２６號","OBJECTID":164514},"geometry":{"x":187360.55000000075,"y":2575800.0999999996}},{"attributes":{"ID":164516,"DIS_CODE":0,"TOWNNAME":"安南區","LI":"海佃里","LIN":"27鄰","STREET":"國安街","SECT":" ","MAREA":" ","LANE":"５６巷","ALLEY":"３１弄","HOUSE_NO":"２６號","E_COORD97":166887.23999999999,"N_COORD97":2547119.6499999999,"ADDRESS":"國安街５６巷３１弄２６號","OBJECTID":164515},"geometry":{"x":166887.24000000022,"y":2547119.6500000022}},{"attributes":{"ID":164517,"DIS_CODE":0,"TOWNNAME":"安南區","LI":"海佃里","LIN":"27鄰","STREET":"國安街","SECT":" ","MAREA":" ","LANE":"５６巷","ALLEY":"３１弄","HOUSE_NO":"２８號","E_COORD97":166882.57999999999,"N_COORD97":2547116.9900000002,"ADDRESS":"國安街５６巷３１弄２８號","OBJECTID":164516},"geometry":{"x":166882.58000000101,"y":2547116.9900000021}},{"attributes":{"ID":164518,"DIS_CODE":0,"TOWNNAME":"安南區","LI":"海佃里","LIN":"27鄰","STREET":"國安街","SECT":" ","MAREA":" ","LANE":"５６巷","ALLEY":"３１弄","HOUSE_NO":"３０號","E_COORD97":166876.60000000001,"N_COORD97":2547117.6600000001,"ADDRESS":"國安街５６巷３１弄３０號","OBJECTID":164517},"geometry":{"x":166876.60000000056,"y":2547117.6600000001}},{"attributes":{"ID":164519,"DIS_CODE":0,"TOWNNAME":"安南區","LI":"頂安里","LIN":"19鄰","STREET":"北安路","SECT":"三段","MAREA":" ","LANE":"３９６巷","ALLEY":"５０弄","HOUSE_NO":"１號","E_COORD97":168902.20999999999,"N_COORD97":2549500.8900000001,"ADDRESS":"北安路三段３９６巷５０弄１號","OBJECTID":164518},"geometry":{"x":168902.21000000089,"y":2549500.8899999987}},{"attributes":{"ID":164520,"DIS_CODE":0,"TOWNNAME":"安南區","LI":"頂安里","LIN":"19鄰","STREET":"北安路","SECT":"三段","MAREA":" ","LANE":"３９６巷","ALLEY":"５０弄","HOUSE_NO":"７７號","E_COORD97":168884.12,"N_COORD97":2549442.02,"ADDRESS":"北安路三段３９６巷５０弄７７號","OBJECTID":164519},"geometry":{"x":168884.12000000104,"y":2549442.0200000014}},{"attributes":{"ID":164521,"DIS_CODE":0,"TOWNNAME":"安南區","LI":"頂安里","LIN":"19鄰","STREET":"北安路","SECT":"三段","MAREA":" ","LANE":"３９６巷","ALLEY":"５０弄","HOUSE_NO":"７９號","E_COORD97":168887.07999999999,"N_COORD97":2549436.3999999999,"ADDRESS":"北安路三段３９６巷５０弄７９號","OBJECTID":164520},"geometry":{"x":168887.08000000007,"y":2549436.4000000041}},{"attributes":{"ID":164522,"DIS_CODE":0,"TOWNNAME":"安南區","LI":"頂安里","LIN":"19鄰","STREET":"北安路","SECT":"三段","MAREA":" ","LANE":"３９６巷","ALLEY":"５０弄","HOUSE_NO":"７號","E_COORD97":168913.35999999999,"N_COORD97":2549487.2599999998,"ADDRESS":"北安路三段３９６巷５０弄７號","OBJECTID":164521},"geometry":{"x":168913.36000000127,"y":2549487.2599999998}},{"attributes":{"ID":164523,"DIS_CODE":0,"TOWNNAME":"安南區","LI":"頂安里","LIN":"19鄰","STREET":"北安路","SECT":"三段","MAREA":" ","LANE":"３９６巷","ALLEY":"５０弄","HOUSE_NO":"８１號","E_COORD97":168851.56,"N_COORD97":2549462.1299999999,"ADDRESS":"北安路三段３９６巷５０弄８１號","OBJECTID":164522},"geometry":{"x":168851.56000000145,"y":2549462.129999999}},{"attributes":{"ID":164524,"DIS_CODE":0,"TOWNNAME":"安南區","LI":"新順里","LIN":"19鄰","STREET":"安豐六街","SECT":" ","MAREA":" ","LANE":"１０巷","ALLEY":"２７弄","HOUSE_NO":"１３號","E_COORD97":169335.31,"N_COORD97":2549640.0099999998,"ADDRESS":"安豐六街１０巷２７弄１３號","OBJECTID":164523},"geometry":{"x":169335.31000000052,"y":2549640.0100000016}},{"attributes":{"ID":164525,"DIS_CODE":0,"TOWNNAME":"安南區","LI":"新順里","LIN":"19鄰","STREET":"安豐六街","SECT":" ","MAREA":" ","LANE":"１０巷","ALLEY":"２７弄","HOUSE_NO":"２３號","E_COORD97":169350.73000000001,"N_COORD97":2549642.5800000001,"ADDRESS":"安豐六街１０巷２７弄２３號","OBJECTID":164524},"geometry":{"x":169350.73000000045,"y":2549642.5800000019}},{"attributes":{"ID":164526,"DIS_CODE":0,"TOWNNAME":"安南區","LI":"新順里","LIN":"19鄰","STREET":"安豐六街","SECT":" ","MAREA":" ","LANE":"１０巷","ALLEY":"２７弄","HOUSE_NO":"２９號","E_COORD97":169365.29000000001,"N_COORD97":2549628.8900000001,"ADDRESS":"安豐六街１０巷２７弄２９號","OBJECTID":164525},"geometry":{"x":169365.29000000004,"y":2549628.8900000006}},{"attributes":{"ID":164527,"DIS_CODE":0,"TOWNNAME":"安南區","LI":"新順里","LIN":"19鄰","STREET":"安豐六街","SECT":" ","MAREA":" ","LANE":"１０巷","ALLEY":"２７弄","HOUSE_NO":"３號","E_COORD97":169311.62,"N_COORD97":2549632.4300000002,"ADDRESS":"安豐六街１０巷２７弄３號","OBJECTID":164526},"geometry":{"x":169311.62000000104,"y":2549632.4300000016}},{"attributes":{"ID":164528,"DIS_CODE":0,"TOWNNAME":"白河區","LI":"永安里","LIN":"15鄰","STREET":"新興路","SECT":" ","MAREA":" ","LANE":" ","ALLEY":" ","HOUSE_NO":"５７７號","E_COORD97":190078.62,"N_COORD97":2583608.3399999999,"ADDRESS":"新興路５７７號","OBJECTID":164527},"geometry":{"x":190078.62000000011,"y":2583608.3400000017}},{"attributes":{"ID":164529,"DIS_CODE":0,"TOWNNAME":"安南區","LI":"新順里","LIN":"19鄰","STREET":"安豐六街","SECT":" ","MAREA":" ","LANE":"１０巷","ALLEY":"２７弄","HOUSE_NO":"５號","E_COORD97":169316.56,"N_COORD97":2549630.1499999999,"ADDRESS":"安豐六街１０巷２７弄５號","OBJECTID":164528},"geometry":{"x":169316.56000000052,"y":2549630.1500000004}},{"attributes":{"ID":164530,"DIS_CODE":0,"TOWNNAME":"安南區","LI":"新順里","LIN":"19鄰","STREET":"安豐六街","SECT":" ","MAREA":" ","LANE":"１０巷","ALLEY":"２７弄","HOUSE_NO":"７號","E_COORD97":169319.60999999999,"N_COORD97":2549633.1899999999,"ADDRESS":"安豐六街１０巷２７弄７號","OBJECTID":164529},"geometry":{"x":169319.61000000034,"y":2549633.1899999995}},{"attributes":{"ID":164531,"DIS_CODE":0,"TOWNNAME":"安南區","LI":"新順里","LIN":"19鄰","STREET":"安豐六街","SECT":" ","MAREA":" ","LANE":"１０巷","ALLEY":"２７弄","HOUSE_NO":"９號","E_COORD97":169324.54999999999,"N_COORD97":2549630.1499999999,"ADDRESS":"安豐六街１０巷２７弄９號","OBJECTID":164530},"geometry":{"x":169324.54999999981,"y":2549630.1500000004}},{"attributes":{"ID":164532,"DIS_CODE":0,"TOWNNAME":"東區","LI":"自強里","LIN":"21鄰","STREET":"中華東路","SECT":"二段","MAREA":" ","LANE":"２４３巷","ALLEY":"７２弄","HOUSE_NO":"１號","E_COORD97":171458.97,"N_COORD97":2542578.3799999999,"ADDRESS":"中華東路二段２４３巷７２弄１號","OBJECTID":164531},"geometry":{"x":171458.96999999974,"y":2542578.379999999}},{"attributes":{"ID":164533,"DIS_CODE":0,"TOWNNAME":"東區","LI":"自強里","LIN":"21鄰","STREET":"中華東路","SECT":"二段","MAREA":" ","LANE":"２４３巷","ALLEY":"７２弄","HOUSE_NO":"２號","E_COORD97":171441.82000000001,"N_COORD97":2542577.3599999999,"ADDRESS":"中華東路二段２４３巷７２弄２號","OBJECTID":164532},"geometry":{"x":171441.8200000003,"y":2542577.3600000013}},{"attributes":{"ID":164534,"DIS_CODE":0,"TOWNNAME":"東區","LI":"自強里","LIN":"21鄰","STREET":"中華東路","SECT":"二段","MAREA":" ","LANE":"２４３巷","ALLEY":"７２弄","HOUSE_NO":"３號","E_COORD97":171458.48999999999,"N_COORD97":2542574.7999999998,"ADDRESS":"中華東路二段２４３巷７２弄３號","OBJECTID":164533},"geometry":{"x":171458.49000000115,"y":2542574.8000000007}},{"attributes":{"ID":164535,"DIS_CODE":0,"TOWNNAME":"東區","LI":"自強里","LIN":"21鄰","STREET":"中華東路","SECT":"二段","MAREA":" ","LANE":"２４３巷","ALLEY":"７２弄","HOUSE_NO":"４號","E_COORD97":171441.82000000001,"N_COORD97":2542572.46,"ADDRESS":"中華東路二段２４３巷７２弄４號","OBJECTID":164534},"geometry":{"x":171441.8200000003,"y":2542572.4600000028}},{"attributes":{"ID":164536,"DIS_CODE":0,"TOWNNAME":"東區","LI":"自強里","LIN":"21鄰","STREET":"中華東路","SECT":"二段","MAREA":" ","LANE":"２４３巷","ALLEY":"７２弄","HOUSE_NO":"５號","E_COORD97":171458.73000000001,"N_COORD97":2542571.2200000002,"ADDRESS":"中華東路二段２４３巷７２弄５號","OBJECTID":164535},"geometry":{"x":171458.73000000138,"y":2542571.2200000007}},{"attributes":{"ID":164537,"DIS_CODE":0,"TOWNNAME":"東區","LI":"自強里","LIN":"21鄰","STREET":"中華東路","SECT":"二段","MAREA":" ","LANE":"２４３巷","ALLEY":"７２弄","HOUSE_NO":"６號","E_COORD97":171442.17000000001,"N_COORD97":2542568.4199999999,"ADDRESS":"中華東路二段２４３巷７２弄６號","OBJECTID":164536},"geometry":{"x":171442.17000000086,"y":2542568.4200000018}},{"attributes":{"ID":164538,"DIS_CODE":0,"TOWNNAME":"東區","LI":"自強里","LIN":"21鄰","STREET":"中華東路","SECT":"二段","MAREA":" ","LANE":"２４３巷","ALLEY":"７２弄","HOUSE_NO":"７號","E_COORD97":171458.48999999999,"N_COORD97":2542567.3999999999,"ADDRESS":"中華東路二段２４３巷７２弄７號","OBJECTID":164537},"geometry":{"x":171458.49000000115,"y":2542567.4000000041}},{"attributes":{"ID":164539,"DIS_CODE":0,"TOWNNAME":"東區","LI":"自強里","LIN":"21鄰","STREET":"中華東路","SECT":"二段","MAREA":" ","LANE":"２４３巷","ALLEY":"７２弄","HOUSE_NO":"８號","E_COORD97":171441.98999999999,"N_COORD97":2542564.5699999998,"ADDRESS":"中華東路二段２４３巷７２弄８號","OBJECTID":164538},"geometry":{"x":171441.99000000115,"y":2542564.5700000003}},{"attributes":{"ID":164540,"DIS_CODE":0,"TOWNNAME":"佳里區","LI":"建南里","LIN":"26鄰","STREET":"公園路","SECT":" ","MAREA":" ","LANE":"７５巷","ALLEY":"１３弄","HOUSE_NO":"１０號","E_COORD97":165293,"N_COORD97":2561528.1200000001,"ADDRESS":"公園路７５巷１３弄１０號","OBJECTID":164539},"geometry":{"x":165293.00000000093,"y":2561528.120000001}},{"attributes":{"ID":164541,"DIS_CODE":0,"TOWNNAME":"佳里區","LI":"建南里","LIN":"26鄰","STREET":"公園路","SECT":" ","MAREA":" ","LANE":"７５巷","ALLEY":"１３弄","HOUSE_NO":"１１號","E_COORD97":165314.23999999999,"N_COORD97":2561528.8500000001,"ADDRESS":"公園路７５巷１３弄１１號","OBJECTID":164540},"geometry":{"x":165314.24000000022,"y":2561528.8499999996}},{"attributes":{"ID":164542,"DIS_CODE":0,"TOWNNAME":"佳里區","LI":"安西里","LIN":"38鄰","STREET":"文化路","SECT":" ","MAREA":" ","LANE":"４４８巷","ALLEY":"１弄","HOUSE_NO":"１０號","E_COORD97":165057.31,"N_COORD97":2562616.2000000002,"ADDRESS":"文化路４４８巷１弄１０號","OBJECTID":164541},"geometry":{"x":165057.30999999959,"y":2562616.2000000011}},{"attributes":{"ID":164543,"DIS_CODE":0,"TOWNNAME":"佳里區","LI":"安西里","LIN":"38鄰","STREET":"文化路","SECT":" ","MAREA":" ","LANE":"４４８巷","ALLEY":"１弄","HOUSE_NO":"１２號","E_COORD97":165053.29999999999,"N_COORD97":2562616.2400000002,"ADDRESS":"文化路４４８巷１弄１２號","OBJECTID":164542},"geometry":{"x":165053.30000000075,"y":2562616.2400000021}},{"attributes":{"ID":164544,"DIS_CODE":0,"TOWNNAME":"西港區","LI":"竹林里","LIN":"18鄰","STREET":" ","SECT":" ","MAREA":"大竹林","LANE":" ","ALLEY":" ","HOUSE_NO":"１６０之４號","E_COORD97":166867.39999999999,"N_COORD97":2557992.1899999999,"ADDRESS":"大竹林１６０之４號","OBJECTID":164543},"geometry":{"x":166867.4000000013,"y":2557992.1900000013}},{"attributes":{"ID":164545,"DIS_CODE":0,"TOWNNAME":"西港區","LI":"竹林里","LIN":"18鄰","STREET":" ","SECT":" ","MAREA":"大竹林","LANE":" ","ALLEY":" ","HOUSE_NO":"１６０之６號","E_COORD97":166890.45000000001,"N_COORD97":2558005.75,"ADDRESS":"大竹林１６０之６號","OBJECTID":164544},"geometry":{"x":166890.45000000112,"y":2558005.7500000019}},{"attributes":{"ID":164546,"DIS_CODE":0,"TOWNNAME":"西港區","LI":"竹林里","LIN":"18鄰","STREET":" ","SECT":" ","MAREA":"大竹林","LANE":" ","ALLEY":" ","HOUSE_NO":"１６０之８號","E_COORD97":166889.98999999999,"N_COORD97":2557992.7400000002,"ADDRESS":"大竹林１６０之８號","OBJECTID":164545},"geometry":{"x":166889.99000000115,"y":2557992.7400000021}},{"attributes":{"ID":164547,"DIS_CODE":0,"TOWNNAME":"西港區","LI":"竹林里","LIN":"18鄰","STREET":" ","SECT":" ","MAREA":"大竹林","LANE":" ","ALLEY":" ","HOUSE_NO":"１６０之９號","E_COORD97":166889.88,"N_COORD97":2557985.6299999999,"ADDRESS":"大竹林１６０之９號","OBJECTID":164546},"geometry":{"x":166889.87999999989,"y":2557985.629999999}},{"attributes":{"ID":164548,"DIS_CODE":0,"TOWNNAME":"柳營區","LI":"篤農里","LIN":"18鄰","STREET":" ","SECT":" ","MAREA":"小腳腿","LANE":" ","ALLEY":" ","HOUSE_NO":"３３７號","E_COORD97":185464.20999999999,"N_COORD97":2576737.2799999998,"ADDRESS":"小腳腿３３７號","OBJECTID":164547},"geometry":{"x":185464.21000000089,"y":2576737.2799999993}},{"attributes":{"ID":164549,"DIS_CODE":0,"TOWNNAME":"柳營區","LI":"篤農里","LIN":"18鄰","STREET":" ","SECT":" ","MAREA":"小腳腿","LANE":" ","ALLEY":" ","HOUSE_NO":"３３８號之１","E_COORD97":185625.14999999999,"N_COORD97":2576667.7400000002,"ADDRESS":"小腳腿３３８號之１","OBJECTID":164548},"geometry":{"x":185625.15000000037,"y":2576667.7400000002}},{"attributes":{"ID":164550,"DIS_CODE":0,"TOWNNAME":"柳營區","LI":"篤農里","LIN":"18鄰","STREET":" ","SECT":" ","MAREA":"小腳腿","LANE":" ","ALLEY":" ","HOUSE_NO":"３３８號之２","E_COORD97":185617.03,"N_COORD97":2576695.71,"ADDRESS":"小腳腿３３８號之２","OBJECTID":164549},"geometry":{"x":185617.03000000119,"y":2576695.7100000009}},{"attributes":{"ID":164551,"DIS_CODE":0,"TOWNNAME":"柳營區","LI":"篤農里","LIN":"18鄰","STREET":" ","SECT":" ","MAREA":"小腳腿","LANE":" ","ALLEY":" ","HOUSE_NO":"３３８號之３","E_COORD97":185527.79000000001,"N_COORD97":2576711.9100000001,"ADDRESS":"小腳腿３３８號之３","OBJECTID":164550},"geometry":{"x":185527.7900000019,"y":2576711.9100000039}},{"attributes":{"ID":164552,"DIS_CODE":0,"TOWNNAME":"柳營區","LI":"篤農里","LIN":"18鄰","STREET":" ","SECT":" ","MAREA":"小腳腿","LANE":" ","ALLEY":" ","HOUSE_NO":"３３８號之５","E_COORD97":185594.10999999999,"N_COORD97":2576750.7000000002,"ADDRESS":"小腳腿３３８號之５","OBJECTID":164551},"geometry":{"x":185594.11000000127,"y":2576750.7000000011}},{"attributes":{"ID":164553,"DIS_CODE":0,"TOWNNAME":"佳里區","LI":"安西里","LIN":"38鄰","STREET":"文化路","SECT":" ","MAREA":" ","LANE":"４４８巷","ALLEY":"１弄","HOUSE_NO":"６號","E_COORD97":165065.44,"N_COORD97":2562616.7599999998,"ADDRESS":"文化路４４８巷１弄６號","OBJECTID":164552},"geometry":{"x":165065.44000000041,"y":2562616.7600000016}},{"attributes":{"ID":164554,"DIS_CODE":0,"TOWNNAME":"佳里區","LI":"安西里","LIN":"38鄰","STREET":"文化路","SECT":" ","MAREA":" ","LANE":"４４８巷","ALLEY":"１弄","HOUSE_NO":"８號","E_COORD97":165061.17999999999,"N_COORD97":2562616.5,"ADDRESS":"文化路４４８巷１弄８號","OBJECTID":164553},"geometry":{"x":165061.18000000063,"y":2562616.5}},{"attributes":{"ID":164555,"DIS_CODE":0,"TOWNNAME":"佳里區","LI":"安西里","LIN":"38鄰","STREET":"文化路","SECT":" ","MAREA":" ","LANE":"４７８巷","ALLEY":"２弄","HOUSE_NO":"１號","E_COORD97":165029.79999999999,"N_COORD97":2562615.8700000001,"ADDRESS":"文化路４７８巷２弄１號","OBJECTID":164554},"geometry":{"x":165029.80000000075,"y":2562615.8700000048}},{"attributes":{"ID":164556,"DIS_CODE":0,"TOWNNAME":"佳里區","LI":"安西里","LIN":"38鄰","STREET":"文化路","SECT":" ","MAREA":" ","LANE":"４７８巷","ALLEY":"２弄","HOUSE_NO":"３號","E_COORD97":165034.88,"N_COORD97":2562616.23,"ADDRESS":"文化路４７８巷２弄３號","OBJECTID":164555},"geometry":{"x":165034.87999999989,"y":2562616.2300000042}},{"attributes":{"ID":164557,"DIS_CODE":0,"TOWNNAME":"佳里區","LI":"安西里","LIN":"38鄰","STREET":"文化路","SECT":" ","MAREA":" ","LANE":"４７８巷","ALLEY":"２弄","HOUSE_NO":"５號","E_COORD97":165039.20000000001,"N_COORD97":2562616.4399999999,"ADDRESS":"文化路４７８巷２弄５號","OBJECTID":164556},"geometry":{"x":165039.20000000112,"y":2562616.4399999995}},{"attributes":{"ID":164558,"DIS_CODE":0,"TOWNNAME":"佳里區","LI":"安西里","LIN":"38鄰","STREET":"文化路","SECT":" ","MAREA":" ","LANE":"４７８巷","ALLEY":"２弄","HOUSE_NO":"７號","E_COORD97":165043.89000000001,"N_COORD97":2562616.2400000002,"ADDRESS":"文化路４７８巷２弄７號","OBJECTID":164557},"geometry":{"x":165043.8900000006,"y":2562616.2400000021}},{"attributes":{"ID":164559,"DIS_CODE":0,"TOWNNAME":"佳里區","LI":"安西里","LIN":"34鄰","STREET":"文化路","SECT":" ","MAREA":" ","LANE":"４７８巷","ALLEY":"１１弄","HOUSE_NO":"１號","E_COORD97":164999.70000000001,"N_COORD97":2562621.02,"ADDRESS":"文化路４７８巷１１弄１號","OBJECTID":164558},"geometry":{"x":164999.70000000205,"y":2562621.0200000014}},{"attributes":{"ID":164560,"DIS_CODE":0,"TOWNNAME":"佳里區","LI":"安西里","LIN":"34鄰","STREET":"文化路","SECT":" ","MAREA":" ","LANE":"４７８巷","ALLEY":"１１弄","HOUSE_NO":"２號","E_COORD97":164984.14999999999,"N_COORD97":2562644.79,"ADDRESS":"文化路４７８巷１１弄２號","OBJECTID":164559},"geometry":{"x":164984.1500000013,"y":2562644.7900000028}},{"attributes":{"ID":164561,"DIS_CODE":0,"TOWNNAME":"佳里區","LI":"安西里","LIN":"34鄰","STREET":"文化路","SECT":" ","MAREA":" ","LANE":"４７８巷","ALLEY":"１１弄","HOUSE_NO":"３號之１","E_COORD97":164993.31,"N_COORD97":2562620.73,"ADDRESS":"文化路４７８巷１１弄３號之１","OBJECTID":164560},"geometry":{"x":164993.31000000145,"y":2562620.7300000023}},{"attributes":{"ID":164562,"DIS_CODE":0,"TOWNNAME":"佳里區","LI":"安西里","LIN":"34鄰","STREET":"文化路","SECT":" ","MAREA":" ","LANE":"４７８巷","ALLEY":"１１弄","HOUSE_NO":"３號","E_COORD97":164988.75,"N_COORD97":2562620.5899999999,"ADDRESS":"文化路４７８巷１１弄３號","OBJECTID":164561},"geometry":{"x":164988.75,"y":2562620.5900000017}},{"attributes":{"ID":164563,"DIS_CODE":0,"TOWNNAME":"佳里區","LI":"安西里","LIN":"34鄰","STREET":"文化路","SECT":" ","MAREA":" ","LANE":"４７８巷","ALLEY":"１１弄","HOUSE_NO":"４號","E_COORD97":164978.85000000001,"N_COORD97":2562644.7200000002,"ADDRESS":"文化路４７８巷１１弄４號","OBJECTID":164562},"geometry":{"x":164978.84999999963,"y":2562644.7200000025}},{"attributes":{"ID":164564,"DIS_CODE":0,"TOWNNAME":"佳里區","LI":"安西里","LIN":"34鄰","STREET":"文化路","SECT":" ","MAREA":" ","LANE":"４７８巷","ALLEY":"１１弄","HOUSE_NO":"５號","E_COORD97":164984.37,"N_COORD97":2562620.3100000001,"ADDRESS":"文化路４７８巷１１弄５號","OBJECTID":164563},"geometry":{"x":164984.37000000011,"y":2562620.3100000024}},{"attributes":{"ID":164565,"DIS_CODE":0,"TOWNNAME":"佳里區","LI":"安西里","LIN":"34鄰","STREET":"文化路","SECT":" ","MAREA":" ","LANE":"４７８巷","ALLEY":"１１弄","HOUSE_NO":"７號","E_COORD97":164980.13,"N_COORD97":2562620.3300000001,"ADDRESS":"文化路４７８巷１１弄７號","OBJECTID":164564},"geometry":{"x":164980.13000000082,"y":2562620.3300000001}},{"attributes":{"ID":164566,"DIS_CODE":0,"TOWNNAME":"佳里區","LI":"安西里","LIN":"39鄰","STREET":"文化路","SECT":" ","MAREA":" ","LANE":"５３６巷","ALLEY":"８弄","HOUSE_NO":"１１號","E_COORD97":164911.64000000001,"N_COORD97":2562647.3799999999,"ADDRESS":"文化路５３６巷８弄１１號","OBJECTID":164565},"geometry":{"x":164911.6400000006,"y":2562647.3800000027}},{"attributes":{"ID":164567,"DIS_CODE":0,"TOWNNAME":"佳里區","LI":"安西里","LIN":"39鄰","STREET":"文化路","SECT":" ","MAREA":" ","LANE":"５３６巷","ALLEY":"８弄","HOUSE_NO":"１３號","E_COORD97":164918.04000000001,"N_COORD97":2562647.1299999999,"ADDRESS":"文化路５３６巷８弄１３號","OBJECTID":164566},"geometry":{"x":164918.04000000097,"y":2562647.1300000008}},{"attributes":{"ID":164568,"DIS_CODE":0,"TOWNNAME":"佳里區","LI":"安西里","LIN":"39鄰","STREET":"文化路","SECT":" ","MAREA":" ","LANE":"５３６巷","ALLEY":"８弄","HOUSE_NO":"１號","E_COORD97":164877.70999999999,"N_COORD97":2562649.0699999998,"ADDRESS":"文化路５３６巷８弄１號","OBJECTID":164567},"geometry":{"x":164877.71000000089,"y":2562649.0700000022}},{"attributes":{"ID":164569,"DIS_CODE":0,"TOWNNAME":"佳里區","LI":"安西里","LIN":"39鄰","STREET":"文化路","SECT":" ","MAREA":" ","LANE":"５３６巷","ALLEY":"８弄","HOUSE_NO":"３號","E_COORD97":164885.53,"N_COORD97":2562649.1699999999,"ADDRESS":"文化路５３６巷８弄３號","OBJECTID":164568},"geometry":{"x":164885.53000000026,"y":2562649.1699999999}},{"attributes":{"ID":164570,"DIS_CODE":0,"TOWNNAME":"佳里區","LI":"安西里","LIN":"39鄰","STREET":"文化路","SECT":" ","MAREA":" ","LANE":"５３６巷","ALLEY":"８弄","HOUSE_NO":"５號","E_COORD97":164894.20999999999,"N_COORD97":2562647.0800000001,"ADDRESS":"文化路５３６巷８弄５號","OBJECTID":164569},"geometry":{"x":164894.20999999996,"y":2562647.0800000038}},{"attributes":{"ID":164571,"DIS_CODE":0,"TOWNNAME":"佳里區","LI":"安西里","LIN":"39鄰","STREET":"文化路","SECT":" ","MAREA":" ","LANE":"５３６巷","ALLEY":"８弄","HOUSE_NO":"７號","E_COORD97":164900.13,"N_COORD97":2562646.9900000002,"ADDRESS":"文化路５３６巷８弄７號","OBJECTID":164570},"geometry":{"x":164900.13000000082,"y":2562646.9900000002}},{"attributes":{"ID":164572,"DIS_CODE":0,"TOWNNAME":"佳里區","LI":"安西里","LIN":"39鄰","STREET":"文化路","SECT":" ","MAREA":" ","LANE":"５３６巷","ALLEY":"８弄","HOUSE_NO":"９號","E_COORD97":164906.09,"N_COORD97":2562647.1600000001,"ADDRESS":"文化路５３６巷８弄９號","OBJECTID":164571},"geometry":{"x":164906.08999999985,"y":2562647.160000002}},{"attributes":{"ID":164573,"DIS_CODE":0,"TOWNNAME":"永康區","LI":"西灣里","LIN":"32鄰","STREET":"國光八街","SECT":" ","MAREA":" ","LANE":"６０巷","ALLEY":"３弄","HOUSE_NO":"１５號","E_COORD97":174222.26999999999,"N_COORD97":2545804.8999999999,"ADDRESS":"國光八街６０巷３弄１５號","OBJECTID":164572},"geometry":{"x":174222.27000000142,"y":2545804.9000000004}},{"attributes":{"ID":164574,"DIS_CODE":0,"TOWNNAME":"永康區","LI":"甲頂里","LIN":"4鄰","STREET":"中正南路","SECT":" ","MAREA":" ","LANE":"１６８巷","ALLEY":"２弄","HOUSE_NO":"１號","E_COORD97":169866.10000000001,"N_COORD97":2546967.5,"ADDRESS":"中正南路１６８巷２弄１號","OBJECTID":164573},"geometry":{"x":169866.09999999963,"y":2546967.5000000019}},{"attributes":{"ID":164575,"DIS_CODE":0,"TOWNNAME":"永康區","LI":"正強里","LIN":"20鄰","STREET":"中山南路","SECT":" ","MAREA":" ","LANE":"４７１巷","ALLEY":"２７弄","HOUSE_NO":"６號","E_COORD97":173146.45000000001,"N_COORD97":2547193.1200000001,"ADDRESS":"中山南路４７１巷２７弄６號","OBJECTID":164574},"geometry":{"x":173146.45000000019,"y":2547193.120000001}},{"attributes":{"ID":164576,"DIS_CODE":0,"TOWNNAME":"永康區","LI":"西灣里","LIN":"50鄰","STREET":"大灣路","SECT":" ","MAREA":" ","LANE":"９４２巷","ALLEY":"６４１弄","HOUSE_NO":"４１號","E_COORD97":173638.92000000001,"N_COORD97":2545916.7400000002,"ADDRESS":"大灣路９４２巷６４１弄４１號","OBJECTID":164575},"geometry":{"x":173638.92000000086,"y":2545916.7400000002}},{"attributes":{"ID":164577,"DIS_CODE":0,"TOWNNAME":"歸仁區","LI":"武東里","LIN":"12鄰","STREET":" ","SECT":" ","MAREA":"明德新村","LANE":" ","ALLEY":" ","HOUSE_NO":"９１號","E_COORD97":175224.29000000001,"N_COORD97":2536136.27,"ADDRESS":"明德新村９１號","OBJECTID":164576},"geometry":{"x":175224.28999999911,"y":2536136.2700000014}},{"attributes":{"ID":164578,"DIS_CODE":0,"TOWNNAME":"永康區","LI":"復華里","LIN":"39鄰","STREET":"復華七街","SECT":" ","MAREA":" ","LANE":"３２巷","ALLEY":"１弄","HOUSE_NO":"５號","E_COORD97":172712.57999999999,"N_COORD97":2545973.0699999998,"ADDRESS":"復華七街３２巷１弄５號","OBJECTID":164577},"geometry":{"x":172712.58000000101,"y":2545973.0700000003}},{"attributes":{"ID":164579,"DIS_CODE":0,"TOWNNAME":"永康區","LI":"正強里","LIN":"25鄰","STREET":"中正路","SECT":" ","MAREA":" ","LANE":"１２７巷","ALLEY":"２４弄","HOUSE_NO":"１８號","E_COORD97":173327.66,"N_COORD97":2547793.25,"ADDRESS":"中正路１２７巷２４弄１８號","OBJECTID":164578},"geometry":{"x":173327.66000000015,"y":2547793.2500000019}},{"attributes":{"ID":164580,"DIS_CODE":0,"TOWNNAME":"永康區","LI":"尚頂里","LIN":"26鄰","STREET":"南台街","SECT":" ","MAREA":" ","LANE":"５４巷","ALLEY":"１０弄","HOUSE_NO":"４３號","E_COORD97":170416.70000000001,"N_COORD97":2547083.4900000002,"ADDRESS":"南台街５４巷１０弄４３號","OBJECTID":164579},"geometry":{"x":170416.70000000112,"y":2547083.4900000021}},{"attributes":{"ID":164581,"DIS_CODE":0,"TOWNNAME":"永康區","LI":"正強里","LIN":"18鄰","STREET":"自強路","SECT":" ","MAREA":" ","LANE":"１８８巷","ALLEY":"６２弄","HOUSE_NO":"２１號","E_COORD97":173166.70999999999,"N_COORD97":2547262.6600000001,"ADDRESS":"自強路１８８巷６２弄２１號","OBJECTID":164580},"geometry":{"x":173166.70999999996,"y":2547262.660000002}},{"attributes":{"ID":164582,"DIS_CODE":0,"TOWNNAME":"永康區","LI":"東橋里","LIN":"4鄰","STREET":"大橋一街","SECT":" ","MAREA":" ","LANE":"３２４巷","ALLEY":"６１弄","HOUSE_NO":"６號","E_COORD97":171426.53,"N_COORD97":2546568.5299999998,"ADDRESS":"大橋一街３２４巷６１弄６號","OBJECTID":164581},"geometry":{"x":171426.53000000119,"y":2546568.5299999993}},{"attributes":{"ID":164583,"DIS_CODE":0,"TOWNNAME":"永康區","LI":"埔園里","LIN":"38鄰","STREET":"龍國街","SECT":" ","MAREA":" ","LANE":"１２８巷","ALLEY":"３１弄","HOUSE_NO":"１７號","E_COORD97":174258.89000000001,"N_COORD97":2547973.7200000002,"ADDRESS":"龍國街１２８巷３１弄１７號","OBJECTID":164582},"geometry":{"x":174258.8900000006,"y":2547973.7200000025}},{"attributes":{"ID":164584,"DIS_CODE":0,"TOWNNAME":"永康區","LI":"南灣里","LIN":"4鄰","STREET":"大灣路","SECT":" ","MAREA":" ","LANE":"５３７巷","ALLEY":"１３弄","HOUSE_NO":"２２號","E_COORD97":174528.19,"N_COORD97":2544538.3700000001,"ADDRESS":"大灣路５３７巷１３弄２２號","OBJECTID":164583},"geometry":{"x":174528.19000000041,"y":2544538.3700000048}},{"attributes":{"ID":164585,"DIS_CODE":0,"TOWNNAME":"永康區","LI":"尚頂里","LIN":"25鄰","STREET":"中正南路","SECT":" ","MAREA":" ","LANE":"２１０巷","ALLEY":"１２弄","HOUSE_NO":"１６號","E_COORD97":170182.75,"N_COORD97":2547091.2400000002,"ADDRESS":"中正南路２１０巷１２弄１６號","OBJECTID":164584},"geometry":{"x":170182.75,"y":2547091.2400000039}},{"attributes":{"ID":164586,"DIS_CODE":0,"TOWNNAME":"永康區","LI":"尚頂里","LIN":"4鄰","STREET":"正南一街","SECT":" ","MAREA":" ","LANE":"１９０巷","ALLEY":"２７弄","HOUSE_NO":"１２號","E_COORD97":170818.10000000001,"N_COORD97":2547493.1200000001,"ADDRESS":"正南一街１９０巷２７弄１２號","OBJECTID":164585},"geometry":{"x":170818.10000000056,"y":2547493.1200000048}},{"attributes":{"ID":164587,"DIS_CODE":0,"TOWNNAME":"永康區","LI":"西灣里","LIN":"26鄰","STREET":"國光七街","SECT":" ","MAREA":" ","LANE":"６巷","ALLEY":"１１弄","HOUSE_NO":"２２號","E_COORD97":174352.60999999999,"N_COORD97":2545670.1299999999,"ADDRESS":"國光七街６巷１１弄２２號","OBJECTID":164586},"geometry":{"x":174352.61000000034,"y":2545670.1300000027}},{"attributes":{"ID":164588,"DIS_CODE":0,"TOWNNAME":"東區","LI":"南聖里","LIN":"8鄰","STREET":"裕和路","SECT":" ","MAREA":" ","LANE":" ","ALLEY":" ","HOUSE_NO":"７號","E_COORD97":171953.09,"N_COORD97":2543130.1899999999,"ADDRESS":"裕和路７號","OBJECTID":164587},"geometry":{"x":171953.08999999985,"y":2543130.1899999995}},{"attributes":{"ID":164589,"DIS_CODE":0,"TOWNNAME":"柳營區","LI":"篤農里","LIN":"18鄰","STREET":" ","SECT":" ","MAREA":"小腳腿","LANE":" ","ALLEY":" ","HOUSE_NO":"３３８號之６","E_COORD97":185590.23000000001,"N_COORD97":2576737.6600000001,"ADDRESS":"小腳腿３３８號之６","OBJECTID":164588},"geometry":{"x":185590.23000000138,"y":2576737.660000002}},{"attributes":{"ID":164590,"DIS_CODE":0,"TOWNNAME":"柳營區","LI":"篤農里","LIN":"18鄰","STREET":" ","SECT":" ","MAREA":"小腳腿","LANE":" ","ALLEY":" ","HOUSE_NO":"３３８號之８","E_COORD97":185602.63,"N_COORD97":2576681.29,"ADDRESS":"小腳腿３３８號之８","OBJECTID":164589},"geometry":{"x":185602.62999999989,"y":2576681.290000001}},{"attributes":{"ID":164591,"DIS_CODE":0,"TOWNNAME":"永康區","LI":"復興里","LIN":"26鄰","STREET":"復興路","SECT":" ","MAREA":" ","LANE":"４２３巷","ALLEY":"８５弄","HOUSE_NO":"２５號","E_COORD97":172285.39999999999,"N_COORD97":2544239.7799999998,"ADDRESS":"復興路４２３巷８５弄２５號","OBJECTID":164590},"geometry":{"x":172285.40000000037,"y":2544239.7800000012}},{"attributes":{"ID":164592,"DIS_CODE":0,"TOWNNAME":"歸仁區","LI":"武東里","LIN":"12鄰","STREET":" ","SECT":" ","MAREA":"明德新村","LANE":" ","ALLEY":" ","HOUSE_NO":"２８號","E_COORD97":175327.98999999999,"N_COORD97":2536142.27,"ADDRESS":"明德新村２８號","OBJECTID":164591},"geometry":{"x":175327.99000000022,"y":2536142.2699999996}},{"attributes":{"ID":164593,"DIS_CODE":0,"TOWNNAME":"歸仁區","LI":"武東里","LIN":"12鄰","STREET":" ","SECT":" ","MAREA":"明德新村","LANE":" ","ALLEY":" ","HOUSE_NO":"３９號","E_COORD97":175251.09,"N_COORD97":2536149.27,"ADDRESS":"明德新村３９號","OBJECTID":164592},"geometry":{"x":175251.09000000171,"y":2536149.2699999977}},{"attributes":{"ID":164594,"DIS_CODE":0,"TOWNNAME":"歸仁區","LI":"看東里","LIN":"12鄰","STREET":"忠孝南路","SECT":" ","MAREA":" ","LANE":" ","ALLEY":" ","HOUSE_NO":"６５號","E_COORD97":178522.75,"N_COORD97":2540472.48,"ADDRESS":"忠孝南路６５號","OBJECTID":164593},"geometry":{"x":178522.75,"y":2540472.4800000023}},{"attributes":{"ID":164595,"DIS_CODE":0,"TOWNNAME":"歸仁區","LI":"武東里","LIN":"12鄰","STREET":" ","SECT":" ","MAREA":"明德新村","LANE":" ","ALLEY":" ","HOUSE_NO":"１４號","E_COORD97":175152.79000000001,"N_COORD97":2536193.27,"ADDRESS":"明德新村１４號","OBJECTID":164594},"geometry":{"x":175152.79000000004,"y":2536193.2699999996}},{"attributes":{"ID":164596,"DIS_CODE":0,"TOWNNAME":"歸仁區","LI":"武東里","LIN":"12鄰","STREET":" ","SECT":" ","MAREA":"明德新村","LANE":" ","ALLEY":" ","HOUSE_NO":"１２７號","E_COORD97":175281.84,"N_COORD97":2536115.27,"ADDRESS":"明德新村１２７號","OBJECTID":164595},"geometry":{"x":175281.84000000078,"y":2536115.2699999996}},{"attributes":{"ID":164597,"DIS_CODE":0,"TOWNNAME":"歸仁區","LI":"武東里","LIN":"12鄰","STREET":" ","SECT":" ","MAREA":"明德新村","LANE":" ","ALLEY":" ","HOUSE_NO":"９４號","E_COORD97":175207.89000000001,"N_COORD97":2536138.27,"ADDRESS":"明德新村９４號","OBJECTID":164596},"geometry":{"x":175207.88999999966,"y":2536138.2699999996}},{"attributes":{"ID":164598,"DIS_CODE":0,"TOWNNAME":"歸仁區","LI":"武東里","LIN":"12鄰","STREET":" ","SECT":" ","MAREA":"明德新村","LANE":" ","ALLEY":" ","HOUSE_NO":"１２號","E_COORD97":175169.19,"N_COORD97":2536192.27,"ADDRESS":"明德新村１２號","OBJECTID":164597},"geometry":{"x":175169.19000000041,"y":2536192.2699999996}},{"attributes":{"ID":164599,"DIS_CODE":0,"TOWNNAME":"永康區","LI":"神洲里","LIN":" ","STREET":"忠孝路","SECT":" ","MAREA":" ","LANE":"７３巷","ALLEY":"６３弄","HOUSE_NO":"１０號","E_COORD97":172245.45999999999,"N_COORD97":2545049.8999999999,"ADDRESS":"忠孝路７３巷６３弄１０號","OBJECTID":164598},"geometry":{"x":172245.46000000089,"y":2545049.9000000022}},{"attributes":{"ID":164600,"DIS_CODE":0,"TOWNNAME":"永康區","LI":"崑山里","LIN":"5鄰","STREET":"崑大路","SECT":" ","MAREA":" ","LANE":"１巷","ALLEY":" ","HOUSE_NO":"１０７號","E_COORD97":173640.82000000001,"N_COORD97":2544115.7599999998,"ADDRESS":"崑大路１巷１０７號","OBJECTID":164599},"geometry":{"x":173640.8200000003,"y":2544115.7599999998}},{"attributes":{"ID":164601,"DIS_CODE":0,"TOWNNAME":"永康區","LI":"尚頂里","LIN":"25鄰","STREET":"中正南路","SECT":" ","MAREA":" ","LANE":"２１０巷","ALLEY":"３２弄","HOUSE_NO":"４號","E_COORD97":170198.29000000001,"N_COORD97":2547117.4900000002,"ADDRESS":"中正南路２１０巷３２弄４號","OBJECTID":164600},"geometry":{"x":170198.29000000097,"y":2547117.4900000021}}]}