{"displayFieldName":"TOWNNAME","fieldAliases":{"ID":"ID","DIS_CODE":"DIS_CODE","TOWNNAME":"TOWNNAME","LI":"LI","LIN":"LIN","STREET":"STREET","SECT":"SECT","MAREA":"MAREA","LANE":"LANE","ALLEY":"ALLEY","HOUSE_NO":"HOUSE_NO","E_COORD97":"E_COORD97","N_COORD97":"N_COORD97","ADDRESS":"ADDRESS","OBJECTID":"OBJECTID"},"geometryType":"esriGeometryPoint","spatialReference":{"wkid":102443,"latestWkid":3826},"fields":[{"name":"ID","type":"esriFieldTypeDouble","alias":"ID"},{"name":"DIS_CODE","type":"esriFieldTypeInteger","alias":"DIS_CODE"},{"name":"TOWNNAME","type":"esriFieldTypeString","alias":"TOWNNAME","length":8},{"name":"LI","type":"esriFieldTypeString","alias":"LI","length":8},{"name":"LIN","type":"esriFieldTypeString","alias":"LIN","length":12},{"name":"STREET","type":"esriFieldTypeString","alias":"STREET","length":20},{"name":"SECT","type":"esriFieldTypeString","alias":"SECT","length":8},{"name":"MAREA","type":"esriFieldTypeString","alias":"MAREA","length":12},{"name":"LANE","type":"esriFieldTypeString","alias":"LANE","length":10},{"name":"ALLEY","type":"esriFieldTypeString","alias":"ALLEY","length":10},{"name":"HOUSE_NO","type":"esriFieldTypeString","alias":"HOUSE_NO","length":20},{"name":"E_COORD97","type":"esriFieldTypeDouble","alias":"E_COORD97"},{"name":"N_COORD97","type":"esriFieldTypeDouble","alias":"N_COORD97"},{"name":"ADDRESS","type":"esriFieldTypeString","alias":"ADDRESS","length":50},{"name":"OBJECTID","type":"esriFieldTypeOID","alias":"OBJECTID"}],"features":[{"attributes":{"ID":290407,"DIS_CODE":0,"TOWNNAME":"官田區","LI":"大崎里","LIN":"8鄰","STREET":" ","SECT":" ","MAREA":"大崎","LANE":" ","ALLEY":" ","HOUSE_NO":"６６號之４５","E_COORD97":185836.45000000001,"N_COORD97":2565390.6699999999,"ADDRESS":"大崎６６號之４５","OBJECTID":290401},"geometry":{"x":185836.45000000019,"y":2565390.6700000018}},{"attributes":{"ID":290408,"DIS_CODE":0,"TOWNNAME":"官田區","LI":"大崎里","LIN":"8鄰","STREET":" ","SECT":" ","MAREA":"大崎","LANE":" ","ALLEY":" ","HOUSE_NO":"６６號之４６","E_COORD97":185835.14000000001,"N_COORD97":2565382.3799999999,"ADDRESS":"大崎６６號之４６","OBJECTID":290402},"geometry":{"x":185835.14000000153,"y":2565382.379999999}},{"attributes":{"ID":290409,"DIS_CODE":0,"TOWNNAME":"官田區","LI":"大崎里","LIN":"8鄰","STREET":" ","SECT":" ","MAREA":"大崎","LANE":" ","ALLEY":" ","HOUSE_NO":"６６號之４７","E_COORD97":185837.89999999999,"N_COORD97":2565377.1099999999,"ADDRESS":"大崎６６號之４７","OBJECTID":290403},"geometry":{"x":185837.9000000013,"y":2565377.1100000013}},{"attributes":{"ID":290410,"DIS_CODE":0,"TOWNNAME":"官田區","LI":"大崎里","LIN":"8鄰","STREET":" ","SECT":" ","MAREA":"大崎","LANE":" ","ALLEY":" ","HOUSE_NO":"６６號之４８","E_COORD97":185843.82000000001,"N_COORD97":2565365.3599999999,"ADDRESS":"大崎６６號之４８","OBJECTID":290404},"geometry":{"x":185843.82000000123,"y":2565365.3599999994}},{"attributes":{"ID":290411,"DIS_CODE":0,"TOWNNAME":"官田區","LI":"大崎里","LIN":"8鄰","STREET":" ","SECT":" ","MAREA":"大崎","LANE":" ","ALLEY":" ","HOUSE_NO":"６６號之７３","E_COORD97":185940.10000000001,"N_COORD97":2565201.2799999998,"ADDRESS":"大崎６６號之７３","OBJECTID":290405},"geometry":{"x":185940.09999999963,"y":2565201.2800000031}},{"attributes":{"ID":290412,"DIS_CODE":0,"TOWNNAME":"官田區","LI":"大崎里","LIN":"8鄰","STREET":" ","SECT":" ","MAREA":"大崎","LANE":" ","ALLEY":" ","HOUSE_NO":"６６號之７４","E_COORD97":185949.31,"N_COORD97":2565184.1000000001,"ADDRESS":"大崎６６號之７４","OBJECTID":290406},"geometry":{"x":185949.31000000145,"y":2565184.1000000015}},{"attributes":{"ID":290413,"DIS_CODE":0,"TOWNNAME":"楠西區","LI":"東勢里","LIN":"21鄰","STREET":"民權路","SECT":" ","MAREA":" ","LANE":"３０巷","ALLEY":" ","HOUSE_NO":"５號","E_COORD97":197323.34,"N_COORD97":2564226.29,"ADDRESS":"民權路３０巷５號","OBJECTID":290407},"geometry":{"x":197323.33999999985,"y":2564226.290000001}},{"attributes":{"ID":290414,"DIS_CODE":0,"TOWNNAME":"官田區","LI":"大崎里","LIN":"8鄰","STREET":" ","SECT":" ","MAREA":"大崎","LANE":" ","ALLEY":" ","HOUSE_NO":"６６號之７５","E_COORD97":185950.98000000001,"N_COORD97":2565179.2999999998,"ADDRESS":"大崎６６號之７５","OBJECTID":290408},"geometry":{"x":185950.98000000138,"y":2565179.3000000026}},{"attributes":{"ID":290415,"DIS_CODE":0,"TOWNNAME":"官田區","LI":"大崎里","LIN":"8鄰","STREET":" ","SECT":" ","MAREA":"大崎","LANE":" ","ALLEY":" ","HOUSE_NO":"６６號之７６","E_COORD97":185954.06,"N_COORD97":2565173.3599999999,"ADDRESS":"大崎６６號之７６","OBJECTID":290409},"geometry":{"x":185954.05999999959,"y":2565173.3599999994}},{"attributes":{"ID":290416,"DIS_CODE":0,"TOWNNAME":"官田區","LI":"大崎里","LIN":"8鄰","STREET":" ","SECT":" ","MAREA":"大崎","LANE":" ","ALLEY":" ","HOUSE_NO":"６６號之７７","E_COORD97":185956.94,"N_COORD97":2565167.96,"ADDRESS":"大崎６６號之７７","OBJECTID":290410},"geometry":{"x":185956.94000000041,"y":2565167.9600000046}},{"attributes":{"ID":290417,"DIS_CODE":0,"TOWNNAME":"官田區","LI":"大崎里","LIN":"8鄰","STREET":" ","SECT":" ","MAREA":"大崎","LANE":" ","ALLEY":" ","HOUSE_NO":"６６號之７８","E_COORD97":185960.98999999999,"N_COORD97":2565163.6299999999,"ADDRESS":"大崎６６號之７８","OBJECTID":290411},"geometry":{"x":185960.99000000115,"y":2565163.629999999}},{"attributes":{"ID":290418,"DIS_CODE":0,"TOWNNAME":"楠西區","LI":"東勢里","LIN":"21鄰","STREET":"民生路","SECT":" ","MAREA":" ","LANE":"８２巷","ALLEY":" ","HOUSE_NO":"６號","E_COORD97":197398.94,"N_COORD97":2564189.29,"ADDRESS":"民生路８２巷６號","OBJECTID":290412},"geometry":{"x":197398.94000000134,"y":2564189.2899999991}},{"attributes":{"ID":290419,"DIS_CODE":0,"TOWNNAME":"柳營區","LI":"士林里","LIN":"1鄰","STREET":"仁愛路","SECT":" ","MAREA":" ","LANE":" ","ALLEY":" ","HOUSE_NO":"２號","E_COORD97":179210.88,"N_COORD97":2575081.3900000001,"ADDRESS":"仁愛路２號","OBJECTID":290413},"geometry":{"x":179210.88000000082,"y":2575081.3900000043}},{"attributes":{"ID":290420,"DIS_CODE":0,"TOWNNAME":"中西區","LI":"大南里","LIN":"1鄰","STREET":"健康路","SECT":"一段","MAREA":" ","LANE":" ","ALLEY":" ","HOUSE_NO":"３２２之１號","E_COORD97":168225.34,"N_COORD97":2542465.1299999999,"ADDRESS":"健康路一段３２２之１號","OBJECTID":290414},"geometry":{"x":168225.33999999985,"y":2542465.129999999}},{"attributes":{"ID":290421,"DIS_CODE":0,"TOWNNAME":"中西區","LI":"中正里","LIN":"6鄰","STREET":"海安路","SECT":"二段","MAREA":" ","LANE":" ","ALLEY":" ","HOUSE_NO":"７６號","E_COORD97":167637.13,"N_COORD97":2543914.6299999999,"ADDRESS":"海安路二段７６號","OBJECTID":290415},"geometry":{"x":167637.12999999989,"y":2543914.6300000008}},{"attributes":{"ID":290422,"DIS_CODE":0,"TOWNNAME":"中西區","LI":"西湖里","LIN":"2鄰","STREET":"頂美三街","SECT":" ","MAREA":" ","LANE":" ","ALLEY":" ","HOUSE_NO":"５３號","E_COORD97":166564.04999999999,"N_COORD97":2544598.0899999999,"ADDRESS":"頂美三街５３號","OBJECTID":290416},"geometry":{"x":166564.05000000075,"y":2544598.0900000017}},{"attributes":{"ID":290423,"DIS_CODE":0,"TOWNNAME":"中西區","LI":"青年里","LIN":"2鄰","STREET":"衛民街","SECT":" ","MAREA":" ","LANE":" ","ALLEY":" ","HOUSE_NO":"３１號","E_COORD97":169146.56,"N_COORD97":2543695.48,"ADDRESS":"衛民街３１號","OBJECTID":290417},"geometry":{"x":169146.56000000145,"y":2543695.4800000004}},{"attributes":{"ID":290424,"DIS_CODE":0,"TOWNNAME":"楠西區","LI":"東勢里","LIN":"21鄰","STREET":"民權路","SECT":" ","MAREA":" ","LANE":"３０巷","ALLEY":" ","HOUSE_NO":"１１號","E_COORD97":197324.89000000001,"N_COORD97":2564204.29,"ADDRESS":"民權路３０巷１１號","OBJECTID":290418},"geometry":{"x":197324.88999999966,"y":2564204.2900000028}},{"attributes":{"ID":290425,"DIS_CODE":0,"TOWNNAME":"楠西區","LI":"東勢里","LIN":"21鄰","STREET":"民生路","SECT":" ","MAREA":" ","LANE":"８２巷","ALLEY":" ","HOUSE_NO":"２８號","E_COORD97":197347.09,"N_COORD97":2564187.29,"ADDRESS":"民生路８２巷２８號","OBJECTID":290419},"geometry":{"x":197347.08999999985,"y":2564187.2900000028}},{"attributes":{"ID":290426,"DIS_CODE":0,"TOWNNAME":"楠西區","LI":"東勢里","LIN":"21鄰","STREET":"民權路","SECT":" ","MAREA":" ","LANE":"３０巷","ALLEY":" ","HOUSE_NO":"１９號","E_COORD97":197334.69,"N_COORD97":2564181.29,"ADDRESS":"民權路３０巷１９號","OBJECTID":290420},"geometry":{"x":197334.69000000134,"y":2564181.290000001}},{"attributes":{"ID":290427,"DIS_CODE":0,"TOWNNAME":"楠西區","LI":"東勢里","LIN":"21鄰","STREET":"民權路","SECT":" ","MAREA":" ","LANE":"３０巷","ALLEY":" ","HOUSE_NO":"１７號","E_COORD97":197334.89000000001,"N_COORD97":2564185.29,"ADDRESS":"民權路３０巷１７號","OBJECTID":290421},"geometry":{"x":197334.88999999966,"y":2564185.290000001}},{"attributes":{"ID":290428,"DIS_CODE":0,"TOWNNAME":"新營區","LI":"大宏里","LIN":"21鄰","STREET":"三民路","SECT":" ","MAREA":" ","LANE":"８巷","ALLEY":" ","HOUSE_NO":"６號","E_COORD97":180621.53,"N_COORD97":2578574.21,"ADDRESS":"三民路８巷６號","OBJECTID":290422},"geometry":{"x":180621.53000000026,"y":2578574.2100000009}},{"attributes":{"ID":290429,"DIS_CODE":0,"TOWNNAME":"新營區","LI":"新北里","LIN":"21鄰","STREET":"民生路","SECT":" ","MAREA":" ","LANE":"３３６巷","ALLEY":" ","HOUSE_NO":"７５號","E_COORD97":179039.54000000001,"N_COORD97":2579240.6600000001,"ADDRESS":"民生路３３６巷７５號","OBJECTID":290423},"geometry":{"x":179039.54000000004,"y":2579240.660000002}},{"attributes":{"ID":290430,"DIS_CODE":0,"TOWNNAME":"北區","LI":"六甲里","LIN":"21鄰","STREET":"西門路","SECT":"四段","MAREA":" ","LANE":"３３０巷","ALLEY":" ","HOUSE_NO":"３８號","E_COORD97":169097.89000000001,"N_COORD97":2545976.1099999999,"ADDRESS":"西門路四段３３０巷３８號","OBJECTID":290424},"geometry":{"x":169097.88999999966,"y":2545976.1100000013}},{"attributes":{"ID":290431,"DIS_CODE":0,"TOWNNAME":"北區","LI":"六甲里","LIN":"21鄰","STREET":"西門路","SECT":"四段","MAREA":" ","LANE":"３３０巷","ALLEY":" ","HOUSE_NO":"４０號","E_COORD97":169104.37,"N_COORD97":2545975.6899999999,"ADDRESS":"西門路四段３３０巷４０號","OBJECTID":290425},"geometry":{"x":169104.37000000197,"y":2545975.6900000013}},{"attributes":{"ID":290432,"DIS_CODE":0,"TOWNNAME":"中西區","LI":" ","LIN":" ","STREET":"和平街","SECT":" ","MAREA":" ","LANE":" ","ALLEY":" ","HOUSE_NO":"１４１號","E_COORD97":167482.26000000001,"N_COORD97":2544137.1099999999,"ADDRESS":"和平街１４１號","OBJECTID":290426},"geometry":{"x":167482.25999999885,"y":2544137.1099999994}},{"attributes":{"ID":290433,"DIS_CODE":0,"TOWNNAME":"中西區","LI":"大涼里","LIN":"2鄰","STREET":"環河街","SECT":" ","MAREA":" ","LANE":" ","ALLEY":" ","HOUSE_NO":"５２號","E_COORD97":167178.79000000001,"N_COORD97":2543741.1699999999,"ADDRESS":"環河街５２號","OBJECTID":290427},"geometry":{"x":167178.79000000004,"y":2543741.1699999999}},{"attributes":{"ID":290434,"DIS_CODE":0,"TOWNNAME":"中西區","LI":"大涼里","LIN":"21鄰","STREET":"府前二街","SECT":" ","MAREA":" ","LANE":" ","ALLEY":" ","HOUSE_NO":"６０之６號","E_COORD97":166677.09,"N_COORD97":2543888.0800000001,"ADDRESS":"府前二街６０之６號","OBJECTID":290428},"geometry":{"x":166677.09000000078,"y":2543888.0800000038}},{"attributes":{"ID":290435,"DIS_CODE":0,"TOWNNAME":"中西區","LI":"大涼里","LIN":"21鄰","STREET":"府前二街","SECT":" ","MAREA":" ","LANE":" ","ALLEY":" ","HOUSE_NO":"６０之５號","E_COORD97":166676.92999999999,"N_COORD97":2543886.02,"ADDRESS":"府前二街６０之５號","OBJECTID":290429},"geometry":{"x":166676.9299999997,"y":2543886.0200000014}},{"attributes":{"ID":290436,"DIS_CODE":0,"TOWNNAME":"中西區","LI":"大涼里","LIN":"21鄰","STREET":"府前二街","SECT":" ","MAREA":" ","LANE":" ","ALLEY":" ","HOUSE_NO":"３８號","E_COORD97":166699.63,"N_COORD97":2543834.5800000001,"ADDRESS":"府前二街３８號","OBJECTID":290430},"geometry":{"x":166699.62999999989,"y":2543834.5800000019}},{"attributes":{"ID":290437,"DIS_CODE":0,"TOWNNAME":"北區","LI":"六甲里","LIN":"21鄰","STREET":"西門路","SECT":"四段","MAREA":" ","LANE":"３３０巷","ALLEY":" ","HOUSE_NO":"４２號","E_COORD97":169108.97,"N_COORD97":2545975.27,"ADDRESS":"西門路四段３３０巷４２號","OBJECTID":290431},"geometry":{"x":169108.97000000067,"y":2545975.2700000014}},{"attributes":{"ID":290438,"DIS_CODE":0,"TOWNNAME":"北區","LI":"六甲里","LIN":"21鄰","STREET":"西門路","SECT":"四段","MAREA":" ","LANE":"３３０巷","ALLEY":" ","HOUSE_NO":"４２號之１","E_COORD97":169114.82000000001,"N_COORD97":2545975.0600000001,"ADDRESS":"西門路四段３３０巷４２號之１","OBJECTID":290432},"geometry":{"x":169114.8200000003,"y":2545975.0600000024}},{"attributes":{"ID":290439,"DIS_CODE":0,"TOWNNAME":"北區","LI":"文成里","LIN":"21鄰","STREET":"海安路","SECT":"三段","MAREA":" ","LANE":"１３５巷","ALLEY":" ","HOUSE_NO":"１０１號","E_COORD97":167696.76000000001,"N_COORD97":2545004.6699999999,"ADDRESS":"海安路三段１３５巷１０１號","OBJECTID":290433},"geometry":{"x":167696.76000000071,"y":2545004.6699999999}},{"attributes":{"ID":290440,"DIS_CODE":0,"TOWNNAME":"北區","LI":"文成里","LIN":"21鄰","STREET":"海安路","SECT":"三段","MAREA":" ","LANE":"１３５巷","ALLEY":" ","HOUSE_NO":"１０３號","E_COORD97":167692.60999999999,"N_COORD97":2545005.0499999998,"ADDRESS":"海安路三段１３５巷１０３號","OBJECTID":290434},"geometry":{"x":167692.6100000022,"y":2545005.0500000026}},{"attributes":{"ID":290441,"DIS_CODE":0,"TOWNNAME":"北區","LI":"文成里","LIN":"21鄰","STREET":"海安路","SECT":"三段","MAREA":" ","LANE":"１３５巷","ALLEY":" ","HOUSE_NO":"１０５號","E_COORD97":167687.69,"N_COORD97":2545005.4199999999,"ADDRESS":"海安路三段１３５巷１０５號","OBJECTID":290435},"geometry":{"x":167687.69000000134,"y":2545005.4200000018}},{"attributes":{"ID":290442,"DIS_CODE":0,"TOWNNAME":"北區","LI":"文成里","LIN":"21鄰","STREET":"海安路","SECT":"三段","MAREA":" ","LANE":"１３５巷","ALLEY":" ","HOUSE_NO":"１０７號","E_COORD97":167683.16,"N_COORD97":2545005.4199999999,"ADDRESS":"海安路三段１３５巷１０７號","OBJECTID":290436},"geometry":{"x":167683.16000000015,"y":2545005.4200000018}},{"attributes":{"ID":290443,"DIS_CODE":0,"TOWNNAME":"北區","LI":"文成里","LIN":"21鄰","STREET":"海安路","SECT":"三段","MAREA":" ","LANE":"１３５巷","ALLEY":" ","HOUSE_NO":"１０９號","E_COORD97":167679,"N_COORD97":2545005.6000000001,"ADDRESS":"海安路三段１３５巷１０９號","OBJECTID":290437},"geometry":{"x":167679,"y":2545005.5999999996}},{"attributes":{"ID":290444,"DIS_CODE":0,"TOWNNAME":"北區","LI":"文成里","LIN":"21鄰","STREET":"海安路","SECT":"三段","MAREA":" ","LANE":"１３５巷","ALLEY":" ","HOUSE_NO":"１１１號","E_COORD97":167674.28,"N_COORD97":2545005.6000000001,"ADDRESS":"海安路三段１３５巷１１１號","OBJECTID":290438},"geometry":{"x":167674.28000000212,"y":2545005.5999999996}},{"attributes":{"ID":290445,"DIS_CODE":0,"TOWNNAME":"北區","LI":"文成里","LIN":"21鄰","STREET":"海安路","SECT":"三段","MAREA":" ","LANE":"１３５巷","ALLEY":" ","HOUSE_NO":"１１３號","E_COORD97":167670.5,"N_COORD97":2545005.0499999998,"ADDRESS":"海安路三段１３５巷１１３號","OBJECTID":290439},"geometry":{"x":167670.5,"y":2545005.0500000026}},{"attributes":{"ID":290446,"DIS_CODE":0,"TOWNNAME":"北區","LI":"文成里","LIN":"21鄰","STREET":"海安路","SECT":"三段","MAREA":" ","LANE":"１３５巷","ALLEY":" ","HOUSE_NO":"１１５號","E_COORD97":167665.95999999999,"N_COORD97":2545005.2400000002,"ADDRESS":"海安路三段１３５巷１１５號","OBJECTID":290440},"geometry":{"x":167665.96000000183,"y":2545005.2400000002}},{"attributes":{"ID":290447,"DIS_CODE":0,"TOWNNAME":"北區","LI":"文成里","LIN":"21鄰","STREET":"海安路","SECT":"三段","MAREA":" ","LANE":"１３５巷","ALLEY":" ","HOUSE_NO":"１１７號","E_COORD97":167661.42999999999,"N_COORD97":2545005.2400000002,"ADDRESS":"海安路三段１３５巷１１７號","OBJECTID":290441},"geometry":{"x":167661.43000000063,"y":2545005.2400000002}},{"attributes":{"ID":290448,"DIS_CODE":0,"TOWNNAME":"北區","LI":"文成里","LIN":"21鄰","STREET":"海安路","SECT":"三段","MAREA":" ","LANE":"１３５巷","ALLEY":" ","HOUSE_NO":"１１９號","E_COORD97":167657.26999999999,"N_COORD97":2545004.8599999999,"ADDRESS":"海安路三段１３５巷１１９號","OBJECTID":290442},"geometry":{"x":167657.27000000048,"y":2545004.8600000013}},{"attributes":{"ID":290449,"DIS_CODE":0,"TOWNNAME":"北區","LI":"文成里","LIN":"21鄰","STREET":"海安路","SECT":"三段","MAREA":" ","LANE":"１３５巷","ALLEY":" ","HOUSE_NO":"１２１號","E_COORD97":167653.29999999999,"N_COORD97":2545004.48,"ADDRESS":"海安路三段１３５巷１２１號","OBJECTID":290443},"geometry":{"x":167653.30000000168,"y":2545004.4799999986}},{"attributes":{"ID":290450,"DIS_CODE":0,"TOWNNAME":"東區","LI":"大智里","LIN":"21鄰","STREET":"崇善十五街","SECT":" ","MAREA":" ","LANE":"３３巷","ALLEY":" ","HOUSE_NO":"５６號七樓","E_COORD97":171313.64000000001,"N_COORD97":2540466.8500000001,"ADDRESS":"崇善十五街３３巷５６號七樓","OBJECTID":290444},"geometry":{"x":171313.63999999966,"y":2540466.8499999996}},{"attributes":{"ID":290451,"DIS_CODE":0,"TOWNNAME":"東區","LI":"大智里","LIN":"21鄰","STREET":"崇善十五街","SECT":" ","MAREA":" ","LANE":"３３巷","ALLEY":" ","HOUSE_NO":"５６號七樓之１１","E_COORD97":171313.64000000001,"N_COORD97":2540466.8500000001,"ADDRESS":"崇善十五街３３巷５６號七樓之１１","OBJECTID":290445},"geometry":{"x":171313.63999999966,"y":2540466.8499999996}},{"attributes":{"ID":290452,"DIS_CODE":0,"TOWNNAME":"東區","LI":"大智里","LIN":"21鄰","STREET":"崇善十五街","SECT":" ","MAREA":" ","LANE":"３３巷","ALLEY":" ","HOUSE_NO":"５６號七樓之２","E_COORD97":171313.64000000001,"N_COORD97":2540466.8500000001,"ADDRESS":"崇善十五街３３巷５６號七樓之２","OBJECTID":290446},"geometry":{"x":171313.63999999966,"y":2540466.8499999996}},{"attributes":{"ID":290453,"DIS_CODE":0,"TOWNNAME":"東區","LI":"大智里","LIN":"21鄰","STREET":"崇善十五街","SECT":" ","MAREA":" ","LANE":"３３巷","ALLEY":" ","HOUSE_NO":"５６號七樓之３","E_COORD97":171313.64000000001,"N_COORD97":2540466.8500000001,"ADDRESS":"崇善十五街３３巷５６號七樓之３","OBJECTID":290447},"geometry":{"x":171313.63999999966,"y":2540466.8499999996}},{"attributes":{"ID":290454,"DIS_CODE":0,"TOWNNAME":"中西區","LI":"天后里","LIN":"17鄰","STREET":"郡緯街","SECT":" ","MAREA":" ","LANE":" ","ALLEY":" ","HOUSE_NO":"３９之１號","E_COORD97":168067.04000000001,"N_COORD97":2544332.3799999999,"ADDRESS":"郡緯街３９之１號","OBJECTID":290448},"geometry":{"x":168067.04000000004,"y":2544332.3800000027}},{"attributes":{"ID":290455,"DIS_CODE":0,"TOWNNAME":"中西區","LI":"民主里","LIN":"7鄰","STREET":"金華路","SECT":"三段","MAREA":" ","LANE":" ","ALLEY":" ","HOUSE_NO":"１２３號","E_COORD97":167228.70000000001,"N_COORD97":2543556.3399999999,"ADDRESS":"金華路三段１２３號","OBJECTID":290449},"geometry":{"x":167228.70000000019,"y":2543556.3399999999}},{"attributes":{"ID":290456,"DIS_CODE":0,"TOWNNAME":"中西區","LI":"中正里","LIN":"10鄰","STREET":"正興街","SECT":" ","MAREA":" ","LANE":" ","ALLEY":" ","HOUSE_NO":"１１１號","E_COORD97":167575.75,"N_COORD97":2543908.79,"ADDRESS":"正興街１１１號","OBJECTID":290450},"geometry":{"x":167575.75,"y":2543908.7899999991}},{"attributes":{"ID":290457,"DIS_CODE":0,"TOWNNAME":"東區","LI":"大智里","LIN":"21鄰","STREET":"崇善十五街","SECT":" ","MAREA":" ","LANE":"３３巷","ALLEY":" ","HOUSE_NO":"５６號七樓之４","E_COORD97":171313.64000000001,"N_COORD97":2540466.8500000001,"ADDRESS":"崇善十五街３３巷５６號七樓之４","OBJECTID":290451},"geometry":{"x":171313.63999999966,"y":2540466.8499999996}},{"attributes":{"ID":290458,"DIS_CODE":0,"TOWNNAME":"東區","LI":"大智里","LIN":"21鄰","STREET":"崇善十五街","SECT":" ","MAREA":" ","LANE":"３３巷","ALLEY":" ","HOUSE_NO":"５６號七樓之５","E_COORD97":171313.64000000001,"N_COORD97":2540466.8500000001,"ADDRESS":"崇善十五街３３巷５６號七樓之５","OBJECTID":290452},"geometry":{"x":171313.63999999966,"y":2540466.8499999996}},{"attributes":{"ID":290459,"DIS_CODE":0,"TOWNNAME":"東區","LI":"大智里","LIN":"21鄰","STREET":"崇善十五街","SECT":" ","MAREA":" ","LANE":"３３巷","ALLEY":" ","HOUSE_NO":"５６號七樓之６","E_COORD97":171313.64000000001,"N_COORD97":2540466.8500000001,"ADDRESS":"崇善十五街３３巷５６號七樓之６","OBJECTID":290453},"geometry":{"x":171313.63999999966,"y":2540466.8499999996}},{"attributes":{"ID":290460,"DIS_CODE":0,"TOWNNAME":"麻豆區","LI":"保安里","LIN":"14鄰","STREET":"興中路","SECT":" ","MAREA":" ","LANE":" ","ALLEY":" ","HOUSE_NO":"８８號","E_COORD97":173292.17466600001,"N_COORD97":2564805.1151700001,"ADDRESS":"興中路８８號","OBJECTID":290454},"geometry":{"x":173292.17466600053,"y":2564805.1151720006}},{"attributes":{"ID":290461,"DIS_CODE":0,"TOWNNAME":"中西區","LI":"公正里","LIN":"12鄰","STREET":"西華南街","SECT":" ","MAREA":" ","LANE":" ","ALLEY":" ","HOUSE_NO":"２號","E_COORD97":168951.04000000001,"N_COORD97":2543748.0099999998,"ADDRESS":"西華南街２號","OBJECTID":290455},"geometry":{"x":168951.04000000097,"y":2543748.0099999998}},{"attributes":{"ID":290462,"DIS_CODE":0,"TOWNNAME":"中西區","LI":"光賢里","LIN":"11鄰","STREET":"中華西路","SECT":"二段","MAREA":" ","LANE":" ","ALLEY":" ","HOUSE_NO":"５８８號","E_COORD97":166667.32999999999,"N_COORD97":2544914.1400000001,"ADDRESS":"中華西路二段５８８號","OBJECTID":290456},"geometry":{"x":166667.33000000101,"y":2544914.1400000006}},{"attributes":{"ID":290463,"DIS_CODE":0,"TOWNNAME":"中西區","LI":"保安里","LIN":"11鄰","STREET":"中正路","SECT":" ","MAREA":" ","LANE":" ","ALLEY":" ","HOUSE_NO":"２２７號","E_COORD97":167725.76000000001,"N_COORD97":2543703.6000000001,"ADDRESS":"中正路２２７號","OBJECTID":290457},"geometry":{"x":167725.75999999978,"y":2543703.5999999996}},{"attributes":{"ID":290464,"DIS_CODE":0,"TOWNNAME":"中西區","LI":"藥王里","LIN":"22鄰","STREET":"永和街","SECT":" ","MAREA":" ","LANE":" ","ALLEY":" ","HOUSE_NO":"６５號","E_COORD97":167032.67000000001,"N_COORD97":2544626.7400000002,"ADDRESS":"永和街６５號","OBJECTID":290458},"geometry":{"x":167032.67000000086,"y":2544626.7400000021}},{"attributes":{"ID":290465,"DIS_CODE":0,"TOWNNAME":"中西區","LI":"銀同里","LIN":"13鄰","STREET":"友愛東街","SECT":" ","MAREA":" ","LANE":" ","ALLEY":" ","HOUSE_NO":"４２號","E_COORD97":168621.85000000001,"N_COORD97":2543529.2000000002,"ADDRESS":"友愛東街４２號","OBJECTID":290459},"geometry":{"x":168621.84999999963,"y":2543529.1999999993}},{"attributes":{"ID":290466,"DIS_CODE":0,"TOWNNAME":"東區","LI":"大智里","LIN":"21鄰","STREET":"崇善十五街","SECT":" ","MAREA":" ","LANE":"３３巷","ALLEY":" ","HOUSE_NO":"５６號七樓之７","E_COORD97":171313.64000000001,"N_COORD97":2540466.8500000001,"ADDRESS":"崇善十五街３３巷５６號七樓之７","OBJECTID":290460},"geometry":{"x":171313.63999999966,"y":2540466.8499999996}},{"attributes":{"ID":290467,"DIS_CODE":0,"TOWNNAME":"東區","LI":"大智里","LIN":"21鄰","STREET":"崇善十五街","SECT":" ","MAREA":" ","LANE":"３３巷","ALLEY":" ","HOUSE_NO":"５６號七樓之８","E_COORD97":171313.64000000001,"N_COORD97":2540466.8500000001,"ADDRESS":"崇善十五街３３巷５６號七樓之８","OBJECTID":290461},"geometry":{"x":171313.63999999966,"y":2540466.8499999996}},{"attributes":{"ID":290468,"DIS_CODE":0,"TOWNNAME":"東區","LI":"大智里","LIN":"21鄰","STREET":"崇善十五街","SECT":" ","MAREA":" ","LANE":"３３巷","ALLEY":" ","HOUSE_NO":"５６號七樓之９","E_COORD97":171313.64000000001,"N_COORD97":2540466.8500000001,"ADDRESS":"崇善十五街３３巷５６號七樓之９","OBJECTID":290462},"geometry":{"x":171313.63999999966,"y":2540466.8499999996}},{"attributes":{"ID":290469,"DIS_CODE":0,"TOWNNAME":"永康區","LI":"崑山里","LIN":"21鄰","STREET":"大仁街","SECT":" ","MAREA":" ","LANE":"５１巷","ALLEY":" ","HOUSE_NO":"５號六樓之１","E_COORD97":173762.67999999999,"N_COORD97":2544652.0099999998,"ADDRESS":"大仁街５１巷５號六樓之１","OBJECTID":290463},"geometry":{"x":173762.6799999997,"y":2544652.0100000016}},{"attributes":{"ID":290470,"DIS_CODE":0,"TOWNNAME":"新營區","LI":"王公里","LIN":"34鄰","STREET":"長榮路","SECT":"一段","MAREA":" ","LANE":" ","ALLEY":" ","HOUSE_NO":"５６５號","E_COORD97":180147.200682,"N_COORD97":2579851.96808,"ADDRESS":"長榮路一段５６５號","OBJECTID":290464},"geometry":{"x":180147.20068200119,"y":2579851.9680750016}},{"attributes":{"ID":290471,"DIS_CODE":0,"TOWNNAME":"永康區","LI":"崑山里","LIN":"21鄰","STREET":"大仁街","SECT":" ","MAREA":" ","LANE":"５１巷","ALLEY":" ","HOUSE_NO":"５號六樓之２","E_COORD97":173762.82000000001,"N_COORD97":2544652.0099999998,"ADDRESS":"大仁街５１巷５號六樓之２","OBJECTID":290465},"geometry":{"x":173762.8200000003,"y":2544652.0100000016}},{"attributes":{"ID":290472,"DIS_CODE":0,"TOWNNAME":"永康區","LI":"崑山里","LIN":"21鄰","STREET":"大仁街","SECT":" ","MAREA":" ","LANE":"５１巷","ALLEY":" ","HOUSE_NO":"５號四樓之３","E_COORD97":173762.78,"N_COORD97":2544652.0099999998,"ADDRESS":"大仁街５１巷５號四樓之３","OBJECTID":290466},"geometry":{"x":173762.78000000026,"y":2544652.0100000016}},{"attributes":{"ID":290473,"DIS_CODE":0,"TOWNNAME":"永康區","LI":"崑山里","LIN":"21鄰","STREET":"大仁街","SECT":" ","MAREA":" ","LANE":"３１巷","ALLEY":" ","HOUSE_NO":"３５號三樓之１","E_COORD97":173708.64999999999,"N_COORD97":2544604.9399999999,"ADDRESS":"大仁街３１巷３５號三樓之１","OBJECTID":290467},"geometry":{"x":173708.6500000013,"y":2544604.9400000013}},{"attributes":{"ID":290474,"DIS_CODE":0,"TOWNNAME":"永康區","LI":"崑山里","LIN":"21鄰","STREET":"大仁街","SECT":" ","MAREA":" ","LANE":"３１巷","ALLEY":" ","HOUSE_NO":"３５號三樓之１３","E_COORD97":173710,"N_COORD97":2544604.9399999999,"ADDRESS":"大仁街３１巷３５號三樓之１３","OBJECTID":290468},"geometry":{"x":173710,"y":2544604.9400000013}},{"attributes":{"ID":290475,"DIS_CODE":0,"TOWNNAME":"永康區","LI":"崑山里","LIN":"21鄰","STREET":"大仁街","SECT":" ","MAREA":" ","LANE":"３１巷","ALLEY":" ","HOUSE_NO":"３５號三樓之１１","E_COORD97":173709.89999999999,"N_COORD97":2544604.9399999999,"ADDRESS":"大仁街３１巷３５號三樓之１１","OBJECTID":290469},"geometry":{"x":173709.90000000037,"y":2544604.9400000013}},{"attributes":{"ID":290476,"DIS_CODE":0,"TOWNNAME":"永康區","LI":"崑山里","LIN":"21鄰","STREET":"大仁街","SECT":" ","MAREA":" ","LANE":"３１巷","ALLEY":" ","HOUSE_NO":"３５號四樓之６","E_COORD97":173708.76000000001,"N_COORD97":2544604.9399999999,"ADDRESS":"大仁街３１巷３５號四樓之６","OBJECTID":290470},"geometry":{"x":173708.76000000164,"y":2544604.9400000013}},{"attributes":{"ID":290477,"DIS_CODE":0,"TOWNNAME":"永康區","LI":"崑山里","LIN":"21鄰","STREET":"大仁街","SECT":" ","MAREA":" ","LANE":"３１巷","ALLEY":" ","HOUSE_NO":"３５號七樓之１","E_COORD97":173708.64999999999,"N_COORD97":2544604.9399999999,"ADDRESS":"大仁街３１巷３５號七樓之１","OBJECTID":290471},"geometry":{"x":173708.6500000013,"y":2544604.9400000013}},{"attributes":{"ID":290478,"DIS_CODE":0,"TOWNNAME":"中西區","LI":"水仙里","LIN":"5鄰","STREET":"國華街","SECT":"三段","MAREA":" ","LANE":" ","ALLEY":" ","HOUSE_NO":"１０５之１號","E_COORD97":167797.51000000001,"N_COORD97":2544040.3999999999,"ADDRESS":"國華街三段１０５之１號","OBJECTID":290472},"geometry":{"x":167797.50999999978,"y":2544040.4000000022}},{"attributes":{"ID":290479,"DIS_CODE":0,"TOWNNAME":"中西區","LI":"保安里","LIN":"14鄰","STREET":"海安路","SECT":"一段","MAREA":" ","LANE":" ","ALLEY":" ","HOUSE_NO":"１８３之１號","E_COORD97":167537.14999999999,"N_COORD97":2543682.71,"ADDRESS":"海安路一段１８３之１號","OBJECTID":290473},"geometry":{"x":167537.15000000037,"y":2543682.7100000028}},{"attributes":{"ID":290480,"DIS_CODE":0,"TOWNNAME":"中西區","LI":"法華里","LIN":"16鄰","STREET":"五妃街","SECT":" ","MAREA":" ","LANE":" ","ALLEY":" ","HOUSE_NO":"１００號","E_COORD97":168830.29999999999,"N_COORD97":2542575.02,"ADDRESS":"五妃街１００號","OBJECTID":290474},"geometry":{"x":168830.30000000075,"y":2542575.0199999996}},{"attributes":{"ID":290481,"DIS_CODE":0,"TOWNNAME":"中西區","LI":"中正里","LIN":"5鄰","STREET":"民生路","SECT":"二段","MAREA":" ","LANE":" ","ALLEY":" ","HOUSE_NO":"３９號","E_COORD97":167787.92999999999,"N_COORD97":2543915.9300000002,"ADDRESS":"民生路二段３９號","OBJECTID":290475},"geometry":{"x":167787.93000000156,"y":2543915.9300000034}},{"attributes":{"ID":290482,"DIS_CODE":0,"TOWNNAME":"善化區","LI":"光文里","LIN":"18鄰","STREET":"和平路","SECT":" ","MAREA":" ","LANE":" ","ALLEY":" ","HOUSE_NO":"１３２號","E_COORD97":178128.87,"N_COORD97":2558941,"ADDRESS":"和平路１３２號","OBJECTID":290476},"geometry":{"x":178128.87000000011,"y":2558941}},{"attributes":{"ID":290483,"DIS_CODE":0,"TOWNNAME":"善化區","LI":"光文里","LIN":"20鄰","STREET":"和平路","SECT":" ","MAREA":" ","LANE":" ","ALLEY":" ","HOUSE_NO":"１１５號","E_COORD97":178118.89999999999,"N_COORD97":2558868.25,"ADDRESS":"和平路１１５號","OBJECTID":290477},"geometry":{"x":178118.90000000037,"y":2558868.25}},{"attributes":{"ID":290484,"DIS_CODE":0,"TOWNNAME":"永康區","LI":"崑山里","LIN":"21鄰","STREET":"大仁街","SECT":" ","MAREA":" ","LANE":"３１巷","ALLEY":" ","HOUSE_NO":"３５號六樓之１６","E_COORD97":173710.01000000001,"N_COORD97":2544604.9399999999,"ADDRESS":"大仁街３１巷３５號六樓之１６","OBJECTID":290478},"geometry":{"x":173710.00999999978,"y":2544604.9400000013}},{"attributes":{"ID":290485,"DIS_CODE":0,"TOWNNAME":"新化區","LI":"東榮里","LIN":"25鄰","STREET":"光明路","SECT":" ","MAREA":" ","LANE":"７５巷","ALLEY":" ","HOUSE_NO":"５號","E_COORD97":179239.07000000001,"N_COORD97":2548019.25,"ADDRESS":"光明路７５巷５號","OBJECTID":290479},"geometry":{"x":179239.07000000123,"y":2548019.25}},{"attributes":{"ID":290486,"DIS_CODE":0,"TOWNNAME":"新化區","LI":"武安里","LIN":"14鄰","STREET":"健康路","SECT":" ","MAREA":" ","LANE":"１０２巷","ALLEY":" ","HOUSE_NO":"５號","E_COORD97":178842.03,"N_COORD97":2548163.2599999998,"ADDRESS":"健康路１０２巷５號","OBJECTID":290480},"geometry":{"x":178842.03000000026,"y":2548163.2600000016}},{"attributes":{"ID":290487,"DIS_CODE":0,"TOWNNAME":"善化區","LI":"光文里","LIN":"25鄰","STREET":"公園路","SECT":" ","MAREA":" ","LANE":" ","ALLEY":" ","HOUSE_NO":"９１號","E_COORD97":178105,"N_COORD97":2559191.25,"ADDRESS":"公園路９１號","OBJECTID":290481},"geometry":{"x":178105.00000000093,"y":2559191.2500000037}},{"attributes":{"ID":290488,"DIS_CODE":0,"TOWNNAME":"中西區","LI":"青年里","LIN":"19鄰","STREET":"中山路","SECT":" ","MAREA":" ","LANE":" ","ALLEY":" ","HOUSE_NO":"３６號","E_COORD97":168638.03,"N_COORD97":2543753.27,"ADDRESS":"中山路３６號","OBJECTID":290482},"geometry":{"x":168638.03000000026,"y":2543753.2699999996}},{"attributes":{"ID":290489,"DIS_CODE":0,"TOWNNAME":"安南區","LI":"安西里","LIN":"5鄰","STREET":"安通三街","SECT":" ","MAREA":" ","LANE":" ","ALLEY":" ","HOUSE_NO":"８９號","E_COORD97":168543.46455800001,"N_COORD97":2548065.1525900001,"ADDRESS":"安通三街８９號","OBJECTID":290483},"geometry":{"x":168543.46455800068,"y":2548065.1525930017}},{"attributes":{"ID":290490,"DIS_CODE":0,"TOWNNAME":"安南區","LI":"安西里","LIN":"5鄰","STREET":"安通三街","SECT":" ","MAREA":" ","LANE":" ","ALLEY":" ","HOUSE_NO":"８７號","E_COORD97":168540.708224,"N_COORD97":2548060.4959300002,"ADDRESS":"安通三街８７號","OBJECTID":290484},"geometry":{"x":168540.70822400041,"y":2548060.4959290009}},{"attributes":{"ID":290491,"DIS_CODE":0,"TOWNNAME":"安南區","LI":"佃東里","LIN":"1鄰","STREET":"安吉路","SECT":"二段","MAREA":" ","LANE":"５１１巷","ALLEY":" ","HOUSE_NO":"１６８號","E_COORD97":166854.668699,"N_COORD97":2551520.57547,"ADDRESS":"安吉路二段５１１巷１６８號","OBJECTID":290485},"geometry":{"x":166854.66869900096,"y":2551520.575468}},{"attributes":{"ID":290492,"DIS_CODE":0,"TOWNNAME":"新化區","LI":"協興里","LIN":"15鄰","STREET":"大新路","SECT":" ","MAREA":" ","LANE":"１１１巷","ALLEY":" ","HOUSE_NO":"５２號之１","E_COORD97":177987.41,"N_COORD97":2548642.2599999998,"ADDRESS":"大新路１１１巷５２號之１","OBJECTID":290486},"geometry":{"x":177987.41000000108,"y":2548642.2599999998}},{"attributes":{"ID":290493,"DIS_CODE":0,"TOWNNAME":"永康區","LI":"崑山里","LIN":"21鄰","STREET":"大仁街","SECT":" ","MAREA":" ","LANE":"３１巷","ALLEY":" ","HOUSE_NO":"３５號五樓之１６","E_COORD97":173710.01000000001,"N_COORD97":2544604.9399999999,"ADDRESS":"大仁街３１巷３５號五樓之１６","OBJECTID":290487},"geometry":{"x":173710.00999999978,"y":2544604.9400000013}},{"attributes":{"ID":290494,"DIS_CODE":0,"TOWNNAME":"永康區","LI":"崑山里","LIN":"21鄰","STREET":"大仁街","SECT":" ","MAREA":" ","LANE":"３１巷","ALLEY":" ","HOUSE_NO":"３５號五樓之１９","E_COORD97":173709.98999999999,"N_COORD97":2544604.9399999999,"ADDRESS":"大仁街３１巷３５號五樓之１９","OBJECTID":290488},"geometry":{"x":173709.99000000115,"y":2544604.9400000013}},{"attributes":{"ID":290495,"DIS_CODE":0,"TOWNNAME":"永康區","LI":"崑山里","LIN":"21鄰","STREET":"大仁街","SECT":" ","MAREA":" ","LANE":"３１巷","ALLEY":" ","HOUSE_NO":"３５號二樓之２","E_COORD97":173708.79000000001,"N_COORD97":2544604.9399999999,"ADDRESS":"大仁街３１巷３５號二樓之２","OBJECTID":290489},"geometry":{"x":173708.78999999911,"y":2544604.9400000013}},{"attributes":{"ID":290496,"DIS_CODE":0,"TOWNNAME":"永康區","LI":"崑山里","LIN":"21鄰","STREET":"大仁街","SECT":" ","MAREA":" ","LANE":"３１巷","ALLEY":" ","HOUSE_NO":"３５號五樓之１３","E_COORD97":173710,"N_COORD97":2544604.9399999999,"ADDRESS":"大仁街３１巷３５號五樓之１３","OBJECTID":290490},"geometry":{"x":173710,"y":2544604.9400000013}},{"attributes":{"ID":290497,"DIS_CODE":0,"TOWNNAME":"永康區","LI":"崑山里","LIN":"21鄰","STREET":"大仁街","SECT":" ","MAREA":" ","LANE":"５１巷","ALLEY":" ","HOUSE_NO":"５號一樓之１","E_COORD97":173762.67999999999,"N_COORD97":2544652.0099999998,"ADDRESS":"大仁街５１巷５號一樓之１","OBJECTID":290491},"geometry":{"x":173762.6799999997,"y":2544652.0100000016}},{"attributes":{"ID":290498,"DIS_CODE":0,"TOWNNAME":"永康區","LI":"崑山里","LIN":"21鄰","STREET":"大仁街","SECT":" ","MAREA":" ","LANE":"３１巷","ALLEY":" ","HOUSE_NO":"３５號六樓之１１","E_COORD97":173709.89999999999,"N_COORD97":2544604.9399999999,"ADDRESS":"大仁街３１巷３５號六樓之１１","OBJECTID":290492},"geometry":{"x":173709.90000000037,"y":2544604.9400000013}},{"attributes":{"ID":290499,"DIS_CODE":0,"TOWNNAME":"永康區","LI":"崑山里","LIN":"21鄰","STREET":"大仁街","SECT":" ","MAREA":" ","LANE":"３１巷","ALLEY":" ","HOUSE_NO":"３５號五樓之２","E_COORD97":173708.79000000001,"N_COORD97":2544604.9399999999,"ADDRESS":"大仁街３１巷３５號五樓之２","OBJECTID":290493},"geometry":{"x":173708.78999999911,"y":2544604.9400000013}},{"attributes":{"ID":290500,"DIS_CODE":0,"TOWNNAME":"安南區","LI":"安西里","LIN":"5鄰","STREET":"安通三街","SECT":" ","MAREA":" ","LANE":" ","ALLEY":" ","HOUSE_NO":"８５號","E_COORD97":168540.708224,"N_COORD97":2548056.6859300002,"ADDRESS":"安通三街８５號","OBJECTID":290494},"geometry":{"x":168540.70822400041,"y":2548056.6859310009}},{"attributes":{"ID":290501,"DIS_CODE":0,"TOWNNAME":"安南區","LI":"安西里","LIN":"5鄰","STREET":"安通三街","SECT":" ","MAREA":" ","LANE":" ","ALLEY":" ","HOUSE_NO":"８３號","E_COORD97":168540.49619800001,"N_COORD97":2548052.4526,"ADDRESS":"安通三街８３號","OBJECTID":290495},"geometry":{"x":168540.49619799946,"y":2548052.4526000023}},{"attributes":{"ID":290502,"DIS_CODE":0,"TOWNNAME":"安南區","LI":"安西里","LIN":"5鄰","STREET":"安通三街","SECT":" ","MAREA":" ","LANE":" ","ALLEY":" ","HOUSE_NO":"８１號","E_COORD97":168540.708224,"N_COORD97":2548048.0076000001,"ADDRESS":"安通三街８１號","OBJECTID":290496},"geometry":{"x":168540.70822400041,"y":2548048.0076030027}},{"attributes":{"ID":290503,"DIS_CODE":0,"TOWNNAME":"中西區","LI":"法華里","LIN":"2鄰","STREET":"五妃街","SECT":" ","MAREA":" ","LANE":"４０巷","ALLEY":" ","HOUSE_NO":"１７號","E_COORD97":169065.66,"N_COORD97":2542622.02,"ADDRESS":"五妃街４０巷１７號","OBJECTID":290497},"geometry":{"x":169065.66000000108,"y":2542622.0199999996}},{"attributes":{"ID":290504,"DIS_CODE":0,"TOWNNAME":"中西區","LI":"天后里","LIN":"18鄰","STREET":"郡緯街","SECT":" ","MAREA":" ","LANE":" ","ALLEY":" ","HOUSE_NO":"２８號","E_COORD97":168088.72,"N_COORD97":2544339.8399999999,"ADDRESS":"郡緯街２８號","OBJECTID":290498},"geometry":{"x":168088.71999999974,"y":2544339.8399999999}},{"attributes":{"ID":290505,"DIS_CODE":0,"TOWNNAME":"中西區","LI":"西湖里","LIN":"32鄰","STREET":"西湖街","SECT":" ","MAREA":" ","LANE":" ","ALLEY":" ","HOUSE_NO":"２２０號","E_COORD97":166214.22,"N_COORD97":2544934.27,"ADDRESS":"西湖街２２０號","OBJECTID":290499},"geometry":{"x":166214.21999999974,"y":2544934.2700000014}},{"attributes":{"ID":290506,"DIS_CODE":0,"TOWNNAME":"中西區","LI":"西湖里","LIN":"32鄰","STREET":"西湖街","SECT":" ","MAREA":" ","LANE":" ","ALLEY":" ","HOUSE_NO":"２１８號","E_COORD97":166221.89000000001,"N_COORD97":2544939.3700000001,"ADDRESS":"西湖街２１８號","OBJECTID":290500},"geometry":{"x":166221.89000000153,"y":2544939.3700000029}},{"attributes":{"ID":290507,"DIS_CODE":0,"TOWNNAME":"中西區","LI":"西湖里","LIN":"32鄰","STREET":"西湖街","SECT":" ","MAREA":" ","LANE":" ","ALLEY":" ","HOUSE_NO":"２１６號","E_COORD97":166235.87,"N_COORD97":2544942.5099999998,"ADDRESS":"西湖街２１６號","OBJECTID":290501},"geometry":{"x":166235.87000000011,"y":2544942.5099999979}},{"attributes":{"ID":290508,"DIS_CODE":0,"TOWNNAME":"中西區","LI":"西湖里","LIN":"34鄰","STREET":"西湖街","SECT":" ","MAREA":" ","LANE":" ","ALLEY":" ","HOUSE_NO":"２０５號","E_COORD97":166253.76999999999,"N_COORD97":2544901.04,"ADDRESS":"西湖街２０５號","OBJECTID":290502},"geometry":{"x":166253.77000000048,"y":2544901.0400000028}},{"attributes":{"ID":290509,"DIS_CODE":0,"TOWNNAME":"安南區","LI":"顯宮里","LIN":"5鄰","STREET":"媽祖宮二街","SECT":" ","MAREA":" ","LANE":" ","ALLEY":" ","HOUSE_NO":"１００號","E_COORD97":160636.07652999999,"N_COORD97":2548951.4166999999,"ADDRESS":"媽祖宮二街１００號","OBJECTID":290503},"geometry":{"x":160636.07653000113,"y":2548951.4166999981}},{"attributes":{"ID":290510,"DIS_CODE":0,"TOWNNAME":"永康區","LI":"崑山里","LIN":"21鄰","STREET":"大仁街","SECT":" ","MAREA":" ","LANE":"３１巷","ALLEY":" ","HOUSE_NO":"３５號六樓之１２","E_COORD97":173710.04000000001,"N_COORD97":2544604.9399999999,"ADDRESS":"大仁街３１巷３５號六樓之１２","OBJECTID":290504},"geometry":{"x":173710.04000000004,"y":2544604.9400000013}},{"attributes":{"ID":290511,"DIS_CODE":0,"TOWNNAME":"中西區","LI":"西賢里","LIN":"2鄰","STREET":"湖美街","SECT":" ","MAREA":" ","LANE":" ","ALLEY":" ","HOUSE_NO":"８５之１號","E_COORD97":165929.17000000001,"N_COORD97":2544650.73,"ADDRESS":"湖美街８５之１號","OBJECTID":290505},"geometry":{"x":165929.17000000086,"y":2544650.7300000023}},{"attributes":{"ID":290512,"DIS_CODE":0,"TOWNNAME":"永康區","LI":"崑山里","LIN":"21鄰","STREET":"大仁街","SECT":" ","MAREA":" ","LANE":"５１巷","ALLEY":" ","HOUSE_NO":"５號三樓之１","E_COORD97":173762.67999999999,"N_COORD97":2544652.0099999998,"ADDRESS":"大仁街５１巷５號三樓之１","OBJECTID":290506},"geometry":{"x":173762.6799999997,"y":2544652.0100000016}},{"attributes":{"ID":290513,"DIS_CODE":0,"TOWNNAME":"白河區","LI":"甘宅里","LIN":"1鄰","STREET":" ","SECT":" ","MAREA":"甘宅","LANE":" ","ALLEY":" ","HOUSE_NO":"５號","E_COORD97":192587.98999999999,"N_COORD97":2586582.48,"ADDRESS":"甘宅５號","OBJECTID":290507},"geometry":{"x":192587.99000000022,"y":2586582.4800000023}},{"attributes":{"ID":290514,"DIS_CODE":0,"TOWNNAME":"安南區","LI":"新順里","LIN":"1鄰","STREET":"培安二街","SECT":" ","MAREA":" ","LANE":" ","ALLEY":" ","HOUSE_NO":"３６號","E_COORD97":169434.39999999999,"N_COORD97":2549736.4399999999,"ADDRESS":"培安二街３６號","OBJECTID":290508},"geometry":{"x":169434.40000000037,"y":2549736.4399999995}},{"attributes":{"ID":290515,"DIS_CODE":0,"TOWNNAME":"安南區","LI":"新順里","LIN":"1鄰","STREET":"培安二街","SECT":" ","MAREA":" ","LANE":" ","ALLEY":" ","HOUSE_NO":"３２號","E_COORD97":169430.13,"N_COORD97":2549722.3700000001,"ADDRESS":"培安二街３２號","OBJECTID":290509},"geometry":{"x":169430.13000000082,"y":2549722.3700000029}},{"attributes":{"ID":290516,"DIS_CODE":0,"TOWNNAME":"永康區","LI":"崑山里","LIN":"21鄰","STREET":"大仁街","SECT":" ","MAREA":" ","LANE":"３１巷","ALLEY":" ","HOUSE_NO":"３５號六樓之２３","E_COORD97":173710,"N_COORD97":2544604.9399999999,"ADDRESS":"大仁街３１巷３５號六樓之２３","OBJECTID":290510},"geometry":{"x":173710,"y":2544604.9400000013}},{"attributes":{"ID":290517,"DIS_CODE":0,"TOWNNAME":"安南區","LI":"新順里","LIN":"1鄰","STREET":"培安二街","SECT":" ","MAREA":" ","LANE":" ","ALLEY":" ","HOUSE_NO":"３０號","E_COORD97":169421.17999999999,"N_COORD97":2549725.6400000001,"ADDRESS":"培安二街３０號","OBJECTID":290511},"geometry":{"x":169421.18000000063,"y":2549725.6400000006}},{"attributes":{"ID":290518,"DIS_CODE":0,"TOWNNAME":"永康區","LI":"崑山里","LIN":"21鄰","STREET":"大仁街","SECT":" ","MAREA":" ","LANE":"５１巷","ALLEY":" ","HOUSE_NO":"５號二樓之１","E_COORD97":173762.67999999999,"N_COORD97":2544652.0099999998,"ADDRESS":"大仁街５１巷５號二樓之１","OBJECTID":290512},"geometry":{"x":173762.6799999997,"y":2544652.0100000016}},{"attributes":{"ID":290519,"DIS_CODE":0,"TOWNNAME":"永康區","LI":"崑山里","LIN":"21鄰","STREET":"大仁街","SECT":" ","MAREA":" ","LANE":"３１巷","ALLEY":" ","HOUSE_NO":"３５號五樓之９","E_COORD97":173708.73999999999,"N_COORD97":2544604.9399999999,"ADDRESS":"大仁街３１巷３５號五樓之９","OBJECTID":290513},"geometry":{"x":173708.74000000022,"y":2544604.9400000013}},{"attributes":{"ID":290520,"DIS_CODE":0,"TOWNNAME":"永康區","LI":"崑山里","LIN":"21鄰","STREET":"大仁街","SECT":" ","MAREA":" ","LANE":"３１巷","ALLEY":" ","HOUSE_NO":"３５號三樓之３","E_COORD97":173708.75,"N_COORD97":2544604.9399999999,"ADDRESS":"大仁街３１巷３５號三樓之３","OBJECTID":290514},"geometry":{"x":173708.75,"y":2544604.9400000013}},{"attributes":{"ID":290521,"DIS_CODE":0,"TOWNNAME":"永康區","LI":"崑山里","LIN":"21鄰","STREET":"大仁街","SECT":" ","MAREA":" ","LANE":"３１巷","ALLEY":" ","HOUSE_NO":"３５號六樓之２１","E_COORD97":173709.89999999999,"N_COORD97":2544604.9399999999,"ADDRESS":"大仁街３１巷３５號六樓之２１","OBJECTID":290515},"geometry":{"x":173709.90000000037,"y":2544604.9400000013}},{"attributes":{"ID":290522,"DIS_CODE":0,"TOWNNAME":"永康區","LI":"崑山里","LIN":"21鄰","STREET":"大仁街","SECT":" ","MAREA":" ","LANE":"３１巷","ALLEY":" ","HOUSE_NO":"３５號三樓之７","E_COORD97":173708.73000000001,"N_COORD97":2544604.9399999999,"ADDRESS":"大仁街３１巷３５號三樓之７","OBJECTID":290516},"geometry":{"x":173708.73000000138,"y":2544604.9400000013}},{"attributes":{"ID":290523,"DIS_CODE":0,"TOWNNAME":"白河區","LI":"永安里","LIN":"22鄰","STREET":"西安街","SECT":" ","MAREA":" ","LANE":"４８巷","ALLEY":" ","HOUSE_NO":"２０號","E_COORD97":189810.66,"N_COORD97":2582813.0800000001,"ADDRESS":"西安街４８巷２０號","OBJECTID":290517},"geometry":{"x":189810.65999999922,"y":2582813.0800000038}},{"attributes":{"ID":290524,"DIS_CODE":0,"TOWNNAME":"麻豆區","LI":"穀興里","LIN":"5鄰","STREET":"興民街","SECT":" ","MAREA":" ","LANE":" ","ALLEY":" ","HOUSE_NO":"８號之１","E_COORD97":172794.45999999999,"N_COORD97":2564962.1099999999,"ADDRESS":"興民街８號之１","OBJECTID":290518},"geometry":{"x":172794.46000000089,"y":2564962.1100000031}},{"attributes":{"ID":290525,"DIS_CODE":0,"TOWNNAME":"仁德區","LI":"保安里","LIN":"12鄰","STREET":"永德路","SECT":" ","MAREA":" ","LANE":" ","ALLEY":" ","HOUSE_NO":"３３號","E_COORD97":172579.65424999999,"N_COORD97":2535673.4691900001,"ADDRESS":"永德路３３號","OBJECTID":290519},"geometry":{"x":172579.6542500006,"y":2535673.4691909999}},{"attributes":{"ID":290526,"DIS_CODE":0,"TOWNNAME":"永康區","LI":"北灣里","LIN":"23鄰","STREET":"大灣路","SECT":" ","MAREA":" ","LANE":" ","ALLEY":" ","HOUSE_NO":"３０號","E_COORD97":175311.87,"N_COORD97":2545921.5499999998,"ADDRESS":"大灣路３０號","OBJECTID":290520},"geometry":{"x":175311.87000000011,"y":2545921.5500000026}},{"attributes":{"ID":290527,"DIS_CODE":0,"TOWNNAME":"永康區","LI":"甲頂里","LIN":"7鄰","STREET":"中華路","SECT":" ","MAREA":" ","LANE":" ","ALLEY":" ","HOUSE_NO":"９１７號","E_COORD97":170166.34,"N_COORD97":2546883.4900000002,"ADDRESS":"中華路９１７號","OBJECTID":290521},"geometry":{"x":170166.33999999985,"y":2546883.4900000021}},{"attributes":{"ID":290528,"DIS_CODE":0,"TOWNNAME":"永康區","LI":"安康里","LIN":"21鄰","STREET":"中華路","SECT":" ","MAREA":" ","LANE":"６６１巷","ALLEY":" ","HOUSE_NO":"２號八樓之３","E_COORD97":170973.94,"N_COORD97":2546231.5499999998,"ADDRESS":"中華路６６１巷２號八樓之３","OBJECTID":290522},"geometry":{"x":170973.94000000227,"y":2546231.5500000007}},{"attributes":{"ID":290529,"DIS_CODE":0,"TOWNNAME":"中西區","LI":"保安里","LIN":"3鄰","STREET":"保安路","SECT":" ","MAREA":" ","LANE":" ","ALLEY":" ","HOUSE_NO":"６８號","E_COORD97":167592.97,"N_COORD97":2543450.2599999998,"ADDRESS":"保安路６８號","OBJECTID":290523},"geometry":{"x":167592.97000000067,"y":2543450.2600000016}},{"attributes":{"ID":290530,"DIS_CODE":0,"TOWNNAME":"永康區","LI":"永康里","LIN":"20鄰","STREET":"永明街","SECT":" ","MAREA":" ","LANE":" ","ALLEY":" ","HOUSE_NO":"１８號","E_COORD97":174036.59,"N_COORD97":2547347.75,"ADDRESS":"永明街１８號","OBJECTID":290524},"geometry":{"x":174036.58999999985,"y":2547347.75}},{"attributes":{"ID":290531,"DIS_CODE":0,"TOWNNAME":"永康區","LI":"北灣里","LIN":"24鄰","STREET":"大灣路","SECT":" ","MAREA":" ","LANE":" ","ALLEY":" ","HOUSE_NO":"１５號","E_COORD97":175355.23999999999,"N_COORD97":2545922.1099999999,"ADDRESS":"大灣路１５號","OBJECTID":290525},"geometry":{"x":175355.24000000022,"y":2545922.1100000013}},{"attributes":{"ID":290532,"DIS_CODE":0,"TOWNNAME":"永康區","LI":"永康里","LIN":"37鄰","STREET":"西勢路","SECT":" ","MAREA":" ","LANE":" ","ALLEY":" ","HOUSE_NO":"７１２號","E_COORD97":174608.73000000001,"N_COORD97":2546774.54,"ADDRESS":"西勢路７１２號","OBJECTID":290526},"geometry":{"x":174608.73000000138,"y":2546774.5399999991}},{"attributes":{"ID":290533,"DIS_CODE":0,"TOWNNAME":"永康區","LI":"網寮里","LIN":"21鄰","STREET":"文化路","SECT":" ","MAREA":" ","LANE":"２４２巷","ALLEY":" ","HOUSE_NO":"１號十樓之１","E_COORD97":173565.44,"N_COORD97":2546139.8399999999,"ADDRESS":"文化路２４２巷１號十樓之１","OBJECTID":290527},"geometry":{"x":173565.44000000041,"y":2546139.8399999999}},{"attributes":{"ID":290534,"DIS_CODE":0,"TOWNNAME":"永康區","LI":"崑山里","LIN":"21鄰","STREET":"大仁街","SECT":" ","MAREA":" ","LANE":"５１巷","ALLEY":" ","HOUSE_NO":"５號六樓之４","E_COORD97":173762.70999999999,"N_COORD97":2544652.0099999998,"ADDRESS":"大仁街５１巷５號六樓之４","OBJECTID":290528},"geometry":{"x":173762.71000000089,"y":2544652.0100000016}},{"attributes":{"ID":290535,"DIS_CODE":0,"TOWNNAME":"東區","LI":"大同里","LIN":"21鄰","STREET":"大同路","SECT":"一段","MAREA":" ","LANE":"１９７巷","ALLEY":" ","HOUSE_NO":"１９號二樓","E_COORD97":169202.79999999999,"N_COORD97":2542734.9700000002,"ADDRESS":"大同路一段１９７巷１９號二樓","OBJECTID":290529},"geometry":{"x":169202.80000000168,"y":2542734.9700000025}},{"attributes":{"ID":290536,"DIS_CODE":0,"TOWNNAME":"東區","LI":"大同里","LIN":"21鄰","STREET":"大同路","SECT":"一段","MAREA":" ","LANE":"１９７巷","ALLEY":" ","HOUSE_NO":"１９號三樓","E_COORD97":169202.79999999999,"N_COORD97":2542734.9700000002,"ADDRESS":"大同路一段１９７巷１９號三樓","OBJECTID":290530},"geometry":{"x":169202.80000000168,"y":2542734.9700000025}},{"attributes":{"ID":290537,"DIS_CODE":0,"TOWNNAME":"中西區","LI":"協進里","LIN":"2鄰","STREET":"西寧街","SECT":" ","MAREA":" ","LANE":" ","ALLEY":" ","HOUSE_NO":"３號","E_COORD97":167188.451306,"N_COORD97":2544197.99407,"ADDRESS":"西寧街３號","OBJECTID":290531},"geometry":{"x":167188.45130600035,"y":2544197.9940670021}},{"attributes":{"ID":290538,"DIS_CODE":0,"TOWNNAME":"東區","LI":"復興里","LIN":"21鄰","STREET":"自由路","SECT":"三段","MAREA":" ","LANE":" ","ALLEY":" ","HOUSE_NO":"２８０號六樓","E_COORD97":171824.98000000001,"N_COORD97":2542380.5099999998,"ADDRESS":"自由路三段２８０號六樓","OBJECTID":290532},"geometry":{"x":171824.98000000138,"y":2542380.5100000016}},{"attributes":{"ID":290539,"DIS_CODE":0,"TOWNNAME":"東區","LI":"復興里","LIN":"21鄰","STREET":"自由路","SECT":"三段","MAREA":" ","LANE":" ","ALLEY":" ","HOUSE_NO":"２８０號七樓","E_COORD97":171824.98000000001,"N_COORD97":2542380.5099999998,"ADDRESS":"自由路三段２８０號七樓","OBJECTID":290533},"geometry":{"x":171824.98000000138,"y":2542380.5100000016}},{"attributes":{"ID":290540,"DIS_CODE":0,"TOWNNAME":"東區","LI":"復興里","LIN":"21鄰","STREET":"自由路","SECT":"三段","MAREA":" ","LANE":" ","ALLEY":" ","HOUSE_NO":"２８０號七樓之１","E_COORD97":171824.98000000001,"N_COORD97":2542380.5099999998,"ADDRESS":"自由路三段２８０號七樓之１","OBJECTID":290534},"geometry":{"x":171824.98000000138,"y":2542380.5100000016}},{"attributes":{"ID":290541,"DIS_CODE":0,"TOWNNAME":"東區","LI":"復興里","LIN":"21鄰","STREET":"自由路","SECT":"三段","MAREA":" ","LANE":" ","ALLEY":" ","HOUSE_NO":"２８０號七樓之２","E_COORD97":171824.98000000001,"N_COORD97":2542380.5099999998,"ADDRESS":"自由路三段２８０號七樓之２","OBJECTID":290535},"geometry":{"x":171824.98000000138,"y":2542380.5100000016}},{"attributes":{"ID":290542,"DIS_CODE":0,"TOWNNAME":"東區","LI":"復興里","LIN":"21鄰","STREET":"自由路","SECT":"三段","MAREA":" ","LANE":" ","ALLEY":" ","HOUSE_NO":"２８０號三樓","E_COORD97":171824.98000000001,"N_COORD97":2542380.5099999998,"ADDRESS":"自由路三段２８０號三樓","OBJECTID":290536},"geometry":{"x":171824.98000000138,"y":2542380.5100000016}},{"attributes":{"ID":290543,"DIS_CODE":0,"TOWNNAME":"永康區","LI":"崑山里","LIN":"21鄰","STREET":"大仁街","SECT":" ","MAREA":" ","LANE":"３１巷","ALLEY":" ","HOUSE_NO":"３５號四樓之１","E_COORD97":173708.64999999999,"N_COORD97":2544604.9399999999,"ADDRESS":"大仁街３１巷３５號四樓之１","OBJECTID":290537},"geometry":{"x":173708.6500000013,"y":2544604.9400000013}},{"attributes":{"ID":290544,"DIS_CODE":0,"TOWNNAME":"永康區","LI":"崑山里","LIN":"21鄰","STREET":"大仁街","SECT":" ","MAREA":" ","LANE":"３１巷","ALLEY":" ","HOUSE_NO":"３５號三樓之１５","E_COORD97":173710.06,"N_COORD97":2544604.9399999999,"ADDRESS":"大仁街３１巷３５號三樓之１５","OBJECTID":290538},"geometry":{"x":173710.06000000145,"y":2544604.9400000013}},{"attributes":{"ID":290545,"DIS_CODE":0,"TOWNNAME":"永康區","LI":"崑山里","LIN":"21鄰","STREET":"大仁街","SECT":" ","MAREA":" ","LANE":"３１巷","ALLEY":" ","HOUSE_NO":"３５號四樓之１７","E_COORD97":173709.98000000001,"N_COORD97":2544604.9399999999,"ADDRESS":"大仁街３１巷３５號四樓之１７","OBJECTID":290539},"geometry":{"x":173709.98000000138,"y":2544604.9400000013}},{"attributes":{"ID":290546,"DIS_CODE":0,"TOWNNAME":"永康區","LI":"崑山里","LIN":"21鄰","STREET":"大仁街","SECT":" ","MAREA":" ","LANE":"３１巷","ALLEY":" ","HOUSE_NO":"３５號五樓之１５","E_COORD97":173710.06,"N_COORD97":2544604.9399999999,"ADDRESS":"大仁街３１巷３５號五樓之１５","OBJECTID":290540},"geometry":{"x":173710.06000000145,"y":2544604.9400000013}},{"attributes":{"ID":290547,"DIS_CODE":0,"TOWNNAME":"永康區","LI":"正強里","LIN":"9鄰","STREET":"正義街","SECT":" ","MAREA":" ","LANE":"１２６巷","ALLEY":" ","HOUSE_NO":"１１號","E_COORD97":173355.89000000001,"N_COORD97":2547571.1600000001,"ADDRESS":"正義街１２６巷１１號","OBJECTID":290541},"geometry":{"x":173355.8900000006,"y":2547571.160000002}},{"attributes":{"ID":290548,"DIS_CODE":0,"TOWNNAME":"永康區","LI":"甲頂里","LIN":"23鄰","STREET":"中正南路","SECT":" ","MAREA":" ","LANE":" ","ALLEY":" ","HOUSE_NO":"８０號","E_COORD97":169678.34,"N_COORD97":2546809.9100000001,"ADDRESS":"中正南路８０號","OBJECTID":290542},"geometry":{"x":169678.33999999985,"y":2546809.910000002}},{"attributes":{"ID":290549,"DIS_CODE":0,"TOWNNAME":"永康區","LI":"永康里","LIN":"12鄰","STREET":"永中街","SECT":" ","MAREA":" ","LANE":" ","ALLEY":" ","HOUSE_NO":"８號","E_COORD97":173861.70999999999,"N_COORD97":2547047.6000000001,"ADDRESS":"永中街８號","OBJECTID":290543},"geometry":{"x":173861.70999999996,"y":2547047.6000000034}},{"attributes":{"ID":290550,"DIS_CODE":0,"TOWNNAME":"東區","LI":"崇明里","LIN":"21鄰","STREET":"中華東路","SECT":"三段","MAREA":" ","LANE":"３７７巷","ALLEY":" ","HOUSE_NO":"１０號七樓","E_COORD97":170183.23999999999,"N_COORD97":2541522.46,"ADDRESS":"中華東路三段３７７巷１０號七樓","OBJECTID":290544},"geometry":{"x":170183.24000000022,"y":2541522.4600000009}},{"attributes":{"ID":290551,"DIS_CODE":0,"TOWNNAME":"東區","LI":"崇明里","LIN":"21鄰","STREET":"中華東路","SECT":"三段","MAREA":" ","LANE":"３７７巷","ALLEY":" ","HOUSE_NO":"１０號七樓之１","E_COORD97":170183.23999999999,"N_COORD97":2541522.46,"ADDRESS":"中華東路三段３７７巷１０號七樓之１","OBJECTID":290545},"geometry":{"x":170183.24000000022,"y":2541522.4600000009}},{"attributes":{"ID":290552,"DIS_CODE":0,"TOWNNAME":"東區","LI":"崇明里","LIN":"21鄰","STREET":"中華東路","SECT":"三段","MAREA":" ","LANE":"３７７巷","ALLEY":" ","HOUSE_NO":"１０號九樓","E_COORD97":170183.23999999999,"N_COORD97":2541522.46,"ADDRESS":"中華東路三段３７７巷１０號九樓","OBJECTID":290546},"geometry":{"x":170183.24000000022,"y":2541522.4600000009}},{"attributes":{"ID":290553,"DIS_CODE":0,"TOWNNAME":"永康區","LI":"永康里","LIN":"38鄰","STREET":"西勢路","SECT":" ","MAREA":" ","LANE":" ","ALLEY":" ","HOUSE_NO":"６８３號","E_COORD97":174524.26999999999,"N_COORD97":2546732.3500000001,"ADDRESS":"西勢路６８３號","OBJECTID":290547},"geometry":{"x":174524.27000000048,"y":2546732.3499999996}},{"attributes":{"ID":290554,"DIS_CODE":0,"TOWNNAME":"永康區","LI":"永康里","LIN":"38鄰","STREET":"西勢路","SECT":" ","MAREA":" ","LANE":" ","ALLEY":" ","HOUSE_NO":"７３９號","E_COORD97":174393.51000000001,"N_COORD97":2546697.3500000001,"ADDRESS":"西勢路７３９號","OBJECTID":290548},"geometry":{"x":174393.50999999978,"y":2546697.3500000015}},{"attributes":{"ID":290555,"DIS_CODE":0,"TOWNNAME":"永康區","LI":"永康里","LIN":"10鄰","STREET":"永康街","SECT":" ","MAREA":" ","LANE":" ","ALLEY":" ","HOUSE_NO":"３０號","E_COORD97":173771.06,"N_COORD97":2547264.0299999998,"ADDRESS":"永康街３０號","OBJECTID":290549},"geometry":{"x":173771.06000000145,"y":2547264.0299999993}},{"attributes":{"ID":290556,"DIS_CODE":0,"TOWNNAME":"東區","LI":"崇明里","LIN":"21鄰","STREET":"中華東路","SECT":"三段","MAREA":" ","LANE":"３７７巷","ALLEY":" ","HOUSE_NO":"１０號二樓","E_COORD97":170183.23999999999,"N_COORD97":2541522.46,"ADDRESS":"中華東路三段３７７巷１０號二樓","OBJECTID":290550},"geometry":{"x":170183.24000000022,"y":2541522.4600000009}},{"attributes":{"ID":290557,"DIS_CODE":0,"TOWNNAME":"東區","LI":"崇明里","LIN":"21鄰","STREET":"中華東路","SECT":"三段","MAREA":" ","LANE":"３７７巷","ALLEY":" ","HOUSE_NO":"１０號二樓之１","E_COORD97":170183.23999999999,"N_COORD97":2541522.46,"ADDRESS":"中華東路三段３７７巷１０號二樓之１","OBJECTID":290551},"geometry":{"x":170183.24000000022,"y":2541522.4600000009}},{"attributes":{"ID":290558,"DIS_CODE":0,"TOWNNAME":"東區","LI":"崇明里","LIN":"21鄰","STREET":"中華東路","SECT":"三段","MAREA":" ","LANE":"３７７巷","ALLEY":" ","HOUSE_NO":"１０號八樓","E_COORD97":170183.23999999999,"N_COORD97":2541522.46,"ADDRESS":"中華東路三段３７７巷１０號八樓","OBJECTID":290552},"geometry":{"x":170183.24000000022,"y":2541522.4600000009}},{"attributes":{"ID":290559,"DIS_CODE":0,"TOWNNAME":"東區","LI":"崇明里","LIN":"21鄰","STREET":"中華東路","SECT":"三段","MAREA":" ","LANE":"３７７巷","ALLEY":" ","HOUSE_NO":"１０號八樓之１","E_COORD97":170183.23999999999,"N_COORD97":2541522.46,"ADDRESS":"中華東路三段３７７巷１０號八樓之１","OBJECTID":290553},"geometry":{"x":170183.24000000022,"y":2541522.4600000009}},{"attributes":{"ID":290560,"DIS_CODE":0,"TOWNNAME":"東區","LI":"崇明里","LIN":"21鄰","STREET":"中華東路","SECT":"三段","MAREA":" ","LANE":"３７７巷","ALLEY":" ","HOUSE_NO":"１０號三樓","E_COORD97":170183.23999999999,"N_COORD97":2541522.46,"ADDRESS":"中華東路三段３７７巷１０號三樓","OBJECTID":290554},"geometry":{"x":170183.24000000022,"y":2541522.4600000009}},{"attributes":{"ID":290561,"DIS_CODE":0,"TOWNNAME":"永康區","LI":"正強里","LIN":"33鄰","STREET":"埔園街","SECT":" ","MAREA":" ","LANE":" ","ALLEY":" ","HOUSE_NO":"４３０號","E_COORD97":173264.26000000001,"N_COORD97":2548133.7200000002,"ADDRESS":"埔園街４３０號","OBJECTID":290555},"geometry":{"x":173264.25999999978,"y":2548133.7200000025}},{"attributes":{"ID":290562,"DIS_CODE":0,"TOWNNAME":"永康區","LI":"永康里","LIN":"20鄰","STREET":"永明街","SECT":" ","MAREA":" ","LANE":" ","ALLEY":" ","HOUSE_NO":"５２號","E_COORD97":174093.59,"N_COORD97":2547309.9700000002,"ADDRESS":"永明街５２號","OBJECTID":290556},"geometry":{"x":174093.59000000078,"y":2547309.9700000007}},{"attributes":{"ID":290563,"DIS_CODE":0,"TOWNNAME":"東區","LI":"崇明里","LIN":"21鄰","STREET":"中華東路","SECT":"三段","MAREA":" ","LANE":"３７７巷","ALLEY":" ","HOUSE_NO":"１０號三樓之１","E_COORD97":170183.23999999999,"N_COORD97":2541522.46,"ADDRESS":"中華東路三段３７７巷１０號三樓之１","OBJECTID":290557},"geometry":{"x":170183.24000000022,"y":2541522.4600000009}},{"attributes":{"ID":290564,"DIS_CODE":0,"TOWNNAME":"東區","LI":"崇明里","LIN":"21鄰","STREET":"中華東路","SECT":"三段","MAREA":" ","LANE":"３９９巷","ALLEY":" ","HOUSE_NO":"１３號七樓","E_COORD97":170076.82000000001,"N_COORD97":2541498.3900000001,"ADDRESS":"中華東路三段３９９巷１３號七樓","OBJECTID":290558},"geometry":{"x":170076.82000000123,"y":2541498.3900000006}},{"attributes":{"ID":290565,"DIS_CODE":0,"TOWNNAME":"永康區","LI":"安康里","LIN":"24鄰","STREET":"大橋一街","SECT":" ","MAREA":" ","LANE":" ","ALLEY":" ","HOUSE_NO":"８４號","E_COORD97":170741.69,"N_COORD97":2546302,"ADDRESS":"大橋一街８４號","OBJECTID":290559},"geometry":{"x":170741.69000000227,"y":2546302}},{"attributes":{"ID":290566,"DIS_CODE":0,"TOWNNAME":"永康區","LI":"永康里","LIN":"31鄰","STREET":"龍中街","SECT":" ","MAREA":" ","LANE":" ","ALLEY":" ","HOUSE_NO":"９３號","E_COORD97":174370.73000000001,"N_COORD97":2547809.3300000001,"ADDRESS":"龍中街９３號","OBJECTID":290560},"geometry":{"x":174370.72999999952,"y":2547809.3300000038}},{"attributes":{"ID":290567,"DIS_CODE":0,"TOWNNAME":"善化區","LI":"坐駕里","LIN":"4鄰","STREET":"中正路","SECT":" ","MAREA":" ","LANE":" ","ALLEY":" ","HOUSE_NO":"４６０號","E_COORD97":177698.69,"N_COORD97":2558989.25,"ADDRESS":"中正路４６０號","OBJECTID":290561},"geometry":{"x":177698.69000000227,"y":2558989.2500000019}},{"attributes":{"ID":290568,"DIS_CODE":0,"TOWNNAME":"善化區","LI":"坐駕里","LIN":"4鄰","STREET":"中正路","SECT":" ","MAREA":" ","LANE":" ","ALLEY":" ","HOUSE_NO":"４５６號","E_COORD97":177698.25,"N_COORD97":2558980.25,"ADDRESS":"中正路４５６號","OBJECTID":290562},"geometry":{"x":177698.25000000093,"y":2558980.25}},{"attributes":{"ID":290569,"DIS_CODE":0,"TOWNNAME":"善化區","LI":"光文里","LIN":" ","STREET":"和平路","SECT":" ","MAREA":" ","LANE":" ","ALLEY":" ","HOUSE_NO":"１３６號","E_COORD97":178129.59,"N_COORD97":2558948.75,"ADDRESS":"和平路１３６號","OBJECTID":290563},"geometry":{"x":178129.59000000078,"y":2558948.75}},{"attributes":{"ID":290570,"DIS_CODE":0,"TOWNNAME":"善化區","LI":"光文里","LIN":" ","STREET":"中山路","SECT":" ","MAREA":" ","LANE":" ","ALLEY":" ","HOUSE_NO":"１０４之１號","E_COORD97":178627.70000000001,"N_COORD97":2559199.02,"ADDRESS":"中山路１０４之１號","OBJECTID":290564},"geometry":{"x":178627.70000000112,"y":2559199.0200000033}},{"attributes":{"ID":290571,"DIS_CODE":0,"TOWNNAME":"善化區","LI":"光文里","LIN":" ","STREET":"大成路","SECT":" ","MAREA":" ","LANE":" ","ALLEY":" ","HOUSE_NO":"２６０號","E_COORD97":178248.95999999999,"N_COORD97":2558862,"ADDRESS":"大成路２６０號","OBJECTID":290565},"geometry":{"x":178248.95999999903,"y":2558862.0000000019}},{"attributes":{"ID":290572,"DIS_CODE":0,"TOWNNAME":"善化區","LI":"光文里","LIN":"20鄰","STREET":"民生路","SECT":" ","MAREA":" ","LANE":" ","ALLEY":" ","HOUSE_NO":"３５３號","E_COORD97":178050.32999999999,"N_COORD97":2558888.0099999998,"ADDRESS":"民生路３５３號","OBJECTID":290566},"geometry":{"x":178050.33000000101,"y":2558888.0100000016}},{"attributes":{"ID":290573,"DIS_CODE":0,"TOWNNAME":"善化區","LI":"西關里","LIN":"13鄰","STREET":"興農路","SECT":" ","MAREA":" ","LANE":" ","ALLEY":" ","HOUSE_NO":"１２５號","E_COORD97":176169.64999999999,"N_COORD97":2559087.7599999998,"ADDRESS":"興農路１２５號","OBJECTID":290567},"geometry":{"x":176169.65000000037,"y":2559087.7599999998}},{"attributes":{"ID":290574,"DIS_CODE":0,"TOWNNAME":"佳里區","LI":"佳化里","LIN":"8鄰","STREET":" ","SECT":" ","MAREA":"佳里興","LANE":" ","ALLEY":" ","HOUSE_NO":"７４號","E_COORD97":167606.10999999999,"N_COORD97":2565079.8599999999,"ADDRESS":"佳里興７４號","OBJECTID":290568},"geometry":{"x":167606.1100000022,"y":2565079.8600000013}},{"attributes":{"ID":290575,"DIS_CODE":0,"TOWNNAME":"東區","LI":"崇明里","LIN":"21鄰","STREET":"中華東路","SECT":"三段","MAREA":" ","LANE":"３９９巷","ALLEY":" ","HOUSE_NO":"１３號七樓之１","E_COORD97":170076.82000000001,"N_COORD97":2541498.3900000001,"ADDRESS":"中華東路三段３９９巷１３號七樓之１","OBJECTID":290569},"geometry":{"x":170076.82000000123,"y":2541498.3900000006}},{"attributes":{"ID":290576,"DIS_CODE":0,"TOWNNAME":"永康區","LI":"安康里","LIN":"24鄰","STREET":"大橋一街","SECT":" ","MAREA":" ","LANE":" ","ALLEY":" ","HOUSE_NO":"１０８號","E_COORD97":170778.09,"N_COORD97":2546328,"ADDRESS":"大橋一街１０８號","OBJECTID":290570},"geometry":{"x":170778.09000000078,"y":2546328.0000000019}},{"attributes":{"ID":290577,"DIS_CODE":0,"TOWNNAME":"永康區","LI":"永康里","LIN":"21鄰","STREET":"中山南路","SECT":" ","MAREA":" ","LANE":" ","ALLEY":" ","HOUSE_NO":"１０２４號","E_COORD97":173664.01000000001,"N_COORD97":2547260.8500000001,"ADDRESS":"中山南路１０２４號","OBJECTID":290571},"geometry":{"x":173664.00999999978,"y":2547260.8500000015}},{"attributes":{"ID":290578,"DIS_CODE":0,"TOWNNAME":"永康區","LI":"甲頂里","LIN":"29鄰","STREET":"中華路","SECT":" ","MAREA":" ","LANE":" ","ALLEY":" ","HOUSE_NO":"１０５４號","E_COORD97":169436.45000000001,"N_COORD97":2547069.98,"ADDRESS":"中華路１０５４號","OBJECTID":290572},"geometry":{"x":169436.45000000112,"y":2547069.9800000023}},{"attributes":{"ID":290579,"DIS_CODE":0,"TOWNNAME":"永康區","LI":"甲頂里","LIN":"23鄰","STREET":"中正南路","SECT":" ","MAREA":" ","LANE":" ","ALLEY":" ","HOUSE_NO":"１００號","E_COORD97":169674.28,"N_COORD97":2546864.6600000001,"ADDRESS":"中正南路１００號","OBJECTID":290573},"geometry":{"x":169674.28000000026,"y":2546864.6600000039}},{"attributes":{"ID":290580,"DIS_CODE":0,"TOWNNAME":"東區","LI":"崇明里","LIN":"21鄰","STREET":"中華東路","SECT":"三段","MAREA":" ","LANE":"３９９巷","ALLEY":" ","HOUSE_NO":"１３號七樓之２","E_COORD97":170076.82000000001,"N_COORD97":2541498.3900000001,"ADDRESS":"中華東路三段３９９巷１３號七樓之２","OBJECTID":290574},"geometry":{"x":170076.82000000123,"y":2541498.3900000006}},{"attributes":{"ID":290581,"DIS_CODE":0,"TOWNNAME":"永康區","LI":"北灣里","LIN":"23鄰","STREET":"大灣路","SECT":" ","MAREA":" ","LANE":" ","ALLEY":" ","HOUSE_NO":"３８號","E_COORD97":175303.26000000001,"N_COORD97":2545906.7999999998,"ADDRESS":"大灣路３８號","OBJECTID":290575},"geometry":{"x":175303.25999999978,"y":2545906.8000000007}},{"attributes":{"ID":290582,"DIS_CODE":0,"TOWNNAME":"東區","LI":"崇明里","LIN":"21鄰","STREET":"中華東路","SECT":"三段","MAREA":" ","LANE":"３９９巷","ALLEY":" ","HOUSE_NO":"１３號二樓","E_COORD97":170076.82000000001,"N_COORD97":2541498.3900000001,"ADDRESS":"中華東路三段３９９巷１３號二樓","OBJECTID":290576},"geometry":{"x":170076.82000000123,"y":2541498.3900000006}},{"attributes":{"ID":290583,"DIS_CODE":0,"TOWNNAME":"永康區","LI":"永康里","LIN":"31鄰","STREET":"中山北路","SECT":" ","MAREA":" ","LANE":" ","ALLEY":" ","HOUSE_NO":"１７５號","E_COORD97":174253.87,"N_COORD97":2547534.71,"ADDRESS":"中山北路１７５號","OBJECTID":290577},"geometry":{"x":174253.87000000011,"y":2547534.7100000009}},{"attributes":{"ID":290584,"DIS_CODE":0,"TOWNNAME":"東區","LI":"崇明里","LIN":"21鄰","STREET":"中華東路","SECT":"三段","MAREA":" ","LANE":"３９９巷","ALLEY":" ","HOUSE_NO":"１３號二樓之１","E_COORD97":170076.82000000001,"N_COORD97":2541498.3900000001,"ADDRESS":"中華東路三段３９９巷１３號二樓之１","OBJECTID":290578},"geometry":{"x":170076.82000000123,"y":2541498.3900000006}},{"attributes":{"ID":290585,"DIS_CODE":0,"TOWNNAME":"永康區","LI":"永康里","LIN":"23鄰","STREET":"中山南路","SECT":" ","MAREA":" ","LANE":" ","ALLEY":" ","HOUSE_NO":"６０５號","E_COORD97":173544.42000000001,"N_COORD97":2547214.7400000002,"ADDRESS":"中山南路６０５號","OBJECTID":290579},"geometry":{"x":173544.41999999993,"y":2547214.7400000021}},{"attributes":{"ID":290586,"DIS_CODE":0,"TOWNNAME":"東區","LI":"崇明里","LIN":"21鄰","STREET":"中華東路","SECT":"三段","MAREA":" ","LANE":"３９９巷","ALLEY":" ","HOUSE_NO":"１３號二樓之２","E_COORD97":170076.82000000001,"N_COORD97":2541498.3900000001,"ADDRESS":"中華東路三段３９９巷１３號二樓之２","OBJECTID":290580},"geometry":{"x":170076.82000000123,"y":2541498.3900000006}},{"attributes":{"ID":290587,"DIS_CODE":0,"TOWNNAME":"東區","LI":"崇明里","LIN":"21鄰","STREET":"中華東路","SECT":"三段","MAREA":" ","LANE":"３９９巷","ALLEY":" ","HOUSE_NO":"１３號八樓","E_COORD97":170076.82000000001,"N_COORD97":2541498.3900000001,"ADDRESS":"中華東路三段３９９巷１３號八樓","OBJECTID":290581},"geometry":{"x":170076.82000000123,"y":2541498.3900000006}},{"attributes":{"ID":290588,"DIS_CODE":0,"TOWNNAME":"東區","LI":"崇明里","LIN":"21鄰","STREET":"中華東路","SECT":"三段","MAREA":" ","LANE":"３９９巷","ALLEY":" ","HOUSE_NO":"１３號八樓之１","E_COORD97":170076.82000000001,"N_COORD97":2541498.3900000001,"ADDRESS":"中華東路三段３９９巷１３號八樓之１","OBJECTID":290582},"geometry":{"x":170076.82000000123,"y":2541498.3900000006}},{"attributes":{"ID":290589,"DIS_CODE":0,"TOWNNAME":"東區","LI":"崇信里","LIN":"21鄰","STREET":"中華東路","SECT":"三段","MAREA":" ","LANE":"４４巷","ALLEY":" ","HOUSE_NO":"４３號二樓","E_COORD97":170829.07999999999,"N_COORD97":2542402.5499999998,"ADDRESS":"中華東路三段４４巷４３號二樓","OBJECTID":290583},"geometry":{"x":170829.08000000101,"y":2542402.5500000007}},{"attributes":{"ID":290590,"DIS_CODE":0,"TOWNNAME":"東區","LI":"崇信里","LIN":"21鄰","STREET":"中華東路","SECT":"三段","MAREA":" ","LANE":"４４巷","ALLEY":" ","HOUSE_NO":"４３號三樓","E_COORD97":170829.07999999999,"N_COORD97":2542402.5499999998,"ADDRESS":"中華東路三段４４巷４３號三樓","OBJECTID":290584},"geometry":{"x":170829.08000000101,"y":2542402.5500000007}},{"attributes":{"ID":290591,"DIS_CODE":0,"TOWNNAME":"東區","LI":"崇信里","LIN":"21鄰","STREET":"中華東路","SECT":"三段","MAREA":" ","LANE":"４４巷","ALLEY":" ","HOUSE_NO":"４３號五樓","E_COORD97":170829.07999999999,"N_COORD97":2542402.5499999998,"ADDRESS":"中華東路三段４４巷４３號五樓","OBJECTID":290585},"geometry":{"x":170829.08000000101,"y":2542402.5500000007}},{"attributes":{"ID":290592,"DIS_CODE":0,"TOWNNAME":"東區","LI":"崇信里","LIN":"21鄰","STREET":"中華東路","SECT":"三段","MAREA":" ","LANE":"４４巷","ALLEY":" ","HOUSE_NO":"４３號四樓","E_COORD97":170829.07999999999,"N_COORD97":2542402.5499999998,"ADDRESS":"中華東路三段４４巷４３號四樓","OBJECTID":290586},"geometry":{"x":170829.08000000101,"y":2542402.5500000007}},{"attributes":{"ID":290593,"DIS_CODE":0,"TOWNNAME":"永康區","LI":"崑山里","LIN":"21鄰","STREET":"大仁街","SECT":" ","MAREA":" ","LANE":"５１巷","ALLEY":" ","HOUSE_NO":"５號五樓之３","E_COORD97":173762.78,"N_COORD97":2544652.0099999998,"ADDRESS":"大仁街５１巷５號五樓之３","OBJECTID":290587},"geometry":{"x":173762.78000000026,"y":2544652.0100000016}},{"attributes":{"ID":290594,"DIS_CODE":0,"TOWNNAME":"永康區","LI":"崑山里","LIN":"21鄰","STREET":"大仁街","SECT":" ","MAREA":" ","LANE":"３１巷","ALLEY":" ","HOUSE_NO":"３５號三樓之５","E_COORD97":173708.81,"N_COORD97":2544604.9399999999,"ADDRESS":"大仁街３１巷３５號三樓之５","OBJECTID":290588},"geometry":{"x":173708.81000000052,"y":2544604.9400000013}},{"attributes":{"ID":290595,"DIS_CODE":0,"TOWNNAME":"東區","LI":"圍下里","LIN":"21鄰","STREET":"前鋒路","SECT":" ","MAREA":" ","LANE":"１１９巷","ALLEY":" ","HOUSE_NO":"５號二樓","E_COORD97":169285.14000000001,"N_COORD97":2543784.98,"ADDRESS":"前鋒路１１９巷５號二樓","OBJECTID":290589},"geometry":{"x":169285.14000000153,"y":2543784.9800000023}},{"attributes":{"ID":290596,"DIS_CODE":0,"TOWNNAME":"東區","LI":"圍下里","LIN":"21鄰","STREET":"前鋒路","SECT":" ","MAREA":" ","LANE":"１１９巷","ALLEY":" ","HOUSE_NO":"５號三樓","E_COORD97":169285.14000000001,"N_COORD97":2543784.98,"ADDRESS":"前鋒路１１９巷５號三樓","OBJECTID":290590},"geometry":{"x":169285.14000000153,"y":2543784.9800000023}},{"attributes":{"ID":290597,"DIS_CODE":0,"TOWNNAME":"東區","LI":"圍下里","LIN":"21鄰","STREET":"前鋒路","SECT":" ","MAREA":" ","LANE":"１１９巷","ALLEY":" ","HOUSE_NO":"５號三樓之１","E_COORD97":169285.14000000001,"N_COORD97":2543784.98,"ADDRESS":"前鋒路１１９巷５號三樓之１","OBJECTID":290591},"geometry":{"x":169285.14000000153,"y":2543784.9800000023}},{"attributes":{"ID":290598,"DIS_CODE":0,"TOWNNAME":"永康區","LI":"崑山里","LIN":"21鄰","STREET":"大仁街","SECT":" ","MAREA":" ","LANE":"３１巷","ALLEY":" ","HOUSE_NO":"３５號六樓之２","E_COORD97":173708.79000000001,"N_COORD97":2544604.9399999999,"ADDRESS":"大仁街３１巷３５號六樓之２","OBJECTID":290592},"geometry":{"x":173708.78999999911,"y":2544604.9400000013}},{"attributes":{"ID":290599,"DIS_CODE":0,"TOWNNAME":"七股區","LI":"樹林里","LIN":"6鄰","STREET":" ","SECT":" ","MAREA":"樹林","LANE":" ","ALLEY":" ","HOUSE_NO":"５０號之１","E_COORD97":164001.324899,"N_COORD97":2557111.1331699998,"ADDRESS":"樹林５０號之１","OBJECTID":290593},"geometry":{"x":164001.32489900105,"y":2557111.1331660021}},{"attributes":{"ID":290600,"DIS_CODE":0,"TOWNNAME":"安平區","LI":"建平里","LIN":"21鄰","STREET":"平通路","SECT":" ","MAREA":" ","LANE":"８４巷","ALLEY":" ","HOUSE_NO":"１號五樓","E_COORD97":166046.98999999999,"N_COORD97":2543695.3500000001,"ADDRESS":"平通路８４巷１號五樓","OBJECTID":290594},"geometry":{"x":166046.99000000022,"y":2543695.3499999996}},{"attributes":{"ID":290601,"DIS_CODE":0,"TOWNNAME":"安平區","LI":"建平里","LIN":"21鄰","STREET":"平通路","SECT":" ","MAREA":" ","LANE":"８４巷","ALLEY":" ","HOUSE_NO":"１號六樓","E_COORD97":166046.98999999999,"N_COORD97":2543695.3500000001,"ADDRESS":"平通路８４巷１號六樓","OBJECTID":290595},"geometry":{"x":166046.99000000022,"y":2543695.3499999996}},{"attributes":{"ID":290602,"DIS_CODE":0,"TOWNNAME":"安平區","LI":"建平里","LIN":"21鄰","STREET":"平通路","SECT":" ","MAREA":" ","LANE":"８４巷","ALLEY":" ","HOUSE_NO":"１號四樓","E_COORD97":166046.98999999999,"N_COORD97":2543695.3500000001,"ADDRESS":"平通路８４巷１號四樓","OBJECTID":290596},"geometry":{"x":166046.99000000022,"y":2543695.3499999996}},{"attributes":{"ID":290603,"DIS_CODE":0,"TOWNNAME":"安平區","LI":"建平里","LIN":"21鄰","STREET":"平通路","SECT":" ","MAREA":" ","LANE":"８４巷","ALLEY":" ","HOUSE_NO":"２號二樓","E_COORD97":166062.17999999999,"N_COORD97":2543694.9900000002,"ADDRESS":"平通路８４巷２號二樓","OBJECTID":290597},"geometry":{"x":166062.17999999877,"y":2543694.9900000002}},{"attributes":{"ID":290604,"DIS_CODE":0,"TOWNNAME":"永康區","LI":"永康里","LIN":"37鄰","STREET":"西勢路","SECT":" ","MAREA":" ","LANE":" ","ALLEY":" ","HOUSE_NO":"７４０號","E_COORD97":174546.72,"N_COORD97":2546755.6699999999,"ADDRESS":"西勢路７４０號","OBJECTID":290598},"geometry":{"x":174546.72000000067,"y":2546755.6700000037}},{"attributes":{"ID":290605,"DIS_CODE":0,"TOWNNAME":"永康區","LI":"永康里","LIN":"26鄰","STREET":"永明街","SECT":" ","MAREA":" ","LANE":" ","ALLEY":" ","HOUSE_NO":"４３號","E_COORD97":174091.32000000001,"N_COORD97":2547341,"ADDRESS":"永明街４３號","OBJECTID":290599},"geometry":{"x":174091.3200000003,"y":2547341.0000000019}},{"attributes":{"ID":290606,"DIS_CODE":0,"TOWNNAME":"安平區","LI":"建平里","LIN":"21鄰","STREET":"平通路","SECT":" ","MAREA":" ","LANE":"８４巷","ALLEY":" ","HOUSE_NO":"２號三樓","E_COORD97":166062.17999999999,"N_COORD97":2543694.9900000002,"ADDRESS":"平通路８４巷２號三樓","OBJECTID":290600},"geometry":{"x":166062.17999999877,"y":2543694.9900000002}}]}