{"displayFieldName":"TOWNNAME","fieldAliases":{"ID":"ID","DIS_CODE":"DIS_CODE","TOWNNAME":"TOWNNAME","LI":"LI","LIN":"LIN","STREET":"STREET","SECT":"SECT","MAREA":"MAREA","LANE":"LANE","ALLEY":"ALLEY","HOUSE_NO":"HOUSE_NO","E_COORD97":"E_COORD97","N_COORD97":"N_COORD97","ADDRESS":"ADDRESS","OBJECTID":"OBJECTID"},"geometryType":"esriGeometryPoint","spatialReference":{"wkid":102443,"latestWkid":3826},"fields":[{"name":"ID","type":"esriFieldTypeDouble","alias":"ID"},{"name":"DIS_CODE","type":"esriFieldTypeInteger","alias":"DIS_CODE"},{"name":"TOWNNAME","type":"esriFieldTypeString","alias":"TOWNNAME","length":8},{"name":"LI","type":"esriFieldTypeString","alias":"LI","length":8},{"name":"LIN","type":"esriFieldTypeString","alias":"LIN","length":12},{"name":"STREET","type":"esriFieldTypeString","alias":"STREET","length":20},{"name":"SECT","type":"esriFieldTypeString","alias":"SECT","length":8},{"name":"MAREA","type":"esriFieldTypeString","alias":"MAREA","length":12},{"name":"LANE","type":"esriFieldTypeString","alias":"LANE","length":10},{"name":"ALLEY","type":"esriFieldTypeString","alias":"ALLEY","length":10},{"name":"HOUSE_NO","type":"esriFieldTypeString","alias":"HOUSE_NO","length":20},{"name":"E_COORD97","type":"esriFieldTypeDouble","alias":"E_COORD97"},{"name":"N_COORD97","type":"esriFieldTypeDouble","alias":"N_COORD97"},{"name":"ADDRESS","type":"esriFieldTypeString","alias":"ADDRESS","length":50},{"name":"OBJECTID","type":"esriFieldTypeOID","alias":"OBJECTID"}],"features":[{"attributes":{"ID":632228,"DIS_CODE":0,"TOWNNAME":"玉井區","LI":"竹圍里","LIN":"4鄰","STREET":"大成路","SECT":" ","MAREA":" ","LANE":" ","ALLEY":" ","HOUSE_NO":"３３１號","E_COORD97":195616.04000000001,"N_COORD97":2558358.8799999999,"ADDRESS":"大成路３３１號","OBJECTID":632201},"geometry":{"x":195616.04000000097,"y":2558358.8800000008}},{"attributes":{"ID":632229,"DIS_CODE":0,"TOWNNAME":"玉井區","LI":"竹圍里","LIN":"4鄰","STREET":"大成路","SECT":" ","MAREA":" ","LANE":" ","ALLEY":" ","HOUSE_NO":"３２３號","E_COORD97":195622.54999999999,"N_COORD97":2558346.5600000001,"ADDRESS":"大成路３２３號","OBJECTID":632202},"geometry":{"x":195622.55000000075,"y":2558346.5600000024}},{"attributes":{"ID":632230,"DIS_CODE":0,"TOWNNAME":"玉井區","LI":"竹圍里","LIN":"4鄰","STREET":"大成路","SECT":" ","MAREA":" ","LANE":" ","ALLEY":" ","HOUSE_NO":"３２７號","E_COORD97":195619.48999999999,"N_COORD97":2558352.6600000001,"ADDRESS":"大成路３２７號","OBJECTID":632203},"geometry":{"x":195619.49000000022,"y":2558352.660000002}},{"attributes":{"ID":632231,"DIS_CODE":0,"TOWNNAME":"玉井區","LI":"竹圍里","LIN":"4鄰","STREET":"大成路","SECT":" ","MAREA":" ","LANE":" ","ALLEY":" ","HOUSE_NO":"３３５號","E_COORD97":195612.48000000001,"N_COORD97":2558365.8599999999,"ADDRESS":"大成路３３５號","OBJECTID":632204},"geometry":{"x":195612.48000000045,"y":2558365.8600000031}},{"attributes":{"ID":632232,"DIS_CODE":0,"TOWNNAME":"玉井區","LI":"竹圍里","LIN":"4鄰","STREET":"大成路","SECT":" ","MAREA":" ","LANE":" ","ALLEY":" ","HOUSE_NO":"２６２號","E_COORD97":195650.38,"N_COORD97":2558338.4900000002,"ADDRESS":"大成路２６２號","OBJECTID":632205},"geometry":{"x":195650.37999999989,"y":2558338.4899999984}},{"attributes":{"ID":632233,"DIS_CODE":0,"TOWNNAME":"玉井區","LI":"竹圍里","LIN":"4鄰","STREET":"大成路","SECT":" ","MAREA":" ","LANE":" ","ALLEY":" ","HOUSE_NO":"２６６號","E_COORD97":195648.35000000001,"N_COORD97":2558343.9199999999,"ADDRESS":"大成路２６６號","OBJECTID":632206},"geometry":{"x":195648.34999999963,"y":2558343.9200000018}},{"attributes":{"ID":632234,"DIS_CODE":0,"TOWNNAME":"玉井區","LI":"竹圍里","LIN":"4鄰","STREET":"大成路","SECT":" ","MAREA":" ","LANE":" ","ALLEY":" ","HOUSE_NO":"３２１號","E_COORD97":195625.39999999999,"N_COORD97":2558342.23,"ADDRESS":"大成路３２１號","OBJECTID":632207},"geometry":{"x":195625.40000000037,"y":2558342.2300000023}},{"attributes":{"ID":632235,"DIS_CODE":0,"TOWNNAME":"玉井區","LI":"竹圍里","LIN":"4鄰","STREET":"大成路","SECT":" ","MAREA":" ","LANE":" ","ALLEY":" ","HOUSE_NO":"３５７號","E_COORD97":195593.35000000001,"N_COORD97":2558402.5800000001,"ADDRESS":"大成路３５７號","OBJECTID":632208},"geometry":{"x":195593.35000000056,"y":2558402.5800000038}},{"attributes":{"ID":632236,"DIS_CODE":0,"TOWNNAME":"玉井區","LI":"竹圍里","LIN":"4鄰","STREET":"忠孝街","SECT":" ","MAREA":" ","LANE":" ","ALLEY":" ","HOUSE_NO":"５８８號","E_COORD97":195711.92000000001,"N_COORD97":2558597.1499999999,"ADDRESS":"忠孝街５８８號","OBJECTID":632209},"geometry":{"x":195711.92000000086,"y":2558597.1500000022}},{"attributes":{"ID":632237,"DIS_CODE":0,"TOWNNAME":"玉井區","LI":"竹圍里","LIN":"4鄰","STREET":"大成路","SECT":" ","MAREA":" ","LANE":" ","ALLEY":" ","HOUSE_NO":"３２５號","E_COORD97":195620.92000000001,"N_COORD97":2558349.4500000002,"ADDRESS":"大成路３２５號","OBJECTID":632210},"geometry":{"x":195620.91999999993,"y":2558349.4500000011}},{"attributes":{"ID":632238,"DIS_CODE":0,"TOWNNAME":"玉井區","LI":"竹圍里","LIN":"4鄰","STREET":"忠孝街","SECT":" ","MAREA":" ","LANE":" ","ALLEY":" ","HOUSE_NO":"６２５號","E_COORD97":195781.01999999999,"N_COORD97":2558275.3100000001,"ADDRESS":"忠孝街６２５號","OBJECTID":632211},"geometry":{"x":195781.01999999955,"y":2558275.3100000005}},{"attributes":{"ID":632239,"DIS_CODE":0,"TOWNNAME":"玉井區","LI":"竹圍里","LIN":"4鄰","STREET":"大成路","SECT":" ","MAREA":" ","LANE":" ","ALLEY":" ","HOUSE_NO":"３０５號","E_COORD97":195645.72,"N_COORD97":2558298.52,"ADDRESS":"大成路３０５號","OBJECTID":632212},"geometry":{"x":195645.71999999974,"y":2558298.5200000014}},{"attributes":{"ID":632240,"DIS_CODE":0,"TOWNNAME":"玉井區","LI":"竹圍里","LIN":"8鄰","STREET":"中正路","SECT":" ","MAREA":" ","LANE":" ","ALLEY":" ","HOUSE_NO":"６６２號","E_COORD97":195809.42999999999,"N_COORD97":2558932.3399999999,"ADDRESS":"中正路６６２號","OBJECTID":632213},"geometry":{"x":195809.43000000156,"y":2558932.3399999999}},{"attributes":{"ID":632241,"DIS_CODE":0,"TOWNNAME":"玉井區","LI":"竹圍里","LIN":"8鄰","STREET":"中正路","SECT":" ","MAREA":" ","LANE":" ","ALLEY":" ","HOUSE_NO":"７２０號","E_COORD97":195899.98000000001,"N_COORD97":2559019.5,"ADDRESS":"中正路７２０號","OBJECTID":632214},"geometry":{"x":195899.98000000138,"y":2559019.5}},{"attributes":{"ID":632242,"DIS_CODE":0,"TOWNNAME":"玉井區","LI":"竹圍里","LIN":"4鄰","STREET":"大成路","SECT":" ","MAREA":" ","LANE":" ","ALLEY":" ","HOUSE_NO":"３４９號","E_COORD97":195600.57999999999,"N_COORD97":2558388.8300000001,"ADDRESS":"大成路３４９號","OBJECTID":632215},"geometry":{"x":195600.58000000101,"y":2558388.8300000001}},{"attributes":{"ID":632243,"DIS_CODE":0,"TOWNNAME":"玉井區","LI":"竹圍里","LIN":"4鄰","STREET":"大成路","SECT":" ","MAREA":" ","LANE":" ","ALLEY":" ","HOUSE_NO":"３２９號","E_COORD97":195617.87,"N_COORD97":2558355.4399999999,"ADDRESS":"大成路３２９號","OBJECTID":632216},"geometry":{"x":195617.87000000104,"y":2558355.4400000032}},{"attributes":{"ID":632244,"DIS_CODE":0,"TOWNNAME":"玉井區","LI":"竹圍里","LIN":"4鄰","STREET":"忠孝街","SECT":" ","MAREA":" ","LANE":" ","ALLEY":" ","HOUSE_NO":"６２７之１號","E_COORD97":195776.87,"N_COORD97":2558251.5800000001,"ADDRESS":"忠孝街６２７之１號","OBJECTID":632217},"geometry":{"x":195776.87000000104,"y":2558251.5800000001}},{"attributes":{"ID":632245,"DIS_CODE":0,"TOWNNAME":"玉井區","LI":"竹圍里","LIN":"4鄰","STREET":"大成路","SECT":" ","MAREA":" ","LANE":" ","ALLEY":" ","HOUSE_NO":"３４３號","E_COORD97":195604.84,"N_COORD97":2558379.8399999999,"ADDRESS":"大成路３４３號","OBJECTID":632218},"geometry":{"x":195604.83999999985,"y":2558379.839999998}},{"attributes":{"ID":632246,"DIS_CODE":0,"TOWNNAME":"玉井區","LI":"竹圍里","LIN":"4鄰","STREET":"忠孝街","SECT":" ","MAREA":" ","LANE":" ","ALLEY":" ","HOUSE_NO":"５７８號","E_COORD97":195688.12,"N_COORD97":2558586.0499999998,"ADDRESS":"忠孝街５７８號","OBJECTID":632219},"geometry":{"x":195688.11999999918,"y":2558586.0500000007}},{"attributes":{"ID":632247,"DIS_CODE":0,"TOWNNAME":"玉井區","LI":"竹圍里","LIN":"4鄰","STREET":"大成路","SECT":" ","MAREA":" ","LANE":" ","ALLEY":" ","HOUSE_NO":"３１９號","E_COORD97":195627.63,"N_COORD97":2558337.46,"ADDRESS":"大成路３１９號","OBJECTID":632220},"geometry":{"x":195627.63000000082,"y":2558337.4600000028}},{"attributes":{"ID":632248,"DIS_CODE":0,"TOWNNAME":"玉井區","LI":"竹圍里","LIN":"4鄰","STREET":"忠孝街","SECT":" ","MAREA":" ","LANE":" ","ALLEY":" ","HOUSE_NO":"５８６號","E_COORD97":195701.85999999999,"N_COORD97":2558592.98,"ADDRESS":"忠孝街５８６號","OBJECTID":632221},"geometry":{"x":195701.86000000034,"y":2558592.9800000004}},{"attributes":{"ID":632249,"DIS_CODE":0,"TOWNNAME":"玉井區","LI":"竹圍里","LIN":"4鄰","STREET":"忠孝街","SECT":" ","MAREA":" ","LANE":" ","ALLEY":" ","HOUSE_NO":"６０７號","E_COORD97":195797.35999999999,"N_COORD97":2558349.8900000001,"ADDRESS":"忠孝街６０７號","OBJECTID":632222},"geometry":{"x":195797.36000000127,"y":2558349.8900000043}},{"attributes":{"ID":632250,"DIS_CODE":0,"TOWNNAME":"玉井區","LI":"竹圍里","LIN":"4鄰","STREET":"大成路","SECT":" ","MAREA":" ","LANE":" ","ALLEY":" ","HOUSE_NO":"２７２號","E_COORD97":195653.82000000001,"N_COORD97":2558356.4100000001,"ADDRESS":"大成路２７２號","OBJECTID":632223},"geometry":{"x":195653.82000000123,"y":2558356.4100000039}},{"attributes":{"ID":632251,"DIS_CODE":0,"TOWNNAME":"玉井區","LI":"竹圍里","LIN":"4鄰","STREET":"忠孝街","SECT":" ","MAREA":" ","LANE":" ","ALLEY":" ","HOUSE_NO":"５８０號","E_COORD97":195693.14999999999,"N_COORD97":2558588.7999999998,"ADDRESS":"忠孝街５８０號","OBJECTID":632224},"geometry":{"x":195693.15000000037,"y":2558588.8000000026}},{"attributes":{"ID":632252,"DIS_CODE":0,"TOWNNAME":"玉井區","LI":"竹圍里","LIN":"4鄰","STREET":"忠孝街","SECT":" ","MAREA":" ","LANE":" ","ALLEY":" ","HOUSE_NO":"６２７號","E_COORD97":195766.97,"N_COORD97":2558271.04,"ADDRESS":"忠孝街６２７號","OBJECTID":632225},"geometry":{"x":195766.9700000016,"y":2558271.040000001}},{"attributes":{"ID":632253,"DIS_CODE":0,"TOWNNAME":"玉井區","LI":"竹圍里","LIN":"4鄰","STREET":"大成路","SECT":" ","MAREA":" ","LANE":" ","ALLEY":" ","HOUSE_NO":"３５１號","E_COORD97":195598.64999999999,"N_COORD97":2558392.6000000001,"ADDRESS":"大成路３５１號","OBJECTID":632226},"geometry":{"x":195598.6500000013,"y":2558392.6000000015}},{"attributes":{"ID":632254,"DIS_CODE":0,"TOWNNAME":"玉井區","LI":"竹圍里","LIN":"4鄰","STREET":"大成路","SECT":" ","MAREA":" ","LANE":" ","ALLEY":" ","HOUSE_NO":"３３９之１號","E_COORD97":195609.28,"N_COORD97":2558376.3199999998,"ADDRESS":"大成路３３９之１號","OBJECTID":632227},"geometry":{"x":195609.28000000212,"y":2558376.3200000003}},{"attributes":{"ID":632255,"DIS_CODE":0,"TOWNNAME":"玉井區","LI":"竹圍里","LIN":"4鄰","STREET":"大成路","SECT":" ","MAREA":" ","LANE":" ","ALLEY":" ","HOUSE_NO":"３４７號","E_COORD97":195601.69,"N_COORD97":2558386.2799999998,"ADDRESS":"大成路３４７號","OBJECTID":632228},"geometry":{"x":195601.69000000227,"y":2558386.2799999993}},{"attributes":{"ID":632256,"DIS_CODE":0,"TOWNNAME":"玉井區","LI":"竹圍里","LIN":"4鄰","STREET":"大成路","SECT":" ","MAREA":" ","LANE":" ","ALLEY":" ","HOUSE_NO":"３３３號","E_COORD97":195614.51000000001,"N_COORD97":2558362.3100000001,"ADDRESS":"大成路３３３號","OBJECTID":632229},"geometry":{"x":195614.51000000071,"y":2558362.3100000005}},{"attributes":{"ID":632257,"DIS_CODE":0,"TOWNNAME":"玉井區","LI":"竹圍里","LIN":"4鄰","STREET":"忠孝街","SECT":" ","MAREA":" ","LANE":" ","ALLEY":" ","HOUSE_NO":"５７２號","E_COORD97":195678.67999999999,"N_COORD97":2558581.21,"ADDRESS":"忠孝街５７２號","OBJECTID":632230},"geometry":{"x":195678.6799999997,"y":2558581.2100000009}},{"attributes":{"ID":632258,"DIS_CODE":0,"TOWNNAME":"玉井區","LI":"竹圍里","LIN":"4鄰","STREET":"大成路","SECT":" ","MAREA":" ","LANE":" ","ALLEY":" ","HOUSE_NO":"３６５號","E_COORD97":195581.72,"N_COORD97":2558412.71,"ADDRESS":"大成路３６５號","OBJECTID":632231},"geometry":{"x":195581.71999999974,"y":2558412.7100000046}},{"attributes":{"ID":632259,"DIS_CODE":0,"TOWNNAME":"玉井區","LI":"竹圍里","LIN":"4鄰","STREET":"忠孝街","SECT":" ","MAREA":" ","LANE":" ","ALLEY":" ","HOUSE_NO":"５７６號","E_COORD97":195683.70000000001,"N_COORD97":2558583.52,"ADDRESS":"忠孝街５７６號","OBJECTID":632232},"geometry":{"x":195683.70000000019,"y":2558583.5200000014}},{"attributes":{"ID":632260,"DIS_CODE":0,"TOWNNAME":"玉井區","LI":"竹圍里","LIN":"4鄰","STREET":"大成路","SECT":" ","MAREA":" ","LANE":" ","ALLEY":" ","HOUSE_NO":"３３７號","E_COORD97":195610.45000000001,"N_COORD97":2558369.2999999998,"ADDRESS":"大成路３３７號","OBJECTID":632233},"geometry":{"x":195610.45000000112,"y":2558369.3000000026}},{"attributes":{"ID":632261,"DIS_CODE":0,"TOWNNAME":"玉井區","LI":"竹圍里","LIN":"4鄰","STREET":"大成路","SECT":" ","MAREA":" ","LANE":" ","ALLEY":" ","HOUSE_NO":"３５５號","E_COORD97":195594.88,"N_COORD97":2558399.04,"ADDRESS":"大成路３５５號","OBJECTID":632234},"geometry":{"x":195594.88000000082,"y":2558399.040000001}},{"attributes":{"ID":632262,"DIS_CODE":0,"TOWNNAME":"玉井區","LI":"竹圍里","LIN":"8鄰","STREET":"武成街","SECT":" ","MAREA":" ","LANE":" ","ALLEY":" ","HOUSE_NO":"１８號","E_COORD97":195939.88,"N_COORD97":2559020.2599999998,"ADDRESS":"武成街１８號","OBJECTID":632235},"geometry":{"x":195939.87999999989,"y":2559020.2599999998}},{"attributes":{"ID":632263,"DIS_CODE":0,"TOWNNAME":"玉井區","LI":"玉田里","LIN":"13鄰","STREET":"民權路","SECT":" ","MAREA":" ","LANE":" ","ALLEY":" ","HOUSE_NO":"５５號","E_COORD97":194921.92999999999,"N_COORD97":2557900.2799999998,"ADDRESS":"民權路５５號","OBJECTID":632236},"geometry":{"x":194921.93000000063,"y":2557900.2799999993}},{"attributes":{"ID":632264,"DIS_CODE":0,"TOWNNAME":"玉井區","LI":"玉田里","LIN":"38鄰","STREET":"大智街","SECT":" ","MAREA":" ","LANE":" ","ALLEY":" ","HOUSE_NO":"１９號","E_COORD97":195197.12,"N_COORD97":2558053.25,"ADDRESS":"大智街１９號","OBJECTID":632237},"geometry":{"x":195197.12000000104,"y":2558053.2500000019}},{"attributes":{"ID":632265,"DIS_CODE":0,"TOWNNAME":"玉井區","LI":"玉田里","LIN":"38鄰","STREET":"大智街","SECT":" ","MAREA":" ","LANE":" ","ALLEY":" ","HOUSE_NO":"９號","E_COORD97":195187.76000000001,"N_COORD97":2558094.2400000002,"ADDRESS":"大智街９號","OBJECTID":632238},"geometry":{"x":195187.75999999978,"y":2558094.2400000021}},{"attributes":{"ID":632266,"DIS_CODE":0,"TOWNNAME":"玉井區","LI":"玉田里","LIN":"38鄰","STREET":"大智街","SECT":" ","MAREA":" ","LANE":" ","ALLEY":" ","HOUSE_NO":"４７號","E_COORD97":195189.12,"N_COORD97":2557988.2400000002,"ADDRESS":"大智街４７號","OBJECTID":632239},"geometry":{"x":195189.12000000011,"y":2557988.2400000021}},{"attributes":{"ID":632267,"DIS_CODE":0,"TOWNNAME":"玉井區","LI":"玉田里","LIN":"13鄰","STREET":"民權路","SECT":" ","MAREA":" ","LANE":" ","ALLEY":" ","HOUSE_NO":"８９號","E_COORD97":194867.42999999999,"N_COORD97":2557891.2799999998,"ADDRESS":"民權路８９號","OBJECTID":632240},"geometry":{"x":194867.43000000063,"y":2557891.2799999993}},{"attributes":{"ID":632268,"DIS_CODE":0,"TOWNNAME":"玉井區","LI":"玉田里","LIN":"14鄰","STREET":"民權路","SECT":" ","MAREA":" ","LANE":" ","ALLEY":" ","HOUSE_NO":"１１６號","E_COORD97":194755.88,"N_COORD97":2557904.29,"ADDRESS":"民權路１１６號","OBJECTID":632241},"geometry":{"x":194755.88000000082,"y":2557904.2899999991}},{"attributes":{"ID":632269,"DIS_CODE":0,"TOWNNAME":"玉井區","LI":"玉田里","LIN":"14鄰","STREET":"民權路","SECT":" ","MAREA":" ","LANE":" ","ALLEY":" ","HOUSE_NO":"１２４號","E_COORD97":194737.17999999999,"N_COORD97":2557904.29,"ADDRESS":"民權路１２４號","OBJECTID":632242},"geometry":{"x":194737.18000000063,"y":2557904.2899999991}},{"attributes":{"ID":632270,"DIS_CODE":0,"TOWNNAME":"玉井區","LI":"玉田里","LIN":"7鄰","STREET":"中華路","SECT":" ","MAREA":" ","LANE":" ","ALLEY":" ","HOUSE_NO":"５１號","E_COORD97":194931.70999999999,"N_COORD97":2558095.2400000002,"ADDRESS":"中華路５１號","OBJECTID":632243},"geometry":{"x":194931.71000000089,"y":2558095.2400000002}},{"attributes":{"ID":632271,"DIS_CODE":0,"TOWNNAME":"玉井區","LI":"玉田里","LIN":"7鄰","STREET":"中華路","SECT":" ","MAREA":" ","LANE":" ","ALLEY":" ","HOUSE_NO":"６５號","E_COORD97":194942.70999999999,"N_COORD97":2558072.2400000002,"ADDRESS":"中華路６５號","OBJECTID":632244},"geometry":{"x":194942.70999999996,"y":2558072.2400000002}},{"attributes":{"ID":632272,"DIS_CODE":0,"TOWNNAME":"玉井區","LI":"玉田里","LIN":"7鄰","STREET":"中華路","SECT":" ","MAREA":" ","LANE":" ","ALLEY":" ","HOUSE_NO":"５３號","E_COORD97":194932.20999999999,"N_COORD97":2558091.2400000002,"ADDRESS":"中華路５３號","OBJECTID":632245},"geometry":{"x":194932.21000000089,"y":2558091.2400000002}},{"attributes":{"ID":632273,"DIS_CODE":0,"TOWNNAME":"玉井區","LI":"玉田里","LIN":"7鄰","STREET":"中華路","SECT":" ","MAREA":" ","LANE":" ","ALLEY":" ","HOUSE_NO":"６１號","E_COORD97":194936.39999999999,"N_COORD97":2558080.2400000002,"ADDRESS":"中華路６１號","OBJECTID":632246},"geometry":{"x":194936.4000000013,"y":2558080.2400000021}},{"attributes":{"ID":632274,"DIS_CODE":0,"TOWNNAME":"玉井區","LI":"玉田里","LIN":"15鄰","STREET":"民權路","SECT":" ","MAREA":" ","LANE":" ","ALLEY":" ","HOUSE_NO":"１５７號","E_COORD97":194420.67999999999,"N_COORD97":2557851.2799999998,"ADDRESS":"民權路１５７號","OBJECTID":632247},"geometry":{"x":194420.6799999997,"y":2557851.2800000012}},{"attributes":{"ID":632275,"DIS_CODE":0,"TOWNNAME":"玉井區","LI":"玉田里","LIN":"38鄰","STREET":"大智街","SECT":" ","MAREA":" ","LANE":" ","ALLEY":" ","HOUSE_NO":"３７號","E_COORD97":195191.12,"N_COORD97":2558015.25,"ADDRESS":"大智街３７號","OBJECTID":632248},"geometry":{"x":195191.12000000011,"y":2558015.2500000019}},{"attributes":{"ID":632276,"DIS_CODE":0,"TOWNNAME":"玉井區","LI":"玉田里","LIN":"38鄰","STREET":"大智街","SECT":" ","MAREA":" ","LANE":" ","ALLEY":" ","HOUSE_NO":"２７號","E_COORD97":195193.32000000001,"N_COORD97":2558029.25,"ADDRESS":"大智街２７號","OBJECTID":632249},"geometry":{"x":195193.3200000003,"y":2558029.2500000019}},{"attributes":{"ID":632277,"DIS_CODE":0,"TOWNNAME":"玉井區","LI":"玉田里","LIN":"38鄰","STREET":"大智街","SECT":" ","MAREA":" ","LANE":" ","ALLEY":" ","HOUSE_NO":"２５號","E_COORD97":195194.01000000001,"N_COORD97":2558033.25,"ADDRESS":"大智街２５號","OBJECTID":632250},"geometry":{"x":195194.01000000071,"y":2558033.2500000019}},{"attributes":{"ID":632278,"DIS_CODE":0,"TOWNNAME":"玉井區","LI":"玉田里","LIN":"42鄰","STREET":"仁愛街","SECT":" ","MAREA":" ","LANE":" ","ALLEY":" ","HOUSE_NO":"１７２號","E_COORD97":195387.26999999999,"N_COORD97":2557868.2599999998,"ADDRESS":"仁愛街１７２號","OBJECTID":632251},"geometry":{"x":195387.27000000048,"y":2557868.2599999998}},{"attributes":{"ID":632279,"DIS_CODE":0,"TOWNNAME":"玉井區","LI":"玉田里","LIN":"41鄰","STREET":"仁愛街","SECT":" ","MAREA":" ","LANE":" ","ALLEY":" ","HOUSE_NO":"２９０號","E_COORD97":195386.10000000001,"N_COORD97":2558148.2799999998,"ADDRESS":"仁愛街２９０號","OBJECTID":632252},"geometry":{"x":195386.10000000149,"y":2558148.2799999993}},{"attributes":{"ID":632280,"DIS_CODE":0,"TOWNNAME":"玉井區","LI":"玉田里","LIN":"38鄰","STREET":"大智街","SECT":" ","MAREA":" ","LANE":" ","ALLEY":" ","HOUSE_NO":"５號","E_COORD97":195187.35999999999,"N_COORD97":2558081.2400000002,"ADDRESS":"大智街５號","OBJECTID":632253},"geometry":{"x":195187.36000000127,"y":2558081.2400000002}},{"attributes":{"ID":632281,"DIS_CODE":0,"TOWNNAME":"玉井區","LI":"玉田里","LIN":"38鄰","STREET":"大智街","SECT":" ","MAREA":" ","LANE":" ","ALLEY":" ","HOUSE_NO":"３５號","E_COORD97":195191.62,"N_COORD97":2558019.25,"ADDRESS":"大智街３５號","OBJECTID":632254},"geometry":{"x":195191.62000000197,"y":2558019.2500000019}},{"attributes":{"ID":632282,"DIS_CODE":0,"TOWNNAME":"玉井區","LI":"玉田里","LIN":"32鄰","STREET":"仁愛街","SECT":" ","MAREA":" ","LANE":" ","ALLEY":" ","HOUSE_NO":"１５９號","E_COORD97":195367.69,"N_COORD97":2558152.2799999998,"ADDRESS":"仁愛街１５９號","OBJECTID":632255},"geometry":{"x":195367.69000000227,"y":2558152.2799999993}},{"attributes":{"ID":632283,"DIS_CODE":0,"TOWNNAME":"玉井區","LI":"玉田里","LIN":"13鄰","STREET":"民權路","SECT":" ","MAREA":" ","LANE":" ","ALLEY":" ","HOUSE_NO":"９９號","E_COORD97":194831.13,"N_COORD97":2557877.2799999998,"ADDRESS":"民權路９９號","OBJECTID":632256},"geometry":{"x":194831.12999999989,"y":2557877.2799999993}},{"attributes":{"ID":632284,"DIS_CODE":0,"TOWNNAME":"玉井區","LI":"玉田里","LIN":"34鄰","STREET":"大勇街","SECT":" ","MAREA":" ","LANE":" ","ALLEY":" ","HOUSE_NO":"３１號","E_COORD97":195581.82000000001,"N_COORD97":2558186.25,"ADDRESS":"大勇街３１號","OBJECTID":632257},"geometry":{"x":195581.8200000003,"y":2558186.25}},{"attributes":{"ID":632285,"DIS_CODE":0,"TOWNNAME":"玉井區","LI":"玉田里","LIN":"5鄰","STREET":"中華路","SECT":" ","MAREA":" ","LANE":" ","ALLEY":" ","HOUSE_NO":"１５號","E_COORD97":194935.10000000001,"N_COORD97":2558169.2400000002,"ADDRESS":"中華路１５號","OBJECTID":632258},"geometry":{"x":194935.0999999987,"y":2558169.2400000002}},{"attributes":{"ID":632286,"DIS_CODE":0,"TOWNNAME":"玉井區","LI":"玉田里","LIN":"38鄰","STREET":"大智街","SECT":" ","MAREA":" ","LANE":" ","ALLEY":" ","HOUSE_NO":"１１號","E_COORD97":195198.92000000001,"N_COORD97":2558074.2400000002,"ADDRESS":"大智街１１號","OBJECTID":632259},"geometry":{"x":195198.91999999993,"y":2558074.2400000021}},{"attributes":{"ID":632287,"DIS_CODE":0,"TOWNNAME":"玉井區","LI":"玉田里","LIN":"38鄰","STREET":"大智街","SECT":" ","MAREA":" ","LANE":" ","ALLEY":" ","HOUSE_NO":"３號","E_COORD97":195185.45999999999,"N_COORD97":2558074.2400000002,"ADDRESS":"大智街３號","OBJECTID":632260},"geometry":{"x":195185.45999999996,"y":2558074.2400000021}},{"attributes":{"ID":632288,"DIS_CODE":0,"TOWNNAME":"玉井區","LI":"玉田里","LIN":"38鄰","STREET":"大智街","SECT":" ","MAREA":" ","LANE":" ","ALLEY":" ","HOUSE_NO":"３９號","E_COORD97":195190.82000000001,"N_COORD97":2558012.25,"ADDRESS":"大智街３９號","OBJECTID":632261},"geometry":{"x":195190.82000000123,"y":2558012.2500000019}},{"attributes":{"ID":632289,"DIS_CODE":0,"TOWNNAME":"玉井區","LI":"玉田里","LIN":"32鄰","STREET":"仁愛街","SECT":" ","MAREA":" ","LANE":" ","ALLEY":" ","HOUSE_NO":"１５３號","E_COORD97":195367.69,"N_COORD97":2558136.2799999998,"ADDRESS":"仁愛街１５３號","OBJECTID":632262},"geometry":{"x":195367.69000000227,"y":2558136.2800000012}},{"attributes":{"ID":632290,"DIS_CODE":0,"TOWNNAME":"玉井區","LI":"玉田里","LIN":"32鄰","STREET":"仁愛街","SECT":" ","MAREA":" ","LANE":" ","ALLEY":" ","HOUSE_NO":"１５１號","E_COORD97":195367.98000000001,"N_COORD97":2558131.2799999998,"ADDRESS":"仁愛街１５１號","OBJECTID":632263},"geometry":{"x":195367.98000000138,"y":2558131.2799999993}},{"attributes":{"ID":632291,"DIS_CODE":0,"TOWNNAME":"玉井區","LI":"玉田里","LIN":"42鄰","STREET":"仁愛街","SECT":" ","MAREA":" ","LANE":" ","ALLEY":" ","HOUSE_NO":"１６８號","E_COORD97":195387.59,"N_COORD97":2557859.27,"ADDRESS":"仁愛街１６８號","OBJECTID":632264},"geometry":{"x":195387.58999999985,"y":2557859.2700000014}},{"attributes":{"ID":632292,"DIS_CODE":0,"TOWNNAME":"玉井區","LI":"玉田里","LIN":"41鄰","STREET":"仁愛街","SECT":" ","MAREA":" ","LANE":" ","ALLEY":" ","HOUSE_NO":"２９２號","E_COORD97":195386.10000000001,"N_COORD97":2558152.2799999998,"ADDRESS":"仁愛街２９２號","OBJECTID":632265},"geometry":{"x":195386.10000000149,"y":2558152.2799999993}},{"attributes":{"ID":632293,"DIS_CODE":0,"TOWNNAME":"玉井區","LI":"玉田里","LIN":"38鄰","STREET":"大智街","SECT":" ","MAREA":" ","LANE":" ","ALLEY":" ","HOUSE_NO":"２３號","E_COORD97":195194.41,"N_COORD97":2558036.25,"ADDRESS":"大智街２３號","OBJECTID":632266},"geometry":{"x":195194.41000000015,"y":2558036.2500000019}},{"attributes":{"ID":632294,"DIS_CODE":0,"TOWNNAME":"玉井區","LI":"玉田里","LIN":"38鄰","STREET":"大智街","SECT":" ","MAREA":" ","LANE":" ","ALLEY":" ","HOUSE_NO":"４９號","E_COORD97":195189.70999999999,"N_COORD97":2557982.2400000002,"ADDRESS":"大智街４９號","OBJECTID":632267},"geometry":{"x":195189.71000000089,"y":2557982.2400000021}},{"attributes":{"ID":632295,"DIS_CODE":0,"TOWNNAME":"玉井區","LI":"玉田里","LIN":"42鄰","STREET":"仁愛街","SECT":" ","MAREA":" ","LANE":" ","ALLEY":" ","HOUSE_NO":"１７６號","E_COORD97":195387.39000000001,"N_COORD97":2557872.27,"ADDRESS":"仁愛街１７６號","OBJECTID":632268},"geometry":{"x":195387.38999999966,"y":2557872.2700000014}},{"attributes":{"ID":632296,"DIS_CODE":0,"TOWNNAME":"玉井區","LI":"玉田里","LIN":"38鄰","STREET":"大智街","SECT":" ","MAREA":" ","LANE":" ","ALLEY":" ","HOUSE_NO":"５３號","E_COORD97":195190.70999999999,"N_COORD97":2557974.2400000002,"ADDRESS":"大智街５３號","OBJECTID":632269},"geometry":{"x":195190.71000000183,"y":2557974.2400000039}},{"attributes":{"ID":632297,"DIS_CODE":0,"TOWNNAME":"玉井區","LI":"玉田里","LIN":"32鄰","STREET":"仁愛街","SECT":" ","MAREA":" ","LANE":" ","ALLEY":" ","HOUSE_NO":"１６１號","E_COORD97":195367.39000000001,"N_COORD97":2558156.2799999998,"ADDRESS":"仁愛街１６１號","OBJECTID":632270},"geometry":{"x":195367.3900000006,"y":2558156.2800000031}},{"attributes":{"ID":632298,"DIS_CODE":0,"TOWNNAME":"玉井區","LI":"玉田里","LIN":"32鄰","STREET":"仁愛街","SECT":" ","MAREA":" ","LANE":" ","ALLEY":" ","HOUSE_NO":"１５５號","E_COORD97":195367.78,"N_COORD97":2558141.2799999998,"ADDRESS":"仁愛街１５５號","OBJECTID":632271},"geometry":{"x":195367.78000000026,"y":2558141.2799999993}},{"attributes":{"ID":632299,"DIS_CODE":0,"TOWNNAME":"玉井區","LI":"玉田里","LIN":"38鄰","STREET":"大仁街","SECT":" ","MAREA":" ","LANE":" ","ALLEY":" ","HOUSE_NO":"５號","E_COORD97":195192.07000000001,"N_COORD97":2557958.2400000002,"ADDRESS":"大仁街５號","OBJECTID":632272},"geometry":{"x":195192.07000000216,"y":2557958.2400000021}},{"attributes":{"ID":632300,"DIS_CODE":0,"TOWNNAME":"玉井區","LI":"玉田里","LIN":"41鄰","STREET":"仁愛街","SECT":" ","MAREA":" ","LANE":" ","ALLEY":" ","HOUSE_NO":"２９６號","E_COORD97":195385.89000000001,"N_COORD97":2558157.2799999998,"ADDRESS":"仁愛街２９６號","OBJECTID":632273},"geometry":{"x":195385.89000000153,"y":2558157.2800000012}},{"attributes":{"ID":632301,"DIS_CODE":0,"TOWNNAME":"玉井區","LI":"玉田里","LIN":"42鄰","STREET":"仁愛街","SECT":" ","MAREA":" ","LANE":" ","ALLEY":" ","HOUSE_NO":"１７８號","E_COORD97":195387.17999999999,"N_COORD97":2557875.27,"ADDRESS":"仁愛街１７８號","OBJECTID":632274},"geometry":{"x":195387.1799999997,"y":2557875.2700000033}},{"attributes":{"ID":632302,"DIS_CODE":0,"TOWNNAME":"玉井區","LI":"竹圍里","LIN":"4鄰","STREET":"大成路","SECT":" ","MAREA":" ","LANE":" ","ALLEY":" ","HOUSE_NO":"２７８號","E_COORD97":195643.92999999999,"N_COORD97":2558368.4100000001,"ADDRESS":"大成路２７８號","OBJECTID":632275},"geometry":{"x":195643.93000000063,"y":2558368.4100000001}},{"attributes":{"ID":632303,"DIS_CODE":0,"TOWNNAME":"玉井區","LI":"竹圍里","LIN":"5鄰","STREET":"大成路","SECT":" ","MAREA":" ","LANE":" ","ALLEY":" ","HOUSE_NO":"４１０號","E_COORD97":195540.64999999999,"N_COORD97":2558580.96,"ADDRESS":"大成路４１０號","OBJECTID":632276},"geometry":{"x":195540.65000000037,"y":2558580.9600000028}},{"attributes":{"ID":632304,"DIS_CODE":0,"TOWNNAME":"玉井區","LI":"玉田里","LIN":"38鄰","STREET":"大智街","SECT":" ","MAREA":" ","LANE":" ","ALLEY":" ","HOUSE_NO":"１５號","E_COORD97":195198.01000000001,"N_COORD97":2558062.2400000002,"ADDRESS":"大智街１５號","OBJECTID":632277},"geometry":{"x":195198.00999999978,"y":2558062.2399999984}},{"attributes":{"ID":632305,"DIS_CODE":0,"TOWNNAME":"玉井區","LI":"玉田里","LIN":"38鄰","STREET":"大智街","SECT":" ","MAREA":" ","LANE":" ","ALLEY":" ","HOUSE_NO":"４１號","E_COORD97":195190.32000000001,"N_COORD97":2558009.25,"ADDRESS":"大智街４１號","OBJECTID":632278},"geometry":{"x":195190.32000000216,"y":2558009.2500000019}},{"attributes":{"ID":632306,"DIS_CODE":0,"TOWNNAME":"玉井區","LI":"竹圍里","LIN":"4鄰","STREET":"大成路","SECT":" ","MAREA":" ","LANE":" ","ALLEY":" ","HOUSE_NO":"３０７號","E_COORD97":195646.26000000001,"N_COORD97":2558304.8399999999,"ADDRESS":"大成路３０７號","OBJECTID":632279},"geometry":{"x":195646.26000000164,"y":2558304.8399999999}},{"attributes":{"ID":632307,"DIS_CODE":0,"TOWNNAME":"玉井區","LI":"玉田里","LIN":"5鄰","STREET":"中華路","SECT":" ","MAREA":" ","LANE":" ","ALLEY":" ","HOUSE_NO":"２９號","E_COORD97":194931.39999999999,"N_COORD97":2558138.25,"ADDRESS":"中華路２９號","OBJECTID":632280},"geometry":{"x":194931.4000000013,"y":2558138.2500000019}},{"attributes":{"ID":632308,"DIS_CODE":0,"TOWNNAME":"玉井區","LI":"竹圍里","LIN":"5鄰","STREET":"大成路","SECT":" ","MAREA":" ","LANE":" ","ALLEY":" ","HOUSE_NO":"３８６號","E_COORD97":195567.26999999999,"N_COORD97":2558580.3100000001,"ADDRESS":"大成路３８６號","OBJECTID":632281},"geometry":{"x":195567.26999999955,"y":2558580.3100000005}},{"attributes":{"ID":632309,"DIS_CODE":0,"TOWNNAME":"玉井區","LI":"玉田里","LIN":"5鄰","STREET":"中華路","SECT":" ","MAREA":" ","LANE":" ","ALLEY":" ","HOUSE_NO":"１３號","E_COORD97":194935.39999999999,"N_COORD97":2558174.2400000002,"ADDRESS":"中華路１３號","OBJECTID":632282},"geometry":{"x":194935.40000000037,"y":2558174.2400000039}},{"attributes":{"ID":632310,"DIS_CODE":0,"TOWNNAME":"玉井區","LI":"玉田里","LIN":"38鄰","STREET":"大智街","SECT":" ","MAREA":" ","LANE":" ","ALLEY":" ","HOUSE_NO":"５７號","E_COORD97":195191.82000000001,"N_COORD97":2557966.2400000002,"ADDRESS":"大智街５７號","OBJECTID":632283},"geometry":{"x":195191.8200000003,"y":2557966.2400000002}},{"attributes":{"ID":632311,"DIS_CODE":0,"TOWNNAME":"玉井區","LI":"玉田里","LIN":"38鄰","STREET":"大智街","SECT":" ","MAREA":" ","LANE":" ","ALLEY":" ","HOUSE_NO":"４５號","E_COORD97":195188.91,"N_COORD97":2557991.2400000002,"ADDRESS":"大智街４５號","OBJECTID":632284},"geometry":{"x":195188.91000000015,"y":2557991.2400000039}},{"attributes":{"ID":632312,"DIS_CODE":0,"TOWNNAME":"玉井區","LI":"玉田里","LIN":"13鄰","STREET":"民權路","SECT":" ","MAREA":" ","LANE":" ","ALLEY":" ","HOUSE_NO":"５７號","E_COORD97":194916.63,"N_COORD97":2557899.2799999998,"ADDRESS":"民權路５７號","OBJECTID":632285},"geometry":{"x":194916.63000000175,"y":2557899.2800000012}},{"attributes":{"ID":632313,"DIS_CODE":0,"TOWNNAME":"玉井區","LI":"玉田里","LIN":"38鄰","STREET":"大智街","SECT":" ","MAREA":" ","LANE":" ","ALLEY":" ","HOUSE_NO":"５１號","E_COORD97":195190.41,"N_COORD97":2557978.2400000002,"ADDRESS":"大智街５１號","OBJECTID":632286},"geometry":{"x":195190.41000000108,"y":2557978.2400000021}},{"attributes":{"ID":632314,"DIS_CODE":0,"TOWNNAME":"玉井區","LI":"玉田里","LIN":"38鄰","STREET":"大智街","SECT":" ","MAREA":" ","LANE":" ","ALLEY":" ","HOUSE_NO":"３３號","E_COORD97":195192.20999999999,"N_COORD97":2558022.25,"ADDRESS":"大智街３３號","OBJECTID":632287},"geometry":{"x":195192.20999999996,"y":2558022.2500000019}},{"attributes":{"ID":632315,"DIS_CODE":0,"TOWNNAME":"玉井區","LI":"玉田里","LIN":"18鄰","STREET":"中華路","SECT":" ","MAREA":" ","LANE":" ","ALLEY":" ","HOUSE_NO":"９１號","E_COORD97":194974.89999999999,"N_COORD97":2558042.25,"ADDRESS":"中華路９１號","OBJECTID":632288},"geometry":{"x":194974.9000000013,"y":2558042.2500000019}},{"attributes":{"ID":632316,"DIS_CODE":0,"TOWNNAME":"玉井區","LI":"玉田里","LIN":"43鄰","STREET":"大成路","SECT":" ","MAREA":" ","LANE":" ","ALLEY":" ","HOUSE_NO":"６５號","E_COORD97":195587.70999999999,"N_COORD97":2557680.2599999998,"ADDRESS":"大成路６５號","OBJECTID":632289},"geometry":{"x":195587.71000000089,"y":2557680.2600000016}},{"attributes":{"ID":632317,"DIS_CODE":0,"TOWNNAME":"玉井區","LI":"玉田里","LIN":"5鄰","STREET":"民族路","SECT":" ","MAREA":" ","LANE":" ","ALLEY":" ","HOUSE_NO":"１３號","E_COORD97":194969.42999999999,"N_COORD97":2558108.2799999998,"ADDRESS":"民族路１３號","OBJECTID":632290},"geometry":{"x":194969.43000000063,"y":2558108.2799999993}},{"attributes":{"ID":632318,"DIS_CODE":0,"TOWNNAME":"玉井區","LI":"玉田里","LIN":"43鄰","STREET":"大成路","SECT":" ","MAREA":" ","LANE":" ","ALLEY":" ","HOUSE_NO":"３號","E_COORD97":195517.07000000001,"N_COORD97":2557565.2599999998,"ADDRESS":"大成路３號","OBJECTID":632291},"geometry":{"x":195517.0700000003,"y":2557565.2599999998}},{"attributes":{"ID":632319,"DIS_CODE":0,"TOWNNAME":"鹽水區","LI":"水正里","LIN":" ","STREET":"康樂路","SECT":" ","MAREA":" ","LANE":" ","ALLEY":" ","HOUSE_NO":"８７號","E_COORD97":175164.06,"N_COORD97":2579933,"ADDRESS":"康樂路８７號","OBJECTID":632292},"geometry":{"x":175164.05999999959,"y":2579933.0000000019}},{"attributes":{"ID":632320,"DIS_CODE":0,"TOWNNAME":"玉井區","LI":"玉田里","LIN":"38鄰","STREET":"大仁街","SECT":" ","MAREA":" ","LANE":" ","ALLEY":" ","HOUSE_NO":"３９號","E_COORD97":195248.20999999999,"N_COORD97":2558022.25,"ADDRESS":"大仁街３９號","OBJECTID":632293},"geometry":{"x":195248.20999999996,"y":2558022.2500000019}},{"attributes":{"ID":632321,"DIS_CODE":0,"TOWNNAME":"玉井區","LI":"玉田里","LIN":"38鄰","STREET":"大仁街","SECT":" ","MAREA":" ","LANE":" ","ALLEY":" ","HOUSE_NO":"３２號","E_COORD97":195248.12,"N_COORD97":2558010.25,"ADDRESS":"大仁街３２號","OBJECTID":632294},"geometry":{"x":195248.12000000104,"y":2558010.25}},{"attributes":{"ID":632322,"DIS_CODE":0,"TOWNNAME":"玉井區","LI":"玉田里","LIN":"38鄰","STREET":"大仁街","SECT":" ","MAREA":" ","LANE":" ","ALLEY":" ","HOUSE_NO":"１２號","E_COORD97":195221.91,"N_COORD97":2558046.25,"ADDRESS":"大仁街１２號","OBJECTID":632295},"geometry":{"x":195221.91000000201,"y":2558046.2500000019}},{"attributes":{"ID":632323,"DIS_CODE":0,"TOWNNAME":"玉井區","LI":"玉田里","LIN":"43鄰","STREET":"大成路","SECT":" ","MAREA":" ","LANE":" ","ALLEY":" ","HOUSE_NO":"１４７號","E_COORD97":195638.37,"N_COORD97":2557851.2599999998,"ADDRESS":"大成路１４７號","OBJECTID":632296},"geometry":{"x":195638.37000000011,"y":2557851.2599999998}},{"attributes":{"ID":632324,"DIS_CODE":0,"TOWNNAME":"玉井區","LI":"玉田里","LIN":"43鄰","STREET":"大成路","SECT":" ","MAREA":" ","LANE":" ","ALLEY":" ","HOUSE_NO":"５號","E_COORD97":195520.57000000001,"N_COORD97":2557569.2599999998,"ADDRESS":"大成路５號","OBJECTID":632297},"geometry":{"x":195520.5700000003,"y":2557569.2599999998}},{"attributes":{"ID":632325,"DIS_CODE":0,"TOWNNAME":"玉井區","LI":"玉田里","LIN":"43鄰","STREET":"大成路","SECT":" ","MAREA":" ","LANE":" ","ALLEY":" ","HOUSE_NO":"９１號","E_COORD97":195606.01000000001,"N_COORD97":2557742.27,"ADDRESS":"大成路９１號","OBJECTID":632298},"geometry":{"x":195606.01000000071,"y":2557742.2699999996}},{"attributes":{"ID":632326,"DIS_CODE":0,"TOWNNAME":"玉井區","LI":"玉田里","LIN":"38鄰","STREET":"大仁街","SECT":" ","MAREA":" ","LANE":" ","ALLEY":" ","HOUSE_NO":"８號","E_COORD97":195213.37,"N_COORD97":2558046.25,"ADDRESS":"大仁街８號","OBJECTID":632299},"geometry":{"x":195213.37000000011,"y":2558046.2500000019}},{"attributes":{"ID":632327,"DIS_CODE":0,"TOWNNAME":"玉井區","LI":"玉田里","LIN":"18鄰","STREET":"中華路","SECT":" ","MAREA":" ","LANE":" ","ALLEY":" ","HOUSE_NO":"１０３號","E_COORD97":194995.64999999999,"N_COORD97":2558033.25,"ADDRESS":"中華路１０３號","OBJECTID":632300},"geometry":{"x":194995.6500000013,"y":2558033.2500000019}},{"attributes":{"ID":632328,"DIS_CODE":0,"TOWNNAME":"玉井區","LI":"玉田里","LIN":"43鄰","STREET":"大成路","SECT":" ","MAREA":" ","LANE":" ","ALLEY":" ","HOUSE_NO":"１５７號","E_COORD97":195645.26000000001,"N_COORD97":2557872.2599999998,"ADDRESS":"大成路１５７號","OBJECTID":632301},"geometry":{"x":195645.26000000071,"y":2557872.2600000016}},{"attributes":{"ID":632329,"DIS_CODE":0,"TOWNNAME":"玉井區","LI":"玉田里","LIN":"4鄰","STREET":"民主街","SECT":" ","MAREA":" ","LANE":" ","ALLEY":" ","HOUSE_NO":"１３５號","E_COORD97":195085.57999999999,"N_COORD97":2558206.2799999998,"ADDRESS":"民主街１３５號","OBJECTID":632302},"geometry":{"x":195085.58000000101,"y":2558206.2799999993}},{"attributes":{"ID":632330,"DIS_CODE":0,"TOWNNAME":"玉井區","LI":"玉田里","LIN":"38鄰","STREET":"大仁街","SECT":" ","MAREA":" ","LANE":" ","ALLEY":" ","HOUSE_NO":"２７號","E_COORD97":195215.92000000001,"N_COORD97":2558035.25,"ADDRESS":"大仁街２７號","OBJECTID":632303},"geometry":{"x":195215.91999999993,"y":2558035.2500000037}},{"attributes":{"ID":632331,"DIS_CODE":0,"TOWNNAME":"玉井區","LI":"玉田里","LIN":"18鄰","STREET":"中華路","SECT":" ","MAREA":" ","LANE":" ","ALLEY":" ","HOUSE_NO":"１２１號","E_COORD97":195019.35000000001,"N_COORD97":2557999.2400000002,"ADDRESS":"中華路１２１號","OBJECTID":632304},"geometry":{"x":195019.34999999963,"y":2557999.2400000021}},{"attributes":{"ID":632332,"DIS_CODE":0,"TOWNNAME":"玉井區","LI":"玉田里","LIN":"43鄰","STREET":"大成路","SECT":" ","MAREA":" ","LANE":" ","ALLEY":" ","HOUSE_NO":"８３號","E_COORD97":195599.41,"N_COORD97":2557722.27,"ADDRESS":"大成路８３號","OBJECTID":632305},"geometry":{"x":195599.41000000015,"y":2557722.2699999977}},{"attributes":{"ID":632333,"DIS_CODE":0,"TOWNNAME":"玉井區","LI":"玉田里","LIN":"43鄰","STREET":"大成路","SECT":" ","MAREA":" ","LANE":" ","ALLEY":" ","HOUSE_NO":"８５號","E_COORD97":195600.91,"N_COORD97":2557727.27,"ADDRESS":"大成路８５號","OBJECTID":632306},"geometry":{"x":195600.91000000015,"y":2557727.2700000014}},{"attributes":{"ID":632334,"DIS_CODE":0,"TOWNNAME":"玉井區","LI":"玉田里","LIN":"38鄰","STREET":"大仁街","SECT":" ","MAREA":" ","LANE":" ","ALLEY":" ","HOUSE_NO":"３５號","E_COORD97":195247.12,"N_COORD97":2558034.25,"ADDRESS":"大仁街３５號","OBJECTID":632307},"geometry":{"x":195247.12000000011,"y":2558034.25}},{"attributes":{"ID":632335,"DIS_CODE":0,"TOWNNAME":"玉井區","LI":"玉田里","LIN":"43鄰","STREET":"大成路","SECT":" ","MAREA":" ","LANE":" ","ALLEY":" ","HOUSE_NO":"１１號","E_COORD97":195530.82000000001,"N_COORD97":2557578.2599999998,"ADDRESS":"大成路１１號","OBJECTID":632308},"geometry":{"x":195530.8200000003,"y":2557578.2600000016}},{"attributes":{"ID":632336,"DIS_CODE":0,"TOWNNAME":"玉井區","LI":"玉田里","LIN":"38鄰","STREET":"大仁街","SECT":" ","MAREA":" ","LANE":" ","ALLEY":" ","HOUSE_NO":"３１號","E_COORD97":195226.60999999999,"N_COORD97":2558034.25,"ADDRESS":"大仁街３１號","OBJECTID":632309},"geometry":{"x":195226.61000000034,"y":2558034.25}},{"attributes":{"ID":632337,"DIS_CODE":0,"TOWNNAME":"玉井區","LI":"玉田里","LIN":"43鄰","STREET":"大成路","SECT":" ","MAREA":" ","LANE":" ","ALLEY":" ","HOUSE_NO":"８０號","E_COORD97":195626.32000000001,"N_COORD97":2557643.2599999998,"ADDRESS":"大成路８０號","OBJECTID":632310},"geometry":{"x":195626.32000000123,"y":2557643.2599999998}},{"attributes":{"ID":632338,"DIS_CODE":0,"TOWNNAME":"鹽水區","LI":"水正里","LIN":" ","STREET":"康樂路","SECT":" ","MAREA":" ","LANE":" ","ALLEY":" ","HOUSE_NO":"９１號","E_COORD97":175185.92000000001,"N_COORD97":2579927.73,"ADDRESS":"康樂路９１號","OBJECTID":632311},"geometry":{"x":175185.91999999993,"y":2579927.7300000023}},{"attributes":{"ID":632339,"DIS_CODE":0,"TOWNNAME":"鹽水區","LI":"橋南里","LIN":" ","STREET":"南門路","SECT":" ","MAREA":" ","LANE":" ","ALLEY":" ","HOUSE_NO":"２３號","E_COORD97":175060.88,"N_COORD97":2579458.6200000001,"ADDRESS":"南門路２３號","OBJECTID":632312},"geometry":{"x":175060.88000000175,"y":2579458.6200000029}},{"attributes":{"ID":632340,"DIS_CODE":0,"TOWNNAME":"鹽水區","LI":"橋南里","LIN":" ","STREET":"南門路","SECT":" ","MAREA":" ","LANE":" ","ALLEY":" ","HOUSE_NO":"３９號","E_COORD97":175076.23999999999,"N_COORD97":2579426.98,"ADDRESS":"南門路３９號","OBJECTID":632313},"geometry":{"x":175076.24000000115,"y":2579426.9799999986}},{"attributes":{"ID":632341,"DIS_CODE":0,"TOWNNAME":"鹽水區","LI":"橋南里","LIN":" ","STREET":"南門路","SECT":" ","MAREA":" ","LANE":" ","ALLEY":" ","HOUSE_NO":"５１號","E_COORD97":175109.70999999999,"N_COORD97":2579396.0099999998,"ADDRESS":"南門路５１號","OBJECTID":632314},"geometry":{"x":175109.71000000089,"y":2579396.0100000035}},{"attributes":{"ID":632342,"DIS_CODE":0,"TOWNNAME":"鹽水區","LI":"橋南里","LIN":" ","STREET":"南門路","SECT":" ","MAREA":" ","LANE":" ","ALLEY":" ","HOUSE_NO":"７８號","E_COORD97":175161.45999999999,"N_COORD97":2579278.9700000002,"ADDRESS":"南門路７８號","OBJECTID":632315},"geometry":{"x":175161.45999999996,"y":2579278.9700000025}},{"attributes":{"ID":632343,"DIS_CODE":0,"TOWNNAME":"鹽水區","LI":"橋南里","LIN":" ","STREET":"南門路","SECT":" ","MAREA":" ","LANE":" ","ALLEY":" ","HOUSE_NO":"８７號","E_COORD97":175245.47,"N_COORD97":2579224.04,"ADDRESS":"南門路８７號","OBJECTID":632316},"geometry":{"x":175245.47000000067,"y":2579224.0399999991}},{"attributes":{"ID":632344,"DIS_CODE":0,"TOWNNAME":"鹽水區","LI":"福得里","LIN":" ","STREET":"康樂路","SECT":" ","MAREA":" ","LANE":" ","ALLEY":" ","HOUSE_NO":"１４８號","E_COORD97":175326.73000000001,"N_COORD97":2579993.6600000001,"ADDRESS":"康樂路１４８號","OBJECTID":632317},"geometry":{"x":175326.73000000045,"y":2579993.6600000001}},{"attributes":{"ID":632345,"DIS_CODE":0,"TOWNNAME":"鹽水區","LI":"福得里","LIN":" ","STREET":"康樂路","SECT":" ","MAREA":" ","LANE":" ","ALLEY":" ","HOUSE_NO":"１６３號","E_COORD97":175318.76999999999,"N_COORD97":2580027.9399999999,"ADDRESS":"康樂路１６３號","OBJECTID":632318},"geometry":{"x":175318.76999999955,"y":2580027.9400000013}},{"attributes":{"ID":632346,"DIS_CODE":0,"TOWNNAME":"鹽水區","LI":"水正里","LIN":" ","STREET":"康樂路","SECT":" ","MAREA":" ","LANE":" ","ALLEY":" ","HOUSE_NO":"１８之２號","E_COORD97":175163.19,"N_COORD97":2579729.2799999998,"ADDRESS":"康樂路１８之２號","OBJECTID":632319},"geometry":{"x":175163.19000000134,"y":2579729.2800000031}},{"attributes":{"ID":632347,"DIS_CODE":0,"TOWNNAME":"鹽水區","LI":"水正里","LIN":"13鄰","STREET":"橋南街","SECT":" ","MAREA":" ","LANE":" ","ALLEY":" ","HOUSE_NO":"１之１號","E_COORD97":175056.07999999999,"N_COORD97":2579597.4900000002,"ADDRESS":"橋南街１之１號","OBJECTID":632320},"geometry":{"x":175056.08000000007,"y":2579597.4900000021}},{"attributes":{"ID":632348,"DIS_CODE":0,"TOWNNAME":"鹽水區","LI":"水正里","LIN":" ","STREET":"康樂路","SECT":" ","MAREA":" ","LANE":" ","ALLEY":" ","HOUSE_NO":"２號","E_COORD97":175065.41,"N_COORD97":2579607.8999999999,"ADDRESS":"康樂路２號","OBJECTID":632321},"geometry":{"x":175065.41000000015,"y":2579607.9000000022}},{"attributes":{"ID":632349,"DIS_CODE":0,"TOWNNAME":"鹽水區","LI":"水正里","LIN":" ","STREET":"康樂路","SECT":" ","MAREA":" ","LANE":" ","ALLEY":" ","HOUSE_NO":"３１號","E_COORD97":175141.76000000001,"N_COORD97":2579795.25,"ADDRESS":"康樂路３１號","OBJECTID":632322},"geometry":{"x":175141.76000000071,"y":2579795.2500000019}},{"attributes":{"ID":632350,"DIS_CODE":0,"TOWNNAME":"鹽水區","LI":"水正里","LIN":" ","STREET":"康樂路","SECT":" ","MAREA":" ","LANE":" ","ALLEY":" ","HOUSE_NO":"３９號","E_COORD97":175141.41,"N_COORD97":2579814.3500000001,"ADDRESS":"康樂路３９號","OBJECTID":632323},"geometry":{"x":175141.41000000108,"y":2579814.3500000015}},{"attributes":{"ID":632351,"DIS_CODE":0,"TOWNNAME":"鹽水區","LI":"水正里","LIN":" ","STREET":"康樂路","SECT":" ","MAREA":" ","LANE":" ","ALLEY":" ","HOUSE_NO":"８５號","E_COORD97":175170.95999999999,"N_COORD97":2579919.3900000001,"ADDRESS":"康樂路８５號","OBJECTID":632324},"geometry":{"x":175170.96000000089,"y":2579919.3899999987}},{"attributes":{"ID":632352,"DIS_CODE":0,"TOWNNAME":"鹽水區","LI":"岸內里","LIN":" ","STREET":"清泉路","SECT":" ","MAREA":" ","LANE":" ","ALLEY":" ","HOUSE_NO":"１４７號","E_COORD97":175169.01000000001,"N_COORD97":2580403.27,"ADDRESS":"清泉路１４７號","OBJECTID":632325},"geometry":{"x":175169.01000000071,"y":2580403.2699999996}},{"attributes":{"ID":632353,"DIS_CODE":0,"TOWNNAME":"鹽水區","LI":"三生里","LIN":" ","STREET":"清泉路","SECT":" ","MAREA":" ","LANE":" ","ALLEY":" ","HOUSE_NO":"２３號","E_COORD97":175222.07999999999,"N_COORD97":2580076.3599999999,"ADDRESS":"清泉路２３號","OBJECTID":632326},"geometry":{"x":175222.08000000007,"y":2580076.3599999994}},{"attributes":{"ID":632354,"DIS_CODE":0,"TOWNNAME":"鹽水區","LI":"水秀里","LIN":" ","STREET":"清泉路","SECT":" ","MAREA":" ","LANE":" ","ALLEY":" ","HOUSE_NO":"２８號","E_COORD97":175248.75,"N_COORD97":2580095.9700000002,"ADDRESS":"清泉路２８號","OBJECTID":632327},"geometry":{"x":175248.75000000093,"y":2580095.9700000025}},{"attributes":{"ID":632355,"DIS_CODE":0,"TOWNNAME":"鹽水區","LI":"水秀里","LIN":" ","STREET":"清泉路","SECT":" ","MAREA":" ","LANE":" ","ALLEY":" ","HOUSE_NO":"４２號","E_COORD97":175236.03,"N_COORD97":2580117.25,"ADDRESS":"清泉路４２號","OBJECTID":632328},"geometry":{"x":175236.03000000026,"y":2580117.2500000019}},{"attributes":{"ID":632356,"DIS_CODE":0,"TOWNNAME":"鹽水區","LI":"水秀里","LIN":" ","STREET":"清泉路","SECT":" ","MAREA":" ","LANE":" ","ALLEY":" ","HOUSE_NO":"５０號","E_COORD97":175224.12,"N_COORD97":2580130.7799999998,"ADDRESS":"清泉路５０號","OBJECTID":632329},"geometry":{"x":175224.12000000104,"y":2580130.7800000012}},{"attributes":{"ID":632357,"DIS_CODE":0,"TOWNNAME":"鹽水區","LI":"岸內里","LIN":" ","STREET":"清泉路","SECT":" ","MAREA":" ","LANE":" ","ALLEY":" ","HOUSE_NO":"７７號","E_COORD97":175164.19,"N_COORD97":2580213.79,"ADDRESS":"清泉路７７號","OBJECTID":632330},"geometry":{"x":175164.19000000041,"y":2580213.7900000028}},{"attributes":{"ID":632358,"DIS_CODE":0,"TOWNNAME":"鹽水區","LI":"水秀里","LIN":" ","STREET":"朝琴路","SECT":" ","MAREA":" ","LANE":" ","ALLEY":" ","HOUSE_NO":"１０８之４號","E_COORD97":175392.76999999999,"N_COORD97":2580097.73,"ADDRESS":"朝琴路１０８之４號","OBJECTID":632331},"geometry":{"x":175392.76999999955,"y":2580097.7300000023}},{"attributes":{"ID":632359,"DIS_CODE":0,"TOWNNAME":"鹽水區","LI":"水秀里","LIN":" ","STREET":"朝琴路","SECT":" ","MAREA":" ","LANE":" ","ALLEY":" ","HOUSE_NO":"１０８號","E_COORD97":175392.57000000001,"N_COORD97":2580114.3199999998,"ADDRESS":"朝琴路１０８號","OBJECTID":632332},"geometry":{"x":175392.57000000123,"y":2580114.3200000022}},{"attributes":{"ID":632360,"DIS_CODE":0,"TOWNNAME":"鹽水區","LI":"水秀里","LIN":" ","STREET":"朝琴路","SECT":" ","MAREA":" ","LANE":" ","ALLEY":" ","HOUSE_NO":"１３７號","E_COORD97":175414.03,"N_COORD97":2580232.8500000001,"ADDRESS":"朝琴路１３７號","OBJECTID":632333},"geometry":{"x":175414.03000000026,"y":2580232.8499999996}},{"attributes":{"ID":632361,"DIS_CODE":0,"TOWNNAME":"鹽水區","LI":"水秀里","LIN":" ","STREET":"朝琴路","SECT":" ","MAREA":" ","LANE":" ","ALLEY":" ","HOUSE_NO":"１３９號","E_COORD97":175521.60999999999,"N_COORD97":2580290.5099999998,"ADDRESS":"朝琴路１３９號","OBJECTID":632334},"geometry":{"x":175521.61000000127,"y":2580290.5099999998}},{"attributes":{"ID":632362,"DIS_CODE":0,"TOWNNAME":"鹽水區","LI":"橋南里","LIN":" ","STREET":"新中路","SECT":" ","MAREA":" ","LANE":" ","ALLEY":" ","HOUSE_NO":"１１２號","E_COORD97":175989.14999999999,"N_COORD97":2578396.1000000001,"ADDRESS":"新中路１１２號","OBJECTID":632335},"geometry":{"x":175989.1500000013,"y":2578396.1000000015}},{"attributes":{"ID":632363,"DIS_CODE":0,"TOWNNAME":"鹽水區","LI":"橋南里","LIN":" ","STREET":"新太路","SECT":" ","MAREA":" ","LANE":" ","ALLEY":" ","HOUSE_NO":"２１號","E_COORD97":175633.32000000001,"N_COORD97":2578588.8900000001,"ADDRESS":"新太路２１號","OBJECTID":632336},"geometry":{"x":175633.32000000123,"y":2578588.8900000006}},{"attributes":{"ID":632364,"DIS_CODE":0,"TOWNNAME":"鹽水區","LI":"橋南里","LIN":" ","STREET":"橋南街","SECT":" ","MAREA":" ","LANE":" ","ALLEY":" ","HOUSE_NO":"１００號","E_COORD97":175149.82000000001,"N_COORD97":2579341.9100000001,"ADDRESS":"橋南街１００號","OBJECTID":632337},"geometry":{"x":175149.82000000216,"y":2579341.9100000001}},{"attributes":{"ID":632365,"DIS_CODE":0,"TOWNNAME":"鹽水區","LI":"橋南里","LIN":" ","STREET":"橋南街","SECT":" ","MAREA":" ","LANE":" ","ALLEY":" ","HOUSE_NO":"１０１號","E_COORD97":175167.38,"N_COORD97":2579345.9900000002,"ADDRESS":"橋南街１０１號","OBJECTID":632338},"geometry":{"x":175167.37999999989,"y":2579345.9900000021}},{"attributes":{"ID":632366,"DIS_CODE":0,"TOWNNAME":"鹽水區","LI":"橋南里","LIN":" ","STREET":"橋南街","SECT":" ","MAREA":" ","LANE":" ","ALLEY":" ","HOUSE_NO":"１０３號","E_COORD97":175170.26000000001,"N_COORD97":2579339.02,"ADDRESS":"橋南街１０３號","OBJECTID":632339},"geometry":{"x":175170.26000000071,"y":2579339.0200000014}},{"attributes":{"ID":632367,"DIS_CODE":0,"TOWNNAME":"鹽水區","LI":"橋南里","LIN":" ","STREET":"橋南街","SECT":" ","MAREA":" ","LANE":" ","ALLEY":" ","HOUSE_NO":"２８號","E_COORD97":175107.53,"N_COORD97":2579511.7999999998,"ADDRESS":"橋南街２８號","OBJECTID":632340},"geometry":{"x":175107.53000000026,"y":2579511.8000000007}},{"attributes":{"ID":632368,"DIS_CODE":0,"TOWNNAME":"鹽水區","LI":"橋南里","LIN":" ","STREET":"橋南街","SECT":" ","MAREA":" ","LANE":" ","ALLEY":" ","HOUSE_NO":"４６號","E_COORD97":175093.75,"N_COORD97":2579476.7400000002,"ADDRESS":"橋南街４６號","OBJECTID":632341},"geometry":{"x":175093.75,"y":2579476.7400000021}},{"attributes":{"ID":632369,"DIS_CODE":0,"TOWNNAME":"鹽水區","LI":"橋南里","LIN":" ","STREET":"橋南街","SECT":" ","MAREA":" ","LANE":" ","ALLEY":" ","HOUSE_NO":"４７號","E_COORD97":175137.47,"N_COORD97":2579460.5299999998,"ADDRESS":"橋南街４７號","OBJECTID":632342},"geometry":{"x":175137.46999999974,"y":2579460.5300000012}},{"attributes":{"ID":632370,"DIS_CODE":0,"TOWNNAME":"鹽水區","LI":"橋南里","LIN":" ","STREET":"橋南街","SECT":" ","MAREA":" ","LANE":" ","ALLEY":" ","HOUSE_NO":"５號","E_COORD97":175097.59,"N_COORD97":2579568.25,"ADDRESS":"橋南街５號","OBJECTID":632343},"geometry":{"x":175097.58999999985,"y":2579568.2500000019}},{"attributes":{"ID":632371,"DIS_CODE":0,"TOWNNAME":"鹽水區","LI":"橋南里","LIN":" ","STREET":"橋南街","SECT":" ","MAREA":" ","LANE":" ","ALLEY":" ","HOUSE_NO":"７４號","E_COORD97":175126.81,"N_COORD97":2579406.0800000001,"ADDRESS":"橋南街７４號","OBJECTID":632344},"geometry":{"x":175126.80999999959,"y":2579406.0800000019}},{"attributes":{"ID":632372,"DIS_CODE":0,"TOWNNAME":"鹽水區","LI":"橋南里","LIN":" ","STREET":"橋南街","SECT":" ","MAREA":" ","LANE":" ","ALLEY":" ","HOUSE_NO":"７８號","E_COORD97":175128.79999999999,"N_COORD97":2579398.4500000002,"ADDRESS":"橋南街７８號","OBJECTID":632345},"geometry":{"x":175128.79999999981,"y":2579398.4499999993}},{"attributes":{"ID":632373,"DIS_CODE":0,"TOWNNAME":"鹽水區","LI":"橋南里","LIN":" ","STREET":"橋南街","SECT":" ","MAREA":" ","LANE":" ","ALLEY":" ","HOUSE_NO":"８號","E_COORD97":175084.29999999999,"N_COORD97":2579554.54,"ADDRESS":"橋南街８號","OBJECTID":632346},"geometry":{"x":175084.29999999981,"y":2579554.540000001}},{"attributes":{"ID":632374,"DIS_CODE":0,"TOWNNAME":"鹽水區","LI":"橋南里","LIN":" ","STREET":"橋南街","SECT":" ","MAREA":" ","LANE":" ","ALLEY":" ","HOUSE_NO":"９５號","E_COORD97":175164.89000000001,"N_COORD97":2579355.7000000002,"ADDRESS":"橋南街９５號","OBJECTID":632347},"geometry":{"x":175164.88999999966,"y":2579355.6999999993}},{"attributes":{"ID":632375,"DIS_CODE":0,"TOWNNAME":"鹽水區","LI":"橋南里","LIN":" ","STREET":"橋南街","SECT":" ","MAREA":" ","LANE":" ","ALLEY":" ","HOUSE_NO":"９９號","E_COORD97":175190.51999999999,"N_COORD97":2579357.1899999999,"ADDRESS":"橋南街９９號","OBJECTID":632348},"geometry":{"x":175190.52000000048,"y":2579357.1900000032}},{"attributes":{"ID":632376,"DIS_CODE":0,"TOWNNAME":"北區","LI":"興北里","LIN":"4鄰","STREET":"公園北路","SECT":" ","MAREA":" ","LANE":" ","ALLEY":" ","HOUSE_NO":"７６號","E_COORD97":169178.45999999999,"N_COORD97":2544998.0099999998,"ADDRESS":"公園北路７６號","OBJECTID":632349},"geometry":{"x":169178.46000000089,"y":2544998.0100000016}},{"attributes":{"ID":632377,"DIS_CODE":0,"TOWNNAME":"北區","LI":"成德里","LIN":"34鄰","STREET":"育德三街","SECT":" ","MAREA":" ","LANE":" ","ALLEY":" ","HOUSE_NO":"６９號","E_COORD97":168165,"N_COORD97":2545949.6299999999,"ADDRESS":"育德三街６９號","OBJECTID":632350},"geometry":{"x":168165,"y":2545949.6300000008}},{"attributes":{"ID":632378,"DIS_CODE":0,"TOWNNAME":"北區","LI":"力行里","LIN":"15鄰","STREET":"力行一街","SECT":" ","MAREA":" ","LANE":" ","ALLEY":" ","HOUSE_NO":"４６之１號","E_COORD97":170953.31,"N_COORD97":2545449.6800000002,"ADDRESS":"力行一街４６之１號","OBJECTID":632351},"geometry":{"x":170953.30999999959,"y":2545449.6799999997}},{"attributes":{"ID":632379,"DIS_CODE":0,"TOWNNAME":"北區","LI":"成德里","LIN":"34鄰","STREET":"育德二路","SECT":" ","MAREA":" ","LANE":" ","ALLEY":" ","HOUSE_NO":"２２０號","E_COORD97":168375.37,"N_COORD97":2545921.2799999998,"ADDRESS":"育德二路２２０號","OBJECTID":632352},"geometry":{"x":168375.37000000197,"y":2545921.2800000012}},{"attributes":{"ID":632380,"DIS_CODE":0,"TOWNNAME":"北區","LI":"成德里","LIN":"34鄰","STREET":"育德二路","SECT":" ","MAREA":" ","LANE":" ","ALLEY":" ","HOUSE_NO":"２１８號","E_COORD97":168374.26000000001,"N_COORD97":2545911.9100000001,"ADDRESS":"育德二路２１８號","OBJECTID":632353},"geometry":{"x":168374.26000000071,"y":2545911.9100000001}},{"attributes":{"ID":632381,"DIS_CODE":0,"TOWNNAME":"北區","LI":"成德里","LIN":"34鄰","STREET":"和緯路","SECT":"二段","MAREA":" ","LANE":" ","ALLEY":" ","HOUSE_NO":"３７２之１號","E_COORD97":168415.04999999999,"N_COORD97":2545902.8599999999,"ADDRESS":"和緯路二段３７２之１號","OBJECTID":632354},"geometry":{"x":168415.05000000075,"y":2545902.8600000031}},{"attributes":{"ID":632382,"DIS_CODE":0,"TOWNNAME":"北區","LI":"成德里","LIN":"34鄰","STREET":"和緯路","SECT":"二段","MAREA":" ","LANE":" ","ALLEY":" ","HOUSE_NO":"３９０號","E_COORD97":168375.53,"N_COORD97":2545902.8700000001,"ADDRESS":"和緯路二段３９０號","OBJECTID":632355},"geometry":{"x":168375.53000000026,"y":2545902.870000001}},{"attributes":{"ID":632383,"DIS_CODE":0,"TOWNNAME":"北區","LI":"成德里","LIN":"34鄰","STREET":"和緯路","SECT":"二段","MAREA":" ","LANE":" ","ALLEY":" ","HOUSE_NO":"３８８號","E_COORD97":168380.92000000001,"N_COORD97":2545902.71,"ADDRESS":"和緯路二段３８８號","OBJECTID":632356},"geometry":{"x":168380.91999999993,"y":2545902.7100000028}},{"attributes":{"ID":632384,"DIS_CODE":0,"TOWNNAME":"北區","LI":"成德里","LIN":"34鄰","STREET":"和緯路","SECT":"二段","MAREA":" ","LANE":" ","ALLEY":" ","HOUSE_NO":"３８６號","E_COORD97":168385.53,"N_COORD97":2545902.8700000001,"ADDRESS":"和緯路二段３８６號","OBJECTID":632357},"geometry":{"x":168385.53000000026,"y":2545902.870000001}},{"attributes":{"ID":632385,"DIS_CODE":0,"TOWNNAME":"北區","LI":"大道里","LIN":"25鄰","STREET":"旭日街","SECT":" ","MAREA":" ","LANE":" ","ALLEY":" ","HOUSE_NO":"１７５號之１","E_COORD97":169398.45000000001,"N_COORD97":2545741.73,"ADDRESS":"旭日街１７５號之１","OBJECTID":632358},"geometry":{"x":169398.45000000019,"y":2545741.7300000004}},{"attributes":{"ID":632386,"DIS_CODE":0,"TOWNNAME":"北區","LI":"大道里","LIN":"25鄰","STREET":"旭日街","SECT":" ","MAREA":" ","LANE":" ","ALLEY":" ","HOUSE_NO":"１７５號之２","E_COORD97":169398.97,"N_COORD97":2545747.0099999998,"ADDRESS":"旭日街１７５號之２","OBJECTID":632359},"geometry":{"x":169398.97000000067,"y":2545747.0100000016}},{"attributes":{"ID":632387,"DIS_CODE":0,"TOWNNAME":"學甲區","LI":"慈福里","LIN":"14鄰","STREET":"民生路","SECT":" ","MAREA":" ","LANE":" ","ALLEY":" ","HOUSE_NO":"３３號","E_COORD97":166493.64999999999,"N_COORD97":2570347.7799999998,"ADDRESS":"民生路３３號","OBJECTID":632360},"geometry":{"x":166493.64999999944,"y":2570347.7799999975}},{"attributes":{"ID":632388,"DIS_CODE":0,"TOWNNAME":"學甲區","LI":"慈福里","LIN":"14鄰","STREET":"民生路","SECT":" ","MAREA":" ","LANE":" ","ALLEY":" ","HOUSE_NO":"３７號之１","E_COORD97":166493.01999999999,"N_COORD97":2570357.7200000002,"ADDRESS":"民生路３７號之１","OBJECTID":632361},"geometry":{"x":166493.01999999955,"y":2570357.7200000025}},{"attributes":{"ID":632389,"DIS_CODE":0,"TOWNNAME":"學甲區","LI":"慈福里","LIN":"7鄰","STREET":"民生路","SECT":" ","MAREA":" ","LANE":" ","ALLEY":" ","HOUSE_NO":"１２號之１","E_COORD97":166464.79000000001,"N_COORD97":2570114.79,"ADDRESS":"民生路１２號之１","OBJECTID":632362},"geometry":{"x":166464.79000000004,"y":2570114.790000001}},{"attributes":{"ID":632390,"DIS_CODE":0,"TOWNNAME":"學甲區","LI":"慈福里","LIN":"7鄰","STREET":"民生路","SECT":" ","MAREA":" ","LANE":" ","ALLEY":" ","HOUSE_NO":"１２號之２","E_COORD97":166465.81,"N_COORD97":2570121.0499999998,"ADDRESS":"民生路１２號之２","OBJECTID":632363},"geometry":{"x":166465.80999999959,"y":2570121.0500000026}},{"attributes":{"ID":632391,"DIS_CODE":0,"TOWNNAME":"學甲區","LI":"慈福里","LIN":"7鄰","STREET":"民生路","SECT":" ","MAREA":" ","LANE":" ","ALLEY":" ","HOUSE_NO":"１２號","E_COORD97":166464.09,"N_COORD97":2570109.6400000001,"ADDRESS":"民生路１２號","OBJECTID":632364},"geometry":{"x":166464.08999999985,"y":2570109.6400000043}},{"attributes":{"ID":632392,"DIS_CODE":0,"TOWNNAME":"學甲區","LI":"慈福里","LIN":"7鄰","STREET":"民生路","SECT":" ","MAREA":" ","LANE":" ","ALLEY":" ","HOUSE_NO":"１６號","E_COORD97":166475.03,"N_COORD97":2570152.4100000001,"ADDRESS":"民生路１６號","OBJECTID":632365},"geometry":{"x":166475.03000000026,"y":2570152.410000002}},{"attributes":{"ID":632393,"DIS_CODE":0,"TOWNNAME":"學甲區","LI":"慈福里","LIN":"7鄰","STREET":"民生路","SECT":" ","MAREA":" ","LANE":" ","ALLEY":" ","HOUSE_NO":"１８號之１","E_COORD97":166477.51000000001,"N_COORD97":2570167.25,"ADDRESS":"民生路１８號之１","OBJECTID":632366},"geometry":{"x":166477.51000000071,"y":2570167.2500000019}},{"attributes":{"ID":632394,"DIS_CODE":0,"TOWNNAME":"學甲區","LI":"慈福里","LIN":"7鄰","STREET":"民生路","SECT":" ","MAREA":" ","LANE":" ","ALLEY":" ","HOUSE_NO":"１８號之２","E_COORD97":166478.42999999999,"N_COORD97":2570171.8599999999,"ADDRESS":"民生路１８號之２","OBJECTID":632367},"geometry":{"x":166478.43000000063,"y":2570171.8600000013}},{"attributes":{"ID":632395,"DIS_CODE":0,"TOWNNAME":"學甲區","LI":"慈福里","LIN":"7鄰","STREET":"民權路","SECT":" ","MAREA":" ","LANE":" ","ALLEY":" ","HOUSE_NO":"１３號之１","E_COORD97":166475.75,"N_COORD97":2570114.23,"ADDRESS":"民權路１３號之１","OBJECTID":632368},"geometry":{"x":166475.75000000186,"y":2570114.2300000004}},{"attributes":{"ID":632396,"DIS_CODE":0,"TOWNNAME":"學甲區","LI":"仁得里","LIN":"4鄰","STREET":"成功路","SECT":" ","MAREA":" ","LANE":" ","ALLEY":" ","HOUSE_NO":"１６號","E_COORD97":166173.01000000001,"N_COORD97":2570223.77,"ADDRESS":"成功路１６號","OBJECTID":632369},"geometry":{"x":166173.00999999978,"y":2570223.7700000014}},{"attributes":{"ID":632397,"DIS_CODE":0,"TOWNNAME":"學甲區","LI":"仁得里","LIN":"4鄰","STREET":"成功路","SECT":" ","MAREA":" ","LANE":" ","ALLEY":" ","HOUSE_NO":"１８號","E_COORD97":166175.17999999999,"N_COORD97":2570234.7799999998,"ADDRESS":"成功路１８號","OBJECTID":632370},"geometry":{"x":166175.1799999997,"y":2570234.7799999993}},{"attributes":{"ID":632398,"DIS_CODE":0,"TOWNNAME":"學甲區","LI":"仁得里","LIN":"8鄰","STREET":"成功路","SECT":" ","MAREA":" ","LANE":" ","ALLEY":" ","HOUSE_NO":"１３號","E_COORD97":166148.60000000001,"N_COORD97":2570226.5600000001,"ADDRESS":"成功路１３號","OBJECTID":632371},"geometry":{"x":166148.59999999963,"y":2570226.5600000024}},{"attributes":{"ID":632399,"DIS_CODE":0,"TOWNNAME":"學甲區","LI":"仁得里","LIN":"8鄰","STREET":"成功路","SECT":" ","MAREA":" ","LANE":" ","ALLEY":" ","HOUSE_NO":"１５號之１","E_COORD97":166149.37,"N_COORD97":2570240.2000000002,"ADDRESS":"成功路１５號之１","OBJECTID":632372},"geometry":{"x":166149.37000000011,"y":2570240.2000000011}},{"attributes":{"ID":632400,"DIS_CODE":0,"TOWNNAME":"學甲區","LI":"仁得里","LIN":"8鄰","STREET":"成功路","SECT":" ","MAREA":" ","LANE":" ","ALLEY":" ","HOUSE_NO":"１５號","E_COORD97":166150.37,"N_COORD97":2570233.1600000001,"ADDRESS":"成功路１５號","OBJECTID":632373},"geometry":{"x":166150.37000000104,"y":2570233.1600000001}},{"attributes":{"ID":632401,"DIS_CODE":0,"TOWNNAME":"學甲區","LI":"仁得里","LIN":"4鄰","STREET":"成功路","SECT":" ","MAREA":" ","LANE":" ","ALLEY":" ","HOUSE_NO":"２０號","E_COORD97":166174.79999999999,"N_COORD97":2570240.8700000001,"ADDRESS":"成功路２０號","OBJECTID":632374},"geometry":{"x":166174.79999999981,"y":2570240.8700000048}},{"attributes":{"ID":632402,"DIS_CODE":0,"TOWNNAME":"學甲區","LI":"仁得里","LIN":"4鄰","STREET":"成功路","SECT":" ","MAREA":" ","LANE":" ","ALLEY":" ","HOUSE_NO":"２２號之１","E_COORD97":166177.09,"N_COORD97":2570252.3700000001,"ADDRESS":"成功路２２號之１","OBJECTID":632375},"geometry":{"x":166177.09000000078,"y":2570252.3700000029}},{"attributes":{"ID":632403,"DIS_CODE":0,"TOWNNAME":"學甲區","LI":"仁得里","LIN":"4鄰","STREET":"成功路","SECT":" ","MAREA":" ","LANE":" ","ALLEY":" ","HOUSE_NO":"２２號之２","E_COORD97":166177.85000000001,"N_COORD97":2570256.2799999998,"ADDRESS":"成功路２２號之２","OBJECTID":632376},"geometry":{"x":166177.84999999963,"y":2570256.2800000031}},{"attributes":{"ID":632404,"DIS_CODE":0,"TOWNNAME":"學甲區","LI":"仁得里","LIN":"4鄰","STREET":"成功路","SECT":" ","MAREA":" ","LANE":" ","ALLEY":" ","HOUSE_NO":"２２號","E_COORD97":166176.35000000001,"N_COORD97":2570247.5699999998,"ADDRESS":"成功路２２號","OBJECTID":632377},"geometry":{"x":166176.35000000149,"y":2570247.5700000003}},{"attributes":{"ID":632405,"DIS_CODE":0,"TOWNNAME":"學甲區","LI":"慈福里","LIN":"26鄰","STREET":"成功路","SECT":" ","MAREA":" ","LANE":" ","ALLEY":" ","HOUSE_NO":"５２號","E_COORD97":166211,"N_COORD97":2570437.0800000001,"ADDRESS":"成功路５２號","OBJECTID":632378},"geometry":{"x":166211,"y":2570437.0800000001}},{"attributes":{"ID":632406,"DIS_CODE":0,"TOWNNAME":"學甲區","LI":"慈福里","LIN":"26鄰","STREET":"成功路","SECT":" ","MAREA":" ","LANE":" ","ALLEY":" ","HOUSE_NO":"５４號","E_COORD97":166212.59,"N_COORD97":2570447.3100000001,"ADDRESS":"成功路５４號","OBJECTID":632379},"geometry":{"x":166212.59000000078,"y":2570447.3100000042}},{"attributes":{"ID":632407,"DIS_CODE":0,"TOWNNAME":"學甲區","LI":"慈福里","LIN":"25鄰","STREET":"成功路","SECT":" ","MAREA":" ","LANE":" ","ALLEY":" ","HOUSE_NO":"４６號","E_COORD97":166204.67999999999,"N_COORD97":2570405.8700000001,"ADDRESS":"成功路４６號","OBJECTID":632380},"geometry":{"x":166204.68000000156,"y":2570405.870000001}},{"attributes":{"ID":632408,"DIS_CODE":0,"TOWNNAME":"學甲區","LI":"慈福里","LIN":"25鄰","STREET":"成功路","SECT":" ","MAREA":" ","LANE":" ","ALLEY":" ","HOUSE_NO":"４８號","E_COORD97":166215.60000000001,"N_COORD97":2570411.0600000001,"ADDRESS":"成功路４８號","OBJECTID":632381},"geometry":{"x":166215.60000000056,"y":2570411.0600000005}},{"attributes":{"ID":632409,"DIS_CODE":0,"TOWNNAME":"學甲區","LI":"慈福里","LIN":"25鄰","STREET":"成功路","SECT":" ","MAREA":" ","LANE":" ","ALLEY":" ","HOUSE_NO":"５０號","E_COORD97":166208.09,"N_COORD97":2570422.7200000002,"ADDRESS":"成功路５０號","OBJECTID":632382},"geometry":{"x":166208.08999999985,"y":2570422.7200000007}},{"attributes":{"ID":632410,"DIS_CODE":0,"TOWNNAME":"學甲區","LI":"慈福里","LIN":"17鄰","STREET":"成功路","SECT":" ","MAREA":" ","LANE":" ","ALLEY":" ","HOUSE_NO":"５１號","E_COORD97":166171.84,"N_COORD97":2570379.2000000002,"ADDRESS":"成功路５１號","OBJECTID":632383},"geometry":{"x":166171.84000000078,"y":2570379.2000000011}},{"attributes":{"ID":632411,"DIS_CODE":0,"TOWNNAME":"學甲區","LI":"仁得里","LIN":"17鄰","STREET":"和平路","SECT":" ","MAREA":" ","LANE":" ","ALLEY":" ","HOUSE_NO":"１１５號","E_COORD97":165823.69,"N_COORD97":2569851.3999999999,"ADDRESS":"和平路１１５號","OBJECTID":632384},"geometry":{"x":165823.69000000041,"y":2569851.4000000022}},{"attributes":{"ID":632412,"DIS_CODE":0,"TOWNNAME":"學甲區","LI":"仁得里","LIN":"17鄰","STREET":"和平路","SECT":" ","MAREA":" ","LANE":" ","ALLEY":" ","HOUSE_NO":"１１７號","E_COORD97":165824.04999999999,"N_COORD97":2569866.5299999998,"ADDRESS":"和平路１１７號","OBJECTID":632385},"geometry":{"x":165824.04999999981,"y":2569866.5299999993}},{"attributes":{"ID":632413,"DIS_CODE":0,"TOWNNAME":"學甲區","LI":"仁得里","LIN":"17鄰","STREET":"和平路","SECT":" ","MAREA":" ","LANE":" ","ALLEY":" ","HOUSE_NO":"１１９號","E_COORD97":165825.17000000001,"N_COORD97":2569870.3100000001,"ADDRESS":"和平路１１９號","OBJECTID":632386},"geometry":{"x":165825.16999999899,"y":2569870.3100000005}},{"attributes":{"ID":632414,"DIS_CODE":0,"TOWNNAME":"學甲區","LI":"仁得里","LIN":"17鄰","STREET":"和平路","SECT":" ","MAREA":" ","LANE":" ","ALLEY":" ","HOUSE_NO":"１１號","E_COORD97":165787.64000000001,"N_COORD97":2569729.8399999999,"ADDRESS":"和平路１１號","OBJECTID":632387},"geometry":{"x":165787.63999999966,"y":2569729.8399999999}},{"attributes":{"ID":632415,"DIS_CODE":0,"TOWNNAME":"學甲區","LI":"仁得里","LIN":"17鄰","STREET":"和平路","SECT":" ","MAREA":" ","LANE":" ","ALLEY":" ","HOUSE_NO":"１２１號","E_COORD97":165826.31,"N_COORD97":2569873.8999999999,"ADDRESS":"和平路１２１號","OBJECTID":632388},"geometry":{"x":165826.31000000052,"y":2569873.9000000022}},{"attributes":{"ID":632416,"DIS_CODE":0,"TOWNNAME":"學甲區","LI":"仁得里","LIN":"17鄰","STREET":"和平路","SECT":" ","MAREA":" ","LANE":" ","ALLEY":" ","HOUSE_NO":"１２３號","E_COORD97":165827.66,"N_COORD97":2569878.75,"ADDRESS":"和平路１２３號","OBJECTID":632389},"geometry":{"x":165827.66000000108,"y":2569878.7500000019}},{"attributes":{"ID":632417,"DIS_CODE":0,"TOWNNAME":"學甲區","LI":"仁得里","LIN":"17鄰","STREET":"和平路","SECT":" ","MAREA":" ","LANE":" ","ALLEY":" ","HOUSE_NO":"１２５號","E_COORD97":165828.89000000001,"N_COORD97":2569883.0699999998,"ADDRESS":"和平路１２５號","OBJECTID":632390},"geometry":{"x":165828.8900000006,"y":2569883.0700000022}},{"attributes":{"ID":632418,"DIS_CODE":0,"TOWNNAME":"學甲區","LI":"仁得里","LIN":"17鄰","STREET":"和平路","SECT":" ","MAREA":" ","LANE":" ","ALLEY":" ","HOUSE_NO":"１２７號","E_COORD97":165829.98000000001,"N_COORD97":2569888.1000000001,"ADDRESS":"和平路１２７號","OBJECTID":632391},"geometry":{"x":165829.98000000045,"y":2569888.0999999996}},{"attributes":{"ID":632419,"DIS_CODE":0,"TOWNNAME":"學甲區","LI":"仁得里","LIN":"17鄰","STREET":"和平路","SECT":" ","MAREA":" ","LANE":" ","ALLEY":" ","HOUSE_NO":"１３９號","E_COORD97":165850.22,"N_COORD97":2569945.6699999999,"ADDRESS":"和平路１３９號","OBJECTID":632392},"geometry":{"x":165850.2200000016,"y":2569945.6699999981}},{"attributes":{"ID":632420,"DIS_CODE":0,"TOWNNAME":"學甲區","LI":"仁得里","LIN":"17鄰","STREET":"和平路","SECT":" ","MAREA":" ","LANE":" ","ALLEY":" ","HOUSE_NO":"１３號","E_COORD97":165789.20000000001,"N_COORD97":2569734.0800000001,"ADDRESS":"和平路１３號","OBJECTID":632393},"geometry":{"x":165789.20000000019,"y":2569734.0800000019}},{"attributes":{"ID":632421,"DIS_CODE":0,"TOWNNAME":"學甲區","LI":"仁得里","LIN":"17鄰","STREET":"和平路","SECT":" ","MAREA":" ","LANE":" ","ALLEY":" ","HOUSE_NO":"１４１號","E_COORD97":165847.57000000001,"N_COORD97":2569955.02,"ADDRESS":"和平路１４１號","OBJECTID":632394},"geometry":{"x":165847.5700000003,"y":2569955.0199999996}},{"attributes":{"ID":632422,"DIS_CODE":0,"TOWNNAME":"學甲區","LI":"仁得里","LIN":"12鄰","STREET":"和平路","SECT":" ","MAREA":" ","LANE":" ","ALLEY":" ","HOUSE_NO":"１３２號","E_COORD97":165873.56,"N_COORD97":2569946.5499999998,"ADDRESS":"和平路１３２號","OBJECTID":632395},"geometry":{"x":165873.56000000052,"y":2569946.5500000007}},{"attributes":{"ID":632423,"DIS_CODE":0,"TOWNNAME":"學甲區","LI":"仁得里","LIN":"12鄰","STREET":"和平路","SECT":" ","MAREA":" ","LANE":" ","ALLEY":" ","HOUSE_NO":"１３４號","E_COORD97":165874.70999999999,"N_COORD97":2569951.3199999998,"ADDRESS":"和平路１３４號","OBJECTID":632396},"geometry":{"x":165874.71000000089,"y":2569951.3200000003}},{"attributes":{"ID":632424,"DIS_CODE":0,"TOWNNAME":"學甲區","LI":"仁得里","LIN":"12鄰","STREET":"和平路","SECT":" ","MAREA":" ","LANE":" ","ALLEY":" ","HOUSE_NO":"１３６號","E_COORD97":165875.85000000001,"N_COORD97":2569956.0899999999,"ADDRESS":"和平路１３６號","OBJECTID":632397},"geometry":{"x":165875.84999999963,"y":2569956.0899999999}},{"attributes":{"ID":632425,"DIS_CODE":0,"TOWNNAME":"學甲區","LI":"仁得里","LIN":"12鄰","STREET":"和平路","SECT":" ","MAREA":" ","LANE":" ","ALLEY":" ","HOUSE_NO":"１３８號","E_COORD97":165877,"N_COORD97":2569960.8599999999,"ADDRESS":"和平路１３８號","OBJECTID":632398},"geometry":{"x":165877,"y":2569960.8600000031}},{"attributes":{"ID":632426,"DIS_CODE":0,"TOWNNAME":"學甲區","LI":"仁得里","LIN":"12鄰","STREET":"和平路","SECT":" ","MAREA":" ","LANE":" ","ALLEY":" ","HOUSE_NO":"１４０號","E_COORD97":165879.28,"N_COORD97":2569966.1000000001,"ADDRESS":"和平路１４０號","OBJECTID":632399},"geometry":{"x":165879.28000000119,"y":2569966.0999999978}},{"attributes":{"ID":632427,"DIS_CODE":0,"TOWNNAME":"學甲區","LI":"明宜里","LIN":"4鄰","STREET":"和平路","SECT":" ","MAREA":" ","LANE":" ","ALLEY":" ","HOUSE_NO":"２６３號","E_COORD97":165973.10999999999,"N_COORD97":2570361.3199999998,"ADDRESS":"和平路２６３號","OBJECTID":632400},"geometry":{"x":165973.11000000034,"y":2570361.3200000003}}]}