{"displayFieldName":"TOWNNAME","fieldAliases":{"ID":"ID","DIS_CODE":"DIS_CODE","TOWNNAME":"TOWNNAME","LI":"LI","LIN":"LIN","STREET":"STREET","SECT":"SECT","MAREA":"MAREA","LANE":"LANE","ALLEY":"ALLEY","HOUSE_NO":"HOUSE_NO","E_COORD97":"E_COORD97","N_COORD97":"N_COORD97","ADDRESS":"ADDRESS","OBJECTID":"OBJECTID"},"geometryType":"esriGeometryPoint","spatialReference":{"wkid":102443,"latestWkid":3826},"fields":[{"name":"ID","type":"esriFieldTypeDouble","alias":"ID"},{"name":"DIS_CODE","type":"esriFieldTypeInteger","alias":"DIS_CODE"},{"name":"TOWNNAME","type":"esriFieldTypeString","alias":"TOWNNAME","length":8},{"name":"LI","type":"esriFieldTypeString","alias":"LI","length":8},{"name":"LIN","type":"esriFieldTypeString","alias":"LIN","length":12},{"name":"STREET","type":"esriFieldTypeString","alias":"STREET","length":20},{"name":"SECT","type":"esriFieldTypeString","alias":"SECT","length":8},{"name":"MAREA","type":"esriFieldTypeString","alias":"MAREA","length":12},{"name":"LANE","type":"esriFieldTypeString","alias":"LANE","length":10},{"name":"ALLEY","type":"esriFieldTypeString","alias":"ALLEY","length":10},{"name":"HOUSE_NO","type":"esriFieldTypeString","alias":"HOUSE_NO","length":20},{"name":"E_COORD97","type":"esriFieldTypeDouble","alias":"E_COORD97"},{"name":"N_COORD97","type":"esriFieldTypeDouble","alias":"N_COORD97"},{"name":"ADDRESS","type":"esriFieldTypeString","alias":"ADDRESS","length":50},{"name":"OBJECTID","type":"esriFieldTypeOID","alias":"OBJECTID"}],"features":[{"attributes":{"ID":568628,"DIS_CODE":0,"TOWNNAME":"新營區","LI":"新南里","LIN":"28鄰","STREET":"明清街","SECT":" ","MAREA":" ","LANE":" ","ALLEY":" ","HOUSE_NO":"９８號","E_COORD97":178351.03,"N_COORD97":2578797.6600000001,"ADDRESS":"明清街９８號","OBJECTID":568601},"geometry":{"x":178351.03000000119,"y":2578797.6600000001}},{"attributes":{"ID":568629,"DIS_CODE":0,"TOWNNAME":"新營區","LI":"民生里","LIN":"28鄰","STREET":"民治路","SECT":" ","MAREA":" ","LANE":" ","ALLEY":" ","HOUSE_NO":"１１３號","E_COORD97":178958,"N_COORD97":2578620.8799999999,"ADDRESS":"民治路１１３號","OBJECTID":568602},"geometry":{"x":178958.00000000093,"y":2578620.8800000008}},{"attributes":{"ID":568630,"DIS_CODE":0,"TOWNNAME":"新營區","LI":"新北里","LIN":"28鄰","STREET":"新北街","SECT":" ","MAREA":" ","LANE":" ","ALLEY":" ","HOUSE_NO":"８２號","E_COORD97":178784.72,"N_COORD97":2578776.7400000002,"ADDRESS":"新北街８２號","OBJECTID":568603},"geometry":{"x":178784.72000000067,"y":2578776.7400000002}},{"attributes":{"ID":568631,"DIS_CODE":0,"TOWNNAME":"新營區","LI":"南興里","LIN":"28鄰","STREET":"建業路","SECT":" ","MAREA":" ","LANE":" ","ALLEY":" ","HOUSE_NO":"１１５號","E_COORD97":178490.17000000001,"N_COORD97":2577480.2400000002,"ADDRESS":"建業路１１５號","OBJECTID":568604},"geometry":{"x":178490.17000000086,"y":2577480.2400000021}},{"attributes":{"ID":568632,"DIS_CODE":0,"TOWNNAME":"新營區","LI":"三仙里","LIN":"28鄰","STREET":"育德街","SECT":" ","MAREA":" ","LANE":" ","ALLEY":" ","HOUSE_NO":"８６號","E_COORD97":179599.01000000001,"N_COORD97":2579230.2200000002,"ADDRESS":"育德街８６號","OBJECTID":568605},"geometry":{"x":179599.00999999978,"y":2579230.2200000025}},{"attributes":{"ID":568633,"DIS_CODE":0,"TOWNNAME":"新營區","LI":"南興里","LIN":"28鄰","STREET":"建業路","SECT":" ","MAREA":" ","LANE":" ","ALLEY":" ","HOUSE_NO":"１３３號","E_COORD97":178450.29000000001,"N_COORD97":2577482.6400000001,"ADDRESS":"建業路１３３號","OBJECTID":568606},"geometry":{"x":178450.2900000019,"y":2577482.6400000006}},{"attributes":{"ID":568634,"DIS_CODE":0,"TOWNNAME":"中西區","LI":"法華里","LIN":"21鄰","STREET":"健康路","SECT":"一段","MAREA":" ","LANE":" ","ALLEY":" ","HOUSE_NO":"１５２號","E_COORD97":168766.16,"N_COORD97":2542453.3799999999,"ADDRESS":"健康路一段１５２號","OBJECTID":568607},"geometry":{"x":168766.16000000015,"y":2542453.379999999}},{"attributes":{"ID":568635,"DIS_CODE":0,"TOWNNAME":"新營區","LI":"新東里","LIN":"28鄰","STREET":"東光街","SECT":" ","MAREA":" ","LANE":" ","ALLEY":" ","HOUSE_NO":"１０９號","E_COORD97":180599.03,"N_COORD97":2579791.4199999999,"ADDRESS":"東光街１０９號","OBJECTID":568608},"geometry":{"x":180599.03000000119,"y":2579791.4200000018}},{"attributes":{"ID":568636,"DIS_CODE":0,"TOWNNAME":"新營區","LI":"新南里","LIN":"28鄰","STREET":"秦漢街","SECT":" ","MAREA":" ","LANE":" ","ALLEY":" ","HOUSE_NO":"７３號","E_COORD97":178435.79999999999,"N_COORD97":2578758.4900000002,"ADDRESS":"秦漢街７３號","OBJECTID":568609},"geometry":{"x":178435.79999999981,"y":2578758.4900000002}},{"attributes":{"ID":568637,"DIS_CODE":0,"TOWNNAME":"新營區","LI":"民榮里","LIN":"28鄰","STREET":"金華路","SECT":"三段","MAREA":" ","LANE":" ","ALLEY":" ","HOUSE_NO":"７６號","E_COORD97":177982.12,"N_COORD97":2578182.1499999999,"ADDRESS":"金華路三段７６號","OBJECTID":568610},"geometry":{"x":177982.12000000197,"y":2578182.1500000022}},{"attributes":{"ID":568638,"DIS_CODE":0,"TOWNNAME":"新營區","LI":"新東里","LIN":"28鄰","STREET":"東興七街","SECT":" ","MAREA":" ","LANE":" ","ALLEY":" ","HOUSE_NO":"１８號","E_COORD97":180694.75,"N_COORD97":2579749.9900000002,"ADDRESS":"東興七街１８號","OBJECTID":568611},"geometry":{"x":180694.75,"y":2579749.9900000021}},{"attributes":{"ID":568639,"DIS_CODE":0,"TOWNNAME":"新營區","LI":"新東里","LIN":"28鄰","STREET":"東興七街","SECT":" ","MAREA":" ","LANE":" ","ALLEY":" ","HOUSE_NO":"５０號","E_COORD97":180634.42000000001,"N_COORD97":2579746.9500000002,"ADDRESS":"東興七街５０號","OBJECTID":568612},"geometry":{"x":180634.42000000179,"y":2579746.9499999993}},{"attributes":{"ID":568640,"DIS_CODE":0,"TOWNNAME":"安平區","LI":"建平里","LIN":"28鄰","STREET":"永華五街","SECT":" ","MAREA":" ","LANE":" ","ALLEY":" ","HOUSE_NO":"５９號","E_COORD97":165881.25,"N_COORD97":2543555.3900000001,"ADDRESS":"永華五街５９號","OBJECTID":568613},"geometry":{"x":165881.25000000093,"y":2543555.3900000025}},{"attributes":{"ID":568641,"DIS_CODE":0,"TOWNNAME":"安平區","LI":"建平里","LIN":"28鄰","STREET":"永華五街","SECT":" ","MAREA":" ","LANE":" ","ALLEY":" ","HOUSE_NO":"６１號","E_COORD97":165881.85000000001,"N_COORD97":2543559.5699999998,"ADDRESS":"永華五街６１號","OBJECTID":568614},"geometry":{"x":165881.85000000056,"y":2543559.570000004}},{"attributes":{"ID":568642,"DIS_CODE":0,"TOWNNAME":"安平區","LI":"建平里","LIN":"28鄰","STREET":"永華五街","SECT":" ","MAREA":" ","LANE":" ","ALLEY":" ","HOUSE_NO":"６３號","E_COORD97":165882.84,"N_COORD97":2543563.3300000001,"ADDRESS":"永華五街６３號","OBJECTID":568615},"geometry":{"x":165882.83999999985,"y":2543563.3300000001}},{"attributes":{"ID":568643,"DIS_CODE":0,"TOWNNAME":"安平區","LI":"建平里","LIN":"28鄰","STREET":"永華五街","SECT":" ","MAREA":" ","LANE":" ","ALLEY":" ","HOUSE_NO":"６５號","E_COORD97":165883.04000000001,"N_COORD97":2543567.5,"ADDRESS":"永華五街６５號","OBJECTID":568616},"geometry":{"x":165883.04000000004,"y":2543567.5000000019}},{"attributes":{"ID":568644,"DIS_CODE":0,"TOWNNAME":"安平區","LI":"建平里","LIN":"28鄰","STREET":"永華五街","SECT":" ","MAREA":" ","LANE":" ","ALLEY":" ","HOUSE_NO":"６７號","E_COORD97":165883.82999999999,"N_COORD97":2543572.0600000001,"ADDRESS":"永華五街６７號","OBJECTID":568617},"geometry":{"x":165883.83000000101,"y":2543572.0600000005}},{"attributes":{"ID":568645,"DIS_CODE":0,"TOWNNAME":"安平區","LI":"建平里","LIN":"28鄰","STREET":"永華五街","SECT":" ","MAREA":" ","LANE":" ","ALLEY":" ","HOUSE_NO":"６９號","E_COORD97":165883.82999999999,"N_COORD97":2543575.23,"ADDRESS":"永華五街６９號","OBJECTID":568618},"geometry":{"x":165883.83000000101,"y":2543575.2300000004}},{"attributes":{"ID":568646,"DIS_CODE":0,"TOWNNAME":"安平區","LI":"建平里","LIN":"28鄰","STREET":"永華五街","SECT":" ","MAREA":" ","LANE":" ","ALLEY":" ","HOUSE_NO":"７１號","E_COORD97":165884.82999999999,"N_COORD97":2543580.1800000002,"ADDRESS":"永華五街７１號","OBJECTID":568619},"geometry":{"x":165884.83000000007,"y":2543580.1800000016}},{"attributes":{"ID":568647,"DIS_CODE":0,"TOWNNAME":"安南區","LI":"安富里","LIN":" ","STREET":"郡安路","SECT":"五段","MAREA":" ","LANE":" ","ALLEY":" ","HOUSE_NO":"１８６號","E_COORD97":167480.38,"N_COORD97":2547734.73,"ADDRESS":"郡安路五段１８６號","OBJECTID":568620},"geometry":{"x":167480.38000000082,"y":2547734.7300000004}},{"attributes":{"ID":568648,"DIS_CODE":0,"TOWNNAME":"安平區","LI":"建平里","LIN":"28鄰","STREET":"永華五街","SECT":" ","MAREA":" ","LANE":" ","ALLEY":" ","HOUSE_NO":"７３號","E_COORD97":165885.23000000001,"N_COORD97":2543584.1299999999,"ADDRESS":"永華五街７３號","OBJECTID":568621},"geometry":{"x":165885.23000000138,"y":2543584.129999999}},{"attributes":{"ID":568649,"DIS_CODE":0,"TOWNNAME":"安平區","LI":"建平里","LIN":"28鄰","STREET":"永華五街","SECT":" ","MAREA":" ","LANE":" ","ALLEY":" ","HOUSE_NO":"７５號","E_COORD97":165885.42000000001,"N_COORD97":2543588.5099999998,"ADDRESS":"永華五街７５號","OBJECTID":568622},"geometry":{"x":165885.42000000086,"y":2543588.5099999998}},{"attributes":{"ID":568650,"DIS_CODE":0,"TOWNNAME":"安平區","LI":"華平里","LIN":"28鄰","STREET":"平通路","SECT":" ","MAREA":" ","LANE":" ","ALLEY":" ","HOUSE_NO":"４３１號","E_COORD97":165310.07000000001,"N_COORD97":2543760.9100000001,"ADDRESS":"平通路４３１號","OBJECTID":568623},"geometry":{"x":165310.07000000123,"y":2543760.910000002}},{"attributes":{"ID":568651,"DIS_CODE":0,"TOWNNAME":"安平區","LI":"華平里","LIN":"28鄰","STREET":"平通路","SECT":" ","MAREA":" ","LANE":" ","ALLEY":" ","HOUSE_NO":"４４１號","E_COORD97":165288.48000000001,"N_COORD97":2543763.2599999998,"ADDRESS":"平通路４４１號","OBJECTID":568624},"geometry":{"x":165288.48000000138,"y":2543763.2599999998}},{"attributes":{"ID":568652,"DIS_CODE":0,"TOWNNAME":"安平區","LI":"華平里","LIN":"28鄰","STREET":"平通路","SECT":" ","MAREA":" ","LANE":" ","ALLEY":" ","HOUSE_NO":"４５１號","E_COORD97":165267.79000000001,"N_COORD97":2543765.0499999998,"ADDRESS":"平通路４５１號","OBJECTID":568625},"geometry":{"x":165267.79000000004,"y":2543765.0500000026}},{"attributes":{"ID":568653,"DIS_CODE":0,"TOWNNAME":"安平區","LI":"華平里","LIN":"28鄰","STREET":"平通路","SECT":" ","MAREA":" ","LANE":" ","ALLEY":" ","HOUSE_NO":"４５３號","E_COORD97":165263.98000000001,"N_COORD97":2543765.6099999999,"ADDRESS":"平通路４５３號","OBJECTID":568626},"geometry":{"x":165263.98000000045,"y":2543765.6100000013}},{"attributes":{"ID":568654,"DIS_CODE":0,"TOWNNAME":"安平區","LI":"華平里","LIN":"28鄰","STREET":"平通路","SECT":" ","MAREA":" ","LANE":" ","ALLEY":" ","HOUSE_NO":"４６１號","E_COORD97":165246.82999999999,"N_COORD97":2543768.5299999998,"ADDRESS":"平通路４６１號","OBJECTID":568627},"geometry":{"x":165246.83000000101,"y":2543768.5299999993}},{"attributes":{"ID":568655,"DIS_CODE":0,"TOWNNAME":"安平區","LI":"華平里","LIN":"28鄰","STREET":"平通路","SECT":" ","MAREA":" ","LANE":" ","ALLEY":" ","HOUSE_NO":"４９３號","E_COORD97":165181.35000000001,"N_COORD97":2543778.3399999999,"ADDRESS":"平通路４９３號","OBJECTID":568628},"geometry":{"x":165181.35000000149,"y":2543778.3400000017}},{"attributes":{"ID":568656,"DIS_CODE":0,"TOWNNAME":"安平區","LI":"華平里","LIN":"28鄰","STREET":"平通路","SECT":" ","MAREA":" ","LANE":" ","ALLEY":" ","HOUSE_NO":"４９５號","E_COORD97":165177.37,"N_COORD97":2543779.2000000002,"ADDRESS":"平通路４９５號","OBJECTID":568629},"geometry":{"x":165177.37000000104,"y":2543779.2000000011}},{"attributes":{"ID":568657,"DIS_CODE":0,"TOWNNAME":"安平區","LI":"華平里","LIN":"28鄰","STREET":"平通路","SECT":" ","MAREA":" ","LANE":" ","ALLEY":" ","HOUSE_NO":"５１７號","E_COORD97":165116.51000000001,"N_COORD97":2543789.5499999998,"ADDRESS":"平通路５１７號","OBJECTID":568630},"geometry":{"x":165116.51000000071,"y":2543789.5500000007}},{"attributes":{"ID":568658,"DIS_CODE":0,"TOWNNAME":"安平區","LI":"華平里","LIN":"28鄰","STREET":"平通路","SECT":" ","MAREA":" ","LANE":" ","ALLEY":" ","HOUSE_NO":"５２１號","E_COORD97":165108.14999999999,"N_COORD97":2543790.8999999999,"ADDRESS":"平通路５２１號","OBJECTID":568631},"geometry":{"x":165108.15000000037,"y":2543790.9000000004}},{"attributes":{"ID":568659,"DIS_CODE":0,"TOWNNAME":"學甲區","LI":"慈福里","LIN":"28鄰","STREET":"華宗路","SECT":" ","MAREA":" ","LANE":" ","ALLEY":" ","HOUSE_NO":"３９８號","E_COORD97":166342.98000000001,"N_COORD97":2570324.6099999999,"ADDRESS":"華宗路３９８號","OBJECTID":568632},"geometry":{"x":166342.98000000138,"y":2570324.6099999994}},{"attributes":{"ID":568660,"DIS_CODE":0,"TOWNNAME":"學甲區","LI":"慈福里","LIN":"28鄰","STREET":"華宗路","SECT":" ","MAREA":" ","LANE":" ","ALLEY":" ","HOUSE_NO":"４０２號","E_COORD97":166340.51000000001,"N_COORD97":2570334.3199999998,"ADDRESS":"華宗路４０２號","OBJECTID":568633},"geometry":{"x":166340.51000000071,"y":2570334.3200000003}},{"attributes":{"ID":568661,"DIS_CODE":0,"TOWNNAME":"學甲區","LI":"慈福里","LIN":"28鄰","STREET":"華宗路","SECT":" ","MAREA":" ","LANE":" ","ALLEY":" ","HOUSE_NO":"４０４號","E_COORD97":166341.35999999999,"N_COORD97":2570340.3900000001,"ADDRESS":"華宗路４０４號","OBJECTID":568634},"geometry":{"x":166341.3600000022,"y":2570340.3900000006}},{"attributes":{"ID":568662,"DIS_CODE":0,"TOWNNAME":"學甲區","LI":"慈福里","LIN":"28鄰","STREET":"華宗路","SECT":" ","MAREA":" ","LANE":" ","ALLEY":" ","HOUSE_NO":"４０６號","E_COORD97":166342.01999999999,"N_COORD97":2570346.1699999999,"ADDRESS":"華宗路４０６號","OBJECTID":568635},"geometry":{"x":166342.02000000048,"y":2570346.1700000037}},{"attributes":{"ID":568663,"DIS_CODE":0,"TOWNNAME":"學甲區","LI":"慈福里","LIN":"28鄰","STREET":"華宗路","SECT":" ","MAREA":" ","LANE":" ","ALLEY":" ","HOUSE_NO":"４１２號","E_COORD97":166346.73999999999,"N_COORD97":2570373.4100000001,"ADDRESS":"華宗路４１２號","OBJECTID":568636},"geometry":{"x":166346.74000000022,"y":2570373.4100000001}},{"attributes":{"ID":568664,"DIS_CODE":0,"TOWNNAME":"學甲區","LI":"慈福里","LIN":"28鄰","STREET":"華宗路","SECT":" ","MAREA":" ","LANE":" ","ALLEY":" ","HOUSE_NO":"４１４號","E_COORD97":166348.48999999999,"N_COORD97":2570378.21,"ADDRESS":"華宗路４１４號","OBJECTID":568637},"geometry":{"x":166348.49000000022,"y":2570378.2100000028}},{"attributes":{"ID":568665,"DIS_CODE":0,"TOWNNAME":"學甲區","LI":"慈福里","LIN":"28鄰","STREET":"綿和路","SECT":" ","MAREA":" ","LANE":" ","ALLEY":" ","HOUSE_NO":"３１號","E_COORD97":166396.91,"N_COORD97":2570336.6600000001,"ADDRESS":"綿和路３１號","OBJECTID":568638},"geometry":{"x":166396.91000000201,"y":2570336.660000002}},{"attributes":{"ID":568666,"DIS_CODE":0,"TOWNNAME":"學甲區","LI":"慈福里","LIN":"28鄰","STREET":"綿和路","SECT":" ","MAREA":" ","LANE":" ","ALLEY":" ","HOUSE_NO":"３３號","E_COORD97":166387.70000000001,"N_COORD97":2570336.5499999998,"ADDRESS":"綿和路３３號","OBJECTID":568639},"geometry":{"x":166387.70000000019,"y":2570336.5500000007}},{"attributes":{"ID":568667,"DIS_CODE":0,"TOWNNAME":"學甲區","LI":"慈福里","LIN":"28鄰","STREET":"綿和路","SECT":" ","MAREA":" ","LANE":" ","ALLEY":" ","HOUSE_NO":"３４號","E_COORD97":166377.32999999999,"N_COORD97":2570362.0899999999,"ADDRESS":"綿和路３４號","OBJECTID":568640},"geometry":{"x":166377.33000000101,"y":2570362.0899999999}},{"attributes":{"ID":568668,"DIS_CODE":0,"TOWNNAME":"學甲區","LI":"慈福里","LIN":"28鄰","STREET":"綿和路","SECT":" ","MAREA":" ","LANE":" ","ALLEY":" ","HOUSE_NO":"３６號","E_COORD97":166371.28,"N_COORD97":2570363.02,"ADDRESS":"綿和路３６號","OBJECTID":568641},"geometry":{"x":166371.28000000119,"y":2570363.0199999996}},{"attributes":{"ID":568669,"DIS_CODE":0,"TOWNNAME":"學甲區","LI":"慈福里","LIN":"28鄰","STREET":"綿和路","SECT":" ","MAREA":" ","LANE":" ","ALLEY":" ","HOUSE_NO":"３８號","E_COORD97":166364.84,"N_COORD97":2570364.0899999999,"ADDRESS":"綿和路３８號","OBJECTID":568642},"geometry":{"x":166364.84000000171,"y":2570364.0900000017}},{"attributes":{"ID":568670,"DIS_CODE":0,"TOWNNAME":"學甲區","LI":"慈福里","LIN":"28鄰","STREET":"綿和路","SECT":" ","MAREA":" ","LANE":" ","ALLEY":" ","HOUSE_NO":"３９號之１","E_COORD97":166359.59,"N_COORD97":2570345.9900000002,"ADDRESS":"綿和路３９號之１","OBJECTID":568643},"geometry":{"x":166359.58999999892,"y":2570345.9900000002}},{"attributes":{"ID":568671,"DIS_CODE":0,"TOWNNAME":"學甲區","LI":"慈福里","LIN":"28鄰","STREET":"綿和路","SECT":" ","MAREA":" ","LANE":" ","ALLEY":" ","HOUSE_NO":"３９號","E_COORD97":166363.26000000001,"N_COORD97":2570345.1200000001,"ADDRESS":"綿和路３９號","OBJECTID":568644},"geometry":{"x":166363.25999999978,"y":2570345.1200000029}},{"attributes":{"ID":568672,"DIS_CODE":0,"TOWNNAME":"學甲區","LI":"慈福里","LIN":"28鄰","STREET":"綿和路","SECT":" ","MAREA":" ","LANE":" ","ALLEY":" ","HOUSE_NO":"４０號","E_COORD97":166358.54000000001,"N_COORD97":2570364.98,"ADDRESS":"綿和路４０號","OBJECTID":568645},"geometry":{"x":166358.5400000019,"y":2570364.9800000042}},{"attributes":{"ID":568673,"DIS_CODE":0,"TOWNNAME":"學甲區","LI":"慈福里","LIN":"28鄰","STREET":"華宗路","SECT":" ","MAREA":" ","LANE":" ","ALLEY":" ","HOUSE_NO":"４１０號","E_COORD97":166345.45999999999,"N_COORD97":2570367.0499999998,"ADDRESS":"華宗路４１０號","OBJECTID":568646},"geometry":{"x":166345.46000000183,"y":2570367.0500000007}},{"attributes":{"ID":568674,"DIS_CODE":0,"TOWNNAME":"北區","LI":"文元里","LIN":"28鄰","STREET":"文成路","SECT":" ","MAREA":" ","LANE":" ","ALLEY":" ","HOUSE_NO":"７５１號","E_COORD97":167589,"N_COORD97":2545856.1000000001,"ADDRESS":"文成路７５１號","OBJECTID":568647},"geometry":{"x":167589,"y":2545856.0999999996}},{"attributes":{"ID":568675,"DIS_CODE":0,"TOWNNAME":"北區","LI":"文元里","LIN":"28鄰","STREET":"文成路","SECT":" ","MAREA":" ","LANE":" ","ALLEY":" ","HOUSE_NO":"７５３號","E_COORD97":167581.82000000001,"N_COORD97":2545858.2000000002,"ADDRESS":"文成路７５３號","OBJECTID":568648},"geometry":{"x":167581.8200000003,"y":2545858.1999999993}},{"attributes":{"ID":568676,"DIS_CODE":0,"TOWNNAME":"北區","LI":"文元里","LIN":"28鄰","STREET":"文成路","SECT":" ","MAREA":" ","LANE":" ","ALLEY":" ","HOUSE_NO":"７５５號","E_COORD97":167575.54000000001,"N_COORD97":2545855.5099999998,"ADDRESS":"文成路７５５號","OBJECTID":568649},"geometry":{"x":167575.54000000004,"y":2545855.5100000016}},{"attributes":{"ID":568677,"DIS_CODE":0,"TOWNNAME":"北區","LI":"文元里","LIN":"28鄰","STREET":"文成路","SECT":" ","MAREA":" ","LANE":" ","ALLEY":" ","HOUSE_NO":"７５７號","E_COORD97":167567.76000000001,"N_COORD97":2545857.8999999999,"ADDRESS":"文成路７５７號","OBJECTID":568650},"geometry":{"x":167567.76000000071,"y":2545857.9000000004}},{"attributes":{"ID":568678,"DIS_CODE":0,"TOWNNAME":"北區","LI":"文元里","LIN":"28鄰","STREET":"文成路","SECT":" ","MAREA":" ","LANE":" ","ALLEY":" ","HOUSE_NO":"７６１號","E_COORD97":167533.60999999999,"N_COORD97":2545855.6800000002,"ADDRESS":"文成路７６１號","OBJECTID":568651},"geometry":{"x":167533.61000000127,"y":2545855.6799999997}},{"attributes":{"ID":568679,"DIS_CODE":0,"TOWNNAME":"北區","LI":"文元里","LIN":"28鄰","STREET":"文賢一路","SECT":" ","MAREA":" ","LANE":" ","ALLEY":" ","HOUSE_NO":"３０６號","E_COORD97":167530.97,"N_COORD97":2545805.9199999999,"ADDRESS":"文賢一路３０６號","OBJECTID":568652},"geometry":{"x":167530.96999999974,"y":2545805.9200000018}},{"attributes":{"ID":568680,"DIS_CODE":0,"TOWNNAME":"北區","LI":"文元里","LIN":"28鄰","STREET":"文賢一路","SECT":" ","MAREA":" ","LANE":" ","ALLEY":" ","HOUSE_NO":"３０８號","E_COORD97":167529.76999999999,"N_COORD97":2545813.9900000002,"ADDRESS":"文賢一路３０８號","OBJECTID":568653},"geometry":{"x":167529.77000000048,"y":2545813.9900000002}},{"attributes":{"ID":568681,"DIS_CODE":0,"TOWNNAME":"北區","LI":"文元里","LIN":"28鄰","STREET":"文賢一路","SECT":" ","MAREA":" ","LANE":" ","ALLEY":" ","HOUSE_NO":"３１０號","E_COORD97":167528.57999999999,"N_COORD97":2545822.3500000001,"ADDRESS":"文賢一路３１０號","OBJECTID":568654},"geometry":{"x":167528.58000000101,"y":2545822.3500000015}},{"attributes":{"ID":568682,"DIS_CODE":0,"TOWNNAME":"北區","LI":"文元里","LIN":"28鄰","STREET":"文賢二街","SECT":" ","MAREA":" ","LANE":" ","ALLEY":" ","HOUSE_NO":"２５７號","E_COORD97":167679.09,"N_COORD97":2545844.1899999999,"ADDRESS":"文賢二街２５７號","OBJECTID":568655},"geometry":{"x":167679.09000000078,"y":2545844.1900000013}},{"attributes":{"ID":568683,"DIS_CODE":0,"TOWNNAME":"北區","LI":"文元里","LIN":"28鄰","STREET":"文成路","SECT":" ","MAREA":" ","LANE":" ","ALLEY":" ","HOUSE_NO":"７３９號","E_COORD97":167664.70000000001,"N_COORD97":2545866.8700000001,"ADDRESS":"文成路７３９號","OBJECTID":568656},"geometry":{"x":167664.70000000205,"y":2545866.870000001}},{"attributes":{"ID":568684,"DIS_CODE":0,"TOWNNAME":"北區","LI":"文元里","LIN":"28鄰","STREET":"文成路","SECT":" ","MAREA":" ","LANE":" ","ALLEY":" ","HOUSE_NO":"７４１號","E_COORD97":167658.01000000001,"N_COORD97":2545866.8700000001,"ADDRESS":"文成路７４１號","OBJECTID":568657},"geometry":{"x":167658.00999999978,"y":2545866.870000001}},{"attributes":{"ID":568685,"DIS_CODE":0,"TOWNNAME":"北區","LI":"文元里","LIN":"28鄰","STREET":"文成路","SECT":" ","MAREA":" ","LANE":" ","ALLEY":" ","HOUSE_NO":"７４３號","E_COORD97":167650.64000000001,"N_COORD97":2545867.0600000001,"ADDRESS":"文成路７４３號","OBJECTID":568658},"geometry":{"x":167650.63999999966,"y":2545867.0600000024}},{"attributes":{"ID":568686,"DIS_CODE":0,"TOWNNAME":"北區","LI":"文元里","LIN":"28鄰","STREET":"文成路","SECT":" ","MAREA":" ","LANE":" ","ALLEY":" ","HOUSE_NO":"７４５號","E_COORD97":167643.91,"N_COORD97":2545867.0600000001,"ADDRESS":"文成路７４５號","OBJECTID":568659},"geometry":{"x":167643.91000000015,"y":2545867.0600000024}},{"attributes":{"ID":568687,"DIS_CODE":0,"TOWNNAME":"北區","LI":"文元里","LIN":"28鄰","STREET":"文賢一路","SECT":" ","MAREA":" ","LANE":" ","ALLEY":" ","HOUSE_NO":"２９８號","E_COORD97":167530.76000000001,"N_COORD97":2545787.3599999999,"ADDRESS":"文賢一路２９８號","OBJECTID":568660},"geometry":{"x":167530.75999999978,"y":2545787.3599999975}},{"attributes":{"ID":568688,"DIS_CODE":0,"TOWNNAME":"北區","LI":"文元里","LIN":"28鄰","STREET":"文賢一路","SECT":" ","MAREA":" ","LANE":" ","ALLEY":" ","HOUSE_NO":"２９６號","E_COORD97":167531.07999999999,"N_COORD97":2545783.0699999998,"ADDRESS":"文賢一路２９６號","OBJECTID":568661},"geometry":{"x":167531.08000000007,"y":2545783.0700000003}},{"attributes":{"ID":568689,"DIS_CODE":0,"TOWNNAME":"北區","LI":"文元里","LIN":"28鄰","STREET":"文賢一路","SECT":" ","MAREA":" ","LANE":" ","ALLEY":" ","HOUSE_NO":"２９２號","E_COORD97":167531.39999999999,"N_COORD97":2545778.4700000002,"ADDRESS":"文賢一路２９２號","OBJECTID":568662},"geometry":{"x":167531.4000000013,"y":2545778.4700000025}},{"attributes":{"ID":568690,"DIS_CODE":0,"TOWNNAME":"北區","LI":"文元里","LIN":"28鄰","STREET":"文賢一路","SECT":" ","MAREA":" ","LANE":" ","ALLEY":" ","HOUSE_NO":"２９０號","E_COORD97":167531.72,"N_COORD97":2545774.1800000002,"ADDRESS":"文賢一路２９０號","OBJECTID":568663},"geometry":{"x":167531.7200000016,"y":2545774.1799999997}},{"attributes":{"ID":568691,"DIS_CODE":0,"TOWNNAME":"北區","LI":"文元里","LIN":"28鄰","STREET":"文賢一路","SECT":" ","MAREA":" ","LANE":" ","ALLEY":" ","HOUSE_NO":"２８８號","E_COORD97":167532.03,"N_COORD97":2545769.8999999999,"ADDRESS":"文賢一路２８８號","OBJECTID":568664},"geometry":{"x":167532.03000000212,"y":2545769.9000000004}},{"attributes":{"ID":568692,"DIS_CODE":0,"TOWNNAME":"北區","LI":"文元里","LIN":"28鄰","STREET":"文賢一路","SECT":" ","MAREA":" ","LANE":" ","ALLEY":" ","HOUSE_NO":"２８６號","E_COORD97":167532.35000000001,"N_COORD97":2545765.9300000002,"ADDRESS":"文賢一路２８６號","OBJECTID":568665},"geometry":{"x":167532.3499999987,"y":2545765.9299999997}},{"attributes":{"ID":568693,"DIS_CODE":0,"TOWNNAME":"六甲區","LI":"六甲里","LIN":"28鄰","STREET":"中山路","SECT":" ","MAREA":" ","LANE":" ","ALLEY":" ","HOUSE_NO":"５３號","E_COORD97":183512.39999999999,"N_COORD97":2569991.8999999999,"ADDRESS":"中山路５３號","OBJECTID":568666},"geometry":{"x":183512.4000000013,"y":2569991.9000000004}},{"attributes":{"ID":568694,"DIS_CODE":0,"TOWNNAME":"永康區","LI":"大橋里","LIN":"28鄰","STREET":"大橋一街","SECT":" ","MAREA":" ","LANE":" ","ALLEY":" ","HOUSE_NO":"２１０號七樓之３","E_COORD97":170925.66,"N_COORD97":2546403.29,"ADDRESS":"大橋一街２１０號七樓之３","OBJECTID":568667},"geometry":{"x":170925.66000000015,"y":2546403.2899999991}},{"attributes":{"ID":568695,"DIS_CODE":0,"TOWNNAME":"永康區","LI":"大橋里","LIN":"28鄰","STREET":"大橋一街","SECT":" ","MAREA":" ","LANE":" ","ALLEY":" ","HOUSE_NO":"２１０號七樓之６","E_COORD97":170925.67000000001,"N_COORD97":2546403.29,"ADDRESS":"大橋一街２１０號七樓之６","OBJECTID":568668},"geometry":{"x":170925.66999999993,"y":2546403.2899999991}},{"attributes":{"ID":568696,"DIS_CODE":0,"TOWNNAME":"永康區","LI":"大橋里","LIN":"28鄰","STREET":"大橋一街","SECT":" ","MAREA":" ","LANE":" ","ALLEY":" ","HOUSE_NO":"２１０號六樓之３","E_COORD97":170925.66,"N_COORD97":2546403.29,"ADDRESS":"大橋一街２１０號六樓之３","OBJECTID":568669},"geometry":{"x":170925.66000000015,"y":2546403.2899999991}},{"attributes":{"ID":568697,"DIS_CODE":0,"TOWNNAME":"永康區","LI":"大橋里","LIN":"28鄰","STREET":"大橋一街","SECT":" ","MAREA":" ","LANE":" ","ALLEY":" ","HOUSE_NO":"２１０號三樓之３","E_COORD97":170925.66,"N_COORD97":2546403.29,"ADDRESS":"大橋一街２１０號三樓之３","OBJECTID":568670},"geometry":{"x":170925.66000000015,"y":2546403.2899999991}},{"attributes":{"ID":568698,"DIS_CODE":0,"TOWNNAME":"永康區","LI":"大橋里","LIN":"28鄰","STREET":"大橋一街","SECT":" ","MAREA":" ","LANE":" ","ALLEY":" ","HOUSE_NO":"２１０號五樓之６","E_COORD97":170925.67000000001,"N_COORD97":2546403.29,"ADDRESS":"大橋一街２１０號五樓之６","OBJECTID":568671},"geometry":{"x":170925.66999999993,"y":2546403.2899999991}},{"attributes":{"ID":568699,"DIS_CODE":0,"TOWNNAME":"永康區","LI":"大橋里","LIN":"28鄰","STREET":"大橋一街","SECT":" ","MAREA":" ","LANE":" ","ALLEY":" ","HOUSE_NO":"２１０號八樓之５","E_COORD97":170925.72,"N_COORD97":2546403.29,"ADDRESS":"大橋一街２１０號八樓之５","OBJECTID":568672},"geometry":{"x":170925.72000000067,"y":2546403.2899999991}},{"attributes":{"ID":568700,"DIS_CODE":0,"TOWNNAME":"永康區","LI":"大橋里","LIN":"28鄰","STREET":"大橋一街","SECT":" ","MAREA":" ","LANE":" ","ALLEY":" ","HOUSE_NO":"２１０號四樓之２","E_COORD97":170925.70000000001,"N_COORD97":2546403.29,"ADDRESS":"大橋一街２１０號四樓之２","OBJECTID":568673},"geometry":{"x":170925.70000000019,"y":2546403.2899999991}},{"attributes":{"ID":568701,"DIS_CODE":0,"TOWNNAME":"東區","LI":"東明里","LIN":"28鄰","STREET":"東寧路","SECT":" ","MAREA":" ","LANE":" ","ALLEY":" ","HOUSE_NO":"２６９號二樓","E_COORD97":170791.64000000001,"N_COORD97":2543436.3500000001,"ADDRESS":"東寧路２６９號二樓","OBJECTID":568674},"geometry":{"x":170791.63999999966,"y":2543436.3500000015}},{"attributes":{"ID":568702,"DIS_CODE":0,"TOWNNAME":"東區","LI":"東明里","LIN":"28鄰","STREET":"東寧路","SECT":" ","MAREA":" ","LANE":" ","ALLEY":" ","HOUSE_NO":"２６９號三樓","E_COORD97":170791.64000000001,"N_COORD97":2543436.3500000001,"ADDRESS":"東寧路２６９號三樓","OBJECTID":568675},"geometry":{"x":170791.63999999966,"y":2543436.3500000015}},{"attributes":{"ID":568703,"DIS_CODE":0,"TOWNNAME":"東區","LI":"東明里","LIN":"28鄰","STREET":"東寧路","SECT":" ","MAREA":" ","LANE":" ","ALLEY":" ","HOUSE_NO":"２６９號四樓","E_COORD97":170791.64000000001,"N_COORD97":2543436.3500000001,"ADDRESS":"東寧路２６９號四樓","OBJECTID":568676},"geometry":{"x":170791.63999999966,"y":2543436.3500000015}},{"attributes":{"ID":568704,"DIS_CODE":0,"TOWNNAME":"東區","LI":"東明里","LIN":"28鄰","STREET":"東寧路","SECT":" ","MAREA":" ","LANE":" ","ALLEY":" ","HOUSE_NO":"２６９號五樓","E_COORD97":170791.64000000001,"N_COORD97":2543436.3500000001,"ADDRESS":"東寧路２６９號五樓","OBJECTID":568677},"geometry":{"x":170791.63999999966,"y":2543436.3500000015}},{"attributes":{"ID":568705,"DIS_CODE":0,"TOWNNAME":"東區","LI":"東明里","LIN":"28鄰","STREET":"東寧路","SECT":" ","MAREA":" ","LANE":" ","ALLEY":" ","HOUSE_NO":"２６９號六樓","E_COORD97":170791.64000000001,"N_COORD97":2543436.3500000001,"ADDRESS":"東寧路２６９號六樓","OBJECTID":568678},"geometry":{"x":170791.63999999966,"y":2543436.3500000015}},{"attributes":{"ID":568706,"DIS_CODE":0,"TOWNNAME":"東區","LI":"東明里","LIN":"28鄰","STREET":"東寧路","SECT":" ","MAREA":" ","LANE":" ","ALLEY":" ","HOUSE_NO":"２６９號七樓","E_COORD97":170791.64000000001,"N_COORD97":2543436.3500000001,"ADDRESS":"東寧路２６９號七樓","OBJECTID":568679},"geometry":{"x":170791.63999999966,"y":2543436.3500000015}},{"attributes":{"ID":568707,"DIS_CODE":0,"TOWNNAME":"永康區","LI":"大橋里","LIN":"28鄰","STREET":"中華路","SECT":" ","MAREA":" ","LANE":" ","ALLEY":" ","HOUSE_NO":"６２０號二樓","E_COORD97":171123.79999999999,"N_COORD97":2546064.5,"ADDRESS":"中華路６２０號二樓","OBJECTID":568680},"geometry":{"x":171123.80000000075,"y":2546064.5}},{"attributes":{"ID":568708,"DIS_CODE":0,"TOWNNAME":"永康區","LI":"大橋里","LIN":"28鄰","STREET":"中華路","SECT":" ","MAREA":" ","LANE":" ","ALLEY":" ","HOUSE_NO":"６２０號三樓","E_COORD97":171123.79999999999,"N_COORD97":2546064.5,"ADDRESS":"中華路６２０號三樓","OBJECTID":568681},"geometry":{"x":171123.80000000075,"y":2546064.5}},{"attributes":{"ID":568709,"DIS_CODE":0,"TOWNNAME":"永康區","LI":"大橋里","LIN":"28鄰","STREET":"中華路","SECT":" ","MAREA":" ","LANE":" ","ALLEY":" ","HOUSE_NO":"６２０號五樓","E_COORD97":171123.79999999999,"N_COORD97":2546064.5,"ADDRESS":"中華路６２０號五樓","OBJECTID":568682},"geometry":{"x":171123.80000000075,"y":2546064.5}},{"attributes":{"ID":568710,"DIS_CODE":0,"TOWNNAME":"永康區","LI":"大橋里","LIN":"28鄰","STREET":"大橋一街","SECT":" ","MAREA":" ","LANE":" ","ALLEY":" ","HOUSE_NO":"２１０號七樓之５","E_COORD97":170925.72,"N_COORD97":2546403.29,"ADDRESS":"大橋一街２１０號七樓之５","OBJECTID":568683},"geometry":{"x":170925.72000000067,"y":2546403.2899999991}},{"attributes":{"ID":568711,"DIS_CODE":0,"TOWNNAME":"永康區","LI":"大橋里","LIN":"28鄰","STREET":"大橋一街","SECT":" ","MAREA":" ","LANE":" ","ALLEY":" ","HOUSE_NO":"２１０號九樓之６","E_COORD97":170925.67000000001,"N_COORD97":2546403.29,"ADDRESS":"大橋一街２１０號九樓之６","OBJECTID":568684},"geometry":{"x":170925.66999999993,"y":2546403.2899999991}},{"attributes":{"ID":568712,"DIS_CODE":0,"TOWNNAME":"永康區","LI":"大橋里","LIN":"28鄰","STREET":"中華路","SECT":" ","MAREA":" ","LANE":" ","ALLEY":" ","HOUSE_NO":"６２０號七樓","E_COORD97":171123.79999999999,"N_COORD97":2546064.5,"ADDRESS":"中華路６２０號七樓","OBJECTID":568685},"geometry":{"x":171123.80000000075,"y":2546064.5}},{"attributes":{"ID":568713,"DIS_CODE":0,"TOWNNAME":"永康區","LI":"大橋里","LIN":"28鄰","STREET":"中華路","SECT":" ","MAREA":" ","LANE":" ","ALLEY":" ","HOUSE_NO":"６２０號六樓","E_COORD97":171123.79999999999,"N_COORD97":2546064.5,"ADDRESS":"中華路６２０號六樓","OBJECTID":568686},"geometry":{"x":171123.80000000075,"y":2546064.5}},{"attributes":{"ID":568714,"DIS_CODE":0,"TOWNNAME":"永康區","LI":"大橋里","LIN":"28鄰","STREET":"大橋一街","SECT":" ","MAREA":" ","LANE":" ","ALLEY":" ","HOUSE_NO":"２１０號四樓之１","E_COORD97":170925.56,"N_COORD97":2546403.29,"ADDRESS":"大橋一街２１０號四樓之１","OBJECTID":568687},"geometry":{"x":170925.56000000052,"y":2546403.2899999991}},{"attributes":{"ID":568715,"DIS_CODE":0,"TOWNNAME":"永康區","LI":"大橋里","LIN":"28鄰","STREET":"大橋一街","SECT":" ","MAREA":" ","LANE":" ","ALLEY":" ","HOUSE_NO":"２１０號六樓之２","E_COORD97":170925.70000000001,"N_COORD97":2546403.29,"ADDRESS":"大橋一街２１０號六樓之２","OBJECTID":568688},"geometry":{"x":170925.70000000019,"y":2546403.2899999991}},{"attributes":{"ID":568716,"DIS_CODE":0,"TOWNNAME":"永康區","LI":"大橋里","LIN":"28鄰","STREET":"大橋一街","SECT":" ","MAREA":" ","LANE":" ","ALLEY":" ","HOUSE_NO":"２１０號六樓之５","E_COORD97":170925.72,"N_COORD97":2546403.29,"ADDRESS":"大橋一街２１０號六樓之５","OBJECTID":568689},"geometry":{"x":170925.72000000067,"y":2546403.2899999991}},{"attributes":{"ID":568717,"DIS_CODE":0,"TOWNNAME":"永康區","LI":"大橋里","LIN":"28鄰","STREET":"大橋一街","SECT":" ","MAREA":" ","LANE":" ","ALLEY":" ","HOUSE_NO":"２１０號四樓之６","E_COORD97":170925.67000000001,"N_COORD97":2546403.29,"ADDRESS":"大橋一街２１０號四樓之６","OBJECTID":568690},"geometry":{"x":170925.66999999993,"y":2546403.2899999991}},{"attributes":{"ID":568718,"DIS_CODE":0,"TOWNNAME":"永康區","LI":"大橋里","LIN":"28鄰","STREET":"大橋一街","SECT":" ","MAREA":" ","LANE":" ","ALLEY":" ","HOUSE_NO":"２１０號三樓之５","E_COORD97":170925.72,"N_COORD97":2546403.29,"ADDRESS":"大橋一街２１０號三樓之５","OBJECTID":568691},"geometry":{"x":170925.72000000067,"y":2546403.2899999991}},{"attributes":{"ID":568719,"DIS_CODE":0,"TOWNNAME":"永康區","LI":"大橋里","LIN":"28鄰","STREET":"大橋一街","SECT":" ","MAREA":" ","LANE":" ","ALLEY":" ","HOUSE_NO":"２１０號四樓之５","E_COORD97":170925.72,"N_COORD97":2546403.29,"ADDRESS":"大橋一街２１０號四樓之５","OBJECTID":568692},"geometry":{"x":170925.72000000067,"y":2546403.2899999991}},{"attributes":{"ID":568720,"DIS_CODE":0,"TOWNNAME":"永康區","LI":"大橋里","LIN":"28鄰","STREET":"中華路","SECT":" ","MAREA":" ","LANE":" ","ALLEY":" ","HOUSE_NO":"６２０號四樓","E_COORD97":171123.79999999999,"N_COORD97":2546064.5,"ADDRESS":"中華路６２０號四樓","OBJECTID":568693},"geometry":{"x":171123.80000000075,"y":2546064.5}},{"attributes":{"ID":568721,"DIS_CODE":0,"TOWNNAME":"永康區","LI":"大橋里","LIN":"28鄰","STREET":"大橋一街","SECT":" ","MAREA":" ","LANE":" ","ALLEY":" ","HOUSE_NO":"２１０號六樓之１","E_COORD97":170925.56,"N_COORD97":2546403.29,"ADDRESS":"大橋一街２１０號六樓之１","OBJECTID":568694},"geometry":{"x":170925.56000000052,"y":2546403.2899999991}},{"attributes":{"ID":568722,"DIS_CODE":0,"TOWNNAME":"永康區","LI":"大橋里","LIN":"28鄰","STREET":"大橋一街","SECT":" ","MAREA":" ","LANE":" ","ALLEY":" ","HOUSE_NO":"２１０號八樓之３","E_COORD97":170925.66,"N_COORD97":2546403.29,"ADDRESS":"大橋一街２１０號八樓之３","OBJECTID":568695},"geometry":{"x":170925.66000000015,"y":2546403.2899999991}},{"attributes":{"ID":568723,"DIS_CODE":0,"TOWNNAME":"永康區","LI":"大橋里","LIN":"28鄰","STREET":"大橋一街","SECT":" ","MAREA":" ","LANE":" ","ALLEY":" ","HOUSE_NO":"２１０號八樓之１","E_COORD97":170925.56,"N_COORD97":2546403.29,"ADDRESS":"大橋一街２１０號八樓之１","OBJECTID":568696},"geometry":{"x":170925.56000000052,"y":2546403.2899999991}},{"attributes":{"ID":568724,"DIS_CODE":0,"TOWNNAME":"永康區","LI":"大橋里","LIN":"28鄰","STREET":"大橋一街","SECT":" ","MAREA":" ","LANE":" ","ALLEY":" ","HOUSE_NO":"２１０號三樓之６","E_COORD97":170925.67000000001,"N_COORD97":2546403.29,"ADDRESS":"大橋一街２１０號三樓之６","OBJECTID":568697},"geometry":{"x":170925.66999999993,"y":2546403.2899999991}},{"attributes":{"ID":568725,"DIS_CODE":0,"TOWNNAME":"永康區","LI":"大橋里","LIN":"28鄰","STREET":"大橋一街","SECT":" ","MAREA":" ","LANE":" ","ALLEY":" ","HOUSE_NO":"２１０號六樓之６","E_COORD97":170925.67000000001,"N_COORD97":2546403.29,"ADDRESS":"大橋一街２１０號六樓之６","OBJECTID":568698},"geometry":{"x":170925.66999999993,"y":2546403.2899999991}},{"attributes":{"ID":568726,"DIS_CODE":0,"TOWNNAME":"東區","LI":"仁和里","LIN":"28鄰","STREET":"利東街","SECT":" ","MAREA":" ","LANE":" ","ALLEY":" ","HOUSE_NO":"４５號五樓之２","E_COORD97":171709.70000000001,"N_COORD97":2541119.8799999999,"ADDRESS":"利東街４５號五樓之２","OBJECTID":568699},"geometry":{"x":171709.70000000112,"y":2541119.8800000008}},{"attributes":{"ID":568727,"DIS_CODE":0,"TOWNNAME":"永康區","LI":"大橋里","LIN":"28鄰","STREET":"大橋一街","SECT":" ","MAREA":" ","LANE":" ","ALLEY":" ","HOUSE_NO":"２１０號九樓之２","E_COORD97":170925.70000000001,"N_COORD97":2546403.29,"ADDRESS":"大橋一街２１０號九樓之２","OBJECTID":568700},"geometry":{"x":170925.70000000019,"y":2546403.2899999991}},{"attributes":{"ID":568728,"DIS_CODE":0,"TOWNNAME":"永康區","LI":"大橋里","LIN":"28鄰","STREET":"大橋一街","SECT":" ","MAREA":" ","LANE":" ","ALLEY":" ","HOUSE_NO":"２１０號七樓之１","E_COORD97":170925.56,"N_COORD97":2546403.29,"ADDRESS":"大橋一街２１０號七樓之１","OBJECTID":568701},"geometry":{"x":170925.56000000052,"y":2546403.2899999991}},{"attributes":{"ID":568729,"DIS_CODE":0,"TOWNNAME":"永康區","LI":"大橋里","LIN":"28鄰","STREET":"大橋一街","SECT":" ","MAREA":" ","LANE":" ","ALLEY":" ","HOUSE_NO":"２１０號九樓之３","E_COORD97":170925.66,"N_COORD97":2546403.29,"ADDRESS":"大橋一街２１０號九樓之３","OBJECTID":568702},"geometry":{"x":170925.66000000015,"y":2546403.2899999991}},{"attributes":{"ID":568730,"DIS_CODE":0,"TOWNNAME":"永康區","LI":"大橋里","LIN":"28鄰","STREET":"大橋一街","SECT":" ","MAREA":" ","LANE":" ","ALLEY":" ","HOUSE_NO":"２１０號五樓之３","E_COORD97":170925.66,"N_COORD97":2546403.29,"ADDRESS":"大橋一街２１０號五樓之３","OBJECTID":568703},"geometry":{"x":170925.66000000015,"y":2546403.2899999991}},{"attributes":{"ID":568731,"DIS_CODE":0,"TOWNNAME":"永康區","LI":"埔園里","LIN":"28鄰","STREET":"中山路","SECT":" ","MAREA":" ","LANE":" ","ALLEY":" ","HOUSE_NO":"３５４號十一樓之３","E_COORD97":173656.64999999999,"N_COORD97":2548283.27,"ADDRESS":"中山路３５４號十一樓之３","OBJECTID":568704},"geometry":{"x":173656.6500000013,"y":2548283.2699999996}},{"attributes":{"ID":568732,"DIS_CODE":0,"TOWNNAME":"永康區","LI":"埔園里","LIN":"28鄰","STREET":"中山路","SECT":" ","MAREA":" ","LANE":" ","ALLEY":" ","HOUSE_NO":"３５４號二樓","E_COORD97":173655.29999999999,"N_COORD97":2548283.27,"ADDRESS":"中山路３５４號二樓","OBJECTID":568705},"geometry":{"x":173655.29999999981,"y":2548283.2699999996}},{"attributes":{"ID":568733,"DIS_CODE":0,"TOWNNAME":"東區","LI":"中西里","LIN":"28鄰","STREET":"東寧路","SECT":" ","MAREA":" ","LANE":" ","ALLEY":" ","HOUSE_NO":"１３６號六樓之２","E_COORD97":170325.92999999999,"N_COORD97":2543543.7200000002,"ADDRESS":"東寧路１３６號六樓之２","OBJECTID":568706},"geometry":{"x":170325.93000000063,"y":2543543.7200000025}},{"attributes":{"ID":568734,"DIS_CODE":0,"TOWNNAME":"東區","LI":"中西里","LIN":"28鄰","STREET":"東寧路","SECT":" ","MAREA":" ","LANE":" ","ALLEY":" ","HOUSE_NO":"１３６號三樓","E_COORD97":170325.92999999999,"N_COORD97":2543543.7200000002,"ADDRESS":"東寧路１３６號三樓","OBJECTID":568707},"geometry":{"x":170325.93000000063,"y":2543543.7200000025}},{"attributes":{"ID":568735,"DIS_CODE":0,"TOWNNAME":"東區","LI":"中西里","LIN":"28鄰","STREET":"東寧路","SECT":" ","MAREA":" ","LANE":" ","ALLEY":" ","HOUSE_NO":"１３６號三樓之１","E_COORD97":170325.92999999999,"N_COORD97":2543543.7200000002,"ADDRESS":"東寧路１３６號三樓之１","OBJECTID":568708},"geometry":{"x":170325.93000000063,"y":2543543.7200000025}},{"attributes":{"ID":568736,"DIS_CODE":0,"TOWNNAME":"東區","LI":"中西里","LIN":"28鄰","STREET":"東寧路","SECT":" ","MAREA":" ","LANE":" ","ALLEY":" ","HOUSE_NO":"１３６號三樓之２","E_COORD97":170325.92999999999,"N_COORD97":2543543.7200000002,"ADDRESS":"東寧路１３６號三樓之２","OBJECTID":568709},"geometry":{"x":170325.93000000063,"y":2543543.7200000025}},{"attributes":{"ID":568737,"DIS_CODE":0,"TOWNNAME":"東區","LI":"中西里","LIN":"28鄰","STREET":"東寧路","SECT":" ","MAREA":" ","LANE":" ","ALLEY":" ","HOUSE_NO":"１３６號三樓之３","E_COORD97":170325.92999999999,"N_COORD97":2543543.7200000002,"ADDRESS":"東寧路１３６號三樓之３","OBJECTID":568710},"geometry":{"x":170325.93000000063,"y":2543543.7200000025}},{"attributes":{"ID":568738,"DIS_CODE":0,"TOWNNAME":"東區","LI":"中西里","LIN":"28鄰","STREET":"東寧路","SECT":" ","MAREA":" ","LANE":" ","ALLEY":" ","HOUSE_NO":"１３６號四樓","E_COORD97":170325.92999999999,"N_COORD97":2543543.7200000002,"ADDRESS":"東寧路１３６號四樓","OBJECTID":568711},"geometry":{"x":170325.93000000063,"y":2543543.7200000025}},{"attributes":{"ID":568739,"DIS_CODE":0,"TOWNNAME":"東區","LI":"中西里","LIN":"28鄰","STREET":"東寧路","SECT":" ","MAREA":" ","LANE":" ","ALLEY":" ","HOUSE_NO":"１３６號四樓之１","E_COORD97":170325.92999999999,"N_COORD97":2543543.7200000002,"ADDRESS":"東寧路１３６號四樓之１","OBJECTID":568712},"geometry":{"x":170325.93000000063,"y":2543543.7200000025}},{"attributes":{"ID":568740,"DIS_CODE":0,"TOWNNAME":"東區","LI":"中西里","LIN":"28鄰","STREET":"東寧路","SECT":" ","MAREA":" ","LANE":" ","ALLEY":" ","HOUSE_NO":"１３６號四樓之２","E_COORD97":170325.92999999999,"N_COORD97":2543543.7200000002,"ADDRESS":"東寧路１３６號四樓之２","OBJECTID":568713},"geometry":{"x":170325.93000000063,"y":2543543.7200000025}},{"attributes":{"ID":568741,"DIS_CODE":0,"TOWNNAME":"東區","LI":"中西里","LIN":"28鄰","STREET":"東寧路","SECT":" ","MAREA":" ","LANE":" ","ALLEY":" ","HOUSE_NO":"１３６號四樓之３","E_COORD97":170325.92999999999,"N_COORD97":2543543.7200000002,"ADDRESS":"東寧路１３６號四樓之３","OBJECTID":568714},"geometry":{"x":170325.93000000063,"y":2543543.7200000025}},{"attributes":{"ID":568742,"DIS_CODE":0,"TOWNNAME":"東區","LI":"中西里","LIN":"28鄰","STREET":"東寧路","SECT":" ","MAREA":" ","LANE":" ","ALLEY":" ","HOUSE_NO":"１３６號五樓","E_COORD97":170325.92999999999,"N_COORD97":2543543.7200000002,"ADDRESS":"東寧路１３６號五樓","OBJECTID":568715},"geometry":{"x":170325.93000000063,"y":2543543.7200000025}},{"attributes":{"ID":568743,"DIS_CODE":0,"TOWNNAME":"東區","LI":"中西里","LIN":"28鄰","STREET":"東寧路","SECT":" ","MAREA":" ","LANE":" ","ALLEY":" ","HOUSE_NO":"１３６號五樓之１","E_COORD97":170325.92999999999,"N_COORD97":2543543.7200000002,"ADDRESS":"東寧路１３６號五樓之１","OBJECTID":568716},"geometry":{"x":170325.93000000063,"y":2543543.7200000025}},{"attributes":{"ID":568744,"DIS_CODE":0,"TOWNNAME":"東區","LI":"中西里","LIN":"28鄰","STREET":"東寧路","SECT":" ","MAREA":" ","LANE":" ","ALLEY":" ","HOUSE_NO":"１３６號五樓之２","E_COORD97":170325.92999999999,"N_COORD97":2543543.7200000002,"ADDRESS":"東寧路１３６號五樓之２","OBJECTID":568717},"geometry":{"x":170325.93000000063,"y":2543543.7200000025}},{"attributes":{"ID":568745,"DIS_CODE":0,"TOWNNAME":"東區","LI":"中西里","LIN":"28鄰","STREET":"東寧路","SECT":" ","MAREA":" ","LANE":" ","ALLEY":" ","HOUSE_NO":"１３６號五樓之３","E_COORD97":170325.92999999999,"N_COORD97":2543543.7200000002,"ADDRESS":"東寧路１３６號五樓之３","OBJECTID":568718},"geometry":{"x":170325.93000000063,"y":2543543.7200000025}},{"attributes":{"ID":568746,"DIS_CODE":0,"TOWNNAME":"東區","LI":"中西里","LIN":"28鄰","STREET":"東寧路","SECT":" ","MAREA":" ","LANE":" ","ALLEY":" ","HOUSE_NO":"１３６號六樓","E_COORD97":170325.92999999999,"N_COORD97":2543543.7200000002,"ADDRESS":"東寧路１３６號六樓","OBJECTID":568719},"geometry":{"x":170325.93000000063,"y":2543543.7200000025}},{"attributes":{"ID":568747,"DIS_CODE":0,"TOWNNAME":"東區","LI":"中西里","LIN":"28鄰","STREET":"東寧路","SECT":" ","MAREA":" ","LANE":" ","ALLEY":" ","HOUSE_NO":"１３６號六樓之１","E_COORD97":170325.92999999999,"N_COORD97":2543543.7200000002,"ADDRESS":"東寧路１３６號六樓之１","OBJECTID":568720},"geometry":{"x":170325.93000000063,"y":2543543.7200000025}},{"attributes":{"ID":568748,"DIS_CODE":0,"TOWNNAME":"東區","LI":"中西里","LIN":"28鄰","STREET":"東寧路","SECT":" ","MAREA":" ","LANE":" ","ALLEY":" ","HOUSE_NO":"１３６號六樓之３","E_COORD97":170325.92999999999,"N_COORD97":2543543.7200000002,"ADDRESS":"東寧路１３６號六樓之３","OBJECTID":568721},"geometry":{"x":170325.93000000063,"y":2543543.7200000025}},{"attributes":{"ID":568749,"DIS_CODE":0,"TOWNNAME":"東區","LI":"中西里","LIN":"28鄰","STREET":"東寧路","SECT":" ","MAREA":" ","LANE":" ","ALLEY":" ","HOUSE_NO":"１３６號七樓","E_COORD97":170325.92999999999,"N_COORD97":2543543.7200000002,"ADDRESS":"東寧路１３６號七樓","OBJECTID":568722},"geometry":{"x":170325.93000000063,"y":2543543.7200000025}},{"attributes":{"ID":568750,"DIS_CODE":0,"TOWNNAME":"東區","LI":"中西里","LIN":"28鄰","STREET":"東寧路","SECT":" ","MAREA":" ","LANE":" ","ALLEY":" ","HOUSE_NO":"１３６號七樓之１","E_COORD97":170325.92999999999,"N_COORD97":2543543.7200000002,"ADDRESS":"東寧路１３６號七樓之１","OBJECTID":568723},"geometry":{"x":170325.93000000063,"y":2543543.7200000025}},{"attributes":{"ID":568751,"DIS_CODE":0,"TOWNNAME":"東區","LI":"中西里","LIN":"28鄰","STREET":"東寧路","SECT":" ","MAREA":" ","LANE":" ","ALLEY":" ","HOUSE_NO":"１３６號七樓之２","E_COORD97":170325.92999999999,"N_COORD97":2543543.7200000002,"ADDRESS":"東寧路１３６號七樓之２","OBJECTID":568724},"geometry":{"x":170325.93000000063,"y":2543543.7200000025}},{"attributes":{"ID":568752,"DIS_CODE":0,"TOWNNAME":"東區","LI":"中西里","LIN":"28鄰","STREET":"東寧路","SECT":" ","MAREA":" ","LANE":" ","ALLEY":" ","HOUSE_NO":"１３６號七樓之３","E_COORD97":170325.92999999999,"N_COORD97":2543543.7200000002,"ADDRESS":"東寧路１３６號七樓之３","OBJECTID":568725},"geometry":{"x":170325.93000000063,"y":2543543.7200000025}},{"attributes":{"ID":568753,"DIS_CODE":0,"TOWNNAME":"東區","LI":"中西里","LIN":"28鄰","STREET":"東寧路","SECT":" ","MAREA":" ","LANE":" ","ALLEY":" ","HOUSE_NO":"１３６號八樓","E_COORD97":170325.92999999999,"N_COORD97":2543543.7200000002,"ADDRESS":"東寧路１３６號八樓","OBJECTID":568726},"geometry":{"x":170325.93000000063,"y":2543543.7200000025}},{"attributes":{"ID":568754,"DIS_CODE":0,"TOWNNAME":"東區","LI":"中西里","LIN":"28鄰","STREET":"東寧路","SECT":" ","MAREA":" ","LANE":" ","ALLEY":" ","HOUSE_NO":"１３６號八樓之１","E_COORD97":170325.92999999999,"N_COORD97":2543543.7200000002,"ADDRESS":"東寧路１３６號八樓之１","OBJECTID":568727},"geometry":{"x":170325.93000000063,"y":2543543.7200000025}},{"attributes":{"ID":568755,"DIS_CODE":0,"TOWNNAME":"東區","LI":"中西里","LIN":"28鄰","STREET":"東寧路","SECT":" ","MAREA":" ","LANE":" ","ALLEY":" ","HOUSE_NO":"１３６號八樓之２","E_COORD97":170325.92999999999,"N_COORD97":2543543.7200000002,"ADDRESS":"東寧路１３６號八樓之２","OBJECTID":568728},"geometry":{"x":170325.93000000063,"y":2543543.7200000025}},{"attributes":{"ID":568756,"DIS_CODE":0,"TOWNNAME":"東區","LI":"中西里","LIN":"28鄰","STREET":"東寧路","SECT":" ","MAREA":" ","LANE":" ","ALLEY":" ","HOUSE_NO":"１３６號八樓之３","E_COORD97":170325.92999999999,"N_COORD97":2543543.7200000002,"ADDRESS":"東寧路１３６號八樓之３","OBJECTID":568729},"geometry":{"x":170325.93000000063,"y":2543543.7200000025}},{"attributes":{"ID":568757,"DIS_CODE":0,"TOWNNAME":"東區","LI":"中西里","LIN":"28鄰","STREET":"東寧路","SECT":" ","MAREA":" ","LANE":" ","ALLEY":" ","HOUSE_NO":"１３６號九樓","E_COORD97":170325.92999999999,"N_COORD97":2543543.7200000002,"ADDRESS":"東寧路１３６號九樓","OBJECTID":568730},"geometry":{"x":170325.93000000063,"y":2543543.7200000025}},{"attributes":{"ID":568758,"DIS_CODE":0,"TOWNNAME":"東區","LI":"中西里","LIN":"28鄰","STREET":"東寧路","SECT":" ","MAREA":" ","LANE":" ","ALLEY":" ","HOUSE_NO":"１３６號九樓之１","E_COORD97":170325.92999999999,"N_COORD97":2543543.7200000002,"ADDRESS":"東寧路１３６號九樓之１","OBJECTID":568731},"geometry":{"x":170325.93000000063,"y":2543543.7200000025}},{"attributes":{"ID":568759,"DIS_CODE":0,"TOWNNAME":"東區","LI":"仁和里","LIN":"28鄰","STREET":"利東街","SECT":" ","MAREA":" ","LANE":" ","ALLEY":" ","HOUSE_NO":"４５號六樓","E_COORD97":171709.70000000001,"N_COORD97":2541119.8799999999,"ADDRESS":"利東街４５號六樓","OBJECTID":568732},"geometry":{"x":171709.70000000112,"y":2541119.8800000008}},{"attributes":{"ID":568760,"DIS_CODE":0,"TOWNNAME":"東區","LI":"中西里","LIN":"28鄰","STREET":"東寧路","SECT":" ","MAREA":" ","LANE":" ","ALLEY":" ","HOUSE_NO":"１３６號九樓之２","E_COORD97":170325.92999999999,"N_COORD97":2543543.7200000002,"ADDRESS":"東寧路１３６號九樓之２","OBJECTID":568733},"geometry":{"x":170325.93000000063,"y":2543543.7200000025}},{"attributes":{"ID":568761,"DIS_CODE":0,"TOWNNAME":"東區","LI":"中西里","LIN":"28鄰","STREET":"東寧路","SECT":" ","MAREA":" ","LANE":" ","ALLEY":" ","HOUSE_NO":"１３６號九樓之３","E_COORD97":170325.92999999999,"N_COORD97":2543543.7200000002,"ADDRESS":"東寧路１３６號九樓之３","OBJECTID":568734},"geometry":{"x":170325.93000000063,"y":2543543.7200000025}},{"attributes":{"ID":568762,"DIS_CODE":0,"TOWNNAME":"東區","LI":"中西里","LIN":"28鄰","STREET":"東寧路","SECT":" ","MAREA":" ","LANE":" ","ALLEY":" ","HOUSE_NO":"１３６號十樓","E_COORD97":170325.92999999999,"N_COORD97":2543543.7200000002,"ADDRESS":"東寧路１３６號十樓","OBJECTID":568735},"geometry":{"x":170325.93000000063,"y":2543543.7200000025}},{"attributes":{"ID":568763,"DIS_CODE":0,"TOWNNAME":"東區","LI":"中西里","LIN":"28鄰","STREET":"東寧路","SECT":" ","MAREA":" ","LANE":" ","ALLEY":" ","HOUSE_NO":"１３６號十樓之１","E_COORD97":170325.92999999999,"N_COORD97":2543543.7200000002,"ADDRESS":"東寧路１３６號十樓之１","OBJECTID":568736},"geometry":{"x":170325.93000000063,"y":2543543.7200000025}},{"attributes":{"ID":568764,"DIS_CODE":0,"TOWNNAME":"東區","LI":"中西里","LIN":"28鄰","STREET":"東寧路","SECT":" ","MAREA":" ","LANE":" ","ALLEY":" ","HOUSE_NO":"１３６號十樓之２","E_COORD97":170325.92999999999,"N_COORD97":2543543.7200000002,"ADDRESS":"東寧路１３６號十樓之２","OBJECTID":568737},"geometry":{"x":170325.93000000063,"y":2543543.7200000025}},{"attributes":{"ID":568765,"DIS_CODE":0,"TOWNNAME":"東區","LI":"中西里","LIN":"28鄰","STREET":"東寧路","SECT":" ","MAREA":" ","LANE":" ","ALLEY":" ","HOUSE_NO":"１３６號十樓之３","E_COORD97":170325.92999999999,"N_COORD97":2543543.7200000002,"ADDRESS":"東寧路１３６號十樓之３","OBJECTID":568738},"geometry":{"x":170325.93000000063,"y":2543543.7200000025}},{"attributes":{"ID":568766,"DIS_CODE":0,"TOWNNAME":"東區","LI":"中西里","LIN":"28鄰","STREET":"東寧路","SECT":" ","MAREA":" ","LANE":" ","ALLEY":" ","HOUSE_NO":"１３６號十一樓","E_COORD97":170325.92999999999,"N_COORD97":2543543.7200000002,"ADDRESS":"東寧路１３６號十一樓","OBJECTID":568739},"geometry":{"x":170325.93000000063,"y":2543543.7200000025}},{"attributes":{"ID":568767,"DIS_CODE":0,"TOWNNAME":"東區","LI":"中西里","LIN":"28鄰","STREET":"東寧路","SECT":" ","MAREA":" ","LANE":" ","ALLEY":" ","HOUSE_NO":"１３６號十一樓之１","E_COORD97":170325.92999999999,"N_COORD97":2543543.7200000002,"ADDRESS":"東寧路１３６號十一樓之１","OBJECTID":568740},"geometry":{"x":170325.93000000063,"y":2543543.7200000025}},{"attributes":{"ID":568768,"DIS_CODE":0,"TOWNNAME":"東區","LI":"中西里","LIN":"28鄰","STREET":"東寧路","SECT":" ","MAREA":" ","LANE":" ","ALLEY":" ","HOUSE_NO":"１３６號十一樓之２","E_COORD97":170325.92999999999,"N_COORD97":2543543.7200000002,"ADDRESS":"東寧路１３６號十一樓之２","OBJECTID":568741},"geometry":{"x":170325.93000000063,"y":2543543.7200000025}},{"attributes":{"ID":568769,"DIS_CODE":0,"TOWNNAME":"東區","LI":"中西里","LIN":"28鄰","STREET":"東寧路","SECT":" ","MAREA":" ","LANE":" ","ALLEY":" ","HOUSE_NO":"１３６號十一樓之３","E_COORD97":170325.92999999999,"N_COORD97":2543543.7200000002,"ADDRESS":"東寧路１３６號十一樓之３","OBJECTID":568742},"geometry":{"x":170325.93000000063,"y":2543543.7200000025}},{"attributes":{"ID":568770,"DIS_CODE":0,"TOWNNAME":"東區","LI":"中西里","LIN":"28鄰","STREET":"東寧路","SECT":" ","MAREA":" ","LANE":" ","ALLEY":" ","HOUSE_NO":"１３６號十二樓","E_COORD97":170325.92999999999,"N_COORD97":2543543.7200000002,"ADDRESS":"東寧路１３６號十二樓","OBJECTID":568743},"geometry":{"x":170325.93000000063,"y":2543543.7200000025}},{"attributes":{"ID":568771,"DIS_CODE":0,"TOWNNAME":"東區","LI":"中西里","LIN":"28鄰","STREET":"東寧路","SECT":" ","MAREA":" ","LANE":" ","ALLEY":" ","HOUSE_NO":"１３６號十二樓之１","E_COORD97":170325.92999999999,"N_COORD97":2543543.7200000002,"ADDRESS":"東寧路１３６號十二樓之１","OBJECTID":568744},"geometry":{"x":170325.93000000063,"y":2543543.7200000025}},{"attributes":{"ID":568772,"DIS_CODE":0,"TOWNNAME":"東區","LI":"中西里","LIN":"28鄰","STREET":"東寧路","SECT":" ","MAREA":" ","LANE":" ","ALLEY":" ","HOUSE_NO":"１３６號十二樓之２","E_COORD97":170325.92999999999,"N_COORD97":2543543.7200000002,"ADDRESS":"東寧路１３６號十二樓之２","OBJECTID":568745},"geometry":{"x":170325.93000000063,"y":2543543.7200000025}},{"attributes":{"ID":568773,"DIS_CODE":0,"TOWNNAME":"東區","LI":"中西里","LIN":"28鄰","STREET":"東寧路","SECT":" ","MAREA":" ","LANE":" ","ALLEY":" ","HOUSE_NO":"１３６號十二樓之３","E_COORD97":170325.92999999999,"N_COORD97":2543543.7200000002,"ADDRESS":"東寧路１３６號十二樓之３","OBJECTID":568746},"geometry":{"x":170325.93000000063,"y":2543543.7200000025}},{"attributes":{"ID":568774,"DIS_CODE":0,"TOWNNAME":"東區","LI":"中西里","LIN":"28鄰","STREET":"東寧路","SECT":" ","MAREA":" ","LANE":" ","ALLEY":" ","HOUSE_NO":"１５０號三樓","E_COORD97":170349.70000000001,"N_COORD97":2543523.9100000001,"ADDRESS":"東寧路１５０號三樓","OBJECTID":568747},"geometry":{"x":170349.69999999925,"y":2543523.910000002}},{"attributes":{"ID":568775,"DIS_CODE":0,"TOWNNAME":"東區","LI":"中西里","LIN":"28鄰","STREET":"東寧路","SECT":" ","MAREA":" ","LANE":" ","ALLEY":" ","HOUSE_NO":"１５０號三樓之１","E_COORD97":170349.70000000001,"N_COORD97":2543523.9100000001,"ADDRESS":"東寧路１５０號三樓之１","OBJECTID":568748},"geometry":{"x":170349.69999999925,"y":2543523.910000002}},{"attributes":{"ID":568776,"DIS_CODE":0,"TOWNNAME":"東區","LI":"中西里","LIN":"28鄰","STREET":"東寧路","SECT":" ","MAREA":" ","LANE":" ","ALLEY":" ","HOUSE_NO":"１５０號三樓之２","E_COORD97":170349.70000000001,"N_COORD97":2543523.9100000001,"ADDRESS":"東寧路１５０號三樓之２","OBJECTID":568749},"geometry":{"x":170349.69999999925,"y":2543523.910000002}},{"attributes":{"ID":568777,"DIS_CODE":0,"TOWNNAME":"東區","LI":"中西里","LIN":"28鄰","STREET":"東寧路","SECT":" ","MAREA":" ","LANE":" ","ALLEY":" ","HOUSE_NO":"１５０號三樓之３","E_COORD97":170349.70000000001,"N_COORD97":2543523.9100000001,"ADDRESS":"東寧路１５０號三樓之３","OBJECTID":568750},"geometry":{"x":170349.69999999925,"y":2543523.910000002}},{"attributes":{"ID":568778,"DIS_CODE":0,"TOWNNAME":"東區","LI":"中西里","LIN":"28鄰","STREET":"東寧路","SECT":" ","MAREA":" ","LANE":" ","ALLEY":" ","HOUSE_NO":"１５０號四樓","E_COORD97":170349.70000000001,"N_COORD97":2543523.9100000001,"ADDRESS":"東寧路１５０號四樓","OBJECTID":568751},"geometry":{"x":170349.69999999925,"y":2543523.910000002}},{"attributes":{"ID":568779,"DIS_CODE":0,"TOWNNAME":"東區","LI":"中西里","LIN":"28鄰","STREET":"東寧路","SECT":" ","MAREA":" ","LANE":" ","ALLEY":" ","HOUSE_NO":"１５０號四樓之１","E_COORD97":170349.70000000001,"N_COORD97":2543523.9100000001,"ADDRESS":"東寧路１５０號四樓之１","OBJECTID":568752},"geometry":{"x":170349.69999999925,"y":2543523.910000002}},{"attributes":{"ID":568780,"DIS_CODE":0,"TOWNNAME":"東區","LI":"中西里","LIN":"28鄰","STREET":"東寧路","SECT":" ","MAREA":" ","LANE":" ","ALLEY":" ","HOUSE_NO":"１５０號四樓之２","E_COORD97":170349.70000000001,"N_COORD97":2543523.9100000001,"ADDRESS":"東寧路１５０號四樓之２","OBJECTID":568753},"geometry":{"x":170349.69999999925,"y":2543523.910000002}},{"attributes":{"ID":568781,"DIS_CODE":0,"TOWNNAME":"東區","LI":"中西里","LIN":"28鄰","STREET":"東寧路","SECT":" ","MAREA":" ","LANE":" ","ALLEY":" ","HOUSE_NO":"１５０號四樓之３","E_COORD97":170349.70000000001,"N_COORD97":2543523.9100000001,"ADDRESS":"東寧路１５０號四樓之３","OBJECTID":568754},"geometry":{"x":170349.69999999925,"y":2543523.910000002}},{"attributes":{"ID":568782,"DIS_CODE":0,"TOWNNAME":"東區","LI":"中西里","LIN":"28鄰","STREET":"東寧路","SECT":" ","MAREA":" ","LANE":" ","ALLEY":" ","HOUSE_NO":"１５０號五樓","E_COORD97":170349.70000000001,"N_COORD97":2543523.9100000001,"ADDRESS":"東寧路１５０號五樓","OBJECTID":568755},"geometry":{"x":170349.69999999925,"y":2543523.910000002}},{"attributes":{"ID":568783,"DIS_CODE":0,"TOWNNAME":"東區","LI":"中西里","LIN":"28鄰","STREET":"東寧路","SECT":" ","MAREA":" ","LANE":" ","ALLEY":" ","HOUSE_NO":"１５０號五樓之１","E_COORD97":170349.70000000001,"N_COORD97":2543523.9100000001,"ADDRESS":"東寧路１５０號五樓之１","OBJECTID":568756},"geometry":{"x":170349.69999999925,"y":2543523.910000002}},{"attributes":{"ID":568784,"DIS_CODE":0,"TOWNNAME":"東區","LI":"中西里","LIN":"28鄰","STREET":"東寧路","SECT":" ","MAREA":" ","LANE":" ","ALLEY":" ","HOUSE_NO":"１５０號五樓之２","E_COORD97":170349.70000000001,"N_COORD97":2543523.9100000001,"ADDRESS":"東寧路１５０號五樓之２","OBJECTID":568757},"geometry":{"x":170349.69999999925,"y":2543523.910000002}},{"attributes":{"ID":568785,"DIS_CODE":0,"TOWNNAME":"東區","LI":"中西里","LIN":"28鄰","STREET":"東寧路","SECT":" ","MAREA":" ","LANE":" ","ALLEY":" ","HOUSE_NO":"１５０號五樓之３","E_COORD97":170349.70000000001,"N_COORD97":2543523.9100000001,"ADDRESS":"東寧路１５０號五樓之３","OBJECTID":568758},"geometry":{"x":170349.69999999925,"y":2543523.910000002}},{"attributes":{"ID":568786,"DIS_CODE":0,"TOWNNAME":"東區","LI":"中西里","LIN":"28鄰","STREET":"東寧路","SECT":" ","MAREA":" ","LANE":" ","ALLEY":" ","HOUSE_NO":"１５０號六樓","E_COORD97":170349.70000000001,"N_COORD97":2543523.9100000001,"ADDRESS":"東寧路１５０號六樓","OBJECTID":568759},"geometry":{"x":170349.69999999925,"y":2543523.910000002}},{"attributes":{"ID":568787,"DIS_CODE":0,"TOWNNAME":"東區","LI":"中西里","LIN":"28鄰","STREET":"東寧路","SECT":" ","MAREA":" ","LANE":" ","ALLEY":" ","HOUSE_NO":"１５０號六樓之１","E_COORD97":170349.70000000001,"N_COORD97":2543523.9100000001,"ADDRESS":"東寧路１５０號六樓之１","OBJECTID":568760},"geometry":{"x":170349.69999999925,"y":2543523.910000002}},{"attributes":{"ID":568788,"DIS_CODE":0,"TOWNNAME":"東區","LI":"中西里","LIN":"28鄰","STREET":"東寧路","SECT":" ","MAREA":" ","LANE":" ","ALLEY":" ","HOUSE_NO":"１５０號六樓之２","E_COORD97":170349.70000000001,"N_COORD97":2543523.9100000001,"ADDRESS":"東寧路１５０號六樓之２","OBJECTID":568761},"geometry":{"x":170349.69999999925,"y":2543523.910000002}},{"attributes":{"ID":568789,"DIS_CODE":0,"TOWNNAME":"東區","LI":"中西里","LIN":"28鄰","STREET":"東寧路","SECT":" ","MAREA":" ","LANE":" ","ALLEY":" ","HOUSE_NO":"１５０號六樓之３","E_COORD97":170349.70000000001,"N_COORD97":2543523.9100000001,"ADDRESS":"東寧路１５０號六樓之３","OBJECTID":568762},"geometry":{"x":170349.69999999925,"y":2543523.910000002}},{"attributes":{"ID":568790,"DIS_CODE":0,"TOWNNAME":"東區","LI":"中西里","LIN":"28鄰","STREET":"東寧路","SECT":" ","MAREA":" ","LANE":" ","ALLEY":" ","HOUSE_NO":"１５０號七樓","E_COORD97":170349.70000000001,"N_COORD97":2543523.9100000001,"ADDRESS":"東寧路１５０號七樓","OBJECTID":568763},"geometry":{"x":170349.69999999925,"y":2543523.910000002}},{"attributes":{"ID":568791,"DIS_CODE":0,"TOWNNAME":"東區","LI":"中西里","LIN":"28鄰","STREET":"東寧路","SECT":" ","MAREA":" ","LANE":" ","ALLEY":" ","HOUSE_NO":"１５０號七樓之１","E_COORD97":170349.70000000001,"N_COORD97":2543523.9100000001,"ADDRESS":"東寧路１５０號七樓之１","OBJECTID":568764},"geometry":{"x":170349.69999999925,"y":2543523.910000002}},{"attributes":{"ID":568792,"DIS_CODE":0,"TOWNNAME":"東區","LI":"中西里","LIN":"28鄰","STREET":"東寧路","SECT":" ","MAREA":" ","LANE":" ","ALLEY":" ","HOUSE_NO":"１５０號七樓之２","E_COORD97":170349.70000000001,"N_COORD97":2543523.9100000001,"ADDRESS":"東寧路１５０號七樓之２","OBJECTID":568765},"geometry":{"x":170349.69999999925,"y":2543523.910000002}},{"attributes":{"ID":568793,"DIS_CODE":0,"TOWNNAME":"東區","LI":"仁和里","LIN":"28鄰","STREET":"利東街","SECT":" ","MAREA":" ","LANE":" ","ALLEY":" ","HOUSE_NO":"４５號二樓之２","E_COORD97":171709.70000000001,"N_COORD97":2541119.8799999999,"ADDRESS":"利東街４５號二樓之２","OBJECTID":568766},"geometry":{"x":171709.70000000112,"y":2541119.8800000008}},{"attributes":{"ID":568794,"DIS_CODE":0,"TOWNNAME":"東區","LI":"中西里","LIN":"28鄰","STREET":"東寧路","SECT":" ","MAREA":" ","LANE":" ","ALLEY":" ","HOUSE_NO":"１５０號七樓之３","E_COORD97":170349.70000000001,"N_COORD97":2543523.9100000001,"ADDRESS":"東寧路１５０號七樓之３","OBJECTID":568767},"geometry":{"x":170349.69999999925,"y":2543523.910000002}},{"attributes":{"ID":568795,"DIS_CODE":0,"TOWNNAME":"東區","LI":"中西里","LIN":"28鄰","STREET":"東寧路","SECT":" ","MAREA":" ","LANE":" ","ALLEY":" ","HOUSE_NO":"１５０號八樓","E_COORD97":170349.70000000001,"N_COORD97":2543523.9100000001,"ADDRESS":"東寧路１５０號八樓","OBJECTID":568768},"geometry":{"x":170349.69999999925,"y":2543523.910000002}},{"attributes":{"ID":568796,"DIS_CODE":0,"TOWNNAME":"東區","LI":"中西里","LIN":"28鄰","STREET":"東寧路","SECT":" ","MAREA":" ","LANE":" ","ALLEY":" ","HOUSE_NO":"１５０號八樓之１","E_COORD97":170349.70000000001,"N_COORD97":2543523.9100000001,"ADDRESS":"東寧路１５０號八樓之１","OBJECTID":568769},"geometry":{"x":170349.69999999925,"y":2543523.910000002}},{"attributes":{"ID":568797,"DIS_CODE":0,"TOWNNAME":"東區","LI":"中西里","LIN":"28鄰","STREET":"東寧路","SECT":" ","MAREA":" ","LANE":" ","ALLEY":" ","HOUSE_NO":"１５０號八樓之２","E_COORD97":170349.70000000001,"N_COORD97":2543523.9100000001,"ADDRESS":"東寧路１５０號八樓之２","OBJECTID":568770},"geometry":{"x":170349.69999999925,"y":2543523.910000002}},{"attributes":{"ID":568798,"DIS_CODE":0,"TOWNNAME":"東區","LI":"中西里","LIN":"28鄰","STREET":"東寧路","SECT":" ","MAREA":" ","LANE":" ","ALLEY":" ","HOUSE_NO":"１５０號八樓之３","E_COORD97":170349.70000000001,"N_COORD97":2543523.9100000001,"ADDRESS":"東寧路１５０號八樓之３","OBJECTID":568771},"geometry":{"x":170349.69999999925,"y":2543523.910000002}},{"attributes":{"ID":568799,"DIS_CODE":0,"TOWNNAME":"東區","LI":"中西里","LIN":"28鄰","STREET":"東寧路","SECT":" ","MAREA":" ","LANE":" ","ALLEY":" ","HOUSE_NO":"１５０號九樓","E_COORD97":170349.70000000001,"N_COORD97":2543523.9100000001,"ADDRESS":"東寧路１５０號九樓","OBJECTID":568772},"geometry":{"x":170349.69999999925,"y":2543523.910000002}},{"attributes":{"ID":568800,"DIS_CODE":0,"TOWNNAME":"東區","LI":"中西里","LIN":"28鄰","STREET":"東寧路","SECT":" ","MAREA":" ","LANE":" ","ALLEY":" ","HOUSE_NO":"１５０號九樓之１","E_COORD97":170349.70000000001,"N_COORD97":2543523.9100000001,"ADDRESS":"東寧路１５０號九樓之１","OBJECTID":568773},"geometry":{"x":170349.69999999925,"y":2543523.910000002}},{"attributes":{"ID":568801,"DIS_CODE":0,"TOWNNAME":"東區","LI":"中西里","LIN":"28鄰","STREET":"東寧路","SECT":" ","MAREA":" ","LANE":" ","ALLEY":" ","HOUSE_NO":"１５０號九樓之２","E_COORD97":170349.70000000001,"N_COORD97":2543523.9100000001,"ADDRESS":"東寧路１５０號九樓之２","OBJECTID":568774},"geometry":{"x":170349.69999999925,"y":2543523.910000002}},{"attributes":{"ID":568802,"DIS_CODE":0,"TOWNNAME":"東區","LI":"中西里","LIN":"28鄰","STREET":"東寧路","SECT":" ","MAREA":" ","LANE":" ","ALLEY":" ","HOUSE_NO":"１５０號九樓之３","E_COORD97":170349.70000000001,"N_COORD97":2543523.9100000001,"ADDRESS":"東寧路１５０號九樓之３","OBJECTID":568775},"geometry":{"x":170349.69999999925,"y":2543523.910000002}},{"attributes":{"ID":568803,"DIS_CODE":0,"TOWNNAME":"東區","LI":"中西里","LIN":"28鄰","STREET":"東寧路","SECT":" ","MAREA":" ","LANE":" ","ALLEY":" ","HOUSE_NO":"１５０號十樓","E_COORD97":170349.70000000001,"N_COORD97":2543523.9100000001,"ADDRESS":"東寧路１５０號十樓","OBJECTID":568776},"geometry":{"x":170349.69999999925,"y":2543523.910000002}},{"attributes":{"ID":568804,"DIS_CODE":0,"TOWNNAME":"東區","LI":"中西里","LIN":"28鄰","STREET":"東寧路","SECT":" ","MAREA":" ","LANE":" ","ALLEY":" ","HOUSE_NO":"１５０號十樓之１","E_COORD97":170349.70000000001,"N_COORD97":2543523.9100000001,"ADDRESS":"東寧路１５０號十樓之１","OBJECTID":568777},"geometry":{"x":170349.69999999925,"y":2543523.910000002}},{"attributes":{"ID":568805,"DIS_CODE":0,"TOWNNAME":"東區","LI":"中西里","LIN":"28鄰","STREET":"東寧路","SECT":" ","MAREA":" ","LANE":" ","ALLEY":" ","HOUSE_NO":"１５０號十樓之２","E_COORD97":170349.70000000001,"N_COORD97":2543523.9100000001,"ADDRESS":"東寧路１５０號十樓之２","OBJECTID":568778},"geometry":{"x":170349.69999999925,"y":2543523.910000002}},{"attributes":{"ID":568806,"DIS_CODE":0,"TOWNNAME":"東區","LI":"中西里","LIN":"28鄰","STREET":"東寧路","SECT":" ","MAREA":" ","LANE":" ","ALLEY":" ","HOUSE_NO":"１５０號十樓之３","E_COORD97":170349.70000000001,"N_COORD97":2543523.9100000001,"ADDRESS":"東寧路１５０號十樓之３","OBJECTID":568779},"geometry":{"x":170349.69999999925,"y":2543523.910000002}},{"attributes":{"ID":568807,"DIS_CODE":0,"TOWNNAME":"東區","LI":"中西里","LIN":"28鄰","STREET":"東寧路","SECT":" ","MAREA":" ","LANE":" ","ALLEY":" ","HOUSE_NO":"１５０號十一樓","E_COORD97":170349.70000000001,"N_COORD97":2543523.9100000001,"ADDRESS":"東寧路１５０號十一樓","OBJECTID":568780},"geometry":{"x":170349.69999999925,"y":2543523.910000002}},{"attributes":{"ID":568808,"DIS_CODE":0,"TOWNNAME":"東區","LI":"中西里","LIN":"28鄰","STREET":"東寧路","SECT":" ","MAREA":" ","LANE":" ","ALLEY":" ","HOUSE_NO":"１５０號十一樓之１","E_COORD97":170349.70000000001,"N_COORD97":2543523.9100000001,"ADDRESS":"東寧路１５０號十一樓之１","OBJECTID":568781},"geometry":{"x":170349.69999999925,"y":2543523.910000002}},{"attributes":{"ID":568809,"DIS_CODE":0,"TOWNNAME":"東區","LI":"中西里","LIN":"28鄰","STREET":"東寧路","SECT":" ","MAREA":" ","LANE":" ","ALLEY":" ","HOUSE_NO":"１５０號十一樓之２","E_COORD97":170349.70000000001,"N_COORD97":2543523.9100000001,"ADDRESS":"東寧路１５０號十一樓之２","OBJECTID":568782},"geometry":{"x":170349.69999999925,"y":2543523.910000002}},{"attributes":{"ID":568810,"DIS_CODE":0,"TOWNNAME":"東區","LI":"中西里","LIN":"28鄰","STREET":"東寧路","SECT":" ","MAREA":" ","LANE":" ","ALLEY":" ","HOUSE_NO":"１５０號十一樓之３","E_COORD97":170349.70000000001,"N_COORD97":2543523.9100000001,"ADDRESS":"東寧路１５０號十一樓之３","OBJECTID":568783},"geometry":{"x":170349.69999999925,"y":2543523.910000002}},{"attributes":{"ID":568811,"DIS_CODE":0,"TOWNNAME":"東區","LI":"中西里","LIN":"28鄰","STREET":"東寧路","SECT":" ","MAREA":" ","LANE":" ","ALLEY":" ","HOUSE_NO":"１５０號十二樓","E_COORD97":170349.70000000001,"N_COORD97":2543523.9100000001,"ADDRESS":"東寧路１５０號十二樓","OBJECTID":568784},"geometry":{"x":170349.69999999925,"y":2543523.910000002}},{"attributes":{"ID":568812,"DIS_CODE":0,"TOWNNAME":"東區","LI":"中西里","LIN":"28鄰","STREET":"東寧路","SECT":" ","MAREA":" ","LANE":" ","ALLEY":" ","HOUSE_NO":"１５０號十二樓之１","E_COORD97":170349.70000000001,"N_COORD97":2543523.9100000001,"ADDRESS":"東寧路１５０號十二樓之１","OBJECTID":568785},"geometry":{"x":170349.69999999925,"y":2543523.910000002}},{"attributes":{"ID":568813,"DIS_CODE":0,"TOWNNAME":"東區","LI":"中西里","LIN":"28鄰","STREET":"東寧路","SECT":" ","MAREA":" ","LANE":" ","ALLEY":" ","HOUSE_NO":"１５０號十二樓之２","E_COORD97":170349.70000000001,"N_COORD97":2543523.9100000001,"ADDRESS":"東寧路１５０號十二樓之２","OBJECTID":568786},"geometry":{"x":170349.69999999925,"y":2543523.910000002}},{"attributes":{"ID":568814,"DIS_CODE":0,"TOWNNAME":"東區","LI":"中西里","LIN":"28鄰","STREET":"東寧路","SECT":" ","MAREA":" ","LANE":" ","ALLEY":" ","HOUSE_NO":"１５０號十二樓之３","E_COORD97":170349.70000000001,"N_COORD97":2543523.9100000001,"ADDRESS":"東寧路１５０號十二樓之３","OBJECTID":568787},"geometry":{"x":170349.69999999925,"y":2543523.910000002}},{"attributes":{"ID":568815,"DIS_CODE":0,"TOWNNAME":"東區","LI":"中西里","LIN":"28鄰","STREET":"東寧路","SECT":" ","MAREA":" ","LANE":" ","ALLEY":" ","HOUSE_NO":"１５４號之６三樓","E_COORD97":170343.09,"N_COORD97":2543504.0899999999,"ADDRESS":"東寧路１５４號之６三樓","OBJECTID":568788},"geometry":{"x":170343.08999999985,"y":2543504.0899999999}},{"attributes":{"ID":568816,"DIS_CODE":0,"TOWNNAME":"東區","LI":"中西里","LIN":"28鄰","STREET":"東寧路","SECT":" ","MAREA":" ","LANE":" ","ALLEY":" ","HOUSE_NO":"１５４號之６四樓","E_COORD97":170343.09,"N_COORD97":2543504.0899999999,"ADDRESS":"東寧路１５４號之６四樓","OBJECTID":568789},"geometry":{"x":170343.08999999985,"y":2543504.0899999999}},{"attributes":{"ID":568817,"DIS_CODE":0,"TOWNNAME":"東區","LI":"中西里","LIN":"28鄰","STREET":"東寧路","SECT":" ","MAREA":" ","LANE":" ","ALLEY":" ","HOUSE_NO":"１５４號之６五樓","E_COORD97":170343.09,"N_COORD97":2543504.0899999999,"ADDRESS":"東寧路１５４號之６五樓","OBJECTID":568790},"geometry":{"x":170343.08999999985,"y":2543504.0899999999}},{"attributes":{"ID":568818,"DIS_CODE":0,"TOWNNAME":"東區","LI":"中西里","LIN":"28鄰","STREET":"東寧路","SECT":" ","MAREA":" ","LANE":" ","ALLEY":" ","HOUSE_NO":"１５４號之６六樓","E_COORD97":170343.09,"N_COORD97":2543504.0899999999,"ADDRESS":"東寧路１５４號之６六樓","OBJECTID":568791},"geometry":{"x":170343.08999999985,"y":2543504.0899999999}},{"attributes":{"ID":568819,"DIS_CODE":0,"TOWNNAME":"東區","LI":"中西里","LIN":"28鄰","STREET":"東寧路","SECT":" ","MAREA":" ","LANE":" ","ALLEY":" ","HOUSE_NO":"１５４號之６七樓","E_COORD97":170343.09,"N_COORD97":2543504.0899999999,"ADDRESS":"東寧路１５４號之６七樓","OBJECTID":568792},"geometry":{"x":170343.08999999985,"y":2543504.0899999999}},{"attributes":{"ID":568820,"DIS_CODE":0,"TOWNNAME":"東區","LI":"中西里","LIN":"28鄰","STREET":"東寧路","SECT":" ","MAREA":" ","LANE":" ","ALLEY":" ","HOUSE_NO":"１５４號之６八樓","E_COORD97":170343.09,"N_COORD97":2543504.0899999999,"ADDRESS":"東寧路１５４號之６八樓","OBJECTID":568793},"geometry":{"x":170343.08999999985,"y":2543504.0899999999}},{"attributes":{"ID":568821,"DIS_CODE":0,"TOWNNAME":"東區","LI":"中西里","LIN":"28鄰","STREET":"東寧路","SECT":" ","MAREA":" ","LANE":" ","ALLEY":" ","HOUSE_NO":"１５４號之６九樓","E_COORD97":170343.09,"N_COORD97":2543504.0899999999,"ADDRESS":"東寧路１５４號之６九樓","OBJECTID":568794},"geometry":{"x":170343.08999999985,"y":2543504.0899999999}},{"attributes":{"ID":568822,"DIS_CODE":0,"TOWNNAME":"東區","LI":"中西里","LIN":"28鄰","STREET":"東寧路","SECT":" ","MAREA":" ","LANE":" ","ALLEY":" ","HOUSE_NO":"１５４號之６十樓","E_COORD97":170343.09,"N_COORD97":2543504.0899999999,"ADDRESS":"東寧路１５４號之６十樓","OBJECTID":568795},"geometry":{"x":170343.08999999985,"y":2543504.0899999999}},{"attributes":{"ID":568823,"DIS_CODE":0,"TOWNNAME":"東區","LI":"中西里","LIN":"28鄰","STREET":"東寧路","SECT":" ","MAREA":" ","LANE":" ","ALLEY":" ","HOUSE_NO":"１５４號之６十一樓","E_COORD97":170343.09,"N_COORD97":2543504.0899999999,"ADDRESS":"東寧路１５４號之６十一樓","OBJECTID":568796},"geometry":{"x":170343.08999999985,"y":2543504.0899999999}},{"attributes":{"ID":568824,"DIS_CODE":0,"TOWNNAME":"東區","LI":"中西里","LIN":"28鄰","STREET":"東寧路","SECT":" ","MAREA":" ","LANE":" ","ALLEY":" ","HOUSE_NO":"１５４號之６十二樓","E_COORD97":170343.09,"N_COORD97":2543504.0899999999,"ADDRESS":"東寧路１５４號之６十二樓","OBJECTID":568797},"geometry":{"x":170343.08999999985,"y":2543504.0899999999}},{"attributes":{"ID":568825,"DIS_CODE":0,"TOWNNAME":"東區","LI":"中西里","LIN":"28鄰","STREET":"東寧路","SECT":" ","MAREA":" ","LANE":" ","ALLEY":" ","HOUSE_NO":"１５４號之７三樓","E_COORD97":170337.32000000001,"N_COORD97":2543502.2599999998,"ADDRESS":"東寧路１５４號之７三樓","OBJECTID":568798},"geometry":{"x":170337.32000000216,"y":2543502.2599999998}},{"attributes":{"ID":568826,"DIS_CODE":0,"TOWNNAME":"東區","LI":"中西里","LIN":"28鄰","STREET":"東寧路","SECT":" ","MAREA":" ","LANE":" ","ALLEY":" ","HOUSE_NO":"１５４號之７四樓","E_COORD97":170337.32000000001,"N_COORD97":2543502.2599999998,"ADDRESS":"東寧路１５４號之７四樓","OBJECTID":568799},"geometry":{"x":170337.32000000216,"y":2543502.2599999998}},{"attributes":{"ID":568827,"DIS_CODE":0,"TOWNNAME":"東區","LI":"中西里","LIN":"28鄰","STREET":"東寧路","SECT":" ","MAREA":" ","LANE":" ","ALLEY":" ","HOUSE_NO":"１５４號之７五樓","E_COORD97":170337.32000000001,"N_COORD97":2543502.2599999998,"ADDRESS":"東寧路１５４號之７五樓","OBJECTID":568800},"geometry":{"x":170337.32000000216,"y":2543502.2599999998}}]}