{"displayFieldName":"TOWNNAME","fieldAliases":{"ID":"ID","DIS_CODE":"DIS_CODE","TOWNNAME":"TOWNNAME","LI":"LI","LIN":"LIN","STREET":"STREET","SECT":"SECT","MAREA":"MAREA","LANE":"LANE","ALLEY":"ALLEY","HOUSE_NO":"HOUSE_NO","E_COORD97":"E_COORD97","N_COORD97":"N_COORD97","ADDRESS":"ADDRESS","OBJECTID":"OBJECTID"},"geometryType":"esriGeometryPoint","spatialReference":{"wkid":102443,"latestWkid":3826},"fields":[{"name":"ID","type":"esriFieldTypeDouble","alias":"ID"},{"name":"DIS_CODE","type":"esriFieldTypeInteger","alias":"DIS_CODE"},{"name":"TOWNNAME","type":"esriFieldTypeString","alias":"TOWNNAME","length":8},{"name":"LI","type":"esriFieldTypeString","alias":"LI","length":8},{"name":"LIN","type":"esriFieldTypeString","alias":"LIN","length":12},{"name":"STREET","type":"esriFieldTypeString","alias":"STREET","length":20},{"name":"SECT","type":"esriFieldTypeString","alias":"SECT","length":8},{"name":"MAREA","type":"esriFieldTypeString","alias":"MAREA","length":12},{"name":"LANE","type":"esriFieldTypeString","alias":"LANE","length":10},{"name":"ALLEY","type":"esriFieldTypeString","alias":"ALLEY","length":10},{"name":"HOUSE_NO","type":"esriFieldTypeString","alias":"HOUSE_NO","length":20},{"name":"E_COORD97","type":"esriFieldTypeDouble","alias":"E_COORD97"},{"name":"N_COORD97","type":"esriFieldTypeDouble","alias":"N_COORD97"},{"name":"ADDRESS","type":"esriFieldTypeString","alias":"ADDRESS","length":50},{"name":"OBJECTID","type":"esriFieldTypeOID","alias":"OBJECTID"}],"features":[{"attributes":{"ID":523828,"DIS_CODE":0,"TOWNNAME":"東區","LI":"東光里","LIN":"6鄰","STREET":"凱旋路","SECT":" ","MAREA":" ","LANE":" ","ALLEY":" ","HOUSE_NO":"１０５號八樓之３","E_COORD97":171036.95000000001,"N_COORD97":2543702.1000000001,"ADDRESS":"凱旋路１０５號八樓之３","OBJECTID":523801},"geometry":{"x":171036.95000000112,"y":2543702.1000000015}},{"attributes":{"ID":523829,"DIS_CODE":0,"TOWNNAME":"東區","LI":"東光里","LIN":"6鄰","STREET":"凱旋路","SECT":" ","MAREA":" ","LANE":" ","ALLEY":" ","HOUSE_NO":"１０５號九樓之３","E_COORD97":171036.95000000001,"N_COORD97":2543702.1000000001,"ADDRESS":"凱旋路１０５號九樓之３","OBJECTID":523802},"geometry":{"x":171036.95000000112,"y":2543702.1000000015}},{"attributes":{"ID":523830,"DIS_CODE":0,"TOWNNAME":"東區","LI":"東光里","LIN":"6鄰","STREET":"凱旋路","SECT":" ","MAREA":" ","LANE":" ","ALLEY":" ","HOUSE_NO":"１０５號十樓之３","E_COORD97":171036.95000000001,"N_COORD97":2543702.1000000001,"ADDRESS":"凱旋路１０５號十樓之３","OBJECTID":523803},"geometry":{"x":171036.95000000112,"y":2543702.1000000015}},{"attributes":{"ID":523831,"DIS_CODE":0,"TOWNNAME":"東區","LI":"東光里","LIN":"6鄰","STREET":"凱旋路","SECT":" ","MAREA":" ","LANE":" ","ALLEY":" ","HOUSE_NO":"１０５號十一樓之３","E_COORD97":171036.95000000001,"N_COORD97":2543702.1000000001,"ADDRESS":"凱旋路１０５號十一樓之３","OBJECTID":523804},"geometry":{"x":171036.95000000112,"y":2543702.1000000015}},{"attributes":{"ID":523832,"DIS_CODE":0,"TOWNNAME":"東區","LI":"東光里","LIN":"6鄰","STREET":"凱旋路","SECT":" ","MAREA":" ","LANE":" ","ALLEY":" ","HOUSE_NO":"１０５號十二樓之３","E_COORD97":171036.95000000001,"N_COORD97":2543702.1000000001,"ADDRESS":"凱旋路１０５號十二樓之３","OBJECTID":523805},"geometry":{"x":171036.95000000112,"y":2543702.1000000015}},{"attributes":{"ID":523833,"DIS_CODE":0,"TOWNNAME":"東區","LI":"東光里","LIN":"6鄰","STREET":"凱旋路","SECT":" ","MAREA":" ","LANE":" ","ALLEY":" ","HOUSE_NO":"１０５號十三樓之３","E_COORD97":171036.95000000001,"N_COORD97":2543702.1000000001,"ADDRESS":"凱旋路１０５號十三樓之３","OBJECTID":523806},"geometry":{"x":171036.95000000112,"y":2543702.1000000015}},{"attributes":{"ID":523834,"DIS_CODE":0,"TOWNNAME":"東區","LI":"東光里","LIN":"6鄰","STREET":"凱旋路","SECT":" ","MAREA":" ","LANE":" ","ALLEY":" ","HOUSE_NO":"１０５號十四樓之３","E_COORD97":171036.95000000001,"N_COORD97":2543702.1000000001,"ADDRESS":"凱旋路１０５號十四樓之３","OBJECTID":523807},"geometry":{"x":171036.95000000112,"y":2543702.1000000015}},{"attributes":{"ID":523835,"DIS_CODE":0,"TOWNNAME":"中西區","LI":"三民里","LIN":"6鄰","STREET":"公園路","SECT":" ","MAREA":" ","LANE":" ","ALLEY":" ","HOUSE_NO":"２５號一樓之１","E_COORD97":168506.87,"N_COORD97":2543834.7799999998,"ADDRESS":"公園路２５號一樓之１","OBJECTID":523808},"geometry":{"x":168506.87000000011,"y":2543834.7799999993}},{"attributes":{"ID":523836,"DIS_CODE":0,"TOWNNAME":"中西區","LI":"三民里","LIN":"6鄰","STREET":"公園路","SECT":" ","MAREA":" ","LANE":" ","ALLEY":" ","HOUSE_NO":"２５號一樓之２","E_COORD97":168506.87,"N_COORD97":2543834.7799999998,"ADDRESS":"公園路２５號一樓之２","OBJECTID":523809},"geometry":{"x":168506.87000000011,"y":2543834.7799999993}},{"attributes":{"ID":523837,"DIS_CODE":0,"TOWNNAME":"中西區","LI":"三民里","LIN":"6鄰","STREET":"公園路","SECT":" ","MAREA":" ","LANE":" ","ALLEY":" ","HOUSE_NO":"２５號七樓之１","E_COORD97":168506.87,"N_COORD97":2543834.7799999998,"ADDRESS":"公園路２５號七樓之１","OBJECTID":523810},"geometry":{"x":168506.87000000011,"y":2543834.7799999993}},{"attributes":{"ID":523838,"DIS_CODE":0,"TOWNNAME":"中西區","LI":"三民里","LIN":"6鄰","STREET":"公園路","SECT":" ","MAREA":" ","LANE":" ","ALLEY":" ","HOUSE_NO":"２５號七樓之２","E_COORD97":168506.87,"N_COORD97":2543834.7799999998,"ADDRESS":"公園路２５號七樓之２","OBJECTID":523811},"geometry":{"x":168506.87000000011,"y":2543834.7799999993}},{"attributes":{"ID":523839,"DIS_CODE":0,"TOWNNAME":"中西區","LI":"三民里","LIN":"6鄰","STREET":"公園路","SECT":" ","MAREA":" ","LANE":" ","ALLEY":" ","HOUSE_NO":"２５號七樓之３","E_COORD97":168506.87,"N_COORD97":2543834.7799999998,"ADDRESS":"公園路２５號七樓之３","OBJECTID":523812},"geometry":{"x":168506.87000000011,"y":2543834.7799999993}},{"attributes":{"ID":523840,"DIS_CODE":0,"TOWNNAME":"中西區","LI":"三民里","LIN":"6鄰","STREET":"公園路","SECT":" ","MAREA":" ","LANE":" ","ALLEY":" ","HOUSE_NO":"２５號七樓之４","E_COORD97":168506.87,"N_COORD97":2543834.7799999998,"ADDRESS":"公園路２５號七樓之４","OBJECTID":523813},"geometry":{"x":168506.87000000011,"y":2543834.7799999993}},{"attributes":{"ID":523841,"DIS_CODE":0,"TOWNNAME":"中西區","LI":"三民里","LIN":"6鄰","STREET":"公園路","SECT":" ","MAREA":" ","LANE":" ","ALLEY":" ","HOUSE_NO":"２５號七樓之５","E_COORD97":168506.87,"N_COORD97":2543834.7799999998,"ADDRESS":"公園路２５號七樓之５","OBJECTID":523814},"geometry":{"x":168506.87000000011,"y":2543834.7799999993}},{"attributes":{"ID":523842,"DIS_CODE":0,"TOWNNAME":"中西區","LI":"三民里","LIN":"6鄰","STREET":"公園路","SECT":" ","MAREA":" ","LANE":" ","ALLEY":" ","HOUSE_NO":"２５號七樓之６","E_COORD97":168506.87,"N_COORD97":2543834.7799999998,"ADDRESS":"公園路２５號七樓之６","OBJECTID":523815},"geometry":{"x":168506.87000000011,"y":2543834.7799999993}},{"attributes":{"ID":523843,"DIS_CODE":0,"TOWNNAME":"中西區","LI":"三民里","LIN":"6鄰","STREET":"公園路","SECT":" ","MAREA":" ","LANE":" ","ALLEY":" ","HOUSE_NO":"２５號七樓之７","E_COORD97":168506.87,"N_COORD97":2543834.7799999998,"ADDRESS":"公園路２５號七樓之７","OBJECTID":523816},"geometry":{"x":168506.87000000011,"y":2543834.7799999993}},{"attributes":{"ID":523844,"DIS_CODE":0,"TOWNNAME":"中西區","LI":"三民里","LIN":"6鄰","STREET":"公園路","SECT":" ","MAREA":" ","LANE":" ","ALLEY":" ","HOUSE_NO":"２５號七樓之８","E_COORD97":168506.87,"N_COORD97":2543834.7799999998,"ADDRESS":"公園路２５號七樓之８","OBJECTID":523817},"geometry":{"x":168506.87000000011,"y":2543834.7799999993}},{"attributes":{"ID":523845,"DIS_CODE":0,"TOWNNAME":"中西區","LI":"三民里","LIN":"6鄰","STREET":"公園路","SECT":" ","MAREA":" ","LANE":" ","ALLEY":" ","HOUSE_NO":"２５號九樓之１","E_COORD97":168506.87,"N_COORD97":2543834.7799999998,"ADDRESS":"公園路２５號九樓之１","OBJECTID":523818},"geometry":{"x":168506.87000000011,"y":2543834.7799999993}},{"attributes":{"ID":523846,"DIS_CODE":0,"TOWNNAME":"中西區","LI":"三民里","LIN":"6鄰","STREET":"公園路","SECT":" ","MAREA":" ","LANE":" ","ALLEY":" ","HOUSE_NO":"２５號九樓之２","E_COORD97":168506.87,"N_COORD97":2543834.7799999998,"ADDRESS":"公園路２５號九樓之２","OBJECTID":523819},"geometry":{"x":168506.87000000011,"y":2543834.7799999993}},{"attributes":{"ID":523847,"DIS_CODE":0,"TOWNNAME":"中西區","LI":"三民里","LIN":"6鄰","STREET":"公園路","SECT":" ","MAREA":" ","LANE":" ","ALLEY":" ","HOUSE_NO":"２５號九樓之３","E_COORD97":168506.87,"N_COORD97":2543834.7799999998,"ADDRESS":"公園路２５號九樓之３","OBJECTID":523820},"geometry":{"x":168506.87000000011,"y":2543834.7799999993}},{"attributes":{"ID":523848,"DIS_CODE":0,"TOWNNAME":"中西區","LI":"三民里","LIN":"6鄰","STREET":"公園路","SECT":" ","MAREA":" ","LANE":" ","ALLEY":" ","HOUSE_NO":"２５號九樓之４","E_COORD97":168506.87,"N_COORD97":2543834.7799999998,"ADDRESS":"公園路２５號九樓之４","OBJECTID":523821},"geometry":{"x":168506.87000000011,"y":2543834.7799999993}},{"attributes":{"ID":523849,"DIS_CODE":0,"TOWNNAME":"中西區","LI":"三民里","LIN":"6鄰","STREET":"公園路","SECT":" ","MAREA":" ","LANE":" ","ALLEY":" ","HOUSE_NO":"２５號九樓之５","E_COORD97":168506.87,"N_COORD97":2543834.7799999998,"ADDRESS":"公園路２５號九樓之５","OBJECTID":523822},"geometry":{"x":168506.87000000011,"y":2543834.7799999993}},{"attributes":{"ID":523850,"DIS_CODE":0,"TOWNNAME":"中西區","LI":"三民里","LIN":"6鄰","STREET":"公園路","SECT":" ","MAREA":" ","LANE":" ","ALLEY":" ","HOUSE_NO":"２５號九樓之６","E_COORD97":168506.87,"N_COORD97":2543834.7799999998,"ADDRESS":"公園路２５號九樓之６","OBJECTID":523823},"geometry":{"x":168506.87000000011,"y":2543834.7799999993}},{"attributes":{"ID":523851,"DIS_CODE":0,"TOWNNAME":"中西區","LI":"三民里","LIN":"6鄰","STREET":"公園路","SECT":" ","MAREA":" ","LANE":" ","ALLEY":" ","HOUSE_NO":"２５號二樓之１","E_COORD97":168506.87,"N_COORD97":2543834.7799999998,"ADDRESS":"公園路２５號二樓之１","OBJECTID":523824},"geometry":{"x":168506.87000000011,"y":2543834.7799999993}},{"attributes":{"ID":523852,"DIS_CODE":0,"TOWNNAME":"中西區","LI":"三民里","LIN":"6鄰","STREET":"公園路","SECT":" ","MAREA":" ","LANE":" ","ALLEY":" ","HOUSE_NO":"２５號八樓之１","E_COORD97":168506.87,"N_COORD97":2543834.7799999998,"ADDRESS":"公園路２５號八樓之１","OBJECTID":523825},"geometry":{"x":168506.87000000011,"y":2543834.7799999993}},{"attributes":{"ID":523853,"DIS_CODE":0,"TOWNNAME":"中西區","LI":"三民里","LIN":"6鄰","STREET":"公園路","SECT":" ","MAREA":" ","LANE":" ","ALLEY":" ","HOUSE_NO":"２５號八樓之２","E_COORD97":168506.87,"N_COORD97":2543834.7799999998,"ADDRESS":"公園路２５號八樓之２","OBJECTID":523826},"geometry":{"x":168506.87000000011,"y":2543834.7799999993}},{"attributes":{"ID":523854,"DIS_CODE":0,"TOWNNAME":"中西區","LI":"三民里","LIN":"6鄰","STREET":"公園路","SECT":" ","MAREA":" ","LANE":" ","ALLEY":" ","HOUSE_NO":"２５號八樓之３","E_COORD97":168506.87,"N_COORD97":2543834.7799999998,"ADDRESS":"公園路２５號八樓之３","OBJECTID":523827},"geometry":{"x":168506.87000000011,"y":2543834.7799999993}},{"attributes":{"ID":523855,"DIS_CODE":0,"TOWNNAME":"中西區","LI":"三民里","LIN":"6鄰","STREET":"公園路","SECT":" ","MAREA":" ","LANE":" ","ALLEY":" ","HOUSE_NO":"２５號八樓之４","E_COORD97":168506.87,"N_COORD97":2543834.7799999998,"ADDRESS":"公園路２５號八樓之４","OBJECTID":523828},"geometry":{"x":168506.87000000011,"y":2543834.7799999993}},{"attributes":{"ID":523856,"DIS_CODE":0,"TOWNNAME":"中西區","LI":"三民里","LIN":"6鄰","STREET":"公園路","SECT":" ","MAREA":" ","LANE":" ","ALLEY":" ","HOUSE_NO":"２５號八樓之５","E_COORD97":168506.87,"N_COORD97":2543834.7799999998,"ADDRESS":"公園路２５號八樓之５","OBJECTID":523829},"geometry":{"x":168506.87000000011,"y":2543834.7799999993}},{"attributes":{"ID":523857,"DIS_CODE":0,"TOWNNAME":"中西區","LI":"三民里","LIN":"6鄰","STREET":"公園路","SECT":" ","MAREA":" ","LANE":" ","ALLEY":" ","HOUSE_NO":"２５號八樓之６","E_COORD97":168506.87,"N_COORD97":2543834.7799999998,"ADDRESS":"公園路２５號八樓之６","OBJECTID":523830},"geometry":{"x":168506.87000000011,"y":2543834.7799999993}},{"attributes":{"ID":523858,"DIS_CODE":0,"TOWNNAME":"中西區","LI":"三民里","LIN":"6鄰","STREET":"公園路","SECT":" ","MAREA":" ","LANE":" ","ALLEY":" ","HOUSE_NO":"２５號八樓之７","E_COORD97":168506.87,"N_COORD97":2543834.7799999998,"ADDRESS":"公園路２５號八樓之７","OBJECTID":523831},"geometry":{"x":168506.87000000011,"y":2543834.7799999993}},{"attributes":{"ID":523859,"DIS_CODE":0,"TOWNNAME":"中西區","LI":"三民里","LIN":"6鄰","STREET":"公園路","SECT":" ","MAREA":" ","LANE":" ","ALLEY":" ","HOUSE_NO":"２５號三樓之１","E_COORD97":168506.87,"N_COORD97":2543834.7799999998,"ADDRESS":"公園路２５號三樓之１","OBJECTID":523832},"geometry":{"x":168506.87000000011,"y":2543834.7799999993}},{"attributes":{"ID":523860,"DIS_CODE":0,"TOWNNAME":"中西區","LI":"三民里","LIN":"6鄰","STREET":"公園路","SECT":" ","MAREA":" ","LANE":" ","ALLEY":" ","HOUSE_NO":"２５號三樓之２","E_COORD97":168506.87,"N_COORD97":2543834.7799999998,"ADDRESS":"公園路２５號三樓之２","OBJECTID":523833},"geometry":{"x":168506.87000000011,"y":2543834.7799999993}},{"attributes":{"ID":523861,"DIS_CODE":0,"TOWNNAME":"中西區","LI":"三民里","LIN":"6鄰","STREET":"公園路","SECT":" ","MAREA":" ","LANE":" ","ALLEY":" ","HOUSE_NO":"２５號五樓之１","E_COORD97":168506.87,"N_COORD97":2543834.7799999998,"ADDRESS":"公園路２５號五樓之１","OBJECTID":523834},"geometry":{"x":168506.87000000011,"y":2543834.7799999993}},{"attributes":{"ID":523862,"DIS_CODE":0,"TOWNNAME":"中西區","LI":"三民里","LIN":"6鄰","STREET":"公園路","SECT":" ","MAREA":" ","LANE":" ","ALLEY":" ","HOUSE_NO":"２５號五樓之２","E_COORD97":168506.87,"N_COORD97":2543834.7799999998,"ADDRESS":"公園路２５號五樓之２","OBJECTID":523835},"geometry":{"x":168506.87000000011,"y":2543834.7799999993}},{"attributes":{"ID":523863,"DIS_CODE":0,"TOWNNAME":"中西區","LI":"三民里","LIN":"6鄰","STREET":"公園路","SECT":" ","MAREA":" ","LANE":" ","ALLEY":" ","HOUSE_NO":"２５號五樓之３","E_COORD97":168506.87,"N_COORD97":2543834.7799999998,"ADDRESS":"公園路２５號五樓之３","OBJECTID":523836},"geometry":{"x":168506.87000000011,"y":2543834.7799999993}},{"attributes":{"ID":523864,"DIS_CODE":0,"TOWNNAME":"中西區","LI":"三民里","LIN":"6鄰","STREET":"公園路","SECT":" ","MAREA":" ","LANE":" ","ALLEY":" ","HOUSE_NO":"２５號五樓之５","E_COORD97":168506.87,"N_COORD97":2543834.7799999998,"ADDRESS":"公園路２５號五樓之５","OBJECTID":523837},"geometry":{"x":168506.87000000011,"y":2543834.7799999993}},{"attributes":{"ID":523865,"DIS_CODE":0,"TOWNNAME":"中西區","LI":"三民里","LIN":"6鄰","STREET":"公園路","SECT":" ","MAREA":" ","LANE":" ","ALLEY":" ","HOUSE_NO":"２５號五樓之６","E_COORD97":168506.87,"N_COORD97":2543834.7799999998,"ADDRESS":"公園路２５號五樓之６","OBJECTID":523838},"geometry":{"x":168506.87000000011,"y":2543834.7799999993}},{"attributes":{"ID":523866,"DIS_CODE":0,"TOWNNAME":"中西區","LI":"三民里","LIN":"6鄰","STREET":"公園路","SECT":" ","MAREA":" ","LANE":" ","ALLEY":" ","HOUSE_NO":"２５號五樓之７","E_COORD97":168506.87,"N_COORD97":2543834.7799999998,"ADDRESS":"公園路２５號五樓之７","OBJECTID":523839},"geometry":{"x":168506.87000000011,"y":2543834.7799999993}},{"attributes":{"ID":523867,"DIS_CODE":0,"TOWNNAME":"中西區","LI":"三民里","LIN":"6鄰","STREET":"公園路","SECT":" ","MAREA":" ","LANE":" ","ALLEY":" ","HOUSE_NO":"２５號五樓之８","E_COORD97":168506.87,"N_COORD97":2543834.7799999998,"ADDRESS":"公園路２５號五樓之８","OBJECTID":523840},"geometry":{"x":168506.87000000011,"y":2543834.7799999993}},{"attributes":{"ID":523868,"DIS_CODE":0,"TOWNNAME":"中西區","LI":"三民里","LIN":"6鄰","STREET":"公園路","SECT":" ","MAREA":" ","LANE":" ","ALLEY":" ","HOUSE_NO":"２５號六樓之１","E_COORD97":168506.87,"N_COORD97":2543834.7799999998,"ADDRESS":"公園路２５號六樓之１","OBJECTID":523841},"geometry":{"x":168506.87000000011,"y":2543834.7799999993}},{"attributes":{"ID":523869,"DIS_CODE":0,"TOWNNAME":"中西區","LI":"三民里","LIN":"6鄰","STREET":"公園路","SECT":" ","MAREA":" ","LANE":" ","ALLEY":" ","HOUSE_NO":"２５號六樓之２","E_COORD97":168506.87,"N_COORD97":2543834.7799999998,"ADDRESS":"公園路２５號六樓之２","OBJECTID":523842},"geometry":{"x":168506.87000000011,"y":2543834.7799999993}},{"attributes":{"ID":523870,"DIS_CODE":0,"TOWNNAME":"中西區","LI":"三民里","LIN":"6鄰","STREET":"公園路","SECT":" ","MAREA":" ","LANE":" ","ALLEY":" ","HOUSE_NO":"２５號六樓之３","E_COORD97":168506.87,"N_COORD97":2543834.7799999998,"ADDRESS":"公園路２５號六樓之３","OBJECTID":523843},"geometry":{"x":168506.87000000011,"y":2543834.7799999993}},{"attributes":{"ID":523871,"DIS_CODE":0,"TOWNNAME":"中西區","LI":"三民里","LIN":"6鄰","STREET":"公園路","SECT":" ","MAREA":" ","LANE":" ","ALLEY":" ","HOUSE_NO":"２５號六樓之４","E_COORD97":168506.87,"N_COORD97":2543834.7799999998,"ADDRESS":"公園路２５號六樓之４","OBJECTID":523844},"geometry":{"x":168506.87000000011,"y":2543834.7799999993}},{"attributes":{"ID":523872,"DIS_CODE":0,"TOWNNAME":"中西區","LI":"三民里","LIN":"6鄰","STREET":"公園路","SECT":" ","MAREA":" ","LANE":" ","ALLEY":" ","HOUSE_NO":"２５號六樓之５","E_COORD97":168506.87,"N_COORD97":2543834.7799999998,"ADDRESS":"公園路２５號六樓之５","OBJECTID":523845},"geometry":{"x":168506.87000000011,"y":2543834.7799999993}},{"attributes":{"ID":523873,"DIS_CODE":0,"TOWNNAME":"中西區","LI":"三民里","LIN":"6鄰","STREET":"公園路","SECT":" ","MAREA":" ","LANE":" ","ALLEY":" ","HOUSE_NO":"２５號六樓之６","E_COORD97":168506.87,"N_COORD97":2543834.7799999998,"ADDRESS":"公園路２５號六樓之６","OBJECTID":523846},"geometry":{"x":168506.87000000011,"y":2543834.7799999993}},{"attributes":{"ID":523874,"DIS_CODE":0,"TOWNNAME":"中西區","LI":"三民里","LIN":"6鄰","STREET":"公園路","SECT":" ","MAREA":" ","LANE":" ","ALLEY":" ","HOUSE_NO":"２５號六樓之７","E_COORD97":168506.87,"N_COORD97":2543834.7799999998,"ADDRESS":"公園路２５號六樓之７","OBJECTID":523847},"geometry":{"x":168506.87000000011,"y":2543834.7799999993}},{"attributes":{"ID":523875,"DIS_CODE":0,"TOWNNAME":"中西區","LI":"三民里","LIN":"6鄰","STREET":"公園路","SECT":" ","MAREA":" ","LANE":" ","ALLEY":" ","HOUSE_NO":"２５號六樓之８","E_COORD97":168506.87,"N_COORD97":2543834.7799999998,"ADDRESS":"公園路２５號六樓之８","OBJECTID":523848},"geometry":{"x":168506.87000000011,"y":2543834.7799999993}},{"attributes":{"ID":523876,"DIS_CODE":0,"TOWNNAME":"中西區","LI":"三民里","LIN":"6鄰","STREET":"公園路","SECT":" ","MAREA":" ","LANE":" ","ALLEY":" ","HOUSE_NO":"２５號四樓之１","E_COORD97":168506.87,"N_COORD97":2543834.7799999998,"ADDRESS":"公園路２５號四樓之１","OBJECTID":523849},"geometry":{"x":168506.87000000011,"y":2543834.7799999993}},{"attributes":{"ID":523877,"DIS_CODE":0,"TOWNNAME":"中西區","LI":"三民里","LIN":"6鄰","STREET":"公園路","SECT":" ","MAREA":" ","LANE":" ","ALLEY":" ","HOUSE_NO":"２５號四樓之２","E_COORD97":168506.87,"N_COORD97":2543834.7799999998,"ADDRESS":"公園路２５號四樓之２","OBJECTID":523850},"geometry":{"x":168506.87000000011,"y":2543834.7799999993}},{"attributes":{"ID":523878,"DIS_CODE":0,"TOWNNAME":"中西區","LI":"三民里","LIN":"6鄰","STREET":"公園路","SECT":" ","MAREA":" ","LANE":" ","ALLEY":" ","HOUSE_NO":"２５號四樓之３","E_COORD97":168506.87,"N_COORD97":2543834.7799999998,"ADDRESS":"公園路２５號四樓之３","OBJECTID":523851},"geometry":{"x":168506.87000000011,"y":2543834.7799999993}},{"attributes":{"ID":523879,"DIS_CODE":0,"TOWNNAME":"中西區","LI":"三民里","LIN":"6鄰","STREET":"公園路","SECT":" ","MAREA":" ","LANE":" ","ALLEY":" ","HOUSE_NO":"２５號四樓之４","E_COORD97":168506.87,"N_COORD97":2543834.7799999998,"ADDRESS":"公園路２５號四樓之４","OBJECTID":523852},"geometry":{"x":168506.87000000011,"y":2543834.7799999993}},{"attributes":{"ID":523880,"DIS_CODE":0,"TOWNNAME":"中西區","LI":"三民里","LIN":"6鄰","STREET":"公園路","SECT":" ","MAREA":" ","LANE":" ","ALLEY":" ","HOUSE_NO":"２５號四樓之５","E_COORD97":168506.87,"N_COORD97":2543834.7799999998,"ADDRESS":"公園路２５號四樓之５","OBJECTID":523853},"geometry":{"x":168506.87000000011,"y":2543834.7799999993}},{"attributes":{"ID":523881,"DIS_CODE":0,"TOWNNAME":"中西區","LI":"三民里","LIN":"6鄰","STREET":"公園路","SECT":" ","MAREA":" ","LANE":" ","ALLEY":" ","HOUSE_NO":"２５號四樓之６","E_COORD97":168506.87,"N_COORD97":2543834.7799999998,"ADDRESS":"公園路２５號四樓之６","OBJECTID":523854},"geometry":{"x":168506.87000000011,"y":2543834.7799999993}},{"attributes":{"ID":523882,"DIS_CODE":0,"TOWNNAME":"中西區","LI":"三民里","LIN":"6鄰","STREET":"公園路","SECT":" ","MAREA":" ","LANE":" ","ALLEY":" ","HOUSE_NO":"２５號四樓之７","E_COORD97":168506.87,"N_COORD97":2543834.7799999998,"ADDRESS":"公園路２５號四樓之７","OBJECTID":523855},"geometry":{"x":168506.87000000011,"y":2543834.7799999993}},{"attributes":{"ID":523883,"DIS_CODE":0,"TOWNNAME":"中西區","LI":"三民里","LIN":"6鄰","STREET":"公園路","SECT":" ","MAREA":" ","LANE":" ","ALLEY":" ","HOUSE_NO":"２５號四樓之８","E_COORD97":168506.87,"N_COORD97":2543834.7799999998,"ADDRESS":"公園路２５號四樓之８","OBJECTID":523856},"geometry":{"x":168506.87000000011,"y":2543834.7799999993}},{"attributes":{"ID":523884,"DIS_CODE":0,"TOWNNAME":"中西區","LI":"萬昌里","LIN":"6鄰","STREET":"民權路","SECT":"一段","MAREA":" ","LANE":" ","ALLEY":" ","HOUSE_NO":"７５號二樓","E_COORD97":168977.20000000001,"N_COORD97":2543391.3300000001,"ADDRESS":"民權路一段７５號二樓","OBJECTID":523857},"geometry":{"x":168977.20000000112,"y":2543391.3299999982}},{"attributes":{"ID":523885,"DIS_CODE":0,"TOWNNAME":"中西區","LI":"萬昌里","LIN":"6鄰","STREET":"民權路","SECT":"一段","MAREA":" ","LANE":" ","ALLEY":" ","HOUSE_NO":"７５號三樓","E_COORD97":168977.20000000001,"N_COORD97":2543391.3300000001,"ADDRESS":"民權路一段７５號三樓","OBJECTID":523858},"geometry":{"x":168977.20000000112,"y":2543391.3299999982}},{"attributes":{"ID":523886,"DIS_CODE":0,"TOWNNAME":"新化區","LI":"護國里","LIN":"6鄰","STREET":"民生路","SECT":" ","MAREA":" ","LANE":" ","ALLEY":" ","HOUSE_NO":"９９號四樓","E_COORD97":179307.35999999999,"N_COORD97":2548614.25,"ADDRESS":"民生路９９號四樓","OBJECTID":523859},"geometry":{"x":179307.36000000034,"y":2548614.2500000019}},{"attributes":{"ID":523887,"DIS_CODE":0,"TOWNNAME":"新化區","LI":"護國里","LIN":"6鄰","STREET":"民生路","SECT":" ","MAREA":" ","LANE":" ","ALLEY":" ","HOUSE_NO":"９９號二樓","E_COORD97":179307.35999999999,"N_COORD97":2548614.25,"ADDRESS":"民生路９９號二樓","OBJECTID":523860},"geometry":{"x":179307.36000000034,"y":2548614.2500000019}},{"attributes":{"ID":523888,"DIS_CODE":0,"TOWNNAME":"新化區","LI":"護國里","LIN":"6鄰","STREET":"民生路","SECT":" ","MAREA":" ","LANE":" ","ALLEY":" ","HOUSE_NO":"９９號五樓","E_COORD97":179307.35999999999,"N_COORD97":2548614.25,"ADDRESS":"民生路９９號五樓","OBJECTID":523861},"geometry":{"x":179307.36000000034,"y":2548614.2500000019}},{"attributes":{"ID":523889,"DIS_CODE":0,"TOWNNAME":"新化區","LI":"護國里","LIN":"6鄰","STREET":"民生路","SECT":" ","MAREA":" ","LANE":" ","ALLEY":" ","HOUSE_NO":"９９號三樓","E_COORD97":179307.35999999999,"N_COORD97":2548614.25,"ADDRESS":"民生路９９號三樓","OBJECTID":523862},"geometry":{"x":179307.36000000034,"y":2548614.2500000019}},{"attributes":{"ID":523890,"DIS_CODE":0,"TOWNNAME":"東區","LI":"大福里","LIN":"6鄰","STREET":"大同路","SECT":"二段","MAREA":" ","LANE":" ","ALLEY":" ","HOUSE_NO":"２４５號之２六樓之１","E_COORD97":169445.67000000001,"N_COORD97":2541762.29,"ADDRESS":"大同路二段２４５號之２六樓之１","OBJECTID":523863},"geometry":{"x":169445.66999999993,"y":2541762.2899999991}},{"attributes":{"ID":523891,"DIS_CODE":0,"TOWNNAME":"東區","LI":"大福里","LIN":"6鄰","STREET":"大同路","SECT":"二段","MAREA":" ","LANE":" ","ALLEY":" ","HOUSE_NO":"２４７號三樓之２","E_COORD97":169446.37,"N_COORD97":2541759.1600000001,"ADDRESS":"大同路二段２４７號三樓之２","OBJECTID":523864},"geometry":{"x":169446.37000000011,"y":2541759.160000002}},{"attributes":{"ID":523892,"DIS_CODE":0,"TOWNNAME":"東區","LI":"大福里","LIN":"6鄰","STREET":"大同路","SECT":"二段","MAREA":" ","LANE":" ","ALLEY":" ","HOUSE_NO":"２４７號六樓之３","E_COORD97":169446.37,"N_COORD97":2541759.1600000001,"ADDRESS":"大同路二段２４７號六樓之３","OBJECTID":523865},"geometry":{"x":169446.37000000011,"y":2541759.160000002}},{"attributes":{"ID":523893,"DIS_CODE":0,"TOWNNAME":"東區","LI":"大福里","LIN":"6鄰","STREET":"大同路","SECT":"二段","MAREA":" ","LANE":" ","ALLEY":" ","HOUSE_NO":"２４７號七樓之１","E_COORD97":169446.37,"N_COORD97":2541759.1600000001,"ADDRESS":"大同路二段２４７號七樓之１","OBJECTID":523866},"geometry":{"x":169446.37000000011,"y":2541759.160000002}},{"attributes":{"ID":523894,"DIS_CODE":0,"TOWNNAME":"東區","LI":"大福里","LIN":"6鄰","STREET":"大同路","SECT":"二段","MAREA":" ","LANE":" ","ALLEY":" ","HOUSE_NO":"２４７號七樓之２","E_COORD97":169446.37,"N_COORD97":2541759.1600000001,"ADDRESS":"大同路二段２４７號七樓之２","OBJECTID":523867},"geometry":{"x":169446.37000000011,"y":2541759.160000002}},{"attributes":{"ID":523895,"DIS_CODE":0,"TOWNNAME":"東區","LI":"大福里","LIN":"6鄰","STREET":"大同路","SECT":"二段","MAREA":" ","LANE":" ","ALLEY":" ","HOUSE_NO":"２４７號七樓之３","E_COORD97":169446.37,"N_COORD97":2541759.1600000001,"ADDRESS":"大同路二段２４７號七樓之３","OBJECTID":523868},"geometry":{"x":169446.37000000011,"y":2541759.160000002}},{"attributes":{"ID":523896,"DIS_CODE":0,"TOWNNAME":"東區","LI":"大福里","LIN":"6鄰","STREET":"大同路","SECT":"二段","MAREA":" ","LANE":" ","ALLEY":" ","HOUSE_NO":"２４７號三樓之１","E_COORD97":169446.37,"N_COORD97":2541759.1600000001,"ADDRESS":"大同路二段２４７號三樓之１","OBJECTID":523869},"geometry":{"x":169446.37000000011,"y":2541759.160000002}},{"attributes":{"ID":523897,"DIS_CODE":0,"TOWNNAME":"東區","LI":"大福里","LIN":"6鄰","STREET":"大同路","SECT":"二段","MAREA":" ","LANE":" ","ALLEY":" ","HOUSE_NO":"２４７號三樓之３","E_COORD97":169446.37,"N_COORD97":2541759.1600000001,"ADDRESS":"大同路二段２４７號三樓之３","OBJECTID":523870},"geometry":{"x":169446.37000000011,"y":2541759.160000002}},{"attributes":{"ID":523898,"DIS_CODE":0,"TOWNNAME":"東區","LI":"大福里","LIN":"6鄰","STREET":"大同路","SECT":"二段","MAREA":" ","LANE":" ","ALLEY":" ","HOUSE_NO":"２４７號四樓之１","E_COORD97":169446.37,"N_COORD97":2541759.1600000001,"ADDRESS":"大同路二段２４７號四樓之１","OBJECTID":523871},"geometry":{"x":169446.37000000011,"y":2541759.160000002}},{"attributes":{"ID":523899,"DIS_CODE":0,"TOWNNAME":"東區","LI":"大福里","LIN":"6鄰","STREET":"大同路","SECT":"二段","MAREA":" ","LANE":" ","ALLEY":" ","HOUSE_NO":"２４７號四樓之２","E_COORD97":169446.37,"N_COORD97":2541759.1600000001,"ADDRESS":"大同路二段２４７號四樓之２","OBJECTID":523872},"geometry":{"x":169446.37000000011,"y":2541759.160000002}},{"attributes":{"ID":523900,"DIS_CODE":0,"TOWNNAME":"東區","LI":"大福里","LIN":"6鄰","STREET":"大同路","SECT":"二段","MAREA":" ","LANE":" ","ALLEY":" ","HOUSE_NO":"２４７號四樓之３","E_COORD97":169446.37,"N_COORD97":2541759.1600000001,"ADDRESS":"大同路二段２４７號四樓之３","OBJECTID":523873},"geometry":{"x":169446.37000000011,"y":2541759.160000002}},{"attributes":{"ID":523901,"DIS_CODE":0,"TOWNNAME":"東區","LI":"大福里","LIN":"6鄰","STREET":"大同路","SECT":"二段","MAREA":" ","LANE":" ","ALLEY":" ","HOUSE_NO":"２４７號五樓之１","E_COORD97":169446.37,"N_COORD97":2541759.1600000001,"ADDRESS":"大同路二段２４７號五樓之１","OBJECTID":523874},"geometry":{"x":169446.37000000011,"y":2541759.160000002}},{"attributes":{"ID":523902,"DIS_CODE":0,"TOWNNAME":"東區","LI":"大福里","LIN":"6鄰","STREET":"大同路","SECT":"二段","MAREA":" ","LANE":" ","ALLEY":" ","HOUSE_NO":"２４７號五樓之２","E_COORD97":169446.37,"N_COORD97":2541759.1600000001,"ADDRESS":"大同路二段２４７號五樓之２","OBJECTID":523875},"geometry":{"x":169446.37000000011,"y":2541759.160000002}},{"attributes":{"ID":523903,"DIS_CODE":0,"TOWNNAME":"東區","LI":"大福里","LIN":"6鄰","STREET":"大同路","SECT":"二段","MAREA":" ","LANE":" ","ALLEY":" ","HOUSE_NO":"２４７號五樓之３","E_COORD97":169446.37,"N_COORD97":2541759.1600000001,"ADDRESS":"大同路二段２４７號五樓之３","OBJECTID":523876},"geometry":{"x":169446.37000000011,"y":2541759.160000002}},{"attributes":{"ID":523904,"DIS_CODE":0,"TOWNNAME":"東區","LI":"大福里","LIN":"6鄰","STREET":"大同路","SECT":"二段","MAREA":" ","LANE":" ","ALLEY":" ","HOUSE_NO":"２４７號六樓之１","E_COORD97":169446.37,"N_COORD97":2541759.1600000001,"ADDRESS":"大同路二段２４７號六樓之１","OBJECTID":523877},"geometry":{"x":169446.37000000011,"y":2541759.160000002}},{"attributes":{"ID":523905,"DIS_CODE":0,"TOWNNAME":"東區","LI":"大福里","LIN":"6鄰","STREET":"大同路","SECT":"二段","MAREA":" ","LANE":" ","ALLEY":" ","HOUSE_NO":"２４７號六樓之２","E_COORD97":169446.37,"N_COORD97":2541759.1600000001,"ADDRESS":"大同路二段２４７號六樓之２","OBJECTID":523878},"geometry":{"x":169446.37000000011,"y":2541759.160000002}},{"attributes":{"ID":523906,"DIS_CODE":0,"TOWNNAME":"東區","LI":"大福里","LIN":"6鄰","STREET":"大同路","SECT":"二段","MAREA":" ","LANE":" ","ALLEY":" ","HOUSE_NO":"２４５號之２三樓之１","E_COORD97":169445.67000000001,"N_COORD97":2541762.29,"ADDRESS":"大同路二段２４５號之２三樓之１","OBJECTID":523879},"geometry":{"x":169445.66999999993,"y":2541762.2899999991}},{"attributes":{"ID":523907,"DIS_CODE":0,"TOWNNAME":"東區","LI":"大福里","LIN":"6鄰","STREET":"大同路","SECT":"二段","MAREA":" ","LANE":" ","ALLEY":" ","HOUSE_NO":"２４５號之２三樓之２","E_COORD97":169445.67000000001,"N_COORD97":2541762.29,"ADDRESS":"大同路二段２４５號之２三樓之２","OBJECTID":523880},"geometry":{"x":169445.66999999993,"y":2541762.2899999991}},{"attributes":{"ID":523908,"DIS_CODE":0,"TOWNNAME":"東區","LI":"大福里","LIN":"6鄰","STREET":"大同路","SECT":"二段","MAREA":" ","LANE":" ","ALLEY":" ","HOUSE_NO":"２４５號之２四樓之１","E_COORD97":169445.67000000001,"N_COORD97":2541762.29,"ADDRESS":"大同路二段２４５號之２四樓之１","OBJECTID":523881},"geometry":{"x":169445.66999999993,"y":2541762.2899999991}},{"attributes":{"ID":523909,"DIS_CODE":0,"TOWNNAME":"東區","LI":"大福里","LIN":"6鄰","STREET":"大同路","SECT":"二段","MAREA":" ","LANE":" ","ALLEY":" ","HOUSE_NO":"２４５號之２四樓之２","E_COORD97":169445.67000000001,"N_COORD97":2541762.29,"ADDRESS":"大同路二段２４５號之２四樓之２","OBJECTID":523882},"geometry":{"x":169445.66999999993,"y":2541762.2899999991}},{"attributes":{"ID":523910,"DIS_CODE":0,"TOWNNAME":"仁德區","LI":"仁義里","LIN":"6鄰","STREET":"仁義二街","SECT":" ","MAREA":" ","LANE":" ","ALLEY":" ","HOUSE_NO":"５號","E_COORD97":173742.19,"N_COORD97":2541167.27,"ADDRESS":"仁義二街５號","OBJECTID":523883},"geometry":{"x":173742.19000000227,"y":2541167.2700000033}},{"attributes":{"ID":523911,"DIS_CODE":0,"TOWNNAME":"東區","LI":"大福里","LIN":"6鄰","STREET":"大同路","SECT":"二段","MAREA":" ","LANE":" ","ALLEY":" ","HOUSE_NO":"２４５號之２五樓之１","E_COORD97":169445.67000000001,"N_COORD97":2541762.29,"ADDRESS":"大同路二段２４５號之２五樓之１","OBJECTID":523884},"geometry":{"x":169445.66999999993,"y":2541762.2899999991}},{"attributes":{"ID":523912,"DIS_CODE":0,"TOWNNAME":"東區","LI":"大福里","LIN":"6鄰","STREET":"大同路","SECT":"二段","MAREA":" ","LANE":" ","ALLEY":" ","HOUSE_NO":"２４５號之２五樓之２","E_COORD97":169445.67000000001,"N_COORD97":2541762.29,"ADDRESS":"大同路二段２４５號之２五樓之２","OBJECTID":523885},"geometry":{"x":169445.66999999993,"y":2541762.2899999991}},{"attributes":{"ID":523913,"DIS_CODE":0,"TOWNNAME":"東區","LI":"大福里","LIN":"6鄰","STREET":"大同路","SECT":"二段","MAREA":" ","LANE":" ","ALLEY":" ","HOUSE_NO":"２４５號之２六樓之２","E_COORD97":169445.67000000001,"N_COORD97":2541762.29,"ADDRESS":"大同路二段２４５號之２六樓之２","OBJECTID":523886},"geometry":{"x":169445.66999999993,"y":2541762.2899999991}},{"attributes":{"ID":523914,"DIS_CODE":0,"TOWNNAME":"仁德區","LI":"土庫里","LIN":"10鄰","STREET":"土庫六街","SECT":" ","MAREA":" ","LANE":" ","ALLEY":" ","HOUSE_NO":"２６號","E_COORD97":174253.76999999999,"N_COORD97":2543287.4900000002,"ADDRESS":"土庫六街２６號","OBJECTID":523887},"geometry":{"x":174253.76999999955,"y":2543287.4900000002}},{"attributes":{"ID":523915,"DIS_CODE":0,"TOWNNAME":"東區","LI":"大福里","LIN":"6鄰","STREET":"大同路","SECT":"二段","MAREA":" ","LANE":" ","ALLEY":" ","HOUSE_NO":"２４５號之２七樓之１","E_COORD97":169445.67000000001,"N_COORD97":2541762.29,"ADDRESS":"大同路二段２４５號之２七樓之１","OBJECTID":523888},"geometry":{"x":169445.66999999993,"y":2541762.2899999991}},{"attributes":{"ID":523916,"DIS_CODE":0,"TOWNNAME":"東區","LI":"大福里","LIN":"6鄰","STREET":"大同路","SECT":"二段","MAREA":" ","LANE":" ","ALLEY":" ","HOUSE_NO":"２４５號之２七樓之２","E_COORD97":169445.67000000001,"N_COORD97":2541762.29,"ADDRESS":"大同路二段２４５號之２七樓之２","OBJECTID":523889},"geometry":{"x":169445.66999999993,"y":2541762.2899999991}},{"attributes":{"ID":523917,"DIS_CODE":0,"TOWNNAME":"永康區","LI":"大橋里","LIN":"6鄰","STREET":"大橋五街","SECT":" ","MAREA":" ","LANE":" ","ALLEY":" ","HOUSE_NO":"７６號五樓","E_COORD97":170904.60999999999,"N_COORD97":2546911.5899999999,"ADDRESS":"大橋五街７６號五樓","OBJECTID":523890},"geometry":{"x":170904.61000000034,"y":2546911.5899999999}},{"attributes":{"ID":523918,"DIS_CODE":0,"TOWNNAME":"永康區","LI":"大橋里","LIN":"6鄰","STREET":"大橋五街","SECT":" ","MAREA":" ","LANE":" ","ALLEY":" ","HOUSE_NO":"７２號五樓","E_COORD97":170899.22,"N_COORD97":2546905.8399999999,"ADDRESS":"大橋五街７２號五樓","OBJECTID":523891},"geometry":{"x":170899.22000000067,"y":2546905.8399999999}},{"attributes":{"ID":523919,"DIS_CODE":0,"TOWNNAME":"永康區","LI":"大橋里","LIN":"6鄰","STREET":"大橋五街","SECT":" ","MAREA":" ","LANE":" ","ALLEY":" ","HOUSE_NO":"７６號六樓","E_COORD97":170904.60999999999,"N_COORD97":2546911.5899999999,"ADDRESS":"大橋五街７６號六樓","OBJECTID":523892},"geometry":{"x":170904.61000000034,"y":2546911.5899999999}},{"attributes":{"ID":523920,"DIS_CODE":0,"TOWNNAME":"永康區","LI":"大橋里","LIN":"6鄰","STREET":"大橋五街","SECT":" ","MAREA":" ","LANE":" ","ALLEY":" ","HOUSE_NO":"７６號四樓","E_COORD97":170904.60999999999,"N_COORD97":2546911.5899999999,"ADDRESS":"大橋五街７６號四樓","OBJECTID":523893},"geometry":{"x":170904.61000000034,"y":2546911.5899999999}},{"attributes":{"ID":523921,"DIS_CODE":0,"TOWNNAME":"東區","LI":"東光里","LIN":"6鄰","STREET":"凱旋路","SECT":" ","MAREA":" ","LANE":" ","ALLEY":" ","HOUSE_NO":"３１號三樓之１","E_COORD97":171122.85999999999,"N_COORD97":2543708.04,"ADDRESS":"凱旋路３１號三樓之１","OBJECTID":523894},"geometry":{"x":171122.86000000034,"y":2543708.040000001}},{"attributes":{"ID":523922,"DIS_CODE":0,"TOWNNAME":"東區","LI":"東光里","LIN":"6鄰","STREET":"凱旋路","SECT":" ","MAREA":" ","LANE":" ","ALLEY":" ","HOUSE_NO":"３１號三樓之２","E_COORD97":171122.85999999999,"N_COORD97":2543708.04,"ADDRESS":"凱旋路３１號三樓之２","OBJECTID":523895},"geometry":{"x":171122.86000000034,"y":2543708.040000001}},{"attributes":{"ID":523923,"DIS_CODE":0,"TOWNNAME":"東區","LI":"東光里","LIN":"6鄰","STREET":"凱旋路","SECT":" ","MAREA":" ","LANE":" ","ALLEY":" ","HOUSE_NO":"３１號三樓之３","E_COORD97":171122.85999999999,"N_COORD97":2543708.04,"ADDRESS":"凱旋路３１號三樓之３","OBJECTID":523896},"geometry":{"x":171122.86000000034,"y":2543708.040000001}},{"attributes":{"ID":523924,"DIS_CODE":0,"TOWNNAME":"東區","LI":"東光里","LIN":"6鄰","STREET":"凱旋路","SECT":" ","MAREA":" ","LANE":" ","ALLEY":" ","HOUSE_NO":"３１號三樓之４","E_COORD97":171122.85999999999,"N_COORD97":2543708.04,"ADDRESS":"凱旋路３１號三樓之４","OBJECTID":523897},"geometry":{"x":171122.86000000034,"y":2543708.040000001}},{"attributes":{"ID":523925,"DIS_CODE":0,"TOWNNAME":"東區","LI":"東光里","LIN":"6鄰","STREET":"凱旋路","SECT":" ","MAREA":" ","LANE":" ","ALLEY":" ","HOUSE_NO":"３１號四樓之１","E_COORD97":171122.85999999999,"N_COORD97":2543708.04,"ADDRESS":"凱旋路３１號四樓之１","OBJECTID":523898},"geometry":{"x":171122.86000000034,"y":2543708.040000001}},{"attributes":{"ID":523926,"DIS_CODE":0,"TOWNNAME":"東區","LI":"東光里","LIN":"6鄰","STREET":"凱旋路","SECT":" ","MAREA":" ","LANE":" ","ALLEY":" ","HOUSE_NO":"３１號四樓之２","E_COORD97":171122.85999999999,"N_COORD97":2543708.04,"ADDRESS":"凱旋路３１號四樓之２","OBJECTID":523899},"geometry":{"x":171122.86000000034,"y":2543708.040000001}},{"attributes":{"ID":523927,"DIS_CODE":0,"TOWNNAME":"東區","LI":"東光里","LIN":"6鄰","STREET":"凱旋路","SECT":" ","MAREA":" ","LANE":" ","ALLEY":" ","HOUSE_NO":"３１號四樓之３","E_COORD97":171122.85999999999,"N_COORD97":2543708.04,"ADDRESS":"凱旋路３１號四樓之３","OBJECTID":523900},"geometry":{"x":171122.86000000034,"y":2543708.040000001}},{"attributes":{"ID":523928,"DIS_CODE":0,"TOWNNAME":"東區","LI":"東光里","LIN":"6鄰","STREET":"凱旋路","SECT":" ","MAREA":" ","LANE":" ","ALLEY":" ","HOUSE_NO":"３１號五樓之１","E_COORD97":171122.85999999999,"N_COORD97":2543708.04,"ADDRESS":"凱旋路３１號五樓之１","OBJECTID":523901},"geometry":{"x":171122.86000000034,"y":2543708.040000001}},{"attributes":{"ID":523929,"DIS_CODE":0,"TOWNNAME":"東區","LI":"東光里","LIN":"6鄰","STREET":"凱旋路","SECT":" ","MAREA":" ","LANE":" ","ALLEY":" ","HOUSE_NO":"３１號五樓之２","E_COORD97":171122.85999999999,"N_COORD97":2543708.04,"ADDRESS":"凱旋路３１號五樓之２","OBJECTID":523902},"geometry":{"x":171122.86000000034,"y":2543708.040000001}},{"attributes":{"ID":523930,"DIS_CODE":0,"TOWNNAME":"東區","LI":"東光里","LIN":"6鄰","STREET":"凱旋路","SECT":" ","MAREA":" ","LANE":" ","ALLEY":" ","HOUSE_NO":"３１號五樓之３","E_COORD97":171122.85999999999,"N_COORD97":2543708.04,"ADDRESS":"凱旋路３１號五樓之３","OBJECTID":523903},"geometry":{"x":171122.86000000034,"y":2543708.040000001}},{"attributes":{"ID":523931,"DIS_CODE":0,"TOWNNAME":"東區","LI":"東光里","LIN":"6鄰","STREET":"凱旋路","SECT":" ","MAREA":" ","LANE":" ","ALLEY":" ","HOUSE_NO":"３１號五樓之４","E_COORD97":171122.85999999999,"N_COORD97":2543708.04,"ADDRESS":"凱旋路３１號五樓之４","OBJECTID":523904},"geometry":{"x":171122.86000000034,"y":2543708.040000001}},{"attributes":{"ID":523932,"DIS_CODE":0,"TOWNNAME":"東區","LI":"東光里","LIN":"6鄰","STREET":"凱旋路","SECT":" ","MAREA":" ","LANE":" ","ALLEY":" ","HOUSE_NO":"３１號六樓之１","E_COORD97":171122.85999999999,"N_COORD97":2543708.04,"ADDRESS":"凱旋路３１號六樓之１","OBJECTID":523905},"geometry":{"x":171122.86000000034,"y":2543708.040000001}},{"attributes":{"ID":523933,"DIS_CODE":0,"TOWNNAME":"東區","LI":"東光里","LIN":"6鄰","STREET":"凱旋路","SECT":" ","MAREA":" ","LANE":" ","ALLEY":" ","HOUSE_NO":"３１號六樓之２","E_COORD97":171122.85999999999,"N_COORD97":2543708.04,"ADDRESS":"凱旋路３１號六樓之２","OBJECTID":523906},"geometry":{"x":171122.86000000034,"y":2543708.040000001}},{"attributes":{"ID":523934,"DIS_CODE":0,"TOWNNAME":"東區","LI":"東光里","LIN":"6鄰","STREET":"凱旋路","SECT":" ","MAREA":" ","LANE":" ","ALLEY":" ","HOUSE_NO":"３１號六樓之３","E_COORD97":171122.85999999999,"N_COORD97":2543708.04,"ADDRESS":"凱旋路３１號六樓之３","OBJECTID":523907},"geometry":{"x":171122.86000000034,"y":2543708.040000001}},{"attributes":{"ID":523935,"DIS_CODE":0,"TOWNNAME":"東區","LI":"東光里","LIN":"6鄰","STREET":"凱旋路","SECT":" ","MAREA":" ","LANE":" ","ALLEY":" ","HOUSE_NO":"３１號六樓之４","E_COORD97":171122.85999999999,"N_COORD97":2543708.04,"ADDRESS":"凱旋路３１號六樓之４","OBJECTID":523908},"geometry":{"x":171122.86000000034,"y":2543708.040000001}},{"attributes":{"ID":523936,"DIS_CODE":0,"TOWNNAME":"東區","LI":"東光里","LIN":"6鄰","STREET":"凱旋路","SECT":" ","MAREA":" ","LANE":" ","ALLEY":" ","HOUSE_NO":"３１號七樓之１","E_COORD97":171122.85999999999,"N_COORD97":2543708.04,"ADDRESS":"凱旋路３１號七樓之１","OBJECTID":523909},"geometry":{"x":171122.86000000034,"y":2543708.040000001}},{"attributes":{"ID":523937,"DIS_CODE":0,"TOWNNAME":"東區","LI":"東光里","LIN":"6鄰","STREET":"凱旋路","SECT":" ","MAREA":" ","LANE":" ","ALLEY":" ","HOUSE_NO":"３１號七樓之２","E_COORD97":171122.85999999999,"N_COORD97":2543708.04,"ADDRESS":"凱旋路３１號七樓之２","OBJECTID":523910},"geometry":{"x":171122.86000000034,"y":2543708.040000001}},{"attributes":{"ID":523938,"DIS_CODE":0,"TOWNNAME":"東區","LI":"東光里","LIN":"6鄰","STREET":"凱旋路","SECT":" ","MAREA":" ","LANE":" ","ALLEY":" ","HOUSE_NO":"３１號七樓之３","E_COORD97":171122.85999999999,"N_COORD97":2543708.04,"ADDRESS":"凱旋路３１號七樓之３","OBJECTID":523911},"geometry":{"x":171122.86000000034,"y":2543708.040000001}},{"attributes":{"ID":523939,"DIS_CODE":0,"TOWNNAME":"東區","LI":"東光里","LIN":"6鄰","STREET":"凱旋路","SECT":" ","MAREA":" ","LANE":" ","ALLEY":" ","HOUSE_NO":"３１號八樓之１","E_COORD97":171122.85999999999,"N_COORD97":2543708.04,"ADDRESS":"凱旋路３１號八樓之１","OBJECTID":523912},"geometry":{"x":171122.86000000034,"y":2543708.040000001}},{"attributes":{"ID":523940,"DIS_CODE":0,"TOWNNAME":"東區","LI":"東光里","LIN":"6鄰","STREET":"凱旋路","SECT":" ","MAREA":" ","LANE":" ","ALLEY":" ","HOUSE_NO":"３１號八樓之２","E_COORD97":171122.85999999999,"N_COORD97":2543708.04,"ADDRESS":"凱旋路３１號八樓之２","OBJECTID":523913},"geometry":{"x":171122.86000000034,"y":2543708.040000001}},{"attributes":{"ID":523941,"DIS_CODE":0,"TOWNNAME":"東區","LI":"東光里","LIN":"6鄰","STREET":"凱旋路","SECT":" ","MAREA":" ","LANE":" ","ALLEY":" ","HOUSE_NO":"３１號八樓之３","E_COORD97":171122.85999999999,"N_COORD97":2543708.04,"ADDRESS":"凱旋路３１號八樓之３","OBJECTID":523914},"geometry":{"x":171122.86000000034,"y":2543708.040000001}},{"attributes":{"ID":523942,"DIS_CODE":0,"TOWNNAME":"東區","LI":"東光里","LIN":"6鄰","STREET":"凱旋路","SECT":" ","MAREA":" ","LANE":" ","ALLEY":" ","HOUSE_NO":"３１號九樓之１","E_COORD97":171122.85999999999,"N_COORD97":2543708.04,"ADDRESS":"凱旋路３１號九樓之１","OBJECTID":523915},"geometry":{"x":171122.86000000034,"y":2543708.040000001}},{"attributes":{"ID":523943,"DIS_CODE":0,"TOWNNAME":"東區","LI":"東光里","LIN":"6鄰","STREET":"凱旋路","SECT":" ","MAREA":" ","LANE":" ","ALLEY":" ","HOUSE_NO":"３１號九樓之２","E_COORD97":171122.85999999999,"N_COORD97":2543708.04,"ADDRESS":"凱旋路３１號九樓之２","OBJECTID":523916},"geometry":{"x":171122.86000000034,"y":2543708.040000001}},{"attributes":{"ID":523944,"DIS_CODE":0,"TOWNNAME":"東區","LI":"東光里","LIN":"6鄰","STREET":"凱旋路","SECT":" ","MAREA":" ","LANE":" ","ALLEY":" ","HOUSE_NO":"３１號九樓之３","E_COORD97":171122.85999999999,"N_COORD97":2543708.04,"ADDRESS":"凱旋路３１號九樓之３","OBJECTID":523917},"geometry":{"x":171122.86000000034,"y":2543708.040000001}},{"attributes":{"ID":523945,"DIS_CODE":0,"TOWNNAME":"東區","LI":"東光里","LIN":"6鄰","STREET":"凱旋路","SECT":" ","MAREA":" ","LANE":" ","ALLEY":" ","HOUSE_NO":"３１號九樓之４","E_COORD97":171122.85999999999,"N_COORD97":2543708.04,"ADDRESS":"凱旋路３１號九樓之４","OBJECTID":523918},"geometry":{"x":171122.86000000034,"y":2543708.040000001}},{"attributes":{"ID":523946,"DIS_CODE":0,"TOWNNAME":"東區","LI":"東光里","LIN":"6鄰","STREET":"凱旋路","SECT":" ","MAREA":" ","LANE":" ","ALLEY":" ","HOUSE_NO":"３３號三樓之１","E_COORD97":171109.39000000001,"N_COORD97":2543710.5899999999,"ADDRESS":"凱旋路３３號三樓之１","OBJECTID":523919},"geometry":{"x":171109.3900000006,"y":2543710.5899999999}},{"attributes":{"ID":523947,"DIS_CODE":0,"TOWNNAME":"東區","LI":"東光里","LIN":"6鄰","STREET":"凱旋路","SECT":" ","MAREA":" ","LANE":" ","ALLEY":" ","HOUSE_NO":"３３號三樓之２","E_COORD97":171109.39000000001,"N_COORD97":2543710.5899999999,"ADDRESS":"凱旋路３３號三樓之２","OBJECTID":523920},"geometry":{"x":171109.3900000006,"y":2543710.5899999999}},{"attributes":{"ID":523948,"DIS_CODE":0,"TOWNNAME":"東區","LI":"東光里","LIN":"6鄰","STREET":"凱旋路","SECT":" ","MAREA":" ","LANE":" ","ALLEY":" ","HOUSE_NO":"３３號三樓之３","E_COORD97":171109.39000000001,"N_COORD97":2543710.5899999999,"ADDRESS":"凱旋路３３號三樓之３","OBJECTID":523921},"geometry":{"x":171109.3900000006,"y":2543710.5899999999}},{"attributes":{"ID":523949,"DIS_CODE":0,"TOWNNAME":"東區","LI":"東光里","LIN":"6鄰","STREET":"凱旋路","SECT":" ","MAREA":" ","LANE":" ","ALLEY":" ","HOUSE_NO":"３３號四樓之１","E_COORD97":171109.39000000001,"N_COORD97":2543710.5899999999,"ADDRESS":"凱旋路３３號四樓之１","OBJECTID":523922},"geometry":{"x":171109.3900000006,"y":2543710.5899999999}},{"attributes":{"ID":523950,"DIS_CODE":0,"TOWNNAME":"南區","LI":"文華里","LIN":"18鄰","STREET":"德南街","SECT":" ","MAREA":" ","LANE":" ","ALLEY":" ","HOUSE_NO":"３９號","E_COORD97":166865.23000000001,"N_COORD97":2543094.7799999998,"ADDRESS":"德南街３９號","OBJECTID":523923},"geometry":{"x":166865.23000000138,"y":2543094.7799999993}},{"attributes":{"ID":523951,"DIS_CODE":0,"TOWNNAME":"南區","LI":"文華里","LIN":"18鄰","STREET":"德南街","SECT":" ","MAREA":" ","LANE":" ","ALLEY":" ","HOUSE_NO":"４１號","E_COORD97":166853.73999999999,"N_COORD97":2543108.3199999998,"ADDRESS":"德南街４１號","OBJECTID":523924},"geometry":{"x":166853.74000000022,"y":2543108.3200000022}},{"attributes":{"ID":523952,"DIS_CODE":0,"TOWNNAME":"南區","LI":"文華里","LIN":"18鄰","STREET":"德南街","SECT":" ","MAREA":" ","LANE":" ","ALLEY":" ","HOUSE_NO":"４７號","E_COORD97":166841.53,"N_COORD97":2543095.9500000002,"ADDRESS":"德南街４７號","OBJECTID":523925},"geometry":{"x":166841.53000000026,"y":2543095.9500000011}},{"attributes":{"ID":523953,"DIS_CODE":0,"TOWNNAME":"南區","LI":"文華里","LIN":"18鄰","STREET":"德南街","SECT":" ","MAREA":" ","LANE":" ","ALLEY":" ","HOUSE_NO":"４９號","E_COORD97":166851.14000000001,"N_COORD97":2543080.6099999999,"ADDRESS":"德南街４９號","OBJECTID":523926},"geometry":{"x":166851.1400000006,"y":2543080.6100000031}},{"attributes":{"ID":523954,"DIS_CODE":0,"TOWNNAME":"南區","LI":"文華里","LIN":"18鄰","STREET":"德南街","SECT":" ","MAREA":" ","LANE":" ","ALLEY":" ","HOUSE_NO":"５１號","E_COORD97":166852.39999999999,"N_COORD97":2543075.6699999999,"ADDRESS":"德南街５１號","OBJECTID":523927},"geometry":{"x":166852.40000000037,"y":2543075.6699999999}},{"attributes":{"ID":523955,"DIS_CODE":0,"TOWNNAME":"南區","LI":"文華里","LIN":"18鄰","STREET":"德南街","SECT":" ","MAREA":" ","LANE":" ","ALLEY":" ","HOUSE_NO":"５３號","E_COORD97":166847.01000000001,"N_COORD97":2543071.6400000001,"ADDRESS":"德南街５３號","OBJECTID":523928},"geometry":{"x":166847.01000000071,"y":2543071.6400000025}},{"attributes":{"ID":523956,"DIS_CODE":0,"TOWNNAME":"南區","LI":"文華里","LIN":"18鄰","STREET":"德南街","SECT":" ","MAREA":" ","LANE":" ","ALLEY":" ","HOUSE_NO":"５５號","E_COORD97":166842.07000000001,"N_COORD97":2543075.8500000001,"ADDRESS":"德南街５５號","OBJECTID":523929},"geometry":{"x":166842.07000000123,"y":2543075.8500000015}},{"attributes":{"ID":523957,"DIS_CODE":0,"TOWNNAME":"南區","LI":"文華里","LIN":"18鄰","STREET":"德南街","SECT":" ","MAREA":" ","LANE":" ","ALLEY":" ","HOUSE_NO":"５７號","E_COORD97":166832.09,"N_COORD97":2543087.0699999998,"ADDRESS":"德南街５７號","OBJECTID":523930},"geometry":{"x":166832.08999999985,"y":2543087.0700000003}},{"attributes":{"ID":523958,"DIS_CODE":0,"TOWNNAME":"南區","LI":"文華里","LIN":"26鄰","STREET":"建南路","SECT":" ","MAREA":" ","LANE":" ","ALLEY":" ","HOUSE_NO":"２０６號","E_COORD97":166683.42999999999,"N_COORD97":2542883.5899999999,"ADDRESS":"建南路２０６號","OBJECTID":523931},"geometry":{"x":166683.43000000063,"y":2542883.5899999999}},{"attributes":{"ID":523959,"DIS_CODE":0,"TOWNNAME":"南區","LI":"文華里","LIN":"26鄰","STREET":"建南路","SECT":" ","MAREA":" ","LANE":" ","ALLEY":" ","HOUSE_NO":"２０８號","E_COORD97":166679.29000000001,"N_COORD97":2542883.4900000002,"ADDRESS":"建南路２０８號","OBJECTID":523932},"geometry":{"x":166679.29000000097,"y":2542883.4900000021}},{"attributes":{"ID":523960,"DIS_CODE":0,"TOWNNAME":"南區","LI":"文華里","LIN":"17鄰","STREET":"永華路","SECT":"一段","MAREA":" ","LANE":" ","ALLEY":" ","HOUSE_NO":"２７１號","E_COORD97":166957.87,"N_COORD97":2543231.3700000001,"ADDRESS":"永華路一段２７１號","OBJECTID":523933},"geometry":{"x":166957.87000000011,"y":2543231.370000001}},{"attributes":{"ID":523961,"DIS_CODE":0,"TOWNNAME":"南區","LI":"文華里","LIN":"1鄰","STREET":"永華路","SECT":"一段","MAREA":" ","LANE":" ","ALLEY":" ","HOUSE_NO":"１７９號","E_COORD97":167145.51000000001,"N_COORD97":2543183.6299999999,"ADDRESS":"永華路一段１７９號","OBJECTID":523934},"geometry":{"x":167145.51000000071,"y":2543183.629999999}},{"attributes":{"ID":523962,"DIS_CODE":0,"TOWNNAME":"南區","LI":"文華里","LIN":"1鄰","STREET":"永華路","SECT":"一段","MAREA":" ","LANE":" ","ALLEY":" ","HOUSE_NO":"１８１號","E_COORD97":167141.35000000001,"N_COORD97":2543192.3399999999,"ADDRESS":"永華路一段１８１號","OBJECTID":523935},"geometry":{"x":167141.35000000056,"y":2543192.3400000017}},{"attributes":{"ID":523963,"DIS_CODE":0,"TOWNNAME":"南區","LI":"文華里","LIN":"1鄰","STREET":"永華路","SECT":"一段","MAREA":" ","LANE":" ","ALLEY":" ","HOUSE_NO":"１８３號","E_COORD97":167137.04000000001,"N_COORD97":2543193.6899999999,"ADDRESS":"永華路一段１８３號","OBJECTID":523936},"geometry":{"x":167137.04000000097,"y":2543193.6899999995}},{"attributes":{"ID":523964,"DIS_CODE":0,"TOWNNAME":"南區","LI":"文華里","LIN":"1鄰","STREET":"永華路","SECT":"一段","MAREA":" ","LANE":" ","ALLEY":" ","HOUSE_NO":"１８５號","E_COORD97":167132.19,"N_COORD97":2543194.3199999998,"ADDRESS":"永華路一段１８５號","OBJECTID":523937},"geometry":{"x":167132.19000000041,"y":2543194.3200000003}},{"attributes":{"ID":523965,"DIS_CODE":0,"TOWNNAME":"南區","LI":"文華里","LIN":"1鄰","STREET":"永華路","SECT":"一段","MAREA":" ","LANE":" ","ALLEY":" ","HOUSE_NO":"１９３號","E_COORD97":167123.22,"N_COORD97":2543195.5699999998,"ADDRESS":"永華路一段１９３號","OBJECTID":523938},"geometry":{"x":167123.2200000016,"y":2543195.5700000003}},{"attributes":{"ID":523966,"DIS_CODE":0,"TOWNNAME":"東區","LI":"東光里","LIN":"6鄰","STREET":"凱旋路","SECT":" ","MAREA":" ","LANE":" ","ALLEY":" ","HOUSE_NO":"３３號四樓之２","E_COORD97":171109.39000000001,"N_COORD97":2543710.5899999999,"ADDRESS":"凱旋路３３號四樓之２","OBJECTID":523939},"geometry":{"x":171109.3900000006,"y":2543710.5899999999}},{"attributes":{"ID":523967,"DIS_CODE":0,"TOWNNAME":"東區","LI":"東光里","LIN":"6鄰","STREET":"凱旋路","SECT":" ","MAREA":" ","LANE":" ","ALLEY":" ","HOUSE_NO":"３３號四樓之３","E_COORD97":171109.39000000001,"N_COORD97":2543710.5899999999,"ADDRESS":"凱旋路３３號四樓之３","OBJECTID":523940},"geometry":{"x":171109.3900000006,"y":2543710.5899999999}},{"attributes":{"ID":523968,"DIS_CODE":0,"TOWNNAME":"東區","LI":"東光里","LIN":"6鄰","STREET":"凱旋路","SECT":" ","MAREA":" ","LANE":" ","ALLEY":" ","HOUSE_NO":"３３號五樓之１","E_COORD97":171109.39000000001,"N_COORD97":2543710.5899999999,"ADDRESS":"凱旋路３３號五樓之１","OBJECTID":523941},"geometry":{"x":171109.3900000006,"y":2543710.5899999999}},{"attributes":{"ID":523969,"DIS_CODE":0,"TOWNNAME":"東區","LI":"東光里","LIN":"6鄰","STREET":"凱旋路","SECT":" ","MAREA":" ","LANE":" ","ALLEY":" ","HOUSE_NO":"３３號五樓之２","E_COORD97":171109.39000000001,"N_COORD97":2543710.5899999999,"ADDRESS":"凱旋路３３號五樓之２","OBJECTID":523942},"geometry":{"x":171109.3900000006,"y":2543710.5899999999}},{"attributes":{"ID":523970,"DIS_CODE":0,"TOWNNAME":"東區","LI":"東光里","LIN":"6鄰","STREET":"凱旋路","SECT":" ","MAREA":" ","LANE":" ","ALLEY":" ","HOUSE_NO":"３３號五樓之３","E_COORD97":171109.39000000001,"N_COORD97":2543710.5899999999,"ADDRESS":"凱旋路３３號五樓之３","OBJECTID":523943},"geometry":{"x":171109.3900000006,"y":2543710.5899999999}},{"attributes":{"ID":523971,"DIS_CODE":0,"TOWNNAME":"東區","LI":"東光里","LIN":"6鄰","STREET":"凱旋路","SECT":" ","MAREA":" ","LANE":" ","ALLEY":" ","HOUSE_NO":"３３號五樓之４","E_COORD97":171109.39000000001,"N_COORD97":2543710.5899999999,"ADDRESS":"凱旋路３３號五樓之４","OBJECTID":523944},"geometry":{"x":171109.3900000006,"y":2543710.5899999999}},{"attributes":{"ID":523972,"DIS_CODE":0,"TOWNNAME":"東區","LI":"東光里","LIN":"6鄰","STREET":"凱旋路","SECT":" ","MAREA":" ","LANE":" ","ALLEY":" ","HOUSE_NO":"３３號六樓之１","E_COORD97":171109.39000000001,"N_COORD97":2543710.5899999999,"ADDRESS":"凱旋路３３號六樓之１","OBJECTID":523945},"geometry":{"x":171109.3900000006,"y":2543710.5899999999}},{"attributes":{"ID":523973,"DIS_CODE":0,"TOWNNAME":"東區","LI":"東光里","LIN":"6鄰","STREET":"凱旋路","SECT":" ","MAREA":" ","LANE":" ","ALLEY":" ","HOUSE_NO":"３３號六樓之２","E_COORD97":171109.39000000001,"N_COORD97":2543710.5899999999,"ADDRESS":"凱旋路３３號六樓之２","OBJECTID":523946},"geometry":{"x":171109.3900000006,"y":2543710.5899999999}},{"attributes":{"ID":523974,"DIS_CODE":0,"TOWNNAME":"東區","LI":"東光里","LIN":"6鄰","STREET":"凱旋路","SECT":" ","MAREA":" ","LANE":" ","ALLEY":" ","HOUSE_NO":"３３號六樓之３","E_COORD97":171109.39000000001,"N_COORD97":2543710.5899999999,"ADDRESS":"凱旋路３３號六樓之３","OBJECTID":523947},"geometry":{"x":171109.3900000006,"y":2543710.5899999999}},{"attributes":{"ID":523975,"DIS_CODE":0,"TOWNNAME":"東區","LI":"東光里","LIN":"6鄰","STREET":"凱旋路","SECT":" ","MAREA":" ","LANE":" ","ALLEY":" ","HOUSE_NO":"３３號六樓之４","E_COORD97":171109.39000000001,"N_COORD97":2543710.5899999999,"ADDRESS":"凱旋路３３號六樓之４","OBJECTID":523948},"geometry":{"x":171109.3900000006,"y":2543710.5899999999}},{"attributes":{"ID":523976,"DIS_CODE":0,"TOWNNAME":"東區","LI":"東光里","LIN":"6鄰","STREET":"凱旋路","SECT":" ","MAREA":" ","LANE":" ","ALLEY":" ","HOUSE_NO":"３３號七樓之１","E_COORD97":171109.39000000001,"N_COORD97":2543710.5899999999,"ADDRESS":"凱旋路３３號七樓之１","OBJECTID":523949},"geometry":{"x":171109.3900000006,"y":2543710.5899999999}},{"attributes":{"ID":523977,"DIS_CODE":0,"TOWNNAME":"東區","LI":"東光里","LIN":"6鄰","STREET":"凱旋路","SECT":" ","MAREA":" ","LANE":" ","ALLEY":" ","HOUSE_NO":"３３號七樓之２","E_COORD97":171109.39000000001,"N_COORD97":2543710.5899999999,"ADDRESS":"凱旋路３３號七樓之２","OBJECTID":523950},"geometry":{"x":171109.3900000006,"y":2543710.5899999999}},{"attributes":{"ID":523978,"DIS_CODE":0,"TOWNNAME":"東區","LI":"東光里","LIN":"6鄰","STREET":"凱旋路","SECT":" ","MAREA":" ","LANE":" ","ALLEY":" ","HOUSE_NO":"３３號七樓之３","E_COORD97":171109.39000000001,"N_COORD97":2543710.5899999999,"ADDRESS":"凱旋路３３號七樓之３","OBJECTID":523951},"geometry":{"x":171109.3900000006,"y":2543710.5899999999}},{"attributes":{"ID":523979,"DIS_CODE":0,"TOWNNAME":"東區","LI":"東光里","LIN":"6鄰","STREET":"凱旋路","SECT":" ","MAREA":" ","LANE":" ","ALLEY":" ","HOUSE_NO":"３３號七樓之４","E_COORD97":171109.39000000001,"N_COORD97":2543710.5899999999,"ADDRESS":"凱旋路３３號七樓之４","OBJECTID":523952},"geometry":{"x":171109.3900000006,"y":2543710.5899999999}},{"attributes":{"ID":523980,"DIS_CODE":0,"TOWNNAME":"東區","LI":"東光里","LIN":"6鄰","STREET":"凱旋路","SECT":" ","MAREA":" ","LANE":" ","ALLEY":" ","HOUSE_NO":"３３號八樓之１","E_COORD97":171109.39000000001,"N_COORD97":2543710.5899999999,"ADDRESS":"凱旋路３３號八樓之１","OBJECTID":523953},"geometry":{"x":171109.3900000006,"y":2543710.5899999999}},{"attributes":{"ID":523981,"DIS_CODE":0,"TOWNNAME":"東區","LI":"東光里","LIN":"6鄰","STREET":"凱旋路","SECT":" ","MAREA":" ","LANE":" ","ALLEY":" ","HOUSE_NO":"３３號八樓之２","E_COORD97":171109.39000000001,"N_COORD97":2543710.5899999999,"ADDRESS":"凱旋路３３號八樓之２","OBJECTID":523954},"geometry":{"x":171109.3900000006,"y":2543710.5899999999}},{"attributes":{"ID":523982,"DIS_CODE":0,"TOWNNAME":"東區","LI":"東光里","LIN":"6鄰","STREET":"凱旋路","SECT":" ","MAREA":" ","LANE":" ","ALLEY":" ","HOUSE_NO":"３３號八樓之３","E_COORD97":171109.39000000001,"N_COORD97":2543710.5899999999,"ADDRESS":"凱旋路３３號八樓之３","OBJECTID":523955},"geometry":{"x":171109.3900000006,"y":2543710.5899999999}},{"attributes":{"ID":523983,"DIS_CODE":0,"TOWNNAME":"東區","LI":"東光里","LIN":"6鄰","STREET":"凱旋路","SECT":" ","MAREA":" ","LANE":" ","ALLEY":" ","HOUSE_NO":"３３號八樓之４","E_COORD97":171109.39000000001,"N_COORD97":2543710.5899999999,"ADDRESS":"凱旋路３３號八樓之４","OBJECTID":523956},"geometry":{"x":171109.3900000006,"y":2543710.5899999999}},{"attributes":{"ID":523984,"DIS_CODE":0,"TOWNNAME":"東區","LI":"東光里","LIN":"6鄰","STREET":"凱旋路","SECT":" ","MAREA":" ","LANE":" ","ALLEY":" ","HOUSE_NO":"３３號九樓之１","E_COORD97":171109.39000000001,"N_COORD97":2543710.5899999999,"ADDRESS":"凱旋路３３號九樓之１","OBJECTID":523957},"geometry":{"x":171109.3900000006,"y":2543710.5899999999}},{"attributes":{"ID":523985,"DIS_CODE":0,"TOWNNAME":"東區","LI":"東光里","LIN":"6鄰","STREET":"凱旋路","SECT":" ","MAREA":" ","LANE":" ","ALLEY":" ","HOUSE_NO":"３３號九樓之２","E_COORD97":171109.39000000001,"N_COORD97":2543710.5899999999,"ADDRESS":"凱旋路３３號九樓之２","OBJECTID":523958},"geometry":{"x":171109.3900000006,"y":2543710.5899999999}},{"attributes":{"ID":523986,"DIS_CODE":0,"TOWNNAME":"東區","LI":"東光里","LIN":"6鄰","STREET":"凱旋路","SECT":" ","MAREA":" ","LANE":" ","ALLEY":" ","HOUSE_NO":"３３號九樓之３","E_COORD97":171109.39000000001,"N_COORD97":2543710.5899999999,"ADDRESS":"凱旋路３３號九樓之３","OBJECTID":523959},"geometry":{"x":171109.3900000006,"y":2543710.5899999999}},{"attributes":{"ID":523987,"DIS_CODE":0,"TOWNNAME":"東區","LI":"東光里","LIN":"6鄰","STREET":"凱旋路","SECT":" ","MAREA":" ","LANE":" ","ALLEY":" ","HOUSE_NO":"３３號九樓之４","E_COORD97":171109.39000000001,"N_COORD97":2543710.5899999999,"ADDRESS":"凱旋路３３號九樓之４","OBJECTID":523960},"geometry":{"x":171109.3900000006,"y":2543710.5899999999}},{"attributes":{"ID":523988,"DIS_CODE":0,"TOWNNAME":"東區","LI":"東光里","LIN":"6鄰","STREET":"凱旋路","SECT":" ","MAREA":" ","LANE":" ","ALLEY":" ","HOUSE_NO":"３１號三樓之５","E_COORD97":171122.85999999999,"N_COORD97":2543708.04,"ADDRESS":"凱旋路３１號三樓之５","OBJECTID":523961},"geometry":{"x":171122.86000000034,"y":2543708.040000001}},{"attributes":{"ID":523989,"DIS_CODE":0,"TOWNNAME":"東區","LI":"圍下里","LIN":"6鄰","STREET":"青年路","SECT":" ","MAREA":" ","LANE":" ","ALLEY":" ","HOUSE_NO":"４４３號二樓","E_COORD97":169693.20999999999,"N_COORD97":2543533.6200000001,"ADDRESS":"青年路４４３號二樓","OBJECTID":523962},"geometry":{"x":169693.20999999996,"y":2543533.6200000029}},{"attributes":{"ID":523990,"DIS_CODE":0,"TOWNNAME":"東區","LI":"圍下里","LIN":"6鄰","STREET":"青年路","SECT":" ","MAREA":" ","LANE":" ","ALLEY":" ","HOUSE_NO":"４４３號三樓","E_COORD97":169693.20999999999,"N_COORD97":2543533.6200000001,"ADDRESS":"青年路４４３號三樓","OBJECTID":523963},"geometry":{"x":169693.20999999996,"y":2543533.6200000029}},{"attributes":{"ID":523991,"DIS_CODE":0,"TOWNNAME":"東區","LI":"圍下里","LIN":"6鄰","STREET":"青年路","SECT":" ","MAREA":" ","LANE":" ","ALLEY":" ","HOUSE_NO":"４４３號四樓","E_COORD97":169693.20999999999,"N_COORD97":2543533.6200000001,"ADDRESS":"青年路４４３號四樓","OBJECTID":523964},"geometry":{"x":169693.20999999996,"y":2543533.6200000029}},{"attributes":{"ID":523992,"DIS_CODE":0,"TOWNNAME":"東區","LI":"圍下里","LIN":"6鄰","STREET":"青年路","SECT":" ","MAREA":" ","LANE":" ","ALLEY":" ","HOUSE_NO":"４４３號五樓","E_COORD97":169693.20999999999,"N_COORD97":2543533.6200000001,"ADDRESS":"青年路４４３號五樓","OBJECTID":523965},"geometry":{"x":169693.20999999996,"y":2543533.6200000029}},{"attributes":{"ID":523993,"DIS_CODE":0,"TOWNNAME":"東區","LI":"圍下里","LIN":"6鄰","STREET":"青年路","SECT":" ","MAREA":" ","LANE":" ","ALLEY":" ","HOUSE_NO":"４４３號六樓","E_COORD97":169693.20999999999,"N_COORD97":2543533.6200000001,"ADDRESS":"青年路４４３號六樓","OBJECTID":523966},"geometry":{"x":169693.20999999996,"y":2543533.6200000029}},{"attributes":{"ID":523994,"DIS_CODE":0,"TOWNNAME":"東區","LI":"圍下里","LIN":"6鄰","STREET":"青年路","SECT":" ","MAREA":" ","LANE":" ","ALLEY":" ","HOUSE_NO":"４４３號七樓","E_COORD97":169693.20999999999,"N_COORD97":2543533.6200000001,"ADDRESS":"青年路４４３號七樓","OBJECTID":523967},"geometry":{"x":169693.20999999996,"y":2543533.6200000029}},{"attributes":{"ID":523995,"DIS_CODE":0,"TOWNNAME":"東區","LI":"東光里","LIN":"6鄰","STREET":"凱旋路","SECT":" ","MAREA":" ","LANE":" ","ALLEY":" ","HOUSE_NO":"３３號三樓之４","E_COORD97":171109.39000000001,"N_COORD97":2543710.5899999999,"ADDRESS":"凱旋路３３號三樓之４","OBJECTID":523968},"geometry":{"x":171109.3900000006,"y":2543710.5899999999}},{"attributes":{"ID":523996,"DIS_CODE":0,"TOWNNAME":"東區","LI":"東明里","LIN":"6鄰","STREET":"怡東路","SECT":" ","MAREA":" ","LANE":" ","ALLEY":" ","HOUSE_NO":"７４號二樓","E_COORD97":170864.44,"N_COORD97":2543653.3199999998,"ADDRESS":"怡東路７４號二樓","OBJECTID":523969},"geometry":{"x":170864.44000000134,"y":2543653.3200000022}},{"attributes":{"ID":523997,"DIS_CODE":0,"TOWNNAME":"東區","LI":"東明里","LIN":"6鄰","STREET":"怡東路","SECT":" ","MAREA":" ","LANE":" ","ALLEY":" ","HOUSE_NO":"７４號五樓","E_COORD97":170864.44,"N_COORD97":2543653.3199999998,"ADDRESS":"怡東路７４號五樓","OBJECTID":523970},"geometry":{"x":170864.44000000134,"y":2543653.3200000022}},{"attributes":{"ID":523998,"DIS_CODE":0,"TOWNNAME":"東區","LI":"東明里","LIN":"6鄰","STREET":"怡東路","SECT":" ","MAREA":" ","LANE":" ","ALLEY":" ","HOUSE_NO":"７４號四樓","E_COORD97":170864.44,"N_COORD97":2543653.3199999998,"ADDRESS":"怡東路７４號四樓","OBJECTID":523971},"geometry":{"x":170864.44000000134,"y":2543653.3200000022}},{"attributes":{"ID":523999,"DIS_CODE":0,"TOWNNAME":"東區","LI":"東明里","LIN":"6鄰","STREET":"怡東路","SECT":" ","MAREA":" ","LANE":" ","ALLEY":" ","HOUSE_NO":"７６號二樓","E_COORD97":170866.64000000001,"N_COORD97":2543662,"ADDRESS":"怡東路７６號二樓","OBJECTID":523972},"geometry":{"x":170866.64000000153,"y":2543662.0000000019}},{"attributes":{"ID":524000,"DIS_CODE":0,"TOWNNAME":"東區","LI":"東明里","LIN":"6鄰","STREET":"怡東路","SECT":" ","MAREA":" ","LANE":" ","ALLEY":" ","HOUSE_NO":"７６號三樓","E_COORD97":170866.64000000001,"N_COORD97":2543662,"ADDRESS":"怡東路７６號三樓","OBJECTID":523973},"geometry":{"x":170866.64000000153,"y":2543662.0000000019}},{"attributes":{"ID":524001,"DIS_CODE":0,"TOWNNAME":"東區","LI":"東明里","LIN":"6鄰","STREET":"怡東路","SECT":" ","MAREA":" ","LANE":" ","ALLEY":" ","HOUSE_NO":"７６號五樓","E_COORD97":170866.64000000001,"N_COORD97":2543662,"ADDRESS":"怡東路７６號五樓","OBJECTID":523974},"geometry":{"x":170866.64000000153,"y":2543662.0000000019}},{"attributes":{"ID":524002,"DIS_CODE":0,"TOWNNAME":"東區","LI":"東明里","LIN":"6鄰","STREET":"怡東路","SECT":" ","MAREA":" ","LANE":" ","ALLEY":" ","HOUSE_NO":"７６號四樓","E_COORD97":170866.64000000001,"N_COORD97":2543662,"ADDRESS":"怡東路７６號四樓","OBJECTID":523975},"geometry":{"x":170866.64000000153,"y":2543662.0000000019}},{"attributes":{"ID":524003,"DIS_CODE":0,"TOWNNAME":"東區","LI":"東明里","LIN":"6鄰","STREET":"怡東路","SECT":" ","MAREA":" ","LANE":" ","ALLEY":" ","HOUSE_NO":"７８號三樓","E_COORD97":170867.57999999999,"N_COORD97":2543670,"ADDRESS":"怡東路７８號三樓","OBJECTID":523976},"geometry":{"x":170867.58000000194,"y":2543670}},{"attributes":{"ID":524004,"DIS_CODE":0,"TOWNNAME":"東區","LI":"東明里","LIN":"6鄰","STREET":"怡東路","SECT":" ","MAREA":" ","LANE":" ","ALLEY":" ","HOUSE_NO":"７８號五樓","E_COORD97":170867.57999999999,"N_COORD97":2543670,"ADDRESS":"怡東路７８號五樓","OBJECTID":523977},"geometry":{"x":170867.58000000194,"y":2543670}},{"attributes":{"ID":524005,"DIS_CODE":0,"TOWNNAME":"東區","LI":"東明里","LIN":"6鄰","STREET":"怡東路","SECT":" ","MAREA":" ","LANE":" ","ALLEY":" ","HOUSE_NO":"７８號四樓","E_COORD97":170867.57999999999,"N_COORD97":2543670,"ADDRESS":"怡東路７８號四樓","OBJECTID":523978},"geometry":{"x":170867.58000000194,"y":2543670}},{"attributes":{"ID":524006,"DIS_CODE":0,"TOWNNAME":"南區","LI":"文華里","LIN":"26鄰","STREET":"建南路","SECT":" ","MAREA":" ","LANE":" ","ALLEY":" ","HOUSE_NO":"２１０號","E_COORD97":166674.51000000001,"N_COORD97":2542884.23,"ADDRESS":"建南路２１０號","OBJECTID":523979},"geometry":{"x":166674.51000000071,"y":2542884.2300000042}},{"attributes":{"ID":524007,"DIS_CODE":0,"TOWNNAME":"南區","LI":"文華里","LIN":"14鄰","STREET":"美南街","SECT":" ","MAREA":" ","LANE":" ","ALLEY":" ","HOUSE_NO":"２１號","E_COORD97":167063.26999999999,"N_COORD97":2543087.5800000001,"ADDRESS":"美南街２１號","OBJECTID":523980},"geometry":{"x":167063.26999999862,"y":2543087.5800000001}},{"attributes":{"ID":524008,"DIS_CODE":0,"TOWNNAME":"南區","LI":"文華里","LIN":"1鄰","STREET":"永華路","SECT":"一段","MAREA":" ","LANE":" ","ALLEY":" ","HOUSE_NO":"２３９號","E_COORD97":167059.84,"N_COORD97":2543209.9100000001,"ADDRESS":"永華路一段２３９號","OBJECTID":523981},"geometry":{"x":167059.84000000171,"y":2543209.9100000001}},{"attributes":{"ID":524009,"DIS_CODE":0,"TOWNNAME":"南區","LI":"文華里","LIN":"1鄰","STREET":"永華路","SECT":"一段","MAREA":" ","LANE":" ","ALLEY":" ","HOUSE_NO":"２４５號","E_COORD97":167049.79000000001,"N_COORD97":2543212.3300000001,"ADDRESS":"永華路一段２４５號","OBJECTID":523982},"geometry":{"x":167049.79000000004,"y":2543212.3300000019}},{"attributes":{"ID":524010,"DIS_CODE":0,"TOWNNAME":"南區","LI":"文華里","LIN":"1鄰","STREET":"永華路","SECT":"一段","MAREA":" ","LANE":" ","ALLEY":" ","HOUSE_NO":"２５１號","E_COORD97":167033.20999999999,"N_COORD97":2543216,"ADDRESS":"永華路一段２５１號","OBJECTID":523983},"geometry":{"x":167033.20999999996,"y":2543216}},{"attributes":{"ID":524011,"DIS_CODE":0,"TOWNNAME":"南區","LI":"文華里","LIN":"1鄰","STREET":"永華路","SECT":"一段","MAREA":" ","LANE":" ","ALLEY":" ","HOUSE_NO":"２５３號","E_COORD97":167028.35999999999,"N_COORD97":2543216.9900000002,"ADDRESS":"永華路一段２５３號","OBJECTID":523984},"geometry":{"x":167028.36000000127,"y":2543216.9900000002}},{"attributes":{"ID":524012,"DIS_CODE":0,"TOWNNAME":"永康區","LI":"大橋里","LIN":"6鄰","STREET":"大橋五街","SECT":" ","MAREA":" ","LANE":" ","ALLEY":" ","HOUSE_NO":"７２號二樓","E_COORD97":170899.22,"N_COORD97":2546905.8399999999,"ADDRESS":"大橋五街７２號二樓","OBJECTID":523985},"geometry":{"x":170899.22000000067,"y":2546905.8399999999}},{"attributes":{"ID":524013,"DIS_CODE":0,"TOWNNAME":"永康區","LI":"大橋里","LIN":"6鄰","STREET":"大橋五街","SECT":" ","MAREA":" ","LANE":" ","ALLEY":" ","HOUSE_NO":"７６號三樓","E_COORD97":170904.60999999999,"N_COORD97":2546911.5899999999,"ADDRESS":"大橋五街７６號三樓","OBJECTID":523986},"geometry":{"x":170904.61000000034,"y":2546911.5899999999}},{"attributes":{"ID":524014,"DIS_CODE":0,"TOWNNAME":"東區","LI":"東明里","LIN":"6鄰","STREET":"怡東路","SECT":" ","MAREA":" ","LANE":" ","ALLEY":" ","HOUSE_NO":"７４號三樓","E_COORD97":170864.44,"N_COORD97":2543653.3199999998,"ADDRESS":"怡東路７４號三樓","OBJECTID":523987},"geometry":{"x":170864.44000000134,"y":2543653.3200000022}},{"attributes":{"ID":524015,"DIS_CODE":0,"TOWNNAME":"東區","LI":"裕農里","LIN":"6鄰","STREET":"裕農路","SECT":" ","MAREA":" ","LANE":" ","ALLEY":" ","HOUSE_NO":"３７５號二樓之９","E_COORD97":171070.95000000001,"N_COORD97":2543109.4100000001,"ADDRESS":"裕農路３７５號二樓之９","OBJECTID":523988},"geometry":{"x":171070.95000000112,"y":2543109.4099999983}},{"attributes":{"ID":524016,"DIS_CODE":0,"TOWNNAME":"東區","LI":"裕農里","LIN":"6鄰","STREET":"裕農路","SECT":" ","MAREA":" ","LANE":" ","ALLEY":" ","HOUSE_NO":"３７５號二樓之１０","E_COORD97":171070.95000000001,"N_COORD97":2543109.4100000001,"ADDRESS":"裕農路３７５號二樓之１０","OBJECTID":523989},"geometry":{"x":171070.95000000112,"y":2543109.4099999983}},{"attributes":{"ID":524017,"DIS_CODE":0,"TOWNNAME":"南區","LI":"文華里","LIN":"27鄰","STREET":"中華西路","SECT":"一段","MAREA":" ","LANE":" ","ALLEY":" ","HOUSE_NO":"４８０號","E_COORD97":166621.73999999999,"N_COORD97":2542985.2799999998,"ADDRESS":"中華西路一段４８０號","OBJECTID":523990},"geometry":{"x":166621.73999999929,"y":2542985.2800000012}},{"attributes":{"ID":524018,"DIS_CODE":0,"TOWNNAME":"東區","LI":"裕農里","LIN":"6鄰","STREET":"裕農路","SECT":" ","MAREA":" ","LANE":" ","ALLEY":" ","HOUSE_NO":"３７５號三樓","E_COORD97":171070.95000000001,"N_COORD97":2543109.4100000001,"ADDRESS":"裕農路３７５號三樓","OBJECTID":523991},"geometry":{"x":171070.95000000112,"y":2543109.4099999983}},{"attributes":{"ID":524019,"DIS_CODE":0,"TOWNNAME":"東區","LI":"裕農里","LIN":"6鄰","STREET":"裕農路","SECT":" ","MAREA":" ","LANE":" ","ALLEY":" ","HOUSE_NO":"３７５號三樓之１","E_COORD97":171070.95000000001,"N_COORD97":2543109.4100000001,"ADDRESS":"裕農路３７５號三樓之１","OBJECTID":523992},"geometry":{"x":171070.95000000112,"y":2543109.4099999983}},{"attributes":{"ID":524020,"DIS_CODE":0,"TOWNNAME":"東區","LI":"裕農里","LIN":"6鄰","STREET":"裕農路","SECT":" ","MAREA":" ","LANE":" ","ALLEY":" ","HOUSE_NO":"３７５號三樓之２","E_COORD97":171070.95000000001,"N_COORD97":2543109.4100000001,"ADDRESS":"裕農路３７５號三樓之２","OBJECTID":523993},"geometry":{"x":171070.95000000112,"y":2543109.4099999983}},{"attributes":{"ID":524021,"DIS_CODE":0,"TOWNNAME":"東區","LI":"裕農里","LIN":"6鄰","STREET":"裕農路","SECT":" ","MAREA":" ","LANE":" ","ALLEY":" ","HOUSE_NO":"３７５號三樓之３","E_COORD97":171070.95000000001,"N_COORD97":2543109.4100000001,"ADDRESS":"裕農路３７５號三樓之３","OBJECTID":523994},"geometry":{"x":171070.95000000112,"y":2543109.4099999983}},{"attributes":{"ID":524022,"DIS_CODE":0,"TOWNNAME":"東區","LI":"裕農里","LIN":"6鄰","STREET":"裕農路","SECT":" ","MAREA":" ","LANE":" ","ALLEY":" ","HOUSE_NO":"３７５號四樓之１１","E_COORD97":171070.95000000001,"N_COORD97":2543109.4100000001,"ADDRESS":"裕農路３７５號四樓之１１","OBJECTID":523995},"geometry":{"x":171070.95000000112,"y":2543109.4099999983}},{"attributes":{"ID":524023,"DIS_CODE":0,"TOWNNAME":"東區","LI":"裕農里","LIN":"6鄰","STREET":"裕農路","SECT":" ","MAREA":" ","LANE":" ","ALLEY":" ","HOUSE_NO":"３７５號四樓","E_COORD97":171070.95000000001,"N_COORD97":2543109.4100000001,"ADDRESS":"裕農路３７５號四樓","OBJECTID":523996},"geometry":{"x":171070.95000000112,"y":2543109.4099999983}},{"attributes":{"ID":524024,"DIS_CODE":0,"TOWNNAME":"東區","LI":"裕農里","LIN":"6鄰","STREET":"裕農路","SECT":" ","MAREA":" ","LANE":" ","ALLEY":" ","HOUSE_NO":"３７５號四樓之１","E_COORD97":171070.95000000001,"N_COORD97":2543109.4100000001,"ADDRESS":"裕農路３７５號四樓之１","OBJECTID":523997},"geometry":{"x":171070.95000000112,"y":2543109.4099999983}},{"attributes":{"ID":524025,"DIS_CODE":0,"TOWNNAME":"東區","LI":"裕農里","LIN":"6鄰","STREET":"裕農路","SECT":" ","MAREA":" ","LANE":" ","ALLEY":" ","HOUSE_NO":"３７５號四樓之２","E_COORD97":171070.95000000001,"N_COORD97":2543109.4100000001,"ADDRESS":"裕農路３７５號四樓之２","OBJECTID":523998},"geometry":{"x":171070.95000000112,"y":2543109.4099999983}},{"attributes":{"ID":524026,"DIS_CODE":0,"TOWNNAME":"東區","LI":"裕農里","LIN":"6鄰","STREET":"裕農路","SECT":" ","MAREA":" ","LANE":" ","ALLEY":" ","HOUSE_NO":"３７５號四樓之３","E_COORD97":171070.95000000001,"N_COORD97":2543109.4100000001,"ADDRESS":"裕農路３７５號四樓之３","OBJECTID":523999},"geometry":{"x":171070.95000000112,"y":2543109.4099999983}},{"attributes":{"ID":524027,"DIS_CODE":0,"TOWNNAME":"東區","LI":"裕農里","LIN":"6鄰","STREET":"裕農路","SECT":" ","MAREA":" ","LANE":" ","ALLEY":" ","HOUSE_NO":"３７５號四樓之４","E_COORD97":171070.95000000001,"N_COORD97":2543109.4100000001,"ADDRESS":"裕農路３７５號四樓之４","OBJECTID":524000},"geometry":{"x":171070.95000000112,"y":2543109.4099999983}}]}