{"displayFieldName":"TOWNNAME","fieldAliases":{"ID":"ID","DIS_CODE":"DIS_CODE","TOWNNAME":"TOWNNAME","LI":"LI","LIN":"LIN","STREET":"STREET","SECT":"SECT","MAREA":"MAREA","LANE":"LANE","ALLEY":"ALLEY","HOUSE_NO":"HOUSE_NO","E_COORD97":"E_COORD97","N_COORD97":"N_COORD97","ADDRESS":"ADDRESS","OBJECTID":"OBJECTID"},"geometryType":"esriGeometryPoint","spatialReference":{"wkid":102443,"latestWkid":3826},"fields":[{"name":"ID","type":"esriFieldTypeDouble","alias":"ID"},{"name":"DIS_CODE","type":"esriFieldTypeInteger","alias":"DIS_CODE"},{"name":"TOWNNAME","type":"esriFieldTypeString","alias":"TOWNNAME","length":8},{"name":"LI","type":"esriFieldTypeString","alias":"LI","length":8},{"name":"LIN","type":"esriFieldTypeString","alias":"LIN","length":12},{"name":"STREET","type":"esriFieldTypeString","alias":"STREET","length":20},{"name":"SECT","type":"esriFieldTypeString","alias":"SECT","length":8},{"name":"MAREA","type":"esriFieldTypeString","alias":"MAREA","length":12},{"name":"LANE","type":"esriFieldTypeString","alias":"LANE","length":10},{"name":"ALLEY","type":"esriFieldTypeString","alias":"ALLEY","length":10},{"name":"HOUSE_NO","type":"esriFieldTypeString","alias":"HOUSE_NO","length":20},{"name":"E_COORD97","type":"esriFieldTypeDouble","alias":"E_COORD97"},{"name":"N_COORD97","type":"esriFieldTypeDouble","alias":"N_COORD97"},{"name":"ADDRESS","type":"esriFieldTypeString","alias":"ADDRESS","length":50},{"name":"OBJECTID","type":"esriFieldTypeOID","alias":"OBJECTID"}],"features":[{"attributes":{"ID":624028,"DIS_CODE":0,"TOWNNAME":"永康區","LI":"東橋里","LIN":"25鄰","STREET":"中正路","SECT":" ","MAREA":" ","LANE":" ","ALLEY":" ","HOUSE_NO":"２１９號","E_COORD97":173037.26000000001,"N_COORD97":2547968.8500000001,"ADDRESS":"中正路２１９號","OBJECTID":624001},"geometry":{"x":173037.25999999978,"y":2547968.8500000015}},{"attributes":{"ID":624029,"DIS_CODE":0,"TOWNNAME":"永康區","LI":"東灣里","LIN":"32鄰","STREET":"大灣一街","SECT":" ","MAREA":" ","LANE":" ","ALLEY":" ","HOUSE_NO":"３２８號","E_COORD97":175060.29999999999,"N_COORD97":2544732.8300000001,"ADDRESS":"大灣一街３２８號","OBJECTID":624002},"geometry":{"x":175060.30000000075,"y":2544732.8300000001}},{"attributes":{"ID":624030,"DIS_CODE":0,"TOWNNAME":"永康區","LI":"東灣里","LIN":"18鄰","STREET":"民族路","SECT":" ","MAREA":" ","LANE":" ","ALLEY":" ","HOUSE_NO":"１９１號","E_COORD97":175244.57000000001,"N_COORD97":2544893.1699999999,"ADDRESS":"民族路１９１號","OBJECTID":624003},"geometry":{"x":175244.5700000003,"y":2544893.1699999999}},{"attributes":{"ID":624031,"DIS_CODE":0,"TOWNNAME":"永康區","LI":"東灣里","LIN":"5鄰","STREET":"大灣三街","SECT":" ","MAREA":" ","LANE":" ","ALLEY":" ","HOUSE_NO":"１４８號","E_COORD97":174649.73000000001,"N_COORD97":2545067.6000000001,"ADDRESS":"大灣三街１４８號","OBJECTID":624004},"geometry":{"x":174649.73000000045,"y":2545067.6000000034}},{"attributes":{"ID":624032,"DIS_CODE":0,"TOWNNAME":"永康區","LI":"南灣里","LIN":"18鄰","STREET":"立興街","SECT":" ","MAREA":" ","LANE":" ","ALLEY":" ","HOUSE_NO":"１７２號","E_COORD97":174321.34,"N_COORD97":2544607.6600000001,"ADDRESS":"立興街１７２號","OBJECTID":624005},"geometry":{"x":174321.33999999985,"y":2544607.660000002}},{"attributes":{"ID":624033,"DIS_CODE":0,"TOWNNAME":"永康區","LI":"東橋里","LIN":"25鄰","STREET":"中正路","SECT":" ","MAREA":" ","LANE":" ","ALLEY":" ","HOUSE_NO":"２２１號","E_COORD97":173030.60999999999,"N_COORD97":2547971.8500000001,"ADDRESS":"中正路２２１號","OBJECTID":624006},"geometry":{"x":173030.6100000022,"y":2547971.8500000015}},{"attributes":{"ID":624034,"DIS_CODE":0,"TOWNNAME":"永康區","LI":"東灣里","LIN":"32鄰","STREET":"大灣一街","SECT":" ","MAREA":" ","LANE":" ","ALLEY":" ","HOUSE_NO":"３２２號","E_COORD97":175054.47,"N_COORD97":2544726.8300000001,"ADDRESS":"大灣一街３２２號","OBJECTID":624007},"geometry":{"x":175054.46999999974,"y":2544726.8300000001}},{"attributes":{"ID":624035,"DIS_CODE":0,"TOWNNAME":"永康區","LI":"建國里","LIN":"32鄰","STREET":"復興路","SECT":" ","MAREA":" ","LANE":" ","ALLEY":" ","HOUSE_NO":"６９號","E_COORD97":172991.88,"N_COORD97":2544284.27,"ADDRESS":"復興路６９號","OBJECTID":624008},"geometry":{"x":172991.88000000082,"y":2544284.2700000014}},{"attributes":{"ID":624036,"DIS_CODE":0,"TOWNNAME":"永康區","LI":"南灣里","LIN":"18鄰","STREET":"立興街","SECT":" ","MAREA":" ","LANE":" ","ALLEY":" ","HOUSE_NO":"１３８號","E_COORD97":174418.42000000001,"N_COORD97":2544675.5499999998,"ADDRESS":"立興街１３８號","OBJECTID":624009},"geometry":{"x":174418.42000000086,"y":2544675.5500000045}},{"attributes":{"ID":624037,"DIS_CODE":0,"TOWNNAME":"永康區","LI":"東橋里","LIN":"25鄰","STREET":"中正路","SECT":" ","MAREA":" ","LANE":" ","ALLEY":" ","HOUSE_NO":"２２９號之１","E_COORD97":173002.03,"N_COORD97":2547988.6499999999,"ADDRESS":"中正路２２９號之１","OBJECTID":624010},"geometry":{"x":173002.03000000026,"y":2547988.6500000022}},{"attributes":{"ID":624038,"DIS_CODE":0,"TOWNNAME":"永康區","LI":"東橋里","LIN":"18鄰","STREET":"中山南路","SECT":" ","MAREA":" ","LANE":" ","ALLEY":" ","HOUSE_NO":"３７５號","E_COORD97":172726.13,"N_COORD97":2546794.3900000001,"ADDRESS":"中山南路３７５號","OBJECTID":624011},"geometry":{"x":172726.12999999989,"y":2546794.3900000006}},{"attributes":{"ID":624039,"DIS_CODE":0,"TOWNNAME":"永康區","LI":"東灣里","LIN":"25鄰","STREET":"大灣二街","SECT":" ","MAREA":" ","LANE":" ","ALLEY":" ","HOUSE_NO":"８１號","E_COORD97":174786.04000000001,"N_COORD97":2544757.7000000002,"ADDRESS":"大灣二街８１號","OBJECTID":624012},"geometry":{"x":174786.04000000097,"y":2544757.700000003}},{"attributes":{"ID":624040,"DIS_CODE":0,"TOWNNAME":"永康區","LI":"東橋里","LIN":"25鄰","STREET":"中正路","SECT":" ","MAREA":" ","LANE":" ","ALLEY":" ","HOUSE_NO":"３４２號","E_COORD97":172969.73000000001,"N_COORD97":2548041.48,"ADDRESS":"中正路３４２號","OBJECTID":624013},"geometry":{"x":172969.73000000138,"y":2548041.4800000004}},{"attributes":{"ID":624041,"DIS_CODE":0,"TOWNNAME":"永康區","LI":"東橋里","LIN":"25鄰","STREET":"中正路","SECT":" ","MAREA":" ","LANE":" ","ALLEY":" ","HOUSE_NO":"２６７號","E_COORD97":172865.12,"N_COORD97":2548053.2400000002,"ADDRESS":"中正路２６７號","OBJECTID":624014},"geometry":{"x":172865.12000000011,"y":2548053.2400000002}},{"attributes":{"ID":624042,"DIS_CODE":0,"TOWNNAME":"永康區","LI":"東灣里","LIN":"25鄰","STREET":"大灣二街","SECT":" ","MAREA":" ","LANE":" ","ALLEY":" ","HOUSE_NO":"８９號","E_COORD97":174770.39000000001,"N_COORD97":2544763.9500000002,"ADDRESS":"大灣二街８９號","OBJECTID":624015},"geometry":{"x":174770.38999999966,"y":2544763.9500000011}},{"attributes":{"ID":624043,"DIS_CODE":0,"TOWNNAME":"永康區","LI":"南灣里","LIN":"18鄰","STREET":"立興街","SECT":" ","MAREA":" ","LANE":" ","ALLEY":" ","HOUSE_NO":"１７０號","E_COORD97":174325.23999999999,"N_COORD97":2544610.6600000001,"ADDRESS":"立興街１７０號","OBJECTID":624016},"geometry":{"x":174325.24000000115,"y":2544610.660000002}},{"attributes":{"ID":624044,"DIS_CODE":0,"TOWNNAME":"永康區","LI":"東橋里","LIN":"20鄰","STREET":"自強路","SECT":" ","MAREA":" ","LANE":" ","ALLEY":" ","HOUSE_NO":"３２號","E_COORD97":172780.82999999999,"N_COORD97":2547217.4900000002,"ADDRESS":"自強路３２號","OBJECTID":624017},"geometry":{"x":172780.83000000007,"y":2547217.4900000002}},{"attributes":{"ID":624045,"DIS_CODE":0,"TOWNNAME":"永康區","LI":"東灣里","LIN":"32鄰","STREET":"大灣一街","SECT":" ","MAREA":" ","LANE":" ","ALLEY":" ","HOUSE_NO":"３４２號","E_COORD97":175086.87,"N_COORD97":2544754.79,"ADDRESS":"大灣一街３４２號","OBJECTID":624018},"geometry":{"x":175086.87000000104,"y":2544754.790000001}},{"attributes":{"ID":624046,"DIS_CODE":0,"TOWNNAME":"永康區","LI":"東橋里","LIN":"18鄰","STREET":"中山南路","SECT":" ","MAREA":" ","LANE":" ","ALLEY":" ","HOUSE_NO":"３６７號","E_COORD97":172709.51000000001,"N_COORD97":2546788.6400000001,"ADDRESS":"中山南路３６７號","OBJECTID":624019},"geometry":{"x":172709.50999999978,"y":2546788.6400000025}},{"attributes":{"ID":624047,"DIS_CODE":0,"TOWNNAME":"永康區","LI":"東橋里","LIN":"18鄰","STREET":"中山南路","SECT":" ","MAREA":" ","LANE":" ","ALLEY":" ","HOUSE_NO":"４０９號","E_COORD97":172800.66,"N_COORD97":2546822.8999999999,"ADDRESS":"中山南路４０９號","OBJECTID":624020},"geometry":{"x":172800.66000000015,"y":2546822.9000000022}},{"attributes":{"ID":624048,"DIS_CODE":0,"TOWNNAME":"永康區","LI":"東橋里","LIN":"25鄰","STREET":"中正路","SECT":" ","MAREA":" ","LANE":" ","ALLEY":" ","HOUSE_NO":"２２９號之２","E_COORD97":172996.51999999999,"N_COORD97":2547991.1499999999,"ADDRESS":"中正路２２９號之２","OBJECTID":624021},"geometry":{"x":172996.52000000142,"y":2547991.1500000022}},{"attributes":{"ID":624049,"DIS_CODE":0,"TOWNNAME":"永康區","LI":"埔園里","LIN":"34鄰","STREET":"八德街","SECT":" ","MAREA":" ","LANE":" ","ALLEY":" ","HOUSE_NO":"９２號","E_COORD97":174150.79000000001,"N_COORD97":2548530.8700000001,"ADDRESS":"八德街９２號","OBJECTID":624022},"geometry":{"x":174150.79000000004,"y":2548530.870000001}},{"attributes":{"ID":624050,"DIS_CODE":0,"TOWNNAME":"永康區","LI":"東灣里","LIN":"32鄰","STREET":"大灣一街","SECT":" ","MAREA":" ","LANE":" ","ALLEY":" ","HOUSE_NO":"３４８號","E_COORD97":175093.95999999999,"N_COORD97":2544759.79,"ADDRESS":"大灣一街３４８號","OBJECTID":624023},"geometry":{"x":175093.95999999996,"y":2544759.7899999991}},{"attributes":{"ID":624051,"DIS_CODE":0,"TOWNNAME":"永康區","LI":"東灣里","LIN":"32鄰","STREET":"大灣一街","SECT":" ","MAREA":" ","LANE":" ","ALLEY":" ","HOUSE_NO":"３３０號","E_COORD97":175063.38,"N_COORD97":2544735.8300000001,"ADDRESS":"大灣一街３３０號","OBJECTID":624024},"geometry":{"x":175063.38000000082,"y":2544735.8300000001}},{"attributes":{"ID":624052,"DIS_CODE":0,"TOWNNAME":"佳里區","LI":"忠仁里","LIN":"14鄰","STREET":"平等街","SECT":" ","MAREA":" ","LANE":" ","ALLEY":" ","HOUSE_NO":"１８號","E_COORD97":166190.62,"N_COORD97":2561953.9399999999,"ADDRESS":"平等街１８號","OBJECTID":624025},"geometry":{"x":166190.62000000104,"y":2561953.9400000013}},{"attributes":{"ID":624053,"DIS_CODE":0,"TOWNNAME":"佳里區","LI":"建南里","LIN":"17鄰","STREET":"平等街","SECT":" ","MAREA":" ","LANE":" ","ALLEY":" ","HOUSE_NO":"２０３號","E_COORD97":165603.89000000001,"N_COORD97":2561881.6200000001,"ADDRESS":"平等街２０３號","OBJECTID":624026},"geometry":{"x":165603.8900000006,"y":2561881.6200000048}},{"attributes":{"ID":624054,"DIS_CODE":0,"TOWNNAME":"佳里區","LI":"建南里","LIN":"17鄰","STREET":"平等街","SECT":" ","MAREA":" ","LANE":" ","ALLEY":" ","HOUSE_NO":"２０５號","E_COORD97":165593.62,"N_COORD97":2561881.4399999999,"ADDRESS":"平等街２０５號","OBJECTID":624027},"geometry":{"x":165593.62000000197,"y":2561881.4400000032}},{"attributes":{"ID":624055,"DIS_CODE":0,"TOWNNAME":"佳里區","LI":"建南里","LIN":"17鄰","STREET":"平等街","SECT":" ","MAREA":" ","LANE":" ","ALLEY":" ","HOUSE_NO":"２０８號","E_COORD97":165607.73000000001,"N_COORD97":2561895.0800000001,"ADDRESS":"平等街２０８號","OBJECTID":624028},"geometry":{"x":165607.73000000045,"y":2561895.0800000019}},{"attributes":{"ID":624056,"DIS_CODE":0,"TOWNNAME":"佳里區","LI":"建南里","LIN":"17鄰","STREET":"平等街","SECT":" ","MAREA":" ","LANE":" ","ALLEY":" ","HOUSE_NO":"２０９號","E_COORD97":165585.92000000001,"N_COORD97":2561879.52,"ADDRESS":"平等街２０９號","OBJECTID":624029},"geometry":{"x":165585.91999999993,"y":2561879.5199999996}},{"attributes":{"ID":624057,"DIS_CODE":0,"TOWNNAME":"佳里區","LI":"建南里","LIN":"17鄰","STREET":"平等街","SECT":" ","MAREA":" ","LANE":" ","ALLEY":" ","HOUSE_NO":"２１０號","E_COORD97":165603.70999999999,"N_COORD97":2561895.0899999999,"ADDRESS":"平等街２１０號","OBJECTID":624030},"geometry":{"x":165603.71000000089,"y":2561895.0900000017}},{"attributes":{"ID":624058,"DIS_CODE":0,"TOWNNAME":"佳里區","LI":"建南里","LIN":"17鄰","STREET":"平等街","SECT":" ","MAREA":" ","LANE":" ","ALLEY":" ","HOUSE_NO":"２１１號","E_COORD97":165581.48999999999,"N_COORD97":2561879.5600000001,"ADDRESS":"平等街２１１號","OBJECTID":624031},"geometry":{"x":165581.49000000115,"y":2561879.5600000024}},{"attributes":{"ID":624059,"DIS_CODE":0,"TOWNNAME":"佳里區","LI":"建南里","LIN":"17鄰","STREET":"平等街","SECT":" ","MAREA":" ","LANE":" ","ALLEY":" ","HOUSE_NO":"２１２號","E_COORD97":165597.45000000001,"N_COORD97":2561900.3700000001,"ADDRESS":"平等街２１２號","OBJECTID":624032},"geometry":{"x":165597.45000000019,"y":2561900.3700000048}},{"attributes":{"ID":624060,"DIS_CODE":0,"TOWNNAME":"佳里區","LI":"建南里","LIN":"17鄰","STREET":"平等街","SECT":" ","MAREA":" ","LANE":" ","ALLEY":" ","HOUSE_NO":"２１３號","E_COORD97":165577.07000000001,"N_COORD97":2561879.8500000001,"ADDRESS":"平等街２１３號","OBJECTID":624033},"geometry":{"x":165577.07000000216,"y":2561879.8500000015}},{"attributes":{"ID":624061,"DIS_CODE":0,"TOWNNAME":"佳里區","LI":"建南里","LIN":"17鄰","STREET":"平等街","SECT":" ","MAREA":" ","LANE":" ","ALLEY":" ","HOUSE_NO":"２１５號","E_COORD97":165573.13,"N_COORD97":2561879.7400000002,"ADDRESS":"平等街２１５號","OBJECTID":624034},"geometry":{"x":165573.13000000082,"y":2561879.7399999984}},{"attributes":{"ID":624062,"DIS_CODE":0,"TOWNNAME":"佳里區","LI":"建南里","LIN":"17鄰","STREET":"平等街","SECT":" ","MAREA":" ","LANE":" ","ALLEY":" ","HOUSE_NO":"２１６號","E_COORD97":165590.07999999999,"N_COORD97":2561895.9199999999,"ADDRESS":"平等街２１６號","OBJECTID":624035},"geometry":{"x":165590.08000000007,"y":2561895.9200000018}},{"attributes":{"ID":624063,"DIS_CODE":0,"TOWNNAME":"佳里區","LI":"建南里","LIN":"17鄰","STREET":"平等街","SECT":" ","MAREA":" ","LANE":" ","ALLEY":" ","HOUSE_NO":"２１７號","E_COORD97":165569.04000000001,"N_COORD97":2561879.79,"ADDRESS":"平等街２１７號","OBJECTID":624036},"geometry":{"x":165569.04000000097,"y":2561879.790000001}},{"attributes":{"ID":624064,"DIS_CODE":0,"TOWNNAME":"中西區","LI":"郡王里","LIN":"15鄰","STREET":"建業街","SECT":" ","MAREA":" ","LANE":" ","ALLEY":" ","HOUSE_NO":"８０號","E_COORD97":168487.04999999999,"N_COORD97":2543167.54,"ADDRESS":"建業街８０號","OBJECTID":624037},"geometry":{"x":168487.04999999981,"y":2543167.5399999991}},{"attributes":{"ID":624065,"DIS_CODE":0,"TOWNNAME":"佳里區","LI":"鎮山里","LIN":"6鄰","STREET":"平等街","SECT":" ","MAREA":" ","LANE":" ","ALLEY":" ","HOUSE_NO":"１號","E_COORD97":166173.67999999999,"N_COORD97":2561926.2400000002,"ADDRESS":"平等街１號","OBJECTID":624038},"geometry":{"x":166173.6799999997,"y":2561926.2400000002}},{"attributes":{"ID":624066,"DIS_CODE":0,"TOWNNAME":"佳里區","LI":"鎮山里","LIN":"4鄰","STREET":"平等街","SECT":" ","MAREA":" ","LANE":" ","ALLEY":" ","HOUSE_NO":"８３號","E_COORD97":166013.63,"N_COORD97":2561907.5099999998,"ADDRESS":"平等街８３號","OBJECTID":624039},"geometry":{"x":166013.63000000175,"y":2561907.5099999998}},{"attributes":{"ID":624067,"DIS_CODE":0,"TOWNNAME":"佳里區","LI":"鎮山里","LIN":"4鄰","STREET":"平等街","SECT":" ","MAREA":" ","LANE":" ","ALLEY":" ","HOUSE_NO":"８５號","E_COORD97":166006.22,"N_COORD97":2561903.9199999999,"ADDRESS":"平等街８５號","OBJECTID":624040},"geometry":{"x":166006.2200000016,"y":2561903.9199999999}},{"attributes":{"ID":624068,"DIS_CODE":0,"TOWNNAME":"佳里區","LI":"鎮山里","LIN":"4鄰","STREET":"平等街","SECT":" ","MAREA":" ","LANE":" ","ALLEY":" ","HOUSE_NO":"８７號","E_COORD97":166002.14999999999,"N_COORD97":2561903.5800000001,"ADDRESS":"平等街８７號","OBJECTID":624041},"geometry":{"x":166002.15000000224,"y":2561903.5800000001}},{"attributes":{"ID":624069,"DIS_CODE":0,"TOWNNAME":"佳里區","LI":"鎮山里","LIN":"4鄰","STREET":"平等街","SECT":" ","MAREA":" ","LANE":" ","ALLEY":" ","HOUSE_NO":"８９號","E_COORD97":165997.85000000001,"N_COORD97":2561903,"ADDRESS":"平等街８９號","OBJECTID":624042},"geometry":{"x":165997.84999999963,"y":2561903.0000000019}},{"attributes":{"ID":624070,"DIS_CODE":0,"TOWNNAME":"佳里區","LI":"鎮山里","LIN":"4鄰","STREET":"平等街","SECT":" ","MAREA":" ","LANE":" ","ALLEY":" ","HOUSE_NO":"９１號","E_COORD97":165994.07000000001,"N_COORD97":2561902.1800000002,"ADDRESS":"平等街９１號","OBJECTID":624043},"geometry":{"x":165994.06999999937,"y":2561902.1799999997}},{"attributes":{"ID":624071,"DIS_CODE":0,"TOWNNAME":"佳里區","LI":"鎮山里","LIN":"4鄰","STREET":"平等街","SECT":" ","MAREA":" ","LANE":" ","ALLEY":" ","HOUSE_NO":"９３號","E_COORD97":165989.57000000001,"N_COORD97":2561901.4100000001,"ADDRESS":"平等街９３號","OBJECTID":624044},"geometry":{"x":165989.57000000123,"y":2561901.4100000001}},{"attributes":{"ID":624072,"DIS_CODE":0,"TOWNNAME":"佳里區","LI":"忠仁里","LIN":"14鄰","STREET":"平等街","SECT":" ","MAREA":" ","LANE":" ","ALLEY":" ","HOUSE_NO":"２號","E_COORD97":166310.10000000001,"N_COORD97":2561967.8999999999,"ADDRESS":"平等街２號","OBJECTID":624045},"geometry":{"x":166310.0999999987,"y":2561967.9000000022}},{"attributes":{"ID":624073,"DIS_CODE":0,"TOWNNAME":"佳里區","LI":"建南里","LIN":"17鄰","STREET":"平等街","SECT":" ","MAREA":" ","LANE":" ","ALLEY":" ","HOUSE_NO":"２２０號","E_COORD97":165585.06,"N_COORD97":2561895.8999999999,"ADDRESS":"平等街２２０號","OBJECTID":624046},"geometry":{"x":165585.06000000052,"y":2561895.9000000041}},{"attributes":{"ID":624074,"DIS_CODE":0,"TOWNNAME":"佳里區","LI":"忠仁里","LIN":"17鄰","STREET":"平等街","SECT":" ","MAREA":" ","LANE":" ","ALLEY":" ","HOUSE_NO":"４６號","E_COORD97":166102.64999999999,"N_COORD97":2561940.46,"ADDRESS":"平等街４６號","OBJECTID":624047},"geometry":{"x":166102.6500000013,"y":2561940.4600000046}},{"attributes":{"ID":624075,"DIS_CODE":0,"TOWNNAME":"佳里區","LI":"忠仁里","LIN":"17鄰","STREET":"平等街","SECT":" ","MAREA":" ","LANE":" ","ALLEY":" ","HOUSE_NO":"４８號","E_COORD97":166098.5,"N_COORD97":2561940.04,"ADDRESS":"平等街４８號","OBJECTID":624048},"geometry":{"x":166098.50000000093,"y":2561940.0399999991}},{"attributes":{"ID":624076,"DIS_CODE":0,"TOWNNAME":"佳里區","LI":"忠仁里","LIN":"17鄰","STREET":"平等街","SECT":" ","MAREA":" ","LANE":" ","ALLEY":" ","HOUSE_NO":"５０號","E_COORD97":166093.98999999999,"N_COORD97":2561939.46,"ADDRESS":"平等街５０號","OBJECTID":624049},"geometry":{"x":166093.99000000022,"y":2561939.4600000009}},{"attributes":{"ID":624077,"DIS_CODE":0,"TOWNNAME":"佳里區","LI":"忠仁里","LIN":"17鄰","STREET":"平等街","SECT":" ","MAREA":" ","LANE":" ","ALLEY":" ","HOUSE_NO":"５２號","E_COORD97":166089.37,"N_COORD97":2561938.73,"ADDRESS":"平等街５２號","OBJECTID":624050},"geometry":{"x":166089.37000000104,"y":2561938.7300000023}},{"attributes":{"ID":624078,"DIS_CODE":0,"TOWNNAME":"佳里區","LI":"忠仁里","LIN":"17鄰","STREET":"平等街","SECT":" ","MAREA":" ","LANE":" ","ALLEY":" ","HOUSE_NO":"６２號","E_COORD97":166052.89999999999,"N_COORD97":2561934.25,"ADDRESS":"平等街６２號","OBJECTID":624051},"geometry":{"x":166052.89999999944,"y":2561934.2500000019}},{"attributes":{"ID":624079,"DIS_CODE":0,"TOWNNAME":"佳里區","LI":"忠仁里","LIN":"17鄰","STREET":"平等街","SECT":" ","MAREA":" ","LANE":" ","ALLEY":" ","HOUSE_NO":"９２號","E_COORD97":165991.60000000001,"N_COORD97":2561923.5899999999,"ADDRESS":"平等街９２號","OBJECTID":624052},"geometry":{"x":165991.60000000149,"y":2561923.5899999999}},{"attributes":{"ID":624080,"DIS_CODE":0,"TOWNNAME":"佳里區","LI":"鎮山里","LIN":"6鄰","STREET":"平等街","SECT":" ","MAREA":" ","LANE":" ","ALLEY":" ","HOUSE_NO":"３號","E_COORD97":166167.92999999999,"N_COORD97":2561925.46,"ADDRESS":"平等街３號","OBJECTID":624053},"geometry":{"x":166167.93000000063,"y":2561925.4600000009}},{"attributes":{"ID":624081,"DIS_CODE":0,"TOWNNAME":"佳里區","LI":"鎮山里","LIN":"6鄰","STREET":"平等街","SECT":" ","MAREA":" ","LANE":" ","ALLEY":" ","HOUSE_NO":"５號","E_COORD97":166164.01999999999,"N_COORD97":2561924.7999999998,"ADDRESS":"平等街５號","OBJECTID":624054},"geometry":{"x":166164.02000000048,"y":2561924.8000000026}},{"attributes":{"ID":624082,"DIS_CODE":0,"TOWNNAME":"佳里區","LI":"鎮山里","LIN":"6鄰","STREET":"平等街","SECT":" ","MAREA":" ","LANE":" ","ALLEY":" ","HOUSE_NO":"７號","E_COORD97":166159.91,"N_COORD97":2561924.1000000001,"ADDRESS":"平等街７號","OBJECTID":624055},"geometry":{"x":166159.91000000108,"y":2561924.0999999996}},{"attributes":{"ID":624083,"DIS_CODE":0,"TOWNNAME":"佳里區","LI":"建南里","LIN":"9鄰","STREET":"光復路","SECT":" ","MAREA":" ","LANE":" ","ALLEY":" ","HOUSE_NO":"１６４號","E_COORD97":165516.63,"N_COORD97":2562198.1000000001,"ADDRESS":"光復路１６４號","OBJECTID":624056},"geometry":{"x":165516.62999999989,"y":2562198.0999999996}},{"attributes":{"ID":624084,"DIS_CODE":0,"TOWNNAME":"佳里區","LI":"建南里","LIN":"9鄰","STREET":"光復路","SECT":" ","MAREA":" ","LANE":" ","ALLEY":" ","HOUSE_NO":"１６６號","E_COORD97":165516.04000000001,"N_COORD97":2562202.7999999998,"ADDRESS":"光復路１６６號","OBJECTID":624057},"geometry":{"x":165516.0400000019,"y":2562202.8000000026}},{"attributes":{"ID":624085,"DIS_CODE":0,"TOWNNAME":"佳里區","LI":"建南里","LIN":"9鄰","STREET":"光復路","SECT":" ","MAREA":" ","LANE":" ","ALLEY":" ","HOUSE_NO":"１６８號","E_COORD97":165515.34,"N_COORD97":2562207.6899999999,"ADDRESS":"光復路１６８號","OBJECTID":624058},"geometry":{"x":165515.33999999985,"y":2562207.6899999995}},{"attributes":{"ID":624086,"DIS_CODE":0,"TOWNNAME":"佳里區","LI":"建南里","LIN":"9鄰","STREET":"光復路","SECT":" ","MAREA":" ","LANE":" ","ALLEY":" ","HOUSE_NO":"１７０號","E_COORD97":165514.51000000001,"N_COORD97":2562212.8799999999,"ADDRESS":"光復路１７０號","OBJECTID":624059},"geometry":{"x":165514.51000000071,"y":2562212.879999999}},{"attributes":{"ID":624087,"DIS_CODE":0,"TOWNNAME":"佳里區","LI":"建南里","LIN":"9鄰","STREET":"光復路","SECT":" ","MAREA":" ","LANE":" ","ALLEY":" ","HOUSE_NO":"１７２號","E_COORD97":165511.79999999999,"N_COORD97":2562220.8999999999,"ADDRESS":"光復路１７２號","OBJECTID":624060},"geometry":{"x":165511.79999999981,"y":2562220.9000000004}},{"attributes":{"ID":624088,"DIS_CODE":0,"TOWNNAME":"佳里區","LI":"建南里","LIN":"16鄰","STREET":"光復路","SECT":" ","MAREA":" ","LANE":" ","ALLEY":" ","HOUSE_NO":"１６號","E_COORD97":165559.84,"N_COORD97":2561803.25,"ADDRESS":"光復路１６號","OBJECTID":624061},"geometry":{"x":165559.84000000078,"y":2561803.2500000019}},{"attributes":{"ID":624089,"DIS_CODE":0,"TOWNNAME":"佳里區","LI":"安西里","LIN":"11鄰","STREET":"光復路","SECT":" ","MAREA":" ","LANE":" ","ALLEY":" ","HOUSE_NO":"２１９號","E_COORD97":165481.35000000001,"N_COORD97":2562308.1600000001,"ADDRESS":"光復路２１９號","OBJECTID":624062},"geometry":{"x":165481.35000000149,"y":2562308.160000002}},{"attributes":{"ID":624090,"DIS_CODE":0,"TOWNNAME":"佳里區","LI":"建南里","LIN":"11鄰","STREET":"光復路","SECT":" ","MAREA":" ","LANE":" ","ALLEY":" ","HOUSE_NO":"１６５號","E_COORD97":165489.26999999999,"N_COORD97":2562153.6000000001,"ADDRESS":"光復路１６５號","OBJECTID":624063},"geometry":{"x":165489.27000000048,"y":2562153.5999999996}},{"attributes":{"ID":624091,"DIS_CODE":0,"TOWNNAME":"佳里區","LI":"建南里","LIN":"11鄰","STREET":"光復路","SECT":" ","MAREA":" ","LANE":" ","ALLEY":" ","HOUSE_NO":"１６７號","E_COORD97":165488.95999999999,"N_COORD97":2562157.5699999998,"ADDRESS":"光復路１６７號","OBJECTID":624064},"geometry":{"x":165488.95999999996,"y":2562157.5700000003}},{"attributes":{"ID":624092,"DIS_CODE":0,"TOWNNAME":"佳里區","LI":"建南里","LIN":"11鄰","STREET":"光復路","SECT":" ","MAREA":" ","LANE":" ","ALLEY":" ","HOUSE_NO":"１７５號","E_COORD97":165425.73999999999,"N_COORD97":2562151.7400000002,"ADDRESS":"光復路１７５號","OBJECTID":624065},"geometry":{"x":165425.74000000115,"y":2562151.7400000021}},{"attributes":{"ID":624093,"DIS_CODE":0,"TOWNNAME":"佳里區","LI":"建南里","LIN":"11鄰","STREET":"光復路","SECT":" ","MAREA":" ","LANE":" ","ALLEY":" ","HOUSE_NO":"１７７號","E_COORD97":165486.60000000001,"N_COORD97":2562178.5499999998,"ADDRESS":"光復路１７７號","OBJECTID":624066},"geometry":{"x":165486.60000000056,"y":2562178.5500000007}},{"attributes":{"ID":624094,"DIS_CODE":0,"TOWNNAME":"佳里區","LI":"建南里","LIN":"11鄰","STREET":"光復路","SECT":" ","MAREA":" ","LANE":" ","ALLEY":" ","HOUSE_NO":"１７９號","E_COORD97":165486.81,"N_COORD97":2562182.71,"ADDRESS":"光復路１７９號","OBJECTID":624067},"geometry":{"x":165486.81000000052,"y":2562182.7100000046}},{"attributes":{"ID":624095,"DIS_CODE":0,"TOWNNAME":"佳里區","LI":"建南里","LIN":"11鄰","STREET":"光復路","SECT":" ","MAREA":" ","LANE":" ","ALLEY":" ","HOUSE_NO":"１８１號","E_COORD97":165485.72,"N_COORD97":2562192.8999999999,"ADDRESS":"光復路１８１號","OBJECTID":624068},"geometry":{"x":165485.7200000016,"y":2562192.9000000004}},{"attributes":{"ID":624096,"DIS_CODE":0,"TOWNNAME":"佳里區","LI":"建南里","LIN":"11鄰","STREET":"光復路","SECT":" ","MAREA":" ","LANE":" ","ALLEY":" ","HOUSE_NO":"１９３號","E_COORD97":165483.03,"N_COORD97":2562211.1299999999,"ADDRESS":"光復路１９３號","OBJECTID":624069},"geometry":{"x":165483.03000000119,"y":2562211.129999999}},{"attributes":{"ID":624097,"DIS_CODE":0,"TOWNNAME":"佳里區","LI":"建南里","LIN":"11鄰","STREET":"光復路","SECT":" ","MAREA":" ","LANE":" ","ALLEY":" ","HOUSE_NO":"１９５號","E_COORD97":165481.85000000001,"N_COORD97":2562217.3700000001,"ADDRESS":"光復路１９５號","OBJECTID":624070},"geometry":{"x":165481.85000000056,"y":2562217.370000001}},{"attributes":{"ID":624098,"DIS_CODE":0,"TOWNNAME":"佳里區","LI":"安西里","LIN":"13鄰","STREET":"光復路","SECT":" ","MAREA":" ","LANE":" ","ALLEY":" ","HOUSE_NO":"２５３號","E_COORD97":165468.48000000001,"N_COORD97":2562401.5099999998,"ADDRESS":"光復路２５３號","OBJECTID":624071},"geometry":{"x":165468.48000000138,"y":2562401.5099999998}},{"attributes":{"ID":624099,"DIS_CODE":0,"TOWNNAME":"佳里區","LI":"安西里","LIN":"13鄰","STREET":"光復路","SECT":" ","MAREA":" ","LANE":" ","ALLEY":" ","HOUSE_NO":"２５９號","E_COORD97":165484.34,"N_COORD97":2562414.4500000002,"ADDRESS":"光復路２５９號","OBJECTID":624072},"geometry":{"x":165484.33999999985,"y":2562414.4500000011}},{"attributes":{"ID":624100,"DIS_CODE":0,"TOWNNAME":"佳里區","LI":"建南里","LIN":"15鄰","STREET":"光復路","SECT":" ","MAREA":" ","LANE":" ","ALLEY":" ","HOUSE_NO":"２１號","E_COORD97":165528.42000000001,"N_COORD97":2561786.8799999999,"ADDRESS":"光復路２１號","OBJECTID":624073},"geometry":{"x":165528.41999999993,"y":2561786.8800000008}},{"attributes":{"ID":624101,"DIS_CODE":0,"TOWNNAME":"佳里區","LI":"建南里","LIN":"20鄰","STREET":"光復路","SECT":" ","MAREA":" ","LANE":" ","ALLEY":" ","HOUSE_NO":"４號之１","E_COORD97":165580.34,"N_COORD97":2561743.9300000002,"ADDRESS":"光復路４號之１","OBJECTID":624074},"geometry":{"x":165580.34000000078,"y":2561743.9300000016}},{"attributes":{"ID":624102,"DIS_CODE":0,"TOWNNAME":"佳里區","LI":"建南里","LIN":"20鄰","STREET":"光復路","SECT":" ","MAREA":" ","LANE":" ","ALLEY":" ","HOUSE_NO":"４號之２","E_COORD97":165578.60000000001,"N_COORD97":2561739.5299999998,"ADDRESS":"光復路４號之２","OBJECTID":624075},"geometry":{"x":165578.60000000056,"y":2561739.5300000012}},{"attributes":{"ID":624103,"DIS_CODE":0,"TOWNNAME":"佳里區","LI":"建南里","LIN":"20鄰","STREET":"光復路","SECT":" ","MAREA":" ","LANE":" ","ALLEY":" ","HOUSE_NO":"４號之３","E_COORD97":165577.32999999999,"N_COORD97":2561734.9900000002,"ADDRESS":"光復路４號之３","OBJECTID":624076},"geometry":{"x":165577.33000000101,"y":2561734.9900000002}},{"attributes":{"ID":624104,"DIS_CODE":0,"TOWNNAME":"佳里區","LI":"建南里","LIN":"15鄰","STREET":"光復路","SECT":" ","MAREA":" ","LANE":" ","ALLEY":" ","HOUSE_NO":"３號","E_COORD97":165530.39999999999,"N_COORD97":2561736.1499999999,"ADDRESS":"光復路３號","OBJECTID":624077},"geometry":{"x":165530.40000000037,"y":2561736.1500000022}},{"attributes":{"ID":624105,"DIS_CODE":0,"TOWNNAME":"佳里區","LI":"建南里","LIN":"15鄰","STREET":"光復路","SECT":" ","MAREA":" ","LANE":" ","ALLEY":" ","HOUSE_NO":"４１號","E_COORD97":165522.04000000001,"N_COORD97":2561836.5299999998,"ADDRESS":"光復路４１號","OBJECTID":624078},"geometry":{"x":165522.04000000004,"y":2561836.5300000031}},{"attributes":{"ID":624106,"DIS_CODE":0,"TOWNNAME":"佳里區","LI":"建南里","LIN":"15鄰","STREET":"光復路","SECT":" ","MAREA":" ","LANE":" ","ALLEY":" ","HOUSE_NO":"４５號","E_COORD97":165521.16,"N_COORD97":2561850.71,"ADDRESS":"光復路４５號","OBJECTID":624079},"geometry":{"x":165521.16000000108,"y":2561850.7100000028}},{"attributes":{"ID":624107,"DIS_CODE":0,"TOWNNAME":"佳里區","LI":"建南里","LIN":"15鄰","STREET":"光復路","SECT":" ","MAREA":" ","LANE":" ","ALLEY":" ","HOUSE_NO":"４號","E_COORD97":165581.51000000001,"N_COORD97":2561748.1600000001,"ADDRESS":"光復路４號","OBJECTID":624080},"geometry":{"x":165581.50999999978,"y":2561748.1600000039}},{"attributes":{"ID":624108,"DIS_CODE":0,"TOWNNAME":"佳里區","LI":"六安里","LIN":"30鄰","STREET":"光復路","SECT":" ","MAREA":" ","LANE":" ","ALLEY":" ","HOUSE_NO":"３４２號","E_COORD97":165530.56,"N_COORD97":2562779.6400000001,"ADDRESS":"光復路３４２號","OBJECTID":624081},"geometry":{"x":165530.55999999866,"y":2562779.6400000043}},{"attributes":{"ID":624109,"DIS_CODE":0,"TOWNNAME":"佳里區","LI":"六安里","LIN":"30鄰","STREET":"光復路","SECT":" ","MAREA":" ","LANE":" ","ALLEY":" ","HOUSE_NO":"３４６號","E_COORD97":165530.48000000001,"N_COORD97":2562783.7799999998,"ADDRESS":"光復路３４６號","OBJECTID":624082},"geometry":{"x":165530.48000000231,"y":2562783.7799999975}},{"attributes":{"ID":624110,"DIS_CODE":0,"TOWNNAME":"佳里區","LI":"六安里","LIN":"30鄰","STREET":"光復路","SECT":" ","MAREA":" ","LANE":" ","ALLEY":" ","HOUSE_NO":"３４８號","E_COORD97":165530.63,"N_COORD97":2562788.52,"ADDRESS":"光復路３４８號","OBJECTID":624083},"geometry":{"x":165530.63000000175,"y":2562788.5199999996}},{"attributes":{"ID":624111,"DIS_CODE":0,"TOWNNAME":"安南區","LI":"城西里","LIN":"4鄰","STREET":"城西街","SECT":"三段","MAREA":" ","LANE":" ","ALLEY":" ","HOUSE_NO":"１０７０之７號","E_COORD97":155535.95000000001,"N_COORD97":2550832.1899999999,"ADDRESS":"城西街三段１０７０之７號","OBJECTID":624084},"geometry":{"x":155535.95000000112,"y":2550832.1899999995}},{"attributes":{"ID":624112,"DIS_CODE":0,"TOWNNAME":"安南區","LI":"溪北里","LIN":"4鄰","STREET":"文安街","SECT":" ","MAREA":" ","LANE":" ","ALLEY":" ","HOUSE_NO":"３４之１號","E_COORD97":169405.5,"N_COORD97":2547518.1400000001,"ADDRESS":"文安街３４之１號","OBJECTID":624085},"geometry":{"x":169405.50000000093,"y":2547518.1400000006}},{"attributes":{"ID":624113,"DIS_CODE":0,"TOWNNAME":"安南區","LI":"淵中里","LIN":"4鄰","STREET":"安中路","SECT":"四段","MAREA":" ","LANE":" ","ALLEY":" ","HOUSE_NO":"７４號","E_COORD97":165175.39000000001,"N_COORD97":2550047.9300000002,"ADDRESS":"安中路四段７４號","OBJECTID":624086},"geometry":{"x":165175.38999999966,"y":2550047.9299999997}},{"attributes":{"ID":624114,"DIS_CODE":0,"TOWNNAME":"安南區","LI":"城西里","LIN":"4鄰","STREET":"城西街","SECT":"三段","MAREA":" ","LANE":" ","ALLEY":" ","HOUSE_NO":"１０５０之５號","E_COORD97":155777.89999999999,"N_COORD97":2550787.6400000001,"ADDRESS":"城西街三段１０５０之５號","OBJECTID":624087},"geometry":{"x":155777.90000000037,"y":2550787.6400000043}},{"attributes":{"ID":624115,"DIS_CODE":0,"TOWNNAME":"安南區","LI":"安順里","LIN":"20鄰","STREET":"育安一街","SECT":" ","MAREA":" ","LANE":" ","ALLEY":" ","HOUSE_NO":"１１６號","E_COORD97":169446.41,"N_COORD97":2549909.9700000002,"ADDRESS":"育安一街１１６號","OBJECTID":624088},"geometry":{"x":169446.41000000201,"y":2549909.9700000007}},{"attributes":{"ID":624116,"DIS_CODE":0,"TOWNNAME":"安南區","LI":"城東里","LIN":"1鄰","STREET":"安明路","SECT":"四段","MAREA":" ","LANE":" ","ALLEY":" ","HOUSE_NO":"８２６之７號","E_COORD97":161432.73000000001,"N_COORD97":2553197.7200000002,"ADDRESS":"安明路四段８２６之７號","OBJECTID":624089},"geometry":{"x":161432.73000000045,"y":2553197.7200000044}},{"attributes":{"ID":624117,"DIS_CODE":0,"TOWNNAME":"安南區","LI":"溪心里","LIN":"7鄰","STREET":"本原街","SECT":"二段","MAREA":" ","LANE":" ","ALLEY":" ","HOUSE_NO":"２０８號","E_COORD97":166529.20999999999,"N_COORD97":2550712.6499999999,"ADDRESS":"本原街二段２０８號","OBJECTID":624090},"geometry":{"x":166529.21000000089,"y":2550712.6499999985}},{"attributes":{"ID":624118,"DIS_CODE":0,"TOWNNAME":"安南區","LI":"溪心里","LIN":"7鄰","STREET":"本原街","SECT":"二段","MAREA":" ","LANE":" ","ALLEY":" ","HOUSE_NO":"２０６號","E_COORD97":166539.92000000001,"N_COORD97":2550715.3300000001,"ADDRESS":"本原街二段２０６號","OBJECTID":624091},"geometry":{"x":166539.91999999993,"y":2550715.3300000019}},{"attributes":{"ID":624119,"DIS_CODE":0,"TOWNNAME":"安南區","LI":"布袋里","LIN":"1鄰","STREET":"工明五路","SECT":" ","MAREA":" ","LANE":" ","ALLEY":" ","HOUSE_NO":"１３２號","E_COORD97":168464.62,"N_COORD97":2551314.7999999998,"ADDRESS":"工明五路１３２號","OBJECTID":624092},"geometry":{"x":168464.62000000011,"y":2551314.8000000007}},{"attributes":{"ID":624120,"DIS_CODE":0,"TOWNNAME":"安南區","LI":"布袋里","LIN":"1鄰","STREET":"工明二路","SECT":" ","MAREA":" ","LANE":" ","ALLEY":" ","HOUSE_NO":"１３號","E_COORD97":168709.70000000001,"N_COORD97":2551003.02,"ADDRESS":"工明二路１３號","OBJECTID":624093},"geometry":{"x":168709.70000000019,"y":2551003.0199999996}},{"attributes":{"ID":624121,"DIS_CODE":0,"TOWNNAME":"安南區","LI":"布袋里","LIN":"1鄰","STREET":"工明二路","SECT":" ","MAREA":" ","LANE":" ","ALLEY":" ","HOUSE_NO":"１５號","E_COORD97":168711.89000000001,"N_COORD97":2551011.2400000002,"ADDRESS":"工明二路１５號","OBJECTID":624094},"geometry":{"x":168711.88999999966,"y":2551011.2400000021}},{"attributes":{"ID":624122,"DIS_CODE":0,"TOWNNAME":"安南區","LI":"布袋里","LIN":"1鄰","STREET":"工明二路","SECT":" ","MAREA":" ","LANE":" ","ALLEY":" ","HOUSE_NO":"１７號","E_COORD97":168713.54000000001,"N_COORD97":2551016.1699999999,"ADDRESS":"工明二路１７號","OBJECTID":624095},"geometry":{"x":168713.54000000097,"y":2551016.1699999999}},{"attributes":{"ID":624123,"DIS_CODE":0,"TOWNNAME":"安南區","LI":"安順里","LIN":"8鄰","STREET":"安和路","SECT":"四段","MAREA":" ","LANE":" ","ALLEY":" ","HOUSE_NO":"７７號","E_COORD97":169919.20000000001,"N_COORD97":2550289.29,"ADDRESS":"安和路四段７７號","OBJECTID":624096},"geometry":{"x":169919.20000000205,"y":2550289.2899999991}},{"attributes":{"ID":624124,"DIS_CODE":0,"TOWNNAME":"安南區","LI":"布袋里","LIN":"1鄰","STREET":"工明南一路","SECT":" ","MAREA":" ","LANE":" ","ALLEY":" ","HOUSE_NO":"３９號","E_COORD97":168914.79999999999,"N_COORD97":2551064.1200000001,"ADDRESS":"工明南一路３９號","OBJECTID":624097},"geometry":{"x":168914.80000000075,"y":2551064.1200000029}},{"attributes":{"ID":624125,"DIS_CODE":0,"TOWNNAME":"安南區","LI":"布袋里","LIN":"1鄰","STREET":"工明南二路","SECT":" ","MAREA":" ","LANE":" ","ALLEY":" ","HOUSE_NO":"１２號","E_COORD97":168875.31,"N_COORD97":2550995.3599999999,"ADDRESS":"工明南二路１２號","OBJECTID":624098},"geometry":{"x":168875.31000000145,"y":2550995.3600000031}},{"attributes":{"ID":624126,"DIS_CODE":0,"TOWNNAME":"安南區","LI":"新順里","LIN":"14鄰","STREET":"永安路","SECT":" ","MAREA":" ","LANE":" ","ALLEY":" ","HOUSE_NO":"９８號","E_COORD97":170303.01999999999,"N_COORD97":2549375.9700000002,"ADDRESS":"永安路９８號","OBJECTID":624099},"geometry":{"x":170303.02000000048,"y":2549375.9700000025}},{"attributes":{"ID":624127,"DIS_CODE":0,"TOWNNAME":"安南區","LI":"海東里","LIN":"20鄰","STREET":"海佃路","SECT":"二段","MAREA":" ","LANE":" ","ALLEY":" ","HOUSE_NO":"２６３之１號","E_COORD97":166831.35000000001,"N_COORD97":2548575.3700000001,"ADDRESS":"海佃路二段２６３之１號","OBJECTID":624100},"geometry":{"x":166831.35000000056,"y":2548575.370000001}},{"attributes":{"ID":624128,"DIS_CODE":0,"TOWNNAME":"安南區","LI":"淵東里","LIN":"14鄰","STREET":"智安二街","SECT":" ","MAREA":" ","LANE":" ","ALLEY":" ","HOUSE_NO":"６７號","E_COORD97":165698.86650100001,"N_COORD97":2550249.1827400001,"ADDRESS":"智安二街６７號","OBJECTID":624101},"geometry":{"x":165698.86650099978,"y":2550249.1827450003}},{"attributes":{"ID":624129,"DIS_CODE":0,"TOWNNAME":"安南區","LI":"淵東里","LIN":"14鄰","STREET":"仁安一街","SECT":" ","MAREA":" ","LANE":" ","ALLEY":" ","HOUSE_NO":"４２號","E_COORD97":165681.67000000001,"N_COORD97":2550257.79,"ADDRESS":"仁安一街４２號","OBJECTID":624102},"geometry":{"x":165681.67000000086,"y":2550257.790000001}},{"attributes":{"ID":624130,"DIS_CODE":0,"TOWNNAME":"安南區","LI":"淵東里","LIN":"14鄰","STREET":"仁安一街","SECT":" ","MAREA":" ","LANE":" ","ALLEY":" ","HOUSE_NO":"４６號","E_COORD97":165686.51000000001,"N_COORD97":2550259.3999999999,"ADDRESS":"仁安一街４６號","OBJECTID":624103},"geometry":{"x":165686.50999999978,"y":2550259.4000000004}},{"attributes":{"ID":624131,"DIS_CODE":0,"TOWNNAME":"安南區","LI":"淵東里","LIN":"14鄰","STREET":"仁安一街","SECT":" ","MAREA":" ","LANE":" ","ALLEY":" ","HOUSE_NO":"４８號","E_COORD97":165689.92999999999,"N_COORD97":2550261.0099999998,"ADDRESS":"仁安一街４８號","OBJECTID":624104},"geometry":{"x":165689.93000000063,"y":2550261.0099999998}},{"attributes":{"ID":624132,"DIS_CODE":0,"TOWNNAME":"安南區","LI":"新順里","LIN":"20鄰","STREET":"培安路","SECT":" ","MAREA":" ","LANE":" ","ALLEY":" ","HOUSE_NO":"１６５號","E_COORD97":169199.64999999999,"N_COORD97":2549306.0499999998,"ADDRESS":"培安路１６５號","OBJECTID":624105},"geometry":{"x":169199.6500000013,"y":2549306.0500000007}},{"attributes":{"ID":624133,"DIS_CODE":0,"TOWNNAME":"安南區","LI":"佃東里","LIN":"14鄰","STREET":"公學路","SECT":"四段","MAREA":" ","LANE":" ","ALLEY":" ","HOUSE_NO":"３８號","E_COORD97":165841.78,"N_COORD97":2552055.5600000001,"ADDRESS":"公學路四段３８號","OBJECTID":624106},"geometry":{"x":165841.78000000212,"y":2552055.5600000005}},{"attributes":{"ID":624134,"DIS_CODE":0,"TOWNNAME":"安南區","LI":"新順里","LIN":"14鄰","STREET":"永安二街","SECT":" ","MAREA":" ","LANE":" ","ALLEY":" ","HOUSE_NO":"６５號","E_COORD97":169941.26999999999,"N_COORD97":2549277.5800000001,"ADDRESS":"永安二街６５號","OBJECTID":624107},"geometry":{"x":169941.26999999955,"y":2549277.5800000001}},{"attributes":{"ID":624135,"DIS_CODE":0,"TOWNNAME":"安南區","LI":"新順里","LIN":"17鄰","STREET":"頂安街","SECT":" ","MAREA":" ","LANE":" ","ALLEY":" ","HOUSE_NO":"１３７號","E_COORD97":169337.91,"N_COORD97":2549364.1000000001,"ADDRESS":"頂安街１３７號","OBJECTID":624108},"geometry":{"x":169337.90999999922,"y":2549364.1000000015}},{"attributes":{"ID":624136,"DIS_CODE":0,"TOWNNAME":"安南區","LI":"淵中里","LIN":"17鄰","STREET":"海中街","SECT":" ","MAREA":" ","LANE":" ","ALLEY":" ","HOUSE_NO":"６５１號","E_COORD97":165850.25,"N_COORD97":2549630.71,"ADDRESS":"海中街６５１號","OBJECTID":624109},"geometry":{"x":165850.25000000186,"y":2549630.7100000009}},{"attributes":{"ID":624137,"DIS_CODE":0,"TOWNNAME":"安南區","LI":"布袋里","LIN":"1鄰","STREET":"工明南二路","SECT":" ","MAREA":" ","LANE":" ","ALLEY":" ","HOUSE_NO":"６７號","E_COORD97":168689.94,"N_COORD97":2551023.8500000001,"ADDRESS":"工明南二路６７號","OBJECTID":624110},"geometry":{"x":168689.94000000041,"y":2551023.8500000015}},{"attributes":{"ID":624138,"DIS_CODE":0,"TOWNNAME":"安南區","LI":"布袋里","LIN":"1鄰","STREET":"工明路","SECT":" ","MAREA":" ","LANE":" ","ALLEY":" ","HOUSE_NO":"８９號","E_COORD97":168908.75,"N_COORD97":2551167.2799999998,"ADDRESS":"工明路８９號","OBJECTID":624111},"geometry":{"x":168908.75000000093,"y":2551167.2799999993}},{"attributes":{"ID":624139,"DIS_CODE":0,"TOWNNAME":"安南區","LI":"布袋里","LIN":"1鄰","STREET":"工明南一路","SECT":" ","MAREA":" ","LANE":" ","ALLEY":" ","HOUSE_NO":"４８號","E_COORD97":168889.31,"N_COORD97":2551099.0499999998,"ADDRESS":"工明南一路４８號","OBJECTID":624112},"geometry":{"x":168889.31000000052,"y":2551099.0500000007}},{"attributes":{"ID":624140,"DIS_CODE":0,"TOWNNAME":"安南區","LI":"州北里","LIN":"20鄰","STREET":"安昌街","SECT":" ","MAREA":" ","LANE":" ","ALLEY":" ","HOUSE_NO":"１７之１號","E_COORD97":169810.98999999999,"N_COORD97":2551969.2200000002,"ADDRESS":"安昌街１７之１號","OBJECTID":624113},"geometry":{"x":169810.99000000115,"y":2551969.2200000007}},{"attributes":{"ID":624141,"DIS_CODE":0,"TOWNNAME":"安南區","LI":"安順里","LIN":"15鄰","STREET":"育安一街","SECT":" ","MAREA":" ","LANE":" ","ALLEY":" ","HOUSE_NO":"１７７號","E_COORD97":169490.60999999999,"N_COORD97":2550161.8999999999,"ADDRESS":"育安一街１７７號","OBJECTID":624114},"geometry":{"x":169490.61000000034,"y":2550161.9000000041}},{"attributes":{"ID":624142,"DIS_CODE":0,"TOWNNAME":"新市區","LI":"港墘里","LIN":"1鄰","STREET":"民族路","SECT":" ","MAREA":" ","LANE":" ","ALLEY":" ","HOUSE_NO":"７９號","E_COORD97":178431.67999999999,"N_COORD97":2553718.04,"ADDRESS":"民族路７９號","OBJECTID":624115},"geometry":{"x":178431.6799999997,"y":2553718.0399999991}},{"attributes":{"ID":624143,"DIS_CODE":0,"TOWNNAME":"新市區","LI":"港墘里","LIN":"1鄰","STREET":"民族路","SECT":" ","MAREA":" ","LANE":" ","ALLEY":" ","HOUSE_NO":"５３之１號","E_COORD97":178510.10000000001,"N_COORD97":2553773.5499999998,"ADDRESS":"民族路５３之１號","OBJECTID":624116},"geometry":{"x":178510.09999999963,"y":2553773.5500000026}},{"attributes":{"ID":624144,"DIS_CODE":0,"TOWNNAME":"新市區","LI":"港墘里","LIN":"18鄰","STREET":"華美街","SECT":" ","MAREA":" ","LANE":" ","ALLEY":" ","HOUSE_NO":"５之２號","E_COORD97":178102.98000000001,"N_COORD97":2552705.5499999998,"ADDRESS":"華美街５之２號","OBJECTID":624117},"geometry":{"x":178102.98000000045,"y":2552705.5500000026}},{"attributes":{"ID":624145,"DIS_CODE":0,"TOWNNAME":"新市區","LI":"港墘里","LIN":"18鄰","STREET":"南港街","SECT":" ","MAREA":" ","LANE":" ","ALLEY":" ","HOUSE_NO":"７９號","E_COORD97":178093.23999999999,"N_COORD97":2552740.5,"ADDRESS":"南港街７９號","OBJECTID":624118},"geometry":{"x":178093.24000000209,"y":2552740.5}},{"attributes":{"ID":624146,"DIS_CODE":0,"TOWNNAME":"新市區","LI":"新市里","LIN":"34鄰","STREET":"復興路","SECT":" ","MAREA":" ","LANE":" ","ALLEY":" ","HOUSE_NO":"７０號","E_COORD97":177828.62,"N_COORD97":2553495.2799999998,"ADDRESS":"復興路７０號","OBJECTID":624119},"geometry":{"x":177828.62000000011,"y":2553495.2800000012}},{"attributes":{"ID":624147,"DIS_CODE":0,"TOWNNAME":"新市區","LI":"港墘里","LIN":"4鄰","STREET":"三民街","SECT":" ","MAREA":" ","LANE":" ","ALLEY":" ","HOUSE_NO":"１３８號","E_COORD97":178278.59,"N_COORD97":2553537.54,"ADDRESS":"三民街１３８號","OBJECTID":624120},"geometry":{"x":178278.59000000171,"y":2553537.540000001}},{"attributes":{"ID":624148,"DIS_CODE":0,"TOWNNAME":"新市區","LI":"港墘里","LIN":"26鄰","STREET":"華美街","SECT":" ","MAREA":" ","LANE":" ","ALLEY":" ","HOUSE_NO":"４０號","E_COORD97":178167.06,"N_COORD97":2552936.0499999998,"ADDRESS":"華美街４０號","OBJECTID":624121},"geometry":{"x":178167.06000000052,"y":2552936.0500000026}},{"attributes":{"ID":624149,"DIS_CODE":0,"TOWNNAME":"新市區","LI":"永就里","LIN":"17鄰","STREET":"永華二街","SECT":" ","MAREA":" ","LANE":" ","ALLEY":" ","HOUSE_NO":"４０號","E_COORD97":177615.35999999999,"N_COORD97":2551063.5,"ADDRESS":"永華二街４０號","OBJECTID":624122},"geometry":{"x":177615.36000000034,"y":2551063.5000000019}},{"attributes":{"ID":624150,"DIS_CODE":0,"TOWNNAME":"新市區","LI":"新市里","LIN":"14鄰","STREET":"中正路","SECT":" ","MAREA":" ","LANE":" ","ALLEY":" ","HOUSE_NO":"３１１號","E_COORD97":177627.92999999999,"N_COORD97":2553260,"ADDRESS":"中正路３１１號","OBJECTID":624123},"geometry":{"x":177627.9299999997,"y":2553260.0000000019}},{"attributes":{"ID":624151,"DIS_CODE":0,"TOWNNAME":"新市區","LI":"永就里","LIN":"18鄰","STREET":"永華三街","SECT":" ","MAREA":" ","LANE":" ","ALLEY":" ","HOUSE_NO":"９號","E_COORD97":177544.79000000001,"N_COORD97":2550967.75,"ADDRESS":"永華三街９號","OBJECTID":624124},"geometry":{"x":177544.79000000004,"y":2550967.75}},{"attributes":{"ID":624152,"DIS_CODE":0,"TOWNNAME":"新市區","LI":"港墘里","LIN":"25鄰","STREET":"華美街","SECT":" ","MAREA":" ","LANE":" ","ALLEY":" ","HOUSE_NO":"３７號","E_COORD97":178141.84,"N_COORD97":2552916.0499999998,"ADDRESS":"華美街３７號","OBJECTID":624125},"geometry":{"x":178141.84000000078,"y":2552916.0500000007}},{"attributes":{"ID":624153,"DIS_CODE":0,"TOWNNAME":"新市區","LI":"新市里","LIN":"34鄰","STREET":"復興路","SECT":" ","MAREA":" ","LANE":" ","ALLEY":" ","HOUSE_NO":"１１４號","E_COORD97":177825.28,"N_COORD97":2553657.2799999998,"ADDRESS":"復興路１１４號","OBJECTID":624126},"geometry":{"x":177825.28000000119,"y":2553657.2800000031}},{"attributes":{"ID":624154,"DIS_CODE":0,"TOWNNAME":"新市區","LI":"永就里","LIN":"18鄰","STREET":"永華三街","SECT":" ","MAREA":" ","LANE":" ","ALLEY":" ","HOUSE_NO":"７號","E_COORD97":177577.34,"N_COORD97":2550971.25,"ADDRESS":"永華三街７號","OBJECTID":624127},"geometry":{"x":177577.34000000078,"y":2550971.25}},{"attributes":{"ID":624155,"DIS_CODE":0,"TOWNNAME":"新市區","LI":"永就里","LIN":"20鄰","STREET":"永華三街","SECT":" ","MAREA":" ","LANE":" ","ALLEY":" ","HOUSE_NO":"２０號","E_COORD97":177517.57000000001,"N_COORD97":2550990.75,"ADDRESS":"永華三街２０號","OBJECTID":624128},"geometry":{"x":177517.5700000003,"y":2550990.7500000019}},{"attributes":{"ID":624156,"DIS_CODE":0,"TOWNNAME":"新市區","LI":"新和里","LIN":"40鄰","STREET":"信義街","SECT":" ","MAREA":" ","LANE":" ","ALLEY":" ","HOUSE_NO":"７５號","E_COORD97":177208.59,"N_COORD97":2552920.77,"ADDRESS":"信義街７５號","OBJECTID":624129},"geometry":{"x":177208.58999999985,"y":2552920.7699999996}},{"attributes":{"ID":624157,"DIS_CODE":0,"TOWNNAME":"新市區","LI":"新市里","LIN":"34鄰","STREET":"復興路","SECT":" ","MAREA":" ","LANE":" ","ALLEY":" ","HOUSE_NO":"７２號","E_COORD97":177829.01000000001,"N_COORD97":2553508.2799999998,"ADDRESS":"復興路７２號","OBJECTID":624130},"geometry":{"x":177829.00999999978,"y":2553508.2800000012}},{"attributes":{"ID":624158,"DIS_CODE":0,"TOWNNAME":"新市區","LI":"新和里","LIN":"26鄰","STREET":"永福街","SECT":" ","MAREA":" ","LANE":" ","ALLEY":" ","HOUSE_NO":"１號","E_COORD97":177820.17999999999,"N_COORD97":2552670.25,"ADDRESS":"永福街１號","OBJECTID":624131},"geometry":{"x":177820.18000000156,"y":2552670.25}},{"attributes":{"ID":624159,"DIS_CODE":0,"TOWNNAME":"新市區","LI":"新和里","LIN":"41鄰","STREET":"西寧街","SECT":" ","MAREA":" ","LANE":" ","ALLEY":" ","HOUSE_NO":"７號","E_COORD97":177141.67000000001,"N_COORD97":2552900,"ADDRESS":"西寧街７號","OBJECTID":624132},"geometry":{"x":177141.66999999993,"y":2552899.9999999981}},{"attributes":{"ID":624160,"DIS_CODE":0,"TOWNNAME":"新市區","LI":"新和里","LIN":"39鄰","STREET":"中正路","SECT":" ","MAREA":" ","LANE":" ","ALLEY":" ","HOUSE_NO":"２１１號","E_COORD97":177418.98999999999,"N_COORD97":2553018.25,"ADDRESS":"中正路２１１號","OBJECTID":624133},"geometry":{"x":177418.99000000115,"y":2553018.2500000019}},{"attributes":{"ID":624161,"DIS_CODE":0,"TOWNNAME":"新市區","LI":"新和里","LIN":"43鄰","STREET":"民權路","SECT":" ","MAREA":" ","LANE":" ","ALLEY":" ","HOUSE_NO":"２３號","E_COORD97":177390.70999999999,"N_COORD97":2553075.54,"ADDRESS":"民權路２３號","OBJECTID":624134},"geometry":{"x":177390.70999999996,"y":2553075.5400000028}},{"attributes":{"ID":624162,"DIS_CODE":0,"TOWNNAME":"新市區","LI":"新市里","LIN":"4鄰","STREET":"華興街","SECT":" ","MAREA":" ","LANE":" ","ALLEY":" ","HOUSE_NO":"３６號","E_COORD97":177737.53,"N_COORD97":2553006.5,"ADDRESS":"華興街３６號","OBJECTID":624135},"geometry":{"x":177737.53000000119,"y":2553006.5000000019}},{"attributes":{"ID":624163,"DIS_CODE":0,"TOWNNAME":"安南區","LI":"溪心里","LIN":"4鄰","STREET":"安吉路","SECT":"二段","MAREA":" ","LANE":" ","ALLEY":" ","HOUSE_NO":"１號","E_COORD97":167016.32664700001,"N_COORD97":2550694.7940500001,"ADDRESS":"安吉路二段１號","OBJECTID":624136},"geometry":{"x":167016.32664700132,"y":2550694.7940520011}},{"attributes":{"ID":624164,"DIS_CODE":0,"TOWNNAME":"新市區","LI":"新和里","LIN":"38鄰","STREET":"成功街","SECT":" ","MAREA":" ","LANE":" ","ALLEY":" ","HOUSE_NO":"３９號","E_COORD97":177458.01999999999,"N_COORD97":2552723.27,"ADDRESS":"成功街３９號","OBJECTID":624137},"geometry":{"x":177458.01999999955,"y":2552723.2700000014}},{"attributes":{"ID":624165,"DIS_CODE":0,"TOWNNAME":"新市區","LI":"新和里","LIN":"38鄰","STREET":"成功街","SECT":" ","MAREA":" ","LANE":" ","ALLEY":" ","HOUSE_NO":"７４號","E_COORD97":177480.32000000001,"N_COORD97":2552798.02,"ADDRESS":"成功街７４號","OBJECTID":624138},"geometry":{"x":177480.3200000003,"y":2552798.0200000033}},{"attributes":{"ID":624166,"DIS_CODE":0,"TOWNNAME":"新市區","LI":"新和里","LIN":"18鄰","STREET":"銘傳街","SECT":" ","MAREA":" ","LANE":" ","ALLEY":" ","HOUSE_NO":"４０號","E_COORD97":177469.39999999999,"N_COORD97":2552670.4900000002,"ADDRESS":"銘傳街４０號","OBJECTID":624139},"geometry":{"x":177469.40000000037,"y":2552670.4900000021}},{"attributes":{"ID":624167,"DIS_CODE":0,"TOWNNAME":"新市區","LI":"新和里","LIN":"20鄰","STREET":"成功街","SECT":" ","MAREA":" ","LANE":" ","ALLEY":" ","HOUSE_NO":"２４號","E_COORD97":177460.67999999999,"N_COORD97":2552633.27,"ADDRESS":"成功街２４號","OBJECTID":624140},"geometry":{"x":177460.68000000156,"y":2552633.2699999977}},{"attributes":{"ID":624168,"DIS_CODE":0,"TOWNNAME":"新市區","LI":"新和里","LIN":"40鄰","STREET":"信義街","SECT":" ","MAREA":" ","LANE":" ","ALLEY":" ","HOUSE_NO":"９７號","E_COORD97":177208.76000000001,"N_COORD97":2552985.27,"ADDRESS":"信義街９７號","OBJECTID":624141},"geometry":{"x":177208.75999999978,"y":2552985.2699999996}},{"attributes":{"ID":624169,"DIS_CODE":0,"TOWNNAME":"新市區","LI":"新和里","LIN":"47鄰","STREET":"和平街","SECT":" ","MAREA":" ","LANE":" ","ALLEY":" ","HOUSE_NO":"１７６號","E_COORD97":177431.78,"N_COORD97":2553286,"ADDRESS":"和平街１７６號","OBJECTID":624142},"geometry":{"x":177431.78000000212,"y":2553286}},{"attributes":{"ID":624170,"DIS_CODE":0,"TOWNNAME":"中西區","LI":"中正里","LIN":"9鄰","STREET":"中正路","SECT":" ","MAREA":" ","LANE":" ","ALLEY":" ","HOUSE_NO":"２８４號","E_COORD97":167561.14999999999,"N_COORD97":2543783.8900000001,"ADDRESS":"中正路２８４號","OBJECTID":624143},"geometry":{"x":167561.15000000037,"y":2543783.8900000006}},{"attributes":{"ID":624171,"DIS_CODE":0,"TOWNNAME":"中西區","LI":"中正里","LIN":"9鄰","STREET":"中正路","SECT":" ","MAREA":" ","LANE":" ","ALLEY":" ","HOUSE_NO":"２８６號","E_COORD97":167556.95999999999,"N_COORD97":2543782.9300000002,"ADDRESS":"中正路２８６號","OBJECTID":624144},"geometry":{"x":167556.95999999996,"y":2543782.9299999997}},{"attributes":{"ID":624172,"DIS_CODE":0,"TOWNNAME":"中西區","LI":"民主里","LIN":"6鄰","STREET":"大智街","SECT":" ","MAREA":" ","LANE":" ","ALLEY":" ","HOUSE_NO":"６１號","E_COORD97":167310.37,"N_COORD97":2543514.0600000001,"ADDRESS":"大智街６１號","OBJECTID":624145},"geometry":{"x":167310.37000000011,"y":2543514.0600000024}},{"attributes":{"ID":624173,"DIS_CODE":0,"TOWNNAME":"中西區","LI":"民主里","LIN":"6鄰","STREET":"府前路","SECT":"二段","MAREA":" ","LANE":" ","ALLEY":" ","HOUSE_NO":"１４１號","E_COORD97":167368.45999999999,"N_COORD97":2543526.7599999998,"ADDRESS":"府前路二段１４１號","OBJECTID":624146},"geometry":{"x":167368.46000000089,"y":2543526.7599999998}},{"attributes":{"ID":624174,"DIS_CODE":0,"TOWNNAME":"中西區","LI":"民主里","LIN":"6鄰","STREET":"府前路","SECT":"二段","MAREA":" ","LANE":" ","ALLEY":" ","HOUSE_NO":"１４３號","E_COORD97":167360.92000000001,"N_COORD97":2543528.8700000001,"ADDRESS":"府前路二段１４３號","OBJECTID":624147},"geometry":{"x":167360.91999999993,"y":2543528.8700000029}},{"attributes":{"ID":624175,"DIS_CODE":0,"TOWNNAME":"中西區","LI":"民主里","LIN":"6鄰","STREET":"府前路","SECT":"二段","MAREA":" ","LANE":" ","ALLEY":" ","HOUSE_NO":"１４７號","E_COORD97":167354.54999999999,"N_COORD97":2543530.46,"ADDRESS":"府前路二段１４７號","OBJECTID":624148},"geometry":{"x":167354.54999999981,"y":2543530.4600000046}},{"attributes":{"ID":624176,"DIS_CODE":0,"TOWNNAME":"中西區","LI":"民主里","LIN":"6鄰","STREET":"府前路","SECT":"二段","MAREA":" ","LANE":" ","ALLEY":" ","HOUSE_NO":"１４９號","E_COORD97":167350.04999999999,"N_COORD97":2543531.2599999998,"ADDRESS":"府前路二段１４９號","OBJECTID":624149},"geometry":{"x":167350.05000000168,"y":2543531.2600000016}},{"attributes":{"ID":624177,"DIS_CODE":0,"TOWNNAME":"中西區","LI":"民主里","LIN":"6鄰","STREET":"府前路","SECT":"二段","MAREA":" ","LANE":" ","ALLEY":" ","HOUSE_NO":"１５１號","E_COORD97":167345.67999999999,"N_COORD97":2543533.5,"ADDRESS":"府前路二段１５１號","OBJECTID":624150},"geometry":{"x":167345.68000000063,"y":2543533.5000000019}},{"attributes":{"ID":624178,"DIS_CODE":0,"TOWNNAME":"中西區","LI":"民主里","LIN":"6鄰","STREET":"府前路","SECT":"二段","MAREA":" ","LANE":" ","ALLEY":" ","HOUSE_NO":"１５３號","E_COORD97":167339.20000000001,"N_COORD97":2543534.4300000002,"ADDRESS":"府前路二段１５３號","OBJECTID":624151},"geometry":{"x":167339.20000000205,"y":2543534.4300000016}},{"attributes":{"ID":624179,"DIS_CODE":0,"TOWNNAME":"中西區","LI":"民主里","LIN":"6鄰","STREET":"府前路","SECT":"二段","MAREA":" ","LANE":" ","ALLEY":" ","HOUSE_NO":"１５５號","E_COORD97":167335.23000000001,"N_COORD97":2543536.02,"ADDRESS":"府前路二段１５５號","OBJECTID":624152},"geometry":{"x":167335.23000000045,"y":2543536.0200000014}},{"attributes":{"ID":624180,"DIS_CODE":0,"TOWNNAME":"中西區","LI":"民主里","LIN":"6鄰","STREET":"府前路","SECT":"二段","MAREA":" ","LANE":" ","ALLEY":" ","HOUSE_NO":"１５７號","E_COORD97":167330.73000000001,"N_COORD97":2543537.0699999998,"ADDRESS":"府前路二段１５７號","OBJECTID":624153},"geometry":{"x":167330.73000000231,"y":2543537.0700000022}},{"attributes":{"ID":624181,"DIS_CODE":0,"TOWNNAME":"中西區","LI":"民主里","LIN":"6鄰","STREET":"府前路","SECT":"二段","MAREA":" ","LANE":" ","ALLEY":" ","HOUSE_NO":"１５９號","E_COORD97":167326.5,"N_COORD97":2543537.7400000002,"ADDRESS":"府前路二段１５９號","OBJECTID":624154},"geometry":{"x":167326.5,"y":2543537.7400000002}},{"attributes":{"ID":624182,"DIS_CODE":0,"TOWNNAME":"中西區","LI":"民主里","LIN":"13鄰","STREET":"中正路","SECT":" ","MAREA":" ","LANE":" ","ALLEY":" ","HOUSE_NO":"３４３號之６","E_COORD97":167354.06,"N_COORD97":2543800.54,"ADDRESS":"中正路３４３號之６","OBJECTID":624155},"geometry":{"x":167354.05999999959,"y":2543800.540000001}},{"attributes":{"ID":624183,"DIS_CODE":0,"TOWNNAME":"中西區","LI":"民生里","LIN":"4鄰","STREET":"武英街","SECT":" ","MAREA":" ","LANE":" ","ALLEY":" ","HOUSE_NO":"３５號","E_COORD97":167113.94,"N_COORD97":2543302.9399999999,"ADDRESS":"武英街３５號","OBJECTID":624156},"geometry":{"x":167113.94000000227,"y":2543302.9400000013}},{"attributes":{"ID":624184,"DIS_CODE":0,"TOWNNAME":"中西區","LI":"民生里","LIN":"4鄰","STREET":"武英街","SECT":" ","MAREA":" ","LANE":" ","ALLEY":" ","HOUSE_NO":"３７號","E_COORD97":167110.75,"N_COORD97":2543312.5,"ADDRESS":"武英街３７號","OBJECTID":624157},"geometry":{"x":167110.75,"y":2543312.5000000037}},{"attributes":{"ID":624185,"DIS_CODE":0,"TOWNNAME":"中西區","LI":"民生里","LIN":"11鄰","STREET":"武英街","SECT":" ","MAREA":" ","LANE":" ","ALLEY":" ","HOUSE_NO":"６６號","E_COORD97":167032.67999999999,"N_COORD97":2543358.8700000001,"ADDRESS":"武英街６６號","OBJECTID":624158},"geometry":{"x":167032.68000000063,"y":2543358.8700000029}},{"attributes":{"ID":624186,"DIS_CODE":0,"TOWNNAME":"中西區","LI":"民生里","LIN":"11鄰","STREET":"武英街","SECT":" ","MAREA":" ","LANE":" ","ALLEY":" ","HOUSE_NO":"７４號","E_COORD97":167008.06,"N_COORD97":2543358.2599999998,"ADDRESS":"武英街７４號","OBJECTID":624159},"geometry":{"x":167008.05999999959,"y":2543358.2600000016}},{"attributes":{"ID":624187,"DIS_CODE":0,"TOWNNAME":"中西區","LI":"民生里","LIN":"4鄰","STREET":"永華路","SECT":"一段","MAREA":" ","LANE":" ","ALLEY":" ","HOUSE_NO":"２０６號","E_COORD97":167098.51999999999,"N_COORD97":2543227.04,"ADDRESS":"永華路一段２０６號","OBJECTID":624160},"geometry":{"x":167098.51999999955,"y":2543227.040000001}},{"attributes":{"ID":624188,"DIS_CODE":0,"TOWNNAME":"中西區","LI":"民生里","LIN":"4鄰","STREET":"永華路","SECT":"一段","MAREA":" ","LANE":" ","ALLEY":" ","HOUSE_NO":"２０８號","E_COORD97":167094.26999999999,"N_COORD97":2543227.8300000001,"ADDRESS":"永華路一段２０８號","OBJECTID":624161},"geometry":{"x":167094.27000000048,"y":2543227.8300000001}},{"attributes":{"ID":624189,"DIS_CODE":0,"TOWNNAME":"中西區","LI":"民生里","LIN":"4鄰","STREET":"永華路","SECT":"一段","MAREA":" ","LANE":" ","ALLEY":" ","HOUSE_NO":"２１０號","E_COORD97":167090.28,"N_COORD97":2543228.8900000001,"ADDRESS":"永華路一段２１０號","OBJECTID":624162},"geometry":{"x":167090.28000000119,"y":2543228.8900000043}},{"attributes":{"ID":624190,"DIS_CODE":0,"TOWNNAME":"中西區","LI":"民生里","LIN":"4鄰","STREET":"永華路","SECT":"一段","MAREA":" ","LANE":" ","ALLEY":" ","HOUSE_NO":"２１４之２號","E_COORD97":167076.23000000001,"N_COORD97":2543245.6000000001,"ADDRESS":"永華路一段２１４之２號","OBJECTID":624163},"geometry":{"x":167076.23000000045,"y":2543245.5999999996}},{"attributes":{"ID":624191,"DIS_CODE":0,"TOWNNAME":"中西區","LI":"民生里","LIN":"4鄰","STREET":"南華街","SECT":" ","MAREA":" ","LANE":" ","ALLEY":" ","HOUSE_NO":"１６號","E_COORD97":167082.82000000001,"N_COORD97":2543280.3700000001,"ADDRESS":"南華街１６號","OBJECTID":624164},"geometry":{"x":167082.82000000123,"y":2543280.3700000048}},{"attributes":{"ID":624192,"DIS_CODE":0,"TOWNNAME":"中西區","LI":"民生里","LIN":"4鄰","STREET":"南華街","SECT":" ","MAREA":" ","LANE":" ","ALLEY":" ","HOUSE_NO":"１８號","E_COORD97":167083.64999999999,"N_COORD97":2543286.3399999999,"ADDRESS":"南華街１８號","OBJECTID":624165},"geometry":{"x":167083.65000000224,"y":2543286.3400000036}},{"attributes":{"ID":624193,"DIS_CODE":0,"TOWNNAME":"中西區","LI":"民生里","LIN":"4鄰","STREET":"南華街","SECT":" ","MAREA":" ","LANE":" ","ALLEY":" ","HOUSE_NO":"２０號","E_COORD97":167084.06,"N_COORD97":2543290.25,"ADDRESS":"南華街２０號","OBJECTID":624166},"geometry":{"x":167084.06000000052,"y":2543290.2500000037}},{"attributes":{"ID":624194,"DIS_CODE":0,"TOWNNAME":"中西區","LI":"民生里","LIN":"4鄰","STREET":"南華街","SECT":" ","MAREA":" ","LANE":" ","ALLEY":" ","HOUSE_NO":"２０號之１","E_COORD97":167086.32000000001,"N_COORD97":2543294.1600000001,"ADDRESS":"南華街２０號之１","OBJECTID":624167},"geometry":{"x":167086.32000000123,"y":2543294.1599999983}},{"attributes":{"ID":624195,"DIS_CODE":0,"TOWNNAME":"中西區","LI":"安海里","LIN":"4鄰","STREET":"金華路","SECT":"三段","MAREA":" ","LANE":" ","ALLEY":" ","HOUSE_NO":"２３０號","E_COORD97":167350.23000000001,"N_COORD97":2543959.21,"ADDRESS":"金華路三段２３０號","OBJECTID":624168},"geometry":{"x":167350.23000000045,"y":2543959.209999999}},{"attributes":{"ID":624196,"DIS_CODE":0,"TOWNNAME":"麻豆區","LI":"保安里","LIN":"14鄰","STREET":"興中路","SECT":" ","MAREA":" ","LANE":" ","ALLEY":" ","HOUSE_NO":"１０６號之７","E_COORD97":173342.32000000001,"N_COORD97":2564777.1299999999,"ADDRESS":"興中路１０６號之７","OBJECTID":624169},"geometry":{"x":173342.3200000003,"y":2564777.129999999}},{"attributes":{"ID":624197,"DIS_CODE":0,"TOWNNAME":"麻豆區","LI":"保安里","LIN":"14鄰","STREET":"興中路","SECT":" ","MAREA":" ","LANE":" ","ALLEY":" ","HOUSE_NO":"１０６號","E_COORD97":173344.04000000001,"N_COORD97":2564808.9300000002,"ADDRESS":"興中路１０６號","OBJECTID":624170},"geometry":{"x":173344.04000000004,"y":2564808.9300000016}},{"attributes":{"ID":624198,"DIS_CODE":0,"TOWNNAME":"麻豆區","LI":"保安里","LIN":"7鄰","STREET":"興中路","SECT":" ","MAREA":" ","LANE":" ","ALLEY":" ","HOUSE_NO":"１１７號","E_COORD97":173331.91,"N_COORD97":2564833.25,"ADDRESS":"興中路１１７號","OBJECTID":624171},"geometry":{"x":173331.91000000201,"y":2564833.2500000019}},{"attributes":{"ID":624199,"DIS_CODE":0,"TOWNNAME":"麻豆區","LI":"保安里","LIN":"7鄰","STREET":"興中路","SECT":" ","MAREA":" ","LANE":" ","ALLEY":" ","HOUSE_NO":"１１９號","E_COORD97":173336.67000000001,"N_COORD97":2564833.7200000002,"ADDRESS":"興中路１１９號","OBJECTID":624172},"geometry":{"x":173336.67000000179,"y":2564833.7200000044}},{"attributes":{"ID":624200,"DIS_CODE":0,"TOWNNAME":"麻豆區","LI":"保安里","LIN":"7鄰","STREET":"興中路","SECT":" ","MAREA":" ","LANE":" ","ALLEY":" ","HOUSE_NO":"１２１號","E_COORD97":173341.56,"N_COORD97":2564833.1899999999,"ADDRESS":"興中路１２１號","OBJECTID":624173},"geometry":{"x":173341.55999999959,"y":2564833.1900000013}},{"attributes":{"ID":624201,"DIS_CODE":0,"TOWNNAME":"麻豆區","LI":"保安里","LIN":"7鄰","STREET":"興中路","SECT":" ","MAREA":" ","LANE":" ","ALLEY":" ","HOUSE_NO":"１２３號","E_COORD97":173346.97,"N_COORD97":2564833.3500000001,"ADDRESS":"興中路１２３號","OBJECTID":624174},"geometry":{"x":173346.97000000067,"y":2564833.3499999996}},{"attributes":{"ID":624202,"DIS_CODE":0,"TOWNNAME":"麻豆區","LI":"保安里","LIN":"7鄰","STREET":"興中路","SECT":" ","MAREA":" ","LANE":" ","ALLEY":" ","HOUSE_NO":"１２５號","E_COORD97":173355.87,"N_COORD97":2564834.8100000001,"ADDRESS":"興中路１２５號","OBJECTID":624175},"geometry":{"x":173355.87000000197,"y":2564834.8100000005}},{"attributes":{"ID":624203,"DIS_CODE":0,"TOWNNAME":"麻豆區","LI":"保安里","LIN":"7鄰","STREET":"興中路","SECT":" ","MAREA":" ","LANE":" ","ALLEY":" ","HOUSE_NO":"１２７號","E_COORD97":173362.79999999999,"N_COORD97":2564835.4399999999,"ADDRESS":"興中路１２７號","OBJECTID":624176},"geometry":{"x":173362.80000000168,"y":2564835.4400000013}},{"attributes":{"ID":624204,"DIS_CODE":0,"TOWNNAME":"麻豆區","LI":"\u25A0江里","LIN":"19鄰","STREET":"興中路","SECT":" ","MAREA":" ","LANE":" ","ALLEY":" ","HOUSE_NO":"１４２號之１","E_COORD97":173453.38,"N_COORD97":2564807.6400000001,"ADDRESS":"興中路１４２號之１","OBJECTID":624177},"geometry":{"x":173453.37999999989,"y":2564807.6400000025}},{"attributes":{"ID":624205,"DIS_CODE":0,"TOWNNAME":"麻豆區","LI":"\u25A0江里","LIN":"19鄰","STREET":"興中路","SECT":" ","MAREA":" ","LANE":" ","ALLEY":" ","HOUSE_NO":"１４２號","E_COORD97":173449.09,"N_COORD97":2564807.29,"ADDRESS":"興中路１４２號","OBJECTID":624178},"geometry":{"x":173449.09000000171,"y":2564807.2899999991}},{"attributes":{"ID":624206,"DIS_CODE":0,"TOWNNAME":"麻豆區","LI":"\u25A0江里","LIN":"19鄰","STREET":"興中路","SECT":" ","MAREA":" ","LANE":" ","ALLEY":" ","HOUSE_NO":"１４６號之１","E_COORD97":173464.57000000001,"N_COORD97":2564807.9500000002,"ADDRESS":"興中路１４６號之１","OBJECTID":624179},"geometry":{"x":173464.5700000003,"y":2564807.9500000011}},{"attributes":{"ID":624207,"DIS_CODE":0,"TOWNNAME":"麻豆區","LI":"東角里","LIN":"4鄰","STREET":"興中路","SECT":" ","MAREA":" ","LANE":" ","ALLEY":" ","HOUSE_NO":"１７７號","E_COORD97":173647.56,"N_COORD97":2564833.6400000001,"ADDRESS":"興中路１７７號","OBJECTID":624180},"geometry":{"x":173647.56000000052,"y":2564833.6400000006}},{"attributes":{"ID":624208,"DIS_CODE":0,"TOWNNAME":"麻豆區","LI":"東角里","LIN":"4鄰","STREET":"興中路","SECT":" ","MAREA":" ","LANE":" ","ALLEY":" ","HOUSE_NO":"１７９號","E_COORD97":173644.25,"N_COORD97":2564833.6200000001,"ADDRESS":"興中路１７９號","OBJECTID":624181},"geometry":{"x":173644.25,"y":2564833.620000001}},{"attributes":{"ID":624209,"DIS_CODE":0,"TOWNNAME":"麻豆區","LI":"東角里","LIN":"4鄰","STREET":"興中路","SECT":" ","MAREA":" ","LANE":" ","ALLEY":" ","HOUSE_NO":"１８１號","E_COORD97":173652.39000000001,"N_COORD97":2564832.7799999998,"ADDRESS":"興中路１８１號","OBJECTID":624182},"geometry":{"x":173652.3900000006,"y":2564832.7800000012}},{"attributes":{"ID":624210,"DIS_CODE":0,"TOWNNAME":"麻豆區","LI":"東角里","LIN":"8鄰","STREET":"興中路","SECT":" ","MAREA":" ","LANE":" ","ALLEY":" ","HOUSE_NO":"１８２號","E_COORD97":173633.29000000001,"N_COORD97":2564804.3500000001,"ADDRESS":"興中路１８２號","OBJECTID":624183},"geometry":{"x":173633.29000000097,"y":2564804.3499999978}},{"attributes":{"ID":624211,"DIS_CODE":0,"TOWNNAME":"東區","LI":"成大里","LIN":"19鄰","STREET":"勝利路","SECT":" ","MAREA":" ","LANE":" ","ALLEY":" ","HOUSE_NO":"１２７號","E_COORD97":169825.39999999999,"N_COORD97":2543924.29,"ADDRESS":"勝利路１２７號","OBJECTID":624184},"geometry":{"x":169825.4000000013,"y":2543924.290000001}},{"attributes":{"ID":624212,"DIS_CODE":0,"TOWNNAME":"東區","LI":"成大里","LIN":"19鄰","STREET":"勝利路","SECT":" ","MAREA":" ","LANE":" ","ALLEY":" ","HOUSE_NO":"１２９號","E_COORD97":169824.97,"N_COORD97":2543928.9100000001,"ADDRESS":"勝利路１２９號","OBJECTID":624185},"geometry":{"x":169824.96999999974,"y":2543928.9100000001}},{"attributes":{"ID":624213,"DIS_CODE":0,"TOWNNAME":"東區","LI":"成大里","LIN":"19鄰","STREET":"勝利路","SECT":" ","MAREA":" ","LANE":" ","ALLEY":" ","HOUSE_NO":"１３１號","E_COORD97":169825.35000000001,"N_COORD97":2543933.4900000002,"ADDRESS":"勝利路１３１號","OBJECTID":624186},"geometry":{"x":169825.34999999963,"y":2543933.4900000021}},{"attributes":{"ID":624214,"DIS_CODE":0,"TOWNNAME":"東區","LI":"成大里","LIN":"19鄰","STREET":"勝利路","SECT":" ","MAREA":" ","LANE":" ","ALLEY":" ","HOUSE_NO":"１３３號","E_COORD97":169825.54000000001,"N_COORD97":2543936.54,"ADDRESS":"勝利路１３３號","OBJECTID":624187},"geometry":{"x":169825.54000000097,"y":2543936.540000001}},{"attributes":{"ID":624215,"DIS_CODE":0,"TOWNNAME":"東區","LI":"成大里","LIN":"19鄰","STREET":"勝利路","SECT":" ","MAREA":" ","LANE":" ","ALLEY":" ","HOUSE_NO":"１３５號","E_COORD97":169826.12,"N_COORD97":2543940.5499999998,"ADDRESS":"勝利路１３５號","OBJECTID":624188},"geometry":{"x":169826.12000000011,"y":2543940.5500000026}},{"attributes":{"ID":624216,"DIS_CODE":0,"TOWNNAME":"東區","LI":"成大里","LIN":"19鄰","STREET":"勝利路","SECT":" ","MAREA":" ","LANE":" ","ALLEY":" ","HOUSE_NO":"１３７號","E_COORD97":169825.73000000001,"N_COORD97":2543944.3700000001,"ADDRESS":"勝利路１３７號","OBJECTID":624189},"geometry":{"x":169825.73000000045,"y":2543944.370000001}},{"attributes":{"ID":624217,"DIS_CODE":0,"TOWNNAME":"東區","LI":"成大里","LIN":"21鄰","STREET":"育樂街","SECT":" ","MAREA":" ","LANE":" ","ALLEY":" ","HOUSE_NO":"３５號之１３","E_COORD97":169750.67000000001,"N_COORD97":2543989.8700000001,"ADDRESS":"育樂街３５號之１３","OBJECTID":624190},"geometry":{"x":169750.66999999993,"y":2543989.8700000029}},{"attributes":{"ID":624218,"DIS_CODE":0,"TOWNNAME":"東區","LI":"成大里","LIN":"21鄰","STREET":"育樂街","SECT":" ","MAREA":" ","LANE":" ","ALLEY":" ","HOUSE_NO":"３５號之２４","E_COORD97":169742.45999999999,"N_COORD97":2543991.4199999999,"ADDRESS":"育樂街３５號之２４","OBJECTID":624191},"geometry":{"x":169742.45999999903,"y":2543991.4200000018}},{"attributes":{"ID":624219,"DIS_CODE":0,"TOWNNAME":"東區","LI":"成大里","LIN":"21鄰","STREET":"育樂街","SECT":" ","MAREA":" ","LANE":" ","ALLEY":" ","HOUSE_NO":"３５號之２６","E_COORD97":169735.03,"N_COORD97":2543991.77,"ADDRESS":"育樂街３５號之２６","OBJECTID":624192},"geometry":{"x":169735.03000000026,"y":2543991.7700000014}},{"attributes":{"ID":624220,"DIS_CODE":0,"TOWNNAME":"東區","LI":"成大里","LIN":"21鄰","STREET":"育樂街","SECT":" ","MAREA":" ","LANE":" ","ALLEY":" ","HOUSE_NO":"３５號之２８","E_COORD97":169728.95000000001,"N_COORD97":2543991.9500000002,"ADDRESS":"育樂街３５號之２８","OBJECTID":624193},"geometry":{"x":169728.95000000019,"y":2543991.9499999993}},{"attributes":{"ID":624221,"DIS_CODE":0,"TOWNNAME":"東區","LI":"成大里","LIN":"21鄰","STREET":"育樂街","SECT":" ","MAREA":" ","LANE":" ","ALLEY":" ","HOUSE_NO":"３５號之３５","E_COORD97":169751.37,"N_COORD97":2543917.6499999999,"ADDRESS":"育樂街３５號之３５","OBJECTID":624194},"geometry":{"x":169751.37000000011,"y":2543917.6500000004}},{"attributes":{"ID":624222,"DIS_CODE":0,"TOWNNAME":"東區","LI":"成大里","LIN":"21鄰","STREET":"育樂街","SECT":" ","MAREA":" ","LANE":" ","ALLEY":" ","HOUSE_NO":"３５號之３６","E_COORD97":169770.29999999999,"N_COORD97":2543902.3799999999,"ADDRESS":"育樂街３５號之３６","OBJECTID":624195},"geometry":{"x":169770.29999999981,"y":2543902.3800000008}},{"attributes":{"ID":624223,"DIS_CODE":0,"TOWNNAME":"東區","LI":"成大里","LIN":"21鄰","STREET":"育樂街","SECT":" ","MAREA":" ","LANE":" ","ALLEY":" ","HOUSE_NO":"３５號之４５","E_COORD97":169761.89000000001,"N_COORD97":2543933.8700000001,"ADDRESS":"育樂街３５號之４５","OBJECTID":624196},"geometry":{"x":169761.8900000006,"y":2543933.870000001}},{"attributes":{"ID":624224,"DIS_CODE":0,"TOWNNAME":"東區","LI":"成大里","LIN":"25鄰","STREET":"育樂街","SECT":" ","MAREA":" ","LANE":" ","ALLEY":" ","HOUSE_NO":"１０１號","E_COORD97":169551.48999999999,"N_COORD97":2544016.8900000001,"ADDRESS":"育樂街１０１號","OBJECTID":624197},"geometry":{"x":169551.49000000115,"y":2544016.8900000025}},{"attributes":{"ID":624225,"DIS_CODE":0,"TOWNNAME":"東區","LI":"成大里","LIN":"25鄰","STREET":"育樂街","SECT":" ","MAREA":" ","LANE":" ","ALLEY":" ","HOUSE_NO":"１０３號","E_COORD97":169544.78,"N_COORD97":2544017.2999999998,"ADDRESS":"育樂街１０３號","OBJECTID":624198},"geometry":{"x":169544.78000000119,"y":2544017.3000000026}},{"attributes":{"ID":624226,"DIS_CODE":0,"TOWNNAME":"東區","LI":"崇德里","LIN":"19鄰","STREET":"中華東路","SECT":"三段","MAREA":" ","LANE":" ","ALLEY":" ","HOUSE_NO":"２５３號","E_COORD97":170496.60000000001,"N_COORD97":2541752.8100000001,"ADDRESS":"中華東路三段２５３號","OBJECTID":624199},"geometry":{"x":170496.59999999963,"y":2541752.8100000024}},{"attributes":{"ID":624227,"DIS_CODE":0,"TOWNNAME":"東區","LI":"成大里","LIN":"21鄰","STREET":"育樂街","SECT":" ","MAREA":" ","LANE":" ","ALLEY":" ","HOUSE_NO":"３９號","E_COORD97":169703.41,"N_COORD97":2543965.8999999999,"ADDRESS":"育樂街３９號","OBJECTID":624200},"geometry":{"x":169703.41000000015,"y":2543965.9000000022}}]}