{"displayFieldName":"TOWNNAME","fieldAliases":{"ID":"ID","DIS_CODE":"DIS_CODE","TOWNNAME":"TOWNNAME","LI":"LI","LIN":"LIN","STREET":"STREET","SECT":"SECT","MAREA":"MAREA","LANE":"LANE","ALLEY":"ALLEY","HOUSE_NO":"HOUSE_NO","E_COORD97":"E_COORD97","N_COORD97":"N_COORD97","ADDRESS":"ADDRESS","OBJECTID":"OBJECTID"},"geometryType":"esriGeometryPoint","spatialReference":{"wkid":102443,"latestWkid":3826},"fields":[{"name":"ID","type":"esriFieldTypeDouble","alias":"ID"},{"name":"DIS_CODE","type":"esriFieldTypeInteger","alias":"DIS_CODE"},{"name":"TOWNNAME","type":"esriFieldTypeString","alias":"TOWNNAME","length":8},{"name":"LI","type":"esriFieldTypeString","alias":"LI","length":8},{"name":"LIN","type":"esriFieldTypeString","alias":"LIN","length":12},{"name":"STREET","type":"esriFieldTypeString","alias":"STREET","length":20},{"name":"SECT","type":"esriFieldTypeString","alias":"SECT","length":8},{"name":"MAREA","type":"esriFieldTypeString","alias":"MAREA","length":12},{"name":"LANE","type":"esriFieldTypeString","alias":"LANE","length":10},{"name":"ALLEY","type":"esriFieldTypeString","alias":"ALLEY","length":10},{"name":"HOUSE_NO","type":"esriFieldTypeString","alias":"HOUSE_NO","length":20},{"name":"E_COORD97","type":"esriFieldTypeDouble","alias":"E_COORD97"},{"name":"N_COORD97","type":"esriFieldTypeDouble","alias":"N_COORD97"},{"name":"ADDRESS","type":"esriFieldTypeString","alias":"ADDRESS","length":50},{"name":"OBJECTID","type":"esriFieldTypeOID","alias":"OBJECTID"}],"features":[{"attributes":{"ID":220202,"DIS_CODE":0,"TOWNNAME":"東區","LI":"大智里","LIN":"38鄰","STREET":"崇善路","SECT":" ","MAREA":" ","LANE":" ","ALLEY":" ","HOUSE_NO":"８５６之１號","E_COORD97":171462.84,"N_COORD97":2540577.5,"ADDRESS":"崇善路８５６之１號","OBJECTID":220201},"geometry":{"x":171462.84000000078,"y":2540577.5000000019}},{"attributes":{"ID":220203,"DIS_CODE":0,"TOWNNAME":"安定區","LI":"港口里","LIN":"13鄰","STREET":" ","SECT":" ","MAREA":"港口","LANE":" ","ALLEY":" ","HOUSE_NO":"３４５之８號","E_COORD97":171217.69,"N_COORD97":2554700.2999999998,"ADDRESS":"港口３４５之８號","OBJECTID":220202},"geometry":{"x":171217.69000000041,"y":2554700.3000000026}},{"attributes":{"ID":220204,"DIS_CODE":0,"TOWNNAME":"安定區","LI":"港口里","LIN":"13鄰","STREET":" ","SECT":" ","MAREA":"港口","LANE":" ","ALLEY":" ","HOUSE_NO":"３４５之１２號","E_COORD97":171197.64000000001,"N_COORD97":2554701.2999999998,"ADDRESS":"港口３４５之１２號","OBJECTID":220203},"geometry":{"x":171197.6400000006,"y":2554701.3000000007}},{"attributes":{"ID":220205,"DIS_CODE":0,"TOWNNAME":"安定區","LI":"南安里","LIN":"4鄰","STREET":" ","SECT":" ","MAREA":"油車","LANE":" ","ALLEY":" ","HOUSE_NO":"５１之６號","E_COORD97":170623.84,"N_COORD97":2555594.2999999998,"ADDRESS":"油車５１之６號","OBJECTID":220204},"geometry":{"x":170623.84000000078,"y":2555594.3000000045}},{"attributes":{"ID":220206,"DIS_CODE":0,"TOWNNAME":"安定區","LI":"六嘉里","LIN":"4鄰","STREET":" ","SECT":" ","MAREA":"六塊寮","LANE":" ","ALLEY":" ","HOUSE_NO":"３０之２６號","E_COORD97":169970.26999999999,"N_COORD97":2553466.2999999998,"ADDRESS":"六塊寮３０之２６號","OBJECTID":220205},"geometry":{"x":169970.26999999955,"y":2553466.3000000026}},{"attributes":{"ID":220207,"DIS_CODE":0,"TOWNNAME":"安定區","LI":"港尾里","LIN":"4鄰","STREET":" ","SECT":" ","MAREA":"港子尾","LANE":" ","ALLEY":" ","HOUSE_NO":"１８之１號","E_COORD97":171579.98999999999,"N_COORD97":2556084.2999999998,"ADDRESS":"港子尾１８之１號","OBJECTID":220206},"geometry":{"x":171579.99000000022,"y":2556084.3000000007}},{"attributes":{"ID":220208,"DIS_CODE":0,"TOWNNAME":"永康區","LI":"龍潭里","LIN":"23鄰","STREET":"自強路","SECT":" ","MAREA":" ","LANE":"７５０巷","ALLEY":"６８弄","HOUSE_NO":"２４號","E_COORD97":174553.03,"N_COORD97":2548389.79,"ADDRESS":"自強路７５０巷６８弄２４號","OBJECTID":220207},"geometry":{"x":174553.03000000026,"y":2548389.790000001}},{"attributes":{"ID":220209,"DIS_CODE":0,"TOWNNAME":"永康區","LI":"龍潭里","LIN":"23鄰","STREET":"自強路","SECT":" ","MAREA":" ","LANE":"７５０巷","ALLEY":"２８弄","HOUSE_NO":"２１號","E_COORD97":174524.48000000001,"N_COORD97":2548424.6699999999,"ADDRESS":"自強路７５０巷２８弄２１號","OBJECTID":220208},"geometry":{"x":174524.48000000045,"y":2548424.6700000018}},{"attributes":{"ID":220210,"DIS_CODE":0,"TOWNNAME":"永康區","LI":"龍潭里","LIN":"23鄰","STREET":"自強路","SECT":" ","MAREA":" ","LANE":"７５０巷","ALLEY":"２８弄","HOUSE_NO":"２９號","E_COORD97":174540.87,"N_COORD97":2548422.4300000002,"ADDRESS":"自強路７５０巷２８弄２９號","OBJECTID":220209},"geometry":{"x":174540.87000000197,"y":2548422.4300000016}},{"attributes":{"ID":220211,"DIS_CODE":0,"TOWNNAME":"永康區","LI":"王行里","LIN":"14鄰","STREET":"興工路","SECT":" ","MAREA":" ","LANE":" ","ALLEY":" ","HOUSE_NO":"９號","E_COORD97":175416.81,"N_COORD97":2549565.9300000002,"ADDRESS":"興工路９號","OBJECTID":220210},"geometry":{"x":175416.80999999959,"y":2549565.9300000016}},{"attributes":{"ID":220212,"DIS_CODE":0,"TOWNNAME":"永康區","LI":"龍潭里","LIN":"23鄰","STREET":"自強路","SECT":" ","MAREA":" ","LANE":"７５０巷","ALLEY":"２８弄","HOUSE_NO":"３９號","E_COORD97":174525.23000000001,"N_COORD97":2548411.2000000002,"ADDRESS":"自強路７５０巷２８弄３９號","OBJECTID":220211},"geometry":{"x":174525.23000000231,"y":2548411.1999999993}},{"attributes":{"ID":220213,"DIS_CODE":0,"TOWNNAME":"永康區","LI":"龍潭里","LIN":"23鄰","STREET":"自強路","SECT":" ","MAREA":" ","LANE":"７５０巷","ALLEY":"６８弄","HOUSE_NO":"３３號","E_COORD97":174574.69,"N_COORD97":2548407.8700000001,"ADDRESS":"自強路７５０巷６８弄３３號","OBJECTID":220212},"geometry":{"x":174574.69000000134,"y":2548407.8700000029}},{"attributes":{"ID":220214,"DIS_CODE":0,"TOWNNAME":"永康區","LI":"龍潭里","LIN":"23鄰","STREET":"自強路","SECT":" ","MAREA":" ","LANE":"７５０巷","ALLEY":"６８弄","HOUSE_NO":"４０號","E_COORD97":174549.69,"N_COORD97":2548342.98,"ADDRESS":"自強路７５０巷６８弄４０號","OBJECTID":220213},"geometry":{"x":174549.69000000134,"y":2548342.9800000004}},{"attributes":{"ID":220215,"DIS_CODE":0,"TOWNNAME":"永康區","LI":"龍潭里","LIN":"23鄰","STREET":"自強路","SECT":" ","MAREA":" ","LANE":"７５０巷","ALLEY":"６８弄","HOUSE_NO":"２２號","E_COORD97":174553.64000000001,"N_COORD97":2548393.79,"ADDRESS":"自強路７５０巷６８弄２２號","OBJECTID":220214},"geometry":{"x":174553.64000000153,"y":2548393.7899999991}},{"attributes":{"ID":220216,"DIS_CODE":0,"TOWNNAME":"安定區","LI":"港南里","LIN":"4鄰","STREET":" ","SECT":" ","MAREA":"港口","LANE":" ","ALLEY":" ","HOUSE_NO":"３０號","E_COORD97":171542.94,"N_COORD97":2554131.25,"ADDRESS":"港口３０號","OBJECTID":220215},"geometry":{"x":171542.94000000041,"y":2554131.25}},{"attributes":{"ID":220217,"DIS_CODE":0,"TOWNNAME":"安定區","LI":"中沙里","LIN":"4鄰","STREET":" ","SECT":" ","MAREA":"中崙","LANE":" ","ALLEY":" ","HOUSE_NO":"１之１６號","E_COORD97":169424.63002800001,"N_COORD97":2553087.7039899998,"ADDRESS":"中崙１之１６號","OBJECTID":220216},"geometry":{"x":169424.63002799917,"y":2553087.703985}},{"attributes":{"ID":220218,"DIS_CODE":0,"TOWNNAME":"新市區","LI":"大社里","LIN":"4鄰","STREET":" ","SECT":" ","MAREA":"大社","LANE":" ","ALLEY":" ","HOUSE_NO":"２０９號","E_COORD97":180075.51000000001,"N_COORD97":2554427.75,"ADDRESS":"大社２０９號","OBJECTID":220217},"geometry":{"x":180075.50999999978,"y":2554427.7500000037}},{"attributes":{"ID":220219,"DIS_CODE":0,"TOWNNAME":"新市區","LI":"大社里","LIN":"5鄰","STREET":" ","SECT":" ","MAREA":"大社","LANE":" ","ALLEY":" ","HOUSE_NO":"１９０之１１號","E_COORD97":180211.54000000001,"N_COORD97":2554336.2999999998,"ADDRESS":"大社１９０之１１號","OBJECTID":220218},"geometry":{"x":180211.53999999911,"y":2554336.2999999989}},{"attributes":{"ID":220220,"DIS_CODE":0,"TOWNNAME":"新市區","LI":"大社里","LIN":"25鄰","STREET":" ","SECT":" ","MAREA":"大社","LANE":" ","ALLEY":" ","HOUSE_NO":"９１８之９號","E_COORD97":179932.59,"N_COORD97":2554054.7999999998,"ADDRESS":"大社９１８之９號","OBJECTID":220219},"geometry":{"x":179932.58999999985,"y":2554054.8000000007}},{"attributes":{"ID":220221,"DIS_CODE":0,"TOWNNAME":"新市區","LI":"大社里","LIN":"25鄰","STREET":" ","SECT":" ","MAREA":"大社","LANE":" ","ALLEY":" ","HOUSE_NO":"９１８號","E_COORD97":179962.60000000001,"N_COORD97":2554056,"ADDRESS":"大社９１８號","OBJECTID":220220},"geometry":{"x":179962.59999999963,"y":2554056}},{"attributes":{"ID":220222,"DIS_CODE":0,"TOWNNAME":"新市區","LI":"大社里","LIN":"13鄰","STREET":" ","SECT":" ","MAREA":"大社","LANE":" ","ALLEY":" ","HOUSE_NO":"４１７之６號","E_COORD97":179974.84,"N_COORD97":2554742.7999999998,"ADDRESS":"大社４１７之６號","OBJECTID":220221},"geometry":{"x":179974.83999999985,"y":2554742.8000000007}},{"attributes":{"ID":220223,"DIS_CODE":0,"TOWNNAME":"白河區","LI":"關嶺里","LIN":"13鄰","STREET":" ","SECT":" ","MAREA":"水火洞","LANE":" ","ALLEY":" ","HOUSE_NO":"１４號","E_COORD97":197004.95000000001,"N_COORD97":2579869.0699999998,"ADDRESS":"水火洞１４號","OBJECTID":220222},"geometry":{"x":197004.95000000205,"y":2579869.0700000003}},{"attributes":{"ID":220224,"DIS_CODE":0,"TOWNNAME":"白河區","LI":"關嶺里","LIN":"13鄰","STREET":" ","SECT":" ","MAREA":"水火洞","LANE":" ","ALLEY":" ","HOUSE_NO":"１６號","E_COORD97":196993.26000000001,"N_COORD97":2579864.4700000002,"ADDRESS":"水火洞１６號","OBJECTID":220223},"geometry":{"x":196993.25999999978,"y":2579864.4700000007}},{"attributes":{"ID":220225,"DIS_CODE":0,"TOWNNAME":"白河區","LI":"關嶺里","LIN":"13鄰","STREET":" ","SECT":" ","MAREA":"水火洞","LANE":" ","ALLEY":" ","HOUSE_NO":"１之１號","E_COORD97":197359.5,"N_COORD97":2580067.9700000002,"ADDRESS":"水火洞１之１號","OBJECTID":220224},"geometry":{"x":197359.50000000093,"y":2580067.9700000007}},{"attributes":{"ID":220226,"DIS_CODE":0,"TOWNNAME":"白河區","LI":"關嶺里","LIN":"13鄰","STREET":" ","SECT":" ","MAREA":"水火洞","LANE":" ","ALLEY":" ","HOUSE_NO":"２之１號","E_COORD97":197169.48999999999,"N_COORD97":2580062.77,"ADDRESS":"水火洞２之１號","OBJECTID":220225},"geometry":{"x":197169.49000000115,"y":2580062.7700000014}},{"attributes":{"ID":220227,"DIS_CODE":0,"TOWNNAME":"白河區","LI":"虎山里","LIN":"1鄰","STREET":" ","SECT":" ","MAREA":"木屐寮","LANE":" ","ALLEY":" ","HOUSE_NO":"７號","E_COORD97":193794.26999999999,"N_COORD97":2583098.3199999998,"ADDRESS":"木屐寮７號","OBJECTID":220226},"geometry":{"x":193794.26999999955,"y":2583098.3200000003}},{"attributes":{"ID":220228,"DIS_CODE":0,"TOWNNAME":"白河區","LI":"虎山里","LIN":"1鄰","STREET":" ","SECT":" ","MAREA":"木屐寮","LANE":" ","ALLEY":" ","HOUSE_NO":"９號","E_COORD97":193812.87,"N_COORD97":2583058.3799999999,"ADDRESS":"木屐寮９號","OBJECTID":220227},"geometry":{"x":193812.87000000011,"y":2583058.3800000008}},{"attributes":{"ID":220229,"DIS_CODE":0,"TOWNNAME":"白河區","LI":"虎山里","LIN":"6鄰","STREET":" ","SECT":" ","MAREA":"木屐寮","LANE":" ","ALLEY":" ","HOUSE_NO":"７８之１號","E_COORD97":195090.04999999999,"N_COORD97":2583347.1400000001,"ADDRESS":"木屐寮７８之１號","OBJECTID":220228},"geometry":{"x":195090.05000000168,"y":2583347.1400000025}},{"attributes":{"ID":220230,"DIS_CODE":0,"TOWNNAME":"白河區","LI":"虎山里","LIN":"6鄰","STREET":" ","SECT":" ","MAREA":"木屐寮","LANE":" ","ALLEY":" ","HOUSE_NO":"７８之２號","E_COORD97":195133.07000000001,"N_COORD97":2583367.9900000002,"ADDRESS":"木屐寮７８之２號","OBJECTID":220229},"geometry":{"x":195133.07000000123,"y":2583367.9900000021}},{"attributes":{"ID":220231,"DIS_CODE":0,"TOWNNAME":"白河區","LI":"虎山里","LIN":"6鄰","STREET":" ","SECT":" ","MAREA":"木屐寮","LANE":" ","ALLEY":" ","HOUSE_NO":"７８之６號","E_COORD97":195114.07000000001,"N_COORD97":2583359.3900000001,"ADDRESS":"木屐寮７８之６號","OBJECTID":220230},"geometry":{"x":195114.07000000216,"y":2583359.3900000006}},{"attributes":{"ID":220232,"DIS_CODE":0,"TOWNNAME":"白河區","LI":"虎山里","LIN":"6鄰","STREET":" ","SECT":" ","MAREA":"木屐寮","LANE":" ","ALLEY":" ","HOUSE_NO":"７８號","E_COORD97":195147.69,"N_COORD97":2583378.1699999999,"ADDRESS":"木屐寮７８號","OBJECTID":220231},"geometry":{"x":195147.69000000134,"y":2583378.1699999999}},{"attributes":{"ID":220233,"DIS_CODE":0,"TOWNNAME":"白河區","LI":"虎山里","LIN":"6鄰","STREET":" ","SECT":" ","MAREA":"木屐寮","LANE":" ","ALLEY":" ","HOUSE_NO":"８０號","E_COORD97":195057.79999999999,"N_COORD97":2583331.6600000001,"ADDRESS":"木屐寮８０號","OBJECTID":220232},"geometry":{"x":195057.80000000168,"y":2583331.660000002}},{"attributes":{"ID":220234,"DIS_CODE":0,"TOWNNAME":"永康區","LI":"龍潭里","LIN":"23鄰","STREET":"自強路","SECT":" ","MAREA":" ","LANE":"７５０巷","ALLEY":"２８弄","HOUSE_NO":"７７號","E_COORD97":174507.98999999999,"N_COORD97":2548377.6600000001,"ADDRESS":"自強路７５０巷２８弄７７號","OBJECTID":220233},"geometry":{"x":174507.99000000115,"y":2548377.660000002}},{"attributes":{"ID":220235,"DIS_CODE":0,"TOWNNAME":"永康區","LI":"龍潭里","LIN":"23鄰","STREET":"自強路","SECT":" ","MAREA":" ","LANE":"７５０巷","ALLEY":"６８弄","HOUSE_NO":"１４號","E_COORD97":174554.62,"N_COORD97":2548421.3599999999,"ADDRESS":"自強路７５０巷６８弄１４號","OBJECTID":220234},"geometry":{"x":174554.62000000104,"y":2548421.3599999994}},{"attributes":{"ID":220236,"DIS_CODE":0,"TOWNNAME":"永康區","LI":"龍潭里","LIN":"23鄰","STREET":"自強路","SECT":" ","MAREA":" ","LANE":"７５０巷","ALLEY":"２８弄","HOUSE_NO":"４３號","E_COORD97":174512.32000000001,"N_COORD97":2548412.8100000001,"ADDRESS":"自強路７５０巷２８弄４３號","OBJECTID":220235},"geometry":{"x":174512.3200000003,"y":2548412.8100000005}},{"attributes":{"ID":220237,"DIS_CODE":0,"TOWNNAME":"永康區","LI":"龍潭里","LIN":"23鄰","STREET":"自強路","SECT":" ","MAREA":" ","LANE":"７５０巷","ALLEY":"２８弄","HOUSE_NO":"８５號","E_COORD97":174524.44,"N_COORD97":2548375.1600000001,"ADDRESS":"自強路７５０巷２８弄８５號","OBJECTID":220236},"geometry":{"x":174524.44000000134,"y":2548375.1600000001}},{"attributes":{"ID":220238,"DIS_CODE":0,"TOWNNAME":"安平區","LI":"建平里","LIN":"24鄰","STREET":"永華五街","SECT":" ","MAREA":" ","LANE":" ","ALLEY":" ","HOUSE_NO":"５２號","E_COORD97":165912.57000000001,"N_COORD97":2543665.79,"ADDRESS":"永華五街５２號","OBJECTID":220237},"geometry":{"x":165912.5700000003,"y":2543665.790000001}},{"attributes":{"ID":220239,"DIS_CODE":0,"TOWNNAME":"安平區","LI":"建平里","LIN":"24鄰","STREET":"永華五街","SECT":" ","MAREA":" ","LANE":" ","ALLEY":" ","HOUSE_NO":"４８號","E_COORD97":165909.38,"N_COORD97":2543638,"ADDRESS":"永華五街４８號","OBJECTID":220238},"geometry":{"x":165909.38000000082,"y":2543638.0000000037}},{"attributes":{"ID":220240,"DIS_CODE":0,"TOWNNAME":"南區","LI":"明興里","LIN":"5鄰","STREET":"金華路","SECT":"一段","MAREA":" ","LANE":" ","ALLEY":" ","HOUSE_NO":"１９０號","E_COORD97":166954.89999999999,"N_COORD97":2540750.79,"ADDRESS":"金華路一段１９０號","OBJECTID":220239},"geometry":{"x":166954.90000000224,"y":2540750.790000001}},{"attributes":{"ID":220241,"DIS_CODE":0,"TOWNNAME":"白河區","LI":"虎山里","LIN":"6鄰","STREET":" ","SECT":" ","MAREA":"木屐寮","LANE":" ","ALLEY":" ","HOUSE_NO":"８２之１號","E_COORD97":195017.06,"N_COORD97":2583313.2000000002,"ADDRESS":"木屐寮８２之１號","OBJECTID":220240},"geometry":{"x":195017.06000000052,"y":2583313.200000003}},{"attributes":{"ID":220242,"DIS_CODE":0,"TOWNNAME":"白河區","LI":"虎山里","LIN":"6鄰","STREET":" ","SECT":" ","MAREA":"木屐寮","LANE":" ","ALLEY":" ","HOUSE_NO":"８２之２號","E_COORD97":194991.76999999999,"N_COORD97":2583307.54,"ADDRESS":"木屐寮８２之２號","OBJECTID":220241},"geometry":{"x":194991.77000000048,"y":2583307.5400000028}},{"attributes":{"ID":220243,"DIS_CODE":0,"TOWNNAME":"白河區","LI":"虎山里","LIN":"6鄰","STREET":" ","SECT":" ","MAREA":"木屐寮","LANE":" ","ALLEY":" ","HOUSE_NO":"８３號","E_COORD97":194917.59,"N_COORD97":2583304.2999999998,"ADDRESS":"木屐寮８３號","OBJECTID":220242},"geometry":{"x":194917.59000000078,"y":2583304.3000000026}},{"attributes":{"ID":220244,"DIS_CODE":0,"TOWNNAME":"白河區","LI":"虎山里","LIN":"6鄰","STREET":" ","SECT":" ","MAREA":"木屐寮","LANE":" ","ALLEY":" ","HOUSE_NO":"８４號","E_COORD97":194572.75,"N_COORD97":2583245.04,"ADDRESS":"木屐寮８４號","OBJECTID":220243},"geometry":{"x":194572.75,"y":2583245.0399999991}},{"attributes":{"ID":220245,"DIS_CODE":0,"TOWNNAME":"白河區","LI":"虎山里","LIN":"6鄰","STREET":" ","SECT":" ","MAREA":"木屐寮","LANE":" ","ALLEY":" ","HOUSE_NO":"８６號","E_COORD97":194838.07000000001,"N_COORD97":2583253.04,"ADDRESS":"木屐寮８６號","OBJECTID":220244},"geometry":{"x":194838.07000000123,"y":2583253.0400000028}},{"attributes":{"ID":220246,"DIS_CODE":0,"TOWNNAME":"白河區","LI":"仙草里","LIN":"21鄰","STREET":" ","SECT":" ","MAREA":"仙草","LANE":" ","ALLEY":" ","HOUSE_NO":"１４２號","E_COORD97":196835.28,"N_COORD97":2582284.3799999999,"ADDRESS":"仙草１４２號","OBJECTID":220245},"geometry":{"x":196835.28000000119,"y":2582284.3800000027}},{"attributes":{"ID":220247,"DIS_CODE":0,"TOWNNAME":"白河區","LI":"仙草里","LIN":"21鄰","STREET":" ","SECT":" ","MAREA":"仙草","LANE":" ","ALLEY":" ","HOUSE_NO":"１４３號","E_COORD97":196841.64000000001,"N_COORD97":2582281.4100000001,"ADDRESS":"仙草１４３號","OBJECTID":220246},"geometry":{"x":196841.63999999966,"y":2582281.4100000001}},{"attributes":{"ID":220248,"DIS_CODE":0,"TOWNNAME":"白河區","LI":"仙草里","LIN":"21鄰","STREET":" ","SECT":" ","MAREA":"仙草","LANE":" ","ALLEY":" ","HOUSE_NO":"１４４號","E_COORD97":196843,"N_COORD97":2582284.71,"ADDRESS":"仙草１４４號","OBJECTID":220247},"geometry":{"x":196843,"y":2582284.7100000028}},{"attributes":{"ID":220249,"DIS_CODE":0,"TOWNNAME":"白河區","LI":"仙草里","LIN":"21鄰","STREET":" ","SECT":" ","MAREA":"仙草","LANE":" ","ALLEY":" ","HOUSE_NO":"１４５號","E_COORD97":196849.17000000001,"N_COORD97":2582284.04,"ADDRESS":"仙草１４５號","OBJECTID":220248},"geometry":{"x":196849.17000000086,"y":2582284.040000001}},{"attributes":{"ID":220250,"DIS_CODE":0,"TOWNNAME":"白河區","LI":"仙草里","LIN":"21鄰","STREET":" ","SECT":" ","MAREA":"仙草","LANE":" ","ALLEY":" ","HOUSE_NO":"１４６號","E_COORD97":196851.10000000001,"N_COORD97":2582276.6899999999,"ADDRESS":"仙草１４６號","OBJECTID":220249},"geometry":{"x":196851.10000000056,"y":2582276.6900000013}},{"attributes":{"ID":220251,"DIS_CODE":0,"TOWNNAME":"白河區","LI":"仙草里","LIN":"21鄰","STREET":" ","SECT":" ","MAREA":"仙草","LANE":" ","ALLEY":" ","HOUSE_NO":"１４９之１號","E_COORD97":196852.17999999999,"N_COORD97":2582259.3999999999,"ADDRESS":"仙草１４９之１號","OBJECTID":220250},"geometry":{"x":196852.18000000063,"y":2582259.4000000022}},{"attributes":{"ID":220252,"DIS_CODE":0,"TOWNNAME":"永康區","LI":"龍潭里","LIN":"23鄰","STREET":"自強路","SECT":" ","MAREA":" ","LANE":"７５０巷","ALLEY":"２８弄","HOUSE_NO":"５號","E_COORD97":174484.94,"N_COORD97":2548433.02,"ADDRESS":"自強路７５０巷２８弄５號","OBJECTID":220251},"geometry":{"x":174484.94000000134,"y":2548433.0199999996}},{"attributes":{"ID":220253,"DIS_CODE":0,"TOWNNAME":"永康區","LI":"龍潭里","LIN":"23鄰","STREET":"自強路","SECT":" ","MAREA":" ","LANE":"７５０巷","ALLEY":"２８弄","HOUSE_NO":"７９號","E_COORD97":174512.12,"N_COORD97":2548377.1499999999,"ADDRESS":"自強路７５０巷２８弄７９號","OBJECTID":220252},"geometry":{"x":174512.12000000104,"y":2548377.1500000022}},{"attributes":{"ID":220254,"DIS_CODE":0,"TOWNNAME":"永康區","LI":"龍潭里","LIN":"23鄰","STREET":"自強路","SECT":" ","MAREA":" ","LANE":"７５０巷","ALLEY":"６８弄","HOUSE_NO":"３號","E_COORD97":174574.10999999999,"N_COORD97":2548447.46,"ADDRESS":"自強路７５０巷６８弄３號","OBJECTID":220253},"geometry":{"x":174574.11000000034,"y":2548447.4600000028}},{"attributes":{"ID":220255,"DIS_CODE":0,"TOWNNAME":"永康區","LI":"龍潭里","LIN":"23鄰","STREET":"自強路","SECT":" ","MAREA":" ","LANE":"７５０巷","ALLEY":"２８弄","HOUSE_NO":"８１號","E_COORD97":174516.31,"N_COORD97":2548376.4100000001,"ADDRESS":"自強路７５０巷２８弄８１號","OBJECTID":220254},"geometry":{"x":174516.30999999959,"y":2548376.410000002}},{"attributes":{"ID":220256,"DIS_CODE":0,"TOWNNAME":"永康區","LI":"龍潭里","LIN":"23鄰","STREET":"自強路","SECT":" ","MAREA":" ","LANE":"７５０巷","ALLEY":"２８弄","HOUSE_NO":"５５號","E_COORD97":174491.42999999999,"N_COORD97":2548412.0099999998,"ADDRESS":"自強路７５０巷２８弄５５號","OBJECTID":220255},"geometry":{"x":174491.43000000063,"y":2548412.0100000016}},{"attributes":{"ID":220257,"DIS_CODE":0,"TOWNNAME":"永康區","LI":"龍潭里","LIN":"23鄰","STREET":"自強路","SECT":" ","MAREA":" ","LANE":"７５０巷","ALLEY":"６８弄","HOUSE_NO":"２１號","E_COORD97":174591.26999999999,"N_COORD97":2548416.1699999999,"ADDRESS":"自強路７５０巷６８弄２１號","OBJECTID":220256},"geometry":{"x":174591.26999999955,"y":2548416.1699999999}},{"attributes":{"ID":220258,"DIS_CODE":0,"TOWNNAME":"永康區","LI":"龍潭里","LIN":"23鄰","STREET":"自強路","SECT":" ","MAREA":" ","LANE":"７５０巷","ALLEY":"２８弄","HOUSE_NO":"６１號","E_COORD97":174477.10000000001,"N_COORD97":2548413.7599999998,"ADDRESS":"自強路７５０巷２８弄６１號","OBJECTID":220257},"geometry":{"x":174477.09999999963,"y":2548413.7600000016}},{"attributes":{"ID":220259,"DIS_CODE":0,"TOWNNAME":"永康區","LI":"龍潭里","LIN":"23鄰","STREET":"自強路","SECT":" ","MAREA":" ","LANE":"７５０巷","ALLEY":"６８弄","HOUSE_NO":"２７號","E_COORD97":174597.5,"N_COORD97":2548405.3799999999,"ADDRESS":"自強路７５０巷６８弄２７號","OBJECTID":220258},"geometry":{"x":174597.50000000186,"y":2548405.3800000008}},{"attributes":{"ID":220260,"DIS_CODE":0,"TOWNNAME":"永康區","LI":"龍潭里","LIN":"23鄰","STREET":"自強路","SECT":" ","MAREA":" ","LANE":"７５０巷","ALLEY":"６８弄","HOUSE_NO":"１７號","E_COORD97":174571.16,"N_COORD97":2548419.7000000002,"ADDRESS":"自強路７５０巷６８弄１７號","OBJECTID":220259},"geometry":{"x":174571.16000000201,"y":2548419.7000000011}},{"attributes":{"ID":220261,"DIS_CODE":0,"TOWNNAME":"永康區","LI":"龍潭里","LIN":"23鄰","STREET":"自強路","SECT":" ","MAREA":" ","LANE":"７５０巷","ALLEY":"２８弄","HOUSE_NO":"６５號","E_COORD97":174477.64000000001,"N_COORD97":2548381.2400000002,"ADDRESS":"自強路７５０巷２８弄６５號","OBJECTID":220260},"geometry":{"x":174477.6400000006,"y":2548381.2400000002}},{"attributes":{"ID":220262,"DIS_CODE":0,"TOWNNAME":"關廟區","LI":"南花里","LIN":"15鄰","STREET":"花園一街","SECT":" ","MAREA":" ","LANE":" ","ALLEY":" ","HOUSE_NO":"２８６號","E_COORD97":181511.48000000001,"N_COORD97":2540175.1899999999,"ADDRESS":"花園一街２８６號","OBJECTID":220261},"geometry":{"x":181511.48000000138,"y":2540175.1900000013}},{"attributes":{"ID":220263,"DIS_CODE":0,"TOWNNAME":"關廟區","LI":"南花里","LIN":"15鄰","STREET":"花園一街","SECT":" ","MAREA":" ","LANE":" ","ALLEY":" ","HOUSE_NO":"２９８號","E_COORD97":181487.48999999999,"N_COORD97":2540184.25,"ADDRESS":"花園一街２９８號","OBJECTID":220262},"geometry":{"x":181487.49000000115,"y":2540184.25}},{"attributes":{"ID":220264,"DIS_CODE":0,"TOWNNAME":"關廟區","LI":"香洋里","LIN":"15鄰","STREET":"中央路","SECT":" ","MAREA":" ","LANE":" ","ALLEY":" ","HOUSE_NO":"１８６號","E_COORD97":181333.45999999999,"N_COORD97":2540045.3199999998,"ADDRESS":"中央路１８６號","OBJECTID":220263},"geometry":{"x":181333.45999999996,"y":2540045.3199999984}},{"attributes":{"ID":220265,"DIS_CODE":0,"TOWNNAME":"關廟區","LI":"南花里","LIN":"15鄰","STREET":"花園一街","SECT":" ","MAREA":" ","LANE":" ","ALLEY":" ","HOUSE_NO":"２７０號","E_COORD97":181537.39000000001,"N_COORD97":2540167.25,"ADDRESS":"花園一街２７０號","OBJECTID":220264},"geometry":{"x":181537.38999999966,"y":2540167.25}},{"attributes":{"ID":220266,"DIS_CODE":0,"TOWNNAME":"關廟區","LI":"南花里","LIN":"15鄰","STREET":"花園一街","SECT":" ","MAREA":" ","LANE":" ","ALLEY":" ","HOUSE_NO":"２８０號","E_COORD97":181520.38,"N_COORD97":2540172.1899999999,"ADDRESS":"花園一街２８０號","OBJECTID":220265},"geometry":{"x":181520.38000000082,"y":2540172.1900000013}},{"attributes":{"ID":220267,"DIS_CODE":0,"TOWNNAME":"關廟區","LI":"南花里","LIN":"15鄰","STREET":"和平路","SECT":" ","MAREA":" ","LANE":" ","ALLEY":" ","HOUSE_NO":"３１７號","E_COORD97":181594.94,"N_COORD97":2540230.25,"ADDRESS":"和平路３１７號","OBJECTID":220266},"geometry":{"x":181594.94000000134,"y":2540230.2500000019}},{"attributes":{"ID":220268,"DIS_CODE":0,"TOWNNAME":"關廟區","LI":"南花里","LIN":"15鄰","STREET":"花園一街","SECT":" ","MAREA":" ","LANE":" ","ALLEY":" ","HOUSE_NO":"２０６號","E_COORD97":181612.69,"N_COORD97":2540153.25,"ADDRESS":"花園一街２０６號","OBJECTID":220267},"geometry":{"x":181612.69000000041,"y":2540153.25}},{"attributes":{"ID":220269,"DIS_CODE":0,"TOWNNAME":"關廟區","LI":"香洋里","LIN":"15鄰","STREET":"中央路","SECT":" ","MAREA":" ","LANE":" ","ALLEY":" ","HOUSE_NO":"１７２號","E_COORD97":181386.35999999999,"N_COORD97":2540053.3199999998,"ADDRESS":"中央路１７２號","OBJECTID":220268},"geometry":{"x":181386.3600000022,"y":2540053.3200000022}},{"attributes":{"ID":220270,"DIS_CODE":0,"TOWNNAME":"關廟區","LI":"南花里","LIN":"15鄰","STREET":"花園一街","SECT":" ","MAREA":" ","LANE":" ","ALLEY":" ","HOUSE_NO":"２６６號","E_COORD97":181545.09,"N_COORD97":2540165.25,"ADDRESS":"花園一街２６６號","OBJECTID":220269},"geometry":{"x":181545.08999999892,"y":2540165.2500000019}},{"attributes":{"ID":220271,"DIS_CODE":0,"TOWNNAME":"關廟區","LI":"南花里","LIN":"15鄰","STREET":"花園一街","SECT":" ","MAREA":" ","LANE":" ","ALLEY":" ","HOUSE_NO":"３００號","E_COORD97":181482.89000000001,"N_COORD97":2540186.25,"ADDRESS":"花園一街３００號","OBJECTID":220270},"geometry":{"x":181482.88999999966,"y":2540186.2500000019}},{"attributes":{"ID":220272,"DIS_CODE":0,"TOWNNAME":"關廟區","LI":"南花里","LIN":"15鄰","STREET":"和平路","SECT":" ","MAREA":" ","LANE":" ","ALLEY":" ","HOUSE_NO":"３１１號","E_COORD97":181599.14000000001,"N_COORD97":2540216.25,"ADDRESS":"和平路３１１號","OBJECTID":220271},"geometry":{"x":181599.1400000006,"y":2540216.2500000019}},{"attributes":{"ID":220273,"DIS_CODE":0,"TOWNNAME":"關廟區","LI":"南花里","LIN":"15鄰","STREET":"花園一街","SECT":" ","MAREA":" ","LANE":" ","ALLEY":" ","HOUSE_NO":"２９０號","E_COORD97":181500.98999999999,"N_COORD97":2540180.25,"ADDRESS":"花園一街２９０號","OBJECTID":220272},"geometry":{"x":181500.99000000115,"y":2540180.25}},{"attributes":{"ID":220274,"DIS_CODE":0,"TOWNNAME":"關廟區","LI":"東勢里","LIN":"15鄰","STREET":"東興路","SECT":" ","MAREA":" ","LANE":" ","ALLEY":" ","HOUSE_NO":"１６６號","E_COORD97":181583.07000000001,"N_COORD97":2539555.25,"ADDRESS":"東興路１６６號","OBJECTID":220273},"geometry":{"x":181583.07000000216,"y":2539555.2500000019}},{"attributes":{"ID":220275,"DIS_CODE":0,"TOWNNAME":"永康區","LI":"龍潭里","LIN":"23鄰","STREET":"自強路","SECT":" ","MAREA":" ","LANE":"７５０巷","ALLEY":"６８弄","HOUSE_NO":"３８號","E_COORD97":174550.25,"N_COORD97":2548347.23,"ADDRESS":"自強路７５０巷６８弄３８號","OBJECTID":220274},"geometry":{"x":174550.25000000093,"y":2548347.2300000023}},{"attributes":{"ID":220276,"DIS_CODE":0,"TOWNNAME":"永康區","LI":"甲頂里","LIN":"28鄰","STREET":"中華路","SECT":" ","MAREA":" ","LANE":" ","ALLEY":" ","HOUSE_NO":"１０６９號","E_COORD97":169150.07999999999,"N_COORD97":2546985.4900000002,"ADDRESS":"中華路１０６９號","OBJECTID":220275},"geometry":{"x":169150.08000000007,"y":2546985.4900000021}},{"attributes":{"ID":220277,"DIS_CODE":0,"TOWNNAME":"永康區","LI":"甲頂里","LIN":"28鄰","STREET":"中華路","SECT":" ","MAREA":" ","LANE":" ","ALLEY":" ","HOUSE_NO":"１０１９號","E_COORD97":169444.56,"N_COORD97":2547034.1800000002,"ADDRESS":"中華路１０１９號","OBJECTID":220276},"geometry":{"x":169444.55999999959,"y":2547034.1800000016}},{"attributes":{"ID":220278,"DIS_CODE":0,"TOWNNAME":"永康區","LI":"龍潭里","LIN":"23鄰","STREET":"自強路","SECT":" ","MAREA":" ","LANE":"７５０巷","ALLEY":"６８弄","HOUSE_NO":"５２號","E_COORD97":174546.84,"N_COORD97":2548317.4900000002,"ADDRESS":"自強路７５０巷６８弄５２號","OBJECTID":220277},"geometry":{"x":174546.83999999985,"y":2548317.4900000021}},{"attributes":{"ID":220279,"DIS_CODE":0,"TOWNNAME":"永康區","LI":"甲頂里","LIN":"28鄰","STREET":"中華路","SECT":" ","MAREA":" ","LANE":" ","ALLEY":" ","HOUSE_NO":"１００７號","E_COORD97":169504.89999999999,"N_COORD97":2547045.75,"ADDRESS":"中華路１００７號","OBJECTID":220278},"geometry":{"x":169504.9000000013,"y":2547045.75}},{"attributes":{"ID":220280,"DIS_CODE":0,"TOWNNAME":"東區","LI":"東光里","LIN":"20鄰","STREET":"凱旋路","SECT":" ","MAREA":" ","LANE":" ","ALLEY":" ","HOUSE_NO":"２５６號","E_COORD97":170849.12,"N_COORD97":2543771.8799999999,"ADDRESS":"凱旋路２５６號","OBJECTID":220279},"geometry":{"x":170849.12000000104,"y":2543771.879999999}},{"attributes":{"ID":220281,"DIS_CODE":0,"TOWNNAME":"永康區","LI":"龍潭里","LIN":"23鄰","STREET":"自強路","SECT":" ","MAREA":" ","LANE":"７５０巷","ALLEY":"６８弄","HOUSE_NO":"１０號","E_COORD97":174555.32999999999,"N_COORD97":2548432.8500000001,"ADDRESS":"自強路７５０巷６８弄１０號","OBJECTID":220280},"geometry":{"x":174555.33000000101,"y":2548432.8500000015}},{"attributes":{"ID":220282,"DIS_CODE":0,"TOWNNAME":"東區","LI":"東光里","LIN":"20鄰","STREET":"凱旋路","SECT":" ","MAREA":" ","LANE":" ","ALLEY":" ","HOUSE_NO":"２５８號","E_COORD97":170845.01000000001,"N_COORD97":2543773.8599999999,"ADDRESS":"凱旋路２５８號","OBJECTID":220281},"geometry":{"x":170845.00999999978,"y":2543773.8600000031}},{"attributes":{"ID":220283,"DIS_CODE":0,"TOWNNAME":"東區","LI":"東光里","LIN":"20鄰","STREET":"凱旋路","SECT":" ","MAREA":" ","LANE":" ","ALLEY":" ","HOUSE_NO":"２６０號","E_COORD97":170841.69,"N_COORD97":2543776.23,"ADDRESS":"凱旋路２６０號","OBJECTID":220282},"geometry":{"x":170841.69000000227,"y":2543776.2300000023}},{"attributes":{"ID":220284,"DIS_CODE":0,"TOWNNAME":"永康區","LI":"甲頂里","LIN":"28鄰","STREET":"中華路","SECT":" ","MAREA":" ","LANE":" ","ALLEY":" ","HOUSE_NO":"１０１７號","E_COORD97":169453.66,"N_COORD97":2547036.3100000001,"ADDRESS":"中華路１０１７號","OBJECTID":220283},"geometry":{"x":169453.66000000108,"y":2547036.3100000005}},{"attributes":{"ID":220285,"DIS_CODE":0,"TOWNNAME":"東區","LI":"崇文里","LIN":"26鄰","STREET":"崇德二十二街","SECT":" ","MAREA":" ","LANE":" ","ALLEY":" ","HOUSE_NO":"２８號","E_COORD97":170889.28,"N_COORD97":2540799.0099999998,"ADDRESS":"崇德二十二街２８號","OBJECTID":220284},"geometry":{"x":170889.28000000026,"y":2540799.0099999998}},{"attributes":{"ID":220286,"DIS_CODE":0,"TOWNNAME":"東區","LI":"崇文里","LIN":"26鄰","STREET":"崇德二十二街","SECT":" ","MAREA":" ","LANE":" ","ALLEY":" ","HOUSE_NO":"２０號","E_COORD97":170869.32000000001,"N_COORD97":2540798.3799999999,"ADDRESS":"崇德二十二街２０號","OBJECTID":220285},"geometry":{"x":170869.3200000003,"y":2540798.379999999}},{"attributes":{"ID":220287,"DIS_CODE":0,"TOWNNAME":"永康區","LI":"\u25A0行里","LIN":"23鄰","STREET":"中正南路","SECT":" ","MAREA":" ","LANE":"５９２巷","ALLEY":"２９弄","HOUSE_NO":"６號","E_COORD97":171597.75,"N_COORD97":2548601.6899999999,"ADDRESS":"中正南路５９２巷２９弄６號","OBJECTID":220286},"geometry":{"x":171597.75,"y":2548601.6899999995}},{"attributes":{"ID":220288,"DIS_CODE":0,"TOWNNAME":"永康區","LI":"龍潭里","LIN":"23鄰","STREET":"自強路","SECT":" ","MAREA":" ","LANE":"７５０巷","ALLEY":"６８弄","HOUSE_NO":"３１號","E_COORD97":174588.91,"N_COORD97":2548405.8799999999,"ADDRESS":"自強路７５０巷６８弄３１號","OBJECTID":220287},"geometry":{"x":174588.91000000015,"y":2548405.8800000008}},{"attributes":{"ID":220289,"DIS_CODE":0,"TOWNNAME":"永康區","LI":"龍潭里","LIN":"23鄰","STREET":"自強路","SECT":" ","MAREA":" ","LANE":"７５０巷","ALLEY":"６８弄","HOUSE_NO":"３０號","E_COORD97":174551.62,"N_COORD97":2548378.04,"ADDRESS":"自強路７５０巷６８弄３０號","OBJECTID":220288},"geometry":{"x":174551.62000000104,"y":2548378.0399999991}},{"attributes":{"ID":220290,"DIS_CODE":0,"TOWNNAME":"永康區","LI":"龍潭里","LIN":"23鄰","STREET":"自強路","SECT":" ","MAREA":" ","LANE":"７５０巷","ALLEY":"６８弄","HOUSE_NO":"２３號","E_COORD97":174595.31,"N_COORD97":2548415.4199999999,"ADDRESS":"自強路７５０巷６８弄２３號","OBJECTID":220289},"geometry":{"x":174595.31000000052,"y":2548415.4200000037}},{"attributes":{"ID":220291,"DIS_CODE":0,"TOWNNAME":"永康區","LI":"龍潭里","LIN":"23鄰","STREET":"自強路","SECT":" ","MAREA":" ","LANE":"７５０巷","ALLEY":"１８弄","HOUSE_NO":"３８之６號","E_COORD97":174430.23000000001,"N_COORD97":2548399.54,"ADDRESS":"自強路７５０巷１８弄３８之６號","OBJECTID":220290},"geometry":{"x":174430.23000000231,"y":2548399.5399999991}},{"attributes":{"ID":220292,"DIS_CODE":0,"TOWNNAME":"永康區","LI":"龍潭里","LIN":"23鄰","STREET":"自強路","SECT":" ","MAREA":" ","LANE":"７５０巷","ALLEY":"６８弄","HOUSE_NO":"２５號","E_COORD97":174599.32000000001,"N_COORD97":2548414.9199999999,"ADDRESS":"自強路７５０巷６８弄２５號","OBJECTID":220291},"geometry":{"x":174599.32000000123,"y":2548414.9199999999}},{"attributes":{"ID":220293,"DIS_CODE":0,"TOWNNAME":"永康區","LI":"龍潭里","LIN":"23鄰","STREET":"自強路","SECT":" ","MAREA":" ","LANE":"７５０巷","ALLEY":"１８弄","HOUSE_NO":"１５號","E_COORD97":174448.20999999999,"N_COORD97":2548384.1200000001,"ADDRESS":"自強路７５０巷１８弄１５號","OBJECTID":220292},"geometry":{"x":174448.20999999996,"y":2548384.120000001}},{"attributes":{"ID":220294,"DIS_CODE":0,"TOWNNAME":"永康區","LI":"龍潭里","LIN":"23鄰","STREET":"自強路","SECT":" ","MAREA":" ","LANE":"７５０巷","ALLEY":"１８弄","HOUSE_NO":"７號","E_COORD97":174452.25,"N_COORD97":2548417.1200000001,"ADDRESS":"自強路７５０巷１８弄７號","OBJECTID":220293},"geometry":{"x":174452.25000000093,"y":2548417.120000001}},{"attributes":{"ID":220295,"DIS_CODE":0,"TOWNNAME":"永康區","LI":"龍潭里","LIN":"23鄰","STREET":"自強路","SECT":" ","MAREA":" ","LANE":"７５０巷","ALLEY":"１８弄","HOUSE_NO":"１２號","E_COORD97":174440.37,"N_COORD97":2548457.54,"ADDRESS":"自強路７５０巷１８弄１２號","OBJECTID":220294},"geometry":{"x":174440.37000000011,"y":2548457.5400000028}},{"attributes":{"ID":220296,"DIS_CODE":0,"TOWNNAME":"永康區","LI":"龍潭里","LIN":"23鄰","STREET":"自強路","SECT":" ","MAREA":" ","LANE":"７５０巷","ALLEY":"１８弄","HOUSE_NO":"２號","E_COORD97":174443.73000000001,"N_COORD97":2548475.04,"ADDRESS":"自強路７５０巷１８弄２號","OBJECTID":220295},"geometry":{"x":174443.73000000231,"y":2548475.040000001}},{"attributes":{"ID":220297,"DIS_CODE":0,"TOWNNAME":"永康區","LI":"復華里","LIN":"13鄰","STREET":"國華街","SECT":" ","MAREA":" ","LANE":"９６巷","ALLEY":"１９弄","HOUSE_NO":"１號","E_COORD97":172934.54000000001,"N_COORD97":2545932.1000000001,"ADDRESS":"國華街９６巷１９弄１號","OBJECTID":220296},"geometry":{"x":172934.54000000097,"y":2545932.1000000034}},{"attributes":{"ID":220298,"DIS_CODE":0,"TOWNNAME":"永康區","LI":"網寮里","LIN":"7鄰","STREET":"永二街","SECT":" ","MAREA":" ","LANE":"２４４巷","ALLEY":"４弄","HOUSE_NO":"２６號","E_COORD97":173323.28,"N_COORD97":2546313.8900000001,"ADDRESS":"永二街２４４巷４弄２６號","OBJECTID":220297},"geometry":{"x":173323.28000000119,"y":2546313.8899999987}},{"attributes":{"ID":220299,"DIS_CODE":0,"TOWNNAME":"永康區","LI":"復華里","LIN":"35鄰","STREET":"復華七街","SECT":" ","MAREA":" ","LANE":"３９巷","ALLEY":"２弄","HOUSE_NO":"１３號","E_COORD97":172662.22,"N_COORD97":2546043.5600000001,"ADDRESS":"復華七街３９巷２弄１３號","OBJECTID":220298},"geometry":{"x":172662.22000000067,"y":2546043.5600000005}},{"attributes":{"ID":220300,"DIS_CODE":0,"TOWNNAME":"東區","LI":"崇文里","LIN":"19鄰","STREET":"崇德二十街","SECT":" ","MAREA":" ","LANE":" ","ALLEY":" ","HOUSE_NO":"２６號","E_COORD97":170882.51999999999,"N_COORD97":2540902.8900000001,"ADDRESS":"崇德二十街２６號","OBJECTID":220299},"geometry":{"x":170882.51999999862,"y":2540902.8899999987}},{"attributes":{"ID":220301,"DIS_CODE":0,"TOWNNAME":"白河區","LI":"仙草里","LIN":"21鄰","STREET":" ","SECT":" ","MAREA":"仙草","LANE":" ","ALLEY":" ","HOUSE_NO":"１５０號","E_COORD97":196861.29000000001,"N_COORD97":2582242.6200000001,"ADDRESS":"仙草１５０號","OBJECTID":220300},"geometry":{"x":196861.29000000004,"y":2582242.620000001}},{"attributes":{"ID":220302,"DIS_CODE":0,"TOWNNAME":"白河區","LI":"仙草里","LIN":"21鄰","STREET":" ","SECT":" ","MAREA":"仙草","LANE":" ","ALLEY":" ","HOUSE_NO":"１５１號","E_COORD97":196853.06,"N_COORD97":2582240.9300000002,"ADDRESS":"仙草１５１號","OBJECTID":220301},"geometry":{"x":196853.06000000052,"y":2582240.9300000034}},{"attributes":{"ID":220303,"DIS_CODE":0,"TOWNNAME":"白河區","LI":"仙草里","LIN":"21鄰","STREET":" ","SECT":" ","MAREA":"仙草","LANE":" ","ALLEY":" ","HOUSE_NO":"１５２號","E_COORD97":196852.42999999999,"N_COORD97":2582230.1299999999,"ADDRESS":"仙草１５２號","OBJECTID":220302},"geometry":{"x":196852.43000000063,"y":2582230.1300000008}},{"attributes":{"ID":220304,"DIS_CODE":0,"TOWNNAME":"白河區","LI":"仙草里","LIN":"21鄰","STREET":" ","SECT":" ","MAREA":"仙草","LANE":" ","ALLEY":" ","HOUSE_NO":"１５３號","E_COORD97":196841.16,"N_COORD97":2582249.1699999999,"ADDRESS":"仙草１５３號","OBJECTID":220303},"geometry":{"x":196841.16000000108,"y":2582249.1699999999}},{"attributes":{"ID":220305,"DIS_CODE":0,"TOWNNAME":"白河區","LI":"仙草里","LIN":"21鄰","STREET":" ","SECT":" ","MAREA":"仙草","LANE":" ","ALLEY":" ","HOUSE_NO":"１５６號","E_COORD97":196832.73000000001,"N_COORD97":2582247.0699999998,"ADDRESS":"仙草１５６號","OBJECTID":220304},"geometry":{"x":196832.73000000138,"y":2582247.0699999984}},{"attributes":{"ID":220306,"DIS_CODE":0,"TOWNNAME":"白河區","LI":"仙草里","LIN":"4鄰","STREET":" ","SECT":" ","MAREA":"仙草","LANE":" ","ALLEY":" ","HOUSE_NO":"３４號","E_COORD97":196209.04000000001,"N_COORD97":2582424.71,"ADDRESS":"仙草３４號","OBJECTID":220305},"geometry":{"x":196209.03999999911,"y":2582424.7100000028}},{"attributes":{"ID":220307,"DIS_CODE":0,"TOWNNAME":"新營區","LI":"新南里","LIN":"28鄰","STREET":"明清二街","SECT":" ","MAREA":" ","LANE":" ","ALLEY":" ","HOUSE_NO":"１６７號六樓","E_COORD97":178271.39999999999,"N_COORD97":2578682.8999999999,"ADDRESS":"明清二街１６７號六樓","OBJECTID":220306},"geometry":{"x":178271.40000000037,"y":2578682.9000000022}},{"attributes":{"ID":220308,"DIS_CODE":0,"TOWNNAME":"永康區","LI":"復興里","LIN":"26鄰","STREET":"復興路","SECT":" ","MAREA":" ","LANE":"４２３巷","ALLEY":"８５弄","HOUSE_NO":"２１號","E_COORD97":172284.81,"N_COORD97":2544223.77,"ADDRESS":"復興路４２３巷８５弄２１號","OBJECTID":220307},"geometry":{"x":172284.81000000052,"y":2544223.7699999996}},{"attributes":{"ID":220309,"DIS_CODE":0,"TOWNNAME":"永康區","LI":"復華里","LIN":"41鄰","STREET":"復華七街","SECT":" ","MAREA":" ","LANE":"３２巷","ALLEY":"２２弄","HOUSE_NO":"２９號","E_COORD97":172611.64000000001,"N_COORD97":2545903.46,"ADDRESS":"復華七街３２巷２２弄２９號","OBJECTID":220308},"geometry":{"x":172611.6400000006,"y":2545903.459999999}},{"attributes":{"ID":220310,"DIS_CODE":0,"TOWNNAME":"官田區","LI":"渡頭里","LIN":"19鄰","STREET":" ","SECT":" ","MAREA":"渡子頭","LANE":" ","ALLEY":" ","HOUSE_NO":"１４５號","E_COORD97":181227.67999999999,"N_COORD97":2563098.3700000001,"ADDRESS":"渡子頭１４５號","OBJECTID":220309},"geometry":{"x":181227.68000000063,"y":2563098.3700000029}},{"attributes":{"ID":220311,"DIS_CODE":0,"TOWNNAME":"永康區","LI":"復華里","LIN":"34鄰","STREET":"復國一路","SECT":" ","MAREA":" ","LANE":"４７５巷","ALLEY":"６０弄","HOUSE_NO":"７號","E_COORD97":172518.78,"N_COORD97":2545975.5099999998,"ADDRESS":"復國一路４７５巷６０弄７號","OBJECTID":220310},"geometry":{"x":172518.78000000026,"y":2545975.5099999998}},{"attributes":{"ID":220312,"DIS_CODE":0,"TOWNNAME":"白河區","LI":"仙草里","LIN":"4鄰","STREET":" ","SECT":" ","MAREA":"仙草","LANE":" ","ALLEY":" ","HOUSE_NO":"３６之１號","E_COORD97":196259.95000000001,"N_COORD97":2582441.2200000002,"ADDRESS":"仙草３６之１號","OBJECTID":220311},"geometry":{"x":196259.95000000019,"y":2582441.2200000025}},{"attributes":{"ID":220313,"DIS_CODE":0,"TOWNNAME":"白河區","LI":"仙草里","LIN":"4鄰","STREET":" ","SECT":" ","MAREA":"仙草","LANE":" ","ALLEY":" ","HOUSE_NO":"３６之５號","E_COORD97":196274.39999999999,"N_COORD97":2582425.6699999999,"ADDRESS":"仙草３６之５號","OBJECTID":220312},"geometry":{"x":196274.40000000037,"y":2582425.6699999981}},{"attributes":{"ID":220314,"DIS_CODE":0,"TOWNNAME":"白河區","LI":"仙草里","LIN":"4鄰","STREET":" ","SECT":" ","MAREA":"仙草","LANE":" ","ALLEY":" ","HOUSE_NO":"３６號","E_COORD97":196256.87,"N_COORD97":2582430.71,"ADDRESS":"仙草３６號","OBJECTID":220313},"geometry":{"x":196256.87000000104,"y":2582430.7100000028}},{"attributes":{"ID":220315,"DIS_CODE":0,"TOWNNAME":"白河區","LI":"仙草里","LIN":"4鄰","STREET":" ","SECT":" ","MAREA":"仙草","LANE":" ","ALLEY":" ","HOUSE_NO":"３７之４號","E_COORD97":196229.56,"N_COORD97":2582360.52,"ADDRESS":"仙草３７之４號","OBJECTID":220314},"geometry":{"x":196229.56000000052,"y":2582360.5199999996}},{"attributes":{"ID":220316,"DIS_CODE":0,"TOWNNAME":"白河區","LI":"仙草里","LIN":"4鄰","STREET":" ","SECT":" ","MAREA":"仙草","LANE":" ","ALLEY":" ","HOUSE_NO":"３７號","E_COORD97":196234.89999999999,"N_COORD97":2582406.5099999998,"ADDRESS":"仙草３７號","OBJECTID":220315},"geometry":{"x":196234.9000000013,"y":2582406.5100000035}},{"attributes":{"ID":220317,"DIS_CODE":0,"TOWNNAME":"白河區","LI":"仙草里","LIN":"4鄰","STREET":" ","SECT":" ","MAREA":"仙草","LANE":" ","ALLEY":" ","HOUSE_NO":"３８號","E_COORD97":196247.85000000001,"N_COORD97":2582395.8999999999,"ADDRESS":"仙草３８號","OBJECTID":220316},"geometry":{"x":196247.85000000056,"y":2582395.9000000022}},{"attributes":{"ID":220318,"DIS_CODE":0,"TOWNNAME":"白河區","LI":"仙草里","LIN":"4鄰","STREET":" ","SECT":" ","MAREA":"仙草","LANE":" ","ALLEY":" ","HOUSE_NO":"３９號","E_COORD97":196260.64999999999,"N_COORD97":2582392.7200000002,"ADDRESS":"仙草３９號","OBJECTID":220317},"geometry":{"x":196260.65000000037,"y":2582392.7200000025}},{"attributes":{"ID":220319,"DIS_CODE":0,"TOWNNAME":"白河區","LI":"仙草里","LIN":"4鄰","STREET":" ","SECT":" ","MAREA":"仙草","LANE":" ","ALLEY":" ","HOUSE_NO":"４０之１號","E_COORD97":196276.22,"N_COORD97":2582399.4199999999,"ADDRESS":"仙草４０之１號","OBJECTID":220318},"geometry":{"x":196276.22000000067,"y":2582399.4199999999}},{"attributes":{"ID":220320,"DIS_CODE":0,"TOWNNAME":"白河區","LI":"仙草里","LIN":"4鄰","STREET":" ","SECT":" ","MAREA":"仙草","LANE":" ","ALLEY":" ","HOUSE_NO":"４１之１號","E_COORD97":196271.73000000001,"N_COORD97":2582385.02,"ADDRESS":"仙草４１之１號","OBJECTID":220319},"geometry":{"x":196271.73000000138,"y":2582385.0199999996}},{"attributes":{"ID":220321,"DIS_CODE":0,"TOWNNAME":"白河區","LI":"仙草里","LIN":"4鄰","STREET":" ","SECT":" ","MAREA":"仙草","LANE":" ","ALLEY":" ","HOUSE_NO":"４１之２號","E_COORD97":196271.16,"N_COORD97":2582377.6000000001,"ADDRESS":"仙草４１之２號","OBJECTID":220320},"geometry":{"x":196271.16000000201,"y":2582377.5999999996}},{"attributes":{"ID":220322,"DIS_CODE":0,"TOWNNAME":"白河區","LI":"仙草里","LIN":"4鄰","STREET":" ","SECT":" ","MAREA":"仙草","LANE":" ","ALLEY":" ","HOUSE_NO":"４２號","E_COORD97":196258.07000000001,"N_COORD97":2582378.6299999999,"ADDRESS":"仙草４２號","OBJECTID":220321},"geometry":{"x":196258.0700000003,"y":2582378.6300000008}},{"attributes":{"ID":220323,"DIS_CODE":0,"TOWNNAME":"白河區","LI":"仙草里","LIN":"3鄰","STREET":" ","SECT":" ","MAREA":"仙草","LANE":" ","ALLEY":" ","HOUSE_NO":"３２之５號","E_COORD97":196252.70999999999,"N_COORD97":2582477.48,"ADDRESS":"仙草３２之５號","OBJECTID":220322},"geometry":{"x":196252.71000000089,"y":2582477.4800000004}},{"attributes":{"ID":220324,"DIS_CODE":0,"TOWNNAME":"白河區","LI":"仙草里","LIN":"3鄰","STREET":" ","SECT":" ","MAREA":"仙草","LANE":" ","ALLEY":" ","HOUSE_NO":"３２之２０號","E_COORD97":196257.56,"N_COORD97":2582504.1000000001,"ADDRESS":"仙草３２之２０號","OBJECTID":220323},"geometry":{"x":196257.55999999866,"y":2582504.1000000034}},{"attributes":{"ID":220325,"DIS_CODE":0,"TOWNNAME":"白河區","LI":"仙草里","LIN":"3鄰","STREET":" ","SECT":" ","MAREA":"仙草","LANE":" ","ALLEY":" ","HOUSE_NO":"３２之２１號","E_COORD97":196261.42999999999,"N_COORD97":2582502.6499999999,"ADDRESS":"仙草３２之２１號","OBJECTID":220324},"geometry":{"x":196261.4299999997,"y":2582502.6500000022}},{"attributes":{"ID":220326,"DIS_CODE":0,"TOWNNAME":"白河區","LI":"仙草里","LIN":"3鄰","STREET":" ","SECT":" ","MAREA":"仙草","LANE":" ","ALLEY":" ","HOUSE_NO":"３２之２２號","E_COORD97":196273.89000000001,"N_COORD97":2582499.27,"ADDRESS":"仙草３２之２２號","OBJECTID":220325},"geometry":{"x":196273.88999999966,"y":2582499.2700000033}},{"attributes":{"ID":220327,"DIS_CODE":0,"TOWNNAME":"白河區","LI":"仙草里","LIN":"3鄰","STREET":" ","SECT":" ","MAREA":"仙草","LANE":" ","ALLEY":" ","HOUSE_NO":"３２之２號","E_COORD97":196271.44,"N_COORD97":2582486.1899999999,"ADDRESS":"仙草３２之２號","OBJECTID":220326},"geometry":{"x":196271.44000000134,"y":2582486.1900000032}},{"attributes":{"ID":220328,"DIS_CODE":0,"TOWNNAME":"新營區","LI":"新南里","LIN":"28鄰","STREET":"明清街","SECT":" ","MAREA":" ","LANE":" ","ALLEY":" ","HOUSE_NO":"４６號五樓之７","E_COORD97":178260.28,"N_COORD97":2578706.25,"ADDRESS":"明清街４６號五樓之７","OBJECTID":220327},"geometry":{"x":178260.28000000026,"y":2578706.2500000037}},{"attributes":{"ID":220329,"DIS_CODE":0,"TOWNNAME":"新營區","LI":"新南里","LIN":"28鄰","STREET":"明清街","SECT":" ","MAREA":" ","LANE":" ","ALLEY":" ","HOUSE_NO":"４６號四樓之６","E_COORD97":178260.31,"N_COORD97":2578706.25,"ADDRESS":"明清街４６號四樓之６","OBJECTID":220328},"geometry":{"x":178260.31000000052,"y":2578706.2500000037}},{"attributes":{"ID":220330,"DIS_CODE":0,"TOWNNAME":"白河區","LI":"仙草里","LIN":"3鄰","STREET":" ","SECT":" ","MAREA":"仙草","LANE":" ","ALLEY":" ","HOUSE_NO":"３２之３號","E_COORD97":196261.13,"N_COORD97":2582474.9700000002,"ADDRESS":"仙草３２之３號","OBJECTID":220329},"geometry":{"x":196261.13000000082,"y":2582474.9700000007}},{"attributes":{"ID":220331,"DIS_CODE":0,"TOWNNAME":"白河區","LI":"仙草里","LIN":"3鄰","STREET":" ","SECT":" ","MAREA":"仙草","LANE":" ","ALLEY":" ","HOUSE_NO":"３２之４號","E_COORD97":196256.92000000001,"N_COORD97":2582476.2200000002,"ADDRESS":"仙草３２之４號","OBJECTID":220330},"geometry":{"x":196256.91999999993,"y":2582476.2200000007}},{"attributes":{"ID":220332,"DIS_CODE":0,"TOWNNAME":"白河區","LI":"仙草里","LIN":"3鄰","STREET":" ","SECT":" ","MAREA":"仙草","LANE":" ","ALLEY":" ","HOUSE_NO":"３２號","E_COORD97":196283.35999999999,"N_COORD97":2582482.1299999999,"ADDRESS":"仙草３２號","OBJECTID":220331},"geometry":{"x":196283.36000000034,"y":2582482.129999999}},{"attributes":{"ID":220333,"DIS_CODE":0,"TOWNNAME":"白河區","LI":"仙草里","LIN":"4鄰","STREET":" ","SECT":" ","MAREA":"仙草","LANE":" ","ALLEY":" ","HOUSE_NO":"４３之２號","E_COORD97":196268.14000000001,"N_COORD97":2582346.7599999998,"ADDRESS":"仙草４３之２號","OBJECTID":220332},"geometry":{"x":196268.1400000006,"y":2582346.7599999998}},{"attributes":{"ID":220334,"DIS_CODE":0,"TOWNNAME":"白河區","LI":"仙草里","LIN":"4鄰","STREET":" ","SECT":" ","MAREA":"仙草","LANE":" ","ALLEY":" ","HOUSE_NO":"４３號","E_COORD97":196270.01000000001,"N_COORD97":2582350.8199999998,"ADDRESS":"仙草４３號","OBJECTID":220333},"geometry":{"x":196270.01000000164,"y":2582350.820000004}},{"attributes":{"ID":220335,"DIS_CODE":0,"TOWNNAME":"新營區","LI":"新南里","LIN":"28鄰","STREET":"明清街","SECT":" ","MAREA":" ","LANE":" ","ALLEY":" ","HOUSE_NO":"４６號四樓之７","E_COORD97":178260.28,"N_COORD97":2578706.25,"ADDRESS":"明清街４６號四樓之７","OBJECTID":220334},"geometry":{"x":178260.28000000026,"y":2578706.2500000037}},{"attributes":{"ID":220336,"DIS_CODE":0,"TOWNNAME":"仁德區","LI":"仁義里","LIN":"23鄰","STREET":"中清路","SECT":" ","MAREA":" ","LANE":"１６０巷","ALLEY":"２弄","HOUSE_NO":"２號","E_COORD97":173765.05476,"N_COORD97":2541471.06385,"ADDRESS":"中清路１６０巷２弄２號","OBJECTID":220335},"geometry":{"x":173765.05475999881,"y":2541471.0638459995}},{"attributes":{"ID":220337,"DIS_CODE":0,"TOWNNAME":"永康區","LI":"復興里","LIN":"3鄰","STREET":"復興路","SECT":" ","MAREA":" ","LANE":"２７７巷","ALLEY":"９４弄","HOUSE_NO":"２０號","E_COORD97":172301.79000000001,"N_COORD97":2544087.3799999999,"ADDRESS":"復興路２７７巷９４弄２０號","OBJECTID":220336},"geometry":{"x":172301.78999999911,"y":2544087.379999999}},{"attributes":{"ID":220338,"DIS_CODE":0,"TOWNNAME":"白河區","LI":"仙草里","LIN":"18鄰","STREET":" ","SECT":" ","MAREA":"仙草","LANE":" ","ALLEY":" ","HOUSE_NO":"６１之１０號","E_COORD97":196513.17999999999,"N_COORD97":2582463.5699999998,"ADDRESS":"仙草６１之１０號","OBJECTID":220337},"geometry":{"x":196513.18000000063,"y":2582463.5700000003}},{"attributes":{"ID":220339,"DIS_CODE":0,"TOWNNAME":"白河區","LI":"仙草里","LIN":"18鄰","STREET":" ","SECT":" ","MAREA":"仙草","LANE":" ","ALLEY":" ","HOUSE_NO":"６１之１１號","E_COORD97":196518.76999999999,"N_COORD97":2582460.6499999999,"ADDRESS":"仙草６１之１１號","OBJECTID":220338},"geometry":{"x":196518.76999999955,"y":2582460.6500000022}},{"attributes":{"ID":220340,"DIS_CODE":0,"TOWNNAME":"白河區","LI":"仙草里","LIN":"18鄰","STREET":" ","SECT":" ","MAREA":"仙草","LANE":" ","ALLEY":" ","HOUSE_NO":"６１之１３號","E_COORD97":196528.32000000001,"N_COORD97":2582458.8599999999,"ADDRESS":"仙草６１之１３號","OBJECTID":220339},"geometry":{"x":196528.32000000123,"y":2582458.8600000013}},{"attributes":{"ID":220341,"DIS_CODE":0,"TOWNNAME":"白河區","LI":"仙草里","LIN":"18鄰","STREET":" ","SECT":" ","MAREA":"仙草","LANE":" ","ALLEY":" ","HOUSE_NO":"６１之１４號","E_COORD97":196532.59,"N_COORD97":2582457.3700000001,"ADDRESS":"仙草６１之１４號","OBJECTID":220340},"geometry":{"x":196532.59000000078,"y":2582457.3700000029}},{"attributes":{"ID":220342,"DIS_CODE":0,"TOWNNAME":"永康區","LI":"龍潭里","LIN":"4鄰","STREET":"龍潭街","SECT":" ","MAREA":" ","LANE":" ","ALLEY":" ","HOUSE_NO":"１２５號","E_COORD97":174867.12,"N_COORD97":2548168.0299999998,"ADDRESS":"龍潭街１２５號","OBJECTID":220341},"geometry":{"x":174867.12000000011,"y":2548168.0300000012}},{"attributes":{"ID":220343,"DIS_CODE":0,"TOWNNAME":"永康區","LI":"復華里","LIN":"40鄰","STREET":"復華七街","SECT":" ","MAREA":" ","LANE":"３２巷","ALLEY":"２２弄","HOUSE_NO":"１６號","E_COORD97":172653.28,"N_COORD97":2545921.7799999998,"ADDRESS":"復華七街３２巷２２弄１６號","OBJECTID":220342},"geometry":{"x":172653.28000000119,"y":2545921.7800000012}},{"attributes":{"ID":220344,"DIS_CODE":0,"TOWNNAME":"永康區","LI":"網寮里","LIN":"8鄰","STREET":"永二街","SECT":" ","MAREA":" ","LANE":"２４４巷","ALLEY":"４弄","HOUSE_NO":"１３號","E_COORD97":173295.42999999999,"N_COORD97":2546347.6499999999,"ADDRESS":"永二街２４４巷４弄１３號","OBJECTID":220343},"geometry":{"x":173295.4299999997,"y":2546347.6500000022}},{"attributes":{"ID":220345,"DIS_CODE":0,"TOWNNAME":"官田區","LI":"渡頭里","LIN":"6鄰","STREET":" ","SECT":" ","MAREA":"渡子頭","LANE":" ","ALLEY":" ","HOUSE_NO":"４６號之２","E_COORD97":181262.76999999999,"N_COORD97":2562886.6299999999,"ADDRESS":"渡子頭４６號之２","OBJECTID":220344},"geometry":{"x":181262.77000000048,"y":2562886.6300000008}},{"attributes":{"ID":220346,"DIS_CODE":0,"TOWNNAME":"東區","LI":"泉南里","LIN":"23鄰","STREET":"光華街","SECT":" ","MAREA":" ","LANE":"２２９巷","ALLEY":"２８弄","HOUSE_NO":"２２號","E_COORD97":169391.17000000001,"N_COORD97":2542961.7400000002,"ADDRESS":"光華街２２９巷２８弄２２號","OBJECTID":220345},"geometry":{"x":169391.16999999993,"y":2542961.7400000039}},{"attributes":{"ID":220347,"DIS_CODE":0,"TOWNNAME":"東區","LI":"泉南里","LIN":"23鄰","STREET":"光華街","SECT":" ","MAREA":" ","LANE":"２２９巷","ALLEY":"２８弄","HOUSE_NO":"２４號","E_COORD97":169386.51000000001,"N_COORD97":2542963.3999999999,"ADDRESS":"光華街２２９巷２８弄２４號","OBJECTID":220346},"geometry":{"x":169386.51000000071,"y":2542963.4000000004}},{"attributes":{"ID":220348,"DIS_CODE":0,"TOWNNAME":"東區","LI":"泉南里","LIN":"23鄰","STREET":"光華街","SECT":" ","MAREA":" ","LANE":"２２９巷","ALLEY":"２８弄","HOUSE_NO":"２６號","E_COORD97":169382.03,"N_COORD97":2542964.73,"ADDRESS":"光華街２２９巷２８弄２６號","OBJECTID":220347},"geometry":{"x":169382.03000000119,"y":2542964.7300000004}},{"attributes":{"ID":220349,"DIS_CODE":0,"TOWNNAME":"東區","LI":"泉南里","LIN":"23鄰","STREET":"光華街","SECT":" ","MAREA":" ","LANE":"２２９巷","ALLEY":"２８弄","HOUSE_NO":"２８號","E_COORD97":169377.04000000001,"N_COORD97":2542966.7200000002,"ADDRESS":"光華街２２９巷２８弄２８號","OBJECTID":220348},"geometry":{"x":169377.04000000004,"y":2542966.7200000025}},{"attributes":{"ID":220350,"DIS_CODE":0,"TOWNNAME":"東區","LI":"泉南里","LIN":"23鄰","STREET":"光華街","SECT":" ","MAREA":" ","LANE":"２２９巷","ALLEY":"２８弄","HOUSE_NO":"３０號","E_COORD97":169371.54999999999,"N_COORD97":2542968.8799999999,"ADDRESS":"光華街２２９巷２８弄３０號","OBJECTID":220349},"geometry":{"x":169371.54999999981,"y":2542968.879999999}},{"attributes":{"ID":220351,"DIS_CODE":0,"TOWNNAME":"東區","LI":"泉南里","LIN":"23鄰","STREET":"光華街","SECT":" ","MAREA":" ","LANE":"２２９巷","ALLEY":"２８弄","HOUSE_NO":"３２號","E_COORD97":169365.23000000001,"N_COORD97":2542983.3300000001,"ADDRESS":"光華街２２９巷２８弄３２號","OBJECTID":220350},"geometry":{"x":169365.23000000138,"y":2542983.3300000001}},{"attributes":{"ID":220352,"DIS_CODE":0,"TOWNNAME":"東區","LI":"泉南里","LIN":"23鄰","STREET":"光華街","SECT":" ","MAREA":" ","LANE":"２２９巷","ALLEY":"２８弄","HOUSE_NO":"３４號","E_COORD97":169362.07999999999,"N_COORD97":2542978.5099999998,"ADDRESS":"光華街２２９巷２８弄３４號","OBJECTID":220351},"geometry":{"x":169362.07999999914,"y":2542978.5099999998}},{"attributes":{"ID":220353,"DIS_CODE":0,"TOWNNAME":"東區","LI":"泉南里","LIN":"23鄰","STREET":"光華街","SECT":" ","MAREA":" ","LANE":"２２９巷","ALLEY":"２８弄","HOUSE_NO":"３６號","E_COORD97":169361.57999999999,"N_COORD97":2542974.3599999999,"ADDRESS":"光華街２２９巷２８弄３６號","OBJECTID":220352},"geometry":{"x":169361.58000000007,"y":2542974.3600000013}},{"attributes":{"ID":220354,"DIS_CODE":0,"TOWNNAME":"東區","LI":"泉南里","LIN":"23鄰","STREET":"光華街","SECT":" ","MAREA":" ","LANE":"２２９巷","ALLEY":"２８弄","HOUSE_NO":"３８號","E_COORD97":169361.57999999999,"N_COORD97":2542966.3900000001,"ADDRESS":"光華街２２９巷２８弄３８號","OBJECTID":220353},"geometry":{"x":169361.58000000007,"y":2542966.3900000006}},{"attributes":{"ID":220355,"DIS_CODE":0,"TOWNNAME":"東區","LI":"小東里","LIN":"23鄰","STREET":"光明街","SECT":" ","MAREA":" ","LANE":"２０１巷","ALLEY":"２３弄","HOUSE_NO":"３號","E_COORD97":171006.91,"N_COORD97":2544082.4900000002,"ADDRESS":"光明街２０１巷２３弄３號","OBJECTID":220354},"geometry":{"x":171006.91000000015,"y":2544082.4900000021}},{"attributes":{"ID":220356,"DIS_CODE":0,"TOWNNAME":"東區","LI":"小東里","LIN":"23鄰","STREET":"光明街","SECT":" ","MAREA":" ","LANE":"２０１巷","ALLEY":"２３弄","HOUSE_NO":"１０號","E_COORD97":171015.53,"N_COORD97":2544090.1600000001,"ADDRESS":"光明街２０１巷２３弄１０號","OBJECTID":220355},"geometry":{"x":171015.53000000212,"y":2544090.1600000001}},{"attributes":{"ID":220357,"DIS_CODE":0,"TOWNNAME":"永康區","LI":"復華里","LIN":"35鄰","STREET":"復華七街","SECT":" ","MAREA":" ","LANE":"３９巷","ALLEY":"４弄","HOUSE_NO":"６號","E_COORD97":172629.10000000001,"N_COORD97":2546044.0299999998,"ADDRESS":"復華七街３９巷４弄６號","OBJECTID":220356},"geometry":{"x":172629.09999999963,"y":2546044.0300000031}},{"attributes":{"ID":220358,"DIS_CODE":0,"TOWNNAME":"白河區","LI":"仙草里","LIN":"17鄰","STREET":" ","SECT":" ","MAREA":"仙草","LANE":" ","ALLEY":" ","HOUSE_NO":"５０之２號","E_COORD97":196400.87,"N_COORD97":2582379.2200000002,"ADDRESS":"仙草５０之２號","OBJECTID":220357},"geometry":{"x":196400.87000000104,"y":2582379.2200000025}},{"attributes":{"ID":220359,"DIS_CODE":0,"TOWNNAME":"白河區","LI":"仙草里","LIN":"17鄰","STREET":" ","SECT":" ","MAREA":"仙草","LANE":" ","ALLEY":" ","HOUSE_NO":"５０之３號","E_COORD97":196463.63,"N_COORD97":2582343.75,"ADDRESS":"仙草５０之３號","OBJECTID":220358},"geometry":{"x":196463.62999999989,"y":2582343.7499999981}},{"attributes":{"ID":220360,"DIS_CODE":0,"TOWNNAME":"東區","LI":"小東里","LIN":"23鄰","STREET":"光明街","SECT":" ","MAREA":" ","LANE":"２０１巷","ALLEY":"２３弄","HOUSE_NO":"１２號","E_COORD97":171015.06,"N_COORD97":2544095.6400000001,"ADDRESS":"光明街２０１巷２３弄１２號","OBJECTID":220359},"geometry":{"x":171015.06000000052,"y":2544095.6400000025}},{"attributes":{"ID":220361,"DIS_CODE":0,"TOWNNAME":"白河區","LI":"仙草里","LIN":"17鄰","STREET":" ","SECT":" ","MAREA":"仙草","LANE":" ","ALLEY":" ","HOUSE_NO":"５０之５號","E_COORD97":196453.03,"N_COORD97":2582360.02,"ADDRESS":"仙草５０之５號","OBJECTID":220360},"geometry":{"x":196453.03000000026,"y":2582360.0200000014}},{"attributes":{"ID":220362,"DIS_CODE":0,"TOWNNAME":"東區","LI":"小東里","LIN":"23鄰","STREET":"光明街","SECT":" ","MAREA":" ","LANE":"２０１巷","ALLEY":"２３弄","HOUSE_NO":"２號","E_COORD97":171015.19,"N_COORD97":2544070.8999999999,"ADDRESS":"光明街２０１巷２３弄２號","OBJECTID":220361},"geometry":{"x":171015.19000000134,"y":2544070.9000000022}},{"attributes":{"ID":220363,"DIS_CODE":0,"TOWNNAME":"東區","LI":"小東里","LIN":"23鄰","STREET":"光明街","SECT":" ","MAREA":" ","LANE":"２０１巷","ALLEY":"２３弄","HOUSE_NO":"４號","E_COORD97":171015.45000000001,"N_COORD97":2544075.2999999998,"ADDRESS":"光明街２０１巷２３弄４號","OBJECTID":220362},"geometry":{"x":171015.45000000019,"y":2544075.3000000026}},{"attributes":{"ID":220364,"DIS_CODE":0,"TOWNNAME":"東區","LI":"小東里","LIN":"23鄰","STREET":"光明街","SECT":" ","MAREA":" ","LANE":"２０１巷","ALLEY":"２３弄","HOUSE_NO":"６號","E_COORD97":171015.97,"N_COORD97":2544080.73,"ADDRESS":"光明街２０１巷２３弄６號","OBJECTID":220363},"geometry":{"x":171015.97000000067,"y":2544080.7300000042}},{"attributes":{"ID":220365,"DIS_CODE":0,"TOWNNAME":"東區","LI":"小東里","LIN":"23鄰","STREET":"光明街","SECT":" ","MAREA":" ","LANE":"２０１巷","ALLEY":"２３弄","HOUSE_NO":"８號","E_COORD97":171015.97,"N_COORD97":2544084.8700000001,"ADDRESS":"光明街２０１巷２３弄８號","OBJECTID":220364},"geometry":{"x":171015.97000000067,"y":2544084.8700000029}},{"attributes":{"ID":220366,"DIS_CODE":0,"TOWNNAME":"安南區","LI":"新順里","LIN":"23鄰","STREET":"安和路","SECT":"二段","MAREA":" ","LANE":"２８５巷","ALLEY":"１８弄","HOUSE_NO":"１號","E_COORD97":169593.01999999999,"N_COORD97":2549186.3399999999,"ADDRESS":"安和路二段２８５巷１８弄１號","OBJECTID":220365},"geometry":{"x":169593.02000000048,"y":2549186.3400000017}},{"attributes":{"ID":220367,"DIS_CODE":0,"TOWNNAME":"安南區","LI":"新順里","LIN":"23鄰","STREET":"安和路","SECT":"二段","MAREA":" ","LANE":"２８５巷","ALLEY":"１８弄","HOUSE_NO":"３號","E_COORD97":169600.20000000001,"N_COORD97":2549192.25,"ADDRESS":"安和路二段２８５巷１８弄３號","OBJECTID":220366},"geometry":{"x":169600.20000000019,"y":2549192.25}},{"attributes":{"ID":220368,"DIS_CODE":0,"TOWNNAME":"安南區","LI":"新順里","LIN":"23鄰","STREET":"安和路","SECT":"二段","MAREA":" ","LANE":"２８５巷","ALLEY":"１８弄","HOUSE_NO":"５號","E_COORD97":169601.69,"N_COORD97":2549198.3300000001,"ADDRESS":"安和路二段２８５巷１８弄５號","OBJECTID":220367},"geometry":{"x":169601.69000000041,"y":2549198.3300000001}},{"attributes":{"ID":220369,"DIS_CODE":0,"TOWNNAME":"安南區","LI":"新順里","LIN":"23鄰","STREET":"安和路","SECT":"二段","MAREA":" ","LANE":"２８５巷","ALLEY":"１８弄","HOUSE_NO":"７號","E_COORD97":169601.92999999999,"N_COORD97":2549204.9500000002,"ADDRESS":"安和路二段２８５巷１８弄７號","OBJECTID":220368},"geometry":{"x":169601.93000000156,"y":2549204.9500000011}},{"attributes":{"ID":220370,"DIS_CODE":0,"TOWNNAME":"安南區","LI":"新順里","LIN":"23鄰","STREET":"安和路","SECT":"二段","MAREA":" ","LANE":"２８５巷","ALLEY":"１８弄","HOUSE_NO":"９號","E_COORD97":169574.53,"N_COORD97":2549190.46,"ADDRESS":"安和路二段２８５巷１８弄９號","OBJECTID":220369},"geometry":{"x":169574.52999999933,"y":2549190.4600000028}},{"attributes":{"ID":220371,"DIS_CODE":0,"TOWNNAME":"安南區","LI":"新順里","LIN":"23鄰","STREET":"安和路","SECT":"二段","MAREA":" ","LANE":"２８５巷","ALLEY":"１８弄","HOUSE_NO":"１１號","E_COORD97":169582.59,"N_COORD97":2549207.0699999998,"ADDRESS":"安和路二段２８５巷１８弄１１號","OBJECTID":220370},"geometry":{"x":169582.59000000078,"y":2549207.0700000003}},{"attributes":{"ID":220372,"DIS_CODE":0,"TOWNNAME":"安南區","LI":"新順里","LIN":"23鄰","STREET":"安和路","SECT":"二段","MAREA":" ","LANE":"２８５巷","ALLEY":"１８弄","HOUSE_NO":"１３號","E_COORD97":169577.23999999999,"N_COORD97":2549208.4900000002,"ADDRESS":"安和路二段２８５巷１８弄１３號","OBJECTID":220371},"geometry":{"x":169577.24000000115,"y":2549208.4900000039}},{"attributes":{"ID":220373,"DIS_CODE":0,"TOWNNAME":"白河區","LI":"仙草里","LIN":"17鄰","STREET":" ","SECT":" ","MAREA":"仙草","LANE":" ","ALLEY":" ","HOUSE_NO":"５２之１號","E_COORD97":196367.01000000001,"N_COORD97":2582409.9100000001,"ADDRESS":"仙草５２之１號","OBJECTID":220372},"geometry":{"x":196367.01000000071,"y":2582409.9100000001}},{"attributes":{"ID":220374,"DIS_CODE":0,"TOWNNAME":"安南區","LI":"新順里","LIN":"23鄰","STREET":"安和路","SECT":"二段","MAREA":" ","LANE":"２８５巷","ALLEY":"１８弄","HOUSE_NO":"１５號","E_COORD97":169573.57999999999,"N_COORD97":2549209.4700000002,"ADDRESS":"安和路二段２８５巷１８弄１５號","OBJECTID":220373},"geometry":{"x":169573.58000000007,"y":2549209.4700000025}},{"attributes":{"ID":220375,"DIS_CODE":0,"TOWNNAME":"安南區","LI":"新順里","LIN":"23鄰","STREET":"安和路","SECT":"二段","MAREA":" ","LANE":"２８５巷","ALLEY":"１８弄","HOUSE_NO":"１７號","E_COORD97":169569.38,"N_COORD97":2549210.5800000001,"ADDRESS":"安和路二段２８５巷１８弄１７號","OBJECTID":220374},"geometry":{"x":169569.37999999989,"y":2549210.5800000001}},{"attributes":{"ID":220376,"DIS_CODE":0,"TOWNNAME":"七股區","LI":"後港里","LIN":"16鄰","STREET":" ","SECT":" ","MAREA":"港西","LANE":" ","ALLEY":" ","HOUSE_NO":"６４號","E_COORD97":162204.10000000001,"N_COORD97":2564970.3599999999,"ADDRESS":"港西６４號","OBJECTID":220375},"geometry":{"x":162204.09999999963,"y":2564970.3600000031}},{"attributes":{"ID":220377,"DIS_CODE":0,"TOWNNAME":"安南區","LI":"新順里","LIN":"23鄰","STREET":"安和路","SECT":"二段","MAREA":" ","LANE":"２８５巷","ALLEY":"１８弄","HOUSE_NO":"１９號","E_COORD97":169561.20000000001,"N_COORD97":2549210.8700000001,"ADDRESS":"安和路二段２８５巷１８弄１９號","OBJECTID":220376},"geometry":{"x":169561.20000000019,"y":2549210.8700000029}},{"attributes":{"ID":220378,"DIS_CODE":0,"TOWNNAME":"安南區","LI":"新順里","LIN":"23鄰","STREET":"安和路","SECT":"二段","MAREA":" ","LANE":"２８５巷","ALLEY":"１８弄","HOUSE_NO":"２１號","E_COORD97":169560.01999999999,"N_COORD97":2549198.6400000001,"ADDRESS":"安和路二段２８５巷１８弄２１號","OBJECTID":220377},"geometry":{"x":169560.01999999955,"y":2549198.6400000025}},{"attributes":{"ID":220379,"DIS_CODE":0,"TOWNNAME":"安南區","LI":"新順里","LIN":"23鄰","STREET":"安和路","SECT":"二段","MAREA":" ","LANE":"２８５巷","ALLEY":"１８弄","HOUSE_NO":"２３號","E_COORD97":169559.26000000001,"N_COORD97":2549190.7200000002,"ADDRESS":"安和路二段２８５巷１８弄２３號","OBJECTID":220378},"geometry":{"x":169559.26000000071,"y":2549190.7200000025}},{"attributes":{"ID":220380,"DIS_CODE":0,"TOWNNAME":"永康區","LI":"復華里","LIN":"36鄰","STREET":"復華七街","SECT":" ","MAREA":" ","LANE":"３９巷","ALLEY":"９弄","HOUSE_NO":"９號","E_COORD97":172595.66,"N_COORD97":2546010.0299999998,"ADDRESS":"復華七街３９巷９弄９號","OBJECTID":220379},"geometry":{"x":172595.66000000015,"y":2546010.0300000031}},{"attributes":{"ID":220381,"DIS_CODE":0,"TOWNNAME":"永康區","LI":"復華里","LIN":"41鄰","STREET":"復華七街","SECT":" ","MAREA":" ","LANE":"３２巷","ALLEY":"２２弄","HOUSE_NO":"１５號","E_COORD97":172646.97,"N_COORD97":2545903.0099999998,"ADDRESS":"復華七街３２巷２２弄１５號","OBJECTID":220380},"geometry":{"x":172646.97000000067,"y":2545903.0100000016}},{"attributes":{"ID":220382,"DIS_CODE":0,"TOWNNAME":"永康區","LI":"\u25A0行里","LIN":"23鄰","STREET":"中正南路","SECT":" ","MAREA":" ","LANE":"５９２巷","ALLEY":"３８弄","HOUSE_NO":"１號","E_COORD97":171615.07999999999,"N_COORD97":2548573.3300000001,"ADDRESS":"中正南路５９２巷３８弄１號","OBJECTID":220381},"geometry":{"x":171615.08000000194,"y":2548573.3300000019}},{"attributes":{"ID":220383,"DIS_CODE":0,"TOWNNAME":"永康區","LI":"\u25A0行里","LIN":"23鄰","STREET":"中正南路","SECT":" ","MAREA":" ","LANE":"５９２巷","ALLEY":"３８弄","HOUSE_NO":"２９號","E_COORD97":171660.04999999999,"N_COORD97":2548620.1400000001,"ADDRESS":"中正南路５９２巷３８弄２９號","OBJECTID":220382},"geometry":{"x":171660.04999999981,"y":2548620.1400000006}},{"attributes":{"ID":220384,"DIS_CODE":0,"TOWNNAME":"永康區","LI":"\u25A0行里","LIN":"23鄰","STREET":"中正南路","SECT":" ","MAREA":" ","LANE":"５９２巷","ALLEY":"３８弄","HOUSE_NO":"１７號","E_COORD97":171638.25,"N_COORD97":2548599.4900000002,"ADDRESS":"中正南路５９２巷３８弄１７號","OBJECTID":220383},"geometry":{"x":171638.25000000093,"y":2548599.4900000021}},{"attributes":{"ID":220385,"DIS_CODE":0,"TOWNNAME":"永康區","LI":"龍潭里","LIN":"5鄰","STREET":"龍埔街","SECT":" ","MAREA":" ","LANE":" ","ALLEY":" ","HOUSE_NO":"７３號","E_COORD97":174652.56,"N_COORD97":2548224.6800000002,"ADDRESS":"龍埔街７３號","OBJECTID":220384},"geometry":{"x":174652.56000000145,"y":2548224.6800000016}},{"attributes":{"ID":220386,"DIS_CODE":0,"TOWNNAME":"永康區","LI":"\u25A0行里","LIN":"23鄰","STREET":"中正南路","SECT":" ","MAREA":" ","LANE":"５９２巷","ALLEY":"３８弄","HOUSE_NO":"３號","E_COORD97":171617.82999999999,"N_COORD97":2548576.0699999998,"ADDRESS":"中正南路５９２巷３８弄３號","OBJECTID":220385},"geometry":{"x":171617.83000000007,"y":2548576.0700000003}},{"attributes":{"ID":220387,"DIS_CODE":0,"TOWNNAME":"永康區","LI":"\u25A0行里","LIN":"23鄰","STREET":"中正南路","SECT":" ","MAREA":" ","LANE":"５９２巷","ALLEY":"３８弄","HOUSE_NO":"３４號","E_COORD97":171671.57000000001,"N_COORD97":2548608.71,"ADDRESS":"中正南路５９２巷３８弄３４號","OBJECTID":220386},"geometry":{"x":171671.57000000123,"y":2548608.7100000028}},{"attributes":{"ID":220388,"DIS_CODE":0,"TOWNNAME":"白河區","LI":"仙草里","LIN":"17鄰","STREET":" ","SECT":" ","MAREA":"仙草","LANE":" ","ALLEY":" ","HOUSE_NO":"５５之１號","E_COORD97":196325.07999999999,"N_COORD97":2582442.0299999998,"ADDRESS":"仙草５５之１號","OBJECTID":220387},"geometry":{"x":196325.08000000007,"y":2582442.0299999993}},{"attributes":{"ID":220389,"DIS_CODE":0,"TOWNNAME":"白河區","LI":"仙草里","LIN":"17鄰","STREET":" ","SECT":" ","MAREA":"仙草","LANE":" ","ALLEY":" ","HOUSE_NO":"５６之１號","E_COORD97":196306.13,"N_COORD97":2582474.71,"ADDRESS":"仙草５６之１號","OBJECTID":220388},"geometry":{"x":196306.12999999989,"y":2582474.7100000028}},{"attributes":{"ID":220390,"DIS_CODE":0,"TOWNNAME":"永康區","LI":"\u25A0行里","LIN":"23鄰","STREET":"中正南路","SECT":" ","MAREA":" ","LANE":"５９２巷","ALLEY":"３８弄","HOUSE_NO":"２６號","E_COORD97":171660.75,"N_COORD97":2548597.21,"ADDRESS":"中正南路５９２巷３８弄２６號","OBJECTID":220389},"geometry":{"x":171660.75,"y":2548597.209999999}},{"attributes":{"ID":220391,"DIS_CODE":0,"TOWNNAME":"永康區","LI":"\u25A0行里","LIN":"23鄰","STREET":"中正南路","SECT":" ","MAREA":" ","LANE":"５９２巷","ALLEY":"３８弄","HOUSE_NO":"１０號","E_COORD97":171637.57000000001,"N_COORD97":2548574.2000000002,"ADDRESS":"中正南路５９２巷３８弄１０號","OBJECTID":220390},"geometry":{"x":171637.57000000123,"y":2548574.1999999993}},{"attributes":{"ID":220392,"DIS_CODE":0,"TOWNNAME":"永康區","LI":"\u25A0行里","LIN":"23鄰","STREET":"中正南路","SECT":" ","MAREA":" ","LANE":"５９２巷","ALLEY":"３８弄","HOUSE_NO":"４號","E_COORD97":171627.51000000001,"N_COORD97":2548565.4500000002,"ADDRESS":"中正南路５９２巷３８弄４號","OBJECTID":220391},"geometry":{"x":171627.51000000071,"y":2548565.4499999993}},{"attributes":{"ID":220393,"DIS_CODE":0,"TOWNNAME":"永康區","LI":"\u25A0行里","LIN":"23鄰","STREET":"中正南路","SECT":" ","MAREA":" ","LANE":"５９２巷","ALLEY":"３８弄","HOUSE_NO":"１９號","E_COORD97":171641.89000000001,"N_COORD97":2548602.9900000002,"ADDRESS":"中正南路５９２巷３８弄１９號","OBJECTID":220392},"geometry":{"x":171641.8900000006,"y":2548602.9900000021}},{"attributes":{"ID":220394,"DIS_CODE":0,"TOWNNAME":"永康區","LI":"\u25A0行里","LIN":"23鄰","STREET":"中正南路","SECT":" ","MAREA":" ","LANE":"５９２巷","ALLEY":"３８弄","HOUSE_NO":"４２號","E_COORD97":171683.17000000001,"N_COORD97":2548619.96,"ADDRESS":"中正南路５９２巷３８弄４２號","OBJECTID":220393},"geometry":{"x":171683.16999999993,"y":2548619.9600000028}},{"attributes":{"ID":220395,"DIS_CODE":0,"TOWNNAME":"安南區","LI":"\u25A0南里","LIN":"23鄰","STREET":"環福街","SECT":" ","MAREA":" ","LANE":"２１６巷","ALLEY":"１９弄","HOUSE_NO":"３７號","E_COORD97":170333.25,"N_COORD97":2552756.1000000001,"ADDRESS":"環福街２１６巷１９弄３７號","OBJECTID":220394},"geometry":{"x":170333.25,"y":2552756.0999999996}},{"attributes":{"ID":220396,"DIS_CODE":0,"TOWNNAME":"安南區","LI":"\u25A0南里","LIN":"23鄰","STREET":"環福街","SECT":" ","MAREA":" ","LANE":"２１６巷","ALLEY":"１９弄","HOUSE_NO":"３９號","E_COORD97":170344.5,"N_COORD97":2552753.2200000002,"ADDRESS":"環福街２１６巷１９弄３９號","OBJECTID":220395},"geometry":{"x":170344.50000000093,"y":2552753.2200000007}},{"attributes":{"ID":220397,"DIS_CODE":0,"TOWNNAME":"安南區","LI":"\u25A0南里","LIN":"23鄰","STREET":"環福街","SECT":" ","MAREA":" ","LANE":"２１６巷","ALLEY":"３９弄","HOUSE_NO":"１８號","E_COORD97":170385.31,"N_COORD97":2552720.5699999998,"ADDRESS":"環福街２１６巷３９弄１８號","OBJECTID":220396},"geometry":{"x":170385.30999999959,"y":2552720.570000004}},{"attributes":{"ID":220398,"DIS_CODE":0,"TOWNNAME":"安南區","LI":"\u25A0南里","LIN":"23鄰","STREET":"環福街","SECT":" ","MAREA":" ","LANE":"２１６巷","ALLEY":"３９弄","HOUSE_NO":"３０號","E_COORD97":170387.66,"N_COORD97":2552749.04,"ADDRESS":"環福街２１６巷３９弄３０號","OBJECTID":220397},"geometry":{"x":170387.66000000108,"y":2552749.0399999991}},{"attributes":{"ID":220399,"DIS_CODE":0,"TOWNNAME":"安南區","LI":"\u25A0南里","LIN":"23鄰","STREET":"環福街","SECT":" ","MAREA":" ","LANE":"２１６巷","ALLEY":"３９弄","HOUSE_NO":"４６號","E_COORD97":170408.06,"N_COORD97":2552752.7000000002,"ADDRESS":"環福街２１６巷３９弄４６號","OBJECTID":220398},"geometry":{"x":170408.06000000052,"y":2552752.7000000011}},{"attributes":{"ID":220400,"DIS_CODE":0,"TOWNNAME":"安南區","LI":"\u25A0南里","LIN":"23鄰","STREET":"環福街","SECT":" ","MAREA":" ","LANE":"２１６巷","ALLEY":"３９弄","HOUSE_NO":"５１號","E_COORD97":170374.57000000001,"N_COORD97":2552799.8300000001,"ADDRESS":"環福街２１６巷３９弄５１號","OBJECTID":220399},"geometry":{"x":170374.57000000216,"y":2552799.8300000038}},{"attributes":{"ID":220401,"DIS_CODE":0,"TOWNNAME":"安南區","LI":"\u25A0南里","LIN":"23鄰","STREET":"環福街","SECT":" ","MAREA":" ","LANE":"２２０巷","ALLEY":"３７弄","HOUSE_NO":"１６號","E_COORD97":170306.76999999999,"N_COORD97":2552817.77,"ADDRESS":"環福街２２０巷３７弄１６號","OBJECTID":220400},"geometry":{"x":170306.77000000048,"y":2552817.7700000014}}]}