{"displayFieldName":"TOWNNAME","fieldAliases":{"ID":"ID","DIS_CODE":"DIS_CODE","TOWNNAME":"TOWNNAME","LI":"LI","LIN":"LIN","STREET":"STREET","SECT":"SECT","MAREA":"MAREA","LANE":"LANE","ALLEY":"ALLEY","HOUSE_NO":"HOUSE_NO","E_COORD97":"E_COORD97","N_COORD97":"N_COORD97","ADDRESS":"ADDRESS","OBJECTID":"OBJECTID"},"geometryType":"esriGeometryPoint","spatialReference":{"wkid":102443,"latestWkid":3826},"fields":[{"name":"ID","type":"esriFieldTypeDouble","alias":"ID"},{"name":"DIS_CODE","type":"esriFieldTypeInteger","alias":"DIS_CODE"},{"name":"TOWNNAME","type":"esriFieldTypeString","alias":"TOWNNAME","length":8},{"name":"LI","type":"esriFieldTypeString","alias":"LI","length":8},{"name":"LIN","type":"esriFieldTypeString","alias":"LIN","length":12},{"name":"STREET","type":"esriFieldTypeString","alias":"STREET","length":20},{"name":"SECT","type":"esriFieldTypeString","alias":"SECT","length":8},{"name":"MAREA","type":"esriFieldTypeString","alias":"MAREA","length":12},{"name":"LANE","type":"esriFieldTypeString","alias":"LANE","length":10},{"name":"ALLEY","type":"esriFieldTypeString","alias":"ALLEY","length":10},{"name":"HOUSE_NO","type":"esriFieldTypeString","alias":"HOUSE_NO","length":20},{"name":"E_COORD97","type":"esriFieldTypeDouble","alias":"E_COORD97"},{"name":"N_COORD97","type":"esriFieldTypeDouble","alias":"N_COORD97"},{"name":"ADDRESS","type":"esriFieldTypeString","alias":"ADDRESS","length":50},{"name":"OBJECTID","type":"esriFieldTypeOID","alias":"OBJECTID"}],"features":[{"attributes":{"ID":129001,"DIS_CODE":0,"TOWNNAME":"安定區","LI":"海寮里","LIN":"14鄰","STREET":" ","SECT":" ","MAREA":"海寮","LANE":" ","ALLEY":" ","HOUSE_NO":"１３２之７７號","E_COORD97":168990.19,"N_COORD97":2555425.2999999998,"ADDRESS":"海寮１３２之７７號","OBJECTID":129001},"geometry":{"x":168990.19000000041,"y":2555425.3000000026}},{"attributes":{"ID":129002,"DIS_CODE":0,"TOWNNAME":"安定區","LI":"海寮里","LIN":"14鄰","STREET":" ","SECT":" ","MAREA":"海寮","LANE":" ","ALLEY":" ","HOUSE_NO":"１３２號之１２０","E_COORD97":168990.92999999999,"N_COORD97":2555372.2999999998,"ADDRESS":"海寮１３２號之１２０","OBJECTID":129002},"geometry":{"x":168990.9299999997,"y":2555372.3000000007}},{"attributes":{"ID":129003,"DIS_CODE":0,"TOWNNAME":"東區","LI":"仁和里","LIN":"11鄰","STREET":"仁和路","SECT":" ","MAREA":" ","LANE":"１３９巷","ALLEY":"５１弄","HOUSE_NO":"８號之８","E_COORD97":171774.98999999999,"N_COORD97":2541113.98,"ADDRESS":"仁和路１３９巷５１弄８號之８","OBJECTID":129003},"geometry":{"x":171774.99000000022,"y":2541113.9800000023}},{"attributes":{"ID":129004,"DIS_CODE":0,"TOWNNAME":"安定區","LI":"南安里","LIN":"4鄰","STREET":" ","SECT":" ","MAREA":"油車","LANE":" ","ALLEY":" ","HOUSE_NO":"３８之７號","E_COORD97":170708.34,"N_COORD97":2555532.2999999998,"ADDRESS":"油車３８之７號","OBJECTID":129004},"geometry":{"x":170708.34000000078,"y":2555532.3000000007}},{"attributes":{"ID":129005,"DIS_CODE":0,"TOWNNAME":"東區","LI":"仁和里","LIN":"11鄰","STREET":"仁和路","SECT":" ","MAREA":" ","LANE":"１３９巷","ALLEY":"５１弄","HOUSE_NO":"８號之９","E_COORD97":171779.88,"N_COORD97":2541114.1200000001,"ADDRESS":"仁和路１３９巷５１弄８號之９","OBJECTID":129005},"geometry":{"x":171779.87999999989,"y":2541114.120000001}},{"attributes":{"ID":129006,"DIS_CODE":0,"TOWNNAME":"東區","LI":"仁和里","LIN":"11鄰","STREET":"仁和路","SECT":" ","MAREA":" ","LANE":"１３９巷","ALLEY":"５１弄","HOUSE_NO":"８號之１０","E_COORD97":171785.03,"N_COORD97":2541115.2000000002,"ADDRESS":"仁和路１３９巷５１弄８號之１０","OBJECTID":129006},"geometry":{"x":171785.02999999933,"y":2541115.1999999993}},{"attributes":{"ID":129007,"DIS_CODE":0,"TOWNNAME":"東區","LI":"仁和里","LIN":"11鄰","STREET":"仁和路","SECT":" ","MAREA":" ","LANE":"１３９巷","ALLEY":"５１弄","HOUSE_NO":"８號之１１","E_COORD97":171790.19,"N_COORD97":2541114.52,"ADDRESS":"仁和路１３９巷５１弄８號之１１","OBJECTID":129007},"geometry":{"x":171790.19000000041,"y":2541114.5199999977}},{"attributes":{"ID":129008,"DIS_CODE":0,"TOWNNAME":"東區","LI":"仁和里","LIN":"11鄰","STREET":"仁和路","SECT":" ","MAREA":" ","LANE":"１３９巷","ALLEY":"５１弄","HOUSE_NO":"８號之１２","E_COORD97":171794.66,"N_COORD97":2541115.7400000002,"ADDRESS":"仁和路１３９巷５１弄８號之１２","OBJECTID":129008},"geometry":{"x":171794.66000000108,"y":2541115.7400000002}},{"attributes":{"ID":129009,"DIS_CODE":0,"TOWNNAME":"安定區","LI":"港南里","LIN":"4鄰","STREET":" ","SECT":" ","MAREA":"港口","LANE":" ","ALLEY":" ","HOUSE_NO":"２８號之１２","E_COORD97":171623.59,"N_COORD97":2553990.2999999998,"ADDRESS":"港口２８之１２號","OBJECTID":129009},"geometry":{"x":171623.59000000078,"y":2553990.3000000007}},{"attributes":{"ID":129010,"DIS_CODE":0,"TOWNNAME":"東區","LI":"仁和里","LIN":"11鄰","STREET":"仁和路","SECT":" ","MAREA":" ","LANE":"１３９巷","ALLEY":"５１弄","HOUSE_NO":"８號之１３","E_COORD97":171799.54999999999,"N_COORD97":2541115.4700000002,"ADDRESS":"仁和路１３９巷５１弄８號之１３","OBJECTID":129010},"geometry":{"x":171799.54999999981,"y":2541115.4700000007}},{"attributes":{"ID":129011,"DIS_CODE":0,"TOWNNAME":"安定區","LI":"海寮里","LIN":"13鄰","STREET":" ","SECT":" ","MAREA":"海寮","LANE":" ","ALLEY":" ","HOUSE_NO":"１２６號之２２","E_COORD97":168995.95999999999,"N_COORD97":2555223.2999999998,"ADDRESS":"海寮１２６號之２２","OBJECTID":129011},"geometry":{"x":168995.95999999996,"y":2555223.3000000007}},{"attributes":{"ID":129012,"DIS_CODE":0,"TOWNNAME":"安定區","LI":"蘇林里","LIN":"13鄰","STREET":" ","SECT":" ","MAREA":"蘇厝","LANE":" ","ALLEY":" ","HOUSE_NO":"１４２之２號","E_COORD97":173514.12,"N_COORD97":2558999.2999999998,"ADDRESS":"蘇厝１４２之２號","OBJECTID":129012},"geometry":{"x":173514.12000000104,"y":2558999.3000000026}},{"attributes":{"ID":129013,"DIS_CODE":0,"TOWNNAME":"安定區","LI":"六嘉里","LIN":"4鄰","STREET":" ","SECT":" ","MAREA":"六塊寮","LANE":" ","ALLEY":" ","HOUSE_NO":"３０之３６號","E_COORD97":169820.47,"N_COORD97":2553248.2999999998,"ADDRESS":"六塊寮３０之３６號","OBJECTID":129013},"geometry":{"x":169820.47000000067,"y":2553248.3000000045}},{"attributes":{"ID":129014,"DIS_CODE":0,"TOWNNAME":"安定區","LI":"港南里","LIN":"4鄰","STREET":" ","SECT":" ","MAREA":"港口","LANE":" ","ALLEY":" ","HOUSE_NO":"２８號之９","E_COORD97":171610.56,"N_COORD97":2553984.2999999998,"ADDRESS":"港口２８號之９","OBJECTID":129014},"geometry":{"x":171610.55999999959,"y":2553984.3000000026}},{"attributes":{"ID":129015,"DIS_CODE":0,"TOWNNAME":"安定區","LI":"南安里","LIN":"4鄰","STREET":" ","SECT":" ","MAREA":"油車","LANE":" ","ALLEY":" ","HOUSE_NO":"５１之８號","E_COORD97":170630.62,"N_COORD97":2555598.2999999998,"ADDRESS":"油車５１之８號","OBJECTID":129015},"geometry":{"x":170630.62000000104,"y":2555598.3000000026}},{"attributes":{"ID":129016,"DIS_CODE":0,"TOWNNAME":"安定區","LI":"港南里","LIN":"4鄰","STREET":" ","SECT":" ","MAREA":"港口","LANE":" ","ALLEY":" ","HOUSE_NO":"２８之１６號","E_COORD97":171637.69,"N_COORD97":2553998.2999999998,"ADDRESS":"港口２８之１６號","OBJECTID":129016},"geometry":{"x":171637.69000000041,"y":2553998.3000000026}},{"attributes":{"ID":129017,"DIS_CODE":0,"TOWNNAME":"安定區","LI":"管寮里","LIN":"4鄰","STREET":" ","SECT":" ","MAREA":"管寮","LANE":" ","ALLEY":" ","HOUSE_NO":"３３號之４","E_COORD97":170057.63737700001,"N_COORD97":2556392.0885299998,"ADDRESS":"管寮３３號之４","OBJECTID":129017},"geometry":{"x":170057.63737700041,"y":2556392.0885320008}},{"attributes":{"ID":129018,"DIS_CODE":0,"TOWNNAME":"安定區","LI":"港南里","LIN":"4鄰","STREET":" ","SECT":" ","MAREA":"港口","LANE":" ","ALLEY":" ","HOUSE_NO":"２８號之７","E_COORD97":171603.14999999999,"N_COORD97":2553980.2999999998,"ADDRESS":"港口２８號之７","OBJECTID":129018},"geometry":{"x":171603.15000000224,"y":2553980.2999999989}},{"attributes":{"ID":129019,"DIS_CODE":0,"TOWNNAME":"安定區","LI":"海寮里","LIN":"4鄰","STREET":" ","SECT":" ","MAREA":"海寮","LANE":" ","ALLEY":" ","HOUSE_NO":"４４之１９號","E_COORD97":169638.23999999999,"N_COORD97":2555356.2999999998,"ADDRESS":"海寮４４之１９號","OBJECTID":129019},"geometry":{"x":169638.24000000115,"y":2555356.3000000007}},{"attributes":{"ID":129020,"DIS_CODE":0,"TOWNNAME":"安定區","LI":"新吉里","LIN":"18鄰","STREET":" ","SECT":" ","MAREA":"新吉","LANE":" ","ALLEY":" ","HOUSE_NO":"２５６號","E_COORD97":169021.72,"N_COORD97":2554055.25,"ADDRESS":"新吉２５６號","OBJECTID":129020},"geometry":{"x":169021.71999999881,"y":2554055.2500000019}},{"attributes":{"ID":129021,"DIS_CODE":0,"TOWNNAME":"新營區","LI":"新南里","LIN":"6鄰","STREET":"秦漢街","SECT":" ","MAREA":" ","LANE":" ","ALLEY":" ","HOUSE_NO":"７６號","E_COORD97":178458.45000000001,"N_COORD97":2578788.2799999998,"ADDRESS":"秦漢街７６號","OBJECTID":129021},"geometry":{"x":178458.45000000112,"y":2578788.2799999993}},{"attributes":{"ID":129022,"DIS_CODE":0,"TOWNNAME":"新營區","LI":"民權里","LIN":"6鄰","STREET":"中山路","SECT":" ","MAREA":" ","LANE":" ","ALLEY":" ","HOUSE_NO":"２７６號","E_COORD97":179849.01999999999,"N_COORD97":2577979.8399999999,"ADDRESS":"中山路２７６號","OBJECTID":129022},"geometry":{"x":179849.02000000048,"y":2577979.8400000036}},{"attributes":{"ID":129023,"DIS_CODE":0,"TOWNNAME":"新營區","LI":"民權里","LIN":"6鄰","STREET":"中山路","SECT":" ","MAREA":" ","LANE":" ","ALLEY":" ","HOUSE_NO":"２４６號","E_COORD97":179900.34,"N_COORD97":2578017.2599999998,"ADDRESS":"中山路２４６號","OBJECTID":129023},"geometry":{"x":179900.33999999985,"y":2578017.2599999998}},{"attributes":{"ID":129024,"DIS_CODE":0,"TOWNNAME":"新營區","LI":"太北里","LIN":"6鄰","STREET":" ","SECT":" ","MAREA":"太子宮","LANE":" ","ALLEY":" ","HOUSE_NO":"４７之１２號","E_COORD97":175867.20000000001,"N_COORD97":2577137.6899999999,"ADDRESS":"太子宮４７之１２號","OBJECTID":129024},"geometry":{"x":175867.20000000019,"y":2577137.6900000013}},{"attributes":{"ID":129025,"DIS_CODE":0,"TOWNNAME":"新營區","LI":"五興里","LIN":"6鄰","STREET":" ","SECT":" ","MAREA":"五間厝","LANE":" ","ALLEY":" ","HOUSE_NO":"７３之９號","E_COORD97":175915.37,"N_COORD97":2574755.2999999998,"ADDRESS":"五間厝７３之９號","OBJECTID":129025},"geometry":{"x":175915.37000000011,"y":2574755.3000000007}},{"attributes":{"ID":129026,"DIS_CODE":0,"TOWNNAME":"新營區","LI":"埤寮里","LIN":"6鄰","STREET":" ","SECT":" ","MAREA":"埤寮","LANE":" ","ALLEY":" ","HOUSE_NO":"２３之１０號","E_COORD97":180384.35999999999,"N_COORD97":2580790.2999999998,"ADDRESS":"埤寮２３之１０號","OBJECTID":129026},"geometry":{"x":180384.3600000022,"y":2580790.3000000007}},{"attributes":{"ID":129027,"DIS_CODE":0,"TOWNNAME":"新營區","LI":"民權里","LIN":"6鄰","STREET":"中山路","SECT":" ","MAREA":" ","LANE":" ","ALLEY":" ","HOUSE_NO":"２５８號","E_COORD97":179877.75,"N_COORD97":2578000.75,"ADDRESS":"中山路２５８號","OBJECTID":129027},"geometry":{"x":179877.75,"y":2578000.7499999981}},{"attributes":{"ID":129028,"DIS_CODE":0,"TOWNNAME":"新營區","LI":"民生里","LIN":"6鄰","STREET":"民生路","SECT":" ","MAREA":" ","LANE":" ","ALLEY":" ","HOUSE_NO":"４６號","E_COORD97":179346.07000000001,"N_COORD97":2578307.8199999998,"ADDRESS":"民生路４６號","OBJECTID":129028},"geometry":{"x":179346.07000000123,"y":2578307.8200000003}},{"attributes":{"ID":129029,"DIS_CODE":0,"TOWNNAME":"新營區","LI":"新南里","LIN":"6鄰","STREET":"秦漢街","SECT":" ","MAREA":" ","LANE":" ","ALLEY":" ","HOUSE_NO":"６０號","E_COORD97":178476.60999999999,"N_COORD97":2578740.5800000001,"ADDRESS":"秦漢街６０號","OBJECTID":129029},"geometry":{"x":178476.61000000034,"y":2578740.5800000001}},{"attributes":{"ID":129030,"DIS_CODE":0,"TOWNNAME":"新營區","LI":"民權里","LIN":"6鄰","STREET":"中山路","SECT":" ","MAREA":" ","LANE":" ","ALLEY":" ","HOUSE_NO":"２２０號","E_COORD97":179944.48000000001,"N_COORD97":2578051.3700000001,"ADDRESS":"中山路２２０號","OBJECTID":129030},"geometry":{"x":179944.48000000045,"y":2578051.370000001}},{"attributes":{"ID":129031,"DIS_CODE":0,"TOWNNAME":"新營區","LI":"民權里","LIN":"6鄰","STREET":"中山路","SECT":" ","MAREA":" ","LANE":" ","ALLEY":" ","HOUSE_NO":"２３２號","E_COORD97":179921.89000000001,"N_COORD97":2578033.7599999998,"ADDRESS":"中山路２３２號","OBJECTID":129031},"geometry":{"x":179921.88999999966,"y":2578033.7599999998}},{"attributes":{"ID":129032,"DIS_CODE":0,"TOWNNAME":"東區","LI":"仁和里","LIN":"11鄰","STREET":"仁和路","SECT":" ","MAREA":" ","LANE":"１３９巷","ALLEY":"５１弄","HOUSE_NO":"８號之１４","E_COORD97":171804.56,"N_COORD97":2541116.5600000001,"ADDRESS":"仁和路１３９巷５１弄８號之１４","OBJECTID":129032},"geometry":{"x":171804.56000000145,"y":2541116.5600000024}},{"attributes":{"ID":129033,"DIS_CODE":0,"TOWNNAME":"東區","LI":"仁和里","LIN":"11鄰","STREET":"仁和路","SECT":" ","MAREA":" ","LANE":"１３９巷","ALLEY":"５１弄","HOUSE_NO":"８號之１５","E_COORD97":171809.98999999999,"N_COORD97":2541116.96,"ADDRESS":"仁和路１３９巷５１弄８號之１５","OBJECTID":129033},"geometry":{"x":171809.99000000022,"y":2541116.9600000028}},{"attributes":{"ID":129034,"DIS_CODE":0,"TOWNNAME":"東區","LI":"仁和里","LIN":"11鄰","STREET":"仁和路","SECT":" ","MAREA":" ","LANE":"１３９巷","ALLEY":"５１弄","HOUSE_NO":"８號之１６","E_COORD97":171814.60000000001,"N_COORD97":2541117.6400000001,"ADDRESS":"仁和路１３９巷５１弄８號之１６","OBJECTID":129034},"geometry":{"x":171814.60000000149,"y":2541117.6400000006}},{"attributes":{"ID":129035,"DIS_CODE":0,"TOWNNAME":"東區","LI":"仁和里","LIN":"11鄰","STREET":"仁和路","SECT":" ","MAREA":" ","LANE":"１３９巷","ALLEY":"５１弄","HOUSE_NO":"８號之１７","E_COORD97":171819.62,"N_COORD97":2541117.5099999998,"ADDRESS":"仁和路１３９巷５１弄８號之１７","OBJECTID":129035},"geometry":{"x":171819.62000000011,"y":2541117.5099999998}},{"attributes":{"ID":129036,"DIS_CODE":0,"TOWNNAME":"東區","LI":"仁和里","LIN":"11鄰","STREET":"仁和路","SECT":" ","MAREA":" ","LANE":"１３９巷","ALLEY":"５１弄","HOUSE_NO":"１０號","E_COORD97":171738.64000000001,"N_COORD97":2541130.6200000001,"ADDRESS":"仁和路１３９巷５１弄１０號","OBJECTID":129036},"geometry":{"x":171738.6400000006,"y":2541130.6200000029}},{"attributes":{"ID":129037,"DIS_CODE":0,"TOWNNAME":"東區","LI":"仁和里","LIN":"11鄰","STREET":"仁和路","SECT":" ","MAREA":" ","LANE":"１３９巷","ALLEY":"５１弄","HOUSE_NO":"１０號之１","E_COORD97":171743.39000000001,"N_COORD97":2541130.21,"ADDRESS":"仁和路１３９巷５１弄１０號之１","OBJECTID":129037},"geometry":{"x":171743.3900000006,"y":2541130.2100000009}},{"attributes":{"ID":129038,"DIS_CODE":0,"TOWNNAME":"東區","LI":"仁和里","LIN":"11鄰","STREET":"仁和路","SECT":" ","MAREA":" ","LANE":"１３９巷","ALLEY":"５１弄","HOUSE_NO":"１０號之２","E_COORD97":171748.67999999999,"N_COORD97":2541131.98,"ADDRESS":"仁和路１３９巷５１弄１０號之２","OBJECTID":129038},"geometry":{"x":171748.68000000063,"y":2541131.9800000004}},{"attributes":{"ID":129039,"DIS_CODE":0,"TOWNNAME":"新營區","LI":"南紙里","LIN":"6鄰","STREET":"南紙街","SECT":" ","MAREA":" ","LANE":" ","ALLEY":" ","HOUSE_NO":"１４７號","E_COORD97":177841.97,"N_COORD97":2577340.5099999998,"ADDRESS":"南紙街１４７號","OBJECTID":129039},"geometry":{"x":177841.9700000016,"y":2577340.5099999998}},{"attributes":{"ID":129040,"DIS_CODE":0,"TOWNNAME":"新營區","LI":"土庫里","LIN":"6鄰","STREET":" ","SECT":" ","MAREA":"土庫","LANE":" ","ALLEY":" ","HOUSE_NO":"５９號","E_COORD97":183240.69,"N_COORD97":2579803.6299999999,"ADDRESS":"土庫５９號","OBJECTID":129040},"geometry":{"x":183240.69000000134,"y":2579803.629999999}},{"attributes":{"ID":129041,"DIS_CODE":0,"TOWNNAME":"新營區","LI":"鐵線里","LIN":"6鄰","STREET":" ","SECT":" ","MAREA":"鐵線橋","LANE":" ","ALLEY":" ","HOUSE_NO":"６３號","E_COORD97":175954.67999999999,"N_COORD97":2573705.1699999999,"ADDRESS":"鐵線橋６３號","OBJECTID":129041},"geometry":{"x":175954.6799999997,"y":2573705.1699999999}},{"attributes":{"ID":129042,"DIS_CODE":0,"TOWNNAME":"新營區","LI":"埤寮里","LIN":"6鄰","STREET":" ","SECT":" ","MAREA":"埤寮","LANE":" ","ALLEY":" ","HOUSE_NO":"２５之１１號","E_COORD97":180356.98999999999,"N_COORD97":2580841.3799999999,"ADDRESS":"埤寮２５之１１號","OBJECTID":129042},"geometry":{"x":180356.99000000115,"y":2580841.3800000008}},{"attributes":{"ID":129043,"DIS_CODE":0,"TOWNNAME":"新營區","LI":"護鎮里","LIN":"6鄰","STREET":" ","SECT":" ","MAREA":"後鎮","LANE":" ","ALLEY":" ","HOUSE_NO":"１０５之３號","E_COORD97":178302.62,"N_COORD97":2581326.29,"ADDRESS":"後鎮１０５之３號","OBJECTID":129043},"geometry":{"x":178302.62000000104,"y":2581326.290000001}},{"attributes":{"ID":129044,"DIS_CODE":0,"TOWNNAME":"新營區","LI":"埤寮里","LIN":"6鄰","STREET":" ","SECT":" ","MAREA":"埤寮","LANE":" ","ALLEY":" ","HOUSE_NO":"２１號","E_COORD97":180316.16,"N_COORD97":2580787.23,"ADDRESS":"埤寮２１號","OBJECTID":129044},"geometry":{"x":180316.16000000201,"y":2580787.2300000004}},{"attributes":{"ID":129045,"DIS_CODE":0,"TOWNNAME":"新營區","LI":"護鎮里","LIN":"6鄰","STREET":" ","SECT":" ","MAREA":"後鎮","LANE":" ","ALLEY":" ","HOUSE_NO":"６８之２號","E_COORD97":179095.70000000001,"N_COORD97":2581052.2400000002,"ADDRESS":"後鎮６８之２號","OBJECTID":129045},"geometry":{"x":179095.70000000112,"y":2581052.2400000002}},{"attributes":{"ID":129046,"DIS_CODE":0,"TOWNNAME":"安定區","LI":"管寮里","LIN":"13鄰","STREET":" ","SECT":" ","MAREA":"管寮","LANE":" ","ALLEY":" ","HOUSE_NO":"１２３號","E_COORD97":170035.59,"N_COORD97":2556299.25,"ADDRESS":"管寮１２３號","OBJECTID":129046},"geometry":{"x":170035.59000000078,"y":2556299.2500000037}},{"attributes":{"ID":129047,"DIS_CODE":0,"TOWNNAME":"東區","LI":"仁和里","LIN":"11鄰","STREET":"仁和路","SECT":" ","MAREA":" ","LANE":"１３９巷","ALLEY":"５１弄","HOUSE_NO":"１０號之３","E_COORD97":171753.70000000001,"N_COORD97":2541132.9199999999,"ADDRESS":"仁和路１３９巷５１弄１０號之３","OBJECTID":129047},"geometry":{"x":171753.70000000112,"y":2541132.9200000037}},{"attributes":{"ID":129048,"DIS_CODE":0,"TOWNNAME":"東區","LI":"仁和里","LIN":"11鄰","STREET":"仁和路","SECT":" ","MAREA":" ","LANE":"１３９巷","ALLEY":"５１弄","HOUSE_NO":"１０號之５","E_COORD97":171758.57999999999,"N_COORD97":2541133.0600000001,"ADDRESS":"仁和路１３９巷５１弄１０號之５","OBJECTID":129048},"geometry":{"x":171758.58000000007,"y":2541133.0600000024}},{"attributes":{"ID":129049,"DIS_CODE":0,"TOWNNAME":"永康區","LI":"三合里","LIN":"18鄰","STREET":"南工街","SECT":" ","MAREA":" ","LANE":" ","ALLEY":" ","HOUSE_NO":"２６３號","E_COORD97":171907.51000000001,"N_COORD97":2545959.9900000002,"ADDRESS":"南工街２６３號","OBJECTID":129049},"geometry":{"x":171907.51000000071,"y":2545959.9900000002}},{"attributes":{"ID":129050,"DIS_CODE":0,"TOWNNAME":"東區","LI":"仁和里","LIN":"11鄰","STREET":"仁和路","SECT":" ","MAREA":" ","LANE":"１３９巷","ALLEY":"５１弄","HOUSE_NO":"１０號之６","E_COORD97":171764.28,"N_COORD97":2541134.1400000001,"ADDRESS":"仁和路１３９巷５１弄１０號之６","OBJECTID":129050},"geometry":{"x":171764.28000000026,"y":2541134.1400000006}},{"attributes":{"ID":129051,"DIS_CODE":0,"TOWNNAME":"東區","LI":"仁和里","LIN":"11鄰","STREET":"仁和路","SECT":" ","MAREA":" ","LANE":"１３９巷","ALLEY":"５１弄","HOUSE_NO":"１０號之７","E_COORD97":171768.62,"N_COORD97":2541132.25,"ADDRESS":"仁和路１３９巷５１弄１０號之７","OBJECTID":129051},"geometry":{"x":171768.62000000011,"y":2541132.2500000019}},{"attributes":{"ID":129052,"DIS_CODE":0,"TOWNNAME":"東區","LI":"仁和里","LIN":"11鄰","STREET":"仁和路","SECT":" ","MAREA":" ","LANE":"１３９巷","ALLEY":"５１弄","HOUSE_NO":"１０號之８","E_COORD97":171773.5,"N_COORD97":2541133.8700000001,"ADDRESS":"仁和路１３９巷５１弄１０號之８","OBJECTID":129052},"geometry":{"x":171773.50000000093,"y":2541133.870000001}},{"attributes":{"ID":129053,"DIS_CODE":0,"TOWNNAME":"東區","LI":"仁和里","LIN":"11鄰","STREET":"仁和路","SECT":" ","MAREA":" ","LANE":"１３９巷","ALLEY":"５１弄","HOUSE_NO":"１０號之９","E_COORD97":171778.66,"N_COORD97":2541135.0899999999,"ADDRESS":"仁和路１３９巷５１弄１０號之９","OBJECTID":129053},"geometry":{"x":171778.66000000015,"y":2541135.0900000036}},{"attributes":{"ID":129054,"DIS_CODE":0,"TOWNNAME":"東區","LI":"仁和里","LIN":"11鄰","STREET":"仁和路","SECT":" ","MAREA":" ","LANE":"１３９巷","ALLEY":"５１弄","HOUSE_NO":"１０號之１０","E_COORD97":171783.39999999999,"N_COORD97":2541134.6899999999,"ADDRESS":"仁和路１３９巷５１弄１０號之１０","OBJECTID":129054},"geometry":{"x":171783.4000000013,"y":2541134.6900000013}},{"attributes":{"ID":129055,"DIS_CODE":0,"TOWNNAME":"東區","LI":"仁和里","LIN":"11鄰","STREET":"仁和路","SECT":" ","MAREA":" ","LANE":"１３９巷","ALLEY":"５１弄","HOUSE_NO":"１０號之１１","E_COORD97":171788.56,"N_COORD97":2541135.23,"ADDRESS":"仁和路１３９巷５１弄１０號之１１","OBJECTID":129055},"geometry":{"x":171788.55999999959,"y":2541135.2300000023}},{"attributes":{"ID":129056,"DIS_CODE":0,"TOWNNAME":"東區","LI":"仁和里","LIN":"11鄰","STREET":"仁和路","SECT":" ","MAREA":" ","LANE":"１３９巷","ALLEY":"５１弄","HOUSE_NO":"１０號之１２","E_COORD97":171793.44,"N_COORD97":2541135.5,"ADDRESS":"仁和路１３９巷５１弄１０號之１２","OBJECTID":129056},"geometry":{"x":171793.44000000134,"y":2541135.4999999981}},{"attributes":{"ID":129057,"DIS_CODE":0,"TOWNNAME":"東區","LI":"仁和里","LIN":"11鄰","STREET":"仁和路","SECT":" ","MAREA":" ","LANE":"１３９巷","ALLEY":"５１弄","HOUSE_NO":"１０號之１３","E_COORD97":171798.19,"N_COORD97":2541136.1800000002,"ADDRESS":"仁和路１３９巷５１弄１０號之１３","OBJECTID":129057},"geometry":{"x":171798.19000000134,"y":2541136.1799999997}},{"attributes":{"ID":129058,"DIS_CODE":0,"TOWNNAME":"東區","LI":"仁和里","LIN":"11鄰","STREET":"仁和路","SECT":" ","MAREA":" ","LANE":"１３９巷","ALLEY":"５１弄","HOUSE_NO":"１０號之１４","E_COORD97":171803.20999999999,"N_COORD97":2541136.5800000001,"ADDRESS":"仁和路１３９巷５１弄１０號之１４","OBJECTID":129058},"geometry":{"x":171803.20999999996,"y":2541136.5800000019}},{"attributes":{"ID":129059,"DIS_CODE":0,"TOWNNAME":"東區","LI":"仁和里","LIN":"11鄰","STREET":"仁和路","SECT":" ","MAREA":" ","LANE":"１３９巷","ALLEY":"５１弄","HOUSE_NO":"１０號之１５","E_COORD97":171808.5,"N_COORD97":2541136.7200000002,"ADDRESS":"仁和路１３９巷５１弄１０號之１５","OBJECTID":129059},"geometry":{"x":171808.5,"y":2541136.7200000007}},{"attributes":{"ID":129060,"DIS_CODE":0,"TOWNNAME":"東區","LI":"仁和里","LIN":"11鄰","STREET":"仁和路","SECT":" ","MAREA":" ","LANE":"１３９巷","ALLEY":"５１弄","HOUSE_NO":"１０號之１６","E_COORD97":171813.64999999999,"N_COORD97":2541136.5800000001,"ADDRESS":"仁和路１３９巷５１弄１０號之１６","OBJECTID":129060},"geometry":{"x":171813.6500000013,"y":2541136.5800000019}},{"attributes":{"ID":129061,"DIS_CODE":0,"TOWNNAME":"東區","LI":"仁和里","LIN":"11鄰","STREET":"仁和路","SECT":" ","MAREA":" ","LANE":"１３９巷","ALLEY":"５１弄","HOUSE_NO":"１０號之１７","E_COORD97":171818.13,"N_COORD97":2541136.9900000002,"ADDRESS":"仁和路１３９巷５１弄１０號之１７","OBJECTID":129061},"geometry":{"x":171818.13000000082,"y":2541136.9900000021}},{"attributes":{"ID":129062,"DIS_CODE":0,"TOWNNAME":"東區","LI":"自強里","LIN":"11鄰","STREET":"東門路","SECT":"三段","MAREA":" ","LANE":"３７巷","ALLEY":"４０弄","HOUSE_NO":"６之１號","E_COORD97":171249.22,"N_COORD97":2542430.3799999999,"ADDRESS":"東門路三段３７巷４０弄６之１號","OBJECTID":129062},"geometry":{"x":171249.21999999881,"y":2542430.3800000027}},{"attributes":{"ID":129063,"DIS_CODE":0,"TOWNNAME":"安南區","LI":"海東里","LIN":"11鄰","STREET":"海佃路","SECT":"二段","MAREA":" ","LANE":"４８３巷","ALLEY":"９３弄","HOUSE_NO":"１０號","E_COORD97":166463.14000000001,"N_COORD97":2548972.6600000001,"ADDRESS":"海佃路二段４８３巷９３弄１０號","OBJECTID":129063},"geometry":{"x":166463.1400000006,"y":2548972.6600000001}},{"attributes":{"ID":129064,"DIS_CODE":0,"TOWNNAME":"安南區","LI":"海東里","LIN":"11鄰","STREET":"海佃路","SECT":"二段","MAREA":" ","LANE":"４８３巷","ALLEY":"９３弄","HOUSE_NO":"１號","E_COORD97":166441.94,"N_COORD97":2549004.8399999999,"ADDRESS":"海佃路二段４８３巷９３弄１號","OBJECTID":129064},"geometry":{"x":166441.94000000041,"y":2549004.8399999999}},{"attributes":{"ID":129065,"DIS_CODE":0,"TOWNNAME":"永康區","LI":"大橋里","LIN":"5鄰","STREET":"大橋五街","SECT":" ","MAREA":" ","LANE":" ","ALLEY":" ","HOUSE_NO":"２０號","E_COORD97":170801.25,"N_COORD97":2546860,"ADDRESS":"大橋五街２０號","OBJECTID":129065},"geometry":{"x":170801.25,"y":2546860.0000000019}},{"attributes":{"ID":129066,"DIS_CODE":0,"TOWNNAME":"永康區","LI":"東橋里","LIN":"18鄰","STREET":"中山南路","SECT":" ","MAREA":" ","LANE":" ","ALLEY":" ","HOUSE_NO":"３７７號","E_COORD97":172729.03,"N_COORD97":2546796.6400000001,"ADDRESS":"中山南路３７７號","OBJECTID":129066},"geometry":{"x":172729.03000000026,"y":2546796.6400000006}},{"attributes":{"ID":129067,"DIS_CODE":0,"TOWNNAME":"永康區","LI":"復華里","LIN":"39鄰","STREET":"復華六街","SECT":" ","MAREA":" ","LANE":" ","ALLEY":" ","HOUSE_NO":"６０號","E_COORD97":172730.63,"N_COORD97":2545856.3799999999,"ADDRESS":"復華六街６０號","OBJECTID":129067},"geometry":{"x":172730.63000000082,"y":2545856.3800000008}},{"attributes":{"ID":129068,"DIS_CODE":0,"TOWNNAME":"永康區","LI":"龍潭里","LIN":"18鄰","STREET":"龍潭街","SECT":" ","MAREA":" ","LANE":" ","ALLEY":" ","HOUSE_NO":"２６７號","E_COORD97":174832.48000000001,"N_COORD97":2548444.4500000002,"ADDRESS":"龍潭街２６７號","OBJECTID":129068},"geometry":{"x":174832.48000000138,"y":2548444.4499999993}},{"attributes":{"ID":129069,"DIS_CODE":0,"TOWNNAME":"永康區","LI":"二王里","LIN":"4鄰","STREET":"二王路","SECT":" ","MAREA":" ","LANE":" ","ALLEY":" ","HOUSE_NO":"６６號","E_COORD97":173010.63,"N_COORD97":2546719.8700000001,"ADDRESS":"二王路６６號","OBJECTID":129069},"geometry":{"x":173010.62999999989,"y":2546719.8700000029}},{"attributes":{"ID":129070,"DIS_CODE":0,"TOWNNAME":"永康區","LI":"崑山里","LIN":"20鄰","STREET":"國光一街","SECT":" ","MAREA":" ","LANE":" ","ALLEY":" ","HOUSE_NO":"４７號","E_COORD97":173865.81,"N_COORD97":2544616.5099999998,"ADDRESS":"國光一街４７號","OBJECTID":129070},"geometry":{"x":173865.80999999866,"y":2544616.5099999998}},{"attributes":{"ID":129071,"DIS_CODE":0,"TOWNNAME":"永康區","LI":"龍潭里","LIN":"39鄰","STREET":"永明街","SECT":" ","MAREA":" ","LANE":" ","ALLEY":" ","HOUSE_NO":"２０１號","E_COORD97":174489.41,"N_COORD97":2547212.3999999999,"ADDRESS":"永明街２０１號","OBJECTID":129071},"geometry":{"x":174489.41000000015,"y":2547212.4000000041}},{"attributes":{"ID":129072,"DIS_CODE":0,"TOWNNAME":"永康區","LI":"正強里","LIN":"32鄰","STREET":"四維街","SECT":" ","MAREA":" ","LANE":" ","ALLEY":" ","HOUSE_NO":"２１號","E_COORD97":173417.70999999999,"N_COORD97":2547976.3999999999,"ADDRESS":"四維街２１號","OBJECTID":129072},"geometry":{"x":173417.71000000183,"y":2547976.4000000022}},{"attributes":{"ID":129073,"DIS_CODE":0,"TOWNNAME":"永康區","LI":"王行里","LIN":"14鄰","STREET":"環工路","SECT":" ","MAREA":" ","LANE":" ","ALLEY":" ","HOUSE_NO":"８７號","E_COORD97":174852.5,"N_COORD97":2549729.8999999999,"ADDRESS":"環工路８７號","OBJECTID":129073},"geometry":{"x":174852.50000000093,"y":2549729.9000000004}},{"attributes":{"ID":129074,"DIS_CODE":0,"TOWNNAME":"永康區","LI":"大灣里","LIN":"4鄰","STREET":"信義二街","SECT":" ","MAREA":" ","LANE":" ","ALLEY":" ","HOUSE_NO":"１０３號","E_COORD97":174897.28,"N_COORD97":2545730.2799999998,"ADDRESS":"信義二街１０３號","OBJECTID":129074},"geometry":{"x":174897.28000000026,"y":2545730.2800000031}},{"attributes":{"ID":129075,"DIS_CODE":0,"TOWNNAME":"永康區","LI":"北灣里","LIN":"4鄰","STREET":"信義街","SECT":" ","MAREA":" ","LANE":" ","ALLEY":" ","HOUSE_NO":"１０７號","E_COORD97":175230.69,"N_COORD97":2545635.75,"ADDRESS":"信義街１０７號","OBJECTID":129075},"geometry":{"x":175230.69000000134,"y":2545635.75}},{"attributes":{"ID":129076,"DIS_CODE":0,"TOWNNAME":"永康區","LI":"西灣里","LIN":"18鄰","STREET":"民族路","SECT":" ","MAREA":" ","LANE":" ","ALLEY":" ","HOUSE_NO":"４３０號","E_COORD97":174685.17999999999,"N_COORD97":2545423.2400000002,"ADDRESS":"民族路４３０號","OBJECTID":129076},"geometry":{"x":174685.1799999997,"y":2545423.2400000039}},{"attributes":{"ID":129077,"DIS_CODE":0,"TOWNNAME":"永康區","LI":"龍潭里","LIN":"24鄰","STREET":"中山北路","SECT":" ","MAREA":" ","LANE":" ","ALLEY":" ","HOUSE_NO":"２９０號","E_COORD97":174786.56,"N_COORD97":2547655.7000000002,"ADDRESS":"中山北路２９０號","OBJECTID":129077},"geometry":{"x":174786.56000000052,"y":2547655.6999999993}},{"attributes":{"ID":129078,"DIS_CODE":0,"TOWNNAME":"永康區","LI":"網寮里","LIN":"5鄰","STREET":"永二街","SECT":" ","MAREA":" ","LANE":" ","ALLEY":" ","HOUSE_NO":"１５５號","E_COORD97":173498.54999999999,"N_COORD97":2546408.77,"ADDRESS":"永二街１５５號","OBJECTID":129078},"geometry":{"x":173498.55000000075,"y":2546408.7700000033}},{"attributes":{"ID":129079,"DIS_CODE":0,"TOWNNAME":"安南區","LI":"海東里","LIN":"11鄰","STREET":"海佃路","SECT":"二段","MAREA":" ","LANE":"４８３巷","ALLEY":"９３弄","HOUSE_NO":"３號","E_COORD97":166445.44,"N_COORD97":2548999.4300000002,"ADDRESS":"海佃路二段４８３巷９３弄３號","OBJECTID":129079},"geometry":{"x":166445.44000000041,"y":2548999.4300000016}},{"attributes":{"ID":129080,"DIS_CODE":0,"TOWNNAME":"安南區","LI":"海東里","LIN":"11鄰","STREET":"海環街","SECT":" ","MAREA":" ","LANE":"３２巷","ALLEY":"５７弄","HOUSE_NO":"３０號","E_COORD97":166472.14999999999,"N_COORD97":2548961.5,"ADDRESS":"海環街３２巷５７弄３０號","OBJECTID":129080},"geometry":{"x":166472.1500000013,"y":2548961.5000000019}},{"attributes":{"ID":129081,"DIS_CODE":0,"TOWNNAME":"中西區","LI":"銀同里","LIN":"11鄰","STREET":"開山路","SECT":" ","MAREA":" ","LANE":"３５巷","ALLEY":"１弄","HOUSE_NO":"１０號","E_COORD97":168702.23999999999,"N_COORD97":2543513.7000000002,"ADDRESS":"開山路３５巷１弄１０號","OBJECTID":129081},"geometry":{"x":168702.24000000115,"y":2543513.700000003}},{"attributes":{"ID":129082,"DIS_CODE":0,"TOWNNAME":"中西區","LI":"銀同里","LIN":"11鄰","STREET":"開山路","SECT":" ","MAREA":" ","LANE":"３５巷","ALLEY":"１弄","HOUSE_NO":"１２號","E_COORD97":168704.01999999999,"N_COORD97":2543510.25,"ADDRESS":"開山路３５巷１弄１２號","OBJECTID":129082},"geometry":{"x":168704.01999999955,"y":2543510.25}},{"attributes":{"ID":129083,"DIS_CODE":0,"TOWNNAME":"中西區","LI":"銀同里","LIN":"11鄰","STREET":"開山路","SECT":" ","MAREA":" ","LANE":"３５巷","ALLEY":"１弄","HOUSE_NO":"１４號","E_COORD97":168705.5,"N_COORD97":2543507,"ADDRESS":"開山路３５巷１弄１４號","OBJECTID":129083},"geometry":{"x":168705.50000000093,"y":2543507.0000000019}},{"attributes":{"ID":129084,"DIS_CODE":0,"TOWNNAME":"中西區","LI":"銀同里","LIN":"11鄰","STREET":"開山路","SECT":" ","MAREA":" ","LANE":"３５巷","ALLEY":"１弄","HOUSE_NO":"１６號","E_COORD97":168714.98000000001,"N_COORD97":2543515.5800000001,"ADDRESS":"開山路３５巷１弄１６號","OBJECTID":129084},"geometry":{"x":168714.98000000045,"y":2543515.5800000019}},{"attributes":{"ID":129085,"DIS_CODE":0,"TOWNNAME":"中西區","LI":"銀同里","LIN":"11鄰","STREET":"開山路","SECT":" ","MAREA":" ","LANE":"３５巷","ALLEY":"１弄","HOUSE_NO":"１８號","E_COORD97":168712.91,"N_COORD97":2543520.02,"ADDRESS":"開山路３５巷１弄１８號","OBJECTID":129085},"geometry":{"x":168712.91000000108,"y":2543520.0200000014}},{"attributes":{"ID":129086,"DIS_CODE":0,"TOWNNAME":"中西區","LI":"銀同里","LIN":"11鄰","STREET":"開山路","SECT":" ","MAREA":" ","LANE":"３５巷","ALLEY":"１弄","HOUSE_NO":"２０號","E_COORD97":168710.54000000001,"N_COORD97":2543523.96,"ADDRESS":"開山路３５巷１弄２０號","OBJECTID":129086},"geometry":{"x":168710.54000000097,"y":2543523.9600000046}},{"attributes":{"ID":129087,"DIS_CODE":0,"TOWNNAME":"安定區","LI":"蘇林里","LIN":"13鄰","STREET":" ","SECT":" ","MAREA":"蘇厝","LANE":" ","ALLEY":" ","HOUSE_NO":"１４２號之１","E_COORD97":173519.35000000001,"N_COORD97":2559000.2999999998,"ADDRESS":"蘇厝１４２號之１","OBJECTID":129087},"geometry":{"x":173519.34999999963,"y":2559000.3000000007}},{"attributes":{"ID":129088,"DIS_CODE":0,"TOWNNAME":"安定區","LI":"海寮里","LIN":"14鄰","STREET":" ","SECT":" ","MAREA":"海寮","LANE":" ","ALLEY":" ","HOUSE_NO":"１３２號之９８","E_COORD97":169012.07999999999,"N_COORD97":2555336.2999999998,"ADDRESS":"海寮１３２號之９８","OBJECTID":129088},"geometry":{"x":169012.08000000101,"y":2555336.3000000007}},{"attributes":{"ID":129089,"DIS_CODE":0,"TOWNNAME":"安定區","LI":"海寮里","LIN":"14鄰","STREET":" ","SECT":" ","MAREA":"海寮","LANE":" ","ALLEY":" ","HOUSE_NO":"１３２號之１００","E_COORD97":168970.53,"N_COORD97":2555455.2999999998,"ADDRESS":"海寮１３２號之１００","OBJECTID":129089},"geometry":{"x":168970.53000000026,"y":2555455.3000000045}},{"attributes":{"ID":129090,"DIS_CODE":0,"TOWNNAME":"安定區","LI":"蘇厝里","LIN":"17鄰","STREET":" ","SECT":" ","MAREA":"蘇厝","LANE":" ","ALLEY":" ","HOUSE_NO":"４４６號","E_COORD97":173261.32000000001,"N_COORD97":2558727.25,"ADDRESS":"蘇厝４４６號","OBJECTID":129090},"geometry":{"x":173261.31999999937,"y":2558727.2500000019}},{"attributes":{"ID":129091,"DIS_CODE":0,"TOWNNAME":"安定區","LI":"六嘉里","LIN":"4鄰","STREET":" ","SECT":" ","MAREA":"六塊寮","LANE":" ","ALLEY":" ","HOUSE_NO":"３１之８號","E_COORD97":170067.72,"N_COORD97":2553427.2999999998,"ADDRESS":"六塊寮３１之８號","OBJECTID":129091},"geometry":{"x":170067.7200000016,"y":2553427.3000000007}},{"attributes":{"ID":129092,"DIS_CODE":0,"TOWNNAME":"安定區","LI":"港南里","LIN":"4鄰","STREET":" ","SECT":" ","MAREA":"港口","LANE":" ","ALLEY":" ","HOUSE_NO":"２７之１０號","E_COORD97":171510.19,"N_COORD97":2554007.2999999998,"ADDRESS":"港口２７之１０號","OBJECTID":129092},"geometry":{"x":171510.19000000134,"y":2554007.3000000007}},{"attributes":{"ID":129093,"DIS_CODE":0,"TOWNNAME":"安定區","LI":"港南里","LIN":"4鄰","STREET":" ","SECT":" ","MAREA":"港口","LANE":" ","ALLEY":" ","HOUSE_NO":"２８之１５號","E_COORD97":171633.89000000001,"N_COORD97":2553996.2999999998,"ADDRESS":"港口２８之１５號","OBJECTID":129093},"geometry":{"x":171633.88999999966,"y":2553996.3000000007}},{"attributes":{"ID":129094,"DIS_CODE":0,"TOWNNAME":"安定區","LI":"蘇厝里","LIN":"18鄰","STREET":" ","SECT":" ","MAREA":"蘇厝","LANE":" ","ALLEY":" ","HOUSE_NO":"４５４之１號","E_COORD97":173260.42000000001,"N_COORD97":2558807.2999999998,"ADDRESS":"蘇厝４５４之１號","OBJECTID":129094},"geometry":{"x":173260.42000000179,"y":2558807.3000000007}},{"attributes":{"ID":129095,"DIS_CODE":0,"TOWNNAME":"安定區","LI":"港尾里","LIN":"17鄰","STREET":" ","SECT":" ","MAREA":"港子尾","LANE":" ","ALLEY":" ","HOUSE_NO":"９６號","E_COORD97":171456.59,"N_COORD97":2556053.2599999998,"ADDRESS":"港子尾９６號","OBJECTID":129095},"geometry":{"x":171456.58999999985,"y":2556053.2599999998}},{"attributes":{"ID":129096,"DIS_CODE":0,"TOWNNAME":"安定區","LI":"安加里","LIN":"8鄰","STREET":" ","SECT":" ","MAREA":"安定","LANE":" ","ALLEY":" ","HOUSE_NO":"２３７號之３","E_COORD97":171887.45000000001,"N_COORD97":2557484.3199999998,"ADDRESS":"安定２３７號之３","OBJECTID":129096},"geometry":{"x":171887.45000000205,"y":2557484.3200000003}},{"attributes":{"ID":129097,"DIS_CODE":0,"TOWNNAME":"安定區","LI":"港南里","LIN":"8鄰","STREET":" ","SECT":" ","MAREA":"港口","LANE":" ","ALLEY":" ","HOUSE_NO":"６２之６號","E_COORD97":171416.635281,"N_COORD97":2554290.2510000002,"ADDRESS":"港口６２之６號","OBJECTID":129097},"geometry":{"x":171416.63528100029,"y":2554290.2510000002}},{"attributes":{"ID":129098,"DIS_CODE":0,"TOWNNAME":"安定區","LI":"安加里","LIN":"7鄰","STREET":" ","SECT":" ","MAREA":"安定","LANE":" ","ALLEY":" ","HOUSE_NO":"２１９號之３","E_COORD97":171765.45000000001,"N_COORD97":2557419.3199999998,"ADDRESS":"安定２１９號之３","OBJECTID":129098},"geometry":{"x":171765.45000000112,"y":2557419.3200000022}},{"attributes":{"ID":129099,"DIS_CODE":0,"TOWNNAME":"安定區","LI":"六嘉里","LIN":"4鄰","STREET":" ","SECT":" ","MAREA":"六塊寮","LANE":" ","ALLEY":" ","HOUSE_NO":"３１號","E_COORD97":170034.01999999999,"N_COORD97":2553451.27,"ADDRESS":"六塊寮３１號","OBJECTID":129099},"geometry":{"x":170034.02000000048,"y":2553451.2700000014}},{"attributes":{"ID":129100,"DIS_CODE":0,"TOWNNAME":"安定區","LI":"中沙里","LIN":"4鄰","STREET":" ","SECT":" ","MAREA":"中崙","LANE":" ","ALLEY":" ","HOUSE_NO":"１５５號","E_COORD97":169241.41,"N_COORD97":2553139.25,"ADDRESS":"中崙１５５號","OBJECTID":129100},"geometry":{"x":169241.41000000201,"y":2553139.2500000037}},{"attributes":{"ID":129101,"DIS_CODE":0,"TOWNNAME":"安定區","LI":"海寮里","LIN":"20鄰","STREET":" ","SECT":" ","MAREA":"海寮","LANE":" ","ALLEY":" ","HOUSE_NO":"１９７號之２","E_COORD97":169513.31,"N_COORD97":2555441.2999999998,"ADDRESS":"海寮１９７號之２","OBJECTID":129101},"geometry":{"x":169513.31000000052,"y":2555441.3000000007}},{"attributes":{"ID":129102,"DIS_CODE":0,"TOWNNAME":"中西區","LI":"銀同里","LIN":"11鄰","STREET":"開山路","SECT":" ","MAREA":" ","LANE":"３５巷","ALLEY":"１弄","HOUSE_NO":"２２號","E_COORD97":168707.38,"N_COORD97":2543526.8199999998,"ADDRESS":"開山路３５巷１弄２２號","OBJECTID":129102},"geometry":{"x":168707.38000000175,"y":2543526.8200000003}},{"attributes":{"ID":129103,"DIS_CODE":0,"TOWNNAME":"中西區","LI":"銀同里","LIN":"11鄰","STREET":"開山路","SECT":" ","MAREA":" ","LANE":"３５巷","ALLEY":"１弄","HOUSE_NO":"２４號","E_COORD97":168705.5,"N_COORD97":2543532.7400000002,"ADDRESS":"開山路３５巷１弄２４號","OBJECTID":129103},"geometry":{"x":168705.50000000093,"y":2543532.7400000021}},{"attributes":{"ID":129104,"DIS_CODE":0,"TOWNNAME":"中西區","LI":"銀同里","LIN":"11鄰","STREET":"開山路","SECT":" ","MAREA":" ","LANE":"３５巷","ALLEY":"１弄","HOUSE_NO":"２號","E_COORD97":168687.04999999999,"N_COORD97":2543525.3100000001,"ADDRESS":"開山路３５巷１弄２號","OBJECTID":129104},"geometry":{"x":168687.04999999981,"y":2543525.3100000024}},{"attributes":{"ID":129105,"DIS_CODE":0,"TOWNNAME":"中西區","LI":"銀同里","LIN":"11鄰","STREET":"開山路","SECT":" ","MAREA":" ","LANE":"３５巷","ALLEY":"１弄","HOUSE_NO":"６號","E_COORD97":168698.79000000001,"N_COORD97":2543520.4100000001,"ADDRESS":"開山路３５巷１弄６號","OBJECTID":129105},"geometry":{"x":168698.79000000004,"y":2543520.410000002}},{"attributes":{"ID":129106,"DIS_CODE":0,"TOWNNAME":"中西區","LI":"銀同里","LIN":"11鄰","STREET":"開山路","SECT":" ","MAREA":" ","LANE":"３５巷","ALLEY":"１弄","HOUSE_NO":"８號","E_COORD97":168700.07000000001,"N_COORD97":2543516.96,"ADDRESS":"開山路３５巷１弄８號","OBJECTID":129106},"geometry":{"x":168700.07000000123,"y":2543516.9600000046}},{"attributes":{"ID":129107,"DIS_CODE":0,"TOWNNAME":"中西區","LI":"銀同里","LIN":"11鄰","STREET":"開山路","SECT":" ","MAREA":" ","LANE":"３５巷","ALLEY":"３１弄","HOUSE_NO":"３號","E_COORD97":168738.75,"N_COORD97":2543490.8599999999,"ADDRESS":"開山路３５巷３１弄３號","OBJECTID":129107},"geometry":{"x":168738.75000000186,"y":2543490.8599999994}},{"attributes":{"ID":129108,"DIS_CODE":0,"TOWNNAME":"中西區","LI":"銀同里","LIN":"11鄰","STREET":"開山路","SECT":" ","MAREA":" ","LANE":"３５巷","ALLEY":"３１弄","HOUSE_NO":"５號","E_COORD97":168741.66,"N_COORD97":2543491.4199999999,"ADDRESS":"開山路３５巷３１弄５號","OBJECTID":129108},"geometry":{"x":168741.66000000108,"y":2543491.4199999999}},{"attributes":{"ID":129109,"DIS_CODE":0,"TOWNNAME":"中西區","LI":"銀同里","LIN":"11鄰","STREET":"開山路","SECT":" ","MAREA":" ","LANE":"３５巷","ALLEY":"３１弄","HOUSE_NO":"７號","E_COORD97":168744.81,"N_COORD97":2543492.0899999999,"ADDRESS":"開山路３５巷３１弄７號","OBJECTID":129109},"geometry":{"x":168744.81000000145,"y":2543492.0900000017}},{"attributes":{"ID":129110,"DIS_CODE":0,"TOWNNAME":"中西區","LI":"銀同里","LIN":"11鄰","STREET":"開山路","SECT":" ","MAREA":" ","LANE":"３５巷","ALLEY":"３１弄","HOUSE_NO":"１號","E_COORD97":168734.48000000001,"N_COORD97":2543489.29,"ADDRESS":"開山路３５巷３１弄１號","OBJECTID":129110},"geometry":{"x":168734.48000000138,"y":2543489.2900000028}},{"attributes":{"ID":129111,"DIS_CODE":0,"TOWNNAME":"中西區","LI":"銀同里","LIN":"11鄰","STREET":"開山路","SECT":" ","MAREA":" ","LANE":"３５巷","ALLEY":"１弄","HOUSE_NO":"４號","E_COORD97":168695.32999999999,"N_COORD97":2543523.8599999999,"ADDRESS":"開山路３５巷１弄４號","OBJECTID":129111},"geometry":{"x":168695.33000000007,"y":2543523.8600000013}},{"attributes":{"ID":129112,"DIS_CODE":0,"TOWNNAME":"永康區","LI":"埔園里","LIN":"18鄰","STREET":"四維街","SECT":" ","MAREA":" ","LANE":" ","ALLEY":" ","HOUSE_NO":"１４２號","E_COORD97":173322.67000000001,"N_COORD97":2548340.25,"ADDRESS":"四維街１４２號","OBJECTID":129112},"geometry":{"x":173322.66999999993,"y":2548340.25}},{"attributes":{"ID":129113,"DIS_CODE":0,"TOWNNAME":"永康區","LI":"崑山里","LIN":"25鄰","STREET":"大仁街","SECT":" ","MAREA":" ","LANE":" ","ALLEY":" ","HOUSE_NO":"６９號","E_COORD97":173794.88,"N_COORD97":2544695.7200000002,"ADDRESS":"大仁街６９號","OBJECTID":129113},"geometry":{"x":173794.88000000082,"y":2544695.7200000025}},{"attributes":{"ID":129114,"DIS_CODE":0,"TOWNNAME":"佳里區","LI":"忠仁里","LIN":" ","STREET":"忠仁街","SECT":" ","MAREA":" ","LANE":" ","ALLEY":" ","HOUSE_NO":"９６之１號","E_COORD97":166035.35999999999,"N_COORD97":2562239.9399999999,"ADDRESS":"忠仁街９６之１號","OBJECTID":129114},"geometry":{"x":166035.36000000127,"y":2562239.9399999995}},{"attributes":{"ID":129115,"DIS_CODE":0,"TOWNNAME":"安南區","LI":"海西里","LIN":"11鄰","STREET":"海中街","SECT":" ","MAREA":" ","LANE":"２３巷","ALLEY":"２０弄","HOUSE_NO":"８號","E_COORD97":166457.01000000001,"N_COORD97":2548798.2400000002,"ADDRESS":"海中街２３巷２０弄８號","OBJECTID":129115},"geometry":{"x":166457.01000000071,"y":2548798.2400000002}},{"attributes":{"ID":129116,"DIS_CODE":0,"TOWNNAME":"安南區","LI":"海西里","LIN":"11鄰","STREET":"海中街","SECT":" ","MAREA":" ","LANE":"５１巷","ALLEY":"２０弄","HOUSE_NO":"８號","E_COORD97":166382.78,"N_COORD97":2548893.4300000002,"ADDRESS":"海中街５１巷２０弄８號","OBJECTID":129116},"geometry":{"x":166382.78000000119,"y":2548893.4300000016}},{"attributes":{"ID":129117,"DIS_CODE":0,"TOWNNAME":"七股區","LI":"大寮里","LIN":"5鄰","STREET":" ","SECT":" ","MAREA":"大寮","LANE":" ","ALLEY":" ","HOUSE_NO":"４５號","E_COORD97":163160.07999999999,"N_COORD97":2560923.1200000001,"ADDRESS":"大寮４５號","OBJECTID":129117},"geometry":{"x":163160.08000000101,"y":2560923.1200000029}},{"attributes":{"ID":129118,"DIS_CODE":0,"TOWNNAME":"安南區","LI":"溪心里","LIN":"11鄰","STREET":"海佃路","SECT":"三段","MAREA":" ","LANE":"４８巷","ALLEY":"４３弄","HOUSE_NO":"５號","E_COORD97":166330.92999999999,"N_COORD97":2549940.29,"ADDRESS":"海佃路三段４８巷４３弄５號","OBJECTID":129118},"geometry":{"x":166330.93000000063,"y":2549940.2899999991}},{"attributes":{"ID":129119,"DIS_CODE":0,"TOWNNAME":"安南區","LI":"海東里","LIN":"11鄰","STREET":"海佃路","SECT":"二段","MAREA":" ","LANE":"４８３巷","ALLEY":"９３弄","HOUSE_NO":"１５號","E_COORD97":166464.66,"N_COORD97":2548990.4900000002,"ADDRESS":"海佃路二段４８３巷９３弄１５號","OBJECTID":129119},"geometry":{"x":166464.66000000201,"y":2548990.4900000002}},{"attributes":{"ID":129120,"DIS_CODE":0,"TOWNNAME":"安南區","LI":"海西里","LIN":"11鄰","STREET":"海中街","SECT":" ","MAREA":" ","LANE":"５１巷","ALLEY":"２０弄","HOUSE_NO":"６號","E_COORD97":166386.44,"N_COORD97":2548895.1200000001,"ADDRESS":"海中街５１巷２０弄６號","OBJECTID":129120},"geometry":{"x":166386.44000000041,"y":2548895.120000001}},{"attributes":{"ID":129121,"DIS_CODE":0,"TOWNNAME":"安南區","LI":"海東里","LIN":"11鄰","STREET":"海環街","SECT":" ","MAREA":" ","LANE":"３２巷","ALLEY":"５７弄","HOUSE_NO":"２６號","E_COORD97":166481.45999999999,"N_COORD97":2548966.52,"ADDRESS":"海環街３２巷５７弄２６號","OBJECTID":129121},"geometry":{"x":166481.46000000089,"y":2548966.5199999996}},{"attributes":{"ID":129122,"DIS_CODE":0,"TOWNNAME":"安南區","LI":"海東里","LIN":"11鄰","STREET":"海環街","SECT":" ","MAREA":" ","LANE":"３２巷","ALLEY":"５７弄","HOUSE_NO":"２８號","E_COORD97":166476.76000000001,"N_COORD97":2548965.6000000001,"ADDRESS":"海環街３２巷５７弄２８號","OBJECTID":129122},"geometry":{"x":166476.75999999978,"y":2548965.5999999996}},{"attributes":{"ID":129123,"DIS_CODE":0,"TOWNNAME":"永康區","LI":"東橋里","LIN":"11鄰","STREET":"中山南路","SECT":" ","MAREA":" ","LANE":"２３１巷","ALLEY":"９弄","HOUSE_NO":"４號","E_COORD97":171608.82999999999,"N_COORD97":2546231.5,"ADDRESS":"中山南路２３１巷９弄４號","OBJECTID":129123},"geometry":{"x":171608.83000000101,"y":2546231.5000000037}},{"attributes":{"ID":129124,"DIS_CODE":0,"TOWNNAME":"永康區","LI":"東橋里","LIN":"11鄰","STREET":"中山南路","SECT":" ","MAREA":" ","LANE":"２３１巷","ALLEY":"９弄","HOUSE_NO":"１２號","E_COORD97":171595.29000000001,"N_COORD97":2546221.75,"ADDRESS":"中山南路２３１巷９弄１２號","OBJECTID":129124},"geometry":{"x":171595.29000000097,"y":2546221.75}},{"attributes":{"ID":129125,"DIS_CODE":0,"TOWNNAME":"安南區","LI":"南興里","LIN":"11鄰","STREET":"公學路","SECT":"五段","MAREA":" ","LANE":"６９７巷","ALLEY":"６４弄","HOUSE_NO":"１６號","E_COORD97":163785.60000000001,"N_COORD97":2552661.48,"ADDRESS":"公學路五段６９７巷６４弄１６號","OBJECTID":129125},"geometry":{"x":163785.59999999963,"y":2552661.4800000023}},{"attributes":{"ID":129126,"DIS_CODE":0,"TOWNNAME":"安南區","LI":"南興里","LIN":"11鄰","STREET":"公學路","SECT":"五段","MAREA":" ","LANE":"６９７巷","ALLEY":"６４弄","HOUSE_NO":"７號","E_COORD97":163807.95999999999,"N_COORD97":2552652.8900000001,"ADDRESS":"公學路五段６９７巷６４弄７號","OBJECTID":129126},"geometry":{"x":163807.96000000089,"y":2552652.8900000006}},{"attributes":{"ID":129127,"DIS_CODE":0,"TOWNNAME":"安南區","LI":"南興里","LIN":"11鄰","STREET":"公學路","SECT":"五段","MAREA":" ","LANE":"６９７巷","ALLEY":"６４弄","HOUSE_NO":"８號","E_COORD97":163813.69,"N_COORD97":2552682.0899999999,"ADDRESS":"公學路五段６９７巷６４弄８號","OBJECTID":129127},"geometry":{"x":163813.69000000134,"y":2552682.0899999999}},{"attributes":{"ID":129128,"DIS_CODE":0,"TOWNNAME":"安南區","LI":"城東里","LIN":"11鄰","STREET":"城北路","SECT":" ","MAREA":" ","LANE":"２６８巷","ALLEY":"２７弄","HOUSE_NO":"１０號","E_COORD97":161023.62,"N_COORD97":2551987,"ADDRESS":"城北路２６８巷２７弄１０號","OBJECTID":129128},"geometry":{"x":161023.62000000104,"y":2551987}},{"attributes":{"ID":129129,"DIS_CODE":0,"TOWNNAME":"安南區","LI":"城東里","LIN":"11鄰","STREET":"城北路","SECT":" ","MAREA":" ","LANE":"２６８巷","ALLEY":"２７弄","HOUSE_NO":"１２號","E_COORD97":161023.62,"N_COORD97":2551990.8799999999,"ADDRESS":"城北路２６８巷２７弄１２號","OBJECTID":129129},"geometry":{"x":161023.62000000104,"y":2551990.879999999}},{"attributes":{"ID":129130,"DIS_CODE":0,"TOWNNAME":"安南區","LI":"城東里","LIN":"11鄰","STREET":"城北路","SECT":" ","MAREA":" ","LANE":"２６８巷","ALLEY":"２７弄","HOUSE_NO":"１４號","E_COORD97":161023.62,"N_COORD97":2551995.3599999999,"ADDRESS":"城北路２６８巷２７弄１４號","OBJECTID":129130},"geometry":{"x":161023.62000000104,"y":2551995.3600000031}},{"attributes":{"ID":129131,"DIS_CODE":0,"TOWNNAME":"安南區","LI":"城東里","LIN":"11鄰","STREET":"城北路","SECT":" ","MAREA":" ","LANE":"２６８巷","ALLEY":"２７弄","HOUSE_NO":"１６號","E_COORD97":161023.62,"N_COORD97":2551999.2400000002,"ADDRESS":"城北路２６８巷２７弄１６號","OBJECTID":129131},"geometry":{"x":161023.62000000104,"y":2551999.2400000002}},{"attributes":{"ID":129132,"DIS_CODE":0,"TOWNNAME":"安南區","LI":"城東里","LIN":"11鄰","STREET":"城北路","SECT":" ","MAREA":" ","LANE":"２６８巷","ALLEY":"２７弄","HOUSE_NO":"１８號","E_COORD97":161023.32000000001,"N_COORD97":2552003.5699999998,"ADDRESS":"城北路２６８巷２７弄１８號","OBJECTID":129132},"geometry":{"x":161023.3200000003,"y":2552003.5700000003}},{"attributes":{"ID":129133,"DIS_CODE":0,"TOWNNAME":"安南區","LI":"城東里","LIN":"11鄰","STREET":"城北路","SECT":" ","MAREA":" ","LANE":"２６８巷","ALLEY":"２７弄","HOUSE_NO":"２０號","E_COORD97":161023.92000000001,"N_COORD97":2552007.6000000001,"ADDRESS":"城北路２６８巷２７弄２０號","OBJECTID":129133},"geometry":{"x":161023.91999999993,"y":2552007.6000000034}},{"attributes":{"ID":129134,"DIS_CODE":0,"TOWNNAME":"安南區","LI":"城東里","LIN":"11鄰","STREET":"城北路","SECT":" ","MAREA":" ","LANE":"２６８巷","ALLEY":"２７弄","HOUSE_NO":"２２號","E_COORD97":161023.62,"N_COORD97":2552011.7799999998,"ADDRESS":"城北路２６８巷２７弄２２號","OBJECTID":129134},"geometry":{"x":161023.62000000104,"y":2552011.7799999993}},{"attributes":{"ID":129135,"DIS_CODE":0,"TOWNNAME":"安南區","LI":"城東里","LIN":"11鄰","STREET":"城北路","SECT":" ","MAREA":" ","LANE":"２６８巷","ALLEY":"２７弄","HOUSE_NO":"２４號","E_COORD97":161023.17000000001,"N_COORD97":2552015.6600000001,"ADDRESS":"城北路２６８巷２７弄２４號","OBJECTID":129135},"geometry":{"x":161023.17000000086,"y":2552015.660000002}},{"attributes":{"ID":129136,"DIS_CODE":0,"TOWNNAME":"安南區","LI":"城東里","LIN":"11鄰","STREET":"城北路","SECT":" ","MAREA":" ","LANE":"２６８巷","ALLEY":"２７弄","HOUSE_NO":"６號","E_COORD97":161024.07000000001,"N_COORD97":2551977.8999999999,"ADDRESS":"城北路２６８巷２７弄６號","OBJECTID":129136},"geometry":{"x":161024.07000000123,"y":2551977.9000000004}},{"attributes":{"ID":129137,"DIS_CODE":0,"TOWNNAME":"安南區","LI":"城東里","LIN":"11鄰","STREET":"城北路","SECT":" ","MAREA":" ","LANE":"２６８巷","ALLEY":"２７弄","HOUSE_NO":"８號","E_COORD97":161023.62,"N_COORD97":2551982.0800000001,"ADDRESS":"城北路２６８巷２７弄８號","OBJECTID":129137},"geometry":{"x":161023.62000000104,"y":2551982.0800000019}},{"attributes":{"ID":129138,"DIS_CODE":0,"TOWNNAME":"東區","LI":"崇信里","LIN":"11鄰","STREET":"崇學路","SECT":" ","MAREA":" ","LANE":"２３０巷","ALLEY":"９７弄","HOUSE_NO":"３６號","E_COORD97":170723.53,"N_COORD97":2542341,"ADDRESS":"崇學路２３０巷９７弄３６號","OBJECTID":129138},"geometry":{"x":170723.53000000026,"y":2542341}},{"attributes":{"ID":129139,"DIS_CODE":0,"TOWNNAME":"仁德區","LI":"太子里","LIN":"11鄰","STREET":"長興二街","SECT":" ","MAREA":" ","LANE":"７０巷","ALLEY":"６弄","HOUSE_NO":"３０號","E_COORD97":174247.29000000001,"N_COORD97":2543767,"ADDRESS":"長興二街７０巷６弄３０號","OBJECTID":129139},"geometry":{"x":174247.29000000004,"y":2543767.0000000019}},{"attributes":{"ID":129140,"DIS_CODE":0,"TOWNNAME":"仁德區","LI":"二行里","LIN":"11鄰","STREET":"行大街","SECT":" ","MAREA":" ","LANE":"１７２巷","ALLEY":"２０弄","HOUSE_NO":"１２號","E_COORD97":169992.01000000001,"N_COORD97":2535177.9900000002,"ADDRESS":"行大街１７２巷２０弄１２號","OBJECTID":129140},"geometry":{"x":169992.01000000071,"y":2535177.9900000002}},{"attributes":{"ID":129141,"DIS_CODE":0,"TOWNNAME":"仁德區","LI":"二行里","LIN":"11鄰","STREET":"行大街","SECT":" ","MAREA":" ","LANE":"１７２巷","ALLEY":"２８弄","HOUSE_NO":"２０號","E_COORD97":169978.39999999999,"N_COORD97":2535212.2400000002,"ADDRESS":"行大街１７２巷２８弄２０號","OBJECTID":129141},"geometry":{"x":169978.40000000037,"y":2535212.2400000021}},{"attributes":{"ID":129142,"DIS_CODE":0,"TOWNNAME":"永康區","LI":"西勢里","LIN":"20鄰","STREET":"富強路","SECT":"一段","MAREA":" ","LANE":" ","ALLEY":" ","HOUSE_NO":"２１５號","E_COORD97":175617.56,"N_COORD97":2546443.9900000002,"ADDRESS":"富強路一段２１５號","OBJECTID":129142},"geometry":{"x":175617.56000000052,"y":2546443.9900000002}},{"attributes":{"ID":129143,"DIS_CODE":0,"TOWNNAME":"仁德區","LI":"二行里","LIN":"11鄰","STREET":"行大街","SECT":" ","MAREA":" ","LANE":"１７２巷","ALLEY":"２０弄","HOUSE_NO":"６號","E_COORD97":169978.63,"N_COORD97":2535156,"ADDRESS":"行大街１７２巷２０弄６號","OBJECTID":129143},"geometry":{"x":169978.63000000175,"y":2535156.0000000019}},{"attributes":{"ID":129144,"DIS_CODE":0,"TOWNNAME":"仁德區","LI":"二行里","LIN":"11鄰","STREET":"行大街","SECT":" ","MAREA":" ","LANE":"１７２巷","ALLEY":"２８弄","HOUSE_NO":"６號","E_COORD97":169963.19,"N_COORD97":2535183.2400000002,"ADDRESS":"行大街１７２巷２８弄６號","OBJECTID":129144},"geometry":{"x":169963.19000000041,"y":2535183.2400000002}},{"attributes":{"ID":129145,"DIS_CODE":0,"TOWNNAME":"安定區","LI":"海寮里","LIN":"20鄰","STREET":" ","SECT":" ","MAREA":"海寮","LANE":" ","ALLEY":" ","HOUSE_NO":"１８６號之１","E_COORD97":169483.67999999999,"N_COORD97":2555444.2999999998,"ADDRESS":"海寮１８６號之１","OBJECTID":129145},"geometry":{"x":169483.68000000063,"y":2555444.3000000007}},{"attributes":{"ID":129146,"DIS_CODE":0,"TOWNNAME":"安定區","LI":"安加里","LIN":"13鄰","STREET":" ","SECT":" ","MAREA":"安定","LANE":" ","ALLEY":" ","HOUSE_NO":"２９７號","E_COORD97":171700.62,"N_COORD97":2557451.3199999998,"ADDRESS":"安定２９７號","OBJECTID":129146},"geometry":{"x":171700.62000000011,"y":2557451.3200000003}},{"attributes":{"ID":129147,"DIS_CODE":0,"TOWNNAME":"安定區","LI":"新吉里","LIN":"8鄰","STREET":" ","SECT":" ","MAREA":"新吉","LANE":" ","ALLEY":" ","HOUSE_NO":"７０之１１號","E_COORD97":169126.32000000001,"N_COORD97":2554061.2999999998,"ADDRESS":"新吉７０之１１號","OBJECTID":129147},"geometry":{"x":169126.3200000003,"y":2554061.3000000007}},{"attributes":{"ID":129148,"DIS_CODE":0,"TOWNNAME":"七股區","LI":"玉成里","LIN":"5鄰","STREET":" ","SECT":" ","MAREA":"玉成","LANE":" ","ALLEY":" ","HOUSE_NO":"４８號","E_COORD97":161261.26000000001,"N_COORD97":2559689.6400000001,"ADDRESS":"玉成４８號","OBJECTID":129148},"geometry":{"x":161261.26000000071,"y":2559689.6400000006}},{"attributes":{"ID":129149,"DIS_CODE":0,"TOWNNAME":"安定區","LI":"海寮里","LIN":"18鄰","STREET":" ","SECT":" ","MAREA":"海寮","LANE":" ","ALLEY":" ","HOUSE_NO":"１８０號","E_COORD97":169432.94,"N_COORD97":2555452.25,"ADDRESS":"海寮１８０號","OBJECTID":129149},"geometry":{"x":169432.94000000227,"y":2555452.2500000019}},{"attributes":{"ID":129150,"DIS_CODE":0,"TOWNNAME":"安定區","LI":"新吉里","LIN":"18鄰","STREET":" ","SECT":" ","MAREA":"新吉","LANE":" ","ALLEY":" ","HOUSE_NO":"２８１號","E_COORD97":168515.42000000001,"N_COORD97":2554227.25,"ADDRESS":"新吉２８１號","OBJECTID":129150},"geometry":{"x":168515.41999999899,"y":2554227.25}},{"attributes":{"ID":129151,"DIS_CODE":0,"TOWNNAME":"安定區","LI":"港口里","LIN":"13鄰","STREET":" ","SECT":" ","MAREA":"港口","LANE":" ","ALLEY":" ","HOUSE_NO":"３４５之７號","E_COORD97":171213.48999999999,"N_COORD97":2554697.2999999998,"ADDRESS":"港口３４５之７號","OBJECTID":129151},"geometry":{"x":171213.49000000022,"y":2554697.3000000026}},{"attributes":{"ID":129152,"DIS_CODE":0,"TOWNNAME":"安定區","LI":"港口里","LIN":"13鄰","STREET":" ","SECT":" ","MAREA":"港口","LANE":" ","ALLEY":" ","HOUSE_NO":"３４６號之１","E_COORD97":171189.92999999999,"N_COORD97":2554665.2999999998,"ADDRESS":"港口３４６號之１","OBJECTID":129152},"geometry":{"x":171189.9299999997,"y":2554665.3000000045}},{"attributes":{"ID":129153,"DIS_CODE":0,"TOWNNAME":"安定區","LI":"海寮里","LIN":"13鄰","STREET":" ","SECT":" ","MAREA":"海寮","LANE":" ","ALLEY":" ","HOUSE_NO":"１２６之２４號","E_COORD97":168994.19,"N_COORD97":2555231.2999999998,"ADDRESS":"海寮１２６之２４號","OBJECTID":129153},"geometry":{"x":168994.19000000134,"y":2555231.3000000007}},{"attributes":{"ID":129154,"DIS_CODE":0,"TOWNNAME":"安定區","LI":"海寮里","LIN":"14鄰","STREET":" ","SECT":" ","MAREA":"海寮","LANE":" ","ALLEY":" ","HOUSE_NO":"１３２號之８０","E_COORD97":168993.07999999999,"N_COORD97":2555413.2999999998,"ADDRESS":"海寮１３２號之８０","OBJECTID":129154},"geometry":{"x":168993.08000000101,"y":2555413.3000000007}},{"attributes":{"ID":129155,"DIS_CODE":0,"TOWNNAME":"安定區","LI":"新吉里","LIN":"18鄰","STREET":" ","SECT":" ","MAREA":"新吉","LANE":" ","ALLEY":" ","HOUSE_NO":"２８１之５號","E_COORD97":168435.663374,"N_COORD97":2554150.3415600001,"ADDRESS":"新吉２８１之５號","OBJECTID":129155},"geometry":{"x":168435.66337400116,"y":2554150.3415629975}},{"attributes":{"ID":129156,"DIS_CODE":0,"TOWNNAME":"安定區","LI":"新吉里","LIN":"18鄰","STREET":" ","SECT":" ","MAREA":"新吉","LANE":" ","ALLEY":" ","HOUSE_NO":"２５２號","E_COORD97":169038.01999999999,"N_COORD97":2554056.25,"ADDRESS":"新吉２５２號","OBJECTID":129156},"geometry":{"x":169038.01999999955,"y":2554056.2500000019}},{"attributes":{"ID":129157,"DIS_CODE":0,"TOWNNAME":"安定區","LI":"港口里","LIN":"13鄰","STREET":" ","SECT":" ","MAREA":"港口","LANE":" ","ALLEY":" ","HOUSE_NO":"３４５之１５號","E_COORD97":171183.64000000001,"N_COORD97":2554694.2999999998,"ADDRESS":"港口３４５之１５號","OBJECTID":129157},"geometry":{"x":171183.64000000153,"y":2554694.3000000007}},{"attributes":{"ID":129158,"DIS_CODE":0,"TOWNNAME":"安定區","LI":"港口里","LIN":"13鄰","STREET":" ","SECT":" ","MAREA":"港口","LANE":" ","ALLEY":" ","HOUSE_NO":"３４６之３號","E_COORD97":171183.79000000001,"N_COORD97":2554640.2999999998,"ADDRESS":"港口３４６之３號","OBJECTID":129158},"geometry":{"x":171183.79000000097,"y":2554640.3000000007}},{"attributes":{"ID":129159,"DIS_CODE":0,"TOWNNAME":"安定區","LI":"海寮里","LIN":"14鄰","STREET":" ","SECT":" ","MAREA":"海寮","LANE":" ","ALLEY":" ","HOUSE_NO":"１３２號之８３","E_COORD97":168996.03,"N_COORD97":2555400.2999999998,"ADDRESS":"海寮１３２號之８３","OBJECTID":129159},"geometry":{"x":168996.03000000026,"y":2555400.3000000007}},{"attributes":{"ID":129160,"DIS_CODE":0,"TOWNNAME":"南區","LI":"新興里","LIN":"6鄰","STREET":"西門路","SECT":"一段","MAREA":" ","LANE":" ","ALLEY":" ","HOUSE_NO":"４４５號","E_COORD97":167707.23000000001,"N_COORD97":2542415.2999999998,"ADDRESS":"西門路一段４４５號","OBJECTID":129160},"geometry":{"x":167707.23000000138,"y":2542415.3000000007}},{"attributes":{"ID":129161,"DIS_CODE":0,"TOWNNAME":"仁德區","LI":"二行里","LIN":"11鄰","STREET":"行大街","SECT":" ","MAREA":" ","LANE":"１７２巷","ALLEY":"２８弄","HOUSE_NO":"１６號","E_COORD97":169972.20999999999,"N_COORD97":2535212.9900000002,"ADDRESS":"行大街１７２巷２８弄１６號","OBJECTID":129161},"geometry":{"x":169972.21000000089,"y":2535212.9900000039}},{"attributes":{"ID":129162,"DIS_CODE":0,"TOWNNAME":"仁德區","LI":"一甲里","LIN":"11鄰","STREET":"義林路","SECT":" ","MAREA":" ","LANE":"２５６巷","ALLEY":"２３３弄","HOUSE_NO":"２００號","E_COORD97":175342.56,"N_COORD97":2541814.0099999998,"ADDRESS":"義林路２５６巷２３３弄２００號","OBJECTID":129162},"geometry":{"x":175342.56000000145,"y":2541814.0100000016}},{"attributes":{"ID":129163,"DIS_CODE":0,"TOWNNAME":"仁德區","LI":"一甲里","LIN":"11鄰","STREET":"義林路","SECT":" ","MAREA":" ","LANE":"２５６巷","ALLEY":"８７弄","HOUSE_NO":"２８號","E_COORD97":175020.20000000001,"N_COORD97":2541635.7599999998,"ADDRESS":"義林路２５６巷８７弄２８號","OBJECTID":129163},"geometry":{"x":175020.20000000112,"y":2541635.7600000016}},{"attributes":{"ID":129164,"DIS_CODE":0,"TOWNNAME":"仁德區","LI":"一甲里","LIN":"11鄰","STREET":"義林路","SECT":" ","MAREA":" ","LANE":"２５６巷","ALLEY":"８７弄","HOUSE_NO":"２５號","E_COORD97":175014.69,"N_COORD97":2541669.02,"ADDRESS":"義林路２５６巷８７弄２５號","OBJECTID":129164},"geometry":{"x":175014.69000000041,"y":2541669.0200000014}},{"attributes":{"ID":129165,"DIS_CODE":0,"TOWNNAME":"仁德區","LI":"二行里","LIN":"11鄰","STREET":"行大街","SECT":" ","MAREA":" ","LANE":"１７２巷","ALLEY":"２８弄","HOUSE_NO":"２號","E_COORD97":169958.12,"N_COORD97":2535146.5,"ADDRESS":"行大街１７２巷２８弄２號","OBJECTID":129165},"geometry":{"x":169958.12000000011,"y":2535146.5000000019}},{"attributes":{"ID":129166,"DIS_CODE":0,"TOWNNAME":"仁德區","LI":"二行里","LIN":"11鄰","STREET":"行大街","SECT":" ","MAREA":" ","LANE":"１７２巷","ALLEY":"２８弄","HOUSE_NO":"１８號","E_COORD97":169983.98999999999,"N_COORD97":2535212.7400000002,"ADDRESS":"行大街１７２巷２８弄１８號","OBJECTID":129166},"geometry":{"x":169983.99000000115,"y":2535212.7400000021}},{"attributes":{"ID":129167,"DIS_CODE":0,"TOWNNAME":"安南區","LI":"淵西里","LIN":"11鄰","STREET":"安中路","SECT":"四段","MAREA":" ","LANE":"２９０巷","ALLEY":"８０弄","HOUSE_NO":"５６號","E_COORD97":164832.60999999999,"N_COORD97":2550222.4300000002,"ADDRESS":"安中路四段２９０巷８０弄５６號","OBJECTID":129167},"geometry":{"x":164832.6099999994,"y":2550222.4300000016}},{"attributes":{"ID":129168,"DIS_CODE":0,"TOWNNAME":"安南區","LI":"淵西里","LIN":"11鄰","STREET":"安中路","SECT":"四段","MAREA":" ","LANE":"２９０巷","ALLEY":"８０弄","HOUSE_NO":"６６號","E_COORD97":164832.10000000001,"N_COORD97":2550218.96,"ADDRESS":"安中路四段２９０巷８０弄６６號","OBJECTID":129168},"geometry":{"x":164832.10000000149,"y":2550218.9600000009}},{"attributes":{"ID":129169,"DIS_CODE":0,"TOWNNAME":"安南區","LI":"理想里","LIN":"11鄰","STREET":"海佃路","SECT":"二段","MAREA":" ","LANE":"１５０巷","ALLEY":"１０弄","HOUSE_NO":"１０號","E_COORD97":167060.42000000001,"N_COORD97":2548100.23,"ADDRESS":"海佃路二段１５０巷１０弄１０號","OBJECTID":129169},"geometry":{"x":167060.41999999993,"y":2548100.2300000004}},{"attributes":{"ID":129170,"DIS_CODE":0,"TOWNNAME":"南區","LI":"新興里","LIN":"6鄰","STREET":"西門路","SECT":"一段","MAREA":" ","LANE":" ","ALLEY":" ","HOUSE_NO":"４４７號","E_COORD97":167708.31,"N_COORD97":2542419.2400000002,"ADDRESS":"西門路一段４４７號","OBJECTID":129170},"geometry":{"x":167708.30999999959,"y":2542419.2400000039}},{"attributes":{"ID":129171,"DIS_CODE":0,"TOWNNAME":"安南區","LI":"理想里","LIN":"11鄰","STREET":"海佃路","SECT":"二段","MAREA":" ","LANE":"１５０巷","ALLEY":"１０弄","HOUSE_NO":"１２號","E_COORD97":167063.92000000001,"N_COORD97":2548097.7200000002,"ADDRESS":"海佃路二段１５０巷１０弄１２號","OBJECTID":129171},"geometry":{"x":167063.91999999993,"y":2548097.7200000007}},{"attributes":{"ID":129172,"DIS_CODE":0,"TOWNNAME":"安南區","LI":"理想里","LIN":"11鄰","STREET":"海佃路","SECT":"二段","MAREA":" ","LANE":"１５０巷","ALLEY":"１０弄","HOUSE_NO":"１４號","E_COORD97":167068.73999999999,"N_COORD97":2548095.21,"ADDRESS":"海佃路二段１５０巷１０弄１４號","OBJECTID":129172},"geometry":{"x":167068.74000000022,"y":2548095.2100000009}},{"attributes":{"ID":129173,"DIS_CODE":0,"TOWNNAME":"安南區","LI":"理想里","LIN":"11鄰","STREET":"海佃路","SECT":"二段","MAREA":" ","LANE":"１５０巷","ALLEY":"１０弄","HOUSE_NO":"１６號","E_COORD97":167072.70999999999,"N_COORD97":2548092.0699999998,"ADDRESS":"海佃路二段１５０巷１０弄１６號","OBJECTID":129173},"geometry":{"x":167072.71000000183,"y":2548092.0700000003}},{"attributes":{"ID":129174,"DIS_CODE":0,"TOWNNAME":"南區","LI":"新興里","LIN":"6鄰","STREET":"健康路","SECT":"二段","MAREA":" ","LANE":" ","ALLEY":" ","HOUSE_NO":"１５號","E_COORD97":167683.54999999999,"N_COORD97":2542434.8199999998,"ADDRESS":"健康路二段１５號","OBJECTID":129174},"geometry":{"x":167683.54999999981,"y":2542434.8200000003}},{"attributes":{"ID":129175,"DIS_CODE":0,"TOWNNAME":"安南區","LI":"理想里","LIN":"11鄰","STREET":"海佃路","SECT":"二段","MAREA":" ","LANE":"１５０巷","ALLEY":"１０弄","HOUSE_NO":"１８號","E_COORD97":167076.48000000001,"N_COORD97":2548089.1499999999,"ADDRESS":"海佃路二段１５０巷１０弄１８號","OBJECTID":129175},"geometry":{"x":167076.48000000231,"y":2548089.1500000022}},{"attributes":{"ID":129176,"DIS_CODE":0,"TOWNNAME":"安南區","LI":"理想里","LIN":"11鄰","STREET":"海佃路","SECT":"二段","MAREA":" ","LANE":"１５０巷","ALLEY":"１０弄","HOUSE_NO":"２０號","E_COORD97":167081.29000000001,"N_COORD97":2548088.9399999999,"ADDRESS":"海佃路二段１５０巷１０弄２０號","OBJECTID":129176},"geometry":{"x":167081.29000000097,"y":2548088.9399999976}},{"attributes":{"ID":129177,"DIS_CODE":0,"TOWNNAME":"安南區","LI":"理想里","LIN":"11鄰","STREET":"海佃路","SECT":"二段","MAREA":" ","LANE":"１５０巷","ALLEY":"１０弄","HOUSE_NO":"２２之１號","E_COORD97":167089.67000000001,"N_COORD97":2548084.1299999999,"ADDRESS":"海佃路二段１５０巷１０弄２２之１號","OBJECTID":129177},"geometry":{"x":167089.66999999993,"y":2548084.1300000027}},{"attributes":{"ID":129178,"DIS_CODE":0,"TOWNNAME":"安定區","LI":"蘇厝里","LIN":"4鄰","STREET":" ","SECT":" ","MAREA":"蘇厝","LANE":" ","ALLEY":" ","HOUSE_NO":"３１３號","E_COORD97":173157.12,"N_COORD97":2558630.25,"ADDRESS":"蘇厝３１３號","OBJECTID":129178},"geometry":{"x":173157.12000000011,"y":2558630.25}},{"attributes":{"ID":129179,"DIS_CODE":0,"TOWNNAME":"安定區","LI":"六嘉里","LIN":"4鄰","STREET":" ","SECT":" ","MAREA":"六塊寮","LANE":" ","ALLEY":" ","HOUSE_NO":"３０號之２３","E_COORD97":169703.5,"N_COORD97":2553250.2999999998,"ADDRESS":"六塊寮３０號之２３","OBJECTID":129179},"geometry":{"x":169703.50000000186,"y":2553250.3000000007}},{"attributes":{"ID":129180,"DIS_CODE":0,"TOWNNAME":"安南區","LI":"理想里","LIN":"11鄰","STREET":"海佃路","SECT":"二段","MAREA":" ","LANE":"１５０巷","ALLEY":"１０弄","HOUSE_NO":"２２號","E_COORD97":167085.69,"N_COORD97":2548086.6400000001,"ADDRESS":"海佃路二段１５０巷１０弄２２號","OBJECTID":129180},"geometry":{"x":167085.69000000134,"y":2548086.6400000025}},{"attributes":{"ID":129181,"DIS_CODE":0,"TOWNNAME":"安南區","LI":"理想里","LIN":"11鄰","STREET":"海佃路","SECT":"二段","MAREA":" ","LANE":"１５０巷","ALLEY":"１０弄","HOUSE_NO":"２６號","E_COORD97":167093.42999999999,"N_COORD97":2548082.6600000001,"ADDRESS":"海佃路二段１５０巷１０弄２６號","OBJECTID":129181},"geometry":{"x":167093.43000000063,"y":2548082.660000002}},{"attributes":{"ID":129182,"DIS_CODE":0,"TOWNNAME":"安南區","LI":"理想里","LIN":"11鄰","STREET":"海佃路","SECT":"二段","MAREA":" ","LANE":"１５０巷","ALLEY":"１０弄","HOUSE_NO":"２８號","E_COORD97":167097.82999999999,"N_COORD97":2548080.3599999999,"ADDRESS":"海佃路二段１５０巷１０弄２８號","OBJECTID":129182},"geometry":{"x":167097.83000000101,"y":2548080.3600000013}},{"attributes":{"ID":129183,"DIS_CODE":0,"TOWNNAME":"安南區","LI":"理想里","LIN":"11鄰","STREET":"海佃路","SECT":"二段","MAREA":" ","LANE":"１５０巷","ALLEY":"１０弄","HOUSE_NO":"２號","E_COORD97":167043.20000000001,"N_COORD97":2548109.0099999998,"ADDRESS":"海佃路二段１５０巷１０弄２號","OBJECTID":129183},"geometry":{"x":167043.20000000112,"y":2548109.0099999998}},{"attributes":{"ID":129184,"DIS_CODE":0,"TOWNNAME":"安南區","LI":"理想里","LIN":"11鄰","STREET":"海佃路","SECT":"二段","MAREA":" ","LANE":"１５０巷","ALLEY":"１０弄","HOUSE_NO":"３０號","E_COORD97":167102.01000000001,"N_COORD97":2548075.9700000002,"ADDRESS":"海佃路二段１５０巷１０弄３０號","OBJECTID":129184},"geometry":{"x":167102.00999999978,"y":2548075.9700000007}},{"attributes":{"ID":129185,"DIS_CODE":0,"TOWNNAME":"安南區","LI":"理想里","LIN":"11鄰","STREET":"海佃路","SECT":"二段","MAREA":" ","LANE":"１５０巷","ALLEY":"１０弄","HOUSE_NO":"３２號","E_COORD97":167105.78,"N_COORD97":2548074.7200000002,"ADDRESS":"海佃路二段１５０巷１０弄３２號","OBJECTID":129185},"geometry":{"x":167105.78000000026,"y":2548074.7199999988}},{"attributes":{"ID":129186,"DIS_CODE":0,"TOWNNAME":"安南區","LI":"理想里","LIN":"11鄰","STREET":"海佃路","SECT":"二段","MAREA":" ","LANE":"１５０巷","ALLEY":"１０弄","HOUSE_NO":"３４號","E_COORD97":167109.01999999999,"N_COORD97":2548071.7999999998,"ADDRESS":"海佃路二段１５０巷１０弄３４號","OBJECTID":129186},"geometry":{"x":167109.01999999862,"y":2548071.8000000026}},{"attributes":{"ID":129187,"DIS_CODE":0,"TOWNNAME":"安南區","LI":"理想里","LIN":"11鄰","STREET":"海佃路","SECT":"二段","MAREA":" ","LANE":"１５０巷","ALLEY":"１０弄","HOUSE_NO":"３６號","E_COORD97":167113.78,"N_COORD97":2548071.23,"ADDRESS":"海佃路二段１５０巷１０弄３６號","OBJECTID":129187},"geometry":{"x":167113.78000000119,"y":2548071.2300000042}},{"attributes":{"ID":129188,"DIS_CODE":0,"TOWNNAME":"安南區","LI":"理想里","LIN":"11鄰","STREET":"海佃路","SECT":"二段","MAREA":" ","LANE":"１５０巷","ALLEY":"１０弄","HOUSE_NO":"３８號","E_COORD97":167117.01999999999,"N_COORD97":2548067.6099999999,"ADDRESS":"海佃路二段１５０巷１０弄３８號","OBJECTID":129188},"geometry":{"x":167117.01999999955,"y":2548067.6100000031}},{"attributes":{"ID":129189,"DIS_CODE":0,"TOWNNAME":"安南區","LI":"理想里","LIN":"11鄰","STREET":"海佃路","SECT":"二段","MAREA":" ","LANE":"１５０巷","ALLEY":"１０弄","HOUSE_NO":"４０號","E_COORD97":167121.20999999999,"N_COORD97":2548065.8999999999,"ADDRESS":"海佃路二段１５０巷１０弄４０號","OBJECTID":129189},"geometry":{"x":167121.20999999996,"y":2548065.9000000004}},{"attributes":{"ID":129190,"DIS_CODE":0,"TOWNNAME":"安南區","LI":"理想里","LIN":"11鄰","STREET":"海佃路","SECT":"二段","MAREA":" ","LANE":"１５０巷","ALLEY":"１０弄","HOUSE_NO":"４２號","E_COORD97":167126.16,"N_COORD97":2548063.04,"ADDRESS":"海佃路二段１５０巷１０弄４２號","OBJECTID":129190},"geometry":{"x":167126.16000000108,"y":2548063.0399999991}},{"attributes":{"ID":129191,"DIS_CODE":0,"TOWNNAME":"安南區","LI":"理想里","LIN":"11鄰","STREET":"海佃路","SECT":"二段","MAREA":" ","LANE":"１５０巷","ALLEY":"１０弄","HOUSE_NO":"４２號之１","E_COORD97":167129.78,"N_COORD97":2548059.7999999998,"ADDRESS":"海佃路二段１５０巷１０弄４２號之１","OBJECTID":129191},"geometry":{"x":167129.78000000026,"y":2548059.8000000007}},{"attributes":{"ID":129192,"DIS_CODE":0,"TOWNNAME":"安定區","LI":"海寮里","LIN":"14鄰","STREET":" ","SECT":" ","MAREA":"海寮","LANE":" ","ALLEY":" ","HOUSE_NO":"１３２號之１１１","E_COORD97":168980.98000000001,"N_COORD97":2555409.2999999998,"ADDRESS":"海寮１３２號之１１１","OBJECTID":129192},"geometry":{"x":168980.98000000138,"y":2555409.3000000026}},{"attributes":{"ID":129193,"DIS_CODE":0,"TOWNNAME":"安定區","LI":"海寮里","LIN":"14鄰","STREET":" ","SECT":" ","MAREA":"海寮","LANE":" ","ALLEY":" ","HOUSE_NO":"１３２號之１２９","E_COORD97":168998.85999999999,"N_COORD97":2555335.2999999998,"ADDRESS":"海寮１３２號之１２９","OBJECTID":129193},"geometry":{"x":168998.86000000034,"y":2555335.3000000007}},{"attributes":{"ID":129194,"DIS_CODE":0,"TOWNNAME":"安定區","LI":"港南里","LIN":"4鄰","STREET":" ","SECT":" ","MAREA":"港口","LANE":" ","ALLEY":" ","HOUSE_NO":"２８之１４號","E_COORD97":171630.29000000001,"N_COORD97":2553994.2999999998,"ADDRESS":"港口２８之１４號","OBJECTID":129194},"geometry":{"x":171630.29000000004,"y":2553994.3000000045}},{"attributes":{"ID":129195,"DIS_CODE":0,"TOWNNAME":"安定區","LI":"港南里","LIN":"4鄰","STREET":" ","SECT":" ","MAREA":"港口","LANE":" ","ALLEY":" ","HOUSE_NO":"３０之２號","E_COORD97":171569.44,"N_COORD97":2554105.2999999998,"ADDRESS":"港口３０之２號","OBJECTID":129195},"geometry":{"x":171569.44000000134,"y":2554105.3000000007}},{"attributes":{"ID":129196,"DIS_CODE":0,"TOWNNAME":"安定區","LI":"新吉里","LIN":"18鄰","STREET":" ","SECT":" ","MAREA":"新吉","LANE":" ","ALLEY":" ","HOUSE_NO":"２４１號","E_COORD97":168946.22,"N_COORD97":2554062.25,"ADDRESS":"新吉２４１號","OBJECTID":129196},"geometry":{"x":168946.22000000067,"y":2554062.2500000019}},{"attributes":{"ID":129197,"DIS_CODE":0,"TOWNNAME":"安定區","LI":"蘇林里","LIN":"14鄰","STREET":" ","SECT":" ","MAREA":"蘇厝","LANE":" ","ALLEY":" ","HOUSE_NO":"１５３之２號","E_COORD97":173500.32000000001,"N_COORD97":2558851.2999999998,"ADDRESS":"蘇厝１５３之２號","OBJECTID":129197},"geometry":{"x":173500.31999999937,"y":2558851.3000000007}},{"attributes":{"ID":129198,"DIS_CODE":0,"TOWNNAME":"安定區","LI":"港南里","LIN":"4鄰","STREET":" ","SECT":" ","MAREA":"港口","LANE":" ","ALLEY":" ","HOUSE_NO":"２７之２０號","E_COORD97":171497.59,"N_COORD97":2554000.2999999998,"ADDRESS":"港口２７之２０號","OBJECTID":129198},"geometry":{"x":171497.58999999985,"y":2554000.3000000007}},{"attributes":{"ID":129199,"DIS_CODE":0,"TOWNNAME":"安定區","LI":"六嘉里","LIN":"4鄰","STREET":" ","SECT":" ","MAREA":"六塊寮","LANE":" ","ALLEY":" ","HOUSE_NO":"３０號之３１","E_COORD97":169962.89999999999,"N_COORD97":2553456.2999999998,"ADDRESS":"六塊寮３０號之３１","OBJECTID":129199},"geometry":{"x":169962.9000000013,"y":2553456.3000000026}},{"attributes":{"ID":129200,"DIS_CODE":0,"TOWNNAME":"安定區","LI":"港南里","LIN":"4鄰","STREET":" ","SECT":" ","MAREA":"港口","LANE":" ","ALLEY":" ","HOUSE_NO":"２８之４號","E_COORD97":171555.73999999999,"N_COORD97":2553801.2999999998,"ADDRESS":"港口２８之４號","OBJECTID":129200},"geometry":{"x":171555.74000000022,"y":2553801.3000000026}}]}