{"displayFieldName":"TOWNNAME","fieldAliases":{"ID":"ID","DIS_CODE":"DIS_CODE","TOWNNAME":"TOWNNAME","LI":"LI","LIN":"LIN","STREET":"STREET","SECT":"SECT","MAREA":"MAREA","LANE":"LANE","ALLEY":"ALLEY","HOUSE_NO":"HOUSE_NO","E_COORD97":"E_COORD97","N_COORD97":"N_COORD97","ADDRESS":"ADDRESS","OBJECTID":"OBJECTID"},"geometryType":"esriGeometryPoint","spatialReference":{"wkid":102443,"latestWkid":3826},"fields":[{"name":"ID","type":"esriFieldTypeDouble","alias":"ID"},{"name":"DIS_CODE","type":"esriFieldTypeInteger","alias":"DIS_CODE"},{"name":"TOWNNAME","type":"esriFieldTypeString","alias":"TOWNNAME","length":8},{"name":"LI","type":"esriFieldTypeString","alias":"LI","length":8},{"name":"LIN","type":"esriFieldTypeString","alias":"LIN","length":12},{"name":"STREET","type":"esriFieldTypeString","alias":"STREET","length":20},{"name":"SECT","type":"esriFieldTypeString","alias":"SECT","length":8},{"name":"MAREA","type":"esriFieldTypeString","alias":"MAREA","length":12},{"name":"LANE","type":"esriFieldTypeString","alias":"LANE","length":10},{"name":"ALLEY","type":"esriFieldTypeString","alias":"ALLEY","length":10},{"name":"HOUSE_NO","type":"esriFieldTypeString","alias":"HOUSE_NO","length":20},{"name":"E_COORD97","type":"esriFieldTypeDouble","alias":"E_COORD97"},{"name":"N_COORD97","type":"esriFieldTypeDouble","alias":"N_COORD97"},{"name":"ADDRESS","type":"esriFieldTypeString","alias":"ADDRESS","length":50},{"name":"OBJECTID","type":"esriFieldTypeOID","alias":"OBJECTID"}],"features":[{"attributes":{"ID":334210,"DIS_CODE":0,"TOWNNAME":"安南區","LI":"公\u25A0里","LIN":"3鄰","STREET":"安興街","SECT":" ","MAREA":" ","LANE":" ","ALLEY":" ","HOUSE_NO":"８２號","E_COORD97":164246.888791,"N_COORD97":2552215.5981600001,"ADDRESS":"安興街８２號","OBJECTID":334201},"geometry":{"x":164246.88879100233,"y":2552215.5981640015}},{"attributes":{"ID":334211,"DIS_CODE":0,"TOWNNAME":"新營區","LI":"新南里","LIN":"30鄰","STREET":"長榮路","SECT":"二段","MAREA":" ","LANE":" ","ALLEY":" ","HOUSE_NO":"１０４９號","E_COORD97":178043.91890700001,"N_COORD97":2578811.8960899999,"ADDRESS":"長榮路二段１０４９號","OBJECTID":334202},"geometry":{"x":178043.91890700068,"y":2578811.8960940037}},{"attributes":{"ID":334212,"DIS_CODE":0,"TOWNNAME":"關廟區","LI":"下湖里","LIN":"1鄰","STREET":"下湖一街","SECT":" ","MAREA":" ","LANE":" ","ALLEY":" ","HOUSE_NO":"６１號","E_COORD97":178979.41326299999,"N_COORD97":2542759.8837100002,"ADDRESS":"下湖一街６１號","OBJECTID":334203},"geometry":{"x":178979.41326300055,"y":2542759.8837120011}},{"attributes":{"ID":334213,"DIS_CODE":0,"TOWNNAME":"下營區","LI":"營前里","LIN":"20鄰","STREET":"民權二街","SECT":" ","MAREA":" ","LANE":" ","ALLEY":" ","HOUSE_NO":"２５號之２","E_COORD97":174604.03967,"N_COORD97":2569994.9352199999,"ADDRESS":"民權二街２５號之２","OBJECTID":334204},"geometry":{"x":174604.03966999985,"y":2569994.9352210015}},{"attributes":{"ID":334214,"DIS_CODE":0,"TOWNNAME":"關廟區","LI":"新光里","LIN":"4鄰","STREET":"新光街","SECT":" ","MAREA":" ","LANE":" ","ALLEY":" ","HOUSE_NO":"７６號","E_COORD97":183675.12,"N_COORD97":2541335.25,"ADDRESS":"新光街７６號","OBJECTID":334205},"geometry":{"x":183675.12000000104,"y":2541335.2500000019}},{"attributes":{"ID":334215,"DIS_CODE":0,"TOWNNAME":"關廟區","LI":"下湖里","LIN":"1鄰","STREET":"關新路","SECT":"一段","MAREA":" ","LANE":" ","ALLEY":" ","HOUSE_NO":"３９８號","E_COORD97":179336.686174,"N_COORD97":2542864.3940699999,"ADDRESS":"關新路一段３９８號","OBJECTID":334206},"geometry":{"x":179336.68617400061,"y":2542864.3940720018}},{"attributes":{"ID":334216,"DIS_CODE":0,"TOWNNAME":"關廟區","LI":"新光里","LIN":"4鄰","STREET":"新光街","SECT":" ","MAREA":" ","LANE":" ","ALLEY":" ","HOUSE_NO":"１５號","E_COORD97":183714.97675199999,"N_COORD97":2541455.5340200001,"ADDRESS":"新光街１５號","OBJECTID":334207},"geometry":{"x":183714.97675199993,"y":2541455.534016002}},{"attributes":{"ID":334217,"DIS_CODE":0,"TOWNNAME":"東區","LI":"大智里","LIN":"25鄰","STREET":"文東街","SECT":" ","MAREA":" ","LANE":" ","ALLEY":" ","HOUSE_NO":"４２之１號","E_COORD97":171355.920591,"N_COORD97":2540196.8657499999,"ADDRESS":"文東街４２之１號","OBJECTID":334208},"geometry":{"x":171355.9205910014,"y":2540196.8657480013}},{"attributes":{"ID":334218,"DIS_CODE":0,"TOWNNAME":"白河區","LI":"河東里","LIN":"1鄰","STREET":" ","SECT":" ","MAREA":"糞箕湖","LANE":" ","ALLEY":" ","HOUSE_NO":"５之３號","E_COORD97":192285.497863,"N_COORD97":2582105.33617,"ADDRESS":"糞箕湖５之３號","OBJECTID":334209},"geometry":{"x":192285.49786300212,"y":2582105.3361750022}},{"attributes":{"ID":334219,"DIS_CODE":0,"TOWNNAME":"仁德區","LI":"大甲里","LIN":"8鄰","STREET":"行大街","SECT":" ","MAREA":" ","LANE":" ","ALLEY":" ","HOUSE_NO":"３０９號","E_COORD97":169710.61139899999,"N_COORD97":2535164.9745100001,"ADDRESS":"行大街３０９號","OBJECTID":334210},"geometry":{"x":169710.61139900051,"y":2535164.9745080024}},{"attributes":{"ID":334220,"DIS_CODE":0,"TOWNNAME":"東區","LI":"崇信里","LIN":"15鄰","STREET":"崇學路","SECT":" ","MAREA":" ","LANE":"２３０巷","ALLEY":" ","HOUSE_NO":"８６號","E_COORD97":170626.56,"N_COORD97":2542347.0499999998,"ADDRESS":"崇學路２３０巷８６號","OBJECTID":334211},"geometry":{"x":170626.56000000052,"y":2542347.0500000026}},{"attributes":{"ID":334221,"DIS_CODE":0,"TOWNNAME":"東區","LI":"崇信里","LIN":"15鄰","STREET":"崇學路","SECT":" ","MAREA":" ","LANE":"２３０巷","ALLEY":" ","HOUSE_NO":"８８號","E_COORD97":170620.98000000001,"N_COORD97":2542337.3599999999,"ADDRESS":"崇學路２３０巷８８號","OBJECTID":334212},"geometry":{"x":170620.97999999952,"y":2542337.3600000013}},{"attributes":{"ID":334222,"DIS_CODE":0,"TOWNNAME":"新營區","LI":"忠政里","LIN":"19鄰","STREET":"長榮路","SECT":"二段","MAREA":" ","LANE":"４３巷","ALLEY":" ","HOUSE_NO":"２６號","E_COORD97":179936.07000000001,"N_COORD97":2579779.04,"ADDRESS":"長榮路二段４３巷２６號","OBJECTID":334213},"geometry":{"x":179936.07000000123,"y":2579779.040000001}},{"attributes":{"ID":334223,"DIS_CODE":0,"TOWNNAME":"新營區","LI":"嘉芳里","LIN":" ","STREET":"復興路","SECT":" ","MAREA":" ","LANE":"９７１巷","ALLEY":" ","HOUSE_NO":"５號","E_COORD97":176822.06,"N_COORD97":2578662.27,"ADDRESS":"復興路９７１巷５號","OBJECTID":334214},"geometry":{"x":176822.05999999959,"y":2578662.2700000014}},{"attributes":{"ID":334224,"DIS_CODE":0,"TOWNNAME":"善化區","LI":"東關里","LIN":"17鄰","STREET":"新興街","SECT":" ","MAREA":" ","LANE":" ","ALLEY":" ","HOUSE_NO":"３４號之１","E_COORD97":177546.51999999999,"N_COORD97":2558971.52,"ADDRESS":"新興街３４號之１","OBJECTID":334215},"geometry":{"x":177546.52000000142,"y":2558971.5199999996}},{"attributes":{"ID":334225,"DIS_CODE":0,"TOWNNAME":"善化區","LI":"坐駕里","LIN":"17鄰","STREET":"興華路","SECT":" ","MAREA":" ","LANE":" ","ALLEY":" ","HOUSE_NO":"２７６號","E_COORD97":177847.92000000001,"N_COORD97":2558532.25,"ADDRESS":"興華路２７６號","OBJECTID":334216},"geometry":{"x":177847.92000000086,"y":2558532.25}},{"attributes":{"ID":334226,"DIS_CODE":0,"TOWNNAME":"善化區","LI":"坐駕里","LIN":"17鄰","STREET":"興華路","SECT":" ","MAREA":" ","LANE":" ","ALLEY":" ","HOUSE_NO":"２８２號","E_COORD97":177828.26000000001,"N_COORD97":2558529,"ADDRESS":"興華路２８２號","OBJECTID":334217},"geometry":{"x":177828.26000000071,"y":2558529.0000000019}},{"attributes":{"ID":334227,"DIS_CODE":0,"TOWNNAME":"下營區","LI":"大埤里","LIN":"10鄰","STREET":" ","SECT":" ","MAREA":"大埤寮","LANE":" ","ALLEY":" ","HOUSE_NO":"８５號之１８","E_COORD97":171938.33235000001,"N_COORD97":2569617.6577699999,"ADDRESS":"大埤寮８５號之１８","OBJECTID":334218},"geometry":{"x":171938.33235000167,"y":2569617.6577720027}},{"attributes":{"ID":334228,"DIS_CODE":0,"TOWNNAME":"下營區","LI":"大埤里","LIN":"2鄰","STREET":" ","SECT":" ","MAREA":"大埤寮","LANE":" ","ALLEY":" ","HOUSE_NO":"１１號之２","E_COORD97":173112.350833,"N_COORD97":2569760.5326999999,"ADDRESS":"大埤寮１１號之２","OBJECTID":334219},"geometry":{"x":173112.35083300062,"y":2569760.5326949991}},{"attributes":{"ID":334229,"DIS_CODE":0,"TOWNNAME":"鹽水區","LI":"歡雅里","LIN":"20鄰","STREET":" ","SECT":" ","MAREA":"洪厝寮","LANE":" ","ALLEY":" ","HOUSE_NO":"２２號","E_COORD97":172564.95000000001,"N_COORD97":2575610.6200000001,"ADDRESS":"洪厝寮２２號","OBJECTID":334220},"geometry":{"x":172564.95000000019,"y":2575610.6200000029}},{"attributes":{"ID":334230,"DIS_CODE":0,"TOWNNAME":"鹽水區","LI":"歡雅里","LIN":"20鄰","STREET":" ","SECT":" ","MAREA":"洪厝寮","LANE":" ","ALLEY":" ","HOUSE_NO":"２４號","E_COORD97":172555.41,"N_COORD97":2575583.4399999999,"ADDRESS":"洪厝寮２４號","OBJECTID":334221},"geometry":{"x":172555.41000000201,"y":2575583.4400000013}},{"attributes":{"ID":334231,"DIS_CODE":0,"TOWNNAME":"善化區","LI":"東關里","LIN":"17鄰","STREET":"文賢街","SECT":" ","MAREA":" ","LANE":" ","ALLEY":" ","HOUSE_NO":"４１號","E_COORD97":177641.12,"N_COORD97":2558985.5299999998,"ADDRESS":"文賢街４１號","OBJECTID":334222},"geometry":{"x":177641.11999999918,"y":2558985.5300000012}},{"attributes":{"ID":334232,"DIS_CODE":0,"TOWNNAME":"新市區","LI":"港墘里","LIN":"17鄰","STREET":"南港街","SECT":" ","MAREA":" ","LANE":" ","ALLEY":" ","HOUSE_NO":"１３號","E_COORD97":178240.48999999999,"N_COORD97":2552760,"ADDRESS":"南港街１３號","OBJECTID":334223},"geometry":{"x":178240.49000000022,"y":2552760}},{"attributes":{"ID":334233,"DIS_CODE":0,"TOWNNAME":"善化區","LI":"坐駕里","LIN":"17鄰","STREET":"興華路","SECT":" ","MAREA":" ","LANE":" ","ALLEY":" ","HOUSE_NO":"２８５號","E_COORD97":177824.29999999999,"N_COORD97":2558501.5,"ADDRESS":"興華路２８５號","OBJECTID":334224},"geometry":{"x":177824.29999999981,"y":2558501.5000000019}},{"attributes":{"ID":334234,"DIS_CODE":0,"TOWNNAME":"善化區","LI":"坐駕里","LIN":"17鄰","STREET":"興華路","SECT":" ","MAREA":" ","LANE":" ","ALLEY":" ","HOUSE_NO":"３０８號","E_COORD97":177769.37,"N_COORD97":2558519.5,"ADDRESS":"興華路３０８號","OBJECTID":334225},"geometry":{"x":177769.37000000011,"y":2558519.5000000019}},{"attributes":{"ID":334235,"DIS_CODE":0,"TOWNNAME":"善化區","LI":"坐駕里","LIN":"17鄰","STREET":"興華路","SECT":" ","MAREA":" ","LANE":" ","ALLEY":" ","HOUSE_NO":"２５２號","E_COORD97":178003.31,"N_COORD97":2558557.75,"ADDRESS":"興華路２５２號","OBJECTID":334226},"geometry":{"x":178003.30999999959,"y":2558557.7500000019}},{"attributes":{"ID":334236,"DIS_CODE":0,"TOWNNAME":"東區","LI":"大福里","LIN":"2鄰","STREET":"立德二路","SECT":" ","MAREA":" ","LANE":"２２巷","ALLEY":" ","HOUSE_NO":"４０號","E_COORD97":169535.50175200001,"N_COORD97":2541646.88747,"ADDRESS":"立德二路２２巷４０號","OBJECTID":334227},"geometry":{"x":169535.50175200216,"y":2541646.8874650002}},{"attributes":{"ID":334237,"DIS_CODE":0,"TOWNNAME":"關廟區","LI":"新光里","LIN":"4鄰","STREET":"新湖街","SECT":" ","MAREA":" ","LANE":"３７巷","ALLEY":" ","HOUSE_NO":"２１號","E_COORD97":183617.96207099999,"N_COORD97":2541546.8982600002,"ADDRESS":"新湖街３７巷２１號","OBJECTID":334228},"geometry":{"x":183617.96207099967,"y":2541546.8982590009}},{"attributes":{"ID":334238,"DIS_CODE":0,"TOWNNAME":"仁德區","LI":"仁愛里","LIN":"26鄰","STREET":"大同路","SECT":"三段","MAREA":" ","LANE":"３５８巷","ALLEY":" ","HOUSE_NO":"４７號","E_COORD97":169734.20499999999,"N_COORD97":2539352.8382999999,"ADDRESS":"大同路三段３５８巷４７號","OBJECTID":334229},"geometry":{"x":169734.20500000194,"y":2539352.8383000027}},{"attributes":{"ID":334239,"DIS_CODE":0,"TOWNNAME":"仁德區","LI":"大甲里","LIN":"10鄰","STREET":"行大街","SECT":" ","MAREA":" ","LANE":"３０７巷","ALLEY":" ","HOUSE_NO":"８２號","E_COORD97":169656.890636,"N_COORD97":2535161.5878400002,"ADDRESS":"行大街３０７巷８２號","OBJECTID":334230},"geometry":{"x":169656.89063599985,"y":2535161.5878430009}},{"attributes":{"ID":334240,"DIS_CODE":0,"TOWNNAME":"下營區","LI":"大埤里","LIN":"10鄰","STREET":" ","SECT":" ","MAREA":"大埤寮","LANE":" ","ALLEY":" ","HOUSE_NO":"８５號之１","E_COORD97":172867.89964700001,"N_COORD97":2568921.59369,"ADDRESS":"大埤寮８５號之１","OBJECTID":334231},"geometry":{"x":172867.89964700118,"y":2568921.5936940033}},{"attributes":{"ID":334241,"DIS_CODE":0,"TOWNNAME":"下營區","LI":"大埤里","LIN":"6鄰","STREET":" ","SECT":" ","MAREA":"大埤寮","LANE":" ","ALLEY":" ","HOUSE_NO":"４９之１１號","E_COORD97":172973.60515399999,"N_COORD97":2569960.5506899999,"ADDRESS":"大埤寮４９之１１號","OBJECTID":334232},"geometry":{"x":172973.60515400209,"y":2569960.550689999}},{"attributes":{"ID":334242,"DIS_CODE":0,"TOWNNAME":"仁德區","LI":"大甲里","LIN":"8鄰","STREET":"行大街","SECT":" ","MAREA":" ","LANE":" ","ALLEY":" ","HOUSE_NO":"３０９之１號","E_COORD97":169706.16028000001,"N_COORD97":2535166.2445100001,"ADDRESS":"行大街３０９之１號","OBJECTID":334233},"geometry":{"x":169706.16028000135,"y":2535166.2445070017}},{"attributes":{"ID":334243,"DIS_CODE":0,"TOWNNAME":"大內區","LI":"曲溪里","LIN":"11鄰","STREET":" ","SECT":" ","MAREA":"二重溪","LANE":" ","ALLEY":" ","HOUSE_NO":"１０３號","E_COORD97":187399.91787400001,"N_COORD97":2557783.1619000002,"ADDRESS":"二重溪１０３號","OBJECTID":334234},"geometry":{"x":187399.9178740019,"y":2557783.1618990023}},{"attributes":{"ID":334244,"DIS_CODE":0,"TOWNNAME":"白河區","LI":"大竹里","LIN":"1鄰","STREET":" ","SECT":" ","MAREA":"大排竹","LANE":" ","ALLEY":" ","HOUSE_NO":"１４之２號","E_COORD97":189923.380813,"N_COORD97":2585240.0812599999,"ADDRESS":"大排竹１４之２號","OBJECTID":334235},"geometry":{"x":189923.38081299979,"y":2585240.0812640022}},{"attributes":{"ID":334245,"DIS_CODE":0,"TOWNNAME":"仁德區","LI":"大甲里","LIN":"8鄰","STREET":"行大街","SECT":" ","MAREA":" ","LANE":" ","ALLEY":" ","HOUSE_NO":"３１３號","E_COORD97":169703.19286800001,"N_COORD97":2535169.8428400001,"ADDRESS":"行大街３１３號","OBJECTID":334236},"geometry":{"x":169703.19286800083,"y":2535169.8428389989}},{"attributes":{"ID":334246,"DIS_CODE":0,"TOWNNAME":"安南區","LI":"公\u25A0里","LIN":"7鄰","STREET":"安興街","SECT":" ","MAREA":" ","LANE":" ","ALLEY":" ","HOUSE_NO":"１６６號","E_COORD97":164078.67692100001,"N_COORD97":2552095.3715599999,"ADDRESS":"安興街１６６號","OBJECTID":334237},"geometry":{"x":164078.6769210007,"y":2552095.3715620022}},{"attributes":{"ID":334247,"DIS_CODE":0,"TOWNNAME":"關廟區","LI":"下湖里","LIN":"2鄰","STREET":"下湖二街","SECT":" ","MAREA":" ","LANE":" ","ALLEY":" ","HOUSE_NO":"７號","E_COORD97":179382.21888100001,"N_COORD97":2542887.35989,"ADDRESS":"下湖二街７號","OBJECTID":334238},"geometry":{"x":179382.21888100076,"y":2542887.3598930035}},{"attributes":{"ID":334248,"DIS_CODE":0,"TOWNNAME":"新營區","LI":"新南里","LIN":"22鄰","STREET":"金華路","SECT":"二段","MAREA":" ","LANE":" ","ALLEY":" ","HOUSE_NO":"２８０號","E_COORD97":178185.879996,"N_COORD97":2578374.3813299998,"ADDRESS":"金華路二段２８０號","OBJECTID":334239},"geometry":{"x":178185.87999600079,"y":2578374.3813300021}},{"attributes":{"ID":334249,"DIS_CODE":0,"TOWNNAME":"關廟區","LI":"下湖里","LIN":"2鄰","STREET":"關新路","SECT":"一段","MAREA":" ","LANE":" ","ALLEY":" ","HOUSE_NO":"４１８號","E_COORD97":179329.90921300001,"N_COORD97":2542937.8952799998,"ADDRESS":"關新路一段４１８號","OBJECTID":334240},"geometry":{"x":179329.90921299998,"y":2542937.8952819984}},{"attributes":{"ID":334250,"DIS_CODE":0,"TOWNNAME":"新營區","LI":"新南里","LIN":"22鄰","STREET":"金華路","SECT":"二段","MAREA":" ","LANE":" ","ALLEY":" ","HOUSE_NO":"２８２號","E_COORD97":178181.43046900001,"N_COORD97":2578372.0529999998,"ADDRESS":"金華路二段２８２號","OBJECTID":334241},"geometry":{"x":178181.43046899978,"y":2578372.0529979989}},{"attributes":{"ID":334251,"DIS_CODE":0,"TOWNNAME":"關廟區","LI":"新光里","LIN":"4鄰","STREET":"新光街","SECT":" ","MAREA":" ","LANE":" ","ALLEY":" ","HOUSE_NO":"１１３號","E_COORD97":183747.922888,"N_COORD97":2541375.47114,"ADDRESS":"新光街１１３號","OBJECTID":334242},"geometry":{"x":183747.92288800143,"y":2541375.4711429998}},{"attributes":{"ID":334252,"DIS_CODE":0,"TOWNNAME":"新營區","LI":"新南里","LIN":"4鄰","STREET":"新北三街","SECT":" ","MAREA":" ","LANE":" ","ALLEY":" ","HOUSE_NO":"７號","E_COORD97":178649.85574599999,"N_COORD97":2578829.32388,"ADDRESS":"新北三街７號","OBJECTID":334243},"geometry":{"x":178649.85574600101,"y":2578829.3238840029}},{"attributes":{"ID":334253,"DIS_CODE":0,"TOWNNAME":"新營區","LI":"新南里","LIN":"4鄰","STREET":"金華路","SECT":"二段","MAREA":" ","LANE":" ","ALLEY":" ","HOUSE_NO":"１００號","E_COORD97":178650.91515700001,"N_COORD97":2578805.5114000002,"ADDRESS":"金華路二段１００號","OBJECTID":334244},"geometry":{"x":178650.91515700053,"y":2578805.5113970004}},{"attributes":{"ID":334254,"DIS_CODE":0,"TOWNNAME":"新營區","LI":"新南里","LIN":"4鄰","STREET":"金華路","SECT":"二段","MAREA":" ","LANE":" ","ALLEY":" ","HOUSE_NO":"９８號","E_COORD97":178653.66962599999,"N_COORD97":2578806.9930599998,"ADDRESS":"金華路二段９８號","OBJECTID":334245},"geometry":{"x":178653.66962600034,"y":2578806.993063001}},{"attributes":{"ID":334255,"DIS_CODE":0,"TOWNNAME":"新營區","LI":"新南里","LIN":"4鄰","STREET":"金華路","SECT":"二段","MAREA":" ","LANE":" ","ALLEY":" ","HOUSE_NO":"９６號","E_COORD97":178656.635977,"N_COORD97":2578808.89806,"ADDRESS":"金華路二段９６號","OBJECTID":334246},"geometry":{"x":178656.635977,"y":2578808.8980620001}},{"attributes":{"ID":334256,"DIS_CODE":0,"TOWNNAME":"新營區","LI":"新南里","LIN":"4鄰","STREET":"金華路","SECT":"二段","MAREA":" ","LANE":" ","ALLEY":" ","HOUSE_NO":"９２號","E_COORD97":178659.390446,"N_COORD97":2578809.5330599998,"ADDRESS":"金華路二段９２號","OBJECTID":334247},"geometry":{"x":178659.39044600073,"y":2578809.5330619998}},{"attributes":{"ID":334257,"DIS_CODE":0,"TOWNNAME":"新化區","LI":"知義里","LIN":"15鄰","STREET":"中興路","SECT":" ","MAREA":" ","LANE":"４１５巷","ALLEY":" ","HOUSE_NO":"２０號","E_COORD97":180623.35999999999,"N_COORD97":2547429.25,"ADDRESS":"中興路４１５巷２０號","OBJECTID":334248},"geometry":{"x":180623.3600000022,"y":2547429.25}},{"attributes":{"ID":334258,"DIS_CODE":0,"TOWNNAME":"新化區","LI":"太平里","LIN":"7鄰","STREET":"民生路","SECT":" ","MAREA":" ","LANE":"３１４巷","ALLEY":" ","HOUSE_NO":"９４號","E_COORD97":179097.16,"N_COORD97":2549208.25,"ADDRESS":"民生路３１４巷９４號","OBJECTID":334249},"geometry":{"x":179097.16000000201,"y":2549208.25}},{"attributes":{"ID":334259,"DIS_CODE":0,"TOWNNAME":"新營區","LI":"新南里","LIN":"29鄰","STREET":"明清一街","SECT":" ","MAREA":" ","LANE":" ","ALLEY":" ","HOUSE_NO":"７１之１號","E_COORD97":177987.72380499999,"N_COORD97":2578665.07064,"ADDRESS":"明清一街７１之１號","OBJECTID":334250},"geometry":{"x":177987.72380500101,"y":2578665.0706399996}},{"attributes":{"ID":334260,"DIS_CODE":0,"TOWNNAME":"安平區","LI":"文平里","LIN":"25鄰","STREET":"永華二街","SECT":" ","MAREA":" ","LANE":"４１巷","ALLEY":" ","HOUSE_NO":"８７號","E_COORD97":166190.57000000001,"N_COORD97":2542960.1899999999,"ADDRESS":"永華二街４１巷８７號","OBJECTID":334251},"geometry":{"x":166190.5700000003,"y":2542960.1899999995}},{"attributes":{"ID":334261,"DIS_CODE":0,"TOWNNAME":"北區","LI":"和順里","LIN":"34鄰","STREET":"公園南路","SECT":" ","MAREA":" ","LANE":"３６２巷","ALLEY":" ","HOUSE_NO":"２０號","E_COORD97":168295.98000000001,"N_COORD97":2544939.3700000001,"ADDRESS":"公園南路３６２巷２０號","OBJECTID":334252},"geometry":{"x":168295.98000000138,"y":2544939.3700000029}},{"attributes":{"ID":334262,"DIS_CODE":0,"TOWNNAME":"北區","LI":"和順里","LIN":"34鄰","STREET":"公園南路","SECT":" ","MAREA":" ","LANE":"３６２巷","ALLEY":" ","HOUSE_NO":"２２號","E_COORD97":168293.48000000001,"N_COORD97":2544933.5499999998,"ADDRESS":"公園南路３６２巷２２號","OBJECTID":334253},"geometry":{"x":168293.47999999952,"y":2544933.5500000045}},{"attributes":{"ID":334263,"DIS_CODE":0,"TOWNNAME":"佳里區","LI":"安西里","LIN":"56鄰","STREET":"佳安北街","SECT":" ","MAREA":" ","LANE":"６６巷","ALLEY":" ","HOUSE_NO":"１０號","E_COORD97":163946.79999999999,"N_COORD97":2562323.9900000002,"ADDRESS":"佳安北街６６巷１０號","OBJECTID":334254},"geometry":{"x":163946.80000000075,"y":2562323.9900000021}},{"attributes":{"ID":334264,"DIS_CODE":0,"TOWNNAME":"佳里區","LI":"安西里","LIN":"56鄰","STREET":"佳安北街","SECT":" ","MAREA":" ","LANE":"６６巷","ALLEY":" ","HOUSE_NO":"１１號","E_COORD97":163938.51000000001,"N_COORD97":2562308.0499999998,"ADDRESS":"佳安北街６６巷１１號","OBJECTID":334255},"geometry":{"x":163938.51000000071,"y":2562308.0500000007}},{"attributes":{"ID":334265,"DIS_CODE":0,"TOWNNAME":"佳里區","LI":"安西里","LIN":"56鄰","STREET":"佳安北街","SECT":" ","MAREA":" ","LANE":"６６巷","ALLEY":" ","HOUSE_NO":"１２號","E_COORD97":163942.54999999999,"N_COORD97":2562323.77,"ADDRESS":"佳安北街６６巷１２號","OBJECTID":334256},"geometry":{"x":163942.55000000168,"y":2562323.7700000014}},{"attributes":{"ID":334266,"DIS_CODE":0,"TOWNNAME":"新市區","LI":"大洲里","LIN":"10鄰","STREET":" ","SECT":" ","MAREA":"大洲","LANE":" ","ALLEY":" ","HOUSE_NO":"９７號","E_COORD97":174379.48135099999,"N_COORD97":2551477.7133599999,"ADDRESS":"大洲９７號","OBJECTID":334257},"geometry":{"x":174379.48135100119,"y":2551477.7133620027}},{"attributes":{"ID":334267,"DIS_CODE":0,"TOWNNAME":"新市區","LI":"大洲里","LIN":"10鄰","STREET":" ","SECT":" ","MAREA":"大洲","LANE":" ","ALLEY":" ","HOUSE_NO":"９７之１號","E_COORD97":174380.11705299999,"N_COORD97":2551469.8816999998,"ADDRESS":"大洲９７之１號","OBJECTID":334258},"geometry":{"x":174380.11705300119,"y":2551469.8817000017}},{"attributes":{"ID":334268,"DIS_CODE":0,"TOWNNAME":"大內區","LI":"曲溪里","LIN":"8鄰","STREET":" ","SECT":" ","MAREA":"二重溪","LANE":" ","ALLEY":" ","HOUSE_NO":"７２號之６","E_COORD97":187329.26698700001,"N_COORD97":2557789.4325199998,"ADDRESS":"二重溪７２號之６","OBJECTID":334259},"geometry":{"x":187329.26698699966,"y":2557789.4325210005}},{"attributes":{"ID":334269,"DIS_CODE":0,"TOWNNAME":"仁德區","LI":"上崙里","LIN":"1鄰","STREET":"德崙路","SECT":" ","MAREA":" ","LANE":"７７巷","ALLEY":" ","HOUSE_NO":"１２６號","E_COORD97":173744.76726399999,"N_COORD97":2538402.0902200001,"ADDRESS":"德崙路７７巷１２６號","OBJECTID":334260},"geometry":{"x":173744.76726400107,"y":2538402.0902249999}},{"attributes":{"ID":334270,"DIS_CODE":0,"TOWNNAME":"仁德區","LI":"大甲里","LIN":"11鄰","STREET":"行大街","SECT":" ","MAREA":" ","LANE":"３４１巷","ALLEY":" ","HOUSE_NO":"１５號","E_COORD97":169628.06434300001,"N_COORD97":2535150.3695200002,"ADDRESS":"行大街３４１巷１５號","OBJECTID":334261},"geometry":{"x":169628.06434300076,"y":2535150.3695160002}},{"attributes":{"ID":334271,"DIS_CODE":0,"TOWNNAME":"安南區","LI":"州北里","LIN":"8鄰","STREET":"北安路","SECT":"四段","MAREA":" ","LANE":"４２０巷","ALLEY":" ","HOUSE_NO":"３０之５號","E_COORD97":169589.11306900001,"N_COORD97":2551599.5180600001,"ADDRESS":"北安路四段４２０巷３０之５號","OBJECTID":334262},"geometry":{"x":169589.11306900065,"y":2551599.5180619992}},{"attributes":{"ID":334272,"DIS_CODE":0,"TOWNNAME":"安南區","LI":"州南里","LIN":"27鄰","STREET":"長和路","SECT":"二段","MAREA":" ","LANE":"１８７巷","ALLEY":" ","HOUSE_NO":"４號","E_COORD97":169980.88,"N_COORD97":2551487.1499999999,"ADDRESS":"長和路二段１８７巷４號","OBJECTID":334263},"geometry":{"x":169980.88000000082,"y":2551487.1500000022}},{"attributes":{"ID":334273,"DIS_CODE":0,"TOWNNAME":"安南區","LI":"州南里","LIN":"27鄰","STREET":"長和路","SECT":"二段","MAREA":" ","LANE":"１８７巷","ALLEY":" ","HOUSE_NO":"６號","E_COORD97":169981.5,"N_COORD97":2551483.7400000002,"ADDRESS":"長和路二段１８７巷６號","OBJECTID":334264},"geometry":{"x":169981.50000000186,"y":2551483.7400000002}},{"attributes":{"ID":334274,"DIS_CODE":0,"TOWNNAME":"新營區","LI":"王公里","LIN":"33鄰","STREET":"民族路","SECT":" ","MAREA":" ","LANE":"３３０巷","ALLEY":" ","HOUSE_NO":"２９號","E_COORD97":180469.826474,"N_COORD97":2579817.8431199999,"ADDRESS":"民族路３３０巷２９號","OBJECTID":334265},"geometry":{"x":180469.82647399977,"y":2579817.8431170024}},{"attributes":{"ID":334275,"DIS_CODE":0,"TOWNNAME":"新營區","LI":"王公里","LIN":"33鄰","STREET":"民族路","SECT":" ","MAREA":" ","LANE":"３３０巷","ALLEY":" ","HOUSE_NO":"３３號","E_COORD97":180478.301763,"N_COORD97":2579818.6897800001,"ADDRESS":"民族路３３０巷３３號","OBJECTID":334266},"geometry":{"x":180478.30176299997,"y":2579818.6897829995}},{"attributes":{"ID":334276,"DIS_CODE":0,"TOWNNAME":"新營區","LI":"王公里","LIN":"33鄰","STREET":"民族路","SECT":" ","MAREA":" ","LANE":"３３０巷","ALLEY":" ","HOUSE_NO":"３５號","E_COORD97":180483.17504999999,"N_COORD97":2579818.6897800001,"ADDRESS":"民族路３３０巷３５號","OBJECTID":334267},"geometry":{"x":180483.17505000066,"y":2579818.6897800025}},{"attributes":{"ID":334277,"DIS_CODE":0,"TOWNNAME":"新營區","LI":"王公里","LIN":"33鄰","STREET":"民族路","SECT":" ","MAREA":" ","LANE":"３３０巷","ALLEY":" ","HOUSE_NO":"３７號","E_COORD97":180487.62458100001,"N_COORD97":2579818.9014499998,"ADDRESS":"民族路３３０巷３７號","OBJECTID":334268},"geometry":{"x":180487.6245810017,"y":2579818.9014500007}},{"attributes":{"ID":334278,"DIS_CODE":0,"TOWNNAME":"新營區","LI":"王公里","LIN":"33鄰","STREET":"民族路","SECT":" ","MAREA":" ","LANE":"３３０巷","ALLEY":" ","HOUSE_NO":"２０號","E_COORD97":180442.49366800001,"N_COORD97":2579791.0143800001,"ADDRESS":"民族路３３０巷２０號","OBJECTID":334269},"geometry":{"x":180442.49366800021,"y":2579791.0143810008}},{"attributes":{"ID":334279,"DIS_CODE":0,"TOWNNAME":"新營區","LI":"王公里","LIN":"33鄰","STREET":"民族路","SECT":" ","MAREA":" ","LANE":"３３０巷","ALLEY":" ","HOUSE_NO":"４８號","E_COORD97":180494.19292999999,"N_COORD97":2579792.4960500002,"ADDRESS":"民族路３３０巷４８號","OBJECTID":334270},"geometry":{"x":180494.19293000083,"y":2579792.4960470013}},{"attributes":{"ID":334280,"DIS_CODE":0,"TOWNNAME":"新營區","LI":"王公里","LIN":"33鄰","STREET":"民族路","SECT":" ","MAREA":" ","LANE":"３３０巷","ALLEY":" ","HOUSE_NO":"２６號","E_COORD97":180454.78283700001,"N_COORD97":2579791.4377100002,"ADDRESS":"民族路３３０巷２６號","OBJECTID":334271},"geometry":{"x":180454.78283699974,"y":2579791.4377139993}},{"attributes":{"ID":334281,"DIS_CODE":0,"TOWNNAME":"新營區","LI":"王公里","LIN":"33鄰","STREET":"民族路","SECT":" ","MAREA":" ","LANE":"３３０巷","ALLEY":" ","HOUSE_NO":"２８號","E_COORD97":180459.444246,"N_COORD97":2579792.2843800001,"ADDRESS":"民族路３３０巷２８號","OBJECTID":334272},"geometry":{"x":180459.44424600061,"y":2579792.2843810003}},{"attributes":{"ID":334282,"DIS_CODE":0,"TOWNNAME":"仁德區","LI":"大甲里","LIN":"10鄰","STREET":"行大街","SECT":" ","MAREA":" ","LANE":" ","ALLEY":" ","HOUSE_NO":"３３５號","E_COORD97":169664.733083,"N_COORD97":2535190.5861599999,"ADDRESS":"行大街３３５號","OBJECTID":334273},"geometry":{"x":169664.73308300041,"y":2535190.5861610044}},{"attributes":{"ID":334283,"DIS_CODE":0,"TOWNNAME":"仁德區","LI":"大甲里","LIN":"10鄰","STREET":"行大街","SECT":" ","MAREA":" ","LANE":" ","ALLEY":" ","HOUSE_NO":"３３９號","E_COORD97":169657.52651,"N_COORD97":2535195.4544899999,"ADDRESS":"行大街３３９號","OBJECTID":334274},"geometry":{"x":169657.52651000023,"y":2535195.4544920009}},{"attributes":{"ID":334284,"DIS_CODE":0,"TOWNNAME":"安南區","LI":"州北里","LIN":"21鄰","STREET":"安和路","SECT":"五段","MAREA":" ","LANE":" ","ALLEY":" ","HOUSE_NO":"３２７號","E_COORD97":169672.67949400001,"N_COORD97":2552156.9419300002,"ADDRESS":"安和路五段３２７號","OBJECTID":334275},"geometry":{"x":169672.67949400004,"y":2552156.9419270027}},{"attributes":{"ID":334285,"DIS_CODE":0,"TOWNNAME":"關廟區","LI":"布袋里","LIN":"3鄰","STREET":"南雄南路","SECT":" ","MAREA":" ","LANE":" ","ALLEY":" ","HOUSE_NO":"１５３號","E_COORD97":183083.37674899999,"N_COORD97":2535642.1462599998,"ADDRESS":"南雄南路１５３號","OBJECTID":334276},"geometry":{"x":183083.37674900051,"y":2535642.1462559998}},{"attributes":{"ID":334286,"DIS_CODE":0,"TOWNNAME":"下營區","LI":"宅內里","LIN":"3鄰","STREET":"永安街","SECT":" ","MAREA":" ","LANE":" ","ALLEY":" ","HOUSE_NO":"１１７號","E_COORD97":174088.478879,"N_COORD97":2570695.2486800002,"ADDRESS":"永安街１１７號","OBJECTID":334277},"geometry":{"x":174088.47887900099,"y":2570695.2486840039}},{"attributes":{"ID":334287,"DIS_CODE":0,"TOWNNAME":"關廟區","LI":"下湖里","LIN":"4鄰","STREET":"關新路","SECT":"一段","MAREA":" ","LANE":" ","ALLEY":" ","HOUSE_NO":"４６２號","E_COORD97":179278.23488599999,"N_COORD97":2543052.6979299998,"ADDRESS":"關新路一段４６２號","OBJECTID":334278},"geometry":{"x":179278.23488600086,"y":2543052.6979280002}},{"attributes":{"ID":334288,"DIS_CODE":0,"TOWNNAME":"新營區","LI":"王公里","LIN":"33鄰","STREET":"民族路","SECT":" ","MAREA":" ","LANE":"３３０巷","ALLEY":" ","HOUSE_NO":"３１號","E_COORD97":180474.48788,"N_COORD97":2579818.47811,"ADDRESS":"民族路３３０巷３１號","OBJECTID":334279},"geometry":{"x":180474.48787999991,"y":2579818.4781100042}},{"attributes":{"ID":334289,"DIS_CODE":0,"TOWNNAME":"新營區","LI":"王公里","LIN":"33鄰","STREET":"民族路","SECT":" ","MAREA":" ","LANE":" ","ALLEY":" ","HOUSE_NO":"３３２號","E_COORD97":180397.15087300001,"N_COORD97":2579814.2447899999,"ADDRESS":"民族路３３２號","OBJECTID":334280},"geometry":{"x":180397.15087300073,"y":2579814.2447850015}},{"attributes":{"ID":334290,"DIS_CODE":0,"TOWNNAME":"下營區","LI":"營前里","LIN":"24鄰","STREET":"民權二街","SECT":" ","MAREA":" ","LANE":" ","ALLEY":" ","HOUSE_NO":"３７號","E_COORD97":174590.714989,"N_COORD97":2570066.1791500002,"ADDRESS":"民權二街３７號","OBJECTID":334281},"geometry":{"x":174590.714989,"y":2570066.179149}},{"attributes":{"ID":334291,"DIS_CODE":0,"TOWNNAME":"下營區","LI":"營前里","LIN":"24鄰","STREET":"民權二街","SECT":" ","MAREA":" ","LANE":" ","ALLEY":" ","HOUSE_NO":"３５號","E_COORD97":174580.33074400001,"N_COORD97":2570052.2091600001,"ADDRESS":"民權二街３５號","OBJECTID":334282},"geometry":{"x":174580.33074400108,"y":2570052.2091569975}},{"attributes":{"ID":334292,"DIS_CODE":0,"TOWNNAME":"關廟區","LI":"布袋里","LIN":"3鄰","STREET":"南雄南路","SECT":" ","MAREA":" ","LANE":" ","ALLEY":" ","HOUSE_NO":"１５１號","E_COORD97":183081.46928200001,"N_COORD97":2535646.8029200002,"ADDRESS":"南雄南路１５１號","OBJECTID":334283},"geometry":{"x":183081.46928200126,"y":2535646.8029200006}},{"attributes":{"ID":334293,"DIS_CODE":0,"TOWNNAME":"關廟區","LI":"布袋里","LIN":"3鄰","STREET":"南雄南路","SECT":" ","MAREA":" ","LANE":" ","ALLEY":" ","HOUSE_NO":"１５７號","E_COORD97":183087.40362500001,"N_COORD97":2535633.0445900001,"ADDRESS":"南雄南路１５７號","OBJECTID":334284},"geometry":{"x":183087.40362499934,"y":2535633.044594001}},{"attributes":{"ID":334294,"DIS_CODE":0,"TOWNNAME":"關廟區","LI":"布袋里","LIN":"3鄰","STREET":"南雄南路","SECT":" ","MAREA":" ","LANE":" ","ALLEY":" ","HOUSE_NO":"１５９號","E_COORD97":183089.73497399999,"N_COORD97":2535627.5412599999,"ADDRESS":"南雄南路１５９號","OBJECTID":334285},"geometry":{"x":183089.73497400153,"y":2535627.5412640031}},{"attributes":{"ID":334295,"DIS_CODE":0,"TOWNNAME":"新營區","LI":"王公里","LIN":"33鄰","STREET":"民族路","SECT":" ","MAREA":" ","LANE":"３３０巷","ALLEY":" ","HOUSE_NO":"３０號","E_COORD97":180463.89377200001,"N_COORD97":2579790.80272,"ADDRESS":"民族路３３０巷３０號","OBJECTID":334286},"geometry":{"x":180463.89377200045,"y":2579790.8027150035}},{"attributes":{"ID":334296,"DIS_CODE":0,"TOWNNAME":"關廟區","LI":"布袋里","LIN":"3鄰","STREET":"南雄南路","SECT":" ","MAREA":" ","LANE":" ","ALLEY":" ","HOUSE_NO":"１６１號","E_COORD97":183092.27826399999,"N_COORD97":2535625.4246,"ADDRESS":"南雄南路１６１號","OBJECTID":334287},"geometry":{"x":183092.27826400101,"y":2535625.4245980009}},{"attributes":{"ID":334297,"DIS_CODE":0,"TOWNNAME":"佳里區","LI":"安西里","LIN":"56鄰","STREET":"佳安北街","SECT":" ","MAREA":" ","LANE":"６６巷","ALLEY":" ","HOUSE_NO":"１３號","E_COORD97":163934.20000000001,"N_COORD97":2562308.2400000002,"ADDRESS":"佳安北街６６巷１３號","OBJECTID":334288},"geometry":{"x":163934.20000000112,"y":2562308.2400000021}},{"attributes":{"ID":334298,"DIS_CODE":0,"TOWNNAME":"佳里區","LI":"安西里","LIN":"56鄰","STREET":"佳安北街","SECT":" ","MAREA":" ","LANE":"６６巷","ALLEY":" ","HOUSE_NO":"１５號","E_COORD97":163929.62,"N_COORD97":2562308.3399999999,"ADDRESS":"佳安北街６６巷１５號","OBJECTID":334289},"geometry":{"x":163929.62000000104,"y":2562308.3399999999}},{"attributes":{"ID":334299,"DIS_CODE":0,"TOWNNAME":"佳里區","LI":"安西里","LIN":"56鄰","STREET":"佳安北街","SECT":" ","MAREA":" ","LANE":"６６巷","ALLEY":" ","HOUSE_NO":"１６號","E_COORD97":163938.20000000001,"N_COORD97":2562324.1800000002,"ADDRESS":"佳安北街６６巷１６號","OBJECTID":334290},"geometry":{"x":163938.20000000019,"y":2562324.1800000034}},{"attributes":{"ID":334300,"DIS_CODE":0,"TOWNNAME":"佳里區","LI":"安西里","LIN":"56鄰","STREET":"佳安北街","SECT":" ","MAREA":" ","LANE":"６６巷","ALLEY":" ","HOUSE_NO":"１７號","E_COORD97":163925.06,"N_COORD97":2562308.6499999999,"ADDRESS":"佳安北街６６巷１７號","OBJECTID":334291},"geometry":{"x":163925.05999999959,"y":2562308.6500000022}},{"attributes":{"ID":334301,"DIS_CODE":0,"TOWNNAME":"佳里區","LI":"安西里","LIN":"56鄰","STREET":"佳安北街","SECT":" ","MAREA":" ","LANE":"６６巷","ALLEY":" ","HOUSE_NO":"１８號","E_COORD97":163933.87,"N_COORD97":2562323.9199999999,"ADDRESS":"佳安北街６６巷１８號","OBJECTID":334292},"geometry":{"x":163933.86999999918,"y":2562323.9200000018}},{"attributes":{"ID":334302,"DIS_CODE":0,"TOWNNAME":"佳里區","LI":"安西里","LIN":"56鄰","STREET":"佳安北街","SECT":" ","MAREA":" ","LANE":"６６巷","ALLEY":" ","HOUSE_NO":"１９號","E_COORD97":163920.53,"N_COORD97":2562308.2000000002,"ADDRESS":"佳安北街６６巷１９號","OBJECTID":334293},"geometry":{"x":163920.53000000026,"y":2562308.1999999993}},{"attributes":{"ID":334303,"DIS_CODE":0,"TOWNNAME":"佳里區","LI":"安西里","LIN":"56鄰","STREET":"佳安北街","SECT":" ","MAREA":" ","LANE":"６６巷","ALLEY":" ","HOUSE_NO":"１號","E_COORD97":163960.57999999999,"N_COORD97":2562307.6800000002,"ADDRESS":"佳安北街６６巷１號","OBJECTID":334294},"geometry":{"x":163960.58000000007,"y":2562307.6800000016}},{"attributes":{"ID":334304,"DIS_CODE":0,"TOWNNAME":"佳里區","LI":"安西里","LIN":"56鄰","STREET":"佳安北街","SECT":" ","MAREA":" ","LANE":"６６巷","ALLEY":" ","HOUSE_NO":"２０號","E_COORD97":163929.22,"N_COORD97":2562324.5,"ADDRESS":"佳安北街６６巷２０號","OBJECTID":334295},"geometry":{"x":163929.21999999974,"y":2562324.5}},{"attributes":{"ID":334305,"DIS_CODE":0,"TOWNNAME":"仁德區","LI":"太子里","LIN":"14鄰","STREET":"長興路","SECT":" ","MAREA":" ","LANE":"８７巷","ALLEY":" ","HOUSE_NO":"９之６號","E_COORD97":174096.37649600001,"N_COORD97":2543770.45138,"ADDRESS":"長興路８７巷９之６號","OBJECTID":334296},"geometry":{"x":174096.37649600115,"y":2543770.4513780009}},{"attributes":{"ID":334306,"DIS_CODE":0,"TOWNNAME":"新營區","LI":"王公里","LIN":"33鄰","STREET":"民族路","SECT":" ","MAREA":" ","LANE":"３３０巷","ALLEY":" ","HOUSE_NO":"３２號","E_COORD97":180468.343299,"N_COORD97":2579791.9668800002,"ADDRESS":"民族路３３０巷３２號","OBJECTID":334297},"geometry":{"x":180468.34329899959,"y":2579791.9668810014}},{"attributes":{"ID":334307,"DIS_CODE":0,"TOWNNAME":"新營區","LI":"王公里","LIN":"33鄰","STREET":"民族路","SECT":" ","MAREA":" ","LANE":"３３０巷","ALLEY":" ","HOUSE_NO":"３６號","E_COORD97":180472.79282500001,"N_COORD97":2579792.1785499998,"ADDRESS":"民族路３３０巷３６號","OBJECTID":334298},"geometry":{"x":180472.79282500129,"y":2579792.1785469986}},{"attributes":{"ID":334308,"DIS_CODE":0,"TOWNNAME":"新營區","LI":"王公里","LIN":"33鄰","STREET":"民族路","SECT":" ","MAREA":" ","LANE":"３３０巷","ALLEY":" ","HOUSE_NO":"３８號","E_COORD97":180477.242352,"N_COORD97":2579792.60188,"ADDRESS":"民族路３３０巷３８號","OBJECTID":334299},"geometry":{"x":180477.24235200044,"y":2579792.6018799972}},{"attributes":{"ID":334309,"DIS_CODE":0,"TOWNNAME":"新營區","LI":"王公里","LIN":"33鄰","STREET":"民族路","SECT":" ","MAREA":" ","LANE":"３３０巷","ALLEY":" ","HOUSE_NO":"４０號","E_COORD97":180482.327525,"N_COORD97":2579792.60188,"ADDRESS":"民族路３３０巷４０號","OBJECTID":334300},"geometry":{"x":180482.32752500009,"y":2579792.6018799972}},{"attributes":{"ID":334310,"DIS_CODE":0,"TOWNNAME":"關廟區","LI":"布袋里","LIN":"4鄰","STREET":"長和街","SECT":" ","MAREA":" ","LANE":" ","ALLEY":" ","HOUSE_NO":"１１５號","E_COORD97":182812.03950799999,"N_COORD97":2535088.2942599999,"ADDRESS":"長和街１１５號","OBJECTID":334301},"geometry":{"x":182812.03950800095,"y":2535088.2942630034}},{"attributes":{"ID":334311,"DIS_CODE":0,"TOWNNAME":"下營區","LI":"宅內里","LIN":"20鄰","STREET":"宅內街","SECT":" ","MAREA":" ","LANE":" ","ALLEY":" ","HOUSE_NO":"１１號","E_COORD97":174355.60270799999,"N_COORD97":2570825.8469500002,"ADDRESS":"宅內街１１號","OBJECTID":334302},"geometry":{"x":174355.60270799976,"y":2570825.8469470013}},{"attributes":{"ID":334312,"DIS_CODE":0,"TOWNNAME":"白河區","LI":"關嶺里","LIN":"4鄰","STREET":" ","SECT":" ","MAREA":"關子嶺","LANE":" ","ALLEY":" ","HOUSE_NO":"８０之８號","E_COORD97":199085.77525499999,"N_COORD97":2581295.7565299999,"ADDRESS":"關子嶺８０之８號","OBJECTID":334303},"geometry":{"x":199085.77525500022,"y":2581295.7565279976}},{"attributes":{"ID":334313,"DIS_CODE":0,"TOWNNAME":"大內區","LI":"曲溪里","LIN":"1鄰","STREET":" ","SECT":" ","MAREA":"二重溪","LANE":" ","ALLEY":" ","HOUSE_NO":"１號之６","E_COORD97":187470.83356900001,"N_COORD97":2557690.7959099999,"ADDRESS":"二重溪１號之６","OBJECTID":334304},"geometry":{"x":187470.83356900141,"y":2557690.7959080022}},{"attributes":{"ID":334314,"DIS_CODE":0,"TOWNNAME":"大內區","LI":"曲溪里","LIN":"8鄰","STREET":" ","SECT":" ","MAREA":"二重溪","LANE":" ","ALLEY":" ","HOUSE_NO":"７２號之７","E_COORD97":187323.070469,"N_COORD97":2557789.8029399998,"ADDRESS":"二重溪７２號之７","OBJECTID":334305},"geometry":{"x":187323.07046900038,"y":2557789.8029370029}},{"attributes":{"ID":334315,"DIS_CODE":0,"TOWNNAME":"山上區","LI":"明和里","LIN":"22鄰","STREET":" ","SECT":" ","MAREA":"北勢洲","LANE":" ","ALLEY":" ","HOUSE_NO":"３３號","E_COORD97":181878.08682600001,"N_COORD97":2556556.3608800001,"ADDRESS":"北勢洲３３號","OBJECTID":334306},"geometry":{"x":181878.08682600129,"y":2556556.3608800024}},{"attributes":{"ID":334316,"DIS_CODE":0,"TOWNNAME":"大內區","LI":"曲溪里","LIN":"1鄰","STREET":" ","SECT":" ","MAREA":"二重溪","LANE":" ","ALLEY":" ","HOUSE_NO":"２號之１","E_COORD97":187426.45167800001,"N_COORD97":2557668.09467,"ADDRESS":"二重溪２號之１","OBJECTID":334307},"geometry":{"x":187426.45167800039,"y":2557668.0946700014}},{"attributes":{"ID":334317,"DIS_CODE":0,"TOWNNAME":"學甲區","LI":"中洲里","LIN":"5鄰","STREET":" ","SECT":" ","MAREA":"中洲","LANE":" ","ALLEY":" ","HOUSE_NO":"５５號之１","E_COORD97":163883.55145999999,"N_COORD97":2571585.0578000001,"ADDRESS":"中洲５５號之１","OBJECTID":334308},"geometry":{"x":163883.55146000069,"y":2571585.0578019992}},{"attributes":{"ID":334318,"DIS_CODE":0,"TOWNNAME":"白河區","LI":"關嶺里","LIN":"8鄰","STREET":" ","SECT":" ","MAREA":"南寮","LANE":" ","ALLEY":" ","HOUSE_NO":"１０之１號","E_COORD97":198715.844683,"N_COORD97":2580259.9662500001,"ADDRESS":"南寮１０之１號","OBJECTID":334309},"geometry":{"x":198715.84468299989,"y":2580259.9662539996}},{"attributes":{"ID":334319,"DIS_CODE":0,"TOWNNAME":"永康區","LI":"復國里","LIN":" ","STREET":"復國一路","SECT":" ","MAREA":" ","LANE":" ","ALLEY":" ","HOUSE_NO":"２８３號","E_COORD97":172734.89999999999,"N_COORD97":2545504.5299999998,"ADDRESS":"復國一路２８３號","OBJECTID":334310},"geometry":{"x":172734.90000000037,"y":2545504.5299999993}},{"attributes":{"ID":334320,"DIS_CODE":0,"TOWNNAME":"白河區","LI":"關嶺里","LIN":"7鄰","STREET":" ","SECT":" ","MAREA":"關子嶺","LANE":" ","ALLEY":" ","HOUSE_NO":"１２６之１號","E_COORD97":197567.983309,"N_COORD97":2580532.9528000001,"ADDRESS":"關子嶺１２６之１號","OBJECTID":334311},"geometry":{"x":197567.98330900166,"y":2580532.9528049994}},{"attributes":{"ID":334321,"DIS_CODE":0,"TOWNNAME":"永康區","LI":"網寮里","LIN":" ","STREET":"文化路","SECT":" ","MAREA":" ","LANE":" ","ALLEY":" ","HOUSE_NO":"２２４號","E_COORD97":173654.81,"N_COORD97":2546162.1699999999,"ADDRESS":"文化路２２４號","OBJECTID":334312},"geometry":{"x":173654.81000000052,"y":2546162.1699999981}},{"attributes":{"ID":334322,"DIS_CODE":0,"TOWNNAME":"下營區","LI":"新興里","LIN":"16鄰","STREET":"裕農街","SECT":" ","MAREA":" ","LANE":" ","ALLEY":" ","HOUSE_NO":"１０６號","E_COORD97":175260.57454999999,"N_COORD97":2570250.8245999999,"ADDRESS":"裕農街１０６號","OBJECTID":334313},"geometry":{"x":175260.57455000002,"y":2570250.8245960008}},{"attributes":{"ID":334323,"DIS_CODE":0,"TOWNNAME":"下營區","LI":"宅內里","LIN":"7鄰","STREET":"宅內街","SECT":" ","MAREA":" ","LANE":" ","ALLEY":" ","HOUSE_NO":"６１號","E_COORD97":174245.88907400001,"N_COORD97":2570811.25037,"ADDRESS":"宅內街６１號","OBJECTID":334314},"geometry":{"x":174245.88907399867,"y":2570811.2503750008}},{"attributes":{"ID":334324,"DIS_CODE":0,"TOWNNAME":"關廟區","LI":"布袋里","LIN":"4鄰","STREET":"長和街","SECT":" ","MAREA":" ","LANE":" ","ALLEY":" ","HOUSE_NO":"２７號","E_COORD97":183126.66566299999,"N_COORD97":2535351.7662,"ADDRESS":"長和街２７號","OBJECTID":334315},"geometry":{"x":183126.66566300206,"y":2535351.7662039995}},{"attributes":{"ID":334325,"DIS_CODE":0,"TOWNNAME":"東區","LI":"崇明里","LIN":"4鄰","STREET":"大同路","SECT":"二段","MAREA":" ","LANE":"４０３巷","ALLEY":" ","HOUSE_NO":"６６號","E_COORD97":169678.59,"N_COORD97":2541397.9399999999,"ADDRESS":"大同路二段４０３巷６６號","OBJECTID":334316},"geometry":{"x":169678.58999999985,"y":2541397.9400000013}},{"attributes":{"ID":334326,"DIS_CODE":0,"TOWNNAME":"東區","LI":"崇明里","LIN":"4鄰","STREET":"大同路","SECT":"二段","MAREA":" ","LANE":"４０３巷","ALLEY":" ","HOUSE_NO":"６８號","E_COORD97":169685.53,"N_COORD97":2541400.71,"ADDRESS":"大同路二段４０３巷６８號","OBJECTID":334317},"geometry":{"x":169685.53000000119,"y":2541400.7100000028}},{"attributes":{"ID":334327,"DIS_CODE":0,"TOWNNAME":"東區","LI":"崇明里","LIN":"4鄰","STREET":"大同路","SECT":"二段","MAREA":" ","LANE":"４０３巷","ALLEY":" ","HOUSE_NO":"７０號","E_COORD97":169696.26999999999,"N_COORD97":2541402.4399999999,"ADDRESS":"大同路二段４０３巷７０號","OBJECTID":334318},"geometry":{"x":169696.27000000048,"y":2541402.4399999995}},{"attributes":{"ID":334328,"DIS_CODE":0,"TOWNNAME":"佳里區","LI":"安西里","LIN":"56鄰","STREET":"佳安北街","SECT":" ","MAREA":" ","LANE":"６６巷","ALLEY":" ","HOUSE_NO":"２１號","E_COORD97":163908.32000000001,"N_COORD97":2562309.79,"ADDRESS":"佳安北街６６巷２１號","OBJECTID":334319},"geometry":{"x":163908.3200000003,"y":2562309.790000001}},{"attributes":{"ID":334329,"DIS_CODE":0,"TOWNNAME":"佳里區","LI":"安西里","LIN":"56鄰","STREET":"佳安北街","SECT":" ","MAREA":" ","LANE":"６６巷","ALLEY":" ","HOUSE_NO":"２２號","E_COORD97":163925.20999999999,"N_COORD97":2562324.5899999999,"ADDRESS":"佳安北街６６巷２２號","OBJECTID":334320},"geometry":{"x":163925.21000000089,"y":2562324.589999998}},{"attributes":{"ID":334330,"DIS_CODE":0,"TOWNNAME":"永康區","LI":"\u25A0行里","LIN":"26鄰","STREET":"中正南路","SECT":" ","MAREA":" ","LANE":" ","ALLEY":" ","HOUSE_NO":"５２０號","E_COORD97":171338.32000000001,"N_COORD97":2548583,"ADDRESS":"中正南路５２０號","OBJECTID":334321},"geometry":{"x":171338.3200000003,"y":2548583}},{"attributes":{"ID":334331,"DIS_CODE":0,"TOWNNAME":"新營區","LI":"民榮里","LIN":"12鄰","STREET":"新進路","SECT":"二段","MAREA":" ","LANE":" ","ALLEY":" ","HOUSE_NO":"２０８號","E_COORD97":179160.24525599999,"N_COORD97":2577747.24022,"ADDRESS":"新進路二段２０８號","OBJECTID":334322},"geometry":{"x":179160.24525600206,"y":2577747.2402180042}},{"attributes":{"ID":334332,"DIS_CODE":0,"TOWNNAME":"新營區","LI":"民榮里","LIN":"12鄰","STREET":"新進路","SECT":"二段","MAREA":" ","LANE":" ","ALLEY":" ","HOUSE_NO":"２０８之１號","E_COORD97":179155.16043799999,"N_COORD97":2577747.24022,"ADDRESS":"新進路二段２０８之１號","OBJECTID":334323},"geometry":{"x":179155.16043800116,"y":2577747.2402180042}},{"attributes":{"ID":334333,"DIS_CODE":0,"TOWNNAME":"佳里區","LI":"安西里","LIN":"56鄰","STREET":"佳安北街","SECT":" ","MAREA":" ","LANE":"６６巷","ALLEY":" ","HOUSE_NO":"２３號","E_COORD97":163903.25,"N_COORD97":2562309.2799999998,"ADDRESS":"佳安北街６６巷２３號","OBJECTID":334324},"geometry":{"x":163903.25000000093,"y":2562309.2800000031}},{"attributes":{"ID":334334,"DIS_CODE":0,"TOWNNAME":"佳里區","LI":"安西里","LIN":"56鄰","STREET":"佳安北街","SECT":" ","MAREA":" ","LANE":"６６巷","ALLEY":" ","HOUSE_NO":"２５號","E_COORD97":163899.51999999999,"N_COORD97":2562309.23,"ADDRESS":"佳安北街６６巷２５號","OBJECTID":334325},"geometry":{"x":163899.51999999955,"y":2562309.2300000004}},{"attributes":{"ID":334335,"DIS_CODE":0,"TOWNNAME":"佳里區","LI":"安西里","LIN":"56鄰","STREET":"佳安北街","SECT":" ","MAREA":" ","LANE":"６６巷","ALLEY":" ","HOUSE_NO":"２６號","E_COORD97":163920.23000000001,"N_COORD97":2562324.54,"ADDRESS":"佳安北街６６巷２６號","OBJECTID":334326},"geometry":{"x":163920.23000000138,"y":2562324.5400000028}},{"attributes":{"ID":334336,"DIS_CODE":0,"TOWNNAME":"佳里區","LI":"安西里","LIN":"56鄰","STREET":"佳安北街","SECT":" ","MAREA":" ","LANE":"６６巷","ALLEY":" ","HOUSE_NO":"２７號","E_COORD97":163894.32000000001,"N_COORD97":2562309.8599999999,"ADDRESS":"佳安北街６６巷２７號","OBJECTID":334327},"geometry":{"x":163894.32000000123,"y":2562309.8600000013}},{"attributes":{"ID":334337,"DIS_CODE":0,"TOWNNAME":"白河區","LI":"永安里","LIN":"19鄰","STREET":"昇平橫巷","SECT":" ","MAREA":" ","LANE":" ","ALLEY":" ","HOUSE_NO":"１０號","E_COORD97":190255.42999999999,"N_COORD97":2583390.9700000002,"ADDRESS":"昇平橫巷１０號","OBJECTID":334328},"geometry":{"x":190255.4299999997,"y":2583390.9700000044}},{"attributes":{"ID":334338,"DIS_CODE":0,"TOWNNAME":"白河區","LI":"永安里","LIN":"19鄰","STREET":"昇平橫巷","SECT":" ","MAREA":" ","LANE":" ","ALLEY":" ","HOUSE_NO":"１２號","E_COORD97":190240.89000000001,"N_COORD97":2583381.4500000002,"ADDRESS":"昇平橫巷１２號","OBJECTID":334329},"geometry":{"x":190240.88999999873,"y":2583381.4499999993}},{"attributes":{"ID":334339,"DIS_CODE":0,"TOWNNAME":"白河區","LI":"永安里","LIN":"19鄰","STREET":"昇平橫巷","SECT":" ","MAREA":" ","LANE":" ","ALLEY":" ","HOUSE_NO":"１６之１號","E_COORD97":190242.56,"N_COORD97":2583363.3900000001,"ADDRESS":"昇平橫巷１６之１號","OBJECTID":334330},"geometry":{"x":190242.55999999959,"y":2583363.3900000006}},{"attributes":{"ID":334340,"DIS_CODE":0,"TOWNNAME":"白河區","LI":"永安里","LIN":"19鄰","STREET":"昇平橫巷","SECT":" ","MAREA":" ","LANE":" ","ALLEY":" ","HOUSE_NO":"１８號","E_COORD97":190225.28,"N_COORD97":2583380.25,"ADDRESS":"昇平橫巷１８號","OBJECTID":334331},"geometry":{"x":190225.27999999933,"y":2583380.25}},{"attributes":{"ID":334341,"DIS_CODE":0,"TOWNNAME":"白河區","LI":"永安里","LIN":"19鄰","STREET":"昇平橫巷","SECT":" ","MAREA":" ","LANE":" ","ALLEY":" ","HOUSE_NO":"２０號","E_COORD97":190221.10999999999,"N_COORD97":2583381.7799999998,"ADDRESS":"昇平橫巷２０號","OBJECTID":334332},"geometry":{"x":190221.11000000034,"y":2583381.7800000012}},{"attributes":{"ID":334342,"DIS_CODE":0,"TOWNNAME":"白河區","LI":"永安里","LIN":"19鄰","STREET":"昇平橫巷","SECT":" ","MAREA":" ","LANE":" ","ALLEY":" ","HOUSE_NO":"２２號","E_COORD97":190216.57999999999,"N_COORD97":2583383.6400000001,"ADDRESS":"昇平橫巷２２號","OBJECTID":334333},"geometry":{"x":190216.58000000101,"y":2583383.6400000025}},{"attributes":{"ID":334343,"DIS_CODE":0,"TOWNNAME":"下營區","LI":"新興里","LIN":"15鄰","STREET":"寮前一街","SECT":" ","MAREA":" ","LANE":"３９巷","ALLEY":" ","HOUSE_NO":"１３號","E_COORD97":175303.47109899999,"N_COORD97":2570437.9378300002,"ADDRESS":"寮前一街３９巷１３號","OBJECTID":334334},"geometry":{"x":175303.47109900229,"y":2570437.9378279988}},{"attributes":{"ID":334344,"DIS_CODE":0,"TOWNNAME":"下營區","LI":"宅內里","LIN":"6鄰","STREET":"東興三街","SECT":" ","MAREA":" ","LANE":" ","ALLEY":" ","HOUSE_NO":"７６號","E_COORD97":174164.747875,"N_COORD97":2570898.04208,"ADDRESS":"東興三街７６號","OBJECTID":334335},"geometry":{"x":174164.74787500128,"y":2570898.0420810021}},{"attributes":{"ID":334345,"DIS_CODE":0,"TOWNNAME":"下營區","LI":"新興里","LIN":"16鄰","STREET":"寮前一街","SECT":" ","MAREA":" ","LANE":" ","ALLEY":" ","HOUSE_NO":"２８號","E_COORD97":175318.092718,"N_COORD97":2570371.2628600001,"ADDRESS":"寮前一街２８號","OBJECTID":334336},"geometry":{"x":175318.09271800052,"y":2570371.2628650013}},{"attributes":{"ID":334346,"DIS_CODE":0,"TOWNNAME":"永康區","LI":"二王里","LIN":"4鄰","STREET":"二王路","SECT":" ","MAREA":" ","LANE":" ","ALLEY":" ","HOUSE_NO":"３２號","E_COORD97":173002.79099899999,"N_COORD97":2546799.5331700002,"ADDRESS":"二王路３２號","OBJECTID":334337},"geometry":{"x":173002.79099899996,"y":2546799.5331679992}},{"attributes":{"ID":334347,"DIS_CODE":0,"TOWNNAME":"佳里區","LI":"安西里","LIN":"1鄰","STREET":"文化路","SECT":" ","MAREA":" ","LANE":" ","ALLEY":" ","HOUSE_NO":"２２０號","E_COORD97":165680.93481000001,"N_COORD97":2562603.6426900001,"ADDRESS":"文化路２２０號","OBJECTID":334338},"geometry":{"x":165680.93481000047,"y":2562603.6426909994}},{"attributes":{"ID":334348,"DIS_CODE":0,"TOWNNAME":"佳里區","LI":"安西里","LIN":"1鄰","STREET":"文化路","SECT":" ","MAREA":" ","LANE":" ","ALLEY":" ","HOUSE_NO":"２２２號","E_COORD97":165679.027936,"N_COORD97":2562603.0076899999,"ADDRESS":"文化路２２２號","OBJECTID":334339},"geometry":{"x":165679.02793600131,"y":2562603.0076909997}},{"attributes":{"ID":334349,"DIS_CODE":0,"TOWNNAME":"佳里區","LI":"民安里","LIN":"1鄰","STREET":"文化路","SECT":" ","MAREA":" ","LANE":" ","ALLEY":" ","HOUSE_NO":"２２４號","E_COORD97":165678.60418600001,"N_COORD97":2562604.70102,"ADDRESS":"文化路２２４號","OBJECTID":334340},"geometry":{"x":165678.60418600123,"y":2562604.7010240033}},{"attributes":{"ID":334350,"DIS_CODE":0,"TOWNNAME":"佳里區","LI":"安西里","LIN":"1鄰","STREET":"中山路","SECT":" ","MAREA":" ","LANE":" ","ALLEY":" ","HOUSE_NO":"３８５號","E_COORD97":165709.846379,"N_COORD97":2562649.9307200001,"ADDRESS":"中山路３８５號","OBJECTID":334341},"geometry":{"x":165709.84637899976,"y":2562649.9307240024}},{"attributes":{"ID":334351,"DIS_CODE":0,"TOWNNAME":"六甲區","LI":"水林里","LIN":"1鄰","STREET":"中山路","SECT":" ","MAREA":" ","LANE":" ","ALLEY":" ","HOUSE_NO":"１２６號","E_COORD97":183358.05368899999,"N_COORD97":2570060.72584,"ADDRESS":"中山路１２６號","OBJECTID":334342},"geometry":{"x":183358.0536890002,"y":2570060.7258410025}},{"attributes":{"ID":334352,"DIS_CODE":0,"TOWNNAME":"下營區","LI":"新興里","LIN":"16鄰","STREET":"寮前一街","SECT":" ","MAREA":" ","LANE":" ","ALLEY":" ","HOUSE_NO":"４８號","E_COORD97":175323.81422100001,"N_COORD97":2570395.9073100002,"ADDRESS":"寮前一街４８號","OBJECTID":334343},"geometry":{"x":175323.8142210003,"y":2570395.9073099997}},{"attributes":{"ID":334353,"DIS_CODE":0,"TOWNNAME":"東區","LI":"崇明里","LIN":"4鄰","STREET":"大同路","SECT":"二段","MAREA":" ","LANE":"４０３巷","ALLEY":" ","HOUSE_NO":"７８號之１","E_COORD97":169718.45000000001,"N_COORD97":2541410.9300000002,"ADDRESS":"大同路二段４０３巷７８號之１","OBJECTID":334344},"geometry":{"x":169718.45000000019,"y":2541410.9300000016}},{"attributes":{"ID":334354,"DIS_CODE":0,"TOWNNAME":"東區","LI":"崇明里","LIN":"4鄰","STREET":"大同路","SECT":"二段","MAREA":" ","LANE":"４０３巷","ALLEY":" ","HOUSE_NO":"７８號之２","E_COORD97":169722.60999999999,"N_COORD97":2541412.3199999998,"ADDRESS":"大同路二段４０３巷７８號之２","OBJECTID":334345},"geometry":{"x":169722.61000000034,"y":2541412.3200000022}},{"attributes":{"ID":334355,"DIS_CODE":0,"TOWNNAME":"東區","LI":"崇明里","LIN":"7鄰","STREET":"大同路","SECT":"二段","MAREA":" ","LANE":"４４９巷","ALLEY":" ","HOUSE_NO":"４號","E_COORD97":169643.69,"N_COORD97":2541302.21,"ADDRESS":"大同路二段４４９巷４號","OBJECTID":334346},"geometry":{"x":169643.69000000134,"y":2541302.2100000028}},{"attributes":{"ID":334356,"DIS_CODE":0,"TOWNNAME":"仁德區","LI":"太子里","LIN":"20鄰","STREET":"長興四街","SECT":" ","MAREA":" ","LANE":" ","ALLEY":" ","HOUSE_NO":"５０號","E_COORD97":173967.963192,"N_COORD97":2543572.00067,"ADDRESS":"長興四街５０號","OBJECTID":334347},"geometry":{"x":173967.96319200099,"y":2543572.0006649997}},{"attributes":{"ID":334357,"DIS_CODE":0,"TOWNNAME":"佳里區","LI":"安西里","LIN":"56鄰","STREET":"佳安北街","SECT":" ","MAREA":" ","LANE":"６６巷","ALLEY":" ","HOUSE_NO":"２８號","E_COORD97":163915.98999999999,"N_COORD97":2562324.4100000001,"ADDRESS":"佳安北街６６巷２８號","OBJECTID":334348},"geometry":{"x":163915.99000000022,"y":2562324.410000002}},{"attributes":{"ID":334358,"DIS_CODE":0,"TOWNNAME":"佳里區","LI":"安西里","LIN":"56鄰","STREET":"佳安北街","SECT":" ","MAREA":" ","LANE":"６６巷","ALLEY":" ","HOUSE_NO":"２９號","E_COORD97":163889.82000000001,"N_COORD97":2562309.4300000002,"ADDRESS":"佳安北街６６巷２９號","OBJECTID":334349},"geometry":{"x":163889.8200000003,"y":2562309.4300000016}},{"attributes":{"ID":334359,"DIS_CODE":0,"TOWNNAME":"善化區","LI":"坐駕里","LIN":"17鄰","STREET":"興華路","SECT":" ","MAREA":" ","LANE":" ","ALLEY":" ","HOUSE_NO":"２４３號","E_COORD97":177945.48000000001,"N_COORD97":2558520.25,"ADDRESS":"興華路２４３號","OBJECTID":334350},"geometry":{"x":177945.48000000045,"y":2558520.2500000019}},{"attributes":{"ID":334360,"DIS_CODE":0,"TOWNNAME":"善化區","LI":"東關里","LIN":"17鄰","STREET":"新興街","SECT":" ","MAREA":" ","LANE":" ","ALLEY":" ","HOUSE_NO":"３４號之２","E_COORD97":177542.34,"N_COORD97":2558988.27,"ADDRESS":"新興街３４號之２","OBJECTID":334351},"geometry":{"x":177542.33999999985,"y":2558988.2700000014}},{"attributes":{"ID":334361,"DIS_CODE":0,"TOWNNAME":"善化區","LI":"坐駕里","LIN":"17鄰","STREET":"興華路","SECT":" ","MAREA":" ","LANE":" ","ALLEY":" ","HOUSE_NO":"２５３號","E_COORD97":177921.51999999999,"N_COORD97":2558516.5,"ADDRESS":"興華路２５３號","OBJECTID":334352},"geometry":{"x":177921.52000000048,"y":2558516.5}},{"attributes":{"ID":334362,"DIS_CODE":0,"TOWNNAME":"佳里區","LI":"安西里","LIN":"56鄰","STREET":"佳安北街","SECT":" ","MAREA":" ","LANE":"６６巷","ALLEY":" ","HOUSE_NO":"２號","E_COORD97":163960.17000000001,"N_COORD97":2562324.0099999998,"ADDRESS":"佳安北街６６巷２號","OBJECTID":334353},"geometry":{"x":163960.16999999993,"y":2562324.0099999998}},{"attributes":{"ID":334363,"DIS_CODE":0,"TOWNNAME":"佳里區","LI":"安西里","LIN":"56鄰","STREET":"佳安北街","SECT":" ","MAREA":" ","LANE":"６６巷","ALLEY":" ","HOUSE_NO":"３０號","E_COORD97":163911.23999999999,"N_COORD97":2562324.6400000001,"ADDRESS":"佳安北街６６巷３０號","OBJECTID":334354},"geometry":{"x":163911.24000000209,"y":2562324.6400000006}},{"attributes":{"ID":334364,"DIS_CODE":0,"TOWNNAME":"安南區","LI":"州北里","LIN":"6鄰","STREET":"安和路","SECT":"五段","MAREA":" ","LANE":"１７１巷","ALLEY":" ","HOUSE_NO":"７９號","E_COORD97":169661.288313,"N_COORD97":2551759.2707000002,"ADDRESS":"安和路五段１７１巷７９號","OBJECTID":334355},"geometry":{"x":169661.28831300046,"y":2551759.2706999984}},{"attributes":{"ID":334365,"DIS_CODE":0,"TOWNNAME":"仁德區","LI":"太子里","LIN":"14鄰","STREET":"長興路","SECT":" ","MAREA":" ","LANE":"８７巷","ALLEY":" ","HOUSE_NO":"７之９號","E_COORD97":174103.788516,"N_COORD97":2543750.8722199998,"ADDRESS":"長興路８７巷７之９號","OBJECTID":334356},"geometry":{"x":174103.78851600084,"y":2543750.8722210024}},{"attributes":{"ID":334366,"DIS_CODE":0,"TOWNNAME":"仁德區","LI":"太子里","LIN":"14鄰","STREET":"長興路","SECT":" ","MAREA":" ","LANE":"８７巷","ALLEY":" ","HOUSE_NO":"７之１０號","E_COORD97":174102.517884,"N_COORD97":2543744.5222299998,"ADDRESS":"長興路８７巷７之１０號","OBJECTID":334357},"geometry":{"x":174102.5178840002,"y":2543744.5222250018}},{"attributes":{"ID":334367,"DIS_CODE":0,"TOWNNAME":"佳里區","LI":"安西里","LIN":"9鄰","STREET":"光復路","SECT":" ","MAREA":" ","LANE":" ","ALLEY":" ","HOUSE_NO":"２２８號","E_COORD97":165517.04018800001,"N_COORD97":2562433.1841699998,"ADDRESS":"光復路２２８號","OBJECTID":334358},"geometry":{"x":165517.04018799961,"y":2562433.1841740031}},{"attributes":{"ID":334368,"DIS_CODE":0,"TOWNNAME":"佳里區","LI":"安西里","LIN":"9鄰","STREET":"和平街","SECT":" ","MAREA":" ","LANE":" ","ALLEY":" ","HOUSE_NO":"１３５號","E_COORD97":165654.874193,"N_COORD97":2562488.1692400002,"ADDRESS":"和平街１３５號","OBJECTID":334359},"geometry":{"x":165654.87419299968,"y":2562488.1692360006}},{"attributes":{"ID":334369,"DIS_CODE":0,"TOWNNAME":"安南區","LI":"頂安里","LIN":"6鄰","STREET":"怡安路","SECT":"一段","MAREA":" ","LANE":" ","ALLEY":" ","HOUSE_NO":"４０９號","E_COORD97":168663.50946900001,"N_COORD97":2549158.8056800002,"ADDRESS":"怡安路一段４０９號","OBJECTID":334360},"geometry":{"x":168663.50946899969,"y":2549158.8056810014}},{"attributes":{"ID":334370,"DIS_CODE":0,"TOWNNAME":"仁德區","LI":"太子里","LIN":"19鄰","STREET":"太子北路","SECT":" ","MAREA":" ","LANE":" ","ALLEY":" ","HOUSE_NO":"１８７號","E_COORD97":173892.57236200001,"N_COORD97":2543559.3006699998,"ADDRESS":"太子北路１８７號","OBJECTID":334361},"geometry":{"x":173892.57236200105,"y":2543559.3006720021}},{"attributes":{"ID":334371,"DIS_CODE":0,"TOWNNAME":"仁德區","LI":"太子里","LIN":"19鄰","STREET":"太子路","SECT":" ","MAREA":" ","LANE":" ","ALLEY":" ","HOUSE_NO":"３５２號","E_COORD97":173865.677318,"N_COORD97":2543533.6890199999,"ADDRESS":"太子路３５２號","OBJECTID":334362},"geometry":{"x":173865.6773179993,"y":2543533.6890190002}},{"attributes":{"ID":334372,"DIS_CODE":0,"TOWNNAME":"仁德區","LI":"太子里","LIN":"19鄰","STREET":"太子北路","SECT":" ","MAREA":" ","LANE":" ","ALLEY":" ","HOUSE_NO":"２８６號","E_COORD97":173874.14819800001,"N_COORD97":2543553.6915099998,"ADDRESS":"太子北路２８６號","OBJECTID":334363},"geometry":{"x":173874.14819800109,"y":2543553.6915090028}},{"attributes":{"ID":334373,"DIS_CODE":0,"TOWNNAME":"仁德區","LI":"太子里","LIN":"19鄰","STREET":"長興四街","SECT":" ","MAREA":" ","LANE":" ","ALLEY":" ","HOUSE_NO":"６１之１號","E_COORD97":173939.162201,"N_COORD97":2543545.7540099998,"ADDRESS":"長興四街６１之１號","OBJECTID":334364},"geometry":{"x":173939.16220100038,"y":2543545.7540130019}},{"attributes":{"ID":334374,"DIS_CODE":0,"TOWNNAME":"仁德區","LI":"仁愛里","LIN":"28鄰","STREET":"機場路","SECT":" ","MAREA":" ","LANE":" ","ALLEY":" ","HOUSE_NO":"１３８６號三樓","E_COORD97":169701.09788300001,"N_COORD97":2539468.0958099999,"ADDRESS":"機場路１３８６號三樓","OBJECTID":334365},"geometry":{"x":169701.09788300097,"y":2539468.0958130006}},{"attributes":{"ID":334375,"DIS_CODE":0,"TOWNNAME":"仁德區","LI":"仁愛里","LIN":"28鄰","STREET":"機場路","SECT":" ","MAREA":" ","LANE":" ","ALLEY":" ","HOUSE_NO":"１３８６號五樓","E_COORD97":169701.09788300001,"N_COORD97":2539468.0958099999,"ADDRESS":"機場路１３８６號五樓","OBJECTID":334366},"geometry":{"x":169701.09788300097,"y":2539468.0958130006}},{"attributes":{"ID":334376,"DIS_CODE":0,"TOWNNAME":"白河區","LI":"關嶺里","LIN":"5鄰","STREET":" ","SECT":" ","MAREA":"關子嶺","LANE":" ","ALLEY":" ","HOUSE_NO":"１０４號","E_COORD97":199657.57472400001,"N_COORD97":2580148.19056,"ADDRESS":"關子嶺１０４號","OBJECTID":334367},"geometry":{"x":199657.57472399995,"y":2580148.1905550007}},{"attributes":{"ID":334377,"DIS_CODE":0,"TOWNNAME":"仁德區","LI":"仁愛里","LIN":"28鄰","STREET":"機場路","SECT":" ","MAREA":" ","LANE":" ","ALLEY":" ","HOUSE_NO":"１３８６號四樓","E_COORD97":169701.09787999999,"N_COORD97":2539468.0958099999,"ADDRESS":"機場路１３８６號四樓","OBJECTID":334368},"geometry":{"x":169701.09788000118,"y":2539468.0958100017}},{"attributes":{"ID":334378,"DIS_CODE":0,"TOWNNAME":"佳里區","LI":"安西里","LIN":"56鄰","STREET":"佳安北街","SECT":" ","MAREA":" ","LANE":"６６巷","ALLEY":" ","HOUSE_NO":"３１號","E_COORD97":163885.64999999999,"N_COORD97":2562309.7200000002,"ADDRESS":"佳安北街６６巷３１號","OBJECTID":334369},"geometry":{"x":163885.6500000013,"y":2562309.7200000007}},{"attributes":{"ID":334379,"DIS_CODE":0,"TOWNNAME":"佳里區","LI":"安西里","LIN":"56鄰","STREET":"佳安北街","SECT":" ","MAREA":" ","LANE":"６６巷","ALLEY":" ","HOUSE_NO":"３２號","E_COORD97":163907.09,"N_COORD97":2562324.8799999999,"ADDRESS":"佳安北街６６巷３２號","OBJECTID":334370},"geometry":{"x":163907.09000000078,"y":2562324.879999999}},{"attributes":{"ID":334380,"DIS_CODE":0,"TOWNNAME":"佳里區","LI":"安西里","LIN":"56鄰","STREET":"佳安北街","SECT":" ","MAREA":" ","LANE":"６６巷","ALLEY":" ","HOUSE_NO":"３３號","E_COORD97":163880.98000000001,"N_COORD97":2562309.6899999999,"ADDRESS":"佳安北街６６巷３３號","OBJECTID":334371},"geometry":{"x":163880.98000000231,"y":2562309.6899999995}},{"attributes":{"ID":334381,"DIS_CODE":0,"TOWNNAME":"佳里區","LI":"安西里","LIN":"56鄰","STREET":"佳安北街","SECT":" ","MAREA":" ","LANE":"６６巷","ALLEY":" ","HOUSE_NO":"３５號","E_COORD97":163876.76000000001,"N_COORD97":2562309.9300000002,"ADDRESS":"佳安北街６６巷３５號","OBJECTID":334372},"geometry":{"x":163876.76000000164,"y":2562309.9300000016}},{"attributes":{"ID":334382,"DIS_CODE":0,"TOWNNAME":"佳里區","LI":"安西里","LIN":"56鄰","STREET":"佳安北街","SECT":" ","MAREA":" ","LANE":"６６巷","ALLEY":" ","HOUSE_NO":"３６號","E_COORD97":163902.67000000001,"N_COORD97":2562324.8500000001,"ADDRESS":"佳安北街６６巷３６號","OBJECTID":334373},"geometry":{"x":163902.66999999993,"y":2562324.8499999996}},{"attributes":{"ID":334383,"DIS_CODE":0,"TOWNNAME":"佳里區","LI":"安西里","LIN":"56鄰","STREET":"佳安北街","SECT":" ","MAREA":" ","LANE":"６６巷","ALLEY":" ","HOUSE_NO":"３７號","E_COORD97":163872.69,"N_COORD97":2562309.48,"ADDRESS":"佳安北街６６巷３７號","OBJECTID":334374},"geometry":{"x":163872.68999999948,"y":2562309.4800000023}},{"attributes":{"ID":334384,"DIS_CODE":0,"TOWNNAME":"佳里區","LI":"安西里","LIN":"56鄰","STREET":"佳安北街","SECT":" ","MAREA":" ","LANE":"６６巷","ALLEY":" ","HOUSE_NO":"３８號","E_COORD97":163898.23999999999,"N_COORD97":2562325.0600000001,"ADDRESS":"佳安北街６６巷３８號","OBJECTID":334375},"geometry":{"x":163898.24000000115,"y":2562325.0600000005}},{"attributes":{"ID":334385,"DIS_CODE":0,"TOWNNAME":"佳里區","LI":"安西里","LIN":"56鄰","STREET":"佳安北街","SECT":" ","MAREA":" ","LANE":"６６巷","ALLEY":" ","HOUSE_NO":"３９號","E_COORD97":163868.19,"N_COORD97":2562309.3900000001,"ADDRESS":"佳安北街６６巷３９號","OBJECTID":334376},"geometry":{"x":163868.19000000134,"y":2562309.3900000006}},{"attributes":{"ID":334386,"DIS_CODE":0,"TOWNNAME":"佳里區","LI":"安西里","LIN":"56鄰","STREET":"佳安北街","SECT":" ","MAREA":" ","LANE":"６６巷","ALLEY":" ","HOUSE_NO":"３號","E_COORD97":163956.32000000001,"N_COORD97":2562307.5800000001,"ADDRESS":"佳安北街６６巷３號","OBJECTID":334377},"geometry":{"x":163956.3200000003,"y":2562307.5800000001}},{"attributes":{"ID":334387,"DIS_CODE":0,"TOWNNAME":"佳里區","LI":"安西里","LIN":"56鄰","STREET":"佳安北街","SECT":" ","MAREA":" ","LANE":"６６巷","ALLEY":" ","HOUSE_NO":"４０號","E_COORD97":163890.54999999999,"N_COORD97":2562325.3599999999,"ADDRESS":"佳安北街６６巷４０號","OBJECTID":334378},"geometry":{"x":163890.55000000075,"y":2562325.3599999994}},{"attributes":{"ID":334388,"DIS_CODE":0,"TOWNNAME":"仁德區","LI":"太子里","LIN":"20鄰","STREET":"長興四街","SECT":" ","MAREA":" ","LANE":"２６巷","ALLEY":" ","HOUSE_NO":"１１號","E_COORD97":173982.57545999999,"N_COORD97":2543653.5981200002,"ADDRESS":"長興四街２６巷１１號","OBJECTID":334379},"geometry":{"x":173982.57546000089,"y":2543653.5981210005}},{"attributes":{"ID":334389,"DIS_CODE":0,"TOWNNAME":"仁德區","LI":"太子里","LIN":"20鄰","STREET":"長興四街","SECT":" ","MAREA":" ","LANE":"２６巷","ALLEY":" ","HOUSE_NO":"９號","E_COORD97":173986.38735599999,"N_COORD97":2543660.7947800001,"ADDRESS":"長興四街２６巷９號","OBJECTID":334380},"geometry":{"x":173986.38735600002,"y":2543660.794784002}},{"attributes":{"ID":334390,"DIS_CODE":0,"TOWNNAME":"仁德區","LI":"太子里","LIN":"20鄰","STREET":"長興四街","SECT":" ","MAREA":" ","LANE":"２６巷","ALLEY":" ","HOUSE_NO":"１５號","E_COORD97":173969.86914,"N_COORD97":2543662.38228,"ADDRESS":"長興四街２６巷１５號","OBJECTID":334381},"geometry":{"x":173969.86914000101,"y":2543662.382283004}},{"attributes":{"ID":334391,"DIS_CODE":0,"TOWNNAME":"仁德區","LI":"太子里","LIN":"20鄰","STREET":"長興四街","SECT":" ","MAREA":" ","LANE":"６４巷","ALLEY":" ","HOUSE_NO":"２號","E_COORD97":173933.86790099999,"N_COORD97":2543577.2923300001,"ADDRESS":"長興四街６４巷２號","OBJECTID":334382},"geometry":{"x":173933.86790100113,"y":2543577.2923290003}},{"attributes":{"ID":334392,"DIS_CODE":0,"TOWNNAME":"安南區","LI":"頂安里","LIN":"8鄰","STREET":"頂安街","SECT":" ","MAREA":" ","LANE":"５６１巷","ALLEY":" ","HOUSE_NO":"１５號","E_COORD97":168561.303143,"N_COORD97":2549228.5498100002,"ADDRESS":"頂安街５６１巷１５號","OBJECTID":334383},"geometry":{"x":168561.30314300116,"y":2549228.5498100016}},{"attributes":{"ID":334393,"DIS_CODE":0,"TOWNNAME":"安南區","LI":"頂安里","LIN":"10鄰","STREET":"怡安路","SECT":"一段","MAREA":" ","LANE":" ","ALLEY":" ","HOUSE_NO":"４９７號之３","E_COORD97":168447.95166699999,"N_COORD97":2549219.97731,"ADDRESS":"怡安路一段４９７號之３","OBJECTID":334384},"geometry":{"x":168447.95166700054,"y":2549219.9773140009}},{"attributes":{"ID":334394,"DIS_CODE":0,"TOWNNAME":"仁德區","LI":"仁愛里","LIN":"28鄰","STREET":"機場路","SECT":" ","MAREA":" ","LANE":" ","ALLEY":" ","HOUSE_NO":"１３７０號","E_COORD97":169692.51999999999,"N_COORD97":2539437.7200000002,"ADDRESS":"機場路１３７０號","OBJECTID":334385},"geometry":{"x":169692.51999999862,"y":2539437.7200000025}},{"attributes":{"ID":334395,"DIS_CODE":0,"TOWNNAME":"仁德區","LI":"太子里","LIN":"19鄰","STREET":"太子路","SECT":" ","MAREA":" ","LANE":" ","ALLEY":" ","HOUSE_NO":"３３６號","E_COORD97":173912.05538500001,"N_COORD97":2543548.0823499998,"ADDRESS":"太子路３３６號","OBJECTID":334386},"geometry":{"x":173912.05538500007,"y":2543548.0823449995}},{"attributes":{"ID":334396,"DIS_CODE":0,"TOWNNAME":"仁德區","LI":"新田里","LIN":"3鄰","STREET":"新田二街","SECT":" ","MAREA":" ","LANE":" ","ALLEY":" ","HOUSE_NO":"４６號","E_COORD97":174719.41440800001,"N_COORD97":2539785.2379200002,"ADDRESS":"新田二街４６號","OBJECTID":334387},"geometry":{"x":174719.41440800019,"y":2539785.2379240002}},{"attributes":{"ID":334397,"DIS_CODE":0,"TOWNNAME":"仁德區","LI":"太子里","LIN":"21鄰","STREET":"長興四街","SECT":" ","MAREA":" ","LANE":" ","ALLEY":" ","HOUSE_NO":"７２之１號","E_COORD97":173907.819945,"N_COORD97":2543584.8064899999,"ADDRESS":"長興四街７２之１號","OBJECTID":334388},"geometry":{"x":173907.81994500104,"y":2543584.8064920027}},{"attributes":{"ID":334398,"DIS_CODE":0,"TOWNNAME":"仁德區","LI":"太子里","LIN":"20鄰","STREET":"長興四街","SECT":" ","MAREA":" ","LANE":" ","ALLEY":" ","HOUSE_NO":"４０號","E_COORD97":173993.67999999999,"N_COORD97":2543606,"ADDRESS":"長興四街４０號","OBJECTID":334389},"geometry":{"x":173993.6799999997,"y":2543606}},{"attributes":{"ID":334399,"DIS_CODE":0,"TOWNNAME":"仁德區","LI":"仁愛里","LIN":"28鄰","STREET":"機場路","SECT":" ","MAREA":" ","LANE":" ","ALLEY":" ","HOUSE_NO":"１３３２號三樓","E_COORD97":169702.21434499999,"N_COORD97":2539366.4910599999,"ADDRESS":"機場路１３３２號三樓","OBJECTID":334390},"geometry":{"x":169702.21434499975,"y":2539366.4910599999}},{"attributes":{"ID":334400,"DIS_CODE":0,"TOWNNAME":"仁德區","LI":"仁愛里","LIN":"28鄰","STREET":"機場路","SECT":" ","MAREA":" ","LANE":" ","ALLEY":" ","HOUSE_NO":"１３３２號四樓","E_COORD97":169702.21434499999,"N_COORD97":2539366.4910599999,"ADDRESS":"機場路１３３２號四樓","OBJECTID":334391},"geometry":{"x":169702.21434499975,"y":2539366.4910599999}},{"attributes":{"ID":334401,"DIS_CODE":0,"TOWNNAME":"仁德區","LI":"仁愛里","LIN":"26鄰","STREET":"大同路","SECT":"三段","MAREA":" ","LANE":" ","ALLEY":" ","HOUSE_NO":"４０６號","E_COORD97":169771.68591999999,"N_COORD97":2539383.2655000002,"ADDRESS":"大同路三段４０６號","OBJECTID":334392},"geometry":{"x":169771.68592000101,"y":2539383.2655000016}},{"attributes":{"ID":334402,"DIS_CODE":0,"TOWNNAME":"北區","LI":"大和里","LIN":"20鄰","STREET":"大港街","SECT":" ","MAREA":" ","LANE":"１１０巷","ALLEY":" ","HOUSE_NO":"６號","E_COORD97":167055.48000000001,"N_COORD97":2546070.9399999999,"ADDRESS":"大港街１１０巷６號","OBJECTID":334393},"geometry":{"x":167055.48000000045,"y":2546070.9399999995}},{"attributes":{"ID":334403,"DIS_CODE":0,"TOWNNAME":"永康區","LI":"\u25A0洲里","LIN":"25鄰","STREET":"洲工街","SECT":" ","MAREA":" ","LANE":" ","ALLEY":" ","HOUSE_NO":"６號","E_COORD97":170667.72,"N_COORD97":2548051.2999999998,"ADDRESS":"洲工街６號","OBJECTID":334394},"geometry":{"x":170667.71999999974,"y":2548051.3000000026}},{"attributes":{"ID":334404,"DIS_CODE":0,"TOWNNAME":"北區","LI":"大和里","LIN":"20鄰","STREET":"大港街","SECT":" ","MAREA":" ","LANE":"１１０巷","ALLEY":" ","HOUSE_NO":"８號","E_COORD97":167053.98000000001,"N_COORD97":2546075.04,"ADDRESS":"大港街１１０巷８號","OBJECTID":334395},"geometry":{"x":167053.98000000045,"y":2546075.040000001}},{"attributes":{"ID":334405,"DIS_CODE":0,"TOWNNAME":"關廟區","LI":"北花里","LIN":"20鄰","STREET":"中正路","SECT":" ","MAREA":" ","LANE":"１１３巷","ALLEY":" ","HOUSE_NO":"４２號","E_COORD97":183593.85999999999,"N_COORD97":2540810.6200000001,"ADDRESS":"中正路１１３巷４２號","OBJECTID":334396},"geometry":{"x":183593.86000000127,"y":2540810.6200000048}},{"attributes":{"ID":334406,"DIS_CODE":0,"TOWNNAME":"麻豆區","LI":"大埕里","LIN":"18鄰","STREET":"振興街","SECT":" ","MAREA":" ","LANE":" ","ALLEY":" ","HOUSE_NO":"２２號之１１","E_COORD97":172922.98000000001,"N_COORD97":2564981.0800000001,"ADDRESS":"振興街２２號之１１","OBJECTID":334397},"geometry":{"x":172922.98000000045,"y":2564981.0800000019}},{"attributes":{"ID":334407,"DIS_CODE":0,"TOWNNAME":"麻豆區","LI":"大埕里","LIN":"18鄰","STREET":"振興街","SECT":" ","MAREA":" ","LANE":" ","ALLEY":" ","HOUSE_NO":"２２號之１","E_COORD97":172937.26000000001,"N_COORD97":2564960.7400000002,"ADDRESS":"振興街２２號之１","OBJECTID":334398},"geometry":{"x":172937.25999999978,"y":2564960.7400000002}},{"attributes":{"ID":334408,"DIS_CODE":0,"TOWNNAME":"麻豆區","LI":"大埕里","LIN":"18鄰","STREET":"振興街","SECT":" ","MAREA":" ","LANE":" ","ALLEY":" ","HOUSE_NO":"２２號之２","E_COORD97":172933.82000000001,"N_COORD97":2564962.23,"ADDRESS":"振興街２２號之２","OBJECTID":334399},"geometry":{"x":172933.8200000003,"y":2564962.2300000042}},{"attributes":{"ID":334409,"DIS_CODE":0,"TOWNNAME":"麻豆區","LI":"大埕里","LIN":"18鄰","STREET":"振興街","SECT":" ","MAREA":" ","LANE":" ","ALLEY":" ","HOUSE_NO":"２２號之３","E_COORD97":172930.23000000001,"N_COORD97":2564963.7599999998,"ADDRESS":"振興街２２號之３","OBJECTID":334400},"geometry":{"x":172930.23000000138,"y":2564963.7599999998}}]}