{"displayFieldName":"TOWNNAME","fieldAliases":{"ID":"ID","DIS_CODE":"DIS_CODE","TOWNNAME":"TOWNNAME","LI":"LI","LIN":"LIN","STREET":"STREET","SECT":"SECT","MAREA":"MAREA","LANE":"LANE","ALLEY":"ALLEY","HOUSE_NO":"HOUSE_NO","E_COORD97":"E_COORD97","N_COORD97":"N_COORD97","ADDRESS":"ADDRESS","OBJECTID":"OBJECTID"},"geometryType":"esriGeometryPoint","spatialReference":{"wkid":102443,"latestWkid":3826},"fields":[{"name":"ID","type":"esriFieldTypeDouble","alias":"ID"},{"name":"DIS_CODE","type":"esriFieldTypeInteger","alias":"DIS_CODE"},{"name":"TOWNNAME","type":"esriFieldTypeString","alias":"TOWNNAME","length":8},{"name":"LI","type":"esriFieldTypeString","alias":"LI","length":8},{"name":"LIN","type":"esriFieldTypeString","alias":"LIN","length":12},{"name":"STREET","type":"esriFieldTypeString","alias":"STREET","length":20},{"name":"SECT","type":"esriFieldTypeString","alias":"SECT","length":8},{"name":"MAREA","type":"esriFieldTypeString","alias":"MAREA","length":12},{"name":"LANE","type":"esriFieldTypeString","alias":"LANE","length":10},{"name":"ALLEY","type":"esriFieldTypeString","alias":"ALLEY","length":10},{"name":"HOUSE_NO","type":"esriFieldTypeString","alias":"HOUSE_NO","length":20},{"name":"E_COORD97","type":"esriFieldTypeDouble","alias":"E_COORD97"},{"name":"N_COORD97","type":"esriFieldTypeDouble","alias":"N_COORD97"},{"name":"ADDRESS","type":"esriFieldTypeString","alias":"ADDRESS","length":50},{"name":"OBJECTID","type":"esriFieldTypeOID","alias":"OBJECTID"}],"features":[{"attributes":{"ID":65201,"DIS_CODE":0,"TOWNNAME":"永康區","LI":"東橋里","LIN":"6鄰","STREET":"中山南路","SECT":" ","MAREA":" ","LANE":"１９５巷","ALLEY":"３０弄","HOUSE_NO":"１３號","E_COORD97":171512.88,"N_COORD97":2546384.73,"ADDRESS":"中山南路１９５巷３０弄１３號","OBJECTID":65201},"geometry":{"x":171512.88000000175,"y":2546384.7300000004}},{"attributes":{"ID":65202,"DIS_CODE":0,"TOWNNAME":"永康區","LI":"東橋里","LIN":"6鄰","STREET":"中山南路","SECT":" ","MAREA":" ","LANE":"１９５巷","ALLEY":"３０弄","HOUSE_NO":"２號","E_COORD97":171488.10000000001,"N_COORD97":2546357.98,"ADDRESS":"中山南路１９５巷３０弄２號","OBJECTID":65202},"geometry":{"x":171488.10000000056,"y":2546357.9800000023}},{"attributes":{"ID":65203,"DIS_CODE":0,"TOWNNAME":"永康區","LI":"南灣里","LIN":"6鄰","STREET":"大灣路","SECT":" ","MAREA":" ","LANE":"５３７巷","ALLEY":"１６弄","HOUSE_NO":"４號","E_COORD97":174475.63,"N_COORD97":2544448.27,"ADDRESS":"大灣路５３７巷１６弄４號","OBJECTID":65203},"geometry":{"x":174475.62999999989,"y":2544448.2699999996}},{"attributes":{"ID":65204,"DIS_CODE":0,"TOWNNAME":"永康區","LI":"東橋里","LIN":"6鄰","STREET":"中山南路","SECT":" ","MAREA":" ","LANE":"１９５巷","ALLEY":"３０弄","HOUSE_NO":"４號","E_COORD97":171491.87,"N_COORD97":2546360.48,"ADDRESS":"中山南路１９５巷３０弄４號","OBJECTID":65204},"geometry":{"x":171491.87000000104,"y":2546360.4800000004}},{"attributes":{"ID":65205,"DIS_CODE":0,"TOWNNAME":"安南區","LI":"城北里","LIN":"6鄰","STREET":"安中路","SECT":"六段","MAREA":" ","LANE":"５５４巷","ALLEY":"３６弄","HOUSE_NO":"１號","E_COORD97":160979.23000000001,"N_COORD97":2551427.1200000001,"ADDRESS":"安中路六段５５４巷３６弄１號","OBJECTID":65205},"geometry":{"x":160979.23000000138,"y":2551427.1200000029}},{"attributes":{"ID":65206,"DIS_CODE":0,"TOWNNAME":"安南區","LI":"城北里","LIN":"6鄰","STREET":"安中路","SECT":"六段","MAREA":" ","LANE":"５５４巷","ALLEY":"３６弄","HOUSE_NO":"３號","E_COORD97":160980.60000000001,"N_COORD97":2551423.6899999999,"ADDRESS":"安中路六段５５４巷３６弄３號","OBJECTID":65206},"geometry":{"x":160980.60000000149,"y":2551423.6900000032}},{"attributes":{"ID":65207,"DIS_CODE":0,"TOWNNAME":"安南區","LI":"城西里","LIN":"6鄰","STREET":"城西街","SECT":"三段","MAREA":" ","LANE":"５０１巷","ALLEY":"１３６弄","HOUSE_NO":"３９之６１號","E_COORD97":156956.01000000001,"N_COORD97":2550406.25,"ADDRESS":"城西街三段５０１巷１３６弄３９之６１號","OBJECTID":65207},"geometry":{"x":156956.01000000071,"y":2550406.25}},{"attributes":{"ID":65208,"DIS_CODE":0,"TOWNNAME":"安南區","LI":"佃東里","LIN":"6鄰","STREET":"公學路","SECT":"四段","MAREA":" ","LANE":"１２２巷","ALLEY":"２７２弄","HOUSE_NO":"２２號","E_COORD97":165666.07000000001,"N_COORD97":2552348.9399999999,"ADDRESS":"公學路四段１２２巷２７２弄２２號","OBJECTID":65208},"geometry":{"x":165666.07000000123,"y":2552348.9400000013}},{"attributes":{"ID":65209,"DIS_CODE":0,"TOWNNAME":"安南區","LI":"佃東里","LIN":"6鄰","STREET":"公學路","SECT":"四段","MAREA":" ","LANE":"１２２巷","ALLEY":"３７０弄","HOUSE_NO":"６３號","E_COORD97":165698.41,"N_COORD97":2552753.5600000001,"ADDRESS":"公學路四段１２２巷３７０弄６３號","OBJECTID":65209},"geometry":{"x":165698.41000000201,"y":2552753.5600000005}},{"attributes":{"ID":65210,"DIS_CODE":0,"TOWNNAME":"善化區","LI":"六德里","LIN":"1鄰","STREET":" ","SECT":" ","MAREA":"六分寮","LANE":" ","ALLEY":" ","HOUSE_NO":"２０５號","E_COORD97":178847.01000000001,"N_COORD97":2561776.75,"ADDRESS":"六分寮２０５號","OBJECTID":65210},"geometry":{"x":178847.01000000164,"y":2561776.75}},{"attributes":{"ID":65211,"DIS_CODE":0,"TOWNNAME":"善化區","LI":"什乃里","LIN":"1鄰","STREET":" ","SECT":" ","MAREA":"什乃","LANE":" ","ALLEY":" ","HOUSE_NO":"１５之４號","E_COORD97":176221.94,"N_COORD97":2560516.27,"ADDRESS":"什乃１５之４號","OBJECTID":65211},"geometry":{"x":176221.94000000041,"y":2560516.2700000033}},{"attributes":{"ID":65212,"DIS_CODE":0,"TOWNNAME":"善化區","LI":"什乃里","LIN":"1鄰","STREET":" ","SECT":" ","MAREA":"什乃","LANE":" ","ALLEY":" ","HOUSE_NO":"１１之６號","E_COORD97":176223.07000000001,"N_COORD97":2560459.27,"ADDRESS":"什乃１１之６號","OBJECTID":65212},"geometry":{"x":176223.07000000123,"y":2560459.2700000014}},{"attributes":{"ID":65213,"DIS_CODE":0,"TOWNNAME":"善化區","LI":"什乃里","LIN":"1鄰","STREET":" ","SECT":" ","MAREA":"什乃","LANE":" ","ALLEY":" ","HOUSE_NO":"１１之７號","E_COORD97":176223.63,"N_COORD97":2560455.02,"ADDRESS":"什乃１１之７號","OBJECTID":65213},"geometry":{"x":176223.62999999989,"y":2560455.0200000014}},{"attributes":{"ID":65214,"DIS_CODE":0,"TOWNNAME":"善化區","LI":"什乃里","LIN":"1鄰","STREET":" ","SECT":" ","MAREA":"什乃","LANE":" ","ALLEY":" ","HOUSE_NO":"１５之３號","E_COORD97":176217.78,"N_COORD97":2560536.52,"ADDRESS":"什乃１５之３號","OBJECTID":65214},"geometry":{"x":176217.78000000026,"y":2560536.5199999996}},{"attributes":{"ID":65215,"DIS_CODE":0,"TOWNNAME":"善化區","LI":"什乃里","LIN":"1鄰","STREET":" ","SECT":" ","MAREA":"什乃","LANE":" ","ALLEY":" ","HOUSE_NO":"１５之４４號","E_COORD97":176264.92999999999,"N_COORD97":2560506.77,"ADDRESS":"什乃１５之４４號","OBJECTID":65215},"geometry":{"x":176264.9299999997,"y":2560506.7700000014}},{"attributes":{"ID":65216,"DIS_CODE":0,"TOWNNAME":"善化區","LI":"什乃里","LIN":"1鄰","STREET":" ","SECT":" ","MAREA":"什乃","LANE":" ","ALLEY":" ","HOUSE_NO":"１３號之３","E_COORD97":176226.76999999999,"N_COORD97":2560482.02,"ADDRESS":"什乃１３號之３","OBJECTID":65216},"geometry":{"x":176226.76999999955,"y":2560482.0200000014}},{"attributes":{"ID":65217,"DIS_CODE":0,"TOWNNAME":"善化區","LI":"什乃里","LIN":"1鄰","STREET":" ","SECT":" ","MAREA":"什乃","LANE":" ","ALLEY":" ","HOUSE_NO":"１５之４５號","E_COORD97":176269.28,"N_COORD97":2560506.77,"ADDRESS":"什乃１５之４５號","OBJECTID":65217},"geometry":{"x":176269.28000000119,"y":2560506.7700000014}},{"attributes":{"ID":65218,"DIS_CODE":0,"TOWNNAME":"善化區","LI":"牛庄里","LIN":"1鄰","STREET":" ","SECT":" ","MAREA":"牛庄","LANE":" ","ALLEY":" ","HOUSE_NO":"２０號","E_COORD97":180317.67999999999,"N_COORD97":2559792.75,"ADDRESS":"牛庄２０號","OBJECTID":65218},"geometry":{"x":180317.68000000063,"y":2559792.7500000019}},{"attributes":{"ID":65219,"DIS_CODE":0,"TOWNNAME":"善化區","LI":"牛庄里","LIN":"1鄰","STREET":" ","SECT":" ","MAREA":"牛庄","LANE":" ","ALLEY":" ","HOUSE_NO":"２０號之１","E_COORD97":180275.98000000001,"N_COORD97":2559760.27,"ADDRESS":"牛庄２０號之１","OBJECTID":65219},"geometry":{"x":180275.98000000138,"y":2559760.2700000033}},{"attributes":{"ID":65220,"DIS_CODE":0,"TOWNNAME":"善化區","LI":"什乃里","LIN":"1鄰","STREET":" ","SECT":" ","MAREA":"什乃","LANE":" ","ALLEY":" ","HOUSE_NO":"１５之２０號","E_COORD97":176266.45000000001,"N_COORD97":2560556.02,"ADDRESS":"什乃１５之２０號","OBJECTID":65220},"geometry":{"x":176266.45000000112,"y":2560556.0200000014}},{"attributes":{"ID":65221,"DIS_CODE":0,"TOWNNAME":"善化區","LI":"什乃里","LIN":"1鄰","STREET":" ","SECT":" ","MAREA":"什乃","LANE":" ","ALLEY":" ","HOUSE_NO":"１５之７號","E_COORD97":176221.60000000001,"N_COORD97":2560502.27,"ADDRESS":"什乃１５之７號","OBJECTID":65221},"geometry":{"x":176221.59999999963,"y":2560502.2699999996}},{"attributes":{"ID":65222,"DIS_CODE":0,"TOWNNAME":"善化區","LI":"什乃里","LIN":"1鄰","STREET":" ","SECT":" ","MAREA":"什乃","LANE":" ","ALLEY":" ","HOUSE_NO":"１５之１３號","E_COORD97":176237.04000000001,"N_COORD97":2560551.52,"ADDRESS":"什乃１５之１３號","OBJECTID":65222},"geometry":{"x":176237.04000000097,"y":2560551.5199999977}},{"attributes":{"ID":65223,"DIS_CODE":0,"TOWNNAME":"善化區","LI":"什乃里","LIN":"1鄰","STREET":" ","SECT":" ","MAREA":"什乃","LANE":" ","ALLEY":" ","HOUSE_NO":"１５之２３號","E_COORD97":176239.12,"N_COORD97":2560537.02,"ADDRESS":"什乃１５之２３號","OBJECTID":65223},"geometry":{"x":176239.12000000011,"y":2560537.0199999996}},{"attributes":{"ID":65224,"DIS_CODE":0,"TOWNNAME":"善化區","LI":"什乃里","LIN":"1鄰","STREET":" ","SECT":" ","MAREA":"什乃","LANE":" ","ALLEY":" ","HOUSE_NO":"１０號之４","E_COORD97":176203.75,"N_COORD97":2560429.02,"ADDRESS":"什乃１０號之４","OBJECTID":65224},"geometry":{"x":176203.75,"y":2560429.0199999996}},{"attributes":{"ID":65225,"DIS_CODE":0,"TOWNNAME":"善化區","LI":"牛庄里","LIN":"1鄰","STREET":" ","SECT":" ","MAREA":"牛庄","LANE":" ","ALLEY":" ","HOUSE_NO":"１６號之１３","E_COORD97":180213.57000000001,"N_COORD97":2559637.77,"ADDRESS":"牛庄１６號之１３","OBJECTID":65225},"geometry":{"x":180213.57000000123,"y":2559637.7699999977}},{"attributes":{"ID":65226,"DIS_CODE":0,"TOWNNAME":"善化區","LI":"什乃里","LIN":"1鄰","STREET":" ","SECT":" ","MAREA":"什乃","LANE":" ","ALLEY":" ","HOUSE_NO":"１５之５號","E_COORD97":176221.60000000001,"N_COORD97":2560511.52,"ADDRESS":"什乃１５之５號","OBJECTID":65226},"geometry":{"x":176221.59999999963,"y":2560511.5200000014}},{"attributes":{"ID":65227,"DIS_CODE":0,"TOWNNAME":"善化區","LI":"什乃里","LIN":"1鄰","STREET":" ","SECT":" ","MAREA":"什乃","LANE":" ","ALLEY":" ","HOUSE_NO":"１５之２６號","E_COORD97":176251.85999999999,"N_COORD97":2560539.27,"ADDRESS":"什乃１５之２６號","OBJECTID":65227},"geometry":{"x":176251.86000000127,"y":2560539.2699999996}},{"attributes":{"ID":65228,"DIS_CODE":0,"TOWNNAME":"善化區","LI":"什乃里","LIN":"1鄰","STREET":" ","SECT":" ","MAREA":"什乃","LANE":" ","ALLEY":" ","HOUSE_NO":"１５之３２號","E_COORD97":176237.85000000001,"N_COORD97":2560517.77,"ADDRESS":"什乃１５之３２號","OBJECTID":65228},"geometry":{"x":176237.85000000056,"y":2560517.7700000014}},{"attributes":{"ID":65229,"DIS_CODE":0,"TOWNNAME":"善化區","LI":"什乃里","LIN":"1鄰","STREET":" ","SECT":" ","MAREA":"什乃","LANE":" ","ALLEY":" ","HOUSE_NO":"１５之４３號","E_COORD97":176260.92999999999,"N_COORD97":2560506.27,"ADDRESS":"什乃１５之４３號","OBJECTID":65229},"geometry":{"x":176260.93000000063,"y":2560506.2700000014}},{"attributes":{"ID":65230,"DIS_CODE":0,"TOWNNAME":"善化區","LI":"什乃里","LIN":"1鄰","STREET":" ","SECT":" ","MAREA":"什乃","LANE":" ","ALLEY":" ","HOUSE_NO":"１７號之１","E_COORD97":176209.34,"N_COORD97":2560601.52,"ADDRESS":"什乃１７號之１","OBJECTID":65230},"geometry":{"x":176209.34000000078,"y":2560601.5199999996}},{"attributes":{"ID":65231,"DIS_CODE":0,"TOWNNAME":"中西區","LI":"安海里","LIN":"6鄰","STREET":"正興街","SECT":" ","MAREA":" ","LANE":"１５９巷","ALLEY":" ","HOUSE_NO":"６號","E_COORD97":167410.32999999999,"N_COORD97":2543911.1400000001,"ADDRESS":"正興街１５９巷６號","OBJECTID":65231},"geometry":{"x":167410.33000000007,"y":2543911.1400000006}},{"attributes":{"ID":65232,"DIS_CODE":0,"TOWNNAME":"中西區","LI":"安海里","LIN":"6鄰","STREET":"正興街","SECT":" ","MAREA":" ","LANE":"１５９巷","ALLEY":" ","HOUSE_NO":"８號","E_COORD97":167412.12,"N_COORD97":2543904.1699999999,"ADDRESS":"正興街１５９巷８號","OBJECTID":65232},"geometry":{"x":167412.12000000011,"y":2543904.1699999981}},{"attributes":{"ID":65233,"DIS_CODE":0,"TOWNNAME":"中西區","LI":"安海里","LIN":"6鄰","STREET":"正興街","SECT":" ","MAREA":" ","LANE":"１５９巷","ALLEY":" ","HOUSE_NO":"２號","E_COORD97":167415.51999999999,"N_COORD97":2543926.3100000001,"ADDRESS":"正興街１５９巷２號","OBJECTID":65233},"geometry":{"x":167415.51999999955,"y":2543926.3100000005}},{"attributes":{"ID":65234,"DIS_CODE":0,"TOWNNAME":"東區","LI":"路東里","LIN":"17鄰","STREET":"大同路","SECT":"二段","MAREA":" ","LANE":"６１巷","ALLEY":"１３６弄","HOUSE_NO":"２９號","E_COORD97":169492.01999999999,"N_COORD97":2542302.25,"ADDRESS":"大同路二段６１巷１３６弄２９號","OBJECTID":65234},"geometry":{"x":169492.01999999955,"y":2542302.25}},{"attributes":{"ID":65235,"DIS_CODE":0,"TOWNNAME":"東區","LI":"路東里","LIN":"17鄰","STREET":"大同路","SECT":"二段","MAREA":" ","LANE":"６１巷","ALLEY":"１３６弄","HOUSE_NO":"３１號","E_COORD97":169495.82000000001,"N_COORD97":2542303.6099999999,"ADDRESS":"大同路二段６１巷１３６弄３１號","OBJECTID":65235},"geometry":{"x":169495.8200000003,"y":2542303.6099999994}},{"attributes":{"ID":65236,"DIS_CODE":0,"TOWNNAME":"東區","LI":"路東里","LIN":"17鄰","STREET":"大同路","SECT":"二段","MAREA":" ","LANE":"６１巷","ALLEY":"１３６弄","HOUSE_NO":"３３號","E_COORD97":169498.81,"N_COORD97":2542303.8799999999,"ADDRESS":"大同路二段６１巷１３６弄３３號","OBJECTID":65236},"geometry":{"x":169498.80999999959,"y":2542303.879999999}},{"attributes":{"ID":65237,"DIS_CODE":0,"TOWNNAME":"東區","LI":"路東里","LIN":"17鄰","STREET":"大同路","SECT":"二段","MAREA":" ","LANE":"６１巷","ALLEY":"１３６弄","HOUSE_NO":"３５號","E_COORD97":169502.07000000001,"N_COORD97":2542304.7000000002,"ADDRESS":"大同路二段６１巷１３６弄３５號","OBJECTID":65237},"geometry":{"x":169502.07000000123,"y":2542304.7000000011}},{"attributes":{"ID":65238,"DIS_CODE":0,"TOWNNAME":"東區","LI":"路東里","LIN":"17鄰","STREET":"大同路","SECT":"二段","MAREA":" ","LANE":"６１巷","ALLEY":"１３６弄","HOUSE_NO":"３７號","E_COORD97":169505.32999999999,"N_COORD97":2542306.0499999998,"ADDRESS":"大同路二段６１巷１３６弄３７號","OBJECTID":65238},"geometry":{"x":169505.33000000101,"y":2542306.0500000026}},{"attributes":{"ID":65239,"DIS_CODE":0,"TOWNNAME":"東區","LI":"路東里","LIN":"17鄰","STREET":"大同路","SECT":"二段","MAREA":" ","LANE":"６１巷","ALLEY":"１３６弄","HOUSE_NO":"３９號","E_COORD97":169508.85999999999,"N_COORD97":2542306.5899999999,"ADDRESS":"大同路二段６１巷１３６弄３９號","OBJECTID":65239},"geometry":{"x":169508.86000000127,"y":2542306.5899999999}},{"attributes":{"ID":65240,"DIS_CODE":0,"TOWNNAME":"麻豆區","LI":"\u25A0江里","LIN":"8鄰","STREET":"民權路","SECT":" ","MAREA":" ","LANE":" ","ALLEY":" ","HOUSE_NO":"７０號之４","E_COORD97":173523.66,"N_COORD97":2564257.3199999998,"ADDRESS":"民權路７０號之４","OBJECTID":65240},"geometry":{"x":173523.66000000108,"y":2564257.3200000022}},{"attributes":{"ID":65241,"DIS_CODE":0,"TOWNNAME":"善化區","LI":"什乃里","LIN":"1鄰","STREET":" ","SECT":" ","MAREA":"什乃","LANE":" ","ALLEY":" ","HOUSE_NO":"１５之４１號","E_COORD97":176245.5,"N_COORD97":2560504.77,"ADDRESS":"什乃１５之４１號","OBJECTID":65241},"geometry":{"x":176245.50000000093,"y":2560504.7699999996}},{"attributes":{"ID":65242,"DIS_CODE":0,"TOWNNAME":"善化區","LI":"什乃里","LIN":"1鄰","STREET":" ","SECT":" ","MAREA":"什乃","LANE":" ","ALLEY":" ","HOUSE_NO":"１３號之１","E_COORD97":176239.62,"N_COORD97":2560484.27,"ADDRESS":"什乃１３號之１","OBJECTID":65242},"geometry":{"x":176239.62000000104,"y":2560484.2699999996}},{"attributes":{"ID":65243,"DIS_CODE":0,"TOWNNAME":"善化區","LI":"什乃里","LIN":"1鄰","STREET":" ","SECT":" ","MAREA":"什乃","LANE":" ","ALLEY":" ","HOUSE_NO":"１４之３號","E_COORD97":176194.95999999999,"N_COORD97":2560515.52,"ADDRESS":"什乃１４之３號","OBJECTID":65243},"geometry":{"x":176194.96000000089,"y":2560515.5200000014}},{"attributes":{"ID":65244,"DIS_CODE":0,"TOWNNAME":"善化區","LI":"什乃里","LIN":"1鄰","STREET":" ","SECT":" ","MAREA":"什乃","LANE":" ","ALLEY":" ","HOUSE_NO":"１５之４０號","E_COORD97":176271.35999999999,"N_COORD97":2560522.52,"ADDRESS":"什乃１５之４０號","OBJECTID":65244},"geometry":{"x":176271.36000000034,"y":2560522.5200000014}},{"attributes":{"ID":65245,"DIS_CODE":0,"TOWNNAME":"善化區","LI":"什乃里","LIN":"1鄰","STREET":" ","SECT":" ","MAREA":"什乃","LANE":" ","ALLEY":" ","HOUSE_NO":"１５之１２號","E_COORD97":176232.60000000001,"N_COORD97":2560553.52,"ADDRESS":"什乃１５之１２號","OBJECTID":65245},"geometry":{"x":176232.60000000056,"y":2560553.5199999996}},{"attributes":{"ID":65246,"DIS_CODE":0,"TOWNNAME":"善化區","LI":"什乃里","LIN":"1鄰","STREET":" ","SECT":" ","MAREA":"什乃","LANE":" ","ALLEY":" ","HOUSE_NO":"１１號之１","E_COORD97":176229.82000000001,"N_COORD97":2560471.02,"ADDRESS":"什乃１１號之１","OBJECTID":65246},"geometry":{"x":176229.82000000216,"y":2560471.0200000014}},{"attributes":{"ID":65247,"DIS_CODE":0,"TOWNNAME":"善化區","LI":"什乃里","LIN":"1鄰","STREET":" ","SECT":" ","MAREA":"什乃","LANE":" ","ALLEY":" ","HOUSE_NO":"１５之１６號","E_COORD97":176249.73999999999,"N_COORD97":2560553.52,"ADDRESS":"什乃１５之１６號","OBJECTID":65247},"geometry":{"x":176249.74000000022,"y":2560553.5199999996}},{"attributes":{"ID":65248,"DIS_CODE":0,"TOWNNAME":"善化區","LI":"什乃里","LIN":"1鄰","STREET":" ","SECT":" ","MAREA":"什乃","LANE":" ","ALLEY":" ","HOUSE_NO":"１５之２５號","E_COORD97":176247.57000000001,"N_COORD97":2560538.27,"ADDRESS":"什乃１５之２５號","OBJECTID":65248},"geometry":{"x":176247.5700000003,"y":2560538.2699999996}},{"attributes":{"ID":65249,"DIS_CODE":0,"TOWNNAME":"善化區","LI":"什乃里","LIN":"1鄰","STREET":" ","SECT":" ","MAREA":"什乃","LANE":" ","ALLEY":" ","HOUSE_NO":"１５之３８號","E_COORD97":176263.32000000001,"N_COORD97":2560521.52,"ADDRESS":"什乃１５之３８號","OBJECTID":65249},"geometry":{"x":176263.3200000003,"y":2560521.5200000014}},{"attributes":{"ID":65250,"DIS_CODE":0,"TOWNNAME":"善化區","LI":"什乃里","LIN":"1鄰","STREET":" ","SECT":" ","MAREA":"什乃","LANE":" ","ALLEY":" ","HOUSE_NO":"１１號之５","E_COORD97":176198.13,"N_COORD97":2560452.52,"ADDRESS":"什乃１１號之５","OBJECTID":65250},"geometry":{"x":176198.12999999989,"y":2560452.5199999996}},{"attributes":{"ID":65251,"DIS_CODE":0,"TOWNNAME":"善化區","LI":"牛庄里","LIN":"1鄰","STREET":" ","SECT":" ","MAREA":"牛庄","LANE":" ","ALLEY":" ","HOUSE_NO":"１７號之３","E_COORD97":180291.63,"N_COORD97":2559777.27,"ADDRESS":"牛庄１７號之３","OBJECTID":65251},"geometry":{"x":180291.62999999989,"y":2559777.2700000033}},{"attributes":{"ID":65252,"DIS_CODE":0,"TOWNNAME":"善化區","LI":"牛庄里","LIN":"1鄰","STREET":" ","SECT":" ","MAREA":"牛庄","LANE":" ","ALLEY":" ","HOUSE_NO":"２１號","E_COORD97":180318.32999999999,"N_COORD97":2559816,"ADDRESS":"牛庄２１號","OBJECTID":65252},"geometry":{"x":180318.33000000101,"y":2559816}},{"attributes":{"ID":65253,"DIS_CODE":0,"TOWNNAME":"善化區","LI":"什乃里","LIN":"1鄰","STREET":" ","SECT":" ","MAREA":"什乃","LANE":" ","ALLEY":" ","HOUSE_NO":"１５之３９號","E_COORD97":176267.25,"N_COORD97":2560522.02,"ADDRESS":"什乃１５之３９號","OBJECTID":65253},"geometry":{"x":176267.25000000186,"y":2560522.0200000014}},{"attributes":{"ID":65254,"DIS_CODE":0,"TOWNNAME":"麻豆區","LI":"北勢里","LIN":"1鄰","STREET":" ","SECT":" ","MAREA":"加輦邦","LANE":" ","ALLEY":" ","HOUSE_NO":"１號之１０","E_COORD97":174570.60000000001,"N_COORD97":2566507.23,"ADDRESS":"加輦邦１號之１０","OBJECTID":65254},"geometry":{"x":174570.59999999963,"y":2566507.2300000004}},{"attributes":{"ID":65255,"DIS_CODE":0,"TOWNNAME":"善化區","LI":"什乃里","LIN":"1鄰","STREET":" ","SECT":" ","MAREA":"什乃","LANE":" ","ALLEY":" ","HOUSE_NO":"１５之１４號","E_COORD97":176241.20000000001,"N_COORD97":2560551.77,"ADDRESS":"什乃１５之１４號","OBJECTID":65255},"geometry":{"x":176241.20000000112,"y":2560551.7699999996}},{"attributes":{"ID":65256,"DIS_CODE":0,"TOWNNAME":"善化區","LI":"什乃里","LIN":"1鄰","STREET":" ","SECT":" ","MAREA":"什乃","LANE":" ","ALLEY":" ","HOUSE_NO":"１５之１７號","E_COORD97":176253.89999999999,"N_COORD97":2560554.27,"ADDRESS":"什乃１５之１７號","OBJECTID":65256},"geometry":{"x":176253.90000000037,"y":2560554.2700000014}},{"attributes":{"ID":65257,"DIS_CODE":0,"TOWNNAME":"善化區","LI":"牛庄里","LIN":"1鄰","STREET":" ","SECT":" ","MAREA":"牛庄","LANE":" ","ALLEY":" ","HOUSE_NO":"５號之３","E_COORD97":180206.89999999999,"N_COORD97":2559771.02,"ADDRESS":"牛庄５號之３","OBJECTID":65257},"geometry":{"x":180206.9000000013,"y":2559771.0199999996}},{"attributes":{"ID":65258,"DIS_CODE":0,"TOWNNAME":"善化區","LI":"什乃里","LIN":"1鄰","STREET":" ","SECT":" ","MAREA":"什乃","LANE":" ","ALLEY":" ","HOUSE_NO":"１７之２號","E_COORD97":176206.09,"N_COORD97":2560592.77,"ADDRESS":"什乃１７之２號","OBJECTID":65258},"geometry":{"x":176206.09000000078,"y":2560592.7699999996}},{"attributes":{"ID":65259,"DIS_CODE":0,"TOWNNAME":"東區","LI":"衛國里","LIN":"21鄰","STREET":"林森路","SECT":"二段","MAREA":" ","LANE":"１９０巷","ALLEY":"１８弄","HOUSE_NO":"２２號","E_COORD97":170556.38,"N_COORD97":2543206.98,"ADDRESS":"林森路二段１９０巷１８弄２２號","OBJECTID":65259},"geometry":{"x":170556.37999999989,"y":2543206.9800000004}},{"attributes":{"ID":65260,"DIS_CODE":0,"TOWNNAME":"下營區","LI":"新興里","LIN":"6鄰","STREET":"中華街","SECT":" ","MAREA":" ","LANE":"１８６巷","ALLEY":"２弄","HOUSE_NO":"１號","E_COORD97":175139.56,"N_COORD97":2570654.6400000001,"ADDRESS":"中華街１８６巷２弄１號","OBJECTID":65260},"geometry":{"x":175139.56000000052,"y":2570654.6400000006}},{"attributes":{"ID":65261,"DIS_CODE":0,"TOWNNAME":"下營區","LI":"新興里","LIN":"6鄰","STREET":"中華街","SECT":" ","MAREA":" ","LANE":"１８６巷","ALLEY":"２弄","HOUSE_NO":"２號","E_COORD97":175138.81,"N_COORD97":2570647.7200000002,"ADDRESS":"中華街１８６巷２弄２號","OBJECTID":65261},"geometry":{"x":175138.80999999959,"y":2570647.7200000007}},{"attributes":{"ID":65262,"DIS_CODE":0,"TOWNNAME":"下營區","LI":"新興里","LIN":"6鄰","STREET":"中華街","SECT":" ","MAREA":" ","LANE":"１８６巷","ALLEY":"２弄","HOUSE_NO":"３號","E_COORD97":175137.73000000001,"N_COORD97":2570640.5,"ADDRESS":"中華街１８６巷２弄３號","OBJECTID":65262},"geometry":{"x":175137.73000000138,"y":2570640.5}},{"attributes":{"ID":65263,"DIS_CODE":0,"TOWNNAME":"下營區","LI":"新興里","LIN":"6鄰","STREET":"中華街","SECT":" ","MAREA":" ","LANE":"１８６巷","ALLEY":"２弄","HOUSE_NO":"５號","E_COORD97":175137.14000000001,"N_COORD97":2570631.9399999999,"ADDRESS":"中華街１８６巷２弄５號","OBJECTID":65263},"geometry":{"x":175137.1400000006,"y":2570631.9400000032}},{"attributes":{"ID":65264,"DIS_CODE":0,"TOWNNAME":"下營區","LI":"新興里","LIN":"6鄰","STREET":"中華街","SECT":" ","MAREA":" ","LANE":"１８６巷","ALLEY":"２弄","HOUSE_NO":"６號","E_COORD97":175136.81,"N_COORD97":2570624.8999999999,"ADDRESS":"中華街１８６巷２弄６號","OBJECTID":65264},"geometry":{"x":175136.80999999959,"y":2570624.9000000004}},{"attributes":{"ID":65265,"DIS_CODE":0,"TOWNNAME":"下營區","LI":"新興里","LIN":"6鄰","STREET":"中華街","SECT":" ","MAREA":" ","LANE":"１８６巷","ALLEY":"２弄","HOUSE_NO":"７號","E_COORD97":175136.17999999999,"N_COORD97":2570618.0699999998,"ADDRESS":"中華街１８６巷２弄７號","OBJECTID":65265},"geometry":{"x":175136.1799999997,"y":2570618.0699999984}},{"attributes":{"ID":65266,"DIS_CODE":0,"TOWNNAME":"下營區","LI":"新興里","LIN":"6鄰","STREET":"中華街","SECT":" ","MAREA":" ","LANE":"２０２巷","ALLEY":"２０弄","HOUSE_NO":"１號","E_COORD97":175197.66,"N_COORD97":2570648.98,"ADDRESS":"中華街２０２巷２０弄１號","OBJECTID":65266},"geometry":{"x":175197.66000000015,"y":2570648.9800000004}},{"attributes":{"ID":65267,"DIS_CODE":0,"TOWNNAME":"下營區","LI":"新興里","LIN":"6鄰","STREET":"中華街","SECT":" ","MAREA":" ","LANE":"２０２巷","ALLEY":"２０弄","HOUSE_NO":"２號","E_COORD97":175203.35000000001,"N_COORD97":2570672.8500000001,"ADDRESS":"中華街２０２巷２０弄２號","OBJECTID":65267},"geometry":{"x":175203.35000000056,"y":2570672.8499999996}},{"attributes":{"ID":65268,"DIS_CODE":0,"TOWNNAME":"下營區","LI":"新興里","LIN":"6鄰","STREET":"中華街","SECT":" ","MAREA":" ","LANE":"２０２巷","ALLEY":"２０弄","HOUSE_NO":"３號","E_COORD97":175194.01999999999,"N_COORD97":2570649.1099999999,"ADDRESS":"中華街２０２巷２０弄３號","OBJECTID":65268},"geometry":{"x":175194.02000000048,"y":2570649.1100000013}},{"attributes":{"ID":65269,"DIS_CODE":0,"TOWNNAME":"下營區","LI":"新興里","LIN":"6鄰","STREET":"中華街","SECT":" ","MAREA":" ","LANE":"２０２巷","ALLEY":"２０弄","HOUSE_NO":"６號","E_COORD97":175201.53,"N_COORD97":2570667.0800000001,"ADDRESS":"中華街２０２巷２０弄６號","OBJECTID":65269},"geometry":{"x":175201.53000000119,"y":2570667.0800000001}},{"attributes":{"ID":65270,"DIS_CODE":0,"TOWNNAME":"永康區","LI":"南灣里","LIN":"6鄰","STREET":"大灣路","SECT":" ","MAREA":" ","LANE":"５３７巷","ALLEY":"１６弄","HOUSE_NO":"５號","E_COORD97":174476.54999999999,"N_COORD97":2544427.4100000001,"ADDRESS":"大灣路５３７巷１６弄５號","OBJECTID":65270},"geometry":{"x":174476.55000000168,"y":2544427.4100000001}},{"attributes":{"ID":65271,"DIS_CODE":0,"TOWNNAME":"永康區","LI":"南灣里","LIN":"6鄰","STREET":"大灣路","SECT":" ","MAREA":" ","LANE":"５３７巷","ALLEY":"１６弄","HOUSE_NO":"７號","E_COORD97":174472.20999999999,"N_COORD97":2544425.9100000001,"ADDRESS":"大灣路５３７巷１６弄７號","OBJECTID":65271},"geometry":{"x":174472.21000000183,"y":2544425.910000002}},{"attributes":{"ID":65272,"DIS_CODE":0,"TOWNNAME":"永康區","LI":"南灣里","LIN":"6鄰","STREET":"大灣路","SECT":" ","MAREA":" ","LANE":"５３７巷","ALLEY":"１６弄","HOUSE_NO":"１號","E_COORD97":174484.20999999999,"N_COORD97":2544429.9100000001,"ADDRESS":"大灣路５３７巷１６弄１號","OBJECTID":65272},"geometry":{"x":174484.21000000089,"y":2544429.910000002}},{"attributes":{"ID":65273,"DIS_CODE":0,"TOWNNAME":"永康區","LI":"東橋里","LIN":"6鄰","STREET":"中山南路","SECT":" ","MAREA":" ","LANE":"１９５巷","ALLEY":"２４弄","HOUSE_NO":"１９號","E_COORD97":171539.04000000001,"N_COORD97":2546348.8399999999,"ADDRESS":"中山南路１９５巷２４弄１９號","OBJECTID":65273},"geometry":{"x":171539.0400000019,"y":2546348.8400000017}},{"attributes":{"ID":65274,"DIS_CODE":0,"TOWNNAME":"永康區","LI":"東橋里","LIN":"6鄰","STREET":"中山南路","SECT":" ","MAREA":" ","LANE":"１９５巷","ALLEY":"３０弄","HOUSE_NO":"１號","E_COORD97":171482.07000000001,"N_COORD97":2546367.23,"ADDRESS":"中山南路１９５巷３０弄１號","OBJECTID":65274},"geometry":{"x":171482.07000000123,"y":2546367.2300000023}},{"attributes":{"ID":65275,"DIS_CODE":0,"TOWNNAME":"永康區","LI":"東橋里","LIN":"6鄰","STREET":"中山南路","SECT":" ","MAREA":" ","LANE":"１９５巷","ALLEY":"２４弄","HOUSE_NO":"１３號","E_COORD97":171526.04999999999,"N_COORD97":2546339.3399999999,"ADDRESS":"中山南路１９５巷２４弄１３號","OBJECTID":65275},"geometry":{"x":171526.04999999981,"y":2546339.3399999999}},{"attributes":{"ID":65276,"DIS_CODE":0,"TOWNNAME":"安南區","LI":"佃東里","LIN":"6鄰","STREET":"公學路","SECT":"四段","MAREA":" ","LANE":"１２２巷","ALLEY":"２７２弄","HOUSE_NO":"１６０之２１號","E_COORD97":166013.35000000001,"N_COORD97":2552572.48,"ADDRESS":"公學路四段１２２巷２７２弄１６０之２１號","OBJECTID":65276},"geometry":{"x":166013.34999999963,"y":2552572.4800000023}},{"attributes":{"ID":65277,"DIS_CODE":0,"TOWNNAME":"白河區","LI":"蓮潭里","LIN":"8鄰","STREET":" ","SECT":" ","MAREA":"蓮潭","LANE":" ","ALLEY":" ","HOUSE_NO":"２４號","E_COORD97":188869.01999999999,"N_COORD97":2588662,"ADDRESS":"蓮潭２４號","OBJECTID":65277},"geometry":{"x":188869.02000000048,"y":2588662.0000000037}},{"attributes":{"ID":65278,"DIS_CODE":0,"TOWNNAME":"安南區","LI":"布袋里","LIN":"6鄰","STREET":"長和路","SECT":"四段","MAREA":" ","LANE":"１６０巷","ALLEY":"２８弄","HOUSE_NO":"１３號","E_COORD97":169057.23999999999,"N_COORD97":2551719.2400000002,"ADDRESS":"長和路四段１６０巷２８弄１３號","OBJECTID":65278},"geometry":{"x":169057.24000000022,"y":2551719.2400000039}},{"attributes":{"ID":65279,"DIS_CODE":0,"TOWNNAME":"安南區","LI":"海南里","LIN":"6鄰","STREET":"府安路","SECT":"六段","MAREA":" ","LANE":"１０３巷","ALLEY":"２９弄","HOUSE_NO":"３４號","E_COORD97":166606.04999999999,"N_COORD97":2546523.7200000002,"ADDRESS":"府安路六段１０３巷２９弄３４號","OBJECTID":65279},"geometry":{"x":166606.05000000075,"y":2546523.7200000025}},{"attributes":{"ID":65280,"DIS_CODE":0,"TOWNNAME":"安南區","LI":"佃東里","LIN":"6鄰","STREET":"公學路","SECT":"四段","MAREA":" ","LANE":"１２２巷","ALLEY":"２７２弄","HOUSE_NO":"１０６號","E_COORD97":165835.13,"N_COORD97":2552495.9399999999,"ADDRESS":"公學路四段１２２巷２７２弄１０６號","OBJECTID":65280},"geometry":{"x":165835.12999999989,"y":2552495.9399999995}},{"attributes":{"ID":65281,"DIS_CODE":0,"TOWNNAME":"善化區","LI":"六分里","LIN":"1鄰","STREET":" ","SECT":" ","MAREA":"六分寮","LANE":" ","ALLEY":" ","HOUSE_NO":"１５號","E_COORD97":178340.09,"N_COORD97":2561319,"ADDRESS":"六分寮１５號","OBJECTID":65281},"geometry":{"x":178340.09000000078,"y":2561319.0000000019}},{"attributes":{"ID":65282,"DIS_CODE":0,"TOWNNAME":"安南區","LI":"佃東里","LIN":"6鄰","STREET":"公學路","SECT":"四段","MAREA":" ","LANE":"１２２巷","ALLEY":"２７２弄","HOUSE_NO":"１０８號","E_COORD97":165860.63,"N_COORD97":2552536.1800000002,"ADDRESS":"公學路四段１２２巷２７２弄１０８號","OBJECTID":65282},"geometry":{"x":165860.62999999989,"y":2552536.1800000034}},{"attributes":{"ID":65283,"DIS_CODE":0,"TOWNNAME":"安南區","LI":"佃東里","LIN":"6鄰","STREET":"公學路","SECT":"四段","MAREA":" ","LANE":"１２２巷","ALLEY":"２７２弄","HOUSE_NO":"１８之４９號","E_COORD97":165661.14000000001,"N_COORD97":2552504.1699999999,"ADDRESS":"公學路四段１２２巷２７２弄１８之４９號","OBJECTID":65283},"geometry":{"x":165661.1400000006,"y":2552504.1699999999}},{"attributes":{"ID":65284,"DIS_CODE":0,"TOWNNAME":"安南區","LI":"安富里","LIN":"6鄰","STREET":"郡安路","SECT":"五段","MAREA":" ","LANE":"１８４巷","ALLEY":"６６弄","HOUSE_NO":"１９號","E_COORD97":167401.97,"N_COORD97":2547556.4700000002,"ADDRESS":"郡安路五段１８４巷６６弄１９號","OBJECTID":65284},"geometry":{"x":167401.97000000067,"y":2547556.4700000007}},{"attributes":{"ID":65285,"DIS_CODE":0,"TOWNNAME":"白河區","LI":"詔安里","LIN":"8鄰","STREET":" ","SECT":" ","MAREA":"詔安厝","LANE":" ","ALLEY":" ","HOUSE_NO":"８８號","E_COORD97":189890.97,"N_COORD97":2587857.3500000001,"ADDRESS":"詔安厝８８號","OBJECTID":65285},"geometry":{"x":189890.96999999974,"y":2587857.3500000015}},{"attributes":{"ID":65286,"DIS_CODE":0,"TOWNNAME":"新化區","LI":"唪口里","LIN":"8鄰","STREET":" ","SECT":" ","MAREA":"唪口","LANE":" ","ALLEY":" ","HOUSE_NO":"８８號之１","E_COORD97":177989.63,"N_COORD97":2549131.2599999998,"ADDRESS":"唪口８８號之１","OBJECTID":65286},"geometry":{"x":177989.62999999989,"y":2549131.2599999998}},{"attributes":{"ID":65287,"DIS_CODE":0,"TOWNNAME":"安南區","LI":"城南里","LIN":"6鄰","STREET":"青砂街","SECT":"一段","MAREA":" ","LANE":"６５巷","ALLEY":"６１弄","HOUSE_NO":"４３號","E_COORD97":160407.54999999999,"N_COORD97":2551537.5299999998,"ADDRESS":"青砂街一段６５巷６１弄４３號","OBJECTID":65287},"geometry":{"x":160407.54999999981,"y":2551537.5300000012}},{"attributes":{"ID":65288,"DIS_CODE":0,"TOWNNAME":"安南區","LI":"城南里","LIN":"6鄰","STREET":"青砂街","SECT":"一段","MAREA":" ","LANE":"６５巷","ALLEY":"６１弄","HOUSE_NO":"４３之８號","E_COORD97":160420.63,"N_COORD97":2551538.9300000002,"ADDRESS":"青砂街一段６５巷６１弄４３之８號","OBJECTID":65288},"geometry":{"x":160420.62999999989,"y":2551538.9300000016}},{"attributes":{"ID":65289,"DIS_CODE":0,"TOWNNAME":"新化區","LI":"護國里","LIN":"8鄰","STREET":"信義路","SECT":" ","MAREA":" ","LANE":" ","ALLEY":" ","HOUSE_NO":"９８號","E_COORD97":179821.88,"N_COORD97":2548733.25,"ADDRESS":"信義路９８號","OBJECTID":65289},"geometry":{"x":179821.87999999989,"y":2548733.2500000019}},{"attributes":{"ID":65290,"DIS_CODE":0,"TOWNNAME":"新化區","LI":"唪口里","LIN":"8鄰","STREET":" ","SECT":" ","MAREA":"唪口","LANE":" ","ALLEY":" ","HOUSE_NO":"９２號之４","E_COORD97":177940.13,"N_COORD97":2549143.2599999998,"ADDRESS":"唪口９２號之４","OBJECTID":65290},"geometry":{"x":177940.13000000082,"y":2549143.2600000016}},{"attributes":{"ID":65291,"DIS_CODE":0,"TOWNNAME":"新化區","LI":"\u25A0拔里","LIN":"8鄰","STREET":" ","SECT":" ","MAREA":"\u25A0拔林","LANE":" ","ALLEY":" ","HOUSE_NO":"３２１號之２","E_COORD97":183441.57999999999,"N_COORD97":2551811.2599999998,"ADDRESS":"\u25A0拔林３２１號之２","OBJECTID":65291},"geometry":{"x":183441.58000000007,"y":2551811.2600000016}},{"attributes":{"ID":65292,"DIS_CODE":0,"TOWNNAME":"新化區","LI":"太平里","LIN":"8鄰","STREET":"中正路","SECT":" ","MAREA":" ","LANE":" ","ALLEY":" ","HOUSE_NO":"６０６號","E_COORD97":178749.31,"N_COORD97":2549253.25,"ADDRESS":"中正路６０６號","OBJECTID":65292},"geometry":{"x":178749.30999999959,"y":2549253.25}},{"attributes":{"ID":65293,"DIS_CODE":0,"TOWNNAME":"新化區","LI":"\u25A0拔里","LIN":"8鄰","STREET":" ","SECT":" ","MAREA":"\u25A0拔林","LANE":" ","ALLEY":" ","HOUSE_NO":"３１０號之６","E_COORD97":183516.76999999999,"N_COORD97":2551915.2599999998,"ADDRESS":"\u25A0拔林３１０號之６","OBJECTID":65293},"geometry":{"x":183516.76999999862,"y":2551915.2600000035}},{"attributes":{"ID":65294,"DIS_CODE":0,"TOWNNAME":"新化區","LI":"唪口里","LIN":"8鄰","STREET":" ","SECT":" ","MAREA":"唪口","LANE":" ","ALLEY":" ","HOUSE_NO":"８７號","E_COORD97":178032.79999999999,"N_COORD97":2549124.25,"ADDRESS":"唪口８７號","OBJECTID":65294},"geometry":{"x":178032.79999999981,"y":2549124.25}},{"attributes":{"ID":65295,"DIS_CODE":0,"TOWNNAME":"新化區","LI":"唪口里","LIN":"8鄰","STREET":" ","SECT":" ","MAREA":"唪口","LANE":" ","ALLEY":" ","HOUSE_NO":"９３號之３","E_COORD97":177961.23999999999,"N_COORD97":2549123.2599999998,"ADDRESS":"唪口９３號之３","OBJECTID":65295},"geometry":{"x":177961.24000000115,"y":2549123.2599999998}},{"attributes":{"ID":65296,"DIS_CODE":0,"TOWNNAME":"白河區","LI":"詔安里","LIN":"8鄰","STREET":" ","SECT":" ","MAREA":"詔安厝","LANE":" ","ALLEY":" ","HOUSE_NO":"８９之１號","E_COORD97":189877.79000000001,"N_COORD97":2587826.04,"ADDRESS":"詔安厝８９之１號","OBJECTID":65296},"geometry":{"x":189877.79000000097,"y":2587826.0399999991}},{"attributes":{"ID":65297,"DIS_CODE":0,"TOWNNAME":"白河區","LI":"詔安里","LIN":"8鄰","STREET":" ","SECT":" ","MAREA":"詔安厝","LANE":" ","ALLEY":" ","HOUSE_NO":"８９號","E_COORD97":189868.34,"N_COORD97":2587850.5499999998,"ADDRESS":"詔安厝８９號","OBJECTID":65297},"geometry":{"x":189868.33999999985,"y":2587850.5500000007}},{"attributes":{"ID":65298,"DIS_CODE":0,"TOWNNAME":"白河區","LI":"詔安里","LIN":"8鄰","STREET":" ","SECT":" ","MAREA":"詔安厝","LANE":" ","ALLEY":" ","HOUSE_NO":"９０號","E_COORD97":189885.07000000001,"N_COORD97":2587851.1699999999,"ADDRESS":"詔安厝９０號","OBJECTID":65298},"geometry":{"x":189885.07000000123,"y":2587851.1700000018}},{"attributes":{"ID":65299,"DIS_CODE":0,"TOWNNAME":"白河區","LI":"詔安里","LIN":"8鄰","STREET":" ","SECT":" ","MAREA":"詔安厝","LANE":" ","ALLEY":" ","HOUSE_NO":"９２號","E_COORD97":189861.94,"N_COORD97":2587842.02,"ADDRESS":"詔安厝９２號","OBJECTID":65299},"geometry":{"x":189861.94000000134,"y":2587842.0200000014}},{"attributes":{"ID":65300,"DIS_CODE":0,"TOWNNAME":"白河區","LI":"詔安里","LIN":"8鄰","STREET":" ","SECT":" ","MAREA":"詔安厝","LANE":" ","ALLEY":" ","HOUSE_NO":"９３號","E_COORD97":189867.81,"N_COORD97":2587867.5,"ADDRESS":"詔安厝９３號","OBJECTID":65300},"geometry":{"x":189867.80999999959,"y":2587867.5}},{"attributes":{"ID":65301,"DIS_CODE":0,"TOWNNAME":"白河區","LI":"詔安里","LIN":"8鄰","STREET":" ","SECT":" ","MAREA":"詔安厝","LANE":" ","ALLEY":" ","HOUSE_NO":"９５號","E_COORD97":189848.76999999999,"N_COORD97":2587848.48,"ADDRESS":"詔安厝９５號","OBJECTID":65301},"geometry":{"x":189848.77000000048,"y":2587848.4800000004}},{"attributes":{"ID":65302,"DIS_CODE":0,"TOWNNAME":"白河區","LI":"蓮潭里","LIN":"8鄰","STREET":" ","SECT":" ","MAREA":"蓮潭","LANE":" ","ALLEY":" ","HOUSE_NO":"１７之１號","E_COORD97":188874.67000000001,"N_COORD97":2588596.71,"ADDRESS":"蓮潭１７之１號","OBJECTID":65302},"geometry":{"x":188874.67000000179,"y":2588596.7100000009}},{"attributes":{"ID":65303,"DIS_CODE":0,"TOWNNAME":"白河區","LI":"蓮潭里","LIN":"8鄰","STREET":" ","SECT":" ","MAREA":"蓮潭","LANE":" ","ALLEY":" ","HOUSE_NO":"１７號","E_COORD97":188863.07000000001,"N_COORD97":2588584.9399999999,"ADDRESS":"蓮潭１７號","OBJECTID":65303},"geometry":{"x":188863.07000000123,"y":2588584.9400000013}},{"attributes":{"ID":65304,"DIS_CODE":0,"TOWNNAME":"白河區","LI":"蓮潭里","LIN":"8鄰","STREET":" ","SECT":" ","MAREA":"蓮潭","LANE":" ","ALLEY":" ","HOUSE_NO":"１８之１號","E_COORD97":188887.28,"N_COORD97":2588589.0499999998,"ADDRESS":"蓮潭１８之１號","OBJECTID":65304},"geometry":{"x":188887.28000000026,"y":2588589.0500000026}},{"attributes":{"ID":65305,"DIS_CODE":0,"TOWNNAME":"白河區","LI":"蓮潭里","LIN":"8鄰","STREET":" ","SECT":" ","MAREA":"蓮潭","LANE":" ","ALLEY":" ","HOUSE_NO":"１９之１號","E_COORD97":188850.92999999999,"N_COORD97":2588613.1400000001,"ADDRESS":"蓮潭１９之１號","OBJECTID":65305},"geometry":{"x":188850.93000000063,"y":2588613.1400000006}},{"attributes":{"ID":65306,"DIS_CODE":0,"TOWNNAME":"白河區","LI":"蓮潭里","LIN":"8鄰","STREET":" ","SECT":" ","MAREA":"蓮潭","LANE":" ","ALLEY":" ","HOUSE_NO":"１９之２號","E_COORD97":188846.32999999999,"N_COORD97":2588624.6499999999,"ADDRESS":"蓮潭１９之２號","OBJECTID":65306},"geometry":{"x":188846.33000000007,"y":2588624.6500000022}},{"attributes":{"ID":65307,"DIS_CODE":0,"TOWNNAME":"白河區","LI":"蓮潭里","LIN":"8鄰","STREET":" ","SECT":" ","MAREA":"蓮潭","LANE":" ","ALLEY":" ","HOUSE_NO":"１９號","E_COORD97":188850.20000000001,"N_COORD97":2588593.77,"ADDRESS":"蓮潭１９號","OBJECTID":65307},"geometry":{"x":188850.20000000112,"y":2588593.7699999996}},{"attributes":{"ID":65308,"DIS_CODE":0,"TOWNNAME":"白河區","LI":"蓮潭里","LIN":"8鄰","STREET":" ","SECT":" ","MAREA":"蓮潭","LANE":" ","ALLEY":" ","HOUSE_NO":"１之２號","E_COORD97":188783.35999999999,"N_COORD97":2588523.1499999999,"ADDRESS":"蓮潭１之２號","OBJECTID":65308},"geometry":{"x":188783.36000000034,"y":2588523.1500000022}},{"attributes":{"ID":65309,"DIS_CODE":0,"TOWNNAME":"白河區","LI":"蓮潭里","LIN":"8鄰","STREET":" ","SECT":" ","MAREA":"蓮潭","LANE":" ","ALLEY":" ","HOUSE_NO":"１之３號","E_COORD97":188774.38,"N_COORD97":2588518.0600000001,"ADDRESS":"蓮潭１之３號","OBJECTID":65309},"geometry":{"x":188774.37999999989,"y":2588518.0600000005}},{"attributes":{"ID":65310,"DIS_CODE":0,"TOWNNAME":"白河區","LI":"蓮潭里","LIN":"8鄰","STREET":" ","SECT":" ","MAREA":"蓮潭","LANE":" ","ALLEY":" ","HOUSE_NO":"１之６號","E_COORD97":188769.04999999999,"N_COORD97":2588489.5699999998,"ADDRESS":"蓮潭１之６號","OBJECTID":65310},"geometry":{"x":188769.05000000075,"y":2588489.5700000022}},{"attributes":{"ID":65311,"DIS_CODE":0,"TOWNNAME":"白河區","LI":"蓮潭里","LIN":"8鄰","STREET":" ","SECT":" ","MAREA":"蓮潭","LANE":" ","ALLEY":" ","HOUSE_NO":"２１號","E_COORD97":188834.44,"N_COORD97":2588635.9199999999,"ADDRESS":"蓮潭２１號","OBJECTID":65311},"geometry":{"x":188834.44000000227,"y":2588635.9200000018}},{"attributes":{"ID":65312,"DIS_CODE":0,"TOWNNAME":"白河區","LI":"蓮潭里","LIN":"8鄰","STREET":" ","SECT":" ","MAREA":"蓮潭","LANE":" ","ALLEY":" ","HOUSE_NO":"２２號","E_COORD97":188856.09,"N_COORD97":2588644.8900000001,"ADDRESS":"蓮潭２２號","OBJECTID":65312},"geometry":{"x":188856.08999999985,"y":2588644.8900000006}},{"attributes":{"ID":65313,"DIS_CODE":0,"TOWNNAME":"白河區","LI":"蓮潭里","LIN":"8鄰","STREET":" ","SECT":" ","MAREA":"蓮潭","LANE":" ","ALLEY":" ","HOUSE_NO":"２之１１號","E_COORD97":188970.37,"N_COORD97":2588445.9700000002,"ADDRESS":"蓮潭２之１１號","OBJECTID":65313},"geometry":{"x":188970.37000000104,"y":2588445.9700000044}},{"attributes":{"ID":65314,"DIS_CODE":0,"TOWNNAME":"善化區","LI":"什乃里","LIN":"1鄰","STREET":" ","SECT":" ","MAREA":"什乃","LANE":" ","ALLEY":" ","HOUSE_NO":"１５號","E_COORD97":176199.79999999999,"N_COORD97":2560555,"ADDRESS":"什乃１５號","OBJECTID":65314},"geometry":{"x":176199.79999999981,"y":2560555}},{"attributes":{"ID":65315,"DIS_CODE":0,"TOWNNAME":"善化區","LI":"什乃里","LIN":"1鄰","STREET":" ","SECT":" ","MAREA":"什乃","LANE":" ","ALLEY":" ","HOUSE_NO":"１３號之５","E_COORD97":176194.54000000001,"N_COORD97":2560502.27,"ADDRESS":"什乃１３號之５","OBJECTID":65315},"geometry":{"x":176194.54000000097,"y":2560502.2699999996}},{"attributes":{"ID":65316,"DIS_CODE":0,"TOWNNAME":"善化區","LI":"牛庄里","LIN":"1鄰","STREET":" ","SECT":" ","MAREA":"牛庄","LANE":" ","ALLEY":" ","HOUSE_NO":"５號之２","E_COORD97":180225.54999999999,"N_COORD97":2559781.02,"ADDRESS":"牛庄５號之２","OBJECTID":65316},"geometry":{"x":180225.55000000075,"y":2559781.0199999996}},{"attributes":{"ID":65317,"DIS_CODE":0,"TOWNNAME":"善化區","LI":"溪美里","LIN":"1鄰","STREET":" ","SECT":" ","MAREA":"溪尾","LANE":" ","ALLEY":" ","HOUSE_NO":"８２２號","E_COORD97":176935.57000000001,"N_COORD97":2560320.02,"ADDRESS":"溪尾８２２號","OBJECTID":65317},"geometry":{"x":176935.57000000123,"y":2560320.0199999996}},{"attributes":{"ID":65318,"DIS_CODE":0,"TOWNNAME":"善化區","LI":"東昌里","LIN":"1鄰","STREET":" ","SECT":" ","MAREA":"東勢寮","LANE":" ","ALLEY":" ","HOUSE_NO":"１之５５號","E_COORD97":181523.5,"N_COORD97":2560786.27,"ADDRESS":"東勢寮１之５５號","OBJECTID":65318},"geometry":{"x":181523.5,"y":2560786.2699999996}},{"attributes":{"ID":65319,"DIS_CODE":0,"TOWNNAME":"善化區","LI":"嘉北里","LIN":"1鄰","STREET":" ","SECT":" ","MAREA":"茄拔","LANE":" ","ALLEY":" ","HOUSE_NO":"１之３８號","E_COORD97":181042.22,"N_COORD97":2560302.77,"ADDRESS":"茄拔１之３８號","OBJECTID":65319},"geometry":{"x":181042.21999999974,"y":2560302.7700000033}},{"attributes":{"ID":65320,"DIS_CODE":0,"TOWNNAME":"善化區","LI":"溪美里","LIN":"1鄰","STREET":" ","SECT":" ","MAREA":"溪尾","LANE":" ","ALLEY":" ","HOUSE_NO":"６８１號之１３","E_COORD97":177113.67999999999,"N_COORD97":2560835.27,"ADDRESS":"溪尾６８１號之１３","OBJECTID":65320},"geometry":{"x":177113.68000000063,"y":2560835.2700000014}},{"attributes":{"ID":65321,"DIS_CODE":0,"TOWNNAME":"善化區","LI":"東昌里","LIN":"1鄰","STREET":" ","SECT":" ","MAREA":"東勢寮","LANE":" ","ALLEY":" ","HOUSE_NO":"１號之５３","E_COORD97":181512.92999999999,"N_COORD97":2560773.77,"ADDRESS":"東勢寮１號之５３","OBJECTID":65321},"geometry":{"x":181512.93000000063,"y":2560773.7700000033}},{"attributes":{"ID":65322,"DIS_CODE":0,"TOWNNAME":"善化區","LI":"東昌里","LIN":"1鄰","STREET":" ","SECT":" ","MAREA":"東勢寮","LANE":" ","ALLEY":" ","HOUSE_NO":"２號","E_COORD97":181047.22,"N_COORD97":2561922.5099999998,"ADDRESS":"東勢寮２號","OBJECTID":65322},"geometry":{"x":181047.21999999974,"y":2561922.5100000016}},{"attributes":{"ID":65323,"DIS_CODE":0,"TOWNNAME":"西港區","LI":"營西里","LIN":"8鄰","STREET":" ","SECT":" ","MAREA":"後營","LANE":" ","ALLEY":" ","HOUSE_NO":"７０號之４","E_COORD97":169581.47,"N_COORD97":2560457.2000000002,"ADDRESS":"後營７０號之４","OBJECTID":65323},"geometry":{"x":169581.47000000067,"y":2560457.1999999993}},{"attributes":{"ID":65324,"DIS_CODE":0,"TOWNNAME":"西港區","LI":"營西里","LIN":"8鄰","STREET":" ","SECT":" ","MAREA":"後營","LANE":" ","ALLEY":" ","HOUSE_NO":"７０號之５","E_COORD97":169585.82000000001,"N_COORD97":2560456.8300000001,"ADDRESS":"後營７０號之５","OBJECTID":65324},"geometry":{"x":169585.8200000003,"y":2560456.8300000019}},{"attributes":{"ID":65325,"DIS_CODE":0,"TOWNNAME":"西港區","LI":"營西里","LIN":"8鄰","STREET":" ","SECT":" ","MAREA":"後營","LANE":" ","ALLEY":" ","HOUSE_NO":"７０號之６","E_COORD97":169590.17000000001,"N_COORD97":2560456.46,"ADDRESS":"後營７０號之６","OBJECTID":65325},"geometry":{"x":169590.16999999899,"y":2560456.4600000028}},{"attributes":{"ID":65326,"DIS_CODE":0,"TOWNNAME":"安南區","LI":"城南里","LIN":"6鄰","STREET":"青砂街","SECT":"一段","MAREA":" ","LANE":"６５巷","ALLEY":"６１弄","HOUSE_NO":"４３之１８號","E_COORD97":160432.44,"N_COORD97":2551539.1800000002,"ADDRESS":"青砂街一段６５巷６１弄４３之１８號","OBJECTID":65326},"geometry":{"x":160432.44000000041,"y":2551539.1800000034}},{"attributes":{"ID":65327,"DIS_CODE":0,"TOWNNAME":"永康區","LI":"正強里","LIN":"6鄰","STREET":"自強路","SECT":" ","MAREA":" ","LANE":"３３０巷","ALLEY":"９弄","HOUSE_NO":"２２號","E_COORD97":173508.70000000001,"N_COORD97":2547712.7000000002,"ADDRESS":"自強路３３０巷９弄２２號","OBJECTID":65327},"geometry":{"x":173508.70000000112,"y":2547712.6999999993}},{"attributes":{"ID":65328,"DIS_CODE":0,"TOWNNAME":"安南區","LI":"長安里","LIN":"6鄰","STREET":"長溪路","SECT":"三段","MAREA":" ","LANE":"４０５巷","ALLEY":"４０弄","HOUSE_NO":"７７之１號","E_COORD97":167425.82000000001,"N_COORD97":2551954.1499999999,"ADDRESS":"長溪路三段４０５巷４０弄７７之１號","OBJECTID":65328},"geometry":{"x":167425.8200000003,"y":2551954.1500000022}},{"attributes":{"ID":65329,"DIS_CODE":0,"TOWNNAME":"安南區","LI":"總頭里","LIN":"6鄰","STREET":"長溪路","SECT":"二段","MAREA":" ","LANE":"５７０巷","ALLEY":"８１弄","HOUSE_NO":"３６０之６號","E_COORD97":168842.91,"N_COORD97":2550609.6000000001,"ADDRESS":"長溪路二段５７０巷８１弄３６０之６號","OBJECTID":65329},"geometry":{"x":168842.90999999922,"y":2550609.5999999996}},{"attributes":{"ID":65330,"DIS_CODE":0,"TOWNNAME":"安南區","LI":"淵中里","LIN":"6鄰","STREET":"本田路","SECT":"三段","MAREA":" ","LANE":"６８３巷","ALLEY":"４０弄","HOUSE_NO":"１號","E_COORD97":164920.10999999999,"N_COORD97":2550011.75,"ADDRESS":"本田路三段６８３巷４０弄１號","OBJECTID":65330},"geometry":{"x":164920.11000000034,"y":2550011.75}},{"attributes":{"ID":65331,"DIS_CODE":0,"TOWNNAME":"安南區","LI":"淵中里","LIN":"6鄰","STREET":"本田路","SECT":"三段","MAREA":" ","LANE":"６８３巷","ALLEY":"４０弄","HOUSE_NO":"１７號","E_COORD97":164878.04999999999,"N_COORD97":2549919.0499999998,"ADDRESS":"本田路三段６８３巷４０弄１７號","OBJECTID":65331},"geometry":{"x":164878.04999999981,"y":2549919.0500000007}},{"attributes":{"ID":65332,"DIS_CODE":0,"TOWNNAME":"安南區","LI":"淵中里","LIN":"6鄰","STREET":"本田路","SECT":"三段","MAREA":" ","LANE":"６８３巷","ALLEY":"４０弄","HOUSE_NO":"１５號","E_COORD97":164881.54000000001,"N_COORD97":2549926.1899999999,"ADDRESS":"本田路三段６８３巷４０弄１５號","OBJECTID":65332},"geometry":{"x":164881.54000000004,"y":2549926.1900000013}},{"attributes":{"ID":65333,"DIS_CODE":0,"TOWNNAME":"安南區","LI":"淵中里","LIN":"6鄰","STREET":"本田路","SECT":"三段","MAREA":" ","LANE":"６８３巷","ALLEY":"４０弄","HOUSE_NO":"１３號","E_COORD97":164883.76000000001,"N_COORD97":2549931.75,"ADDRESS":"本田路三段６８３巷４０弄１３號","OBJECTID":65333},"geometry":{"x":164883.76000000164,"y":2549931.7499999981}},{"attributes":{"ID":65334,"DIS_CODE":0,"TOWNNAME":"安南區","LI":"淵中里","LIN":"6鄰","STREET":"本田路","SECT":"三段","MAREA":" ","LANE":"６８３巷","ALLEY":"４０弄","HOUSE_NO":"１１號","E_COORD97":164886.14999999999,"N_COORD97":2549935.7200000002,"ADDRESS":"本田路三段６８３巷４０弄１１號","OBJECTID":65334},"geometry":{"x":164886.15000000037,"y":2549935.7200000007}},{"attributes":{"ID":65335,"DIS_CODE":0,"TOWNNAME":"安南區","LI":"淵中里","LIN":"6鄰","STREET":"本田路","SECT":"三段","MAREA":" ","LANE":"６８３巷","ALLEY":"４０弄","HOUSE_NO":"１９號","E_COORD97":164870.10999999999,"N_COORD97":2549900.1600000001,"ADDRESS":"本田路三段６８３巷４０弄１９號","OBJECTID":65335},"geometry":{"x":164870.1100000022,"y":2549900.160000002}},{"attributes":{"ID":65336,"DIS_CODE":0,"TOWNNAME":"安南區","LI":"淵中里","LIN":"6鄰","STREET":"本田路","SECT":"三段","MAREA":" ","LANE":"６８３巷","ALLEY":"４０弄","HOUSE_NO":"２１號","E_COORD97":164868.04999999999,"N_COORD97":2549897.2999999998,"ADDRESS":"本田路三段６８３巷４０弄２１號","OBJECTID":65336},"geometry":{"x":164868.04999999888,"y":2549897.3000000007}},{"attributes":{"ID":65337,"DIS_CODE":0,"TOWNNAME":"安南區","LI":"淵中里","LIN":"6鄰","STREET":"本田路","SECT":"三段","MAREA":" ","LANE":"６８３巷","ALLEY":"４０弄","HOUSE_NO":"２３號","E_COORD97":164866.94,"N_COORD97":2549894.6000000001,"ADDRESS":"本田路三段６８３巷４０弄２３號","OBJECTID":65337},"geometry":{"x":164866.94000000134,"y":2549894.5999999996}},{"attributes":{"ID":65338,"DIS_CODE":0,"TOWNNAME":"安南區","LI":"淵中里","LIN":"6鄰","STREET":"本田路","SECT":"三段","MAREA":" ","LANE":"６８３巷","ALLEY":"４０弄","HOUSE_NO":"２５號","E_COORD97":164865.35000000001,"N_COORD97":2549891.27,"ADDRESS":"本田路三段６８３巷４０弄２５號","OBJECTID":65338},"geometry":{"x":164865.34999999963,"y":2549891.2700000014}},{"attributes":{"ID":65339,"DIS_CODE":0,"TOWNNAME":"西港區","LI":"慶安里","LIN":"8鄰","STREET":"新興街","SECT":" ","MAREA":" ","LANE":" ","ALLEY":" ","HOUSE_NO":"１２１號","E_COORD97":168184.76999999999,"N_COORD97":2558239.7200000002,"ADDRESS":"新興街１２１號","OBJECTID":65339},"geometry":{"x":168184.76999999955,"y":2558239.7200000025}},{"attributes":{"ID":65340,"DIS_CODE":0,"TOWNNAME":"西港區","LI":"慶安里","LIN":"8鄰","STREET":"新興街","SECT":" ","MAREA":" ","LANE":" ","ALLEY":" ","HOUSE_NO":"１２３號","E_COORD97":168184.5,"N_COORD97":2558244.1600000001,"ADDRESS":"新興街１２３號","OBJECTID":65340},"geometry":{"x":168184.50000000186,"y":2558244.160000002}},{"attributes":{"ID":65341,"DIS_CODE":0,"TOWNNAME":"西港區","LI":"慶安里","LIN":"8鄰","STREET":"新興街","SECT":" ","MAREA":" ","LANE":" ","ALLEY":" ","HOUSE_NO":"１２５號","E_COORD97":168184.42999999999,"N_COORD97":2558248.3300000001,"ADDRESS":"新興街１２５號","OBJECTID":65341},"geometry":{"x":168184.4299999997,"y":2558248.3300000038}},{"attributes":{"ID":65342,"DIS_CODE":0,"TOWNNAME":"西港區","LI":"慶安里","LIN":"8鄰","STREET":"新興街","SECT":" ","MAREA":" ","LANE":" ","ALLEY":" ","HOUSE_NO":"１２７號","E_COORD97":168184.42999999999,"N_COORD97":2558253.1299999999,"ADDRESS":"新興街１２７號","OBJECTID":65342},"geometry":{"x":168184.4299999997,"y":2558253.1300000008}},{"attributes":{"ID":65343,"DIS_CODE":0,"TOWNNAME":"西港區","LI":"西港里","LIN":" ","STREET":"中山路","SECT":" ","MAREA":" ","LANE":" ","ALLEY":" ","HOUSE_NO":"８之５號","E_COORD97":168470.06,"N_COORD97":2557019.8999999999,"ADDRESS":"中山路８之５號","OBJECTID":65343},"geometry":{"x":168470.05999999866,"y":2557019.9000000004}},{"attributes":{"ID":65344,"DIS_CODE":0,"TOWNNAME":"西港區","LI":"西港里","LIN":" ","STREET":"中山路","SECT":" ","MAREA":" ","LANE":" ","ALLEY":" ","HOUSE_NO":"８之７號","E_COORD97":168471.26000000001,"N_COORD97":2557030.3999999999,"ADDRESS":"中山路８之７號","OBJECTID":65344},"geometry":{"x":168471.26000000071,"y":2557030.4000000004}},{"attributes":{"ID":65345,"DIS_CODE":0,"TOWNNAME":"西港區","LI":"金砂里","LIN":"8鄰","STREET":" ","SECT":" ","MAREA":"新寮","LANE":" ","ALLEY":" ","HOUSE_NO":"４號之１","E_COORD97":168354.45000000001,"N_COORD97":2561749.04,"ADDRESS":"新寮４號之１","OBJECTID":65345},"geometry":{"x":168354.44999999925,"y":2561749.040000001}},{"attributes":{"ID":65346,"DIS_CODE":0,"TOWNNAME":"西港區","LI":"金砂里","LIN":"8鄰","STREET":" ","SECT":" ","MAREA":"新寮","LANE":" ","ALLEY":" ","HOUSE_NO":"４號之２","E_COORD97":168358.54999999999,"N_COORD97":2561718.8500000001,"ADDRESS":"新寮４號之２","OBJECTID":65346},"geometry":{"x":168358.55000000168,"y":2561718.8499999996}},{"attributes":{"ID":65347,"DIS_CODE":0,"TOWNNAME":"西港區","LI":"金砂里","LIN":"8鄰","STREET":" ","SECT":" ","MAREA":"新寮","LANE":" ","ALLEY":" ","HOUSE_NO":"６號之１","E_COORD97":168299.73000000001,"N_COORD97":2561740.8300000001,"ADDRESS":"新寮６號之１","OBJECTID":65347},"geometry":{"x":168299.73000000045,"y":2561740.8300000019}},{"attributes":{"ID":65348,"DIS_CODE":0,"TOWNNAME":"西港區","LI":"金砂里","LIN":"8鄰","STREET":" ","SECT":" ","MAREA":"新寮","LANE":" ","ALLEY":" ","HOUSE_NO":"６號之２","E_COORD97":168298.95000000001,"N_COORD97":2561745.04,"ADDRESS":"新寮６號之２","OBJECTID":65348},"geometry":{"x":168298.95000000112,"y":2561745.040000001}},{"attributes":{"ID":65349,"DIS_CODE":0,"TOWNNAME":"西港區","LI":"西港里","LIN":" ","STREET":"中山路","SECT":" ","MAREA":" ","LANE":" ","ALLEY":" ","HOUSE_NO":"８之８號","E_COORD97":168472.29000000001,"N_COORD97":2557034.3599999999,"ADDRESS":"中山路８之８號","OBJECTID":65349},"geometry":{"x":168472.29000000004,"y":2557034.3600000013}},{"attributes":{"ID":65350,"DIS_CODE":0,"TOWNNAME":"西港區","LI":"慶安里","LIN":" ","STREET":"中山路","SECT":" ","MAREA":" ","LANE":" ","ALLEY":" ","HOUSE_NO":"９９之３號","E_COORD97":168453.07000000001,"N_COORD97":2557424.8799999999,"ADDRESS":"中山路９９之３號","OBJECTID":65350},"geometry":{"x":168453.0700000003,"y":2557424.879999999}},{"attributes":{"ID":65351,"DIS_CODE":0,"TOWNNAME":"安南區","LI":"淵中里","LIN":"6鄰","STREET":"本田路","SECT":"三段","MAREA":" ","LANE":"６８３巷","ALLEY":"４０弄","HOUSE_NO":"２７號","E_COORD97":164863.76000000001,"N_COORD97":2549887.2999999998,"ADDRESS":"本田路三段６８３巷４０弄２７號","OBJECTID":65351},"geometry":{"x":164863.76000000071,"y":2549887.3000000007}},{"attributes":{"ID":65352,"DIS_CODE":0,"TOWNNAME":"安南區","LI":"淵中里","LIN":"6鄰","STREET":"本田路","SECT":"三段","MAREA":" ","LANE":"６８３巷","ALLEY":"４０弄","HOUSE_NO":"２９號","E_COORD97":164862.01999999999,"N_COORD97":2549883.6499999999,"ADDRESS":"本田路三段６８３巷４０弄２９號","OBJECTID":65352},"geometry":{"x":164862.02000000048,"y":2549883.6500000022}},{"attributes":{"ID":65353,"DIS_CODE":0,"TOWNNAME":"安南區","LI":"淵中里","LIN":"6鄰","STREET":"本田路","SECT":"三段","MAREA":" ","LANE":"６８３巷","ALLEY":"４０弄","HOUSE_NO":"９號","E_COORD97":164887.73000000001,"N_COORD97":2549941.1200000001,"ADDRESS":"本田路三段６８３巷４０弄９號","OBJECTID":65353},"geometry":{"x":164887.73000000045,"y":2549941.1200000029}},{"attributes":{"ID":65354,"DIS_CODE":0,"TOWNNAME":"安南區","LI":"淵中里","LIN":"6鄰","STREET":"本田路","SECT":"三段","MAREA":" ","LANE":"６８３巷","ALLEY":"４０弄","HOUSE_NO":"７號","E_COORD97":164889.64000000001,"N_COORD97":2549944.6099999999,"ADDRESS":"本田路三段６８３巷４０弄７號","OBJECTID":65354},"geometry":{"x":164889.6400000006,"y":2549944.6099999994}},{"attributes":{"ID":65355,"DIS_CODE":0,"TOWNNAME":"安南區","LI":"淵中里","LIN":"6鄰","STREET":"本田路","SECT":"三段","MAREA":" ","LANE":"６８３巷","ALLEY":"４０弄","HOUSE_NO":"５號","E_COORD97":164891.07000000001,"N_COORD97":2549948.1000000001,"ADDRESS":"本田路三段６８３巷４０弄５號","OBJECTID":65355},"geometry":{"x":164891.07000000123,"y":2549948.0999999996}},{"attributes":{"ID":65356,"DIS_CODE":0,"TOWNNAME":"安南區","LI":"淵中里","LIN":"6鄰","STREET":"本田路","SECT":"三段","MAREA":" ","LANE":"６８３巷","ALLEY":"４０弄","HOUSE_NO":"３號","E_COORD97":164893.45000000001,"N_COORD97":2549951.5899999999,"ADDRESS":"本田路三段６８３巷４０弄３號","OBJECTID":65356},"geometry":{"x":164893.45000000112,"y":2549951.5899999999}},{"attributes":{"ID":65357,"DIS_CODE":0,"TOWNNAME":"安南區","LI":"城西里","LIN":"6鄰","STREET":"城西街","SECT":"三段","MAREA":" ","LANE":"５０１巷","ALLEY":"１４２弄","HOUSE_NO":"２５之１號","E_COORD97":157095.07000000001,"N_COORD97":2550473.3700000001,"ADDRESS":"城西街三段５０１巷１４２弄２５之１號","OBJECTID":65357},"geometry":{"x":157095.07000000123,"y":2550473.370000001}},{"attributes":{"ID":65358,"DIS_CODE":0,"TOWNNAME":"西港區","LI":"慶安里","LIN":"8鄰","STREET":"新興街","SECT":" ","MAREA":" ","LANE":" ","ALLEY":" ","HOUSE_NO":"１４５號","E_COORD97":168200.12,"N_COORD97":2558313.46,"ADDRESS":"新興街１４５號","OBJECTID":65358},"geometry":{"x":168200.12000000011,"y":2558313.4600000028}},{"attributes":{"ID":65359,"DIS_CODE":0,"TOWNNAME":"西港區","LI":"西港里","LIN":" ","STREET":"文化路","SECT":" ","MAREA":" ","LANE":" ","ALLEY":" ","HOUSE_NO":"２６號","E_COORD97":168562.85000000001,"N_COORD97":2558164.3599999999,"ADDRESS":"文化路２６號","OBJECTID":65359},"geometry":{"x":168562.84999999963,"y":2558164.3599999994}},{"attributes":{"ID":65360,"DIS_CODE":0,"TOWNNAME":"西港區","LI":"西港里","LIN":" ","STREET":"文化路","SECT":" ","MAREA":" ","LANE":" ","ALLEY":" ","HOUSE_NO":"４１號","E_COORD97":168574.20999999999,"N_COORD97":2558255,"ADDRESS":"文化路４１號","OBJECTID":65360},"geometry":{"x":168574.20999999996,"y":2558255.0000000019}},{"attributes":{"ID":65361,"DIS_CODE":0,"TOWNNAME":"西港區","LI":"西港里","LIN":" ","STREET":"文化路","SECT":" ","MAREA":" ","LANE":" ","ALLEY":" ","HOUSE_NO":"５２號","E_COORD97":168653.23000000001,"N_COORD97":2558209.5600000001,"ADDRESS":"文化路５２號","OBJECTID":65361},"geometry":{"x":168653.23000000138,"y":2558209.5599999987}},{"attributes":{"ID":65362,"DIS_CODE":0,"TOWNNAME":"西港區","LI":"西港里","LIN":" ","STREET":"文化路","SECT":" ","MAREA":" ","LANE":" ","ALLEY":" ","HOUSE_NO":"６０號","E_COORD97":168711.45999999999,"N_COORD97":2558217.5800000001,"ADDRESS":"文化路６０號","OBJECTID":65362},"geometry":{"x":168711.45999999996,"y":2558217.5800000019}},{"attributes":{"ID":65363,"DIS_CODE":0,"TOWNNAME":"西港區","LI":"慶安里","LIN":" ","STREET":"進學街","SECT":" ","MAREA":" ","LANE":" ","ALLEY":" ","HOUSE_NO":"１２號","E_COORD97":168293.13,"N_COORD97":2558079.6099999999,"ADDRESS":"進學街１２號","OBJECTID":65363},"geometry":{"x":168293.12999999989,"y":2558079.6100000031}},{"attributes":{"ID":65364,"DIS_CODE":0,"TOWNNAME":"西港區","LI":"新復里","LIN":"8鄰","STREET":" ","SECT":" ","MAREA":"溪埔寮","LANE":" ","ALLEY":" ","HOUSE_NO":"３號","E_COORD97":166545.06,"N_COORD97":2554077.2599999998,"ADDRESS":"溪埔寮３號","OBJECTID":65364},"geometry":{"x":166545.06000000052,"y":2554077.2599999998}},{"attributes":{"ID":65365,"DIS_CODE":0,"TOWNNAME":"西港區","LI":"新復里","LIN":"8鄰","STREET":" ","SECT":" ","MAREA":"溪埔寮","LANE":" ","ALLEY":" ","HOUSE_NO":"１之５５號","E_COORD97":166326.62,"N_COORD97":2554592.6400000001,"ADDRESS":"溪埔寮１之５５號","OBJECTID":65365},"geometry":{"x":166326.62000000104,"y":2554592.6400000025}},{"attributes":{"ID":65366,"DIS_CODE":0,"TOWNNAME":"永康區","LI":"正強里","LIN":"6鄰","STREET":"自強路","SECT":" ","MAREA":" ","LANE":"３３０巷","ALLEY":"２１弄","HOUSE_NO":"３號","E_COORD97":173458.85000000001,"N_COORD97":2547650.25,"ADDRESS":"自強路３３０巷２１弄３號","OBJECTID":65366},"geometry":{"x":173458.85000000149,"y":2547650.2500000037}},{"attributes":{"ID":65367,"DIS_CODE":0,"TOWNNAME":"永康區","LI":"正強里","LIN":"6鄰","STREET":"自強路","SECT":" ","MAREA":" ","LANE":"３３０巷","ALLEY":"９弄","HOUSE_NO":"１５號","E_COORD97":173485.14000000001,"N_COORD97":2547707.2400000002,"ADDRESS":"自強路３３０巷９弄１５號","OBJECTID":65367},"geometry":{"x":173485.13999999966,"y":2547707.2400000002}},{"attributes":{"ID":65368,"DIS_CODE":0,"TOWNNAME":"永康區","LI":"正強里","LIN":"6鄰","STREET":"自強路","SECT":" ","MAREA":" ","LANE":"３３０巷","ALLEY":"２１弄","HOUSE_NO":"１３號","E_COORD97":173480.48999999999,"N_COORD97":2547657,"ADDRESS":"自強路３３０巷２１弄１３號","OBJECTID":65368},"geometry":{"x":173480.48999999929,"y":2547657.0000000019}},{"attributes":{"ID":65369,"DIS_CODE":0,"TOWNNAME":"永康區","LI":"正強里","LIN":"6鄰","STREET":"自強路","SECT":" ","MAREA":" ","LANE":"３３０巷","ALLEY":"９弄","HOUSE_NO":"２１號","E_COORD97":173499.28,"N_COORD97":2547717.9900000002,"ADDRESS":"自強路３３０巷９弄２１號","OBJECTID":65369},"geometry":{"x":173499.28000000119,"y":2547717.9900000021}},{"attributes":{"ID":65370,"DIS_CODE":0,"TOWNNAME":"永康區","LI":"正強里","LIN":"6鄰","STREET":"自強路","SECT":" ","MAREA":" ","LANE":"３６８巷","ALLEY":"３弄","HOUSE_NO":"７號","E_COORD97":173528.60999999999,"N_COORD97":2547740.2400000002,"ADDRESS":"自強路３６８巷３弄７號","OBJECTID":65370},"geometry":{"x":173528.61000000034,"y":2547740.2400000021}},{"attributes":{"ID":65371,"DIS_CODE":0,"TOWNNAME":"永康區","LI":"正強里","LIN":"6鄰","STREET":"自強路","SECT":" ","MAREA":" ","LANE":"３３０巷","ALLEY":"９弄","HOUSE_NO":"１９號","E_COORD97":173494.29999999999,"N_COORD97":2547714.4900000002,"ADDRESS":"自強路３３０巷９弄１９號","OBJECTID":65371},"geometry":{"x":173494.29999999981,"y":2547714.4900000021}},{"attributes":{"ID":65372,"DIS_CODE":0,"TOWNNAME":"永康區","LI":"正強里","LIN":"6鄰","STREET":"自強路","SECT":" ","MAREA":" ","LANE":"３６８巷","ALLEY":"３弄","HOUSE_NO":"１號","E_COORD97":173519.01999999999,"N_COORD97":2547732.4900000002,"ADDRESS":"自強路３６８巷３弄１號","OBJECTID":65372},"geometry":{"x":173519.02000000048,"y":2547732.4900000002}},{"attributes":{"ID":65373,"DIS_CODE":0,"TOWNNAME":"西港區","LI":"新復里","LIN":"8鄰","STREET":" ","SECT":" ","MAREA":"溪埔寮","LANE":" ","ALLEY":" ","HOUSE_NO":"１之５８號","E_COORD97":166273.23000000001,"N_COORD97":2554543.29,"ADDRESS":"溪埔寮１之５８號","OBJECTID":65373},"geometry":{"x":166273.23000000138,"y":2554543.290000001}},{"attributes":{"ID":65374,"DIS_CODE":0,"TOWNNAME":"永康區","LI":"正強里","LIN":"6鄰","STREET":"自強路","SECT":" ","MAREA":" ","LANE":"３３０巷","ALLEY":"９弄","HOUSE_NO":"２號","E_COORD97":173456.01999999999,"N_COORD97":2547672.5,"ADDRESS":"自強路３３０巷９弄２號","OBJECTID":65374},"geometry":{"x":173456.02000000142,"y":2547672.5000000037}},{"attributes":{"ID":65375,"DIS_CODE":0,"TOWNNAME":"永康區","LI":"烏竹里","LIN":"8鄰","STREET":"竹園二街","SECT":" ","MAREA":" ","LANE":" ","ALLEY":" ","HOUSE_NO":"７０號","E_COORD97":174357.64000000001,"N_COORD97":2549155.7400000002,"ADDRESS":"竹園二街７０號","OBJECTID":65375},"geometry":{"x":174357.6400000006,"y":2549155.7399999984}},{"attributes":{"ID":65376,"DIS_CODE":0,"TOWNNAME":"西港區","LI":"新復里","LIN":"8鄰","STREET":" ","SECT":" ","MAREA":"溪埔寮","LANE":" ","ALLEY":" ","HOUSE_NO":"１號之５","E_COORD97":166585.22,"N_COORD97":2554310.3799999999,"ADDRESS":"溪埔寮１號之５","OBJECTID":65376},"geometry":{"x":166585.21999999974,"y":2554310.3800000027}},{"attributes":{"ID":65377,"DIS_CODE":0,"TOWNNAME":"永康區","LI":"西橋里","LIN":"8鄰","STREET":"中華西街","SECT":" ","MAREA":" ","LANE":" ","ALLEY":" ","HOUSE_NO":"８３號","E_COORD97":170715.98000000001,"N_COORD97":2546082.4900000002,"ADDRESS":"中華西街８３號","OBJECTID":65377},"geometry":{"x":170715.98000000231,"y":2546082.4900000039}},{"attributes":{"ID":65378,"DIS_CODE":0,"TOWNNAME":"西港區","LI":"新復里","LIN":"8鄰","STREET":" ","SECT":" ","MAREA":"溪埔寮","LANE":" ","ALLEY":" ","HOUSE_NO":"１之６１號","E_COORD97":166375.01000000001,"N_COORD97":2554480.0800000001,"ADDRESS":"溪埔寮１之６１號","OBJECTID":65378},"geometry":{"x":166375.00999999978,"y":2554480.0800000019}},{"attributes":{"ID":65379,"DIS_CODE":0,"TOWNNAME":"西港區","LI":"新復里","LIN":"8鄰","STREET":" ","SECT":" ","MAREA":"溪埔寮","LANE":" ","ALLEY":" ","HOUSE_NO":"１之６５號","E_COORD97":166483.44,"N_COORD97":2554275.0099999998,"ADDRESS":"溪埔寮１之６５號","OBJECTID":65379},"geometry":{"x":166483.44000000227,"y":2554275.0099999998}},{"attributes":{"ID":65380,"DIS_CODE":0,"TOWNNAME":"善化區","LI":"溪美里","LIN":"1鄰","STREET":" ","SECT":" ","MAREA":"溪尾","LANE":" ","ALLEY":" ","HOUSE_NO":"７８１號","E_COORD97":177118.04000000001,"N_COORD97":2560567.02,"ADDRESS":"溪尾７８１號","OBJECTID":65380},"geometry":{"x":177118.04000000097,"y":2560567.0199999996}},{"attributes":{"ID":65381,"DIS_CODE":0,"TOWNNAME":"善化區","LI":"田寮里","LIN":"1鄰","STREET":" ","SECT":" ","MAREA":"六分寮","LANE":" ","ALLEY":" ","HOUSE_NO":"２２號","E_COORD97":178380.87,"N_COORD97":2561332.5,"ADDRESS":"六分寮２２號","OBJECTID":65381},"geometry":{"x":178380.87000000104,"y":2561332.5000000019}},{"attributes":{"ID":65382,"DIS_CODE":0,"TOWNNAME":"永康區","LI":"正強里","LIN":"6鄰","STREET":"自強路","SECT":" ","MAREA":" ","LANE":"３３０巷","ALLEY":"２１弄","HOUSE_NO":"１９號","E_COORD97":173495.17000000001,"N_COORD97":2547665.79,"ADDRESS":"自強路３３０巷２１弄１９號","OBJECTID":65382},"geometry":{"x":173495.16999999993,"y":2547665.7899999972}},{"attributes":{"ID":65383,"DIS_CODE":0,"TOWNNAME":"善化區","LI":"嘉北里","LIN":"1鄰","STREET":" ","SECT":" ","MAREA":"茄拔","LANE":" ","ALLEY":" ","HOUSE_NO":"２號之７","E_COORD97":181206.85999999999,"N_COORD97":2560271.02,"ADDRESS":"茄拔２號之７","OBJECTID":65383},"geometry":{"x":181206.86000000127,"y":2560271.0200000014}},{"attributes":{"ID":65384,"DIS_CODE":0,"TOWNNAME":"永康區","LI":"正強里","LIN":"6鄰","STREET":"自強路","SECT":" ","MAREA":" ","LANE":"３３０巷","ALLEY":"９弄","HOUSE_NO":"２０號","E_COORD97":173494,"N_COORD97":2547698.5,"ADDRESS":"自強路３３０巷９弄２０號","OBJECTID":65384},"geometry":{"x":173494.00000000093,"y":2547698.5}},{"attributes":{"ID":65385,"DIS_CODE":0,"TOWNNAME":"西港區","LI":"營西里","LIN":"1鄰","STREET":" ","SECT":" ","MAREA":"後營","LANE":" ","ALLEY":" ","HOUSE_NO":"３之６０號","E_COORD97":168652.41,"N_COORD97":2560602,"ADDRESS":"後營３之６０號","OBJECTID":65385},"geometry":{"x":168652.41000000015,"y":2560602}},{"attributes":{"ID":65386,"DIS_CODE":0,"TOWNNAME":"大內區","LI":"石湖里","LIN":"1鄰","STREET":" ","SECT":" ","MAREA":"石子瀨","LANE":" ","ALLEY":" ","HOUSE_NO":"２４６號","E_COORD97":184013.67000000001,"N_COORD97":2558364.25,"ADDRESS":"石子瀨２４６號","OBJECTID":65386},"geometry":{"x":184013.67000000086,"y":2558364.2500000019}},{"attributes":{"ID":65387,"DIS_CODE":0,"TOWNNAME":"永康區","LI":"正強里","LIN":"6鄰","STREET":"自強路","SECT":" ","MAREA":" ","LANE":"３６８巷","ALLEY":"３弄","HOUSE_NO":"１之１號","E_COORD97":173517.04999999999,"N_COORD97":2547729.54,"ADDRESS":"自強路３６８巷３弄１之１號","OBJECTID":65387},"geometry":{"x":173517.05000000168,"y":2547729.540000001}},{"attributes":{"ID":65388,"DIS_CODE":0,"TOWNNAME":"大內區","LI":"內郭里","LIN":"1鄰","STREET":" ","SECT":" ","MAREA":"內庄","LANE":" ","ALLEY":" ","HOUSE_NO":"１５３號之４","E_COORD97":184950.34,"N_COORD97":2557453.2999999998,"ADDRESS":"內庄１５３號之４","OBJECTID":65388},"geometry":{"x":184950.33999999985,"y":2557453.3000000026}},{"attributes":{"ID":65389,"DIS_CODE":0,"TOWNNAME":"永康區","LI":"正強里","LIN":"6鄰","STREET":"自強路","SECT":" ","MAREA":" ","LANE":"３３０巷","ALLEY":"２１弄","HOUSE_NO":"９號","E_COORD97":173471.09,"N_COORD97":2547655.04,"ADDRESS":"自強路３３０巷２１弄９號","OBJECTID":65389},"geometry":{"x":173471.09000000171,"y":2547655.040000001}},{"attributes":{"ID":65390,"DIS_CODE":0,"TOWNNAME":"永康區","LI":"正強里","LIN":"6鄰","STREET":"自強路","SECT":" ","MAREA":" ","LANE":"３３０巷","ALLEY":"９弄","HOUSE_NO":"１８號","E_COORD97":173490,"N_COORD97":2547695.5,"ADDRESS":"自強路３３０巷９弄１８號","OBJECTID":65390},"geometry":{"x":173490,"y":2547695.5}},{"attributes":{"ID":65391,"DIS_CODE":0,"TOWNNAME":"大內區","LI":"內郭里","LIN":"1鄰","STREET":" ","SECT":" ","MAREA":"內庄","LANE":" ","ALLEY":" ","HOUSE_NO":"１５５號之１","E_COORD97":184908.20999999999,"N_COORD97":2557445.2999999998,"ADDRESS":"內庄１５５號之１","OBJECTID":65391},"geometry":{"x":184908.21000000089,"y":2557445.2999999989}},{"attributes":{"ID":65392,"DIS_CODE":0,"TOWNNAME":"大內區","LI":"大內里","LIN":"1鄰","STREET":" ","SECT":" ","MAREA":"內庄","LANE":" ","ALLEY":" ","HOUSE_NO":"１號之６７","E_COORD97":184255.54000000001,"N_COORD97":2557583.2999999998,"ADDRESS":"內庄１號之６７","OBJECTID":65392},"geometry":{"x":184255.54000000004,"y":2557583.3000000007}},{"attributes":{"ID":65393,"DIS_CODE":0,"TOWNNAME":"大內區","LI":"內郭里","LIN":"1鄰","STREET":" ","SECT":" ","MAREA":"內庄","LANE":" ","ALLEY":" ","HOUSE_NO":"１６０之３０號","E_COORD97":185169.53,"N_COORD97":2557901.2999999998,"ADDRESS":"內庄１６０之３０號","OBJECTID":65393},"geometry":{"x":185169.53000000026,"y":2557901.3000000026}},{"attributes":{"ID":65394,"DIS_CODE":0,"TOWNNAME":"仁德區","LI":"仁義里","LIN":"10鄰","STREET":"中山路","SECT":" ","MAREA":" ","LANE":"５０９巷","ALLEY":"１８弄","HOUSE_NO":"２３號","E_COORD97":173476.35000000001,"N_COORD97":2541243.4399999999,"ADDRESS":"中山路５０９巷１８弄２３號","OBJECTID":65394},"geometry":{"x":173476.35000000056,"y":2541243.4399999995}},{"attributes":{"ID":65395,"DIS_CODE":0,"TOWNNAME":"安平區","LI":"石門里","LIN":"6鄰","STREET":"安北路","SECT":" ","MAREA":" ","LANE":"４０巷","ALLEY":"１７弄","HOUSE_NO":"２２號之６四樓","E_COORD97":164596.98999999999,"N_COORD97":2544700.6499999999,"ADDRESS":"安北路４０巷１７弄２２號之６四樓","OBJECTID":65395},"geometry":{"x":164596.99000000022,"y":2544700.6500000004}},{"attributes":{"ID":65396,"DIS_CODE":0,"TOWNNAME":"大內區","LI":"曲溪里","LIN":"1鄰","STREET":" ","SECT":" ","MAREA":"二重溪","LANE":" ","ALLEY":" ","HOUSE_NO":"２號","E_COORD97":187430.04000000001,"N_COORD97":2557670.3100000001,"ADDRESS":"二重溪２號","OBJECTID":65396},"geometry":{"x":187430.04000000097,"y":2557670.3100000024}},{"attributes":{"ID":65397,"DIS_CODE":0,"TOWNNAME":"大內區","LI":"大內里","LIN":"1鄰","STREET":" ","SECT":" ","MAREA":"內庄","LANE":" ","ALLEY":" ","HOUSE_NO":"１號之７６","E_COORD97":184285.57000000001,"N_COORD97":2557608.2999999998,"ADDRESS":"內庄１號之７６","OBJECTID":65397},"geometry":{"x":184285.57000000123,"y":2557608.3000000045}},{"attributes":{"ID":65398,"DIS_CODE":0,"TOWNNAME":"永康區","LI":"五王里","LIN":"6鄰","STREET":"中華二路","SECT":" ","MAREA":" ","LANE":"２０６巷","ALLEY":"６８弄","HOUSE_NO":"２０號三樓之３","E_COORD97":171648.07999999999,"N_COORD97":2545654.1000000001,"ADDRESS":"中華二路２０６巷６８弄２０號三樓之３","OBJECTID":65398},"geometry":{"x":171648.08000000101,"y":2545654.1000000034}},{"attributes":{"ID":65399,"DIS_CODE":0,"TOWNNAME":"中西區","LI":"永華里","LIN":"6鄰","STREET":"開山路","SECT":" ","MAREA":" ","LANE":"１２２巷","ALLEY":"５６弄","HOUSE_NO":"１３號一樓之２","E_COORD97":168567.07000000001,"N_COORD97":2543398.25,"ADDRESS":"開山路１２２巷５６弄１３號一樓之２","OBJECTID":65399},"geometry":{"x":168567.0700000003,"y":2543398.25}},{"attributes":{"ID":65400,"DIS_CODE":0,"TOWNNAME":"中西區","LI":"永華里","LIN":"6鄰","STREET":"開山路","SECT":" ","MAREA":" ","LANE":"１２２巷","ALLEY":"５６弄","HOUSE_NO":"１３號二樓之１","E_COORD97":168569.07999999999,"N_COORD97":2543392.0600000001,"ADDRESS":"開山路１２２巷５６弄１３號二樓之１","OBJECTID":65400},"geometry":{"x":168569.08000000101,"y":2543392.0600000024}}]}