{"displayFieldName":"TOWNNAME","fieldAliases":{"ID":"ID","DIS_CODE":"DIS_CODE","TOWNNAME":"TOWNNAME","LI":"LI","LIN":"LIN","STREET":"STREET","SECT":"SECT","MAREA":"MAREA","LANE":"LANE","ALLEY":"ALLEY","HOUSE_NO":"HOUSE_NO","E_COORD97":"E_COORD97","N_COORD97":"N_COORD97","ADDRESS":"ADDRESS","OBJECTID":"OBJECTID"},"geometryType":"esriGeometryPoint","spatialReference":{"wkid":102443,"latestWkid":3826},"fields":[{"name":"ID","type":"esriFieldTypeDouble","alias":"ID"},{"name":"DIS_CODE","type":"esriFieldTypeInteger","alias":"DIS_CODE"},{"name":"TOWNNAME","type":"esriFieldTypeString","alias":"TOWNNAME","length":8},{"name":"LI","type":"esriFieldTypeString","alias":"LI","length":8},{"name":"LIN","type":"esriFieldTypeString","alias":"LIN","length":12},{"name":"STREET","type":"esriFieldTypeString","alias":"STREET","length":20},{"name":"SECT","type":"esriFieldTypeString","alias":"SECT","length":8},{"name":"MAREA","type":"esriFieldTypeString","alias":"MAREA","length":12},{"name":"LANE","type":"esriFieldTypeString","alias":"LANE","length":10},{"name":"ALLEY","type":"esriFieldTypeString","alias":"ALLEY","length":10},{"name":"HOUSE_NO","type":"esriFieldTypeString","alias":"HOUSE_NO","length":20},{"name":"E_COORD97","type":"esriFieldTypeDouble","alias":"E_COORD97"},{"name":"N_COORD97","type":"esriFieldTypeDouble","alias":"N_COORD97"},{"name":"ADDRESS","type":"esriFieldTypeString","alias":"ADDRESS","length":50},{"name":"OBJECTID","type":"esriFieldTypeOID","alias":"OBJECTID"}],"features":[{"attributes":{"ID":557628,"DIS_CODE":0,"TOWNNAME":"西港區","LI":"西港里","LIN":"21鄰","STREET":"中山路","SECT":" ","MAREA":" ","LANE":" ","ALLEY":" ","HOUSE_NO":"８號之９","E_COORD97":168472.64000000001,"N_COORD97":2557037.9900000002,"ADDRESS":"中山路８號之９","OBJECTID":557601},"geometry":{"x":168472.63999999966,"y":2557037.9900000021}},{"attributes":{"ID":557629,"DIS_CODE":0,"TOWNNAME":"西港區","LI":"西港里","LIN":"21鄰","STREET":"中山路","SECT":" ","MAREA":" ","LANE":" ","ALLEY":" ","HOUSE_NO":"９４號","E_COORD97":168478.84,"N_COORD97":2557495.1200000001,"ADDRESS":"中山路９４號","OBJECTID":557602},"geometry":{"x":168478.84000000078,"y":2557495.1200000029}},{"attributes":{"ID":557630,"DIS_CODE":0,"TOWNNAME":"東區","LI":"圍下里","LIN":"21鄰","STREET":"前鋒路","SECT":" ","MAREA":" ","LANE":" ","ALLEY":" ","HOUSE_NO":"１１６號","E_COORD97":169333.48000000001,"N_COORD97":2543811.5600000001,"ADDRESS":"前鋒路１１６號","OBJECTID":557603},"geometry":{"x":169333.48000000138,"y":2543811.5600000024}},{"attributes":{"ID":557631,"DIS_CODE":0,"TOWNNAME":"東區","LI":"龍山里","LIN":"21鄰","STREET":"富德街","SECT":" ","MAREA":" ","LANE":" ","ALLEY":" ","HOUSE_NO":"１８號","E_COORD97":170505.72,"N_COORD97":2542757.3100000001,"ADDRESS":"富德街１８號","OBJECTID":557604},"geometry":{"x":170505.72000000067,"y":2542757.3100000005}},{"attributes":{"ID":557632,"DIS_CODE":0,"TOWNNAME":"東區","LI":"龍山里","LIN":"21鄰","STREET":"富德街","SECT":" ","MAREA":" ","LANE":" ","ALLEY":" ","HOUSE_NO":"４０號","E_COORD97":170452,"N_COORD97":2542780.3700000001,"ADDRESS":"富德街４０號","OBJECTID":557605},"geometry":{"x":170452,"y":2542780.370000001}},{"attributes":{"ID":557633,"DIS_CODE":0,"TOWNNAME":"東區","LI":"龍山里","LIN":"21鄰","STREET":"富德街","SECT":" ","MAREA":" ","LANE":" ","ALLEY":" ","HOUSE_NO":"４４號","E_COORD97":170443.04999999999,"N_COORD97":2542785.5899999999,"ADDRESS":"富德街４４號","OBJECTID":557606},"geometry":{"x":170443.04999999981,"y":2542785.5899999999}},{"attributes":{"ID":557634,"DIS_CODE":0,"TOWNNAME":"新市區","LI":"港墘里","LIN":"21鄰","STREET":"南港街","SECT":" ","MAREA":" ","LANE":" ","ALLEY":" ","HOUSE_NO":"９０號","E_COORD97":178078.79000000001,"N_COORD97":2552754.75,"ADDRESS":"南港街９０號","OBJECTID":557607},"geometry":{"x":178078.79000000004,"y":2552754.75}},{"attributes":{"ID":557635,"DIS_CODE":0,"TOWNNAME":"新市區","LI":"港墘里","LIN":"21鄰","STREET":"南港街","SECT":" ","MAREA":" ","LANE":" ","ALLEY":" ","HOUSE_NO":"９８號","E_COORD97":178060.76000000001,"N_COORD97":2552752.5,"ADDRESS":"南港街９８號","OBJECTID":557608},"geometry":{"x":178060.76000000071,"y":2552752.5000000019}},{"attributes":{"ID":557636,"DIS_CODE":0,"TOWNNAME":"新市區","LI":"港墘里","LIN":"21鄰","STREET":"南港街","SECT":" ","MAREA":" ","LANE":" ","ALLEY":" ","HOUSE_NO":"１３４號","E_COORD97":177958.95999999999,"N_COORD97":2552741,"ADDRESS":"南港街１３４號","OBJECTID":557609},"geometry":{"x":177958.95999999996,"y":2552741.0000000037}},{"attributes":{"ID":557637,"DIS_CODE":0,"TOWNNAME":"新市區","LI":"港墘里","LIN":"21鄰","STREET":"南港街","SECT":" ","MAREA":" ","LANE":" ","ALLEY":" ","HOUSE_NO":"１１８號","E_COORD97":178015.14999999999,"N_COORD97":2552748.75,"ADDRESS":"南港街１１８號","OBJECTID":557610},"geometry":{"x":178015.15000000037,"y":2552748.75}},{"attributes":{"ID":557638,"DIS_CODE":0,"TOWNNAME":"新市區","LI":"港墘里","LIN":"21鄰","STREET":"南港街","SECT":" ","MAREA":" ","LANE":" ","ALLEY":" ","HOUSE_NO":"１１２號","E_COORD97":178029.60000000001,"N_COORD97":2552748.75,"ADDRESS":"南港街１１２號","OBJECTID":557611},"geometry":{"x":178029.60000000056,"y":2552748.75}},{"attributes":{"ID":557639,"DIS_CODE":0,"TOWNNAME":"新市區","LI":"新市里","LIN":"21鄰","STREET":"和平街","SECT":" ","MAREA":" ","LANE":" ","ALLEY":" ","HOUSE_NO":"４２之１號","E_COORD97":177687.03,"N_COORD97":2553453.5,"ADDRESS":"和平街４２之１號","OBJECTID":557612},"geometry":{"x":177687.03000000026,"y":2553453.5000000019}},{"attributes":{"ID":557640,"DIS_CODE":0,"TOWNNAME":"新市區","LI":"新市里","LIN":"21鄰","STREET":"和平街","SECT":" ","MAREA":" ","LANE":" ","ALLEY":" ","HOUSE_NO":"３０號","E_COORD97":177715.14000000001,"N_COORD97":2553461,"ADDRESS":"和平街３０號","OBJECTID":557613},"geometry":{"x":177715.13999999873,"y":2553461.0000000019}},{"attributes":{"ID":557641,"DIS_CODE":0,"TOWNNAME":"新市區","LI":"新市里","LIN":"21鄰","STREET":"和平街","SECT":" ","MAREA":" ","LANE":" ","ALLEY":" ","HOUSE_NO":"３６號","E_COORD97":177702.48000000001,"N_COORD97":2553457.5,"ADDRESS":"和平街３６號","OBJECTID":557614},"geometry":{"x":177702.48000000138,"y":2553457.5000000019}},{"attributes":{"ID":557642,"DIS_CODE":0,"TOWNNAME":"新市區","LI":"新市里","LIN":"21鄰","STREET":"和平街","SECT":" ","MAREA":" ","LANE":" ","ALLEY":" ","HOUSE_NO":"３８號","E_COORD97":177698.37,"N_COORD97":2553456.5,"ADDRESS":"和平街３８號","OBJECTID":557615},"geometry":{"x":177698.37000000011,"y":2553456.5000000037}},{"attributes":{"ID":557643,"DIS_CODE":0,"TOWNNAME":"新市區","LI":"新和里","LIN":"21鄰","STREET":"中正路","SECT":" ","MAREA":" ","LANE":" ","ALLEY":" ","HOUSE_NO":"１５２號","E_COORD97":177402.51000000001,"N_COORD97":2552663.75,"ADDRESS":"中正路１５２號","OBJECTID":557616},"geometry":{"x":177402.50999999885,"y":2552663.75}},{"attributes":{"ID":557644,"DIS_CODE":0,"TOWNNAME":"新市區","LI":"新市里","LIN":"21鄰","STREET":"和平街","SECT":" ","MAREA":" ","LANE":" ","ALLEY":" ","HOUSE_NO":"４０號","E_COORD97":177694.64000000001,"N_COORD97":2553455.5,"ADDRESS":"和平街４０號","OBJECTID":557617},"geometry":{"x":177694.63999999966,"y":2553455.5}},{"attributes":{"ID":557645,"DIS_CODE":0,"TOWNNAME":"安南區","LI":"\u25A0南里","LIN":"21鄰","STREET":"環福街","SECT":" ","MAREA":" ","LANE":" ","ALLEY":" ","HOUSE_NO":"１７４號","E_COORD97":170352.82999999999,"N_COORD97":2552592.9900000002,"ADDRESS":"環福街１７４號","OBJECTID":557618},"geometry":{"x":170352.83000000101,"y":2552592.9900000021}},{"attributes":{"ID":557646,"DIS_CODE":0,"TOWNNAME":"安南區","LI":"\u25A0南里","LIN":"21鄰","STREET":"環福街","SECT":" ","MAREA":" ","LANE":" ","ALLEY":" ","HOUSE_NO":"１７８號","E_COORD97":170345.10999999999,"N_COORD97":2552599.7000000002,"ADDRESS":"環福街１７８號","OBJECTID":557619},"geometry":{"x":170345.11000000034,"y":2552599.700000003}},{"attributes":{"ID":557647,"DIS_CODE":0,"TOWNNAME":"安南區","LI":"\u25A0南里","LIN":"21鄰","STREET":"環福街","SECT":" ","MAREA":" ","LANE":" ","ALLEY":" ","HOUSE_NO":"１８０號","E_COORD97":170341.75,"N_COORD97":2552602.6400000001,"ADDRESS":"環福街１８０號","OBJECTID":557620},"geometry":{"x":170341.75,"y":2552602.6400000025}},{"attributes":{"ID":557648,"DIS_CODE":0,"TOWNNAME":"安南區","LI":"\u25A0南里","LIN":"21鄰","STREET":"環福街","SECT":" ","MAREA":" ","LANE":" ","ALLEY":" ","HOUSE_NO":"１８２號","E_COORD97":170337.95999999999,"N_COORD97":2552605.3799999999,"ADDRESS":"環福街１８２號","OBJECTID":557621},"geometry":{"x":170337.96000000089,"y":2552605.3800000008}},{"attributes":{"ID":557649,"DIS_CODE":0,"TOWNNAME":"安南區","LI":"\u25A0南里","LIN":"21鄰","STREET":"環福街","SECT":" ","MAREA":" ","LANE":" ","ALLEY":" ","HOUSE_NO":"１８４號","E_COORD97":170334.39000000001,"N_COORD97":2552608.9500000002,"ADDRESS":"環福街１８４號","OBJECTID":557622},"geometry":{"x":170334.39000000153,"y":2552608.9500000011}},{"attributes":{"ID":557650,"DIS_CODE":0,"TOWNNAME":"安南區","LI":"\u25A0南里","LIN":"21鄰","STREET":"環福街","SECT":" ","MAREA":" ","LANE":" ","ALLEY":" ","HOUSE_NO":"１９２號","E_COORD97":170343.82000000001,"N_COORD97":2552642.4900000002,"ADDRESS":"環福街１９２號","OBJECTID":557623},"geometry":{"x":170343.8200000003,"y":2552642.4900000002}},{"attributes":{"ID":557651,"DIS_CODE":0,"TOWNNAME":"安南區","LI":"\u25A0南里","LIN":"21鄰","STREET":"環福街","SECT":" ","MAREA":" ","LANE":" ","ALLEY":" ","HOUSE_NO":"１９６號","E_COORD97":170334.14000000001,"N_COORD97":2552648.7599999998,"ADDRESS":"環福街１９６號","OBJECTID":557624},"geometry":{"x":170334.13999999966,"y":2552648.7600000016}},{"attributes":{"ID":557652,"DIS_CODE":0,"TOWNNAME":"安南區","LI":"\u25A0南里","LIN":"21鄰","STREET":"環福街","SECT":" ","MAREA":" ","LANE":" ","ALLEY":" ","HOUSE_NO":"２０２號","E_COORD97":170333.88,"N_COORD97":2552658.1699999999,"ADDRESS":"環福街２０２號","OBJECTID":557625},"geometry":{"x":170333.87999999989,"y":2552658.1699999981}},{"attributes":{"ID":557653,"DIS_CODE":0,"TOWNNAME":"永康區","LI":"埔園里","LIN":"21鄰","STREET":"四維街","SECT":" ","MAREA":" ","LANE":" ","ALLEY":" ","HOUSE_NO":"７０號","E_COORD97":173407.62,"N_COORD97":2548093.0600000001,"ADDRESS":"四維街７０號","OBJECTID":557626},"geometry":{"x":173407.62000000011,"y":2548093.0600000042}},{"attributes":{"ID":557654,"DIS_CODE":0,"TOWNNAME":"永康區","LI":"埔園里","LIN":"21鄰","STREET":"四維街","SECT":" ","MAREA":" ","LANE":" ","ALLEY":" ","HOUSE_NO":"６６號","E_COORD97":173411.14000000001,"N_COORD97":2548085.7000000002,"ADDRESS":"四維街６６號","OBJECTID":557627},"geometry":{"x":173411.14000000153,"y":2548085.6999999993}},{"attributes":{"ID":557655,"DIS_CODE":0,"TOWNNAME":"永康區","LI":"埔園里","LIN":"21鄰","STREET":"四維街","SECT":" ","MAREA":" ","LANE":" ","ALLEY":" ","HOUSE_NO":"８８號","E_COORD97":173390.73000000001,"N_COORD97":2548139.6800000002,"ADDRESS":"四維街８８號","OBJECTID":557628},"geometry":{"x":173390.73000000045,"y":2548139.6800000016}},{"attributes":{"ID":557656,"DIS_CODE":0,"TOWNNAME":"永康區","LI":"埔園里","LIN":"21鄰","STREET":"四維街","SECT":" ","MAREA":" ","LANE":" ","ALLEY":" ","HOUSE_NO":"１００號","E_COORD97":173380.26000000001,"N_COORD97":2548180.2799999998,"ADDRESS":"四維街１００號","OBJECTID":557629},"geometry":{"x":173380.26000000071,"y":2548180.2799999993}},{"attributes":{"ID":557657,"DIS_CODE":0,"TOWNNAME":"永康區","LI":"埔園里","LIN":"21鄰","STREET":"四維街","SECT":" ","MAREA":" ","LANE":" ","ALLEY":" ","HOUSE_NO":"８４號","E_COORD97":173393.88,"N_COORD97":2548129.3700000001,"ADDRESS":"四維街８４號","OBJECTID":557630},"geometry":{"x":173393.87999999989,"y":2548129.3700000029}},{"attributes":{"ID":557658,"DIS_CODE":0,"TOWNNAME":"永康區","LI":"埔園里","LIN":"21鄰","STREET":"四維街","SECT":" ","MAREA":" ","LANE":" ","ALLEY":" ","HOUSE_NO":"７６號","E_COORD97":173404.28,"N_COORD97":2548105.8100000001,"ADDRESS":"四維街７６號","OBJECTID":557631},"geometry":{"x":173404.28000000119,"y":2548105.8100000024}},{"attributes":{"ID":557659,"DIS_CODE":0,"TOWNNAME":"永康區","LI":"埔園里","LIN":"21鄰","STREET":"四維街","SECT":" ","MAREA":" ","LANE":" ","ALLEY":" ","HOUSE_NO":"８０號","E_COORD97":173396.23000000001,"N_COORD97":2548121.1200000001,"ADDRESS":"四維街８０號","OBJECTID":557632},"geometry":{"x":173396.23000000231,"y":2548121.1200000029}},{"attributes":{"ID":557660,"DIS_CODE":0,"TOWNNAME":"永康區","LI":"埔園里","LIN":"21鄰","STREET":"四維街","SECT":" ","MAREA":" ","LANE":" ","ALLEY":" ","HOUSE_NO":"１００號之５","E_COORD97":173374.14000000001,"N_COORD97":2548197.9700000002,"ADDRESS":"四維街１００號之５","OBJECTID":557633},"geometry":{"x":173374.1400000006,"y":2548197.9700000007}},{"attributes":{"ID":557661,"DIS_CODE":0,"TOWNNAME":"永康區","LI":"南灣里","LIN":"21鄰","STREET":"大灣路","SECT":" ","MAREA":" ","LANE":" ","ALLEY":" ","HOUSE_NO":"７１６號","E_COORD97":174303.09,"N_COORD97":2544568.4700000002,"ADDRESS":"大灣路７１６號","OBJECTID":557634},"geometry":{"x":174303.08999999985,"y":2544568.4700000025}},{"attributes":{"ID":557662,"DIS_CODE":0,"TOWNNAME":"永康區","LI":"南灣里","LIN":"21鄰","STREET":"大灣路","SECT":" ","MAREA":" ","LANE":" ","ALLEY":" ","HOUSE_NO":"７５０號","E_COORD97":174201.76000000001,"N_COORD97":2544546.1899999999,"ADDRESS":"大灣路７５０號","OBJECTID":557635},"geometry":{"x":174201.75999999978,"y":2544546.1900000013}},{"attributes":{"ID":557663,"DIS_CODE":0,"TOWNNAME":"永康區","LI":"埔園里","LIN":"21鄰","STREET":"埔園街","SECT":" ","MAREA":" ","LANE":" ","ALLEY":" ","HOUSE_NO":"３４８號","E_COORD97":173433.29999999999,"N_COORD97":2548185.5699999998,"ADDRESS":"埔園街３４８號","OBJECTID":557636},"geometry":{"x":173433.29999999981,"y":2548185.5700000022}},{"attributes":{"ID":557664,"DIS_CODE":0,"TOWNNAME":"永康區","LI":"埔園里","LIN":"21鄰","STREET":"埔園街","SECT":" ","MAREA":" ","LANE":" ","ALLEY":" ","HOUSE_NO":"３５８號","E_COORD97":173412.35000000001,"N_COORD97":2548179.5699999998,"ADDRESS":"埔園街３５８號","OBJECTID":557637},"geometry":{"x":173412.34999999963,"y":2548179.5700000003}},{"attributes":{"ID":557665,"DIS_CODE":0,"TOWNNAME":"永康區","LI":"南灣里","LIN":"21鄰","STREET":"大灣路","SECT":" ","MAREA":" ","LANE":" ","ALLEY":" ","HOUSE_NO":"７４２號","E_COORD97":174227.51999999999,"N_COORD97":2544552.0600000001,"ADDRESS":"大灣路７４２號","OBJECTID":557638},"geometry":{"x":174227.52000000048,"y":2544552.0600000005}},{"attributes":{"ID":557666,"DIS_CODE":0,"TOWNNAME":"永康區","LI":"南灣里","LIN":"21鄰","STREET":"大灣路","SECT":" ","MAREA":" ","LANE":" ","ALLEY":" ","HOUSE_NO":"７２４號","E_COORD97":174282.26999999999,"N_COORD97":2544563.5699999998,"ADDRESS":"大灣路７２４號","OBJECTID":557639},"geometry":{"x":174282.27000000048,"y":2544563.5700000022}},{"attributes":{"ID":557667,"DIS_CODE":0,"TOWNNAME":"永康區","LI":"南灣里","LIN":"21鄰","STREET":"大灣路","SECT":" ","MAREA":" ","LANE":" ","ALLEY":" ","HOUSE_NO":"７２８號","E_COORD97":174274.07000000001,"N_COORD97":2544561.3199999998,"ADDRESS":"大灣路７２８號","OBJECTID":557640},"geometry":{"x":174274.07000000123,"y":2544561.3199999984}},{"attributes":{"ID":557668,"DIS_CODE":0,"TOWNNAME":"永康區","LI":"南灣里","LIN":"21鄰","STREET":"大灣路","SECT":" ","MAREA":" ","LANE":" ","ALLEY":" ","HOUSE_NO":"７４４號","E_COORD97":174217.44,"N_COORD97":2544548.9399999999,"ADDRESS":"大灣路７４４號","OBJECTID":557641},"geometry":{"x":174217.44000000134,"y":2544548.9399999995}},{"attributes":{"ID":557669,"DIS_CODE":0,"TOWNNAME":"永康區","LI":"南灣里","LIN":"21鄰","STREET":"大灣路","SECT":" ","MAREA":" ","LANE":" ","ALLEY":" ","HOUSE_NO":"７５８號","E_COORD97":174177.95000000001,"N_COORD97":2544541.6299999999,"ADDRESS":"大灣路７５８號","OBJECTID":557642},"geometry":{"x":174177.95000000112,"y":2544541.6300000008}},{"attributes":{"ID":557670,"DIS_CODE":0,"TOWNNAME":"新市區","LI":"港墘里","LIN":"21鄰","STREET":"南港街","SECT":" ","MAREA":" ","LANE":" ","ALLEY":" ","HOUSE_NO":"１０２號","E_COORD97":178052.79999999999,"N_COORD97":2552751.5,"ADDRESS":"南港街１０２號","OBJECTID":557643},"geometry":{"x":178052.79999999981,"y":2552751.5000000019}},{"attributes":{"ID":557671,"DIS_CODE":0,"TOWNNAME":"新市區","LI":"新和里","LIN":"21鄰","STREET":"中正路","SECT":" ","MAREA":" ","LANE":" ","ALLEY":" ","HOUSE_NO":"１６２號","E_COORD97":177406.62,"N_COORD97":2552690.25,"ADDRESS":"中正路１６２號","OBJECTID":557644},"geometry":{"x":177406.62000000011,"y":2552690.25}},{"attributes":{"ID":557672,"DIS_CODE":0,"TOWNNAME":"新市區","LI":"港墘里","LIN":"21鄰","STREET":"南港街","SECT":" ","MAREA":" ","LANE":" ","ALLEY":" ","HOUSE_NO":"１０８號","E_COORD97":178038.76000000001,"N_COORD97":2552750,"ADDRESS":"南港街１０８號","OBJECTID":557645},"geometry":{"x":178038.76000000071,"y":2552750}},{"attributes":{"ID":557673,"DIS_CODE":0,"TOWNNAME":"新市區","LI":"新市里","LIN":"21鄰","STREET":"和平街","SECT":" ","MAREA":" ","LANE":" ","ALLEY":" ","HOUSE_NO":"２６號","E_COORD97":177722.98000000001,"N_COORD97":2553463.25,"ADDRESS":"和平街２６號","OBJECTID":557646},"geometry":{"x":177722.98000000138,"y":2553463.25}},{"attributes":{"ID":557674,"DIS_CODE":0,"TOWNNAME":"新市區","LI":"港墘里","LIN":"21鄰","STREET":"南港街","SECT":" ","MAREA":" ","LANE":" ","ALLEY":" ","HOUSE_NO":"１００號","E_COORD97":178057.44,"N_COORD97":2552752,"ADDRESS":"南港街１００號","OBJECTID":557647},"geometry":{"x":178057.44000000041,"y":2552752.0000000019}},{"attributes":{"ID":557675,"DIS_CODE":0,"TOWNNAME":"新市區","LI":"新和里","LIN":"21鄰","STREET":"中正路","SECT":" ","MAREA":" ","LANE":" ","ALLEY":" ","HOUSE_NO":"８２之１０號","E_COORD97":177487.70999999999,"N_COORD97":2552450.0499999998,"ADDRESS":"中正路８２之１０號","OBJECTID":557648},"geometry":{"x":177487.70999999996,"y":2552450.0500000045}},{"attributes":{"ID":557676,"DIS_CODE":0,"TOWNNAME":"新市區","LI":"港墘里","LIN":"21鄰","STREET":"南港街","SECT":" ","MAREA":" ","LANE":" ","ALLEY":" ","HOUSE_NO":"１０６號","E_COORD97":178043.35000000001,"N_COORD97":2552750.5,"ADDRESS":"南港街１０６號","OBJECTID":557649},"geometry":{"x":178043.35000000056,"y":2552750.5}},{"attributes":{"ID":557677,"DIS_CODE":0,"TOWNNAME":"東區","LI":"裕聖里","LIN":"21鄰","STREET":"裕孝路","SECT":" ","MAREA":" ","LANE":" ","ALLEY":" ","HOUSE_NO":"４４６號","E_COORD97":172378.62,"N_COORD97":2542367.02,"ADDRESS":"裕孝路４４６號","OBJECTID":557650},"geometry":{"x":172378.62000000011,"y":2542367.0200000014}},{"attributes":{"ID":557678,"DIS_CODE":0,"TOWNNAME":"東區","LI":"德高里","LIN":"21鄰","STREET":"崇善路","SECT":" ","MAREA":" ","LANE":" ","ALLEY":" ","HOUSE_NO":"８５５號","E_COORD97":171336.54000000001,"N_COORD97":2540778.73,"ADDRESS":"崇善路８５５號","OBJECTID":557651},"geometry":{"x":171336.54000000004,"y":2540778.7300000042}},{"attributes":{"ID":557679,"DIS_CODE":0,"TOWNNAME":"東區","LI":"龍山里","LIN":"21鄰","STREET":"東門路","SECT":"二段","MAREA":" ","LANE":" ","ALLEY":" ","HOUSE_NO":"２１０號","E_COORD97":170409.17999999999,"N_COORD97":2542828.1499999999,"ADDRESS":"東門路二段２１０號","OBJECTID":557652},"geometry":{"x":170409.18000000063,"y":2542828.1500000022}},{"attributes":{"ID":557680,"DIS_CODE":0,"TOWNNAME":"東區","LI":"龍山里","LIN":"21鄰","STREET":"東門路","SECT":"二段","MAREA":" ","LANE":" ","ALLEY":" ","HOUSE_NO":"２１２號","E_COORD97":170413.51999999999,"N_COORD97":2542825.8900000001,"ADDRESS":"東門路二段２１２號","OBJECTID":557653},"geometry":{"x":170413.52000000048,"y":2542825.8900000025}},{"attributes":{"ID":557681,"DIS_CODE":0,"TOWNNAME":"東區","LI":"圍下里","LIN":"21鄰","STREET":"前鋒路","SECT":" ","MAREA":" ","LANE":" ","ALLEY":" ","HOUSE_NO":"１１２之１號","E_COORD97":169344.64000000001,"N_COORD97":2543796.7000000002,"ADDRESS":"前鋒路１１２之１號","OBJECTID":557654},"geometry":{"x":169344.6400000006,"y":2543796.6999999993}},{"attributes":{"ID":557682,"DIS_CODE":0,"TOWNNAME":"東區","LI":"崇德里","LIN":"21鄰","STREET":"崇德路","SECT":" ","MAREA":" ","LANE":" ","ALLEY":" ","HOUSE_NO":"３９６號","E_COORD97":170559.44,"N_COORD97":2541779.9100000001,"ADDRESS":"崇德路３９６號","OBJECTID":557655},"geometry":{"x":170559.44000000041,"y":2541779.9100000001}},{"attributes":{"ID":557683,"DIS_CODE":0,"TOWNNAME":"東區","LI":"崇德里","LIN":"21鄰","STREET":"崇德路","SECT":" ","MAREA":" ","LANE":" ","ALLEY":" ","HOUSE_NO":"４５６之１號","E_COORD97":170686.35000000001,"N_COORD97":2541675.4300000002,"ADDRESS":"崇德路４５６之１號","OBJECTID":557656},"geometry":{"x":170686.35000000056,"y":2541675.4300000016}},{"attributes":{"ID":557684,"DIS_CODE":0,"TOWNNAME":"東區","LI":"崇德里","LIN":"21鄰","STREET":"崇德路","SECT":" ","MAREA":" ","LANE":" ","ALLEY":" ","HOUSE_NO":"４６６號","E_COORD97":170718.41,"N_COORD97":2541651.2400000002,"ADDRESS":"崇德路４６６號","OBJECTID":557657},"geometry":{"x":170718.41000000108,"y":2541651.2400000021}},{"attributes":{"ID":557685,"DIS_CODE":0,"TOWNNAME":"東區","LI":"崇德里","LIN":"21鄰","STREET":"崇德路","SECT":" ","MAREA":" ","LANE":" ","ALLEY":" ","HOUSE_NO":"５３６號","E_COORD97":170772.17999999999,"N_COORD97":2541492.1099999999,"ADDRESS":"崇德路５３６號","OBJECTID":557658},"geometry":{"x":170772.18000000063,"y":2541492.1099999994}},{"attributes":{"ID":557686,"DIS_CODE":0,"TOWNNAME":"東區","LI":"崇德里","LIN":"21鄰","STREET":"崇德路","SECT":" ","MAREA":" ","LANE":" ","ALLEY":" ","HOUSE_NO":"５３８號","E_COORD97":170772.17999999999,"N_COORD97":2541487.8900000001,"ADDRESS":"崇德路５３８號","OBJECTID":557659},"geometry":{"x":170772.18000000063,"y":2541487.8900000025}},{"attributes":{"ID":557687,"DIS_CODE":0,"TOWNNAME":"東區","LI":"崇德里","LIN":"21鄰","STREET":"崇德路","SECT":" ","MAREA":" ","LANE":" ","ALLEY":" ","HOUSE_NO":"５４０號","E_COORD97":170774.51000000001,"N_COORD97":2541482.3500000001,"ADDRESS":"崇德路５４０號","OBJECTID":557660},"geometry":{"x":170774.51000000164,"y":2541482.3500000034}},{"attributes":{"ID":557688,"DIS_CODE":0,"TOWNNAME":"東區","LI":"崇德里","LIN":"21鄰","STREET":"崇德路","SECT":" ","MAREA":" ","LANE":" ","ALLEY":" ","HOUSE_NO":"５４２號","E_COORD97":170774.07000000001,"N_COORD97":2541476.6699999999,"ADDRESS":"崇德路５４２號","OBJECTID":557661},"geometry":{"x":170774.0700000003,"y":2541476.6699999981}},{"attributes":{"ID":557689,"DIS_CODE":0,"TOWNNAME":"東區","LI":"裕聖里","LIN":"21鄰","STREET":"裕孝路","SECT":" ","MAREA":" ","LANE":" ","ALLEY":" ","HOUSE_NO":"５１６號","E_COORD97":172395.67999999999,"N_COORD97":2542337.29,"ADDRESS":"裕孝路５１６號","OBJECTID":557662},"geometry":{"x":172395.68000000063,"y":2542337.290000001}},{"attributes":{"ID":557690,"DIS_CODE":0,"TOWNNAME":"東區","LI":"裕聖里","LIN":"21鄰","STREET":"裕孝路","SECT":" ","MAREA":" ","LANE":" ","ALLEY":" ","HOUSE_NO":"５２０號","E_COORD97":172385.66,"N_COORD97":2542337.29,"ADDRESS":"裕孝路５２０號","OBJECTID":557663},"geometry":{"x":172385.66000000015,"y":2542337.290000001}},{"attributes":{"ID":557691,"DIS_CODE":0,"TOWNNAME":"東區","LI":"裕聖里","LIN":"21鄰","STREET":"裕孝路","SECT":" ","MAREA":" ","LANE":" ","ALLEY":" ","HOUSE_NO":"５３８號","E_COORD97":172351.17000000001,"N_COORD97":2542337.8599999999,"ADDRESS":"裕孝路５３８號","OBJECTID":557664},"geometry":{"x":172351.16999999993,"y":2542337.8599999994}},{"attributes":{"ID":557692,"DIS_CODE":0,"TOWNNAME":"東區","LI":"裕聖里","LIN":"21鄰","STREET":"裕孝路","SECT":" ","MAREA":" ","LANE":" ","ALLEY":" ","HOUSE_NO":"５２２號","E_COORD97":172380.51000000001,"N_COORD97":2542337.4300000002,"ADDRESS":"裕孝路５２２號","OBJECTID":557665},"geometry":{"x":172380.51000000071,"y":2542337.4300000016}},{"attributes":{"ID":557693,"DIS_CODE":0,"TOWNNAME":"東區","LI":"裕聖里","LIN":"21鄰","STREET":"裕孝路","SECT":" ","MAREA":" ","LANE":" ","ALLEY":" ","HOUSE_NO":"５２６號","E_COORD97":172375.20999999999,"N_COORD97":2542337.5800000001,"ADDRESS":"裕孝路５２６號","OBJECTID":557666},"geometry":{"x":172375.21000000183,"y":2542337.5800000001}},{"attributes":{"ID":557694,"DIS_CODE":0,"TOWNNAME":"東區","LI":"裕聖里","LIN":"21鄰","STREET":"裕孝路","SECT":" ","MAREA":" ","LANE":" ","ALLEY":" ","HOUSE_NO":"５２８號","E_COORD97":172370.35000000001,"N_COORD97":2542337.29,"ADDRESS":"裕孝路５２８號","OBJECTID":557667},"geometry":{"x":172370.34999999963,"y":2542337.290000001}},{"attributes":{"ID":557695,"DIS_CODE":0,"TOWNNAME":"東區","LI":"裕聖里","LIN":"21鄰","STREET":"裕孝路","SECT":" ","MAREA":" ","LANE":" ","ALLEY":" ","HOUSE_NO":"５３０號","E_COORD97":172365.04999999999,"N_COORD97":2542337.4300000002,"ADDRESS":"裕孝路５３０號","OBJECTID":557668},"geometry":{"x":172365.05000000075,"y":2542337.4300000016}},{"attributes":{"ID":557696,"DIS_CODE":0,"TOWNNAME":"東區","LI":"裕聖里","LIN":"21鄰","STREET":"裕孝路","SECT":" ","MAREA":" ","LANE":" ","ALLEY":" ","HOUSE_NO":"５３２號","E_COORD97":172360.60999999999,"N_COORD97":2542337.29,"ADDRESS":"裕孝路５３２號","OBJECTID":557669},"geometry":{"x":172360.61000000034,"y":2542337.290000001}},{"attributes":{"ID":557697,"DIS_CODE":0,"TOWNNAME":"東區","LI":"裕聖里","LIN":"21鄰","STREET":"裕孝路","SECT":" ","MAREA":" ","LANE":" ","ALLEY":" ","HOUSE_NO":"５３６號","E_COORD97":172355.75,"N_COORD97":2542337.4300000002,"ADDRESS":"裕孝路５３６號","OBJECTID":557670},"geometry":{"x":172355.75,"y":2542337.4300000016}},{"attributes":{"ID":557698,"DIS_CODE":0,"TOWNNAME":"東區","LI":"裕聖里","LIN":"21鄰","STREET":"裕孝路","SECT":" ","MAREA":" ","LANE":" ","ALLEY":" ","HOUSE_NO":"５４０號","E_COORD97":172350.31,"N_COORD97":2542325.7000000002,"ADDRESS":"裕孝路５４０號","OBJECTID":557671},"geometry":{"x":172350.30999999866,"y":2542325.6999999993}},{"attributes":{"ID":557699,"DIS_CODE":0,"TOWNNAME":"東區","LI":"裕聖里","LIN":"21鄰","STREET":"裕孝路","SECT":" ","MAREA":" ","LANE":" ","ALLEY":" ","HOUSE_NO":"５７８號","E_COORD97":172426.59,"N_COORD97":2542324.27,"ADDRESS":"裕孝路５７８號","OBJECTID":557672},"geometry":{"x":172426.58999999985,"y":2542324.2700000014}},{"attributes":{"ID":557700,"DIS_CODE":0,"TOWNNAME":"東區","LI":"裕聖里","LIN":"21鄰","STREET":"裕孝路","SECT":" ","MAREA":" ","LANE":" ","ALLEY":" ","HOUSE_NO":"５４２號","E_COORD97":172354.89000000001,"N_COORD97":2542325.7000000002,"ADDRESS":"裕孝路５４２號","OBJECTID":557673},"geometry":{"x":172354.88999999966,"y":2542325.6999999993}},{"attributes":{"ID":557701,"DIS_CODE":0,"TOWNNAME":"東區","LI":"裕聖里","LIN":"21鄰","STREET":"裕孝路","SECT":" ","MAREA":" ","LANE":" ","ALLEY":" ","HOUSE_NO":"５６０號","E_COORD97":172390.53,"N_COORD97":2542324.27,"ADDRESS":"裕孝路５６０號","OBJECTID":557674},"geometry":{"x":172390.53000000119,"y":2542324.2700000014}},{"attributes":{"ID":557702,"DIS_CODE":0,"TOWNNAME":"東區","LI":"裕聖里","LIN":"21鄰","STREET":"裕孝路","SECT":" ","MAREA":" ","LANE":" ","ALLEY":" ","HOUSE_NO":"５４６號","E_COORD97":172359.89999999999,"N_COORD97":2542325.4100000001,"ADDRESS":"裕孝路５４６號","OBJECTID":557675},"geometry":{"x":172359.9000000013,"y":2542325.4100000001}},{"attributes":{"ID":557703,"DIS_CODE":0,"TOWNNAME":"東區","LI":"裕聖里","LIN":"21鄰","STREET":"裕孝路","SECT":" ","MAREA":" ","LANE":" ","ALLEY":" ","HOUSE_NO":"５４８號","E_COORD97":172364.19,"N_COORD97":2542325.4100000001,"ADDRESS":"裕孝路５４８號","OBJECTID":557676},"geometry":{"x":172364.19000000134,"y":2542325.4100000001}},{"attributes":{"ID":557704,"DIS_CODE":0,"TOWNNAME":"東區","LI":"裕聖里","LIN":"21鄰","STREET":"裕孝路","SECT":" ","MAREA":" ","LANE":" ","ALLEY":" ","HOUSE_NO":"５５０號","E_COORD97":172369.63,"N_COORD97":2542324.7000000002,"ADDRESS":"裕孝路５５０號","OBJECTID":557677},"geometry":{"x":172369.63000000082,"y":2542324.7000000011}},{"attributes":{"ID":557705,"DIS_CODE":0,"TOWNNAME":"東區","LI":"裕聖里","LIN":"21鄰","STREET":"裕孝路","SECT":" ","MAREA":" ","LANE":" ","ALLEY":" ","HOUSE_NO":"５５２號","E_COORD97":172374.64000000001,"N_COORD97":2542324.5499999998,"ADDRESS":"裕孝路５５２號","OBJECTID":557678},"geometry":{"x":172374.63999999966,"y":2542324.5500000007}},{"attributes":{"ID":557706,"DIS_CODE":0,"TOWNNAME":"東區","LI":"裕聖里","LIN":"21鄰","STREET":"裕孝路","SECT":" ","MAREA":" ","LANE":" ","ALLEY":" ","HOUSE_NO":"５５６號","E_COORD97":172379.22,"N_COORD97":2542324.98,"ADDRESS":"裕孝路５５６號","OBJECTID":557679},"geometry":{"x":172379.21999999974,"y":2542324.9800000004}},{"attributes":{"ID":557707,"DIS_CODE":0,"TOWNNAME":"東區","LI":"裕聖里","LIN":"21鄰","STREET":"裕孝路","SECT":" ","MAREA":" ","LANE":" ","ALLEY":" ","HOUSE_NO":"５５８號","E_COORD97":172385.09,"N_COORD97":2542324.8399999999,"ADDRESS":"裕孝路５５８號","OBJECTID":557680},"geometry":{"x":172385.09000000078,"y":2542324.8400000017}},{"attributes":{"ID":557708,"DIS_CODE":0,"TOWNNAME":"東區","LI":"裕聖里","LIN":"21鄰","STREET":"裕孝路","SECT":" ","MAREA":" ","LANE":" ","ALLEY":" ","HOUSE_NO":"５６２號","E_COORD97":172394.95999999999,"N_COORD97":2542324.98,"ADDRESS":"裕孝路５６２號","OBJECTID":557681},"geometry":{"x":172394.95999999996,"y":2542324.9800000004}},{"attributes":{"ID":557709,"DIS_CODE":0,"TOWNNAME":"東區","LI":"裕聖里","LIN":"21鄰","STREET":"裕孝路","SECT":" ","MAREA":" ","LANE":" ","ALLEY":" ","HOUSE_NO":"５６６號","E_COORD97":172400.97,"N_COORD97":2542324.4100000001,"ADDRESS":"裕孝路５６６號","OBJECTID":557682},"geometry":{"x":172400.97000000067,"y":2542324.410000002}},{"attributes":{"ID":557710,"DIS_CODE":0,"TOWNNAME":"東區","LI":"裕聖里","LIN":"21鄰","STREET":"裕孝路","SECT":" ","MAREA":" ","LANE":" ","ALLEY":" ","HOUSE_NO":"５６８號","E_COORD97":172405.26999999999,"N_COORD97":2542324.7000000002,"ADDRESS":"裕孝路５６８號","OBJECTID":557683},"geometry":{"x":172405.27000000048,"y":2542324.7000000011}},{"attributes":{"ID":557711,"DIS_CODE":0,"TOWNNAME":"東區","LI":"裕聖里","LIN":"21鄰","STREET":"裕孝路","SECT":" ","MAREA":" ","LANE":" ","ALLEY":" ","HOUSE_NO":"５７０號","E_COORD97":172410.13,"N_COORD97":2542324.5499999998,"ADDRESS":"裕孝路５７０號","OBJECTID":557684},"geometry":{"x":172410.13000000082,"y":2542324.5500000007}},{"attributes":{"ID":557712,"DIS_CODE":0,"TOWNNAME":"東區","LI":"裕聖里","LIN":"21鄰","STREET":"裕孝路","SECT":" ","MAREA":" ","LANE":" ","ALLEY":" ","HOUSE_NO":"５７２號","E_COORD97":172415.57000000001,"N_COORD97":2542324.27,"ADDRESS":"裕孝路５７２號","OBJECTID":557685},"geometry":{"x":172415.57000000216,"y":2542324.2700000014}},{"attributes":{"ID":557713,"DIS_CODE":0,"TOWNNAME":"東區","LI":"裕聖里","LIN":"21鄰","STREET":"裕孝路","SECT":" ","MAREA":" ","LANE":" ","ALLEY":" ","HOUSE_NO":"５７６號","E_COORD97":172420.72,"N_COORD97":2542324.27,"ADDRESS":"裕孝路５７６號","OBJECTID":557686},"geometry":{"x":172420.7200000016,"y":2542324.2700000014}},{"attributes":{"ID":557714,"DIS_CODE":0,"TOWNNAME":"東區","LI":"關聖里","LIN":"21鄰","STREET":"裕和五街","SECT":" ","MAREA":" ","LANE":" ","ALLEY":" ","HOUSE_NO":"１００號","E_COORD97":172807.92999999999,"N_COORD97":2543095.6000000001,"ADDRESS":"裕和五街１００號","OBJECTID":557687},"geometry":{"x":172807.93000000063,"y":2543095.6000000015}},{"attributes":{"ID":557715,"DIS_CODE":0,"TOWNNAME":"東區","LI":"關聖里","LIN":"21鄰","STREET":"裕和五街","SECT":" ","MAREA":" ","LANE":" ","ALLEY":" ","HOUSE_NO":"１０２號","E_COORD97":172807.44,"N_COORD97":2543084.2999999998,"ADDRESS":"裕和五街１０２號","OBJECTID":557688},"geometry":{"x":172807.44000000041,"y":2543084.3000000026}},{"attributes":{"ID":557716,"DIS_CODE":0,"TOWNNAME":"東區","LI":"關聖里","LIN":"21鄰","STREET":"裕和五街","SECT":" ","MAREA":" ","LANE":" ","ALLEY":" ","HOUSE_NO":"９５號","E_COORD97":172828.69,"N_COORD97":2543058.6299999999,"ADDRESS":"裕和五街９５號","OBJECTID":557689},"geometry":{"x":172828.69000000134,"y":2543058.629999999}},{"attributes":{"ID":557717,"DIS_CODE":0,"TOWNNAME":"東區","LI":"裕聖里","LIN":"21鄰","STREET":"裕忠一街","SECT":" ","MAREA":" ","LANE":" ","ALLEY":" ","HOUSE_NO":"２０號","E_COORD97":172336.37,"N_COORD97":2542398.1899999999,"ADDRESS":"裕忠一街２０號","OBJECTID":557690},"geometry":{"x":172336.37000000011,"y":2542398.1899999976}},{"attributes":{"ID":557718,"DIS_CODE":0,"TOWNNAME":"東區","LI":"裕聖里","LIN":"21鄰","STREET":"裕忠一街","SECT":" ","MAREA":" ","LANE":" ","ALLEY":" ","HOUSE_NO":"２２號","E_COORD97":172336.37,"N_COORD97":2542391.8100000001,"ADDRESS":"裕忠一街２２號","OBJECTID":557691},"geometry":{"x":172336.37000000011,"y":2542391.8100000042}},{"attributes":{"ID":557719,"DIS_CODE":0,"TOWNNAME":"仁德區","LI":"上崙里","LIN":"21鄰","STREET":"上崙街","SECT":" ","MAREA":" ","LANE":" ","ALLEY":" ","HOUSE_NO":"２號","E_COORD97":173799.01000000001,"N_COORD97":2538142.25,"ADDRESS":"上崙街２號","OBJECTID":557692},"geometry":{"x":173799.01000000071,"y":2538142.25}},{"attributes":{"ID":557720,"DIS_CODE":0,"TOWNNAME":"東區","LI":"裕聖里","LIN":"21鄰","STREET":"裕忠一街","SECT":" ","MAREA":" ","LANE":" ","ALLEY":" ","HOUSE_NO":"２６號","E_COORD97":172336.62,"N_COORD97":2542385.9500000002,"ADDRESS":"裕忠一街２６號","OBJECTID":557693},"geometry":{"x":172336.62000000011,"y":2542385.9499999993}},{"attributes":{"ID":557721,"DIS_CODE":0,"TOWNNAME":"東區","LI":"裕聖里","LIN":"21鄰","STREET":"裕忠一街","SECT":" ","MAREA":" ","LANE":" ","ALLEY":" ","HOUSE_NO":"２８號","E_COORD97":172336.62,"N_COORD97":2542381.1099999999,"ADDRESS":"裕忠一街２８號","OBJECTID":557694},"geometry":{"x":172336.62000000011,"y":2542381.1099999994}},{"attributes":{"ID":557722,"DIS_CODE":0,"TOWNNAME":"東區","LI":"裕聖里","LIN":"21鄰","STREET":"裕忠一街","SECT":" ","MAREA":" ","LANE":" ","ALLEY":" ","HOUSE_NO":"３０號","E_COORD97":172348.85999999999,"N_COORD97":2542380.3399999999,"ADDRESS":"裕忠一街３０號","OBJECTID":557695},"geometry":{"x":172348.86000000034,"y":2542380.3399999999}},{"attributes":{"ID":557723,"DIS_CODE":0,"TOWNNAME":"東區","LI":"裕聖里","LIN":"21鄰","STREET":"裕忠一街","SECT":" ","MAREA":" ","LANE":" ","ALLEY":" ","HOUSE_NO":"３２號","E_COORD97":172348.10000000001,"N_COORD97":2542385.4399999999,"ADDRESS":"裕忠一街３２號","OBJECTID":557696},"geometry":{"x":172348.09999999963,"y":2542385.4399999995}},{"attributes":{"ID":557724,"DIS_CODE":0,"TOWNNAME":"東區","LI":"裕聖里","LIN":"21鄰","STREET":"裕忠一街","SECT":" ","MAREA":" ","LANE":" ","ALLEY":" ","HOUSE_NO":"３６號","E_COORD97":172347.59,"N_COORD97":2542391.5600000001,"ADDRESS":"裕忠一街３６號","OBJECTID":557697},"geometry":{"x":172347.59000000078,"y":2542391.5600000024}},{"attributes":{"ID":557725,"DIS_CODE":0,"TOWNNAME":"東區","LI":"裕聖里","LIN":"21鄰","STREET":"裕忠一街","SECT":" ","MAREA":" ","LANE":" ","ALLEY":" ","HOUSE_NO":"３８號","E_COORD97":172347.32999999999,"N_COORD97":2542397.6800000002,"ADDRESS":"裕忠一街３８號","OBJECTID":557698},"geometry":{"x":172347.32999999914,"y":2542397.6799999997}},{"attributes":{"ID":557726,"DIS_CODE":0,"TOWNNAME":"東區","LI":"關聖里","LIN":"21鄰","STREET":"裕信路","SECT":" ","MAREA":" ","LANE":" ","ALLEY":" ","HOUSE_NO":"６１號","E_COORD97":172621.35000000001,"N_COORD97":2543102.4500000002,"ADDRESS":"裕信路６１號","OBJECTID":557699},"geometry":{"x":172621.3499999987,"y":2543102.4500000011}},{"attributes":{"ID":557727,"DIS_CODE":0,"TOWNNAME":"東區","LI":"關聖里","LIN":"21鄰","STREET":"裕信路","SECT":" ","MAREA":" ","LANE":" ","ALLEY":" ","HOUSE_NO":"６３號","E_COORD97":172620.64000000001,"N_COORD97":2543095.2799999998,"ADDRESS":"裕信路６３號","OBJECTID":557700},"geometry":{"x":172620.63999999966,"y":2543095.2799999993}},{"attributes":{"ID":557728,"DIS_CODE":0,"TOWNNAME":"善化區","LI":"光文里","LIN":"21鄰","STREET":"中山路","SECT":" ","MAREA":" ","LANE":" ","ALLEY":" ","HOUSE_NO":"２６１號","E_COORD97":177979.34,"N_COORD97":2559074.75,"ADDRESS":"中山路２６１號","OBJECTID":557701},"geometry":{"x":177979.34000000078,"y":2559074.75}},{"attributes":{"ID":557729,"DIS_CODE":0,"TOWNNAME":"善化區","LI":"光文里","LIN":"21鄰","STREET":"中山路","SECT":" ","MAREA":" ","LANE":" ","ALLEY":" ","HOUSE_NO":"２５７之１號","E_COORD97":178000.10999999999,"N_COORD97":2559077.77,"ADDRESS":"中山路２５７之１號","OBJECTID":557702},"geometry":{"x":178000.11000000034,"y":2559077.7699999996}},{"attributes":{"ID":557730,"DIS_CODE":0,"TOWNNAME":"善化區","LI":"光文里","LIN":"21鄰","STREET":"建國路","SECT":" ","MAREA":" ","LANE":" ","ALLEY":" ","HOUSE_NO":"１８０號","E_COORD97":177985.29999999999,"N_COORD97":2559020.7799999998,"ADDRESS":"建國路１８０號","OBJECTID":557703},"geometry":{"x":177985.29999999981,"y":2559020.7800000031}},{"attributes":{"ID":557731,"DIS_CODE":0,"TOWNNAME":"善化區","LI":"光文里","LIN":"21鄰","STREET":"民族路","SECT":" ","MAREA":" ","LANE":" ","ALLEY":" ","HOUSE_NO":"１６５號","E_COORD97":178070.88,"N_COORD97":2559059.0099999998,"ADDRESS":"民族路１６５號","OBJECTID":557704},"geometry":{"x":178070.87999999989,"y":2559059.0099999998}},{"attributes":{"ID":557732,"DIS_CODE":0,"TOWNNAME":"善化區","LI":"胡厝里","LIN":"21鄰","STREET":"南科北路","SECT":" ","MAREA":" ","LANE":" ","ALLEY":" ","HOUSE_NO":"１４５號","E_COORD97":175575.89999999999,"N_COORD97":2558931.25,"ADDRESS":"南科北路１４５號","OBJECTID":557705},"geometry":{"x":175575.90000000037,"y":2558931.2500000019}},{"attributes":{"ID":557733,"DIS_CODE":0,"TOWNNAME":"仁德區","LI":"土庫里","LIN":"21鄰","STREET":"太子二街","SECT":" ","MAREA":" ","LANE":" ","ALLEY":" ","HOUSE_NO":"１００號","E_COORD97":174421.95000000001,"N_COORD97":2543310.0099999998,"ADDRESS":"太子二街１００號","OBJECTID":557706},"geometry":{"x":174421.95000000112,"y":2543310.0100000016}},{"attributes":{"ID":557734,"DIS_CODE":0,"TOWNNAME":"仁德區","LI":"土庫里","LIN":"21鄰","STREET":"太子二街","SECT":" ","MAREA":" ","LANE":" ","ALLEY":" ","HOUSE_NO":"８６號","E_COORD97":174349.37,"N_COORD97":2543295.5,"ADDRESS":"太子二街８６號","OBJECTID":557707},"geometry":{"x":174349.37000000104,"y":2543295.5000000037}},{"attributes":{"ID":557735,"DIS_CODE":0,"TOWNNAME":"仁德區","LI":"二行里","LIN":"21鄰","STREET":"二行一路","SECT":" ","MAREA":" ","LANE":" ","ALLEY":" ","HOUSE_NO":"８１號","E_COORD97":170414.38,"N_COORD97":2535338.5,"ADDRESS":"二行一路８１號","OBJECTID":557708},"geometry":{"x":170414.38000000175,"y":2535338.5000000019}},{"attributes":{"ID":557736,"DIS_CODE":0,"TOWNNAME":"仁德區","LI":"太子里","LIN":"21鄰","STREET":"太子北路","SECT":" ","MAREA":" ","LANE":" ","ALLEY":" ","HOUSE_NO":"１３７號","E_COORD97":173906.57000000001,"N_COORD97":2543671.5,"ADDRESS":"太子北路１３７號","OBJECTID":557709},"geometry":{"x":173906.5700000003,"y":2543671.4999999981}},{"attributes":{"ID":557737,"DIS_CODE":0,"TOWNNAME":"仁德區","LI":"仁義里","LIN":"21鄰","STREET":"中山路","SECT":" ","MAREA":" ","LANE":" ","ALLEY":" ","HOUSE_NO":"３９２號","E_COORD97":173802.35000000001,"N_COORD97":2541281.2400000002,"ADDRESS":"中山路３９２號","OBJECTID":557710},"geometry":{"x":173802.34999999963,"y":2541281.2400000021}},{"attributes":{"ID":557738,"DIS_CODE":0,"TOWNNAME":"仁德區","LI":"二行里","LIN":"21鄰","STREET":"中正西路","SECT":" ","MAREA":" ","LANE":" ","ALLEY":" ","HOUSE_NO":"１３７號","E_COORD97":170237.62,"N_COORD97":2535390.7400000002,"ADDRESS":"中正西路１３７號","OBJECTID":557711},"geometry":{"x":170237.62000000011,"y":2535390.7399999984}},{"attributes":{"ID":557739,"DIS_CODE":0,"TOWNNAME":"仁德區","LI":"二行里","LIN":"21鄰","STREET":"中正西路","SECT":" ","MAREA":" ","LANE":" ","ALLEY":" ","HOUSE_NO":"１３９號","E_COORD97":170232.73999999999,"N_COORD97":2535389.9900000002,"ADDRESS":"中正西路１３９號","OBJECTID":557712},"geometry":{"x":170232.74000000115,"y":2535389.9900000021}},{"attributes":{"ID":557740,"DIS_CODE":0,"TOWNNAME":"仁德區","LI":"二行里","LIN":"21鄰","STREET":"中正西路","SECT":" ","MAREA":" ","LANE":" ","ALLEY":" ","HOUSE_NO":"６５號","E_COORD97":170327.10000000001,"N_COORD97":2535406.7400000002,"ADDRESS":"中正西路６５號","OBJECTID":557713},"geometry":{"x":170327.09999999963,"y":2535406.7400000002}},{"attributes":{"ID":557741,"DIS_CODE":0,"TOWNNAME":"仁德區","LI":"上崙里","LIN":"21鄰","STREET":"上崙街","SECT":" ","MAREA":" ","LANE":" ","ALLEY":" ","HOUSE_NO":"１０號","E_COORD97":173758.38,"N_COORD97":2538132,"ADDRESS":"上崙街１０號","OBJECTID":557714},"geometry":{"x":173758.37999999989,"y":2538132.0000000037}},{"attributes":{"ID":557742,"DIS_CODE":0,"TOWNNAME":"仁德區","LI":"上崙里","LIN":"21鄰","STREET":"上崙街","SECT":" ","MAREA":" ","LANE":" ","ALLEY":" ","HOUSE_NO":"２０號","E_COORD97":173729.82000000001,"N_COORD97":2538125,"ADDRESS":"上崙街２０號","OBJECTID":557715},"geometry":{"x":173729.82000000123,"y":2538125.0000000037}},{"attributes":{"ID":557743,"DIS_CODE":0,"TOWNNAME":"仁德區","LI":"二行里","LIN":"21鄰","STREET":"中正西路","SECT":" ","MAREA":" ","LANE":" ","ALLEY":" ","HOUSE_NO":"２１號","E_COORD97":170463.10000000001,"N_COORD97":2535430,"ADDRESS":"中正西路２１號","OBJECTID":557716},"geometry":{"x":170463.09999999963,"y":2535430.0000000019}},{"attributes":{"ID":557744,"DIS_CODE":0,"TOWNNAME":"仁德區","LI":"二行里","LIN":"21鄰","STREET":"中正西路","SECT":" ","MAREA":" ","LANE":" ","ALLEY":" ","HOUSE_NO":"４３號","E_COORD97":170409.04000000001,"N_COORD97":2535420.4900000002,"ADDRESS":"中正西路４３號","OBJECTID":557717},"geometry":{"x":170409.04000000097,"y":2535420.4900000021}},{"attributes":{"ID":557745,"DIS_CODE":0,"TOWNNAME":"仁德區","LI":"上崙里","LIN":"21鄰","STREET":"德崙路","SECT":" ","MAREA":" ","LANE":" ","ALLEY":" ","HOUSE_NO":"２４２號","E_COORD97":173718.67999999999,"N_COORD97":2538226.77,"ADDRESS":"德崙路２４２號","OBJECTID":557718},"geometry":{"x":173718.6799999997,"y":2538226.7699999996}},{"attributes":{"ID":557746,"DIS_CODE":0,"TOWNNAME":"仁德區","LI":"二行里","LIN":"21鄰","STREET":"中正西路","SECT":" ","MAREA":" ","LANE":" ","ALLEY":" ","HOUSE_NO":"４５號","E_COORD97":170402.79999999999,"N_COORD97":2535420.7400000002,"ADDRESS":"中正西路４５號","OBJECTID":557719},"geometry":{"x":170402.79999999981,"y":2535420.7400000002}},{"attributes":{"ID":557747,"DIS_CODE":0,"TOWNNAME":"仁德區","LI":"二行里","LIN":"21鄰","STREET":"中正西路","SECT":" ","MAREA":" ","LANE":" ","ALLEY":" ","HOUSE_NO":"４７號","E_COORD97":170396.32000000001,"N_COORD97":2535420.7400000002,"ADDRESS":"中正西路４７號","OBJECTID":557720},"geometry":{"x":170396.3200000003,"y":2535420.7400000002}},{"attributes":{"ID":557748,"DIS_CODE":0,"TOWNNAME":"仁德區","LI":"二行里","LIN":"21鄰","STREET":"二行一路","SECT":" ","MAREA":" ","LANE":" ","ALLEY":" ","HOUSE_NO":"１０５號","E_COORD97":170453.45000000001,"N_COORD97":2535395.4900000002,"ADDRESS":"二行一路１０５號","OBJECTID":557721},"geometry":{"x":170453.45000000112,"y":2535395.4900000002}},{"attributes":{"ID":557749,"DIS_CODE":0,"TOWNNAME":"仁德區","LI":"二行里","LIN":"21鄰","STREET":"中正西路","SECT":" ","MAREA":" ","LANE":" ","ALLEY":" ","HOUSE_NO":"３７號","E_COORD97":170425.41,"N_COORD97":2535425.25,"ADDRESS":"中正西路３７號","OBJECTID":557722},"geometry":{"x":170425.41000000108,"y":2535425.2500000019}},{"attributes":{"ID":557750,"DIS_CODE":0,"TOWNNAME":"仁德區","LI":"上崙里","LIN":"21鄰","STREET":"德崙路","SECT":" ","MAREA":" ","LANE":" ","ALLEY":" ","HOUSE_NO":"２４８號","E_COORD97":173727.03,"N_COORD97":2538217.0099999998,"ADDRESS":"德崙路２４８號","OBJECTID":557723},"geometry":{"x":173727.03000000026,"y":2538217.0100000016}},{"attributes":{"ID":557751,"DIS_CODE":0,"TOWNNAME":"仁德區","LI":"上崙里","LIN":"21鄰","STREET":"上崙街","SECT":" ","MAREA":" ","LANE":" ","ALLEY":" ","HOUSE_NO":"８號","E_COORD97":173768.04000000001,"N_COORD97":2538133.5,"ADDRESS":"上崙街８號","OBJECTID":557724},"geometry":{"x":173768.04000000004,"y":2538133.5}},{"attributes":{"ID":557752,"DIS_CODE":0,"TOWNNAME":"仁德區","LI":"上崙里","LIN":"21鄰","STREET":"德崙路","SECT":" ","MAREA":" ","LANE":" ","ALLEY":" ","HOUSE_NO":"２４６號","E_COORD97":173724.22,"N_COORD97":2538220.5099999998,"ADDRESS":"德崙路２４６號","OBJECTID":557725},"geometry":{"x":173724.21999999881,"y":2538220.5100000016}},{"attributes":{"ID":557753,"DIS_CODE":0,"TOWNNAME":"仁德區","LI":"上崙里","LIN":"21鄰","STREET":"德崙路","SECT":" ","MAREA":" ","LANE":" ","ALLEY":" ","HOUSE_NO":"２５０號","E_COORD97":173735.56,"N_COORD97":2538208.5099999998,"ADDRESS":"德崙路２５０號","OBJECTID":557726},"geometry":{"x":173735.56000000052,"y":2538208.5099999998}},{"attributes":{"ID":557754,"DIS_CODE":0,"TOWNNAME":"仁德區","LI":"上崙里","LIN":"21鄰","STREET":"德崙路","SECT":" ","MAREA":" ","LANE":" ","ALLEY":" ","HOUSE_NO":"２４６之１號","E_COORD97":173717.67999999999,"N_COORD97":2538213.04,"ADDRESS":"德崙路２４６之１號","OBJECTID":557727},"geometry":{"x":173717.68000000156,"y":2538213.040000001}},{"attributes":{"ID":557755,"DIS_CODE":0,"TOWNNAME":"仁德區","LI":"上崙里","LIN":"21鄰","STREET":"德崙路","SECT":" ","MAREA":" ","LANE":" ","ALLEY":" ","HOUSE_NO":"２４４號","E_COORD97":173721.53,"N_COORD97":2538224.02,"ADDRESS":"德崙路２４４號","OBJECTID":557728},"geometry":{"x":173721.53000000119,"y":2538224.0200000014}},{"attributes":{"ID":557756,"DIS_CODE":0,"TOWNNAME":"仁德區","LI":"上崙里","LIN":"21鄰","STREET":"德崙路","SECT":" ","MAREA":" ","LANE":" ","ALLEY":" ","HOUSE_NO":"２５４號","E_COORD97":173730.10000000001,"N_COORD97":2538197.2599999998,"ADDRESS":"德崙路２５４號","OBJECTID":557729},"geometry":{"x":173730.10000000149,"y":2538197.2599999998}},{"attributes":{"ID":557757,"DIS_CODE":0,"TOWNNAME":"仁德區","LI":"二行里","LIN":"21鄰","STREET":"中正西路","SECT":" ","MAREA":" ","LANE":" ","ALLEY":" ","HOUSE_NO":"３９號","E_COORD97":170418.79000000001,"N_COORD97":2535424.7400000002,"ADDRESS":"中正西路３９號","OBJECTID":557730},"geometry":{"x":170418.79000000097,"y":2535424.7400000039}},{"attributes":{"ID":557758,"DIS_CODE":0,"TOWNNAME":"仁德區","LI":"上崙里","LIN":"21鄰","STREET":"上崙街","SECT":" ","MAREA":" ","LANE":" ","ALLEY":" ","HOUSE_NO":"２２號","E_COORD97":173723.29999999999,"N_COORD97":2538114.2400000002,"ADDRESS":"上崙街２２號","OBJECTID":557731},"geometry":{"x":173723.29999999981,"y":2538114.2400000021}},{"attributes":{"ID":557759,"DIS_CODE":0,"TOWNNAME":"仁德區","LI":"二行里","LIN":"21鄰","STREET":"二行一路","SECT":" ","MAREA":" ","LANE":" ","ALLEY":" ","HOUSE_NO":"１１１號","E_COORD97":170461.64999999999,"N_COORD97":2535409.2400000002,"ADDRESS":"二行一路１１１號","OBJECTID":557732},"geometry":{"x":170461.65000000037,"y":2535409.2400000021}},{"attributes":{"ID":557760,"DIS_CODE":0,"TOWNNAME":"仁德區","LI":"二行里","LIN":"21鄰","STREET":"中正西路","SECT":" ","MAREA":" ","LANE":" ","ALLEY":" ","HOUSE_NO":"１３３號","E_COORD97":170247.20999999999,"N_COORD97":2535392.4900000002,"ADDRESS":"中正西路１３３號","OBJECTID":557733},"geometry":{"x":170247.20999999996,"y":2535392.4899999984}},{"attributes":{"ID":557761,"DIS_CODE":0,"TOWNNAME":"仁德區","LI":"二行里","LIN":"21鄰","STREET":"二行一路","SECT":" ","MAREA":" ","LANE":" ","ALLEY":" ","HOUSE_NO":"７７號","E_COORD97":170410.54000000001,"N_COORD97":2535327.75,"ADDRESS":"二行一路７７號","OBJECTID":557734},"geometry":{"x":170410.54000000097,"y":2535327.7500000019}},{"attributes":{"ID":557762,"DIS_CODE":0,"TOWNNAME":"仁德區","LI":"二行里","LIN":"21鄰","STREET":"二行一路","SECT":" ","MAREA":" ","LANE":" ","ALLEY":" ","HOUSE_NO":"７９號","E_COORD97":170413.48000000001,"N_COORD97":2535333.25,"ADDRESS":"二行一路７９號","OBJECTID":557735},"geometry":{"x":170413.48000000045,"y":2535333.2500000037}},{"attributes":{"ID":557763,"DIS_CODE":0,"TOWNNAME":"仁德區","LI":"二行里","LIN":"21鄰","STREET":"二行一路","SECT":" ","MAREA":" ","LANE":" ","ALLEY":" ","HOUSE_NO":"６９號","E_COORD97":170399.95999999999,"N_COORD97":2535309.2400000002,"ADDRESS":"二行一路６９號","OBJECTID":557736},"geometry":{"x":170399.95999999996,"y":2535309.2400000002}},{"attributes":{"ID":557764,"DIS_CODE":0,"TOWNNAME":"仁德區","LI":"二行里","LIN":"21鄰","STREET":"二行一路","SECT":" ","MAREA":" ","LANE":" ","ALLEY":" ","HOUSE_NO":"９７號","E_COORD97":170439.03,"N_COORD97":2535379.2400000002,"ADDRESS":"二行一路９７號","OBJECTID":557737},"geometry":{"x":170439.02999999933,"y":2535379.2400000002}},{"attributes":{"ID":557765,"DIS_CODE":0,"TOWNNAME":"仁德區","LI":"二行里","LIN":"21鄰","STREET":"二行一路","SECT":" ","MAREA":" ","LANE":" ","ALLEY":" ","HOUSE_NO":"９９號","E_COORD97":170442.72,"N_COORD97":2535384.4900000002,"ADDRESS":"二行一路９９號","OBJECTID":557738},"geometry":{"x":170442.72000000067,"y":2535384.4900000002}},{"attributes":{"ID":557766,"DIS_CODE":0,"TOWNNAME":"仁德區","LI":"二行里","LIN":"21鄰","STREET":"中正西路","SECT":" ","MAREA":" ","LANE":" ","ALLEY":" ","HOUSE_NO":"２３號","E_COORD97":170449.45000000001,"N_COORD97":2535430.25,"ADDRESS":"中正西路２３號","OBJECTID":557739},"geometry":{"x":170449.45000000019,"y":2535430.25}},{"attributes":{"ID":557767,"DIS_CODE":0,"TOWNNAME":"仁德區","LI":"二行里","LIN":"21鄰","STREET":"二行一路","SECT":" ","MAREA":" ","LANE":" ","ALLEY":" ","HOUSE_NO":"７３號","E_COORD97":170408.20999999999,"N_COORD97":2535322.75,"ADDRESS":"二行一路７３號","OBJECTID":557740},"geometry":{"x":170408.20999999996,"y":2535322.7500000037}},{"attributes":{"ID":557768,"DIS_CODE":0,"TOWNNAME":"仁德區","LI":"二行里","LIN":"21鄰","STREET":"中正西路","SECT":" ","MAREA":" ","LANE":" ","ALLEY":" ","HOUSE_NO":"２５號","E_COORD97":170441.01000000001,"N_COORD97":2535428.25,"ADDRESS":"中正西路２５號","OBJECTID":557741},"geometry":{"x":170441.01000000071,"y":2535428.2500000019}},{"attributes":{"ID":557769,"DIS_CODE":0,"TOWNNAME":"南區","LI":"廣州里","LIN":"21鄰","STREET":"福吉五街","SECT":" ","MAREA":" ","LANE":" ","ALLEY":" ","HOUSE_NO":"３０號","E_COORD97":167212.07000000001,"N_COORD97":2542578.6400000001,"ADDRESS":"福吉五街３０號","OBJECTID":557742},"geometry":{"x":167212.07000000123,"y":2542578.6400000006}},{"attributes":{"ID":557770,"DIS_CODE":0,"TOWNNAME":"南區","LI":"新昌里","LIN":"21鄰","STREET":"西門路","SECT":"一段","MAREA":" ","LANE":" ","ALLEY":" ","HOUSE_NO":"６６５號","E_COORD97":167705.92000000001,"N_COORD97":2543005.7200000002,"ADDRESS":"西門路一段６６５號","OBJECTID":557743},"geometry":{"x":167705.92000000086,"y":2543005.7200000007}},{"attributes":{"ID":557771,"DIS_CODE":0,"TOWNNAME":"南區","LI":"新昌里","LIN":"21鄰","STREET":"西門路","SECT":"一段","MAREA":" ","LANE":" ","ALLEY":" ","HOUSE_NO":"６６７號","E_COORD97":167703.67000000001,"N_COORD97":2543011.5099999998,"ADDRESS":"西門路一段６６７號","OBJECTID":557744},"geometry":{"x":167703.67000000086,"y":2543011.5100000016}},{"attributes":{"ID":557772,"DIS_CODE":0,"TOWNNAME":"南區","LI":"新昌里","LIN":"21鄰","STREET":"樹林街","SECT":"二段","MAREA":" ","LANE":" ","ALLEY":" ","HOUSE_NO":"４２８號","E_COORD97":167648.98000000001,"N_COORD97":2543007.6499999999,"ADDRESS":"樹林街二段４２８號","OBJECTID":557745},"geometry":{"x":167648.98000000045,"y":2543007.6500000022}},{"attributes":{"ID":557773,"DIS_CODE":0,"TOWNNAME":"南區","LI":"新昌里","LIN":"21鄰","STREET":"樹林街","SECT":"二段","MAREA":" ","LANE":" ","ALLEY":" ","HOUSE_NO":"４４２號","E_COORD97":167581.51000000001,"N_COORD97":2543022.9900000002,"ADDRESS":"樹林街二段４４２號","OBJECTID":557746},"geometry":{"x":167581.51000000071,"y":2543022.9900000002}},{"attributes":{"ID":557774,"DIS_CODE":0,"TOWNNAME":"南區","LI":"廣州里","LIN":"21鄰","STREET":"福吉五街","SECT":" ","MAREA":" ","LANE":" ","ALLEY":" ","HOUSE_NO":"２號","E_COORD97":167260.63,"N_COORD97":2542531.9900000002,"ADDRESS":"福吉五街２號","OBJECTID":557747},"geometry":{"x":167260.62999999989,"y":2542531.9900000002}},{"attributes":{"ID":557775,"DIS_CODE":0,"TOWNNAME":"南區","LI":"廣州里","LIN":"21鄰","STREET":"福吉五街","SECT":" ","MAREA":" ","LANE":" ","ALLEY":" ","HOUSE_NO":"４號","E_COORD97":167258.51999999999,"N_COORD97":2542537.0499999998,"ADDRESS":"福吉五街４號","OBJECTID":557748},"geometry":{"x":167258.52000000048,"y":2542537.0500000026}},{"attributes":{"ID":557776,"DIS_CODE":0,"TOWNNAME":"南區","LI":"廣州里","LIN":"21鄰","STREET":"福吉五街","SECT":" ","MAREA":" ","LANE":" ","ALLEY":" ","HOUSE_NO":"６號","E_COORD97":167252.60999999999,"N_COORD97":2542540,"ADDRESS":"福吉五街６號","OBJECTID":557749},"geometry":{"x":167252.61000000034,"y":2542540.0000000019}},{"attributes":{"ID":557777,"DIS_CODE":0,"TOWNNAME":"南區","LI":"廣州里","LIN":"21鄰","STREET":"福吉五街","SECT":" ","MAREA":" ","LANE":" ","ALLEY":" ","HOUSE_NO":"１４號","E_COORD97":167240.35999999999,"N_COORD97":2542553.5,"ADDRESS":"福吉五街１４號","OBJECTID":557750},"geometry":{"x":167240.36000000127,"y":2542553.5000000019}},{"attributes":{"ID":557778,"DIS_CODE":0,"TOWNNAME":"南區","LI":"廣州里","LIN":"21鄰","STREET":"福吉五街","SECT":" ","MAREA":" ","LANE":" ","ALLEY":" ","HOUSE_NO":"１８號","E_COORD97":167231.07000000001,"N_COORD97":2542561.0899999999,"ADDRESS":"福吉五街１８號","OBJECTID":557751},"geometry":{"x":167231.0700000003,"y":2542561.0899999999}},{"attributes":{"ID":557779,"DIS_CODE":0,"TOWNNAME":"南區","LI":"廣州里","LIN":"21鄰","STREET":"福吉五街","SECT":" ","MAREA":" ","LANE":" ","ALLEY":" ","HOUSE_NO":"２０號","E_COORD97":167229.81,"N_COORD97":2542566.1499999999,"ADDRESS":"福吉五街２０號","OBJECTID":557752},"geometry":{"x":167229.81000000052,"y":2542566.1500000022}},{"attributes":{"ID":557780,"DIS_CODE":0,"TOWNNAME":"南區","LI":"廣州里","LIN":"21鄰","STREET":"福吉五街","SECT":" ","MAREA":" ","LANE":" ","ALLEY":" ","HOUSE_NO":"２２號","E_COORD97":167223.89000000001,"N_COORD97":2542564.8799999999,"ADDRESS":"福吉五街２２號","OBJECTID":557753},"geometry":{"x":167223.8900000006,"y":2542564.879999999}},{"attributes":{"ID":557781,"DIS_CODE":0,"TOWNNAME":"南區","LI":"廣州里","LIN":"21鄰","STREET":"福吉五街","SECT":" ","MAREA":" ","LANE":" ","ALLEY":" ","HOUSE_NO":"２４號","E_COORD97":167221.35999999999,"N_COORD97":2542568.6800000002,"ADDRESS":"福吉五街２４號","OBJECTID":557754},"geometry":{"x":167221.3600000022,"y":2542568.6800000016}},{"attributes":{"ID":557782,"DIS_CODE":0,"TOWNNAME":"南區","LI":"廣州里","LIN":"21鄰","STREET":"福吉五街","SECT":" ","MAREA":" ","LANE":" ","ALLEY":" ","HOUSE_NO":"２６號","E_COORD97":167217.56,"N_COORD97":2542571.6299999999,"ADDRESS":"福吉五街２６號","OBJECTID":557755},"geometry":{"x":167217.56000000052,"y":2542571.6300000008}},{"attributes":{"ID":557783,"DIS_CODE":0,"TOWNNAME":"南區","LI":"廣州里","LIN":"21鄰","STREET":"福吉五街","SECT":" ","MAREA":" ","LANE":" ","ALLEY":" ","HOUSE_NO":"２８號","E_COORD97":167215.45000000001,"N_COORD97":2542575.27,"ADDRESS":"福吉五街２８號","OBJECTID":557756},"geometry":{"x":167215.45000000205,"y":2542575.2700000014}},{"attributes":{"ID":557784,"DIS_CODE":0,"TOWNNAME":"南區","LI":"廣州里","LIN":"21鄰","STREET":"福吉五街","SECT":" ","MAREA":" ","LANE":" ","ALLEY":" ","HOUSE_NO":"３２號","E_COORD97":167209.54000000001,"N_COORD97":2542583.2799999998,"ADDRESS":"福吉五街３２號","OBJECTID":557757},"geometry":{"x":167209.5400000019,"y":2542583.2799999993}},{"attributes":{"ID":557785,"DIS_CODE":0,"TOWNNAME":"南區","LI":"廣州里","LIN":"21鄰","STREET":"福吉五街","SECT":" ","MAREA":" ","LANE":" ","ALLEY":" ","HOUSE_NO":"３６號","E_COORD97":167203.63,"N_COORD97":2542588.7599999998,"ADDRESS":"福吉五街３６號","OBJECTID":557758},"geometry":{"x":167203.63000000175,"y":2542588.7600000016}},{"attributes":{"ID":557786,"DIS_CODE":0,"TOWNNAME":"南區","LI":"廣州里","LIN":"21鄰","STREET":"福吉五街","SECT":" ","MAREA":" ","LANE":" ","ALLEY":" ","HOUSE_NO":"４０號","E_COORD97":167190.60000000001,"N_COORD97":2542598.1400000001,"ADDRESS":"福吉五街４０號","OBJECTID":557759},"geometry":{"x":167190.60000000056,"y":2542598.1400000025}},{"attributes":{"ID":557787,"DIS_CODE":0,"TOWNNAME":"南區","LI":"廣州里","LIN":"21鄰","STREET":"福吉五街","SECT":" ","MAREA":" ","LANE":" ","ALLEY":" ","HOUSE_NO":"４２號","E_COORD97":167186.20999999999,"N_COORD97":2542601.0800000001,"ADDRESS":"福吉五街４２號","OBJECTID":557760},"geometry":{"x":167186.21000000183,"y":2542601.0800000019}},{"attributes":{"ID":557788,"DIS_CODE":0,"TOWNNAME":"南區","LI":"廣州里","LIN":"21鄰","STREET":"福吉五街","SECT":" ","MAREA":" ","LANE":" ","ALLEY":" ","HOUSE_NO":"４６號","E_COORD97":167181.56,"N_COORD97":2542605.3599999999,"ADDRESS":"福吉五街４６號","OBJECTID":557761},"geometry":{"x":167181.55999999959,"y":2542605.3600000013}},{"attributes":{"ID":557789,"DIS_CODE":0,"TOWNNAME":"南區","LI":"廣州里","LIN":"21鄰","STREET":"福吉路","SECT":" ","MAREA":" ","LANE":" ","ALLEY":" ","HOUSE_NO":"５８號","E_COORD97":167287.23000000001,"N_COORD97":2542540.8500000001,"ADDRESS":"福吉路５８號","OBJECTID":557762},"geometry":{"x":167287.23000000138,"y":2542540.8500000015}},{"attributes":{"ID":557790,"DIS_CODE":0,"TOWNNAME":"南區","LI":"廣州里","LIN":"21鄰","STREET":"福吉路","SECT":" ","MAREA":" ","LANE":" ","ALLEY":" ","HOUSE_NO":"６０號","E_COORD97":167285.54000000001,"N_COORD97":2542535.3599999999,"ADDRESS":"福吉路６０號","OBJECTID":557763},"geometry":{"x":167285.54000000004,"y":2542535.3599999994}},{"attributes":{"ID":557791,"DIS_CODE":0,"TOWNNAME":"南區","LI":"新興里","LIN":"21鄰","STREET":"三官路","SECT":" ","MAREA":" ","LANE":" ","ALLEY":" ","HOUSE_NO":"２０９號","E_COORD97":167200.62,"N_COORD97":2541977.4700000002,"ADDRESS":"三官路２０９號","OBJECTID":557764},"geometry":{"x":167200.62000000197,"y":2541977.4700000044}},{"attributes":{"ID":557792,"DIS_CODE":0,"TOWNNAME":"南區","LI":"新興里","LIN":"21鄰","STREET":"三官路","SECT":" ","MAREA":" ","LANE":" ","ALLEY":" ","HOUSE_NO":"２１１號","E_COORD97":167190.62,"N_COORD97":2541978.1099999999,"ADDRESS":"三官路２１１號","OBJECTID":557765},"geometry":{"x":167190.62000000104,"y":2541978.1099999994}},{"attributes":{"ID":557793,"DIS_CODE":0,"TOWNNAME":"東區","LI":"關聖里","LIN":"21鄰","STREET":"裕英街","SECT":" ","MAREA":" ","LANE":" ","ALLEY":" ","HOUSE_NO":"２１５號","E_COORD97":172747.04999999999,"N_COORD97":2543025.0499999998,"ADDRESS":"裕英街２１５號","OBJECTID":557766},"geometry":{"x":172747.04999999981,"y":2543025.0500000026}},{"attributes":{"ID":557794,"DIS_CODE":0,"TOWNNAME":"東區","LI":"關聖里","LIN":"21鄰","STREET":"裕英街","SECT":" ","MAREA":" ","LANE":" ","ALLEY":" ","HOUSE_NO":"２１７號","E_COORD97":172751.09,"N_COORD97":2543025.0499999998,"ADDRESS":"裕英街２１７號","OBJECTID":557767},"geometry":{"x":172751.09000000078,"y":2543025.0500000026}},{"attributes":{"ID":557795,"DIS_CODE":0,"TOWNNAME":"東區","LI":"關聖里","LIN":"21鄰","STREET":"裕英街","SECT":" ","MAREA":" ","LANE":" ","ALLEY":" ","HOUSE_NO":"２１９號","E_COORD97":172754.82999999999,"N_COORD97":2543025.0499999998,"ADDRESS":"裕英街２１９號","OBJECTID":557768},"geometry":{"x":172754.83000000101,"y":2543025.0500000026}},{"attributes":{"ID":557796,"DIS_CODE":0,"TOWNNAME":"東區","LI":"關聖里","LIN":"21鄰","STREET":"裕英街","SECT":" ","MAREA":" ","LANE":" ","ALLEY":" ","HOUSE_NO":"２２１號","E_COORD97":172759.19,"N_COORD97":2543025.21,"ADDRESS":"裕英街２２１號","OBJECTID":557769},"geometry":{"x":172759.19000000134,"y":2543025.2100000028}},{"attributes":{"ID":557797,"DIS_CODE":0,"TOWNNAME":"東區","LI":"關聖里","LIN":"21鄰","STREET":"裕英街","SECT":" ","MAREA":" ","LANE":" ","ALLEY":" ","HOUSE_NO":"２２３號","E_COORD97":172762.92000000001,"N_COORD97":2543025.21,"ADDRESS":"裕英街２２３號","OBJECTID":557770},"geometry":{"x":172762.91999999993,"y":2543025.2100000028}},{"attributes":{"ID":557798,"DIS_CODE":0,"TOWNNAME":"東區","LI":"關聖里","LIN":"21鄰","STREET":"裕英街","SECT":" ","MAREA":" ","LANE":" ","ALLEY":" ","HOUSE_NO":"２２５號","E_COORD97":172766.81,"N_COORD97":2543025.21,"ADDRESS":"裕英街２２５號","OBJECTID":557771},"geometry":{"x":172766.80999999959,"y":2543025.2100000028}},{"attributes":{"ID":557799,"DIS_CODE":0,"TOWNNAME":"東區","LI":"關聖里","LIN":"21鄰","STREET":"裕英街","SECT":" ","MAREA":" ","LANE":" ","ALLEY":" ","HOUSE_NO":"２２７號","E_COORD97":172775.51999999999,"N_COORD97":2543025.52,"ADDRESS":"裕英街２２７號","OBJECTID":557772},"geometry":{"x":172775.51999999955,"y":2543025.5199999996}},{"attributes":{"ID":557800,"DIS_CODE":0,"TOWNNAME":"東區","LI":"關聖里","LIN":"21鄰","STREET":"裕英街","SECT":" ","MAREA":" ","LANE":" ","ALLEY":" ","HOUSE_NO":"２２９號","E_COORD97":172780.5,"N_COORD97":2543025.21,"ADDRESS":"裕英街２２９號","OBJECTID":557773},"geometry":{"x":172780.50000000093,"y":2543025.2100000028}},{"attributes":{"ID":557801,"DIS_CODE":0,"TOWNNAME":"東區","LI":"關聖里","LIN":"21鄰","STREET":"裕善街","SECT":" ","MAREA":" ","LANE":" ","ALLEY":" ","HOUSE_NO":"２號","E_COORD97":172677.14000000001,"N_COORD97":2543057.7200000002,"ADDRESS":"裕善街２號","OBJECTID":557774},"geometry":{"x":172677.14000000153,"y":2543057.7200000025}},{"attributes":{"ID":557802,"DIS_CODE":0,"TOWNNAME":"東區","LI":"關聖里","LIN":"21鄰","STREET":"裕善街","SECT":" ","MAREA":" ","LANE":" ","ALLEY":" ","HOUSE_NO":"６號","E_COORD97":172684.07999999999,"N_COORD97":2543059.9500000002,"ADDRESS":"裕善街６號","OBJECTID":557775},"geometry":{"x":172684.08000000007,"y":2543059.9499999993}},{"attributes":{"ID":557803,"DIS_CODE":0,"TOWNNAME":"東區","LI":"關聖里","LIN":"21鄰","STREET":"裕義路","SECT":" ","MAREA":" ","LANE":" ","ALLEY":" ","HOUSE_NO":"１３６號","E_COORD97":172866.24480799999,"N_COORD97":2543077.29428,"ADDRESS":"裕義路１３６號","OBJECTID":557776},"geometry":{"x":172866.24480799958,"y":2543077.294284001}},{"attributes":{"ID":557804,"DIS_CODE":0,"TOWNNAME":"東區","LI":"關聖里","LIN":"21鄰","STREET":"裕義路","SECT":" ","MAREA":" ","LANE":" ","ALLEY":" ","HOUSE_NO":"１３８號","E_COORD97":172866.032905,"N_COORD97":2543072.21429,"ADDRESS":"裕義路１３８號","OBJECTID":557777},"geometry":{"x":172866.03290500119,"y":2543072.2142870016}},{"attributes":{"ID":557805,"DIS_CODE":0,"TOWNNAME":"東區","LI":"崇信里","LIN":"21鄰","STREET":"崇善一街","SECT":" ","MAREA":" ","LANE":" ","ALLEY":" ","HOUSE_NO":"９６號","E_COORD97":170821.10999999999,"N_COORD97":2542317.9300000002,"ADDRESS":"崇善一街９６號","OBJECTID":557778},"geometry":{"x":170821.11000000034,"y":2542317.9299999997}},{"attributes":{"ID":557806,"DIS_CODE":0,"TOWNNAME":"東區","LI":"崇信里","LIN":"21鄰","STREET":"崇善一街","SECT":" ","MAREA":" ","LANE":" ","ALLEY":" ","HOUSE_NO":"９８號","E_COORD97":170819.14000000001,"N_COORD97":2542321.04,"ADDRESS":"崇善一街９８號","OBJECTID":557779},"geometry":{"x":170819.14000000153,"y":2542321.0400000028}},{"attributes":{"ID":557807,"DIS_CODE":0,"TOWNNAME":"東區","LI":"復興里","LIN":"21鄰","STREET":"東成街","SECT":" ","MAREA":" ","LANE":" ","ALLEY":" ","HOUSE_NO":"１９９號","E_COORD97":171860.92999999999,"N_COORD97":2542316.7999999998,"ADDRESS":"東成街１９９號","OBJECTID":557780},"geometry":{"x":171860.9299999997,"y":2542316.8000000007}},{"attributes":{"ID":557808,"DIS_CODE":0,"TOWNNAME":"東區","LI":"復興里","LIN":"21鄰","STREET":"東成街","SECT":" ","MAREA":" ","LANE":" ","ALLEY":" ","HOUSE_NO":"１９７號","E_COORD97":171852.67000000001,"N_COORD97":2542317.52,"ADDRESS":"東成街１９７號","OBJECTID":557781},"geometry":{"x":171852.66999999993,"y":2542317.5199999996}},{"attributes":{"ID":557809,"DIS_CODE":0,"TOWNNAME":"東區","LI":"復興里","LIN":"21鄰","STREET":"東成街","SECT":" ","MAREA":" ","LANE":" ","ALLEY":" ","HOUSE_NO":"１９３號","E_COORD97":171837.23000000001,"N_COORD97":2542318.3599999999,"ADDRESS":"東成街１９３號","OBJECTID":557782},"geometry":{"x":171837.23000000138,"y":2542318.3599999994}},{"attributes":{"ID":557810,"DIS_CODE":0,"TOWNNAME":"東區","LI":"復興里","LIN":"21鄰","STREET":"東成街","SECT":" ","MAREA":" ","LANE":" ","ALLEY":" ","HOUSE_NO":"１９５號","E_COORD97":171844.41,"N_COORD97":2542317.2799999998,"ADDRESS":"東成街１９５號","OBJECTID":557783},"geometry":{"x":171844.41000000015,"y":2542317.2800000012}},{"attributes":{"ID":557811,"DIS_CODE":0,"TOWNNAME":"東區","LI":"復興里","LIN":"21鄰","STREET":"自由路","SECT":"三段","MAREA":" ","LANE":" ","ALLEY":" ","HOUSE_NO":"２５６號","E_COORD97":171828.73000000001,"N_COORD97":2542321.4700000002,"ADDRESS":"自由路三段２５６號","OBJECTID":557784},"geometry":{"x":171828.73000000138,"y":2542321.4700000025}},{"attributes":{"ID":557812,"DIS_CODE":0,"TOWNNAME":"東區","LI":"崇文里","LIN":"21鄰","STREET":"崇德二十一街","SECT":" ","MAREA":" ","LANE":" ","ALLEY":" ","HOUSE_NO":"３號","E_COORD97":170826.66,"N_COORD97":2540878.1099999999,"ADDRESS":"崇德二十一街３號","OBJECTID":557785},"geometry":{"x":170826.66000000108,"y":2540878.1100000013}},{"attributes":{"ID":557813,"DIS_CODE":0,"TOWNNAME":"東區","LI":"崇文里","LIN":"21鄰","STREET":"崇德二十一街","SECT":" ","MAREA":" ","LANE":" ","ALLEY":" ","HOUSE_NO":"５號","E_COORD97":170830.92000000001,"N_COORD97":2540878.27,"ADDRESS":"崇德二十一街５號","OBJECTID":557786},"geometry":{"x":170830.91999999993,"y":2540878.2699999996}},{"attributes":{"ID":557814,"DIS_CODE":0,"TOWNNAME":"東區","LI":"崇文里","LIN":"21鄰","STREET":"崇德二十一街","SECT":" ","MAREA":" ","LANE":" ","ALLEY":" ","HOUSE_NO":"７號","E_COORD97":170834.69,"N_COORD97":2540877.7799999998,"ADDRESS":"崇德二十一街７號","OBJECTID":557787},"geometry":{"x":170834.69000000041,"y":2540877.7799999993}},{"attributes":{"ID":557815,"DIS_CODE":0,"TOWNNAME":"東區","LI":"裕聖里","LIN":"21鄰","STREET":"裕孝路","SECT":" ","MAREA":" ","LANE":" ","ALLEY":" ","HOUSE_NO":"４３８號","E_COORD97":172393.04000000001,"N_COORD97":2542366.8599999999,"ADDRESS":"裕孝路４３８號","OBJECTID":557788},"geometry":{"x":172393.04000000004,"y":2542366.8600000031}},{"attributes":{"ID":557816,"DIS_CODE":0,"TOWNNAME":"東區","LI":"裕聖里","LIN":"21鄰","STREET":"裕孝路","SECT":" ","MAREA":" ","LANE":" ","ALLEY":" ","HOUSE_NO":"４４０號","E_COORD97":172388.62,"N_COORD97":2542367.1899999999,"ADDRESS":"裕孝路４４０號","OBJECTID":557789},"geometry":{"x":172388.62000000104,"y":2542367.1899999995}},{"attributes":{"ID":557817,"DIS_CODE":0,"TOWNNAME":"東區","LI":"裕聖里","LIN":"21鄰","STREET":"裕孝路","SECT":" ","MAREA":" ","LANE":" ","ALLEY":" ","HOUSE_NO":"４４２號","E_COORD97":172383.87,"N_COORD97":2542367.1899999999,"ADDRESS":"裕孝路４４２號","OBJECTID":557790},"geometry":{"x":172383.87000000011,"y":2542367.1899999995}},{"attributes":{"ID":557818,"DIS_CODE":0,"TOWNNAME":"東區","LI":"裕聖里","LIN":"21鄰","STREET":"裕孝路","SECT":" ","MAREA":" ","LANE":" ","ALLEY":" ","HOUSE_NO":"４４８號","E_COORD97":172373.54999999999,"N_COORD97":2542367.02,"ADDRESS":"裕孝路４４８號","OBJECTID":557791},"geometry":{"x":172373.55000000075,"y":2542367.0200000014}},{"attributes":{"ID":557819,"DIS_CODE":0,"TOWNNAME":"東區","LI":"裕聖里","LIN":"21鄰","STREET":"裕孝路","SECT":" ","MAREA":" ","LANE":" ","ALLEY":" ","HOUSE_NO":"４５０號","E_COORD97":172365.70000000001,"N_COORD97":2542367.1899999999,"ADDRESS":"裕孝路４５０號","OBJECTID":557792},"geometry":{"x":172365.70000000112,"y":2542367.1899999995}},{"attributes":{"ID":557820,"DIS_CODE":0,"TOWNNAME":"東區","LI":"裕聖里","LIN":"21鄰","STREET":"裕孝路","SECT":" ","MAREA":" ","LANE":" ","ALLEY":" ","HOUSE_NO":"４５６號","E_COORD97":172360.29000000001,"N_COORD97":2542354.4199999999,"ADDRESS":"裕孝路４５６號","OBJECTID":557793},"geometry":{"x":172360.29000000097,"y":2542354.4200000018}},{"attributes":{"ID":557821,"DIS_CODE":0,"TOWNNAME":"東區","LI":"裕聖里","LIN":"21鄰","STREET":"裕孝路","SECT":" ","MAREA":" ","LANE":" ","ALLEY":" ","HOUSE_NO":"４５８號","E_COORD97":172365.70000000001,"N_COORD97":2542354.9100000001,"ADDRESS":"裕孝路４５８號","OBJECTID":557794},"geometry":{"x":172365.70000000112,"y":2542354.910000002}},{"attributes":{"ID":557822,"DIS_CODE":0,"TOWNNAME":"東區","LI":"裕聖里","LIN":"21鄰","STREET":"裕孝路","SECT":" ","MAREA":" ","LANE":" ","ALLEY":" ","HOUSE_NO":"４６０號","E_COORD97":172371.26000000001,"N_COORD97":2542355.0699999998,"ADDRESS":"裕孝路４６０號","OBJECTID":557795},"geometry":{"x":172371.26000000164,"y":2542355.0700000003}},{"attributes":{"ID":557823,"DIS_CODE":0,"TOWNNAME":"東區","LI":"裕聖里","LIN":"21鄰","STREET":"裕孝路","SECT":" ","MAREA":" ","LANE":" ","ALLEY":" ","HOUSE_NO":"４６２號","E_COORD97":172376.17000000001,"N_COORD97":2542354.9100000001,"ADDRESS":"裕孝路４６２號","OBJECTID":557796},"geometry":{"x":172376.17000000086,"y":2542354.910000002}},{"attributes":{"ID":557824,"DIS_CODE":0,"TOWNNAME":"東區","LI":"裕聖里","LIN":"21鄰","STREET":"裕孝路","SECT":" ","MAREA":" ","LANE":" ","ALLEY":" ","HOUSE_NO":"４６６號","E_COORD97":172381.41,"N_COORD97":2542354.4199999999,"ADDRESS":"裕孝路４６６號","OBJECTID":557797},"geometry":{"x":172381.41000000108,"y":2542354.4200000018}},{"attributes":{"ID":557825,"DIS_CODE":0,"TOWNNAME":"東區","LI":"裕聖里","LIN":"21鄰","STREET":"裕孝路","SECT":" ","MAREA":" ","LANE":" ","ALLEY":" ","HOUSE_NO":"４６８號","E_COORD97":172386.82000000001,"N_COORD97":2542354.25,"ADDRESS":"裕孝路４６８號","OBJECTID":557798},"geometry":{"x":172386.82000000216,"y":2542354.2499999981}},{"attributes":{"ID":557826,"DIS_CODE":0,"TOWNNAME":"東區","LI":"裕聖里","LIN":"21鄰","STREET":"裕孝路","SECT":" ","MAREA":" ","LANE":" ","ALLEY":" ","HOUSE_NO":"４７０號","E_COORD97":172391.73000000001,"N_COORD97":2542354.4199999999,"ADDRESS":"裕孝路４７０號","OBJECTID":557799},"geometry":{"x":172391.73000000045,"y":2542354.4200000018}},{"attributes":{"ID":557827,"DIS_CODE":0,"TOWNNAME":"東區","LI":"裕聖里","LIN":"21鄰","STREET":"裕孝路","SECT":" ","MAREA":" ","LANE":" ","ALLEY":" ","HOUSE_NO":"４７２號","E_COORD97":172397.45999999999,"N_COORD97":2542354.25,"ADDRESS":"裕孝路４７２號","OBJECTID":557800},"geometry":{"x":172397.46000000089,"y":2542354.2499999981}}]}