{"displayFieldName":"TOWNNAME","fieldAliases":{"ID":"ID","DIS_CODE":"DIS_CODE","TOWNNAME":"TOWNNAME","LI":"LI","LIN":"LIN","STREET":"STREET","SECT":"SECT","MAREA":"MAREA","LANE":"LANE","ALLEY":"ALLEY","HOUSE_NO":"HOUSE_NO","E_COORD97":"E_COORD97","N_COORD97":"N_COORD97","ADDRESS":"ADDRESS","OBJECTID":"OBJECTID"},"geometryType":"esriGeometryPoint","spatialReference":{"wkid":102443,"latestWkid":3826},"fields":[{"name":"ID","type":"esriFieldTypeDouble","alias":"ID"},{"name":"DIS_CODE","type":"esriFieldTypeInteger","alias":"DIS_CODE"},{"name":"TOWNNAME","type":"esriFieldTypeString","alias":"TOWNNAME","length":8},{"name":"LI","type":"esriFieldTypeString","alias":"LI","length":8},{"name":"LIN","type":"esriFieldTypeString","alias":"LIN","length":12},{"name":"STREET","type":"esriFieldTypeString","alias":"STREET","length":20},{"name":"SECT","type":"esriFieldTypeString","alias":"SECT","length":8},{"name":"MAREA","type":"esriFieldTypeString","alias":"MAREA","length":12},{"name":"LANE","type":"esriFieldTypeString","alias":"LANE","length":10},{"name":"ALLEY","type":"esriFieldTypeString","alias":"ALLEY","length":10},{"name":"HOUSE_NO","type":"esriFieldTypeString","alias":"HOUSE_NO","length":20},{"name":"E_COORD97","type":"esriFieldTypeDouble","alias":"E_COORD97"},{"name":"N_COORD97","type":"esriFieldTypeDouble","alias":"N_COORD97"},{"name":"ADDRESS","type":"esriFieldTypeString","alias":"ADDRESS","length":50},{"name":"OBJECTID","type":"esriFieldTypeOID","alias":"OBJECTID"}],"features":[{"attributes":{"ID":652828,"DIS_CODE":0,"TOWNNAME":"楠西區","LI":"鹿田里","LIN":"13鄰","STREET":" ","SECT":" ","MAREA":"油車","LANE":" ","ALLEY":" ","HOUSE_NO":"６７號之５","E_COORD97":197798,"N_COORD97":2562916,"ADDRESS":"油車６７號之５","OBJECTID":652801},"geometry":{"x":197798.00000000093,"y":2562916.0000000019}},{"attributes":{"ID":652829,"DIS_CODE":0,"TOWNNAME":"新營區","LI":"好平里","LIN":"14鄰","STREET":"和平路","SECT":" ","MAREA":" ","LANE":" ","ALLEY":" ","HOUSE_NO":"１９號","E_COORD97":179419.96190900001,"N_COORD97":2577977.6432699999,"ADDRESS":"和平路１９號","OBJECTID":652802},"geometry":{"x":179419.96190900076,"y":2577977.6432690024}},{"attributes":{"ID":652830,"DIS_CODE":0,"TOWNNAME":"楠西區","LI":"鹿田里","LIN":"13鄰","STREET":" ","SECT":" ","MAREA":"油車","LANE":" ","ALLEY":" ","HOUSE_NO":"６８號","E_COORD97":197761,"N_COORD97":2562878,"ADDRESS":"油車６８號","OBJECTID":652803},"geometry":{"x":197761.00000000093,"y":2562877.9999999981}},{"attributes":{"ID":652831,"DIS_CODE":0,"TOWNNAME":"楠西區","LI":"鹿田里","LIN":"13鄰","STREET":" ","SECT":" ","MAREA":"油車","LANE":" ","ALLEY":" ","HOUSE_NO":"６９號之２","E_COORD97":197757,"N_COORD97":2562877,"ADDRESS":"油車６９號之２","OBJECTID":652804},"geometry":{"x":197757.00000000186,"y":2562877}},{"attributes":{"ID":652832,"DIS_CODE":0,"TOWNNAME":"新營區","LI":"好平里","LIN":"14鄰","STREET":"和平路","SECT":" ","MAREA":" ","LANE":" ","ALLEY":" ","HOUSE_NO":"２３號","E_COORD97":179414.66397200001,"N_COORD97":2577966.6366099999,"ADDRESS":"和平路２３號","OBJECTID":652805},"geometry":{"x":179414.66397200059,"y":2577966.6366080046}},{"attributes":{"ID":652833,"DIS_CODE":0,"TOWNNAME":"楠西區","LI":"鹿田里","LIN":"11鄰","STREET":" ","SECT":" ","MAREA":"油車","LANE":" ","ALLEY":" ","HOUSE_NO":"７６號","E_COORD97":197713,"N_COORD97":2562681,"ADDRESS":"油車７６號","OBJECTID":652806},"geometry":{"x":197713.00000000186,"y":2562681}},{"attributes":{"ID":652834,"DIS_CODE":0,"TOWNNAME":"楠西區","LI":"鹿田里","LIN":"11鄰","STREET":" ","SECT":" ","MAREA":"油車","LANE":" ","ALLEY":" ","HOUSE_NO":"７６號之３","E_COORD97":197692,"N_COORD97":2562695,"ADDRESS":"油車７６號之３","OBJECTID":652807},"geometry":{"x":197692,"y":2562695.0000000037}},{"attributes":{"ID":652835,"DIS_CODE":0,"TOWNNAME":"楠西區","LI":"鹿田里","LIN":"9鄰","STREET":" ","SECT":" ","MAREA":"油車","LANE":" ","ALLEY":" ","HOUSE_NO":"３４號之１","E_COORD97":198066,"N_COORD97":2562114,"ADDRESS":"油車３４號之１","OBJECTID":652808},"geometry":{"x":198066.00000000093,"y":2562114}},{"attributes":{"ID":652836,"DIS_CODE":0,"TOWNNAME":"新營區","LI":"新東里","LIN":"23鄰","STREET":"大同路","SECT":" ","MAREA":" ","LANE":"７８巷","ALLEY":" ","HOUSE_NO":"１２號","E_COORD97":180755.644012,"N_COORD97":2579022.8532599998,"ADDRESS":"大同路７８巷１２號","OBJECTID":652809},"geometry":{"x":180755.64401200134,"y":2579022.8532590009}},{"attributes":{"ID":652837,"DIS_CODE":0,"TOWNNAME":"楠西區","LI":"鹿田里","LIN":"7鄰","STREET":" ","SECT":" ","MAREA":"油車","LANE":" ","ALLEY":" ","HOUSE_NO":"１號之２３","E_COORD97":197108,"N_COORD97":2560577,"ADDRESS":"油車１號之２３","OBJECTID":652810},"geometry":{"x":197108.00000000093,"y":2560577.0000000019}},{"attributes":{"ID":652838,"DIS_CODE":0,"TOWNNAME":"楠西區","LI":"鹿田里","LIN":"7鄰","STREET":" ","SECT":" ","MAREA":"油車","LANE":" ","ALLEY":" ","HOUSE_NO":"１號之２４","E_COORD97":197094,"N_COORD97":2560580,"ADDRESS":"油車１號之２４","OBJECTID":652811},"geometry":{"x":197094,"y":2560580.0000000019}},{"attributes":{"ID":652839,"DIS_CODE":0,"TOWNNAME":"楠西區","LI":"鹿田里","LIN":"7鄰","STREET":" ","SECT":" ","MAREA":"油車","LANE":" ","ALLEY":" ","HOUSE_NO":"１號之３６","E_COORD97":197056,"N_COORD97":2560545,"ADDRESS":"油車１號之３６","OBJECTID":652812},"geometry":{"x":197056.00000000093,"y":2560545}},{"attributes":{"ID":652840,"DIS_CODE":0,"TOWNNAME":"新營區","LI":"新東里","LIN":"23鄰","STREET":"大同路","SECT":" ","MAREA":" ","LANE":"７８巷","ALLEY":" ","HOUSE_NO":"１號","E_COORD97":180708.81804099999,"N_COORD97":2579033.2249199999,"ADDRESS":"大同路７８巷１號","OBJECTID":652813},"geometry":{"x":180708.81804099958,"y":2579033.2249200009}},{"attributes":{"ID":652841,"DIS_CODE":0,"TOWNNAME":"佳里區","LI":"禮化里","LIN":"6鄰","STREET":" ","SECT":" ","MAREA":"佳里興","LANE":" ","ALLEY":" ","HOUSE_NO":"２８１號之７","E_COORD97":166704.59563200001,"N_COORD97":2566030.14481,"ADDRESS":"佳里興２８１號之７","OBJECTID":652814},"geometry":{"x":166704.59563199989,"y":2566030.1448090021}},{"attributes":{"ID":652842,"DIS_CODE":0,"TOWNNAME":"新營區","LI":"新東里","LIN":"23鄰","STREET":"大同路","SECT":" ","MAREA":" ","LANE":"７２巷","ALLEY":" ","HOUSE_NO":"１３號","E_COORD97":180764.75494799999,"N_COORD97":2578998.8291099998,"ADDRESS":"大同路７２巷１３號","OBJECTID":652815},"geometry":{"x":180764.75494800135,"y":2578998.8291050009}},{"attributes":{"ID":652843,"DIS_CODE":0,"TOWNNAME":"新營區","LI":"延平里","LIN":"5鄰","STREET":"長春街","SECT":" ","MAREA":" ","LANE":" ","ALLEY":" ","HOUSE_NO":"４號","E_COORD97":179771.514964,"N_COORD97":2577931.65234,"ADDRESS":"長春街４號","OBJECTID":652816},"geometry":{"x":179771.51496400032,"y":2577931.6523410007}},{"attributes":{"ID":652844,"DIS_CODE":0,"TOWNNAME":"新營區","LI":"延平里","LIN":"5鄰","STREET":"長春街","SECT":" ","MAREA":" ","LANE":" ","ALLEY":" ","HOUSE_NO":"２號","E_COORD97":179773.84612,"N_COORD97":2577934.4040100002,"ADDRESS":"長春街２號","OBJECTID":652817},"geometry":{"x":179773.84611999989,"y":2577934.4040060025}},{"attributes":{"ID":652845,"DIS_CODE":0,"TOWNNAME":"新營區","LI":"新東里","LIN":"23鄰","STREET":"大同路","SECT":" ","MAREA":" ","LANE":"７２巷","ALLEY":" ","HOUSE_NO":"９號","E_COORD97":180758.18659900001,"N_COORD97":2578982.31911,"ADDRESS":"大同路７２巷９號","OBJECTID":652818},"geometry":{"x":180758.18659900222,"y":2578982.3191139996}},{"attributes":{"ID":652846,"DIS_CODE":0,"TOWNNAME":"新營區","LI":"延平里","LIN":"5鄰","STREET":"長春街","SECT":" ","MAREA":" ","LANE":" ","ALLEY":" ","HOUSE_NO":"６號","E_COORD97":179768.12419,"N_COORD97":2577930.17068,"ADDRESS":"長春街６號","OBJECTID":652819},"geometry":{"x":179768.12419000082,"y":2577930.1706750002}},{"attributes":{"ID":652847,"DIS_CODE":0,"TOWNNAME":"新營區","LI":"延平里","LIN":"5鄰","STREET":"長春街","SECT":" ","MAREA":" ","LANE":" ","ALLEY":" ","HOUSE_NO":"８號","E_COORD97":179764.30957000001,"N_COORD97":2577927.84234,"ADDRESS":"長春街８號","OBJECTID":652820},"geometry":{"x":179764.30957000144,"y":2577927.8423430007}},{"attributes":{"ID":652848,"DIS_CODE":0,"TOWNNAME":"新營區","LI":"延平里","LIN":"5鄰","STREET":"長春街","SECT":" ","MAREA":" ","LANE":" ","ALLEY":" ","HOUSE_NO":"１０號","E_COORD97":179761.13071999999,"N_COORD97":2577925.7256800001,"ADDRESS":"長春街１０號","OBJECTID":652821},"geometry":{"x":179761.13072000071,"y":2577925.7256770004}},{"attributes":{"ID":652849,"DIS_CODE":0,"TOWNNAME":"楠西區","LI":"鹿田里","LIN":"7鄰","STREET":" ","SECT":" ","MAREA":"油車","LANE":" ","ALLEY":" ","HOUSE_NO":"２號","E_COORD97":197778,"N_COORD97":2562060,"ADDRESS":"油車２號","OBJECTID":652822},"geometry":{"x":197778.00000000093,"y":2562060}},{"attributes":{"ID":652850,"DIS_CODE":0,"TOWNNAME":"新營區","LI":"延平里","LIN":"5鄰","STREET":"長春街","SECT":" ","MAREA":" ","LANE":" ","ALLEY":" ","HOUSE_NO":"１２號","E_COORD97":179758.16379300001,"N_COORD97":2577924.24401,"ADDRESS":"長春街１２號","OBJECTID":652823},"geometry":{"x":179758.16379300132,"y":2577924.2440109998}},{"attributes":{"ID":652851,"DIS_CODE":0,"TOWNNAME":"六甲區","LI":"六甲里","LIN":"24鄰","STREET":"中正路","SECT":" ","MAREA":" ","LANE":" ","ALLEY":" ","HOUSE_NO":"４５３號","E_COORD97":183582.204298,"N_COORD97":2569790.01767,"ADDRESS":"中正路４５３號","OBJECTID":652824},"geometry":{"x":183582.20429799892,"y":2569790.0176749974}},{"attributes":{"ID":652852,"DIS_CODE":0,"TOWNNAME":"北區","LI":"正風里","LIN":"10鄰","STREET":"公園路","SECT":" ","MAREA":" ","LANE":"１０６２巷","ALLEY":" ","HOUSE_NO":"３號之１０","E_COORD97":169664.61198399999,"N_COORD97":2546491.7996200002,"ADDRESS":"公園路１０６２巷３號之１０","OBJECTID":652825},"geometry":{"x":169664.61198399868,"y":2546491.7996180002}},{"attributes":{"ID":652853,"DIS_CODE":0,"TOWNNAME":"楠西區","LI":"鹿田里","LIN":"7鄰","STREET":" ","SECT":" ","MAREA":"油車","LANE":" ","ALLEY":" ","HOUSE_NO":"６號","E_COORD97":197796,"N_COORD97":2562059,"ADDRESS":"油車６號","OBJECTID":652826},"geometry":{"x":197796.00000000186,"y":2562059.0000000019}},{"attributes":{"ID":652854,"DIS_CODE":0,"TOWNNAME":"新營區","LI":"延平里","LIN":"5鄰","STREET":"長春街","SECT":" ","MAREA":" ","LANE":" ","ALLEY":" ","HOUSE_NO":"２２號","E_COORD97":179740.68011799999,"N_COORD97":2577913.3431799999,"ADDRESS":"長春街２２號","OBJECTID":652827},"geometry":{"x":179740.68011800013,"y":2577913.3431839999}},{"attributes":{"ID":652855,"DIS_CODE":0,"TOWNNAME":"新營區","LI":"延平里","LIN":"5鄰","STREET":"長春街","SECT":" ","MAREA":" ","LANE":" ","ALLEY":" ","HOUSE_NO":"２４號","E_COORD97":179737.60722999999,"N_COORD97":2577911.22652,"ADDRESS":"長春街２４號","OBJECTID":652828},"geometry":{"x":179737.6072300002,"y":2577911.2265179995}},{"attributes":{"ID":652856,"DIS_CODE":0,"TOWNNAME":"楠西區","LI":"鹿田里","LIN":"1鄰","STREET":" ","SECT":" ","MAREA":"鹿陶洋","LANE":" ","ALLEY":" ","HOUSE_NO":"１０號之１","E_COORD97":197189,"N_COORD97":2561136,"ADDRESS":"鹿陶洋１０號之１","OBJECTID":652829},"geometry":{"x":197189,"y":2561136.0000000019}},{"attributes":{"ID":652857,"DIS_CODE":0,"TOWNNAME":"楠西區","LI":"鹿田里","LIN":"1鄰","STREET":" ","SECT":" ","MAREA":"鹿陶洋","LANE":" ","ALLEY":" ","HOUSE_NO":"９號","E_COORD97":197191,"N_COORD97":2561146,"ADDRESS":"鹿陶洋９號","OBJECTID":652830},"geometry":{"x":197191.00000000186,"y":2561146.0000000019}},{"attributes":{"ID":652858,"DIS_CODE":0,"TOWNNAME":"楠西區","LI":"鹿田里","LIN":"1鄰","STREET":" ","SECT":" ","MAREA":"鹿陶洋","LANE":" ","ALLEY":" ","HOUSE_NO":"８號之６","E_COORD97":197184,"N_COORD97":2561129,"ADDRESS":"鹿陶洋８號之６","OBJECTID":652831},"geometry":{"x":197183.99999999907,"y":2561129.0000000019}},{"attributes":{"ID":652859,"DIS_CODE":0,"TOWNNAME":"楠西區","LI":"鹿田里","LIN":"1鄰","STREET":" ","SECT":" ","MAREA":"鹿陶洋","LANE":" ","ALLEY":" ","HOUSE_NO":"８號之３","E_COORD97":197184,"N_COORD97":2561122,"ADDRESS":"鹿陶洋８號之３","OBJECTID":652832},"geometry":{"x":197183.99999999907,"y":2561122.0000000037}},{"attributes":{"ID":652860,"DIS_CODE":0,"TOWNNAME":"六甲區","LI":"六甲里","LIN":"17鄰","STREET":"復興街","SECT":" ","MAREA":" ","LANE":"７８巷","ALLEY":" ","HOUSE_NO":"１１號","E_COORD97":183767.08499500001,"N_COORD97":2569993.15074,"ADDRESS":"復興街７８巷１１號","OBJECTID":652833},"geometry":{"x":183767.08499499876,"y":2569993.1507390011}},{"attributes":{"ID":652861,"DIS_CODE":0,"TOWNNAME":"北區","LI":"小康里","LIN":"9鄰","STREET":"大武街","SECT":" ","MAREA":" ","LANE":" ","ALLEY":" ","HOUSE_NO":"３０８號之１","E_COORD97":169691.41000800001,"N_COORD97":2546293.0447300002,"ADDRESS":"大武街３０８號之１","OBJECTID":652834},"geometry":{"x":169691.41000800207,"y":2546293.0447260011}},{"attributes":{"ID":652862,"DIS_CODE":0,"TOWNNAME":"後壁區","LI":"侯伯里","LIN":"12鄰","STREET":" ","SECT":" ","MAREA":"後壁寮","LANE":" ","ALLEY":" ","HOUSE_NO":"９９號","E_COORD97":185313.240063,"N_COORD97":2585406.4169600001,"ADDRESS":"後壁寮９９號","OBJECTID":652835},"geometry":{"x":185313.24006300047,"y":2585406.4169630017}},{"attributes":{"ID":652863,"DIS_CODE":0,"TOWNNAME":"北區","LI":"小康里","LIN":"9鄰","STREET":"大武街","SECT":" ","MAREA":" ","LANE":" ","ALLEY":" ","HOUSE_NO":"３０８號之２","E_COORD97":169694.163955,"N_COORD97":2546294.5263899998,"ADDRESS":"大武街３０８號之２","OBJECTID":652836},"geometry":{"x":169694.16395500023,"y":2546294.5263920035}},{"attributes":{"ID":652864,"DIS_CODE":0,"TOWNNAME":"楠西區","LI":"灣丘里","LIN":"6鄰","STREET":" ","SECT":" ","MAREA":"灣丘","LANE":" ","ALLEY":" ","HOUSE_NO":"６２號之２","E_COORD97":200741,"N_COORD97":2564285,"ADDRESS":"灣丘６２號之２","OBJECTID":652837},"geometry":{"x":200741.00000000093,"y":2564284.9999999981}},{"attributes":{"ID":652865,"DIS_CODE":0,"TOWNNAME":"楠西區","LI":"灣丘里","LIN":"5鄰","STREET":" ","SECT":" ","MAREA":"灣丘","LANE":" ","ALLEY":" ","HOUSE_NO":"５９號之３","E_COORD97":200606,"N_COORD97":2564284,"ADDRESS":"灣丘５９號之３","OBJECTID":652838},"geometry":{"x":200606,"y":2564284}},{"attributes":{"ID":652866,"DIS_CODE":0,"TOWNNAME":"楠西區","LI":"灣丘里","LIN":"5鄰","STREET":" ","SECT":" ","MAREA":"灣丘","LANE":" ","ALLEY":" ","HOUSE_NO":"４９號之１","E_COORD97":200492,"N_COORD97":2564086,"ADDRESS":"灣丘４９號之１","OBJECTID":652839},"geometry":{"x":200492.00000000093,"y":2564086.0000000019}},{"attributes":{"ID":652867,"DIS_CODE":0,"TOWNNAME":"北區","LI":"裕民里","LIN":"5鄰","STREET":"成功路","SECT":" ","MAREA":" ","LANE":"５０４巷","ALLEY":" ","HOUSE_NO":"４２號之１","E_COORD97":167726.15091999999,"N_COORD97":2544769.0455499999,"ADDRESS":"成功路５０４巷４２號之１","OBJECTID":652840},"geometry":{"x":167726.15092000086,"y":2544769.0455490015}},{"attributes":{"ID":652868,"DIS_CODE":0,"TOWNNAME":"六甲區","LI":"六甲里","LIN":"27鄰","STREET":"中山路","SECT":" ","MAREA":" ","LANE":"３２巷","ALLEY":"１３弄","HOUSE_NO":"２號","E_COORD97":183568.201795,"N_COORD97":2570101.2065099999,"ADDRESS":"中山路３２巷１３弄２號","OBJECTID":652841},"geometry":{"x":183568.20179499965,"y":2570101.2065140009}},{"attributes":{"ID":652869,"DIS_CODE":0,"TOWNNAME":"六甲區","LI":"六甲里","LIN":"27鄰","STREET":"中山路","SECT":" ","MAREA":" ","LANE":"３２巷","ALLEY":"１３弄","HOUSE_NO":"６號","E_COORD97":183563.75155799999,"N_COORD97":2570102.2648499999,"ADDRESS":"中山路３２巷１３弄６號","OBJECTID":652842},"geometry":{"x":183563.75155800208,"y":2570102.2648469992}},{"attributes":{"ID":652870,"DIS_CODE":0,"TOWNNAME":"六甲區","LI":"六甲里","LIN":"27鄰","STREET":"中山路","SECT":" ","MAREA":" ","LANE":"３２巷","ALLEY":"１３弄","HOUSE_NO":"８號","E_COORD97":183557.622038,"N_COORD97":2570100.04953,"ADDRESS":"中山路３２巷１３弄８號","OBJECTID":652843},"geometry":{"x":183557.62203800026,"y":2570100.0495320018}},{"attributes":{"ID":652871,"DIS_CODE":0,"TOWNNAME":"六甲區","LI":"六甲里","LIN":"27鄰","STREET":"中山路","SECT":" ","MAREA":" ","LANE":"３２巷","ALLEY":"１３弄","HOUSE_NO":"１０號","E_COORD97":183552.11222099999,"N_COORD97":2570101.31953,"ADDRESS":"中山路３２巷１３弄１０號","OBJECTID":652844},"geometry":{"x":183552.11222099978,"y":2570101.3195320014}},{"attributes":{"ID":652872,"DIS_CODE":0,"TOWNNAME":"六甲區","LI":"六甲里","LIN":"27鄰","STREET":"中山路","SECT":" ","MAREA":" ","LANE":"３２巷","ALLEY":"１３弄","HOUSE_NO":"１２號","E_COORD97":183547.23815200001,"N_COORD97":2570103.2245299998,"ADDRESS":"中山路３２巷１３弄１２號","OBJECTID":652845},"geometry":{"x":183547.23815200012,"y":2570103.2245310005}},{"attributes":{"ID":652873,"DIS_CODE":0,"TOWNNAME":"後壁區","LI":"侯伯里","LIN":"11鄰","STREET":" ","SECT":" ","MAREA":"後壁寮","LANE":" ","ALLEY":" ","HOUSE_NO":"８９號之１","E_COORD97":185400.956324,"N_COORD97":2585406.2053,"ADDRESS":"後壁寮８９號之１","OBJECTID":652846},"geometry":{"x":185400.95632399991,"y":2585406.2052960005}},{"attributes":{"ID":652874,"DIS_CODE":0,"TOWNNAME":"六甲區","LI":"六甲里","LIN":"27鄰","STREET":"中山路","SECT":" ","MAREA":" ","LANE":"３２巷","ALLEY":"１３弄","HOUSE_NO":"１６號","E_COORD97":183542.576,"N_COORD97":2570104.4945299998,"ADDRESS":"中山路３２巷１３弄１６號","OBJECTID":652847},"geometry":{"x":183542.57600000128,"y":2570104.4945300017}},{"attributes":{"ID":652875,"DIS_CODE":0,"TOWNNAME":"六甲區","LI":"六甲里","LIN":"27鄰","STREET":"中山路","SECT":" ","MAREA":" ","LANE":"３２巷","ALLEY":"１３弄","HOUSE_NO":"１８號","E_COORD97":183538.12576299999,"N_COORD97":2570105.5528600002,"ADDRESS":"中山路３２巷１３弄１８號","OBJECTID":652848},"geometry":{"x":183538.12576299999,"y":2570105.552863}},{"attributes":{"ID":652876,"DIS_CODE":0,"TOWNNAME":"後壁區","LI":"侯伯里","LIN":"11鄰","STREET":" ","SECT":" ","MAREA":"後壁寮","LANE":" ","ALLEY":" ","HOUSE_NO":"９２號之５","E_COORD97":185522.148839,"N_COORD97":2585417.42362,"ADDRESS":"後壁寮９２號之５","OBJECTID":652849},"geometry":{"x":185522.14883900061,"y":2585417.4236230012}},{"attributes":{"ID":652877,"DIS_CODE":0,"TOWNNAME":"新化區","LI":"山\u25A0里","LIN":"2鄰","STREET":" ","SECT":" ","MAREA":"頂山\u25A0","LANE":" ","ALLEY":" ","HOUSE_NO":"５３號之６２","E_COORD97":178983.50170399999,"N_COORD97":2546567.5068799998,"ADDRESS":"頂山\u25A0５３號之６２","OBJECTID":652850},"geometry":{"x":178983.50170400087,"y":2546567.506880004}},{"attributes":{"ID":652878,"DIS_CODE":0,"TOWNNAME":"六甲區","LI":"六甲里","LIN":"27鄰","STREET":"中山路","SECT":" ","MAREA":" ","LANE":"３２巷","ALLEY":"１３弄","HOUSE_NO":"２０號","E_COORD97":183533.25169400001,"N_COORD97":2570107.2461999999,"ADDRESS":"中山路３２巷１３弄２０號","OBJECTID":652851},"geometry":{"x":183533.25169400126,"y":2570107.2461950034}},{"attributes":{"ID":652879,"DIS_CODE":0,"TOWNNAME":"仁德區","LI":"中洲里","LIN":"1鄰","STREET":" ","SECT":" ","MAREA":"中洲","LANE":" ","ALLEY":" ","HOUSE_NO":"１之１２３號","E_COORD97":173678.24054599999,"N_COORD97":2534513.2707199999,"ADDRESS":"中洲１之１２３號","OBJECTID":652852},"geometry":{"x":173678.24054600112,"y":2534513.2707160003}},{"attributes":{"ID":652880,"DIS_CODE":0,"TOWNNAME":"六甲區","LI":"六甲里","LIN":"27鄰","STREET":"中山路","SECT":" ","MAREA":" ","LANE":"３２巷","ALLEY":"１３弄","HOUSE_NO":"２２號","E_COORD97":183528.16570899999,"N_COORD97":2570106.8228600002,"ADDRESS":"中山路３２巷１３弄２２號","OBJECTID":652853},"geometry":{"x":183528.16570900194,"y":2570106.8228619993}},{"attributes":{"ID":652881,"DIS_CODE":0,"TOWNNAME":"六甲區","LI":"六甲里","LIN":"27鄰","STREET":"中山路","SECT":" ","MAREA":" ","LANE":"３２巷","ALLEY":"１３弄","HOUSE_NO":"２６號","E_COORD97":183524.98696899999,"N_COORD97":2570108.3045299998,"ADDRESS":"中山路３２巷１３弄２６號","OBJECTID":652854},"geometry":{"x":183524.98696900066,"y":2570108.3045279998}},{"attributes":{"ID":652882,"DIS_CODE":0,"TOWNNAME":"六甲區","LI":"六甲里","LIN":"27鄰","STREET":"中山路","SECT":" ","MAREA":" ","LANE":"３２巷","ALLEY":"１３弄","HOUSE_NO":"２８號","E_COORD97":183520.74864800001,"N_COORD97":2570109.7861899999,"ADDRESS":"中山路３２巷１３弄２８號","OBJECTID":652855},"geometry":{"x":183520.74864800088,"y":2570109.7861940023}},{"attributes":{"ID":652883,"DIS_CODE":0,"TOWNNAME":"楠西區","LI":"灣丘里","LIN":"4鄰","STREET":" ","SECT":" ","MAREA":"灣丘","LANE":" ","ALLEY":" ","HOUSE_NO":"４６號","E_COORD97":201271,"N_COORD97":2563581,"ADDRESS":"灣丘４６號","OBJECTID":652856},"geometry":{"x":201271,"y":2563581.0000000019}},{"attributes":{"ID":652884,"DIS_CODE":0,"TOWNNAME":"六甲區","LI":"六甲里","LIN":"27鄰","STREET":"中山路","SECT":" ","MAREA":" ","LANE":"３２巷","ALLEY":"１３弄","HOUSE_NO":"３０號","E_COORD97":183516.722243,"N_COORD97":2570111.0561899999,"ADDRESS":"中山路３２巷１３弄３０號","OBJECTID":652857},"geometry":{"x":183516.72224299889,"y":2570111.0561930016}},{"attributes":{"ID":652885,"DIS_CODE":0,"TOWNNAME":"六甲區","LI":"六甲里","LIN":"27鄰","STREET":"中山路","SECT":" ","MAREA":" ","LANE":"３２巷","ALLEY":"１３弄","HOUSE_NO":"３２號","E_COORD97":183512.48392200001,"N_COORD97":2570112.1145299999,"ADDRESS":"中山路３２巷１３弄３２號","OBJECTID":652858},"geometry":{"x":183512.48392200191,"y":2570112.1145259999}},{"attributes":{"ID":652886,"DIS_CODE":0,"TOWNNAME":"新化區","LI":"太平里","LIN":"12鄰","STREET":"中正路","SECT":" ","MAREA":" ","LANE":"６３３巷","ALLEY":" ","HOUSE_NO":"１０號之１","E_COORD97":178841.35757699999,"N_COORD97":2548916.8409299999,"ADDRESS":"中正路６３３巷１０號之１","OBJECTID":652859},"geometry":{"x":178841.35757700074,"y":2548916.8409310021}},{"attributes":{"ID":652887,"DIS_CODE":0,"TOWNNAME":"六甲區","LI":"六甲里","LIN":"27鄰","STREET":"中山路","SECT":" ","MAREA":" ","LANE":"３２巷","ALLEY":"１３弄","HOUSE_NO":"３６號","E_COORD97":183508.24560200001,"N_COORD97":2570113.1728599998,"ADDRESS":"中山路３２巷１３弄３６號","OBJECTID":652860},"geometry":{"x":183508.2456020005,"y":2570113.1728590019}},{"attributes":{"ID":652888,"DIS_CODE":0,"TOWNNAME":"六甲區","LI":"六甲里","LIN":"27鄰","STREET":"中山路","SECT":" ","MAREA":" ","LANE":"３２巷","ALLEY":"１３弄","HOUSE_NO":"３８號","E_COORD97":183504.431113,"N_COORD97":2570114.2311900002,"ADDRESS":"中山路３２巷１３弄３８號","OBJECTID":652861},"geometry":{"x":183504.43111300003,"y":2570114.2311910018}},{"attributes":{"ID":652889,"DIS_CODE":0,"TOWNNAME":"六甲區","LI":"六甲里","LIN":"27鄰","STREET":"中山路","SECT":" ","MAREA":" ","LANE":"３２巷","ALLEY":"１３弄","HOUSE_NO":"４０號","E_COORD97":183500.40470799999,"N_COORD97":2570115.5011900002,"ADDRESS":"中山路３２巷１３弄４０號","OBJECTID":652862},"geometry":{"x":183500.4047079999,"y":2570115.5011910014}},{"attributes":{"ID":652890,"DIS_CODE":0,"TOWNNAME":"六甲區","LI":"六甲里","LIN":"27鄰","STREET":"中山路","SECT":" ","MAREA":" ","LANE":"３２巷","ALLEY":"１３弄","HOUSE_NO":"４２號","E_COORD97":183496.16638800001,"N_COORD97":2570116.7711900002,"ADDRESS":"中山路３２巷１３弄４２號","OBJECTID":652863},"geometry":{"x":183496.16638800129,"y":2570116.7711900007}},{"attributes":{"ID":652891,"DIS_CODE":0,"TOWNNAME":"後壁區","LI":"福安里","LIN":"15鄰","STREET":" ","SECT":" ","MAREA":"下寮","LANE":" ","ALLEY":" ","HOUSE_NO":"２０５號之５","E_COORD97":182761.91615100001,"N_COORD97":2580742.8615600001,"ADDRESS":"下寮２０５號之５","OBJECTID":652864},"geometry":{"x":182761.91615100112,"y":2580742.8615639992}},{"attributes":{"ID":652892,"DIS_CODE":0,"TOWNNAME":"後壁區","LI":"侯伯里","LIN":"11鄰","STREET":" ","SECT":" ","MAREA":"後壁寮","LANE":" ","ALLEY":" ","HOUSE_NO":"９２號之１","E_COORD97":185437.822579,"N_COORD97":2585468.01193,"ADDRESS":"後壁寮９２號之１","OBJECTID":652865},"geometry":{"x":185437.82257900108,"y":2585468.0119290017}},{"attributes":{"ID":652893,"DIS_CODE":0,"TOWNNAME":"楠西區","LI":"灣丘里","LIN":"7鄰","STREET":" ","SECT":" ","MAREA":"灣丘","LANE":" ","ALLEY":" ","HOUSE_NO":"６６號","E_COORD97":200399,"N_COORD97":2564354,"ADDRESS":"灣丘６６號","OBJECTID":652866},"geometry":{"x":200399.00000000093,"y":2564354.0000000019}},{"attributes":{"ID":652894,"DIS_CODE":0,"TOWNNAME":"新化區","LI":"太平里","LIN":"12鄰","STREET":"中正路","SECT":" ","MAREA":" ","LANE":"６３３巷","ALLEY":" ","HOUSE_NO":"１０號之２","E_COORD97":178838.389971,"N_COORD97":2548925.51926,"ADDRESS":"中正路６３３巷１０號之２","OBJECTID":652867},"geometry":{"x":178838.38997100014,"y":2548925.5192600023}},{"attributes":{"ID":652895,"DIS_CODE":0,"TOWNNAME":"楠西區","LI":"灣丘里","LIN":"8鄰","STREET":" ","SECT":" ","MAREA":"灣丘","LANE":" ","ALLEY":" ","HOUSE_NO":"８５號之１","E_COORD97":201507,"N_COORD97":2564502,"ADDRESS":"灣丘８５號之１","OBJECTID":652868},"geometry":{"x":201507.00000000093,"y":2564502.0000000037}},{"attributes":{"ID":652896,"DIS_CODE":0,"TOWNNAME":"六甲區","LI":"六甲里","LIN":"27鄰","STREET":"中山路","SECT":" ","MAREA":" ","LANE":"３２巷","ALLEY":"１１弄","HOUSE_NO":"２號","E_COORD97":183562.49610700001,"N_COORD97":2570076.9778800001,"ADDRESS":"中山路３２巷１１弄２號","OBJECTID":652869},"geometry":{"x":183562.49610700179,"y":2570076.9778780006}},{"attributes":{"ID":652897,"DIS_CODE":0,"TOWNNAME":"六甲區","LI":"六甲里","LIN":"27鄰","STREET":"中山路","SECT":" ","MAREA":" ","LANE":"３２巷","ALLEY":"１１弄","HOUSE_NO":"６號","E_COORD97":183556.562458,"N_COORD97":2570077.4012099998,"ADDRESS":"中山路３２巷１１弄６號","OBJECTID":652870},"geometry":{"x":183556.56245800015,"y":2570077.4012110028}},{"attributes":{"ID":652898,"DIS_CODE":0,"TOWNNAME":"六甲區","LI":"六甲里","LIN":"27鄰","STREET":"中山路","SECT":" ","MAREA":" ","LANE":"３２巷","ALLEY":"１１弄","HOUSE_NO":"８號","E_COORD97":183551.47647299999,"N_COORD97":2570079.5178800002,"ADDRESS":"中山路３２巷１１弄８號","OBJECTID":652871},"geometry":{"x":183551.4764729999,"y":2570079.5178769995}},{"attributes":{"ID":652899,"DIS_CODE":0,"TOWNNAME":"楠西區","LI":"灣丘里","LIN":"1鄰","STREET":" ","SECT":" ","MAREA":"灣丘","LANE":" ","ALLEY":" ","HOUSE_NO":"２號之２","E_COORD97":198894,"N_COORD97":2563857,"ADDRESS":"灣丘２號之２","OBJECTID":652872},"geometry":{"x":198894,"y":2563857}},{"attributes":{"ID":652900,"DIS_CODE":0,"TOWNNAME":"楠西區","LI":"灣丘里","LIN":"3鄰","STREET":" ","SECT":" ","MAREA":"灣丘","LANE":" ","ALLEY":" ","HOUSE_NO":"３０號之３","E_COORD97":199988,"N_COORD97":2564017,"ADDRESS":"灣丘３０號之３","OBJECTID":652873},"geometry":{"x":199988.00000000186,"y":2564017}},{"attributes":{"ID":652901,"DIS_CODE":0,"TOWNNAME":"新營區","LI":"延平里","LIN":"5鄰","STREET":"長春街","SECT":" ","MAREA":" ","LANE":" ","ALLEY":" ","HOUSE_NO":"２６號","E_COORD97":179734.53434099999,"N_COORD97":2577909.9035999998,"ADDRESS":"長春街２６號","OBJECTID":652874},"geometry":{"x":179734.53434100002,"y":2577909.9036020022}},{"attributes":{"ID":652902,"DIS_CODE":0,"TOWNNAME":"楠西區","LI":"灣丘里","LIN":"4鄰","STREET":" ","SECT":" ","MAREA":"灣丘","LANE":" ","ALLEY":" ","HOUSE_NO":"３６號之１０","E_COORD97":200289,"N_COORD97":2563733,"ADDRESS":"灣丘３６號之１０","OBJECTID":652875},"geometry":{"x":200289,"y":2563733.0000000019}},{"attributes":{"ID":652903,"DIS_CODE":0,"TOWNNAME":"新營區","LI":"延平里","LIN":"5鄰","STREET":"長春街","SECT":" ","MAREA":" ","LANE":" ","ALLEY":" ","HOUSE_NO":"３０號","E_COORD97":179728.282603,"N_COORD97":2577906.3581900001,"ADDRESS":"長春街３０號","OBJECTID":652876},"geometry":{"x":179728.28260300029,"y":2577906.3581880014}},{"attributes":{"ID":652904,"DIS_CODE":0,"TOWNNAME":"新營區","LI":"延平里","LIN":"5鄰","STREET":"長春街","SECT":" ","MAREA":" ","LANE":" ","ALLEY":" ","HOUSE_NO":"３４號","E_COORD97":179719.381823,"N_COORD97":2577901.0665199999,"ADDRESS":"長春街３４號","OBJECTID":652877},"geometry":{"x":179719.38182299957,"y":2577901.0665240008}},{"attributes":{"ID":652905,"DIS_CODE":0,"TOWNNAME":"楠西區","LI":"灣丘里","LIN":"18鄰","STREET":" ","SECT":" ","MAREA":"鳳興","LANE":" ","ALLEY":" ","HOUSE_NO":"３６號之２０","E_COORD97":198751,"N_COORD97":2562751,"ADDRESS":"鳳興３６號之２０","OBJECTID":652878},"geometry":{"x":198751.00000000093,"y":2562751.0000000019}},{"attributes":{"ID":652906,"DIS_CODE":0,"TOWNNAME":"新化區","LI":"山\u25A0里","LIN":"2鄰","STREET":" ","SECT":" ","MAREA":"頂山\u25A0","LANE":" ","ALLEY":" ","HOUSE_NO":"５３號之８７（農業資","E_COORD97":178957.01771099999,"N_COORD97":2546491.0952499998,"ADDRESS":"頂山\u25A0５３號之８７（農業資材室）","OBJECTID":652879},"geometry":{"x":178957.01771099959,"y":2546491.0952540021}},{"attributes":{"ID":652907,"DIS_CODE":0,"TOWNNAME":"新化區","LI":"山\u25A0里","LIN":"2鄰","STREET":" ","SECT":" ","MAREA":"頂山\u25A0","LANE":" ","ALLEY":" ","HOUSE_NO":"５３號之７９","E_COORD97":178957.01771099999,"N_COORD97":2546491.0952499998,"ADDRESS":"頂山\u25A0５３號之７９","OBJECTID":652880},"geometry":{"x":178957.01771099959,"y":2546491.0952540021}},{"attributes":{"ID":652908,"DIS_CODE":0,"TOWNNAME":"楠西區","LI":"灣丘里","LIN":"16鄰","STREET":" ","SECT":" ","MAREA":"鳳興","LANE":" ","ALLEY":" ","HOUSE_NO":"３９號之６","E_COORD97":198904,"N_COORD97":2562785,"ADDRESS":"鳳興３９號之６","OBJECTID":652881},"geometry":{"x":198904,"y":2562785}},{"attributes":{"ID":652909,"DIS_CODE":0,"TOWNNAME":"楠西區","LI":"灣丘里","LIN":"16鄰","STREET":" ","SECT":" ","MAREA":"鳳興","LANE":" ","ALLEY":" ","HOUSE_NO":"４０號之２","E_COORD97":198847,"N_COORD97":2562724,"ADDRESS":"鳳興４０號之２","OBJECTID":652882},"geometry":{"x":198846.99999999907,"y":2562724}},{"attributes":{"ID":652910,"DIS_CODE":0,"TOWNNAME":"新化區","LI":"山\u25A0里","LIN":"2鄰","STREET":" ","SECT":" ","MAREA":"頂山\u25A0","LANE":" ","ALLEY":" ","HOUSE_NO":"５３號之１８７（農業","E_COORD97":178959.77204000001,"N_COORD97":2546506.1235799999,"ADDRESS":"頂山\u25A0５３號之１８７（農業資材室）","OBJECTID":652883},"geometry":{"x":178959.77204000112,"y":2546506.1235800013}},{"attributes":{"ID":652911,"DIS_CODE":0,"TOWNNAME":"楠西區","LI":"灣丘里","LIN":"15鄰","STREET":" ","SECT":" ","MAREA":"鳳興","LANE":" ","ALLEY":" ","HOUSE_NO":"４８號之３７","E_COORD97":199713,"N_COORD97":2562706,"ADDRESS":"鳳興４８號之３７","OBJECTID":652884},"geometry":{"x":199713,"y":2562706.0000000019}},{"attributes":{"ID":652912,"DIS_CODE":0,"TOWNNAME":"新營區","LI":"延平里","LIN":"5鄰","STREET":"長春街","SECT":" ","MAREA":" ","LANE":" ","ALLEY":" ","HOUSE_NO":"３４號","E_COORD97":179734.53434099999,"N_COORD97":2577909.9035999998,"ADDRESS":"長春街３４號","OBJECTID":652885},"geometry":{"x":179734.53434100002,"y":2577909.9036020022}},{"attributes":{"ID":652913,"DIS_CODE":0,"TOWNNAME":"新營區","LI":"延平里","LIN":"5鄰","STREET":"長春街","SECT":" ","MAREA":" ","LANE":" ","ALLEY":" ","HOUSE_NO":"３６號","E_COORD97":179716.838743,"N_COORD97":2577899.2673599999,"ADDRESS":"長春街３６號","OBJECTID":652886},"geometry":{"x":179716.83874300122,"y":2577899.2673580013}},{"attributes":{"ID":652914,"DIS_CODE":0,"TOWNNAME":"六甲區","LI":"六甲里","LIN":"27鄰","STREET":"中山路","SECT":" ","MAREA":" ","LANE":"３２巷","ALLEY":"１１弄","HOUSE_NO":"１０號","E_COORD97":183547.23815200001,"N_COORD97":2570080.5762100001,"ADDRESS":"中山路３２巷１１弄１０號","OBJECTID":652887},"geometry":{"x":183547.23815200012,"y":2570080.5762089975}},{"attributes":{"ID":652915,"DIS_CODE":0,"TOWNNAME":"楠西區","LI":"灣丘里","LIN":"13鄰","STREET":" ","SECT":" ","MAREA":"鳳興","LANE":" ","ALLEY":" ","HOUSE_NO":"１０號之５","E_COORD97":198728,"N_COORD97":2562731,"ADDRESS":"鳳興１０號之５","OBJECTID":652888},"geometry":{"x":198728,"y":2562731}},{"attributes":{"ID":652916,"DIS_CODE":0,"TOWNNAME":"六甲區","LI":"六甲里","LIN":"27鄰","STREET":"中山路","SECT":" ","MAREA":" ","LANE":"３２巷","ALLEY":"１１弄","HOUSE_NO":"１２號","E_COORD97":183541.72833499999,"N_COORD97":2570082.69288,"ADDRESS":"中山路３２巷１１弄１２號","OBJECTID":652889},"geometry":{"x":183541.72833499964,"y":2570082.6928749997}},{"attributes":{"ID":652917,"DIS_CODE":0,"TOWNNAME":"六甲區","LI":"六甲里","LIN":"27鄰","STREET":"中山路","SECT":" ","MAREA":" ","LANE":"３２巷","ALLEY":"１１弄","HOUSE_NO":"１６號","E_COORD97":183537.06618299999,"N_COORD97":2570083.3278800002,"ADDRESS":"中山路３２巷１１弄１６號","OBJECTID":652890},"geometry":{"x":183537.06618299987,"y":2570083.3278749995}},{"attributes":{"ID":652918,"DIS_CODE":0,"TOWNNAME":"六甲區","LI":"六甲里","LIN":"27鄰","STREET":"中山路","SECT":" ","MAREA":" ","LANE":"３２巷","ALLEY":"１１弄","HOUSE_NO":"１８號","E_COORD97":183532.192114,"N_COORD97":2570084.5978700002,"ADDRESS":"中山路３２巷１１弄１８號","OBJECTID":652891},"geometry":{"x":183532.19211400114,"y":2570084.5978740025}},{"attributes":{"ID":652919,"DIS_CODE":0,"TOWNNAME":"六甲區","LI":"六甲里","LIN":"27鄰","STREET":"中山路","SECT":" ","MAREA":" ","LANE":"３２巷","ALLEY":"１１弄","HOUSE_NO":"２０號","E_COORD97":183527.95379299999,"N_COORD97":2570085.8678700002,"ADDRESS":"中山路３２巷１１弄２０號","OBJECTID":652892},"geometry":{"x":183527.95379300136,"y":2570085.8678730037}},{"attributes":{"ID":652920,"DIS_CODE":0,"TOWNNAME":"六甲區","LI":"六甲里","LIN":"27鄰","STREET":"中山路","SECT":" ","MAREA":" ","LANE":"３２巷","ALLEY":"１１弄","HOUSE_NO":"２２號","E_COORD97":183523.29164000001,"N_COORD97":2570087.1378700002,"ADDRESS":"中山路３２巷１１弄２２號","OBJECTID":652893},"geometry":{"x":183523.29164000042,"y":2570087.1378730033}},{"attributes":{"ID":652921,"DIS_CODE":0,"TOWNNAME":"六甲區","LI":"六甲里","LIN":"27鄰","STREET":"中山路","SECT":" ","MAREA":" ","LANE":"３２巷","ALLEY":"１１弄","HOUSE_NO":"２６號","E_COORD97":183519.05332000001,"N_COORD97":2570088.6195399999,"ADDRESS":"中山路３２巷１１弄２６號","OBJECTID":652894},"geometry":{"x":183519.05331999902,"y":2570088.6195379999}},{"attributes":{"ID":652922,"DIS_CODE":0,"TOWNNAME":"六甲區","LI":"六甲里","LIN":"27鄰","STREET":"中山路","SECT":" ","MAREA":" ","LANE":"３２巷","ALLEY":"１１弄","HOUSE_NO":"２８號","E_COORD97":183515.450747,"N_COORD97":2570089.8895399999,"ADDRESS":"中山路３２巷１１弄２８號","OBJECTID":652895},"geometry":{"x":183515.45074700098,"y":2570089.8895379994}},{"attributes":{"ID":652923,"DIS_CODE":0,"TOWNNAME":"六甲區","LI":"六甲里","LIN":"27鄰","STREET":"中山路","SECT":" ","MAREA":" ","LANE":"３２巷","ALLEY":"１１弄","HOUSE_NO":"３０號","E_COORD97":183511.63625800001,"N_COORD97":2570090.7362000002,"ADDRESS":"中山路３２巷１１弄３０號","OBJECTID":652896},"geometry":{"x":183511.63625799958,"y":2570090.7362040002}},{"attributes":{"ID":652924,"DIS_CODE":0,"TOWNNAME":"六甲區","LI":"六甲里","LIN":"27鄰","STREET":"中山路","SECT":" ","MAREA":" ","LANE":"３２巷","ALLEY":"１１弄","HOUSE_NO":"３２號","E_COORD97":183506.97410600001,"N_COORD97":2570092.4295399999,"ADDRESS":"中山路３２巷１１弄３２號","OBJECTID":652897},"geometry":{"x":183506.97410600074,"y":2570092.4295359999}},{"attributes":{"ID":652925,"DIS_CODE":0,"TOWNNAME":"六甲區","LI":"六甲里","LIN":"27鄰","STREET":"中山路","SECT":" ","MAREA":" ","LANE":"３２巷","ALLEY":"１１弄","HOUSE_NO":"３６號","E_COORD97":183502.735785,"N_COORD97":2570092.6412,"ADDRESS":"中山路３２巷１１弄３６號","OBJECTID":652898},"geometry":{"x":183502.73578500003,"y":2570092.6412030011}},{"attributes":{"ID":652926,"DIS_CODE":0,"TOWNNAME":"楠西區","LI":"灣丘里","LIN":"17鄰","STREET":" ","SECT":" ","MAREA":"鳳興","LANE":" ","ALLEY":" ","HOUSE_NO":"６０號之１","E_COORD97":200378,"N_COORD97":2562421,"ADDRESS":"鳳興６０號之１","OBJECTID":652899},"geometry":{"x":200378.00000000093,"y":2562421.0000000019}},{"attributes":{"ID":652927,"DIS_CODE":0,"TOWNNAME":"北區","LI":"三德里","LIN":"5鄰","STREET":"忠義路","SECT":"三段","MAREA":" ","LANE":" ","ALLEY":" ","HOUSE_NO":"３３號","E_COORD97":168518.65218599999,"N_COORD97":2544438.2107299999,"ADDRESS":"忠義路三段３３號","OBJECTID":652900},"geometry":{"x":168518.65218599979,"y":2544438.2107270043}},{"attributes":{"ID":652928,"DIS_CODE":0,"TOWNNAME":"楠西區","LI":"灣丘里","LIN":"18鄰","STREET":" ","SECT":" ","MAREA":"鳳興","LANE":" ","ALLEY":" ","HOUSE_NO":"６１號之１","E_COORD97":201820,"N_COORD97":2562396,"ADDRESS":"鳳興６１號之１","OBJECTID":652901},"geometry":{"x":201820,"y":2562396}},{"attributes":{"ID":652929,"DIS_CODE":0,"TOWNNAME":"新化區","LI":"山\u25A0里","LIN":"2鄰","STREET":" ","SECT":" ","MAREA":"頂山\u25A0","LANE":" ","ALLEY":" ","HOUSE_NO":"５３號之１９５","E_COORD97":178964.73298299999,"N_COORD97":2546491.8300700001,"ADDRESS":"頂山\u25A0５３號之１９５","OBJECTID":652902},"geometry":{"x":178964.73298299965,"y":2546491.8300750032}},{"attributes":{"ID":652930,"DIS_CODE":0,"TOWNNAME":"楠西區","LI":"灣丘里","LIN":"17鄰","STREET":" ","SECT":" ","MAREA":"鳳興","LANE":" ","ALLEY":" ","HOUSE_NO":"６０號之２","E_COORD97":200394,"N_COORD97":2562443,"ADDRESS":"鳳興６０號之２","OBJECTID":652903},"geometry":{"x":200394,"y":2562443}},{"attributes":{"ID":652931,"DIS_CODE":0,"TOWNNAME":"新化區","LI":"山\u25A0里","LIN":"2鄰","STREET":" ","SECT":" ","MAREA":"頂山\u25A0","LANE":" ","ALLEY":" ","HOUSE_NO":"５３號之１００","E_COORD97":178931.68095800001,"N_COORD97":2546494.1584100001,"ADDRESS":"頂山\u25A0５３號之１００","OBJECTID":652904},"geometry":{"x":178931.68095800094,"y":2546494.1584070008}},{"attributes":{"ID":652932,"DIS_CODE":0,"TOWNNAME":"六甲區","LI":"六甲里","LIN":"27鄰","STREET":"中山路","SECT":" ","MAREA":" ","LANE":"３２巷","ALLEY":"１１弄","HOUSE_NO":"９號","E_COORD97":183523.39759800001,"N_COORD97":2570051.3662299998,"ADDRESS":"中山路３２巷１１弄９號","OBJECTID":652905},"geometry":{"x":183523.39759800117,"y":2570051.3662250023}},{"attributes":{"ID":652933,"DIS_CODE":0,"TOWNNAME":"六甲區","LI":"六甲里","LIN":"27鄰","STREET":"中山路","SECT":" ","MAREA":" ","LANE":"３２巷","ALLEY":"１１弄","HOUSE_NO":"１１號","E_COORD97":183518.205655,"N_COORD97":2570053.05956,"ADDRESS":"中山路３２巷１１弄１１號","OBJECTID":652906},"geometry":{"x":183518.20565500017,"y":2570053.0595580004}},{"attributes":{"ID":652934,"DIS_CODE":0,"TOWNNAME":"新化區","LI":"山\u25A0里","LIN":"2鄰","STREET":" ","SECT":" ","MAREA":"頂山\u25A0","LANE":" ","ALLEY":" ","HOUSE_NO":"５３號之１３０","E_COORD97":178439.983496,"N_COORD97":2545742.1827400001,"ADDRESS":"頂山\u25A0５３號之１３０","OBJECTID":652907},"geometry":{"x":178439.98349600099,"y":2545742.1827370021}},{"attributes":{"ID":652935,"DIS_CODE":0,"TOWNNAME":"楠西區","LI":"灣丘里","LIN":"17鄰","STREET":" ","SECT":" ","MAREA":"鳳興","LANE":" ","ALLEY":" ","HOUSE_NO":"６３號之２","E_COORD97":202219,"N_COORD97":2562516,"ADDRESS":"鳳興６３號之２","OBJECTID":652908},"geometry":{"x":202219.00000000093,"y":2562516.0000000019}},{"attributes":{"ID":652936,"DIS_CODE":0,"TOWNNAME":"六甲區","LI":"六甲里","LIN":"27鄰","STREET":"中山路","SECT":" ","MAREA":" ","LANE":"３２巷","ALLEY":"１１弄","HOUSE_NO":"１３號","E_COORD97":183513.96733499999,"N_COORD97":2570054.6470599999,"ADDRESS":"中山路３２巷１１弄１３號","OBJECTID":652909},"geometry":{"x":183513.9673349997,"y":2570054.6470570024}},{"attributes":{"ID":652937,"DIS_CODE":0,"TOWNNAME":"楠西區","LI":"灣丘里","LIN":"17鄰","STREET":" ","SECT":" ","MAREA":"鳳興","LANE":" ","ALLEY":" ","HOUSE_NO":"６３號之２","E_COORD97":202216,"N_COORD97":2562527,"ADDRESS":"鳳興６３號之２","OBJECTID":652910},"geometry":{"x":202216.00000000093,"y":2562527.0000000019}},{"attributes":{"ID":652938,"DIS_CODE":0,"TOWNNAME":"六甲區","LI":"六甲里","LIN":"27鄰","STREET":"中山路","SECT":" ","MAREA":" ","LANE":"３２巷","ALLEY":"１１弄","HOUSE_NO":"１５號","E_COORD97":183510.15284600001,"N_COORD97":2570055.7053899998,"ADDRESS":"中山路３２巷１１弄１５號","OBJECTID":652911},"geometry":{"x":183510.15284600109,"y":2570055.7053900007}},{"attributes":{"ID":652939,"DIS_CODE":0,"TOWNNAME":"新化區","LI":"山\u25A0里","LIN":"2鄰","STREET":" ","SECT":" ","MAREA":"頂山\u25A0","LANE":" ","ALLEY":" ","HOUSE_NO":"５３號之１１０","E_COORD97":178933.164062,"N_COORD97":2546472.78009,"ADDRESS":"頂山\u25A0５３號之１１０","OBJECTID":652912},"geometry":{"x":178933.16406200174,"y":2546472.7800850011}},{"attributes":{"ID":652940,"DIS_CODE":0,"TOWNNAME":"六甲區","LI":"六甲里","LIN":"27鄰","STREET":"中山路","SECT":" ","MAREA":" ","LANE":"３２巷","ALLEY":"１１弄","HOUSE_NO":"１７號","E_COORD97":183506.550273,"N_COORD97":2570056.9753899998,"ADDRESS":"中山路３２巷１１弄１７號","OBJECTID":652913},"geometry":{"x":183506.55027300026,"y":2570056.9753890019}},{"attributes":{"ID":652941,"DIS_CODE":0,"TOWNNAME":"楠西區","LI":"灣丘里","LIN":"17鄰","STREET":" ","SECT":" ","MAREA":"鳳興","LANE":" ","ALLEY":" ","HOUSE_NO":"６３號之５","E_COORD97":202203,"N_COORD97":2562533,"ADDRESS":"鳳興６３號之５","OBJECTID":652914},"geometry":{"x":202203,"y":2562533.0000000019}},{"attributes":{"ID":652942,"DIS_CODE":0,"TOWNNAME":"北區","LI":"大港里","LIN":"23鄰","STREET":"中華北路","SECT":"一段","MAREA":" ","LANE":" ","ALLEY":" ","HOUSE_NO":"１８３號","E_COORD97":166452.15905799999,"N_COORD97":2545685.35005,"ADDRESS":"中華北路一段１８３號","OBJECTID":652915},"geometry":{"x":166452.15905800089,"y":2545685.3500540014}},{"attributes":{"ID":652943,"DIS_CODE":0,"TOWNNAME":"六甲區","LI":"六甲里","LIN":"27鄰","STREET":"中山路","SECT":" ","MAREA":" ","LANE":"３２巷","ALLEY":"１１弄","HOUSE_NO":"１９號","E_COORD97":183502.735785,"N_COORD97":2570058.0337200002,"ADDRESS":"中山路３２巷１１弄１９號","OBJECTID":652916},"geometry":{"x":183502.73578500003,"y":2570058.0337220002}},{"attributes":{"ID":652944,"DIS_CODE":0,"TOWNNAME":"六甲區","LI":"六甲里","LIN":"27鄰","STREET":"中山路","SECT":" ","MAREA":" ","LANE":"３２巷","ALLEY":"１１弄","HOUSE_NO":"２１號","E_COORD97":183497.43788400001,"N_COORD97":2570059.5153899998,"ADDRESS":"中山路３２巷１１弄２１號","OBJECTID":652917},"geometry":{"x":183497.43788400013,"y":2570059.5153880008}},{"attributes":{"ID":652945,"DIS_CODE":0,"TOWNNAME":"楠西區","LI":"灣丘里","LIN":"17鄰","STREET":" ","SECT":" ","MAREA":"鳳興","LANE":" ","ALLEY":" ","HOUSE_NO":"６４號","E_COORD97":202250,"N_COORD97":2562548,"ADDRESS":"鳳興６４號","OBJECTID":652918},"geometry":{"x":202250.00000000093,"y":2562548}},{"attributes":{"ID":652946,"DIS_CODE":0,"TOWNNAME":"六甲區","LI":"六甲里","LIN":"27鄰","STREET":"中山路","SECT":" ","MAREA":" ","LANE":"３２巷","ALLEY":"１１弄","HOUSE_NO":"２３號","E_COORD97":183495.42468200001,"N_COORD97":2570064.5953899999,"ADDRESS":"中山路３２巷１１弄２３號","OBJECTID":652919},"geometry":{"x":183495.42468200158,"y":2570064.5953850001}},{"attributes":{"ID":652947,"DIS_CODE":0,"TOWNNAME":"六甲區","LI":"六甲里","LIN":"27鄰","STREET":"中山路","SECT":" ","MAREA":" ","LANE":"３２巷","ALLEY":"１１弄","HOUSE_NO":"２５號","E_COORD97":183491.716151,"N_COORD97":2570065.7595500001,"ADDRESS":"中山路３２巷１１弄２５號","OBJECTID":652920},"geometry":{"x":183491.71615100093,"y":2570065.7595509999}},{"attributes":{"ID":652948,"DIS_CODE":0,"TOWNNAME":"新化區","LI":"山\u25A0里","LIN":"2鄰","STREET":" ","SECT":" ","MAREA":"頂山\u25A0","LANE":" ","ALLEY":" ","HOUSE_NO":"５３號之３","E_COORD97":178788.667392,"N_COORD97":2546489.0784100001,"ADDRESS":"頂山\u25A0５３號之３","OBJECTID":652921},"geometry":{"x":178788.66739200056,"y":2546489.0784100015}},{"attributes":{"ID":652949,"DIS_CODE":0,"TOWNNAME":"六甲區","LI":"六甲里","LIN":"27鄰","STREET":"中山路","SECT":" ","MAREA":" ","LANE":"３２巷","ALLEY":"１１弄","HOUSE_NO":"２７號","E_COORD97":183487.05399799999,"N_COORD97":2570067.0295500001,"ADDRESS":"中山路３２巷１１弄２７號","OBJECTID":652922},"geometry":{"x":183487.05399799999,"y":2570067.0295500029}},{"attributes":{"ID":652950,"DIS_CODE":0,"TOWNNAME":"新化區","LI":"山\u25A0里","LIN":"2鄰","STREET":" ","SECT":" ","MAREA":"頂山\u25A0","LANE":" ","ALLEY":" ","HOUSE_NO":"５３號之１５０","E_COORD97":178734.42817200001,"N_COORD97":2546476.8017500001,"ADDRESS":"頂山\u25A0５３號之１５０","OBJECTID":652923},"geometry":{"x":178734.42817199882,"y":2546476.8017500024}},{"attributes":{"ID":652951,"DIS_CODE":0,"TOWNNAME":"六甲區","LI":"六甲里","LIN":"27鄰","STREET":"中山路","SECT":" ","MAREA":" ","LANE":"３２巷","ALLEY":"１１弄","HOUSE_NO":"２９號","E_COORD97":183483.02759300001,"N_COORD97":2570067.9820500002,"ADDRESS":"中山路３２巷１１弄２９號","OBJECTID":652924},"geometry":{"x":183483.02759300079,"y":2570067.9820499998}},{"attributes":{"ID":652952,"DIS_CODE":0,"TOWNNAME":"新化區","LI":"山\u25A0里","LIN":"2鄰","STREET":" ","SECT":" ","MAREA":"頂山\u25A0","LANE":" ","ALLEY":" ","HOUSE_NO":"５３號之８８","E_COORD97":178685.27387999999,"N_COORD97":2546521.6750599998,"ADDRESS":"頂山\u25A0５３號之８８","OBJECTID":652925},"geometry":{"x":178685.27388000023,"y":2546521.6750590019}},{"attributes":{"ID":652953,"DIS_CODE":0,"TOWNNAME":"新化區","LI":"山\u25A0里","LIN":"2鄰","STREET":" ","SECT":" ","MAREA":"頂山\u25A0","LANE":" ","ALLEY":" ","HOUSE_NO":"５３號之８６","E_COORD97":178721.927727,"N_COORD97":2546573.5333599998,"ADDRESS":"頂山\u25A0５３號之８６","OBJECTID":652926},"geometry":{"x":178721.92772700079,"y":2546573.5333640017}},{"attributes":{"ID":652954,"DIS_CODE":0,"TOWNNAME":"新化區","LI":"太平里","LIN":"17鄰","STREET":"忠孝路","SECT":" ","MAREA":" ","LANE":" ","ALLEY":" ","HOUSE_NO":"１２６號之１","E_COORD97":178679.83499,"N_COORD97":2548660.6185699999,"ADDRESS":"中孝路１２６號之１","OBJECTID":652927},"geometry":{"x":178679.83499000035,"y":2548660.6185700018}},{"attributes":{"ID":652955,"DIS_CODE":0,"TOWNNAME":"新營區","LI":"延平里","LIN":"5鄰","STREET":"長春街","SECT":" ","MAREA":" ","LANE":" ","ALLEY":" ","HOUSE_NO":"４０號","E_COORD97":179710.692966,"N_COORD97":2577895.9865299999,"ADDRESS":"長春街４０號","OBJECTID":652928},"geometry":{"x":179710.69296600111,"y":2577895.9865270015}},{"attributes":{"ID":652956,"DIS_CODE":0,"TOWNNAME":"新營區","LI":"延平里","LIN":"5鄰","STREET":"長春街","SECT":" ","MAREA":" ","LANE":" ","ALLEY":" ","HOUSE_NO":"４２號","E_COORD97":179707.937963,"N_COORD97":2577894.0815300001,"ADDRESS":"長春街４２號","OBJECTID":652929},"geometry":{"x":179707.93796299957,"y":2577894.0815280024}},{"attributes":{"ID":652957,"DIS_CODE":0,"TOWNNAME":"新營區","LI":"延平里","LIN":"5鄰","STREET":"長春街","SECT":" ","MAREA":" ","LANE":" ","ALLEY":" ","HOUSE_NO":"４４號","E_COORD97":179705.182959,"N_COORD97":2577891.9648600002,"ADDRESS":"長春街４４號","OBJECTID":652930},"geometry":{"x":179705.18295899965,"y":2577891.9648620021}},{"attributes":{"ID":652958,"DIS_CODE":0,"TOWNNAME":"新營區","LI":"延平里","LIN":"5鄰","STREET":"長春街","SECT":" ","MAREA":" ","LANE":" ","ALLEY":" ","HOUSE_NO":"４６號","E_COORD97":179702.216033,"N_COORD97":2577890.4832000001,"ADDRESS":"長春街４６號","OBJECTID":652931},"geometry":{"x":179702.21603299957,"y":2577890.4831959996}},{"attributes":{"ID":652959,"DIS_CODE":0,"TOWNNAME":"新營區","LI":"延平里","LIN":"5鄰","STREET":"長春街","SECT":" ","MAREA":" ","LANE":" ","ALLEY":" ","HOUSE_NO":"４８號","E_COORD97":179696.282179,"N_COORD97":2577887.3081999999,"ADDRESS":"長春街４８號","OBJECTID":652932},"geometry":{"x":179696.28217900172,"y":2577887.3081980012}},{"attributes":{"ID":652960,"DIS_CODE":0,"TOWNNAME":"新營區","LI":"延平里","LIN":"5鄰","STREET":"長春街","SECT":" ","MAREA":" ","LANE":" ","ALLEY":" ","HOUSE_NO":"５２號","E_COORD97":179691.36661999999,"N_COORD97":2577883.9860899998,"ADDRESS":"長春街５２號","OBJECTID":652933},"geometry":{"x":179691.36662000138,"y":2577883.9860939998}},{"attributes":{"ID":652961,"DIS_CODE":0,"TOWNNAME":"楠西區","LI":"灣丘里","LIN":"13鄰","STREET":" ","SECT":" ","MAREA":"鳳興","LANE":" ","ALLEY":" ","HOUSE_NO":"６號","E_COORD97":198631,"N_COORD97":2562730,"ADDRESS":"鳳興６號","OBJECTID":652934},"geometry":{"x":198631,"y":2562730.0000000019}},{"attributes":{"ID":652962,"DIS_CODE":0,"TOWNNAME":"新化區","LI":"知義里","LIN":"14鄰","STREET":"復興路","SECT":" ","MAREA":" ","LANE":"１１４巷","ALLEY":" ","HOUSE_NO":"４２號","E_COORD97":179888.458579,"N_COORD97":2547619.11803,"ADDRESS":"復興路１１４巷４２號","OBJECTID":652935},"geometry":{"x":179888.45857900195,"y":2547619.118034998}},{"attributes":{"ID":652963,"DIS_CODE":0,"TOWNNAME":"新化區","LI":"太平里","LIN":"7鄰","STREET":"民生路","SECT":" ","MAREA":" ","LANE":"３１４巷","ALLEY":" ","HOUSE_NO":"６７號之９７","E_COORD97":179193.01895900001,"N_COORD97":2549899.60873,"ADDRESS":"民生路３１４巷６７號之９７","OBJECTID":652936},"geometry":{"x":179193.01895900071,"y":2549899.6087340023}},{"attributes":{"ID":652964,"DIS_CODE":0,"TOWNNAME":"北區","LI":"力行里","LIN":"15鄰","STREET":"力行三街","SECT":" ","MAREA":" ","LANE":" ","ALLEY":" ","HOUSE_NO":"９號","E_COORD97":170972.60577600001,"N_COORD97":2545371.5069200001,"ADDRESS":"力行三街９號","OBJECTID":652937},"geometry":{"x":170972.60577600077,"y":2545371.5069200005}},{"attributes":{"ID":652965,"DIS_CODE":0,"TOWNNAME":"北區","LI":"力行里","LIN":"15鄰","STREET":"力行三街","SECT":" ","MAREA":" ","LANE":" ","ALLEY":" ","HOUSE_NO":"１５號","E_COORD97":170978.56635000001,"N_COORD97":2545393.0334299998,"ADDRESS":"力行三街１５號","OBJECTID":652938},"geometry":{"x":170978.56635000091,"y":2545393.0334270038}},{"attributes":{"ID":652966,"DIS_CODE":0,"TOWNNAME":"北區","LI":"力行里","LIN":"15鄰","STREET":"力行一街","SECT":" ","MAREA":" ","LANE":" ","ALLEY":" ","HOUSE_NO":"１２號","E_COORD97":170936.38077799999,"N_COORD97":2545385.0535800001,"ADDRESS":"力行一街１２號","OBJECTID":652939},"geometry":{"x":170936.38077800069,"y":2545385.0535790008}},{"attributes":{"ID":652967,"DIS_CODE":0,"TOWNNAME":"北區","LI":"力行里","LIN":"15鄰","STREET":"力行一街","SECT":" ","MAREA":" ","LANE":" ","ALLEY":" ","HOUSE_NO":"３０號","E_COORD97":170945.913672,"N_COORD97":2545424.0002299999,"ADDRESS":"力行一街３０號","OBJECTID":652940},"geometry":{"x":170945.9136720011,"y":2545424.0002250001}},{"attributes":{"ID":652968,"DIS_CODE":0,"TOWNNAME":"北區","LI":"力行里","LIN":"15鄰","STREET":"力行一街","SECT":" ","MAREA":" ","LANE":" ","ALLEY":" ","HOUSE_NO":"３８號","E_COORD97":170950.680119,"N_COORD97":2545440.5102200001,"ADDRESS":"力行一街３８號","OBJECTID":652941},"geometry":{"x":170950.68011899944,"y":2545440.5102160014}},{"attributes":{"ID":652969,"DIS_CODE":0,"TOWNNAME":"北區","LI":"力行里","LIN":"15鄰","STREET":"力行一街","SECT":" ","MAREA":" ","LANE":" ","ALLEY":" ","HOUSE_NO":"３６號","E_COORD97":170949.409067,"N_COORD97":2545435.2185499999,"ADDRESS":"力行一街３６號","OBJECTID":652942},"geometry":{"x":170949.40906700213,"y":2545435.2185520008}},{"attributes":{"ID":652970,"DIS_CODE":0,"TOWNNAME":"北區","LI":"力行里","LIN":"15鄰","STREET":"力行一街","SECT":" ","MAREA":" ","LANE":" ","ALLEY":" ","HOUSE_NO":"５０號","E_COORD97":170954.28143500001,"N_COORD97":2545459.5602099998,"ADDRESS":"力行一街５０號","OBJECTID":652943},"geometry":{"x":170954.28143500071,"y":2545459.5602060016}},{"attributes":{"ID":652971,"DIS_CODE":0,"TOWNNAME":"新化區","LI":"太平里","LIN":"9鄰","STREET":"中正路","SECT":" ","MAREA":" ","LANE":" ","ALLEY":" ","HOUSE_NO":"６９０號之６３（農業","E_COORD97":179272.72039,"N_COORD97":2550444.6501000002,"ADDRESS":"中正路６９０號之６３","OBJECTID":652944},"geometry":{"x":179272.72039000131,"y":2550444.6501000021}},{"attributes":{"ID":652972,"DIS_CODE":0,"TOWNNAME":"新化區","LI":"全興里","LIN":"10鄰","STREET":" ","SECT":" ","MAREA":"竹子\u25A0","LANE":" ","ALLEY":" ","HOUSE_NO":"１７１號之８","E_COORD97":177418.475679,"N_COORD97":2547174.17619,"ADDRESS":"竹子\u25A0１７１號之８","OBJECTID":652945},"geometry":{"x":177418.47567900084,"y":2547174.1761879995}},{"attributes":{"ID":652973,"DIS_CODE":0,"TOWNNAME":"善化區","LI":"小新里","LIN":"22鄰","STREET":" ","SECT":" ","MAREA":"成功新村","LANE":" ","ALLEY":" ","HOUSE_NO":"９０號二樓","E_COORD97":180449.17999999999,"N_COORD97":2558612.5,"ADDRESS":"成功新村９０號二樓","OBJECTID":652946},"geometry":{"x":180449.1799999997,"y":2558612.5}},{"attributes":{"ID":652974,"DIS_CODE":0,"TOWNNAME":"北區","LI":"東興里","LIN":"15鄰","STREET":"小東路","SECT":" ","MAREA":" ","LANE":"２９９巷","ALLEY":"２６弄","HOUSE_NO":"２號之３","E_COORD97":171138.52394300001,"N_COORD97":2544466.5328700002,"ADDRESS":"小東路２９９巷２６弄２號之３","OBJECTID":652947},"geometry":{"x":171138.5239430014,"y":2544466.5328720007}},{"attributes":{"ID":652975,"DIS_CODE":0,"TOWNNAME":"北區","LI":"安民里","LIN":"12鄰","STREET":"海安路","SECT":"三段","MAREA":" ","LANE":"７１巷","ALLEY":" ","HOUSE_NO":"１９號","E_COORD97":167865.12733399999,"N_COORD97":2544799.7418,"ADDRESS":"海安路三段７１巷１９號","OBJECTID":652948},"geometry":{"x":167865.12733400054,"y":2544799.7417959999}},{"attributes":{"ID":652976,"DIS_CODE":0,"TOWNNAME":"白河區","LI":"玉豐里","LIN":"3鄰","STREET":" ","SECT":" ","MAREA":"頂山腳","LANE":" ","ALLEY":" ","HOUSE_NO":"１１之５號","E_COORD97":190510.36010200001,"N_COORD97":2587147.9917799998,"ADDRESS":"頂山腳１１之５號","OBJECTID":652949},"geometry":{"x":190510.36010199971,"y":2587147.9917799998}},{"attributes":{"ID":652977,"DIS_CODE":0,"TOWNNAME":"白河區","LI":"草店里","LIN":"5鄰","STREET":" ","SECT":" ","MAREA":"草店","LANE":" ","ALLEY":" ","HOUSE_NO":"４３之５號","E_COORD97":193025.70294399999,"N_COORD97":2587578.6970000002,"ADDRESS":"草店４３之５號","OBJECTID":652950},"geometry":{"x":193025.70294400025,"y":2587578.6969970018}},{"attributes":{"ID":652978,"DIS_CODE":0,"TOWNNAME":"六甲區","LI":"六甲里","LIN":"27鄰","STREET":"中山路","SECT":" ","MAREA":" ","LANE":"３２巷","ALLEY":"１１弄","HOUSE_NO":"３８之１號","E_COORD97":183494.682975,"N_COORD97":2570094.5462000002,"ADDRESS":"中山路３２巷１１弄３８之１號","OBJECTID":652951},"geometry":{"x":183494.68297500163,"y":2570094.5462020002}},{"attributes":{"ID":652979,"DIS_CODE":0,"TOWNNAME":"六甲區","LI":"六甲里","LIN":"27鄰","STREET":"中山路","SECT":" ","MAREA":" ","LANE":"３２巷","ALLEY":"１１弄","HOUSE_NO":"３８號","E_COORD97":183499.13321199999,"N_COORD97":2570093.4878699998,"ADDRESS":"中山路３２巷１１弄３８號","OBJECTID":652952},"geometry":{"x":183499.13321200199,"y":2570093.4878690019}},{"attributes":{"ID":652980,"DIS_CODE":0,"TOWNNAME":"六甲區","LI":"七甲里","LIN":"2鄰","STREET":"七甲街","SECT":" ","MAREA":" ","LANE":"９３巷","ALLEY":"１５弄","HOUSE_NO":"２號","E_COORD97":182927.00615999999,"N_COORD97":2568898.5012500002,"ADDRESS":"七甲街９３巷１５弄２號","OBJECTID":652953},"geometry":{"x":182927.0061600022,"y":2568898.5012519993}},{"attributes":{"ID":652981,"DIS_CODE":0,"TOWNNAME":"六甲區","LI":"七甲里","LIN":"2鄰","STREET":"七甲街","SECT":" ","MAREA":" ","LANE":"９３巷","ALLEY":"１５弄","HOUSE_NO":"６號","E_COORD97":182931.668313,"N_COORD97":2568897.4429199998,"ADDRESS":"七甲街９３巷１５弄６號","OBJECTID":652954},"geometry":{"x":182931.66831300035,"y":2568897.442919001}},{"attributes":{"ID":652982,"DIS_CODE":0,"TOWNNAME":"六甲區","LI":"七甲里","LIN":"2鄰","STREET":"七甲街","SECT":" ","MAREA":" ","LANE":"９３巷","ALLEY":"１５弄","HOUSE_NO":"８號","E_COORD97":182935.69471800001,"N_COORD97":2568896.5962499999,"ADDRESS":"七甲街９３巷１５弄８號","OBJECTID":652955},"geometry":{"x":182935.69471799955,"y":2568896.5962530039}},{"attributes":{"ID":652983,"DIS_CODE":0,"TOWNNAME":"六甲區","LI":"七甲里","LIN":"2鄰","STREET":"七甲街","SECT":" ","MAREA":" ","LANE":"９３巷","ALLEY":"１５弄","HOUSE_NO":"１０號","E_COORD97":182939.509207,"N_COORD97":2568895.7495900001,"ADDRESS":"七甲街９３巷１５弄１０號","OBJECTID":652956},"geometry":{"x":182939.50920700096,"y":2568895.7495870013}},{"attributes":{"ID":652984,"DIS_CODE":0,"TOWNNAME":"中西區","LI":"郡西里","LIN":"6鄰","STREET":"大智街","SECT":" ","MAREA":" ","LANE":" ","ALLEY":" ","HOUSE_NO":"１０１號之２","E_COORD97":167305.25034900001,"N_COORD97":2543368.8165799999,"ADDRESS":"大智街１０１號之２","OBJECTID":652957},"geometry":{"x":167305.2503490001,"y":2543368.8165750001}},{"attributes":{"ID":652985,"DIS_CODE":0,"TOWNNAME":"中西區","LI":"郡西里","LIN":"6鄰","STREET":"大智街","SECT":" ","MAREA":" ","LANE":" ","ALLEY":" ","HOUSE_NO":"１０１號之３","E_COORD97":167306.30968599999,"N_COORD97":2543367.3349100002,"ADDRESS":"大智街１０１號之３","OBJECTID":652958},"geometry":{"x":167306.3096859986,"y":2543367.3349089995}},{"attributes":{"ID":652986,"DIS_CODE":0,"TOWNNAME":"中西區","LI":"郡西里","LIN":"6鄰","STREET":"大智街","SECT":" ","MAREA":" ","LANE":" ","ALLEY":" ","HOUSE_NO":"１０１號之５","E_COORD97":167306.52155400001,"N_COORD97":2543365.4299099999,"ADDRESS":"大智街１０１號之５","OBJECTID":652959},"geometry":{"x":167306.52155399881,"y":2543365.4299100004}},{"attributes":{"ID":652987,"DIS_CODE":0,"TOWNNAME":"六甲區","LI":"七甲里","LIN":"2鄰","STREET":"七甲街","SECT":" ","MAREA":" ","LANE":"９３巷","ALLEY":" ","HOUSE_NO":"１３之１號","E_COORD97":182939.933039,"N_COORD97":2568946.9728899999,"ADDRESS":"七甲街９３巷１３之１號","OBJECTID":652960},"geometry":{"x":182939.93303900026,"y":2568946.9728920013}},{"attributes":{"ID":652988,"DIS_CODE":0,"TOWNNAME":"六甲區","LI":"七甲里","LIN":"2鄰","STREET":"七甲街","SECT":" ","MAREA":" ","LANE":"９３巷","ALLEY":" ","HOUSE_NO":"１３之２號","E_COORD97":182939.08537399999,"N_COORD97":2568941.4695600001,"ADDRESS":"七甲街９３巷１３之２號","OBJECTID":652961},"geometry":{"x":182939.08537400048,"y":2568941.4695619997}},{"attributes":{"ID":652989,"DIS_CODE":0,"TOWNNAME":"六甲區","LI":"七甲里","LIN":"2鄰","STREET":"七甲街","SECT":" ","MAREA":" ","LANE":"９３巷","ALLEY":" ","HOUSE_NO":"１３之３號","E_COORD97":182938.44962599999,"N_COORD97":2568935.3312300001,"ADDRESS":"七甲街９３巷１３之３號","OBJECTID":652962},"geometry":{"x":182938.44962599967,"y":2568935.331232002}},{"attributes":{"ID":652990,"DIS_CODE":0,"TOWNNAME":"六甲區","LI":"六甲里","LIN":"22鄰","STREET":"中山路","SECT":" ","MAREA":" ","LANE":"３２巷","ALLEY":" ","HOUSE_NO":"１６號","E_COORD97":183580.76713200001,"N_COORD97":2570084.0456099999,"ADDRESS":"中山路３２巷１６號","OBJECTID":652963},"geometry":{"x":183580.76713200007,"y":2570084.0456120037}},{"attributes":{"ID":652991,"DIS_CODE":0,"TOWNNAME":"楠西區","LI":"楠西里","LIN":"15鄰","STREET":"中興南路","SECT":" ","MAREA":" ","LANE":" ","ALLEY":" ","HOUSE_NO":"１２２號","E_COORD97":197175,"N_COORD97":2564003,"ADDRESS":"中興南路１２２號","OBJECTID":652964},"geometry":{"x":197175,"y":2564003}},{"attributes":{"ID":652992,"DIS_CODE":0,"TOWNNAME":"楠西區","LI":"東勢里","LIN":"19鄰","STREET":"水庫路","SECT":" ","MAREA":" ","LANE":" ","ALLEY":" ","HOUSE_NO":"５７２號","E_COORD97":197618,"N_COORD97":2563419,"ADDRESS":"水庫路５７２號","OBJECTID":652965},"geometry":{"x":197618.00000000186,"y":2563419}},{"attributes":{"ID":652993,"DIS_CODE":0,"TOWNNAME":"楠西區","LI":"鹿田里","LIN":"11鄰","STREET":" ","SECT":" ","MAREA":"油車","LANE":" ","ALLEY":" ","HOUSE_NO":"６０之７號","E_COORD97":197944,"N_COORD97":2562536,"ADDRESS":"油車６０之７號","OBJECTID":652966},"geometry":{"x":197944.00000000093,"y":2562536.0000000019}},{"attributes":{"ID":652994,"DIS_CODE":0,"TOWNNAME":"麻豆區","LI":"北勢里","LIN":"10鄰","STREET":" ","SECT":" ","MAREA":"北勢寮","LANE":" ","ALLEY":" ","HOUSE_NO":"１３號之１０","E_COORD97":172144.617436,"N_COORD97":2567416.1717300001,"ADDRESS":"北勢寮１３號之１０","OBJECTID":652967},"geometry":{"x":172144.61743600015,"y":2567416.1717339978}},{"attributes":{"ID":652995,"DIS_CODE":0,"TOWNNAME":"麻豆區","LI":"北勢里","LIN":"10鄰","STREET":" ","SECT":" ","MAREA":"北勢寮","LANE":" ","ALLEY":" ","HOUSE_NO":"１５號之３","E_COORD97":172480.02284300001,"N_COORD97":2567481.4708699998,"ADDRESS":"北勢寮１５號之３","OBJECTID":652968},"geometry":{"x":172480.02284299955,"y":2567481.470865}},{"attributes":{"ID":652996,"DIS_CODE":0,"TOWNNAME":"下營區","LI":"仁里里","LIN":"3鄰","STREET":"仁里街","SECT":" ","MAREA":" ","LANE":" ","ALLEY":" ","HOUSE_NO":"２６號","E_COORD97":174304.10647500001,"N_COORD97":2570261.3388100001,"ADDRESS":"仁里街２６號","OBJECTID":652969},"geometry":{"x":174304.10647499934,"y":2570261.3388070017}},{"attributes":{"ID":652997,"DIS_CODE":0,"TOWNNAME":"麻豆區","LI":"北勢里","LIN":"11鄰","STREET":" ","SECT":" ","MAREA":"北勢寮","LANE":" ","ALLEY":" ","HOUSE_NO":"１６號之４","E_COORD97":172134.87096999999,"N_COORD97":2567729.0148900002,"ADDRESS":"北勢寮１６號之４","OBJECTID":652970},"geometry":{"x":172134.87096999958,"y":2567729.0148900039}},{"attributes":{"ID":652998,"DIS_CODE":0,"TOWNNAME":"下營區","LI":"仁里里","LIN":"4鄰","STREET":"仁里街","SECT":" ","MAREA":" ","LANE":"４８巷","ALLEY":" ","HOUSE_NO":"１１號","E_COORD97":174220.29037199999,"N_COORD97":2570214.9838299998,"ADDRESS":"仁里街４８巷１１號","OBJECTID":652971},"geometry":{"x":174220.29037200101,"y":2570214.9838320017}},{"attributes":{"ID":652999,"DIS_CODE":0,"TOWNNAME":"麻豆區","LI":"北勢里","LIN":"11鄰","STREET":" ","SECT":" ","MAREA":"北勢寮","LANE":" ","ALLEY":" ","HOUSE_NO":"１８號","E_COORD97":172100.33459899999,"N_COORD97":2567803.3098599999,"ADDRESS":"北勢寮１８號","OBJECTID":652972},"geometry":{"x":172100.33459900226,"y":2567803.3098580036}},{"attributes":{"ID":653000,"DIS_CODE":0,"TOWNNAME":"新營區","LI":"民榮里","LIN":"28鄰","STREET":"復興路","SECT":" ","MAREA":" ","LANE":" ","ALLEY":" ","HOUSE_NO":"５１５之１號","E_COORD97":178173.73705600001,"N_COORD97":2578229.2052600002,"ADDRESS":"復興路５１５之１號","OBJECTID":652973},"geometry":{"x":178173.73705600016,"y":2578229.205258999}},{"attributes":{"ID":653001,"DIS_CODE":0,"TOWNNAME":"仁德區","LI":"仁德里","LIN":"12鄰","STREET":"四維街","SECT":" ","MAREA":" ","LANE":" ","ALLEY":" ","HOUSE_NO":"２１號四樓之５","E_COORD97":173262.23999999999,"N_COORD97":2541501.79,"ADDRESS":"四維街２１號四樓之５","OBJECTID":652974},"geometry":{"x":173262.24000000115,"y":2541501.7899999991}},{"attributes":{"ID":653002,"DIS_CODE":0,"TOWNNAME":"麻豆區","LI":"北勢里","LIN":"12鄰","STREET":" ","SECT":" ","MAREA":"北勢寮","LANE":" ","ALLEY":" ","HOUSE_NO":"６１號之３","E_COORD97":172515.61861599999,"N_COORD97":2568047.5730599998,"ADDRESS":"北勢寮６１號之３","OBJECTID":652975},"geometry":{"x":172515.61861599982,"y":2568047.5730600003}},{"attributes":{"ID":653003,"DIS_CODE":0,"TOWNNAME":"麻豆區","LI":"北勢里","LIN":"13鄰","STREET":" ","SECT":" ","MAREA":"北勢寮","LANE":" ","ALLEY":" ","HOUSE_NO":"３９號","E_COORD97":171641.82714400001,"N_COORD97":2567520.6291800002,"ADDRESS":"北勢寮３９號","OBJECTID":652976},"geometry":{"x":171641.82714400161,"y":2567520.6291780006}},{"attributes":{"ID":653004,"DIS_CODE":0,"TOWNNAME":"麻豆區","LI":"北勢里","LIN":"14鄰","STREET":" ","SECT":" ","MAREA":"北勢寮","LANE":" ","ALLEY":" ","HOUSE_NO":"４０號之３","E_COORD97":171494.35894199999,"N_COORD97":2567620.85329,"ADDRESS":"北勢寮４０號之３","OBJECTID":652977},"geometry":{"x":171494.35894200113,"y":2567620.8532900009}},{"attributes":{"ID":653005,"DIS_CODE":0,"TOWNNAME":"下營區","LI":"仁里里","LIN":"4鄰","STREET":"仁里街","SECT":" ","MAREA":" ","LANE":" ","ALLEY":" ","HOUSE_NO":"５２號","E_COORD97":174268.17461700001,"N_COORD97":2570181.1171800001,"ADDRESS":"仁里街５２號","OBJECTID":652978},"geometry":{"x":174268.17461699992,"y":2570181.1171840001}},{"attributes":{"ID":653006,"DIS_CODE":0,"TOWNNAME":"下營區","LI":"仁里里","LIN":"21鄰","STREET":"仁南街","SECT":" ","MAREA":" ","LANE":" ","ALLEY":" ","HOUSE_NO":"１２７號","E_COORD97":174214.99344200001,"N_COORD97":2569726.65044,"ADDRESS":"仁南街１２７號","OBJECTID":652979},"geometry":{"x":174214.99344199989,"y":2569726.6504400019}},{"attributes":{"ID":653007,"DIS_CODE":0,"TOWNNAME":"下營區","LI":"大埤里","LIN":"9鄰","STREET":" ","SECT":" ","MAREA":"大埤寮","LANE":" ","ALLEY":" ","HOUSE_NO":"７９號之９","E_COORD97":173068.576998,"N_COORD97":2569448.1606700001,"ADDRESS":"大埤寮７９號之９","OBJECTID":652980},"geometry":{"x":173068.57699800096,"y":2569448.1606710013}},{"attributes":{"ID":653008,"DIS_CODE":0,"TOWNNAME":"下營區","LI":"後街里","LIN":"8鄰","STREET":"中正北路","SECT":" ","MAREA":" ","LANE":"１０３巷","ALLEY":" ","HOUSE_NO":"５號","E_COORD97":174394.82587199999,"N_COORD97":2570752.6524200002,"ADDRESS":"中正北路１０３巷５號","OBJECTID":652981},"geometry":{"x":174394.82587200124,"y":2570752.6524180025}},{"attributes":{"ID":653009,"DIS_CODE":0,"TOWNNAME":"下營區","LI":"仁里里","LIN":"7鄰","STREET":"仁興街","SECT":" ","MAREA":" ","LANE":" ","ALLEY":" ","HOUSE_NO":"３２號","E_COORD97":174164.990425,"N_COORD97":2570134.44471,"ADDRESS":"仁興街３２號","OBJECTID":652982},"geometry":{"x":174164.99042499997,"y":2570134.4447090011}},{"attributes":{"ID":653010,"DIS_CODE":0,"TOWNNAME":"中西區","LI":"協和里","LIN":"10鄰","STREET":"協和街","SECT":" ","MAREA":" ","LANE":" ","ALLEY":" ","HOUSE_NO":"１３３之１號","E_COORD97":167198.41072399999,"N_COORD97":2544658.3061299999,"ADDRESS":"協和街１３３之１號","OBJECTID":652983},"geometry":{"x":167198.41072400007,"y":2544658.3061270025}},{"attributes":{"ID":653011,"DIS_CODE":0,"TOWNNAME":"下營區","LI":"後街里","LIN":"6鄰","STREET":"中正北路","SECT":" ","MAREA":" ","LANE":" ","ALLEY":" ","HOUSE_NO":"２００號","E_COORD97":174433.37140100001,"N_COORD97":2570858.2403500001,"ADDRESS":"中正北路２００號","OBJECTID":652984},"geometry":{"x":174433.37140100077,"y":2570858.2403490022}},{"attributes":{"ID":653012,"DIS_CODE":0,"TOWNNAME":"白河區","LI":"關嶺里","LIN":"16鄰","STREET":" ","SECT":" ","MAREA":"南寮","LANE":" ","ALLEY":" ","HOUSE_NO":"７６之１６０號","E_COORD97":197729.13338399999,"N_COORD97":2578020.5076000001,"ADDRESS":"南寮７６之１６０號","OBJECTID":652985},"geometry":{"x":197729.13338400051,"y":2578020.5076020025}},{"attributes":{"ID":653013,"DIS_CODE":0,"TOWNNAME":"中西區","LI":"福安里","LIN":"18鄰","STREET":"友愛街","SECT":" ","MAREA":" ","LANE":" ","ALLEY":" ","HOUSE_NO":"８２之２號","E_COORD97":167949.439759,"N_COORD97":2543582.6167100002,"ADDRESS":"友愛街８２之２號","OBJECTID":652986},"geometry":{"x":167949.43975899927,"y":2543582.6167080011}},{"attributes":{"ID":653014,"DIS_CODE":0,"TOWNNAME":"六甲區","LI":"甲東里","LIN":"29鄰","STREET":"裕農街","SECT":" ","MAREA":" ","LANE":"２２巷","ALLEY":"４３弄","HOUSE_NO":"１０號","E_COORD97":184190.71537799999,"N_COORD97":2569512.6307999999,"ADDRESS":"裕農街２２巷４３弄１０號","OBJECTID":652987},"geometry":{"x":184190.7153780004,"y":2569512.6308040004}},{"attributes":{"ID":653015,"DIS_CODE":0,"TOWNNAME":"中西區","LI":"大涼里","LIN":"2鄰","STREET":"金華路","SECT":"三段","MAREA":" ","LANE":" ","ALLEY":" ","HOUSE_NO":"１６７號三樓","E_COORD97":167264.80767000001,"N_COORD97":2543742.81054,"ADDRESS":"金華路三段１６７號三樓","OBJECTID":652988},"geometry":{"x":167264.80767000001,"y":2543742.8105400018}},{"attributes":{"ID":653016,"DIS_CODE":0,"TOWNNAME":"關廟區","LI":"下湖里","LIN":"5鄰","STREET":"下湖二街","SECT":" ","MAREA":" ","LANE":" ","ALLEY":" ","HOUSE_NO":"７２之１號","E_COORD97":179384.94756999999,"N_COORD97":2543047.9345100001,"ADDRESS":"下湖二街７２之１號","OBJECTID":652989},"geometry":{"x":179384.94757000078,"y":2543047.9345100019}},{"attributes":{"ID":653017,"DIS_CODE":0,"TOWNNAME":"中西區","LI":"大涼里","LIN":"2鄰","STREET":"金華路","SECT":"三段","MAREA":" ","LANE":" ","ALLEY":" ","HOUSE_NO":"１６７號","E_COORD97":167264.807673,"N_COORD97":2543742.81054,"ADDRESS":"金華路三段１６７號","OBJECTID":652990},"geometry":{"x":167264.8076729998,"y":2543742.8105430007}},{"attributes":{"ID":653018,"DIS_CODE":0,"TOWNNAME":"白河區","LI":"關嶺里","LIN":"3鄰","STREET":" ","SECT":" ","MAREA":"關子嶺","LANE":" ","ALLEY":" ","HOUSE_NO":"３２２之１號","E_COORD97":198949.38533200001,"N_COORD97":2581828.4947100002,"ADDRESS":"關子嶺３２２之１號","OBJECTID":652991},"geometry":{"x":198949.38533200137,"y":2581828.4947120007}},{"attributes":{"ID":653019,"DIS_CODE":0,"TOWNNAME":"仁德區","LI":"一甲里","LIN":"13鄰","STREET":"中清路","SECT":" ","MAREA":" ","LANE":"２８１巷","ALLEY":" ","HOUSE_NO":"２號七樓之１","E_COORD97":173727.93886900001,"N_COORD97":2541845.9564100001,"ADDRESS":"中清路２８１巷２號七樓之１","OBJECTID":652992},"geometry":{"x":173727.93886900041,"y":2541845.9564150013}},{"attributes":{"ID":653020,"DIS_CODE":0,"TOWNNAME":"仁德區","LI":"一甲里","LIN":"13鄰","STREET":"中清路","SECT":" ","MAREA":" ","LANE":"２８１巷","ALLEY":" ","HOUSE_NO":"２號七樓之２","E_COORD97":173727.93886900001,"N_COORD97":2541845.9564100001,"ADDRESS":"中清路２８１巷２號七樓之２","OBJECTID":652993},"geometry":{"x":173727.93886900041,"y":2541845.9564150013}},{"attributes":{"ID":653021,"DIS_CODE":0,"TOWNNAME":"仁德區","LI":"一甲里","LIN":"13鄰","STREET":"中清路","SECT":" ","MAREA":" ","LANE":"２８１巷","ALLEY":" ","HOUSE_NO":"２號七樓之３","E_COORD97":173727.93886900001,"N_COORD97":2541845.9564100001,"ADDRESS":"中清路２８１巷２號七樓之３","OBJECTID":652994},"geometry":{"x":173727.93886900041,"y":2541845.9564150013}},{"attributes":{"ID":653022,"DIS_CODE":0,"TOWNNAME":"仁德區","LI":"一甲里","LIN":"13鄰","STREET":"中清路","SECT":" ","MAREA":" ","LANE":"２８１巷","ALLEY":" ","HOUSE_NO":"２號三樓","E_COORD97":173727.93886900001,"N_COORD97":2541845.9564100001,"ADDRESS":"中清路２８１巷２號三樓","OBJECTID":652995},"geometry":{"x":173727.93886900041,"y":2541845.9564150013}},{"attributes":{"ID":653023,"DIS_CODE":0,"TOWNNAME":"仁德區","LI":"一甲里","LIN":"13鄰","STREET":"中清路","SECT":" ","MAREA":" ","LANE":"２８１巷","ALLEY":" ","HOUSE_NO":"２號五樓之１","E_COORD97":173727.93886900001,"N_COORD97":2541845.9564100001,"ADDRESS":"中清路２８１巷２號五樓之１","OBJECTID":652996},"geometry":{"x":173727.93886900041,"y":2541845.9564150013}},{"attributes":{"ID":653024,"DIS_CODE":0,"TOWNNAME":"仁德區","LI":"一甲里","LIN":"13鄰","STREET":"中清路","SECT":" ","MAREA":" ","LANE":"２８１巷","ALLEY":" ","HOUSE_NO":"２號五樓之２","E_COORD97":173727.93886900001,"N_COORD97":2541845.9564100001,"ADDRESS":"中清路２８１巷２號五樓之２","OBJECTID":652997},"geometry":{"x":173727.93886900041,"y":2541845.9564150013}},{"attributes":{"ID":653025,"DIS_CODE":0,"TOWNNAME":"仁德區","LI":"一甲里","LIN":"13鄰","STREET":"中清路","SECT":" ","MAREA":" ","LANE":"２８１巷","ALLEY":" ","HOUSE_NO":"２號五樓之３","E_COORD97":173727.93886900001,"N_COORD97":2541845.9564100001,"ADDRESS":"中清路２８１巷２號五樓之３","OBJECTID":652998},"geometry":{"x":173727.93886900041,"y":2541845.9564150013}},{"attributes":{"ID":653026,"DIS_CODE":0,"TOWNNAME":"仁德區","LI":"一甲里","LIN":"13鄰","STREET":"中清路","SECT":" ","MAREA":" ","LANE":"２８１巷","ALLEY":" ","HOUSE_NO":"２號六樓之１","E_COORD97":173727.93886900001,"N_COORD97":2541845.9564100001,"ADDRESS":"中清路２８１巷２號六樓之１","OBJECTID":652999},"geometry":{"x":173727.93886900041,"y":2541845.9564150013}},{"attributes":{"ID":653027,"DIS_CODE":0,"TOWNNAME":"仁德區","LI":"一甲里","LIN":"13鄰","STREET":"中清路","SECT":" ","MAREA":" ","LANE":"２８１巷","ALLEY":" ","HOUSE_NO":"２號六樓之２","E_COORD97":173727.93886900001,"N_COORD97":2541845.9564100001,"ADDRESS":"中清路２８１巷２號六樓之２","OBJECTID":653000},"geometry":{"x":173727.93886900041,"y":2541845.9564150013}}]}