{"displayFieldName":"TOWNNAME","fieldAliases":{"ID":"ID","DIS_CODE":"DIS_CODE","TOWNNAME":"TOWNNAME","LI":"LI","LIN":"LIN","STREET":"STREET","SECT":"SECT","MAREA":"MAREA","LANE":"LANE","ALLEY":"ALLEY","HOUSE_NO":"HOUSE_NO","E_COORD97":"E_COORD97","N_COORD97":"N_COORD97","ADDRESS":"ADDRESS","OBJECTID":"OBJECTID"},"geometryType":"esriGeometryPoint","spatialReference":{"wkid":102443,"latestWkid":3826},"fields":[{"name":"ID","type":"esriFieldTypeDouble","alias":"ID"},{"name":"DIS_CODE","type":"esriFieldTypeInteger","alias":"DIS_CODE"},{"name":"TOWNNAME","type":"esriFieldTypeString","alias":"TOWNNAME","length":8},{"name":"LI","type":"esriFieldTypeString","alias":"LI","length":8},{"name":"LIN","type":"esriFieldTypeString","alias":"LIN","length":12},{"name":"STREET","type":"esriFieldTypeString","alias":"STREET","length":20},{"name":"SECT","type":"esriFieldTypeString","alias":"SECT","length":8},{"name":"MAREA","type":"esriFieldTypeString","alias":"MAREA","length":12},{"name":"LANE","type":"esriFieldTypeString","alias":"LANE","length":10},{"name":"ALLEY","type":"esriFieldTypeString","alias":"ALLEY","length":10},{"name":"HOUSE_NO","type":"esriFieldTypeString","alias":"HOUSE_NO","length":20},{"name":"E_COORD97","type":"esriFieldTypeDouble","alias":"E_COORD97"},{"name":"N_COORD97","type":"esriFieldTypeDouble","alias":"N_COORD97"},{"name":"ADDRESS","type":"esriFieldTypeString","alias":"ADDRESS","length":50},{"name":"OBJECTID","type":"esriFieldTypeOID","alias":"OBJECTID"}],"features":[{"attributes":{"ID":472826,"DIS_CODE":0,"TOWNNAME":"下營區","LI":"新興里","LIN":"18鄰","STREET":"新興街","SECT":" ","MAREA":" ","LANE":" ","ALLEY":" ","HOUSE_NO":"９８號","E_COORD97":175011.04999999999,"N_COORD97":2570550.8999999999,"ADDRESS":"新興街９８號","OBJECTID":472801},"geometry":{"x":175011.05000000075,"y":2570550.9000000004}},{"attributes":{"ID":472827,"DIS_CODE":0,"TOWNNAME":"佳里區","LI":"鎮山里","LIN":"18鄰","STREET":"祥和二街","SECT":" ","MAREA":" ","LANE":" ","ALLEY":" ","HOUSE_NO":"１８號","E_COORD97":166111.04000000001,"N_COORD97":2561252.9399999999,"ADDRESS":"祥和二街１８號","OBJECTID":472802},"geometry":{"x":166111.0400000019,"y":2561252.9399999995}},{"attributes":{"ID":472828,"DIS_CODE":0,"TOWNNAME":"佳里區","LI":"鎮山里","LIN":"18鄰","STREET":"祥和二街","SECT":" ","MAREA":" ","LANE":" ","ALLEY":" ","HOUSE_NO":"２３號","E_COORD97":166103.04000000001,"N_COORD97":2561207.0299999998,"ADDRESS":"祥和二街２３號","OBJECTID":472803},"geometry":{"x":166103.04000000097,"y":2561207.0300000012}},{"attributes":{"ID":472829,"DIS_CODE":0,"TOWNNAME":"佳里區","LI":"鎮山里","LIN":"18鄰","STREET":"祥和二街","SECT":" ","MAREA":" ","LANE":" ","ALLEY":" ","HOUSE_NO":"２５號","E_COORD97":166073.85000000001,"N_COORD97":2561198.96,"ADDRESS":"祥和二街２５號","OBJECTID":472804},"geometry":{"x":166073.84999999963,"y":2561198.9600000028}},{"attributes":{"ID":472830,"DIS_CODE":0,"TOWNNAME":"佳里區","LI":"鎮山里","LIN":"18鄰","STREET":"祥和二街","SECT":" ","MAREA":" ","LANE":" ","ALLEY":" ","HOUSE_NO":"２７號","E_COORD97":166061.39999999999,"N_COORD97":2561193.4900000002,"ADDRESS":"祥和二街２７號","OBJECTID":472805},"geometry":{"x":166061.39999999944,"y":2561193.4900000039}},{"attributes":{"ID":472831,"DIS_CODE":0,"TOWNNAME":"佳里區","LI":"鎮山里","LIN":"18鄰","STREET":"祥和二街","SECT":" ","MAREA":" ","LANE":" ","ALLEY":" ","HOUSE_NO":"３６號","E_COORD97":166022.26999999999,"N_COORD97":2561201.6200000001,"ADDRESS":"祥和二街３６號","OBJECTID":472806},"geometry":{"x":166022.26999999955,"y":2561201.6200000029}},{"attributes":{"ID":472832,"DIS_CODE":0,"TOWNNAME":"佳里區","LI":"鎮山里","LIN":"18鄰","STREET":"祥和二街","SECT":" ","MAREA":" ","LANE":" ","ALLEY":" ","HOUSE_NO":"３８號","E_COORD97":166017.35999999999,"N_COORD97":2561199.8199999998,"ADDRESS":"祥和二街３８號","OBJECTID":472807},"geometry":{"x":166017.36000000034,"y":2561199.8200000003}},{"attributes":{"ID":472833,"DIS_CODE":0,"TOWNNAME":"佳里區","LI":"鎮山里","LIN":"18鄰","STREET":"祥和二街","SECT":" ","MAREA":" ","LANE":" ","ALLEY":" ","HOUSE_NO":"４０號","E_COORD97":166011.48999999999,"N_COORD97":2561198.4700000002,"ADDRESS":"祥和二街４０號","OBJECTID":472808},"geometry":{"x":166011.49000000209,"y":2561198.4700000025}},{"attributes":{"ID":472834,"DIS_CODE":0,"TOWNNAME":"佳里區","LI":"鎮山里","LIN":"18鄰","STREET":"祥和二街","SECT":" ","MAREA":" ","LANE":" ","ALLEY":" ","HOUSE_NO":"４１號","E_COORD97":166040.48999999999,"N_COORD97":2561190.1499999999,"ADDRESS":"祥和二街４１號","OBJECTID":472809},"geometry":{"x":166040.49000000209,"y":2561190.1500000022}},{"attributes":{"ID":472835,"DIS_CODE":0,"TOWNNAME":"佳里區","LI":"鎮山里","LIN":"18鄰","STREET":"祥和二街","SECT":" ","MAREA":" ","LANE":" ","ALLEY":" ","HOUSE_NO":"４２號","E_COORD97":166005.98000000001,"N_COORD97":2561196.7400000002,"ADDRESS":"祥和二街４２號","OBJECTID":472810},"geometry":{"x":166005.98000000045,"y":2561196.7400000021}},{"attributes":{"ID":472836,"DIS_CODE":0,"TOWNNAME":"佳里區","LI":"鎮山里","LIN":"18鄰","STREET":"祥和二街","SECT":" ","MAREA":" ","LANE":" ","ALLEY":" ","HOUSE_NO":"４３號","E_COORD97":166036.66,"N_COORD97":2561188.8900000001,"ADDRESS":"祥和二街４３號","OBJECTID":472811},"geometry":{"x":166036.66000000015,"y":2561188.8900000025}},{"attributes":{"ID":472837,"DIS_CODE":0,"TOWNNAME":"佳里區","LI":"鎮山里","LIN":"18鄰","STREET":"祥和二街","SECT":" ","MAREA":" ","LANE":" ","ALLEY":" ","HOUSE_NO":"４５號","E_COORD97":166032.84,"N_COORD97":2561187.6299999999,"ADDRESS":"祥和二街４５號","OBJECTID":472812},"geometry":{"x":166032.84000000078,"y":2561187.6300000027}},{"attributes":{"ID":472838,"DIS_CODE":0,"TOWNNAME":"佳里區","LI":"鎮山里","LIN":"18鄰","STREET":"祥和二街","SECT":" ","MAREA":" ","LANE":" ","ALLEY":" ","HOUSE_NO":"４７號","E_COORD97":166029.01000000001,"N_COORD97":2561186.3599999999,"ADDRESS":"祥和二街４７號","OBJECTID":472813},"geometry":{"x":166029.00999999978,"y":2561186.3599999994}},{"attributes":{"ID":472839,"DIS_CODE":0,"TOWNNAME":"佳里區","LI":"鎮山里","LIN":"18鄰","STREET":"祥和二街","SECT":" ","MAREA":" ","LANE":" ","ALLEY":" ","HOUSE_NO":"４９號","E_COORD97":166025.17999999999,"N_COORD97":2561185.1000000001,"ADDRESS":"祥和二街４９號","OBJECTID":472814},"geometry":{"x":166025.18000000063,"y":2561185.0999999978}},{"attributes":{"ID":472840,"DIS_CODE":0,"TOWNNAME":"佳里區","LI":"鎮山里","LIN":"18鄰","STREET":"祥和二街","SECT":" ","MAREA":" ","LANE":" ","ALLEY":" ","HOUSE_NO":"５１號","E_COORD97":166021.35999999999,"N_COORD97":2561183.8399999999,"ADDRESS":"祥和二街５１號","OBJECTID":472815},"geometry":{"x":166021.36000000127,"y":2561183.8400000036}},{"attributes":{"ID":472841,"DIS_CODE":0,"TOWNNAME":"永康區","LI":"大灣里","LIN":"17鄰","STREET":"大灣路","SECT":" ","MAREA":" ","LANE":"３５６巷","ALLEY":" ","HOUSE_NO":"１０號","E_COORD97":174814.98999999999,"N_COORD97":2545133.3799999999,"ADDRESS":"大灣路３５６巷１０號","OBJECTID":472816},"geometry":{"x":174814.99000000115,"y":2545133.3800000008}},{"attributes":{"ID":472842,"DIS_CODE":0,"TOWNNAME":"佳里區","LI":"鎮山里","LIN":"18鄰","STREET":"祥和二街","SECT":" ","MAREA":" ","LANE":" ","ALLEY":" ","HOUSE_NO":"５３號","E_COORD97":166017.53,"N_COORD97":2561182.5800000001,"ADDRESS":"祥和二街５３號","OBJECTID":472817},"geometry":{"x":166017.53000000026,"y":2561182.5800000038}},{"attributes":{"ID":472843,"DIS_CODE":0,"TOWNNAME":"佳里區","LI":"鎮山里","LIN":"18鄰","STREET":"祥和二街","SECT":" ","MAREA":" ","LANE":" ","ALLEY":" ","HOUSE_NO":"５５號","E_COORD97":166013.70999999999,"N_COORD97":2561181.3199999998,"ADDRESS":"祥和二街５５號","OBJECTID":472818},"geometry":{"x":166013.71000000089,"y":2561181.320000004}},{"attributes":{"ID":472844,"DIS_CODE":0,"TOWNNAME":"佳里區","LI":"鎮山里","LIN":"18鄰","STREET":"祥和三街","SECT":" ","MAREA":" ","LANE":" ","ALLEY":" ","HOUSE_NO":"１１號","E_COORD97":166094.76999999999,"N_COORD97":2561298.9399999999,"ADDRESS":"祥和三街１１號","OBJECTID":472819},"geometry":{"x":166094.76999999955,"y":2561298.9400000013}},{"attributes":{"ID":472845,"DIS_CODE":0,"TOWNNAME":"佳里區","LI":"鎮山里","LIN":"18鄰","STREET":"祥和三街","SECT":" ","MAREA":" ","LANE":" ","ALLEY":" ","HOUSE_NO":"１２號","E_COORD97":166083.37,"N_COORD97":2561309.9399999999,"ADDRESS":"祥和三街１２號","OBJECTID":472820},"geometry":{"x":166083.36999999918,"y":2561309.9400000013}},{"attributes":{"ID":472846,"DIS_CODE":0,"TOWNNAME":"佳里區","LI":"鎮山里","LIN":"18鄰","STREET":"祥和三街","SECT":" ","MAREA":" ","LANE":" ","ALLEY":" ","HOUSE_NO":"１３號","E_COORD97":166090.82000000001,"N_COORD97":2561297.6299999999,"ADDRESS":"祥和三街１３號","OBJECTID":472821},"geometry":{"x":166090.82000000216,"y":2561297.6300000008}},{"attributes":{"ID":472847,"DIS_CODE":0,"TOWNNAME":"佳里區","LI":"鎮山里","LIN":"18鄰","STREET":"祥和三街","SECT":" ","MAREA":" ","LANE":" ","ALLEY":" ","HOUSE_NO":"１５號","E_COORD97":166086.87,"N_COORD97":2561296.3300000001,"ADDRESS":"祥和三街１５號","OBJECTID":472822},"geometry":{"x":166086.87000000197,"y":2561296.3300000038}},{"attributes":{"ID":472848,"DIS_CODE":0,"TOWNNAME":"佳里區","LI":"鎮山里","LIN":"18鄰","STREET":"祥和三街","SECT":" ","MAREA":" ","LANE":" ","ALLEY":" ","HOUSE_NO":"１７號","E_COORD97":166082.92999999999,"N_COORD97":2561295.02,"ADDRESS":"祥和三街１７號","OBJECTID":472823},"geometry":{"x":166082.93000000063,"y":2561295.0200000014}},{"attributes":{"ID":472849,"DIS_CODE":0,"TOWNNAME":"佳里區","LI":"鎮山里","LIN":"18鄰","STREET":"祥和三街","SECT":" ","MAREA":" ","LANE":" ","ALLEY":" ","HOUSE_NO":"１號","E_COORD97":166114.51000000001,"N_COORD97":2561305.4700000002,"ADDRESS":"祥和三街１號","OBJECTID":472824},"geometry":{"x":166114.51000000071,"y":2561305.4700000007}},{"attributes":{"ID":472850,"DIS_CODE":0,"TOWNNAME":"佳里區","LI":"鎮山里","LIN":"18鄰","STREET":"祥和三街","SECT":" ","MAREA":" ","LANE":" ","ALLEY":" ","HOUSE_NO":"５號","E_COORD97":166106.60999999999,"N_COORD97":2561302.8599999999,"ADDRESS":"祥和三街５號","OBJECTID":472825},"geometry":{"x":166106.61000000127,"y":2561302.8600000013}},{"attributes":{"ID":472851,"DIS_CODE":0,"TOWNNAME":"佳里區","LI":"鎮山里","LIN":"18鄰","STREET":"祥和三街","SECT":" ","MAREA":" ","LANE":" ","ALLEY":" ","HOUSE_NO":"７號","E_COORD97":166102.67000000001,"N_COORD97":2561301.5499999998,"ADDRESS":"祥和三街７號","OBJECTID":472826},"geometry":{"x":166102.66999999993,"y":2561301.5500000007}},{"attributes":{"ID":472852,"DIS_CODE":0,"TOWNNAME":"佳里區","LI":"鎮山里","LIN":"18鄰","STREET":"祥和三街","SECT":" ","MAREA":" ","LANE":" ","ALLEY":" ","HOUSE_NO":"９號","E_COORD97":166098.72,"N_COORD97":2561300.2400000002,"ADDRESS":"祥和三街９號","OBJECTID":472827},"geometry":{"x":166098.71999999974,"y":2561300.2400000039}},{"attributes":{"ID":472853,"DIS_CODE":0,"TOWNNAME":"佳里區","LI":"鎮山里","LIN":"18鄰","STREET":"勝利路","SECT":" ","MAREA":" ","LANE":" ","ALLEY":" ","HOUSE_NO":"１０１號","E_COORD97":165964.78,"N_COORD97":2561179.73,"ADDRESS":"勝利路１０１號","OBJECTID":472828},"geometry":{"x":165964.78000000026,"y":2561179.7300000023}},{"attributes":{"ID":472854,"DIS_CODE":0,"TOWNNAME":"佳里區","LI":"鎮山里","LIN":"18鄰","STREET":"勝利路","SECT":" ","MAREA":" ","LANE":" ","ALLEY":" ","HOUSE_NO":"１０３號","E_COORD97":165977.56,"N_COORD97":2561159.1200000001,"ADDRESS":"勝利路１０３號","OBJECTID":472829},"geometry":{"x":165977.55999999959,"y":2561159.120000001}},{"attributes":{"ID":472855,"DIS_CODE":0,"TOWNNAME":"佳里區","LI":"鎮山里","LIN":"18鄰","STREET":"勝利路","SECT":" ","MAREA":" ","LANE":" ","ALLEY":" ","HOUSE_NO":"１０５號","E_COORD97":165980.98999999999,"N_COORD97":2561148.8100000001,"ADDRESS":"勝利路１０５號","OBJECTID":472830},"geometry":{"x":165980.99000000209,"y":2561148.8100000024}},{"attributes":{"ID":472856,"DIS_CODE":0,"TOWNNAME":"佳里區","LI":"鎮山里","LIN":"18鄰","STREET":"勝利路","SECT":" ","MAREA":" ","LANE":" ","ALLEY":" ","HOUSE_NO":"１０９號","E_COORD97":165979.57999999999,"N_COORD97":2561193.8799999999,"ADDRESS":"勝利路１０９號","OBJECTID":472831},"geometry":{"x":165979.58000000007,"y":2561193.8800000008}},{"attributes":{"ID":472857,"DIS_CODE":0,"TOWNNAME":"佳里區","LI":"鎮山里","LIN":"18鄰","STREET":"勝利路","SECT":" ","MAREA":" ","LANE":" ","ALLEY":" ","HOUSE_NO":"１１１號","E_COORD97":165981.88,"N_COORD97":2561189.6699999999,"ADDRESS":"勝利路１１１號","OBJECTID":472832},"geometry":{"x":165981.88000000082,"y":2561189.6700000018}},{"attributes":{"ID":472858,"DIS_CODE":0,"TOWNNAME":"佳里區","LI":"鎮山里","LIN":"18鄰","STREET":"勝利路","SECT":" ","MAREA":" ","LANE":" ","ALLEY":" ","HOUSE_NO":"１１３號","E_COORD97":165984.22,"N_COORD97":2561185.3799999999,"ADDRESS":"勝利路１１３號","OBJECTID":472833},"geometry":{"x":165984.22000000067,"y":2561185.379999999}},{"attributes":{"ID":472859,"DIS_CODE":0,"TOWNNAME":"佳里區","LI":"鎮山里","LIN":"18鄰","STREET":"勝利路","SECT":" ","MAREA":" ","LANE":" ","ALLEY":" ","HOUSE_NO":"１１７號","E_COORD97":165993.04999999999,"N_COORD97":2561172.9300000002,"ADDRESS":"勝利路１１７號","OBJECTID":472834},"geometry":{"x":165993.04999999981,"y":2561172.9300000034}},{"attributes":{"ID":472860,"DIS_CODE":0,"TOWNNAME":"佳里區","LI":"鎮山里","LIN":"18鄰","STREET":"勝利路","SECT":" ","MAREA":" ","LANE":" ","ALLEY":" ","HOUSE_NO":"１１９號","E_COORD97":165994.72,"N_COORD97":2561167.46,"ADDRESS":"勝利路１１９號","OBJECTID":472835},"geometry":{"x":165994.72000000067,"y":2561167.4600000046}},{"attributes":{"ID":472861,"DIS_CODE":0,"TOWNNAME":"佳里區","LI":"鎮山里","LIN":"18鄰","STREET":"勝利路","SECT":" ","MAREA":" ","LANE":" ","ALLEY":" ","HOUSE_NO":"１２１號","E_COORD97":165996.04000000001,"N_COORD97":2561163.3900000001,"ADDRESS":"勝利路１２１號","OBJECTID":472836},"geometry":{"x":165996.04000000097,"y":2561163.3900000006}},{"attributes":{"ID":472862,"DIS_CODE":0,"TOWNNAME":"佳里區","LI":"鎮山里","LIN":"18鄰","STREET":"勝利路","SECT":" ","MAREA":" ","LANE":" ","ALLEY":" ","HOUSE_NO":"１２３號","E_COORD97":165997.64000000001,"N_COORD97":2561159,"ADDRESS":"勝利路１２３號","OBJECTID":472837},"geometry":{"x":165997.63999999966,"y":2561158.9999999981}},{"attributes":{"ID":472863,"DIS_CODE":0,"TOWNNAME":"佳里區","LI":"鎮山里","LIN":"18鄰","STREET":"勝利路","SECT":" ","MAREA":" ","LANE":" ","ALLEY":" ","HOUSE_NO":"１２５號","E_COORD97":165998.66,"N_COORD97":2561154.9199999999,"ADDRESS":"勝利路１２５號","OBJECTID":472838},"geometry":{"x":165998.66000000108,"y":2561154.9199999999}},{"attributes":{"ID":472864,"DIS_CODE":0,"TOWNNAME":"佳里區","LI":"鎮山里","LIN":"18鄰","STREET":"勝利路","SECT":" ","MAREA":" ","LANE":" ","ALLEY":" ","HOUSE_NO":"１２７號","E_COORD97":166000.17000000001,"N_COORD97":2561150.9100000001,"ADDRESS":"勝利路１２７號","OBJECTID":472839},"geometry":{"x":166000.17000000086,"y":2561150.910000002}},{"attributes":{"ID":472865,"DIS_CODE":0,"TOWNNAME":"佳里區","LI":"鎮山里","LIN":"18鄰","STREET":"勝利路","SECT":" ","MAREA":" ","LANE":" ","ALLEY":" ","HOUSE_NO":"１２９號","E_COORD97":166001.59,"N_COORD97":2561146.8999999999,"ADDRESS":"勝利路１２９號","OBJECTID":472840},"geometry":{"x":166001.58999999985,"y":2561146.9000000041}},{"attributes":{"ID":472866,"DIS_CODE":0,"TOWNNAME":"佳里區","LI":"鎮山里","LIN":"18鄰","STREET":"勝利路","SECT":" ","MAREA":" ","LANE":" ","ALLEY":" ","HOUSE_NO":"１３１號","E_COORD97":166003.01999999999,"N_COORD97":2561142.8999999999,"ADDRESS":"勝利路１３１號","OBJECTID":472841},"geometry":{"x":166003.01999999955,"y":2561142.9000000004}},{"attributes":{"ID":472867,"DIS_CODE":0,"TOWNNAME":"佳里區","LI":"鎮山里","LIN":"18鄰","STREET":"勝利路","SECT":" ","MAREA":" ","LANE":" ","ALLEY":" ","HOUSE_NO":"１３５號","E_COORD97":166005.88,"N_COORD97":2561132.8399999999,"ADDRESS":"勝利路１３５號","OBJECTID":472842},"geometry":{"x":166005.88000000082,"y":2561132.839999998}},{"attributes":{"ID":472868,"DIS_CODE":0,"TOWNNAME":"佳里區","LI":"鎮山里","LIN":"18鄰","STREET":"勝利路","SECT":" ","MAREA":" ","LANE":" ","ALLEY":" ","HOUSE_NO":"１３７號","E_COORD97":166007.62,"N_COORD97":2561129.5,"ADDRESS":"勝利路１３７號","OBJECTID":472843},"geometry":{"x":166007.62000000104,"y":2561129.5000000019}},{"attributes":{"ID":472869,"DIS_CODE":0,"TOWNNAME":"佳里區","LI":"鎮山里","LIN":"18鄰","STREET":"勝利路","SECT":" ","MAREA":" ","LANE":" ","ALLEY":" ","HOUSE_NO":"１３９號","E_COORD97":166008.75,"N_COORD97":2561125.3399999999,"ADDRESS":"勝利路１３９號","OBJECTID":472844},"geometry":{"x":166008.75,"y":2561125.3399999999}},{"attributes":{"ID":472870,"DIS_CODE":0,"TOWNNAME":"佳里區","LI":"鎮山里","LIN":"18鄰","STREET":"勝利路","SECT":" ","MAREA":" ","LANE":" ","ALLEY":" ","HOUSE_NO":"１４１號","E_COORD97":166009.95999999999,"N_COORD97":2561120.9900000002,"ADDRESS":"勝利路１４１號","OBJECTID":472845},"geometry":{"x":166009.96000000089,"y":2561120.9900000002}},{"attributes":{"ID":472871,"DIS_CODE":0,"TOWNNAME":"佳里區","LI":"鎮山里","LIN":"18鄰","STREET":"勝利路","SECT":" ","MAREA":" ","LANE":" ","ALLEY":" ","HOUSE_NO":"１４３號","E_COORD97":166011.03,"N_COORD97":2561116.8100000001,"ADDRESS":"勝利路１４３號","OBJECTID":472846},"geometry":{"x":166011.03000000026,"y":2561116.8099999987}},{"attributes":{"ID":472872,"DIS_CODE":0,"TOWNNAME":"佳里區","LI":"鎮山里","LIN":"18鄰","STREET":"勝利路","SECT":" ","MAREA":" ","LANE":" ","ALLEY":" ","HOUSE_NO":"１５３號","E_COORD97":166031.01999999999,"N_COORD97":2561088.8199999998,"ADDRESS":"勝利路１５３號","OBJECTID":472847},"geometry":{"x":166031.02000000142,"y":2561088.8200000003}},{"attributes":{"ID":472873,"DIS_CODE":0,"TOWNNAME":"佳里區","LI":"鎮山里","LIN":"18鄰","STREET":"勝利路","SECT":" ","MAREA":" ","LANE":" ","ALLEY":" ","HOUSE_NO":"１５５號","E_COORD97":166022.48999999999,"N_COORD97":2561077.71,"ADDRESS":"勝利路１５５號","OBJECTID":472848},"geometry":{"x":166022.49000000115,"y":2561077.7100000028}},{"attributes":{"ID":472874,"DIS_CODE":0,"TOWNNAME":"佳里區","LI":"鎮山里","LIN":"18鄰","STREET":"勝利路","SECT":" ","MAREA":" ","LANE":" ","ALLEY":" ","HOUSE_NO":"１５７號","E_COORD97":166023.60000000001,"N_COORD97":2561072.46,"ADDRESS":"勝利路１５７號","OBJECTID":472849},"geometry":{"x":166023.59999999963,"y":2561072.4600000046}},{"attributes":{"ID":472875,"DIS_CODE":0,"TOWNNAME":"佳里區","LI":"鎮山里","LIN":"18鄰","STREET":"勝利路","SECT":" ","MAREA":" ","LANE":" ","ALLEY":" ","HOUSE_NO":"９１號","E_COORD97":165971.25,"N_COORD97":2561215.5099999998,"ADDRESS":"勝利路９１號","OBJECTID":472850},"geometry":{"x":165971.25000000093,"y":2561215.5099999998}},{"attributes":{"ID":472876,"DIS_CODE":0,"TOWNNAME":"佳里區","LI":"建南里","LIN":"18鄰","STREET":"博愛街","SECT":" ","MAREA":" ","LANE":" ","ALLEY":" ","HOUSE_NO":"１４６號","E_COORD97":165721.54000000001,"N_COORD97":2561987.02,"ADDRESS":"博愛街１４６號","OBJECTID":472851},"geometry":{"x":165721.54000000097,"y":2561987.0200000014}},{"attributes":{"ID":472877,"DIS_CODE":0,"TOWNNAME":"佳里區","LI":"建南里","LIN":"18鄰","STREET":"博愛街","SECT":" ","MAREA":" ","LANE":" ","ALLEY":" ","HOUSE_NO":"１４７號","E_COORD97":165698.82999999999,"N_COORD97":2561965.8700000001,"ADDRESS":"博愛街１４７號","OBJECTID":472852},"geometry":{"x":165698.83000000194,"y":2561965.8700000029}},{"attributes":{"ID":472878,"DIS_CODE":0,"TOWNNAME":"學甲區","LI":"慈福里","LIN":"18鄰","STREET":"中正路","SECT":" ","MAREA":" ","LANE":" ","ALLEY":" ","HOUSE_NO":"２５０號之１","E_COORD97":166110.34,"N_COORD97":2570383.2000000002,"ADDRESS":"中正路２５０號之１","OBJECTID":472853},"geometry":{"x":166110.33999999985,"y":2570383.2000000011}},{"attributes":{"ID":472879,"DIS_CODE":0,"TOWNNAME":"學甲區","LI":"慈福里","LIN":"18鄰","STREET":"中正路","SECT":" ","MAREA":" ","LANE":" ","ALLEY":" ","HOUSE_NO":"２６０號","E_COORD97":166112.57000000001,"N_COORD97":2570413.02,"ADDRESS":"中正路２６０號","OBJECTID":472854},"geometry":{"x":166112.5700000003,"y":2570413.0199999996}},{"attributes":{"ID":472880,"DIS_CODE":0,"TOWNNAME":"新營區","LI":"忠政里","LIN":"13鄰","STREET":"中正路","SECT":" ","MAREA":" ","LANE":"７７巷","ALLEY":" ","HOUSE_NO":"２號","E_COORD97":180038.29999999999,"N_COORD97":2579601.3399999999,"ADDRESS":"中正路７７巷２號","OBJECTID":472855},"geometry":{"x":180038.29999999888,"y":2579601.3400000017}},{"attributes":{"ID":472881,"DIS_CODE":0,"TOWNNAME":"學甲區","LI":"慈福里","LIN":"18鄰","STREET":"中正路","SECT":" ","MAREA":" ","LANE":" ","ALLEY":" ","HOUSE_NO":"２７０號","E_COORD97":166114.82999999999,"N_COORD97":2570427.9199999999,"ADDRESS":"中正路２７０號","OBJECTID":472856},"geometry":{"x":166114.83000000101,"y":2570427.9199999999}},{"attributes":{"ID":472882,"DIS_CODE":0,"TOWNNAME":"學甲區","LI":"慈福里","LIN":"18鄰","STREET":"中正路","SECT":" ","MAREA":" ","LANE":" ","ALLEY":" ","HOUSE_NO":"２７２號","E_COORD97":166115.20000000001,"N_COORD97":2570431.5800000001,"ADDRESS":"中正路２７２號","OBJECTID":472857},"geometry":{"x":166115.20000000205,"y":2570431.5800000038}},{"attributes":{"ID":472883,"DIS_CODE":0,"TOWNNAME":"學甲區","LI":"明宜里","LIN":"18鄰","STREET":"天水路","SECT":" ","MAREA":" ","LANE":" ","ALLEY":" ","HOUSE_NO":"２４號之１","E_COORD97":166042.97,"N_COORD97":2570701.8900000001,"ADDRESS":"天水路２４號之１","OBJECTID":472858},"geometry":{"x":166042.96999999974,"y":2570701.8900000025}},{"attributes":{"ID":472884,"DIS_CODE":0,"TOWNNAME":"學甲區","LI":"明宜里","LIN":"18鄰","STREET":"天水路","SECT":" ","MAREA":" ","LANE":" ","ALLEY":" ","HOUSE_NO":"２４號之２","E_COORD97":166045.67999999999,"N_COORD97":2570706.1499999999,"ADDRESS":"天水路２４號之２","OBJECTID":472859},"geometry":{"x":166045.68000000063,"y":2570706.1500000041}},{"attributes":{"ID":472885,"DIS_CODE":0,"TOWNNAME":"學甲區","LI":"明宜里","LIN":"18鄰","STREET":"天水路","SECT":" ","MAREA":" ","LANE":" ","ALLEY":" ","HOUSE_NO":"２４號之３","E_COORD97":166049.23999999999,"N_COORD97":2570709.77,"ADDRESS":"天水路２４號之３","OBJECTID":472860},"geometry":{"x":166049.24000000115,"y":2570709.7699999996}},{"attributes":{"ID":472886,"DIS_CODE":0,"TOWNNAME":"學甲區","LI":"明宜里","LIN":"18鄰","STREET":"天水路","SECT":" ","MAREA":" ","LANE":" ","ALLEY":" ","HOUSE_NO":"２６號之１","E_COORD97":166038.47,"N_COORD97":2570678.8999999999,"ADDRESS":"天水路２６號之１","OBJECTID":472861},"geometry":{"x":166038.47000000067,"y":2570678.9000000004}},{"attributes":{"ID":472887,"DIS_CODE":0,"TOWNNAME":"學甲區","LI":"明宜里","LIN":"18鄰","STREET":"天水路","SECT":" ","MAREA":" ","LANE":" ","ALLEY":" ","HOUSE_NO":"２６號之２","E_COORD97":166034.29999999999,"N_COORD97":2570679.8599999999,"ADDRESS":"天水路２６號之２","OBJECTID":472862},"geometry":{"x":166034.29999999981,"y":2570679.8600000031}},{"attributes":{"ID":472888,"DIS_CODE":0,"TOWNNAME":"學甲區","LI":"明宜里","LIN":"18鄰","STREET":"天水路","SECT":" ","MAREA":" ","LANE":" ","ALLEY":" ","HOUSE_NO":"２６號之３","E_COORD97":166029.70000000001,"N_COORD97":2570681.1699999999,"ADDRESS":"天水路２６號之３","OBJECTID":472863},"geometry":{"x":166029.70000000019,"y":2570681.1699999999}},{"attributes":{"ID":472889,"DIS_CODE":0,"TOWNNAME":"學甲區","LI":"明宜里","LIN":"18鄰","STREET":"天水路","SECT":" ","MAREA":" ","LANE":" ","ALLEY":" ","HOUSE_NO":"２６號之４","E_COORD97":166025.82999999999,"N_COORD97":2570681.7400000002,"ADDRESS":"天水路２６號之４","OBJECTID":472864},"geometry":{"x":166025.83000000007,"y":2570681.7400000021}},{"attributes":{"ID":472890,"DIS_CODE":0,"TOWNNAME":"學甲區","LI":"明宜里","LIN":"18鄰","STREET":"天水路","SECT":" ","MAREA":" ","LANE":" ","ALLEY":" ","HOUSE_NO":"２６號之５","E_COORD97":166020.87,"N_COORD97":2570682.4100000001,"ADDRESS":"天水路２６號之５","OBJECTID":472865},"geometry":{"x":166020.87000000104,"y":2570682.4100000001}},{"attributes":{"ID":472891,"DIS_CODE":0,"TOWNNAME":"學甲區","LI":"明宜里","LIN":"18鄰","STREET":"天水路","SECT":" ","MAREA":" ","LANE":" ","ALLEY":" ","HOUSE_NO":"２６號","E_COORD97":166042.82000000001,"N_COORD97":2570678.3900000001,"ADDRESS":"天水路２６號","OBJECTID":472866},"geometry":{"x":166042.8200000003,"y":2570678.3900000025}},{"attributes":{"ID":472892,"DIS_CODE":0,"TOWNNAME":"學甲區","LI":"明宜里","LIN":"18鄰","STREET":"天水路","SECT":" ","MAREA":" ","LANE":" ","ALLEY":" ","HOUSE_NO":"３０號","E_COORD97":165948.26999999999,"N_COORD97":2570731.1499999999,"ADDRESS":"天水路３０號","OBJECTID":472867},"geometry":{"x":165948.27000000048,"y":2570731.1500000022}},{"attributes":{"ID":472893,"DIS_CODE":0,"TOWNNAME":"歸仁區","LI":"看西里","LIN":"18鄰","STREET":"成功五街","SECT":" ","MAREA":" ","LANE":" ","ALLEY":" ","HOUSE_NO":"６０號","E_COORD97":178361.85999999999,"N_COORD97":2539900.3599999999,"ADDRESS":"成功五街６０號","OBJECTID":472868},"geometry":{"x":178361.86000000034,"y":2539900.3599999994}},{"attributes":{"ID":472894,"DIS_CODE":0,"TOWNNAME":"歸仁區","LI":"崙頂里","LIN":"18鄰","STREET":"大成一街","SECT":" ","MAREA":" ","LANE":" ","ALLEY":" ","HOUSE_NO":"７５號","E_COORD97":177890.67999999999,"N_COORD97":2540226.9100000001,"ADDRESS":"大成一街７５號","OBJECTID":472869},"geometry":{"x":177890.6799999997,"y":2540226.9100000001}},{"attributes":{"ID":472895,"DIS_CODE":0,"TOWNNAME":"北區","LI":"賢北里","LIN":"18鄰","STREET":"和緯路","SECT":"五段","MAREA":" ","LANE":" ","ALLEY":" ","HOUSE_NO":"２３６號","E_COORD97":166057.97,"N_COORD97":2545096.6699999999,"ADDRESS":"和緯路五段２３６號","OBJECTID":472870},"geometry":{"x":166057.96999999974,"y":2545096.6699999999}},{"attributes":{"ID":472896,"DIS_CODE":0,"TOWNNAME":"北區","LI":"賢北里","LIN":"18鄰","STREET":"和緯路","SECT":"五段","MAREA":" ","LANE":" ","ALLEY":" ","HOUSE_NO":"２３８號","E_COORD97":166052.67000000001,"N_COORD97":2545097.3999999999,"ADDRESS":"和緯路五段２３８號","OBJECTID":472871},"geometry":{"x":166052.67000000086,"y":2545097.4000000022}},{"attributes":{"ID":472897,"DIS_CODE":0,"TOWNNAME":"北區","LI":"賢北里","LIN":"18鄰","STREET":"和緯路","SECT":"五段","MAREA":" ","LANE":" ","ALLEY":" ","HOUSE_NO":"２４０號","E_COORD97":166047.73999999999,"N_COORD97":2545097.5800000001,"ADDRESS":"和緯路五段２４０號","OBJECTID":472872},"geometry":{"x":166047.74000000115,"y":2545097.5800000001}},{"attributes":{"ID":472898,"DIS_CODE":0,"TOWNNAME":"北區","LI":"賢北里","LIN":"18鄰","STREET":"和緯路","SECT":"五段","MAREA":" ","LANE":" ","ALLEY":" ","HOUSE_NO":"２４２號","E_COORD97":166044.07999999999,"N_COORD97":2545097.3999999999,"ADDRESS":"和緯路五段２４２號","OBJECTID":472873},"geometry":{"x":166044.08000000007,"y":2545097.4000000022}},{"attributes":{"ID":472899,"DIS_CODE":0,"TOWNNAME":"北區","LI":"賢北里","LIN":"18鄰","STREET":"和緯路","SECT":"五段","MAREA":" ","LANE":" ","ALLEY":" ","HOUSE_NO":"２４４號","E_COORD97":166038.42000000001,"N_COORD97":2545097.9500000002,"ADDRESS":"和緯路五段２４４號","OBJECTID":472874},"geometry":{"x":166038.41999999993,"y":2545097.9499999993}},{"attributes":{"ID":472900,"DIS_CODE":0,"TOWNNAME":"北區","LI":"賢北里","LIN":"18鄰","STREET":"和緯路","SECT":"五段","MAREA":" ","LANE":" ","ALLEY":" ","HOUSE_NO":"２４６號","E_COORD97":166033.66,"N_COORD97":2545098.3100000001,"ADDRESS":"和緯路五段２４６號","OBJECTID":472875},"geometry":{"x":166033.66000000015,"y":2545098.3100000024}},{"attributes":{"ID":472901,"DIS_CODE":0,"TOWNNAME":"北區","LI":"賢北里","LIN":"18鄰","STREET":"和緯路","SECT":"五段","MAREA":" ","LANE":" ","ALLEY":" ","HOUSE_NO":"２４８號","E_COORD97":166029.82999999999,"N_COORD97":2545098.6800000002,"ADDRESS":"和緯路五段２４８號","OBJECTID":472876},"geometry":{"x":166029.83000000101,"y":2545098.6800000016}},{"attributes":{"ID":472902,"DIS_CODE":0,"TOWNNAME":"北區","LI":"賢北里","LIN":"18鄰","STREET":"和緯路","SECT":"五段","MAREA":" ","LANE":" ","ALLEY":" ","HOUSE_NO":"２５０號","E_COORD97":166024.64999999999,"N_COORD97":2545099.8500000001,"ADDRESS":"和緯路五段２５０號","OBJECTID":472877},"geometry":{"x":166024.6500000013,"y":2545099.8500000034}},{"attributes":{"ID":472903,"DIS_CODE":0,"TOWNNAME":"北區","LI":"賢北里","LIN":"18鄰","STREET":"和緯路","SECT":"五段","MAREA":" ","LANE":" ","ALLEY":" ","HOUSE_NO":"２５２號","E_COORD97":166020.20000000001,"N_COORD97":2545098.6899999999,"ADDRESS":"和緯路五段２５２號","OBJECTID":472878},"geometry":{"x":166020.20000000205,"y":2545098.6900000013}},{"attributes":{"ID":472904,"DIS_CODE":0,"TOWNNAME":"北區","LI":"賢北里","LIN":"18鄰","STREET":"和緯路","SECT":"五段","MAREA":" ","LANE":" ","ALLEY":" ","HOUSE_NO":"２５４號","E_COORD97":166016.32999999999,"N_COORD97":2545100.4300000002,"ADDRESS":"和緯路五段２５４號","OBJECTID":472879},"geometry":{"x":166016.33000000101,"y":2545100.4300000016}},{"attributes":{"ID":472905,"DIS_CODE":0,"TOWNNAME":"北區","LI":"賢北里","LIN":"18鄰","STREET":"和緯路","SECT":"五段","MAREA":" ","LANE":" ","ALLEY":" ","HOUSE_NO":"２５６號","E_COORD97":166011.29999999999,"N_COORD97":2545100.4300000002,"ADDRESS":"和緯路五段２５６號","OBJECTID":472880},"geometry":{"x":166011.30000000075,"y":2545100.4300000016}},{"attributes":{"ID":472906,"DIS_CODE":0,"TOWNNAME":"北區","LI":"賢北里","LIN":"18鄰","STREET":"和緯路","SECT":"五段","MAREA":" ","LANE":" ","ALLEY":" ","HOUSE_NO":"２５８號","E_COORD97":166006.45999999999,"N_COORD97":2545100.6200000001,"ADDRESS":"和緯路五段２５８號","OBJECTID":472881},"geometry":{"x":166006.46000000183,"y":2545100.6200000029}},{"attributes":{"ID":472907,"DIS_CODE":0,"TOWNNAME":"北區","LI":"賢北里","LIN":"18鄰","STREET":"和緯路","SECT":"五段","MAREA":" ","LANE":" ","ALLEY":" ","HOUSE_NO":"２６０號","E_COORD97":166001.42999999999,"N_COORD97":2545101.0099999998,"ADDRESS":"和緯路五段２６０號","OBJECTID":472882},"geometry":{"x":166001.43000000063,"y":2545101.0099999998}},{"attributes":{"ID":472908,"DIS_CODE":0,"TOWNNAME":"北區","LI":"賢北里","LIN":"18鄰","STREET":"和緯路","SECT":"五段","MAREA":" ","LANE":" ","ALLEY":" ","HOUSE_NO":"２６２號","E_COORD97":165997.35999999999,"N_COORD97":2545101.0099999998,"ADDRESS":"和緯路五段２６２號","OBJECTID":472883},"geometry":{"x":165997.3600000022,"y":2545101.0099999998}},{"attributes":{"ID":472909,"DIS_CODE":0,"TOWNNAME":"北區","LI":"賢北里","LIN":"18鄰","STREET":"和緯路","SECT":"五段","MAREA":" ","LANE":" ","ALLEY":" ","HOUSE_NO":"２６４號","E_COORD97":165992.32999999999,"N_COORD97":2545101.3999999999,"ADDRESS":"和緯路五段２６４號","OBJECTID":472884},"geometry":{"x":165992.33000000101,"y":2545101.4000000022}},{"attributes":{"ID":472910,"DIS_CODE":0,"TOWNNAME":"北區","LI":"賢北里","LIN":"18鄰","STREET":"和緯路","SECT":"五段","MAREA":" ","LANE":" ","ALLEY":" ","HOUSE_NO":"２６６號","E_COORD97":165988.45999999999,"N_COORD97":2545102.1699999999,"ADDRESS":"和緯路五段２６６號","OBJECTID":472885},"geometry":{"x":165988.46000000089,"y":2545102.1700000018}},{"attributes":{"ID":472911,"DIS_CODE":0,"TOWNNAME":"北區","LI":"賢北里","LIN":"18鄰","STREET":"和緯路","SECT":"五段","MAREA":" ","LANE":" ","ALLEY":" ","HOUSE_NO":"２６８號","E_COORD97":165983.42999999999,"N_COORD97":2545102.3599999999,"ADDRESS":"和緯路五段２６８號","OBJECTID":472886},"geometry":{"x":165983.43000000063,"y":2545102.3599999994}},{"attributes":{"ID":472912,"DIS_CODE":0,"TOWNNAME":"北區","LI":"賢北里","LIN":"18鄰","STREET":"和緯路","SECT":"五段","MAREA":" ","LANE":" ","ALLEY":" ","HOUSE_NO":"２７０號","E_COORD97":165977.42999999999,"N_COORD97":2545102.3599999999,"ADDRESS":"和緯路五段２７０號","OBJECTID":472887},"geometry":{"x":165977.42999999877,"y":2545102.3599999994}},{"attributes":{"ID":472913,"DIS_CODE":0,"TOWNNAME":"北區","LI":"賢北里","LIN":"18鄰","STREET":"和緯路","SECT":"五段","MAREA":" ","LANE":" ","ALLEY":" ","HOUSE_NO":"２７２號","E_COORD97":165974.14000000001,"N_COORD97":2545102.3599999999,"ADDRESS":"和緯路五段２７２號","OBJECTID":472888},"geometry":{"x":165974.13999999966,"y":2545102.3599999994}},{"attributes":{"ID":472914,"DIS_CODE":0,"TOWNNAME":"安平區","LI":"國平里","LIN":"18鄰","STREET":"健康三街","SECT":" ","MAREA":" ","LANE":" ","ALLEY":" ","HOUSE_NO":"２４０號","E_COORD97":164808.42999999999,"N_COORD97":2543523.7000000002,"ADDRESS":"健康三街２４０號","OBJECTID":472889},"geometry":{"x":164808.43000000063,"y":2543523.700000003}},{"attributes":{"ID":472915,"DIS_CODE":0,"TOWNNAME":"安平區","LI":"國平里","LIN":"18鄰","STREET":"育平五街","SECT":" ","MAREA":" ","LANE":" ","ALLEY":" ","HOUSE_NO":"２６號","E_COORD97":164818.54000000001,"N_COORD97":2543495.9100000001,"ADDRESS":"育平五街２６號","OBJECTID":472890},"geometry":{"x":164818.54000000004,"y":2543495.9099999983}},{"attributes":{"ID":472916,"DIS_CODE":0,"TOWNNAME":"安平區","LI":"國平里","LIN":"18鄰","STREET":"永華路","SECT":"二段","MAREA":" ","LANE":" ","ALLEY":" ","HOUSE_NO":"８０３號","E_COORD97":164841.60000000001,"N_COORD97":2543538.3399999999,"ADDRESS":"永華路二段８０３號","OBJECTID":472891},"geometry":{"x":164841.59999999963,"y":2543538.3400000017}},{"attributes":{"ID":472917,"DIS_CODE":0,"TOWNNAME":"安平區","LI":"怡平里","LIN":"18鄰","STREET":"永華六街","SECT":" ","MAREA":" ","LANE":" ","ALLEY":" ","HOUSE_NO":"１５２之１號","E_COORD97":165644.07000000001,"N_COORD97":2543912.5699999998,"ADDRESS":"永華六街１５２之１號","OBJECTID":472892},"geometry":{"x":165644.07000000123,"y":2543912.5700000022}},{"attributes":{"ID":472918,"DIS_CODE":0,"TOWNNAME":"安平區","LI":"怡平里","LIN":"18鄰","STREET":"永華六街","SECT":" ","MAREA":" ","LANE":" ","ALLEY":" ","HOUSE_NO":"１５２之２號","E_COORD97":165645.53,"N_COORD97":2543918.3900000001,"ADDRESS":"永華六街１５２之２號","OBJECTID":472893},"geometry":{"x":165645.53000000119,"y":2543918.3900000025}},{"attributes":{"ID":472919,"DIS_CODE":0,"TOWNNAME":"安平區","LI":"怡平里","LIN":"18鄰","STREET":"永華六街","SECT":" ","MAREA":" ","LANE":" ","ALLEY":" ","HOUSE_NO":"１５２之３號","E_COORD97":165646.32000000001,"N_COORD97":2543923.6899999999,"ADDRESS":"永華六街１５２之３號","OBJECTID":472894},"geometry":{"x":165646.3200000003,"y":2543923.6899999995}},{"attributes":{"ID":472920,"DIS_CODE":0,"TOWNNAME":"安平區","LI":"怡平里","LIN":"18鄰","STREET":"永華六街","SECT":" ","MAREA":" ","LANE":" ","ALLEY":" ","HOUSE_NO":"１５２之５號","E_COORD97":165646.98000000001,"N_COORD97":2543928.0499999998,"ADDRESS":"永華六街１５２之５號","OBJECTID":472895},"geometry":{"x":165646.98000000045,"y":2543928.0500000026}},{"attributes":{"ID":472921,"DIS_CODE":0,"TOWNNAME":"新營區","LI":"忠政里","LIN":"18鄰","STREET":"中正路","SECT":" ","MAREA":" ","LANE":" ","ALLEY":" ","HOUSE_NO":"２２５之７號","E_COORD97":180005.45999999999,"N_COORD97":2579819.75,"ADDRESS":"中正路２２５之７號","OBJECTID":472896},"geometry":{"x":180005.46000000089,"y":2579819.7500000019}},{"attributes":{"ID":472922,"DIS_CODE":0,"TOWNNAME":"新營區","LI":"忠政里","LIN":"18鄰","STREET":"中正路","SECT":" ","MAREA":" ","LANE":" ","ALLEY":" ","HOUSE_NO":"２２３號之４","E_COORD97":180027.57000000001,"N_COORD97":2579808.5600000001,"ADDRESS":"中正路２２３號之４","OBJECTID":472897},"geometry":{"x":180027.57000000123,"y":2579808.5600000005}},{"attributes":{"ID":472923,"DIS_CODE":0,"TOWNNAME":"新營區","LI":"忠政里","LIN":"18鄰","STREET":"中正路","SECT":" ","MAREA":" ","LANE":" ","ALLEY":" ","HOUSE_NO":"２１３號之２","E_COORD97":180035.60999999999,"N_COORD97":2579756.48,"ADDRESS":"中正路２１３號之２","OBJECTID":472898},"geometry":{"x":180035.61000000127,"y":2579756.4800000023}},{"attributes":{"ID":472924,"DIS_CODE":0,"TOWNNAME":"新營區","LI":"永生里","LIN":"18鄰","STREET":"康樂街","SECT":" ","MAREA":" ","LANE":" ","ALLEY":" ","HOUSE_NO":"４５號","E_COORD97":179879.89999999999,"N_COORD97":2577852.3300000001,"ADDRESS":"康樂街４５號","OBJECTID":472899},"geometry":{"x":179879.90000000037,"y":2577852.3300000019}},{"attributes":{"ID":472925,"DIS_CODE":0,"TOWNNAME":"南區","LI":"新興里","LIN":"18鄰","STREET":"仁慈街","SECT":" ","MAREA":" ","LANE":" ","ALLEY":" ","HOUSE_NO":"２０號","E_COORD97":167382.35000000001,"N_COORD97":2542101.3999999999,"ADDRESS":"仁慈街２０號","OBJECTID":472900},"geometry":{"x":167382.35000000056,"y":2542101.4000000004}},{"attributes":{"ID":472926,"DIS_CODE":0,"TOWNNAME":"南區","LI":"新興里","LIN":"18鄰","STREET":"仁慈街","SECT":" ","MAREA":" ","LANE":" ","ALLEY":" ","HOUSE_NO":"２１號","E_COORD97":167340.29000000001,"N_COORD97":2542105.02,"ADDRESS":"仁慈街２１號","OBJECTID":472901},"geometry":{"x":167340.29000000097,"y":2542105.0200000014}},{"attributes":{"ID":472927,"DIS_CODE":0,"TOWNNAME":"南區","LI":"新興里","LIN":"18鄰","STREET":"仁慈街","SECT":" ","MAREA":" ","LANE":" ","ALLEY":" ","HOUSE_NO":"２８號","E_COORD97":167392.54999999999,"N_COORD97":2542119.1899999999,"ADDRESS":"仁慈街２８號","OBJECTID":472902},"geometry":{"x":167392.55000000075,"y":2542119.1899999995}},{"attributes":{"ID":472928,"DIS_CODE":0,"TOWNNAME":"南區","LI":"新興里","LIN":"18鄰","STREET":"仁慈街","SECT":" ","MAREA":" ","LANE":" ","ALLEY":" ","HOUSE_NO":"５號","E_COORD97":167395.28,"N_COORD97":2542075.7400000002,"ADDRESS":"仁慈街５號","OBJECTID":472903},"geometry":{"x":167395.28000000119,"y":2542075.7400000002}},{"attributes":{"ID":472929,"DIS_CODE":0,"TOWNNAME":"南區","LI":"新興里","LIN":"18鄰","STREET":"仁慈街","SECT":" ","MAREA":" ","LANE":" ","ALLEY":" ","HOUSE_NO":"６號","E_COORD97":167412.17000000001,"N_COORD97":2542087.8100000001,"ADDRESS":"仁慈街６號","OBJECTID":472904},"geometry":{"x":167412.17000000086,"y":2542087.8100000024}},{"attributes":{"ID":472930,"DIS_CODE":0,"TOWNNAME":"南區","LI":"新興里","LIN":"18鄰","STREET":"仁慈街","SECT":" ","MAREA":" ","LANE":" ","ALLEY":" ","HOUSE_NO":"７號","E_COORD97":167388.14000000001,"N_COORD97":2542079.6800000002,"ADDRESS":"仁慈街７號","OBJECTID":472905},"geometry":{"x":167388.14000000153,"y":2542079.6799999997}},{"attributes":{"ID":472931,"DIS_CODE":0,"TOWNNAME":"安平區","LI":"華平里","LIN":"18鄰","STREET":"建平八街","SECT":" ","MAREA":" ","LANE":" ","ALLEY":" ","HOUSE_NO":"４４８號","E_COORD97":165098.76999999999,"N_COORD97":2543612.4700000002,"ADDRESS":"建平八街４４８號","OBJECTID":472906},"geometry":{"x":165098.77000000048,"y":2543612.4700000025}},{"attributes":{"ID":472932,"DIS_CODE":0,"TOWNNAME":"歸仁區","LI":"後市里","LIN":"18鄰","STREET":"中山路","SECT":"二段","MAREA":" ","LANE":" ","ALLEY":" ","HOUSE_NO":"１０號","E_COORD97":177563.72,"N_COORD97":2540796.25,"ADDRESS":"中山路二段１０號","OBJECTID":472907},"geometry":{"x":177563.71999999974,"y":2540796.2500000019}},{"attributes":{"ID":472933,"DIS_CODE":0,"TOWNNAME":"歸仁區","LI":"新厝里","LIN":"18鄰","STREET":"中正南路","SECT":"一段","MAREA":" ","LANE":" ","ALLEY":" ","HOUSE_NO":"１５９號","E_COORD97":177442.03,"N_COORD97":2540398.2000000002,"ADDRESS":"中正南路一段１５９號","OBJECTID":472908},"geometry":{"x":177442.03000000212,"y":2540398.2000000011}},{"attributes":{"ID":472934,"DIS_CODE":0,"TOWNNAME":"歸仁區","LI":"歸仁里","LIN":"18鄰","STREET":"大仁二街","SECT":" ","MAREA":" ","LANE":" ","ALLEY":" ","HOUSE_NO":"３７號","E_COORD97":178116.04000000001,"N_COORD97":2541093.1099999999,"ADDRESS":"大仁二街３７號","OBJECTID":472909},"geometry":{"x":178116.04000000004,"y":2541093.1099999994}},{"attributes":{"ID":472935,"DIS_CODE":0,"TOWNNAME":"歸仁區","LI":"文化里","LIN":"18鄰","STREET":"文化北二街","SECT":" ","MAREA":" ","LANE":" ","ALLEY":" ","HOUSE_NO":"１０８號","E_COORD97":177075.45999999999,"N_COORD97":2541462.3399999999,"ADDRESS":"文化北二街１０８號","OBJECTID":472910},"geometry":{"x":177075.45999999996,"y":2541462.3400000017}},{"attributes":{"ID":472936,"DIS_CODE":0,"TOWNNAME":"北區","LI":"成德里","LIN":"18鄰","STREET":"文成三路","SECT":" ","MAREA":" ","LANE":" ","ALLEY":" ","HOUSE_NO":"７８號","E_COORD97":168852.78,"N_COORD97":2546329.9900000002,"ADDRESS":"文成三路７８號","OBJECTID":472911},"geometry":{"x":168852.78000000119,"y":2546329.9900000039}},{"attributes":{"ID":472937,"DIS_CODE":0,"TOWNNAME":"玉井區","LI":"玉田里","LIN":"18鄰","STREET":"中華路","SECT":" ","MAREA":" ","LANE":" ","ALLEY":" ","HOUSE_NO":"１１３號","E_COORD97":195014.64999999999,"N_COORD97":2558004.2400000002,"ADDRESS":"中華路１１３號","OBJECTID":472912},"geometry":{"x":195014.65000000037,"y":2558004.2400000002}},{"attributes":{"ID":472938,"DIS_CODE":0,"TOWNNAME":"玉井區","LI":"玉田里","LIN":"18鄰","STREET":"中華路","SECT":" ","MAREA":" ","LANE":" ","ALLEY":" ","HOUSE_NO":"１２３號","E_COORD97":195025.85000000001,"N_COORD97":2557994.2400000002,"ADDRESS":"中華路１２３號","OBJECTID":472913},"geometry":{"x":195025.85000000056,"y":2557994.2400000002}},{"attributes":{"ID":472939,"DIS_CODE":0,"TOWNNAME":"北區","LI":"實踐里","LIN":"18鄰","STREET":"大武街","SECT":" ","MAREA":" ","LANE":" ","ALLEY":" ","HOUSE_NO":"２１１號","E_COORD97":169638.67000000001,"N_COORD97":2546105.7999999998,"ADDRESS":"大武街２１１號","OBJECTID":472914},"geometry":{"x":169638.66999999993,"y":2546105.8000000026}},{"attributes":{"ID":472940,"DIS_CODE":0,"TOWNNAME":"北區","LI":"實踐里","LIN":"18鄰","STREET":"大武街","SECT":" ","MAREA":" ","LANE":" ","ALLEY":" ","HOUSE_NO":"２１１號之１","E_COORD97":169639.45999999999,"N_COORD97":2546109.73,"ADDRESS":"大武街２１１號之１","OBJECTID":472915},"geometry":{"x":169639.46000000089,"y":2546109.7300000023}},{"attributes":{"ID":472941,"DIS_CODE":0,"TOWNNAME":"北區","LI":"實踐里","LIN":"18鄰","STREET":"大武街","SECT":" ","MAREA":" ","LANE":" ","ALLEY":" ","HOUSE_NO":"２１１號之２","E_COORD97":169628.25,"N_COORD97":2546112.0899999999,"ADDRESS":"大武街２１１號之２","OBJECTID":472916},"geometry":{"x":169628.25,"y":2546112.0900000036}},{"attributes":{"ID":472942,"DIS_CODE":0,"TOWNNAME":"北區","LI":"實踐里","LIN":"18鄰","STREET":"大武街","SECT":" ","MAREA":" ","LANE":" ","ALLEY":" ","HOUSE_NO":"２１１號之３","E_COORD97":169628.84,"N_COORD97":2546121.6200000001,"ADDRESS":"大武街２１１號之３","OBJECTID":472917},"geometry":{"x":169628.84000000078,"y":2546121.620000001}},{"attributes":{"ID":472943,"DIS_CODE":0,"TOWNNAME":"北區","LI":"實踐里","LIN":"18鄰","STREET":"大武街","SECT":" ","MAREA":" ","LANE":" ","ALLEY":" ","HOUSE_NO":"２１１號之２地下室","E_COORD97":169628.25,"N_COORD97":2546112.0899999999,"ADDRESS":"大武街２１１號之２地下室","OBJECTID":472918},"geometry":{"x":169628.25,"y":2546112.0900000036}},{"attributes":{"ID":472944,"DIS_CODE":0,"TOWNNAME":"北區","LI":"實踐里","LIN":"18鄰","STREET":"大武街","SECT":" ","MAREA":" ","LANE":" ","ALLEY":" ","HOUSE_NO":"２１１號之３地下室","E_COORD97":169628.84,"N_COORD97":2546121.6200000001,"ADDRESS":"大武街２１１號之３地下室","OBJECTID":472919},"geometry":{"x":169628.84000000078,"y":2546121.620000001}},{"attributes":{"ID":472945,"DIS_CODE":0,"TOWNNAME":"北區","LI":"六甲里","LIN":"18鄰","STREET":"公園路","SECT":" ","MAREA":" ","LANE":" ","ALLEY":" ","HOUSE_NO":"５８７號","E_COORD97":169112.51000000001,"N_COORD97":2545751.0299999998,"ADDRESS":"公園路５８７號","OBJECTID":472920},"geometry":{"x":169112.50999999978,"y":2545751.0299999993}},{"attributes":{"ID":472946,"DIS_CODE":0,"TOWNNAME":"北區","LI":"六甲里","LIN":"18鄰","STREET":"公園路","SECT":" ","MAREA":" ","LANE":" ","ALLEY":" ","HOUSE_NO":"５８７號之１","E_COORD97":169114.47,"N_COORD97":2545754.7599999998,"ADDRESS":"公園路５８７號之１","OBJECTID":472921},"geometry":{"x":169114.46999999974,"y":2545754.7600000035}},{"attributes":{"ID":472947,"DIS_CODE":0,"TOWNNAME":"北區","LI":"六甲里","LIN":"18鄰","STREET":"公園路","SECT":" ","MAREA":" ","LANE":" ","ALLEY":" ","HOUSE_NO":"５８７號之１０","E_COORD97":169090.92999999999,"N_COORD97":2545786.7799999998,"ADDRESS":"公園路５８７號之１０","OBJECTID":472922},"geometry":{"x":169090.9299999997,"y":2545786.7799999993}},{"attributes":{"ID":472948,"DIS_CODE":0,"TOWNNAME":"北區","LI":"六甲里","LIN":"18鄰","STREET":"公園路","SECT":" ","MAREA":" ","LANE":" ","ALLEY":" ","HOUSE_NO":"５８７號之１１","E_COORD97":169092.31,"N_COORD97":2545791.1000000001,"ADDRESS":"公園路５８７號之１１","OBJECTID":472923},"geometry":{"x":169092.31000000145,"y":2545791.1000000015}},{"attributes":{"ID":472949,"DIS_CODE":0,"TOWNNAME":"北區","LI":"六甲里","LIN":"18鄰","STREET":"公園路","SECT":" ","MAREA":" ","LANE":" ","ALLEY":" ","HOUSE_NO":"５８７號之１２","E_COORD97":169093.29000000001,"N_COORD97":2545794.8199999998,"ADDRESS":"公園路５８７號之１２","OBJECTID":472924},"geometry":{"x":169093.29000000097,"y":2545794.8200000003}},{"attributes":{"ID":472950,"DIS_CODE":0,"TOWNNAME":"北區","LI":"六甲里","LIN":"18鄰","STREET":"公園路","SECT":" ","MAREA":" ","LANE":" ","ALLEY":" ","HOUSE_NO":"５８７號之１３","E_COORD97":169094.07000000001,"N_COORD97":2545797.96,"ADDRESS":"公園路５８７號之１３","OBJECTID":472925},"geometry":{"x":169094.0700000003,"y":2545797.9600000009}},{"attributes":{"ID":472951,"DIS_CODE":0,"TOWNNAME":"北區","LI":"六甲里","LIN":"18鄰","STREET":"公園路","SECT":" ","MAREA":" ","LANE":" ","ALLEY":" ","HOUSE_NO":"５８７號之１４","E_COORD97":169094.85999999999,"N_COORD97":2545803.0499999998,"ADDRESS":"公園路５８７號之１４","OBJECTID":472926},"geometry":{"x":169094.86000000127,"y":2545803.0500000007}},{"attributes":{"ID":472952,"DIS_CODE":0,"TOWNNAME":"北區","LI":"六甲里","LIN":"18鄰","STREET":"公園路","SECT":" ","MAREA":" ","LANE":" ","ALLEY":" ","HOUSE_NO":"５８７號之１５","E_COORD97":169095.84,"N_COORD97":2545807.3700000001,"ADDRESS":"公園路５８７號之１５","OBJECTID":472927},"geometry":{"x":169095.84000000171,"y":2545807.3700000029}},{"attributes":{"ID":472953,"DIS_CODE":0,"TOWNNAME":"北區","LI":"六甲里","LIN":"18鄰","STREET":"公園路","SECT":" ","MAREA":" ","LANE":" ","ALLEY":" ","HOUSE_NO":"５８７號之１６","E_COORD97":169096.82000000001,"N_COORD97":2545810.5,"ADDRESS":"公園路５８７號之１６","OBJECTID":472928},"geometry":{"x":169096.82000000123,"y":2545810.5}},{"attributes":{"ID":472954,"DIS_CODE":0,"TOWNNAME":"北區","LI":"六甲里","LIN":"18鄰","STREET":"公園路","SECT":" ","MAREA":" ","LANE":" ","ALLEY":" ","HOUSE_NO":"５８７號之１７","E_COORD97":169097.60999999999,"N_COORD97":2545814.23,"ADDRESS":"公園路５８７號之１７","OBJECTID":472929},"geometry":{"x":169097.61000000034,"y":2545814.2300000023}},{"attributes":{"ID":472955,"DIS_CODE":0,"TOWNNAME":"北區","LI":"六甲里","LIN":"18鄰","STREET":"公園路","SECT":" ","MAREA":" ","LANE":" ","ALLEY":" ","HOUSE_NO":"５８７號之１８","E_COORD97":169099.37,"N_COORD97":2545817.9500000002,"ADDRESS":"公園路５８７號之１８","OBJECTID":472930},"geometry":{"x":169099.37000000104,"y":2545817.9500000011}},{"attributes":{"ID":472956,"DIS_CODE":0,"TOWNNAME":"北區","LI":"六甲里","LIN":"18鄰","STREET":"公園路","SECT":" ","MAREA":" ","LANE":" ","ALLEY":" ","HOUSE_NO":"５８７號之１９","E_COORD97":169100.54999999999,"N_COORD97":2545822.46,"ADDRESS":"公園路５８７號之１９","OBJECTID":472931},"geometry":{"x":169100.54999999981,"y":2545822.4600000046}},{"attributes":{"ID":472957,"DIS_CODE":0,"TOWNNAME":"北區","LI":"六甲里","LIN":"18鄰","STREET":"公園路","SECT":" ","MAREA":" ","LANE":" ","ALLEY":" ","HOUSE_NO":"５８７號之２","E_COORD97":169116.23999999999,"N_COORD97":2545758.8700000001,"ADDRESS":"公園路５８７號之２","OBJECTID":472932},"geometry":{"x":169116.24000000115,"y":2545758.8700000048}},{"attributes":{"ID":472958,"DIS_CODE":0,"TOWNNAME":"北區","LI":"六甲里","LIN":"18鄰","STREET":"公園路","SECT":" ","MAREA":" ","LANE":" ","ALLEY":" ","HOUSE_NO":"５８７號之３","E_COORD97":169117.81,"N_COORD97":2545762.9900000002,"ADDRESS":"公園路５８７號之３","OBJECTID":472933},"geometry":{"x":169117.81000000145,"y":2545762.9900000002}},{"attributes":{"ID":472959,"DIS_CODE":0,"TOWNNAME":"北區","LI":"六甲里","LIN":"18鄰","STREET":"公園路","SECT":" ","MAREA":" ","LANE":" ","ALLEY":" ","HOUSE_NO":"５８７號之４","E_COORD97":169095.23999999999,"N_COORD97":2545759.0699999998,"ADDRESS":"公園路５８７號之４","OBJECTID":472934},"geometry":{"x":169095.24000000209,"y":2545759.0700000003}},{"attributes":{"ID":472960,"DIS_CODE":0,"TOWNNAME":"北區","LI":"六甲里","LIN":"18鄰","STREET":"公園路","SECT":" ","MAREA":" ","LANE":" ","ALLEY":" ","HOUSE_NO":"５８７號之５","E_COORD97":169091.12,"N_COORD97":2545760.8300000001,"ADDRESS":"公園路５８７號之５","OBJECTID":472935},"geometry":{"x":169091.12000000104,"y":2545760.8300000001}},{"attributes":{"ID":472961,"DIS_CODE":0,"TOWNNAME":"北區","LI":"六甲里","LIN":"18鄰","STREET":"公園路","SECT":" ","MAREA":" ","LANE":" ","ALLEY":" ","HOUSE_NO":"５８７號之６","E_COORD97":169087.57999999999,"N_COORD97":2545762.21,"ADDRESS":"公園路５８７號之６","OBJECTID":472936},"geometry":{"x":169087.58000000194,"y":2545762.2100000009}},{"attributes":{"ID":472962,"DIS_CODE":0,"TOWNNAME":"北區","LI":"六甲里","LIN":"18鄰","STREET":"公園路","SECT":" ","MAREA":" ","LANE":" ","ALLEY":" ","HOUSE_NO":"５８７號之７","E_COORD97":169083.66,"N_COORD97":2545763.77,"ADDRESS":"公園路５８７號之７","OBJECTID":472937},"geometry":{"x":169083.66000000201,"y":2545763.7699999996}},{"attributes":{"ID":472963,"DIS_CODE":0,"TOWNNAME":"北區","LI":"六甲里","LIN":"18鄰","STREET":"公園路","SECT":" ","MAREA":" ","LANE":" ","ALLEY":" ","HOUSE_NO":"５８７號之８","E_COORD97":169088.97,"N_COORD97":2545779.1400000001,"ADDRESS":"公園路５８７號之８","OBJECTID":472938},"geometry":{"x":169088.96999999974,"y":2545779.1400000006}},{"attributes":{"ID":472964,"DIS_CODE":0,"TOWNNAME":"北區","LI":"六甲里","LIN":"18鄰","STREET":"公園路","SECT":" ","MAREA":" ","LANE":" ","ALLEY":" ","HOUSE_NO":"５８７號之９","E_COORD97":169089.75,"N_COORD97":2545782.8599999999,"ADDRESS":"公園路５８７號之９","OBJECTID":472939},"geometry":{"x":169089.75000000186,"y":2545782.8599999994}},{"attributes":{"ID":472965,"DIS_CODE":0,"TOWNNAME":"北區","LI":"六甲里","LIN":"18鄰","STREET":"公園路","SECT":" ","MAREA":" ","LANE":" ","ALLEY":" ","HOUSE_NO":"５８９號之１０","E_COORD97":169129.20000000001,"N_COORD97":2545796.3100000001,"ADDRESS":"公園路５８９號之１０","OBJECTID":472940},"geometry":{"x":169129.20000000205,"y":2545796.3100000024}},{"attributes":{"ID":472966,"DIS_CODE":0,"TOWNNAME":"北區","LI":"六甲里","LIN":"18鄰","STREET":"公園路","SECT":" ","MAREA":" ","LANE":" ","ALLEY":" ","HOUSE_NO":"５８９號之１２","E_COORD97":169131.54999999999,"N_COORD97":2545805.5299999998,"ADDRESS":"公園路５８９號之１２","OBJECTID":472941},"geometry":{"x":169131.55000000168,"y":2545805.5299999993}},{"attributes":{"ID":472967,"DIS_CODE":0,"TOWNNAME":"北區","LI":"六甲里","LIN":"18鄰","STREET":"公園路","SECT":" ","MAREA":" ","LANE":" ","ALLEY":" ","HOUSE_NO":"５８９號之１３","E_COORD97":169132.92000000001,"N_COORD97":2545809.6400000001,"ADDRESS":"公園路５８９號之１３","OBJECTID":472942},"geometry":{"x":169132.92000000086,"y":2545809.6400000006}},{"attributes":{"ID":472968,"DIS_CODE":0,"TOWNNAME":"北區","LI":"六甲里","LIN":"18鄰","STREET":"公園路","SECT":" ","MAREA":" ","LANE":" ","ALLEY":" ","HOUSE_NO":"５８９號之１４","E_COORD97":169133.70999999999,"N_COORD97":2545813.5600000001,"ADDRESS":"公園路５８９號之１４","OBJECTID":472943},"geometry":{"x":169133.70999999996,"y":2545813.5600000005}},{"attributes":{"ID":472969,"DIS_CODE":0,"TOWNNAME":"北區","LI":"六甲里","LIN":"18鄰","STREET":"公園路","SECT":" ","MAREA":" ","LANE":" ","ALLEY":" ","HOUSE_NO":"５８９號之３","E_COORD97":169119.17999999999,"N_COORD97":2545767.8900000001,"ADDRESS":"公園路５８９號之３","OBJECTID":472944},"geometry":{"x":169119.18000000063,"y":2545767.8900000006}},{"attributes":{"ID":472970,"DIS_CODE":0,"TOWNNAME":"北區","LI":"六甲里","LIN":"18鄰","STREET":"公園路","SECT":" ","MAREA":" ","LANE":" ","ALLEY":" ","HOUSE_NO":"５８９號之４","E_COORD97":169120.75,"N_COORD97":2545772.3999999999,"ADDRESS":"公園路５８９號之４","OBJECTID":472945},"geometry":{"x":169120.75000000093,"y":2545772.4000000022}},{"attributes":{"ID":472971,"DIS_CODE":0,"TOWNNAME":"北區","LI":"六甲里","LIN":"18鄰","STREET":"公園路","SECT":" ","MAREA":" ","LANE":" ","ALLEY":" ","HOUSE_NO":"５８９號之５","E_COORD97":169121.73999999999,"N_COORD97":2545776.52,"ADDRESS":"公園路５８９號之５","OBJECTID":472946},"geometry":{"x":169121.74000000022,"y":2545776.5200000033}},{"attributes":{"ID":472972,"DIS_CODE":0,"TOWNNAME":"北區","LI":"六甲里","LIN":"18鄰","STREET":"公園路","SECT":" ","MAREA":" ","LANE":" ","ALLEY":" ","HOUSE_NO":"５８９號之６","E_COORD97":169123.31,"N_COORD97":2545780.4399999999,"ADDRESS":"公園路５８９號之６","OBJECTID":472947},"geometry":{"x":169123.31000000052,"y":2545780.4400000032}},{"attributes":{"ID":472973,"DIS_CODE":0,"TOWNNAME":"北區","LI":"六甲里","LIN":"18鄰","STREET":"公園路","SECT":" ","MAREA":" ","LANE":" ","ALLEY":" ","HOUSE_NO":"５８９號之７","E_COORD97":169124.88,"N_COORD97":2545784.5499999998,"ADDRESS":"公園路５８９號之７","OBJECTID":472948},"geometry":{"x":169124.88000000082,"y":2545784.5500000045}},{"attributes":{"ID":472974,"DIS_CODE":0,"TOWNNAME":"北區","LI":"六甲里","LIN":"18鄰","STREET":"公園路","SECT":" ","MAREA":" ","LANE":" ","ALLEY":" ","HOUSE_NO":"５８９號之８","E_COORD97":169126.25,"N_COORD97":2545788.8599999999,"ADDRESS":"公園路５８９號之８","OBJECTID":472949},"geometry":{"x":169126.25,"y":2545788.8600000013}},{"attributes":{"ID":472975,"DIS_CODE":0,"TOWNNAME":"北區","LI":"六甲里","LIN":"18鄰","STREET":"公園路","SECT":" ","MAREA":" ","LANE":" ","ALLEY":" ","HOUSE_NO":"５８９號之９","E_COORD97":169127.82000000001,"N_COORD97":2545792.98,"ADDRESS":"公園路５８９號之９","OBJECTID":472950},"geometry":{"x":169127.8200000003,"y":2545792.9800000004}},{"attributes":{"ID":472976,"DIS_CODE":0,"TOWNNAME":"歸仁區","LI":"後市里","LIN":"18鄰","STREET":"中山路","SECT":"二段","MAREA":" ","LANE":" ","ALLEY":" ","HOUSE_NO":"４０號","E_COORD97":177486.92000000001,"N_COORD97":2540805.25,"ADDRESS":"中山路二段４０號","OBJECTID":472951},"geometry":{"x":177486.92000000086,"y":2540805.2500000037}},{"attributes":{"ID":472977,"DIS_CODE":0,"TOWNNAME":"歸仁區","LI":"南興里","LIN":"18鄰","STREET":"南興街","SECT":" ","MAREA":" ","LANE":" ","ALLEY":" ","HOUSE_NO":"２２１號","E_COORD97":175666.69,"N_COORD97":2541386.25,"ADDRESS":"南興街２２１號","OBJECTID":472952},"geometry":{"x":175666.69000000134,"y":2541386.2500000019}},{"attributes":{"ID":472978,"DIS_CODE":0,"TOWNNAME":"歸仁區","LI":"大潭里","LIN":"18鄰","STREET":"中正南路","SECT":"三段","MAREA":" ","LANE":" ","ALLEY":" ","HOUSE_NO":"２８０號","E_COORD97":175131.60000000001,"N_COORD97":2534688.2799999998,"ADDRESS":"中正南路三段２８０號","OBJECTID":472953},"geometry":{"x":175131.59999999963,"y":2534688.2800000012}},{"attributes":{"ID":472979,"DIS_CODE":0,"TOWNNAME":"歸仁區","LI":"大潭里","LIN":"18鄰","STREET":"中正南路","SECT":"三段","MAREA":" ","LANE":" ","ALLEY":" ","HOUSE_NO":"２４２號","E_COORD97":175162.79999999999,"N_COORD97":2534767.2799999998,"ADDRESS":"中正南路三段２４２號","OBJECTID":472954},"geometry":{"x":175162.79999999981,"y":2534767.2800000012}},{"attributes":{"ID":472980,"DIS_CODE":0,"TOWNNAME":"歸仁區","LI":"大潭里","LIN":"18鄰","STREET":"中正南路","SECT":"三段","MAREA":" ","LANE":" ","ALLEY":" ","HOUSE_NO":"２１６號","E_COORD97":175180.39999999999,"N_COORD97":2534809.2799999998,"ADDRESS":"中正南路三段２１６號","OBJECTID":472955},"geometry":{"x":175180.4000000013,"y":2534809.2799999993}},{"attributes":{"ID":472981,"DIS_CODE":0,"TOWNNAME":"歸仁區","LI":"八甲里","LIN":"18鄰","STREET":"大仁十街","SECT":" ","MAREA":" ","LANE":" ","ALLEY":" ","HOUSE_NO":"２７號","E_COORD97":178002.39000000001,"N_COORD97":2541467.25,"ADDRESS":"大仁十街２７號","OBJECTID":472956},"geometry":{"x":178002.3900000006,"y":2541467.2500000019}},{"attributes":{"ID":472982,"DIS_CODE":0,"TOWNNAME":"歸仁區","LI":"文化里","LIN":"18鄰","STREET":"文化北二街","SECT":" ","MAREA":" ","LANE":" ","ALLEY":" ","HOUSE_NO":"１０４號","E_COORD97":177075.45999999999,"N_COORD97":2541470.3399999999,"ADDRESS":"文化北二街１０４號","OBJECTID":472957},"geometry":{"x":177075.45999999996,"y":2541470.3400000017}},{"attributes":{"ID":472983,"DIS_CODE":0,"TOWNNAME":"歸仁區","LI":"八甲里","LIN":"18鄰","STREET":"忠孝北路","SECT":" ","MAREA":" ","LANE":" ","ALLEY":" ","HOUSE_NO":"２７４號","E_COORD97":177958.32999999999,"N_COORD97":2541438.25,"ADDRESS":"忠孝北路２７４號","OBJECTID":472958},"geometry":{"x":177958.33000000007,"y":2541438.25}},{"attributes":{"ID":472984,"DIS_CODE":0,"TOWNNAME":"歸仁區","LI":"八甲里","LIN":"18鄰","STREET":"大仁九街","SECT":" ","MAREA":" ","LANE":" ","ALLEY":" ","HOUSE_NO":"２６號","E_COORD97":178022.98999999999,"N_COORD97":2541500.25,"ADDRESS":"大仁九街２６號","OBJECTID":472959},"geometry":{"x":178022.99000000022,"y":2541500.2500000037}},{"attributes":{"ID":472985,"DIS_CODE":0,"TOWNNAME":"南區","LI":"彰南里","LIN":"18鄰","STREET":"新和橫路","SECT":" ","MAREA":" ","LANE":" ","ALLEY":" ","HOUSE_NO":"１５號","E_COORD97":165801.35000000001,"N_COORD97":2540701.04,"ADDRESS":"新和橫路１５號","OBJECTID":472960},"geometry":{"x":165801.34999999963,"y":2540701.040000001}},{"attributes":{"ID":472986,"DIS_CODE":0,"TOWNNAME":"南區","LI":"大忠里","LIN":"18鄰","STREET":"大同路","SECT":"二段","MAREA":" ","LANE":" ","ALLEY":" ","HOUSE_NO":"６３８號","E_COORD97":169549.17999999999,"N_COORD97":2541048.7999999998,"ADDRESS":"大同路二段６３８號","OBJECTID":472961},"geometry":{"x":169549.17999999877,"y":2541048.8000000007}},{"attributes":{"ID":472987,"DIS_CODE":0,"TOWNNAME":"楠西區","LI":"楠西里","LIN":"18鄰","STREET":"中正路","SECT":" ","MAREA":" ","LANE":" ","ALLEY":" ","HOUSE_NO":"５８號","E_COORD97":197200.10999999999,"N_COORD97":2564074.25,"ADDRESS":"中正路５８號","OBJECTID":472962},"geometry":{"x":197200.11000000034,"y":2564074.2500000019}},{"attributes":{"ID":472988,"DIS_CODE":0,"TOWNNAME":"楠西區","LI":"楠西里","LIN":"18鄰","STREET":"中正路","SECT":" ","MAREA":" ","LANE":" ","ALLEY":" ","HOUSE_NO":"５０號","E_COORD97":197184.31,"N_COORD97":2564073.25,"ADDRESS":"中正路５０號","OBJECTID":472963},"geometry":{"x":197184.30999999959,"y":2564073.2500000037}},{"attributes":{"ID":472989,"DIS_CODE":0,"TOWNNAME":"楠西區","LI":"楠西里","LIN":"18鄰","STREET":"中正路","SECT":" ","MAREA":" ","LANE":" ","ALLEY":" ","HOUSE_NO":"８０號","E_COORD97":197230.51000000001,"N_COORD97":2564036.25,"ADDRESS":"中正路８０號","OBJECTID":472964},"geometry":{"x":197230.50999999978,"y":2564036.2500000019}},{"attributes":{"ID":472990,"DIS_CODE":0,"TOWNNAME":"楠西區","LI":"楠西里","LIN":"18鄰","STREET":"中正路","SECT":" ","MAREA":" ","LANE":" ","ALLEY":" ","HOUSE_NO":"７２號","E_COORD97":197219.10999999999,"N_COORD97":2564051.25,"ADDRESS":"中正路７２號","OBJECTID":472965},"geometry":{"x":197219.11000000034,"y":2564051.25}},{"attributes":{"ID":472991,"DIS_CODE":0,"TOWNNAME":"楠西區","LI":"楠西里","LIN":"18鄰","STREET":"中正路","SECT":" ","MAREA":" ","LANE":" ","ALLEY":" ","HOUSE_NO":"５６號","E_COORD97":197194.31,"N_COORD97":2564062.25,"ADDRESS":"中正路５６號","OBJECTID":472966},"geometry":{"x":197194.30999999959,"y":2564062.25}},{"attributes":{"ID":472992,"DIS_CODE":0,"TOWNNAME":"柳營區","LI":"東昇里","LIN":"18鄰","STREET":"十美街","SECT":" ","MAREA":" ","LANE":" ","ALLEY":" ","HOUSE_NO":"１８８號","E_COORD97":180482.85000000001,"N_COORD97":2575547.6899999999,"ADDRESS":"十美街１８８號","OBJECTID":472967},"geometry":{"x":180482.85000000056,"y":2575547.6900000013}},{"attributes":{"ID":472993,"DIS_CODE":0,"TOWNNAME":"柳營區","LI":"東昇里","LIN":"18鄰","STREET":"十美街","SECT":" ","MAREA":" ","LANE":" ","ALLEY":" ","HOUSE_NO":"１９０號","E_COORD97":180478.32000000001,"N_COORD97":2575547.7000000002,"ADDRESS":"十美街１９０號","OBJECTID":472968},"geometry":{"x":180478.32000000123,"y":2575547.6999999993}},{"attributes":{"ID":472994,"DIS_CODE":0,"TOWNNAME":"柳營區","LI":"東昇里","LIN":"18鄰","STREET":"十美街","SECT":" ","MAREA":" ","LANE":" ","ALLEY":" ","HOUSE_NO":"１９２號","E_COORD97":180473.78,"N_COORD97":2575547.71,"ADDRESS":"十美街１９２號","OBJECTID":472969},"geometry":{"x":180473.78000000119,"y":2575547.7100000046}},{"attributes":{"ID":472995,"DIS_CODE":0,"TOWNNAME":"柳營區","LI":"東昇里","LIN":"18鄰","STREET":"十美街","SECT":" ","MAREA":" ","LANE":" ","ALLEY":" ","HOUSE_NO":"１９６號","E_COORD97":180469.23999999999,"N_COORD97":2575547.73,"ADDRESS":"十美街１９６號","OBJECTID":472970},"geometry":{"x":180469.24000000022,"y":2575547.7300000023}},{"attributes":{"ID":472996,"DIS_CODE":0,"TOWNNAME":"柳營區","LI":"東昇里","LIN":"18鄰","STREET":"十美街","SECT":" ","MAREA":" ","LANE":" ","ALLEY":" ","HOUSE_NO":"１９８號","E_COORD97":180464.70000000001,"N_COORD97":2575547.7400000002,"ADDRESS":"十美街１９８號","OBJECTID":472971},"geometry":{"x":180464.70000000019,"y":2575547.7400000021}},{"attributes":{"ID":472997,"DIS_CODE":0,"TOWNNAME":"柳營區","LI":"東昇里","LIN":"18鄰","STREET":"十美街","SECT":" ","MAREA":" ","LANE":" ","ALLEY":" ","HOUSE_NO":"２００號","E_COORD97":180460.17000000001,"N_COORD97":2575547.75,"ADDRESS":"十美街２００號","OBJECTID":472972},"geometry":{"x":180460.17000000086,"y":2575547.7500000019}},{"attributes":{"ID":472998,"DIS_CODE":0,"TOWNNAME":"柳營區","LI":"東昇里","LIN":"18鄰","STREET":"十美街","SECT":" ","MAREA":" ","LANE":" ","ALLEY":" ","HOUSE_NO":"２０２號","E_COORD97":180455.63,"N_COORD97":2575547.7599999998,"ADDRESS":"十美街２０２號","OBJECTID":472973},"geometry":{"x":180455.63000000082,"y":2575547.7599999998}},{"attributes":{"ID":472999,"DIS_CODE":0,"TOWNNAME":"柳營區","LI":"東昇里","LIN":"18鄰","STREET":"十美街","SECT":" ","MAREA":" ","LANE":" ","ALLEY":" ","HOUSE_NO":"２０６號","E_COORD97":180451.09,"N_COORD97":2575547.77,"ADDRESS":"十美街２０６號","OBJECTID":472974},"geometry":{"x":180451.08999999985,"y":2575547.7699999996}},{"attributes":{"ID":473000,"DIS_CODE":0,"TOWNNAME":"新營區","LI":"南紙里","LIN":"18鄰","STREET":"南紙街","SECT":" ","MAREA":" ","LANE":" ","ALLEY":" ","HOUSE_NO":"１４號","E_COORD97":177810.03,"N_COORD97":2577759.2799999998,"ADDRESS":"南紙街１４號","OBJECTID":472975},"geometry":{"x":177810.03000000119,"y":2577759.2800000031}},{"attributes":{"ID":473001,"DIS_CODE":0,"TOWNNAME":"新營區","LI":"新北里","LIN":"18鄰","STREET":"民生路","SECT":" ","MAREA":" ","LANE":" ","ALLEY":" ","HOUSE_NO":"２３３號","E_COORD97":179063.12,"N_COORD97":2578982.5099999998,"ADDRESS":"民生路２３３號","OBJECTID":472976},"geometry":{"x":179063.12000000011,"y":2578982.5100000016}},{"attributes":{"ID":473002,"DIS_CODE":0,"TOWNNAME":"新營區","LI":"興業里","LIN":"18鄰","STREET":"同濟街","SECT":" ","MAREA":" ","LANE":" ","ALLEY":" ","HOUSE_NO":"５號","E_COORD97":180503.17000000001,"N_COORD97":2578199.3399999999,"ADDRESS":"同濟街５號","OBJECTID":472977},"geometry":{"x":180503.16999999993,"y":2578199.3399999999}},{"attributes":{"ID":473003,"DIS_CODE":0,"TOWNNAME":"新營區","LI":"興業里","LIN":"18鄰","STREET":"同濟街","SECT":" ","MAREA":" ","LANE":" ","ALLEY":" ","HOUSE_NO":"９號五樓","E_COORD97":180501.57999999999,"N_COORD97":2578210.4500000002,"ADDRESS":"同濟街９號五樓","OBJECTID":472978},"geometry":{"x":180501.58000000101,"y":2578210.4500000011}},{"attributes":{"ID":473004,"DIS_CODE":0,"TOWNNAME":"新營區","LI":"民權里","LIN":"18鄰","STREET":"博愛街","SECT":" ","MAREA":" ","LANE":" ","ALLEY":" ","HOUSE_NO":"５６號之２","E_COORD97":179781.29999999999,"N_COORD97":2578162.9500000002,"ADDRESS":"博愛街５６號之２","OBJECTID":472979},"geometry":{"x":179781.30000000075,"y":2578162.9500000011}},{"attributes":{"ID":473005,"DIS_CODE":0,"TOWNNAME":"新營區","LI":"民生里","LIN":"18鄰","STREET":"公園路","SECT":"一段","MAREA":" ","LANE":" ","ALLEY":" ","HOUSE_NO":"１３６號","E_COORD97":179039.20999999999,"N_COORD97":2578277.1699999999,"ADDRESS":"公園路一段１３６號","OBJECTID":472980},"geometry":{"x":179039.21000000089,"y":2578277.1700000018}},{"attributes":{"ID":473006,"DIS_CODE":0,"TOWNNAME":"新營區","LI":"忠政里","LIN":"18鄰","STREET":"中正路","SECT":" ","MAREA":" ","LANE":" ","ALLEY":" ","HOUSE_NO":"２２５號之２","E_COORD97":180037.95999999999,"N_COORD97":2579820.7000000002,"ADDRESS":"中正路２２５號之２","OBJECTID":472981},"geometry":{"x":180037.96000000089,"y":2579820.6999999993}},{"attributes":{"ID":473007,"DIS_CODE":0,"TOWNNAME":"新營區","LI":"南紙里","LIN":"18鄰","STREET":"太子路","SECT":" ","MAREA":" ","LANE":" ","ALLEY":" ","HOUSE_NO":"２０５號","E_COORD97":177786.91,"N_COORD97":2577782.6499999999,"ADDRESS":"太子路２０５號","OBJECTID":472982},"geometry":{"x":177786.91000000201,"y":2577782.6500000022}},{"attributes":{"ID":473008,"DIS_CODE":0,"TOWNNAME":"新營區","LI":"大宏里","LIN":"18鄰","STREET":"民族路","SECT":" ","MAREA":" ","LANE":" ","ALLEY":" ","HOUSE_NO":"１８之８號","E_COORD97":180302.12,"N_COORD97":2578591.2799999998,"ADDRESS":"民族路１８之８號","OBJECTID":472983},"geometry":{"x":180302.12000000011,"y":2578591.2800000012}},{"attributes":{"ID":473009,"DIS_CODE":0,"TOWNNAME":"新營區","LI":"忠政里","LIN":"18鄰","STREET":"中正路","SECT":" ","MAREA":" ","LANE":" ","ALLEY":" ","HOUSE_NO":"２０７號之１","E_COORD97":180043.51000000001,"N_COORD97":2579725.4300000002,"ADDRESS":"中正路２０７號之１","OBJECTID":472984},"geometry":{"x":180043.50999999978,"y":2579725.4300000016}},{"attributes":{"ID":473010,"DIS_CODE":0,"TOWNNAME":"新營區","LI":"延平里","LIN":"18鄰","STREET":"長春街","SECT":" ","MAREA":" ","LANE":" ","ALLEY":" ","HOUSE_NO":"９８號","E_COORD97":179616.30443700001,"N_COORD97":2577842.2877799999,"ADDRESS":"長春街９８號","OBJECTID":472985},"geometry":{"x":179616.3044370003,"y":2577842.2877830006}},{"attributes":{"ID":473011,"DIS_CODE":0,"TOWNNAME":"新營區","LI":"土庫里","LIN":"18鄰","STREET":"開元路","SECT":" ","MAREA":" ","LANE":" ","ALLEY":" ","HOUSE_NO":"２５７號","E_COORD97":181882.48999999999,"N_COORD97":2579752.23,"ADDRESS":"開元路２５７號","OBJECTID":472986},"geometry":{"x":181882.49000000115,"y":2579752.2300000023}},{"attributes":{"ID":473012,"DIS_CODE":0,"TOWNNAME":"新營區","LI":"南紙里","LIN":"18鄰","STREET":"太子路","SECT":" ","MAREA":" ","LANE":" ","ALLEY":" ","HOUSE_NO":"２０９號","E_COORD97":177778.70999999999,"N_COORD97":2577777.1499999999,"ADDRESS":"太子路２０９號","OBJECTID":472987},"geometry":{"x":177778.70999999996,"y":2577777.1500000004}},{"attributes":{"ID":473013,"DIS_CODE":0,"TOWNNAME":"新營區","LI":"忠政里","LIN":"18鄰","STREET":"中正路","SECT":" ","MAREA":" ","LANE":" ","ALLEY":" ","HOUSE_NO":"２１７號之２","E_COORD97":180036.73000000001,"N_COORD97":2579775.3100000001,"ADDRESS":"中正路２１７號之２","OBJECTID":472988},"geometry":{"x":180036.73000000138,"y":2579775.3100000024}},{"attributes":{"ID":473014,"DIS_CODE":0,"TOWNNAME":"新營區","LI":"民權里","LIN":"18鄰","STREET":"民權路","SECT":" ","MAREA":" ","LANE":" ","ALLEY":" ","HOUSE_NO":"４６號之１","E_COORD97":179735.26000000001,"N_COORD97":2578179.77,"ADDRESS":"民權路４６號之１","OBJECTID":472989},"geometry":{"x":179735.26000000164,"y":2578179.7699999977}},{"attributes":{"ID":473015,"DIS_CODE":0,"TOWNNAME":"安平區","LI":"國平里","LIN":"18鄰","STREET":"永華九街","SECT":" ","MAREA":" ","LANE":" ","ALLEY":" ","HOUSE_NO":"５７號","E_COORD97":164920.94,"N_COORD97":2543510.2999999998,"ADDRESS":"永華九街５７號","OBJECTID":472990},"geometry":{"x":164920.94000000134,"y":2543510.3000000007}},{"attributes":{"ID":473016,"DIS_CODE":0,"TOWNNAME":"安平區","LI":"國平里","LIN":"18鄰","STREET":"永華九街","SECT":" ","MAREA":" ","LANE":" ","ALLEY":" ","HOUSE_NO":"５９號","E_COORD97":164922.32000000001,"N_COORD97":2543517.1800000002,"ADDRESS":"永華九街５９號","OBJECTID":472991},"geometry":{"x":164922.3200000003,"y":2543517.1799999997}},{"attributes":{"ID":473017,"DIS_CODE":0,"TOWNNAME":"安平區","LI":"怡平里","LIN":"18鄰","STREET":"永華六街","SECT":" ","MAREA":" ","LANE":" ","ALLEY":" ","HOUSE_NO":"１５２號","E_COORD97":165643.81,"N_COORD97":2543906.75,"ADDRESS":"永華六街１５２號","OBJECTID":472992},"geometry":{"x":165643.80999999959,"y":2543906.75}},{"attributes":{"ID":473018,"DIS_CODE":0,"TOWNNAME":"南區","LI":"省躬里","LIN":"18鄰","STREET":"省躬三街","SECT":" ","MAREA":" ","LANE":" ","ALLEY":" ","HOUSE_NO":"１３６號","E_COORD97":165671.67000000001,"N_COORD97":2536841.7400000002,"ADDRESS":"省躬三街１３６號","OBJECTID":472993},"geometry":{"x":165671.67000000086,"y":2536841.7400000002}},{"attributes":{"ID":473019,"DIS_CODE":0,"TOWNNAME":"佳里區","LI":"鎮山里","LIN":"18鄰","STREET":"佳南路","SECT":" ","MAREA":" ","LANE":" ","ALLEY":" ","HOUSE_NO":"２０２號","E_COORD97":166144.67000000001,"N_COORD97":2561031.7599999998,"ADDRESS":"佳南路２０２號","OBJECTID":472994},"geometry":{"x":166144.67000000086,"y":2561031.7600000035}},{"attributes":{"ID":473020,"DIS_CODE":0,"TOWNNAME":"南區","LI":"省躬里","LIN":"18鄰","STREET":"省躬三街","SECT":" ","MAREA":" ","LANE":" ","ALLEY":" ","HOUSE_NO":"１５８之１號","E_COORD97":165699.98999999999,"N_COORD97":2536758.46,"ADDRESS":"省躬三街１５８之１號","OBJECTID":472995},"geometry":{"x":165699.99000000115,"y":2536758.4600000009}},{"attributes":{"ID":473021,"DIS_CODE":0,"TOWNNAME":"南區","LI":"省躬里","LIN":"18鄰","STREET":"省躬三街","SECT":" ","MAREA":" ","LANE":" ","ALLEY":" ","HOUSE_NO":"１５８號","E_COORD97":165697.54000000001,"N_COORD97":2536778.5800000001,"ADDRESS":"省躬三街１５８號","OBJECTID":472996},"geometry":{"x":165697.5400000019,"y":2536778.5800000038}},{"attributes":{"ID":473022,"DIS_CODE":0,"TOWNNAME":"學甲區","LI":"慈福里","LIN":"18鄰","STREET":"濟生路","SECT":" ","MAREA":" ","LANE":" ","ALLEY":" ","HOUSE_NO":"１７０號","E_COORD97":166134.12,"N_COORD97":2570406.3799999999,"ADDRESS":"濟生路１７０號","OBJECTID":472997},"geometry":{"x":166134.12000000011,"y":2570406.379999999}},{"attributes":{"ID":473023,"DIS_CODE":0,"TOWNNAME":"北區","LI":"文成里","LIN":"18鄰","STREET":"文賢路","SECT":" ","MAREA":" ","LANE":" ","ALLEY":" ","HOUSE_NO":"２０４號","E_COORD97":167374.51999999999,"N_COORD97":2544902.4399999999,"ADDRESS":"文賢路２０４號","OBJECTID":472998},"geometry":{"x":167374.51999999955,"y":2544902.4400000032}},{"attributes":{"ID":473024,"DIS_CODE":0,"TOWNNAME":"北區","LI":"文成里","LIN":"18鄰","STREET":"文賢路","SECT":" ","MAREA":" ","LANE":" ","ALLEY":" ","HOUSE_NO":"２０６號","E_COORD97":167367.15843400001,"N_COORD97":2544912.1869800002,"ADDRESS":"文賢路２０６號","OBJECTID":472999},"geometry":{"x":167367.1584340008,"y":2544912.1869799998}},{"attributes":{"ID":473025,"DIS_CODE":0,"TOWNNAME":"北區","LI":"文成里","LIN":"18鄰","STREET":"文賢路","SECT":" ","MAREA":" ","LANE":" ","ALLEY":" ","HOUSE_NO":"２０８號","E_COORD97":167366.39999999999,"N_COORD97":2544914.2200000002,"ADDRESS":"文賢路２０８號","OBJECTID":473000},"geometry":{"x":167366.40000000037,"y":2544914.2200000007}}]}