{"displayFieldName":"TOWNNAME","fieldAliases":{"ID":"ID","DIS_CODE":"DIS_CODE","TOWNNAME":"TOWNNAME","LI":"LI","LIN":"LIN","STREET":"STREET","SECT":"SECT","MAREA":"MAREA","LANE":"LANE","ALLEY":"ALLEY","HOUSE_NO":"HOUSE_NO","E_COORD97":"E_COORD97","N_COORD97":"N_COORD97","ADDRESS":"ADDRESS","OBJECTID":"OBJECTID"},"geometryType":"esriGeometryPoint","spatialReference":{"wkid":102443,"latestWkid":3826},"fields":[{"name":"ID","type":"esriFieldTypeDouble","alias":"ID"},{"name":"DIS_CODE","type":"esriFieldTypeInteger","alias":"DIS_CODE"},{"name":"TOWNNAME","type":"esriFieldTypeString","alias":"TOWNNAME","length":8},{"name":"LI","type":"esriFieldTypeString","alias":"LI","length":8},{"name":"LIN","type":"esriFieldTypeString","alias":"LIN","length":12},{"name":"STREET","type":"esriFieldTypeString","alias":"STREET","length":20},{"name":"SECT","type":"esriFieldTypeString","alias":"SECT","length":8},{"name":"MAREA","type":"esriFieldTypeString","alias":"MAREA","length":12},{"name":"LANE","type":"esriFieldTypeString","alias":"LANE","length":10},{"name":"ALLEY","type":"esriFieldTypeString","alias":"ALLEY","length":10},{"name":"HOUSE_NO","type":"esriFieldTypeString","alias":"HOUSE_NO","length":20},{"name":"E_COORD97","type":"esriFieldTypeDouble","alias":"E_COORD97"},{"name":"N_COORD97","type":"esriFieldTypeDouble","alias":"N_COORD97"},{"name":"ADDRESS","type":"esriFieldTypeString","alias":"ADDRESS","length":50},{"name":"OBJECTID","type":"esriFieldTypeOID","alias":"OBJECTID"}],"features":[{"attributes":{"ID":581228,"DIS_CODE":0,"TOWNNAME":"新營區","LI":"三仙里","LIN":"16鄰","STREET":"三興街","SECT":" ","MAREA":" ","LANE":" ","ALLEY":" ","HOUSE_NO":"３０號","E_COORD97":179467.73000000001,"N_COORD97":2578291.73,"ADDRESS":"三興街３０號","OBJECTID":581201},"geometry":{"x":179467.73000000045,"y":2578291.7300000004}},{"attributes":{"ID":581229,"DIS_CODE":0,"TOWNNAME":"中西區","LI":"永華里","LIN":"4鄰","STREET":"南門路","SECT":" ","MAREA":" ","LANE":" ","ALLEY":" ","HOUSE_NO":"７５號","E_COORD97":168470.26999999999,"N_COORD97":2543330.54,"ADDRESS":"南門路７５號","OBJECTID":581202},"geometry":{"x":168470.26999999862,"y":2543330.5399999991}},{"attributes":{"ID":581230,"DIS_CODE":0,"TOWNNAME":"安平區","LI":"文平里","LIN":"16鄰","STREET":"文平路","SECT":" ","MAREA":" ","LANE":" ","ALLEY":" ","HOUSE_NO":"２２６號","E_COORD97":165749.87,"N_COORD97":2543169.8799999999,"ADDRESS":"文平路２２６號","OBJECTID":581203},"geometry":{"x":165749.87000000104,"y":2543169.8800000008}},{"attributes":{"ID":581231,"DIS_CODE":0,"TOWNNAME":"安平區","LI":"文平里","LIN":"16鄰","STREET":"文平路","SECT":" ","MAREA":" ","LANE":" ","ALLEY":" ","HOUSE_NO":"２２８號","E_COORD97":165750.04999999999,"N_COORD97":2543174.5899999999,"ADDRESS":"文平路２２８號","OBJECTID":581204},"geometry":{"x":165750.05000000075,"y":2543174.5899999999}},{"attributes":{"ID":581232,"DIS_CODE":0,"TOWNNAME":"安平區","LI":"文平里","LIN":"16鄰","STREET":"文平路","SECT":" ","MAREA":" ","LANE":" ","ALLEY":" ","HOUSE_NO":"２３０號","E_COORD97":165751.10000000001,"N_COORD97":2543179.04,"ADDRESS":"文平路２３０號","OBJECTID":581205},"geometry":{"x":165751.10000000056,"y":2543179.0400000028}},{"attributes":{"ID":581233,"DIS_CODE":0,"TOWNNAME":"安平區","LI":"文平里","LIN":"16鄰","STREET":"文平路","SECT":" ","MAREA":" ","LANE":" ","ALLEY":" ","HOUSE_NO":"２３２號","E_COORD97":165751.42999999999,"N_COORD97":2543183.46,"ADDRESS":"文平路２３２號","OBJECTID":581206},"geometry":{"x":165751.4299999997,"y":2543183.4600000009}},{"attributes":{"ID":581234,"DIS_CODE":0,"TOWNNAME":"安平區","LI":"文平里","LIN":"16鄰","STREET":"文平路","SECT":" ","MAREA":" ","LANE":" ","ALLEY":" ","HOUSE_NO":"２４６號","E_COORD97":165761.04000000001,"N_COORD97":2543227.1499999999,"ADDRESS":"文平路２４６號","OBJECTID":581207},"geometry":{"x":165761.04000000004,"y":2543227.1500000041}},{"attributes":{"ID":581235,"DIS_CODE":0,"TOWNNAME":"安平區","LI":"文平里","LIN":"16鄰","STREET":"文平路","SECT":" ","MAREA":" ","LANE":" ","ALLEY":" ","HOUSE_NO":"２５２號","E_COORD97":165763.26999999999,"N_COORD97":2543241.98,"ADDRESS":"文平路２５２號","OBJECTID":581208},"geometry":{"x":165763.27000000142,"y":2543241.9800000023}},{"attributes":{"ID":581236,"DIS_CODE":0,"TOWNNAME":"南區","LI":"南都里","LIN":"16鄰","STREET":"南和路","SECT":" ","MAREA":" ","LANE":" ","ALLEY":" ","HOUSE_NO":"２０號","E_COORD97":166619.60999999999,"N_COORD97":2540069.3100000001,"ADDRESS":"南和路２０號","OBJECTID":581209},"geometry":{"x":166619.61000000127,"y":2540069.3099999987}},{"attributes":{"ID":581237,"DIS_CODE":0,"TOWNNAME":"南區","LI":"南都里","LIN":"16鄰","STREET":"南和路","SECT":" ","MAREA":" ","LANE":" ","ALLEY":" ","HOUSE_NO":"２２號","E_COORD97":166613.81,"N_COORD97":2540068.02,"ADDRESS":"南和路２２號","OBJECTID":581210},"geometry":{"x":166613.80999999866,"y":2540068.0200000014}},{"attributes":{"ID":581238,"DIS_CODE":0,"TOWNNAME":"南區","LI":"南都里","LIN":"16鄰","STREET":"南和路","SECT":" ","MAREA":" ","LANE":" ","ALLEY":" ","HOUSE_NO":"２６號","E_COORD97":166596.39999999999,"N_COORD97":2540054.5,"ADDRESS":"南和路２６號","OBJECTID":581211},"geometry":{"x":166596.40000000037,"y":2540054.5000000019}},{"attributes":{"ID":581239,"DIS_CODE":0,"TOWNNAME":"南區","LI":"南都里","LIN":"16鄰","STREET":"南和路","SECT":" ","MAREA":" ","LANE":" ","ALLEY":" ","HOUSE_NO":"２８號","E_COORD97":166586.26000000001,"N_COORD97":2540051.4199999999,"ADDRESS":"南和路２８號","OBJECTID":581212},"geometry":{"x":166586.26000000071,"y":2540051.4200000037}},{"attributes":{"ID":581240,"DIS_CODE":0,"TOWNNAME":"南區","LI":"南都里","LIN":"16鄰","STREET":"南和路","SECT":" ","MAREA":" ","LANE":" ","ALLEY":" ","HOUSE_NO":"３２號","E_COORD97":166580.45999999999,"N_COORD97":2540048.8500000001,"ADDRESS":"南和路３２號","OBJECTID":581213},"geometry":{"x":166580.45999999996,"y":2540048.8500000015}},{"attributes":{"ID":581241,"DIS_CODE":0,"TOWNNAME":"南區","LI":"喜北里","LIN":"16鄰","STREET":"濱南路","SECT":" ","MAREA":" ","LANE":" ","ALLEY":" ","HOUSE_NO":"４８７號","E_COORD97":165491.31,"N_COORD97":2538404.9900000002,"ADDRESS":"濱南路４８７號","OBJECTID":581214},"geometry":{"x":165491.30999999959,"y":2538404.9900000021}},{"attributes":{"ID":581242,"DIS_CODE":0,"TOWNNAME":"北區","LI":"仁愛里","LIN":"16鄰","STREET":"長榮路","SECT":"四段","MAREA":" ","LANE":" ","ALLEY":" ","HOUSE_NO":"３５號","E_COORD97":170282.82000000001,"N_COORD97":2544898.1699999999,"ADDRESS":"長榮路四段３５號","OBJECTID":581215},"geometry":{"x":170282.8200000003,"y":2544898.1700000018}},{"attributes":{"ID":581243,"DIS_CODE":0,"TOWNNAME":"北區","LI":"仁愛里","LIN":"16鄰","STREET":"長榮路","SECT":"四段","MAREA":" ","LANE":" ","ALLEY":" ","HOUSE_NO":"３７號","E_COORD97":170284.62,"N_COORD97":2544902.0099999998,"ADDRESS":"長榮路四段３７號","OBJECTID":581216},"geometry":{"x":170284.62000000104,"y":2544902.0100000035}},{"attributes":{"ID":581244,"DIS_CODE":0,"TOWNNAME":"新營區","LI":"民榮里","LIN":"16鄰","STREET":"太子路","SECT":" ","MAREA":" ","LANE":" ","ALLEY":" ","HOUSE_NO":"２５號","E_COORD97":178381.57000000001,"N_COORD97":2578112,"ADDRESS":"太子路２５號","OBJECTID":581217},"geometry":{"x":178381.57000000123,"y":2578112.0000000019}},{"attributes":{"ID":581245,"DIS_CODE":0,"TOWNNAME":"北區","LI":"六甲里","LIN":"16鄰","STREET":"西門路","SECT":"四段","MAREA":" ","LANE":" ","ALLEY":" ","HOUSE_NO":"３１０號","E_COORD97":168965.57000000001,"N_COORD97":2545944.73,"ADDRESS":"西門路四段３１０號","OBJECTID":581218},"geometry":{"x":168965.5700000003,"y":2545944.7300000004}},{"attributes":{"ID":581246,"DIS_CODE":0,"TOWNNAME":"北區","LI":"六甲里","LIN":"16鄰","STREET":"西門路","SECT":"四段","MAREA":" ","LANE":" ","ALLEY":" ","HOUSE_NO":"３１２號","E_COORD97":168966.85000000001,"N_COORD97":2545949.5499999998,"ADDRESS":"西門路四段３１２號","OBJECTID":581219},"geometry":{"x":168966.85000000056,"y":2545949.5500000007}},{"attributes":{"ID":581247,"DIS_CODE":0,"TOWNNAME":"北區","LI":"大豐里","LIN":"16鄰","STREET":"武聖路","SECT":" ","MAREA":" ","LANE":" ","ALLEY":" ","HOUSE_NO":"１９６號","E_COORD97":166854.44,"N_COORD97":2545315.2200000002,"ADDRESS":"武聖路１９６號","OBJECTID":581220},"geometry":{"x":166854.44000000041,"y":2545315.2200000044}},{"attributes":{"ID":581248,"DIS_CODE":0,"TOWNNAME":"北區","LI":"振興里","LIN":"16鄰","STREET":"長榮路","SECT":"四段","MAREA":" ","LANE":" ","ALLEY":" ","HOUSE_NO":"９６號","E_COORD97":170311.22,"N_COORD97":2545071.25,"ADDRESS":"長榮路四段９６號","OBJECTID":581221},"geometry":{"x":170311.21999999974,"y":2545071.2500000019}},{"attributes":{"ID":581249,"DIS_CODE":0,"TOWNNAME":"新營區","LI":"民榮里","LIN":"16鄰","STREET":"復興路","SECT":" ","MAREA":" ","LANE":" ","ALLEY":" ","HOUSE_NO":"３２５號","E_COORD97":178512,"N_COORD97":2578170.0699999998,"ADDRESS":"復興路３２５號","OBJECTID":581222},"geometry":{"x":178512.00000000093,"y":2578170.0700000022}},{"attributes":{"ID":581250,"DIS_CODE":0,"TOWNNAME":"新營區","LI":"三仙里","LIN":"16鄰","STREET":"武昌街","SECT":" ","MAREA":" ","LANE":" ","ALLEY":" ","HOUSE_NO":"７６之１號","E_COORD97":179590.04000000001,"N_COORD97":2578333.2999999998,"ADDRESS":"武昌街７６之１號","OBJECTID":581223},"geometry":{"x":179590.04000000097,"y":2578333.3000000007}},{"attributes":{"ID":581251,"DIS_CODE":0,"TOWNNAME":"新營區","LI":"大宏里","LIN":"16鄰","STREET":"綠川北街","SECT":" ","MAREA":" ","LANE":" ","ALLEY":" ","HOUSE_NO":"７號","E_COORD97":180829.51000000001,"N_COORD97":2578864.5,"ADDRESS":"綠川北街７號","OBJECTID":581224},"geometry":{"x":180829.50999999978,"y":2578864.5000000019}},{"attributes":{"ID":581252,"DIS_CODE":0,"TOWNNAME":"新營區","LI":"民榮里","LIN":"16鄰","STREET":"復興路","SECT":" ","MAREA":" ","LANE":" ","ALLEY":" ","HOUSE_NO":"３１１號","E_COORD97":178578.39999999999,"N_COORD97":2578150.9199999999,"ADDRESS":"復興路３１１號","OBJECTID":581225},"geometry":{"x":178578.40000000037,"y":2578150.9199999999}},{"attributes":{"ID":581253,"DIS_CODE":0,"TOWNNAME":"新營區","LI":"新東里","LIN":"16鄰","STREET":"東泰七街","SECT":" ","MAREA":" ","LANE":" ","ALLEY":" ","HOUSE_NO":"３３號","E_COORD97":181052.79999999999,"N_COORD97":2579747.21,"ADDRESS":"東泰七街３３號","OBJECTID":581226},"geometry":{"x":181052.80000000075,"y":2579747.2100000009}},{"attributes":{"ID":581254,"DIS_CODE":0,"TOWNNAME":"中西區","LI":"郡王里","LIN":"10鄰","STREET":"南門路","SECT":" ","MAREA":" ","LANE":" ","ALLEY":" ","HOUSE_NO":"１５９號","E_COORD97":168433.89000000001,"N_COORD97":2543004.9500000002,"ADDRESS":"南門路１５９號","OBJECTID":581227},"geometry":{"x":168433.88999999966,"y":2543004.9500000011}},{"attributes":{"ID":581255,"DIS_CODE":0,"TOWNNAME":"中西區","LI":"郡王里","LIN":"10鄰","STREET":"南門路","SECT":" ","MAREA":" ","LANE":" ","ALLEY":" ","HOUSE_NO":"１５９號之１","E_COORD97":168433.89000000001,"N_COORD97":2543001.8399999999,"ADDRESS":"南門路１５９號之１","OBJECTID":581228},"geometry":{"x":168433.88999999966,"y":2543001.8400000017}},{"attributes":{"ID":581256,"DIS_CODE":0,"TOWNNAME":"中西區","LI":"郡王里","LIN":"10鄰","STREET":"南門路","SECT":" ","MAREA":" ","LANE":" ","ALLEY":" ","HOUSE_NO":"１５９號之２","E_COORD97":168433.89000000001,"N_COORD97":2542997.6499999999,"ADDRESS":"南門路１５９號之２","OBJECTID":581229},"geometry":{"x":168433.88999999966,"y":2542997.6500000022}},{"attributes":{"ID":581257,"DIS_CODE":0,"TOWNNAME":"中西區","LI":"郡王里","LIN":"10鄰","STREET":"南門路","SECT":" ","MAREA":" ","LANE":" ","ALLEY":" ","HOUSE_NO":"１５９號之３","E_COORD97":168433.89000000001,"N_COORD97":2542993.46,"ADDRESS":"南門路１５９號之３","OBJECTID":581230},"geometry":{"x":168433.88999999966,"y":2542993.4600000009}},{"attributes":{"ID":581258,"DIS_CODE":0,"TOWNNAME":"中西區","LI":"郡王里","LIN":"10鄰","STREET":"南門路","SECT":" ","MAREA":" ","LANE":" ","ALLEY":" ","HOUSE_NO":"１５９號之４","E_COORD97":168434.01000000001,"N_COORD97":2542989.52,"ADDRESS":"南門路１５９號之４","OBJECTID":581231},"geometry":{"x":168434.01000000071,"y":2542989.5200000033}},{"attributes":{"ID":581259,"DIS_CODE":0,"TOWNNAME":"新營區","LI":"延平里","LIN":"16鄰","STREET":"忠義街","SECT":" ","MAREA":" ","LANE":" ","ALLEY":" ","HOUSE_NO":"３３號","E_COORD97":179540.66,"N_COORD97":2577925.9300000002,"ADDRESS":"忠義街３３號","OBJECTID":581232},"geometry":{"x":179540.66000000015,"y":2577925.9300000016}},{"attributes":{"ID":581260,"DIS_CODE":0,"TOWNNAME":"新營區","LI":"民榮里","LIN":"16鄰","STREET":"太子路","SECT":" ","MAREA":" ","LANE":" ","ALLEY":" ","HOUSE_NO":"１７之１號","E_COORD97":178425.01999999999,"N_COORD97":2578134,"ADDRESS":"太子路１７之１號","OBJECTID":581233},"geometry":{"x":178425.02000000048,"y":2578134}},{"attributes":{"ID":581261,"DIS_CODE":0,"TOWNNAME":"六甲區","LI":"二甲里","LIN":"16鄰","STREET":"民權街","SECT":" ","MAREA":" ","LANE":" ","ALLEY":" ","HOUSE_NO":"１２６號","E_COORD97":183274.06,"N_COORD97":2569693.46,"ADDRESS":"民權街１２６號","OBJECTID":581234},"geometry":{"x":183274.05999999959,"y":2569693.4600000009}},{"attributes":{"ID":581262,"DIS_CODE":0,"TOWNNAME":"新營區","LI":"新東里","LIN":"16鄰","STREET":"東智街","SECT":" ","MAREA":" ","LANE":" ","ALLEY":" ","HOUSE_NO":"６７號","E_COORD97":180978.19,"N_COORD97":2579776.3599999999,"ADDRESS":"東智街６７號","OBJECTID":581235},"geometry":{"x":180978.19000000041,"y":2579776.3600000031}},{"attributes":{"ID":581263,"DIS_CODE":0,"TOWNNAME":"新營區","LI":"新東里","LIN":"16鄰","STREET":"東泰九街","SECT":" ","MAREA":" ","LANE":" ","ALLEY":" ","HOUSE_NO":"１８號","E_COORD97":181066.29000000001,"N_COORD97":2579806.9500000002,"ADDRESS":"東泰九街１８號","OBJECTID":581236},"geometry":{"x":181066.29000000097,"y":2579806.9500000011}},{"attributes":{"ID":581264,"DIS_CODE":0,"TOWNNAME":"南區","LI":"大恩里","LIN":"16鄰","STREET":"國民路","SECT":" ","MAREA":" ","LANE":" ","ALLEY":" ","HOUSE_NO":"１６７號","E_COORD97":169178.70000000001,"N_COORD97":2540876.4399999999,"ADDRESS":"國民路１６７號","OBJECTID":581237},"geometry":{"x":169178.70000000112,"y":2540876.4399999995}},{"attributes":{"ID":581265,"DIS_CODE":0,"TOWNNAME":"南區","LI":"大恩里","LIN":"16鄰","STREET":"國民路","SECT":" ","MAREA":" ","LANE":" ","ALLEY":" ","HOUSE_NO":"１６９號","E_COORD97":169175.14999999999,"N_COORD97":2540878.7999999998,"ADDRESS":"國民路１６９號","OBJECTID":581238},"geometry":{"x":169175.15000000037,"y":2540878.8000000007}},{"attributes":{"ID":581266,"DIS_CODE":0,"TOWNNAME":"南區","LI":"大恩里","LIN":"16鄰","STREET":"國民路","SECT":" ","MAREA":" ","LANE":" ","ALLEY":" ","HOUSE_NO":"１７１號","E_COORD97":169170.85999999999,"N_COORD97":2540879.98,"ADDRESS":"國民路１７１號","OBJECTID":581239},"geometry":{"x":169170.86000000127,"y":2540879.9800000023}},{"attributes":{"ID":581267,"DIS_CODE":0,"TOWNNAME":"南區","LI":"大恩里","LIN":"16鄰","STREET":"國民路","SECT":" ","MAREA":" ","LANE":" ","ALLEY":" ","HOUSE_NO":"１７３號","E_COORD97":169166.98999999999,"N_COORD97":2540880.9500000002,"ADDRESS":"國民路１７３號","OBJECTID":581240},"geometry":{"x":169166.99000000115,"y":2540880.950000003}},{"attributes":{"ID":581268,"DIS_CODE":0,"TOWNNAME":"南區","LI":"大恩里","LIN":"16鄰","STREET":"國民路","SECT":" ","MAREA":" ","LANE":" ","ALLEY":" ","HOUSE_NO":"１７５號","E_COORD97":169163.45000000001,"N_COORD97":2540882.6600000001,"ADDRESS":"國民路１７５號","OBJECTID":581241},"geometry":{"x":169163.45000000112,"y":2540882.6600000001}},{"attributes":{"ID":581269,"DIS_CODE":0,"TOWNNAME":"南區","LI":"大恩里","LIN":"16鄰","STREET":"國民路","SECT":" ","MAREA":" ","LANE":" ","ALLEY":" ","HOUSE_NO":"１７７號","E_COORD97":169159.37,"N_COORD97":2540883.4100000001,"ADDRESS":"國民路１７７號","OBJECTID":581242},"geometry":{"x":169159.37000000104,"y":2540883.410000002}},{"attributes":{"ID":581270,"DIS_CODE":0,"TOWNNAME":"南區","LI":"大恩里","LIN":"16鄰","STREET":"國民路","SECT":" ","MAREA":" ","LANE":" ","ALLEY":" ","HOUSE_NO":"１７９號","E_COORD97":169155.29000000001,"N_COORD97":2540883.8399999999,"ADDRESS":"國民路１７９號","OBJECTID":581243},"geometry":{"x":169155.29000000004,"y":2540883.8400000017}},{"attributes":{"ID":581271,"DIS_CODE":0,"TOWNNAME":"南區","LI":"白雪里","LIN":"16鄰","STREET":"金華路","SECT":"一段","MAREA":" ","LANE":" ","ALLEY":" ","HOUSE_NO":"１２３號","E_COORD97":166895.19,"N_COORD97":2540574.77,"ADDRESS":"金華路一段１２３號","OBJECTID":581244},"geometry":{"x":166895.18999999948,"y":2540574.7700000014}},{"attributes":{"ID":581272,"DIS_CODE":0,"TOWNNAME":"南區","LI":"白雪里","LIN":"16鄰","STREET":"金華路","SECT":"一段","MAREA":" ","LANE":" ","ALLEY":" ","HOUSE_NO":"１１７號","E_COORD97":166893.64999999999,"N_COORD97":2540541.8399999999,"ADDRESS":"金華路一段１１７號","OBJECTID":581245},"geometry":{"x":166893.65000000037,"y":2540541.8399999999}},{"attributes":{"ID":581273,"DIS_CODE":0,"TOWNNAME":"南區","LI":"白雪里","LIN":"16鄰","STREET":"金華路","SECT":"一段","MAREA":" ","LANE":" ","ALLEY":" ","HOUSE_NO":"１１９號","E_COORD97":166894.85999999999,"N_COORD97":2540547.4500000002,"ADDRESS":"金華路一段１１９號","OBJECTID":581246},"geometry":{"x":166894.86000000127,"y":2540547.4499999993}},{"attributes":{"ID":581274,"DIS_CODE":0,"TOWNNAME":"南區","LI":"大恩里","LIN":"16鄰","STREET":"國民路","SECT":" ","MAREA":" ","LANE":" ","ALLEY":" ","HOUSE_NO":"２５５號之１","E_COORD97":169006.17000000001,"N_COORD97":2540986.4900000002,"ADDRESS":"國民路２５５號之１","OBJECTID":581247},"geometry":{"x":169006.17000000086,"y":2540986.4900000002}},{"attributes":{"ID":581275,"DIS_CODE":0,"TOWNNAME":"南區","LI":"彰南里","LIN":"16鄰","STREET":"新義路","SECT":" ","MAREA":" ","LANE":" ","ALLEY":" ","HOUSE_NO":"２７號之１","E_COORD97":165783.39999999999,"N_COORD97":2541172.8999999999,"ADDRESS":"新義路２７號之１","OBJECTID":581248},"geometry":{"x":165783.39999999944,"y":2541172.9000000004}},{"attributes":{"ID":581276,"DIS_CODE":0,"TOWNNAME":"中西區","LI":"郡王里","LIN":"15鄰","STREET":"建業街","SECT":" ","MAREA":" ","LANE":" ","ALLEY":" ","HOUSE_NO":"３８號","E_COORD97":168616.32999999999,"N_COORD97":2543165.8900000001,"ADDRESS":"建業街３８號","OBJECTID":581249},"geometry":{"x":168616.33000000194,"y":2543165.8900000025}},{"attributes":{"ID":581277,"DIS_CODE":0,"TOWNNAME":"南區","LI":"白雪里","LIN":"16鄰","STREET":"金華路","SECT":"一段","MAREA":" ","LANE":" ","ALLEY":" ","HOUSE_NO":"１８５號","E_COORD97":166922.67999999999,"N_COORD97":2540751.9500000002,"ADDRESS":"金華路一段１８５號","OBJECTID":581250},"geometry":{"x":166922.6799999997,"y":2540751.950000003}},{"attributes":{"ID":581278,"DIS_CODE":0,"TOWNNAME":"歸仁區","LI":"六甲里","LIN":"16鄰","STREET":"六甲路","SECT":" ","MAREA":" ","LANE":" ","ALLEY":" ","HOUSE_NO":"３０１號","E_COORD97":175791.26999999999,"N_COORD97":2539185.25,"ADDRESS":"六甲路３０１號","OBJECTID":581251},"geometry":{"x":175791.26999999955,"y":2539185.2500000019}},{"attributes":{"ID":581279,"DIS_CODE":0,"TOWNNAME":"歸仁區","LI":"文化里","LIN":"16鄰","STREET":"大德路","SECT":" ","MAREA":" ","LANE":" ","ALLEY":" ","HOUSE_NO":"２０５號","E_COORD97":177236.17000000001,"N_COORD97":2541514.3300000001,"ADDRESS":"大德路２０５號","OBJECTID":581252},"geometry":{"x":177236.17000000086,"y":2541514.3300000019}},{"attributes":{"ID":581280,"DIS_CODE":0,"TOWNNAME":"歸仁區","LI":"六甲里","LIN":"16鄰","STREET":"六甲路","SECT":" ","MAREA":" ","LANE":" ","ALLEY":" ","HOUSE_NO":"２８１號","E_COORD97":175828.37,"N_COORD97":2539209.25,"ADDRESS":"六甲路２８１號","OBJECTID":581253},"geometry":{"x":175828.37000000011,"y":2539209.2500000019}},{"attributes":{"ID":581281,"DIS_CODE":0,"TOWNNAME":"玉井區","LI":"中正里","LIN":"16鄰","STREET":"玉安街","SECT":" ","MAREA":" ","LANE":" ","ALLEY":" ","HOUSE_NO":"１７０號","E_COORD97":195142.67000000001,"N_COORD97":2558603.3100000001,"ADDRESS":"玉安街１７０號","OBJECTID":581254},"geometry":{"x":195142.67000000086,"y":2558603.3100000005}},{"attributes":{"ID":581282,"DIS_CODE":0,"TOWNNAME":"六甲區","LI":"甲東里","LIN":"16鄰","STREET":"裕農街","SECT":" ","MAREA":" ","LANE":" ","ALLEY":" ","HOUSE_NO":"２７號","E_COORD97":184049.91,"N_COORD97":2569694.6299999999,"ADDRESS":"裕農街２７號","OBJECTID":581255},"geometry":{"x":184049.91000000015,"y":2569694.6300000008}},{"attributes":{"ID":581283,"DIS_CODE":0,"TOWNNAME":"新營區","LI":"民權里","LIN":"16鄰","STREET":"中山路","SECT":" ","MAREA":" ","LANE":" ","ALLEY":" ","HOUSE_NO":"２８２之１號","E_COORD97":179827.94,"N_COORD97":2577971.1400000001,"ADDRESS":"中山路２８２之１號","OBJECTID":581256},"geometry":{"x":179827.94000000227,"y":2577971.1400000006}},{"attributes":{"ID":581284,"DIS_CODE":0,"TOWNNAME":"新營區","LI":"新北里","LIN":"16鄰","STREET":"南新街","SECT":" ","MAREA":" ","LANE":" ","ALLEY":" ","HOUSE_NO":"６６號","E_COORD97":179303.76000000001,"N_COORD97":2578886.1099999999,"ADDRESS":"南新街６６號","OBJECTID":581257},"geometry":{"x":179303.76000000071,"y":2578886.1100000031}},{"attributes":{"ID":581285,"DIS_CODE":0,"TOWNNAME":"新營區","LI":"民權里","LIN":"16鄰","STREET":"中山路","SECT":" ","MAREA":" ","LANE":" ","ALLEY":" ","HOUSE_NO":"２９６號","E_COORD97":179816.23999999999,"N_COORD97":2577970.0299999998,"ADDRESS":"中山路２９６號","OBJECTID":581258},"geometry":{"x":179816.24000000115,"y":2577970.0299999993}},{"attributes":{"ID":581286,"DIS_CODE":0,"TOWNNAME":"新營區","LI":"民權里","LIN":"16鄰","STREET":"民權路","SECT":" ","MAREA":" ","LANE":" ","ALLEY":" ","HOUSE_NO":"１４之１號","E_COORD97":179769.60000000001,"N_COORD97":2578025.6800000002,"ADDRESS":"民權路１４之１號","OBJECTID":581259},"geometry":{"x":179769.59999999963,"y":2578025.6800000016}},{"attributes":{"ID":581287,"DIS_CODE":0,"TOWNNAME":"新營區","LI":"新東里","LIN":"16鄰","STREET":"長榮路","SECT":"一段","MAREA":" ","LANE":" ","ALLEY":" ","HOUSE_NO":"２８１號","E_COORD97":181017.70999999999,"N_COORD97":2579854.7999999998,"ADDRESS":"長榮路一段２８１號","OBJECTID":581260},"geometry":{"x":181017.71000000089,"y":2579854.8000000007}},{"attributes":{"ID":581288,"DIS_CODE":0,"TOWNNAME":"新營區","LI":"新北里","LIN":"16鄰","STREET":"南新街","SECT":" ","MAREA":" ","LANE":" ","ALLEY":" ","HOUSE_NO":"９４號","E_COORD97":179260.69,"N_COORD97":2578871.9199999999,"ADDRESS":"南新街９４號","OBJECTID":581261},"geometry":{"x":179260.69000000134,"y":2578871.9200000018}},{"attributes":{"ID":581289,"DIS_CODE":0,"TOWNNAME":"新營區","LI":"新北里","LIN":"16鄰","STREET":"南新街","SECT":" ","MAREA":" ","LANE":" ","ALLEY":" ","HOUSE_NO":"１１０號","E_COORD97":179247.79000000001,"N_COORD97":2578901.8799999999,"ADDRESS":"南新街１１０號","OBJECTID":581262},"geometry":{"x":179247.79000000097,"y":2578901.8800000008}},{"attributes":{"ID":581290,"DIS_CODE":0,"TOWNNAME":"新營區","LI":"大宏里","LIN":"16鄰","STREET":"綠川北街","SECT":" ","MAREA":" ","LANE":" ","ALLEY":" ","HOUSE_NO":"２０號","E_COORD97":180747.70999999999,"N_COORD97":2578811.73,"ADDRESS":"綠川北街２０號","OBJECTID":581263},"geometry":{"x":180747.71000000183,"y":2578811.7300000042}},{"attributes":{"ID":581291,"DIS_CODE":0,"TOWNNAME":"新營區","LI":"三仙里","LIN":"16鄰","STREET":"武昌街","SECT":" ","MAREA":" ","LANE":" ","ALLEY":" ","HOUSE_NO":"７４之２號","E_COORD97":179587.01999999999,"N_COORD97":2578343.2799999998,"ADDRESS":"武昌街７４之２號","OBJECTID":581264},"geometry":{"x":179587.01999999955,"y":2578343.2800000012}},{"attributes":{"ID":581292,"DIS_CODE":0,"TOWNNAME":"歸仁區","LI":"七甲里","LIN":"16鄰","STREET":"南潭二街","SECT":" ","MAREA":" ","LANE":" ","ALLEY":" ","HOUSE_NO":"１５６號","E_COORD97":176501.64000000001,"N_COORD97":2543005.0099999998,"ADDRESS":"南潭二街１５６號","OBJECTID":581265},"geometry":{"x":176501.6400000006,"y":2543005.0100000016}},{"attributes":{"ID":581293,"DIS_CODE":0,"TOWNNAME":"歸仁區","LI":"八甲里","LIN":"16鄰","STREET":"大明三街","SECT":" ","MAREA":" ","LANE":" ","ALLEY":" ","HOUSE_NO":"８７號","E_COORD97":178049.42000000001,"N_COORD97":2541643.6099999999,"ADDRESS":"大明三街８７號","OBJECTID":581266},"geometry":{"x":178049.42000000086,"y":2541643.6100000013}},{"attributes":{"ID":581294,"DIS_CODE":0,"TOWNNAME":"中西區","LI":"郡王里","LIN":"15鄰","STREET":"南門路","SECT":" ","MAREA":" ","LANE":" ","ALLEY":" ","HOUSE_NO":"１０１號底一層之１","E_COORD97":168451.78,"N_COORD97":2543169.04,"ADDRESS":"南門路１０１號底一層之１","OBJECTID":581267},"geometry":{"x":168451.78000000026,"y":2543169.040000001}},{"attributes":{"ID":581295,"DIS_CODE":0,"TOWNNAME":"中西區","LI":"郡王里","LIN":"15鄰","STREET":"南門路","SECT":" ","MAREA":" ","LANE":" ","ALLEY":" ","HOUSE_NO":"１０１號底一層之２","E_COORD97":168451.78,"N_COORD97":2543169.04,"ADDRESS":"南門路１０１號底一層之２","OBJECTID":581268},"geometry":{"x":168451.78000000026,"y":2543169.040000001}},{"attributes":{"ID":581296,"DIS_CODE":0,"TOWNNAME":"中西區","LI":"郡王里","LIN":"15鄰","STREET":"建業街","SECT":" ","MAREA":" ","LANE":" ","ALLEY":" ","HOUSE_NO":"２６號","E_COORD97":168652.14999999999,"N_COORD97":2543165.1200000001,"ADDRESS":"建業街２６號","OBJECTID":581269},"geometry":{"x":168652.1500000013,"y":2543165.120000001}},{"attributes":{"ID":581297,"DIS_CODE":0,"TOWNNAME":"中西區","LI":"郡王里","LIN":"15鄰","STREET":"建業街","SECT":" ","MAREA":" ","LANE":" ","ALLEY":" ","HOUSE_NO":"２８號","E_COORD97":168643.64999999999,"N_COORD97":2543167.8599999999,"ADDRESS":"建業街２８號","OBJECTID":581270},"geometry":{"x":168643.6500000013,"y":2543167.8600000013}},{"attributes":{"ID":581298,"DIS_CODE":0,"TOWNNAME":"中西區","LI":"郡王里","LIN":"15鄰","STREET":"建業街","SECT":" ","MAREA":" ","LANE":" ","ALLEY":" ","HOUSE_NO":"３０號","E_COORD97":168636.51000000001,"N_COORD97":2543166.8999999999,"ADDRESS":"建業街３０號","OBJECTID":581271},"geometry":{"x":168636.50999999978,"y":2543166.9000000004}},{"attributes":{"ID":581299,"DIS_CODE":0,"TOWNNAME":"中西區","LI":"郡王里","LIN":"15鄰","STREET":"建業街","SECT":" ","MAREA":" ","LANE":" ","ALLEY":" ","HOUSE_NO":"３２號","E_COORD97":168630.88,"N_COORD97":2543166.0800000001,"ADDRESS":"建業街３２號","OBJECTID":581272},"geometry":{"x":168630.87999999896,"y":2543166.0800000038}},{"attributes":{"ID":581300,"DIS_CODE":0,"TOWNNAME":"中西區","LI":"郡王里","LIN":"15鄰","STREET":"建業街","SECT":" ","MAREA":" ","LANE":" ","ALLEY":" ","HOUSE_NO":"３４號","E_COORD97":168626.39999999999,"N_COORD97":2543166.29,"ADDRESS":"建業街３４號","OBJECTID":581273},"geometry":{"x":168626.40000000224,"y":2543166.2899999991}},{"attributes":{"ID":581301,"DIS_CODE":0,"TOWNNAME":"中西區","LI":"郡王里","LIN":"15鄰","STREET":"建業街","SECT":" ","MAREA":" ","LANE":" ","ALLEY":" ","HOUSE_NO":"３６號","E_COORD97":168621.09,"N_COORD97":2543166.1600000001,"ADDRESS":"建業街３６號","OBJECTID":581274},"geometry":{"x":168621.09000000171,"y":2543166.160000002}},{"attributes":{"ID":581302,"DIS_CODE":0,"TOWNNAME":"北區","LI":"大豐里","LIN":"16鄰","STREET":"武聖路","SECT":" ","MAREA":" ","LANE":" ","ALLEY":" ","HOUSE_NO":"１６２號","E_COORD97":166938.87,"N_COORD97":2545270.0600000001,"ADDRESS":"武聖路１６２號","OBJECTID":581275},"geometry":{"x":166938.87000000011,"y":2545270.0600000024}},{"attributes":{"ID":581303,"DIS_CODE":0,"TOWNNAME":"北區","LI":"六甲里","LIN":"16鄰","STREET":"西門路","SECT":"四段","MAREA":" ","LANE":" ","ALLEY":" ","HOUSE_NO":"３０４號","E_COORD97":168956.76999999999,"N_COORD97":2545926.8599999999,"ADDRESS":"西門路四段３０４號","OBJECTID":581276},"geometry":{"x":168956.76999999862,"y":2545926.8600000013}},{"attributes":{"ID":581304,"DIS_CODE":0,"TOWNNAME":"北區","LI":"實踐里","LIN":"16鄰","STREET":"長榮路","SECT":"五段","MAREA":" ","LANE":" ","ALLEY":" ","HOUSE_NO":"３９６號","E_COORD97":169503.25,"N_COORD97":2545970.5099999998,"ADDRESS":"長榮路五段３９６號","OBJECTID":581277},"geometry":{"x":169503.24999999907,"y":2545970.5100000016}},{"attributes":{"ID":581305,"DIS_CODE":0,"TOWNNAME":"北區","LI":"實踐里","LIN":"16鄰","STREET":"長榮路","SECT":"五段","MAREA":" ","LANE":" ","ALLEY":" ","HOUSE_NO":"３９８號","E_COORD97":169500.10000000001,"N_COORD97":2545971.4900000002,"ADDRESS":"長榮路五段３９８號","OBJECTID":581278},"geometry":{"x":169500.09999999963,"y":2545971.4900000021}},{"attributes":{"ID":581306,"DIS_CODE":0,"TOWNNAME":"北區","LI":"實踐里","LIN":"16鄰","STREET":"長榮路","SECT":"五段","MAREA":" ","LANE":" ","ALLEY":" ","HOUSE_NO":"４００號","E_COORD97":169497.64000000001,"N_COORD97":2545972.4700000002,"ADDRESS":"長榮路五段４００號","OBJECTID":581279},"geometry":{"x":169497.6400000006,"y":2545972.4700000025}},{"attributes":{"ID":581307,"DIS_CODE":0,"TOWNNAME":"北區","LI":"實踐里","LIN":"16鄰","STREET":"長榮路","SECT":"五段","MAREA":" ","LANE":" ","ALLEY":" ","HOUSE_NO":"４０２號","E_COORD97":169490.35999999999,"N_COORD97":2545975.1299999999,"ADDRESS":"長榮路五段４０２號","OBJECTID":581280},"geometry":{"x":169490.36000000034,"y":2545975.1300000027}},{"attributes":{"ID":581308,"DIS_CODE":0,"TOWNNAME":"中西區","LI":"郡王里","LIN":"15鄰","STREET":"建業街","SECT":" ","MAREA":" ","LANE":" ","ALLEY":" ","HOUSE_NO":"３８號之１","E_COORD97":168604.48000000001,"N_COORD97":2543165,"ADDRESS":"建業街３８號之１","OBJECTID":581281},"geometry":{"x":168604.48000000138,"y":2543165}},{"attributes":{"ID":581309,"DIS_CODE":0,"TOWNNAME":"中西區","LI":"郡王里","LIN":"15鄰","STREET":"建業街","SECT":" ","MAREA":" ","LANE":" ","ALLEY":" ","HOUSE_NO":"４０號","E_COORD97":168597.31,"N_COORD97":2543164.3900000001,"ADDRESS":"建業街４０號","OBJECTID":581282},"geometry":{"x":168597.31000000145,"y":2543164.3900000043}},{"attributes":{"ID":581310,"DIS_CODE":0,"TOWNNAME":"中西區","LI":"郡王里","LIN":"15鄰","STREET":"建業街","SECT":" ","MAREA":" ","LANE":" ","ALLEY":" ","HOUSE_NO":"４２號","E_COORD97":168593.5,"N_COORD97":2543164.3199999998,"ADDRESS":"建業街４２號","OBJECTID":581283},"geometry":{"x":168593.50000000093,"y":2543164.3200000003}},{"attributes":{"ID":581311,"DIS_CODE":0,"TOWNNAME":"中西區","LI":"郡王里","LIN":"15鄰","STREET":"建業街","SECT":" ","MAREA":" ","LANE":" ","ALLEY":" ","HOUSE_NO":"４２號之１","E_COORD97":168589.22,"N_COORD97":2543164.3199999998,"ADDRESS":"建業街４２號之１","OBJECTID":581284},"geometry":{"x":168589.21999999974,"y":2543164.3200000003}},{"attributes":{"ID":581312,"DIS_CODE":0,"TOWNNAME":"中西區","LI":"郡王里","LIN":"15鄰","STREET":"建業街","SECT":" ","MAREA":" ","LANE":" ","ALLEY":" ","HOUSE_NO":"４６號","E_COORD97":168584.98000000001,"N_COORD97":2543164.1099999999,"ADDRESS":"建業街４６號","OBJECTID":581285},"geometry":{"x":168584.98000000045,"y":2543164.1099999994}},{"attributes":{"ID":581313,"DIS_CODE":0,"TOWNNAME":"中西區","LI":"郡王里","LIN":"15鄰","STREET":"建業街","SECT":" ","MAREA":" ","LANE":" ","ALLEY":" ","HOUSE_NO":"４６號之１","E_COORD97":168580.35999999999,"N_COORD97":2543164.0499999998,"ADDRESS":"建業街４６號之１","OBJECTID":581286},"geometry":{"x":168580.36000000034,"y":2543164.0500000026}},{"attributes":{"ID":581314,"DIS_CODE":0,"TOWNNAME":"中西區","LI":"郡王里","LIN":"15鄰","STREET":"建業街","SECT":" ","MAREA":" ","LANE":" ","ALLEY":" ","HOUSE_NO":"４８號","E_COORD97":168574.85000000001,"N_COORD97":2543164.25,"ADDRESS":"建業街４８號","OBJECTID":581287},"geometry":{"x":168574.84999999963,"y":2543164.25}},{"attributes":{"ID":581315,"DIS_CODE":0,"TOWNNAME":"南區","LI":"金華里","LIN":"16鄰","STREET":"惠南街","SECT":" ","MAREA":" ","LANE":" ","ALLEY":" ","HOUSE_NO":"４５號","E_COORD97":166742.03,"N_COORD97":2542124.3300000001,"ADDRESS":"惠南街４５號","OBJECTID":581288},"geometry":{"x":166742.03000000212,"y":2542124.3300000019}},{"attributes":{"ID":581316,"DIS_CODE":0,"TOWNNAME":"南區","LI":"金華里","LIN":"16鄰","STREET":"惠南街","SECT":" ","MAREA":" ","LANE":" ","ALLEY":" ","HOUSE_NO":"４９號","E_COORD97":166745.54000000001,"N_COORD97":2542146.9700000002,"ADDRESS":"惠南街４９號","OBJECTID":581289},"geometry":{"x":166745.54000000097,"y":2542146.9700000044}},{"attributes":{"ID":581317,"DIS_CODE":0,"TOWNNAME":"南區","LI":"金華里","LIN":"16鄰","STREET":"惠南街","SECT":" ","MAREA":" ","LANE":" ","ALLEY":" ","HOUSE_NO":"５１號","E_COORD97":166745.98000000001,"N_COORD97":2542156.3900000001,"ADDRESS":"惠南街５１號","OBJECTID":581290},"geometry":{"x":166745.98000000231,"y":2542156.3900000006}},{"attributes":{"ID":581318,"DIS_CODE":0,"TOWNNAME":"中西區","LI":"郡王里","LIN":"12鄰","STREET":"南門路","SECT":" ","MAREA":" ","LANE":" ","ALLEY":" ","HOUSE_NO":"１２１號底一層","E_COORD97":168443.82000000001,"N_COORD97":2543064.3900000001,"ADDRESS":"南門路１２１號底一層","OBJECTID":581291},"geometry":{"x":168443.82000000216,"y":2543064.3900000025}},{"attributes":{"ID":581319,"DIS_CODE":0,"TOWNNAME":"中西區","LI":"郡王里","LIN":"12鄰","STREET":"南門路","SECT":" ","MAREA":" ","LANE":" ","ALLEY":" ","HOUSE_NO":"１２７號","E_COORD97":168463.35000000001,"N_COORD97":2543052.9100000001,"ADDRESS":"南門路１２７號","OBJECTID":581292},"geometry":{"x":168463.35000000056,"y":2543052.910000002}},{"attributes":{"ID":581320,"DIS_CODE":0,"TOWNNAME":"中西區","LI":"郡王里","LIN":"12鄰","STREET":"南門路","SECT":" ","MAREA":" ","LANE":" ","ALLEY":" ","HOUSE_NO":"１２９號","E_COORD97":168465.25,"N_COORD97":2543063.5299999998,"ADDRESS":"南門路１２９號","OBJECTID":581293},"geometry":{"x":168465.25,"y":2543063.5299999993}},{"attributes":{"ID":581321,"DIS_CODE":0,"TOWNNAME":"中西區","LI":"郡王里","LIN":"12鄰","STREET":"南門路","SECT":" ","MAREA":" ","LANE":" ","ALLEY":" ","HOUSE_NO":"１３５號","E_COORD97":168479.57000000001,"N_COORD97":2543046.8799999999,"ADDRESS":"南門路１３５號","OBJECTID":581294},"geometry":{"x":168479.57000000123,"y":2543046.879999999}},{"attributes":{"ID":581322,"DIS_CODE":0,"TOWNNAME":"中西區","LI":"郡王里","LIN":"12鄰","STREET":"南門路","SECT":" ","MAREA":" ","LANE":" ","ALLEY":" ","HOUSE_NO":"１３７號","E_COORD97":168502.70999999999,"N_COORD97":2543064.7400000002,"ADDRESS":"南門路１３７號","OBJECTID":581295},"geometry":{"x":168502.70999999996,"y":2543064.7400000021}},{"attributes":{"ID":581323,"DIS_CODE":0,"TOWNNAME":"中西區","LI":"郡王里","LIN":"12鄰","STREET":"南門路","SECT":" ","MAREA":" ","LANE":" ","ALLEY":" ","HOUSE_NO":"１３７號之１","E_COORD97":168501.79000000001,"N_COORD97":2543057.7799999998,"ADDRESS":"南門路１３７號之１","OBJECTID":581296},"geometry":{"x":168501.79000000097,"y":2543057.7799999993}},{"attributes":{"ID":581324,"DIS_CODE":0,"TOWNNAME":"中西區","LI":"郡王里","LIN":"12鄰","STREET":"南門路","SECT":" ","MAREA":" ","LANE":" ","ALLEY":" ","HOUSE_NO":"１３７號之２","E_COORD97":168501.53,"N_COORD97":2543049.5,"ADDRESS":"南門路１３７號之２","OBJECTID":581297},"geometry":{"x":168501.53000000212,"y":2543049.5000000019}},{"attributes":{"ID":581325,"DIS_CODE":0,"TOWNNAME":"安平區","LI":"平通里","LIN":"16鄰","STREET":"國平路","SECT":" ","MAREA":" ","LANE":" ","ALLEY":" ","HOUSE_NO":"３８３號","E_COORD97":165038.07000000001,"N_COORD97":2543835.04,"ADDRESS":"國平路３８３號","OBJECTID":581298},"geometry":{"x":165038.07000000216,"y":2543835.0399999991}},{"attributes":{"ID":581326,"DIS_CODE":0,"TOWNNAME":"安平區","LI":"平通里","LIN":"16鄰","STREET":"平通路","SECT":" ","MAREA":" ","LANE":" ","ALLEY":" ","HOUSE_NO":"５４６號","E_COORD97":165024.48999999999,"N_COORD97":2543828.9100000001,"ADDRESS":"平通路５４６號","OBJECTID":581299},"geometry":{"x":165024.49000000022,"y":2543828.910000002}},{"attributes":{"ID":581327,"DIS_CODE":0,"TOWNNAME":"安平區","LI":"平通里","LIN":"16鄰","STREET":"國平路","SECT":" ","MAREA":" ","LANE":" ","ALLEY":" ","HOUSE_NO":"３８１號","E_COORD97":165037.67000000001,"N_COORD97":2543828.9199999999,"ADDRESS":"國平路３８１號","OBJECTID":581300},"geometry":{"x":165037.67000000086,"y":2543828.9200000018}},{"attributes":{"ID":581328,"DIS_CODE":0,"TOWNNAME":"安平區","LI":"平通里","LIN":"16鄰","STREET":"國平路","SECT":" ","MAREA":" ","LANE":" ","ALLEY":" ","HOUSE_NO":"３８５號","E_COORD97":165038.39000000001,"N_COORD97":2543841.2400000002,"ADDRESS":"國平路３８５號","OBJECTID":581301},"geometry":{"x":165038.38999999966,"y":2543841.2400000021}},{"attributes":{"ID":581329,"DIS_CODE":0,"TOWNNAME":"安平區","LI":"平通里","LIN":"16鄰","STREET":"國平路","SECT":" ","MAREA":" ","LANE":" ","ALLEY":" ","HOUSE_NO":"３８７號","E_COORD97":165039.04000000001,"N_COORD97":2543846.9900000002,"ADDRESS":"國平路３８７號","OBJECTID":581302},"geometry":{"x":165039.04000000004,"y":2543846.9900000002}},{"attributes":{"ID":581330,"DIS_CODE":0,"TOWNNAME":"安平區","LI":"平通里","LIN":"16鄰","STREET":"國平路","SECT":" ","MAREA":" ","LANE":" ","ALLEY":" ","HOUSE_NO":"３９１號","E_COORD97":165040.01000000001,"N_COORD97":2543856.0099999998,"ADDRESS":"國平路３９１號","OBJECTID":581303},"geometry":{"x":165040.01000000071,"y":2543856.0100000016}},{"attributes":{"ID":581331,"DIS_CODE":0,"TOWNNAME":"安平區","LI":"平通里","LIN":"16鄰","STREET":"國平路","SECT":" ","MAREA":" ","LANE":" ","ALLEY":" ","HOUSE_NO":"３９３號","E_COORD97":165041.13,"N_COORD97":2543860.3599999999,"ADDRESS":"國平路３９３號","OBJECTID":581304},"geometry":{"x":165041.13000000082,"y":2543860.3599999994}},{"attributes":{"ID":581332,"DIS_CODE":0,"TOWNNAME":"安平區","LI":"平通里","LIN":"16鄰","STREET":"國平路","SECT":" ","MAREA":" ","LANE":" ","ALLEY":" ","HOUSE_NO":"３９５號","E_COORD97":165042.10000000001,"N_COORD97":2543864.4700000002,"ADDRESS":"國平路３９５號","OBJECTID":581305},"geometry":{"x":165042.0999999987,"y":2543864.4700000007}},{"attributes":{"ID":581333,"DIS_CODE":0,"TOWNNAME":"安平區","LI":"平通里","LIN":"16鄰","STREET":"國平路","SECT":" ","MAREA":" ","LANE":" ","ALLEY":" ","HOUSE_NO":"３９７號","E_COORD97":165042.5,"N_COORD97":2543868.8999999999,"ADDRESS":"國平路３９７號","OBJECTID":581306},"geometry":{"x":165042.5,"y":2543868.9000000004}},{"attributes":{"ID":581334,"DIS_CODE":0,"TOWNNAME":"安平區","LI":"平通里","LIN":"16鄰","STREET":"國平路","SECT":" ","MAREA":" ","LANE":" ","ALLEY":" ","HOUSE_NO":"３９９號","E_COORD97":165043.07000000001,"N_COORD97":2543874.29,"ADDRESS":"國平路３９９號","OBJECTID":581307},"geometry":{"x":165043.06999999937,"y":2543874.2899999991}},{"attributes":{"ID":581335,"DIS_CODE":0,"TOWNNAME":"安平區","LI":"平通里","LIN":"16鄰","STREET":"國平路","SECT":" ","MAREA":" ","LANE":" ","ALLEY":" ","HOUSE_NO":"４０１號","E_COORD97":165039.20000000001,"N_COORD97":2543885.7999999998,"ADDRESS":"國平路４０１號","OBJECTID":581308},"geometry":{"x":165039.20000000112,"y":2543885.8000000007}},{"attributes":{"ID":581336,"DIS_CODE":0,"TOWNNAME":"安平區","LI":"平通里","LIN":"16鄰","STREET":"國平路","SECT":" ","MAREA":" ","LANE":" ","ALLEY":" ","HOUSE_NO":"４０３號","E_COORD97":165039.76000000001,"N_COORD97":2543890.23,"ADDRESS":"國平路４０３號","OBJECTID":581309},"geometry":{"x":165039.76000000071,"y":2543890.2300000004}},{"attributes":{"ID":581337,"DIS_CODE":0,"TOWNNAME":"安平區","LI":"平通里","LIN":"16鄰","STREET":"國平路","SECT":" ","MAREA":" ","LANE":" ","ALLEY":" ","HOUSE_NO":"４０５號","E_COORD97":165040.01000000001,"N_COORD97":2543894.8999999999,"ADDRESS":"國平路４０５號","OBJECTID":581310},"geometry":{"x":165040.01000000071,"y":2543894.9000000004}},{"attributes":{"ID":581338,"DIS_CODE":0,"TOWNNAME":"中西區","LI":"青年里","LIN":"9鄰","STREET":"衛民街","SECT":" ","MAREA":" ","LANE":" ","ALLEY":" ","HOUSE_NO":"９７號","E_COORD97":168886.92999999999,"N_COORD97":2543728.6499999999,"ADDRESS":"衛民街９７號","OBJECTID":581311},"geometry":{"x":168886.93000000063,"y":2543728.6500000041}},{"attributes":{"ID":581339,"DIS_CODE":0,"TOWNNAME":"安平區","LI":"海頭里","LIN":"16鄰","STREET":"古堡街","SECT":" ","MAREA":" ","LANE":" ","ALLEY":" ","HOUSE_NO":"１００號","E_COORD97":163922.62,"N_COORD97":2544908.1000000001,"ADDRESS":"古堡街１００號","OBJECTID":581312},"geometry":{"x":163922.62000000104,"y":2544908.1000000034}},{"attributes":{"ID":581340,"DIS_CODE":0,"TOWNNAME":"安平區","LI":"海頭里","LIN":"16鄰","STREET":"古堡街","SECT":" ","MAREA":" ","LANE":" ","ALLEY":" ","HOUSE_NO":"１０４號","E_COORD97":163893.98999999999,"N_COORD97":2544904.8599999999,"ADDRESS":"古堡街１０４號","OBJECTID":581313},"geometry":{"x":163893.99000000022,"y":2544904.8599999994}},{"attributes":{"ID":581341,"DIS_CODE":0,"TOWNNAME":"安平區","LI":"海頭里","LIN":"16鄰","STREET":"古堡街","SECT":" ","MAREA":" ","LANE":" ","ALLEY":" ","HOUSE_NO":"９２號","E_COORD97":163938.10000000001,"N_COORD97":2544909.8999999999,"ADDRESS":"古堡街９２號","OBJECTID":581314},"geometry":{"x":163938.09999999963,"y":2544909.9000000004}},{"attributes":{"ID":581342,"DIS_CODE":0,"TOWNNAME":"安平區","LI":"海頭里","LIN":"16鄰","STREET":"古堡街","SECT":" ","MAREA":" ","LANE":" ","ALLEY":" ","HOUSE_NO":"９４號","E_COORD97":163934.67999999999,"N_COORD97":2544907.7400000002,"ADDRESS":"古堡街９４號","OBJECTID":581315},"geometry":{"x":163934.67999999877,"y":2544907.7400000039}},{"attributes":{"ID":581343,"DIS_CODE":0,"TOWNNAME":"安平區","LI":"海頭里","LIN":"16鄰","STREET":"古堡街","SECT":" ","MAREA":" ","LANE":" ","ALLEY":" ","HOUSE_NO":"９６號","E_COORD97":163930.45000000001,"N_COORD97":2544908.1000000001,"ADDRESS":"古堡街９６號","OBJECTID":581316},"geometry":{"x":163930.45000000112,"y":2544908.1000000034}},{"attributes":{"ID":581344,"DIS_CODE":0,"TOWNNAME":"歸仁區","LI":"新厝里","LIN":"16鄰","STREET":"大成路","SECT":" ","MAREA":" ","LANE":" ","ALLEY":" ","HOUSE_NO":"３８號","E_COORD97":177589.26999999999,"N_COORD97":2540420.5899999999,"ADDRESS":"大成路３８號","OBJECTID":581317},"geometry":{"x":177589.27000000048,"y":2540420.5900000017}},{"attributes":{"ID":581345,"DIS_CODE":0,"TOWNNAME":"新營區","LI":"民權里","LIN":"16鄰","STREET":"民權路","SECT":" ","MAREA":" ","LANE":" ","ALLEY":" ","HOUSE_NO":"３０之２號","E_COORD97":179753.67000000001,"N_COORD97":2578097.73,"ADDRESS":"民權路３０之２號","OBJECTID":581318},"geometry":{"x":179753.67000000086,"y":2578097.7300000023}},{"attributes":{"ID":581346,"DIS_CODE":0,"TOWNNAME":"新營區","LI":"南紙里","LIN":"16鄰","STREET":"南紙街","SECT":" ","MAREA":" ","LANE":" ","ALLEY":" ","HOUSE_NO":"１５８號","E_COORD97":177778.42999999999,"N_COORD97":2577315.3500000001,"ADDRESS":"南紙街１５８號","OBJECTID":581319},"geometry":{"x":177778.43000000063,"y":2577315.3500000015}},{"attributes":{"ID":581347,"DIS_CODE":0,"TOWNNAME":"新營區","LI":"大宏里","LIN":"16鄰","STREET":"民治東路","SECT":" ","MAREA":" ","LANE":" ","ALLEY":" ","HOUSE_NO":"７號","E_COORD97":180733.47,"N_COORD97":2578885.9900000002,"ADDRESS":"民治東路７號","OBJECTID":581320},"geometry":{"x":180733.46999999974,"y":2578885.9900000021}},{"attributes":{"ID":581348,"DIS_CODE":0,"TOWNNAME":"新營區","LI":"新東里","LIN":"16鄰","STREET":"東泰七街","SECT":" ","MAREA":" ","LANE":" ","ALLEY":" ","HOUSE_NO":"４１號","E_COORD97":181033.35000000001,"N_COORD97":2579746.1899999999,"ADDRESS":"東泰七街４１號","OBJECTID":581321},"geometry":{"x":181033.35000000056,"y":2579746.1899999995}},{"attributes":{"ID":581349,"DIS_CODE":0,"TOWNNAME":"新營區","LI":"新東里","LIN":"16鄰","STREET":"東泰七街","SECT":" ","MAREA":" ","LANE":" ","ALLEY":" ","HOUSE_NO":"４７號","E_COORD97":181020.04999999999,"N_COORD97":2579745.1499999999,"ADDRESS":"東泰七街４７號","OBJECTID":581322},"geometry":{"x":181020.05000000168,"y":2579745.1500000022}},{"attributes":{"ID":581350,"DIS_CODE":0,"TOWNNAME":"鹽水區","LI":"橋南里","LIN":"16鄰","STREET":"月津路","SECT":" ","MAREA":" ","LANE":" ","ALLEY":" ","HOUSE_NO":"１２１號","E_COORD97":174850.03,"N_COORD97":2579135.0699999998,"ADDRESS":"月津路１２１號","OBJECTID":581323},"geometry":{"x":174850.03000000212,"y":2579135.070000004}},{"attributes":{"ID":581351,"DIS_CODE":0,"TOWNNAME":"鹽水區","LI":"橋南里","LIN":"16鄰","STREET":"月津路","SECT":" ","MAREA":" ","LANE":" ","ALLEY":" ","HOUSE_NO":"１２３號","E_COORD97":174847.72,"N_COORD97":2579131.1800000002,"ADDRESS":"月津路１２３號","OBJECTID":581324},"geometry":{"x":174847.71999999974,"y":2579131.1800000016}},{"attributes":{"ID":581352,"DIS_CODE":0,"TOWNNAME":"鹽水區","LI":"橋南里","LIN":"16鄰","STREET":"月津路","SECT":" ","MAREA":" ","LANE":" ","ALLEY":" ","HOUSE_NO":"１２５號","E_COORD97":174845.48999999999,"N_COORD97":2579127.1099999999,"ADDRESS":"月津路１２５號","OBJECTID":581325},"geometry":{"x":174845.49000000115,"y":2579127.1100000031}},{"attributes":{"ID":581353,"DIS_CODE":0,"TOWNNAME":"東區","LI":"虎尾里","LIN":"16鄰","STREET":"東成街","SECT":" ","MAREA":" ","LANE":" ","ALLEY":" ","HOUSE_NO":"８２號之４","E_COORD97":171472.28,"N_COORD97":2542264.73,"ADDRESS":"東成街８２號之４","OBJECTID":581326},"geometry":{"x":171472.28000000119,"y":2542264.7300000023}},{"attributes":{"ID":581354,"DIS_CODE":0,"TOWNNAME":"中西區","LI":"永華里","LIN":"1鄰","STREET":"府前路","SECT":"一段","MAREA":" ","LANE":" ","ALLEY":" ","HOUSE_NO":"１５２號","E_COORD97":168707.48000000001,"N_COORD97":2543299.1200000001,"ADDRESS":"府前路一段１５２號","OBJECTID":581327},"geometry":{"x":168707.48000000138,"y":2543299.1200000048}},{"attributes":{"ID":581355,"DIS_CODE":0,"TOWNNAME":"中西區","LI":"永華里","LIN":"1鄰","STREET":"府前路","SECT":"一段","MAREA":" ","LANE":" ","ALLEY":" ","HOUSE_NO":"１５４號","E_COORD97":168704.06,"N_COORD97":2543297.4199999999,"ADDRESS":"府前路一段１５４號","OBJECTID":581328},"geometry":{"x":168704.06000000145,"y":2543297.4200000018}},{"attributes":{"ID":581356,"DIS_CODE":0,"TOWNNAME":"中西區","LI":"永華里","LIN":"1鄰","STREET":"府前路","SECT":"一段","MAREA":" ","LANE":" ","ALLEY":" ","HOUSE_NO":"１５６號","E_COORD97":168699.98000000001,"N_COORD97":2543298.1600000001,"ADDRESS":"府前路一段１５６號","OBJECTID":581329},"geometry":{"x":168699.98000000045,"y":2543298.160000002}},{"attributes":{"ID":581357,"DIS_CODE":0,"TOWNNAME":"中西區","LI":"永華里","LIN":"1鄰","STREET":"府前路","SECT":"一段","MAREA":" ","LANE":" ","ALLEY":" ","HOUSE_NO":"１５８號","E_COORD97":168695.64999999999,"N_COORD97":2543298.9700000002,"ADDRESS":"府前路一段１５８號","OBJECTID":581330},"geometry":{"x":168695.65000000037,"y":2543298.9700000007}},{"attributes":{"ID":581358,"DIS_CODE":0,"TOWNNAME":"中西區","LI":"永華里","LIN":"1鄰","STREET":"府前路","SECT":"一段","MAREA":" ","LANE":" ","ALLEY":" ","HOUSE_NO":"１６０號","E_COORD97":168692.23999999999,"N_COORD97":2543300.3100000001,"ADDRESS":"府前路一段１６０號","OBJECTID":581331},"geometry":{"x":168692.24000000115,"y":2543300.3099999987}},{"attributes":{"ID":581359,"DIS_CODE":0,"TOWNNAME":"中西區","LI":"永華里","LIN":"1鄰","STREET":"府前路","SECT":"一段","MAREA":" ","LANE":" ","ALLEY":" ","HOUSE_NO":"１６２號","E_COORD97":168688.75,"N_COORD97":2543298.5299999998,"ADDRESS":"府前路一段１６２號","OBJECTID":581332},"geometry":{"x":168688.75000000093,"y":2543298.5300000012}},{"attributes":{"ID":581360,"DIS_CODE":0,"TOWNNAME":"中西區","LI":"永華里","LIN":"1鄰","STREET":"府前路","SECT":"一段","MAREA":" ","LANE":" ","ALLEY":" ","HOUSE_NO":"１６４號","E_COORD97":168684.95999999999,"N_COORD97":2543300.3799999999,"ADDRESS":"府前路一段１６４號","OBJECTID":581333},"geometry":{"x":168684.96000000089,"y":2543300.379999999}},{"attributes":{"ID":581361,"DIS_CODE":0,"TOWNNAME":"中西區","LI":"永華里","LIN":"1鄰","STREET":"府前路","SECT":"一段","MAREA":" ","LANE":" ","ALLEY":" ","HOUSE_NO":"１６６號","E_COORD97":168681.62,"N_COORD97":2543298.8300000001,"ADDRESS":"府前路一段１６６號","OBJECTID":581334},"geometry":{"x":168681.62000000011,"y":2543298.8300000001}},{"attributes":{"ID":581362,"DIS_CODE":0,"TOWNNAME":"中西區","LI":"永華里","LIN":"1鄰","STREET":"府前路","SECT":"一段","MAREA":" ","LANE":" ","ALLEY":" ","HOUSE_NO":"１６８號","E_COORD97":168677.82999999999,"N_COORD97":2543300.0099999998,"ADDRESS":"府前路一段１６８號","OBJECTID":581335},"geometry":{"x":168677.83000000101,"y":2543300.0100000016}},{"attributes":{"ID":581363,"DIS_CODE":0,"TOWNNAME":"中西區","LI":"銀同里","LIN":"16鄰","STREET":"青年路","SECT":" ","MAREA":" ","LANE":" ","ALLEY":" ","HOUSE_NO":"８號","E_COORD97":168582.39999999999,"N_COORD97":2543641.3500000001,"ADDRESS":"青年路８號","OBJECTID":581336},"geometry":{"x":168582.4000000013,"y":2543641.3499999996}},{"attributes":{"ID":581364,"DIS_CODE":0,"TOWNNAME":"中西區","LI":"永華里","LIN":"1鄰","STREET":"府前路","SECT":"一段","MAREA":" ","LANE":" ","ALLEY":" ","HOUSE_NO":"１７０號","E_COORD97":168671.82000000001,"N_COORD97":2543300.3100000001,"ADDRESS":"府前路一段１７０號","OBJECTID":581337},"geometry":{"x":168671.8200000003,"y":2543300.3099999987}},{"attributes":{"ID":581365,"DIS_CODE":0,"TOWNNAME":"永康區","LI":"永康里","LIN":"16鄰","STREET":"永中街","SECT":" ","MAREA":" ","LANE":" ","ALLEY":" ","HOUSE_NO":"１１２號","E_COORD97":173964.73999999999,"N_COORD97":2547235.0800000001,"ADDRESS":"永中街１１２號","OBJECTID":581338},"geometry":{"x":173964.74000000022,"y":2547235.0800000019}},{"attributes":{"ID":581366,"DIS_CODE":0,"TOWNNAME":"中西區","LI":"永華里","LIN":"1鄰","STREET":"開山路","SECT":" ","MAREA":" ","LANE":" ","ALLEY":" ","HOUSE_NO":"１３２號之１","E_COORD97":168739.31,"N_COORD97":2543303.96,"ADDRESS":"開山路１３２號之１","OBJECTID":581339},"geometry":{"x":168739.30999999959,"y":2543303.9600000028}},{"attributes":{"ID":581367,"DIS_CODE":0,"TOWNNAME":"歸仁區","LI":"新厝里","LIN":"16鄰","STREET":"大成路","SECT":" ","MAREA":" ","LANE":" ","ALLEY":" ","HOUSE_NO":"６２號","E_COORD97":177619.28,"N_COORD97":2540392,"ADDRESS":"大成路６２號","OBJECTID":581340},"geometry":{"x":177619.28000000026,"y":2540392}},{"attributes":{"ID":581368,"DIS_CODE":0,"TOWNNAME":"歸仁區","LI":"歸南里","LIN":"16鄰","STREET":"民生十一街","SECT":" ","MAREA":" ","LANE":" ","ALLEY":" ","HOUSE_NO":"５３號","E_COORD97":176252.95999999999,"N_COORD97":2539751.25,"ADDRESS":"民生十一街５３號","OBJECTID":581341},"geometry":{"x":176252.96000000089,"y":2539751.2500000019}},{"attributes":{"ID":581369,"DIS_CODE":0,"TOWNNAME":"歸仁區","LI":"歸仁里","LIN":"16鄰","STREET":"信義北路","SECT":" ","MAREA":" ","LANE":" ","ALLEY":" ","HOUSE_NO":"６２號","E_COORD97":178003.51000000001,"N_COORD97":2540901.6699999999,"ADDRESS":"信義北路６２號","OBJECTID":581342},"geometry":{"x":178003.51000000071,"y":2540901.6700000018}},{"attributes":{"ID":581370,"DIS_CODE":0,"TOWNNAME":"歸仁區","LI":"新厝里","LIN":"16鄰","STREET":"大成二街","SECT":" ","MAREA":" ","LANE":" ","ALLEY":" ","HOUSE_NO":"３８號","E_COORD97":177580.79000000001,"N_COORD97":2540360.3999999999,"ADDRESS":"大成二街３８號","OBJECTID":581343},"geometry":{"x":177580.7900000019,"y":2540360.4000000041}},{"attributes":{"ID":581371,"DIS_CODE":0,"TOWNNAME":"歸仁區","LI":"許厝里","LIN":"16鄰","STREET":"中山路","SECT":"一段","MAREA":" ","LANE":" ","ALLEY":" ","HOUSE_NO":"３４８號","E_COORD97":178361.10999999999,"N_COORD97":2540698.25,"ADDRESS":"中山路一段３４８號","OBJECTID":581344},"geometry":{"x":178361.11000000127,"y":2540698.2500000019}},{"attributes":{"ID":581372,"DIS_CODE":0,"TOWNNAME":"歸仁區","LI":"許厝里","LIN":"16鄰","STREET":"忠孝北路","SECT":" ","MAREA":" ","LANE":" ","ALLEY":" ","HOUSE_NO":"６１號","E_COORD97":178409.12,"N_COORD97":2540776.25,"ADDRESS":"忠孝北路６１號","OBJECTID":581345},"geometry":{"x":178409.12000000197,"y":2540776.2500000019}},{"attributes":{"ID":581373,"DIS_CODE":0,"TOWNNAME":"新營區","LI":"新北里","LIN":"16鄰","STREET":"南新街","SECT":" ","MAREA":" ","LANE":" ","ALLEY":" ","HOUSE_NO":"８０號","E_COORD97":179278.35000000001,"N_COORD97":2578908.3799999999,"ADDRESS":"南新街８０號","OBJECTID":581346},"geometry":{"x":179278.3499999987,"y":2578908.3800000008}},{"attributes":{"ID":581374,"DIS_CODE":0,"TOWNNAME":"歸仁區","LI":"歸仁里","LIN":"16鄰","STREET":"信義北路","SECT":" ","MAREA":" ","LANE":" ","ALLEY":" ","HOUSE_NO":"５２號","E_COORD97":178002.41,"N_COORD97":2540881.6699999999,"ADDRESS":"信義北路５２號","OBJECTID":581347},"geometry":{"x":178002.41000000108,"y":2540881.6700000018}},{"attributes":{"ID":581375,"DIS_CODE":0,"TOWNNAME":"關廟區","LI":"北花里","LIN":"16鄰","STREET":"新光街","SECT":" ","MAREA":" ","LANE":" ","ALLEY":" ","HOUSE_NO":"１號","E_COORD97":183328.06,"N_COORD97":2540934.25,"ADDRESS":"新光街１號","OBJECTID":581348},"geometry":{"x":183328.05999999959,"y":2540934.2500000019}},{"attributes":{"ID":581376,"DIS_CODE":0,"TOWNNAME":"中西區","LI":"永華里","LIN":"4鄰","STREET":"府中街","SECT":" ","MAREA":" ","LANE":" ","ALLEY":" ","HOUSE_NO":"１３９號","E_COORD97":168500.76999999999,"N_COORD97":2543398.1899999999,"ADDRESS":"府中街１３９號","OBJECTID":581349},"geometry":{"x":168500.76999999862,"y":2543398.1899999995}},{"attributes":{"ID":581377,"DIS_CODE":0,"TOWNNAME":"中西區","LI":"永華里","LIN":"4鄰","STREET":"府中街","SECT":" ","MAREA":" ","LANE":" ","ALLEY":" ","HOUSE_NO":"１４３號","E_COORD97":168490.54000000001,"N_COORD97":2543396.7799999998,"ADDRESS":"府中街１４３號","OBJECTID":581350},"geometry":{"x":168490.54000000004,"y":2543396.7799999993}},{"attributes":{"ID":581378,"DIS_CODE":0,"TOWNNAME":"中西區","LI":"永華里","LIN":"4鄰","STREET":"府中街","SECT":" ","MAREA":" ","LANE":" ","ALLEY":" ","HOUSE_NO":"１４５號","E_COORD97":168485.64000000001,"N_COORD97":2543396.48,"ADDRESS":"府中街１４５號","OBJECTID":581351},"geometry":{"x":168485.6400000006,"y":2543396.4800000004}},{"attributes":{"ID":581379,"DIS_CODE":0,"TOWNNAME":"南區","LI":"白雪里","LIN":"16鄰","STREET":"金華路","SECT":"一段","MAREA":" ","LANE":" ","ALLEY":" ","HOUSE_NO":"２４５號之１","E_COORD97":166937.92999999999,"N_COORD97":2540923.4399999999,"ADDRESS":"金華路一段２４５號之１","OBJECTID":581352},"geometry":{"x":166937.9299999997,"y":2540923.4400000013}},{"attributes":{"ID":581380,"DIS_CODE":0,"TOWNNAME":"南區","LI":"彰南里","LIN":"16鄰","STREET":"新義南路","SECT":" ","MAREA":" ","LANE":" ","ALLEY":" ","HOUSE_NO":"１２號","E_COORD97":165990.95000000001,"N_COORD97":2541112.0499999998,"ADDRESS":"新義南路１２號","OBJECTID":581353},"geometry":{"x":165990.95000000019,"y":2541112.0500000007}},{"attributes":{"ID":581381,"DIS_CODE":0,"TOWNNAME":"南區","LI":"彰南里","LIN":"16鄰","STREET":"新義南路","SECT":" ","MAREA":" ","LANE":" ","ALLEY":" ","HOUSE_NO":"１２號之１","E_COORD97":165981.70000000001,"N_COORD97":2541112.4900000002,"ADDRESS":"新義南路１２號之１","OBJECTID":581354},"geometry":{"x":165981.70000000112,"y":2541112.4900000021}},{"attributes":{"ID":581382,"DIS_CODE":0,"TOWNNAME":"安平區","LI":"建平里","LIN":"16鄰","STREET":"建平十二街","SECT":" ","MAREA":" ","LANE":" ","ALLEY":" ","HOUSE_NO":"９７號","E_COORD97":165884.42000000001,"N_COORD97":2543993.3399999999,"ADDRESS":"建平十二街９７號","OBJECTID":581355},"geometry":{"x":165884.41999999993,"y":2543993.3399999999}},{"attributes":{"ID":581383,"DIS_CODE":0,"TOWNNAME":"北區","LI":"元寶里","LIN":"16鄰","STREET":"開元路","SECT":" ","MAREA":" ","LANE":" ","ALLEY":" ","HOUSE_NO":"４６９號","E_COORD97":170457.41,"N_COORD97":2545586.8199999998,"ADDRESS":"開元路４６９號","OBJECTID":581356},"geometry":{"x":170457.41000000108,"y":2545586.8200000022}},{"attributes":{"ID":581384,"DIS_CODE":0,"TOWNNAME":"北區","LI":"元寶里","LIN":"16鄰","STREET":"開元路","SECT":" ","MAREA":" ","LANE":" ","ALLEY":" ","HOUSE_NO":"４７１號","E_COORD97":170466.62,"N_COORD97":2545593.0099999998,"ADDRESS":"開元路４７１號","OBJECTID":581357},"geometry":{"x":170466.62000000011,"y":2545593.0099999998}},{"attributes":{"ID":581385,"DIS_CODE":0,"TOWNNAME":"北區","LI":"元寶里","LIN":"16鄰","STREET":"開元路","SECT":" ","MAREA":" ","LANE":" ","ALLEY":" ","HOUSE_NO":"４７３號","E_COORD97":170474.39999999999,"N_COORD97":2545599.8300000001,"ADDRESS":"開元路４７３號","OBJECTID":581358},"geometry":{"x":170474.4000000013,"y":2545599.8300000019}},{"attributes":{"ID":581386,"DIS_CODE":0,"TOWNNAME":"北區","LI":"元寶里","LIN":"16鄰","STREET":"開元路","SECT":" ","MAREA":" ","LANE":" ","ALLEY":" ","HOUSE_NO":"４７５號","E_COORD97":170483.60999999999,"N_COORD97":2545606.5,"ADDRESS":"開元路４７５號","OBJECTID":581359},"geometry":{"x":170483.61000000127,"y":2545606.5}},{"attributes":{"ID":581387,"DIS_CODE":0,"TOWNNAME":"北區","LI":"元寶里","LIN":"16鄰","STREET":"開元路","SECT":" ","MAREA":" ","LANE":" ","ALLEY":" ","HOUSE_NO":"４７７號","E_COORD97":170492.82000000001,"N_COORD97":2545613.7999999998,"ADDRESS":"開元路４７７號","OBJECTID":581360},"geometry":{"x":170492.8200000003,"y":2545613.8000000026}},{"attributes":{"ID":581388,"DIS_CODE":0,"TOWNNAME":"北區","LI":"元寶里","LIN":"16鄰","STREET":"開元路","SECT":" ","MAREA":" ","LANE":" ","ALLEY":" ","HOUSE_NO":"４７９號","E_COORD97":170499.48000000001,"N_COORD97":2545619.04,"ADDRESS":"開元路４７９號","OBJECTID":581361},"geometry":{"x":170499.48000000138,"y":2545619.0399999991}},{"attributes":{"ID":581389,"DIS_CODE":0,"TOWNNAME":"北區","LI":"元寶里","LIN":"16鄰","STREET":"開元路","SECT":" ","MAREA":" ","LANE":" ","ALLEY":" ","HOUSE_NO":"４８１號","E_COORD97":170505.82999999999,"N_COORD97":2545623.96,"ADDRESS":"開元路４８１號","OBJECTID":581362},"geometry":{"x":170505.83000000007,"y":2545623.9600000028}},{"attributes":{"ID":581390,"DIS_CODE":0,"TOWNNAME":"中西區","LI":"永華里","LIN":"8鄰","STREET":"府中街","SECT":" ","MAREA":" ","LANE":" ","ALLEY":" ","HOUSE_NO":"１２６號","E_COORD97":168520.45000000001,"N_COORD97":2543430.5,"ADDRESS":"府中街１２６號","OBJECTID":581363},"geometry":{"x":168520.45000000019,"y":2543430.5}},{"attributes":{"ID":581391,"DIS_CODE":0,"TOWNNAME":"中西區","LI":"永華里","LIN":"8鄰","STREET":"府中街","SECT":" ","MAREA":" ","LANE":" ","ALLEY":" ","HOUSE_NO":"１２８號","E_COORD97":168522.53,"N_COORD97":2543425.8300000001,"ADDRESS":"府中街１２８號","OBJECTID":581364},"geometry":{"x":168522.53000000119,"y":2543425.8300000019}},{"attributes":{"ID":581392,"DIS_CODE":0,"TOWNNAME":"北區","LI":"成功里","LIN":"16鄰","STREET":"北成路","SECT":" ","MAREA":" ","LANE":" ","ALLEY":" ","HOUSE_NO":"８２號","E_COORD97":168988.17000000001,"N_COORD97":2546644.8399999999,"ADDRESS":"北成路８２號","OBJECTID":581365},"geometry":{"x":168988.16999999993,"y":2546644.8399999999}},{"attributes":{"ID":581393,"DIS_CODE":0,"TOWNNAME":"北區","LI":"成功里","LIN":"16鄰","STREET":"北成路","SECT":" ","MAREA":" ","LANE":" ","ALLEY":" ","HOUSE_NO":"８４號","E_COORD97":168983.22,"N_COORD97":2546647,"ADDRESS":"北成路８４號","OBJECTID":581366},"geometry":{"x":168983.22000000067,"y":2546647}},{"attributes":{"ID":581394,"DIS_CODE":0,"TOWNNAME":"北區","LI":"成功里","LIN":"16鄰","STREET":"北成路","SECT":" ","MAREA":" ","LANE":" ","ALLEY":" ","HOUSE_NO":"８６號","E_COORD97":168977.66,"N_COORD97":2546649.1600000001,"ADDRESS":"北成路８６號","OBJECTID":581367},"geometry":{"x":168977.66000000108,"y":2546649.160000002}},{"attributes":{"ID":581395,"DIS_CODE":0,"TOWNNAME":"北區","LI":"成功里","LIN":"16鄰","STREET":"北成路","SECT":" ","MAREA":" ","LANE":" ","ALLEY":" ","HOUSE_NO":"８８號","E_COORD97":168973.95000000001,"N_COORD97":2546651.3199999998,"ADDRESS":"北成路８８號","OBJECTID":581368},"geometry":{"x":168973.95000000112,"y":2546651.3200000022}},{"attributes":{"ID":581396,"DIS_CODE":0,"TOWNNAME":"北區","LI":"成功里","LIN":"16鄰","STREET":"北成路","SECT":" ","MAREA":" ","LANE":" ","ALLEY":" ","HOUSE_NO":"９０號","E_COORD97":168969.92999999999,"N_COORD97":2546653.79,"ADDRESS":"北成路９０號","OBJECTID":581369},"geometry":{"x":168969.93000000063,"y":2546653.790000001}},{"attributes":{"ID":581397,"DIS_CODE":0,"TOWNNAME":"北區","LI":"成功里","LIN":"16鄰","STREET":"北成路","SECT":" ","MAREA":" ","LANE":" ","ALLEY":" ","HOUSE_NO":"９２號","E_COORD97":168964.67000000001,"N_COORD97":2546656.2599999998,"ADDRESS":"北成路９２號","OBJECTID":581370},"geometry":{"x":168964.67000000179,"y":2546656.2599999998}},{"attributes":{"ID":581398,"DIS_CODE":0,"TOWNNAME":"北區","LI":"成功里","LIN":"16鄰","STREET":"北成路","SECT":" ","MAREA":" ","LANE":" ","ALLEY":" ","HOUSE_NO":"９４號","E_COORD97":168959.41,"N_COORD97":2546659.04,"ADDRESS":"北成路９４號","OBJECTID":581371},"geometry":{"x":168959.41000000015,"y":2546659.040000001}},{"attributes":{"ID":581399,"DIS_CODE":0,"TOWNNAME":"北區","LI":"成功里","LIN":"16鄰","STREET":"北成路","SECT":" ","MAREA":" ","LANE":" ","ALLEY":" ","HOUSE_NO":"９６號","E_COORD97":168955.39000000001,"N_COORD97":2546660.5899999999,"ADDRESS":"北成路９６號","OBJECTID":581372},"geometry":{"x":168955.38999999966,"y":2546660.5899999999}},{"attributes":{"ID":581400,"DIS_CODE":0,"TOWNNAME":"北區","LI":"成功里","LIN":"16鄰","STREET":"北成路","SECT":" ","MAREA":" ","LANE":" ","ALLEY":" ","HOUSE_NO":"９８號","E_COORD97":168949.82000000001,"N_COORD97":2546664.2999999998,"ADDRESS":"北成路９８號","OBJECTID":581373},"geometry":{"x":168949.8200000003,"y":2546664.3000000045}},{"attributes":{"ID":581401,"DIS_CODE":0,"TOWNNAME":"南區","LI":"彰南里","LIN":"16鄰","STREET":"新樂路","SECT":" ","MAREA":" ","LANE":" ","ALLEY":" ","HOUSE_NO":"５７號","E_COORD97":165464.32999999999,"N_COORD97":2541107.3300000001,"ADDRESS":"新樂路５７號","OBJECTID":581374},"geometry":{"x":165464.33000000007,"y":2541107.3300000019}},{"attributes":{"ID":581402,"DIS_CODE":0,"TOWNNAME":"中西區","LI":"永華里","LIN":"7鄰","STREET":"府中街","SECT":" ","MAREA":" ","LANE":" ","ALLEY":" ","HOUSE_NO":"１００號","E_COORD97":168563.67999999999,"N_COORD97":2543416,"ADDRESS":"府中街１００號","OBJECTID":581375},"geometry":{"x":168563.6799999997,"y":2543416}},{"attributes":{"ID":581403,"DIS_CODE":0,"TOWNNAME":"中西區","LI":"永華里","LIN":"7鄰","STREET":"府中街","SECT":" ","MAREA":" ","LANE":" ","ALLEY":" ","HOUSE_NO":"１０２號","E_COORD97":168559.67000000001,"N_COORD97":2543415.9199999999,"ADDRESS":"府中街１０２號","OBJECTID":581376},"geometry":{"x":168559.67000000179,"y":2543415.9200000018}},{"attributes":{"ID":581404,"DIS_CODE":0,"TOWNNAME":"中西區","LI":"永華里","LIN":"7鄰","STREET":"府中街","SECT":" ","MAREA":" ","LANE":" ","ALLEY":" ","HOUSE_NO":"１０４號","E_COORD97":168556.47,"N_COORD97":2543415.1800000002,"ADDRESS":"府中街１０４號","OBJECTID":581377},"geometry":{"x":168556.47000000067,"y":2543415.1799999997}},{"attributes":{"ID":581405,"DIS_CODE":0,"TOWNNAME":"中西區","LI":"永華里","LIN":"6鄰","STREET":"府中街","SECT":" ","MAREA":" ","LANE":" ","ALLEY":" ","HOUSE_NO":"１１３號","E_COORD97":168559.42000000001,"N_COORD97":2543403.5899999999,"ADDRESS":"府中街１１３號","OBJECTID":581378},"geometry":{"x":168559.41999999993,"y":2543403.5900000017}},{"attributes":{"ID":581406,"DIS_CODE":0,"TOWNNAME":"中西區","LI":"永華里","LIN":"6鄰","STREET":"府中街","SECT":" ","MAREA":" ","LANE":" ","ALLEY":" ","HOUSE_NO":"１１５號","E_COORD97":168563.51000000001,"N_COORD97":2543404.1099999999,"ADDRESS":"府中街１１５號","OBJECTID":581379},"geometry":{"x":168563.50999999978,"y":2543404.1100000013}},{"attributes":{"ID":581407,"DIS_CODE":0,"TOWNNAME":"中西區","LI":"永華里","LIN":"6鄰","STREET":"府中街","SECT":" ","MAREA":" ","LANE":" ","ALLEY":" ","HOUSE_NO":"１１７號","E_COORD97":168566.76999999999,"N_COORD97":2543405,"ADDRESS":"府中街１１７號","OBJECTID":581380},"geometry":{"x":168566.76999999955,"y":2543405.0000000019}},{"attributes":{"ID":581408,"DIS_CODE":0,"TOWNNAME":"中西區","LI":"永華里","LIN":"6鄰","STREET":"府中街","SECT":" ","MAREA":" ","LANE":" ","ALLEY":" ","HOUSE_NO":"１２３號","E_COORD97":168554.89000000001,"N_COORD97":2543403.0699999998,"ADDRESS":"府中街１２３號","OBJECTID":581381},"geometry":{"x":168554.8900000006,"y":2543403.0700000003}},{"attributes":{"ID":581409,"DIS_CODE":0,"TOWNNAME":"中西區","LI":"永華里","LIN":"6鄰","STREET":"府中街","SECT":" ","MAREA":" ","LANE":" ","ALLEY":" ","HOUSE_NO":"１２５號","E_COORD97":168551.54999999999,"N_COORD97":2543402.77,"ADDRESS":"府中街１２５號","OBJECTID":581382},"geometry":{"x":168551.54999999981,"y":2543402.7700000014}},{"attributes":{"ID":581410,"DIS_CODE":0,"TOWNNAME":"中西區","LI":"永華里","LIN":"6鄰","STREET":"府中街","SECT":" ","MAREA":" ","LANE":" ","ALLEY":" ","HOUSE_NO":"１２７號","E_COORD97":168546.87,"N_COORD97":2543401.9500000002,"ADDRESS":"府中街１２７號","OBJECTID":581383},"geometry":{"x":168546.87000000104,"y":2543401.9499999993}},{"attributes":{"ID":581411,"DIS_CODE":0,"TOWNNAME":"新營區","LI":"大宏里","LIN":"16鄰","STREET":"民治東路","SECT":" ","MAREA":" ","LANE":" ","ALLEY":" ","HOUSE_NO":"２７號","E_COORD97":180776.72,"N_COORD97":2578890.2200000002,"ADDRESS":"民治東路２７號","OBJECTID":581384},"geometry":{"x":180776.72000000067,"y":2578890.2200000044}},{"attributes":{"ID":581412,"DIS_CODE":0,"TOWNNAME":"新營區","LI":"大宏里","LIN":"16鄰","STREET":"綠川北街","SECT":" ","MAREA":" ","LANE":" ","ALLEY":" ","HOUSE_NO":"１９號","E_COORD97":180751.73999999999,"N_COORD97":2578812.8199999998,"ADDRESS":"綠川北街１９號","OBJECTID":581385},"geometry":{"x":180751.74000000115,"y":2578812.8200000003}},{"attributes":{"ID":581413,"DIS_CODE":0,"TOWNNAME":"中西區","LI":"永華里","LIN":"8鄰","STREET":"府中街","SECT":" ","MAREA":" ","LANE":" ","ALLEY":" ","HOUSE_NO":"１３６號","E_COORD97":168503.16,"N_COORD97":2543410.79,"ADDRESS":"府中街１３６號","OBJECTID":581386},"geometry":{"x":168503.16000000015,"y":2543410.7899999991}},{"attributes":{"ID":581414,"DIS_CODE":0,"TOWNNAME":"東區","LI":"虎尾里","LIN":"16鄰","STREET":"東成街","SECT":" ","MAREA":" ","LANE":" ","ALLEY":" ","HOUSE_NO":"８２號之３","E_COORD97":171468.04999999999,"N_COORD97":2542264.9300000002,"ADDRESS":"東成街８２號之３","OBJECTID":581387},"geometry":{"x":171468.05000000075,"y":2542264.9300000034}},{"attributes":{"ID":581415,"DIS_CODE":0,"TOWNNAME":"中西區","LI":"永華里","LIN":"7鄰","STREET":"府中街","SECT":" ","MAREA":" ","LANE":" ","ALLEY":" ","HOUSE_NO":"１０６號","E_COORD97":168546.20000000001,"N_COORD97":2543419.4300000002,"ADDRESS":"府中街１０６號","OBJECTID":581388},"geometry":{"x":168546.20000000205,"y":2543419.4299999997}},{"attributes":{"ID":581416,"DIS_CODE":0,"TOWNNAME":"中西區","LI":"永華里","LIN":"7鄰","STREET":"府中街","SECT":" ","MAREA":" ","LANE":" ","ALLEY":" ","HOUSE_NO":"１０８號","E_COORD97":168542.06,"N_COORD97":2543417.3599999999,"ADDRESS":"府中街１０８號","OBJECTID":581389},"geometry":{"x":168542.06000000052,"y":2543417.3599999994}},{"attributes":{"ID":581417,"DIS_CODE":0,"TOWNNAME":"中西區","LI":"永華里","LIN":"7鄰","STREET":"府中街","SECT":" ","MAREA":" ","LANE":" ","ALLEY":" ","HOUSE_NO":"１１０號","E_COORD97":168537.60000000001,"N_COORD97":2543415.73,"ADDRESS":"府中街１１０號","OBJECTID":581390},"geometry":{"x":168537.5999999987,"y":2543415.7300000004}},{"attributes":{"ID":581418,"DIS_CODE":0,"TOWNNAME":"南區","LI":"白雪里","LIN":"16鄰","STREET":"金華路","SECT":"一段","MAREA":" ","LANE":" ","ALLEY":" ","HOUSE_NO":"２２１號","E_COORD97":166938.57000000001,"N_COORD97":2540840.9700000002,"ADDRESS":"金華路一段２２１號","OBJECTID":581391},"geometry":{"x":166938.57000000123,"y":2540840.9700000007}},{"attributes":{"ID":581419,"DIS_CODE":0,"TOWNNAME":"安平區","LI":"建平里","LIN":"16鄰","STREET":"建平十二街","SECT":" ","MAREA":" ","LANE":" ","ALLEY":" ","HOUSE_NO":"９７之１號","E_COORD97":165879.70999999999,"N_COORD97":2543993.1699999999,"ADDRESS":"建平十二街９７之１號","OBJECTID":581392},"geometry":{"x":165879.71000000089,"y":2543993.1700000018}},{"attributes":{"ID":581420,"DIS_CODE":0,"TOWNNAME":"安平區","LI":"建平里","LIN":"16鄰","STREET":"建平十二街","SECT":" ","MAREA":" ","LANE":" ","ALLEY":" ","HOUSE_NO":"９１號","E_COORD97":166001.38,"N_COORD97":2543977.6699999999,"ADDRESS":"建平十二街９１號","OBJECTID":581393},"geometry":{"x":166001.37999999989,"y":2543977.6699999999}},{"attributes":{"ID":581421,"DIS_CODE":0,"TOWNNAME":"中西區","LI":"永華里","LIN":"8鄰","STREET":"府中街","SECT":" ","MAREA":" ","LANE":" ","ALLEY":" ","HOUSE_NO":"１３８號","E_COORD97":168501.89999999999,"N_COORD97":2543416.5699999998,"ADDRESS":"府中街１３８號","OBJECTID":581394},"geometry":{"x":168501.90000000037,"y":2543416.5700000003}},{"attributes":{"ID":581422,"DIS_CODE":0,"TOWNNAME":"中西區","LI":"永華里","LIN":"8鄰","STREET":"府中街","SECT":" ","MAREA":" ","LANE":" ","ALLEY":" ","HOUSE_NO":"１４０號","E_COORD97":168497.95999999999,"N_COORD97":2543422.1299999999,"ADDRESS":"府中街１４０號","OBJECTID":581395},"geometry":{"x":168497.95999999996,"y":2543422.1300000027}},{"attributes":{"ID":581423,"DIS_CODE":0,"TOWNNAME":"中西區","LI":"永華里","LIN":"8鄰","STREET":"府中街","SECT":" ","MAREA":" ","LANE":" ","ALLEY":" ","HOUSE_NO":"１４２號","E_COORD97":168496.48000000001,"N_COORD97":2543425.9100000001,"ADDRESS":"府中街１４２號","OBJECTID":581396},"geometry":{"x":168496.48000000045,"y":2543425.910000002}},{"attributes":{"ID":581424,"DIS_CODE":0,"TOWNNAME":"中西區","LI":"永華里","LIN":"8鄰","STREET":"府中街","SECT":" ","MAREA":" ","LANE":" ","ALLEY":" ","HOUSE_NO":"１４４號","E_COORD97":168494.98999999999,"N_COORD97":2543430.21,"ADDRESS":"府中街１４４號","OBJECTID":581397},"geometry":{"x":168494.99000000209,"y":2543430.209999999}},{"attributes":{"ID":581425,"DIS_CODE":0,"TOWNNAME":"中西區","LI":"永華里","LIN":"8鄰","STREET":"府中街","SECT":" ","MAREA":" ","LANE":" ","ALLEY":" ","HOUSE_NO":"１４６號","E_COORD97":168496.26000000001,"N_COORD97":2543408.5600000001,"ADDRESS":"府中街１４６號","OBJECTID":581398},"geometry":{"x":168496.26000000071,"y":2543408.5600000024}},{"attributes":{"ID":581426,"DIS_CODE":0,"TOWNNAME":"中西區","LI":"永華里","LIN":"8鄰","STREET":"南門路","SECT":" ","MAREA":" ","LANE":" ","ALLEY":" ","HOUSE_NO":"３９號","E_COORD97":168483.41,"N_COORD97":2543436.6099999999,"ADDRESS":"南門路３９號","OBJECTID":581399},"geometry":{"x":168483.41000000015,"y":2543436.6100000013}},{"attributes":{"ID":581427,"DIS_CODE":0,"TOWNNAME":"中西區","LI":"永華里","LIN":"8鄰","STREET":"南門路","SECT":" ","MAREA":" ","LANE":" ","ALLEY":" ","HOUSE_NO":"４１號","E_COORD97":168482.37,"N_COORD97":2543432.7599999998,"ADDRESS":"南門路４１號","OBJECTID":581400},"geometry":{"x":168482.37000000104,"y":2543432.7600000016}}]}