{"displayFieldName":"TOWNNAME","fieldAliases":{"ID":"ID","DIS_CODE":"DIS_CODE","TOWNNAME":"TOWNNAME","LI":"LI","LIN":"LIN","STREET":"STREET","SECT":"SECT","MAREA":"MAREA","LANE":"LANE","ALLEY":"ALLEY","HOUSE_NO":"HOUSE_NO","E_COORD97":"E_COORD97","N_COORD97":"N_COORD97","ADDRESS":"ADDRESS","OBJECTID":"OBJECTID"},"geometryType":"esriGeometryPoint","spatialReference":{"wkid":102443,"latestWkid":3826},"fields":[{"name":"ID","type":"esriFieldTypeDouble","alias":"ID"},{"name":"DIS_CODE","type":"esriFieldTypeInteger","alias":"DIS_CODE"},{"name":"TOWNNAME","type":"esriFieldTypeString","alias":"TOWNNAME","length":8},{"name":"LI","type":"esriFieldTypeString","alias":"LI","length":8},{"name":"LIN","type":"esriFieldTypeString","alias":"LIN","length":12},{"name":"STREET","type":"esriFieldTypeString","alias":"STREET","length":20},{"name":"SECT","type":"esriFieldTypeString","alias":"SECT","length":8},{"name":"MAREA","type":"esriFieldTypeString","alias":"MAREA","length":12},{"name":"LANE","type":"esriFieldTypeString","alias":"LANE","length":10},{"name":"ALLEY","type":"esriFieldTypeString","alias":"ALLEY","length":10},{"name":"HOUSE_NO","type":"esriFieldTypeString","alias":"HOUSE_NO","length":20},{"name":"E_COORD97","type":"esriFieldTypeDouble","alias":"E_COORD97"},{"name":"N_COORD97","type":"esriFieldTypeDouble","alias":"N_COORD97"},{"name":"ADDRESS","type":"esriFieldTypeString","alias":"ADDRESS","length":50},{"name":"OBJECTID","type":"esriFieldTypeOID","alias":"OBJECTID"}],"features":[{"attributes":{"ID":308009,"DIS_CODE":0,"TOWNNAME":"善化區","LI":"文昌里","LIN":"8鄰","STREET":"大同路","SECT":" ","MAREA":" ","LANE":"２１３巷","ALLEY":" ","HOUSE_NO":"１３號","E_COORD97":177393.37,"N_COORD97":2558674,"ADDRESS":"大同路２１３巷１３號","OBJECTID":308001},"geometry":{"x":177393.37000000011,"y":2558674.0000000037}},{"attributes":{"ID":308010,"DIS_CODE":0,"TOWNNAME":"善化區","LI":"文昌里","LIN":"8鄰","STREET":"大同路","SECT":" ","MAREA":" ","LANE":"２１３巷","ALLEY":" ","HOUSE_NO":"１２號","E_COORD97":177395.54000000001,"N_COORD97":2558696,"ADDRESS":"大同路２１３巷１２號","OBJECTID":308002},"geometry":{"x":177395.54000000004,"y":2558696.0000000019}},{"attributes":{"ID":308011,"DIS_CODE":0,"TOWNNAME":"善化區","LI":"文昌里","LIN":"8鄰","STREET":"永福路","SECT":" ","MAREA":" ","LANE":"１１４巷","ALLEY":" ","HOUSE_NO":"８號","E_COORD97":177324.10000000001,"N_COORD97":2558838.5,"ADDRESS":"永福路１１４巷８號","OBJECTID":308003},"geometry":{"x":177324.10000000056,"y":2558838.5000000019}},{"attributes":{"ID":308012,"DIS_CODE":0,"TOWNNAME":"善化區","LI":"文昌里","LIN":"8鄰","STREET":"大同路","SECT":" ","MAREA":" ","LANE":"２１３巷","ALLEY":" ","HOUSE_NO":"２１號","E_COORD97":177371.79000000001,"N_COORD97":2558679.75,"ADDRESS":"大同路２１３巷２１號","OBJECTID":308004},"geometry":{"x":177371.79000000004,"y":2558679.7500000019}},{"attributes":{"ID":308013,"DIS_CODE":0,"TOWNNAME":"善化區","LI":"小新里","LIN":"22鄰","STREET":" ","SECT":" ","MAREA":"成功新村","LANE":" ","ALLEY":" ","HOUSE_NO":"９號六樓","E_COORD97":180333.76000000001,"N_COORD97":2558706.5,"ADDRESS":"成功新村９號六樓","OBJECTID":308005},"geometry":{"x":180333.76000000071,"y":2558706.5}},{"attributes":{"ID":308014,"DIS_CODE":0,"TOWNNAME":"善化區","LI":"文昌里","LIN":"8鄰","STREET":"大同路","SECT":" ","MAREA":" ","LANE":"２１３巷","ALLEY":" ","HOUSE_NO":"８之１號","E_COORD97":177404.04000000001,"N_COORD97":2558715.52,"ADDRESS":"大同路２１３巷８之１號","OBJECTID":308006},"geometry":{"x":177404.04000000004,"y":2558715.5200000014}},{"attributes":{"ID":308015,"DIS_CODE":0,"TOWNNAME":"新營區","LI":"大宏里","LIN":"24鄰","STREET":"民治路","SECT":" ","MAREA":" ","LANE":" ","ALLEY":" ","HOUSE_NO":"３號之１６","E_COORD97":180589.51000000001,"N_COORD97":2578836.8999999999,"ADDRESS":"民治路３號之１６","OBJECTID":308007},"geometry":{"x":180589.51000000164,"y":2578836.9000000004}},{"attributes":{"ID":308016,"DIS_CODE":0,"TOWNNAME":"善化區","LI":"文昌里","LIN":"8鄰","STREET":"文昌路","SECT":" ","MAREA":" ","LANE":"３６巷","ALLEY":" ","HOUSE_NO":"２之１號","E_COORD97":177342.70000000001,"N_COORD97":2558769.2799999998,"ADDRESS":"文昌路３６巷２之１號","OBJECTID":308008},"geometry":{"x":177342.70000000112,"y":2558769.2799999993}},{"attributes":{"ID":308017,"DIS_CODE":0,"TOWNNAME":"善化區","LI":"文昌里","LIN":"8鄰","STREET":"大同路","SECT":" ","MAREA":" ","LANE":"２１３巷","ALLEY":" ","HOUSE_NO":"２０號","E_COORD97":177377.13,"N_COORD97":2558695,"ADDRESS":"大同路２１３巷２０號","OBJECTID":308009},"geometry":{"x":177377.13000000082,"y":2558695.0000000019}},{"attributes":{"ID":308018,"DIS_CODE":0,"TOWNNAME":"善化區","LI":"文昌里","LIN":"8鄰","STREET":"大同路","SECT":" ","MAREA":" ","LANE":"２１３巷","ALLEY":" ","HOUSE_NO":"２號","E_COORD97":177413.67999999999,"N_COORD97":2558702.75,"ADDRESS":"大同路２１３巷２號","OBJECTID":308010},"geometry":{"x":177413.68000000063,"y":2558702.7499999981}},{"attributes":{"ID":308019,"DIS_CODE":0,"TOWNNAME":"善化區","LI":"文昌里","LIN":"8鄰","STREET":"大同路","SECT":" ","MAREA":" ","LANE":"２１３巷","ALLEY":" ","HOUSE_NO":"９號","E_COORD97":177401.22,"N_COORD97":2558682.75,"ADDRESS":"大同路２１３巷９號","OBJECTID":308011},"geometry":{"x":177401.2200000016,"y":2558682.7500000037}},{"attributes":{"ID":308020,"DIS_CODE":0,"TOWNNAME":"善化區","LI":"文昌里","LIN":"8鄰","STREET":"大同路","SECT":" ","MAREA":" ","LANE":"２１３巷","ALLEY":" ","HOUSE_NO":"１８號","E_COORD97":177382.22,"N_COORD97":2558693,"ADDRESS":"大同路２１３巷１８號","OBJECTID":308012},"geometry":{"x":177382.21999999974,"y":2558693}},{"attributes":{"ID":308021,"DIS_CODE":0,"TOWNNAME":"善化區","LI":"文昌里","LIN":"8鄰","STREET":"大同路","SECT":" ","MAREA":" ","LANE":"２１３巷","ALLEY":" ","HOUSE_NO":"７號","E_COORD97":177405.70999999999,"N_COORD97":2558684.25,"ADDRESS":"大同路２１３巷７號","OBJECTID":308013},"geometry":{"x":177405.70999999996,"y":2558684.25}},{"attributes":{"ID":308022,"DIS_CODE":0,"TOWNNAME":"善化區","LI":"文昌里","LIN":"8鄰","STREET":"文昌路","SECT":" ","MAREA":" ","LANE":"３５巷","ALLEY":" ","HOUSE_NO":"２０號","E_COORD97":177359.53,"N_COORD97":2558675.2799999998,"ADDRESS":"文昌路３５巷２０號","OBJECTID":308014},"geometry":{"x":177359.53000000119,"y":2558675.2800000012}},{"attributes":{"ID":308023,"DIS_CODE":0,"TOWNNAME":"善化區","LI":"文昌里","LIN":"8鄰","STREET":"文昌路","SECT":" ","MAREA":" ","LANE":"３６巷","ALLEY":" ","HOUSE_NO":"２號之５","E_COORD97":177334.60000000001,"N_COORD97":2558793.0299999998,"ADDRESS":"文昌路３６巷２號之５","OBJECTID":308015},"geometry":{"x":177334.60000000056,"y":2558793.0300000012}},{"attributes":{"ID":308024,"DIS_CODE":0,"TOWNNAME":"善化區","LI":"文昌里","LIN":"8鄰","STREET":"文昌路","SECT":" ","MAREA":" ","LANE":"３５巷","ALLEY":" ","HOUSE_NO":"３０號","E_COORD97":177351.94,"N_COORD97":2558709.7799999998,"ADDRESS":"文昌路３５巷３０號","OBJECTID":308016},"geometry":{"x":177351.94000000134,"y":2558709.7800000012}},{"attributes":{"ID":308025,"DIS_CODE":0,"TOWNNAME":"善化區","LI":"文昌里","LIN":"8鄰","STREET":"文昌路","SECT":" ","MAREA":" ","LANE":"３５巷","ALLEY":" ","HOUSE_NO":"２２號","E_COORD97":177358.76999999999,"N_COORD97":2558679.7799999998,"ADDRESS":"文昌路３５巷２２號","OBJECTID":308017},"geometry":{"x":177358.77000000048,"y":2558679.7800000012}},{"attributes":{"ID":308026,"DIS_CODE":0,"TOWNNAME":"善化區","LI":"文昌里","LIN":"8鄰","STREET":"文昌路","SECT":" ","MAREA":" ","LANE":"３５巷","ALLEY":" ","HOUSE_NO":"４０號","E_COORD97":177374.04000000001,"N_COORD97":2558714.7799999998,"ADDRESS":"文昌路３５巷４０號","OBJECTID":308018},"geometry":{"x":177374.04000000097,"y":2558714.7799999993}},{"attributes":{"ID":308027,"DIS_CODE":0,"TOWNNAME":"善化區","LI":"文昌里","LIN":"8鄰","STREET":"文昌路","SECT":" ","MAREA":" ","LANE":"３５巷","ALLEY":" ","HOUSE_NO":"４２號","E_COORD97":177377.79999999999,"N_COORD97":2558718.7799999998,"ADDRESS":"文昌路３５巷４２號","OBJECTID":308019},"geometry":{"x":177377.80000000075,"y":2558718.7799999975}},{"attributes":{"ID":308028,"DIS_CODE":0,"TOWNNAME":"善化區","LI":"文昌里","LIN":"8鄰","STREET":"文昌路","SECT":" ","MAREA":" ","LANE":"３５巷","ALLEY":" ","HOUSE_NO":"１８號","E_COORD97":177360.35999999999,"N_COORD97":2558671.0299999998,"ADDRESS":"文昌路３５巷１８號","OBJECTID":308020},"geometry":{"x":177360.36000000127,"y":2558671.0300000012}},{"attributes":{"ID":308029,"DIS_CODE":0,"TOWNNAME":"善化區","LI":"文昌里","LIN":"8鄰","STREET":"大同路","SECT":" ","MAREA":" ","LANE":"２１３巷","ALLEY":" ","HOUSE_NO":"８號","E_COORD97":177406.13,"N_COORD97":2558700,"ADDRESS":"大同路２１３巷８號","OBJECTID":308021},"geometry":{"x":177406.13000000082,"y":2558700}},{"attributes":{"ID":308030,"DIS_CODE":0,"TOWNNAME":"善化區","LI":"文昌里","LIN":"8鄰","STREET":"文昌路","SECT":" ","MAREA":" ","LANE":"３６巷","ALLEY":" ","HOUSE_NO":"２號","E_COORD97":177340.45000000001,"N_COORD97":2558774.0299999998,"ADDRESS":"文昌路３６巷２號","OBJECTID":308022},"geometry":{"x":177340.45000000019,"y":2558774.0299999993}},{"attributes":{"ID":308031,"DIS_CODE":0,"TOWNNAME":"善化區","LI":"文昌里","LIN":"8鄰","STREET":"大同路","SECT":" ","MAREA":" ","LANE":"２１３巷","ALLEY":" ","HOUSE_NO":"１６號","E_COORD97":177388.13,"N_COORD97":2558693,"ADDRESS":"大同路２１３巷１６號","OBJECTID":308023},"geometry":{"x":177388.12999999989,"y":2558693}},{"attributes":{"ID":308032,"DIS_CODE":0,"TOWNNAME":"善化區","LI":"文昌里","LIN":"8鄰","STREET":"大同路","SECT":" ","MAREA":" ","LANE":"２１３巷","ALLEY":" ","HOUSE_NO":"１９號","E_COORD97":177376.42999999999,"N_COORD97":2558681.75,"ADDRESS":"大同路２１３巷１９號","OBJECTID":308024},"geometry":{"x":177376.43000000063,"y":2558681.75}},{"attributes":{"ID":308033,"DIS_CODE":0,"TOWNNAME":"善化區","LI":"文昌里","LIN":"8鄰","STREET":"大同路","SECT":" ","MAREA":" ","LANE":"２１３巷","ALLEY":" ","HOUSE_NO":"２４號","E_COORD97":177369.22,"N_COORD97":2558693.75,"ADDRESS":"大同路２１３巷２４號","OBJECTID":308025},"geometry":{"x":177369.22000000067,"y":2558693.7500000019}},{"attributes":{"ID":308034,"DIS_CODE":0,"TOWNNAME":"善化區","LI":"文昌里","LIN":"8鄰","STREET":"大同路","SECT":" ","MAREA":" ","LANE":"２１３巷","ALLEY":" ","HOUSE_NO":"１５號","E_COORD97":177387.38,"N_COORD97":2558673.25,"ADDRESS":"大同路２１３巷１５號","OBJECTID":308026},"geometry":{"x":177387.38000000082,"y":2558673.2500000019}},{"attributes":{"ID":308035,"DIS_CODE":0,"TOWNNAME":"善化區","LI":"文昌里","LIN":"8鄰","STREET":"文昌路","SECT":" ","MAREA":" ","LANE":"３６巷","ALLEY":" ","HOUSE_NO":"２號之２","E_COORD97":177336.35000000001,"N_COORD97":2558783.5299999998,"ADDRESS":"文昌路３６巷２號之２","OBJECTID":308027},"geometry":{"x":177336.35000000056,"y":2558783.5299999993}},{"attributes":{"ID":308036,"DIS_CODE":0,"TOWNNAME":"善化區","LI":"北關里","LIN":"8鄰","STREET":"進學路","SECT":" ","MAREA":" ","LANE":"５８巷","ALLEY":" ","HOUSE_NO":"１２號","E_COORD97":177284.70999999999,"N_COORD97":2559330,"ADDRESS":"進學路５８巷１２號","OBJECTID":308028},"geometry":{"x":177284.71000000089,"y":2559330.0000000019}},{"attributes":{"ID":308037,"DIS_CODE":0,"TOWNNAME":"善化區","LI":"北關里","LIN":"8鄰","STREET":"進學路","SECT":" ","MAREA":" ","LANE":"５８巷","ALLEY":" ","HOUSE_NO":"２號","E_COORD97":177266.75,"N_COORD97":2559317.75,"ADDRESS":"進學路５８巷２號","OBJECTID":308029},"geometry":{"x":177266.75,"y":2559317.7500000019}},{"attributes":{"ID":308038,"DIS_CODE":0,"TOWNNAME":"善化區","LI":"坐駕里","LIN":"8鄰","STREET":"大成路","SECT":" ","MAREA":" ","LANE":"３７１巷","ALLEY":" ","HOUSE_NO":"７號","E_COORD97":177923.13,"N_COORD97":2558757,"ADDRESS":"大成路３７１巷７號","OBJECTID":308030},"geometry":{"x":177923.13000000082,"y":2558757.0000000019}},{"attributes":{"ID":308039,"DIS_CODE":0,"TOWNNAME":"善化區","LI":"南關里","LIN":"8鄰","STREET":"光復路","SECT":" ","MAREA":" ","LANE":"４３８巷","ALLEY":" ","HOUSE_NO":"２號","E_COORD97":176894.73000000001,"N_COORD97":2558749.0099999998,"ADDRESS":"光復路４３８巷２號","OBJECTID":308031},"geometry":{"x":176894.73000000045,"y":2558749.0100000016}},{"attributes":{"ID":308040,"DIS_CODE":0,"TOWNNAME":"東區","LI":"忠孝里","LIN":"8鄰","STREET":"榮譽街","SECT":" ","MAREA":" ","LANE":"８４巷","ALLEY":" ","HOUSE_NO":"１４１號之１","E_COORD97":169827.16,"N_COORD97":2541571.0499999998,"ADDRESS":"榮譽街８４巷１４１號之１","OBJECTID":308032},"geometry":{"x":169827.16000000015,"y":2541571.0500000026}},{"attributes":{"ID":308041,"DIS_CODE":0,"TOWNNAME":"東區","LI":"忠孝里","LIN":"8鄰","STREET":"榮譽街","SECT":" ","MAREA":" ","LANE":"８４巷","ALLEY":" ","HOUSE_NO":"１４１號之２","E_COORD97":169822.88,"N_COORD97":2541569.48,"ADDRESS":"榮譽街８４巷１４１號之２","OBJECTID":308033},"geometry":{"x":169822.88000000082,"y":2541569.4800000004}},{"attributes":{"ID":308042,"DIS_CODE":0,"TOWNNAME":"東區","LI":"忠孝里","LIN":"8鄰","STREET":"榮譽街","SECT":" ","MAREA":" ","LANE":"８４巷","ALLEY":" ","HOUSE_NO":"１４１號之３","E_COORD97":169818.60000000001,"N_COORD97":2541566.7799999998,"ADDRESS":"榮譽街８４巷１４１號之３","OBJECTID":308034},"geometry":{"x":169818.59999999963,"y":2541566.7799999975}},{"attributes":{"ID":308043,"DIS_CODE":0,"TOWNNAME":"東區","LI":"忠孝里","LIN":"8鄰","STREET":"榮譽街","SECT":" ","MAREA":" ","LANE":"８４巷","ALLEY":" ","HOUSE_NO":"１３１號","E_COORD97":169882.79999999999,"N_COORD97":2541599.8999999999,"ADDRESS":"榮譽街８４巷１３１號","OBJECTID":308035},"geometry":{"x":169882.80000000075,"y":2541599.9000000004}},{"attributes":{"ID":308044,"DIS_CODE":0,"TOWNNAME":"東區","LI":"圍下里","LIN":"8鄰","STREET":"青年路","SECT":" ","MAREA":" ","LANE":"２９３巷","ALLEY":" ","HOUSE_NO":"１９號","E_COORD97":169407.04000000001,"N_COORD97":2543596.6400000001,"ADDRESS":"青年路２９３巷１９號","OBJECTID":308036},"geometry":{"x":169407.04000000097,"y":2543596.6400000043}},{"attributes":{"ID":308045,"DIS_CODE":0,"TOWNNAME":"東區","LI":"圍下里","LIN":"8鄰","STREET":"青年路","SECT":" ","MAREA":" ","LANE":"２９３巷","ALLEY":" ","HOUSE_NO":"２１號","E_COORD97":169406.53,"N_COORD97":2543600.4300000002,"ADDRESS":"青年路２９３巷２１號","OBJECTID":308037},"geometry":{"x":169406.53000000026,"y":2543600.4299999978}},{"attributes":{"ID":308046,"DIS_CODE":0,"TOWNNAME":"東區","LI":"圍下里","LIN":"8鄰","STREET":"青年路","SECT":" ","MAREA":" ","LANE":"２９３巷","ALLEY":" ","HOUSE_NO":"２５號","E_COORD97":169405.60999999999,"N_COORD97":2543608.6499999999,"ADDRESS":"青年路２９３巷２５號","OBJECTID":308038},"geometry":{"x":169405.61000000034,"y":2543608.6500000004}},{"attributes":{"ID":308047,"DIS_CODE":0,"TOWNNAME":"東區","LI":"圍下里","LIN":"8鄰","STREET":"青年路","SECT":" ","MAREA":" ","LANE":"２９３巷","ALLEY":" ","HOUSE_NO":"２７號","E_COORD97":169404.78,"N_COORD97":2543612.6499999999,"ADDRESS":"青年路２９３巷２７號","OBJECTID":308039},"geometry":{"x":169404.78000000026,"y":2543612.6500000004}},{"attributes":{"ID":308048,"DIS_CODE":0,"TOWNNAME":"東區","LI":"圍下里","LIN":"8鄰","STREET":"青年路","SECT":" ","MAREA":" ","LANE":"２９３巷","ALLEY":" ","HOUSE_NO":"２９號","E_COORD97":169404.78,"N_COORD97":2543615.5299999998,"ADDRESS":"青年路２９３巷２９號","OBJECTID":308040},"geometry":{"x":169404.78000000026,"y":2543615.5299999993}},{"attributes":{"ID":308049,"DIS_CODE":0,"TOWNNAME":"善化區","LI":"南關里","LIN":"8鄰","STREET":"光復路","SECT":" ","MAREA":" ","LANE":"５１０巷","ALLEY":" ","HOUSE_NO":"３號","E_COORD97":176839.85999999999,"N_COORD97":2558874.0099999998,"ADDRESS":"光復路５１０巷３號","OBJECTID":308041},"geometry":{"x":176839.8600000022,"y":2558874.0100000035}},{"attributes":{"ID":308050,"DIS_CODE":0,"TOWNNAME":"東區","LI":"圍下里","LIN":"8鄰","STREET":"青年路","SECT":" ","MAREA":" ","LANE":"２９３巷","ALLEY":" ","HOUSE_NO":"３１號","E_COORD97":169408.28,"N_COORD97":2543615.8300000001,"ADDRESS":"青年路２９３巷３１號","OBJECTID":308042},"geometry":{"x":169408.28000000026,"y":2543615.8300000019}},{"attributes":{"ID":308051,"DIS_CODE":0,"TOWNNAME":"東區","LI":"圍下里","LIN":"8鄰","STREET":"青年路","SECT":" ","MAREA":" ","LANE":"２９３巷","ALLEY":" ","HOUSE_NO":"３３號","E_COORD97":169408.69,"N_COORD97":2543612.04,"ADDRESS":"青年路２９３巷３３號","OBJECTID":308043},"geometry":{"x":169408.69000000041,"y":2543612.0399999991}},{"attributes":{"ID":308052,"DIS_CODE":0,"TOWNNAME":"東區","LI":"圍下里","LIN":"8鄰","STREET":"青年路","SECT":" ","MAREA":" ","LANE":"２９３巷","ALLEY":" ","HOUSE_NO":"３５號","E_COORD97":169408.89000000001,"N_COORD97":2543608.3399999999,"ADDRESS":"青年路２９３巷３５號","OBJECTID":308044},"geometry":{"x":169408.89000000153,"y":2543608.3400000036}},{"attributes":{"ID":308053,"DIS_CODE":0,"TOWNNAME":"永康區","LI":"大橋里","LIN":"4鄰","STREET":"大橋一街","SECT":" ","MAREA":" ","LANE":"１０３巷","ALLEY":" ","HOUSE_NO":"２３８號二樓","E_COORD97":170747.01000000001,"N_COORD97":2546877.5099999998,"ADDRESS":"大橋一街１０３巷２３８號二樓","OBJECTID":308045},"geometry":{"x":170747.00999999978,"y":2546877.5099999998}},{"attributes":{"ID":308054,"DIS_CODE":0,"TOWNNAME":"東區","LI":"圍下里","LIN":"8鄰","STREET":"青年路","SECT":" ","MAREA":" ","LANE":"２９３巷","ALLEY":" ","HOUSE_NO":"３７號","E_COORD97":169409.51000000001,"N_COORD97":2543604.75,"ADDRESS":"青年路２９３巷３７號","OBJECTID":308046},"geometry":{"x":169409.50999999978,"y":2543604.75}},{"attributes":{"ID":308055,"DIS_CODE":0,"TOWNNAME":"東區","LI":"圍下里","LIN":"8鄰","STREET":"青年路","SECT":" ","MAREA":" ","LANE":"２９３巷","ALLEY":" ","HOUSE_NO":"３９號","E_COORD97":169410.03,"N_COORD97":2543600.7400000002,"ADDRESS":"青年路２９３巷３９號","OBJECTID":308047},"geometry":{"x":169410.03000000026,"y":2543600.7400000021}},{"attributes":{"ID":308056,"DIS_CODE":0,"TOWNNAME":"東區","LI":"圍下里","LIN":"8鄰","STREET":"青年路","SECT":" ","MAREA":" ","LANE":"２９３巷","ALLEY":" ","HOUSE_NO":"４１號","E_COORD97":169410.44,"N_COORD97":2543596.7400000002,"ADDRESS":"青年路２９３巷４１號","OBJECTID":308048},"geometry":{"x":169410.44000000041,"y":2543596.7400000021}},{"attributes":{"ID":308057,"DIS_CODE":0,"TOWNNAME":"東區","LI":"圍下里","LIN":"8鄰","STREET":"青年路","SECT":" ","MAREA":" ","LANE":"２９３巷","ALLEY":" ","HOUSE_NO":"４３號","E_COORD97":169409.72,"N_COORD97":2543592.4300000002,"ADDRESS":"青年路２９３巷４３號","OBJECTID":308049},"geometry":{"x":169409.71999999974,"y":2543592.4299999997}},{"attributes":{"ID":308058,"DIS_CODE":0,"TOWNNAME":"東區","LI":"圍下里","LIN":"8鄰","STREET":"青年路","SECT":" ","MAREA":" ","LANE":"２９３巷","ALLEY":" ","HOUSE_NO":"４５號","E_COORD97":169411.16,"N_COORD97":2543585.96,"ADDRESS":"青年路２９３巷４５號","OBJECTID":308050},"geometry":{"x":169411.16000000108,"y":2543585.9600000028}},{"attributes":{"ID":308059,"DIS_CODE":0,"TOWNNAME":"東區","LI":"圍下里","LIN":"8鄰","STREET":"青年路","SECT":" ","MAREA":" ","LANE":"２９３巷","ALLEY":" ","HOUSE_NO":"５１號","E_COORD97":169437.20999999999,"N_COORD97":2543600.5099999998,"ADDRESS":"青年路２９３巷５１號","OBJECTID":308051},"geometry":{"x":169437.20999999996,"y":2543600.5100000016}},{"attributes":{"ID":308060,"DIS_CODE":0,"TOWNNAME":"安南區","LI":"理想里","LIN":"17鄰","STREET":"大安街","SECT":" ","MAREA":" ","LANE":" ","ALLEY":" ","HOUSE_NO":"２２７號","E_COORD97":167424.85999999999,"N_COORD97":2548370.3700000001,"ADDRESS":"大安街２２７號","OBJECTID":308052},"geometry":{"x":167424.86000000127,"y":2548370.3700000029}},{"attributes":{"ID":308061,"DIS_CODE":0,"TOWNNAME":"佳里區","LI":"東寧里","LIN":"1鄰","STREET":"中山路","SECT":" ","MAREA":" ","LANE":" ","ALLEY":" ","HOUSE_NO":"２７４號","E_COORD97":165725.26000000001,"N_COORD97":2562306.5800000001,"ADDRESS":"中山路２７４號","OBJECTID":308053},"geometry":{"x":165725.26000000071,"y":2562306.5800000001}},{"attributes":{"ID":308062,"DIS_CODE":0,"TOWNNAME":"東區","LI":"圍下里","LIN":"8鄰","STREET":"青年路","SECT":" ","MAREA":" ","LANE":"２９３巷","ALLEY":" ","HOUSE_NO":"５３號","E_COORD97":169437.22,"N_COORD97":2543609.4900000002,"ADDRESS":"青年路２９３巷５３號","OBJECTID":308054},"geometry":{"x":169437.2200000016,"y":2543609.4900000002}},{"attributes":{"ID":308063,"DIS_CODE":0,"TOWNNAME":"東區","LI":"圍下里","LIN":"8鄰","STREET":"青年路","SECT":" ","MAREA":" ","LANE":"２９３巷","ALLEY":" ","HOUSE_NO":"５５號","E_COORD97":169437.42000000001,"N_COORD97":2543614.21,"ADDRESS":"青年路２９３巷５５號","OBJECTID":308055},"geometry":{"x":169437.41999999993,"y":2543614.2100000028}},{"attributes":{"ID":308064,"DIS_CODE":0,"TOWNNAME":"東區","LI":"圍下里","LIN":"8鄰","STREET":"青年路","SECT":" ","MAREA":" ","LANE":"２９３巷","ALLEY":" ","HOUSE_NO":"５７號","E_COORD97":169426.42000000001,"N_COORD97":2543616.7799999998,"ADDRESS":"青年路２９３巷５７號","OBJECTID":308056},"geometry":{"x":169426.42000000086,"y":2543616.7799999993}},{"attributes":{"ID":308065,"DIS_CODE":0,"TOWNNAME":"東區","LI":"圍下里","LIN":"8鄰","STREET":"青年路","SECT":" ","MAREA":" ","LANE":"２９３巷","ALLEY":" ","HOUSE_NO":"５９號","E_COORD97":169424.98000000001,"N_COORD97":2543617.7000000002,"ADDRESS":"青年路２９３巷５９號","OBJECTID":308057},"geometry":{"x":169424.98000000138,"y":2543617.6999999993}},{"attributes":{"ID":308066,"DIS_CODE":0,"TOWNNAME":"東區","LI":"圍下里","LIN":"8鄰","STREET":"青年路","SECT":" ","MAREA":" ","LANE":"２９３巷","ALLEY":" ","HOUSE_NO":"６１號","E_COORD97":169425.09,"N_COORD97":2543621.6000000001,"ADDRESS":"青年路２９３巷６１號","OBJECTID":308058},"geometry":{"x":169425.09000000078,"y":2543621.5999999996}},{"attributes":{"ID":308067,"DIS_CODE":0,"TOWNNAME":"東區","LI":"圍下里","LIN":"8鄰","STREET":"青年路","SECT":" ","MAREA":" ","LANE":"２９３巷","ALLEY":" ","HOUSE_NO":"６７號","E_COORD97":169441.95999999999,"N_COORD97":2543631.8599999999,"ADDRESS":"青年路２９３巷６７號","OBJECTID":308059},"geometry":{"x":169441.95999999996,"y":2543631.8600000013}},{"attributes":{"ID":308068,"DIS_CODE":0,"TOWNNAME":"東區","LI":"圍下里","LIN":"8鄰","STREET":"青年路","SECT":" ","MAREA":" ","LANE":"２９３巷","ALLEY":" ","HOUSE_NO":"７１號","E_COORD97":169442.47,"N_COORD97":2543639.6600000001,"ADDRESS":"青年路２９３巷７１號","OBJECTID":308060},"geometry":{"x":169442.47000000067,"y":2543639.6600000001}},{"attributes":{"ID":308069,"DIS_CODE":0,"TOWNNAME":"東區","LI":"圍下里","LIN":"8鄰","STREET":"青年路","SECT":" ","MAREA":" ","LANE":"２９３巷","ALLEY":" ","HOUSE_NO":"７３號","E_COORD97":169442.37,"N_COORD97":2543643.46,"ADDRESS":"青年路２９３巷７３號","OBJECTID":308061},"geometry":{"x":169442.37000000104,"y":2543643.4600000028}},{"attributes":{"ID":308070,"DIS_CODE":0,"TOWNNAME":"東區","LI":"圍下里","LIN":"8鄰","STREET":"青年路","SECT":" ","MAREA":" ","LANE":"２９３巷","ALLEY":" ","HOUSE_NO":"７５號","E_COORD97":169443.19,"N_COORD97":2543647.1600000001,"ADDRESS":"青年路２９３巷７５號","OBJECTID":308062},"geometry":{"x":169443.19000000227,"y":2543647.1600000039}},{"attributes":{"ID":308071,"DIS_CODE":0,"TOWNNAME":"永康區","LI":"尚頂里","LIN":"8鄰","STREET":"正南一街","SECT":" ","MAREA":" ","LANE":"１１８巷","ALLEY":" ","HOUSE_NO":"２２號","E_COORD97":170960.48000000001,"N_COORD97":2547339.52,"ADDRESS":"正南一街１１８巷２２號","OBJECTID":308063},"geometry":{"x":170960.48000000138,"y":2547339.5200000033}},{"attributes":{"ID":308072,"DIS_CODE":0,"TOWNNAME":"永康區","LI":"尚頂里","LIN":"8鄰","STREET":"正南一街","SECT":" ","MAREA":" ","LANE":"１１８巷","ALLEY":" ","HOUSE_NO":"１３號","E_COORD97":170933.20000000001,"N_COORD97":2547329.7599999998,"ADDRESS":"正南一街１１８巷１３號","OBJECTID":308064},"geometry":{"x":170933.20000000112,"y":2547329.7599999998}},{"attributes":{"ID":308073,"DIS_CODE":0,"TOWNNAME":"永康區","LI":"尚頂里","LIN":"8鄰","STREET":"正南一街","SECT":" ","MAREA":" ","LANE":"１１８巷","ALLEY":" ","HOUSE_NO":"１９號","E_COORD97":170949.29999999999,"N_COORD97":2547351.27,"ADDRESS":"正南一街１１８巷１９號","OBJECTID":308065},"geometry":{"x":170949.30000000075,"y":2547351.2700000033}},{"attributes":{"ID":308074,"DIS_CODE":0,"TOWNNAME":"永康區","LI":"尚頂里","LIN":"8鄰","STREET":"正南一街","SECT":" ","MAREA":" ","LANE":"１１８巷","ALLEY":" ","HOUSE_NO":"１２號","E_COORD97":170934.70000000001,"N_COORD97":2547311.0099999998,"ADDRESS":"正南一街１１８巷１２號","OBJECTID":308066},"geometry":{"x":170934.70000000205,"y":2547311.0099999998}},{"attributes":{"ID":308075,"DIS_CODE":0,"TOWNNAME":"永康區","LI":"尚頂里","LIN":"8鄰","STREET":"正南一街","SECT":" ","MAREA":" ","LANE":"１１８巷","ALLEY":" ","HOUSE_NO":"３０號","E_COORD97":170969.20999999999,"N_COORD97":2547350.27,"ADDRESS":"正南一街１１８巷３０號","OBJECTID":308067},"geometry":{"x":170969.20999999996,"y":2547350.2699999996}},{"attributes":{"ID":308076,"DIS_CODE":0,"TOWNNAME":"永康區","LI":"尚頂里","LIN":"8鄰","STREET":"正南一街","SECT":" ","MAREA":" ","LANE":"１１８巷","ALLEY":" ","HOUSE_NO":"３６號","E_COORD97":171000.07000000001,"N_COORD97":2547389.7599999998,"ADDRESS":"正南一街１１８巷３６號","OBJECTID":308068},"geometry":{"x":171000.07000000216,"y":2547389.7600000016}},{"attributes":{"ID":308077,"DIS_CODE":0,"TOWNNAME":"永康區","LI":"尚頂里","LIN":"8鄰","STREET":"正南一街","SECT":" ","MAREA":" ","LANE":"１１８巷","ALLEY":" ","HOUSE_NO":"１８號","E_COORD97":170947.10999999999,"N_COORD97":2547326.0099999998,"ADDRESS":"正南一街１１８巷１８號","OBJECTID":308069},"geometry":{"x":170947.11000000034,"y":2547326.0099999979}},{"attributes":{"ID":308078,"DIS_CODE":0,"TOWNNAME":"歸仁區","LI":"看東里","LIN":"8鄰","STREET":"成功一街","SECT":" ","MAREA":" ","LANE":"１２７巷","ALLEY":" ","HOUSE_NO":"５６號","E_COORD97":178646.76058900001,"N_COORD97":2540038.9445500001,"ADDRESS":"成功一街１２７巷５６號","OBJECTID":308070},"geometry":{"x":178646.76058899984,"y":2540038.9445549995}},{"attributes":{"ID":308079,"DIS_CODE":0,"TOWNNAME":"永康區","LI":"五王里","LIN":"41鄰","STREET":"中山南路","SECT":" ","MAREA":" ","LANE":"２６２巷","ALLEY":" ","HOUSE_NO":"２號七樓之２０","E_COORD97":171550.5,"N_COORD97":2546054.6200000001,"ADDRESS":"中山南路２６２巷２號七樓之２０","OBJECTID":308071},"geometry":{"x":171550.5,"y":2546054.620000001}},{"attributes":{"ID":308080,"DIS_CODE":0,"TOWNNAME":"永康區","LI":"尚頂里","LIN":"8鄰","STREET":"正南一街","SECT":" ","MAREA":" ","LANE":"１１８巷","ALLEY":" ","HOUSE_NO":"１５號","E_COORD97":170939.66,"N_COORD97":2547337.27,"ADDRESS":"正南一街１１８巷１５號","OBJECTID":308072},"geometry":{"x":170939.66000000015,"y":2547337.2699999996}},{"attributes":{"ID":308081,"DIS_CODE":0,"TOWNNAME":"永康區","LI":"烏竹里","LIN":"8鄰","STREET":"龍橋街","SECT":" ","MAREA":" ","LANE":"３８１巷","ALLEY":" ","HOUSE_NO":"１０號","E_COORD97":174418.62,"N_COORD97":2549133.8999999999,"ADDRESS":"龍橋街３８１巷１０號","OBJECTID":308073},"geometry":{"x":174418.61999999918,"y":2549133.9000000004}},{"attributes":{"ID":308082,"DIS_CODE":0,"TOWNNAME":"永康區","LI":"網寮里","LIN":"8鄰","STREET":"永二街","SECT":" ","MAREA":" ","LANE":"２４４巷","ALLEY":" ","HOUSE_NO":"１號之１９","E_COORD97":173256.59,"N_COORD97":2546425.6400000001,"ADDRESS":"永二街２４４巷１號之１９","OBJECTID":308074},"geometry":{"x":173256.58999999985,"y":2546425.6400000025}},{"attributes":{"ID":308083,"DIS_CODE":0,"TOWNNAME":"永康區","LI":"網寮里","LIN":"8鄰","STREET":"永二街","SECT":" ","MAREA":" ","LANE":"２４４巷","ALLEY":" ","HOUSE_NO":"１號之１５","E_COORD97":173261.10999999999,"N_COORD97":2546407.9100000001,"ADDRESS":"永二街２４４巷１號之１５","OBJECTID":308075},"geometry":{"x":173261.1099999994,"y":2546407.9100000001}},{"attributes":{"ID":308084,"DIS_CODE":0,"TOWNNAME":"永康區","LI":"網寮里","LIN":"8鄰","STREET":"永二街","SECT":" ","MAREA":" ","LANE":"２４４巷","ALLEY":" ","HOUSE_NO":"１號之８","E_COORD97":173252.35000000001,"N_COORD97":2546365.1000000001,"ADDRESS":"永二街２４４巷１號之８","OBJECTID":308076},"geometry":{"x":173252.35000000056,"y":2546365.0999999996}},{"attributes":{"ID":308085,"DIS_CODE":0,"TOWNNAME":"永康區","LI":"網寮里","LIN":"8鄰","STREET":"永二街","SECT":" ","MAREA":" ","LANE":"２４４巷","ALLEY":" ","HOUSE_NO":"１號之１６","E_COORD97":173269.17999999999,"N_COORD97":2546422.6400000001,"ADDRESS":"永二街２４４巷１號之１６","OBJECTID":308077},"geometry":{"x":173269.18000000063,"y":2546422.6400000006}},{"attributes":{"ID":308086,"DIS_CODE":0,"TOWNNAME":"永康區","LI":"網寮里","LIN":"8鄰","STREET":"永二街","SECT":" ","MAREA":" ","LANE":"２４４巷","ALLEY":" ","HOUSE_NO":"１號之２","E_COORD97":173249.76000000001,"N_COORD97":2546333.6099999999,"ADDRESS":"永二街２４４巷１號之２","OBJECTID":308078},"geometry":{"x":173249.76000000071,"y":2546333.6099999994}},{"attributes":{"ID":308087,"DIS_CODE":0,"TOWNNAME":"永康區","LI":"網寮里","LIN":"8鄰","STREET":"永二街","SECT":" ","MAREA":" ","LANE":"２４４巷","ALLEY":" ","HOUSE_NO":"１號之１８","E_COORD97":173260.89999999999,"N_COORD97":2546424.8900000001,"ADDRESS":"永二街２４４巷１號之１８","OBJECTID":308079},"geometry":{"x":173260.90000000224,"y":2546424.8900000006}},{"attributes":{"ID":308088,"DIS_CODE":0,"TOWNNAME":"永康區","LI":"網寮里","LIN":"8鄰","STREET":"永二街","SECT":" ","MAREA":" ","LANE":"２４４巷","ALLEY":" ","HOUSE_NO":"１號之１４","E_COORD97":173259.01999999999,"N_COORD97":2546403.8999999999,"ADDRESS":"永二街２４４巷１號之１４","OBJECTID":308080},"geometry":{"x":173259.01999999955,"y":2546403.9000000004}},{"attributes":{"ID":308089,"DIS_CODE":0,"TOWNNAME":"永康區","LI":"網寮里","LIN":"8鄰","STREET":"永二街","SECT":" ","MAREA":" ","LANE":"２４４巷","ALLEY":" ","HOUSE_NO":"１號之１７","E_COORD97":173265.16,"N_COORD97":2546423.6400000001,"ADDRESS":"永二街２４４巷１號之１７","OBJECTID":308081},"geometry":{"x":173265.16000000015,"y":2546423.6400000006}},{"attributes":{"ID":308090,"DIS_CODE":0,"TOWNNAME":"永康區","LI":"網寮里","LIN":"8鄰","STREET":"永二街","SECT":" ","MAREA":" ","LANE":"２４４巷","ALLEY":" ","HOUSE_NO":"１號之５","E_COORD97":173251.07000000001,"N_COORD97":2546349.3599999999,"ADDRESS":"永二街２４４巷１號之５","OBJECTID":308082},"geometry":{"x":173251.0700000003,"y":2546349.3599999994}},{"attributes":{"ID":308091,"DIS_CODE":0,"TOWNNAME":"永康區","LI":"網寮里","LIN":"8鄰","STREET":"永二街","SECT":" ","MAREA":" ","LANE":"２４４巷","ALLEY":" ","HOUSE_NO":"１號之２３","E_COORD97":173269.17999999999,"N_COORD97":2546435.2799999998,"ADDRESS":"永二街２４４巷１號之２３","OBJECTID":308083},"geometry":{"x":173269.18000000063,"y":2546435.2799999993}},{"attributes":{"ID":308092,"DIS_CODE":0,"TOWNNAME":"永康區","LI":"網寮里","LIN":"8鄰","STREET":"永二街","SECT":" ","MAREA":" ","LANE":"２４４巷","ALLEY":" ","HOUSE_NO":"１號之２４","E_COORD97":173273.26000000001,"N_COORD97":2546434.2799999998,"ADDRESS":"永二街２４４巷１號之２４","OBJECTID":308084},"geometry":{"x":173273.26000000164,"y":2546434.2799999993}},{"attributes":{"ID":308093,"DIS_CODE":0,"TOWNNAME":"安南區","LI":"理想里","LIN":"17鄰","STREET":"大安街","SECT":" ","MAREA":" ","LANE":" ","ALLEY":" ","HOUSE_NO":"２２７之１號","E_COORD97":167427.51999999999,"N_COORD97":2548373.6000000001,"ADDRESS":"大安街２２７之１號","OBJECTID":308085},"geometry":{"x":167427.51999999955,"y":2548373.6000000015}},{"attributes":{"ID":308094,"DIS_CODE":0,"TOWNNAME":"安南區","LI":"安東里","LIN":"17鄰","STREET":"安和路","SECT":"一段","MAREA":" ","LANE":" ","ALLEY":" ","HOUSE_NO":"４８０號","E_COORD97":169406.14000000001,"N_COORD97":2548454.3100000001,"ADDRESS":"安和路一段４８０號","OBJECTID":308086},"geometry":{"x":169406.1400000006,"y":2548454.3100000024}},{"attributes":{"ID":308095,"DIS_CODE":0,"TOWNNAME":"永康區","LI":"五王里","LIN":"18鄰","STREET":"成功路","SECT":" ","MAREA":" ","LANE":"１８８巷","ALLEY":" ","HOUSE_NO":"２號五樓之４","E_COORD97":171440.89000000001,"N_COORD97":2545664.04,"ADDRESS":"成功路１８８巷２號五樓之４","OBJECTID":308087},"geometry":{"x":171440.88999999966,"y":2545664.0400000028}},{"attributes":{"ID":308096,"DIS_CODE":0,"TOWNNAME":"永康區","LI":"五王里","LIN":"18鄰","STREET":"成功路","SECT":" ","MAREA":" ","LANE":"１８８巷","ALLEY":" ","HOUSE_NO":"２４號二樓","E_COORD97":171497.85999999999,"N_COORD97":2545704.02,"ADDRESS":"成功路１８８巷２４號二樓","OBJECTID":308088},"geometry":{"x":171497.86000000034,"y":2545704.0199999996}},{"attributes":{"ID":308097,"DIS_CODE":0,"TOWNNAME":"永康區","LI":"五王里","LIN":"18鄰","STREET":"成功路","SECT":" ","MAREA":" ","LANE":"１８８巷","ALLEY":" ","HOUSE_NO":"２號四樓之５","E_COORD97":171441.01999999999,"N_COORD97":2545664.04,"ADDRESS":"成功路１８８巷２號四樓之５","OBJECTID":308089},"geometry":{"x":171441.02000000048,"y":2545664.0400000028}},{"attributes":{"ID":308098,"DIS_CODE":0,"TOWNNAME":"永康區","LI":"網寮里","LIN":"8鄰","STREET":"永二街","SECT":" ","MAREA":" ","LANE":"２４４巷","ALLEY":" ","HOUSE_NO":"１號之２５","E_COORD97":173277.35000000001,"N_COORD97":2546433.2799999998,"ADDRESS":"永二街２４４巷１號之２５","OBJECTID":308090},"geometry":{"x":173277.3499999987,"y":2546433.2800000012}},{"attributes":{"ID":308099,"DIS_CODE":0,"TOWNNAME":"永康區","LI":"網寮里","LIN":"8鄰","STREET":"永二街","SECT":" ","MAREA":" ","LANE":"２４４巷","ALLEY":" ","HOUSE_NO":"１號之２０","E_COORD97":173256.70000000001,"N_COORD97":2546438.7799999998,"ADDRESS":"永二街２４４巷１號之２０","OBJECTID":308091},"geometry":{"x":173256.70000000019,"y":2546438.7799999975}},{"attributes":{"ID":308100,"DIS_CODE":0,"TOWNNAME":"永康區","LI":"網寮里","LIN":"8鄰","STREET":"永二街","SECT":" ","MAREA":" ","LANE":"２４４巷","ALLEY":" ","HOUSE_NO":"１號之７","E_COORD97":173252.09,"N_COORD97":2546360.1000000001,"ADDRESS":"永二街２４４巷１號之７","OBJECTID":308092},"geometry":{"x":173252.08999999985,"y":2546360.1000000015}},{"attributes":{"ID":308101,"DIS_CODE":0,"TOWNNAME":"永康區","LI":"蔦松里","LIN":"8鄰","STREET":"中正北路","SECT":" ","MAREA":" ","LANE":"４２９巷","ALLEY":" ","HOUSE_NO":"２號","E_COORD97":173602.91,"N_COORD97":2549177.23,"ADDRESS":"中正北路４２９巷２號","OBJECTID":308093},"geometry":{"x":173602.91000000015,"y":2549177.2300000023}},{"attributes":{"ID":308102,"DIS_CODE":0,"TOWNNAME":"永康區","LI":"蔦松里","LIN":"8鄰","STREET":"中正北路","SECT":" ","MAREA":" ","LANE":"４２９巷","ALLEY":" ","HOUSE_NO":"４號","E_COORD97":173608.06,"N_COORD97":2549180.48,"ADDRESS":"中正北路４２９巷４號","OBJECTID":308094},"geometry":{"x":173608.05999999959,"y":2549180.4800000004}},{"attributes":{"ID":308103,"DIS_CODE":0,"TOWNNAME":"永康區","LI":"蔦松里","LIN":"8鄰","STREET":"中正北路","SECT":" ","MAREA":" ","LANE":"４２９巷","ALLEY":" ","HOUSE_NO":"１３號","E_COORD97":173602.47,"N_COORD97":2549199.7400000002,"ADDRESS":"中正北路４２９巷１３號","OBJECTID":308095},"geometry":{"x":173602.47000000067,"y":2549199.7399999984}},{"attributes":{"ID":308104,"DIS_CODE":0,"TOWNNAME":"仁德區","LI":"上崙里","LIN":"8鄰","STREET":"德善路","SECT":" ","MAREA":" ","LANE":"２９０巷","ALLEY":" ","HOUSE_NO":"３４號","E_COORD97":173903.04999999999,"N_COORD97":2538450.77,"ADDRESS":"德善路２９０巷３４號","OBJECTID":308096},"geometry":{"x":173903.04999999981,"y":2538450.7699999996}},{"attributes":{"ID":308105,"DIS_CODE":0,"TOWNNAME":"仁德區","LI":"上崙里","LIN":"8鄰","STREET":"德南路","SECT":" ","MAREA":" ","LANE":"３６７巷","ALLEY":" ","HOUSE_NO":"８號","E_COORD97":173884.94,"N_COORD97":2538352.52,"ADDRESS":"德南路３６７巷８號","OBJECTID":308097},"geometry":{"x":173884.94000000134,"y":2538352.5200000014}},{"attributes":{"ID":308106,"DIS_CODE":0,"TOWNNAME":"仁德區","LI":"上崙里","LIN":"8鄰","STREET":"德善路","SECT":" ","MAREA":" ","LANE":"２９０巷","ALLEY":" ","HOUSE_NO":"２４號","E_COORD97":173923.10000000001,"N_COORD97":2538444.77,"ADDRESS":"德善路２９０巷２４號","OBJECTID":308098},"geometry":{"x":173923.09999999963,"y":2538444.7700000033}},{"attributes":{"ID":308107,"DIS_CODE":0,"TOWNNAME":"仁德區","LI":"仁義里","LIN":"8鄰","STREET":"中山路","SECT":" ","MAREA":" ","LANE":"４７７巷","ALLEY":" ","HOUSE_NO":"２０號","E_COORD97":173641.07999999999,"N_COORD97":2541220.7400000002,"ADDRESS":"中山路４７７巷２０號","OBJECTID":308099},"geometry":{"x":173641.08000000101,"y":2541220.7400000002}},{"attributes":{"ID":308108,"DIS_CODE":0,"TOWNNAME":"仁德區","LI":"仁義里","LIN":"8鄰","STREET":"中山路","SECT":" ","MAREA":" ","LANE":"４７７巷","ALLEY":" ","HOUSE_NO":"２４號","E_COORD97":173640.45999999999,"N_COORD97":2541212.4900000002,"ADDRESS":"中山路４７７巷２４號","OBJECTID":308100},"geometry":{"x":173640.46000000089,"y":2541212.4900000002}},{"attributes":{"ID":308109,"DIS_CODE":0,"TOWNNAME":"仁德區","LI":"仁義里","LIN":"8鄰","STREET":"中山路","SECT":" ","MAREA":" ","LANE":"５０９巷","ALLEY":" ","HOUSE_NO":"５號","E_COORD97":173548.14000000001,"N_COORD97":2541244,"ADDRESS":"中山路５０９巷５號","OBJECTID":308101},"geometry":{"x":173548.13999999966,"y":2541243.9999999981}},{"attributes":{"ID":308110,"DIS_CODE":0,"TOWNNAME":"仁德區","LI":"仁德里","LIN":"8鄰","STREET":"仁德三街","SECT":" ","MAREA":" ","LANE":"５０巷","ALLEY":" ","HOUSE_NO":"３２號","E_COORD97":173205.89999999999,"N_COORD97":2541066.52,"ADDRESS":"仁德三街５０巷３２號","OBJECTID":308102},"geometry":{"x":173205.90000000037,"y":2541066.5199999996}},{"attributes":{"ID":308111,"DIS_CODE":0,"TOWNNAME":"仁德區","LI":"仁義里","LIN":"8鄰","STREET":"中山路","SECT":" ","MAREA":" ","LANE":"５０９巷","ALLEY":" ","HOUSE_NO":"２１號","E_COORD97":173545.29999999999,"N_COORD97":2541211.9900000002,"ADDRESS":"中山路５０９巷２１號","OBJECTID":308103},"geometry":{"x":173545.29999999981,"y":2541211.9900000021}},{"attributes":{"ID":308112,"DIS_CODE":0,"TOWNNAME":"仁德區","LI":"仁義里","LIN":"8鄰","STREET":"中山路","SECT":" ","MAREA":" ","LANE":"５０９巷","ALLEY":" ","HOUSE_NO":"１５號","E_COORD97":173546.60000000001,"N_COORD97":2541223.9900000002,"ADDRESS":"中山路５０９巷１５號","OBJECTID":308104},"geometry":{"x":173546.59999999963,"y":2541223.9900000039}},{"attributes":{"ID":308113,"DIS_CODE":0,"TOWNNAME":"仁德區","LI":"仁德里","LIN":"8鄰","STREET":"仁德三街","SECT":" ","MAREA":" ","LANE":"５０巷","ALLEY":" ","HOUSE_NO":"３號","E_COORD97":173196.20000000001,"N_COORD97":2541003.7599999998,"ADDRESS":"仁德三街５０巷３號","OBJECTID":308105},"geometry":{"x":173196.20000000112,"y":2541003.7599999998}},{"attributes":{"ID":308114,"DIS_CODE":0,"TOWNNAME":"安南區","LI":"新順里","LIN":"8鄰","STREET":"總安街","SECT":"一段","MAREA":" ","LANE":"３６２巷","ALLEY":" ","HOUSE_NO":"４２號","E_COORD97":169227.95000000001,"N_COORD97":2550515.3300000001,"ADDRESS":"總安街一段３６２巷４２號","OBJECTID":308106},"geometry":{"x":169227.95000000112,"y":2550515.3300000019}},{"attributes":{"ID":308115,"DIS_CODE":0,"TOWNNAME":"東區","LI":"大智里","LIN":"8鄰","STREET":"長東街","SECT":" ","MAREA":" ","LANE":"１０３巷","ALLEY":" ","HOUSE_NO":"２２號","E_COORD97":171139.88,"N_COORD97":2540328.2599999998,"ADDRESS":"長東街１０３巷２２號","OBJECTID":308107},"geometry":{"x":171139.88000000175,"y":2540328.2600000016}},{"attributes":{"ID":308116,"DIS_CODE":0,"TOWNNAME":"東區","LI":"大智里","LIN":"8鄰","STREET":"長東街","SECT":" ","MAREA":" ","LANE":"１０３巷","ALLEY":" ","HOUSE_NO":"２３號","E_COORD97":171074.42000000001,"N_COORD97":2540349.9900000002,"ADDRESS":"長東街１０３巷２３號","OBJECTID":308108},"geometry":{"x":171074.41999999993,"y":2540349.9900000021}},{"attributes":{"ID":308117,"DIS_CODE":0,"TOWNNAME":"安南區","LI":"頂安里","LIN":"17鄰","STREET":"北安路","SECT":"三段","MAREA":" ","LANE":" ","ALLEY":" ","HOUSE_NO":"１５８號","E_COORD97":168382.29000000001,"N_COORD97":2549217.8700000001,"ADDRESS":"北安路三段１５８號","OBJECTID":308109},"geometry":{"x":168382.29000000004,"y":2549217.8700000029}},{"attributes":{"ID":308118,"DIS_CODE":0,"TOWNNAME":"安南區","LI":"溪心里","LIN":"17鄰","STREET":"仁安路","SECT":" ","MAREA":" ","LANE":" ","ALLEY":" ","HOUSE_NO":"２５８號","E_COORD97":166011.42999999999,"N_COORD97":2550264.3999999999,"ADDRESS":"仁安路２５８號","OBJECTID":308110},"geometry":{"x":166011.43000000156,"y":2550264.4000000022}},{"attributes":{"ID":308119,"DIS_CODE":0,"TOWNNAME":"安南區","LI":"溪心里","LIN":"17鄰","STREET":"仁安路","SECT":" ","MAREA":" ","LANE":" ","ALLEY":" ","HOUSE_NO":"２６０號","E_COORD97":166015.67000000001,"N_COORD97":2550266.0899999999,"ADDRESS":"仁安路２６０號","OBJECTID":308111},"geometry":{"x":166015.67000000086,"y":2550266.0900000017}},{"attributes":{"ID":308120,"DIS_CODE":0,"TOWNNAME":"安南區","LI":"溪心里","LIN":"17鄰","STREET":"仁安路","SECT":" ","MAREA":" ","LANE":" ","ALLEY":" ","HOUSE_NO":"２６２號","E_COORD97":166019.39000000001,"N_COORD97":2550267.6099999999,"ADDRESS":"仁安路２６２號","OBJECTID":308112},"geometry":{"x":166019.38999999966,"y":2550267.6099999994}},{"attributes":{"ID":308121,"DIS_CODE":0,"TOWNNAME":"東區","LI":"大智里","LIN":"8鄰","STREET":"長東街","SECT":" ","MAREA":" ","LANE":"１０３巷","ALLEY":" ","HOUSE_NO":"２４號","E_COORD97":171144.51999999999,"N_COORD97":2540329.4900000002,"ADDRESS":"長東街１０３巷２４號","OBJECTID":308113},"geometry":{"x":171144.52000000048,"y":2540329.4900000021}},{"attributes":{"ID":308122,"DIS_CODE":0,"TOWNNAME":"東區","LI":"大智里","LIN":"8鄰","STREET":"長東街","SECT":" ","MAREA":" ","LANE":"１０３巷","ALLEY":" ","HOUSE_NO":"２６號","E_COORD97":171148.79000000001,"N_COORD97":2540328.0699999998,"ADDRESS":"長東街１０３巷２６號","OBJECTID":308114},"geometry":{"x":171148.79000000004,"y":2540328.0700000003}},{"attributes":{"ID":308123,"DIS_CODE":0,"TOWNNAME":"東區","LI":"大智里","LIN":"8鄰","STREET":"長東街","SECT":" ","MAREA":" ","LANE":"１０３巷","ALLEY":" ","HOUSE_NO":"２８號","E_COORD97":171153.42999999999,"N_COORD97":2540329.5899999999,"ADDRESS":"長東街１０３巷２８號","OBJECTID":308115},"geometry":{"x":171153.43000000063,"y":2540329.5900000017}},{"attributes":{"ID":308124,"DIS_CODE":0,"TOWNNAME":"東區","LI":"大智里","LIN":"8鄰","STREET":"長東街","SECT":" ","MAREA":" ","LANE":"１０３巷","ALLEY":" ","HOUSE_NO":"２９號","E_COORD97":171086.81,"N_COORD97":2540350.6800000002,"ADDRESS":"長東街１０３巷２９號","OBJECTID":308116},"geometry":{"x":171086.80999999959,"y":2540350.6799999978}},{"attributes":{"ID":308125,"DIS_CODE":0,"TOWNNAME":"東區","LI":"大智里","LIN":"8鄰","STREET":"長東街","SECT":" ","MAREA":" ","LANE":"１０３巷","ALLEY":" ","HOUSE_NO":"３０號","E_COORD97":171158.17000000001,"N_COORD97":2540331.2000000002,"ADDRESS":"長東街１０３巷３０號","OBJECTID":308117},"geometry":{"x":171158.16999999993,"y":2540331.2000000011}},{"attributes":{"ID":308126,"DIS_CODE":0,"TOWNNAME":"東區","LI":"大智里","LIN":"8鄰","STREET":"長東街","SECT":" ","MAREA":" ","LANE":"１０３巷","ALLEY":" ","HOUSE_NO":"３２號","E_COORD97":171162.53,"N_COORD97":2540329.6800000002,"ADDRESS":"長東街１０３巷３２號","OBJECTID":308118},"geometry":{"x":171162.53000000026,"y":2540329.6799999997}},{"attributes":{"ID":308127,"DIS_CODE":0,"TOWNNAME":"東區","LI":"大智里","LIN":"8鄰","STREET":"長東街","SECT":" ","MAREA":" ","LANE":"１０３巷","ALLEY":" ","HOUSE_NO":"３７號","E_COORD97":171108.66,"N_COORD97":2540348.8599999999,"ADDRESS":"長東街１０３巷３７號","OBJECTID":308119},"geometry":{"x":171108.66000000015,"y":2540348.8599999994}},{"attributes":{"ID":308128,"DIS_CODE":0,"TOWNNAME":"東區","LI":"大智里","LIN":"8鄰","STREET":"長東街","SECT":" ","MAREA":" ","LANE":"１０３巷","ALLEY":" ","HOUSE_NO":"３９號","E_COORD97":171112.51000000001,"N_COORD97":2540347.4700000002,"ADDRESS":"長東街１０３巷３９號","OBJECTID":308120},"geometry":{"x":171112.51000000071,"y":2540347.4700000025}},{"attributes":{"ID":308129,"DIS_CODE":0,"TOWNNAME":"東區","LI":"大智里","LIN":"8鄰","STREET":"長東街","SECT":" ","MAREA":" ","LANE":"１０３巷","ALLEY":" ","HOUSE_NO":"３號","E_COORD97":171032.53,"N_COORD97":2540348.8100000001,"ADDRESS":"長東街１０３巷３號","OBJECTID":308121},"geometry":{"x":171032.53000000212,"y":2540348.8100000024}},{"attributes":{"ID":308130,"DIS_CODE":0,"TOWNNAME":"東區","LI":"大智里","LIN":"8鄰","STREET":"長東街","SECT":" ","MAREA":" ","LANE":"１０３巷","ALLEY":" ","HOUSE_NO":"４３號","E_COORD97":171119.07000000001,"N_COORD97":2540349.3900000001,"ADDRESS":"長東街１０３巷４３號","OBJECTID":308122},"geometry":{"x":171119.07000000123,"y":2540349.3900000006}},{"attributes":{"ID":308131,"DIS_CODE":0,"TOWNNAME":"東區","LI":"大智里","LIN":"8鄰","STREET":"長東街","SECT":" ","MAREA":" ","LANE":"１０３巷","ALLEY":" ","HOUSE_NO":"４５號","E_COORD97":171123.23999999999,"N_COORD97":2540348.79,"ADDRESS":"長東街１０３巷４５號","OBJECTID":308123},"geometry":{"x":171123.24000000115,"y":2540348.7899999991}},{"attributes":{"ID":308132,"DIS_CODE":0,"TOWNNAME":"東區","LI":"大智里","LIN":"8鄰","STREET":"長東街","SECT":" ","MAREA":" ","LANE":"１０３巷","ALLEY":" ","HOUSE_NO":"４９號","E_COORD97":171130.39999999999,"N_COORD97":2540350.3799999999,"ADDRESS":"長東街１０３巷４９號","OBJECTID":308124},"geometry":{"x":171130.4000000013,"y":2540350.3800000008}},{"attributes":{"ID":308133,"DIS_CODE":0,"TOWNNAME":"東區","LI":"大智里","LIN":"8鄰","STREET":"長東街","SECT":" ","MAREA":" ","LANE":"１０３巷","ALLEY":" ","HOUSE_NO":"５號","E_COORD97":171037.07000000001,"N_COORD97":2540350.9700000002,"ADDRESS":"長東街１０３巷５號","OBJECTID":308125},"geometry":{"x":171037.0700000003,"y":2540350.9700000025}},{"attributes":{"ID":308134,"DIS_CODE":0,"TOWNNAME":"東區","LI":"大智里","LIN":"8鄰","STREET":"長東街","SECT":" ","MAREA":" ","LANE":"１０３巷","ALLEY":" ","HOUSE_NO":"７號","E_COORD97":171040.81,"N_COORD97":2540349.1000000001,"ADDRESS":"長東街１０３巷７號","OBJECTID":308126},"geometry":{"x":171040.81000000052,"y":2540349.1000000015}},{"attributes":{"ID":308135,"DIS_CODE":0,"TOWNNAME":"東區","LI":"大智里","LIN":"8鄰","STREET":"長東街","SECT":" ","MAREA":" ","LANE":"１０３巷","ALLEY":" ","HOUSE_NO":"８號","E_COORD97":171110.59,"N_COORD97":2540327.0299999998,"ADDRESS":"長東街１０３巷８號","OBJECTID":308127},"geometry":{"x":171110.58999999985,"y":2540327.0299999993}},{"attributes":{"ID":308136,"DIS_CODE":0,"TOWNNAME":"東區","LI":"大智里","LIN":"8鄰","STREET":"長東街","SECT":" ","MAREA":" ","LANE":"１０３巷","ALLEY":" ","HOUSE_NO":"９號","E_COORD97":171044.95000000001,"N_COORD97":2540350.9700000002,"ADDRESS":"長東街１０３巷９號","OBJECTID":308128},"geometry":{"x":171044.95000000112,"y":2540350.9700000025}},{"attributes":{"ID":308137,"DIS_CODE":0,"TOWNNAME":"東區","LI":"崇明里","LIN":"8鄰","STREET":"大同路","SECT":"二段","MAREA":" ","LANE":"４４９巷","ALLEY":" ","HOUSE_NO":"１１號","E_COORD97":169620.39000000001,"N_COORD97":2541313.8599999999,"ADDRESS":"大同路二段４４９巷１１號","OBJECTID":308129},"geometry":{"x":169620.38999999966,"y":2541313.8600000013}},{"attributes":{"ID":308138,"DIS_CODE":0,"TOWNNAME":"新營區","LI":"新東里","LIN":"8鄰","STREET":"東泰路","SECT":" ","MAREA":" ","LANE":"６巷","ALLEY":" ","HOUSE_NO":"５８號","E_COORD97":181241.45999999999,"N_COORD97":2579422.96,"ADDRESS":"東泰路６巷５８號","OBJECTID":308130},"geometry":{"x":181241.46000000089,"y":2579422.9600000009}},{"attributes":{"ID":308139,"DIS_CODE":0,"TOWNNAME":"東區","LI":"崇明里","LIN":"8鄰","STREET":"大同路","SECT":"二段","MAREA":" ","LANE":"４４９巷","ALLEY":" ","HOUSE_NO":"１３號","E_COORD97":169626.13,"N_COORD97":2541316.71,"ADDRESS":"大同路二段４４９巷１３號","OBJECTID":308131},"geometry":{"x":169626.13000000175,"y":2541316.7100000009}},{"attributes":{"ID":308140,"DIS_CODE":0,"TOWNNAME":"東區","LI":"崇明里","LIN":"8鄰","STREET":"大同路","SECT":"二段","MAREA":" ","LANE":"４４９巷","ALLEY":" ","HOUSE_NO":"１５號","E_COORD97":169631.32000000001,"N_COORD97":2541319.3799999999,"ADDRESS":"大同路二段４４９巷１５號","OBJECTID":308132},"geometry":{"x":169631.3200000003,"y":2541319.3800000008}},{"attributes":{"ID":308141,"DIS_CODE":0,"TOWNNAME":"東區","LI":"崇明里","LIN":"8鄰","STREET":"大同路","SECT":"二段","MAREA":" ","LANE":"４４９巷","ALLEY":" ","HOUSE_NO":"１７號","E_COORD97":169634.82999999999,"N_COORD97":2541322.3999999999,"ADDRESS":"大同路二段４４９巷１７號","OBJECTID":308133},"geometry":{"x":169634.83000000007,"y":2541322.4000000004}},{"attributes":{"ID":308142,"DIS_CODE":0,"TOWNNAME":"東區","LI":"崇明里","LIN":"8鄰","STREET":"大同路","SECT":"二段","MAREA":" ","LANE":"４４９巷","ALLEY":" ","HOUSE_NO":"１９號","E_COORD97":169638.35000000001,"N_COORD97":2541325.2400000002,"ADDRESS":"大同路二段４４９巷１９號","OBJECTID":308134},"geometry":{"x":169638.35000000056,"y":2541325.2400000021}},{"attributes":{"ID":308143,"DIS_CODE":0,"TOWNNAME":"東區","LI":"崇明里","LIN":"8鄰","STREET":"大同路","SECT":"二段","MAREA":" ","LANE":"４４９巷","ALLEY":" ","HOUSE_NO":"２１號","E_COORD97":169642.54000000001,"N_COORD97":2541328.75,"ADDRESS":"大同路二段４４９巷２１號","OBJECTID":308135},"geometry":{"x":169642.54000000097,"y":2541328.7500000019}},{"attributes":{"ID":308144,"DIS_CODE":0,"TOWNNAME":"東區","LI":"崇明里","LIN":"8鄰","STREET":"大同路","SECT":"二段","MAREA":" ","LANE":"４４９巷","ALLEY":" ","HOUSE_NO":"２３號","E_COORD97":169647.39000000001,"N_COORD97":2541333.4399999999,"ADDRESS":"大同路二段４４９巷２３號","OBJECTID":308136},"geometry":{"x":169647.38999999966,"y":2541333.4400000013}},{"attributes":{"ID":308145,"DIS_CODE":0,"TOWNNAME":"東區","LI":"崇明里","LIN":"8鄰","STREET":"大同路","SECT":"二段","MAREA":" ","LANE":"４４９巷","ALLEY":" ","HOUSE_NO":"３５號","E_COORD97":169687.23999999999,"N_COORD97":2541359.8700000001,"ADDRESS":"大同路二段４４９巷３５號","OBJECTID":308137},"geometry":{"x":169687.24000000115,"y":2541359.870000001}},{"attributes":{"ID":308146,"DIS_CODE":0,"TOWNNAME":"東區","LI":"崇明里","LIN":"8鄰","STREET":"大同路","SECT":"二段","MAREA":" ","LANE":"４４９巷","ALLEY":" ","HOUSE_NO":"４７號","E_COORD97":169709.67000000001,"N_COORD97":2541375.2599999998,"ADDRESS":"大同路二段４４９巷４７號","OBJECTID":308138},"geometry":{"x":169709.67000000086,"y":2541375.2600000016}},{"attributes":{"ID":308147,"DIS_CODE":0,"TOWNNAME":"東區","LI":"崇明里","LIN":"8鄰","STREET":"大同路","SECT":"二段","MAREA":" ","LANE":"４４９巷","ALLEY":" ","HOUSE_NO":"４９號","E_COORD97":169713.69,"N_COORD97":2541378.1099999999,"ADDRESS":"大同路二段４４９巷４９號","OBJECTID":308139},"geometry":{"x":169713.69000000041,"y":2541378.1099999975}},{"attributes":{"ID":308148,"DIS_CODE":0,"TOWNNAME":"東區","LI":"崇明里","LIN":"8鄰","STREET":"大同路","SECT":"二段","MAREA":" ","LANE":"４４９巷","ALLEY":" ","HOUSE_NO":"５７號","E_COORD97":169728.26999999999,"N_COORD97":2541388.8300000001,"ADDRESS":"大同路二段４４９巷５７號","OBJECTID":308140},"geometry":{"x":169728.27000000142,"y":2541388.8300000019}},{"attributes":{"ID":308149,"DIS_CODE":0,"TOWNNAME":"東區","LI":"崇明里","LIN":"8鄰","STREET":"大同路","SECT":"二段","MAREA":" ","LANE":"４４９巷","ALLEY":" ","HOUSE_NO":"５９號","E_COORD97":169731.78,"N_COORD97":2541391.3399999999,"ADDRESS":"大同路二段４４９巷５９號","OBJECTID":308141},"geometry":{"x":169731.78000000026,"y":2541391.3400000017}},{"attributes":{"ID":308150,"DIS_CODE":0,"TOWNNAME":"東區","LI":"崇明里","LIN":"8鄰","STREET":"大同路","SECT":"二段","MAREA":" ","LANE":"４４９巷","ALLEY":" ","HOUSE_NO":"６１號","E_COORD97":169735.29999999999,"N_COORD97":2541393.5099999998,"ADDRESS":"大同路二段４４９巷６１號","OBJECTID":308142},"geometry":{"x":169735.30000000075,"y":2541393.5100000016}},{"attributes":{"ID":308151,"DIS_CODE":0,"TOWNNAME":"大內區","LI":"環湖里","LIN":"1鄰","STREET":" ","SECT":" ","MAREA":"環湖","LANE":" ","ALLEY":" ","HOUSE_NO":"１號之１","E_COORD97":190534.55528199999,"N_COORD97":2560007.5179699999,"ADDRESS":"環湖１號之１","OBJECTID":308143},"geometry":{"x":190534.55528200045,"y":2560007.5179700013}},{"attributes":{"ID":308152,"DIS_CODE":0,"TOWNNAME":"東區","LI":"崇明里","LIN":"8鄰","STREET":"大同路","SECT":"二段","MAREA":" ","LANE":"４４９巷","ALLEY":" ","HOUSE_NO":"６５號","E_COORD97":169742.37,"N_COORD97":2541398.6299999999,"ADDRESS":"大同路二段４４９巷６５號","OBJECTID":308144},"geometry":{"x":169742.37000000104,"y":2541398.6300000008}},{"attributes":{"ID":308153,"DIS_CODE":0,"TOWNNAME":"東區","LI":"崇明里","LIN":"8鄰","STREET":"大同路","SECT":"二段","MAREA":" ","LANE":"４４９巷","ALLEY":" ","HOUSE_NO":"６７號","E_COORD97":169746.01000000001,"N_COORD97":2541401.3999999999,"ADDRESS":"大同路二段４４９巷６７號","OBJECTID":308145},"geometry":{"x":169746.01000000071,"y":2541401.4000000041}},{"attributes":{"ID":308154,"DIS_CODE":0,"TOWNNAME":"東區","LI":"崇明里","LIN":"8鄰","STREET":"大同路","SECT":"二段","MAREA":" ","LANE":"４４９巷","ALLEY":" ","HOUSE_NO":"６９號","E_COORD97":169750.34,"N_COORD97":2541404,"ADDRESS":"大同路二段４４９巷６９號","OBJECTID":308146},"geometry":{"x":169750.34000000078,"y":2541404.0000000019}},{"attributes":{"ID":308155,"DIS_CODE":0,"TOWNNAME":"東區","LI":"崇明里","LIN":"8鄰","STREET":"大同路","SECT":"二段","MAREA":" ","LANE":"４４９巷","ALLEY":" ","HOUSE_NO":"７１號","E_COORD97":169757.79999999999,"N_COORD97":2541407.1200000001,"ADDRESS":"大同路二段４４９巷７１號","OBJECTID":308147},"geometry":{"x":169757.80000000075,"y":2541407.1200000048}},{"attributes":{"ID":308156,"DIS_CODE":0,"TOWNNAME":"東區","LI":"崇明里","LIN":"8鄰","STREET":"大同路","SECT":"二段","MAREA":" ","LANE":"４４９巷","ALLEY":" ","HOUSE_NO":"７３號","E_COORD97":169762.13,"N_COORD97":2541411.7999999998,"ADDRESS":"大同路二段４４９巷７３號","OBJECTID":308148},"geometry":{"x":169762.13000000082,"y":2541411.8000000007}},{"attributes":{"ID":308157,"DIS_CODE":0,"TOWNNAME":"東區","LI":"崇明里","LIN":"8鄰","STREET":"大同路","SECT":"二段","MAREA":" ","LANE":"４４９巷","ALLEY":" ","HOUSE_NO":"７５號","E_COORD97":169763.14000000001,"N_COORD97":2541428.21,"ADDRESS":"大同路二段４４９巷７５號","OBJECTID":308149},"geometry":{"x":169763.14000000153,"y":2541428.2100000028}},{"attributes":{"ID":308158,"DIS_CODE":0,"TOWNNAME":"東區","LI":"崇明里","LIN":"8鄰","STREET":"大同路","SECT":"二段","MAREA":" ","LANE":"４４９巷","ALLEY":" ","HOUSE_NO":"７號","E_COORD97":169597.67999999999,"N_COORD97":2541298.4700000002,"ADDRESS":"大同路二段４４９巷７號","OBJECTID":308150},"geometry":{"x":169597.6799999997,"y":2541298.4700000007}},{"attributes":{"ID":308159,"DIS_CODE":0,"TOWNNAME":"東區","LI":"大智里","LIN":"8鄰","STREET":"長東街","SECT":" ","MAREA":" ","LANE":"１０３巷","ALLEY":" ","HOUSE_NO":"２５號","E_COORD97":171078.45999999999,"N_COORD97":2540351.4700000002,"ADDRESS":"長東街１０３巷２５號","OBJECTID":308151},"geometry":{"x":171078.46000000183,"y":2540351.4700000025}},{"attributes":{"ID":308160,"DIS_CODE":0,"TOWNNAME":"東區","LI":"大智里","LIN":"8鄰","STREET":"長東街","SECT":" ","MAREA":" ","LANE":"１０３巷","ALLEY":" ","HOUSE_NO":"２７號","E_COORD97":171082.54999999999,"N_COORD97":2540350.2799999998,"ADDRESS":"長東街１０３巷２７號","OBJECTID":308152},"geometry":{"x":171082.54999999981,"y":2540350.2800000012}},{"attributes":{"ID":308161,"DIS_CODE":0,"TOWNNAME":"東區","LI":"大智里","LIN":"8鄰","STREET":"長東街","SECT":" ","MAREA":" ","LANE":"１０３巷","ALLEY":" ","HOUSE_NO":"４１號","E_COORD97":171116.01999999999,"N_COORD97":2540348,"ADDRESS":"長東街１０３巷４１號","OBJECTID":308153},"geometry":{"x":171116.01999999955,"y":2540348}},{"attributes":{"ID":308162,"DIS_CODE":0,"TOWNNAME":"東區","LI":"大智里","LIN":"8鄰","STREET":"長東街","SECT":" ","MAREA":" ","LANE":"１０３巷","ALLEY":" ","HOUSE_NO":"４７號","E_COORD97":171126.69,"N_COORD97":2540350.1200000001,"ADDRESS":"長東街１０３巷４７號","OBJECTID":308154},"geometry":{"x":171126.69000000134,"y":2540350.1200000029}},{"attributes":{"ID":308163,"DIS_CODE":0,"TOWNNAME":"東區","LI":"崇明里","LIN":"8鄰","STREET":"大同路","SECT":"二段","MAREA":" ","LANE":"４４９巷","ALLEY":" ","HOUSE_NO":"３９號","E_COORD97":169695.94,"N_COORD97":2541364.2200000002,"ADDRESS":"大同路二段４４９巷３９號","OBJECTID":308155},"geometry":{"x":169695.94000000134,"y":2541364.2200000007}},{"attributes":{"ID":308164,"DIS_CODE":0,"TOWNNAME":"東區","LI":"崇明里","LIN":"8鄰","STREET":"大同路","SECT":"二段","MAREA":" ","LANE":"４４９巷","ALLEY":" ","HOUSE_NO":"６３號","E_COORD97":169739.42000000001,"N_COORD97":2541395.6899999999,"ADDRESS":"大同路二段４４９巷６３號","OBJECTID":308156},"geometry":{"x":169739.42000000179,"y":2541395.6900000013}},{"attributes":{"ID":308165,"DIS_CODE":0,"TOWNNAME":"東區","LI":"莊敬里","LIN":"8鄰","STREET":"東光路","SECT":"二段","MAREA":" ","LANE":"１０９巷","ALLEY":" ","HOUSE_NO":"１３號","E_COORD97":171178.35999999999,"N_COORD97":2544180.79,"ADDRESS":"東光路二段１０９巷１３號","OBJECTID":308157},"geometry":{"x":171178.36000000127,"y":2544180.7900000028}},{"attributes":{"ID":308166,"DIS_CODE":0,"TOWNNAME":"東區","LI":"莊敬里","LIN":"8鄰","STREET":"東光路","SECT":"二段","MAREA":" ","LANE":"１０９巷","ALLEY":" ","HOUSE_NO":"１５號","E_COORD97":171176.45999999999,"N_COORD97":2544177.6899999999,"ADDRESS":"東光路二段１０９巷１５號","OBJECTID":308158},"geometry":{"x":171176.45999999996,"y":2544177.6899999995}},{"attributes":{"ID":308167,"DIS_CODE":0,"TOWNNAME":"東區","LI":"莊敬里","LIN":"8鄰","STREET":"東光路","SECT":"二段","MAREA":" ","LANE":"１０９巷","ALLEY":" ","HOUSE_NO":"１７號","E_COORD97":171175.45000000001,"N_COORD97":2544174.6899999999,"ADDRESS":"東光路二段１０９巷１７號","OBJECTID":308159},"geometry":{"x":171175.45000000205,"y":2544174.6899999995}},{"attributes":{"ID":308168,"DIS_CODE":0,"TOWNNAME":"東區","LI":"莊敬里","LIN":"8鄰","STREET":"東光路","SECT":"二段","MAREA":" ","LANE":"１０９巷","ALLEY":" ","HOUSE_NO":"１９號","E_COORD97":171177.04999999999,"N_COORD97":2544171.1000000001,"ADDRESS":"東光路二段１０９巷１９號","OBJECTID":308160},"geometry":{"x":171177.04999999981,"y":2544171.0999999996}},{"attributes":{"ID":308169,"DIS_CODE":0,"TOWNNAME":"永康區","LI":"復國里","LIN":"25鄰","STREET":"復華三街","SECT":" ","MAREA":" ","LANE":"９０巷","ALLEY":" ","HOUSE_NO":"１８號六樓之３","E_COORD97":172639.64000000001,"N_COORD97":2545614.2999999998,"ADDRESS":"復華三街９０巷１８號六樓之３","OBJECTID":308161},"geometry":{"x":172639.63999999966,"y":2545614.3000000026}},{"attributes":{"ID":308170,"DIS_CODE":0,"TOWNNAME":"東區","LI":"莊敬里","LIN":"8鄰","STREET":"東光路","SECT":"二段","MAREA":" ","LANE":"１０９巷","ALLEY":" ","HOUSE_NO":"２１號","E_COORD97":171156.51999999999,"N_COORD97":2544177.3900000001,"ADDRESS":"東光路二段１０９巷２１號","OBJECTID":308162},"geometry":{"x":171156.51999999955,"y":2544177.3900000006}},{"attributes":{"ID":308171,"DIS_CODE":0,"TOWNNAME":"東區","LI":"莊敬里","LIN":"8鄰","STREET":"東光路","SECT":"二段","MAREA":" ","LANE":"１０９巷","ALLEY":" ","HOUSE_NO":"２３號","E_COORD97":171150.23999999999,"N_COORD97":2544175.8399999999,"ADDRESS":"東光路二段１０９巷２３號","OBJECTID":308163},"geometry":{"x":171150.24000000115,"y":2544175.8400000017}},{"attributes":{"ID":308172,"DIS_CODE":0,"TOWNNAME":"東區","LI":"莊敬里","LIN":"8鄰","STREET":"東光路","SECT":"二段","MAREA":" ","LANE":"１０９巷","ALLEY":" ","HOUSE_NO":"２５號","E_COORD97":171143.31,"N_COORD97":2544175.6000000001,"ADDRESS":"東光路二段１０９巷２５號","OBJECTID":308164},"geometry":{"x":171143.30999999866,"y":2544175.5999999978}},{"attributes":{"ID":308173,"DIS_CODE":0,"TOWNNAME":"東區","LI":"莊敬里","LIN":"8鄰","STREET":"東光路","SECT":"二段","MAREA":" ","LANE":"１０９巷","ALLEY":" ","HOUSE_NO":"２７號","E_COORD97":171138.64000000001,"N_COORD97":2544175.29,"ADDRESS":"東光路二段１０９巷２７號","OBJECTID":308165},"geometry":{"x":171138.6400000006,"y":2544175.290000001}},{"attributes":{"ID":308174,"DIS_CODE":0,"TOWNNAME":"東區","LI":"莊敬里","LIN":"8鄰","STREET":"東光路","SECT":"二段","MAREA":" ","LANE":"１０９巷","ALLEY":" ","HOUSE_NO":"２９號","E_COORD97":171133.04999999999,"N_COORD97":2544174.9900000002,"ADDRESS":"東光路二段１０９巷２９號","OBJECTID":308166},"geometry":{"x":171133.04999999981,"y":2544174.9900000021}},{"attributes":{"ID":308175,"DIS_CODE":0,"TOWNNAME":"東區","LI":"莊敬里","LIN":"8鄰","STREET":"東光路","SECT":"二段","MAREA":" ","LANE":"１０９巷","ALLEY":" ","HOUSE_NO":"３１號","E_COORD97":171127.95000000001,"N_COORD97":2544174.8900000001,"ADDRESS":"東光路二段１０９巷３１號","OBJECTID":308167},"geometry":{"x":171127.95000000205,"y":2544174.8900000043}},{"attributes":{"ID":308176,"DIS_CODE":0,"TOWNNAME":"東區","LI":"莊敬里","LIN":"8鄰","STREET":"東光路","SECT":"二段","MAREA":" ","LANE":"１０９巷","ALLEY":" ","HOUSE_NO":"３３號","E_COORD97":171121.16,"N_COORD97":2544175.4900000002,"ADDRESS":"東光路二段１０９巷３３號","OBJECTID":308168},"geometry":{"x":171121.16000000015,"y":2544175.4900000002}},{"attributes":{"ID":308177,"DIS_CODE":0,"TOWNNAME":"東區","LI":"莊敬里","LIN":"8鄰","STREET":"東光路","SECT":"二段","MAREA":" ","LANE":"１０９巷","ALLEY":" ","HOUSE_NO":"３５號","E_COORD97":171115.37,"N_COORD97":2544175.79,"ADDRESS":"東光路二段１０９巷３５號","OBJECTID":308169},"geometry":{"x":171115.37000000104,"y":2544175.7899999991}},{"attributes":{"ID":308178,"DIS_CODE":0,"TOWNNAME":"東區","LI":"莊敬里","LIN":"8鄰","STREET":"東光路","SECT":"二段","MAREA":" ","LANE":"１０９巷","ALLEY":" ","HOUSE_NO":"３７號","E_COORD97":171108.17000000001,"N_COORD97":2544176.3900000001,"ADDRESS":"東光路二段１０９巷３７號","OBJECTID":308170},"geometry":{"x":171108.17000000086,"y":2544176.3900000025}},{"attributes":{"ID":308179,"DIS_CODE":0,"TOWNNAME":"東區","LI":"莊敬里","LIN":"8鄰","STREET":"東光路","SECT":"二段","MAREA":" ","LANE":"１０９巷","ALLEY":" ","HOUSE_NO":"５號","E_COORD97":171190.06,"N_COORD97":2544191.5699999998,"ADDRESS":"東光路二段１０９巷５號","OBJECTID":308171},"geometry":{"x":171190.06000000052,"y":2544191.5700000022}},{"attributes":{"ID":308180,"DIS_CODE":0,"TOWNNAME":"東區","LI":"莊敬里","LIN":"8鄰","STREET":"東光路","SECT":"二段","MAREA":" ","LANE":"１０９巷","ALLEY":" ","HOUSE_NO":"７號","E_COORD97":171187.16,"N_COORD97":2544188.48,"ADDRESS":"東光路二段１０９巷７號","OBJECTID":308172},"geometry":{"x":171187.16000000015,"y":2544188.4800000023}},{"attributes":{"ID":308181,"DIS_CODE":0,"TOWNNAME":"東區","LI":"莊敬里","LIN":"8鄰","STREET":"東光路","SECT":"二段","MAREA":" ","LANE":"１０９巷","ALLEY":" ","HOUSE_NO":"９號","E_COORD97":171184.76999999999,"N_COORD97":2544185.8799999999,"ADDRESS":"東光路二段１０９巷９號","OBJECTID":308173},"geometry":{"x":171184.77000000048,"y":2544185.879999999}},{"attributes":{"ID":308182,"DIS_CODE":0,"TOWNNAME":"東區","LI":"莊敬里","LIN":"8鄰","STREET":"東光路","SECT":"二段","MAREA":" ","LANE":"７７巷","ALLEY":" ","HOUSE_NO":"１０號","E_COORD97":171177.25,"N_COORD97":2544154.79,"ADDRESS":"東光路二段７７巷１０號","OBJECTID":308174},"geometry":{"x":171177.25000000093,"y":2544154.790000001}},{"attributes":{"ID":308183,"DIS_CODE":0,"TOWNNAME":"東區","LI":"莊敬里","LIN":"8鄰","STREET":"東光路","SECT":"二段","MAREA":" ","LANE":"７７巷","ALLEY":" ","HOUSE_NO":"１１號","E_COORD97":171164.17000000001,"N_COORD97":2544138.79,"ADDRESS":"東光路二段７７巷１１號","OBJECTID":308175},"geometry":{"x":171164.17000000086,"y":2544138.7899999991}},{"attributes":{"ID":308184,"DIS_CODE":0,"TOWNNAME":"東區","LI":"莊敬里","LIN":"8鄰","STREET":"東光路","SECT":"二段","MAREA":" ","LANE":"７７巷","ALLEY":" ","HOUSE_NO":"１２號","E_COORD97":171171.79000000001,"N_COORD97":2544155.04,"ADDRESS":"東光路二段７７巷１２號","OBJECTID":308176},"geometry":{"x":171171.79000000097,"y":2544155.0399999972}},{"attributes":{"ID":308185,"DIS_CODE":0,"TOWNNAME":"東區","LI":"莊敬里","LIN":"8鄰","STREET":"東光路","SECT":"二段","MAREA":" ","LANE":"７７巷","ALLEY":" ","HOUSE_NO":"１３號","E_COORD97":171159.87,"N_COORD97":2544137.9900000002,"ADDRESS":"東光路二段７７巷１３號","OBJECTID":308177},"geometry":{"x":171159.87000000011,"y":2544137.9900000021}},{"attributes":{"ID":308186,"DIS_CODE":0,"TOWNNAME":"東區","LI":"莊敬里","LIN":"8鄰","STREET":"東光路","SECT":"二段","MAREA":" ","LANE":"７７巷","ALLEY":" ","HOUSE_NO":"１４號","E_COORD97":171156.72,"N_COORD97":2544155.8100000001,"ADDRESS":"東光路二段７７巷１４號","OBJECTID":308178},"geometry":{"x":171156.72000000067,"y":2544155.8100000024}},{"attributes":{"ID":308187,"DIS_CODE":0,"TOWNNAME":"東區","LI":"莊敬里","LIN":"8鄰","STREET":"東光路","SECT":"二段","MAREA":" ","LANE":"７７巷","ALLEY":" ","HOUSE_NO":"１５號","E_COORD97":171155.72,"N_COORD97":2544139.2200000002,"ADDRESS":"東光路二段７７巷１５號","OBJECTID":308179},"geometry":{"x":171155.71999999974,"y":2544139.2200000025}},{"attributes":{"ID":308188,"DIS_CODE":0,"TOWNNAME":"東區","LI":"莊敬里","LIN":"8鄰","STREET":"東光路","SECT":"二段","MAREA":" ","LANE":"７７巷","ALLEY":" ","HOUSE_NO":"１６號","E_COORD97":171152.42000000001,"N_COORD97":2544158.1099999999,"ADDRESS":"東光路二段７７巷１６號","OBJECTID":308180},"geometry":{"x":171152.41999999993,"y":2544158.1099999994}},{"attributes":{"ID":308189,"DIS_CODE":0,"TOWNNAME":"東區","LI":"莊敬里","LIN":"8鄰","STREET":"東光路","SECT":"二段","MAREA":" ","LANE":"７７巷","ALLEY":" ","HOUSE_NO":"１９號","E_COORD97":171147.75,"N_COORD97":2544139.7400000002,"ADDRESS":"東光路二段７７巷１９號","OBJECTID":308181},"geometry":{"x":171147.75000000186,"y":2544139.7400000021}},{"attributes":{"ID":308190,"DIS_CODE":0,"TOWNNAME":"東區","LI":"崇德里","LIN":"8鄰","STREET":"崇德七街","SECT":" ","MAREA":" ","LANE":"２０巷","ALLEY":" ","HOUSE_NO":"２６號","E_COORD97":170861.97,"N_COORD97":2541705.6400000001,"ADDRESS":"崇德七街２０巷２６號","OBJECTID":308182},"geometry":{"x":170861.96999999974,"y":2541705.6400000025}},{"attributes":{"ID":308191,"DIS_CODE":0,"TOWNNAME":"東區","LI":"莊敬里","LIN":"8鄰","STREET":"東光路","SECT":"二段","MAREA":" ","LANE":"７７巷","ALLEY":" ","HOUSE_NO":"３０號","E_COORD97":171123.32999999999,"N_COORD97":2544157.1099999999,"ADDRESS":"東光路二段７７巷３０號","OBJECTID":308183},"geometry":{"x":171123.33000000007,"y":2544157.1099999994}},{"attributes":{"ID":308192,"DIS_CODE":0,"TOWNNAME":"安南區","LI":"溪心里","LIN":"17鄰","STREET":"仁安路","SECT":" ","MAREA":" ","LANE":" ","ALLEY":" ","HOUSE_NO":"２６６號","E_COORD97":166023.62,"N_COORD97":2550268.7999999998,"ADDRESS":"仁安路２６６號","OBJECTID":308184},"geometry":{"x":166023.62000000011,"y":2550268.8000000026}},{"attributes":{"ID":308193,"DIS_CODE":0,"TOWNNAME":"永康區","LI":"勝利里","LIN":"39鄰","STREET":"勝華街","SECT":" ","MAREA":" ","LANE":"３７巷","ALLEY":" ","HOUSE_NO":"５６號八樓之１","E_COORD97":171422.51000000001,"N_COORD97":2545110.29,"ADDRESS":"勝華街３７巷５６號八樓之１","OBJECTID":308185},"geometry":{"x":171422.51000000071,"y":2545110.290000001}},{"attributes":{"ID":308194,"DIS_CODE":0,"TOWNNAME":"東區","LI":"莊敬里","LIN":"8鄰","STREET":"東光路","SECT":"二段","MAREA":" ","LANE":"７７巷","ALLEY":" ","HOUSE_NO":"３２號","E_COORD97":171119.73000000001,"N_COORD97":2544159.3100000001,"ADDRESS":"東光路二段７７巷３２號","OBJECTID":308186},"geometry":{"x":171119.73000000138,"y":2544159.3100000024}},{"attributes":{"ID":308195,"DIS_CODE":0,"TOWNNAME":"東區","LI":"莊敬里","LIN":"8鄰","STREET":"東光路","SECT":"二段","MAREA":" ","LANE":"７７巷","ALLEY":" ","HOUSE_NO":"３４號","E_COORD97":171114.82999999999,"N_COORD97":2544157.3100000001,"ADDRESS":"東光路二段７７巷３４號","OBJECTID":308187},"geometry":{"x":171114.83000000007,"y":2544157.3100000005}},{"attributes":{"ID":308196,"DIS_CODE":0,"TOWNNAME":"東區","LI":"莊敬里","LIN":"8鄰","STREET":"東光路","SECT":"二段","MAREA":" ","LANE":"７７巷","ALLEY":" ","HOUSE_NO":"３號","E_COORD97":171179.48999999999,"N_COORD97":2544138.6400000001,"ADDRESS":"東光路二段７７巷３號","OBJECTID":308188},"geometry":{"x":171179.49000000022,"y":2544138.6400000006}},{"attributes":{"ID":308197,"DIS_CODE":0,"TOWNNAME":"東區","LI":"莊敬里","LIN":"8鄰","STREET":"東光路","SECT":"二段","MAREA":" ","LANE":"７７巷","ALLEY":" ","HOUSE_NO":"４號","E_COORD97":171190.73000000001,"N_COORD97":2544157.0899999999,"ADDRESS":"東光路二段７７巷４號","OBJECTID":308189},"geometry":{"x":171190.73000000231,"y":2544157.0900000017}},{"attributes":{"ID":308198,"DIS_CODE":0,"TOWNNAME":"東區","LI":"莊敬里","LIN":"8鄰","STREET":"東光路","SECT":"二段","MAREA":" ","LANE":"７７巷","ALLEY":" ","HOUSE_NO":"５號","E_COORD97":171175.26000000001,"N_COORD97":2544136.6000000001,"ADDRESS":"東光路二段７７巷５號","OBJECTID":308190},"geometry":{"x":171175.26000000071,"y":2544136.6000000015}},{"attributes":{"ID":308199,"DIS_CODE":0,"TOWNNAME":"東區","LI":"莊敬里","LIN":"8鄰","STREET":"東光路","SECT":"二段","MAREA":" ","LANE":"７７巷","ALLEY":" ","HOUSE_NO":"６號","E_COORD97":171185.94,"N_COORD97":2544154.1899999999,"ADDRESS":"東光路二段７７巷６號","OBJECTID":308191},"geometry":{"x":171185.94000000227,"y":2544154.1899999995}},{"attributes":{"ID":308200,"DIS_CODE":0,"TOWNNAME":"東區","LI":"莊敬里","LIN":"8鄰","STREET":"東光路","SECT":"二段","MAREA":" ","LANE":"７７巷","ALLEY":" ","HOUSE_NO":"７號","E_COORD97":171171.32999999999,"N_COORD97":2544138.8599999999,"ADDRESS":"東光路二段７７巷７號","OBJECTID":308192},"geometry":{"x":171171.33000000101,"y":2544138.8599999994}},{"attributes":{"ID":308201,"DIS_CODE":0,"TOWNNAME":"東區","LI":"莊敬里","LIN":"8鄰","STREET":"東光路","SECT":"二段","MAREA":" ","LANE":"７７巷","ALLEY":" ","HOUSE_NO":"８號","E_COORD97":171182.04000000001,"N_COORD97":2544157.4900000002,"ADDRESS":"東光路二段７７巷８號","OBJECTID":308193},"geometry":{"x":171182.04000000097,"y":2544157.4900000021}},{"attributes":{"ID":308202,"DIS_CODE":0,"TOWNNAME":"東區","LI":"莊敬里","LIN":"8鄰","STREET":"東光路","SECT":"二段","MAREA":" ","LANE":"７７巷","ALLEY":" ","HOUSE_NO":"９號","E_COORD97":171167.32999999999,"N_COORD97":2544137.3300000001,"ADDRESS":"東光路二段７７巷９號","OBJECTID":308194},"geometry":{"x":171167.33000000007,"y":2544137.3300000038}},{"attributes":{"ID":308203,"DIS_CODE":0,"TOWNNAME":"安南區","LI":"新順里","LIN":"8鄰","STREET":"總安街","SECT":"一段","MAREA":" ","LANE":"３６２巷","ALLEY":" ","HOUSE_NO":"４８號","E_COORD97":169223.54000000001,"N_COORD97":2550530.6699999999,"ADDRESS":"總安街一段３６２巷４８號","OBJECTID":308195},"geometry":{"x":169223.5400000019,"y":2550530.6700000018}},{"attributes":{"ID":308204,"DIS_CODE":0,"TOWNNAME":"安南區","LI":"州南里","LIN":"8鄰","STREET":"長和路","SECT":"三段","MAREA":" ","LANE":"９４巷","ALLEY":" ","HOUSE_NO":"３號","E_COORD97":169707.85999999999,"N_COORD97":2551555.1899999999,"ADDRESS":"長和路三段９４巷３號","OBJECTID":308196},"geometry":{"x":169707.86000000034,"y":2551555.1899999995}},{"attributes":{"ID":308205,"DIS_CODE":0,"TOWNNAME":"永康區","LI":"\u25A0洲里","LIN":"8鄰","STREET":"中正南路","SECT":" ","MAREA":" ","LANE":"８４５巷","ALLEY":" ","HOUSE_NO":"１號","E_COORD97":171772.22,"N_COORD97":2549058.4900000002,"ADDRESS":"中正南路８４５巷１號","OBJECTID":308197},"geometry":{"x":171772.22000000067,"y":2549058.4900000002}},{"attributes":{"ID":308206,"DIS_CODE":0,"TOWNNAME":"善化區","LI":"南關里","LIN":"8鄰","STREET":"光復路","SECT":" ","MAREA":" ","LANE":"５３６巷","ALLEY":" ","HOUSE_NO":"１號","E_COORD97":176813.87,"N_COORD97":2558904.5099999998,"ADDRESS":"光復路５３６巷１號","OBJECTID":308198},"geometry":{"x":176813.86999999918,"y":2558904.5100000035}},{"attributes":{"ID":308207,"DIS_CODE":0,"TOWNNAME":"善化區","LI":"坐駕里","LIN":"8鄰","STREET":"大成路","SECT":" ","MAREA":" ","LANE":"３７１巷","ALLEY":" ","HOUSE_NO":"２號","E_COORD97":177907.42999999999,"N_COORD97":2558765,"ADDRESS":"大成路３７１巷２號","OBJECTID":308199},"geometry":{"x":177907.4299999997,"y":2558765}},{"attributes":{"ID":308208,"DIS_CODE":0,"TOWNNAME":"善化區","LI":"坐駕里","LIN":"8鄰","STREET":"大成路","SECT":" ","MAREA":" ","LANE":"３７１巷","ALLEY":" ","HOUSE_NO":"８號","E_COORD97":177926.67999999999,"N_COORD97":2558755.25,"ADDRESS":"大成路３７１巷８號","OBJECTID":308200},"geometry":{"x":177926.6799999997,"y":2558755.2500000019}}]}