{"displayFieldName":"TOWNNAME","fieldAliases":{"ID":"ID","DIS_CODE":"DIS_CODE","TOWNNAME":"TOWNNAME","LI":"LI","LIN":"LIN","STREET":"STREET","SECT":"SECT","MAREA":"MAREA","LANE":"LANE","ALLEY":"ALLEY","HOUSE_NO":"HOUSE_NO","E_COORD97":"E_COORD97","N_COORD97":"N_COORD97","ADDRESS":"ADDRESS","OBJECTID":"OBJECTID"},"geometryType":"esriGeometryPoint","spatialReference":{"wkid":102443,"latestWkid":3826},"fields":[{"name":"ID","type":"esriFieldTypeDouble","alias":"ID"},{"name":"DIS_CODE","type":"esriFieldTypeInteger","alias":"DIS_CODE"},{"name":"TOWNNAME","type":"esriFieldTypeString","alias":"TOWNNAME","length":8},{"name":"LI","type":"esriFieldTypeString","alias":"LI","length":8},{"name":"LIN","type":"esriFieldTypeString","alias":"LIN","length":12},{"name":"STREET","type":"esriFieldTypeString","alias":"STREET","length":20},{"name":"SECT","type":"esriFieldTypeString","alias":"SECT","length":8},{"name":"MAREA","type":"esriFieldTypeString","alias":"MAREA","length":12},{"name":"LANE","type":"esriFieldTypeString","alias":"LANE","length":10},{"name":"ALLEY","type":"esriFieldTypeString","alias":"ALLEY","length":10},{"name":"HOUSE_NO","type":"esriFieldTypeString","alias":"HOUSE_NO","length":20},{"name":"E_COORD97","type":"esriFieldTypeDouble","alias":"E_COORD97"},{"name":"N_COORD97","type":"esriFieldTypeDouble","alias":"N_COORD97"},{"name":"ADDRESS","type":"esriFieldTypeString","alias":"ADDRESS","length":50},{"name":"OBJECTID","type":"esriFieldTypeOID","alias":"OBJECTID"}],"features":[{"attributes":{"ID":449826,"DIS_CODE":0,"TOWNNAME":"下營區","LI":"仁里里","LIN":"18鄰","STREET":"公園路","SECT":" ","MAREA":" ","LANE":"３２巷","ALLEY":" ","HOUSE_NO":"３２號","E_COORD97":174334.5,"N_COORD97":2570423.29,"ADDRESS":"公園路３２巷３２號","OBJECTID":449801},"geometry":{"x":174334.49999999907,"y":2570423.290000001}},{"attributes":{"ID":449827,"DIS_CODE":0,"TOWNNAME":"下營區","LI":"仁里里","LIN":"18鄰","STREET":"公園路","SECT":" ","MAREA":" ","LANE":"３２巷","ALLEY":" ","HOUSE_NO":"３６號","E_COORD97":174334.32999999999,"N_COORD97":2570428.7799999998,"ADDRESS":"公園路３２巷３６號","OBJECTID":449802},"geometry":{"x":174334.33000000101,"y":2570428.7799999993}},{"attributes":{"ID":449828,"DIS_CODE":0,"TOWNNAME":"下營區","LI":"仁里里","LIN":"18鄰","STREET":"公園路","SECT":" ","MAREA":" ","LANE":"３２巷","ALLEY":" ","HOUSE_NO":"３８號","E_COORD97":174333.44,"N_COORD97":2570433.1899999999,"ADDRESS":"公園路３２巷３８號","OBJECTID":449803},"geometry":{"x":174333.44000000041,"y":2570433.1899999976}},{"attributes":{"ID":449829,"DIS_CODE":0,"TOWNNAME":"下營區","LI":"營前里","LIN":"18鄰","STREET":"文化街","SECT":" ","MAREA":" ","LANE":"２１巷","ALLEY":" ","HOUSE_NO":"１０號","E_COORD97":174769.20000000001,"N_COORD97":2570279.4700000002,"ADDRESS":"文化街２１巷１０號","OBJECTID":449804},"geometry":{"x":174769.20000000205,"y":2570279.4700000007}},{"attributes":{"ID":449830,"DIS_CODE":0,"TOWNNAME":"下營區","LI":"營前里","LIN":"18鄰","STREET":"文化街","SECT":" ","MAREA":" ","LANE":"２１巷","ALLEY":" ","HOUSE_NO":"１號","E_COORD97":174790.39000000001,"N_COORD97":2570275.6400000001,"ADDRESS":"文化街２１巷１號","OBJECTID":449805},"geometry":{"x":174790.38999999966,"y":2570275.6400000043}},{"attributes":{"ID":449831,"DIS_CODE":0,"TOWNNAME":"下營區","LI":"營前里","LIN":"18鄰","STREET":"文明街","SECT":" ","MAREA":" ","LANE":"４５巷","ALLEY":" ","HOUSE_NO":"１５號","E_COORD97":174732.73000000001,"N_COORD97":2570288.9100000001,"ADDRESS":"文明街４５巷１５號","OBJECTID":449806},"geometry":{"x":174732.73000000138,"y":2570288.9100000001}},{"attributes":{"ID":449832,"DIS_CODE":0,"TOWNNAME":"下營區","LI":"營前里","LIN":"18鄰","STREET":"文明街","SECT":" ","MAREA":" ","LANE":"４５巷","ALLEY":" ","HOUSE_NO":"１６號","E_COORD97":174741.85000000001,"N_COORD97":2570291.8700000001,"ADDRESS":"文明街４５巷１６號","OBJECTID":449807},"geometry":{"x":174741.84999999963,"y":2570291.8700000029}},{"attributes":{"ID":449833,"DIS_CODE":0,"TOWNNAME":"下營區","LI":"營前里","LIN":"18鄰","STREET":"文明街","SECT":" ","MAREA":" ","LANE":"４５巷","ALLEY":" ","HOUSE_NO":"２０號","E_COORD97":174740.23999999999,"N_COORD97":2570242.4300000002,"ADDRESS":"文明街４５巷２０號","OBJECTID":449808},"geometry":{"x":174740.24000000115,"y":2570242.4300000034}},{"attributes":{"ID":449834,"DIS_CODE":0,"TOWNNAME":"下營區","LI":"下營里","LIN":"18鄰","STREET":"玄德街","SECT":" ","MAREA":" ","LANE":"２８巷","ALLEY":" ","HOUSE_NO":"１號","E_COORD97":174371.34,"N_COORD97":2570580.1000000001,"ADDRESS":"玄德街２８巷１號","OBJECTID":449809},"geometry":{"x":174371.34000000078,"y":2570580.1000000034}},{"attributes":{"ID":449835,"DIS_CODE":0,"TOWNNAME":"下營區","LI":"後街里","LIN":"18鄰","STREET":"東興二街","SECT":" ","MAREA":" ","LANE":"７巷","ALLEY":" ","HOUSE_NO":"２０號","E_COORD97":174729.45000000001,"N_COORD97":2570802.2200000002,"ADDRESS":"東興二街７巷２０號","OBJECTID":449810},"geometry":{"x":174729.45000000019,"y":2570802.2200000025}},{"attributes":{"ID":449836,"DIS_CODE":0,"TOWNNAME":"下營區","LI":"後街里","LIN":"18鄰","STREET":"東興二街","SECT":" ","MAREA":" ","LANE":"７巷","ALLEY":" ","HOUSE_NO":"２號","E_COORD97":174731.06,"N_COORD97":2570843.1299999999,"ADDRESS":"東興二街７巷２號","OBJECTID":449811},"geometry":{"x":174731.06000000052,"y":2570843.129999999}},{"attributes":{"ID":449837,"DIS_CODE":0,"TOWNNAME":"下營區","LI":"後街里","LIN":"18鄰","STREET":"東興二街","SECT":" ","MAREA":" ","LANE":"７巷","ALLEY":" ","HOUSE_NO":"３號","E_COORD97":174742.5,"N_COORD97":2570842.6800000002,"ADDRESS":"東興二街７巷３號","OBJECTID":449812},"geometry":{"x":174742.5,"y":2570842.6799999997}},{"attributes":{"ID":449838,"DIS_CODE":0,"TOWNNAME":"下營區","LI":"後街里","LIN":"18鄰","STREET":"東興二街","SECT":" ","MAREA":" ","LANE":"７巷","ALLEY":" ","HOUSE_NO":"６號","E_COORD97":174722.29000000001,"N_COORD97":2570828.1600000001,"ADDRESS":"東興二街７巷６號","OBJECTID":449813},"geometry":{"x":174722.29000000004,"y":2570828.160000002}},{"attributes":{"ID":449839,"DIS_CODE":0,"TOWNNAME":"下營區","LI":"營前里","LIN":"18鄰","STREET":"健康路","SECT":" ","MAREA":" ","LANE":"２２１巷","ALLEY":" ","HOUSE_NO":"２７號","E_COORD97":174855.89000000001,"N_COORD97":2570303.8500000001,"ADDRESS":"健康路２２１巷２７號","OBJECTID":449814},"geometry":{"x":174855.8900000006,"y":2570303.8500000034}},{"attributes":{"ID":449840,"DIS_CODE":0,"TOWNNAME":"中西區","LI":"大涼里","LIN":"18鄰","STREET":"府前一街","SECT":" ","MAREA":" ","LANE":"１０９巷","ALLEY":" ","HOUSE_NO":"１０號","E_COORD97":166675.48999999999,"N_COORD97":2543992.8799999999,"ADDRESS":"府前一街１０９巷１０號","OBJECTID":449815},"geometry":{"x":166675.49000000022,"y":2543992.879999999}},{"attributes":{"ID":449841,"DIS_CODE":0,"TOWNNAME":"永康區","LI":"龍潭里","LIN":"18鄰","STREET":"龍潭街","SECT":" ","MAREA":" ","LANE":"１９７巷","ALLEY":" ","HOUSE_NO":"７號","E_COORD97":174874.60999999999,"N_COORD97":2548392.7999999998,"ADDRESS":"龍潭街１９７巷７號","OBJECTID":449816},"geometry":{"x":174874.61000000034,"y":2548392.8000000007}},{"attributes":{"ID":449842,"DIS_CODE":0,"TOWNNAME":"東區","LI":"崇明里","LIN":"18鄰","STREET":"中華東路","SECT":"三段","MAREA":" ","LANE":"３５７巷","ALLEY":" ","HOUSE_NO":"１０１號","E_COORD97":170476.01000000001,"N_COORD97":2541464.46,"ADDRESS":"中華東路三段３５７巷１０１號","OBJECTID":449817},"geometry":{"x":170476.01000000164,"y":2541464.4600000009}},{"attributes":{"ID":449843,"DIS_CODE":0,"TOWNNAME":"東區","LI":"崇明里","LIN":"18鄰","STREET":"中華東路","SECT":"三段","MAREA":" ","LANE":"３５７巷","ALLEY":" ","HOUSE_NO":"３８號","E_COORD97":170403.54000000001,"N_COORD97":2541493.5600000001,"ADDRESS":"中華東路三段３５７巷３８號","OBJECTID":449818},"geometry":{"x":170403.54000000097,"y":2541493.5600000005}},{"attributes":{"ID":449844,"DIS_CODE":0,"TOWNNAME":"東區","LI":"崇明里","LIN":"18鄰","STREET":"中華東路","SECT":"三段","MAREA":" ","LANE":"３５７巷","ALLEY":" ","HOUSE_NO":"４０號","E_COORD97":170408.06,"N_COORD97":2541491.3100000001,"ADDRESS":"中華東路三段３５７巷４０號","OBJECTID":449819},"geometry":{"x":170408.06000000052,"y":2541491.3100000024}},{"attributes":{"ID":449845,"DIS_CODE":0,"TOWNNAME":"東區","LI":"崇明里","LIN":"18鄰","STREET":"中華東路","SECT":"三段","MAREA":" ","LANE":"３５７巷","ALLEY":" ","HOUSE_NO":"４２號","E_COORD97":170410.73999999999,"N_COORD97":2541488.77,"ADDRESS":"中華東路三段３５７巷４２號","OBJECTID":449820},"geometry":{"x":170410.74000000115,"y":2541488.7699999996}},{"attributes":{"ID":449846,"DIS_CODE":0,"TOWNNAME":"東區","LI":"崇明里","LIN":"18鄰","STREET":"中華東路","SECT":"三段","MAREA":" ","LANE":"３５７巷","ALLEY":" ","HOUSE_NO":"４４號","E_COORD97":170413.98999999999,"N_COORD97":2541485.9399999999,"ADDRESS":"中華東路三段３５７巷４４號","OBJECTID":449821},"geometry":{"x":170413.99000000209,"y":2541485.9400000013}},{"attributes":{"ID":449847,"DIS_CODE":0,"TOWNNAME":"東區","LI":"崇明里","LIN":"18鄰","STREET":"中華東路","SECT":"三段","MAREA":" ","LANE":"３５７巷","ALLEY":" ","HOUSE_NO":"４６號","E_COORD97":170417.10000000001,"N_COORD97":2541482.4100000001,"ADDRESS":"中華東路三段３５７巷４６號","OBJECTID":449822},"geometry":{"x":170417.09999999963,"y":2541482.4100000039}},{"attributes":{"ID":449848,"DIS_CODE":0,"TOWNNAME":"東區","LI":"崇明里","LIN":"18鄰","STREET":"中華東路","SECT":"三段","MAREA":" ","LANE":"３５７巷","ALLEY":" ","HOUSE_NO":"５０號","E_COORD97":170426.01000000001,"N_COORD97":2541474.0800000001,"ADDRESS":"中華東路三段３５７巷５０號","OBJECTID":449823},"geometry":{"x":170426.01000000071,"y":2541474.0799999982}},{"attributes":{"ID":449849,"DIS_CODE":0,"TOWNNAME":"東區","LI":"崇明里","LIN":"18鄰","STREET":"中華東路","SECT":"三段","MAREA":" ","LANE":"３５７巷","ALLEY":" ","HOUSE_NO":"５２號","E_COORD97":170431.09,"N_COORD97":2541469.4199999999,"ADDRESS":"中華東路三段３５７巷５２號","OBJECTID":449824},"geometry":{"x":170431.08999999985,"y":2541469.4200000018}},{"attributes":{"ID":449850,"DIS_CODE":0,"TOWNNAME":"東區","LI":"崇明里","LIN":"18鄰","STREET":"中華東路","SECT":"三段","MAREA":" ","LANE":"３５７巷","ALLEY":" ","HOUSE_NO":"５４號","E_COORD97":170433.64000000001,"N_COORD97":2541465.1899999999,"ADDRESS":"中華東路三段３５７巷５４號","OBJECTID":449825},"geometry":{"x":170433.63999999966,"y":2541465.1899999995}},{"attributes":{"ID":449851,"DIS_CODE":0,"TOWNNAME":"東區","LI":"崇明里","LIN":"18鄰","STREET":"中華東路","SECT":"三段","MAREA":" ","LANE":"３５７巷","ALLEY":" ","HOUSE_NO":"５８號","E_COORD97":170440.03,"N_COORD97":2541460.9300000002,"ADDRESS":"中華東路三段３５７巷５８號","OBJECTID":449826},"geometry":{"x":170440.03000000026,"y":2541460.9299999997}},{"attributes":{"ID":449852,"DIS_CODE":0,"TOWNNAME":"東區","LI":"崇明里","LIN":"18鄰","STREET":"中華東路","SECT":"三段","MAREA":" ","LANE":"３５７巷","ALLEY":" ","HOUSE_NO":"６２號","E_COORD97":170444.09,"N_COORD97":2541455.02,"ADDRESS":"中華東路三段３５７巷６２號","OBJECTID":449827},"geometry":{"x":170444.09000000078,"y":2541455.0200000014}},{"attributes":{"ID":449853,"DIS_CODE":0,"TOWNNAME":"東區","LI":"崇明里","LIN":"18鄰","STREET":"中華東路","SECT":"三段","MAREA":" ","LANE":"３５７巷","ALLEY":" ","HOUSE_NO":"６４號","E_COORD97":170447.48000000001,"N_COORD97":2541451.21,"ADDRESS":"中華東路三段３５７巷６４號","OBJECTID":449828},"geometry":{"x":170447.48000000045,"y":2541451.2100000028}},{"attributes":{"ID":449854,"DIS_CODE":0,"TOWNNAME":"東區","LI":"崇明里","LIN":"18鄰","STREET":"中華東路","SECT":"三段","MAREA":" ","LANE":"３５７巷","ALLEY":" ","HOUSE_NO":"６６號","E_COORD97":170450.01999999999,"N_COORD97":2541448.8100000001,"ADDRESS":"中華東路三段３５７巷６６號","OBJECTID":449829},"geometry":{"x":170450.01999999955,"y":2541448.8100000005}},{"attributes":{"ID":449855,"DIS_CODE":0,"TOWNNAME":"東區","LI":"崇明里","LIN":"18鄰","STREET":"中華東路","SECT":"三段","MAREA":" ","LANE":"３５７巷","ALLEY":" ","HOUSE_NO":"６８號","E_COORD97":170452.98999999999,"N_COORD97":2541444.7200000002,"ADDRESS":"中華東路三段３５７巷６８號","OBJECTID":449830},"geometry":{"x":170452.99000000209,"y":2541444.7200000025}},{"attributes":{"ID":449856,"DIS_CODE":0,"TOWNNAME":"東區","LI":"崇明里","LIN":"18鄰","STREET":"中華東路","SECT":"三段","MAREA":" ","LANE":"３５７巷","ALLEY":" ","HOUSE_NO":"７０號","E_COORD97":170457.37,"N_COORD97":2541442.04,"ADDRESS":"中華東路三段３５７巷７０號","OBJECTID":449831},"geometry":{"x":170457.37000000104,"y":2541442.0399999991}},{"attributes":{"ID":449857,"DIS_CODE":0,"TOWNNAME":"東區","LI":"崇明里","LIN":"18鄰","STREET":"中華東路","SECT":"三段","MAREA":" ","LANE":"３５７巷","ALLEY":" ","HOUSE_NO":"７１號","E_COORD97":170421.20000000001,"N_COORD97":2541519.79,"ADDRESS":"中華東路三段３５７巷７１號","OBJECTID":449832},"geometry":{"x":170421.20000000112,"y":2541519.790000001}},{"attributes":{"ID":449858,"DIS_CODE":0,"TOWNNAME":"東區","LI":"崇明里","LIN":"18鄰","STREET":"中華東路","SECT":"三段","MAREA":" ","LANE":"３５７巷","ALLEY":" ","HOUSE_NO":"７２號","E_COORD97":170460.19,"N_COORD97":2541438.9300000002,"ADDRESS":"中華東路三段３５７巷７２號","OBJECTID":449833},"geometry":{"x":170460.18999999948,"y":2541438.9300000016}},{"attributes":{"ID":449859,"DIS_CODE":0,"TOWNNAME":"東區","LI":"崇明里","LIN":"18鄰","STREET":"中華東路","SECT":"三段","MAREA":" ","LANE":"３５７巷","ALLEY":" ","HOUSE_NO":"７３號","E_COORD97":170422.19,"N_COORD97":2541517.9500000002,"ADDRESS":"中華東路三段３５７巷７３號","OBJECTID":449834},"geometry":{"x":170422.19000000041,"y":2541517.9499999993}},{"attributes":{"ID":449860,"DIS_CODE":0,"TOWNNAME":"東區","LI":"崇明里","LIN":"18鄰","STREET":"中華東路","SECT":"三段","MAREA":" ","LANE":"３５７巷","ALLEY":" ","HOUSE_NO":"７５號","E_COORD97":170424.73000000001,"N_COORD97":2541514.4199999999,"ADDRESS":"中華東路三段３５７巷７５號","OBJECTID":449835},"geometry":{"x":170424.73000000138,"y":2541514.4199999999}},{"attributes":{"ID":449861,"DIS_CODE":0,"TOWNNAME":"東區","LI":"崇明里","LIN":"18鄰","STREET":"中華東路","SECT":"三段","MAREA":" ","LANE":"３５７巷","ALLEY":" ","HOUSE_NO":"７７號","E_COORD97":170430.95000000001,"N_COORD97":2541508.9199999999,"ADDRESS":"中華東路三段３５７巷７７號","OBJECTID":449836},"geometry":{"x":170430.95000000019,"y":2541508.9200000037}},{"attributes":{"ID":449862,"DIS_CODE":0,"TOWNNAME":"北區","LI":"振興里","LIN":"18鄰","STREET":"林森路","SECT":"三段","MAREA":" ","LANE":"１７１巷","ALLEY":" ","HOUSE_NO":"１３號","E_COORD97":170497.51000000001,"N_COORD97":2545120.3799999999,"ADDRESS":"林森路三段１７１巷１３號","OBJECTID":449837},"geometry":{"x":170497.50999999978,"y":2545120.3800000008}},{"attributes":{"ID":449863,"DIS_CODE":0,"TOWNNAME":"東區","LI":"崇明里","LIN":"18鄰","STREET":"中華東路","SECT":"三段","MAREA":" ","LANE":"３５７巷","ALLEY":" ","HOUSE_NO":"７９號","E_COORD97":170433.78,"N_COORD97":2541505.1099999999,"ADDRESS":"中華東路三段３５７巷７９號","OBJECTID":449838},"geometry":{"x":170433.78000000026,"y":2541505.1100000013}},{"attributes":{"ID":449864,"DIS_CODE":0,"TOWNNAME":"東區","LI":"崇明里","LIN":"18鄰","STREET":"中華東路","SECT":"三段","MAREA":" ","LANE":"３５７巷","ALLEY":" ","HOUSE_NO":"８１號","E_COORD97":170437.17000000001,"N_COORD97":2541501.8599999999,"ADDRESS":"中華東路三段３５７巷８１號","OBJECTID":449839},"geometry":{"x":170437.16999999993,"y":2541501.8599999975}},{"attributes":{"ID":449865,"DIS_CODE":0,"TOWNNAME":"東區","LI":"崇明里","LIN":"18鄰","STREET":"中華東路","SECT":"三段","MAREA":" ","LANE":"３５７巷","ALLEY":" ","HOUSE_NO":"８３號","E_COORD97":170441.26000000001,"N_COORD97":2541498.1899999999,"ADDRESS":"中華東路三段３５７巷８３號","OBJECTID":449840},"geometry":{"x":170441.26000000071,"y":2541498.1900000013}},{"attributes":{"ID":449866,"DIS_CODE":0,"TOWNNAME":"東區","LI":"崇明里","LIN":"18鄰","STREET":"中華東路","SECT":"三段","MAREA":" ","LANE":"３５７巷","ALLEY":" ","HOUSE_NO":"８５號","E_COORD97":170445.92999999999,"N_COORD97":2541494.6600000001,"ADDRESS":"中華東路三段３５７巷８５號","OBJECTID":449841},"geometry":{"x":170445.92999999877,"y":2541494.660000002}},{"attributes":{"ID":449867,"DIS_CODE":0,"TOWNNAME":"東區","LI":"崇明里","LIN":"18鄰","STREET":"中華東路","SECT":"三段","MAREA":" ","LANE":"３５７巷","ALLEY":" ","HOUSE_NO":"８７號","E_COORD97":170450.45000000001,"N_COORD97":2541490.29,"ADDRESS":"中華東路三段３５７巷８７號","OBJECTID":449842},"geometry":{"x":170450.45000000112,"y":2541490.290000001}},{"attributes":{"ID":449868,"DIS_CODE":0,"TOWNNAME":"東區","LI":"崇明里","LIN":"18鄰","STREET":"中華東路","SECT":"三段","MAREA":" ","LANE":"３５７巷","ALLEY":" ","HOUSE_NO":"８９號","E_COORD97":170454.26000000001,"N_COORD97":2541486.6200000001,"ADDRESS":"中華東路三段３５７巷８９號","OBJECTID":449843},"geometry":{"x":170454.26000000071,"y":2541486.6200000029}},{"attributes":{"ID":449869,"DIS_CODE":0,"TOWNNAME":"東區","LI":"崇明里","LIN":"18鄰","STREET":"中華東路","SECT":"三段","MAREA":" ","LANE":"３５７巷","ALLEY":" ","HOUSE_NO":"９１號","E_COORD97":170457.37,"N_COORD97":2541482.52,"ADDRESS":"中華東路三段３５７巷９１號","OBJECTID":449844},"geometry":{"x":170457.37000000104,"y":2541482.5200000014}},{"attributes":{"ID":449870,"DIS_CODE":0,"TOWNNAME":"東區","LI":"崇明里","LIN":"18鄰","STREET":"中華東路","SECT":"三段","MAREA":" ","LANE":"３５７巷","ALLEY":" ","HOUSE_NO":"９３號","E_COORD97":170461.60000000001,"N_COORD97":2541478.4300000002,"ADDRESS":"中華東路三段３５７巷９３號","OBJECTID":449845},"geometry":{"x":170461.59999999963,"y":2541478.4300000034}},{"attributes":{"ID":449871,"DIS_CODE":0,"TOWNNAME":"東區","LI":"崇明里","LIN":"18鄰","STREET":"中華東路","SECT":"三段","MAREA":" ","LANE":"３５７巷","ALLEY":" ","HOUSE_NO":"９５號","E_COORD97":170465.63,"N_COORD97":2541474.7799999998,"ADDRESS":"中華東路三段３５７巷９５號","OBJECTID":449846},"geometry":{"x":170465.63000000082,"y":2541474.7799999993}},{"attributes":{"ID":449872,"DIS_CODE":0,"TOWNNAME":"東區","LI":"崇信里","LIN":"18鄰","STREET":"崇善路","SECT":" ","MAREA":" ","LANE":"２３１巷","ALLEY":" ","HOUSE_NO":"４０號","E_COORD97":170674.03,"N_COORD97":2542250.6400000001,"ADDRESS":"崇善路２３１巷４０號","OBJECTID":449847},"geometry":{"x":170674.03000000026,"y":2542250.6400000043}},{"attributes":{"ID":449873,"DIS_CODE":0,"TOWNNAME":"東區","LI":"崇信里","LIN":"18鄰","STREET":"崇善路","SECT":" ","MAREA":" ","LANE":"２３１巷","ALLEY":" ","HOUSE_NO":"４２號","E_COORD97":170678.47,"N_COORD97":2542251.5600000001,"ADDRESS":"崇善路２３１巷４２號","OBJECTID":449848},"geometry":{"x":170678.47000000067,"y":2542251.5600000024}},{"attributes":{"ID":449874,"DIS_CODE":0,"TOWNNAME":"東區","LI":"崇信里","LIN":"18鄰","STREET":"崇善路","SECT":" ","MAREA":" ","LANE":"２３１巷","ALLEY":" ","HOUSE_NO":"４２號之１","E_COORD97":170683.29000000001,"N_COORD97":2542253.23,"ADDRESS":"崇善路２３１巷４２號之１","OBJECTID":449849},"geometry":{"x":170683.29000000097,"y":2542253.2299999986}},{"attributes":{"ID":449875,"DIS_CODE":0,"TOWNNAME":"東區","LI":"崇信里","LIN":"18鄰","STREET":"崇善路","SECT":" ","MAREA":" ","LANE":"２３１巷","ALLEY":" ","HOUSE_NO":"４６號","E_COORD97":170687.92000000001,"N_COORD97":2542254.3399999999,"ADDRESS":"崇善路２３１巷４６號","OBJECTID":449850},"geometry":{"x":170687.91999999993,"y":2542254.3399999999}},{"attributes":{"ID":449876,"DIS_CODE":0,"TOWNNAME":"東區","LI":"崇信里","LIN":"18鄰","STREET":"崇善路","SECT":" ","MAREA":" ","LANE":"２３１巷","ALLEY":" ","HOUSE_NO":"４８號","E_COORD97":170692,"N_COORD97":2542255.4500000002,"ADDRESS":"崇善路２３１巷４８號","OBJECTID":449851},"geometry":{"x":170692.00000000093,"y":2542255.4500000011}},{"attributes":{"ID":449877,"DIS_CODE":0,"TOWNNAME":"東區","LI":"崇信里","LIN":"18鄰","STREET":"崇善路","SECT":" ","MAREA":" ","LANE":"２３１巷","ALLEY":" ","HOUSE_NO":"５０號","E_COORD97":170696.44,"N_COORD97":2542256.5600000001,"ADDRESS":"崇善路２３１巷５０號","OBJECTID":449852},"geometry":{"x":170696.44000000134,"y":2542256.5600000005}},{"attributes":{"ID":449878,"DIS_CODE":0,"TOWNNAME":"東區","LI":"崇信里","LIN":"18鄰","STREET":"崇善路","SECT":" ","MAREA":" ","LANE":"２３１巷","ALLEY":" ","HOUSE_NO":"５２號","E_COORD97":170700.51999999999,"N_COORD97":2542257.1099999999,"ADDRESS":"崇善路２３１巷５２號","OBJECTID":449853},"geometry":{"x":170700.51999999955,"y":2542257.1100000013}},{"attributes":{"ID":449879,"DIS_CODE":0,"TOWNNAME":"東區","LI":"崇信里","LIN":"18鄰","STREET":"崇善路","SECT":" ","MAREA":" ","LANE":"２３１巷","ALLEY":" ","HOUSE_NO":"５４號","E_COORD97":170704.97,"N_COORD97":2542258.2200000002,"ADDRESS":"崇善路２３１巷５４號","OBJECTID":449854},"geometry":{"x":170704.96999999974,"y":2542258.2200000025}},{"attributes":{"ID":449880,"DIS_CODE":0,"TOWNNAME":"東區","LI":"崇信里","LIN":"18鄰","STREET":"崇善路","SECT":" ","MAREA":" ","LANE":"２３１巷","ALLEY":" ","HOUSE_NO":"５６號","E_COORD97":170708.85999999999,"N_COORD97":2542259.3300000001,"ADDRESS":"崇善路２３１巷５６號","OBJECTID":449855},"geometry":{"x":170708.86000000127,"y":2542259.3300000038}},{"attributes":{"ID":449881,"DIS_CODE":0,"TOWNNAME":"安南區","LI":"溪墘里","LIN":"18鄰","STREET":"海佃路","SECT":"一段","MAREA":" ","LANE":"３８８巷","ALLEY":" ","HOUSE_NO":"１０號","E_COORD97":167129.20999999999,"N_COORD97":2547630.8399999999,"ADDRESS":"海佃路一段３８８巷１０號","OBJECTID":449856},"geometry":{"x":167129.21000000089,"y":2547630.8400000017}},{"attributes":{"ID":449882,"DIS_CODE":0,"TOWNNAME":"安南區","LI":"溪墘里","LIN":"18鄰","STREET":"海佃路","SECT":"一段","MAREA":" ","LANE":"３８８巷","ALLEY":" ","HOUSE_NO":"１２號","E_COORD97":167135.23000000001,"N_COORD97":2547632.2999999998,"ADDRESS":"海佃路一段３８８巷１２號","OBJECTID":449857},"geometry":{"x":167135.23000000045,"y":2547632.3000000007}},{"attributes":{"ID":449883,"DIS_CODE":0,"TOWNNAME":"安南區","LI":"溪墘里","LIN":"18鄰","STREET":"海佃路","SECT":"一段","MAREA":" ","LANE":"３８８巷","ALLEY":" ","HOUSE_NO":"１４號","E_COORD97":167141.35999999999,"N_COORD97":2547633.02,"ADDRESS":"海佃路一段３８８巷１４號","OBJECTID":449858},"geometry":{"x":167141.36000000034,"y":2547633.0199999996}},{"attributes":{"ID":449884,"DIS_CODE":0,"TOWNNAME":"安南區","LI":"溪墘里","LIN":"18鄰","STREET":"海佃路","SECT":"一段","MAREA":" ","LANE":"３８８巷","ALLEY":" ","HOUSE_NO":"１６號","E_COORD97":167146.35000000001,"N_COORD97":2547634.8900000001,"ADDRESS":"海佃路一段３８８巷１６號","OBJECTID":449859},"geometry":{"x":167146.35000000056,"y":2547634.8900000006}},{"attributes":{"ID":449885,"DIS_CODE":0,"TOWNNAME":"安南區","LI":"溪墘里","LIN":"18鄰","STREET":"海佃路","SECT":"一段","MAREA":" ","LANE":"３８８巷","ALLEY":" ","HOUSE_NO":"１８號","E_COORD97":167153.51999999999,"N_COORD97":2547636.7599999998,"ADDRESS":"海佃路一段３８８巷１８號","OBJECTID":449860},"geometry":{"x":167153.52000000048,"y":2547636.7600000016}},{"attributes":{"ID":449886,"DIS_CODE":0,"TOWNNAME":"安南區","LI":"溪墘里","LIN":"18鄰","STREET":"海佃路","SECT":"一段","MAREA":" ","LANE":"３８８巷","ALLEY":" ","HOUSE_NO":"２０號","E_COORD97":167160.07000000001,"N_COORD97":2547637.8999999999,"ADDRESS":"海佃路一段３８８巷２０號","OBJECTID":449861},"geometry":{"x":167160.0700000003,"y":2547637.9000000004}},{"attributes":{"ID":449887,"DIS_CODE":0,"TOWNNAME":"安南區","LI":"溪墘里","LIN":"18鄰","STREET":"海佃路","SECT":"一段","MAREA":" ","LANE":"３８８巷","ALLEY":" ","HOUSE_NO":"２２號","E_COORD97":167164.85000000001,"N_COORD97":2547638.6299999999,"ADDRESS":"海佃路一段３８８巷２２號","OBJECTID":449862},"geometry":{"x":167164.85000000056,"y":2547638.629999999}},{"attributes":{"ID":449888,"DIS_CODE":0,"TOWNNAME":"安南區","LI":"溪墘里","LIN":"18鄰","STREET":"海佃路","SECT":"一段","MAREA":" ","LANE":"３８８巷","ALLEY":" ","HOUSE_NO":"２４號","E_COORD97":167172.62,"N_COORD97":2547640.5299999998,"ADDRESS":"海佃路一段３８８巷２４號","OBJECTID":449863},"geometry":{"x":167172.62000000011,"y":2547640.5299999993}},{"attributes":{"ID":449889,"DIS_CODE":0,"TOWNNAME":"安南區","LI":"溪墘里","LIN":"18鄰","STREET":"海佃路","SECT":"一段","MAREA":" ","LANE":"３８８巷","ALLEY":" ","HOUSE_NO":"２６號","E_COORD97":167176.98999999999,"N_COORD97":2547641.5699999998,"ADDRESS":"海佃路一段３８８巷２６號","OBJECTID":449864},"geometry":{"x":167176.99000000115,"y":2547641.570000004}},{"attributes":{"ID":449890,"DIS_CODE":0,"TOWNNAME":"安南區","LI":"溪墘里","LIN":"18鄰","STREET":"海佃路","SECT":"一段","MAREA":" ","LANE":"３８８巷","ALLEY":" ","HOUSE_NO":"２８號","E_COORD97":167183.84,"N_COORD97":2547642.5099999998,"ADDRESS":"海佃路一段３８８巷２８號","OBJECTID":449865},"geometry":{"x":167183.84000000078,"y":2547642.5100000016}},{"attributes":{"ID":449891,"DIS_CODE":0,"TOWNNAME":"安南區","LI":"溪墘里","LIN":"18鄰","STREET":"海佃路","SECT":"一段","MAREA":" ","LANE":"３８８巷","ALLEY":" ","HOUSE_NO":"３０號","E_COORD97":167189.56,"N_COORD97":2547644.27,"ADDRESS":"海佃路一段３８８巷３０號","OBJECTID":449866},"geometry":{"x":167189.55999999959,"y":2547644.2700000014}},{"attributes":{"ID":449892,"DIS_CODE":0,"TOWNNAME":"安南區","LI":"溪墘里","LIN":"18鄰","STREET":"海佃路","SECT":"一段","MAREA":" ","LANE":"３８８巷","ALLEY":" ","HOUSE_NO":"３２號","E_COORD97":167196.31,"N_COORD97":2547646.1400000001,"ADDRESS":"海佃路一段３８８巷３２號","OBJECTID":449867},"geometry":{"x":167196.30999999959,"y":2547646.1400000025}},{"attributes":{"ID":449893,"DIS_CODE":0,"TOWNNAME":"安南區","LI":"溪墘里","LIN":"18鄰","STREET":"海佃路","SECT":"一段","MAREA":" ","LANE":"３８８巷","ALLEY":" ","HOUSE_NO":"３８號","E_COORD97":167213.87,"N_COORD97":2547649.3599999999,"ADDRESS":"海佃路一段３８８巷３８號","OBJECTID":449868},"geometry":{"x":167213.87000000011,"y":2547649.3600000013}},{"attributes":{"ID":449894,"DIS_CODE":0,"TOWNNAME":"安南區","LI":"溪墘里","LIN":"18鄰","STREET":"海佃路","SECT":"一段","MAREA":" ","LANE":"３８８巷","ALLEY":" ","HOUSE_NO":"４０號","E_COORD97":167220.42000000001,"N_COORD97":2547651.23,"ADDRESS":"海佃路一段３８８巷４０號","OBJECTID":449869},"geometry":{"x":167220.42000000179,"y":2547651.2300000023}},{"attributes":{"ID":449895,"DIS_CODE":0,"TOWNNAME":"安南區","LI":"溪墘里","LIN":"18鄰","STREET":"海佃路","SECT":"一段","MAREA":" ","LANE":"３８８巷","ALLEY":" ","HOUSE_NO":"４２號","E_COORD97":167225.39999999999,"N_COORD97":2547651.54,"ADDRESS":"海佃路一段３８８巷４２號","OBJECTID":449870},"geometry":{"x":167225.40000000037,"y":2547651.540000001}},{"attributes":{"ID":449896,"DIS_CODE":0,"TOWNNAME":"安南區","LI":"溪墘里","LIN":"18鄰","STREET":"海佃路","SECT":"一段","MAREA":" ","LANE":"３８８巷","ALLEY":" ","HOUSE_NO":"４６號","E_COORD97":167238.07000000001,"N_COORD97":2547655.1000000001,"ADDRESS":"海佃路一段３８８巷４６號","OBJECTID":449871},"geometry":{"x":167238.0700000003,"y":2547655.1000000015}},{"attributes":{"ID":449897,"DIS_CODE":0,"TOWNNAME":"安南區","LI":"溪墘里","LIN":"18鄰","STREET":"海佃路","SECT":"一段","MAREA":" ","LANE":"３８８巷","ALLEY":" ","HOUSE_NO":"４號","E_COORD97":167110.92000000001,"N_COORD97":2547626.6899999999,"ADDRESS":"海佃路一段３８８巷４號","OBJECTID":449872},"geometry":{"x":167110.92000000086,"y":2547626.6900000013}},{"attributes":{"ID":449898,"DIS_CODE":0,"TOWNNAME":"安南區","LI":"溪墘里","LIN":"18鄰","STREET":"海佃路","SECT":"一段","MAREA":" ","LANE":"３８８巷","ALLEY":" ","HOUSE_NO":"５０號","E_COORD97":167250.22,"N_COORD97":2547657.7999999998,"ADDRESS":"海佃路一段３８８巷５０號","OBJECTID":449873},"geometry":{"x":167250.21999999974,"y":2547657.8000000026}},{"attributes":{"ID":449899,"DIS_CODE":0,"TOWNNAME":"安南區","LI":"溪墘里","LIN":"18鄰","STREET":"海佃路","SECT":"一段","MAREA":" ","LANE":"３８８巷","ALLEY":" ","HOUSE_NO":"５２號","E_COORD97":167256.63,"N_COORD97":2547658.2000000002,"ADDRESS":"海佃路一段３８８巷５２號","OBJECTID":449874},"geometry":{"x":167256.63000000082,"y":2547658.2000000011}},{"attributes":{"ID":449900,"DIS_CODE":0,"TOWNNAME":"安南區","LI":"溪墘里","LIN":"18鄰","STREET":"海佃路","SECT":"一段","MAREA":" ","LANE":"３８８巷","ALLEY":" ","HOUSE_NO":"８號","E_COORD97":167122.76999999999,"N_COORD97":2547629.9100000001,"ADDRESS":"海佃路一段３８８巷８號","OBJECTID":449875},"geometry":{"x":167122.77000000142,"y":2547629.910000002}},{"attributes":{"ID":449901,"DIS_CODE":0,"TOWNNAME":"安南區","LI":"海佃里","LIN":"18鄰","STREET":"海佃路","SECT":"一段","MAREA":" ","LANE":"１７９巷","ALLEY":" ","HOUSE_NO":"１０號","E_COORD97":167084.67000000001,"N_COORD97":2547162.6299999999,"ADDRESS":"海佃路一段１７９巷１０號","OBJECTID":449876},"geometry":{"x":167084.66999999899,"y":2547162.6300000008}},{"attributes":{"ID":449902,"DIS_CODE":0,"TOWNNAME":"安南區","LI":"海佃里","LIN":"18鄰","STREET":"海佃路","SECT":"一段","MAREA":" ","LANE":"１７９巷","ALLEY":" ","HOUSE_NO":"１１號","E_COORD97":167084,"N_COORD97":2547141.54,"ADDRESS":"海佃路一段１７９巷１１號","OBJECTID":449877},"geometry":{"x":167084,"y":2547141.5399999991}},{"attributes":{"ID":449903,"DIS_CODE":0,"TOWNNAME":"安南區","LI":"海佃里","LIN":"18鄰","STREET":"海佃路","SECT":"一段","MAREA":" ","LANE":"１７９巷","ALLEY":" ","HOUSE_NO":"１２號","E_COORD97":167079.34,"N_COORD97":2547160.6299999999,"ADDRESS":"海佃路一段１７９巷１２號","OBJECTID":449878},"geometry":{"x":167079.33999999985,"y":2547160.629999999}},{"attributes":{"ID":449904,"DIS_CODE":0,"TOWNNAME":"安南區","LI":"海佃里","LIN":"18鄰","STREET":"海佃路","SECT":"一段","MAREA":" ","LANE":"１７９巷","ALLEY":" ","HOUSE_NO":"１３號","E_COORD97":167078.67999999999,"N_COORD97":2547140.8700000001,"ADDRESS":"海佃路一段１７９巷１３號","OBJECTID":449879},"geometry":{"x":167078.6799999997,"y":2547140.870000001}},{"attributes":{"ID":449905,"DIS_CODE":0,"TOWNNAME":"安南區","LI":"海佃里","LIN":"18鄰","STREET":"海佃路","SECT":"一段","MAREA":" ","LANE":"１７９巷","ALLEY":" ","HOUSE_NO":"１４號","E_COORD97":167074.69,"N_COORD97":2547159.9700000002,"ADDRESS":"海佃路一段１７９巷１４號","OBJECTID":449880},"geometry":{"x":167074.69000000041,"y":2547159.9700000007}},{"attributes":{"ID":449906,"DIS_CODE":0,"TOWNNAME":"安南區","LI":"海佃里","LIN":"18鄰","STREET":"海佃路","SECT":"一段","MAREA":" ","LANE":"１７９巷","ALLEY":" ","HOUSE_NO":"１５號","E_COORD97":167074.01999999999,"N_COORD97":2547140.21,"ADDRESS":"海佃路一段１７９巷１５號","OBJECTID":449881},"geometry":{"x":167074.02000000048,"y":2547140.2100000028}},{"attributes":{"ID":449907,"DIS_CODE":0,"TOWNNAME":"安南區","LI":"海佃里","LIN":"18鄰","STREET":"海佃路","SECT":"一段","MAREA":" ","LANE":"１７９巷","ALLEY":" ","HOUSE_NO":"１６號","E_COORD97":167070.03,"N_COORD97":2547159.2999999998,"ADDRESS":"海佃路一段１７９巷１６號","OBJECTID":449882},"geometry":{"x":167070.03000000026,"y":2547159.3000000045}},{"attributes":{"ID":449908,"DIS_CODE":0,"TOWNNAME":"安南區","LI":"海佃里","LIN":"18鄰","STREET":"海佃路","SECT":"一段","MAREA":" ","LANE":"１７９巷","ALLEY":" ","HOUSE_NO":"１７號","E_COORD97":167068.70000000001,"N_COORD97":2547139.54,"ADDRESS":"海佃路一段１７９巷１７號","OBJECTID":449883},"geometry":{"x":167068.70000000112,"y":2547139.540000001}},{"attributes":{"ID":449909,"DIS_CODE":0,"TOWNNAME":"安南區","LI":"海佃里","LIN":"18鄰","STREET":"海佃路","SECT":"一段","MAREA":" ","LANE":"１７９巷","ALLEY":" ","HOUSE_NO":"１８號","E_COORD97":167064.70999999999,"N_COORD97":2547159.3100000001,"ADDRESS":"海佃路一段１７９巷１８號","OBJECTID":449884},"geometry":{"x":167064.71000000089,"y":2547159.3100000024}},{"attributes":{"ID":449910,"DIS_CODE":0,"TOWNNAME":"安南區","LI":"海佃里","LIN":"18鄰","STREET":"海佃路","SECT":"一段","MAREA":" ","LANE":"１７９巷","ALLEY":" ","HOUSE_NO":"１９號","E_COORD97":167064.04999999999,"N_COORD97":2547138.21,"ADDRESS":"海佃路一段１７９巷１９號","OBJECTID":449885},"geometry":{"x":167064.05000000075,"y":2547138.2100000009}},{"attributes":{"ID":449911,"DIS_CODE":0,"TOWNNAME":"安南區","LI":"海佃里","LIN":"18鄰","STREET":"海佃路","SECT":"一段","MAREA":" ","LANE":"１７９巷","ALLEY":" ","HOUSE_NO":"１號","E_COORD97":167108.60999999999,"N_COORD97":2547144.8599999999,"ADDRESS":"海佃路一段１７９巷１號","OBJECTID":449886},"geometry":{"x":167108.61000000034,"y":2547144.8600000013}},{"attributes":{"ID":449912,"DIS_CODE":0,"TOWNNAME":"安南區","LI":"海佃里","LIN":"18鄰","STREET":"海佃路","SECT":"一段","MAREA":" ","LANE":"１７９巷","ALLEY":" ","HOUSE_NO":"２０號","E_COORD97":167060.06,"N_COORD97":2547157.98,"ADDRESS":"海佃路一段１７９巷２０號","OBJECTID":449887},"geometry":{"x":167060.06000000052,"y":2547157.9800000023}},{"attributes":{"ID":449913,"DIS_CODE":0,"TOWNNAME":"安南區","LI":"海佃里","LIN":"18鄰","STREET":"海佃路","SECT":"一段","MAREA":" ","LANE":"１７９巷","ALLEY":" ","HOUSE_NO":"２１號","E_COORD97":167058.73000000001,"N_COORD97":2547138.21,"ADDRESS":"海佃路一段１７９巷２１號","OBJECTID":449888},"geometry":{"x":167058.73000000045,"y":2547138.2100000009}},{"attributes":{"ID":449914,"DIS_CODE":0,"TOWNNAME":"安南區","LI":"海佃里","LIN":"18鄰","STREET":"海佃路","SECT":"一段","MAREA":" ","LANE":"１７９巷","ALLEY":" ","HOUSE_NO":"２３號","E_COORD97":167053.41,"N_COORD97":2547136.8900000001,"ADDRESS":"海佃路一段１７９巷２３號","OBJECTID":449889},"geometry":{"x":167053.41000000108,"y":2547136.8900000006}},{"attributes":{"ID":449915,"DIS_CODE":0,"TOWNNAME":"安南區","LI":"海佃里","LIN":"18鄰","STREET":"海佃路","SECT":"一段","MAREA":" ","LANE":"１７９巷","ALLEY":" ","HOUSE_NO":"２４號","E_COORD97":167050.07999999999,"N_COORD97":2547154.6600000001,"ADDRESS":"海佃路一段１７９巷２４號","OBJECTID":449890},"geometry":{"x":167050.08000000101,"y":2547154.6600000001}},{"attributes":{"ID":449916,"DIS_CODE":0,"TOWNNAME":"安南區","LI":"海佃里","LIN":"18鄰","STREET":"海佃路","SECT":"一段","MAREA":" ","LANE":"１７９巷","ALLEY":" ","HOUSE_NO":"２５號","E_COORD97":167048.09,"N_COORD97":2547136.2200000002,"ADDRESS":"海佃路一段１７９巷２５號","OBJECTID":449891},"geometry":{"x":167048.09000000078,"y":2547136.2200000025}},{"attributes":{"ID":449917,"DIS_CODE":0,"TOWNNAME":"安南區","LI":"海佃里","LIN":"18鄰","STREET":"海佃路","SECT":"一段","MAREA":" ","LANE":"１７９巷","ALLEY":" ","HOUSE_NO":"２６號","E_COORD97":167045.42999999999,"N_COORD97":2547154.6600000001,"ADDRESS":"海佃路一段１７９巷２６號","OBJECTID":449892},"geometry":{"x":167045.43000000156,"y":2547154.6600000001}},{"attributes":{"ID":449918,"DIS_CODE":0,"TOWNNAME":"安南區","LI":"海佃里","LIN":"18鄰","STREET":"海佃路","SECT":"一段","MAREA":" ","LANE":"１７９巷","ALLEY":" ","HOUSE_NO":"２７號","E_COORD97":167043.42999999999,"N_COORD97":2547134.8900000001,"ADDRESS":"海佃路一段１７９巷２７號","OBJECTID":449893},"geometry":{"x":167043.4299999997,"y":2547134.8900000025}},{"attributes":{"ID":449919,"DIS_CODE":0,"TOWNNAME":"安南區","LI":"海佃里","LIN":"18鄰","STREET":"海佃路","SECT":"一段","MAREA":" ","LANE":"１７９巷","ALLEY":" ","HOUSE_NO":"２８號","E_COORD97":167040.10999999999,"N_COORD97":2547152.6600000001,"ADDRESS":"海佃路一段１７９巷２８號","OBJECTID":449894},"geometry":{"x":167040.11000000127,"y":2547152.6600000039}},{"attributes":{"ID":449920,"DIS_CODE":0,"TOWNNAME":"安南區","LI":"海佃里","LIN":"18鄰","STREET":"海佃路","SECT":"一段","MAREA":" ","LANE":"１７９巷","ALLEY":" ","HOUSE_NO":"２９號","E_COORD97":167038.10999999999,"N_COORD97":2547133.5600000001,"ADDRESS":"海佃路一段１７９巷２９號","OBJECTID":449895},"geometry":{"x":167038.1100000022,"y":2547133.5600000042}},{"attributes":{"ID":449921,"DIS_CODE":0,"TOWNNAME":"安南區","LI":"海佃里","LIN":"18鄰","STREET":"海佃路","SECT":"一段","MAREA":" ","LANE":"１７９巷","ALLEY":" ","HOUSE_NO":"３０號","E_COORD97":167034.79000000001,"N_COORD97":2547152,"ADDRESS":"海佃路一段１７９巷３０號","OBJECTID":449896},"geometry":{"x":167034.78999999911,"y":2547152}},{"attributes":{"ID":449922,"DIS_CODE":0,"TOWNNAME":"安南區","LI":"海佃里","LIN":"18鄰","STREET":"海佃路","SECT":"一段","MAREA":" ","LANE":"１７９巷","ALLEY":" ","HOUSE_NO":"３１號","E_COORD97":167034.12,"N_COORD97":2547132.8999999999,"ADDRESS":"海佃路一段１７９巷３１號","OBJECTID":449897},"geometry":{"x":167034.12000000011,"y":2547132.9000000004}},{"attributes":{"ID":449923,"DIS_CODE":0,"TOWNNAME":"安南區","LI":"海佃里","LIN":"18鄰","STREET":"海佃路","SECT":"一段","MAREA":" ","LANE":"１７９巷","ALLEY":" ","HOUSE_NO":"３２號","E_COORD97":167029.47,"N_COORD97":2547150.6699999999,"ADDRESS":"海佃路一段１７９巷３２號","OBJECTID":449898},"geometry":{"x":167029.46999999974,"y":2547150.6699999999}},{"attributes":{"ID":449924,"DIS_CODE":0,"TOWNNAME":"安南區","LI":"海佃里","LIN":"18鄰","STREET":"海佃路","SECT":"一段","MAREA":" ","LANE":"１７９巷","ALLEY":" ","HOUSE_NO":"３３號","E_COORD97":167028.79999999999,"N_COORD97":2547132.2400000002,"ADDRESS":"海佃路一段１７９巷３３號","OBJECTID":449899},"geometry":{"x":167028.79999999981,"y":2547132.2400000021}},{"attributes":{"ID":449925,"DIS_CODE":0,"TOWNNAME":"安南區","LI":"海佃里","LIN":"18鄰","STREET":"海佃路","SECT":"一段","MAREA":" ","LANE":"１７９巷","ALLEY":" ","HOUSE_NO":"３４號","E_COORD97":167024.81,"N_COORD97":2547149.3399999999,"ADDRESS":"海佃路一段１７９巷３４號","OBJECTID":449900},"geometry":{"x":167024.81000000052,"y":2547149.3400000017}},{"attributes":{"ID":449926,"DIS_CODE":0,"TOWNNAME":"安南區","LI":"海佃里","LIN":"18鄰","STREET":"海佃路","SECT":"一段","MAREA":" ","LANE":"１７９巷","ALLEY":" ","HOUSE_NO":"３５號","E_COORD97":167023.48000000001,"N_COORD97":2547132.2400000002,"ADDRESS":"海佃路一段１７９巷３５號","OBJECTID":449901},"geometry":{"x":167023.48000000045,"y":2547132.2400000021}},{"attributes":{"ID":449927,"DIS_CODE":0,"TOWNNAME":"安南區","LI":"海佃里","LIN":"18鄰","STREET":"海佃路","SECT":"一段","MAREA":" ","LANE":"１７９巷","ALLEY":" ","HOUSE_NO":"３６號","E_COORD97":167020.16,"N_COORD97":2547148.0099999998,"ADDRESS":"海佃路一段１７９巷３６號","OBJECTID":449902},"geometry":{"x":167020.16000000015,"y":2547148.0100000016}},{"attributes":{"ID":449928,"DIS_CODE":0,"TOWNNAME":"安南區","LI":"海佃里","LIN":"18鄰","STREET":"海佃路","SECT":"一段","MAREA":" ","LANE":"１７９巷","ALLEY":" ","HOUSE_NO":"３７號","E_COORD97":167018.82999999999,"N_COORD97":2547129.5800000001,"ADDRESS":"海佃路一段１７９巷３７號","OBJECTID":449903},"geometry":{"x":167018.83000000007,"y":2547129.5800000038}},{"attributes":{"ID":449929,"DIS_CODE":0,"TOWNNAME":"安南區","LI":"海佃里","LIN":"18鄰","STREET":"海佃路","SECT":"一段","MAREA":" ","LANE":"１７９巷","ALLEY":" ","HOUSE_NO":"３８號","E_COORD97":167014.84,"N_COORD97":2547147.3500000001,"ADDRESS":"海佃路一段１７９巷３８號","OBJECTID":449904},"geometry":{"x":167014.84000000078,"y":2547147.3500000034}},{"attributes":{"ID":449930,"DIS_CODE":0,"TOWNNAME":"安南區","LI":"海佃里","LIN":"18鄰","STREET":"海佃路","SECT":"一段","MAREA":" ","LANE":"１７９巷","ALLEY":" ","HOUSE_NO":"３９號","E_COORD97":167014.17000000001,"N_COORD97":2547130.2400000002,"ADDRESS":"海佃路一段１７９巷３９號","OBJECTID":449905},"geometry":{"x":167014.17000000086,"y":2547130.2400000002}},{"attributes":{"ID":449931,"DIS_CODE":0,"TOWNNAME":"安南區","LI":"海佃里","LIN":"18鄰","STREET":"海佃路","SECT":"一段","MAREA":" ","LANE":"１７９巷","ALLEY":" ","HOUSE_NO":"３號","E_COORD97":167103.95000000001,"N_COORD97":2547144.8599999999,"ADDRESS":"海佃路一段１７９巷３號","OBJECTID":449906},"geometry":{"x":167103.95000000112,"y":2547144.8600000013}},{"attributes":{"ID":449932,"DIS_CODE":0,"TOWNNAME":"安南區","LI":"海佃里","LIN":"18鄰","STREET":"海佃路","SECT":"一段","MAREA":" ","LANE":"１７９巷","ALLEY":" ","HOUSE_NO":"４０號","E_COORD97":167008.19,"N_COORD97":2547147.3500000001,"ADDRESS":"海佃路一段１７９巷４０號","OBJECTID":449907},"geometry":{"x":167008.19000000041,"y":2547147.3500000034}},{"attributes":{"ID":449933,"DIS_CODE":0,"TOWNNAME":"安南區","LI":"海佃里","LIN":"18鄰","STREET":"海佃路","SECT":"一段","MAREA":" ","LANE":"１７９巷","ALLEY":" ","HOUSE_NO":"４１號","E_COORD97":167008.19,"N_COORD97":2547127.5899999999,"ADDRESS":"海佃路一段１７９巷４１號","OBJECTID":449908},"geometry":{"x":167008.19000000041,"y":2547127.5899999999}},{"attributes":{"ID":449934,"DIS_CODE":0,"TOWNNAME":"安南區","LI":"海佃里","LIN":"18鄰","STREET":"海佃路","SECT":"一段","MAREA":" ","LANE":"１７９巷","ALLEY":" ","HOUSE_NO":"４２號","E_COORD97":167004.85999999999,"N_COORD97":2547146.02,"ADDRESS":"海佃路一段１７９巷４２號","OBJECTID":449909},"geometry":{"x":167004.86000000127,"y":2547146.0199999977}},{"attributes":{"ID":449935,"DIS_CODE":0,"TOWNNAME":"安南區","LI":"海佃里","LIN":"18鄰","STREET":"海佃路","SECT":"一段","MAREA":" ","LANE":"１７９巷","ALLEY":" ","HOUSE_NO":"４３號","E_COORD97":167003.53,"N_COORD97":2547127.5899999999,"ADDRESS":"海佃路一段１７９巷４３號","OBJECTID":449910},"geometry":{"x":167003.53000000119,"y":2547127.5899999999}},{"attributes":{"ID":449936,"DIS_CODE":0,"TOWNNAME":"安南區","LI":"海佃里","LIN":"18鄰","STREET":"海佃路","SECT":"一段","MAREA":" ","LANE":"１７９巷","ALLEY":" ","HOUSE_NO":"４４號","E_COORD97":166998.88,"N_COORD97":2547145.3599999999,"ADDRESS":"海佃路一段１７９巷４４號","OBJECTID":449911},"geometry":{"x":166998.88000000082,"y":2547145.3600000013}},{"attributes":{"ID":449937,"DIS_CODE":0,"TOWNNAME":"安南區","LI":"海佃里","LIN":"18鄰","STREET":"海佃路","SECT":"一段","MAREA":" ","LANE":"１７９巷","ALLEY":" ","HOUSE_NO":"４５號","E_COORD97":166998.88,"N_COORD97":2547126.2599999998,"ADDRESS":"海佃路一段１７９巷４５號","OBJECTID":449912},"geometry":{"x":166998.88000000082,"y":2547126.2599999998}},{"attributes":{"ID":449938,"DIS_CODE":0,"TOWNNAME":"安南區","LI":"海佃里","LIN":"18鄰","STREET":"海佃路","SECT":"一段","MAREA":" ","LANE":"１７９巷","ALLEY":" ","HOUSE_NO":"４６號","E_COORD97":166994.22,"N_COORD97":2547145.3599999999,"ADDRESS":"海佃路一段１７９巷４６號","OBJECTID":449913},"geometry":{"x":166994.21999999974,"y":2547145.3600000013}},{"attributes":{"ID":449939,"DIS_CODE":0,"TOWNNAME":"安南區","LI":"海佃里","LIN":"18鄰","STREET":"海佃路","SECT":"一段","MAREA":" ","LANE":"１７９巷","ALLEY":" ","HOUSE_NO":"４７號","E_COORD97":166994.22,"N_COORD97":2547125.5899999999,"ADDRESS":"海佃路一段１７９巷４７號","OBJECTID":449914},"geometry":{"x":166994.21999999974,"y":2547125.5900000036}},{"attributes":{"ID":449940,"DIS_CODE":0,"TOWNNAME":"安南區","LI":"海佃里","LIN":"18鄰","STREET":"海佃路","SECT":"一段","MAREA":" ","LANE":"１７９巷","ALLEY":" ","HOUSE_NO":"４８號","E_COORD97":166988.89999999999,"N_COORD97":2547144.0299999998,"ADDRESS":"海佃路一段１７９巷４８號","OBJECTID":449915},"geometry":{"x":166988.9000000013,"y":2547144.0300000012}},{"attributes":{"ID":449941,"DIS_CODE":0,"TOWNNAME":"六甲區","LI":"水林里","LIN":"18鄰","STREET":"中正路","SECT":" ","MAREA":" ","LANE":"６４９巷","ALLEY":" ","HOUSE_NO":"８號","E_COORD97":183707.70000000001,"N_COORD97":2570319.1099999999,"ADDRESS":"中正路６４９巷８號","OBJECTID":449916},"geometry":{"x":183707.70000000019,"y":2570319.1100000013}},{"attributes":{"ID":449942,"DIS_CODE":0,"TOWNNAME":"安南區","LI":"海佃里","LIN":"18鄰","STREET":"海佃路","SECT":"一段","MAREA":" ","LANE":"１７９巷","ALLEY":" ","HOUSE_NO":"４９號","E_COORD97":166988.23999999999,"N_COORD97":2547124.2599999998,"ADDRESS":"海佃路一段１７９巷４９號","OBJECTID":449917},"geometry":{"x":166988.24000000115,"y":2547124.2599999979}},{"attributes":{"ID":449943,"DIS_CODE":0,"TOWNNAME":"安南區","LI":"海佃里","LIN":"18鄰","STREET":"海佃路","SECT":"一段","MAREA":" ","LANE":"１７９巷","ALLEY":" ","HOUSE_NO":"４號","E_COORD97":167099.95999999999,"N_COORD97":2547164.6200000001,"ADDRESS":"海佃路一段１７９巷４號","OBJECTID":449918},"geometry":{"x":167099.96000000089,"y":2547164.6200000029}},{"attributes":{"ID":449944,"DIS_CODE":0,"TOWNNAME":"佳里區","LI":"建南里","LIN":"17鄰","STREET":"建南街","SECT":" ","MAREA":" ","LANE":"１０７巷","ALLEY":" ","HOUSE_NO":"７號","E_COORD97":165626.59,"N_COORD97":2562023.75,"ADDRESS":"建南街１０７巷７號","OBJECTID":449919},"geometry":{"x":165626.58999999985,"y":2562023.7500000019}},{"attributes":{"ID":449945,"DIS_CODE":0,"TOWNNAME":"安南區","LI":"海佃里","LIN":"18鄰","STREET":"海佃路","SECT":"一段","MAREA":" ","LANE":"１７９巷","ALLEY":" ","HOUSE_NO":"５０號","E_COORD97":166984.25,"N_COORD97":2547141.3700000001,"ADDRESS":"海佃路一段１７９巷５０號","OBJECTID":449920},"geometry":{"x":166984.25000000186,"y":2547141.370000001}},{"attributes":{"ID":449946,"DIS_CODE":0,"TOWNNAME":"安南區","LI":"海佃里","LIN":"18鄰","STREET":"海佃路","SECT":"一段","MAREA":" ","LANE":"１７９巷","ALLEY":" ","HOUSE_NO":"５號","E_COORD97":167099.29999999999,"N_COORD97":2547144.1899999999,"ADDRESS":"海佃路一段１７９巷５號","OBJECTID":449921},"geometry":{"x":167099.30000000075,"y":2547144.1899999995}},{"attributes":{"ID":449947,"DIS_CODE":0,"TOWNNAME":"安南區","LI":"海佃里","LIN":"18鄰","STREET":"海佃路","SECT":"一段","MAREA":" ","LANE":"１７９巷","ALLEY":" ","HOUSE_NO":"６號","E_COORD97":167094.64000000001,"N_COORD97":2547165.2799999998,"ADDRESS":"海佃路一段１７９巷６號","OBJECTID":449922},"geometry":{"x":167094.63999999966,"y":2547165.2800000012}},{"attributes":{"ID":449948,"DIS_CODE":0,"TOWNNAME":"安南區","LI":"海佃里","LIN":"18鄰","STREET":"海佃路","SECT":"一段","MAREA":" ","LANE":"１７９巷","ALLEY":" ","HOUSE_NO":"７號","E_COORD97":167094.64000000001,"N_COORD97":2547144.1899999999,"ADDRESS":"海佃路一段１７９巷７號","OBJECTID":449923},"geometry":{"x":167094.63999999966,"y":2547144.1899999995}},{"attributes":{"ID":449949,"DIS_CODE":0,"TOWNNAME":"安南區","LI":"海佃里","LIN":"18鄰","STREET":"海佃路","SECT":"一段","MAREA":" ","LANE":"１７９巷","ALLEY":" ","HOUSE_NO":"８號","E_COORD97":167089.98999999999,"N_COORD97":2547163.29,"ADDRESS":"海佃路一段１７９巷８號","OBJECTID":449924},"geometry":{"x":167089.99000000115,"y":2547163.2899999991}},{"attributes":{"ID":449950,"DIS_CODE":0,"TOWNNAME":"安南區","LI":"海佃里","LIN":"18鄰","STREET":"海佃路","SECT":"一段","MAREA":" ","LANE":"１７９巷","ALLEY":" ","HOUSE_NO":"９號","E_COORD97":167087.98999999999,"N_COORD97":2547141.54,"ADDRESS":"海佃路一段１７９巷９號","OBJECTID":449925},"geometry":{"x":167087.99000000209,"y":2547141.5399999991}},{"attributes":{"ID":449951,"DIS_CODE":0,"TOWNNAME":"北區","LI":"振興里","LIN":"18鄰","STREET":"林森路","SECT":"三段","MAREA":" ","LANE":"１７１巷","ALLEY":" ","HOUSE_NO":"１０號","E_COORD97":170487.32999999999,"N_COORD97":2545141.7799999998,"ADDRESS":"林森路三段１７１巷１０號","OBJECTID":449926},"geometry":{"x":170487.33000000007,"y":2545141.7800000012}},{"attributes":{"ID":449952,"DIS_CODE":0,"TOWNNAME":"北區","LI":"振興里","LIN":"18鄰","STREET":"林森路","SECT":"三段","MAREA":" ","LANE":"１７１巷","ALLEY":" ","HOUSE_NO":"１１號","E_COORD97":170499.54000000001,"N_COORD97":2545123.6099999999,"ADDRESS":"林森路三段１７１巷１１號","OBJECTID":449927},"geometry":{"x":170499.54000000004,"y":2545123.6099999994}},{"attributes":{"ID":449953,"DIS_CODE":0,"TOWNNAME":"北區","LI":"振興里","LIN":"18鄰","STREET":"林森路","SECT":"三段","MAREA":" ","LANE":"１７１巷","ALLEY":" ","HOUSE_NO":"１２號","E_COORD97":170481.22,"N_COORD97":2545133.2799999998,"ADDRESS":"林森路三段１７１巷１２號","OBJECTID":449928},"geometry":{"x":170481.21999999974,"y":2545133.2799999993}},{"attributes":{"ID":449954,"DIS_CODE":0,"TOWNNAME":"北區","LI":"振興里","LIN":"18鄰","STREET":"林森路","SECT":"三段","MAREA":" ","LANE":"１７１巷","ALLEY":" ","HOUSE_NO":"１５號","E_COORD97":170495.10999999999,"N_COORD97":2545117.5099999998,"ADDRESS":"林森路三段１７１巷１５號","OBJECTID":449929},"geometry":{"x":170495.11000000127,"y":2545117.5099999998}},{"attributes":{"ID":449955,"DIS_CODE":0,"TOWNNAME":"北區","LI":"振興里","LIN":"18鄰","STREET":"林森路","SECT":"三段","MAREA":" ","LANE":"１７１巷","ALLEY":" ","HOUSE_NO":"１６號","E_COORD97":170474.64000000001,"N_COORD97":2545128.02,"ADDRESS":"林森路三段１７１巷１６號","OBJECTID":449930},"geometry":{"x":170474.63999999966,"y":2545128.0199999996}},{"attributes":{"ID":449956,"DIS_CODE":0,"TOWNNAME":"北區","LI":"振興里","LIN":"18鄰","STREET":"林森路","SECT":"三段","MAREA":" ","LANE":"１７１巷","ALLEY":" ","HOUSE_NO":"１８號","E_COORD97":170472.84,"N_COORD97":2545124.3100000001,"ADDRESS":"林森路三段１７１巷１８號","OBJECTID":449931},"geometry":{"x":170472.84000000078,"y":2545124.3099999987}},{"attributes":{"ID":449957,"DIS_CODE":0,"TOWNNAME":"北區","LI":"振興里","LIN":"18鄰","STREET":"林森路","SECT":"三段","MAREA":" ","LANE":"１７１巷","ALLEY":" ","HOUSE_NO":"１９號","E_COORD97":170488.17000000001,"N_COORD97":2545108.5299999998,"ADDRESS":"林森路三段１７１巷１９號","OBJECTID":449932},"geometry":{"x":170488.16999999993,"y":2545108.5300000012}},{"attributes":{"ID":449958,"DIS_CODE":0,"TOWNNAME":"北區","LI":"振興里","LIN":"18鄰","STREET":"林森路","SECT":"三段","MAREA":" ","LANE":"１７１巷","ALLEY":" ","HOUSE_NO":"２０號","E_COORD97":170470.20999999999,"N_COORD97":2545120.8399999999,"ADDRESS":"林森路三段１７１巷２０號","OBJECTID":449933},"geometry":{"x":170470.21000000089,"y":2545120.8400000017}},{"attributes":{"ID":449959,"DIS_CODE":0,"TOWNNAME":"北區","LI":"振興里","LIN":"18鄰","STREET":"林森路","SECT":"三段","MAREA":" ","LANE":"１７１巷","ALLEY":" ","HOUSE_NO":"２１號","E_COORD97":170483.14000000001,"N_COORD97":2545102.79,"ADDRESS":"林森路三段１７１巷２１號","OBJECTID":449934},"geometry":{"x":170483.13999999966,"y":2545102.7900000028}},{"attributes":{"ID":449960,"DIS_CODE":0,"TOWNNAME":"北區","LI":"振興里","LIN":"18鄰","STREET":"林森路","SECT":"三段","MAREA":" ","LANE":"１７１巷","ALLEY":" ","HOUSE_NO":"２２號","E_COORD97":170468.29000000001,"N_COORD97":2545117.6099999999,"ADDRESS":"林森路三段１７１巷２２號","OBJECTID":449935},"geometry":{"x":170468.29000000097,"y":2545117.6099999994}},{"attributes":{"ID":449961,"DIS_CODE":0,"TOWNNAME":"北區","LI":"振興里","LIN":"18鄰","STREET":"林森路","SECT":"三段","MAREA":" ","LANE":"１７１巷","ALLEY":" ","HOUSE_NO":"２６號","E_COORD97":170465.42000000001,"N_COORD97":2545114.7599999998,"ADDRESS":"林森路三段１７１巷２６號","OBJECTID":449936},"geometry":{"x":170465.42000000086,"y":2545114.7600000016}},{"attributes":{"ID":449962,"DIS_CODE":0,"TOWNNAME":"北區","LI":"振興里","LIN":"18鄰","STREET":"林森路","SECT":"三段","MAREA":" ","LANE":"１７１巷","ALLEY":" ","HOUSE_NO":"２７號","E_COORD97":170476.67000000001,"N_COORD97":2545092.9399999999,"ADDRESS":"林森路三段１７１巷２７號","OBJECTID":449937},"geometry":{"x":170476.66999999993,"y":2545092.9400000013}},{"attributes":{"ID":449963,"DIS_CODE":0,"TOWNNAME":"北區","LI":"振興里","LIN":"18鄰","STREET":"林森路","SECT":"三段","MAREA":" ","LANE":"１７１巷","ALLEY":" ","HOUSE_NO":"２８號","E_COORD97":170462.89999999999,"N_COORD97":2545111.5299999998,"ADDRESS":"林森路三段１７１巷２８號","OBJECTID":449938},"geometry":{"x":170462.9000000013,"y":2545111.5300000031}},{"attributes":{"ID":449964,"DIS_CODE":0,"TOWNNAME":"北區","LI":"振興里","LIN":"18鄰","STREET":"林森路","SECT":"三段","MAREA":" ","LANE":"１７１巷","ALLEY":" ","HOUSE_NO":"２９號","E_COORD97":170473.44,"N_COORD97":2545089.3500000001,"ADDRESS":"林森路三段１７１巷２９號","OBJECTID":449939},"geometry":{"x":170473.44000000041,"y":2545089.3500000034}},{"attributes":{"ID":449965,"DIS_CODE":0,"TOWNNAME":"北區","LI":"振興里","LIN":"18鄰","STREET":"林森路","SECT":"三段","MAREA":" ","LANE":"１７１巷","ALLEY":" ","HOUSE_NO":"３０號","E_COORD97":170460.14999999999,"N_COORD97":2545107.1000000001,"ADDRESS":"林森路三段１７１巷３０號","OBJECTID":449940},"geometry":{"x":170460.15000000037,"y":2545107.0999999996}},{"attributes":{"ID":449966,"DIS_CODE":0,"TOWNNAME":"北區","LI":"振興里","LIN":"18鄰","STREET":"林森路","SECT":"三段","MAREA":" ","LANE":"１７１巷","ALLEY":" ","HOUSE_NO":"３１號","E_COORD97":170470.20999999999,"N_COORD97":2545085.6400000001,"ADDRESS":"林森路三段１７１巷３１號","OBJECTID":449941},"geometry":{"x":170470.21000000089,"y":2545085.6400000025}},{"attributes":{"ID":449967,"DIS_CODE":0,"TOWNNAME":"北區","LI":"振興里","LIN":"18鄰","STREET":"林森路","SECT":"三段","MAREA":" ","LANE":"１７１巷","ALLEY":" ","HOUSE_NO":"３２號","E_COORD97":170457.14999999999,"N_COORD97":2545103.6299999999,"ADDRESS":"林森路三段１７１巷３２號","OBJECTID":449942},"geometry":{"x":170457.15000000224,"y":2545103.6299999971}},{"attributes":{"ID":449968,"DIS_CODE":0,"TOWNNAME":"北區","LI":"振興里","LIN":"18鄰","STREET":"林森路","SECT":"三段","MAREA":" ","LANE":"１７１巷","ALLEY":" ","HOUSE_NO":"３３號","E_COORD97":170468.29000000001,"N_COORD97":2545082.77,"ADDRESS":"林森路三段１７１巷３３號","OBJECTID":449943},"geometry":{"x":170468.29000000097,"y":2545082.7699999996}},{"attributes":{"ID":449969,"DIS_CODE":0,"TOWNNAME":"北區","LI":"振興里","LIN":"18鄰","STREET":"林森路","SECT":"三段","MAREA":" ","LANE":"１７１巷","ALLEY":" ","HOUSE_NO":"３５號","E_COORD97":170465.29999999999,"N_COORD97":2545079.6600000001,"ADDRESS":"林森路三段１７１巷３５號","OBJECTID":449944},"geometry":{"x":170465.29999999981,"y":2545079.6600000001}},{"attributes":{"ID":449970,"DIS_CODE":0,"TOWNNAME":"北區","LI":"振興里","LIN":"18鄰","STREET":"林森路","SECT":"三段","MAREA":" ","LANE":"１７１巷","ALLEY":" ","HOUSE_NO":"４２號","E_COORD97":170451.76999999999,"N_COORD97":2545098.8500000001,"ADDRESS":"林森路三段１７１巷４２號","OBJECTID":449945},"geometry":{"x":170451.76999999955,"y":2545098.8499999996}},{"attributes":{"ID":449971,"DIS_CODE":0,"TOWNNAME":"北區","LI":"振興里","LIN":"18鄰","STREET":"林森路","SECT":"三段","MAREA":" ","LANE":"１７１巷","ALLEY":" ","HOUSE_NO":"６號","E_COORD97":170499.66,"N_COORD97":2545161.6400000001,"ADDRESS":"林森路三段１７１巷６號","OBJECTID":449946},"geometry":{"x":170499.66000000108,"y":2545161.6400000006}},{"attributes":{"ID":449972,"DIS_CODE":0,"TOWNNAME":"北區","LI":"振興里","LIN":"18鄰","STREET":"林森路","SECT":"三段","MAREA":" ","LANE":"１７１巷","ALLEY":" ","HOUSE_NO":"８號","E_COORD97":170493.07999999999,"N_COORD97":2545149.9100000001,"ADDRESS":"林森路三段１７１巷８號","OBJECTID":449947},"geometry":{"x":170493.08000000101,"y":2545149.9100000001}},{"attributes":{"ID":449973,"DIS_CODE":0,"TOWNNAME":"北區","LI":"振興里","LIN":"18鄰","STREET":"林森路","SECT":"三段","MAREA":" ","LANE":"１７１巷","ALLEY":" ","HOUSE_NO":"９號","E_COORD97":170504.20999999999,"N_COORD97":2545129.4700000002,"ADDRESS":"林森路三段１７１巷９號","OBJECTID":449948},"geometry":{"x":170504.21000000089,"y":2545129.4700000007}},{"attributes":{"ID":449974,"DIS_CODE":0,"TOWNNAME":"安南區","LI":"新順里","LIN":"1鄰","STREET":"培安四街","SECT":" ","MAREA":" ","LANE":" ","ALLEY":" ","HOUSE_NO":"９６號","E_COORD97":169488.57000000001,"N_COORD97":2549771.6600000001,"ADDRESS":"培安四街９６號","OBJECTID":449949},"geometry":{"x":169488.57000000123,"y":2549771.660000002}},{"attributes":{"ID":449975,"DIS_CODE":0,"TOWNNAME":"北區","LI":"振興里","LIN":"18鄰","STREET":"長榮路","SECT":"四段","MAREA":" ","LANE":"５８巷","ALLEY":" ","HOUSE_NO":"４５號","E_COORD97":170477.87,"N_COORD97":2545067.8700000001,"ADDRESS":"長榮路四段５８巷４５號","OBJECTID":449950},"geometry":{"x":170477.87000000104,"y":2545067.8700000029}},{"attributes":{"ID":449976,"DIS_CODE":0,"TOWNNAME":"北區","LI":"振興里","LIN":"18鄰","STREET":"長榮路","SECT":"四段","MAREA":" ","LANE":"５８巷","ALLEY":" ","HOUSE_NO":"４７號","E_COORD97":170482.42000000001,"N_COORD97":2545071.1000000001,"ADDRESS":"長榮路四段５８巷４７號","OBJECTID":449951},"geometry":{"x":170482.42000000086,"y":2545071.1000000015}},{"attributes":{"ID":449977,"DIS_CODE":0,"TOWNNAME":"北區","LI":"振興里","LIN":"18鄰","STREET":"長榮路","SECT":"四段","MAREA":" ","LANE":"５８巷","ALLEY":" ","HOUSE_NO":"４９號","E_COORD97":170485.04999999999,"N_COORD97":2545074.21,"ADDRESS":"長榮路四段５８巷４９號","OBJECTID":449952},"geometry":{"x":170485.05000000075,"y":2545074.2100000009}},{"attributes":{"ID":449978,"DIS_CODE":0,"TOWNNAME":"北區","LI":"振興里","LIN":"18鄰","STREET":"長榮路","SECT":"四段","MAREA":" ","LANE":"５８巷","ALLEY":" ","HOUSE_NO":"５１號","E_COORD97":170488.29000000001,"N_COORD97":2545077.2000000002,"ADDRESS":"長榮路四段５８巷５１號","OBJECTID":449953},"geometry":{"x":170488.29000000097,"y":2545077.2000000011}},{"attributes":{"ID":449979,"DIS_CODE":0,"TOWNNAME":"北區","LI":"振興里","LIN":"18鄰","STREET":"長榮路","SECT":"四段","MAREA":" ","LANE":"５８巷","ALLEY":" ","HOUSE_NO":"５３號","E_COORD97":170490.56,"N_COORD97":2545080.1899999999,"ADDRESS":"長榮路四段５８巷５３號","OBJECTID":449954},"geometry":{"x":170490.55999999959,"y":2545080.1900000032}},{"attributes":{"ID":449980,"DIS_CODE":0,"TOWNNAME":"北區","LI":"振興里","LIN":"18鄰","STREET":"長榮路","SECT":"四段","MAREA":" ","LANE":"５８巷","ALLEY":" ","HOUSE_NO":"５５號","E_COORD97":170493.56,"N_COORD97":2545083.54,"ADDRESS":"長榮路四段５８巷５５號","OBJECTID":449955},"geometry":{"x":170493.55999999959,"y":2545083.5399999991}},{"attributes":{"ID":449981,"DIS_CODE":0,"TOWNNAME":"北區","LI":"振興里","LIN":"18鄰","STREET":"長榮路","SECT":"四段","MAREA":" ","LANE":"５８巷","ALLEY":" ","HOUSE_NO":"５７號","E_COORD97":170495.82999999999,"N_COORD97":2545087.6099999999,"ADDRESS":"長榮路四段５８巷５７號","OBJECTID":449956},"geometry":{"x":170495.83000000007,"y":2545087.6100000031}},{"attributes":{"ID":449982,"DIS_CODE":0,"TOWNNAME":"北區","LI":"振興里","LIN":"18鄰","STREET":"長榮路","SECT":"四段","MAREA":" ","LANE":"５８巷","ALLEY":" ","HOUSE_NO":"６１號","E_COORD97":170501.45999999999,"N_COORD97":2545094.5499999998,"ADDRESS":"長榮路四段５８巷６１號","OBJECTID":449957},"geometry":{"x":170501.45999999996,"y":2545094.5500000007}},{"attributes":{"ID":449983,"DIS_CODE":0,"TOWNNAME":"北區","LI":"振興里","LIN":"18鄰","STREET":"長榮路","SECT":"四段","MAREA":" ","LANE":"５８巷","ALLEY":" ","HOUSE_NO":"６３號","E_COORD97":170504.20999999999,"N_COORD97":2545098.73,"ADDRESS":"長榮路四段５８巷６３號","OBJECTID":449958},"geometry":{"x":170504.21000000089,"y":2545098.7300000023}},{"attributes":{"ID":449984,"DIS_CODE":0,"TOWNNAME":"北區","LI":"振興里","LIN":"18鄰","STREET":"開元路","SECT":" ","MAREA":" ","LANE":"２１２巷","ALLEY":" ","HOUSE_NO":"１１號","E_COORD97":170442.42999999999,"N_COORD97":2545086.8900000001,"ADDRESS":"開元路２１２巷１１號","OBJECTID":449959},"geometry":{"x":170442.4299999997,"y":2545086.8900000043}},{"attributes":{"ID":449985,"DIS_CODE":0,"TOWNNAME":"北區","LI":"振興里","LIN":"18鄰","STREET":"開元路","SECT":" ","MAREA":" ","LANE":"２１２巷","ALLEY":" ","HOUSE_NO":"１１號之１","E_COORD97":170446.98000000001,"N_COORD97":2545084.25,"ADDRESS":"開元路２１２巷１１號之１","OBJECTID":449960},"geometry":{"x":170446.98000000138,"y":2545084.2500000019}},{"attributes":{"ID":449986,"DIS_CODE":0,"TOWNNAME":"北區","LI":"振興里","LIN":"18鄰","STREET":"開元路","SECT":" ","MAREA":" ","LANE":"２１２巷","ALLEY":" ","HOUSE_NO":"１５號","E_COORD97":170452.37,"N_COORD97":2545075.1099999999,"ADDRESS":"開元路２１２巷１５號","OBJECTID":449961},"geometry":{"x":170452.37000000104,"y":2545075.1100000013}},{"attributes":{"ID":449987,"DIS_CODE":0,"TOWNNAME":"北區","LI":"振興里","LIN":"18鄰","STREET":"開元路","SECT":" ","MAREA":" ","LANE":"２１２巷","ALLEY":" ","HOUSE_NO":"１７號","E_COORD97":170456.07999999999,"N_COORD97":2545071.6400000001,"ADDRESS":"開元路２１２巷１７號","OBJECTID":449962},"geometry":{"x":170456.08000000101,"y":2545071.6400000043}},{"attributes":{"ID":449988,"DIS_CODE":0,"TOWNNAME":"北區","LI":"振興里","LIN":"18鄰","STREET":"開元路","SECT":" ","MAREA":" ","LANE":"２１２巷","ALLEY":" ","HOUSE_NO":"２７號","E_COORD97":170470.79999999999,"N_COORD97":2545058.2400000002,"ADDRESS":"開元路２１２巷２７號","OBJECTID":449963},"geometry":{"x":170470.80000000168,"y":2545058.2400000021}},{"attributes":{"ID":449989,"DIS_CODE":0,"TOWNNAME":"北區","LI":"振興里","LIN":"18鄰","STREET":"開元路","SECT":" ","MAREA":" ","LANE":"２１２巷","ALLEY":" ","HOUSE_NO":"２９號","E_COORD97":170476.42999999999,"N_COORD97":2545056.0800000001,"ADDRESS":"開元路２１２巷２９號","OBJECTID":449964},"geometry":{"x":170476.42999999877,"y":2545056.0800000019}},{"attributes":{"ID":449990,"DIS_CODE":0,"TOWNNAME":"北區","LI":"振興里","LIN":"18鄰","STREET":"開元路","SECT":" ","MAREA":" ","LANE":"２１２巷","ALLEY":" ","HOUSE_NO":"９號","E_COORD97":170438.48000000001,"N_COORD97":2545090.4700000002,"ADDRESS":"開元路２１２巷９號","OBJECTID":449965},"geometry":{"x":170438.48000000138,"y":2545090.4700000025}},{"attributes":{"ID":449991,"DIS_CODE":0,"TOWNNAME":"新營區","LI":"延平里","LIN":"18鄰","STREET":"長春街","SECT":" ","MAREA":" ","LANE":"１３４巷","ALLEY":" ","HOUSE_NO":"２號","E_COORD97":179572.477629,"N_COORD97":2577841.22945,"ADDRESS":"長春街１３４巷２號","OBJECTID":449966},"geometry":{"x":179572.47762900125,"y":2577841.2294510007}},{"attributes":{"ID":449992,"DIS_CODE":0,"TOWNNAME":"新營區","LI":"民榮里","LIN":"18鄰","STREET":"裕民路","SECT":" ","MAREA":" ","LANE":"５８巷","ALLEY":" ","HOUSE_NO":"３９號","E_COORD97":179066.56,"N_COORD97":2577824.0899999999,"ADDRESS":"裕民路５８巷３９號","OBJECTID":449967},"geometry":{"x":179066.55999999959,"y":2577824.0899999999}},{"attributes":{"ID":449993,"DIS_CODE":0,"TOWNNAME":"新營區","LI":"永生里","LIN":"18鄰","STREET":"新進路","SECT":" ","MAREA":" ","LANE":"３１８巷","ALLEY":" ","HOUSE_NO":"１２號","E_COORD97":179949.38,"N_COORD97":2577853.1099999999,"ADDRESS":"新進路３１８巷１２號","OBJECTID":449968},"geometry":{"x":179949.37999999989,"y":2577853.1100000013}},{"attributes":{"ID":449994,"DIS_CODE":0,"TOWNNAME":"安平區","LI":"怡平里","LIN":"18鄰","STREET":"文平路","SECT":" ","MAREA":" ","LANE":"４６１巷","ALLEY":" ","HOUSE_NO":"４３號","E_COORD97":165692.39999999999,"N_COORD97":2543875.1699999999,"ADDRESS":"文平路４６１巷４３號","OBJECTID":449969},"geometry":{"x":165692.4000000013,"y":2543875.1700000018}},{"attributes":{"ID":449995,"DIS_CODE":0,"TOWNNAME":"安平區","LI":"怡平里","LIN":"18鄰","STREET":"文平路","SECT":" ","MAREA":" ","LANE":"４６１巷","ALLEY":" ","HOUSE_NO":"４５號","E_COORD97":165690.01000000001,"N_COORD97":2543874.9700000002,"ADDRESS":"文平路４６１巷４５號","OBJECTID":449970},"geometry":{"x":165690.00999999978,"y":2543874.9700000007}},{"attributes":{"ID":449996,"DIS_CODE":0,"TOWNNAME":"六甲區","LI":"二甲里","LIN":"18鄰","STREET":"中山路","SECT":" ","MAREA":" ","LANE":"４２９巷","ALLEY":" ","HOUSE_NO":"１０號","E_COORD97":181992.69,"N_COORD97":2570350.5499999998,"ADDRESS":"中山路４２９巷１０號","OBJECTID":449971},"geometry":{"x":181992.69000000227,"y":2570350.5500000007}},{"attributes":{"ID":449997,"DIS_CODE":0,"TOWNNAME":"六甲區","LI":"二甲里","LIN":"18鄰","STREET":"中山路","SECT":" ","MAREA":" ","LANE":"４２９巷","ALLEY":" ","HOUSE_NO":"１１號","E_COORD97":182009.85000000001,"N_COORD97":2570331.0899999999,"ADDRESS":"中山路４２９巷１１號","OBJECTID":449972},"geometry":{"x":182009.85000000056,"y":2570331.0900000017}},{"attributes":{"ID":449998,"DIS_CODE":0,"TOWNNAME":"六甲區","LI":"二甲里","LIN":"18鄰","STREET":"中山路","SECT":" ","MAREA":" ","LANE":"４２９巷","ALLEY":" ","HOUSE_NO":"１２號","E_COORD97":181991.63,"N_COORD97":2570343.5899999999,"ADDRESS":"中山路４２９巷１２號","OBJECTID":449973},"geometry":{"x":181991.63000000082,"y":2570343.5900000017}},{"attributes":{"ID":449999,"DIS_CODE":0,"TOWNNAME":"六甲區","LI":"二甲里","LIN":"18鄰","STREET":"中山路","SECT":" ","MAREA":" ","LANE":"４２９巷","ALLEY":" ","HOUSE_NO":"１３號","E_COORD97":182008.89000000001,"N_COORD97":2570324.6600000001,"ADDRESS":"中山路４２９巷１３號","OBJECTID":449974},"geometry":{"x":182008.88999999966,"y":2570324.6600000001}},{"attributes":{"ID":450000,"DIS_CODE":0,"TOWNNAME":"六甲區","LI":"二甲里","LIN":"18鄰","STREET":"中山路","SECT":" ","MAREA":" ","LANE":"４２９巷","ALLEY":" ","HOUSE_NO":"１４號","E_COORD97":181990.60999999999,"N_COORD97":2570336.8900000001,"ADDRESS":"中山路４２９巷１４號","OBJECTID":449975},"geometry":{"x":181990.61000000034,"y":2570336.8900000006}},{"attributes":{"ID":450001,"DIS_CODE":0,"TOWNNAME":"六甲區","LI":"二甲里","LIN":"18鄰","STREET":"中山路","SECT":" ","MAREA":" ","LANE":"４２９巷","ALLEY":" ","HOUSE_NO":"１５號","E_COORD97":182007.67999999999,"N_COORD97":2570318.5899999999,"ADDRESS":"中山路４２９巷１５號","OBJECTID":449976},"geometry":{"x":182007.68000000063,"y":2570318.5899999999}},{"attributes":{"ID":450002,"DIS_CODE":0,"TOWNNAME":"六甲區","LI":"二甲里","LIN":"18鄰","STREET":"中山路","SECT":" ","MAREA":" ","LANE":"４２９巷","ALLEY":" ","HOUSE_NO":"１６號","E_COORD97":181989.26000000001,"N_COORD97":2570330.3999999999,"ADDRESS":"中山路４２９巷１６號","OBJECTID":449977},"geometry":{"x":181989.25999999978,"y":2570330.4000000004}},{"attributes":{"ID":450003,"DIS_CODE":0,"TOWNNAME":"六甲區","LI":"二甲里","LIN":"18鄰","STREET":"中山路","SECT":" ","MAREA":" ","LANE":"４２９巷","ALLEY":" ","HOUSE_NO":"１７號","E_COORD97":182006.70999999999,"N_COORD97":2570312.4900000002,"ADDRESS":"中山路４２９巷１７號","OBJECTID":449978},"geometry":{"x":182006.70999999996,"y":2570312.4900000002}},{"attributes":{"ID":450004,"DIS_CODE":0,"TOWNNAME":"六甲區","LI":"二甲里","LIN":"18鄰","STREET":"中山路","SECT":" ","MAREA":" ","LANE":"４２９巷","ALLEY":" ","HOUSE_NO":"１８號","E_COORD97":181988.10999999999,"N_COORD97":2570324.3300000001,"ADDRESS":"中山路４２９巷１８號","OBJECTID":449979},"geometry":{"x":181988.1100000022,"y":2570324.3300000001}},{"attributes":{"ID":450005,"DIS_CODE":0,"TOWNNAME":"六甲區","LI":"二甲里","LIN":"18鄰","STREET":"中山路","SECT":" ","MAREA":" ","LANE":"４２９巷","ALLEY":" ","HOUSE_NO":"１９號","E_COORD97":182005.92999999999,"N_COORD97":2570306.1099999999,"ADDRESS":"中山路４２９巷１９號","OBJECTID":449980},"geometry":{"x":182005.93000000063,"y":2570306.1100000013}},{"attributes":{"ID":450006,"DIS_CODE":0,"TOWNNAME":"六甲區","LI":"二甲里","LIN":"18鄰","STREET":"中山路","SECT":" ","MAREA":" ","LANE":"４２９巷","ALLEY":" ","HOUSE_NO":"１號","E_COORD97":182014.29999999999,"N_COORD97":2570361.8100000001,"ADDRESS":"中山路４２９巷１號","OBJECTID":449981},"geometry":{"x":182014.29999999981,"y":2570361.8100000005}},{"attributes":{"ID":450007,"DIS_CODE":0,"TOWNNAME":"六甲區","LI":"二甲里","LIN":"18鄰","STREET":"中山路","SECT":" ","MAREA":" ","LANE":"４２９巷","ALLEY":" ","HOUSE_NO":"２０號","E_COORD97":181987.12,"N_COORD97":2570317.04,"ADDRESS":"中山路４２９巷２０號","OBJECTID":449982},"geometry":{"x":181987.12000000011,"y":2570317.040000001}},{"attributes":{"ID":450008,"DIS_CODE":0,"TOWNNAME":"六甲區","LI":"二甲里","LIN":"18鄰","STREET":"中山路","SECT":" ","MAREA":" ","LANE":"４２９巷","ALLEY":" ","HOUSE_NO":"２１號","E_COORD97":182004.92999999999,"N_COORD97":2570299.9900000002,"ADDRESS":"中山路４２９巷２１號","OBJECTID":449983},"geometry":{"x":182004.9299999997,"y":2570299.9900000039}},{"attributes":{"ID":450009,"DIS_CODE":0,"TOWNNAME":"六甲區","LI":"二甲里","LIN":"18鄰","STREET":"中山路","SECT":" ","MAREA":" ","LANE":"４２９巷","ALLEY":" ","HOUSE_NO":"２２號","E_COORD97":181985.72,"N_COORD97":2570310.8599999999,"ADDRESS":"中山路４２９巷２２號","OBJECTID":449984},"geometry":{"x":181985.72000000067,"y":2570310.8600000013}},{"attributes":{"ID":450010,"DIS_CODE":0,"TOWNNAME":"六甲區","LI":"二甲里","LIN":"18鄰","STREET":"中山路","SECT":" ","MAREA":" ","LANE":"４２９巷","ALLEY":" ","HOUSE_NO":"２３號","E_COORD97":182003.92999999999,"N_COORD97":2570292.8999999999,"ADDRESS":"中山路４２９巷２３號","OBJECTID":449985},"geometry":{"x":182003.93000000156,"y":2570292.9000000004}},{"attributes":{"ID":450011,"DIS_CODE":0,"TOWNNAME":"六甲區","LI":"二甲里","LIN":"18鄰","STREET":"中山路","SECT":" ","MAREA":" ","LANE":"４２９巷","ALLEY":" ","HOUSE_NO":"２４號","E_COORD97":181985.07999999999,"N_COORD97":2570304.2400000002,"ADDRESS":"中山路４２９巷２４號","OBJECTID":449986},"geometry":{"x":181985.08000000101,"y":2570304.2400000002}},{"attributes":{"ID":450012,"DIS_CODE":0,"TOWNNAME":"六甲區","LI":"二甲里","LIN":"18鄰","STREET":"中山路","SECT":" ","MAREA":" ","LANE":"４２９巷","ALLEY":" ","HOUSE_NO":"２６號","E_COORD97":181984.13,"N_COORD97":2570297.6600000001,"ADDRESS":"中山路４２９巷２６號","OBJECTID":449987},"geometry":{"x":181984.13000000175,"y":2570297.6600000001}},{"attributes":{"ID":450013,"DIS_CODE":0,"TOWNNAME":"六甲區","LI":"二甲里","LIN":"18鄰","STREET":"中山路","SECT":" ","MAREA":" ","LANE":"４２９巷","ALLEY":" ","HOUSE_NO":"２８號","E_COORD97":181982.92000000001,"N_COORD97":2570290.29,"ADDRESS":"中山路４２９巷２８號","OBJECTID":449988},"geometry":{"x":181982.92000000086,"y":2570290.290000001}},{"attributes":{"ID":450014,"DIS_CODE":0,"TOWNNAME":"六甲區","LI":"二甲里","LIN":"18鄰","STREET":"中山路","SECT":" ","MAREA":" ","LANE":"４２９巷","ALLEY":" ","HOUSE_NO":"２９號","E_COORD97":181962.14000000001,"N_COORD97":2570269.73,"ADDRESS":"中山路４２９巷２９號","OBJECTID":449989},"geometry":{"x":181962.1400000006,"y":2570269.7300000023}},{"attributes":{"ID":450015,"DIS_CODE":0,"TOWNNAME":"六甲區","LI":"二甲里","LIN":"18鄰","STREET":"中山路","SECT":" ","MAREA":" ","LANE":"４２９巷","ALLEY":" ","HOUSE_NO":"２號","E_COORD97":181995.10000000001,"N_COORD97":2570369.7799999998,"ADDRESS":"中山路４２９巷２號","OBJECTID":449990},"geometry":{"x":181995.09999999963,"y":2570369.7800000012}},{"attributes":{"ID":450016,"DIS_CODE":0,"TOWNNAME":"六甲區","LI":"二甲里","LIN":"18鄰","STREET":"中山路","SECT":" ","MAREA":" ","LANE":"４２９巷","ALLEY":" ","HOUSE_NO":"３０號","E_COORD97":181982.04000000001,"N_COORD97":2570283.8399999999,"ADDRESS":"中山路４２９巷３０號","OBJECTID":449991},"geometry":{"x":181982.04000000097,"y":2570283.8400000036}},{"attributes":{"ID":450017,"DIS_CODE":0,"TOWNNAME":"六甲區","LI":"二甲里","LIN":"18鄰","STREET":"中山路","SECT":" ","MAREA":" ","LANE":"４２９巷","ALLEY":" ","HOUSE_NO":"３１號","E_COORD97":181960.92000000001,"N_COORD97":2570261.77,"ADDRESS":"中山路４２９巷３１號","OBJECTID":449992},"geometry":{"x":181960.91999999993,"y":2570261.7700000014}},{"attributes":{"ID":450018,"DIS_CODE":0,"TOWNNAME":"六甲區","LI":"二甲里","LIN":"18鄰","STREET":"中山路","SECT":" ","MAREA":" ","LANE":"４２９巷","ALLEY":" ","HOUSE_NO":"３２號","E_COORD97":181949.26000000001,"N_COORD97":2570279.6800000002,"ADDRESS":"中山路４２９巷３２號","OBJECTID":449993},"geometry":{"x":181949.26000000071,"y":2570279.6799999997}},{"attributes":{"ID":450019,"DIS_CODE":0,"TOWNNAME":"六甲區","LI":"二甲里","LIN":"18鄰","STREET":"中山路","SECT":" ","MAREA":" ","LANE":"４２９巷","ALLEY":" ","HOUSE_NO":"３３號","E_COORD97":181959.76999999999,"N_COORD97":2570254.1200000001,"ADDRESS":"中山路４２９巷３３號","OBJECTID":449994},"geometry":{"x":181959.77000000048,"y":2570254.1200000029}},{"attributes":{"ID":450020,"DIS_CODE":0,"TOWNNAME":"六甲區","LI":"二甲里","LIN":"18鄰","STREET":"中山路","SECT":" ","MAREA":" ","LANE":"４２９巷","ALLEY":" ","HOUSE_NO":"３４號","E_COORD97":181948.48000000001,"N_COORD97":2570271.4700000002,"ADDRESS":"中山路４２９巷３４號","OBJECTID":449995},"geometry":{"x":181948.48000000138,"y":2570271.4700000025}},{"attributes":{"ID":450021,"DIS_CODE":0,"TOWNNAME":"六甲區","LI":"二甲里","LIN":"18鄰","STREET":"中山路","SECT":" ","MAREA":" ","LANE":"４２９巷","ALLEY":" ","HOUSE_NO":"３５號","E_COORD97":181958.41,"N_COORD97":2570245.4300000002,"ADDRESS":"中山路４２９巷３５號","OBJECTID":449996},"geometry":{"x":181958.41000000015,"y":2570245.4299999978}},{"attributes":{"ID":450022,"DIS_CODE":0,"TOWNNAME":"六甲區","LI":"二甲里","LIN":"18鄰","STREET":"中山路","SECT":" ","MAREA":" ","LANE":"４２９巷","ALLEY":" ","HOUSE_NO":"３６號","E_COORD97":181947.45999999999,"N_COORD97":2570263.54,"ADDRESS":"中山路４２９巷３６號","OBJECTID":449997},"geometry":{"x":181947.45999999996,"y":2570263.5399999991}},{"attributes":{"ID":450023,"DIS_CODE":0,"TOWNNAME":"六甲區","LI":"二甲里","LIN":"18鄰","STREET":"中山路","SECT":" ","MAREA":" ","LANE":"４２９巷","ALLEY":" ","HOUSE_NO":"３７號","E_COORD97":181957.20000000001,"N_COORD97":2570237.1800000002,"ADDRESS":"中山路４２９巷３７號","OBJECTID":449998},"geometry":{"x":181957.20000000112,"y":2570237.1800000034}},{"attributes":{"ID":450024,"DIS_CODE":0,"TOWNNAME":"六甲區","LI":"二甲里","LIN":"18鄰","STREET":"中山路","SECT":" ","MAREA":" ","LANE":"４２９巷","ALLEY":" ","HOUSE_NO":"３８號","E_COORD97":181946.12,"N_COORD97":2570255.2599999998,"ADDRESS":"中山路４２９巷３８號","OBJECTID":449999},"geometry":{"x":181946.12000000104,"y":2570255.2600000016}},{"attributes":{"ID":450025,"DIS_CODE":0,"TOWNNAME":"六甲區","LI":"二甲里","LIN":"18鄰","STREET":"中山路","SECT":" ","MAREA":" ","LANE":"４２９巷","ALLEY":" ","HOUSE_NO":"３９號","E_COORD97":181956.20999999999,"N_COORD97":2570229.0099999998,"ADDRESS":"中山路４２９巷３９號","OBJECTID":450000},"geometry":{"x":181956.20999999996,"y":2570229.0100000016}}]}