{"displayFieldName":"TOWNNAME","fieldAliases":{"ID":"ID","DIS_CODE":"DIS_CODE","TOWNNAME":"TOWNNAME","LI":"LI","LIN":"LIN","STREET":"STREET","SECT":"SECT","MAREA":"MAREA","LANE":"LANE","ALLEY":"ALLEY","HOUSE_NO":"HOUSE_NO","E_COORD97":"E_COORD97","N_COORD97":"N_COORD97","ADDRESS":"ADDRESS","OBJECTID":"OBJECTID"},"geometryType":"esriGeometryPoint","spatialReference":{"wkid":102443,"latestWkid":3826},"fields":[{"name":"ID","type":"esriFieldTypeDouble","alias":"ID"},{"name":"DIS_CODE","type":"esriFieldTypeInteger","alias":"DIS_CODE"},{"name":"TOWNNAME","type":"esriFieldTypeString","alias":"TOWNNAME","length":8},{"name":"LI","type":"esriFieldTypeString","alias":"LI","length":8},{"name":"LIN","type":"esriFieldTypeString","alias":"LIN","length":12},{"name":"STREET","type":"esriFieldTypeString","alias":"STREET","length":20},{"name":"SECT","type":"esriFieldTypeString","alias":"SECT","length":8},{"name":"MAREA","type":"esriFieldTypeString","alias":"MAREA","length":12},{"name":"LANE","type":"esriFieldTypeString","alias":"LANE","length":10},{"name":"ALLEY","type":"esriFieldTypeString","alias":"ALLEY","length":10},{"name":"HOUSE_NO","type":"esriFieldTypeString","alias":"HOUSE_NO","length":20},{"name":"E_COORD97","type":"esriFieldTypeDouble","alias":"E_COORD97"},{"name":"N_COORD97","type":"esriFieldTypeDouble","alias":"N_COORD97"},{"name":"ADDRESS","type":"esriFieldTypeString","alias":"ADDRESS","length":50},{"name":"OBJECTID","type":"esriFieldTypeOID","alias":"OBJECTID"}],"features":[{"attributes":{"ID":606428,"DIS_CODE":0,"TOWNNAME":"東區","LI":"崇文里","LIN":"3鄰","STREET":"崇德十六街","SECT":" ","MAREA":" ","LANE":" ","ALLEY":" ","HOUSE_NO":"７７號","E_COORD97":171015.89999999999,"N_COORD97":2541147.1499999999,"ADDRESS":"崇德十六街７７號","OBJECTID":606401},"geometry":{"x":171015.90000000037,"y":2541147.1500000004}},{"attributes":{"ID":606429,"DIS_CODE":0,"TOWNNAME":"東區","LI":"崇文里","LIN":"3鄰","STREET":"崇德十六街","SECT":" ","MAREA":" ","LANE":" ","ALLEY":" ","HOUSE_NO":"７９號","E_COORD97":171019.88,"N_COORD97":2541147.0499999998,"ADDRESS":"崇德十六街７９號","OBJECTID":606402},"geometry":{"x":171019.88000000082,"y":2541147.0500000026}},{"attributes":{"ID":606430,"DIS_CODE":0,"TOWNNAME":"東區","LI":"崇文里","LIN":"3鄰","STREET":"崇德十六街","SECT":" ","MAREA":" ","LANE":" ","ALLEY":" ","HOUSE_NO":"８１號","E_COORD97":171024.76000000001,"N_COORD97":2541147.1499999999,"ADDRESS":"崇德十六街８１號","OBJECTID":606403},"geometry":{"x":171024.75999999978,"y":2541147.1500000004}},{"attributes":{"ID":606431,"DIS_CODE":0,"TOWNNAME":"東區","LI":"崇文里","LIN":"3鄰","STREET":"崇德十六街","SECT":" ","MAREA":" ","LANE":" ","ALLEY":" ","HOUSE_NO":"８３號","E_COORD97":171031.03,"N_COORD97":2541149.23,"ADDRESS":"崇德十六街８３號","OBJECTID":606404},"geometry":{"x":171031.03000000119,"y":2541149.2300000023}},{"attributes":{"ID":606432,"DIS_CODE":0,"TOWNNAME":"東區","LI":"崇文里","LIN":"3鄰","STREET":"崇德十六街","SECT":" ","MAREA":" ","LANE":" ","ALLEY":" ","HOUSE_NO":"８５號","E_COORD97":171039.48999999999,"N_COORD97":2541146.75,"ADDRESS":"崇德十六街８５號","OBJECTID":606405},"geometry":{"x":171039.49000000209,"y":2541146.75}},{"attributes":{"ID":606433,"DIS_CODE":0,"TOWNNAME":"東區","LI":"崇文里","LIN":"3鄰","STREET":"崇德十六街","SECT":" ","MAREA":" ","LANE":" ","ALLEY":" ","HOUSE_NO":"８７號","E_COORD97":171045.66,"N_COORD97":2541148.4399999999,"ADDRESS":"崇德十六街８７號","OBJECTID":606406},"geometry":{"x":171045.66000000108,"y":2541148.4399999995}},{"attributes":{"ID":606434,"DIS_CODE":0,"TOWNNAME":"東區","LI":"崇文里","LIN":"3鄰","STREET":"崇德十六街","SECT":" ","MAREA":" ","LANE":" ","ALLEY":" ","HOUSE_NO":"８９號","E_COORD97":171051.73999999999,"N_COORD97":2541150.1299999999,"ADDRESS":"崇德十六街８９號","OBJECTID":606407},"geometry":{"x":171051.74000000115,"y":2541150.129999999}},{"attributes":{"ID":606435,"DIS_CODE":0,"TOWNNAME":"中西區","LI":"水仙里","LIN":"3鄰","STREET":"仁愛街","SECT":" ","MAREA":" ","LANE":" ","ALLEY":" ","HOUSE_NO":"１９號","E_COORD97":167742.07999999999,"N_COORD97":2544017.2999999998,"ADDRESS":"仁愛街１９號","OBJECTID":606408},"geometry":{"x":167742.08000000101,"y":2544017.3000000026}},{"attributes":{"ID":606436,"DIS_CODE":0,"TOWNNAME":"中西區","LI":"保安里","LIN":"3鄰","STREET":"西門路","SECT":"二段","MAREA":" ","LANE":" ","ALLEY":" ","HOUSE_NO":"３號","E_COORD97":167721.45000000001,"N_COORD97":2543435.75,"ADDRESS":"西門路二段３號","OBJECTID":606409},"geometry":{"x":167721.45000000019,"y":2543435.7499999981}},{"attributes":{"ID":606437,"DIS_CODE":0,"TOWNNAME":"中西區","LI":"保安里","LIN":"3鄰","STREET":"西門路","SECT":"二段","MAREA":" ","LANE":" ","ALLEY":" ","HOUSE_NO":"５號","E_COORD97":167721.91,"N_COORD97":2543438.7000000002,"ADDRESS":"西門路二段５號","OBJECTID":606410},"geometry":{"x":167721.91000000015,"y":2543438.6999999974}},{"attributes":{"ID":606438,"DIS_CODE":0,"TOWNNAME":"中西區","LI":"保安里","LIN":"3鄰","STREET":"府前路","SECT":"二段","MAREA":" ","LANE":" ","ALLEY":" ","HOUSE_NO":"１１號","E_COORD97":167705.72,"N_COORD97":2543453.0899999999,"ADDRESS":"府前路二段１１號","OBJECTID":606411},"geometry":{"x":167705.71999999974,"y":2543453.0899999999}},{"attributes":{"ID":606439,"DIS_CODE":0,"TOWNNAME":"中西區","LI":"保安里","LIN":"3鄰","STREET":"府前路","SECT":"二段","MAREA":" ","LANE":" ","ALLEY":" ","HOUSE_NO":"１３號","E_COORD97":167700.23000000001,"N_COORD97":2543452.8100000001,"ADDRESS":"府前路二段１３號","OBJECTID":606412},"geometry":{"x":167700.23000000231,"y":2543452.8100000005}},{"attributes":{"ID":606440,"DIS_CODE":0,"TOWNNAME":"中西區","LI":"保安里","LIN":"3鄰","STREET":"府前路","SECT":"二段","MAREA":" ","LANE":" ","ALLEY":" ","HOUSE_NO":"１５號","E_COORD97":167693.94,"N_COORD97":2543449.98,"ADDRESS":"府前路二段１５號","OBJECTID":606413},"geometry":{"x":167693.94000000134,"y":2543449.9800000023}},{"attributes":{"ID":606441,"DIS_CODE":0,"TOWNNAME":"中西區","LI":"保安里","LIN":"3鄰","STREET":"府前路","SECT":"二段","MAREA":" ","LANE":" ","ALLEY":" ","HOUSE_NO":"１７號","E_COORD97":167687.41,"N_COORD97":2543450.4500000002,"ADDRESS":"府前路二段１７號","OBJECTID":606414},"geometry":{"x":167687.41000000108,"y":2543450.4499999993}},{"attributes":{"ID":606442,"DIS_CODE":0,"TOWNNAME":"中西區","LI":"保安里","LIN":"3鄰","STREET":"府前路","SECT":"二段","MAREA":" ","LANE":" ","ALLEY":" ","HOUSE_NO":"１９號","E_COORD97":167683.04999999999,"N_COORD97":2543451.0699999998,"ADDRESS":"府前路二段１９號","OBJECTID":606415},"geometry":{"x":167683.04999999981,"y":2543451.070000004}},{"attributes":{"ID":606443,"DIS_CODE":0,"TOWNNAME":"中西區","LI":"保安里","LIN":"3鄰","STREET":"府前路","SECT":"二段","MAREA":" ","LANE":" ","ALLEY":" ","HOUSE_NO":"１號","E_COORD97":167722.45999999999,"N_COORD97":2543451.3100000001,"ADDRESS":"府前路二段１號","OBJECTID":606416},"geometry":{"x":167722.46000000089,"y":2543451.3100000024}},{"attributes":{"ID":606444,"DIS_CODE":0,"TOWNNAME":"中西區","LI":"保安里","LIN":"3鄰","STREET":"府前路","SECT":"二段","MAREA":" ","LANE":" ","ALLEY":" ","HOUSE_NO":"２１號","E_COORD97":167678.22,"N_COORD97":2543452.9399999999,"ADDRESS":"府前路二段２１號","OBJECTID":606417},"geometry":{"x":167678.22000000067,"y":2543452.9399999995}},{"attributes":{"ID":606445,"DIS_CODE":0,"TOWNNAME":"中西區","LI":"保安里","LIN":"3鄰","STREET":"府前路","SECT":"二段","MAREA":" ","LANE":" ","ALLEY":" ","HOUSE_NO":"３號","E_COORD97":167712.98999999999,"N_COORD97":2543449.25,"ADDRESS":"府前路二段３號","OBJECTID":606418},"geometry":{"x":167712.99000000022,"y":2543449.25}},{"attributes":{"ID":606446,"DIS_CODE":0,"TOWNNAME":"中西區","LI":"保安里","LIN":"3鄰","STREET":"府前路","SECT":"二段","MAREA":" ","LANE":" ","ALLEY":" ","HOUSE_NO":"５號","E_COORD97":167717.38,"N_COORD97":2543451.0299999998,"ADDRESS":"府前路二段５號","OBJECTID":606419},"geometry":{"x":167717.38000000175,"y":2543451.0300000012}},{"attributes":{"ID":606447,"DIS_CODE":0,"TOWNNAME":"中西區","LI":"保安里","LIN":"3鄰","STREET":"府前路","SECT":"二段","MAREA":" ","LANE":" ","ALLEY":" ","HOUSE_NO":"７號","E_COORD97":167714.78,"N_COORD97":2543452.3999999999,"ADDRESS":"府前路二段７號","OBJECTID":606420},"geometry":{"x":167714.78000000026,"y":2543452.4000000041}},{"attributes":{"ID":606448,"DIS_CODE":0,"TOWNNAME":"中西區","LI":"保安里","LIN":"3鄰","STREET":"府前路","SECT":"二段","MAREA":" ","LANE":" ","ALLEY":" ","HOUSE_NO":"９號","E_COORD97":167710.66,"N_COORD97":2543455.2799999998,"ADDRESS":"府前路二段９號","OBJECTID":606421},"geometry":{"x":167710.66000000201,"y":2543455.2799999975}},{"attributes":{"ID":606449,"DIS_CODE":0,"TOWNNAME":"中西區","LI":"保安里","LIN":"3鄰","STREET":"保安路","SECT":" ","MAREA":" ","LANE":" ","ALLEY":" ","HOUSE_NO":"２４號","E_COORD97":167684.45000000001,"N_COORD97":2543433.6499999999,"ADDRESS":"保安路２４號","OBJECTID":606422},"geometry":{"x":167684.45000000019,"y":2543433.6500000041}},{"attributes":{"ID":606450,"DIS_CODE":0,"TOWNNAME":"中西區","LI":"保安里","LIN":"3鄰","STREET":"保安路","SECT":" ","MAREA":" ","LANE":" ","ALLEY":" ","HOUSE_NO":"２６號","E_COORD97":167679.47,"N_COORD97":2543434.2799999998,"ADDRESS":"保安路２６號","OBJECTID":606423},"geometry":{"x":167679.47000000067,"y":2543434.2799999993}},{"attributes":{"ID":606451,"DIS_CODE":0,"TOWNNAME":"中西區","LI":"保安里","LIN":"3鄰","STREET":"府前路","SECT":"二段","MAREA":" ","LANE":" ","ALLEY":" ","HOUSE_NO":"３５號","E_COORD97":167643.38,"N_COORD97":2543465.3799999999,"ADDRESS":"府前路二段３５號","OBJECTID":606424},"geometry":{"x":167643.38000000082,"y":2543465.3800000008}},{"attributes":{"ID":606452,"DIS_CODE":0,"TOWNNAME":"中西區","LI":"保安里","LIN":"3鄰","STREET":"府前路","SECT":"二段","MAREA":" ","LANE":" ","ALLEY":" ","HOUSE_NO":"３９號","E_COORD97":167638.23999999999,"N_COORD97":2543466.7799999998,"ADDRESS":"府前路二段３９號","OBJECTID":606425},"geometry":{"x":167638.24000000022,"y":2543466.7800000012}},{"attributes":{"ID":606453,"DIS_CODE":0,"TOWNNAME":"中西區","LI":"保安里","LIN":"3鄰","STREET":"保安路","SECT":" ","MAREA":" ","LANE":" ","ALLEY":" ","HOUSE_NO":"３２號","E_COORD97":167667.17000000001,"N_COORD97":2543435.0499999998,"ADDRESS":"保安路３２號","OBJECTID":606426},"geometry":{"x":167667.16999999993,"y":2543435.0500000026}},{"attributes":{"ID":606454,"DIS_CODE":0,"TOWNNAME":"中西區","LI":"保安里","LIN":"3鄰","STREET":"保安路","SECT":" ","MAREA":" ","LANE":" ","ALLEY":" ","HOUSE_NO":"３４號","E_COORD97":167664.67999999999,"N_COORD97":2543435.6800000002,"ADDRESS":"保安路３４號","OBJECTID":606427},"geometry":{"x":167664.68000000063,"y":2543435.6799999997}},{"attributes":{"ID":606455,"DIS_CODE":0,"TOWNNAME":"中西區","LI":"保安里","LIN":"3鄰","STREET":"保安路","SECT":" ","MAREA":" ","LANE":" ","ALLEY":" ","HOUSE_NO":"３６號","E_COORD97":167661.72,"N_COORD97":2543437.0800000001,"ADDRESS":"保安路３６號","OBJECTID":606428},"geometry":{"x":167661.71999999974,"y":2543437.0799999982}},{"attributes":{"ID":606456,"DIS_CODE":0,"TOWNNAME":"中西區","LI":"保安里","LIN":"3鄰","STREET":"保安路","SECT":" ","MAREA":" ","LANE":" ","ALLEY":" ","HOUSE_NO":"３８號","E_COORD97":167658.14000000001,"N_COORD97":2543438.6299999999,"ADDRESS":"保安路３８號","OBJECTID":606429},"geometry":{"x":167658.1400000006,"y":2543438.629999999}},{"attributes":{"ID":606457,"DIS_CODE":0,"TOWNNAME":"中西區","LI":"保安里","LIN":"3鄰","STREET":"保安路","SECT":" ","MAREA":" ","LANE":" ","ALLEY":" ","HOUSE_NO":"４６號","E_COORD97":167639.17999999999,"N_COORD97":2543440.8100000001,"ADDRESS":"保安路４６號","OBJECTID":606430},"geometry":{"x":167639.18000000063,"y":2543440.8100000024}},{"attributes":{"ID":606458,"DIS_CODE":0,"TOWNNAME":"中西區","LI":"保安里","LIN":"3鄰","STREET":"國華街","SECT":"二段","MAREA":" ","LANE":" ","ALLEY":" ","HOUSE_NO":"９９號","E_COORD97":167637.31,"N_COORD97":2543453.4100000001,"ADDRESS":"國華街二段９９號","OBJECTID":606431},"geometry":{"x":167637.30999999959,"y":2543453.410000002}},{"attributes":{"ID":606459,"DIS_CODE":0,"TOWNNAME":"中西區","LI":"保安里","LIN":"3鄰","STREET":"府前路","SECT":"二段","MAREA":" ","LANE":" ","ALLEY":" ","HOUSE_NO":"４５號","E_COORD97":167616.64000000001,"N_COORD97":2543475.0899999999,"ADDRESS":"府前路二段４５號","OBJECTID":606432},"geometry":{"x":167616.63999999966,"y":2543475.0900000017}},{"attributes":{"ID":606460,"DIS_CODE":0,"TOWNNAME":"中西區","LI":"保安里","LIN":"3鄰","STREET":"保安路","SECT":" ","MAREA":" ","LANE":" ","ALLEY":" ","HOUSE_NO":"６０號","E_COORD97":167610.04999999999,"N_COORD97":2543445.8999999999,"ADDRESS":"保安路６０號","OBJECTID":606433},"geometry":{"x":167610.05000000075,"y":2543445.9000000022}},{"attributes":{"ID":606461,"DIS_CODE":0,"TOWNNAME":"中西區","LI":"保安里","LIN":"3鄰","STREET":"保安路","SECT":" ","MAREA":" ","LANE":" ","ALLEY":" ","HOUSE_NO":"６２號","E_COORD97":167606.51999999999,"N_COORD97":2543447.0699999998,"ADDRESS":"保安路６２號","OBJECTID":606434},"geometry":{"x":167606.52000000048,"y":2543447.0700000003}},{"attributes":{"ID":606462,"DIS_CODE":0,"TOWNNAME":"中西區","LI":"保安里","LIN":"3鄰","STREET":"保安路","SECT":" ","MAREA":" ","LANE":" ","ALLEY":" ","HOUSE_NO":"６４號","E_COORD97":167600.79000000001,"N_COORD97":2543448.54,"ADDRESS":"保安路６４號","OBJECTID":606435},"geometry":{"x":167600.79000000004,"y":2543448.5399999991}},{"attributes":{"ID":606463,"DIS_CODE":0,"TOWNNAME":"中西區","LI":"保安里","LIN":"3鄰","STREET":"保安路","SECT":" ","MAREA":" ","LANE":" ","ALLEY":" ","HOUSE_NO":"６６號","E_COORD97":167595.57999999999,"N_COORD97":2543449.4900000002,"ADDRESS":"保安路６６號","OBJECTID":606436},"geometry":{"x":167595.58000000007,"y":2543449.4900000021}},{"attributes":{"ID":606464,"DIS_CODE":0,"TOWNNAME":"中西區","LI":"保安里","LIN":"3鄰","STREET":"府前路","SECT":"二段","MAREA":" ","LANE":" ","ALLEY":" ","HOUSE_NO":"６１號","E_COORD97":167583.82000000001,"N_COORD97":2543482.3399999999,"ADDRESS":"府前路二段６１號","OBJECTID":606437},"geometry":{"x":167583.8200000003,"y":2543482.3399999999}},{"attributes":{"ID":606465,"DIS_CODE":0,"TOWNNAME":"中西區","LI":"保安里","LIN":"3鄰","STREET":"府前路","SECT":"二段","MAREA":" ","LANE":" ","ALLEY":" ","HOUSE_NO":"６３號","E_COORD97":167579.82000000001,"N_COORD97":2543485.3799999999,"ADDRESS":"府前路二段６３號","OBJECTID":606438},"geometry":{"x":167579.82000000123,"y":2543485.3800000008}},{"attributes":{"ID":606466,"DIS_CODE":0,"TOWNNAME":"中西區","LI":"保安里","LIN":"3鄰","STREET":"府前路","SECT":"二段","MAREA":" ","LANE":" ","ALLEY":" ","HOUSE_NO":"６５號","E_COORD97":167572.37,"N_COORD97":2543483.1000000001,"ADDRESS":"府前路二段６５號","OBJECTID":606439},"geometry":{"x":167572.37000000104,"y":2543483.0999999996}},{"attributes":{"ID":606467,"DIS_CODE":0,"TOWNNAME":"中西區","LI":"保安里","LIN":"3鄰","STREET":"保安路","SECT":" ","MAREA":" ","LANE":" ","ALLEY":" ","HOUSE_NO":"８０號","E_COORD97":167564.01000000001,"N_COORD97":2543456.75,"ADDRESS":"保安路８０號","OBJECTID":606440},"geometry":{"x":167564.01000000071,"y":2543456.7500000019}},{"attributes":{"ID":606468,"DIS_CODE":0,"TOWNNAME":"中西區","LI":"保安里","LIN":"3鄰","STREET":"保安路","SECT":" ","MAREA":" ","LANE":" ","ALLEY":" ","HOUSE_NO":"８２號","E_COORD97":167560.20000000001,"N_COORD97":2543457.7000000002,"ADDRESS":"保安路８２號","OBJECTID":606441},"geometry":{"x":167560.20000000112,"y":2543457.6999999993}},{"attributes":{"ID":606469,"DIS_CODE":0,"TOWNNAME":"中西區","LI":"保安里","LIN":"3鄰","STREET":"保安路","SECT":" ","MAREA":" ","LANE":" ","ALLEY":" ","HOUSE_NO":"８４號","E_COORD97":167555.42999999999,"N_COORD97":2543458.5699999998,"ADDRESS":"保安路８４號","OBJECTID":606442},"geometry":{"x":167555.4299999997,"y":2543458.5700000022}},{"attributes":{"ID":606470,"DIS_CODE":0,"TOWNNAME":"中西區","LI":"保安里","LIN":"3鄰","STREET":"保安路","SECT":" ","MAREA":" ","LANE":" ","ALLEY":" ","HOUSE_NO":"８６號","E_COORD97":167553.35000000001,"N_COORD97":2543459.3500000001,"ADDRESS":"保安路８６號","OBJECTID":606443},"geometry":{"x":167553.35000000056,"y":2543459.3500000015}},{"attributes":{"ID":606471,"DIS_CODE":0,"TOWNNAME":"中西區","LI":"保安里","LIN":"3鄰","STREET":"保安路","SECT":" ","MAREA":" ","LANE":" ","ALLEY":" ","HOUSE_NO":"９０號","E_COORD97":167541.19,"N_COORD97":2543469.8599999999,"ADDRESS":"保安路９０號","OBJECTID":606444},"geometry":{"x":167541.19000000227,"y":2543469.8600000013}},{"attributes":{"ID":606472,"DIS_CODE":0,"TOWNNAME":"中西區","LI":"大涼里","LIN":"3鄰","STREET":"環河街","SECT":" ","MAREA":" ","LANE":" ","ALLEY":" ","HOUSE_NO":"９號","E_COORD97":167124.16,"N_COORD97":2543652.3700000001,"ADDRESS":"環河街９號","OBJECTID":606445},"geometry":{"x":167124.16000000201,"y":2543652.370000001}},{"attributes":{"ID":606473,"DIS_CODE":0,"TOWNNAME":"下營區","LI":"仁里里","LIN":"3鄰","STREET":"仁里街","SECT":" ","MAREA":" ","LANE":" ","ALLEY":" ","HOUSE_NO":"２８號","E_COORD97":174295.70999999999,"N_COORD97":2570256.2999999998,"ADDRESS":"仁里街２８號","OBJECTID":606446},"geometry":{"x":174295.70999999996,"y":2570256.3000000007}},{"attributes":{"ID":606474,"DIS_CODE":0,"TOWNNAME":"中西區","LI":"水仙里","LIN":"3鄰","STREET":"仁愛街","SECT":" ","MAREA":" ","LANE":" ","ALLEY":" ","HOUSE_NO":"１８號","E_COORD97":167751.25,"N_COORD97":2544006.8700000001,"ADDRESS":"仁愛街１８號","OBJECTID":606447},"geometry":{"x":167751.25000000093,"y":2544006.8700000029}},{"attributes":{"ID":606475,"DIS_CODE":0,"TOWNNAME":"中西區","LI":"水仙里","LIN":"3鄰","STREET":"仁愛街","SECT":" ","MAREA":" ","LANE":" ","ALLEY":" ","HOUSE_NO":"２０號","E_COORD97":167752.37,"N_COORD97":2544009.6400000001,"ADDRESS":"仁愛街２０號","OBJECTID":606448},"geometry":{"x":167752.37000000011,"y":2544009.6400000006}},{"attributes":{"ID":606476,"DIS_CODE":0,"TOWNNAME":"中西區","LI":"水仙里","LIN":"3鄰","STREET":"民生路","SECT":"二段","MAREA":" ","LANE":" ","ALLEY":" ","HOUSE_NO":"６４號底一層","E_COORD97":167726.72,"N_COORD97":2543975.6600000001,"ADDRESS":"民生路二段６４號底一層","OBJECTID":606449},"geometry":{"x":167726.7200000016,"y":2543975.6599999983}},{"attributes":{"ID":606477,"DIS_CODE":0,"TOWNNAME":"中西區","LI":"水仙里","LIN":"3鄰","STREET":"民生路","SECT":"二段","MAREA":" ","LANE":" ","ALLEY":" ","HOUSE_NO":"６４號底二層","E_COORD97":167726.72,"N_COORD97":2543975.6600000001,"ADDRESS":"民生路二段６４號底二層","OBJECTID":606450},"geometry":{"x":167726.7200000016,"y":2543975.6599999983}},{"attributes":{"ID":606478,"DIS_CODE":0,"TOWNNAME":"中西區","LI":"水仙里","LIN":"3鄰","STREET":"民生路","SECT":"二段","MAREA":" ","LANE":" ","ALLEY":" ","HOUSE_NO":"６８號","E_COORD97":167718.91,"N_COORD97":2543978.0899999999,"ADDRESS":"民生路二段６８號","OBJECTID":606451},"geometry":{"x":167718.91000000015,"y":2543978.0899999999}},{"attributes":{"ID":606479,"DIS_CODE":0,"TOWNNAME":"中西區","LI":"水仙里","LIN":"3鄰","STREET":"民生路","SECT":"二段","MAREA":" ","LANE":" ","ALLEY":" ","HOUSE_NO":"７０號","E_COORD97":167708.16,"N_COORD97":2543981.8999999999,"ADDRESS":"民生路二段７０號","OBJECTID":606452},"geometry":{"x":167708.16000000015,"y":2543981.9000000022}},{"attributes":{"ID":606480,"DIS_CODE":0,"TOWNNAME":"中西區","LI":"水仙里","LIN":"3鄰","STREET":"民生路","SECT":"二段","MAREA":" ","LANE":" ","ALLEY":" ","HOUSE_NO":"８２號","E_COORD97":167666.17999999999,"N_COORD97":2543995.5299999998,"ADDRESS":"民生路二段８２號","OBJECTID":606453},"geometry":{"x":167666.18000000063,"y":2543995.5299999993}},{"attributes":{"ID":606481,"DIS_CODE":0,"TOWNNAME":"中西區","LI":"水仙里","LIN":"3鄰","STREET":"民生路","SECT":"二段","MAREA":" ","LANE":" ","ALLEY":" ","HOUSE_NO":"８４號","E_COORD97":167661.85000000001,"N_COORD97":2543996.9199999999,"ADDRESS":"民生路二段８４號","OBJECTID":606454},"geometry":{"x":167661.85000000056,"y":2543996.9199999999}},{"attributes":{"ID":606482,"DIS_CODE":0,"TOWNNAME":"中西區","LI":"水仙里","LIN":"3鄰","STREET":"民生路","SECT":"二段","MAREA":" ","LANE":" ","ALLEY":" ","HOUSE_NO":"８６號","E_COORD97":167659.32999999999,"N_COORD97":2543999.6899999999,"ADDRESS":"民生路二段８６號","OBJECTID":606455},"geometry":{"x":167659.33000000101,"y":2543999.6900000013}},{"attributes":{"ID":606483,"DIS_CODE":0,"TOWNNAME":"中西區","LI":"郡西里","LIN":"3鄰","STREET":"永華路","SECT":"一段","MAREA":" ","LANE":" ","ALLEY":" ","HOUSE_NO":"１１２號","E_COORD97":167342.64999999999,"N_COORD97":2543177.4199999999,"ADDRESS":"永華路一段１１２號","OBJECTID":606456},"geometry":{"x":167342.65000000037,"y":2543177.4200000018}},{"attributes":{"ID":606484,"DIS_CODE":0,"TOWNNAME":"中西區","LI":"郡西里","LIN":"3鄰","STREET":"永華路","SECT":"一段","MAREA":" ","LANE":" ","ALLEY":" ","HOUSE_NO":"１１４號","E_COORD97":167337.84,"N_COORD97":2543178.5800000001,"ADDRESS":"永華路一段１１４號","OBJECTID":606457},"geometry":{"x":167337.84000000171,"y":2543178.5800000001}},{"attributes":{"ID":606485,"DIS_CODE":0,"TOWNNAME":"中西區","LI":"郡西里","LIN":"3鄰","STREET":"永華路","SECT":"一段","MAREA":" ","LANE":" ","ALLEY":" ","HOUSE_NO":"１１６號","E_COORD97":167333.56,"N_COORD97":2543179.2000000002,"ADDRESS":"永華路一段１１６號","OBJECTID":606458},"geometry":{"x":167333.55999999959,"y":2543179.2000000011}},{"attributes":{"ID":606486,"DIS_CODE":0,"TOWNNAME":"中西區","LI":"郡西里","LIN":"3鄰","STREET":"永華路","SECT":"一段","MAREA":" ","LANE":" ","ALLEY":" ","HOUSE_NO":"１１８號","E_COORD97":167329.54999999999,"N_COORD97":2543180.7200000002,"ADDRESS":"永華路一段１１８號","OBJECTID":606459},"geometry":{"x":167329.55000000168,"y":2543180.7200000025}},{"attributes":{"ID":606487,"DIS_CODE":0,"TOWNNAME":"中西區","LI":"郡西里","LIN":"3鄰","STREET":"永華路","SECT":"一段","MAREA":" ","LANE":" ","ALLEY":" ","HOUSE_NO":"１２０號","E_COORD97":167325.54000000001,"N_COORD97":2543182.1400000001,"ADDRESS":"永華路一段１２０號","OBJECTID":606460},"geometry":{"x":167325.54000000097,"y":2543182.1400000006}},{"attributes":{"ID":606488,"DIS_CODE":0,"TOWNNAME":"中西區","LI":"大涼里","LIN":"3鄰","STREET":"金華路","SECT":"三段","MAREA":" ","LANE":" ","ALLEY":" ","HOUSE_NO":"１２９號","E_COORD97":167233.31,"N_COORD97":2543601.7000000002,"ADDRESS":"金華路三段１２９號","OBJECTID":606461},"geometry":{"x":167233.31000000052,"y":2543601.700000003}},{"attributes":{"ID":606489,"DIS_CODE":0,"TOWNNAME":"中西區","LI":"大涼里","LIN":"3鄰","STREET":"金華路","SECT":"三段","MAREA":" ","LANE":" ","ALLEY":" ","HOUSE_NO":"１３１號","E_COORD97":167234.09,"N_COORD97":2543605.4300000002,"ADDRESS":"金華路三段１３１號","OBJECTID":606462},"geometry":{"x":167234.08999999985,"y":2543605.4300000016}},{"attributes":{"ID":606490,"DIS_CODE":0,"TOWNNAME":"中西區","LI":"大涼里","LIN":"3鄰","STREET":"金華路","SECT":"三段","MAREA":" ","LANE":" ","ALLEY":" ","HOUSE_NO":"１３３號","E_COORD97":167235.88,"N_COORD97":2543609.96,"ADDRESS":"金華路三段１３３號","OBJECTID":606463},"geometry":{"x":167235.88000000175,"y":2543609.9600000028}},{"attributes":{"ID":606491,"DIS_CODE":0,"TOWNNAME":"中西區","LI":"大涼里","LIN":"3鄰","STREET":"金華路","SECT":"三段","MAREA":" ","LANE":" ","ALLEY":" ","HOUSE_NO":"１３５號","E_COORD97":167236.16,"N_COORD97":2543614.1299999999,"ADDRESS":"金華路三段１３５號","OBJECTID":606464},"geometry":{"x":167236.16000000108,"y":2543614.129999999}},{"attributes":{"ID":606492,"DIS_CODE":0,"TOWNNAME":"中西區","LI":"大涼里","LIN":"3鄰","STREET":"金華路","SECT":"三段","MAREA":" ","LANE":" ","ALLEY":" ","HOUSE_NO":"１３７號","E_COORD97":167238.53,"N_COORD97":2543618.75,"ADDRESS":"金華路三段１３７號","OBJECTID":606465},"geometry":{"x":167238.52999999933,"y":2543618.75}},{"attributes":{"ID":606493,"DIS_CODE":0,"TOWNNAME":"中西區","LI":"大涼里","LIN":"3鄰","STREET":"金華路","SECT":"三段","MAREA":" ","LANE":" ","ALLEY":" ","HOUSE_NO":"１３９號","E_COORD97":167236.16,"N_COORD97":2543622.1000000001,"ADDRESS":"金華路三段１３９號","OBJECTID":606466},"geometry":{"x":167236.16000000108,"y":2543622.0999999996}},{"attributes":{"ID":606494,"DIS_CODE":0,"TOWNNAME":"中西區","LI":"大涼里","LIN":"3鄰","STREET":"金華路","SECT":"三段","MAREA":" ","LANE":" ","ALLEY":" ","HOUSE_NO":"１４１號","E_COORD97":167237.23000000001,"N_COORD97":2543626.1699999999,"ADDRESS":"金華路三段１４１號","OBJECTID":606467},"geometry":{"x":167237.23000000045,"y":2543626.1699999981}},{"attributes":{"ID":606495,"DIS_CODE":0,"TOWNNAME":"中西區","LI":"大涼里","LIN":"3鄰","STREET":"金華路","SECT":"三段","MAREA":" ","LANE":" ","ALLEY":" ","HOUSE_NO":"１４３號","E_COORD97":167238.10999999999,"N_COORD97":2543639.54,"ADDRESS":"金華路三段１４３號","OBJECTID":606468},"geometry":{"x":167238.1100000022,"y":2543639.5399999991}},{"attributes":{"ID":606496,"DIS_CODE":0,"TOWNNAME":"中西區","LI":"大涼里","LIN":"3鄰","STREET":"環河街","SECT":" ","MAREA":" ","LANE":" ","ALLEY":" ","HOUSE_NO":"１０號","E_COORD97":167156.31,"N_COORD97":2543639.9100000001,"ADDRESS":"環河街１０號","OBJECTID":606469},"geometry":{"x":167156.31000000145,"y":2543639.910000002}},{"attributes":{"ID":606497,"DIS_CODE":0,"TOWNNAME":"中西區","LI":"大涼里","LIN":"3鄰","STREET":"環河街","SECT":" ","MAREA":" ","LANE":" ","ALLEY":" ","HOUSE_NO":"１２號","E_COORD97":167155.54000000001,"N_COORD97":2543645.3100000001,"ADDRESS":"環河街１２號","OBJECTID":606470},"geometry":{"x":167155.54000000097,"y":2543645.3100000005}},{"attributes":{"ID":606498,"DIS_CODE":0,"TOWNNAME":"中西區","LI":"大涼里","LIN":"3鄰","STREET":"環河街","SECT":" ","MAREA":" ","LANE":" ","ALLEY":" ","HOUSE_NO":"１４號","E_COORD97":167156.04999999999,"N_COORD97":2543648.6499999999,"ADDRESS":"環河街１４號","OBJECTID":606471},"geometry":{"x":167156.04999999981,"y":2543648.6500000022}},{"attributes":{"ID":606499,"DIS_CODE":0,"TOWNNAME":"中西區","LI":"大涼里","LIN":"3鄰","STREET":"環河街","SECT":" ","MAREA":" ","LANE":" ","ALLEY":" ","HOUSE_NO":"１６號","E_COORD97":167156.57000000001,"N_COORD97":2543652.7599999998,"ADDRESS":"環河街１６號","OBJECTID":606472},"geometry":{"x":167156.5700000003,"y":2543652.7600000035}},{"attributes":{"ID":606500,"DIS_CODE":0,"TOWNNAME":"中西區","LI":"大涼里","LIN":"3鄰","STREET":"環河街","SECT":" ","MAREA":" ","LANE":" ","ALLEY":" ","HOUSE_NO":"６號","E_COORD97":167152.35999999999,"N_COORD97":2543628.3500000001,"ADDRESS":"環河街６號","OBJECTID":606473},"geometry":{"x":167152.36000000127,"y":2543628.3500000034}},{"attributes":{"ID":606501,"DIS_CODE":0,"TOWNNAME":"中西區","LI":"大涼里","LIN":"3鄰","STREET":"環河街","SECT":" ","MAREA":" ","LANE":" ","ALLEY":" ","HOUSE_NO":"８號","E_COORD97":167155.54000000001,"N_COORD97":2543635.02,"ADDRESS":"環河街８號","OBJECTID":606474},"geometry":{"x":167155.54000000097,"y":2543635.0200000014}},{"attributes":{"ID":606502,"DIS_CODE":0,"TOWNNAME":"下營區","LI":"仁里里","LIN":"3鄰","STREET":"仁里街","SECT":" ","MAREA":" ","LANE":" ","ALLEY":" ","HOUSE_NO":"３０號","E_COORD97":174293.64000000001,"N_COORD97":2570251.8399999999,"ADDRESS":"仁里街３０號","OBJECTID":606475},"geometry":{"x":174293.63999999966,"y":2570251.8399999999}},{"attributes":{"ID":606503,"DIS_CODE":0,"TOWNNAME":"下營區","LI":"仁里里","LIN":"3鄰","STREET":"仁里街","SECT":" ","MAREA":" ","LANE":" ","ALLEY":" ","HOUSE_NO":"３２號","E_COORD97":174292.47,"N_COORD97":2570247.29,"ADDRESS":"仁里街３２號","OBJECTID":606476},"geometry":{"x":174292.47000000067,"y":2570247.290000001}},{"attributes":{"ID":606504,"DIS_CODE":0,"TOWNNAME":"下營區","LI":"仁里里","LIN":"3鄰","STREET":"仁里街","SECT":" ","MAREA":" ","LANE":" ","ALLEY":" ","HOUSE_NO":"３８號","E_COORD97":174289.01000000001,"N_COORD97":2570238.77,"ADDRESS":"仁里街３８號","OBJECTID":606477},"geometry":{"x":174289.01000000071,"y":2570238.7699999996}},{"attributes":{"ID":606505,"DIS_CODE":0,"TOWNNAME":"下營區","LI":"仁里里","LIN":"3鄰","STREET":"仁里街","SECT":" ","MAREA":" ","LANE":" ","ALLEY":" ","HOUSE_NO":"４０號","E_COORD97":174286.98000000001,"N_COORD97":2570234.7400000002,"ADDRESS":"仁里街４０號","OBJECTID":606478},"geometry":{"x":174286.98000000045,"y":2570234.7400000021}},{"attributes":{"ID":606506,"DIS_CODE":0,"TOWNNAME":"下營區","LI":"仁里里","LIN":"3鄰","STREET":"仁里街","SECT":" ","MAREA":" ","LANE":" ","ALLEY":" ","HOUSE_NO":"４２號","E_COORD97":174285.57000000001,"N_COORD97":2570230.79,"ADDRESS":"仁里街４２號","OBJECTID":606479},"geometry":{"x":174285.57000000123,"y":2570230.7899999991}},{"attributes":{"ID":606507,"DIS_CODE":0,"TOWNNAME":"下營區","LI":"仁里里","LIN":"3鄰","STREET":"仁里街","SECT":" ","MAREA":" ","LANE":" ","ALLEY":" ","HOUSE_NO":"４６號","E_COORD97":174283.57000000001,"N_COORD97":2570226.8100000001,"ADDRESS":"仁里街４６號","OBJECTID":606480},"geometry":{"x":174283.57000000216,"y":2570226.8100000042}},{"attributes":{"ID":606508,"DIS_CODE":0,"TOWNNAME":"下營區","LI":"仁里里","LIN":"7鄰","STREET":"仁美街","SECT":" ","MAREA":" ","LANE":" ","ALLEY":" ","HOUSE_NO":"１６號","E_COORD97":174214.5,"N_COORD97":2570269.1299999999,"ADDRESS":"仁美街１６號","OBJECTID":606481},"geometry":{"x":174214.50000000093,"y":2570269.129999999}},{"attributes":{"ID":606509,"DIS_CODE":0,"TOWNNAME":"下營區","LI":"仁里里","LIN":"3鄰","STREET":"仁美街","SECT":" ","MAREA":" ","LANE":" ","ALLEY":" ","HOUSE_NO":"１５號","E_COORD97":174260.97,"N_COORD97":2570272.3799999999,"ADDRESS":"仁美街１５號","OBJECTID":606482},"geometry":{"x":174260.96999999974,"y":2570272.3800000027}},{"attributes":{"ID":606510,"DIS_CODE":0,"TOWNNAME":"下營區","LI":"仁里里","LIN":"3鄰","STREET":"仁美街","SECT":" ","MAREA":" ","LANE":" ","ALLEY":" ","HOUSE_NO":"１７號","E_COORD97":174233.92999999999,"N_COORD97":2570274.1200000001,"ADDRESS":"仁美街１７號","OBJECTID":606483},"geometry":{"x":174233.9299999997,"y":2570274.1200000029}},{"attributes":{"ID":606511,"DIS_CODE":0,"TOWNNAME":"下營區","LI":"仁里里","LIN":"3鄰","STREET":"仁美街","SECT":" ","MAREA":" ","LANE":" ","ALLEY":" ","HOUSE_NO":"５號","E_COORD97":174280.14000000001,"N_COORD97":2570266.77,"ADDRESS":"仁美街５號","OBJECTID":606484},"geometry":{"x":174280.13999999966,"y":2570266.7700000033}},{"attributes":{"ID":606512,"DIS_CODE":0,"TOWNNAME":"下營區","LI":"仁里里","LIN":"3鄰","STREET":"仁美街","SECT":" ","MAREA":" ","LANE":" ","ALLEY":" ","HOUSE_NO":"７號","E_COORD97":174276.38,"N_COORD97":2570267.5699999998,"ADDRESS":"仁美街７號","OBJECTID":606485},"geometry":{"x":174276.38000000082,"y":2570267.5700000003}},{"attributes":{"ID":606513,"DIS_CODE":0,"TOWNNAME":"下營區","LI":"仁里里","LIN":"3鄰","STREET":"仁美街","SECT":" ","MAREA":" ","LANE":" ","ALLEY":" ","HOUSE_NO":"９號","E_COORD97":174271.26000000001,"N_COORD97":2570269.7799999998,"ADDRESS":"仁美街９號","OBJECTID":606486},"geometry":{"x":174271.25999999978,"y":2570269.7799999975}},{"attributes":{"ID":606514,"DIS_CODE":0,"TOWNNAME":"下營區","LI":"宅內里","LIN":"3鄰","STREET":"友愛街","SECT":" ","MAREA":" ","LANE":" ","ALLEY":" ","HOUSE_NO":"１１５號","E_COORD97":174173.54000000001,"N_COORD97":2570630.7999999998,"ADDRESS":"友愛街１１５號","OBJECTID":606487},"geometry":{"x":174173.54000000097,"y":2570630.8000000045}},{"attributes":{"ID":606515,"DIS_CODE":0,"TOWNNAME":"下營區","LI":"宅內里","LIN":"3鄰","STREET":"友愛街","SECT":" ","MAREA":" ","LANE":" ","ALLEY":" ","HOUSE_NO":"１１７號","E_COORD97":174168.10000000001,"N_COORD97":2570645.4399999999,"ADDRESS":"友愛街１１７號","OBJECTID":606488},"geometry":{"x":174168.10000000056,"y":2570645.4400000032}},{"attributes":{"ID":606516,"DIS_CODE":0,"TOWNNAME":"下營區","LI":"宅內里","LIN":"3鄰","STREET":"友愛街","SECT":" ","MAREA":" ","LANE":" ","ALLEY":" ","HOUSE_NO":"１３３號之１","E_COORD97":174172.97,"N_COORD97":2570679.96,"ADDRESS":"友愛街１３３號之１","OBJECTID":606489},"geometry":{"x":174172.96999999974,"y":2570679.9600000009}},{"attributes":{"ID":606517,"DIS_CODE":0,"TOWNNAME":"下營區","LI":"宅內里","LIN":"3鄰","STREET":"友愛街","SECT":" ","MAREA":" ","LANE":" ","ALLEY":" ","HOUSE_NO":"１３３號","E_COORD97":174177.47,"N_COORD97":2570672.9399999999,"ADDRESS":"友愛街１３３號","OBJECTID":606490},"geometry":{"x":174177.47000000067,"y":2570672.9400000013}},{"attributes":{"ID":606518,"DIS_CODE":0,"TOWNNAME":"下營區","LI":"宅內里","LIN":"3鄰","STREET":"友愛街","SECT":" ","MAREA":" ","LANE":" ","ALLEY":" ","HOUSE_NO":"１３９號","E_COORD97":174176.14999999999,"N_COORD97":2570688.6499999999,"ADDRESS":"友愛街１３９號","OBJECTID":606491},"geometry":{"x":174176.15000000037,"y":2570688.6500000004}},{"attributes":{"ID":606519,"DIS_CODE":0,"TOWNNAME":"下營區","LI":"後街里","LIN":"3鄰","STREET":"水池街","SECT":" ","MAREA":" ","LANE":" ","ALLEY":" ","HOUSE_NO":"１２號","E_COORD97":174522.89000000001,"N_COORD97":2570929.5899999999,"ADDRESS":"水池街１２號","OBJECTID":606492},"geometry":{"x":174522.88999999966,"y":2570929.5900000036}},{"attributes":{"ID":606520,"DIS_CODE":0,"TOWNNAME":"下營區","LI":"後街里","LIN":"3鄰","STREET":"水池街","SECT":" ","MAREA":" ","LANE":" ","ALLEY":" ","HOUSE_NO":"１號","E_COORD97":174467.17999999999,"N_COORD97":2570915.96,"ADDRESS":"水池街１號","OBJECTID":606493},"geometry":{"x":174467.18000000063,"y":2570915.9600000028}},{"attributes":{"ID":606521,"DIS_CODE":0,"TOWNNAME":"下營區","LI":"後街里","LIN":"3鄰","STREET":"水池街","SECT":" ","MAREA":" ","LANE":" ","ALLEY":" ","HOUSE_NO":"２２號","E_COORD97":174499.41,"N_COORD97":2570930.6699999999,"ADDRESS":"水池街２２號","OBJECTID":606494},"geometry":{"x":174499.41000000015,"y":2570930.6700000018}},{"attributes":{"ID":606522,"DIS_CODE":0,"TOWNNAME":"下營區","LI":"後街里","LIN":"3鄰","STREET":"水池街","SECT":" ","MAREA":" ","LANE":" ","ALLEY":" ","HOUSE_NO":"２號","E_COORD97":174490.45000000001,"N_COORD97":2570911.71,"ADDRESS":"水池街２號","OBJECTID":606495},"geometry":{"x":174490.45000000019,"y":2570911.7100000009}},{"attributes":{"ID":606523,"DIS_CODE":0,"TOWNNAME":"下營區","LI":"後街里","LIN":"3鄰","STREET":"水池街","SECT":" ","MAREA":" ","LANE":" ","ALLEY":" ","HOUSE_NO":"３０號","E_COORD97":174531.04999999999,"N_COORD97":2570952.23,"ADDRESS":"水池街３０號","OBJECTID":606496},"geometry":{"x":174531.05000000075,"y":2570952.2300000004}},{"attributes":{"ID":606524,"DIS_CODE":0,"TOWNNAME":"下營區","LI":"後街里","LIN":"3鄰","STREET":"水池街","SECT":" ","MAREA":" ","LANE":" ","ALLEY":" ","HOUSE_NO":"４２號","E_COORD97":174499.26999999999,"N_COORD97":2570955.1899999999,"ADDRESS":"水池街４２號","OBJECTID":606497},"geometry":{"x":174499.27000000048,"y":2570955.1899999995}},{"attributes":{"ID":606525,"DIS_CODE":0,"TOWNNAME":"下營區","LI":"後街里","LIN":"3鄰","STREET":"水池街","SECT":" ","MAREA":" ","LANE":" ","ALLEY":" ","HOUSE_NO":"５號","E_COORD97":174453.32999999999,"N_COORD97":2570909.1000000001,"ADDRESS":"水池街５號","OBJECTID":606498},"geometry":{"x":174453.33000000101,"y":2570909.1000000034}},{"attributes":{"ID":606526,"DIS_CODE":0,"TOWNNAME":"下營區","LI":"後街里","LIN":"3鄰","STREET":"水池街","SECT":" ","MAREA":" ","LANE":" ","ALLEY":" ","HOUSE_NO":"９號","E_COORD97":174453.76000000001,"N_COORD97":2570951.6099999999,"ADDRESS":"水池街９號","OBJECTID":606499},"geometry":{"x":174453.76000000071,"y":2570951.6099999994}},{"attributes":{"ID":606527,"DIS_CODE":0,"TOWNNAME":"下營區","LI":"宅內里","LIN":"3鄰","STREET":"永安街","SECT":" ","MAREA":" ","LANE":" ","ALLEY":" ","HOUSE_NO":"９３號","E_COORD97":174094.60999999999,"N_COORD97":2570632.1400000001,"ADDRESS":"永安街９３號","OBJECTID":606500},"geometry":{"x":174094.61000000034,"y":2570632.1400000025}},{"attributes":{"ID":606528,"DIS_CODE":0,"TOWNNAME":"下營區","LI":"宅內里","LIN":"3鄰","STREET":"永安街","SECT":" ","MAREA":" ","LANE":" ","ALLEY":" ","HOUSE_NO":"９５號","E_COORD97":174094.73999999999,"N_COORD97":2570636.3700000001,"ADDRESS":"永安街９５號","OBJECTID":606501},"geometry":{"x":174094.74000000115,"y":2570636.370000001}},{"attributes":{"ID":606529,"DIS_CODE":0,"TOWNNAME":"下營區","LI":"宅內里","LIN":"3鄰","STREET":"永安街","SECT":" ","MAREA":" ","LANE":" ","ALLEY":" ","HOUSE_NO":"９７號","E_COORD97":174094.95000000001,"N_COORD97":2570641.5099999998,"ADDRESS":"永安街９７號","OBJECTID":606502},"geometry":{"x":174094.95000000112,"y":2570641.5099999998}},{"attributes":{"ID":606530,"DIS_CODE":0,"TOWNNAME":"下營區","LI":"宅內里","LIN":"3鄰","STREET":"永安街","SECT":" ","MAREA":" ","LANE":" ","ALLEY":" ","HOUSE_NO":"９９號","E_COORD97":174093.48999999999,"N_COORD97":2570658.21,"ADDRESS":"永安街９９號","OBJECTID":606503},"geometry":{"x":174093.49000000022,"y":2570658.2100000009}},{"attributes":{"ID":606531,"DIS_CODE":0,"TOWNNAME":"下營區","LI":"營前里","LIN":"3鄰","STREET":"民權一街","SECT":" ","MAREA":" ","LANE":" ","ALLEY":" ","HOUSE_NO":"２０號","E_COORD97":174549.23999999999,"N_COORD97":2570365.8700000001,"ADDRESS":"民權一街２０號","OBJECTID":606504},"geometry":{"x":174549.24000000115,"y":2570365.8699999992}},{"attributes":{"ID":606532,"DIS_CODE":0,"TOWNNAME":"下營區","LI":"宅內里","LIN":"3鄰","STREET":"永安街","SECT":" ","MAREA":" ","LANE":" ","ALLEY":" ","HOUSE_NO":"１４２之１號","E_COORD97":174122.09,"N_COORD97":2570669.3399999999,"ADDRESS":"永安街１４２之１號","OBJECTID":606505},"geometry":{"x":174122.09000000171,"y":2570669.3399999999}},{"attributes":{"ID":606533,"DIS_CODE":0,"TOWNNAME":"下營區","LI":"宅內里","LIN":"3鄰","STREET":"永安街","SECT":" ","MAREA":" ","LANE":" ","ALLEY":" ","HOUSE_NO":"１４２號","E_COORD97":174121.76000000001,"N_COORD97":2570665.5299999998,"ADDRESS":"永安街１４２號","OBJECTID":606506},"geometry":{"x":174121.75999999978,"y":2570665.5300000012}},{"attributes":{"ID":606534,"DIS_CODE":0,"TOWNNAME":"下營區","LI":"宅內里","LIN":"3鄰","STREET":"永安街","SECT":" ","MAREA":" ","LANE":" ","ALLEY":" ","HOUSE_NO":"１４６號","E_COORD97":174122.39999999999,"N_COORD97":2570690.0800000001,"ADDRESS":"永安街１４６號","OBJECTID":606507},"geometry":{"x":174122.4000000013,"y":2570690.0800000019}},{"attributes":{"ID":606535,"DIS_CODE":0,"TOWNNAME":"下營區","LI":"新興里","LIN":"3鄰","STREET":"東興一街","SECT":" ","MAREA":" ","LANE":" ","ALLEY":" ","HOUSE_NO":"１０９號","E_COORD97":174868.56,"N_COORD97":2570864.4100000001,"ADDRESS":"東興一街１０９號","OBJECTID":606508},"geometry":{"x":174868.56000000052,"y":2570864.410000002}},{"attributes":{"ID":606536,"DIS_CODE":0,"TOWNNAME":"下營區","LI":"新興里","LIN":"3鄰","STREET":"東興一街","SECT":" ","MAREA":" ","LANE":" ","ALLEY":" ","HOUSE_NO":"１２３號","E_COORD97":174843.14000000001,"N_COORD97":2570852.5899999999,"ADDRESS":"東興一街１２３號","OBJECTID":606509},"geometry":{"x":174843.13999999966,"y":2570852.5900000017}},{"attributes":{"ID":606537,"DIS_CODE":0,"TOWNNAME":"下營區","LI":"新興里","LIN":"3鄰","STREET":"東興一街","SECT":" ","MAREA":" ","LANE":" ","ALLEY":" ","HOUSE_NO":"６３號","E_COORD97":174976.14000000001,"N_COORD97":2570883.9100000001,"ADDRESS":"東興一街６３號","OBJECTID":606510},"geometry":{"x":174976.1400000006,"y":2570883.910000002}},{"attributes":{"ID":606538,"DIS_CODE":0,"TOWNNAME":"下營區","LI":"新興里","LIN":"3鄰","STREET":"東興一街","SECT":" ","MAREA":" ","LANE":" ","ALLEY":" ","HOUSE_NO":"７７號","E_COORD97":174934.12,"N_COORD97":2570878.1899999999,"ADDRESS":"東興一街７７號","OBJECTID":606511},"geometry":{"x":174934.12000000197,"y":2570878.1900000013}},{"attributes":{"ID":606539,"DIS_CODE":0,"TOWNNAME":"下營區","LI":"新興里","LIN":"3鄰","STREET":"東興一街","SECT":" ","MAREA":" ","LANE":" ","ALLEY":" ","HOUSE_NO":"８９號","E_COORD97":174912.56,"N_COORD97":2570875.3300000001,"ADDRESS":"東興一街８９號","OBJECTID":606512},"geometry":{"x":174912.56000000052,"y":2570875.3300000019}},{"attributes":{"ID":606540,"DIS_CODE":0,"TOWNNAME":"下營區","LI":"新興里","LIN":"3鄰","STREET":"東興一街","SECT":" ","MAREA":" ","LANE":" ","ALLEY":" ","HOUSE_NO":"９３號","E_COORD97":174898.98000000001,"N_COORD97":2570870.3599999999,"ADDRESS":"東興一街９３號","OBJECTID":606513},"geometry":{"x":174898.98000000045,"y":2570870.3600000013}},{"attributes":{"ID":606541,"DIS_CODE":0,"TOWNNAME":"下營區","LI":"新興里","LIN":"3鄰","STREET":"東興一街","SECT":" ","MAREA":" ","LANE":" ","ALLEY":" ","HOUSE_NO":"９５號","E_COORD97":174894.23999999999,"N_COORD97":2570869.0699999998,"ADDRESS":"東興一街９５號","OBJECTID":606514},"geometry":{"x":174894.23999999929,"y":2570869.070000004}},{"attributes":{"ID":606542,"DIS_CODE":0,"TOWNNAME":"下營區","LI":"新興里","LIN":"3鄰","STREET":"東興一街","SECT":" ","MAREA":" ","LANE":" ","ALLEY":" ","HOUSE_NO":"９７號","E_COORD97":174889.73999999999,"N_COORD97":2570868,"ADDRESS":"東興一街９７號","OBJECTID":606515},"geometry":{"x":174889.74000000115,"y":2570868}},{"attributes":{"ID":606543,"DIS_CODE":0,"TOWNNAME":"下營區","LI":"後街里","LIN":"3鄰","STREET":"東興二街","SECT":" ","MAREA":" ","LANE":" ","ALLEY":" ","HOUSE_NO":"１０８號","E_COORD97":174561.66,"N_COORD97":2570889.6499999999,"ADDRESS":"東興二街１０８號","OBJECTID":606516},"geometry":{"x":174561.66000000108,"y":2570889.6500000022}},{"attributes":{"ID":606544,"DIS_CODE":0,"TOWNNAME":"下營區","LI":"後街里","LIN":"3鄰","STREET":"東興二街","SECT":" ","MAREA":" ","LANE":" ","ALLEY":" ","HOUSE_NO":"１２０號","E_COORD97":174537.85000000001,"N_COORD97":2570892.1000000001,"ADDRESS":"東興二街１２０號","OBJECTID":606517},"geometry":{"x":174537.84999999963,"y":2570892.1000000034}},{"attributes":{"ID":606545,"DIS_CODE":0,"TOWNNAME":"下營區","LI":"後街里","LIN":"3鄰","STREET":"東興二街","SECT":" ","MAREA":" ","LANE":" ","ALLEY":" ","HOUSE_NO":"１２２號","E_COORD97":174536.95999999999,"N_COORD97":2570919.6699999999,"ADDRESS":"東興二街１２２號","OBJECTID":606518},"geometry":{"x":174536.96000000089,"y":2570919.6700000018}},{"attributes":{"ID":606546,"DIS_CODE":0,"TOWNNAME":"下營區","LI":"後街里","LIN":"3鄰","STREET":"東興二街","SECT":" ","MAREA":" ","LANE":" ","ALLEY":" ","HOUSE_NO":"１３６號","E_COORD97":174519.70000000001,"N_COORD97":2570897.1499999999,"ADDRESS":"東興二街１３６號","OBJECTID":606519},"geometry":{"x":174519.70000000019,"y":2570897.1500000022}},{"attributes":{"ID":606547,"DIS_CODE":0,"TOWNNAME":"下營區","LI":"後街里","LIN":"3鄰","STREET":"東興二街","SECT":" ","MAREA":" ","LANE":" ","ALLEY":" ","HOUSE_NO":"１３８號","E_COORD97":174513.23000000001,"N_COORD97":2570915.71,"ADDRESS":"東興二街１３８號","OBJECTID":606520},"geometry":{"x":174513.23000000231,"y":2570915.7100000009}},{"attributes":{"ID":606548,"DIS_CODE":0,"TOWNNAME":"下營區","LI":"後街里","LIN":"3鄰","STREET":"東興二街","SECT":" ","MAREA":" ","LANE":" ","ALLEY":" ","HOUSE_NO":"１４６號","E_COORD97":174484.26999999999,"N_COORD97":2570894.5899999999,"ADDRESS":"東興二街１４６號","OBJECTID":606521},"geometry":{"x":174484.26999999955,"y":2570894.5899999999}},{"attributes":{"ID":606549,"DIS_CODE":0,"TOWNNAME":"下營區","LI":"後街里","LIN":"3鄰","STREET":"東興二街","SECT":" ","MAREA":" ","LANE":" ","ALLEY":" ","HOUSE_NO":"１４８號","E_COORD97":174477.04000000001,"N_COORD97":2570894.6099999999,"ADDRESS":"東興二街１４８號","OBJECTID":606522},"geometry":{"x":174477.04000000097,"y":2570894.6099999994}},{"attributes":{"ID":606550,"DIS_CODE":0,"TOWNNAME":"永康區","LI":"新樹里","LIN":"3鄰","STREET":"富強路","SECT":"二段","MAREA":" ","LANE":" ","ALLEY":" ","HOUSE_NO":"３４６號","E_COORD97":175591.14000000001,"N_COORD97":2547578.6699999999,"ADDRESS":"富強路二段３４６號","OBJECTID":606523},"geometry":{"x":175591.14000000153,"y":2547578.6699999999}},{"attributes":{"ID":606551,"DIS_CODE":0,"TOWNNAME":"永康區","LI":"新樹里","LIN":"3鄰","STREET":"富強路","SECT":"二段","MAREA":" ","LANE":" ","ALLEY":" ","HOUSE_NO":"３７２號","E_COORD97":175584.26000000001,"N_COORD97":2547650,"ADDRESS":"富強路二段３７２號","OBJECTID":606524},"geometry":{"x":175584.26000000071,"y":2547650.0000000019}},{"attributes":{"ID":606552,"DIS_CODE":0,"TOWNNAME":"永康區","LI":"東灣里","LIN":"3鄰","STREET":"大安街","SECT":" ","MAREA":" ","LANE":" ","ALLEY":" ","HOUSE_NO":"１２２號","E_COORD97":174556.89999999999,"N_COORD97":2545073.8999999999,"ADDRESS":"大安街１２２號","OBJECTID":606525},"geometry":{"x":174556.9000000013,"y":2545073.9000000022}},{"attributes":{"ID":606553,"DIS_CODE":0,"TOWNNAME":"永康區","LI":"蔦松里","LIN":"3鄰","STREET":"蔦松一街","SECT":" ","MAREA":" ","LANE":" ","ALLEY":" ","HOUSE_NO":"３３號","E_COORD97":173962.66,"N_COORD97":2549390.4900000002,"ADDRESS":"蔦松一街３３號","OBJECTID":606526},"geometry":{"x":173962.66000000108,"y":2549390.4900000002}},{"attributes":{"ID":606554,"DIS_CODE":0,"TOWNNAME":"永康區","LI":"東灣里","LIN":"3鄰","STREET":"大安街","SECT":" ","MAREA":" ","LANE":" ","ALLEY":" ","HOUSE_NO":"１１２號","E_COORD97":174550.17000000001,"N_COORD97":2545053.3900000001,"ADDRESS":"大安街１１２號","OBJECTID":606527},"geometry":{"x":174550.16999999993,"y":2545053.3900000025}},{"attributes":{"ID":606555,"DIS_CODE":0,"TOWNNAME":"永康區","LI":"蔦松里","LIN":"3鄰","STREET":"蔦松一街","SECT":" ","MAREA":" ","LANE":" ","ALLEY":" ","HOUSE_NO":"１７號","E_COORD97":174018.10000000001,"N_COORD97":2549350.1200000001,"ADDRESS":"蔦松一街１７號","OBJECTID":606528},"geometry":{"x":174018.09999999963,"y":2549350.120000001}},{"attributes":{"ID":606556,"DIS_CODE":0,"TOWNNAME":"永康區","LI":"蔦松里","LIN":"3鄰","STREET":"蔦松一街","SECT":" ","MAREA":" ","LANE":" ","ALLEY":" ","HOUSE_NO":"３號","E_COORD97":174043.19,"N_COORD97":2549333,"ADDRESS":"蔦松一街３號","OBJECTID":606529},"geometry":{"x":174043.19000000041,"y":2549333}},{"attributes":{"ID":606557,"DIS_CODE":0,"TOWNNAME":"東區","LI":"崇信里","LIN":"3鄰","STREET":"崇學路","SECT":" ","MAREA":" ","LANE":" ","ALLEY":" ","HOUSE_NO":"２３２號","E_COORD97":170665.42999999999,"N_COORD97":2542585.54,"ADDRESS":"崇學路２３２號","OBJECTID":606530},"geometry":{"x":170665.43000000063,"y":2542585.5400000028}},{"attributes":{"ID":606558,"DIS_CODE":0,"TOWNNAME":"東區","LI":"崇信里","LIN":"3鄰","STREET":"崇學路","SECT":" ","MAREA":" ","LANE":" ","ALLEY":" ","HOUSE_NO":"２３４號","E_COORD97":170670.48999999999,"N_COORD97":2542590.9700000002,"ADDRESS":"崇學路２３４號","OBJECTID":606531},"geometry":{"x":170670.49000000115,"y":2542590.9700000044}},{"attributes":{"ID":606559,"DIS_CODE":0,"TOWNNAME":"白河區","LI":"白河里","LIN":"3鄰","STREET":"國泰路","SECT":" ","MAREA":" ","LANE":" ","ALLEY":" ","HOUSE_NO":"１號","E_COORD97":190273.35000000001,"N_COORD97":2582799.3100000001,"ADDRESS":"國泰路１號","OBJECTID":606532},"geometry":{"x":190273.3499999987,"y":2582799.3100000024}},{"attributes":{"ID":606560,"DIS_CODE":0,"TOWNNAME":"白河區","LI":"白河里","LIN":"3鄰","STREET":"康樂路","SECT":" ","MAREA":" ","LANE":" ","ALLEY":" ","HOUSE_NO":"１之１００號","E_COORD97":190264.29999999999,"N_COORD97":2582744.1800000002,"ADDRESS":"康樂路１之１００號","OBJECTID":606533},"geometry":{"x":190264.30000000075,"y":2582744.1800000034}},{"attributes":{"ID":606561,"DIS_CODE":0,"TOWNNAME":"白河區","LI":"白河里","LIN":"3鄰","STREET":"康樂路","SECT":" ","MAREA":" ","LANE":" ","ALLEY":" ","HOUSE_NO":"１之１０２號","E_COORD97":190263.35999999999,"N_COORD97":2582736.3799999999,"ADDRESS":"康樂路１之１０２號","OBJECTID":606534},"geometry":{"x":190263.36000000034,"y":2582736.3800000008}},{"attributes":{"ID":606562,"DIS_CODE":0,"TOWNNAME":"白河區","LI":"白河里","LIN":"3鄰","STREET":"康樂路","SECT":" ","MAREA":" ","LANE":" ","ALLEY":" ","HOUSE_NO":"１之１０３號","E_COORD97":190262.97,"N_COORD97":2582732.1800000002,"ADDRESS":"康樂路１之１０３號","OBJECTID":606535},"geometry":{"x":190262.97000000067,"y":2582732.1800000016}},{"attributes":{"ID":606563,"DIS_CODE":0,"TOWNNAME":"白河區","LI":"白河里","LIN":"3鄰","STREET":"康樂路","SECT":" ","MAREA":" ","LANE":" ","ALLEY":" ","HOUSE_NO":"１之１０４號","E_COORD97":190262.81,"N_COORD97":2582728.2799999998,"ADDRESS":"康樂路１之１０４號","OBJECTID":606536},"geometry":{"x":190262.80999999959,"y":2582728.2799999993}},{"attributes":{"ID":606564,"DIS_CODE":0,"TOWNNAME":"白河區","LI":"白河里","LIN":"3鄰","STREET":"康樂路","SECT":" ","MAREA":" ","LANE":" ","ALLEY":" ","HOUSE_NO":"１之１０５號","E_COORD97":190262.67000000001,"N_COORD97":2582724.1000000001,"ADDRESS":"康樂路１之１０５號","OBJECTID":606537},"geometry":{"x":190262.66999999993,"y":2582724.0999999978}},{"attributes":{"ID":606565,"DIS_CODE":0,"TOWNNAME":"白河區","LI":"白河里","LIN":"3鄰","STREET":"康樂路","SECT":" ","MAREA":" ","LANE":" ","ALLEY":" ","HOUSE_NO":"１之１２０號","E_COORD97":190278.35000000001,"N_COORD97":2582691.9700000002,"ADDRESS":"康樂路１之１２０號","OBJECTID":606538},"geometry":{"x":190278.34999999963,"y":2582691.9700000007}},{"attributes":{"ID":606566,"DIS_CODE":0,"TOWNNAME":"白河區","LI":"白河里","LIN":"3鄰","STREET":"康樂路","SECT":" ","MAREA":" ","LANE":" ","ALLEY":" ","HOUSE_NO":"１之１４號","E_COORD97":190226.81,"N_COORD97":2582679.1600000001,"ADDRESS":"康樂路１之１４號","OBJECTID":606539},"geometry":{"x":190226.81000000052,"y":2582679.1600000001}},{"attributes":{"ID":606567,"DIS_CODE":0,"TOWNNAME":"白河區","LI":"白河里","LIN":"3鄰","STREET":"康樂路","SECT":" ","MAREA":" ","LANE":" ","ALLEY":" ","HOUSE_NO":"１之１５號","E_COORD97":190218.38,"N_COORD97":2582675.5800000001,"ADDRESS":"康樂路１之１５號","OBJECTID":606540},"geometry":{"x":190218.38000000082,"y":2582675.5800000019}},{"attributes":{"ID":606568,"DIS_CODE":0,"TOWNNAME":"白河區","LI":"白河里","LIN":"3鄰","STREET":"康樂路","SECT":" ","MAREA":" ","LANE":" ","ALLEY":" ","HOUSE_NO":"１之１６號","E_COORD97":190210.32999999999,"N_COORD97":2582676.9399999999,"ADDRESS":"康樂路１之１６號","OBJECTID":606541},"geometry":{"x":190210.33000000101,"y":2582676.9399999995}},{"attributes":{"ID":606569,"DIS_CODE":0,"TOWNNAME":"白河區","LI":"白河里","LIN":"3鄰","STREET":"康樂路","SECT":" ","MAREA":" ","LANE":" ","ALLEY":" ","HOUSE_NO":"１之１７號","E_COORD97":190201.82999999999,"N_COORD97":2582676.8500000001,"ADDRESS":"康樂路１之１７號","OBJECTID":606542},"geometry":{"x":190201.83000000101,"y":2582676.8500000015}},{"attributes":{"ID":606570,"DIS_CODE":0,"TOWNNAME":"白河區","LI":"白河里","LIN":"3鄰","STREET":"康樂路","SECT":" ","MAREA":" ","LANE":" ","ALLEY":" ","HOUSE_NO":"１之１８號","E_COORD97":190195.44,"N_COORD97":2582672.27,"ADDRESS":"康樂路１之１８號","OBJECTID":606543},"geometry":{"x":190195.44000000041,"y":2582672.2700000033}},{"attributes":{"ID":606571,"DIS_CODE":0,"TOWNNAME":"白河區","LI":"白河里","LIN":"3鄰","STREET":"康樂路","SECT":" ","MAREA":" ","LANE":" ","ALLEY":" ","HOUSE_NO":"１之１９號","E_COORD97":190216.23999999999,"N_COORD97":2582650.6000000001,"ADDRESS":"康樂路１之１９號","OBJECTID":606544},"geometry":{"x":190216.24000000115,"y":2582650.6000000015}},{"attributes":{"ID":606572,"DIS_CODE":0,"TOWNNAME":"白河區","LI":"白河里","LIN":"3鄰","STREET":"康樂路","SECT":" ","MAREA":" ","LANE":" ","ALLEY":" ","HOUSE_NO":"１之２０號","E_COORD97":190207.01000000001,"N_COORD97":2582652.0600000001,"ADDRESS":"康樂路１之２０號","OBJECTID":606545},"geometry":{"x":190207.01000000071,"y":2582652.0600000024}},{"attributes":{"ID":606573,"DIS_CODE":0,"TOWNNAME":"白河區","LI":"白河里","LIN":"3鄰","STREET":"康樂路","SECT":" ","MAREA":" ","LANE":" ","ALLEY":" ","HOUSE_NO":"１之２１號","E_COORD97":190197.45000000001,"N_COORD97":2582653.1099999999,"ADDRESS":"康樂路１之２１號","OBJECTID":606546},"geometry":{"x":190197.45000000112,"y":2582653.1100000031}},{"attributes":{"ID":606574,"DIS_CODE":0,"TOWNNAME":"白河區","LI":"白河里","LIN":"3鄰","STREET":"康樂路","SECT":" ","MAREA":" ","LANE":" ","ALLEY":" ","HOUSE_NO":"１之２９號","E_COORD97":190241.35000000001,"N_COORD97":2582648.3500000001,"ADDRESS":"康樂路１之２９號","OBJECTID":606547},"geometry":{"x":190241.35000000149,"y":2582648.3500000015}},{"attributes":{"ID":606575,"DIS_CODE":0,"TOWNNAME":"白河區","LI":"白河里","LIN":"3鄰","STREET":"康樂路","SECT":" ","MAREA":" ","LANE":" ","ALLEY":" ","HOUSE_NO":"１之３１號","E_COORD97":190241.22,"N_COORD97":2582639.3900000001,"ADDRESS":"康樂路１之３１號","OBJECTID":606548},"geometry":{"x":190241.22000000067,"y":2582639.3900000025}},{"attributes":{"ID":606576,"DIS_CODE":0,"TOWNNAME":"白河區","LI":"白河里","LIN":"3鄰","STREET":"康樂路","SECT":" ","MAREA":" ","LANE":" ","ALLEY":" ","HOUSE_NO":"１之３２號","E_COORD97":190241.07999999999,"N_COORD97":2582634.9399999999,"ADDRESS":"康樂路１之３２號","OBJECTID":606549},"geometry":{"x":190241.08000000007,"y":2582634.9400000013}},{"attributes":{"ID":606577,"DIS_CODE":0,"TOWNNAME":"白河區","LI":"白河里","LIN":"3鄰","STREET":"康樂路","SECT":" ","MAREA":" ","LANE":" ","ALLEY":" ","HOUSE_NO":"１之３３號","E_COORD97":190259.56,"N_COORD97":2582647.6499999999,"ADDRESS":"康樂路１之３３號","OBJECTID":606550},"geometry":{"x":190259.55999999959,"y":2582647.6500000022}},{"attributes":{"ID":606578,"DIS_CODE":0,"TOWNNAME":"白河區","LI":"白河里","LIN":"3鄰","STREET":"康樂路","SECT":" ","MAREA":" ","LANE":" ","ALLEY":" ","HOUSE_NO":"１之３４號","E_COORD97":190259.53,"N_COORD97":2582643.4500000002,"ADDRESS":"康樂路１之３４號","OBJECTID":606551},"geometry":{"x":190259.53000000119,"y":2582643.4499999974}},{"attributes":{"ID":606579,"DIS_CODE":0,"TOWNNAME":"白河區","LI":"白河里","LIN":"3鄰","STREET":"康樂路","SECT":" ","MAREA":" ","LANE":" ","ALLEY":" ","HOUSE_NO":"１之３５號","E_COORD97":190259.26000000001,"N_COORD97":2582638.6000000001,"ADDRESS":"康樂路１之３５號","OBJECTID":606552},"geometry":{"x":190259.26000000071,"y":2582638.5999999996}},{"attributes":{"ID":606580,"DIS_CODE":0,"TOWNNAME":"白河區","LI":"白河里","LIN":"3鄰","STREET":"康樂路","SECT":" ","MAREA":" ","LANE":" ","ALLEY":" ","HOUSE_NO":"１之３６號","E_COORD97":190259.16,"N_COORD97":2582634.6600000001,"ADDRESS":"康樂路１之３６號","OBJECTID":606553},"geometry":{"x":190259.16000000108,"y":2582634.6600000001}},{"attributes":{"ID":606581,"DIS_CODE":0,"TOWNNAME":"白河區","LI":"白河里","LIN":"3鄰","STREET":"康樂路","SECT":" ","MAREA":" ","LANE":" ","ALLEY":" ","HOUSE_NO":"１之３９號","E_COORD97":190248.57999999999,"N_COORD97":2582615.4399999999,"ADDRESS":"康樂路１之３９號","OBJECTID":606554},"geometry":{"x":190248.58000000194,"y":2582615.4399999995}},{"attributes":{"ID":606582,"DIS_CODE":0,"TOWNNAME":"白河區","LI":"白河里","LIN":"3鄰","STREET":"康樂路","SECT":" ","MAREA":" ","LANE":" ","ALLEY":" ","HOUSE_NO":"１之４０號","E_COORD97":190265.66,"N_COORD97":2582611.9300000002,"ADDRESS":"康樂路１之４０號","OBJECTID":606555},"geometry":{"x":190265.66000000108,"y":2582611.9300000016}},{"attributes":{"ID":606583,"DIS_CODE":0,"TOWNNAME":"白河區","LI":"白河里","LIN":"3鄰","STREET":"康樂路","SECT":" ","MAREA":" ","LANE":" ","ALLEY":" ","HOUSE_NO":"１之４１號","E_COORD97":190293.29999999999,"N_COORD97":2582624.3199999998,"ADDRESS":"康樂路１之４１號","OBJECTID":606556},"geometry":{"x":190293.30000000075,"y":2582624.3200000003}},{"attributes":{"ID":606584,"DIS_CODE":0,"TOWNNAME":"白河區","LI":"白河里","LIN":"3鄰","STREET":"康樂路","SECT":" ","MAREA":" ","LANE":" ","ALLEY":" ","HOUSE_NO":"１之４５號","E_COORD97":190233.09,"N_COORD97":2582614.4900000002,"ADDRESS":"康樂路１之４５號","OBJECTID":606557},"geometry":{"x":190233.09000000171,"y":2582614.4900000021}},{"attributes":{"ID":606585,"DIS_CODE":0,"TOWNNAME":"白河區","LI":"白河里","LIN":"3鄰","STREET":"康樂路","SECT":" ","MAREA":" ","LANE":" ","ALLEY":" ","HOUSE_NO":"１之６０號","E_COORD97":190187.38,"N_COORD97":2582675.6600000001,"ADDRESS":"康樂路１之６０號","OBJECTID":606558},"geometry":{"x":190187.38000000082,"y":2582675.6600000001}},{"attributes":{"ID":606586,"DIS_CODE":0,"TOWNNAME":"白河區","LI":"白河里","LIN":"3鄰","STREET":"康樂路","SECT":" ","MAREA":" ","LANE":" ","ALLEY":" ","HOUSE_NO":"１之６５號","E_COORD97":190279.48000000001,"N_COORD97":2582795.1099999999,"ADDRESS":"康樂路１之６５號","OBJECTID":606559},"geometry":{"x":190279.48000000045,"y":2582795.1100000031}},{"attributes":{"ID":606587,"DIS_CODE":0,"TOWNNAME":"白河區","LI":"白河里","LIN":"3鄰","STREET":"康樂路","SECT":" ","MAREA":" ","LANE":" ","ALLEY":" ","HOUSE_NO":"１之６７號","E_COORD97":190284.04000000001,"N_COORD97":2582792.0699999998,"ADDRESS":"康樂路１之６７號","OBJECTID":606560},"geometry":{"x":190284.04000000004,"y":2582792.0700000003}},{"attributes":{"ID":606588,"DIS_CODE":0,"TOWNNAME":"新營區","LI":"新南里","LIN":"3鄰","STREET":"新北街","SECT":" ","MAREA":" ","LANE":" ","ALLEY":" ","HOUSE_NO":"７號","E_COORD97":178884.03,"N_COORD97":2578641.1499999999,"ADDRESS":"新北街７號","OBJECTID":606561},"geometry":{"x":178884.03000000026,"y":2578641.1500000004}},{"attributes":{"ID":606589,"DIS_CODE":0,"TOWNNAME":"白河區","LI":"白河里","LIN":"3鄰","STREET":"康樂路","SECT":" ","MAREA":" ","LANE":" ","ALLEY":" ","HOUSE_NO":"１之６９號","E_COORD97":190284.76000000001,"N_COORD97":2582787.2799999998,"ADDRESS":"康樂路１之６９號","OBJECTID":606562},"geometry":{"x":190284.76000000071,"y":2582787.2800000031}},{"attributes":{"ID":606590,"DIS_CODE":0,"TOWNNAME":"白河區","LI":"白河里","LIN":"3鄰","STREET":"康樂路","SECT":" ","MAREA":" ","LANE":" ","ALLEY":" ","HOUSE_NO":"１之６號","E_COORD97":190270.23000000001,"N_COORD97":2582716.0899999999,"ADDRESS":"康樂路１之６號","OBJECTID":606563},"geometry":{"x":190270.23000000138,"y":2582716.0900000017}},{"attributes":{"ID":606591,"DIS_CODE":0,"TOWNNAME":"白河區","LI":"白河里","LIN":"3鄰","STREET":"康樂路","SECT":" ","MAREA":" ","LANE":" ","ALLEY":" ","HOUSE_NO":"１之７１號","E_COORD97":190287.09,"N_COORD97":2582783.8599999999,"ADDRESS":"康樂路１之７１號","OBJECTID":606564},"geometry":{"x":190287.08999999985,"y":2582783.8600000013}},{"attributes":{"ID":606592,"DIS_CODE":0,"TOWNNAME":"白河區","LI":"白河里","LIN":"3鄰","STREET":"康樂路","SECT":" ","MAREA":" ","LANE":" ","ALLEY":" ","HOUSE_NO":"１之７５號","E_COORD97":190292.32000000001,"N_COORD97":2582776.0899999999,"ADDRESS":"康樂路１之７５號","OBJECTID":606565},"geometry":{"x":190292.3200000003,"y":2582776.0900000017}},{"attributes":{"ID":606593,"DIS_CODE":0,"TOWNNAME":"白河區","LI":"白河里","LIN":"3鄰","STREET":"康樂路","SECT":" ","MAREA":" ","LANE":" ","ALLEY":" ","HOUSE_NO":"１之７７號","E_COORD97":190295.47,"N_COORD97":2582771.6200000001,"ADDRESS":"康樂路１之７７號","OBJECTID":606566},"geometry":{"x":190295.47000000067,"y":2582771.620000001}},{"attributes":{"ID":606594,"DIS_CODE":0,"TOWNNAME":"白河區","LI":"白河里","LIN":"3鄰","STREET":"康樂路","SECT":" ","MAREA":" ","LANE":" ","ALLEY":" ","HOUSE_NO":"１之７９號","E_COORD97":190299.53,"N_COORD97":2582746.1600000001,"ADDRESS":"康樂路１之７９號","OBJECTID":606567},"geometry":{"x":190299.53000000026,"y":2582746.160000002}},{"attributes":{"ID":606595,"DIS_CODE":0,"TOWNNAME":"白河區","LI":"白河里","LIN":"3鄰","STREET":"康樂路","SECT":" ","MAREA":" ","LANE":" ","ALLEY":" ","HOUSE_NO":"１之７號","E_COORD97":190270.23999999999,"N_COORD97":2582708.6000000001,"ADDRESS":"康樂路１之７號","OBJECTID":606568},"geometry":{"x":190270.24000000115,"y":2582708.6000000015}},{"attributes":{"ID":606596,"DIS_CODE":0,"TOWNNAME":"白河區","LI":"白河里","LIN":"3鄰","STREET":"康樂路","SECT":" ","MAREA":" ","LANE":" ","ALLEY":" ","HOUSE_NO":"１之８號","E_COORD97":190260.98000000001,"N_COORD97":2582701.4399999999,"ADDRESS":"康樂路１之８號","OBJECTID":606569},"geometry":{"x":190260.98000000045,"y":2582701.4400000032}},{"attributes":{"ID":606597,"DIS_CODE":0,"TOWNNAME":"白河區","LI":"白河里","LIN":"3鄰","STREET":"康樂路","SECT":" ","MAREA":" ","LANE":" ","ALLEY":" ","HOUSE_NO":"１之９號","E_COORD97":190259.51999999999,"N_COORD97":2582696.6400000001,"ADDRESS":"康樂路１之９號","OBJECTID":606570},"geometry":{"x":190259.51999999955,"y":2582696.6400000006}},{"attributes":{"ID":606598,"DIS_CODE":0,"TOWNNAME":"白河區","LI":"永安里","LIN":"3鄰","STREET":"康樂路","SECT":" ","MAREA":" ","LANE":" ","ALLEY":" ","HOUSE_NO":"７３號","E_COORD97":190075.53,"N_COORD97":2583107.0099999998,"ADDRESS":"康樂路７３號","OBJECTID":606571},"geometry":{"x":190075.53000000026,"y":2583107.0099999998}},{"attributes":{"ID":606599,"DIS_CODE":0,"TOWNNAME":"白河區","LI":"白河里","LIN":"3鄰","STREET":"富民路","SECT":" ","MAREA":" ","LANE":" ","ALLEY":" ","HOUSE_NO":"１０８號","E_COORD97":190211.28,"N_COORD97":2582599.0699999998,"ADDRESS":"富民路１０８號","OBJECTID":606572},"geometry":{"x":190211.28000000026,"y":2582599.0700000003}},{"attributes":{"ID":606600,"DIS_CODE":0,"TOWNNAME":"白河區","LI":"白河里","LIN":"3鄰","STREET":"富民路","SECT":" ","MAREA":" ","LANE":" ","ALLEY":" ","HOUSE_NO":"１１０號","E_COORD97":190205.64000000001,"N_COORD97":2582600.1699999999,"ADDRESS":"富民路１１０號","OBJECTID":606573},"geometry":{"x":190205.6400000006,"y":2582600.1700000018}},{"attributes":{"ID":606601,"DIS_CODE":0,"TOWNNAME":"白河區","LI":"白河里","LIN":"3鄰","STREET":"富民路","SECT":" ","MAREA":" ","LANE":" ","ALLEY":" ","HOUSE_NO":"１１１號","E_COORD97":190074.04000000001,"N_COORD97":2582594.8300000001,"ADDRESS":"富民路１１１號","OBJECTID":606574},"geometry":{"x":190074.04000000004,"y":2582594.8300000019}},{"attributes":{"ID":606602,"DIS_CODE":0,"TOWNNAME":"白河區","LI":"白河里","LIN":"3鄰","STREET":"富民路","SECT":" ","MAREA":" ","LANE":" ","ALLEY":" ","HOUSE_NO":"１１２號","E_COORD97":190201.07999999999,"N_COORD97":2582601.1000000001,"ADDRESS":"富民路１１２號","OBJECTID":606575},"geometry":{"x":190201.08000000194,"y":2582601.0999999996}},{"attributes":{"ID":606603,"DIS_CODE":0,"TOWNNAME":"白河區","LI":"白河里","LIN":"3鄰","STREET":"富民路","SECT":" ","MAREA":" ","LANE":" ","ALLEY":" ","HOUSE_NO":"１１４號","E_COORD97":190195.89000000001,"N_COORD97":2582602.2799999998,"ADDRESS":"富民路１１４號","OBJECTID":606576},"geometry":{"x":190195.8900000006,"y":2582602.2800000012}},{"attributes":{"ID":606604,"DIS_CODE":0,"TOWNNAME":"白河區","LI":"白河里","LIN":"3鄰","STREET":"富民路","SECT":" ","MAREA":" ","LANE":" ","ALLEY":" ","HOUSE_NO":"１１６號","E_COORD97":190190.19,"N_COORD97":2582603.7400000002,"ADDRESS":"富民路１１６號","OBJECTID":606577},"geometry":{"x":190190.19000000041,"y":2582603.7400000002}},{"attributes":{"ID":606605,"DIS_CODE":0,"TOWNNAME":"白河區","LI":"白河里","LIN":"3鄰","STREET":"富民路","SECT":" ","MAREA":" ","LANE":" ","ALLEY":" ","HOUSE_NO":"１１８號","E_COORD97":190185.70000000001,"N_COORD97":2582604.52,"ADDRESS":"富民路１１８號","OBJECTID":606578},"geometry":{"x":190185.70000000112,"y":2582604.5199999996}},{"attributes":{"ID":606606,"DIS_CODE":0,"TOWNNAME":"白河區","LI":"白河里","LIN":"3鄰","STREET":"富民路","SECT":" ","MAREA":" ","LANE":" ","ALLEY":" ","HOUSE_NO":"１２０號","E_COORD97":190180.42999999999,"N_COORD97":2582605.7599999998,"ADDRESS":"富民路１２０號","OBJECTID":606579},"geometry":{"x":190180.43000000063,"y":2582605.7600000016}},{"attributes":{"ID":606607,"DIS_CODE":0,"TOWNNAME":"白河區","LI":"白河里","LIN":"3鄰","STREET":"富民路","SECT":" ","MAREA":" ","LANE":" ","ALLEY":" ","HOUSE_NO":"１２２號","E_COORD97":190175.66,"N_COORD97":2582606.7599999998,"ADDRESS":"富民路１２２號","OBJECTID":606580},"geometry":{"x":190175.66000000108,"y":2582606.7599999998}},{"attributes":{"ID":606608,"DIS_CODE":0,"TOWNNAME":"白河區","LI":"白河里","LIN":"3鄰","STREET":"富民路","SECT":" ","MAREA":" ","LANE":" ","ALLEY":" ","HOUSE_NO":"１２４號","E_COORD97":190170.64999999999,"N_COORD97":2582608.0800000001,"ADDRESS":"富民路１２４號","OBJECTID":606581},"geometry":{"x":190170.6500000013,"y":2582608.0800000001}},{"attributes":{"ID":606609,"DIS_CODE":0,"TOWNNAME":"白河區","LI":"白河里","LIN":"3鄰","STREET":"富民路","SECT":" ","MAREA":" ","LANE":" ","ALLEY":" ","HOUSE_NO":"１２６號","E_COORD97":190164.67999999999,"N_COORD97":2582609.02,"ADDRESS":"富民路１２６號","OBJECTID":606582},"geometry":{"x":190164.68000000063,"y":2582609.0199999996}},{"attributes":{"ID":606610,"DIS_CODE":0,"TOWNNAME":"白河區","LI":"白河里","LIN":"3鄰","STREET":"富民路","SECT":" ","MAREA":" ","LANE":" ","ALLEY":" ","HOUSE_NO":"１２８號","E_COORD97":190160.37,"N_COORD97":2582610.4900000002,"ADDRESS":"富民路１２８號","OBJECTID":606583},"geometry":{"x":190160.37000000104,"y":2582610.4900000039}},{"attributes":{"ID":606611,"DIS_CODE":0,"TOWNNAME":"白河區","LI":"白河里","LIN":"3鄰","STREET":"富民路","SECT":" ","MAREA":" ","LANE":" ","ALLEY":" ","HOUSE_NO":"１３０號","E_COORD97":190154.92999999999,"N_COORD97":2582611.4700000002,"ADDRESS":"富民路１３０號","OBJECTID":606584},"geometry":{"x":190154.93000000063,"y":2582611.4700000025}},{"attributes":{"ID":606612,"DIS_CODE":0,"TOWNNAME":"白河區","LI":"白河里","LIN":"3鄰","STREET":"富民路","SECT":" ","MAREA":" ","LANE":" ","ALLEY":" ","HOUSE_NO":"１３２號","E_COORD97":190149.31,"N_COORD97":2582612.5,"ADDRESS":"富民路１３２號","OBJECTID":606585},"geometry":{"x":190149.30999999959,"y":2582612.5}},{"attributes":{"ID":606613,"DIS_CODE":0,"TOWNNAME":"白河區","LI":"白河里","LIN":"3鄰","STREET":"富民路","SECT":" ","MAREA":" ","LANE":" ","ALLEY":" ","HOUSE_NO":"１４２號","E_COORD97":190098.89000000001,"N_COORD97":2582625.4100000001,"ADDRESS":"富民路１４２號","OBJECTID":606586},"geometry":{"x":190098.8900000006,"y":2582625.410000002}},{"attributes":{"ID":606614,"DIS_CODE":0,"TOWNNAME":"白河區","LI":"白河里","LIN":"3鄰","STREET":"富民路","SECT":" ","MAREA":" ","LANE":" ","ALLEY":" ","HOUSE_NO":"３７號","E_COORD97":190303.14999999999,"N_COORD97":2582551.7400000002,"ADDRESS":"富民路３７號","OBJECTID":606587},"geometry":{"x":190303.1500000013,"y":2582551.7400000021}},{"attributes":{"ID":606615,"DIS_CODE":0,"TOWNNAME":"白河區","LI":"白河里","LIN":"3鄰","STREET":"富民路","SECT":" ","MAREA":" ","LANE":" ","ALLEY":" ","HOUSE_NO":"６０號","E_COORD97":190295.79000000001,"N_COORD97":2582596.8599999999,"ADDRESS":"富民路６０號","OBJECTID":606588},"geometry":{"x":190295.79000000004,"y":2582596.8600000031}},{"attributes":{"ID":606616,"DIS_CODE":0,"TOWNNAME":"白河區","LI":"白河里","LIN":"3鄰","STREET":"富民路","SECT":" ","MAREA":" ","LANE":" ","ALLEY":" ","HOUSE_NO":"９１號","E_COORD97":190151.14000000001,"N_COORD97":2582567.0099999998,"ADDRESS":"富民路９１號","OBJECTID":606589},"geometry":{"x":190151.14000000153,"y":2582567.0100000016}},{"attributes":{"ID":606617,"DIS_CODE":0,"TOWNNAME":"麻豆區","LI":"巷口里","LIN":"3鄰","STREET":"興國路","SECT":" ","MAREA":" ","LANE":" ","ALLEY":" ","HOUSE_NO":"２５號之１","E_COORD97":173011.28,"N_COORD97":2564560.6400000001,"ADDRESS":"興國路２５號之１","OBJECTID":606590},"geometry":{"x":173011.28000000119,"y":2564560.6400000025}},{"attributes":{"ID":606618,"DIS_CODE":0,"TOWNNAME":"麻豆區","LI":"巷口里","LIN":"3鄰","STREET":"興國路","SECT":" ","MAREA":" ","LANE":" ","ALLEY":" ","HOUSE_NO":"２５號","E_COORD97":173028.97,"N_COORD97":2564600.7000000002,"ADDRESS":"興國路２５號","OBJECTID":606591},"geometry":{"x":173028.96999999974,"y":2564600.6999999993}},{"attributes":{"ID":606619,"DIS_CODE":0,"TOWNNAME":"麻豆區","LI":"巷口里","LIN":"3鄰","STREET":"興國路","SECT":" ","MAREA":" ","LANE":" ","ALLEY":" ","HOUSE_NO":"２７號","E_COORD97":173056.66,"N_COORD97":2564579.54,"ADDRESS":"興國路２７號","OBJECTID":606592},"geometry":{"x":173056.66000000015,"y":2564579.540000001}},{"attributes":{"ID":606620,"DIS_CODE":0,"TOWNNAME":"麻豆區","LI":"巷口里","LIN":"3鄰","STREET":"興國路","SECT":" ","MAREA":" ","LANE":" ","ALLEY":" ","HOUSE_NO":"２９號之１５","E_COORD97":173021.64999999999,"N_COORD97":2564468.7999999998,"ADDRESS":"興國路２９號之１５","OBJECTID":606593},"geometry":{"x":173021.65000000037,"y":2564468.8000000007}},{"attributes":{"ID":606621,"DIS_CODE":0,"TOWNNAME":"麻豆區","LI":"巷口里","LIN":"3鄰","STREET":"興國路","SECT":" ","MAREA":" ","LANE":" ","ALLEY":" ","HOUSE_NO":"２９號之１６","E_COORD97":173022.62,"N_COORD97":2564462.6400000001,"ADDRESS":"興國路２９號之１６","OBJECTID":606594},"geometry":{"x":173022.62000000104,"y":2564462.6400000025}},{"attributes":{"ID":606622,"DIS_CODE":0,"TOWNNAME":"麻豆區","LI":"巷口里","LIN":"3鄰","STREET":"興國路","SECT":" ","MAREA":" ","LANE":" ","ALLEY":" ","HOUSE_NO":"２９號之１７","E_COORD97":173023.5,"N_COORD97":2564456.73,"ADDRESS":"興國路２９號之１７","OBJECTID":606595},"geometry":{"x":173023.5,"y":2564456.7299999986}},{"attributes":{"ID":606623,"DIS_CODE":0,"TOWNNAME":"麻豆區","LI":"巷口里","LIN":"3鄰","STREET":"興國路","SECT":" ","MAREA":" ","LANE":" ","ALLEY":" ","HOUSE_NO":"２９號之１８","E_COORD97":173023.76999999999,"N_COORD97":2564451.4900000002,"ADDRESS":"興國路２９號之１８","OBJECTID":606596},"geometry":{"x":173023.77000000142,"y":2564451.4900000039}},{"attributes":{"ID":606624,"DIS_CODE":0,"TOWNNAME":"麻豆區","LI":"巷口里","LIN":"3鄰","STREET":"興國路","SECT":" ","MAREA":" ","LANE":" ","ALLEY":" ","HOUSE_NO":"２９號之１","E_COORD97":173015.92999999999,"N_COORD97":2564507.1899999999,"ADDRESS":"興國路２９號之１","OBJECTID":606597},"geometry":{"x":173015.93000000156,"y":2564507.1900000032}},{"attributes":{"ID":606625,"DIS_CODE":0,"TOWNNAME":"麻豆區","LI":"巷口里","LIN":"3鄰","STREET":"興國路","SECT":" ","MAREA":" ","LANE":" ","ALLEY":" ","HOUSE_NO":"２９號之２６","E_COORD97":173019.92999999999,"N_COORD97":2564479.6899999999,"ADDRESS":"興國路２９號之２６","OBJECTID":606598},"geometry":{"x":173019.93000000063,"y":2564479.6899999976}},{"attributes":{"ID":606626,"DIS_CODE":0,"TOWNNAME":"麻豆區","LI":"巷口里","LIN":"3鄰","STREET":"興國路","SECT":" ","MAREA":" ","LANE":" ","ALLEY":" ","HOUSE_NO":"２９號之２７","E_COORD97":173012.75,"N_COORD97":2564539.52,"ADDRESS":"興國路２９號之２７","OBJECTID":606599},"geometry":{"x":173012.75000000093,"y":2564539.5200000014}},{"attributes":{"ID":606627,"DIS_CODE":0,"TOWNNAME":"麻豆區","LI":"巷口里","LIN":"3鄰","STREET":"興國路","SECT":" ","MAREA":" ","LANE":" ","ALLEY":" ","HOUSE_NO":"２９號之２８","E_COORD97":173013.32000000001,"N_COORD97":2564532.3700000001,"ADDRESS":"興國路２９號之２８","OBJECTID":606600},"geometry":{"x":173013.3200000003,"y":2564532.3700000029}}]}