{"displayFieldName":"TOWNNAME","fieldAliases":{"ID":"ID","DIS_CODE":"DIS_CODE","TOWNNAME":"TOWNNAME","LI":"LI","LIN":"LIN","STREET":"STREET","SECT":"SECT","MAREA":"MAREA","LANE":"LANE","ALLEY":"ALLEY","HOUSE_NO":"HOUSE_NO","E_COORD97":"E_COORD97","N_COORD97":"N_COORD97","ADDRESS":"ADDRESS","OBJECTID":"OBJECTID"},"geometryType":"esriGeometryPoint","spatialReference":{"wkid":102443,"latestWkid":3826},"fields":[{"name":"ID","type":"esriFieldTypeDouble","alias":"ID"},{"name":"DIS_CODE","type":"esriFieldTypeInteger","alias":"DIS_CODE"},{"name":"TOWNNAME","type":"esriFieldTypeString","alias":"TOWNNAME","length":8},{"name":"LI","type":"esriFieldTypeString","alias":"LI","length":8},{"name":"LIN","type":"esriFieldTypeString","alias":"LIN","length":12},{"name":"STREET","type":"esriFieldTypeString","alias":"STREET","length":20},{"name":"SECT","type":"esriFieldTypeString","alias":"SECT","length":8},{"name":"MAREA","type":"esriFieldTypeString","alias":"MAREA","length":12},{"name":"LANE","type":"esriFieldTypeString","alias":"LANE","length":10},{"name":"ALLEY","type":"esriFieldTypeString","alias":"ALLEY","length":10},{"name":"HOUSE_NO","type":"esriFieldTypeString","alias":"HOUSE_NO","length":20},{"name":"E_COORD97","type":"esriFieldTypeDouble","alias":"E_COORD97"},{"name":"N_COORD97","type":"esriFieldTypeDouble","alias":"N_COORD97"},{"name":"ADDRESS","type":"esriFieldTypeString","alias":"ADDRESS","length":50},{"name":"OBJECTID","type":"esriFieldTypeOID","alias":"OBJECTID"}],"features":[{"attributes":{"ID":99601,"DIS_CODE":0,"TOWNNAME":"東區","LI":"富強里","LIN":"21鄰","STREET":"東門路","SECT":"二段","MAREA":" ","LANE":"３０１巷","ALLEY":"１２弄","HOUSE_NO":"４號","E_COORD97":170790.64999999999,"N_COORD97":2542649.7799999998,"ADDRESS":"東門路二段３０１巷１２弄４號","OBJECTID":99601},"geometry":{"x":170790.65000000037,"y":2542649.7800000012}},{"attributes":{"ID":99602,"DIS_CODE":0,"TOWNNAME":"東區","LI":"富強里","LIN":"21鄰","STREET":"東門路","SECT":"二段","MAREA":" ","LANE":"３０１巷","ALLEY":"１２弄","HOUSE_NO":"５號","E_COORD97":170801.94,"N_COORD97":2542664.6499999999,"ADDRESS":"東門路二段３０１巷１２弄５號","OBJECTID":99602},"geometry":{"x":170801.94000000041,"y":2542664.6500000022}},{"attributes":{"ID":99603,"DIS_CODE":0,"TOWNNAME":"東區","LI":"富強里","LIN":"21鄰","STREET":"東門路","SECT":"二段","MAREA":" ","LANE":"３０１巷","ALLEY":"１２弄","HOUSE_NO":"６號","E_COORD97":170792.91,"N_COORD97":2542647.27,"ADDRESS":"東門路二段３０１巷１２弄６號","OBJECTID":99603},"geometry":{"x":170792.91000000108,"y":2542647.2699999996}},{"attributes":{"ID":99604,"DIS_CODE":0,"TOWNNAME":"永康區","LI":"王行里","LIN":"1鄰","STREET":"王行路","SECT":" ","MAREA":" ","LANE":" ","ALLEY":" ","HOUSE_NO":"１２３號","E_COORD97":175621.92999999999,"N_COORD97":2548108.6899999999,"ADDRESS":"王行路１２３號","OBJECTID":99604},"geometry":{"x":175621.93000000063,"y":2548108.6900000013}},{"attributes":{"ID":99605,"DIS_CODE":0,"TOWNNAME":"永康區","LI":"北灣里","LIN":"1鄰","STREET":"文賢街","SECT":" ","MAREA":" ","LANE":" ","ALLEY":" ","HOUSE_NO":"１７７號","E_COORD97":175352.5,"N_COORD97":2545453.0499999998,"ADDRESS":"文賢街１７７號","OBJECTID":99605},"geometry":{"x":175352.50000000093,"y":2545453.0500000026}},{"attributes":{"ID":99606,"DIS_CODE":0,"TOWNNAME":"永康區","LI":"北灣里","LIN":"1鄰","STREET":"文賢街","SECT":" ","MAREA":" ","LANE":" ","ALLEY":" ","HOUSE_NO":"１８１號","E_COORD97":175353.88,"N_COORD97":2545461.7999999998,"ADDRESS":"文賢街１８１號","OBJECTID":99606},"geometry":{"x":175353.87999999989,"y":2545461.8000000026}},{"attributes":{"ID":99607,"DIS_CODE":0,"TOWNNAME":"永康區","LI":"王行里","LIN":"1鄰","STREET":"王行路","SECT":" ","MAREA":" ","LANE":" ","ALLEY":" ","HOUSE_NO":"１４７號","E_COORD97":175610.67999999999,"N_COORD97":2548185.5,"ADDRESS":"王行路１４７號","OBJECTID":99607},"geometry":{"x":175610.6799999997,"y":2548185.5000000019}},{"attributes":{"ID":99608,"DIS_CODE":0,"TOWNNAME":"永康區","LI":"王行里","LIN":"1鄰","STREET":"王行路","SECT":" ","MAREA":" ","LANE":" ","ALLEY":" ","HOUSE_NO":"７號","E_COORD97":175577.48999999999,"N_COORD97":2547826.3300000001,"ADDRESS":"王行路７號","OBJECTID":99608},"geometry":{"x":175577.49000000209,"y":2547826.3300000038}},{"attributes":{"ID":99609,"DIS_CODE":0,"TOWNNAME":"永康區","LI":"王行里","LIN":"1鄰","STREET":"王行路","SECT":" ","MAREA":" ","LANE":" ","ALLEY":" ","HOUSE_NO":"１３５號","E_COORD97":175634.44,"N_COORD97":2548153.2200000002,"ADDRESS":"王行路１３５號","OBJECTID":99609},"geometry":{"x":175634.44000000134,"y":2548153.2200000025}},{"attributes":{"ID":99610,"DIS_CODE":0,"TOWNNAME":"永康區","LI":"北灣里","LIN":"1鄰","STREET":"文賢街","SECT":" ","MAREA":" ","LANE":" ","ALLEY":" ","HOUSE_NO":"１６５號","E_COORD97":175348.45999999999,"N_COORD97":2545421.3100000001,"ADDRESS":"文賢街１６５號","OBJECTID":99610},"geometry":{"x":175348.45999999903,"y":2545421.3100000005}},{"attributes":{"ID":99611,"DIS_CODE":0,"TOWNNAME":"永康區","LI":"王行里","LIN":"1鄰","STREET":"王行路","SECT":" ","MAREA":" ","LANE":" ","ALLEY":" ","HOUSE_NO":"２之１號","E_COORD97":175617.45999999999,"N_COORD97":2547842.5600000001,"ADDRESS":"王行路２之１號","OBJECTID":99611},"geometry":{"x":175617.45999999996,"y":2547842.5600000024}},{"attributes":{"ID":99612,"DIS_CODE":0,"TOWNNAME":"東區","LI":"富強里","LIN":"21鄰","STREET":"東門路","SECT":"二段","MAREA":" ","LANE":"３０１巷","ALLEY":"１２弄","HOUSE_NO":"７號","E_COORD97":170804.32000000001,"N_COORD97":2542661.8900000001,"ADDRESS":"東門路二段３０１巷１２弄７號","OBJECTID":99612},"geometry":{"x":170804.3200000003,"y":2542661.8900000006}},{"attributes":{"ID":99613,"DIS_CODE":0,"TOWNNAME":"安定區","LI":"蘇厝里","LIN":"10鄰","STREET":" ","SECT":" ","MAREA":"蘇厝","LANE":" ","ALLEY":" ","HOUSE_NO":"３７２之５號","E_COORD97":173121.32000000001,"N_COORD97":2558952.2999999998,"ADDRESS":"蘇厝３７２之５號","OBJECTID":99613},"geometry":{"x":173121.32000000123,"y":2558952.3000000026}},{"attributes":{"ID":99614,"DIS_CODE":0,"TOWNNAME":"東區","LI":"富強里","LIN":"21鄰","STREET":"東門路","SECT":"二段","MAREA":" ","LANE":"３０１巷","ALLEY":"１２弄","HOUSE_NO":"８號","E_COORD97":170795.16,"N_COORD97":2542644.3900000001,"ADDRESS":"東門路二段３０１巷１２弄８號","OBJECTID":99614},"geometry":{"x":170795.16000000015,"y":2542644.3900000006}},{"attributes":{"ID":99615,"DIS_CODE":0,"TOWNNAME":"安定區","LI":"管寮里","LIN":"10鄰","STREET":" ","SECT":" ","MAREA":"管寮","LANE":" ","ALLEY":" ","HOUSE_NO":"８９號之３","E_COORD97":169843.47,"N_COORD97":2556333.2999999998,"ADDRESS":"管寮８９號之３","OBJECTID":99615},"geometry":{"x":169843.46999999974,"y":2556333.2999999989}},{"attributes":{"ID":99616,"DIS_CODE":0,"TOWNNAME":"安定區","LI":"管寮里","LIN":"10鄰","STREET":" ","SECT":" ","MAREA":"管寮","LANE":" ","ALLEY":" ","HOUSE_NO":"８９號之４","E_COORD97":169838.89999999999,"N_COORD97":2556332.2999999998,"ADDRESS":"管寮８９號之４","OBJECTID":99616},"geometry":{"x":169838.9000000013,"y":2556332.3000000007}},{"attributes":{"ID":99617,"DIS_CODE":0,"TOWNNAME":"安定區","LI":"蘇厝里","LIN":"10鄰","STREET":" ","SECT":" ","MAREA":"蘇厝","LANE":" ","ALLEY":" ","HOUSE_NO":"３７２之１４號","E_COORD97":173095.76999999999,"N_COORD97":2558952.2999999998,"ADDRESS":"蘇厝３７２之１４號","OBJECTID":99617},"geometry":{"x":173095.76999999955,"y":2558952.3000000026}},{"attributes":{"ID":99618,"DIS_CODE":0,"TOWNNAME":"安定區","LI":"管寮里","LIN":"10鄰","STREET":" ","SECT":" ","MAREA":"管寮","LANE":" ","ALLEY":" ","HOUSE_NO":"９０號","E_COORD97":169865.94,"N_COORD97":2556337.25,"ADDRESS":"管寮９０號","OBJECTID":99618},"geometry":{"x":169865.94000000134,"y":2556337.2500000019}},{"attributes":{"ID":99619,"DIS_CODE":0,"TOWNNAME":"安定區","LI":"蘇厝里","LIN":"10鄰","STREET":" ","SECT":" ","MAREA":"蘇厝","LANE":" ","ALLEY":" ","HOUSE_NO":"３６７號之１","E_COORD97":173027.35000000001,"N_COORD97":2558952.2999999998,"ADDRESS":"蘇厝３６７號之１","OBJECTID":99619},"geometry":{"x":173027.35000000056,"y":2558952.3000000026}},{"attributes":{"ID":99620,"DIS_CODE":0,"TOWNNAME":"東區","LI":"富強里","LIN":"21鄰","STREET":"東門路","SECT":"二段","MAREA":" ","LANE":"３０１巷","ALLEY":"１２弄","HOUSE_NO":"９號","E_COORD97":170807.34,"N_COORD97":2542658.6299999999,"ADDRESS":"東門路二段３０１巷１２弄９號","OBJECTID":99620},"geometry":{"x":170807.33999999985,"y":2542658.629999999}},{"attributes":{"ID":99621,"DIS_CODE":0,"TOWNNAME":"安定區","LI":"管寮里","LIN":"10鄰","STREET":" ","SECT":" ","MAREA":"管寮","LANE":" ","ALLEY":" ","HOUSE_NO":"８９號之２","E_COORD97":169847.41,"N_COORD97":2556334.2999999998,"ADDRESS":"管寮８９號之２","OBJECTID":99621},"geometry":{"x":169847.41000000015,"y":2556334.3000000026}},{"attributes":{"ID":99622,"DIS_CODE":0,"TOWNNAME":"安定區","LI":"蘇厝里","LIN":"10鄰","STREET":" ","SECT":" ","MAREA":"蘇厝","LANE":" ","ALLEY":" ","HOUSE_NO":"３７２號之２","E_COORD97":173133.19,"N_COORD97":2558951.2999999998,"ADDRESS":"蘇厝３７２號之２","OBJECTID":99622},"geometry":{"x":173133.19000000041,"y":2558951.3000000026}},{"attributes":{"ID":99623,"DIS_CODE":0,"TOWNNAME":"安定區","LI":"蘇厝里","LIN":"10鄰","STREET":" ","SECT":" ","MAREA":"蘇厝","LANE":" ","ALLEY":" ","HOUSE_NO":"３７３之２號","E_COORD97":173168.51999999999,"N_COORD97":2558950.2999999998,"ADDRESS":"蘇厝３７３之２號","OBJECTID":99623},"geometry":{"x":173168.52000000048,"y":2558950.3000000007}},{"attributes":{"ID":99624,"DIS_CODE":0,"TOWNNAME":"東區","LI":"富強里","LIN":"21鄰","STREET":"東門路","SECT":"二段","MAREA":" ","LANE":"３０１巷","ALLEY":"２６弄","HOUSE_NO":"１０號","E_COORD97":170823.01999999999,"N_COORD97":2542661.21,"ADDRESS":"東門路二段３０１巷２６弄１０號","OBJECTID":99624},"geometry":{"x":170823.01999999955,"y":2542661.2100000028}},{"attributes":{"ID":99625,"DIS_CODE":0,"TOWNNAME":"安定區","LI":"蘇林里","LIN":"10鄰","STREET":" ","SECT":" ","MAREA":"蘇厝","LANE":" ","ALLEY":" ","HOUSE_NO":"１１１號之１３","E_COORD97":173729.39999999999,"N_COORD97":2558881.2999999998,"ADDRESS":"蘇厝１１１號之１３","OBJECTID":99625},"geometry":{"x":173729.4000000013,"y":2558881.3000000026}},{"attributes":{"ID":99626,"DIS_CODE":0,"TOWNNAME":"安定區","LI":"蘇厝里","LIN":"10鄰","STREET":" ","SECT":" ","MAREA":"蘇厝","LANE":" ","ALLEY":" ","HOUSE_NO":"３７５號","E_COORD97":173150.01999999999,"N_COORD97":2558906.25,"ADDRESS":"蘇厝３７５號","OBJECTID":99626},"geometry":{"x":173150.01999999955,"y":2558906.2500000037}},{"attributes":{"ID":99627,"DIS_CODE":0,"TOWNNAME":"柳營區","LI":"果毅里","LIN":"10鄰","STREET":" ","SECT":" ","MAREA":"果毅後","LANE":" ","ALLEY":" ","HOUSE_NO":"１２９號","E_COORD97":185617.04999999999,"N_COORD97":2572879,"ADDRESS":"果毅後１２９號","OBJECTID":99627},"geometry":{"x":185617.04999999981,"y":2572879}},{"attributes":{"ID":99628,"DIS_CODE":0,"TOWNNAME":"東區","LI":"富強里","LIN":"21鄰","STREET":"東門路","SECT":"二段","MAREA":" ","LANE":"３０１巷","ALLEY":"２６弄","HOUSE_NO":"１２號","E_COORD97":170825.14999999999,"N_COORD97":2542658.0800000001,"ADDRESS":"東門路二段３０１巷２６弄１２號","OBJECTID":99628},"geometry":{"x":170825.1500000013,"y":2542658.0800000019}},{"attributes":{"ID":99629,"DIS_CODE":0,"TOWNNAME":"安定區","LI":"蘇林里","LIN":"10鄰","STREET":" ","SECT":" ","MAREA":"蘇厝","LANE":" ","ALLEY":" ","HOUSE_NO":"１１１號之１０","E_COORD97":173750.14999999999,"N_COORD97":2558798.2999999998,"ADDRESS":"蘇厝１１１號之１０","OBJECTID":99629},"geometry":{"x":173750.15000000037,"y":2558798.3000000045}},{"attributes":{"ID":99630,"DIS_CODE":0,"TOWNNAME":"安定區","LI":"蘇林里","LIN":"10鄰","STREET":" ","SECT":" ","MAREA":"蘇厝","LANE":" ","ALLEY":" ","HOUSE_NO":"１１１號之１５","E_COORD97":173738.06,"N_COORD97":2558882.2999999998,"ADDRESS":"蘇厝１１１號之１５","OBJECTID":99630},"geometry":{"x":173738.05999999959,"y":2558882.3000000007}},{"attributes":{"ID":99631,"DIS_CODE":0,"TOWNNAME":"安定區","LI":"蘇林里","LIN":"10鄰","STREET":" ","SECT":" ","MAREA":"蘇厝","LANE":" ","ALLEY":" ","HOUSE_NO":"１１１號之１４","E_COORD97":173733.53,"N_COORD97":2558881.2999999998,"ADDRESS":"蘇厝１１１號之１４","OBJECTID":99631},"geometry":{"x":173733.53000000119,"y":2558881.3000000026}},{"attributes":{"ID":99632,"DIS_CODE":0,"TOWNNAME":"安定區","LI":"蘇厝里","LIN":"10鄰","STREET":" ","SECT":" ","MAREA":"蘇厝","LANE":" ","ALLEY":" ","HOUSE_NO":"３７２號之１１","E_COORD97":173108.60000000001,"N_COORD97":2558922.2999999998,"ADDRESS":"蘇厝３７２號之１１","OBJECTID":99632},"geometry":{"x":173108.60000000056,"y":2558922.3000000007}},{"attributes":{"ID":99633,"DIS_CODE":0,"TOWNNAME":"安定區","LI":"蘇林里","LIN":"10鄰","STREET":" ","SECT":" ","MAREA":"蘇厝","LANE":" ","ALLEY":" ","HOUSE_NO":"１１１號之９","E_COORD97":173698.04000000001,"N_COORD97":2558898.2999999998,"ADDRESS":"蘇厝１１１號之９","OBJECTID":99633},"geometry":{"x":173698.04000000004,"y":2558898.3000000007}},{"attributes":{"ID":99634,"DIS_CODE":0,"TOWNNAME":"安定區","LI":"蘇厝里","LIN":"10鄰","STREET":" ","SECT":" ","MAREA":"蘇厝","LANE":" ","ALLEY":" ","HOUSE_NO":"３７３號之１","E_COORD97":173169.04999999999,"N_COORD97":2558933.2999999998,"ADDRESS":"蘇厝３７３號之１","OBJECTID":99634},"geometry":{"x":173169.04999999981,"y":2558933.3000000007}},{"attributes":{"ID":99635,"DIS_CODE":0,"TOWNNAME":"安定區","LI":"蘇厝里","LIN":"10鄰","STREET":" ","SECT":" ","MAREA":"蘇厝","LANE":" ","ALLEY":" ","HOUSE_NO":"３７２號之１６","E_COORD97":173086.10999999999,"N_COORD97":2558953.2999999998,"ADDRESS":"蘇厝３７２號之１６","OBJECTID":99635},"geometry":{"x":173086.11000000034,"y":2558953.3000000007}},{"attributes":{"ID":99636,"DIS_CODE":0,"TOWNNAME":"安定區","LI":"六嘉里","LIN":"10鄰","STREET":" ","SECT":" ","MAREA":"六塊寮","LANE":" ","ALLEY":" ","HOUSE_NO":"８３之７號","E_COORD97":170212.29999999999,"N_COORD97":2553214.3799999999,"ADDRESS":"六塊寮８３之７號","OBJECTID":99636},"geometry":{"x":170212.29999999981,"y":2553214.379999999}},{"attributes":{"ID":99637,"DIS_CODE":0,"TOWNNAME":"安定區","LI":"安定里","LIN":"10鄰","STREET":" ","SECT":" ","MAREA":"安定","LANE":" ","ALLEY":" ","HOUSE_NO":"４２之１２號","E_COORD97":172176.57999999999,"N_COORD97":2557785.52,"ADDRESS":"安定４２之１２號","OBJECTID":99637},"geometry":{"x":172176.58000000101,"y":2557785.5200000014}},{"attributes":{"ID":99638,"DIS_CODE":0,"TOWNNAME":"東區","LI":"富強里","LIN":"21鄰","STREET":"東門路","SECT":"二段","MAREA":" ","LANE":"３０１巷","ALLEY":"２６弄","HOUSE_NO":"１４號","E_COORD97":170827.79000000001,"N_COORD97":2542654.8199999998,"ADDRESS":"東門路二段３０１巷２６弄１４號","OBJECTID":99638},"geometry":{"x":170827.79000000097,"y":2542654.8200000003}},{"attributes":{"ID":99639,"DIS_CODE":0,"TOWNNAME":"東區","LI":"富強里","LIN":"21鄰","STREET":"東門路","SECT":"二段","MAREA":" ","LANE":"３０１巷","ALLEY":"２６弄","HOUSE_NO":"１６號","E_COORD97":170829.07999999999,"N_COORD97":2542651.0099999998,"ADDRESS":"東門路二段３０１巷２６弄１６號","OBJECTID":99639},"geometry":{"x":170829.08000000101,"y":2542651.0100000035}},{"attributes":{"ID":99640,"DIS_CODE":0,"TOWNNAME":"永康區","LI":"北灣里","LIN":"1鄰","STREET":"文賢街","SECT":" ","MAREA":" ","LANE":" ","ALLEY":" ","HOUSE_NO":"１９７號","E_COORD97":175358.79999999999,"N_COORD97":2545504.5600000001,"ADDRESS":"文賢街１９７號","OBJECTID":99640},"geometry":{"x":175358.80000000075,"y":2545504.5600000005}},{"attributes":{"ID":99641,"DIS_CODE":0,"TOWNNAME":"永康區","LI":"王行里","LIN":"1鄰","STREET":"王行路","SECT":" ","MAREA":" ","LANE":" ","ALLEY":" ","HOUSE_NO":"１３７號","E_COORD97":175632.23000000001,"N_COORD97":2548156.9700000002,"ADDRESS":"王行路１３７號","OBJECTID":99641},"geometry":{"x":175632.23000000138,"y":2548156.9700000007}},{"attributes":{"ID":99642,"DIS_CODE":0,"TOWNNAME":"永康區","LI":"六合里","LIN":"1鄰","STREET":"新興街","SECT":" ","MAREA":" ","LANE":" ","ALLEY":" ","HOUSE_NO":"２號地下三層","E_COORD97":170912.20000000001,"N_COORD97":2545758.6899999999,"ADDRESS":"新興街２號地下三層","OBJECTID":99642},"geometry":{"x":170912.20000000019,"y":2545758.6900000013}},{"attributes":{"ID":99643,"DIS_CODE":0,"TOWNNAME":"永康區","LI":"王行里","LIN":"1鄰","STREET":"王行路","SECT":" ","MAREA":" ","LANE":" ","ALLEY":" ","HOUSE_NO":"２２０號","E_COORD97":175665.67000000001,"N_COORD97":2548159.2999999998,"ADDRESS":"王行路２２０號","OBJECTID":99643},"geometry":{"x":175665.66999999993,"y":2548159.3000000045}},{"attributes":{"ID":99644,"DIS_CODE":0,"TOWNNAME":"永康區","LI":"六合里","LIN":"1鄰","STREET":"新興街","SECT":" ","MAREA":" ","LANE":" ","ALLEY":" ","HOUSE_NO":"２號地下一層","E_COORD97":170912.20000000001,"N_COORD97":2545758.6899999999,"ADDRESS":"新興街２號地下一層","OBJECTID":99644},"geometry":{"x":170912.20000000019,"y":2545758.6900000013}},{"attributes":{"ID":99645,"DIS_CODE":0,"TOWNNAME":"南區","LI":"文南里","LIN":"13鄰","STREET":"育南街","SECT":" ","MAREA":" ","LANE":" ","ALLEY":" ","HOUSE_NO":"３號","E_COORD97":166851.48999999999,"N_COORD97":2542578.02,"ADDRESS":"育南街３號","OBJECTID":99645},"geometry":{"x":166851.49000000115,"y":2542578.0199999996}},{"attributes":{"ID":99646,"DIS_CODE":0,"TOWNNAME":"鹽水區","LI":"飯店里","LIN":"7鄰","STREET":" ","SECT":" ","MAREA":"麻油寮","LANE":" ","ALLEY":" ","HOUSE_NO":"１７號","E_COORD97":169345.98000000001,"N_COORD97":2573812.5099999998,"ADDRESS":"麻油寮１７號","OBJECTID":99646},"geometry":{"x":169345.98000000045,"y":2573812.5100000016}},{"attributes":{"ID":99647,"DIS_CODE":0,"TOWNNAME":"東區","LI":"富強里","LIN":"21鄰","STREET":"東門路","SECT":"二段","MAREA":" ","LANE":"３０１巷","ALLEY":"２６弄","HOUSE_NO":"１８號","E_COORD97":170831.23999999999,"N_COORD97":2542647.27,"ADDRESS":"東門路二段３０１巷２６弄１８號","OBJECTID":99647},"geometry":{"x":170831.24000000115,"y":2542647.2699999996}},{"attributes":{"ID":99648,"DIS_CODE":0,"TOWNNAME":"東區","LI":"富強里","LIN":"21鄰","STREET":"東門路","SECT":"二段","MAREA":" ","LANE":"３０１巷","ALLEY":"２６弄","HOUSE_NO":"１號","E_COORD97":170830.32999999999,"N_COORD97":2542680.5299999998,"ADDRESS":"東門路二段３０１巷２６弄１號","OBJECTID":99648},"geometry":{"x":170830.33000000194,"y":2542680.5299999975}},{"attributes":{"ID":99649,"DIS_CODE":0,"TOWNNAME":"安定區","LI":"安加里","LIN":"10鄰","STREET":" ","SECT":" ","MAREA":"安定","LANE":" ","ALLEY":" ","HOUSE_NO":"２５８之６９號","E_COORD97":171713.95999999999,"N_COORD97":2556637.21,"ADDRESS":"安定２５８之６９號","OBJECTID":99649},"geometry":{"x":171713.95999999996,"y":2556637.2100000028}},{"attributes":{"ID":99650,"DIS_CODE":0,"TOWNNAME":"東區","LI":"富強里","LIN":"21鄰","STREET":"東門路","SECT":"二段","MAREA":" ","LANE":"３０１巷","ALLEY":"２６弄","HOUSE_NO":"３號","E_COORD97":170831.79999999999,"N_COORD97":2542676.5600000001,"ADDRESS":"東門路二段３０１巷２６弄３號","OBJECTID":99650},"geometry":{"x":170831.80000000168,"y":2542676.5600000024}},{"attributes":{"ID":99651,"DIS_CODE":0,"TOWNNAME":"東區","LI":"富強里","LIN":"21鄰","STREET":"東門路","SECT":"二段","MAREA":" ","LANE":"３０１巷","ALLEY":"２６弄","HOUSE_NO":"５號","E_COORD97":170833.95999999999,"N_COORD97":2542672.5899999999,"ADDRESS":"東門路二段３０１巷２６弄５號","OBJECTID":99651},"geometry":{"x":170833.95999999996,"y":2542672.5899999999}},{"attributes":{"ID":99652,"DIS_CODE":0,"TOWNNAME":"東區","LI":"富強里","LIN":"21鄰","STREET":"東門路","SECT":"二段","MAREA":" ","LANE":"３０１巷","ALLEY":"２６弄","HOUSE_NO":"６號","E_COORD97":170817.88,"N_COORD97":2542667.1099999999,"ADDRESS":"東門路二段３０１巷２６弄６號","OBJECTID":99652},"geometry":{"x":170817.88000000175,"y":2542667.1100000013}},{"attributes":{"ID":99653,"DIS_CODE":0,"TOWNNAME":"安定區","LI":"安加里","LIN":"10鄰","STREET":" ","SECT":" ","MAREA":"安定","LANE":" ","ALLEY":" ","HOUSE_NO":"２５８之７０號","E_COORD97":171731.57000000001,"N_COORD97":2556720.3199999998,"ADDRESS":"安定２５８之７０號","OBJECTID":99653},"geometry":{"x":171731.5700000003,"y":2556720.3200000022}},{"attributes":{"ID":99654,"DIS_CODE":0,"TOWNNAME":"安定區","LI":"安加里","LIN":"10鄰","STREET":" ","SECT":" ","MAREA":"安定","LANE":" ","ALLEY":" ","HOUSE_NO":"２５８之７１號","E_COORD97":171906.25117599999,"N_COORD97":2556939.5257700002,"ADDRESS":"安定２５８之７１號","OBJECTID":99654},"geometry":{"x":171906.25117600057,"y":2556939.5257719997}},{"attributes":{"ID":99655,"DIS_CODE":0,"TOWNNAME":"東區","LI":"富強里","LIN":"21鄰","STREET":"東門路","SECT":"二段","MAREA":" ","LANE":"３０１巷","ALLEY":"８弄","HOUSE_NO":"５號","E_COORD97":170783.75,"N_COORD97":2542639.25,"ADDRESS":"東門路二段３０１巷８弄５號","OBJECTID":99655},"geometry":{"x":170783.75000000093,"y":2542639.2500000037}},{"attributes":{"ID":99656,"DIS_CODE":0,"TOWNNAME":"東區","LI":"富強里","LIN":"21鄰","STREET":"東門路","SECT":"二段","MAREA":" ","LANE":"３０１巷","ALLEY":"８弄","HOUSE_NO":"７號","E_COORD97":170786.38,"N_COORD97":2542636.4900000002,"ADDRESS":"東門路二段３０１巷８弄７號","OBJECTID":99656},"geometry":{"x":170786.38000000082,"y":2542636.4900000002}},{"attributes":{"ID":99657,"DIS_CODE":0,"TOWNNAME":"安定區","LI":"安加里","LIN":"10鄰","STREET":" ","SECT":" ","MAREA":"安定","LANE":" ","ALLEY":" ","HOUSE_NO":"２５８之７２號","E_COORD97":172018.07000000001,"N_COORD97":2557208.3199999998,"ADDRESS":"安定２５８之７２號","OBJECTID":99657},"geometry":{"x":172018.0700000003,"y":2557208.3200000022}},{"attributes":{"ID":99658,"DIS_CODE":0,"TOWNNAME":"安定區","LI":"安加里","LIN":"10鄰","STREET":" ","SECT":" ","MAREA":"安定","LANE":" ","ALLEY":" ","HOUSE_NO":"２６２之１５號","E_COORD97":171284.23235899999,"N_COORD97":2556885.662,"ADDRESS":"安定２６２之１５號","OBJECTID":99658},"geometry":{"x":171284.23235900048,"y":2556885.6620030012}},{"attributes":{"ID":99659,"DIS_CODE":0,"TOWNNAME":"安定區","LI":"港尾里","LIN":"10鄰","STREET":" ","SECT":" ","MAREA":"港子尾","LANE":" ","ALLEY":" ","HOUSE_NO":"５６之３２號","E_COORD97":171699.41,"N_COORD97":2555751.3999999999,"ADDRESS":"港子尾５６之３２號","OBJECTID":99659},"geometry":{"x":171699.41000000201,"y":2555751.4000000004}},{"attributes":{"ID":99660,"DIS_CODE":0,"TOWNNAME":"東區","LI":"大學里","LIN":"18鄰","STREET":"長榮路","SECT":"三段","MAREA":" ","LANE":"６６巷","ALLEY":"１０弄","HOUSE_NO":"１號","E_COORD97":170251.04000000001,"N_COORD97":2543783.1699999999,"ADDRESS":"長榮路三段６６巷１０弄１號","OBJECTID":99660},"geometry":{"x":170251.04000000097,"y":2543783.1700000018}},{"attributes":{"ID":99661,"DIS_CODE":0,"TOWNNAME":"東區","LI":"大學里","LIN":"18鄰","STREET":"長榮路","SECT":"三段","MAREA":" ","LANE":"６６巷","ALLEY":"１０弄","HOUSE_NO":"５號","E_COORD97":170245.34,"N_COORD97":2543778.7200000002,"ADDRESS":"長榮路三段６６巷１０弄５號","OBJECTID":99661},"geometry":{"x":170245.34000000078,"y":2543778.7200000007}},{"attributes":{"ID":99662,"DIS_CODE":0,"TOWNNAME":"永康區","LI":"北灣里","LIN":"21鄰","STREET":"大同街","SECT":" ","MAREA":" ","LANE":"３８０巷","ALLEY":"３１弄","HOUSE_NO":"３１號","E_COORD97":174863.73999999999,"N_COORD97":2546126.3199999998,"ADDRESS":"大同街３８０巷３１弄３１號","OBJECTID":99662},"geometry":{"x":174863.73999999929,"y":2546126.3200000003}},{"attributes":{"ID":99663,"DIS_CODE":0,"TOWNNAME":"永康區","LI":"北灣里","LIN":"21鄰","STREET":"大同街","SECT":" ","MAREA":" ","LANE":"３８０巷","ALLEY":"３１弄","HOUSE_NO":"３３號","E_COORD97":174866.42000000001,"N_COORD97":2546129.8199999998,"ADDRESS":"大同街３８０巷３１弄３３號","OBJECTID":99663},"geometry":{"x":174866.42000000086,"y":2546129.8200000003}},{"attributes":{"ID":99664,"DIS_CODE":0,"TOWNNAME":"歸仁區","LI":"媽廟里","LIN":"21鄰","STREET":"保大路","SECT":"一段","MAREA":" ","LANE":"１５１巷","ALLEY":"２４弄","HOUSE_NO":"２號","E_COORD97":177693.94,"N_COORD97":2543934.5699999998,"ADDRESS":"保大路一段１５１巷２４弄２號","OBJECTID":99664},"geometry":{"x":177693.94000000134,"y":2543934.5700000003}},{"attributes":{"ID":99665,"DIS_CODE":0,"TOWNNAME":"永康區","LI":"北灣里","LIN":"1鄰","STREET":"文賢街","SECT":" ","MAREA":" ","LANE":" ","ALLEY":" ","HOUSE_NO":"１６９號","E_COORD97":175349.32999999999,"N_COORD97":2545432.7999999998,"ADDRESS":"文賢街１６９號","OBJECTID":99665},"geometry":{"x":175349.33000000007,"y":2545432.8000000007}},{"attributes":{"ID":99666,"DIS_CODE":0,"TOWNNAME":"永康區","LI":"王行里","LIN":"1鄰","STREET":"王行路","SECT":" ","MAREA":" ","LANE":" ","ALLEY":" ","HOUSE_NO":"２１６號","E_COORD97":175668.88,"N_COORD97":2548151.1000000001,"ADDRESS":"王行路２１６號","OBJECTID":99666},"geometry":{"x":175668.87999999989,"y":2548151.0999999996}},{"attributes":{"ID":99667,"DIS_CODE":0,"TOWNNAME":"南區","LI":"大恩里","LIN":"5鄰","STREET":"國民路","SECT":" ","MAREA":" ","LANE":" ","ALLEY":" ","HOUSE_NO":"４９號","E_COORD97":169448.09,"N_COORD97":2540864.1299999999,"ADDRESS":"國民路４９號","OBJECTID":99667},"geometry":{"x":169448.08999999985,"y":2540864.129999999}},{"attributes":{"ID":99668,"DIS_CODE":0,"TOWNNAME":"南區","LI":"廣州里","LIN":"14鄰","STREET":"福吉一街","SECT":" ","MAREA":" ","LANE":" ","ALLEY":" ","HOUSE_NO":"７號","E_COORD97":167374.19,"N_COORD97":2542718,"ADDRESS":"福吉一街７號","OBJECTID":99668},"geometry":{"x":167374.19000000041,"y":2542718}},{"attributes":{"ID":99669,"DIS_CODE":0,"TOWNNAME":"永康區","LI":"六合里","LIN":"1鄰","STREET":"新興街","SECT":" ","MAREA":" ","LANE":" ","ALLEY":" ","HOUSE_NO":"６之１號地下一層之３","E_COORD97":170935.45999999999,"N_COORD97":2545719.7999999998,"ADDRESS":"新興街６之１號地下一層之３","OBJECTID":99669},"geometry":{"x":170935.45999999996,"y":2545719.8000000026}},{"attributes":{"ID":99670,"DIS_CODE":0,"TOWNNAME":"永康區","LI":"北灣里","LIN":"1鄰","STREET":"大同街","SECT":" ","MAREA":" ","LANE":" ","ALLEY":" ","HOUSE_NO":"５６號","E_COORD97":175235.17000000001,"N_COORD97":2545440.7799999998,"ADDRESS":"大同街５６號","OBJECTID":99670},"geometry":{"x":175235.16999999899,"y":2545440.7799999993}},{"attributes":{"ID":99671,"DIS_CODE":0,"TOWNNAME":"永康區","LI":"五王里","LIN":"1鄰","STREET":"中華二路","SECT":" ","MAREA":" ","LANE":" ","ALLEY":" ","HOUSE_NO":"１９６號","E_COORD97":171616.70999999999,"N_COORD97":2545441.2400000002,"ADDRESS":"中華二路１９６號","OBJECTID":99671},"geometry":{"x":171616.70999999996,"y":2545441.2400000021}},{"attributes":{"ID":99672,"DIS_CODE":0,"TOWNNAME":"永康區","LI":"六合里","LIN":"1鄰","STREET":"新興街","SECT":" ","MAREA":" ","LANE":" ","ALLEY":" ","HOUSE_NO":"８號地下一層之２","E_COORD97":170925.20999999999,"N_COORD97":2545756.79,"ADDRESS":"新興街８號地下一層之２","OBJECTID":99672},"geometry":{"x":170925.20999999996,"y":2545756.7899999991}},{"attributes":{"ID":99673,"DIS_CODE":0,"TOWNNAME":"永康區","LI":"六合里","LIN":"1鄰","STREET":"新興街","SECT":" ","MAREA":" ","LANE":" ","ALLEY":" ","HOUSE_NO":"１０號","E_COORD97":170912.51000000001,"N_COORD97":2545772.4399999999,"ADDRESS":"新興街１０號","OBJECTID":99673},"geometry":{"x":170912.51000000071,"y":2545772.4399999995}},{"attributes":{"ID":99674,"DIS_CODE":0,"TOWNNAME":"南區","LI":"廣州里","LIN":"11鄰","STREET":"健民街","SECT":" ","MAREA":" ","LANE":" ","ALLEY":" ","HOUSE_NO":"２號","E_COORD97":167410.92000000001,"N_COORD97":2542763.96,"ADDRESS":"健民街２號","OBJECTID":99674},"geometry":{"x":167410.92000000086,"y":2542763.9600000009}},{"attributes":{"ID":99675,"DIS_CODE":0,"TOWNNAME":"南區","LI":"郡南里","LIN":"22鄰","STREET":"永興三街","SECT":" ","MAREA":" ","LANE":" ","ALLEY":" ","HOUSE_NO":"７９號","E_COORD97":167270.04000000001,"N_COORD97":2540588.54,"ADDRESS":"永興三街７９號","OBJECTID":99675},"geometry":{"x":167270.04000000004,"y":2540588.5400000028}},{"attributes":{"ID":99676,"DIS_CODE":0,"TOWNNAME":"新市區","LI":"潭頂里","LIN":"1鄰","STREET":" ","SECT":" ","MAREA":"潭頂","LANE":" ","ALLEY":" ","HOUSE_NO":"１２之２９號","E_COORD97":181430.70000000001,"N_COORD97":2552561.2999999998,"ADDRESS":"潭頂１２之２９號","OBJECTID":99676},"geometry":{"x":181430.70000000019,"y":2552561.3000000026}},{"attributes":{"ID":99677,"DIS_CODE":0,"TOWNNAME":"新市區","LI":"潭頂里","LIN":"1鄰","STREET":" ","SECT":" ","MAREA":"潭頂","LANE":" ","ALLEY":" ","HOUSE_NO":"１８號","E_COORD97":181267.89000000001,"N_COORD97":2552610.75,"ADDRESS":"潭頂１８號","OBJECTID":99677},"geometry":{"x":181267.88999999966,"y":2552610.7500000019}},{"attributes":{"ID":99678,"DIS_CODE":0,"TOWNNAME":"新市區","LI":"潭頂里","LIN":"1鄰","STREET":" ","SECT":" ","MAREA":"潭頂","LANE":" ","ALLEY":" ","HOUSE_NO":"１７號","E_COORD97":181305.14999999999,"N_COORD97":2552603.75,"ADDRESS":"潭頂１７號","OBJECTID":99678},"geometry":{"x":181305.1500000013,"y":2552603.7500000037}},{"attributes":{"ID":99679,"DIS_CODE":0,"TOWNNAME":"新市區","LI":"豐華里","LIN":"1鄰","STREET":" ","SECT":" ","MAREA":"豐華","LANE":" ","ALLEY":" ","HOUSE_NO":"１之３號","E_COORD97":173931.20000000001,"N_COORD97":2554101.5499999998,"ADDRESS":"豐華１之３號","OBJECTID":99679},"geometry":{"x":173931.20000000019,"y":2554101.5500000026}},{"attributes":{"ID":99680,"DIS_CODE":0,"TOWNNAME":"南區","LI":"文南里","LIN":"21鄰","STREET":"中華西路","SECT":"一段","MAREA":" ","LANE":"１３７巷","ALLEY":"２０弄","HOUSE_NO":"２之１號","E_COORD97":166465.14954700001,"N_COORD97":2542503.5899499999,"ADDRESS":"中華西路一段１３７巷２０弄２之１號","OBJECTID":99680},"geometry":{"x":166465.14954700042,"y":2542503.5899480004}},{"attributes":{"ID":99681,"DIS_CODE":0,"TOWNNAME":"新市區","LI":"豐華里","LIN":"1鄰","STREET":" ","SECT":" ","MAREA":"豐華","LANE":" ","ALLEY":" ","HOUSE_NO":"５之１號","E_COORD97":173852.56,"N_COORD97":2553955.2999999998,"ADDRESS":"豐華５之１號","OBJECTID":99681},"geometry":{"x":173852.56000000052,"y":2553955.3000000007}},{"attributes":{"ID":99682,"DIS_CODE":0,"TOWNNAME":"歸仁區","LI":"大潭里","LIN":"21鄰","STREET":"長榮路","SECT":"二段","MAREA":" ","LANE":"９０巷","ALLEY":"４１弄","HOUSE_NO":"３６０號","E_COORD97":176984.752029,"N_COORD97":2533961.2317599999,"ADDRESS":"長榮路二段９０巷４１弄３６０號","OBJECTID":99682},"geometry":{"x":176984.75202900078,"y":2533961.2317639999}},{"attributes":{"ID":99683,"DIS_CODE":0,"TOWNNAME":"安南區","LI":"理想里","LIN":"21鄰","STREET":"大安街","SECT":" ","MAREA":" ","LANE":"４６１巷","ALLEY":"３７弄","HOUSE_NO":"２２之１號","E_COORD97":167232.92035,"N_COORD97":2548620.8257399998,"ADDRESS":"大安街４６１巷３７弄２２之１號","OBJECTID":99683},"geometry":{"x":167232.92035000119,"y":2548620.8257350009}},{"attributes":{"ID":99684,"DIS_CODE":0,"TOWNNAME":"安南區","LI":"理想里","LIN":"21鄰","STREET":"大安街","SECT":" ","MAREA":" ","LANE":"４６１巷","ALLEY":"３７弄","HOUSE_NO":"２２之２號","E_COORD97":167236.310971,"N_COORD97":2548626.32907,"ADDRESS":"大安街４６１巷３７弄２２之２號","OBJECTID":99684},"geometry":{"x":167236.31097100023,"y":2548626.3290650044}},{"attributes":{"ID":99685,"DIS_CODE":0,"TOWNNAME":"安南區","LI":"理想里","LIN":"21鄰","STREET":"大安街","SECT":" ","MAREA":" ","LANE":"４６１巷","ALLEY":"３７弄","HOUSE_NO":"２２之６號","E_COORD97":167246.05900800001,"N_COORD97":2548641.7807200002,"ADDRESS":"大安街４６１巷３７弄２２之６號","OBJECTID":99685},"geometry":{"x":167246.05900800135,"y":2548641.7807230037}},{"attributes":{"ID":99686,"DIS_CODE":0,"TOWNNAME":"東區","LI":"仁和里","LIN":"13鄰","STREET":"仁和路","SECT":" ","MAREA":" ","LANE":"１３９巷","ALLEY":"５１弄","HOUSE_NO":"４５號之１０","E_COORD97":171694.87,"N_COORD97":2541233.98,"ADDRESS":"仁和路１３９巷５１弄４５號之１０","OBJECTID":99686},"geometry":{"x":171694.87000000104,"y":2541233.9800000004}},{"attributes":{"ID":99687,"DIS_CODE":0,"TOWNNAME":"永康區","LI":"烏竹里","LIN":"21鄰","STREET":"自強路","SECT":" ","MAREA":" ","LANE":"７７３巷","ALLEY":"２弄","HOUSE_NO":"７號","E_COORD97":174494.20000000001,"N_COORD97":2548628.27,"ADDRESS":"自強路７７３巷２弄７號","OBJECTID":99687},"geometry":{"x":174494.20000000019,"y":2548628.2699999996}},{"attributes":{"ID":99688,"DIS_CODE":0,"TOWNNAME":"新市區","LI":"三舍里","LIN":"1鄰","STREET":" ","SECT":" ","MAREA":"三舍","LANE":" ","ALLEY":" ","HOUSE_NO":"１之１０號","E_COORD97":177826.07000000001,"N_COORD97":2553845.2400000002,"ADDRESS":"三舍１之１０號","OBJECTID":99688},"geometry":{"x":177826.0700000003,"y":2553845.2400000021}},{"attributes":{"ID":99689,"DIS_CODE":0,"TOWNNAME":"新市區","LI":"三舍里","LIN":"1鄰","STREET":" ","SECT":" ","MAREA":"三舍","LANE":" ","ALLEY":" ","HOUSE_NO":"１９之１號","E_COORD97":177743.51000000001,"N_COORD97":2554277.79,"ADDRESS":"三舍１９之１號","OBJECTID":99689},"geometry":{"x":177743.51000000071,"y":2554277.790000001}},{"attributes":{"ID":99690,"DIS_CODE":0,"TOWNNAME":"新市區","LI":"三舍里","LIN":"1鄰","STREET":" ","SECT":" ","MAREA":"三舍","LANE":" ","ALLEY":" ","HOUSE_NO":"１９之３號","E_COORD97":177716.84,"N_COORD97":2554264.1000000001,"ADDRESS":"三舍１９之３號","OBJECTID":99690},"geometry":{"x":177716.83999999985,"y":2554264.0999999996}},{"attributes":{"ID":99691,"DIS_CODE":0,"TOWNNAME":"東區","LI":"崇明里","LIN":"21鄰","STREET":"中華東路","SECT":"三段","MAREA":" ","LANE":"３９９巷","ALLEY":"１１弄","HOUSE_NO":"１０號","E_COORD97":170123.26999999999,"N_COORD97":2541514.3300000001,"ADDRESS":"中華東路三段３９９巷１１弄１０號","OBJECTID":99691},"geometry":{"x":170123.27000000142,"y":2541514.3300000019}},{"attributes":{"ID":99692,"DIS_CODE":0,"TOWNNAME":"東區","LI":"崇明里","LIN":"21鄰","STREET":"中華東路","SECT":"三段","MAREA":" ","LANE":"３９９巷","ALLEY":"１１弄","HOUSE_NO":"１２號","E_COORD97":170141.64000000001,"N_COORD97":2541517.96,"ADDRESS":"中華東路三段３９９巷１１弄１２號","OBJECTID":99692},"geometry":{"x":170141.6400000006,"y":2541517.9600000028}},{"attributes":{"ID":99693,"DIS_CODE":0,"TOWNNAME":"東區","LI":"崇明里","LIN":"21鄰","STREET":"中華東路","SECT":"三段","MAREA":" ","LANE":"３９９巷","ALLEY":"１１弄","HOUSE_NO":"１６號","E_COORD97":170158.63,"N_COORD97":2541521.9500000002,"ADDRESS":"中華東路三段３９９巷１１弄１６號","OBJECTID":99693},"geometry":{"x":170158.63000000082,"y":2541521.950000003}},{"attributes":{"ID":99694,"DIS_CODE":0,"TOWNNAME":"永康區","LI":"六合里","LIN":"1鄰","STREET":"新興街","SECT":" ","MAREA":" ","LANE":" ","ALLEY":" ","HOUSE_NO":"８之２號地下一層之７","E_COORD97":170941.35000000001,"N_COORD97":2545746.29,"ADDRESS":"新興街８之２號地下一層之７","OBJECTID":99694},"geometry":{"x":170941.3499999987,"y":2545746.2899999991}},{"attributes":{"ID":99695,"DIS_CODE":0,"TOWNNAME":"新市區","LI":"三舍里","LIN":"1鄰","STREET":" ","SECT":" ","MAREA":"三舍","LANE":" ","ALLEY":" ","HOUSE_NO":"３５之３號","E_COORD97":177908.60999999999,"N_COORD97":2554271.1499999999,"ADDRESS":"三舍３５之３號","OBJECTID":99695},"geometry":{"x":177908.61000000034,"y":2554271.1500000004}},{"attributes":{"ID":99696,"DIS_CODE":0,"TOWNNAME":"永康區","LI":"北灣里","LIN":"1鄰","STREET":"大同街","SECT":" ","MAREA":" ","LANE":" ","ALLEY":" ","HOUSE_NO":"６號","E_COORD97":175331.45000000001,"N_COORD97":2545420.96,"ADDRESS":"大同街６號","OBJECTID":99696},"geometry":{"x":175331.45000000019,"y":2545420.9600000009}},{"attributes":{"ID":99697,"DIS_CODE":0,"TOWNNAME":"新市區","LI":"大社里","LIN":"1鄰","STREET":" ","SECT":" ","MAREA":"大社","LANE":" ","ALLEY":" ","HOUSE_NO":"１２５之１號","E_COORD97":180305.23000000001,"N_COORD97":2554253.6899999999,"ADDRESS":"大社１２５之１號","OBJECTID":99697},"geometry":{"x":180305.23000000045,"y":2554253.6899999995}},{"attributes":{"ID":99698,"DIS_CODE":0,"TOWNNAME":"新市區","LI":"新和里","LIN":"1鄰","STREET":"中華路","SECT":" ","MAREA":" ","LANE":" ","ALLEY":" ","HOUSE_NO":"５號","E_COORD97":177272.42999999999,"N_COORD97":2552009,"ADDRESS":"中華路５號","OBJECTID":99698},"geometry":{"x":177272.42999999877,"y":2552009.0000000019}},{"attributes":{"ID":99699,"DIS_CODE":0,"TOWNNAME":"安定區","LI":"港尾里","LIN":"10鄰","STREET":" ","SECT":" ","MAREA":"港子尾","LANE":" ","ALLEY":" ","HOUSE_NO":"５６之３３號","E_COORD97":171699.60999999999,"N_COORD97":2555740.5899999999,"ADDRESS":"港子尾５６之３３號","OBJECTID":99699},"geometry":{"x":171699.61000000034,"y":2555740.5900000036}},{"attributes":{"ID":99700,"DIS_CODE":0,"TOWNNAME":"新市區","LI":"大社里","LIN":"1鄰","STREET":" ","SECT":" ","MAREA":"大社","LANE":" ","ALLEY":" ","HOUSE_NO":"１２５之２號","E_COORD97":180301.29999999999,"N_COORD97":2554251.02,"ADDRESS":"大社１２５之２號","OBJECTID":99700},"geometry":{"x":180301.30000000075,"y":2554251.0199999996}},{"attributes":{"ID":99701,"DIS_CODE":0,"TOWNNAME":"新市區","LI":"大社里","LIN":"1鄰","STREET":" ","SECT":" ","MAREA":"大社","LANE":" ","ALLEY":" ","HOUSE_NO":"１２５之３號","E_COORD97":180297.51999999999,"N_COORD97":2554248.8700000001,"ADDRESS":"大社１２５之３號","OBJECTID":99701},"geometry":{"x":180297.51999999955,"y":2554248.8700000029}},{"attributes":{"ID":99702,"DIS_CODE":0,"TOWNNAME":"新市區","LI":"大社里","LIN":"1鄰","STREET":" ","SECT":" ","MAREA":"大社","LANE":" ","ALLEY":" ","HOUSE_NO":"１２５之５號","E_COORD97":180293.73999999999,"N_COORD97":2554246.9300000002,"ADDRESS":"大社１２５之５號","OBJECTID":99702},"geometry":{"x":180293.74000000115,"y":2554246.9300000016}},{"attributes":{"ID":99703,"DIS_CODE":0,"TOWNNAME":"新市區","LI":"大社里","LIN":"1鄰","STREET":" ","SECT":" ","MAREA":"大社","LANE":" ","ALLEY":" ","HOUSE_NO":"１２５之６號","E_COORD97":180289.85999999999,"N_COORD97":2554244.2999999998,"ADDRESS":"大社１２５之６號","OBJECTID":99703},"geometry":{"x":180289.86000000127,"y":2554244.3000000007}},{"attributes":{"ID":99704,"DIS_CODE":0,"TOWNNAME":"新市區","LI":"大社里","LIN":"1鄰","STREET":" ","SECT":" ","MAREA":"大社","LANE":" ","ALLEY":" ","HOUSE_NO":"１２５之７號","E_COORD97":180286.98999999999,"N_COORD97":2554263.8900000001,"ADDRESS":"大社１２５之７號","OBJECTID":99704},"geometry":{"x":180286.99000000115,"y":2554263.8900000006}},{"attributes":{"ID":99705,"DIS_CODE":0,"TOWNNAME":"新市區","LI":"大社里","LIN":"1鄰","STREET":" ","SECT":" ","MAREA":"大社","LANE":" ","ALLEY":" ","HOUSE_NO":"１２５之８號","E_COORD97":180284.41,"N_COORD97":2554267.8599999999,"ADDRESS":"大社１２５之８號","OBJECTID":99705},"geometry":{"x":180284.41000000108,"y":2554267.8600000013}},{"attributes":{"ID":99706,"DIS_CODE":0,"TOWNNAME":"新市區","LI":"永就里","LIN":"1鄰","STREET":" ","SECT":" ","MAREA":"永就","LANE":" ","ALLEY":" ","HOUSE_NO":"１３之１０號","E_COORD97":178359.97,"N_COORD97":2551282.7000000002,"ADDRESS":"永就１３之１０號","OBJECTID":99706},"geometry":{"x":178359.96999999974,"y":2551282.6999999993}},{"attributes":{"ID":99707,"DIS_CODE":0,"TOWNNAME":"新市區","LI":"永就里","LIN":"1鄰","STREET":" ","SECT":" ","MAREA":"永就","LANE":" ","ALLEY":" ","HOUSE_NO":"１３之１１號","E_COORD97":178354.48000000001,"N_COORD97":2551282.6499999999,"ADDRESS":"永就１３之１１號","OBJECTID":99707},"geometry":{"x":178354.48000000231,"y":2551282.6500000041}},{"attributes":{"ID":99708,"DIS_CODE":0,"TOWNNAME":"新市區","LI":"永就里","LIN":"1鄰","STREET":" ","SECT":" ","MAREA":"永就","LANE":" ","ALLEY":" ","HOUSE_NO":"１３之１２號","E_COORD97":178349,"N_COORD97":2551282.4399999999,"ADDRESS":"永就１３之１２號","OBJECTID":99708},"geometry":{"x":178349.00000000093,"y":2551282.4399999995}},{"attributes":{"ID":99709,"DIS_CODE":0,"TOWNNAME":"新市區","LI":"永就里","LIN":"1鄰","STREET":" ","SECT":" ","MAREA":"永就","LANE":" ","ALLEY":" ","HOUSE_NO":"１３之１３號","E_COORD97":178343.76999999999,"N_COORD97":2551282.23,"ADDRESS":"永就１３之１３號","OBJECTID":99709},"geometry":{"x":178343.77000000048,"y":2551282.2300000042}},{"attributes":{"ID":99710,"DIS_CODE":0,"TOWNNAME":"新市區","LI":"永就里","LIN":"1鄰","STREET":" ","SECT":" ","MAREA":"永就","LANE":" ","ALLEY":" ","HOUSE_NO":"１３之５號","E_COORD97":178366.44,"N_COORD97":2551275.6899999999,"ADDRESS":"永就１３之５號","OBJECTID":99710},"geometry":{"x":178366.44000000041,"y":2551275.6900000013}},{"attributes":{"ID":99711,"DIS_CODE":0,"TOWNNAME":"新市區","LI":"永就里","LIN":"1鄰","STREET":" ","SECT":" ","MAREA":"永就","LANE":" ","ALLEY":" ","HOUSE_NO":"１３之６號","E_COORD97":178356.14999999999,"N_COORD97":2551275.46,"ADDRESS":"永就１３之６號","OBJECTID":99711},"geometry":{"x":178356.15000000037,"y":2551275.4600000028}},{"attributes":{"ID":99712,"DIS_CODE":0,"TOWNNAME":"新市區","LI":"永就里","LIN":"1鄰","STREET":" ","SECT":" ","MAREA":"永就","LANE":" ","ALLEY":" ","HOUSE_NO":"１３之７號","E_COORD97":178345.89000000001,"N_COORD97":2551275.3100000001,"ADDRESS":"永就１３之７號","OBJECTID":99712},"geometry":{"x":178345.89000000153,"y":2551275.3100000024}},{"attributes":{"ID":99713,"DIS_CODE":0,"TOWNNAME":"新市區","LI":"永就里","LIN":"1鄰","STREET":" ","SECT":" ","MAREA":"永就","LANE":" ","ALLEY":" ","HOUSE_NO":"１３之８號","E_COORD97":178369.92999999999,"N_COORD97":2551283.6200000001,"ADDRESS":"永就１３之８號","OBJECTID":99713},"geometry":{"x":178369.93000000063,"y":2551283.6200000029}},{"attributes":{"ID":99714,"DIS_CODE":0,"TOWNNAME":"新市區","LI":"永就里","LIN":"1鄰","STREET":" ","SECT":" ","MAREA":"永就","LANE":" ","ALLEY":" ","HOUSE_NO":"１３之９號","E_COORD97":178364.28,"N_COORD97":2551283.1600000001,"ADDRESS":"永就１３之９號","OBJECTID":99714},"geometry":{"x":178364.28000000212,"y":2551283.160000002}},{"attributes":{"ID":99715,"DIS_CODE":0,"TOWNNAME":"新市區","LI":"社內里","LIN":"1鄰","STREET":" ","SECT":" ","MAREA":"社內","LANE":" ","ALLEY":" ","HOUSE_NO":"２之１１號","E_COORD97":176947.13,"N_COORD97":2553021.6899999999,"ADDRESS":"社內２之１１號","OBJECTID":99715},"geometry":{"x":176947.12999999989,"y":2553021.6900000013}},{"attributes":{"ID":99716,"DIS_CODE":0,"TOWNNAME":"新市區","LI":"社內里","LIN":"1鄰","STREET":" ","SECT":" ","MAREA":"社內","LANE":" ","ALLEY":" ","HOUSE_NO":"７之６號","E_COORD97":176869.20000000001,"N_COORD97":2552965.5600000001,"ADDRESS":"社內７之６號","OBJECTID":99716},"geometry":{"x":176869.20000000019,"y":2552965.5600000024}},{"attributes":{"ID":99717,"DIS_CODE":0,"TOWNNAME":"新市區","LI":"潭頂里","LIN":"1鄰","STREET":" ","SECT":" ","MAREA":"潭頂","LANE":" ","ALLEY":" ","HOUSE_NO":"１１之１０號","E_COORD97":181783.26000000001,"N_COORD97":2552389.2799999998,"ADDRESS":"潭頂１１之１０號","OBJECTID":99717},"geometry":{"x":181783.26000000071,"y":2552389.2800000031}},{"attributes":{"ID":99718,"DIS_CODE":0,"TOWNNAME":"安定區","LI":"港尾里","LIN":"10鄰","STREET":" ","SECT":" ","MAREA":"港子尾","LANE":" ","ALLEY":" ","HOUSE_NO":"５６之３５號","E_COORD97":171689.84,"N_COORD97":2555677.1600000001,"ADDRESS":"港子尾５６之３５號","OBJECTID":99718},"geometry":{"x":171689.84000000078,"y":2555677.160000002}},{"attributes":{"ID":99719,"DIS_CODE":0,"TOWNNAME":"新市區","LI":"三舍里","LIN":"10鄰","STREET":" ","SECT":" ","MAREA":"三舍","LANE":" ","ALLEY":" ","HOUSE_NO":"２４７之１號","E_COORD97":177783.70000000001,"N_COORD97":2555619.0499999998,"ADDRESS":"三舍２４７之１號","OBJECTID":99719},"geometry":{"x":177783.70000000112,"y":2555619.0500000007}},{"attributes":{"ID":99720,"DIS_CODE":0,"TOWNNAME":"安定區","LI":"蘇林里","LIN":"10鄰","STREET":" ","SECT":" ","MAREA":"蘇厝","LANE":" ","ALLEY":" ","HOUSE_NO":"１０８之１號","E_COORD97":173613.91,"N_COORD97":2558792.5600000001,"ADDRESS":"蘇厝１０８之１號","OBJECTID":99720},"geometry":{"x":173613.91000000108,"y":2558792.5600000005}},{"attributes":{"ID":99721,"DIS_CODE":0,"TOWNNAME":"安定區","LI":"蘇林里","LIN":"10鄰","STREET":" ","SECT":" ","MAREA":"蘇厝","LANE":" ","ALLEY":" ","HOUSE_NO":"１１１之２２號","E_COORD97":173691.98000000001,"N_COORD97":2558842.6099999999,"ADDRESS":"蘇厝１１１之２２號","OBJECTID":99721},"geometry":{"x":173691.98000000045,"y":2558842.6100000013}},{"attributes":{"ID":99722,"DIS_CODE":0,"TOWNNAME":"安定區","LI":"蘇林里","LIN":"10鄰","STREET":" ","SECT":" ","MAREA":"蘇厝","LANE":" ","ALLEY":" ","HOUSE_NO":"１１１之２３號","E_COORD97":173702.62,"N_COORD97":2558844.3100000001,"ADDRESS":"蘇厝１１１之２３號","OBJECTID":99722},"geometry":{"x":173702.62000000011,"y":2558844.3100000005}},{"attributes":{"ID":99723,"DIS_CODE":0,"TOWNNAME":"安定區","LI":"蘇林里","LIN":"10鄰","STREET":" ","SECT":" ","MAREA":"蘇厝","LANE":" ","ALLEY":" ","HOUSE_NO":"１１１之２５號","E_COORD97":173709.67000000001,"N_COORD97":2558846.21,"ADDRESS":"蘇厝１１１之２５號","OBJECTID":99723},"geometry":{"x":173709.67000000179,"y":2558846.2100000009}},{"attributes":{"ID":99724,"DIS_CODE":0,"TOWNNAME":"柳營區","LI":"神農里","LIN":"10鄰","STREET":" ","SECT":" ","MAREA":"果毅後","LANE":" ","ALLEY":" ","HOUSE_NO":"３２５號","E_COORD97":185423.51000000001,"N_COORD97":2573023.96,"ADDRESS":"果毅後３２５號","OBJECTID":99724},"geometry":{"x":185423.50999999978,"y":2573023.9600000028}},{"attributes":{"ID":99725,"DIS_CODE":0,"TOWNNAME":"東區","LI":"崇明里","LIN":"21鄰","STREET":"中華東路","SECT":"三段","MAREA":" ","LANE":"３９９巷","ALLEY":"１１弄","HOUSE_NO":"１８號","E_COORD97":170173.70999999999,"N_COORD97":2541525.9300000002,"ADDRESS":"中華東路三段３９９巷１１弄１８號","OBJECTID":99725},"geometry":{"x":170173.71000000089,"y":2541525.9300000034}},{"attributes":{"ID":99726,"DIS_CODE":0,"TOWNNAME":"東區","LI":"崇明里","LIN":"21鄰","STREET":"中華東路","SECT":"三段","MAREA":" ","LANE":"３９９巷","ALLEY":"１１弄","HOUSE_NO":"２號","E_COORD97":170079.60000000001,"N_COORD97":2541505.8399999999,"ADDRESS":"中華東路三段３９９巷１１弄２號","OBJECTID":99726},"geometry":{"x":170079.59999999963,"y":2541505.8399999999}},{"attributes":{"ID":99727,"DIS_CODE":0,"TOWNNAME":"東區","LI":"崇明里","LIN":"21鄰","STREET":"中華東路","SECT":"三段","MAREA":" ","LANE":"３９９巷","ALLEY":"１１弄","HOUSE_NO":"６號","E_COORD97":170092.94,"N_COORD97":2541508.4399999999,"ADDRESS":"中華東路三段３９９巷１１弄６號","OBJECTID":99727},"geometry":{"x":170092.94000000134,"y":2541508.4400000032}},{"attributes":{"ID":99728,"DIS_CODE":0,"TOWNNAME":"東區","LI":"崇明里","LIN":"21鄰","STREET":"中華東路","SECT":"三段","MAREA":" ","LANE":"３９９巷","ALLEY":"１１弄","HOUSE_NO":"８號","E_COORD97":170107.67000000001,"N_COORD97":2541511.0299999998,"ADDRESS":"中華東路三段３９９巷１１弄８號","OBJECTID":99728},"geometry":{"x":170107.67000000086,"y":2541511.0300000031}},{"attributes":{"ID":99729,"DIS_CODE":0,"TOWNNAME":"東區","LI":"崇明里","LIN":"21鄰","STREET":"中華東路","SECT":"三段","MAREA":" ","LANE":"３９９巷","ALLEY":"２１弄","HOUSE_NO":"１１號","E_COORD97":170186.17999999999,"N_COORD97":2541492.3300000001,"ADDRESS":"中華東路三段３９９巷２１弄１１號","OBJECTID":99729},"geometry":{"x":170186.1799999997,"y":2541492.3300000001}},{"attributes":{"ID":99730,"DIS_CODE":0,"TOWNNAME":"東區","LI":"崇明里","LIN":"21鄰","STREET":"中華東路","SECT":"三段","MAREA":" ","LANE":"３９９巷","ALLEY":"２１弄","HOUSE_NO":"１號","E_COORD97":170088.78,"N_COORD97":2541471.7200000002,"ADDRESS":"中華東路三段３９９巷２１弄１號","OBJECTID":99730},"geometry":{"x":170088.78000000119,"y":2541471.7200000025}},{"attributes":{"ID":99731,"DIS_CODE":0,"TOWNNAME":"東區","LI":"崇明里","LIN":"21鄰","STREET":"中華東路","SECT":"三段","MAREA":" ","LANE":"３９９巷","ALLEY":"２１弄","HOUSE_NO":"３號","E_COORD97":170111.31,"N_COORD97":2541475.7000000002,"ADDRESS":"中華東路三段３９９巷２１弄３號","OBJECTID":99731},"geometry":{"x":170111.31000000052,"y":2541475.6999999974}},{"attributes":{"ID":99732,"DIS_CODE":0,"TOWNNAME":"東區","LI":"崇明里","LIN":"21鄰","STREET":"中華東路","SECT":"三段","MAREA":" ","LANE":"３９９巷","ALLEY":"２１弄","HOUSE_NO":"５號","E_COORD97":170123.19,"N_COORD97":2541480.21,"ADDRESS":"中華東路三段３９９巷２１弄５號","OBJECTID":99732},"geometry":{"x":170123.19000000134,"y":2541480.2100000009}},{"attributes":{"ID":99733,"DIS_CODE":0,"TOWNNAME":"東區","LI":"崇明里","LIN":"21鄰","STREET":"中華東路","SECT":"三段","MAREA":" ","LANE":"３９９巷","ALLEY":"２１弄","HOUSE_NO":"７號","E_COORD97":170152.56,"N_COORD97":2541485.3999999999,"ADDRESS":"中華東路三段３９９巷２１弄７號","OBJECTID":99733},"geometry":{"x":170152.56000000052,"y":2541485.4000000004}},{"attributes":{"ID":99734,"DIS_CODE":0,"TOWNNAME":"安定區","LI":"蘇林里","LIN":"10鄰","STREET":" ","SECT":" ","MAREA":"蘇厝","LANE":" ","ALLEY":" ","HOUSE_NO":"１１１之２６號","E_COORD97":173717.73999999999,"N_COORD97":2558846.46,"ADDRESS":"蘇厝１１１之２６號","OBJECTID":99734},"geometry":{"x":173717.74000000022,"y":2558846.4600000028}},{"attributes":{"ID":99735,"DIS_CODE":0,"TOWNNAME":"安定區","LI":"蘇林里","LIN":"10鄰","STREET":" ","SECT":" ","MAREA":"蘇厝","LANE":" ","ALLEY":" ","HOUSE_NO":"１１１之２７號","E_COORD97":173712.62,"N_COORD97":2558856.04,"ADDRESS":"蘇厝１１１之２７號","OBJECTID":99735},"geometry":{"x":173712.62000000104,"y":2558856.0400000028}},{"attributes":{"ID":99736,"DIS_CODE":0,"TOWNNAME":"安定區","LI":"蘇林里","LIN":"10鄰","STREET":" ","SECT":" ","MAREA":"蘇厝","LANE":" ","ALLEY":" ","HOUSE_NO":"１１１之３２號","E_COORD97":173721.92000000001,"N_COORD97":2558823.7999999998,"ADDRESS":"蘇厝１１１之３２號","OBJECTID":99736},"geometry":{"x":173721.92000000086,"y":2558823.8000000007}},{"attributes":{"ID":99737,"DIS_CODE":0,"TOWNNAME":"安定區","LI":"蘇林里","LIN":"10鄰","STREET":" ","SECT":" ","MAREA":"蘇厝","LANE":" ","ALLEY":" ","HOUSE_NO":"１１１之３３號","E_COORD97":173713.01000000001,"N_COORD97":2558824.5800000001,"ADDRESS":"蘇厝１１１之３３號","OBJECTID":99737},"geometry":{"x":173713.01000000071,"y":2558824.5800000001}},{"attributes":{"ID":99738,"DIS_CODE":0,"TOWNNAME":"安定區","LI":"蘇林里","LIN":"10鄰","STREET":" ","SECT":" ","MAREA":"蘇厝","LANE":" ","ALLEY":" ","HOUSE_NO":"１１１之２８號","E_COORD97":173712.41,"N_COORD97":2558866.3900000001,"ADDRESS":"蘇厝１１１之２８號","OBJECTID":99738},"geometry":{"x":173712.41000000108,"y":2558866.3900000025}},{"attributes":{"ID":99739,"DIS_CODE":0,"TOWNNAME":"安定區","LI":"蘇林里","LIN":"10鄰","STREET":" ","SECT":" ","MAREA":"蘇厝","LANE":" ","ALLEY":" ","HOUSE_NO":"１１１之２９號","E_COORD97":173731.32999999999,"N_COORD97":2558864.5099999998,"ADDRESS":"蘇厝１１１之２９號","OBJECTID":99739},"geometry":{"x":173731.33000000101,"y":2558864.5100000016}},{"attributes":{"ID":99740,"DIS_CODE":0,"TOWNNAME":"安定區","LI":"蘇林里","LIN":"10鄰","STREET":" ","SECT":" ","MAREA":"蘇厝","LANE":" ","ALLEY":" ","HOUSE_NO":"１１１之３１號","E_COORD97":173732.73000000001,"N_COORD97":2558827.1499999999,"ADDRESS":"蘇厝１１１之３１號","OBJECTID":99740},"geometry":{"x":173732.73000000045,"y":2558827.1500000022}},{"attributes":{"ID":99741,"DIS_CODE":0,"TOWNNAME":"安定區","LI":"蘇林里","LIN":"10鄰","STREET":" ","SECT":" ","MAREA":"蘇厝","LANE":" ","ALLEY":" ","HOUSE_NO":"１１１之３５號","E_COORD97":173705.35999999999,"N_COORD97":2558825.0600000001,"ADDRESS":"蘇厝１１１之３５號","OBJECTID":99741},"geometry":{"x":173705.3600000022,"y":2558825.0600000024}},{"attributes":{"ID":99742,"DIS_CODE":0,"TOWNNAME":"安定區","LI":"蘇林里","LIN":"10鄰","STREET":" ","SECT":" ","MAREA":"蘇厝","LANE":" ","ALLEY":" ","HOUSE_NO":"１１１之３６號","E_COORD97":173695.44,"N_COORD97":2558822.8799999999,"ADDRESS":"蘇厝１１１之３６號","OBJECTID":99742},"geometry":{"x":173695.44000000134,"y":2558822.8800000027}},{"attributes":{"ID":99743,"DIS_CODE":0,"TOWNNAME":"安定區","LI":"蘇林里","LIN":"10鄰","STREET":" ","SECT":" ","MAREA":"蘇厝","LANE":" ","ALLEY":" ","HOUSE_NO":"１１１之３０號","E_COORD97":173733.67999999999,"N_COORD97":2558848.2000000002,"ADDRESS":"蘇厝１１１之３０號","OBJECTID":99743},"geometry":{"x":173733.68000000063,"y":2558848.200000003}},{"attributes":{"ID":99744,"DIS_CODE":0,"TOWNNAME":"安定區","LI":"安加里","LIN":"10鄰","STREET":" ","SECT":" ","MAREA":"安定","LANE":" ","ALLEY":" ","HOUSE_NO":"２５８之７５號","E_COORD97":171927.40641299999,"N_COORD97":2556819.0324400002,"ADDRESS":"安定２５８之７５號","OBJECTID":99744},"geometry":{"x":171927.40641300194,"y":2556819.0324440002}},{"attributes":{"ID":99745,"DIS_CODE":0,"TOWNNAME":"安定區","LI":"大同里","LIN":"10鄰","STREET":" ","SECT":" ","MAREA":"大同","LANE":" ","ALLEY":" ","HOUSE_NO":"１１５之１２號","E_COORD97":170243.73381100001,"N_COORD97":2553841.3007499999,"ADDRESS":"大同１１５之１２號","OBJECTID":99745},"geometry":{"x":170243.73381100129,"y":2553841.3007460013}},{"attributes":{"ID":99746,"DIS_CODE":0,"TOWNNAME":"安定區","LI":"保西里","LIN":"10鄰","STREET":" ","SECT":" ","MAREA":"安定","LANE":" ","ALLEY":" ","HOUSE_NO":"４２６之１號","E_COORD97":171643.28206100001,"N_COORD97":2557849.3854,"ADDRESS":"安定４２６之１號","OBJECTID":99746},"geometry":{"x":171643.28206100129,"y":2557849.3853970002}},{"attributes":{"ID":99747,"DIS_CODE":0,"TOWNNAME":"安定區","LI":"新吉里","LIN":"10鄰","STREET":" ","SECT":" ","MAREA":"新吉","LANE":" ","ALLEY":" ","HOUSE_NO":"８８之６號","E_COORD97":169308.17787399999,"N_COORD97":2554026.0112999999,"ADDRESS":"新吉８８之６號","OBJECTID":99747},"geometry":{"x":169308.17787399981,"y":2554026.0112980008}},{"attributes":{"ID":99748,"DIS_CODE":0,"TOWNNAME":"安定區","LI":"安加里","LIN":"10鄰","STREET":" ","SECT":" ","MAREA":"安定","LANE":" ","ALLEY":" ","HOUSE_NO":"２５８之７７號","E_COORD97":171849.933487,"N_COORD97":2556972.9195699999,"ADDRESS":"安定２５８之７７號","OBJECTID":99748},"geometry":{"x":171849.93348699994,"y":2556972.9195680022}},{"attributes":{"ID":99749,"DIS_CODE":0,"TOWNNAME":"新市區","LI":"永就里","LIN":"10鄰","STREET":" ","SECT":" ","MAREA":"永就","LANE":" ","ALLEY":" ","HOUSE_NO":"１３９之８號","E_COORD97":177201.85999999999,"N_COORD97":2551384.0499999998,"ADDRESS":"永就１３９之８號","OBJECTID":99749},"geometry":{"x":177201.86000000034,"y":2551384.0500000007}},{"attributes":{"ID":99750,"DIS_CODE":0,"TOWNNAME":"新市區","LI":"社內里","LIN":"10鄰","STREET":" ","SECT":" ","MAREA":"社內","LANE":" ","ALLEY":" ","HOUSE_NO":"１０３號","E_COORD97":176292.10999999999,"N_COORD97":2552880,"ADDRESS":"社內１０３號","OBJECTID":99750},"geometry":{"x":176292.1099999994,"y":2552880.0000000037}},{"attributes":{"ID":99751,"DIS_CODE":0,"TOWNNAME":"新市區","LI":"大營里","LIN":"10鄰","STREET":" ","SECT":" ","MAREA":"大營","LANE":" ","ALLEY":" ","HOUSE_NO":"１９５號","E_COORD97":179588.48000000001,"N_COORD97":2555703.5,"ADDRESS":"大營１９５號","OBJECTID":99751},"geometry":{"x":179588.48000000045,"y":2555703.5}},{"attributes":{"ID":99752,"DIS_CODE":0,"TOWNNAME":"新市區","LI":"豐華里","LIN":"10鄰","STREET":" ","SECT":" ","MAREA":"豐華","LANE":" ","ALLEY":" ","HOUSE_NO":"４７之９號","E_COORD97":174107.17999999999,"N_COORD97":2554436.2999999998,"ADDRESS":"豐華４７之９號","OBJECTID":99752},"geometry":{"x":174107.1799999997,"y":2554436.3000000026}},{"attributes":{"ID":99753,"DIS_CODE":0,"TOWNNAME":"新市區","LI":"大社里","LIN":"10鄰","STREET":" ","SECT":" ","MAREA":"大社","LANE":" ","ALLEY":" ","HOUSE_NO":"３３８號","E_COORD97":180051.07000000001,"N_COORD97":2554452.25,"ADDRESS":"大社３３８號","OBJECTID":99753},"geometry":{"x":180051.07000000123,"y":2554452.2500000019}},{"attributes":{"ID":99754,"DIS_CODE":0,"TOWNNAME":"新市區","LI":"永就里","LIN":"10鄰","STREET":" ","SECT":" ","MAREA":"永就","LANE":" ","ALLEY":" ","HOUSE_NO":"１１１之２號","E_COORD97":177443.84,"N_COORD97":2551577.7999999998,"ADDRESS":"永就１１１之２號","OBJECTID":99754},"geometry":{"x":177443.83999999985,"y":2551577.8000000026}},{"attributes":{"ID":99755,"DIS_CODE":0,"TOWNNAME":"新市區","LI":"港墘里","LIN":"10鄰","STREET":" ","SECT":" ","MAREA":"崙頂","LANE":" ","ALLEY":" ","HOUSE_NO":"６１號","E_COORD97":178945.67999999999,"N_COORD97":2552648.75,"ADDRESS":"崙頂６１號","OBJECTID":99755},"geometry":{"x":178945.68000000156,"y":2552648.7500000019}},{"attributes":{"ID":99756,"DIS_CODE":0,"TOWNNAME":"新市區","LI":"豐華里","LIN":"10鄰","STREET":" ","SECT":" ","MAREA":"豐華","LANE":" ","ALLEY":" ","HOUSE_NO":"４７之２４號","E_COORD97":174130.23000000001,"N_COORD97":2554496.5499999998,"ADDRESS":"豐華４７之２４號","OBJECTID":99756},"geometry":{"x":174130.23000000231,"y":2554496.5500000007}},{"attributes":{"ID":99757,"DIS_CODE":0,"TOWNNAME":"新市區","LI":"潭頂里","LIN":"10鄰","STREET":" ","SECT":" ","MAREA":"潭頂","LANE":" ","ALLEY":" ","HOUSE_NO":"３５８之８號","E_COORD97":180590.98000000001,"N_COORD97":2552832.5499999998,"ADDRESS":"潭頂３５８之８號","OBJECTID":99757},"geometry":{"x":180590.98000000138,"y":2552832.5500000007}},{"attributes":{"ID":99758,"DIS_CODE":0,"TOWNNAME":"新市區","LI":"永就里","LIN":"10鄰","STREET":" ","SECT":" ","MAREA":"永就","LANE":" ","ALLEY":" ","HOUSE_NO":"１３９之２３號","E_COORD97":177198.95000000001,"N_COORD97":2551395.5499999998,"ADDRESS":"永就１３９之２３號","OBJECTID":99758},"geometry":{"x":177198.95000000112,"y":2551395.5500000045}},{"attributes":{"ID":99759,"DIS_CODE":0,"TOWNNAME":"新市區","LI":"永就里","LIN":"10鄰","STREET":" ","SECT":" ","MAREA":"永就","LANE":" ","ALLEY":" ","HOUSE_NO":"１３６之３號","E_COORD97":177287.04000000001,"N_COORD97":2551401.0499999998,"ADDRESS":"永就１３６之３號","OBJECTID":99759},"geometry":{"x":177287.04000000004,"y":2551401.0500000007}},{"attributes":{"ID":99760,"DIS_CODE":0,"TOWNNAME":"新市區","LI":"永就里","LIN":"10鄰","STREET":" ","SECT":" ","MAREA":"永就","LANE":" ","ALLEY":" ","HOUSE_NO":"１３９之２號","E_COORD97":177223.10999999999,"N_COORD97":2551391.7999999998,"ADDRESS":"永就１３９之２號","OBJECTID":99760},"geometry":{"x":177223.11000000127,"y":2551391.8000000026}},{"attributes":{"ID":99761,"DIS_CODE":0,"TOWNNAME":"新市區","LI":"港墘里","LIN":"10鄰","STREET":" ","SECT":" ","MAREA":"崙頂","LANE":" ","ALLEY":" ","HOUSE_NO":"５８之１號","E_COORD97":178882.54000000001,"N_COORD97":2552630.2999999998,"ADDRESS":"崙頂５８之１號","OBJECTID":99761},"geometry":{"x":178882.5400000019,"y":2552630.3000000007}},{"attributes":{"ID":99762,"DIS_CODE":0,"TOWNNAME":"新市區","LI":"永就里","LIN":"10鄰","STREET":" ","SECT":" ","MAREA":"永就","LANE":" ","ALLEY":" ","HOUSE_NO":"１３５號","E_COORD97":177195.81,"N_COORD97":2551351.75,"ADDRESS":"永就１３５號","OBJECTID":99762},"geometry":{"x":177195.81000000052,"y":2551351.75}},{"attributes":{"ID":99763,"DIS_CODE":0,"TOWNNAME":"將軍區","LI":"長沙里","LIN":"10鄰","STREET":" ","SECT":" ","MAREA":"長沙","LANE":" ","ALLEY":" ","HOUSE_NO":"８５號","E_COORD97":157220.17999999999,"N_COORD97":2568663.0299999998,"ADDRESS":"長沙８５號","OBJECTID":99763},"geometry":{"x":157220.18000000156,"y":2568663.0299999993}},{"attributes":{"ID":99764,"DIS_CODE":0,"TOWNNAME":"將軍區","LI":"長沙里","LIN":"10鄰","STREET":" ","SECT":" ","MAREA":"長沙","LANE":" ","ALLEY":" ","HOUSE_NO":"８６之１號","E_COORD97":157229.72,"N_COORD97":2568646.5699999998,"ADDRESS":"長沙８６之１號","OBJECTID":99764},"geometry":{"x":157229.71999999974,"y":2568646.5700000022}},{"attributes":{"ID":99765,"DIS_CODE":0,"TOWNNAME":"將軍區","LI":"長沙里","LIN":"10鄰","STREET":" ","SECT":" ","MAREA":"長沙","LANE":" ","ALLEY":" ","HOUSE_NO":"８６之２號","E_COORD97":157214.56,"N_COORD97":2568640.1600000001,"ADDRESS":"長沙８６之２號","OBJECTID":99765},"geometry":{"x":157214.56000000052,"y":2568640.1600000001}},{"attributes":{"ID":99766,"DIS_CODE":0,"TOWNNAME":"將軍區","LI":"長沙里","LIN":"10鄰","STREET":" ","SECT":" ","MAREA":"長沙","LANE":" ","ALLEY":" ","HOUSE_NO":"８６號","E_COORD97":157215.75,"N_COORD97":2568651.6200000001,"ADDRESS":"長沙８６號","OBJECTID":99766},"geometry":{"x":157215.75000000093,"y":2568651.620000001}},{"attributes":{"ID":99767,"DIS_CODE":0,"TOWNNAME":"將軍區","LI":"長沙里","LIN":"10鄰","STREET":" ","SECT":" ","MAREA":"長沙","LANE":" ","ALLEY":" ","HOUSE_NO":"８７號","E_COORD97":157219.16,"N_COORD97":2568628.3300000001,"ADDRESS":"長沙８７號","OBJECTID":99767},"geometry":{"x":157219.16000000201,"y":2568628.3300000001}},{"attributes":{"ID":99768,"DIS_CODE":0,"TOWNNAME":"將軍區","LI":"長沙里","LIN":"10鄰","STREET":" ","SECT":" ","MAREA":"長沙","LANE":" ","ALLEY":" ","HOUSE_NO":"８８之１號","E_COORD97":157207.32000000001,"N_COORD97":2568607.0099999998,"ADDRESS":"長沙８８之１號","OBJECTID":99768},"geometry":{"x":157207.3200000003,"y":2568607.0099999998}},{"attributes":{"ID":99769,"DIS_CODE":0,"TOWNNAME":"將軍區","LI":"長沙里","LIN":"10鄰","STREET":" ","SECT":" ","MAREA":"長沙","LANE":" ","ALLEY":" ","HOUSE_NO":"８８號","E_COORD97":157211.60999999999,"N_COORD97":2568608.8900000001,"ADDRESS":"長沙８８號","OBJECTID":99769},"geometry":{"x":157211.61000000127,"y":2568608.8900000006}},{"attributes":{"ID":99770,"DIS_CODE":0,"TOWNNAME":"將軍區","LI":"長沙里","LIN":"10鄰","STREET":" ","SECT":" ","MAREA":"長沙","LANE":" ","ALLEY":" ","HOUSE_NO":"８９之１號","E_COORD97":157195.32999999999,"N_COORD97":2568593.5299999998,"ADDRESS":"長沙８９之１號","OBJECTID":99770},"geometry":{"x":157195.33000000007,"y":2568593.5300000031}},{"attributes":{"ID":99771,"DIS_CODE":0,"TOWNNAME":"將軍區","LI":"長榮里","LIN":"10鄰","STREET":" ","SECT":" ","MAREA":"長榮","LANE":" ","ALLEY":" ","HOUSE_NO":"１００號","E_COORD97":163884.64999999999,"N_COORD97":2566288.9199999999,"ADDRESS":"長榮１００號","OBJECTID":99771},"geometry":{"x":163884.65000000037,"y":2566288.9199999999}},{"attributes":{"ID":99772,"DIS_CODE":0,"TOWNNAME":"將軍區","LI":"長榮里","LIN":"10鄰","STREET":" ","SECT":" ","MAREA":"長榮","LANE":" ","ALLEY":" ","HOUSE_NO":"１０１號","E_COORD97":163884.51999999999,"N_COORD97":2566295.52,"ADDRESS":"長榮１０１號","OBJECTID":99772},"geometry":{"x":163884.51999999955,"y":2566295.5200000014}},{"attributes":{"ID":99773,"DIS_CODE":0,"TOWNNAME":"將軍區","LI":"長榮里","LIN":"10鄰","STREET":" ","SECT":" ","MAREA":"長榮","LANE":" ","ALLEY":" ","HOUSE_NO":"１０８之２號","E_COORD97":163838.22,"N_COORD97":2566282.0800000001,"ADDRESS":"長榮１０８之２號","OBJECTID":99773},"geometry":{"x":163838.22000000067,"y":2566282.0800000019}},{"attributes":{"ID":99774,"DIS_CODE":0,"TOWNNAME":"將軍區","LI":"長榮里","LIN":"10鄰","STREET":" ","SECT":" ","MAREA":"長榮","LANE":" ","ALLEY":" ","HOUSE_NO":"１０８之３號","E_COORD97":163838.39000000001,"N_COORD97":2566277.0899999999,"ADDRESS":"長榮１０８之３號","OBJECTID":99774},"geometry":{"x":163838.39000000153,"y":2566277.0899999999}},{"attributes":{"ID":99775,"DIS_CODE":0,"TOWNNAME":"將軍區","LI":"長榮里","LIN":"10鄰","STREET":" ","SECT":" ","MAREA":"長榮","LANE":" ","ALLEY":" ","HOUSE_NO":"１０８之５號","E_COORD97":163842.17000000001,"N_COORD97":2566315.6000000001,"ADDRESS":"長榮１０８之５號","OBJECTID":99775},"geometry":{"x":163842.17000000086,"y":2566315.6000000015}},{"attributes":{"ID":99776,"DIS_CODE":0,"TOWNNAME":"將軍區","LI":"長榮里","LIN":"10鄰","STREET":" ","SECT":" ","MAREA":"長榮","LANE":" ","ALLEY":" ","HOUSE_NO":"１０８號","E_COORD97":163838.16,"N_COORD97":2566291.5899999999,"ADDRESS":"長榮１０８號","OBJECTID":99776},"geometry":{"x":163838.16000000015,"y":2566291.5900000036}},{"attributes":{"ID":99777,"DIS_CODE":0,"TOWNNAME":"將軍區","LI":"長榮里","LIN":"10鄰","STREET":" ","SECT":" ","MAREA":"長榮","LANE":" ","ALLEY":" ","HOUSE_NO":"１０９之１號","E_COORD97":163837.54000000001,"N_COORD97":2566263.1600000001,"ADDRESS":"長榮１０９之１號","OBJECTID":99777},"geometry":{"x":163837.54000000004,"y":2566263.1600000001}},{"attributes":{"ID":99778,"DIS_CODE":0,"TOWNNAME":"東區","LI":"崇明里","LIN":"21鄰","STREET":"中華東路","SECT":"三段","MAREA":" ","LANE":"３９９巷","ALLEY":"２１弄","HOUSE_NO":"９號","E_COORD97":170170.07000000001,"N_COORD97":2541489.9100000001,"ADDRESS":"中華東路三段３９９巷２１弄９號","OBJECTID":99778},"geometry":{"x":170170.07000000123,"y":2541489.910000002}},{"attributes":{"ID":99779,"DIS_CODE":0,"TOWNNAME":"東區","LI":"仁和里","LIN":"13鄰","STREET":"仁和路","SECT":" ","MAREA":" ","LANE":"１３９巷","ALLEY":"５１弄","HOUSE_NO":"４５號之２０","E_COORD97":171677.01999999999,"N_COORD97":2541252.6699999999,"ADDRESS":"仁和路１３９巷５１弄４５號之２０","OBJECTID":99779},"geometry":{"x":171677.01999999955,"y":2541252.6699999999}},{"attributes":{"ID":99780,"DIS_CODE":0,"TOWNNAME":"永康區","LI":"\u25A0行里","LIN":"21鄰","STREET":"正南五街","SECT":" ","MAREA":" ","LANE":"５２０巷","ALLEY":"５６弄","HOUSE_NO":"８號","E_COORD97":171700.57000000001,"N_COORD97":2548771.8199999998,"ADDRESS":"正南五街５２０巷５６弄８號","OBJECTID":99780},"geometry":{"x":171700.57000000123,"y":2548771.8200000003}},{"attributes":{"ID":99781,"DIS_CODE":0,"TOWNNAME":"永康區","LI":"\u25A0行里","LIN":"21鄰","STREET":"正南五街","SECT":" ","MAREA":" ","LANE":"５２０巷","ALLEY":"５６弄","HOUSE_NO":"１５號","E_COORD97":171728.45000000001,"N_COORD97":2548752.1699999999,"ADDRESS":"正南五街５２０巷５６弄１５號","OBJECTID":99781},"geometry":{"x":171728.45000000112,"y":2548752.1699999999}},{"attributes":{"ID":99782,"DIS_CODE":0,"TOWNNAME":"安平區","LI":"金城里","LIN":"9鄰","STREET":"同平路","SECT":" ","MAREA":" ","LANE":"１０８巷","ALLEY":"２３弄","HOUSE_NO":"１７號","E_COORD97":163103.16,"N_COORD97":2544111.46,"ADDRESS":"同平路１０８巷２３弄１７號","OBJECTID":99782},"geometry":{"x":163103.16000000201,"y":2544111.4600000028}},{"attributes":{"ID":99783,"DIS_CODE":0,"TOWNNAME":"將軍區","LI":"長榮里","LIN":"10鄰","STREET":" ","SECT":" ","MAREA":"長榮","LANE":" ","ALLEY":" ","HOUSE_NO":"１０９之２號","E_COORD97":163837.39000000001,"N_COORD97":2566267.6099999999,"ADDRESS":"長榮１０９之２號","OBJECTID":99783},"geometry":{"x":163837.3900000006,"y":2566267.6100000013}},{"attributes":{"ID":99784,"DIS_CODE":0,"TOWNNAME":"將軍區","LI":"長榮里","LIN":"10鄰","STREET":" ","SECT":" ","MAREA":"長榮","LANE":" ","ALLEY":" ","HOUSE_NO":"１１１號","E_COORD97":163847.44,"N_COORD97":2566233.9100000001,"ADDRESS":"長榮１１１號","OBJECTID":99784},"geometry":{"x":163847.44000000227,"y":2566233.9100000001}},{"attributes":{"ID":99785,"DIS_CODE":0,"TOWNNAME":"柳營區","LI":"果毅里","LIN":"10鄰","STREET":" ","SECT":" ","MAREA":"果毅後","LANE":" ","ALLEY":" ","HOUSE_NO":"１２３號","E_COORD97":185616.73999999999,"N_COORD97":2572856.9399999999,"ADDRESS":"果毅後１２３號","OBJECTID":99785},"geometry":{"x":185616.74000000115,"y":2572856.9400000013}},{"attributes":{"ID":99786,"DIS_CODE":0,"TOWNNAME":"柳營區","LI":"果毅里","LIN":"10鄰","STREET":" ","SECT":" ","MAREA":"果毅後","LANE":" ","ALLEY":" ","HOUSE_NO":"１２４號","E_COORD97":185593.79999999999,"N_COORD97":2572840.0299999998,"ADDRESS":"果毅後１２４號","OBJECTID":99786},"geometry":{"x":185593.80000000075,"y":2572840.0299999993}},{"attributes":{"ID":99787,"DIS_CODE":0,"TOWNNAME":"柳營區","LI":"果毅里","LIN":"10鄰","STREET":" ","SECT":" ","MAREA":"果毅後","LANE":" ","ALLEY":" ","HOUSE_NO":"１２６號","E_COORD97":185590.01000000001,"N_COORD97":2572854.3599999999,"ADDRESS":"果毅後１２６號","OBJECTID":99787},"geometry":{"x":185590.00999999978,"y":2572854.3600000013}},{"attributes":{"ID":99788,"DIS_CODE":0,"TOWNNAME":"柳營區","LI":"果毅里","LIN":"10鄰","STREET":" ","SECT":" ","MAREA":"果毅後","LANE":" ","ALLEY":" ","HOUSE_NO":"１２７號","E_COORD97":185592.01000000001,"N_COORD97":2572875.5299999998,"ADDRESS":"果毅後１２７號","OBJECTID":99788},"geometry":{"x":185592.00999999885,"y":2572875.5300000031}},{"attributes":{"ID":99789,"DIS_CODE":0,"TOWNNAME":"柳營區","LI":"果毅里","LIN":"10鄰","STREET":" ","SECT":" ","MAREA":"果毅後","LANE":" ","ALLEY":" ","HOUSE_NO":"１２８號","E_COORD97":185590.97,"N_COORD97":2572867.9199999999,"ADDRESS":"果毅後１２８號","OBJECTID":99789},"geometry":{"x":185590.97000000067,"y":2572867.9200000018}},{"attributes":{"ID":99790,"DIS_CODE":0,"TOWNNAME":"柳營區","LI":"神農里","LIN":"10鄰","STREET":" ","SECT":" ","MAREA":"果毅後","LANE":" ","ALLEY":" ","HOUSE_NO":"３２６號","E_COORD97":185416.42999999999,"N_COORD97":2573021.98,"ADDRESS":"果毅後３２６號","OBJECTID":99790},"geometry":{"x":185416.43000000063,"y":2573021.9800000004}},{"attributes":{"ID":99791,"DIS_CODE":0,"TOWNNAME":"柳營區","LI":"神農里","LIN":"10鄰","STREET":" ","SECT":" ","MAREA":"果毅後","LANE":" ","ALLEY":" ","HOUSE_NO":"３２８號","E_COORD97":185446.07999999999,"N_COORD97":2573002.7400000002,"ADDRESS":"果毅後３２８號","OBJECTID":99791},"geometry":{"x":185446.08000000194,"y":2573002.7400000002}},{"attributes":{"ID":99792,"DIS_CODE":0,"TOWNNAME":"柳營區","LI":"神農里","LIN":"10鄰","STREET":" ","SECT":" ","MAREA":"果毅後","LANE":" ","ALLEY":" ","HOUSE_NO":"３２９號","E_COORD97":185442.78,"N_COORD97":2573014.2200000002,"ADDRESS":"果毅後３２９號","OBJECTID":99792},"geometry":{"x":185442.78000000026,"y":2573014.2200000007}},{"attributes":{"ID":99793,"DIS_CODE":0,"TOWNNAME":"柳營區","LI":"神農里","LIN":"10鄰","STREET":" ","SECT":" ","MAREA":"果毅後","LANE":" ","ALLEY":" ","HOUSE_NO":"３３０之１號","E_COORD97":185462.23000000001,"N_COORD97":2573021.0499999998,"ADDRESS":"果毅後３３０之１號","OBJECTID":99793},"geometry":{"x":185462.23000000045,"y":2573021.0500000007}},{"attributes":{"ID":99794,"DIS_CODE":0,"TOWNNAME":"柳營區","LI":"神農里","LIN":"10鄰","STREET":" ","SECT":" ","MAREA":"果毅後","LANE":" ","ALLEY":" ","HOUSE_NO":"３３０號之１","E_COORD97":185462.23000000001,"N_COORD97":2573021.0499999998,"ADDRESS":"果毅後３３０號之１","OBJECTID":99794},"geometry":{"x":185462.23000000045,"y":2573021.0500000007}},{"attributes":{"ID":99795,"DIS_CODE":0,"TOWNNAME":"柳營區","LI":"神農里","LIN":"10鄰","STREET":" ","SECT":" ","MAREA":"果毅後","LANE":" ","ALLEY":" ","HOUSE_NO":"３３１之１號","E_COORD97":185495.03,"N_COORD97":2573015.5499999998,"ADDRESS":"果毅後３３１之１號","OBJECTID":99795},"geometry":{"x":185495.03000000026,"y":2573015.5500000007}},{"attributes":{"ID":99796,"DIS_CODE":0,"TOWNNAME":"柳營區","LI":"神農里","LIN":"10鄰","STREET":" ","SECT":" ","MAREA":"果毅後","LANE":" ","ALLEY":" ","HOUSE_NO":"３３１之２號","E_COORD97":185484.12,"N_COORD97":2573020.2400000002,"ADDRESS":"果毅後３３１之２號","OBJECTID":99796},"geometry":{"x":185484.12000000011,"y":2573020.2400000002}},{"attributes":{"ID":99797,"DIS_CODE":0,"TOWNNAME":"柳營區","LI":"神農里","LIN":"10鄰","STREET":" ","SECT":" ","MAREA":"果毅後","LANE":" ","ALLEY":" ","HOUSE_NO":"３３１號","E_COORD97":185474.34,"N_COORD97":2573018.1800000002,"ADDRESS":"果毅後３３１號","OBJECTID":99797},"geometry":{"x":185474.33999999985,"y":2573018.1800000016}},{"attributes":{"ID":99798,"DIS_CODE":0,"TOWNNAME":"北區","LI":"大豐里","LIN":"9鄰","STREET":"文賢路","SECT":" ","MAREA":" ","LANE":"３１３巷","ALLEY":"５６弄","HOUSE_NO":"１９號","E_COORD97":167163.63,"N_COORD97":2545332.3700000001,"ADDRESS":"文賢路３１３巷５６弄１９號","OBJECTID":99798},"geometry":{"x":167163.63000000082,"y":2545332.3700000029}},{"attributes":{"ID":99799,"DIS_CODE":0,"TOWNNAME":"東區","LI":"大學里","LIN":"13鄰","STREET":"長榮路","SECT":"三段","MAREA":" ","LANE":"６６巷","ALLEY":"１０弄","HOUSE_NO":"１４號","E_COORD97":170302.64999999999,"N_COORD97":2543772.2799999998,"ADDRESS":"長榮路三段６６巷１０弄１４號","OBJECTID":99799},"geometry":{"x":170302.65000000037,"y":2543772.2800000012}},{"attributes":{"ID":99800,"DIS_CODE":0,"TOWNNAME":"柳營區","LI":"神農里","LIN":"10鄰","STREET":" ","SECT":" ","MAREA":"果毅後","LANE":" ","ALLEY":" ","HOUSE_NO":"３３２號","E_COORD97":185458.19,"N_COORD97":2573004.0600000001,"ADDRESS":"果毅後３３２號","OBJECTID":99800},"geometry":{"x":185458.19000000134,"y":2573004.0600000005}}]}