{"displayFieldName":"TOWNNAME","fieldAliases":{"ID":"ID","DIS_CODE":"DIS_CODE","TOWNNAME":"TOWNNAME","LI":"LI","LIN":"LIN","STREET":"STREET","SECT":"SECT","MAREA":"MAREA","LANE":"LANE","ALLEY":"ALLEY","HOUSE_NO":"HOUSE_NO","E_COORD97":"E_COORD97","N_COORD97":"N_COORD97","ADDRESS":"ADDRESS","OBJECTID":"OBJECTID"},"geometryType":"esriGeometryPoint","spatialReference":{"wkid":102443,"latestWkid":3826},"fields":[{"name":"ID","type":"esriFieldTypeDouble","alias":"ID"},{"name":"DIS_CODE","type":"esriFieldTypeInteger","alias":"DIS_CODE"},{"name":"TOWNNAME","type":"esriFieldTypeString","alias":"TOWNNAME","length":8},{"name":"LI","type":"esriFieldTypeString","alias":"LI","length":8},{"name":"LIN","type":"esriFieldTypeString","alias":"LIN","length":12},{"name":"STREET","type":"esriFieldTypeString","alias":"STREET","length":20},{"name":"SECT","type":"esriFieldTypeString","alias":"SECT","length":8},{"name":"MAREA","type":"esriFieldTypeString","alias":"MAREA","length":12},{"name":"LANE","type":"esriFieldTypeString","alias":"LANE","length":10},{"name":"ALLEY","type":"esriFieldTypeString","alias":"ALLEY","length":10},{"name":"HOUSE_NO","type":"esriFieldTypeString","alias":"HOUSE_NO","length":20},{"name":"E_COORD97","type":"esriFieldTypeDouble","alias":"E_COORD97"},{"name":"N_COORD97","type":"esriFieldTypeDouble","alias":"N_COORD97"},{"name":"ADDRESS","type":"esriFieldTypeString","alias":"ADDRESS","length":50},{"name":"OBJECTID","type":"esriFieldTypeOID","alias":"OBJECTID"}],"features":[{"attributes":{"ID":379811,"DIS_CODE":0,"TOWNNAME":"南區","LI":"府南里","LIN":"21鄰","STREET":"大成路","SECT":"二段","MAREA":" ","LANE":"８１巷","ALLEY":" ","HOUSE_NO":"３６號","E_COORD97":167390.25,"N_COORD97":2541646.5099999998,"ADDRESS":"大成路二段８１巷３６號","OBJECTID":379801},"geometry":{"x":167390.25000000093,"y":2541646.5099999998}},{"attributes":{"ID":379812,"DIS_CODE":0,"TOWNNAME":"南區","LI":"府南里","LIN":"21鄰","STREET":"大成路","SECT":"二段","MAREA":" ","LANE":"８１巷","ALLEY":" ","HOUSE_NO":"３８號","E_COORD97":167387.31,"N_COORD97":2541638.5699999998,"ADDRESS":"大成路二段８１巷３８號","OBJECTID":379802},"geometry":{"x":167387.31000000052,"y":2541638.5700000022}},{"attributes":{"ID":379813,"DIS_CODE":0,"TOWNNAME":"北區","LI":"成德里","LIN":"21鄰","STREET":"育成路","SECT":" ","MAREA":" ","LANE":"２６９巷","ALLEY":" ","HOUSE_NO":"２號","E_COORD97":168572.94,"N_COORD97":2546663.2400000002,"ADDRESS":"育成路２６９巷２號","OBJECTID":379803},"geometry":{"x":168572.94000000041,"y":2546663.2400000002}},{"attributes":{"ID":379814,"DIS_CODE":0,"TOWNNAME":"北區","LI":"成德里","LIN":"21鄰","STREET":"育成路","SECT":" ","MAREA":" ","LANE":"２６９巷","ALLEY":" ","HOUSE_NO":"６號","E_COORD97":168568.85999999999,"N_COORD97":2546660.5899999999,"ADDRESS":"育成路２６９巷６號","OBJECTID":379804},"geometry":{"x":168568.8600000022,"y":2546660.5899999999}},{"attributes":{"ID":379815,"DIS_CODE":0,"TOWNNAME":"北區","LI":"成德里","LIN":"21鄰","STREET":"育成路","SECT":" ","MAREA":" ","LANE":"２６９巷","ALLEY":" ","HOUSE_NO":"８號","E_COORD97":168564.25,"N_COORD97":2546658.1099999999,"ADDRESS":"育成路２６９巷８號","OBJECTID":379805},"geometry":{"x":168564.25000000186,"y":2546658.1100000013}},{"attributes":{"ID":379816,"DIS_CODE":0,"TOWNNAME":"北區","LI":"成德里","LIN":"21鄰","STREET":"育成路","SECT":" ","MAREA":" ","LANE":"２６９巷","ALLEY":" ","HOUSE_NO":"１０號","E_COORD97":168559.47,"N_COORD97":2546655.98,"ADDRESS":"育成路２６９巷１０號","OBJECTID":379806},"geometry":{"x":168559.47000000067,"y":2546655.9800000042}},{"attributes":{"ID":379817,"DIS_CODE":0,"TOWNNAME":"北區","LI":"成德里","LIN":"21鄰","STREET":"育成路","SECT":" ","MAREA":" ","LANE":"２６９巷","ALLEY":" ","HOUSE_NO":"１２號","E_COORD97":168554.67999999999,"N_COORD97":2546653.1499999999,"ADDRESS":"育成路２６９巷１２號","OBJECTID":379807},"geometry":{"x":168554.68000000063,"y":2546653.1500000004}},{"attributes":{"ID":379818,"DIS_CODE":0,"TOWNNAME":"北區","LI":"成德里","LIN":"21鄰","STREET":"育成路","SECT":" ","MAREA":" ","LANE":"２６９巷","ALLEY":" ","HOUSE_NO":"１６號","E_COORD97":168550.07000000001,"N_COORD97":2546651.5600000001,"ADDRESS":"育成路２６９巷１６號","OBJECTID":379808},"geometry":{"x":168550.0700000003,"y":2546651.5600000005}},{"attributes":{"ID":379819,"DIS_CODE":0,"TOWNNAME":"北區","LI":"成德里","LIN":"21鄰","STREET":"育成路","SECT":" ","MAREA":" ","LANE":"２６９巷","ALLEY":" ","HOUSE_NO":"１號","E_COORD97":168581.81,"N_COORD97":2546647.1299999999,"ADDRESS":"育成路２６９巷１號","OBJECTID":379809},"geometry":{"x":168581.80999999959,"y":2546647.1300000008}},{"attributes":{"ID":379820,"DIS_CODE":0,"TOWNNAME":"北區","LI":"成德里","LIN":"21鄰","STREET":"育成路","SECT":" ","MAREA":" ","LANE":"２６９巷","ALLEY":" ","HOUSE_NO":"３號","E_COORD97":168577.73000000001,"N_COORD97":2546644.6499999999,"ADDRESS":"育成路２６９巷３號","OBJECTID":379810},"geometry":{"x":168577.73000000045,"y":2546644.6500000041}},{"attributes":{"ID":379821,"DIS_CODE":0,"TOWNNAME":"北區","LI":"成德里","LIN":"21鄰","STREET":"育成路","SECT":" ","MAREA":" ","LANE":"２６９巷","ALLEY":" ","HOUSE_NO":"５號","E_COORD97":168573.29999999999,"N_COORD97":2546642.3500000001,"ADDRESS":"育成路２６９巷５號","OBJECTID":379811},"geometry":{"x":168573.29999999981,"y":2546642.3500000034}},{"attributes":{"ID":379822,"DIS_CODE":0,"TOWNNAME":"北區","LI":"成德里","LIN":"21鄰","STREET":"育成路","SECT":" ","MAREA":" ","LANE":"２６９巷","ALLEY":" ","HOUSE_NO":"７號","E_COORD97":168568.69,"N_COORD97":2546640.2200000002,"ADDRESS":"育成路２６９巷７號","OBJECTID":379812},"geometry":{"x":168568.69000000134,"y":2546640.2200000007}},{"attributes":{"ID":379823,"DIS_CODE":0,"TOWNNAME":"北區","LI":"成德里","LIN":"21鄰","STREET":"育成路","SECT":" ","MAREA":" ","LANE":"２６９巷","ALLEY":" ","HOUSE_NO":"９號","E_COORD97":168564.60999999999,"N_COORD97":2546637.3900000001,"ADDRESS":"育成路２６９巷９號","OBJECTID":379813},"geometry":{"x":168564.61000000127,"y":2546637.3900000025}},{"attributes":{"ID":379824,"DIS_CODE":0,"TOWNNAME":"北區","LI":"成德里","LIN":"21鄰","STREET":"育成路","SECT":" ","MAREA":" ","LANE":"２６９巷","ALLEY":" ","HOUSE_NO":"１１號","E_COORD97":168558.39999999999,"N_COORD97":2546634.3799999999,"ADDRESS":"育成路２６９巷１１號","OBJECTID":379814},"geometry":{"x":168558.39999999944,"y":2546634.3799999971}},{"attributes":{"ID":379825,"DIS_CODE":0,"TOWNNAME":"北區","LI":"成德里","LIN":"21鄰","STREET":"育成路","SECT":" ","MAREA":" ","LANE":"３１８巷","ALLEY":" ","HOUSE_NO":"２６號","E_COORD97":168545.32000000001,"N_COORD97":2546854.04,"ADDRESS":"育成路３１８巷２６號","OBJECTID":379815},"geometry":{"x":168545.31999999937,"y":2546854.0400000028}},{"attributes":{"ID":379826,"DIS_CODE":0,"TOWNNAME":"北區","LI":"成德里","LIN":"21鄰","STREET":"育成路","SECT":" ","MAREA":" ","LANE":"３１８巷","ALLEY":" ","HOUSE_NO":"２０號","E_COORD97":168533.89000000001,"N_COORD97":2546851.9700000002,"ADDRESS":"育成路３１８巷２０號","OBJECTID":379816},"geometry":{"x":168533.88999999966,"y":2546851.9700000007}},{"attributes":{"ID":379827,"DIS_CODE":0,"TOWNNAME":"北區","LI":"成德里","LIN":"21鄰","STREET":"育成路","SECT":" ","MAREA":" ","LANE":"３１８巷","ALLEY":" ","HOUSE_NO":"２２號","E_COORD97":168538.01999999999,"N_COORD97":2546852.77,"ADDRESS":"育成路３１８巷２２號","OBJECTID":379817},"geometry":{"x":168538.01999999955,"y":2546852.7699999977}},{"attributes":{"ID":379828,"DIS_CODE":0,"TOWNNAME":"北區","LI":"成德里","LIN":"21鄰","STREET":"育成路","SECT":" ","MAREA":" ","LANE":"３１８巷","ALLEY":" ","HOUSE_NO":"２８號","E_COORD97":168545.32000000001,"N_COORD97":2546851.6600000001,"ADDRESS":"育成路３１８巷２８號","OBJECTID":379818},"geometry":{"x":168545.31999999937,"y":2546851.660000002}},{"attributes":{"ID":379829,"DIS_CODE":0,"TOWNNAME":"北區","LI":"成德里","LIN":"21鄰","STREET":"育成路","SECT":" ","MAREA":" ","LANE":"３１８巷","ALLEY":" ","HOUSE_NO":"３０號","E_COORD97":168545.64000000001,"N_COORD97":2546848.0099999998,"ADDRESS":"育成路３１８巷３０號","OBJECTID":379819},"geometry":{"x":168545.63999999966,"y":2546848.0100000035}},{"attributes":{"ID":379830,"DIS_CODE":0,"TOWNNAME":"北區","LI":"成德里","LIN":"21鄰","STREET":"育成路","SECT":" ","MAREA":" ","LANE":"３１８巷","ALLEY":" ","HOUSE_NO":"３２號","E_COORD97":168545.79999999999,"N_COORD97":2546845.3100000001,"ADDRESS":"育成路３１８巷３２號","OBJECTID":379820},"geometry":{"x":168545.80000000075,"y":2546845.3100000005}},{"attributes":{"ID":379831,"DIS_CODE":0,"TOWNNAME":"北區","LI":"成德里","LIN":"21鄰","STREET":"育成路","SECT":" ","MAREA":" ","LANE":"３１８巷","ALLEY":" ","HOUSE_NO":"３６號","E_COORD97":168546.12,"N_COORD97":2546842.1299999999,"ADDRESS":"育成路３１８巷３６號","OBJECTID":379821},"geometry":{"x":168546.12000000011,"y":2546842.129999999}},{"attributes":{"ID":379832,"DIS_CODE":0,"TOWNNAME":"北區","LI":"成德里","LIN":"21鄰","STREET":"育成路","SECT":" ","MAREA":" ","LANE":"３１８巷","ALLEY":" ","HOUSE_NO":"３８號","E_COORD97":168546.91,"N_COORD97":2546838.48,"ADDRESS":"育成路３１８巷３８號","OBJECTID":379822},"geometry":{"x":168546.91000000108,"y":2546838.4800000004}},{"attributes":{"ID":379833,"DIS_CODE":0,"TOWNNAME":"北區","LI":"成德里","LIN":"21鄰","STREET":"育成路","SECT":" ","MAREA":" ","LANE":"３１８巷","ALLEY":" ","HOUSE_NO":"４０號","E_COORD97":168555.16,"N_COORD97":2546839.27,"ADDRESS":"育成路３１８巷４０號","OBJECTID":379823},"geometry":{"x":168555.16000000108,"y":2546839.2700000033}},{"attributes":{"ID":379834,"DIS_CODE":0,"TOWNNAME":"北區","LI":"成德里","LIN":"21鄰","STREET":"育成路","SECT":" ","MAREA":" ","LANE":"３１８巷","ALLEY":" ","HOUSE_NO":"４２號","E_COORD97":168555.01000000001,"N_COORD97":2546842.9300000002,"ADDRESS":"育成路３１８巷４２號","OBJECTID":379824},"geometry":{"x":168555.00999999978,"y":2546842.9300000016}},{"attributes":{"ID":379835,"DIS_CODE":0,"TOWNNAME":"北區","LI":"成德里","LIN":"21鄰","STREET":"育成路","SECT":" ","MAREA":" ","LANE":"３１８巷","ALLEY":" ","HOUSE_NO":"４６號","E_COORD97":168554.69,"N_COORD97":2546846.5800000001,"ADDRESS":"育成路３１８巷４６號","OBJECTID":379825},"geometry":{"x":168554.69000000041,"y":2546846.5800000001}},{"attributes":{"ID":379836,"DIS_CODE":0,"TOWNNAME":"北區","LI":"成德里","LIN":"21鄰","STREET":"育成路","SECT":" ","MAREA":" ","LANE":"３１８巷","ALLEY":" ","HOUSE_NO":"４８號","E_COORD97":168554.37,"N_COORD97":2546849.4300000002,"ADDRESS":"育成路３１８巷４８號","OBJECTID":379826},"geometry":{"x":168554.37000000011,"y":2546849.4300000016}},{"attributes":{"ID":379837,"DIS_CODE":0,"TOWNNAME":"北區","LI":"成德里","LIN":"21鄰","STREET":"育成路","SECT":" ","MAREA":" ","LANE":"３１８巷","ALLEY":" ","HOUSE_NO":"５０號","E_COORD97":168554.20999999999,"N_COORD97":2546852.29,"ADDRESS":"育成路３１８巷５０號","OBJECTID":379827},"geometry":{"x":168554.21000000183,"y":2546852.2900000028}},{"attributes":{"ID":379838,"DIS_CODE":0,"TOWNNAME":"北區","LI":"成德里","LIN":"21鄰","STREET":"育成路","SECT":" ","MAREA":" ","LANE":"３１８巷","ALLEY":" ","HOUSE_NO":"５２號","E_COORD97":168553.89000000001,"N_COORD97":2546855.6299999999,"ADDRESS":"育成路３１８巷５２號","OBJECTID":379828},"geometry":{"x":168553.88999999966,"y":2546855.629999999}},{"attributes":{"ID":379839,"DIS_CODE":0,"TOWNNAME":"北區","LI":"成德里","LIN":"21鄰","STREET":"北安路","SECT":"一段","MAREA":" ","LANE":"３４１巷","ALLEY":" ","HOUSE_NO":"２之１號","E_COORD97":168555.20000000001,"N_COORD97":2546815.04,"ADDRESS":"北安路一段３４１巷２之１號","OBJECTID":379829},"geometry":{"x":168555.20000000112,"y":2546815.0399999991}},{"attributes":{"ID":379840,"DIS_CODE":0,"TOWNNAME":"北區","LI":"成德里","LIN":"21鄰","STREET":"北安路","SECT":"一段","MAREA":" ","LANE":"３４１巷","ALLEY":" ","HOUSE_NO":"２之２號","E_COORD97":168550.12,"N_COORD97":2546815.2000000002,"ADDRESS":"北安路一段３４１巷２之２號","OBJECTID":379830},"geometry":{"x":168550.12000000104,"y":2546815.1999999993}},{"attributes":{"ID":379841,"DIS_CODE":0,"TOWNNAME":"北區","LI":"成德里","LIN":"21鄰","STREET":"北安路","SECT":"一段","MAREA":" ","LANE":"３４１巷","ALLEY":" ","HOUSE_NO":"２之３號","E_COORD97":168544.56,"N_COORD97":2546815.52,"ADDRESS":"北安路一段３４１巷２之３號","OBJECTID":379831},"geometry":{"x":168544.55999999959,"y":2546815.5200000014}},{"attributes":{"ID":379842,"DIS_CODE":0,"TOWNNAME":"北區","LI":"成德里","LIN":"21鄰","STREET":"育成路","SECT":" ","MAREA":" ","LANE":"３１８巷","ALLEY":" ","HOUSE_NO":"１８號","E_COORD97":168528.48999999999,"N_COORD97":2546852.21,"ADDRESS":"育成路３１８巷１８號","OBJECTID":379832},"geometry":{"x":168528.49000000022,"y":2546852.2100000028}},{"attributes":{"ID":379843,"DIS_CODE":0,"TOWNNAME":"北區","LI":"成德里","LIN":"21鄰","STREET":"育成路","SECT":" ","MAREA":" ","LANE":"３１８巷","ALLEY":" ","HOUSE_NO":"１６號","E_COORD97":168524.20999999999,"N_COORD97":2546852.3700000001,"ADDRESS":"育成路３１８巷１６號","OBJECTID":379833},"geometry":{"x":168524.21000000089,"y":2546852.370000001}},{"attributes":{"ID":379844,"DIS_CODE":0,"TOWNNAME":"北區","LI":"大港里","LIN":"21鄰","STREET":"大和路","SECT":" ","MAREA":" ","LANE":"２７９巷","ALLEY":" ","HOUSE_NO":"５號","E_COORD97":166891.45999999999,"N_COORD97":2546098.21,"ADDRESS":"大和路２７９巷５號","OBJECTID":379834},"geometry":{"x":166891.46000000089,"y":2546098.2100000009}},{"attributes":{"ID":379845,"DIS_CODE":0,"TOWNNAME":"北區","LI":"大和里","LIN":"21鄰","STREET":"大港街","SECT":" ","MAREA":" ","LANE":"１１０巷","ALLEY":" ","HOUSE_NO":"１１號","E_COORD97":167029.66,"N_COORD97":2546078.1600000001,"ADDRESS":"大港街１１０巷１１號","OBJECTID":379835},"geometry":{"x":167029.66000000108,"y":2546078.1600000039}},{"attributes":{"ID":379846,"DIS_CODE":0,"TOWNNAME":"北區","LI":"大和里","LIN":"21鄰","STREET":"大港街","SECT":" ","MAREA":" ","LANE":"１１０巷","ALLEY":" ","HOUSE_NO":"１３號","E_COORD97":167024.64000000001,"N_COORD97":2546083.9700000002,"ADDRESS":"大港街１１０巷１３號","OBJECTID":379836},"geometry":{"x":167024.63999999966,"y":2546083.9700000025}},{"attributes":{"ID":379847,"DIS_CODE":0,"TOWNNAME":"北區","LI":"大和里","LIN":"21鄰","STREET":"大港街","SECT":" ","MAREA":" ","LANE":"１１０巷","ALLEY":" ","HOUSE_NO":"１５號","E_COORD97":167018.26000000001,"N_COORD97":2546099.9900000002,"ADDRESS":"大港街１１０巷１５號","OBJECTID":379837},"geometry":{"x":167018.26000000071,"y":2546099.9900000021}},{"attributes":{"ID":379848,"DIS_CODE":0,"TOWNNAME":"北區","LI":"大和里","LIN":"21鄰","STREET":"大港街","SECT":" ","MAREA":" ","LANE":"１１０巷","ALLEY":" ","HOUSE_NO":"１７號","E_COORD97":167011.95000000001,"N_COORD97":2546107.54,"ADDRESS":"大港街１１０巷１７號","OBJECTID":379838},"geometry":{"x":167011.95000000205,"y":2546107.5399999991}},{"attributes":{"ID":379849,"DIS_CODE":0,"TOWNNAME":"北區","LI":"大和里","LIN":"21鄰","STREET":"大港街","SECT":" ","MAREA":" ","LANE":"１１０巷","ALLEY":" ","HOUSE_NO":"１９號","E_COORD97":167005.29999999999,"N_COORD97":2546122.25,"ADDRESS":"大港街１１０巷１９號","OBJECTID":379839},"geometry":{"x":167005.29999999981,"y":2546122.2500000019}},{"attributes":{"ID":379850,"DIS_CODE":0,"TOWNNAME":"北區","LI":"大和里","LIN":"21鄰","STREET":"大港街","SECT":" ","MAREA":" ","LANE":"１１０巷","ALLEY":" ","HOUSE_NO":"１號","E_COORD97":167038.97,"N_COORD97":2546058.0499999998,"ADDRESS":"大港街１１０巷１號","OBJECTID":379840},"geometry":{"x":167038.97000000067,"y":2546058.0500000007}},{"attributes":{"ID":379851,"DIS_CODE":0,"TOWNNAME":"北區","LI":"大和里","LIN":"21鄰","STREET":"大港街","SECT":" ","MAREA":" ","LANE":"１１０巷","ALLEY":" ","HOUSE_NO":"３號","E_COORD97":167037.79999999999,"N_COORD97":2546062.3399999999,"ADDRESS":"大港街１１０巷３號","OBJECTID":379841},"geometry":{"x":167037.79999999981,"y":2546062.3399999999}},{"attributes":{"ID":379852,"DIS_CODE":0,"TOWNNAME":"北區","LI":"大和里","LIN":"21鄰","STREET":"大港街","SECT":" ","MAREA":" ","LANE":"１１０巷","ALLEY":" ","HOUSE_NO":"５號","E_COORD97":167036.42999999999,"N_COORD97":2546066.5699999998,"ADDRESS":"大港街１１０巷５號","OBJECTID":379842},"geometry":{"x":167036.4299999997,"y":2546066.5700000022}},{"attributes":{"ID":379853,"DIS_CODE":0,"TOWNNAME":"北區","LI":"大和里","LIN":"21鄰","STREET":"大港街","SECT":" ","MAREA":" ","LANE":"１１０巷","ALLEY":" ","HOUSE_NO":"７號","E_COORD97":167034.28,"N_COORD97":2546070.9900000002,"ADDRESS":"大港街１１０巷７號","OBJECTID":379843},"geometry":{"x":167034.28000000119,"y":2546070.9900000002}},{"attributes":{"ID":379854,"DIS_CODE":0,"TOWNNAME":"北區","LI":"大和里","LIN":"21鄰","STREET":"大港街","SECT":" ","MAREA":" ","LANE":"１１０巷","ALLEY":" ","HOUSE_NO":"９號","E_COORD97":167032.45999999999,"N_COORD97":2546074.5,"ADDRESS":"大港街１１０巷９號","OBJECTID":379844},"geometry":{"x":167032.46000000089,"y":2546074.5}},{"attributes":{"ID":379855,"DIS_CODE":0,"TOWNNAME":"安平區","LI":"文平里","LIN":"21鄰","STREET":"健康一街","SECT":" ","MAREA":" ","LANE":"８巷","ALLEY":" ","HOUSE_NO":"１號","E_COORD97":165935.14999999999,"N_COORD97":2542672.5,"ADDRESS":"健康一街８巷１號","OBJECTID":379845},"geometry":{"x":165935.1500000013,"y":2542672.5000000019}},{"attributes":{"ID":379856,"DIS_CODE":0,"TOWNNAME":"安平區","LI":"文平里","LIN":"21鄰","STREET":"健康一街","SECT":" ","MAREA":" ","LANE":"８巷","ALLEY":" ","HOUSE_NO":"２號","E_COORD97":165932.92000000001,"N_COORD97":2542654.7200000002,"ADDRESS":"健康一街８巷２號","OBJECTID":379846},"geometry":{"x":165932.91999999993,"y":2542654.7200000025}},{"attributes":{"ID":379857,"DIS_CODE":0,"TOWNNAME":"關廟區","LI":"五甲里","LIN":"21鄰","STREET":"五權街","SECT":" ","MAREA":" ","LANE":"２巷","ALLEY":" ","HOUSE_NO":"１０號","E_COORD97":181013.92000000001,"N_COORD97":2539147.25,"ADDRESS":"五權街２巷１０號","OBJECTID":379847},"geometry":{"x":181013.91999999993,"y":2539147.2500000037}},{"attributes":{"ID":379858,"DIS_CODE":0,"TOWNNAME":"關廟區","LI":"東勢里","LIN":"21鄰","STREET":"東昌街","SECT":" ","MAREA":" ","LANE":"６０巷","ALLEY":" ","HOUSE_NO":"２號","E_COORD97":181948.22,"N_COORD97":2539245.25,"ADDRESS":"東昌街６０巷２號","OBJECTID":379848},"geometry":{"x":181948.22000000067,"y":2539245.2499999981}},{"attributes":{"ID":379859,"DIS_CODE":0,"TOWNNAME":"關廟區","LI":"東勢里","LIN":"21鄰","STREET":"東昌街","SECT":" ","MAREA":" ","LANE":"６０巷","ALLEY":" ","HOUSE_NO":"１０號","E_COORD97":181939.87,"N_COORD97":2539254.25,"ADDRESS":"東昌街６０巷１０號","OBJECTID":379849},"geometry":{"x":181939.87000000011,"y":2539254.25}},{"attributes":{"ID":379860,"DIS_CODE":0,"TOWNNAME":"關廟區","LI":"五甲里","LIN":"21鄰","STREET":"五權街","SECT":" ","MAREA":" ","LANE":"２巷","ALLEY":" ","HOUSE_NO":"７號","E_COORD97":181007.26999999999,"N_COORD97":2539131.25,"ADDRESS":"五權街２巷７號","OBJECTID":379850},"geometry":{"x":181007.26999999955,"y":2539131.2500000019}},{"attributes":{"ID":379861,"DIS_CODE":0,"TOWNNAME":"關廟區","LI":"東勢里","LIN":"21鄰","STREET":"東昌街","SECT":" ","MAREA":" ","LANE":"６０巷","ALLEY":" ","HOUSE_NO":"１號","E_COORD97":181936.32000000001,"N_COORD97":2539243.25,"ADDRESS":"東昌街６０巷１號","OBJECTID":379851},"geometry":{"x":181936.32000000123,"y":2539243.2500000019}},{"attributes":{"ID":379862,"DIS_CODE":0,"TOWNNAME":"關廟區","LI":"五甲里","LIN":"21鄰","STREET":"五權街","SECT":" ","MAREA":" ","LANE":"２巷","ALLEY":" ","HOUSE_NO":"２號","E_COORD97":181023.37,"N_COORD97":2539152.25,"ADDRESS":"五權街２巷２號","OBJECTID":379852},"geometry":{"x":181023.37000000104,"y":2539152.2500000019}},{"attributes":{"ID":379863,"DIS_CODE":0,"TOWNNAME":"新營區","LI":"南興里","LIN":"21鄰","STREET":"延平路","SECT":" ","MAREA":" ","LANE":"１４０巷","ALLEY":" ","HOUSE_NO":"２２號","E_COORD97":179676.59,"N_COORD97":2577474.54,"ADDRESS":"延平路１４０巷２２號","OBJECTID":379853},"geometry":{"x":179676.58999999985,"y":2577474.5399999991}},{"attributes":{"ID":379864,"DIS_CODE":0,"TOWNNAME":"新營區","LI":"南興里","LIN":"21鄰","STREET":"延平路","SECT":" ","MAREA":" ","LANE":"１４０巷","ALLEY":" ","HOUSE_NO":"４６號","E_COORD97":179647.78,"N_COORD97":2577438.1400000001,"ADDRESS":"延平路１４０巷４６號","OBJECTID":379854},"geometry":{"x":179647.78000000119,"y":2577438.1400000006}},{"attributes":{"ID":379865,"DIS_CODE":0,"TOWNNAME":"新營區","LI":"王公里","LIN":"21鄰","STREET":"民族路","SECT":" ","MAREA":" ","LANE":"１５０巷","ALLEY":" ","HOUSE_NO":"３４號","E_COORD97":180545.67000000001,"N_COORD97":2579346.4700000002,"ADDRESS":"民族路１５０巷３４號","OBJECTID":379855},"geometry":{"x":180545.66999999993,"y":2579346.4700000025}},{"attributes":{"ID":379866,"DIS_CODE":0,"TOWNNAME":"新營區","LI":"南興里","LIN":"21鄰","STREET":"延平路","SECT":" ","MAREA":" ","LANE":"１４０巷","ALLEY":" ","HOUSE_NO":"５０號","E_COORD97":179640.57000000001,"N_COORD97":2577439.2799999998,"ADDRESS":"延平路１４０巷５０號","OBJECTID":379856},"geometry":{"x":179640.57000000123,"y":2577439.2799999993}},{"attributes":{"ID":379867,"DIS_CODE":0,"TOWNNAME":"新營區","LI":"南興里","LIN":"21鄰","STREET":"延平路","SECT":" ","MAREA":" ","LANE":"１４０巷","ALLEY":" ","HOUSE_NO":"５２號","E_COORD97":179636.47,"N_COORD97":2577438.1899999999,"ADDRESS":"延平路１４０巷５２號","OBJECTID":379857},"geometry":{"x":179636.46999999974,"y":2577438.1900000032}},{"attributes":{"ID":379868,"DIS_CODE":0,"TOWNNAME":"新營區","LI":"忠政里","LIN":"21鄰","STREET":"府西路","SECT":" ","MAREA":" ","LANE":"２３１巷","ALLEY":" ","HOUSE_NO":"３５號","E_COORD97":179694.88,"N_COORD97":2579599.6600000001,"ADDRESS":"府西路２３１巷３５號","OBJECTID":379858},"geometry":{"x":179694.87999999989,"y":2579599.660000002}},{"attributes":{"ID":379869,"DIS_CODE":0,"TOWNNAME":"新營區","LI":"新南里","LIN":"21鄰","STREET":"復興路","SECT":" ","MAREA":" ","LANE":"３７８巷","ALLEY":" ","HOUSE_NO":"１９號之２","E_COORD97":178518.54000000001,"N_COORD97":2578273.0899999999,"ADDRESS":"復興路３７８巷１９號之２","OBJECTID":379859},"geometry":{"x":178518.54000000097,"y":2578273.0900000036}},{"attributes":{"ID":379870,"DIS_CODE":0,"TOWNNAME":"新營區","LI":"南紙里","LIN":"21鄰","STREET":"建業路","SECT":" ","MAREA":" ","LANE":"２２７巷","ALLEY":" ","HOUSE_NO":"６號","E_COORD97":178110.10999999999,"N_COORD97":2577458.7999999998,"ADDRESS":"建業路２２７巷６號","OBJECTID":379860},"geometry":{"x":178110.11000000127,"y":2577458.8000000045}},{"attributes":{"ID":379871,"DIS_CODE":0,"TOWNNAME":"新營區","LI":"新南里","LIN":"21鄰","STREET":"復興路","SECT":" ","MAREA":" ","LANE":"３７８巷","ALLEY":" ","HOUSE_NO":"１３號","E_COORD97":178532.51000000001,"N_COORD97":2578246.3799999999,"ADDRESS":"復興路３７８巷１３號","OBJECTID":379861},"geometry":{"x":178532.50999999978,"y":2578246.3800000027}},{"attributes":{"ID":379872,"DIS_CODE":0,"TOWNNAME":"新營區","LI":"新南里","LIN":"21鄰","STREET":"復興路","SECT":" ","MAREA":" ","LANE":"３７８巷","ALLEY":" ","HOUSE_NO":"９號之５","E_COORD97":178492.64999999999,"N_COORD97":2578253.27,"ADDRESS":"復興路３７８巷９號之５","OBJECTID":379862},"geometry":{"x":178492.6500000013,"y":2578253.2699999996}},{"attributes":{"ID":379873,"DIS_CODE":0,"TOWNNAME":"新營區","LI":"新南里","LIN":"21鄰","STREET":"復興路","SECT":" ","MAREA":" ","LANE":"３７８巷","ALLEY":" ","HOUSE_NO":"９之６號","E_COORD97":178486.72,"N_COORD97":2578255.52,"ADDRESS":"復興路３７８巷９之６號","OBJECTID":379863},"geometry":{"x":178486.72000000067,"y":2578255.5199999996}},{"attributes":{"ID":379874,"DIS_CODE":0,"TOWNNAME":"新營區","LI":"新南里","LIN":"21鄰","STREET":"復興路","SECT":" ","MAREA":" ","LANE":"３７８巷","ALLEY":" ","HOUSE_NO":"１７號","E_COORD97":178534.60000000001,"N_COORD97":2578255.23,"ADDRESS":"復興路３７８巷１７號","OBJECTID":379864},"geometry":{"x":178534.60000000056,"y":2578255.2300000004}},{"attributes":{"ID":379875,"DIS_CODE":0,"TOWNNAME":"新營區","LI":"新南里","LIN":"21鄰","STREET":"復興路","SECT":" ","MAREA":" ","LANE":"３７８巷","ALLEY":" ","HOUSE_NO":"１９號之６","E_COORD97":178502.17999999999,"N_COORD97":2578278.7000000002,"ADDRESS":"復興路３７８巷１９號之６","OBJECTID":379865},"geometry":{"x":178502.18000000063,"y":2578278.700000003}},{"attributes":{"ID":379876,"DIS_CODE":0,"TOWNNAME":"新營區","LI":"新南里","LIN":"21鄰","STREET":"復興路","SECT":" ","MAREA":" ","LANE":"３７８巷","ALLEY":" ","HOUSE_NO":"９號之１","E_COORD97":178513.94,"N_COORD97":2578247.6299999999,"ADDRESS":"復興路３７８巷９號之１","OBJECTID":379866},"geometry":{"x":178513.94000000041,"y":2578247.629999999}},{"attributes":{"ID":379877,"DIS_CODE":0,"TOWNNAME":"新營區","LI":"大宏里","LIN":"21鄰","STREET":"三民路","SECT":" ","MAREA":" ","LANE":"８巷","ALLEY":" ","HOUSE_NO":"２４號","E_COORD97":180617.59,"N_COORD97":2578546.5499999998,"ADDRESS":"三民路８巷２４號","OBJECTID":379867},"geometry":{"x":180617.58999999985,"y":2578546.5500000026}},{"attributes":{"ID":379878,"DIS_CODE":0,"TOWNNAME":"新營區","LI":"南興里","LIN":"21鄰","STREET":"延平路","SECT":" ","MAREA":" ","LANE":"１４０巷","ALLEY":" ","HOUSE_NO":"３０號","E_COORD97":179670.35999999999,"N_COORD97":2577450.21,"ADDRESS":"延平路１４０巷３０號","OBJECTID":379868},"geometry":{"x":179670.36000000034,"y":2577450.2100000028}},{"attributes":{"ID":379879,"DIS_CODE":0,"TOWNNAME":"新營區","LI":"南興里","LIN":"21鄰","STREET":"延平路","SECT":" ","MAREA":" ","LANE":"１４０巷","ALLEY":" ","HOUSE_NO":"３８號","E_COORD97":179664.14999999999,"N_COORD97":2577436.9500000002,"ADDRESS":"延平路１４０巷３８號","OBJECTID":379869},"geometry":{"x":179664.1500000013,"y":2577436.9500000011}},{"attributes":{"ID":379880,"DIS_CODE":0,"TOWNNAME":"新化區","LI":"東榮里","LIN":"21鄰","STREET":"復興路","SECT":" ","MAREA":" ","LANE":"２０３巷","ALLEY":" ","HOUSE_NO":"７號","E_COORD97":179373.42000000001,"N_COORD97":2548014.25,"ADDRESS":"復興路２０３巷７號","OBJECTID":379870},"geometry":{"x":179373.42000000086,"y":2548014.2500000019}},{"attributes":{"ID":379881,"DIS_CODE":0,"TOWNNAME":"南區","LI":"明興里","LIN":"21鄰","STREET":"金華路","SECT":"一段","MAREA":" ","LANE":"１５４巷","ALLEY":" ","HOUSE_NO":"２６號","E_COORD97":167014.45999999999,"N_COORD97":2540621.5099999998,"ADDRESS":"金華路一段１５４巷２６號","OBJECTID":379871},"geometry":{"x":167014.45999999996,"y":2540621.5100000016}},{"attributes":{"ID":379882,"DIS_CODE":0,"TOWNNAME":"歸仁區","LI":"六甲里","LIN":"21鄰","STREET":"中正十八街","SECT":" ","MAREA":" ","LANE":"２巷","ALLEY":" ","HOUSE_NO":"２０號","E_COORD97":176430.91475699999,"N_COORD97":2539696.0295199999,"ADDRESS":"中正十八街２巷２０號","OBJECTID":379872},"geometry":{"x":176430.91475699935,"y":2539696.0295160003}},{"attributes":{"ID":379883,"DIS_CODE":0,"TOWNNAME":"歸仁區","LI":"六甲里","LIN":"21鄰","STREET":"中正十八街","SECT":" ","MAREA":" ","LANE":"２巷","ALLEY":" ","HOUSE_NO":"８號","E_COORD97":176415.23656799999,"N_COORD97":2539677.50869,"ADDRESS":"中正十八街２巷８號","OBJECTID":379873},"geometry":{"x":176415.23656800017,"y":2539677.5086930022}},{"attributes":{"ID":379884,"DIS_CODE":0,"TOWNNAME":"歸仁區","LI":"大廟里","LIN":"21鄰","STREET":"大廟一街","SECT":" ","MAREA":" ","LANE":"２８巷","ALLEY":" ","HOUSE_NO":"７３號","E_COORD97":175621.51999999999,"N_COORD97":2544223.5899999999,"ADDRESS":"大廟一街２８巷７３號","OBJECTID":379874},"geometry":{"x":175621.51999999955,"y":2544223.5900000036}},{"attributes":{"ID":379885,"DIS_CODE":0,"TOWNNAME":"歸仁區","LI":"大廟里","LIN":"21鄰","STREET":"大廟一街","SECT":" ","MAREA":" ","LANE":"２８巷","ALLEY":" ","HOUSE_NO":"７５號","E_COORD97":175614.89000000001,"N_COORD97":2544225.1200000001,"ADDRESS":"大廟一街２８巷７５號","OBJECTID":379875},"geometry":{"x":175614.89000000153,"y":2544225.1200000029}},{"attributes":{"ID":379886,"DIS_CODE":0,"TOWNNAME":"歸仁區","LI":"大潭里","LIN":"21鄰","STREET":"長榮路","SECT":"二段","MAREA":" ","LANE":"２巷","ALLEY":" ","HOUSE_NO":"３０號","E_COORD97":176651.79999999999,"N_COORD97":2534439.1200000001,"ADDRESS":"長榮路二段２巷３０號","OBJECTID":379876},"geometry":{"x":176651.80000000075,"y":2534439.120000001}},{"attributes":{"ID":379887,"DIS_CODE":0,"TOWNNAME":"南區","LI":"新昌里","LIN":"21鄰","STREET":"大德街","SECT":" ","MAREA":" ","LANE":"１４１巷","ALLEY":" ","HOUSE_NO":"３號","E_COORD97":167572.29999999999,"N_COORD97":2543010.9399999999,"ADDRESS":"大德街１４１巷３號","OBJECTID":379877},"geometry":{"x":167572.30000000075,"y":2543010.9400000013}},{"attributes":{"ID":379888,"DIS_CODE":0,"TOWNNAME":"安平區","LI":"建平里","LIN":"21鄰","STREET":"永華五街","SECT":" ","MAREA":" ","LANE":"９７巷","ALLEY":" ","HOUSE_NO":"２號","E_COORD97":165903.92000000001,"N_COORD97":2543726.8700000001,"ADDRESS":"永華五街９７巷２號","OBJECTID":379878},"geometry":{"x":165903.92000000086,"y":2543726.870000001}},{"attributes":{"ID":379889,"DIS_CODE":0,"TOWNNAME":"安平區","LI":"建平里","LIN":"21鄰","STREET":"永華五街","SECT":" ","MAREA":" ","LANE":"９７巷","ALLEY":" ","HOUSE_NO":"２８號","E_COORD97":165841.10000000001,"N_COORD97":2543733.8799999999,"ADDRESS":"永華五街９７巷２８號","OBJECTID":379879},"geometry":{"x":165841.10000000056,"y":2543733.8800000008}},{"attributes":{"ID":379890,"DIS_CODE":0,"TOWNNAME":"安平區","LI":"建平里","LIN":"21鄰","STREET":"永華五街","SECT":" ","MAREA":" ","LANE":"９７巷","ALLEY":" ","HOUSE_NO":"３０號","E_COORD97":165834.59,"N_COORD97":2543734.52,"ADDRESS":"永華五街９７巷３０號","OBJECTID":379880},"geometry":{"x":165834.59000000078,"y":2543734.5199999996}},{"attributes":{"ID":379891,"DIS_CODE":0,"TOWNNAME":"安平區","LI":"文平里","LIN":"21鄰","STREET":"健康一街","SECT":" ","MAREA":" ","LANE":"１７巷","ALLEY":" ","HOUSE_NO":"２９號","E_COORD97":165867.32000000001,"N_COORD97":2542688.79,"ADDRESS":"健康一街１７巷２９號","OBJECTID":379881},"geometry":{"x":165867.32000000123,"y":2542688.7900000028}},{"attributes":{"ID":379892,"DIS_CODE":0,"TOWNNAME":"安平區","LI":"文平里","LIN":"21鄰","STREET":"健康一街","SECT":" ","MAREA":" ","LANE":"１６巷","ALLEY":" ","HOUSE_NO":"２１號","E_COORD97":165977.82999999999,"N_COORD97":2542699.8399999999,"ADDRESS":"健康一街１６巷２１號","OBJECTID":379882},"geometry":{"x":165977.83000000007,"y":2542699.8400000017}},{"attributes":{"ID":379893,"DIS_CODE":0,"TOWNNAME":"安平區","LI":"文平里","LIN":"21鄰","STREET":"健康一街","SECT":" ","MAREA":" ","LANE":"１６巷","ALLEY":" ","HOUSE_NO":"２３號","E_COORD97":165984.31,"N_COORD97":2542700.6299999999,"ADDRESS":"健康一街１６巷２３號","OBJECTID":379883},"geometry":{"x":165984.30999999959,"y":2542700.6300000008}},{"attributes":{"ID":379894,"DIS_CODE":0,"TOWNNAME":"安平區","LI":"文平里","LIN":"21鄰","STREET":"健康一街","SECT":" ","MAREA":" ","LANE":"１６巷","ALLEY":" ","HOUSE_NO":"２５號","E_COORD97":165988.54999999999,"N_COORD97":2542695.6000000001,"ADDRESS":"健康一街１６巷２５號","OBJECTID":379884},"geometry":{"x":165988.54999999888,"y":2542695.6000000015}},{"attributes":{"ID":379895,"DIS_CODE":0,"TOWNNAME":"安平區","LI":"文平里","LIN":"21鄰","STREET":"健康一街","SECT":" ","MAREA":" ","LANE":"１６巷","ALLEY":" ","HOUSE_NO":"２７號","E_COORD97":165993.31,"N_COORD97":2542693.75,"ADDRESS":"健康一街１６巷２７號","OBJECTID":379885},"geometry":{"x":165993.30999999959,"y":2542693.7500000037}},{"attributes":{"ID":379896,"DIS_CODE":0,"TOWNNAME":"安平區","LI":"文平里","LIN":"21鄰","STREET":"健康一街","SECT":" ","MAREA":" ","LANE":"１６巷","ALLEY":" ","HOUSE_NO":"１２號","E_COORD97":165958.32000000001,"N_COORD97":2542681.5499999998,"ADDRESS":"健康一街１６巷１２號","OBJECTID":379886},"geometry":{"x":165958.3200000003,"y":2542681.5500000007}},{"attributes":{"ID":379897,"DIS_CODE":0,"TOWNNAME":"安平區","LI":"文平里","LIN":"21鄰","STREET":"健康一街","SECT":" ","MAREA":" ","LANE":"８巷","ALLEY":" ","HOUSE_NO":"１５號","E_COORD97":165974.35999999999,"N_COORD97":2542667.73,"ADDRESS":"健康一街８巷１５號","OBJECTID":379887},"geometry":{"x":165974.36000000127,"y":2542667.7300000023}},{"attributes":{"ID":379898,"DIS_CODE":0,"TOWNNAME":"安平區","LI":"文平里","LIN":"21鄰","STREET":"健康一街","SECT":" ","MAREA":" ","LANE":"８巷","ALLEY":" ","HOUSE_NO":"１３號","E_COORD97":165968.48000000001,"N_COORD97":2542668.3700000001,"ADDRESS":"健康一街８巷１３號","OBJECTID":379888},"geometry":{"x":165968.48000000138,"y":2542668.3700000029}},{"attributes":{"ID":379899,"DIS_CODE":0,"TOWNNAME":"安平區","LI":"文平里","LIN":"21鄰","STREET":"健康一街","SECT":" ","MAREA":" ","LANE":"８巷","ALLEY":" ","HOUSE_NO":"１６號","E_COORD97":165961.34,"N_COORD97":2542652.8100000001,"ADDRESS":"健康一街８巷１６號","OBJECTID":379889},"geometry":{"x":165961.34000000171,"y":2542652.8099999987}},{"attributes":{"ID":379900,"DIS_CODE":0,"TOWNNAME":"安平區","LI":"文平里","LIN":"21鄰","STREET":"健康一街","SECT":" ","MAREA":" ","LANE":"８巷","ALLEY":" ","HOUSE_NO":"１７號","E_COORD97":165980.07000000001,"N_COORD97":2542667.5800000001,"ADDRESS":"健康一街８巷１７號","OBJECTID":379890},"geometry":{"x":165980.0700000003,"y":2542667.5800000038}},{"attributes":{"ID":379901,"DIS_CODE":0,"TOWNNAME":"安平區","LI":"文平里","LIN":"21鄰","STREET":"健康一街","SECT":" ","MAREA":" ","LANE":"８巷","ALLEY":" ","HOUSE_NO":"１８號","E_COORD97":165967.85000000001,"N_COORD97":2542650.9100000001,"ADDRESS":"健康一街８巷１８號","OBJECTID":379891},"geometry":{"x":165967.85000000149,"y":2542650.9100000001}},{"attributes":{"ID":379902,"DIS_CODE":0,"TOWNNAME":"安平區","LI":"文平里","LIN":"21鄰","STREET":"健康一街","SECT":" ","MAREA":" ","LANE":"８巷","ALLEY":" ","HOUSE_NO":"１９號","E_COORD97":165987.38,"N_COORD97":2542666.3100000001,"ADDRESS":"健康一街８巷１９號","OBJECTID":379892},"geometry":{"x":165987.37999999989,"y":2542666.3099999987}},{"attributes":{"ID":379903,"DIS_CODE":0,"TOWNNAME":"安平區","LI":"文平里","LIN":"21鄰","STREET":"健康一街","SECT":" ","MAREA":" ","LANE":"８巷","ALLEY":" ","HOUSE_NO":"２０號","E_COORD97":165972.45000000001,"N_COORD97":2542652.1800000002,"ADDRESS":"健康一街８巷２０號","OBJECTID":379893},"geometry":{"x":165972.45000000019,"y":2542652.1799999997}},{"attributes":{"ID":379904,"DIS_CODE":0,"TOWNNAME":"安平區","LI":"文平里","LIN":"21鄰","STREET":"健康一街","SECT":" ","MAREA":" ","LANE":"８巷","ALLEY":" ","HOUSE_NO":"２２號","E_COORD97":165978.32999999999,"N_COORD97":2542650.9100000001,"ADDRESS":"健康一街８巷２２號","OBJECTID":379894},"geometry":{"x":165978.33000000007,"y":2542650.9100000001}},{"attributes":{"ID":379905,"DIS_CODE":0,"TOWNNAME":"安平區","LI":"文平里","LIN":"21鄰","STREET":"健康一街","SECT":" ","MAREA":" ","LANE":"８巷","ALLEY":" ","HOUSE_NO":"２６號","E_COORD97":165985.31,"N_COORD97":2542650.27,"ADDRESS":"健康一街８巷２６號","OBJECTID":379895},"geometry":{"x":165985.31000000052,"y":2542650.2700000014}},{"attributes":{"ID":379906,"DIS_CODE":0,"TOWNNAME":"安平區","LI":"文平里","LIN":"21鄰","STREET":"健康一街","SECT":" ","MAREA":" ","LANE":"８巷","ALLEY":" ","HOUSE_NO":"３號","E_COORD97":165941.01999999999,"N_COORD97":2542672.02,"ADDRESS":"健康一街８巷３號","OBJECTID":379896},"geometry":{"x":165941.01999999862,"y":2542672.0200000014}},{"attributes":{"ID":379907,"DIS_CODE":0,"TOWNNAME":"安平區","LI":"文平里","LIN":"21鄰","STREET":"健康一街","SECT":" ","MAREA":" ","LANE":"８巷","ALLEY":" ","HOUSE_NO":"５號","E_COORD97":165946.26000000001,"N_COORD97":2542670.75,"ADDRESS":"健康一街８巷５號","OBJECTID":379897},"geometry":{"x":165946.25999999978,"y":2542670.7500000019}},{"attributes":{"ID":379908,"DIS_CODE":0,"TOWNNAME":"安平區","LI":"文平里","LIN":"21鄰","STREET":"健康一街","SECT":" ","MAREA":" ","LANE":"８巷","ALLEY":" ","HOUSE_NO":"７號","E_COORD97":165952.45000000001,"N_COORD97":2542669.6400000001,"ADDRESS":"健康一街８巷７號","OBJECTID":379898},"geometry":{"x":165952.45000000205,"y":2542669.6400000006}},{"attributes":{"ID":379909,"DIS_CODE":0,"TOWNNAME":"安平區","LI":"文平里","LIN":"21鄰","STREET":"健康一街","SECT":" ","MAREA":" ","LANE":"８巷","ALLEY":" ","HOUSE_NO":"９號","E_COORD97":165957.20999999999,"N_COORD97":2542669.3199999998,"ADDRESS":"健康一街８巷９號","OBJECTID":379899},"geometry":{"x":165957.21000000183,"y":2542669.3200000003}},{"attributes":{"ID":379910,"DIS_CODE":0,"TOWNNAME":"安平區","LI":"文平里","LIN":"21鄰","STREET":"健康一街","SECT":" ","MAREA":" ","LANE":"８巷","ALLEY":" ","HOUSE_NO":"６號","E_COORD97":165939.12,"N_COORD97":2542655.6699999999,"ADDRESS":"健康一街８巷６號","OBJECTID":379900},"geometry":{"x":165939.12000000011,"y":2542655.6699999999}},{"attributes":{"ID":379911,"DIS_CODE":0,"TOWNNAME":"安平區","LI":"文平里","LIN":"21鄰","STREET":"健康一街","SECT":" ","MAREA":" ","LANE":"８巷","ALLEY":" ","HOUSE_NO":"８號","E_COORD97":165944.20000000001,"N_COORD97":2542655.1899999999,"ADDRESS":"健康一街８巷８號","OBJECTID":379901},"geometry":{"x":165944.20000000112,"y":2542655.1899999995}},{"attributes":{"ID":379912,"DIS_CODE":0,"TOWNNAME":"南區","LI":"大恩里","LIN":"21鄰","STREET":"大同路","SECT":"二段","MAREA":" ","LANE":"６４０巷","ALLEY":" ","HOUSE_NO":"７７號","E_COORD97":169216.10000000001,"N_COORD97":2540996.1000000001,"ADDRESS":"大同路二段６４０巷７７號","OBJECTID":379902},"geometry":{"x":169216.10000000056,"y":2540996.1000000015}},{"attributes":{"ID":379913,"DIS_CODE":0,"TOWNNAME":"南區","LI":"大恩里","LIN":"21鄰","STREET":"大同路","SECT":"二段","MAREA":" ","LANE":"６４０巷","ALLEY":" ","HOUSE_NO":"７９號","E_COORD97":169211.59,"N_COORD97":2540996.8500000001,"ADDRESS":"大同路二段６４０巷７９號","OBJECTID":379903},"geometry":{"x":169211.59000000078,"y":2540996.8499999996}},{"attributes":{"ID":379914,"DIS_CODE":0,"TOWNNAME":"南區","LI":"大恩里","LIN":"21鄰","STREET":"大同路","SECT":"二段","MAREA":" ","LANE":"６４０巷","ALLEY":" ","HOUSE_NO":"８１號","E_COORD97":169207.51000000001,"N_COORD97":2540997.5,"ADDRESS":"大同路二段６４０巷８１號","OBJECTID":379904},"geometry":{"x":169207.50999999978,"y":2540997.5000000019}},{"attributes":{"ID":379915,"DIS_CODE":0,"TOWNNAME":"南區","LI":"大恩里","LIN":"21鄰","STREET":"大同路","SECT":"二段","MAREA":" ","LANE":"６４０巷","ALLEY":" ","HOUSE_NO":"８３號","E_COORD97":169202.67999999999,"N_COORD97":2540995.7799999998,"ADDRESS":"大同路二段６４０巷８３號","OBJECTID":379905},"geometry":{"x":169202.6799999997,"y":2540995.7799999993}},{"attributes":{"ID":379916,"DIS_CODE":0,"TOWNNAME":"南區","LI":"大恩里","LIN":"21鄰","STREET":"大同路","SECT":"二段","MAREA":" ","LANE":"６４０巷","ALLEY":" ","HOUSE_NO":"８５號","E_COORD97":169188.82000000001,"N_COORD97":2540992.1299999999,"ADDRESS":"大同路二段６４０巷８５號","OBJECTID":379906},"geometry":{"x":169188.8200000003,"y":2540992.1300000008}},{"attributes":{"ID":379917,"DIS_CODE":0,"TOWNNAME":"南區","LI":"大恩里","LIN":"21鄰","STREET":"大同路","SECT":"二段","MAREA":" ","LANE":"６４０巷","ALLEY":" ","HOUSE_NO":"８７號","E_COORD97":169171.20999999999,"N_COORD97":2540988.5899999999,"ADDRESS":"大同路二段６４０巷８７號","OBJECTID":379907},"geometry":{"x":169171.20999999903,"y":2540988.5899999999}},{"attributes":{"ID":379918,"DIS_CODE":0,"TOWNNAME":"南區","LI":"大恩里","LIN":"21鄰","STREET":"大同路","SECT":"二段","MAREA":" ","LANE":"６４０巷","ALLEY":" ","HOUSE_NO":"８９號","E_COORD97":169167.45999999999,"N_COORD97":2540989.1299999999,"ADDRESS":"大同路二段６４０巷８９號","OBJECTID":379908},"geometry":{"x":169167.45999999996,"y":2540989.1300000008}},{"attributes":{"ID":379919,"DIS_CODE":0,"TOWNNAME":"南區","LI":"大恩里","LIN":"21鄰","STREET":"大同路","SECT":"二段","MAREA":" ","LANE":"６４０巷","ALLEY":" ","HOUSE_NO":"９１號","E_COORD97":169161.87,"N_COORD97":2540989.9900000002,"ADDRESS":"大同路二段６４０巷９１號","OBJECTID":379909},"geometry":{"x":169161.87000000197,"y":2540989.9899999984}},{"attributes":{"ID":379920,"DIS_CODE":0,"TOWNNAME":"南區","LI":"大恩里","LIN":"21鄰","STREET":"大同路","SECT":"二段","MAREA":" ","LANE":"６４０巷","ALLEY":" ","HOUSE_NO":"９３號","E_COORD97":169158.32999999999,"N_COORD97":2540990.1000000001,"ADDRESS":"大同路二段６４０巷９３號","OBJECTID":379910},"geometry":{"x":169158.33000000007,"y":2540990.1000000015}},{"attributes":{"ID":379921,"DIS_CODE":0,"TOWNNAME":"南區","LI":"大恩里","LIN":"21鄰","STREET":"大同路","SECT":"二段","MAREA":" ","LANE":"６４０巷","ALLEY":" ","HOUSE_NO":"９５號","E_COORD97":169142.76000000001,"N_COORD97":2540977.3300000001,"ADDRESS":"大同路二段６４０巷９５號","OBJECTID":379911},"geometry":{"x":169142.76000000071,"y":2540977.3299999982}},{"attributes":{"ID":379922,"DIS_CODE":0,"TOWNNAME":"南區","LI":"大恩里","LIN":"21鄰","STREET":"國民路","SECT":" ","MAREA":" ","LANE":"１７６巷","ALLEY":" ","HOUSE_NO":"１４號","E_COORD97":169182.81,"N_COORD97":2540966.3900000001,"ADDRESS":"國民路１７６巷１４號","OBJECTID":379912},"geometry":{"x":169182.81000000052,"y":2540966.3900000006}},{"attributes":{"ID":379923,"DIS_CODE":0,"TOWNNAME":"南區","LI":"大恩里","LIN":"21鄰","STREET":"國民路","SECT":" ","MAREA":" ","LANE":"１７６巷","ALLEY":" ","HOUSE_NO":"１６號","E_COORD97":169184.10000000001,"N_COORD97":2540971,"ADDRESS":"國民路１７６巷１６號","OBJECTID":379913},"geometry":{"x":169184.10000000056,"y":2540971.0000000019}},{"attributes":{"ID":379924,"DIS_CODE":0,"TOWNNAME":"南區","LI":"大恩里","LIN":"21鄰","STREET":"國民路","SECT":" ","MAREA":" ","LANE":"１７６巷","ALLEY":" ","HOUSE_NO":"１８號","E_COORD97":169185.70999999999,"N_COORD97":2540975.5099999998,"ADDRESS":"國民路１７６巷１８號","OBJECTID":379914},"geometry":{"x":169185.71000000089,"y":2540975.5099999998}},{"attributes":{"ID":379925,"DIS_CODE":0,"TOWNNAME":"南區","LI":"大恩里","LIN":"21鄰","STREET":"國民路","SECT":" ","MAREA":" ","LANE":"１７６巷","ALLEY":" ","HOUSE_NO":"１９號","E_COORD97":169161.23000000001,"N_COORD97":2540977.0099999998,"ADDRESS":"國民路１７６巷１９號","OBJECTID":379915},"geometry":{"x":169161.23000000045,"y":2540977.0100000016}},{"attributes":{"ID":379926,"DIS_CODE":0,"TOWNNAME":"南區","LI":"大恩里","LIN":"21鄰","STREET":"國民路","SECT":" ","MAREA":" ","LANE":"１７６巷","ALLEY":" ","HOUSE_NO":"２０號","E_COORD97":169187,"N_COORD97":2540979.6899999999,"ADDRESS":"國民路１７６巷２０號","OBJECTID":379916},"geometry":{"x":169187.00000000093,"y":2540979.6899999995}},{"attributes":{"ID":379927,"DIS_CODE":0,"TOWNNAME":"南區","LI":"大恩里","LIN":"21鄰","STREET":"國民路","SECT":" ","MAREA":" ","LANE":"１７６巷","ALLEY":" ","HOUSE_NO":"２１號","E_COORD97":169161.87,"N_COORD97":2540981.2999999998,"ADDRESS":"國民路１７６巷２１號","OBJECTID":379917},"geometry":{"x":169161.87000000197,"y":2540981.3000000007}},{"attributes":{"ID":379928,"DIS_CODE":0,"TOWNNAME":"南區","LI":"大恩里","LIN":"21鄰","STREET":"國民路","SECT":" ","MAREA":" ","LANE":"１７６巷","ALLEY":" ","HOUSE_NO":"２２號","E_COORD97":169188.82000000001,"N_COORD97":2540983.98,"ADDRESS":"國民路１７６巷２２號","OBJECTID":379918},"geometry":{"x":169188.8200000003,"y":2540983.9800000023}},{"attributes":{"ID":379929,"DIS_CODE":0,"TOWNNAME":"南區","LI":"永寧里","LIN":"21鄰","STREET":"灣裡路","SECT":" ","MAREA":" ","LANE":"３０１巷","ALLEY":" ","HOUSE_NO":"８號","E_COORD97":166181.01000000001,"N_COORD97":2536308.4100000001,"ADDRESS":"灣裡路３０１巷８號","OBJECTID":379919},"geometry":{"x":166181.01000000071,"y":2536308.4100000039}},{"attributes":{"ID":379930,"DIS_CODE":0,"TOWNNAME":"鹽水區","LI":"橋南里","LIN":"21鄰","STREET":"新中路","SECT":" ","MAREA":" ","LANE":"８２巷","ALLEY":" ","HOUSE_NO":"７８號","E_COORD97":175834.03,"N_COORD97":2578678.0699999998,"ADDRESS":"新中路８２巷７８號","OBJECTID":379920},"geometry":{"x":175834.03000000119,"y":2578678.0700000022}},{"attributes":{"ID":379931,"DIS_CODE":0,"TOWNNAME":"鹽水區","LI":"橋南里","LIN":"21鄰","STREET":"新中路","SECT":" ","MAREA":" ","LANE":"８２巷","ALLEY":" ","HOUSE_NO":"９６號","E_COORD97":175791.07000000001,"N_COORD97":2578687.0699999998,"ADDRESS":"新中路８２巷９６號","OBJECTID":379921},"geometry":{"x":175791.07000000123,"y":2578687.0699999984}},{"attributes":{"ID":379932,"DIS_CODE":0,"TOWNNAME":"歸仁區","LI":"南興里","LIN":"21鄰","STREET":"文化街","SECT":"三段","MAREA":" ","LANE":"５９２巷","ALLEY":" ","HOUSE_NO":"４３號","E_COORD97":175625.57000000001,"N_COORD97":2541252.2599999998,"ADDRESS":"文化街三段５９２巷４３號","OBJECTID":379922},"geometry":{"x":175625.5700000003,"y":2541252.2600000035}},{"attributes":{"ID":379933,"DIS_CODE":0,"TOWNNAME":"歸仁區","LI":"崙頂里","LIN":"21鄰","STREET":"大成路","SECT":" ","MAREA":" ","LANE":"２０６巷","ALLEY":" ","HOUSE_NO":"３５號","E_COORD97":177696.23999999999,"N_COORD97":2540065.48,"ADDRESS":"大成路２０６巷３５號","OBJECTID":379923},"geometry":{"x":177696.24000000022,"y":2540065.4800000023}},{"attributes":{"ID":379934,"DIS_CODE":0,"TOWNNAME":"歸仁區","LI":"看西里","LIN":"21鄰","STREET":"成功七街","SECT":" ","MAREA":" ","LANE":"１０１巷","ALLEY":" ","HOUSE_NO":"５號","E_COORD97":178204.01000000001,"N_COORD97":2539755.3599999999,"ADDRESS":"成功七街１０１巷５號","OBJECTID":379924},"geometry":{"x":178204.00999999978,"y":2539755.3599999994}},{"attributes":{"ID":379935,"DIS_CODE":0,"TOWNNAME":"歸仁區","LI":"南興里","LIN":"21鄰","STREET":"文化街","SECT":"三段","MAREA":" ","LANE":"５９２巷","ALLEY":" ","HOUSE_NO":"４９號","E_COORD97":175624.57000000001,"N_COORD97":2541265.2599999998,"ADDRESS":"文化街三段５９２巷４９號","OBJECTID":379925},"geometry":{"x":175624.57000000216,"y":2541265.2599999998}},{"attributes":{"ID":379936,"DIS_CODE":0,"TOWNNAME":"歸仁區","LI":"崙頂里","LIN":"21鄰","STREET":"大成路","SECT":" ","MAREA":" ","LANE":"１８２巷","ALLEY":" ","HOUSE_NO":"５３號","E_COORD97":177667.76999999999,"N_COORD97":2540115.25,"ADDRESS":"大成路１８２巷５３號","OBJECTID":379926},"geometry":{"x":177667.76999999955,"y":2540115.25}},{"attributes":{"ID":379937,"DIS_CODE":0,"TOWNNAME":"歸仁區","LI":"崙頂里","LIN":"21鄰","STREET":"大成路","SECT":" ","MAREA":" ","LANE":"２０６巷","ALLEY":" ","HOUSE_NO":"３６號","E_COORD97":177680.97,"N_COORD97":2540091.25,"ADDRESS":"大成路２０６巷３６號","OBJECTID":379927},"geometry":{"x":177680.9700000016,"y":2540091.2500000019}},{"attributes":{"ID":379938,"DIS_CODE":0,"TOWNNAME":"歸仁區","LI":"崙頂里","LIN":"21鄰","STREET":"大成路","SECT":" ","MAREA":" ","LANE":"２０６巷","ALLEY":" ","HOUSE_NO":"２５號","E_COORD97":177712.73999999999,"N_COORD97":2540083.48,"ADDRESS":"大成路２０６巷２５號","OBJECTID":379928},"geometry":{"x":177712.74000000022,"y":2540083.4800000023}},{"attributes":{"ID":379939,"DIS_CODE":0,"TOWNNAME":"歸仁區","LI":"看西里","LIN":"21鄰","STREET":"成功七街","SECT":" ","MAREA":" ","LANE":"１０１巷","ALLEY":" ","HOUSE_NO":"８號","E_COORD97":178195.81,"N_COORD97":2539760.3599999999,"ADDRESS":"成功七街１０１巷８號","OBJECTID":379929},"geometry":{"x":178195.81000000052,"y":2539760.3600000013}},{"attributes":{"ID":379940,"DIS_CODE":0,"TOWNNAME":"歸仁區","LI":"崙頂里","LIN":"21鄰","STREET":"大成路","SECT":" ","MAREA":" ","LANE":"２０６巷","ALLEY":" ","HOUSE_NO":"１６號","E_COORD97":177732.26999999999,"N_COORD97":2540113.25,"ADDRESS":"大成路２０６巷１６號","OBJECTID":379930},"geometry":{"x":177732.26999999955,"y":2540113.2499999981}},{"attributes":{"ID":379941,"DIS_CODE":0,"TOWNNAME":"歸仁區","LI":"崙頂里","LIN":"21鄰","STREET":"大成路","SECT":" ","MAREA":" ","LANE":"２０６巷","ALLEY":" ","HOUSE_NO":"２８號","E_COORD97":177701.47,"N_COORD97":2540100.25,"ADDRESS":"大成路２０６巷２８號","OBJECTID":379931},"geometry":{"x":177701.47000000067,"y":2540100.2500000019}},{"attributes":{"ID":379942,"DIS_CODE":0,"TOWNNAME":"歸仁區","LI":"崙頂里","LIN":"21鄰","STREET":"大成路","SECT":" ","MAREA":" ","LANE":"２０６巷","ALLEY":" ","HOUSE_NO":"２７號","E_COORD97":177707.64000000001,"N_COORD97":2540082.48,"ADDRESS":"大成路２０６巷２７號","OBJECTID":379932},"geometry":{"x":177707.63999999966,"y":2540082.4800000023}},{"attributes":{"ID":379943,"DIS_CODE":0,"TOWNNAME":"歸仁區","LI":"崙頂里","LIN":"21鄰","STREET":"大成路","SECT":" ","MAREA":" ","LANE":"２０６巷","ALLEY":" ","HOUSE_NO":"３４號","E_COORD97":177686.07000000001,"N_COORD97":2540093.25,"ADDRESS":"大成路２０６巷３４號","OBJECTID":379933},"geometry":{"x":177686.07000000123,"y":2540093.2500000037}},{"attributes":{"ID":379944,"DIS_CODE":0,"TOWNNAME":"歸仁區","LI":"崙頂里","LIN":"21鄰","STREET":"大成路","SECT":" ","MAREA":" ","LANE":"１８２巷","ALLEY":" ","HOUSE_NO":"５５號","E_COORD97":177670.76999999999,"N_COORD97":2540110.25,"ADDRESS":"大成路１８２巷５５號","OBJECTID":379934},"geometry":{"x":177670.77000000048,"y":2540110.2500000037}},{"attributes":{"ID":379945,"DIS_CODE":0,"TOWNNAME":"歸仁區","LI":"崙頂里","LIN":"21鄰","STREET":"大成路","SECT":" ","MAREA":" ","LANE":"２０６巷","ALLEY":" ","HOUSE_NO":"２２號","E_COORD97":177716.87,"N_COORD97":2540106.25,"ADDRESS":"大成路２０６巷２２號","OBJECTID":379935},"geometry":{"x":177716.87000000011,"y":2540106.25}},{"attributes":{"ID":379946,"DIS_CODE":0,"TOWNNAME":"歸仁區","LI":"崙頂里","LIN":"21鄰","STREET":"大成路","SECT":" ","MAREA":" ","LANE":"１８２巷","ALLEY":" ","HOUSE_NO":"２７號","E_COORD97":177697.57000000001,"N_COORD97":2540135.25,"ADDRESS":"大成路１８２巷２７號","OBJECTID":379936},"geometry":{"x":177697.5700000003,"y":2540135.2500000019}},{"attributes":{"ID":379947,"DIS_CODE":0,"TOWNNAME":"歸仁區","LI":"崙頂里","LIN":"21鄰","STREET":"大成路","SECT":" ","MAREA":" ","LANE":"１８２巷","ALLEY":" ","HOUSE_NO":"４１號","E_COORD97":177684.17000000001,"N_COORD97":2540124.25,"ADDRESS":"大成路１８２巷４１號","OBJECTID":379937},"geometry":{"x":177684.16999999993,"y":2540124.2500000019}},{"attributes":{"ID":379948,"DIS_CODE":0,"TOWNNAME":"歸仁區","LI":"崙頂里","LIN":"21鄰","STREET":"大成路","SECT":" ","MAREA":" ","LANE":"１８２巷","ALLEY":" ","HOUSE_NO":"３３號","E_COORD97":177704.67000000001,"N_COORD97":2540119.25,"ADDRESS":"大成路１８２巷３３號","OBJECTID":379938},"geometry":{"x":177704.66999999993,"y":2540119.25}},{"attributes":{"ID":379949,"DIS_CODE":0,"TOWNNAME":"歸仁區","LI":"崙頂里","LIN":"21鄰","STREET":"大成路","SECT":" ","MAREA":" ","LANE":"２０６巷","ALLEY":" ","HOUSE_NO":"２４號","E_COORD97":177710.76999999999,"N_COORD97":2540104.25,"ADDRESS":"大成路２０６巷２４號","OBJECTID":379939},"geometry":{"x":177710.76999999862,"y":2540104.2500000019}},{"attributes":{"ID":379950,"DIS_CODE":0,"TOWNNAME":"歸仁區","LI":"崙頂里","LIN":"21鄰","STREET":"大成路","SECT":" ","MAREA":" ","LANE":"１８２巷","ALLEY":" ","HOUSE_NO":"５９號","E_COORD97":177674.87,"N_COORD97":2540101.25,"ADDRESS":"大成路１８２巷５９號","OBJECTID":379940},"geometry":{"x":177674.87000000011,"y":2540101.2500000019}},{"attributes":{"ID":379951,"DIS_CODE":0,"TOWNNAME":"歸仁區","LI":"崙頂里","LIN":"21鄰","STREET":"大成路","SECT":" ","MAREA":" ","LANE":"２０６巷","ALLEY":" ","HOUSE_NO":"８號","E_COORD97":177750.51999999999,"N_COORD97":2540121.25,"ADDRESS":"大成路２０６巷８號","OBJECTID":379941},"geometry":{"x":177750.52000000048,"y":2540121.2500000019}},{"attributes":{"ID":379952,"DIS_CODE":0,"TOWNNAME":"歸仁區","LI":"崙頂里","LIN":"21鄰","STREET":"大成路","SECT":" ","MAREA":" ","LANE":"２０６巷","ALLEY":" ","HOUSE_NO":"１８號","E_COORD97":177727.17000000001,"N_COORD97":2540111.25,"ADDRESS":"大成路２０６巷１８號","OBJECTID":379942},"geometry":{"x":177727.17000000179,"y":2540111.2500000019}},{"attributes":{"ID":379953,"DIS_CODE":0,"TOWNNAME":"歸仁區","LI":"崙頂里","LIN":"21鄰","STREET":"大成路","SECT":" ","MAREA":" ","LANE":"２０６巷","ALLEY":" ","HOUSE_NO":"３０號","E_COORD97":177697.37,"N_COORD97":2540097.25,"ADDRESS":"大成路２０６巷３０號","OBJECTID":379943},"geometry":{"x":177697.37000000104,"y":2540097.2500000019}},{"attributes":{"ID":379954,"DIS_CODE":0,"TOWNNAME":"歸仁區","LI":"崙頂里","LIN":"21鄰","STREET":"大成路","SECT":" ","MAREA":" ","LANE":"２０６巷","ALLEY":" ","HOUSE_NO":"３２號","E_COORD97":177691.17000000001,"N_COORD97":2540095.25,"ADDRESS":"大成路２０６巷３２號","OBJECTID":379944},"geometry":{"x":177691.16999999993,"y":2540095.25}},{"attributes":{"ID":379955,"DIS_CODE":0,"TOWNNAME":"北區","LI":"大豐里","LIN":"21鄰","STREET":"大興街","SECT":" ","MAREA":" ","LANE":"２７５巷","ALLEY":" ","HOUSE_NO":"１４號","E_COORD97":166740.42999999999,"N_COORD97":2545671.8999999999,"ADDRESS":"大興街２７５巷１４號","OBJECTID":379945},"geometry":{"x":166740.43000000156,"y":2545671.9000000004}},{"attributes":{"ID":379956,"DIS_CODE":0,"TOWNNAME":"北區","LI":"大豐里","LIN":"21鄰","STREET":"大興街","SECT":" ","MAREA":" ","LANE":"２７５巷","ALLEY":" ","HOUSE_NO":"１８號","E_COORD97":166741.32999999999,"N_COORD97":2545658.3500000001,"ADDRESS":"大興街２７５巷１８號","OBJECTID":379946},"geometry":{"x":166741.32999999914,"y":2545658.3499999996}},{"attributes":{"ID":379957,"DIS_CODE":0,"TOWNNAME":"北區","LI":"大豐里","LIN":"21鄰","STREET":"大興街","SECT":" ","MAREA":" ","LANE":"２７５巷","ALLEY":" ","HOUSE_NO":"２０號","E_COORD97":166741.53,"N_COORD97":2545651.9100000001,"ADDRESS":"大興街２７５巷２０號","OBJECTID":379947},"geometry":{"x":166741.53000000026,"y":2545651.9100000001}},{"attributes":{"ID":379958,"DIS_CODE":0,"TOWNNAME":"北區","LI":"大豐里","LIN":"21鄰","STREET":"大興街","SECT":" ","MAREA":" ","LANE":"２７５巷","ALLEY":" ","HOUSE_NO":"２２號","E_COORD97":166741.01000000001,"N_COORD97":2545646.1000000001,"ADDRESS":"大興街２７５巷２２號","OBJECTID":379948},"geometry":{"x":166741.00999999978,"y":2545646.0999999996}},{"attributes":{"ID":379959,"DIS_CODE":0,"TOWNNAME":"北區","LI":"大豐里","LIN":"21鄰","STREET":"大興街","SECT":" ","MAREA":" ","LANE":"２７５巷","ALLEY":" ","HOUSE_NO":"２４號","E_COORD97":166741.39999999999,"N_COORD97":2545639.6499999999,"ADDRESS":"大興街２７５巷２４號","OBJECTID":379949},"geometry":{"x":166741.4000000013,"y":2545639.6500000004}},{"attributes":{"ID":379960,"DIS_CODE":0,"TOWNNAME":"北區","LI":"大豐里","LIN":"21鄰","STREET":"大興街","SECT":" ","MAREA":" ","LANE":"２７５巷","ALLEY":" ","HOUSE_NO":"２６號","E_COORD97":166741.32999999999,"N_COORD97":2545632.8199999998,"ADDRESS":"大興街２７５巷２６號","OBJECTID":379950},"geometry":{"x":166741.32999999914,"y":2545632.820000004}},{"attributes":{"ID":379961,"DIS_CODE":0,"TOWNNAME":"北區","LI":"大豐里","LIN":"21鄰","STREET":"大興街","SECT":" ","MAREA":" ","LANE":"２７５巷","ALLEY":" ","HOUSE_NO":"２８號","E_COORD97":166741.26999999999,"N_COORD97":2545626.7599999998,"ADDRESS":"大興街２７５巷２８號","OBJECTID":379951},"geometry":{"x":166741.27000000142,"y":2545626.7600000016}},{"attributes":{"ID":379962,"DIS_CODE":0,"TOWNNAME":"北區","LI":"大豐里","LIN":"21鄰","STREET":"大興街","SECT":" ","MAREA":" ","LANE":"２７５巷","ALLEY":" ","HOUSE_NO":"３２號","E_COORD97":166740.88,"N_COORD97":2545612.3700000001,"ADDRESS":"大興街２７５巷３２號","OBJECTID":379952},"geometry":{"x":166740.88000000175,"y":2545612.370000001}},{"attributes":{"ID":379963,"DIS_CODE":0,"TOWNNAME":"北區","LI":"大豐里","LIN":"21鄰","STREET":"大興街","SECT":" ","MAREA":" ","LANE":"２７５巷","ALLEY":" ","HOUSE_NO":"３４號","E_COORD97":166740.94,"N_COORD97":2545605.8599999999,"ADDRESS":"大興街２７５巷３４號","OBJECTID":379953},"geometry":{"x":166740.93999999948,"y":2545605.8600000013}},{"attributes":{"ID":379964,"DIS_CODE":0,"TOWNNAME":"北區","LI":"大豐里","LIN":"21鄰","STREET":"大興街","SECT":" ","MAREA":" ","LANE":"２７５巷","ALLEY":" ","HOUSE_NO":"３６號","E_COORD97":166741.01000000001,"N_COORD97":2545599.2799999998,"ADDRESS":"大興街２７５巷３６號","OBJECTID":379954},"geometry":{"x":166741.00999999978,"y":2545599.2800000012}},{"attributes":{"ID":379965,"DIS_CODE":0,"TOWNNAME":"北區","LI":"大豐里","LIN":"21鄰","STREET":"大興街","SECT":" ","MAREA":" ","LANE":"２７５巷","ALLEY":" ","HOUSE_NO":"３８號","E_COORD97":166741.20000000001,"N_COORD97":2545593.6099999999,"ADDRESS":"大興街２７５巷３８號","OBJECTID":379955},"geometry":{"x":166741.20000000112,"y":2545593.6100000013}},{"attributes":{"ID":379966,"DIS_CODE":0,"TOWNNAME":"北區","LI":"大豐里","LIN":"21鄰","STREET":"大興街","SECT":" ","MAREA":" ","LANE":"２７５巷","ALLEY":" ","HOUSE_NO":"４０號","E_COORD97":166743.67000000001,"N_COORD97":2545587.3300000001,"ADDRESS":"大興街２７５巷４０號","OBJECTID":379956},"geometry":{"x":166743.66999999993,"y":2545587.3300000001}},{"attributes":{"ID":379967,"DIS_CODE":0,"TOWNNAME":"北區","LI":"大豐里","LIN":"21鄰","STREET":"大興街","SECT":" ","MAREA":" ","LANE":"２７５巷","ALLEY":" ","HOUSE_NO":"４２號","E_COORD97":166743.41,"N_COORD97":2545580.9399999999,"ADDRESS":"大興街２７５巷４２號","OBJECTID":379957},"geometry":{"x":166743.41000000108,"y":2545580.9400000013}},{"attributes":{"ID":379968,"DIS_CODE":0,"TOWNNAME":"北區","LI":"大豐里","LIN":"21鄰","STREET":"大興街","SECT":" ","MAREA":" ","LANE":"２７５巷","ALLEY":" ","HOUSE_NO":"４６號","E_COORD97":166743.92999999999,"N_COORD97":2545574.6200000001,"ADDRESS":"大興街２７５巷４６號","OBJECTID":379958},"geometry":{"x":166743.93000000063,"y":2545574.6200000029}},{"attributes":{"ID":379969,"DIS_CODE":0,"TOWNNAME":"北區","LI":"大豐里","LIN":"21鄰","STREET":"大興街","SECT":" ","MAREA":" ","LANE":"２７５巷","ALLEY":" ","HOUSE_NO":"４８號","E_COORD97":166743.54000000001,"N_COORD97":2545567.79,"ADDRESS":"大興街２７５巷４８號","OBJECTID":379959},"geometry":{"x":166743.54000000097,"y":2545567.790000001}},{"attributes":{"ID":379970,"DIS_CODE":0,"TOWNNAME":"北區","LI":"大豐里","LIN":"21鄰","STREET":"大興街","SECT":" ","MAREA":" ","LANE":"２７５巷","ALLEY":" ","HOUSE_NO":"５０號","E_COORD97":166743.41,"N_COORD97":2545561.1800000002,"ADDRESS":"大興街２７５巷５０號","OBJECTID":379960},"geometry":{"x":166743.41000000108,"y":2545561.1799999997}},{"attributes":{"ID":379971,"DIS_CODE":0,"TOWNNAME":"北區","LI":"大豐里","LIN":"21鄰","STREET":"大興街","SECT":" ","MAREA":" ","LANE":"２７５巷","ALLEY":" ","HOUSE_NO":"５２號","E_COORD97":166743.54000000001,"N_COORD97":2545555.3799999999,"ADDRESS":"大興街２７５巷５２號","OBJECTID":379961},"geometry":{"x":166743.54000000097,"y":2545555.379999999}},{"attributes":{"ID":379972,"DIS_CODE":0,"TOWNNAME":"北區","LI":"大豐里","LIN":"21鄰","STREET":"大興街","SECT":" ","MAREA":" ","LANE":"２７５巷","ALLEY":" ","HOUSE_NO":"５４號","E_COORD97":166743.48000000001,"N_COORD97":2545548.9900000002,"ADDRESS":"大興街２７５巷５４號","OBJECTID":379962},"geometry":{"x":166743.48000000045,"y":2545548.9900000002}},{"attributes":{"ID":379973,"DIS_CODE":0,"TOWNNAME":"北區","LI":"成德里","LIN":"21鄰","STREET":"北安路","SECT":"一段","MAREA":" ","LANE":"３４１巷","ALLEY":" ","HOUSE_NO":"２號","E_COORD97":168559.48999999999,"N_COORD97":2546814.7999999998,"ADDRESS":"北安路一段３４１巷２號","OBJECTID":379963},"geometry":{"x":168559.49000000209,"y":2546814.8000000026}},{"attributes":{"ID":379974,"DIS_CODE":0,"TOWNNAME":"北區","LI":"大豐里","LIN":"21鄰","STREET":"大興街","SECT":" ","MAREA":" ","LANE":"２８５巷","ALLEY":" ","HOUSE_NO":"２８號","E_COORD97":166693.76000000001,"N_COORD97":2545587.2999999998,"ADDRESS":"大興街２８５巷２８號","OBJECTID":379964},"geometry":{"x":166693.75999999978,"y":2545587.3000000026}},{"attributes":{"ID":379975,"DIS_CODE":0,"TOWNNAME":"北區","LI":"大豐里","LIN":"21鄰","STREET":"大興街","SECT":" ","MAREA":" ","LANE":"２８５巷","ALLEY":" ","HOUSE_NO":"３０號","E_COORD97":166694.42000000001,"N_COORD97":2545575.8399999999,"ADDRESS":"大興街２８５巷３０號","OBJECTID":379965},"geometry":{"x":166694.41999999993,"y":2545575.8400000017}},{"attributes":{"ID":379976,"DIS_CODE":0,"TOWNNAME":"北區","LI":"大豐里","LIN":"21鄰","STREET":"大興街","SECT":" ","MAREA":" ","LANE":"２８５巷","ALLEY":" ","HOUSE_NO":"３２號","E_COORD97":166694.42000000001,"N_COORD97":2545571.4199999999,"ADDRESS":"大興街２８５巷３２號","OBJECTID":379966},"geometry":{"x":166694.41999999993,"y":2545571.4200000018}},{"attributes":{"ID":379977,"DIS_CODE":0,"TOWNNAME":"北區","LI":"大豐里","LIN":"21鄰","STREET":"大興街","SECT":" ","MAREA":" ","LANE":"２８５巷","ALLEY":" ","HOUSE_NO":"３６號","E_COORD97":166694.42000000001,"N_COORD97":2545567,"ADDRESS":"大興街２８５巷３６號","OBJECTID":379967},"geometry":{"x":166694.41999999993,"y":2545567.0000000037}},{"attributes":{"ID":379978,"DIS_CODE":0,"TOWNNAME":"北區","LI":"大豐里","LIN":"21鄰","STREET":"大興街","SECT":" ","MAREA":" ","LANE":"２８５巷","ALLEY":" ","HOUSE_NO":"３８號","E_COORD97":166694.57999999999,"N_COORD97":2545562.8999999999,"ADDRESS":"大興街２８５巷３８號","OBJECTID":379968},"geometry":{"x":166694.58000000101,"y":2545562.9000000004}},{"attributes":{"ID":379979,"DIS_CODE":0,"TOWNNAME":"北區","LI":"大豐里","LIN":"21鄰","STREET":"大興街","SECT":" ","MAREA":" ","LANE":"２８５巷","ALLEY":" ","HOUSE_NO":"４０號","E_COORD97":166694.57999999999,"N_COORD97":2545558.9700000002,"ADDRESS":"大興街２８５巷４０號","OBJECTID":379969},"geometry":{"x":166694.58000000101,"y":2545558.9700000025}},{"attributes":{"ID":379980,"DIS_CODE":0,"TOWNNAME":"北區","LI":"大豐里","LIN":"21鄰","STREET":"大興街","SECT":" ","MAREA":" ","LANE":"２８５巷","ALLEY":" ","HOUSE_NO":"４２號","E_COORD97":166694.57999999999,"N_COORD97":2545554.7200000002,"ADDRESS":"大興街２８５巷４２號","OBJECTID":379970},"geometry":{"x":166694.58000000101,"y":2545554.7200000007}},{"attributes":{"ID":379981,"DIS_CODE":0,"TOWNNAME":"北區","LI":"大豐里","LIN":"21鄰","STREET":"大興街","SECT":" ","MAREA":" ","LANE":"２８５巷","ALLEY":" ","HOUSE_NO":"４６號","E_COORD97":166694.42000000001,"N_COORD97":2545550.46,"ADDRESS":"大興街２８５巷４６號","OBJECTID":379971},"geometry":{"x":166694.41999999993,"y":2545550.4600000009}},{"attributes":{"ID":379982,"DIS_CODE":0,"TOWNNAME":"北區","LI":"大豐里","LIN":"21鄰","STREET":"大興街","SECT":" ","MAREA":" ","LANE":"２８５巷","ALLEY":" ","HOUSE_NO":"５０號","E_COORD97":166694.57999999999,"N_COORD97":2545546.2000000002,"ADDRESS":"大興街２８５巷５０號","OBJECTID":379972},"geometry":{"x":166694.58000000101,"y":2545546.1999999993}},{"attributes":{"ID":379983,"DIS_CODE":0,"TOWNNAME":"北區","LI":"大豐里","LIN":"21鄰","STREET":"中華北路","SECT":"一段","MAREA":" ","LANE":"７８巷","ALLEY":" ","HOUSE_NO":"７１號","E_COORD97":166659.38,"N_COORD97":2545507.9300000002,"ADDRESS":"中華北路一段７８巷７１號","OBJECTID":379973},"geometry":{"x":166659.37999999896,"y":2545507.9299999997}},{"attributes":{"ID":379984,"DIS_CODE":0,"TOWNNAME":"新營區","LI":"新北里","LIN":"21鄰","STREET":"民生路","SECT":" ","MAREA":" ","LANE":"３３６巷","ALLEY":" ","HOUSE_NO":"８５號","E_COORD97":179047.81,"N_COORD97":2579251.6899999999,"ADDRESS":"民生路３３６巷８５號","OBJECTID":379974},"geometry":{"x":179047.80999999959,"y":2579251.6899999976}},{"attributes":{"ID":379985,"DIS_CODE":0,"TOWNNAME":"新營區","LI":"新東里","LIN":"21鄰","STREET":"東明街","SECT":" ","MAREA":" ","LANE":"４２巷","ALLEY":" ","HOUSE_NO":"１１號","E_COORD97":180841.53,"N_COORD97":2579653.4300000002,"ADDRESS":"東明街４２巷１１號","OBJECTID":379975},"geometry":{"x":180841.53000000119,"y":2579653.4299999997}},{"attributes":{"ID":379986,"DIS_CODE":0,"TOWNNAME":"新營區","LI":"新東里","LIN":"21鄰","STREET":"東明街","SECT":" ","MAREA":" ","LANE":"４２巷","ALLEY":" ","HOUSE_NO":"９號","E_COORD97":180834.48999999999,"N_COORD97":2579653.6099999999,"ADDRESS":"東明街４２巷９號","OBJECTID":379976},"geometry":{"x":180834.49000000115,"y":2579653.6100000013}},{"attributes":{"ID":379987,"DIS_CODE":0,"TOWNNAME":"新營區","LI":"新東里","LIN":"21鄰","STREET":"東明街","SECT":" ","MAREA":" ","LANE":"５６巷","ALLEY":" ","HOUSE_NO":"１８號","E_COORD97":180856.42000000001,"N_COORD97":2579694.5299999998,"ADDRESS":"東明街５６巷１８號","OBJECTID":379977},"geometry":{"x":180856.41999999899,"y":2579694.5300000012}},{"attributes":{"ID":379988,"DIS_CODE":0,"TOWNNAME":"新營區","LI":"新東里","LIN":"21鄰","STREET":"東明街","SECT":" ","MAREA":" ","LANE":"５６巷","ALLEY":" ","HOUSE_NO":"２０號","E_COORD97":180861.20999999999,"N_COORD97":2579694.5800000001,"ADDRESS":"東明街５６巷２０號","OBJECTID":379978},"geometry":{"x":180861.20999999903,"y":2579694.5800000019}},{"attributes":{"ID":379989,"DIS_CODE":0,"TOWNNAME":"新營區","LI":"新東里","LIN":"21鄰","STREET":"東明街","SECT":" ","MAREA":" ","LANE":"５６巷","ALLEY":" ","HOUSE_NO":"２２號","E_COORD97":180865.59,"N_COORD97":2579694.8300000001,"ADDRESS":"東明街５６巷２２號","OBJECTID":379979},"geometry":{"x":180865.59000000078,"y":2579694.8300000001}},{"attributes":{"ID":379990,"DIS_CODE":0,"TOWNNAME":"新營區","LI":"新東里","LIN":"21鄰","STREET":"東明街","SECT":" ","MAREA":" ","LANE":"５６巷","ALLEY":" ","HOUSE_NO":"２３號","E_COORD97":180855.78,"N_COORD97":2579705.6400000001,"ADDRESS":"東明街５６巷２３號","OBJECTID":379980},"geometry":{"x":180855.78000000026,"y":2579705.6400000025}},{"attributes":{"ID":379991,"DIS_CODE":0,"TOWNNAME":"新營區","LI":"新東里","LIN":"21鄰","STREET":"東明街","SECT":" ","MAREA":" ","LANE":"５６巷","ALLEY":" ","HOUSE_NO":"２５號","E_COORD97":180861.01000000001,"N_COORD97":2579705.8999999999,"ADDRESS":"東明街５６巷２５號","OBJECTID":379981},"geometry":{"x":180861.01000000071,"y":2579705.9000000041}},{"attributes":{"ID":379992,"DIS_CODE":0,"TOWNNAME":"新營區","LI":"新東里","LIN":"21鄰","STREET":"東明街","SECT":" ","MAREA":" ","LANE":"５６巷","ALLEY":" ","HOUSE_NO":"２６號","E_COORD97":180869.76999999999,"N_COORD97":2579694.98,"ADDRESS":"東明街５６巷２６號","OBJECTID":379982},"geometry":{"x":180869.77000000048,"y":2579694.9800000042}},{"attributes":{"ID":379993,"DIS_CODE":0,"TOWNNAME":"新營區","LI":"新東里","LIN":"21鄰","STREET":"東明街","SECT":" ","MAREA":" ","LANE":"５６巷","ALLEY":" ","HOUSE_NO":"２７號","E_COORD97":180866.26000000001,"N_COORD97":2579706.1200000001,"ADDRESS":"東明街５６巷２７號","OBJECTID":379983},"geometry":{"x":180866.26000000071,"y":2579706.1200000029}},{"attributes":{"ID":379994,"DIS_CODE":0,"TOWNNAME":"新營區","LI":"新東里","LIN":"21鄰","STREET":"東明街","SECT":" ","MAREA":" ","LANE":"５６巷","ALLEY":" ","HOUSE_NO":"２９號","E_COORD97":180871.09,"N_COORD97":2579706.27,"ADDRESS":"東明街５６巷２９號","OBJECTID":379984},"geometry":{"x":180871.09000000078,"y":2579706.2700000014}},{"attributes":{"ID":379995,"DIS_CODE":0,"TOWNNAME":"新營區","LI":"新南里","LIN":"21鄰","STREET":"復興路","SECT":" ","MAREA":" ","LANE":"３７８巷","ALLEY":" ","HOUSE_NO":"３９號","E_COORD97":178557.89000000001,"N_COORD97":2578339.3599999999,"ADDRESS":"復興路３７８巷３９號","OBJECTID":379985},"geometry":{"x":178557.8900000006,"y":2578339.3600000013}},{"attributes":{"ID":379996,"DIS_CODE":0,"TOWNNAME":"新營區","LI":"新南里","LIN":"21鄰","STREET":"復興路","SECT":" ","MAREA":" ","LANE":"３７８巷","ALLEY":" ","HOUSE_NO":"４１號","E_COORD97":178548.01999999999,"N_COORD97":2578341.9100000001,"ADDRESS":"復興路３７８巷４１號","OBJECTID":379986},"geometry":{"x":178548.01999999955,"y":2578341.9100000001}},{"attributes":{"ID":379997,"DIS_CODE":0,"TOWNNAME":"新營區","LI":"新南里","LIN":"21鄰","STREET":"復興路","SECT":" ","MAREA":" ","LANE":"３７８巷","ALLEY":" ","HOUSE_NO":"４３號","E_COORD97":178559.84,"N_COORD97":2578346.21,"ADDRESS":"復興路３７８巷４３號","OBJECTID":379987},"geometry":{"x":178559.83999999892,"y":2578346.2100000028}},{"attributes":{"ID":379998,"DIS_CODE":0,"TOWNNAME":"新營區","LI":"新南里","LIN":"21鄰","STREET":"復興路","SECT":" ","MAREA":" ","LANE":"３７８巷","ALLEY":" ","HOUSE_NO":"４５號","E_COORD97":178561.20999999999,"N_COORD97":2578350.7599999998,"ADDRESS":"復興路３７８巷４５號","OBJECTID":379988},"geometry":{"x":178561.21000000089,"y":2578350.7600000016}},{"attributes":{"ID":379999,"DIS_CODE":0,"TOWNNAME":"新營區","LI":"新南里","LIN":"21鄰","STREET":"復興路","SECT":" ","MAREA":" ","LANE":"３７８巷","ALLEY":" ","HOUSE_NO":"４７號","E_COORD97":178562.69,"N_COORD97":2578355.46,"ADDRESS":"復興路３７８巷４７號","OBJECTID":379989},"geometry":{"x":178562.69000000041,"y":2578355.4600000009}},{"attributes":{"ID":380000,"DIS_CODE":0,"TOWNNAME":"新營區","LI":"新南里","LIN":"21鄰","STREET":"復興路","SECT":" ","MAREA":" ","LANE":"３７８巷","ALLEY":" ","HOUSE_NO":"４９號","E_COORD97":178563.98999999999,"N_COORD97":2578359.4399999999,"ADDRESS":"復興路３７８巷４９號","OBJECTID":379990},"geometry":{"x":178563.99000000022,"y":2578359.4400000013}},{"attributes":{"ID":380001,"DIS_CODE":0,"TOWNNAME":"新營區","LI":"新南里","LIN":"21鄰","STREET":"復興路","SECT":" ","MAREA":" ","LANE":"３７８巷","ALLEY":" ","HOUSE_NO":"５１號","E_COORD97":178564.98000000001,"N_COORD97":2578363.6800000002,"ADDRESS":"復興路３７８巷５１號","OBJECTID":379991},"geometry":{"x":178564.98000000138,"y":2578363.6799999978}},{"attributes":{"ID":380002,"DIS_CODE":0,"TOWNNAME":"新營區","LI":"新南里","LIN":"21鄰","STREET":"復興路","SECT":" ","MAREA":" ","LANE":"３７８巷","ALLEY":" ","HOUSE_NO":"５３號","E_COORD97":178566.17000000001,"N_COORD97":2578368,"ADDRESS":"復興路３７８巷５３號","OBJECTID":379992},"geometry":{"x":178566.16999999899,"y":2578368}},{"attributes":{"ID":380003,"DIS_CODE":0,"TOWNNAME":"新營區","LI":"新南里","LIN":"21鄰","STREET":"復興路","SECT":" ","MAREA":" ","LANE":"３７８巷","ALLEY":" ","HOUSE_NO":"５５號","E_COORD97":178567.59,"N_COORD97":2578372.1899999999,"ADDRESS":"復興路３７８巷５５號","OBJECTID":379993},"geometry":{"x":178567.59000000078,"y":2578372.1899999995}},{"attributes":{"ID":380004,"DIS_CODE":0,"TOWNNAME":"新營區","LI":"新南里","LIN":"21鄰","STREET":"復興路","SECT":" ","MAREA":" ","LANE":"３７８巷","ALLEY":" ","HOUSE_NO":"５７號","E_COORD97":178568.56,"N_COORD97":2578375.8700000001,"ADDRESS":"復興路３７８巷５７號","OBJECTID":379994},"geometry":{"x":178568.56000000052,"y":2578375.870000001}},{"attributes":{"ID":380005,"DIS_CODE":0,"TOWNNAME":"新營區","LI":"新南里","LIN":"21鄰","STREET":"復興路","SECT":" ","MAREA":" ","LANE":"３７８巷","ALLEY":" ","HOUSE_NO":"３９號","E_COORD97":178569.97,"N_COORD97":2578379.73,"ADDRESS":"復興路３７８巷３９號","OBJECTID":379995},"geometry":{"x":178569.97000000067,"y":2578379.7300000004}},{"attributes":{"ID":380006,"DIS_CODE":0,"TOWNNAME":"新營區","LI":"新南里","LIN":"21鄰","STREET":"復興路","SECT":" ","MAREA":" ","LANE":"３７８巷","ALLEY":" ","HOUSE_NO":"６１號","E_COORD97":178570.98999999999,"N_COORD97":2578384.5699999998,"ADDRESS":"復興路３７８巷６１號","OBJECTID":379996},"geometry":{"x":178570.99000000022,"y":2578384.5700000003}},{"attributes":{"ID":380007,"DIS_CODE":0,"TOWNNAME":"新營區","LI":"新南里","LIN":"21鄰","STREET":"復興路","SECT":" ","MAREA":" ","LANE":"３７８巷","ALLEY":" ","HOUSE_NO":"６３號","E_COORD97":178572.28,"N_COORD97":2578390.2999999998,"ADDRESS":"復興路３７８巷６３號","OBJECTID":379997},"geometry":{"x":178572.28000000026,"y":2578390.3000000007}},{"attributes":{"ID":380008,"DIS_CODE":0,"TOWNNAME":"新營區","LI":"新南里","LIN":"21鄰","STREET":"復興路","SECT":" ","MAREA":" ","LANE":"３７８巷","ALLEY":" ","HOUSE_NO":"６５號","E_COORD97":178561.89999999999,"N_COORD97":2578392.9399999999,"ADDRESS":"復興路３７８巷６５號","OBJECTID":379998},"geometry":{"x":178561.90000000224,"y":2578392.9400000013}},{"attributes":{"ID":380009,"DIS_CODE":0,"TOWNNAME":"楠西區","LI":"東勢里","LIN":"21鄰","STREET":"民生路","SECT":" ","MAREA":" ","LANE":"１０６巷","ALLEY":" ","HOUSE_NO":"８號之１","E_COORD97":197375.51999999999,"N_COORD97":2564222.2999999998,"ADDRESS":"民生路１０６巷８號之１","OBJECTID":379999},"geometry":{"x":197375.52000000048,"y":2564222.3000000007}},{"attributes":{"ID":380010,"DIS_CODE":0,"TOWNNAME":"楠西區","LI":"東勢里","LIN":"21鄰","STREET":"民生路","SECT":" ","MAREA":" ","LANE":"８２巷","ALLEY":" ","HOUSE_NO":"１８號","E_COORD97":197377.48999999999,"N_COORD97":2564179.29,"ADDRESS":"民生路８２巷１８號","OBJECTID":380000},"geometry":{"x":197377.49000000022,"y":2564179.2899999991}}]}