{"displayFieldName":"TOWNNAME","fieldAliases":{"ID":"ID","DIS_CODE":"DIS_CODE","TOWNNAME":"TOWNNAME","LI":"LI","LIN":"LIN","STREET":"STREET","SECT":"SECT","MAREA":"MAREA","LANE":"LANE","ALLEY":"ALLEY","HOUSE_NO":"HOUSE_NO","E_COORD97":"E_COORD97","N_COORD97":"N_COORD97","ADDRESS":"ADDRESS","OBJECTID":"OBJECTID"},"geometryType":"esriGeometryPoint","spatialReference":{"wkid":102443,"latestWkid":3826},"fields":[{"name":"ID","type":"esriFieldTypeDouble","alias":"ID"},{"name":"DIS_CODE","type":"esriFieldTypeInteger","alias":"DIS_CODE"},{"name":"TOWNNAME","type":"esriFieldTypeString","alias":"TOWNNAME","length":8},{"name":"LI","type":"esriFieldTypeString","alias":"LI","length":8},{"name":"LIN","type":"esriFieldTypeString","alias":"LIN","length":12},{"name":"STREET","type":"esriFieldTypeString","alias":"STREET","length":20},{"name":"SECT","type":"esriFieldTypeString","alias":"SECT","length":8},{"name":"MAREA","type":"esriFieldTypeString","alias":"MAREA","length":12},{"name":"LANE","type":"esriFieldTypeString","alias":"LANE","length":10},{"name":"ALLEY","type":"esriFieldTypeString","alias":"ALLEY","length":10},{"name":"HOUSE_NO","type":"esriFieldTypeString","alias":"HOUSE_NO","length":20},{"name":"E_COORD97","type":"esriFieldTypeDouble","alias":"E_COORD97"},{"name":"N_COORD97","type":"esriFieldTypeDouble","alias":"N_COORD97"},{"name":"ADDRESS","type":"esriFieldTypeString","alias":"ADDRESS","length":50},{"name":"OBJECTID","type":"esriFieldTypeOID","alias":"OBJECTID"}],"features":[{"attributes":{"ID":12401,"DIS_CODE":0,"TOWNNAME":"永康區","LI":"\u25A0行里","LIN":"40鄰","STREET":"永安路","SECT":" ","MAREA":" ","LANE":"１０５巷","ALLEY":"４６弄","HOUSE_NO":"１９號二樓之１","E_COORD97":172580.92000000001,"N_COORD97":2549358.5600000001,"ADDRESS":"永安路１０５巷４６弄１９號二樓之１","OBJECTID":12401},"geometry":{"x":172580.92000000086,"y":2549358.5600000024}},{"attributes":{"ID":12402,"DIS_CODE":0,"TOWNNAME":"南化區","LI":"南化里","LIN":"13鄰","STREET":" ","SECT":" ","MAREA":"南化","LANE":" ","ALLEY":" ","HOUSE_NO":"２７５號","E_COORD97":197547.44,"N_COORD97":2548524.75,"ADDRESS":"南化２７５號","OBJECTID":12402},"geometry":{"x":197547.44000000041,"y":2548524.7499999981}},{"attributes":{"ID":12403,"DIS_CODE":0,"TOWNNAME":"新營區","LI":"五興里","LIN":"13鄰","STREET":" ","SECT":" ","MAREA":"五間厝","LANE":" ","ALLEY":" ","HOUSE_NO":"１４０號","E_COORD97":175427.73999999999,"N_COORD97":2574273.73,"ADDRESS":"五間厝１４０號","OBJECTID":12403},"geometry":{"x":175427.74000000022,"y":2574273.7300000023}},{"attributes":{"ID":12404,"DIS_CODE":0,"TOWNNAME":"永康區","LI":"\u25A0行里","LIN":"40鄰","STREET":"永安路","SECT":" ","MAREA":" ","LANE":"１０５巷","ALLEY":"４６弄","HOUSE_NO":"１８號二樓之１","E_COORD97":172608.19,"N_COORD97":2549360.0600000001,"ADDRESS":"永安路１０５巷４６弄１８號二樓之１","OBJECTID":12404},"geometry":{"x":172608.19000000227,"y":2549360.0600000005}},{"attributes":{"ID":12405,"DIS_CODE":0,"TOWNNAME":"新營區","LI":"太北里","LIN":"13鄰","STREET":" ","SECT":" ","MAREA":"太子宮","LANE":" ","ALLEY":" ","HOUSE_NO":"１０７號","E_COORD97":175991.76999999999,"N_COORD97":2576991.9300000002,"ADDRESS":"太子宮１０７號","OBJECTID":12405},"geometry":{"x":175991.76999999955,"y":2576991.9299999997}},{"attributes":{"ID":12406,"DIS_CODE":0,"TOWNNAME":"永康區","LI":"\u25A0行里","LIN":"40鄰","STREET":"永安路","SECT":" ","MAREA":" ","LANE":"１０５巷","ALLEY":"４６弄","HOUSE_NO":"２４號三樓之２","E_COORD97":172618.29999999999,"N_COORD97":2549372.0600000001,"ADDRESS":"永安路１０５巷４６弄２４號三樓之２","OBJECTID":12406},"geometry":{"x":172618.29999999981,"y":2549372.0600000024}},{"attributes":{"ID":12407,"DIS_CODE":0,"TOWNNAME":"學甲區","LI":"平和里","LIN":"24鄰","STREET":" ","SECT":" ","MAREA":"西平寮","LANE":" ","ALLEY":" ","HOUSE_NO":"４３號","E_COORD97":169091.51999999999,"N_COORD97":2573195.0899999999,"ADDRESS":"西平寮４３號","OBJECTID":12407},"geometry":{"x":169091.52000000048,"y":2573195.0900000017}},{"attributes":{"ID":12408,"DIS_CODE":0,"TOWNNAME":"學甲區","LI":"平和里","LIN":"24鄰","STREET":" ","SECT":" ","MAREA":"西平寮","LANE":" ","ALLEY":" ","HOUSE_NO":"４５號","E_COORD97":169094.03,"N_COORD97":2573166.1299999999,"ADDRESS":"西平寮４５號","OBJECTID":12408},"geometry":{"x":169094.03000000026,"y":2573166.1300000027}},{"attributes":{"ID":12409,"DIS_CODE":0,"TOWNNAME":"關廟區","LI":"關廟里","LIN":"13鄰","STREET":"大富街","SECT":" ","MAREA":" ","LANE":" ","ALLEY":" ","HOUSE_NO":"２０５號","E_COORD97":181052.57000000001,"N_COORD97":2539484.25,"ADDRESS":"大富街２０５號","OBJECTID":12409},"geometry":{"x":181052.57000000216,"y":2539484.2500000019}},{"attributes":{"ID":12410,"DIS_CODE":0,"TOWNNAME":"新營區","LI":"民權里","LIN":"13鄰","STREET":"武昌街","SECT":" ","MAREA":" ","LANE":" ","ALLEY":" ","HOUSE_NO":"２２之３號","E_COORD97":179908.26999999999,"N_COORD97":2578349.5099999998,"ADDRESS":"武昌街２２之３號","OBJECTID":12410},"geometry":{"x":179908.27000000048,"y":2578349.5100000016}},{"attributes":{"ID":12411,"DIS_CODE":0,"TOWNNAME":"學甲區","LI":"平和里","LIN":"24鄰","STREET":" ","SECT":" ","MAREA":"西平寮","LANE":" ","ALLEY":" ","HOUSE_NO":"４７號","E_COORD97":169126.56,"N_COORD97":2573184.98,"ADDRESS":"西平寮４７號","OBJECTID":12411},"geometry":{"x":169126.56000000052,"y":2573184.9800000004}},{"attributes":{"ID":12412,"DIS_CODE":0,"TOWNNAME":"新營區","LI":"民生里","LIN":"13鄰","STREET":"民治路","SECT":" ","MAREA":" ","LANE":" ","ALLEY":" ","HOUSE_NO":"３３７號","E_COORD97":178696.14000000001,"N_COORD97":2578172.5,"ADDRESS":"民治路３３７號","OBJECTID":12412},"geometry":{"x":178696.13999999966,"y":2578172.5000000019}},{"attributes":{"ID":12413,"DIS_CODE":0,"TOWNNAME":"學甲區","LI":"平和里","LIN":"24鄰","STREET":" ","SECT":" ","MAREA":"西平寮","LANE":" ","ALLEY":" ","HOUSE_NO":"４８號之３","E_COORD97":169101.10999999999,"N_COORD97":2573206.0499999998,"ADDRESS":"西平寮４８號之３","OBJECTID":12413},"geometry":{"x":169101.1099999994,"y":2573206.0500000026}},{"attributes":{"ID":12414,"DIS_CODE":0,"TOWNNAME":"新營區","LI":"大宏里","LIN":"13鄰","STREET":"文昌街","SECT":" ","MAREA":" ","LANE":" ","ALLEY":" ","HOUSE_NO":"４４號","E_COORD97":180273.84,"N_COORD97":2578313.3900000001,"ADDRESS":"文昌街４４號","OBJECTID":12414},"geometry":{"x":180273.84000000171,"y":2578313.3900000025}},{"attributes":{"ID":12415,"DIS_CODE":0,"TOWNNAME":"新化區","LI":"全興里","LIN":"13鄰","STREET":" ","SECT":" ","MAREA":"竹子\u25A0","LANE":" ","ALLEY":" ","HOUSE_NO":"２４７號之２６３","E_COORD97":178163.98000000001,"N_COORD97":2546749.2599999998,"ADDRESS":"竹子\u25A0２４７號之２６３","OBJECTID":12415},"geometry":{"x":178163.98000000045,"y":2546749.2600000016}},{"attributes":{"ID":12416,"DIS_CODE":0,"TOWNNAME":"永康區","LI":"\u25A0行里","LIN":"40鄰","STREET":"永安路","SECT":" ","MAREA":" ","LANE":"１０５巷","ALLEY":"４６弄","HOUSE_NO":"２４號七樓之１","E_COORD97":172618.17000000001,"N_COORD97":2549372.0600000001,"ADDRESS":"永安路１０５巷４６弄２４號七樓之１","OBJECTID":12416},"geometry":{"x":172618.17000000086,"y":2549372.0600000024}},{"attributes":{"ID":12417,"DIS_CODE":0,"TOWNNAME":"學甲區","LI":"平和里","LIN":"24鄰","STREET":" ","SECT":" ","MAREA":"西平寮","LANE":" ","ALLEY":" ","HOUSE_NO":"４８號","E_COORD97":169114.45000000001,"N_COORD97":2573203.0099999998,"ADDRESS":"西平寮４８號","OBJECTID":12417},"geometry":{"x":169114.45000000112,"y":2573203.0100000016}},{"attributes":{"ID":12418,"DIS_CODE":0,"TOWNNAME":"永康區","LI":"\u25A0行里","LIN":"40鄰","STREET":"永安路","SECT":" ","MAREA":" ","LANE":"１０５巷","ALLEY":"４６弄","HOUSE_NO":"１８號二樓之３","E_COORD97":172608.29000000001,"N_COORD97":2549360.0600000001,"ADDRESS":"永安路１０５巷４６弄１８號二樓之３","OBJECTID":12418},"geometry":{"x":172608.29000000004,"y":2549360.0600000005}},{"attributes":{"ID":12419,"DIS_CODE":0,"TOWNNAME":"永康區","LI":"\u25A0行里","LIN":"40鄰","STREET":"永安路","SECT":" ","MAREA":" ","LANE":"１０５巷","ALLEY":"４６弄","HOUSE_NO":"２１號二樓之２","E_COORD97":172590.79999999999,"N_COORD97":2549371.3100000001,"ADDRESS":"永安路１０５巷４６弄２１號二樓之２","OBJECTID":12419},"geometry":{"x":172590.79999999981,"y":2549371.3100000005}},{"attributes":{"ID":12420,"DIS_CODE":0,"TOWNNAME":"永康區","LI":"\u25A0行里","LIN":"40鄰","STREET":"永安路","SECT":" ","MAREA":" ","LANE":"１０５巷","ALLEY":"４６弄","HOUSE_NO":"１９號六樓之１","E_COORD97":172580.92000000001,"N_COORD97":2549358.5600000001,"ADDRESS":"永安路１０５巷４６弄１９號六樓之１","OBJECTID":12420},"geometry":{"x":172580.92000000086,"y":2549358.5600000024}},{"attributes":{"ID":12421,"DIS_CODE":0,"TOWNNAME":"永康區","LI":"\u25A0行里","LIN":"40鄰","STREET":"永安路","SECT":" ","MAREA":" ","LANE":"１０５巷","ALLEY":"４６弄","HOUSE_NO":"２４號四樓之３","E_COORD97":172618.26999999999,"N_COORD97":2549372.0600000001,"ADDRESS":"永安路１０５巷４６弄２４號四樓之３","OBJECTID":12421},"geometry":{"x":172618.26999999955,"y":2549372.0600000024}},{"attributes":{"ID":12422,"DIS_CODE":0,"TOWNNAME":"永康區","LI":"\u25A0行里","LIN":"40鄰","STREET":"永安路","SECT":" ","MAREA":" ","LANE":"１０５巷","ALLEY":"４６弄","HOUSE_NO":"１８號六樓之３","E_COORD97":172608.29000000001,"N_COORD97":2549360.0600000001,"ADDRESS":"永安路１０５巷４６弄１８號六樓之３","OBJECTID":12422},"geometry":{"x":172608.29000000004,"y":2549360.0600000005}},{"attributes":{"ID":12423,"DIS_CODE":0,"TOWNNAME":"永康區","LI":"\u25A0行里","LIN":"40鄰","STREET":"永安路","SECT":" ","MAREA":" ","LANE":"１０５巷","ALLEY":"４６弄","HOUSE_NO":"１８號四樓之１","E_COORD97":172608.19,"N_COORD97":2549360.0600000001,"ADDRESS":"永安路１０５巷４６弄１８號四樓之１","OBJECTID":12423},"geometry":{"x":172608.19000000227,"y":2549360.0600000005}},{"attributes":{"ID":12424,"DIS_CODE":0,"TOWNNAME":"學甲區","LI":"平和里","LIN":"24鄰","STREET":" ","SECT":" ","MAREA":"西平寮","LANE":" ","ALLEY":" ","HOUSE_NO":"４９號之１","E_COORD97":169150.44,"N_COORD97":2573185.3300000001,"ADDRESS":"西平寮４９號之１","OBJECTID":12424},"geometry":{"x":169150.44000000134,"y":2573185.3300000001}},{"attributes":{"ID":12425,"DIS_CODE":0,"TOWNNAME":"永康區","LI":"\u25A0行里","LIN":"40鄰","STREET":"永安路","SECT":" ","MAREA":" ","LANE":"１０５巷","ALLEY":"４６弄","HOUSE_NO":"２３號四樓之２","E_COORD97":172576.59,"N_COORD97":2549371.8100000001,"ADDRESS":"永安路１０５巷４６弄２３號四樓之２","OBJECTID":12425},"geometry":{"x":172576.59000000078,"y":2549371.8100000005}},{"attributes":{"ID":12426,"DIS_CODE":0,"TOWNNAME":"永康區","LI":"\u25A0行里","LIN":"40鄰","STREET":"永安路","SECT":" ","MAREA":" ","LANE":"１０５巷","ALLEY":"４６弄","HOUSE_NO":"２４號六樓之３","E_COORD97":172618.26999999999,"N_COORD97":2549372.0600000001,"ADDRESS":"永安路１０５巷４６弄２４號六樓之３","OBJECTID":12426},"geometry":{"x":172618.26999999955,"y":2549372.0600000024}},{"attributes":{"ID":12427,"DIS_CODE":0,"TOWNNAME":"永康區","LI":"\u25A0行里","LIN":"40鄰","STREET":"永安路","SECT":" ","MAREA":" ","LANE":"１０５巷","ALLEY":"４６弄","HOUSE_NO":"２０號五樓之３","E_COORD97":172618.70000000001,"N_COORD97":2549360.8100000001,"ADDRESS":"永安路１０５巷４６弄２０號五樓之３","OBJECTID":12427},"geometry":{"x":172618.70000000112,"y":2549360.8100000024}},{"attributes":{"ID":12428,"DIS_CODE":0,"TOWNNAME":"永康區","LI":"\u25A0行里","LIN":"40鄰","STREET":"永安路","SECT":" ","MAREA":" ","LANE":"１０５巷","ALLEY":"４６弄","HOUSE_NO":"２４號二樓之１","E_COORD97":172618.17000000001,"N_COORD97":2549372.0600000001,"ADDRESS":"永安路１０５巷４６弄２４號二樓之１","OBJECTID":12428},"geometry":{"x":172618.17000000086,"y":2549372.0600000024}},{"attributes":{"ID":12429,"DIS_CODE":0,"TOWNNAME":"學甲區","LI":"平和里","LIN":"24鄰","STREET":" ","SECT":" ","MAREA":"西平寮","LANE":" ","ALLEY":" ","HOUSE_NO":"４９號","E_COORD97":169140.72,"N_COORD97":2573175.8100000001,"ADDRESS":"西平寮４９號","OBJECTID":12429},"geometry":{"x":169140.72000000067,"y":2573175.8100000005}},{"attributes":{"ID":12430,"DIS_CODE":0,"TOWNNAME":"學甲區","LI":"三慶里","LIN":"24鄰","STREET":" ","SECT":" ","MAREA":"紅茄","LANE":" ","ALLEY":" ","HOUSE_NO":"１０３號","E_COORD97":167412.19,"N_COORD97":2575563.6099999999,"ADDRESS":"紅茄１０３號","OBJECTID":12430},"geometry":{"x":167412.18999999948,"y":2575563.6100000031}},{"attributes":{"ID":12431,"DIS_CODE":0,"TOWNNAME":"學甲區","LI":"三慶里","LIN":"24鄰","STREET":" ","SECT":" ","MAREA":"紅茄","LANE":" ","ALLEY":" ","HOUSE_NO":"１０４號","E_COORD97":167418.82999999999,"N_COORD97":2575581.8100000001,"ADDRESS":"紅茄１０４號","OBJECTID":12431},"geometry":{"x":167418.83000000007,"y":2575581.8100000024}},{"attributes":{"ID":12432,"DIS_CODE":0,"TOWNNAME":"學甲區","LI":"三慶里","LIN":"24鄰","STREET":" ","SECT":" ","MAREA":"紅茄","LANE":" ","ALLEY":" ","HOUSE_NO":"１０５號","E_COORD97":167442.88,"N_COORD97":2575612.3199999998,"ADDRESS":"紅茄１０５號","OBJECTID":12432},"geometry":{"x":167442.88000000082,"y":2575612.3200000003}},{"attributes":{"ID":12433,"DIS_CODE":0,"TOWNNAME":"學甲區","LI":"三慶里","LIN":"24鄰","STREET":" ","SECT":" ","MAREA":"紅茄","LANE":" ","ALLEY":" ","HOUSE_NO":"１０６號","E_COORD97":167457.47,"N_COORD97":2575615.3900000001,"ADDRESS":"紅茄１０６號","OBJECTID":12433},"geometry":{"x":167457.47000000067,"y":2575615.3900000025}},{"attributes":{"ID":12434,"DIS_CODE":0,"TOWNNAME":"學甲區","LI":"三慶里","LIN":"24鄰","STREET":" ","SECT":" ","MAREA":"紅茄","LANE":" ","ALLEY":" ","HOUSE_NO":"１０７號","E_COORD97":167478.92999999999,"N_COORD97":2575608.7200000002,"ADDRESS":"紅茄１０７號","OBJECTID":12434},"geometry":{"x":167478.9299999997,"y":2575608.7200000025}},{"attributes":{"ID":12435,"DIS_CODE":0,"TOWNNAME":"學甲區","LI":"三慶里","LIN":"24鄰","STREET":" ","SECT":" ","MAREA":"紅茄","LANE":" ","ALLEY":" ","HOUSE_NO":"１０８號","E_COORD97":167512.70000000001,"N_COORD97":2575534.77,"ADDRESS":"紅茄１０８號","OBJECTID":12435},"geometry":{"x":167512.70000000112,"y":2575534.7699999996}},{"attributes":{"ID":12436,"DIS_CODE":0,"TOWNNAME":"學甲區","LI":"三慶里","LIN":"24鄰","STREET":" ","SECT":" ","MAREA":"紅茄","LANE":" ","ALLEY":" ","HOUSE_NO":"１１０號之１０","E_COORD97":167436.20999999999,"N_COORD97":2575539.0899999999,"ADDRESS":"紅茄１１０號之１０","OBJECTID":12436},"geometry":{"x":167436.21000000089,"y":2575539.0899999999}},{"attributes":{"ID":12437,"DIS_CODE":0,"TOWNNAME":"學甲區","LI":"三慶里","LIN":"24鄰","STREET":" ","SECT":" ","MAREA":"紅茄","LANE":" ","ALLEY":" ","HOUSE_NO":"１１０號之１１","E_COORD97":167435.04000000001,"N_COORD97":2575542.9300000002,"ADDRESS":"紅茄１１０號之１１","OBJECTID":12437},"geometry":{"x":167435.0400000019,"y":2575542.9300000016}},{"attributes":{"ID":12438,"DIS_CODE":0,"TOWNNAME":"學甲區","LI":"三慶里","LIN":"24鄰","STREET":" ","SECT":" ","MAREA":"紅茄","LANE":" ","ALLEY":" ","HOUSE_NO":"１１０號之１２","E_COORD97":167433.97,"N_COORD97":2575546.8700000001,"ADDRESS":"紅茄１１０號之１２","OBJECTID":12438},"geometry":{"x":167433.97000000067,"y":2575546.8700000029}},{"attributes":{"ID":12439,"DIS_CODE":0,"TOWNNAME":"永康區","LI":"\u25A0行里","LIN":"40鄰","STREET":"永安路","SECT":" ","MAREA":" ","LANE":"１０５巷","ALLEY":"４６弄","HOUSE_NO":"１９號三樓之１","E_COORD97":172580.92000000001,"N_COORD97":2549358.5600000001,"ADDRESS":"永安路１０５巷４６弄１９號三樓之１","OBJECTID":12439},"geometry":{"x":172580.92000000086,"y":2549358.5600000024}},{"attributes":{"ID":12440,"DIS_CODE":0,"TOWNNAME":"永康區","LI":"\u25A0行里","LIN":"40鄰","STREET":"永安路","SECT":" ","MAREA":" ","LANE":"１０５巷","ALLEY":"４６弄","HOUSE_NO":"２０號六樓之３","E_COORD97":172618.70000000001,"N_COORD97":2549360.8100000001,"ADDRESS":"永安路１０５巷４６弄２０號六樓之３","OBJECTID":12440},"geometry":{"x":172618.70000000112,"y":2549360.8100000024}},{"attributes":{"ID":12441,"DIS_CODE":0,"TOWNNAME":"新營區","LI":"三仙里","LIN":"13鄰","STREET":"中華路","SECT":" ","MAREA":" ","LANE":" ","ALLEY":" ","HOUSE_NO":"５６號","E_COORD97":179593.04999999999,"N_COORD97":2578202.54,"ADDRESS":"中華路５６號","OBJECTID":12441},"geometry":{"x":179593.05000000075,"y":2578202.540000001}},{"attributes":{"ID":12442,"DIS_CODE":0,"TOWNNAME":"學甲區","LI":"三慶里","LIN":"24鄰","STREET":" ","SECT":" ","MAREA":"紅茄","LANE":" ","ALLEY":" ","HOUSE_NO":"１１０號之１","E_COORD97":167449.12,"N_COORD97":2575507.8999999999,"ADDRESS":"紅茄１１０號之１","OBJECTID":12442},"geometry":{"x":167449.12000000011,"y":2575507.9000000004}},{"attributes":{"ID":12443,"DIS_CODE":0,"TOWNNAME":"學甲區","LI":"三慶里","LIN":"24鄰","STREET":" ","SECT":" ","MAREA":"紅茄","LANE":" ","ALLEY":" ","HOUSE_NO":"１１０號之３","E_COORD97":167443.98000000001,"N_COORD97":2575512.79,"ADDRESS":"紅茄１１０號之３","OBJECTID":12443},"geometry":{"x":167443.98000000045,"y":2575512.790000001}},{"attributes":{"ID":12444,"DIS_CODE":0,"TOWNNAME":"學甲區","LI":"三慶里","LIN":"24鄰","STREET":" ","SECT":" ","MAREA":"紅茄","LANE":" ","ALLEY":" ","HOUSE_NO":"１１０號之４","E_COORD97":167442.67999999999,"N_COORD97":2575516.4399999999,"ADDRESS":"紅茄１１０號之４","OBJECTID":12444},"geometry":{"x":167442.68000000063,"y":2575516.4399999995}},{"attributes":{"ID":12445,"DIS_CODE":0,"TOWNNAME":"學甲區","LI":"三慶里","LIN":"24鄰","STREET":" ","SECT":" ","MAREA":"紅茄","LANE":" ","ALLEY":" ","HOUSE_NO":"１１０號之５","E_COORD97":167441.5,"N_COORD97":2575520.1000000001,"ADDRESS":"紅茄１１０號之５","OBJECTID":12445},"geometry":{"x":167441.5,"y":2575520.1000000015}},{"attributes":{"ID":12446,"DIS_CODE":0,"TOWNNAME":"學甲區","LI":"三慶里","LIN":"24鄰","STREET":" ","SECT":" ","MAREA":"紅茄","LANE":" ","ALLEY":" ","HOUSE_NO":"１１０號之６","E_COORD97":167440.85000000001,"N_COORD97":2575524.04,"ADDRESS":"紅茄１１０號之６","OBJECTID":12446},"geometry":{"x":167440.8499999987,"y":2575524.040000001}},{"attributes":{"ID":12447,"DIS_CODE":0,"TOWNNAME":"學甲區","LI":"三慶里","LIN":"24鄰","STREET":" ","SECT":" ","MAREA":"紅茄","LANE":" ","ALLEY":" ","HOUSE_NO":"１１０號之７","E_COORD97":167439.22,"N_COORD97":2575528.3599999999,"ADDRESS":"紅茄１１０號之７","OBJECTID":12447},"geometry":{"x":167439.22000000067,"y":2575528.3600000013}},{"attributes":{"ID":12448,"DIS_CODE":0,"TOWNNAME":"學甲區","LI":"三慶里","LIN":"24鄰","STREET":" ","SECT":" ","MAREA":"紅茄","LANE":" ","ALLEY":" ","HOUSE_NO":"１１０號之８","E_COORD97":167438.47,"N_COORD97":2575531.8999999999,"ADDRESS":"紅茄１１０號之８","OBJECTID":12448},"geometry":{"x":167438.4700000016,"y":2575531.8999999985}},{"attributes":{"ID":12449,"DIS_CODE":0,"TOWNNAME":"學甲區","LI":"三慶里","LIN":"24鄰","STREET":" ","SECT":" ","MAREA":"紅茄","LANE":" ","ALLEY":" ","HOUSE_NO":"１１０號之９","E_COORD97":167437.45000000001,"N_COORD97":2575535.77,"ADDRESS":"紅茄１１０號之９","OBJECTID":12449},"geometry":{"x":167437.45000000205,"y":2575535.7700000033}},{"attributes":{"ID":12450,"DIS_CODE":0,"TOWNNAME":"學甲區","LI":"三慶里","LIN":"24鄰","STREET":" ","SECT":" ","MAREA":"紅茄","LANE":" ","ALLEY":" ","HOUSE_NO":"１１１號","E_COORD97":167479.81,"N_COORD97":2575475.1000000001,"ADDRESS":"紅茄１１１號","OBJECTID":12450},"geometry":{"x":167479.80999999959,"y":2575475.0999999996}},{"attributes":{"ID":12451,"DIS_CODE":0,"TOWNNAME":"學甲區","LI":"三慶里","LIN":"24鄰","STREET":" ","SECT":" ","MAREA":"紅茄","LANE":" ","ALLEY":" ","HOUSE_NO":"１１２號之３","E_COORD97":167753.03,"N_COORD97":2575536.5600000001,"ADDRESS":"紅茄１１２號之３","OBJECTID":12451},"geometry":{"x":167753.03000000119,"y":2575536.5600000005}},{"attributes":{"ID":12452,"DIS_CODE":0,"TOWNNAME":"學甲區","LI":"三慶里","LIN":"24鄰","STREET":" ","SECT":" ","MAREA":"紅茄","LANE":" ","ALLEY":" ","HOUSE_NO":"１１２號","E_COORD97":167583.07000000001,"N_COORD97":2575457.4900000002,"ADDRESS":"紅茄１１２號","OBJECTID":12452},"geometry":{"x":167583.07000000123,"y":2575457.4900000021}},{"attributes":{"ID":12453,"DIS_CODE":0,"TOWNNAME":"永康區","LI":"\u25A0行里","LIN":"40鄰","STREET":"永安路","SECT":" ","MAREA":" ","LANE":"１０５巷","ALLEY":"４６弄","HOUSE_NO":"１８號六樓之１","E_COORD97":172608.19,"N_COORD97":2549360.0600000001,"ADDRESS":"永安路１０５巷４６弄１８號六樓之１","OBJECTID":12453},"geometry":{"x":172608.19000000227,"y":2549360.0600000005}},{"attributes":{"ID":12454,"DIS_CODE":0,"TOWNNAME":"永康區","LI":"\u25A0行里","LIN":"40鄰","STREET":"永安路","SECT":" ","MAREA":" ","LANE":"１０５巷","ALLEY":"４６弄","HOUSE_NO":"１號五樓之１","E_COORD97":172593,"N_COORD97":2549312.1200000001,"ADDRESS":"永安路１０５巷４６弄１號五樓之１","OBJECTID":12454},"geometry":{"x":172593,"y":2549312.120000001}},{"attributes":{"ID":12455,"DIS_CODE":0,"TOWNNAME":"官田區","LI":"官田里","LIN":"24鄰","STREET":" ","SECT":" ","MAREA":"官田","LANE":" ","ALLEY":" ","HOUSE_NO":"３８８號","E_COORD97":182316.92000000001,"N_COORD97":2565257.0299999998,"ADDRESS":"官田３８８號","OBJECTID":12455},"geometry":{"x":182316.91999999993,"y":2565257.0299999975}},{"attributes":{"ID":12456,"DIS_CODE":0,"TOWNNAME":"永康區","LI":"\u25A0行里","LIN":"40鄰","STREET":"永安路","SECT":" ","MAREA":" ","LANE":"１０５巷","ALLEY":"４６弄","HOUSE_NO":"１０號二樓之２","E_COORD97":172609.78,"N_COORD97":2549334.1800000002,"ADDRESS":"永安路１０５巷４６弄１０號二樓之２","OBJECTID":12456},"geometry":{"x":172609.78000000119,"y":2549334.1799999997}},{"attributes":{"ID":12457,"DIS_CODE":0,"TOWNNAME":"永康區","LI":"\u25A0行里","LIN":"40鄰","STREET":"永安路","SECT":" ","MAREA":" ","LANE":"１０５巷","ALLEY":"４６弄","HOUSE_NO":"２號四樓之１","E_COORD97":172609.73999999999,"N_COORD97":2549313.0800000001,"ADDRESS":"永安路１０５巷４６弄２號四樓之１","OBJECTID":12457},"geometry":{"x":172609.74000000115,"y":2549313.0800000019}},{"attributes":{"ID":12458,"DIS_CODE":0,"TOWNNAME":"永康區","LI":"\u25A0行里","LIN":"40鄰","STREET":"永安路","SECT":" ","MAREA":" ","LANE":"１０５巷","ALLEY":"４６弄","HOUSE_NO":"１號五樓之２","E_COORD97":172593.13,"N_COORD97":2549312.1200000001,"ADDRESS":"永安路１０５巷４６弄１號五樓之２","OBJECTID":12458},"geometry":{"x":172593.13000000082,"y":2549312.120000001}},{"attributes":{"ID":12459,"DIS_CODE":0,"TOWNNAME":"仁德區","LI":"後壁里","LIN":"12鄰","STREET":"德南路","SECT":" ","MAREA":" ","LANE":"２５１巷","ALLEY":"２９弄","HOUSE_NO":"１８號","E_COORD97":173809.60138000001,"N_COORD97":2538511.3422900001,"ADDRESS":"德南路２５１巷２９弄１８號","OBJECTID":12459},"geometry":{"x":173809.60138000082,"y":2538511.3422920015}},{"attributes":{"ID":12460,"DIS_CODE":0,"TOWNNAME":"東山區","LI":"東原里","LIN":"24鄰","STREET":" ","SECT":" ","MAREA":"前大埔","LANE":" ","ALLEY":" ","HOUSE_NO":"１７６號","E_COORD97":193066.35000000001,"N_COORD97":2573799.8300000001,"ADDRESS":"前大埔１７６號","OBJECTID":12460},"geometry":{"x":193066.34999999963,"y":2573799.8300000038}},{"attributes":{"ID":12461,"DIS_CODE":0,"TOWNNAME":"永康區","LI":"\u25A0行里","LIN":"40鄰","STREET":"永安路","SECT":" ","MAREA":" ","LANE":"１０５巷","ALLEY":"４６弄","HOUSE_NO":"９號六樓之２","E_COORD97":172591.95000000001,"N_COORD97":2549333.4700000002,"ADDRESS":"永安路１０５巷４６弄９號六樓之２","OBJECTID":12461},"geometry":{"x":172591.95000000019,"y":2549333.4700000007}},{"attributes":{"ID":12462,"DIS_CODE":0,"TOWNNAME":"永康區","LI":"\u25A0行里","LIN":"40鄰","STREET":"永安路","SECT":" ","MAREA":" ","LANE":"１０５巷","ALLEY":"４６弄","HOUSE_NO":"２０號三樓之２","E_COORD97":172618.73000000001,"N_COORD97":2549360.8100000001,"ADDRESS":"永安路１０５巷４６弄２０號三樓之２","OBJECTID":12462},"geometry":{"x":172618.73000000138,"y":2549360.8100000024}},{"attributes":{"ID":12463,"DIS_CODE":0,"TOWNNAME":"永康區","LI":"\u25A0行里","LIN":"40鄰","STREET":"永安路","SECT":" ","MAREA":" ","LANE":"１０５巷","ALLEY":"４６弄","HOUSE_NO":"１號五樓之３","E_COORD97":172593.10000000001,"N_COORD97":2549312.1200000001,"ADDRESS":"永安路１０５巷４６弄１號五樓之３","OBJECTID":12463},"geometry":{"x":172593.10000000056,"y":2549312.120000001}},{"attributes":{"ID":12464,"DIS_CODE":0,"TOWNNAME":"歸仁區","LI":"南興里","LIN":"13鄰","STREET":"南興街","SECT":" ","MAREA":" ","LANE":" ","ALLEY":" ","HOUSE_NO":"１３號","E_COORD97":175937.95999999999,"N_COORD97":2541245.0699999998,"ADDRESS":"南興街１３號","OBJECTID":12464},"geometry":{"x":175937.95999999996,"y":2541245.0700000022}},{"attributes":{"ID":12465,"DIS_CODE":0,"TOWNNAME":"學甲區","LI":"三慶里","LIN":"24鄰","STREET":" ","SECT":" ","MAREA":"紅茄","LANE":" ","ALLEY":" ","HOUSE_NO":"１１３號之１０","E_COORD97":167652.47,"N_COORD97":2575066.3399999999,"ADDRESS":"紅茄１１３號之１０","OBJECTID":12465},"geometry":{"x":167652.47000000067,"y":2575066.3399999999}},{"attributes":{"ID":12466,"DIS_CODE":0,"TOWNNAME":"學甲區","LI":"三慶里","LIN":"24鄰","STREET":" ","SECT":" ","MAREA":"紅茄","LANE":" ","ALLEY":" ","HOUSE_NO":"１１３號之１１","E_COORD97":167817.64999999999,"N_COORD97":2575115.7400000002,"ADDRESS":"紅茄１１３號之１１","OBJECTID":12466},"geometry":{"x":167817.65000000224,"y":2575115.7400000002}},{"attributes":{"ID":12467,"DIS_CODE":0,"TOWNNAME":"歸仁區","LI":"南興里","LIN":"13鄰","STREET":"南興街","SECT":" ","MAREA":" ","LANE":" ","ALLEY":" ","HOUSE_NO":"１５號","E_COORD97":175938.42999999999,"N_COORD97":2541249.3500000001,"ADDRESS":"南興街１５號","OBJECTID":12467},"geometry":{"x":175938.43000000156,"y":2541249.3500000015}},{"attributes":{"ID":12468,"DIS_CODE":0,"TOWNNAME":"北區","LI":"仁愛里","LIN":"10鄰","STREET":"長榮路","SECT":"四段","MAREA":" ","LANE":" ","ALLEY":" ","HOUSE_NO":"７５號","E_COORD97":170291.54999999999,"N_COORD97":2544995.6400000001,"ADDRESS":"長榮路四段７５號","OBJECTID":12468},"geometry":{"x":170291.55000000075,"y":2544995.6400000006}},{"attributes":{"ID":12469,"DIS_CODE":0,"TOWNNAME":"學甲區","LI":"三慶里","LIN":"24鄰","STREET":" ","SECT":" ","MAREA":"紅茄","LANE":" ","ALLEY":" ","HOUSE_NO":"１１３號之１３","E_COORD97":167961.92000000001,"N_COORD97":2575383.1899999999,"ADDRESS":"紅茄１１３號之１３","OBJECTID":12469},"geometry":{"x":167961.92000000086,"y":2575383.1899999976}},{"attributes":{"ID":12470,"DIS_CODE":0,"TOWNNAME":"學甲區","LI":"三慶里","LIN":"24鄰","STREET":" ","SECT":" ","MAREA":"紅茄","LANE":" ","ALLEY":" ","HOUSE_NO":"１１３號之５０","E_COORD97":168005.12,"N_COORD97":2575069.8599999999,"ADDRESS":"紅茄１１３號之５０","OBJECTID":12470},"geometry":{"x":168005.12000000011,"y":2575069.8599999994}},{"attributes":{"ID":12471,"DIS_CODE":0,"TOWNNAME":"學甲區","LI":"三慶里","LIN":"24鄰","STREET":" ","SECT":" ","MAREA":"紅茄","LANE":" ","ALLEY":" ","HOUSE_NO":"１１３號之５１","E_COORD97":168095.42999999999,"N_COORD97":2574931.73,"ADDRESS":"紅茄１１３號之５１","OBJECTID":12471},"geometry":{"x":168095.43000000063,"y":2574931.7300000004}},{"attributes":{"ID":12472,"DIS_CODE":0,"TOWNNAME":"學甲區","LI":"三慶里","LIN":"24鄰","STREET":" ","SECT":" ","MAREA":"紅茄","LANE":" ","ALLEY":" ","HOUSE_NO":"１１３號之９","E_COORD97":167651.17000000001,"N_COORD97":2575061.6299999999,"ADDRESS":"紅茄１１３號之９","OBJECTID":12472},"geometry":{"x":167651.17000000086,"y":2575061.6300000008}},{"attributes":{"ID":12473,"DIS_CODE":0,"TOWNNAME":"歸仁區","LI":"南興里","LIN":"13鄰","STREET":"南興街","SECT":" ","MAREA":" ","LANE":" ","ALLEY":" ","HOUSE_NO":"１７號","E_COORD97":175938.69,"N_COORD97":2541252.9100000001,"ADDRESS":"南興街１７號","OBJECTID":12473},"geometry":{"x":175938.69000000041,"y":2541252.910000002}},{"attributes":{"ID":12474,"DIS_CODE":0,"TOWNNAME":"歸仁區","LI":"南興里","LIN":"13鄰","STREET":"南興街","SECT":" ","MAREA":" ","LANE":" ","ALLEY":" ","HOUSE_NO":"１９號","E_COORD97":175940.38,"N_COORD97":2541273.8100000001,"ADDRESS":"南興街１９號","OBJECTID":12474},"geometry":{"x":175940.37999999989,"y":2541273.8100000024}},{"attributes":{"ID":12475,"DIS_CODE":0,"TOWNNAME":"歸仁區","LI":"南興里","LIN":"13鄰","STREET":"南興街","SECT":" ","MAREA":" ","LANE":" ","ALLEY":" ","HOUSE_NO":"２１號","E_COORD97":175940.13,"N_COORD97":2541278.1299999999,"ADDRESS":"南興街２１號","OBJECTID":12475},"geometry":{"x":175940.12999999989,"y":2541278.129999999}},{"attributes":{"ID":12476,"DIS_CODE":0,"TOWNNAME":"歸仁區","LI":"南興里","LIN":"13鄰","STREET":"南興街","SECT":" ","MAREA":" ","LANE":" ","ALLEY":" ","HOUSE_NO":"２３號","E_COORD97":175940.35999999999,"N_COORD97":2541282.73,"ADDRESS":"南興街２３號","OBJECTID":12476},"geometry":{"x":175940.36000000127,"y":2541282.7300000004}},{"attributes":{"ID":12477,"DIS_CODE":0,"TOWNNAME":"歸仁區","LI":"南興里","LIN":"13鄰","STREET":"南興街","SECT":" ","MAREA":" ","LANE":" ","ALLEY":" ","HOUSE_NO":"２５號","E_COORD97":175941.07999999999,"N_COORD97":2541286.9900000002,"ADDRESS":"南興街２５號","OBJECTID":12477},"geometry":{"x":175941.07999999914,"y":2541286.9900000002}},{"attributes":{"ID":12478,"DIS_CODE":0,"TOWNNAME":"歸仁區","LI":"南興里","LIN":"13鄰","STREET":"南興街","SECT":" ","MAREA":" ","LANE":" ","ALLEY":" ","HOUSE_NO":"２７號","E_COORD97":175940.73999999999,"N_COORD97":2541291.4199999999,"ADDRESS":"南興街２７號","OBJECTID":12478},"geometry":{"x":175940.74000000115,"y":2541291.4199999999}},{"attributes":{"ID":12479,"DIS_CODE":0,"TOWNNAME":"歸仁區","LI":"南興里","LIN":"13鄰","STREET":"南興街","SECT":" ","MAREA":" ","LANE":" ","ALLEY":" ","HOUSE_NO":"２９號","E_COORD97":175941.73999999999,"N_COORD97":2541295.6800000002,"ADDRESS":"南興街２９號","OBJECTID":12479},"geometry":{"x":175941.74000000022,"y":2541295.6799999997}},{"attributes":{"ID":12480,"DIS_CODE":0,"TOWNNAME":"學甲區","LI":"光華里","LIN":"24鄰","STREET":" ","SECT":" ","MAREA":"頭港子","LANE":" ","ALLEY":" ","HOUSE_NO":"８６號之１１","E_COORD97":163615.54999999999,"N_COORD97":2573243.8399999999,"ADDRESS":"頭港子８６號之１１","OBJECTID":12480},"geometry":{"x":163615.55000000168,"y":2573243.8400000017}},{"attributes":{"ID":12481,"DIS_CODE":0,"TOWNNAME":"學甲區","LI":"光華里","LIN":"24鄰","STREET":" ","SECT":" ","MAREA":"頭港子","LANE":" ","ALLEY":" ","HOUSE_NO":"８６號之１","E_COORD97":163628.5,"N_COORD97":2573225.8799999999,"ADDRESS":"頭港子８６號之１","OBJECTID":12481},"geometry":{"x":163628.50000000093,"y":2573225.8800000008}},{"attributes":{"ID":12482,"DIS_CODE":0,"TOWNNAME":"學甲區","LI":"光華里","LIN":"24鄰","STREET":" ","SECT":" ","MAREA":"頭港子","LANE":" ","ALLEY":" ","HOUSE_NO":"８６號","E_COORD97":163615.91,"N_COORD97":2573227.6699999999,"ADDRESS":"頭港子８６號","OBJECTID":12482},"geometry":{"x":163615.91000000015,"y":2573227.6700000037}},{"attributes":{"ID":12483,"DIS_CODE":0,"TOWNNAME":"安定區","LI":"蘇林里","LIN":"24鄰","STREET":" ","SECT":" ","MAREA":"蘇厝","LANE":" ","ALLEY":" ","HOUSE_NO":"２６８號","E_COORD97":173412.92000000001,"N_COORD97":2558627.25,"ADDRESS":"蘇厝２６８號","OBJECTID":12483},"geometry":{"x":173412.92000000179,"y":2558627.25}},{"attributes":{"ID":12484,"DIS_CODE":0,"TOWNNAME":"安定區","LI":"蘇林里","LIN":"24鄰","STREET":" ","SECT":" ","MAREA":"蘇厝","LANE":" ","ALLEY":" ","HOUSE_NO":"２７３之５號","E_COORD97":173360.51999999999,"N_COORD97":2558590.2999999998,"ADDRESS":"蘇厝２７３之５號","OBJECTID":12484},"geometry":{"x":173360.51999999955,"y":2558590.3000000007}},{"attributes":{"ID":12485,"DIS_CODE":0,"TOWNNAME":"東山區","LI":"東原里","LIN":"24鄰","STREET":" ","SECT":" ","MAREA":"前大埔","LANE":" ","ALLEY":" ","HOUSE_NO":"１３９號","E_COORD97":193124.06,"N_COORD97":2573708.9399999999,"ADDRESS":"前大埔１３９號","OBJECTID":12485},"geometry":{"x":193124.06000000052,"y":2573708.9399999995}},{"attributes":{"ID":12486,"DIS_CODE":0,"TOWNNAME":"東山區","LI":"東原里","LIN":"24鄰","STREET":" ","SECT":" ","MAREA":"前大埔","LANE":" ","ALLEY":" ","HOUSE_NO":"１４０號","E_COORD97":193126.88,"N_COORD97":2573714.4300000002,"ADDRESS":"前大埔１４０號","OBJECTID":12486},"geometry":{"x":193126.88000000082,"y":2573714.4300000016}},{"attributes":{"ID":12487,"DIS_CODE":0,"TOWNNAME":"東山區","LI":"東原里","LIN":"24鄰","STREET":" ","SECT":" ","MAREA":"前大埔","LANE":" ","ALLEY":" ","HOUSE_NO":"１４１號","E_COORD97":193129.16,"N_COORD97":2573722.0899999999,"ADDRESS":"前大埔１４１號","OBJECTID":12487},"geometry":{"x":193129.16000000015,"y":2573722.0899999999}},{"attributes":{"ID":12488,"DIS_CODE":0,"TOWNNAME":"東山區","LI":"東原里","LIN":"24鄰","STREET":" ","SECT":" ","MAREA":"前大埔","LANE":" ","ALLEY":" ","HOUSE_NO":"１４２號","E_COORD97":193130.23000000001,"N_COORD97":2573725.0800000001,"ADDRESS":"前大埔１４２號","OBJECTID":12488},"geometry":{"x":193130.23000000138,"y":2573725.0800000019}},{"attributes":{"ID":12489,"DIS_CODE":0,"TOWNNAME":"東山區","LI":"東原里","LIN":"24鄰","STREET":" ","SECT":" ","MAREA":"前大埔","LANE":" ","ALLEY":" ","HOUSE_NO":"１４３號","E_COORD97":193131.56,"N_COORD97":2573728.1800000002,"ADDRESS":"前大埔１４３號","OBJECTID":12489},"geometry":{"x":193131.55999999959,"y":2573728.1799999997}},{"attributes":{"ID":12490,"DIS_CODE":0,"TOWNNAME":"東山區","LI":"東原里","LIN":"24鄰","STREET":" ","SECT":" ","MAREA":"前大埔","LANE":" ","ALLEY":" ","HOUSE_NO":"１４４號","E_COORD97":193132.89000000001,"N_COORD97":2573731.6699999999,"ADDRESS":"前大埔１４４號","OBJECTID":12490},"geometry":{"x":193132.88999999873,"y":2573731.6699999999}},{"attributes":{"ID":12491,"DIS_CODE":0,"TOWNNAME":"永康區","LI":"\u25A0行里","LIN":"40鄰","STREET":"永安路","SECT":" ","MAREA":" ","LANE":"１０５巷","ALLEY":"４６弄","HOUSE_NO":"１號三樓之３","E_COORD97":172593.10000000001,"N_COORD97":2549312.1200000001,"ADDRESS":"永安路１０５巷４６弄１號三樓之３","OBJECTID":12491},"geometry":{"x":172593.10000000056,"y":2549312.120000001}},{"attributes":{"ID":12492,"DIS_CODE":0,"TOWNNAME":"永康區","LI":"\u25A0行里","LIN":"40鄰","STREET":"永安路","SECT":" ","MAREA":" ","LANE":"１０５巷","ALLEY":"４６弄","HOUSE_NO":"２０號三樓之１","E_COORD97":172618.60000000001,"N_COORD97":2549360.8100000001,"ADDRESS":"永安路１０５巷４６弄２０號三樓之１","OBJECTID":12492},"geometry":{"x":172618.60000000056,"y":2549360.8100000024}},{"attributes":{"ID":12493,"DIS_CODE":0,"TOWNNAME":"永康區","LI":"\u25A0行里","LIN":"40鄰","STREET":"永安路","SECT":" ","MAREA":" ","LANE":"１０５巷","ALLEY":"４６弄","HOUSE_NO":"１號二樓之２","E_COORD97":172593.13,"N_COORD97":2549312.1200000001,"ADDRESS":"永安路１０５巷４６弄１號二樓之２","OBJECTID":12493},"geometry":{"x":172593.13000000082,"y":2549312.120000001}},{"attributes":{"ID":12494,"DIS_CODE":0,"TOWNNAME":"永康區","LI":"\u25A0行里","LIN":"40鄰","STREET":"永安路","SECT":" ","MAREA":" ","LANE":"１０５巷","ALLEY":"４６弄","HOUSE_NO":"９號五樓之３","E_COORD97":172591.92000000001,"N_COORD97":2549333.4700000002,"ADDRESS":"永安路１０５巷４６弄９號五樓之３","OBJECTID":12494},"geometry":{"x":172591.91999999993,"y":2549333.4700000007}},{"attributes":{"ID":12495,"DIS_CODE":0,"TOWNNAME":"永康區","LI":"\u25A0行里","LIN":"40鄰","STREET":"永安路","SECT":" ","MAREA":" ","LANE":"１０５巷","ALLEY":"４６弄","HOUSE_NO":"１０號二樓之４","E_COORD97":172609.67999999999,"N_COORD97":2549334.1800000002,"ADDRESS":"永安路１０５巷４６弄１０號二樓之４","OBJECTID":12495},"geometry":{"x":172609.68000000063,"y":2549334.1799999997}},{"attributes":{"ID":12496,"DIS_CODE":0,"TOWNNAME":"永康區","LI":"\u25A0行里","LIN":"40鄰","STREET":"永安路","SECT":" ","MAREA":" ","LANE":"１０５巷","ALLEY":"４６弄","HOUSE_NO":"１號四樓之３","E_COORD97":172593.10000000001,"N_COORD97":2549312.1200000001,"ADDRESS":"永安路１０５巷４６弄１號四樓之３","OBJECTID":12496},"geometry":{"x":172593.10000000056,"y":2549312.120000001}},{"attributes":{"ID":12497,"DIS_CODE":0,"TOWNNAME":"永康區","LI":"\u25A0行里","LIN":"40鄰","STREET":"永安路","SECT":" ","MAREA":" ","LANE":"１０５巷","ALLEY":"４６弄","HOUSE_NO":"１０號三樓之２","E_COORD97":172609.78,"N_COORD97":2549334.1800000002,"ADDRESS":"永安路１０５巷４６弄１０號三樓之２","OBJECTID":12497},"geometry":{"x":172609.78000000119,"y":2549334.1799999997}},{"attributes":{"ID":12498,"DIS_CODE":0,"TOWNNAME":"永康區","LI":"\u25A0行里","LIN":"40鄰","STREET":"永安路","SECT":" ","MAREA":" ","LANE":"１０５巷","ALLEY":"４６弄","HOUSE_NO":"２３號三樓之２","E_COORD97":172576.59,"N_COORD97":2549371.8100000001,"ADDRESS":"永安路１０５巷４６弄２３號三樓之２","OBJECTID":12498},"geometry":{"x":172576.59000000078,"y":2549371.8100000005}},{"attributes":{"ID":12499,"DIS_CODE":0,"TOWNNAME":"永康區","LI":"\u25A0行里","LIN":"40鄰","STREET":"永安路","SECT":" ","MAREA":" ","LANE":"１０５巷","ALLEY":"４６弄","HOUSE_NO":"２１號六樓之１","E_COORD97":172590.67000000001,"N_COORD97":2549371.3100000001,"ADDRESS":"永安路１０５巷４６弄２１號六樓之１","OBJECTID":12499},"geometry":{"x":172590.66999999899,"y":2549371.3100000005}},{"attributes":{"ID":12500,"DIS_CODE":0,"TOWNNAME":"安平區","LI":"怡平里","LIN":"13鄰","STREET":"永華六街","SECT":" ","MAREA":" ","LANE":" ","ALLEY":" ","HOUSE_NO":"２８１號","E_COORD97":165659.34,"N_COORD97":2544130.7200000002,"ADDRESS":"永華六街２８１號","OBJECTID":12500},"geometry":{"x":165659.33999999985,"y":2544130.7200000007}},{"attributes":{"ID":12501,"DIS_CODE":0,"TOWNNAME":"安平區","LI":"怡平里","LIN":"13鄰","STREET":"永華六街","SECT":" ","MAREA":" ","LANE":" ","ALLEY":" ","HOUSE_NO":"２８３號","E_COORD97":165654.16,"N_COORD97":2544136.0699999998,"ADDRESS":"永華六街２８３號","OBJECTID":12501},"geometry":{"x":165654.16000000015,"y":2544136.070000004}},{"attributes":{"ID":12502,"DIS_CODE":0,"TOWNNAME":"安平區","LI":"怡平里","LIN":"13鄰","STREET":"永華六街","SECT":" ","MAREA":" ","LANE":" ","ALLEY":" ","HOUSE_NO":"２８５號","E_COORD97":165655.42999999999,"N_COORD97":2544141.3100000001,"ADDRESS":"永華六街２８５號","OBJECTID":12502},"geometry":{"x":165655.43000000156,"y":2544141.3100000042}},{"attributes":{"ID":12503,"DIS_CODE":0,"TOWNNAME":"安平區","LI":"怡平里","LIN":"13鄰","STREET":"永華六街","SECT":" ","MAREA":" ","LANE":" ","ALLEY":" ","HOUSE_NO":"２８７號","E_COORD97":165658.76000000001,"N_COORD97":2544147.1899999999,"ADDRESS":"永華六街２８７號","OBJECTID":12503},"geometry":{"x":165658.76000000071,"y":2544147.1899999995}},{"attributes":{"ID":12504,"DIS_CODE":0,"TOWNNAME":"安平區","LI":"怡平里","LIN":"13鄰","STREET":"慶平路","SECT":" ","MAREA":" ","LANE":" ","ALLEY":" ","HOUSE_NO":"２３７號","E_COORD97":165659.67999999999,"N_COORD97":2544162.8799999999,"ADDRESS":"慶平路２３７號","OBJECTID":12504},"geometry":{"x":165659.6799999997,"y":2544162.8800000027}},{"attributes":{"ID":12505,"DIS_CODE":0,"TOWNNAME":"安平區","LI":"怡平里","LIN":"13鄰","STREET":"慶平路","SECT":" ","MAREA":" ","LANE":" ","ALLEY":" ","HOUSE_NO":"２３９號","E_COORD97":165654.44,"N_COORD97":2544163.04,"ADDRESS":"慶平路２３９號","OBJECTID":12505},"geometry":{"x":165654.44000000227,"y":2544163.040000001}},{"attributes":{"ID":12506,"DIS_CODE":0,"TOWNNAME":"安平區","LI":"怡平里","LIN":"13鄰","STREET":"慶平路","SECT":" ","MAREA":" ","LANE":" ","ALLEY":" ","HOUSE_NO":"２４１號","E_COORD97":165648.73000000001,"N_COORD97":2544163.5099999998,"ADDRESS":"慶平路２４１號","OBJECTID":12506},"geometry":{"x":165648.73000000045,"y":2544163.5100000016}},{"attributes":{"ID":12507,"DIS_CODE":0,"TOWNNAME":"安平區","LI":"怡平里","LIN":"13鄰","STREET":"慶平路","SECT":" ","MAREA":" ","LANE":" ","ALLEY":" ","HOUSE_NO":"２４３號","E_COORD97":165644.92000000001,"N_COORD97":2544163.3500000001,"ADDRESS":"慶平路２４３號","OBJECTID":12507},"geometry":{"x":165644.91999999993,"y":2544163.3499999996}},{"attributes":{"ID":12508,"DIS_CODE":0,"TOWNNAME":"安平區","LI":"怡平里","LIN":"13鄰","STREET":"慶平路","SECT":" ","MAREA":" ","LANE":" ","ALLEY":" ","HOUSE_NO":"２４５號","E_COORD97":165640.63,"N_COORD97":2544163.3500000001,"ADDRESS":"慶平路２４５號","OBJECTID":12508},"geometry":{"x":165640.62999999896,"y":2544163.3499999996}},{"attributes":{"ID":12509,"DIS_CODE":0,"TOWNNAME":"安平區","LI":"怡平里","LIN":"13鄰","STREET":"慶平路","SECT":" ","MAREA":" ","LANE":" ","ALLEY":" ","HOUSE_NO":"２４７號","E_COORD97":165635.54999999999,"N_COORD97":2544163.1899999999,"ADDRESS":"慶平路２４７號","OBJECTID":12509},"geometry":{"x":165635.54999999981,"y":2544163.1899999995}},{"attributes":{"ID":12510,"DIS_CODE":0,"TOWNNAME":"安平區","LI":"怡平里","LIN":"13鄰","STREET":"慶平路","SECT":" ","MAREA":" ","LANE":" ","ALLEY":" ","HOUSE_NO":"２４９號","E_COORD97":165631.73999999999,"N_COORD97":2544163.04,"ADDRESS":"慶平路２４９號","OBJECTID":12510},"geometry":{"x":165631.73999999929,"y":2544163.040000001}},{"attributes":{"ID":12511,"DIS_CODE":0,"TOWNNAME":"安平區","LI":"怡平里","LIN":"13鄰","STREET":"慶平路","SECT":" ","MAREA":" ","LANE":" ","ALLEY":" ","HOUSE_NO":"２５３號","E_COORD97":165643.88,"N_COORD97":2544165.5499999998,"ADDRESS":"慶平路２５３號","OBJECTID":12511},"geometry":{"x":165643.87999999989,"y":2544165.5500000007}},{"attributes":{"ID":12512,"DIS_CODE":0,"TOWNNAME":"東山區","LI":"青山里","LIN":"16鄰","STREET":" ","SECT":" ","MAREA":"青山","LANE":" ","ALLEY":" ","HOUSE_NO":"４５號","E_COORD97":195592.42000000001,"N_COORD97":2575276.1400000001,"ADDRESS":"青山４５號","OBJECTID":12512},"geometry":{"x":195592.41999999993,"y":2575276.1400000006}},{"attributes":{"ID":12513,"DIS_CODE":0,"TOWNNAME":"永康區","LI":"\u25A0行里","LIN":"40鄰","STREET":"永安路","SECT":" ","MAREA":" ","LANE":"１０５巷","ALLEY":"４６弄","HOUSE_NO":"１９號七樓之３","E_COORD97":172581.01999999999,"N_COORD97":2549358.5600000001,"ADDRESS":"永安路１０５巷４６弄１９號七樓之３","OBJECTID":12513},"geometry":{"x":172581.01999999955,"y":2549358.5600000024}},{"attributes":{"ID":12514,"DIS_CODE":0,"TOWNNAME":"永康區","LI":"\u25A0行里","LIN":"40鄰","STREET":"永安路","SECT":" ","MAREA":" ","LANE":"１０５巷","ALLEY":"４６弄","HOUSE_NO":"１８號六樓之２","E_COORD97":172608.32000000001,"N_COORD97":2549360.0600000001,"ADDRESS":"永安路１０５巷４６弄１８號六樓之２","OBJECTID":12514},"geometry":{"x":172608.3200000003,"y":2549360.0600000005}},{"attributes":{"ID":12515,"DIS_CODE":0,"TOWNNAME":"東山區","LI":"東原里","LIN":"24鄰","STREET":" ","SECT":" ","MAREA":"前大埔","LANE":" ","ALLEY":" ","HOUSE_NO":"１４５號","E_COORD97":193134.22,"N_COORD97":2573735.1600000001,"ADDRESS":"前大埔１４５號","OBJECTID":12515},"geometry":{"x":193134.2200000016,"y":2573735.1600000001}},{"attributes":{"ID":12516,"DIS_CODE":0,"TOWNNAME":"東山區","LI":"東原里","LIN":"24鄰","STREET":" ","SECT":" ","MAREA":"前大埔","LANE":" ","ALLEY":" ","HOUSE_NO":"１４７號之１","E_COORD97":193140.01999999999,"N_COORD97":2573744.5899999999,"ADDRESS":"前大埔１４７號之１","OBJECTID":12516},"geometry":{"x":193140.01999999955,"y":2573744.5900000017}},{"attributes":{"ID":12517,"DIS_CODE":0,"TOWNNAME":"東山區","LI":"東原里","LIN":"24鄰","STREET":" ","SECT":" ","MAREA":"前大埔","LANE":" ","ALLEY":" ","HOUSE_NO":"１４８號之１","E_COORD97":193137.87,"N_COORD97":2573761.5499999998,"ADDRESS":"前大埔１４８號之１","OBJECTID":12517},"geometry":{"x":193137.87000000011,"y":2573761.5499999989}},{"attributes":{"ID":12518,"DIS_CODE":0,"TOWNNAME":"東山區","LI":"東原里","LIN":"24鄰","STREET":" ","SECT":" ","MAREA":"前大埔","LANE":" ","ALLEY":" ","HOUSE_NO":"１４９號","E_COORD97":193147.09,"N_COORD97":2573760.5800000001,"ADDRESS":"前大埔１４９號","OBJECTID":12518},"geometry":{"x":193147.09000000171,"y":2573760.5799999982}},{"attributes":{"ID":12519,"DIS_CODE":0,"TOWNNAME":"永康區","LI":"\u25A0行里","LIN":"40鄰","STREET":"永安路","SECT":" ","MAREA":" ","LANE":"１０５巷","ALLEY":"４６弄","HOUSE_NO":"１９號二樓之２","E_COORD97":172581.04999999999,"N_COORD97":2549358.5600000001,"ADDRESS":"永安路１０５巷４６弄１９號二樓之２","OBJECTID":12519},"geometry":{"x":172581.04999999981,"y":2549358.5600000024}},{"attributes":{"ID":12520,"DIS_CODE":0,"TOWNNAME":"東山區","LI":"東原里","LIN":"24鄰","STREET":" ","SECT":" ","MAREA":"前大埔","LANE":" ","ALLEY":" ","HOUSE_NO":"１５１號之１","E_COORD97":193150.20000000001,"N_COORD97":2573769.3300000001,"ADDRESS":"前大埔１５１號之１","OBJECTID":12520},"geometry":{"x":193150.20000000205,"y":2573769.3300000038}},{"attributes":{"ID":12521,"DIS_CODE":0,"TOWNNAME":"永康區","LI":"\u25A0行里","LIN":"40鄰","STREET":"永安路","SECT":" ","MAREA":" ","LANE":"１０５巷","ALLEY":"４６弄","HOUSE_NO":"２０號五樓之２","E_COORD97":172618.73000000001,"N_COORD97":2549360.8100000001,"ADDRESS":"永安路１０５巷４６弄２０號五樓之２","OBJECTID":12521},"geometry":{"x":172618.73000000138,"y":2549360.8100000024}},{"attributes":{"ID":12522,"DIS_CODE":0,"TOWNNAME":"永康區","LI":"\u25A0行里","LIN":"40鄰","STREET":"永安路","SECT":" ","MAREA":" ","LANE":"１０５巷","ALLEY":"４６弄","HOUSE_NO":"２３號五樓之１","E_COORD97":172576.45999999999,"N_COORD97":2549371.8100000001,"ADDRESS":"永安路１０５巷４６弄２３號五樓之１","OBJECTID":12522},"geometry":{"x":172576.45999999996,"y":2549371.8100000005}},{"attributes":{"ID":12523,"DIS_CODE":0,"TOWNNAME":"永康區","LI":"\u25A0行里","LIN":"40鄰","STREET":"永安路","SECT":" ","MAREA":" ","LANE":"１０５巷","ALLEY":"４６弄","HOUSE_NO":"１０號四樓之５","E_COORD97":172609.81,"N_COORD97":2549334.1800000002,"ADDRESS":"永安路１０５巷４６弄１０號四樓之５","OBJECTID":12523},"geometry":{"x":172609.81000000145,"y":2549334.1799999997}},{"attributes":{"ID":12524,"DIS_CODE":0,"TOWNNAME":"永康區","LI":"\u25A0行里","LIN":"40鄰","STREET":"永安路","SECT":" ","MAREA":" ","LANE":"１０５巷","ALLEY":"４６弄","HOUSE_NO":"２３號四樓之３","E_COORD97":172576.56,"N_COORD97":2549371.8100000001,"ADDRESS":"永安路１０５巷４６弄２３號四樓之３","OBJECTID":12524},"geometry":{"x":172576.56000000052,"y":2549371.8100000005}},{"attributes":{"ID":12525,"DIS_CODE":0,"TOWNNAME":"永康區","LI":"\u25A0行里","LIN":"40鄰","STREET":"永安路","SECT":" ","MAREA":" ","LANE":"１０５巷","ALLEY":"４６弄","HOUSE_NO":"１８號五樓之２","E_COORD97":172608.32000000001,"N_COORD97":2549360.0600000001,"ADDRESS":"永安路１０５巷４６弄１８號五樓之２","OBJECTID":12525},"geometry":{"x":172608.3200000003,"y":2549360.0600000005}},{"attributes":{"ID":12526,"DIS_CODE":0,"TOWNNAME":"永康區","LI":"\u25A0行里","LIN":"40鄰","STREET":"永安路","SECT":" ","MAREA":" ","LANE":"１０５巷","ALLEY":"４６弄","HOUSE_NO":"２號三樓之４","E_COORD97":172609.76999999999,"N_COORD97":2549313.0800000001,"ADDRESS":"永安路１０５巷４６弄２號三樓之４","OBJECTID":12526},"geometry":{"x":172609.76999999955,"y":2549313.0800000019}},{"attributes":{"ID":12527,"DIS_CODE":0,"TOWNNAME":"永康區","LI":"\u25A0行里","LIN":"40鄰","STREET":"永安路","SECT":" ","MAREA":" ","LANE":"１０５巷","ALLEY":"４６弄","HOUSE_NO":"１０號三樓之４","E_COORD97":172609.67999999999,"N_COORD97":2549334.1800000002,"ADDRESS":"永安路１０５巷４６弄１０號三樓之４","OBJECTID":12527},"geometry":{"x":172609.68000000063,"y":2549334.1799999997}},{"attributes":{"ID":12528,"DIS_CODE":0,"TOWNNAME":"東山區","LI":"東原里","LIN":"24鄰","STREET":" ","SECT":" ","MAREA":"前大埔","LANE":" ","ALLEY":" ","HOUSE_NO":"１５１號","E_COORD97":193148.64999999999,"N_COORD97":2573764.9500000002,"ADDRESS":"前大埔１５１號","OBJECTID":12528},"geometry":{"x":193148.65000000037,"y":2573764.9500000011}},{"attributes":{"ID":12529,"DIS_CODE":0,"TOWNNAME":"東山區","LI":"東原里","LIN":"24鄰","STREET":" ","SECT":" ","MAREA":"前大埔","LANE":" ","ALLEY":" ","HOUSE_NO":"１７１號","E_COORD97":193134.70000000001,"N_COORD97":2573788.8100000001,"ADDRESS":"前大埔１７１號","OBJECTID":12529},"geometry":{"x":193134.69999999925,"y":2573788.8100000005}},{"attributes":{"ID":12530,"DIS_CODE":0,"TOWNNAME":"東山區","LI":"東原里","LIN":"24鄰","STREET":" ","SECT":" ","MAREA":"前大埔","LANE":" ","ALLEY":" ","HOUSE_NO":"１７３號","E_COORD97":193127.70999999999,"N_COORD97":2573791.1499999999,"ADDRESS":"前大埔１７３號","OBJECTID":12530},"geometry":{"x":193127.71000000183,"y":2573791.1500000041}},{"attributes":{"ID":12531,"DIS_CODE":0,"TOWNNAME":"東山區","LI":"東原里","LIN":"24鄰","STREET":" ","SECT":" ","MAREA":"前大埔","LANE":" ","ALLEY":" ","HOUSE_NO":"１７４號","E_COORD97":193122.95999999999,"N_COORD97":2573791.79,"ADDRESS":"前大埔１７４號","OBJECTID":12531},"geometry":{"x":193122.96000000089,"y":2573791.7899999991}},{"attributes":{"ID":12532,"DIS_CODE":0,"TOWNNAME":"東山區","LI":"東原里","LIN":"24鄰","STREET":" ","SECT":" ","MAREA":"前大埔","LANE":" ","ALLEY":" ","HOUSE_NO":"１７５之１３號","E_COORD97":192961.97,"N_COORD97":2573820.2200000002,"ADDRESS":"前大埔１７５之１３號","OBJECTID":12532},"geometry":{"x":192961.97000000067,"y":2573820.2200000007}},{"attributes":{"ID":12533,"DIS_CODE":0,"TOWNNAME":"東山區","LI":"東原里","LIN":"24鄰","STREET":" ","SECT":" ","MAREA":"前大埔","LANE":" ","ALLEY":" ","HOUSE_NO":"１７５號之１","E_COORD97":193037.72,"N_COORD97":2573799.8500000001,"ADDRESS":"前大埔１７５號之１","OBJECTID":12533},"geometry":{"x":193037.7200000016,"y":2573799.8500000015}},{"attributes":{"ID":12534,"DIS_CODE":0,"TOWNNAME":"永康區","LI":"\u25A0行里","LIN":"40鄰","STREET":"永安路","SECT":" ","MAREA":" ","LANE":"１０５巷","ALLEY":"４６弄","HOUSE_NO":"２號四樓之３","E_COORD97":172609.84,"N_COORD97":2549313.0800000001,"ADDRESS":"永安路１０５巷４６弄２號四樓之３","OBJECTID":12534},"geometry":{"x":172609.84000000171,"y":2549313.0800000019}},{"attributes":{"ID":12535,"DIS_CODE":0,"TOWNNAME":"永康區","LI":"\u25A0行里","LIN":"40鄰","STREET":"永安路","SECT":" ","MAREA":" ","LANE":"１０５巷","ALLEY":"４６弄","HOUSE_NO":"１０號五樓之２","E_COORD97":172609.78,"N_COORD97":2549334.1800000002,"ADDRESS":"永安路１０５巷４６弄１０號五樓之２","OBJECTID":12535},"geometry":{"x":172609.78000000119,"y":2549334.1799999997}},{"attributes":{"ID":12536,"DIS_CODE":0,"TOWNNAME":"永康區","LI":"\u25A0行里","LIN":"40鄰","STREET":"永安路","SECT":" ","MAREA":" ","LANE":"１０５巷","ALLEY":"４６弄","HOUSE_NO":"１號六樓之３","E_COORD97":172593.10000000001,"N_COORD97":2549312.1200000001,"ADDRESS":"永安路１０５巷４６弄１號六樓之３","OBJECTID":12536},"geometry":{"x":172593.10000000056,"y":2549312.120000001}},{"attributes":{"ID":12537,"DIS_CODE":0,"TOWNNAME":"永康區","LI":"\u25A0行里","LIN":"40鄰","STREET":"永安路","SECT":" ","MAREA":" ","LANE":"１０５巷","ALLEY":"４６弄","HOUSE_NO":"９號六樓之４","E_COORD97":172591.85000000001,"N_COORD97":2549333.4700000002,"ADDRESS":"永安路１０５巷４６弄９號六樓之４","OBJECTID":12537},"geometry":{"x":172591.84999999963,"y":2549333.4700000007}},{"attributes":{"ID":12538,"DIS_CODE":0,"TOWNNAME":"永康區","LI":"\u25A0行里","LIN":"40鄰","STREET":"永安路","SECT":" ","MAREA":" ","LANE":"１０５巷","ALLEY":"４６弄","HOUSE_NO":"２號二樓之１","E_COORD97":172609.73999999999,"N_COORD97":2549313.0800000001,"ADDRESS":"永安路１０５巷４６弄２號二樓之１","OBJECTID":12538},"geometry":{"x":172609.74000000115,"y":2549313.0800000019}},{"attributes":{"ID":12539,"DIS_CODE":0,"TOWNNAME":"永康區","LI":"\u25A0行里","LIN":"40鄰","STREET":"永安路","SECT":" ","MAREA":" ","LANE":"１０５巷","ALLEY":"４６弄","HOUSE_NO":"１號三樓之１","E_COORD97":172593,"N_COORD97":2549312.1200000001,"ADDRESS":"永安路１０５巷４６弄１號三樓之１","OBJECTID":12539},"geometry":{"x":172593,"y":2549312.120000001}},{"attributes":{"ID":12540,"DIS_CODE":0,"TOWNNAME":"安平區","LI":"國平里","LIN":"13鄰","STREET":"建平一街","SECT":" ","MAREA":" ","LANE":" ","ALLEY":" ","HOUSE_NO":"２３７之１號","E_COORD97":165407.92000000001,"N_COORD97":2542799.1299999999,"ADDRESS":"建平一街２３７之１號","OBJECTID":12540},"geometry":{"x":165407.91999999993,"y":2542799.1300000008}},{"attributes":{"ID":12541,"DIS_CODE":0,"TOWNNAME":"安平區","LI":"億載里","LIN":"13鄰","STREET":"光州五街","SECT":" ","MAREA":" ","LANE":" ","ALLEY":" ","HOUSE_NO":"１４６號","E_COORD97":164272.48999999999,"N_COORD97":2543306.8399999999,"ADDRESS":"光州五街１４６號","OBJECTID":12541},"geometry":{"x":164272.49000000115,"y":2543306.8400000017}},{"attributes":{"ID":12542,"DIS_CODE":0,"TOWNNAME":"安平區","LI":"億載里","LIN":"13鄰","STREET":"光州五街","SECT":" ","MAREA":" ","LANE":" ","ALLEY":" ","HOUSE_NO":"１６３號","E_COORD97":164272.37,"N_COORD97":2543319.23,"ADDRESS":"光州五街１６３號","OBJECTID":12542},"geometry":{"x":164272.37000000011,"y":2543319.2300000023}},{"attributes":{"ID":12543,"DIS_CODE":0,"TOWNNAME":"永康區","LI":"\u25A0行里","LIN":"40鄰","STREET":"永安路","SECT":" ","MAREA":" ","LANE":"１０５巷","ALLEY":"４６弄","HOUSE_NO":"９號三樓之４","E_COORD97":172591.85000000001,"N_COORD97":2549333.4700000002,"ADDRESS":"永安路１０５巷４６弄９號三樓之４","OBJECTID":12543},"geometry":{"x":172591.84999999963,"y":2549333.4700000007}},{"attributes":{"ID":12544,"DIS_CODE":0,"TOWNNAME":"永康區","LI":"\u25A0行里","LIN":"40鄰","STREET":"永安路","SECT":" ","MAREA":" ","LANE":"１０５巷","ALLEY":"４６弄","HOUSE_NO":"２１號三樓之２","E_COORD97":172590.79999999999,"N_COORD97":2549371.3100000001,"ADDRESS":"永安路１０５巷４６弄２１號三樓之２","OBJECTID":12544},"geometry":{"x":172590.79999999981,"y":2549371.3100000005}},{"attributes":{"ID":12545,"DIS_CODE":0,"TOWNNAME":"永康區","LI":"\u25A0行里","LIN":"40鄰","STREET":"永安路","SECT":" ","MAREA":" ","LANE":"１０５巷","ALLEY":"４６弄","HOUSE_NO":"９號二樓之４","E_COORD97":172591.85000000001,"N_COORD97":2549333.4700000002,"ADDRESS":"永安路１０５巷４６弄９號二樓之４","OBJECTID":12545},"geometry":{"x":172591.84999999963,"y":2549333.4700000007}},{"attributes":{"ID":12546,"DIS_CODE":0,"TOWNNAME":"永康區","LI":"\u25A0行里","LIN":"40鄰","STREET":"永安路","SECT":" ","MAREA":" ","LANE":"１０５巷","ALLEY":"４６弄","HOUSE_NO":"１０號五樓之１","E_COORD97":172609.64999999999,"N_COORD97":2549334.1800000002,"ADDRESS":"永安路１０５巷４６弄１０號五樓之１","OBJECTID":12546},"geometry":{"x":172609.65000000037,"y":2549334.1799999997}},{"attributes":{"ID":12547,"DIS_CODE":0,"TOWNNAME":"永康區","LI":"\u25A0行里","LIN":"40鄰","STREET":"永安路","SECT":" ","MAREA":" ","LANE":"１０５巷","ALLEY":"４６弄","HOUSE_NO":"２號四樓之２","E_COORD97":172609.87,"N_COORD97":2549313.0800000001,"ADDRESS":"永安路１０５巷４６弄２號四樓之２","OBJECTID":12547},"geometry":{"x":172609.87000000197,"y":2549313.0800000019}},{"attributes":{"ID":12548,"DIS_CODE":0,"TOWNNAME":"永康區","LI":"\u25A0行里","LIN":"40鄰","STREET":"永安路","SECT":" ","MAREA":" ","LANE":"１０５巷","ALLEY":"４６弄","HOUSE_NO":"１０號六樓之４","E_COORD97":172609.67999999999,"N_COORD97":2549334.1800000002,"ADDRESS":"永安路１０５巷４６弄１０號六樓之４","OBJECTID":12548},"geometry":{"x":172609.68000000063,"y":2549334.1799999997}},{"attributes":{"ID":12549,"DIS_CODE":0,"TOWNNAME":"永康區","LI":"\u25A0行里","LIN":"40鄰","STREET":"永安路","SECT":" ","MAREA":" ","LANE":"１０５巷","ALLEY":"４６弄","HOUSE_NO":"９號五樓之４","E_COORD97":172591.85000000001,"N_COORD97":2549333.4700000002,"ADDRESS":"永安路１０５巷４６弄９號五樓之４","OBJECTID":12549},"geometry":{"x":172591.84999999963,"y":2549333.4700000007}},{"attributes":{"ID":12550,"DIS_CODE":0,"TOWNNAME":"永康區","LI":"\u25A0行里","LIN":"40鄰","STREET":"永安路","SECT":" ","MAREA":" ","LANE":"１０５巷","ALLEY":"４６弄","HOUSE_NO":"１號二樓之４","E_COORD97":172593.03,"N_COORD97":2549312.1200000001,"ADDRESS":"永安路１０５巷４６弄１號二樓之４","OBJECTID":12550},"geometry":{"x":172593.03000000026,"y":2549312.120000001}},{"attributes":{"ID":12551,"DIS_CODE":0,"TOWNNAME":"永康區","LI":"\u25A0行里","LIN":"40鄰","STREET":"永安路","SECT":" ","MAREA":" ","LANE":"１０５巷","ALLEY":"４６弄","HOUSE_NO":"２號六樓之４","E_COORD97":172609.76999999999,"N_COORD97":2549313.0800000001,"ADDRESS":"永安路１０５巷４６弄２號六樓之４","OBJECTID":12551},"geometry":{"x":172609.76999999955,"y":2549313.0800000019}},{"attributes":{"ID":12552,"DIS_CODE":0,"TOWNNAME":"永康區","LI":"\u25A0行里","LIN":"40鄰","STREET":"永安路","SECT":" ","MAREA":" ","LANE":"１０５巷","ALLEY":"４６弄","HOUSE_NO":"２號五樓之４","E_COORD97":172609.76999999999,"N_COORD97":2549313.0800000001,"ADDRESS":"永安路１０５巷４６弄２號五樓之４","OBJECTID":12552},"geometry":{"x":172609.76999999955,"y":2549313.0800000019}},{"attributes":{"ID":12553,"DIS_CODE":0,"TOWNNAME":"永康區","LI":"\u25A0行里","LIN":"40鄰","STREET":"永安路","SECT":" ","MAREA":" ","LANE":"１０５巷","ALLEY":"４６弄","HOUSE_NO":"１號二樓之１","E_COORD97":172593,"N_COORD97":2549312.1200000001,"ADDRESS":"永安路１０５巷４６弄１號二樓之１","OBJECTID":12553},"geometry":{"x":172593,"y":2549312.120000001}},{"attributes":{"ID":12554,"DIS_CODE":0,"TOWNNAME":"永康區","LI":"\u25A0行里","LIN":"40鄰","STREET":"永安路","SECT":" ","MAREA":" ","LANE":"１０５巷","ALLEY":"４６弄","HOUSE_NO":"２號二樓之２","E_COORD97":172609.87,"N_COORD97":2549313.0800000001,"ADDRESS":"永安路１０５巷４６弄２號二樓之２","OBJECTID":12554},"geometry":{"x":172609.87000000197,"y":2549313.0800000019}},{"attributes":{"ID":12555,"DIS_CODE":0,"TOWNNAME":"永康區","LI":"\u25A0行里","LIN":"40鄰","STREET":"永安路","SECT":" ","MAREA":" ","LANE":"１０５巷","ALLEY":"４６弄","HOUSE_NO":"１號四樓之４","E_COORD97":172593.03,"N_COORD97":2549312.1200000001,"ADDRESS":"永安路１０５巷４６弄１號四樓之４","OBJECTID":12555},"geometry":{"x":172593.03000000026,"y":2549312.120000001}},{"attributes":{"ID":12556,"DIS_CODE":0,"TOWNNAME":"永康區","LI":"\u25A0行里","LIN":"40鄰","STREET":"永安路","SECT":" ","MAREA":" ","LANE":"１０５巷","ALLEY":"４６弄","HOUSE_NO":"２號五樓之２","E_COORD97":172609.87,"N_COORD97":2549313.0800000001,"ADDRESS":"永安路１０５巷４６弄２號五樓之２","OBJECTID":12556},"geometry":{"x":172609.87000000197,"y":2549313.0800000019}},{"attributes":{"ID":12557,"DIS_CODE":0,"TOWNNAME":"永康區","LI":"復華里","LIN":"40鄰","STREET":"復華七街","SECT":" ","MAREA":" ","LANE":"３２巷","ALLEY":"２２弄","HOUSE_NO":"１４號","E_COORD97":172657.84,"N_COORD97":2545921.5299999998,"ADDRESS":"復華七街３２巷２２弄１４號","OBJECTID":12557},"geometry":{"x":172657.84000000078,"y":2545921.5299999993}},{"attributes":{"ID":12558,"DIS_CODE":0,"TOWNNAME":"永康區","LI":"復華里","LIN":"40鄰","STREET":"復華七街","SECT":" ","MAREA":" ","LANE":"３２巷","ALLEY":"２０弄","HOUSE_NO":"３號","E_COORD97":172637.34,"N_COORD97":2545941.52,"ADDRESS":"復華七街３２巷２０弄３號","OBJECTID":12558},"geometry":{"x":172637.34000000078,"y":2545941.5199999996}},{"attributes":{"ID":12559,"DIS_CODE":0,"TOWNNAME":"永康區","LI":"復華里","LIN":"40鄰","STREET":"復華七街","SECT":" ","MAREA":" ","LANE":"３２巷","ALLEY":"２０弄","HOUSE_NO":"６號","E_COORD97":172625.12,"N_COORD97":2545942.27,"ADDRESS":"復華七街３２巷２０弄６號","OBJECTID":12559},"geometry":{"x":172625.12000000197,"y":2545942.2700000014}},{"attributes":{"ID":12560,"DIS_CODE":0,"TOWNNAME":"永康區","LI":"復華里","LIN":"40鄰","STREET":"復華七街","SECT":" ","MAREA":" ","LANE":"３２巷","ALLEY":"２０弄","HOUSE_NO":"５號","E_COORD97":172632.26999999999,"N_COORD97":2545942.02,"ADDRESS":"復華七街３２巷２０弄５號","OBJECTID":12560},"geometry":{"x":172632.27000000048,"y":2545942.0199999996}},{"attributes":{"ID":12561,"DIS_CODE":0,"TOWNNAME":"永康區","LI":"勝利里","LIN":"40鄰","STREET":"中華一路","SECT":" ","MAREA":" ","LANE":"１８２巷","ALLEY":"１弄","HOUSE_NO":"２號","E_COORD97":171507.94,"N_COORD97":2545018.98,"ADDRESS":"中華一路１８２巷１弄２號","OBJECTID":12561},"geometry":{"x":171507.94000000227,"y":2545018.9800000023}},{"attributes":{"ID":12562,"DIS_CODE":0,"TOWNNAME":"仁德區","LI":"仁義里","LIN":"40鄰","STREET":"仁義五街","SECT":" ","MAREA":" ","LANE":"５７巷","ALLEY":"１弄","HOUSE_NO":"１２號","E_COORD97":173599.82999999999,"N_COORD97":2540479.5299999998,"ADDRESS":"仁義五街５７巷１弄１２號","OBJECTID":12562},"geometry":{"x":173599.83000000007,"y":2540479.5299999993}},{"attributes":{"ID":12563,"DIS_CODE":0,"TOWNNAME":"仁德區","LI":"仁義里","LIN":"40鄰","STREET":"仁義五街","SECT":" ","MAREA":" ","LANE":"５７巷","ALLEY":"１弄","HOUSE_NO":"１０號","E_COORD97":173603.92000000001,"N_COORD97":2540479.5299999998,"ADDRESS":"仁義五街５７巷１弄１０號","OBJECTID":12563},"geometry":{"x":173603.91999999993,"y":2540479.5299999993}},{"attributes":{"ID":12564,"DIS_CODE":0,"TOWNNAME":"仁德區","LI":"仁義里","LIN":"40鄰","STREET":"仁義五街","SECT":" ","MAREA":" ","LANE":"５７巷","ALLEY":"１弄","HOUSE_NO":"１１號","E_COORD97":173601.75,"N_COORD97":2540469.2599999998,"ADDRESS":"仁義五街５７巷１弄１１號","OBJECTID":12564},"geometry":{"x":173601.75,"y":2540469.2600000035}},{"attributes":{"ID":12565,"DIS_CODE":0,"TOWNNAME":"仁德區","LI":"仁義里","LIN":"40鄰","STREET":"仁義五街","SECT":" ","MAREA":" ","LANE":"５７巷","ALLEY":"１弄","HOUSE_NO":"２號","E_COORD97":173633.51999999999,"N_COORD97":2540480.5299999998,"ADDRESS":"仁義五街５７巷１弄２號","OBJECTID":12565},"geometry":{"x":173633.51999999955,"y":2540480.5300000031}},{"attributes":{"ID":12566,"DIS_CODE":0,"TOWNNAME":"永康區","LI":"復華里","LIN":"40鄰","STREET":"復華七街","SECT":" ","MAREA":" ","LANE":"３２巷","ALLEY":"２０弄","HOUSE_NO":"１號","E_COORD97":172652.42000000001,"N_COORD97":2545942.77,"ADDRESS":"復華七街３２巷２０弄１號","OBJECTID":12566},"geometry":{"x":172652.42000000086,"y":2545942.7699999996}},{"attributes":{"ID":12567,"DIS_CODE":0,"TOWNNAME":"永康區","LI":"勝利里","LIN":"40鄰","STREET":"中華一路","SECT":" ","MAREA":" ","LANE":"１８２巷","ALLEY":"３弄","HOUSE_NO":"９號","E_COORD97":171493.48999999999,"N_COORD97":2545048.9700000002,"ADDRESS":"中華一路１８２巷３弄９號","OBJECTID":12567},"geometry":{"x":171493.49000000022,"y":2545048.9700000044}},{"attributes":{"ID":12568,"DIS_CODE":0,"TOWNNAME":"東山區","LI":"東原里","LIN":"24鄰","STREET":" ","SECT":" ","MAREA":"前大埔","LANE":" ","ALLEY":" ","HOUSE_NO":"１７５號之２","E_COORD97":193018.57000000001,"N_COORD97":2573802.8799999999,"ADDRESS":"前大埔１７５號之２","OBJECTID":12568},"geometry":{"x":193018.5700000003,"y":2573802.8800000008}},{"attributes":{"ID":12569,"DIS_CODE":0,"TOWNNAME":"永康區","LI":"勝利里","LIN":"40鄰","STREET":"中華一路","SECT":" ","MAREA":" ","LANE":"１８２巷","ALLEY":"２弄","HOUSE_NO":"３號","E_COORD97":171523.73000000001,"N_COORD97":2545019.48,"ADDRESS":"中華一路１８２巷２弄３號","OBJECTID":12569},"geometry":{"x":171523.73000000138,"y":2545019.4800000023}},{"attributes":{"ID":12570,"DIS_CODE":0,"TOWNNAME":"歸仁區","LI":"南保里","LIN":"60鄰","STREET":"中山路","SECT":"三段","MAREA":" ","LANE":"８１巷","ALLEY":"２弄","HOUSE_NO":"１８號","E_COORD97":176737.60000000001,"N_COORD97":2540846.7200000002,"ADDRESS":"中山路三段８１巷２弄１８號","OBJECTID":12570},"geometry":{"x":176737.60000000056,"y":2540846.7200000044}},{"attributes":{"ID":12571,"DIS_CODE":0,"TOWNNAME":"歸仁區","LI":"南保里","LIN":"60鄰","STREET":"中山路","SECT":"三段","MAREA":" ","LANE":"８１巷","ALLEY":"２弄","HOUSE_NO":"８號","E_COORD97":176752.75,"N_COORD97":2540850.7200000002,"ADDRESS":"中山路三段８１巷２弄８號","OBJECTID":12571},"geometry":{"x":176752.75000000093,"y":2540850.7200000025}},{"attributes":{"ID":12572,"DIS_CODE":0,"TOWNNAME":"東山區","LI":"東原里","LIN":"24鄰","STREET":" ","SECT":" ","MAREA":"前大埔","LANE":" ","ALLEY":" ","HOUSE_NO":"１７５號之３","E_COORD97":193014.14000000001,"N_COORD97":2573803.4700000002,"ADDRESS":"前大埔１７５號之３","OBJECTID":12572},"geometry":{"x":193014.13999999966,"y":2573803.4700000025}},{"attributes":{"ID":12573,"DIS_CODE":0,"TOWNNAME":"南化區","LI":"北寮里","LIN":"13鄰","STREET":" ","SECT":" ","MAREA":"北寮","LANE":" ","ALLEY":" ","HOUSE_NO":"１８２號","E_COORD97":198647.94,"N_COORD97":2552570.75,"ADDRESS":"北寮１８２號","OBJECTID":12573},"geometry":{"x":198647.94000000227,"y":2552570.7500000019}},{"attributes":{"ID":12574,"DIS_CODE":0,"TOWNNAME":"永康區","LI":"建國里","LIN":"24鄰","STREET":"復興路","SECT":" ","MAREA":" ","LANE":"７１巷","ALLEY":"２弄","HOUSE_NO":"４號","E_COORD97":172869.17000000001,"N_COORD97":2544291.0699999998,"ADDRESS":"復興路７１巷２弄４號","OBJECTID":12574},"geometry":{"x":172869.17000000086,"y":2544291.0700000003}},{"attributes":{"ID":12575,"DIS_CODE":0,"TOWNNAME":"歸仁區","LI":"南保里","LIN":"60鄰","STREET":"中山路","SECT":"三段","MAREA":" ","LANE":"８１巷","ALLEY":"２弄","HOUSE_NO":"１０號","E_COORD97":176749.89999999999,"N_COORD97":2540848.7200000002,"ADDRESS":"中山路三段８１巷２弄１０號","OBJECTID":12575},"geometry":{"x":176749.9000000013,"y":2540848.7200000007}},{"attributes":{"ID":12576,"DIS_CODE":0,"TOWNNAME":"歸仁區","LI":"南保里","LIN":"60鄰","STREET":"中山路","SECT":"三段","MAREA":" ","LANE":"８１巷","ALLEY":"２弄","HOUSE_NO":"２０號","E_COORD97":176724.20000000001,"N_COORD97":2540840.7200000002,"ADDRESS":"中山路三段８１巷２弄２０號","OBJECTID":12576},"geometry":{"x":176724.20000000112,"y":2540840.7200000025}},{"attributes":{"ID":12577,"DIS_CODE":0,"TOWNNAME":"歸仁區","LI":"南保里","LIN":"60鄰","STREET":"中山路","SECT":"三段","MAREA":" ","LANE":"８１巷","ALLEY":"２弄","HOUSE_NO":"６號","E_COORD97":176760.67000000001,"N_COORD97":2540854.1600000001,"ADDRESS":"中山路三段８１巷２弄６號","OBJECTID":12577},"geometry":{"x":176760.66999999993,"y":2540854.160000002}},{"attributes":{"ID":12578,"DIS_CODE":0,"TOWNNAME":"左鎮區","LI":"中正里","LIN":"13鄰","STREET":" ","SECT":" ","MAREA":"中正","LANE":" ","ALLEY":" ","HOUSE_NO":"１７５號之２１","E_COORD97":189626.70000000001,"N_COORD97":2550585.2999999998,"ADDRESS":"中正１７５號之２１","OBJECTID":12578},"geometry":{"x":189626.70000000019,"y":2550585.3000000007}},{"attributes":{"ID":12579,"DIS_CODE":0,"TOWNNAME":"左鎮區","LI":"中正里","LIN":"13鄰","STREET":" ","SECT":" ","MAREA":"中正","LANE":" ","ALLEY":" ","HOUSE_NO":"１７５號之１３","E_COORD97":189595.10000000001,"N_COORD97":2550607.2999999998,"ADDRESS":"中正１７５號之１３","OBJECTID":12579},"geometry":{"x":189595.09999999963,"y":2550607.3000000045}},{"attributes":{"ID":12580,"DIS_CODE":0,"TOWNNAME":"左鎮區","LI":"中正里","LIN":"13鄰","STREET":" ","SECT":" ","MAREA":"中正","LANE":" ","ALLEY":" ","HOUSE_NO":"１７４號之１","E_COORD97":189401.95000000001,"N_COORD97":2550516.2999999998,"ADDRESS":"中正１７４號之１","OBJECTID":12580},"geometry":{"x":189401.95000000205,"y":2550516.3000000026}},{"attributes":{"ID":12581,"DIS_CODE":0,"TOWNNAME":"左鎮區","LI":"中正里","LIN":"13鄰","STREET":" ","SECT":" ","MAREA":"中正","LANE":" ","ALLEY":" ","HOUSE_NO":"１７６號之４","E_COORD97":189452.26999999999,"N_COORD97":2550586.2999999998,"ADDRESS":"中正１７６號之４","OBJECTID":12581},"geometry":{"x":189452.27000000048,"y":2550586.3000000007}},{"attributes":{"ID":12582,"DIS_CODE":0,"TOWNNAME":"官田區","LI":"二鎮里","LIN":"14鄰","STREET":" ","SECT":" ","MAREA":"程泰","LANE":" ","ALLEY":" ","HOUSE_NO":"５１號","E_COORD97":181639.94,"N_COORD97":2566487.7999999998,"ADDRESS":"程泰５１號","OBJECTID":12582},"geometry":{"x":181639.93999999948,"y":2566487.8000000045}},{"attributes":{"ID":12583,"DIS_CODE":0,"TOWNNAME":"東山區","LI":"東原里","LIN":"24鄰","STREET":" ","SECT":" ","MAREA":"前大埔","LANE":" ","ALLEY":" ","HOUSE_NO":"１７５號之４","E_COORD97":193009.72,"N_COORD97":2573804.0699999998,"ADDRESS":"前大埔１７５號之４","OBJECTID":12583},"geometry":{"x":193009.71999999974,"y":2573804.0700000003}},{"attributes":{"ID":12584,"DIS_CODE":0,"TOWNNAME":"東山區","LI":"東原里","LIN":"24鄰","STREET":" ","SECT":" ","MAREA":"前大埔","LANE":" ","ALLEY":" ","HOUSE_NO":"１７５號之５","E_COORD97":193005.29000000001,"N_COORD97":2573804.6600000001,"ADDRESS":"前大埔１７５號之５","OBJECTID":12584},"geometry":{"x":193005.2900000019,"y":2573804.6600000039}},{"attributes":{"ID":12585,"DIS_CODE":0,"TOWNNAME":"東山區","LI":"東原里","LIN":"24鄰","STREET":" ","SECT":" ","MAREA":"前大埔","LANE":" ","ALLEY":" ","HOUSE_NO":"１７５號之６","E_COORD97":192993.38,"N_COORD97":2573806.0600000001,"ADDRESS":"前大埔１７５號之６","OBJECTID":12585},"geometry":{"x":192993.38000000082,"y":2573806.0600000024}},{"attributes":{"ID":12586,"DIS_CODE":0,"TOWNNAME":"東山區","LI":"東原里","LIN":"24鄰","STREET":" ","SECT":" ","MAREA":"前大埔","LANE":" ","ALLEY":" ","HOUSE_NO":"１７５號","E_COORD97":193042.82999999999,"N_COORD97":2573799.4399999999,"ADDRESS":"前大埔１７５號","OBJECTID":12586},"geometry":{"x":193042.83000000101,"y":2573799.4400000013}},{"attributes":{"ID":12587,"DIS_CODE":0,"TOWNNAME":"東山區","LI":"東原里","LIN":"24鄰","STREET":" ","SECT":" ","MAREA":"前大埔","LANE":" ","ALLEY":" ","HOUSE_NO":"１８２號之２","E_COORD97":193124.20000000001,"N_COORD97":2573762.1699999999,"ADDRESS":"前大埔１８２號之２","OBJECTID":12587},"geometry":{"x":193124.20000000019,"y":2573762.1699999999}},{"attributes":{"ID":12588,"DIS_CODE":0,"TOWNNAME":"東山區","LI":"東原里","LIN":"24鄰","STREET":" ","SECT":" ","MAREA":"前大埔","LANE":" ","ALLEY":" ","HOUSE_NO":"１８２號之３","E_COORD97":193128.47,"N_COORD97":2573761.7400000002,"ADDRESS":"前大埔１８２號之３","OBJECTID":12588},"geometry":{"x":193128.46999999974,"y":2573761.7400000002}},{"attributes":{"ID":12589,"DIS_CODE":0,"TOWNNAME":"東山區","LI":"東原里","LIN":"24鄰","STREET":" ","SECT":" ","MAREA":"前大埔","LANE":" ","ALLEY":" ","HOUSE_NO":"１８２號","E_COORD97":193141.48999999999,"N_COORD97":2573760.2599999998,"ADDRESS":"前大埔１８２號","OBJECTID":12589},"geometry":{"x":193141.49000000209,"y":2573760.2600000016}},{"attributes":{"ID":12590,"DIS_CODE":0,"TOWNNAME":"東山區","LI":"東原里","LIN":"24鄰","STREET":" ","SECT":" ","MAREA":"前大埔","LANE":" ","ALLEY":" ","HOUSE_NO":"１８４號","E_COORD97":193133.39999999999,"N_COORD97":2573761.2400000002,"ADDRESS":"前大埔１８４號","OBJECTID":12590},"geometry":{"x":193133.40000000037,"y":2573761.2400000021}},{"attributes":{"ID":12591,"DIS_CODE":0,"TOWNNAME":"東山區","LI":"東原里","LIN":"24鄰","STREET":" ","SECT":" ","MAREA":"前大埔","LANE":" ","ALLEY":" ","HOUSE_NO":"１８５號","E_COORD97":193107.44,"N_COORD97":2573762.79,"ADDRESS":"前大埔１８５號","OBJECTID":12591},"geometry":{"x":193107.44000000041,"y":2573762.790000001}},{"attributes":{"ID":12592,"DIS_CODE":0,"TOWNNAME":"東山區","LI":"東原里","LIN":"24鄰","STREET":" ","SECT":" ","MAREA":"前大埔","LANE":" ","ALLEY":" ","HOUSE_NO":"１８６號","E_COORD97":193113.42999999999,"N_COORD97":2573762.2799999998,"ADDRESS":"前大埔１８６號","OBJECTID":12592},"geometry":{"x":193113.4299999997,"y":2573762.2800000031}},{"attributes":{"ID":12593,"DIS_CODE":0,"TOWNNAME":"東山區","LI":"東原里","LIN":"24鄰","STREET":" ","SECT":" ","MAREA":"前大埔","LANE":" ","ALLEY":" ","HOUSE_NO":"１８７號","E_COORD97":193118.44,"N_COORD97":2573761.9199999999,"ADDRESS":"前大埔１８７號","OBJECTID":12593},"geometry":{"x":193118.44000000134,"y":2573761.9200000037}},{"attributes":{"ID":12594,"DIS_CODE":0,"TOWNNAME":"東山區","LI":"東原里","LIN":"24鄰","STREET":" ","SECT":" ","MAREA":"前大埔","LANE":" ","ALLEY":" ","HOUSE_NO":"１９４號","E_COORD97":193058.16,"N_COORD97":2573772.3900000001,"ADDRESS":"前大埔１９４號","OBJECTID":12594},"geometry":{"x":193058.16000000015,"y":2573772.3900000006}},{"attributes":{"ID":12595,"DIS_CODE":0,"TOWNNAME":"東山區","LI":"東原里","LIN":"24鄰","STREET":" ","SECT":" ","MAREA":"前大埔","LANE":" ","ALLEY":" ","HOUSE_NO":"１９５號","E_COORD97":193054.37,"N_COORD97":2573774.3900000001,"ADDRESS":"前大埔１９５號","OBJECTID":12595},"geometry":{"x":193054.37000000104,"y":2573774.3900000025}},{"attributes":{"ID":12596,"DIS_CODE":0,"TOWNNAME":"東山區","LI":"東原里","LIN":"24鄰","STREET":" ","SECT":" ","MAREA":"前大埔","LANE":" ","ALLEY":" ","HOUSE_NO":"１９６號","E_COORD97":193050.57000000001,"N_COORD97":2573776.3799999999,"ADDRESS":"前大埔１９６號","OBJECTID":12596},"geometry":{"x":193050.5700000003,"y":2573776.379999999}},{"attributes":{"ID":12597,"DIS_CODE":0,"TOWNNAME":"東山區","LI":"東原里","LIN":"24鄰","STREET":" ","SECT":" ","MAREA":"前大埔","LANE":" ","ALLEY":" ","HOUSE_NO":"１９７號","E_COORD97":193046.76999999999,"N_COORD97":2573778.3799999999,"ADDRESS":"前大埔１９７號","OBJECTID":12597},"geometry":{"x":193046.76999999955,"y":2573778.3800000008}},{"attributes":{"ID":12598,"DIS_CODE":0,"TOWNNAME":"東山區","LI":"科里里","LIN":"24鄰","STREET":" ","SECT":" ","MAREA":"科里","LANE":" ","ALLEY":" ","HOUSE_NO":"３７號","E_COORD97":189875.60000000001,"N_COORD97":2578264.7999999998,"ADDRESS":"科里３７號","OBJECTID":12598},"geometry":{"x":189875.60000000056,"y":2578264.8000000007}},{"attributes":{"ID":12599,"DIS_CODE":0,"TOWNNAME":"東山區","LI":"科里里","LIN":"24鄰","STREET":" ","SECT":" ","MAREA":"科里","LANE":" ","ALLEY":" ","HOUSE_NO":"３８號","E_COORD97":189879.04000000001,"N_COORD97":2578250.2000000002,"ADDRESS":"科里３８號","OBJECTID":12599},"geometry":{"x":189879.04000000004,"y":2578250.1999999993}},{"attributes":{"ID":12600,"DIS_CODE":0,"TOWNNAME":"東山區","LI":"科里里","LIN":"24鄰","STREET":" ","SECT":" ","MAREA":"科里","LANE":" ","ALLEY":" ","HOUSE_NO":"４０號之８","E_COORD97":189821.98999999999,"N_COORD97":2578239.0899999999,"ADDRESS":"科里４０號之８","OBJECTID":12600},"geometry":{"x":189821.99000000022,"y":2578239.0900000036}}]}