{"displayFieldName":"TOWNNAME","fieldAliases":{"ID":"ID","DIS_CODE":"DIS_CODE","TOWNNAME":"TOWNNAME","LI":"LI","LIN":"LIN","STREET":"STREET","SECT":"SECT","MAREA":"MAREA","LANE":"LANE","ALLEY":"ALLEY","HOUSE_NO":"HOUSE_NO","E_COORD97":"E_COORD97","N_COORD97":"N_COORD97","ADDRESS":"ADDRESS","OBJECTID":"OBJECTID"},"geometryType":"esriGeometryPoint","spatialReference":{"wkid":102443,"latestWkid":3826},"fields":[{"name":"ID","type":"esriFieldTypeDouble","alias":"ID"},{"name":"DIS_CODE","type":"esriFieldTypeInteger","alias":"DIS_CODE"},{"name":"TOWNNAME","type":"esriFieldTypeString","alias":"TOWNNAME","length":8},{"name":"LI","type":"esriFieldTypeString","alias":"LI","length":8},{"name":"LIN","type":"esriFieldTypeString","alias":"LIN","length":12},{"name":"STREET","type":"esriFieldTypeString","alias":"STREET","length":20},{"name":"SECT","type":"esriFieldTypeString","alias":"SECT","length":8},{"name":"MAREA","type":"esriFieldTypeString","alias":"MAREA","length":12},{"name":"LANE","type":"esriFieldTypeString","alias":"LANE","length":10},{"name":"ALLEY","type":"esriFieldTypeString","alias":"ALLEY","length":10},{"name":"HOUSE_NO","type":"esriFieldTypeString","alias":"HOUSE_NO","length":20},{"name":"E_COORD97","type":"esriFieldTypeDouble","alias":"E_COORD97"},{"name":"N_COORD97","type":"esriFieldTypeDouble","alias":"N_COORD97"},{"name":"ADDRESS","type":"esriFieldTypeString","alias":"ADDRESS","length":50},{"name":"OBJECTID","type":"esriFieldTypeOID","alias":"OBJECTID"}],"features":[{"attributes":{"ID":582628,"DIS_CODE":0,"TOWNNAME":"永康區","LI":"復華里","LIN":"35鄰","STREET":"復國一路","SECT":" ","MAREA":" ","LANE":" ","ALLEY":" ","HOUSE_NO":"４６５號","E_COORD97":172623.12,"N_COORD97":2546116.9300000002,"ADDRESS":"復國一路４６５號","OBJECTID":582601},"geometry":{"x":172623.12000000011,"y":2546116.9300000016}},{"attributes":{"ID":582629,"DIS_CODE":0,"TOWNNAME":"永康區","LI":"復國里","LIN":"21鄰","STREET":"復華六街","SECT":" ","MAREA":" ","LANE":" ","ALLEY":" ","HOUSE_NO":"９５號","E_COORD97":172606.84,"N_COORD97":2545836.9500000002,"ADDRESS":"復華六街９５號","OBJECTID":582602},"geometry":{"x":172606.84000000078,"y":2545836.9499999993}},{"attributes":{"ID":582630,"DIS_CODE":0,"TOWNNAME":"永康區","LI":"復興里","LIN":"8鄰","STREET":"復興路","SECT":" ","MAREA":" ","LANE":" ","ALLEY":" ","HOUSE_NO":"３２３號","E_COORD97":172249.29000000001,"N_COORD97":2544315.9399999999,"ADDRESS":"復興路３２３號","OBJECTID":582603},"geometry":{"x":172249.2900000019,"y":2544315.9400000032}},{"attributes":{"ID":582631,"DIS_CODE":0,"TOWNNAME":"東區","LI":"泉南里","LIN":"16鄰","STREET":"府連路","SECT":" ","MAREA":" ","LANE":" ","ALLEY":" ","HOUSE_NO":"３３９號","E_COORD97":169608.79000000001,"N_COORD97":2542842.8199999998,"ADDRESS":"府連路３３９號","OBJECTID":582604},"geometry":{"x":169608.79000000097,"y":2542842.8200000022}},{"attributes":{"ID":582632,"DIS_CODE":0,"TOWNNAME":"東區","LI":"泉南里","LIN":"16鄰","STREET":"府連路","SECT":" ","MAREA":" ","LANE":" ","ALLEY":" ","HOUSE_NO":"３５１號","E_COORD97":169632.51000000001,"N_COORD97":2542833.5699999998,"ADDRESS":"府連路３５１號","OBJECTID":582605},"geometry":{"x":169632.51000000071,"y":2542833.5700000003}},{"attributes":{"ID":582633,"DIS_CODE":0,"TOWNNAME":"東區","LI":"泉南里","LIN":"16鄰","STREET":"府連路","SECT":" ","MAREA":" ","LANE":" ","ALLEY":" ","HOUSE_NO":"３５３號","E_COORD97":169637.25,"N_COORD97":2542831.8500000001,"ADDRESS":"府連路３５３號","OBJECTID":582606},"geometry":{"x":169637.25000000186,"y":2542831.8500000015}},{"attributes":{"ID":582634,"DIS_CODE":0,"TOWNNAME":"東區","LI":"泉南里","LIN":"16鄰","STREET":"府連路","SECT":" ","MAREA":" ","LANE":" ","ALLEY":" ","HOUSE_NO":"３５５號","E_COORD97":169641.98999999999,"N_COORD97":2542830.4100000001,"ADDRESS":"府連路３５５號","OBJECTID":582607},"geometry":{"x":169641.99000000022,"y":2542830.4100000001}},{"attributes":{"ID":582635,"DIS_CODE":0,"TOWNNAME":"東區","LI":"泉南里","LIN":"16鄰","STREET":"府連路","SECT":" ","MAREA":" ","LANE":" ","ALLEY":" ","HOUSE_NO":"３５７號","E_COORD97":169645.87,"N_COORD97":2542828.98,"ADDRESS":"府連路３５７號","OBJECTID":582608},"geometry":{"x":169645.87000000104,"y":2542828.9800000023}},{"attributes":{"ID":582636,"DIS_CODE":0,"TOWNNAME":"東區","LI":"泉南里","LIN":"16鄰","STREET":"府連路","SECT":" ","MAREA":" ","LANE":" ","ALLEY":" ","HOUSE_NO":"３５９號","E_COORD97":169649.73999999999,"N_COORD97":2542827.98,"ADDRESS":"府連路３５９號","OBJECTID":582609},"geometry":{"x":169649.74000000115,"y":2542827.9800000042}},{"attributes":{"ID":582637,"DIS_CODE":0,"TOWNNAME":"東區","LI":"泉南里","LIN":"16鄰","STREET":"府連路","SECT":" ","MAREA":" ","LANE":" ","ALLEY":" ","HOUSE_NO":"３６１號","E_COORD97":169653.76000000001,"N_COORD97":2542826.1099999999,"ADDRESS":"府連路３６１號","OBJECTID":582610},"geometry":{"x":169653.75999999978,"y":2542826.1100000031}},{"attributes":{"ID":582638,"DIS_CODE":0,"TOWNNAME":"東區","LI":"泉南里","LIN":"16鄰","STREET":"府連路","SECT":" ","MAREA":" ","LANE":" ","ALLEY":" ","HOUSE_NO":"３６３號","E_COORD97":169659.07000000001,"N_COORD97":2542824.6800000002,"ADDRESS":"府連路３６３號","OBJECTID":582611},"geometry":{"x":169659.06999999937,"y":2542824.6799999997}},{"attributes":{"ID":582639,"DIS_CODE":0,"TOWNNAME":"東區","LI":"泉南里","LIN":"16鄰","STREET":"樹林街","SECT":"一段","MAREA":" ","LANE":" ","ALLEY":" ","HOUSE_NO":"２３號","E_COORD97":169659.79999999999,"N_COORD97":2542902.6400000001,"ADDRESS":"樹林街一段２３號","OBJECTID":582612},"geometry":{"x":169659.79999999981,"y":2542902.6400000025}},{"attributes":{"ID":582640,"DIS_CODE":0,"TOWNNAME":"東區","LI":"泉南里","LIN":"16鄰","STREET":"樹林街","SECT":"一段","MAREA":" ","LANE":" ","ALLEY":" ","HOUSE_NO":"２５號","E_COORD97":169655.23999999999,"N_COORD97":2542904.0099999998,"ADDRESS":"樹林街一段２５號","OBJECTID":582613},"geometry":{"x":169655.24000000115,"y":2542904.0099999998}},{"attributes":{"ID":582641,"DIS_CODE":0,"TOWNNAME":"永康區","LI":"勝利里","LIN":"5鄰","STREET":"勝學路","SECT":" ","MAREA":" ","LANE":" ","ALLEY":" ","HOUSE_NO":"７７號","E_COORD97":171146.01999999999,"N_COORD97":2544774.2599999998,"ADDRESS":"勝學路７７號","OBJECTID":582614},"geometry":{"x":171146.02000000048,"y":2544774.2599999998}},{"attributes":{"ID":582642,"DIS_CODE":0,"TOWNNAME":"永康區","LI":"復華里","LIN":"32鄰","STREET":"復華十街","SECT":" ","MAREA":" ","LANE":" ","ALLEY":" ","HOUSE_NO":"３１號","E_COORD97":172610,"N_COORD97":2546319.2799999998,"ADDRESS":"復華十街３１號","OBJECTID":582615},"geometry":{"x":172610,"y":2546319.2799999993}},{"attributes":{"ID":582643,"DIS_CODE":0,"TOWNNAME":"永康區","LI":"復華里","LIN":"32鄰","STREET":"復華十街","SECT":" ","MAREA":" ","LANE":" ","ALLEY":" ","HOUSE_NO":"３５號","E_COORD97":172614.39999999999,"N_COORD97":2546328.2799999998,"ADDRESS":"復華十街３５號","OBJECTID":582616},"geometry":{"x":172614.40000000037,"y":2546328.2800000012}},{"attributes":{"ID":582644,"DIS_CODE":0,"TOWNNAME":"永康區","LI":"復國里","LIN":"6鄰","STREET":"復國一路","SECT":" ","MAREA":" ","LANE":" ","ALLEY":" ","HOUSE_NO":"１１２號","E_COORD97":172721.5,"N_COORD97":2544980.27,"ADDRESS":"復國一路１１２號","OBJECTID":582617},"geometry":{"x":172721.50000000093,"y":2544980.2699999996}},{"attributes":{"ID":582645,"DIS_CODE":0,"TOWNNAME":"永康區","LI":"復國里","LIN":"28鄰","STREET":"復國一路","SECT":" ","MAREA":" ","LANE":" ","ALLEY":" ","HOUSE_NO":"１９１號","E_COORD97":172712.42999999999,"N_COORD97":2545253.9900000002,"ADDRESS":"復國一路１９１號","OBJECTID":582618},"geometry":{"x":172712.43000000156,"y":2545253.9900000002}},{"attributes":{"ID":582646,"DIS_CODE":0,"TOWNNAME":"永康區","LI":"復華里","LIN":"29鄰","STREET":"復國一路","SECT":" ","MAREA":" ","LANE":" ","ALLEY":" ","HOUSE_NO":"４８６號","E_COORD97":172629.76999999999,"N_COORD97":2546139.4500000002,"ADDRESS":"復國一路４８６號","OBJECTID":582619},"geometry":{"x":172629.76999999955,"y":2546139.450000003}},{"attributes":{"ID":582647,"DIS_CODE":0,"TOWNNAME":"永康區","LI":"復華里","LIN":"23鄰","STREET":"復國一路","SECT":" ","MAREA":" ","LANE":" ","ALLEY":" ","HOUSE_NO":"４６８號","E_COORD97":172663.25,"N_COORD97":2546097.7200000002,"ADDRESS":"復國一路４６８號","OBJECTID":582620},"geometry":{"x":172663.25000000186,"y":2546097.7200000007}},{"attributes":{"ID":582648,"DIS_CODE":0,"TOWNNAME":"中西區","LI":"西湖里","LIN":"16鄰","STREET":"湖美一街","SECT":" ","MAREA":" ","LANE":" ","ALLEY":" ","HOUSE_NO":"１７５號","E_COORD97":166055.01000000001,"N_COORD97":2545022.6200000001,"ADDRESS":"湖美一街１７５號","OBJECTID":582621},"geometry":{"x":166055.01000000164,"y":2545022.6200000029}},{"attributes":{"ID":582649,"DIS_CODE":0,"TOWNNAME":"中西區","LI":"萬昌里","LIN":"16鄰","STREET":"城隍街","SECT":" ","MAREA":" ","LANE":" ","ALLEY":" ","HOUSE_NO":"１０５號","E_COORD97":168887.26000000001,"N_COORD97":2543554.75,"ADDRESS":"城隍街１０５號","OBJECTID":582622},"geometry":{"x":168887.25999999978,"y":2543554.7500000037}},{"attributes":{"ID":582650,"DIS_CODE":0,"TOWNNAME":"中西區","LI":"進學里","LIN":"16鄰","STREET":"樹林街","SECT":"二段","MAREA":" ","LANE":" ","ALLEY":" ","HOUSE_NO":"２６８號","E_COORD97":168210.01000000001,"N_COORD97":2542995.2400000002,"ADDRESS":"樹林街二段２６８號","OBJECTID":582623},"geometry":{"x":168210.01000000071,"y":2542995.2400000002}},{"attributes":{"ID":582651,"DIS_CODE":0,"TOWNNAME":"中西區","LI":"西湖里","LIN":"16鄰","STREET":"和緯路","SECT":"五段","MAREA":" ","LANE":" ","ALLEY":" ","HOUSE_NO":"２３３號","E_COORD97":166035.98999999999,"N_COORD97":2545054.1699999999,"ADDRESS":"和緯路五段２３３號","OBJECTID":582624},"geometry":{"x":166035.99000000115,"y":2545054.1700000018}},{"attributes":{"ID":582652,"DIS_CODE":0,"TOWNNAME":"中西區","LI":"西湖里","LIN":"16鄰","STREET":"和緯路","SECT":"五段","MAREA":" ","LANE":" ","ALLEY":" ","HOUSE_NO":"２３５號","E_COORD97":166027.84,"N_COORD97":2545053.6200000001,"ADDRESS":"和緯路五段２３５號","OBJECTID":582625},"geometry":{"x":166027.84000000078,"y":2545053.620000001}},{"attributes":{"ID":582653,"DIS_CODE":0,"TOWNNAME":"安南區","LI":"州南里","LIN":"16鄰","STREET":"安和路","SECT":"五段","MAREA":" ","LANE":" ","ALLEY":" ","HOUSE_NO":"７２之１號","E_COORD97":169948,"N_COORD97":2551657.8399999999,"ADDRESS":"安和路五段７２之１號","OBJECTID":582626},"geometry":{"x":169948.00000000093,"y":2551657.8400000017}},{"attributes":{"ID":582654,"DIS_CODE":0,"TOWNNAME":"安南區","LI":"城南里","LIN":"16鄰","STREET":"青砂街","SECT":"一段","MAREA":" ","LANE":" ","ALLEY":" ","HOUSE_NO":"１６９之３２號","E_COORD97":160442.56,"N_COORD97":2551895.3900000001,"ADDRESS":"青砂街一段１６９之３２號","OBJECTID":582627},"geometry":{"x":160442.56000000052,"y":2551895.3900000025}},{"attributes":{"ID":582655,"DIS_CODE":0,"TOWNNAME":"安南區","LI":"佃東里","LIN":"16鄰","STREET":"台江大道","SECT":"三段","MAREA":" ","LANE":" ","ALLEY":" ","HOUSE_NO":"２２之３６號","E_COORD97":166740.29000000001,"N_COORD97":2551265.2999999998,"ADDRESS":"台江大道三段２２之３６號","OBJECTID":582628},"geometry":{"x":166740.29000000097,"y":2551265.3000000026}},{"attributes":{"ID":582656,"DIS_CODE":0,"TOWNNAME":"永康區","LI":"勝利里","LIN":"36鄰","STREET":"勝學路","SECT":" ","MAREA":" ","LANE":" ","ALLEY":" ","HOUSE_NO":"１１２號","E_COORD97":171173.39000000001,"N_COORD97":2544863.9900000002,"ADDRESS":"勝學路１１２號","OBJECTID":582629},"geometry":{"x":171173.38999999873,"y":2544863.9900000002}},{"attributes":{"ID":582657,"DIS_CODE":0,"TOWNNAME":"永康區","LI":"復華里","LIN":"41鄰","STREET":"復華六街","SECT":" ","MAREA":" ","LANE":" ","ALLEY":" ","HOUSE_NO":"９０號","E_COORD97":172646,"N_COORD97":2545856.8399999999,"ADDRESS":"復華六街９０號","OBJECTID":582630},"geometry":{"x":172646,"y":2545856.8400000017}},{"attributes":{"ID":582658,"DIS_CODE":0,"TOWNNAME":"永康區","LI":"復興里","LIN":"13鄰","STREET":"復興路","SECT":" ","MAREA":" ","LANE":" ","ALLEY":" ","HOUSE_NO":"２８６號","E_COORD97":172358.03,"N_COORD97":2544348.0299999998,"ADDRESS":"復興路２８６號","OBJECTID":582631},"geometry":{"x":172358.02999999933,"y":2544348.0299999993}},{"attributes":{"ID":582659,"DIS_CODE":0,"TOWNNAME":"永康區","LI":"復國里","LIN":"24鄰","STREET":"復華三街","SECT":" ","MAREA":" ","LANE":" ","ALLEY":" ","HOUSE_NO":"８６號","E_COORD97":172626.42999999999,"N_COORD97":2545565.02,"ADDRESS":"復華三街８６號","OBJECTID":582632},"geometry":{"x":172626.43000000063,"y":2545565.0199999996}},{"attributes":{"ID":582660,"DIS_CODE":0,"TOWNNAME":"永康區","LI":"復華里","LIN":"32鄰","STREET":"復華十街","SECT":" ","MAREA":" ","LANE":" ","ALLEY":" ","HOUSE_NO":"３７號","E_COORD97":172616.60999999999,"N_COORD97":2546332.7799999998,"ADDRESS":"復華十街３７號","OBJECTID":582633},"geometry":{"x":172616.61000000034,"y":2546332.7799999993}},{"attributes":{"ID":582661,"DIS_CODE":0,"TOWNNAME":"永康區","LI":"復國里","LIN":"34鄰","STREET":"復華一街","SECT":" ","MAREA":" ","LANE":" ","ALLEY":" ","HOUSE_NO":"７７號","E_COORD97":172506.78,"N_COORD97":2545071.5299999998,"ADDRESS":"復華一街７７號","OBJECTID":582634},"geometry":{"x":172506.78000000026,"y":2545071.5300000012}},{"attributes":{"ID":582662,"DIS_CODE":0,"TOWNNAME":"永康區","LI":"復興里","LIN":"12鄰","STREET":"復興路","SECT":" ","MAREA":" ","LANE":" ","ALLEY":" ","HOUSE_NO":"３３８號","E_COORD97":172258.31,"N_COORD97":2544343.5600000001,"ADDRESS":"復興路３３８號","OBJECTID":582635},"geometry":{"x":172258.30999999959,"y":2544343.5600000024}},{"attributes":{"ID":582663,"DIS_CODE":0,"TOWNNAME":"永康區","LI":"復國里","LIN":"28鄰","STREET":"復國一路","SECT":" ","MAREA":" ","LANE":" ","ALLEY":" ","HOUSE_NO":"１９３號","E_COORD97":172712.69,"N_COORD97":2545257.9900000002,"ADDRESS":"復國一路１９３號","OBJECTID":582636},"geometry":{"x":172712.69000000041,"y":2545257.9900000002}},{"attributes":{"ID":582664,"DIS_CODE":0,"TOWNNAME":"永康區","LI":"復國里","LIN":"23鄰","STREET":"復華三街","SECT":" ","MAREA":" ","LANE":" ","ALLEY":" ","HOUSE_NO":"１００號","E_COORD97":172574.72,"N_COORD97":2545569.77,"ADDRESS":"復華三街１００號","OBJECTID":582637},"geometry":{"x":172574.71999999974,"y":2545569.7699999996}},{"attributes":{"ID":582665,"DIS_CODE":0,"TOWNNAME":"永康區","LI":"正強里","LIN":"16鄰","STREET":"自強路","SECT":" ","MAREA":" ","LANE":" ","ALLEY":" ","HOUSE_NO":"１９４號","E_COORD97":173220.32000000001,"N_COORD97":2547542.4900000002,"ADDRESS":"自強路１９４號","OBJECTID":582638},"geometry":{"x":173220.3200000003,"y":2547542.4900000002}},{"attributes":{"ID":582666,"DIS_CODE":0,"TOWNNAME":"永康區","LI":"正強里","LIN":"16鄰","STREET":"自強路","SECT":" ","MAREA":" ","LANE":" ","ALLEY":" ","HOUSE_NO":"１８４號","E_COORD97":173164.94,"N_COORD97":2547502.7400000002,"ADDRESS":"自強路１８４號","OBJECTID":582639},"geometry":{"x":173164.94000000134,"y":2547502.7400000021}},{"attributes":{"ID":582667,"DIS_CODE":0,"TOWNNAME":"永康區","LI":"正強里","LIN":"16鄰","STREET":"自強路","SECT":" ","MAREA":" ","LANE":" ","ALLEY":" ","HOUSE_NO":"１９０號","E_COORD97":173207.17000000001,"N_COORD97":2547537.7400000002,"ADDRESS":"自強路１９０號","OBJECTID":582640},"geometry":{"x":173207.16999999993,"y":2547537.7400000002}},{"attributes":{"ID":582668,"DIS_CODE":0,"TOWNNAME":"永康區","LI":"正強里","LIN":"16鄰","STREET":"自強路","SECT":" ","MAREA":" ","LANE":" ","ALLEY":" ","HOUSE_NO":"１８６號","E_COORD97":173169.03,"N_COORD97":2547503.2400000002,"ADDRESS":"自強路１８６號","OBJECTID":582641},"geometry":{"x":173169.03000000119,"y":2547503.2400000002}},{"attributes":{"ID":582669,"DIS_CODE":0,"TOWNNAME":"永康區","LI":"正強里","LIN":"16鄰","STREET":"自強路","SECT":" ","MAREA":" ","LANE":" ","ALLEY":" ","HOUSE_NO":"１９８號","E_COORD97":173227.78,"N_COORD97":2547549.25,"ADDRESS":"自強路１９８號","OBJECTID":582642},"geometry":{"x":173227.78000000212,"y":2547549.2500000019}},{"attributes":{"ID":582670,"DIS_CODE":0,"TOWNNAME":"永康區","LI":"北灣里","LIN":"16鄰","STREET":"信義二街","SECT":" ","MAREA":" ","LANE":" ","ALLEY":" ","HOUSE_NO":"１６２號","E_COORD97":174839.91,"N_COORD97":2545735.7200000002,"ADDRESS":"信義二街１６２號","OBJECTID":582643},"geometry":{"x":174839.91000000015,"y":2545735.7200000044}},{"attributes":{"ID":582671,"DIS_CODE":0,"TOWNNAME":"永康區","LI":"正強里","LIN":"16鄰","STREET":"自強路","SECT":" ","MAREA":" ","LANE":" ","ALLEY":" ","HOUSE_NO":"１９６號","E_COORD97":173223.97,"N_COORD97":2547545.25,"ADDRESS":"自強路１９６號","OBJECTID":582644},"geometry":{"x":173223.96999999974,"y":2547545.2500000037}},{"attributes":{"ID":582672,"DIS_CODE":0,"TOWNNAME":"永康區","LI":"北灣里","LIN":"16鄰","STREET":"信義二街","SECT":" ","MAREA":" ","LANE":" ","ALLEY":" ","HOUSE_NO":"１６８號","E_COORD97":174827.23999999999,"N_COORD97":2545732.54,"ADDRESS":"信義二街１６８號","OBJECTID":582645},"geometry":{"x":174827.24000000115,"y":2545732.540000001}},{"attributes":{"ID":582673,"DIS_CODE":0,"TOWNNAME":"歸仁區","LI":"文化里","LIN":"16鄰","STREET":"大德路","SECT":" ","MAREA":" ","LANE":" ","ALLEY":" ","HOUSE_NO":"１９７號三樓之３","E_COORD97":177229.17999999999,"N_COORD97":2541498.2599999998,"ADDRESS":"大德路１９７號三樓之３","OBJECTID":582646},"geometry":{"x":177229.18000000063,"y":2541498.2599999998}},{"attributes":{"ID":582674,"DIS_CODE":0,"TOWNNAME":"永康區","LI":"勝利里","LIN":"18鄰","STREET":"勝學路","SECT":" ","MAREA":" ","LANE":" ","ALLEY":" ","HOUSE_NO":"１４５號","E_COORD97":171164.44,"N_COORD97":2545014.5,"ADDRESS":"勝學路１４５號","OBJECTID":582647},"geometry":{"x":171164.44000000134,"y":2545014.5000000037}},{"attributes":{"ID":582675,"DIS_CODE":0,"TOWNNAME":"永康區","LI":"勝利里","LIN":"20鄰","STREET":"勝學路","SECT":" ","MAREA":" ","LANE":" ","ALLEY":" ","HOUSE_NO":"２３７號","E_COORD97":171180.26000000001,"N_COORD97":2545265.2599999998,"ADDRESS":"勝學路２３７號","OBJECTID":582648},"geometry":{"x":171180.26000000071,"y":2545265.2599999998}},{"attributes":{"ID":582676,"DIS_CODE":0,"TOWNNAME":"永康區","LI":"復華里","LIN":"34鄰","STREET":"復國一路","SECT":" ","MAREA":" ","LANE":" ","ALLEY":" ","HOUSE_NO":"４７９號","E_COORD97":172586.79000000001,"N_COORD97":2546160.52,"ADDRESS":"復國一路４７９號","OBJECTID":582649},"geometry":{"x":172586.7900000019,"y":2546160.5200000014}},{"attributes":{"ID":582677,"DIS_CODE":0,"TOWNNAME":"永康區","LI":"勝利里","LIN":"17鄰","STREET":"勝學路","SECT":" ","MAREA":" ","LANE":" ","ALLEY":" ","HOUSE_NO":"１３６號","E_COORD97":171175.87,"N_COORD97":2544959.1099999999,"ADDRESS":"勝學路１３６號","OBJECTID":582650},"geometry":{"x":171175.87000000197,"y":2544959.1100000013}},{"attributes":{"ID":582678,"DIS_CODE":0,"TOWNNAME":"永康區","LI":"復興里","LIN":"7鄰","STREET":"復興路","SECT":" ","MAREA":" ","LANE":" ","ALLEY":" ","HOUSE_NO":"３４７號","E_COORD97":172200.85999999999,"N_COORD97":2544314.02,"ADDRESS":"復興路３４７號","OBJECTID":582651},"geometry":{"x":172200.86000000034,"y":2544314.0199999996}},{"attributes":{"ID":582679,"DIS_CODE":0,"TOWNNAME":"永康區","LI":"大灣里","LIN":"28鄰","STREET":"文賢街","SECT":" ","MAREA":" ","LANE":" ","ALLEY":" ","HOUSE_NO":"５５號","E_COORD97":175281.75,"N_COORD97":2545062.9500000002,"ADDRESS":"文賢街５５號","OBJECTID":582652},"geometry":{"x":175281.75,"y":2545062.9499999993}},{"attributes":{"ID":582680,"DIS_CODE":0,"TOWNNAME":"永康區","LI":"勝利里","LIN":"18鄰","STREET":"勝學路","SECT":" ","MAREA":" ","LANE":" ","ALLEY":" ","HOUSE_NO":"１５１號","E_COORD97":171165.73999999999,"N_COORD97":2545028,"ADDRESS":"勝學路１５１號","OBJECTID":582653},"geometry":{"x":171165.74000000115,"y":2545028.0000000037}},{"attributes":{"ID":582681,"DIS_CODE":0,"TOWNNAME":"永康區","LI":"復國里","LIN":"13鄰","STREET":"復華三街","SECT":" ","MAREA":" ","LANE":" ","ALLEY":" ","HOUSE_NO":"２９號","E_COORD97":172850.92000000001,"N_COORD97":2545534.9500000002,"ADDRESS":"復華三街２９號","OBJECTID":582654},"geometry":{"x":172850.92000000086,"y":2545534.9499999993}},{"attributes":{"ID":582682,"DIS_CODE":0,"TOWNNAME":"永康區","LI":"勝利里","LIN":"20鄰","STREET":"勝學路","SECT":" ","MAREA":" ","LANE":" ","ALLEY":" ","HOUSE_NO":"２３５號","E_COORD97":171180.17000000001,"N_COORD97":2545261.5,"ADDRESS":"勝學路２３５號","OBJECTID":582655},"geometry":{"x":171180.16999999993,"y":2545261.4999999981}},{"attributes":{"ID":582683,"DIS_CODE":0,"TOWNNAME":"永康區","LI":"復國里","LIN":"24鄰","STREET":"復華三街","SECT":" ","MAREA":" ","LANE":" ","ALLEY":" ","HOUSE_NO":"８８號","E_COORD97":172620.70000000001,"N_COORD97":2545565.27,"ADDRESS":"復華三街８８號","OBJECTID":582656},"geometry":{"x":172620.70000000019,"y":2545565.2700000014}},{"attributes":{"ID":582684,"DIS_CODE":0,"TOWNNAME":"永康區","LI":"復國里","LIN":"23鄰","STREET":"復華三街","SECT":" ","MAREA":" ","LANE":" ","ALLEY":" ","HOUSE_NO":"９８號","E_COORD97":172578.67999999999,"N_COORD97":2545569.52,"ADDRESS":"復華三街９８號","OBJECTID":582657},"geometry":{"x":172578.68000000156,"y":2545569.5200000033}},{"attributes":{"ID":582685,"DIS_CODE":0,"TOWNNAME":"永康區","LI":"復國里","LIN":"4鄰","STREET":"復國二路","SECT":" ","MAREA":" ","LANE":" ","ALLEY":" ","HOUSE_NO":"１３號","E_COORD97":172823.20999999999,"N_COORD97":2544845.6400000001,"ADDRESS":"復國二路１３號","OBJECTID":582658},"geometry":{"x":172823.21000000089,"y":2544845.6400000025}},{"attributes":{"ID":582686,"DIS_CODE":0,"TOWNNAME":"永康區","LI":"復華里","LIN":"33鄰","STREET":"復華十街","SECT":" ","MAREA":" ","LANE":" ","ALLEY":" ","HOUSE_NO":"２８號","E_COORD97":172541.92999999999,"N_COORD97":2546183.8199999998,"ADDRESS":"復華十街２８號","OBJECTID":582659},"geometry":{"x":172541.93000000063,"y":2546183.8200000003}},{"attributes":{"ID":582687,"DIS_CODE":0,"TOWNNAME":"永康區","LI":"復華里","LIN":"1鄰","STREET":"復國二路","SECT":" ","MAREA":" ","LANE":" ","ALLEY":" ","HOUSE_NO":"２７２號","E_COORD97":173016.79000000001,"N_COORD97":2546064.02,"ADDRESS":"復國二路２７２號","OBJECTID":582660},"geometry":{"x":173016.79000000004,"y":2546064.0199999996}},{"attributes":{"ID":582688,"DIS_CODE":0,"TOWNNAME":"永康區","LI":"勝利里","LIN":"18鄰","STREET":"勝學路","SECT":" ","MAREA":" ","LANE":" ","ALLEY":" ","HOUSE_NO":"１４９號","E_COORD97":171165.04000000001,"N_COORD97":2545023.5,"ADDRESS":"勝學路１４９號","OBJECTID":582661},"geometry":{"x":171165.04000000097,"y":2545023.5}},{"attributes":{"ID":582689,"DIS_CODE":0,"TOWNNAME":"永康區","LI":"復國里","LIN":"28鄰","STREET":"復華二街","SECT":" ","MAREA":" ","LANE":" ","ALLEY":" ","HOUSE_NO":"８號","E_COORD97":172689.98999999999,"N_COORD97":2545360.27,"ADDRESS":"復華二街８號","OBJECTID":582662},"geometry":{"x":172689.99000000022,"y":2545360.2699999996}},{"attributes":{"ID":582690,"DIS_CODE":0,"TOWNNAME":"永康區","LI":"復國里","LIN":"29鄰","STREET":"復華二街","SECT":" ","MAREA":" ","LANE":" ","ALLEY":" ","HOUSE_NO":"９號","E_COORD97":172632.64000000001,"N_COORD97":2545342.8500000001,"ADDRESS":"復華二街９號","OBJECTID":582663},"geometry":{"x":172632.63999999966,"y":2545342.8499999996}},{"attributes":{"ID":582691,"DIS_CODE":0,"TOWNNAME":"永康區","LI":"復國里","LIN":"8鄰","STREET":"復國二路","SECT":" ","MAREA":" ","LANE":" ","ALLEY":" ","HOUSE_NO":"６４號","E_COORD97":172843.23000000001,"N_COORD97":2545119.52,"ADDRESS":"復國二路６４號","OBJECTID":582664},"geometry":{"x":172843.23000000045,"y":2545119.5200000014}},{"attributes":{"ID":582692,"DIS_CODE":0,"TOWNNAME":"永康區","LI":"復華里","LIN":"23鄰","STREET":"復國一路","SECT":" ","MAREA":" ","LANE":" ","ALLEY":" ","HOUSE_NO":"４５０號","E_COORD97":172690.5,"N_COORD97":2546063.71,"ADDRESS":"復國一路４５０號","OBJECTID":582665},"geometry":{"x":172690.50000000093,"y":2546063.7100000009}},{"attributes":{"ID":582693,"DIS_CODE":0,"TOWNNAME":"安平區","LI":"華平里","LIN":"16鄰","STREET":"國平路","SECT":" ","MAREA":" ","LANE":" ","ALLEY":" ","HOUSE_NO":"３４０號六樓之１","E_COORD97":165052.10999999999,"N_COORD97":2543707.8599999999,"ADDRESS":"國平路３４０號六樓之１","OBJECTID":582666},"geometry":{"x":165052.11000000127,"y":2543707.8599999994}},{"attributes":{"ID":582694,"DIS_CODE":0,"TOWNNAME":"永康區","LI":"勝利里","LIN":"18鄰","STREET":"勝學路","SECT":" ","MAREA":" ","LANE":" ","ALLEY":" ","HOUSE_NO":"１４６號","E_COORD97":171188.10000000001,"N_COORD97":2545021.75,"ADDRESS":"勝學路１４６號","OBJECTID":582667},"geometry":{"x":171188.10000000056,"y":2545021.75}},{"attributes":{"ID":582695,"DIS_CODE":0,"TOWNNAME":"永康區","LI":"復華里","LIN":"32鄰","STREET":"復華十街","SECT":" ","MAREA":" ","LANE":" ","ALLEY":" ","HOUSE_NO":"３３號","E_COORD97":172612.20000000001,"N_COORD97":2546323.7799999998,"ADDRESS":"復華十街３３號","OBJECTID":582668},"geometry":{"x":172612.20000000019,"y":2546323.7800000031}},{"attributes":{"ID":582696,"DIS_CODE":0,"TOWNNAME":"永康區","LI":"復國里","LIN":"26鄰","STREET":"復華三街","SECT":" ","MAREA":" ","LANE":" ","ALLEY":" ","HOUSE_NO":"７２號","E_COORD97":172694.25,"N_COORD97":2545562.7400000002,"ADDRESS":"復華三街７２號","OBJECTID":582669},"geometry":{"x":172694.25000000093,"y":2545562.7400000021}},{"attributes":{"ID":582697,"DIS_CODE":0,"TOWNNAME":"仁德區","LI":"太子里","LIN":"27鄰","STREET":"大吉路","SECT":" ","MAREA":" ","LANE":" ","ALLEY":" ","HOUSE_NO":"８７號","E_COORD97":173511.567889,"N_COORD97":2543268.7353500002,"ADDRESS":"大吉路８７號","OBJECTID":582670},"geometry":{"x":173511.56788900122,"y":2543268.7353520021}},{"attributes":{"ID":582698,"DIS_CODE":0,"TOWNNAME":"永康區","LI":"勝利里","LIN":"36鄰","STREET":"勝學路","SECT":" ","MAREA":" ","LANE":" ","ALLEY":" ","HOUSE_NO":"７８號","E_COORD97":171163.28,"N_COORD97":2544777.7599999998,"ADDRESS":"勝學路７８號","OBJECTID":582671},"geometry":{"x":171163.28000000119,"y":2544777.7599999998}},{"attributes":{"ID":582699,"DIS_CODE":0,"TOWNNAME":"永康區","LI":"復國里","LIN":"26鄰","STREET":"復華三街","SECT":" ","MAREA":" ","LANE":" ","ALLEY":" ","HOUSE_NO":"７０號","E_COORD97":172700.17999999999,"N_COORD97":2545562.2400000002,"ADDRESS":"復華三街７０號","OBJECTID":582672},"geometry":{"x":172700.1799999997,"y":2545562.2400000039}},{"attributes":{"ID":582700,"DIS_CODE":0,"TOWNNAME":"永康區","LI":"崑山里","LIN":"32鄰","STREET":"國光三街","SECT":" ","MAREA":" ","LANE":" ","ALLEY":" ","HOUSE_NO":"１１號","E_COORD97":174106.57999999999,"N_COORD97":2544863.96,"ADDRESS":"國光三街１１號","OBJECTID":582673},"geometry":{"x":174106.58000000007,"y":2544863.9600000028}},{"attributes":{"ID":582701,"DIS_CODE":0,"TOWNNAME":"永康區","LI":"勝利里","LIN":"36鄰","STREET":"勝學路","SECT":" ","MAREA":" ","LANE":" ","ALLEY":" ","HOUSE_NO":"１１０號","E_COORD97":171173.35999999999,"N_COORD97":2544859.7400000002,"ADDRESS":"勝學路１１０號","OBJECTID":582674},"geometry":{"x":171173.36000000127,"y":2544859.7400000002}},{"attributes":{"ID":582702,"DIS_CODE":0,"TOWNNAME":"永康區","LI":"勝利里","LIN":"18鄰","STREET":"勝學路","SECT":" ","MAREA":" ","LANE":" ","ALLEY":" ","HOUSE_NO":"１５６號","E_COORD97":171189.79999999999,"N_COORD97":2545039.25,"ADDRESS":"勝學路１５６號","OBJECTID":582675},"geometry":{"x":171189.80000000075,"y":2545039.25}},{"attributes":{"ID":582703,"DIS_CODE":0,"TOWNNAME":"永康區","LI":"勝利里","LIN":"27鄰","STREET":"勝利街","SECT":" ","MAREA":" ","LANE":" ","ALLEY":" ","HOUSE_NO":"７２號","E_COORD97":171352.23999999999,"N_COORD97":2544706.2200000002,"ADDRESS":"勝利街７２號","OBJECTID":582676},"geometry":{"x":171352.24000000115,"y":2544706.2200000025}},{"attributes":{"ID":582704,"DIS_CODE":0,"TOWNNAME":"安平區","LI":"建平里","LIN":"16鄰","STREET":"建平十二街","SECT":" ","MAREA":" ","LANE":" ","ALLEY":" ","HOUSE_NO":"９１號七樓","E_COORD97":166001.38,"N_COORD97":2543977.6699999999,"ADDRESS":"建平十二街９１號七樓","OBJECTID":582677},"geometry":{"x":166001.37999999989,"y":2543977.6699999999}},{"attributes":{"ID":582705,"DIS_CODE":0,"TOWNNAME":"安平區","LI":"建平里","LIN":"16鄰","STREET":"建平十二街","SECT":" ","MAREA":" ","LANE":" ","ALLEY":" ","HOUSE_NO":"９１號二樓之１","E_COORD97":166001.38,"N_COORD97":2543977.6699999999,"ADDRESS":"建平十二街９１號二樓之１","OBJECTID":582678},"geometry":{"x":166001.37999999989,"y":2543977.6699999999}},{"attributes":{"ID":582706,"DIS_CODE":0,"TOWNNAME":"安平區","LI":"建平里","LIN":"16鄰","STREET":"建平十二街","SECT":" ","MAREA":" ","LANE":" ","ALLEY":" ","HOUSE_NO":"９１號二樓之２","E_COORD97":166001.38,"N_COORD97":2543977.6699999999,"ADDRESS":"建平十二街９１號二樓之２","OBJECTID":582679},"geometry":{"x":166001.37999999989,"y":2543977.6699999999}},{"attributes":{"ID":582707,"DIS_CODE":0,"TOWNNAME":"安平區","LI":"建平里","LIN":"16鄰","STREET":"建平十二街","SECT":" ","MAREA":" ","LANE":" ","ALLEY":" ","HOUSE_NO":"９１號三樓之２","E_COORD97":166001.38,"N_COORD97":2543977.6699999999,"ADDRESS":"建平十二街９１號三樓之２","OBJECTID":582680},"geometry":{"x":166001.37999999989,"y":2543977.6699999999}},{"attributes":{"ID":582708,"DIS_CODE":0,"TOWNNAME":"安平區","LI":"建平里","LIN":"16鄰","STREET":"建平十二街","SECT":" ","MAREA":" ","LANE":" ","ALLEY":" ","HOUSE_NO":"９１號五樓之１","E_COORD97":166001.38,"N_COORD97":2543977.6699999999,"ADDRESS":"建平十二街９１號五樓之１","OBJECTID":582681},"geometry":{"x":166001.37999999989,"y":2543977.6699999999}},{"attributes":{"ID":582709,"DIS_CODE":0,"TOWNNAME":"安平區","LI":"建平里","LIN":"16鄰","STREET":"建平十二街","SECT":" ","MAREA":" ","LANE":" ","ALLEY":" ","HOUSE_NO":"９１號五樓之２","E_COORD97":166001.38,"N_COORD97":2543977.6699999999,"ADDRESS":"建平十二街９１號五樓之２","OBJECTID":582682},"geometry":{"x":166001.37999999989,"y":2543977.6699999999}},{"attributes":{"ID":582710,"DIS_CODE":0,"TOWNNAME":"安平區","LI":"建平里","LIN":"16鄰","STREET":"建平十二街","SECT":" ","MAREA":" ","LANE":" ","ALLEY":" ","HOUSE_NO":"９１號六樓之１","E_COORD97":166001.38,"N_COORD97":2543977.6699999999,"ADDRESS":"建平十二街９１號六樓之１","OBJECTID":582683},"geometry":{"x":166001.37999999989,"y":2543977.6699999999}},{"attributes":{"ID":582711,"DIS_CODE":0,"TOWNNAME":"安平區","LI":"建平里","LIN":"16鄰","STREET":"建平十二街","SECT":" ","MAREA":" ","LANE":" ","ALLEY":" ","HOUSE_NO":"９１號六樓之２","E_COORD97":166001.38,"N_COORD97":2543977.6699999999,"ADDRESS":"建平十二街９１號六樓之２","OBJECTID":582684},"geometry":{"x":166001.37999999989,"y":2543977.6699999999}},{"attributes":{"ID":582712,"DIS_CODE":0,"TOWNNAME":"安平區","LI":"建平里","LIN":"16鄰","STREET":"建平十二街","SECT":" ","MAREA":" ","LANE":" ","ALLEY":" ","HOUSE_NO":"９１號四樓之１","E_COORD97":166001.38,"N_COORD97":2543977.6699999999,"ADDRESS":"建平十二街９１號四樓之１","OBJECTID":582685},"geometry":{"x":166001.37999999989,"y":2543977.6699999999}},{"attributes":{"ID":582713,"DIS_CODE":0,"TOWNNAME":"安平區","LI":"建平里","LIN":"16鄰","STREET":"建平十二街","SECT":" ","MAREA":" ","LANE":" ","ALLEY":" ","HOUSE_NO":"９１號四樓之２","E_COORD97":166001.38,"N_COORD97":2543977.6699999999,"ADDRESS":"建平十二街９１號四樓之２","OBJECTID":582686},"geometry":{"x":166001.37999999989,"y":2543977.6699999999}},{"attributes":{"ID":582714,"DIS_CODE":0,"TOWNNAME":"歸仁區","LI":"許厝里","LIN":"16鄰","STREET":"中山路","SECT":"一段","MAREA":" ","LANE":" ","ALLEY":" ","HOUSE_NO":"３１２號四樓","E_COORD97":178446.60999999999,"N_COORD97":2540685.25,"ADDRESS":"中山路一段３１２號四樓","OBJECTID":582687},"geometry":{"x":178446.61000000034,"y":2540685.25}},{"attributes":{"ID":582715,"DIS_CODE":0,"TOWNNAME":"歸仁區","LI":"辜厝里","LIN":"16鄰","STREET":"大順街","SECT":" ","MAREA":" ","LANE":" ","ALLEY":" ","HOUSE_NO":"１號十四樓之１","E_COORD97":177458.10999999999,"N_COORD97":2540505.9500000002,"ADDRESS":"大順街１號十四樓之１","OBJECTID":582688},"geometry":{"x":177458.11000000034,"y":2540505.9500000011}},{"attributes":{"ID":582716,"DIS_CODE":0,"TOWNNAME":"歸仁區","LI":"辜厝里","LIN":"16鄰","STREET":"大順街","SECT":" ","MAREA":" ","LANE":" ","ALLEY":" ","HOUSE_NO":"１號九樓之１","E_COORD97":177457.85999999999,"N_COORD97":2540505.9500000002,"ADDRESS":"大順街１號九樓之１","OBJECTID":582689},"geometry":{"x":177457.86000000034,"y":2540505.9500000011}},{"attributes":{"ID":582717,"DIS_CODE":0,"TOWNNAME":"歸仁區","LI":"辜厝里","LIN":"16鄰","STREET":"大順街","SECT":" ","MAREA":" ","LANE":" ","ALLEY":" ","HOUSE_NO":"１號十二樓之１","E_COORD97":177458.10999999999,"N_COORD97":2540505.9500000002,"ADDRESS":"大順街１號十二樓之１","OBJECTID":582690},"geometry":{"x":177458.11000000034,"y":2540505.9500000011}},{"attributes":{"ID":582718,"DIS_CODE":0,"TOWNNAME":"歸仁區","LI":"辜厝里","LIN":"16鄰","STREET":"大順街","SECT":" ","MAREA":" ","LANE":" ","ALLEY":" ","HOUSE_NO":"１號五樓之１","E_COORD97":177457.85999999999,"N_COORD97":2540505.9500000002,"ADDRESS":"大順街１號五樓之１","OBJECTID":582691},"geometry":{"x":177457.86000000034,"y":2540505.9500000011}},{"attributes":{"ID":582719,"DIS_CODE":0,"TOWNNAME":"歸仁區","LI":"辜厝里","LIN":"16鄰","STREET":"大順街","SECT":" ","MAREA":" ","LANE":" ","ALLEY":" ","HOUSE_NO":"１號六樓","E_COORD97":177457.42999999999,"N_COORD97":2540505.9500000002,"ADDRESS":"大順街１號六樓","OBJECTID":582692},"geometry":{"x":177457.43000000156,"y":2540505.9500000011}},{"attributes":{"ID":582720,"DIS_CODE":0,"TOWNNAME":"歸仁區","LI":"許厝里","LIN":"16鄰","STREET":"中山路","SECT":"一段","MAREA":" ","LANE":" ","ALLEY":" ","HOUSE_NO":"３１２號七樓","E_COORD97":178446.60999999999,"N_COORD97":2540685.25,"ADDRESS":"中山路一段３１２號七樓","OBJECTID":582693},"geometry":{"x":178446.61000000034,"y":2540685.25}},{"attributes":{"ID":582721,"DIS_CODE":0,"TOWNNAME":"歸仁區","LI":"許厝里","LIN":"16鄰","STREET":"中山路","SECT":"一段","MAREA":" ","LANE":" ","ALLEY":" ","HOUSE_NO":"３１２號六樓","E_COORD97":178446.60999999999,"N_COORD97":2540685.25,"ADDRESS":"中山路一段３１２號六樓","OBJECTID":582694},"geometry":{"x":178446.61000000034,"y":2540685.25}},{"attributes":{"ID":582722,"DIS_CODE":0,"TOWNNAME":"歸仁區","LI":"辜厝里","LIN":"16鄰","STREET":"大順街","SECT":" ","MAREA":" ","LANE":" ","ALLEY":" ","HOUSE_NO":"１號十四樓","E_COORD97":177457.67999999999,"N_COORD97":2540505.9500000002,"ADDRESS":"大順街１號十四樓","OBJECTID":582695},"geometry":{"x":177457.68000000063,"y":2540505.9500000011}},{"attributes":{"ID":582723,"DIS_CODE":0,"TOWNNAME":"歸仁區","LI":"辜厝里","LIN":"16鄰","STREET":"大順街","SECT":" ","MAREA":" ","LANE":" ","ALLEY":" ","HOUSE_NO":"１號十四樓之２","E_COORD97":177458.13,"N_COORD97":2540505.9500000002,"ADDRESS":"大順街１號十四樓之２","OBJECTID":582696},"geometry":{"x":177458.13000000082,"y":2540505.9500000011}},{"attributes":{"ID":582724,"DIS_CODE":0,"TOWNNAME":"歸仁區","LI":"辜厝里","LIN":"16鄰","STREET":"大順街","SECT":" ","MAREA":" ","LANE":" ","ALLEY":" ","HOUSE_NO":"１號十一樓之１","E_COORD97":177458.10999999999,"N_COORD97":2540505.9500000002,"ADDRESS":"大順街１號十一樓之１","OBJECTID":582697},"geometry":{"x":177458.11000000034,"y":2540505.9500000011}},{"attributes":{"ID":582725,"DIS_CODE":0,"TOWNNAME":"歸仁區","LI":"辜厝里","LIN":"16鄰","STREET":"大順街","SECT":" ","MAREA":" ","LANE":" ","ALLEY":" ","HOUSE_NO":"１號九樓","E_COORD97":177457.42999999999,"N_COORD97":2540505.9500000002,"ADDRESS":"大順街１號九樓","OBJECTID":582698},"geometry":{"x":177457.43000000156,"y":2540505.9500000011}},{"attributes":{"ID":582726,"DIS_CODE":0,"TOWNNAME":"歸仁區","LI":"辜厝里","LIN":"16鄰","STREET":"大順街","SECT":" ","MAREA":" ","LANE":" ","ALLEY":" ","HOUSE_NO":"１號十一樓","E_COORD97":177457.67999999999,"N_COORD97":2540505.9500000002,"ADDRESS":"大順街１號十一樓","OBJECTID":582699},"geometry":{"x":177457.68000000063,"y":2540505.9500000011}},{"attributes":{"ID":582727,"DIS_CODE":0,"TOWNNAME":"歸仁區","LI":"辜厝里","LIN":"16鄰","STREET":"大順街","SECT":" ","MAREA":" ","LANE":" ","ALLEY":" ","HOUSE_NO":"１號六樓之２","E_COORD97":177457.88,"N_COORD97":2540505.9500000002,"ADDRESS":"大順街１號六樓之２","OBJECTID":582700},"geometry":{"x":177457.88000000175,"y":2540505.9500000011}},{"attributes":{"ID":582728,"DIS_CODE":0,"TOWNNAME":"歸仁區","LI":"辜厝里","LIN":"16鄰","STREET":"大順街","SECT":" ","MAREA":" ","LANE":" ","ALLEY":" ","HOUSE_NO":"１號十二樓","E_COORD97":177457.67999999999,"N_COORD97":2540505.9500000002,"ADDRESS":"大順街１號十二樓","OBJECTID":582701},"geometry":{"x":177457.68000000063,"y":2540505.9500000011}},{"attributes":{"ID":582729,"DIS_CODE":0,"TOWNNAME":"永康區","LI":"勝利里","LIN":"5鄰","STREET":"勝學路","SECT":" ","MAREA":" ","LANE":" ","ALLEY":" ","HOUSE_NO":"７５號","E_COORD97":171146.04000000001,"N_COORD97":2544769.5099999998,"ADDRESS":"勝學路７５號","OBJECTID":582702},"geometry":{"x":171146.04000000097,"y":2544769.5099999998}},{"attributes":{"ID":582730,"DIS_CODE":0,"TOWNNAME":"永康區","LI":"復國里","LIN":"24鄰","STREET":"復華三街","SECT":" ","MAREA":" ","LANE":" ","ALLEY":" ","HOUSE_NO":"８４號","E_COORD97":172631.57999999999,"N_COORD97":2545564.52,"ADDRESS":"復華三街８４號","OBJECTID":582703},"geometry":{"x":172631.58000000007,"y":2545564.5200000014}},{"attributes":{"ID":582731,"DIS_CODE":0,"TOWNNAME":"永康區","LI":"復國里","LIN":"17鄰","STREET":"國華街","SECT":" ","MAREA":" ","LANE":" ","ALLEY":" ","HOUSE_NO":"２４號","E_COORD97":172844.01000000001,"N_COORD97":2545628.0299999998,"ADDRESS":"國華街２４號","OBJECTID":582704},"geometry":{"x":172844.00999999978,"y":2545628.0300000012}},{"attributes":{"ID":582732,"DIS_CODE":0,"TOWNNAME":"永康區","LI":"復國里","LIN":"28鄰","STREET":"復華二街","SECT":" ","MAREA":" ","LANE":" ","ALLEY":" ","HOUSE_NO":"６號","E_COORD97":172695.42999999999,"N_COORD97":2545360.02,"ADDRESS":"復華二街６號","OBJECTID":582705},"geometry":{"x":172695.42999999877,"y":2545360.0200000014}},{"attributes":{"ID":582733,"DIS_CODE":0,"TOWNNAME":"仁德區","LI":"新田里","LIN":"16鄰","STREET":"民安路","SECT":"二段","MAREA":" ","LANE":" ","ALLEY":" ","HOUSE_NO":"４７號四樓之４","E_COORD97":173405.38,"N_COORD97":2539276.8199999998,"ADDRESS":"民安路二段４７號四樓之４","OBJECTID":582706},"geometry":{"x":173405.38000000082,"y":2539276.8200000022}},{"attributes":{"ID":582734,"DIS_CODE":0,"TOWNNAME":"永康區","LI":"勝利里","LIN":"18鄰","STREET":"勝學路","SECT":" ","MAREA":" ","LANE":" ","ALLEY":" ","HOUSE_NO":"１８８號","E_COORD97":171195.14000000001,"N_COORD97":2545098.5099999998,"ADDRESS":"勝學路１８８號","OBJECTID":582707},"geometry":{"x":171195.13999999966,"y":2545098.5099999979}},{"attributes":{"ID":582735,"DIS_CODE":0,"TOWNNAME":"永康區","LI":"勝利里","LIN":"40鄰","STREET":"中華一路","SECT":" ","MAREA":" ","LANE":" ","ALLEY":" ","HOUSE_NO":"１５８號","E_COORD97":171559.39999999999,"N_COORD97":2544974.5,"ADDRESS":"中華一路１５８號","OBJECTID":582708},"geometry":{"x":171559.4000000013,"y":2544974.5000000019}},{"attributes":{"ID":582736,"DIS_CODE":0,"TOWNNAME":"永康區","LI":"崑山里","LIN":"19鄰","STREET":"國光一街","SECT":" ","MAREA":" ","LANE":" ","ALLEY":" ","HOUSE_NO":"２３號","E_COORD97":173956.5,"N_COORD97":2544590.6400000001,"ADDRESS":"國光一街２３號","OBJECTID":582709},"geometry":{"x":173956.49999999907,"y":2544590.6400000025}},{"attributes":{"ID":582737,"DIS_CODE":0,"TOWNNAME":"南區","LI":"再興里","LIN":"16鄰","STREET":"金華路","SECT":"二段","MAREA":" ","LANE":" ","ALLEY":" ","HOUSE_NO":"７８號二樓之１","E_COORD97":167089.20999999999,"N_COORD97":2542041.8100000001,"ADDRESS":"金華路二段７８號二樓之１","OBJECTID":582710},"geometry":{"x":167089.20999999996,"y":2542041.8100000005}},{"attributes":{"ID":582738,"DIS_CODE":0,"TOWNNAME":"南區","LI":"再興里","LIN":"16鄰","STREET":"金華路","SECT":"二段","MAREA":" ","LANE":" ","ALLEY":" ","HOUSE_NO":"７８號二樓之２","E_COORD97":167089.20999999999,"N_COORD97":2542041.8100000001,"ADDRESS":"金華路二段７８號二樓之２","OBJECTID":582711},"geometry":{"x":167089.20999999996,"y":2542041.8100000005}},{"attributes":{"ID":582739,"DIS_CODE":0,"TOWNNAME":"南區","LI":"再興里","LIN":"16鄰","STREET":"金華路","SECT":"二段","MAREA":" ","LANE":" ","ALLEY":" ","HOUSE_NO":"７８號三樓之１","E_COORD97":167089.20999999999,"N_COORD97":2542041.8100000001,"ADDRESS":"金華路二段７８號三樓之１","OBJECTID":582712},"geometry":{"x":167089.20999999996,"y":2542041.8100000005}},{"attributes":{"ID":582740,"DIS_CODE":0,"TOWNNAME":"南區","LI":"再興里","LIN":"16鄰","STREET":"金華路","SECT":"二段","MAREA":" ","LANE":" ","ALLEY":" ","HOUSE_NO":"７８號三樓之２","E_COORD97":167089.20999999999,"N_COORD97":2542041.8100000001,"ADDRESS":"金華路二段７８號三樓之２","OBJECTID":582713},"geometry":{"x":167089.20999999996,"y":2542041.8100000005}},{"attributes":{"ID":582741,"DIS_CODE":0,"TOWNNAME":"南區","LI":"再興里","LIN":"16鄰","STREET":"金華路","SECT":"二段","MAREA":" ","LANE":" ","ALLEY":" ","HOUSE_NO":"７８號四樓之１","E_COORD97":167089.20999999999,"N_COORD97":2542041.8100000001,"ADDRESS":"金華路二段７８號四樓之１","OBJECTID":582714},"geometry":{"x":167089.20999999996,"y":2542041.8100000005}},{"attributes":{"ID":582742,"DIS_CODE":0,"TOWNNAME":"南區","LI":"再興里","LIN":"16鄰","STREET":"金華路","SECT":"二段","MAREA":" ","LANE":" ","ALLEY":" ","HOUSE_NO":"７８號四樓之２","E_COORD97":167089.20999999999,"N_COORD97":2542041.8100000001,"ADDRESS":"金華路二段７８號四樓之２","OBJECTID":582715},"geometry":{"x":167089.20999999996,"y":2542041.8100000005}},{"attributes":{"ID":582743,"DIS_CODE":0,"TOWNNAME":"南區","LI":"再興里","LIN":"16鄰","STREET":"金華路","SECT":"二段","MAREA":" ","LANE":" ","ALLEY":" ","HOUSE_NO":"７８號五樓之１","E_COORD97":167089.20999999999,"N_COORD97":2542041.8100000001,"ADDRESS":"金華路二段７８號五樓之１","OBJECTID":582716},"geometry":{"x":167089.20999999996,"y":2542041.8100000005}},{"attributes":{"ID":582744,"DIS_CODE":0,"TOWNNAME":"南區","LI":"再興里","LIN":"16鄰","STREET":"金華路","SECT":"二段","MAREA":" ","LANE":" ","ALLEY":" ","HOUSE_NO":"７８號五樓之２","E_COORD97":167089.20999999999,"N_COORD97":2542041.8100000001,"ADDRESS":"金華路二段７８號五樓之２","OBJECTID":582717},"geometry":{"x":167089.20999999996,"y":2542041.8100000005}},{"attributes":{"ID":582745,"DIS_CODE":0,"TOWNNAME":"南區","LI":"再興里","LIN":"16鄰","STREET":"金華路","SECT":"二段","MAREA":" ","LANE":" ","ALLEY":" ","HOUSE_NO":"７８號六樓之１","E_COORD97":167089.20999999999,"N_COORD97":2542041.8100000001,"ADDRESS":"金華路二段７８號六樓之１","OBJECTID":582718},"geometry":{"x":167089.20999999996,"y":2542041.8100000005}},{"attributes":{"ID":582746,"DIS_CODE":0,"TOWNNAME":"南區","LI":"再興里","LIN":"16鄰","STREET":"金華路","SECT":"二段","MAREA":" ","LANE":" ","ALLEY":" ","HOUSE_NO":"７８號六樓之２","E_COORD97":167089.20999999999,"N_COORD97":2542041.8100000001,"ADDRESS":"金華路二段７８號六樓之２","OBJECTID":582719},"geometry":{"x":167089.20999999996,"y":2542041.8100000005}},{"attributes":{"ID":582747,"DIS_CODE":0,"TOWNNAME":"南區","LI":"再興里","LIN":"16鄰","STREET":"金華路","SECT":"二段","MAREA":" ","LANE":" ","ALLEY":" ","HOUSE_NO":"７８號七樓之１","E_COORD97":167089.20999999999,"N_COORD97":2542041.8100000001,"ADDRESS":"金華路二段７８號七樓之１","OBJECTID":582720},"geometry":{"x":167089.20999999996,"y":2542041.8100000005}},{"attributes":{"ID":582748,"DIS_CODE":0,"TOWNNAME":"南區","LI":"再興里","LIN":"16鄰","STREET":"金華路","SECT":"二段","MAREA":" ","LANE":" ","ALLEY":" ","HOUSE_NO":"７８號七樓之２","E_COORD97":167089.20999999999,"N_COORD97":2542041.8100000001,"ADDRESS":"金華路二段７８號七樓之２","OBJECTID":582721},"geometry":{"x":167089.20999999996,"y":2542041.8100000005}},{"attributes":{"ID":582749,"DIS_CODE":0,"TOWNNAME":"東區","LI":"南聖里","LIN":"16鄰","STREET":"裕和五街","SECT":" ","MAREA":" ","LANE":" ","ALLEY":" ","HOUSE_NO":"３１號二樓","E_COORD97":172829.23000000001,"N_COORD97":2543269.2400000002,"ADDRESS":"裕和五街３１號二樓","OBJECTID":582722},"geometry":{"x":172829.23000000045,"y":2543269.2400000002}},{"attributes":{"ID":582750,"DIS_CODE":0,"TOWNNAME":"東區","LI":"南聖里","LIN":"16鄰","STREET":"裕和五街","SECT":" ","MAREA":" ","LANE":" ","ALLEY":" ","HOUSE_NO":"３１號三樓","E_COORD97":172829.23000000001,"N_COORD97":2543269.2400000002,"ADDRESS":"裕和五街３１號三樓","OBJECTID":582723},"geometry":{"x":172829.23000000045,"y":2543269.2400000002}},{"attributes":{"ID":582751,"DIS_CODE":0,"TOWNNAME":"東區","LI":"南聖里","LIN":"16鄰","STREET":"裕和五街","SECT":" ","MAREA":" ","LANE":" ","ALLEY":" ","HOUSE_NO":"３１號四樓","E_COORD97":172829.23000000001,"N_COORD97":2543269.2400000002,"ADDRESS":"裕和五街３１號四樓","OBJECTID":582724},"geometry":{"x":172829.23000000045,"y":2543269.2400000002}},{"attributes":{"ID":582752,"DIS_CODE":0,"TOWNNAME":"仁德區","LI":"新田里","LIN":"16鄰","STREET":"民安路","SECT":"二段","MAREA":" ","LANE":" ","ALLEY":" ","HOUSE_NO":"４７號四樓之２","E_COORD97":173405.48999999999,"N_COORD97":2539276.8199999998,"ADDRESS":"民安路二段４７號四樓之２","OBJECTID":582725},"geometry":{"x":173405.49000000022,"y":2539276.8200000022}},{"attributes":{"ID":582753,"DIS_CODE":0,"TOWNNAME":"仁德區","LI":"新田里","LIN":"16鄰","STREET":"民安路","SECT":"二段","MAREA":" ","LANE":" ","ALLEY":" ","HOUSE_NO":"４７號五樓之４","E_COORD97":173405.38,"N_COORD97":2539276.8199999998,"ADDRESS":"民安路二段４７號五樓之４","OBJECTID":582726},"geometry":{"x":173405.38000000082,"y":2539276.8200000022}},{"attributes":{"ID":582754,"DIS_CODE":0,"TOWNNAME":"仁德區","LI":"新田里","LIN":"16鄰","STREET":"民安路","SECT":"二段","MAREA":" ","LANE":" ","ALLEY":" ","HOUSE_NO":"４３號四樓之１","E_COORD97":173405.95999999999,"N_COORD97":2539262.8199999998,"ADDRESS":"民安路二段４３號四樓之１","OBJECTID":582727},"geometry":{"x":173405.96000000183,"y":2539262.8200000022}},{"attributes":{"ID":582755,"DIS_CODE":0,"TOWNNAME":"仁德區","LI":"新田里","LIN":"16鄰","STREET":"民安路","SECT":"二段","MAREA":" ","LANE":" ","ALLEY":" ","HOUSE_NO":"４５號五樓之２","E_COORD97":173414.53,"N_COORD97":2539275.5699999998,"ADDRESS":"民安路二段４５號五樓之２","OBJECTID":582728},"geometry":{"x":173414.53000000119,"y":2539275.5700000022}},{"attributes":{"ID":582756,"DIS_CODE":0,"TOWNNAME":"仁德區","LI":"新田里","LIN":"16鄰","STREET":"民安路","SECT":"二段","MAREA":" ","LANE":" ","ALLEY":" ","HOUSE_NO":"４５號二樓之１","E_COORD97":173414.39000000001,"N_COORD97":2539275.5699999998,"ADDRESS":"民安路二段４５號二樓之１","OBJECTID":582729},"geometry":{"x":173414.38999999966,"y":2539275.5700000022}},{"attributes":{"ID":582757,"DIS_CODE":0,"TOWNNAME":"仁德區","LI":"仁德里","LIN":"16鄰","STREET":"中山路","SECT":" ","MAREA":" ","LANE":" ","ALLEY":" ","HOUSE_NO":"７９７號二樓","E_COORD97":172585.32999999999,"N_COORD97":2541485.5,"ADDRESS":"中山路７９７號二樓","OBJECTID":582730},"geometry":{"x":172585.33000000101,"y":2541485.5000000019}},{"attributes":{"ID":582758,"DIS_CODE":0,"TOWNNAME":"仁德區","LI":"新田里","LIN":"16鄰","STREET":"民安路","SECT":"二段","MAREA":" ","LANE":" ","ALLEY":" ","HOUSE_NO":"４５號六樓之１","E_COORD97":173414.39000000001,"N_COORD97":2539275.5699999998,"ADDRESS":"民安路二段４５號六樓之１","OBJECTID":582731},"geometry":{"x":173414.38999999966,"y":2539275.5700000022}},{"attributes":{"ID":582759,"DIS_CODE":0,"TOWNNAME":"仁德區","LI":"新田里","LIN":"16鄰","STREET":"民安路","SECT":"二段","MAREA":" ","LANE":" ","ALLEY":" ","HOUSE_NO":"４３號一樓之２","E_COORD97":173406.10000000001,"N_COORD97":2539262.8199999998,"ADDRESS":"民安路二段４３號一樓之２","OBJECTID":582732},"geometry":{"x":173406.09999999963,"y":2539262.8200000022}},{"attributes":{"ID":582760,"DIS_CODE":0,"TOWNNAME":"仁德區","LI":"新田里","LIN":"16鄰","STREET":"民安路","SECT":"二段","MAREA":" ","LANE":" ","ALLEY":" ","HOUSE_NO":"４７號四樓之１","E_COORD97":173405.35000000001,"N_COORD97":2539276.8199999998,"ADDRESS":"民安路二段４７號四樓之１","OBJECTID":582733},"geometry":{"x":173405.35000000056,"y":2539276.8200000022}},{"attributes":{"ID":582761,"DIS_CODE":0,"TOWNNAME":"仁德區","LI":"新田里","LIN":"16鄰","STREET":"民安路","SECT":"二段","MAREA":" ","LANE":" ","ALLEY":" ","HOUSE_NO":"４７號三樓之４","E_COORD97":173405.38,"N_COORD97":2539276.8199999998,"ADDRESS":"民安路二段４７號三樓之４","OBJECTID":582734},"geometry":{"x":173405.38000000082,"y":2539276.8200000022}},{"attributes":{"ID":582762,"DIS_CODE":0,"TOWNNAME":"仁德區","LI":"新田里","LIN":"16鄰","STREET":"民安路","SECT":"二段","MAREA":" ","LANE":" ","ALLEY":" ","HOUSE_NO":"４９號一樓之１","E_COORD97":173419.42999999999,"N_COORD97":2539291.3199999998,"ADDRESS":"民安路二段４９號一樓之１","OBJECTID":582735},"geometry":{"x":173419.43000000156,"y":2539291.3200000003}},{"attributes":{"ID":582763,"DIS_CODE":0,"TOWNNAME":"仁德區","LI":"新田里","LIN":"16鄰","STREET":"民安路","SECT":"二段","MAREA":" ","LANE":" ","ALLEY":" ","HOUSE_NO":"４７號四樓之３","E_COORD97":173405.45000000001,"N_COORD97":2539276.8199999998,"ADDRESS":"民安路二段４７號四樓之３","OBJECTID":582736},"geometry":{"x":173405.45000000019,"y":2539276.8200000022}},{"attributes":{"ID":582764,"DIS_CODE":0,"TOWNNAME":"仁德區","LI":"新田里","LIN":"16鄰","STREET":"民安路","SECT":"二段","MAREA":" ","LANE":" ","ALLEY":" ","HOUSE_NO":"４９號三樓之２","E_COORD97":173419.57000000001,"N_COORD97":2539291.3199999998,"ADDRESS":"民安路二段４９號三樓之２","OBJECTID":582737},"geometry":{"x":173419.57000000123,"y":2539291.3200000003}},{"attributes":{"ID":582765,"DIS_CODE":0,"TOWNNAME":"仁德區","LI":"新田里","LIN":"16鄰","STREET":"民安路","SECT":"二段","MAREA":" ","LANE":" ","ALLEY":" ","HOUSE_NO":"４７號二樓之３","E_COORD97":173405.45000000001,"N_COORD97":2539276.8199999998,"ADDRESS":"民安路二段４７號二樓之３","OBJECTID":582738},"geometry":{"x":173405.45000000019,"y":2539276.8200000022}},{"attributes":{"ID":582766,"DIS_CODE":0,"TOWNNAME":"仁德區","LI":"新田里","LIN":"16鄰","STREET":"民安路","SECT":"二段","MAREA":" ","LANE":" ","ALLEY":" ","HOUSE_NO":"４３號五樓之３","E_COORD97":173406.06,"N_COORD97":2539262.8199999998,"ADDRESS":"民安路二段４３號五樓之３","OBJECTID":582739},"geometry":{"x":173406.05999999959,"y":2539262.8200000022}},{"attributes":{"ID":582767,"DIS_CODE":0,"TOWNNAME":"永康區","LI":"龍潭里","LIN":"16鄰","STREET":"龍橋街","SECT":" ","MAREA":" ","LANE":" ","ALLEY":" ","HOUSE_NO":"２９號","E_COORD97":174833.70000000001,"N_COORD97":2548347.7000000002,"ADDRESS":"龍橋街２９號","OBJECTID":582740},"geometry":{"x":174833.70000000112,"y":2548347.6999999993}},{"attributes":{"ID":582768,"DIS_CODE":0,"TOWNNAME":"永康區","LI":"勝利里","LIN":"6鄰","STREET":"勝學路","SECT":" ","MAREA":" ","LANE":" ","ALLEY":" ","HOUSE_NO":"４８號","E_COORD97":171153.07000000001,"N_COORD97":2544666.2599999998,"ADDRESS":"勝學路４８號","OBJECTID":582741},"geometry":{"x":171153.07000000123,"y":2544666.2599999979}},{"attributes":{"ID":582769,"DIS_CODE":0,"TOWNNAME":"永康區","LI":"復國里","LIN":"9鄰","STREET":"復國二路","SECT":" ","MAREA":" ","LANE":" ","ALLEY":" ","HOUSE_NO":"７７號","E_COORD97":172837.84,"N_COORD97":2545264.8500000001,"ADDRESS":"復國二路７７號","OBJECTID":582742},"geometry":{"x":172837.84000000078,"y":2545264.8499999996}},{"attributes":{"ID":582770,"DIS_CODE":0,"TOWNNAME":"中西區","LI":"福安里","LIN":"16鄰","STREET":"永福路","SECT":"二段","MAREA":" ","LANE":" ","ALLEY":" ","HOUSE_NO":"６５號二樓","E_COORD97":168037.26000000001,"N_COORD97":2543608.4900000002,"ADDRESS":"永福路二段６５號二樓","OBJECTID":582743},"geometry":{"x":168037.26000000071,"y":2543608.4900000021}},{"attributes":{"ID":582771,"DIS_CODE":0,"TOWNNAME":"中西區","LI":"福安里","LIN":"16鄰","STREET":"永福路","SECT":"二段","MAREA":" ","LANE":" ","ALLEY":" ","HOUSE_NO":"６５號三樓","E_COORD97":168037.26000000001,"N_COORD97":2543608.4900000002,"ADDRESS":"永福路二段６５號三樓","OBJECTID":582744},"geometry":{"x":168037.26000000071,"y":2543608.4900000021}},{"attributes":{"ID":582772,"DIS_CODE":0,"TOWNNAME":"中西區","LI":"福安里","LIN":"16鄰","STREET":"永福路","SECT":"二段","MAREA":" ","LANE":" ","ALLEY":" ","HOUSE_NO":"６５號四樓","E_COORD97":168037.26000000001,"N_COORD97":2543608.4900000002,"ADDRESS":"永福路二段６５號四樓","OBJECTID":582745},"geometry":{"x":168037.26000000071,"y":2543608.4900000021}},{"attributes":{"ID":582773,"DIS_CODE":0,"TOWNNAME":"東區","LI":"崇明里","LIN":"16鄰","STREET":"崇明路","SECT":" ","MAREA":" ","LANE":" ","ALLEY":" ","HOUSE_NO":"１０５２號四樓","E_COORD97":170586.95999999999,"N_COORD97":2540813.6800000002,"ADDRESS":"崇明路１０５２號四樓","OBJECTID":582746},"geometry":{"x":170586.96000000089,"y":2540813.6800000016}},{"attributes":{"ID":582774,"DIS_CODE":0,"TOWNNAME":"東區","LI":"崇明里","LIN":"16鄰","STREET":"崇明路","SECT":" ","MAREA":" ","LANE":" ","ALLEY":" ","HOUSE_NO":"１０５２號五樓","E_COORD97":170586.95999999999,"N_COORD97":2540813.6800000002,"ADDRESS":"崇明路１０５２號五樓","OBJECTID":582747},"geometry":{"x":170586.96000000089,"y":2540813.6800000016}},{"attributes":{"ID":582775,"DIS_CODE":0,"TOWNNAME":"東區","LI":"崇明里","LIN":"16鄰","STREET":"崇明路","SECT":" ","MAREA":" ","LANE":" ","ALLEY":" ","HOUSE_NO":"１０５２號三樓","E_COORD97":170586.95999999999,"N_COORD97":2540813.6800000002,"ADDRESS":"崇明路１０５２號三樓","OBJECTID":582748},"geometry":{"x":170586.96000000089,"y":2540813.6800000016}},{"attributes":{"ID":582776,"DIS_CODE":0,"TOWNNAME":"東區","LI":"崇明里","LIN":"16鄰","STREET":"崇明路","SECT":" ","MAREA":" ","LANE":" ","ALLEY":" ","HOUSE_NO":"１０５２號二樓","E_COORD97":170586.95999999999,"N_COORD97":2540813.6800000002,"ADDRESS":"崇明路１０５２號二樓","OBJECTID":582749},"geometry":{"x":170586.96000000089,"y":2540813.6800000016}},{"attributes":{"ID":582777,"DIS_CODE":0,"TOWNNAME":"永康區","LI":"\u25A0行里","LIN":"16鄰","STREET":"中正六街","SECT":" ","MAREA":" ","LANE":" ","ALLEY":" ","HOUSE_NO":"２０２號六樓","E_COORD97":171872.60000000001,"N_COORD97":2548835.8799999999,"ADDRESS":"中正六街２０２號六樓","OBJECTID":582750},"geometry":{"x":171872.60000000056,"y":2548835.8800000008}},{"attributes":{"ID":582778,"DIS_CODE":0,"TOWNNAME":"永康區","LI":"\u25A0行里","LIN":"16鄰","STREET":"中正六街","SECT":" ","MAREA":" ","LANE":" ","ALLEY":" ","HOUSE_NO":"２０２號五樓","E_COORD97":171872.60000000001,"N_COORD97":2548835.8799999999,"ADDRESS":"中正六街２０２號五樓","OBJECTID":582751},"geometry":{"x":171872.60000000056,"y":2548835.8800000008}},{"attributes":{"ID":582779,"DIS_CODE":0,"TOWNNAME":"永康區","LI":"\u25A0行里","LIN":"16鄰","STREET":"中正六街","SECT":" ","MAREA":" ","LANE":" ","ALLEY":" ","HOUSE_NO":"２０２號四樓","E_COORD97":171872.60000000001,"N_COORD97":2548835.8799999999,"ADDRESS":"中正六街２０２號四樓","OBJECTID":582752},"geometry":{"x":171872.60000000056,"y":2548835.8800000008}},{"attributes":{"ID":582780,"DIS_CODE":0,"TOWNNAME":"永康區","LI":"\u25A0行里","LIN":"16鄰","STREET":"中正六街","SECT":" ","MAREA":" ","LANE":" ","ALLEY":" ","HOUSE_NO":"２１８號五樓","E_COORD97":171890.57999999999,"N_COORD97":2548856.8700000001,"ADDRESS":"中正六街２１８號五樓","OBJECTID":582753},"geometry":{"x":171890.58000000007,"y":2548856.870000001}},{"attributes":{"ID":582781,"DIS_CODE":0,"TOWNNAME":"永康區","LI":"\u25A0行里","LIN":"16鄰","STREET":"中正六街","SECT":" ","MAREA":" ","LANE":" ","ALLEY":" ","HOUSE_NO":"２１８號六樓","E_COORD97":171890.57999999999,"N_COORD97":2548856.8700000001,"ADDRESS":"中正六街２１８號六樓","OBJECTID":582754},"geometry":{"x":171890.58000000007,"y":2548856.870000001}},{"attributes":{"ID":582782,"DIS_CODE":0,"TOWNNAME":"永康區","LI":"\u25A0行里","LIN":"16鄰","STREET":"中正六街","SECT":" ","MAREA":" ","LANE":" ","ALLEY":" ","HOUSE_NO":"２１０號五樓","E_COORD97":171882.23999999999,"N_COORD97":2548846.8700000001,"ADDRESS":"中正六街２１０號五樓","OBJECTID":582755},"geometry":{"x":171882.24000000115,"y":2548846.870000001}},{"attributes":{"ID":582783,"DIS_CODE":0,"TOWNNAME":"永康區","LI":"\u25A0行里","LIN":"16鄰","STREET":"中正六街","SECT":" ","MAREA":" ","LANE":" ","ALLEY":" ","HOUSE_NO":"２１６號七樓","E_COORD97":171887.69,"N_COORD97":2548853.3700000001,"ADDRESS":"中正六街２１６號七樓","OBJECTID":582756},"geometry":{"x":171887.69000000227,"y":2548853.370000001}},{"attributes":{"ID":582784,"DIS_CODE":0,"TOWNNAME":"永康區","LI":"\u25A0行里","LIN":"16鄰","STREET":"中正六街","SECT":" ","MAREA":" ","LANE":" ","ALLEY":" ","HOUSE_NO":"２１０號七樓","E_COORD97":171882.23999999999,"N_COORD97":2548846.8700000001,"ADDRESS":"中正六街２１０號七樓","OBJECTID":582757},"geometry":{"x":171882.24000000115,"y":2548846.870000001}},{"attributes":{"ID":582785,"DIS_CODE":0,"TOWNNAME":"東區","LI":"泉南里","LIN":"16鄰","STREET":"樹林街","SECT":"一段","MAREA":" ","LANE":" ","ALLEY":" ","HOUSE_NO":"１９號","E_COORD97":169667.54999999999,"N_COORD97":2542900.9700000002,"ADDRESS":"樹林街一段１９號","OBJECTID":582758},"geometry":{"x":169667.55000000075,"y":2542900.9700000025}},{"attributes":{"ID":582786,"DIS_CODE":0,"TOWNNAME":"永康區","LI":"\u25A0行里","LIN":"16鄰","STREET":"中正六街","SECT":" ","MAREA":" ","LANE":" ","ALLEY":" ","HOUSE_NO":"２１８號七樓","E_COORD97":171890.57999999999,"N_COORD97":2548856.8700000001,"ADDRESS":"中正六街２１８號七樓","OBJECTID":582759},"geometry":{"x":171890.58000000007,"y":2548856.870000001}},{"attributes":{"ID":582787,"DIS_CODE":0,"TOWNNAME":"永康區","LI":"\u25A0行里","LIN":"16鄰","STREET":"中正六街","SECT":" ","MAREA":" ","LANE":" ","ALLEY":" ","HOUSE_NO":"２１６號六樓","E_COORD97":171887.69,"N_COORD97":2548853.3700000001,"ADDRESS":"中正六街２１６號六樓","OBJECTID":582760},"geometry":{"x":171887.69000000227,"y":2548853.370000001}},{"attributes":{"ID":582788,"DIS_CODE":0,"TOWNNAME":"永康區","LI":"\u25A0行里","LIN":"16鄰","STREET":"中正六街","SECT":" ","MAREA":" ","LANE":" ","ALLEY":" ","HOUSE_NO":"２１６號三樓","E_COORD97":171887.69,"N_COORD97":2548853.3700000001,"ADDRESS":"中正六街２１６號三樓","OBJECTID":582761},"geometry":{"x":171887.69000000227,"y":2548853.370000001}},{"attributes":{"ID":582789,"DIS_CODE":0,"TOWNNAME":"永康區","LI":"\u25A0行里","LIN":"16鄰","STREET":"中正六街","SECT":" ","MAREA":" ","LANE":" ","ALLEY":" ","HOUSE_NO":"２１０號四樓","E_COORD97":171882.23999999999,"N_COORD97":2548846.8700000001,"ADDRESS":"中正六街２１０號四樓","OBJECTID":582762},"geometry":{"x":171882.24000000115,"y":2548846.870000001}},{"attributes":{"ID":582790,"DIS_CODE":0,"TOWNNAME":"永康區","LI":"\u25A0行里","LIN":"16鄰","STREET":"中正六街","SECT":" ","MAREA":" ","LANE":" ","ALLEY":" ","HOUSE_NO":"２０２號三樓","E_COORD97":171872.60000000001,"N_COORD97":2548835.8799999999,"ADDRESS":"中正六街２０２號三樓","OBJECTID":582763},"geometry":{"x":171872.60000000056,"y":2548835.8800000008}},{"attributes":{"ID":582791,"DIS_CODE":0,"TOWNNAME":"中西區","LI":"仙草里","LIN":"16鄰","STREET":"永福路","SECT":"一段","MAREA":" ","LANE":" ","ALLEY":" ","HOUSE_NO":"２９號二樓之１","E_COORD97":167962.41,"N_COORD97":2542520.1299999999,"ADDRESS":"永福路一段２９號二樓之１","OBJECTID":582764},"geometry":{"x":167962.41000000015,"y":2542520.1299999971}},{"attributes":{"ID":582792,"DIS_CODE":0,"TOWNNAME":"中西區","LI":"仙草里","LIN":"16鄰","STREET":"永福路","SECT":"一段","MAREA":" ","LANE":" ","ALLEY":" ","HOUSE_NO":"２９號二樓之２","E_COORD97":167962.41,"N_COORD97":2542520.1299999999,"ADDRESS":"永福路一段２９號二樓之２","OBJECTID":582765},"geometry":{"x":167962.41000000015,"y":2542520.1299999971}},{"attributes":{"ID":582793,"DIS_CODE":0,"TOWNNAME":"中西區","LI":"仙草里","LIN":"16鄰","STREET":"永福路","SECT":"一段","MAREA":" ","LANE":" ","ALLEY":" ","HOUSE_NO":"２９號二樓之３","E_COORD97":167962.41,"N_COORD97":2542520.1299999999,"ADDRESS":"永福路一段２９號二樓之３","OBJECTID":582766},"geometry":{"x":167962.41000000015,"y":2542520.1299999971}},{"attributes":{"ID":582794,"DIS_CODE":0,"TOWNNAME":"中西區","LI":"仙草里","LIN":"16鄰","STREET":"永福路","SECT":"一段","MAREA":" ","LANE":" ","ALLEY":" ","HOUSE_NO":"２９號二樓之４","E_COORD97":167962.41,"N_COORD97":2542520.1299999999,"ADDRESS":"永福路一段２９號二樓之４","OBJECTID":582767},"geometry":{"x":167962.41000000015,"y":2542520.1299999971}},{"attributes":{"ID":582795,"DIS_CODE":0,"TOWNNAME":"中西區","LI":"仙草里","LIN":"16鄰","STREET":"永福路","SECT":"一段","MAREA":" ","LANE":" ","ALLEY":" ","HOUSE_NO":"２９號二樓之５","E_COORD97":167962.41,"N_COORD97":2542520.1299999999,"ADDRESS":"永福路一段２９號二樓之５","OBJECTID":582768},"geometry":{"x":167962.41000000015,"y":2542520.1299999971}},{"attributes":{"ID":582796,"DIS_CODE":0,"TOWNNAME":"中西區","LI":"仙草里","LIN":"16鄰","STREET":"永福路","SECT":"一段","MAREA":" ","LANE":" ","ALLEY":" ","HOUSE_NO":"２９號二樓之６","E_COORD97":167962.41,"N_COORD97":2542520.1299999999,"ADDRESS":"永福路一段２９號二樓之６","OBJECTID":582769},"geometry":{"x":167962.41000000015,"y":2542520.1299999971}},{"attributes":{"ID":582797,"DIS_CODE":0,"TOWNNAME":"中西區","LI":"仙草里","LIN":"16鄰","STREET":"永福路","SECT":"一段","MAREA":" ","LANE":" ","ALLEY":" ","HOUSE_NO":"２９號二樓之７","E_COORD97":167962.41,"N_COORD97":2542520.1299999999,"ADDRESS":"永福路一段２９號二樓之７","OBJECTID":582770},"geometry":{"x":167962.41000000015,"y":2542520.1299999971}},{"attributes":{"ID":582798,"DIS_CODE":0,"TOWNNAME":"中西區","LI":"仙草里","LIN":"16鄰","STREET":"永福路","SECT":"一段","MAREA":" ","LANE":" ","ALLEY":" ","HOUSE_NO":"２９號三樓之１","E_COORD97":167962.41,"N_COORD97":2542520.1299999999,"ADDRESS":"永福路一段２９號三樓之１","OBJECTID":582771},"geometry":{"x":167962.41000000015,"y":2542520.1299999971}},{"attributes":{"ID":582799,"DIS_CODE":0,"TOWNNAME":"中西區","LI":"仙草里","LIN":"16鄰","STREET":"永福路","SECT":"一段","MAREA":" ","LANE":" ","ALLEY":" ","HOUSE_NO":"２９號三樓之２","E_COORD97":167962.41,"N_COORD97":2542520.1299999999,"ADDRESS":"永福路一段２９號三樓之２","OBJECTID":582772},"geometry":{"x":167962.41000000015,"y":2542520.1299999971}},{"attributes":{"ID":582800,"DIS_CODE":0,"TOWNNAME":"中西區","LI":"仙草里","LIN":"16鄰","STREET":"永福路","SECT":"一段","MAREA":" ","LANE":" ","ALLEY":" ","HOUSE_NO":"２９號三樓之３","E_COORD97":167962.41,"N_COORD97":2542520.1299999999,"ADDRESS":"永福路一段２９號三樓之３","OBJECTID":582773},"geometry":{"x":167962.41000000015,"y":2542520.1299999971}},{"attributes":{"ID":582801,"DIS_CODE":0,"TOWNNAME":"中西區","LI":"仙草里","LIN":"16鄰","STREET":"永福路","SECT":"一段","MAREA":" ","LANE":" ","ALLEY":" ","HOUSE_NO":"２９號三樓之４","E_COORD97":167962.41,"N_COORD97":2542520.1299999999,"ADDRESS":"永福路一段２９號三樓之４","OBJECTID":582774},"geometry":{"x":167962.41000000015,"y":2542520.1299999971}},{"attributes":{"ID":582802,"DIS_CODE":0,"TOWNNAME":"永康區","LI":"復國里","LIN":"4鄰","STREET":"復國二路","SECT":" ","MAREA":" ","LANE":" ","ALLEY":" ","HOUSE_NO":"１７號","E_COORD97":172826.04999999999,"N_COORD97":2544897.6699999999,"ADDRESS":"復國二路１７號","OBJECTID":582775},"geometry":{"x":172826.05000000075,"y":2544897.6700000037}},{"attributes":{"ID":582803,"DIS_CODE":0,"TOWNNAME":"永康區","LI":"崑山里","LIN":"39鄰","STREET":"國光三街","SECT":" ","MAREA":" ","LANE":" ","ALLEY":" ","HOUSE_NO":"１２號","E_COORD97":174129.94,"N_COORD97":2544879.9700000002,"ADDRESS":"國光三街１２號","OBJECTID":582776},"geometry":{"x":174129.94000000041,"y":2544879.9700000025}},{"attributes":{"ID":582804,"DIS_CODE":0,"TOWNNAME":"中西區","LI":"仙草里","LIN":"16鄰","STREET":"永福路","SECT":"一段","MAREA":" ","LANE":" ","ALLEY":" ","HOUSE_NO":"２９號三樓之５","E_COORD97":167962.41,"N_COORD97":2542520.1299999999,"ADDRESS":"永福路一段２９號三樓之５","OBJECTID":582777},"geometry":{"x":167962.41000000015,"y":2542520.1299999971}},{"attributes":{"ID":582805,"DIS_CODE":0,"TOWNNAME":"中西區","LI":"仙草里","LIN":"16鄰","STREET":"永福路","SECT":"一段","MAREA":" ","LANE":" ","ALLEY":" ","HOUSE_NO":"２９號三樓之６","E_COORD97":167962.41,"N_COORD97":2542520.1299999999,"ADDRESS":"永福路一段２９號三樓之６","OBJECTID":582778},"geometry":{"x":167962.41000000015,"y":2542520.1299999971}},{"attributes":{"ID":582806,"DIS_CODE":0,"TOWNNAME":"中西區","LI":"仙草里","LIN":"16鄰","STREET":"永福路","SECT":"一段","MAREA":" ","LANE":" ","ALLEY":" ","HOUSE_NO":"２９號三樓之７","E_COORD97":167962.41,"N_COORD97":2542520.1299999999,"ADDRESS":"永福路一段２９號三樓之７","OBJECTID":582779},"geometry":{"x":167962.41000000015,"y":2542520.1299999971}},{"attributes":{"ID":582807,"DIS_CODE":0,"TOWNNAME":"中西區","LI":"仙草里","LIN":"16鄰","STREET":"永福路","SECT":"一段","MAREA":" ","LANE":" ","ALLEY":" ","HOUSE_NO":"２９號五樓之１","E_COORD97":167962.41,"N_COORD97":2542520.1299999999,"ADDRESS":"永福路一段２９號五樓之１","OBJECTID":582780},"geometry":{"x":167962.41000000015,"y":2542520.1299999971}},{"attributes":{"ID":582808,"DIS_CODE":0,"TOWNNAME":"中西區","LI":"仙草里","LIN":"16鄰","STREET":"永福路","SECT":"一段","MAREA":" ","LANE":" ","ALLEY":" ","HOUSE_NO":"２９號五樓之２","E_COORD97":167962.41,"N_COORD97":2542520.1299999999,"ADDRESS":"永福路一段２９號五樓之２","OBJECTID":582781},"geometry":{"x":167962.41000000015,"y":2542520.1299999971}},{"attributes":{"ID":582809,"DIS_CODE":0,"TOWNNAME":"中西區","LI":"仙草里","LIN":"16鄰","STREET":"永福路","SECT":"一段","MAREA":" ","LANE":" ","ALLEY":" ","HOUSE_NO":"２９號五樓之３","E_COORD97":167962.41,"N_COORD97":2542520.1299999999,"ADDRESS":"永福路一段２９號五樓之３","OBJECTID":582782},"geometry":{"x":167962.41000000015,"y":2542520.1299999971}},{"attributes":{"ID":582810,"DIS_CODE":0,"TOWNNAME":"中西區","LI":"仙草里","LIN":"16鄰","STREET":"永福路","SECT":"一段","MAREA":" ","LANE":" ","ALLEY":" ","HOUSE_NO":"２９號五樓之４","E_COORD97":167962.41,"N_COORD97":2542520.1299999999,"ADDRESS":"永福路一段２９號五樓之４","OBJECTID":582783},"geometry":{"x":167962.41000000015,"y":2542520.1299999971}},{"attributes":{"ID":582811,"DIS_CODE":0,"TOWNNAME":"中西區","LI":"仙草里","LIN":"16鄰","STREET":"永福路","SECT":"一段","MAREA":" ","LANE":" ","ALLEY":" ","HOUSE_NO":"２９號五樓之５","E_COORD97":167962.41,"N_COORD97":2542520.1299999999,"ADDRESS":"永福路一段２９號五樓之５","OBJECTID":582784},"geometry":{"x":167962.41000000015,"y":2542520.1299999971}},{"attributes":{"ID":582812,"DIS_CODE":0,"TOWNNAME":"中西區","LI":"仙草里","LIN":"16鄰","STREET":"永福路","SECT":"一段","MAREA":" ","LANE":" ","ALLEY":" ","HOUSE_NO":"２９號五樓之６","E_COORD97":167962.41,"N_COORD97":2542520.1299999999,"ADDRESS":"永福路一段２９號五樓之６","OBJECTID":582785},"geometry":{"x":167962.41000000015,"y":2542520.1299999971}},{"attributes":{"ID":582813,"DIS_CODE":0,"TOWNNAME":"中西區","LI":"仙草里","LIN":"16鄰","STREET":"永福路","SECT":"一段","MAREA":" ","LANE":" ","ALLEY":" ","HOUSE_NO":"２９號五樓之７","E_COORD97":167962.41,"N_COORD97":2542520.1299999999,"ADDRESS":"永福路一段２９號五樓之７","OBJECTID":582786},"geometry":{"x":167962.41000000015,"y":2542520.1299999971}},{"attributes":{"ID":582814,"DIS_CODE":0,"TOWNNAME":"中西區","LI":"仙草里","LIN":"16鄰","STREET":"永福路","SECT":"一段","MAREA":" ","LANE":" ","ALLEY":" ","HOUSE_NO":"２９號四樓之１","E_COORD97":167962.41,"N_COORD97":2542520.1299999999,"ADDRESS":"永福路一段２９號四樓之１","OBJECTID":582787},"geometry":{"x":167962.41000000015,"y":2542520.1299999971}},{"attributes":{"ID":582815,"DIS_CODE":0,"TOWNNAME":"中西區","LI":"仙草里","LIN":"16鄰","STREET":"永福路","SECT":"一段","MAREA":" ","LANE":" ","ALLEY":" ","HOUSE_NO":"２９號四樓之２","E_COORD97":167962.41,"N_COORD97":2542520.1299999999,"ADDRESS":"永福路一段２９號四樓之２","OBJECTID":582788},"geometry":{"x":167962.41000000015,"y":2542520.1299999971}},{"attributes":{"ID":582816,"DIS_CODE":0,"TOWNNAME":"中西區","LI":"仙草里","LIN":"16鄰","STREET":"永福路","SECT":"一段","MAREA":" ","LANE":" ","ALLEY":" ","HOUSE_NO":"２９號四樓之３","E_COORD97":167962.41,"N_COORD97":2542520.1299999999,"ADDRESS":"永福路一段２９號四樓之３","OBJECTID":582789},"geometry":{"x":167962.41000000015,"y":2542520.1299999971}},{"attributes":{"ID":582817,"DIS_CODE":0,"TOWNNAME":"中西區","LI":"仙草里","LIN":"16鄰","STREET":"永福路","SECT":"一段","MAREA":" ","LANE":" ","ALLEY":" ","HOUSE_NO":"２９號四樓之４","E_COORD97":167962.41,"N_COORD97":2542520.1299999999,"ADDRESS":"永福路一段２９號四樓之４","OBJECTID":582790},"geometry":{"x":167962.41000000015,"y":2542520.1299999971}},{"attributes":{"ID":582818,"DIS_CODE":0,"TOWNNAME":"中西區","LI":"仙草里","LIN":"16鄰","STREET":"永福路","SECT":"一段","MAREA":" ","LANE":" ","ALLEY":" ","HOUSE_NO":"２９號四樓之５","E_COORD97":167962.41,"N_COORD97":2542520.1299999999,"ADDRESS":"永福路一段２９號四樓之５","OBJECTID":582791},"geometry":{"x":167962.41000000015,"y":2542520.1299999971}},{"attributes":{"ID":582819,"DIS_CODE":0,"TOWNNAME":"中西區","LI":"仙草里","LIN":"16鄰","STREET":"永福路","SECT":"一段","MAREA":" ","LANE":" ","ALLEY":" ","HOUSE_NO":"２９號四樓之６","E_COORD97":167962.41,"N_COORD97":2542520.1299999999,"ADDRESS":"永福路一段２９號四樓之６","OBJECTID":582792},"geometry":{"x":167962.41000000015,"y":2542520.1299999971}},{"attributes":{"ID":582820,"DIS_CODE":0,"TOWNNAME":"中西區","LI":"仙草里","LIN":"16鄰","STREET":"永福路","SECT":"一段","MAREA":" ","LANE":" ","ALLEY":" ","HOUSE_NO":"２９號四樓之７","E_COORD97":167962.41,"N_COORD97":2542520.1299999999,"ADDRESS":"永福路一段２９號四樓之７","OBJECTID":582793},"geometry":{"x":167962.41000000015,"y":2542520.1299999971}},{"attributes":{"ID":582821,"DIS_CODE":0,"TOWNNAME":"中西區","LI":"仙草里","LIN":"16鄰","STREET":"健康路","SECT":"一段","MAREA":" ","LANE":" ","ALLEY":" ","HOUSE_NO":"３８０號七樓","E_COORD97":167868.73999999999,"N_COORD97":2542475.8999999999,"ADDRESS":"健康路一段３８０號七樓","OBJECTID":582794},"geometry":{"x":167868.74000000022,"y":2542475.9000000041}},{"attributes":{"ID":582822,"DIS_CODE":0,"TOWNNAME":"中西區","LI":"仙草里","LIN":"16鄰","STREET":"健康路","SECT":"一段","MAREA":" ","LANE":" ","ALLEY":" ","HOUSE_NO":"３８０號二樓","E_COORD97":167868.73999999999,"N_COORD97":2542475.8999999999,"ADDRESS":"健康路一段３８０號二樓","OBJECTID":582795},"geometry":{"x":167868.74000000022,"y":2542475.9000000041}},{"attributes":{"ID":582823,"DIS_CODE":0,"TOWNNAME":"中西區","LI":"仙草里","LIN":"16鄰","STREET":"健康路","SECT":"一段","MAREA":" ","LANE":" ","ALLEY":" ","HOUSE_NO":"３８０號三樓","E_COORD97":167868.73999999999,"N_COORD97":2542475.8999999999,"ADDRESS":"健康路一段３８０號三樓","OBJECTID":582796},"geometry":{"x":167868.74000000022,"y":2542475.9000000041}},{"attributes":{"ID":582824,"DIS_CODE":0,"TOWNNAME":"中西區","LI":"仙草里","LIN":"16鄰","STREET":"健康路","SECT":"一段","MAREA":" ","LANE":" ","ALLEY":" ","HOUSE_NO":"３８０號五樓","E_COORD97":167868.73999999999,"N_COORD97":2542475.8999999999,"ADDRESS":"健康路一段３８０號五樓","OBJECTID":582797},"geometry":{"x":167868.74000000022,"y":2542475.9000000041}},{"attributes":{"ID":582825,"DIS_CODE":0,"TOWNNAME":"中西區","LI":"仙草里","LIN":"16鄰","STREET":"健康路","SECT":"一段","MAREA":" ","LANE":" ","ALLEY":" ","HOUSE_NO":"３８０號六樓","E_COORD97":167868.73999999999,"N_COORD97":2542475.8999999999,"ADDRESS":"健康路一段３８０號六樓","OBJECTID":582798},"geometry":{"x":167868.74000000022,"y":2542475.9000000041}},{"attributes":{"ID":582826,"DIS_CODE":0,"TOWNNAME":"中西區","LI":"仙草里","LIN":"16鄰","STREET":"健康路","SECT":"一段","MAREA":" ","LANE":" ","ALLEY":" ","HOUSE_NO":"３８０號四樓","E_COORD97":167868.73999999999,"N_COORD97":2542475.8999999999,"ADDRESS":"健康路一段３８０號四樓","OBJECTID":582799},"geometry":{"x":167868.74000000022,"y":2542475.9000000041}},{"attributes":{"ID":582827,"DIS_CODE":0,"TOWNNAME":"永康區","LI":"\u25A0行里","LIN":"16鄰","STREET":"中正六街","SECT":" ","MAREA":" ","LANE":" ","ALLEY":" ","HOUSE_NO":"２０８號五樓","E_COORD97":171878.98999999999,"N_COORD97":2548843.1200000001,"ADDRESS":"中正六街２０８號五樓","OBJECTID":582800},"geometry":{"x":171878.99000000115,"y":2548843.1200000029}}]}