{"displayFieldName":"TOWNNAME","fieldAliases":{"ID":"ID","DIS_CODE":"DIS_CODE","TOWNNAME":"TOWNNAME","LI":"LI","LIN":"LIN","STREET":"STREET","SECT":"SECT","MAREA":"MAREA","LANE":"LANE","ALLEY":"ALLEY","HOUSE_NO":"HOUSE_NO","E_COORD97":"E_COORD97","N_COORD97":"N_COORD97","ADDRESS":"ADDRESS","OBJECTID":"OBJECTID"},"geometryType":"esriGeometryPoint","spatialReference":{"wkid":102443,"latestWkid":3826},"fields":[{"name":"ID","type":"esriFieldTypeDouble","alias":"ID"},{"name":"DIS_CODE","type":"esriFieldTypeInteger","alias":"DIS_CODE"},{"name":"TOWNNAME","type":"esriFieldTypeString","alias":"TOWNNAME","length":8},{"name":"LI","type":"esriFieldTypeString","alias":"LI","length":8},{"name":"LIN","type":"esriFieldTypeString","alias":"LIN","length":12},{"name":"STREET","type":"esriFieldTypeString","alias":"STREET","length":20},{"name":"SECT","type":"esriFieldTypeString","alias":"SECT","length":8},{"name":"MAREA","type":"esriFieldTypeString","alias":"MAREA","length":12},{"name":"LANE","type":"esriFieldTypeString","alias":"LANE","length":10},{"name":"ALLEY","type":"esriFieldTypeString","alias":"ALLEY","length":10},{"name":"HOUSE_NO","type":"esriFieldTypeString","alias":"HOUSE_NO","length":20},{"name":"E_COORD97","type":"esriFieldTypeDouble","alias":"E_COORD97"},{"name":"N_COORD97","type":"esriFieldTypeDouble","alias":"N_COORD97"},{"name":"ADDRESS","type":"esriFieldTypeString","alias":"ADDRESS","length":50},{"name":"OBJECTID","type":"esriFieldTypeOID","alias":"OBJECTID"}],"features":[{"attributes":{"ID":508628,"DIS_CODE":0,"TOWNNAME":"東區","LI":"關聖里","LIN":"15鄰","STREET":"裕和路","SECT":" ","MAREA":" ","LANE":" ","ALLEY":" ","HOUSE_NO":"２００號","E_COORD97":172392,"N_COORD97":2543118.2200000002,"ADDRESS":"裕和路２００號","OBJECTID":508601},"geometry":{"x":172392.00000000186,"y":2543118.2200000044}},{"attributes":{"ID":508629,"DIS_CODE":0,"TOWNNAME":"東區","LI":"關聖里","LIN":"15鄰","STREET":"裕和路","SECT":" ","MAREA":" ","LANE":" ","ALLEY":" ","HOUSE_NO":"２５６號","E_COORD97":172430.10999999999,"N_COORD97":2543120.8500000001,"ADDRESS":"裕和路２５６號","OBJECTID":508602},"geometry":{"x":172430.11000000034,"y":2543120.8500000015}},{"attributes":{"ID":508630,"DIS_CODE":0,"TOWNNAME":"東區","LI":"南聖里","LIN":"15鄰","STREET":"裕和路","SECT":" ","MAREA":" ","LANE":" ","ALLEY":" ","HOUSE_NO":"２８１號","E_COORD97":172525.29000000001,"N_COORD97":2543147.3199999998,"ADDRESS":"裕和路２８１號","OBJECTID":508603},"geometry":{"x":172525.29000000004,"y":2543147.3200000003}},{"attributes":{"ID":508631,"DIS_CODE":0,"TOWNNAME":"東區","LI":"南聖里","LIN":"15鄰","STREET":"裕和路","SECT":" ","MAREA":" ","LANE":" ","ALLEY":" ","HOUSE_NO":"２８３號","E_COORD97":172530.73000000001,"N_COORD97":2543147.3199999998,"ADDRESS":"裕和路２８３號","OBJECTID":508604},"geometry":{"x":172530.73000000045,"y":2543147.3200000003}},{"attributes":{"ID":508632,"DIS_CODE":0,"TOWNNAME":"東區","LI":"南聖里","LIN":"15鄰","STREET":"裕和路","SECT":" ","MAREA":" ","LANE":" ","ALLEY":" ","HOUSE_NO":"２９５號","E_COORD97":172559.82999999999,"N_COORD97":2543146.7599999998,"ADDRESS":"裕和路２９５號","OBJECTID":508605},"geometry":{"x":172559.83000000101,"y":2543146.7599999998}},{"attributes":{"ID":508633,"DIS_CODE":0,"TOWNNAME":"東區","LI":"南聖里","LIN":"15鄰","STREET":"裕和路","SECT":" ","MAREA":" ","LANE":" ","ALLEY":" ","HOUSE_NO":"２８５號","E_COORD97":172536.17999999999,"N_COORD97":2543147.1299999999,"ADDRESS":"裕和路２８５號","OBJECTID":508606},"geometry":{"x":172536.18000000156,"y":2543147.129999999}},{"attributes":{"ID":508634,"DIS_CODE":0,"TOWNNAME":"東區","LI":"南聖里","LIN":"15鄰","STREET":"裕和路","SECT":" ","MAREA":" ","LANE":" ","ALLEY":" ","HOUSE_NO":"２９３號","E_COORD97":172555.32999999999,"N_COORD97":2543146.9500000002,"ADDRESS":"裕和路２９３號","OBJECTID":508607},"geometry":{"x":172555.33000000007,"y":2543146.9500000011}},{"attributes":{"ID":508635,"DIS_CODE":0,"TOWNNAME":"東區","LI":"南聖里","LIN":"15鄰","STREET":"裕和路","SECT":" ","MAREA":" ","LANE":" ","ALLEY":" ","HOUSE_NO":"２８７號","E_COORD97":172541.06,"N_COORD97":2543146.9500000002,"ADDRESS":"裕和路２８７號","OBJECTID":508608},"geometry":{"x":172541.06000000052,"y":2543146.9500000011}},{"attributes":{"ID":508636,"DIS_CODE":0,"TOWNNAME":"東區","LI":"南聖里","LIN":"15鄰","STREET":"裕信路","SECT":" ","MAREA":" ","LANE":" ","ALLEY":" ","HOUSE_NO":"１２８之１５號","E_COORD97":172520.82999999999,"N_COORD97":2543177.23,"ADDRESS":"裕信路１２８之１５號","OBJECTID":508609},"geometry":{"x":172520.83000000101,"y":2543177.2300000023}},{"attributes":{"ID":508637,"DIS_CODE":0,"TOWNNAME":"東區","LI":"南聖里","LIN":"15鄰","STREET":"裕信路","SECT":" ","MAREA":" ","LANE":" ","ALLEY":" ","HOUSE_NO":"１２８之１３號","E_COORD97":172525.89000000001,"N_COORD97":2543177.1099999999,"ADDRESS":"裕信路１２８之１３號","OBJECTID":508610},"geometry":{"x":172525.88999999966,"y":2543177.1099999994}},{"attributes":{"ID":508638,"DIS_CODE":0,"TOWNNAME":"東區","LI":"南聖里","LIN":"15鄰","STREET":"裕信路","SECT":" ","MAREA":" ","LANE":" ","ALLEY":" ","HOUSE_NO":"１２８之１２號","E_COORD97":172532,"N_COORD97":2543176.6400000001,"ADDRESS":"裕信路１２８之１２號","OBJECTID":508611},"geometry":{"x":172532,"y":2543176.6400000025}},{"attributes":{"ID":508639,"DIS_CODE":0,"TOWNNAME":"東區","LI":"南聖里","LIN":"15鄰","STREET":"裕信路","SECT":" ","MAREA":" ","LANE":" ","ALLEY":" ","HOUSE_NO":"１２８之１１號","E_COORD97":172538.10999999999,"N_COORD97":2543176.52,"ADDRESS":"裕信路１２８之１１號","OBJECTID":508612},"geometry":{"x":172538.11000000127,"y":2543176.5200000014}},{"attributes":{"ID":508640,"DIS_CODE":0,"TOWNNAME":"東區","LI":"南聖里","LIN":"15鄰","STREET":"裕信路","SECT":" ","MAREA":" ","LANE":" ","ALLEY":" ","HOUSE_NO":"１２８之１號","E_COORD97":172586.32000000001,"N_COORD97":2543175.7000000002,"ADDRESS":"裕信路１２８之１號","OBJECTID":508613},"geometry":{"x":172586.3200000003,"y":2543175.7000000011}},{"attributes":{"ID":508641,"DIS_CODE":0,"TOWNNAME":"東區","LI":"南聖里","LIN":"15鄰","STREET":"裕信路","SECT":" ","MAREA":" ","LANE":" ","ALLEY":" ","HOUSE_NO":"１２８之２號","E_COORD97":172581.73000000001,"N_COORD97":2543175.9300000002,"ADDRESS":"裕信路１２８之２號","OBJECTID":508614},"geometry":{"x":172581.73000000045,"y":2543175.9299999997}},{"attributes":{"ID":508642,"DIS_CODE":0,"TOWNNAME":"東區","LI":"南聖里","LIN":"15鄰","STREET":"裕信路","SECT":" ","MAREA":" ","LANE":" ","ALLEY":" ","HOUSE_NO":"１２８之３號","E_COORD97":172575.62,"N_COORD97":2543176.0499999998,"ADDRESS":"裕信路１２８之３號","OBJECTID":508615},"geometry":{"x":172575.62000000011,"y":2543176.0500000007}},{"attributes":{"ID":508643,"DIS_CODE":0,"TOWNNAME":"東區","LI":"南聖里","LIN":"15鄰","STREET":"裕信路","SECT":" ","MAREA":" ","LANE":" ","ALLEY":" ","HOUSE_NO":"１２８之５號","E_COORD97":172569.62,"N_COORD97":2543176.29,"ADDRESS":"裕信路１２８之５號","OBJECTID":508616},"geometry":{"x":172569.62000000104,"y":2543176.2899999991}},{"attributes":{"ID":508644,"DIS_CODE":0,"TOWNNAME":"東區","LI":"南聖里","LIN":"15鄰","STREET":"裕信路","SECT":" ","MAREA":" ","LANE":" ","ALLEY":" ","HOUSE_NO":"１２８之６號","E_COORD97":172564.20999999999,"N_COORD97":2543176.3999999999,"ADDRESS":"裕信路１２８之６號","OBJECTID":508617},"geometry":{"x":172564.21000000089,"y":2543176.4000000004}},{"attributes":{"ID":508645,"DIS_CODE":0,"TOWNNAME":"東區","LI":"南聖里","LIN":"15鄰","STREET":"裕信路","SECT":" ","MAREA":" ","LANE":" ","ALLEY":" ","HOUSE_NO":"１２８之９號","E_COORD97":172549.64000000001,"N_COORD97":2543176.6400000001,"ADDRESS":"裕信路１２８之９號","OBJECTID":508618},"geometry":{"x":172549.63999999966,"y":2543176.6400000025}},{"attributes":{"ID":508646,"DIS_CODE":0,"TOWNNAME":"東區","LI":"南聖里","LIN":"15鄰","STREET":"裕信路","SECT":" ","MAREA":" ","LANE":" ","ALLEY":" ","HOUSE_NO":"１２８之８號","E_COORD97":172554.69,"N_COORD97":2543176.29,"ADDRESS":"裕信路１２８之８號","OBJECTID":508619},"geometry":{"x":172554.69000000041,"y":2543176.2899999991}},{"attributes":{"ID":508647,"DIS_CODE":0,"TOWNNAME":"東區","LI":"南聖里","LIN":"15鄰","STREET":"裕信路","SECT":" ","MAREA":" ","LANE":" ","ALLEY":" ","HOUSE_NO":"１２８號","E_COORD97":172591.37,"N_COORD97":2543175.9300000002,"ADDRESS":"裕信路１２８號","OBJECTID":508620},"geometry":{"x":172591.37000000197,"y":2543175.9299999997}},{"attributes":{"ID":508648,"DIS_CODE":0,"TOWNNAME":"東區","LI":"南聖里","LIN":"15鄰","STREET":"裕信路","SECT":" ","MAREA":" ","LANE":" ","ALLEY":" ","HOUSE_NO":"１３０之１０號","E_COORD97":172543.76000000001,"N_COORD97":2543162.0600000001,"ADDRESS":"裕信路１３０之１０號","OBJECTID":508621},"geometry":{"x":172543.75999999978,"y":2543162.0600000005}},{"attributes":{"ID":508649,"DIS_CODE":0,"TOWNNAME":"東區","LI":"南聖里","LIN":"15鄰","STREET":"裕信路","SECT":" ","MAREA":" ","LANE":" ","ALLEY":" ","HOUSE_NO":"１３０之１１號","E_COORD97":172538.94,"N_COORD97":2543162.1800000002,"ADDRESS":"裕信路１３０之１１號","OBJECTID":508622},"geometry":{"x":172538.94000000134,"y":2543162.1800000016}},{"attributes":{"ID":508650,"DIS_CODE":0,"TOWNNAME":"東區","LI":"南聖里","LIN":"15鄰","STREET":"裕信路","SECT":" ","MAREA":" ","LANE":" ","ALLEY":" ","HOUSE_NO":"１３０之１２號","E_COORD97":172533.29000000001,"N_COORD97":2543162.0600000001,"ADDRESS":"裕信路１３０之１２號","OBJECTID":508623},"geometry":{"x":172533.29000000004,"y":2543162.0600000005}},{"attributes":{"ID":508651,"DIS_CODE":0,"TOWNNAME":"東區","LI":"南聖里","LIN":"15鄰","STREET":"裕信路","SECT":" ","MAREA":" ","LANE":" ","ALLEY":" ","HOUSE_NO":"１３０之１３號","E_COORD97":172527.76999999999,"N_COORD97":2543162.0600000001,"ADDRESS":"裕信路１３０之１３號","OBJECTID":508624},"geometry":{"x":172527.77000000048,"y":2543162.0600000005}},{"attributes":{"ID":508652,"DIS_CODE":0,"TOWNNAME":"東區","LI":"南聖里","LIN":"15鄰","STREET":"裕信路","SECT":" ","MAREA":" ","LANE":" ","ALLEY":" ","HOUSE_NO":"１３０之１５號","E_COORD97":172522.60000000001,"N_COORD97":2543162.0600000001,"ADDRESS":"裕信路１３０之１５號","OBJECTID":508625},"geometry":{"x":172522.59999999963,"y":2543162.0600000005}},{"attributes":{"ID":508653,"DIS_CODE":0,"TOWNNAME":"東區","LI":"南聖里","LIN":"15鄰","STREET":"裕信路","SECT":" ","MAREA":" ","LANE":" ","ALLEY":" ","HOUSE_NO":"１３０之１號","E_COORD97":172586.67000000001,"N_COORD97":2543161.1200000001,"ADDRESS":"裕信路１３０之１號","OBJECTID":508626},"geometry":{"x":172586.66999999993,"y":2543161.1200000029}},{"attributes":{"ID":508654,"DIS_CODE":0,"TOWNNAME":"東區","LI":"南聖里","LIN":"15鄰","STREET":"裕信路","SECT":" ","MAREA":" ","LANE":" ","ALLEY":" ","HOUSE_NO":"１３０之２號","E_COORD97":172582.54999999999,"N_COORD97":2543160.77,"ADDRESS":"裕信路１３０之２號","OBJECTID":508627},"geometry":{"x":172582.54999999981,"y":2543160.7700000033}},{"attributes":{"ID":508655,"DIS_CODE":0,"TOWNNAME":"東區","LI":"南聖里","LIN":"15鄰","STREET":"裕信路","SECT":" ","MAREA":" ","LANE":" ","ALLEY":" ","HOUSE_NO":"１３０之３號","E_COORD97":172576.79000000001,"N_COORD97":2543160.77,"ADDRESS":"裕信路１３０之３號","OBJECTID":508628},"geometry":{"x":172576.79000000097,"y":2543160.7700000033}},{"attributes":{"ID":508656,"DIS_CODE":0,"TOWNNAME":"東區","LI":"南聖里","LIN":"15鄰","STREET":"裕信路","SECT":" ","MAREA":" ","LANE":" ","ALLEY":" ","HOUSE_NO":"１３０之５號","E_COORD97":172570.92000000001,"N_COORD97":2543160.6499999999,"ADDRESS":"裕信路１３０之５號","OBJECTID":508629},"geometry":{"x":172570.92000000086,"y":2543160.6500000022}},{"attributes":{"ID":508657,"DIS_CODE":0,"TOWNNAME":"東區","LI":"南聖里","LIN":"15鄰","STREET":"裕信路","SECT":" ","MAREA":" ","LANE":" ","ALLEY":" ","HOUSE_NO":"１３０之６號","E_COORD97":172565.39000000001,"N_COORD97":2543160.8900000001,"ADDRESS":"裕信路１３０之６號","OBJECTID":508630},"geometry":{"x":172565.3900000006,"y":2543160.8899999987}},{"attributes":{"ID":508658,"DIS_CODE":0,"TOWNNAME":"東區","LI":"南聖里","LIN":"15鄰","STREET":"裕信路","SECT":" ","MAREA":" ","LANE":" ","ALLEY":" ","HOUSE_NO":"１３０之７號","E_COORD97":172560.79999999999,"N_COORD97":2543160.8900000001,"ADDRESS":"裕信路１３０之７號","OBJECTID":508631},"geometry":{"x":172560.79999999888,"y":2543160.8899999987}},{"attributes":{"ID":508659,"DIS_CODE":0,"TOWNNAME":"東區","LI":"南聖里","LIN":"15鄰","STREET":"裕信路","SECT":" ","MAREA":" ","LANE":" ","ALLEY":" ","HOUSE_NO":"１３０之８號","E_COORD97":172555.28,"N_COORD97":2543161.1200000001,"ADDRESS":"裕信路１３０之８號","OBJECTID":508632},"geometry":{"x":172555.28000000119,"y":2543161.1200000029}},{"attributes":{"ID":508660,"DIS_CODE":0,"TOWNNAME":"東區","LI":"南聖里","LIN":"15鄰","STREET":"裕信路","SECT":" ","MAREA":" ","LANE":" ","ALLEY":" ","HOUSE_NO":"１３０之９號","E_COORD97":172549.87,"N_COORD97":2543161.71,"ADDRESS":"裕信路１３０之９號","OBJECTID":508633},"geometry":{"x":172549.87000000011,"y":2543161.7100000009}},{"attributes":{"ID":508661,"DIS_CODE":0,"TOWNNAME":"東區","LI":"南聖里","LIN":"15鄰","STREET":"裕信路","SECT":" ","MAREA":" ","LANE":" ","ALLEY":" ","HOUSE_NO":"１３０號","E_COORD97":172591.37,"N_COORD97":2543160.77,"ADDRESS":"裕信路１３０號","OBJECTID":508634},"geometry":{"x":172591.37000000197,"y":2543160.7700000033}},{"attributes":{"ID":508662,"DIS_CODE":0,"TOWNNAME":"善化區","LI":"文昌里","LIN":"15鄰","STREET":"光復路","SECT":" ","MAREA":" ","LANE":" ","ALLEY":" ","HOUSE_NO":"３２號","E_COORD97":177606.13,"N_COORD97":2558731.0099999998,"ADDRESS":"光復路３２號","OBJECTID":508635},"geometry":{"x":177606.13000000082,"y":2558731.0099999998}},{"attributes":{"ID":508663,"DIS_CODE":0,"TOWNNAME":"善化區","LI":"東關里","LIN":"15鄰","STREET":"中興路","SECT":" ","MAREA":" ","LANE":" ","ALLEY":" ","HOUSE_NO":"１２８號","E_COORD97":177354.51000000001,"N_COORD97":2559060.25,"ADDRESS":"中興路１２８號","OBJECTID":508636},"geometry":{"x":177354.50999999978,"y":2559060.2500000019}},{"attributes":{"ID":508664,"DIS_CODE":0,"TOWNNAME":"善化區","LI":"光文里","LIN":"15鄰","STREET":"民權路","SECT":" ","MAREA":" ","LANE":" ","ALLEY":" ","HOUSE_NO":"１６０號","E_COORD97":178269.39999999999,"N_COORD97":2559026.0099999998,"ADDRESS":"民權路１６０號","OBJECTID":508637},"geometry":{"x":178269.40000000037,"y":2559026.0099999998}},{"attributes":{"ID":508665,"DIS_CODE":0,"TOWNNAME":"善化區","LI":"文昌里","LIN":"15鄰","STREET":"光復路","SECT":" ","MAREA":" ","LANE":" ","ALLEY":" ","HOUSE_NO":"３０號","E_COORD97":177610.37,"N_COORD97":2558733.0099999998,"ADDRESS":"光復路３０號","OBJECTID":508638},"geometry":{"x":177610.37000000011,"y":2558733.0100000016}},{"attributes":{"ID":508666,"DIS_CODE":0,"TOWNNAME":"善化區","LI":"文昌里","LIN":"15鄰","STREET":"大信路","SECT":" ","MAREA":" ","LANE":" ","ALLEY":" ","HOUSE_NO":"３８號","E_COORD97":177560,"N_COORD97":2558798.5,"ADDRESS":"大信路３８號","OBJECTID":508639},"geometry":{"x":177560,"y":2558798.5}},{"attributes":{"ID":508667,"DIS_CODE":0,"TOWNNAME":"南區","LI":"彰南里","LIN":"15鄰","STREET":"新信路","SECT":" ","MAREA":" ","LANE":" ","ALLEY":" ","HOUSE_NO":"１１號","E_COORD97":165944.32000000001,"N_COORD97":2541435.2599999998,"ADDRESS":"新信路１１號","OBJECTID":508640},"geometry":{"x":165944.3200000003,"y":2541435.2600000035}},{"attributes":{"ID":508668,"DIS_CODE":0,"TOWNNAME":"麻豆區","LI":"\u25A0江里","LIN":"15鄰","STREET":"信義路","SECT":" ","MAREA":" ","LANE":" ","ALLEY":" ","HOUSE_NO":"１６號之２","E_COORD97":173412.01000000001,"N_COORD97":2564608.9100000001,"ADDRESS":"信義路１６號之２","OBJECTID":508641},"geometry":{"x":173412.00999999885,"y":2564608.910000002}},{"attributes":{"ID":508669,"DIS_CODE":0,"TOWNNAME":"善化區","LI":"光文里","LIN":"15鄰","STREET":"民生路","SECT":" ","MAREA":" ","LANE":" ","ALLEY":" ","HOUSE_NO":"２１５號","E_COORD97":178355.26999999999,"N_COORD97":2558935.7599999998,"ADDRESS":"民生路２１５號","OBJECTID":508642},"geometry":{"x":178355.27000000048,"y":2558935.7599999998}},{"attributes":{"ID":508670,"DIS_CODE":0,"TOWNNAME":"善化區","LI":"光文里","LIN":"15鄰","STREET":"民權路","SECT":" ","MAREA":" ","LANE":" ","ALLEY":" ","HOUSE_NO":"１６８號","E_COORD97":178249.79000000001,"N_COORD97":2559023.2599999998,"ADDRESS":"民權路１６８號","OBJECTID":508643},"geometry":{"x":178249.79000000004,"y":2559023.2599999998}},{"attributes":{"ID":508671,"DIS_CODE":0,"TOWNNAME":"善化區","LI":"文昌里","LIN":"15鄰","STREET":"光復路","SECT":" ","MAREA":" ","LANE":" ","ALLEY":" ","HOUSE_NO":"２２號","E_COORD97":177627.29000000001,"N_COORD97":2558745.5099999998,"ADDRESS":"光復路２２號","OBJECTID":508644},"geometry":{"x":177627.29000000097,"y":2558745.5100000016}},{"attributes":{"ID":508672,"DIS_CODE":0,"TOWNNAME":"仁德區","LI":"仁德里","LIN":"15鄰","STREET":"仁德一街","SECT":" ","MAREA":" ","LANE":" ","ALLEY":" ","HOUSE_NO":"４６號","E_COORD97":173176.13,"N_COORD97":2541262.02,"ADDRESS":"仁德一街４６號","OBJECTID":508645},"geometry":{"x":173176.13000000082,"y":2541262.0200000014}},{"attributes":{"ID":508673,"DIS_CODE":0,"TOWNNAME":"仁德區","LI":"仁義里","LIN":"15鄰","STREET":"義林路","SECT":" ","MAREA":" ","LANE":" ","ALLEY":" ","HOUSE_NO":"２１２號","E_COORD97":174566.64999999999,"N_COORD97":2541289.5099999998,"ADDRESS":"義林路２１２號","OBJECTID":508646},"geometry":{"x":174566.6500000013,"y":2541289.5100000016}},{"attributes":{"ID":508674,"DIS_CODE":0,"TOWNNAME":"仁德區","LI":"仁義里","LIN":"15鄰","STREET":"義林路","SECT":" ","MAREA":" ","LANE":" ","ALLEY":" ","HOUSE_NO":"２２０號","E_COORD97":174573.51999999999,"N_COORD97":2541304.5099999998,"ADDRESS":"義林路２２０號","OBJECTID":508647},"geometry":{"x":174573.52000000048,"y":2541304.5099999998}},{"attributes":{"ID":508675,"DIS_CODE":0,"TOWNNAME":"仁德區","LI":"一甲里","LIN":"15鄰","STREET":"忠義路","SECT":" ","MAREA":" ","LANE":" ","ALLEY":" ","HOUSE_NO":"７９號","E_COORD97":174371.64999999999,"N_COORD97":2541719.2599999998,"ADDRESS":"忠義路７９號","OBJECTID":508648},"geometry":{"x":174371.6500000013,"y":2541719.2599999998}},{"attributes":{"ID":508676,"DIS_CODE":0,"TOWNNAME":"仁德區","LI":"仁德里","LIN":"15鄰","STREET":"中山路","SECT":" ","MAREA":" ","LANE":" ","ALLEY":" ","HOUSE_NO":"６５９號","E_COORD97":173178.62,"N_COORD97":2541337,"ADDRESS":"中山路６５９號","OBJECTID":508649},"geometry":{"x":173178.62000000104,"y":2541337.0000000019}},{"attributes":{"ID":508677,"DIS_CODE":0,"TOWNNAME":"仁德區","LI":"二行里","LIN":"15鄰","STREET":"中正西路","SECT":" ","MAREA":" ","LANE":" ","ALLEY":" ","HOUSE_NO":"２９６號","E_COORD97":170016.10000000001,"N_COORD97":2535409.7400000002,"ADDRESS":"中正西路２９６號","OBJECTID":508650},"geometry":{"x":170016.10000000056,"y":2535409.7400000002}},{"attributes":{"ID":508678,"DIS_CODE":0,"TOWNNAME":"仁德區","LI":"保安里","LIN":"15鄰","STREET":"中正路","SECT":"一段","MAREA":" ","LANE":" ","ALLEY":" ","HOUSE_NO":"２２４號","E_COORD97":171625.63,"N_COORD97":2535815.02,"ADDRESS":"中正路一段２２４號","OBJECTID":508651},"geometry":{"x":171625.62999999989,"y":2535815.0199999996}},{"attributes":{"ID":508679,"DIS_CODE":0,"TOWNNAME":"仁德區","LI":"仁義里","LIN":"15鄰","STREET":"義林路","SECT":" ","MAREA":" ","LANE":" ","ALLEY":" ","HOUSE_NO":"２３８號","E_COORD97":174595.45999999999,"N_COORD97":2541341.77,"ADDRESS":"義林路２３８號","OBJECTID":508652},"geometry":{"x":174595.45999999996,"y":2541341.7700000014}},{"attributes":{"ID":508680,"DIS_CODE":0,"TOWNNAME":"仁德區","LI":"仁德里","LIN":"15鄰","STREET":"中山路","SECT":" ","MAREA":" ","LANE":" ","ALLEY":" ","HOUSE_NO":"６３７號","E_COORD97":173224.78,"N_COORD97":2541325.4900000002,"ADDRESS":"中山路６３７號","OBJECTID":508653},"geometry":{"x":173224.78000000119,"y":2541325.4900000002}},{"attributes":{"ID":508681,"DIS_CODE":0,"TOWNNAME":"仁德區","LI":"土庫里","LIN":"15鄰","STREET":"土庫一街","SECT":" ","MAREA":" ","LANE":" ","ALLEY":" ","HOUSE_NO":"１８號","E_COORD97":174432.35000000001,"N_COORD97":2543070.9900000002,"ADDRESS":"土庫一街１８號","OBJECTID":508654},"geometry":{"x":174432.35000000056,"y":2543070.9900000002}},{"attributes":{"ID":508682,"DIS_CODE":0,"TOWNNAME":"仁德區","LI":"一甲里","LIN":"15鄰","STREET":"忠義路","SECT":" ","MAREA":" ","LANE":" ","ALLEY":" ","HOUSE_NO":"１０５號","E_COORD97":174286.75,"N_COORD97":2541747.77,"ADDRESS":"忠義路１０５號","OBJECTID":508655},"geometry":{"x":174286.75,"y":2541747.7700000014}},{"attributes":{"ID":508683,"DIS_CODE":0,"TOWNNAME":"仁德區","LI":"二行里","LIN":"15鄰","STREET":"行大二街","SECT":" ","MAREA":" ","LANE":" ","ALLEY":" ","HOUSE_NO":"１７號","E_COORD97":169711.89999999999,"N_COORD97":2535324,"ADDRESS":"行大二街１７號","OBJECTID":508656},"geometry":{"x":169711.9000000013,"y":2535324}},{"attributes":{"ID":508684,"DIS_CODE":0,"TOWNNAME":"仁德區","LI":"二行里","LIN":"15鄰","STREET":"中正西路","SECT":" ","MAREA":" ","LANE":" ","ALLEY":" ","HOUSE_NO":"３３７號","E_COORD97":169820.95000000001,"N_COORD97":2535388.4900000002,"ADDRESS":"中正西路３３７號","OBJECTID":508657},"geometry":{"x":169820.95000000205,"y":2535388.4900000002}},{"attributes":{"ID":508685,"DIS_CODE":0,"TOWNNAME":"仁德區","LI":"一甲里","LIN":"15鄰","STREET":"忠義路","SECT":" ","MAREA":" ","LANE":" ","ALLEY":" ","HOUSE_NO":"２５號","E_COORD97":174529.37,"N_COORD97":2541670.52,"ADDRESS":"忠義路２５號","OBJECTID":508658},"geometry":{"x":174529.37000000104,"y":2541670.5199999977}},{"attributes":{"ID":508686,"DIS_CODE":0,"TOWNNAME":"仁德區","LI":"二行里","LIN":"15鄰","STREET":"行大二街","SECT":" ","MAREA":" ","LANE":" ","ALLEY":" ","HOUSE_NO":"９號","E_COORD97":169724.57000000001,"N_COORD97":2535343.5,"ADDRESS":"行大二街９號","OBJECTID":508659},"geometry":{"x":169724.5700000003,"y":2535343.5}},{"attributes":{"ID":508687,"DIS_CODE":0,"TOWNNAME":"仁德區","LI":"二行里","LIN":"15鄰","STREET":"中正西路","SECT":" ","MAREA":" ","LANE":" ","ALLEY":" ","HOUSE_NO":"３３６號","E_COORD97":169850.70999999999,"N_COORD97":2535414.4900000002,"ADDRESS":"中正西路３３６號","OBJECTID":508660},"geometry":{"x":169850.70999999996,"y":2535414.4900000021}},{"attributes":{"ID":508688,"DIS_CODE":0,"TOWNNAME":"仁德區","LI":"二行里","LIN":"15鄰","STREET":"中正西路","SECT":" ","MAREA":" ","LANE":" ","ALLEY":" ","HOUSE_NO":"３４１號","E_COORD97":169810.79000000001,"N_COORD97":2535390.7400000002,"ADDRESS":"中正西路３４１號","OBJECTID":508661},"geometry":{"x":169810.79000000004,"y":2535390.7399999984}},{"attributes":{"ID":508689,"DIS_CODE":0,"TOWNNAME":"仁德區","LI":"二行里","LIN":"15鄰","STREET":"中正西路","SECT":" ","MAREA":" ","LANE":" ","ALLEY":" ","HOUSE_NO":"３４３號","E_COORD97":169805.47,"N_COORD97":2535390.9900000002,"ADDRESS":"中正西路３４３號","OBJECTID":508662},"geometry":{"x":169805.47000000067,"y":2535390.9900000002}},{"attributes":{"ID":508690,"DIS_CODE":0,"TOWNNAME":"仁德區","LI":"一甲里","LIN":"15鄰","STREET":"忠義路","SECT":" ","MAREA":" ","LANE":" ","ALLEY":" ","HOUSE_NO":"５１號","E_COORD97":174460.17999999999,"N_COORD97":2541681.27,"ADDRESS":"忠義路５１號","OBJECTID":508663},"geometry":{"x":174460.18000000156,"y":2541681.2699999996}},{"attributes":{"ID":508691,"DIS_CODE":0,"TOWNNAME":"仁德區","LI":"一甲里","LIN":"15鄰","STREET":"忠義路","SECT":" ","MAREA":" ","LANE":" ","ALLEY":" ","HOUSE_NO":"７７號","E_COORD97":174386.45000000001,"N_COORD97":2541717.0099999998,"ADDRESS":"忠義路７７號","OBJECTID":508664},"geometry":{"x":174386.45000000112,"y":2541717.0099999998}},{"attributes":{"ID":508692,"DIS_CODE":0,"TOWNNAME":"仁德區","LI":"二行里","LIN":"15鄰","STREET":"中正西路","SECT":" ","MAREA":" ","LANE":" ","ALLEY":" ","HOUSE_NO":"３４５號","E_COORD97":169795.39000000001,"N_COORD97":2535386.7400000002,"ADDRESS":"中正西路３４５號","OBJECTID":508665},"geometry":{"x":169795.39000000153,"y":2535386.7400000002}},{"attributes":{"ID":508693,"DIS_CODE":0,"TOWNNAME":"仁德區","LI":"一甲里","LIN":"15鄰","STREET":"忠義路","SECT":" ","MAREA":" ","LANE":" ","ALLEY":" ","HOUSE_NO":"８１號","E_COORD97":174363.45000000001,"N_COORD97":2541723.0099999998,"ADDRESS":"忠義路８１號","OBJECTID":508666},"geometry":{"x":174363.45000000019,"y":2541723.0100000016}},{"attributes":{"ID":508694,"DIS_CODE":0,"TOWNNAME":"仁德區","LI":"一甲里","LIN":"15鄰","STREET":"忠義路","SECT":" ","MAREA":" ","LANE":" ","ALLEY":" ","HOUSE_NO":"１０１號","E_COORD97":174226.39999999999,"N_COORD97":2541687.52,"ADDRESS":"忠義路１０１號","OBJECTID":508667},"geometry":{"x":174226.40000000037,"y":2541687.5199999977}},{"attributes":{"ID":508695,"DIS_CODE":0,"TOWNNAME":"仁德區","LI":"二行里","LIN":"15鄰","STREET":"中正西路","SECT":" ","MAREA":" ","LANE":" ","ALLEY":" ","HOUSE_NO":"３５８號","E_COORD97":169761.57999999999,"N_COORD97":2535445.75,"ADDRESS":"中正西路３５８號","OBJECTID":508668},"geometry":{"x":169761.58000000007,"y":2535445.7500000019}},{"attributes":{"ID":508696,"DIS_CODE":0,"TOWNNAME":"仁德區","LI":"二行里","LIN":"15鄰","STREET":"中正西路","SECT":" ","MAREA":" ","LANE":" ","ALLEY":" ","HOUSE_NO":"３３５號","E_COORD97":169826.73000000001,"N_COORD97":2535390.2400000002,"ADDRESS":"中正西路３３５號","OBJECTID":508669},"geometry":{"x":169826.73000000138,"y":2535390.2400000002}},{"attributes":{"ID":508697,"DIS_CODE":0,"TOWNNAME":"仁德區","LI":"二行里","LIN":"15鄰","STREET":"行大二街","SECT":" ","MAREA":" ","LANE":" ","ALLEY":" ","HOUSE_NO":"２１號","E_COORD97":169706.01000000001,"N_COORD97":2535309.9900000002,"ADDRESS":"行大二街２１號","OBJECTID":508670},"geometry":{"x":169706.00999999978,"y":2535309.9900000002}},{"attributes":{"ID":508698,"DIS_CODE":0,"TOWNNAME":"仁德區","LI":"二行里","LIN":"15鄰","STREET":"行大二街","SECT":" ","MAREA":" ","LANE":" ","ALLEY":" ","HOUSE_NO":"１１號","E_COORD97":169720.17000000001,"N_COORD97":2535337,"ADDRESS":"行大二街１１號","OBJECTID":508671},"geometry":{"x":169720.16999999993,"y":2535337}},{"attributes":{"ID":508699,"DIS_CODE":0,"TOWNNAME":"仁德區","LI":"二行里","LIN":"15鄰","STREET":"中正西路","SECT":" ","MAREA":" ","LANE":" ","ALLEY":" ","HOUSE_NO":"２６５號","E_COORD97":169965.79000000001,"N_COORD97":2535385.4900000002,"ADDRESS":"中正西路２６５號","OBJECTID":508672},"geometry":{"x":169965.78999999911,"y":2535385.4900000002}},{"attributes":{"ID":508700,"DIS_CODE":0,"TOWNNAME":"新化區","LI":"太平里","LIN":"15鄰","STREET":"中正路","SECT":" ","MAREA":" ","LANE":" ","ALLEY":" ","HOUSE_NO":"５９１號","E_COORD97":178967.01000000001,"N_COORD97":2548773.25,"ADDRESS":"中正路５９１號","OBJECTID":508673},"geometry":{"x":178967.00999999978,"y":2548773.2500000019}},{"attributes":{"ID":508701,"DIS_CODE":0,"TOWNNAME":"新化區","LI":"知義里","LIN":"15鄰","STREET":"中興路","SECT":" ","MAREA":" ","LANE":" ","ALLEY":" ","HOUSE_NO":"４２７號","E_COORD97":180601.41,"N_COORD97":2547511.25,"ADDRESS":"中興路４２７號","OBJECTID":508674},"geometry":{"x":180601.41000000108,"y":2547511.2500000037}},{"attributes":{"ID":508702,"DIS_CODE":0,"TOWNNAME":"新化區","LI":"知義里","LIN":"15鄰","STREET":"中興路","SECT":" ","MAREA":" ","LANE":" ","ALLEY":" ","HOUSE_NO":"４１７號","E_COORD97":180620.81,"N_COORD97":2547502.25,"ADDRESS":"中興路４１７號","OBJECTID":508675},"geometry":{"x":180620.80999999959,"y":2547502.2500000019}},{"attributes":{"ID":508703,"DIS_CODE":0,"TOWNNAME":"東區","LI":"裕聖里","LIN":"15鄰","STREET":"裕信路","SECT":" ","MAREA":" ","LANE":" ","ALLEY":" ","HOUSE_NO":"３３０之１６號","E_COORD97":172521.98000000001,"N_COORD97":2542392.1699999999,"ADDRESS":"裕信路３３０之１６號","OBJECTID":508676},"geometry":{"x":172521.98000000138,"y":2542392.1700000037}},{"attributes":{"ID":508704,"DIS_CODE":0,"TOWNNAME":"東區","LI":"裕聖里","LIN":"15鄰","STREET":"裕信路","SECT":" ","MAREA":" ","LANE":" ","ALLEY":" ","HOUSE_NO":"３３０之１５號","E_COORD97":172525.22,"N_COORD97":2542389.9100000001,"ADDRESS":"裕信路３３０之１５號","OBJECTID":508677},"geometry":{"x":172525.21999999974,"y":2542389.9100000001}},{"attributes":{"ID":508705,"DIS_CODE":0,"TOWNNAME":"東區","LI":"裕聖里","LIN":"15鄰","STREET":"裕信路","SECT":" ","MAREA":" ","LANE":" ","ALLEY":" ","HOUSE_NO":"３３０之１３號","E_COORD97":172530.87,"N_COORD97":2542391.75,"ADDRESS":"裕信路３３０之１３號","OBJECTID":508678},"geometry":{"x":172530.87000000104,"y":2542391.7500000037}},{"attributes":{"ID":508706,"DIS_CODE":0,"TOWNNAME":"東區","LI":"裕聖里","LIN":"15鄰","STREET":"裕信路","SECT":" ","MAREA":" ","LANE":" ","ALLEY":" ","HOUSE_NO":"３３０之１２號","E_COORD97":172534.67000000001,"N_COORD97":2542390.2000000002,"ADDRESS":"裕信路３３０之１２號","OBJECTID":508679},"geometry":{"x":172534.66999999899,"y":2542390.1999999993}},{"attributes":{"ID":508707,"DIS_CODE":0,"TOWNNAME":"東區","LI":"裕聖里","LIN":"15鄰","STREET":"裕信路","SECT":" ","MAREA":" ","LANE":" ","ALLEY":" ","HOUSE_NO":"３３０之１１號","E_COORD97":172538.91,"N_COORD97":2542391.6099999999,"ADDRESS":"裕信路３３０之１１號","OBJECTID":508680},"geometry":{"x":172538.91000000108,"y":2542391.6099999994}},{"attributes":{"ID":508708,"DIS_CODE":0,"TOWNNAME":"東區","LI":"裕聖里","LIN":"15鄰","STREET":"裕信路","SECT":" ","MAREA":" ","LANE":" ","ALLEY":" ","HOUSE_NO":"３３０之２號","E_COORD97":172575.59,"N_COORD97":2542390.48,"ADDRESS":"裕信路３３０之２號","OBJECTID":508681},"geometry":{"x":172575.58999999985,"y":2542390.4799999986}},{"attributes":{"ID":508709,"DIS_CODE":0,"TOWNNAME":"東區","LI":"裕聖里","LIN":"15鄰","STREET":"裕信路","SECT":" ","MAREA":" ","LANE":" ","ALLEY":" ","HOUSE_NO":"３３０之１號","E_COORD97":172578.97,"N_COORD97":2542388.79,"ADDRESS":"裕信路３３０之１號","OBJECTID":508682},"geometry":{"x":172578.97000000067,"y":2542388.790000001}},{"attributes":{"ID":508710,"DIS_CODE":0,"TOWNNAME":"東區","LI":"裕聖里","LIN":"15鄰","STREET":"裕信路","SECT":" ","MAREA":" ","LANE":" ","ALLEY":" ","HOUSE_NO":"３３０號","E_COORD97":172585.60000000001,"N_COORD97":2542389.3500000001,"ADDRESS":"裕信路３３０號","OBJECTID":508683},"geometry":{"x":172585.59999999963,"y":2542389.3499999996}},{"attributes":{"ID":508711,"DIS_CODE":0,"TOWNNAME":"東區","LI":"裕聖里","LIN":"15鄰","STREET":"裕信路","SECT":" ","MAREA":" ","LANE":" ","ALLEY":" ","HOUSE_NO":"３３２之１０號","E_COORD97":172546.23999999999,"N_COORD97":2542376.5099999998,"ADDRESS":"裕信路３３２之１０號","OBJECTID":508684},"geometry":{"x":172546.24000000022,"y":2542376.5100000016}},{"attributes":{"ID":508712,"DIS_CODE":0,"TOWNNAME":"東區","LI":"裕聖里","LIN":"15鄰","STREET":"裕信路","SECT":" ","MAREA":" ","LANE":" ","ALLEY":" ","HOUSE_NO":"３３２之１１號","E_COORD97":172541.45000000001,"N_COORD97":2542378.9100000001,"ADDRESS":"裕信路３３２之１１號","OBJECTID":508685},"geometry":{"x":172541.45000000019,"y":2542378.910000002}},{"attributes":{"ID":508713,"DIS_CODE":0,"TOWNNAME":"東區","LI":"裕聖里","LIN":"15鄰","STREET":"裕信路","SECT":" ","MAREA":" ","LANE":" ","ALLEY":" ","HOUSE_NO":"３３２之１２號","E_COORD97":172536.07999999999,"N_COORD97":2542376.6499999999,"ADDRESS":"裕信路３３２之１２號","OBJECTID":508686},"geometry":{"x":172536.08000000101,"y":2542376.6500000022}},{"attributes":{"ID":508714,"DIS_CODE":0,"TOWNNAME":"東區","LI":"裕聖里","LIN":"15鄰","STREET":"裕信路","SECT":" ","MAREA":" ","LANE":" ","ALLEY":" ","HOUSE_NO":"３３２之１３號","E_COORD97":172531.29000000001,"N_COORD97":2542378.77,"ADDRESS":"裕信路３３２之１３號","OBJECTID":508687},"geometry":{"x":172531.29000000097,"y":2542378.7700000014}},{"attributes":{"ID":508715,"DIS_CODE":0,"TOWNNAME":"東區","LI":"裕聖里","LIN":"15鄰","STREET":"裕信路","SECT":" ","MAREA":" ","LANE":" ","ALLEY":" ","HOUSE_NO":"３３２之１５號","E_COORD97":172525.92999999999,"N_COORD97":2542376.79,"ADDRESS":"裕信路３３２之１５號","OBJECTID":508688},"geometry":{"x":172525.92999999877,"y":2542376.7899999972}},{"attributes":{"ID":508716,"DIS_CODE":0,"TOWNNAME":"東區","LI":"裕聖里","LIN":"15鄰","STREET":"裕信路","SECT":" ","MAREA":" ","LANE":" ","ALLEY":" ","HOUSE_NO":"３３２之１６號","E_COORD97":172521.84,"N_COORD97":2542379.1899999999,"ADDRESS":"裕信路３３２之１６號","OBJECTID":508689},"geometry":{"x":172521.84000000171,"y":2542379.1900000013}},{"attributes":{"ID":508717,"DIS_CODE":0,"TOWNNAME":"東區","LI":"裕聖里","LIN":"15鄰","STREET":"裕信路","SECT":" ","MAREA":" ","LANE":" ","ALLEY":" ","HOUSE_NO":"３３２之１７號","E_COORD97":172518.17000000001,"N_COORD97":2542376.9300000002,"ADDRESS":"裕信路３３２之１７號","OBJECTID":508690},"geometry":{"x":172518.17000000086,"y":2542376.9300000034}},{"attributes":{"ID":508718,"DIS_CODE":0,"TOWNNAME":"東區","LI":"裕聖里","LIN":"15鄰","STREET":"裕信路","SECT":" ","MAREA":" ","LANE":" ","ALLEY":" ","HOUSE_NO":"３３２之９號","E_COORD97":172550.19,"N_COORD97":2542378.77,"ADDRESS":"裕信路３３２之９號","OBJECTID":508691},"geometry":{"x":172550.19000000041,"y":2542378.7700000014}},{"attributes":{"ID":508719,"DIS_CODE":0,"TOWNNAME":"東區","LI":"裕聖里","LIN":"15鄰","STREET":"裕信路","SECT":" ","MAREA":" ","LANE":" ","ALLEY":" ","HOUSE_NO":"３３２之８號","E_COORD97":172554.28,"N_COORD97":2542376.23,"ADDRESS":"裕信路３３２之８號","OBJECTID":508692},"geometry":{"x":172554.28000000026,"y":2542376.2300000023}},{"attributes":{"ID":508720,"DIS_CODE":0,"TOWNNAME":"東區","LI":"裕聖里","LIN":"15鄰","STREET":"裕信路","SECT":" ","MAREA":" ","LANE":" ","ALLEY":" ","HOUSE_NO":"３３２之７號","E_COORD97":172558.38,"N_COORD97":2542378.3500000001,"ADDRESS":"裕信路３３２之７號","OBJECTID":508693},"geometry":{"x":172558.37999999989,"y":2542378.3500000015}},{"attributes":{"ID":508721,"DIS_CODE":0,"TOWNNAME":"東區","LI":"裕聖里","LIN":"15鄰","STREET":"裕信路","SECT":" ","MAREA":" ","LANE":" ","ALLEY":" ","HOUSE_NO":"３３２之６號","E_COORD97":172562.47,"N_COORD97":2542376.0899999999,"ADDRESS":"裕信路３３２之６號","OBJECTID":508694},"geometry":{"x":172562.46999999974,"y":2542376.0900000017}},{"attributes":{"ID":508722,"DIS_CODE":0,"TOWNNAME":"東區","LI":"裕聖里","LIN":"15鄰","STREET":"裕信路","SECT":" ","MAREA":" ","LANE":" ","ALLEY":" ","HOUSE_NO":"３３２之５號","E_COORD97":172567.82999999999,"N_COORD97":2542377.7799999998,"ADDRESS":"裕信路３３２之５號","OBJECTID":508695},"geometry":{"x":172567.83000000194,"y":2542377.7800000012}},{"attributes":{"ID":508723,"DIS_CODE":0,"TOWNNAME":"東區","LI":"裕聖里","LIN":"15鄰","STREET":"裕信路","SECT":" ","MAREA":" ","LANE":" ","ALLEY":" ","HOUSE_NO":"３３２之３號","E_COORD97":172572.76999999999,"N_COORD97":2542375.1000000001,"ADDRESS":"裕信路３３２之３號","OBJECTID":508696},"geometry":{"x":172572.77000000142,"y":2542375.0999999996}},{"attributes":{"ID":508724,"DIS_CODE":0,"TOWNNAME":"東區","LI":"裕聖里","LIN":"15鄰","STREET":"裕信路","SECT":" ","MAREA":" ","LANE":" ","ALLEY":" ","HOUSE_NO":"３３２之２號","E_COORD97":172577.42000000001,"N_COORD97":2542377.3599999999,"ADDRESS":"裕信路３３２之２號","OBJECTID":508697},"geometry":{"x":172577.42000000086,"y":2542377.3600000013}},{"attributes":{"ID":508725,"DIS_CODE":0,"TOWNNAME":"東區","LI":"裕聖里","LIN":"15鄰","STREET":"裕信路","SECT":" ","MAREA":" ","LANE":" ","ALLEY":" ","HOUSE_NO":"３３２之１號","E_COORD97":172581.37,"N_COORD97":2542375.2400000002,"ADDRESS":"裕信路３３２之１號","OBJECTID":508698},"geometry":{"x":172581.37000000104,"y":2542375.2400000039}},{"attributes":{"ID":508726,"DIS_CODE":0,"TOWNNAME":"東區","LI":"裕聖里","LIN":"15鄰","STREET":"裕信路","SECT":" ","MAREA":" ","LANE":" ","ALLEY":" ","HOUSE_NO":"３３２號","E_COORD97":172585.60000000001,"N_COORD97":2542376.79,"ADDRESS":"裕信路３３２號","OBJECTID":508699},"geometry":{"x":172585.59999999963,"y":2542376.7899999972}},{"attributes":{"ID":508727,"DIS_CODE":0,"TOWNNAME":"東區","LI":"崇成里","LIN":"15鄰","STREET":"崇德路","SECT":" ","MAREA":" ","LANE":" ","ALLEY":" ","HOUSE_NO":"６１０號","E_COORD97":170774.76999999999,"N_COORD97":2541266.1400000001,"ADDRESS":"崇德路６１０號","OBJECTID":508700},"geometry":{"x":170774.77000000048,"y":2541266.1400000006}},{"attributes":{"ID":508728,"DIS_CODE":0,"TOWNNAME":"東區","LI":"東光里","LIN":"15鄰","STREET":"莊敬路","SECT":" ","MAREA":" ","LANE":" ","ALLEY":" ","HOUSE_NO":"５５號","E_COORD97":171330.63,"N_COORD97":2543805.3599999999,"ADDRESS":"莊敬路５５號","OBJECTID":508701},"geometry":{"x":171330.62999999989,"y":2543805.3600000013}},{"attributes":{"ID":508729,"DIS_CODE":0,"TOWNNAME":"東區","LI":"東光里","LIN":"15鄰","STREET":"東光路","SECT":"一段","MAREA":" ","LANE":" ","ALLEY":" ","HOUSE_NO":"１０６號","E_COORD97":171204.38,"N_COORD97":2543838.6099999999,"ADDRESS":"東光路一段１０６號","OBJECTID":508702},"geometry":{"x":171204.38000000175,"y":2543838.6099999994}},{"attributes":{"ID":508730,"DIS_CODE":0,"TOWNNAME":"東區","LI":"東光里","LIN":"15鄰","STREET":"東光路","SECT":"一段","MAREA":" ","LANE":" ","ALLEY":" ","HOUSE_NO":"１０８號","E_COORD97":171205.16,"N_COORD97":2543844.04,"ADDRESS":"東光路一段１０８號","OBJECTID":508703},"geometry":{"x":171205.16000000108,"y":2543844.040000001}},{"attributes":{"ID":508731,"DIS_CODE":0,"TOWNNAME":"東區","LI":"東光里","LIN":"15鄰","STREET":"東光路","SECT":"一段","MAREA":" ","LANE":" ","ALLEY":" ","HOUSE_NO":"１１０號","E_COORD97":171205.42000000001,"N_COORD97":2543849.48,"ADDRESS":"東光路一段１１０號","OBJECTID":508704},"geometry":{"x":171205.41999999993,"y":2543849.4800000023}},{"attributes":{"ID":508732,"DIS_CODE":0,"TOWNNAME":"東區","LI":"東光里","LIN":"15鄰","STREET":"東光路","SECT":"一段","MAREA":" ","LANE":" ","ALLEY":" ","HOUSE_NO":"１１２號","E_COORD97":171206.70999999999,"N_COORD97":2543855.9500000002,"ADDRESS":"東光路一段１１２號","OBJECTID":508705},"geometry":{"x":171206.70999999996,"y":2543855.9500000011}},{"attributes":{"ID":508733,"DIS_CODE":0,"TOWNNAME":"東區","LI":"東光里","LIN":"15鄰","STREET":"東光路","SECT":"一段","MAREA":" ","LANE":" ","ALLEY":" ","HOUSE_NO":"１１６號","E_COORD97":171206.70999999999,"N_COORD97":2543861.3799999999,"ADDRESS":"東光路一段１１６號","OBJECTID":508706},"geometry":{"x":171206.70999999996,"y":2543861.3800000027}},{"attributes":{"ID":508734,"DIS_CODE":0,"TOWNNAME":"東區","LI":"東光里","LIN":"15鄰","STREET":"東光路","SECT":"一段","MAREA":" ","LANE":" ","ALLEY":" ","HOUSE_NO":"１１８號","E_COORD97":171208.01000000001,"N_COORD97":2543866.8199999998,"ADDRESS":"東光路一段１１８號","OBJECTID":508707},"geometry":{"x":171208.00999999978,"y":2543866.8200000022}},{"attributes":{"ID":508735,"DIS_CODE":0,"TOWNNAME":"東區","LI":"東光里","LIN":"15鄰","STREET":"東光路","SECT":"一段","MAREA":" ","LANE":" ","ALLEY":" ","HOUSE_NO":"１２０號","E_COORD97":171208.01000000001,"N_COORD97":2543872.25,"ADDRESS":"東光路一段１２０號","OBJECTID":508708},"geometry":{"x":171208.00999999978,"y":2543872.25}},{"attributes":{"ID":508736,"DIS_CODE":0,"TOWNNAME":"東區","LI":"東光里","LIN":"15鄰","STREET":"東光路","SECT":"一段","MAREA":" ","LANE":" ","ALLEY":" ","HOUSE_NO":"１２２號","E_COORD97":171208.53,"N_COORD97":2543877.6899999999,"ADDRESS":"東光路一段１２２號","OBJECTID":508709},"geometry":{"x":171208.53000000026,"y":2543877.6900000013}},{"attributes":{"ID":508737,"DIS_CODE":0,"TOWNNAME":"東區","LI":"崇善里","LIN":"15鄰","STREET":"崇善路","SECT":" ","MAREA":" ","LANE":" ","ALLEY":" ","HOUSE_NO":"５８１號","E_COORD97":171048.47,"N_COORD97":2541411.3599999999,"ADDRESS":"崇善路５８１號","OBJECTID":508710},"geometry":{"x":171048.46999999974,"y":2541411.3600000013}},{"attributes":{"ID":508738,"DIS_CODE":0,"TOWNNAME":"東區","LI":"和平里","LIN":"15鄰","STREET":"文化三街","SECT":" ","MAREA":" ","LANE":" ","ALLEY":" ","HOUSE_NO":"１０６號","E_COORD97":171359.26999999999,"N_COORD97":2541864.8399999999,"ADDRESS":"文化三街１０６號","OBJECTID":508711},"geometry":{"x":171359.27000000048,"y":2541864.8399999999}},{"attributes":{"ID":508739,"DIS_CODE":0,"TOWNNAME":"東區","LI":"和平里","LIN":"15鄰","STREET":"文化三街","SECT":" ","MAREA":" ","LANE":" ","ALLEY":" ","HOUSE_NO":"１０２號","E_COORD97":171353.38,"N_COORD97":2541864.02,"ADDRESS":"文化三街１０２號","OBJECTID":508712},"geometry":{"x":171353.37999999896,"y":2541864.0200000033}},{"attributes":{"ID":508740,"DIS_CODE":0,"TOWNNAME":"東區","LI":"和平里","LIN":"15鄰","STREET":"文化三街","SECT":" ","MAREA":" ","LANE":" ","ALLEY":" ","HOUSE_NO":"１００號","E_COORD97":171346.34,"N_COORD97":2541863.3700000001,"ADDRESS":"文化三街１００號","OBJECTID":508713},"geometry":{"x":171346.33999999985,"y":2541863.3700000048}},{"attributes":{"ID":508741,"DIS_CODE":0,"TOWNNAME":"東區","LI":"和平里","LIN":"15鄰","STREET":"文化三街","SECT":" ","MAREA":" ","LANE":" ","ALLEY":" ","HOUSE_NO":"９８號","E_COORD97":171341.10000000001,"N_COORD97":2541862.8799999999,"ADDRESS":"文化三街９８號","OBJECTID":508714},"geometry":{"x":171341.09999999963,"y":2541862.879999999}},{"attributes":{"ID":508742,"DIS_CODE":0,"TOWNNAME":"東區","LI":"和平里","LIN":"15鄰","STREET":"文化三街","SECT":" ","MAREA":" ","LANE":" ","ALLEY":" ","HOUSE_NO":"９６號","E_COORD97":171334.70999999999,"N_COORD97":2541862.3900000001,"ADDRESS":"文化三街９６號","OBJECTID":508715},"geometry":{"x":171334.71000000089,"y":2541862.3899999987}},{"attributes":{"ID":508743,"DIS_CODE":0,"TOWNNAME":"東區","LI":"和平里","LIN":"15鄰","STREET":"文化三街","SECT":" ","MAREA":" ","LANE":" ","ALLEY":" ","HOUSE_NO":"９２號","E_COORD97":171329.14999999999,"N_COORD97":2541862.0600000001,"ADDRESS":"文化三街９２號","OBJECTID":508716},"geometry":{"x":171329.1500000013,"y":2541862.0600000024}},{"attributes":{"ID":508744,"DIS_CODE":0,"TOWNNAME":"東區","LI":"和平里","LIN":"15鄰","STREET":"文化三街","SECT":" ","MAREA":" ","LANE":" ","ALLEY":" ","HOUSE_NO":"９０號","E_COORD97":171322.92000000001,"N_COORD97":2541861.2400000002,"ADDRESS":"文化三街９０號","OBJECTID":508717},"geometry":{"x":171322.92000000086,"y":2541861.2400000021}},{"attributes":{"ID":508745,"DIS_CODE":0,"TOWNNAME":"東區","LI":"和平里","LIN":"15鄰","STREET":"文化三街","SECT":" ","MAREA":" ","LANE":" ","ALLEY":" ","HOUSE_NO":"８８號","E_COORD97":171316.70000000001,"N_COORD97":2541861.0800000001,"ADDRESS":"文化三街８８號","OBJECTID":508718},"geometry":{"x":171316.70000000112,"y":2541861.0800000019}},{"attributes":{"ID":508746,"DIS_CODE":0,"TOWNNAME":"東區","LI":"和平里","LIN":"15鄰","STREET":"文化二街","SECT":" ","MAREA":" ","LANE":" ","ALLEY":" ","HOUSE_NO":"１６２號","E_COORD97":171384.32000000001,"N_COORD97":2541851.5800000001,"ADDRESS":"文化二街１６２號","OBJECTID":508719},"geometry":{"x":171384.3200000003,"y":2541851.5800000019}},{"attributes":{"ID":508747,"DIS_CODE":0,"TOWNNAME":"東區","LI":"和平里","LIN":"15鄰","STREET":"文化二街","SECT":" ","MAREA":" ","LANE":" ","ALLEY":" ","HOUSE_NO":"１６８號","E_COORD97":171382.35999999999,"N_COORD97":2541835.5699999998,"ADDRESS":"文化二街１６８號","OBJECTID":508720},"geometry":{"x":171382.36000000034,"y":2541835.5700000022}},{"attributes":{"ID":508748,"DIS_CODE":0,"TOWNNAME":"東區","LI":"和平里","LIN":"15鄰","STREET":"文化二街","SECT":" ","MAREA":" ","LANE":" ","ALLEY":" ","HOUSE_NO":"１６６號","E_COORD97":171384.16,"N_COORD97":2541847.4900000002,"ADDRESS":"文化二街１６６號","OBJECTID":508721},"geometry":{"x":171384.16000000201,"y":2541847.4900000002}},{"attributes":{"ID":508749,"DIS_CODE":0,"TOWNNAME":"東區","LI":"和平里","LIN":"15鄰","STREET":"文化二街","SECT":" ","MAREA":" ","LANE":" ","ALLEY":" ","HOUSE_NO":"１６６之１號","E_COORD97":171368.28,"N_COORD97":2541846.8300000001,"ADDRESS":"文化二街１６６之１號","OBJECTID":508722},"geometry":{"x":171368.28000000119,"y":2541846.8300000019}},{"attributes":{"ID":508750,"DIS_CODE":0,"TOWNNAME":"東區","LI":"和平里","LIN":"15鄰","STREET":"文化二街","SECT":" ","MAREA":" ","LANE":" ","ALLEY":" ","HOUSE_NO":"１６６之２號","E_COORD97":171363.85999999999,"N_COORD97":2541846.0099999998,"ADDRESS":"文化二街１６６之２號","OBJECTID":508723},"geometry":{"x":171363.86000000034,"y":2541846.0099999998}},{"attributes":{"ID":508751,"DIS_CODE":0,"TOWNNAME":"東區","LI":"和平里","LIN":"15鄰","STREET":"文化二街","SECT":" ","MAREA":" ","LANE":" ","ALLEY":" ","HOUSE_NO":"１６６之３號","E_COORD97":171358.29000000001,"N_COORD97":2541845.52,"ADDRESS":"文化二街１６６之３號","OBJECTID":508724},"geometry":{"x":171358.29000000097,"y":2541845.5199999996}},{"attributes":{"ID":508752,"DIS_CODE":0,"TOWNNAME":"東區","LI":"和平里","LIN":"15鄰","STREET":"文化二街","SECT":" ","MAREA":" ","LANE":" ","ALLEY":" ","HOUSE_NO":"１６６之５號","E_COORD97":171353.38,"N_COORD97":2541845.52,"ADDRESS":"文化二街１６６之５號","OBJECTID":508725},"geometry":{"x":171353.37999999896,"y":2541845.5199999996}},{"attributes":{"ID":508753,"DIS_CODE":0,"TOWNNAME":"東區","LI":"和平里","LIN":"15鄰","STREET":"文化二街","SECT":" ","MAREA":" ","LANE":" ","ALLEY":" ","HOUSE_NO":"１６６之６號","E_COORD97":171347.64999999999,"N_COORD97":2541845.3599999999,"ADDRESS":"文化二街１６６之６號","OBJECTID":508726},"geometry":{"x":171347.6500000013,"y":2541845.3600000013}},{"attributes":{"ID":508754,"DIS_CODE":0,"TOWNNAME":"東區","LI":"和平里","LIN":"15鄰","STREET":"文化二街","SECT":" ","MAREA":" ","LANE":" ","ALLEY":" ","HOUSE_NO":"１６６之７號","E_COORD97":171342.73000000001,"N_COORD97":2541845.0299999998,"ADDRESS":"文化二街１６６之７號","OBJECTID":508727},"geometry":{"x":171342.73000000045,"y":2541845.0299999993}},{"attributes":{"ID":508755,"DIS_CODE":0,"TOWNNAME":"東區","LI":"和平里","LIN":"15鄰","STREET":"文化二街","SECT":" ","MAREA":" ","LANE":" ","ALLEY":" ","HOUSE_NO":"１６６之８號","E_COORD97":171337.5,"N_COORD97":2541844.7000000002,"ADDRESS":"文化二街１６６之８號","OBJECTID":508728},"geometry":{"x":171337.50000000186,"y":2541844.6999999993}},{"attributes":{"ID":508756,"DIS_CODE":0,"TOWNNAME":"東區","LI":"和平里","LIN":"15鄰","STREET":"文化二街","SECT":" ","MAREA":" ","LANE":" ","ALLEY":" ","HOUSE_NO":"１６６之９號","E_COORD97":171332.09,"N_COORD97":2541844.21,"ADDRESS":"文化二街１６６之９號","OBJECTID":508729},"geometry":{"x":171332.09000000078,"y":2541844.2100000028}},{"attributes":{"ID":508757,"DIS_CODE":0,"TOWNNAME":"東區","LI":"和平里","LIN":"15鄰","STREET":"文化二街","SECT":" ","MAREA":" ","LANE":" ","ALLEY":" ","HOUSE_NO":"１６６之１０號","E_COORD97":171327.01999999999,"N_COORD97":2541843.5600000001,"ADDRESS":"文化二街１６６之１０號","OBJECTID":508730},"geometry":{"x":171327.02000000048,"y":2541843.5600000005}},{"attributes":{"ID":508758,"DIS_CODE":0,"TOWNNAME":"東區","LI":"和平里","LIN":"15鄰","STREET":"文化二街","SECT":" ","MAREA":" ","LANE":" ","ALLEY":" ","HOUSE_NO":"１６６之１１號","E_COORD97":171321.12,"N_COORD97":2541843.3900000001,"ADDRESS":"文化二街１６６之１１號","OBJECTID":508731},"geometry":{"x":171321.12000000011,"y":2541843.3900000025}},{"attributes":{"ID":508759,"DIS_CODE":0,"TOWNNAME":"東區","LI":"和平里","LIN":"15鄰","STREET":"文化二街","SECT":" ","MAREA":" ","LANE":" ","ALLEY":" ","HOUSE_NO":"１６６之１２號","E_COORD97":171316.04999999999,"N_COORD97":2541842.7400000002,"ADDRESS":"文化二街１６６之１２號","OBJECTID":508732},"geometry":{"x":171316.04999999981,"y":2541842.7400000039}},{"attributes":{"ID":508760,"DIS_CODE":0,"TOWNNAME":"東區","LI":"和平里","LIN":"15鄰","STREET":"文化二街","SECT":" ","MAREA":" ","LANE":" ","ALLEY":" ","HOUSE_NO":"１６６之１３號","E_COORD97":171310.81,"N_COORD97":2541842.5800000001,"ADDRESS":"文化二街１６６之１３號","OBJECTID":508733},"geometry":{"x":171310.80999999959,"y":2541842.5800000001}},{"attributes":{"ID":508761,"DIS_CODE":0,"TOWNNAME":"東區","LI":"和平里","LIN":"15鄰","STREET":"文化二街","SECT":" ","MAREA":" ","LANE":" ","ALLEY":" ","HOUSE_NO":"１６６之１５號","E_COORD97":171305.73000000001,"N_COORD97":2541842.5800000001,"ADDRESS":"文化二街１６６之１５號","OBJECTID":508734},"geometry":{"x":171305.73000000045,"y":2541842.5800000001}},{"attributes":{"ID":508762,"DIS_CODE":0,"TOWNNAME":"東區","LI":"和平里","LIN":"15鄰","STREET":"文化二街","SECT":" ","MAREA":" ","LANE":" ","ALLEY":" ","HOUSE_NO":"１６６之１６號","E_COORD97":171300.32999999999,"N_COORD97":2541842.0800000001,"ADDRESS":"文化二街１６６之１６號","OBJECTID":508735},"geometry":{"x":171300.33000000101,"y":2541842.0800000001}},{"attributes":{"ID":508763,"DIS_CODE":0,"TOWNNAME":"西港區","LI":"慶安里","LIN":"15鄰","STREET":"慶安路","SECT":" ","MAREA":" ","LANE":" ","ALLEY":" ","HOUSE_NO":"１５８號","E_COORD97":167985.38,"N_COORD97":2557893.7799999998,"ADDRESS":"慶安路１５８號","OBJECTID":508736},"geometry":{"x":167985.38000000082,"y":2557893.7799999993}},{"attributes":{"ID":508764,"DIS_CODE":0,"TOWNNAME":"東區","LI":"和平里","LIN":"15鄰","STREET":"文化二街","SECT":" ","MAREA":" ","LANE":" ","ALLEY":" ","HOUSE_NO":"１６８之１號","E_COORD97":171366.14999999999,"N_COORD97":2541835.8599999999,"ADDRESS":"文化二街１６８之１號","OBJECTID":508737},"geometry":{"x":171366.1500000013,"y":2541835.8600000013}},{"attributes":{"ID":508765,"DIS_CODE":0,"TOWNNAME":"東區","LI":"和平里","LIN":"15鄰","STREET":"文化二街","SECT":" ","MAREA":" ","LANE":" ","ALLEY":" ","HOUSE_NO":"１６８之２號","E_COORD97":171358.45000000001,"N_COORD97":2541835.4100000001,"ADDRESS":"文化二街１６８之２號","OBJECTID":508738},"geometry":{"x":171358.45000000205,"y":2541835.410000002}},{"attributes":{"ID":508766,"DIS_CODE":0,"TOWNNAME":"東區","LI":"和平里","LIN":"15鄰","STREET":"文化二街","SECT":" ","MAREA":" ","LANE":" ","ALLEY":" ","HOUSE_NO":"１６８之３號","E_COORD97":171348.63,"N_COORD97":2541835.21,"ADDRESS":"文化二街１６８之３號","OBJECTID":508739},"geometry":{"x":171348.63000000082,"y":2541835.2100000028}},{"attributes":{"ID":508767,"DIS_CODE":0,"TOWNNAME":"東區","LI":"和平里","LIN":"15鄰","STREET":"文化二街","SECT":" ","MAREA":" ","LANE":" ","ALLEY":" ","HOUSE_NO":"１６８之５號","E_COORD97":171343.54999999999,"N_COORD97":2541835.04,"ADDRESS":"文化二街１６８之５號","OBJECTID":508740},"geometry":{"x":171343.54999999981,"y":2541835.0399999991}},{"attributes":{"ID":508768,"DIS_CODE":0,"TOWNNAME":"東區","LI":"和平里","LIN":"15鄰","STREET":"文化二街","SECT":" ","MAREA":" ","LANE":" ","ALLEY":" ","HOUSE_NO":"１６８之６號","E_COORD97":171337.82000000001,"N_COORD97":2541833.8999999999,"ADDRESS":"文化二街１６８之６號","OBJECTID":508741},"geometry":{"x":171337.82000000123,"y":2541833.9000000004}},{"attributes":{"ID":508769,"DIS_CODE":0,"TOWNNAME":"東區","LI":"和平里","LIN":"15鄰","STREET":"文化二街","SECT":" ","MAREA":" ","LANE":" ","ALLEY":" ","HOUSE_NO":"１６８之７號","E_COORD97":171332.75,"N_COORD97":2541832.75,"ADDRESS":"文化二街１６８之７號","OBJECTID":508742},"geometry":{"x":171332.75000000093,"y":2541832.7500000019}},{"attributes":{"ID":508770,"DIS_CODE":0,"TOWNNAME":"東區","LI":"和平里","LIN":"15鄰","STREET":"文化二街","SECT":" ","MAREA":" ","LANE":" ","ALLEY":" ","HOUSE_NO":"１６８之８號","E_COORD97":171328,"N_COORD97":2541832.2599999998,"ADDRESS":"文化二街１６８之８號","OBJECTID":508743},"geometry":{"x":171328.00000000093,"y":2541832.2600000035}},{"attributes":{"ID":508771,"DIS_CODE":0,"TOWNNAME":"東區","LI":"和平里","LIN":"15鄰","STREET":"文化二街","SECT":" ","MAREA":" ","LANE":" ","ALLEY":" ","HOUSE_NO":"１６８之９號","E_COORD97":171322.60000000001,"N_COORD97":2541831.1099999999,"ADDRESS":"文化二街１６８之９號","OBJECTID":508744},"geometry":{"x":171322.59999999963,"y":2541831.1099999994}},{"attributes":{"ID":508772,"DIS_CODE":0,"TOWNNAME":"東區","LI":"和平里","LIN":"15鄰","STREET":"文化二街","SECT":" ","MAREA":" ","LANE":" ","ALLEY":" ","HOUSE_NO":"１６８之１０號","E_COORD97":171317.51999999999,"N_COORD97":2541831.1099999999,"ADDRESS":"文化二街１６８之１０號","OBJECTID":508745},"geometry":{"x":171317.51999999955,"y":2541831.1099999994}},{"attributes":{"ID":508773,"DIS_CODE":0,"TOWNNAME":"東區","LI":"和平里","LIN":"15鄰","STREET":"文化二街","SECT":" ","MAREA":" ","LANE":" ","ALLEY":" ","HOUSE_NO":"１６８之１１號","E_COORD97":171312.12,"N_COORD97":2541830.6200000001,"ADDRESS":"文化二街１６８之１１號","OBJECTID":508746},"geometry":{"x":171312.12000000104,"y":2541830.620000001}},{"attributes":{"ID":508774,"DIS_CODE":0,"TOWNNAME":"東區","LI":"和平里","LIN":"15鄰","STREET":"文化二街","SECT":" ","MAREA":" ","LANE":" ","ALLEY":" ","HOUSE_NO":"１６８之１２號","E_COORD97":171306.72,"N_COORD97":2541830.9500000002,"ADDRESS":"文化二街１６８之１２號","OBJECTID":508747},"geometry":{"x":171306.71999999974,"y":2541830.9500000011}},{"attributes":{"ID":508775,"DIS_CODE":0,"TOWNNAME":"東區","LI":"和平里","LIN":"15鄰","STREET":"文化二街","SECT":" ","MAREA":" ","LANE":" ","ALLEY":" ","HOUSE_NO":"１６８之１３號","E_COORD97":171301.64000000001,"N_COORD97":2541829.48,"ADDRESS":"文化二街１６８之１３號","OBJECTID":508748},"geometry":{"x":171301.63999999966,"y":2541829.4800000023}},{"attributes":{"ID":508776,"DIS_CODE":0,"TOWNNAME":"東區","LI":"崇成里","LIN":"15鄰","STREET":"崇明路","SECT":" ","MAREA":" ","LANE":" ","ALLEY":" ","HOUSE_NO":"５６７號","E_COORD97":170623.81,"N_COORD97":2541261.23,"ADDRESS":"崇明路５６７號","OBJECTID":508749},"geometry":{"x":170623.81000000052,"y":2541261.2300000023}},{"attributes":{"ID":508777,"DIS_CODE":0,"TOWNNAME":"東區","LI":"崇成里","LIN":"15鄰","STREET":"崇明路","SECT":" ","MAREA":" ","LANE":" ","ALLEY":" ","HOUSE_NO":"５６９號","E_COORD97":170623.64999999999,"N_COORD97":2541255.6600000001,"ADDRESS":"崇明路５６９號","OBJECTID":508750},"geometry":{"x":170623.6500000013,"y":2541255.6600000001}},{"attributes":{"ID":508778,"DIS_CODE":0,"TOWNNAME":"東區","LI":"和平里","LIN":"15鄰","STREET":"文化六街","SECT":" ","MAREA":" ","LANE":" ","ALLEY":" ","HOUSE_NO":"７１號","E_COORD97":171342.23999999999,"N_COORD97":2541720.9300000002,"ADDRESS":"文化六街７１號","OBJECTID":508751},"geometry":{"x":171342.24000000022,"y":2541720.9299999997}},{"attributes":{"ID":508779,"DIS_CODE":0,"TOWNNAME":"東區","LI":"和平里","LIN":"15鄰","STREET":"文化六街","SECT":" ","MAREA":" ","LANE":" ","ALLEY":" ","HOUSE_NO":"７３號","E_COORD97":171347.32000000001,"N_COORD97":2541721.25,"ADDRESS":"文化六街７３號","OBJECTID":508752},"geometry":{"x":171347.3200000003,"y":2541721.2500000019}},{"attributes":{"ID":508780,"DIS_CODE":0,"TOWNNAME":"東區","LI":"崇德里","LIN":"15鄰","STREET":"崇明十三街","SECT":" ","MAREA":" ","LANE":" ","ALLEY":" ","HOUSE_NO":"１６號","E_COORD97":170489.92999999999,"N_COORD97":2541595.3999999999,"ADDRESS":"崇明十三街１６號","OBJECTID":508753},"geometry":{"x":170489.9299999997,"y":2541595.4000000022}},{"attributes":{"ID":508781,"DIS_CODE":0,"TOWNNAME":"東區","LI":"崇明里","LIN":"15鄰","STREET":"崇明路","SECT":" ","MAREA":" ","LANE":" ","ALLEY":" ","HOUSE_NO":"５０６號","E_COORD97":170404.35999999999,"N_COORD97":2541570.5800000001,"ADDRESS":"崇明路５０６號","OBJECTID":508754},"geometry":{"x":170404.36000000034,"y":2541570.5800000019}},{"attributes":{"ID":508782,"DIS_CODE":0,"TOWNNAME":"東區","LI":"和平里","LIN":"15鄰","STREET":"文化二街","SECT":" ","MAREA":" ","LANE":" ","ALLEY":" ","HOUSE_NO":"１２５號","E_COORD97":171402.19,"N_COORD97":2541963.3900000001,"ADDRESS":"文化二街１２５號","OBJECTID":508755},"geometry":{"x":171402.19000000041,"y":2541963.3900000006}},{"attributes":{"ID":508783,"DIS_CODE":0,"TOWNNAME":"東區","LI":"和平里","LIN":"15鄰","STREET":"文化二街","SECT":" ","MAREA":" ","LANE":" ","ALLEY":" ","HOUSE_NO":"１２７號","E_COORD97":171402.35000000001,"N_COORD97":2541957.6600000001,"ADDRESS":"文化二街１２７號","OBJECTID":508756},"geometry":{"x":171402.34999999963,"y":2541957.6600000001}},{"attributes":{"ID":508784,"DIS_CODE":0,"TOWNNAME":"東區","LI":"和平里","LIN":"15鄰","STREET":"文化二街","SECT":" ","MAREA":" ","LANE":" ","ALLEY":" ","HOUSE_NO":"１２９號","E_COORD97":171402.51000000001,"N_COORD97":2541951.4399999999,"ADDRESS":"文化二街１２９號","OBJECTID":508757},"geometry":{"x":171402.50999999978,"y":2541951.4399999995}},{"attributes":{"ID":508785,"DIS_CODE":0,"TOWNNAME":"東區","LI":"和平里","LIN":"15鄰","STREET":"文化二街","SECT":" ","MAREA":" ","LANE":" ","ALLEY":" ","HOUSE_NO":"１３１號","E_COORD97":171403.17000000001,"N_COORD97":2541945.71,"ADDRESS":"文化二街１３１號","OBJECTID":508758},"geometry":{"x":171403.17000000086,"y":2541945.7100000046}},{"attributes":{"ID":508786,"DIS_CODE":0,"TOWNNAME":"東區","LI":"和平里","LIN":"15鄰","STREET":"文化二街","SECT":" ","MAREA":" ","LANE":" ","ALLEY":" ","HOUSE_NO":"１３３號","E_COORD97":171402.84,"N_COORD97":2541939.6499999999,"ADDRESS":"文化二街１３３號","OBJECTID":508759},"geometry":{"x":171402.84000000171,"y":2541939.6500000022}},{"attributes":{"ID":508787,"DIS_CODE":0,"TOWNNAME":"東區","LI":"和平里","LIN":"15鄰","STREET":"文化二街","SECT":" ","MAREA":" ","LANE":" ","ALLEY":" ","HOUSE_NO":"１３５號","E_COORD97":171403.5,"N_COORD97":2541934.8999999999,"ADDRESS":"文化二街１３５號","OBJECTID":508760},"geometry":{"x":171403.5,"y":2541934.9000000022}},{"attributes":{"ID":508788,"DIS_CODE":0,"TOWNNAME":"東區","LI":"和平里","LIN":"15鄰","STREET":"文化二街","SECT":" ","MAREA":" ","LANE":" ","ALLEY":" ","HOUSE_NO":"１３７號","E_COORD97":171402.84,"N_COORD97":2541929.5,"ADDRESS":"文化二街１３７號","OBJECTID":508761},"geometry":{"x":171402.84000000171,"y":2541929.5000000019}},{"attributes":{"ID":508789,"DIS_CODE":0,"TOWNNAME":"東區","LI":"和平里","LIN":"15鄰","STREET":"文化二街","SECT":" ","MAREA":" ","LANE":" ","ALLEY":" ","HOUSE_NO":"１３９號","E_COORD97":171402.67999999999,"N_COORD97":2541923.9399999999,"ADDRESS":"文化二街１３９號","OBJECTID":508762},"geometry":{"x":171402.68000000063,"y":2541923.9399999995}},{"attributes":{"ID":508790,"DIS_CODE":0,"TOWNNAME":"東區","LI":"崇明里","LIN":"15鄰","STREET":"崇明路","SECT":" ","MAREA":" ","LANE":" ","ALLEY":" ","HOUSE_NO":"５２６號","E_COORD97":170440.10000000001,"N_COORD97":2541535.9399999999,"ADDRESS":"崇明路５２６號","OBJECTID":508763},"geometry":{"x":170440.10000000056,"y":2541535.9400000013}},{"attributes":{"ID":508791,"DIS_CODE":0,"TOWNNAME":"東區","LI":"崇明里","LIN":"15鄰","STREET":"崇明路","SECT":" ","MAREA":" ","LANE":" ","ALLEY":" ","HOUSE_NO":"５２８號","E_COORD97":170443.29999999999,"N_COORD97":2541533.1600000001,"ADDRESS":"崇明路５２８號","OBJECTID":508764},"geometry":{"x":170443.29999999981,"y":2541533.1600000001}},{"attributes":{"ID":508792,"DIS_CODE":0,"TOWNNAME":"東區","LI":"崇明里","LIN":"15鄰","STREET":"崇明路","SECT":" ","MAREA":" ","LANE":" ","ALLEY":" ","HOUSE_NO":"５３０號","E_COORD97":170445.87,"N_COORD97":2541530.1699999999,"ADDRESS":"崇明路５３０號","OBJECTID":508765},"geometry":{"x":170445.87000000104,"y":2541530.1699999999}},{"attributes":{"ID":508793,"DIS_CODE":0,"TOWNNAME":"東區","LI":"崇明里","LIN":"15鄰","STREET":"崇明路","SECT":" ","MAREA":" ","LANE":" ","ALLEY":" ","HOUSE_NO":"５３２號","E_COORD97":170448.85999999999,"N_COORD97":2541527.3900000001,"ADDRESS":"崇明路５３２號","OBJECTID":508766},"geometry":{"x":170448.8600000022,"y":2541527.3900000025}},{"attributes":{"ID":508794,"DIS_CODE":0,"TOWNNAME":"東區","LI":"崇明里","LIN":"15鄰","STREET":"崇明路","SECT":" ","MAREA":" ","LANE":" ","ALLEY":" ","HOUSE_NO":"５３６號","E_COORD97":170452.92999999999,"N_COORD97":2541524.6099999999,"ADDRESS":"崇明路５３６號","OBJECTID":508767},"geometry":{"x":170452.93000000156,"y":2541524.6100000013}},{"attributes":{"ID":508795,"DIS_CODE":0,"TOWNNAME":"東區","LI":"崇明里","LIN":"15鄰","STREET":"崇明路","SECT":" ","MAREA":" ","LANE":" ","ALLEY":" ","HOUSE_NO":"５５２號","E_COORD97":170457.20000000001,"N_COORD97":2541521.1800000002,"ADDRESS":"崇明路５５２號","OBJECTID":508768},"geometry":{"x":170457.20000000112,"y":2541521.1800000016}},{"attributes":{"ID":508796,"DIS_CODE":0,"TOWNNAME":"西港區","LI":"慶安里","LIN":"15鄰","STREET":"慶安路","SECT":" ","MAREA":" ","LANE":" ","ALLEY":" ","HOUSE_NO":"１４８號","E_COORD97":168006.79999999999,"N_COORD97":2557895.8700000001,"ADDRESS":"慶安路１４８號","OBJECTID":508769},"geometry":{"x":168006.80000000075,"y":2557895.870000001}},{"attributes":{"ID":508797,"DIS_CODE":0,"TOWNNAME":"西港區","LI":"慶安里","LIN":"15鄰","STREET":"慶安路","SECT":" ","MAREA":" ","LANE":" ","ALLEY":" ","HOUSE_NO":"１５０號","E_COORD97":168002.62,"N_COORD97":2557895.3799999999,"ADDRESS":"慶安路１５０號","OBJECTID":508770},"geometry":{"x":168002.62000000104,"y":2557895.3800000008}},{"attributes":{"ID":508798,"DIS_CODE":0,"TOWNNAME":"西港區","LI":"慶安里","LIN":"15鄰","STREET":"慶安路","SECT":" ","MAREA":" ","LANE":" ","ALLEY":" ","HOUSE_NO":"１５２號","E_COORD97":167998.32000000001,"N_COORD97":2557895.1499999999,"ADDRESS":"慶安路１５２號","OBJECTID":508771},"geometry":{"x":167998.32000000123,"y":2557895.1500000022}},{"attributes":{"ID":508799,"DIS_CODE":0,"TOWNNAME":"南區","LI":"彰南里","LIN":"15鄰","STREET":"新信路","SECT":" ","MAREA":" ","LANE":" ","ALLEY":" ","HOUSE_NO":"１３之１號","E_COORD97":165734.03,"N_COORD97":2541480.2200000002,"ADDRESS":"新信路１３之１號","OBJECTID":508772},"geometry":{"x":165734.03000000119,"y":2541480.2200000007}},{"attributes":{"ID":508800,"DIS_CODE":0,"TOWNNAME":"東區","LI":"大福里","LIN":"15鄰","STREET":"立德五路","SECT":" ","MAREA":" ","LANE":" ","ALLEY":" ","HOUSE_NO":"１５號","E_COORD97":169527.85000000001,"N_COORD97":2541840.3100000001,"ADDRESS":"立德五路１５號","OBJECTID":508773},"geometry":{"x":169527.85000000056,"y":2541840.3100000024}},{"attributes":{"ID":508801,"DIS_CODE":0,"TOWNNAME":"東區","LI":"大福里","LIN":"15鄰","STREET":"立德五路","SECT":" ","MAREA":" ","LANE":" ","ALLEY":" ","HOUSE_NO":"１７號","E_COORD97":169531.29000000001,"N_COORD97":2541841.4500000002,"ADDRESS":"立德五路１７號","OBJECTID":508774},"geometry":{"x":169531.29000000004,"y":2541841.4500000011}},{"attributes":{"ID":508802,"DIS_CODE":0,"TOWNNAME":"東區","LI":"大福里","LIN":"15鄰","STREET":"立德六路","SECT":" ","MAREA":" ","LANE":" ","ALLEY":" ","HOUSE_NO":"２２號","E_COORD97":169538.53,"N_COORD97":2541857.4500000002,"ADDRESS":"立德六路２２號","OBJECTID":508775},"geometry":{"x":169538.53000000026,"y":2541857.450000003}},{"attributes":{"ID":508803,"DIS_CODE":0,"TOWNNAME":"東區","LI":"大福里","LIN":"15鄰","STREET":"立德六路","SECT":" ","MAREA":" ","LANE":" ","ALLEY":" ","HOUSE_NO":"２４號","E_COORD97":169543.48999999999,"N_COORD97":2541858.9700000002,"ADDRESS":"立德六路２４號","OBJECTID":508776},"geometry":{"x":169543.49000000022,"y":2541858.9700000044}},{"attributes":{"ID":508804,"DIS_CODE":0,"TOWNNAME":"南區","LI":"佛壇里","LIN":"15鄰","STREET":"灣裡路","SECT":" ","MAREA":" ","LANE":" ","ALLEY":" ","HOUSE_NO":"６２０號","E_COORD97":166115.45999999999,"N_COORD97":2535628.1899999999,"ADDRESS":"灣裡路６２０號","OBJECTID":508777},"geometry":{"x":166115.46000000089,"y":2535628.1900000013}},{"attributes":{"ID":508805,"DIS_CODE":0,"TOWNNAME":"南區","LI":"佛壇里","LIN":"15鄰","STREET":"灣裡路","SECT":" ","MAREA":" ","LANE":" ","ALLEY":" ","HOUSE_NO":"６２２號","E_COORD97":166109.85000000001,"N_COORD97":2535629.98,"ADDRESS":"灣裡路６２２號","OBJECTID":508778},"geometry":{"x":166109.84999999963,"y":2535629.9800000004}},{"attributes":{"ID":508806,"DIS_CODE":0,"TOWNNAME":"南區","LI":"佛壇里","LIN":"15鄰","STREET":"灣裡路","SECT":" ","MAREA":" ","LANE":" ","ALLEY":" ","HOUSE_NO":"６２６號","E_COORD97":166104.69,"N_COORD97":2535629.2000000002,"ADDRESS":"灣裡路６２６號","OBJECTID":508779},"geometry":{"x":166104.69000000041,"y":2535629.2000000011}},{"attributes":{"ID":508807,"DIS_CODE":0,"TOWNNAME":"南區","LI":"佛壇里","LIN":"15鄰","STREET":"灣裡路","SECT":" ","MAREA":" ","LANE":" ","ALLEY":" ","HOUSE_NO":"６２８號","E_COORD97":166102.63,"N_COORD97":2535625.0899999999,"ADDRESS":"灣裡路６２８號","OBJECTID":508780},"geometry":{"x":166102.63000000082,"y":2535625.0899999999}},{"attributes":{"ID":508808,"DIS_CODE":0,"TOWNNAME":"南區","LI":"佛壇里","LIN":"15鄰","STREET":"灣裡路","SECT":" ","MAREA":" ","LANE":" ","ALLEY":" ","HOUSE_NO":"６３０號","E_COORD97":166100.17999999999,"N_COORD97":2535617.3199999998,"ADDRESS":"灣裡路６３０號","OBJECTID":508781},"geometry":{"x":166100.18000000063,"y":2535617.3200000003}},{"attributes":{"ID":508809,"DIS_CODE":0,"TOWNNAME":"南區","LI":"佛壇里","LIN":"15鄰","STREET":"灣裡路","SECT":" ","MAREA":" ","LANE":" ","ALLEY":" ","HOUSE_NO":"６３２號","E_COORD97":166096.32000000001,"N_COORD97":2535615.4199999999,"ADDRESS":"灣裡路６３２號","OBJECTID":508782},"geometry":{"x":166096.32000000123,"y":2535615.4199999999}},{"attributes":{"ID":508810,"DIS_CODE":0,"TOWNNAME":"東區","LI":"泉南里","LIN":"15鄰","STREET":"長榮路","SECT":"一段","MAREA":" ","LANE":" ","ALLEY":" ","HOUSE_NO":"２０３號","E_COORD97":169817.28,"N_COORD97":2542803.8199999998,"ADDRESS":"長榮路一段２０３號","OBJECTID":508783},"geometry":{"x":169817.28000000119,"y":2542803.8200000003}},{"attributes":{"ID":508811,"DIS_CODE":0,"TOWNNAME":"新營區","LI":"王公里","LIN":"20鄰","STREET":"樂仁街","SECT":" ","MAREA":" ","LANE":" ","ALLEY":" ","HOUSE_NO":"８２號","E_COORD97":180530.89000000001,"N_COORD97":2579252.4100000001,"ADDRESS":"樂仁街８２號","OBJECTID":508784},"geometry":{"x":180530.89000000153,"y":2579252.410000002}},{"attributes":{"ID":508812,"DIS_CODE":0,"TOWNNAME":"新營區","LI":"三仙里","LIN":"26鄰","STREET":"育德街","SECT":" ","MAREA":" ","LANE":" ","ALLEY":" ","HOUSE_NO":"３９號","E_COORD97":179595.97,"N_COORD97":2579017.6099999999,"ADDRESS":"育德街３９號","OBJECTID":508785},"geometry":{"x":179595.96999999974,"y":2579017.6099999994}},{"attributes":{"ID":508813,"DIS_CODE":0,"TOWNNAME":"新營區","LI":"大宏里","LIN":"17鄰","STREET":"三民路","SECT":" ","MAREA":" ","LANE":" ","ALLEY":" ","HOUSE_NO":"４０之３號","E_COORD97":180372.48000000001,"N_COORD97":2578526.73,"ADDRESS":"三民路４０之３號","OBJECTID":508786},"geometry":{"x":180372.48000000138,"y":2578526.7300000004}},{"attributes":{"ID":508814,"DIS_CODE":0,"TOWNNAME":"新營區","LI":"永生里","LIN":"15鄰","STREET":"康樂街","SECT":" ","MAREA":" ","LANE":" ","ALLEY":" ","HOUSE_NO":"２８號","E_COORD97":179922.01000000001,"N_COORD97":2577889.7799999998,"ADDRESS":"康樂街２８號","OBJECTID":508787},"geometry":{"x":179922.01000000071,"y":2577889.7800000012}},{"attributes":{"ID":508815,"DIS_CODE":0,"TOWNNAME":"東區","LI":"大福里","LIN":"15鄰","STREET":"立德五路","SECT":" ","MAREA":" ","LANE":" ","ALLEY":" ","HOUSE_NO":"１號","E_COORD97":169501.91,"N_COORD97":2541836.8799999999,"ADDRESS":"立德五路１號","OBJECTID":508788},"geometry":{"x":169501.91000000015,"y":2541836.879999999}},{"attributes":{"ID":508816,"DIS_CODE":0,"TOWNNAME":"東區","LI":"大福里","LIN":"15鄰","STREET":"立德五路","SECT":" ","MAREA":" ","LANE":" ","ALLEY":" ","HOUSE_NO":"５號","E_COORD97":169509.92000000001,"N_COORD97":2541838.3999999999,"ADDRESS":"立德五路５號","OBJECTID":508789},"geometry":{"x":169509.91999999993,"y":2541838.4000000041}},{"attributes":{"ID":508817,"DIS_CODE":0,"TOWNNAME":"東區","LI":"大福里","LIN":"15鄰","STREET":"立德五路","SECT":" ","MAREA":" ","LANE":" ","ALLEY":" ","HOUSE_NO":"７號","E_COORD97":169514.5,"N_COORD97":2541839.1600000001,"ADDRESS":"立德五路７號","OBJECTID":508790},"geometry":{"x":169514.5,"y":2541839.1600000001}},{"attributes":{"ID":508818,"DIS_CODE":0,"TOWNNAME":"東區","LI":"大福里","LIN":"15鄰","STREET":"立德六路","SECT":" ","MAREA":" ","LANE":" ","ALLEY":" ","HOUSE_NO":"２號","E_COORD97":169499.23999999999,"N_COORD97":2541850.5899999999,"ADDRESS":"立德六路２號","OBJECTID":508791},"geometry":{"x":169499.24000000115,"y":2541850.5900000017}},{"attributes":{"ID":508819,"DIS_CODE":0,"TOWNNAME":"東區","LI":"大福里","LIN":"15鄰","STREET":"立德六路","SECT":" ","MAREA":" ","LANE":" ","ALLEY":" ","HOUSE_NO":"４號","E_COORD97":169503.44,"N_COORD97":2541850.9700000002,"ADDRESS":"立德六路４號","OBJECTID":508792},"geometry":{"x":169503.44000000041,"y":2541850.9700000007}},{"attributes":{"ID":508820,"DIS_CODE":0,"TOWNNAME":"善化區","LI":"文昌里","LIN":"15鄰","STREET":"永福路","SECT":" ","MAREA":" ","LANE":" ","ALLEY":" ","HOUSE_NO":"１９號","E_COORD97":177601.64999999999,"N_COORD97":2558893.5,"ADDRESS":"永福路１９號","OBJECTID":508793},"geometry":{"x":177601.65000000037,"y":2558893.5}},{"attributes":{"ID":508821,"DIS_CODE":0,"TOWNNAME":"東區","LI":"小東里","LIN":"15鄰","STREET":"光明街","SECT":" ","MAREA":" ","LANE":" ","ALLEY":" ","HOUSE_NO":"８８號","E_COORD97":170900.64000000001,"N_COORD97":2544117,"ADDRESS":"光明街８８號","OBJECTID":508794},"geometry":{"x":170900.64000000153,"y":2544117.0000000019}},{"attributes":{"ID":508822,"DIS_CODE":0,"TOWNNAME":"新營區","LI":"民權里","LIN":" ","STREET":"中正路","SECT":" ","MAREA":" ","LANE":" ","ALLEY":" ","HOUSE_NO":"１３號","E_COORD97":180031.22,"N_COORD97":2578503.8999999999,"ADDRESS":"中正路１３號","OBJECTID":508795},"geometry":{"x":180031.22000000067,"y":2578503.9000000004}},{"attributes":{"ID":508823,"DIS_CODE":0,"TOWNNAME":"新營區","LI":"三仙里","LIN":"31鄰","STREET":"育德街","SECT":" ","MAREA":" ","LANE":" ","ALLEY":" ","HOUSE_NO":"１２７號","E_COORD97":179589.10999999999,"N_COORD97":2579266.8300000001,"ADDRESS":"育德街１２７號","OBJECTID":508796},"geometry":{"x":179589.11000000034,"y":2579266.8300000001}},{"attributes":{"ID":508824,"DIS_CODE":0,"TOWNNAME":"新營區","LI":"大宏里","LIN":"30鄰","STREET":"大同路","SECT":" ","MAREA":" ","LANE":" ","ALLEY":" ","HOUSE_NO":"１４之２號","E_COORD97":180727.60000000001,"N_COORD97":2578583.75,"ADDRESS":"大同路１４之２號","OBJECTID":508797},"geometry":{"x":180727.59999999963,"y":2578583.75}},{"attributes":{"ID":508825,"DIS_CODE":0,"TOWNNAME":"善化區","LI":"文昌里","LIN":"15鄰","STREET":"文昌路","SECT":" ","MAREA":" ","LANE":" ","ALLEY":" ","HOUSE_NO":"１９號","E_COORD97":177500.98999999999,"N_COORD97":2558779.0299999998,"ADDRESS":"文昌路１９號","OBJECTID":508798},"geometry":{"x":177500.99000000022,"y":2558779.0300000012}},{"attributes":{"ID":508826,"DIS_CODE":0,"TOWNNAME":"新營區","LI":"南興里","LIN":"7鄰","STREET":"和平路","SECT":" ","MAREA":" ","LANE":" ","ALLEY":" ","HOUSE_NO":"９１號","E_COORD97":179422.51000000001,"N_COORD97":2577628.5800000001,"ADDRESS":"和平路９１號","OBJECTID":508799},"geometry":{"x":179422.50999999978,"y":2577628.5800000001}},{"attributes":{"ID":508827,"DIS_CODE":0,"TOWNNAME":"善化區","LI":"文昌里","LIN":"15鄰","STREET":"永福路","SECT":" ","MAREA":" ","LANE":" ","ALLEY":" ","HOUSE_NO":"７號","E_COORD97":177625.92000000001,"N_COORD97":2558903,"ADDRESS":"永福路７號","OBJECTID":508800},"geometry":{"x":177625.92000000086,"y":2558903}}]}