{"displayFieldName":"TOWNNAME","fieldAliases":{"ID":"ID","DIS_CODE":"DIS_CODE","TOWNNAME":"TOWNNAME","LI":"LI","LIN":"LIN","STREET":"STREET","SECT":"SECT","MAREA":"MAREA","LANE":"LANE","ALLEY":"ALLEY","HOUSE_NO":"HOUSE_NO","E_COORD97":"E_COORD97","N_COORD97":"N_COORD97","ADDRESS":"ADDRESS","OBJECTID":"OBJECTID"},"geometryType":"esriGeometryPoint","spatialReference":{"wkid":102443,"latestWkid":3826},"fields":[{"name":"ID","type":"esriFieldTypeDouble","alias":"ID"},{"name":"DIS_CODE","type":"esriFieldTypeInteger","alias":"DIS_CODE"},{"name":"TOWNNAME","type":"esriFieldTypeString","alias":"TOWNNAME","length":8},{"name":"LI","type":"esriFieldTypeString","alias":"LI","length":8},{"name":"LIN","type":"esriFieldTypeString","alias":"LIN","length":12},{"name":"STREET","type":"esriFieldTypeString","alias":"STREET","length":20},{"name":"SECT","type":"esriFieldTypeString","alias":"SECT","length":8},{"name":"MAREA","type":"esriFieldTypeString","alias":"MAREA","length":12},{"name":"LANE","type":"esriFieldTypeString","alias":"LANE","length":10},{"name":"ALLEY","type":"esriFieldTypeString","alias":"ALLEY","length":10},{"name":"HOUSE_NO","type":"esriFieldTypeString","alias":"HOUSE_NO","length":20},{"name":"E_COORD97","type":"esriFieldTypeDouble","alias":"E_COORD97"},{"name":"N_COORD97","type":"esriFieldTypeDouble","alias":"N_COORD97"},{"name":"ADDRESS","type":"esriFieldTypeString","alias":"ADDRESS","length":50},{"name":"OBJECTID","type":"esriFieldTypeOID","alias":"OBJECTID"}],"features":[{"attributes":{"ID":436226,"DIS_CODE":0,"TOWNNAME":"關廟區","LI":"北花里","LIN":"20鄰","STREET":"中正路","SECT":" ","MAREA":" ","LANE":"１２７巷","ALLEY":" ","HOUSE_NO":"３號","E_COORD97":183563.81,"N_COORD97":2540889.6200000001,"ADDRESS":"中正路１２７巷３號","OBJECTID":436201},"geometry":{"x":183563.80999999959,"y":2540889.6200000029}},{"attributes":{"ID":436227,"DIS_CODE":0,"TOWNNAME":"關廟區","LI":"南花里","LIN":"4鄰","STREET":"園東街","SECT":" ","MAREA":" ","LANE":"６５巷","ALLEY":" ","HOUSE_NO":"９號","E_COORD97":181996.45999999999,"N_COORD97":2540050.25,"ADDRESS":"園東街６５巷９號","OBJECTID":436202},"geometry":{"x":181996.45999999996,"y":2540050.2500000019}},{"attributes":{"ID":436228,"DIS_CODE":0,"TOWNNAME":"關廟區","LI":"北花里","LIN":"20鄰","STREET":"中正路","SECT":" ","MAREA":" ","LANE":"１２７巷","ALLEY":" ","HOUSE_NO":"５號","E_COORD97":183564.60999999999,"N_COORD97":2540885.6200000001,"ADDRESS":"中正路１２７巷５號","OBJECTID":436203},"geometry":{"x":183564.6100000022,"y":2540885.6200000029}},{"attributes":{"ID":436229,"DIS_CODE":0,"TOWNNAME":"關廟區","LI":"東勢里","LIN":"26鄰","STREET":"東安街","SECT":" ","MAREA":" ","LANE":"９５巷","ALLEY":" ","HOUSE_NO":"１號","E_COORD97":181457.22,"N_COORD97":2539668.3199999998,"ADDRESS":"東安街９５巷１號","OBJECTID":436204},"geometry":{"x":181457.21999999974,"y":2539668.3200000003}},{"attributes":{"ID":436230,"DIS_CODE":0,"TOWNNAME":"關廟區","LI":"香洋里","LIN":"14鄰","STREET":"仁愛路","SECT":" ","MAREA":" ","LANE":"１８巷","ALLEY":" ","HOUSE_NO":"７號","E_COORD97":181299.94,"N_COORD97":2540093.2799999998,"ADDRESS":"仁愛路１８巷７號","OBJECTID":436205},"geometry":{"x":181299.94000000134,"y":2540093.2800000012}},{"attributes":{"ID":436231,"DIS_CODE":0,"TOWNNAME":"關廟區","LI":"南花里","LIN":"8鄰","STREET":"四維街","SECT":" ","MAREA":" ","LANE":"２３１巷","ALLEY":" ","HOUSE_NO":"６號","E_COORD97":181842.26000000001,"N_COORD97":2540224.25,"ADDRESS":"四維街２３１巷６號","OBJECTID":436206},"geometry":{"x":181842.26000000164,"y":2540224.25}},{"attributes":{"ID":436232,"DIS_CODE":0,"TOWNNAME":"關廟區","LI":"香洋里","LIN":"7鄰","STREET":"中央路","SECT":" ","MAREA":" ","LANE":"２５２巷","ALLEY":" ","HOUSE_NO":"３號","E_COORD97":181048.06,"N_COORD97":2540146.8300000001,"ADDRESS":"中央路２５２巷３號","OBJECTID":436207},"geometry":{"x":181048.05999999959,"y":2540146.8300000038}},{"attributes":{"ID":436233,"DIS_CODE":0,"TOWNNAME":"關廟區","LI":"香洋里","LIN":"1鄰","STREET":"中正路","SECT":" ","MAREA":" ","LANE":"９０８巷","ALLEY":" ","HOUSE_NO":"２５號","E_COORD97":181197.10999999999,"N_COORD97":2540368.25,"ADDRESS":"中正路９０８巷２５號","OBJECTID":436208},"geometry":{"x":181197.11000000127,"y":2540368.2500000019}},{"attributes":{"ID":436234,"DIS_CODE":0,"TOWNNAME":"關廟區","LI":"新埔里","LIN":"1鄰","STREET":"忠孝街","SECT":" ","MAREA":" ","LANE":"２５８巷","ALLEY":" ","HOUSE_NO":"２２號","E_COORD97":181228.69,"N_COORD97":2540852.25,"ADDRESS":"忠孝街２５８巷２２號","OBJECTID":436209},"geometry":{"x":181228.69000000134,"y":2540852.25}},{"attributes":{"ID":436235,"DIS_CODE":0,"TOWNNAME":"關廟區","LI":"香洋里","LIN":"26鄰","STREET":"民權街","SECT":" ","MAREA":" ","LANE":"２２８巷","ALLEY":" ","HOUSE_NO":"５２號","E_COORD97":181133.78,"N_COORD97":2539877.8999999999,"ADDRESS":"民權街２２８巷５２號","OBJECTID":436210},"geometry":{"x":181133.78000000026,"y":2539877.9000000004}},{"attributes":{"ID":436236,"DIS_CODE":0,"TOWNNAME":"將軍區","LI":"廣山里","LIN":"1鄰","STREET":" ","SECT":" ","MAREA":"廣山","LANE":" ","ALLEY":" ","HOUSE_NO":"５之１號","E_COORD97":159748.061583,"N_COORD97":2568600.55486,"ADDRESS":"廣山５之１號","OBJECTID":436211},"geometry":{"x":159748.06158300024,"y":2568600.5548550021}},{"attributes":{"ID":436237,"DIS_CODE":0,"TOWNNAME":"關廟區","LI":"北花里","LIN":"7鄰","STREET":"四維街","SECT":" ","MAREA":" ","LANE":"３８０巷","ALLEY":" ","HOUSE_NO":"２２之１號","E_COORD97":181944.14000000001,"N_COORD97":2540254.8999999999,"ADDRESS":"四維街３８０巷２２之１號","OBJECTID":436212},"geometry":{"x":181944.13999999966,"y":2540254.9000000004}},{"attributes":{"ID":436238,"DIS_CODE":0,"TOWNNAME":"關廟區","LI":"松腳里","LIN":"16鄰","STREET":"民族街","SECT":" ","MAREA":" ","LANE":"７６巷","ALLEY":" ","HOUSE_NO":"１號","E_COORD97":181500.75,"N_COORD97":2539790.1600000001,"ADDRESS":"民族街７６巷１號","OBJECTID":436213},"geometry":{"x":181500.75000000093,"y":2539790.160000002}},{"attributes":{"ID":436239,"DIS_CODE":0,"TOWNNAME":"關廟區","LI":"松腳里","LIN":"14鄰","STREET":"四維街","SECT":" ","MAREA":" ","LANE":"８７巷","ALLEY":" ","HOUSE_NO":"７號","E_COORD97":181823.56,"N_COORD97":2539662.7400000002,"ADDRESS":"四維街８７巷７號","OBJECTID":436214},"geometry":{"x":181823.56000000052,"y":2539662.7400000039}},{"attributes":{"ID":436240,"DIS_CODE":0,"TOWNNAME":"新營區","LI":"興業里","LIN":" ","STREET":"中興路","SECT":" ","MAREA":" ","LANE":"１３巷","ALLEY":" ","HOUSE_NO":"３１之１號","E_COORD97":180282.95000000001,"N_COORD97":2577976.7400000002,"ADDRESS":"中興路１３巷３１之１號","OBJECTID":436215},"geometry":{"x":180282.95000000019,"y":2577976.7400000002}},{"attributes":{"ID":436241,"DIS_CODE":0,"TOWNNAME":"新營區","LI":"新南里","LIN":" ","STREET":"隋唐街","SECT":" ","MAREA":" ","LANE":"６９巷","ALLEY":" ","HOUSE_NO":"２２號","E_COORD97":178595.04999999999,"N_COORD97":2578474.21,"ADDRESS":"隋唐街６９巷２２號","OBJECTID":436216},"geometry":{"x":178595.04999999981,"y":2578474.2100000028}},{"attributes":{"ID":436242,"DIS_CODE":0,"TOWNNAME":"新營區","LI":"南興里","LIN":"6鄰","STREET":"和平路","SECT":" ","MAREA":" ","LANE":"９７巷","ALLEY":" ","HOUSE_NO":"１３號之２","E_COORD97":179458.60000000001,"N_COORD97":2577586.3999999999,"ADDRESS":"和平路９７巷１３之２號","OBJECTID":436217},"geometry":{"x":179458.60000000056,"y":2577586.4000000004}},{"attributes":{"ID":436243,"DIS_CODE":0,"TOWNNAME":"新營區","LI":"民生里","LIN":"18鄰","STREET":"民治路","SECT":" ","MAREA":" ","LANE":"１８３巷","ALLEY":" ","HOUSE_NO":"６２號","E_COORD97":178881.76000000001,"N_COORD97":2578337.73,"ADDRESS":"民治路１８３巷６２號","OBJECTID":436218},"geometry":{"x":178881.75999999978,"y":2578337.7300000023}},{"attributes":{"ID":436244,"DIS_CODE":0,"TOWNNAME":"新營區","LI":"新南里","LIN":"25鄰","STREET":"隋唐街","SECT":" ","MAREA":" ","LANE":"２９５巷","ALLEY":" ","HOUSE_NO":"４號","E_COORD97":178159.56,"N_COORD97":2578570.4500000002,"ADDRESS":"隋唐街２９５巷４號","OBJECTID":436219},"geometry":{"x":178159.55999999959,"y":2578570.4499999993}},{"attributes":{"ID":436245,"DIS_CODE":0,"TOWNNAME":"新營區","LI":"民榮里","LIN":"20鄰","STREET":"裕民路","SECT":" ","MAREA":" ","LANE":"１２巷","ALLEY":" ","HOUSE_NO":"１之１號","E_COORD97":179106.19,"N_COORD97":2577951.3100000001,"ADDRESS":"裕民路１２巷１之１號","OBJECTID":436220},"geometry":{"x":179106.19000000134,"y":2577951.3100000024}},{"attributes":{"ID":436246,"DIS_CODE":0,"TOWNNAME":"新營區","LI":"民榮里","LIN":"20鄰","STREET":"裕民路","SECT":" ","MAREA":" ","LANE":"１６巷","ALLEY":" ","HOUSE_NO":"１４號","E_COORD97":179064.89999999999,"N_COORD97":2577921.5499999998,"ADDRESS":"裕民路１６巷１４號","OBJECTID":436221},"geometry":{"x":179064.90000000037,"y":2577921.5499999989}},{"attributes":{"ID":436247,"DIS_CODE":0,"TOWNNAME":"新營區","LI":"新南里","LIN":"25鄰","STREET":"復興路","SECT":" ","MAREA":" ","LANE":"６２０巷","ALLEY":" ","HOUSE_NO":"６６號","E_COORD97":178059.31,"N_COORD97":2578536.6099999999,"ADDRESS":"復興路６２０巷６６號","OBJECTID":436222},"geometry":{"x":178059.30999999959,"y":2578536.6099999994}},{"attributes":{"ID":436248,"DIS_CODE":0,"TOWNNAME":"新營區","LI":"王公里","LIN":"32鄰","STREET":"大德街","SECT":" ","MAREA":" ","LANE":"５０巷","ALLEY":" ","HOUSE_NO":"８號","E_COORD97":180307.84,"N_COORD97":2579501.52,"ADDRESS":"大德街５０巷８號","OBJECTID":436223},"geometry":{"x":180307.84000000171,"y":2579501.5200000014}},{"attributes":{"ID":436249,"DIS_CODE":0,"TOWNNAME":"新營區","LI":"南興里","LIN":"4鄰","STREET":"和平路","SECT":" ","MAREA":" ","LANE":"９７巷","ALLEY":" ","HOUSE_NO":"３５號","E_COORD97":179527.73000000001,"N_COORD97":2577572.71,"ADDRESS":"和平路９７巷３５號","OBJECTID":436224},"geometry":{"x":179527.73000000231,"y":2577572.7100000028}},{"attributes":{"ID":436250,"DIS_CODE":0,"TOWNNAME":"新營區","LI":"南興里","LIN":"5鄰","STREET":"和平路","SECT":" ","MAREA":" ","LANE":"９７巷","ALLEY":" ","HOUSE_NO":"２號之１","E_COORD97":179428.63,"N_COORD97":2577556.6200000001,"ADDRESS":"和平路９７巷２之１號","OBJECTID":436225},"geometry":{"x":179428.62999999989,"y":2577556.6200000029}},{"attributes":{"ID":436251,"DIS_CODE":0,"TOWNNAME":"新營區","LI":"南興里","LIN":"4鄰","STREET":"和平路","SECT":" ","MAREA":" ","LANE":"９７巷","ALLEY":" ","HOUSE_NO":"３７號之１","E_COORD97":179542.5,"N_COORD97":2577572.7000000002,"ADDRESS":"和平路９７巷３７之１號","OBJECTID":436226},"geometry":{"x":179542.50000000093,"y":2577572.6999999993}},{"attributes":{"ID":436252,"DIS_CODE":0,"TOWNNAME":"新營區","LI":"民榮里","LIN":"20鄰","STREET":"裕民路","SECT":" ","MAREA":" ","LANE":"１２巷","ALLEY":" ","HOUSE_NO":"１之４號","E_COORD97":179094.92999999999,"N_COORD97":2577950.2599999998,"ADDRESS":"裕民路１２巷１之４號","OBJECTID":436227},"geometry":{"x":179094.93000000156,"y":2577950.2600000016}},{"attributes":{"ID":436253,"DIS_CODE":0,"TOWNNAME":"新營區","LI":"忠政里","LIN":"26鄰","STREET":"府西路","SECT":" ","MAREA":" ","LANE":"１３７巷","ALLEY":" ","HOUSE_NO":"７號","E_COORD97":179765.92000000001,"N_COORD97":2579327.9900000002,"ADDRESS":"府西路１３７巷７號","OBJECTID":436228},"geometry":{"x":179765.91999999993,"y":2579327.9900000002}},{"attributes":{"ID":436254,"DIS_CODE":0,"TOWNNAME":"新營區","LI":"新東里","LIN":"26鄰","STREET":"東興五街","SECT":" ","MAREA":" ","LANE":"２１巷","ALLEY":" ","HOUSE_NO":"１６號","E_COORD97":180704.70999999999,"N_COORD97":2579474.1899999999,"ADDRESS":"東興五街２１巷１６號","OBJECTID":436229},"geometry":{"x":180704.70999999996,"y":2579474.1899999995}},{"attributes":{"ID":436255,"DIS_CODE":0,"TOWNNAME":"新營區","LI":"民榮里","LIN":"24鄰","STREET":"裕民路","SECT":" ","MAREA":" ","LANE":"１２巷","ALLEY":" ","HOUSE_NO":"１４號","E_COORD97":179088.62,"N_COORD97":2577962.4100000001,"ADDRESS":"裕民路１２巷１４號","OBJECTID":436230},"geometry":{"x":179088.62000000011,"y":2577962.4100000001}},{"attributes":{"ID":436256,"DIS_CODE":0,"TOWNNAME":"新營區","LI":"忠政里","LIN":"6鄰","STREET":"府西路","SECT":" ","MAREA":" ","LANE":"２２巷","ALLEY":" ","HOUSE_NO":"３６號","E_COORD97":179917.98999999999,"N_COORD97":2579197.71,"ADDRESS":"府西路２２巷３６號","OBJECTID":436231},"geometry":{"x":179917.99000000115,"y":2579197.7100000009}},{"attributes":{"ID":436257,"DIS_CODE":0,"TOWNNAME":"新營區","LI":"南紙里","LIN":"4鄰","STREET":"南紙街","SECT":" ","MAREA":" ","LANE":"２９巷","ALLEY":" ","HOUSE_NO":"１３號","E_COORD97":177884.60999999999,"N_COORD97":2577740.0899999999,"ADDRESS":"南紙街２９巷１３號","OBJECTID":436232},"geometry":{"x":177884.61000000127,"y":2577740.0899999999}},{"attributes":{"ID":436258,"DIS_CODE":0,"TOWNNAME":"新營區","LI":"南興里","LIN":"4鄰","STREET":"和平路","SECT":" ","MAREA":" ","LANE":"９７巷","ALLEY":" ","HOUSE_NO":"３３號之２","E_COORD97":179518.98000000001,"N_COORD97":2577573.9199999999,"ADDRESS":"和平路９７巷３３之２號","OBJECTID":436233},"geometry":{"x":179518.98000000045,"y":2577573.9200000018}},{"attributes":{"ID":436259,"DIS_CODE":0,"TOWNNAME":"新營區","LI":"忠政里","LIN":"20鄰","STREET":"府西路","SECT":" ","MAREA":" ","LANE":"２５７巷","ALLEY":" ","HOUSE_NO":"２８號","E_COORD97":179732.07999999999,"N_COORD97":2579682.5499999998,"ADDRESS":"府西路２５７巷２８號","OBJECTID":436234},"geometry":{"x":179732.08000000101,"y":2579682.5500000026}},{"attributes":{"ID":436260,"DIS_CODE":0,"TOWNNAME":"新營區","LI":"忠政里","LIN":"26鄰","STREET":"府西路","SECT":" ","MAREA":" ","LANE":"１５９巷","ALLEY":" ","HOUSE_NO":"１２號","E_COORD97":179758.29000000001,"N_COORD97":2579402.23,"ADDRESS":"府西路１５９巷１２號","OBJECTID":436235},"geometry":{"x":179758.29000000004,"y":2579402.2300000023}},{"attributes":{"ID":436261,"DIS_CODE":0,"TOWNNAME":"新營區","LI":"王公里","LIN":"32鄰","STREET":"大德街","SECT":" ","MAREA":" ","LANE":"１８巷","ALLEY":" ","HOUSE_NO":"１１號","E_COORD97":180220.01000000001,"N_COORD97":2579495.29,"ADDRESS":"大德街１８巷１１號","OBJECTID":436236},"geometry":{"x":180220.01000000164,"y":2579495.290000001}},{"attributes":{"ID":436262,"DIS_CODE":0,"TOWNNAME":"新營區","LI":"民榮里","LIN":"20鄰","STREET":"裕民路","SECT":" ","MAREA":" ","LANE":"１２巷","ALLEY":" ","HOUSE_NO":"１３號","E_COORD97":179066.06,"N_COORD97":2577950.3399999999,"ADDRESS":"裕民路１２巷１３號","OBJECTID":436237},"geometry":{"x":179066.05999999959,"y":2577950.3400000017}},{"attributes":{"ID":436263,"DIS_CODE":0,"TOWNNAME":"新營區","LI":"忠政里","LIN":"26鄰","STREET":"府西路","SECT":" ","MAREA":" ","LANE":"１５９巷","ALLEY":" ","HOUSE_NO":"１０號","E_COORD97":179762.38,"N_COORD97":2579403.3199999998,"ADDRESS":"府西路１５９巷１０號","OBJECTID":436238},"geometry":{"x":179762.38000000082,"y":2579403.3200000003}},{"attributes":{"ID":436264,"DIS_CODE":0,"TOWNNAME":"新營區","LI":"新南里","LIN":"25鄰","STREET":"隋唐街","SECT":" ","MAREA":" ","LANE":"２９５巷","ALLEY":" ","HOUSE_NO":"２號","E_COORD97":178168.75,"N_COORD97":2578569.2999999998,"ADDRESS":"隋唐街２９５巷２號","OBJECTID":436239},"geometry":{"x":178168.75,"y":2578569.3000000007}},{"attributes":{"ID":436265,"DIS_CODE":0,"TOWNNAME":"新營區","LI":"南興里","LIN":"25鄰","STREET":"和平路","SECT":" ","MAREA":" ","LANE":"９７巷","ALLEY":" ","HOUSE_NO":"４１號之２","E_COORD97":179558.60999999999,"N_COORD97":2577569.2999999998,"ADDRESS":"和平路９７巷４１號之２","OBJECTID":436240},"geometry":{"x":179558.61000000034,"y":2577569.3000000007}},{"attributes":{"ID":436266,"DIS_CODE":0,"TOWNNAME":"新營區","LI":"新南里","LIN":" ","STREET":"復興路","SECT":" ","MAREA":" ","LANE":"３７８巷","ALLEY":" ","HOUSE_NO":"１０號","E_COORD97":178542.64999999999,"N_COORD97":2578227.5099999998,"ADDRESS":"復興路３７８巷１０號","OBJECTID":436241},"geometry":{"x":178542.65000000037,"y":2578227.5100000016}},{"attributes":{"ID":436267,"DIS_CODE":0,"TOWNNAME":"新營區","LI":"忠政里","LIN":"17鄰","STREET":"府西路","SECT":" ","MAREA":" ","LANE":"２６０巷","ALLEY":" ","HOUSE_NO":"７號","E_COORD97":179813.06,"N_COORD97":2579779.6099999999,"ADDRESS":"府西路２６０巷７號","OBJECTID":436242},"geometry":{"x":179813.06000000052,"y":2579779.6099999994}},{"attributes":{"ID":436268,"DIS_CODE":0,"TOWNNAME":"新營區","LI":"忠政里","LIN":"17鄰","STREET":"府西路","SECT":" ","MAREA":" ","LANE":"２６０巷","ALLEY":" ","HOUSE_NO":"１２號","E_COORD97":179827.53,"N_COORD97":2579768.48,"ADDRESS":"府西路２６０巷１２號","OBJECTID":436243},"geometry":{"x":179827.53000000119,"y":2579768.4800000004}},{"attributes":{"ID":436269,"DIS_CODE":0,"TOWNNAME":"新營區","LI":"嘉芳里","LIN":" ","STREET":"復興路","SECT":" ","MAREA":" ","LANE":"９７１巷","ALLEY":" ","HOUSE_NO":"１９號","E_COORD97":176792.57000000001,"N_COORD97":2578656.8900000001,"ADDRESS":"復興路９７１巷１９號","OBJECTID":436244},"geometry":{"x":176792.57000000216,"y":2578656.8900000006}},{"attributes":{"ID":436270,"DIS_CODE":0,"TOWNNAME":"新營區","LI":"南紙里","LIN":" ","STREET":"太子路","SECT":" ","MAREA":" ","LANE":"１５３巷","ALLEY":" ","HOUSE_NO":"６５之３號","E_COORD97":177980.04999999999,"N_COORD97":2577707.5800000001,"ADDRESS":"太子路１５３巷６５之３號","OBJECTID":436245},"geometry":{"x":177980.04999999981,"y":2577707.5800000019}},{"attributes":{"ID":436271,"DIS_CODE":0,"TOWNNAME":"新營區","LI":"南興里","LIN":"5鄰","STREET":"和平路","SECT":" ","MAREA":" ","LANE":"９７巷","ALLEY":" ","HOUSE_NO":"４號之３","E_COORD97":179438.87,"N_COORD97":2577556.5800000001,"ADDRESS":"和平路９７巷４之３號","OBJECTID":436246},"geometry":{"x":179438.87000000104,"y":2577556.5800000001}},{"attributes":{"ID":436272,"DIS_CODE":0,"TOWNNAME":"新營區","LI":"南興里","LIN":"4鄰","STREET":"和平路","SECT":" ","MAREA":" ","LANE":"９７巷","ALLEY":" ","HOUSE_NO":"３７號之３","E_COORD97":179542.5,"N_COORD97":2577572.7000000002,"ADDRESS":"和平路９７巷３７之３號","OBJECTID":436247},"geometry":{"x":179542.50000000093,"y":2577572.6999999993}},{"attributes":{"ID":436273,"DIS_CODE":0,"TOWNNAME":"新營區","LI":"新南里","LIN":"25鄰","STREET":"隋唐街","SECT":" ","MAREA":" ","LANE":"２９５巷","ALLEY":" ","HOUSE_NO":"４之３號","E_COORD97":178162.06,"N_COORD97":2578570.5,"ADDRESS":"隋唐街２９５巷４之３號","OBJECTID":436248},"geometry":{"x":178162.06000000052,"y":2578570.5000000019}},{"attributes":{"ID":436274,"DIS_CODE":0,"TOWNNAME":"新營區","LI":"民榮里","LIN":"24鄰","STREET":"裕民路","SECT":" ","MAREA":" ","LANE":"１２巷","ALLEY":" ","HOUSE_NO":"２４號","E_COORD97":179066.19,"N_COORD97":2577962.52,"ADDRESS":"裕民路１２巷２４號","OBJECTID":436249},"geometry":{"x":179066.19000000041,"y":2577962.5200000014}},{"attributes":{"ID":436275,"DIS_CODE":0,"TOWNNAME":"新營區","LI":"新南里","LIN":"14鄰","STREET":"民治路","SECT":" ","MAREA":" ","LANE":"３００巷","ALLEY":" ","HOUSE_NO":"１６之７號","E_COORD97":178747.32000000001,"N_COORD97":2578578.75,"ADDRESS":"民治路３００巷１６之７號","OBJECTID":436250},"geometry":{"x":178747.32000000123,"y":2578578.7500000019}},{"attributes":{"ID":436276,"DIS_CODE":0,"TOWNNAME":"新營區","LI":"忠政里","LIN":"8鄰","STREET":"中正路","SECT":" ","MAREA":" ","LANE":"３７巷","ALLEY":" ","HOUSE_NO":"７４號","E_COORD97":179950.57000000001,"N_COORD97":2579178.73,"ADDRESS":"中正路３７巷７４號","OBJECTID":436251},"geometry":{"x":179950.57000000216,"y":2579178.7300000023}},{"attributes":{"ID":436277,"DIS_CODE":0,"TOWNNAME":"新營區","LI":"忠政里","LIN":"6鄰","STREET":"府西路","SECT":" ","MAREA":" ","LANE":"２２巷","ALLEY":" ","HOUSE_NO":"４９號","E_COORD97":179902.82999999999,"N_COORD97":2579237.6400000001,"ADDRESS":"府西路２２巷４９號","OBJECTID":436252},"geometry":{"x":179902.83000000194,"y":2579237.6400000025}},{"attributes":{"ID":436278,"DIS_CODE":0,"TOWNNAME":"新營區","LI":"南興里","LIN":"6鄰","STREET":"和平路","SECT":" ","MAREA":" ","LANE":"９７巷","ALLEY":" ","HOUSE_NO":"３號之２","E_COORD97":179433.91,"N_COORD97":2577586.5099999998,"ADDRESS":"和平路９７巷３之２號","OBJECTID":436253},"geometry":{"x":179433.91000000015,"y":2577586.5100000016}},{"attributes":{"ID":436279,"DIS_CODE":0,"TOWNNAME":"新營區","LI":"新北里","LIN":"26鄰","STREET":"民治路","SECT":" ","MAREA":" ","LANE":"１５６巷","ALLEY":" ","HOUSE_NO":"２４號","E_COORD97":179135.54999999999,"N_COORD97":2578776.1699999999,"ADDRESS":"民治路１５６巷２４號","OBJECTID":436254},"geometry":{"x":179135.55000000075,"y":2578776.1699999999}},{"attributes":{"ID":436280,"DIS_CODE":0,"TOWNNAME":"新營區","LI":"新北里","LIN":"26鄰","STREET":"民治路","SECT":" ","MAREA":" ","LANE":"１５６巷","ALLEY":" ","HOUSE_NO":"２２號","E_COORD97":179141.69,"N_COORD97":2578778.3500000001,"ADDRESS":"民治路１５６巷２２號","OBJECTID":436255},"geometry":{"x":179141.69000000134,"y":2578778.3499999996}},{"attributes":{"ID":436281,"DIS_CODE":0,"TOWNNAME":"新營區","LI":"新東里","LIN":"4鄰","STREET":"東大街","SECT":" ","MAREA":" ","LANE":"５２巷","ALLEY":" ","HOUSE_NO":"６號","E_COORD97":181065.01000000001,"N_COORD97":2579140.27,"ADDRESS":"東大街５２巷６號","OBJECTID":436256},"geometry":{"x":181065.01000000071,"y":2579140.2700000014}},{"attributes":{"ID":436282,"DIS_CODE":0,"TOWNNAME":"新營區","LI":"南興里","LIN":"6鄰","STREET":"和平路","SECT":" ","MAREA":" ","LANE":"９７巷","ALLEY":" ","HOUSE_NO":"２９號之２","E_COORD97":179496.5,"N_COORD97":2577584,"ADDRESS":"和平路９７巷２９之２號","OBJECTID":436257},"geometry":{"x":179496.50000000186,"y":2577584}},{"attributes":{"ID":436283,"DIS_CODE":0,"TOWNNAME":"新營區","LI":"南興里","LIN":" ","STREET":"延平路","SECT":" ","MAREA":" ","LANE":"１４０巷","ALLEY":" ","HOUSE_NO":"３３號","E_COORD97":179606.72,"N_COORD97":2577405.1099999999,"ADDRESS":"延平路１４０巷３３號","OBJECTID":436258},"geometry":{"x":179606.7200000016,"y":2577405.1100000013}},{"attributes":{"ID":436284,"DIS_CODE":0,"TOWNNAME":"新營區","LI":"民生里","LIN":"20鄰","STREET":"進修街","SECT":" ","MAREA":" ","LANE":"２９巷","ALLEY":" ","HOUSE_NO":"３０號","E_COORD97":178892.75,"N_COORD97":2578478.3199999998,"ADDRESS":"進修街２９巷３０號","OBJECTID":436259},"geometry":{"x":178892.75,"y":2578478.3200000003}},{"attributes":{"ID":436285,"DIS_CODE":0,"TOWNNAME":"新營區","LI":"三仙里","LIN":" ","STREET":"博愛街","SECT":" ","MAREA":" ","LANE":"８４巷","ALLEY":" ","HOUSE_NO":"１５號","E_COORD97":179682.92999999999,"N_COORD97":2578178.8500000001,"ADDRESS":"博愛街８４巷１５號","OBJECTID":436260},"geometry":{"x":179682.9299999997,"y":2578178.8499999996}},{"attributes":{"ID":436286,"DIS_CODE":0,"TOWNNAME":"新營區","LI":"新南里","LIN":"25鄰","STREET":"復興路","SECT":" ","MAREA":" ","LANE":"６２０巷","ALLEY":" ","HOUSE_NO":"５６號","E_COORD97":178070.48000000001,"N_COORD97":2578518.8399999999,"ADDRESS":"復興路６２０巷５６號","OBJECTID":436261},"geometry":{"x":178070.48000000138,"y":2578518.8400000036}},{"attributes":{"ID":436287,"DIS_CODE":0,"TOWNNAME":"新營區","LI":"王公里","LIN":"32鄰","STREET":"大德街","SECT":" ","MAREA":" ","LANE":"１８巷","ALLEY":" ","HOUSE_NO":"２１號","E_COORD97":180221,"N_COORD97":2579473.1400000001,"ADDRESS":"大德街１８巷２１號","OBJECTID":436262},"geometry":{"x":180221.00000000093,"y":2579473.1400000006}},{"attributes":{"ID":436288,"DIS_CODE":0,"TOWNNAME":"新營區","LI":"王公里","LIN":"25鄰","STREET":"中正路","SECT":" ","MAREA":" ","LANE":"１２２巷","ALLEY":" ","HOUSE_NO":"３號","E_COORD97":180125.76000000001,"N_COORD97":2579492.4100000001,"ADDRESS":"中正路１２２巷３號","OBJECTID":436263},"geometry":{"x":180125.76000000071,"y":2579492.410000002}},{"attributes":{"ID":436289,"DIS_CODE":0,"TOWNNAME":"新營區","LI":"興業里","LIN":" ","STREET":"公誠街","SECT":" ","MAREA":" ","LANE":"９巷","ALLEY":" ","HOUSE_NO":"３之３號","E_COORD97":180312.57999999999,"N_COORD97":2578018.6800000002,"ADDRESS":"公誠街９巷３之３號","OBJECTID":436264},"geometry":{"x":180312.58000000007,"y":2578018.6800000016}},{"attributes":{"ID":436290,"DIS_CODE":0,"TOWNNAME":"新營區","LI":"延平里","LIN":"18鄰","STREET":"長春街","SECT":" ","MAREA":" ","LANE":"１３４巷","ALLEY":" ","HOUSE_NO":"１２號","E_COORD97":179552.09166599999,"N_COORD97":2577847.7911100001,"ADDRESS":"長春街１３４巷１２號","OBJECTID":436265},"geometry":{"x":179552.0916660009,"y":2577847.7911140025}},{"attributes":{"ID":436291,"DIS_CODE":0,"TOWNNAME":"新營區","LI":"新南里","LIN":"26鄰","STREET":"復興路","SECT":" ","MAREA":" ","LANE":"６２０巷","ALLEY":" ","HOUSE_NO":"５１號","E_COORD97":178041.76000000001,"N_COORD97":2578501.25,"ADDRESS":"復興路６２０巷５１號","OBJECTID":436266},"geometry":{"x":178041.76000000164,"y":2578501.25}},{"attributes":{"ID":436292,"DIS_CODE":0,"TOWNNAME":"新營區","LI":"新南里","LIN":"25鄰","STREET":"隋唐街","SECT":" ","MAREA":" ","LANE":"２９５巷","ALLEY":" ","HOUSE_NO":"６之２號","E_COORD97":178150.73999999999,"N_COORD97":2578571.6600000001,"ADDRESS":"隋唐街２９５巷６之２號","OBJECTID":436267},"geometry":{"x":178150.74000000209,"y":2578571.660000002}},{"attributes":{"ID":436293,"DIS_CODE":0,"TOWNNAME":"新營區","LI":"民生里","LIN":" ","STREET":"進修街","SECT":" ","MAREA":" ","LANE":"２９巷","ALLEY":" ","HOUSE_NO":"１４之６號","E_COORD97":179006.62,"N_COORD97":2578472.2999999998,"ADDRESS":"進修街２９巷１４之６號","OBJECTID":436268},"geometry":{"x":179006.62000000104,"y":2578472.3000000007}},{"attributes":{"ID":436294,"DIS_CODE":0,"TOWNNAME":"新營區","LI":"忠政里","LIN":"32鄰","STREET":"府西路","SECT":" ","MAREA":" ","LANE":"１７巷","ALLEY":" ","HOUSE_NO":"４２號","E_COORD97":179716.23000000001,"N_COORD97":2578928.4500000002,"ADDRESS":"府西路１７巷４２號","OBJECTID":436269},"geometry":{"x":179716.23000000138,"y":2578928.4500000011}},{"attributes":{"ID":436295,"DIS_CODE":0,"TOWNNAME":"新營區","LI":"忠政里","LIN":" ","STREET":"中正路","SECT":" ","MAREA":" ","LANE":"３９巷","ALLEY":" ","HOUSE_NO":"３１之１號","E_COORD97":179935.98000000001,"N_COORD97":2579229.7999999998,"ADDRESS":"中正路３９巷３１之１號","OBJECTID":436270},"geometry":{"x":179935.98000000045,"y":2579229.8000000026}},{"attributes":{"ID":436296,"DIS_CODE":0,"TOWNNAME":"新營區","LI":"嘉芳里","LIN":"13鄰","STREET":"復興路","SECT":" ","MAREA":" ","LANE":"９７１巷","ALLEY":" ","HOUSE_NO":"３號","E_COORD97":176830.31,"N_COORD97":2578663.3399999999,"ADDRESS":"復興路９７１巷３號","OBJECTID":436271},"geometry":{"x":176830.30999999959,"y":2578663.3399999999}},{"attributes":{"ID":436297,"DIS_CODE":0,"TOWNNAME":"新營區","LI":"民生里","LIN":" ","STREET":"三民路","SECT":" ","MAREA":" ","LANE":"２０８巷","ALLEY":" ","HOUSE_NO":"７之１號","E_COORD97":179147.89999999999,"N_COORD97":2578112.7999999998,"ADDRESS":"三民路２０８巷７之１號","OBJECTID":436272},"geometry":{"x":179147.90000000037,"y":2578112.8000000007}},{"attributes":{"ID":436298,"DIS_CODE":0,"TOWNNAME":"新營區","LI":"忠政里","LIN":" ","STREET":"中正路","SECT":" ","MAREA":" ","LANE":"３９巷","ALLEY":" ","HOUSE_NO":"１７１號","E_COORD97":179726.17000000001,"N_COORD97":2579267.29,"ADDRESS":"中正路３９巷１７１號","OBJECTID":436273},"geometry":{"x":179726.17000000086,"y":2579267.2899999991}},{"attributes":{"ID":436299,"DIS_CODE":0,"TOWNNAME":"新營區","LI":"興業里","LIN":" ","STREET":"中興路","SECT":" ","MAREA":" ","LANE":"１５巷","ALLEY":" ","HOUSE_NO":"３之３號","E_COORD97":180156.73000000001,"N_COORD97":2577938.5699999998,"ADDRESS":"中興路１５巷３之３號","OBJECTID":436274},"geometry":{"x":180156.73000000138,"y":2577938.5700000022}},{"attributes":{"ID":436300,"DIS_CODE":0,"TOWNNAME":"新營區","LI":"民生里","LIN":"14鄰","STREET":"公園路","SECT":"一段","MAREA":" ","LANE":"１６０巷","ALLEY":" ","HOUSE_NO":"７８號","E_COORD97":178853.76000000001,"N_COORD97":2578252.5899999999,"ADDRESS":"公園路一段１６０巷７８號","OBJECTID":436275},"geometry":{"x":178853.76000000164,"y":2578252.589999998}},{"attributes":{"ID":436301,"DIS_CODE":0,"TOWNNAME":"新營區","LI":"興業里","LIN":" ","STREET":"中興路","SECT":" ","MAREA":" ","LANE":"１５巷","ALLEY":" ","HOUSE_NO":"３之２號","E_COORD97":180156.73000000001,"N_COORD97":2577938.5699999998,"ADDRESS":"中興路１５巷３之２號","OBJECTID":436276},"geometry":{"x":180156.73000000138,"y":2577938.5700000022}},{"attributes":{"ID":436302,"DIS_CODE":0,"TOWNNAME":"新營區","LI":"嘉芳里","LIN":"13鄰","STREET":"復興路","SECT":" ","MAREA":" ","LANE":"９７１巷","ALLEY":" ","HOUSE_NO":"１４號","E_COORD97":176779.38,"N_COORD97":2578677.9900000002,"ADDRESS":"復興路９７１巷１４號","OBJECTID":436277},"geometry":{"x":176779.37999999989,"y":2578677.9900000021}},{"attributes":{"ID":436303,"DIS_CODE":0,"TOWNNAME":"新營區","LI":"忠政里","LIN":"4鄰","STREET":"中正路","SECT":" ","MAREA":" ","LANE":"３９巷","ALLEY":" ","HOUSE_NO":"７號","E_COORD97":180032.14999999999,"N_COORD97":2579173.9100000001,"ADDRESS":"中正路３９巷７號","OBJECTID":436278},"geometry":{"x":180032.1500000013,"y":2579173.910000002}},{"attributes":{"ID":436304,"DIS_CODE":0,"TOWNNAME":"新營區","LI":"忠政里","LIN":"26鄰","STREET":"府西路","SECT":" ","MAREA":" ","LANE":"１５９巷","ALLEY":" ","HOUSE_NO":"２３號","E_COORD97":179726.59,"N_COORD97":2579389.1000000001,"ADDRESS":"府西路１５９巷２３號","OBJECTID":436279},"geometry":{"x":179726.59000000078,"y":2579389.1000000015}},{"attributes":{"ID":436305,"DIS_CODE":0,"TOWNNAME":"新營區","LI":"王公里","LIN":"32鄰","STREET":"大德街","SECT":" ","MAREA":" ","LANE":"５０巷","ALLEY":" ","HOUSE_NO":"１號","E_COORD97":180297.60999999999,"N_COORD97":2579517.0699999998,"ADDRESS":"大德街５０巷１號","OBJECTID":436280},"geometry":{"x":180297.61000000034,"y":2579517.0700000003}},{"attributes":{"ID":436306,"DIS_CODE":0,"TOWNNAME":"新營區","LI":"王公里","LIN":"32鄰","STREET":"大德街","SECT":" ","MAREA":" ","LANE":"５０巷","ALLEY":" ","HOUSE_NO":"７號","E_COORD97":180297.59,"N_COORD97":2579503.7799999998,"ADDRESS":"大德街５０巷７號","OBJECTID":436281},"geometry":{"x":180297.59000000171,"y":2579503.7799999993}},{"attributes":{"ID":436307,"DIS_CODE":0,"TOWNNAME":"新營區","LI":"新南里","LIN":"18鄰","STREET":"隋唐街","SECT":" ","MAREA":" ","LANE":"３１巷","ALLEY":" ","HOUSE_NO":"１４號","E_COORD97":178692.91,"N_COORD97":2578418.3700000001,"ADDRESS":"隋唐街３１巷１４號","OBJECTID":436282},"geometry":{"x":178692.91000000015,"y":2578418.3700000048}},{"attributes":{"ID":436308,"DIS_CODE":0,"TOWNNAME":"新營區","LI":"新南里","LIN":"18鄰","STREET":"隋唐街","SECT":" ","MAREA":" ","LANE":"３１巷","ALLEY":" ","HOUSE_NO":"２０號","E_COORD97":178687.78,"N_COORD97":2578401.7799999998,"ADDRESS":"隋唐街３１巷２０號","OBJECTID":436283},"geometry":{"x":178687.78000000026,"y":2578401.7799999993}},{"attributes":{"ID":436309,"DIS_CODE":0,"TOWNNAME":"新營區","LI":"新南里","LIN":"25鄰","STREET":"復興路","SECT":" ","MAREA":" ","LANE":"６２０巷","ALLEY":" ","HOUSE_NO":"４０號","E_COORD97":178058.20000000001,"N_COORD97":2578502.2799999998,"ADDRESS":"復興路６２０巷４０號","OBJECTID":436284},"geometry":{"x":178058.20000000112,"y":2578502.2800000012}},{"attributes":{"ID":436310,"DIS_CODE":0,"TOWNNAME":"新營區","LI":"民權里","LIN":"4鄰","STREET":"中正路","SECT":" ","MAREA":" ","LANE":"９巷","ALLEY":" ","HOUSE_NO":"２２號","E_COORD97":179959.32000000001,"N_COORD97":2578424.5099999998,"ADDRESS":"中正路９巷２２號","OBJECTID":436285},"geometry":{"x":179959.32000000123,"y":2578424.5099999998}},{"attributes":{"ID":436311,"DIS_CODE":0,"TOWNNAME":"新營區","LI":"南興里","LIN":" ","STREET":"延平路","SECT":" ","MAREA":" ","LANE":"１４０巷","ALLEY":" ","HOUSE_NO":"２４之３號","E_COORD97":179647.51000000001,"N_COORD97":2577502.4399999999,"ADDRESS":"延平路１４０巷２４之３號","OBJECTID":436286},"geometry":{"x":179647.51000000071,"y":2577502.4399999995}},{"attributes":{"ID":436312,"DIS_CODE":0,"TOWNNAME":"新營區","LI":"南興里","LIN":" ","STREET":"延平路","SECT":" ","MAREA":" ","LANE":"１４０巷","ALLEY":" ","HOUSE_NO":"２２之１號","E_COORD97":179675.06,"N_COORD97":2577487.9100000001,"ADDRESS":"延平路１４０巷２２之１號","OBJECTID":436287},"geometry":{"x":179675.05999999959,"y":2577487.9099999983}},{"attributes":{"ID":436313,"DIS_CODE":0,"TOWNNAME":"新營區","LI":"新東里","LIN":"25鄰","STREET":"民族路","SECT":" ","MAREA":" ","LANE":"１５０巷","ALLEY":" ","HOUSE_NO":"５２號","E_COORD97":180609.01999999999,"N_COORD97":2579347.2799999998,"ADDRESS":"民族路１５０巷５２號","OBJECTID":436288},"geometry":{"x":180609.01999999955,"y":2579347.2800000012}},{"attributes":{"ID":436314,"DIS_CODE":0,"TOWNNAME":"新營區","LI":"南興里","LIN":"10鄰","STREET":"和平路","SECT":" ","MAREA":" ","LANE":"１０２巷","ALLEY":" ","HOUSE_NO":"１１號之１","E_COORD97":179372.69,"N_COORD97":2577591.23,"ADDRESS":"和平路１０２巷１１之１號","OBJECTID":436289},"geometry":{"x":179372.69000000134,"y":2577591.2300000042}},{"attributes":{"ID":436315,"DIS_CODE":0,"TOWNNAME":"新營區","LI":"民權里","LIN":"4鄰","STREET":"中正路","SECT":" ","MAREA":" ","LANE":"９巷","ALLEY":" ","HOUSE_NO":"１８號之１","E_COORD97":179948.03,"N_COORD97":2578413.5499999998,"ADDRESS":"中正路９巷１８號之１","OBJECTID":436290},"geometry":{"x":179948.03000000119,"y":2578413.5500000045}},{"attributes":{"ID":436316,"DIS_CODE":0,"TOWNNAME":"新營區","LI":"南興里","LIN":" ","STREET":"延平路","SECT":" ","MAREA":" ","LANE":"１４０巷","ALLEY":" ","HOUSE_NO":"３５之６號","E_COORD97":179571.35000000001,"N_COORD97":2577399.8100000001,"ADDRESS":"延平路１４０巷３５之６號","OBJECTID":436291},"geometry":{"x":179571.34999999963,"y":2577399.8100000005}},{"attributes":{"ID":436317,"DIS_CODE":0,"TOWNNAME":"新營區","LI":"新南里","LIN":"25鄰","STREET":"復興路","SECT":" ","MAREA":" ","LANE":"６２０巷","ALLEY":" ","HOUSE_NO":"４６號","E_COORD97":178075.57999999999,"N_COORD97":2578501.0899999999,"ADDRESS":"復興路６２０巷４６號","OBJECTID":436292},"geometry":{"x":178075.58000000194,"y":2578501.0900000017}},{"attributes":{"ID":436318,"DIS_CODE":0,"TOWNNAME":"新營區","LI":"南興里","LIN":" ","STREET":"延平路","SECT":" ","MAREA":" ","LANE":"１４０巷","ALLEY":" ","HOUSE_NO":"２４之１號","E_COORD97":179652.56,"N_COORD97":2577490.23,"ADDRESS":"延平路１４０巷２４之１號","OBJECTID":436293},"geometry":{"x":179652.55999999959,"y":2577490.2300000023}},{"attributes":{"ID":436319,"DIS_CODE":0,"TOWNNAME":"新營區","LI":"王公里","LIN":"25鄰","STREET":"中正路","SECT":" ","MAREA":" ","LANE":"１２２巷","ALLEY":" ","HOUSE_NO":"７號","E_COORD97":180134.91,"N_COORD97":2579493.4700000002,"ADDRESS":"中正路１２２巷７號","OBJECTID":436294},"geometry":{"x":180134.91000000108,"y":2579493.4700000025}},{"attributes":{"ID":436320,"DIS_CODE":0,"TOWNNAME":"新營區","LI":"民榮里","LIN":" ","STREET":"太子路","SECT":" ","MAREA":" ","LANE":"１９巷","ALLEY":" ","HOUSE_NO":"２號","E_COORD97":178440.62,"N_COORD97":2578100.6400000001,"ADDRESS":"太子路１９巷２號","OBJECTID":436295},"geometry":{"x":178440.62000000011,"y":2578100.6400000043}},{"attributes":{"ID":436321,"DIS_CODE":0,"TOWNNAME":"新營區","LI":"南興里","LIN":"32鄰","STREET":"延平路","SECT":" ","MAREA":" ","LANE":"１４０巷","ALLEY":" ","HOUSE_NO":"３號","E_COORD97":179691.45000000001,"N_COORD97":2577416.8799999999,"ADDRESS":"延平路１４０巷３號","OBJECTID":436296},"geometry":{"x":179691.45000000019,"y":2577416.8800000008}},{"attributes":{"ID":436322,"DIS_CODE":0,"TOWNNAME":"新營區","LI":"嘉芳里","LIN":"13鄰","STREET":"復興路","SECT":" ","MAREA":" ","LANE":"９７１巷","ALLEY":" ","HOUSE_NO":"１８號","E_COORD97":176770.16,"N_COORD97":2578675.8199999998,"ADDRESS":"復興路９７１巷１８號","OBJECTID":436297},"geometry":{"x":176770.16000000108,"y":2578675.8200000022}},{"attributes":{"ID":436323,"DIS_CODE":0,"TOWNNAME":"新營區","LI":"興業里","LIN":" ","STREET":"中興路","SECT":" ","MAREA":" ","LANE":"１５巷","ALLEY":" ","HOUSE_NO":"２８之３號","E_COORD97":180280.60000000001,"N_COORD97":2577915.8500000001,"ADDRESS":"中興路１５巷２８之３號","OBJECTID":436298},"geometry":{"x":180280.60000000056,"y":2577915.8500000015}},{"attributes":{"ID":436324,"DIS_CODE":0,"TOWNNAME":"新營區","LI":"新南里","LIN":"25鄰","STREET":"復興路","SECT":" ","MAREA":" ","LANE":"６２０巷","ALLEY":" ","HOUSE_NO":"４４號","E_COORD97":178069.45000000001,"N_COORD97":2578502.23,"ADDRESS":"復興路６２０巷４４號","OBJECTID":436299},"geometry":{"x":178069.45000000019,"y":2578502.2300000004}},{"attributes":{"ID":436325,"DIS_CODE":0,"TOWNNAME":"新營區","LI":"嘉芳里","LIN":"13鄰","STREET":"復興路","SECT":" ","MAREA":" ","LANE":"９７１巷","ALLEY":" ","HOUSE_NO":"１號","E_COORD97":176846.62,"N_COORD97":2578669.8999999999,"ADDRESS":"復興路９７１巷１號","OBJECTID":436300},"geometry":{"x":176846.62000000104,"y":2578669.9000000022}},{"attributes":{"ID":436326,"DIS_CODE":0,"TOWNNAME":"新營區","LI":"南興里","LIN":" ","STREET":"延平路","SECT":" ","MAREA":" ","LANE":"１４０巷","ALLEY":" ","HOUSE_NO":"３０之７號","E_COORD97":179615.57999999999,"N_COORD97":2577452.75,"ADDRESS":"延平路１４０巷３０之７號","OBJECTID":436301},"geometry":{"x":179615.58000000007,"y":2577452.7500000019}},{"attributes":{"ID":436327,"DIS_CODE":0,"TOWNNAME":"新營區","LI":"民權里","LIN":"24鄰","STREET":"民治路","SECT":" ","MAREA":" ","LANE":"５３巷","ALLEY":" ","HOUSE_NO":"１之８號","E_COORD97":179668.72,"N_COORD97":2578801.3700000001,"ADDRESS":"民治路５３巷１之８號","OBJECTID":436302},"geometry":{"x":179668.71999999974,"y":2578801.3700000048}},{"attributes":{"ID":436328,"DIS_CODE":0,"TOWNNAME":"新營區","LI":"民生里","LIN":" ","STREET":"三民路","SECT":" ","MAREA":" ","LANE":"１８６巷","ALLEY":" ","HOUSE_NO":"２之１１號","E_COORD97":179198.85999999999,"N_COORD97":2578232.1699999999,"ADDRESS":"三民路１８６巷２之１１號","OBJECTID":436303},"geometry":{"x":179198.86000000034,"y":2578232.1700000037}},{"attributes":{"ID":436329,"DIS_CODE":0,"TOWNNAME":"新營區","LI":"新南里","LIN":"25鄰","STREET":"隋唐街","SECT":" ","MAREA":" ","LANE":"２９５巷","ALLEY":" ","HOUSE_NO":"１２號","E_COORD97":178171.91,"N_COORD97":2578554.8900000001,"ADDRESS":"隋唐街２９５巷１２號","OBJECTID":436304},"geometry":{"x":178171.91000000108,"y":2578554.8900000025}},{"attributes":{"ID":436330,"DIS_CODE":0,"TOWNNAME":"新營區","LI":"三仙里","LIN":"13鄰","STREET":"民權路","SECT":" ","MAREA":" ","LANE":"４１巷","ALLEY":" ","HOUSE_NO":"９號","E_COORD97":179626.76000000001,"N_COORD97":2578252.21,"ADDRESS":"民權路４１巷９號","OBJECTID":436305},"geometry":{"x":179626.76000000164,"y":2578252.2100000009}},{"attributes":{"ID":436331,"DIS_CODE":0,"TOWNNAME":"新營區","LI":"好平里","LIN":" ","STREET":"長春街","SECT":" ","MAREA":" ","LANE":"７７巷","ALLEY":" ","HOUSE_NO":"７之３號","E_COORD97":179597.39999999999,"N_COORD97":2577777.3100000001,"ADDRESS":"長春街７７巷７之３號","OBJECTID":436306},"geometry":{"x":179597.40000000037,"y":2577777.3100000042}},{"attributes":{"ID":436332,"DIS_CODE":0,"TOWNNAME":"新營區","LI":"王公里","LIN":"32鄰","STREET":"大德街","SECT":" ","MAREA":" ","LANE":"１８巷","ALLEY":" ","HOUSE_NO":"７號","E_COORD97":180217.81,"N_COORD97":2579504.1600000001,"ADDRESS":"大德街１８巷７號","OBJECTID":436307},"geometry":{"x":180217.81000000145,"y":2579504.160000002}},{"attributes":{"ID":436333,"DIS_CODE":0,"TOWNNAME":"新營區","LI":"忠政里","LIN":"32鄰","STREET":"府西路","SECT":" ","MAREA":" ","LANE":"１７巷","ALLEY":" ","HOUSE_NO":"２４號","E_COORD97":179757.10000000001,"N_COORD97":2578921.6000000001,"ADDRESS":"府西路１７巷２４號","OBJECTID":436308},"geometry":{"x":179757.10000000056,"y":2578921.6000000015}},{"attributes":{"ID":436334,"DIS_CODE":0,"TOWNNAME":"麻豆區","LI":"大埕里","LIN":"8鄰","STREET":" ","SECT":" ","MAREA":"大埕","LANE":" ","ALLEY":" ","HOUSE_NO":"１５號之１３","E_COORD97":173165.69281000001,"N_COORD97":2565317.3346799999,"ADDRESS":"大埕１５號之１３","OBJECTID":436309},"geometry":{"x":173165.69281000178,"y":2565317.3346800003}},{"attributes":{"ID":436335,"DIS_CODE":0,"TOWNNAME":"新營區","LI":"新南里","LIN":"26鄰","STREET":"復興路","SECT":" ","MAREA":" ","LANE":"６２０巷","ALLEY":" ","HOUSE_NO":"４５號","E_COORD97":178039.72,"N_COORD97":2578489.0800000001,"ADDRESS":"復興路６２０巷４５號","OBJECTID":436310},"geometry":{"x":178039.71999999974,"y":2578489.0800000001}},{"attributes":{"ID":436336,"DIS_CODE":0,"TOWNNAME":"新營區","LI":"王公里","LIN":"13鄰","STREET":"民族路","SECT":" ","MAREA":" ","LANE":"１０６巷","ALLEY":" ","HOUSE_NO":"７０號之４","E_COORD97":180423.48000000001,"N_COORD97":2579161.0600000001,"ADDRESS":"民族路１０６巷７０號之４","OBJECTID":436311},"geometry":{"x":180423.48000000138,"y":2579161.0600000005}},{"attributes":{"ID":436337,"DIS_CODE":0,"TOWNNAME":"新營區","LI":"新南里","LIN":"25鄰","STREET":"隋唐街","SECT":" ","MAREA":" ","LANE":"２９５巷","ALLEY":" ","HOUSE_NO":"２之１號","E_COORD97":178171.25,"N_COORD97":2578569.3500000001,"ADDRESS":"隋唐街２９５巷２之１號","OBJECTID":436312},"geometry":{"x":178171.25000000093,"y":2578569.3500000034}},{"attributes":{"ID":436338,"DIS_CODE":0,"TOWNNAME":"新營區","LI":"新北里","LIN":"24鄰","STREET":"民生路","SECT":" ","MAREA":" ","LANE":"４２０巷","ALLEY":" ","HOUSE_NO":"４１號","E_COORD97":178923.82000000001,"N_COORD97":2579413.9700000002,"ADDRESS":"民生路４２０巷４１號","OBJECTID":436313},"geometry":{"x":178923.82000000123,"y":2579413.9700000044}},{"attributes":{"ID":436339,"DIS_CODE":0,"TOWNNAME":"新營區","LI":"新南里","LIN":"25鄰","STREET":"復興路","SECT":" ","MAREA":" ","LANE":"６２０巷","ALLEY":" ","HOUSE_NO":"６２號","E_COORD97":178087.85999999999,"N_COORD97":2578517.6499999999,"ADDRESS":"復興路６２０巷６２號","OBJECTID":436314},"geometry":{"x":178087.86000000127,"y":2578517.6500000022}},{"attributes":{"ID":436340,"DIS_CODE":0,"TOWNNAME":"新營區","LI":"新北里","LIN":"20鄰","STREET":"民生路","SECT":" ","MAREA":" ","LANE":"３３０巷","ALLEY":" ","HOUSE_NO":"１號","E_COORD97":178947.95999999999,"N_COORD97":2579179.0699999998,"ADDRESS":"民生路３３０巷１號","OBJECTID":436315},"geometry":{"x":178947.96000000089,"y":2579179.070000004}},{"attributes":{"ID":436341,"DIS_CODE":0,"TOWNNAME":"新營區","LI":"新南里","LIN":"25鄰","STREET":"隋唐街","SECT":" ","MAREA":" ","LANE":"２９５巷","ALLEY":" ","HOUSE_NO":"１４號","E_COORD97":178171.92999999999,"N_COORD97":2578559.3199999998,"ADDRESS":"隋唐街２９５巷１４號","OBJECTID":436316},"geometry":{"x":178171.9299999997,"y":2578559.3200000003}},{"attributes":{"ID":436342,"DIS_CODE":0,"TOWNNAME":"新營區","LI":"南興里","LIN":"25鄰","STREET":"和平路","SECT":" ","MAREA":" ","LANE":"９７巷","ALLEY":" ","HOUSE_NO":"４１之１號","E_COORD97":179558.84,"N_COORD97":2577569.2999999998,"ADDRESS":"和平路９７巷４１之１號","OBJECTID":436317},"geometry":{"x":179558.84000000078,"y":2577569.3000000007}},{"attributes":{"ID":436343,"DIS_CODE":0,"TOWNNAME":"新營區","LI":"忠政里","LIN":"26鄰","STREET":"府西路","SECT":" ","MAREA":" ","LANE":"１５９巷","ALLEY":" ","HOUSE_NO":"８號","E_COORD97":179766.31,"N_COORD97":2579402.1899999999,"ADDRESS":"府西路１５９巷８號","OBJECTID":436318},"geometry":{"x":179766.30999999959,"y":2579402.1900000013}},{"attributes":{"ID":436344,"DIS_CODE":0,"TOWNNAME":"新化區","LI":"東榮里","LIN":"13鄰","STREET":"中興路","SECT":" ","MAREA":" ","LANE":"５７０巷","ALLEY":" ","HOUSE_NO":"１８號","E_COORD97":179882.56,"N_COORD97":2548012.25,"ADDRESS":"中興路５７０巷１８號","OBJECTID":436319},"geometry":{"x":179882.56000000052,"y":2548012.25}},{"attributes":{"ID":436345,"DIS_CODE":0,"TOWNNAME":"新化區","LI":"東榮里","LIN":"18鄰","STREET":"中興路","SECT":" ","MAREA":" ","LANE":"６８５巷","ALLEY":" ","HOUSE_NO":"２４號","E_COORD97":179525.06,"N_COORD97":2548023.25,"ADDRESS":"中興路６８５巷２４號","OBJECTID":436320},"geometry":{"x":179525.06000000052,"y":2548023.2500000037}},{"attributes":{"ID":436346,"DIS_CODE":0,"TOWNNAME":"新化區","LI":"東榮里","LIN":"13鄰","STREET":"中興路","SECT":" ","MAREA":" ","LANE":"５５４巷","ALLEY":" ","HOUSE_NO":"３３號","E_COORD97":179910.26000000001,"N_COORD97":2548029.25,"ADDRESS":"中興路５５４巷３３號","OBJECTID":436321},"geometry":{"x":179910.26000000071,"y":2548029.25}},{"attributes":{"ID":436347,"DIS_CODE":0,"TOWNNAME":"新化區","LI":"東榮里","LIN":"24鄰","STREET":"中正路","SECT":" ","MAREA":" ","LANE":"２４４巷","ALLEY":" ","HOUSE_NO":"２２號","E_COORD97":179199.56,"N_COORD97":2547784.25,"ADDRESS":"中正路２４４巷２２號","OBJECTID":436322},"geometry":{"x":179199.56000000052,"y":2547784.25}},{"attributes":{"ID":436348,"DIS_CODE":0,"TOWNNAME":"新化區","LI":"東榮里","LIN":"8鄰","STREET":"信義路","SECT":" ","MAREA":" ","LANE":"１１７巷","ALLEY":" ","HOUSE_NO":"２８號","E_COORD97":179738.28,"N_COORD97":2548340.25,"ADDRESS":"信義路１１７巷２８號","OBJECTID":436323},"geometry":{"x":179738.28000000026,"y":2548340.25}},{"attributes":{"ID":436349,"DIS_CODE":0,"TOWNNAME":"新化區","LI":"東榮里","LIN":"17鄰","STREET":"中興路","SECT":" ","MAREA":" ","LANE":"６７７巷","ALLEY":" ","HOUSE_NO":"３３號","E_COORD97":179609.85999999999,"N_COORD97":2547958.25,"ADDRESS":"中興路６７７巷３３號","OBJECTID":436324},"geometry":{"x":179609.86000000127,"y":2547958.25}},{"attributes":{"ID":436350,"DIS_CODE":0,"TOWNNAME":"新化區","LI":"東榮里","LIN":"17鄰","STREET":"中興路","SECT":" ","MAREA":" ","LANE":"６７７巷","ALLEY":" ","HOUSE_NO":"１０號","E_COORD97":179591.35999999999,"N_COORD97":2548016.25,"ADDRESS":"中興路６７７巷１０號","OBJECTID":436325},"geometry":{"x":179591.36000000127,"y":2548016.2499999981}},{"attributes":{"ID":436351,"DIS_CODE":0,"TOWNNAME":"新化區","LI":"武安里","LIN":"4鄰","STREET":"中正路","SECT":" ","MAREA":" ","LANE":"３４１巷","ALLEY":" ","HOUSE_NO":"２１號","E_COORD97":179064.95999999999,"N_COORD97":2548189.25,"ADDRESS":"中正路３４１巷２１號","OBJECTID":436326},"geometry":{"x":179064.96000000089,"y":2548189.2500000037}},{"attributes":{"ID":436352,"DIS_CODE":0,"TOWNNAME":"南區","LI":"佛壇里","LIN":"4鄰","STREET":"興南街","SECT":" ","MAREA":" ","LANE":"１２４巷","ALLEY":" ","HOUSE_NO":"１１號","E_COORD97":166111.01000000001,"N_COORD97":2535953.6899999999,"ADDRESS":"興南街１２４巷１１號","OBJECTID":436327},"geometry":{"x":166111.01000000164,"y":2535953.6900000013}},{"attributes":{"ID":436353,"DIS_CODE":0,"TOWNNAME":"南區","LI":"佛壇里","LIN":"4鄰","STREET":"興南街","SECT":" ","MAREA":" ","LANE":"１２４巷","ALLEY":" ","HOUSE_NO":"１號","E_COORD97":166134.37,"N_COORD97":2535930.3599999999,"ADDRESS":"興南街１２４巷１號","OBJECTID":436328},"geometry":{"x":166134.37000000197,"y":2535930.3599999994}},{"attributes":{"ID":436354,"DIS_CODE":0,"TOWNNAME":"南區","LI":"佛壇里","LIN":"4鄰","STREET":"興南街","SECT":" ","MAREA":" ","LANE":"１２４巷","ALLEY":" ","HOUSE_NO":"７號","E_COORD97":166125.54000000001,"N_COORD97":2535951.1200000001,"ADDRESS":"興南街１２４巷７號","OBJECTID":436329},"geometry":{"x":166125.54000000004,"y":2535951.120000001}},{"attributes":{"ID":436355,"DIS_CODE":0,"TOWNNAME":"南區","LI":"佛壇里","LIN":"4鄰","STREET":"興南街","SECT":" ","MAREA":" ","LANE":"１２４巷","ALLEY":" ","HOUSE_NO":"９號","E_COORD97":166120.76000000001,"N_COORD97":2535942.6699999999,"ADDRESS":"興南街１２４巷９號","OBJECTID":436330},"geometry":{"x":166120.75999999978,"y":2535942.6699999999}},{"attributes":{"ID":436356,"DIS_CODE":0,"TOWNNAME":"南區","LI":"佛壇里","LIN":"4鄰","STREET":"興南街","SECT":" ","MAREA":" ","LANE":"１６６巷","ALLEY":" ","HOUSE_NO":"２４號","E_COORD97":166078.85999999999,"N_COORD97":2535916.3300000001,"ADDRESS":"興南街１６６巷２４號","OBJECTID":436331},"geometry":{"x":166078.86000000127,"y":2535916.3300000019}},{"attributes":{"ID":436357,"DIS_CODE":0,"TOWNNAME":"南區","LI":"佛壇里","LIN":"4鄰","STREET":"興南街","SECT":" ","MAREA":" ","LANE":"１６６巷","ALLEY":" ","HOUSE_NO":"２６號","E_COORD97":166084.38,"N_COORD97":2535919.8199999998,"ADDRESS":"興南街１６６巷２６號","OBJECTID":436332},"geometry":{"x":166084.37999999989,"y":2535919.8200000022}},{"attributes":{"ID":436358,"DIS_CODE":0,"TOWNNAME":"南區","LI":"廣州里","LIN":"1鄰","STREET":"健康路","SECT":"二段","MAREA":" ","LANE":"１１６巷","ALLEY":" ","HOUSE_NO":"２９號","E_COORD97":167397.48000000001,"N_COORD97":2542590.6000000001,"ADDRESS":"健康路二段１１６巷２９號","OBJECTID":436333},"geometry":{"x":167397.48000000138,"y":2542590.6000000015}},{"attributes":{"ID":436359,"DIS_CODE":0,"TOWNNAME":"南區","LI":"同安里","LIN":"13鄰","STREET":"明興路","SECT":" ","MAREA":" ","LANE":"１２８５巷","ALLEY":" ","HOUSE_NO":"８０號","E_COORD97":166661.45999999999,"N_COORD97":2535930.3900000001,"ADDRESS":"明興路１２８５巷８０號","OBJECTID":436334},"geometry":{"x":166661.46000000089,"y":2535930.3900000025}},{"attributes":{"ID":436360,"DIS_CODE":0,"TOWNNAME":"南區","LI":"大恩里","LIN":"14鄰","STREET":"國民路","SECT":" ","MAREA":" ","LANE":"１６５巷","ALLEY":" ","HOUSE_NO":"６０號","E_COORD97":169132.39000000001,"N_COORD97":2540732.9100000001,"ADDRESS":"國民路１６５巷６０號","OBJECTID":436335},"geometry":{"x":169132.38999999873,"y":2540732.9100000039}},{"attributes":{"ID":436361,"DIS_CODE":0,"TOWNNAME":"南區","LI":"興農里","LIN":"4鄰","STREET":"灣裡路","SECT":" ","MAREA":" ","LANE":"２１１巷","ALLEY":" ","HOUSE_NO":"８２號","E_COORD97":166461.42999999999,"N_COORD97":2536593.8300000001,"ADDRESS":"灣裡路２１１巷８２號","OBJECTID":436336},"geometry":{"x":166461.43000000063,"y":2536593.8300000038}},{"attributes":{"ID":436362,"DIS_CODE":0,"TOWNNAME":"南區","LI":"大忠里","LIN":"7鄰","STREET":"大同路","SECT":"二段","MAREA":" ","LANE":"４８２巷","ALLEY":" ","HOUSE_NO":"４５號","E_COORD97":169333.45999999999,"N_COORD97":2541438.1000000001,"ADDRESS":"大同路二段４８２巷４５號","OBJECTID":436337},"geometry":{"x":169333.45999999996,"y":2541438.0999999996}},{"attributes":{"ID":436363,"DIS_CODE":0,"TOWNNAME":"南區","LI":"興農里","LIN":"4鄰","STREET":"灣裡路","SECT":" ","MAREA":" ","LANE":"２１１巷","ALLEY":" ","HOUSE_NO":"６０之１號","E_COORD97":166293.73000000001,"N_COORD97":2536559.8100000001,"ADDRESS":"灣裡路２１１巷６０之１號","OBJECTID":436338},"geometry":{"x":166293.73000000138,"y":2536559.8100000005}},{"attributes":{"ID":436364,"DIS_CODE":0,"TOWNNAME":"南區","LI":"明亮里","LIN":"7鄰","STREET":"金華路","SECT":"一段","MAREA":" ","LANE":"３５２巷","ALLEY":" ","HOUSE_NO":"１０６號","E_COORD97":167235.51999999999,"N_COORD97":2541077.73,"ADDRESS":"金華路一段３５２巷１０６號","OBJECTID":436339},"geometry":{"x":167235.51999999955,"y":2541077.7300000023}},{"attributes":{"ID":436365,"DIS_CODE":0,"TOWNNAME":"歸仁區","LI":"六甲里","LIN":"39鄰","STREET":"六甲八街","SECT":" ","MAREA":" ","LANE":"１４９巷","ALLEY":" ","HOUSE_NO":"１２４號","E_COORD97":175240.89999999999,"N_COORD97":2539871.73,"ADDRESS":"六甲八街１４９巷１２４號","OBJECTID":436340},"geometry":{"x":175240.90000000224,"y":2539871.7300000004}},{"attributes":{"ID":436366,"DIS_CODE":0,"TOWNNAME":"南區","LI":"新昌里","LIN":"17鄰","STREET":"大德街","SECT":" ","MAREA":" ","LANE":"１４１巷","ALLEY":" ","HOUSE_NO":"５５號","E_COORD97":167557.07999999999,"N_COORD97":2542816.6699999999,"ADDRESS":"大德街１４１巷５５號","OBJECTID":436341},"geometry":{"x":167557.08000000101,"y":2542816.6700000018}},{"attributes":{"ID":436367,"DIS_CODE":0,"TOWNNAME":"歸仁區","LI":"六甲里","LIN":"18鄰","STREET":"六甲路","SECT":" ","MAREA":" ","LANE":"３６５巷","ALLEY":" ","HOUSE_NO":"２９號","E_COORD97":175623.96427,"N_COORD97":2539186.52152,"ADDRESS":"六甲路３６５巷２９號","OBJECTID":436342},"geometry":{"x":175623.96427000128,"y":2539186.5215160009}},{"attributes":{"ID":436368,"DIS_CODE":0,"TOWNNAME":"新營區","LI":"王公里","LIN":"11鄰","STREET":"義和街","SECT":" ","MAREA":" ","LANE":"８巷","ALLEY":" ","HOUSE_NO":"３號之８","E_COORD97":180483.47,"N_COORD97":2579120.8900000001,"ADDRESS":"義和街８巷３號之８","OBJECTID":436343},"geometry":{"x":180483.47000000067,"y":2579120.8900000025}},{"attributes":{"ID":436369,"DIS_CODE":0,"TOWNNAME":"歸仁區","LI":"六甲里","LIN":"39鄰","STREET":"六甲八街","SECT":" ","MAREA":" ","LANE":"１４９巷","ALLEY":" ","HOUSE_NO":"１５４號","E_COORD97":175241,"N_COORD97":2539886.73,"ADDRESS":"六甲八街１４９巷１５４號","OBJECTID":436344},"geometry":{"x":175241,"y":2539886.7299999986}},{"attributes":{"ID":436370,"DIS_CODE":0,"TOWNNAME":"歸仁區","LI":"大廟里","LIN":"18鄰","STREET":"保大路","SECT":"三段","MAREA":" ","LANE":"２７２巷","ALLEY":" ","HOUSE_NO":"１０號","E_COORD97":175823.12,"N_COORD97":2544368.2799999998,"ADDRESS":"保大路三段２７２巷１０號","OBJECTID":436345},"geometry":{"x":175823.12000000104,"y":2544368.2800000012}},{"attributes":{"ID":436371,"DIS_CODE":0,"TOWNNAME":"歸仁區","LI":"文化里","LIN":"18鄰","STREET":"文化北二街","SECT":" ","MAREA":" ","LANE":"２３巷","ALLEY":" ","HOUSE_NO":"６號","E_COORD97":177165.07000000001,"N_COORD97":2541435.2599999998,"ADDRESS":"文化北二街２３巷６號","OBJECTID":436346},"geometry":{"x":177165.0700000003,"y":2541435.2600000035}},{"attributes":{"ID":436372,"DIS_CODE":0,"TOWNNAME":"歸仁區","LI":"六甲里","LIN":"39鄰","STREET":"六甲八街","SECT":" ","MAREA":" ","LANE":"１４９巷","ALLEY":" ","HOUSE_NO":"１５０號","E_COORD97":175231.79999999999,"N_COORD97":2539886.73,"ADDRESS":"六甲八街１４９巷１５０號","OBJECTID":436347},"geometry":{"x":175231.79999999981,"y":2539886.7299999986}},{"attributes":{"ID":436373,"DIS_CODE":0,"TOWNNAME":"歸仁區","LI":"六甲里","LIN":"43鄰","STREET":"民生十二街","SECT":" ","MAREA":" ","LANE":"７１巷","ALLEY":" ","HOUSE_NO":"１０號","E_COORD97":175846.60000000001,"N_COORD97":2539436.7999999998,"ADDRESS":"民生十二街７１巷１０號","OBJECTID":436348},"geometry":{"x":175846.59999999963,"y":2539436.8000000026}},{"attributes":{"ID":436374,"DIS_CODE":0,"TOWNNAME":"歸仁區","LI":"六甲里","LIN":"43鄰","STREET":"民生十二街","SECT":" ","MAREA":" ","LANE":"７１巷","ALLEY":" ","HOUSE_NO":"１８號","E_COORD97":175830.20000000001,"N_COORD97":2539436.7999999998,"ADDRESS":"民生十二街７１巷１８號","OBJECTID":436349},"geometry":{"x":175830.19999999925,"y":2539436.8000000026}},{"attributes":{"ID":436375,"DIS_CODE":0,"TOWNNAME":"歸仁區","LI":"南興里","LIN":"4鄰","STREET":"文化十二街","SECT":" ","MAREA":" ","LANE":"３３巷","ALLEY":" ","HOUSE_NO":"１４號","E_COORD97":176435.34,"N_COORD97":2541317.3300000001,"ADDRESS":"文化十二街３３巷１４號","OBJECTID":436350},"geometry":{"x":176435.33999999985,"y":2541317.3300000019}},{"attributes":{"ID":436376,"DIS_CODE":0,"TOWNNAME":"歸仁區","LI":"六甲里","LIN":"43鄰","STREET":"民生十二街","SECT":" ","MAREA":" ","LANE":"７１巷","ALLEY":" ","HOUSE_NO":"５０號","E_COORD97":175844.20000000001,"N_COORD97":2539354.7999999998,"ADDRESS":"民生十二街７１巷５０號","OBJECTID":436351},"geometry":{"x":175844.20000000112,"y":2539354.8000000026}},{"attributes":{"ID":436377,"DIS_CODE":0,"TOWNNAME":"歸仁區","LI":"六甲里","LIN":"18鄰","STREET":"六甲路","SECT":" ","MAREA":" ","LANE":"３６５巷","ALLEY":" ","HOUSE_NO":"３５號","E_COORD97":175651.32000000001,"N_COORD97":2539160.25,"ADDRESS":"六甲路３６５巷３５號","OBJECTID":436352},"geometry":{"x":175651.3200000003,"y":2539160.25}},{"attributes":{"ID":436378,"DIS_CODE":0,"TOWNNAME":"歸仁區","LI":"後市里","LIN":"20鄰","STREET":"民族北街","SECT":" ","MAREA":" ","LANE":"１２巷","ALLEY":" ","HOUSE_NO":"５號","E_COORD97":177472.07999999999,"N_COORD97":2540869.25,"ADDRESS":"民族北街１２巷５號","OBJECTID":436353},"geometry":{"x":177472.08000000194,"y":2540869.2499999981}},{"attributes":{"ID":436379,"DIS_CODE":0,"TOWNNAME":"歸仁區","LI":"六甲里","LIN":"26鄰","STREET":"六甲路","SECT":" ","MAREA":" ","LANE":"２２６巷","ALLEY":" ","HOUSE_NO":"６號","E_COORD97":175961.17000000001,"N_COORD97":2539229.25,"ADDRESS":"六甲路２２６巷６號","OBJECTID":436354},"geometry":{"x":175961.17000000086,"y":2539229.2500000019}},{"attributes":{"ID":436380,"DIS_CODE":0,"TOWNNAME":"歸仁區","LI":"六甲里","LIN":"14鄰","STREET":"六甲路","SECT":" ","MAREA":" ","LANE":"２５７巷","ALLEY":" ","HOUSE_NO":"１２號","E_COORD97":175894.42000000001,"N_COORD97":2539163.25,"ADDRESS":"六甲路２５７巷１２號","OBJECTID":436355},"geometry":{"x":175894.41999999993,"y":2539163.25}},{"attributes":{"ID":436381,"DIS_CODE":0,"TOWNNAME":"歸仁區","LI":"西埔里","LIN":"4鄰","STREET":"保大路","SECT":"二段","MAREA":" ","LANE":"１２２巷","ALLEY":" ","HOUSE_NO":"２１號","E_COORD97":177036.48000000001,"N_COORD97":2544198.25,"ADDRESS":"保大路二段１２２巷２１號","OBJECTID":436356},"geometry":{"x":177036.48000000138,"y":2544198.25}},{"attributes":{"ID":436382,"DIS_CODE":0,"TOWNNAME":"歸仁區","LI":"七甲里","LIN":"5鄰","STREET":"中正北路","SECT":"二段","MAREA":" ","LANE":"４３２巷","ALLEY":" ","HOUSE_NO":"２號","E_COORD97":177506.12,"N_COORD97":2543068.2599999998,"ADDRESS":"中正北路二段４３２巷２號","OBJECTID":436357},"geometry":{"x":177506.12000000104,"y":2543068.2599999998}},{"attributes":{"ID":436383,"DIS_CODE":0,"TOWNNAME":"歸仁區","LI":"六甲里","LIN":"18鄰","STREET":"六甲路","SECT":" ","MAREA":" ","LANE":"３６５巷","ALLEY":" ","HOUSE_NO":"３１號","E_COORD97":175643.22,"N_COORD97":2539184.25,"ADDRESS":"六甲路３６５巷３１號","OBJECTID":436358},"geometry":{"x":175643.2200000016,"y":2539184.2499999981}},{"attributes":{"ID":436384,"DIS_CODE":0,"TOWNNAME":"歸仁區","LI":"六甲里","LIN":"32鄰","STREET":"六甲路","SECT":" ","MAREA":" ","LANE":"３０６巷","ALLEY":" ","HOUSE_NO":"２８號","E_COORD97":175718.45713900001,"N_COORD97":2539328.76144,"ADDRESS":"六甲路３０６巷２８號","OBJECTID":436359},"geometry":{"x":175718.45713900123,"y":2539328.7614389993}},{"attributes":{"ID":436385,"DIS_CODE":0,"TOWNNAME":"歸仁區","LI":"南保里","LIN":"5鄰","STREET":"文化街","SECT":"三段","MAREA":" ","LANE":"１８巷","ALLEY":" ","HOUSE_NO":"２５號","E_COORD97":176919.23999999999,"N_COORD97":2541290.3300000001,"ADDRESS":"文化街三段１８巷２５號","OBJECTID":436360},"geometry":{"x":176919.24000000115,"y":2541290.3300000019}},{"attributes":{"ID":436386,"DIS_CODE":0,"TOWNNAME":"歸仁區","LI":"文化里","LIN":"25鄰","STREET":"文化北街","SECT":" ","MAREA":" ","LANE":"１６８巷","ALLEY":" ","HOUSE_NO":"５號","E_COORD97":177040.97,"N_COORD97":2541429.2599999998,"ADDRESS":"文化北街１６８巷５號","OBJECTID":436361},"geometry":{"x":177040.96999999974,"y":2541429.2600000016}},{"attributes":{"ID":436387,"DIS_CODE":0,"TOWNNAME":"歸仁區","LI":"武東里","LIN":"1鄰","STREET":"中正南路","SECT":"二段","MAREA":" ","LANE":"２７５巷","ALLEY":" ","HOUSE_NO":"３２號","E_COORD97":175528.82000000001,"N_COORD97":2535089.48,"ADDRESS":"中正南路二段２７５巷３２號","OBJECTID":436362},"geometry":{"x":175528.8200000003,"y":2535089.4800000023}},{"attributes":{"ID":436388,"DIS_CODE":0,"TOWNNAME":"歸仁區","LI":"許厝里","LIN":"4鄰","STREET":"仁愛一街","SECT":" ","MAREA":" ","LANE":"１２巷","ALLEY":" ","HOUSE_NO":"１號","E_COORD97":178340.12,"N_COORD97":2540607.46,"ADDRESS":"仁愛一街１２巷１號","OBJECTID":436363},"geometry":{"x":178340.12000000104,"y":2540607.4600000009}},{"attributes":{"ID":436389,"DIS_CODE":0,"TOWNNAME":"歸仁區","LI":"南興里","LIN":"13鄰","STREET":"文化十八街","SECT":" ","MAREA":" ","LANE":"１８巷","ALLEY":" ","HOUSE_NO":"２０號","E_COORD97":175915.39000000001,"N_COORD97":2541254.3700000001,"ADDRESS":"文化十八街１８巷２０號","OBJECTID":436364},"geometry":{"x":175915.3900000006,"y":2541254.3700000029}},{"attributes":{"ID":436390,"DIS_CODE":0,"TOWNNAME":"歸仁區","LI":"南興里","LIN":"13鄰","STREET":"文化十八街","SECT":" ","MAREA":" ","LANE":"１８巷","ALLEY":" ","HOUSE_NO":"２１號","E_COORD97":175906.51999999999,"N_COORD97":2541274.71,"ADDRESS":"文化十八街１８巷２１號","OBJECTID":436365},"geometry":{"x":175906.51999999955,"y":2541274.7100000028}},{"attributes":{"ID":436391,"DIS_CODE":0,"TOWNNAME":"歸仁區","LI":"南興里","LIN":"13鄰","STREET":"文化十八街","SECT":" ","MAREA":" ","LANE":"１８巷","ALLEY":" ","HOUSE_NO":"２２號","E_COORD97":175918.92000000001,"N_COORD97":2541255.02,"ADDRESS":"文化十八街１８巷２２號","OBJECTID":436366},"geometry":{"x":175918.92000000086,"y":2541255.0200000014}},{"attributes":{"ID":436392,"DIS_CODE":0,"TOWNNAME":"歸仁區","LI":"南興里","LIN":"13鄰","STREET":"文化十八街","SECT":" ","MAREA":" ","LANE":"１８巷","ALLEY":" ","HOUSE_NO":"２３號","E_COORD97":175910.91,"N_COORD97":2541274.71,"ADDRESS":"文化十八街１８巷２３號","OBJECTID":436367},"geometry":{"x":175910.91000000108,"y":2541274.7100000028}},{"attributes":{"ID":436393,"DIS_CODE":0,"TOWNNAME":"歸仁區","LI":"南興里","LIN":"13鄰","STREET":"文化十八街","SECT":" ","MAREA":" ","LANE":"１８巷","ALLEY":" ","HOUSE_NO":"２５號","E_COORD97":175915.19,"N_COORD97":2541274.3199999998,"ADDRESS":"文化十八街１８巷２５號","OBJECTID":436368},"geometry":{"x":175915.19000000041,"y":2541274.3200000022}},{"attributes":{"ID":436394,"DIS_CODE":0,"TOWNNAME":"歸仁區","LI":"南興里","LIN":"13鄰","STREET":"文化十八街","SECT":" ","MAREA":" ","LANE":"１８巷","ALLEY":" ","HOUSE_NO":"２６號","E_COORD97":175923.19,"N_COORD97":2541254.25,"ADDRESS":"文化十八街１８巷２６號","OBJECTID":436369},"geometry":{"x":175923.19000000041,"y":2541254.2500000019}},{"attributes":{"ID":436395,"DIS_CODE":0,"TOWNNAME":"歸仁區","LI":"南保里","LIN":"4鄰","STREET":"民權北路","SECT":" ","MAREA":" ","LANE":"２６７巷","ALLEY":" ","HOUSE_NO":"２８號","E_COORD97":176945.51999999999,"N_COORD97":2541472.5,"ADDRESS":"民權北路２６７巷２８號","OBJECTID":436370},"geometry":{"x":176945.51999999955,"y":2541472.5000000019}},{"attributes":{"ID":436396,"DIS_CODE":0,"TOWNNAME":"歸仁區","LI":"南保里","LIN":"4鄰","STREET":"民權北路","SECT":" ","MAREA":" ","LANE":"２６７巷","ALLEY":" ","HOUSE_NO":"２８號","E_COORD97":176946.48000000001,"N_COORD97":2541469.2000000002,"ADDRESS":"民權北路２６７巷２８號","OBJECTID":436371},"geometry":{"x":176946.48000000138,"y":2541469.200000003}},{"attributes":{"ID":436397,"DIS_CODE":0,"TOWNNAME":"南區","LI":"田寮里","LIN":"6鄰","STREET":"新興路","SECT":" ","MAREA":" ","LANE":"２１７巷","ALLEY":" ","HOUSE_NO":"２２號","E_COORD97":167387.67999999999,"N_COORD97":2541909.5899999999,"ADDRESS":"新興路２１７巷２２號","OBJECTID":436372},"geometry":{"x":167387.6799999997,"y":2541909.5899999999}},{"attributes":{"ID":436398,"DIS_CODE":0,"TOWNNAME":"歸仁區","LI":"看東里","LIN":"13鄰","STREET":"忠孝南路","SECT":" ","MAREA":" ","LANE":"２５巷","ALLEY":" ","HOUSE_NO":"６９號","E_COORD97":178582.54000000001,"N_COORD97":2540448.0899999999,"ADDRESS":"忠孝南路２５巷６９號","OBJECTID":436373},"geometry":{"x":178582.5400000019,"y":2540448.0900000017}},{"attributes":{"ID":436399,"DIS_CODE":0,"TOWNNAME":"新化區","LI":"協興里","LIN":"4鄰","STREET":"正新路","SECT":" ","MAREA":" ","LANE":"２４７巷","ALLEY":" ","HOUSE_NO":"９號","E_COORD97":178521.32000000001,"N_COORD97":2548489.25,"ADDRESS":"正新路２４７巷９號","OBJECTID":436374},"geometry":{"x":178521.3200000003,"y":2548489.2500000019}},{"attributes":{"ID":436400,"DIS_CODE":0,"TOWNNAME":"歸仁區","LI":"看東里","LIN":"13鄰","STREET":"忠孝南路","SECT":" ","MAREA":" ","LANE":"２５巷","ALLEY":" ","HOUSE_NO":"７１號","E_COORD97":178586.69,"N_COORD97":2540448.02,"ADDRESS":"忠孝南路２５巷７１號","OBJECTID":436375},"geometry":{"x":178586.69000000041,"y":2540448.0200000014}},{"attributes":{"ID":436401,"DIS_CODE":0,"TOWNNAME":"歸仁區","LI":"大潭里","LIN":"20鄰","STREET":"長榮路","SECT":"二段","MAREA":" ","LANE":"７５巷","ALLEY":" ","HOUSE_NO":"４９號","E_COORD97":176905.54000000001,"N_COORD97":2534617.5,"ADDRESS":"長榮路二段７５巷４９號","OBJECTID":436376},"geometry":{"x":176905.54000000004,"y":2534617.5000000019}},{"attributes":{"ID":436402,"DIS_CODE":0,"TOWNNAME":"歸仁區","LI":"媽廟里","LIN":"26鄰","STREET":"保大路","SECT":"一段","MAREA":" ","LANE":"２６０巷","ALLEY":" ","HOUSE_NO":"８８號","E_COORD97":177396.73999999999,"N_COORD97":2544543.8700000001,"ADDRESS":"保大路一段２６０巷８８號","OBJECTID":436377},"geometry":{"x":177396.74000000115,"y":2544543.870000001}},{"attributes":{"ID":436403,"DIS_CODE":0,"TOWNNAME":"歸仁區","LI":"七甲里","LIN":"13鄰","STREET":"南丁路","SECT":" ","MAREA":" ","LANE":"３５９巷","ALLEY":" ","HOUSE_NO":"１１６號","E_COORD97":175800.38,"N_COORD97":2542644.3399999999,"ADDRESS":"南丁路３５９巷１１６號","OBJECTID":436378},"geometry":{"x":175800.38000000082,"y":2542644.3399999999}},{"attributes":{"ID":436404,"DIS_CODE":0,"TOWNNAME":"歸仁區","LI":"大廟里","LIN":"17鄰","STREET":"保吉路","SECT":" ","MAREA":" ","LANE":"１７５巷","ALLEY":" ","HOUSE_NO":"３３號","E_COORD97":176026.13,"N_COORD97":2545204.8599999999,"ADDRESS":"保吉路１７５巷３３號","OBJECTID":436379},"geometry":{"x":176026.13000000082,"y":2545204.8600000013}},{"attributes":{"ID":436405,"DIS_CODE":0,"TOWNNAME":"南區","LI":"竹溪里","LIN":"4鄰","STREET":"體育路","SECT":" ","MAREA":" ","LANE":"４１巷","ALLEY":" ","HOUSE_NO":"３６號之１","E_COORD97":168868.59,"N_COORD97":2542237.5800000001,"ADDRESS":"體育路４１巷３６號之１","OBJECTID":436380},"geometry":{"x":168868.59000000171,"y":2542237.5800000019}},{"attributes":{"ID":436406,"DIS_CODE":0,"TOWNNAME":"南區","LI":"新昌里","LIN":"4鄰","STREET":"大德街","SECT":" ","MAREA":" ","LANE":"１７７巷","ALLEY":" ","HOUSE_NO":"４號","E_COORD97":167497.04000000001,"N_COORD97":2542871.3199999998,"ADDRESS":"大德街１７７巷４號","OBJECTID":436381},"geometry":{"x":167497.04000000004,"y":2542871.3200000022}},{"attributes":{"ID":436407,"DIS_CODE":0,"TOWNNAME":"南區","LI":"新昌里","LIN":"4鄰","STREET":"大德街","SECT":" ","MAREA":" ","LANE":"１７７巷","ALLEY":" ","HOUSE_NO":"１４號","E_COORD97":167516.82999999999,"N_COORD97":2542864.3500000001,"ADDRESS":"大德街１７７巷１４號","OBJECTID":436382},"geometry":{"x":167516.83000000101,"y":2542864.3499999996}},{"attributes":{"ID":436408,"DIS_CODE":0,"TOWNNAME":"南區","LI":"新昌里","LIN":"4鄰","STREET":"大德街","SECT":" ","MAREA":" ","LANE":"１４１巷","ALLEY":" ","HOUSE_NO":"４２號之３","E_COORD97":167505.95999999999,"N_COORD97":2542849.6000000001,"ADDRESS":"大德街１４１巷４２號之３","OBJECTID":436383},"geometry":{"x":167505.95999999996,"y":2542849.5999999996}},{"attributes":{"ID":436409,"DIS_CODE":0,"TOWNNAME":"南區","LI":"新昌里","LIN":"4鄰","STREET":"大德街","SECT":" ","MAREA":" ","LANE":"１４１巷","ALLEY":" ","HOUSE_NO":"４２號","E_COORD97":167517,"N_COORD97":2542846.2000000002,"ADDRESS":"大德街１４１巷４２號","OBJECTID":436384},"geometry":{"x":167517.00000000093,"y":2542846.2000000011}},{"attributes":{"ID":436410,"DIS_CODE":0,"TOWNNAME":"南區","LI":"新昌里","LIN":"4鄰","STREET":"大德街","SECT":" ","MAREA":" ","LANE":"１４１巷","ALLEY":" ","HOUSE_NO":"４２號之１","E_COORD97":167513.75,"N_COORD97":2542847.6499999999,"ADDRESS":"大德街１４１巷４２號之１","OBJECTID":436385},"geometry":{"x":167513.75000000093,"y":2542847.6500000022}},{"attributes":{"ID":436411,"DIS_CODE":0,"TOWNNAME":"南區","LI":"竹溪里","LIN":"4鄰","STREET":"體育路","SECT":" ","MAREA":" ","LANE":"４１巷","ALLEY":" ","HOUSE_NO":"３０號之１","E_COORD97":168826.23999999999,"N_COORD97":2542234.9300000002,"ADDRESS":"體育路４１巷３０號之１","OBJECTID":436386},"geometry":{"x":168826.24000000115,"y":2542234.9300000016}},{"attributes":{"ID":436412,"DIS_CODE":0,"TOWNNAME":"南區","LI":"竹溪里","LIN":"4鄰","STREET":"體育路","SECT":" ","MAREA":" ","LANE":"４１巷","ALLEY":" ","HOUSE_NO":"３２號之１","E_COORD97":168837.20000000001,"N_COORD97":2542236.5,"ADDRESS":"體育路４１巷３２號之１","OBJECTID":436387},"geometry":{"x":168837.20000000019,"y":2542236.5}},{"attributes":{"ID":436413,"DIS_CODE":0,"TOWNNAME":"南區","LI":"田寮里","LIN":"13鄰","STREET":"新興路","SECT":" ","MAREA":" ","LANE":"４１巷","ALLEY":" ","HOUSE_NO":"１６號","E_COORD97":167657.48000000001,"N_COORD97":2542162.9300000002,"ADDRESS":"新興路４１巷１６號","OBJECTID":436388},"geometry":{"x":167657.48000000045,"y":2542162.9299999978}},{"attributes":{"ID":436414,"DIS_CODE":0,"TOWNNAME":"南區","LI":"新昌里","LIN":"17鄰","STREET":"大德街","SECT":" ","MAREA":" ","LANE":"１４１巷","ALLEY":" ","HOUSE_NO":"６５號","E_COORD97":167561.29999999999,"N_COORD97":2542800.0499999998,"ADDRESS":"大德街１４１巷６５號","OBJECTID":436389},"geometry":{"x":167561.29999999981,"y":2542800.0500000007}},{"attributes":{"ID":436415,"DIS_CODE":0,"TOWNNAME":"南區","LI":"日新里","LIN":"12鄰","STREET":"新興路","SECT":" ","MAREA":" ","LANE":"４８１巷","ALLEY":" ","HOUSE_NO":"１０號","E_COORD97":166799.09,"N_COORD97":2541694.6800000002,"ADDRESS":"新興路４８１巷１０號","OBJECTID":436390},"geometry":{"x":166799.09000000078,"y":2541694.6800000016}},{"attributes":{"ID":436416,"DIS_CODE":0,"TOWNNAME":"南區","LI":"日新里","LIN":"12鄰","STREET":"新興路","SECT":" ","MAREA":" ","LANE":"４８１巷","ALLEY":" ","HOUSE_NO":"１２號","E_COORD97":166799.85999999999,"N_COORD97":2541690.3100000001,"ADDRESS":"新興路４８１巷１２號","OBJECTID":436391},"geometry":{"x":166799.86000000127,"y":2541690.3100000042}},{"attributes":{"ID":436417,"DIS_CODE":0,"TOWNNAME":"南區","LI":"建南里","LIN":"7鄰","STREET":"德興路","SECT":" ","MAREA":" ","LANE":"１９０巷","ALLEY":" ","HOUSE_NO":"３號","E_COORD97":167175.84,"N_COORD97":2540201.3300000001,"ADDRESS":"德興路１９０巷３號","OBJECTID":436392},"geometry":{"x":167175.84000000078,"y":2540201.3300000038}},{"attributes":{"ID":436418,"DIS_CODE":0,"TOWNNAME":"南區","LI":"新昌里","LIN":"7鄰","STREET":"府緯街","SECT":" ","MAREA":" ","LANE":"１１５巷","ALLEY":" ","HOUSE_NO":"１７號","E_COORD97":167546.63,"N_COORD97":2542620.6000000001,"ADDRESS":"府緯街１１５巷１７號","OBJECTID":436393},"geometry":{"x":167546.63000000082,"y":2542620.6000000015}},{"attributes":{"ID":436419,"DIS_CODE":0,"TOWNNAME":"南區","LI":"明德里","LIN":"6鄰","STREET":"大成路","SECT":"一段","MAREA":" ","LANE":"６１巷","ALLEY":" ","HOUSE_NO":"３９號","E_COORD97":168140.04000000001,"N_COORD97":2541640.6299999999,"ADDRESS":"大成路一段６１巷３９號","OBJECTID":436394},"geometry":{"x":168140.04000000004,"y":2541640.629999999}},{"attributes":{"ID":436420,"DIS_CODE":0,"TOWNNAME":"南區","LI":"明德里","LIN":"6鄰","STREET":"大成路","SECT":"一段","MAREA":" ","LANE":"６１巷","ALLEY":" ","HOUSE_NO":"６０號","E_COORD97":168086.29000000001,"N_COORD97":2541648.9700000002,"ADDRESS":"大成路一段６１巷６０號","OBJECTID":436395},"geometry":{"x":168086.29000000097,"y":2541648.9700000025}},{"attributes":{"ID":436421,"DIS_CODE":0,"TOWNNAME":"南區","LI":"明德里","LIN":"6鄰","STREET":"大成路","SECT":"一段","MAREA":" ","LANE":"６１巷","ALLEY":" ","HOUSE_NO":"６１號","E_COORD97":168127.51999999999,"N_COORD97":2541636.7200000002,"ADDRESS":"大成路一段６１巷６１號","OBJECTID":436396},"geometry":{"x":168127.51999999955,"y":2541636.7200000044}},{"attributes":{"ID":436422,"DIS_CODE":0,"TOWNNAME":"南區","LI":"明德里","LIN":"6鄰","STREET":"大成路","SECT":"一段","MAREA":" ","LANE":"６１巷","ALLEY":" ","HOUSE_NO":"６２號","E_COORD97":168088.64000000001,"N_COORD97":2541648.71,"ADDRESS":"大成路一段６１巷６２號","OBJECTID":436397},"geometry":{"x":168088.6400000006,"y":2541648.7100000028}},{"attributes":{"ID":436423,"DIS_CODE":0,"TOWNNAME":"南區","LI":"明德里","LIN":"6鄰","STREET":"大成路","SECT":"一段","MAREA":" ","LANE":"６１巷","ALLEY":" ","HOUSE_NO":"６４號","E_COORD97":168092.54999999999,"N_COORD97":2541630.46,"ADDRESS":"大成路一段６１巷６４號","OBJECTID":436398},"geometry":{"x":168092.55000000075,"y":2541630.4600000009}},{"attributes":{"ID":436424,"DIS_CODE":0,"TOWNNAME":"南區","LI":"明德里","LIN":"6鄰","STREET":"大成路","SECT":"一段","MAREA":" ","LANE":"６１巷","ALLEY":" ","HOUSE_NO":"６６號","E_COORD97":168075.32999999999,"N_COORD97":2541617.6899999999,"ADDRESS":"大成路一段６１巷６６號","OBJECTID":436399},"geometry":{"x":168075.33000000007,"y":2541617.6899999995}},{"attributes":{"ID":436425,"DIS_CODE":0,"TOWNNAME":"南區","LI":"同安里","LIN":"4鄰","STREET":"明興路","SECT":" ","MAREA":" ","LANE":"１２８５巷","ALLEY":" ","HOUSE_NO":"４５號","E_COORD97":166531.47,"N_COORD97":2535987.6200000001,"ADDRESS":"明興路１２８５巷４５號","OBJECTID":436400},"geometry":{"x":166531.46999999881,"y":2535987.6200000029}}]}