{"displayFieldName":"TOWNNAME","fieldAliases":{"ID":"ID","DIS_CODE":"DIS_CODE","TOWNNAME":"TOWNNAME","LI":"LI","LIN":"LIN","STREET":"STREET","SECT":"SECT","MAREA":"MAREA","LANE":"LANE","ALLEY":"ALLEY","HOUSE_NO":"HOUSE_NO","E_COORD97":"E_COORD97","N_COORD97":"N_COORD97","ADDRESS":"ADDRESS","OBJECTID":"OBJECTID"},"geometryType":"esriGeometryPoint","spatialReference":{"wkid":102443,"latestWkid":3826},"fields":[{"name":"ID","type":"esriFieldTypeDouble","alias":"ID"},{"name":"DIS_CODE","type":"esriFieldTypeInteger","alias":"DIS_CODE"},{"name":"TOWNNAME","type":"esriFieldTypeString","alias":"TOWNNAME","length":8},{"name":"LI","type":"esriFieldTypeString","alias":"LI","length":8},{"name":"LIN","type":"esriFieldTypeString","alias":"LIN","length":12},{"name":"STREET","type":"esriFieldTypeString","alias":"STREET","length":20},{"name":"SECT","type":"esriFieldTypeString","alias":"SECT","length":8},{"name":"MAREA","type":"esriFieldTypeString","alias":"MAREA","length":12},{"name":"LANE","type":"esriFieldTypeString","alias":"LANE","length":10},{"name":"ALLEY","type":"esriFieldTypeString","alias":"ALLEY","length":10},{"name":"HOUSE_NO","type":"esriFieldTypeString","alias":"HOUSE_NO","length":20},{"name":"E_COORD97","type":"esriFieldTypeDouble","alias":"E_COORD97"},{"name":"N_COORD97","type":"esriFieldTypeDouble","alias":"N_COORD97"},{"name":"ADDRESS","type":"esriFieldTypeString","alias":"ADDRESS","length":50},{"name":"OBJECTID","type":"esriFieldTypeOID","alias":"OBJECTID"}],"features":[{"attributes":{"ID":181802,"DIS_CODE":0,"TOWNNAME":"歸仁區","LI":"大潭里","LIN":"10鄰","STREET":"中正南路","SECT":"三段","MAREA":" ","LANE":" ","ALLEY":" ","HOUSE_NO":"３１０號","E_COORD97":175100.5,"N_COORD97":2534613.2799999998,"ADDRESS":"中正南路三段３１０號","OBJECTID":181801},"geometry":{"x":175100.5,"y":2534613.2800000031}},{"attributes":{"ID":181803,"DIS_CODE":0,"TOWNNAME":"歸仁區","LI":"七甲里","LIN":"10鄰","STREET":"七甲一街","SECT":" ","MAREA":" ","LANE":" ","ALLEY":" ","HOUSE_NO":"２９號","E_COORD97":177599.48999999999,"N_COORD97":2542485.6600000001,"ADDRESS":"七甲一街２９號","OBJECTID":181802},"geometry":{"x":177599.49000000022,"y":2542485.660000002}},{"attributes":{"ID":181804,"DIS_CODE":0,"TOWNNAME":"歸仁區","LI":"七甲里","LIN":"10鄰","STREET":"七甲一街","SECT":" ","MAREA":" ","LANE":" ","ALLEY":" ","HOUSE_NO":"１５號","E_COORD97":177593.19,"N_COORD97":2542457.6600000001,"ADDRESS":"七甲一街１５號","OBJECTID":181803},"geometry":{"x":177593.19000000041,"y":2542457.660000002}},{"attributes":{"ID":181805,"DIS_CODE":0,"TOWNNAME":"歸仁區","LI":"七甲里","LIN":"10鄰","STREET":"七甲一街","SECT":" ","MAREA":" ","LANE":" ","ALLEY":" ","HOUSE_NO":"１２號","E_COORD97":177595.79000000001,"N_COORD97":2542369.6600000001,"ADDRESS":"七甲一街１２號","OBJECTID":181804},"geometry":{"x":177595.79000000004,"y":2542369.660000002}},{"attributes":{"ID":181806,"DIS_CODE":0,"TOWNNAME":"將軍區","LI":"西和里","LIN":"3鄰","STREET":" ","SECT":" ","MAREA":"西和","LANE":" ","ALLEY":" ","HOUSE_NO":"２２號","E_COORD97":163221.45000000001,"N_COORD97":2566437.1299999999,"ADDRESS":"西和２２號","OBJECTID":181805},"geometry":{"x":163221.45000000205,"y":2566437.1300000008}},{"attributes":{"ID":181807,"DIS_CODE":0,"TOWNNAME":"永康區","LI":"龍潭里","LIN":"34鄰","STREET":"龍埔街","SECT":" ","MAREA":" ","LANE":"１７５巷","ALLEY":"１弄","HOUSE_NO":"１５號","E_COORD97":174499.48999999999,"N_COORD97":2548204.9900000002,"ADDRESS":"龍埔街１７５巷１弄１５號","OBJECTID":181806},"geometry":{"x":174499.49000000209,"y":2548204.9900000039}},{"attributes":{"ID":181808,"DIS_CODE":0,"TOWNNAME":"永康區","LI":"龍潭里","LIN":"38鄰","STREET":"中山北路","SECT":" ","MAREA":" ","LANE":"１６４巷","ALLEY":"６８弄","HOUSE_NO":"３８號","E_COORD97":174389.79999999999,"N_COORD97":2547322.1600000001,"ADDRESS":"中山北路１６４巷６８弄３８號","OBJECTID":181807},"geometry":{"x":174389.79999999981,"y":2547322.1600000039}},{"attributes":{"ID":181809,"DIS_CODE":0,"TOWNNAME":"永康區","LI":"甲頂里","LIN":" ","STREET":"大武街","SECT":" ","MAREA":" ","LANE":"５９７巷","ALLEY":"２弄","HOUSE_NO":"１８號","E_COORD97":170315.82999999999,"N_COORD97":2546595.4900000002,"ADDRESS":"大武街５９７巷２弄１８號","OBJECTID":181808},"geometry":{"x":170315.83000000007,"y":2546595.4900000021}},{"attributes":{"ID":181810,"DIS_CODE":0,"TOWNNAME":"歸仁區","LI":"沙崙里","LIN":"10鄰","STREET":" ","SECT":" ","MAREA":"沙崙","LANE":" ","ALLEY":" ","HOUSE_NO":"３９６號","E_COORD97":180426.67999999999,"N_COORD97":2537826.25,"ADDRESS":"沙崙３９６號","OBJECTID":181809},"geometry":{"x":180426.6799999997,"y":2537826.2500000019}},{"attributes":{"ID":181811,"DIS_CODE":0,"TOWNNAME":"永康區","LI":"甲頂里","LIN":" ","STREET":"大武街","SECT":" ","MAREA":" ","LANE":"５９７巷","ALLEY":"３４弄","HOUSE_NO":"２３號","E_COORD97":170305.60000000001,"N_COORD97":2546528.25,"ADDRESS":"大武街５９７巷３４弄２３號","OBJECTID":181810},"geometry":{"x":170305.59999999963,"y":2546528.2500000037}},{"attributes":{"ID":181812,"DIS_CODE":0,"TOWNNAME":"永康區","LI":"崑山里","LIN":" ","STREET":"大灣路","SECT":" ","MAREA":" ","LANE":"８９１巷","ALLEY":"５０弄","HOUSE_NO":"４９號","E_COORD97":173321.63,"N_COORD97":2543794.2200000002,"ADDRESS":"大灣路８９１巷５０弄４９號","OBJECTID":181811},"geometry":{"x":173321.63000000175,"y":2543794.2200000025}},{"attributes":{"ID":181813,"DIS_CODE":0,"TOWNNAME":"永康區","LI":"\u25A0行里","LIN":"41鄰","STREET":"永安路","SECT":" ","MAREA":" ","LANE":"１６５巷","ALLEY":"３０弄","HOUSE_NO":"６５號","E_COORD97":172373.92000000001,"N_COORD97":2549451.25,"ADDRESS":"永安路１６５巷３０弄６５號","OBJECTID":181812},"geometry":{"x":172373.92000000086,"y":2549451.2500000019}},{"attributes":{"ID":181814,"DIS_CODE":0,"TOWNNAME":"永康區","LI":"埔園里","LIN":" ","STREET":"自強路","SECT":" ","MAREA":" ","LANE":"４７１巷","ALLEY":"６３弄","HOUSE_NO":"１０號","E_COORD97":173220.98999999999,"N_COORD97":2547224.2400000002,"ADDRESS":"自強路４７１巷６３弄１０號","OBJECTID":181813},"geometry":{"x":173220.99000000022,"y":2547224.2400000021}},{"attributes":{"ID":181815,"DIS_CODE":0,"TOWNNAME":"西港區","LI":"南海里","LIN":"11鄰","STREET":" ","SECT":" ","MAREA":"南海埔","LANE":" ","ALLEY":" ","HOUSE_NO":"８９號","E_COORD97":167639.79000000001,"N_COORD97":2557376.8599999999,"ADDRESS":"南海埔８９號","OBJECTID":181814},"geometry":{"x":167639.79000000004,"y":2557376.8600000013}},{"attributes":{"ID":181816,"DIS_CODE":0,"TOWNNAME":"永康區","LI":"甲頂里","LIN":" ","STREET":"大武街","SECT":" ","MAREA":" ","LANE":"５９７巷","ALLEY":"２弄","HOUSE_NO":"１０號","E_COORD97":170301.73000000001,"N_COORD97":2546605.2400000002,"ADDRESS":"大武街５９７巷２弄１０號","OBJECTID":181815},"geometry":{"x":170301.73000000045,"y":2546605.2400000002}},{"attributes":{"ID":181817,"DIS_CODE":0,"TOWNNAME":"西港區","LI":"南海里","LIN":"11鄰","STREET":" ","SECT":" ","MAREA":"南海埔","LANE":" ","ALLEY":" ","HOUSE_NO":"９３號之１","E_COORD97":167664.76999999999,"N_COORD97":2557380.5099999998,"ADDRESS":"南海埔９３號之１","OBJECTID":181816},"geometry":{"x":167664.76999999955,"y":2557380.5099999998}},{"attributes":{"ID":181818,"DIS_CODE":0,"TOWNNAME":"西港區","LI":"南海里","LIN":"11鄰","STREET":" ","SECT":" ","MAREA":"南海埔","LANE":" ","ALLEY":" ","HOUSE_NO":"９６號","E_COORD97":167674.17000000001,"N_COORD97":2557379.2400000002,"ADDRESS":"南海埔９６號","OBJECTID":181817},"geometry":{"x":167674.16999999993,"y":2557379.2400000021}},{"attributes":{"ID":181819,"DIS_CODE":0,"TOWNNAME":"永康區","LI":"蔦松里","LIN":"4鄰","STREET":"蔦松二街","SECT":" ","MAREA":" ","LANE":"１２４巷","ALLEY":"３１弄","HOUSE_NO":"１１號","E_COORD97":173912.23999999999,"N_COORD97":2549345.75,"ADDRESS":"蔦松二街１２４巷３１弄１１號","OBJECTID":181818},"geometry":{"x":173912.24000000022,"y":2549345.7500000019}},{"attributes":{"ID":181820,"DIS_CODE":0,"TOWNNAME":"永康區","LI":"龍潭里","LIN":"26鄰","STREET":"中山北路","SECT":" ","MAREA":" ","LANE":"４６１巷","ALLEY":"７弄","HOUSE_NO":"２６號","E_COORD97":175049.19,"N_COORD97":2547775.2000000002,"ADDRESS":"中山北路４６１巷７弄２６號","OBJECTID":181819},"geometry":{"x":175049.19000000227,"y":2547775.200000003}},{"attributes":{"ID":181821,"DIS_CODE":0,"TOWNNAME":"西港區","LI":"南海里","LIN":"11鄰","STREET":" ","SECT":" ","MAREA":"南海埔","LANE":" ","ALLEY":" ","HOUSE_NO":"９８號","E_COORD97":167686.95999999999,"N_COORD97":2557412.3199999998,"ADDRESS":"南海埔９８號","OBJECTID":181820},"geometry":{"x":167686.96000000089,"y":2557412.3200000022}},{"attributes":{"ID":181822,"DIS_CODE":0,"TOWNNAME":"西港區","LI":"南海里","LIN":"11鄰","STREET":" ","SECT":" ","MAREA":"南海埔","LANE":" ","ALLEY":" ","HOUSE_NO":"９９號","E_COORD97":167687.42999999999,"N_COORD97":2557383.4500000002,"ADDRESS":"南海埔９９號","OBJECTID":181821},"geometry":{"x":167687.4299999997,"y":2557383.4500000011}},{"attributes":{"ID":181823,"DIS_CODE":0,"TOWNNAME":"西港區","LI":"後營里","LIN":"11鄰","STREET":" ","SECT":" ","MAREA":"後營","LANE":" ","ALLEY":" ","HOUSE_NO":"２４６號","E_COORD97":169777.70000000001,"N_COORD97":2560204.21,"ADDRESS":"後營２４６號","OBJECTID":181822},"geometry":{"x":169777.70000000019,"y":2560204.2100000028}},{"attributes":{"ID":181824,"DIS_CODE":0,"TOWNNAME":"永康區","LI":"龍潭里","LIN":"39鄰","STREET":"永明街","SECT":" ","MAREA":" ","LANE":"２３１巷","ALLEY":"４２弄","HOUSE_NO":"１號","E_COORD97":174599.75,"N_COORD97":2547317.9500000002,"ADDRESS":"永明街２３１巷４２弄１號","OBJECTID":181823},"geometry":{"x":174599.75000000093,"y":2547317.9499999993}},{"attributes":{"ID":181825,"DIS_CODE":0,"TOWNNAME":"永康區","LI":"龍潭里","LIN":"39鄰","STREET":"永明街","SECT":" ","MAREA":" ","LANE":"１７９巷","ALLEY":"１２弄","HOUSE_NO":"２１號","E_COORD97":174496.87,"N_COORD97":2547265.6699999999,"ADDRESS":"永明街１７９巷１２弄２１號","OBJECTID":181824},"geometry":{"x":174496.87000000104,"y":2547265.6700000018}},{"attributes":{"ID":181826,"DIS_CODE":0,"TOWNNAME":"西港區","LI":"後營里","LIN":"11鄰","STREET":" ","SECT":" ","MAREA":"後營","LANE":" ","ALLEY":" ","HOUSE_NO":"２４３號","E_COORD97":169782.85000000001,"N_COORD97":2560262.9199999999,"ADDRESS":"後營２４３號","OBJECTID":181825},"geometry":{"x":169782.84999999963,"y":2560262.9200000018}},{"attributes":{"ID":181827,"DIS_CODE":0,"TOWNNAME":"永康區","LI":"龍潭里","LIN":"26鄰","STREET":"中山北路","SECT":" ","MAREA":" ","LANE":"４６１巷","ALLEY":"８弄","HOUSE_NO":"９０號","E_COORD97":175161.29999999999,"N_COORD97":2547881.71,"ADDRESS":"中山北路４６１巷８弄９０號","OBJECTID":181826},"geometry":{"x":175161.30000000168,"y":2547881.7100000009}},{"attributes":{"ID":181828,"DIS_CODE":0,"TOWNNAME":"永康區","LI":"龍潭里","LIN":"26鄰","STREET":"中山北路","SECT":" ","MAREA":" ","LANE":"４６１巷","ALLEY":"８弄","HOUSE_NO":"１３號","E_COORD97":175153.06,"N_COORD97":2547794.2000000002,"ADDRESS":"中山北路４６１巷８弄１３號","OBJECTID":181827},"geometry":{"x":175153.06000000052,"y":2547794.1999999993}},{"attributes":{"ID":181829,"DIS_CODE":0,"TOWNNAME":"永康區","LI":"\u25A0行里","LIN":"40鄰","STREET":"永安路","SECT":" ","MAREA":" ","LANE":"１０５巷","ALLEY":"４６弄","HOUSE_NO":"１６號","E_COORD97":172615.26999999999,"N_COORD97":2549350.0699999998,"ADDRESS":"永安路１０５巷４６弄１６號","OBJECTID":181828},"geometry":{"x":172615.27000000048,"y":2549350.0700000003}},{"attributes":{"ID":181830,"DIS_CODE":0,"TOWNNAME":"西港區","LI":"後營里","LIN":"11鄰","STREET":" ","SECT":" ","MAREA":"後營","LANE":" ","ALLEY":" ","HOUSE_NO":"２４５號之３","E_COORD97":169768.45000000001,"N_COORD97":2560219.3900000001,"ADDRESS":"後營２４５號之３","OBJECTID":181829},"geometry":{"x":169768.45000000205,"y":2560219.3900000025}},{"attributes":{"ID":181831,"DIS_CODE":0,"TOWNNAME":"西港區","LI":"後營里","LIN":"11鄰","STREET":" ","SECT":" ","MAREA":"後營","LANE":" ","ALLEY":" ","HOUSE_NO":"２４５號之４","E_COORD97":169768.01999999999,"N_COORD97":2560214.3399999999,"ADDRESS":"後營２４５號之４","OBJECTID":181830},"geometry":{"x":169768.02000000048,"y":2560214.3400000036}},{"attributes":{"ID":181832,"DIS_CODE":0,"TOWNNAME":"西港區","LI":"後營里","LIN":"11鄰","STREET":" ","SECT":" ","MAREA":"後營","LANE":" ","ALLEY":" ","HOUSE_NO":"２４５號","E_COORD97":169771.28,"N_COORD97":2560227.7999999998,"ADDRESS":"後營２４５號","OBJECTID":181831},"geometry":{"x":169771.28000000212,"y":2560227.8000000007}},{"attributes":{"ID":181833,"DIS_CODE":0,"TOWNNAME":"西港區","LI":"後營里","LIN":"11鄰","STREET":" ","SECT":" ","MAREA":"後營","LANE":" ","ALLEY":" ","HOUSE_NO":"２４７號之１","E_COORD97":169763.19,"N_COORD97":2560192.4700000002,"ADDRESS":"後營２４７號之１","OBJECTID":181832},"geometry":{"x":169763.19000000041,"y":2560192.4700000007}},{"attributes":{"ID":181834,"DIS_CODE":0,"TOWNNAME":"西港區","LI":"後營里","LIN":"11鄰","STREET":" ","SECT":" ","MAREA":"後營","LANE":" ","ALLEY":" ","HOUSE_NO":"２４７號","E_COORD97":169775.79000000001,"N_COORD97":2560189.0600000001,"ADDRESS":"後營２４７號","OBJECTID":181833},"geometry":{"x":169775.79000000004,"y":2560189.0600000005}},{"attributes":{"ID":181835,"DIS_CODE":0,"TOWNNAME":"歸仁區","LI":"文化里","LIN":"10鄰","STREET":"民族北街","SECT":" ","MAREA":" ","LANE":" ","ALLEY":" ","HOUSE_NO":"２４９號","E_COORD97":177476.20000000001,"N_COORD97":2541477.3300000001,"ADDRESS":"民族北街２４９號","OBJECTID":181834},"geometry":{"x":177476.20000000019,"y":2541477.3300000019}},{"attributes":{"ID":181836,"DIS_CODE":0,"TOWNNAME":"永康區","LI":"龍潭里","LIN":"38鄰","STREET":"中山北路","SECT":" ","MAREA":" ","LANE":"１６４巷","ALLEY":"７８弄","HOUSE_NO":"９號之１６","E_COORD97":174457.64000000001,"N_COORD97":2547311.04,"ADDRESS":"中山北路１６４巷７８弄９號之１６","OBJECTID":181835},"geometry":{"x":174457.6400000006,"y":2547311.0399999991}},{"attributes":{"ID":181837,"DIS_CODE":0,"TOWNNAME":"永康區","LI":"龍潭里","LIN":"26鄰","STREET":"中山北路","SECT":" ","MAREA":" ","LANE":"４６１巷","ALLEY":"８弄","HOUSE_NO":"８０號","E_COORD97":175163.60000000001,"N_COORD97":2547858.46,"ADDRESS":"中山北路４６１巷８弄８０號","OBJECTID":181836},"geometry":{"x":175163.59999999963,"y":2547858.4600000009}},{"attributes":{"ID":181838,"DIS_CODE":0,"TOWNNAME":"永康區","LI":"龍潭里","LIN":"38鄰","STREET":"中山北路","SECT":" ","MAREA":" ","LANE":"１６４巷","ALLEY":"７８弄","HOUSE_NO":"２２號","E_COORD97":174429.12,"N_COORD97":2547330.2999999998,"ADDRESS":"中山北路１６４巷７８弄２２號","OBJECTID":181837},"geometry":{"x":174429.12000000104,"y":2547330.3000000026}},{"attributes":{"ID":181839,"DIS_CODE":0,"TOWNNAME":"仁德區","LI":"土庫里","LIN":"13鄰","STREET":"土庫路","SECT":" ","MAREA":" ","LANE":"２１１巷","ALLEY":"１６弄","HOUSE_NO":"４號","E_COORD97":174306.42999999999,"N_COORD97":2542855.52,"ADDRESS":"土庫路２１１巷１６弄４號","OBJECTID":181838},"geometry":{"x":174306.43000000063,"y":2542855.5200000014}},{"attributes":{"ID":181840,"DIS_CODE":0,"TOWNNAME":"永康區","LI":"龍潭里","LIN":"26鄰","STREET":"中山北路","SECT":" ","MAREA":" ","LANE":"４６１巷","ALLEY":"８弄","HOUSE_NO":"６６號","E_COORD97":175166.69,"N_COORD97":2547824.4500000002,"ADDRESS":"中山北路４６１巷８弄６６號","OBJECTID":181839},"geometry":{"x":175166.69000000134,"y":2547824.450000003}},{"attributes":{"ID":181841,"DIS_CODE":0,"TOWNNAME":"永康區","LI":"龍潭里","LIN":"40鄰","STREET":"永明街","SECT":" ","MAREA":" ","LANE":"３０２巷","ALLEY":"２弄","HOUSE_NO":"２號","E_COORD97":174526.70999999999,"N_COORD97":2547153.71,"ADDRESS":"永明街３０２巷２弄２號","OBJECTID":181840},"geometry":{"x":174526.71000000089,"y":2547153.7100000028}},{"attributes":{"ID":181842,"DIS_CODE":0,"TOWNNAME":"永康區","LI":"龍潭里","LIN":"40鄰","STREET":"永明街","SECT":" ","MAREA":" ","LANE":"３０２巷","ALLEY":"２弄","HOUSE_NO":"８號","E_COORD97":174518.39999999999,"N_COORD97":2547153.2599999998,"ADDRESS":"永明街３０２巷２弄８號","OBJECTID":181841},"geometry":{"x":174518.40000000037,"y":2547153.2600000016}},{"attributes":{"ID":181843,"DIS_CODE":0,"TOWNNAME":"永康區","LI":"\u25A0行里","LIN":"43鄰","STREET":"中正南路","SECT":" ","MAREA":" ","LANE":"４９０巷","ALLEY":"６２弄","HOUSE_NO":"４號","E_COORD97":171603.19,"N_COORD97":2548078.3900000001,"ADDRESS":"中正南路４９０巷６２弄４號","OBJECTID":181842},"geometry":{"x":171603.19000000134,"y":2548078.3900000025}},{"attributes":{"ID":181844,"DIS_CODE":0,"TOWNNAME":"永康區","LI":"網寮里","LIN":"20鄰","STREET":"永二街","SECT":" ","MAREA":" ","LANE":"２４５巷","ALLEY":"２６弄","HOUSE_NO":"１３號","E_COORD97":173252.89000000001,"N_COORD97":2546132.3999999999,"ADDRESS":"永二街２４５巷２６弄１３號","OBJECTID":181843},"geometry":{"x":173252.88999999966,"y":2546132.4000000022}},{"attributes":{"ID":181845,"DIS_CODE":0,"TOWNNAME":"永康區","LI":"龍潭里","LIN":"34鄰","STREET":"龍埔街","SECT":" ","MAREA":" ","LANE":"１３９巷","ALLEY":"１０弄","HOUSE_NO":"８號","E_COORD97":174526.32999999999,"N_COORD97":2548170.75,"ADDRESS":"龍埔街１３９巷１０弄８號","OBJECTID":181844},"geometry":{"x":174526.33000000101,"y":2548170.75}},{"attributes":{"ID":181846,"DIS_CODE":0,"TOWNNAME":"北區","LI":"國興里","LIN":"10鄰","STREET":"開元路","SECT":" ","MAREA":" ","LANE":" ","ALLEY":" ","HOUSE_NO":"３９６號","E_COORD97":170574.29000000001,"N_COORD97":2545632.4199999999,"ADDRESS":"開元路３９６號","OBJECTID":181845},"geometry":{"x":170574.29000000004,"y":2545632.4200000018}},{"attributes":{"ID":181847,"DIS_CODE":0,"TOWNNAME":"北區","LI":"國興里","LIN":"10鄰","STREET":"開元路","SECT":" ","MAREA":" ","LANE":" ","ALLEY":" ","HOUSE_NO":"３９８號","E_COORD97":170577.75,"N_COORD97":2545635.3599999999,"ADDRESS":"開元路３９８號","OBJECTID":181846},"geometry":{"x":170577.75,"y":2545635.3600000013}},{"attributes":{"ID":181848,"DIS_CODE":0,"TOWNNAME":"北區","LI":"國興里","LIN":"10鄰","STREET":"開元路","SECT":" ","MAREA":" ","LANE":" ","ALLEY":" ","HOUSE_NO":"４００號","E_COORD97":170581.82000000001,"N_COORD97":2545638.21,"ADDRESS":"開元路４００號","OBJECTID":181847},"geometry":{"x":170581.82000000123,"y":2545638.2100000028}},{"attributes":{"ID":181849,"DIS_CODE":0,"TOWNNAME":"西港區","LI":"後營里","LIN":"11鄰","STREET":" ","SECT":" ","MAREA":"後營","LANE":" ","ALLEY":" ","HOUSE_NO":"２４８號之１０","E_COORD97":169791.32999999999,"N_COORD97":2560222.71,"ADDRESS":"後營２４８號之１０","OBJECTID":181848},"geometry":{"x":169791.33000000101,"y":2560222.7100000009}},{"attributes":{"ID":181850,"DIS_CODE":0,"TOWNNAME":"西港區","LI":"後營里","LIN":"11鄰","STREET":" ","SECT":" ","MAREA":"後營","LANE":" ","ALLEY":" ","HOUSE_NO":"２４８號之２","E_COORD97":169796.29000000001,"N_COORD97":2560175.75,"ADDRESS":"後營２４８號之２","OBJECTID":181849},"geometry":{"x":169796.28999999911,"y":2560175.7500000019}},{"attributes":{"ID":181851,"DIS_CODE":0,"TOWNNAME":"西港區","LI":"後營里","LIN":"11鄰","STREET":" ","SECT":" ","MAREA":"後營","LANE":" ","ALLEY":" ","HOUSE_NO":"２４８號之５","E_COORD97":169789.95999999999,"N_COORD97":2560191.0099999998,"ADDRESS":"後營２４８號之５","OBJECTID":181850},"geometry":{"x":169789.95999999903,"y":2560191.0099999998}},{"attributes":{"ID":181852,"DIS_CODE":0,"TOWNNAME":"西港區","LI":"後營里","LIN":"11鄰","STREET":" ","SECT":" ","MAREA":"後營","LANE":" ","ALLEY":" ","HOUSE_NO":"２４８號之６","E_COORD97":169790.29999999999,"N_COORD97":2560197.2799999998,"ADDRESS":"後營２４８號之６","OBJECTID":181851},"geometry":{"x":169790.29999999981,"y":2560197.2800000031}},{"attributes":{"ID":181853,"DIS_CODE":0,"TOWNNAME":"西港區","LI":"後營里","LIN":"11鄰","STREET":" ","SECT":" ","MAREA":"後營","LANE":" ","ALLEY":" ","HOUSE_NO":"２４８號之７","E_COORD97":169790.79000000001,"N_COORD97":2560203.9900000002,"ADDRESS":"後營２４８號之７","OBJECTID":181852},"geometry":{"x":169790.79000000004,"y":2560203.9900000021}},{"attributes":{"ID":181854,"DIS_CODE":0,"TOWNNAME":"西港區","LI":"後營里","LIN":"11鄰","STREET":" ","SECT":" ","MAREA":"後營","LANE":" ","ALLEY":" ","HOUSE_NO":"２４８號之８","E_COORD97":169790.98999999999,"N_COORD97":2560209.8199999998,"ADDRESS":"後營２４８號之８","OBJECTID":181853},"geometry":{"x":169790.99000000022,"y":2560209.8200000003}},{"attributes":{"ID":181855,"DIS_CODE":0,"TOWNNAME":"北區","LI":"國興里","LIN":"10鄰","STREET":"開元路","SECT":" ","MAREA":" ","LANE":" ","ALLEY":" ","HOUSE_NO":"４０２號","E_COORD97":170586.66,"N_COORD97":2545640.8100000001,"ADDRESS":"開元路４０２號","OBJECTID":181854},"geometry":{"x":170586.66000000015,"y":2545640.8100000024}},{"attributes":{"ID":181856,"DIS_CODE":0,"TOWNNAME":"北區","LI":"國興里","LIN":"10鄰","STREET":"開元路","SECT":" ","MAREA":" ","LANE":" ","ALLEY":" ","HOUSE_NO":"４０６號","E_COORD97":170591.34,"N_COORD97":2545645.1299999999,"ADDRESS":"開元路４０６號","OBJECTID":181855},"geometry":{"x":170591.34000000078,"y":2545645.129999999}},{"attributes":{"ID":181857,"DIS_CODE":0,"TOWNNAME":"北區","LI":"國興里","LIN":"10鄰","STREET":"開元路","SECT":" ","MAREA":" ","LANE":" ","ALLEY":" ","HOUSE_NO":"４１２號","E_COORD97":170606.22,"N_COORD97":2545657.71,"ADDRESS":"開元路４１２號","OBJECTID":181856},"geometry":{"x":170606.21999999974,"y":2545657.709999999}},{"attributes":{"ID":181858,"DIS_CODE":0,"TOWNNAME":"北區","LI":"國興里","LIN":"10鄰","STREET":"開元路","SECT":" ","MAREA":" ","LANE":" ","ALLEY":" ","HOUSE_NO":"４１４號","E_COORD97":170610.10999999999,"N_COORD97":2545661.0800000001,"ADDRESS":"開元路４１４號","OBJECTID":181857},"geometry":{"x":170610.11000000127,"y":2545661.0799999982}},{"attributes":{"ID":181859,"DIS_CODE":0,"TOWNNAME":"北區","LI":"國興里","LIN":"10鄰","STREET":"開元路","SECT":" ","MAREA":" ","LANE":" ","ALLEY":" ","HOUSE_NO":"４１６號","E_COORD97":170616.95000000001,"N_COORD97":2545664.3700000001,"ADDRESS":"開元路４１６號","OBJECTID":181858},"geometry":{"x":170616.95000000019,"y":2545664.3700000029}},{"attributes":{"ID":181860,"DIS_CODE":0,"TOWNNAME":"北區","LI":"國興里","LIN":"10鄰","STREET":"開元路","SECT":" ","MAREA":" ","LANE":" ","ALLEY":" ","HOUSE_NO":"４１８號","E_COORD97":170623.44,"N_COORD97":2545674.1000000001,"ADDRESS":"開元路４１８號","OBJECTID":181859},"geometry":{"x":170623.44000000134,"y":2545674.0999999978}},{"attributes":{"ID":181861,"DIS_CODE":0,"TOWNNAME":"西港區","LI":"後營里","LIN":"11鄰","STREET":" ","SECT":" ","MAREA":"後營","LANE":" ","ALLEY":" ","HOUSE_NO":"２４８號之９","E_COORD97":169791.34,"N_COORD97":2560216.0899999999,"ADDRESS":"後營２４８號之９","OBJECTID":181860},"geometry":{"x":169791.34000000078,"y":2560216.0900000036}},{"attributes":{"ID":181862,"DIS_CODE":0,"TOWNNAME":"西港區","LI":"後營里","LIN":"11鄰","STREET":" ","SECT":" ","MAREA":"後營","LANE":" ","ALLEY":" ","HOUSE_NO":"２４９號","E_COORD97":169776.12,"N_COORD97":2560174.02,"ADDRESS":"後營２４９號","OBJECTID":181861},"geometry":{"x":169776.12000000104,"y":2560174.0199999996}},{"attributes":{"ID":181863,"DIS_CODE":0,"TOWNNAME":"西港區","LI":"後營里","LIN":"11鄰","STREET":" ","SECT":" ","MAREA":"後營","LANE":" ","ALLEY":" ","HOUSE_NO":"２５０號之１","E_COORD97":169765.45000000001,"N_COORD97":2560138.1099999999,"ADDRESS":"後營２５０號之１","OBJECTID":181862},"geometry":{"x":169765.45000000112,"y":2560138.1100000013}},{"attributes":{"ID":181864,"DIS_CODE":0,"TOWNNAME":"西港區","LI":"後營里","LIN":"11鄰","STREET":" ","SECT":" ","MAREA":"後營","LANE":" ","ALLEY":" ","HOUSE_NO":"２５０號之２","E_COORD97":169773.63,"N_COORD97":2560132.0899999999,"ADDRESS":"後營２５０號之２","OBJECTID":181863},"geometry":{"x":169773.63000000175,"y":2560132.0900000017}},{"attributes":{"ID":181865,"DIS_CODE":0,"TOWNNAME":"西港區","LI":"後營里","LIN":"11鄰","STREET":" ","SECT":" ","MAREA":"後營","LANE":" ","ALLEY":" ","HOUSE_NO":"２５０號","E_COORD97":169786.60999999999,"N_COORD97":2560160.2200000002,"ADDRESS":"後營２５０號","OBJECTID":181864},"geometry":{"x":169786.61000000127,"y":2560160.2200000007}},{"attributes":{"ID":181866,"DIS_CODE":0,"TOWNNAME":"西港區","LI":"後營里","LIN":"11鄰","STREET":" ","SECT":" ","MAREA":"後營","LANE":" ","ALLEY":" ","HOUSE_NO":"２５２號","E_COORD97":169784.39999999999,"N_COORD97":2560122.77,"ADDRESS":"後營２５２號","OBJECTID":181865},"geometry":{"x":169784.4000000013,"y":2560122.7700000033}},{"attributes":{"ID":181867,"DIS_CODE":0,"TOWNNAME":"西港區","LI":"後營里","LIN":"11鄰","STREET":" ","SECT":" ","MAREA":"後營","LANE":" ","ALLEY":" ","HOUSE_NO":"２５３號","E_COORD97":169785.85000000001,"N_COORD97":2560129.4100000001,"ADDRESS":"後營２５３號","OBJECTID":181866},"geometry":{"x":169785.85000000056,"y":2560129.4100000039}},{"attributes":{"ID":181868,"DIS_CODE":0,"TOWNNAME":"新市區","LI":"大營里","LIN":"11鄰","STREET":" ","SECT":" ","MAREA":"大營","LANE":" ","ALLEY":" ","HOUSE_NO":"２３４之１０號","E_COORD97":179254.88,"N_COORD97":2555640.2999999998,"ADDRESS":"大營２３４之１０號","OBJECTID":181867},"geometry":{"x":179254.88000000175,"y":2555640.3000000007}},{"attributes":{"ID":181869,"DIS_CODE":0,"TOWNNAME":"新市區","LI":"大營里","LIN":"11鄰","STREET":" ","SECT":" ","MAREA":"大營","LANE":" ","ALLEY":" ","HOUSE_NO":"２３３號","E_COORD97":179292.29000000001,"N_COORD97":2555676.25,"ADDRESS":"大營２３３號","OBJECTID":181868},"geometry":{"x":179292.29000000004,"y":2555676.2500000019}},{"attributes":{"ID":181870,"DIS_CODE":0,"TOWNNAME":"永康區","LI":"龍潭里","LIN":"34鄰","STREET":"龍埔街","SECT":" ","MAREA":" ","LANE":"１３９巷","ALLEY":"１０弄","HOUSE_NO":"１４號","E_COORD97":174524.72,"N_COORD97":2548148.2400000002,"ADDRESS":"龍埔街１３９巷１０弄１４號","OBJECTID":181869},"geometry":{"x":174524.72000000067,"y":2548148.2400000002}},{"attributes":{"ID":181871,"DIS_CODE":0,"TOWNNAME":"永康區","LI":"\u25A0行里","LIN":"14鄰","STREET":"中正路","SECT":" ","MAREA":" ","LANE":"６３５巷","ALLEY":"７弄","HOUSE_NO":"１號","E_COORD97":171806.01000000001,"N_COORD97":2548966.7400000002,"ADDRESS":"中正路６３５巷７弄１號","OBJECTID":181870},"geometry":{"x":171806.00999999978,"y":2548966.7400000021}},{"attributes":{"ID":181872,"DIS_CODE":0,"TOWNNAME":"永康區","LI":"網寮里","LIN":"20鄰","STREET":"永二街","SECT":" ","MAREA":" ","LANE":"２４５巷","ALLEY":"２６弄","HOUSE_NO":"７號","E_COORD97":173263.39999999999,"N_COORD97":2546138,"ADDRESS":"永二街２４５巷２６弄７號","OBJECTID":181871},"geometry":{"x":173263.4000000013,"y":2546138.0000000019}},{"attributes":{"ID":181873,"DIS_CODE":0,"TOWNNAME":"永康區","LI":"網寮里","LIN":"20鄰","STREET":"永二街","SECT":" ","MAREA":" ","LANE":"２４５巷","ALLEY":"２６弄","HOUSE_NO":"４１號","E_COORD97":173221.81,"N_COORD97":2546153.9900000002,"ADDRESS":"永二街２４５巷２６弄４１號","OBJECTID":181872},"geometry":{"x":173221.81000000145,"y":2546153.9900000021}},{"attributes":{"ID":181874,"DIS_CODE":0,"TOWNNAME":"永康區","LI":"網寮里","LIN":"20鄰","STREET":"永二街","SECT":" ","MAREA":" ","LANE":"２４５巷","ALLEY":"２６弄","HOUSE_NO":"４３號","E_COORD97":173223.31,"N_COORD97":2546157.9900000002,"ADDRESS":"永二街２４５巷２６弄４３號","OBJECTID":181873},"geometry":{"x":173223.30999999866,"y":2546157.9900000021}},{"attributes":{"ID":181875,"DIS_CODE":0,"TOWNNAME":"永康區","LI":"網寮里","LIN":"20鄰","STREET":"永二街","SECT":" ","MAREA":" ","LANE":"２４５巷","ALLEY":"２６弄","HOUSE_NO":"１號","E_COORD97":173266.32999999999,"N_COORD97":2546150.7400000002,"ADDRESS":"永二街２４５巷２６弄１號","OBJECTID":181874},"geometry":{"x":173266.33000000194,"y":2546150.7400000002}},{"attributes":{"ID":181876,"DIS_CODE":0,"TOWNNAME":"永康區","LI":"龍潭里","LIN":"24鄰","STREET":"中山北路","SECT":" ","MAREA":" ","LANE":"２６４巷","ALLEY":"１１弄","HOUSE_NO":"３３號","E_COORD97":174822.75,"N_COORD97":2547634.8199999998,"ADDRESS":"中山北路２６４巷１１弄３３號","OBJECTID":181875},"geometry":{"x":174822.74999999907,"y":2547634.8200000022}},{"attributes":{"ID":181877,"DIS_CODE":0,"TOWNNAME":"永康區","LI":"蔦松里","LIN":"8鄰","STREET":"中正北路","SECT":" ","MAREA":" ","LANE":"４０１巷","ALLEY":"３１弄","HOUSE_NO":"５號","E_COORD97":173393.35999999999,"N_COORD97":2549300.73,"ADDRESS":"中正北路４０１巷３１弄５號","OBJECTID":181876},"geometry":{"x":173393.3600000022,"y":2549300.7300000004}},{"attributes":{"ID":181878,"DIS_CODE":0,"TOWNNAME":"永康區","LI":"龍潭里","LIN":"39鄰","STREET":"中山北路","SECT":" ","MAREA":" ","LANE":"１６４巷","ALLEY":"１３８弄","HOUSE_NO":"９號","E_COORD97":174618.06,"N_COORD97":2547386.6000000001,"ADDRESS":"中山北路１６４巷１３８弄９號","OBJECTID":181877},"geometry":{"x":174618.05999999959,"y":2547386.6000000034}},{"attributes":{"ID":181879,"DIS_CODE":0,"TOWNNAME":"永康區","LI":"龍潭里","LIN":"34鄰","STREET":"龍埔街","SECT":" ","MAREA":" ","LANE":"１３９巷","ALLEY":"１０弄","HOUSE_NO":"１８號","E_COORD97":174516.88,"N_COORD97":2548155.6299999999,"ADDRESS":"龍埔街１３９巷１０弄１８號","OBJECTID":181878},"geometry":{"x":174516.88000000082,"y":2548155.6300000008}},{"attributes":{"ID":181880,"DIS_CODE":0,"TOWNNAME":"北區","LI":"華興里","LIN":"10鄰","STREET":"南園街","SECT":" ","MAREA":" ","LANE":" ","ALLEY":" ","HOUSE_NO":"１０３號","E_COORD97":170619.51999999999,"N_COORD97":2545369.9500000002,"ADDRESS":"南園街１０３號","OBJECTID":181879},"geometry":{"x":170619.51999999955,"y":2545369.950000003}},{"attributes":{"ID":181881,"DIS_CODE":0,"TOWNNAME":"北區","LI":"華興里","LIN":"10鄰","STREET":"南園街","SECT":" ","MAREA":" ","LANE":" ","ALLEY":" ","HOUSE_NO":"１０３號之１","E_COORD97":170636.09,"N_COORD97":2545361.98,"ADDRESS":"南園街１０３號之１","OBJECTID":181880},"geometry":{"x":170636.08999999985,"y":2545361.9800000023}},{"attributes":{"ID":181882,"DIS_CODE":0,"TOWNNAME":"北區","LI":"華興里","LIN":"10鄰","STREET":"南園街","SECT":" ","MAREA":" ","LANE":" ","ALLEY":" ","HOUSE_NO":"１０３號之２","E_COORD97":170640.29000000001,"N_COORD97":2545363.3599999999,"ADDRESS":"南園街１０３號之２","OBJECTID":181881},"geometry":{"x":170640.29000000004,"y":2545363.3599999994}},{"attributes":{"ID":181883,"DIS_CODE":0,"TOWNNAME":"北區","LI":"華興里","LIN":"10鄰","STREET":"南園街","SECT":" ","MAREA":" ","LANE":" ","ALLEY":" ","HOUSE_NO":"１０３號之３","E_COORD97":170644.57000000001,"N_COORD97":2545364.9700000002,"ADDRESS":"南園街１０３號之３","OBJECTID":181882},"geometry":{"x":170644.57000000123,"y":2545364.9700000025}},{"attributes":{"ID":181884,"DIS_CODE":0,"TOWNNAME":"北區","LI":"華興里","LIN":"10鄰","STREET":"南園街","SECT":" ","MAREA":" ","LANE":" ","ALLEY":" ","HOUSE_NO":"１０３號之４","E_COORD97":170649.01999999999,"N_COORD97":2545366.0299999998,"ADDRESS":"南園街１０３號之４","OBJECTID":181883},"geometry":{"x":170649.02000000048,"y":2545366.0300000031}},{"attributes":{"ID":181885,"DIS_CODE":0,"TOWNNAME":"北區","LI":"華興里","LIN":"10鄰","STREET":"南園街","SECT":" ","MAREA":" ","LANE":" ","ALLEY":" ","HOUSE_NO":"１０３號之５","E_COORD97":170653.54999999999,"N_COORD97":2545367.4900000002,"ADDRESS":"南園街１０３號之５","OBJECTID":181884},"geometry":{"x":170653.54999999981,"y":2545367.4900000021}},{"attributes":{"ID":181886,"DIS_CODE":0,"TOWNNAME":"北區","LI":"華興里","LIN":"10鄰","STREET":"南園街","SECT":" ","MAREA":" ","LANE":" ","ALLEY":" ","HOUSE_NO":"１０３號之６","E_COORD97":170658.07000000001,"N_COORD97":2545368.6200000001,"ADDRESS":"南園街１０３號之６","OBJECTID":181885},"geometry":{"x":170658.07000000123,"y":2545368.6200000029}},{"attributes":{"ID":181887,"DIS_CODE":0,"TOWNNAME":"善化區","LI":"東關里","LIN":"4鄰","STREET":"進學路","SECT":" ","MAREA":" ","LANE":" ","ALLEY":" ","HOUSE_NO":"２０號","E_COORD97":177363.73000000001,"N_COORD97":2559182.25,"ADDRESS":"進學路２０號","OBJECTID":181886},"geometry":{"x":177363.73000000045,"y":2559182.2500000019}},{"attributes":{"ID":181888,"DIS_CODE":0,"TOWNNAME":"善化區","LI":"文昌里","LIN":"18鄰","STREET":"興華路","SECT":" ","MAREA":" ","LANE":" ","ALLEY":" ","HOUSE_NO":"３１３號","E_COORD97":177756.17999999999,"N_COORD97":2558489.25,"ADDRESS":"興華路３１３號","OBJECTID":181887},"geometry":{"x":177756.18000000063,"y":2558489.2500000037}},{"attributes":{"ID":181889,"DIS_CODE":0,"TOWNNAME":"永康區","LI":"網寮里","LIN":"20鄰","STREET":"永二街","SECT":" ","MAREA":" ","LANE":"２４５巷","ALLEY":"２６弄","HOUSE_NO":"４５號","E_COORD97":173225.35000000001,"N_COORD97":2546162.2400000002,"ADDRESS":"永二街２４５巷２６弄４５號","OBJECTID":181888},"geometry":{"x":173225.35000000056,"y":2546162.2400000039}},{"attributes":{"ID":181890,"DIS_CODE":0,"TOWNNAME":"永康區","LI":"網寮里","LIN":"20鄰","STREET":"永二街","SECT":" ","MAREA":" ","LANE":"２４５巷","ALLEY":"２６弄","HOUSE_NO":"２１號","E_COORD97":173257.59,"N_COORD97":2546149.3900000001,"ADDRESS":"永二街２４５巷２６弄２１號","OBJECTID":181889},"geometry":{"x":173257.59000000078,"y":2546149.3900000025}},{"attributes":{"ID":181891,"DIS_CODE":0,"TOWNNAME":"善化區","LI":"東關里","LIN":"20鄰","STREET":"保安街","SECT":" ","MAREA":" ","LANE":" ","ALLEY":" ","HOUSE_NO":"１０號","E_COORD97":177550.54999999999,"N_COORD97":2559062.77,"ADDRESS":"保安街１０號","OBJECTID":181890},"geometry":{"x":177550.55000000075,"y":2559062.7700000014}},{"attributes":{"ID":181892,"DIS_CODE":0,"TOWNNAME":"善化區","LI":"坐駕里","LIN":"17鄰","STREET":"興華路","SECT":" ","MAREA":" ","LANE":" ","ALLEY":" ","HOUSE_NO":"２３７號","E_COORD97":177959.89999999999,"N_COORD97":2558523,"ADDRESS":"興華路２３７號","OBJECTID":181891},"geometry":{"x":177959.89999999944,"y":2558523.0000000019}},{"attributes":{"ID":181893,"DIS_CODE":0,"TOWNNAME":"善化區","LI":"坐駕里","LIN":"17鄰","STREET":"興華路","SECT":" ","MAREA":" ","LANE":" ","ALLEY":" ","HOUSE_NO":"２７９號","E_COORD97":177840.72,"N_COORD97":2558504,"ADDRESS":"興華路２７９號","OBJECTID":181892},"geometry":{"x":177840.72000000067,"y":2558504}},{"attributes":{"ID":181894,"DIS_CODE":0,"TOWNNAME":"善化區","LI":"南關里","LIN":"4鄰","STREET":"自由路","SECT":" ","MAREA":" ","LANE":" ","ALLEY":" ","HOUSE_NO":"１２０號","E_COORD97":177110.57999999999,"N_COORD97":2558884.25,"ADDRESS":"自由路１２０號","OBJECTID":181893},"geometry":{"x":177110.58000000007,"y":2558884.2500000019}},{"attributes":{"ID":181895,"DIS_CODE":0,"TOWNNAME":"東區","LI":"崇文里","LIN":"25鄰","STREET":"崇德二十二街","SECT":" ","MAREA":" ","LANE":" ","ALLEY":" ","HOUSE_NO":"２１號","E_COORD97":170871.42999999999,"N_COORD97":2540823.6000000001,"ADDRESS":"崇德二十二街２１號","OBJECTID":181894},"geometry":{"x":170871.42999999877,"y":2540823.6000000015}},{"attributes":{"ID":181896,"DIS_CODE":0,"TOWNNAME":"新化區","LI":"全興里","LIN":"10鄰","STREET":" ","SECT":" ","MAREA":"竹子\u25A0","LANE":" ","ALLEY":" ","HOUSE_NO":"１７５號","E_COORD97":177512.92999999999,"N_COORD97":2547465.25,"ADDRESS":"竹子\u25A0１７５號","OBJECTID":181895},"geometry":{"x":177512.9299999997,"y":2547465.2500000019}},{"attributes":{"ID":181897,"DIS_CODE":0,"TOWNNAME":"新市區","LI":"大營里","LIN":"11鄰","STREET":" ","SECT":" ","MAREA":"大營","LANE":" ","ALLEY":" ","HOUSE_NO":"２３４之１１號","E_COORD97":179256.62,"N_COORD97":2555645.2999999998,"ADDRESS":"大營２３４之１１號","OBJECTID":181896},"geometry":{"x":179256.62000000011,"y":2555645.3000000045}},{"attributes":{"ID":181898,"DIS_CODE":0,"TOWNNAME":"新市區","LI":"大社里","LIN":"11鄰","STREET":" ","SECT":" ","MAREA":"大社","LANE":" ","ALLEY":" ","HOUSE_NO":"３８２之１號","E_COORD97":180073.26000000001,"N_COORD97":2554671.7999999998,"ADDRESS":"大社３８２之１號","OBJECTID":181897},"geometry":{"x":180073.26000000071,"y":2554671.8000000007}},{"attributes":{"ID":181899,"DIS_CODE":0,"TOWNNAME":"新市區","LI":"大營里","LIN":"11鄰","STREET":" ","SECT":" ","MAREA":"大營","LANE":" ","ALLEY":" ","HOUSE_NO":"２３８之４號","E_COORD97":179158.23000000001,"N_COORD97":2555626.2999999998,"ADDRESS":"大營２３８之４號","OBJECTID":181898},"geometry":{"x":179158.23000000138,"y":2555626.3000000026}},{"attributes":{"ID":181900,"DIS_CODE":0,"TOWNNAME":"新市區","LI":"大社里","LIN":"11鄰","STREET":" ","SECT":" ","MAREA":"大社","LANE":" ","ALLEY":" ","HOUSE_NO":"３８５號","E_COORD97":180078.51000000001,"N_COORD97":2554698.25,"ADDRESS":"大社３８５號","OBJECTID":181899},"geometry":{"x":180078.50999999978,"y":2554698.25}},{"attributes":{"ID":181901,"DIS_CODE":0,"TOWNNAME":"新市區","LI":"大營里","LIN":"11鄰","STREET":" ","SECT":" ","MAREA":"大營","LANE":" ","ALLEY":" ","HOUSE_NO":"２３６之８號","E_COORD97":179215.88,"N_COORD97":2555626.7999999998,"ADDRESS":"大營２３６之８號","OBJECTID":181900},"geometry":{"x":179215.88000000175,"y":2555626.8000000007}},{"attributes":{"ID":181902,"DIS_CODE":0,"TOWNNAME":"永康區","LI":"龍潭里","LIN":"24鄰","STREET":"中山北路","SECT":" ","MAREA":" ","LANE":"２６４巷","ALLEY":"１９１弄","HOUSE_NO":"１１號","E_COORD97":174766.69,"N_COORD97":2547011.7400000002,"ADDRESS":"中山北路２６４巷１９１弄１１號","OBJECTID":181901},"geometry":{"x":174766.69000000134,"y":2547011.7400000002}},{"attributes":{"ID":181903,"DIS_CODE":0,"TOWNNAME":"永康區","LI":"網寮里","LIN":"20鄰","STREET":"永二街","SECT":" ","MAREA":" ","LANE":"２４５巷","ALLEY":"２６弄","HOUSE_NO":"３９號","E_COORD97":173220.28,"N_COORD97":2546149.7400000002,"ADDRESS":"永二街２４５巷２６弄３９號","OBJECTID":181902},"geometry":{"x":173220.28000000026,"y":2546149.7400000021}},{"attributes":{"ID":181904,"DIS_CODE":0,"TOWNNAME":"永康區","LI":"網寮里","LIN":"20鄰","STREET":"永二街","SECT":" ","MAREA":" ","LANE":"２４５巷","ALLEY":"５２弄","HOUSE_NO":"８號","E_COORD97":173161.89999999999,"N_COORD97":2546014.75,"ADDRESS":"永二街２４５巷５２弄８號","OBJECTID":181903},"geometry":{"x":173161.90000000037,"y":2546014.75}},{"attributes":{"ID":181905,"DIS_CODE":0,"TOWNNAME":"永康區","LI":"網寮里","LIN":"20鄰","STREET":"永二街","SECT":" ","MAREA":" ","LANE":"２４５巷","ALLEY":"２６弄","HOUSE_NO":"３號","E_COORD97":173265.47,"N_COORD97":2546145.9900000002,"ADDRESS":"永二街２４５巷２６弄３號","OBJECTID":181904},"geometry":{"x":173265.47000000067,"y":2546145.9900000002}},{"attributes":{"ID":181906,"DIS_CODE":0,"TOWNNAME":"仁德區","LI":"大甲里","LIN":"20鄰","STREET":"中正西路","SECT":" ","MAREA":" ","LANE":"４９５巷","ALLEY":"２２弄","HOUSE_NO":"８號","E_COORD97":169378.63,"N_COORD97":2535388.2400000002,"ADDRESS":"中正西路４９５巷２２弄８號","OBJECTID":181905},"geometry":{"x":169378.63000000175,"y":2535388.2400000021}},{"attributes":{"ID":181907,"DIS_CODE":0,"TOWNNAME":"仁德區","LI":"上崙里","LIN":"8鄰","STREET":"德善路","SECT":" ","MAREA":" ","LANE":"２９０巷","ALLEY":"９弄","HOUSE_NO":"２號","E_COORD97":173942.04000000001,"N_COORD97":2538426.5099999998,"ADDRESS":"德善路２９０巷９弄２號","OBJECTID":181906},"geometry":{"x":173942.04000000004,"y":2538426.5100000035}},{"attributes":{"ID":181908,"DIS_CODE":0,"TOWNNAME":"仁德區","LI":"仁愛里","LIN":"18鄰","STREET":"保仁路","SECT":" ","MAREA":" ","LANE":"１２０巷","ALLEY":"１０３弄","HOUSE_NO":"３號","E_COORD97":170149.04999999999,"N_COORD97":2540260.0899999999,"ADDRESS":"保仁路１２０巷１０３弄３號","OBJECTID":181907},"geometry":{"x":170149.05000000075,"y":2540260.0900000036}},{"attributes":{"ID":181909,"DIS_CODE":0,"TOWNNAME":"仁德區","LI":"仁愛里","LIN":"18鄰","STREET":"保仁路","SECT":" ","MAREA":" ","LANE":"１２０巷","ALLEY":"１１８弄","HOUSE_NO":"２６號","E_COORD97":170207.17999999999,"N_COORD97":2540280.0049999999,"ADDRESS":"保仁路１２０巷１１８弄２６號","OBJECTID":181908},"geometry":{"x":170207.18000000063,"y":2540280.0050000008}},{"attributes":{"ID":181910,"DIS_CODE":0,"TOWNNAME":"仁德區","LI":"大甲里","LIN":"20鄰","STREET":"中正西路","SECT":" ","MAREA":" ","LANE":"４９５巷","ALLEY":"２２弄","HOUSE_NO":"１８號","E_COORD97":169360.07000000001,"N_COORD97":2535390.7400000002,"ADDRESS":"中正西路４９５巷２２弄１８號","OBJECTID":181909},"geometry":{"x":169360.0700000003,"y":2535390.7399999984}},{"attributes":{"ID":181911,"DIS_CODE":0,"TOWNNAME":"仁德區","LI":"土庫里","LIN":"13鄰","STREET":"土庫路","SECT":" ","MAREA":" ","LANE":"２１１巷","ALLEY":"１６弄","HOUSE_NO":"１５號","E_COORD97":174324.13,"N_COORD97":2542854.7400000002,"ADDRESS":"土庫路２１１巷１６弄１５號","OBJECTID":181910},"geometry":{"x":174324.13000000082,"y":2542854.7400000021}},{"attributes":{"ID":181912,"DIS_CODE":0,"TOWNNAME":"仁德區","LI":"土庫里","LIN":"13鄰","STREET":"土庫路","SECT":" ","MAREA":" ","LANE":"２１１巷","ALLEY":"１６弄","HOUSE_NO":"２１號","E_COORD97":174316.92999999999,"N_COORD97":2542845.2400000002,"ADDRESS":"土庫路２１１巷１６弄２１號","OBJECTID":181911},"geometry":{"x":174316.93000000063,"y":2542845.2400000002}},{"attributes":{"ID":181913,"DIS_CODE":0,"TOWNNAME":"仁德區","LI":"上崙里","LIN":"13鄰","STREET":"德崙路","SECT":" ","MAREA":" ","LANE":"４５０巷","ALLEY":"４５弄","HOUSE_NO":"５號","E_COORD97":174211.5,"N_COORD97":2537963.5099999998,"ADDRESS":"德崙路４５０巷４５弄５號","OBJECTID":181912},"geometry":{"x":174211.50000000093,"y":2537963.5100000016}},{"attributes":{"ID":181914,"DIS_CODE":0,"TOWNNAME":"仁德區","LI":"仁愛里","LIN":"18鄰","STREET":"保仁路","SECT":" ","MAREA":" ","LANE":"１２０巷","ALLEY":"１１６弄","HOUSE_NO":"８號","E_COORD97":170181.25,"N_COORD97":2540246.3500000001,"ADDRESS":"保仁路１２０巷１１６弄８號","OBJECTID":181913},"geometry":{"x":170181.25,"y":2540246.3499999996}},{"attributes":{"ID":181915,"DIS_CODE":0,"TOWNNAME":"仁德區","LI":"仁愛里","LIN":"18鄰","STREET":"保仁路","SECT":" ","MAREA":" ","LANE":"１２０巷","ALLEY":"１１６弄","HOUSE_NO":"１２號","E_COORD97":170193.25,"N_COORD97":2540245.4100000001,"ADDRESS":"保仁路１２０巷１１６弄１２號","OBJECTID":181914},"geometry":{"x":170193.25000000186,"y":2540245.410000002}},{"attributes":{"ID":181916,"DIS_CODE":0,"TOWNNAME":"仁德區","LI":"土庫里","LIN":"13鄰","STREET":"土庫路","SECT":" ","MAREA":" ","LANE":"２１１巷","ALLEY":"１６弄","HOUSE_NO":"５號","E_COORD97":174335.95000000001,"N_COORD97":2542870.7400000002,"ADDRESS":"土庫路２１１巷１６弄５號","OBJECTID":181915},"geometry":{"x":174335.95000000112,"y":2542870.7400000021}},{"attributes":{"ID":181917,"DIS_CODE":0,"TOWNNAME":"仁德區","LI":"大甲里","LIN":"20鄰","STREET":"中正西路","SECT":" ","MAREA":" ","LANE":"４９５巷","ALLEY":"８弄","HOUSE_NO":"１３號","E_COORD97":169374.73999999999,"N_COORD97":2535426.5,"ADDRESS":"中正西路４９５巷８弄１３號","OBJECTID":181916},"geometry":{"x":169374.73999999929,"y":2535426.5000000037}},{"attributes":{"ID":181918,"DIS_CODE":0,"TOWNNAME":"仁德區","LI":"土庫里","LIN":"13鄰","STREET":"土庫路","SECT":" ","MAREA":" ","LANE":"２１１巷","ALLEY":"１６弄","HOUSE_NO":"１３號","E_COORD97":174327.04000000001,"N_COORD97":2542857.9900000002,"ADDRESS":"土庫路２１１巷１６弄１３號","OBJECTID":181917},"geometry":{"x":174327.04000000004,"y":2542857.9899999984}},{"attributes":{"ID":181919,"DIS_CODE":0,"TOWNNAME":"仁德區","LI":"土庫里","LIN":"13鄰","STREET":"土庫路","SECT":" ","MAREA":" ","LANE":"２１１巷","ALLEY":"１６弄","HOUSE_NO":"３３號","E_COORD97":174301.70000000001,"N_COORD97":2542826.5,"ADDRESS":"土庫路２１１巷１６弄３３號","OBJECTID":181918},"geometry":{"x":174301.70000000112,"y":2542826.5}},{"attributes":{"ID":181920,"DIS_CODE":0,"TOWNNAME":"新市區","LI":"港墘里","LIN":"11鄰","STREET":" ","SECT":" ","MAREA":"崙頂","LANE":" ","ALLEY":" ","HOUSE_NO":"３４號","E_COORD97":178802.88,"N_COORD97":2552581,"ADDRESS":"崙頂３４號","OBJECTID":181919},"geometry":{"x":178802.88000000082,"y":2552581}},{"attributes":{"ID":181921,"DIS_CODE":0,"TOWNNAME":"新市區","LI":"大社里","LIN":"11鄰","STREET":" ","SECT":" ","MAREA":"大社","LANE":" ","ALLEY":" ","HOUSE_NO":"３９２號","E_COORD97":180126.57000000001,"N_COORD97":2554671.2400000002,"ADDRESS":"大社３９２號","OBJECTID":181920},"geometry":{"x":180126.5700000003,"y":2554671.2400000002}},{"attributes":{"ID":181922,"DIS_CODE":0,"TOWNNAME":"仁德區","LI":"大甲里","LIN":"20鄰","STREET":"中正西路","SECT":" ","MAREA":" ","LANE":"４９５巷","ALLEY":"８弄","HOUSE_NO":"９號","E_COORD97":169381.45999999999,"N_COORD97":2535425.25,"ADDRESS":"中正西路４９５巷８弄９號","OBJECTID":181921},"geometry":{"x":169381.46000000183,"y":2535425.2500000019}},{"attributes":{"ID":181923,"DIS_CODE":0,"TOWNNAME":"新市區","LI":"大營里","LIN":"11鄰","STREET":" ","SECT":" ","MAREA":"大營","LANE":" ","ALLEY":" ","HOUSE_NO":"２３４之１５號","E_COORD97":179248.42999999999,"N_COORD97":2555662.2999999998,"ADDRESS":"大營２３４之１５號","OBJECTID":181922},"geometry":{"x":179248.4299999997,"y":2555662.3000000045}},{"attributes":{"ID":181924,"DIS_CODE":0,"TOWNNAME":"仁德區","LI":"上崙里","LIN":"13鄰","STREET":"德崙路","SECT":" ","MAREA":" ","LANE":"４５０巷","ALLEY":"４５弄","HOUSE_NO":"２０號","E_COORD97":174235.22,"N_COORD97":2537954.02,"ADDRESS":"德崙路４５０巷４５弄２０號","OBJECTID":181923},"geometry":{"x":174235.22000000067,"y":2537954.0199999996}},{"attributes":{"ID":181925,"DIS_CODE":0,"TOWNNAME":"關廟區","LI":"關廟里","LIN":"10鄰","STREET":"大仁街","SECT":" ","MAREA":" ","LANE":" ","ALLEY":" ","HOUSE_NO":"２３７號","E_COORD97":180828.37,"N_COORD97":2539474.25,"ADDRESS":"大仁街２３７號","OBJECTID":181924},"geometry":{"x":180828.37000000104,"y":2539474.2500000019}},{"attributes":{"ID":181926,"DIS_CODE":0,"TOWNNAME":"仁德區","LI":"上崙里","LIN":"13鄰","STREET":"德崙路","SECT":" ","MAREA":" ","LANE":"４５０巷","ALLEY":"４５弄","HOUSE_NO":"１１號","E_COORD97":174225.48999999999,"N_COORD97":2537965.0099999998,"ADDRESS":"德崙路４５０巷４５弄１１號","OBJECTID":181925},"geometry":{"x":174225.49000000115,"y":2537965.0099999998}},{"attributes":{"ID":181927,"DIS_CODE":0,"TOWNNAME":"仁德區","LI":"土庫里","LIN":"13鄰","STREET":"土庫路","SECT":" ","MAREA":" ","LANE":"２１１巷","ALLEY":"１６弄","HOUSE_NO":"９號","E_COORD97":174330.45999999999,"N_COORD97":2542864.2400000002,"ADDRESS":"土庫路２１１巷１６弄９號","OBJECTID":181926},"geometry":{"x":174330.46000000089,"y":2542864.2400000021}},{"attributes":{"ID":181928,"DIS_CODE":0,"TOWNNAME":"仁德區","LI":"土庫里","LIN":"13鄰","STREET":"土庫路","SECT":" ","MAREA":" ","LANE":"２１１巷","ALLEY":"１６弄","HOUSE_NO":"２７號","E_COORD97":174309.53,"N_COORD97":2542835.4900000002,"ADDRESS":"土庫路２１１巷１６弄２７號","OBJECTID":181927},"geometry":{"x":174309.53000000119,"y":2542835.4900000021}},{"attributes":{"ID":181929,"DIS_CODE":0,"TOWNNAME":"仁德區","LI":"大甲里","LIN":"20鄰","STREET":"中正西路","SECT":" ","MAREA":" ","LANE":"４９５巷","ALLEY":"２２弄","HOUSE_NO":"１６號","E_COORD97":169366.63,"N_COORD97":2535390.2400000002,"ADDRESS":"中正西路４９５巷２２弄１６號","OBJECTID":181928},"geometry":{"x":169366.62999999896,"y":2535390.2400000002}},{"attributes":{"ID":181930,"DIS_CODE":0,"TOWNNAME":"仁德區","LI":"仁愛里","LIN":"18鄰","STREET":"保仁路","SECT":" ","MAREA":" ","LANE":"１２０巷","ALLEY":"９７弄","HOUSE_NO":"６號","E_COORD97":170128.98000000001,"N_COORD97":2540237.7999999998,"ADDRESS":"保仁路１２０巷９７弄６號","OBJECTID":181929},"geometry":{"x":170128.98000000045,"y":2540237.8000000007}},{"attributes":{"ID":181931,"DIS_CODE":0,"TOWNNAME":"仁德區","LI":"上崙里","LIN":"13鄰","STREET":"德崙路","SECT":" ","MAREA":" ","LANE":"４５０巷","ALLEY":"４５弄","HOUSE_NO":"１２號","E_COORD97":174219.97,"N_COORD97":2537952.27,"ADDRESS":"德崙路４５０巷４５弄１２號","OBJECTID":181930},"geometry":{"x":174219.97000000067,"y":2537952.2699999996}},{"attributes":{"ID":181932,"DIS_CODE":0,"TOWNNAME":"仁德區","LI":"仁愛里","LIN":"18鄰","STREET":"保仁路","SECT":" ","MAREA":" ","LANE":"１２０巷","ALLEY":"１１６弄","HOUSE_NO":"２２號","E_COORD97":170218.79999999999,"N_COORD97":2540243.5299999998,"ADDRESS":"保仁路１２０巷１１６弄２２號","OBJECTID":181931},"geometry":{"x":170218.80000000075,"y":2540243.5300000012}},{"attributes":{"ID":181933,"DIS_CODE":0,"TOWNNAME":"北區","LI":"華興里","LIN":"10鄰","STREET":"南園街","SECT":" ","MAREA":" ","LANE":" ","ALLEY":" ","HOUSE_NO":"１０７號","E_COORD97":170622.51000000001,"N_COORD97":2545357.1299999999,"ADDRESS":"南園街１０７號","OBJECTID":181932},"geometry":{"x":170622.51000000071,"y":2545357.129999999}},{"attributes":{"ID":181934,"DIS_CODE":0,"TOWNNAME":"北區","LI":"華興里","LIN":"10鄰","STREET":"南園街","SECT":" ","MAREA":" ","LANE":" ","ALLEY":" ","HOUSE_NO":"１０７號之１","E_COORD97":170623.97,"N_COORD97":2545352.6899999999,"ADDRESS":"南園街１０７號之１","OBJECTID":181933},"geometry":{"x":170623.97000000067,"y":2545352.6900000013}},{"attributes":{"ID":181935,"DIS_CODE":0,"TOWNNAME":"仁德區","LI":"土庫里","LIN":"5鄰","STREET":"土庫三街","SECT":" ","MAREA":" ","LANE":"３９巷","ALLEY":"１３弄","HOUSE_NO":"８號","E_COORD97":174181.09,"N_COORD97":2543170.6699999999,"ADDRESS":"土庫三街３９巷１３弄８號","OBJECTID":181934},"geometry":{"x":174181.08999999985,"y":2543170.6699999999}},{"attributes":{"ID":181936,"DIS_CODE":0,"TOWNNAME":"仁德區","LI":"二行里","LIN":"5鄰","STREET":"二行一路","SECT":" ","MAREA":" ","LANE":"７１巷","ALLEY":"１７弄","HOUSE_NO":"１０號","E_COORD97":170312.48000000001,"N_COORD97":2535288.7400000002,"ADDRESS":"二行一路７１巷１７弄１０號","OBJECTID":181935},"geometry":{"x":170312.47999999952,"y":2535288.7400000002}},{"attributes":{"ID":181937,"DIS_CODE":0,"TOWNNAME":"仁德區","LI":"土庫里","LIN":"18鄰","STREET":"土庫一街","SECT":" ","MAREA":" ","LANE":"２２巷","ALLEY":"３弄","HOUSE_NO":"３號","E_COORD97":174498.48000000001,"N_COORD97":2543082.9900000002,"ADDRESS":"土庫一街２２巷３弄３號","OBJECTID":181936},"geometry":{"x":174498.48000000138,"y":2543082.9900000021}},{"attributes":{"ID":181938,"DIS_CODE":0,"TOWNNAME":"仁德區","LI":"仁義里","LIN":"46鄰","STREET":"仁義路","SECT":" ","MAREA":" ","LANE":"９８巷","ALLEY":"３７弄","HOUSE_NO":"７號","E_COORD97":173659.39999999999,"N_COORD97":2540847.29,"ADDRESS":"仁義路９８巷３７弄７號","OBJECTID":181937},"geometry":{"x":173659.40000000224,"y":2540847.2899999991}},{"attributes":{"ID":181939,"DIS_CODE":0,"TOWNNAME":"仁德區","LI":"仁義里","LIN":"46鄰","STREET":"仁義路","SECT":" ","MAREA":" ","LANE":"９８巷","ALLEY":"３７弄","HOUSE_NO":"２號","E_COORD97":173637.64999999999,"N_COORD97":2540833.04,"ADDRESS":"仁義路９８巷３７弄２號","OBJECTID":181938},"geometry":{"x":173637.6500000013,"y":2540833.040000001}},{"attributes":{"ID":181940,"DIS_CODE":0,"TOWNNAME":"六甲區","LI":"龜港里","LIN":"10鄰","STREET":" ","SECT":" ","MAREA":"龜子港","LANE":"１６１巷","ALLEY":" ","HOUSE_NO":"７５號","E_COORD97":179351.70999999999,"N_COORD97":2572312.5099999998,"ADDRESS":"龜子港１６１巷７５號","OBJECTID":181939},"geometry":{"x":179351.71000000089,"y":2572312.5099999998}},{"attributes":{"ID":181941,"DIS_CODE":0,"TOWNNAME":"六甲區","LI":"龜港里","LIN":"10鄰","STREET":" ","SECT":" ","MAREA":"龜子港","LANE":"１６１巷","ALLEY":" ","HOUSE_NO":"７７號","E_COORD97":179342.37,"N_COORD97":2572357.8300000001,"ADDRESS":"龜子港１６１巷７７號","OBJECTID":181940},"geometry":{"x":179342.37000000104,"y":2572357.8300000001}},{"attributes":{"ID":181942,"DIS_CODE":0,"TOWNNAME":"仁德區","LI":"仁義里","LIN":"41鄰","STREET":"中正路","SECT":"二段","MAREA":" ","LANE":"８６２巷","ALLEY":"３３弄","HOUSE_NO":"５０號","E_COORD97":173533.66,"N_COORD97":2540599.02,"ADDRESS":"中正路二段８６２巷３３弄５０號","OBJECTID":181941},"geometry":{"x":173533.66000000201,"y":2540599.0199999996}},{"attributes":{"ID":181943,"DIS_CODE":0,"TOWNNAME":"六甲區","LI":"龜港里","LIN":"10鄰","STREET":" ","SECT":" ","MAREA":"龜子港","LANE":"２８１巷","ALLEY":" ","HOUSE_NO":"７８號","E_COORD97":179398.45999999999,"N_COORD97":2572298.9500000002,"ADDRESS":"龜子港２８１巷７８號","OBJECTID":181942},"geometry":{"x":179398.46000000183,"y":2572298.9499999993}},{"attributes":{"ID":181944,"DIS_CODE":0,"TOWNNAME":"仁德區","LI":"土庫里","LIN":"5鄰","STREET":"土庫六街","SECT":" ","MAREA":" ","LANE":"７５巷","ALLEY":"１１６弄","HOUSE_NO":"３號","E_COORD97":174124.62,"N_COORD97":2543109.75,"ADDRESS":"土庫六街７５巷１１６弄３號","OBJECTID":181943},"geometry":{"x":174124.62000000011,"y":2543109.75}},{"attributes":{"ID":181945,"DIS_CODE":0,"TOWNNAME":"仁德區","LI":"仁德里","LIN":"18鄰","STREET":"文華路","SECT":"三段","MAREA":" ","LANE":"１８９巷","ALLEY":"１１１弄","HOUSE_NO":"３６號","E_COORD97":171999.67999999999,"N_COORD97":2540437.0800000001,"ADDRESS":"文華路三段１８９巷１１１弄３６號","OBJECTID":181944},"geometry":{"x":171999.6799999997,"y":2540437.0800000019}},{"attributes":{"ID":181946,"DIS_CODE":0,"TOWNNAME":"仁德區","LI":"太子里","LIN":"39鄰","STREET":"太子路","SECT":" ","MAREA":" ","LANE":"８６巷","ALLEY":"９弄","HOUSE_NO":"９號","E_COORD97":174902.22,"N_COORD97":2543697.25,"ADDRESS":"太子路８６巷９弄９號","OBJECTID":181945},"geometry":{"x":174902.21999999974,"y":2543697.2500000037}},{"attributes":{"ID":181947,"DIS_CODE":0,"TOWNNAME":"六甲區","LI":"龜港里","LIN":"10鄰","STREET":" ","SECT":" ","MAREA":"龜子港","LANE":"２８１巷","ALLEY":" ","HOUSE_NO":"８０號","E_COORD97":179401.51000000001,"N_COORD97":2572293.04,"ADDRESS":"龜子港２８１巷８０號","OBJECTID":181946},"geometry":{"x":179401.51000000071,"y":2572293.040000001}},{"attributes":{"ID":181948,"DIS_CODE":0,"TOWNNAME":"六甲區","LI":"龜港里","LIN":"10鄰","STREET":" ","SECT":" ","MAREA":"龜子港","LANE":"２８１巷","ALLEY":" ","HOUSE_NO":"８６號","E_COORD97":179381.97,"N_COORD97":2572280.5,"ADDRESS":"龜子港２８１巷８６號","OBJECTID":181947},"geometry":{"x":179381.97000000067,"y":2572280.5000000019}},{"attributes":{"ID":181949,"DIS_CODE":0,"TOWNNAME":"仁德區","LI":"仁義里","LIN":"18鄰","STREET":"中山路","SECT":" ","MAREA":" ","LANE":"３２８巷","ALLEY":"１６弄","HOUSE_NO":"１號","E_COORD97":173963.04999999999,"N_COORD97":2541327.8599999999,"ADDRESS":"中山路３２８巷１６弄１號","OBJECTID":181948},"geometry":{"x":173963.05000000075,"y":2541327.8599999994}},{"attributes":{"ID":181950,"DIS_CODE":0,"TOWNNAME":"仁德區","LI":"太子里","LIN":"46鄰","STREET":"太子一街","SECT":" ","MAREA":" ","LANE":"４３巷","ALLEY":"３８弄","HOUSE_NO":"２８號","E_COORD97":174875.09,"N_COORD97":2543254.5,"ADDRESS":"太子一街４３巷３８弄２８號","OBJECTID":181949},"geometry":{"x":174875.09000000078,"y":2543254.5000000037}},{"attributes":{"ID":181951,"DIS_CODE":0,"TOWNNAME":"六甲區","LI":"龜港里","LIN":"10鄰","STREET":" ","SECT":" ","MAREA":"龜子港","LANE":"２８１巷","ALLEY":"９０弄","HOUSE_NO":"２號","E_COORD97":179357.06,"N_COORD97":2572275.3300000001,"ADDRESS":"龜子港２８１巷９０弄２號","OBJECTID":181950},"geometry":{"x":179357.06000000052,"y":2572275.3300000019}},{"attributes":{"ID":181952,"DIS_CODE":0,"TOWNNAME":"六甲區","LI":"龜港里","LIN":"10鄰","STREET":" ","SECT":" ","MAREA":"龜子港","LANE":"２８１巷","ALLEY":"９０弄","HOUSE_NO":"６號","E_COORD97":179357.56,"N_COORD97":2572294.8199999998,"ADDRESS":"龜子港２８１巷９０弄６號","OBJECTID":181951},"geometry":{"x":179357.55999999959,"y":2572294.820000004}},{"attributes":{"ID":181953,"DIS_CODE":0,"TOWNNAME":"六甲區","LI":"龜港里","LIN":"10鄰","STREET":" ","SECT":" ","MAREA":"龜子港","LANE":"２８１巷","ALLEY":" ","HOUSE_NO":"９４號","E_COORD97":179346.63,"N_COORD97":2572251.2999999998,"ADDRESS":"龜子港２８１巷９４號","OBJECTID":181952},"geometry":{"x":179346.63000000082,"y":2572251.3000000045}},{"attributes":{"ID":181954,"DIS_CODE":0,"TOWNNAME":"新市區","LI":"大社里","LIN":"11鄰","STREET":" ","SECT":" ","MAREA":"大社","LANE":" ","ALLEY":" ","HOUSE_NO":"３９１號","E_COORD97":180098.26999999999,"N_COORD97":2554636,"ADDRESS":"大社３９１號","OBJECTID":181953},"geometry":{"x":180098.27000000048,"y":2554636.0000000037}},{"attributes":{"ID":181955,"DIS_CODE":0,"TOWNNAME":"新市區","LI":"大社里","LIN":"11鄰","STREET":" ","SECT":" ","MAREA":"大社","LANE":" ","ALLEY":" ","HOUSE_NO":"３８６號","E_COORD97":180088.56,"N_COORD97":2554719,"ADDRESS":"大社３８６號","OBJECTID":181954},"geometry":{"x":180088.55999999959,"y":2554719.0000000019}},{"attributes":{"ID":181956,"DIS_CODE":0,"TOWNNAME":"新市區","LI":"大社里","LIN":"11鄰","STREET":" ","SECT":" ","MAREA":"大社","LANE":" ","ALLEY":" ","HOUSE_NO":"３９４號之２","E_COORD97":180130.62,"N_COORD97":2554703.7999999998,"ADDRESS":"大社３９４號之２","OBJECTID":181955},"geometry":{"x":180130.62000000104,"y":2554703.8000000026}},{"attributes":{"ID":181957,"DIS_CODE":0,"TOWNNAME":"新市區","LI":"大社里","LIN":"11鄰","STREET":" ","SECT":" ","MAREA":"大社","LANE":" ","ALLEY":" ","HOUSE_NO":"３９５之３號","E_COORD97":180109.70999999999,"N_COORD97":2554741.0499999998,"ADDRESS":"大社３９５之３號","OBJECTID":181956},"geometry":{"x":180109.70999999996,"y":2554741.0500000007}},{"attributes":{"ID":181958,"DIS_CODE":0,"TOWNNAME":"新市區","LI":"大營里","LIN":"11鄰","STREET":" ","SECT":" ","MAREA":"大營","LANE":" ","ALLEY":" ","HOUSE_NO":"２３４之１６號","E_COORD97":179248.13,"N_COORD97":2555667.0499999998,"ADDRESS":"大營２３４之１６號","OBJECTID":181957},"geometry":{"x":179248.13000000082,"y":2555667.0499999989}},{"attributes":{"ID":181959,"DIS_CODE":0,"TOWNNAME":"關廟區","LI":"香洋里","LIN":"10鄰","STREET":"仁愛路","SECT":" ","MAREA":" ","LANE":" ","ALLEY":" ","HOUSE_NO":"７１號","E_COORD97":181300.44,"N_COORD97":2540200.2799999998,"ADDRESS":"仁愛路７１號","OBJECTID":181958},"geometry":{"x":181300.44000000041,"y":2540200.2799999993}},{"attributes":{"ID":181960,"DIS_CODE":0,"TOWNNAME":"新市區","LI":"大社里","LIN":"11鄰","STREET":" ","SECT":" ","MAREA":"大社","LANE":" ","ALLEY":" ","HOUSE_NO":"３９０號","E_COORD97":180093.17000000001,"N_COORD97":2554663.5,"ADDRESS":"大社３９０號","OBJECTID":181959},"geometry":{"x":180093.16999999993,"y":2554663.5000000037}},{"attributes":{"ID":181961,"DIS_CODE":0,"TOWNNAME":"新市區","LI":"大社里","LIN":"11鄰","STREET":" ","SECT":" ","MAREA":"大社","LANE":" ","ALLEY":" ","HOUSE_NO":"３９４號之３","E_COORD97":180126.64999999999,"N_COORD97":2554710.0499999998,"ADDRESS":"大社３９４號之３","OBJECTID":181960},"geometry":{"x":180126.6500000013,"y":2554710.0500000007}},{"attributes":{"ID":181962,"DIS_CODE":0,"TOWNNAME":"新市區","LI":"大社里","LIN":"11鄰","STREET":" ","SECT":" ","MAREA":"大社","LANE":" ","ALLEY":" ","HOUSE_NO":"３８６之１號","E_COORD97":180072.48000000001,"N_COORD97":2554741.2999999998,"ADDRESS":"大社３８６之１號","OBJECTID":181961},"geometry":{"x":180072.48000000138,"y":2554741.3000000026}},{"attributes":{"ID":181963,"DIS_CODE":0,"TOWNNAME":"山上區","LI":"明和里","LIN":"11鄰","STREET":" ","SECT":" ","MAREA":"明和","LANE":" ","ALLEY":" ","HOUSE_NO":"１９３之２號","E_COORD97":183439.14000000001,"N_COORD97":2556110.2999999998,"ADDRESS":"明和１９３之２號","OBJECTID":181962},"geometry":{"x":183439.13999999966,"y":2556110.3000000026}},{"attributes":{"ID":181964,"DIS_CODE":0,"TOWNNAME":"仁德區","LI":"仁德里","LIN":"5鄰","STREET":"仁德四街","SECT":" ","MAREA":" ","LANE":"１２巷","ALLEY":"１弄","HOUSE_NO":"４號","E_COORD97":173227.82000000001,"N_COORD97":2540857.0499999998,"ADDRESS":"仁德四街１２巷１弄４號","OBJECTID":181963},"geometry":{"x":173227.82000000123,"y":2540857.0500000007}},{"attributes":{"ID":181965,"DIS_CODE":0,"TOWNNAME":"仁德區","LI":"仁義里","LIN":"20鄰","STREET":"中山路","SECT":" ","MAREA":" ","LANE":"３２８巷","ALLEY":"１６弄","HOUSE_NO":"４號","E_COORD97":173963.67000000001,"N_COORD97":2541313.6200000001,"ADDRESS":"中山路３２８巷１６弄４號","OBJECTID":181964},"geometry":{"x":173963.66999999993,"y":2541313.6200000029}},{"attributes":{"ID":181966,"DIS_CODE":0,"TOWNNAME":"山上區","LI":"南洲里","LIN":"11鄰","STREET":" ","SECT":" ","MAREA":"南洲","LANE":" ","ALLEY":" ","HOUSE_NO":"２７１號","E_COORD97":183659.94,"N_COORD97":2555527.25,"ADDRESS":"南洲２７１號","OBJECTID":181965},"geometry":{"x":183659.94000000041,"y":2555527.2500000019}},{"attributes":{"ID":181967,"DIS_CODE":0,"TOWNNAME":"仁德區","LI":"太子里","LIN":"5鄰","STREET":"太子路","SECT":" ","MAREA":" ","LANE":"１９０巷","ALLEY":"３３弄","HOUSE_NO":"１號","E_COORD97":174301.13,"N_COORD97":2543631.77,"ADDRESS":"太子路１９０巷３３弄１號","OBJECTID":181966},"geometry":{"x":174301.12999999989,"y":2543631.7699999996}},{"attributes":{"ID":181968,"DIS_CODE":0,"TOWNNAME":"仁德區","LI":"太子里","LIN":"46鄰","STREET":"太子一街","SECT":" ","MAREA":" ","LANE":"４３巷","ALLEY":"３８弄","HOUSE_NO":"８號","E_COORD97":174824.06,"N_COORD97":2543259.2999999998,"ADDRESS":"太子一街４３巷３８弄８號","OBJECTID":181967},"geometry":{"x":174824.06000000052,"y":2543259.3000000007}},{"attributes":{"ID":181969,"DIS_CODE":0,"TOWNNAME":"山上區","LI":"明和里","LIN":"11鄰","STREET":" ","SECT":" ","MAREA":"明和","LANE":" ","ALLEY":" ","HOUSE_NO":"１８７號","E_COORD97":183379.44,"N_COORD97":2556204.25,"ADDRESS":"明和１８７號","OBJECTID":181968},"geometry":{"x":183379.44000000227,"y":2556204.2500000037}},{"attributes":{"ID":181970,"DIS_CODE":0,"TOWNNAME":"仁德區","LI":"太子里","LIN":"36鄰","STREET":"長興一街","SECT":" ","MAREA":" ","LANE":"８６巷","ALLEY":"２弄","HOUSE_NO":"１１號","E_COORD97":174466.87,"N_COORD97":2543855.2599999998,"ADDRESS":"長興一街８６巷２弄１１號","OBJECTID":181969},"geometry":{"x":174466.87000000104,"y":2543855.2599999998}},{"attributes":{"ID":181971,"DIS_CODE":0,"TOWNNAME":"山上區","LI":"山上里","LIN":"11鄰","STREET":" ","SECT":" ","MAREA":"山上","LANE":" ","ALLEY":" ","HOUSE_NO":"１７０號","E_COORD97":184232.41,"N_COORD97":2555615.25,"ADDRESS":"山上１７０號","OBJECTID":181970},"geometry":{"x":184232.41000000108,"y":2555615.2500000019}},{"attributes":{"ID":181972,"DIS_CODE":0,"TOWNNAME":"仁德區","LI":"仁德里","LIN":"5鄰","STREET":"仁德四街","SECT":" ","MAREA":" ","LANE":"１２巷","ALLEY":"１５弄","HOUSE_NO":"２３號","E_COORD97":173174.39999999999,"N_COORD97":2540870.04,"ADDRESS":"仁德四街１２巷１５弄２３號","OBJECTID":181971},"geometry":{"x":173174.39999999944,"y":2540870.0400000028}},{"attributes":{"ID":181973,"DIS_CODE":0,"TOWNNAME":"山上區","LI":"明和里","LIN":"11鄰","STREET":" ","SECT":" ","MAREA":"明和","LANE":" ","ALLEY":" ","HOUSE_NO":"１９２之５號","E_COORD97":183369.84,"N_COORD97":2556115.2999999998,"ADDRESS":"明和１９２之５號","OBJECTID":181972},"geometry":{"x":183369.84000000078,"y":2556115.3000000007}},{"attributes":{"ID":181974,"DIS_CODE":0,"TOWNNAME":"仁德區","LI":"太子里","LIN":"46鄰","STREET":"太子一街","SECT":" ","MAREA":" ","LANE":"４３巷","ALLEY":"３８弄","HOUSE_NO":"１４號","E_COORD97":174841.26000000001,"N_COORD97":2543247.0499999998,"ADDRESS":"太子一街４３巷３８弄１４號","OBJECTID":181973},"geometry":{"x":174841.26000000164,"y":2543247.0500000007}},{"attributes":{"ID":181975,"DIS_CODE":0,"TOWNNAME":"山上區","LI":"明和里","LIN":"11鄰","STREET":" ","SECT":" ","MAREA":"明和","LANE":" ","ALLEY":" ","HOUSE_NO":"１９２之１號","E_COORD97":183351.84,"N_COORD97":2556113.2999999998,"ADDRESS":"明和１９２之１號","OBJECTID":181974},"geometry":{"x":183351.83999999985,"y":2556113.3000000045}},{"attributes":{"ID":181976,"DIS_CODE":0,"TOWNNAME":"山上區","LI":"明和里","LIN":"11鄰","STREET":" ","SECT":" ","MAREA":"明和","LANE":" ","ALLEY":" ","HOUSE_NO":"１９２之４號","E_COORD97":183365.64000000001,"N_COORD97":2556114.2999999998,"ADDRESS":"明和１９２之４號","OBJECTID":181975},"geometry":{"x":183365.6400000006,"y":2556114.3000000026}},{"attributes":{"ID":181977,"DIS_CODE":0,"TOWNNAME":"仁德區","LI":"仁德里","LIN":"5鄰","STREET":"仁德四街","SECT":" ","MAREA":" ","LANE":"１２巷","ALLEY":"１弄","HOUSE_NO":"１８號","E_COORD97":173196.47,"N_COORD97":2540847.2999999998,"ADDRESS":"仁德四街１２巷１弄１８號","OBJECTID":181976},"geometry":{"x":173196.46999999974,"y":2540847.3000000026}},{"attributes":{"ID":181978,"DIS_CODE":0,"TOWNNAME":"山上區","LI":"南洲里","LIN":"11鄰","STREET":" ","SECT":" ","MAREA":"南洲","LANE":" ","ALLEY":" ","HOUSE_NO":"３９號","E_COORD97":183790.39000000001,"N_COORD97":2555108.25,"ADDRESS":"南洲３９號","OBJECTID":181977},"geometry":{"x":183790.38999999966,"y":2555108.25}},{"attributes":{"ID":181979,"DIS_CODE":0,"TOWNNAME":"山上區","LI":"明和里","LIN":"11鄰","STREET":" ","SECT":" ","MAREA":"明和","LANE":" ","ALLEY":" ","HOUSE_NO":"１６０號","E_COORD97":183325.34,"N_COORD97":2556121.25,"ADDRESS":"明和１６０號","OBJECTID":181978},"geometry":{"x":183325.34000000078,"y":2556121.25}},{"attributes":{"ID":181980,"DIS_CODE":0,"TOWNNAME":"山上區","LI":"明和里","LIN":"11鄰","STREET":" ","SECT":" ","MAREA":"明和","LANE":" ","ALLEY":" ","HOUSE_NO":"１８８號","E_COORD97":183369.44,"N_COORD97":2556201.25,"ADDRESS":"明和１８８號","OBJECTID":181979},"geometry":{"x":183369.44000000134,"y":2556201.2500000019}},{"attributes":{"ID":181981,"DIS_CODE":0,"TOWNNAME":"仁德區","LI":"仁義里","LIN":"38鄰","STREET":"仁義五街","SECT":" ","MAREA":" ","LANE":"２４巷","ALLEY":"２弄","HOUSE_NO":"１１號","E_COORD97":173525.10000000001,"N_COORD97":2540370.8300000001,"ADDRESS":"仁義五街２４巷２弄１１號","OBJECTID":181980},"geometry":{"x":173525.10000000056,"y":2540370.8300000038}},{"attributes":{"ID":181982,"DIS_CODE":0,"TOWNNAME":"山上區","LI":"南洲里","LIN":"11鄰","STREET":" ","SECT":" ","MAREA":"南洲","LANE":" ","ALLEY":" ","HOUSE_NO":"２７２號","E_COORD97":183642.34,"N_COORD97":2555546.25,"ADDRESS":"南洲２７２號","OBJECTID":181981},"geometry":{"x":183642.34000000078,"y":2555546.2499999981}},{"attributes":{"ID":181983,"DIS_CODE":0,"TOWNNAME":"仁德區","LI":"太子里","LIN":"46鄰","STREET":"太子一街","SECT":" ","MAREA":" ","LANE":"４３巷","ALLEY":"１０弄","HOUSE_NO":"３２號","E_COORD97":174777.57000000001,"N_COORD97":2543256.8700000001,"ADDRESS":"太子一街４３巷１０弄３２號","OBJECTID":181982},"geometry":{"x":174777.57000000123,"y":2543256.8700000048}},{"attributes":{"ID":181984,"DIS_CODE":0,"TOWNNAME":"仁德區","LI":"太子里","LIN":"46鄰","STREET":"太子一街","SECT":" ","MAREA":" ","LANE":"４３巷","ALLEY":"３８弄","HOUSE_NO":"４號","E_COORD97":174828.60000000001,"N_COORD97":2543269.4100000001,"ADDRESS":"太子一街４３巷３８弄４號","OBJECTID":181983},"geometry":{"x":174828.60000000149,"y":2543269.410000002}},{"attributes":{"ID":181985,"DIS_CODE":0,"TOWNNAME":"山上區","LI":"南洲里","LIN":"11鄰","STREET":" ","SECT":" ","MAREA":"南洲","LANE":" ","ALLEY":" ","HOUSE_NO":"３８之１號","E_COORD97":183634.51092,"N_COORD97":2555410.4562400002,"ADDRESS":"南洲３８之１號","OBJECTID":181984},"geometry":{"x":183634.51092000213,"y":2555410.4562369995}},{"attributes":{"ID":181986,"DIS_CODE":0,"TOWNNAME":"山上區","LI":"南洲里","LIN":"11鄰","STREET":" ","SECT":" ","MAREA":"南洲","LANE":" ","ALLEY":" ","HOUSE_NO":"３６號","E_COORD97":183664.48999999999,"N_COORD97":2555442.25,"ADDRESS":"南洲３６號","OBJECTID":181985},"geometry":{"x":183664.49000000022,"y":2555442.2500000019}},{"attributes":{"ID":181987,"DIS_CODE":0,"TOWNNAME":"仁德區","LI":"仁義里","LIN":"43鄰","STREET":"中正路","SECT":"二段","MAREA":" ","LANE":"１０３４巷","ALLEY":"２２弄","HOUSE_NO":"２５號","E_COORD97":173473.76999999999,"N_COORD97":2540841.1699999999,"ADDRESS":"中正路二段１０３４巷２２弄２５號","OBJECTID":181986},"geometry":{"x":173473.76999999955,"y":2540841.1699999999}},{"attributes":{"ID":181988,"DIS_CODE":0,"TOWNNAME":"山上區","LI":"明和里","LIN":"11鄰","STREET":" ","SECT":" ","MAREA":"明和","LANE":" ","ALLEY":" ","HOUSE_NO":"１９２號","E_COORD97":183344.04000000001,"N_COORD97":2556112.25,"ADDRESS":"明和１９２號","OBJECTID":181987},"geometry":{"x":183344.04000000004,"y":2556112.25}},{"attributes":{"ID":181989,"DIS_CODE":0,"TOWNNAME":"山上區","LI":"南洲里","LIN":"11鄰","STREET":" ","SECT":" ","MAREA":"南洲","LANE":" ","ALLEY":" ","HOUSE_NO":"３７號","E_COORD97":183651.59,"N_COORD97":2555444.25,"ADDRESS":"南洲３７號","OBJECTID":181988},"geometry":{"x":183651.58999999985,"y":2555444.25}},{"attributes":{"ID":181990,"DIS_CODE":0,"TOWNNAME":"山上區","LI":"明和里","LIN":"11鄰","STREET":" ","SECT":" ","MAREA":"明和","LANE":" ","ALLEY":" ","HOUSE_NO":"１９２之２號","E_COORD97":183356.54000000001,"N_COORD97":2556113.2999999998,"ADDRESS":"明和１９２之２號","OBJECTID":181989},"geometry":{"x":183356.54000000097,"y":2556113.3000000045}},{"attributes":{"ID":181991,"DIS_CODE":0,"TOWNNAME":"山上區","LI":"南洲里","LIN":"11鄰","STREET":" ","SECT":" ","MAREA":"南洲","LANE":" ","ALLEY":" ","HOUSE_NO":"２７０號","E_COORD97":183627.94,"N_COORD97":2555591.25,"ADDRESS":"南洲２７０號","OBJECTID":181990},"geometry":{"x":183627.94000000041,"y":2555591.2500000019}},{"attributes":{"ID":181992,"DIS_CODE":0,"TOWNNAME":"關廟區","LI":"山西里","LIN":"10鄰","STREET":"文衡路","SECT":" ","MAREA":" ","LANE":" ","ALLEY":" ","HOUSE_NO":"２５２號","E_COORD97":180918.54000000001,"N_COORD97":2540672.3300000001,"ADDRESS":"文衡路２５２號","OBJECTID":181991},"geometry":{"x":180918.5400000019,"y":2540672.3300000038}},{"attributes":{"ID":181993,"DIS_CODE":0,"TOWNNAME":"關廟區","LI":"五甲里","LIN":"10鄰","STREET":"五甲路","SECT":" ","MAREA":" ","LANE":" ","ALLEY":" ","HOUSE_NO":"５６５號","E_COORD97":181027.97,"N_COORD97":2538060.25,"ADDRESS":"五甲路５６５號","OBJECTID":181992},"geometry":{"x":181027.97000000067,"y":2538060.2500000019}},{"attributes":{"ID":181994,"DIS_CODE":0,"TOWNNAME":"關廟區","LI":"山西里","LIN":"10鄰","STREET":"文衡路","SECT":" ","MAREA":" ","LANE":" ","ALLEY":" ","HOUSE_NO":"２６６號","E_COORD97":180916.64000000001,"N_COORD97":2540692.3300000001,"ADDRESS":"文衡路２６６號","OBJECTID":181993},"geometry":{"x":180916.63999999966,"y":2540692.3300000001}},{"attributes":{"ID":181995,"DIS_CODE":0,"TOWNNAME":"關廟區","LI":"山西里","LIN":"10鄰","STREET":"文衡路","SECT":" ","MAREA":" ","LANE":" ","ALLEY":" ","HOUSE_NO":"２４２號","E_COORD97":180918.54000000001,"N_COORD97":2540650.3300000001,"ADDRESS":"文衡路２４２號","OBJECTID":181994},"geometry":{"x":180918.5400000019,"y":2540650.3300000019}},{"attributes":{"ID":181996,"DIS_CODE":0,"TOWNNAME":"仁德區","LI":"仁義里","LIN":"38鄰","STREET":"仁義五街","SECT":" ","MAREA":" ","LANE":"２４巷","ALLEY":"２弄","HOUSE_NO":"８號","E_COORD97":173525.04999999999,"N_COORD97":2540401.5899999999,"ADDRESS":"仁義五街２４巷２弄８號","OBJECTID":181995},"geometry":{"x":173525.04999999981,"y":2540401.5899999999}},{"attributes":{"ID":181997,"DIS_CODE":0,"TOWNNAME":"仁德區","LI":"太子里","LIN":"46鄰","STREET":"太子一街","SECT":" ","MAREA":" ","LANE":"４３巷","ALLEY":"３８弄","HOUSE_NO":"２４號","E_COORD97":174868.98000000001,"N_COORD97":2543244.5099999998,"ADDRESS":"太子一街４３巷３８弄２４號","OBJECTID":181996},"geometry":{"x":174868.98000000045,"y":2543244.5100000016}},{"attributes":{"ID":181998,"DIS_CODE":0,"TOWNNAME":"仁德區","LI":"太子里","LIN":"5鄰","STREET":"太子路","SECT":" ","MAREA":" ","LANE":"１９０巷","ALLEY":"３３弄","HOUSE_NO":"４號","E_COORD97":174295.60000000001,"N_COORD97":2543646.29,"ADDRESS":"太子路１９０巷３３弄４號","OBJECTID":181997},"geometry":{"x":174295.59999999963,"y":2543646.290000001}},{"attributes":{"ID":181999,"DIS_CODE":0,"TOWNNAME":"仁德區","LI":"仁義里","LIN":"38鄰","STREET":"仁義五街","SECT":" ","MAREA":" ","LANE":"２４巷","ALLEY":"２弄","HOUSE_NO":"１２號","E_COORD97":173516.14000000001,"N_COORD97":2540400.5899999999,"ADDRESS":"仁義五街２４巷２弄１２號","OBJECTID":181998},"geometry":{"x":173516.13999999873,"y":2540400.5900000017}},{"attributes":{"ID":182000,"DIS_CODE":0,"TOWNNAME":"仁德區","LI":"仁義里","LIN":"39鄰","STREET":"仁義五街","SECT":" ","MAREA":" ","LANE":"２４巷","ALLEY":"１弄","HOUSE_NO":"５號","E_COORD97":173559.51000000001,"N_COORD97":2540404.6800000002,"ADDRESS":"仁義五街２４巷１弄５號","OBJECTID":181999},"geometry":{"x":173559.50999999885,"y":2540404.6799999997}},{"attributes":{"ID":182001,"DIS_CODE":0,"TOWNNAME":"仁德區","LI":"太子里","LIN":"5鄰","STREET":"太子路","SECT":" ","MAREA":" ","LANE":"１９０巷","ALLEY":"３３弄","HOUSE_NO":"１５號","E_COORD97":174268.64000000001,"N_COORD97":2543634.27,"ADDRESS":"太子路１９０巷３３弄１５號","OBJECTID":182000},"geometry":{"x":174268.63999999966,"y":2543634.2699999996}}]}