{"displayFieldName":"TOWNNAME","fieldAliases":{"ID":"ID","DIS_CODE":"DIS_CODE","TOWNNAME":"TOWNNAME","LI":"LI","LIN":"LIN","STREET":"STREET","SECT":"SECT","MAREA":"MAREA","LANE":"LANE","ALLEY":"ALLEY","HOUSE_NO":"HOUSE_NO","E_COORD97":"E_COORD97","N_COORD97":"N_COORD97","ADDRESS":"ADDRESS","OBJECTID":"OBJECTID"},"geometryType":"esriGeometryPoint","spatialReference":{"wkid":102443,"latestWkid":3826},"fields":[{"name":"ID","type":"esriFieldTypeDouble","alias":"ID"},{"name":"DIS_CODE","type":"esriFieldTypeInteger","alias":"DIS_CODE"},{"name":"TOWNNAME","type":"esriFieldTypeString","alias":"TOWNNAME","length":8},{"name":"LI","type":"esriFieldTypeString","alias":"LI","length":8},{"name":"LIN","type":"esriFieldTypeString","alias":"LIN","length":12},{"name":"STREET","type":"esriFieldTypeString","alias":"STREET","length":20},{"name":"SECT","type":"esriFieldTypeString","alias":"SECT","length":8},{"name":"MAREA","type":"esriFieldTypeString","alias":"MAREA","length":12},{"name":"LANE","type":"esriFieldTypeString","alias":"LANE","length":10},{"name":"ALLEY","type":"esriFieldTypeString","alias":"ALLEY","length":10},{"name":"HOUSE_NO","type":"esriFieldTypeString","alias":"HOUSE_NO","length":20},{"name":"E_COORD97","type":"esriFieldTypeDouble","alias":"E_COORD97"},{"name":"N_COORD97","type":"esriFieldTypeDouble","alias":"N_COORD97"},{"name":"ADDRESS","type":"esriFieldTypeString","alias":"ADDRESS","length":50},{"name":"OBJECTID","type":"esriFieldTypeOID","alias":"OBJECTID"}],"features":[{"attributes":{"ID":611028,"DIS_CODE":0,"TOWNNAME":"麻豆區","LI":"保安里","LIN":"3鄰","STREET":"興中路","SECT":" ","MAREA":" ","LANE":" ","ALLEY":" ","HOUSE_NO":"１９號","E_COORD97":173115.63,"N_COORD97":2564832.3300000001,"ADDRESS":"興中路１９號","OBJECTID":611001},"geometry":{"x":173115.63000000082,"y":2564832.3300000038}},{"attributes":{"ID":611029,"DIS_CODE":0,"TOWNNAME":"麻豆區","LI":"保安里","LIN":"3鄰","STREET":"興中路","SECT":" ","MAREA":" ","LANE":" ","ALLEY":" ","HOUSE_NO":"２５號","E_COORD97":173127.84,"N_COORD97":2564833.3599999999,"ADDRESS":"興中路２５號","OBJECTID":611002},"geometry":{"x":173127.83999999985,"y":2564833.3599999994}},{"attributes":{"ID":611030,"DIS_CODE":0,"TOWNNAME":"麻豆區","LI":"保安里","LIN":"3鄰","STREET":"興中路","SECT":" ","MAREA":" ","LANE":" ","ALLEY":" ","HOUSE_NO":"２７號","E_COORD97":173131.98999999999,"N_COORD97":2564833.27,"ADDRESS":"興中路２７號","OBJECTID":611003},"geometry":{"x":173131.99000000115,"y":2564833.2700000014}},{"attributes":{"ID":611031,"DIS_CODE":0,"TOWNNAME":"麻豆區","LI":"保安里","LIN":"3鄰","STREET":"興中路","SECT":" ","MAREA":" ","LANE":" ","ALLEY":" ","HOUSE_NO":"２９號","E_COORD97":173135.60000000001,"N_COORD97":2564832.7999999998,"ADDRESS":"興中路２９號","OBJECTID":611004},"geometry":{"x":173135.60000000056,"y":2564832.8000000007}},{"attributes":{"ID":611032,"DIS_CODE":0,"TOWNNAME":"麻豆區","LI":"保安里","LIN":"3鄰","STREET":"興中路","SECT":" ","MAREA":" ","LANE":" ","ALLEY":" ","HOUSE_NO":"３１號","E_COORD97":173139.76999999999,"N_COORD97":2564832.8300000001,"ADDRESS":"興中路３１號","OBJECTID":611005},"geometry":{"x":173139.76999999955,"y":2564832.8300000019}},{"attributes":{"ID":611033,"DIS_CODE":0,"TOWNNAME":"下營區","LI":"下營里","LIN":"3鄰","STREET":"中正南路","SECT":" ","MAREA":" ","LANE":" ","ALLEY":" ","HOUSE_NO":"２３號","E_COORD97":174580.94,"N_COORD97":2570449.6699999999,"ADDRESS":"中正南路２３號","OBJECTID":611006},"geometry":{"x":174580.94000000041,"y":2570449.6699999999}},{"attributes":{"ID":611034,"DIS_CODE":0,"TOWNNAME":"下營區","LI":"下營里","LIN":"3鄰","STREET":"中正南路","SECT":" ","MAREA":" ","LANE":" ","ALLEY":" ","HOUSE_NO":"２５號","E_COORD97":174582.19,"N_COORD97":2570445.8599999999,"ADDRESS":"中正南路２５號","OBJECTID":611007},"geometry":{"x":174582.19000000041,"y":2570445.8600000031}},{"attributes":{"ID":611035,"DIS_CODE":0,"TOWNNAME":"下營區","LI":"下營里","LIN":"3鄰","STREET":"中正南路","SECT":" ","MAREA":" ","LANE":" ","ALLEY":" ","HOUSE_NO":"２７號","E_COORD97":174582.88,"N_COORD97":2570441.8599999999,"ADDRESS":"中正南路２７號","OBJECTID":611008},"geometry":{"x":174582.88000000175,"y":2570441.8599999994}},{"attributes":{"ID":611036,"DIS_CODE":0,"TOWNNAME":"下營區","LI":"下營里","LIN":"3鄰","STREET":"中正南路","SECT":" ","MAREA":" ","LANE":" ","ALLEY":" ","HOUSE_NO":"２９號","E_COORD97":174584.26000000001,"N_COORD97":2570437.5499999998,"ADDRESS":"中正南路２９號","OBJECTID":611009},"geometry":{"x":174584.26000000071,"y":2570437.5500000007}},{"attributes":{"ID":611037,"DIS_CODE":0,"TOWNNAME":"下營區","LI":"下營里","LIN":"3鄰","STREET":"中正南路","SECT":" ","MAREA":" ","LANE":" ","ALLEY":" ","HOUSE_NO":"３３號","E_COORD97":174585.48000000001,"N_COORD97":2570433.02,"ADDRESS":"中正南路３３號","OBJECTID":611010},"geometry":{"x":174585.48000000045,"y":2570433.0199999996}},{"attributes":{"ID":611038,"DIS_CODE":0,"TOWNNAME":"下營區","LI":"下營里","LIN":"3鄰","STREET":"中正南路","SECT":" ","MAREA":" ","LANE":" ","ALLEY":" ","HOUSE_NO":"３５號","E_COORD97":174588.64000000001,"N_COORD97":2570428.0899999999,"ADDRESS":"中正南路３５號","OBJECTID":611011},"geometry":{"x":174588.63999999966,"y":2570428.0900000017}},{"attributes":{"ID":611039,"DIS_CODE":0,"TOWNNAME":"下營區","LI":"下營里","LIN":"3鄰","STREET":"中正南路","SECT":" ","MAREA":" ","LANE":" ","ALLEY":" ","HOUSE_NO":"３７號","E_COORD97":174590.10000000001,"N_COORD97":2570423.3599999999,"ADDRESS":"中正南路３７號","OBJECTID":611012},"geometry":{"x":174590.10000000056,"y":2570423.3600000013}},{"attributes":{"ID":611040,"DIS_CODE":0,"TOWNNAME":"下營區","LI":"營前里","LIN":"3鄰","STREET":"中正南路","SECT":" ","MAREA":" ","LANE":" ","ALLEY":" ","HOUSE_NO":"４０號","E_COORD97":174575.10999999999,"N_COORD97":2570381.8100000001,"ADDRESS":"中正南路４０號","OBJECTID":611013},"geometry":{"x":174575.11000000127,"y":2570381.8100000005}},{"attributes":{"ID":611041,"DIS_CODE":0,"TOWNNAME":"下營區","LI":"下營里","LIN":"3鄰","STREET":"中正南路","SECT":" ","MAREA":" ","LANE":" ","ALLEY":" ","HOUSE_NO":"４１號","E_COORD97":174591.92000000001,"N_COORD97":2570419.3599999999,"ADDRESS":"中正南路４１號","OBJECTID":611014},"geometry":{"x":174591.91999999993,"y":2570419.3600000013}},{"attributes":{"ID":611042,"DIS_CODE":0,"TOWNNAME":"下營區","LI":"營前里","LIN":"3鄰","STREET":"中正南路","SECT":" ","MAREA":" ","LANE":" ","ALLEY":" ","HOUSE_NO":"４２號","E_COORD97":174575.67999999999,"N_COORD97":2570375.77,"ADDRESS":"中正南路４２號","OBJECTID":611015},"geometry":{"x":174575.68000000063,"y":2570375.7700000014}},{"attributes":{"ID":611043,"DIS_CODE":0,"TOWNNAME":"下營區","LI":"下營里","LIN":"3鄰","STREET":"中正南路","SECT":" ","MAREA":" ","LANE":" ","ALLEY":" ","HOUSE_NO":"４３號","E_COORD97":174593.25,"N_COORD97":2570415.4100000001,"ADDRESS":"中正南路４３號","OBJECTID":611016},"geometry":{"x":174593.25,"y":2570415.4100000001}},{"attributes":{"ID":611044,"DIS_CODE":0,"TOWNNAME":"下營區","LI":"下營里","LIN":"3鄰","STREET":"中正南路","SECT":" ","MAREA":" ","LANE":" ","ALLEY":" ","HOUSE_NO":"４５號","E_COORD97":174596.57999999999,"N_COORD97":2570411.73,"ADDRESS":"中正南路４５號","OBJECTID":611017},"geometry":{"x":174596.58000000007,"y":2570411.7300000023}},{"attributes":{"ID":611045,"DIS_CODE":0,"TOWNNAME":"下營區","LI":"營前里","LIN":"3鄰","STREET":"中正南路","SECT":" ","MAREA":" ","LANE":" ","ALLEY":" ","HOUSE_NO":"４６號","E_COORD97":174577.10000000001,"N_COORD97":2570370.3100000001,"ADDRESS":"中正南路４６號","OBJECTID":611018},"geometry":{"x":174577.09999999963,"y":2570370.3100000024}},{"attributes":{"ID":611046,"DIS_CODE":0,"TOWNNAME":"下營區","LI":"下營里","LIN":"3鄰","STREET":"中正南路","SECT":" ","MAREA":" ","LANE":" ","ALLEY":" ","HOUSE_NO":"４７號","E_COORD97":174597.57999999999,"N_COORD97":2570407.3999999999,"ADDRESS":"中正南路４７號","OBJECTID":611019},"geometry":{"x":174597.58000000101,"y":2570407.4000000022}},{"attributes":{"ID":611047,"DIS_CODE":0,"TOWNNAME":"下營區","LI":"營前里","LIN":"3鄰","STREET":"中正南路","SECT":" ","MAREA":" ","LANE":" ","ALLEY":" ","HOUSE_NO":"４８號","E_COORD97":174578.62,"N_COORD97":2570365.4100000001,"ADDRESS":"中正南路４８號","OBJECTID":611020},"geometry":{"x":174578.62000000104,"y":2570365.410000002}},{"attributes":{"ID":611048,"DIS_CODE":0,"TOWNNAME":"下營區","LI":"營前里","LIN":"3鄰","STREET":"中正南路","SECT":" ","MAREA":" ","LANE":" ","ALLEY":" ","HOUSE_NO":"５０號","E_COORD97":174579.73999999999,"N_COORD97":2570361.77,"ADDRESS":"中正南路５０號","OBJECTID":611021},"geometry":{"x":174579.74000000115,"y":2570361.7700000033}},{"attributes":{"ID":611049,"DIS_CODE":0,"TOWNNAME":"下營區","LI":"營前里","LIN":"3鄰","STREET":"中正南路","SECT":" ","MAREA":" ","LANE":" ","ALLEY":" ","HOUSE_NO":"５２號","E_COORD97":174581,"N_COORD97":2570356.1299999999,"ADDRESS":"中正南路５２號","OBJECTID":611022},"geometry":{"x":174581.00000000093,"y":2570356.1300000008}},{"attributes":{"ID":611050,"DIS_CODE":0,"TOWNNAME":"下營區","LI":"營前里","LIN":"3鄰","STREET":"中正南路","SECT":" ","MAREA":" ","LANE":" ","ALLEY":" ","HOUSE_NO":"５８號","E_COORD97":174584.39999999999,"N_COORD97":2570349.5299999998,"ADDRESS":"中正南路５８號","OBJECTID":611023},"geometry":{"x":174584.40000000037,"y":2570349.5300000031}},{"attributes":{"ID":611051,"DIS_CODE":0,"TOWNNAME":"下營區","LI":"營前里","LIN":"3鄰","STREET":"中正南路","SECT":" ","MAREA":" ","LANE":" ","ALLEY":" ","HOUSE_NO":"６０號","E_COORD97":174585.57000000001,"N_COORD97":2570344.52,"ADDRESS":"中正南路６０號","OBJECTID":611024},"geometry":{"x":174585.57000000123,"y":2570344.5200000014}},{"attributes":{"ID":611052,"DIS_CODE":0,"TOWNNAME":"下營區","LI":"營前里","LIN":"3鄰","STREET":"中正南路","SECT":" ","MAREA":" ","LANE":" ","ALLEY":" ","HOUSE_NO":"６２號","E_COORD97":174586.81,"N_COORD97":2570338.5499999998,"ADDRESS":"中正南路６２號","OBJECTID":611025},"geometry":{"x":174586.81000000052,"y":2570338.5500000026}},{"attributes":{"ID":611053,"DIS_CODE":0,"TOWNNAME":"下營區","LI":"營前里","LIN":"3鄰","STREET":"中正南路","SECT":" ","MAREA":" ","LANE":" ","ALLEY":" ","HOUSE_NO":"６６號","E_COORD97":174588.16,"N_COORD97":2570333.1600000001,"ADDRESS":"中正南路６６號","OBJECTID":611026},"geometry":{"x":174588.16000000108,"y":2570333.160000002}},{"attributes":{"ID":611054,"DIS_CODE":0,"TOWNNAME":"下營區","LI":"營前里","LIN":"3鄰","STREET":"中正南路","SECT":" ","MAREA":" ","LANE":" ","ALLEY":" ","HOUSE_NO":"６８號","E_COORD97":174589.54000000001,"N_COORD97":2570325.9100000001,"ADDRESS":"中正南路６８號","OBJECTID":611027},"geometry":{"x":174589.54000000004,"y":2570325.9100000001}},{"attributes":{"ID":611055,"DIS_CODE":0,"TOWNNAME":"永康區","LI":"尚頂里","LIN":"3鄰","STREET":"中正二街","SECT":" ","MAREA":" ","LANE":" ","ALLEY":" ","HOUSE_NO":"１６６號","E_COORD97":171369.95000000001,"N_COORD97":2547696.6200000001,"ADDRESS":"中正二街１６６號","OBJECTID":611028},"geometry":{"x":171369.95000000019,"y":2547696.6200000029}},{"attributes":{"ID":611056,"DIS_CODE":0,"TOWNNAME":"永康區","LI":"尚頂里","LIN":"3鄰","STREET":"中正二街","SECT":" ","MAREA":" ","LANE":" ","ALLEY":" ","HOUSE_NO":"１５０號","E_COORD97":171312.72,"N_COORD97":2547661.0800000001,"ADDRESS":"中正二街１５０號","OBJECTID":611029},"geometry":{"x":171312.72000000067,"y":2547661.0800000001}},{"attributes":{"ID":611057,"DIS_CODE":0,"TOWNNAME":"永康區","LI":"北灣里","LIN":"3鄰","STREET":"信義街","SECT":" ","MAREA":" ","LANE":" ","ALLEY":" ","HOUSE_NO":"９１號之８","E_COORD97":175275.48999999999,"N_COORD97":2545637.2599999998,"ADDRESS":"信義街９１號之８","OBJECTID":611030},"geometry":{"x":175275.49000000022,"y":2545637.2600000016}},{"attributes":{"ID":611058,"DIS_CODE":0,"TOWNNAME":"永康區","LI":"北灣里","LIN":"3鄰","STREET":"信義街","SECT":" ","MAREA":" ","LANE":" ","ALLEY":" ","HOUSE_NO":"９１號之９","E_COORD97":175275.42000000001,"N_COORD97":2545637.2599999998,"ADDRESS":"信義街９１號之９","OBJECTID":611031},"geometry":{"x":175275.41999999993,"y":2545637.2600000016}},{"attributes":{"ID":611059,"DIS_CODE":0,"TOWNNAME":"永康區","LI":"北灣里","LIN":"3鄰","STREET":"信義街","SECT":" ","MAREA":" ","LANE":" ","ALLEY":" ","HOUSE_NO":"９１號之１","E_COORD97":175275.34,"N_COORD97":2545637.2599999998,"ADDRESS":"信義街９１號之１","OBJECTID":611032},"geometry":{"x":175275.34000000078,"y":2545637.2600000016}},{"attributes":{"ID":611060,"DIS_CODE":0,"TOWNNAME":"永康區","LI":"永康里","LIN":"3鄰","STREET":"中山北路","SECT":" ","MAREA":" ","LANE":" ","ALLEY":" ","HOUSE_NO":"３號","E_COORD97":173891.07999999999,"N_COORD97":2547373.3599999999,"ADDRESS":"中山北路３號","OBJECTID":611033},"geometry":{"x":173891.08000000007,"y":2547373.3599999994}},{"attributes":{"ID":611061,"DIS_CODE":0,"TOWNNAME":"永康區","LI":"甲頂里","LIN":"3鄰","STREET":"中正南路","SECT":" ","MAREA":" ","LANE":" ","ALLEY":" ","HOUSE_NO":"１６４號","E_COORD97":169796.79000000001,"N_COORD97":2547032.75,"ADDRESS":"中正南路１６４號","OBJECTID":611034},"geometry":{"x":169796.79000000097,"y":2547032.75}},{"attributes":{"ID":611062,"DIS_CODE":0,"TOWNNAME":"安南區","LI":"鳳凰里","LIN":"3鄰","STREET":"安中路","SECT":"一段","MAREA":" ","LANE":" ","ALLEY":" ","HOUSE_NO":"５０６號","E_COORD97":168134.78,"N_COORD97":2548922.3700000001,"ADDRESS":"安中路一段５０６號","OBJECTID":611035},"geometry":{"x":168134.78000000026,"y":2548922.3700000029}},{"attributes":{"ID":611063,"DIS_CODE":0,"TOWNNAME":"安南區","LI":"鳳凰里","LIN":"3鄰","STREET":"安中路","SECT":"一段","MAREA":" ","LANE":" ","ALLEY":" ","HOUSE_NO":"５１２號","E_COORD97":168109.25,"N_COORD97":2548939.8999999999,"ADDRESS":"安中路一段５１２號","OBJECTID":611036},"geometry":{"x":168109.25,"y":2548939.9000000004}},{"attributes":{"ID":611064,"DIS_CODE":0,"TOWNNAME":"安南區","LI":"鳳凰里","LIN":"3鄰","STREET":"安中路","SECT":"一段","MAREA":" ","LANE":" ","ALLEY":" ","HOUSE_NO":"５０８號","E_COORD97":168127.79999999999,"N_COORD97":2548926.8100000001,"ADDRESS":"安中路一段５０８號","OBJECTID":611037},"geometry":{"x":168127.79999999981,"y":2548926.8100000024}},{"attributes":{"ID":611065,"DIS_CODE":0,"TOWNNAME":"安南區","LI":"鳳凰里","LIN":"3鄰","STREET":"安中路","SECT":"一段","MAREA":" ","LANE":" ","ALLEY":" ","HOUSE_NO":"５１０號","E_COORD97":168117.64000000001,"N_COORD97":2548933.29,"ADDRESS":"安中路一段５１０號","OBJECTID":611038},"geometry":{"x":168117.6400000006,"y":2548933.2899999991}},{"attributes":{"ID":611066,"DIS_CODE":0,"TOWNNAME":"安南區","LI":"鳳凰里","LIN":"3鄰","STREET":"安中路","SECT":"一段","MAREA":" ","LANE":" ","ALLEY":" ","HOUSE_NO":"５６６號","E_COORD97":167949.97693400001,"N_COORD97":2549055.1980900001,"ADDRESS":"安中路一段５６６號","OBJECTID":611039},"geometry":{"x":167949.97693400085,"y":2549055.1980930008}},{"attributes":{"ID":611067,"DIS_CODE":0,"TOWNNAME":"安南區","LI":"鳳凰里","LIN":"3鄰","STREET":"安中路","SECT":"一段","MAREA":" ","LANE":" ","ALLEY":" ","HOUSE_NO":"５６６之１號","E_COORD97":167980.88995800001,"N_COORD97":2549025.1414399999,"ADDRESS":"安中路一段５６６之１號","OBJECTID":611040},"geometry":{"x":167980.88995799981,"y":2549025.1414420046}},{"attributes":{"ID":611068,"DIS_CODE":0,"TOWNNAME":"安南區","LI":"鳳凰里","LIN":"3鄰","STREET":"安中路","SECT":"一段","MAREA":" ","LANE":" ","ALLEY":" ","HOUSE_NO":"５６６之２號","E_COORD97":167974.32623400001,"N_COORD97":2549028.95144,"ADDRESS":"安中路一段５６６之２號","OBJECTID":611041},"geometry":{"x":167974.32623400073,"y":2549028.951439999}},{"attributes":{"ID":611069,"DIS_CODE":0,"TOWNNAME":"安南區","LI":"鳳凰里","LIN":"3鄰","STREET":"安中路","SECT":"一段","MAREA":" ","LANE":" ","ALLEY":" ","HOUSE_NO":"５６６之３號","E_COORD97":167966.91557700001,"N_COORD97":2549035.7247700002,"ADDRESS":"安中路一段５６６之３號","OBJECTID":611042},"geometry":{"x":167966.91557700094,"y":2549035.7247700002}},{"attributes":{"ID":611070,"DIS_CODE":0,"TOWNNAME":"安南區","LI":"鳳凰里","LIN":"3鄰","STREET":"安中路","SECT":"一段","MAREA":" ","LANE":" ","ALLEY":" ","HOUSE_NO":"５６６之５號","E_COORD97":167960.77531900001,"N_COORD97":2549038.2647699998,"ADDRESS":"安中路一段５６６之５號","OBJECTID":611043},"geometry":{"x":167960.77531899977,"y":2549038.2647680007}},{"attributes":{"ID":611071,"DIS_CODE":0,"TOWNNAME":"安南區","LI":"鳳凰里","LIN":"3鄰","STREET":"安中路","SECT":"一段","MAREA":" ","LANE":" ","ALLEY":" ","HOUSE_NO":"５６６之６號","E_COORD97":167957.38759,"N_COORD97":2549041.6514300001,"ADDRESS":"安中路一段５６６之６號","OBJECTID":611044},"geometry":{"x":167957.38759000227,"y":2549041.6514330022}},{"attributes":{"ID":611072,"DIS_CODE":0,"TOWNNAME":"安南區","LI":"鳳凰里","LIN":"3鄰","STREET":"安中路","SECT":"一段","MAREA":" ","LANE":" ","ALLEY":" ","HOUSE_NO":"５６６之７號","E_COORD97":167950.82386599999,"N_COORD97":2549045.6730999998,"ADDRESS":"安中路一段５６６之７號","OBJECTID":611045},"geometry":{"x":167950.82386600133,"y":2549045.6730980016}},{"attributes":{"ID":611073,"DIS_CODE":0,"TOWNNAME":"安南區","LI":"鳳凰里","LIN":"3鄰","STREET":"安中路","SECT":"一段","MAREA":" ","LANE":" ","ALLEY":" ","HOUSE_NO":"５６６之８號","E_COORD97":167943.836675,"N_COORD97":2549049.4830999998,"ADDRESS":"安中路一段５６６之８號","OBJECTID":611046},"geometry":{"x":167943.83667500038,"y":2549049.4830960017}},{"attributes":{"ID":611074,"DIS_CODE":0,"TOWNNAME":"安南區","LI":"鳳凰里","LIN":"3鄰","STREET":"安中路","SECT":"一段","MAREA":" ","LANE":" ","ALLEY":" ","HOUSE_NO":"５６６之９號","E_COORD97":167937.06121799999,"N_COORD97":2549053.2930899998,"ADDRESS":"安中路一段５６６之９號","OBJECTID":611047},"geometry":{"x":167937.06121800002,"y":2549053.2930939998}},{"attributes":{"ID":611075,"DIS_CODE":0,"TOWNNAME":"安南區","LI":"鳳凰里","LIN":"3鄰","STREET":"安中路","SECT":"一段","MAREA":" ","LANE":" ","ALLEY":" ","HOUSE_NO":"５６６之１０號","E_COORD97":167928.16842999999,"N_COORD97":2549060.06642,"ADDRESS":"安中路一段５６６之１０號","OBJECTID":611048},"geometry":{"x":167928.16843000147,"y":2549060.0664229989}},{"attributes":{"ID":611076,"DIS_CODE":0,"TOWNNAME":"安南區","LI":"鳳凰里","LIN":"3鄰","STREET":"安中路","SECT":"一段","MAREA":" ","LANE":" ","ALLEY":" ","HOUSE_NO":"５６６之１１號","E_COORD97":167920.12257400001,"N_COORD97":2549064.2997499998,"ADDRESS":"安中路一段５６６之１１號","OBJECTID":611049},"geometry":{"x":167920.12257400062,"y":2549064.2997540012}},{"attributes":{"ID":611077,"DIS_CODE":0,"TOWNNAME":"安南區","LI":"鳳凰里","LIN":"3鄰","STREET":"安中路","SECT":"一段","MAREA":" ","LANE":" ","ALLEY":" ","HOUSE_NO":"５６８號","E_COORD97":167911.653253,"N_COORD97":2549070.86142,"ADDRESS":"安中路一段５６８號","OBJECTID":611050},"geometry":{"x":167911.65325300116,"y":2549070.8614179995}},{"attributes":{"ID":611078,"DIS_CODE":0,"TOWNNAME":"安南區","LI":"顯宮里","LIN":"3鄰","STREET":"安明路","SECT":"三段","MAREA":" ","LANE":" ","ALLEY":" ","HOUSE_NO":"９５１號","E_COORD97":161934.22,"N_COORD97":2550438.7200000002,"ADDRESS":"安明路三段９５１號","OBJECTID":611051},"geometry":{"x":161934.2200000016,"y":2550438.7200000025}},{"attributes":{"ID":611079,"DIS_CODE":0,"TOWNNAME":"安南區","LI":"安順里","LIN":"3鄰","STREET":"培安四街","SECT":" ","MAREA":" ","LANE":" ","ALLEY":" ","HOUSE_NO":"３３號","E_COORD97":169478.22,"N_COORD97":2549826.8700000001,"ADDRESS":"培安四街３３號","OBJECTID":611052},"geometry":{"x":169478.22000000067,"y":2549826.870000001}},{"attributes":{"ID":611080,"DIS_CODE":0,"TOWNNAME":"安南區","LI":"安順里","LIN":"3鄰","STREET":"培安四街","SECT":" ","MAREA":" ","LANE":" ","ALLEY":" ","HOUSE_NO":"３５號","E_COORD97":169480.44,"N_COORD97":2549823.54,"ADDRESS":"培安四街３５號","OBJECTID":611053},"geometry":{"x":169480.44000000227,"y":2549823.5399999991}},{"attributes":{"ID":611081,"DIS_CODE":0,"TOWNNAME":"安南區","LI":"安順里","LIN":"3鄰","STREET":"培安四街","SECT":" ","MAREA":" ","LANE":" ","ALLEY":" ","HOUSE_NO":"３７號","E_COORD97":169483.29999999999,"N_COORD97":2549820.52,"ADDRESS":"培安四街３７號","OBJECTID":611054},"geometry":{"x":169483.30000000075,"y":2549820.5199999996}},{"attributes":{"ID":611082,"DIS_CODE":0,"TOWNNAME":"安南區","LI":"大安里","LIN":"3鄰","STREET":"安通路","SECT":"五段","MAREA":" ","LANE":" ","ALLEY":" ","HOUSE_NO":"４７１號","E_COORD97":167209.06,"N_COORD97":2547878.54,"ADDRESS":"安通路五段４７１號","OBJECTID":611055},"geometry":{"x":167209.06000000052,"y":2547878.540000001}},{"attributes":{"ID":611083,"DIS_CODE":0,"TOWNNAME":"安南區","LI":"大安里","LIN":"3鄰","STREET":"安通路","SECT":"五段","MAREA":" ","LANE":" ","ALLEY":" ","HOUSE_NO":"４７２號","E_COORD97":167205.88,"N_COORD97":2547878.29,"ADDRESS":"安通路五段４７２號","OBJECTID":611056},"geometry":{"x":167205.88000000082,"y":2547878.2899999991}},{"attributes":{"ID":611084,"DIS_CODE":0,"TOWNNAME":"安南區","LI":"大安里","LIN":"3鄰","STREET":"安通路","SECT":"五段","MAREA":" ","LANE":" ","ALLEY":" ","HOUSE_NO":"４７３號","E_COORD97":167202.70999999999,"N_COORD97":2547878.0299999998,"ADDRESS":"安通路五段４７３號","OBJECTID":611057},"geometry":{"x":167202.70999999996,"y":2547878.0299999975}},{"attributes":{"ID":611085,"DIS_CODE":0,"TOWNNAME":"安南區","LI":"大安里","LIN":"3鄰","STREET":"安通路","SECT":"五段","MAREA":" ","LANE":" ","ALLEY":" ","HOUSE_NO":"４７５號","E_COORD97":167199.66,"N_COORD97":2547877.8999999999,"ADDRESS":"安通路五段４７５號","OBJECTID":611058},"geometry":{"x":167199.66000000015,"y":2547877.9000000022}},{"attributes":{"ID":611086,"DIS_CODE":0,"TOWNNAME":"安南區","LI":"大安里","LIN":"3鄰","STREET":"安通路","SECT":"五段","MAREA":" ","LANE":" ","ALLEY":" ","HOUSE_NO":"４７６號","E_COORD97":167196.48000000001,"N_COORD97":2547877.52,"ADDRESS":"安通路五段４７６號","OBJECTID":611059},"geometry":{"x":167196.48000000045,"y":2547877.5199999996}},{"attributes":{"ID":611087,"DIS_CODE":0,"TOWNNAME":"安南區","LI":"大安里","LIN":"3鄰","STREET":"安通路","SECT":"五段","MAREA":" ","LANE":" ","ALLEY":" ","HOUSE_NO":"４７７號","E_COORD97":167192.92999999999,"N_COORD97":2547876.8900000001,"ADDRESS":"安通路五段４７７號","OBJECTID":611060},"geometry":{"x":167192.93000000156,"y":2547876.8899999987}},{"attributes":{"ID":611088,"DIS_CODE":0,"TOWNNAME":"安南區","LI":"大安里","LIN":"3鄰","STREET":"安通路","SECT":"五段","MAREA":" ","LANE":" ","ALLEY":" ","HOUSE_NO":"４７８號","E_COORD97":167189.88,"N_COORD97":2547875.8700000001,"ADDRESS":"安通路五段４７８號","OBJECTID":611061},"geometry":{"x":167189.87999999989,"y":2547875.8700000029}},{"attributes":{"ID":611089,"DIS_CODE":0,"TOWNNAME":"安南區","LI":"大安里","LIN":"3鄰","STREET":"安通路","SECT":"五段","MAREA":" ","LANE":" ","ALLEY":" ","HOUSE_NO":"４７９號","E_COORD97":167186.70999999999,"N_COORD97":2547875.4900000002,"ADDRESS":"安通路五段４７９號","OBJECTID":611062},"geometry":{"x":167186.71000000089,"y":2547875.4900000002}},{"attributes":{"ID":611090,"DIS_CODE":0,"TOWNNAME":"安南區","LI":"州南里","LIN":"3鄰","STREET":"北安路","SECT":"四段","MAREA":" ","LANE":" ","ALLEY":" ","HOUSE_NO":"３００號","E_COORD97":169485.78,"N_COORD97":2551304.75,"ADDRESS":"北安路四段３００號","OBJECTID":611063},"geometry":{"x":169485.78000000026,"y":2551304.75}},{"attributes":{"ID":611091,"DIS_CODE":0,"TOWNNAME":"安南區","LI":"顯宮里","LIN":"3鄰","STREET":"北汕尾三路","SECT":" ","MAREA":" ","LANE":" ","ALLEY":" ","HOUSE_NO":"２０５之１００號","E_COORD97":161425.04999999999,"N_COORD97":2549966.0800000001,"ADDRESS":"北汕尾三路２０５之１００號","OBJECTID":611064},"geometry":{"x":161425.04999999981,"y":2549966.0800000001}},{"attributes":{"ID":611092,"DIS_CODE":0,"TOWNNAME":"安南區","LI":"新順里","LIN":"3鄰","STREET":"安和路","SECT":"三段","MAREA":" ","LANE":" ","ALLEY":" ","HOUSE_NO":"５２號","E_COORD97":169789.63,"N_COORD97":2549428.8399999999,"ADDRESS":"安和路三段５２號","OBJECTID":611065},"geometry":{"x":169789.63000000082,"y":2549428.8399999999}},{"attributes":{"ID":611093,"DIS_CODE":0,"TOWNNAME":"東區","LI":"泉南里","LIN":"3鄰","STREET":"慶東街","SECT":" ","MAREA":" ","LANE":" ","ALLEY":" ","HOUSE_NO":"７４號","E_COORD97":169626.97,"N_COORD97":2543054.75,"ADDRESS":"慶東街７４號","OBJECTID":611066},"geometry":{"x":169626.9700000016,"y":2543054.75}},{"attributes":{"ID":611094,"DIS_CODE":0,"TOWNNAME":"東區","LI":"泉南里","LIN":"3鄰","STREET":"慶東街","SECT":" ","MAREA":" ","LANE":" ","ALLEY":" ","HOUSE_NO":"７６號","E_COORD97":169631.10000000001,"N_COORD97":2543067.29,"ADDRESS":"慶東街７６號","OBJECTID":611067},"geometry":{"x":169631.10000000149,"y":2543067.2899999991}},{"attributes":{"ID":611095,"DIS_CODE":0,"TOWNNAME":"東區","LI":"泉南里","LIN":"3鄰","STREET":"慶東街","SECT":" ","MAREA":" ","LANE":" ","ALLEY":" ","HOUSE_NO":"７８號","E_COORD97":169633.34,"N_COORD97":2543077.4199999999,"ADDRESS":"慶東街７８號","OBJECTID":611068},"geometry":{"x":169633.34000000078,"y":2543077.4199999999}},{"attributes":{"ID":611096,"DIS_CODE":0,"TOWNNAME":"永康區","LI":"北灣里","LIN":"3鄰","STREET":"信義街","SECT":" ","MAREA":" ","LANE":" ","ALLEY":" ","HOUSE_NO":"６９號","E_COORD97":175347.51999999999,"N_COORD97":2545646.8900000001,"ADDRESS":"信義街６９號","OBJECTID":611069},"geometry":{"x":175347.51999999955,"y":2545646.8900000025}},{"attributes":{"ID":611097,"DIS_CODE":0,"TOWNNAME":"安南區","LI":"州南里","LIN":"3鄰","STREET":"北安路","SECT":"四段","MAREA":" ","LANE":" ","ALLEY":" ","HOUSE_NO":"１０３之１９號","E_COORD97":169412.25,"N_COORD97":2550901.8900000001,"ADDRESS":"北安路四段１０３之１９號","OBJECTID":611070},"geometry":{"x":169412.25000000093,"y":2550901.8900000025}},{"attributes":{"ID":611098,"DIS_CODE":0,"TOWNNAME":"安南區","LI":"顯宮里","LIN":"3鄰","STREET":"安中路","SECT":"五段","MAREA":" ","LANE":" ","ALLEY":" ","HOUSE_NO":"５０３之１號","E_COORD97":162267.12,"N_COORD97":2551217.4900000002,"ADDRESS":"安中路五段５０３之１號","OBJECTID":611071},"geometry":{"x":162267.12000000011,"y":2551217.4900000002}},{"attributes":{"ID":611099,"DIS_CODE":0,"TOWNNAME":"麻豆區","LI":"保安里","LIN":"3鄰","STREET":"興中路","SECT":" ","MAREA":" ","LANE":" ","ALLEY":" ","HOUSE_NO":"３３號","E_COORD97":173145.01000000001,"N_COORD97":2564834.8799999999,"ADDRESS":"興中路３３號","OBJECTID":611072},"geometry":{"x":173145.01000000071,"y":2564834.8800000008}},{"attributes":{"ID":611100,"DIS_CODE":0,"TOWNNAME":"麻豆區","LI":"新建里","LIN":"3鄰","STREET":"興民街","SECT":" ","MAREA":" ","LANE":" ","ALLEY":" ","HOUSE_NO":"２５號","E_COORD97":172746.75,"N_COORD97":2564957.6200000001,"ADDRESS":"興民街２５號","OBJECTID":611073},"geometry":{"x":172746.75000000093,"y":2564957.6200000029}},{"attributes":{"ID":611101,"DIS_CODE":0,"TOWNNAME":"麻豆區","LI":"新建里","LIN":"3鄰","STREET":"興民街","SECT":" ","MAREA":" ","LANE":" ","ALLEY":" ","HOUSE_NO":"２７號之１","E_COORD97":172738.34,"N_COORD97":2564962.71,"ADDRESS":"興民街２７號之１","OBJECTID":611074},"geometry":{"x":172738.33999999985,"y":2564962.7100000046}},{"attributes":{"ID":611102,"DIS_CODE":0,"TOWNNAME":"麻豆區","LI":"新建里","LIN":"3鄰","STREET":"興民街","SECT":" ","MAREA":" ","LANE":" ","ALLEY":" ","HOUSE_NO":"２７號","E_COORD97":172741.76000000001,"N_COORD97":2564961.21,"ADDRESS":"興民街２７號","OBJECTID":611075},"geometry":{"x":172741.75999999978,"y":2564961.2100000009}},{"attributes":{"ID":611103,"DIS_CODE":0,"TOWNNAME":"麻豆區","LI":"新建里","LIN":"3鄰","STREET":"興民街","SECT":" ","MAREA":" ","LANE":" ","ALLEY":" ","HOUSE_NO":"３５號","E_COORD97":172721.78,"N_COORD97":2564963.7599999998,"ADDRESS":"興民街３５號","OBJECTID":611076},"geometry":{"x":172721.78000000026,"y":2564963.7599999998}},{"attributes":{"ID":611104,"DIS_CODE":0,"TOWNNAME":"麻豆區","LI":"新建里","LIN":"3鄰","STREET":"興民街","SECT":" ","MAREA":" ","LANE":" ","ALLEY":" ","HOUSE_NO":"３７號","E_COORD97":172715.19,"N_COORD97":2564974.7400000002,"ADDRESS":"興民街３７號","OBJECTID":611077},"geometry":{"x":172715.19000000134,"y":2564974.7400000002}},{"attributes":{"ID":611105,"DIS_CODE":0,"TOWNNAME":"麻豆區","LI":"新建里","LIN":"3鄰","STREET":"興民街","SECT":" ","MAREA":" ","LANE":" ","ALLEY":" ","HOUSE_NO":"３９號","E_COORD97":172711.10000000001,"N_COORD97":2564978.1400000001,"ADDRESS":"興民街３９號","OBJECTID":611078},"geometry":{"x":172711.09999999963,"y":2564978.1400000025}},{"attributes":{"ID":611106,"DIS_CODE":0,"TOWNNAME":"麻豆區","LI":"新建里","LIN":"3鄰","STREET":"興民街","SECT":" ","MAREA":" ","LANE":" ","ALLEY":" ","HOUSE_NO":"４１號","E_COORD97":172704.29999999999,"N_COORD97":2564981.4399999999,"ADDRESS":"興民街４１號","OBJECTID":611079},"geometry":{"x":172704.29999999981,"y":2564981.4400000013}},{"attributes":{"ID":611107,"DIS_CODE":0,"TOWNNAME":"麻豆區","LI":"新建里","LIN":"3鄰","STREET":"興民街","SECT":" ","MAREA":" ","LANE":" ","ALLEY":" ","HOUSE_NO":"４５號","E_COORD97":172693.22,"N_COORD97":2564982.5699999998,"ADDRESS":"興民街４５號","OBJECTID":611080},"geometry":{"x":172693.21999999974,"y":2564982.5700000003}},{"attributes":{"ID":611108,"DIS_CODE":0,"TOWNNAME":"麻豆區","LI":"新建里","LIN":"3鄰","STREET":"興民街","SECT":" ","MAREA":" ","LANE":" ","ALLEY":" ","HOUSE_NO":"５７號之２","E_COORD97":172654.88,"N_COORD97":2564975.4700000002,"ADDRESS":"興民街５７號之２","OBJECTID":611081},"geometry":{"x":172654.87999999989,"y":2564975.4700000025}},{"attributes":{"ID":611109,"DIS_CODE":0,"TOWNNAME":"麻豆區","LI":"新建里","LIN":"3鄰","STREET":"興民街","SECT":" ","MAREA":" ","LANE":" ","ALLEY":" ","HOUSE_NO":"６１號","E_COORD97":172625.95999999999,"N_COORD97":2564966.5699999998,"ADDRESS":"興民街６１號","OBJECTID":611082},"geometry":{"x":172625.95999999996,"y":2564966.570000004}},{"attributes":{"ID":611110,"DIS_CODE":0,"TOWNNAME":"白河區","LI":"白河里","LIN":"3鄰","STREET":"安和街","SECT":" ","MAREA":" ","LANE":" ","ALLEY":" ","HOUSE_NO":"１１號","E_COORD97":190185,"N_COORD97":2582631.4100000001,"ADDRESS":"安和街１１號","OBJECTID":611083},"geometry":{"x":190185.00000000093,"y":2582631.4100000039}},{"attributes":{"ID":611111,"DIS_CODE":0,"TOWNNAME":"白河區","LI":"白河里","LIN":"3鄰","STREET":"安和街","SECT":" ","MAREA":" ","LANE":" ","ALLEY":" ","HOUSE_NO":"１２號","E_COORD97":190184,"N_COORD97":2582655.1299999999,"ADDRESS":"安和街１２號","OBJECTID":611084},"geometry":{"x":190184,"y":2582655.129999999}},{"attributes":{"ID":611112,"DIS_CODE":0,"TOWNNAME":"白河區","LI":"白河里","LIN":"3鄰","STREET":"安和街","SECT":" ","MAREA":" ","LANE":" ","ALLEY":" ","HOUSE_NO":"１９號","E_COORD97":190167.01999999999,"N_COORD97":2582641.02,"ADDRESS":"安和街１９號","OBJECTID":611085},"geometry":{"x":190167.01999999862,"y":2582641.0200000014}},{"attributes":{"ID":611113,"DIS_CODE":0,"TOWNNAME":"白河區","LI":"白河里","LIN":"3鄰","STREET":"安和街","SECT":" ","MAREA":" ","LANE":" ","ALLEY":" ","HOUSE_NO":"１號","E_COORD97":190212.95000000001,"N_COORD97":2582624.23,"ADDRESS":"安和街１號","OBJECTID":611086},"geometry":{"x":190212.95000000112,"y":2582624.2300000023}},{"attributes":{"ID":611114,"DIS_CODE":0,"TOWNNAME":"白河區","LI":"白河里","LIN":"3鄰","STREET":"安和街","SECT":" ","MAREA":" ","LANE":" ","ALLEY":" ","HOUSE_NO":"３號","E_COORD97":190203.89000000001,"N_COORD97":2582626.8999999999,"ADDRESS":"安和街３號","OBJECTID":611087},"geometry":{"x":190203.8900000006,"y":2582626.9000000004}},{"attributes":{"ID":611115,"DIS_CODE":0,"TOWNNAME":"白河區","LI":"白河里","LIN":"3鄰","STREET":"安和街","SECT":" ","MAREA":" ","LANE":" ","ALLEY":" ","HOUSE_NO":"５號","E_COORD97":190197.53,"N_COORD97":2582629.02,"ADDRESS":"安和街５號","OBJECTID":611088},"geometry":{"x":190197.53000000026,"y":2582629.0199999996}},{"attributes":{"ID":611116,"DIS_CODE":0,"TOWNNAME":"白河區","LI":"白河里","LIN":"3鄰","STREET":"安和街","SECT":" ","MAREA":" ","LANE":" ","ALLEY":" ","HOUSE_NO":"７號","E_COORD97":190192.92999999999,"N_COORD97":2582630.0699999998,"ADDRESS":"安和街７號","OBJECTID":611089},"geometry":{"x":190192.9299999997,"y":2582630.0699999984}},{"attributes":{"ID":611117,"DIS_CODE":0,"TOWNNAME":"白河區","LI":"白河里","LIN":"3鄰","STREET":"安和街","SECT":" ","MAREA":" ","LANE":" ","ALLEY":" ","HOUSE_NO":"９號","E_COORD97":190188.95999999999,"N_COORD97":2582630.3500000001,"ADDRESS":"安和街９號","OBJECTID":611090},"geometry":{"x":190188.96000000089,"y":2582630.3499999996}},{"attributes":{"ID":611118,"DIS_CODE":0,"TOWNNAME":"永康區","LI":"甲頂里","LIN":"3鄰","STREET":"中華路","SECT":" ","MAREA":" ","LANE":" ","ALLEY":" ","HOUSE_NO":"９９５號","E_COORD97":169963.95000000001,"N_COORD97":2547018.7400000002,"ADDRESS":"中華路９９５號","OBJECTID":611091},"geometry":{"x":169963.95000000112,"y":2547018.7400000002}},{"attributes":{"ID":611119,"DIS_CODE":0,"TOWNNAME":"永康區","LI":"甲頂里","LIN":"3鄰","STREET":"中正南路","SECT":" ","MAREA":" ","LANE":" ","ALLEY":" ","HOUSE_NO":"１２２號","E_COORD97":169679.67000000001,"N_COORD97":2546921.8500000001,"ADDRESS":"中正南路１２２號","OBJECTID":611092},"geometry":{"x":169679.66999999993,"y":2546921.8500000015}},{"attributes":{"ID":611120,"DIS_CODE":0,"TOWNNAME":"中西區","LI":"保安里","LIN":"3鄰","STREET":"保安路","SECT":" ","MAREA":" ","LANE":" ","ALLEY":" ","HOUSE_NO":"７０號","E_COORD97":167590.54999999999,"N_COORD97":2543450.7400000002,"ADDRESS":"保安路７０號","OBJECTID":611093},"geometry":{"x":167590.54999999888,"y":2543450.7400000021}},{"attributes":{"ID":611121,"DIS_CODE":0,"TOWNNAME":"永康區","LI":"甲頂里","LIN":"3鄰","STREET":"中正南路","SECT":" ","MAREA":" ","LANE":" ","ALLEY":" ","HOUSE_NO":"１３２號","E_COORD97":169702.13,"N_COORD97":2546949.6099999999,"ADDRESS":"中正南路１３２號","OBJECTID":611094},"geometry":{"x":169702.12999999989,"y":2546949.6100000013}},{"attributes":{"ID":611122,"DIS_CODE":0,"TOWNNAME":"永康區","LI":"甲頂里","LIN":"3鄰","STREET":"中正南路","SECT":" ","MAREA":" ","LANE":" ","ALLEY":" ","HOUSE_NO":"１６６號之１","E_COORD97":169838.84,"N_COORD97":2547003.54,"ADDRESS":"中正南路１６６號之１","OBJECTID":611095},"geometry":{"x":169838.84000000078,"y":2547003.540000001}},{"attributes":{"ID":611123,"DIS_CODE":0,"TOWNNAME":"永康區","LI":"永康里","LIN":"3鄰","STREET":"中山路","SECT":" ","MAREA":" ","LANE":" ","ALLEY":" ","HOUSE_NO":"５６號","E_COORD97":173852.79999999999,"N_COORD97":2547521.2599999998,"ADDRESS":"中山路５６號","OBJECTID":611096},"geometry":{"x":173852.80000000075,"y":2547521.2600000035}},{"attributes":{"ID":611124,"DIS_CODE":0,"TOWNNAME":"永康區","LI":"甲頂里","LIN":"3鄰","STREET":"中華路","SECT":" ","MAREA":" ","LANE":" ","ALLEY":" ","HOUSE_NO":"９９７號","E_COORD97":169871.85999999999,"N_COORD97":2547069.25,"ADDRESS":"中華路９９７號","OBJECTID":611097},"geometry":{"x":169871.86000000034,"y":2547069.25}},{"attributes":{"ID":611125,"DIS_CODE":0,"TOWNNAME":"永康區","LI":"永康里","LIN":"3鄰","STREET":"中山路","SECT":" ","MAREA":" ","LANE":" ","ALLEY":" ","HOUSE_NO":"３６號","E_COORD97":173856.07000000001,"N_COORD97":2547480.2999999998,"ADDRESS":"中山路３６號","OBJECTID":611098},"geometry":{"x":173856.0700000003,"y":2547480.3000000007}},{"attributes":{"ID":611126,"DIS_CODE":0,"TOWNNAME":"永康區","LI":"甲頂里","LIN":"3鄰","STREET":"中正南路","SECT":" ","MAREA":" ","LANE":" ","ALLEY":" ","HOUSE_NO":"１２０號","E_COORD97":169679.10000000001,"N_COORD97":2546917.1200000001,"ADDRESS":"中正南路１２０號","OBJECTID":611099},"geometry":{"x":169679.10000000056,"y":2546917.1200000029}},{"attributes":{"ID":611127,"DIS_CODE":0,"TOWNNAME":"永康區","LI":"永康里","LIN":"3鄰","STREET":"中山路","SECT":" ","MAREA":" ","LANE":" ","ALLEY":" ","HOUSE_NO":"２３號","E_COORD97":173830.62,"N_COORD97":2547477.1499999999,"ADDRESS":"中山路２３號","OBJECTID":611100},"geometry":{"x":173830.62000000104,"y":2547477.1500000004}},{"attributes":{"ID":611128,"DIS_CODE":0,"TOWNNAME":"永康區","LI":"永康里","LIN":"3鄰","STREET":"中山路","SECT":" ","MAREA":" ","LANE":" ","ALLEY":" ","HOUSE_NO":"３號","E_COORD97":173843.39999999999,"N_COORD97":2547421.2400000002,"ADDRESS":"中山路３號","OBJECTID":611101},"geometry":{"x":173843.40000000037,"y":2547421.2400000021}},{"attributes":{"ID":611129,"DIS_CODE":0,"TOWNNAME":"永康區","LI":"北灣里","LIN":"3鄰","STREET":"信義街","SECT":" ","MAREA":" ","LANE":" ","ALLEY":" ","HOUSE_NO":"９１號之６","E_COORD97":175275.44,"N_COORD97":2545637.2599999998,"ADDRESS":"信義街９１號之６","OBJECTID":611102},"geometry":{"x":175275.44000000134,"y":2545637.2600000016}},{"attributes":{"ID":611130,"DIS_CODE":0,"TOWNNAME":"永康區","LI":"北灣里","LIN":"3鄰","STREET":"信義街","SECT":" ","MAREA":" ","LANE":" ","ALLEY":" ","HOUSE_NO":"９１號之５","E_COORD97":175275.48999999999,"N_COORD97":2545637.2599999998,"ADDRESS":"信義街９１號之５","OBJECTID":611103},"geometry":{"x":175275.49000000022,"y":2545637.2600000016}},{"attributes":{"ID":611131,"DIS_CODE":0,"TOWNNAME":"永康區","LI":"北灣里","LIN":"3鄰","STREET":"信義街","SECT":" ","MAREA":" ","LANE":" ","ALLEY":" ","HOUSE_NO":"９１號之７","E_COORD97":175275.42000000001,"N_COORD97":2545637.2599999998,"ADDRESS":"信義街９１號之７","OBJECTID":611104},"geometry":{"x":175275.41999999993,"y":2545637.2600000016}},{"attributes":{"ID":611132,"DIS_CODE":0,"TOWNNAME":"中西區","LI":"保安里","LIN":"3鄰","STREET":"保安路","SECT":" ","MAREA":" ","LANE":" ","ALLEY":" ","HOUSE_NO":"７２號","E_COORD97":167588.17000000001,"N_COORD97":2543451.1699999999,"ADDRESS":"保安路７２號","OBJECTID":611105},"geometry":{"x":167588.16999999899,"y":2543451.1700000018}},{"attributes":{"ID":611133,"DIS_CODE":0,"TOWNNAME":"北區","LI":"大仁里","LIN":"3鄰","STREET":"北門路","SECT":"二段","MAREA":" ","LANE":" ","ALLEY":" ","HOUSE_NO":"３５６號三樓","E_COORD97":169582.51000000001,"N_COORD97":2545409.4300000002,"ADDRESS":"北門路二段３５６號三樓","OBJECTID":611106},"geometry":{"x":169582.50999999978,"y":2545409.4299999997}},{"attributes":{"ID":611134,"DIS_CODE":0,"TOWNNAME":"北區","LI":"大仁里","LIN":"3鄰","STREET":"北門路","SECT":"二段","MAREA":" ","LANE":" ","ALLEY":" ","HOUSE_NO":"３５０號三樓","E_COORD97":169578.01000000001,"N_COORD97":2545399.0099999998,"ADDRESS":"北門路二段３５０號三樓","OBJECTID":611107},"geometry":{"x":169578.01000000071,"y":2545399.0099999998}},{"attributes":{"ID":611135,"DIS_CODE":0,"TOWNNAME":"北區","LI":"大仁里","LIN":"3鄰","STREET":"北門路","SECT":"二段","MAREA":" ","LANE":" ","ALLEY":" ","HOUSE_NO":"３４６號三樓","E_COORD97":169573.37,"N_COORD97":2545388.6699999999,"ADDRESS":"北門路二段３４６號三樓","OBJECTID":611108},"geometry":{"x":169573.37000000011,"y":2545388.6699999999}},{"attributes":{"ID":611136,"DIS_CODE":0,"TOWNNAME":"北區","LI":"大仁里","LIN":"3鄰","STREET":"北門路","SECT":"二段","MAREA":" ","LANE":" ","ALLEY":" ","HOUSE_NO":"３６０號四樓","E_COORD97":169585.91,"N_COORD97":2545417.46,"ADDRESS":"北門路二段３６０號四樓","OBJECTID":611109},"geometry":{"x":169585.91000000108,"y":2545417.4600000009}},{"attributes":{"ID":611137,"DIS_CODE":0,"TOWNNAME":"北區","LI":"大仁里","LIN":"3鄰","STREET":"北門路","SECT":"二段","MAREA":" ","LANE":" ","ALLEY":" ","HOUSE_NO":"３５６號四樓","E_COORD97":169582.51000000001,"N_COORD97":2545409.4300000002,"ADDRESS":"北門路二段３５６號四樓","OBJECTID":611110},"geometry":{"x":169582.50999999978,"y":2545409.4299999997}},{"attributes":{"ID":611138,"DIS_CODE":0,"TOWNNAME":"北區","LI":"大仁里","LIN":"3鄰","STREET":"北門路","SECT":"二段","MAREA":" ","LANE":" ","ALLEY":" ","HOUSE_NO":"３５０號四樓","E_COORD97":169578.01000000001,"N_COORD97":2545399.0099999998,"ADDRESS":"北門路二段３５０號四樓","OBJECTID":611111},"geometry":{"x":169578.01000000071,"y":2545399.0099999998}},{"attributes":{"ID":611139,"DIS_CODE":0,"TOWNNAME":"北區","LI":"大仁里","LIN":"3鄰","STREET":"北門路","SECT":"二段","MAREA":" ","LANE":" ","ALLEY":" ","HOUSE_NO":"３４６號四樓","E_COORD97":169573.37,"N_COORD97":2545388.6699999999,"ADDRESS":"北門路二段３４６號四樓","OBJECTID":611112},"geometry":{"x":169573.37000000011,"y":2545388.6699999999}},{"attributes":{"ID":611140,"DIS_CODE":0,"TOWNNAME":"北區","LI":"大仁里","LIN":"3鄰","STREET":"北門路","SECT":"二段","MAREA":" ","LANE":" ","ALLEY":" ","HOUSE_NO":"３６０號五樓","E_COORD97":169585.91,"N_COORD97":2545417.46,"ADDRESS":"北門路二段３６０號五樓","OBJECTID":611113},"geometry":{"x":169585.91000000108,"y":2545417.4600000009}},{"attributes":{"ID":611141,"DIS_CODE":0,"TOWNNAME":"北區","LI":"大仁里","LIN":"3鄰","STREET":"北門路","SECT":"二段","MAREA":" ","LANE":" ","ALLEY":" ","HOUSE_NO":"３５６號五樓","E_COORD97":169582.51000000001,"N_COORD97":2545409.4300000002,"ADDRESS":"北門路二段３５６號五樓","OBJECTID":611114},"geometry":{"x":169582.50999999978,"y":2545409.4299999997}},{"attributes":{"ID":611142,"DIS_CODE":0,"TOWNNAME":"東區","LI":"東光里","LIN":"3鄰","STREET":"東興路","SECT":" ","MAREA":" ","LANE":" ","ALLEY":" ","HOUSE_NO":"８６號四樓","E_COORD97":170971.69,"N_COORD97":2543581.25,"ADDRESS":"東興路８６號四樓","OBJECTID":611115},"geometry":{"x":170971.69000000041,"y":2543581.25}},{"attributes":{"ID":611143,"DIS_CODE":0,"TOWNNAME":"北區","LI":"大仁里","LIN":"3鄰","STREET":"北門路","SECT":"二段","MAREA":" ","LANE":" ","ALLEY":" ","HOUSE_NO":"３５０號五樓","E_COORD97":169578.01000000001,"N_COORD97":2545399.0099999998,"ADDRESS":"北門路二段３５０號五樓","OBJECTID":611116},"geometry":{"x":169578.01000000071,"y":2545399.0099999998}},{"attributes":{"ID":611144,"DIS_CODE":0,"TOWNNAME":"北區","LI":"大仁里","LIN":"3鄰","STREET":"北門路","SECT":"二段","MAREA":" ","LANE":" ","ALLEY":" ","HOUSE_NO":"３４６號五樓","E_COORD97":169573.37,"N_COORD97":2545388.6699999999,"ADDRESS":"北門路二段３４６號五樓","OBJECTID":611117},"geometry":{"x":169573.37000000011,"y":2545388.6699999999}},{"attributes":{"ID":611145,"DIS_CODE":0,"TOWNNAME":"北區","LI":"大仁里","LIN":"3鄰","STREET":"北門路","SECT":"二段","MAREA":" ","LANE":" ","ALLEY":" ","HOUSE_NO":"３６０號六樓","E_COORD97":169585.91,"N_COORD97":2545417.46,"ADDRESS":"北門路二段３６０號六樓","OBJECTID":611118},"geometry":{"x":169585.91000000108,"y":2545417.4600000009}},{"attributes":{"ID":611146,"DIS_CODE":0,"TOWNNAME":"北區","LI":"大仁里","LIN":"3鄰","STREET":"北門路","SECT":"二段","MAREA":" ","LANE":" ","ALLEY":" ","HOUSE_NO":"３５６號六樓","E_COORD97":169582.51000000001,"N_COORD97":2545409.4300000002,"ADDRESS":"北門路二段３５６號六樓","OBJECTID":611119},"geometry":{"x":169582.50999999978,"y":2545409.4299999997}},{"attributes":{"ID":611147,"DIS_CODE":0,"TOWNNAME":"北區","LI":"大仁里","LIN":"3鄰","STREET":"北門路","SECT":"二段","MAREA":" ","LANE":" ","ALLEY":" ","HOUSE_NO":"３５０號六樓","E_COORD97":169578.01000000001,"N_COORD97":2545399.0099999998,"ADDRESS":"北門路二段３５０號六樓","OBJECTID":611120},"geometry":{"x":169578.01000000071,"y":2545399.0099999998}},{"attributes":{"ID":611148,"DIS_CODE":0,"TOWNNAME":"北區","LI":"大仁里","LIN":"3鄰","STREET":"北門路","SECT":"二段","MAREA":" ","LANE":" ","ALLEY":" ","HOUSE_NO":"３４６號六樓","E_COORD97":169573.37,"N_COORD97":2545388.6699999999,"ADDRESS":"北門路二段３４６號六樓","OBJECTID":611121},"geometry":{"x":169573.37000000011,"y":2545388.6699999999}},{"attributes":{"ID":611149,"DIS_CODE":0,"TOWNNAME":"北區","LI":"大仁里","LIN":"3鄰","STREET":"北門路","SECT":"二段","MAREA":" ","LANE":" ","ALLEY":" ","HOUSE_NO":"３６０號七樓","E_COORD97":169585.91,"N_COORD97":2545417.46,"ADDRESS":"北門路二段３６０號七樓","OBJECTID":611122},"geometry":{"x":169585.91000000108,"y":2545417.4600000009}},{"attributes":{"ID":611150,"DIS_CODE":0,"TOWNNAME":"北區","LI":"大仁里","LIN":"3鄰","STREET":"北門路","SECT":"二段","MAREA":" ","LANE":" ","ALLEY":" ","HOUSE_NO":"３５６號七樓","E_COORD97":169582.51000000001,"N_COORD97":2545409.4300000002,"ADDRESS":"北門路二段３５６號七樓","OBJECTID":611123},"geometry":{"x":169582.50999999978,"y":2545409.4299999997}},{"attributes":{"ID":611151,"DIS_CODE":0,"TOWNNAME":"北區","LI":"大仁里","LIN":"3鄰","STREET":"北門路","SECT":"二段","MAREA":" ","LANE":" ","ALLEY":" ","HOUSE_NO":"３５０號七樓","E_COORD97":169578.01000000001,"N_COORD97":2545399.0099999998,"ADDRESS":"北門路二段３５０號七樓","OBJECTID":611124},"geometry":{"x":169578.01000000071,"y":2545399.0099999998}},{"attributes":{"ID":611152,"DIS_CODE":0,"TOWNNAME":"北區","LI":"大仁里","LIN":"3鄰","STREET":"北門路","SECT":"二段","MAREA":" ","LANE":" ","ALLEY":" ","HOUSE_NO":"３４６號七樓","E_COORD97":169573.37,"N_COORD97":2545388.6699999999,"ADDRESS":"北門路二段３４６號七樓","OBJECTID":611125},"geometry":{"x":169573.37000000011,"y":2545388.6699999999}},{"attributes":{"ID":611153,"DIS_CODE":0,"TOWNNAME":"北區","LI":"大仁里","LIN":"3鄰","STREET":"北門路","SECT":"二段","MAREA":" ","LANE":" ","ALLEY":" ","HOUSE_NO":"３６０號八樓","E_COORD97":169585.91,"N_COORD97":2545417.46,"ADDRESS":"北門路二段３６０號八樓","OBJECTID":611126},"geometry":{"x":169585.91000000108,"y":2545417.4600000009}},{"attributes":{"ID":611154,"DIS_CODE":0,"TOWNNAME":"北區","LI":"大仁里","LIN":"3鄰","STREET":"北門路","SECT":"二段","MAREA":" ","LANE":" ","ALLEY":" ","HOUSE_NO":"３５６號八樓","E_COORD97":169582.51000000001,"N_COORD97":2545409.4300000002,"ADDRESS":"北門路二段３５６號八樓","OBJECTID":611127},"geometry":{"x":169582.50999999978,"y":2545409.4299999997}},{"attributes":{"ID":611155,"DIS_CODE":0,"TOWNNAME":"北區","LI":"大仁里","LIN":"3鄰","STREET":"北門路","SECT":"二段","MAREA":" ","LANE":" ","ALLEY":" ","HOUSE_NO":"３５０號八樓","E_COORD97":169578.01000000001,"N_COORD97":2545399.0099999998,"ADDRESS":"北門路二段３５０號八樓","OBJECTID":611128},"geometry":{"x":169578.01000000071,"y":2545399.0099999998}},{"attributes":{"ID":611156,"DIS_CODE":0,"TOWNNAME":"北區","LI":"大仁里","LIN":"3鄰","STREET":"北門路","SECT":"二段","MAREA":" ","LANE":" ","ALLEY":" ","HOUSE_NO":"３４６號八樓","E_COORD97":169573.37,"N_COORD97":2545388.6699999999,"ADDRESS":"北門路二段３４６號八樓","OBJECTID":611129},"geometry":{"x":169573.37000000011,"y":2545388.6699999999}},{"attributes":{"ID":611157,"DIS_CODE":0,"TOWNNAME":"北區","LI":"大仁里","LIN":"3鄰","STREET":"北門路","SECT":"二段","MAREA":" ","LANE":" ","ALLEY":" ","HOUSE_NO":"３６０號九樓","E_COORD97":169585.91,"N_COORD97":2545417.46,"ADDRESS":"北門路二段３６０號九樓","OBJECTID":611130},"geometry":{"x":169585.91000000108,"y":2545417.4600000009}},{"attributes":{"ID":611158,"DIS_CODE":0,"TOWNNAME":"北區","LI":"大仁里","LIN":"3鄰","STREET":"北門路","SECT":"二段","MAREA":" ","LANE":" ","ALLEY":" ","HOUSE_NO":"３５６號九樓","E_COORD97":169582.51000000001,"N_COORD97":2545409.4300000002,"ADDRESS":"北門路二段３５６號九樓","OBJECTID":611131},"geometry":{"x":169582.50999999978,"y":2545409.4299999997}},{"attributes":{"ID":611159,"DIS_CODE":0,"TOWNNAME":"北區","LI":"大仁里","LIN":"3鄰","STREET":"北門路","SECT":"二段","MAREA":" ","LANE":" ","ALLEY":" ","HOUSE_NO":"３５０號九樓","E_COORD97":169578.01000000001,"N_COORD97":2545399.0099999998,"ADDRESS":"北門路二段３５０號九樓","OBJECTID":611132},"geometry":{"x":169578.01000000071,"y":2545399.0099999998}},{"attributes":{"ID":611160,"DIS_CODE":0,"TOWNNAME":"北區","LI":"大仁里","LIN":"3鄰","STREET":"北門路","SECT":"二段","MAREA":" ","LANE":" ","ALLEY":" ","HOUSE_NO":"３４６號九樓","E_COORD97":169573.37,"N_COORD97":2545388.6699999999,"ADDRESS":"北門路二段３４６號九樓","OBJECTID":611133},"geometry":{"x":169573.37000000011,"y":2545388.6699999999}},{"attributes":{"ID":611161,"DIS_CODE":0,"TOWNNAME":"北區","LI":"大仁里","LIN":"3鄰","STREET":"北門路","SECT":"二段","MAREA":" ","LANE":" ","ALLEY":" ","HOUSE_NO":"３６０號十樓","E_COORD97":169585.91,"N_COORD97":2545417.46,"ADDRESS":"北門路二段３６０號十樓","OBJECTID":611134},"geometry":{"x":169585.91000000108,"y":2545417.4600000009}},{"attributes":{"ID":611162,"DIS_CODE":0,"TOWNNAME":"東區","LI":"東光里","LIN":"3鄰","STREET":"東興路","SECT":" ","MAREA":" ","LANE":" ","ALLEY":" ","HOUSE_NO":"９０號六樓","E_COORD97":170982.48999999999,"N_COORD97":2543597.3900000001,"ADDRESS":"東興路９０號六樓","OBJECTID":611135},"geometry":{"x":170982.49000000115,"y":2543597.3900000006}},{"attributes":{"ID":611163,"DIS_CODE":0,"TOWNNAME":"北區","LI":"大仁里","LIN":"3鄰","STREET":"北門路","SECT":"二段","MAREA":" ","LANE":" ","ALLEY":" ","HOUSE_NO":"３５６號十樓","E_COORD97":169582.51000000001,"N_COORD97":2545409.4300000002,"ADDRESS":"北門路二段３５６號十樓","OBJECTID":611136},"geometry":{"x":169582.50999999978,"y":2545409.4299999997}},{"attributes":{"ID":611164,"DIS_CODE":0,"TOWNNAME":"北區","LI":"大仁里","LIN":"3鄰","STREET":"北門路","SECT":"二段","MAREA":" ","LANE":" ","ALLEY":" ","HOUSE_NO":"３５０號十樓","E_COORD97":169578.01000000001,"N_COORD97":2545399.0099999998,"ADDRESS":"北門路二段３５０號十樓","OBJECTID":611137},"geometry":{"x":169578.01000000071,"y":2545399.0099999998}},{"attributes":{"ID":611165,"DIS_CODE":0,"TOWNNAME":"北區","LI":"大仁里","LIN":"3鄰","STREET":"北門路","SECT":"二段","MAREA":" ","LANE":" ","ALLEY":" ","HOUSE_NO":"３４６號十樓","E_COORD97":169573.37,"N_COORD97":2545388.6699999999,"ADDRESS":"北門路二段３４６號十樓","OBJECTID":611138},"geometry":{"x":169573.37000000011,"y":2545388.6699999999}},{"attributes":{"ID":611166,"DIS_CODE":0,"TOWNNAME":"北區","LI":"大仁里","LIN":"3鄰","STREET":"北門路","SECT":"二段","MAREA":" ","LANE":" ","ALLEY":" ","HOUSE_NO":"３６０號十一樓","E_COORD97":169585.91,"N_COORD97":2545417.46,"ADDRESS":"北門路二段３６０號十一樓","OBJECTID":611139},"geometry":{"x":169585.91000000108,"y":2545417.4600000009}},{"attributes":{"ID":611167,"DIS_CODE":0,"TOWNNAME":"北區","LI":"大仁里","LIN":"3鄰","STREET":"北門路","SECT":"二段","MAREA":" ","LANE":" ","ALLEY":" ","HOUSE_NO":"３５６號十一樓","E_COORD97":169582.51000000001,"N_COORD97":2545409.4300000002,"ADDRESS":"北門路二段３５６號十一樓","OBJECTID":611140},"geometry":{"x":169582.50999999978,"y":2545409.4299999997}},{"attributes":{"ID":611168,"DIS_CODE":0,"TOWNNAME":"新營區","LI":"民榮里","LIN":"3鄰","STREET":"新進路","SECT":"二段","MAREA":" ","LANE":" ","ALLEY":" ","HOUSE_NO":"４９６之１號七樓","E_COORD97":178676.04999999999,"N_COORD97":2578064.1400000001,"ADDRESS":"新進路二段４９６之１號七樓","OBJECTID":611141},"geometry":{"x":178676.05000000075,"y":2578064.1400000025}},{"attributes":{"ID":611169,"DIS_CODE":0,"TOWNNAME":"新營區","LI":"民榮里","LIN":"3鄰","STREET":"新進路","SECT":"二段","MAREA":" ","LANE":" ","ALLEY":" ","HOUSE_NO":"４９４號九樓","E_COORD97":178673.54999999999,"N_COORD97":2578064.1000000001,"ADDRESS":"新進路二段４９４號九樓","OBJECTID":611142},"geometry":{"x":178673.54999999981,"y":2578064.1000000015}},{"attributes":{"ID":611170,"DIS_CODE":0,"TOWNNAME":"新營區","LI":"民榮里","LIN":"3鄰","STREET":"新進路","SECT":"二段","MAREA":" ","LANE":" ","ALLEY":" ","HOUSE_NO":"４９４號十三樓","E_COORD97":178674.79999999999,"N_COORD97":2578064.1000000001,"ADDRESS":"新進路二段４９４號十三樓","OBJECTID":611143},"geometry":{"x":178674.79999999981,"y":2578064.1000000015}},{"attributes":{"ID":611171,"DIS_CODE":0,"TOWNNAME":"新營區","LI":"民榮里","LIN":"3鄰","STREET":"新進路","SECT":"二段","MAREA":" ","LANE":" ","ALLEY":" ","HOUSE_NO":"４９４號三樓","E_COORD97":178673.54999999999,"N_COORD97":2578064.1000000001,"ADDRESS":"新進路二段４９４號三樓","OBJECTID":611144},"geometry":{"x":178673.54999999981,"y":2578064.1000000015}},{"attributes":{"ID":611172,"DIS_CODE":0,"TOWNNAME":"新營區","LI":"民榮里","LIN":"3鄰","STREET":"新進路","SECT":"二段","MAREA":" ","LANE":" ","ALLEY":" ","HOUSE_NO":"４９４號四樓","E_COORD97":178673.54999999999,"N_COORD97":2578064.1000000001,"ADDRESS":"新進路二段４９４號四樓","OBJECTID":611145},"geometry":{"x":178673.54999999981,"y":2578064.1000000015}},{"attributes":{"ID":611173,"DIS_CODE":0,"TOWNNAME":"新營區","LI":"民榮里","LIN":"3鄰","STREET":"新進路","SECT":"二段","MAREA":" ","LANE":" ","ALLEY":" ","HOUSE_NO":"４９６之１號十一樓","E_COORD97":178677.29999999999,"N_COORD97":2578064.1400000001,"ADDRESS":"新進路二段４９６之１號十一樓","OBJECTID":611146},"geometry":{"x":178677.30000000168,"y":2578064.1400000025}},{"attributes":{"ID":611174,"DIS_CODE":0,"TOWNNAME":"新營區","LI":"民榮里","LIN":"3鄰","STREET":"新進路","SECT":"二段","MAREA":" ","LANE":" ","ALLEY":" ","HOUSE_NO":"４９４號八樓","E_COORD97":178673.54999999999,"N_COORD97":2578064.1000000001,"ADDRESS":"新進路二段４９４號八樓","OBJECTID":611147},"geometry":{"x":178673.54999999981,"y":2578064.1000000015}},{"attributes":{"ID":611175,"DIS_CODE":0,"TOWNNAME":"新營區","LI":"民榮里","LIN":"3鄰","STREET":"新進路","SECT":"二段","MAREA":" ","LANE":" ","ALLEY":" ","HOUSE_NO":"５００之３號十樓","E_COORD97":178675.87,"N_COORD97":2578038.6800000002,"ADDRESS":"新進路二段５００之３號十樓","OBJECTID":611148},"geometry":{"x":178675.87000000104,"y":2578038.6800000016}},{"attributes":{"ID":611176,"DIS_CODE":0,"TOWNNAME":"新營區","LI":"民榮里","LIN":"3鄰","STREET":"新進路","SECT":"二段","MAREA":" ","LANE":" ","ALLEY":" ","HOUSE_NO":"４９４號二樓","E_COORD97":178673.54999999999,"N_COORD97":2578064.1000000001,"ADDRESS":"新進路二段４９４號二樓","OBJECTID":611149},"geometry":{"x":178673.54999999981,"y":2578064.1000000015}},{"attributes":{"ID":611177,"DIS_CODE":0,"TOWNNAME":"新營區","LI":"民榮里","LIN":"3鄰","STREET":"新進路","SECT":"二段","MAREA":" ","LANE":" ","ALLEY":" ","HOUSE_NO":"４９４號六樓","E_COORD97":178673.54999999999,"N_COORD97":2578064.1000000001,"ADDRESS":"新進路二段４９４號六樓","OBJECTID":611150},"geometry":{"x":178673.54999999981,"y":2578064.1000000015}},{"attributes":{"ID":611178,"DIS_CODE":0,"TOWNNAME":"新營區","LI":"民榮里","LIN":"3鄰","STREET":"新進路","SECT":"二段","MAREA":" ","LANE":" ","ALLEY":" ","HOUSE_NO":"５００之４號九樓","E_COORD97":178675.87,"N_COORD97":2578038.6800000002,"ADDRESS":"新進路二段５００之４號九樓","OBJECTID":611151},"geometry":{"x":178675.87000000104,"y":2578038.6800000016}},{"attributes":{"ID":611179,"DIS_CODE":0,"TOWNNAME":"新營區","LI":"民榮里","LIN":"3鄰","STREET":"新進路","SECT":"二段","MAREA":" ","LANE":" ","ALLEY":" ","HOUSE_NO":"４９６之１號八樓","E_COORD97":178676.04999999999,"N_COORD97":2578064.1400000001,"ADDRESS":"新進路二段４９６之１號八樓","OBJECTID":611152},"geometry":{"x":178676.05000000075,"y":2578064.1400000025}},{"attributes":{"ID":611180,"DIS_CODE":0,"TOWNNAME":"新營區","LI":"民榮里","LIN":"3鄰","STREET":"新進路","SECT":"二段","MAREA":" ","LANE":" ","ALLEY":" ","HOUSE_NO":"５００之４號七樓","E_COORD97":178675.87,"N_COORD97":2578038.6800000002,"ADDRESS":"新進路二段５００之４號七樓","OBJECTID":611153},"geometry":{"x":178675.87000000104,"y":2578038.6800000016}},{"attributes":{"ID":611181,"DIS_CODE":0,"TOWNNAME":"新營區","LI":"民榮里","LIN":"3鄰","STREET":"新進路","SECT":"二段","MAREA":" ","LANE":" ","ALLEY":" ","HOUSE_NO":"５００之３號五樓","E_COORD97":178675.87,"N_COORD97":2578038.6800000002,"ADDRESS":"新進路二段５００之３號五樓","OBJECTID":611154},"geometry":{"x":178675.87000000104,"y":2578038.6800000016}},{"attributes":{"ID":611182,"DIS_CODE":0,"TOWNNAME":"新營區","LI":"民榮里","LIN":"3鄰","STREET":"新進路","SECT":"二段","MAREA":" ","LANE":" ","ALLEY":" ","HOUSE_NO":"４９６之１號六樓","E_COORD97":178684.07000000001,"N_COORD97":2578029.7799999998,"ADDRESS":"新進路二段４９６之１號六樓","OBJECTID":611155},"geometry":{"x":178684.0700000003,"y":2578029.7799999993}},{"attributes":{"ID":611183,"DIS_CODE":0,"TOWNNAME":"新營區","LI":"民榮里","LIN":"3鄰","STREET":"新進路","SECT":"二段","MAREA":" ","LANE":" ","ALLEY":" ","HOUSE_NO":"５００之３號四樓","E_COORD97":178675.87,"N_COORD97":2578038.6800000002,"ADDRESS":"新進路二段５００之３號四樓","OBJECTID":611156},"geometry":{"x":178675.87000000104,"y":2578038.6800000016}},{"attributes":{"ID":611184,"DIS_CODE":0,"TOWNNAME":"新營區","LI":"民榮里","LIN":"3鄰","STREET":"新進路","SECT":"二段","MAREA":" ","LANE":" ","ALLEY":" ","HOUSE_NO":"５００之３號十二樓","E_COORD97":178677.12,"N_COORD97":2578038.6800000002,"ADDRESS":"新進路二段５００之３號十二樓","OBJECTID":611157},"geometry":{"x":178677.12000000197,"y":2578038.6800000016}},{"attributes":{"ID":611185,"DIS_CODE":0,"TOWNNAME":"新營區","LI":"民榮里","LIN":"3鄰","STREET":"新進路","SECT":"二段","MAREA":" ","LANE":" ","ALLEY":" ","HOUSE_NO":"５０２號五樓","E_COORD97":178673.37,"N_COORD97":2578038.6400000001,"ADDRESS":"新進路二段５０２號五樓","OBJECTID":611158},"geometry":{"x":178673.37000000011,"y":2578038.6400000006}},{"attributes":{"ID":611186,"DIS_CODE":0,"TOWNNAME":"新營區","LI":"民榮里","LIN":"3鄰","STREET":"新進路","SECT":"二段","MAREA":" ","LANE":" ","ALLEY":" ","HOUSE_NO":"５０２號七樓","E_COORD97":178673.37,"N_COORD97":2578038.6400000001,"ADDRESS":"新進路二段５０２號七樓","OBJECTID":611159},"geometry":{"x":178673.37000000011,"y":2578038.6400000006}},{"attributes":{"ID":611187,"DIS_CODE":0,"TOWNNAME":"新營區","LI":"民榮里","LIN":"3鄰","STREET":"新進路","SECT":"二段","MAREA":" ","LANE":" ","ALLEY":" ","HOUSE_NO":"５０２號十四樓","E_COORD97":178674.62,"N_COORD97":2578038.6400000001,"ADDRESS":"新進路二段５０２號十四樓","OBJECTID":611160},"geometry":{"x":178674.62000000011,"y":2578038.6400000006}},{"attributes":{"ID":611188,"DIS_CODE":0,"TOWNNAME":"新營區","LI":"民榮里","LIN":"3鄰","STREET":"新進路","SECT":"二段","MAREA":" ","LANE":" ","ALLEY":" ","HOUSE_NO":"４９６之３號十三樓","E_COORD97":178677.29999999999,"N_COORD97":2578064.1400000001,"ADDRESS":"新進路二段４９６之３號十三樓","OBJECTID":611161},"geometry":{"x":178677.30000000168,"y":2578064.1400000025}},{"attributes":{"ID":611189,"DIS_CODE":0,"TOWNNAME":"新營區","LI":"民榮里","LIN":"3鄰","STREET":"新進路","SECT":"二段","MAREA":" ","LANE":" ","ALLEY":" ","HOUSE_NO":"５０２號十一樓","E_COORD97":178674.62,"N_COORD97":2578038.6400000001,"ADDRESS":"新進路二段５０２號十一樓","OBJECTID":611162},"geometry":{"x":178674.62000000011,"y":2578038.6400000006}},{"attributes":{"ID":611190,"DIS_CODE":0,"TOWNNAME":"新營區","LI":"民榮里","LIN":"3鄰","STREET":"新進路","SECT":"二段","MAREA":" ","LANE":" ","ALLEY":" ","HOUSE_NO":"４９６之４號十二樓","E_COORD97":178676.23000000001,"N_COORD97":2578053.0800000001,"ADDRESS":"新進路二段４９６之４號十二樓","OBJECTID":611163},"geometry":{"x":178676.23000000045,"y":2578053.0800000038}},{"attributes":{"ID":611191,"DIS_CODE":0,"TOWNNAME":"新營區","LI":"民榮里","LIN":"3鄰","STREET":"新進路","SECT":"二段","MAREA":" ","LANE":" ","ALLEY":" ","HOUSE_NO":"４９６之１號九樓","E_COORD97":178676.04999999999,"N_COORD97":2578064.1400000001,"ADDRESS":"新進路二段４９６之１號九樓","OBJECTID":611164},"geometry":{"x":178676.05000000075,"y":2578064.1400000025}},{"attributes":{"ID":611192,"DIS_CODE":0,"TOWNNAME":"新營區","LI":"民榮里","LIN":"3鄰","STREET":"新進路","SECT":"二段","MAREA":" ","LANE":" ","ALLEY":" ","HOUSE_NO":"４９６號之３六樓","E_COORD97":178674.98000000001,"N_COORD97":2578053.0800000001,"ADDRESS":"新進路二段４９６號之３六樓","OBJECTID":611165},"geometry":{"x":178674.98000000231,"y":2578053.0800000038}},{"attributes":{"ID":611193,"DIS_CODE":0,"TOWNNAME":"新營區","LI":"民榮里","LIN":"3鄰","STREET":"新進路","SECT":"二段","MAREA":" ","LANE":" ","ALLEY":" ","HOUSE_NO":"４９６之３號九樓","E_COORD97":178676.04999999999,"N_COORD97":2578064.1400000001,"ADDRESS":"新進路二段４９６之３號九樓","OBJECTID":611166},"geometry":{"x":178676.05000000075,"y":2578064.1400000025}},{"attributes":{"ID":611194,"DIS_CODE":0,"TOWNNAME":"新營區","LI":"民榮里","LIN":"3鄰","STREET":"新進路","SECT":"二段","MAREA":" ","LANE":" ","ALLEY":" ","HOUSE_NO":"５００號四樓","E_COORD97":178673.37,"N_COORD97":2578038.6400000001,"ADDRESS":"新進路二段５００號四樓","OBJECTID":611167},"geometry":{"x":178673.37000000011,"y":2578038.6400000006}},{"attributes":{"ID":611195,"DIS_CODE":0,"TOWNNAME":"新營區","LI":"民榮里","LIN":"3鄰","STREET":"新進路","SECT":"二段","MAREA":" ","LANE":" ","ALLEY":" ","HOUSE_NO":"５００之４號四樓","E_COORD97":178684.01000000001,"N_COORD97":2578029.7799999998,"ADDRESS":"新進路二段５００之４號四樓","OBJECTID":611168},"geometry":{"x":178684.00999999978,"y":2578029.7799999993}},{"attributes":{"ID":611196,"DIS_CODE":0,"TOWNNAME":"新營區","LI":"民榮里","LIN":"3鄰","STREET":"新進路","SECT":"二段","MAREA":" ","LANE":" ","ALLEY":" ","HOUSE_NO":"４９４號五樓","E_COORD97":178673.54999999999,"N_COORD97":2578064.1000000001,"ADDRESS":"新進路二段４９４號五樓","OBJECTID":611169},"geometry":{"x":178673.54999999981,"y":2578064.1000000015}},{"attributes":{"ID":611197,"DIS_CODE":0,"TOWNNAME":"新營區","LI":"民榮里","LIN":"3鄰","STREET":"新進路","SECT":"二段","MAREA":" ","LANE":" ","ALLEY":" ","HOUSE_NO":"４９４號七樓","E_COORD97":178673.54999999999,"N_COORD97":2578064.1000000001,"ADDRESS":"新進路二段４９４號七樓","OBJECTID":611170},"geometry":{"x":178673.54999999981,"y":2578064.1000000015}},{"attributes":{"ID":611198,"DIS_CODE":0,"TOWNNAME":"新營區","LI":"民榮里","LIN":"3鄰","STREET":"新進路","SECT":"二段","MAREA":" ","LANE":" ","ALLEY":" ","HOUSE_NO":"５００之３號三樓","E_COORD97":178684.01000000001,"N_COORD97":2578029.7799999998,"ADDRESS":"新進路二段５００之３號三樓","OBJECTID":611171},"geometry":{"x":178684.00999999978,"y":2578029.7799999993}},{"attributes":{"ID":611199,"DIS_CODE":0,"TOWNNAME":"新營區","LI":"民榮里","LIN":"3鄰","STREET":"新進路","SECT":"二段","MAREA":" ","LANE":" ","ALLEY":" ","HOUSE_NO":"５００號之４三樓","E_COORD97":178675.87,"N_COORD97":2578038.6800000002,"ADDRESS":"新進路二段５００號之４三樓","OBJECTID":611172},"geometry":{"x":178675.87000000104,"y":2578038.6800000016}},{"attributes":{"ID":611200,"DIS_CODE":0,"TOWNNAME":"新營區","LI":"民榮里","LIN":"3鄰","STREET":"新進路","SECT":"二段","MAREA":" ","LANE":" ","ALLEY":" ","HOUSE_NO":"４９６之３號三樓","E_COORD97":178676.04999999999,"N_COORD97":2578064.1400000001,"ADDRESS":"新進路二段４９６之３號三樓","OBJECTID":611173},"geometry":{"x":178676.05000000075,"y":2578064.1400000025}},{"attributes":{"ID":611201,"DIS_CODE":0,"TOWNNAME":"中西區","LI":"元安里","LIN":"3鄰","STREET":"國華街","SECT":"二段","MAREA":" ","LANE":" ","ALLEY":" ","HOUSE_NO":"４５號七樓之３","E_COORD97":167587.14000000001,"N_COORD97":2543280.5,"ADDRESS":"國華街二段４５號七樓之３","OBJECTID":611174},"geometry":{"x":167587.1400000006,"y":2543280.5}},{"attributes":{"ID":611202,"DIS_CODE":0,"TOWNNAME":"中西區","LI":"元安里","LIN":"3鄰","STREET":"國華街","SECT":"二段","MAREA":" ","LANE":" ","ALLEY":" ","HOUSE_NO":"４５號二樓","E_COORD97":167587.06,"N_COORD97":2543289.2999999998,"ADDRESS":"國華街二段４５號二樓","OBJECTID":611175},"geometry":{"x":167587.06000000145,"y":2543289.3000000007}},{"attributes":{"ID":611203,"DIS_CODE":0,"TOWNNAME":"中西區","LI":"元安里","LIN":"3鄰","STREET":"國華街","SECT":"二段","MAREA":" ","LANE":" ","ALLEY":" ","HOUSE_NO":"４５號三樓之１","E_COORD97":167587.14000000001,"N_COORD97":2543280.5,"ADDRESS":"國華街二段４５號三樓之１","OBJECTID":611176},"geometry":{"x":167587.1400000006,"y":2543280.5}},{"attributes":{"ID":611204,"DIS_CODE":0,"TOWNNAME":"中西區","LI":"元安里","LIN":"3鄰","STREET":"國華街","SECT":"二段","MAREA":" ","LANE":" ","ALLEY":" ","HOUSE_NO":"４５號三樓之２","E_COORD97":167587.14000000001,"N_COORD97":2543280.5,"ADDRESS":"國華街二段４５號三樓之２","OBJECTID":611177},"geometry":{"x":167587.1400000006,"y":2543280.5}},{"attributes":{"ID":611205,"DIS_CODE":0,"TOWNNAME":"佳里區","LI":"建南里","LIN":"1鄰","STREET":"中山路","SECT":" ","MAREA":" ","LANE":" ","ALLEY":" ","HOUSE_NO":"２９５號","E_COORD97":165697.19,"N_COORD97":2562384.75,"ADDRESS":"中山路２９５號","OBJECTID":611178},"geometry":{"x":165697.19000000134,"y":2562384.7500000037}},{"attributes":{"ID":611206,"DIS_CODE":0,"TOWNNAME":"中西區","LI":"元安里","LIN":"3鄰","STREET":"國華街","SECT":"二段","MAREA":" ","LANE":" ","ALLEY":" ","HOUSE_NO":"４５號三樓之３","E_COORD97":167587.14000000001,"N_COORD97":2543280.5,"ADDRESS":"國華街二段４５號三樓之３","OBJECTID":611179},"geometry":{"x":167587.1400000006,"y":2543280.5}},{"attributes":{"ID":611207,"DIS_CODE":0,"TOWNNAME":"中西區","LI":"元安里","LIN":"3鄰","STREET":"國華街","SECT":"二段","MAREA":" ","LANE":" ","ALLEY":" ","HOUSE_NO":"４５號三樓之４","E_COORD97":167587.14000000001,"N_COORD97":2543280.5,"ADDRESS":"國華街二段４５號三樓之４","OBJECTID":611180},"geometry":{"x":167587.1400000006,"y":2543280.5}},{"attributes":{"ID":611208,"DIS_CODE":0,"TOWNNAME":"中西區","LI":"元安里","LIN":"3鄰","STREET":"國華街","SECT":"二段","MAREA":" ","LANE":" ","ALLEY":" ","HOUSE_NO":"４５號五樓之１","E_COORD97":167587.14000000001,"N_COORD97":2543280.5,"ADDRESS":"國華街二段４５號五樓之１","OBJECTID":611181},"geometry":{"x":167587.1400000006,"y":2543280.5}},{"attributes":{"ID":611209,"DIS_CODE":0,"TOWNNAME":"中西區","LI":"元安里","LIN":"3鄰","STREET":"國華街","SECT":"二段","MAREA":" ","LANE":" ","ALLEY":" ","HOUSE_NO":"４５號五樓之２","E_COORD97":167587.14000000001,"N_COORD97":2543280.5,"ADDRESS":"國華街二段４５號五樓之２","OBJECTID":611182},"geometry":{"x":167587.1400000006,"y":2543280.5}},{"attributes":{"ID":611210,"DIS_CODE":0,"TOWNNAME":"中西區","LI":"元安里","LIN":"3鄰","STREET":"國華街","SECT":"二段","MAREA":" ","LANE":" ","ALLEY":" ","HOUSE_NO":"４５號五樓之３","E_COORD97":167587.14000000001,"N_COORD97":2543280.5,"ADDRESS":"國華街二段４５號五樓之３","OBJECTID":611183},"geometry":{"x":167587.1400000006,"y":2543280.5}},{"attributes":{"ID":611211,"DIS_CODE":0,"TOWNNAME":"中西區","LI":"元安里","LIN":"3鄰","STREET":"國華街","SECT":"二段","MAREA":" ","LANE":" ","ALLEY":" ","HOUSE_NO":"４５號五樓之４","E_COORD97":167587.14000000001,"N_COORD97":2543280.5,"ADDRESS":"國華街二段４５號五樓之４","OBJECTID":611184},"geometry":{"x":167587.1400000006,"y":2543280.5}},{"attributes":{"ID":611212,"DIS_CODE":0,"TOWNNAME":"中西區","LI":"元安里","LIN":"3鄰","STREET":"國華街","SECT":"二段","MAREA":" ","LANE":" ","ALLEY":" ","HOUSE_NO":"４５號六樓之１","E_COORD97":167587.14000000001,"N_COORD97":2543280.5,"ADDRESS":"國華街二段４５號六樓之１","OBJECTID":611185},"geometry":{"x":167587.1400000006,"y":2543280.5}},{"attributes":{"ID":611213,"DIS_CODE":0,"TOWNNAME":"中西區","LI":"元安里","LIN":"3鄰","STREET":"國華街","SECT":"二段","MAREA":" ","LANE":" ","ALLEY":" ","HOUSE_NO":"４５號六樓之２","E_COORD97":167587.14000000001,"N_COORD97":2543280.5,"ADDRESS":"國華街二段４５號六樓之２","OBJECTID":611186},"geometry":{"x":167587.1400000006,"y":2543280.5}},{"attributes":{"ID":611214,"DIS_CODE":0,"TOWNNAME":"中西區","LI":"元安里","LIN":"3鄰","STREET":"國華街","SECT":"二段","MAREA":" ","LANE":" ","ALLEY":" ","HOUSE_NO":"４５號六樓之３","E_COORD97":167587.14000000001,"N_COORD97":2543280.5,"ADDRESS":"國華街二段４５號六樓之３","OBJECTID":611187},"geometry":{"x":167587.1400000006,"y":2543280.5}},{"attributes":{"ID":611215,"DIS_CODE":0,"TOWNNAME":"中西區","LI":"元安里","LIN":"3鄰","STREET":"國華街","SECT":"二段","MAREA":" ","LANE":" ","ALLEY":" ","HOUSE_NO":"４５號六樓之４","E_COORD97":167587.14000000001,"N_COORD97":2543280.5,"ADDRESS":"國華街二段４５號六樓之４","OBJECTID":611188},"geometry":{"x":167587.1400000006,"y":2543280.5}},{"attributes":{"ID":611216,"DIS_CODE":0,"TOWNNAME":"中西區","LI":"元安里","LIN":"3鄰","STREET":"國華街","SECT":"二段","MAREA":" ","LANE":" ","ALLEY":" ","HOUSE_NO":"４５號四樓之１","E_COORD97":167587.14000000001,"N_COORD97":2543280.5,"ADDRESS":"國華街二段４５號四樓之１","OBJECTID":611189},"geometry":{"x":167587.1400000006,"y":2543280.5}},{"attributes":{"ID":611217,"DIS_CODE":0,"TOWNNAME":"中西區","LI":"元安里","LIN":"3鄰","STREET":"國華街","SECT":"二段","MAREA":" ","LANE":" ","ALLEY":" ","HOUSE_NO":"４５號四樓之２","E_COORD97":167587.14000000001,"N_COORD97":2543280.5,"ADDRESS":"國華街二段４５號四樓之２","OBJECTID":611190},"geometry":{"x":167587.1400000006,"y":2543280.5}},{"attributes":{"ID":611218,"DIS_CODE":0,"TOWNNAME":"中西區","LI":"元安里","LIN":"3鄰","STREET":"國華街","SECT":"二段","MAREA":" ","LANE":" ","ALLEY":" ","HOUSE_NO":"４５號四樓之３","E_COORD97":167587.14000000001,"N_COORD97":2543280.5,"ADDRESS":"國華街二段４５號四樓之３","OBJECTID":611191},"geometry":{"x":167587.1400000006,"y":2543280.5}},{"attributes":{"ID":611219,"DIS_CODE":0,"TOWNNAME":"中西區","LI":"元安里","LIN":"3鄰","STREET":"國華街","SECT":"二段","MAREA":" ","LANE":" ","ALLEY":" ","HOUSE_NO":"４６號二樓","E_COORD97":167628.75,"N_COORD97":2543223.52,"ADDRESS":"國華街二段４６號二樓","OBJECTID":611192},"geometry":{"x":167628.75000000093,"y":2543223.5200000033}},{"attributes":{"ID":611220,"DIS_CODE":0,"TOWNNAME":"中西區","LI":"元安里","LIN":"3鄰","STREET":"國華街","SECT":"二段","MAREA":" ","LANE":" ","ALLEY":" ","HOUSE_NO":"４６號三樓之１","E_COORD97":167628.87,"N_COORD97":2543220.8300000001,"ADDRESS":"國華街二段４６號三樓之１","OBJECTID":611193},"geometry":{"x":167628.87000000011,"y":2543220.8300000001}},{"attributes":{"ID":611221,"DIS_CODE":0,"TOWNNAME":"中西區","LI":"元安里","LIN":"3鄰","STREET":"國華街","SECT":"二段","MAREA":" ","LANE":" ","ALLEY":" ","HOUSE_NO":"４６號三樓之２","E_COORD97":167628.87,"N_COORD97":2543220.8300000001,"ADDRESS":"國華街二段４６號三樓之２","OBJECTID":611194},"geometry":{"x":167628.87000000011,"y":2543220.8300000001}},{"attributes":{"ID":611222,"DIS_CODE":0,"TOWNNAME":"中西區","LI":"元安里","LIN":"3鄰","STREET":"國華街","SECT":"二段","MAREA":" ","LANE":" ","ALLEY":" ","HOUSE_NO":"４６號五樓之１","E_COORD97":167628.87,"N_COORD97":2543220.8300000001,"ADDRESS":"國華街二段４６號五樓之１","OBJECTID":611195},"geometry":{"x":167628.87000000011,"y":2543220.8300000001}},{"attributes":{"ID":611223,"DIS_CODE":0,"TOWNNAME":"中西區","LI":"元安里","LIN":"3鄰","STREET":"國華街","SECT":"二段","MAREA":" ","LANE":" ","ALLEY":" ","HOUSE_NO":"４６號五樓之２","E_COORD97":167628.87,"N_COORD97":2543220.8300000001,"ADDRESS":"國華街二段４６號五樓之２","OBJECTID":611196},"geometry":{"x":167628.87000000011,"y":2543220.8300000001}},{"attributes":{"ID":611224,"DIS_CODE":0,"TOWNNAME":"中西區","LI":"元安里","LIN":"3鄰","STREET":"國華街","SECT":"二段","MAREA":" ","LANE":" ","ALLEY":" ","HOUSE_NO":"４６號四樓之１","E_COORD97":167628.87,"N_COORD97":2543220.8300000001,"ADDRESS":"國華街二段４６號四樓之１","OBJECTID":611197},"geometry":{"x":167628.87000000011,"y":2543220.8300000001}},{"attributes":{"ID":611225,"DIS_CODE":0,"TOWNNAME":"中西區","LI":"元安里","LIN":"3鄰","STREET":"國華街","SECT":"二段","MAREA":" ","LANE":" ","ALLEY":" ","HOUSE_NO":"４６號四樓之２","E_COORD97":167628.87,"N_COORD97":2543220.8300000001,"ADDRESS":"國華街二段４６號四樓之２","OBJECTID":611198},"geometry":{"x":167628.87000000011,"y":2543220.8300000001}},{"attributes":{"ID":611226,"DIS_CODE":0,"TOWNNAME":"仁德區","LI":"大甲里","LIN":"3鄰","STREET":"行大一街","SECT":" ","MAREA":" ","LANE":" ","ALLEY":" ","HOUSE_NO":"２０２號二樓之８","E_COORD97":169797.97,"N_COORD97":2535064.29,"ADDRESS":"行大一街２０２號二樓之８","OBJECTID":611199},"geometry":{"x":169797.96999999974,"y":2535064.290000001}},{"attributes":{"ID":611227,"DIS_CODE":0,"TOWNNAME":"仁德區","LI":"大甲里","LIN":"3鄰","STREET":"行大一街","SECT":" ","MAREA":" ","LANE":" ","ALLEY":" ","HOUSE_NO":"２０２號四樓之９","E_COORD97":169797.91,"N_COORD97":2535064.29,"ADDRESS":"行大一街２０２號四樓之９","OBJECTID":611200},"geometry":{"x":169797.91000000108,"y":2535064.290000001}}]}