{"displayFieldName":"TOWNNAME","fieldAliases":{"ID":"ID","DIS_CODE":"DIS_CODE","TOWNNAME":"TOWNNAME","LI":"LI","LIN":"LIN","STREET":"STREET","SECT":"SECT","MAREA":"MAREA","LANE":"LANE","ALLEY":"ALLEY","HOUSE_NO":"HOUSE_NO","E_COORD97":"E_COORD97","N_COORD97":"N_COORD97","ADDRESS":"ADDRESS","OBJECTID":"OBJECTID"},"geometryType":"esriGeometryPoint","spatialReference":{"wkid":102443,"latestWkid":3826},"fields":[{"name":"ID","type":"esriFieldTypeDouble","alias":"ID"},{"name":"DIS_CODE","type":"esriFieldTypeInteger","alias":"DIS_CODE"},{"name":"TOWNNAME","type":"esriFieldTypeString","alias":"TOWNNAME","length":8},{"name":"LI","type":"esriFieldTypeString","alias":"LI","length":8},{"name":"LIN","type":"esriFieldTypeString","alias":"LIN","length":12},{"name":"STREET","type":"esriFieldTypeString","alias":"STREET","length":20},{"name":"SECT","type":"esriFieldTypeString","alias":"SECT","length":8},{"name":"MAREA","type":"esriFieldTypeString","alias":"MAREA","length":12},{"name":"LANE","type":"esriFieldTypeString","alias":"LANE","length":10},{"name":"ALLEY","type":"esriFieldTypeString","alias":"ALLEY","length":10},{"name":"HOUSE_NO","type":"esriFieldTypeString","alias":"HOUSE_NO","length":20},{"name":"E_COORD97","type":"esriFieldTypeDouble","alias":"E_COORD97"},{"name":"N_COORD97","type":"esriFieldTypeDouble","alias":"N_COORD97"},{"name":"ADDRESS","type":"esriFieldTypeString","alias":"ADDRESS","length":50},{"name":"OBJECTID","type":"esriFieldTypeOID","alias":"OBJECTID"}],"features":[{"attributes":{"ID":512028,"DIS_CODE":0,"TOWNNAME":"官田區","LI":"二鎮里","LIN":"1鄰","STREET":"建業路","SECT":" ","MAREA":" ","LANE":" ","ALLEY":" ","HOUSE_NO":"７號","E_COORD97":181440.19,"N_COORD97":2567448.7000000002,"ADDRESS":"建業路７號","OBJECTID":512001},"geometry":{"x":181440.19000000134,"y":2567448.6999999993}},{"attributes":{"ID":512029,"DIS_CODE":0,"TOWNNAME":"永康區","LI":"大橋里","LIN":"1鄰","STREET":"中華路","SECT":" ","MAREA":" ","LANE":" ","ALLEY":" ","HOUSE_NO":"８８２號","E_COORD97":170585.01999999999,"N_COORD97":2546639.25,"ADDRESS":"中華路８８２號","OBJECTID":512002},"geometry":{"x":170585.02000000048,"y":2546639.25}},{"attributes":{"ID":512030,"DIS_CODE":0,"TOWNNAME":"永康區","LI":"大灣里","LIN":"1鄰","STREET":"大安街","SECT":" ","MAREA":" ","LANE":" ","ALLEY":" ","HOUSE_NO":"３９６號","E_COORD97":174641.51999999999,"N_COORD97":2545743.5899999999,"ADDRESS":"大安街３９６號","OBJECTID":512003},"geometry":{"x":174641.52000000048,"y":2545743.5900000017}},{"attributes":{"ID":512031,"DIS_CODE":0,"TOWNNAME":"永康區","LI":"大灣里","LIN":"1鄰","STREET":"文賢街","SECT":" ","MAREA":" ","LANE":" ","ALLEY":" ","HOUSE_NO":"４２５號","E_COORD97":174731.01000000001,"N_COORD97":2545785.1299999999,"ADDRESS":"文賢街４２５號","OBJECTID":512004},"geometry":{"x":174731.01000000164,"y":2545785.1300000027}},{"attributes":{"ID":512032,"DIS_CODE":0,"TOWNNAME":"永康區","LI":"大灣里","LIN":"1鄰","STREET":"文賢街","SECT":" ","MAREA":" ","LANE":" ","ALLEY":" ","HOUSE_NO":"４３１號","E_COORD97":174703.01000000001,"N_COORD97":2545793.1499999999,"ADDRESS":"文賢街４３１號","OBJECTID":512005},"geometry":{"x":174703.01000000071,"y":2545793.1499999985}},{"attributes":{"ID":512033,"DIS_CODE":0,"TOWNNAME":"安南區","LI":"海佃里","LIN":"1鄰","STREET":"海佃路","SECT":"一段","MAREA":" ","LANE":" ","ALLEY":" ","HOUSE_NO":"１２９號","E_COORD97":167141.20999999999,"N_COORD97":2547047.6899999999,"ADDRESS":"海佃路一段１２９號","OBJECTID":512006},"geometry":{"x":167141.21000000089,"y":2547047.6900000013}},{"attributes":{"ID":512034,"DIS_CODE":0,"TOWNNAME":"永康區","LI":"崑山里","LIN":"1鄰","STREET":"大灣路","SECT":" ","MAREA":" ","LANE":" ","ALLEY":" ","HOUSE_NO":"８３１號","E_COORD97":173741.76000000001,"N_COORD97":2544366.4399999999,"ADDRESS":"大灣路８３１號","OBJECTID":512007},"geometry":{"x":173741.76000000071,"y":2544366.4400000032}},{"attributes":{"ID":512035,"DIS_CODE":0,"TOWNNAME":"永康區","LI":"崑山里","LIN":"1鄰","STREET":"大灣路","SECT":" ","MAREA":" ","LANE":" ","ALLEY":" ","HOUSE_NO":"７２１號之１","E_COORD97":173914.5,"N_COORD97":2544454.4300000002,"ADDRESS":"大灣路７２１號之１","OBJECTID":512008},"geometry":{"x":173914.50000000093,"y":2544454.4299999997}},{"attributes":{"ID":512036,"DIS_CODE":0,"TOWNNAME":"永康區","LI":"崑山里","LIN":"1鄰","STREET":"大灣路","SECT":" ","MAREA":" ","LANE":" ","ALLEY":" ","HOUSE_NO":"７２１號之２","E_COORD97":173906.78,"N_COORD97":2544453.1800000002,"ADDRESS":"大灣路７２１號之２","OBJECTID":512009},"geometry":{"x":173906.78000000026,"y":2544453.1800000034}},{"attributes":{"ID":512037,"DIS_CODE":0,"TOWNNAME":"永康區","LI":"崑山里","LIN":"1鄰","STREET":"大灣路","SECT":" ","MAREA":" ","LANE":" ","ALLEY":" ","HOUSE_NO":"８１５號","E_COORD97":173732.76999999999,"N_COORD97":2544424.3500000001,"ADDRESS":"大灣路８１５號","OBJECTID":512010},"geometry":{"x":173732.77000000048,"y":2544424.3499999996}},{"attributes":{"ID":512038,"DIS_CODE":0,"TOWNNAME":"永康區","LI":"崑山里","LIN":"1鄰","STREET":"大灣路","SECT":" ","MAREA":" ","LANE":" ","ALLEY":" ","HOUSE_NO":"７５７號","E_COORD97":173862.06,"N_COORD97":2544451.1299999999,"ADDRESS":"大灣路７５７號","OBJECTID":512011},"geometry":{"x":173862.05999999959,"y":2544451.1300000008}},{"attributes":{"ID":512039,"DIS_CODE":0,"TOWNNAME":"永康區","LI":"崑山里","LIN":"1鄰","STREET":"大灣路","SECT":" ","MAREA":" ","LANE":" ","ALLEY":" ","HOUSE_NO":"７３３號","E_COORD97":173879.85000000001,"N_COORD97":2544454.8799999999,"ADDRESS":"大灣路７３３號","OBJECTID":512012},"geometry":{"x":173879.85000000056,"y":2544454.8800000008}},{"attributes":{"ID":512040,"DIS_CODE":0,"TOWNNAME":"永康區","LI":"崑山里","LIN":"1鄰","STREET":"大灣路","SECT":" ","MAREA":" ","LANE":" ","ALLEY":" ","HOUSE_NO":"８１５號之１","E_COORD97":173729,"N_COORD97":2544423.23,"ADDRESS":"大灣路８１５號之１","OBJECTID":512013},"geometry":{"x":173729,"y":2544423.2300000042}},{"attributes":{"ID":512041,"DIS_CODE":0,"TOWNNAME":"永康區","LI":"崑山里","LIN":"1鄰","STREET":"大灣路","SECT":" ","MAREA":" ","LANE":" ","ALLEY":" ","HOUSE_NO":"７５５號","E_COORD97":173867.54000000001,"N_COORD97":2544452.3799999999,"ADDRESS":"大灣路７５５號","OBJECTID":512014},"geometry":{"x":173867.54000000004,"y":2544452.3800000008}},{"attributes":{"ID":512042,"DIS_CODE":0,"TOWNNAME":"永康區","LI":"崑山里","LIN":"1鄰","STREET":"大灣路","SECT":" ","MAREA":" ","LANE":" ","ALLEY":" ","HOUSE_NO":"８３３號","E_COORD97":173735.20000000001,"N_COORD97":2544364.4399999999,"ADDRESS":"大灣路８３３號","OBJECTID":512015},"geometry":{"x":173735.20000000205,"y":2544364.4400000013}},{"attributes":{"ID":512043,"DIS_CODE":0,"TOWNNAME":"永康區","LI":"崑山里","LIN":"1鄰","STREET":"大灣路","SECT":" ","MAREA":" ","LANE":" ","ALLEY":" ","HOUSE_NO":"７２３號","E_COORD97":173896.85000000001,"N_COORD97":2544458.6299999999,"ADDRESS":"大灣路７２３號","OBJECTID":512016},"geometry":{"x":173896.85000000056,"y":2544458.629999999}},{"attributes":{"ID":512044,"DIS_CODE":0,"TOWNNAME":"永康區","LI":"崑山里","LIN":"1鄰","STREET":"大灣路","SECT":" ","MAREA":" ","LANE":" ","ALLEY":" ","HOUSE_NO":"７１１號","E_COORD97":173926.06,"N_COORD97":2544463.48,"ADDRESS":"大灣路７１１號","OBJECTID":512017},"geometry":{"x":173926.06000000052,"y":2544463.4800000023}},{"attributes":{"ID":512045,"DIS_CODE":0,"TOWNNAME":"永康區","LI":"崑山里","LIN":"1鄰","STREET":"大灣路","SECT":" ","MAREA":" ","LANE":" ","ALLEY":" ","HOUSE_NO":"８１７號","E_COORD97":173731.95000000001,"N_COORD97":2544396.9300000002,"ADDRESS":"大灣路８１７號","OBJECTID":512018},"geometry":{"x":173731.95000000112,"y":2544396.9299999997}},{"attributes":{"ID":512046,"DIS_CODE":0,"TOWNNAME":"永康區","LI":"崑山里","LIN":"1鄰","STREET":"大灣路","SECT":" ","MAREA":" ","LANE":" ","ALLEY":" ","HOUSE_NO":"７６３號","E_COORD97":173852.60000000001,"N_COORD97":2544449.3799999999,"ADDRESS":"大灣路７６３號","OBJECTID":512019},"geometry":{"x":173852.60000000056,"y":2544449.3800000008}},{"attributes":{"ID":512047,"DIS_CODE":0,"TOWNNAME":"永康區","LI":"崑山里","LIN":"1鄰","STREET":"大灣路","SECT":" ","MAREA":" ","LANE":" ","ALLEY":" ","HOUSE_NO":"８０１號之１","E_COORD97":173774.95000000001,"N_COORD97":2544432.48,"ADDRESS":"大灣路８０１號之１","OBJECTID":512020},"geometry":{"x":173774.95000000019,"y":2544432.4800000023}},{"attributes":{"ID":512048,"DIS_CODE":0,"TOWNNAME":"永康區","LI":"二王里","LIN":"1鄰","STREET":"二王路","SECT":" ","MAREA":" ","LANE":" ","ALLEY":" ","HOUSE_NO":"４１號","E_COORD97":173029.29000000001,"N_COORD97":2546770.5899999999,"ADDRESS":"二王路４１號","OBJECTID":512021},"geometry":{"x":173029.29000000097,"y":2546770.5900000017}},{"attributes":{"ID":512049,"DIS_CODE":0,"TOWNNAME":"永康區","LI":"二王里","LIN":"1鄰","STREET":"二王路","SECT":" ","MAREA":" ","LANE":" ","ALLEY":" ","HOUSE_NO":"４５號","E_COORD97":173032.09,"N_COORD97":2546761.9700000002,"ADDRESS":"二王路４５號","OBJECTID":512022},"geometry":{"x":173032.09000000171,"y":2546761.9700000025}},{"attributes":{"ID":512050,"DIS_CODE":0,"TOWNNAME":"永康區","LI":"二王里","LIN":"1鄰","STREET":"二王路","SECT":" ","MAREA":" ","LANE":" ","ALLEY":" ","HOUSE_NO":"４７號","E_COORD97":173032.26999999999,"N_COORD97":2546757.79,"ADDRESS":"二王路４７號","OBJECTID":512023},"geometry":{"x":173032.27000000048,"y":2546757.790000001}},{"attributes":{"ID":512051,"DIS_CODE":0,"TOWNNAME":"永康區","LI":"二王里","LIN":"1鄰","STREET":"二王路","SECT":" ","MAREA":" ","LANE":" ","ALLEY":" ","HOUSE_NO":"５１號","E_COORD97":173032.73999999999,"N_COORD97":2546753.3799999999,"ADDRESS":"二王路５１號","OBJECTID":512024},"geometry":{"x":173032.74000000022,"y":2546753.3800000027}},{"attributes":{"ID":512052,"DIS_CODE":0,"TOWNNAME":"永康區","LI":"二王里","LIN":"1鄰","STREET":"二王路","SECT":" ","MAREA":" ","LANE":" ","ALLEY":" ","HOUSE_NO":"５３號","E_COORD97":173032.95000000001,"N_COORD97":2546748.8599999999,"ADDRESS":"二王路５３號","OBJECTID":512025},"geometry":{"x":173032.95000000019,"y":2546748.8599999994}},{"attributes":{"ID":512053,"DIS_CODE":0,"TOWNNAME":"永康區","LI":"二王里","LIN":"1鄰","STREET":"二王路","SECT":" ","MAREA":" ","LANE":" ","ALLEY":" ","HOUSE_NO":"５５號","E_COORD97":173033.23999999999,"N_COORD97":2546744.5,"ADDRESS":"二王路５５號","OBJECTID":512026},"geometry":{"x":173033.24000000115,"y":2546744.5000000019}},{"attributes":{"ID":512054,"DIS_CODE":0,"TOWNNAME":"永康區","LI":"二王里","LIN":"1鄰","STREET":"二王路","SECT":" ","MAREA":" ","LANE":" ","ALLEY":" ","HOUSE_NO":"５７號","E_COORD97":173033.54999999999,"N_COORD97":2546740.2799999998,"ADDRESS":"二王路５７號","OBJECTID":512027},"geometry":{"x":173033.54999999981,"y":2546740.2799999993}},{"attributes":{"ID":512055,"DIS_CODE":0,"TOWNNAME":"永康區","LI":"二王里","LIN":"1鄰","STREET":"二王路","SECT":" ","MAREA":" ","LANE":" ","ALLEY":" ","HOUSE_NO":"５９號","E_COORD97":173033.95999999999,"N_COORD97":2546735.7599999998,"ADDRESS":"二王路５９號","OBJECTID":512028},"geometry":{"x":173033.95999999996,"y":2546735.7600000016}},{"attributes":{"ID":512056,"DIS_CODE":0,"TOWNNAME":"永康區","LI":"二王里","LIN":"1鄰","STREET":"二王路","SECT":" ","MAREA":" ","LANE":" ","ALLEY":" ","HOUSE_NO":"６１號","E_COORD97":173034.70999999999,"N_COORD97":2546731.4100000001,"ADDRESS":"二王路６１號","OBJECTID":512029},"geometry":{"x":173034.71000000183,"y":2546731.410000002}},{"attributes":{"ID":512057,"DIS_CODE":0,"TOWNNAME":"東區","LI":"裕農里","LIN":"1鄰","STREET":"裕農路","SECT":" ","MAREA":" ","LANE":" ","ALLEY":" ","HOUSE_NO":"１３３號","E_COORD97":170851.48000000001,"N_COORD97":2542992.0699999998,"ADDRESS":"裕農路１３３號","OBJECTID":512030},"geometry":{"x":170851.48000000045,"y":2542992.0700000003}},{"attributes":{"ID":512058,"DIS_CODE":0,"TOWNNAME":"東區","LI":"德高里","LIN":"1鄰","STREET":"城東街","SECT":" ","MAREA":" ","LANE":" ","ALLEY":" ","HOUSE_NO":"１００號","E_COORD97":171760.38,"N_COORD97":2540881.0099999998,"ADDRESS":"城東街１００號","OBJECTID":512031},"geometry":{"x":171760.38000000175,"y":2540881.0100000035}},{"attributes":{"ID":512059,"DIS_CODE":0,"TOWNNAME":"東區","LI":"德高里","LIN":"1鄰","STREET":"城東街","SECT":" ","MAREA":" ","LANE":" ","ALLEY":" ","HOUSE_NO":"１０４號","E_COORD97":171774.72,"N_COORD97":2540895.7999999998,"ADDRESS":"城東街１０４號","OBJECTID":512032},"geometry":{"x":171774.71999999881,"y":2540895.8000000007}},{"attributes":{"ID":512060,"DIS_CODE":0,"TOWNNAME":"東區","LI":"德高里","LIN":"1鄰","STREET":"城東街","SECT":" ","MAREA":" ","LANE":" ","ALLEY":" ","HOUSE_NO":"１０６號","E_COORD97":171850.64000000001,"N_COORD97":2540908.7200000002,"ADDRESS":"城東街１０６號","OBJECTID":512033},"geometry":{"x":171850.6400000006,"y":2540908.7200000025}},{"attributes":{"ID":512061,"DIS_CODE":0,"TOWNNAME":"東區","LI":"德高里","LIN":"1鄰","STREET":"城東街","SECT":" ","MAREA":" ","LANE":" ","ALLEY":" ","HOUSE_NO":"１０８號","E_COORD97":171821.95000000001,"N_COORD97":2540914.5899999999,"ADDRESS":"城東街１０８號","OBJECTID":512034},"geometry":{"x":171821.95000000112,"y":2540914.5900000036}},{"attributes":{"ID":512062,"DIS_CODE":0,"TOWNNAME":"東區","LI":"德高里","LIN":"1鄰","STREET":"城東街","SECT":" ","MAREA":" ","LANE":" ","ALLEY":" ","HOUSE_NO":"１１０號","E_COORD97":171803.14999999999,"N_COORD97":2540921.3999999999,"ADDRESS":"城東街１１０號","OBJECTID":512035},"geometry":{"x":171803.15000000224,"y":2540921.4000000022}},{"attributes":{"ID":512063,"DIS_CODE":0,"TOWNNAME":"東區","LI":"德高里","LIN":"1鄰","STREET":"城東街","SECT":" ","MAREA":" ","LANE":" ","ALLEY":" ","HOUSE_NO":"１１２號","E_COORD97":171792.81,"N_COORD97":2540912.0099999998,"ADDRESS":"城東街１１２號","OBJECTID":512036},"geometry":{"x":171792.81000000145,"y":2540912.0100000016}},{"attributes":{"ID":512064,"DIS_CODE":0,"TOWNNAME":"東區","LI":"德高里","LIN":"1鄰","STREET":"城東街","SECT":" ","MAREA":" ","LANE":" ","ALLEY":" ","HOUSE_NO":"１１４號","E_COORD97":171786.92999999999,"N_COORD97":2540950.9900000002,"ADDRESS":"城東街１１４號","OBJECTID":512037},"geometry":{"x":171786.93000000156,"y":2540950.9900000021}},{"attributes":{"ID":512065,"DIS_CODE":0,"TOWNNAME":"東區","LI":"德高里","LIN":"1鄰","STREET":"城東街","SECT":" ","MAREA":" ","LANE":" ","ALLEY":" ","HOUSE_NO":"１１８號","E_COORD97":171773.29999999999,"N_COORD97":2540912.48,"ADDRESS":"城東街１１８號","OBJECTID":512038},"geometry":{"x":171773.30000000075,"y":2540912.4800000042}},{"attributes":{"ID":512066,"DIS_CODE":0,"TOWNNAME":"東區","LI":"德高里","LIN":"1鄰","STREET":"城東街","SECT":" ","MAREA":" ","LANE":" ","ALLEY":" ","HOUSE_NO":"１２０號","E_COORD97":171756.60999999999,"N_COORD97":2540910.1400000001,"ADDRESS":"城東街１２０號","OBJECTID":512039},"geometry":{"x":171756.61000000127,"y":2540910.1400000006}},{"attributes":{"ID":512067,"DIS_CODE":0,"TOWNNAME":"東區","LI":"德高里","LIN":"1鄰","STREET":"城東街","SECT":" ","MAREA":" ","LANE":" ","ALLEY":" ","HOUSE_NO":"１２４號","E_COORD97":171757.07999999999,"N_COORD97":2540932.6899999999,"ADDRESS":"城東街１２４號","OBJECTID":512040},"geometry":{"x":171757.08000000007,"y":2540932.6899999995}},{"attributes":{"ID":512068,"DIS_CODE":0,"TOWNNAME":"安南區","LI":"海佃里","LIN":"1鄰","STREET":"海佃路","SECT":"一段","MAREA":" ","LANE":" ","ALLEY":" ","HOUSE_NO":"１３３號","E_COORD97":167142.60999999999,"N_COORD97":2547057.48,"ADDRESS":"海佃路一段１３３號","OBJECTID":512041},"geometry":{"x":167142.61000000034,"y":2547057.4800000023}},{"attributes":{"ID":512069,"DIS_CODE":0,"TOWNNAME":"安南區","LI":"海佃里","LIN":"1鄰","STREET":"國安街","SECT":" ","MAREA":" ","LANE":" ","ALLEY":" ","HOUSE_NO":"６號","E_COORD97":167134.41,"N_COORD97":2547046.6099999999,"ADDRESS":"國安街６號","OBJECTID":512042},"geometry":{"x":167134.41000000108,"y":2547046.6099999994}},{"attributes":{"ID":512070,"DIS_CODE":0,"TOWNNAME":"安南區","LI":"海佃里","LIN":"1鄰","STREET":"國安街","SECT":" ","MAREA":" ","LANE":" ","ALLEY":" ","HOUSE_NO":"１４號","E_COORD97":167105.14999999999,"N_COORD97":2547039.2999999998,"ADDRESS":"國安街１４號","OBJECTID":512043},"geometry":{"x":167105.15000000037,"y":2547039.3000000007}},{"attributes":{"ID":512071,"DIS_CODE":0,"TOWNNAME":"安南區","LI":"海佃里","LIN":"1鄰","STREET":"國安街","SECT":" ","MAREA":" ","LANE":" ","ALLEY":" ","HOUSE_NO":"１６號","E_COORD97":167099.82999999999,"N_COORD97":2547039.2999999998,"ADDRESS":"國安街１６號","OBJECTID":512044},"geometry":{"x":167099.83000000101,"y":2547039.3000000007}},{"attributes":{"ID":512072,"DIS_CODE":0,"TOWNNAME":"安南區","LI":"海佃里","LIN":"1鄰","STREET":"國安街","SECT":" ","MAREA":" ","LANE":" ","ALLEY":" ","HOUSE_NO":"１８號","E_COORD97":167094.51000000001,"N_COORD97":2547037.9700000002,"ADDRESS":"國安街１８號","OBJECTID":512045},"geometry":{"x":167094.51000000071,"y":2547037.9700000007}},{"attributes":{"ID":512073,"DIS_CODE":0,"TOWNNAME":"安南區","LI":"海佃里","LIN":"1鄰","STREET":"國安街","SECT":" ","MAREA":" ","LANE":" ","ALLEY":" ","HOUSE_NO":"２０號","E_COORD97":167089.85000000001,"N_COORD97":2547037.9700000002,"ADDRESS":"國安街２０號","OBJECTID":512046},"geometry":{"x":167089.84999999963,"y":2547037.9700000007}},{"attributes":{"ID":512074,"DIS_CODE":0,"TOWNNAME":"安南區","LI":"海佃里","LIN":"1鄰","STREET":"國安街","SECT":" ","MAREA":" ","LANE":" ","ALLEY":" ","HOUSE_NO":"２２號","E_COORD97":167085.85999999999,"N_COORD97":2547037.3100000001,"ADDRESS":"國安街２２號","OBJECTID":512047},"geometry":{"x":167085.86000000127,"y":2547037.3100000024}},{"attributes":{"ID":512075,"DIS_CODE":0,"TOWNNAME":"安南區","LI":"海佃里","LIN":"1鄰","STREET":"國安街","SECT":" ","MAREA":" ","LANE":" ","ALLEY":" ","HOUSE_NO":"２４號","E_COORD97":167081.20999999999,"N_COORD97":2547035.3199999998,"ADDRESS":"國安街２４號","OBJECTID":512048},"geometry":{"x":167081.21000000183,"y":2547035.3200000003}},{"attributes":{"ID":512076,"DIS_CODE":0,"TOWNNAME":"安南區","LI":"海佃里","LIN":"1鄰","STREET":"國安街","SECT":" ","MAREA":" ","LANE":" ","ALLEY":" ","HOUSE_NO":"２６號","E_COORD97":167075.89000000001,"N_COORD97":2547035.98,"ADDRESS":"國安街２６號","OBJECTID":512049},"geometry":{"x":167075.88999999966,"y":2547035.9800000023}},{"attributes":{"ID":512077,"DIS_CODE":0,"TOWNNAME":"安南區","LI":"海東里","LIN":"1鄰","STREET":"海佃路","SECT":"二段","MAREA":" ","LANE":" ","ALLEY":" ","HOUSE_NO":"５２７號","E_COORD97":166654.39999999999,"N_COORD97":2549259.0600000001,"ADDRESS":"海佃路二段５２７號","OBJECTID":512050},"geometry":{"x":166654.40000000037,"y":2549259.0600000042}},{"attributes":{"ID":512078,"DIS_CODE":0,"TOWNNAME":"安南區","LI":"海東里","LIN":"1鄰","STREET":"海環街","SECT":" ","MAREA":" ","LANE":" ","ALLEY":" ","HOUSE_NO":"６６２號","E_COORD97":166588.32999999999,"N_COORD97":2549306.7799999998,"ADDRESS":"海環街６６２號","OBJECTID":512051},"geometry":{"x":166588.33000000007,"y":2549306.7799999993}},{"attributes":{"ID":512079,"DIS_CODE":0,"TOWNNAME":"安南區","LI":"梅花里","LIN":"1鄰","STREET":"安中路","SECT":"一段","MAREA":" ","LANE":" ","ALLEY":" ","HOUSE_NO":"５８１號之１","E_COORD97":167891.67999999999,"N_COORD97":2549046.6499999999,"ADDRESS":"安中路一段５８１號之１","OBJECTID":512052},"geometry":{"x":167891.68000000063,"y":2549046.6500000004}},{"attributes":{"ID":512080,"DIS_CODE":0,"TOWNNAME":"安南區","LI":"梅花里","LIN":"1鄰","STREET":"安中路","SECT":"一段","MAREA":" ","LANE":" ","ALLEY":" ","HOUSE_NO":"６０９號","E_COORD97":167851.92000000001,"N_COORD97":2549071.3100000001,"ADDRESS":"安中路一段６０９號","OBJECTID":512053},"geometry":{"x":167851.91999999993,"y":2549071.3100000024}},{"attributes":{"ID":512081,"DIS_CODE":0,"TOWNNAME":"安南區","LI":"梅花里","LIN":"1鄰","STREET":"安中路","SECT":"一段","MAREA":" ","LANE":" ","ALLEY":" ","HOUSE_NO":"６１７號","E_COORD97":167687.37,"N_COORD97":2549166.4399999999,"ADDRESS":"安中路一段６１７號","OBJECTID":512054},"geometry":{"x":167687.37000000104,"y":2549166.4399999995}},{"attributes":{"ID":512082,"DIS_CODE":0,"TOWNNAME":"安南區","LI":"淵中里","LIN":"1鄰","STREET":"安中路","SECT":"三段","MAREA":" ","LANE":" ","ALLEY":" ","HOUSE_NO":"３２７號","E_COORD97":165656.79395200001,"N_COORD97":2549891.2910600002,"ADDRESS":"安中路三段３２７號","OBJECTID":512055},"geometry":{"x":165656.79395200219,"y":2549891.2910560016}},{"attributes":{"ID":512083,"DIS_CODE":0,"TOWNNAME":"安南區","LI":"淵東里","LIN":"1鄰","STREET":"海佃路","SECT":"四段","MAREA":" ","LANE":" ","ALLEY":" ","HOUSE_NO":"１７０號","E_COORD97":165644.51999999999,"N_COORD97":2550988.1699999999,"ADDRESS":"海佃路四段１７０號","OBJECTID":512056},"geometry":{"x":165644.52000000142,"y":2550988.1700000018}},{"attributes":{"ID":512084,"DIS_CODE":0,"TOWNNAME":"安南區","LI":"理想里","LIN":"1鄰","STREET":"同安路","SECT":" ","MAREA":" ","LANE":" ","ALLEY":" ","HOUSE_NO":"５８號","E_COORD97":166893.89999999999,"N_COORD97":2548871.7400000002,"ADDRESS":"同安路５８號","OBJECTID":512057},"geometry":{"x":166893.90000000224,"y":2548871.7400000021}},{"attributes":{"ID":512085,"DIS_CODE":0,"TOWNNAME":"安南區","LI":"理想里","LIN":"1鄰","STREET":"同安路","SECT":" ","MAREA":" ","LANE":" ","ALLEY":" ","HOUSE_NO":"４０號","E_COORD97":166858.28,"N_COORD97":2548854.71,"ADDRESS":"同安路４０號","OBJECTID":512058},"geometry":{"x":166858.28000000026,"y":2548854.7100000009}},{"attributes":{"ID":512086,"DIS_CODE":0,"TOWNNAME":"安南區","LI":"理想里","LIN":"1鄰","STREET":"同安路","SECT":" ","MAREA":" ","LANE":" ","ALLEY":" ","HOUSE_NO":"４４號","E_COORD97":166865.70999999999,"N_COORD97":2548859.29,"ADDRESS":"同安路４４號","OBJECTID":512059},"geometry":{"x":166865.70999999996,"y":2548859.2900000028}},{"attributes":{"ID":512087,"DIS_CODE":0,"TOWNNAME":"安南區","LI":"理想里","LIN":"1鄰","STREET":"同安路","SECT":" ","MAREA":" ","LANE":" ","ALLEY":" ","HOUSE_NO":"４６號","E_COORD97":166870.29999999999,"N_COORD97":2548861.04,"ADDRESS":"同安路４６號","OBJECTID":512060},"geometry":{"x":166870.30000000168,"y":2548861.0400000028}},{"attributes":{"ID":512088,"DIS_CODE":0,"TOWNNAME":"安南區","LI":"理想里","LIN":"1鄰","STREET":"海佃路","SECT":"二段","MAREA":" ","LANE":" ","ALLEY":" ","HOUSE_NO":"４００號","E_COORD97":166825.35000000001,"N_COORD97":2548723.4100000001,"ADDRESS":"海佃路二段４００號","OBJECTID":512061},"geometry":{"x":166825.34999999963,"y":2548723.4100000001}},{"attributes":{"ID":512089,"DIS_CODE":0,"TOWNNAME":"安南區","LI":"理想里","LIN":"1鄰","STREET":"海佃路","SECT":"二段","MAREA":" ","LANE":" ","ALLEY":" ","HOUSE_NO":"４１８號","E_COORD97":166811.5,"N_COORD97":2548766.8100000001,"ADDRESS":"海佃路二段４１８號","OBJECTID":512062},"geometry":{"x":166811.50000000186,"y":2548766.8100000024}},{"attributes":{"ID":512090,"DIS_CODE":0,"TOWNNAME":"安南區","LI":"頂安里","LIN":"1鄰","STREET":"北安路","SECT":"三段","MAREA":" ","LANE":" ","ALLEY":" ","HOUSE_NO":"２７０號","E_COORD97":168521.44,"N_COORD97":2549336.1400000001,"ADDRESS":"北安路三段２７０號","OBJECTID":512063},"geometry":{"x":168521.44000000134,"y":2549336.1400000006}},{"attributes":{"ID":512091,"DIS_CODE":0,"TOWNNAME":"安南區","LI":"頂安里","LIN":"1鄰","STREET":"長溪路","SECT":"一段","MAREA":" ","LANE":" ","ALLEY":" ","HOUSE_NO":"４３２號","E_COORD97":168547.04999999999,"N_COORD97":2548985.3799999999,"ADDRESS":"長溪路一段４３２號","OBJECTID":512064},"geometry":{"x":168547.05000000075,"y":2548985.3800000008}},{"attributes":{"ID":512092,"DIS_CODE":0,"TOWNNAME":"安南區","LI":"新順里","LIN":"1鄰","STREET":"安豐五街","SECT":" ","MAREA":" ","LANE":" ","ALLEY":" ","HOUSE_NO":"４８號","E_COORD97":169519.17999999999,"N_COORD97":2549745.5299999998,"ADDRESS":"安豐五街４８號","OBJECTID":512065},"geometry":{"x":169519.18000000063,"y":2549745.5299999993}},{"attributes":{"ID":512093,"DIS_CODE":0,"TOWNNAME":"安南區","LI":"新順里","LIN":"1鄰","STREET":"安豐五街","SECT":" ","MAREA":" ","LANE":" ","ALLEY":" ","HOUSE_NO":"５２號","E_COORD97":169524.92000000001,"N_COORD97":2549737.29,"ADDRESS":"安豐五街５２號","OBJECTID":512066},"geometry":{"x":169524.92000000086,"y":2549737.2899999972}},{"attributes":{"ID":512094,"DIS_CODE":0,"TOWNNAME":"安南區","LI":"新順里","LIN":"1鄰","STREET":"安豐五街","SECT":" ","MAREA":" ","LANE":" ","ALLEY":" ","HOUSE_NO":"５４號","E_COORD97":169528.67000000001,"N_COORD97":2549733.0499999998,"ADDRESS":"安豐五街５４號","OBJECTID":512067},"geometry":{"x":169528.66999999993,"y":2549733.0500000007}},{"attributes":{"ID":512095,"DIS_CODE":0,"TOWNNAME":"安南區","LI":"新順里","LIN":"1鄰","STREET":"安豐五街","SECT":" ","MAREA":" ","LANE":" ","ALLEY":" ","HOUSE_NO":"５８號","E_COORD97":169534.41,"N_COORD97":2549745.0299999998,"ADDRESS":"安豐五街５８號","OBJECTID":512068},"geometry":{"x":169534.41000000015,"y":2549745.0299999993}},{"attributes":{"ID":512096,"DIS_CODE":0,"TOWNNAME":"安南區","LI":"新順里","LIN":"1鄰","STREET":"安豐五街","SECT":" ","MAREA":" ","LANE":" ","ALLEY":" ","HOUSE_NO":"６４號","E_COORD97":169525.67000000001,"N_COORD97":2549756.7599999998,"ADDRESS":"安豐五街６４號","OBJECTID":512069},"geometry":{"x":169525.66999999993,"y":2549756.7600000016}},{"attributes":{"ID":512097,"DIS_CODE":0,"TOWNNAME":"安南區","LI":"溪心里","LIN":"1鄰","STREET":"海佃路","SECT":"二段","MAREA":" ","LANE":" ","ALLEY":" ","HOUSE_NO":"７２７號","E_COORD97":166372.19,"N_COORD97":2549706.1600000001,"ADDRESS":"海佃路二段７２７號","OBJECTID":512070},"geometry":{"x":166372.19000000134,"y":2549706.160000002}},{"attributes":{"ID":512098,"DIS_CODE":0,"TOWNNAME":"安南區","LI":"溪心里","LIN":"1鄰","STREET":"海佃路","SECT":"二段","MAREA":" ","LANE":" ","ALLEY":" ","HOUSE_NO":"７３５號","E_COORD97":166364.79000000001,"N_COORD97":2549719.5899999999,"ADDRESS":"海佃路二段７３５號","OBJECTID":512071},"geometry":{"x":166364.79000000004,"y":2549719.5900000017}},{"attributes":{"ID":512099,"DIS_CODE":0,"TOWNNAME":"安南區","LI":"溪心里","LIN":"1鄰","STREET":"安中路","SECT":"三段","MAREA":" ","LANE":" ","ALLEY":" ","HOUSE_NO":"２１號","E_COORD97":166313.92000000001,"N_COORD97":2549728.3399999999,"ADDRESS":"安中路三段２１號","OBJECTID":512072},"geometry":{"x":166313.92000000086,"y":2549728.3400000017}},{"attributes":{"ID":512100,"DIS_CODE":0,"TOWNNAME":"安南區","LI":"溪頂里","LIN":"1鄰","STREET":"文安街","SECT":" ","MAREA":" ","LANE":" ","ALLEY":" ","HOUSE_NO":"１３８號","E_COORD97":169048.48000000001,"N_COORD97":2547437.54,"ADDRESS":"文安街１３８號","OBJECTID":512073},"geometry":{"x":169048.48000000138,"y":2547437.540000001}},{"attributes":{"ID":512101,"DIS_CODE":0,"TOWNNAME":"安南區","LI":"鳳凰里","LIN":"1鄰","STREET":"怡安路","SECT":"二段","MAREA":" ","LANE":" ","ALLEY":" ","HOUSE_NO":"８３之１６號","E_COORD97":168068.70000000001,"N_COORD97":2549308.6400000001,"ADDRESS":"怡安路二段８３之１６號","OBJECTID":512074},"geometry":{"x":168068.70000000112,"y":2549308.6400000006}},{"attributes":{"ID":512102,"DIS_CODE":0,"TOWNNAME":"安南區","LI":"鳳凰里","LIN":"1鄰","STREET":"北安路","SECT":"三段","MAREA":" ","LANE":" ","ALLEY":" ","HOUSE_NO":"２１７號","E_COORD97":168336.44,"N_COORD97":2549223.1200000001,"ADDRESS":"北安路三段２１７號","OBJECTID":512075},"geometry":{"x":168336.44000000134,"y":2549223.1200000029}},{"attributes":{"ID":512103,"DIS_CODE":0,"TOWNNAME":"安南區","LI":"鳳凰里","LIN":"1鄰","STREET":"北安路","SECT":"三段","MAREA":" ","LANE":" ","ALLEY":" ","HOUSE_NO":"１８９號","E_COORD97":168321.85999999999,"N_COORD97":2549159.6899999999,"ADDRESS":"北安路三段１８９號","OBJECTID":512076},"geometry":{"x":168321.86000000127,"y":2549159.6900000013}},{"attributes":{"ID":512104,"DIS_CODE":0,"TOWNNAME":"安南區","LI":"總頭里","LIN":"1鄰","STREET":"長溪路","SECT":"二段","MAREA":" ","LANE":" ","ALLEY":" ","HOUSE_NO":"５０２號","E_COORD97":168261.57999999999,"N_COORD97":2550434.54,"ADDRESS":"長溪路二段５０２號","OBJECTID":512077},"geometry":{"x":168261.58000000007,"y":2550434.540000001}},{"attributes":{"ID":512105,"DIS_CODE":0,"TOWNNAME":"安南區","LI":"總頭里","LIN":"1鄰","STREET":"長溪路","SECT":"二段","MAREA":" ","LANE":" ","ALLEY":" ","HOUSE_NO":"５２０號","E_COORD97":168262.48000000001,"N_COORD97":2550478.4500000002,"ADDRESS":"長溪路二段５２０號","OBJECTID":512078},"geometry":{"x":168262.48000000045,"y":2550478.4499999993}},{"attributes":{"ID":512106,"DIS_CODE":0,"TOWNNAME":"安南區","LI":"總頭里","LIN":"1鄰","STREET":"長溪路","SECT":"二段","MAREA":" ","LANE":" ","ALLEY":" ","HOUSE_NO":"５２４號","E_COORD97":168263.39000000001,"N_COORD97":2550487.4700000002,"ADDRESS":"長溪路二段５２４號","OBJECTID":512079},"geometry":{"x":168263.3900000006,"y":2550487.4700000044}},{"attributes":{"ID":512107,"DIS_CODE":0,"TOWNNAME":"永康區","LI":"\u25A0行里","LIN":"1鄰","STREET":"中正北路","SECT":" ","MAREA":" ","LANE":" ","ALLEY":" ","HOUSE_NO":"１００號","E_COORD97":172273.01000000001,"N_COORD97":2549070.2400000002,"ADDRESS":"中正北路１００號","OBJECTID":512080},"geometry":{"x":172273.01000000164,"y":2549070.2400000002}},{"attributes":{"ID":512108,"DIS_CODE":0,"TOWNNAME":"永康區","LI":"龍潭里","LIN":"1鄰","STREET":"龍潭街","SECT":" ","MAREA":" ","LANE":" ","ALLEY":" ","HOUSE_NO":"３７號","E_COORD97":174769.81,"N_COORD97":2547913.6000000001,"ADDRESS":"龍潭街３７號","OBJECTID":512081},"geometry":{"x":174769.81000000052,"y":2547913.6000000015}},{"attributes":{"ID":512109,"DIS_CODE":0,"TOWNNAME":"永康區","LI":"中華里","LIN":"1鄰","STREET":"小東路","SECT":" ","MAREA":" ","LANE":" ","ALLEY":" ","HOUSE_NO":"６８９號之１８","E_COORD97":172059.84,"N_COORD97":2544344.3399999999,"ADDRESS":"小東路６８９號之１８","OBJECTID":512082},"geometry":{"x":172059.83999999985,"y":2544344.3400000017}},{"attributes":{"ID":512110,"DIS_CODE":0,"TOWNNAME":"永康區","LI":"中華里","LIN":"1鄰","STREET":"忠孝路","SECT":" ","MAREA":" ","LANE":" ","ALLEY":" ","HOUSE_NO":"５號","E_COORD97":172070.01000000001,"N_COORD97":2544392.6200000001,"ADDRESS":"忠孝路５號","OBJECTID":512083},"geometry":{"x":172070.01000000071,"y":2544392.620000001}},{"attributes":{"ID":512111,"DIS_CODE":0,"TOWNNAME":"永康區","LI":"龍潭里","LIN":"1鄰","STREET":"龍潭街","SECT":" ","MAREA":" ","LANE":" ","ALLEY":" ","HOUSE_NO":"６１號","E_COORD97":174788.45000000001,"N_COORD97":2547983.3100000001,"ADDRESS":"龍潭街６１號","OBJECTID":512084},"geometry":{"x":174788.45000000112,"y":2547983.3100000024}},{"attributes":{"ID":512112,"DIS_CODE":0,"TOWNNAME":"永康區","LI":"埔園里","LIN":"1鄰","STREET":"中山路","SECT":" ","MAREA":" ","LANE":" ","ALLEY":" ","HOUSE_NO":"６８號","E_COORD97":173842.31,"N_COORD97":2547540.5099999998,"ADDRESS":"中山路６８號","OBJECTID":512085},"geometry":{"x":173842.31000000145,"y":2547540.5100000016}},{"attributes":{"ID":512113,"DIS_CODE":0,"TOWNNAME":"永康區","LI":"二王里","LIN":"1鄰","STREET":"中山南路","SECT":" ","MAREA":" ","LANE":" ","ALLEY":" ","HOUSE_NO":"９３０號","E_COORD97":173073.60999999999,"N_COORD97":2546897.8500000001,"ADDRESS":"中山南路９３０號","OBJECTID":512086},"geometry":{"x":173073.61000000127,"y":2546897.8500000015}},{"attributes":{"ID":512114,"DIS_CODE":0,"TOWNNAME":"永康區","LI":"東灣里","LIN":"1鄰","STREET":"南灣街","SECT":" ","MAREA":" ","LANE":" ","ALLEY":" ","HOUSE_NO":"５６號","E_COORD97":174544.17000000001,"N_COORD97":2544928.7400000002,"ADDRESS":"南灣街５６號","OBJECTID":512087},"geometry":{"x":174544.17000000086,"y":2544928.7400000021}},{"attributes":{"ID":512115,"DIS_CODE":0,"TOWNNAME":"永康區","LI":"龍潭里","LIN":"1鄰","STREET":"龍國街","SECT":" ","MAREA":" ","LANE":" ","ALLEY":" ","HOUSE_NO":"３４２號","E_COORD97":174676.85999999999,"N_COORD97":2548005.0099999998,"ADDRESS":"龍國街３４２號","OBJECTID":512088},"geometry":{"x":174676.86000000127,"y":2548005.0100000016}},{"attributes":{"ID":512116,"DIS_CODE":0,"TOWNNAME":"永康區","LI":"崑山里","LIN":"1鄰","STREET":"永大路","SECT":"一段","MAREA":" ","LANE":" ","ALLEY":" ","HOUSE_NO":"２９１號","E_COORD97":174034.31,"N_COORD97":2544473.2000000002,"ADDRESS":"永大路一段２９１號","OBJECTID":512089},"geometry":{"x":174034.31000000052,"y":2544473.200000003}},{"attributes":{"ID":512117,"DIS_CODE":0,"TOWNNAME":"永康區","LI":"埔園里","LIN":"1鄰","STREET":"中山路","SECT":" ","MAREA":" ","LANE":" ","ALLEY":" ","HOUSE_NO":"８８號","E_COORD97":173815.87,"N_COORD97":2547630.7400000002,"ADDRESS":"中山路８８號","OBJECTID":512090},"geometry":{"x":173815.87000000104,"y":2547630.7400000021}},{"attributes":{"ID":512118,"DIS_CODE":0,"TOWNNAME":"永康區","LI":"崑山里","LIN":"1鄰","STREET":"大灣路","SECT":" ","MAREA":" ","LANE":" ","ALLEY":" ","HOUSE_NO":"６８５號","E_COORD97":173987.51000000001,"N_COORD97":2544475.5,"ADDRESS":"大灣路６８５號","OBJECTID":512091},"geometry":{"x":173987.51000000071,"y":2544475.5000000019}},{"attributes":{"ID":512119,"DIS_CODE":0,"TOWNNAME":"永康區","LI":"崑山里","LIN":"1鄰","STREET":"大灣路","SECT":" ","MAREA":" ","LANE":" ","ALLEY":" ","HOUSE_NO":"６７７號","E_COORD97":174006.84,"N_COORD97":2544481.77,"ADDRESS":"大灣路６７７號","OBJECTID":512092},"geometry":{"x":174006.84000000078,"y":2544481.7699999996}},{"attributes":{"ID":512120,"DIS_CODE":0,"TOWNNAME":"永康區","LI":"烏竹里","LIN":"1鄰","STREET":"烏竹北街","SECT":" ","MAREA":" ","LANE":" ","ALLEY":" ","HOUSE_NO":"８８號","E_COORD97":174531.63,"N_COORD97":2549529,"ADDRESS":"烏竹北街８８號","OBJECTID":512093},"geometry":{"x":174531.62999999989,"y":2549529}},{"attributes":{"ID":512121,"DIS_CODE":0,"TOWNNAME":"永康區","LI":"烏竹里","LIN":"1鄰","STREET":"烏竹北街","SECT":" ","MAREA":" ","LANE":" ","ALLEY":" ","HOUSE_NO":"９６號","E_COORD97":174483.14999999999,"N_COORD97":2549529,"ADDRESS":"烏竹北街９６號","OBJECTID":512094},"geometry":{"x":174483.15000000224,"y":2549529}},{"attributes":{"ID":512122,"DIS_CODE":0,"TOWNNAME":"永康區","LI":"烏竹里","LIN":"1鄰","STREET":"烏竹北街","SECT":" ","MAREA":" ","LANE":" ","ALLEY":" ","HOUSE_NO":"８６號","E_COORD97":174533.51000000001,"N_COORD97":2549517,"ADDRESS":"烏竹北街８６號","OBJECTID":512095},"geometry":{"x":174533.51000000071,"y":2549517.0000000019}},{"attributes":{"ID":512123,"DIS_CODE":0,"TOWNNAME":"永康區","LI":"五王里","LIN":"1鄰","STREET":"中華二路","SECT":" ","MAREA":" ","LANE":" ","ALLEY":" ","HOUSE_NO":"２００號","E_COORD97":171606.20999999999,"N_COORD97":2545440.9900000002,"ADDRESS":"中華二路２００號","OBJECTID":512096},"geometry":{"x":171606.21000000089,"y":2545440.9900000002}},{"attributes":{"ID":512124,"DIS_CODE":0,"TOWNNAME":"安南區","LI":"淵中里","LIN":"1鄰","STREET":"本淵一街","SECT":" ","MAREA":" ","LANE":" ","ALLEY":" ","HOUSE_NO":"６６號","E_COORD97":165358.32000000001,"N_COORD97":2549946.2200000002,"ADDRESS":"本淵一街６６號","OBJECTID":512097},"geometry":{"x":165358.31999999937,"y":2549946.2199999988}},{"attributes":{"ID":512125,"DIS_CODE":0,"TOWNNAME":"安南區","LI":"布袋里","LIN":"1鄰","STREET":"工明路","SECT":" ","MAREA":" ","LANE":" ","ALLEY":" ","HOUSE_NO":"４２０之１號","E_COORD97":168465.09,"N_COORD97":2551389.8700000001,"ADDRESS":"工明路４２０之１號","OBJECTID":512098},"geometry":{"x":168465.09000000171,"y":2551389.8699999992}},{"attributes":{"ID":512126,"DIS_CODE":0,"TOWNNAME":"安南區","LI":"布袋里","LIN":"1鄰","STREET":"工明路","SECT":" ","MAREA":" ","LANE":" ","ALLEY":" ","HOUSE_NO":"６９號","E_COORD97":168994.39999999999,"N_COORD97":2551129.9900000002,"ADDRESS":"工明路６９號","OBJECTID":512099},"geometry":{"x":168994.4000000013,"y":2551129.9900000002}},{"attributes":{"ID":512127,"DIS_CODE":0,"TOWNNAME":"安南區","LI":"布袋里","LIN":"1鄰","STREET":"工明路","SECT":" ","MAREA":" ","LANE":" ","ALLEY":" ","HOUSE_NO":"３６號","E_COORD97":169142.97,"N_COORD97":2551148.1400000001,"ADDRESS":"工明路３６號","OBJECTID":512100},"geometry":{"x":169142.97000000067,"y":2551148.1400000025}},{"attributes":{"ID":512128,"DIS_CODE":0,"TOWNNAME":"安南區","LI":"布袋里","LIN":"1鄰","STREET":"工明路","SECT":" ","MAREA":" ","LANE":" ","ALLEY":" ","HOUSE_NO":"９９號","E_COORD97":168845.70000000001,"N_COORD97":2551191.3500000001,"ADDRESS":"工明路９９號","OBJECTID":512101},"geometry":{"x":168845.70000000019,"y":2551191.3499999996}},{"attributes":{"ID":512129,"DIS_CODE":0,"TOWNNAME":"安南區","LI":"布袋里","LIN":"1鄰","STREET":"工明路","SECT":" ","MAREA":" ","LANE":" ","ALLEY":" ","HOUSE_NO":"９３號","E_COORD97":168876.04999999999,"N_COORD97":2551178.7799999998,"ADDRESS":"工明路９３號","OBJECTID":512102},"geometry":{"x":168876.05000000075,"y":2551178.7800000031}},{"attributes":{"ID":512130,"DIS_CODE":0,"TOWNNAME":"安南區","LI":"布袋里","LIN":"1鄰","STREET":"工明路","SECT":" ","MAREA":" ","LANE":" ","ALLEY":" ","HOUSE_NO":"９７號","E_COORD97":168861.19,"N_COORD97":2551184.3599999999,"ADDRESS":"工明路９７號","OBJECTID":512103},"geometry":{"x":168861.19000000041,"y":2551184.3599999994}},{"attributes":{"ID":512131,"DIS_CODE":0,"TOWNNAME":"安南區","LI":"布袋里","LIN":"1鄰","STREET":"工明南一路","SECT":" ","MAREA":" ","LANE":" ","ALLEY":" ","HOUSE_NO":"４１號","E_COORD97":168902.97,"N_COORD97":2551067.02,"ADDRESS":"工明南一路４１號","OBJECTID":512104},"geometry":{"x":168902.96999999974,"y":2551067.0200000014}},{"attributes":{"ID":512132,"DIS_CODE":0,"TOWNNAME":"安南區","LI":"鳳凰里","LIN":"1鄰","STREET":"北安路","SECT":"三段","MAREA":" ","LANE":" ","ALLEY":" ","HOUSE_NO":"１８５號","E_COORD97":168321.072403,"N_COORD97":2549151.25496,"ADDRESS":"北安路三段１８５號","OBJECTID":512105},"geometry":{"x":168321.07240300067,"y":2549151.2549559996}},{"attributes":{"ID":512133,"DIS_CODE":0,"TOWNNAME":"安南區","LI":"鳳凰里","LIN":"1鄰","STREET":"北安路","SECT":"三段","MAREA":" ","LANE":" ","ALLEY":" ","HOUSE_NO":"２０３號","E_COORD97":168330.388657,"N_COORD97":2549191.2599300002,"ADDRESS":"北安路三段２０３號","OBJECTID":512106},"geometry":{"x":168330.38865700178,"y":2549191.2599340007}},{"attributes":{"ID":512134,"DIS_CODE":0,"TOWNNAME":"安南區","LI":"鳳凰里","LIN":"1鄰","STREET":"北安路","SECT":"三段","MAREA":" ","LANE":" ","ALLEY":" ","HOUSE_NO":"１９５號","E_COORD97":168326.36572900001,"N_COORD97":2549172.4216100001,"ADDRESS":"北安路三段１９５號","OBJECTID":512107},"geometry":{"x":168326.36572900135,"y":2549172.4216110017}},{"attributes":{"ID":512135,"DIS_CODE":0,"TOWNNAME":"安南區","LI":"布袋里","LIN":"1鄰","STREET":"工明南一路","SECT":" ","MAREA":" ","LANE":" ","ALLEY":" ","HOUSE_NO":"３號","E_COORD97":169001.51999999999,"N_COORD97":2551036.4100000001,"ADDRESS":"工明南一路３號","OBJECTID":512108},"geometry":{"x":169001.52000000048,"y":2551036.4100000039}},{"attributes":{"ID":512136,"DIS_CODE":0,"TOWNNAME":"安南區","LI":"布袋里","LIN":"1鄰","STREET":"工明南一路","SECT":" ","MAREA":" ","LANE":" ","ALLEY":" ","HOUSE_NO":"１９號","E_COORD97":168984.38,"N_COORD97":2551042.6299999999,"ADDRESS":"工明南一路１９號","OBJECTID":512109},"geometry":{"x":168984.38000000082,"y":2551042.629999999}},{"attributes":{"ID":512137,"DIS_CODE":0,"TOWNNAME":"安南區","LI":"布袋里","LIN":"1鄰","STREET":"工明南三路","SECT":" ","MAREA":" ","LANE":" ","ALLEY":" ","HOUSE_NO":"２６號","E_COORD97":169020.23000000001,"N_COORD97":2551006.2799999998,"ADDRESS":"工明南三路２６號","OBJECTID":512110},"geometry":{"x":169020.23000000045,"y":2551006.2800000012}},{"attributes":{"ID":512138,"DIS_CODE":0,"TOWNNAME":"安南區","LI":"梅花里","LIN":"1鄰","STREET":"北安路","SECT":"二段","MAREA":" ","LANE":" ","ALLEY":" ","HOUSE_NO":"４６３號","E_COORD97":168255.76000000001,"N_COORD97":2548698.6000000001,"ADDRESS":"北安路二段４６３號","OBJECTID":512111},"geometry":{"x":168255.76000000071,"y":2548698.6000000034}},{"attributes":{"ID":512139,"DIS_CODE":0,"TOWNNAME":"安南區","LI":"梅花里","LIN":"1鄰","STREET":"北安路","SECT":"二段","MAREA":" ","LANE":" ","ALLEY":" ","HOUSE_NO":"４６５號","E_COORD97":168255.10999999999,"N_COORD97":2548701.6099999999,"ADDRESS":"北安路二段４６５號","OBJECTID":512112},"geometry":{"x":168255.11000000034,"y":2548701.6100000031}},{"attributes":{"ID":512140,"DIS_CODE":0,"TOWNNAME":"安南區","LI":"梅花里","LIN":"1鄰","STREET":"北安路","SECT":"二段","MAREA":" ","LANE":" ","ALLEY":" ","HOUSE_NO":"４６７號","E_COORD97":168254.89999999999,"N_COORD97":2548704.4100000001,"ADDRESS":"北安路二段４６７號","OBJECTID":512113},"geometry":{"x":168254.90000000037,"y":2548704.410000002}},{"attributes":{"ID":512141,"DIS_CODE":0,"TOWNNAME":"安南區","LI":"梅花里","LIN":"1鄰","STREET":"北安路","SECT":"二段","MAREA":" ","LANE":" ","ALLEY":" ","HOUSE_NO":"４６９號","E_COORD97":168254.03,"N_COORD97":2548707.4300000002,"ADDRESS":"北安路二段４６９號","OBJECTID":512114},"geometry":{"x":168254.03000000212,"y":2548707.4300000016}},{"attributes":{"ID":512142,"DIS_CODE":0,"TOWNNAME":"安南區","LI":"梅花里","LIN":"1鄰","STREET":"北安路","SECT":"二段","MAREA":" ","LANE":" ","ALLEY":" ","HOUSE_NO":"４７１號","E_COORD97":168253.39000000001,"N_COORD97":2548710.6600000001,"ADDRESS":"北安路二段４７１號","OBJECTID":512115},"geometry":{"x":168253.3900000006,"y":2548710.6600000001}},{"attributes":{"ID":512143,"DIS_CODE":0,"TOWNNAME":"仁德區","LI":"田厝里","LIN":"1鄰","STREET":"保安路","SECT":"二段","MAREA":" ","LANE":" ","ALLEY":" ","HOUSE_NO":"５９６號","E_COORD97":172698.88,"N_COORD97":2537573.5600000001,"ADDRESS":"保安路二段５９６號","OBJECTID":512116},"geometry":{"x":172698.87999999989,"y":2537573.5600000024}},{"attributes":{"ID":512144,"DIS_CODE":0,"TOWNNAME":"仁德區","LI":"田厝里","LIN":"1鄰","STREET":"保安路","SECT":"二段","MAREA":" ","LANE":" ","ALLEY":" ","HOUSE_NO":"６３６號","E_COORD97":172789.17999999999,"N_COORD97":2537587.0499999998,"ADDRESS":"保安路二段６３６號","OBJECTID":512117},"geometry":{"x":172789.18000000063,"y":2537587.0500000026}},{"attributes":{"ID":512145,"DIS_CODE":0,"TOWNNAME":"仁德區","LI":"後壁里","LIN":"1鄰","STREET":"中正路","SECT":"二段","MAREA":" ","LANE":" ","ALLEY":" ","HOUSE_NO":"４２６號","E_COORD97":173291.82000000001,"N_COORD97":2539295.0299999998,"ADDRESS":"中正路二段４２６號","OBJECTID":512118},"geometry":{"x":173291.81999999937,"y":2539295.0300000012}},{"attributes":{"ID":512146,"DIS_CODE":0,"TOWNNAME":"仁德區","LI":"後壁里","LIN":"1鄰","STREET":"中正路","SECT":"二段","MAREA":" ","LANE":" ","ALLEY":" ","HOUSE_NO":"４３２號","E_COORD97":173294.39999999999,"N_COORD97":2539303.5299999998,"ADDRESS":"中正路二段４３２號","OBJECTID":512119},"geometry":{"x":173294.40000000037,"y":2539303.5299999993}},{"attributes":{"ID":512147,"DIS_CODE":0,"TOWNNAME":"仁德區","LI":"後壁里","LIN":"1鄰","STREET":"中正路","SECT":"二段","MAREA":" ","LANE":" ","ALLEY":" ","HOUSE_NO":"４１２號","E_COORD97":173285.82000000001,"N_COORD97":2539264.5299999998,"ADDRESS":"中正路二段４１２號","OBJECTID":512120},"geometry":{"x":173285.82000000123,"y":2539264.5300000012}},{"attributes":{"ID":512148,"DIS_CODE":0,"TOWNNAME":"仁德區","LI":"後壁里","LIN":"1鄰","STREET":"中正路","SECT":"二段","MAREA":" ","LANE":" ","ALLEY":" ","HOUSE_NO":"４１６號","E_COORD97":173286.98000000001,"N_COORD97":2539272.2799999998,"ADDRESS":"中正路二段４１６號","OBJECTID":512121},"geometry":{"x":173286.98000000045,"y":2539272.2800000012}},{"attributes":{"ID":512149,"DIS_CODE":0,"TOWNNAME":"永康區","LI":"埔園里","LIN":"1鄰","STREET":"埔聖街","SECT":" ","MAREA":" ","LANE":" ","ALLEY":" ","HOUSE_NO":"１號","E_COORD97":173848.22,"N_COORD97":2547565.5299999998,"ADDRESS":"埔聖街１號","OBJECTID":512122},"geometry":{"x":173848.22000000067,"y":2547565.5299999993}},{"attributes":{"ID":512150,"DIS_CODE":0,"TOWNNAME":"永康區","LI":"烏竹里","LIN":"1鄰","STREET":"烏竹北街","SECT":" ","MAREA":" ","LANE":" ","ALLEY":" ","HOUSE_NO":"６９號","E_COORD97":174541.56,"N_COORD97":2549464.1000000001,"ADDRESS":"烏竹北街６９號","OBJECTID":512123},"geometry":{"x":174541.55999999959,"y":2549464.0999999996}},{"attributes":{"ID":512151,"DIS_CODE":0,"TOWNNAME":"東區","LI":"自強里","LIN":"1鄰","STREET":"東成街","SECT":" ","MAREA":" ","LANE":" ","ALLEY":" ","HOUSE_NO":"３號","E_COORD97":171242.64000000001,"N_COORD97":2542253.54,"ADDRESS":"東成街３號","OBJECTID":512124},"geometry":{"x":171242.63999999966,"y":2542253.540000001}},{"attributes":{"ID":512152,"DIS_CODE":0,"TOWNNAME":"仁德區","LI":"太子里","LIN":"1鄰","STREET":"長興路","SECT":" ","MAREA":" ","LANE":" ","ALLEY":" ","HOUSE_NO":"６號","E_COORD97":174123.51000000001,"N_COORD97":2543532.7599999998,"ADDRESS":"長興路６號","OBJECTID":512125},"geometry":{"x":174123.50999999978,"y":2543532.7599999998}},{"attributes":{"ID":512153,"DIS_CODE":0,"TOWNNAME":"仁德區","LI":"上崙里","LIN":"1鄰","STREET":"德崙路","SECT":" ","MAREA":" ","LANE":" ","ALLEY":" ","HOUSE_NO":"８５號","E_COORD97":173464.26000000001,"N_COORD97":2538454.27,"ADDRESS":"德崙路８５號","OBJECTID":512126},"geometry":{"x":173464.25999999978,"y":2538454.2699999996}},{"attributes":{"ID":512154,"DIS_CODE":0,"TOWNNAME":"仁德區","LI":"二行里","LIN":"1鄰","STREET":"二仁路","SECT":"一段","MAREA":" ","LANE":" ","ALLEY":" ","HOUSE_NO":"１６５之１號","E_COORD97":170498.04999999999,"N_COORD97":2535709.29,"ADDRESS":"二仁路一段１６５之１號","OBJECTID":512127},"geometry":{"x":170498.05000000075,"y":2535709.290000001}},{"attributes":{"ID":512155,"DIS_CODE":0,"TOWNNAME":"仁德區","LI":"上崙里","LIN":"1鄰","STREET":"德崙路","SECT":" ","MAREA":" ","LANE":" ","ALLEY":" ","HOUSE_NO":"１４５號","E_COORD97":173544.63,"N_COORD97":2538391.7599999998,"ADDRESS":"德崙路１４５號","OBJECTID":512128},"geometry":{"x":173544.62999999989,"y":2538391.7600000016}},{"attributes":{"ID":512156,"DIS_CODE":0,"TOWNNAME":"仁德區","LI":"大甲里","LIN":"1鄰","STREET":"行大街","SECT":" ","MAREA":" ","LANE":" ","ALLEY":" ","HOUSE_NO":"２１５號","E_COORD97":169899.98999999999,"N_COORD97":2535088.7400000002,"ADDRESS":"行大街２１５號","OBJECTID":512129},"geometry":{"x":169899.99000000022,"y":2535088.7400000002}},{"attributes":{"ID":512157,"DIS_CODE":0,"TOWNNAME":"仁德區","LI":"仁義里","LIN":"1鄰","STREET":"中山路","SECT":" ","MAREA":" ","LANE":" ","ALLEY":" ","HOUSE_NO":"２９９號","E_COORD97":174138.45999999999,"N_COORD97":2541202.9900000002,"ADDRESS":"中山路２９９號","OBJECTID":512130},"geometry":{"x":174138.46000000089,"y":2541202.9900000002}},{"attributes":{"ID":512158,"DIS_CODE":0,"TOWNNAME":"下營區","LI":"新興里","LIN":"1鄰","STREET":"新北街","SECT":" ","MAREA":" ","LANE":" ","ALLEY":" ","HOUSE_NO":"１０１號","E_COORD97":175061.04000000001,"N_COORD97":2571072.9700000002,"ADDRESS":"新北街１０１號","OBJECTID":512131},"geometry":{"x":175061.04000000004,"y":2571072.9700000007}},{"attributes":{"ID":512159,"DIS_CODE":0,"TOWNNAME":"下營區","LI":"新興里","LIN":"1鄰","STREET":"新北街","SECT":" ","MAREA":" ","LANE":" ","ALLEY":" ","HOUSE_NO":"１０３號","E_COORD97":175066.54000000001,"N_COORD97":2571073.5299999998,"ADDRESS":"新北街１０３號","OBJECTID":512132},"geometry":{"x":175066.54000000004,"y":2571073.5299999993}},{"attributes":{"ID":512160,"DIS_CODE":0,"TOWNNAME":"下營區","LI":"新興里","LIN":"1鄰","STREET":"新北街","SECT":" ","MAREA":" ","LANE":" ","ALLEY":" ","HOUSE_NO":"１１號","E_COORD97":174905.28,"N_COORD97":2571057.4100000001,"ADDRESS":"新北街１１號","OBJECTID":512133},"geometry":{"x":174905.28000000026,"y":2571057.410000002}},{"attributes":{"ID":512161,"DIS_CODE":0,"TOWNNAME":"下營區","LI":"新興里","LIN":"1鄰","STREET":"新北街","SECT":" ","MAREA":" ","LANE":" ","ALLEY":" ","HOUSE_NO":"７３號","E_COORD97":174981.95000000001,"N_COORD97":2571068.4199999999,"ADDRESS":"新北街７３號","OBJECTID":512134},"geometry":{"x":174981.95000000019,"y":2571068.4199999999}},{"attributes":{"ID":512162,"DIS_CODE":0,"TOWNNAME":"下營區","LI":"新興里","LIN":"1鄰","STREET":"新北街","SECT":" ","MAREA":" ","LANE":" ","ALLEY":" ","HOUSE_NO":"７５號","E_COORD97":174987.72,"N_COORD97":2571068.7200000002,"ADDRESS":"新北街７５號","OBJECTID":512135},"geometry":{"x":174987.72000000067,"y":2571068.7200000044}},{"attributes":{"ID":512163,"DIS_CODE":0,"TOWNNAME":"下營區","LI":"新興里","LIN":"1鄰","STREET":"新北街","SECT":" ","MAREA":" ","LANE":" ","ALLEY":" ","HOUSE_NO":"７７號","E_COORD97":174993.76000000001,"N_COORD97":2571069.1299999999,"ADDRESS":"新北街７７號","OBJECTID":512136},"geometry":{"x":174993.76000000164,"y":2571069.129999999}},{"attributes":{"ID":512164,"DIS_CODE":0,"TOWNNAME":"下營區","LI":"新興里","LIN":"1鄰","STREET":"新北街","SECT":" ","MAREA":" ","LANE":" ","ALLEY":" ","HOUSE_NO":"８３號","E_COORD97":175010.01000000001,"N_COORD97":2571072.7000000002,"ADDRESS":"新北街８３號","OBJECTID":512137},"geometry":{"x":175010.00999999978,"y":2571072.6999999993}},{"attributes":{"ID":512165,"DIS_CODE":0,"TOWNNAME":"下營區","LI":"新興里","LIN":"1鄰","STREET":"新北街","SECT":" ","MAREA":" ","LANE":" ","ALLEY":" ","HOUSE_NO":"８７號","E_COORD97":175020.45000000001,"N_COORD97":2571073.8700000001,"ADDRESS":"新北街８７號","OBJECTID":512138},"geometry":{"x":175020.45000000112,"y":2571073.870000001}},{"attributes":{"ID":512166,"DIS_CODE":0,"TOWNNAME":"下營區","LI":"新興里","LIN":"1鄰","STREET":"新北街","SECT":" ","MAREA":" ","LANE":" ","ALLEY":" ","HOUSE_NO":"８９號","E_COORD97":175026.39999999999,"N_COORD97":2571074.8100000001,"ADDRESS":"新北街８９號","OBJECTID":512139},"geometry":{"x":175026.4000000013,"y":2571074.8100000024}},{"attributes":{"ID":512167,"DIS_CODE":0,"TOWNNAME":"下營區","LI":"新興里","LIN":"1鄰","STREET":"新北街","SECT":" ","MAREA":" ","LANE":" ","ALLEY":" ","HOUSE_NO":"９１號","E_COORD97":175032.22,"N_COORD97":2571070.4199999999,"ADDRESS":"新北街９１號","OBJECTID":512140},"geometry":{"x":175032.21999999974,"y":2571070.4200000018}},{"attributes":{"ID":512168,"DIS_CODE":0,"TOWNNAME":"下營區","LI":"新興里","LIN":"1鄰","STREET":"新北街","SECT":" ","MAREA":" ","LANE":" ","ALLEY":" ","HOUSE_NO":"９３號","E_COORD97":175037.89999999999,"N_COORD97":2571070.8199999998,"ADDRESS":"新北街９３號","OBJECTID":512141},"geometry":{"x":175037.9000000013,"y":2571070.820000004}},{"attributes":{"ID":512169,"DIS_CODE":0,"TOWNNAME":"下營區","LI":"新興里","LIN":"1鄰","STREET":"新北街","SECT":" ","MAREA":" ","LANE":" ","ALLEY":" ","HOUSE_NO":"９５號","E_COORD97":175043.67999999999,"N_COORD97":2571071.3399999999,"ADDRESS":"新北街９５號","OBJECTID":512142},"geometry":{"x":175043.68000000063,"y":2571071.3400000017}},{"attributes":{"ID":512170,"DIS_CODE":0,"TOWNNAME":"新化區","LI":"清水里","LIN":"1鄰","STREET":"中山路","SECT":" ","MAREA":" ","LANE":" ","ALLEY":" ","HOUSE_NO":"３９７號","E_COORD97":178789.63594599999,"N_COORD97":2548395.2649099999,"ADDRESS":"中山路３９７號","OBJECTID":512143},"geometry":{"x":178789.63594600093,"y":2548395.2649060022}},{"attributes":{"ID":512171,"DIS_CODE":0,"TOWNNAME":"新化區","LI":"清水里","LIN":"1鄰","STREET":"和平街","SECT":" ","MAREA":" ","LANE":" ","ALLEY":" ","HOUSE_NO":"２０５號","E_COORD97":178881.42000000001,"N_COORD97":2548387.25,"ADDRESS":"和平街２０５號","OBJECTID":512144},"geometry":{"x":178881.41999999993,"y":2548387.2500000019}},{"attributes":{"ID":512172,"DIS_CODE":0,"TOWNNAME":"學甲區","LI":"新達里","LIN":"1鄰","STREET":"中山路","SECT":" ","MAREA":" ","LANE":" ","ALLEY":" ","HOUSE_NO":"１００號","E_COORD97":166202.01999999999,"N_COORD97":2570501.2999999998,"ADDRESS":"中山路１００號","OBJECTID":512145},"geometry":{"x":166202.01999999955,"y":2570501.3000000007}},{"attributes":{"ID":512173,"DIS_CODE":0,"TOWNNAME":"學甲區","LI":"新達里","LIN":"1鄰","STREET":"中山路","SECT":" ","MAREA":" ","LANE":" ","ALLEY":" ","HOUSE_NO":"１０２號","E_COORD97":166193.57000000001,"N_COORD97":2570520.29,"ADDRESS":"中山路１０２號","OBJECTID":512146},"geometry":{"x":166193.5700000003,"y":2570520.2899999972}},{"attributes":{"ID":512174,"DIS_CODE":0,"TOWNNAME":"歸仁區","LI":"許厝里","LIN":"1鄰","STREET":"中山路","SECT":"一段","MAREA":" ","LANE":" ","ALLEY":" ","HOUSE_NO":"３４５號","E_COORD97":178401.84,"N_COORD97":2540663.0099999998,"ADDRESS":"中山路一段３４５號","OBJECTID":512147},"geometry":{"x":178401.83999999985,"y":2540663.0099999998}},{"attributes":{"ID":512175,"DIS_CODE":0,"TOWNNAME":"歸仁區","LI":"看西里","LIN":"1鄰","STREET":"仁愛南街","SECT":" ","MAREA":" ","LANE":" ","ALLEY":" ","HOUSE_NO":"９７號","E_COORD97":178288.22,"N_COORD97":2540429.1499999999,"ADDRESS":"仁愛南街９７號","OBJECTID":512148},"geometry":{"x":178288.22000000067,"y":2540429.1500000004}},{"attributes":{"ID":512176,"DIS_CODE":0,"TOWNNAME":"歸仁區","LI":"看東里","LIN":"1鄰","STREET":"忠孝南路","SECT":" ","MAREA":" ","LANE":" ","ALLEY":" ","HOUSE_NO":"４８號","E_COORD97":178505.42999999999,"N_COORD97":2540515.0499999998,"ADDRESS":"忠孝南路４８號","OBJECTID":512149},"geometry":{"x":178505.43000000063,"y":2540515.0500000007}},{"attributes":{"ID":512177,"DIS_CODE":0,"TOWNNAME":"歸仁區","LI":"後市里","LIN":"1鄰","STREET":"大順街","SECT":" ","MAREA":" ","LANE":" ","ALLEY":" ","HOUSE_NO":"１３９號","E_COORD97":177061.82999999999,"N_COORD97":2540595.25,"ADDRESS":"大順街１３９號","OBJECTID":512150},"geometry":{"x":177061.83000000194,"y":2540595.2500000019}},{"attributes":{"ID":512178,"DIS_CODE":0,"TOWNNAME":"歸仁區","LI":"後市里","LIN":"1鄰","STREET":"大順街","SECT":" ","MAREA":" ","LANE":" ","ALLEY":" ","HOUSE_NO":"１６３號","E_COORD97":177006.17000000001,"N_COORD97":2540590.25,"ADDRESS":"大順街１６３號","OBJECTID":512151},"geometry":{"x":177006.16999999993,"y":2540590.25}},{"attributes":{"ID":512179,"DIS_CODE":0,"TOWNNAME":"歸仁區","LI":"許厝里","LIN":"1鄰","STREET":"中山路","SECT":"一段","MAREA":" ","LANE":" ","ALLEY":" ","HOUSE_NO":"３５３號","E_COORD97":178379.34,"N_COORD97":2540666.0099999998,"ADDRESS":"中山路一段３５３號","OBJECTID":512152},"geometry":{"x":178379.34000000078,"y":2540666.0099999998}},{"attributes":{"ID":512180,"DIS_CODE":0,"TOWNNAME":"歸仁區","LI":"崙頂里","LIN":"1鄰","STREET":"成功路","SECT":"一段","MAREA":" ","LANE":" ","ALLEY":" ","HOUSE_NO":"３１０號","E_COORD97":178264.75,"N_COORD97":2539972.6800000002,"ADDRESS":"成功路一段３１０號","OBJECTID":512153},"geometry":{"x":178264.75000000093,"y":2539972.6800000016}},{"attributes":{"ID":512181,"DIS_CODE":0,"TOWNNAME":"歸仁區","LI":"看東里","LIN":"1鄰","STREET":"中山路","SECT":"一段","MAREA":" ","LANE":" ","ALLEY":" ","HOUSE_NO":"３０１號","E_COORD97":178492.01000000001,"N_COORD97":2540642.25,"ADDRESS":"中山路一段３０１號","OBJECTID":512154},"geometry":{"x":178492.00999999978,"y":2540642.2500000037}},{"attributes":{"ID":512182,"DIS_CODE":0,"TOWNNAME":"歸仁區","LI":"許厝里","LIN":"1鄰","STREET":"中山路","SECT":"一段","MAREA":" ","LANE":" ","ALLEY":" ","HOUSE_NO":"３５１號","E_COORD97":178389.54000000001,"N_COORD97":2540663.0099999998,"ADDRESS":"中山路一段３５１號","OBJECTID":512155},"geometry":{"x":178389.54000000097,"y":2540663.0099999998}},{"attributes":{"ID":512183,"DIS_CODE":0,"TOWNNAME":"歸仁區","LI":"看東里","LIN":"1鄰","STREET":"忠孝南路","SECT":" ","MAREA":" ","LANE":" ","ALLEY":" ","HOUSE_NO":"４２號","E_COORD97":178505.42999999999,"N_COORD97":2540523.0499999998,"ADDRESS":"忠孝南路４２號","OBJECTID":512156},"geometry":{"x":178505.43000000063,"y":2540523.0500000026}},{"attributes":{"ID":512184,"DIS_CODE":0,"TOWNNAME":"歸仁區","LI":"看東里","LIN":"1鄰","STREET":"忠孝南路","SECT":" ","MAREA":" ","LANE":" ","ALLEY":" ","HOUSE_NO":"３２號","E_COORD97":178505.53,"N_COORD97":2540543.0499999998,"ADDRESS":"忠孝南路３２號","OBJECTID":512157},"geometry":{"x":178505.53000000119,"y":2540543.0500000045}},{"attributes":{"ID":512185,"DIS_CODE":0,"TOWNNAME":"歸仁區","LI":"看東里","LIN":"1鄰","STREET":"中山路","SECT":"一段","MAREA":" ","LANE":" ","ALLEY":" ","HOUSE_NO":"３０５號","E_COORD97":178473.60999999999,"N_COORD97":2540650.25,"ADDRESS":"中山路一段３０５號","OBJECTID":512158},"geometry":{"x":178473.61000000034,"y":2540650.2500000019}},{"attributes":{"ID":512186,"DIS_CODE":0,"TOWNNAME":"歸仁區","LI":"歸仁里","LIN":"1鄰","STREET":"文化街","SECT":"一段","MAREA":" ","LANE":" ","ALLEY":" ","HOUSE_NO":"１２０號","E_COORD97":177748.92000000001,"N_COORD97":2541127.2599999998,"ADDRESS":"文化街一段１２０號","OBJECTID":512159},"geometry":{"x":177748.91999999993,"y":2541127.2600000016}},{"attributes":{"ID":512187,"DIS_CODE":0,"TOWNNAME":"歸仁區","LI":"後市里","LIN":"1鄰","STREET":"大順街","SECT":" ","MAREA":" ","LANE":" ","ALLEY":" ","HOUSE_NO":"１２１號","E_COORD97":177068.92999999999,"N_COORD97":2540578.25,"ADDRESS":"大順街１２１號","OBJECTID":512160},"geometry":{"x":177068.9299999997,"y":2540578.2500000019}},{"attributes":{"ID":512188,"DIS_CODE":0,"TOWNNAME":"歸仁區","LI":"南興里","LIN":"1鄰","STREET":"民生北街","SECT":" ","MAREA":" ","LANE":" ","ALLEY":" ","HOUSE_NO":"１１０號","E_COORD97":176286.44,"N_COORD97":2541220.29,"ADDRESS":"民生北街１１０號","OBJECTID":512161},"geometry":{"x":176286.44000000041,"y":2541220.2899999991}},{"attributes":{"ID":512189,"DIS_CODE":0,"TOWNNAME":"歸仁區","LI":"許厝里","LIN":"1鄰","STREET":"中山路","SECT":"一段","MAREA":" ","LANE":" ","ALLEY":" ","HOUSE_NO":"３６１號","E_COORD97":178353.64000000001,"N_COORD97":2540662.0099999998,"ADDRESS":"中山路一段３６１號","OBJECTID":512162},"geometry":{"x":178353.63999999966,"y":2540662.0100000016}},{"attributes":{"ID":512190,"DIS_CODE":0,"TOWNNAME":"北區","LI":"文元里","LIN":"1鄰","STREET":"北成路","SECT":" ","MAREA":" ","LANE":" ","ALLEY":" ","HOUSE_NO":"４５９號","E_COORD97":167885.59,"N_COORD97":2546537.23,"ADDRESS":"北成路４５９號","OBJECTID":512163},"geometry":{"x":167885.59000000078,"y":2546537.2300000004}},{"attributes":{"ID":512191,"DIS_CODE":0,"TOWNNAME":"北區","LI":"文元里","LIN":"1鄰","STREET":"北成路","SECT":" ","MAREA":" ","LANE":" ","ALLEY":" ","HOUSE_NO":"４６１號","E_COORD97":167882.54000000001,"N_COORD97":2546536.8399999999,"ADDRESS":"北成路４６１號","OBJECTID":512164},"geometry":{"x":167882.5400000019,"y":2546536.8399999999}},{"attributes":{"ID":512192,"DIS_CODE":0,"TOWNNAME":"歸仁區","LI":"南保里","LIN":"1鄰","STREET":"民權二街","SECT":" ","MAREA":" ","LANE":" ","ALLEY":" ","HOUSE_NO":"４０號","E_COORD97":176965.09,"N_COORD97":2541430.29,"ADDRESS":"民權二街４０號","OBJECTID":512165},"geometry":{"x":176965.09000000078,"y":2541430.2899999991}},{"attributes":{"ID":512193,"DIS_CODE":0,"TOWNNAME":"歸仁區","LI":"看西里","LIN":"1鄰","STREET":"仁愛南街","SECT":" ","MAREA":" ","LANE":" ","ALLEY":" ","HOUSE_NO":"９９號","E_COORD97":178288.22,"N_COORD97":2540424.1499999999,"ADDRESS":"仁愛南街９９號","OBJECTID":512166},"geometry":{"x":178288.22000000067,"y":2540424.1500000022}},{"attributes":{"ID":512194,"DIS_CODE":0,"TOWNNAME":"歸仁區","LI":"大廟里","LIN":"1鄰","STREET":"大廟二街","SECT":" ","MAREA":" ","LANE":" ","ALLEY":" ","HOUSE_NO":"２１號","E_COORD97":175995.67000000001,"N_COORD97":2544039.25,"ADDRESS":"大廟二街２１號","OBJECTID":512167},"geometry":{"x":175995.66999999993,"y":2544039.2499999981}},{"attributes":{"ID":512195,"DIS_CODE":0,"TOWNNAME":"歸仁區","LI":"南保里","LIN":"1鄰","STREET":"民權二街","SECT":" ","MAREA":" ","LANE":" ","ALLEY":" ","HOUSE_NO":"２２號","E_COORD97":176962.89000000001,"N_COORD97":2541393.29,"ADDRESS":"民權二街２２號","OBJECTID":512168},"geometry":{"x":176962.8900000006,"y":2541393.2899999991}},{"attributes":{"ID":512196,"DIS_CODE":0,"TOWNNAME":"玉井區","LI":"中正里","LIN":"1鄰","STREET":"前園街","SECT":" ","MAREA":" ","LANE":" ","ALLEY":" ","HOUSE_NO":"６８號","E_COORD97":195216.45000000001,"N_COORD97":2558601.2400000002,"ADDRESS":"前園街６８號","OBJECTID":512169},"geometry":{"x":195216.45000000205,"y":2558601.2399999984}},{"attributes":{"ID":512197,"DIS_CODE":0,"TOWNNAME":"歸仁區","LI":"崙頂里","LIN":"1鄰","STREET":"信義南路","SECT":" ","MAREA":" ","LANE":" ","ALLEY":" ","HOUSE_NO":"２１７號","E_COORD97":178163.39999999999,"N_COORD97":2540061.6800000002,"ADDRESS":"信義南路２１７號","OBJECTID":512170},"geometry":{"x":178163.40000000224,"y":2540061.6799999997}},{"attributes":{"ID":512198,"DIS_CODE":0,"TOWNNAME":"歸仁區","LI":"南保里","LIN":"1鄰","STREET":"大德路","SECT":" ","MAREA":" ","LANE":" ","ALLEY":" ","HOUSE_NO":"３１１號","E_COORD97":176981.07000000001,"N_COORD97":2541535.27,"ADDRESS":"大德路３１１號","OBJECTID":512171},"geometry":{"x":176981.07000000123,"y":2541535.2699999996}},{"attributes":{"ID":512199,"DIS_CODE":0,"TOWNNAME":"北區","LI":"文元里","LIN":"1鄰","STREET":"北成路","SECT":" ","MAREA":" ","LANE":" ","ALLEY":" ","HOUSE_NO":"４３３號","E_COORD97":167910.73999999999,"N_COORD97":2546541.4199999999,"ADDRESS":"北成路４３３號","OBJECTID":512172},"geometry":{"x":167910.74000000115,"y":2546541.4200000018}},{"attributes":{"ID":512200,"DIS_CODE":0,"TOWNNAME":"北區","LI":"文元里","LIN":"1鄰","STREET":"北成路","SECT":" ","MAREA":" ","LANE":" ","ALLEY":" ","HOUSE_NO":"４３５號","E_COORD97":167907.06,"N_COORD97":2546541.04,"ADDRESS":"北成路４３５號","OBJECTID":512173},"geometry":{"x":167907.05999999959,"y":2546541.0399999991}},{"attributes":{"ID":512201,"DIS_CODE":0,"TOWNNAME":"北區","LI":"文元里","LIN":"1鄰","STREET":"北成路","SECT":" ","MAREA":" ","LANE":" ","ALLEY":" ","HOUSE_NO":"４３７號","E_COORD97":167903.75,"N_COORD97":2546541.04,"ADDRESS":"北成路４３７號","OBJECTID":512174},"geometry":{"x":167903.75000000093,"y":2546541.0399999991}},{"attributes":{"ID":512202,"DIS_CODE":0,"TOWNNAME":"北區","LI":"文元里","LIN":"1鄰","STREET":"北成路","SECT":" ","MAREA":" ","LANE":" ","ALLEY":" ","HOUSE_NO":"４３９號","E_COORD97":167901.59,"N_COORD97":2546539.77,"ADDRESS":"北成路４３９號","OBJECTID":512175},"geometry":{"x":167901.58999999985,"y":2546539.7699999996}},{"attributes":{"ID":512203,"DIS_CODE":0,"TOWNNAME":"北區","LI":"文元里","LIN":"1鄰","STREET":"北成路","SECT":" ","MAREA":" ","LANE":" ","ALLEY":" ","HOUSE_NO":"４５１號","E_COORD97":167898.42000000001,"N_COORD97":2546539.5099999998,"ADDRESS":"北成路４５１號","OBJECTID":512176},"geometry":{"x":167898.42000000179,"y":2546539.5100000035}},{"attributes":{"ID":512204,"DIS_CODE":0,"TOWNNAME":"北區","LI":"文元里","LIN":"1鄰","STREET":"北成路","SECT":" ","MAREA":" ","LANE":" ","ALLEY":" ","HOUSE_NO":"４５３號","E_COORD97":167894.73999999999,"N_COORD97":2546539.2599999998,"ADDRESS":"北成路４５３號","OBJECTID":512177},"geometry":{"x":167894.74000000022,"y":2546539.2600000016}},{"attributes":{"ID":512205,"DIS_CODE":0,"TOWNNAME":"北區","LI":"文元里","LIN":"1鄰","STREET":"北成路","SECT":" ","MAREA":" ","LANE":" ","ALLEY":" ","HOUSE_NO":"４５５號","E_COORD97":167892.07000000001,"N_COORD97":2546538.1099999999,"ADDRESS":"北成路４５５號","OBJECTID":512178},"geometry":{"x":167892.0700000003,"y":2546538.1099999994}},{"attributes":{"ID":512206,"DIS_CODE":0,"TOWNNAME":"北區","LI":"文元里","LIN":"1鄰","STREET":"北成路","SECT":" ","MAREA":" ","LANE":" ","ALLEY":" ","HOUSE_NO":"４５７號","E_COORD97":167888.76999999999,"N_COORD97":2546537.6099999999,"ADDRESS":"北成路４５７號","OBJECTID":512179},"geometry":{"x":167888.76999999955,"y":2546537.6099999994}},{"attributes":{"ID":512207,"DIS_CODE":0,"TOWNNAME":"北區","LI":"文元里","LIN":"1鄰","STREET":"北成路","SECT":" ","MAREA":" ","LANE":" ","ALLEY":" ","HOUSE_NO":"４６９號","E_COORD97":167869.20999999999,"N_COORD97":2546532.9100000001,"ADDRESS":"北成路４６９號","OBJECTID":512180},"geometry":{"x":167869.20999999996,"y":2546532.9100000001}},{"attributes":{"ID":512208,"DIS_CODE":0,"TOWNNAME":"北區","LI":"文元里","LIN":"1鄰","STREET":"北成路","SECT":" ","MAREA":" ","LANE":" ","ALLEY":" ","HOUSE_NO":"４７１號","E_COORD97":167865.26999999999,"N_COORD97":2546531.8900000001,"ADDRESS":"北成路４７１號","OBJECTID":512181},"geometry":{"x":167865.27000000142,"y":2546531.8900000025}},{"attributes":{"ID":512209,"DIS_CODE":0,"TOWNNAME":"北區","LI":"中樓里","LIN":"1鄰","STREET":"小東路","SECT":" ","MAREA":" ","LANE":" ","ALLEY":" ","HOUSE_NO":"２５號","E_COORD97":169671.79999999999,"N_COORD97":2544654.6800000002,"ADDRESS":"小東路２５號","OBJECTID":512182},"geometry":{"x":169671.79999999981,"y":2544654.6800000016}},{"attributes":{"ID":512210,"DIS_CODE":0,"TOWNNAME":"學甲區","LI":"仁得里","LIN":"1鄰","STREET":"建國路","SECT":" ","MAREA":" ","LANE":" ","ALLEY":" ","HOUSE_NO":"４９號","E_COORD97":166158.26999999999,"N_COORD97":2569993.6200000001,"ADDRESS":"建國路４９號","OBJECTID":512183},"geometry":{"x":166158.27000000048,"y":2569993.620000001}},{"attributes":{"ID":512211,"DIS_CODE":0,"TOWNNAME":"學甲區","LI":"仁得里","LIN":"1鄰","STREET":"建國路","SECT":" ","MAREA":" ","LANE":" ","ALLEY":" ","HOUSE_NO":"５１號","E_COORD97":166153.42000000001,"N_COORD97":2569994.8599999999,"ADDRESS":"建國路５１號","OBJECTID":512184},"geometry":{"x":166153.41999999993,"y":2569994.8600000031}},{"attributes":{"ID":512212,"DIS_CODE":0,"TOWNNAME":"學甲區","LI":"仁得里","LIN":"1鄰","STREET":"建國路","SECT":" ","MAREA":" ","LANE":" ","ALLEY":" ","HOUSE_NO":"５２號","E_COORD97":166181.16,"N_COORD97":2570016.7799999998,"ADDRESS":"建國路５２號","OBJECTID":512185},"geometry":{"x":166181.16000000015,"y":2570016.7800000012}},{"attributes":{"ID":512213,"DIS_CODE":0,"TOWNNAME":"學甲區","LI":"仁得里","LIN":"1鄰","STREET":"建國路","SECT":" ","MAREA":" ","LANE":" ","ALLEY":" ","HOUSE_NO":"５３號","E_COORD97":166148.88,"N_COORD97":2569995.4100000001,"ADDRESS":"建國路５３號","OBJECTID":512186},"geometry":{"x":166148.87999999989,"y":2569995.4100000039}},{"attributes":{"ID":512214,"DIS_CODE":0,"TOWNNAME":"學甲區","LI":"仁得里","LIN":"1鄰","STREET":"建國路","SECT":" ","MAREA":" ","LANE":" ","ALLEY":" ","HOUSE_NO":"５４號","E_COORD97":166177.29000000001,"N_COORD97":2570017.4399999999,"ADDRESS":"建國路５４號","OBJECTID":512187},"geometry":{"x":166177.29000000097,"y":2570017.4399999995}},{"attributes":{"ID":512215,"DIS_CODE":0,"TOWNNAME":"學甲區","LI":"仁得里","LIN":"1鄰","STREET":"建國路","SECT":" ","MAREA":" ","LANE":" ","ALLEY":" ","HOUSE_NO":"５５號","E_COORD97":166143.82999999999,"N_COORD97":2569996.3100000001,"ADDRESS":"建國路５５號","OBJECTID":512188},"geometry":{"x":166143.83000000101,"y":2569996.3100000042}},{"attributes":{"ID":512216,"DIS_CODE":0,"TOWNNAME":"學甲區","LI":"仁得里","LIN":"1鄰","STREET":"建國路","SECT":" ","MAREA":" ","LANE":" ","ALLEY":" ","HOUSE_NO":"５６號","E_COORD97":166172.73000000001,"N_COORD97":2570018.2999999998,"ADDRESS":"建國路５６號","OBJECTID":512189},"geometry":{"x":166172.73000000045,"y":2570018.3000000026}},{"attributes":{"ID":512217,"DIS_CODE":0,"TOWNNAME":"學甲區","LI":"仁得里","LIN":"1鄰","STREET":"建國路","SECT":" ","MAREA":" ","LANE":" ","ALLEY":" ","HOUSE_NO":"５７號之１","E_COORD97":166132.48999999999,"N_COORD97":2569994.73,"ADDRESS":"建國路５７號之１","OBJECTID":512190},"geometry":{"x":166132.49000000115,"y":2569994.7300000023}},{"attributes":{"ID":512218,"DIS_CODE":0,"TOWNNAME":"學甲區","LI":"仁得里","LIN":"1鄰","STREET":"建國路","SECT":" ","MAREA":" ","LANE":" ","ALLEY":" ","HOUSE_NO":"５７號之２","E_COORD97":166128.35000000001,"N_COORD97":2569996.8799999999,"ADDRESS":"建國路５７號之２","OBJECTID":512191},"geometry":{"x":166128.34999999963,"y":2569996.879999999}},{"attributes":{"ID":512219,"DIS_CODE":0,"TOWNNAME":"學甲區","LI":"仁得里","LIN":"1鄰","STREET":"建國路","SECT":" ","MAREA":" ","LANE":" ","ALLEY":" ","HOUSE_NO":"５７號之３","E_COORD97":166123.76999999999,"N_COORD97":2569997.7599999998,"ADDRESS":"建國路５７號之３","OBJECTID":512192},"geometry":{"x":166123.76999999955,"y":2569997.7599999998}},{"attributes":{"ID":512220,"DIS_CODE":0,"TOWNNAME":"學甲區","LI":"仁得里","LIN":"1鄰","STREET":"建國路","SECT":" ","MAREA":" ","LANE":" ","ALLEY":" ","HOUSE_NO":"５７號之５","E_COORD97":166114.89999999999,"N_COORD97":2570001.5899999999,"ADDRESS":"建國路５７號之５","OBJECTID":512193},"geometry":{"x":166114.90000000037,"y":2570001.5900000017}},{"attributes":{"ID":512221,"DIS_CODE":0,"TOWNNAME":"學甲區","LI":"仁得里","LIN":"1鄰","STREET":"建國路","SECT":" ","MAREA":" ","LANE":" ","ALLEY":" ","HOUSE_NO":"５７號","E_COORD97":166098.57999999999,"N_COORD97":2570001.2599999998,"ADDRESS":"建國路５７號","OBJECTID":512194},"geometry":{"x":166098.58000000007,"y":2570001.2599999998}},{"attributes":{"ID":512222,"DIS_CODE":0,"TOWNNAME":"學甲區","LI":"仁得里","LIN":"1鄰","STREET":"建國路","SECT":" ","MAREA":" ","LANE":" ","ALLEY":" ","HOUSE_NO":"５８號","E_COORD97":166167.48000000001,"N_COORD97":2570019.4100000001,"ADDRESS":"建國路５８號","OBJECTID":512195},"geometry":{"x":166167.48000000045,"y":2570019.410000002}},{"attributes":{"ID":512223,"DIS_CODE":0,"TOWNNAME":"學甲區","LI":"仁得里","LIN":"1鄰","STREET":"建國路","SECT":" ","MAREA":" ","LANE":" ","ALLEY":" ","HOUSE_NO":"６０號","E_COORD97":166162.87,"N_COORD97":2570020.21,"ADDRESS":"建國路６０號","OBJECTID":512196},"geometry":{"x":166162.87000000011,"y":2570020.2100000009}},{"attributes":{"ID":512224,"DIS_CODE":0,"TOWNNAME":"學甲區","LI":"仁得里","LIN":"1鄰","STREET":"建國路","SECT":" ","MAREA":" ","LANE":" ","ALLEY":" ","HOUSE_NO":"６２號之１","E_COORD97":166154.01000000001,"N_COORD97":2570021.9100000001,"ADDRESS":"建國路６２號之１","OBJECTID":512197},"geometry":{"x":166154.01000000071,"y":2570021.9100000001}},{"attributes":{"ID":512225,"DIS_CODE":0,"TOWNNAME":"學甲區","LI":"仁得里","LIN":"1鄰","STREET":"建國路","SECT":" ","MAREA":" ","LANE":" ","ALLEY":" ","HOUSE_NO":"６２號之２","E_COORD97":166149.31,"N_COORD97":2570022.8799999999,"ADDRESS":"建國路６２號之２","OBJECTID":512198},"geometry":{"x":166149.30999999866,"y":2570022.8800000008}},{"attributes":{"ID":512226,"DIS_CODE":0,"TOWNNAME":"學甲區","LI":"仁得里","LIN":"1鄰","STREET":"建國路","SECT":" ","MAREA":" ","LANE":" ","ALLEY":" ","HOUSE_NO":"６２號之３","E_COORD97":166144.37,"N_COORD97":2570023.73,"ADDRESS":"建國路６２號之３","OBJECTID":512199},"geometry":{"x":166144.36999999918,"y":2570023.7299999986}},{"attributes":{"ID":512227,"DIS_CODE":0,"TOWNNAME":"學甲區","LI":"仁得里","LIN":"1鄰","STREET":"建國路","SECT":" ","MAREA":" ","LANE":" ","ALLEY":" ","HOUSE_NO":"６２號","E_COORD97":166158.38,"N_COORD97":2570020.8900000001,"ADDRESS":"建國路６２號","OBJECTID":512200},"geometry":{"x":166158.38000000082,"y":2570020.8900000025}}]}