{"displayFieldName":"TOWNNAME","fieldAliases":{"ID":"ID","DIS_CODE":"DIS_CODE","TOWNNAME":"TOWNNAME","LI":"LI","LIN":"LIN","STREET":"STREET","SECT":"SECT","MAREA":"MAREA","LANE":"LANE","ALLEY":"ALLEY","HOUSE_NO":"HOUSE_NO","E_COORD97":"E_COORD97","N_COORD97":"N_COORD97","ADDRESS":"ADDRESS","OBJECTID":"OBJECTID"},"geometryType":"esriGeometryPoint","spatialReference":{"wkid":102443,"latestWkid":3826},"fields":[{"name":"ID","type":"esriFieldTypeDouble","alias":"ID"},{"name":"DIS_CODE","type":"esriFieldTypeInteger","alias":"DIS_CODE"},{"name":"TOWNNAME","type":"esriFieldTypeString","alias":"TOWNNAME","length":8},{"name":"LI","type":"esriFieldTypeString","alias":"LI","length":8},{"name":"LIN","type":"esriFieldTypeString","alias":"LIN","length":12},{"name":"STREET","type":"esriFieldTypeString","alias":"STREET","length":20},{"name":"SECT","type":"esriFieldTypeString","alias":"SECT","length":8},{"name":"MAREA","type":"esriFieldTypeString","alias":"MAREA","length":12},{"name":"LANE","type":"esriFieldTypeString","alias":"LANE","length":10},{"name":"ALLEY","type":"esriFieldTypeString","alias":"ALLEY","length":10},{"name":"HOUSE_NO","type":"esriFieldTypeString","alias":"HOUSE_NO","length":20},{"name":"E_COORD97","type":"esriFieldTypeDouble","alias":"E_COORD97"},{"name":"N_COORD97","type":"esriFieldTypeDouble","alias":"N_COORD97"},{"name":"ADDRESS","type":"esriFieldTypeString","alias":"ADDRESS","length":50},{"name":"OBJECTID","type":"esriFieldTypeOID","alias":"OBJECTID"}],"features":[{"attributes":{"ID":399025,"DIS_CODE":0,"TOWNNAME":"北區","LI":"華興里","LIN":"11鄰","STREET":"南園街","SECT":" ","MAREA":" ","LANE":"１０５巷","ALLEY":" ","HOUSE_NO":"７７號","E_COORD97":170786.62,"N_COORD97":2545457.6600000001,"ADDRESS":"南園街１０５巷７７號","OBJECTID":399001},"geometry":{"x":170786.62000000104,"y":2545457.6600000039}},{"attributes":{"ID":399026,"DIS_CODE":0,"TOWNNAME":"北區","LI":"華興里","LIN":"11鄰","STREET":"南園街","SECT":" ","MAREA":" ","LANE":"１０５巷","ALLEY":" ","HOUSE_NO":"７９號","E_COORD97":170790.89999999999,"N_COORD97":2545460.9700000002,"ADDRESS":"南園街１０５巷７９號","OBJECTID":399002},"geometry":{"x":170790.90000000037,"y":2545460.9700000025}},{"attributes":{"ID":399027,"DIS_CODE":0,"TOWNNAME":"關廟區","LI":"埤頭里","LIN":"11鄰","STREET":"保東路","SECT":" ","MAREA":" ","LANE":"８８巷","ALLEY":" ","HOUSE_NO":"７２號","E_COORD97":178870.17000000001,"N_COORD97":2544261.2999999998,"ADDRESS":"保東路８８巷７２號","OBJECTID":399003},"geometry":{"x":178870.17000000086,"y":2544261.3000000026}},{"attributes":{"ID":399028,"DIS_CODE":0,"TOWNNAME":"關廟區","LI":"東勢里","LIN":"11鄰","STREET":"東榮街","SECT":" ","MAREA":" ","LANE":"５５巷","ALLEY":" ","HOUSE_NO":"２２號","E_COORD97":182069.57000000001,"N_COORD97":2539419.25,"ADDRESS":"東榮街５５巷２２號","OBJECTID":399004},"geometry":{"x":182069.57000000216,"y":2539419.2500000019}},{"attributes":{"ID":399029,"DIS_CODE":0,"TOWNNAME":"關廟區","LI":"山西里","LIN":"11鄰","STREET":"忠孝街","SECT":" ","MAREA":" ","LANE":"２０７巷","ALLEY":" ","HOUSE_NO":"８號","E_COORD97":181115.64000000001,"N_COORD97":2540602.25,"ADDRESS":"忠孝街２０７巷８號","OBJECTID":399005},"geometry":{"x":181115.63999999966,"y":2540602.2500000019}},{"attributes":{"ID":399030,"DIS_CODE":0,"TOWNNAME":"關廟區","LI":"東勢里","LIN":"11鄰","STREET":"旺萊路","SECT":" ","MAREA":" ","LANE":"３５６巷","ALLEY":" ","HOUSE_NO":"３０號","E_COORD97":182090.79000000001,"N_COORD97":2539425.25,"ADDRESS":"旺萊路３５６巷３０號","OBJECTID":399006},"geometry":{"x":182090.79000000004,"y":2539425.2500000037}},{"attributes":{"ID":399031,"DIS_CODE":0,"TOWNNAME":"關廟區","LI":"布袋里","LIN":"11鄰","STREET":"南雄南路","SECT":" ","MAREA":" ","LANE":"８５２巷","ALLEY":" ","HOUSE_NO":"２１０號","E_COORD97":182103.98999999999,"N_COORD97":2533847.2999999998,"ADDRESS":"南雄南路８５２巷２１０號","OBJECTID":399007},"geometry":{"x":182103.99000000209,"y":2533847.3000000007}},{"attributes":{"ID":399032,"DIS_CODE":0,"TOWNNAME":"關廟區","LI":"新光里","LIN":"11鄰","STREET":"新光街","SECT":" ","MAREA":" ","LANE":"２０６巷","ALLEY":" ","HOUSE_NO":"７號","E_COORD97":184297.76999999999,"N_COORD97":2541816.25,"ADDRESS":"新光街２０６巷７號","OBJECTID":399008},"geometry":{"x":184297.76999999955,"y":2541816.2500000019}},{"attributes":{"ID":399033,"DIS_CODE":0,"TOWNNAME":"關廟區","LI":"布袋里","LIN":"11鄰","STREET":"南雄南路","SECT":" ","MAREA":" ","LANE":"８５２巷","ALLEY":" ","HOUSE_NO":"２７８號","E_COORD97":181988.14000000001,"N_COORD97":2533657.2999999998,"ADDRESS":"南雄南路８５２巷２７８號","OBJECTID":399009},"geometry":{"x":181988.13999999966,"y":2533657.3000000007}},{"attributes":{"ID":399034,"DIS_CODE":0,"TOWNNAME":"關廟區","LI":"深坑里","LIN":"11鄰","STREET":"深坑二街","SECT":" ","MAREA":" ","LANE":"６３巷","ALLEY":" ","HOUSE_NO":"６號","E_COORD97":181704.01999999999,"N_COORD97":2537465.2999999998,"ADDRESS":"深坑二街６３巷６號","OBJECTID":399010},"geometry":{"x":181704.01999999955,"y":2537465.3000000007}},{"attributes":{"ID":399035,"DIS_CODE":0,"TOWNNAME":"關廟區","LI":"深坑里","LIN":"11鄰","STREET":"南雄路","SECT":"一段","MAREA":" ","LANE":"４０９巷","ALLEY":" ","HOUSE_NO":"２５號","E_COORD97":181684.12,"N_COORD97":2537521.2999999998,"ADDRESS":"南雄路一段４０９巷２５號","OBJECTID":399011},"geometry":{"x":181684.12000000011,"y":2537521.3000000026}},{"attributes":{"ID":399036,"DIS_CODE":0,"TOWNNAME":"關廟區","LI":"深坑里","LIN":"11鄰","STREET":"深坑二街","SECT":" ","MAREA":" ","LANE":"１０６巷","ALLEY":" ","HOUSE_NO":"３２號","E_COORD97":181570.12,"N_COORD97":2537401.2999999998,"ADDRESS":"深坑二街１０６巷３２號","OBJECTID":399012},"geometry":{"x":181570.12000000011,"y":2537401.3000000007}},{"attributes":{"ID":399037,"DIS_CODE":0,"TOWNNAME":"關廟區","LI":"南花里","LIN":"11鄰","STREET":"明德街","SECT":" ","MAREA":" ","LANE":"１５巷","ALLEY":" ","HOUSE_NO":"２號","E_COORD97":181793.04000000001,"N_COORD97":2540040.27,"ADDRESS":"明德街１５巷２號","OBJECTID":399013},"geometry":{"x":181793.04000000004,"y":2540040.2699999996}},{"attributes":{"ID":399038,"DIS_CODE":0,"TOWNNAME":"關廟區","LI":"北勢里","LIN":"11鄰","STREET":"成功路","SECT":" ","MAREA":" ","LANE":"２６２巷","ALLEY":" ","HOUSE_NO":"１８號","E_COORD97":181515.42000000001,"N_COORD97":2540550.27,"ADDRESS":"成功路２６２巷１８號","OBJECTID":399014},"geometry":{"x":181515.41999999993,"y":2540550.2700000033}},{"attributes":{"ID":399039,"DIS_CODE":0,"TOWNNAME":"關廟區","LI":"松腳里","LIN":"11鄰","STREET":"東興路","SECT":" ","MAREA":" ","LANE":"２２９巷","ALLEY":" ","HOUSE_NO":"９號","E_COORD97":181796.26999999999,"N_COORD97":2539603.25,"ADDRESS":"東興路２２９巷９號","OBJECTID":399015},"geometry":{"x":181796.27000000142,"y":2539603.25}},{"attributes":{"ID":399040,"DIS_CODE":0,"TOWNNAME":"關廟區","LI":"松腳里","LIN":"11鄰","STREET":"東興路","SECT":" ","MAREA":" ","LANE":"２２９巷","ALLEY":" ","HOUSE_NO":"３號","E_COORD97":181795.47,"N_COORD97":2539590.25,"ADDRESS":"東興路２２９巷３號","OBJECTID":399016},"geometry":{"x":181795.47000000067,"y":2539590.25}},{"attributes":{"ID":399041,"DIS_CODE":0,"TOWNNAME":"關廟區","LI":"五甲里","LIN":"11鄰","STREET":"五甲路","SECT":" ","MAREA":" ","LANE":"２１０巷","ALLEY":" ","HOUSE_NO":"７號","E_COORD97":180990.97,"N_COORD97":2538933.25,"ADDRESS":"五甲路２１０巷７號","OBJECTID":399017},"geometry":{"x":180990.96999999974,"y":2538933.25}},{"attributes":{"ID":399042,"DIS_CODE":0,"TOWNNAME":"關廟區","LI":"五甲里","LIN":"11鄰","STREET":"五甲路","SECT":" ","MAREA":" ","LANE":"２１０巷","ALLEY":" ","HOUSE_NO":"８號","E_COORD97":180994.47,"N_COORD97":2538952.25,"ADDRESS":"五甲路２１０巷８號","OBJECTID":399018},"geometry":{"x":180994.46999999974,"y":2538952.25}},{"attributes":{"ID":399043,"DIS_CODE":0,"TOWNNAME":"關廟區","LI":"五甲里","LIN":"11鄰","STREET":"五甲路","SECT":" ","MAREA":" ","LANE":"２１０巷","ALLEY":" ","HOUSE_NO":"１６號","E_COORD97":180984.12,"N_COORD97":2538946.25,"ADDRESS":"五甲路２１０巷１６號","OBJECTID":399019},"geometry":{"x":180984.12000000197,"y":2538946.25}},{"attributes":{"ID":399044,"DIS_CODE":0,"TOWNNAME":"關廟區","LI":"五甲里","LIN":"11鄰","STREET":"五甲路","SECT":" ","MAREA":" ","LANE":"２１０巷","ALLEY":" ","HOUSE_NO":"２號","E_COORD97":181002.07000000001,"N_COORD97":2538957.25,"ADDRESS":"五甲路２１０巷２號","OBJECTID":399020},"geometry":{"x":181002.07000000123,"y":2538957.2500000037}},{"attributes":{"ID":399045,"DIS_CODE":0,"TOWNNAME":"關廟區","LI":"山西里","LIN":"11鄰","STREET":"忠孝街","SECT":" ","MAREA":" ","LANE":"２０７巷","ALLEY":" ","HOUSE_NO":"１６號","E_COORD97":181103.09,"N_COORD97":2540608.25,"ADDRESS":"忠孝街２０７巷１６號","OBJECTID":399021},"geometry":{"x":181103.09000000078,"y":2540608.2499999981}},{"attributes":{"ID":399046,"DIS_CODE":0,"TOWNNAME":"北區","LI":"永祥里","LIN":"11鄰","STREET":"實踐街","SECT":" ","MAREA":" ","LANE":"８５巷","ALLEY":" ","HOUSE_NO":"２號","E_COORD97":170031.41,"N_COORD97":2546118.1600000001,"ADDRESS":"實踐街８５巷２號","OBJECTID":399022},"geometry":{"x":170031.41000000201,"y":2546118.1600000001}},{"attributes":{"ID":399047,"DIS_CODE":0,"TOWNNAME":"北區","LI":"開元里","LIN":"11鄰","STREET":"北園街","SECT":" ","MAREA":" ","LANE":"１２８巷","ALLEY":" ","HOUSE_NO":"２１號","E_COORD97":170275.20000000001,"N_COORD97":2546050.2599999998,"ADDRESS":"北園街１２８巷２１號","OBJECTID":399023},"geometry":{"x":170275.20000000205,"y":2546050.2600000016}},{"attributes":{"ID":399048,"DIS_CODE":0,"TOWNNAME":"南區","LI":"松安里","LIN":"11鄰","STREET":"灣裡路","SECT":" ","MAREA":" ","LANE":"４１８巷","ALLEY":" ","HOUSE_NO":"７號","E_COORD97":166173.32000000001,"N_COORD97":2536099.1600000001,"ADDRESS":"灣裡路４１８巷７號","OBJECTID":399024},"geometry":{"x":166173.3200000003,"y":2536099.1600000001}},{"attributes":{"ID":399049,"DIS_CODE":0,"TOWNNAME":"南區","LI":"松安里","LIN":"11鄰","STREET":"灣裡路","SECT":" ","MAREA":" ","LANE":"４１８巷","ALLEY":" ","HOUSE_NO":"８號","E_COORD97":166183.53,"N_COORD97":2536103.6400000001,"ADDRESS":"灣裡路４１８巷８號","OBJECTID":399025},"geometry":{"x":166183.53000000026,"y":2536103.6400000006}},{"attributes":{"ID":399050,"DIS_CODE":0,"TOWNNAME":"南區","LI":"松安里","LIN":"11鄰","STREET":"灣裡路","SECT":" ","MAREA":" ","LANE":"４４０巷","ALLEY":" ","HOUSE_NO":"８號","E_COORD97":166183.89000000001,"N_COORD97":2536079.4700000002,"ADDRESS":"灣裡路４４０巷８號","OBJECTID":399026},"geometry":{"x":166183.88999999966,"y":2536079.4700000025}},{"attributes":{"ID":399051,"DIS_CODE":0,"TOWNNAME":"新營區","LI":"嘉芳里","LIN":"11鄰","STREET":"復興路","SECT":" ","MAREA":" ","LANE":"８０３巷","ALLEY":" ","HOUSE_NO":"１０號","E_COORD97":177108.04999999999,"N_COORD97":2578537.9399999999,"ADDRESS":"復興路８０３巷１０號","OBJECTID":399027},"geometry":{"x":177108.05000000075,"y":2578537.9399999976}},{"attributes":{"ID":399052,"DIS_CODE":0,"TOWNNAME":"新營區","LI":"延平里","LIN":"11鄰","STREET":"成功街","SECT":" ","MAREA":" ","LANE":"５７巷","ALLEY":" ","HOUSE_NO":"１７號","E_COORD97":179589.855342,"N_COORD97":2577934.50984,"ADDRESS":"成功街５７巷１７號","OBJECTID":399028},"geometry":{"x":179589.85534200072,"y":2577934.509839002}},{"attributes":{"ID":399053,"DIS_CODE":0,"TOWNNAME":"新營區","LI":"民生里","LIN":"11鄰","STREET":"三民路","SECT":" ","MAREA":" ","LANE":"１８６巷","ALLEY":" ","HOUSE_NO":"７號","E_COORD97":179186.84,"N_COORD97":2578223.2999999998,"ADDRESS":"三民路１８６巷７號","OBJECTID":399029},"geometry":{"x":179186.83999999985,"y":2578223.3000000026}},{"attributes":{"ID":399054,"DIS_CODE":0,"TOWNNAME":"新營區","LI":"民榮里","LIN":"11鄰","STREET":"興農街","SECT":" ","MAREA":" ","LANE":"１６巷","ALLEY":" ","HOUSE_NO":"１６號","E_COORD97":179221.01999999999,"N_COORD97":2578008.2999999998,"ADDRESS":"興農街１６巷１６號","OBJECTID":399030},"geometry":{"x":179221.01999999955,"y":2578008.3000000045}},{"attributes":{"ID":399055,"DIS_CODE":0,"TOWNNAME":"新營區","LI":"南紙里","LIN":"11鄰","STREET":"太子路","SECT":" ","MAREA":" ","LANE":"２３８巷","ALLEY":" ","HOUSE_NO":"６號","E_COORD97":177802.09,"N_COORD97":2577854.5499999998,"ADDRESS":"太子路２３８巷６號","OBJECTID":399031},"geometry":{"x":177802.08999999892,"y":2577854.5500000026}},{"attributes":{"ID":399056,"DIS_CODE":0,"TOWNNAME":"新營區","LI":"南興里","LIN":"11鄰","STREET":"和平路","SECT":" ","MAREA":" ","LANE":"１０４巷","ALLEY":" ","HOUSE_NO":"２８號","E_COORD97":179323.10000000001,"N_COORD97":2577568.1400000001,"ADDRESS":"和平路１０４巷２８號","OBJECTID":399032},"geometry":{"x":179323.10000000056,"y":2577568.1399999987}},{"attributes":{"ID":399057,"DIS_CODE":0,"TOWNNAME":"新營區","LI":"南興里","LIN":"11鄰","STREET":"和平路","SECT":" ","MAREA":" ","LANE":"１０４巷","ALLEY":" ","HOUSE_NO":"３０之２號","E_COORD97":179320.51000000001,"N_COORD97":2577568.2200000002,"ADDRESS":"和平路１０４巷３０之２號","OBJECTID":399033},"geometry":{"x":179320.51000000071,"y":2577568.2200000025}},{"attributes":{"ID":399058,"DIS_CODE":0,"TOWNNAME":"新營區","LI":"南興里","LIN":"11鄰","STREET":"和平路","SECT":" ","MAREA":" ","LANE":"１０２巷","ALLEY":" ","HOUSE_NO":"２５號","E_COORD97":179327.31,"N_COORD97":2577593.6000000001,"ADDRESS":"和平路１０２巷２５號","OBJECTID":399034},"geometry":{"x":179327.30999999959,"y":2577593.5999999996}},{"attributes":{"ID":399059,"DIS_CODE":0,"TOWNNAME":"中西區","LI":"保安里","LIN":"12鄰","STREET":"國華街","SECT":"二段","MAREA":" ","LANE":"１６３巷","ALLEY":" ","HOUSE_NO":"１１號","E_COORD97":167655.26999999999,"N_COORD97":2543653.04,"ADDRESS":"國華街二段１６３巷１１號","OBJECTID":399035},"geometry":{"x":167655.27000000048,"y":2543653.0399999991}},{"attributes":{"ID":399060,"DIS_CODE":0,"TOWNNAME":"中西區","LI":"保安里","LIN":"12鄰","STREET":"國華街","SECT":"二段","MAREA":" ","LANE":"１６３巷","ALLEY":" ","HOUSE_NO":"３號","E_COORD97":167678.97,"N_COORD97":2543644.9900000002,"ADDRESS":"國華街二段１６３巷３號","OBJECTID":399036},"geometry":{"x":167678.96999999974,"y":2543644.9900000039}},{"attributes":{"ID":399061,"DIS_CODE":0,"TOWNNAME":"中西區","LI":"保安里","LIN":"12鄰","STREET":"國華街","SECT":"二段","MAREA":" ","LANE":"１６３巷","ALLEY":" ","HOUSE_NO":"５號","E_COORD97":167675.29000000001,"N_COORD97":2543645.5600000001,"ADDRESS":"國華街二段１６３巷５號","OBJECTID":399037},"geometry":{"x":167675.29000000004,"y":2543645.5600000024}},{"attributes":{"ID":399062,"DIS_CODE":0,"TOWNNAME":"北區","LI":"長德里","LIN":"11鄰","STREET":"長北街","SECT":" ","MAREA":" ","LANE":"１９４巷","ALLEY":" ","HOUSE_NO":"７號","E_COORD97":168587.37,"N_COORD97":2544910.48,"ADDRESS":"長北街１９４巷７號","OBJECTID":399038},"geometry":{"x":168587.37000000197,"y":2544910.4800000023}},{"attributes":{"ID":399063,"DIS_CODE":0,"TOWNNAME":"鹽水區","LI":"水仙里","LIN":"11鄰","STREET":"中山路","SECT":" ","MAREA":" ","LANE":"４５巷","ALLEY":" ","HOUSE_NO":"３號","E_COORD97":174958.13,"N_COORD97":2579876.4199999999,"ADDRESS":"中山路４５巷３號","OBJECTID":399039},"geometry":{"x":174958.13000000082,"y":2579876.4199999999}},{"attributes":{"ID":399064,"DIS_CODE":0,"TOWNNAME":"鹽水區","LI":"水仙里","LIN":"11鄰","STREET":"中山路","SECT":" ","MAREA":" ","LANE":"４５巷","ALLEY":" ","HOUSE_NO":"４號","E_COORD97":174955.79000000001,"N_COORD97":2579865.54,"ADDRESS":"中山路４５巷４號","OBJECTID":399040},"geometry":{"x":174955.79000000004,"y":2579865.5399999991}},{"attributes":{"ID":399065,"DIS_CODE":0,"TOWNNAME":"關廟區","LI":"松腳里","LIN":"11鄰","STREET":"東興路","SECT":" ","MAREA":" ","LANE":"２２９巷","ALLEY":" ","HOUSE_NO":"５號","E_COORD97":181796.26999999999,"N_COORD97":2539594.25,"ADDRESS":"東興路２２９巷５號","OBJECTID":399041},"geometry":{"x":181796.27000000142,"y":2539594.25}},{"attributes":{"ID":399066,"DIS_CODE":0,"TOWNNAME":"關廟區","LI":"五甲里","LIN":"11鄰","STREET":"五甲路","SECT":" ","MAREA":" ","LANE":"２１０巷","ALLEY":" ","HOUSE_NO":"１５號","E_COORD97":180974.22,"N_COORD97":2538921.25,"ADDRESS":"五甲路２１０巷１５號","OBJECTID":399042},"geometry":{"x":180974.21999999974,"y":2538921.2500000019}},{"attributes":{"ID":399067,"DIS_CODE":0,"TOWNNAME":"關廟區","LI":"五甲里","LIN":"11鄰","STREET":"五甲路","SECT":" ","MAREA":" ","LANE":"２１０巷","ALLEY":" ","HOUSE_NO":"９號","E_COORD97":180986.76999999999,"N_COORD97":2538930.25,"ADDRESS":"五甲路２１０巷９號","OBJECTID":399043},"geometry":{"x":180986.77000000048,"y":2538930.2500000037}},{"attributes":{"ID":399068,"DIS_CODE":0,"TOWNNAME":"關廟區","LI":"五甲里","LIN":"11鄰","STREET":"五甲路","SECT":" ","MAREA":" ","LANE":"２１０巷","ALLEY":" ","HOUSE_NO":"６號","E_COORD97":180998.26999999999,"N_COORD97":2538955.25,"ADDRESS":"五甲路２１０巷６號","OBJECTID":399044},"geometry":{"x":180998.27000000048,"y":2538955.2500000019}},{"attributes":{"ID":399069,"DIS_CODE":0,"TOWNNAME":"關廟區","LI":"五甲里","LIN":"11鄰","STREET":"五甲路","SECT":" ","MAREA":" ","LANE":"２１０巷","ALLEY":" ","HOUSE_NO":"１０號","E_COORD97":180991.42000000001,"N_COORD97":2538950.25,"ADDRESS":"五甲路２１０巷１０號","OBJECTID":399045},"geometry":{"x":180991.41999999993,"y":2538950.25}},{"attributes":{"ID":399070,"DIS_CODE":0,"TOWNNAME":"關廟區","LI":"五甲里","LIN":"11鄰","STREET":"五甲路","SECT":" ","MAREA":" ","LANE":"２１０巷","ALLEY":" ","HOUSE_NO":"１２號","E_COORD97":180988.72,"N_COORD97":2538947.25,"ADDRESS":"五甲路２１０巷１２號","OBJECTID":399046},"geometry":{"x":180988.72000000067,"y":2538947.2500000037}},{"attributes":{"ID":399071,"DIS_CODE":0,"TOWNNAME":"關廟區","LI":"五甲里","LIN":"11鄰","STREET":"五甲路","SECT":" ","MAREA":" ","LANE":"２１０巷","ALLEY":" ","HOUSE_NO":"１號","E_COORD97":181001.67000000001,"N_COORD97":2538940.25,"ADDRESS":"五甲路２１０巷１號","OBJECTID":399047},"geometry":{"x":181001.66999999993,"y":2538940.2500000037}},{"attributes":{"ID":399072,"DIS_CODE":0,"TOWNNAME":"關廟區","LI":"五甲里","LIN":"11鄰","STREET":"五甲路","SECT":" ","MAREA":" ","LANE":"２１０巷","ALLEY":" ","HOUSE_NO":"２６號","E_COORD97":180967.22,"N_COORD97":2538952.25,"ADDRESS":"五甲路２１０巷２６號","OBJECTID":399048},"geometry":{"x":180967.21999999974,"y":2538952.25}},{"attributes":{"ID":399073,"DIS_CODE":0,"TOWNNAME":"關廟區","LI":"北花里","LIN":"11鄰","STREET":"中正路","SECT":" ","MAREA":" ","LANE":"７８５巷","ALLEY":" ","HOUSE_NO":"２號","E_COORD97":181690.26000000001,"N_COORD97":2540292.25,"ADDRESS":"中正路７８５巷２號","OBJECTID":399049},"geometry":{"x":181690.26000000071,"y":2540292.25}},{"attributes":{"ID":399074,"DIS_CODE":0,"TOWNNAME":"關廟區","LI":"東勢里","LIN":"11鄰","STREET":"旺萊路","SECT":" ","MAREA":" ","LANE":"３０６巷","ALLEY":" ","HOUSE_NO":"３８號","E_COORD97":182090.39000000001,"N_COORD97":2539448.25,"ADDRESS":"旺萊路３０６巷３８號","OBJECTID":399050},"geometry":{"x":182090.38999999873,"y":2539448.25}},{"attributes":{"ID":399075,"DIS_CODE":0,"TOWNNAME":"北區","LI":"大山里","LIN":"11鄰","STREET":"精忠街","SECT":" ","MAREA":" ","LANE":"１１８巷","ALLEY":" ","HOUSE_NO":"２３號","E_COORD97":169279.5,"N_COORD97":2545587.9100000001,"ADDRESS":"精忠街１１８巷２３號","OBJECTID":399051},"geometry":{"x":169279.49999999907,"y":2545587.9100000039}},{"attributes":{"ID":399076,"DIS_CODE":0,"TOWNNAME":"北區","LI":"大山里","LIN":"11鄰","STREET":"精忠街","SECT":" ","MAREA":" ","LANE":"１１８巷","ALLEY":" ","HOUSE_NO":"２５號","E_COORD97":169282.97,"N_COORD97":2545598.6499999999,"ADDRESS":"精忠街１１８巷２５號","OBJECTID":399052},"geometry":{"x":169282.9700000016,"y":2545598.6500000004}},{"attributes":{"ID":399077,"DIS_CODE":0,"TOWNNAME":"北區","LI":"大山里","LIN":"11鄰","STREET":"精忠街","SECT":" ","MAREA":" ","LANE":"１１８巷","ALLEY":" ","HOUSE_NO":"２９號","E_COORD97":169291.28,"N_COORD97":2545600.2599999998,"ADDRESS":"精忠街１１８巷２９號","OBJECTID":399053},"geometry":{"x":169291.28000000026,"y":2545600.2600000016}},{"attributes":{"ID":399078,"DIS_CODE":0,"TOWNNAME":"北區","LI":"大山里","LIN":"11鄰","STREET":"精忠街","SECT":" ","MAREA":" ","LANE":"１１８巷","ALLEY":" ","HOUSE_NO":"３號","E_COORD97":169290.35999999999,"N_COORD97":2545561.8199999998,"ADDRESS":"精忠街１１８巷３號","OBJECTID":399054},"geometry":{"x":169290.36000000034,"y":2545561.820000004}},{"attributes":{"ID":399079,"DIS_CODE":0,"TOWNNAME":"北區","LI":"大山里","LIN":"11鄰","STREET":"精忠街","SECT":" ","MAREA":" ","LANE":"１１８巷","ALLEY":" ","HOUSE_NO":"５號","E_COORD97":169287.29999999999,"N_COORD97":2545562.5099999998,"ADDRESS":"精忠街１１８巷５號","OBJECTID":399055},"geometry":{"x":169287.29999999981,"y":2545562.5099999998}},{"attributes":{"ID":399080,"DIS_CODE":0,"TOWNNAME":"北區","LI":"大山里","LIN":"11鄰","STREET":"精忠街","SECT":" ","MAREA":" ","LANE":"１１８巷","ALLEY":" ","HOUSE_NO":"９號","E_COORD97":169277.89000000001,"N_COORD97":2545564.6600000001,"ADDRESS":"精忠街１１８巷９號","OBJECTID":399056},"geometry":{"x":169277.88999999966,"y":2545564.6600000001}},{"attributes":{"ID":399081,"DIS_CODE":0,"TOWNNAME":"北區","LI":"玉皇里","LIN":"11鄰","STREET":"佑民街","SECT":" ","MAREA":" ","LANE":"４２巷","ALLEY":" ","HOUSE_NO":"１號","E_COORD97":168635.29999999999,"N_COORD97":2544435.2400000002,"ADDRESS":"佑民街４２巷１號","OBJECTID":399057},"geometry":{"x":168635.30000000075,"y":2544435.2400000002}},{"attributes":{"ID":399082,"DIS_CODE":0,"TOWNNAME":"北區","LI":"大仁里","LIN":"11鄰","STREET":"北門路","SECT":"二段","MAREA":" ","LANE":"２１７巷","ALLEY":" ","HOUSE_NO":"１５號","E_COORD97":169442.29000000001,"N_COORD97":2545272.6299999999,"ADDRESS":"北門路二段２１７巷１５號","OBJECTID":399058},"geometry":{"x":169442.29000000097,"y":2545272.629999999}},{"attributes":{"ID":399083,"DIS_CODE":0,"TOWNNAME":"北區","LI":"大仁里","LIN":"11鄰","STREET":"北門路","SECT":"二段","MAREA":" ","LANE":"２１７巷","ALLEY":" ","HOUSE_NO":"１６號","E_COORD97":169465.60000000001,"N_COORD97":2545283.6800000002,"ADDRESS":"北門路二段２１７巷１６號","OBJECTID":399059},"geometry":{"x":169465.60000000056,"y":2545283.6799999978}},{"attributes":{"ID":399084,"DIS_CODE":0,"TOWNNAME":"北區","LI":"大仁里","LIN":"11鄰","STREET":"北門路","SECT":"二段","MAREA":" ","LANE":"２１７巷","ALLEY":" ","HOUSE_NO":"１７號","E_COORD97":169437.14999999999,"N_COORD97":2545272.77,"ADDRESS":"北門路二段２１７巷１７號","OBJECTID":399060},"geometry":{"x":169437.1500000013,"y":2545272.7699999977}},{"attributes":{"ID":399085,"DIS_CODE":0,"TOWNNAME":"北區","LI":"大仁里","LIN":"11鄰","STREET":"北門路","SECT":"二段","MAREA":" ","LANE":"２１７巷","ALLEY":" ","HOUSE_NO":"１９號","E_COORD97":169431.07000000001,"N_COORD97":2545273.3799999999,"ADDRESS":"北門路二段２１７巷１９號","OBJECTID":399061},"geometry":{"x":169431.07000000123,"y":2545273.379999999}},{"attributes":{"ID":399086,"DIS_CODE":0,"TOWNNAME":"北區","LI":"大仁里","LIN":"11鄰","STREET":"北門路","SECT":"二段","MAREA":" ","LANE":"２１７巷","ALLEY":" ","HOUSE_NO":"２０號","E_COORD97":169448.89999999999,"N_COORD97":2545279.3199999998,"ADDRESS":"北門路二段２１７巷２０號","OBJECTID":399062},"geometry":{"x":169448.9000000013,"y":2545279.3200000003}},{"attributes":{"ID":399087,"DIS_CODE":0,"TOWNNAME":"北區","LI":"大仁里","LIN":"11鄰","STREET":"北門路","SECT":"二段","MAREA":" ","LANE":"２１７巷","ALLEY":" ","HOUSE_NO":"２１號","E_COORD97":169423.89000000001,"N_COORD97":2545269.7599999998,"ADDRESS":"北門路二段２１７巷２１號","OBJECTID":399063},"geometry":{"x":169423.88999999966,"y":2545269.7599999979}},{"attributes":{"ID":399088,"DIS_CODE":0,"TOWNNAME":"北區","LI":"大仁里","LIN":"11鄰","STREET":"北門路","SECT":"二段","MAREA":" ","LANE":"２１７巷","ALLEY":" ","HOUSE_NO":"２２號","E_COORD97":169443.78,"N_COORD97":2545279.73,"ADDRESS":"北門路二段２１７巷２２號","OBJECTID":399064},"geometry":{"x":169443.78000000026,"y":2545279.7300000004}},{"attributes":{"ID":399089,"DIS_CODE":0,"TOWNNAME":"北區","LI":"大仁里","LIN":"11鄰","STREET":"北門路","SECT":"二段","MAREA":" ","LANE":"２１７巷","ALLEY":" ","HOUSE_NO":"２３號","E_COORD97":169420.89000000001,"N_COORD97":2545269.6299999999,"ADDRESS":"北門路二段２１７巷２３號","OBJECTID":399065},"geometry":{"x":169420.8900000006,"y":2545269.629999999}},{"attributes":{"ID":399090,"DIS_CODE":0,"TOWNNAME":"北區","LI":"大仁里","LIN":"11鄰","STREET":"北門路","SECT":"二段","MAREA":" ","LANE":"２１７巷","ALLEY":" ","HOUSE_NO":"２４號","E_COORD97":169437.97,"N_COORD97":2545279.3900000001,"ADDRESS":"北門路二段２１７巷２４號","OBJECTID":399066},"geometry":{"x":169437.97000000067,"y":2545279.3900000006}},{"attributes":{"ID":399091,"DIS_CODE":0,"TOWNNAME":"北區","LI":"大仁里","LIN":"11鄰","STREET":"北門路","SECT":"二段","MAREA":" ","LANE":"２１７巷","ALLEY":" ","HOUSE_NO":"２５號","E_COORD97":169418.07999999999,"N_COORD97":2545270.1699999999,"ADDRESS":"北門路二段２１７巷２５號","OBJECTID":399067},"geometry":{"x":169418.08000000194,"y":2545270.1699999999}},{"attributes":{"ID":399092,"DIS_CODE":0,"TOWNNAME":"北區","LI":"大仁里","LIN":"11鄰","STREET":"北門路","SECT":"二段","MAREA":" ","LANE":"２１７巷","ALLEY":" ","HOUSE_NO":"２６號","E_COORD97":169433.94,"N_COORD97":2545279.73,"ADDRESS":"北門路二段２１７巷２６號","OBJECTID":399068},"geometry":{"x":169433.94000000041,"y":2545279.7300000004}},{"attributes":{"ID":399093,"DIS_CODE":0,"TOWNNAME":"北區","LI":"大仁里","LIN":"11鄰","STREET":"北門路","SECT":"二段","MAREA":" ","LANE":"２１７巷","ALLEY":" ","HOUSE_NO":"２８號","E_COORD97":169431.20000000001,"N_COORD97":2545280.21,"ADDRESS":"北門路二段２１７巷２８號","OBJECTID":399069},"geometry":{"x":169431.20000000112,"y":2545280.2100000009}},{"attributes":{"ID":399094,"DIS_CODE":0,"TOWNNAME":"北區","LI":"大仁里","LIN":"11鄰","STREET":"北門路","SECT":"二段","MAREA":" ","LANE":"２１７巷","ALLEY":" ","HOUSE_NO":"３０號","E_COORD97":169428.13,"N_COORD97":2545280.21,"ADDRESS":"北門路二段２１７巷３０號","OBJECTID":399070},"geometry":{"x":169428.13000000082,"y":2545280.2100000009}},{"attributes":{"ID":399095,"DIS_CODE":0,"TOWNNAME":"北區","LI":"大仁里","LIN":"11鄰","STREET":"北門路","SECT":"二段","MAREA":" ","LANE":"２１７巷","ALLEY":" ","HOUSE_NO":"３２號","E_COORD97":169423.82000000001,"N_COORD97":2545274.3399999999,"ADDRESS":"北門路二段２１７巷３２號","OBJECTID":399071},"geometry":{"x":169423.82000000123,"y":2545274.3400000017}},{"attributes":{"ID":399096,"DIS_CODE":0,"TOWNNAME":"北區","LI":"大仁里","LIN":"11鄰","STREET":"北門路","SECT":"二段","MAREA":" ","LANE":"２１７巷","ALLEY":" ","HOUSE_NO":"９號","E_COORD97":169457.70000000001,"N_COORD97":2545269.48,"ADDRESS":"北門路二段２１７巷９號","OBJECTID":399072},"geometry":{"x":169457.70000000019,"y":2545269.4800000023}},{"attributes":{"ID":399097,"DIS_CODE":0,"TOWNNAME":"北區","LI":"大仁里","LIN":"11鄰","STREET":"北門路","SECT":"二段","MAREA":" ","LANE":"２３１巷","ALLEY":" ","HOUSE_NO":"１４號","E_COORD97":169428.307841,"N_COORD97":2545289.2444199999,"ADDRESS":"北門路二段２３１巷１４號","OBJECTID":399073},"geometry":{"x":169428.30784100108,"y":2545289.244416004}},{"attributes":{"ID":399098,"DIS_CODE":0,"TOWNNAME":"北區","LI":"大仁里","LIN":"11鄰","STREET":"北門路","SECT":"二段","MAREA":" ","LANE":"１４１巷","ALLEY":" ","HOUSE_NO":"２６號","E_COORD97":169393.94,"N_COORD97":2545246.04,"ADDRESS":"北門路二段１４１巷２６號","OBJECTID":399074},"geometry":{"x":169393.94000000227,"y":2545246.0399999991}},{"attributes":{"ID":399099,"DIS_CODE":0,"TOWNNAME":"北區","LI":"大仁里","LIN":"11鄰","STREET":"北門路","SECT":"二段","MAREA":" ","LANE":"１４１巷","ALLEY":" ","HOUSE_NO":"２８號","E_COORD97":169390.10000000001,"N_COORD97":2545246.5699999998,"ADDRESS":"北門路二段１４１巷２８號","OBJECTID":399075},"geometry":{"x":169390.09999999963,"y":2545246.5700000003}},{"attributes":{"ID":399100,"DIS_CODE":0,"TOWNNAME":"北區","LI":"大仁里","LIN":"11鄰","STREET":"北門路","SECT":"二段","MAREA":" ","LANE":"１４１巷","ALLEY":" ","HOUSE_NO":"３０號","E_COORD97":169384.98999999999,"N_COORD97":2545246.8700000001,"ADDRESS":"北門路二段１４１巷３０號","OBJECTID":399076},"geometry":{"x":169384.99000000209,"y":2545246.8700000048}},{"attributes":{"ID":399101,"DIS_CODE":0,"TOWNNAME":"北區","LI":"大仁里","LIN":"11鄰","STREET":"北門路","SECT":"二段","MAREA":" ","LANE":"１４１巷","ALLEY":" ","HOUSE_NO":"３２號","E_COORD97":169376.87,"N_COORD97":2545247.5499999998,"ADDRESS":"北門路二段１４１巷３２號","OBJECTID":399077},"geometry":{"x":169376.87000000011,"y":2545247.5500000007}},{"attributes":{"ID":399102,"DIS_CODE":0,"TOWNNAME":"北區","LI":"大仁里","LIN":"11鄰","STREET":"北門路","SECT":"二段","MAREA":" ","LANE":"１４１巷","ALLEY":" ","HOUSE_NO":"３４號","E_COORD97":169365.09,"N_COORD97":2545250.4900000002,"ADDRESS":"北門路二段１４１巷３４號","OBJECTID":399078},"geometry":{"x":169365.08999999985,"y":2545250.4900000002}},{"attributes":{"ID":399103,"DIS_CODE":0,"TOWNNAME":"北區","LI":"大仁里","LIN":"11鄰","STREET":"北門路","SECT":"二段","MAREA":" ","LANE":"１４１巷","ALLEY":" ","HOUSE_NO":"３６號","E_COORD97":169360.64999999999,"N_COORD97":2545252.8199999998,"ADDRESS":"北門路二段１４１巷３６號","OBJECTID":399079},"geometry":{"x":169360.6500000013,"y":2545252.8200000003}},{"attributes":{"ID":399104,"DIS_CODE":0,"TOWNNAME":"北區","LI":"大仁里","LIN":"11鄰","STREET":"北門路","SECT":"二段","MAREA":" ","LANE":"１４１巷","ALLEY":" ","HOUSE_NO":"４０號","E_COORD97":169354.42000000001,"N_COORD97":2545271.2599999998,"ADDRESS":"北門路二段１４１巷４０號","OBJECTID":399080},"geometry":{"x":169354.41999999993,"y":2545271.2600000016}},{"attributes":{"ID":399105,"DIS_CODE":0,"TOWNNAME":"北區","LI":"大仁里","LIN":"11鄰","STREET":"北門路","SECT":"二段","MAREA":" ","LANE":"１４１巷","ALLEY":" ","HOUSE_NO":"４２號","E_COORD97":169354.04000000001,"N_COORD97":2545266.0699999998,"ADDRESS":"北門路二段１４１巷４２號","OBJECTID":399081},"geometry":{"x":169354.0400000019,"y":2545266.0700000022}},{"attributes":{"ID":399106,"DIS_CODE":0,"TOWNNAME":"安平區","LI":"平安里","LIN":"11鄰","STREET":"安平路","SECT":" ","MAREA":" ","LANE":"５００巷","ALLEY":" ","HOUSE_NO":"１３號","E_COORD97":165134.51999999999,"N_COORD97":2544378.0099999998,"ADDRESS":"安平路５００巷１３號","OBJECTID":399082},"geometry":{"x":165134.52000000048,"y":2544378.0100000016}},{"attributes":{"ID":399107,"DIS_CODE":0,"TOWNNAME":"安平區","LI":"平安里","LIN":"11鄰","STREET":"安平路","SECT":" ","MAREA":" ","LANE":"５００巷","ALLEY":" ","HOUSE_NO":"１５號","E_COORD97":165136.07000000001,"N_COORD97":2544381.3100000001,"ADDRESS":"安平路５００巷１５號","OBJECTID":399083},"geometry":{"x":165136.0700000003,"y":2544381.3100000005}},{"attributes":{"ID":399108,"DIS_CODE":0,"TOWNNAME":"安平區","LI":"平安里","LIN":"11鄰","STREET":"安平路","SECT":" ","MAREA":" ","LANE":"５００巷","ALLEY":" ","HOUSE_NO":"１５號之１","E_COORD97":165136.20999999999,"N_COORD97":2544383.6699999999,"ADDRESS":"安平路５００巷１５號之１","OBJECTID":399084},"geometry":{"x":165136.20999999996,"y":2544383.6700000018}},{"attributes":{"ID":399109,"DIS_CODE":0,"TOWNNAME":"麻豆區","LI":"興農里","LIN":"11鄰","STREET":"新生南路","SECT":" ","MAREA":" ","LANE":"１２９巷","ALLEY":" ","HOUSE_NO":"１１號","E_COORD97":172392.81,"N_COORD97":2564595.9500000002,"ADDRESS":"新生南路１２９巷１１號","OBJECTID":399085},"geometry":{"x":172392.81000000145,"y":2564595.9499999993}},{"attributes":{"ID":399110,"DIS_CODE":0,"TOWNNAME":"麻豆區","LI":"興農里","LIN":"11鄰","STREET":"新生南路","SECT":" ","MAREA":" ","LANE":"１２９巷","ALLEY":" ","HOUSE_NO":"１３號","E_COORD97":172387.29000000001,"N_COORD97":2564608.6099999999,"ADDRESS":"新生南路１２９巷１３號","OBJECTID":399086},"geometry":{"x":172387.29000000097,"y":2564608.6099999994}},{"attributes":{"ID":399111,"DIS_CODE":0,"TOWNNAME":"麻豆區","LI":"興農里","LIN":"11鄰","STREET":"新生南路","SECT":" ","MAREA":" ","LANE":"１２９巷","ALLEY":" ","HOUSE_NO":"１５號","E_COORD97":172386.85999999999,"N_COORD97":2564612.98,"ADDRESS":"新生南路１２９巷１５號","OBJECTID":399087},"geometry":{"x":172386.86000000127,"y":2564612.9800000004}},{"attributes":{"ID":399112,"DIS_CODE":0,"TOWNNAME":"麻豆區","LI":"興農里","LIN":"11鄰","STREET":"新生南路","SECT":" ","MAREA":" ","LANE":"１２９巷","ALLEY":" ","HOUSE_NO":"１６號","E_COORD97":172393.06,"N_COORD97":2564568.4399999999,"ADDRESS":"新生南路１２９巷１６號","OBJECTID":399088},"geometry":{"x":172393.06000000052,"y":2564568.4399999995}},{"attributes":{"ID":399113,"DIS_CODE":0,"TOWNNAME":"麻豆區","LI":"興農里","LIN":"11鄰","STREET":"新生南路","SECT":" ","MAREA":" ","LANE":"１２９巷","ALLEY":" ","HOUSE_NO":"１７號","E_COORD97":172386.16,"N_COORD97":2564617.0699999998,"ADDRESS":"新生南路１２９巷１７號","OBJECTID":399089},"geometry":{"x":172386.16000000108,"y":2564617.0699999984}},{"attributes":{"ID":399114,"DIS_CODE":0,"TOWNNAME":"麻豆區","LI":"興農里","LIN":"11鄰","STREET":"新生南路","SECT":" ","MAREA":" ","LANE":"１２９巷","ALLEY":" ","HOUSE_NO":"１８號","E_COORD97":172402.79999999999,"N_COORD97":2564573.8599999999,"ADDRESS":"新生南路１２９巷１８號","OBJECTID":399090},"geometry":{"x":172402.79999999981,"y":2564573.8600000031}},{"attributes":{"ID":399115,"DIS_CODE":0,"TOWNNAME":"麻豆區","LI":"興農里","LIN":"11鄰","STREET":"新生南路","SECT":" ","MAREA":" ","LANE":"１２９巷","ALLEY":" ","HOUSE_NO":"１９號","E_COORD97":172385.85000000001,"N_COORD97":2564621.8599999999,"ADDRESS":"新生南路１２９巷１９號","OBJECTID":399091},"geometry":{"x":172385.85000000149,"y":2564621.8600000013}},{"attributes":{"ID":399116,"DIS_CODE":0,"TOWNNAME":"麻豆區","LI":"興農里","LIN":"11鄰","STREET":"新生南路","SECT":" ","MAREA":" ","LANE":"１２９巷","ALLEY":" ","HOUSE_NO":"１號","E_COORD97":172371.78,"N_COORD97":2564592.8799999999,"ADDRESS":"新生南路１２９巷１號","OBJECTID":399092},"geometry":{"x":172371.78000000212,"y":2564592.879999999}},{"attributes":{"ID":399117,"DIS_CODE":0,"TOWNNAME":"麻豆區","LI":"興農里","LIN":"11鄰","STREET":"新生南路","SECT":" ","MAREA":" ","LANE":"１２９巷","ALLEY":" ","HOUSE_NO":"２１號","E_COORD97":172385.60999999999,"N_COORD97":2564625.9500000002,"ADDRESS":"新生南路１２９巷２１號","OBJECTID":399093},"geometry":{"x":172385.61000000127,"y":2564625.9499999993}},{"attributes":{"ID":399118,"DIS_CODE":0,"TOWNNAME":"麻豆區","LI":"興農里","LIN":"11鄰","STREET":"新生南路","SECT":" ","MAREA":" ","LANE":"１２９巷","ALLEY":" ","HOUSE_NO":"２３號","E_COORD97":172384.92000000001,"N_COORD97":2564630.0699999998,"ADDRESS":"新生南路１２９巷２３號","OBJECTID":399094},"geometry":{"x":172384.91999999993,"y":2564630.0700000003}},{"attributes":{"ID":399119,"DIS_CODE":0,"TOWNNAME":"麻豆區","LI":"興農里","LIN":"11鄰","STREET":"新生南路","SECT":" ","MAREA":" ","LANE":"１２９巷","ALLEY":" ","HOUSE_NO":"２５號","E_COORD97":172407.13,"N_COORD97":2564624.25,"ADDRESS":"新生南路１２９巷２５號","OBJECTID":399095},"geometry":{"x":172407.12999999989,"y":2564624.25}},{"attributes":{"ID":399120,"DIS_CODE":0,"TOWNNAME":"麻豆區","LI":"興農里","LIN":"11鄰","STREET":"新生南路","SECT":" ","MAREA":" ","LANE":"１２９巷","ALLEY":" ","HOUSE_NO":"２７號","E_COORD97":172407.39999999999,"N_COORD97":2564620.1000000001,"ADDRESS":"新生南路１２９巷２７號","OBJECTID":399096},"geometry":{"x":172407.4000000013,"y":2564620.1000000015}},{"attributes":{"ID":399121,"DIS_CODE":0,"TOWNNAME":"麻豆區","LI":"興農里","LIN":"11鄰","STREET":"新生南路","SECT":" ","MAREA":" ","LANE":"１２９巷","ALLEY":" ","HOUSE_NO":"２９號","E_COORD97":172407.64999999999,"N_COORD97":2564615.75,"ADDRESS":"新生南路１２９巷２９號","OBJECTID":399097},"geometry":{"x":172407.65000000037,"y":2564615.7500000037}},{"attributes":{"ID":399122,"DIS_CODE":0,"TOWNNAME":"麻豆區","LI":"興農里","LIN":"11鄰","STREET":"新生南路","SECT":" ","MAREA":" ","LANE":"１２９巷","ALLEY":" ","HOUSE_NO":"３１號","E_COORD97":172408.22,"N_COORD97":2564611.7400000002,"ADDRESS":"新生南路１２９巷３１號","OBJECTID":399098},"geometry":{"x":172408.21999999974,"y":2564611.7400000002}},{"attributes":{"ID":399123,"DIS_CODE":0,"TOWNNAME":"麻豆區","LI":"興農里","LIN":"11鄰","STREET":"新生南路","SECT":" ","MAREA":" ","LANE":"１２９巷","ALLEY":" ","HOUSE_NO":"３３號","E_COORD97":172408.57000000001,"N_COORD97":2564607.2999999998,"ADDRESS":"新生南路１２９巷３３號","OBJECTID":399099},"geometry":{"x":172408.5700000003,"y":2564607.3000000026}},{"attributes":{"ID":399124,"DIS_CODE":0,"TOWNNAME":"麻豆區","LI":"興農里","LIN":"11鄰","STREET":"新生南路","SECT":" ","MAREA":" ","LANE":"１２９巷","ALLEY":" ","HOUSE_NO":"３５號","E_COORD97":172408.79000000001,"N_COORD97":2564603.3700000001,"ADDRESS":"新生南路１２９巷３５號","OBJECTID":399100},"geometry":{"x":172408.7900000019,"y":2564603.3700000029}},{"attributes":{"ID":399125,"DIS_CODE":0,"TOWNNAME":"麻豆區","LI":"興農里","LIN":"11鄰","STREET":"新生南路","SECT":" ","MAREA":" ","LANE":"１２９巷","ALLEY":" ","HOUSE_NO":"３號","E_COORD97":172375.91,"N_COORD97":2564593.4700000002,"ADDRESS":"新生南路１２９巷３號","OBJECTID":399101},"geometry":{"x":172375.91000000108,"y":2564593.4700000007}},{"attributes":{"ID":399126,"DIS_CODE":0,"TOWNNAME":"麻豆區","LI":"興農里","LIN":"11鄰","STREET":"新生南路","SECT":" ","MAREA":" ","LANE":"１２９巷","ALLEY":" ","HOUSE_NO":"５號","E_COORD97":172380.47,"N_COORD97":2564594.0800000001,"ADDRESS":"新生南路１２９巷５號","OBJECTID":399102},"geometry":{"x":172380.47000000067,"y":2564594.0800000019}},{"attributes":{"ID":399127,"DIS_CODE":0,"TOWNNAME":"麻豆區","LI":"興農里","LIN":"11鄰","STREET":"新生南路","SECT":" ","MAREA":" ","LANE":"１２９巷","ALLEY":" ","HOUSE_NO":"７號","E_COORD97":172384.64000000001,"N_COORD97":2564594.73,"ADDRESS":"新生南路１２９巷７號","OBJECTID":399103},"geometry":{"x":172384.6400000006,"y":2564594.7300000004}},{"attributes":{"ID":399128,"DIS_CODE":0,"TOWNNAME":"新營區","LI":"大宏里","LIN":"11鄰","STREET":"三民路","SECT":" ","MAREA":" ","LANE":"８巷","ALLEY":" ","HOUSE_NO":"２３號","E_COORD97":180506.20000000001,"N_COORD97":2578568.1200000001,"ADDRESS":"三民路８巷２３號","OBJECTID":399104},"geometry":{"x":180506.20000000112,"y":2578568.120000001}},{"attributes":{"ID":399129,"DIS_CODE":0,"TOWNNAME":"麻豆區","LI":"興農里","LIN":"11鄰","STREET":"新生南路","SECT":" ","MAREA":" ","LANE":"１２９巷","ALLEY":" ","HOUSE_NO":"９號","E_COORD97":172388.29000000001,"N_COORD97":2564595.2200000002,"ADDRESS":"新生南路１２９巷９號","OBJECTID":399105},"geometry":{"x":172388.2900000019,"y":2564595.2200000007}},{"attributes":{"ID":399130,"DIS_CODE":0,"TOWNNAME":"歸仁區","LI":"南保里","LIN":"11鄰","STREET":"文化十街","SECT":" ","MAREA":" ","LANE":"１０巷","ALLEY":" ","HOUSE_NO":"５６號","E_COORD97":176722.98999999999,"N_COORD97":2541258.3300000001,"ADDRESS":"文化十街１０巷５６號","OBJECTID":399106},"geometry":{"x":176722.99000000022,"y":2541258.3300000001}},{"attributes":{"ID":399131,"DIS_CODE":0,"TOWNNAME":"歸仁區","LI":"後市里","LIN":"11鄰","STREET":"民權七街","SECT":" ","MAREA":" ","LANE":"２５巷","ALLEY":" ","HOUSE_NO":"１號","E_COORD97":177050.09,"N_COORD97":2540746.25,"ADDRESS":"民權七街２５巷１號","OBJECTID":399107},"geometry":{"x":177050.09000000078,"y":2540746.25}},{"attributes":{"ID":399132,"DIS_CODE":0,"TOWNNAME":"歸仁區","LI":"西埔里","LIN":"11鄰","STREET":"西埔一街","SECT":" ","MAREA":" ","LANE":"２３０巷","ALLEY":" ","HOUSE_NO":"２２號","E_COORD97":177113.91,"N_COORD97":2544662.9700000002,"ADDRESS":"西埔一街２３０巷２２號","OBJECTID":399108},"geometry":{"x":177113.91000000201,"y":2544662.9700000025}},{"attributes":{"ID":399133,"DIS_CODE":0,"TOWNNAME":"歸仁區","LI":"南興里","LIN":"11鄰","STREET":"民生二街","SECT":" ","MAREA":" ","LANE":"１４６巷","ALLEY":" ","HOUSE_NO":"１４號","E_COORD97":176043.89000000001,"N_COORD97":2541381.29,"ADDRESS":"民生二街１４６巷１４號","OBJECTID":399109},"geometry":{"x":176043.89000000153,"y":2541381.290000001}},{"attributes":{"ID":399134,"DIS_CODE":0,"TOWNNAME":"歸仁區","LI":"後市里","LIN":"11鄰","STREET":"民權七街","SECT":" ","MAREA":" ","LANE":"９巷","ALLEY":" ","HOUSE_NO":"６號","E_COORD97":177028.34,"N_COORD97":2540751.25,"ADDRESS":"民權七街９巷６號","OBJECTID":399110},"geometry":{"x":177028.34000000078,"y":2540751.2500000019}},{"attributes":{"ID":399135,"DIS_CODE":0,"TOWNNAME":"歸仁區","LI":"南興里","LIN":"11鄰","STREET":"民生二街","SECT":" ","MAREA":" ","LANE":"１４６巷","ALLEY":" ","HOUSE_NO":"２６號","E_COORD97":176004.89000000001,"N_COORD97":2541381.29,"ADDRESS":"民生二街１４６巷２６號","OBJECTID":399111},"geometry":{"x":176004.89000000153,"y":2541381.290000001}},{"attributes":{"ID":399136,"DIS_CODE":0,"TOWNNAME":"歸仁區","LI":"後市里","LIN":"11鄰","STREET":"民權七街","SECT":" ","MAREA":" ","LANE":"２５巷","ALLEY":" ","HOUSE_NO":"５號","E_COORD97":177050.09,"N_COORD97":2540754.25,"ADDRESS":"民權七街２５巷５號","OBJECTID":399112},"geometry":{"x":177050.09000000078,"y":2540754.2500000037}},{"attributes":{"ID":399137,"DIS_CODE":0,"TOWNNAME":"歸仁區","LI":"南保里","LIN":"11鄰","STREET":"文化街","SECT":"三段","MAREA":" ","LANE":"１６０巷","ALLEY":" ","HOUSE_NO":"８號","E_COORD97":176649.23999999999,"N_COORD97":2541232.3300000001,"ADDRESS":"文化街三段１６０巷８號","OBJECTID":399113},"geometry":{"x":176649.24000000115,"y":2541232.3300000019}},{"attributes":{"ID":399138,"DIS_CODE":0,"TOWNNAME":"歸仁區","LI":"南保里","LIN":"11鄰","STREET":"文化十街","SECT":" ","MAREA":" ","LANE":"１０巷","ALLEY":" ","HOUSE_NO":"２號","E_COORD97":176555.64000000001,"N_COORD97":2541263.3300000001,"ADDRESS":"文化十街１０巷２號","OBJECTID":399114},"geometry":{"x":176555.63999999873,"y":2541263.3300000019}},{"attributes":{"ID":399139,"DIS_CODE":0,"TOWNNAME":"歸仁區","LI":"南保里","LIN":"11鄰","STREET":"文化十街","SECT":" ","MAREA":" ","LANE":"１０巷","ALLEY":" ","HOUSE_NO":"８號","E_COORD97":176574.14000000001,"N_COORD97":2541264.3300000001,"ADDRESS":"文化十街１０巷８號","OBJECTID":399115},"geometry":{"x":176574.13999999966,"y":2541264.3300000001}},{"attributes":{"ID":399140,"DIS_CODE":0,"TOWNNAME":"歸仁區","LI":"南興里","LIN":"11鄰","STREET":"民生二街","SECT":" ","MAREA":" ","LANE":"１４６巷","ALLEY":" ","HOUSE_NO":"２２號","E_COORD97":176016.19,"N_COORD97":2541381.29,"ADDRESS":"民生二街１４６巷２２號","OBJECTID":399116},"geometry":{"x":176016.19000000134,"y":2541381.290000001}},{"attributes":{"ID":399141,"DIS_CODE":0,"TOWNNAME":"歸仁區","LI":"西埔里","LIN":"11鄰","STREET":"西埔一街","SECT":" ","MAREA":" ","LANE":"２３０巷","ALLEY":" ","HOUSE_NO":"２８號","E_COORD97":177086.31,"N_COORD97":2544676.9700000002,"ADDRESS":"西埔一街２３０巷２８號","OBJECTID":399117},"geometry":{"x":177086.30999999959,"y":2544676.9700000025}},{"attributes":{"ID":399142,"DIS_CODE":0,"TOWNNAME":"歸仁區","LI":"後市里","LIN":"11鄰","STREET":"民權七街","SECT":" ","MAREA":" ","LANE":"９巷","ALLEY":" ","HOUSE_NO":"８號","E_COORD97":177028.34,"N_COORD97":2540755.25,"ADDRESS":"民權七街９巷８號","OBJECTID":399118},"geometry":{"x":177028.34000000078,"y":2540755.2500000019}},{"attributes":{"ID":399143,"DIS_CODE":0,"TOWNNAME":"歸仁區","LI":"歸南里","LIN":"11鄰","STREET":"民生南街","SECT":"二段","MAREA":" ","LANE":"１９１巷","ALLEY":" ","HOUSE_NO":"８號","E_COORD97":176105.16,"N_COORD97":2540149.25,"ADDRESS":"民生南街二段１９１巷８號","OBJECTID":399119},"geometry":{"x":176105.16000000201,"y":2540149.25}},{"attributes":{"ID":399144,"DIS_CODE":0,"TOWNNAME":"歸仁區","LI":"歸南里","LIN":"11鄰","STREET":"民生南街","SECT":"二段","MAREA":" ","LANE":"１９１巷","ALLEY":" ","HOUSE_NO":"２５號","E_COORD97":176140.31,"N_COORD97":2540164.25,"ADDRESS":"民生南街二段１９１巷２５號","OBJECTID":399120},"geometry":{"x":176140.30999999959,"y":2540164.2500000037}},{"attributes":{"ID":399145,"DIS_CODE":0,"TOWNNAME":"歸仁區","LI":"歸南里","LIN":"11鄰","STREET":"民生南街","SECT":"二段","MAREA":" ","LANE":"１９１巷","ALLEY":" ","HOUSE_NO":"２７號","E_COORD97":176144.51000000001,"N_COORD97":2540166.25,"ADDRESS":"民生南街二段１９１巷２７號","OBJECTID":399121},"geometry":{"x":176144.50999999978,"y":2540166.25}},{"attributes":{"ID":399146,"DIS_CODE":0,"TOWNNAME":"歸仁區","LI":"歸南里","LIN":"11鄰","STREET":"民生南街","SECT":"二段","MAREA":" ","LANE":"２０３巷","ALLEY":" ","HOUSE_NO":"２號","E_COORD97":176106.06,"N_COORD97":2540125.25,"ADDRESS":"民生南街二段２０３巷２號","OBJECTID":399122},"geometry":{"x":176106.06000000052,"y":2540125.2500000019}},{"attributes":{"ID":399147,"DIS_CODE":0,"TOWNNAME":"歸仁區","LI":"歸南里","LIN":"11鄰","STREET":"民生南街","SECT":"二段","MAREA":" ","LANE":"１９１巷","ALLEY":" ","HOUSE_NO":"３１號","E_COORD97":176152.70999999999,"N_COORD97":2540167.25,"ADDRESS":"民生南街二段１９１巷３１號","OBJECTID":399123},"geometry":{"x":176152.71000000089,"y":2540167.25}},{"attributes":{"ID":399148,"DIS_CODE":0,"TOWNNAME":"歸仁區","LI":"歸南里","LIN":"11鄰","STREET":"民生南街","SECT":"二段","MAREA":" ","LANE":"２０３巷","ALLEY":" ","HOUSE_NO":"１０號","E_COORD97":176121.70999999999,"N_COORD97":2540125.25,"ADDRESS":"民生南街二段２０３巷１０號","OBJECTID":399124},"geometry":{"x":176121.71000000183,"y":2540125.2500000019}},{"attributes":{"ID":399149,"DIS_CODE":0,"TOWNNAME":"歸仁區","LI":"歸南里","LIN":"11鄰","STREET":"民生南街","SECT":"二段","MAREA":" ","LANE":"１９１巷","ALLEY":" ","HOUSE_NO":"１８號","E_COORD97":176125.91,"N_COORD97":2540150.25,"ADDRESS":"民生南街二段１９１巷１８號","OBJECTID":399125},"geometry":{"x":176125.91000000108,"y":2540150.25}},{"attributes":{"ID":399150,"DIS_CODE":0,"TOWNNAME":"歸仁區","LI":"崙頂里","LIN":"11鄰","STREET":"成功路","SECT":"二段","MAREA":" ","LANE":"１３１巷","ALLEY":" ","HOUSE_NO":"１６號","E_COORD97":178016.42999999999,"N_COORD97":2539689.25,"ADDRESS":"成功路二段１３１巷１６號","OBJECTID":399126},"geometry":{"x":178016.4299999997,"y":2539689.25}},{"attributes":{"ID":399151,"DIS_CODE":0,"TOWNNAME":"歸仁區","LI":"崙頂里","LIN":"11鄰","STREET":"成功路","SECT":"二段","MAREA":" ","LANE":"１３１巷","ALLEY":" ","HOUSE_NO":"２５號","E_COORD97":178046.32999999999,"N_COORD97":2539705.25,"ADDRESS":"成功路二段１３１巷２５號","OBJECTID":399127},"geometry":{"x":178046.33000000007,"y":2539705.25}},{"attributes":{"ID":399152,"DIS_CODE":0,"TOWNNAME":"歸仁區","LI":"崙頂里","LIN":"11鄰","STREET":"成功路","SECT":"二段","MAREA":" ","LANE":"１３１巷","ALLEY":" ","HOUSE_NO":"２３號","E_COORD97":178042.13,"N_COORD97":2539705.25,"ADDRESS":"成功路二段１３１巷２３號","OBJECTID":399128},"geometry":{"x":178042.12999999989,"y":2539705.25}},{"attributes":{"ID":399153,"DIS_CODE":0,"TOWNNAME":"歸仁區","LI":"崙頂里","LIN":"11鄰","STREET":"成功路","SECT":"二段","MAREA":" ","LANE":"１３１巷","ALLEY":" ","HOUSE_NO":"１９號","E_COORD97":178032.92999999999,"N_COORD97":2539706.25,"ADDRESS":"成功路二段１３１巷１９號","OBJECTID":399129},"geometry":{"x":178032.9299999997,"y":2539706.25}},{"attributes":{"ID":399154,"DIS_CODE":0,"TOWNNAME":"歸仁區","LI":"歸南里","LIN":"11鄰","STREET":"民生南街","SECT":"二段","MAREA":" ","LANE":"１９１巷","ALLEY":" ","HOUSE_NO":"３７號","E_COORD97":176164.01000000001,"N_COORD97":2540170.25,"ADDRESS":"民生南街二段１９１巷３７號","OBJECTID":399130},"geometry":{"x":176164.01000000071,"y":2540170.25}},{"attributes":{"ID":399155,"DIS_CODE":0,"TOWNNAME":"中西區","LI":"藥王里","LIN":"1鄰","STREET":"金華路","SECT":"四段","MAREA":" ","LANE":"４７巷","ALLEY":" ","HOUSE_NO":"２２號","E_COORD97":167392.67999999999,"N_COORD97":2544301.54,"ADDRESS":"金華路四段４７巷２２號","OBJECTID":399131},"geometry":{"x":167392.6799999997,"y":2544301.540000001}},{"attributes":{"ID":399156,"DIS_CODE":0,"TOWNNAME":"中西區","LI":"藥王里","LIN":"1鄰","STREET":"金華路","SECT":"四段","MAREA":" ","LANE":"４７巷","ALLEY":" ","HOUSE_NO":"２４號","E_COORD97":167389.04999999999,"N_COORD97":2544297.6699999999,"ADDRESS":"金華路四段４７巷２４號","OBJECTID":399132},"geometry":{"x":167389.05000000075,"y":2544297.6700000037}},{"attributes":{"ID":399157,"DIS_CODE":0,"TOWNNAME":"歸仁區","LI":"南保里","LIN":"11鄰","STREET":"文化十街","SECT":" ","MAREA":" ","LANE":"１０巷","ALLEY":" ","HOUSE_NO":"５０號","E_COORD97":176696.67000000001,"N_COORD97":2541256.2599999998,"ADDRESS":"文化十街１０巷５０號","OBJECTID":399133},"geometry":{"x":176696.67000000086,"y":2541256.2600000016}},{"attributes":{"ID":399158,"DIS_CODE":0,"TOWNNAME":"歸仁區","LI":"媽廟里","LIN":"11鄰","STREET":"中正北路","SECT":"三段","MAREA":" ","LANE":"２０５巷","ALLEY":" ","HOUSE_NO":"６４號","E_COORD97":177389.60999999999,"N_COORD97":2543922.7200000002,"ADDRESS":"中正北路三段２０５巷６４號","OBJECTID":399134},"geometry":{"x":177389.61000000127,"y":2543922.7200000025}},{"attributes":{"ID":399159,"DIS_CODE":0,"TOWNNAME":"歸仁區","LI":"崙頂里","LIN":"11鄰","STREET":"成功路","SECT":"二段","MAREA":" ","LANE":"１３１巷","ALLEY":" ","HOUSE_NO":"３３號","E_COORD97":178064.73000000001,"N_COORD97":2539706.25,"ADDRESS":"成功路二段１３１巷３３號","OBJECTID":399135},"geometry":{"x":178064.73000000231,"y":2539706.25}},{"attributes":{"ID":399160,"DIS_CODE":0,"TOWNNAME":"歸仁區","LI":"南興里","LIN":"11鄰","STREET":"民生二街","SECT":" ","MAREA":" ","LANE":"１４６巷","ALLEY":" ","HOUSE_NO":"２０號","E_COORD97":176022.39000000001,"N_COORD97":2541381.29,"ADDRESS":"民生二街１４６巷２０號","OBJECTID":399136},"geometry":{"x":176022.3900000006,"y":2541381.290000001}},{"attributes":{"ID":399161,"DIS_CODE":0,"TOWNNAME":"歸仁區","LI":"南興里","LIN":"11鄰","STREET":"民生二街","SECT":" ","MAREA":" ","LANE":"１４６巷","ALLEY":" ","HOUSE_NO":"１０號","E_COORD97":176055.19,"N_COORD97":2541381.29,"ADDRESS":"民生二街１４６巷１０號","OBJECTID":399137},"geometry":{"x":176055.19000000134,"y":2541381.290000001}},{"attributes":{"ID":399162,"DIS_CODE":0,"TOWNNAME":"歸仁區","LI":"南興里","LIN":"11鄰","STREET":"民生二街","SECT":" ","MAREA":" ","LANE":"１４６巷","ALLEY":" ","HOUSE_NO":"１９號","E_COORD97":176013.09,"N_COORD97":2541368.29,"ADDRESS":"民生二街１４６巷１９號","OBJECTID":399138},"geometry":{"x":176013.08999999985,"y":2541368.290000001}},{"attributes":{"ID":399163,"DIS_CODE":0,"TOWNNAME":"歸仁區","LI":"六甲里","LIN":"11鄰","STREET":"中正南路","SECT":"一段","MAREA":" ","LANE":"１０１７巷","ALLEY":" ","HOUSE_NO":"１４號","E_COORD97":176038.70000000001,"N_COORD97":2539144.2799999998,"ADDRESS":"中正南路一段１０１７巷１４號","OBJECTID":399139},"geometry":{"x":176038.69999999925,"y":2539144.2800000012}},{"attributes":{"ID":399164,"DIS_CODE":0,"TOWNNAME":"歸仁區","LI":"南保里","LIN":"11鄰","STREET":"文化十街","SECT":" ","MAREA":" ","LANE":"１０巷","ALLEY":" ","HOUSE_NO":"１８號","E_COORD97":176615.29000000001,"N_COORD97":2541259.3300000001,"ADDRESS":"文化十街１０巷１８號","OBJECTID":399140},"geometry":{"x":176615.29000000004,"y":2541259.3300000019}},{"attributes":{"ID":399165,"DIS_CODE":0,"TOWNNAME":"歸仁區","LI":"南興里","LIN":"11鄰","STREET":"民生二街","SECT":" ","MAREA":" ","LANE":"１４６巷","ALLEY":" ","HOUSE_NO":"１８號","E_COORD97":176029.59,"N_COORD97":2541381.29,"ADDRESS":"民生二街１４６巷１８號","OBJECTID":399141},"geometry":{"x":176029.59000000078,"y":2541381.290000001}},{"attributes":{"ID":399166,"DIS_CODE":0,"TOWNNAME":"歸仁區","LI":"南興里","LIN":"11鄰","STREET":"民生二街","SECT":" ","MAREA":" ","LANE":"１４６巷","ALLEY":" ","HOUSE_NO":"３０號","E_COORD97":175992.59,"N_COORD97":2541381.29,"ADDRESS":"民生二街１４６巷３０號","OBJECTID":399142},"geometry":{"x":175992.59000000078,"y":2541381.290000001}},{"attributes":{"ID":399167,"DIS_CODE":0,"TOWNNAME":"歸仁區","LI":"南保里","LIN":"11鄰","STREET":"文化十街","SECT":" ","MAREA":" ","LANE":"１０巷","ALLEY":" ","HOUSE_NO":"４８號","E_COORD97":176700.39000000001,"N_COORD97":2541258.3300000001,"ADDRESS":"文化十街１０巷４８號","OBJECTID":399143},"geometry":{"x":176700.3900000006,"y":2541258.3300000001}},{"attributes":{"ID":399168,"DIS_CODE":0,"TOWNNAME":"歸仁區","LI":"南保里","LIN":"11鄰","STREET":"文化十街","SECT":" ","MAREA":" ","LANE":"１０巷","ALLEY":" ","HOUSE_NO":"２４號","E_COORD97":176632.69,"N_COORD97":2541257.3300000001,"ADDRESS":"文化十街１０巷２４號","OBJECTID":399144},"geometry":{"x":176632.69000000134,"y":2541257.3300000001}},{"attributes":{"ID":399169,"DIS_CODE":0,"TOWNNAME":"歸仁區","LI":"六甲里","LIN":"11鄰","STREET":"中正南路","SECT":"一段","MAREA":" ","LANE":"１０４５巷","ALLEY":" ","HOUSE_NO":"２８號","E_COORD97":176034.29999999999,"N_COORD97":2539099.2799999998,"ADDRESS":"中正南路一段１０４５巷２８號","OBJECTID":399145},"geometry":{"x":176034.29999999888,"y":2539099.2800000012}},{"attributes":{"ID":399170,"DIS_CODE":0,"TOWNNAME":"歸仁區","LI":"南保里","LIN":"11鄰","STREET":"文化十街","SECT":" ","MAREA":" ","LANE":"１０巷","ALLEY":" ","HOUSE_NO":"３４號","E_COORD97":176664.48999999999,"N_COORD97":2541255.3300000001,"ADDRESS":"文化十街１０巷３４號","OBJECTID":399146},"geometry":{"x":176664.49000000115,"y":2541255.3299999982}},{"attributes":{"ID":399171,"DIS_CODE":0,"TOWNNAME":"歸仁區","LI":"南保里","LIN":"11鄰","STREET":"文化十街","SECT":" ","MAREA":" ","LANE":"１０巷","ALLEY":" ","HOUSE_NO":"１４號","E_COORD97":176598.89000000001,"N_COORD97":2541260.3300000001,"ADDRESS":"文化十街１０巷１４號","OBJECTID":399147},"geometry":{"x":176598.8900000006,"y":2541260.3300000019}},{"attributes":{"ID":399172,"DIS_CODE":0,"TOWNNAME":"歸仁區","LI":"南保里","LIN":"11鄰","STREET":"文化十街","SECT":" ","MAREA":" ","LANE":"１０巷","ALLEY":" ","HOUSE_NO":"１０號","E_COORD97":176578.39000000001,"N_COORD97":2541264.3300000001,"ADDRESS":"文化十街１０巷１０號","OBJECTID":399148},"geometry":{"x":176578.3900000006,"y":2541264.3300000001}},{"attributes":{"ID":399173,"DIS_CODE":0,"TOWNNAME":"歸仁區","LI":"南興里","LIN":"11鄰","STREET":"民生二街","SECT":" ","MAREA":" ","LANE":"１４６巷","ALLEY":" ","HOUSE_NO":"３２號","E_COORD97":175985.48999999999,"N_COORD97":2541381.29,"ADDRESS":"民生二街１４６巷３２號","OBJECTID":399149},"geometry":{"x":175985.49000000022,"y":2541381.290000001}},{"attributes":{"ID":399174,"DIS_CODE":0,"TOWNNAME":"歸仁區","LI":"南興里","LIN":"11鄰","STREET":"民生二街","SECT":" ","MAREA":" ","LANE":"１４６巷","ALLEY":" ","HOUSE_NO":"２４號","E_COORD97":176010.09,"N_COORD97":2541381.29,"ADDRESS":"民生二街１４６巷２４號","OBJECTID":399150},"geometry":{"x":176010.08999999985,"y":2541381.290000001}},{"attributes":{"ID":399175,"DIS_CODE":0,"TOWNNAME":"歸仁區","LI":"南興里","LIN":"11鄰","STREET":"民生二街","SECT":" ","MAREA":" ","LANE":"１４６巷","ALLEY":" ","HOUSE_NO":"８號","E_COORD97":176060.04000000001,"N_COORD97":2541381.29,"ADDRESS":"民生二街１４６巷８號","OBJECTID":399151},"geometry":{"x":176060.0400000019,"y":2541381.290000001}},{"attributes":{"ID":399176,"DIS_CODE":0,"TOWNNAME":"歸仁區","LI":"六甲里","LIN":"11鄰","STREET":"中正南路","SECT":"一段","MAREA":" ","LANE":"１２０１巷","ALLEY":" ","HOUSE_NO":"９５號","E_COORD97":176140.54000000001,"N_COORD97":2538705.8300000001,"ADDRESS":"中正南路一段１２０１巷９５號","OBJECTID":399152},"geometry":{"x":176140.54000000097,"y":2538705.8299999982}},{"attributes":{"ID":399177,"DIS_CODE":0,"TOWNNAME":"歸仁區","LI":"六甲里","LIN":"11鄰","STREET":"中正南路","SECT":"一段","MAREA":" ","LANE":"１０１７巷","ALLEY":" ","HOUSE_NO":"１２號","E_COORD97":176034.5,"N_COORD97":2539144.2799999998,"ADDRESS":"中正南路一段１０１７巷１２號","OBJECTID":399153},"geometry":{"x":176034.5,"y":2539144.2800000012}},{"attributes":{"ID":399178,"DIS_CODE":0,"TOWNNAME":"歸仁區","LI":"崙頂里","LIN":"11鄰","STREET":"成功路","SECT":"二段","MAREA":" ","LANE":"１３１巷","ALLEY":" ","HOUSE_NO":"１３號","E_COORD97":178019.63,"N_COORD97":2539709.25,"ADDRESS":"成功路二段１３１巷１３號","OBJECTID":399154},"geometry":{"x":178019.63000000082,"y":2539709.25}},{"attributes":{"ID":399179,"DIS_CODE":0,"TOWNNAME":"歸仁區","LI":"大潭里","LIN":"11鄰","STREET":"大潭二街","SECT":" ","MAREA":" ","LANE":"２３巷","ALLEY":" ","HOUSE_NO":"１號","E_COORD97":175065.76000000001,"N_COORD97":2534679.25,"ADDRESS":"大潭二街２３巷１號","OBJECTID":399155},"geometry":{"x":175065.76000000071,"y":2534679.2500000019}},{"attributes":{"ID":399180,"DIS_CODE":0,"TOWNNAME":"歸仁區","LI":"六甲里","LIN":"11鄰","STREET":"中正南路","SECT":"一段","MAREA":" ","LANE":"１０４５巷","ALLEY":" ","HOUSE_NO":"２６號","E_COORD97":176030.20000000001,"N_COORD97":2539099.2799999998,"ADDRESS":"中正南路一段１０４５巷２６號","OBJECTID":399156},"geometry":{"x":176030.20000000019,"y":2539099.2800000012}},{"attributes":{"ID":399181,"DIS_CODE":0,"TOWNNAME":"新營區","LI":"南紙里","LIN":"11鄰","STREET":"太子路","SECT":" ","MAREA":" ","LANE":"２００巷","ALLEY":" ","HOUSE_NO":"１３號","E_COORD97":177885.42999999999,"N_COORD97":2577908.4199999999,"ADDRESS":"太子路２００巷１３號","OBJECTID":399157},"geometry":{"x":177885.4299999997,"y":2577908.4200000037}},{"attributes":{"ID":399182,"DIS_CODE":0,"TOWNNAME":"新營區","LI":"南紙里","LIN":"11鄰","STREET":"太子路","SECT":" ","MAREA":" ","LANE":"２００巷","ALLEY":" ","HOUSE_NO":"１５號","E_COORD97":177883.39999999999,"N_COORD97":2577912.8599999999,"ADDRESS":"太子路２００巷１５號","OBJECTID":399158},"geometry":{"x":177883.40000000037,"y":2577912.8600000013}},{"attributes":{"ID":399183,"DIS_CODE":0,"TOWNNAME":"中西區","LI":"西湖里","LIN":"28鄰","STREET":"湖美街","SECT":" ","MAREA":" ","LANE":"７０巷","ALLEY":" ","HOUSE_NO":"２５號","E_COORD97":166004.10000000001,"N_COORD97":2544766.6200000001,"ADDRESS":"湖美街７０巷２５號","OBJECTID":399159},"geometry":{"x":166004.10000000056,"y":2544766.620000001}},{"attributes":{"ID":399184,"DIS_CODE":0,"TOWNNAME":"中西區","LI":"西湖里","LIN":"28鄰","STREET":"湖美街","SECT":" ","MAREA":" ","LANE":"７０巷","ALLEY":" ","HOUSE_NO":"２７號","E_COORD97":166008.12,"N_COORD97":2544767.1600000001,"ADDRESS":"湖美街７０巷２７號","OBJECTID":399160},"geometry":{"x":166008.12000000011,"y":2544767.160000002}},{"attributes":{"ID":399185,"DIS_CODE":0,"TOWNNAME":"中西區","LI":"西湖里","LIN":"28鄰","STREET":"湖美街","SECT":" ","MAREA":" ","LANE":"７０巷","ALLEY":" ","HOUSE_NO":"２９號","E_COORD97":166012.92999999999,"N_COORD97":2544767.96,"ADDRESS":"湖美街７０巷２９號","OBJECTID":399161},"geometry":{"x":166012.9299999997,"y":2544767.9600000046}},{"attributes":{"ID":399186,"DIS_CODE":0,"TOWNNAME":"中西區","LI":"西湖里","LIN":"28鄰","STREET":"湖美街","SECT":" ","MAREA":" ","LANE":"７０巷","ALLEY":" ","HOUSE_NO":"３１號","E_COORD97":166016.67000000001,"N_COORD97":2544766.8900000001,"ADDRESS":"湖美街７０巷３１號","OBJECTID":399162},"geometry":{"x":166016.66999999899,"y":2544766.8900000006}},{"attributes":{"ID":399187,"DIS_CODE":0,"TOWNNAME":"中西區","LI":"西湖里","LIN":"28鄰","STREET":"湖美街","SECT":" ","MAREA":" ","LANE":"７０巷","ALLEY":" ","HOUSE_NO":"３３號","E_COORD97":166020.95000000001,"N_COORD97":2544768.2200000002,"ADDRESS":"湖美街７０巷３３號","OBJECTID":399163},"geometry":{"x":166020.95000000112,"y":2544768.2200000007}},{"attributes":{"ID":399188,"DIS_CODE":0,"TOWNNAME":"中西區","LI":"西湖里","LIN":"28鄰","STREET":"湖美街","SECT":" ","MAREA":" ","LANE":"７０巷","ALLEY":" ","HOUSE_NO":"３號","E_COORD97":165957.57000000001,"N_COORD97":2544765.29,"ADDRESS":"湖美街７０巷３號","OBJECTID":399164},"geometry":{"x":165957.57000000123,"y":2544765.290000001}},{"attributes":{"ID":399189,"DIS_CODE":0,"TOWNNAME":"中西區","LI":"西湖里","LIN":"28鄰","STREET":"湖美街","SECT":" ","MAREA":" ","LANE":"７０巷","ALLEY":" ","HOUSE_NO":"５號","E_COORD97":165961.57999999999,"N_COORD97":2544765.29,"ADDRESS":"湖美街７０巷５號","OBJECTID":399165},"geometry":{"x":165961.58000000194,"y":2544765.290000001}},{"attributes":{"ID":399190,"DIS_CODE":0,"TOWNNAME":"中西區","LI":"西湖里","LIN":"28鄰","STREET":"湖美街","SECT":" ","MAREA":" ","LANE":"７０巷","ALLEY":" ","HOUSE_NO":"６號","E_COORD97":165965.32999999999,"N_COORD97":2544744.7200000002,"ADDRESS":"湖美街７０巷６號","OBJECTID":399166},"geometry":{"x":165965.33000000101,"y":2544744.7200000007}},{"attributes":{"ID":399191,"DIS_CODE":0,"TOWNNAME":"新營區","LI":"新北里","LIN":"11鄰","STREET":"三興街","SECT":" ","MAREA":" ","LANE":"３０１巷","ALLEY":" ","HOUSE_NO":"５４號","E_COORD97":179192.19,"N_COORD97":2579722.77,"ADDRESS":"三興街３０１巷５４號","OBJECTID":399167},"geometry":{"x":179192.19000000227,"y":2579722.7700000033}},{"attributes":{"ID":399192,"DIS_CODE":0,"TOWNNAME":"新營區","LI":"大宏里","LIN":"11鄰","STREET":"三民路","SECT":" ","MAREA":" ","LANE":"８巷","ALLEY":" ","HOUSE_NO":"４３號","E_COORD97":180582.04000000001,"N_COORD97":2578597.6600000001,"ADDRESS":"三民路８巷４３號","OBJECTID":399168},"geometry":{"x":180582.04000000004,"y":2578597.6600000001}},{"attributes":{"ID":399193,"DIS_CODE":0,"TOWNNAME":"新營區","LI":"大宏里","LIN":"11鄰","STREET":"三民路","SECT":" ","MAREA":" ","LANE":"８巷","ALLEY":" ","HOUSE_NO":"２１號","E_COORD97":180514.39000000001,"N_COORD97":2578569.1899999999,"ADDRESS":"三民路８巷２１號","OBJECTID":399169},"geometry":{"x":180514.3900000006,"y":2578569.1899999995}},{"attributes":{"ID":399194,"DIS_CODE":0,"TOWNNAME":"新營區","LI":"大宏里","LIN":"11鄰","STREET":"三民路","SECT":" ","MAREA":" ","LANE":"８巷","ALLEY":" ","HOUSE_NO":"１９號","E_COORD97":180520.45000000001,"N_COORD97":2578569.1600000001,"ADDRESS":"三民路８巷１９號","OBJECTID":399170},"geometry":{"x":180520.45000000019,"y":2578569.160000002}},{"attributes":{"ID":399195,"DIS_CODE":0,"TOWNNAME":"新營區","LI":"王公里","LIN":"11鄰","STREET":"義和街","SECT":" ","MAREA":" ","LANE":"８巷","ALLEY":" ","HOUSE_NO":"７號","E_COORD97":180455.20999999999,"N_COORD97":2579094.3900000001,"ADDRESS":"義和街８巷７號","OBJECTID":399171},"geometry":{"x":180455.21000000089,"y":2579094.3900000006}},{"attributes":{"ID":399196,"DIS_CODE":0,"TOWNNAME":"新營區","LI":"大宏里","LIN":"11鄰","STREET":"三民路","SECT":" ","MAREA":" ","LANE":"８巷","ALLEY":" ","HOUSE_NO":"１３號","E_COORD97":180592.06,"N_COORD97":2578571.04,"ADDRESS":"三民路８巷１３號","OBJECTID":399172},"geometry":{"x":180592.05999999959,"y":2578571.0400000028}},{"attributes":{"ID":399197,"DIS_CODE":0,"TOWNNAME":"歸仁區","LI":"武東里","LIN":"11鄰","STREET":"中正南路","SECT":"二段","MAREA":" ","LANE":"２１４巷","ALLEY":" ","HOUSE_NO":"５１號","E_COORD97":175181.45999999999,"N_COORD97":2535503.2799999998,"ADDRESS":"中正南路二段２１４巷５１號","OBJECTID":399173},"geometry":{"x":175181.46000000089,"y":2535503.2800000012}},{"attributes":{"ID":399198,"DIS_CODE":0,"TOWNNAME":"歸仁區","LI":"七甲里","LIN":"11鄰","STREET":"南丁路","SECT":" ","MAREA":" ","LANE":"７８巷","ALLEY":" ","HOUSE_NO":"１０８號","E_COORD97":176451.44,"N_COORD97":2541727.25,"ADDRESS":"南丁路７８巷１０８號","OBJECTID":399174},"geometry":{"x":176451.44000000134,"y":2541727.2500000037}},{"attributes":{"ID":399199,"DIS_CODE":0,"TOWNNAME":"歸仁區","LI":"六甲里","LIN":"11鄰","STREET":"凱旋路","SECT":"三段","MAREA":" ","LANE":"１巷","ALLEY":" ","HOUSE_NO":"６６號","E_COORD97":176458.72,"N_COORD97":2539004.2799999998,"ADDRESS":"凱旋路三段１巷６６號","OBJECTID":399175},"geometry":{"x":176458.7200000016,"y":2539004.2800000012}},{"attributes":{"ID":399200,"DIS_CODE":0,"TOWNNAME":"歸仁區","LI":"南保里","LIN":"11鄰","STREET":"文化十街","SECT":" ","MAREA":" ","LANE":"１０巷","ALLEY":" ","HOUSE_NO":"１６號","E_COORD97":176606.09,"N_COORD97":2541260.3300000001,"ADDRESS":"文化十街１０巷１６號","OBJECTID":399176},"geometry":{"x":176606.09000000078,"y":2541260.3300000019}},{"attributes":{"ID":399201,"DIS_CODE":0,"TOWNNAME":"歸仁區","LI":"七甲里","LIN":"11鄰","STREET":"南丁路","SECT":" ","MAREA":" ","LANE":"７３巷","ALLEY":" ","HOUSE_NO":"１２０之１號","E_COORD97":175671.64000000001,"N_COORD97":2541752.2999999998,"ADDRESS":"南丁路７３巷１２０之１號","OBJECTID":399177},"geometry":{"x":175671.6400000006,"y":2541752.3000000026}},{"attributes":{"ID":399202,"DIS_CODE":0,"TOWNNAME":"歸仁區","LI":"看東里","LIN":"11鄰","STREET":"忠孝南路","SECT":" ","MAREA":" ","LANE":"１３９巷","ALLEY":" ","HOUSE_NO":"１號","E_COORD97":178573.60999999999,"N_COORD97":2540319.96,"ADDRESS":"忠孝南路１３９巷１號","OBJECTID":399178},"geometry":{"x":178573.61000000034,"y":2540319.9600000046}},{"attributes":{"ID":399203,"DIS_CODE":0,"TOWNNAME":"歸仁區","LI":"媽廟里","LIN":"11鄰","STREET":"中正北路","SECT":"三段","MAREA":" ","LANE":"２０５巷","ALLEY":" ","HOUSE_NO":"２６號","E_COORD97":177488.91,"N_COORD97":2543890.7200000002,"ADDRESS":"中正北路三段２０５巷２６號","OBJECTID":399179},"geometry":{"x":177488.91000000108,"y":2543890.7200000007}},{"attributes":{"ID":399204,"DIS_CODE":0,"TOWNNAME":"歸仁區","LI":"崙頂里","LIN":"11鄰","STREET":"成功路","SECT":"二段","MAREA":" ","LANE":"１３１巷","ALLEY":" ","HOUSE_NO":"２９號","E_COORD97":178055.53,"N_COORD97":2539703.25,"ADDRESS":"成功路二段１３１巷２９號","OBJECTID":399180},"geometry":{"x":178055.52999999933,"y":2539703.2500000037}},{"attributes":{"ID":399205,"DIS_CODE":0,"TOWNNAME":"關廟區","LI":"北勢里","LIN":"11鄰","STREET":"成功路","SECT":" ","MAREA":" ","LANE":"２６２巷","ALLEY":" ","HOUSE_NO":"１６號","E_COORD97":181516.51999999999,"N_COORD97":2540530.27,"ADDRESS":"成功路２６２巷１６號","OBJECTID":399181},"geometry":{"x":181516.52000000142,"y":2540530.2700000014}},{"attributes":{"ID":399206,"DIS_CODE":0,"TOWNNAME":"關廟區","LI":"東勢里","LIN":"11鄰","STREET":"旺萊路","SECT":" ","MAREA":" ","LANE":"３０６巷","ALLEY":" ","HOUSE_NO":"３０號","E_COORD97":182060.79000000001,"N_COORD97":2539449.25,"ADDRESS":"旺萊路３０６巷３０號","OBJECTID":399182},"geometry":{"x":182060.79000000004,"y":2539449.2500000019}},{"attributes":{"ID":399207,"DIS_CODE":0,"TOWNNAME":"關廟區","LI":"布袋里","LIN":"11鄰","STREET":"南雄南路","SECT":" ","MAREA":" ","LANE":"８５２巷","ALLEY":" ","HOUSE_NO":"１９２號","E_COORD97":182169.09,"N_COORD97":2533797.25,"ADDRESS":"南雄南路８５２巷１９２號","OBJECTID":399183},"geometry":{"x":182169.09000000171,"y":2533797.2500000037}},{"attributes":{"ID":399208,"DIS_CODE":0,"TOWNNAME":"關廟區","LI":"山西里","LIN":"11鄰","STREET":"南雄路","SECT":"二段","MAREA":" ","LANE":"４４５巷","ALLEY":" ","HOUSE_NO":"７號","E_COORD97":181070.59,"N_COORD97":2540700.2799999998,"ADDRESS":"南雄路二段４４５巷７號","OBJECTID":399184},"geometry":{"x":181070.59000000171,"y":2540700.2800000012}},{"attributes":{"ID":399209,"DIS_CODE":0,"TOWNNAME":"關廟區","LI":"布袋里","LIN":"11鄰","STREET":"南雄南路","SECT":" ","MAREA":" ","LANE":"８５２巷","ALLEY":" ","HOUSE_NO":"２５５號","E_COORD97":182015.09,"N_COORD97":2533769.25,"ADDRESS":"南雄南路８５２巷２５５號","OBJECTID":399185},"geometry":{"x":182015.09000000078,"y":2533769.25}},{"attributes":{"ID":399210,"DIS_CODE":0,"TOWNNAME":"關廟區","LI":"埤頭里","LIN":"11鄰","STREET":"保東路","SECT":" ","MAREA":" ","LANE":"８８巷","ALLEY":" ","HOUSE_NO":"５７號","E_COORD97":178830.67000000001,"N_COORD97":2544225.2999999998,"ADDRESS":"保東路８８巷５７號","OBJECTID":399186},"geometry":{"x":178830.67000000179,"y":2544225.3000000007}},{"attributes":{"ID":399211,"DIS_CODE":0,"TOWNNAME":"關廟區","LI":"松腳里","LIN":"11鄰","STREET":"東興路","SECT":" ","MAREA":" ","LANE":"２２９巷","ALLEY":" ","HOUSE_NO":"２５號","E_COORD97":181806.32000000001,"N_COORD97":2539650.25,"ADDRESS":"東興路２２９巷２５號","OBJECTID":399187},"geometry":{"x":181806.3200000003,"y":2539650.2500000019}},{"attributes":{"ID":399212,"DIS_CODE":0,"TOWNNAME":"關廟區","LI":"埤頭里","LIN":"11鄰","STREET":"保東路","SECT":" ","MAREA":" ","LANE":"８８巷","ALLEY":" ","HOUSE_NO":"７８號","E_COORD97":178861.37,"N_COORD97":2544261.2999999998,"ADDRESS":"保東路８８巷７８號","OBJECTID":399188},"geometry":{"x":178861.37000000011,"y":2544261.3000000026}},{"attributes":{"ID":399213,"DIS_CODE":0,"TOWNNAME":"關廟區","LI":"埤頭里","LIN":"11鄰","STREET":"關新路","SECT":"二段","MAREA":" ","LANE":"１０３巷","ALLEY":" ","HOUSE_NO":"１２１號","E_COORD97":178844.01999999999,"N_COORD97":2544295.2999999998,"ADDRESS":"關新路二段１０３巷１２１號","OBJECTID":399189},"geometry":{"x":178844.02000000048,"y":2544295.3000000026}},{"attributes":{"ID":399214,"DIS_CODE":0,"TOWNNAME":"關廟區","LI":"南花里","LIN":"11鄰","STREET":"明德街","SECT":" ","MAREA":" ","LANE":"１５巷","ALLEY":" ","HOUSE_NO":"２５號","E_COORD97":181807.69,"N_COORD97":2539980.27,"ADDRESS":"明德街１５巷２５號","OBJECTID":399190},"geometry":{"x":181807.69000000041,"y":2539980.2699999996}},{"attributes":{"ID":399215,"DIS_CODE":0,"TOWNNAME":"關廟區","LI":"埤頭里","LIN":"11鄰","STREET":"關新路","SECT":"二段","MAREA":" ","LANE":"１０３巷","ALLEY":" ","HOUSE_NO":"１２３號","E_COORD97":178832.12,"N_COORD97":2544295.2999999998,"ADDRESS":"關新路二段１０３巷１２３號","OBJECTID":399191},"geometry":{"x":178832.12000000104,"y":2544295.3000000026}},{"attributes":{"ID":399216,"DIS_CODE":0,"TOWNNAME":"關廟區","LI":"埤頭里","LIN":"11鄰","STREET":"保東路","SECT":" ","MAREA":" ","LANE":"８８巷","ALLEY":" ","HOUSE_NO":"８８號","E_COORD97":178836.47,"N_COORD97":2544265.2999999998,"ADDRESS":"保東路８８巷８８號","OBJECTID":399192},"geometry":{"x":178836.46999999974,"y":2544265.3000000026}},{"attributes":{"ID":399217,"DIS_CODE":0,"TOWNNAME":"關廟區","LI":"深坑里","LIN":"11鄰","STREET":"南雄路","SECT":"一段","MAREA":" ","LANE":"４０９巷","ALLEY":" ","HOUSE_NO":"２７號","E_COORD97":181680.22,"N_COORD97":2537518.2999999998,"ADDRESS":"南雄路一段４０９巷２７號","OBJECTID":399193},"geometry":{"x":181680.22000000067,"y":2537518.3000000026}},{"attributes":{"ID":399218,"DIS_CODE":0,"TOWNNAME":"關廟區","LI":"深坑里","LIN":"11鄰","STREET":"南雄路","SECT":"一段","MAREA":" ","LANE":"４０９巷","ALLEY":" ","HOUSE_NO":"３３號","E_COORD97":181669.92000000001,"N_COORD97":2537511.2999999998,"ADDRESS":"南雄路一段４０９巷３３號","OBJECTID":399194},"geometry":{"x":181669.91999999993,"y":2537511.3000000026}},{"attributes":{"ID":399219,"DIS_CODE":0,"TOWNNAME":"關廟區","LI":"南花里","LIN":"11鄰","STREET":"四維街","SECT":" ","MAREA":" ","LANE":"２０９巷","ALLEY":" ","HOUSE_NO":"１號","E_COORD97":181837.26000000001,"N_COORD97":2540111.25,"ADDRESS":"四維街２０９巷１號","OBJECTID":399195},"geometry":{"x":181837.26000000164,"y":2540111.2500000019}},{"attributes":{"ID":399220,"DIS_CODE":0,"TOWNNAME":"關廟區","LI":"深坑里","LIN":"11鄰","STREET":"深坑二街","SECT":" ","MAREA":" ","LANE":"６３巷","ALLEY":" ","HOUSE_NO":"３號","E_COORD97":181662.62,"N_COORD97":2537474.2999999998,"ADDRESS":"深坑二街６３巷３號","OBJECTID":399196},"geometry":{"x":181662.62000000104,"y":2537474.3000000026}},{"attributes":{"ID":399221,"DIS_CODE":0,"TOWNNAME":"關廟區","LI":"深坑里","LIN":"11鄰","STREET":"南雄路","SECT":"一段","MAREA":" ","LANE":"４０９巷","ALLEY":" ","HOUSE_NO":"５１號","E_COORD97":181638.42000000001,"N_COORD97":2537490.2999999998,"ADDRESS":"南雄路一段４０９巷５１號","OBJECTID":399197},"geometry":{"x":181638.42000000086,"y":2537490.3000000026}},{"attributes":{"ID":399222,"DIS_CODE":0,"TOWNNAME":"關廟區","LI":"深坑里","LIN":"11鄰","STREET":"南雄路","SECT":"一段","MAREA":" ","LANE":"４０９巷","ALLEY":" ","HOUSE_NO":"４５號","E_COORD97":181648.82000000001,"N_COORD97":2537498.2999999998,"ADDRESS":"南雄路一段４０９巷４５號","OBJECTID":399198},"geometry":{"x":181648.8200000003,"y":2537498.3000000007}},{"attributes":{"ID":399223,"DIS_CODE":0,"TOWNNAME":"關廟區","LI":"埤頭里","LIN":"11鄰","STREET":"保東路","SECT":" ","MAREA":" ","LANE":"８８巷","ALLEY":" ","HOUSE_NO":"８２號","E_COORD97":178852.97,"N_COORD97":2544261.2999999998,"ADDRESS":"保東路８８巷８２號","OBJECTID":399199},"geometry":{"x":178852.97000000067,"y":2544261.3000000026}},{"attributes":{"ID":399224,"DIS_CODE":0,"TOWNNAME":"關廟區","LI":"埤頭里","LIN":"11鄰","STREET":"保東路","SECT":" ","MAREA":" ","LANE":"８８巷","ALLEY":" ","HOUSE_NO":"９０號","E_COORD97":178836.47,"N_COORD97":2544270.2999999998,"ADDRESS":"保東路８８巷９０號","OBJECTID":399200},"geometry":{"x":178836.46999999974,"y":2544270.2999999989}}]}