{"displayFieldName":"TOWNNAME","fieldAliases":{"ID":"ID","DIS_CODE":"DIS_CODE","TOWNNAME":"TOWNNAME","LI":"LI","LIN":"LIN","STREET":"STREET","SECT":"SECT","MAREA":"MAREA","LANE":"LANE","ALLEY":"ALLEY","HOUSE_NO":"HOUSE_NO","E_COORD97":"E_COORD97","N_COORD97":"N_COORD97","ADDRESS":"ADDRESS","OBJECTID":"OBJECTID"},"geometryType":"esriGeometryPoint","spatialReference":{"wkid":102443,"latestWkid":3826},"fields":[{"name":"ID","type":"esriFieldTypeDouble","alias":"ID"},{"name":"DIS_CODE","type":"esriFieldTypeInteger","alias":"DIS_CODE"},{"name":"TOWNNAME","type":"esriFieldTypeString","alias":"TOWNNAME","length":8},{"name":"LI","type":"esriFieldTypeString","alias":"LI","length":8},{"name":"LIN","type":"esriFieldTypeString","alias":"LIN","length":12},{"name":"STREET","type":"esriFieldTypeString","alias":"STREET","length":20},{"name":"SECT","type":"esriFieldTypeString","alias":"SECT","length":8},{"name":"MAREA","type":"esriFieldTypeString","alias":"MAREA","length":12},{"name":"LANE","type":"esriFieldTypeString","alias":"LANE","length":10},{"name":"ALLEY","type":"esriFieldTypeString","alias":"ALLEY","length":10},{"name":"HOUSE_NO","type":"esriFieldTypeString","alias":"HOUSE_NO","length":20},{"name":"E_COORD97","type":"esriFieldTypeDouble","alias":"E_COORD97"},{"name":"N_COORD97","type":"esriFieldTypeDouble","alias":"N_COORD97"},{"name":"ADDRESS","type":"esriFieldTypeString","alias":"ADDRESS","length":50},{"name":"OBJECTID","type":"esriFieldTypeOID","alias":"OBJECTID"}],"features":[{"attributes":{"ID":403625,"DIS_CODE":0,"TOWNNAME":"北區","LI":"和順里","LIN":"11鄰","STREET":"臨安路","SECT":"二段","MAREA":" ","LANE":"２４９巷","ALLEY":" ","HOUSE_NO":"７３號","E_COORD97":168041.19,"N_COORD97":2545175.3100000001,"ADDRESS":"臨安路二段２４９巷７３號","OBJECTID":403601},"geometry":{"x":168041.19000000227,"y":2545175.3100000042}},{"attributes":{"ID":403626,"DIS_CODE":0,"TOWNNAME":"北區","LI":"和順里","LIN":"11鄰","STREET":"臨安路","SECT":"二段","MAREA":" ","LANE":"２４９巷","ALLEY":" ","HOUSE_NO":"７５號","E_COORD97":168041.78,"N_COORD97":2545180.2200000002,"ADDRESS":"臨安路二段２４９巷７５號","OBJECTID":403602},"geometry":{"x":168041.78000000026,"y":2545180.2200000025}},{"attributes":{"ID":403627,"DIS_CODE":0,"TOWNNAME":"北區","LI":"和順里","LIN":"11鄰","STREET":"臨安路","SECT":"二段","MAREA":" ","LANE":"２４９巷","ALLEY":" ","HOUSE_NO":"７７號","E_COORD97":168041.78,"N_COORD97":2545184.3500000001,"ADDRESS":"臨安路二段２４９巷７７號","OBJECTID":403603},"geometry":{"x":168041.78000000026,"y":2545184.3500000034}},{"attributes":{"ID":403628,"DIS_CODE":0,"TOWNNAME":"北區","LI":"和順里","LIN":"11鄰","STREET":"臨安路","SECT":"二段","MAREA":" ","LANE":"２４９巷","ALLEY":" ","HOUSE_NO":"７９號","E_COORD97":168041.57999999999,"N_COORD97":2545188.6699999999,"ADDRESS":"臨安路二段２４９巷７９號","OBJECTID":403604},"geometry":{"x":168041.58000000194,"y":2545188.6699999999}},{"attributes":{"ID":403629,"DIS_CODE":0,"TOWNNAME":"北區","LI":"和順里","LIN":"11鄰","STREET":"臨安路","SECT":"二段","MAREA":" ","LANE":"２４９巷","ALLEY":" ","HOUSE_NO":"８１號","E_COORD97":168041.57999999999,"N_COORD97":2545193.5800000001,"ADDRESS":"臨安路二段２４９巷８１號","OBJECTID":403605},"geometry":{"x":168041.58000000194,"y":2545193.5800000038}},{"attributes":{"ID":403630,"DIS_CODE":0,"TOWNNAME":"北區","LI":"和順里","LIN":"11鄰","STREET":"臨安路","SECT":"二段","MAREA":" ","LANE":"２４９巷","ALLEY":" ","HOUSE_NO":"８３號","E_COORD97":168042.37,"N_COORD97":2545198.6899999999,"ADDRESS":"臨安路二段２４９巷８３號","OBJECTID":403606},"geometry":{"x":168042.37000000011,"y":2545198.6899999976}},{"attributes":{"ID":403631,"DIS_CODE":0,"TOWNNAME":"北區","LI":"新勝里","LIN":"11鄰","STREET":"長榮路","SECT":"五段","MAREA":" ","LANE":"１３９巷","ALLEY":" ","HOUSE_NO":"１０號","E_COORD97":170042.98000000001,"N_COORD97":2545695.2400000002,"ADDRESS":"長榮路五段１３９巷１０號","OBJECTID":403607},"geometry":{"x":170042.98000000231,"y":2545695.2400000021}},{"attributes":{"ID":403632,"DIS_CODE":0,"TOWNNAME":"北區","LI":"新勝里","LIN":"11鄰","STREET":"長榮路","SECT":"五段","MAREA":" ","LANE":"１３９巷","ALLEY":" ","HOUSE_NO":"１１號","E_COORD97":170040.70000000001,"N_COORD97":2545684.8900000001,"ADDRESS":"長榮路五段１３９巷１１號","OBJECTID":403608},"geometry":{"x":170040.70000000019,"y":2545684.8900000025}},{"attributes":{"ID":403633,"DIS_CODE":0,"TOWNNAME":"北區","LI":"新勝里","LIN":"11鄰","STREET":"長榮路","SECT":"五段","MAREA":" ","LANE":"１３９巷","ALLEY":" ","HOUSE_NO":"１２號","E_COORD97":170038.54999999999,"N_COORD97":2545694.52,"ADDRESS":"長榮路五段１３９巷１２號","OBJECTID":403609},"geometry":{"x":170038.55000000168,"y":2545694.5199999996}},{"attributes":{"ID":403634,"DIS_CODE":0,"TOWNNAME":"北區","LI":"新勝里","LIN":"11鄰","STREET":"長榮路","SECT":"五段","MAREA":" ","LANE":"１３９巷","ALLEY":" ","HOUSE_NO":"１３號","E_COORD97":170036.34,"N_COORD97":2545684.2999999998,"ADDRESS":"長榮路五段１３９巷１３號","OBJECTID":403610},"geometry":{"x":170036.33999999985,"y":2545684.3000000045}},{"attributes":{"ID":403635,"DIS_CODE":0,"TOWNNAME":"北區","LI":"新勝里","LIN":"11鄰","STREET":"長榮路","SECT":"五段","MAREA":" ","LANE":"１３９巷","ALLEY":" ","HOUSE_NO":"１４號","E_COORD97":170034.06,"N_COORD97":2545692.3799999999,"ADDRESS":"長榮路五段１３９巷１４號","OBJECTID":403611},"geometry":{"x":170034.05999999959,"y":2545692.3800000008}},{"attributes":{"ID":403636,"DIS_CODE":0,"TOWNNAME":"北區","LI":"新勝里","LIN":"11鄰","STREET":"長榮路","SECT":"五段","MAREA":" ","LANE":"１３９巷","ALLEY":" ","HOUSE_NO":"１５號","E_COORD97":170031.98000000001,"N_COORD97":2545683.52,"ADDRESS":"長榮路五段１３９巷１５號","OBJECTID":403612},"geometry":{"x":170031.98000000138,"y":2545683.5199999996}},{"attributes":{"ID":403637,"DIS_CODE":0,"TOWNNAME":"北區","LI":"新勝里","LIN":"11鄰","STREET":"長榮路","SECT":"五段","MAREA":" ","LANE":"１３９巷","ALLEY":" ","HOUSE_NO":"１６號","E_COORD97":170029.53,"N_COORD97":2545693.1699999999,"ADDRESS":"長榮路五段１３９巷１６號","OBJECTID":403613},"geometry":{"x":170029.53000000119,"y":2545693.1699999999}},{"attributes":{"ID":403638,"DIS_CODE":0,"TOWNNAME":"北區","LI":"新勝里","LIN":"11鄰","STREET":"長榮路","SECT":"五段","MAREA":" ","LANE":"１３９巷","ALLEY":" ","HOUSE_NO":"１７號","E_COORD97":170027.29999999999,"N_COORD97":2545682.6099999999,"ADDRESS":"長榮路五段１３９巷１７號","OBJECTID":403614},"geometry":{"x":170027.30000000075,"y":2545682.6099999994}},{"attributes":{"ID":403639,"DIS_CODE":0,"TOWNNAME":"北區","LI":"新勝里","LIN":"11鄰","STREET":"長榮路","SECT":"五段","MAREA":" ","LANE":"１３９巷","ALLEY":" ","HOUSE_NO":"１號","E_COORD97":170062.04999999999,"N_COORD97":2545687.8100000001,"ADDRESS":"長榮路五段１３９巷１號","OBJECTID":403615},"geometry":{"x":170062.04999999981,"y":2545687.8100000024}},{"attributes":{"ID":403640,"DIS_CODE":0,"TOWNNAME":"北區","LI":"新勝里","LIN":"11鄰","STREET":"長榮路","SECT":"五段","MAREA":" ","LANE":"１３９巷","ALLEY":" ","HOUSE_NO":"２號","E_COORD97":170061.26999999999,"N_COORD97":2545697.1200000001,"ADDRESS":"長榮路五段１３９巷２號","OBJECTID":403616},"geometry":{"x":170061.27000000048,"y":2545697.1200000029}},{"attributes":{"ID":403641,"DIS_CODE":0,"TOWNNAME":"北區","LI":"新勝里","LIN":"11鄰","STREET":"長榮路","SECT":"五段","MAREA":" ","LANE":"１３９巷","ALLEY":" ","HOUSE_NO":"３號","E_COORD97":170057.69,"N_COORD97":2545687.3599999999,"ADDRESS":"長榮路五段１３９巷３號","OBJECTID":403617},"geometry":{"x":170057.69000000041,"y":2545687.3600000013}},{"attributes":{"ID":403642,"DIS_CODE":0,"TOWNNAME":"北區","LI":"新勝里","LIN":"11鄰","STREET":"長榮路","SECT":"五段","MAREA":" ","LANE":"１３９巷","ALLEY":" ","HOUSE_NO":"４號","E_COORD97":170056.26000000001,"N_COORD97":2545696.21,"ADDRESS":"長榮路五段１３９巷４號","OBJECTID":403618},"geometry":{"x":170056.26000000071,"y":2545696.2100000028}},{"attributes":{"ID":403643,"DIS_CODE":0,"TOWNNAME":"北區","LI":"新勝里","LIN":"11鄰","STREET":"長榮路","SECT":"五段","MAREA":" ","LANE":"１３９巷","ALLEY":" ","HOUSE_NO":"５號","E_COORD97":170053.59,"N_COORD97":2545686.71,"ADDRESS":"長榮路五段１３９巷５號","OBJECTID":403619},"geometry":{"x":170053.59000000171,"y":2545686.7100000028}},{"attributes":{"ID":403644,"DIS_CODE":0,"TOWNNAME":"北區","LI":"新勝里","LIN":"11鄰","STREET":"長榮路","SECT":"五段","MAREA":" ","LANE":"１３９巷","ALLEY":" ","HOUSE_NO":"６號","E_COORD97":170051.44,"N_COORD97":2545695.8900000001,"ADDRESS":"長榮路五段１３９巷６號","OBJECTID":403620},"geometry":{"x":170051.44000000041,"y":2545695.8900000006}},{"attributes":{"ID":403645,"DIS_CODE":0,"TOWNNAME":"北區","LI":"新勝里","LIN":"11鄰","STREET":"長榮路","SECT":"五段","MAREA":" ","LANE":"１３９巷","ALLEY":" ","HOUSE_NO":"７號","E_COORD97":170049.35999999999,"N_COORD97":2545686.0600000001,"ADDRESS":"長榮路五段１３９巷７號","OBJECTID":403621},"geometry":{"x":170049.36000000127,"y":2545686.0600000024}},{"attributes":{"ID":403646,"DIS_CODE":0,"TOWNNAME":"北區","LI":"新勝里","LIN":"11鄰","STREET":"長榮路","SECT":"五段","MAREA":" ","LANE":"１３９巷","ALLEY":" ","HOUSE_NO":"８號","E_COORD97":170047.34,"N_COORD97":2545695.5600000001,"ADDRESS":"長榮路五段１３９巷８號","OBJECTID":403622},"geometry":{"x":170047.34000000078,"y":2545695.5600000005}},{"attributes":{"ID":403647,"DIS_CODE":0,"TOWNNAME":"北區","LI":"新勝里","LIN":"11鄰","STREET":"長榮路","SECT":"五段","MAREA":" ","LANE":"１３９巷","ALLEY":" ","HOUSE_NO":"９號","E_COORD97":170045,"N_COORD97":2545685.4700000002,"ADDRESS":"長榮路五段１３９巷９號","OBJECTID":403623},"geometry":{"x":170045,"y":2545685.4700000007}},{"attributes":{"ID":403648,"DIS_CODE":0,"TOWNNAME":"北區","LI":"新勝里","LIN":"11鄰","STREET":"長榮路","SECT":"五段","MAREA":" ","LANE":"１５１巷","ALLEY":" ","HOUSE_NO":"１１號","E_COORD97":170028.67000000001,"N_COORD97":2545716.7599999998,"ADDRESS":"長榮路五段１５１巷１１號","OBJECTID":403624},"geometry":{"x":170028.66999999993,"y":2545716.7599999998}},{"attributes":{"ID":403649,"DIS_CODE":0,"TOWNNAME":"北區","LI":"新勝里","LIN":"11鄰","STREET":"長榮路","SECT":"五段","MAREA":" ","LANE":"１５１巷","ALLEY":" ","HOUSE_NO":"１號","E_COORD97":170057.82999999999,"N_COORD97":2545719.5600000001,"ADDRESS":"長榮路五段１５１巷１號","OBJECTID":403625},"geometry":{"x":170057.83000000101,"y":2545719.5600000042}},{"attributes":{"ID":403650,"DIS_CODE":0,"TOWNNAME":"北區","LI":"新勝里","LIN":"11鄰","STREET":"長榮路","SECT":"五段","MAREA":" ","LANE":"１５１巷","ALLEY":" ","HOUSE_NO":"３號","E_COORD97":170052.62,"N_COORD97":2545718.71,"ADDRESS":"長榮路五段１５１巷３號","OBJECTID":403626},"geometry":{"x":170052.62000000104,"y":2545718.709999999}},{"attributes":{"ID":403651,"DIS_CODE":0,"TOWNNAME":"北區","LI":"新勝里","LIN":"11鄰","STREET":"長榮路","SECT":"五段","MAREA":" ","LANE":"１５１巷","ALLEY":" ","HOUSE_NO":"５號","E_COORD97":170046.95999999999,"N_COORD97":2545717.6699999999,"ADDRESS":"長榮路五段１５１巷５號","OBJECTID":403627},"geometry":{"x":170046.95999999996,"y":2545717.6699999999}},{"attributes":{"ID":403652,"DIS_CODE":0,"TOWNNAME":"北區","LI":"新勝里","LIN":"11鄰","STREET":"長榮路","SECT":"五段","MAREA":" ","LANE":"１５１巷","ALLEY":" ","HOUSE_NO":"７號","E_COORD97":170040.78,"N_COORD97":2545718.1299999999,"ADDRESS":"長榮路五段１５１巷７號","OBJECTID":403628},"geometry":{"x":170040.78000000212,"y":2545718.1300000008}},{"attributes":{"ID":403653,"DIS_CODE":0,"TOWNNAME":"北區","LI":"新勝里","LIN":"11鄰","STREET":"長榮路","SECT":"五段","MAREA":" ","LANE":"１５１巷","ALLEY":" ","HOUSE_NO":"９號","E_COORD97":170033.75,"N_COORD97":2545717.4100000001,"ADDRESS":"長榮路五段１５１巷９號","OBJECTID":403629},"geometry":{"x":170033.75,"y":2545717.410000002}},{"attributes":{"ID":403654,"DIS_CODE":0,"TOWNNAME":"北區","LI":"延平里","LIN":"11鄰","STREET":"長榮路","SECT":"五段","MAREA":" ","LANE":"４０１巷","ALLEY":" ","HOUSE_NO":"１００號","E_COORD97":169287.79000000001,"N_COORD97":2545746.23,"ADDRESS":"長榮路五段４０１巷１００號","OBJECTID":403630},"geometry":{"x":169287.7900000019,"y":2545746.2300000023}},{"attributes":{"ID":403655,"DIS_CODE":0,"TOWNNAME":"北區","LI":"延平里","LIN":"11鄰","STREET":"長榮路","SECT":"五段","MAREA":" ","LANE":"４０１巷","ALLEY":" ","HOUSE_NO":"１０２號","E_COORD97":169284.98000000001,"N_COORD97":2545747.52,"ADDRESS":"長榮路五段４０１巷１０２號","OBJECTID":403631},"geometry":{"x":169284.98000000045,"y":2545747.5200000014}},{"attributes":{"ID":403656,"DIS_CODE":0,"TOWNNAME":"北區","LI":"延平里","LIN":"11鄰","STREET":"長榮路","SECT":"五段","MAREA":" ","LANE":"４０１巷","ALLEY":" ","HOUSE_NO":"１０４號","E_COORD97":169281.51999999999,"N_COORD97":2545748.6000000001,"ADDRESS":"長榮路五段４０１巷１０４號","OBJECTID":403632},"geometry":{"x":169281.51999999955,"y":2545748.5999999996}},{"attributes":{"ID":403657,"DIS_CODE":0,"TOWNNAME":"北區","LI":"延平里","LIN":"11鄰","STREET":"長榮路","SECT":"五段","MAREA":" ","LANE":"４０１巷","ALLEY":" ","HOUSE_NO":"１０６號","E_COORD97":169277.41,"N_COORD97":2545749.4700000002,"ADDRESS":"長榮路五段４０１巷１０６號","OBJECTID":403633},"geometry":{"x":169277.41000000108,"y":2545749.4700000007}},{"attributes":{"ID":403658,"DIS_CODE":0,"TOWNNAME":"北區","LI":"延平里","LIN":"11鄰","STREET":"長榮路","SECT":"五段","MAREA":" ","LANE":"４０１巷","ALLEY":" ","HOUSE_NO":"７２號","E_COORD97":169305.97,"N_COORD97":2545796.8700000001,"ADDRESS":"長榮路五段４０１巷７２號","OBJECTID":403634},"geometry":{"x":169305.96999999974,"y":2545796.8700000029}},{"attributes":{"ID":403659,"DIS_CODE":0,"TOWNNAME":"北區","LI":"延平里","LIN":"11鄰","STREET":"長榮路","SECT":"五段","MAREA":" ","LANE":"４０１巷","ALLEY":" ","HOUSE_NO":"７４號","E_COORD97":169303.04999999999,"N_COORD97":2545791.04,"ADDRESS":"長榮路五段４０１巷７４號","OBJECTID":403635},"geometry":{"x":169303.05000000075,"y":2545791.040000001}},{"attributes":{"ID":403660,"DIS_CODE":0,"TOWNNAME":"北區","LI":"延平里","LIN":"11鄰","STREET":"長榮路","SECT":"五段","MAREA":" ","LANE":"４０１巷","ALLEY":" ","HOUSE_NO":"７６號","E_COORD97":169301.85000000001,"N_COORD97":2545787.9500000002,"ADDRESS":"長榮路五段４０１巷７６號","OBJECTID":403636},"geometry":{"x":169301.84999999963,"y":2545787.9500000011}},{"attributes":{"ID":403661,"DIS_CODE":0,"TOWNNAME":"北區","LI":"延平里","LIN":"11鄰","STREET":"長榮路","SECT":"五段","MAREA":" ","LANE":"４０１巷","ALLEY":" ","HOUSE_NO":"７８號","E_COORD97":169302.35999999999,"N_COORD97":2545783.3399999999,"ADDRESS":"長榮路五段４０１巷７８號","OBJECTID":403637},"geometry":{"x":169302.36000000034,"y":2545783.3399999999}},{"attributes":{"ID":403662,"DIS_CODE":0,"TOWNNAME":"北區","LI":"延平里","LIN":"11鄰","STREET":"長榮路","SECT":"五段","MAREA":" ","LANE":"４０１巷","ALLEY":" ","HOUSE_NO":"８０號","E_COORD97":169300.97,"N_COORD97":2545778.5,"ADDRESS":"長榮路五段４０１巷８０號","OBJECTID":403638},"geometry":{"x":169300.96999999974,"y":2545778.5000000019}},{"attributes":{"ID":403663,"DIS_CODE":0,"TOWNNAME":"北區","LI":"延平里","LIN":"11鄰","STREET":"長榮路","SECT":"五段","MAREA":" ","LANE":"４０１巷","ALLEY":" ","HOUSE_NO":"８２號","E_COORD97":169293.19,"N_COORD97":2545772.27,"ADDRESS":"長榮路五段４０１巷８２號","OBJECTID":403639},"geometry":{"x":169293.19000000041,"y":2545772.2700000014}},{"attributes":{"ID":403664,"DIS_CODE":0,"TOWNNAME":"北區","LI":"延平里","LIN":"11鄰","STREET":"長榮路","SECT":"五段","MAREA":" ","LANE":"４０１巷","ALLEY":" ","HOUSE_NO":"８４號","E_COORD97":169291.79999999999,"N_COORD97":2545767.0899999999,"ADDRESS":"長榮路五段４０１巷８４號","OBJECTID":403640},"geometry":{"x":169291.79999999981,"y":2545767.0900000017}},{"attributes":{"ID":403665,"DIS_CODE":0,"TOWNNAME":"北區","LI":"延平里","LIN":"11鄰","STREET":"長榮路","SECT":"五段","MAREA":" ","LANE":"４０１巷","ALLEY":" ","HOUSE_NO":"８６號","E_COORD97":169290.42000000001,"N_COORD97":2545754.6899999999,"ADDRESS":"長榮路五段４０１巷８６號","OBJECTID":403641},"geometry":{"x":169290.42000000086,"y":2545754.6899999976}},{"attributes":{"ID":403666,"DIS_CODE":0,"TOWNNAME":"北區","LI":"延平里","LIN":"11鄰","STREET":"長榮路","SECT":"五段","MAREA":" ","LANE":"４０１巷","ALLEY":" ","HOUSE_NO":"８８號","E_COORD97":169285.06,"N_COORD97":2545755.73,"ADDRESS":"長榮路五段４０１巷８８號","OBJECTID":403642},"geometry":{"x":169285.05999999959,"y":2545755.7300000042}},{"attributes":{"ID":403667,"DIS_CODE":0,"TOWNNAME":"北區","LI":"延平里","LIN":"11鄰","STREET":"長榮路","SECT":"五段","MAREA":" ","LANE":"４０１巷","ALLEY":" ","HOUSE_NO":"９０號","E_COORD97":169279.51999999999,"N_COORD97":2545756.5899999999,"ADDRESS":"長榮路五段４０１巷９０號","OBJECTID":403643},"geometry":{"x":169279.52000000048,"y":2545756.5900000017}},{"attributes":{"ID":403668,"DIS_CODE":0,"TOWNNAME":"北區","LI":"延平里","LIN":"11鄰","STREET":"長榮路","SECT":"五段","MAREA":" ","LANE":"４０１巷","ALLEY":" ","HOUSE_NO":"９２號","E_COORD97":169273.29000000001,"N_COORD97":2545758.4399999999,"ADDRESS":"長榮路五段４０１巷９２號","OBJECTID":403644},"geometry":{"x":169273.29000000097,"y":2545758.4399999995}},{"attributes":{"ID":403669,"DIS_CODE":0,"TOWNNAME":"北區","LI":"延平里","LIN":"11鄰","STREET":"長榮路","SECT":"五段","MAREA":" ","LANE":"４０１巷","ALLEY":" ","HOUSE_NO":"９４號","E_COORD97":169264.64000000001,"N_COORD97":2545761.5499999998,"ADDRESS":"長榮路五段４０１巷９４號","OBJECTID":403645},"geometry":{"x":169264.63999999873,"y":2545761.5500000026}},{"attributes":{"ID":403670,"DIS_CODE":0,"TOWNNAME":"北區","LI":"延平里","LIN":"11鄰","STREET":"長榮路","SECT":"五段","MAREA":" ","LANE":"４０１巷","ALLEY":" ","HOUSE_NO":"９６號","E_COORD97":169261.84,"N_COORD97":2545756.6000000001,"ADDRESS":"長榮路五段４０１巷９６號","OBJECTID":403646},"geometry":{"x":169261.84000000171,"y":2545756.6000000015}},{"attributes":{"ID":403671,"DIS_CODE":0,"TOWNNAME":"北區","LI":"延平里","LIN":"11鄰","STREET":"長榮路","SECT":"五段","MAREA":" ","LANE":"４０１巷","ALLEY":" ","HOUSE_NO":"９８號","E_COORD97":169273.29999999999,"N_COORD97":2545752.9199999999,"ADDRESS":"長榮路五段４０１巷９８號","OBJECTID":403647},"geometry":{"x":169273.29999999981,"y":2545752.9199999999}},{"attributes":{"ID":403672,"DIS_CODE":0,"TOWNNAME":"北區","LI":"文元里","LIN":"11鄰","STREET":"文賢路","SECT":" ","MAREA":" ","LANE":"１０８０巷","ALLEY":" ","HOUSE_NO":"１號之５","E_COORD97":167395.326952,"N_COORD97":2546216.0529399998,"ADDRESS":"文賢路１０８０巷１號之５","OBJECTID":403648},"geometry":{"x":167395.32695200015,"y":2546216.0529420003}},{"attributes":{"ID":403673,"DIS_CODE":0,"TOWNNAME":"北區","LI":"文元里","LIN":"11鄰","STREET":"文賢路","SECT":" ","MAREA":" ","LANE":"１０８０巷","ALLEY":" ","HOUSE_NO":"１號之１","E_COORD97":167381.95999999999,"N_COORD97":2546211.9700000002,"ADDRESS":"文賢路１０８０巷１號之１","OBJECTID":403649},"geometry":{"x":167381.96000000089,"y":2546211.9700000044}},{"attributes":{"ID":403674,"DIS_CODE":0,"TOWNNAME":"歸仁區","LI":"七甲里","LIN":"11鄰","STREET":"南丁路","SECT":" ","MAREA":" ","LANE":"７８巷","ALLEY":" ","HOUSE_NO":"１０１號","E_COORD97":176461.84,"N_COORD97":2541761.25,"ADDRESS":"南丁路７８巷１０１號","OBJECTID":403650},"geometry":{"x":176461.84000000078,"y":2541761.2500000037}},{"attributes":{"ID":403675,"DIS_CODE":0,"TOWNNAME":"歸仁區","LI":"七甲里","LIN":"11鄰","STREET":"南丁路","SECT":" ","MAREA":" ","LANE":"７３巷","ALLEY":" ","HOUSE_NO":"８９號","E_COORD97":175891.39000000001,"N_COORD97":2541726.25,"ADDRESS":"南丁路７３巷８９號","OBJECTID":403651},"geometry":{"x":175891.3900000006,"y":2541726.25}},{"attributes":{"ID":403676,"DIS_CODE":0,"TOWNNAME":"歸仁區","LI":"七甲里","LIN":"11鄰","STREET":"南丁路","SECT":" ","MAREA":" ","LANE":"７８巷","ALLEY":" ","HOUSE_NO":"１８號","E_COORD97":176213.39000000001,"N_COORD97":2541737.25,"ADDRESS":"南丁路７８巷１８號","OBJECTID":403652},"geometry":{"x":176213.39000000153,"y":2541737.2499999981}},{"attributes":{"ID":403677,"DIS_CODE":0,"TOWNNAME":"歸仁區","LI":"七甲里","LIN":"11鄰","STREET":"南丁路","SECT":" ","MAREA":" ","LANE":"７３巷","ALLEY":" ","HOUSE_NO":"８０之１號","E_COORD97":175895.09,"N_COORD97":2541774.2999999998,"ADDRESS":"南丁路７３巷８０之１號","OBJECTID":403653},"geometry":{"x":175895.09000000171,"y":2541774.3000000007}},{"attributes":{"ID":403678,"DIS_CODE":0,"TOWNNAME":"歸仁區","LI":"七甲里","LIN":"11鄰","STREET":"南丁路","SECT":" ","MAREA":" ","LANE":"７３巷","ALLEY":" ","HOUSE_NO":"３１號","E_COORD97":175995.89000000001,"N_COORD97":2541717.25,"ADDRESS":"南丁路７３巷３１號","OBJECTID":403654},"geometry":{"x":175995.88999999966,"y":2541717.2500000037}},{"attributes":{"ID":403679,"DIS_CODE":0,"TOWNNAME":"歸仁區","LI":"七甲里","LIN":"11鄰","STREET":"南丁路","SECT":" ","MAREA":" ","LANE":"７３巷","ALLEY":" ","HOUSE_NO":"１７號","E_COORD97":176090.29000000001,"N_COORD97":2541732.25,"ADDRESS":"南丁路７３巷１７號","OBJECTID":403655},"geometry":{"x":176090.29000000004,"y":2541732.2500000019}},{"attributes":{"ID":403680,"DIS_CODE":0,"TOWNNAME":"東區","LI":"後甲里","LIN":"17鄰","STREET":"建東街","SECT":" ","MAREA":" ","LANE":"５４巷","ALLEY":" ","HOUSE_NO":"６號","E_COORD97":171792.26000000001,"N_COORD97":2543452.6600000001,"ADDRESS":"建東街５４巷６號","OBJECTID":403656},"geometry":{"x":171792.26000000071,"y":2543452.6600000001}},{"attributes":{"ID":403681,"DIS_CODE":0,"TOWNNAME":"歸仁區","LI":"七甲里","LIN":"11鄰","STREET":"南丁路","SECT":" ","MAREA":" ","LANE":"７３巷","ALLEY":" ","HOUSE_NO":"１５９號","E_COORD97":175577.73999999999,"N_COORD97":2541723.25,"ADDRESS":"南丁路７３巷１５９號","OBJECTID":403657},"geometry":{"x":175577.74000000115,"y":2541723.25}},{"attributes":{"ID":403682,"DIS_CODE":0,"TOWNNAME":"歸仁區","LI":"七甲里","LIN":"11鄰","STREET":"南丁路","SECT":" ","MAREA":" ","LANE":"７３巷","ALLEY":" ","HOUSE_NO":"１３０號","E_COORD97":175641.54000000001,"N_COORD97":2541758.25,"ADDRESS":"南丁路７３巷１３０號","OBJECTID":403658},"geometry":{"x":175641.54000000097,"y":2541758.2500000019}},{"attributes":{"ID":403683,"DIS_CODE":0,"TOWNNAME":"歸仁區","LI":"七甲里","LIN":"11鄰","STREET":"南丁路","SECT":" ","MAREA":" ","LANE":"７３巷","ALLEY":" ","HOUSE_NO":"３３號","E_COORD97":175978.39000000001,"N_COORD97":2541704.25,"ADDRESS":"南丁路７３巷３３號","OBJECTID":403659},"geometry":{"x":175978.3900000006,"y":2541704.2500000019}},{"attributes":{"ID":403684,"DIS_CODE":0,"TOWNNAME":"歸仁區","LI":"七甲里","LIN":"11鄰","STREET":"南丁路","SECT":" ","MAREA":" ","LANE":"７８巷","ALLEY":" ","HOUSE_NO":"１０６號","E_COORD97":176425.73999999999,"N_COORD97":2541717.25,"ADDRESS":"南丁路７８巷１０６號","OBJECTID":403660},"geometry":{"x":176425.74000000115,"y":2541717.2500000037}},{"attributes":{"ID":403685,"DIS_CODE":0,"TOWNNAME":"歸仁區","LI":"七甲里","LIN":"11鄰","STREET":"南丁路","SECT":" ","MAREA":" ","LANE":"７３巷","ALLEY":" ","HOUSE_NO":"８０號","E_COORD97":175899.69,"N_COORD97":2541762.25,"ADDRESS":"南丁路７３巷８０號","OBJECTID":403661},"geometry":{"x":175899.69000000041,"y":2541762.2500000019}},{"attributes":{"ID":403686,"DIS_CODE":0,"TOWNNAME":"歸仁區","LI":"七甲里","LIN":"11鄰","STREET":"南丁路","SECT":" ","MAREA":" ","LANE":"７３巷","ALLEY":" ","HOUSE_NO":"１２號","E_COORD97":176106.79000000001,"N_COORD97":2541747.25,"ADDRESS":"南丁路７３巷１２號","OBJECTID":403662},"geometry":{"x":176106.79000000004,"y":2541747.25}},{"attributes":{"ID":403687,"DIS_CODE":0,"TOWNNAME":"歸仁區","LI":"七甲里","LIN":"11鄰","STREET":"南丁路","SECT":" ","MAREA":" ","LANE":"７３巷","ALLEY":" ","HOUSE_NO":"１２７號","E_COORD97":175649.54000000001,"N_COORD97":2541712.25,"ADDRESS":"南丁路７３巷１２７號","OBJECTID":403663},"geometry":{"x":175649.54000000004,"y":2541712.25}},{"attributes":{"ID":403688,"DIS_CODE":0,"TOWNNAME":"歸仁區","LI":"七甲里","LIN":"11鄰","STREET":"南丁路","SECT":" ","MAREA":" ","LANE":"７３巷","ALLEY":" ","HOUSE_NO":"１１６號","E_COORD97":175701.94,"N_COORD97":2541751.25,"ADDRESS":"南丁路７３巷１１６號","OBJECTID":403664},"geometry":{"x":175701.94000000134,"y":2541751.2500000037}},{"attributes":{"ID":403689,"DIS_CODE":0,"TOWNNAME":"歸仁區","LI":"七甲里","LIN":"11鄰","STREET":"南丁路","SECT":" ","MAREA":" ","LANE":"７３巷","ALLEY":" ","HOUSE_NO":"１２０號","E_COORD97":175683.54000000001,"N_COORD97":2541750.25,"ADDRESS":"南丁路７３巷１２０號","OBJECTID":403665},"geometry":{"x":175683.54000000004,"y":2541750.25}},{"attributes":{"ID":403690,"DIS_CODE":0,"TOWNNAME":"歸仁區","LI":"大潭里","LIN":"11鄰","STREET":"中正南路","SECT":"三段","MAREA":" ","LANE":"３０６巷","ALLEY":" ","HOUSE_NO":"６號","E_COORD97":175095.89999999999,"N_COORD97":2534634.2799999998,"ADDRESS":"中正南路三段３０６巷６號","OBJECTID":403666},"geometry":{"x":175095.9000000013,"y":2534634.2800000012}},{"attributes":{"ID":403691,"DIS_CODE":0,"TOWNNAME":"歸仁區","LI":"大廟里","LIN":"11鄰","STREET":"大廟五街","SECT":" ","MAREA":" ","LANE":"２６巷","ALLEY":" ","HOUSE_NO":"５號","E_COORD97":175976.07999999999,"N_COORD97":2544198.9900000002,"ADDRESS":"大廟五街２６巷５號","OBJECTID":403667},"geometry":{"x":175976.08000000007,"y":2544198.9900000021}},{"attributes":{"ID":403692,"DIS_CODE":0,"TOWNNAME":"歸仁區","LI":"大廟里","LIN":"11鄰","STREET":"大廟五街","SECT":" ","MAREA":" ","LANE":"２６巷","ALLEY":" ","HOUSE_NO":"１４號","E_COORD97":175981.32999999999,"N_COORD97":2544181.9900000002,"ADDRESS":"大廟五街２６巷１４號","OBJECTID":403668},"geometry":{"x":175981.33000000007,"y":2544181.9900000021}},{"attributes":{"ID":403693,"DIS_CODE":0,"TOWNNAME":"歸仁區","LI":"八甲里","LIN":"11鄰","STREET":"中正北路","SECT":"一段","MAREA":" ","LANE":"５３６巷","ALLEY":" ","HOUSE_NO":"２１號","E_COORD97":177716.70999999999,"N_COORD97":2542128.25,"ADDRESS":"中正北路一段５３６巷２１號","OBJECTID":403669},"geometry":{"x":177716.71000000183,"y":2542128.2500000019}},{"attributes":{"ID":403694,"DIS_CODE":0,"TOWNNAME":"歸仁區","LI":"大廟里","LIN":"11鄰","STREET":"大廟五街","SECT":" ","MAREA":" ","LANE":"２６巷","ALLEY":" ","HOUSE_NO":"１號","E_COORD97":175965.78,"N_COORD97":2544200.9900000002,"ADDRESS":"大廟五街２６巷１號","OBJECTID":403670},"geometry":{"x":175965.78000000119,"y":2544200.9900000039}},{"attributes":{"ID":403695,"DIS_CODE":0,"TOWNNAME":"歸仁區","LI":"大廟里","LIN":"11鄰","STREET":"大廟五街","SECT":" ","MAREA":" ","LANE":"２６巷","ALLEY":" ","HOUSE_NO":"１２號","E_COORD97":175977.23000000001,"N_COORD97":2544182.9900000002,"ADDRESS":"大廟五街２６巷１２號","OBJECTID":403671},"geometry":{"x":175977.23000000045,"y":2544182.9900000002}},{"attributes":{"ID":403696,"DIS_CODE":0,"TOWNNAME":"南區","LI":"興農里","LIN":"11鄰","STREET":"明興路","SECT":" ","MAREA":" ","LANE":"１１８１巷","ALLEY":" ","HOUSE_NO":"８５號","E_COORD97":167019.57000000001,"N_COORD97":2536291.96,"ADDRESS":"明興路１１８１巷８５號","OBJECTID":403672},"geometry":{"x":167019.5700000003,"y":2536291.9600000046}},{"attributes":{"ID":403697,"DIS_CODE":0,"TOWNNAME":"南區","LI":"大林里","LIN":"11鄰","STREET":"國民路","SECT":" ","MAREA":" ","LANE":"５３２巷","ALLEY":" ","HOUSE_NO":"２７號","E_COORD97":168588.32000000001,"N_COORD97":2541650.46,"ADDRESS":"國民路５３２巷２７號","OBJECTID":403673},"geometry":{"x":168588.32000000123,"y":2541650.4600000028}},{"attributes":{"ID":403698,"DIS_CODE":0,"TOWNNAME":"南區","LI":"大林里","LIN":"11鄰","STREET":"國民路","SECT":" ","MAREA":" ","LANE":"５３２巷","ALLEY":" ","HOUSE_NO":"２９號","E_COORD97":168593.48000000001,"N_COORD97":2541648.25,"ADDRESS":"國民路５３２巷２９號","OBJECTID":403674},"geometry":{"x":168593.48000000045,"y":2541648.25}},{"attributes":{"ID":403699,"DIS_CODE":0,"TOWNNAME":"南區","LI":"大林里","LIN":"11鄰","STREET":"國民路","SECT":" ","MAREA":" ","LANE":"５３２巷","ALLEY":" ","HOUSE_NO":"３３號","E_COORD97":168603.64000000001,"N_COORD97":2541650.8999999999,"ADDRESS":"國民路５３２巷３３號","OBJECTID":403675},"geometry":{"x":168603.64000000153,"y":2541650.9000000004}},{"attributes":{"ID":403700,"DIS_CODE":0,"TOWNNAME":"楠西區","LI":"東勢里","LIN":"11鄰","STREET":"東勢路","SECT":" ","MAREA":" ","LANE":"３９巷","ALLEY":" ","HOUSE_NO":"１７號","E_COORD97":197631.47,"N_COORD97":2564033.29,"ADDRESS":"東勢路３９巷１７號","OBJECTID":403676},"geometry":{"x":197631.46999999881,"y":2564033.2899999991}},{"attributes":{"ID":403701,"DIS_CODE":0,"TOWNNAME":"楠西區","LI":"東勢里","LIN":"11鄰","STREET":"信義路","SECT":" ","MAREA":" ","LANE":"２０７巷","ALLEY":" ","HOUSE_NO":"１８號","E_COORD97":197643.22,"N_COORD97":2563936.27,"ADDRESS":"信義路２０７巷１８號","OBJECTID":403677},"geometry":{"x":197643.21999999974,"y":2563936.2699999996}},{"attributes":{"ID":403702,"DIS_CODE":0,"TOWNNAME":"楠西區","LI":"東勢里","LIN":"11鄰","STREET":"東勢路","SECT":" ","MAREA":" ","LANE":"３９巷","ALLEY":" ","HOUSE_NO":"１５號","E_COORD97":197631.57000000001,"N_COORD97":2564037.29,"ADDRESS":"東勢路３９巷１５號","OBJECTID":403678},"geometry":{"x":197631.57000000216,"y":2564037.2899999991}},{"attributes":{"ID":403703,"DIS_CODE":0,"TOWNNAME":"楠西區","LI":"東勢里","LIN":"11鄰","STREET":"東勢路","SECT":" ","MAREA":" ","LANE":"３９巷","ALLEY":" ","HOUSE_NO":"３７號","E_COORD97":197639.47,"N_COORD97":2563981.29,"ADDRESS":"東勢路３９巷３７號","OBJECTID":403679},"geometry":{"x":197639.46999999974,"y":2563981.290000001}},{"attributes":{"ID":403704,"DIS_CODE":0,"TOWNNAME":"楠西區","LI":"東勢里","LIN":"11鄰","STREET":"信義路","SECT":" ","MAREA":" ","LANE":"２０７巷","ALLEY":" ","HOUSE_NO":"２０號","E_COORD97":197635.42000000001,"N_COORD97":2563936.27,"ADDRESS":"信義路２０７巷２０號","OBJECTID":403680},"geometry":{"x":197635.42000000179,"y":2563936.2699999996}},{"attributes":{"ID":403705,"DIS_CODE":0,"TOWNNAME":"新營區","LI":"南興里","LIN":"11鄰","STREET":"和平路","SECT":" ","MAREA":" ","LANE":"１０４巷","ALLEY":" ","HOUSE_NO":"３４號","E_COORD97":179307.78,"N_COORD97":2577568.2200000002,"ADDRESS":"和平路１０４巷３４號","OBJECTID":403681},"geometry":{"x":179307.78000000026,"y":2577568.2200000025}},{"attributes":{"ID":403706,"DIS_CODE":0,"TOWNNAME":"新營區","LI":"新北里","LIN":"11鄰","STREET":"三興街","SECT":" ","MAREA":" ","LANE":"３０１巷","ALLEY":" ","HOUSE_NO":"７４號","E_COORD97":179150.25,"N_COORD97":2579719.6499999999,"ADDRESS":"三興街３０１巷７４號","OBJECTID":403682},"geometry":{"x":179150.25,"y":2579719.6500000004}},{"attributes":{"ID":403707,"DIS_CODE":0,"TOWNNAME":"安平區","LI":"金城里","LIN":"11鄰","STREET":"同平路","SECT":" ","MAREA":" ","LANE":"１５６巷","ALLEY":" ","HOUSE_NO":"２３號","E_COORD97":163066.73999999999,"N_COORD97":2543989.77,"ADDRESS":"同平路１５６巷２３號","OBJECTID":403683},"geometry":{"x":163066.74000000022,"y":2543989.7699999996}},{"attributes":{"ID":403708,"DIS_CODE":0,"TOWNNAME":"安平區","LI":"金城里","LIN":"11鄰","STREET":"同平路","SECT":" ","MAREA":" ","LANE":"１５６巷","ALLEY":" ","HOUSE_NO":"２５號","E_COORD97":163054.62,"N_COORD97":2543975.52,"ADDRESS":"同平路１５６巷２５號","OBJECTID":403684},"geometry":{"x":163054.62000000104,"y":2543975.5199999996}},{"attributes":{"ID":403709,"DIS_CODE":0,"TOWNNAME":"安平區","LI":"金城里","LIN":"11鄰","STREET":"同平路","SECT":" ","MAREA":" ","LANE":"１５６巷","ALLEY":" ","HOUSE_NO":"２７號","E_COORD97":163052.39999999999,"N_COORD97":2543989.4500000002,"ADDRESS":"同平路１５６巷２７號","OBJECTID":403685},"geometry":{"x":163052.39999999944,"y":2543989.4499999993}},{"attributes":{"ID":403710,"DIS_CODE":0,"TOWNNAME":"安平區","LI":"金城里","LIN":"11鄰","STREET":"同平路","SECT":" ","MAREA":" ","LANE":"１５６巷","ALLEY":" ","HOUSE_NO":"２９號","E_COORD97":163047.17000000001,"N_COORD97":2543977.8999999999,"ADDRESS":"同平路１５６巷２９號","OBJECTID":403686},"geometry":{"x":163047.17000000086,"y":2543977.9000000041}},{"attributes":{"ID":403711,"DIS_CODE":0,"TOWNNAME":"安平區","LI":"金城里","LIN":"11鄰","STREET":"同平路","SECT":" ","MAREA":" ","LANE":"１５６巷","ALLEY":" ","HOUSE_NO":"５５號","E_COORD97":162991.75,"N_COORD97":2543945.8599999999,"ADDRESS":"同平路１５６巷５５號","OBJECTID":403687},"geometry":{"x":162991.75,"y":2543945.8599999994}},{"attributes":{"ID":403712,"DIS_CODE":0,"TOWNNAME":"安平區","LI":"金城里","LIN":"11鄰","STREET":"同平路","SECT":" ","MAREA":" ","LANE":"１５６巷","ALLEY":" ","HOUSE_NO":"５號","E_COORD97":163110.79999999999,"N_COORD97":2543997.21,"ADDRESS":"同平路１５６巷５號","OBJECTID":403688},"geometry":{"x":163110.80000000075,"y":2543997.2100000028}},{"attributes":{"ID":403713,"DIS_CODE":0,"TOWNNAME":"安平區","LI":"國平里","LIN":"11鄰","STREET":"建平一街","SECT":" ","MAREA":" ","LANE":"２０２巷","ALLEY":" ","HOUSE_NO":"１０號","E_COORD97":165590.66,"N_COORD97":2542814.6699999999,"ADDRESS":"建平一街２０２巷１０號","OBJECTID":403689},"geometry":{"x":165590.66000000108,"y":2542814.6699999999}},{"attributes":{"ID":403714,"DIS_CODE":0,"TOWNNAME":"安平區","LI":"國平里","LIN":"11鄰","STREET":"建平一街","SECT":" ","MAREA":" ","LANE":"２０２巷","ALLEY":" ","HOUSE_NO":"１２號","E_COORD97":165591.06,"N_COORD97":2542819.3100000001,"ADDRESS":"建平一街２０２巷１２號","OBJECTID":403690},"geometry":{"x":165591.05999999959,"y":2542819.3100000042}},{"attributes":{"ID":403715,"DIS_CODE":0,"TOWNNAME":"南區","LI":"永寧里","LIN":"11鄰","STREET":"灣裡路","SECT":" ","MAREA":" ","LANE":"２４６巷","ALLEY":" ","HOUSE_NO":"１１號","E_COORD97":166039.81,"N_COORD97":2536458.27,"ADDRESS":"灣裡路２４６巷１１號","OBJECTID":403691},"geometry":{"x":166039.81000000052,"y":2536458.2700000033}},{"attributes":{"ID":403716,"DIS_CODE":0,"TOWNNAME":"南區","LI":"永寧里","LIN":"11鄰","STREET":"灣裡路","SECT":" ","MAREA":" ","LANE":"２４６巷","ALLEY":" ","HOUSE_NO":"１２號","E_COORD97":165996.07999999999,"N_COORD97":2536461.9900000002,"ADDRESS":"灣裡路２４６巷１２號","OBJECTID":403692},"geometry":{"x":165996.08000000101,"y":2536461.9900000021}},{"attributes":{"ID":403717,"DIS_CODE":0,"TOWNNAME":"南區","LI":"永寧里","LIN":"11鄰","STREET":"灣裡路","SECT":" ","MAREA":" ","LANE":"２４６巷","ALLEY":" ","HOUSE_NO":"１３號","E_COORD97":166032.17999999999,"N_COORD97":2536455.2200000002,"ADDRESS":"灣裡路２４６巷１３號","OBJECTID":403693},"geometry":{"x":166032.18000000063,"y":2536455.2200000007}},{"attributes":{"ID":403718,"DIS_CODE":0,"TOWNNAME":"南區","LI":"永寧里","LIN":"11鄰","STREET":"灣裡路","SECT":" ","MAREA":" ","LANE":"２４６巷","ALLEY":" ","HOUSE_NO":"１４號","E_COORD97":165992.70999999999,"N_COORD97":2536457.9300000002,"ADDRESS":"灣裡路２４６巷１４號","OBJECTID":403694},"geometry":{"x":165992.70999999903,"y":2536457.9300000016}},{"attributes":{"ID":403719,"DIS_CODE":0,"TOWNNAME":"南區","LI":"永寧里","LIN":"11鄰","STREET":"灣裡路","SECT":" ","MAREA":" ","LANE":"２４６巷","ALLEY":" ","HOUSE_NO":"１５號","E_COORD97":166007.22,"N_COORD97":2536447.6699999999,"ADDRESS":"灣裡路２４６巷１５號","OBJECTID":403695},"geometry":{"x":166007.21999999974,"y":2536447.6699999999}},{"attributes":{"ID":403720,"DIS_CODE":0,"TOWNNAME":"南區","LI":"永寧里","LIN":"11鄰","STREET":"灣裡路","SECT":" ","MAREA":" ","LANE":"２４６巷","ALLEY":" ","HOUSE_NO":"１６號","E_COORD97":165987.14000000001,"N_COORD97":2536459.6699999999,"ADDRESS":"灣裡路２４６巷１６號","OBJECTID":403696},"geometry":{"x":165987.13999999966,"y":2536459.6700000018}},{"attributes":{"ID":403721,"DIS_CODE":0,"TOWNNAME":"南區","LI":"永寧里","LIN":"11鄰","STREET":"灣裡路","SECT":" ","MAREA":" ","LANE":"２４６巷","ALLEY":" ","HOUSE_NO":"１８號","E_COORD97":165982.60999999999,"N_COORD97":2536453.1800000002,"ADDRESS":"灣裡路２４６巷１８號","OBJECTID":403697},"geometry":{"x":165982.61000000127,"y":2536453.1800000016}},{"attributes":{"ID":403722,"DIS_CODE":0,"TOWNNAME":"南區","LI":"永寧里","LIN":"11鄰","STREET":"灣裡路","SECT":" ","MAREA":" ","LANE":"２４６巷","ALLEY":" ","HOUSE_NO":"７號","E_COORD97":166058.13,"N_COORD97":2536463.3500000001,"ADDRESS":"灣裡路２４６巷７號","OBJECTID":403698},"geometry":{"x":166058.13000000082,"y":2536463.3499999996}},{"attributes":{"ID":403723,"DIS_CODE":0,"TOWNNAME":"南區","LI":"永寧里","LIN":"11鄰","STREET":"灣裡路","SECT":" ","MAREA":" ","LANE":"８８巷","ALLEY":" ","HOUSE_NO":"１６２號之６","E_COORD97":165832.60999999999,"N_COORD97":2536481.0499999998,"ADDRESS":"灣裡路８８巷１６２號之６","OBJECTID":403699},"geometry":{"x":165832.61000000034,"y":2536481.0500000045}},{"attributes":{"ID":403724,"DIS_CODE":0,"TOWNNAME":"南區","LI":"喜南里","LIN":"11鄰","STREET":"喜樹路","SECT":" ","MAREA":" ","LANE":"２５２巷","ALLEY":" ","HOUSE_NO":"１號","E_COORD97":165679.22,"N_COORD97":2537925.3199999998,"ADDRESS":"喜樹路２５２巷１號","OBJECTID":403700},"geometry":{"x":165679.22000000067,"y":2537925.3200000003}},{"attributes":{"ID":403725,"DIS_CODE":0,"TOWNNAME":"南區","LI":"喜南里","LIN":"11鄰","STREET":"喜樹路","SECT":" ","MAREA":" ","LANE":"２５４巷","ALLEY":" ","HOUSE_NO":"１３號","E_COORD97":165633.87,"N_COORD97":2537899.6099999999,"ADDRESS":"喜樹路２５４巷１３號","OBJECTID":403701},"geometry":{"x":165633.87000000011,"y":2537899.6099999975}},{"attributes":{"ID":403726,"DIS_CODE":0,"TOWNNAME":"南區","LI":"喜南里","LIN":"11鄰","STREET":"喜樹路","SECT":" ","MAREA":" ","LANE":"２５４巷","ALLEY":" ","HOUSE_NO":"１５號","E_COORD97":165605.73000000001,"N_COORD97":2537895.6800000002,"ADDRESS":"喜樹路２５４巷１５號","OBJECTID":403702},"geometry":{"x":165605.73000000138,"y":2537895.6799999997}},{"attributes":{"ID":403727,"DIS_CODE":0,"TOWNNAME":"南區","LI":"喜南里","LIN":"11鄰","STREET":"喜樹路","SECT":" ","MAREA":" ","LANE":"２５４巷","ALLEY":" ","HOUSE_NO":"２１號","E_COORD97":165568.82999999999,"N_COORD97":2537887.9199999999,"ADDRESS":"喜樹路２５４巷２１號","OBJECTID":403703},"geometry":{"x":165568.83000000101,"y":2537887.9199999981}},{"attributes":{"ID":403728,"DIS_CODE":0,"TOWNNAME":"南區","LI":"喜南里","LIN":"11鄰","STREET":"喜樹路","SECT":" ","MAREA":" ","LANE":"２５４巷","ALLEY":" ","HOUSE_NO":"２３號","E_COORD97":165569.94,"N_COORD97":2537880.0499999998,"ADDRESS":"喜樹路２５４巷２３號","OBJECTID":403704},"geometry":{"x":165569.94000000134,"y":2537880.0500000007}},{"attributes":{"ID":403729,"DIS_CODE":0,"TOWNNAME":"南區","LI":"喜南里","LIN":"11鄰","STREET":"喜樹路","SECT":" ","MAREA":" ","LANE":"２５４巷","ALLEY":" ","HOUSE_NO":"３號","E_COORD97":165669.72,"N_COORD97":2537913.73,"ADDRESS":"喜樹路２５４巷３號","OBJECTID":403705},"geometry":{"x":165669.71999999974,"y":2537913.7300000042}},{"attributes":{"ID":403730,"DIS_CODE":0,"TOWNNAME":"南區","LI":"喜南里","LIN":"11鄰","STREET":"喜樹路","SECT":" ","MAREA":" ","LANE":"２５４巷","ALLEY":" ","HOUSE_NO":"５號","E_COORD97":165658.12,"N_COORD97":2537908.8799999999,"ADDRESS":"喜樹路２５４巷５號","OBJECTID":403706},"geometry":{"x":165658.12000000104,"y":2537908.8800000008}},{"attributes":{"ID":403731,"DIS_CODE":0,"TOWNNAME":"南區","LI":"喜南里","LIN":"11鄰","STREET":"喜樹路","SECT":" ","MAREA":" ","LANE":"２５４巷","ALLEY":" ","HOUSE_NO":"７號","E_COORD97":165646.51999999999,"N_COORD97":2537904.25,"ADDRESS":"喜樹路２５４巷７號","OBJECTID":403707},"geometry":{"x":165646.52000000048,"y":2537904.2500000019}},{"attributes":{"ID":403732,"DIS_CODE":0,"TOWNNAME":"南區","LI":"喜南里","LIN":"11鄰","STREET":"喜樹路","SECT":" ","MAREA":" ","LANE":"２７０巷","ALLEY":" ","HOUSE_NO":"１０號","E_COORD97":165617.23000000001,"N_COORD97":2537882.9399999999,"ADDRESS":"喜樹路２７０巷１０號","OBJECTID":403708},"geometry":{"x":165617.23000000138,"y":2537882.9399999995}},{"attributes":{"ID":403733,"DIS_CODE":0,"TOWNNAME":"南區","LI":"喜南里","LIN":"11鄰","STREET":"喜樹路","SECT":" ","MAREA":" ","LANE":"２７０巷","ALLEY":" ","HOUSE_NO":"１６號","E_COORD97":165602.76000000001,"N_COORD97":2537878.8100000001,"ADDRESS":"喜樹路２７０巷１６號","OBJECTID":403709},"geometry":{"x":165602.76000000071,"y":2537878.8100000005}},{"attributes":{"ID":403734,"DIS_CODE":0,"TOWNNAME":"南區","LI":"喜南里","LIN":"11鄰","STREET":"喜樹路","SECT":" ","MAREA":" ","LANE":"２７０巷","ALLEY":" ","HOUSE_NO":"２２號","E_COORD97":165584.82000000001,"N_COORD97":2537874.6499999999,"ADDRESS":"喜樹路２７０巷２２號","OBJECTID":403710},"geometry":{"x":165584.8200000003,"y":2537874.6500000022}},{"attributes":{"ID":403735,"DIS_CODE":0,"TOWNNAME":"南區","LI":"喜南里","LIN":"11鄰","STREET":"喜樹路","SECT":" ","MAREA":" ","LANE":"２７０巷","ALLEY":" ","HOUSE_NO":"２４號","E_COORD97":165572.20999999999,"N_COORD97":2537870.02,"ADDRESS":"喜樹路２７０巷２４號","OBJECTID":403711},"geometry":{"x":165572.20999999996,"y":2537870.0200000033}},{"attributes":{"ID":403736,"DIS_CODE":0,"TOWNNAME":"南區","LI":"喜南里","LIN":"11鄰","STREET":"喜樹路","SECT":" ","MAREA":" ","LANE":"２７０巷","ALLEY":" ","HOUSE_NO":"２６號","E_COORD97":165563.85999999999,"N_COORD97":2537867.79,"ADDRESS":"喜樹路２７０巷２６號","OBJECTID":403712},"geometry":{"x":165563.86000000127,"y":2537867.7900000028}},{"attributes":{"ID":403737,"DIS_CODE":0,"TOWNNAME":"南區","LI":"喜南里","LIN":"11鄰","STREET":"喜樹路","SECT":" ","MAREA":" ","LANE":"２７０巷","ALLEY":" ","HOUSE_NO":"２８號","E_COORD97":165553.66,"N_COORD97":2537866.3100000001,"ADDRESS":"喜樹路２７０巷２８號","OBJECTID":403713},"geometry":{"x":165553.66000000015,"y":2537866.3100000024}},{"attributes":{"ID":403738,"DIS_CODE":0,"TOWNNAME":"南區","LI":"喜南里","LIN":"11鄰","STREET":"喜樹路","SECT":" ","MAREA":" ","LANE":"２７０巷","ALLEY":" ","HOUSE_NO":"２號","E_COORD97":165677.53,"N_COORD97":2537895.6000000001,"ADDRESS":"喜樹路２７０巷２號","OBJECTID":403714},"geometry":{"x":165677.53000000119,"y":2537895.5999999996}},{"attributes":{"ID":403739,"DIS_CODE":0,"TOWNNAME":"南區","LI":"喜南里","LIN":"11鄰","STREET":"喜樹路","SECT":" ","MAREA":" ","LANE":"２７０巷","ALLEY":" ","HOUSE_NO":"３０號","E_COORD97":165549.57000000001,"N_COORD97":2537863.8999999999,"ADDRESS":"喜樹路２７０巷３０號","OBJECTID":403715},"geometry":{"x":165549.5700000003,"y":2537863.9000000004}},{"attributes":{"ID":403740,"DIS_CODE":0,"TOWNNAME":"南區","LI":"喜南里","LIN":"11鄰","STREET":"喜樹路","SECT":" ","MAREA":" ","LANE":"２７０巷","ALLEY":" ","HOUSE_NO":"８號","E_COORD97":165657.07000000001,"N_COORD97":2537891.3900000001,"ADDRESS":"喜樹路２７０巷８號","OBJECTID":403716},"geometry":{"x":165657.07000000123,"y":2537891.3900000006}},{"attributes":{"ID":403741,"DIS_CODE":0,"TOWNNAME":"學甲區","LI":"仁得里","LIN":"11鄰","STREET":"寶發路","SECT":" ","MAREA":" ","LANE":"３２９巷","ALLEY":" ","HOUSE_NO":"７８號","E_COORD97":165783.25,"N_COORD97":2569433.5299999998,"ADDRESS":"寶發路３２９巷７８號","OBJECTID":403717},"geometry":{"x":165783.25,"y":2569433.5299999993}},{"attributes":{"ID":403742,"DIS_CODE":0,"TOWNNAME":"南區","LI":"興農里","LIN":"11鄰","STREET":"明興路","SECT":" ","MAREA":" ","LANE":"１１８１巷","ALLEY":" ","HOUSE_NO":"１２３號之１２","E_COORD97":167205.04000000001,"N_COORD97":2536501.8399999999,"ADDRESS":"明興路１１８１巷１２３號之１２","OBJECTID":403718},"geometry":{"x":167205.04000000097,"y":2536501.8400000036}},{"attributes":{"ID":403743,"DIS_CODE":0,"TOWNNAME":"六甲區","LI":"七甲里","LIN":"11鄰","STREET":"七甲街","SECT":" ","MAREA":" ","LANE":"８６巷","ALLEY":" ","HOUSE_NO":"１１號","E_COORD97":183149.70000000001,"N_COORD97":2569062.1099999999,"ADDRESS":"七甲街８６巷１１號","OBJECTID":403719},"geometry":{"x":183149.70000000019,"y":2569062.1100000013}},{"attributes":{"ID":403744,"DIS_CODE":0,"TOWNNAME":"六甲區","LI":"七甲里","LIN":"11鄰","STREET":"七甲街","SECT":" ","MAREA":" ","LANE":"８６巷","ALLEY":" ","HOUSE_NO":"１３號","E_COORD97":183149.54999999999,"N_COORD97":2569077.52,"ADDRESS":"七甲街８６巷１３號","OBJECTID":403720},"geometry":{"x":183149.55000000075,"y":2569077.5199999996}},{"attributes":{"ID":403745,"DIS_CODE":0,"TOWNNAME":"六甲區","LI":"七甲里","LIN":"11鄰","STREET":"七甲街","SECT":" ","MAREA":" ","LANE":"８６巷","ALLEY":" ","HOUSE_NO":"１５號","E_COORD97":183148.13,"N_COORD97":2569088.8999999999,"ADDRESS":"七甲街８６巷１５號","OBJECTID":403721},"geometry":{"x":183148.12999999989,"y":2569088.9000000004}},{"attributes":{"ID":403746,"DIS_CODE":0,"TOWNNAME":"六甲區","LI":"七甲里","LIN":"11鄰","STREET":"七甲街","SECT":" ","MAREA":" ","LANE":"８６巷","ALLEY":" ","HOUSE_NO":"１７號","E_COORD97":183150.51000000001,"N_COORD97":2569095.2599999998,"ADDRESS":"七甲街８６巷１７號","OBJECTID":403722},"geometry":{"x":183150.50999999978,"y":2569095.2600000016}},{"attributes":{"ID":403747,"DIS_CODE":0,"TOWNNAME":"六甲區","LI":"七甲里","LIN":"11鄰","STREET":"七甲街","SECT":" ","MAREA":" ","LANE":"８６巷","ALLEY":" ","HOUSE_NO":"１９號","E_COORD97":183150.94,"N_COORD97":2569101.9300000002,"ADDRESS":"七甲街８６巷１９號","OBJECTID":403723},"geometry":{"x":183150.94000000134,"y":2569101.9299999997}},{"attributes":{"ID":403748,"DIS_CODE":0,"TOWNNAME":"六甲區","LI":"七甲里","LIN":"11鄰","STREET":"七甲街","SECT":" ","MAREA":" ","LANE":"８６巷","ALLEY":" ","HOUSE_NO":"２１號","E_COORD97":183152.85999999999,"N_COORD97":2569108.4300000002,"ADDRESS":"七甲街８６巷２１號","OBJECTID":403724},"geometry":{"x":183152.86000000127,"y":2569108.4299999997}},{"attributes":{"ID":403749,"DIS_CODE":0,"TOWNNAME":"六甲區","LI":"七甲里","LIN":"11鄰","STREET":"七甲街","SECT":" ","MAREA":" ","LANE":"８６巷","ALLEY":" ","HOUSE_NO":"３號","E_COORD97":183139.70999999999,"N_COORD97":2569035.21,"ADDRESS":"七甲街８６巷３號","OBJECTID":403725},"geometry":{"x":183139.71000000183,"y":2569035.2100000028}},{"attributes":{"ID":403750,"DIS_CODE":0,"TOWNNAME":"六甲區","LI":"七甲里","LIN":"11鄰","STREET":"七甲街","SECT":" ","MAREA":" ","LANE":"８６巷","ALLEY":" ","HOUSE_NO":"５號","E_COORD97":183140.45999999999,"N_COORD97":2569039.1499999999,"ADDRESS":"七甲街８６巷５號","OBJECTID":403726},"geometry":{"x":183140.46000000089,"y":2569039.1500000022}},{"attributes":{"ID":403751,"DIS_CODE":0,"TOWNNAME":"北區","LI":"仁愛里","LIN":"11鄰","STREET":"東豐路","SECT":" ","MAREA":" ","LANE":"３０５巷","ALLEY":" ","HOUSE_NO":"５５號","E_COORD97":170425.37,"N_COORD97":2544946.5499999998,"ADDRESS":"東豐路３０５巷５５號","OBJECTID":403727},"geometry":{"x":170425.37000000104,"y":2544946.5500000007}},{"attributes":{"ID":403752,"DIS_CODE":0,"TOWNNAME":"北區","LI":"仁愛里","LIN":"11鄰","STREET":"東豐路","SECT":" ","MAREA":" ","LANE":"３０５巷","ALLEY":" ","HOUSE_NO":"５７號","E_COORD97":170426.16,"N_COORD97":2544953.23,"ADDRESS":"東豐路３０５巷５７號","OBJECTID":403728},"geometry":{"x":170426.15999999922,"y":2544953.2300000023}},{"attributes":{"ID":403753,"DIS_CODE":0,"TOWNNAME":"北區","LI":"仁愛里","LIN":"11鄰","STREET":"東豐路","SECT":" ","MAREA":" ","LANE":"３０５巷","ALLEY":" ","HOUSE_NO":"５９號","E_COORD97":170430.60000000001,"N_COORD97":2544957.6600000001,"ADDRESS":"東豐路３０５巷５９號","OBJECTID":403729},"geometry":{"x":170430.59999999963,"y":2544957.6600000001}},{"attributes":{"ID":403754,"DIS_CODE":0,"TOWNNAME":"北區","LI":"仁愛里","LIN":"11鄰","STREET":"東豐路","SECT":" ","MAREA":" ","LANE":"３０５巷","ALLEY":" ","HOUSE_NO":"６１號","E_COORD97":170432.34,"N_COORD97":2544964.1200000001,"ADDRESS":"東豐路３０５巷６１號","OBJECTID":403730},"geometry":{"x":170432.34000000078,"y":2544964.1200000029}},{"attributes":{"ID":403755,"DIS_CODE":0,"TOWNNAME":"北區","LI":"仁愛里","LIN":"11鄰","STREET":"東豐路","SECT":" ","MAREA":" ","LANE":"３０５巷","ALLEY":" ","HOUSE_NO":"６３號","E_COORD97":170432.17999999999,"N_COORD97":2544967.9300000002,"ADDRESS":"東豐路３０５巷６３號","OBJECTID":403731},"geometry":{"x":170432.1799999997,"y":2544967.9300000016}},{"attributes":{"ID":403756,"DIS_CODE":0,"TOWNNAME":"北區","LI":"仁愛里","LIN":"11鄰","STREET":"東豐路","SECT":" ","MAREA":" ","LANE":"３０５巷","ALLEY":" ","HOUSE_NO":"６５號","E_COORD97":170433.92999999999,"N_COORD97":2544971.5899999999,"ADDRESS":"東豐路３０５巷６５號","OBJECTID":403732},"geometry":{"x":170433.9299999997,"y":2544971.5899999999}},{"attributes":{"ID":403757,"DIS_CODE":0,"TOWNNAME":"北區","LI":"仁愛里","LIN":"11鄰","STREET":"東豐路","SECT":" ","MAREA":" ","LANE":"３０５巷","ALLEY":" ","HOUSE_NO":"６７號","E_COORD97":170434.57000000001,"N_COORD97":2544975.7200000002,"ADDRESS":"東豐路３０５巷６７號","OBJECTID":403733},"geometry":{"x":170434.57000000123,"y":2544975.7200000007}},{"attributes":{"ID":403758,"DIS_CODE":0,"TOWNNAME":"北區","LI":"仁愛里","LIN":"11鄰","STREET":"東豐路","SECT":" ","MAREA":" ","LANE":"３０５巷","ALLEY":" ","HOUSE_NO":"６９號","E_COORD97":170434.57000000001,"N_COORD97":2544980.3300000001,"ADDRESS":"東豐路３０５巷６９號","OBJECTID":403734},"geometry":{"x":170434.57000000123,"y":2544980.3300000001}},{"attributes":{"ID":403759,"DIS_CODE":0,"TOWNNAME":"北區","LI":"仁愛里","LIN":"11鄰","STREET":"東豐路","SECT":" ","MAREA":" ","LANE":"３０５巷","ALLEY":" ","HOUSE_NO":"７１號","E_COORD97":170435.84,"N_COORD97":2544983.3500000001,"ADDRESS":"東豐路３０５巷７１號","OBJECTID":403735},"geometry":{"x":170435.83999999985,"y":2544983.3499999996}},{"attributes":{"ID":403760,"DIS_CODE":0,"TOWNNAME":"北區","LI":"仁愛里","LIN":"11鄰","STREET":"東豐路","SECT":" ","MAREA":" ","LANE":"３０５巷","ALLEY":" ","HOUSE_NO":"７３號","E_COORD97":170436.48000000001,"N_COORD97":2544988.1099999999,"ADDRESS":"東豐路３０５巷７３號","OBJECTID":403736},"geometry":{"x":170436.48000000138,"y":2544988.1099999994}},{"attributes":{"ID":403761,"DIS_CODE":0,"TOWNNAME":"北區","LI":"仁愛里","LIN":"11鄰","STREET":"東豐路","SECT":" ","MAREA":" ","LANE":"３０５巷","ALLEY":" ","HOUSE_NO":"７５號","E_COORD97":170437.42999999999,"N_COORD97":2544993.3599999999,"ADDRESS":"東豐路３０５巷７５號","OBJECTID":403737},"geometry":{"x":170437.42999999877,"y":2544993.3599999994}},{"attributes":{"ID":403762,"DIS_CODE":0,"TOWNNAME":"北區","LI":"仁愛里","LIN":"11鄰","STREET":"東豐路","SECT":" ","MAREA":" ","LANE":"３０５巷","ALLEY":" ","HOUSE_NO":"７７號","E_COORD97":170438.07000000001,"N_COORD97":2544996.3799999999,"ADDRESS":"東豐路３０５巷７７號","OBJECTID":403738},"geometry":{"x":170438.07000000123,"y":2544996.379999999}},{"attributes":{"ID":403763,"DIS_CODE":0,"TOWNNAME":"北區","LI":"文成里","LIN":"11鄰","STREET":"文賢路","SECT":" ","MAREA":" ","LANE":"２９２巷","ALLEY":" ","HOUSE_NO":"１０１號","E_COORD97":167574.38,"N_COORD97":2545225.3799999999,"ADDRESS":"文賢路２９２巷１０１號","OBJECTID":403739},"geometry":{"x":167574.37999999989,"y":2545225.3800000008}},{"attributes":{"ID":403764,"DIS_CODE":0,"TOWNNAME":"北區","LI":"文成里","LIN":"11鄰","STREET":"文賢路","SECT":" ","MAREA":" ","LANE":"２９２巷","ALLEY":" ","HOUSE_NO":"２９號","E_COORD97":167416.73000000001,"N_COORD97":2545145.1299999999,"ADDRESS":"文賢路２９２巷２９號","OBJECTID":403740},"geometry":{"x":167416.73000000045,"y":2545145.1300000008}},{"attributes":{"ID":403765,"DIS_CODE":0,"TOWNNAME":"北區","LI":"文成里","LIN":"11鄰","STREET":"文賢路","SECT":" ","MAREA":" ","LANE":"２９２巷","ALLEY":" ","HOUSE_NO":"３１號","E_COORD97":167421.35999999999,"N_COORD97":2545146.9399999999,"ADDRESS":"文賢路２９２巷３１號","OBJECTID":403741},"geometry":{"x":167421.3600000022,"y":2545146.9400000013}},{"attributes":{"ID":403766,"DIS_CODE":0,"TOWNNAME":"北區","LI":"文成里","LIN":"11鄰","STREET":"文賢路","SECT":" ","MAREA":" ","LANE":"２９２巷","ALLEY":" ","HOUSE_NO":"３３號","E_COORD97":167425.59,"N_COORD97":2545148.1499999999,"ADDRESS":"文賢路２９２巷３３號","OBJECTID":403742},"geometry":{"x":167425.58999999985,"y":2545148.1500000004}},{"attributes":{"ID":403767,"DIS_CODE":0,"TOWNNAME":"北區","LI":"文成里","LIN":"11鄰","STREET":"文賢路","SECT":" ","MAREA":" ","LANE":"２９２巷","ALLEY":" ","HOUSE_NO":"３５號","E_COORD97":167429.62,"N_COORD97":2545149.3599999999,"ADDRESS":"文賢路２９２巷３５號","OBJECTID":403743},"geometry":{"x":167429.62000000104,"y":2545149.3599999994}},{"attributes":{"ID":403768,"DIS_CODE":0,"TOWNNAME":"北區","LI":"文成里","LIN":"11鄰","STREET":"文賢路","SECT":" ","MAREA":" ","LANE":"２９２巷","ALLEY":" ","HOUSE_NO":"３７號","E_COORD97":167433.45000000001,"N_COORD97":2545151.77,"ADDRESS":"文賢路２９２巷３７號","OBJECTID":403744},"geometry":{"x":167433.45000000019,"y":2545151.7700000014}},{"attributes":{"ID":403769,"DIS_CODE":0,"TOWNNAME":"北區","LI":"文成里","LIN":"11鄰","STREET":"文賢路","SECT":" ","MAREA":" ","LANE":"２９２巷","ALLEY":" ","HOUSE_NO":"３９號","E_COORD97":167437.67999999999,"N_COORD97":2545152.77,"ADDRESS":"文賢路２９２巷３９號","OBJECTID":403745},"geometry":{"x":167437.68000000063,"y":2545152.7699999996}},{"attributes":{"ID":403770,"DIS_CODE":0,"TOWNNAME":"北區","LI":"文成里","LIN":"11鄰","STREET":"文賢路","SECT":" ","MAREA":" ","LANE":"２９２巷","ALLEY":" ","HOUSE_NO":"４１號","E_COORD97":167441.70000000001,"N_COORD97":2545154.3799999999,"ADDRESS":"文賢路２９２巷４１號","OBJECTID":403746},"geometry":{"x":167441.70000000019,"y":2545154.3800000008}},{"attributes":{"ID":403771,"DIS_CODE":0,"TOWNNAME":"北區","LI":"文成里","LIN":"11鄰","STREET":"文賢路","SECT":" ","MAREA":" ","LANE":"２９２巷","ALLEY":" ","HOUSE_NO":"４３號","E_COORD97":167445.53,"N_COORD97":2545156.1899999999,"ADDRESS":"文賢路２９２巷４３號","OBJECTID":403747},"geometry":{"x":167445.53000000212,"y":2545156.1900000013}},{"attributes":{"ID":403772,"DIS_CODE":0,"TOWNNAME":"北區","LI":"文成里","LIN":"11鄰","STREET":"文賢路","SECT":" ","MAREA":" ","LANE":"２９２巷","ALLEY":" ","HOUSE_NO":"４５號","E_COORD97":167449.35999999999,"N_COORD97":2545157.2000000002,"ADDRESS":"文賢路２９２巷４５號","OBJECTID":403748},"geometry":{"x":167449.36000000034,"y":2545157.1999999993}},{"attributes":{"ID":403773,"DIS_CODE":0,"TOWNNAME":"北區","LI":"文成里","LIN":"11鄰","STREET":"文賢路","SECT":" ","MAREA":" ","LANE":"２９２巷","ALLEY":" ","HOUSE_NO":"４７號","E_COORD97":167453.17999999999,"N_COORD97":2545159.21,"ADDRESS":"文賢路２９２巷４７號","OBJECTID":403749},"geometry":{"x":167453.1799999997,"y":2545159.2100000009}},{"attributes":{"ID":403774,"DIS_CODE":0,"TOWNNAME":"北區","LI":"文成里","LIN":"11鄰","STREET":"文賢路","SECT":" ","MAREA":" ","LANE":"２９２巷","ALLEY":" ","HOUSE_NO":"４９號","E_COORD97":167462.12,"N_COORD97":2545164.4900000002,"ADDRESS":"文賢路２９２巷４９號","OBJECTID":403750},"geometry":{"x":167462.12000000104,"y":2545164.4900000021}},{"attributes":{"ID":403775,"DIS_CODE":0,"TOWNNAME":"北區","LI":"文成里","LIN":"11鄰","STREET":"文賢路","SECT":" ","MAREA":" ","LANE":"２９２巷","ALLEY":" ","HOUSE_NO":"５１號","E_COORD97":167467.16,"N_COORD97":2545166.2999999998,"ADDRESS":"文賢路２９２巷５１號","OBJECTID":403751},"geometry":{"x":167467.16000000108,"y":2545166.3000000026}},{"attributes":{"ID":403776,"DIS_CODE":0,"TOWNNAME":"北區","LI":"文成里","LIN":"11鄰","STREET":"文賢路","SECT":" ","MAREA":" ","LANE":"２９２巷","ALLEY":" ","HOUSE_NO":"５３號","E_COORD97":167471.17999999999,"N_COORD97":2545168.3100000001,"ADDRESS":"文賢路２９２巷５３號","OBJECTID":403752},"geometry":{"x":167471.18000000063,"y":2545168.3100000005}},{"attributes":{"ID":403777,"DIS_CODE":0,"TOWNNAME":"北區","LI":"文成里","LIN":"11鄰","STREET":"文賢路","SECT":" ","MAREA":" ","LANE":"２９２巷","ALLEY":" ","HOUSE_NO":"５５號","E_COORD97":167474.60999999999,"N_COORD97":2545170.52,"ADDRESS":"文賢路２９２巷５５號","OBJECTID":403753},"geometry":{"x":167474.61000000127,"y":2545170.5200000014}},{"attributes":{"ID":403778,"DIS_CODE":0,"TOWNNAME":"北區","LI":"文成里","LIN":"11鄰","STREET":"文賢路","SECT":" ","MAREA":" ","LANE":"２９２巷","ALLEY":" ","HOUSE_NO":"５７號","E_COORD97":167478.42999999999,"N_COORD97":2545171.73,"ADDRESS":"文賢路２９２巷５７號","OBJECTID":403754},"geometry":{"x":167478.43000000063,"y":2545171.7300000004}},{"attributes":{"ID":403779,"DIS_CODE":0,"TOWNNAME":"北區","LI":"文成里","LIN":"11鄰","STREET":"文賢路","SECT":" ","MAREA":" ","LANE":"２９２巷","ALLEY":" ","HOUSE_NO":"５９號","E_COORD97":167482.45999999999,"N_COORD97":2545174.54,"ADDRESS":"文賢路２９２巷５９號","OBJECTID":403755},"geometry":{"x":167482.45999999996,"y":2545174.5399999991}},{"attributes":{"ID":403780,"DIS_CODE":0,"TOWNNAME":"北區","LI":"文成里","LIN":"11鄰","STREET":"文賢路","SECT":" ","MAREA":" ","LANE":"２９２巷","ALLEY":" ","HOUSE_NO":"６１號","E_COORD97":167486.09,"N_COORD97":2545176.3500000001,"ADDRESS":"文賢路２９２巷６１號","OBJECTID":403756},"geometry":{"x":167486.09000000078,"y":2545176.3499999996}},{"attributes":{"ID":403781,"DIS_CODE":0,"TOWNNAME":"北區","LI":"文成里","LIN":"11鄰","STREET":"文賢路","SECT":" ","MAREA":" ","LANE":"２９２巷","ALLEY":" ","HOUSE_NO":"６３號","E_COORD97":167490.10999999999,"N_COORD97":2545178.3599999999,"ADDRESS":"文賢路２９２巷６３號","OBJECTID":403757},"geometry":{"x":167490.11000000034,"y":2545178.3600000013}},{"attributes":{"ID":403782,"DIS_CODE":0,"TOWNNAME":"北區","LI":"文成里","LIN":"11鄰","STREET":"文賢路","SECT":" ","MAREA":" ","LANE":"２９２巷","ALLEY":" ","HOUSE_NO":"６５號","E_COORD97":167494.34,"N_COORD97":2545180.7799999998,"ADDRESS":"文賢路２９２巷６５號","OBJECTID":403758},"geometry":{"x":167494.34000000078,"y":2545180.7799999993}},{"attributes":{"ID":403783,"DIS_CODE":0,"TOWNNAME":"北區","LI":"文成里","LIN":"11鄰","STREET":"文賢路","SECT":" ","MAREA":" ","LANE":"２９２巷","ALLEY":" ","HOUSE_NO":"６７號","E_COORD97":167497.97,"N_COORD97":2545182.3900000001,"ADDRESS":"文賢路２９２巷６７號","OBJECTID":403759},"geometry":{"x":167497.9700000016,"y":2545182.3900000025}},{"attributes":{"ID":403784,"DIS_CODE":0,"TOWNNAME":"北區","LI":"文成里","LIN":"11鄰","STREET":"文賢路","SECT":" ","MAREA":" ","LANE":"２９２巷","ALLEY":" ","HOUSE_NO":"６９號","E_COORD97":167500.98999999999,"N_COORD97":2545184,"ADDRESS":"文賢路２９２巷６９號","OBJECTID":403760},"geometry":{"x":167500.99000000022,"y":2545184.0000000037}},{"attributes":{"ID":403785,"DIS_CODE":0,"TOWNNAME":"北區","LI":"文成里","LIN":"11鄰","STREET":"文賢路","SECT":" ","MAREA":" ","LANE":"２９２巷","ALLEY":" ","HOUSE_NO":"７１號","E_COORD97":167504.81,"N_COORD97":2545187.0099999998,"ADDRESS":"文賢路２９２巷７１號","OBJECTID":403761},"geometry":{"x":167504.80999999959,"y":2545187.0100000035}},{"attributes":{"ID":403786,"DIS_CODE":0,"TOWNNAME":"北區","LI":"文成里","LIN":"11鄰","STREET":"文賢路","SECT":" ","MAREA":" ","LANE":"２９２巷","ALLEY":" ","HOUSE_NO":"７３號","E_COORD97":167508.64000000001,"N_COORD97":2545189.2200000002,"ADDRESS":"文賢路２９２巷７３號","OBJECTID":403762},"geometry":{"x":167508.6400000006,"y":2545189.2200000007}},{"attributes":{"ID":403787,"DIS_CODE":0,"TOWNNAME":"南區","LI":"建南里","LIN":"11鄰","STREET":"中華南路","SECT":"二段","MAREA":" ","LANE":"１７７巷","ALLEY":" ","HOUSE_NO":"１０７號","E_COORD97":167097.10999999999,"N_COORD97":2539882.2599999998,"ADDRESS":"中華南路二段１７７巷１０７號","OBJECTID":403763},"geometry":{"x":167097.11000000034,"y":2539882.2599999998}},{"attributes":{"ID":403788,"DIS_CODE":0,"TOWNNAME":"南區","LI":"建南里","LIN":"11鄰","STREET":"中華南路","SECT":"二段","MAREA":" ","LANE":"１７７巷","ALLEY":" ","HOUSE_NO":"１０８號","E_COORD97":167069.51999999999,"N_COORD97":2539879.0600000001,"ADDRESS":"中華南路二段１７７巷１０８號","OBJECTID":403764},"geometry":{"x":167069.51999999955,"y":2539879.0600000024}},{"attributes":{"ID":403789,"DIS_CODE":0,"TOWNNAME":"南區","LI":"建南里","LIN":"11鄰","STREET":"中華南路","SECT":"二段","MAREA":" ","LANE":"１７７巷","ALLEY":" ","HOUSE_NO":"１０９號","E_COORD97":167096.85999999999,"N_COORD97":2539878.98,"ADDRESS":"中華南路二段１７７巷１０９號","OBJECTID":403765},"geometry":{"x":167096.86000000034,"y":2539878.9800000023}},{"attributes":{"ID":403790,"DIS_CODE":0,"TOWNNAME":"南區","LI":"建南里","LIN":"11鄰","STREET":"德興路","SECT":" ","MAREA":" ","LANE":"３３６巷","ALLEY":" ","HOUSE_NO":"１０號","E_COORD97":167173.98999999999,"N_COORD97":2539864.2000000002,"ADDRESS":"德興路３３６巷１０號","OBJECTID":403766},"geometry":{"x":167173.99000000022,"y":2539864.1999999993}},{"attributes":{"ID":403791,"DIS_CODE":0,"TOWNNAME":"南區","LI":"建南里","LIN":"11鄰","STREET":"德興路","SECT":" ","MAREA":" ","LANE":"３３６巷","ALLEY":" ","HOUSE_NO":"１２號","E_COORD97":167169.10000000001,"N_COORD97":2539864.2000000002,"ADDRESS":"德興路３３６巷１２號","OBJECTID":403767},"geometry":{"x":167169.09999999963,"y":2539864.1999999993}},{"attributes":{"ID":403792,"DIS_CODE":0,"TOWNNAME":"南區","LI":"建南里","LIN":"11鄰","STREET":"德興路","SECT":" ","MAREA":" ","LANE":"３３６巷","ALLEY":" ","HOUSE_NO":"１４號","E_COORD97":167164.57000000001,"N_COORD97":2539864.2000000002,"ADDRESS":"德興路３３６巷１４號","OBJECTID":403768},"geometry":{"x":167164.57000000123,"y":2539864.1999999993}},{"attributes":{"ID":403793,"DIS_CODE":0,"TOWNNAME":"南區","LI":"建南里","LIN":"11鄰","STREET":"德興路","SECT":" ","MAREA":" ","LANE":"３３６巷","ALLEY":" ","HOUSE_NO":"１６號","E_COORD97":167160.76000000001,"N_COORD97":2539864.2000000002,"ADDRESS":"德興路３３６巷１６號","OBJECTID":403769},"geometry":{"x":167160.76000000071,"y":2539864.1999999993}},{"attributes":{"ID":403794,"DIS_CODE":0,"TOWNNAME":"南區","LI":"建南里","LIN":"11鄰","STREET":"德興路","SECT":" ","MAREA":" ","LANE":"３３６巷","ALLEY":" ","HOUSE_NO":"１８號","E_COORD97":167156.42000000001,"N_COORD97":2539864.3799999999,"ADDRESS":"德興路３３６巷１８號","OBJECTID":403770},"geometry":{"x":167156.42000000086,"y":2539864.3800000008}},{"attributes":{"ID":403795,"DIS_CODE":0,"TOWNNAME":"南區","LI":"建南里","LIN":"11鄰","STREET":"德興路","SECT":" ","MAREA":" ","LANE":"３３６巷","ALLEY":" ","HOUSE_NO":"２０號","E_COORD97":167151.89000000001,"N_COORD97":2539864.75,"ADDRESS":"德興路３３６巷２０號","OBJECTID":403771},"geometry":{"x":167151.88999999966,"y":2539864.75}},{"attributes":{"ID":403796,"DIS_CODE":0,"TOWNNAME":"南區","LI":"建南里","LIN":"11鄰","STREET":"德興路","SECT":" ","MAREA":" ","LANE":"３３６巷","ALLEY":" ","HOUSE_NO":"２２號","E_COORD97":167147.54000000001,"N_COORD97":2539864.75,"ADDRESS":"德興路３３６巷２２號","OBJECTID":403772},"geometry":{"x":167147.54000000097,"y":2539864.75}},{"attributes":{"ID":403797,"DIS_CODE":0,"TOWNNAME":"南區","LI":"建南里","LIN":"11鄰","STREET":"德興路","SECT":" ","MAREA":" ","LANE":"３３６巷","ALLEY":" ","HOUSE_NO":"２４號","E_COORD97":167143.19,"N_COORD97":2539865.1099999999,"ADDRESS":"德興路３３６巷２４號","OBJECTID":403773},"geometry":{"x":167143.19000000134,"y":2539865.1099999994}},{"attributes":{"ID":403798,"DIS_CODE":0,"TOWNNAME":"南區","LI":"建南里","LIN":"11鄰","STREET":"德興路","SECT":" ","MAREA":" ","LANE":"３３６巷","ALLEY":" ","HOUSE_NO":"２６號","E_COORD97":167138.29999999999,"N_COORD97":2539865.1099999999,"ADDRESS":"德興路３３６巷２６號","OBJECTID":403774},"geometry":{"x":167138.30000000075,"y":2539865.1099999994}},{"attributes":{"ID":403799,"DIS_CODE":0,"TOWNNAME":"南區","LI":"建南里","LIN":"11鄰","STREET":"德興路","SECT":" ","MAREA":" ","LANE":"３３６巷","ALLEY":" ","HOUSE_NO":"２８號","E_COORD97":167133.04999999999,"N_COORD97":2539865.1099999999,"ADDRESS":"德興路３３６巷２８號","OBJECTID":403775},"geometry":{"x":167133.05000000168,"y":2539865.1099999994}},{"attributes":{"ID":403800,"DIS_CODE":0,"TOWNNAME":"南區","LI":"建南里","LIN":"11鄰","STREET":"德興路","SECT":" ","MAREA":" ","LANE":"３３６巷","ALLEY":" ","HOUSE_NO":"３０號","E_COORD97":167129.06,"N_COORD97":2539865.4700000002,"ADDRESS":"德興路３３６巷３０號","OBJECTID":403776},"geometry":{"x":167129.05999999959,"y":2539865.4700000025}},{"attributes":{"ID":403801,"DIS_CODE":0,"TOWNNAME":"南區","LI":"建南里","LIN":"11鄰","STREET":"德興路","SECT":" ","MAREA":" ","LANE":"３３６巷","ALLEY":" ","HOUSE_NO":"３２號","E_COORD97":167124.53,"N_COORD97":2539865.4700000002,"ADDRESS":"德興路３３６巷３２號","OBJECTID":403777},"geometry":{"x":167124.53000000026,"y":2539865.4700000025}},{"attributes":{"ID":403802,"DIS_CODE":0,"TOWNNAME":"南區","LI":"建南里","LIN":"11鄰","STREET":"德興路","SECT":" ","MAREA":" ","LANE":"３３６巷","ALLEY":" ","HOUSE_NO":"３４號","E_COORD97":167119.10000000001,"N_COORD97":2539865.4700000002,"ADDRESS":"德興路３３６巷３４號","OBJECTID":403778},"geometry":{"x":167119.10000000056,"y":2539865.4700000025}},{"attributes":{"ID":403803,"DIS_CODE":0,"TOWNNAME":"南區","LI":"建南里","LIN":"11鄰","STREET":"德興路","SECT":" ","MAREA":" ","LANE":"３３６巷","ALLEY":" ","HOUSE_NO":"４６號","E_COORD97":167112.76000000001,"N_COORD97":2539865.4700000002,"ADDRESS":"德興路３３６巷４６號","OBJECTID":403779},"geometry":{"x":167112.76000000164,"y":2539865.4700000025}},{"attributes":{"ID":403804,"DIS_CODE":0,"TOWNNAME":"南區","LI":"建南里","LIN":"11鄰","STREET":"德興路","SECT":" ","MAREA":" ","LANE":"３３６巷","ALLEY":" ","HOUSE_NO":"４８號","E_COORD97":167108.41,"N_COORD97":2539865.29,"ADDRESS":"德興路３３６巷４８號","OBJECTID":403780},"geometry":{"x":167108.41000000015,"y":2539865.290000001}},{"attributes":{"ID":403805,"DIS_CODE":0,"TOWNNAME":"南區","LI":"建南里","LIN":"11鄰","STREET":"德興路","SECT":" ","MAREA":" ","LANE":"３３６巷","ALLEY":" ","HOUSE_NO":"４號","E_COORD97":167186.12,"N_COORD97":2539864.2000000002,"ADDRESS":"德興路３３６巷４號","OBJECTID":403781},"geometry":{"x":167186.12000000104,"y":2539864.1999999993}},{"attributes":{"ID":403806,"DIS_CODE":0,"TOWNNAME":"南區","LI":"建南里","LIN":"11鄰","STREET":"德興路","SECT":" ","MAREA":" ","LANE":"３３６巷","ALLEY":" ","HOUSE_NO":"５０號","E_COORD97":167102.79000000001,"N_COORD97":2539865.6499999999,"ADDRESS":"德興路３３６巷５０號","OBJECTID":403782},"geometry":{"x":167102.7900000019,"y":2539865.6500000004}},{"attributes":{"ID":403807,"DIS_CODE":0,"TOWNNAME":"南區","LI":"建南里","LIN":"11鄰","STREET":"德興路","SECT":" ","MAREA":" ","LANE":"３３６巷","ALLEY":" ","HOUSE_NO":"５２號","E_COORD97":167098.63,"N_COORD97":2539865.6499999999,"ADDRESS":"德興路３３６巷５２號","OBJECTID":403783},"geometry":{"x":167098.63000000175,"y":2539865.6500000004}},{"attributes":{"ID":403808,"DIS_CODE":0,"TOWNNAME":"南區","LI":"建南里","LIN":"11鄰","STREET":"德興路","SECT":" ","MAREA":" ","LANE":"３３６巷","ALLEY":" ","HOUSE_NO":"５４號","E_COORD97":167093.73999999999,"N_COORD97":2539865.4700000002,"ADDRESS":"德興路３３６巷５４號","OBJECTID":403784},"geometry":{"x":167093.74000000115,"y":2539865.4700000025}},{"attributes":{"ID":403809,"DIS_CODE":0,"TOWNNAME":"南區","LI":"建南里","LIN":"11鄰","STREET":"德興路","SECT":" ","MAREA":" ","LANE":"３３６巷","ALLEY":" ","HOUSE_NO":"６號","E_COORD97":167182.32000000001,"N_COORD97":2539864.3799999999,"ADDRESS":"德興路３３６巷６號","OBJECTID":403785},"geometry":{"x":167182.3200000003,"y":2539864.3800000008}},{"attributes":{"ID":403810,"DIS_CODE":0,"TOWNNAME":"南區","LI":"建南里","LIN":"11鄰","STREET":"德興路","SECT":" ","MAREA":" ","LANE":"３３６巷","ALLEY":" ","HOUSE_NO":"８號","E_COORD97":167177.25,"N_COORD97":2539864.3799999999,"ADDRESS":"德興路３３６巷８號","OBJECTID":403786},"geometry":{"x":167177.25,"y":2539864.3800000008}},{"attributes":{"ID":403811,"DIS_CODE":0,"TOWNNAME":"北區","LI":"三德里","LIN":"11鄰","STREET":"裕民街","SECT":" ","MAREA":" ","LANE":"８３巷","ALLEY":" ","HOUSE_NO":"１５號","E_COORD97":168458.95999999999,"N_COORD97":2544550.25,"ADDRESS":"裕民街８３巷１５號","OBJECTID":403787},"geometry":{"x":168458.95999999996,"y":2544550.25}},{"attributes":{"ID":403812,"DIS_CODE":0,"TOWNNAME":"北區","LI":"三德里","LIN":"11鄰","STREET":"裕民街","SECT":" ","MAREA":" ","LANE":"８３巷","ALLEY":" ","HOUSE_NO":"１７號","E_COORD97":168437.59,"N_COORD97":2544558.5499999998,"ADDRESS":"裕民街８３巷１７號","OBJECTID":403788},"geometry":{"x":168437.58999999985,"y":2544558.5500000026}},{"attributes":{"ID":403813,"DIS_CODE":0,"TOWNNAME":"北區","LI":"三德里","LIN":"11鄰","STREET":"裕民街","SECT":" ","MAREA":" ","LANE":"８３巷","ALLEY":" ","HOUSE_NO":"３號","E_COORD97":168455.34,"N_COORD97":2544576.8700000001,"ADDRESS":"裕民街８３巷３號","OBJECTID":403789},"geometry":{"x":168455.34000000078,"y":2544576.8700000029}},{"attributes":{"ID":403814,"DIS_CODE":0,"TOWNNAME":"北區","LI":"三德里","LIN":"11鄰","STREET":"裕民街","SECT":" ","MAREA":" ","LANE":"８３巷","ALLEY":" ","HOUSE_NO":"５號","E_COORD97":168450.32999999999,"N_COORD97":2544572.4199999999,"ADDRESS":"裕民街８３巷５號","OBJECTID":403790},"geometry":{"x":168450.33000000101,"y":2544572.4199999999}},{"attributes":{"ID":403815,"DIS_CODE":0,"TOWNNAME":"北區","LI":"三德里","LIN":"11鄰","STREET":"裕民街","SECT":" ","MAREA":" ","LANE":"８３巷","ALLEY":" ","HOUSE_NO":"５號之１","E_COORD97":168445.32000000001,"N_COORD97":2544566.4399999999,"ADDRESS":"裕民街８３巷５號之１","OBJECTID":403791},"geometry":{"x":168445.32000000216,"y":2544566.4400000032}},{"attributes":{"ID":403816,"DIS_CODE":0,"TOWNNAME":"北區","LI":"三德里","LIN":"11鄰","STREET":"裕民街","SECT":" ","MAREA":" ","LANE":"８３巷","ALLEY":" ","HOUSE_NO":"９號","E_COORD97":168456.87,"N_COORD97":2544558.3100000001,"ADDRESS":"裕民街８３巷９號","OBJECTID":403792},"geometry":{"x":168456.87000000104,"y":2544558.3100000042}},{"attributes":{"ID":403817,"DIS_CODE":0,"TOWNNAME":"北區","LI":"三德里","LIN":"11鄰","STREET":"裕民街","SECT":" ","MAREA":" ","LANE":"５１巷","ALLEY":" ","HOUSE_NO":"２號","E_COORD97":168475.62,"N_COORD97":2544491.9399999999,"ADDRESS":"裕民街５１巷２號","OBJECTID":403793},"geometry":{"x":168475.62000000104,"y":2544491.9400000032}},{"attributes":{"ID":403818,"DIS_CODE":0,"TOWNNAME":"北區","LI":"三德里","LIN":"11鄰","STREET":"裕民街","SECT":" ","MAREA":" ","LANE":"５１巷","ALLEY":" ","HOUSE_NO":"２號之１","E_COORD97":168471.54999999999,"N_COORD97":2544493.8199999998,"ADDRESS":"裕民街５１巷２號之１","OBJECTID":403794},"geometry":{"x":168471.54999999981,"y":2544493.820000004}},{"attributes":{"ID":403819,"DIS_CODE":0,"TOWNNAME":"北區","LI":"三德里","LIN":"11鄰","STREET":"裕民街","SECT":" ","MAREA":" ","LANE":"５１巷","ALLEY":" ","HOUSE_NO":"４號","E_COORD97":168466.84,"N_COORD97":2544495.0699999998,"ADDRESS":"裕民街５１巷４號","OBJECTID":403795},"geometry":{"x":168466.84000000171,"y":2544495.0700000003}},{"attributes":{"ID":403820,"DIS_CODE":0,"TOWNNAME":"北區","LI":"三德里","LIN":"11鄰","STREET":"裕民街","SECT":" ","MAREA":" ","LANE":"５１巷","ALLEY":" ","HOUSE_NO":"６號","E_COORD97":168460.10000000001,"N_COORD97":2544498.0499999998,"ADDRESS":"裕民街５１巷６號","OBJECTID":403796},"geometry":{"x":168460.10000000056,"y":2544498.0500000007}},{"attributes":{"ID":403821,"DIS_CODE":0,"TOWNNAME":"北區","LI":"三德里","LIN":"11鄰","STREET":"裕民街","SECT":" ","MAREA":" ","LANE":"５１巷","ALLEY":" ","HOUSE_NO":"８號","E_COORD97":168452.41,"N_COORD97":2544501.96,"ADDRESS":"裕民街５１巷８號","OBJECTID":403797},"geometry":{"x":168452.41000000015,"y":2544501.9600000009}},{"attributes":{"ID":403822,"DIS_CODE":0,"TOWNNAME":"北區","LI":"三德里","LIN":"11鄰","STREET":"裕民街","SECT":" ","MAREA":" ","LANE":"６９巷","ALLEY":" ","HOUSE_NO":"１號","E_COORD97":168475.92000000001,"N_COORD97":2544523.8300000001,"ADDRESS":"裕民街６９巷１號","OBJECTID":403798},"geometry":{"x":168475.91999999993,"y":2544523.8300000038}},{"attributes":{"ID":403823,"DIS_CODE":0,"TOWNNAME":"北區","LI":"三德里","LIN":"11鄰","STREET":"裕民街","SECT":" ","MAREA":" ","LANE":"６９巷","ALLEY":" ","HOUSE_NO":"１號之１","E_COORD97":168472.78,"N_COORD97":2544525.5600000001,"ADDRESS":"裕民街６９巷１號之１","OBJECTID":403799},"geometry":{"x":168472.78000000212,"y":2544525.5600000005}},{"attributes":{"ID":403824,"DIS_CODE":0,"TOWNNAME":"北區","LI":"三德里","LIN":"11鄰","STREET":"裕民街","SECT":" ","MAREA":" ","LANE":"６９巷","ALLEY":" ","HOUSE_NO":"３號","E_COORD97":168466.35000000001,"N_COORD97":2544526.02,"ADDRESS":"裕民街６９巷３號","OBJECTID":403800},"geometry":{"x":168466.34999999963,"y":2544526.0200000014}}]}