{"displayFieldName":"TOWNNAME","fieldAliases":{"ID":"ID","DIS_CODE":"DIS_CODE","TOWNNAME":"TOWNNAME","LI":"LI","LIN":"LIN","STREET":"STREET","SECT":"SECT","MAREA":"MAREA","LANE":"LANE","ALLEY":"ALLEY","HOUSE_NO":"HOUSE_NO","E_COORD97":"E_COORD97","N_COORD97":"N_COORD97","ADDRESS":"ADDRESS","OBJECTID":"OBJECTID"},"geometryType":"esriGeometryPoint","spatialReference":{"wkid":102443,"latestWkid":3826},"fields":[{"name":"ID","type":"esriFieldTypeDouble","alias":"ID"},{"name":"DIS_CODE","type":"esriFieldTypeInteger","alias":"DIS_CODE"},{"name":"TOWNNAME","type":"esriFieldTypeString","alias":"TOWNNAME","length":8},{"name":"LI","type":"esriFieldTypeString","alias":"LI","length":8},{"name":"LIN","type":"esriFieldTypeString","alias":"LIN","length":12},{"name":"STREET","type":"esriFieldTypeString","alias":"STREET","length":20},{"name":"SECT","type":"esriFieldTypeString","alias":"SECT","length":8},{"name":"MAREA","type":"esriFieldTypeString","alias":"MAREA","length":12},{"name":"LANE","type":"esriFieldTypeString","alias":"LANE","length":10},{"name":"ALLEY","type":"esriFieldTypeString","alias":"ALLEY","length":10},{"name":"HOUSE_NO","type":"esriFieldTypeString","alias":"HOUSE_NO","length":20},{"name":"E_COORD97","type":"esriFieldTypeDouble","alias":"E_COORD97"},{"name":"N_COORD97","type":"esriFieldTypeDouble","alias":"N_COORD97"},{"name":"ADDRESS","type":"esriFieldTypeString","alias":"ADDRESS","length":50},{"name":"OBJECTID","type":"esriFieldTypeOID","alias":"OBJECTID"}],"features":[{"attributes":{"ID":526428,"DIS_CODE":0,"TOWNNAME":"北區","LI":"公園里","LIN":"6鄰","STREET":"成功路","SECT":" ","MAREA":" ","LANE":" ","ALLEY":" ","HOUSE_NO":"２號九樓之２０","E_COORD97":169158.57999999999,"N_COORD97":2544255.9300000002,"ADDRESS":"成功路２號九樓之２０","OBJECTID":526401},"geometry":{"x":169158.58000000007,"y":2544255.9300000016}},{"attributes":{"ID":526429,"DIS_CODE":0,"TOWNNAME":"北區","LI":"公園里","LIN":"6鄰","STREET":"成功路","SECT":" ","MAREA":" ","LANE":" ","ALLEY":" ","HOUSE_NO":"２號九樓之２１","E_COORD97":169158.57999999999,"N_COORD97":2544255.9300000002,"ADDRESS":"成功路２號九樓之２１","OBJECTID":526402},"geometry":{"x":169158.58000000007,"y":2544255.9300000016}},{"attributes":{"ID":526430,"DIS_CODE":0,"TOWNNAME":"北區","LI":"公園里","LIN":"6鄰","STREET":"成功路","SECT":" ","MAREA":" ","LANE":" ","ALLEY":" ","HOUSE_NO":"２號九樓之２２","E_COORD97":169158.57999999999,"N_COORD97":2544255.9300000002,"ADDRESS":"成功路２號九樓之２２","OBJECTID":526403},"geometry":{"x":169158.58000000007,"y":2544255.9300000016}},{"attributes":{"ID":526431,"DIS_CODE":0,"TOWNNAME":"北區","LI":"公園里","LIN":"6鄰","STREET":"成功路","SECT":" ","MAREA":" ","LANE":" ","ALLEY":" ","HOUSE_NO":"２號九樓之２３","E_COORD97":169158.57999999999,"N_COORD97":2544255.9300000002,"ADDRESS":"成功路２號九樓之２３","OBJECTID":526404},"geometry":{"x":169158.58000000007,"y":2544255.9300000016}},{"attributes":{"ID":526432,"DIS_CODE":0,"TOWNNAME":"北區","LI":"公園里","LIN":"6鄰","STREET":"成功路","SECT":" ","MAREA":" ","LANE":" ","ALLEY":" ","HOUSE_NO":"２號九樓之２４","E_COORD97":169158.57999999999,"N_COORD97":2544255.9300000002,"ADDRESS":"成功路２號九樓之２４","OBJECTID":526405},"geometry":{"x":169158.58000000007,"y":2544255.9300000016}},{"attributes":{"ID":526433,"DIS_CODE":0,"TOWNNAME":"北區","LI":"公園里","LIN":"6鄰","STREET":"成功路","SECT":" ","MAREA":" ","LANE":" ","ALLEY":" ","HOUSE_NO":"２號九樓之２５","E_COORD97":169158.57999999999,"N_COORD97":2544255.9300000002,"ADDRESS":"成功路２號九樓之２５","OBJECTID":526406},"geometry":{"x":169158.58000000007,"y":2544255.9300000016}},{"attributes":{"ID":526434,"DIS_CODE":0,"TOWNNAME":"北區","LI":"公園里","LIN":"6鄰","STREET":"成功路","SECT":" ","MAREA":" ","LANE":" ","ALLEY":" ","HOUSE_NO":"２號九樓之２６","E_COORD97":169158.57999999999,"N_COORD97":2544255.9300000002,"ADDRESS":"成功路２號九樓之２６","OBJECTID":526407},"geometry":{"x":169158.58000000007,"y":2544255.9300000016}},{"attributes":{"ID":526435,"DIS_CODE":0,"TOWNNAME":"北區","LI":"公園里","LIN":"6鄰","STREET":"成功路","SECT":" ","MAREA":" ","LANE":" ","ALLEY":" ","HOUSE_NO":"２號九樓之２７","E_COORD97":169158.57999999999,"N_COORD97":2544255.9300000002,"ADDRESS":"成功路２號九樓之２７","OBJECTID":526408},"geometry":{"x":169158.58000000007,"y":2544255.9300000016}},{"attributes":{"ID":526436,"DIS_CODE":0,"TOWNNAME":"北區","LI":"公園里","LIN":"6鄰","STREET":"成功路","SECT":" ","MAREA":" ","LANE":" ","ALLEY":" ","HOUSE_NO":"２號九樓之２８","E_COORD97":169158.57999999999,"N_COORD97":2544255.9300000002,"ADDRESS":"成功路２號九樓之２８","OBJECTID":526409},"geometry":{"x":169158.58000000007,"y":2544255.9300000016}},{"attributes":{"ID":526437,"DIS_CODE":0,"TOWNNAME":"北區","LI":"公園里","LIN":"6鄰","STREET":"成功路","SECT":" ","MAREA":" ","LANE":" ","ALLEY":" ","HOUSE_NO":"２號九樓之２９","E_COORD97":169158.57999999999,"N_COORD97":2544255.9300000002,"ADDRESS":"成功路２號九樓之２９","OBJECTID":526410},"geometry":{"x":169158.58000000007,"y":2544255.9300000016}},{"attributes":{"ID":526438,"DIS_CODE":0,"TOWNNAME":"北區","LI":"公園里","LIN":"6鄰","STREET":"成功路","SECT":" ","MAREA":" ","LANE":" ","ALLEY":" ","HOUSE_NO":"２號九樓之３","E_COORD97":169158.57999999999,"N_COORD97":2544255.9300000002,"ADDRESS":"成功路２號九樓之３","OBJECTID":526411},"geometry":{"x":169158.58000000007,"y":2544255.9300000016}},{"attributes":{"ID":526439,"DIS_CODE":0,"TOWNNAME":"北區","LI":"公園里","LIN":"6鄰","STREET":"成功路","SECT":" ","MAREA":" ","LANE":" ","ALLEY":" ","HOUSE_NO":"２號九樓之３０","E_COORD97":169158.57999999999,"N_COORD97":2544255.9300000002,"ADDRESS":"成功路２號九樓之３０","OBJECTID":526412},"geometry":{"x":169158.58000000007,"y":2544255.9300000016}},{"attributes":{"ID":526440,"DIS_CODE":0,"TOWNNAME":"北區","LI":"公園里","LIN":"6鄰","STREET":"成功路","SECT":" ","MAREA":" ","LANE":" ","ALLEY":" ","HOUSE_NO":"２號九樓之３１","E_COORD97":169158.57999999999,"N_COORD97":2544255.9300000002,"ADDRESS":"成功路２號九樓之３１","OBJECTID":526413},"geometry":{"x":169158.58000000007,"y":2544255.9300000016}},{"attributes":{"ID":526441,"DIS_CODE":0,"TOWNNAME":"北區","LI":"公園里","LIN":"6鄰","STREET":"成功路","SECT":" ","MAREA":" ","LANE":" ","ALLEY":" ","HOUSE_NO":"２號九樓之３２","E_COORD97":169158.57999999999,"N_COORD97":2544255.9300000002,"ADDRESS":"成功路２號九樓之３２","OBJECTID":526414},"geometry":{"x":169158.58000000007,"y":2544255.9300000016}},{"attributes":{"ID":526442,"DIS_CODE":0,"TOWNNAME":"北區","LI":"公園里","LIN":"6鄰","STREET":"成功路","SECT":" ","MAREA":" ","LANE":" ","ALLEY":" ","HOUSE_NO":"２號九樓之３３","E_COORD97":169158.57999999999,"N_COORD97":2544255.9300000002,"ADDRESS":"成功路２號九樓之３３","OBJECTID":526415},"geometry":{"x":169158.58000000007,"y":2544255.9300000016}},{"attributes":{"ID":526443,"DIS_CODE":0,"TOWNNAME":"中西區","LI":"元安里","LIN":"8鄰","STREET":"西門路","SECT":"一段","MAREA":" ","LANE":" ","ALLEY":" ","HOUSE_NO":"７２５號","E_COORD97":167704.84,"N_COORD97":2543292.5800000001,"ADDRESS":"西門路一段７２５號","OBJECTID":526416},"geometry":{"x":167704.83999999985,"y":2543292.5800000019}},{"attributes":{"ID":526444,"DIS_CODE":0,"TOWNNAME":"中西區","LI":"元安里","LIN":"8鄰","STREET":"西門路","SECT":"一段","MAREA":" ","LANE":" ","ALLEY":" ","HOUSE_NO":"７２７號","E_COORD97":167704.64000000001,"N_COORD97":2543295.2000000002,"ADDRESS":"西門路一段７２７號","OBJECTID":526417},"geometry":{"x":167704.63999999966,"y":2543295.1999999993}},{"attributes":{"ID":526445,"DIS_CODE":0,"TOWNNAME":"中西區","LI":"元安里","LIN":"8鄰","STREET":"西門路","SECT":"一段","MAREA":" ","LANE":" ","ALLEY":" ","HOUSE_NO":"７２９號","E_COORD97":167704.45000000001,"N_COORD97":2543297.4399999999,"ADDRESS":"西門路一段７２９號","OBJECTID":526418},"geometry":{"x":167704.45000000019,"y":2543297.4399999995}},{"attributes":{"ID":526446,"DIS_CODE":0,"TOWNNAME":"中西區","LI":"元安里","LIN":"8鄰","STREET":"西門路","SECT":"一段","MAREA":" ","LANE":" ","ALLEY":" ","HOUSE_NO":"７３１號","E_COORD97":167703.38,"N_COORD97":2543301.1299999999,"ADDRESS":"西門路一段７３１號","OBJECTID":526419},"geometry":{"x":167703.37999999989,"y":2543301.1300000008}},{"attributes":{"ID":526447,"DIS_CODE":0,"TOWNNAME":"中西區","LI":"元安里","LIN":"8鄰","STREET":"西門路","SECT":"一段","MAREA":" ","LANE":" ","ALLEY":" ","HOUSE_NO":"７３３號","E_COORD97":167702.60000000001,"N_COORD97":2543306.6600000001,"ADDRESS":"西門路一段７３３號","OBJECTID":526420},"geometry":{"x":167702.60000000056,"y":2543306.6600000001}},{"attributes":{"ID":526448,"DIS_CODE":0,"TOWNNAME":"中西區","LI":"元安里","LIN":"8鄰","STREET":"西門路","SECT":"一段","MAREA":" ","LANE":" ","ALLEY":" ","HOUSE_NO":"７３５號","E_COORD97":167702.62,"N_COORD97":2543310.6000000001,"ADDRESS":"西門路一段７３５號","OBJECTID":526421},"geometry":{"x":167702.62000000104,"y":2543310.5999999996}},{"attributes":{"ID":526449,"DIS_CODE":0,"TOWNNAME":"中西區","LI":"元安里","LIN":"8鄰","STREET":"西門路","SECT":"一段","MAREA":" ","LANE":" ","ALLEY":" ","HOUSE_NO":"７３７號","E_COORD97":167701.94,"N_COORD97":2543314.6899999999,"ADDRESS":"西門路一段７３７號","OBJECTID":526422},"geometry":{"x":167701.94000000041,"y":2543314.6900000013}},{"attributes":{"ID":526450,"DIS_CODE":0,"TOWNNAME":"中西區","LI":"元安里","LIN":"8鄰","STREET":"西門路","SECT":"一段","MAREA":" ","LANE":" ","ALLEY":" ","HOUSE_NO":"７３９號","E_COORD97":167709.59,"N_COORD97":2543327.9399999999,"ADDRESS":"西門路一段７３９號","OBJECTID":526423},"geometry":{"x":167709.59000000078,"y":2543327.9399999995}},{"attributes":{"ID":526451,"DIS_CODE":0,"TOWNNAME":"中西區","LI":"元安里","LIN":"8鄰","STREET":"西門路","SECT":"一段","MAREA":" ","LANE":" ","ALLEY":" ","HOUSE_NO":"７４１號","E_COORD97":167704.54000000001,"N_COORD97":2543336.73,"ADDRESS":"西門路一段７４１號","OBJECTID":526424},"geometry":{"x":167704.5400000019,"y":2543336.7300000004}},{"attributes":{"ID":526452,"DIS_CODE":0,"TOWNNAME":"北區","LI":"公園里","LIN":"6鄰","STREET":"成功路","SECT":" ","MAREA":" ","LANE":" ","ALLEY":" ","HOUSE_NO":"２號九樓之３４","E_COORD97":169158.57999999999,"N_COORD97":2544255.9300000002,"ADDRESS":"成功路２號九樓之３４","OBJECTID":526425},"geometry":{"x":169158.58000000007,"y":2544255.9300000016}},{"attributes":{"ID":526453,"DIS_CODE":0,"TOWNNAME":"中西區","LI":"元安里","LIN":"1鄰","STREET":"永華路","SECT":"一段","MAREA":" ","LANE":" ","ALLEY":" ","HOUSE_NO":"２２號","E_COORD97":167649.14999999999,"N_COORD97":2543130.6600000001,"ADDRESS":"永華路一段２２號","OBJECTID":526426},"geometry":{"x":167649.15000000037,"y":2543130.6600000001}},{"attributes":{"ID":526454,"DIS_CODE":0,"TOWNNAME":"中西區","LI":"元安里","LIN":"1鄰","STREET":"永華路","SECT":"一段","MAREA":" ","LANE":" ","ALLEY":" ","HOUSE_NO":"２４號","E_COORD97":167640.98999999999,"N_COORD97":2543135.0600000001,"ADDRESS":"永華路一段２４號","OBJECTID":526427},"geometry":{"x":167640.99000000115,"y":2543135.0600000005}},{"attributes":{"ID":526455,"DIS_CODE":0,"TOWNNAME":"中西區","LI":"元安里","LIN":"1鄰","STREET":"永華路","SECT":"一段","MAREA":" ","LANE":" ","ALLEY":" ","HOUSE_NO":"３２號","E_COORD97":167612.35999999999,"N_COORD97":2543134.8700000001,"ADDRESS":"永華路一段３２號","OBJECTID":526428},"geometry":{"x":167612.36000000034,"y":2543134.8700000029}},{"attributes":{"ID":526456,"DIS_CODE":0,"TOWNNAME":"中西區","LI":"元安里","LIN":"1鄰","STREET":"國華街","SECT":"二段","MAREA":" ","LANE":" ","ALLEY":" ","HOUSE_NO":"２２號","E_COORD97":167613.09,"N_COORD97":2543175.9700000002,"ADDRESS":"國華街二段２２號","OBJECTID":526429},"geometry":{"x":167613.09000000078,"y":2543175.9700000007}},{"attributes":{"ID":526457,"DIS_CODE":0,"TOWNNAME":"中西區","LI":"元安里","LIN":"1鄰","STREET":"國華街","SECT":"二段","MAREA":" ","LANE":" ","ALLEY":" ","HOUSE_NO":"２４號","E_COORD97":167610.04000000001,"N_COORD97":2543181.5899999999,"ADDRESS":"國華街二段２４號","OBJECTID":526430},"geometry":{"x":167610.04000000097,"y":2543181.5899999999}},{"attributes":{"ID":526458,"DIS_CODE":0,"TOWNNAME":"中西區","LI":"元安里","LIN":"1鄰","STREET":"國華街","SECT":"二段","MAREA":" ","LANE":" ","ALLEY":" ","HOUSE_NO":"２６號","E_COORD97":167609.91,"N_COORD97":2543191.48,"ADDRESS":"國華街二段２６號","OBJECTID":526431},"geometry":{"x":167609.91000000015,"y":2543191.4800000023}},{"attributes":{"ID":526459,"DIS_CODE":0,"TOWNNAME":"中西區","LI":"元安里","LIN":"1鄰","STREET":"國華街","SECT":"二段","MAREA":" ","LANE":" ","ALLEY":" ","HOUSE_NO":"２８號","E_COORD97":167623.95000000001,"N_COORD97":2543191.54,"ADDRESS":"國華街二段２８號","OBJECTID":526432},"geometry":{"x":167623.95000000205,"y":2543191.5399999991}},{"attributes":{"ID":526460,"DIS_CODE":0,"TOWNNAME":"北區","LI":"公園里","LIN":"6鄰","STREET":"成功路","SECT":" ","MAREA":" ","LANE":" ","ALLEY":" ","HOUSE_NO":"２號九樓之３５","E_COORD97":169158.57999999999,"N_COORD97":2544255.9300000002,"ADDRESS":"成功路２號九樓之３５","OBJECTID":526433},"geometry":{"x":169158.58000000007,"y":2544255.9300000016}},{"attributes":{"ID":526461,"DIS_CODE":0,"TOWNNAME":"北區","LI":"公園里","LIN":"6鄰","STREET":"成功路","SECT":" ","MAREA":" ","LANE":" ","ALLEY":" ","HOUSE_NO":"２號九樓之３６","E_COORD97":169158.57999999999,"N_COORD97":2544255.9300000002,"ADDRESS":"成功路２號九樓之３６","OBJECTID":526434},"geometry":{"x":169158.58000000007,"y":2544255.9300000016}},{"attributes":{"ID":526462,"DIS_CODE":0,"TOWNNAME":"北區","LI":"公園里","LIN":"6鄰","STREET":"成功路","SECT":" ","MAREA":" ","LANE":" ","ALLEY":" ","HOUSE_NO":"２號九樓之３７","E_COORD97":169158.57999999999,"N_COORD97":2544255.9300000002,"ADDRESS":"成功路２號九樓之３７","OBJECTID":526435},"geometry":{"x":169158.58000000007,"y":2544255.9300000016}},{"attributes":{"ID":526463,"DIS_CODE":0,"TOWNNAME":"北區","LI":"公園里","LIN":"6鄰","STREET":"成功路","SECT":" ","MAREA":" ","LANE":" ","ALLEY":" ","HOUSE_NO":"２號九樓之３８","E_COORD97":169158.57999999999,"N_COORD97":2544255.9300000002,"ADDRESS":"成功路２號九樓之３８","OBJECTID":526436},"geometry":{"x":169158.58000000007,"y":2544255.9300000016}},{"attributes":{"ID":526464,"DIS_CODE":0,"TOWNNAME":"北區","LI":"公園里","LIN":"6鄰","STREET":"成功路","SECT":" ","MAREA":" ","LANE":" ","ALLEY":" ","HOUSE_NO":"２號九樓之３９","E_COORD97":169158.57999999999,"N_COORD97":2544255.9300000002,"ADDRESS":"成功路２號九樓之３９","OBJECTID":526437},"geometry":{"x":169158.58000000007,"y":2544255.9300000016}},{"attributes":{"ID":526465,"DIS_CODE":0,"TOWNNAME":"北區","LI":"公園里","LIN":"6鄰","STREET":"成功路","SECT":" ","MAREA":" ","LANE":" ","ALLEY":" ","HOUSE_NO":"２號九樓之４","E_COORD97":169158.57999999999,"N_COORD97":2544255.9300000002,"ADDRESS":"成功路２號九樓之４","OBJECTID":526438},"geometry":{"x":169158.58000000007,"y":2544255.9300000016}},{"attributes":{"ID":526466,"DIS_CODE":0,"TOWNNAME":"北區","LI":"公園里","LIN":"6鄰","STREET":"成功路","SECT":" ","MAREA":" ","LANE":" ","ALLEY":" ","HOUSE_NO":"２號九樓之４０","E_COORD97":169158.57999999999,"N_COORD97":2544255.9300000002,"ADDRESS":"成功路２號九樓之４０","OBJECTID":526439},"geometry":{"x":169158.58000000007,"y":2544255.9300000016}},{"attributes":{"ID":526467,"DIS_CODE":0,"TOWNNAME":"北區","LI":"公園里","LIN":"6鄰","STREET":"成功路","SECT":" ","MAREA":" ","LANE":" ","ALLEY":" ","HOUSE_NO":"２號九樓之４１","E_COORD97":169158.57999999999,"N_COORD97":2544255.9300000002,"ADDRESS":"成功路２號九樓之４１","OBJECTID":526440},"geometry":{"x":169158.58000000007,"y":2544255.9300000016}},{"attributes":{"ID":526468,"DIS_CODE":0,"TOWNNAME":"北區","LI":"公園里","LIN":"6鄰","STREET":"成功路","SECT":" ","MAREA":" ","LANE":" ","ALLEY":" ","HOUSE_NO":"２號九樓之４２","E_COORD97":169158.57999999999,"N_COORD97":2544255.9300000002,"ADDRESS":"成功路２號九樓之４２","OBJECTID":526441},"geometry":{"x":169158.58000000007,"y":2544255.9300000016}},{"attributes":{"ID":526469,"DIS_CODE":0,"TOWNNAME":"北區","LI":"公園里","LIN":"6鄰","STREET":"成功路","SECT":" ","MAREA":" ","LANE":" ","ALLEY":" ","HOUSE_NO":"２號九樓之４３","E_COORD97":169158.57999999999,"N_COORD97":2544255.9300000002,"ADDRESS":"成功路２號九樓之４３","OBJECTID":526442},"geometry":{"x":169158.58000000007,"y":2544255.9300000016}},{"attributes":{"ID":526470,"DIS_CODE":0,"TOWNNAME":"北區","LI":"公園里","LIN":"6鄰","STREET":"成功路","SECT":" ","MAREA":" ","LANE":" ","ALLEY":" ","HOUSE_NO":"２號九樓之４４","E_COORD97":169158.57999999999,"N_COORD97":2544255.9300000002,"ADDRESS":"成功路２號九樓之４４","OBJECTID":526443},"geometry":{"x":169158.58000000007,"y":2544255.9300000016}},{"attributes":{"ID":526471,"DIS_CODE":0,"TOWNNAME":"北區","LI":"公園里","LIN":"6鄰","STREET":"成功路","SECT":" ","MAREA":" ","LANE":" ","ALLEY":" ","HOUSE_NO":"２號九樓之４５","E_COORD97":169158.57999999999,"N_COORD97":2544255.9300000002,"ADDRESS":"成功路２號九樓之４５","OBJECTID":526444},"geometry":{"x":169158.58000000007,"y":2544255.9300000016}},{"attributes":{"ID":526472,"DIS_CODE":0,"TOWNNAME":"北區","LI":"公園里","LIN":"6鄰","STREET":"成功路","SECT":" ","MAREA":" ","LANE":" ","ALLEY":" ","HOUSE_NO":"２號九樓之４６","E_COORD97":169158.57999999999,"N_COORD97":2544255.9300000002,"ADDRESS":"成功路２號九樓之４６","OBJECTID":526445},"geometry":{"x":169158.58000000007,"y":2544255.9300000016}},{"attributes":{"ID":526473,"DIS_CODE":0,"TOWNNAME":"北區","LI":"公園里","LIN":"6鄰","STREET":"成功路","SECT":" ","MAREA":" ","LANE":" ","ALLEY":" ","HOUSE_NO":"２號九樓之４７","E_COORD97":169158.57999999999,"N_COORD97":2544255.9300000002,"ADDRESS":"成功路２號九樓之４７","OBJECTID":526446},"geometry":{"x":169158.58000000007,"y":2544255.9300000016}},{"attributes":{"ID":526474,"DIS_CODE":0,"TOWNNAME":"北區","LI":"公園里","LIN":"6鄰","STREET":"成功路","SECT":" ","MAREA":" ","LANE":" ","ALLEY":" ","HOUSE_NO":"２號九樓之４８","E_COORD97":169158.57999999999,"N_COORD97":2544255.9300000002,"ADDRESS":"成功路２號九樓之４８","OBJECTID":526447},"geometry":{"x":169158.58000000007,"y":2544255.9300000016}},{"attributes":{"ID":526475,"DIS_CODE":0,"TOWNNAME":"北區","LI":"公園里","LIN":"6鄰","STREET":"成功路","SECT":" ","MAREA":" ","LANE":" ","ALLEY":" ","HOUSE_NO":"２號九樓之４９","E_COORD97":169158.57999999999,"N_COORD97":2544255.9300000002,"ADDRESS":"成功路２號九樓之４９","OBJECTID":526448},"geometry":{"x":169158.58000000007,"y":2544255.9300000016}},{"attributes":{"ID":526476,"DIS_CODE":0,"TOWNNAME":"北區","LI":"公園里","LIN":"6鄰","STREET":"成功路","SECT":" ","MAREA":" ","LANE":" ","ALLEY":" ","HOUSE_NO":"２號九樓之５","E_COORD97":169158.57999999999,"N_COORD97":2544255.9300000002,"ADDRESS":"成功路２號九樓之５","OBJECTID":526449},"geometry":{"x":169158.58000000007,"y":2544255.9300000016}},{"attributes":{"ID":526477,"DIS_CODE":0,"TOWNNAME":"北區","LI":"公園里","LIN":"6鄰","STREET":"成功路","SECT":" ","MAREA":" ","LANE":" ","ALLEY":" ","HOUSE_NO":"２號九樓之５０","E_COORD97":169158.57999999999,"N_COORD97":2544255.9300000002,"ADDRESS":"成功路２號九樓之５０","OBJECTID":526450},"geometry":{"x":169158.58000000007,"y":2544255.9300000016}},{"attributes":{"ID":526478,"DIS_CODE":0,"TOWNNAME":"中西區","LI":"元安里","LIN":"1鄰","STREET":"國華街","SECT":"二段","MAREA":" ","LANE":" ","ALLEY":" ","HOUSE_NO":"３０號","E_COORD97":167628.89000000001,"N_COORD97":2543194.0899999999,"ADDRESS":"國華街二段３０號","OBJECTID":526451},"geometry":{"x":167628.89000000153,"y":2543194.0900000017}},{"attributes":{"ID":526479,"DIS_CODE":0,"TOWNNAME":"中西區","LI":"元安里","LIN":"1鄰","STREET":"國華街","SECT":"二段","MAREA":" ","LANE":" ","ALLEY":" ","HOUSE_NO":"３２號","E_COORD97":167628.45999999999,"N_COORD97":2543196.7999999998,"ADDRESS":"國華街二段３２號","OBJECTID":526452},"geometry":{"x":167628.45999999996,"y":2543196.8000000026}},{"attributes":{"ID":526480,"DIS_CODE":0,"TOWNNAME":"中西區","LI":"元安里","LIN":"1鄰","STREET":"國華街","SECT":"二段","MAREA":" ","LANE":" ","ALLEY":" ","HOUSE_NO":"３４號","E_COORD97":167618.03,"N_COORD97":2543203.0299999998,"ADDRESS":"國華街二段３４號","OBJECTID":526453},"geometry":{"x":167618.03000000026,"y":2543203.0300000031}},{"attributes":{"ID":526481,"DIS_CODE":0,"TOWNNAME":"中西區","LI":"元安里","LIN":"1鄰","STREET":"國華街","SECT":"二段","MAREA":" ","LANE":" ","ALLEY":" ","HOUSE_NO":"３６號","E_COORD97":167609.09,"N_COORD97":2543202.77,"ADDRESS":"國華街二段３６號","OBJECTID":526454},"geometry":{"x":167609.09000000171,"y":2543202.7700000014}},{"attributes":{"ID":526482,"DIS_CODE":0,"TOWNNAME":"中西區","LI":"元安里","LIN":"1鄰","STREET":"國華街","SECT":"二段","MAREA":" ","LANE":" ","ALLEY":" ","HOUSE_NO":"３８號","E_COORD97":167609.92999999999,"N_COORD97":2543210.3399999999,"ADDRESS":"國華街二段３８號","OBJECTID":526455},"geometry":{"x":167609.93000000156,"y":2543210.3399999999}},{"attributes":{"ID":526483,"DIS_CODE":0,"TOWNNAME":"北區","LI":"公園里","LIN":"6鄰","STREET":"成功路","SECT":" ","MAREA":" ","LANE":" ","ALLEY":" ","HOUSE_NO":"２號九樓之５１","E_COORD97":169158.57999999999,"N_COORD97":2544255.9300000002,"ADDRESS":"成功路２號九樓之５１","OBJECTID":526456},"geometry":{"x":169158.58000000007,"y":2544255.9300000016}},{"attributes":{"ID":526484,"DIS_CODE":0,"TOWNNAME":"北區","LI":"公園里","LIN":"6鄰","STREET":"成功路","SECT":" ","MAREA":" ","LANE":" ","ALLEY":" ","HOUSE_NO":"２號九樓之５２","E_COORD97":169158.57999999999,"N_COORD97":2544255.9300000002,"ADDRESS":"成功路２號九樓之５２","OBJECTID":526457},"geometry":{"x":169158.58000000007,"y":2544255.9300000016}},{"attributes":{"ID":526485,"DIS_CODE":0,"TOWNNAME":"北區","LI":"公園里","LIN":"6鄰","STREET":"成功路","SECT":" ","MAREA":" ","LANE":" ","ALLEY":" ","HOUSE_NO":"２號九樓之５３","E_COORD97":169158.57999999999,"N_COORD97":2544255.9300000002,"ADDRESS":"成功路２號九樓之５３","OBJECTID":526458},"geometry":{"x":169158.58000000007,"y":2544255.9300000016}},{"attributes":{"ID":526486,"DIS_CODE":0,"TOWNNAME":"北區","LI":"公園里","LIN":"6鄰","STREET":"成功路","SECT":" ","MAREA":" ","LANE":" ","ALLEY":" ","HOUSE_NO":"２號九樓之６","E_COORD97":169158.57999999999,"N_COORD97":2544255.9300000002,"ADDRESS":"成功路２號九樓之６","OBJECTID":526459},"geometry":{"x":169158.58000000007,"y":2544255.9300000016}},{"attributes":{"ID":526487,"DIS_CODE":0,"TOWNNAME":"北區","LI":"公園里","LIN":"6鄰","STREET":"成功路","SECT":" ","MAREA":" ","LANE":" ","ALLEY":" ","HOUSE_NO":"２號九樓之７","E_COORD97":169158.57999999999,"N_COORD97":2544255.9300000002,"ADDRESS":"成功路２號九樓之７","OBJECTID":526460},"geometry":{"x":169158.58000000007,"y":2544255.9300000016}},{"attributes":{"ID":526488,"DIS_CODE":0,"TOWNNAME":"北區","LI":"公園里","LIN":"6鄰","STREET":"成功路","SECT":" ","MAREA":" ","LANE":" ","ALLEY":" ","HOUSE_NO":"２號九樓之８","E_COORD97":169158.57999999999,"N_COORD97":2544255.9300000002,"ADDRESS":"成功路２號九樓之８","OBJECTID":526461},"geometry":{"x":169158.58000000007,"y":2544255.9300000016}},{"attributes":{"ID":526489,"DIS_CODE":0,"TOWNNAME":"北區","LI":"公園里","LIN":"6鄰","STREET":"成功路","SECT":" ","MAREA":" ","LANE":" ","ALLEY":" ","HOUSE_NO":"２號九樓之９","E_COORD97":169158.57999999999,"N_COORD97":2544255.9300000002,"ADDRESS":"成功路２號九樓之９","OBJECTID":526462},"geometry":{"x":169158.58000000007,"y":2544255.9300000016}},{"attributes":{"ID":526490,"DIS_CODE":0,"TOWNNAME":"北區","LI":"公園里","LIN":"6鄰","STREET":"成功路","SECT":" ","MAREA":" ","LANE":" ","ALLEY":" ","HOUSE_NO":"２號二樓之１","E_COORD97":169158.57999999999,"N_COORD97":2544255.9300000002,"ADDRESS":"成功路２號二樓之１","OBJECTID":526463},"geometry":{"x":169158.58000000007,"y":2544255.9300000016}},{"attributes":{"ID":526491,"DIS_CODE":0,"TOWNNAME":"北區","LI":"公園里","LIN":"6鄰","STREET":"成功路","SECT":" ","MAREA":" ","LANE":" ","ALLEY":" ","HOUSE_NO":"２號二樓之１０","E_COORD97":169158.57999999999,"N_COORD97":2544255.9300000002,"ADDRESS":"成功路２號二樓之１０","OBJECTID":526464},"geometry":{"x":169158.58000000007,"y":2544255.9300000016}},{"attributes":{"ID":526492,"DIS_CODE":0,"TOWNNAME":"北區","LI":"公園里","LIN":"6鄰","STREET":"成功路","SECT":" ","MAREA":" ","LANE":" ","ALLEY":" ","HOUSE_NO":"２號二樓之１１","E_COORD97":169158.57999999999,"N_COORD97":2544255.9300000002,"ADDRESS":"成功路２號二樓之１１","OBJECTID":526465},"geometry":{"x":169158.58000000007,"y":2544255.9300000016}},{"attributes":{"ID":526493,"DIS_CODE":0,"TOWNNAME":"北區","LI":"公園里","LIN":"6鄰","STREET":"成功路","SECT":" ","MAREA":" ","LANE":" ","ALLEY":" ","HOUSE_NO":"２號二樓之１２","E_COORD97":169158.57999999999,"N_COORD97":2544255.9300000002,"ADDRESS":"成功路２號二樓之１２","OBJECTID":526466},"geometry":{"x":169158.58000000007,"y":2544255.9300000016}},{"attributes":{"ID":526494,"DIS_CODE":0,"TOWNNAME":"北區","LI":"公園里","LIN":"6鄰","STREET":"成功路","SECT":" ","MAREA":" ","LANE":" ","ALLEY":" ","HOUSE_NO":"２號二樓之１４","E_COORD97":169158.57999999999,"N_COORD97":2544255.9300000002,"ADDRESS":"成功路２號二樓之１４","OBJECTID":526467},"geometry":{"x":169158.58000000007,"y":2544255.9300000016}},{"attributes":{"ID":526495,"DIS_CODE":0,"TOWNNAME":"北區","LI":"公園里","LIN":"6鄰","STREET":"成功路","SECT":" ","MAREA":" ","LANE":" ","ALLEY":" ","HOUSE_NO":"２號二樓之１６","E_COORD97":169158.57999999999,"N_COORD97":2544255.9300000002,"ADDRESS":"成功路２號二樓之１６","OBJECTID":526468},"geometry":{"x":169158.58000000007,"y":2544255.9300000016}},{"attributes":{"ID":526496,"DIS_CODE":0,"TOWNNAME":"北區","LI":"公園里","LIN":"6鄰","STREET":"成功路","SECT":" ","MAREA":" ","LANE":" ","ALLEY":" ","HOUSE_NO":"２號二樓之１７","E_COORD97":169158.57999999999,"N_COORD97":2544255.9300000002,"ADDRESS":"成功路２號二樓之１７","OBJECTID":526469},"geometry":{"x":169158.58000000007,"y":2544255.9300000016}},{"attributes":{"ID":526497,"DIS_CODE":0,"TOWNNAME":"北區","LI":"公園里","LIN":"6鄰","STREET":"成功路","SECT":" ","MAREA":" ","LANE":" ","ALLEY":" ","HOUSE_NO":"２號二樓之２","E_COORD97":169158.57999999999,"N_COORD97":2544255.9300000002,"ADDRESS":"成功路２號二樓之２","OBJECTID":526470},"geometry":{"x":169158.58000000007,"y":2544255.9300000016}},{"attributes":{"ID":526498,"DIS_CODE":0,"TOWNNAME":"北區","LI":"公園里","LIN":"6鄰","STREET":"成功路","SECT":" ","MAREA":" ","LANE":" ","ALLEY":" ","HOUSE_NO":"２號二樓之２０","E_COORD97":169158.57999999999,"N_COORD97":2544255.9300000002,"ADDRESS":"成功路２號二樓之２０","OBJECTID":526471},"geometry":{"x":169158.58000000007,"y":2544255.9300000016}},{"attributes":{"ID":526499,"DIS_CODE":0,"TOWNNAME":"北區","LI":"公園里","LIN":"6鄰","STREET":"成功路","SECT":" ","MAREA":" ","LANE":" ","ALLEY":" ","HOUSE_NO":"２號二樓之２１","E_COORD97":169158.57999999999,"N_COORD97":2544255.9300000002,"ADDRESS":"成功路２號二樓之２１","OBJECTID":526472},"geometry":{"x":169158.58000000007,"y":2544255.9300000016}},{"attributes":{"ID":526500,"DIS_CODE":0,"TOWNNAME":"北區","LI":"公園里","LIN":"6鄰","STREET":"成功路","SECT":" ","MAREA":" ","LANE":" ","ALLEY":" ","HOUSE_NO":"２號二樓之２２","E_COORD97":169158.57999999999,"N_COORD97":2544255.9300000002,"ADDRESS":"成功路２號二樓之２２","OBJECTID":526473},"geometry":{"x":169158.58000000007,"y":2544255.9300000016}},{"attributes":{"ID":526501,"DIS_CODE":0,"TOWNNAME":"北區","LI":"公園里","LIN":"6鄰","STREET":"成功路","SECT":" ","MAREA":" ","LANE":" ","ALLEY":" ","HOUSE_NO":"２號二樓之２３","E_COORD97":169158.57999999999,"N_COORD97":2544255.9300000002,"ADDRESS":"成功路２號二樓之２３","OBJECTID":526474},"geometry":{"x":169158.58000000007,"y":2544255.9300000016}},{"attributes":{"ID":526502,"DIS_CODE":0,"TOWNNAME":"北區","LI":"公園里","LIN":"6鄰","STREET":"成功路","SECT":" ","MAREA":" ","LANE":" ","ALLEY":" ","HOUSE_NO":"２號二樓之２４","E_COORD97":169158.57999999999,"N_COORD97":2544255.9300000002,"ADDRESS":"成功路２號二樓之２４","OBJECTID":526475},"geometry":{"x":169158.58000000007,"y":2544255.9300000016}},{"attributes":{"ID":526503,"DIS_CODE":0,"TOWNNAME":"北區","LI":"公園里","LIN":"6鄰","STREET":"成功路","SECT":" ","MAREA":" ","LANE":" ","ALLEY":" ","HOUSE_NO":"２號二樓之２５","E_COORD97":169158.57999999999,"N_COORD97":2544255.9300000002,"ADDRESS":"成功路２號二樓之２５","OBJECTID":526476},"geometry":{"x":169158.58000000007,"y":2544255.9300000016}},{"attributes":{"ID":526504,"DIS_CODE":0,"TOWNNAME":"北區","LI":"公園里","LIN":"6鄰","STREET":"成功路","SECT":" ","MAREA":" ","LANE":" ","ALLEY":" ","HOUSE_NO":"２號二樓之２７","E_COORD97":169158.57999999999,"N_COORD97":2544255.9300000002,"ADDRESS":"成功路２號二樓之２７","OBJECTID":526477},"geometry":{"x":169158.58000000007,"y":2544255.9300000016}},{"attributes":{"ID":526505,"DIS_CODE":0,"TOWNNAME":"北區","LI":"公園里","LIN":"6鄰","STREET":"成功路","SECT":" ","MAREA":" ","LANE":" ","ALLEY":" ","HOUSE_NO":"２號二樓之２８","E_COORD97":169158.57999999999,"N_COORD97":2544255.9300000002,"ADDRESS":"成功路２號二樓之２８","OBJECTID":526478},"geometry":{"x":169158.58000000007,"y":2544255.9300000016}},{"attributes":{"ID":526506,"DIS_CODE":0,"TOWNNAME":"北區","LI":"公園里","LIN":"6鄰","STREET":"成功路","SECT":" ","MAREA":" ","LANE":" ","ALLEY":" ","HOUSE_NO":"２號二樓之２９","E_COORD97":169158.57999999999,"N_COORD97":2544255.9300000002,"ADDRESS":"成功路２號二樓之２９","OBJECTID":526479},"geometry":{"x":169158.58000000007,"y":2544255.9300000016}},{"attributes":{"ID":526507,"DIS_CODE":0,"TOWNNAME":"北區","LI":"公園里","LIN":"6鄰","STREET":"成功路","SECT":" ","MAREA":" ","LANE":" ","ALLEY":" ","HOUSE_NO":"２號二樓之３","E_COORD97":169158.57999999999,"N_COORD97":2544255.9300000002,"ADDRESS":"成功路２號二樓之３","OBJECTID":526480},"geometry":{"x":169158.58000000007,"y":2544255.9300000016}},{"attributes":{"ID":526508,"DIS_CODE":0,"TOWNNAME":"北區","LI":"公園里","LIN":"6鄰","STREET":"成功路","SECT":" ","MAREA":" ","LANE":" ","ALLEY":" ","HOUSE_NO":"２號二樓之３０","E_COORD97":169158.57999999999,"N_COORD97":2544255.9300000002,"ADDRESS":"成功路２號二樓之３０","OBJECTID":526481},"geometry":{"x":169158.58000000007,"y":2544255.9300000016}},{"attributes":{"ID":526509,"DIS_CODE":0,"TOWNNAME":"北區","LI":"公園里","LIN":"6鄰","STREET":"成功路","SECT":" ","MAREA":" ","LANE":" ","ALLEY":" ","HOUSE_NO":"２號二樓之３１","E_COORD97":169158.57999999999,"N_COORD97":2544255.9300000002,"ADDRESS":"成功路２號二樓之３１","OBJECTID":526482},"geometry":{"x":169158.58000000007,"y":2544255.9300000016}},{"attributes":{"ID":526510,"DIS_CODE":0,"TOWNNAME":"北區","LI":"公園里","LIN":"6鄰","STREET":"成功路","SECT":" ","MAREA":" ","LANE":" ","ALLEY":" ","HOUSE_NO":"２號二樓之３２","E_COORD97":169158.57999999999,"N_COORD97":2544255.9300000002,"ADDRESS":"成功路２號二樓之３２","OBJECTID":526483},"geometry":{"x":169158.58000000007,"y":2544255.9300000016}},{"attributes":{"ID":526511,"DIS_CODE":0,"TOWNNAME":"北區","LI":"公園里","LIN":"6鄰","STREET":"成功路","SECT":" ","MAREA":" ","LANE":" ","ALLEY":" ","HOUSE_NO":"２號二樓之３３","E_COORD97":169158.57999999999,"N_COORD97":2544255.9300000002,"ADDRESS":"成功路２號二樓之３３","OBJECTID":526484},"geometry":{"x":169158.58000000007,"y":2544255.9300000016}},{"attributes":{"ID":526512,"DIS_CODE":0,"TOWNNAME":"北區","LI":"公園里","LIN":"6鄰","STREET":"成功路","SECT":" ","MAREA":" ","LANE":" ","ALLEY":" ","HOUSE_NO":"２號二樓之３４","E_COORD97":169158.57999999999,"N_COORD97":2544255.9300000002,"ADDRESS":"成功路２號二樓之３４","OBJECTID":526485},"geometry":{"x":169158.58000000007,"y":2544255.9300000016}},{"attributes":{"ID":526513,"DIS_CODE":0,"TOWNNAME":"北區","LI":"公園里","LIN":"6鄰","STREET":"成功路","SECT":" ","MAREA":" ","LANE":" ","ALLEY":" ","HOUSE_NO":"２號二樓之３５","E_COORD97":169158.57999999999,"N_COORD97":2544255.9300000002,"ADDRESS":"成功路２號二樓之３５","OBJECTID":526486},"geometry":{"x":169158.58000000007,"y":2544255.9300000016}},{"attributes":{"ID":526514,"DIS_CODE":0,"TOWNNAME":"北區","LI":"公園里","LIN":"6鄰","STREET":"成功路","SECT":" ","MAREA":" ","LANE":" ","ALLEY":" ","HOUSE_NO":"２號二樓之３６","E_COORD97":169158.57999999999,"N_COORD97":2544255.9300000002,"ADDRESS":"成功路２號二樓之３６","OBJECTID":526487},"geometry":{"x":169158.58000000007,"y":2544255.9300000016}},{"attributes":{"ID":526515,"DIS_CODE":0,"TOWNNAME":"北區","LI":"公園里","LIN":"6鄰","STREET":"成功路","SECT":" ","MAREA":" ","LANE":" ","ALLEY":" ","HOUSE_NO":"２號二樓之３７","E_COORD97":169158.57999999999,"N_COORD97":2544255.9300000002,"ADDRESS":"成功路２號二樓之３７","OBJECTID":526488},"geometry":{"x":169158.58000000007,"y":2544255.9300000016}},{"attributes":{"ID":526516,"DIS_CODE":0,"TOWNNAME":"北區","LI":"公園里","LIN":"6鄰","STREET":"成功路","SECT":" ","MAREA":" ","LANE":" ","ALLEY":" ","HOUSE_NO":"２號二樓之３８","E_COORD97":169158.57999999999,"N_COORD97":2544255.9300000002,"ADDRESS":"成功路２號二樓之３８","OBJECTID":526489},"geometry":{"x":169158.58000000007,"y":2544255.9300000016}},{"attributes":{"ID":526517,"DIS_CODE":0,"TOWNNAME":"北區","LI":"公園里","LIN":"6鄰","STREET":"成功路","SECT":" ","MAREA":" ","LANE":" ","ALLEY":" ","HOUSE_NO":"２號二樓之３９","E_COORD97":169158.57999999999,"N_COORD97":2544255.9300000002,"ADDRESS":"成功路２號二樓之３９","OBJECTID":526490},"geometry":{"x":169158.58000000007,"y":2544255.9300000016}},{"attributes":{"ID":526518,"DIS_CODE":0,"TOWNNAME":"北區","LI":"公園里","LIN":"6鄰","STREET":"成功路","SECT":" ","MAREA":" ","LANE":" ","ALLEY":" ","HOUSE_NO":"２號二樓之４","E_COORD97":169158.57999999999,"N_COORD97":2544255.9300000002,"ADDRESS":"成功路２號二樓之４","OBJECTID":526491},"geometry":{"x":169158.58000000007,"y":2544255.9300000016}},{"attributes":{"ID":526519,"DIS_CODE":0,"TOWNNAME":"北區","LI":"公園里","LIN":"6鄰","STREET":"成功路","SECT":" ","MAREA":" ","LANE":" ","ALLEY":" ","HOUSE_NO":"２號二樓之４０","E_COORD97":169158.57999999999,"N_COORD97":2544255.9300000002,"ADDRESS":"成功路２號二樓之４０","OBJECTID":526492},"geometry":{"x":169158.58000000007,"y":2544255.9300000016}},{"attributes":{"ID":526520,"DIS_CODE":0,"TOWNNAME":"北區","LI":"公園里","LIN":"6鄰","STREET":"成功路","SECT":" ","MAREA":" ","LANE":" ","ALLEY":" ","HOUSE_NO":"２號二樓之４１","E_COORD97":169158.57999999999,"N_COORD97":2544255.9300000002,"ADDRESS":"成功路２號二樓之４１","OBJECTID":526493},"geometry":{"x":169158.58000000007,"y":2544255.9300000016}},{"attributes":{"ID":526521,"DIS_CODE":0,"TOWNNAME":"北區","LI":"公園里","LIN":"6鄰","STREET":"成功路","SECT":" ","MAREA":" ","LANE":" ","ALLEY":" ","HOUSE_NO":"２號二樓之４２","E_COORD97":169158.57999999999,"N_COORD97":2544255.9300000002,"ADDRESS":"成功路２號二樓之４２","OBJECTID":526494},"geometry":{"x":169158.58000000007,"y":2544255.9300000016}},{"attributes":{"ID":526522,"DIS_CODE":0,"TOWNNAME":"北區","LI":"公園里","LIN":"6鄰","STREET":"成功路","SECT":" ","MAREA":" ","LANE":" ","ALLEY":" ","HOUSE_NO":"２號二樓之４３","E_COORD97":169158.57999999999,"N_COORD97":2544255.9300000002,"ADDRESS":"成功路２號二樓之４３","OBJECTID":526495},"geometry":{"x":169158.58000000007,"y":2544255.9300000016}},{"attributes":{"ID":526523,"DIS_CODE":0,"TOWNNAME":"北區","LI":"公園里","LIN":"6鄰","STREET":"成功路","SECT":" ","MAREA":" ","LANE":" ","ALLEY":" ","HOUSE_NO":"２號二樓之４４","E_COORD97":169158.57999999999,"N_COORD97":2544255.9300000002,"ADDRESS":"成功路２號二樓之４４","OBJECTID":526496},"geometry":{"x":169158.58000000007,"y":2544255.9300000016}},{"attributes":{"ID":526524,"DIS_CODE":0,"TOWNNAME":"北區","LI":"公園里","LIN":"6鄰","STREET":"成功路","SECT":" ","MAREA":" ","LANE":" ","ALLEY":" ","HOUSE_NO":"２號二樓之４５","E_COORD97":169158.57999999999,"N_COORD97":2544255.9300000002,"ADDRESS":"成功路２號二樓之４５","OBJECTID":526497},"geometry":{"x":169158.58000000007,"y":2544255.9300000016}},{"attributes":{"ID":526525,"DIS_CODE":0,"TOWNNAME":"北區","LI":"公園里","LIN":"6鄰","STREET":"成功路","SECT":" ","MAREA":" ","LANE":" ","ALLEY":" ","HOUSE_NO":"２號二樓之４６","E_COORD97":169158.57999999999,"N_COORD97":2544255.9300000002,"ADDRESS":"成功路２號二樓之４６","OBJECTID":526498},"geometry":{"x":169158.58000000007,"y":2544255.9300000016}},{"attributes":{"ID":526526,"DIS_CODE":0,"TOWNNAME":"北區","LI":"公園里","LIN":"6鄰","STREET":"成功路","SECT":" ","MAREA":" ","LANE":" ","ALLEY":" ","HOUSE_NO":"２號二樓之４７","E_COORD97":169158.57999999999,"N_COORD97":2544255.9300000002,"ADDRESS":"成功路２號二樓之４７","OBJECTID":526499},"geometry":{"x":169158.58000000007,"y":2544255.9300000016}},{"attributes":{"ID":526527,"DIS_CODE":0,"TOWNNAME":"北區","LI":"公園里","LIN":"6鄰","STREET":"成功路","SECT":" ","MAREA":" ","LANE":" ","ALLEY":" ","HOUSE_NO":"２號二樓之４９","E_COORD97":169158.57999999999,"N_COORD97":2544255.9300000002,"ADDRESS":"成功路２號二樓之４９","OBJECTID":526500},"geometry":{"x":169158.58000000007,"y":2544255.9300000016}},{"attributes":{"ID":526528,"DIS_CODE":0,"TOWNNAME":"北區","LI":"公園里","LIN":"6鄰","STREET":"成功路","SECT":" ","MAREA":" ","LANE":" ","ALLEY":" ","HOUSE_NO":"２號二樓之５","E_COORD97":169158.57999999999,"N_COORD97":2544255.9300000002,"ADDRESS":"成功路２號二樓之５","OBJECTID":526501},"geometry":{"x":169158.58000000007,"y":2544255.9300000016}},{"attributes":{"ID":526529,"DIS_CODE":0,"TOWNNAME":"北區","LI":"公園里","LIN":"6鄰","STREET":"成功路","SECT":" ","MAREA":" ","LANE":" ","ALLEY":" ","HOUSE_NO":"２號二樓之６","E_COORD97":169158.57999999999,"N_COORD97":2544255.9300000002,"ADDRESS":"成功路２號二樓之６","OBJECTID":526502},"geometry":{"x":169158.58000000007,"y":2544255.9300000016}},{"attributes":{"ID":526530,"DIS_CODE":0,"TOWNNAME":"北區","LI":"公園里","LIN":"6鄰","STREET":"成功路","SECT":" ","MAREA":" ","LANE":" ","ALLEY":" ","HOUSE_NO":"２號二樓之７","E_COORD97":169158.57999999999,"N_COORD97":2544255.9300000002,"ADDRESS":"成功路２號二樓之７","OBJECTID":526503},"geometry":{"x":169158.58000000007,"y":2544255.9300000016}},{"attributes":{"ID":526531,"DIS_CODE":0,"TOWNNAME":"北區","LI":"公園里","LIN":"6鄰","STREET":"成功路","SECT":" ","MAREA":" ","LANE":" ","ALLEY":" ","HOUSE_NO":"２號二樓之８","E_COORD97":169158.57999999999,"N_COORD97":2544255.9300000002,"ADDRESS":"成功路２號二樓之８","OBJECTID":526504},"geometry":{"x":169158.58000000007,"y":2544255.9300000016}},{"attributes":{"ID":526532,"DIS_CODE":0,"TOWNNAME":"北區","LI":"公園里","LIN":"6鄰","STREET":"成功路","SECT":" ","MAREA":" ","LANE":" ","ALLEY":" ","HOUSE_NO":"２號二樓之９","E_COORD97":169158.57999999999,"N_COORD97":2544255.9300000002,"ADDRESS":"成功路２號二樓之９","OBJECTID":526505},"geometry":{"x":169158.58000000007,"y":2544255.9300000016}},{"attributes":{"ID":526533,"DIS_CODE":0,"TOWNNAME":"北區","LI":"公園里","LIN":"6鄰","STREET":"成功路","SECT":" ","MAREA":" ","LANE":" ","ALLEY":" ","HOUSE_NO":"２號八樓之１","E_COORD97":169158.57999999999,"N_COORD97":2544255.9300000002,"ADDRESS":"成功路２號八樓之１","OBJECTID":526506},"geometry":{"x":169158.58000000007,"y":2544255.9300000016}},{"attributes":{"ID":526534,"DIS_CODE":0,"TOWNNAME":"北區","LI":"公園里","LIN":"6鄰","STREET":"成功路","SECT":" ","MAREA":" ","LANE":" ","ALLEY":" ","HOUSE_NO":"２號八樓之１０","E_COORD97":169158.57999999999,"N_COORD97":2544255.9300000002,"ADDRESS":"成功路２號八樓之１０","OBJECTID":526507},"geometry":{"x":169158.58000000007,"y":2544255.9300000016}},{"attributes":{"ID":526535,"DIS_CODE":0,"TOWNNAME":"北區","LI":"公園里","LIN":"6鄰","STREET":"成功路","SECT":" ","MAREA":" ","LANE":" ","ALLEY":" ","HOUSE_NO":"２號八樓之１１","E_COORD97":169158.57999999999,"N_COORD97":2544255.9300000002,"ADDRESS":"成功路２號八樓之１１","OBJECTID":526508},"geometry":{"x":169158.58000000007,"y":2544255.9300000016}},{"attributes":{"ID":526536,"DIS_CODE":0,"TOWNNAME":"北區","LI":"公園里","LIN":"6鄰","STREET":"成功路","SECT":" ","MAREA":" ","LANE":" ","ALLEY":" ","HOUSE_NO":"２號八樓之１２","E_COORD97":169158.57999999999,"N_COORD97":2544255.9300000002,"ADDRESS":"成功路２號八樓之１２","OBJECTID":526509},"geometry":{"x":169158.58000000007,"y":2544255.9300000016}},{"attributes":{"ID":526537,"DIS_CODE":0,"TOWNNAME":"北區","LI":"公園里","LIN":"6鄰","STREET":"成功路","SECT":" ","MAREA":" ","LANE":" ","ALLEY":" ","HOUSE_NO":"２號八樓之１３","E_COORD97":169158.57999999999,"N_COORD97":2544255.9300000002,"ADDRESS":"成功路２號八樓之１３","OBJECTID":526510},"geometry":{"x":169158.58000000007,"y":2544255.9300000016}},{"attributes":{"ID":526538,"DIS_CODE":0,"TOWNNAME":"北區","LI":"公園里","LIN":"6鄰","STREET":"成功路","SECT":" ","MAREA":" ","LANE":" ","ALLEY":" ","HOUSE_NO":"２號八樓之１４","E_COORD97":169158.57999999999,"N_COORD97":2544255.9300000002,"ADDRESS":"成功路２號八樓之１４","OBJECTID":526511},"geometry":{"x":169158.58000000007,"y":2544255.9300000016}},{"attributes":{"ID":526539,"DIS_CODE":0,"TOWNNAME":"北區","LI":"公園里","LIN":"6鄰","STREET":"成功路","SECT":" ","MAREA":" ","LANE":" ","ALLEY":" ","HOUSE_NO":"２號八樓之１５","E_COORD97":169158.57999999999,"N_COORD97":2544255.9300000002,"ADDRESS":"成功路２號八樓之１５","OBJECTID":526512},"geometry":{"x":169158.58000000007,"y":2544255.9300000016}},{"attributes":{"ID":526540,"DIS_CODE":0,"TOWNNAME":"北區","LI":"公園里","LIN":"6鄰","STREET":"成功路","SECT":" ","MAREA":" ","LANE":" ","ALLEY":" ","HOUSE_NO":"２號八樓之１６","E_COORD97":169158.57999999999,"N_COORD97":2544255.9300000002,"ADDRESS":"成功路２號八樓之１６","OBJECTID":526513},"geometry":{"x":169158.58000000007,"y":2544255.9300000016}},{"attributes":{"ID":526541,"DIS_CODE":0,"TOWNNAME":"北區","LI":"公園里","LIN":"6鄰","STREET":"成功路","SECT":" ","MAREA":" ","LANE":" ","ALLEY":" ","HOUSE_NO":"２號八樓之１７","E_COORD97":169158.57999999999,"N_COORD97":2544255.9300000002,"ADDRESS":"成功路２號八樓之１７","OBJECTID":526514},"geometry":{"x":169158.58000000007,"y":2544255.9300000016}},{"attributes":{"ID":526542,"DIS_CODE":0,"TOWNNAME":"北區","LI":"公園里","LIN":"6鄰","STREET":"成功路","SECT":" ","MAREA":" ","LANE":" ","ALLEY":" ","HOUSE_NO":"２號八樓之１８","E_COORD97":169158.57999999999,"N_COORD97":2544255.9300000002,"ADDRESS":"成功路２號八樓之１８","OBJECTID":526515},"geometry":{"x":169158.58000000007,"y":2544255.9300000016}},{"attributes":{"ID":526543,"DIS_CODE":0,"TOWNNAME":"北區","LI":"公園里","LIN":"6鄰","STREET":"成功路","SECT":" ","MAREA":" ","LANE":" ","ALLEY":" ","HOUSE_NO":"２號八樓之１９","E_COORD97":169158.57999999999,"N_COORD97":2544255.9300000002,"ADDRESS":"成功路２號八樓之１９","OBJECTID":526516},"geometry":{"x":169158.58000000007,"y":2544255.9300000016}},{"attributes":{"ID":526544,"DIS_CODE":0,"TOWNNAME":"北區","LI":"公園里","LIN":"6鄰","STREET":"成功路","SECT":" ","MAREA":" ","LANE":" ","ALLEY":" ","HOUSE_NO":"２號八樓之２","E_COORD97":169158.57999999999,"N_COORD97":2544255.9300000002,"ADDRESS":"成功路２號八樓之２","OBJECTID":526517},"geometry":{"x":169158.58000000007,"y":2544255.9300000016}},{"attributes":{"ID":526545,"DIS_CODE":0,"TOWNNAME":"北區","LI":"公園里","LIN":"6鄰","STREET":"成功路","SECT":" ","MAREA":" ","LANE":" ","ALLEY":" ","HOUSE_NO":"２號八樓之２０","E_COORD97":169158.57999999999,"N_COORD97":2544255.9300000002,"ADDRESS":"成功路２號八樓之２０","OBJECTID":526518},"geometry":{"x":169158.58000000007,"y":2544255.9300000016}},{"attributes":{"ID":526546,"DIS_CODE":0,"TOWNNAME":"北區","LI":"公園里","LIN":"6鄰","STREET":"成功路","SECT":" ","MAREA":" ","LANE":" ","ALLEY":" ","HOUSE_NO":"２號八樓之２１","E_COORD97":169158.57999999999,"N_COORD97":2544255.9300000002,"ADDRESS":"成功路２號八樓之２１","OBJECTID":526519},"geometry":{"x":169158.58000000007,"y":2544255.9300000016}},{"attributes":{"ID":526547,"DIS_CODE":0,"TOWNNAME":"北區","LI":"公園里","LIN":"6鄰","STREET":"成功路","SECT":" ","MAREA":" ","LANE":" ","ALLEY":" ","HOUSE_NO":"２號八樓之２２","E_COORD97":169158.57999999999,"N_COORD97":2544255.9300000002,"ADDRESS":"成功路２號八樓之２２","OBJECTID":526520},"geometry":{"x":169158.58000000007,"y":2544255.9300000016}},{"attributes":{"ID":526548,"DIS_CODE":0,"TOWNNAME":"北區","LI":"公園里","LIN":"6鄰","STREET":"成功路","SECT":" ","MAREA":" ","LANE":" ","ALLEY":" ","HOUSE_NO":"２號八樓之２３","E_COORD97":169158.57999999999,"N_COORD97":2544255.9300000002,"ADDRESS":"成功路２號八樓之２３","OBJECTID":526521},"geometry":{"x":169158.58000000007,"y":2544255.9300000016}},{"attributes":{"ID":526549,"DIS_CODE":0,"TOWNNAME":"北區","LI":"公園里","LIN":"6鄰","STREET":"成功路","SECT":" ","MAREA":" ","LANE":" ","ALLEY":" ","HOUSE_NO":"２號八樓之２４","E_COORD97":169158.57999999999,"N_COORD97":2544255.9300000002,"ADDRESS":"成功路２號八樓之２４","OBJECTID":526522},"geometry":{"x":169158.58000000007,"y":2544255.9300000016}},{"attributes":{"ID":526550,"DIS_CODE":0,"TOWNNAME":"北區","LI":"公園里","LIN":"6鄰","STREET":"成功路","SECT":" ","MAREA":" ","LANE":" ","ALLEY":" ","HOUSE_NO":"２號八樓之２５","E_COORD97":169158.57999999999,"N_COORD97":2544255.9300000002,"ADDRESS":"成功路２號八樓之２５","OBJECTID":526523},"geometry":{"x":169158.58000000007,"y":2544255.9300000016}},{"attributes":{"ID":526551,"DIS_CODE":0,"TOWNNAME":"北區","LI":"公園里","LIN":"6鄰","STREET":"成功路","SECT":" ","MAREA":" ","LANE":" ","ALLEY":" ","HOUSE_NO":"２號八樓之２６","E_COORD97":169158.57999999999,"N_COORD97":2544255.9300000002,"ADDRESS":"成功路２號八樓之２６","OBJECTID":526524},"geometry":{"x":169158.58000000007,"y":2544255.9300000016}},{"attributes":{"ID":526552,"DIS_CODE":0,"TOWNNAME":"北區","LI":"公園里","LIN":"6鄰","STREET":"成功路","SECT":" ","MAREA":" ","LANE":" ","ALLEY":" ","HOUSE_NO":"２號八樓之２７","E_COORD97":169158.57999999999,"N_COORD97":2544255.9300000002,"ADDRESS":"成功路２號八樓之２７","OBJECTID":526525},"geometry":{"x":169158.58000000007,"y":2544255.9300000016}},{"attributes":{"ID":526553,"DIS_CODE":0,"TOWNNAME":"北區","LI":"公園里","LIN":"6鄰","STREET":"成功路","SECT":" ","MAREA":" ","LANE":" ","ALLEY":" ","HOUSE_NO":"２號八樓之２８","E_COORD97":169158.57999999999,"N_COORD97":2544255.9300000002,"ADDRESS":"成功路２號八樓之２８","OBJECTID":526526},"geometry":{"x":169158.58000000007,"y":2544255.9300000016}},{"attributes":{"ID":526554,"DIS_CODE":0,"TOWNNAME":"北區","LI":"公園里","LIN":"6鄰","STREET":"成功路","SECT":" ","MAREA":" ","LANE":" ","ALLEY":" ","HOUSE_NO":"２號八樓之２９","E_COORD97":169158.57999999999,"N_COORD97":2544255.9300000002,"ADDRESS":"成功路２號八樓之２９","OBJECTID":526527},"geometry":{"x":169158.58000000007,"y":2544255.9300000016}},{"attributes":{"ID":526555,"DIS_CODE":0,"TOWNNAME":"北區","LI":"公園里","LIN":"6鄰","STREET":"成功路","SECT":" ","MAREA":" ","LANE":" ","ALLEY":" ","HOUSE_NO":"２號八樓之３","E_COORD97":169158.57999999999,"N_COORD97":2544255.9300000002,"ADDRESS":"成功路２號八樓之３","OBJECTID":526528},"geometry":{"x":169158.58000000007,"y":2544255.9300000016}},{"attributes":{"ID":526556,"DIS_CODE":0,"TOWNNAME":"北區","LI":"公園里","LIN":"6鄰","STREET":"成功路","SECT":" ","MAREA":" ","LANE":" ","ALLEY":" ","HOUSE_NO":"２號八樓之３０","E_COORD97":169158.57999999999,"N_COORD97":2544255.9300000002,"ADDRESS":"成功路２號八樓之３０","OBJECTID":526529},"geometry":{"x":169158.58000000007,"y":2544255.9300000016}},{"attributes":{"ID":526557,"DIS_CODE":0,"TOWNNAME":"北區","LI":"公園里","LIN":"6鄰","STREET":"成功路","SECT":" ","MAREA":" ","LANE":" ","ALLEY":" ","HOUSE_NO":"２號八樓之３１","E_COORD97":169158.57999999999,"N_COORD97":2544255.9300000002,"ADDRESS":"成功路２號八樓之３１","OBJECTID":526530},"geometry":{"x":169158.58000000007,"y":2544255.9300000016}},{"attributes":{"ID":526558,"DIS_CODE":0,"TOWNNAME":"北區","LI":"公園里","LIN":"6鄰","STREET":"成功路","SECT":" ","MAREA":" ","LANE":" ","ALLEY":" ","HOUSE_NO":"２號八樓之３２","E_COORD97":169158.57999999999,"N_COORD97":2544255.9300000002,"ADDRESS":"成功路２號八樓之３２","OBJECTID":526531},"geometry":{"x":169158.58000000007,"y":2544255.9300000016}},{"attributes":{"ID":526559,"DIS_CODE":0,"TOWNNAME":"北區","LI":"公園里","LIN":"6鄰","STREET":"成功路","SECT":" ","MAREA":" ","LANE":" ","ALLEY":" ","HOUSE_NO":"２號八樓之３３","E_COORD97":169158.57999999999,"N_COORD97":2544255.9300000002,"ADDRESS":"成功路２號八樓之３３","OBJECTID":526532},"geometry":{"x":169158.58000000007,"y":2544255.9300000016}},{"attributes":{"ID":526560,"DIS_CODE":0,"TOWNNAME":"北區","LI":"公園里","LIN":"6鄰","STREET":"成功路","SECT":" ","MAREA":" ","LANE":" ","ALLEY":" ","HOUSE_NO":"２號八樓之３４","E_COORD97":169158.57999999999,"N_COORD97":2544255.9300000002,"ADDRESS":"成功路２號八樓之３４","OBJECTID":526533},"geometry":{"x":169158.58000000007,"y":2544255.9300000016}},{"attributes":{"ID":526561,"DIS_CODE":0,"TOWNNAME":"北區","LI":"公園里","LIN":"6鄰","STREET":"成功路","SECT":" ","MAREA":" ","LANE":" ","ALLEY":" ","HOUSE_NO":"２號八樓之３５","E_COORD97":169158.57999999999,"N_COORD97":2544255.9300000002,"ADDRESS":"成功路２號八樓之３５","OBJECTID":526534},"geometry":{"x":169158.58000000007,"y":2544255.9300000016}},{"attributes":{"ID":526562,"DIS_CODE":0,"TOWNNAME":"北區","LI":"公園里","LIN":"6鄰","STREET":"成功路","SECT":" ","MAREA":" ","LANE":" ","ALLEY":" ","HOUSE_NO":"２號八樓之３６","E_COORD97":169158.57999999999,"N_COORD97":2544255.9300000002,"ADDRESS":"成功路２號八樓之３６","OBJECTID":526535},"geometry":{"x":169158.58000000007,"y":2544255.9300000016}},{"attributes":{"ID":526563,"DIS_CODE":0,"TOWNNAME":"北區","LI":"公園里","LIN":"6鄰","STREET":"成功路","SECT":" ","MAREA":" ","LANE":" ","ALLEY":" ","HOUSE_NO":"２號八樓之３７","E_COORD97":169158.57999999999,"N_COORD97":2544255.9300000002,"ADDRESS":"成功路２號八樓之３７","OBJECTID":526536},"geometry":{"x":169158.58000000007,"y":2544255.9300000016}},{"attributes":{"ID":526564,"DIS_CODE":0,"TOWNNAME":"北區","LI":"公園里","LIN":"6鄰","STREET":"成功路","SECT":" ","MAREA":" ","LANE":" ","ALLEY":" ","HOUSE_NO":"２號八樓之３８","E_COORD97":169158.57999999999,"N_COORD97":2544255.9300000002,"ADDRESS":"成功路２號八樓之３８","OBJECTID":526537},"geometry":{"x":169158.58000000007,"y":2544255.9300000016}},{"attributes":{"ID":526565,"DIS_CODE":0,"TOWNNAME":"北區","LI":"公園里","LIN":"6鄰","STREET":"成功路","SECT":" ","MAREA":" ","LANE":" ","ALLEY":" ","HOUSE_NO":"２號八樓之３９","E_COORD97":169158.57999999999,"N_COORD97":2544255.9300000002,"ADDRESS":"成功路２號八樓之３９","OBJECTID":526538},"geometry":{"x":169158.58000000007,"y":2544255.9300000016}},{"attributes":{"ID":526566,"DIS_CODE":0,"TOWNNAME":"北區","LI":"公園里","LIN":"6鄰","STREET":"成功路","SECT":" ","MAREA":" ","LANE":" ","ALLEY":" ","HOUSE_NO":"２號八樓之４","E_COORD97":169158.57999999999,"N_COORD97":2544255.9300000002,"ADDRESS":"成功路２號八樓之４","OBJECTID":526539},"geometry":{"x":169158.58000000007,"y":2544255.9300000016}},{"attributes":{"ID":526567,"DIS_CODE":0,"TOWNNAME":"北區","LI":"公園里","LIN":"6鄰","STREET":"成功路","SECT":" ","MAREA":" ","LANE":" ","ALLEY":" ","HOUSE_NO":"２號八樓之４０","E_COORD97":169158.57999999999,"N_COORD97":2544255.9300000002,"ADDRESS":"成功路２號八樓之４０","OBJECTID":526540},"geometry":{"x":169158.58000000007,"y":2544255.9300000016}},{"attributes":{"ID":526568,"DIS_CODE":0,"TOWNNAME":"北區","LI":"公園里","LIN":"6鄰","STREET":"成功路","SECT":" ","MAREA":" ","LANE":" ","ALLEY":" ","HOUSE_NO":"２號八樓之４１","E_COORD97":169158.57999999999,"N_COORD97":2544255.9300000002,"ADDRESS":"成功路２號八樓之４１","OBJECTID":526541},"geometry":{"x":169158.58000000007,"y":2544255.9300000016}},{"attributes":{"ID":526569,"DIS_CODE":0,"TOWNNAME":"北區","LI":"公園里","LIN":"6鄰","STREET":"成功路","SECT":" ","MAREA":" ","LANE":" ","ALLEY":" ","HOUSE_NO":"２號八樓之４２","E_COORD97":169158.57999999999,"N_COORD97":2544255.9300000002,"ADDRESS":"成功路２號八樓之４２","OBJECTID":526542},"geometry":{"x":169158.58000000007,"y":2544255.9300000016}},{"attributes":{"ID":526570,"DIS_CODE":0,"TOWNNAME":"北區","LI":"公園里","LIN":"6鄰","STREET":"成功路","SECT":" ","MAREA":" ","LANE":" ","ALLEY":" ","HOUSE_NO":"２號八樓之４３","E_COORD97":169158.57999999999,"N_COORD97":2544255.9300000002,"ADDRESS":"成功路２號八樓之４３","OBJECTID":526543},"geometry":{"x":169158.58000000007,"y":2544255.9300000016}},{"attributes":{"ID":526571,"DIS_CODE":0,"TOWNNAME":"北區","LI":"公園里","LIN":"6鄰","STREET":"成功路","SECT":" ","MAREA":" ","LANE":" ","ALLEY":" ","HOUSE_NO":"２號八樓之４４","E_COORD97":169158.57999999999,"N_COORD97":2544255.9300000002,"ADDRESS":"成功路２號八樓之４４","OBJECTID":526544},"geometry":{"x":169158.58000000007,"y":2544255.9300000016}},{"attributes":{"ID":526572,"DIS_CODE":0,"TOWNNAME":"北區","LI":"公園里","LIN":"6鄰","STREET":"成功路","SECT":" ","MAREA":" ","LANE":" ","ALLEY":" ","HOUSE_NO":"２號八樓之４５","E_COORD97":169158.57999999999,"N_COORD97":2544255.9300000002,"ADDRESS":"成功路２號八樓之４５","OBJECTID":526545},"geometry":{"x":169158.58000000007,"y":2544255.9300000016}},{"attributes":{"ID":526573,"DIS_CODE":0,"TOWNNAME":"北區","LI":"公園里","LIN":"6鄰","STREET":"成功路","SECT":" ","MAREA":" ","LANE":" ","ALLEY":" ","HOUSE_NO":"２號八樓之４６","E_COORD97":169158.57999999999,"N_COORD97":2544255.9300000002,"ADDRESS":"成功路２號八樓之４６","OBJECTID":526546},"geometry":{"x":169158.58000000007,"y":2544255.9300000016}},{"attributes":{"ID":526574,"DIS_CODE":0,"TOWNNAME":"中西區","LI":"保安里","LIN":"6鄰","STREET":"尊王路","SECT":" ","MAREA":" ","LANE":" ","ALLEY":" ","HOUSE_NO":"７０號","E_COORD97":167591.95999999999,"N_COORD97":2543589.2400000002,"ADDRESS":"尊王路７０號","OBJECTID":526547},"geometry":{"x":167591.96000000089,"y":2543589.2400000021}},{"attributes":{"ID":526575,"DIS_CODE":0,"TOWNNAME":"北區","LI":"公園里","LIN":"6鄰","STREET":"成功路","SECT":" ","MAREA":" ","LANE":" ","ALLEY":" ","HOUSE_NO":"２號八樓之４７","E_COORD97":169158.57999999999,"N_COORD97":2544255.9300000002,"ADDRESS":"成功路２號八樓之４７","OBJECTID":526548},"geometry":{"x":169158.58000000007,"y":2544255.9300000016}},{"attributes":{"ID":526576,"DIS_CODE":0,"TOWNNAME":"北區","LI":"公園里","LIN":"6鄰","STREET":"成功路","SECT":" ","MAREA":" ","LANE":" ","ALLEY":" ","HOUSE_NO":"２號八樓之５","E_COORD97":169158.57999999999,"N_COORD97":2544255.9300000002,"ADDRESS":"成功路２號八樓之５","OBJECTID":526549},"geometry":{"x":169158.58000000007,"y":2544255.9300000016}},{"attributes":{"ID":526577,"DIS_CODE":0,"TOWNNAME":"北區","LI":"公園里","LIN":"6鄰","STREET":"成功路","SECT":" ","MAREA":" ","LANE":" ","ALLEY":" ","HOUSE_NO":"２號八樓之６","E_COORD97":169158.57999999999,"N_COORD97":2544255.9300000002,"ADDRESS":"成功路２號八樓之６","OBJECTID":526550},"geometry":{"x":169158.58000000007,"y":2544255.9300000016}},{"attributes":{"ID":526578,"DIS_CODE":0,"TOWNNAME":"北區","LI":"公園里","LIN":"6鄰","STREET":"成功路","SECT":" ","MAREA":" ","LANE":" ","ALLEY":" ","HOUSE_NO":"２號八樓之７","E_COORD97":169158.57999999999,"N_COORD97":2544255.9300000002,"ADDRESS":"成功路２號八樓之７","OBJECTID":526551},"geometry":{"x":169158.58000000007,"y":2544255.9300000016}},{"attributes":{"ID":526579,"DIS_CODE":0,"TOWNNAME":"北區","LI":"公園里","LIN":"6鄰","STREET":"成功路","SECT":" ","MAREA":" ","LANE":" ","ALLEY":" ","HOUSE_NO":"２號八樓之８","E_COORD97":169158.57999999999,"N_COORD97":2544255.9300000002,"ADDRESS":"成功路２號八樓之８","OBJECTID":526552},"geometry":{"x":169158.58000000007,"y":2544255.9300000016}},{"attributes":{"ID":526580,"DIS_CODE":0,"TOWNNAME":"北區","LI":"公園里","LIN":"6鄰","STREET":"成功路","SECT":" ","MAREA":" ","LANE":" ","ALLEY":" ","HOUSE_NO":"２號八樓之９","E_COORD97":169158.57999999999,"N_COORD97":2544255.9300000002,"ADDRESS":"成功路２號八樓之９","OBJECTID":526553},"geometry":{"x":169158.58000000007,"y":2544255.9300000016}},{"attributes":{"ID":526581,"DIS_CODE":0,"TOWNNAME":"北區","LI":"公園里","LIN":"6鄰","STREET":"成功路","SECT":" ","MAREA":" ","LANE":" ","ALLEY":" ","HOUSE_NO":"２號十一樓之１","E_COORD97":169158.57999999999,"N_COORD97":2544255.9300000002,"ADDRESS":"成功路２號十一樓之１","OBJECTID":526554},"geometry":{"x":169158.58000000007,"y":2544255.9300000016}},{"attributes":{"ID":526582,"DIS_CODE":0,"TOWNNAME":"北區","LI":"公園里","LIN":"6鄰","STREET":"成功路","SECT":" ","MAREA":" ","LANE":" ","ALLEY":" ","HOUSE_NO":"２號十一樓之１０","E_COORD97":169158.57999999999,"N_COORD97":2544255.9300000002,"ADDRESS":"成功路２號十一樓之１０","OBJECTID":526555},"geometry":{"x":169158.58000000007,"y":2544255.9300000016}},{"attributes":{"ID":526583,"DIS_CODE":0,"TOWNNAME":"北區","LI":"公園里","LIN":"6鄰","STREET":"成功路","SECT":" ","MAREA":" ","LANE":" ","ALLEY":" ","HOUSE_NO":"２號十一樓之１１","E_COORD97":169158.57999999999,"N_COORD97":2544255.9300000002,"ADDRESS":"成功路２號十一樓之１１","OBJECTID":526556},"geometry":{"x":169158.58000000007,"y":2544255.9300000016}},{"attributes":{"ID":526584,"DIS_CODE":0,"TOWNNAME":"北區","LI":"公園里","LIN":"6鄰","STREET":"成功路","SECT":" ","MAREA":" ","LANE":" ","ALLEY":" ","HOUSE_NO":"２號十一樓之１２","E_COORD97":169158.57999999999,"N_COORD97":2544255.9300000002,"ADDRESS":"成功路２號十一樓之１２","OBJECTID":526557},"geometry":{"x":169158.58000000007,"y":2544255.9300000016}},{"attributes":{"ID":526585,"DIS_CODE":0,"TOWNNAME":"北區","LI":"公園里","LIN":"6鄰","STREET":"成功路","SECT":" ","MAREA":" ","LANE":" ","ALLEY":" ","HOUSE_NO":"２號十一樓之１３","E_COORD97":169158.57999999999,"N_COORD97":2544255.9300000002,"ADDRESS":"成功路２號十一樓之１３","OBJECTID":526558},"geometry":{"x":169158.58000000007,"y":2544255.9300000016}},{"attributes":{"ID":526586,"DIS_CODE":0,"TOWNNAME":"北區","LI":"公園里","LIN":"6鄰","STREET":"成功路","SECT":" ","MAREA":" ","LANE":" ","ALLEY":" ","HOUSE_NO":"２號十一樓之１４","E_COORD97":169158.57999999999,"N_COORD97":2544255.9300000002,"ADDRESS":"成功路２號十一樓之１４","OBJECTID":526559},"geometry":{"x":169158.58000000007,"y":2544255.9300000016}},{"attributes":{"ID":526587,"DIS_CODE":0,"TOWNNAME":"北區","LI":"公園里","LIN":"6鄰","STREET":"成功路","SECT":" ","MAREA":" ","LANE":" ","ALLEY":" ","HOUSE_NO":"２號十一樓之１５","E_COORD97":169158.57999999999,"N_COORD97":2544255.9300000002,"ADDRESS":"成功路２號十一樓之１５","OBJECTID":526560},"geometry":{"x":169158.58000000007,"y":2544255.9300000016}},{"attributes":{"ID":526588,"DIS_CODE":0,"TOWNNAME":"北區","LI":"公園里","LIN":"6鄰","STREET":"成功路","SECT":" ","MAREA":" ","LANE":" ","ALLEY":" ","HOUSE_NO":"２號十一樓之１６","E_COORD97":169158.57999999999,"N_COORD97":2544255.9300000002,"ADDRESS":"成功路２號十一樓之１６","OBJECTID":526561},"geometry":{"x":169158.58000000007,"y":2544255.9300000016}},{"attributes":{"ID":526589,"DIS_CODE":0,"TOWNNAME":"北區","LI":"公園里","LIN":"6鄰","STREET":"成功路","SECT":" ","MAREA":" ","LANE":" ","ALLEY":" ","HOUSE_NO":"２號十一樓之１７","E_COORD97":169158.57999999999,"N_COORD97":2544255.9300000002,"ADDRESS":"成功路２號十一樓之１７","OBJECTID":526562},"geometry":{"x":169158.58000000007,"y":2544255.9300000016}},{"attributes":{"ID":526590,"DIS_CODE":0,"TOWNNAME":"北區","LI":"公園里","LIN":"6鄰","STREET":"成功路","SECT":" ","MAREA":" ","LANE":" ","ALLEY":" ","HOUSE_NO":"２號十一樓之１８","E_COORD97":169158.57999999999,"N_COORD97":2544255.9300000002,"ADDRESS":"成功路２號十一樓之１８","OBJECTID":526563},"geometry":{"x":169158.58000000007,"y":2544255.9300000016}},{"attributes":{"ID":526591,"DIS_CODE":0,"TOWNNAME":"北區","LI":"公園里","LIN":"6鄰","STREET":"成功路","SECT":" ","MAREA":" ","LANE":" ","ALLEY":" ","HOUSE_NO":"２號十一樓之１９","E_COORD97":169158.57999999999,"N_COORD97":2544255.9300000002,"ADDRESS":"成功路２號十一樓之１９","OBJECTID":526564},"geometry":{"x":169158.58000000007,"y":2544255.9300000016}},{"attributes":{"ID":526592,"DIS_CODE":0,"TOWNNAME":"北區","LI":"公園里","LIN":"6鄰","STREET":"成功路","SECT":" ","MAREA":" ","LANE":" ","ALLEY":" ","HOUSE_NO":"２號十一樓之２","E_COORD97":169158.57999999999,"N_COORD97":2544255.9300000002,"ADDRESS":"成功路２號十一樓之２","OBJECTID":526565},"geometry":{"x":169158.58000000007,"y":2544255.9300000016}},{"attributes":{"ID":526593,"DIS_CODE":0,"TOWNNAME":"北區","LI":"公園里","LIN":"6鄰","STREET":"成功路","SECT":" ","MAREA":" ","LANE":" ","ALLEY":" ","HOUSE_NO":"２號十一樓之２０","E_COORD97":169158.57999999999,"N_COORD97":2544255.9300000002,"ADDRESS":"成功路２號十一樓之２０","OBJECTID":526566},"geometry":{"x":169158.58000000007,"y":2544255.9300000016}},{"attributes":{"ID":526594,"DIS_CODE":0,"TOWNNAME":"北區","LI":"公園里","LIN":"6鄰","STREET":"成功路","SECT":" ","MAREA":" ","LANE":" ","ALLEY":" ","HOUSE_NO":"２號十一樓之２１","E_COORD97":169158.57999999999,"N_COORD97":2544255.9300000002,"ADDRESS":"成功路２號十一樓之２１","OBJECTID":526567},"geometry":{"x":169158.58000000007,"y":2544255.9300000016}},{"attributes":{"ID":526595,"DIS_CODE":0,"TOWNNAME":"北區","LI":"公園里","LIN":"6鄰","STREET":"成功路","SECT":" ","MAREA":" ","LANE":" ","ALLEY":" ","HOUSE_NO":"２號十一樓之２２","E_COORD97":169158.57999999999,"N_COORD97":2544255.9300000002,"ADDRESS":"成功路２號十一樓之２２","OBJECTID":526568},"geometry":{"x":169158.58000000007,"y":2544255.9300000016}},{"attributes":{"ID":526596,"DIS_CODE":0,"TOWNNAME":"北區","LI":"公園里","LIN":"6鄰","STREET":"成功路","SECT":" ","MAREA":" ","LANE":" ","ALLEY":" ","HOUSE_NO":"２號十一樓之２３","E_COORD97":169158.57999999999,"N_COORD97":2544255.9300000002,"ADDRESS":"成功路２號十一樓之２３","OBJECTID":526569},"geometry":{"x":169158.58000000007,"y":2544255.9300000016}},{"attributes":{"ID":526597,"DIS_CODE":0,"TOWNNAME":"北區","LI":"公園里","LIN":"6鄰","STREET":"成功路","SECT":" ","MAREA":" ","LANE":" ","ALLEY":" ","HOUSE_NO":"２號十一樓之２４","E_COORD97":169158.57999999999,"N_COORD97":2544255.9300000002,"ADDRESS":"成功路２號十一樓之２４","OBJECTID":526570},"geometry":{"x":169158.58000000007,"y":2544255.9300000016}},{"attributes":{"ID":526598,"DIS_CODE":0,"TOWNNAME":"北區","LI":"公園里","LIN":"6鄰","STREET":"成功路","SECT":" ","MAREA":" ","LANE":" ","ALLEY":" ","HOUSE_NO":"２號十一樓之２５","E_COORD97":169158.57999999999,"N_COORD97":2544255.9300000002,"ADDRESS":"成功路２號十一樓之２５","OBJECTID":526571},"geometry":{"x":169158.58000000007,"y":2544255.9300000016}},{"attributes":{"ID":526599,"DIS_CODE":0,"TOWNNAME":"北區","LI":"公園里","LIN":"6鄰","STREET":"成功路","SECT":" ","MAREA":" ","LANE":" ","ALLEY":" ","HOUSE_NO":"２號十一樓之２６","E_COORD97":169158.57999999999,"N_COORD97":2544255.9300000002,"ADDRESS":"成功路２號十一樓之２６","OBJECTID":526572},"geometry":{"x":169158.58000000007,"y":2544255.9300000016}},{"attributes":{"ID":526600,"DIS_CODE":0,"TOWNNAME":"北區","LI":"公園里","LIN":"6鄰","STREET":"成功路","SECT":" ","MAREA":" ","LANE":" ","ALLEY":" ","HOUSE_NO":"２號十一樓之２７","E_COORD97":169158.57999999999,"N_COORD97":2544255.9300000002,"ADDRESS":"成功路２號十一樓之２７","OBJECTID":526573},"geometry":{"x":169158.58000000007,"y":2544255.9300000016}},{"attributes":{"ID":526601,"DIS_CODE":0,"TOWNNAME":"北區","LI":"公園里","LIN":"6鄰","STREET":"成功路","SECT":" ","MAREA":" ","LANE":" ","ALLEY":" ","HOUSE_NO":"２號十一樓之２８","E_COORD97":169158.57999999999,"N_COORD97":2544255.9300000002,"ADDRESS":"成功路２號十一樓之２８","OBJECTID":526574},"geometry":{"x":169158.58000000007,"y":2544255.9300000016}},{"attributes":{"ID":526602,"DIS_CODE":0,"TOWNNAME":"北區","LI":"公園里","LIN":"6鄰","STREET":"成功路","SECT":" ","MAREA":" ","LANE":" ","ALLEY":" ","HOUSE_NO":"２號十一樓之２９","E_COORD97":169158.57999999999,"N_COORD97":2544255.9300000002,"ADDRESS":"成功路２號十一樓之２９","OBJECTID":526575},"geometry":{"x":169158.58000000007,"y":2544255.9300000016}},{"attributes":{"ID":526603,"DIS_CODE":0,"TOWNNAME":"北區","LI":"公園里","LIN":"6鄰","STREET":"成功路","SECT":" ","MAREA":" ","LANE":" ","ALLEY":" ","HOUSE_NO":"２號十一樓之３","E_COORD97":169158.57999999999,"N_COORD97":2544255.9300000002,"ADDRESS":"成功路２號十一樓之３","OBJECTID":526576},"geometry":{"x":169158.58000000007,"y":2544255.9300000016}},{"attributes":{"ID":526604,"DIS_CODE":0,"TOWNNAME":"北區","LI":"公園里","LIN":"6鄰","STREET":"成功路","SECT":" ","MAREA":" ","LANE":" ","ALLEY":" ","HOUSE_NO":"２號十一樓之３０","E_COORD97":169158.57999999999,"N_COORD97":2544255.9300000002,"ADDRESS":"成功路２號十一樓之３０","OBJECTID":526577},"geometry":{"x":169158.58000000007,"y":2544255.9300000016}},{"attributes":{"ID":526605,"DIS_CODE":0,"TOWNNAME":"北區","LI":"公園里","LIN":"6鄰","STREET":"成功路","SECT":" ","MAREA":" ","LANE":" ","ALLEY":" ","HOUSE_NO":"２號十一樓之３１","E_COORD97":169158.57999999999,"N_COORD97":2544255.9300000002,"ADDRESS":"成功路２號十一樓之３１","OBJECTID":526578},"geometry":{"x":169158.58000000007,"y":2544255.9300000016}},{"attributes":{"ID":526606,"DIS_CODE":0,"TOWNNAME":"北區","LI":"公園里","LIN":"6鄰","STREET":"成功路","SECT":" ","MAREA":" ","LANE":" ","ALLEY":" ","HOUSE_NO":"２號十一樓之３２","E_COORD97":169158.57999999999,"N_COORD97":2544255.9300000002,"ADDRESS":"成功路２號十一樓之３２","OBJECTID":526579},"geometry":{"x":169158.58000000007,"y":2544255.9300000016}},{"attributes":{"ID":526607,"DIS_CODE":0,"TOWNNAME":"北區","LI":"公園里","LIN":"6鄰","STREET":"成功路","SECT":" ","MAREA":" ","LANE":" ","ALLEY":" ","HOUSE_NO":"２號十一樓之３３","E_COORD97":169158.57999999999,"N_COORD97":2544255.9300000002,"ADDRESS":"成功路２號十一樓之３３","OBJECTID":526580},"geometry":{"x":169158.58000000007,"y":2544255.9300000016}},{"attributes":{"ID":526608,"DIS_CODE":0,"TOWNNAME":"北區","LI":"公園里","LIN":"6鄰","STREET":"成功路","SECT":" ","MAREA":" ","LANE":" ","ALLEY":" ","HOUSE_NO":"２號十一樓之３４","E_COORD97":169158.57999999999,"N_COORD97":2544255.9300000002,"ADDRESS":"成功路２號十一樓之３４","OBJECTID":526581},"geometry":{"x":169158.58000000007,"y":2544255.9300000016}},{"attributes":{"ID":526609,"DIS_CODE":0,"TOWNNAME":"北區","LI":"公園里","LIN":"6鄰","STREET":"成功路","SECT":" ","MAREA":" ","LANE":" ","ALLEY":" ","HOUSE_NO":"２號十一樓之３５","E_COORD97":169158.57999999999,"N_COORD97":2544255.9300000002,"ADDRESS":"成功路２號十一樓之３５","OBJECTID":526582},"geometry":{"x":169158.58000000007,"y":2544255.9300000016}},{"attributes":{"ID":526610,"DIS_CODE":0,"TOWNNAME":"北區","LI":"公園里","LIN":"6鄰","STREET":"成功路","SECT":" ","MAREA":" ","LANE":" ","ALLEY":" ","HOUSE_NO":"２號十一樓之３６","E_COORD97":169158.57999999999,"N_COORD97":2544255.9300000002,"ADDRESS":"成功路２號十一樓之３６","OBJECTID":526583},"geometry":{"x":169158.58000000007,"y":2544255.9300000016}},{"attributes":{"ID":526611,"DIS_CODE":0,"TOWNNAME":"北區","LI":"公園里","LIN":"6鄰","STREET":"成功路","SECT":" ","MAREA":" ","LANE":" ","ALLEY":" ","HOUSE_NO":"２號十一樓之３７","E_COORD97":169158.57999999999,"N_COORD97":2544255.9300000002,"ADDRESS":"成功路２號十一樓之３７","OBJECTID":526584},"geometry":{"x":169158.58000000007,"y":2544255.9300000016}},{"attributes":{"ID":526612,"DIS_CODE":0,"TOWNNAME":"北區","LI":"公園里","LIN":"6鄰","STREET":"成功路","SECT":" ","MAREA":" ","LANE":" ","ALLEY":" ","HOUSE_NO":"２號十一樓之３８","E_COORD97":169158.57999999999,"N_COORD97":2544255.9300000002,"ADDRESS":"成功路２號十一樓之３８","OBJECTID":526585},"geometry":{"x":169158.58000000007,"y":2544255.9300000016}},{"attributes":{"ID":526613,"DIS_CODE":0,"TOWNNAME":"北區","LI":"公園里","LIN":"6鄰","STREET":"成功路","SECT":" ","MAREA":" ","LANE":" ","ALLEY":" ","HOUSE_NO":"２號十一樓之３９","E_COORD97":169158.57999999999,"N_COORD97":2544255.9300000002,"ADDRESS":"成功路２號十一樓之３９","OBJECTID":526586},"geometry":{"x":169158.58000000007,"y":2544255.9300000016}},{"attributes":{"ID":526614,"DIS_CODE":0,"TOWNNAME":"北區","LI":"公園里","LIN":"6鄰","STREET":"成功路","SECT":" ","MAREA":" ","LANE":" ","ALLEY":" ","HOUSE_NO":"２號十一樓之４","E_COORD97":169158.57999999999,"N_COORD97":2544255.9300000002,"ADDRESS":"成功路２號十一樓之４","OBJECTID":526587},"geometry":{"x":169158.58000000007,"y":2544255.9300000016}},{"attributes":{"ID":526615,"DIS_CODE":0,"TOWNNAME":"北區","LI":"公園里","LIN":"6鄰","STREET":"成功路","SECT":" ","MAREA":" ","LANE":" ","ALLEY":" ","HOUSE_NO":"２號十一樓之４０","E_COORD97":169158.57999999999,"N_COORD97":2544255.9300000002,"ADDRESS":"成功路２號十一樓之４０","OBJECTID":526588},"geometry":{"x":169158.58000000007,"y":2544255.9300000016}},{"attributes":{"ID":526616,"DIS_CODE":0,"TOWNNAME":"北區","LI":"公園里","LIN":"6鄰","STREET":"成功路","SECT":" ","MAREA":" ","LANE":" ","ALLEY":" ","HOUSE_NO":"２號十一樓之４１","E_COORD97":169158.57999999999,"N_COORD97":2544255.9300000002,"ADDRESS":"成功路２號十一樓之４１","OBJECTID":526589},"geometry":{"x":169158.58000000007,"y":2544255.9300000016}},{"attributes":{"ID":526617,"DIS_CODE":0,"TOWNNAME":"北區","LI":"公園里","LIN":"6鄰","STREET":"成功路","SECT":" ","MAREA":" ","LANE":" ","ALLEY":" ","HOUSE_NO":"２號十一樓之４２","E_COORD97":169158.57999999999,"N_COORD97":2544255.9300000002,"ADDRESS":"成功路２號十一樓之４２","OBJECTID":526590},"geometry":{"x":169158.58000000007,"y":2544255.9300000016}},{"attributes":{"ID":526618,"DIS_CODE":0,"TOWNNAME":"北區","LI":"公園里","LIN":"6鄰","STREET":"成功路","SECT":" ","MAREA":" ","LANE":" ","ALLEY":" ","HOUSE_NO":"２號十一樓之４３","E_COORD97":169158.57999999999,"N_COORD97":2544255.9300000002,"ADDRESS":"成功路２號十一樓之４３","OBJECTID":526591},"geometry":{"x":169158.58000000007,"y":2544255.9300000016}},{"attributes":{"ID":526619,"DIS_CODE":0,"TOWNNAME":"北區","LI":"公園里","LIN":"6鄰","STREET":"成功路","SECT":" ","MAREA":" ","LANE":" ","ALLEY":" ","HOUSE_NO":"２號十一樓之４４","E_COORD97":169158.57999999999,"N_COORD97":2544255.9300000002,"ADDRESS":"成功路２號十一樓之４４","OBJECTID":526592},"geometry":{"x":169158.58000000007,"y":2544255.9300000016}},{"attributes":{"ID":526620,"DIS_CODE":0,"TOWNNAME":"北區","LI":"公園里","LIN":"6鄰","STREET":"成功路","SECT":" ","MAREA":" ","LANE":" ","ALLEY":" ","HOUSE_NO":"２號十一樓之４５","E_COORD97":169158.57999999999,"N_COORD97":2544255.9300000002,"ADDRESS":"成功路２號十一樓之４５","OBJECTID":526593},"geometry":{"x":169158.58000000007,"y":2544255.9300000016}},{"attributes":{"ID":526621,"DIS_CODE":0,"TOWNNAME":"北區","LI":"公園里","LIN":"6鄰","STREET":"成功路","SECT":" ","MAREA":" ","LANE":" ","ALLEY":" ","HOUSE_NO":"２號十一樓之４６","E_COORD97":169158.57999999999,"N_COORD97":2544255.9300000002,"ADDRESS":"成功路２號十一樓之４６","OBJECTID":526594},"geometry":{"x":169158.58000000007,"y":2544255.9300000016}},{"attributes":{"ID":526622,"DIS_CODE":0,"TOWNNAME":"北區","LI":"公園里","LIN":"6鄰","STREET":"成功路","SECT":" ","MAREA":" ","LANE":" ","ALLEY":" ","HOUSE_NO":"２號十一樓之４７","E_COORD97":169158.57999999999,"N_COORD97":2544255.9300000002,"ADDRESS":"成功路２號十一樓之４７","OBJECTID":526595},"geometry":{"x":169158.58000000007,"y":2544255.9300000016}},{"attributes":{"ID":526623,"DIS_CODE":0,"TOWNNAME":"北區","LI":"公園里","LIN":"6鄰","STREET":"成功路","SECT":" ","MAREA":" ","LANE":" ","ALLEY":" ","HOUSE_NO":"２號十一樓之４８","E_COORD97":169158.57999999999,"N_COORD97":2544255.9300000002,"ADDRESS":"成功路２號十一樓之４８","OBJECTID":526596},"geometry":{"x":169158.58000000007,"y":2544255.9300000016}},{"attributes":{"ID":526624,"DIS_CODE":0,"TOWNNAME":"北區","LI":"公園里","LIN":"6鄰","STREET":"成功路","SECT":" ","MAREA":" ","LANE":" ","ALLEY":" ","HOUSE_NO":"２號十一樓之４９","E_COORD97":169158.57999999999,"N_COORD97":2544255.9300000002,"ADDRESS":"成功路２號十一樓之４９","OBJECTID":526597},"geometry":{"x":169158.58000000007,"y":2544255.9300000016}},{"attributes":{"ID":526625,"DIS_CODE":0,"TOWNNAME":"北區","LI":"公園里","LIN":"6鄰","STREET":"成功路","SECT":" ","MAREA":" ","LANE":" ","ALLEY":" ","HOUSE_NO":"２號十一樓之５","E_COORD97":169158.57999999999,"N_COORD97":2544255.9300000002,"ADDRESS":"成功路２號十一樓之５","OBJECTID":526598},"geometry":{"x":169158.58000000007,"y":2544255.9300000016}},{"attributes":{"ID":526626,"DIS_CODE":0,"TOWNNAME":"北區","LI":"公園里","LIN":"6鄰","STREET":"成功路","SECT":" ","MAREA":" ","LANE":" ","ALLEY":" ","HOUSE_NO":"２號十一樓之５０","E_COORD97":169158.57999999999,"N_COORD97":2544255.9300000002,"ADDRESS":"成功路２號十一樓之５０","OBJECTID":526599},"geometry":{"x":169158.58000000007,"y":2544255.9300000016}},{"attributes":{"ID":526627,"DIS_CODE":0,"TOWNNAME":"北區","LI":"公園里","LIN":"6鄰","STREET":"成功路","SECT":" ","MAREA":" ","LANE":" ","ALLEY":" ","HOUSE_NO":"２號十一樓之５１","E_COORD97":169158.57999999999,"N_COORD97":2544255.9300000002,"ADDRESS":"成功路２號十一樓之５１","OBJECTID":526600},"geometry":{"x":169158.58000000007,"y":2544255.9300000016}}]}