{"displayFieldName":"TOWNNAME","fieldAliases":{"ID":"ID","DIS_CODE":"DIS_CODE","TOWNNAME":"TOWNNAME","LI":"LI","LIN":"LIN","STREET":"STREET","SECT":"SECT","MAREA":"MAREA","LANE":"LANE","ALLEY":"ALLEY","HOUSE_NO":"HOUSE_NO","E_COORD97":"E_COORD97","N_COORD97":"N_COORD97","ADDRESS":"ADDRESS","OBJECTID":"OBJECTID"},"geometryType":"esriGeometryPoint","spatialReference":{"wkid":102443,"latestWkid":3826},"fields":[{"name":"ID","type":"esriFieldTypeDouble","alias":"ID"},{"name":"DIS_CODE","type":"esriFieldTypeInteger","alias":"DIS_CODE"},{"name":"TOWNNAME","type":"esriFieldTypeString","alias":"TOWNNAME","length":8},{"name":"LI","type":"esriFieldTypeString","alias":"LI","length":8},{"name":"LIN","type":"esriFieldTypeString","alias":"LIN","length":12},{"name":"STREET","type":"esriFieldTypeString","alias":"STREET","length":20},{"name":"SECT","type":"esriFieldTypeString","alias":"SECT","length":8},{"name":"MAREA","type":"esriFieldTypeString","alias":"MAREA","length":12},{"name":"LANE","type":"esriFieldTypeString","alias":"LANE","length":10},{"name":"ALLEY","type":"esriFieldTypeString","alias":"ALLEY","length":10},{"name":"HOUSE_NO","type":"esriFieldTypeString","alias":"HOUSE_NO","length":20},{"name":"E_COORD97","type":"esriFieldTypeDouble","alias":"E_COORD97"},{"name":"N_COORD97","type":"esriFieldTypeDouble","alias":"N_COORD97"},{"name":"ADDRESS","type":"esriFieldTypeString","alias":"ADDRESS","length":50},{"name":"OBJECTID","type":"esriFieldTypeOID","alias":"OBJECTID"}],"features":[{"attributes":{"ID":373411,"DIS_CODE":0,"TOWNNAME":"中西區","LI":"普濟里","LIN":"10鄰","STREET":"國華街","SECT":"三段","MAREA":" ","LANE":"２５０巷","ALLEY":" ","HOUSE_NO":"４６號","E_COORD97":168010.23999999999,"N_COORD97":2544431.4700000002,"ADDRESS":"國華街三段２５０巷４６號","OBJECTID":373401},"geometry":{"x":168010.24000000209,"y":2544431.4700000007}},{"attributes":{"ID":373412,"DIS_CODE":0,"TOWNNAME":"中西區","LI":"普濟里","LIN":"10鄰","STREET":"國華街","SECT":"三段","MAREA":" ","LANE":"２５０巷","ALLEY":" ","HOUSE_NO":"４８號","E_COORD97":168015.48000000001,"N_COORD97":2544431.4700000002,"ADDRESS":"國華街三段２５０巷４８號","OBJECTID":373402},"geometry":{"x":168015.47999999952,"y":2544431.4700000007}},{"attributes":{"ID":373413,"DIS_CODE":0,"TOWNNAME":"中西區","LI":"普濟里","LIN":"10鄰","STREET":"國華街","SECT":"三段","MAREA":" ","LANE":"２５０巷","ALLEY":" ","HOUSE_NO":"５０號","E_COORD97":168022.45000000001,"N_COORD97":2544431.4700000002,"ADDRESS":"國華街三段２５０巷５０號","OBJECTID":373403},"geometry":{"x":168022.45000000112,"y":2544431.4700000007}},{"attributes":{"ID":373414,"DIS_CODE":0,"TOWNNAME":"中西區","LI":"西賢里","LIN":"10鄰","STREET":"西賢一街","SECT":" ","MAREA":" ","LANE":"１１８巷","ALLEY":" ","HOUSE_NO":"１號","E_COORD97":165731.12,"N_COORD97":2544698.5800000001,"ADDRESS":"西賢一街１１８巷１號","OBJECTID":373404},"geometry":{"x":165731.12000000104,"y":2544698.5800000038}},{"attributes":{"ID":373415,"DIS_CODE":0,"TOWNNAME":"中西區","LI":"西賢里","LIN":"10鄰","STREET":"西賢一街","SECT":" ","MAREA":" ","LANE":"１４８巷","ALLEY":" ","HOUSE_NO":"１０號","E_COORD97":165760.73999999999,"N_COORD97":2544710.7799999998,"ADDRESS":"西賢一街１４８巷１０號","OBJECTID":373405},"geometry":{"x":165760.74000000209,"y":2544710.7800000012}},{"attributes":{"ID":373416,"DIS_CODE":0,"TOWNNAME":"中西區","LI":"西賢里","LIN":"10鄰","STREET":"西賢一街","SECT":" ","MAREA":" ","LANE":"１４８巷","ALLEY":" ","HOUSE_NO":"１２號","E_COORD97":165762.26999999999,"N_COORD97":2544719.9300000002,"ADDRESS":"西賢一街１４８巷１２號","OBJECTID":373406},"geometry":{"x":165762.27000000048,"y":2544719.9300000016}},{"attributes":{"ID":373417,"DIS_CODE":0,"TOWNNAME":"新市區","LI":"新市里","LIN":"10鄰","STREET":"中正路","SECT":" ","MAREA":" ","LANE":"４００巷","ALLEY":" ","HOUSE_NO":"１０號","E_COORD97":177731.79000000001,"N_COORD97":2553229.25,"ADDRESS":"中正路４００巷１０號","OBJECTID":373407},"geometry":{"x":177731.79000000097,"y":2553229.25}},{"attributes":{"ID":373418,"DIS_CODE":0,"TOWNNAME":"東區","LI":"仁和里","LIN":"10鄰","STREET":"仁和路","SECT":" ","MAREA":" ","LANE":"１３９巷","ALLEY":" ","HOUSE_NO":"１１號之２","E_COORD97":171594.48000000001,"N_COORD97":2541129.4399999999,"ADDRESS":"仁和路１３９巷１１號之２","OBJECTID":373408},"geometry":{"x":171594.48000000138,"y":2541129.4400000013}},{"attributes":{"ID":373419,"DIS_CODE":0,"TOWNNAME":"東區","LI":"大智里","LIN":"10鄰","STREET":"德東街","SECT":" ","MAREA":" ","LANE":"１５１巷","ALLEY":" ","HOUSE_NO":"１０號","E_COORD97":171213.23999999999,"N_COORD97":2540301.6200000001,"ADDRESS":"德東街１５１巷１０號","OBJECTID":373409},"geometry":{"x":171213.24000000115,"y":2540301.620000001}},{"attributes":{"ID":373420,"DIS_CODE":0,"TOWNNAME":"東區","LI":"大智里","LIN":"10鄰","STREET":"德東街","SECT":" ","MAREA":" ","LANE":"１５１巷","ALLEY":" ","HOUSE_NO":"１２號","E_COORD97":171213.03,"N_COORD97":2540305.6000000001,"ADDRESS":"德東街１５１巷１２號","OBJECTID":373410},"geometry":{"x":171213.03000000026,"y":2540305.6000000015}},{"attributes":{"ID":373421,"DIS_CODE":0,"TOWNNAME":"東區","LI":"大智里","LIN":"10鄰","STREET":"德東街","SECT":" ","MAREA":" ","LANE":"１５１巷","ALLEY":" ","HOUSE_NO":"１４號","E_COORD97":171212.72,"N_COORD97":2540309.6899999999,"ADDRESS":"德東街１５１巷１４號","OBJECTID":373411},"geometry":{"x":171212.72000000067,"y":2540309.6899999976}},{"attributes":{"ID":373422,"DIS_CODE":0,"TOWNNAME":"東區","LI":"大智里","LIN":"10鄰","STREET":"德東街","SECT":" ","MAREA":" ","LANE":"１５１巷","ALLEY":" ","HOUSE_NO":"１６號","E_COORD97":171212.72,"N_COORD97":2540313.98,"ADDRESS":"德東街１５１巷１６號","OBJECTID":373412},"geometry":{"x":171212.72000000067,"y":2540313.9800000023}},{"attributes":{"ID":373423,"DIS_CODE":0,"TOWNNAME":"東區","LI":"大智里","LIN":"10鄰","STREET":"德東街","SECT":" ","MAREA":" ","LANE":"１５１巷","ALLEY":" ","HOUSE_NO":"１８號","E_COORD97":171212.39000000001,"N_COORD97":2540318.3900000001,"ADDRESS":"德東街１５１巷１８號","OBJECTID":373413},"geometry":{"x":171212.38999999873,"y":2540318.3900000006}},{"attributes":{"ID":373424,"DIS_CODE":0,"TOWNNAME":"東區","LI":"大智里","LIN":"10鄰","STREET":"德東街","SECT":" ","MAREA":" ","LANE":"１５１巷","ALLEY":" ","HOUSE_NO":"２０號","E_COORD97":171212.54000000001,"N_COORD97":2540322.7200000002,"ADDRESS":"德東街１５１巷２０號","OBJECTID":373414},"geometry":{"x":171212.54000000097,"y":2540322.7200000025}},{"attributes":{"ID":373425,"DIS_CODE":0,"TOWNNAME":"東區","LI":"大智里","LIN":"10鄰","STREET":"德東街","SECT":" ","MAREA":" ","LANE":"１５１巷","ALLEY":" ","HOUSE_NO":"２２號","E_COORD97":171212.39000000001,"N_COORD97":2540326.8300000001,"ADDRESS":"德東街１５１巷２２號","OBJECTID":373415},"geometry":{"x":171212.38999999873,"y":2540326.8300000038}},{"attributes":{"ID":373426,"DIS_CODE":0,"TOWNNAME":"東區","LI":"大智里","LIN":"10鄰","STREET":"德東街","SECT":" ","MAREA":" ","LANE":"１５１巷","ALLEY":" ","HOUSE_NO":"２４號","E_COORD97":171212.69,"N_COORD97":2540330.79,"ADDRESS":"德東街１５１巷２４號","OBJECTID":373416},"geometry":{"x":171212.69000000041,"y":2540330.790000001}},{"attributes":{"ID":373427,"DIS_CODE":0,"TOWNNAME":"東區","LI":"大智里","LIN":"10鄰","STREET":"德東街","SECT":" ","MAREA":" ","LANE":"１５１巷","ALLEY":" ","HOUSE_NO":"２６號","E_COORD97":171212.23999999999,"N_COORD97":2540334.9700000002,"ADDRESS":"德東街１５１巷２６號","OBJECTID":373417},"geometry":{"x":171212.24000000022,"y":2540334.9700000007}},{"attributes":{"ID":373428,"DIS_CODE":0,"TOWNNAME":"東區","LI":"大智里","LIN":"10鄰","STREET":"德東街","SECT":" ","MAREA":" ","LANE":"１５１巷","ALLEY":" ","HOUSE_NO":"２號","E_COORD97":171212.82000000001,"N_COORD97":2540284.3399999999,"ADDRESS":"德東街１５１巷２號","OBJECTID":373418},"geometry":{"x":171212.8200000003,"y":2540284.3399999999}},{"attributes":{"ID":373429,"DIS_CODE":0,"TOWNNAME":"東區","LI":"大智里","LIN":"10鄰","STREET":"德東街","SECT":" ","MAREA":" ","LANE":"１５１巷","ALLEY":" ","HOUSE_NO":"４號","E_COORD97":171212.72,"N_COORD97":2540288.5299999998,"ADDRESS":"德東街１５１巷４號","OBJECTID":373419},"geometry":{"x":171212.72000000067,"y":2540288.5300000012}},{"attributes":{"ID":373430,"DIS_CODE":0,"TOWNNAME":"東區","LI":"大智里","LIN":"10鄰","STREET":"德東街","SECT":" ","MAREA":" ","LANE":"１５１巷","ALLEY":" ","HOUSE_NO":"６號","E_COORD97":171212.82000000001,"N_COORD97":2540292.6200000001,"ADDRESS":"德東街１５１巷６號","OBJECTID":373420},"geometry":{"x":171212.8200000003,"y":2540292.6200000029}},{"attributes":{"ID":373431,"DIS_CODE":0,"TOWNNAME":"東區","LI":"大智里","LIN":"10鄰","STREET":"德東街","SECT":" ","MAREA":" ","LANE":"１５１巷","ALLEY":" ","HOUSE_NO":"８號","E_COORD97":171212.82000000001,"N_COORD97":2540297.2200000002,"ADDRESS":"德東街１５１巷８號","OBJECTID":373421},"geometry":{"x":171212.8200000003,"y":2540297.2199999988}},{"attributes":{"ID":373432,"DIS_CODE":0,"TOWNNAME":"東區","LI":"崇善里","LIN":"10鄰","STREET":"崇善八街","SECT":" ","MAREA":" ","LANE":"６９巷","ALLEY":" ","HOUSE_NO":"１７號","E_COORD97":171186.20999999999,"N_COORD97":2541455.1400000001,"ADDRESS":"崇善八街６９巷１７號","OBJECTID":373422},"geometry":{"x":171186.20999999996,"y":2541455.1400000025}},{"attributes":{"ID":373433,"DIS_CODE":0,"TOWNNAME":"東區","LI":"崇善里","LIN":"10鄰","STREET":"崇善八街","SECT":" ","MAREA":" ","LANE":"６９巷","ALLEY":" ","HOUSE_NO":"１８號","E_COORD97":171191.84,"N_COORD97":2541478.8799999999,"ADDRESS":"崇善八街６９巷１８號","OBJECTID":373423},"geometry":{"x":171191.83999999985,"y":2541478.8800000008}},{"attributes":{"ID":373434,"DIS_CODE":0,"TOWNNAME":"東區","LI":"崇善里","LIN":"10鄰","STREET":"崇善八街","SECT":" ","MAREA":" ","LANE":"６９巷","ALLEY":" ","HOUSE_NO":"２號","E_COORD97":171229.25,"N_COORD97":2541480.0699999998,"ADDRESS":"崇善八街６９巷２號","OBJECTID":373424},"geometry":{"x":171229.25000000093,"y":2541480.0700000003}},{"attributes":{"ID":373435,"DIS_CODE":0,"TOWNNAME":"東區","LI":"崇善里","LIN":"10鄰","STREET":"崇善八街","SECT":" ","MAREA":" ","LANE":"６９巷","ALLEY":" ","HOUSE_NO":"３號","E_COORD97":171211.22,"N_COORD97":2541469.8199999998,"ADDRESS":"崇善八街６９巷３號","OBJECTID":373425},"geometry":{"x":171211.21999999974,"y":2541469.8200000022}},{"attributes":{"ID":373436,"DIS_CODE":0,"TOWNNAME":"東區","LI":"崇善里","LIN":"10鄰","STREET":"崇善八街","SECT":" ","MAREA":" ","LANE":"６９巷","ALLEY":" ","HOUSE_NO":"４號","E_COORD97":171226.03,"N_COORD97":2541482.5699999998,"ADDRESS":"崇善八街６９巷４號","OBJECTID":373426},"geometry":{"x":171226.03000000119,"y":2541482.5700000022}},{"attributes":{"ID":373437,"DIS_CODE":0,"TOWNNAME":"東區","LI":"崇善里","LIN":"10鄰","STREET":"崇善八街","SECT":" ","MAREA":" ","LANE":"６９巷","ALLEY":" ","HOUSE_NO":"５號","E_COORD97":171207.78,"N_COORD97":2541466.7000000002,"ADDRESS":"崇善八街６９巷５號","OBJECTID":373427},"geometry":{"x":171207.78000000119,"y":2541466.7000000011}},{"attributes":{"ID":373438,"DIS_CODE":0,"TOWNNAME":"東區","LI":"崇善里","LIN":"10鄰","STREET":"崇善八街","SECT":" ","MAREA":" ","LANE":"６９巷","ALLEY":" ","HOUSE_NO":"６號","E_COORD97":171223.53,"N_COORD97":2541485.8900000001,"ADDRESS":"崇善八街６９巷６號","OBJECTID":373428},"geometry":{"x":171223.53000000026,"y":2541485.8900000006}},{"attributes":{"ID":373439,"DIS_CODE":0,"TOWNNAME":"東區","LI":"崇善里","LIN":"10鄰","STREET":"崇善八街","SECT":" ","MAREA":" ","LANE":"６９巷","ALLEY":" ","HOUSE_NO":"７號","E_COORD97":171204.03,"N_COORD97":2541465.4500000002,"ADDRESS":"崇善八街６９巷７號","OBJECTID":373429},"geometry":{"x":171204.03000000119,"y":2541465.4500000011}},{"attributes":{"ID":373440,"DIS_CODE":0,"TOWNNAME":"東區","LI":"東聖里","LIN":"10鄰","STREET":"中華東路","SECT":"二段","MAREA":" ","LANE":"１３３巷","ALLEY":" ","HOUSE_NO":"７９號","E_COORD97":171599.98000000001,"N_COORD97":2542824.1299999999,"ADDRESS":"中華東路二段１３３巷７９號","OBJECTID":373430},"geometry":{"x":171599.98000000138,"y":2542824.129999999}},{"attributes":{"ID":373441,"DIS_CODE":0,"TOWNNAME":"東區","LI":"東聖里","LIN":"10鄰","STREET":"中華東路","SECT":"二段","MAREA":" ","LANE":"１３３巷","ALLEY":" ","HOUSE_NO":"８１號","E_COORD97":171606.23999999999,"N_COORD97":2542822.4900000002,"ADDRESS":"中華東路二段１３３巷８１號","OBJECTID":373431},"geometry":{"x":171606.24000000115,"y":2542822.4900000021}},{"attributes":{"ID":373442,"DIS_CODE":0,"TOWNNAME":"永康區","LI":"大灣里","LIN":"10鄰","STREET":"大灣路","SECT":" ","MAREA":" ","LANE":"２１８巷","ALLEY":" ","HOUSE_NO":"１１號","E_COORD97":174976.57000000001,"N_COORD97":2545467.27,"ADDRESS":"大灣路２１８巷１１號","OBJECTID":373432},"geometry":{"x":174976.5700000003,"y":2545467.2700000014}},{"attributes":{"ID":373443,"DIS_CODE":0,"TOWNNAME":"永康區","LI":"二王里","LIN":"10鄰","STREET":"二王路","SECT":" ","MAREA":" ","LANE":"１５５巷","ALLEY":" ","HOUSE_NO":"５０號","E_COORD97":173055.67999999999,"N_COORD97":2546466.3300000001,"ADDRESS":"二王路１５５巷５０號","OBJECTID":373433},"geometry":{"x":173055.68000000063,"y":2546466.3299999982}},{"attributes":{"ID":373444,"DIS_CODE":0,"TOWNNAME":"永康區","LI":"大灣里","LIN":"10鄰","STREET":"大灣路","SECT":" ","MAREA":" ","LANE":"２１８巷","ALLEY":" ","HOUSE_NO":"１９號","E_COORD97":174901.06,"N_COORD97":2545504.8700000001,"ADDRESS":"大灣路２１８巷１９號","OBJECTID":373434},"geometry":{"x":174901.05999999959,"y":2545504.8700000029}},{"attributes":{"ID":373445,"DIS_CODE":0,"TOWNNAME":"永康區","LI":"大灣里","LIN":"10鄰","STREET":"大灣路","SECT":" ","MAREA":" ","LANE":"２１８巷","ALLEY":" ","HOUSE_NO":"６號之１","E_COORD97":175016.20999999999,"N_COORD97":2545482.6099999999,"ADDRESS":"大灣路２１８巷６號之１","OBJECTID":373435},"geometry":{"x":175016.20999999903,"y":2545482.6099999994}},{"attributes":{"ID":373446,"DIS_CODE":0,"TOWNNAME":"永康區","LI":"大灣里","LIN":"10鄰","STREET":"大灣路","SECT":" ","MAREA":" ","LANE":"２１８巷","ALLEY":" ","HOUSE_NO":"１５號","E_COORD97":174925.23999999999,"N_COORD97":2545476.3500000001,"ADDRESS":"大灣路２１８巷１５號","OBJECTID":373436},"geometry":{"x":174925.24000000115,"y":2545476.3500000015}},{"attributes":{"ID":373447,"DIS_CODE":0,"TOWNNAME":"永康區","LI":"大橋里","LIN":"10鄰","STREET":"大橋二街","SECT":" ","MAREA":" ","LANE":"２３９巷","ALLEY":" ","HOUSE_NO":"３５號","E_COORD97":171060.54999999999,"N_COORD97":2546867.8599999999,"ADDRESS":"大橋二街２３９巷３５號","OBJECTID":373437},"geometry":{"x":171060.54999999888,"y":2546867.8599999994}},{"attributes":{"ID":373448,"DIS_CODE":0,"TOWNNAME":"永康區","LI":"王行里","LIN":"10鄰","STREET":"王行路","SECT":" ","MAREA":" ","LANE":"１０１８巷","ALLEY":" ","HOUSE_NO":"２８號","E_COORD97":175843.09,"N_COORD97":2550224.4900000002,"ADDRESS":"王行路１０１８巷２８號","OBJECTID":373438},"geometry":{"x":175843.09000000078,"y":2550224.4900000002}},{"attributes":{"ID":373449,"DIS_CODE":0,"TOWNNAME":"永康區","LI":"王行里","LIN":"10鄰","STREET":"王行路","SECT":" ","MAREA":" ","LANE":"１０１８巷","ALLEY":" ","HOUSE_NO":"１８號","E_COORD97":175857.14999999999,"N_COORD97":2550174.73,"ADDRESS":"王行路１０１８巷１８號","OBJECTID":373439},"geometry":{"x":175857.15000000037,"y":2550174.7300000023}},{"attributes":{"ID":373450,"DIS_CODE":0,"TOWNNAME":"永康區","LI":"王行里","LIN":"10鄰","STREET":"王行路","SECT":" ","MAREA":" ","LANE":"１０１８巷","ALLEY":" ","HOUSE_NO":"４６號","E_COORD97":175803.47,"N_COORD97":2550213.7400000002,"ADDRESS":"王行路１０１８巷４６號","OBJECTID":373440},"geometry":{"x":175803.46999999974,"y":2550213.7400000039}},{"attributes":{"ID":373451,"DIS_CODE":0,"TOWNNAME":"永康區","LI":"王行里","LIN":"10鄰","STREET":"王行路","SECT":" ","MAREA":" ","LANE":"１０１８巷","ALLEY":" ","HOUSE_NO":"３０號","E_COORD97":175837.04000000001,"N_COORD97":2550215.7400000002,"ADDRESS":"王行路１０１８巷３０號","OBJECTID":373441},"geometry":{"x":175837.04000000097,"y":2550215.7400000002}},{"attributes":{"ID":373452,"DIS_CODE":0,"TOWNNAME":"永康區","LI":"王行里","LIN":"10鄰","STREET":"王行路","SECT":" ","MAREA":" ","LANE":"８９８巷","ALLEY":" ","HOUSE_NO":"１２３號","E_COORD97":175917.59,"N_COORD97":2550206.2400000002,"ADDRESS":"王行路８９８巷１２３號","OBJECTID":373442},"geometry":{"x":175917.59000000078,"y":2550206.2400000002}},{"attributes":{"ID":373453,"DIS_CODE":0,"TOWNNAME":"永康區","LI":"王行里","LIN":"10鄰","STREET":"王行路","SECT":" ","MAREA":" ","LANE":"８９８巷","ALLEY":" ","HOUSE_NO":"１０５號","E_COORD97":175897.79999999999,"N_COORD97":2550158.5,"ADDRESS":"王行路８９８巷１０５號","OBJECTID":373443},"geometry":{"x":175897.80000000075,"y":2550158.5000000019}},{"attributes":{"ID":373454,"DIS_CODE":0,"TOWNNAME":"永康區","LI":"王行里","LIN":"10鄰","STREET":"王行路","SECT":" ","MAREA":" ","LANE":"１０１８巷","ALLEY":" ","HOUSE_NO":"４４號","E_COORD97":175806.98000000001,"N_COORD97":2550214.2400000002,"ADDRESS":"王行路１０１８巷４４號","OBJECTID":373444},"geometry":{"x":175806.98000000138,"y":2550214.2400000021}},{"attributes":{"ID":373455,"DIS_CODE":0,"TOWNNAME":"永康區","LI":"王行里","LIN":"10鄰","STREET":"王行路","SECT":" ","MAREA":" ","LANE":"１０１８巷","ALLEY":" ","HOUSE_NO":"６號","E_COORD97":175853.14999999999,"N_COORD97":2550138.75,"ADDRESS":"王行路１０１８巷６號","OBJECTID":373445},"geometry":{"x":175853.1500000013,"y":2550138.7500000037}},{"attributes":{"ID":373456,"DIS_CODE":0,"TOWNNAME":"永康區","LI":"勝利里","LIN":"10鄰","STREET":"勝利街","SECT":" ","MAREA":" ","LANE":"２２巷","ALLEY":" ","HOUSE_NO":"５２號","E_COORD97":171279.57999999999,"N_COORD97":2544698.5,"ADDRESS":"勝利街２２巷５２號","OBJECTID":373446},"geometry":{"x":171279.58000000101,"y":2544698.5}},{"attributes":{"ID":373457,"DIS_CODE":0,"TOWNNAME":"永康區","LI":"復國里","LIN":"10鄰","STREET":"復國二路","SECT":" ","MAREA":" ","LANE":"８７巷","ALLEY":" ","HOUSE_NO":"１２號","E_COORD97":172823.67000000001,"N_COORD97":2545387.4300000002,"ADDRESS":"復國二路８７巷１２號","OBJECTID":373447},"geometry":{"x":172823.67000000086,"y":2545387.4300000034}},{"attributes":{"ID":373458,"DIS_CODE":0,"TOWNNAME":"永康區","LI":"復國里","LIN":"10鄰","STREET":"復國二路","SECT":" ","MAREA":" ","LANE":"８７巷","ALLEY":" ","HOUSE_NO":"１７號","E_COORD97":172804.73000000001,"N_COORD97":2545372.0299999998,"ADDRESS":"復國二路８７巷１７號","OBJECTID":373448},"geometry":{"x":172804.73000000138,"y":2545372.0299999993}},{"attributes":{"ID":373459,"DIS_CODE":0,"TOWNNAME":"永康區","LI":"復國里","LIN":"10鄰","STREET":"復國二路","SECT":" ","MAREA":" ","LANE":"８７巷","ALLEY":" ","HOUSE_NO":"１１號","E_COORD97":172822.12,"N_COORD97":2545370.7799999998,"ADDRESS":"復國二路８７巷１１號","OBJECTID":373449},"geometry":{"x":172822.12000000104,"y":2545370.7799999975}},{"attributes":{"ID":373460,"DIS_CODE":0,"TOWNNAME":"永康區","LI":"復國里","LIN":"10鄰","STREET":"復國二路","SECT":" ","MAREA":" ","LANE":"８７巷","ALLEY":" ","HOUSE_NO":"１９號","E_COORD97":172799.76999999999,"N_COORD97":2545372.2799999998,"ADDRESS":"復國二路８７巷１９號","OBJECTID":373450},"geometry":{"x":172799.76999999862,"y":2545372.2800000012}},{"attributes":{"ID":373461,"DIS_CODE":0,"TOWNNAME":"永康區","LI":"復國里","LIN":"10鄰","STREET":"復國二路","SECT":" ","MAREA":" ","LANE":"８７巷","ALLEY":" ","HOUSE_NO":"５號","E_COORD97":172838.28,"N_COORD97":2545369.7799999998,"ADDRESS":"復國二路８７巷５號","OBJECTID":373451},"geometry":{"x":172838.28000000119,"y":2545369.7799999993}},{"attributes":{"ID":373462,"DIS_CODE":0,"TOWNNAME":"永康區","LI":"復國里","LIN":"10鄰","STREET":"復國二路","SECT":" ","MAREA":" ","LANE":"７９巷","ALLEY":" ","HOUSE_NO":"５號","E_COORD97":172813.73999999999,"N_COORD97":2545263.5699999998,"ADDRESS":"復國二路７９巷５號","OBJECTID":373452},"geometry":{"x":172813.74000000022,"y":2545263.5700000003}},{"attributes":{"ID":373463,"DIS_CODE":0,"TOWNNAME":"安南區","LI":"安富里","LIN":"10鄰","STREET":"安富街","SECT":" ","MAREA":" ","LANE":"２５１巷","ALLEY":" ","HOUSE_NO":"１號","E_COORD97":167543.53,"N_COORD97":2547435.4100000001,"ADDRESS":"安富街２５１巷１號","OBJECTID":373453},"geometry":{"x":167543.53000000026,"y":2547435.4100000001}},{"attributes":{"ID":373464,"DIS_CODE":0,"TOWNNAME":"安南區","LI":"安富里","LIN":"10鄰","STREET":"安富街","SECT":" ","MAREA":" ","LANE":"２５１巷","ALLEY":" ","HOUSE_NO":"３號","E_COORD97":167545.85999999999,"N_COORD97":2547431.4100000001,"ADDRESS":"安富街２５１巷３號","OBJECTID":373454},"geometry":{"x":167545.86000000034,"y":2547431.4100000001}},{"attributes":{"ID":373465,"DIS_CODE":0,"TOWNNAME":"安南區","LI":"安富里","LIN":"10鄰","STREET":"安富街","SECT":" ","MAREA":" ","LANE":"２５１巷","ALLEY":" ","HOUSE_NO":"５號","E_COORD97":167546.85999999999,"N_COORD97":2547426.4199999999,"ADDRESS":"安富街２５１巷５號","OBJECTID":373455},"geometry":{"x":167546.86000000127,"y":2547426.4200000018}},{"attributes":{"ID":373466,"DIS_CODE":0,"TOWNNAME":"安南區","LI":"安富里","LIN":"10鄰","STREET":"安富街","SECT":" ","MAREA":" ","LANE":"２５１巷","ALLEY":" ","HOUSE_NO":"７號","E_COORD97":167547.19,"N_COORD97":2547422.4300000002,"ADDRESS":"安富街２５１巷７號","OBJECTID":373456},"geometry":{"x":167547.19000000041,"y":2547422.4300000016}},{"attributes":{"ID":373467,"DIS_CODE":0,"TOWNNAME":"安南區","LI":"新順里","LIN":"10鄰","STREET":"安和路","SECT":"二段","MAREA":" ","LANE":"３００巷","ALLEY":" ","HOUSE_NO":"３號","E_COORD97":169745.82999999999,"N_COORD97":2549251.8500000001,"ADDRESS":"安和路二段３００巷３號","OBJECTID":373457},"geometry":{"x":169745.83000000101,"y":2549251.8499999996}},{"attributes":{"ID":373468,"DIS_CODE":0,"TOWNNAME":"安南區","LI":"梅花里","LIN":"10鄰","STREET":"安中路","SECT":"一段","MAREA":" ","LANE":"７０１巷","ALLEY":" ","HOUSE_NO":"３０號之１","E_COORD97":167519.23000000001,"N_COORD97":2549158.1400000001,"ADDRESS":"安中路一段７０１巷３０號之１","OBJECTID":373458},"geometry":{"x":167519.23000000138,"y":2549158.1400000025}},{"attributes":{"ID":373469,"DIS_CODE":0,"TOWNNAME":"安南區","LI":"鳳凰里","LIN":"10鄰","STREET":"安中路","SECT":"一段","MAREA":" ","LANE":"７００巷","ALLEY":" ","HOUSE_NO":"５６號之１","E_COORD97":167825.41,"N_COORD97":2549246.1200000001,"ADDRESS":"安中路一段７００巷５６號之１","OBJECTID":373459},"geometry":{"x":167825.41000000015,"y":2549246.1200000029}},{"attributes":{"ID":373470,"DIS_CODE":0,"TOWNNAME":"安南區","LI":"鳳凰里","LIN":"10鄰","STREET":"安中路","SECT":"一段","MAREA":" ","LANE":"７００巷","ALLEY":" ","HOUSE_NO":"５２號之１","E_COORD97":167811.20000000001,"N_COORD97":2549247.0099999998,"ADDRESS":"安中路一段７００巷５２號之１","OBJECTID":373460},"geometry":{"x":167811.20000000112,"y":2549247.0099999998}},{"attributes":{"ID":373471,"DIS_CODE":0,"TOWNNAME":"安南區","LI":"鳳凰里","LIN":"10鄰","STREET":"安中路","SECT":"一段","MAREA":" ","LANE":"７００巷","ALLEY":" ","HOUSE_NO":"５４號之１","E_COORD97":167817.82000000001,"N_COORD97":2549246.79,"ADDRESS":"安中路一段７００巷５４號之１","OBJECTID":373461},"geometry":{"x":167817.8200000003,"y":2549246.790000001}},{"attributes":{"ID":373472,"DIS_CODE":0,"TOWNNAME":"安南區","LI":"鳳凰里","LIN":"10鄰","STREET":"安中路","SECT":"一段","MAREA":" ","LANE":"７００巷","ALLEY":" ","HOUSE_NO":"５８號","E_COORD97":167833.22,"N_COORD97":2549245.8999999999,"ADDRESS":"安中路一段７００巷５８號","OBJECTID":373462},"geometry":{"x":167833.21999999974,"y":2549245.9000000004}},{"attributes":{"ID":373473,"DIS_CODE":0,"TOWNNAME":"安南區","LI":"鳳凰里","LIN":"10鄰","STREET":"安中路","SECT":"一段","MAREA":" ","LANE":"７００巷","ALLEY":" ","HOUSE_NO":"６２號","E_COORD97":167847.73000000001,"N_COORD97":2549244.7799999998,"ADDRESS":"安中路一段７００巷６２號","OBJECTID":373463},"geometry":{"x":167847.73000000231,"y":2549244.7799999993}},{"attributes":{"ID":373474,"DIS_CODE":0,"TOWNNAME":"安南區","LI":"鳳凰里","LIN":"10鄰","STREET":"安中路","SECT":"一段","MAREA":" ","LANE":"７００巷","ALLEY":" ","HOUSE_NO":"６３號","E_COORD97":167813.56,"N_COORD97":2549284.8900000001,"ADDRESS":"安中路一段７００巷６３號","OBJECTID":373464},"geometry":{"x":167813.55999999959,"y":2549284.8900000025}},{"attributes":{"ID":373475,"DIS_CODE":0,"TOWNNAME":"安南區","LI":"鳳凰里","LIN":"10鄰","STREET":"安中路","SECT":"一段","MAREA":" ","LANE":"７００巷","ALLEY":" ","HOUSE_NO":"６５號之１","E_COORD97":167818.26999999999,"N_COORD97":2549284.2999999998,"ADDRESS":"安中路一段７００巷６５號之１","OBJECTID":373465},"geometry":{"x":167818.27000000048,"y":2549284.3000000007}},{"attributes":{"ID":373476,"DIS_CODE":0,"TOWNNAME":"安南區","LI":"鳳凰里","LIN":"10鄰","STREET":"安中路","SECT":"一段","MAREA":" ","LANE":"７００巷","ALLEY":" ","HOUSE_NO":"６７號之１","E_COORD97":167827.57000000001,"N_COORD97":2549283.2400000002,"ADDRESS":"安中路一段７００巷６７號之１","OBJECTID":373466},"geometry":{"x":167827.5700000003,"y":2549283.2400000002}},{"attributes":{"ID":373477,"DIS_CODE":0,"TOWNNAME":"安南區","LI":"鳳凰里","LIN":"10鄰","STREET":"安中路","SECT":"一段","MAREA":" ","LANE":"７００巷","ALLEY":" ","HOUSE_NO":"６９號之２","E_COORD97":167836.41,"N_COORD97":2549282.77,"ADDRESS":"安中路一段７００巷６９號之２","OBJECTID":373467},"geometry":{"x":167836.41000000108,"y":2549282.7699999996}},{"attributes":{"ID":373478,"DIS_CODE":0,"TOWNNAME":"安南區","LI":"鳳凰里","LIN":"10鄰","STREET":"安中路","SECT":"一段","MAREA":" ","LANE":"７００巷","ALLEY":" ","HOUSE_NO":"７１號","E_COORD97":167843.35999999999,"N_COORD97":2549281.8300000001,"ADDRESS":"安中路一段７００巷７１號","OBJECTID":373468},"geometry":{"x":167843.3600000022,"y":2549281.8300000019}},{"attributes":{"ID":373479,"DIS_CODE":0,"TOWNNAME":"安南區","LI":"鳳凰里","LIN":"10鄰","STREET":"安中路","SECT":"一段","MAREA":" ","LANE":"７００巷","ALLEY":" ","HOUSE_NO":"７３號","E_COORD97":167850.29999999999,"N_COORD97":2549282.0600000001,"ADDRESS":"安中路一段７００巷７３號","OBJECTID":373469},"geometry":{"x":167850.30000000075,"y":2549282.0600000005}},{"attributes":{"ID":373480,"DIS_CODE":0,"TOWNNAME":"安南區","LI":"梅花里","LIN":"10鄰","STREET":"安中路","SECT":"一段","MAREA":" ","LANE":"７０１巷","ALLEY":" ","HOUSE_NO":"２４號","E_COORD97":167534.54000000001,"N_COORD97":2549173.4500000002,"ADDRESS":"安中路一段７０１巷２４號","OBJECTID":373470},"geometry":{"x":167534.54000000004,"y":2549173.4499999993}},{"attributes":{"ID":373481,"DIS_CODE":0,"TOWNNAME":"安南區","LI":"梅花里","LIN":"10鄰","STREET":"安中路","SECT":"一段","MAREA":" ","LANE":"７０１巷","ALLEY":" ","HOUSE_NO":"２６號","E_COORD97":167529.85999999999,"N_COORD97":2549168.5600000001,"ADDRESS":"安中路一段７０１巷２６號","OBJECTID":373471},"geometry":{"x":167529.8600000022,"y":2549168.5600000024}},{"attributes":{"ID":373482,"DIS_CODE":0,"TOWNNAME":"安南區","LI":"梅花里","LIN":"10鄰","STREET":"安中路","SECT":"一段","MAREA":" ","LANE":"７０１巷","ALLEY":" ","HOUSE_NO":"２８號","E_COORD97":167524.32999999999,"N_COORD97":2549163.2400000002,"ADDRESS":"安中路一段７０１巷２８號","OBJECTID":373472},"geometry":{"x":167524.33000000007,"y":2549163.2400000021}},{"attributes":{"ID":373483,"DIS_CODE":0,"TOWNNAME":"安南區","LI":"梅花里","LIN":"10鄰","STREET":"安中路","SECT":"一段","MAREA":" ","LANE":"７０１巷","ALLEY":" ","HOUSE_NO":"３４號之１","E_COORD97":167507.10000000001,"N_COORD97":2549146.8700000001,"ADDRESS":"安中路一段７０１巷３４號之１","OBJECTID":373473},"geometry":{"x":167507.10000000149,"y":2549146.8700000029}},{"attributes":{"ID":373484,"DIS_CODE":0,"TOWNNAME":"安南區","LI":"梅花里","LIN":"10鄰","STREET":"安中路","SECT":"一段","MAREA":" ","LANE":"７０１巷","ALLEY":" ","HOUSE_NO":"３６號","E_COORD97":167499.87,"N_COORD97":2549141.5600000001,"ADDRESS":"安中路一段７０１巷３６號","OBJECTID":373474},"geometry":{"x":167499.87000000011,"y":2549141.5600000024}},{"attributes":{"ID":373485,"DIS_CODE":0,"TOWNNAME":"安南區","LI":"梅花里","LIN":"10鄰","STREET":"安中路","SECT":"一段","MAREA":" ","LANE":"７０１巷","ALLEY":" ","HOUSE_NO":"３８號","E_COORD97":167491.78,"N_COORD97":2549136.2400000002,"ADDRESS":"安中路一段７０１巷３８號","OBJECTID":373475},"geometry":{"x":167491.78000000119,"y":2549136.2400000021}},{"attributes":{"ID":373486,"DIS_CODE":0,"TOWNNAME":"安南區","LI":"梅花里","LIN":"10鄰","STREET":"安中路","SECT":"一段","MAREA":" ","LANE":"７０１巷","ALLEY":" ","HOUSE_NO":"４２號之１","E_COORD97":167476.67000000001,"N_COORD97":2549129.4700000002,"ADDRESS":"安中路一段７０１巷４２號之１","OBJECTID":373476},"geometry":{"x":167476.67000000086,"y":2549129.4700000007}},{"attributes":{"ID":373487,"DIS_CODE":0,"TOWNNAME":"安南區","LI":"梅花里","LIN":"10鄰","STREET":"安中路","SECT":"一段","MAREA":" ","LANE":"７０１巷","ALLEY":" ","HOUSE_NO":"４６號之１","E_COORD97":167467.09,"N_COORD97":2549119.0499999998,"ADDRESS":"安中路一段７０１巷４６號之１","OBJECTID":373477},"geometry":{"x":167467.09000000078,"y":2549119.0500000007}},{"attributes":{"ID":373488,"DIS_CODE":0,"TOWNNAME":"安南區","LI":"梅花里","LIN":"10鄰","STREET":"安中路","SECT":"一段","MAREA":" ","LANE":"７０１巷","ALLEY":" ","HOUSE_NO":"４８號","E_COORD97":167460.70999999999,"N_COORD97":2549113.9500000002,"ADDRESS":"安中路一段７０１巷４８號","OBJECTID":373478},"geometry":{"x":167460.70999999996,"y":2549113.9500000011}},{"attributes":{"ID":373489,"DIS_CODE":0,"TOWNNAME":"安南區","LI":"梅花里","LIN":"10鄰","STREET":"安中路","SECT":"一段","MAREA":" ","LANE":"７０１巷","ALLEY":" ","HOUSE_NO":"５０號之１","E_COORD97":167453.89999999999,"N_COORD97":2549108.4199999999,"ADDRESS":"安中路一段７０１巷５０號之１","OBJECTID":373479},"geometry":{"x":167453.9000000013,"y":2549108.4200000018}},{"attributes":{"ID":373490,"DIS_CODE":0,"TOWNNAME":"安南區","LI":"梅花里","LIN":"10鄰","STREET":"安中路","SECT":"一段","MAREA":" ","LANE":"７０１巷","ALLEY":" ","HOUSE_NO":"５２號之１","E_COORD97":167447.31,"N_COORD97":2549102.0499999998,"ADDRESS":"安中路一段７０１巷５２號之１","OBJECTID":373480},"geometry":{"x":167447.30999999959,"y":2549102.0500000007}},{"attributes":{"ID":373491,"DIS_CODE":0,"TOWNNAME":"仁德區","LI":"田厝里","LIN":"10鄰","STREET":"田厝二街","SECT":" ","MAREA":" ","LANE":"８６巷","ALLEY":" ","HOUSE_NO":"３４號","E_COORD97":172385.98999999999,"N_COORD97":2537799.4900000002,"ADDRESS":"田厝二街８６巷３４號","OBJECTID":373481},"geometry":{"x":172385.99000000115,"y":2537799.4900000002}},{"attributes":{"ID":373492,"DIS_CODE":0,"TOWNNAME":"仁德區","LI":"保安里","LIN":"10鄰","STREET":"中正路","SECT":"一段","MAREA":" ","LANE":"２５１巷","ALLEY":" ","HOUSE_NO":"４號","E_COORD97":171801.20999999999,"N_COORD97":2535998.27,"ADDRESS":"中正路一段２５１巷４號","OBJECTID":373482},"geometry":{"x":171801.21000000089,"y":2535998.2700000014}},{"attributes":{"ID":373493,"DIS_CODE":0,"TOWNNAME":"仁德區","LI":"田厝里","LIN":"10鄰","STREET":"田厝二街","SECT":" ","MAREA":" ","LANE":"８６巷","ALLEY":" ","HOUSE_NO":"１０號","E_COORD97":172365.64000000001,"N_COORD97":2537730,"ADDRESS":"田厝二街８６巷１０號","OBJECTID":373483},"geometry":{"x":172365.6400000006,"y":2537730.0000000019}},{"attributes":{"ID":373494,"DIS_CODE":0,"TOWNNAME":"仁德區","LI":"保安里","LIN":"10鄰","STREET":"中正路","SECT":"一段","MAREA":" ","LANE":"２５９巷","ALLEY":" ","HOUSE_NO":"２號","E_COORD97":171818.59,"N_COORD97":2536016.77,"ADDRESS":"中正路一段２５９巷２號","OBJECTID":373484},"geometry":{"x":171818.59000000078,"y":2536016.7699999996}},{"attributes":{"ID":373495,"DIS_CODE":0,"TOWNNAME":"仁德區","LI":"仁義里","LIN":"10鄰","STREET":"仁義一街","SECT":" ","MAREA":" ","LANE":"４８巷","ALLEY":" ","HOUSE_NO":"７號","E_COORD97":173418.78,"N_COORD97":2541170.27,"ADDRESS":"仁義一街４８巷７號","OBJECTID":373485},"geometry":{"x":173418.78000000026,"y":2541170.2699999996}},{"attributes":{"ID":373496,"DIS_CODE":0,"TOWNNAME":"仁德區","LI":"仁義里","LIN":"10鄰","STREET":"仁義一街","SECT":" ","MAREA":" ","LANE":"４８巷","ALLEY":" ","HOUSE_NO":"５號","E_COORD97":173419.03,"N_COORD97":2541174.7599999998,"ADDRESS":"仁義一街４８巷５號","OBJECTID":373486},"geometry":{"x":173419.03000000026,"y":2541174.7600000016}},{"attributes":{"ID":373497,"DIS_CODE":0,"TOWNNAME":"仁德區","LI":"保安里","LIN":"10鄰","STREET":"中正路","SECT":"一段","MAREA":" ","LANE":"２５９巷","ALLEY":" ","HOUSE_NO":"１２號","E_COORD97":171793.23000000001,"N_COORD97":2536046.5299999998,"ADDRESS":"中正路一段２５９巷１２號","OBJECTID":373487},"geometry":{"x":171793.23000000138,"y":2536046.5300000012}},{"attributes":{"ID":373498,"DIS_CODE":0,"TOWNNAME":"仁德區","LI":"保安里","LIN":"10鄰","STREET":"中正路","SECT":"一段","MAREA":" ","LANE":"２５１巷","ALLEY":" ","HOUSE_NO":"２８號","E_COORD97":171748.35000000001,"N_COORD97":2536055.5299999998,"ADDRESS":"中正路一段２５１巷２８號","OBJECTID":373488},"geometry":{"x":171748.35000000149,"y":2536055.5299999993}},{"attributes":{"ID":373499,"DIS_CODE":0,"TOWNNAME":"東區","LI":"崇善里","LIN":"10鄰","STREET":"崇善八街","SECT":" ","MAREA":" ","LANE":"６９巷","ALLEY":" ","HOUSE_NO":"１３號","E_COORD97":171193.39999999999,"N_COORD97":2541459.8300000001,"ADDRESS":"崇善八街６９巷１３號","OBJECTID":373489},"geometry":{"x":171193.4000000013,"y":2541459.8300000019}},{"attributes":{"ID":373500,"DIS_CODE":0,"TOWNNAME":"東區","LI":"崇善里","LIN":"10鄰","STREET":"崇善八街","SECT":" ","MAREA":" ","LANE":"６９巷","ALLEY":" ","HOUSE_NO":"２６號","E_COORD97":171177.14999999999,"N_COORD97":2541472.3199999998,"ADDRESS":"崇善八街６９巷２６號","OBJECTID":373490},"geometry":{"x":171177.15000000037,"y":2541472.3200000003}},{"attributes":{"ID":373501,"DIS_CODE":0,"TOWNNAME":"中西區","LI":"藥王里","LIN":"10鄰","STREET":"大新街","SECT":" ","MAREA":" ","LANE":"３５巷","ALLEY":" ","HOUSE_NO":"２０號","E_COORD97":167093.79999999999,"N_COORD97":2544420.79,"ADDRESS":"大新街３５巷２０號","OBJECTID":373491},"geometry":{"x":167093.79999999981,"y":2544420.7899999991}},{"attributes":{"ID":373502,"DIS_CODE":0,"TOWNNAME":"東區","LI":"富強里","LIN":"10鄰","STREET":"中華東路","SECT":"二段","MAREA":" ","LANE":"２２６巷","ALLEY":" ","HOUSE_NO":"５７號","E_COORD97":171090.72,"N_COORD97":2542691.9399999999,"ADDRESS":"中華東路二段２２６巷５７號","OBJECTID":373492},"geometry":{"x":171090.72000000067,"y":2542691.9400000032}},{"attributes":{"ID":373503,"DIS_CODE":0,"TOWNNAME":"東區","LI":"富強里","LIN":"10鄰","STREET":"中華東路","SECT":"二段","MAREA":" ","LANE":"２２６巷","ALLEY":" ","HOUSE_NO":"５９號","E_COORD97":171089.42000000001,"N_COORD97":2542706.6000000001,"ADDRESS":"中華東路二段２２６巷５９號","OBJECTID":373493},"geometry":{"x":171089.42000000086,"y":2542706.5999999996}},{"attributes":{"ID":373504,"DIS_CODE":0,"TOWNNAME":"仁德區","LI":"保安里","LIN":"10鄰","STREET":"中正路","SECT":"一段","MAREA":" ","LANE":"２５１巷","ALLEY":" ","HOUSE_NO":"１８號","E_COORD97":171768.76999999999,"N_COORD97":2536034.27,"ADDRESS":"中正路一段２５１巷１８號","OBJECTID":373494},"geometry":{"x":171768.76999999955,"y":2536034.2700000033}},{"attributes":{"ID":373505,"DIS_CODE":0,"TOWNNAME":"仁德區","LI":"保安里","LIN":"10鄰","STREET":"中正路","SECT":"一段","MAREA":" ","LANE":"２５９巷","ALLEY":" ","HOUSE_NO":"６號","E_COORD97":171804.67999999999,"N_COORD97":2536031.52,"ADDRESS":"中正路一段２５９巷６號","OBJECTID":373495},"geometry":{"x":171804.68000000063,"y":2536031.5199999996}},{"attributes":{"ID":373506,"DIS_CODE":0,"TOWNNAME":"永康區","LI":"大灣里","LIN":"10鄰","STREET":"大灣六街","SECT":" ","MAREA":" ","LANE":"１５０巷","ALLEY":" ","HOUSE_NO":"６號","E_COORD97":174940.51000000001,"N_COORD97":2545433.6699999999,"ADDRESS":"大灣六街１５０巷６號","OBJECTID":373496},"geometry":{"x":174940.50999999978,"y":2545433.6700000037}},{"attributes":{"ID":373507,"DIS_CODE":0,"TOWNNAME":"永康區","LI":"王行里","LIN":"10鄰","STREET":"王行路","SECT":" ","MAREA":" ","LANE":"１０１８巷","ALLEY":" ","HOUSE_NO":"５０號","E_COORD97":175794.51999999999,"N_COORD97":2550212.9900000002,"ADDRESS":"王行路１０１８巷５０號","OBJECTID":373497},"geometry":{"x":175794.51999999955,"y":2550212.9900000021}},{"attributes":{"ID":373508,"DIS_CODE":0,"TOWNNAME":"永康區","LI":"大橋里","LIN":"10鄰","STREET":"大橋一街","SECT":" ","MAREA":" ","LANE":"１０３巷","ALLEY":" ","HOUSE_NO":"１７２號","E_COORD97":170854.41,"N_COORD97":2546713.7400000002,"ADDRESS":"大橋一街１０３巷１７２號","OBJECTID":373498},"geometry":{"x":170854.41000000015,"y":2546713.7400000002}},{"attributes":{"ID":373509,"DIS_CODE":0,"TOWNNAME":"永康區","LI":"大灣里","LIN":"10鄰","STREET":"大灣六街","SECT":" ","MAREA":" ","LANE":"１５０巷","ALLEY":" ","HOUSE_NO":"２號","E_COORD97":174939.41,"N_COORD97":2545428.9199999999,"ADDRESS":"大灣六街１５０巷２號","OBJECTID":373499},"geometry":{"x":174939.41000000108,"y":2545428.9200000018}},{"attributes":{"ID":373510,"DIS_CODE":0,"TOWNNAME":"永康區","LI":"王行里","LIN":"10鄰","STREET":"王行路","SECT":" ","MAREA":" ","LANE":"１０１８巷","ALLEY":" ","HOUSE_NO":"３４號","E_COORD97":175828.59,"N_COORD97":2550216.4900000002,"ADDRESS":"王行路１０１８巷３４號","OBJECTID":373500},"geometry":{"x":175828.58999999985,"y":2550216.4900000021}},{"attributes":{"ID":373511,"DIS_CODE":0,"TOWNNAME":"永康區","LI":"大灣里","LIN":"10鄰","STREET":"大灣六街","SECT":" ","MAREA":" ","LANE":"１５０巷","ALLEY":" ","HOUSE_NO":"１９號","E_COORD97":174952.54999999999,"N_COORD97":2545474.6400000001,"ADDRESS":"大灣六街１５０巷１９號","OBJECTID":373501},"geometry":{"x":174952.54999999981,"y":2545474.6400000006}},{"attributes":{"ID":373512,"DIS_CODE":0,"TOWNNAME":"永康區","LI":"大橋里","LIN":"10鄰","STREET":"大橋三街","SECT":" ","MAREA":" ","LANE":"２６６巷","ALLEY":" ","HOUSE_NO":"１１８號","E_COORD97":170901.95000000001,"N_COORD97":2546738,"ADDRESS":"大橋三街２６６巷１１８號","OBJECTID":373502},"geometry":{"x":170901.95000000019,"y":2546738.0000000019}},{"attributes":{"ID":373513,"DIS_CODE":0,"TOWNNAME":"永康區","LI":"王行里","LIN":"10鄰","STREET":"王行路","SECT":" ","MAREA":" ","LANE":"１０１８巷","ALLEY":" ","HOUSE_NO":"５６號","E_COORD97":175781.98000000001,"N_COORD97":2550211.7400000002,"ADDRESS":"王行路１０１８巷５６號","OBJECTID":373503},"geometry":{"x":175781.98000000138,"y":2550211.7400000021}},{"attributes":{"ID":373514,"DIS_CODE":0,"TOWNNAME":"永康區","LI":"五王里","LIN":"10鄰","STREET":"中山東路","SECT":" ","MAREA":" ","LANE":"２１８巷","ALLEY":" ","HOUSE_NO":"１３號","E_COORD97":171736.26000000001,"N_COORD97":2545729.2000000002,"ADDRESS":"中山東路２１８巷１３號","OBJECTID":373504},"geometry":{"x":171736.26000000071,"y":2545729.1999999993}},{"attributes":{"ID":373515,"DIS_CODE":0,"TOWNNAME":"永康區","LI":"大灣里","LIN":"10鄰","STREET":"大灣路","SECT":" ","MAREA":" ","LANE":"２４０巷","ALLEY":" ","HOUSE_NO":"２５號","E_COORD97":174915.62,"N_COORD97":2545415.5299999998,"ADDRESS":"大灣路２４０巷２５號","OBJECTID":373505},"geometry":{"x":174915.62000000104,"y":2545415.5299999993}},{"attributes":{"ID":373516,"DIS_CODE":0,"TOWNNAME":"永康區","LI":"大橋里","LIN":"10鄰","STREET":"大橋三街","SECT":" ","MAREA":" ","LANE":"２６６巷","ALLEY":" ","HOUSE_NO":"１０４號","E_COORD97":170926.06,"N_COORD97":2546755.75,"ADDRESS":"大橋三街２６６巷１０４號","OBJECTID":373506},"geometry":{"x":170926.05999999959,"y":2546755.7500000019}},{"attributes":{"ID":373517,"DIS_CODE":0,"TOWNNAME":"永康區","LI":"三合里","LIN":"10鄰","STREET":"南工街","SECT":" ","MAREA":" ","LANE":"２４７巷","ALLEY":" ","HOUSE_NO":"５９號","E_COORD97":171965.63,"N_COORD97":2545696.25,"ADDRESS":"南工街２４７巷５９號","OBJECTID":373507},"geometry":{"x":171965.63000000082,"y":2545696.25}},{"attributes":{"ID":373518,"DIS_CODE":0,"TOWNNAME":"永康區","LI":"三合里","LIN":"10鄰","STREET":"南工街","SECT":" ","MAREA":" ","LANE":"２４７巷","ALLEY":" ","HOUSE_NO":"４９號","E_COORD97":171962.72,"N_COORD97":2545733.7400000002,"ADDRESS":"南工街２４７巷４９號","OBJECTID":373508},"geometry":{"x":171962.71999999974,"y":2545733.7400000002}},{"attributes":{"ID":373519,"DIS_CODE":0,"TOWNNAME":"永康區","LI":"二王里","LIN":"10鄰","STREET":"永二街","SECT":" ","MAREA":" ","LANE":"３１９巷","ALLEY":" ","HOUSE_NO":"２號","E_COORD97":173099.10000000001,"N_COORD97":2546469.4100000001,"ADDRESS":"永二街３１９巷２號","OBJECTID":373509},"geometry":{"x":173099.09999999963,"y":2546469.4100000039}},{"attributes":{"ID":373520,"DIS_CODE":0,"TOWNNAME":"永康區","LI":"二王里","LIN":"10鄰","STREET":"二王路","SECT":" ","MAREA":" ","LANE":"１５５巷","ALLEY":" ","HOUSE_NO":"３８號","E_COORD97":173040.67999999999,"N_COORD97":2546474.8300000001,"ADDRESS":"二王路１５５巷３８號","OBJECTID":373510},"geometry":{"x":173040.6799999997,"y":2546474.8300000019}},{"attributes":{"ID":373521,"DIS_CODE":0,"TOWNNAME":"永康區","LI":"二王里","LIN":"10鄰","STREET":"二王路","SECT":" ","MAREA":" ","LANE":"１５５巷","ALLEY":" ","HOUSE_NO":"５２號","E_COORD97":173060.38,"N_COORD97":2546463.8300000001,"ADDRESS":"二王路１５５巷５２號","OBJECTID":373511},"geometry":{"x":173060.37999999989,"y":2546463.8300000019}},{"attributes":{"ID":373522,"DIS_CODE":0,"TOWNNAME":"中西區","LI":"藥王里","LIN":"10鄰","STREET":"大新街","SECT":" ","MAREA":" ","LANE":"２１巷","ALLEY":" ","HOUSE_NO":"２４號","E_COORD97":167073.92999999999,"N_COORD97":2544400.1099999999,"ADDRESS":"大新街２１巷２４號","OBJECTID":373512},"geometry":{"x":167073.9299999997,"y":2544400.1100000013}},{"attributes":{"ID":373523,"DIS_CODE":0,"TOWNNAME":"中西區","LI":"藥王里","LIN":"10鄰","STREET":"大新街","SECT":" ","MAREA":" ","LANE":"２１巷","ALLEY":" ","HOUSE_NO":"２６號","E_COORD97":167070.09,"N_COORD97":2544403.7400000002,"ADDRESS":"大新街２１巷２６號","OBJECTID":373513},"geometry":{"x":167070.09000000171,"y":2544403.7400000021}},{"attributes":{"ID":373524,"DIS_CODE":0,"TOWNNAME":"中西區","LI":"藥王里","LIN":"10鄰","STREET":"大新街","SECT":" ","MAREA":" ","LANE":"２１巷","ALLEY":" ","HOUSE_NO":"２號","E_COORD97":167124.09,"N_COORD97":2544378.5299999998,"ADDRESS":"大新街２１巷２號","OBJECTID":373514},"geometry":{"x":167124.08999999892,"y":2544378.5299999993}},{"attributes":{"ID":373525,"DIS_CODE":0,"TOWNNAME":"中西區","LI":"藥王里","LIN":"10鄰","STREET":"大新街","SECT":" ","MAREA":" ","LANE":"２１巷","ALLEY":" ","HOUSE_NO":"４號","E_COORD97":167119.14999999999,"N_COORD97":2544379.3599999999,"ADDRESS":"大新街２１巷４號","OBJECTID":373515},"geometry":{"x":167119.14999999944,"y":2544379.3599999994}},{"attributes":{"ID":373526,"DIS_CODE":0,"TOWNNAME":"中西區","LI":"藥王里","LIN":"10鄰","STREET":"大新街","SECT":" ","MAREA":" ","LANE":"２１巷","ALLEY":" ","HOUSE_NO":"６號","E_COORD97":167114.48000000001,"N_COORD97":2544380.4500000002,"ADDRESS":"大新街２１巷６號","OBJECTID":373516},"geometry":{"x":167114.48000000138,"y":2544380.4500000011}},{"attributes":{"ID":373527,"DIS_CODE":0,"TOWNNAME":"中西區","LI":"藥王里","LIN":"10鄰","STREET":"大新街","SECT":" ","MAREA":" ","LANE":"２１巷","ALLEY":" ","HOUSE_NO":"８號","E_COORD97":167107.34,"N_COORD97":2544383.2000000002,"ADDRESS":"大新街２１巷８號","OBJECTID":373517},"geometry":{"x":167107.34000000171,"y":2544383.1999999993}},{"attributes":{"ID":373528,"DIS_CODE":0,"TOWNNAME":"中西區","LI":"藥王里","LIN":"10鄰","STREET":"大新街","SECT":" ","MAREA":" ","LANE":"３５巷","ALLEY":" ","HOUSE_NO":"１０號","E_COORD97":167115.16,"N_COORD97":2544409.48,"ADDRESS":"大新街３５巷１０號","OBJECTID":373518},"geometry":{"x":167115.16000000015,"y":2544409.4800000023}},{"attributes":{"ID":373529,"DIS_CODE":0,"TOWNNAME":"中西區","LI":"藥王里","LIN":"10鄰","STREET":"大新街","SECT":" ","MAREA":" ","LANE":"３５巷","ALLEY":" ","HOUSE_NO":"１１號","E_COORD97":167106.19,"N_COORD97":2544398.1899999999,"ADDRESS":"大新街３５巷１１號","OBJECTID":373519},"geometry":{"x":167106.19000000134,"y":2544398.1899999995}},{"attributes":{"ID":373530,"DIS_CODE":0,"TOWNNAME":"中西區","LI":"藥王里","LIN":"10鄰","STREET":"大新街","SECT":" ","MAREA":" ","LANE":"３５巷","ALLEY":" ","HOUSE_NO":"１２號","E_COORD97":167110.89000000001,"N_COORD97":2544412.25,"ADDRESS":"大新街３５巷１２號","OBJECTID":373520},"geometry":{"x":167110.8900000006,"y":2544412.2499999981}},{"attributes":{"ID":373531,"DIS_CODE":0,"TOWNNAME":"中西區","LI":"藥王里","LIN":"10鄰","STREET":"大新街","SECT":" ","MAREA":" ","LANE":"３５巷","ALLEY":" ","HOUSE_NO":"１４號","E_COORD97":167106.39999999999,"N_COORD97":2544415.0299999998,"ADDRESS":"大新街３５巷１４號","OBJECTID":373521},"geometry":{"x":167106.4000000013,"y":2544415.0299999993}},{"attributes":{"ID":373532,"DIS_CODE":0,"TOWNNAME":"中西區","LI":"藥王里","LIN":"10鄰","STREET":"大新街","SECT":" ","MAREA":" ","LANE":"３５巷","ALLEY":" ","HOUSE_NO":"１６號","E_COORD97":167103.20000000001,"N_COORD97":2544417.3700000001,"ADDRESS":"大新街３５巷１６號","OBJECTID":373522},"geometry":{"x":167103.20000000019,"y":2544417.3700000029}},{"attributes":{"ID":373533,"DIS_CODE":0,"TOWNNAME":"中西區","LI":"藥王里","LIN":"10鄰","STREET":"大新街","SECT":" ","MAREA":" ","LANE":"３５巷","ALLEY":" ","HOUSE_NO":"１８號","E_COORD97":167098.07000000001,"N_COORD97":2544418.0099999998,"ADDRESS":"大新街３５巷１８號","OBJECTID":373523},"geometry":{"x":167098.07000000123,"y":2544418.0100000016}},{"attributes":{"ID":373534,"DIS_CODE":0,"TOWNNAME":"中西區","LI":"藥王里","LIN":"10鄰","STREET":"大新街","SECT":" ","MAREA":" ","LANE":"３５巷","ALLEY":" ","HOUSE_NO":"１９號","E_COORD97":167087.60000000001,"N_COORD97":2544405.6600000001,"ADDRESS":"大新街３５巷１９號","OBJECTID":373524},"geometry":{"x":167087.59999999963,"y":2544405.6600000001}},{"attributes":{"ID":373535,"DIS_CODE":0,"TOWNNAME":"中西區","LI":"藥王里","LIN":"10鄰","STREET":"大新街","SECT":" ","MAREA":" ","LANE":"４７巷","ALLEY":" ","HOUSE_NO":"１１號","E_COORD97":167115.37,"N_COORD97":2544423.5600000001,"ADDRESS":"大新街４７巷１１號","OBJECTID":373525},"geometry":{"x":167115.37000000011,"y":2544423.5600000005}},{"attributes":{"ID":373536,"DIS_CODE":0,"TOWNNAME":"中西區","LI":"藥王里","LIN":"10鄰","STREET":"大新街","SECT":" ","MAREA":" ","LANE":"４７巷","ALLEY":" ","HOUSE_NO":"１３號","E_COORD97":167110.89000000001,"N_COORD97":2544425.7000000002,"ADDRESS":"大新街４７巷１３號","OBJECTID":373526},"geometry":{"x":167110.8900000006,"y":2544425.700000003}},{"attributes":{"ID":373537,"DIS_CODE":0,"TOWNNAME":"中西區","LI":"藥王里","LIN":"10鄰","STREET":"大新街","SECT":" ","MAREA":" ","LANE":"４７巷","ALLEY":" ","HOUSE_NO":"１７號","E_COORD97":167102.56,"N_COORD97":2544430.1800000002,"ADDRESS":"大新街４７巷１７號","OBJECTID":373527},"geometry":{"x":167102.56000000052,"y":2544430.1800000016}},{"attributes":{"ID":373538,"DIS_CODE":0,"TOWNNAME":"中西區","LI":"藥王里","LIN":"10鄰","STREET":"大新街","SECT":" ","MAREA":" ","LANE":"４７巷","ALLEY":" ","HOUSE_NO":"１９號","E_COORD97":167098.07000000001,"N_COORD97":2544435.5499999998,"ADDRESS":"大新街４７巷１９號","OBJECTID":373528},"geometry":{"x":167098.07000000123,"y":2544435.5500000026}},{"attributes":{"ID":373539,"DIS_CODE":0,"TOWNNAME":"中西區","LI":"藥王里","LIN":"10鄰","STREET":"大新街","SECT":" ","MAREA":" ","LANE":"４７巷","ALLEY":" ","HOUSE_NO":"１號","E_COORD97":167137.79999999999,"N_COORD97":2544416.0899999999,"ADDRESS":"大新街４７巷１號","OBJECTID":373529},"geometry":{"x":167137.79999999981,"y":2544416.0899999999}},{"attributes":{"ID":373540,"DIS_CODE":0,"TOWNNAME":"永康區","LI":"復國里","LIN":"10鄰","STREET":"復國二路","SECT":" ","MAREA":" ","LANE":"７９巷","ALLEY":" ","HOUSE_NO":"１１號","E_COORD97":172797.54999999999,"N_COORD97":2545264.3199999998,"ADDRESS":"復國二路７９巷１１號","OBJECTID":373530},"geometry":{"x":172797.54999999981,"y":2545264.3200000022}},{"attributes":{"ID":373541,"DIS_CODE":0,"TOWNNAME":"永康區","LI":"復國里","LIN":"10鄰","STREET":"復國二路","SECT":" ","MAREA":" ","LANE":"８７巷","ALLEY":" ","HOUSE_NO":"２９號","E_COORD97":172772.62,"N_COORD97":2545374.0299999998,"ADDRESS":"復國二路８７巷２９號","OBJECTID":373531},"geometry":{"x":172772.62000000197,"y":2545374.0300000012}},{"attributes":{"ID":373542,"DIS_CODE":0,"TOWNNAME":"永康區","LI":"復國里","LIN":"10鄰","STREET":"復國二路","SECT":" ","MAREA":" ","LANE":"８７巷","ALLEY":" ","HOUSE_NO":"３３號","E_COORD97":172772.26000000001,"N_COORD97":2545385.2400000002,"ADDRESS":"復國二路８７巷３３號","OBJECTID":373532},"geometry":{"x":172772.25999999978,"y":2545385.2400000002}},{"attributes":{"ID":373543,"DIS_CODE":0,"TOWNNAME":"永康區","LI":"復國里","LIN":"10鄰","STREET":"復國二路","SECT":" ","MAREA":" ","LANE":"７９巷","ALLEY":" ","HOUSE_NO":"１４號","E_COORD97":172794.20000000001,"N_COORD97":2545285.7799999998,"ADDRESS":"復國二路７９巷１４號","OBJECTID":373533},"geometry":{"x":172794.20000000205,"y":2545285.7799999993}},{"attributes":{"ID":373544,"DIS_CODE":0,"TOWNNAME":"永康區","LI":"復國里","LIN":"10鄰","STREET":"復國二路","SECT":" ","MAREA":" ","LANE":"８７巷","ALLEY":" ","HOUSE_NO":"４１號","E_COORD97":172773.06,"N_COORD97":2545406.9900000002,"ADDRESS":"復國二路８７巷４１號","OBJECTID":373534},"geometry":{"x":172773.06000000052,"y":2545406.9900000002}},{"attributes":{"ID":373545,"DIS_CODE":0,"TOWNNAME":"永康區","LI":"復國里","LIN":"10鄰","STREET":"復國二路","SECT":" ","MAREA":" ","LANE":"８７巷","ALLEY":" ","HOUSE_NO":"２０號","E_COORD97":172801.45999999999,"N_COORD97":2545384.6800000002,"ADDRESS":"復國二路８７巷２０號","OBJECTID":373535},"geometry":{"x":172801.46000000089,"y":2545384.6799999997}},{"attributes":{"ID":373546,"DIS_CODE":0,"TOWNNAME":"永康區","LI":"復國里","LIN":"10鄰","STREET":"復國二路","SECT":" ","MAREA":" ","LANE":"８７巷","ALLEY":" ","HOUSE_NO":"１０號","E_COORD97":172829.42000000001,"N_COORD97":2545387.1800000002,"ADDRESS":"復國二路８７巷１０號","OBJECTID":373536},"geometry":{"x":172829.41999999993,"y":2545387.1800000016}},{"attributes":{"ID":373547,"DIS_CODE":0,"TOWNNAME":"永康區","LI":"復國里","LIN":"10鄰","STREET":"復國二路","SECT":" ","MAREA":" ","LANE":"８７巷","ALLEY":" ","HOUSE_NO":"２２號","E_COORD97":172795.95999999999,"N_COORD97":2545385.4300000002,"ADDRESS":"復國二路８７巷２２號","OBJECTID":373537},"geometry":{"x":172795.96000000089,"y":2545385.4300000016}},{"attributes":{"ID":373548,"DIS_CODE":0,"TOWNNAME":"永康區","LI":"復國里","LIN":"10鄰","STREET":"復國二路","SECT":" ","MAREA":" ","LANE":"８７巷","ALLEY":" ","HOUSE_NO":"１３號","E_COORD97":172816.87,"N_COORD97":2545374.2799999998,"ADDRESS":"復國二路８７巷１３號","OBJECTID":373538},"geometry":{"x":172816.87000000197,"y":2545374.2800000031}},{"attributes":{"ID":373549,"DIS_CODE":0,"TOWNNAME":"永康區","LI":"復國里","LIN":"10鄰","STREET":"復國二路","SECT":" ","MAREA":" ","LANE":"８７巷","ALLEY":" ","HOUSE_NO":"１５號","E_COORD97":172811.76999999999,"N_COORD97":2545371.0299999998,"ADDRESS":"復國二路８７巷１５號","OBJECTID":373539},"geometry":{"x":172811.77000000142,"y":2545371.0299999993}},{"attributes":{"ID":373550,"DIS_CODE":0,"TOWNNAME":"東區","LI":"富強里","LIN":"10鄰","STREET":"東門路","SECT":"二段","MAREA":" ","LANE":"３０１巷","ALLEY":" ","HOUSE_NO":"１４２號","E_COORD97":171108.64000000001,"N_COORD97":2542728.1299999999,"ADDRESS":"東門路二段３０１巷１４２號","OBJECTID":373540},"geometry":{"x":171108.63999999966,"y":2542728.1300000008}},{"attributes":{"ID":373551,"DIS_CODE":0,"TOWNNAME":"東區","LI":"德高里","LIN":"10鄰","STREET":"崇善路","SECT":" ","MAREA":" ","LANE":"９１３巷","ALLEY":" ","HOUSE_NO":"３８號","E_COORD97":171433.85000000001,"N_COORD97":2540794.0899999999,"ADDRESS":"崇善路９１３巷３８號","OBJECTID":373541},"geometry":{"x":171433.85000000056,"y":2540794.0900000017}},{"attributes":{"ID":373552,"DIS_CODE":0,"TOWNNAME":"東區","LI":"德高里","LIN":"10鄰","STREET":"崇善路","SECT":" ","MAREA":" ","LANE":"８３５巷","ALLEY":" ","HOUSE_NO":"１２號","E_COORD97":171355.59,"N_COORD97":2540843.9199999999,"ADDRESS":"崇善路８３５巷１２號","OBJECTID":373542},"geometry":{"x":171355.59000000078,"y":2540843.9199999999}},{"attributes":{"ID":373553,"DIS_CODE":0,"TOWNNAME":"東區","LI":"德高里","LIN":"10鄰","STREET":"崇善路","SECT":" ","MAREA":" ","LANE":"８３５巷","ALLEY":" ","HOUSE_NO":"１６號","E_COORD97":171386.98999999999,"N_COORD97":2540889.9199999999,"ADDRESS":"崇善路８３５巷１６號","OBJECTID":373543},"geometry":{"x":171386.99000000209,"y":2540889.9200000018}},{"attributes":{"ID":373554,"DIS_CODE":0,"TOWNNAME":"東區","LI":"德高里","LIN":"10鄰","STREET":"崇善路","SECT":" ","MAREA":" ","LANE":"９１３巷","ALLEY":" ","HOUSE_NO":"３４號","E_COORD97":171423.92999999999,"N_COORD97":2540786.8300000001,"ADDRESS":"崇善路９１３巷３４號","OBJECTID":373544},"geometry":{"x":171423.9299999997,"y":2540786.8300000001}},{"attributes":{"ID":373555,"DIS_CODE":0,"TOWNNAME":"東區","LI":"德高里","LIN":"10鄰","STREET":"崇善路","SECT":" ","MAREA":" ","LANE":"９１３巷","ALLEY":" ","HOUSE_NO":"３６號","E_COORD97":171421.22,"N_COORD97":2540793.8199999998,"ADDRESS":"崇善路９１３巷３６號","OBJECTID":373545},"geometry":{"x":171421.22000000067,"y":2540793.8200000003}},{"attributes":{"ID":373556,"DIS_CODE":0,"TOWNNAME":"東區","LI":"德高里","LIN":"10鄰","STREET":"崇善路","SECT":" ","MAREA":" ","LANE":"９１３巷","ALLEY":" ","HOUSE_NO":"４０號","E_COORD97":171437.44,"N_COORD97":2540797.4100000001,"ADDRESS":"崇善路９１３巷４０號","OBJECTID":373546},"geometry":{"x":171437.44000000134,"y":2540797.4100000039}},{"attributes":{"ID":373557,"DIS_CODE":0,"TOWNNAME":"東區","LI":"德高里","LIN":"10鄰","STREET":"崇善路","SECT":" ","MAREA":" ","LANE":"９１３巷","ALLEY":" ","HOUSE_NO":"４２號","E_COORD97":171440.89999999999,"N_COORD97":2540799.9300000002,"ADDRESS":"崇善路９１３巷４２號","OBJECTID":373547},"geometry":{"x":171440.9000000013,"y":2540799.9299999978}},{"attributes":{"ID":373558,"DIS_CODE":0,"TOWNNAME":"東區","LI":"德高里","LIN":"10鄰","STREET":"崇善路","SECT":" ","MAREA":" ","LANE":"９１３巷","ALLEY":" ","HOUSE_NO":"４４號","E_COORD97":171443.42000000001,"N_COORD97":2540802.9900000002,"ADDRESS":"崇善路９１３巷４４號","OBJECTID":373548},"geometry":{"x":171443.42000000086,"y":2540802.9900000002}},{"attributes":{"ID":373559,"DIS_CODE":0,"TOWNNAME":"東區","LI":"德高里","LIN":"10鄰","STREET":"崇善路","SECT":" ","MAREA":" ","LANE":"９１３巷","ALLEY":" ","HOUSE_NO":"４６號","E_COORD97":171425.48000000001,"N_COORD97":2540819.3199999998,"ADDRESS":"崇善路９１３巷４６號","OBJECTID":373549},"geometry":{"x":171425.48000000045,"y":2540819.3200000022}},{"attributes":{"ID":373560,"DIS_CODE":0,"TOWNNAME":"東區","LI":"德高里","LIN":"10鄰","STREET":"崇善路","SECT":" ","MAREA":" ","LANE":"９１３巷","ALLEY":" ","HOUSE_NO":"４８號","E_COORD97":171421.62,"N_COORD97":2540816.6699999999,"ADDRESS":"崇善路９１３巷４８號","OBJECTID":373550},"geometry":{"x":171421.62000000197,"y":2540816.6700000018}},{"attributes":{"ID":373561,"DIS_CODE":0,"TOWNNAME":"東區","LI":"德高里","LIN":"10鄰","STREET":"崇善路","SECT":" ","MAREA":" ","LANE":"９１３巷","ALLEY":" ","HOUSE_NO":"５６號","E_COORD97":171404.60999999999,"N_COORD97":2540807.3700000001,"ADDRESS":"崇善路９１３巷５６號","OBJECTID":373551},"geometry":{"x":171404.61000000034,"y":2540807.370000001}},{"attributes":{"ID":373562,"DIS_CODE":0,"TOWNNAME":"東區","LI":"德高里","LIN":"10鄰","STREET":"崇善路","SECT":" ","MAREA":" ","LANE":"８３５巷","ALLEY":" ","HOUSE_NO":"１４號","E_COORD97":171403.32000000001,"N_COORD97":2540857.3199999998,"ADDRESS":"崇善路８３５巷１４號","OBJECTID":373552},"geometry":{"x":171403.3200000003,"y":2540857.3200000022}},{"attributes":{"ID":373563,"DIS_CODE":0,"TOWNNAME":"東區","LI":"富裕里","LIN":"10鄰","STREET":"東門路","SECT":"二段","MAREA":" ","LANE":"３０１巷","ALLEY":" ","HOUSE_NO":"４１號","E_COORD97":170794.62,"N_COORD97":2542728.1299999999,"ADDRESS":"東門路二段３０１巷４１號","OBJECTID":373553},"geometry":{"x":170794.62000000104,"y":2542728.1300000008}},{"attributes":{"ID":373564,"DIS_CODE":0,"TOWNNAME":"東區","LI":"崇德里","LIN":"10鄰","STREET":"崇德八街","SECT":" ","MAREA":" ","LANE":"４６巷","ALLEY":" ","HOUSE_NO":"５１號","E_COORD97":170962.17999999999,"N_COORD97":2541505.7200000002,"ADDRESS":"崇德八街４６巷５１號","OBJECTID":373554},"geometry":{"x":170962.18000000063,"y":2541505.7200000025}},{"attributes":{"ID":373565,"DIS_CODE":0,"TOWNNAME":"東區","LI":"崇德里","LIN":"10鄰","STREET":"崇德八街","SECT":" ","MAREA":" ","LANE":"４６巷","ALLEY":" ","HOUSE_NO":"５３號","E_COORD97":170963.66,"N_COORD97":2541501.6499999999,"ADDRESS":"崇德八街４６巷５３號","OBJECTID":373555},"geometry":{"x":170963.66000000201,"y":2541501.6500000022}},{"attributes":{"ID":373566,"DIS_CODE":0,"TOWNNAME":"安南區","LI":"安富里","LIN":"10鄰","STREET":"安富街","SECT":" ","MAREA":" ","LANE":"２５１巷","ALLEY":" ","HOUSE_NO":"６號","E_COORD97":167523.85000000001,"N_COORD97":2547420.6200000001,"ADDRESS":"安富街２５１巷６號","OBJECTID":373556},"geometry":{"x":167523.8499999987,"y":2547420.620000001}},{"attributes":{"ID":373567,"DIS_CODE":0,"TOWNNAME":"安南區","LI":"安富里","LIN":"10鄰","STREET":"安富街","SECT":" ","MAREA":" ","LANE":"２５１巷","ALLEY":" ","HOUSE_NO":"２號","E_COORD97":167522.34,"N_COORD97":2547429.71,"ADDRESS":"安富街２５１巷２號","OBJECTID":373557},"geometry":{"x":167522.33999999985,"y":2547429.7100000009}},{"attributes":{"ID":373568,"DIS_CODE":0,"TOWNNAME":"安南區","LI":"安慶里","LIN":"10鄰","STREET":"長溪路","SECT":"一段","MAREA":" ","LANE":"３４１巷","ALLEY":" ","HOUSE_NO":"３５號","E_COORD97":168712.64000000001,"N_COORD97":2548724.52,"ADDRESS":"長溪路一段３４１巷３５號","OBJECTID":373558},"geometry":{"x":168712.6400000006,"y":2548724.5199999996}},{"attributes":{"ID":373569,"DIS_CODE":0,"TOWNNAME":"安南區","LI":"學東里","LIN":"10鄰","STREET":"公學路","SECT":"六段","MAREA":" ","LANE":"６４２巷","ALLEY":" ","HOUSE_NO":"４５號之１","E_COORD97":162280.42999999999,"N_COORD97":2553351.02,"ADDRESS":"公學路六段６４２巷４５號之１","OBJECTID":373559},"geometry":{"x":162280.43000000156,"y":2553351.0200000014}},{"attributes":{"ID":373570,"DIS_CODE":0,"TOWNNAME":"安南區","LI":"新順里","LIN":"10鄰","STREET":"政安路","SECT":" ","MAREA":" ","LANE":"１４９巷","ALLEY":" ","HOUSE_NO":"８號","E_COORD97":170364.01000000001,"N_COORD97":2549052.8900000001,"ADDRESS":"政安路１４９巷８號","OBJECTID":373560},"geometry":{"x":170364.00999999978,"y":2549052.8900000006}},{"attributes":{"ID":373571,"DIS_CODE":0,"TOWNNAME":"中西區","LI":"公正里","LIN":"10鄰","STREET":"西華南街","SECT":" ","MAREA":" ","LANE":"３６巷","ALLEY":" ","HOUSE_NO":"１２號","E_COORD97":168986.19,"N_COORD97":2543804,"ADDRESS":"西華南街３６巷１２號","OBJECTID":373561},"geometry":{"x":168986.19000000134,"y":2543804.0000000037}},{"attributes":{"ID":373572,"DIS_CODE":0,"TOWNNAME":"中西區","LI":"公正里","LIN":"10鄰","STREET":"西華南街","SECT":" ","MAREA":" ","LANE":"４５巷","ALLEY":" ","HOUSE_NO":"１１號","E_COORD97":168911.92999999999,"N_COORD97":2543843.6099999999,"ADDRESS":"西華南街４５巷１１號","OBJECTID":373562},"geometry":{"x":168911.93000000156,"y":2543843.6100000013}},{"attributes":{"ID":373573,"DIS_CODE":0,"TOWNNAME":"中西區","LI":"公正里","LIN":"10鄰","STREET":"西華南街","SECT":" ","MAREA":" ","LANE":"４５巷","ALLEY":" ","HOUSE_NO":"１３號","E_COORD97":168906.01000000001,"N_COORD97":2543844.6699999999,"ADDRESS":"西華南街４５巷１３號","OBJECTID":373563},"geometry":{"x":168906.00999999978,"y":2543844.6700000018}},{"attributes":{"ID":373574,"DIS_CODE":0,"TOWNNAME":"中西區","LI":"公正里","LIN":"10鄰","STREET":"西華南街","SECT":" ","MAREA":" ","LANE":"４５巷","ALLEY":" ","HOUSE_NO":"１號","E_COORD97":168937.26999999999,"N_COORD97":2543837.7000000002,"ADDRESS":"西華南街４５巷１號","OBJECTID":373564},"geometry":{"x":168937.27000000048,"y":2543837.6999999993}},{"attributes":{"ID":373575,"DIS_CODE":0,"TOWNNAME":"中西區","LI":"公正里","LIN":"10鄰","STREET":"西華南街","SECT":" ","MAREA":" ","LANE":"４５巷","ALLEY":" ","HOUSE_NO":"５號","E_COORD97":168922.35000000001,"N_COORD97":2543842.46,"ADDRESS":"西華南街４５巷５號","OBJECTID":373565},"geometry":{"x":168922.34999999963,"y":2543842.4600000046}},{"attributes":{"ID":373576,"DIS_CODE":0,"TOWNNAME":"中西區","LI":"公正里","LIN":"10鄰","STREET":"西華南街","SECT":" ","MAREA":" ","LANE":"４５巷","ALLEY":" ","HOUSE_NO":"９號","E_COORD97":168917.39999999999,"N_COORD97":2543843.0800000001,"ADDRESS":"西華南街４５巷９號","OBJECTID":373566},"geometry":{"x":168917.40000000037,"y":2543843.0800000001}},{"attributes":{"ID":373577,"DIS_CODE":0,"TOWNNAME":"安南區","LI":"海東里","LIN":"10鄰","STREET":"海佃路","SECT":"二段","MAREA":" ","LANE":"４１７巷","ALLEY":" ","HOUSE_NO":"１２號","E_COORD97":166671.54000000001,"N_COORD97":2548982.52,"ADDRESS":"海佃路二段４１７巷１２號","OBJECTID":373567},"geometry":{"x":166671.54000000004,"y":2548982.5199999996}},{"attributes":{"ID":373578,"DIS_CODE":0,"TOWNNAME":"安南區","LI":"海東里","LIN":"10鄰","STREET":"海佃路","SECT":"二段","MAREA":" ","LANE":"４６１巷","ALLEY":" ","HOUSE_NO":"１７號","E_COORD97":166657.13,"N_COORD97":2549056.4500000002,"ADDRESS":"海佃路二段４６１巷１７號","OBJECTID":373568},"geometry":{"x":166657.12999999989,"y":2549056.4500000011}},{"attributes":{"ID":373579,"DIS_CODE":0,"TOWNNAME":"安南區","LI":"海南里","LIN":"10鄰","STREET":"府安路","SECT":"七段","MAREA":" ","LANE":"１巷","ALLEY":" ","HOUSE_NO":"３號","E_COORD97":166131.87,"N_COORD97":2546071,"ADDRESS":"府安路七段１巷３號","OBJECTID":373569},"geometry":{"x":166131.87000000011,"y":2546071}},{"attributes":{"ID":373580,"DIS_CODE":0,"TOWNNAME":"安南區","LI":"梅花里","LIN":"10鄰","STREET":"安中路","SECT":"一段","MAREA":" ","LANE":"７０１巷","ALLEY":" ","HOUSE_NO":"４４號","E_COORD97":167471.98999999999,"N_COORD97":2549125.0099999998,"ADDRESS":"安中路一段７０１巷４４號","OBJECTID":373570},"geometry":{"x":167471.99000000022,"y":2549125.0099999998}},{"attributes":{"ID":373581,"DIS_CODE":0,"TOWNNAME":"安南區","LI":"淵中里","LIN":"10鄰","STREET":"本原街","SECT":"三段","MAREA":" ","LANE":"２５８巷","ALLEY":" ","HOUSE_NO":"１６號","E_COORD97":165286.89000000001,"N_COORD97":2550233.9300000002,"ADDRESS":"本原街三段２５８巷１６號","OBJECTID":373571},"geometry":{"x":165286.8900000006,"y":2550233.9299999997}},{"attributes":{"ID":373582,"DIS_CODE":0,"TOWNNAME":"安南區","LI":"淵東里","LIN":"10鄰","STREET":"安中路","SECT":"三段","MAREA":" ","LANE":"４００巷","ALLEY":" ","HOUSE_NO":"１２０號","E_COORD97":165510.89999999999,"N_COORD97":2550150.5299999998,"ADDRESS":"安中路三段４００巷１２０號","OBJECTID":373572},"geometry":{"x":165510.9000000013,"y":2550150.5300000012}},{"attributes":{"ID":373583,"DIS_CODE":0,"TOWNNAME":"安南區","LI":"淵東里","LIN":"10鄰","STREET":"安中路","SECT":"三段","MAREA":" ","LANE":"４００巷","ALLEY":" ","HOUSE_NO":"１１８號","E_COORD97":165515.92999999999,"N_COORD97":2550163.2200000002,"ADDRESS":"安中路三段４００巷１１８號","OBJECTID":373573},"geometry":{"x":165515.9299999997,"y":2550163.2199999988}},{"attributes":{"ID":373584,"DIS_CODE":0,"TOWNNAME":"安南區","LI":"淵東里","LIN":"10鄰","STREET":"安中路","SECT":"三段","MAREA":" ","LANE":"４００巷","ALLEY":" ","HOUSE_NO":"１３號","E_COORD97":165430.94,"N_COORD97":2550059.0899999999,"ADDRESS":"安中路三段４００巷１３號","OBJECTID":373574},"geometry":{"x":165430.94000000134,"y":2550059.0900000017}},{"attributes":{"ID":373585,"DIS_CODE":0,"TOWNNAME":"安南區","LI":"淵東里","LIN":"10鄰","STREET":"安中路","SECT":"三段","MAREA":" ","LANE":"４００巷","ALLEY":" ","HOUSE_NO":"１５號","E_COORD97":165389.19,"N_COORD97":2550084.79,"ADDRESS":"安中路三段４００巷１５號","OBJECTID":373575},"geometry":{"x":165389.19000000041,"y":2550084.790000001}},{"attributes":{"ID":373586,"DIS_CODE":0,"TOWNNAME":"安南區","LI":"淵東里","LIN":"10鄰","STREET":"安中路","SECT":"三段","MAREA":" ","LANE":"４００巷","ALLEY":" ","HOUSE_NO":"３３號","E_COORD97":165431.32000000001,"N_COORD97":2550111.6099999999,"ADDRESS":"安中路三段４００巷３３號","OBJECTID":373576},"geometry":{"x":165431.32000000216,"y":2550111.6099999994}},{"attributes":{"ID":373587,"DIS_CODE":0,"TOWNNAME":"安南區","LI":"淵東里","LIN":"10鄰","STREET":"本原街","SECT":"三段","MAREA":" ","LANE":"３２１巷","ALLEY":" ","HOUSE_NO":"６６號","E_COORD97":165460.42999999999,"N_COORD97":2550186,"ADDRESS":"本原街三段３２１巷６６號","OBJECTID":373577},"geometry":{"x":165460.43000000156,"y":2550186.0000000019}},{"attributes":{"ID":373588,"DIS_CODE":0,"TOWNNAME":"安南區","LI":"新順里","LIN":"10鄰","STREET":"政安路","SECT":" ","MAREA":" ","LANE":"５７巷","ALLEY":" ","HOUSE_NO":"１號","E_COORD97":169914.13,"N_COORD97":2549104.6800000002,"ADDRESS":"政安路５７巷１號","OBJECTID":373578},"geometry":{"x":169914.12999999989,"y":2549104.6799999978}},{"attributes":{"ID":373589,"DIS_CODE":0,"TOWNNAME":"安南區","LI":"新順里","LIN":"10鄰","STREET":"政安路","SECT":" ","MAREA":" ","LANE":"５７巷","ALLEY":" ","HOUSE_NO":"３號","E_COORD97":169908.20999999999,"N_COORD97":2549123.7999999998,"ADDRESS":"政安路５７巷３號","OBJECTID":373579},"geometry":{"x":169908.20999999996,"y":2549123.8000000026}},{"attributes":{"ID":373590,"DIS_CODE":0,"TOWNNAME":"安南區","LI":"新順里","LIN":"10鄰","STREET":"安和路","SECT":"二段","MAREA":" ","LANE":"２８５巷","ALLEY":" ","HOUSE_NO":"３號","E_COORD97":169660.81,"N_COORD97":2549251.7400000002,"ADDRESS":"安和路二段２８５巷３號","OBJECTID":373580},"geometry":{"x":169660.81000000052,"y":2549251.7400000021}},{"attributes":{"ID":373591,"DIS_CODE":0,"TOWNNAME":"安南區","LI":"新順里","LIN":"10鄰","STREET":"安和路","SECT":"二段","MAREA":" ","LANE":"３１８巷","ALLEY":" ","HOUSE_NO":"３０號","E_COORD97":169819.57000000001,"N_COORD97":2549280.6699999999,"ADDRESS":"安和路二段３１８巷３０號","OBJECTID":373581},"geometry":{"x":169819.5700000003,"y":2549280.6699999999}},{"attributes":{"ID":373592,"DIS_CODE":0,"TOWNNAME":"東區","LI":"關聖里","LIN":"10鄰","STREET":"裕農路","SECT":" ","MAREA":" ","LANE":"７２６巷","ALLEY":" ","HOUSE_NO":"２１號","E_COORD97":171889.42999999999,"N_COORD97":2543067.5,"ADDRESS":"裕農路７２６巷２１號","OBJECTID":373582},"geometry":{"x":171889.43000000063,"y":2543067.5}},{"attributes":{"ID":373593,"DIS_CODE":0,"TOWNNAME":"東區","LI":"關聖里","LIN":"10鄰","STREET":"裕農路","SECT":" ","MAREA":" ","LANE":"７２６巷","ALLEY":" ","HOUSE_NO":"２３號","E_COORD97":171890.04000000001,"N_COORD97":2543058.0299999998,"ADDRESS":"裕農路７２６巷２３號","OBJECTID":373583},"geometry":{"x":171890.0400000019,"y":2543058.0300000012}},{"attributes":{"ID":373594,"DIS_CODE":0,"TOWNNAME":"東區","LI":"關聖里","LIN":"10鄰","STREET":"裕農路","SECT":" ","MAREA":" ","LANE":"７２６巷","ALLEY":" ","HOUSE_NO":"３５號","E_COORD97":171892.53,"N_COORD97":2543024.0299999998,"ADDRESS":"裕農路７２６巷３５號","OBJECTID":373584},"geometry":{"x":171892.53000000119,"y":2543024.0300000012}},{"attributes":{"ID":373595,"DIS_CODE":0,"TOWNNAME":"東區","LI":"關聖里","LIN":"10鄰","STREET":"裕農路","SECT":" ","MAREA":" ","LANE":"７２６巷","ALLEY":" ","HOUSE_NO":"３７號","E_COORD97":171892.29999999999,"N_COORD97":2543020.29,"ADDRESS":"裕農路７２６巷３７號","OBJECTID":373585},"geometry":{"x":171892.29999999981,"y":2543020.2899999991}},{"attributes":{"ID":373596,"DIS_CODE":0,"TOWNNAME":"東區","LI":"關聖里","LIN":"10鄰","STREET":"裕農路","SECT":" ","MAREA":" ","LANE":"７２６巷","ALLEY":" ","HOUSE_NO":"３９號","E_COORD97":171892.88,"N_COORD97":2543016.0800000001,"ADDRESS":"裕農路７２６巷３９號","OBJECTID":373586},"geometry":{"x":171892.88000000082,"y":2543016.0800000001}},{"attributes":{"ID":373597,"DIS_CODE":0,"TOWNNAME":"東區","LI":"關聖里","LIN":"10鄰","STREET":"裕農路","SECT":" ","MAREA":" ","LANE":"７２６巷","ALLEY":" ","HOUSE_NO":"４１號","E_COORD97":171892.88,"N_COORD97":2543012.3300000001,"ADDRESS":"裕農路７２６巷４１號","OBJECTID":373587},"geometry":{"x":171892.88000000082,"y":2543012.3300000019}},{"attributes":{"ID":373598,"DIS_CODE":0,"TOWNNAME":"東區","LI":"關聖里","LIN":"10鄰","STREET":"裕農路","SECT":" ","MAREA":" ","LANE":"７２６巷","ALLEY":" ","HOUSE_NO":"４３號","E_COORD97":171892.29999999999,"N_COORD97":2543008.2400000002,"ADDRESS":"裕農路７２６巷４３號","OBJECTID":373588},"geometry":{"x":171892.29999999981,"y":2543008.2400000002}},{"attributes":{"ID":373599,"DIS_CODE":0,"TOWNNAME":"東區","LI":"關聖里","LIN":"10鄰","STREET":"裕農路","SECT":" ","MAREA":" ","LANE":"７２６巷","ALLEY":" ","HOUSE_NO":"４５號","E_COORD97":171892.17000000001,"N_COORD97":2543004.25,"ADDRESS":"裕農路７２６巷４５號","OBJECTID":373589},"geometry":{"x":171892.16999999993,"y":2543004.25}},{"attributes":{"ID":373600,"DIS_CODE":0,"TOWNNAME":"東區","LI":"關聖里","LIN":"10鄰","STREET":"裕農路","SECT":" ","MAREA":" ","LANE":"７２６巷","ALLEY":" ","HOUSE_NO":"４７號","E_COORD97":171892.04000000001,"N_COORD97":2543000.23,"ADDRESS":"裕農路７２６巷４７號","OBJECTID":373590},"geometry":{"x":171892.04000000097,"y":2543000.2300000023}},{"attributes":{"ID":373601,"DIS_CODE":0,"TOWNNAME":"東區","LI":"關聖里","LIN":"10鄰","STREET":"裕農路","SECT":" ","MAREA":" ","LANE":"７２６巷","ALLEY":" ","HOUSE_NO":"４９號","E_COORD97":171891.76999999999,"N_COORD97":2542996.4700000002,"ADDRESS":"裕農路７２６巷４９號","OBJECTID":373591},"geometry":{"x":171891.77000000048,"y":2542996.4700000007}},{"attributes":{"ID":373602,"DIS_CODE":0,"TOWNNAME":"東區","LI":"關聖里","LIN":"10鄰","STREET":"裕農路","SECT":" ","MAREA":" ","LANE":"７２６巷","ALLEY":" ","HOUSE_NO":"５１號","E_COORD97":171891.76999999999,"N_COORD97":2542992.1699999999,"ADDRESS":"裕農路７２６巷５１號","OBJECTID":373592},"geometry":{"x":171891.77000000048,"y":2542992.1699999981}},{"attributes":{"ID":373603,"DIS_CODE":0,"TOWNNAME":"東區","LI":"關聖里","LIN":"10鄰","STREET":"裕農路","SECT":" ","MAREA":" ","LANE":"７２６巷","ALLEY":" ","HOUSE_NO":"５３號","E_COORD97":171891.37,"N_COORD97":2542988.4199999999,"ADDRESS":"裕農路７２６巷５３號","OBJECTID":373593},"geometry":{"x":171891.37000000104,"y":2542988.4200000018}},{"attributes":{"ID":373604,"DIS_CODE":0,"TOWNNAME":"東區","LI":"關聖里","LIN":"10鄰","STREET":"裕農路","SECT":" ","MAREA":" ","LANE":"７２６巷","ALLEY":" ","HOUSE_NO":"５５號","E_COORD97":171890.82999999999,"N_COORD97":2542984.52,"ADDRESS":"裕農路７２６巷５５號","OBJECTID":373594},"geometry":{"x":171890.83000000007,"y":2542984.5199999996}},{"attributes":{"ID":373605,"DIS_CODE":0,"TOWNNAME":"東區","LI":"關聖里","LIN":"10鄰","STREET":"裕農路","SECT":" ","MAREA":" ","LANE":"７２６巷","ALLEY":" ","HOUSE_NO":"５７號","E_COORD97":171891.5,"N_COORD97":2542980.77,"ADDRESS":"裕農路７２６巷５７號","OBJECTID":373595},"geometry":{"x":171891.5,"y":2542980.7699999996}},{"attributes":{"ID":373606,"DIS_CODE":0,"TOWNNAME":"東區","LI":"關聖里","LIN":"10鄰","STREET":"裕農路","SECT":" ","MAREA":" ","LANE":"７２６巷","ALLEY":" ","HOUSE_NO":"５９號","E_COORD97":171891.10000000001,"N_COORD97":2542976.3399999999,"ADDRESS":"裕農路７２６巷５９號","OBJECTID":373596},"geometry":{"x":171891.10000000056,"y":2542976.3399999999}},{"attributes":{"ID":373607,"DIS_CODE":0,"TOWNNAME":"東區","LI":"關聖里","LIN":"10鄰","STREET":"裕農路","SECT":" ","MAREA":" ","LANE":"７２６巷","ALLEY":" ","HOUSE_NO":"６１號","E_COORD97":171891.5,"N_COORD97":2542972.04,"ADDRESS":"裕農路７２６巷６１號","OBJECTID":373597},"geometry":{"x":171891.5,"y":2542972.0400000028}},{"attributes":{"ID":373608,"DIS_CODE":0,"TOWNNAME":"東區","LI":"關聖里","LIN":"10鄰","STREET":"裕農路","SECT":" ","MAREA":" ","LANE":"７２６巷","ALLEY":" ","HOUSE_NO":"６３號","E_COORD97":171891.37,"N_COORD97":2542968.2799999998,"ADDRESS":"裕農路７２６巷６３號","OBJECTID":373598},"geometry":{"x":171891.37000000104,"y":2542968.2800000012}},{"attributes":{"ID":373609,"DIS_CODE":0,"TOWNNAME":"東區","LI":"關聖里","LIN":"10鄰","STREET":"裕農路","SECT":" ","MAREA":" ","LANE":"７２６巷","ALLEY":" ","HOUSE_NO":"６５號","E_COORD97":171890.42999999999,"N_COORD97":2542964.2599999998,"ADDRESS":"裕農路７２６巷６５號","OBJECTID":373599},"geometry":{"x":171890.43000000156,"y":2542964.2599999979}},{"attributes":{"ID":373610,"DIS_CODE":0,"TOWNNAME":"東區","LI":"關聖里","LIN":"10鄰","STREET":"裕農路","SECT":" ","MAREA":" ","LANE":"７２６巷","ALLEY":" ","HOUSE_NO":"６７號","E_COORD97":171889.75,"N_COORD97":2542960.6299999999,"ADDRESS":"裕農路７２６巷６７號","OBJECTID":373600},"geometry":{"x":171889.75,"y":2542960.629999999}}]}