{"displayFieldName":"TOWNNAME","fieldAliases":{"ID":"ID","DIS_CODE":"DIS_CODE","TOWNNAME":"TOWNNAME","LI":"LI","LIN":"LIN","STREET":"STREET","SECT":"SECT","MAREA":"MAREA","LANE":"LANE","ALLEY":"ALLEY","HOUSE_NO":"HOUSE_NO","E_COORD97":"E_COORD97","N_COORD97":"N_COORD97","ADDRESS":"ADDRESS","OBJECTID":"OBJECTID"},"geometryType":"esriGeometryPoint","spatialReference":{"wkid":102443,"latestWkid":3826},"fields":[{"name":"ID","type":"esriFieldTypeDouble","alias":"ID"},{"name":"DIS_CODE","type":"esriFieldTypeInteger","alias":"DIS_CODE"},{"name":"TOWNNAME","type":"esriFieldTypeString","alias":"TOWNNAME","length":8},{"name":"LI","type":"esriFieldTypeString","alias":"LI","length":8},{"name":"LIN","type":"esriFieldTypeString","alias":"LIN","length":12},{"name":"STREET","type":"esriFieldTypeString","alias":"STREET","length":20},{"name":"SECT","type":"esriFieldTypeString","alias":"SECT","length":8},{"name":"MAREA","type":"esriFieldTypeString","alias":"MAREA","length":12},{"name":"LANE","type":"esriFieldTypeString","alias":"LANE","length":10},{"name":"ALLEY","type":"esriFieldTypeString","alias":"ALLEY","length":10},{"name":"HOUSE_NO","type":"esriFieldTypeString","alias":"HOUSE_NO","length":20},{"name":"E_COORD97","type":"esriFieldTypeDouble","alias":"E_COORD97"},{"name":"N_COORD97","type":"esriFieldTypeDouble","alias":"N_COORD97"},{"name":"ADDRESS","type":"esriFieldTypeString","alias":"ADDRESS","length":50},{"name":"OBJECTID","type":"esriFieldTypeOID","alias":"OBJECTID"}],"features":[{"attributes":{"ID":500628,"DIS_CODE":0,"TOWNNAME":"永康區","LI":"東橋里","LIN":"15鄰","STREET":"東橋二街","SECT":" ","MAREA":" ","LANE":" ","ALLEY":" ","HOUSE_NO":"１２５號","E_COORD97":171861.14000000001,"N_COORD97":2546589.7400000002,"ADDRESS":"東橋二街１２５號","OBJECTID":500601},"geometry":{"x":171861.13999999966,"y":2546589.7400000021}},{"attributes":{"ID":500629,"DIS_CODE":0,"TOWNNAME":"永康區","LI":"東橋里","LIN":"15鄰","STREET":"東橋二街","SECT":" ","MAREA":" ","LANE":" ","ALLEY":" ","HOUSE_NO":"１２７號","E_COORD97":171866.20000000001,"N_COORD97":2546593.5,"ADDRESS":"東橋二街１２７號","OBJECTID":500602},"geometry":{"x":171866.20000000019,"y":2546593.5}},{"attributes":{"ID":500630,"DIS_CODE":0,"TOWNNAME":"東區","LI":"德高里","LIN":"15鄰","STREET":"崇善路","SECT":" ","MAREA":" ","LANE":" ","ALLEY":" ","HOUSE_NO":"８３３號","E_COORD97":171290.17999999999,"N_COORD97":2540839.5899999999,"ADDRESS":"崇善路８３３號","OBJECTID":500603},"geometry":{"x":171290.18000000156,"y":2540839.5899999999}},{"attributes":{"ID":500631,"DIS_CODE":0,"TOWNNAME":"東區","LI":"德高里","LIN":"15鄰","STREET":"崇善東路","SECT":" ","MAREA":" ","LANE":" ","ALLEY":" ","HOUSE_NO":"６號","E_COORD97":171296.59,"N_COORD97":2540847.0899999999,"ADDRESS":"崇善東路６號","OBJECTID":500604},"geometry":{"x":171296.59000000078,"y":2540847.0900000017}},{"attributes":{"ID":500632,"DIS_CODE":0,"TOWNNAME":"東區","LI":"德高里","LIN":"15鄰","STREET":"崇善東路","SECT":" ","MAREA":" ","LANE":" ","ALLEY":" ","HOUSE_NO":"１０號","E_COORD97":171301.28,"N_COORD97":2540854.2799999998,"ADDRESS":"崇善東路１０號","OBJECTID":500605},"geometry":{"x":171301.28000000026,"y":2540854.2799999993}},{"attributes":{"ID":500633,"DIS_CODE":0,"TOWNNAME":"東區","LI":"德高里","LIN":"15鄰","STREET":"崇善東路","SECT":" ","MAREA":" ","LANE":" ","ALLEY":" ","HOUSE_NO":"１２號","E_COORD97":171302.85000000001,"N_COORD97":2540858.3500000001,"ADDRESS":"崇善東路１２號","OBJECTID":500606},"geometry":{"x":171302.85000000056,"y":2540858.3500000034}},{"attributes":{"ID":500634,"DIS_CODE":0,"TOWNNAME":"東區","LI":"德高里","LIN":"15鄰","STREET":"崇善東路","SECT":" ","MAREA":" ","LANE":" ","ALLEY":" ","HOUSE_NO":"１４號","E_COORD97":171306.13,"N_COORD97":2540861.6299999999,"ADDRESS":"崇善東路１４號","OBJECTID":500607},"geometry":{"x":171306.13000000175,"y":2540861.629999999}},{"attributes":{"ID":500635,"DIS_CODE":0,"TOWNNAME":"東區","LI":"德高里","LIN":"15鄰","STREET":"崇善東路","SECT":" ","MAREA":" ","LANE":" ","ALLEY":" ","HOUSE_NO":"１６號","E_COORD97":171308.79000000001,"N_COORD97":2540864.9100000001,"ADDRESS":"崇善東路１６號","OBJECTID":500608},"geometry":{"x":171308.79000000097,"y":2540864.9099999983}},{"attributes":{"ID":500636,"DIS_CODE":0,"TOWNNAME":"東區","LI":"德高里","LIN":"15鄰","STREET":"崇善東路","SECT":" ","MAREA":" ","LANE":" ","ALLEY":" ","HOUSE_NO":"１８號","E_COORD97":171309.57999999999,"N_COORD97":2540869.29,"ADDRESS":"崇善東路１８號","OBJECTID":500609},"geometry":{"x":171309.58000000007,"y":2540869.290000001}},{"attributes":{"ID":500637,"DIS_CODE":0,"TOWNNAME":"東區","LI":"德高里","LIN":"15鄰","STREET":"崇善東路","SECT":" ","MAREA":" ","LANE":" ","ALLEY":" ","HOUSE_NO":"２２號","E_COORD97":171313.32999999999,"N_COORD97":2540876.48,"ADDRESS":"崇善東路２２號","OBJECTID":500610},"geometry":{"x":171313.33000000194,"y":2540876.4800000023}},{"attributes":{"ID":500638,"DIS_CODE":0,"TOWNNAME":"東區","LI":"德高里","LIN":"15鄰","STREET":"崇善東路","SECT":" ","MAREA":" ","LANE":" ","ALLEY":" ","HOUSE_NO":"２４號","E_COORD97":171315.51999999999,"N_COORD97":2540881.6400000001,"ADDRESS":"崇善東路２４號","OBJECTID":500611},"geometry":{"x":171315.52000000048,"y":2540881.6400000025}},{"attributes":{"ID":500639,"DIS_CODE":0,"TOWNNAME":"東區","LI":"德高里","LIN":"15鄰","STREET":"崇善東路","SECT":" ","MAREA":" ","LANE":" ","ALLEY":" ","HOUSE_NO":"２號","E_COORD97":171293.92999999999,"N_COORD97":2540844.4300000002,"ADDRESS":"崇善東路２號","OBJECTID":500612},"geometry":{"x":171293.93000000063,"y":2540844.4300000034}},{"attributes":{"ID":500640,"DIS_CODE":0,"TOWNNAME":"東區","LI":"德高里","LIN":"15鄰","STREET":"崇善東路","SECT":" ","MAREA":" ","LANE":" ","ALLEY":" ","HOUSE_NO":"４０號","E_COORD97":171337.91,"N_COORD97":2540912.9100000001,"ADDRESS":"崇善東路４０號","OBJECTID":500613},"geometry":{"x":171337.91000000015,"y":2540912.9100000039}},{"attributes":{"ID":500641,"DIS_CODE":0,"TOWNNAME":"東區","LI":"德高里","LIN":"15鄰","STREET":"崇善東路","SECT":" ","MAREA":" ","LANE":" ","ALLEY":" ","HOUSE_NO":"４２號","E_COORD97":171342.45000000001,"N_COORD97":2540915.5699999998,"ADDRESS":"崇善東路４２號","OBJECTID":500614},"geometry":{"x":171342.45000000019,"y":2540915.5700000022}},{"attributes":{"ID":500642,"DIS_CODE":0,"TOWNNAME":"東區","LI":"德高里","LIN":"15鄰","STREET":"崇善東路","SECT":" ","MAREA":" ","LANE":" ","ALLEY":" ","HOUSE_NO":"４６號","E_COORD97":171344.32999999999,"N_COORD97":2540921.8199999998,"ADDRESS":"崇善東路４６號","OBJECTID":500615},"geometry":{"x":171344.33000000101,"y":2540921.8200000022}},{"attributes":{"ID":500643,"DIS_CODE":0,"TOWNNAME":"東區","LI":"德高里","LIN":"15鄰","STREET":"崇善東路","SECT":" ","MAREA":" ","LANE":" ","ALLEY":" ","HOUSE_NO":"４８號","E_COORD97":171346.67000000001,"N_COORD97":2540926.3599999999,"ADDRESS":"崇善東路４８號","OBJECTID":500616},"geometry":{"x":171346.67000000086,"y":2540926.3600000013}},{"attributes":{"ID":500644,"DIS_CODE":0,"TOWNNAME":"東區","LI":"德高里","LIN":"15鄰","STREET":"崇善東路","SECT":" ","MAREA":" ","LANE":" ","ALLEY":" ","HOUSE_NO":"２０號","E_COORD97":171313.48999999999,"N_COORD97":2540871.48,"ADDRESS":"崇善東路２０號","OBJECTID":500617},"geometry":{"x":171313.49000000022,"y":2540871.4800000004}},{"attributes":{"ID":500645,"DIS_CODE":0,"TOWNNAME":"東區","LI":"德高里","LIN":"15鄰","STREET":"德高街","SECT":" ","MAREA":" ","LANE":" ","ALLEY":" ","HOUSE_NO":"１２號","E_COORD97":171370.13,"N_COORD97":2540922.4500000002,"ADDRESS":"德高街１２號","OBJECTID":500618},"geometry":{"x":171370.12999999989,"y":2540922.4500000011}},{"attributes":{"ID":500646,"DIS_CODE":0,"TOWNNAME":"東區","LI":"德高里","LIN":"15鄰","STREET":"德高街","SECT":" ","MAREA":" ","LANE":" ","ALLEY":" ","HOUSE_NO":"１４號","E_COORD97":171372.63,"N_COORD97":2540918.8700000001,"ADDRESS":"德高街１４號","OBJECTID":500619},"geometry":{"x":171372.63000000082,"y":2540918.8700000029}},{"attributes":{"ID":500647,"DIS_CODE":0,"TOWNNAME":"東區","LI":"德高里","LIN":"15鄰","STREET":"德高街","SECT":" ","MAREA":" ","LANE":" ","ALLEY":" ","HOUSE_NO":"１６號","E_COORD97":171374.98000000001,"N_COORD97":2540915.1200000001,"ADDRESS":"德高街１６號","OBJECTID":500620},"geometry":{"x":171374.98000000045,"y":2540915.120000001}},{"attributes":{"ID":500648,"DIS_CODE":0,"TOWNNAME":"東區","LI":"德高里","LIN":"15鄰","STREET":"德高街","SECT":" ","MAREA":" ","LANE":" ","ALLEY":" ","HOUSE_NO":"１８號","E_COORD97":171377.01000000001,"N_COORD97":2540911.3700000001,"ADDRESS":"德高街１８號","OBJECTID":500621},"geometry":{"x":171377.01000000071,"y":2540911.3700000029}},{"attributes":{"ID":500649,"DIS_CODE":0,"TOWNNAME":"東區","LI":"德高里","LIN":"15鄰","STREET":"德高街","SECT":" ","MAREA":" ","LANE":" ","ALLEY":" ","HOUSE_NO":"２０號","E_COORD97":171379.04999999999,"N_COORD97":2540907.6099999999,"ADDRESS":"德高街２０號","OBJECTID":500622},"geometry":{"x":171379.04999999981,"y":2540907.6100000013}},{"attributes":{"ID":500650,"DIS_CODE":0,"TOWNNAME":"東區","LI":"德高里","LIN":"15鄰","STREET":"德高街","SECT":" ","MAREA":" ","LANE":" ","ALLEY":" ","HOUSE_NO":"２２號","E_COORD97":171380.45000000001,"N_COORD97":2540904.02,"ADDRESS":"德高街２２號","OBJECTID":500623},"geometry":{"x":171380.45000000205,"y":2540904.0199999996}},{"attributes":{"ID":500651,"DIS_CODE":0,"TOWNNAME":"東區","LI":"崇善里","LIN":"15鄰","STREET":"崇善路","SECT":" ","MAREA":" ","LANE":" ","ALLEY":" ","HOUSE_NO":"６６５號","E_COORD97":171107.95999999999,"N_COORD97":2541234.9500000002,"ADDRESS":"崇善路６６５號","OBJECTID":500624},"geometry":{"x":171107.96000000089,"y":2541234.9500000011}},{"attributes":{"ID":500652,"DIS_CODE":0,"TOWNNAME":"東區","LI":"崇善里","LIN":"15鄰","STREET":"崇善路","SECT":" ","MAREA":" ","LANE":" ","ALLEY":" ","HOUSE_NO":"６６５之１號","E_COORD97":171108.42999999999,"N_COORD97":2541232.5699999998,"ADDRESS":"崇善路６６５之１號","OBJECTID":500625},"geometry":{"x":171108.4299999997,"y":2541232.5700000003}},{"attributes":{"ID":500653,"DIS_CODE":0,"TOWNNAME":"永康區","LI":"正強里","LIN":"13鄰","STREET":"自強路","SECT":" ","MAREA":" ","LANE":"１８８巷","ALLEY":"１弄","HOUSE_NO":"３號","E_COORD97":173216.73999999999,"N_COORD97":2547514.2400000002,"ADDRESS":"自強路１８８巷１弄３號","OBJECTID":500626},"geometry":{"x":173216.74000000115,"y":2547514.2400000002}},{"attributes":{"ID":500654,"DIS_CODE":0,"TOWNNAME":"中西區","LI":"永福里","LIN":"15鄰","STREET":"民生路","SECT":"一段","MAREA":" ","LANE":" ","ALLEY":" ","HOUSE_NO":"７５號","E_COORD97":168263.34,"N_COORD97":2543762.1099999999,"ADDRESS":"民生路一段７５號","OBJECTID":500627},"geometry":{"x":168263.34000000171,"y":2543762.1100000013}},{"attributes":{"ID":500655,"DIS_CODE":0,"TOWNNAME":"中西區","LI":"萬昌里","LIN":"15鄰","STREET":"青年路","SECT":" ","MAREA":" ","LANE":" ","ALLEY":" ","HOUSE_NO":"９２號","E_COORD97":168835.37,"N_COORD97":2543601.5299999998,"ADDRESS":"青年路９２號","OBJECTID":500628},"geometry":{"x":168835.37000000104,"y":2543601.5299999993}},{"attributes":{"ID":500656,"DIS_CODE":0,"TOWNNAME":"中西區","LI":"萬昌里","LIN":"15鄰","STREET":"民權路","SECT":"一段","MAREA":" ","LANE":" ","ALLEY":" ","HOUSE_NO":"１４４號","E_COORD97":168870.39999999999,"N_COORD97":2543508.46,"ADDRESS":"民權路一段１４４號","OBJECTID":500629},"geometry":{"x":168870.40000000224,"y":2543508.4600000009}},{"attributes":{"ID":500657,"DIS_CODE":0,"TOWNNAME":"中西區","LI":"萬昌里","LIN":"15鄰","STREET":"民權路","SECT":"一段","MAREA":" ","LANE":" ","ALLEY":" ","HOUSE_NO":"１４６號","E_COORD97":168868.22,"N_COORD97":2543511.7999999998,"ADDRESS":"民權路一段１４６號","OBJECTID":500630},"geometry":{"x":168868.22000000067,"y":2543511.8000000026}},{"attributes":{"ID":500658,"DIS_CODE":0,"TOWNNAME":"中西區","LI":"萬昌里","LIN":"15鄰","STREET":"民權路","SECT":"一段","MAREA":" ","LANE":" ","ALLEY":" ","HOUSE_NO":"１４８號","E_COORD97":168865.04999999999,"N_COORD97":2543514.2999999998,"ADDRESS":"民權路一段１４８號","OBJECTID":500631},"geometry":{"x":168865.04999999981,"y":2543514.2999999989}},{"attributes":{"ID":500659,"DIS_CODE":0,"TOWNNAME":"中西區","LI":"萬昌里","LIN":"15鄰","STREET":"民權路","SECT":"一段","MAREA":" ","LANE":" ","ALLEY":" ","HOUSE_NO":"１５４號","E_COORD97":168856.35999999999,"N_COORD97":2543524.1499999999,"ADDRESS":"民權路一段１５４號","OBJECTID":500632},"geometry":{"x":168856.36000000034,"y":2543524.1500000004}},{"attributes":{"ID":500660,"DIS_CODE":0,"TOWNNAME":"中西區","LI":"萬昌里","LIN":"15鄰","STREET":"民權路","SECT":"一段","MAREA":" ","LANE":" ","ALLEY":" ","HOUSE_NO":"１５６號","E_COORD97":168853.69,"N_COORD97":2543526.4900000002,"ADDRESS":"民權路一段１５６號","OBJECTID":500633},"geometry":{"x":168853.69000000134,"y":2543526.4900000021}},{"attributes":{"ID":500661,"DIS_CODE":0,"TOWNNAME":"中西區","LI":"萬昌里","LIN":"15鄰","STREET":"民權路","SECT":"一段","MAREA":" ","LANE":" ","ALLEY":" ","HOUSE_NO":"１５８號","E_COORD97":168850.35000000001,"N_COORD97":2543529.4900000002,"ADDRESS":"民權路一段１５８號","OBJECTID":500634},"geometry":{"x":168850.35000000056,"y":2543529.4900000039}},{"attributes":{"ID":500662,"DIS_CODE":0,"TOWNNAME":"中西區","LI":"萬昌里","LIN":"15鄰","STREET":"民權路","SECT":"一段","MAREA":" ","LANE":" ","ALLEY":" ","HOUSE_NO":"１６０號","E_COORD97":168848.34,"N_COORD97":2543532.8300000001,"ADDRESS":"民權路一段１６０號","OBJECTID":500635},"geometry":{"x":168848.34000000171,"y":2543532.8300000001}},{"attributes":{"ID":500663,"DIS_CODE":0,"TOWNNAME":"中西區","LI":"萬昌里","LIN":"15鄰","STREET":"民權路","SECT":"一段","MAREA":" ","LANE":" ","ALLEY":" ","HOUSE_NO":"１６４號","E_COORD97":168841.48999999999,"N_COORD97":2543540.3399999999,"ADDRESS":"民權路一段１６４號","OBJECTID":500636},"geometry":{"x":168841.49000000115,"y":2543540.3400000036}},{"attributes":{"ID":500664,"DIS_CODE":0,"TOWNNAME":"中西區","LI":"萬昌里","LIN":"15鄰","STREET":"民權路","SECT":"一段","MAREA":" ","LANE":" ","ALLEY":" ","HOUSE_NO":"１６６號","E_COORD97":168838.82000000001,"N_COORD97":2543543.8399999999,"ADDRESS":"民權路一段１６６號","OBJECTID":500637},"geometry":{"x":168838.82000000123,"y":2543543.8400000036}},{"attributes":{"ID":500665,"DIS_CODE":0,"TOWNNAME":"中西區","LI":"萬昌里","LIN":"15鄰","STREET":"民權路","SECT":"一段","MAREA":" ","LANE":" ","ALLEY":" ","HOUSE_NO":"１６８號","E_COORD97":168836.14000000001,"N_COORD97":2543547.1800000002,"ADDRESS":"民權路一段１６８號","OBJECTID":500638},"geometry":{"x":168836.1400000006,"y":2543547.1799999997}},{"attributes":{"ID":500666,"DIS_CODE":0,"TOWNNAME":"中西區","LI":"萬昌里","LIN":"15鄰","STREET":"民權路","SECT":"一段","MAREA":" ","LANE":" ","ALLEY":" ","HOUSE_NO":"１７０號","E_COORD97":168833.39999999999,"N_COORD97":2543551.02,"ADDRESS":"民權路一段１７０號","OBJECTID":500639},"geometry":{"x":168833.4000000013,"y":2543551.0199999996}},{"attributes":{"ID":500667,"DIS_CODE":0,"TOWNNAME":"中西區","LI":"萬昌里","LIN":"15鄰","STREET":"民權路","SECT":"一段","MAREA":" ","LANE":" ","ALLEY":" ","HOUSE_NO":"１７２號","E_COORD97":168830.56,"N_COORD97":2543554.52,"ADDRESS":"民權路一段１７２號","OBJECTID":500640},"geometry":{"x":168830.55999999959,"y":2543554.5199999996}},{"attributes":{"ID":500668,"DIS_CODE":0,"TOWNNAME":"中西區","LI":"萬昌里","LIN":"15鄰","STREET":"民權路","SECT":"一段","MAREA":" ","LANE":" ","ALLEY":" ","HOUSE_NO":"１７４號","E_COORD97":168828.73000000001,"N_COORD97":2543558.1899999999,"ADDRESS":"民權路一段１７４號","OBJECTID":500641},"geometry":{"x":168828.73000000045,"y":2543558.1900000032}},{"attributes":{"ID":500669,"DIS_CODE":0,"TOWNNAME":"中西區","LI":"萬昌里","LIN":"15鄰","STREET":"民權路","SECT":"一段","MAREA":" ","LANE":" ","ALLEY":" ","HOUSE_NO":"１７６號","E_COORD97":168826.22,"N_COORD97":2543561.7000000002,"ADDRESS":"民權路一段１７６號","OBJECTID":500642},"geometry":{"x":168826.21999999974,"y":2543561.7000000011}},{"attributes":{"ID":500670,"DIS_CODE":0,"TOWNNAME":"中西區","LI":"萬昌里","LIN":"15鄰","STREET":"民權路","SECT":"一段","MAREA":" ","LANE":" ","ALLEY":" ","HOUSE_NO":"１７８號","E_COORD97":168823.88,"N_COORD97":2543566.71,"ADDRESS":"民權路一段１７８號","OBJECTID":500643},"geometry":{"x":168823.87999999989,"y":2543566.7100000028}},{"attributes":{"ID":500671,"DIS_CODE":0,"TOWNNAME":"中西區","LI":"萬昌里","LIN":"15鄰","STREET":"民權路","SECT":"一段","MAREA":" ","LANE":" ","ALLEY":" ","HOUSE_NO":"１８０號","E_COORD97":168820.62,"N_COORD97":2543571.0899999999,"ADDRESS":"民權路一段１８０號","OBJECTID":500644},"geometry":{"x":168820.62000000011,"y":2543571.0899999999}},{"attributes":{"ID":500672,"DIS_CODE":0,"TOWNNAME":"中西區","LI":"萬昌里","LIN":"15鄰","STREET":"民權路","SECT":"一段","MAREA":" ","LANE":" ","ALLEY":" ","HOUSE_NO":"１８２號","E_COORD97":168818.73999999999,"N_COORD97":2543575.1899999999,"ADDRESS":"民權路一段１８２號","OBJECTID":500645},"geometry":{"x":168818.74000000209,"y":2543575.1900000013}},{"attributes":{"ID":500673,"DIS_CODE":0,"TOWNNAME":"中西區","LI":"萬昌里","LIN":"15鄰","STREET":"民權路","SECT":"一段","MAREA":" ","LANE":" ","ALLEY":" ","HOUSE_NO":"１８４號","E_COORD97":168816.54000000001,"N_COORD97":2543578.5,"ADDRESS":"民權路一段１８４號","OBJECTID":500646},"geometry":{"x":168816.5400000019,"y":2543578.5}},{"attributes":{"ID":500674,"DIS_CODE":0,"TOWNNAME":"中西區","LI":"萬昌里","LIN":"15鄰","STREET":"民權路","SECT":"一段","MAREA":" ","LANE":" ","ALLEY":" ","HOUSE_NO":"１８８號","E_COORD97":168815.32000000001,"N_COORD97":2543581.48,"ADDRESS":"民權路一段１８８號","OBJECTID":500647},"geometry":{"x":168815.32000000123,"y":2543581.4800000023}},{"attributes":{"ID":500675,"DIS_CODE":0,"TOWNNAME":"中西區","LI":"萬昌里","LIN":"15鄰","STREET":"民權路","SECT":"一段","MAREA":" ","LANE":" ","ALLEY":" ","HOUSE_NO":"１９０號","E_COORD97":168813.67000000001,"N_COORD97":2543585,"ADDRESS":"民權路一段１９０號","OBJECTID":500648},"geometry":{"x":168813.66999999993,"y":2543585.0000000019}},{"attributes":{"ID":500676,"DIS_CODE":0,"TOWNNAME":"西港區","LI":"西港里","LIN":"20鄰","STREET":"中山路","SECT":" ","MAREA":" ","LANE":" ","ALLEY":" ","HOUSE_NO":"１０４號","E_COORD97":168473.69,"N_COORD97":2557533.29,"ADDRESS":"中山路１０４號","OBJECTID":500649},"geometry":{"x":168473.69000000134,"y":2557533.290000001}},{"attributes":{"ID":500677,"DIS_CODE":0,"TOWNNAME":"西港區","LI":"西港里","LIN":"20鄰","STREET":"中山路","SECT":" ","MAREA":" ","LANE":" ","ALLEY":" ","HOUSE_NO":"１０６號","E_COORD97":168472.64000000001,"N_COORD97":2557537.9199999999,"ADDRESS":"中山路１０６號","OBJECTID":500650},"geometry":{"x":168472.63999999966,"y":2557537.9199999999}},{"attributes":{"ID":500678,"DIS_CODE":0,"TOWNNAME":"西港區","LI":"西港里","LIN":"20鄰","STREET":"中山路","SECT":" ","MAREA":" ","LANE":" ","ALLEY":" ","HOUSE_NO":"１０８號","E_COORD97":168474.23000000001,"N_COORD97":2557543.3500000001,"ADDRESS":"中山路１０８號","OBJECTID":500651},"geometry":{"x":168474.23000000045,"y":2557543.3500000015}},{"attributes":{"ID":500679,"DIS_CODE":0,"TOWNNAME":"西港區","LI":"西港里","LIN":"20鄰","STREET":"中山路","SECT":" ","MAREA":" ","LANE":" ","ALLEY":" ","HOUSE_NO":"１１４號","E_COORD97":168473.70999999999,"N_COORD97":2557553.6600000001,"ADDRESS":"中山路１１４號","OBJECTID":500652},"geometry":{"x":168473.71000000089,"y":2557553.6600000001}},{"attributes":{"ID":500680,"DIS_CODE":0,"TOWNNAME":"西港區","LI":"西港里","LIN":"20鄰","STREET":"中山路","SECT":" ","MAREA":" ","LANE":" ","ALLEY":" ","HOUSE_NO":"１１６號","E_COORD97":168473.42000000001,"N_COORD97":2557557.52,"ADDRESS":"中山路１１６號","OBJECTID":500653},"geometry":{"x":168473.42000000086,"y":2557557.5199999996}},{"attributes":{"ID":500681,"DIS_CODE":0,"TOWNNAME":"西港區","LI":"西港里","LIN":"20鄰","STREET":"中山路","SECT":" ","MAREA":" ","LANE":" ","ALLEY":" ","HOUSE_NO":"１２０號","E_COORD97":168472.10999999999,"N_COORD97":2557565.5299999998,"ADDRESS":"中山路１２０號","OBJECTID":500654},"geometry":{"x":168472.11000000034,"y":2557565.5300000012}},{"attributes":{"ID":500682,"DIS_CODE":0,"TOWNNAME":"西港區","LI":"西港里","LIN":"20鄰","STREET":"中山路","SECT":" ","MAREA":" ","LANE":" ","ALLEY":" ","HOUSE_NO":"１２２號","E_COORD97":168471.75,"N_COORD97":2557569.2400000002,"ADDRESS":"中山路１２２號","OBJECTID":500655},"geometry":{"x":168471.75000000093,"y":2557569.2400000002}},{"attributes":{"ID":500683,"DIS_CODE":0,"TOWNNAME":"西港區","LI":"西港里","LIN":"20鄰","STREET":"中山路","SECT":" ","MAREA":" ","LANE":" ","ALLEY":" ","HOUSE_NO":"１３０號","E_COORD97":168469.79999999999,"N_COORD97":2557584.7599999998,"ADDRESS":"中山路１３０號","OBJECTID":500656},"geometry":{"x":168469.79999999981,"y":2557584.7600000016}},{"attributes":{"ID":500684,"DIS_CODE":0,"TOWNNAME":"西港區","LI":"西港里","LIN":"20鄰","STREET":"中山路","SECT":" ","MAREA":" ","LANE":" ","ALLEY":" ","HOUSE_NO":"１３２號","E_COORD97":168469.41,"N_COORD97":2557588.4199999999,"ADDRESS":"中山路１３２號","OBJECTID":500657},"geometry":{"x":168469.41000000015,"y":2557588.4199999999}},{"attributes":{"ID":500685,"DIS_CODE":0,"TOWNNAME":"西港區","LI":"西港里","LIN":"20鄰","STREET":"中山路","SECT":" ","MAREA":" ","LANE":" ","ALLEY":" ","HOUSE_NO":"１３４號","E_COORD97":168468.94,"N_COORD97":2557592.3999999999,"ADDRESS":"中山路１３４號","OBJECTID":500658},"geometry":{"x":168468.94000000134,"y":2557592.4000000004}},{"attributes":{"ID":500686,"DIS_CODE":0,"TOWNNAME":"西港區","LI":"西港里","LIN":"20鄰","STREET":"中山路","SECT":" ","MAREA":" ","LANE":" ","ALLEY":" ","HOUSE_NO":"１３６號","E_COORD97":168468.5,"N_COORD97":2557596.4300000002,"ADDRESS":"中山路１３６號","OBJECTID":500659},"geometry":{"x":168468.5,"y":2557596.4300000016}},{"attributes":{"ID":500687,"DIS_CODE":0,"TOWNNAME":"西港區","LI":"西港里","LIN":"20鄰","STREET":"中山路","SECT":" ","MAREA":" ","LANE":" ","ALLEY":" ","HOUSE_NO":"１３８號","E_COORD97":168467.76000000001,"N_COORD97":2557600.4700000002,"ADDRESS":"中山路１３８號","OBJECTID":500660},"geometry":{"x":168467.76000000071,"y":2557600.4700000044}},{"attributes":{"ID":500688,"DIS_CODE":0,"TOWNNAME":"西港區","LI":"西港里","LIN":"20鄰","STREET":"中山路","SECT":" ","MAREA":" ","LANE":" ","ALLEY":" ","HOUSE_NO":"１４４號","E_COORD97":168466.57999999999,"N_COORD97":2557612.3900000001,"ADDRESS":"中山路１４４號","OBJECTID":500661},"geometry":{"x":168466.58000000007,"y":2557612.3900000025}},{"attributes":{"ID":500689,"DIS_CODE":0,"TOWNNAME":"西港區","LI":"西港里","LIN":"20鄰","STREET":"中山路","SECT":" ","MAREA":" ","LANE":" ","ALLEY":" ","HOUSE_NO":"１４６號","E_COORD97":168466.39000000001,"N_COORD97":2557616.5600000001,"ADDRESS":"中山路１４６號","OBJECTID":500662},"geometry":{"x":168466.39000000153,"y":2557616.5600000042}},{"attributes":{"ID":500690,"DIS_CODE":0,"TOWNNAME":"西港區","LI":"西港里","LIN":"20鄰","STREET":"中山路","SECT":" ","MAREA":" ","LANE":" ","ALLEY":" ","HOUSE_NO":"１４８號","E_COORD97":168465.78,"N_COORD97":2557620.3900000001,"ADDRESS":"中山路１４８號","OBJECTID":500663},"geometry":{"x":168465.78000000026,"y":2557620.3900000006}},{"attributes":{"ID":500691,"DIS_CODE":0,"TOWNNAME":"西港區","LI":"西港里","LIN":"20鄰","STREET":"中山路","SECT":" ","MAREA":" ","LANE":" ","ALLEY":" ","HOUSE_NO":"１５０號","E_COORD97":168465.19,"N_COORD97":2557623.9900000002,"ADDRESS":"中山路１５０號","OBJECTID":500664},"geometry":{"x":168465.19000000134,"y":2557623.9900000021}},{"attributes":{"ID":500692,"DIS_CODE":0,"TOWNNAME":"西港區","LI":"西港里","LIN":"20鄰","STREET":"中山路","SECT":" ","MAREA":" ","LANE":" ","ALLEY":" ","HOUSE_NO":"１５２號","E_COORD97":168465,"N_COORD97":2557628.23,"ADDRESS":"中山路１５２號","OBJECTID":500665},"geometry":{"x":168465.00000000093,"y":2557628.2300000004}},{"attributes":{"ID":500693,"DIS_CODE":0,"TOWNNAME":"西港區","LI":"西港里","LIN":"20鄰","STREET":"中山路","SECT":" ","MAREA":" ","LANE":" ","ALLEY":" ","HOUSE_NO":"１５４號","E_COORD97":168464.82000000001,"N_COORD97":2557632.0499999998,"ADDRESS":"中山路１５４號","OBJECTID":500666},"geometry":{"x":168464.82000000123,"y":2557632.0500000007}},{"attributes":{"ID":500694,"DIS_CODE":0,"TOWNNAME":"西港區","LI":"西港里","LIN":"20鄰","STREET":"中山路","SECT":" ","MAREA":" ","LANE":" ","ALLEY":" ","HOUSE_NO":"１５６號","E_COORD97":168464.5,"N_COORD97":2557638,"ADDRESS":"中山路１５６號","OBJECTID":500667},"geometry":{"x":168464.50000000093,"y":2557638.0000000019}},{"attributes":{"ID":500695,"DIS_CODE":0,"TOWNNAME":"西港區","LI":"西港里","LIN":"20鄰","STREET":"中山路","SECT":" ","MAREA":" ","LANE":" ","ALLEY":" ","HOUSE_NO":"１５８號","E_COORD97":168464,"N_COORD97":2557641.9300000002,"ADDRESS":"中山路１５８號","OBJECTID":500668},"geometry":{"x":168464,"y":2557641.9299999997}},{"attributes":{"ID":500696,"DIS_CODE":0,"TOWNNAME":"西港區","LI":"西港里","LIN":"20鄰","STREET":"中山路","SECT":" ","MAREA":" ","LANE":" ","ALLEY":" ","HOUSE_NO":"１６０號","E_COORD97":168463.79000000001,"N_COORD97":2557645.8799999999,"ADDRESS":"中山路１６０號","OBJECTID":500669},"geometry":{"x":168463.79000000004,"y":2557645.879999999}},{"attributes":{"ID":500697,"DIS_CODE":0,"TOWNNAME":"西港區","LI":"慶安里","LIN":"20鄰","STREET":"中山路","SECT":" ","MAREA":" ","LANE":" ","ALLEY":" ","HOUSE_NO":"３１５號","E_COORD97":168371.70000000001,"N_COORD97":2558018.71,"ADDRESS":"中山路３１５號","OBJECTID":500670},"geometry":{"x":168371.70000000112,"y":2558018.7100000009}},{"attributes":{"ID":500698,"DIS_CODE":0,"TOWNNAME":"西港區","LI":"慶安里","LIN":"20鄰","STREET":"中山路","SECT":" ","MAREA":" ","LANE":" ","ALLEY":" ","HOUSE_NO":"３１７號","E_COORD97":168370.45999999999,"N_COORD97":2558022.7799999998,"ADDRESS":"中山路３１７號","OBJECTID":500671},"geometry":{"x":168370.45999999996,"y":2558022.7799999993}},{"attributes":{"ID":500699,"DIS_CODE":0,"TOWNNAME":"西港區","LI":"慶安里","LIN":"20鄰","STREET":"中山路","SECT":" ","MAREA":" ","LANE":" ","ALLEY":" ","HOUSE_NO":"３１９號","E_COORD97":168369.75,"N_COORD97":2558026.4500000002,"ADDRESS":"中山路３１９號","OBJECTID":500672},"geometry":{"x":168369.75000000093,"y":2558026.4500000011}},{"attributes":{"ID":500700,"DIS_CODE":0,"TOWNNAME":"西港區","LI":"慶安里","LIN":"20鄰","STREET":"中山路","SECT":" ","MAREA":" ","LANE":" ","ALLEY":" ","HOUSE_NO":"３２３號","E_COORD97":168368.87,"N_COORD97":2558030.5600000001,"ADDRESS":"中山路３２３號","OBJECTID":500673},"geometry":{"x":168368.87000000104,"y":2558030.5600000024}},{"attributes":{"ID":500701,"DIS_CODE":0,"TOWNNAME":"西港區","LI":"慶安里","LIN":"20鄰","STREET":"中山路","SECT":" ","MAREA":" ","LANE":" ","ALLEY":" ","HOUSE_NO":"３２５號","E_COORD97":168368.17999999999,"N_COORD97":2558034.9500000002,"ADDRESS":"中山路３２５號","OBJECTID":500674},"geometry":{"x":168368.18000000063,"y":2558034.9499999993}},{"attributes":{"ID":500702,"DIS_CODE":0,"TOWNNAME":"西港區","LI":"慶安里","LIN":"20鄰","STREET":"中山路","SECT":" ","MAREA":" ","LANE":" ","ALLEY":" ","HOUSE_NO":"３２７號","E_COORD97":168367.32000000001,"N_COORD97":2558038.8700000001,"ADDRESS":"中山路３２７號","OBJECTID":500675},"geometry":{"x":168367.31999999937,"y":2558038.8700000048}},{"attributes":{"ID":500703,"DIS_CODE":0,"TOWNNAME":"西港區","LI":"慶安里","LIN":"20鄰","STREET":"中山路","SECT":" ","MAREA":" ","LANE":" ","ALLEY":" ","HOUSE_NO":"３２９號","E_COORD97":168366.38,"N_COORD97":2558042.9199999999,"ADDRESS":"中山路３２９號","OBJECTID":500676},"geometry":{"x":168366.37999999989,"y":2558042.9199999999}},{"attributes":{"ID":500704,"DIS_CODE":0,"TOWNNAME":"西港區","LI":"慶安里","LIN":"20鄰","STREET":"中山路","SECT":" ","MAREA":" ","LANE":" ","ALLEY":" ","HOUSE_NO":"３３１號","E_COORD97":168365.42000000001,"N_COORD97":2558048.0499999998,"ADDRESS":"中山路３３１號","OBJECTID":500677},"geometry":{"x":168365.42000000086,"y":2558048.0500000026}},{"attributes":{"ID":500705,"DIS_CODE":0,"TOWNNAME":"東區","LI":"大福里","LIN":"20鄰","STREET":"立德八路","SECT":" ","MAREA":" ","LANE":" ","ALLEY":" ","HOUSE_NO":"１６號","E_COORD97":169444.31,"N_COORD97":2541906.7400000002,"ADDRESS":"立德八路１６號","OBJECTID":500678},"geometry":{"x":169444.30999999959,"y":2541906.7400000002}},{"attributes":{"ID":500706,"DIS_CODE":0,"TOWNNAME":"東區","LI":"大福里","LIN":"20鄰","STREET":"立德八路","SECT":" ","MAREA":" ","LANE":" ","ALLEY":" ","HOUSE_NO":"２４號","E_COORD97":169464.91,"N_COORD97":2541910.9300000002,"ADDRESS":"立德八路２４號","OBJECTID":500679},"geometry":{"x":169464.91000000015,"y":2541910.9299999997}},{"attributes":{"ID":500707,"DIS_CODE":0,"TOWNNAME":"東區","LI":"大福里","LIN":"20鄰","STREET":"立德八路","SECT":" ","MAREA":" ","LANE":" ","ALLEY":" ","HOUSE_NO":"２６號","E_COORD97":169469.48999999999,"N_COORD97":2541913.2200000002,"ADDRESS":"立德八路２６號","OBJECTID":500680},"geometry":{"x":169469.49000000022,"y":2541913.2200000007}},{"attributes":{"ID":500708,"DIS_CODE":0,"TOWNNAME":"東區","LI":"東安里","LIN":"20鄰","STREET":"衛國街","SECT":" ","MAREA":" ","LANE":" ","ALLEY":" ","HOUSE_NO":"４０號","E_COORD97":170261.67000000001,"N_COORD97":2543053.9199999999,"ADDRESS":"衛國街４０號","OBJECTID":500681},"geometry":{"x":170261.67000000179,"y":2543053.9199999999}},{"attributes":{"ID":500709,"DIS_CODE":0,"TOWNNAME":"東區","LI":"東安里","LIN":"20鄰","STREET":"衛國街","SECT":" ","MAREA":" ","LANE":" ","ALLEY":" ","HOUSE_NO":"４２號","E_COORD97":170268.29999999999,"N_COORD97":2543060.8700000001,"ADDRESS":"衛國街４２號","OBJECTID":500682},"geometry":{"x":170268.29999999981,"y":2543060.8700000029}},{"attributes":{"ID":500710,"DIS_CODE":0,"TOWNNAME":"東區","LI":"東安里","LIN":"20鄰","STREET":"衛國街","SECT":" ","MAREA":" ","LANE":" ","ALLEY":" ","HOUSE_NO":"４４號","E_COORD97":170269.12,"N_COORD97":2543064.9500000002,"ADDRESS":"衛國街４４號","OBJECTID":500683},"geometry":{"x":170269.12000000104,"y":2543064.9500000011}},{"attributes":{"ID":500711,"DIS_CODE":0,"TOWNNAME":"東區","LI":"東安里","LIN":"20鄰","STREET":"衛國街","SECT":" ","MAREA":" ","LANE":" ","ALLEY":" ","HOUSE_NO":"４６號","E_COORD97":170270.10999999999,"N_COORD97":2543069.2200000002,"ADDRESS":"衛國街４６號","OBJECTID":500684},"geometry":{"x":170270.11000000034,"y":2543069.2200000007}},{"attributes":{"ID":500712,"DIS_CODE":0,"TOWNNAME":"東區","LI":"東安里","LIN":"20鄰","STREET":"衛國街","SECT":" ","MAREA":" ","LANE":" ","ALLEY":" ","HOUSE_NO":"４８號","E_COORD97":170272.57000000001,"N_COORD97":2543073.6600000001,"ADDRESS":"衛國街４８號","OBJECTID":500685},"geometry":{"x":170272.5700000003,"y":2543073.6600000001}},{"attributes":{"ID":500713,"DIS_CODE":0,"TOWNNAME":"東區","LI":"東安里","LIN":"20鄰","STREET":"衛國街","SECT":" ","MAREA":" ","LANE":" ","ALLEY":" ","HOUSE_NO":"５０號","E_COORD97":170283.01000000001,"N_COORD97":2543070.0299999998,"ADDRESS":"衛國街５０號","OBJECTID":500686},"geometry":{"x":170283.01000000071,"y":2543070.0299999993}},{"attributes":{"ID":500714,"DIS_CODE":0,"TOWNNAME":"新市區","LI":"港墘里","LIN":"20鄰","STREET":"光華街","SECT":" ","MAREA":" ","LANE":" ","ALLEY":" ","HOUSE_NO":"１３２號","E_COORD97":177925.51000000001,"N_COORD97":2552769.25,"ADDRESS":"光華街１３２號","OBJECTID":500687},"geometry":{"x":177925.51000000071,"y":2552769.25}},{"attributes":{"ID":500715,"DIS_CODE":0,"TOWNNAME":"新市區","LI":"港墘里","LIN":"20鄰","STREET":"光華街","SECT":" ","MAREA":" ","LANE":" ","ALLEY":" ","HOUSE_NO":"１３６號","E_COORD97":177922.92000000001,"N_COORD97":2552777.25,"ADDRESS":"光華街１３６號","OBJECTID":500688},"geometry":{"x":177922.92000000086,"y":2552777.2500000019}},{"attributes":{"ID":500716,"DIS_CODE":0,"TOWNNAME":"新市區","LI":"港墘里","LIN":"20鄰","STREET":"光華街","SECT":" ","MAREA":" ","LANE":" ","ALLEY":" ","HOUSE_NO":"９８號","E_COORD97":177966.29000000001,"N_COORD97":2552697,"ADDRESS":"光華街９８號","OBJECTID":500689},"geometry":{"x":177966.29000000097,"y":2552697.0000000037}},{"attributes":{"ID":500717,"DIS_CODE":0,"TOWNNAME":"新市區","LI":"港墘里","LIN":"20鄰","STREET":"光華街","SECT":" ","MAREA":" ","LANE":" ","ALLEY":" ","HOUSE_NO":"９２號","E_COORD97":177972.92999999999,"N_COORD97":2552685.5,"ADDRESS":"光華街９２號","OBJECTID":500690},"geometry":{"x":177972.93000000063,"y":2552685.5}},{"attributes":{"ID":500718,"DIS_CODE":0,"TOWNNAME":"新市區","LI":"港墘里","LIN":"20鄰","STREET":"光華街","SECT":" ","MAREA":" ","LANE":" ","ALLEY":" ","HOUSE_NO":"１２８號","E_COORD97":177931.95999999999,"N_COORD97":2552761,"ADDRESS":"光華街１２８號","OBJECTID":500691},"geometry":{"x":177931.95999999903,"y":2552760.9999999981}},{"attributes":{"ID":500719,"DIS_CODE":0,"TOWNNAME":"安南區","LI":"海佃里","LIN":"20鄰","STREET":"海佃路","SECT":"一段","MAREA":" ","LANE":" ","ALLEY":" ","HOUSE_NO":"２１５號","E_COORD97":167100.48999999999,"N_COORD97":2547267.0600000001,"ADDRESS":"海佃路一段２１５號","OBJECTID":500692},"geometry":{"x":167100.49000000115,"y":2547267.0600000024}},{"attributes":{"ID":500720,"DIS_CODE":0,"TOWNNAME":"安南區","LI":"海佃里","LIN":"20鄰","STREET":"海佃路","SECT":"一段","MAREA":" ","LANE":" ","ALLEY":" ","HOUSE_NO":"２１５號之１","E_COORD97":167101.82000000001,"N_COORD97":2547271.71,"ADDRESS":"海佃路一段２１５號之１","OBJECTID":500693},"geometry":{"x":167101.82000000123,"y":2547271.7100000046}},{"attributes":{"ID":500721,"DIS_CODE":0,"TOWNNAME":"安南區","LI":"海佃里","LIN":"20鄰","STREET":"海佃路","SECT":"一段","MAREA":" ","LANE":" ","ALLEY":" ","HOUSE_NO":"２１５號之２","E_COORD97":167101.14999999999,"N_COORD97":2547278.3599999999,"ADDRESS":"海佃路一段２１５號之２","OBJECTID":500694},"geometry":{"x":167101.1500000013,"y":2547278.3599999994}},{"attributes":{"ID":500722,"DIS_CODE":0,"TOWNNAME":"安南區","LI":"海佃里","LIN":"20鄰","STREET":"海佃路","SECT":"一段","MAREA":" ","LANE":" ","ALLEY":" ","HOUSE_NO":"２１５號之３","E_COORD97":167100.48999999999,"N_COORD97":2547282.3399999999,"ADDRESS":"海佃路一段２１５號之３","OBJECTID":500695},"geometry":{"x":167100.49000000115,"y":2547282.3399999999}},{"attributes":{"ID":500723,"DIS_CODE":0,"TOWNNAME":"南區","LI":"大恩里","LIN":"13鄰","STREET":"國民路","SECT":" ","MAREA":" ","LANE":"１６５巷","ALLEY":"３６弄","HOUSE_NO":"２９號","E_COORD97":169063.42000000001,"N_COORD97":2540803.6400000001,"ADDRESS":"國民路１６５巷３６弄２９號","OBJECTID":500696},"geometry":{"x":169063.42000000086,"y":2540803.6400000025}},{"attributes":{"ID":500724,"DIS_CODE":0,"TOWNNAME":"南區","LI":"大恩里","LIN":"13鄰","STREET":"國民路","SECT":" ","MAREA":" ","LANE":"１６５巷","ALLEY":"３６弄","HOUSE_NO":"２號","E_COORD97":169138.44,"N_COORD97":2540802.25,"ADDRESS":"國民路１６５巷３６弄２號","OBJECTID":500697},"geometry":{"x":169138.44000000134,"y":2540802.2500000019}},{"attributes":{"ID":500725,"DIS_CODE":0,"TOWNNAME":"南區","LI":"大恩里","LIN":"13鄰","STREET":"國民路","SECT":" ","MAREA":" ","LANE":"１６５巷","ALLEY":"３６弄","HOUSE_NO":"３０號","E_COORD97":169068.53,"N_COORD97":2540820.9100000001,"ADDRESS":"國民路１６５巷３６弄３０號","OBJECTID":500698},"geometry":{"x":169068.53000000119,"y":2540820.9099999983}},{"attributes":{"ID":500726,"DIS_CODE":0,"TOWNNAME":"南區","LI":"大恩里","LIN":"13鄰","STREET":"國民路","SECT":" ","MAREA":" ","LANE":"１６５巷","ALLEY":"３６弄","HOUSE_NO":"３１號","E_COORD97":169057.84,"N_COORD97":2540805.25,"ADDRESS":"國民路１６５巷３６弄３１號","OBJECTID":500699},"geometry":{"x":169057.83999999985,"y":2540805.2500000037}},{"attributes":{"ID":500727,"DIS_CODE":0,"TOWNNAME":"南區","LI":"大恩里","LIN":"13鄰","STREET":"國民路","SECT":" ","MAREA":" ","LANE":"１６５巷","ALLEY":"３６弄","HOUSE_NO":"３號","E_COORD97":169127.70000000001,"N_COORD97":2540784.9300000002,"ADDRESS":"國民路１６５巷３６弄３號","OBJECTID":500700},"geometry":{"x":169127.70000000112,"y":2540784.9299999997}},{"attributes":{"ID":500728,"DIS_CODE":0,"TOWNNAME":"南區","LI":"大恩里","LIN":"13鄰","STREET":"國民路","SECT":" ","MAREA":" ","LANE":"１６５巷","ALLEY":"３６弄","HOUSE_NO":"４號","E_COORD97":169133.70999999999,"N_COORD97":2540803.6400000001,"ADDRESS":"國民路１６５巷３６弄４號","OBJECTID":500701},"geometry":{"x":169133.70999999996,"y":2540803.6400000025}},{"attributes":{"ID":500729,"DIS_CODE":0,"TOWNNAME":"南區","LI":"大恩里","LIN":"13鄰","STREET":"國民路","SECT":" ","MAREA":" ","LANE":"１６５巷","ALLEY":"３６弄","HOUSE_NO":"５號","E_COORD97":169123.39999999999,"N_COORD97":2540786,"ADDRESS":"國民路１６５巷３６弄５號","OBJECTID":500702},"geometry":{"x":169123.4000000013,"y":2540786}},{"attributes":{"ID":500730,"DIS_CODE":0,"TOWNNAME":"東區","LI":"崇文里","LIN":"40鄰","STREET":"生產路","SECT":" ","MAREA":" ","LANE":" ","ALLEY":" ","HOUSE_NO":"２７９號六樓","E_COORD97":170928.70000000001,"N_COORD97":2540618.5099999998,"ADDRESS":"生產路２７９號六樓","OBJECTID":500703},"geometry":{"x":170928.70000000019,"y":2540618.5099999998}},{"attributes":{"ID":500731,"DIS_CODE":0,"TOWNNAME":"東區","LI":"崇文里","LIN":"40鄰","STREET":"生產路","SECT":" ","MAREA":" ","LANE":" ","ALLEY":" ","HOUSE_NO":"２７９號四樓","E_COORD97":170928.70000000001,"N_COORD97":2540618.5099999998,"ADDRESS":"生產路２７９號四樓","OBJECTID":500704},"geometry":{"x":170928.70000000019,"y":2540618.5099999998}},{"attributes":{"ID":500732,"DIS_CODE":0,"TOWNNAME":"東區","LI":"崇文里","LIN":"40鄰","STREET":"生產路","SECT":" ","MAREA":" ","LANE":" ","ALLEY":" ","HOUSE_NO":"２８１號七樓","E_COORD97":170938.06,"N_COORD97":2540618.6099999999,"ADDRESS":"生產路２８１號七樓","OBJECTID":500705},"geometry":{"x":170938.05999999959,"y":2540618.6099999994}},{"attributes":{"ID":500733,"DIS_CODE":0,"TOWNNAME":"東區","LI":"崇文里","LIN":"40鄰","STREET":"生產路","SECT":" ","MAREA":" ","LANE":" ","ALLEY":" ","HOUSE_NO":"２８１號九樓","E_COORD97":170938.06,"N_COORD97":2540618.6099999999,"ADDRESS":"生產路２８１號九樓","OBJECTID":500706},"geometry":{"x":170938.05999999959,"y":2540618.6099999994}},{"attributes":{"ID":500734,"DIS_CODE":0,"TOWNNAME":"東區","LI":"崇文里","LIN":"40鄰","STREET":"生產路","SECT":" ","MAREA":" ","LANE":" ","ALLEY":" ","HOUSE_NO":"２８１號二樓","E_COORD97":170938.06,"N_COORD97":2540618.6099999999,"ADDRESS":"生產路２８１號二樓","OBJECTID":500707},"geometry":{"x":170938.05999999959,"y":2540618.6099999994}},{"attributes":{"ID":500735,"DIS_CODE":0,"TOWNNAME":"東區","LI":"崇文里","LIN":"40鄰","STREET":"生產路","SECT":" ","MAREA":" ","LANE":" ","ALLEY":" ","HOUSE_NO":"２８１號八樓","E_COORD97":170938.06,"N_COORD97":2540618.6099999999,"ADDRESS":"生產路２８１號八樓","OBJECTID":500708},"geometry":{"x":170938.05999999959,"y":2540618.6099999994}},{"attributes":{"ID":500736,"DIS_CODE":0,"TOWNNAME":"東區","LI":"崇文里","LIN":"40鄰","STREET":"生產路","SECT":" ","MAREA":" ","LANE":" ","ALLEY":" ","HOUSE_NO":"２８１號十一樓","E_COORD97":170938.06,"N_COORD97":2540618.6099999999,"ADDRESS":"生產路２８１號十一樓","OBJECTID":500709},"geometry":{"x":170938.05999999959,"y":2540618.6099999994}},{"attributes":{"ID":500737,"DIS_CODE":0,"TOWNNAME":"東區","LI":"崇文里","LIN":"40鄰","STREET":"生產路","SECT":" ","MAREA":" ","LANE":" ","ALLEY":" ","HOUSE_NO":"２８１號十二樓","E_COORD97":170938.06,"N_COORD97":2540618.6099999999,"ADDRESS":"生產路２８１號十二樓","OBJECTID":500710},"geometry":{"x":170938.05999999959,"y":2540618.6099999994}},{"attributes":{"ID":500738,"DIS_CODE":0,"TOWNNAME":"東區","LI":"崇文里","LIN":"40鄰","STREET":"生產路","SECT":" ","MAREA":" ","LANE":" ","ALLEY":" ","HOUSE_NO":"２８１號十樓","E_COORD97":170938.06,"N_COORD97":2540618.6099999999,"ADDRESS":"生產路２８１號十樓","OBJECTID":500711},"geometry":{"x":170938.05999999959,"y":2540618.6099999994}},{"attributes":{"ID":500739,"DIS_CODE":0,"TOWNNAME":"東區","LI":"崇文里","LIN":"40鄰","STREET":"生產路","SECT":" ","MAREA":" ","LANE":" ","ALLEY":" ","HOUSE_NO":"２８１號三樓","E_COORD97":170938.06,"N_COORD97":2540618.6099999999,"ADDRESS":"生產路２８１號三樓","OBJECTID":500712},"geometry":{"x":170938.05999999959,"y":2540618.6099999994}},{"attributes":{"ID":500740,"DIS_CODE":0,"TOWNNAME":"東區","LI":"崇文里","LIN":"40鄰","STREET":"生產路","SECT":" ","MAREA":" ","LANE":" ","ALLEY":" ","HOUSE_NO":"２８１號五樓","E_COORD97":170938.06,"N_COORD97":2540618.6099999999,"ADDRESS":"生產路２８１號五樓","OBJECTID":500713},"geometry":{"x":170938.05999999959,"y":2540618.6099999994}},{"attributes":{"ID":500741,"DIS_CODE":0,"TOWNNAME":"東區","LI":"崇文里","LIN":"40鄰","STREET":"生產路","SECT":" ","MAREA":" ","LANE":" ","ALLEY":" ","HOUSE_NO":"２８１號六樓","E_COORD97":170938.06,"N_COORD97":2540618.6099999999,"ADDRESS":"生產路２８１號六樓","OBJECTID":500714},"geometry":{"x":170938.05999999959,"y":2540618.6099999994}},{"attributes":{"ID":500742,"DIS_CODE":0,"TOWNNAME":"東區","LI":"崇文里","LIN":"40鄰","STREET":"生產路","SECT":" ","MAREA":" ","LANE":" ","ALLEY":" ","HOUSE_NO":"２８１號四樓","E_COORD97":170938.06,"N_COORD97":2540618.6099999999,"ADDRESS":"生產路２８１號四樓","OBJECTID":500715},"geometry":{"x":170938.05999999959,"y":2540618.6099999994}},{"attributes":{"ID":500743,"DIS_CODE":0,"TOWNNAME":"東區","LI":"崇文里","LIN":"40鄰","STREET":"生產路","SECT":" ","MAREA":" ","LANE":" ","ALLEY":" ","HOUSE_NO":"２８３號七樓","E_COORD97":170946.12,"N_COORD97":2540618.6099999999,"ADDRESS":"生產路２８３號七樓","OBJECTID":500716},"geometry":{"x":170946.12000000011,"y":2540618.6099999994}},{"attributes":{"ID":500744,"DIS_CODE":0,"TOWNNAME":"東區","LI":"崇文里","LIN":"40鄰","STREET":"生產路","SECT":" ","MAREA":" ","LANE":" ","ALLEY":" ","HOUSE_NO":"２８３號九樓","E_COORD97":170946.12,"N_COORD97":2540618.6099999999,"ADDRESS":"生產路２８３號九樓","OBJECTID":500717},"geometry":{"x":170946.12000000011,"y":2540618.6099999994}},{"attributes":{"ID":500745,"DIS_CODE":0,"TOWNNAME":"東區","LI":"崇文里","LIN":"40鄰","STREET":"生產路","SECT":" ","MAREA":" ","LANE":" ","ALLEY":" ","HOUSE_NO":"２８３號二樓","E_COORD97":170946.12,"N_COORD97":2540618.6099999999,"ADDRESS":"生產路２８３號二樓","OBJECTID":500718},"geometry":{"x":170946.12000000011,"y":2540618.6099999994}},{"attributes":{"ID":500746,"DIS_CODE":0,"TOWNNAME":"東區","LI":"崇文里","LIN":"40鄰","STREET":"生產路","SECT":" ","MAREA":" ","LANE":" ","ALLEY":" ","HOUSE_NO":"２８３號八樓","E_COORD97":170946.12,"N_COORD97":2540618.6099999999,"ADDRESS":"生產路２８３號八樓","OBJECTID":500719},"geometry":{"x":170946.12000000011,"y":2540618.6099999994}},{"attributes":{"ID":500747,"DIS_CODE":0,"TOWNNAME":"東區","LI":"崇文里","LIN":"40鄰","STREET":"生產路","SECT":" ","MAREA":" ","LANE":" ","ALLEY":" ","HOUSE_NO":"２８３號十一樓","E_COORD97":170946.12,"N_COORD97":2540618.6099999999,"ADDRESS":"生產路２８３號十一樓","OBJECTID":500720},"geometry":{"x":170946.12000000011,"y":2540618.6099999994}},{"attributes":{"ID":500748,"DIS_CODE":0,"TOWNNAME":"東區","LI":"崇文里","LIN":"40鄰","STREET":"生產路","SECT":" ","MAREA":" ","LANE":" ","ALLEY":" ","HOUSE_NO":"２８３號十二樓","E_COORD97":170946.12,"N_COORD97":2540618.6099999999,"ADDRESS":"生產路２８３號十二樓","OBJECTID":500721},"geometry":{"x":170946.12000000011,"y":2540618.6099999994}},{"attributes":{"ID":500749,"DIS_CODE":0,"TOWNNAME":"東區","LI":"崇文里","LIN":"40鄰","STREET":"生產路","SECT":" ","MAREA":" ","LANE":" ","ALLEY":" ","HOUSE_NO":"２８３號十樓","E_COORD97":170946.12,"N_COORD97":2540618.6099999999,"ADDRESS":"生產路２８３號十樓","OBJECTID":500722},"geometry":{"x":170946.12000000011,"y":2540618.6099999994}},{"attributes":{"ID":500750,"DIS_CODE":0,"TOWNNAME":"東區","LI":"崇文里","LIN":"40鄰","STREET":"生產路","SECT":" ","MAREA":" ","LANE":" ","ALLEY":" ","HOUSE_NO":"２８３號三樓","E_COORD97":170946.12,"N_COORD97":2540618.6099999999,"ADDRESS":"生產路２８３號三樓","OBJECTID":500723},"geometry":{"x":170946.12000000011,"y":2540618.6099999994}},{"attributes":{"ID":500751,"DIS_CODE":0,"TOWNNAME":"東區","LI":"崇文里","LIN":"40鄰","STREET":"生產路","SECT":" ","MAREA":" ","LANE":" ","ALLEY":" ","HOUSE_NO":"２８３號五樓","E_COORD97":170946.12,"N_COORD97":2540618.6099999999,"ADDRESS":"生產路２８３號五樓","OBJECTID":500724},"geometry":{"x":170946.12000000011,"y":2540618.6099999994}},{"attributes":{"ID":500752,"DIS_CODE":0,"TOWNNAME":"東區","LI":"崇文里","LIN":"40鄰","STREET":"生產路","SECT":" ","MAREA":" ","LANE":" ","ALLEY":" ","HOUSE_NO":"２８３號六樓","E_COORD97":170946.12,"N_COORD97":2540618.6099999999,"ADDRESS":"生產路２８３號六樓","OBJECTID":500725},"geometry":{"x":170946.12000000011,"y":2540618.6099999994}},{"attributes":{"ID":500753,"DIS_CODE":0,"TOWNNAME":"東區","LI":"崇文里","LIN":"40鄰","STREET":"生產路","SECT":" ","MAREA":" ","LANE":" ","ALLEY":" ","HOUSE_NO":"２８３號四樓","E_COORD97":170946.12,"N_COORD97":2540618.6099999999,"ADDRESS":"生產路２８３號四樓","OBJECTID":500726},"geometry":{"x":170946.12000000011,"y":2540618.6099999994}},{"attributes":{"ID":500754,"DIS_CODE":0,"TOWNNAME":"佳里區","LI":"安西里","LIN":"40鄰","STREET":"佳西路","SECT":" ","MAREA":" ","LANE":" ","ALLEY":" ","HOUSE_NO":"２３９號","E_COORD97":164760.59,"N_COORD97":2562612.8700000001,"ADDRESS":"佳西路２３９號","OBJECTID":500727},"geometry":{"x":164760.58999999985,"y":2562612.8700000029}},{"attributes":{"ID":500755,"DIS_CODE":0,"TOWNNAME":"永康區","LI":"五王里","LIN":"24鄰","STREET":"成功路","SECT":" ","MAREA":" ","LANE":" ","ALLEY":" ","HOUSE_NO":"２５８號七樓之１５","E_COORD97":171315.14000000001,"N_COORD97":2545846.04,"ADDRESS":"成功路２５８號七樓之１５","OBJECTID":500728},"geometry":{"x":171315.13999999966,"y":2545846.0399999991}},{"attributes":{"ID":500756,"DIS_CODE":0,"TOWNNAME":"北區","LI":"三德里","LIN":"5鄰","STREET":"裕民街","SECT":" ","MAREA":" ","LANE":" ","ALLEY":" ","HOUSE_NO":"４８號","E_COORD97":168473.10000000001,"N_COORD97":2544461.9500000002,"ADDRESS":"裕民街４８號","OBJECTID":500729},"geometry":{"x":168473.09999999963,"y":2544461.9500000011}},{"attributes":{"ID":500757,"DIS_CODE":0,"TOWNNAME":"永康區","LI":"五王里","LIN":"24鄰","STREET":"成功路","SECT":" ","MAREA":" ","LANE":" ","ALLEY":" ","HOUSE_NO":"２５８號七樓之１４","E_COORD97":171315.01000000001,"N_COORD97":2545846.04,"ADDRESS":"成功路２５８號七樓之１４","OBJECTID":500730},"geometry":{"x":171315.00999999978,"y":2545846.0399999991}},{"attributes":{"ID":500758,"DIS_CODE":0,"TOWNNAME":"永康區","LI":"五王里","LIN":"24鄰","STREET":"成功路","SECT":" ","MAREA":" ","LANE":" ","ALLEY":" ","HOUSE_NO":"２５８號七樓之１３","E_COORD97":171315.07999999999,"N_COORD97":2545846.04,"ADDRESS":"成功路２５８號七樓之１３","OBJECTID":500731},"geometry":{"x":171315.08000000194,"y":2545846.0399999991}},{"attributes":{"ID":500759,"DIS_CODE":0,"TOWNNAME":"北區","LI":"三德里","LIN":"13鄰","STREET":"成功路","SECT":" ","MAREA":" ","LANE":" ","ALLEY":" ","HOUSE_NO":"１８６號","E_COORD97":168390.5,"N_COORD97":2544385.1099999999,"ADDRESS":"成功路１８６號","OBJECTID":500732},"geometry":{"x":168390.5,"y":2544385.1099999994}},{"attributes":{"ID":500760,"DIS_CODE":0,"TOWNNAME":"永康區","LI":"五王里","LIN":"24鄰","STREET":"成功路","SECT":" ","MAREA":" ","LANE":" ","ALLEY":" ","HOUSE_NO":"２５８號四樓之３","E_COORD97":171313.82999999999,"N_COORD97":2545846.04,"ADDRESS":"成功路２５８號四樓之３","OBJECTID":500733},"geometry":{"x":171313.83000000101,"y":2545846.0399999991}},{"attributes":{"ID":500761,"DIS_CODE":0,"TOWNNAME":"北區","LI":"三德里","LIN":"6鄰","STREET":"忠義路","SECT":"三段","MAREA":" ","LANE":" ","ALLEY":" ","HOUSE_NO":"１５號","E_COORD97":168505.57999999999,"N_COORD97":2544403.8300000001,"ADDRESS":"忠義路三段１７號","OBJECTID":500734},"geometry":{"x":168505.58000000007,"y":2544403.8300000001}},{"attributes":{"ID":500762,"DIS_CODE":0,"TOWNNAME":"北區","LI":"三德里","LIN":"6鄰","STREET":"忠義路","SECT":"三段","MAREA":" ","LANE":" ","ALLEY":" ","HOUSE_NO":"１９號","E_COORD97":168507.62,"N_COORD97":2544408.3199999998,"ADDRESS":"忠義路三段１９號","OBJECTID":500735},"geometry":{"x":168507.62000000197,"y":2544408.3200000003}},{"attributes":{"ID":500763,"DIS_CODE":0,"TOWNNAME":"北區","LI":"三德里","LIN":"6鄰","STREET":"忠義路","SECT":"三段","MAREA":" ","LANE":" ","ALLEY":" ","HOUSE_NO":"２１號","E_COORD97":168508.57999999999,"N_COORD97":2544412.4100000001,"ADDRESS":"忠義路三段２１號","OBJECTID":500736},"geometry":{"x":168508.58000000101,"y":2544412.410000002}},{"attributes":{"ID":500764,"DIS_CODE":0,"TOWNNAME":"北區","LI":"三德里","LIN":"6鄰","STREET":"忠義路","SECT":"三段","MAREA":" ","LANE":" ","ALLEY":" ","HOUSE_NO":"２３號","E_COORD97":168509.94,"N_COORD97":2544415.27,"ADDRESS":"忠義路三段２３號","OBJECTID":500737},"geometry":{"x":168509.94000000134,"y":2544415.2700000033}},{"attributes":{"ID":500765,"DIS_CODE":0,"TOWNNAME":"北區","LI":"三德里","LIN":"6鄰","STREET":"忠義路","SECT":"三段","MAREA":" ","LANE":" ","ALLEY":" ","HOUSE_NO":"２７號","E_COORD97":168512.53,"N_COORD97":2544422.3500000001,"ADDRESS":"忠義路三段２７號","OBJECTID":500738},"geometry":{"x":168512.53000000119,"y":2544422.3500000015}},{"attributes":{"ID":500766,"DIS_CODE":0,"TOWNNAME":"永康區","LI":"五王里","LIN":"24鄰","STREET":"成功路","SECT":" ","MAREA":" ","LANE":" ","ALLEY":" ","HOUSE_NO":"２５８號七樓之１","E_COORD97":171313.73000000001,"N_COORD97":2545846.04,"ADDRESS":"成功路２５８號七樓之１","OBJECTID":500739},"geometry":{"x":171313.73000000045,"y":2545846.0399999991}},{"attributes":{"ID":500767,"DIS_CODE":0,"TOWNNAME":"永康區","LI":"五王里","LIN":"24鄰","STREET":"成功路","SECT":" ","MAREA":" ","LANE":" ","ALLEY":" ","HOUSE_NO":"２５８號七樓之６","E_COORD97":171313.84,"N_COORD97":2545846.04,"ADDRESS":"成功路２５８號七樓之６","OBJECTID":500740},"geometry":{"x":171313.84000000078,"y":2545846.0399999991}},{"attributes":{"ID":500768,"DIS_CODE":0,"TOWNNAME":"永康區","LI":"五王里","LIN":"24鄰","STREET":"成功路","SECT":" ","MAREA":" ","LANE":" ","ALLEY":" ","HOUSE_NO":"２５８號七樓之５","E_COORD97":171313.89000000001,"N_COORD97":2545846.04,"ADDRESS":"成功路２５８號七樓之５","OBJECTID":500741},"geometry":{"x":171313.88999999966,"y":2545846.0399999991}},{"attributes":{"ID":500769,"DIS_CODE":0,"TOWNNAME":"永康區","LI":"五王里","LIN":"24鄰","STREET":"成功路","SECT":" ","MAREA":" ","LANE":" ","ALLEY":" ","HOUSE_NO":"２５８號三樓之１６","E_COORD97":171315.09,"N_COORD97":2545846.04,"ADDRESS":"成功路２５８號三樓之１６","OBJECTID":500742},"geometry":{"x":171315.09000000078,"y":2545846.0399999991}},{"attributes":{"ID":500770,"DIS_CODE":0,"TOWNNAME":"永康區","LI":"五王里","LIN":"24鄰","STREET":"成功路","SECT":" ","MAREA":" ","LANE":" ","ALLEY":" ","HOUSE_NO":"２５８號五樓之４","E_COORD97":171313.76000000001,"N_COORD97":2545846.04,"ADDRESS":"成功路２５８號五樓之４","OBJECTID":500743},"geometry":{"x":171313.76000000071,"y":2545846.0399999991}},{"attributes":{"ID":500771,"DIS_CODE":0,"TOWNNAME":"永康區","LI":"五王里","LIN":"24鄰","STREET":"成功路","SECT":" ","MAREA":" ","LANE":" ","ALLEY":" ","HOUSE_NO":"２５８號七樓之３","E_COORD97":171313.82999999999,"N_COORD97":2545846.04,"ADDRESS":"成功路２５８號七樓之３","OBJECTID":500744},"geometry":{"x":171313.83000000101,"y":2545846.0399999991}},{"attributes":{"ID":500772,"DIS_CODE":0,"TOWNNAME":"永康區","LI":"五王里","LIN":"24鄰","STREET":"成功路","SECT":" ","MAREA":" ","LANE":" ","ALLEY":" ","HOUSE_NO":"２５８號六樓之１","E_COORD97":171313.73000000001,"N_COORD97":2545846.04,"ADDRESS":"成功路２５８號六樓之１","OBJECTID":500745},"geometry":{"x":171313.73000000045,"y":2545846.0399999991}},{"attributes":{"ID":500773,"DIS_CODE":0,"TOWNNAME":"永康區","LI":"五王里","LIN":"24鄰","STREET":"成功路","SECT":" ","MAREA":" ","LANE":" ","ALLEY":" ","HOUSE_NO":"２５８號三樓之１１","E_COORD97":171314.98000000001,"N_COORD97":2545846.04,"ADDRESS":"成功路２５８號三樓之１１","OBJECTID":500746},"geometry":{"x":171314.98000000138,"y":2545846.0399999991}},{"attributes":{"ID":500774,"DIS_CODE":0,"TOWNNAME":"永康區","LI":"五王里","LIN":"24鄰","STREET":"成功路","SECT":" ","MAREA":" ","LANE":" ","ALLEY":" ","HOUSE_NO":"２５８號四樓之１２","E_COORD97":171315.12,"N_COORD97":2545846.04,"ADDRESS":"成功路２５８號四樓之１２","OBJECTID":500747},"geometry":{"x":171315.12000000104,"y":2545846.0399999991}},{"attributes":{"ID":500775,"DIS_CODE":0,"TOWNNAME":"永康區","LI":"五王里","LIN":"24鄰","STREET":"成功路","SECT":" ","MAREA":" ","LANE":" ","ALLEY":" ","HOUSE_NO":"２５８號四樓之５","E_COORD97":171313.89000000001,"N_COORD97":2545846.04,"ADDRESS":"成功路２５８號四樓之５","OBJECTID":500748},"geometry":{"x":171313.88999999966,"y":2545846.0399999991}},{"attributes":{"ID":500776,"DIS_CODE":0,"TOWNNAME":"永康區","LI":"五王里","LIN":"24鄰","STREET":"成功路","SECT":" ","MAREA":" ","LANE":" ","ALLEY":" ","HOUSE_NO":"２５８號七樓之１２","E_COORD97":171315.12,"N_COORD97":2545846.04,"ADDRESS":"成功路２５８號七樓之１２","OBJECTID":500749},"geometry":{"x":171315.12000000104,"y":2545846.0399999991}},{"attributes":{"ID":500777,"DIS_CODE":0,"TOWNNAME":"永康區","LI":"五王里","LIN":"24鄰","STREET":"成功路","SECT":" ","MAREA":" ","LANE":" ","ALLEY":" ","HOUSE_NO":"２５８號三樓之８","E_COORD97":171313.88,"N_COORD97":2545846.04,"ADDRESS":"成功路２５８號三樓之８","OBJECTID":500750},"geometry":{"x":171313.87999999989,"y":2545846.0399999991}},{"attributes":{"ID":500778,"DIS_CODE":0,"TOWNNAME":"永康區","LI":"五王里","LIN":"24鄰","STREET":"成功路","SECT":" ","MAREA":" ","LANE":" ","ALLEY":" ","HOUSE_NO":"２５８號三樓之４","E_COORD97":171313.76000000001,"N_COORD97":2545846.04,"ADDRESS":"成功路２５８號三樓之４","OBJECTID":500751},"geometry":{"x":171313.76000000071,"y":2545846.0399999991}},{"attributes":{"ID":500779,"DIS_CODE":0,"TOWNNAME":"東區","LI":"忠孝里","LIN":"24鄰","STREET":"崇明四街","SECT":" ","MAREA":" ","LANE":" ","ALLEY":" ","HOUSE_NO":"４８號二樓","E_COORD97":169693.87,"N_COORD97":2542313.3999999999,"ADDRESS":"崇明四街４８號二樓","OBJECTID":500752},"geometry":{"x":169693.87000000011,"y":2542313.4000000041}},{"attributes":{"ID":500780,"DIS_CODE":0,"TOWNNAME":"東區","LI":"忠孝里","LIN":"24鄰","STREET":"崇明四街","SECT":" ","MAREA":" ","LANE":" ","ALLEY":" ","HOUSE_NO":"５０號二樓","E_COORD97":169697.12,"N_COORD97":2542314.1400000001,"ADDRESS":"崇明四街５０號二樓","OBJECTID":500753},"geometry":{"x":169697.12000000011,"y":2542314.1400000006}},{"attributes":{"ID":500781,"DIS_CODE":0,"TOWNNAME":"東區","LI":"忠孝里","LIN":"24鄰","STREET":"崇明四街","SECT":" ","MAREA":" ","LANE":" ","ALLEY":" ","HOUSE_NO":"５０號二樓之１","E_COORD97":169697.12,"N_COORD97":2542314.1400000001,"ADDRESS":"崇明四街５０號二樓之１","OBJECTID":500754},"geometry":{"x":169697.12000000011,"y":2542314.1400000006}},{"attributes":{"ID":500782,"DIS_CODE":0,"TOWNNAME":"東區","LI":"忠孝里","LIN":"24鄰","STREET":"崇明四街","SECT":" ","MAREA":" ","LANE":" ","ALLEY":" ","HOUSE_NO":"４６號三樓","E_COORD97":169690.45999999999,"N_COORD97":2542311.4199999999,"ADDRESS":"崇明四街４６號三樓","OBJECTID":500755},"geometry":{"x":169690.46000000089,"y":2542311.4199999999}},{"attributes":{"ID":500783,"DIS_CODE":0,"TOWNNAME":"東區","LI":"忠孝里","LIN":"24鄰","STREET":"崇明四街","SECT":" ","MAREA":" ","LANE":" ","ALLEY":" ","HOUSE_NO":"４６號四樓","E_COORD97":169690.45999999999,"N_COORD97":2542311.4199999999,"ADDRESS":"崇明四街４６號四樓","OBJECTID":500756},"geometry":{"x":169690.46000000089,"y":2542311.4199999999}},{"attributes":{"ID":500784,"DIS_CODE":0,"TOWNNAME":"東區","LI":"忠孝里","LIN":"24鄰","STREET":"崇明四街","SECT":" ","MAREA":" ","LANE":" ","ALLEY":" ","HOUSE_NO":"４６號五樓","E_COORD97":169690.45999999999,"N_COORD97":2542311.4199999999,"ADDRESS":"崇明四街４６號五樓","OBJECTID":500757},"geometry":{"x":169690.46000000089,"y":2542311.4199999999}},{"attributes":{"ID":500785,"DIS_CODE":0,"TOWNNAME":"東區","LI":"忠孝里","LIN":"24鄰","STREET":"崇明四街","SECT":" ","MAREA":" ","LANE":" ","ALLEY":" ","HOUSE_NO":"４６號六樓","E_COORD97":169690.45999999999,"N_COORD97":2542311.4199999999,"ADDRESS":"崇明四街４６號六樓","OBJECTID":500758},"geometry":{"x":169690.46000000089,"y":2542311.4199999999}},{"attributes":{"ID":500786,"DIS_CODE":0,"TOWNNAME":"東區","LI":"忠孝里","LIN":"24鄰","STREET":"崇明四街","SECT":" ","MAREA":" ","LANE":" ","ALLEY":" ","HOUSE_NO":"４８號三樓","E_COORD97":169693.87,"N_COORD97":2542313.3999999999,"ADDRESS":"崇明四街４８號三樓","OBJECTID":500759},"geometry":{"x":169693.87000000011,"y":2542313.4000000041}},{"attributes":{"ID":500787,"DIS_CODE":0,"TOWNNAME":"東區","LI":"忠孝里","LIN":"24鄰","STREET":"崇明四街","SECT":" ","MAREA":" ","LANE":" ","ALLEY":" ","HOUSE_NO":"４８號四樓","E_COORD97":169693.87,"N_COORD97":2542313.3999999999,"ADDRESS":"崇明四街４８號四樓","OBJECTID":500760},"geometry":{"x":169693.87000000011,"y":2542313.4000000041}},{"attributes":{"ID":500788,"DIS_CODE":0,"TOWNNAME":"東區","LI":"文聖里","LIN":"20鄰","STREET":"裕信二街","SECT":" ","MAREA":" ","LANE":" ","ALLEY":" ","HOUSE_NO":"９３號","E_COORD97":172838.57999999999,"N_COORD97":2542664.3599999999,"ADDRESS":"裕信二街９３號","OBJECTID":500761},"geometry":{"x":172838.58000000007,"y":2542664.3599999994}},{"attributes":{"ID":500789,"DIS_CODE":0,"TOWNNAME":"永康區","LI":"五王里","LIN":"24鄰","STREET":"成功路","SECT":" ","MAREA":" ","LANE":" ","ALLEY":" ","HOUSE_NO":"２５８號五樓之１５","E_COORD97":171315.14000000001,"N_COORD97":2545846.04,"ADDRESS":"成功路２５８號五樓之１５","OBJECTID":500762},"geometry":{"x":171315.13999999966,"y":2545846.0399999991}},{"attributes":{"ID":500790,"DIS_CODE":0,"TOWNNAME":"北區","LI":"文元里","LIN":"4鄰","STREET":"中華北路","SECT":"二段","MAREA":" ","LANE":" ","ALLEY":" ","HOUSE_NO":"９號","E_COORD97":167371.81,"N_COORD97":2546516.8799999999,"ADDRESS":"中華北路二段９號","OBJECTID":500763},"geometry":{"x":167371.81000000052,"y":2546516.8800000008}},{"attributes":{"ID":500791,"DIS_CODE":0,"TOWNNAME":"北區","LI":"三德里","LIN":"13鄰","STREET":"成功路","SECT":" ","MAREA":" ","LANE":" ","ALLEY":" ","HOUSE_NO":"１８２號","E_COORD97":168396.42000000001,"N_COORD97":2544381.4399999999,"ADDRESS":"成功路１８２號","OBJECTID":500764},"geometry":{"x":168396.41999999993,"y":2544381.4400000013}},{"attributes":{"ID":500792,"DIS_CODE":0,"TOWNNAME":"北區","LI":"三德里","LIN":"13鄰","STREET":"成功路","SECT":" ","MAREA":" ","LANE":" ","ALLEY":" ","HOUSE_NO":"１８４號","E_COORD97":168393.79000000001,"N_COORD97":2544384.6699999999,"ADDRESS":"成功路１８４號","OBJECTID":500765},"geometry":{"x":168393.79000000004,"y":2544384.6699999999}},{"attributes":{"ID":500793,"DIS_CODE":0,"TOWNNAME":"北區","LI":"三德里","LIN":"13鄰","STREET":"成功路","SECT":" ","MAREA":" ","LANE":" ","ALLEY":" ","HOUSE_NO":"１８８號","E_COORD97":168387.53,"N_COORD97":2544386.75,"ADDRESS":"成功路１８８號","OBJECTID":500766},"geometry":{"x":168387.53000000026,"y":2544386.7500000019}},{"attributes":{"ID":500794,"DIS_CODE":0,"TOWNNAME":"北區","LI":"三德里","LIN":"13鄰","STREET":"成功路","SECT":" ","MAREA":" ","LANE":" ","ALLEY":" ","HOUSE_NO":"１９０號","E_COORD97":168383.26000000001,"N_COORD97":2544388.8300000001,"ADDRESS":"成功路１９０號","OBJECTID":500767},"geometry":{"x":168383.26000000071,"y":2544388.8300000019}},{"attributes":{"ID":500795,"DIS_CODE":0,"TOWNNAME":"北區","LI":"三德里","LIN":"13鄰","STREET":"成功路","SECT":" ","MAREA":" ","LANE":" ","ALLEY":" ","HOUSE_NO":"１９２號","E_COORD97":168376.89999999999,"N_COORD97":2544389.3799999999,"ADDRESS":"成功路１９２號","OBJECTID":500768},"geometry":{"x":168376.90000000037,"y":2544389.379999999}},{"attributes":{"ID":500796,"DIS_CODE":0,"TOWNNAME":"北區","LI":"三德里","LIN":"13鄰","STREET":"成功路","SECT":" ","MAREA":" ","LANE":" ","ALLEY":" ","HOUSE_NO":"１９６號","E_COORD97":168371.42999999999,"N_COORD97":2544394.8900000001,"ADDRESS":"成功路１９６號","OBJECTID":500769},"geometry":{"x":168371.43000000063,"y":2544394.8900000006}},{"attributes":{"ID":500797,"DIS_CODE":0,"TOWNNAME":"北區","LI":"三德里","LIN":"13鄰","STREET":"成功路","SECT":" ","MAREA":" ","LANE":" ","ALLEY":" ","HOUSE_NO":"１９８號","E_COORD97":168365.91,"N_COORD97":2544394.8900000001,"ADDRESS":"成功路１９８號","OBJECTID":500770},"geometry":{"x":168365.91000000015,"y":2544394.8900000006}},{"attributes":{"ID":500798,"DIS_CODE":0,"TOWNNAME":"北區","LI":"三德里","LIN":"13鄰","STREET":"成功路","SECT":" ","MAREA":" ","LANE":" ","ALLEY":" ","HOUSE_NO":"２００號","E_COORD97":168362.03,"N_COORD97":2544395.7000000002,"ADDRESS":"成功路２００號","OBJECTID":500771},"geometry":{"x":168362.03000000026,"y":2544395.7000000011}},{"attributes":{"ID":500799,"DIS_CODE":0,"TOWNNAME":"安南區","LI":"溪北里","LIN":"24鄰","STREET":"敬安街","SECT":" ","MAREA":" ","LANE":" ","ALLEY":" ","HOUSE_NO":"１號五樓","E_COORD97":169156.32000000001,"N_COORD97":2547590.3700000001,"ADDRESS":"敬安街１號五樓","OBJECTID":500772},"geometry":{"x":169156.32000000123,"y":2547590.3700000029}},{"attributes":{"ID":500800,"DIS_CODE":0,"TOWNNAME":"安南區","LI":"溪北里","LIN":"24鄰","STREET":"敬安街","SECT":" ","MAREA":" ","LANE":" ","ALLEY":" ","HOUSE_NO":"１號六樓","E_COORD97":169156.32000000001,"N_COORD97":2547590.3700000001,"ADDRESS":"敬安街１號六樓","OBJECTID":500773},"geometry":{"x":169156.32000000123,"y":2547590.3700000029}},{"attributes":{"ID":500801,"DIS_CODE":0,"TOWNNAME":"永康區","LI":"五王里","LIN":"24鄰","STREET":"成功路","SECT":" ","MAREA":" ","LANE":" ","ALLEY":" ","HOUSE_NO":"２５８號四樓之７","E_COORD97":171313.81,"N_COORD97":2545846.04,"ADDRESS":"成功路２５８號四樓之７","OBJECTID":500774},"geometry":{"x":171313.81000000052,"y":2545846.0399999991}},{"attributes":{"ID":500802,"DIS_CODE":0,"TOWNNAME":"永康區","LI":"五王里","LIN":"24鄰","STREET":"成功路","SECT":" ","MAREA":" ","LANE":" ","ALLEY":" ","HOUSE_NO":"２５８號三樓之１０","E_COORD97":171315.03,"N_COORD97":2545846.04,"ADDRESS":"成功路２５８號三樓之１０","OBJECTID":500775},"geometry":{"x":171315.03000000026,"y":2545846.0399999991}},{"attributes":{"ID":500803,"DIS_CODE":0,"TOWNNAME":"永康區","LI":"五王里","LIN":"24鄰","STREET":"成功路","SECT":" ","MAREA":" ","LANE":" ","ALLEY":" ","HOUSE_NO":"２５８號三樓之１４","E_COORD97":171315.01000000001,"N_COORD97":2545846.04,"ADDRESS":"成功路２５８號三樓之１４","OBJECTID":500776},"geometry":{"x":171315.00999999978,"y":2545846.0399999991}},{"attributes":{"ID":500804,"DIS_CODE":0,"TOWNNAME":"永康區","LI":"五王里","LIN":"24鄰","STREET":"成功路","SECT":" ","MAREA":" ","LANE":" ","ALLEY":" ","HOUSE_NO":"２５８號七樓之９","E_COORD97":171313.82000000001,"N_COORD97":2545846.04,"ADDRESS":"成功路２５８號七樓之９","OBJECTID":500777},"geometry":{"x":171313.82000000123,"y":2545846.0399999991}},{"attributes":{"ID":500805,"DIS_CODE":0,"TOWNNAME":"安南區","LI":"溪北里","LIN":"24鄰","STREET":"敬安街","SECT":" ","MAREA":" ","LANE":" ","ALLEY":" ","HOUSE_NO":"３號十二樓","E_COORD97":169164.79000000001,"N_COORD97":2547590.3700000001,"ADDRESS":"敬安街３號十二樓","OBJECTID":500778},"geometry":{"x":169164.79000000097,"y":2547590.3700000029}},{"attributes":{"ID":500806,"DIS_CODE":0,"TOWNNAME":"安南區","LI":"溪北里","LIN":"24鄰","STREET":"敬安街","SECT":" ","MAREA":" ","LANE":" ","ALLEY":" ","HOUSE_NO":"３號十樓","E_COORD97":169164.79000000001,"N_COORD97":2547590.3700000001,"ADDRESS":"敬安街３號十樓","OBJECTID":500779},"geometry":{"x":169164.79000000097,"y":2547590.3700000029}},{"attributes":{"ID":500807,"DIS_CODE":0,"TOWNNAME":"安南區","LI":"溪北里","LIN":"24鄰","STREET":"敬安街","SECT":" ","MAREA":" ","LANE":" ","ALLEY":" ","HOUSE_NO":"３號五樓","E_COORD97":169164.79000000001,"N_COORD97":2547590.3700000001,"ADDRESS":"敬安街３號五樓","OBJECTID":500780},"geometry":{"x":169164.79000000097,"y":2547590.3700000029}},{"attributes":{"ID":500808,"DIS_CODE":0,"TOWNNAME":"安南區","LI":"溪北里","LIN":"24鄰","STREET":"敬安街","SECT":" ","MAREA":" ","LANE":" ","ALLEY":" ","HOUSE_NO":"３號六樓","E_COORD97":169164.79000000001,"N_COORD97":2547590.3700000001,"ADDRESS":"敬安街３號六樓","OBJECTID":500781},"geometry":{"x":169164.79000000097,"y":2547590.3700000029}},{"attributes":{"ID":500809,"DIS_CODE":0,"TOWNNAME":"安南區","LI":"溪北里","LIN":"24鄰","STREET":"敬安街","SECT":" ","MAREA":" ","LANE":" ","ALLEY":" ","HOUSE_NO":"５號九樓","E_COORD97":169175.59,"N_COORD97":2547589.7400000002,"ADDRESS":"敬安街５號九樓","OBJECTID":500782},"geometry":{"x":169175.59000000078,"y":2547589.7400000039}},{"attributes":{"ID":500810,"DIS_CODE":0,"TOWNNAME":"安南區","LI":"溪北里","LIN":"24鄰","STREET":"敬安街","SECT":" ","MAREA":" ","LANE":" ","ALLEY":" ","HOUSE_NO":"５號八樓","E_COORD97":169175.59,"N_COORD97":2547589.7400000002,"ADDRESS":"敬安街５號八樓","OBJECTID":500783},"geometry":{"x":169175.59000000078,"y":2547589.7400000039}},{"attributes":{"ID":500811,"DIS_CODE":0,"TOWNNAME":"安南區","LI":"溪北里","LIN":"24鄰","STREET":"敬安街","SECT":" ","MAREA":" ","LANE":" ","ALLEY":" ","HOUSE_NO":"５號十一樓","E_COORD97":169175.59,"N_COORD97":2547589.7400000002,"ADDRESS":"敬安街５號十一樓","OBJECTID":500784},"geometry":{"x":169175.59000000078,"y":2547589.7400000039}},{"attributes":{"ID":500812,"DIS_CODE":0,"TOWNNAME":"安南區","LI":"溪北里","LIN":"24鄰","STREET":"敬安街","SECT":" ","MAREA":" ","LANE":" ","ALLEY":" ","HOUSE_NO":"５號十樓","E_COORD97":169175.59,"N_COORD97":2547589.7400000002,"ADDRESS":"敬安街５號十樓","OBJECTID":500785},"geometry":{"x":169175.59000000078,"y":2547589.7400000039}},{"attributes":{"ID":500813,"DIS_CODE":0,"TOWNNAME":"安南區","LI":"溪北里","LIN":"24鄰","STREET":"敬安街","SECT":" ","MAREA":" ","LANE":" ","ALLEY":" ","HOUSE_NO":"５號五樓","E_COORD97":169175.59,"N_COORD97":2547589.7400000002,"ADDRESS":"敬安街５號五樓","OBJECTID":500786},"geometry":{"x":169175.59000000078,"y":2547589.7400000039}},{"attributes":{"ID":500814,"DIS_CODE":0,"TOWNNAME":"安南區","LI":"溪北里","LIN":"24鄰","STREET":"敬安街","SECT":" ","MAREA":" ","LANE":" ","ALLEY":" ","HOUSE_NO":"５號六樓","E_COORD97":169175.59,"N_COORD97":2547589.7400000002,"ADDRESS":"敬安街５號六樓","OBJECTID":500787},"geometry":{"x":169175.59000000078,"y":2547589.7400000039}},{"attributes":{"ID":500815,"DIS_CODE":0,"TOWNNAME":"安南區","LI":"溪北里","LIN":"24鄰","STREET":"敬安街","SECT":" ","MAREA":" ","LANE":" ","ALLEY":" ","HOUSE_NO":"７號七樓","E_COORD97":169186.04000000001,"N_COORD97":2547589.5499999998,"ADDRESS":"敬安街７號七樓","OBJECTID":500788},"geometry":{"x":169186.03999999911,"y":2547589.5500000026}},{"attributes":{"ID":500816,"DIS_CODE":0,"TOWNNAME":"安南區","LI":"溪北里","LIN":"24鄰","STREET":"敬安街","SECT":" ","MAREA":" ","LANE":" ","ALLEY":" ","HOUSE_NO":"７號九樓","E_COORD97":169186.04000000001,"N_COORD97":2547589.5499999998,"ADDRESS":"敬安街７號九樓","OBJECTID":500789},"geometry":{"x":169186.03999999911,"y":2547589.5500000026}},{"attributes":{"ID":500817,"DIS_CODE":0,"TOWNNAME":"安南區","LI":"溪北里","LIN":"24鄰","STREET":"敬安街","SECT":" ","MAREA":" ","LANE":" ","ALLEY":" ","HOUSE_NO":"７號八樓","E_COORD97":169186.04000000001,"N_COORD97":2547589.5499999998,"ADDRESS":"敬安街７號八樓","OBJECTID":500790},"geometry":{"x":169186.03999999911,"y":2547589.5500000026}},{"attributes":{"ID":500818,"DIS_CODE":0,"TOWNNAME":"安南區","LI":"溪北里","LIN":"24鄰","STREET":"敬安街","SECT":" ","MAREA":" ","LANE":" ","ALLEY":" ","HOUSE_NO":"７號十樓","E_COORD97":169186.04000000001,"N_COORD97":2547589.5499999998,"ADDRESS":"敬安街７號十樓","OBJECTID":500791},"geometry":{"x":169186.03999999911,"y":2547589.5500000026}},{"attributes":{"ID":500819,"DIS_CODE":0,"TOWNNAME":"安南區","LI":"溪北里","LIN":"24鄰","STREET":"敬安街","SECT":" ","MAREA":" ","LANE":" ","ALLEY":" ","HOUSE_NO":"７號五樓","E_COORD97":169186.04000000001,"N_COORD97":2547589.5499999998,"ADDRESS":"敬安街７號五樓","OBJECTID":500792},"geometry":{"x":169186.03999999911,"y":2547589.5500000026}},{"attributes":{"ID":500820,"DIS_CODE":0,"TOWNNAME":"永康區","LI":"五王里","LIN":"24鄰","STREET":"成功路","SECT":" ","MAREA":" ","LANE":" ","ALLEY":" ","HOUSE_NO":"２５８號六樓之７","E_COORD97":171313.81,"N_COORD97":2545846.04,"ADDRESS":"成功路２５８號六樓之７","OBJECTID":500793},"geometry":{"x":171313.81000000052,"y":2545846.0399999991}},{"attributes":{"ID":500821,"DIS_CODE":0,"TOWNNAME":"永康區","LI":"五王里","LIN":"24鄰","STREET":"成功路","SECT":" ","MAREA":" ","LANE":" ","ALLEY":" ","HOUSE_NO":"２５８號五樓之１２","E_COORD97":171315.12,"N_COORD97":2545846.04,"ADDRESS":"成功路２５８號五樓之１２","OBJECTID":500794},"geometry":{"x":171315.12000000104,"y":2545846.0399999991}},{"attributes":{"ID":500822,"DIS_CODE":0,"TOWNNAME":"永康區","LI":"五王里","LIN":"24鄰","STREET":"成功路","SECT":" ","MAREA":" ","LANE":" ","ALLEY":" ","HOUSE_NO":"２５８號五樓之１","E_COORD97":171313.73000000001,"N_COORD97":2545846.04,"ADDRESS":"成功路２５８號五樓之１","OBJECTID":500795},"geometry":{"x":171313.73000000045,"y":2545846.0399999991}},{"attributes":{"ID":500823,"DIS_CODE":0,"TOWNNAME":"永康區","LI":"五王里","LIN":"24鄰","STREET":"成功路","SECT":" ","MAREA":" ","LANE":" ","ALLEY":" ","HOUSE_NO":"２５８號三樓之１２","E_COORD97":171315.12,"N_COORD97":2545846.04,"ADDRESS":"成功路２５８號三樓之１２","OBJECTID":500796},"geometry":{"x":171315.12000000104,"y":2545846.0399999991}},{"attributes":{"ID":500824,"DIS_CODE":0,"TOWNNAME":"中西區","LI":"天后里","LIN":"24鄰","STREET":"郡緯街","SECT":" ","MAREA":" ","LANE":" ","ALLEY":" ","HOUSE_NO":"６號三樓之４","E_COORD97":168205.07999999999,"N_COORD97":2544297.52,"ADDRESS":"郡緯街６號三樓之４","OBJECTID":500797},"geometry":{"x":168205.08000000101,"y":2544297.5199999996}},{"attributes":{"ID":500825,"DIS_CODE":0,"TOWNNAME":"新營區","LI":"民權里","LIN":"20鄰","STREET":"民權路","SECT":" ","MAREA":" ","LANE":" ","ALLEY":" ","HOUSE_NO":"５６號","E_COORD97":179720.12,"N_COORD97":2578250.6699999999,"ADDRESS":"民權路５６號","OBJECTID":500798},"geometry":{"x":179720.12000000104,"y":2578250.6699999999}},{"attributes":{"ID":500826,"DIS_CODE":0,"TOWNNAME":"北區","LI":"重興里","LIN":"4鄰","STREET":"林森路","SECT":"三段","MAREA":" ","LANE":" ","ALLEY":" ","HOUSE_NO":"７６號","E_COORD97":170553.32000000001,"N_COORD97":2544818.02,"ADDRESS":"林森路三段７６號","OBJECTID":500799},"geometry":{"x":170553.32000000123,"y":2544818.0200000014}},{"attributes":{"ID":500827,"DIS_CODE":0,"TOWNNAME":"永康區","LI":"五王里","LIN":"24鄰","STREET":"成功路","SECT":" ","MAREA":" ","LANE":" ","ALLEY":" ","HOUSE_NO":"２５８號五樓之２","E_COORD97":171313.87,"N_COORD97":2545846.04,"ADDRESS":"成功路２５８號五樓之２","OBJECTID":500800},"geometry":{"x":171313.87000000104,"y":2545846.0399999991}}]}