{"displayFieldName":"TOWNNAME","fieldAliases":{"ID":"ID","DIS_CODE":"DIS_CODE","TOWNNAME":"TOWNNAME","LI":"LI","LIN":"LIN","STREET":"STREET","SECT":"SECT","MAREA":"MAREA","LANE":"LANE","ALLEY":"ALLEY","HOUSE_NO":"HOUSE_NO","E_COORD97":"E_COORD97","N_COORD97":"N_COORD97","ADDRESS":"ADDRESS","OBJECTID":"OBJECTID"},"geometryType":"esriGeometryPoint","spatialReference":{"wkid":102443,"latestWkid":3826},"fields":[{"name":"ID","type":"esriFieldTypeDouble","alias":"ID"},{"name":"DIS_CODE","type":"esriFieldTypeInteger","alias":"DIS_CODE"},{"name":"TOWNNAME","type":"esriFieldTypeString","alias":"TOWNNAME","length":8},{"name":"LI","type":"esriFieldTypeString","alias":"LI","length":8},{"name":"LIN","type":"esriFieldTypeString","alias":"LIN","length":12},{"name":"STREET","type":"esriFieldTypeString","alias":"STREET","length":20},{"name":"SECT","type":"esriFieldTypeString","alias":"SECT","length":8},{"name":"MAREA","type":"esriFieldTypeString","alias":"MAREA","length":12},{"name":"LANE","type":"esriFieldTypeString","alias":"LANE","length":10},{"name":"ALLEY","type":"esriFieldTypeString","alias":"ALLEY","length":10},{"name":"HOUSE_NO","type":"esriFieldTypeString","alias":"HOUSE_NO","length":20},{"name":"E_COORD97","type":"esriFieldTypeDouble","alias":"E_COORD97"},{"name":"N_COORD97","type":"esriFieldTypeDouble","alias":"N_COORD97"},{"name":"ADDRESS","type":"esriFieldTypeString","alias":"ADDRESS","length":50},{"name":"OBJECTID","type":"esriFieldTypeOID","alias":"OBJECTID"}],"features":[{"attributes":{"ID":662628,"DIS_CODE":0,"TOWNNAME":"安定區","LI":"新吉里","LIN":"3鄰","STREET":" ","SECT":" ","MAREA":"新吉","LANE":" ","ALLEY":" ","HOUSE_NO":"１９之３６號","E_COORD97":169974.727988,"N_COORD97":2554278.3503100001,"ADDRESS":"新吉１９之３６號","OBJECTID":662601},"geometry":{"x":169974.7279879991,"y":2554278.3503080029}},{"attributes":{"ID":662629,"DIS_CODE":0,"TOWNNAME":"安定區","LI":"安定里","LIN":"3鄰","STREET":" ","SECT":" ","MAREA":"安定","LANE":" ","ALLEY":" ","HOUSE_NO":"３之５號","E_COORD97":172673.68681499999,"N_COORD97":2557983.1499700001,"ADDRESS":"安定３之５號","OBJECTID":662602},"geometry":{"x":172673.68681500014,"y":2557983.1499740016}},{"attributes":{"ID":662630,"DIS_CODE":0,"TOWNNAME":"安定區","LI":"安定里","LIN":"1鄰","STREET":" ","SECT":" ","MAREA":"領寄","LANE":" ","ALLEY":" ","HOUSE_NO":"６號","E_COORD97":173586.877928,"N_COORD97":2557100.6592000001,"ADDRESS":"領寄６號","OBJECTID":662603},"geometry":{"x":173586.87792800087,"y":2557100.6591999996}},{"attributes":{"ID":662631,"DIS_CODE":0,"TOWNNAME":"永康區","LI":"埔園里","LIN":"34鄰","STREET":"永大路","SECT":"三段","MAREA":" ","LANE":"６１８巷","ALLEY":" ","HOUSE_NO":"１１號","E_COORD97":174062.33394099999,"N_COORD97":2548750.3238499998,"ADDRESS":"永大路三段６１８巷１１號","OBJECTID":662604},"geometry":{"x":174062.33394099958,"y":2548750.3238450028}},{"attributes":{"ID":662632,"DIS_CODE":0,"TOWNNAME":"永康區","LI":"埔園里","LIN":"34鄰","STREET":"永大路","SECT":"三段","MAREA":" ","LANE":"６１８巷","ALLEY":" ","HOUSE_NO":"１３號","E_COORD97":174063.605377,"N_COORD97":2548750.1121800002,"ADDRESS":"永大路三段６１８巷１３號","OBJECTID":662605},"geometry":{"x":174063.60537700169,"y":2548750.1121780016}},{"attributes":{"ID":662633,"DIS_CODE":0,"TOWNNAME":"永康區","LI":"埔園里","LIN":"34鄰","STREET":"永大路","SECT":"三段","MAREA":" ","LANE":"６１８巷","ALLEY":" ","HOUSE_NO":"１５號","E_COORD97":174065.08872,"N_COORD97":2548749.9005100001,"ADDRESS":"永大路三段６１８巷１５號","OBJECTID":662606},"geometry":{"x":174065.08872000128,"y":2548749.9005120043}},{"attributes":{"ID":662634,"DIS_CODE":0,"TOWNNAME":"永康區","LI":"埔園里","LIN":"34鄰","STREET":"永大路","SECT":"三段","MAREA":" ","LANE":"６１８巷","ALLEY":"１７弄","HOUSE_NO":"１號","E_COORD97":174065.08872,"N_COORD97":2548755.4038399998,"ADDRESS":"永大路三段６１８巷１７弄１號","OBJECTID":662607},"geometry":{"x":174065.08872000128,"y":2548755.4038420022}},{"attributes":{"ID":662635,"DIS_CODE":0,"TOWNNAME":"永康區","LI":"埔園里","LIN":"34鄰","STREET":"永大路","SECT":"三段","MAREA":" ","LANE":"６１８巷","ALLEY":"１７弄","HOUSE_NO":"３號","E_COORD97":174065.30062699999,"N_COORD97":2548759.0021700002,"ADDRESS":"永大路三段６１８巷１７弄３號","OBJECTID":662608},"geometry":{"x":174065.30062700156,"y":2548759.0021739993}},{"attributes":{"ID":662636,"DIS_CODE":0,"TOWNNAME":"永康區","LI":"埔園里","LIN":"34鄰","STREET":"永大路","SECT":"三段","MAREA":" ","LANE":"６１８巷","ALLEY":"１７弄","HOUSE_NO":"５號","E_COORD97":174065.08872,"N_COORD97":2548762.8121699998,"ADDRESS":"永大路三段６１８巷１７弄５號","OBJECTID":662609},"geometry":{"x":174065.08872000128,"y":2548762.8121710028}},{"attributes":{"ID":662637,"DIS_CODE":0,"TOWNNAME":"永康區","LI":"埔園里","LIN":"34鄰","STREET":"永大路","SECT":"三段","MAREA":" ","LANE":"６１８巷","ALLEY":"１７弄","HOUSE_NO":"７號","E_COORD97":174065.08872,"N_COORD97":2548767.2571700001,"ADDRESS":"永大路三段６１８巷１７弄７號","OBJECTID":662610},"geometry":{"x":174065.08872000128,"y":2548767.2571690027}},{"attributes":{"ID":662638,"DIS_CODE":0,"TOWNNAME":"永康區","LI":"埔園里","LIN":"34鄰","STREET":"永大路","SECT":"三段","MAREA":" ","LANE":"６１８巷","ALLEY":" ","HOUSE_NO":"９號","E_COORD97":174065.512533,"N_COORD97":2548770.4321699999,"ADDRESS":"永大路三段６１８巷９號","OBJECTID":662611},"geometry":{"x":174065.51253299974,"y":2548770.4321670011}},{"attributes":{"ID":662639,"DIS_CODE":0,"TOWNNAME":"永康區","LI":"蔦松里","LIN":"6鄰","STREET":"蔦松三街","SECT":" ","MAREA":" ","LANE":" ","ALLEY":" ","HOUSE_NO":"１號","E_COORD97":173740.236622,"N_COORD97":2549584.9250599998,"ADDRESS":"蔦松三街１號","OBJECTID":662612},"geometry":{"x":173740.23662200011,"y":2549584.9250610005}},{"attributes":{"ID":662640,"DIS_CODE":0,"TOWNNAME":"永康區","LI":"網寮里","LIN":"18鄰","STREET":"永大一路","SECT":" ","MAREA":" ","LANE":"３３６巷","ALLEY":" ","HOUSE_NO":"１１號","E_COORD97":173515.828029,"N_COORD97":2546265.6760200001,"ADDRESS":"永大一路３３６巷１１號","OBJECTID":662613},"geometry":{"x":173515.82802900113,"y":2546265.6760200001}},{"attributes":{"ID":662641,"DIS_CODE":0,"TOWNNAME":"永康區","LI":"王行里","LIN":"4鄰","STREET":"育樂街","SECT":" ","MAREA":" ","LANE":"１４３巷","ALLEY":" ","HOUSE_NO":"１３號","E_COORD97":175089.019145,"N_COORD97":2548265.0782699999,"ADDRESS":"育樂街１４３巷１３號","OBJECTID":662614},"geometry":{"x":175089.01914500166,"y":2548265.0782740023}},{"attributes":{"ID":662642,"DIS_CODE":0,"TOWNNAME":"永康區","LI":"五王里","LIN":"29鄰","STREET":"振興路","SECT":" ","MAREA":" ","LANE":" ","ALLEY":" ","HOUSE_NO":"８７號","E_COORD97":171634.31349199999,"N_COORD97":2545870.2829,"ADDRESS":"振興路８７號","OBJECTID":662615},"geometry":{"x":171634.3134920001,"y":2545870.2829}},{"attributes":{"ID":662643,"DIS_CODE":0,"TOWNNAME":"永康區","LI":"王行里","LIN":"16鄰","STREET":"永科環路","SECT":" ","MAREA":" ","LANE":" ","ALLEY":" ","HOUSE_NO":"１１８號","E_COORD97":176174.61425399999,"N_COORD97":2548492.40815,"ADDRESS":"永科環路１１８號","OBJECTID":662616},"geometry":{"x":176174.61425399967,"y":2548492.4081510007}},{"attributes":{"ID":662644,"DIS_CODE":0,"TOWNNAME":"安定區","LI":"安定里","LIN":"1鄰","STREET":" ","SECT":" ","MAREA":"領寄","LANE":" ","ALLEY":" ","HOUSE_NO":"１０號","E_COORD97":173525.02949099999,"N_COORD97":2557095.4733699998,"ADDRESS":"領寄１０號","OBJECTID":662617},"geometry":{"x":173525.02949100081,"y":2557095.4733700026}},{"attributes":{"ID":662645,"DIS_CODE":0,"TOWNNAME":"安定區","LI":"安定里","LIN":"1鄰","STREET":" ","SECT":" ","MAREA":"領寄","LANE":" ","ALLEY":" ","HOUSE_NO":"９號","E_COORD97":173534.56092799999,"N_COORD97":2557105.84503,"ADDRESS":"領寄９號","OBJECTID":662618},"geometry":{"x":173534.56092800014,"y":2557105.8450310025}},{"attributes":{"ID":662646,"DIS_CODE":0,"TOWNNAME":"安定區","LI":"安定里","LIN":"1鄰","STREET":" ","SECT":" ","MAREA":"領寄","LANE":" ","ALLEY":" ","HOUSE_NO":"１號","E_COORD97":173487.85688599999,"N_COORD97":2557069.01505,"ADDRESS":"領寄１號","OBJECTID":662619},"geometry":{"x":173487.85688600224,"y":2557069.0150509998}},{"attributes":{"ID":662647,"DIS_CODE":0,"TOWNNAME":"安定區","LI":"安定里","LIN":"1鄰","STREET":" ","SECT":" ","MAREA":"領寄","LANE":" ","ALLEY":" ","HOUSE_NO":"４號","E_COORD97":173539.220742,"N_COORD97":2557081.1858799998,"ADDRESS":"領寄４號","OBJECTID":662620},"geometry":{"x":173539.2207420012,"y":2557081.1858769991}},{"attributes":{"ID":662648,"DIS_CODE":0,"TOWNNAME":"安定區","LI":"六嘉里","LIN":"1鄰","STREET":" ","SECT":" ","MAREA":"六塊寮","LANE":" ","ALLEY":" ","HOUSE_NO":"１０之１號","E_COORD97":170360.91005199999,"N_COORD97":2553572.8127700002,"ADDRESS":"六塊寮１０之１號","OBJECTID":662621},"geometry":{"x":170360.91005200054,"y":2553572.8127720039}},{"attributes":{"ID":662649,"DIS_CODE":0,"TOWNNAME":"安定區","LI":"六嘉里","LIN":"1鄰","STREET":" ","SECT":" ","MAREA":"六塊寮","LANE":" ","ALLEY":" ","HOUSE_NO":"１０號之２","E_COORD97":170326.067354,"N_COORD97":2553602.8694199999,"ADDRESS":"六塊寮１０號之２","OBJECTID":662622},"geometry":{"x":170326.06735400204,"y":2553602.8694219999}},{"attributes":{"ID":662650,"DIS_CODE":0,"TOWNNAME":"安定區","LI":"六嘉里","LIN":"1鄰","STREET":" ","SECT":" ","MAREA":"六塊寮","LANE":" ","ALLEY":" ","HOUSE_NO":"１０號之９","E_COORD97":170298.426186,"N_COORD97":2553578.7394300001,"ADDRESS":"六塊寮１０號之９","OBJECTID":662623},"geometry":{"x":170298.42618600093,"y":2553578.7394350003}},{"attributes":{"ID":662651,"DIS_CODE":0,"TOWNNAME":"安定區","LI":"蘇林里","LIN":"1鄰","STREET":" ","SECT":" ","MAREA":"蘇厝","LANE":" ","ALLEY":" ","HOUSE_NO":"１之４５號","E_COORD97":174213.331638,"N_COORD97":2558643.4437799999,"ADDRESS":"蘇厝１之４５號","OBJECTID":662624},"geometry":{"x":174213.33163800091,"y":2558643.4437840004}},{"attributes":{"ID":662652,"DIS_CODE":0,"TOWNNAME":"安定區","LI":"蘇林里","LIN":"1鄰","STREET":" ","SECT":" ","MAREA":"蘇厝","LANE":" ","ALLEY":" ","HOUSE_NO":"１之３１號","E_COORD97":174243.090903,"N_COORD97":2558650.8521099999,"ADDRESS":"蘇厝１之３１號","OBJECTID":662625},"geometry":{"x":174243.09090299997,"y":2558650.8521130029}},{"attributes":{"ID":662653,"DIS_CODE":0,"TOWNNAME":"安定區","LI":"蘇林里","LIN":"1鄰","STREET":" ","SECT":" ","MAREA":"蘇厝","LANE":" ","ALLEY":" ","HOUSE_NO":"１號之５","E_COORD97":174262.18025,"N_COORD97":2558657.5725199999,"ADDRESS":"蘇厝１之５號","OBJECTID":662626},"geometry":{"x":174262.18025000207,"y":2558657.5725200027}},{"attributes":{"ID":662654,"DIS_CODE":0,"TOWNNAME":"永康區","LI":"\u25A0洲里","LIN":"17鄰","STREET":"中正南路","SECT":" ","MAREA":" ","LANE":"７４３巷","ALLEY":" ","HOUSE_NO":"８之９號","E_COORD97":171594.76920800001,"N_COORD97":2548921.05425,"ADDRESS":"中正南路７４３巷８之９號","OBJECTID":662627},"geometry":{"x":171594.76920800097,"y":2548921.0542480014}},{"attributes":{"ID":662655,"DIS_CODE":0,"TOWNNAME":"永康區","LI":"\u25A0洲里","LIN":"17鄰","STREET":"中正南路","SECT":" ","MAREA":" ","LANE":"７４３巷","ALLEY":" ","HOUSE_NO":"８之８號","E_COORD97":171596.67636300001,"N_COORD97":2548919.9959200001,"ADDRESS":"中正南路７４３巷８之８號","OBJECTID":662628},"geometry":{"x":171596.67636299971,"y":2548919.9959160034}},{"attributes":{"ID":662656,"DIS_CODE":0,"TOWNNAME":"永康區","LI":"\u25A0洲里","LIN":"17鄰","STREET":"中正南路","SECT":" ","MAREA":" ","LANE":"７４３巷","ALLEY":" ","HOUSE_NO":"８之７號","E_COORD97":171598.15970600001,"N_COORD97":2548918.3025799999,"ADDRESS":"中正南路７４３巷８之７號","OBJECTID":662629},"geometry":{"x":171598.1597060021,"y":2548918.3025829997}},{"attributes":{"ID":662657,"DIS_CODE":0,"TOWNNAME":"永康區","LI":"\u25A0洲里","LIN":"17鄰","STREET":"中正南路","SECT":" ","MAREA":" ","LANE":"７４３巷","ALLEY":" ","HOUSE_NO":"８之６號","E_COORD97":171599.64304900001,"N_COORD97":2548917.24425,"ADDRESS":"中正南路７４３巷８之６號","OBJECTID":662630},"geometry":{"x":171599.6430489989,"y":2548917.2442500014}},{"attributes":{"ID":662658,"DIS_CODE":0,"TOWNNAME":"永康區","LI":"\u25A0洲里","LIN":"17鄰","STREET":"中正南路","SECT":" ","MAREA":" ","LANE":"７４３巷","ALLEY":" ","HOUSE_NO":"８之５號","E_COORD97":171601.12639200001,"N_COORD97":2548916.3975800001,"ADDRESS":"中正南路７４３巷８之５號","OBJECTID":662631},"geometry":{"x":171601.12639200129,"y":2548916.3975840006}},{"attributes":{"ID":662659,"DIS_CODE":0,"TOWNNAME":"永康區","LI":"\u25A0洲里","LIN":"17鄰","STREET":"中正南路","SECT":" ","MAREA":" ","LANE":"７４３巷","ALLEY":" ","HOUSE_NO":"８之１０號","E_COORD97":171594.34539500001,"N_COORD97":2548923.5942500001,"ADDRESS":"中正南路７４３巷８之１０號","OBJECTID":662632},"geometry":{"x":171594.34539499972,"y":2548923.5942470003}},{"attributes":{"ID":662660,"DIS_CODE":0,"TOWNNAME":"永康區","LI":"\u25A0洲里","LIN":"17鄰","STREET":"中正南路","SECT":" ","MAREA":" ","LANE":"７４３巷","ALLEY":" ","HOUSE_NO":"８之３號","E_COORD97":171602.60973500001,"N_COORD97":2548914.9159200001,"ADDRESS":"中正南路７４３巷８之３號","OBJECTID":662633},"geometry":{"x":171602.60973500088,"y":2548914.915918}},{"attributes":{"ID":662661,"DIS_CODE":0,"TOWNNAME":"永康區","LI":"\u25A0洲里","LIN":"17鄰","STREET":"中正南路","SECT":" ","MAREA":" ","LANE":"７４３巷","ALLEY":" ","HOUSE_NO":"８之２號","E_COORD97":171604.72879600001,"N_COORD97":2548914.2809199998,"ADDRESS":"中正南路７４３巷８之２號","OBJECTID":662634},"geometry":{"x":171604.72879600059,"y":2548914.2809190042}},{"attributes":{"ID":662662,"DIS_CODE":0,"TOWNNAME":"永康區","LI":"\u25A0洲里","LIN":"17鄰","STREET":"中正南路","SECT":" ","MAREA":" ","LANE":"７４３巷","ALLEY":" ","HOUSE_NO":"８之１號","E_COORD97":171606.000233,"N_COORD97":2548912.7992500002,"ADDRESS":"中正南路７４３巷８之１號","OBJECTID":662635},"geometry":{"x":171606.00023300014,"y":2548912.7992530018}},{"attributes":{"ID":662663,"DIS_CODE":0,"TOWNNAME":"永康區","LI":"\u25A0洲里","LIN":"17鄰","STREET":"中正南路","SECT":" ","MAREA":" ","LANE":"７４３巷","ALLEY":" ","HOUSE_NO":"８號","E_COORD97":171608.33119999999,"N_COORD97":2548911.9525899999,"ADDRESS":"中正南路７４３巷８號","OBJECTID":662636},"geometry":{"x":171608.33120000083,"y":2548911.952587001}},{"attributes":{"ID":662664,"DIS_CODE":0,"TOWNNAME":"永康區","LI":"二王里","LIN":"13鄰","STREET":"永二街","SECT":" ","MAREA":" ","LANE":"４４７巷","ALLEY":" ","HOUSE_NO":"１０號","E_COORD97":172716.60026499999,"N_COORD97":2546617.1696600001,"ADDRESS":"永二街４４７巷１０號","OBJECTID":662637},"geometry":{"x":172716.60026500002,"y":2546617.1696590018}},{"attributes":{"ID":662665,"DIS_CODE":0,"TOWNNAME":"永康區","LI":"二王里","LIN":"13鄰","STREET":"永二街","SECT":" ","MAREA":" ","LANE":"４４７巷","ALLEY":" ","HOUSE_NO":"１０之１號","E_COORD97":172717.235984,"N_COORD97":2546614.8413300002,"ADDRESS":"永二街４４７巷１０之１號","OBJECTID":662638},"geometry":{"x":172717.23598400131,"y":2546614.8413269985}},{"attributes":{"ID":662666,"DIS_CODE":0,"TOWNNAME":"永康區","LI":"二王里","LIN":"13鄰","STREET":"永二街","SECT":" ","MAREA":" ","LANE":"４４７巷","ALLEY":" ","HOUSE_NO":"１２號","E_COORD97":172717.02407700001,"N_COORD97":2546612.9363299999,"ADDRESS":"永二街４４７巷１２號","OBJECTID":662639},"geometry":{"x":172717.02407700196,"y":2546612.9363279995}},{"attributes":{"ID":662667,"DIS_CODE":0,"TOWNNAME":"永康區","LI":"二王里","LIN":"13鄰","STREET":"永二街","SECT":" ","MAREA":" ","LANE":"４４７巷","ALLEY":" ","HOUSE_NO":"１２之１號","E_COORD97":172717.235984,"N_COORD97":2546610.3963299999,"ADDRESS":"永二街４４７巷１２之１號","OBJECTID":662640},"geometry":{"x":172717.23598400131,"y":2546610.3963290006}},{"attributes":{"ID":662668,"DIS_CODE":0,"TOWNNAME":"永康區","LI":"大橋里","LIN":"6鄰","STREET":"大橋五街","SECT":" ","MAREA":" ","LANE":" ","ALLEY":" ","HOUSE_NO":"３０號","E_COORD97":170821.099923,"N_COORD97":2546872.1220200001,"ADDRESS":"大橋五街３０號","OBJECTID":662641},"geometry":{"x":170821.09992300067,"y":2546872.1220210008}},{"attributes":{"ID":662669,"DIS_CODE":0,"TOWNNAME":"永康區","LI":"大橋里","LIN":"6鄰","STREET":"大橋五街","SECT":" ","MAREA":" ","LANE":" ","ALLEY":" ","HOUSE_NO":"３２號","E_COORD97":170824.914234,"N_COORD97":2546874.4503500001,"ADDRESS":"大橋五街３２號","OBJECTID":662642},"geometry":{"x":170824.91423400026,"y":2546874.4503540043}},{"attributes":{"ID":662670,"DIS_CODE":0,"TOWNNAME":"永康區","LI":"大橋里","LIN":"6鄰","STREET":"大橋五街","SECT":" ","MAREA":" ","LANE":" ","ALLEY":" ","HOUSE_NO":"３６號","E_COORD97":170827.88092,"N_COORD97":2546876.7786900001,"ADDRESS":"大橋五街３６號","OBJECTID":662643},"geometry":{"x":170827.88092000037,"y":2546876.7786860019}},{"attributes":{"ID":662671,"DIS_CODE":0,"TOWNNAME":"永康區","LI":"大橋里","LIN":"6鄰","STREET":"大橋五街","SECT":" ","MAREA":" ","LANE":" ","ALLEY":" ","HOUSE_NO":"３８號","E_COORD97":170831.05951200001,"N_COORD97":2546878.6836899999,"ADDRESS":"大橋五街３８號","OBJECTID":662644},"geometry":{"x":170831.05951200053,"y":2546878.683685001}},{"attributes":{"ID":662672,"DIS_CODE":0,"TOWNNAME":"永康區","LI":"三民里","LIN":"11鄰","STREET":"和平路","SECT":" ","MAREA":" ","LANE":"２３８巷","ALLEY":" ","HOUSE_NO":"７號","E_COORD97":174800.48515699999,"N_COORD97":2550756.3090900001,"ADDRESS":"和平路２３８巷７號","OBJECTID":662645},"geometry":{"x":174800.48515700083,"y":2550756.3090909999}},{"attributes":{"ID":662673,"DIS_CODE":0,"TOWNNAME":"永康區","LI":"大灣里","LIN":"16鄰","STREET":"大灣五街","SECT":" ","MAREA":" ","LANE":" ","ALLEY":" ","HOUSE_NO":"２５號","E_COORD97":174775.05642199999,"N_COORD97":2545203.23709,"ADDRESS":"大灣五街２５號","OBJECTID":662646},"geometry":{"x":174775.05642199982,"y":2545203.2370890025}},{"attributes":{"ID":662674,"DIS_CODE":0,"TOWNNAME":"永康區","LI":"北灣里","LIN":"35鄰","STREET":"大灣路","SECT":" ","MAREA":" ","LANE":"４０巷","ALLEY":"７２弄","HOUSE_NO":"１號","E_COORD97":175046.508175,"N_COORD97":2546142.7190800002,"ADDRESS":"大灣路４０巷７２弄１號","OBJECTID":662647},"geometry":{"x":175046.50817499962,"y":2546142.7190820016}},{"attributes":{"ID":662675,"DIS_CODE":0,"TOWNNAME":"永康區","LI":"二王里","LIN":"13鄰","STREET":"永二街","SECT":" ","MAREA":" ","LANE":"４４７巷","ALLEY":" ","HOUSE_NO":"１６號","E_COORD97":172717.824781,"N_COORD97":2546606.7521700002,"ADDRESS":"永二街４４７巷１６號","OBJECTID":662648},"geometry":{"x":172717.82478100061,"y":2546606.7521700021}},{"attributes":{"ID":662676,"DIS_CODE":0,"TOWNNAME":"永康區","LI":"二王里","LIN":"13鄰","STREET":"永二街","SECT":" ","MAREA":" ","LANE":"４４７巷","ALLEY":" ","HOUSE_NO":"１６之１號","E_COORD97":172717.06759600001,"N_COORD97":2546603.5147299999,"ADDRESS":"永二街４４７巷１６之１號","OBJECTID":662649},"geometry":{"x":172717.06759600062,"y":2546603.5147320013}},{"attributes":{"ID":662677,"DIS_CODE":0,"TOWNNAME":"新營區","LI":"護鎮里","LIN":"10鄰","STREET":" ","SECT":" ","MAREA":"後鎮","LANE":" ","ALLEY":" ","HOUSE_NO":"３６９號","E_COORD97":177438.61804999999,"N_COORD97":2579827.16439,"ADDRESS":"後鎮３６９號","OBJECTID":662650},"geometry":{"x":177438.61804999877,"y":2579827.1643899996}},{"attributes":{"ID":662678,"DIS_CODE":0,"TOWNNAME":"安定區","LI":"保西里","LIN":"9鄰","STREET":" ","SECT":" ","MAREA":"安定","LANE":" ","ALLEY":" ","HOUSE_NO":"４２９之２號","E_COORD97":171599.714717,"N_COORD97":2557797.4295600001,"ADDRESS":"安定４２９之２號","OBJECTID":662651},"geometry":{"x":171599.71471699979,"y":2557797.4295610022}},{"attributes":{"ID":662679,"DIS_CODE":0,"TOWNNAME":"東山區","LI":"東原里","LIN":"29鄰","STREET":" ","SECT":" ","MAREA":"瓦厝子","LANE":" ","ALLEY":" ","HOUSE_NO":"２７號之１３","E_COORD97":194362.70241500001,"N_COORD97":2574849.81061,"ADDRESS":"瓦厝子２７號之１３","OBJECTID":662652},"geometry":{"x":194362.70241499972,"y":2574849.8106120005}},{"attributes":{"ID":662680,"DIS_CODE":0,"TOWNNAME":"安定區","LI":"新吉里","LIN":"19鄰","STREET":" ","SECT":" ","MAREA":"公親寮","LANE":" ","ALLEY":" ","HOUSE_NO":"１之１８號","E_COORD97":167958.49389300001,"N_COORD97":2553665.5926299999,"ADDRESS":"公親寮１之１８號","OBJECTID":662653},"geometry":{"x":167958.49389300216,"y":2553665.5926259998}},{"attributes":{"ID":662681,"DIS_CODE":0,"TOWNNAME":"安定區","LI":"港口里","LIN":"2鄰","STREET":" ","SECT":" ","MAREA":"港口","LANE":" ","ALLEY":" ","HOUSE_NO":"２５１之３７號","E_COORD97":171640.01151499999,"N_COORD97":2554781.6045200001,"ADDRESS":"港口２５１之３７號","OBJECTID":662654},"geometry":{"x":171640.01151500177,"y":2554781.6045230012}},{"attributes":{"ID":662682,"DIS_CODE":0,"TOWNNAME":"安定區","LI":"港口里","LIN":"2鄰","STREET":" ","SECT":" ","MAREA":"港口","LANE":" ","ALLEY":" ","HOUSE_NO":"２５１之３８號","E_COORD97":171641.60008800001,"N_COORD97":2554787.00202,"ADDRESS":"港口２５１之３８號","OBJECTID":662655},"geometry":{"x":171641.6000880003,"y":2554787.0020199977}},{"attributes":{"ID":662683,"DIS_CODE":0,"TOWNNAME":"安定區","LI":"港口里","LIN":"2鄰","STREET":" ","SECT":" ","MAREA":"港口","LANE":" ","ALLEY":" ","HOUSE_NO":"２５１之３９號","E_COORD97":171643.294566,"N_COORD97":2554791.65869,"ADDRESS":"港口２５１之３９號","OBJECTID":662656},"geometry":{"x":171643.29456599988,"y":2554791.6586850025}},{"attributes":{"ID":662684,"DIS_CODE":0,"TOWNNAME":"安定區","LI":"港口里","LIN":"2鄰","STREET":" ","SECT":" ","MAREA":"港口","LANE":" ","ALLEY":" ","HOUSE_NO":"２５１之４０號","E_COORD97":171645.20085299999,"N_COORD97":2554796.73868,"ADDRESS":"港口２５１之４０號","OBJECTID":662657},"geometry":{"x":171645.20085300226,"y":2554796.7386820018}},{"attributes":{"ID":662685,"DIS_CODE":0,"TOWNNAME":"安定區","LI":"港口里","LIN":"2鄰","STREET":" ","SECT":" ","MAREA":"港口","LANE":" ","ALLEY":" ","HOUSE_NO":"２５１之４１號","E_COORD97":171647.42485499999,"N_COORD97":2554801.07785,"ADDRESS":"港口２５１之４１號","OBJECTID":662658},"geometry":{"x":171647.42485500034,"y":2554801.0778460018}},{"attributes":{"ID":662686,"DIS_CODE":0,"TOWNNAME":"安定區","LI":"港口里","LIN":"2鄰","STREET":" ","SECT":" ","MAREA":"港口","LANE":" ","ALLEY":" ","HOUSE_NO":"２５１之４２號","E_COORD97":171649.43704799999,"N_COORD97":2554806.2636799999,"ADDRESS":"港口２５１之４２號","OBJECTID":662659},"geometry":{"x":171649.43704800215,"y":2554806.263677001}},{"attributes":{"ID":662687,"DIS_CODE":0,"TOWNNAME":"安定區","LI":"港口里","LIN":"2鄰","STREET":" ","SECT":" ","MAREA":"港口","LANE":" ","ALLEY":" ","HOUSE_NO":"２５１之４３號","E_COORD97":171631.22141200001,"N_COORD97":2554790.9178499999,"ADDRESS":"港口２５１之４３號","OBJECTID":662660},"geometry":{"x":171631.22141200025,"y":2554790.9178520031}},{"attributes":{"ID":662688,"DIS_CODE":0,"TOWNNAME":"安定區","LI":"港口里","LIN":"2鄰","STREET":" ","SECT":" ","MAREA":"港口","LANE":" ","ALLEY":" ","HOUSE_NO":"２５１之４５號","E_COORD97":171632.70408,"N_COORD97":2554796.3153499998,"ADDRESS":"港口２５１之４５號","OBJECTID":662661},"geometry":{"x":171632.70408000052,"y":2554796.3153489996}},{"attributes":{"ID":662689,"DIS_CODE":0,"TOWNNAME":"安定區","LI":"港口里","LIN":"2鄰","STREET":" ","SECT":" ","MAREA":"港口","LANE":" ","ALLEY":" ","HOUSE_NO":"２５１之４６號","E_COORD97":171634.50446299999,"N_COORD97":2554801.1836799998,"ADDRESS":"港口２５１之４６號","OBJECTID":662662},"geometry":{"x":171634.50446300022,"y":2554801.1836790014}},{"attributes":{"ID":662690,"DIS_CODE":0,"TOWNNAME":"安定區","LI":"港口里","LIN":"2鄰","STREET":" ","SECT":" ","MAREA":"港口","LANE":" ","ALLEY":" ","HOUSE_NO":"２５１之４７號","E_COORD97":171637.046179,"N_COORD97":2554806.0520100002,"ADDRESS":"港口２５１之４７號","OBJECTID":662663},"geometry":{"x":171637.04617900215,"y":2554806.0520099998}},{"attributes":{"ID":662691,"DIS_CODE":0,"TOWNNAME":"安定區","LI":"港口里","LIN":"2鄰","STREET":" ","SECT":" ","MAREA":"港口","LANE":" ","ALLEY":" ","HOUSE_NO":"２５１之４８號","E_COORD97":171639.05837099999,"N_COORD97":2554811.55534,"ADDRESS":"港口２５１之４８號","OBJECTID":662664},"geometry":{"x":171639.05837099999,"y":2554811.5553400014}},{"attributes":{"ID":662692,"DIS_CODE":0,"TOWNNAME":"佳里區","LI":"建南里","LIN":"38鄰","STREET":"祥和三街","SECT":" ","MAREA":" ","LANE":" ","ALLEY":" ","HOUSE_NO":"１５３號","E_COORD97":165743.64776699999,"N_COORD97":2561227.2171200002,"ADDRESS":"祥和三街１５３號","OBJECTID":662665},"geometry":{"x":165743.64776700083,"y":2561227.2171160001}},{"attributes":{"ID":662693,"DIS_CODE":0,"TOWNNAME":"北區","LI":"大豐里","LIN":"5鄰","STREET":"武聖路","SECT":" ","MAREA":" ","LANE":"１１４巷","ALLEY":" ","HOUSE_NO":"１號","E_COORD97":167057.23784799999,"N_COORD97":2545232.83133,"ADDRESS":"武聖路１１４巷１號","OBJECTID":662666},"geometry":{"x":167057.23784799967,"y":2545232.8313300014}},{"attributes":{"ID":662694,"DIS_CODE":0,"TOWNNAME":"北區","LI":"仁愛里","LIN":"9鄰","STREET":"長榮路","SECT":"四段","MAREA":" ","LANE":"５８巷","ALLEY":" ","HOUSE_NO":"２０之１號","E_COORD97":170404.74873799999,"N_COORD97":2544991.8489600001,"ADDRESS":"長榮路四段５８巷２０之１號","OBJECTID":662667},"geometry":{"x":170404.74873800203,"y":2544991.8489600029}},{"attributes":{"ID":662695,"DIS_CODE":0,"TOWNNAME":"北區","LI":"仁愛里","LIN":"9鄰","STREET":"長榮路","SECT":"四段","MAREA":" ","LANE":"５８巷","ALLEY":" ","HOUSE_NO":"２０之２號","E_COORD97":170412.16082700001,"N_COORD97":2544996.50562,"ADDRESS":"長榮路四段５８巷２０之２號","OBJECTID":662668},"geometry":{"x":170412.16082700063,"y":2544996.505624}},{"attributes":{"ID":662696,"DIS_CODE":0,"TOWNNAME":"北區","LI":"重興里","LIN":"13鄰","STREET":"開南街","SECT":" ","MAREA":" ","LANE":"１４３巷","ALLEY":"１０弄","HOUSE_NO":"３３號","E_COORD97":170755.86995399999,"N_COORD97":2545150.3872099998,"ADDRESS":"開南街１４３巷１０弄３３號","OBJECTID":662669},"geometry":{"x":170755.86995400209,"y":2545150.3872070033}},{"attributes":{"ID":662697,"DIS_CODE":0,"TOWNNAME":"北區","LI":"仁愛里","LIN":"10鄰","STREET":"長榮路","SECT":"四段","MAREA":" ","LANE":" ","ALLEY":" ","HOUSE_NO":"７７之１號","E_COORD97":170290.81435,"N_COORD97":2545005.6072800001,"ADDRESS":"長榮路四段７７之１號","OBJECTID":662670},"geometry":{"x":170290.81435000058,"y":2545005.6072800048}},{"attributes":{"ID":662698,"DIS_CODE":0,"TOWNNAME":"北區","LI":"文成里","LIN":"3鄰","STREET":"和緯路","SECT":"三段","MAREA":" ","LANE":"３０３巷","ALLEY":" ","HOUSE_NO":"２５號","E_COORD97":167667.60298200001,"N_COORD97":2545546.3914200002,"ADDRESS":"和緯路三段３０３巷２５號","OBJECTID":662671},"geometry":{"x":167667.60298200045,"y":2545546.3914240003}},{"attributes":{"ID":662699,"DIS_CODE":0,"TOWNNAME":"北區","LI":"成德里","LIN":"12鄰","STREET":"育德二路","SECT":" ","MAREA":" ","LANE":"５５巷","ALLEY":"１７弄","HOUSE_NO":"１５號","E_COORD97":168174.557229,"N_COORD97":2545423.0137299998,"ADDRESS":"育德二路５５巷１７弄１５號","OBJECTID":662672},"geometry":{"x":168174.55722900014,"y":2545423.0137270018}},{"attributes":{"ID":662700,"DIS_CODE":0,"TOWNNAME":"北區","LI":"成德里","LIN":"34鄰","STREET":"文成路","SECT":" ","MAREA":" ","LANE":" ","ALLEY":" ","HOUSE_NO":"３３３號","E_COORD97":168204.84090000001,"N_COORD97":2545913.33929,"ADDRESS":"文成路３３３號","OBJECTID":662673},"geometry":{"x":168204.84090000205,"y":2545913.3392900005}},{"attributes":{"ID":662701,"DIS_CODE":0,"TOWNNAME":"北區","LI":"賢北里","LIN":"13鄰","STREET":"賢北街","SECT":" ","MAREA":" ","LANE":"２７巷","ALLEY":"３８弄","HOUSE_NO":"１號","E_COORD97":166122.25584,"N_COORD97":2545341.7337699998,"ADDRESS":"賢北街２７巷３８弄１號","OBJECTID":662674},"geometry":{"x":166122.2558400007,"y":2545341.733769998}},{"attributes":{"ID":662702,"DIS_CODE":0,"TOWNNAME":"北區","LI":"賢北里","LIN":"13鄰","STREET":"賢北街","SECT":" ","MAREA":" ","LANE":"２７巷","ALLEY":"３８弄","HOUSE_NO":"３號","E_COORD97":166119.50278000001,"N_COORD97":2545348.8245999999,"ADDRESS":"賢北街２７巷３８弄３號","OBJECTID":662675},"geometry":{"x":166119.50277999975,"y":2545348.8246000018}},{"attributes":{"ID":662703,"DIS_CODE":0,"TOWNNAME":"北區","LI":"賢北里","LIN":"13鄰","STREET":"賢北街","SECT":" ","MAREA":" ","LANE":"２７巷","ALLEY":"３８弄","HOUSE_NO":"５號","E_COORD97":166116.74971,"N_COORD97":2545354.8570900001,"ADDRESS":"賢北街２７巷３８弄５號","OBJECTID":662676},"geometry":{"x":166116.74971000105,"y":2545354.8570900001}},{"attributes":{"ID":662704,"DIS_CODE":0,"TOWNNAME":"北區","LI":"賢北里","LIN":"13鄰","STREET":"賢北街","SECT":" ","MAREA":" ","LANE":"２７巷","ALLEY":"３８弄","HOUSE_NO":"７號","E_COORD97":166114.42019999999,"N_COORD97":2545361.8420899999,"ADDRESS":"賢北街２７巷３８弄７號","OBJECTID":662677},"geometry":{"x":166114.42019999959,"y":2545361.8420899995}},{"attributes":{"ID":662705,"DIS_CODE":0,"TOWNNAME":"北區","LI":"賢北里","LIN":"13鄰","STREET":"賢北街","SECT":" ","MAREA":" ","LANE":"２７巷","ALLEY":"３８弄","HOUSE_NO":"９號","E_COORD97":166111.03182,"N_COORD97":2545369.0387499998,"ADDRESS":"賢北街２７巷３８弄９號","OBJECTID":662678},"geometry":{"x":166111.03182000015,"y":2545369.0387500022}},{"attributes":{"ID":662706,"DIS_CODE":0,"TOWNNAME":"北區","LI":"賢北里","LIN":"13鄰","STREET":"賢北街","SECT":" ","MAREA":" ","LANE":"２７巷","ALLEY":"３８弄","HOUSE_NO":"１１號","E_COORD97":166108.27875999999,"N_COORD97":2545375.7062499998,"ADDRESS":"賢北街２７巷３８弄１１號","OBJECTID":662679},"geometry":{"x":166108.27876000106,"y":2545375.7062500007}},{"attributes":{"ID":662707,"DIS_CODE":0,"TOWNNAME":"北區","LI":"賢北里","LIN":"13鄰","STREET":"賢北街","SECT":" ","MAREA":" ","LANE":"２７巷","ALLEY":"３８弄","HOUSE_NO":"１３號","E_COORD97":166105.73746999999,"N_COORD97":2545382.1620800002,"ADDRESS":"賢北街２７巷３８弄１３號","OBJECTID":662680},"geometry":{"x":166105.73747000098,"y":2545382.1620800011}},{"attributes":{"ID":662708,"DIS_CODE":0,"TOWNNAME":"北區","LI":"賢北里","LIN":"13鄰","STREET":"賢北街","SECT":" ","MAREA":" ","LANE":"２７巷","ALLEY":"３８弄","HOUSE_NO":"１５號","E_COORD97":166103.40794999999,"N_COORD97":2545388.61791,"ADDRESS":"賢北街２７巷３８弄１５號","OBJECTID":662681},"geometry":{"x":166103.40795000084,"y":2545388.6179099996}},{"attributes":{"ID":662709,"DIS_CODE":0,"TOWNNAME":"北區","LI":"賢北里","LIN":"13鄰","STREET":"賢北街","SECT":" ","MAREA":" ","LANE":"２７巷","ALLEY":"３８弄","HOUSE_NO":"１７號","E_COORD97":166101.07844000001,"N_COORD97":2545394.0153999999,"ADDRESS":"賢北街２７巷３８弄１７號","OBJECTID":662682},"geometry":{"x":166101.07844000123,"y":2545394.0154000018}},{"attributes":{"ID":662710,"DIS_CODE":0,"TOWNNAME":"北區","LI":"賢北里","LIN":"13鄰","STREET":"賢北街","SECT":" ","MAREA":" ","LANE":"２７巷","ALLEY":"３８弄","HOUSE_NO":"１９號","E_COORD97":166097.69005999999,"N_COORD97":2545400.0479000001,"ADDRESS":"賢北街２７巷３８弄１９號","OBJECTID":662683},"geometry":{"x":166097.69005999994,"y":2545400.0479000006}},{"attributes":{"ID":662711,"DIS_CODE":0,"TOWNNAME":"北區","LI":"賢北里","LIN":"13鄰","STREET":"賢北街","SECT":" ","MAREA":" ","LANE":"２７巷","ALLEY":"３８弄","HOUSE_NO":"２號","E_COORD97":166134.96226999999,"N_COORD97":2545348.1896000002,"ADDRESS":"賢北街２７巷３８弄２號","OBJECTID":662684},"geometry":{"x":166134.96227000002,"y":2545348.189600002}},{"attributes":{"ID":662712,"DIS_CODE":0,"TOWNNAME":"北區","LI":"賢北里","LIN":"13鄰","STREET":"賢北街","SECT":" ","MAREA":" ","LANE":"２７巷","ALLEY":"３８弄","HOUSE_NO":"６號","E_COORD97":166132.20921,"N_COORD97":2545354.7512599998,"ADDRESS":"賢北街２７巷３８弄６號","OBJECTID":662685},"geometry":{"x":166132.20921000186,"y":2545354.7512600012}},{"attributes":{"ID":662713,"DIS_CODE":0,"TOWNNAME":"北區","LI":"賢北里","LIN":"13鄰","STREET":"賢北街","SECT":" ","MAREA":" ","LANE":"２７巷","ALLEY":"３８弄","HOUSE_NO":"８號","E_COORD97":166129.87969999999,"N_COORD97":2545361.52459,"ADDRESS":"賢北街２７巷３８弄８號","OBJECTID":662686},"geometry":{"x":166129.8797000004,"y":2545361.5245900024}},{"attributes":{"ID":662714,"DIS_CODE":0,"TOWNNAME":"北區","LI":"賢北里","LIN":"13鄰","STREET":"賢北街","SECT":" ","MAREA":" ","LANE":"２７巷","ALLEY":"３８弄","HOUSE_NO":"１０號","E_COORD97":166127.55019000001,"N_COORD97":2545367.4512499999,"ADDRESS":"賢北街２７巷３８弄１０號","OBJECTID":662687},"geometry":{"x":166127.55018999893,"y":2545367.4512500018}},{"attributes":{"ID":662715,"DIS_CODE":0,"TOWNNAME":"北區","LI":"賢北里","LIN":"13鄰","STREET":"賢北街","SECT":" ","MAREA":" ","LANE":"２７巷","ALLEY":"３８弄","HOUSE_NO":"１２號","E_COORD97":166126.49132,"N_COORD97":2545373.5895799999,"ADDRESS":"賢北街２７巷３８弄１２號","OBJECTID":662688},"geometry":{"x":166126.49132000096,"y":2545373.5895799976}},{"attributes":{"ID":662716,"DIS_CODE":0,"TOWNNAME":"北區","LI":"賢北里","LIN":"13鄰","STREET":"賢北街","SECT":" ","MAREA":" ","LANE":"２７巷","ALLEY":"３８弄","HOUSE_NO":"１６號","E_COORD97":166123.95003000001,"N_COORD97":2545378.8812500001,"ADDRESS":"賢北街２７巷３８弄１６號","OBJECTID":662689},"geometry":{"x":166123.95003000088,"y":2545378.8812499996}},{"attributes":{"ID":662717,"DIS_CODE":0,"TOWNNAME":"北區","LI":"賢北里","LIN":"13鄰","STREET":"賢北街","SECT":" ","MAREA":" ","LANE":"２７巷","ALLEY":"３８弄","HOUSE_NO":"１８號","E_COORD97":166121.83228999999,"N_COORD97":2545383.7495800001,"ADDRESS":"賢北街２７巷３８弄１８號","OBJECTID":662690},"geometry":{"x":166121.83229000121,"y":2545383.7495800015}},{"attributes":{"ID":662718,"DIS_CODE":0,"TOWNNAME":"北區","LI":"賢北里","LIN":"13鄰","STREET":"賢北街","SECT":" ","MAREA":" ","LANE":"２７巷","ALLEY":"３８弄","HOUSE_NO":"２０號","E_COORD97":166120.34987000001,"N_COORD97":2545389.4645699998,"ADDRESS":"賢北街２７巷３８弄２０號","OBJECTID":662691},"geometry":{"x":166120.34987000003,"y":2545389.4645700008}},{"attributes":{"ID":662719,"DIS_CODE":0,"TOWNNAME":"北區","LI":"賢北里","LIN":"13鄰","STREET":"賢北街","SECT":" ","MAREA":" ","LANE":"２７巷","ALLEY":"３８弄","HOUSE_NO":"２２號","E_COORD97":166118.02035999999,"N_COORD97":2545396.8728999998,"ADDRESS":"賢北街２７巷３８弄２２號","OBJECTID":662692},"geometry":{"x":166118.02036000136,"y":2545396.8729000017}},{"attributes":{"ID":662720,"DIS_CODE":0,"TOWNNAME":"北區","LI":"賢北里","LIN":"13鄰","STREET":"賢北街","SECT":" ","MAREA":" ","LANE":"２７巷","ALLEY":"３８弄","HOUSE_NO":"２６號","E_COORD97":166115.69084,"N_COORD97":2545403.8579000002,"ADDRESS":"賢北街２７巷３８弄２６號","OBJECTID":662693},"geometry":{"x":166115.69084000029,"y":2545403.857900003}},{"attributes":{"ID":662721,"DIS_CODE":0,"TOWNNAME":"北區","LI":"興北里","LIN":"7鄰","STREET":"公園北路","SECT":" ","MAREA":" ","LANE":"８８巷","ALLEY":"４８弄","HOUSE_NO":"１號","E_COORD97":169104.12825899999,"N_COORD97":2545130.88998,"ADDRESS":"公園北路８８巷４８弄１號","OBJECTID":662694},"geometry":{"x":169104.12825900037,"y":2545130.8899820037}},{"attributes":{"ID":662722,"DIS_CODE":0,"TOWNNAME":"北區","LI":"興北里","LIN":"7鄰","STREET":"公園北路","SECT":" ","MAREA":" ","LANE":"８８巷","ALLEY":"４８弄","HOUSE_NO":"２號","E_COORD97":169104.76379600001,"N_COORD97":2545125.1749800001,"ADDRESS":"公園北路８８巷４８弄２號","OBJECTID":662695},"geometry":{"x":169104.76379600074,"y":2545125.174984999}},{"attributes":{"ID":662723,"DIS_CODE":0,"TOWNNAME":"北區","LI":"興北里","LIN":"7鄰","STREET":"公園北路","SECT":" ","MAREA":" ","LANE":"８８巷","ALLEY":"４８弄","HOUSE_NO":"３號","E_COORD97":169108.153326,"N_COORD97":2545133.0066499999,"ADDRESS":"公園北路８８巷４８弄３號","OBJECTID":662696},"geometry":{"x":169108.15332600009,"y":2545133.0066470001}},{"attributes":{"ID":662724,"DIS_CODE":0,"TOWNNAME":"北區","LI":"興北里","LIN":"7鄰","STREET":"公園北路","SECT":" ","MAREA":" ","LANE":"８８巷","ALLEY":"４８弄","HOUSE_NO":"５號","E_COORD97":169113.449467,"N_COORD97":2545133.42998,"ADDRESS":"公園北路８８巷４８弄５號","OBJECTID":662697},"geometry":{"x":169113.44946700148,"y":2545133.4299800023}},{"attributes":{"ID":662725,"DIS_CODE":0,"TOWNNAME":"北區","LI":"興北里","LIN":"7鄰","STREET":"公園北路","SECT":" ","MAREA":" ","LANE":"８８巷","ALLEY":"４８弄","HOUSE_NO":"６號","E_COORD97":169109.00070900001,"N_COORD97":2545126.02165,"ADDRESS":"公園北路８８巷４８弄６號","OBJECTID":662698},"geometry":{"x":169109.00070900097,"y":2545126.0216510016}},{"attributes":{"ID":662726,"DIS_CODE":0,"TOWNNAME":"北區","LI":"興北里","LIN":"7鄰","STREET":"公園北路","SECT":" ","MAREA":" ","LANE":"８８巷","ALLEY":"４８弄","HOUSE_NO":"７號","E_COORD97":169118.43374199999,"N_COORD97":2545134.19472,"ADDRESS":"公園北路８８巷４８弄７號","OBJECTID":662699},"geometry":{"x":169118.43374199979,"y":2545134.1947159991}},{"attributes":{"ID":662727,"DIS_CODE":0,"TOWNNAME":"北區","LI":"興北里","LIN":"7鄰","STREET":"公園北路","SECT":" ","MAREA":" ","LANE":"８８巷","ALLEY":"４８弄","HOUSE_NO":"８號","E_COORD97":169113.87315900001,"N_COORD97":2545127.7149800002,"ADDRESS":"公園北路８８巷４８弄８號","OBJECTID":662700},"geometry":{"x":169113.87315900065,"y":2545127.7149829995}},{"attributes":{"ID":662728,"DIS_CODE":0,"TOWNNAME":"北區","LI":"興北里","LIN":"7鄰","STREET":"公園北路","SECT":" ","MAREA":" ","LANE":"８８巷","ALLEY":"４８弄","HOUSE_NO":"１０號","E_COORD97":169118.745608,"N_COORD97":2545129.4083199999,"ADDRESS":"公園北路８８巷４８弄１０號","OBJECTID":662701},"geometry":{"x":169118.74560800008,"y":2545129.4083160013}},{"attributes":{"ID":662729,"DIS_CODE":0,"TOWNNAME":"安南區","LI":"四草里","LIN":"8鄰","STREET":"北汕尾一路","SECT":" ","MAREA":" ","LANE":"８３巷","ALLEY":" ","HOUSE_NO":"１１５號","E_COORD97":160735.978256,"N_COORD97":2545692.44882,"ADDRESS":"北汕尾一路８３巷１１５號","OBJECTID":662702},"geometry":{"x":160735.97825600114,"y":2545692.4488229994}},{"attributes":{"ID":662730,"DIS_CODE":0,"TOWNNAME":"安南區","LI":"海西里","LIN":"16鄰","STREET":"海尾路","SECT":" ","MAREA":" ","LANE":" ","ALLEY":" ","HOUSE_NO":"３５２號","E_COORD97":166399.009919,"N_COORD97":2548529.9935900001,"ADDRESS":"海尾路３５２號","OBJECTID":662703},"geometry":{"x":166399.00991899986,"y":2548529.9935950004}},{"attributes":{"ID":662731,"DIS_CODE":0,"TOWNNAME":"關廟區","LI":"北勢里","LIN":"3鄰","STREET":"仁愛路","SECT":" ","MAREA":" ","LANE":" ","ALLEY":" ","HOUSE_NO":"１３０號","E_COORD97":181362.64061500001,"N_COORD97":2540329.26284,"ADDRESS":"仁愛路１３０號","OBJECTID":662704},"geometry":{"x":181362.64061500039,"y":2540329.2628400009}},{"attributes":{"ID":662732,"DIS_CODE":0,"TOWNNAME":"關廟區","LI":"北勢里","LIN":"3鄰","STREET":"仁愛路","SECT":" ","MAREA":" ","LANE":" ","ALLEY":" ","HOUSE_NO":"１３２號","E_COORD97":181364.22965699999,"N_COORD97":2540334.7661700002,"ADDRESS":"仁愛路１３２號","OBJECTID":662705},"geometry":{"x":181364.22965699993,"y":2540334.7661700025}},{"attributes":{"ID":662733,"DIS_CODE":0,"TOWNNAME":"關廟區","LI":"北勢里","LIN":"3鄰","STREET":"仁愛路","SECT":" ","MAREA":" ","LANE":" ","ALLEY":" ","HOUSE_NO":"１３６號","E_COORD97":181365.606826,"N_COORD97":2540339.8461699998,"ADDRESS":"仁愛路１３６號","OBJECTID":662706},"geometry":{"x":181365.60682600085,"y":2540339.8461670019}},{"attributes":{"ID":662734,"DIS_CODE":0,"TOWNNAME":"關廟區","LI":"北勢里","LIN":"3鄰","STREET":"仁愛路","SECT":" ","MAREA":" ","LANE":" ","ALLEY":" ","HOUSE_NO":"１３８號","E_COORD97":181367.407741,"N_COORD97":2540345.3495,"ADDRESS":"仁愛路１３８號","OBJECTID":662707},"geometry":{"x":181367.40774099994,"y":2540345.349498}},{"attributes":{"ID":662735,"DIS_CODE":0,"TOWNNAME":"關廟區","LI":"北勢里","LIN":"3鄰","STREET":"北仁街","SECT":" ","MAREA":" ","LANE":" ","ALLEY":" ","HOUSE_NO":"９９號","E_COORD97":181396.96392099999,"N_COORD97":2540334.3957500001,"ADDRESS":"北仁街９９號","OBJECTID":662708},"geometry":{"x":181396.96392100118,"y":2540334.395754002}},{"attributes":{"ID":662736,"DIS_CODE":0,"TOWNNAME":"關廟區","LI":"北勢里","LIN":"3鄰","STREET":"北仁街","SECT":" ","MAREA":" ","LANE":" ","ALLEY":" ","HOUSE_NO":"１０１號","E_COORD97":181391.77304999999,"N_COORD97":2540336.1949200002,"ADDRESS":"北仁街１０１號","OBJECTID":662709},"geometry":{"x":181391.77305000089,"y":2540336.1949190013}},{"attributes":{"ID":662737,"DIS_CODE":0,"TOWNNAME":"關廟區","LI":"北勢里","LIN":"3鄰","STREET":"北仁街","SECT":" ","MAREA":" ","LANE":" ","ALLEY":" ","HOUSE_NO":"１０３號","E_COORD97":181387.11186100001,"N_COORD97":2540338.31158,"ADDRESS":"北仁街１０３號","OBJECTID":662710},"geometry":{"x":181387.1118610017,"y":2540338.3115850016}},{"attributes":{"ID":662738,"DIS_CODE":0,"TOWNNAME":"永康區","LI":"二王里","LIN":"13鄰","STREET":"永二街","SECT":" ","MAREA":" ","LANE":"４４７巷","ALLEY":"８弄","HOUSE_NO":"１號","E_COORD97":172710.28659999999,"N_COORD97":2546617.4847200001,"ADDRESS":"永二街４４７巷８弄１號","OBJECTID":662711},"geometry":{"x":172710.28660000023,"y":2546617.4847240001}},{"attributes":{"ID":662739,"DIS_CODE":0,"TOWNNAME":"永康區","LI":"二王里","LIN":"13鄰","STREET":"永二街","SECT":" ","MAREA":" ","LANE":"４４７巷","ALLEY":"８弄","HOUSE_NO":"３號","E_COORD97":172709.65088199999,"N_COORD97":2546615.7913899999,"ADDRESS":"永二街４４７巷８弄３號","OBJECTID":662712},"geometry":{"x":172709.65088200103,"y":2546615.7913920004}},{"attributes":{"ID":662740,"DIS_CODE":0,"TOWNNAME":"永康區","LI":"二王里","LIN":"13鄰","STREET":"永二街","SECT":" ","MAREA":" ","LANE":"４４７巷","ALLEY":"８弄","HOUSE_NO":"５號","E_COORD97":172708.80325699999,"N_COORD97":2546614.5213899999,"ADDRESS":"永二街４４７巷８弄５號","OBJECTID":662713},"geometry":{"x":172708.80325700063,"y":2546614.5213920008}},{"attributes":{"ID":662741,"DIS_CODE":0,"TOWNNAME":"永康區","LI":"二王里","LIN":"13鄰","STREET":"永二街","SECT":" ","MAREA":" ","LANE":"４４７巷","ALLEY":"８弄","HOUSE_NO":"７號","E_COORD97":172707.74372599999,"N_COORD97":2546613.0397299998,"ADDRESS":"永二街４４７巷８弄７號","OBJECTID":662714},"geometry":{"x":172707.74372600019,"y":2546613.0397270005}},{"attributes":{"ID":662742,"DIS_CODE":0,"TOWNNAME":"永康區","LI":"二王里","LIN":"13鄰","STREET":"永二街","SECT":" ","MAREA":" ","LANE":"４４７巷","ALLEY":"８弄","HOUSE_NO":"９號","E_COORD97":172706.26038399999,"N_COORD97":2546611.13473,"ADDRESS":"永二街４４７巷８弄９號","OBJECTID":662715},"geometry":{"x":172706.26038399991,"y":2546611.1347279996}},{"attributes":{"ID":662743,"DIS_CODE":0,"TOWNNAME":"永康區","LI":"二王里","LIN":"13鄰","STREET":"永二街","SECT":" ","MAREA":" ","LANE":"４４７巷","ALLEY":"８弄","HOUSE_NO":"１１號","E_COORD97":172704.98894700001,"N_COORD97":2546609.4413999999,"ADDRESS":"永二街４４７巷８弄１１號","OBJECTID":662716},"geometry":{"x":172704.98894700035,"y":2546609.4413950015}},{"attributes":{"ID":662744,"DIS_CODE":0,"TOWNNAME":"中西區","LI":"大涼里","LIN":"27鄰","STREET":"永華路","SECT":"一段","MAREA":" ","LANE":" ","ALLEY":" ","HOUSE_NO":"３０１號","E_COORD97":166788.752492,"N_COORD97":2543247.8525800002,"ADDRESS":"永華路一段３０１號","OBJECTID":662717},"geometry":{"x":166788.75249200128,"y":2543247.8525830004}},{"attributes":{"ID":662745,"DIS_CODE":0,"TOWNNAME":"中西區","LI":"大涼里","LIN":"27鄰","STREET":"永華路","SECT":"一段","MAREA":" ","LANE":" ","ALLEY":" ","HOUSE_NO":"３０３號","E_COORD97":166776.45848500001,"N_COORD97":2543250.1809100001,"ADDRESS":"永華路一段３０３號","OBJECTID":662718},"geometry":{"x":166776.45848499984,"y":2543250.1809150018}},{"attributes":{"ID":662746,"DIS_CODE":0,"TOWNNAME":"中西區","LI":"大涼里","LIN":"27鄰","STREET":"永華路","SECT":"一段","MAREA":" ","LANE":" ","ALLEY":" ","HOUSE_NO":"３０５號","E_COORD97":166762.680719,"N_COORD97":2543253.1442499999,"ADDRESS":"永華路一段３０５號","OBJECTID":662719},"geometry":{"x":166762.68071900029,"y":2543253.1442469992}},{"attributes":{"ID":662747,"DIS_CODE":0,"TOWNNAME":"中西區","LI":"大涼里","LIN":"27鄰","STREET":"永華路","SECT":"一段","MAREA":" ","LANE":" ","ALLEY":" ","HOUSE_NO":"３０７號","E_COORD97":166749.538849,"N_COORD97":2543256.1075800001,"ADDRESS":"永華路一段３０７號","OBJECTID":662720},"geometry":{"x":166749.53884900082,"y":2543256.1075780038}},{"attributes":{"ID":662748,"DIS_CODE":0,"TOWNNAME":"中西區","LI":"大涼里","LIN":"27鄰","STREET":"永華路","SECT":"一段","MAREA":" ","LANE":" ","ALLEY":" ","HOUSE_NO":"３０９號","E_COORD97":166733.85339199999,"N_COORD97":2543259.70591,"ADDRESS":"永華路一段３０９號","OBJECTID":662721},"geometry":{"x":166733.85339200124,"y":2543259.705910001}},{"attributes":{"ID":662749,"DIS_CODE":0,"TOWNNAME":"中西區","LI":"大涼里","LIN":"27鄰","STREET":"永華路","SECT":"一段","MAREA":" ","LANE":" ","ALLEY":" ","HOUSE_NO":"３１１號","E_COORD97":166718.37990100001,"N_COORD97":2543262.6692400002,"ADDRESS":"永華路一段３１１號","OBJECTID":662722},"geometry":{"x":166718.37990100123,"y":2543262.6692420021}},{"attributes":{"ID":662750,"DIS_CODE":0,"TOWNNAME":"中西區","LI":"大涼里","LIN":"27鄰","STREET":"永華路","SECT":"一段","MAREA":" ","LANE":" ","ALLEY":" ","HOUSE_NO":"３１３號","E_COORD97":166702.90641,"N_COORD97":2543266.6909099999,"ADDRESS":"永華路一段３１３號","OBJECTID":662723},"geometry":{"x":166702.90641000122,"y":2543266.6909059994}},{"attributes":{"ID":662751,"DIS_CODE":0,"TOWNNAME":"中西區","LI":"大涼里","LIN":"27鄰","STREET":"永華路","SECT":"一段","MAREA":" ","LANE":" ","ALLEY":" ","HOUSE_NO":"３１５號","E_COORD97":166686.16112500001,"N_COORD97":2543270.5008999999,"ADDRESS":"永華路一段３１５號","OBJECTID":662724},"geometry":{"x":166686.16112499963,"y":2543270.5009039994}},{"attributes":{"ID":662752,"DIS_CODE":0,"TOWNNAME":"中西區","LI":"永華里","LIN":"18鄰","STREET":"忠義路","SECT":"二段","MAREA":" ","LANE":" ","ALLEY":" ","HOUSE_NO":"２８號","E_COORD97":168282.26235500001,"N_COORD97":2543581.4390699998,"ADDRESS":"忠義路二段２８號","OBJECTID":662725},"geometry":{"x":168282.26235499978,"y":2543581.4390689991}},{"attributes":{"ID":662753,"DIS_CODE":0,"TOWNNAME":"中西區","LI":"西湖里","LIN":"35鄰","STREET":"頂美一街","SECT":" ","MAREA":" ","LANE":"６５巷","ALLEY":" ","HOUSE_NO":"１號","E_COORD97":166293.17683700001,"N_COORD97":2544730.5767799998,"ADDRESS":"頂美一街６５巷１號","OBJECTID":662726},"geometry":{"x":166293.176837001,"y":2544730.5767819993}},{"attributes":{"ID":662754,"DIS_CODE":0,"TOWNNAME":"中西區","LI":"西湖里","LIN":"35鄰","STREET":"頂美一街","SECT":" ","MAREA":" ","LANE":"６５巷","ALLEY":" ","HOUSE_NO":"５號","E_COORD97":166270.70848,"N_COORD97":2544731.8467799998,"ADDRESS":"頂美一街６５巷５號","OBJECTID":662727},"geometry":{"x":166270.70847999956,"y":2544731.8467810024}},{"attributes":{"ID":662755,"DIS_CODE":0,"TOWNNAME":"中西區","LI":"西湖里","LIN":"35鄰","STREET":"頂美一街","SECT":" ","MAREA":" ","LANE":"６５巷","ALLEY":" ","HOUSE_NO":"３號","E_COORD97":166280.952984,"N_COORD97":2544730.9308099998,"ADDRESS":"頂美一街６５巷３號","OBJECTID":662728},"geometry":{"x":166280.95298399962,"y":2544730.9308120012}},{"attributes":{"ID":662756,"DIS_CODE":0,"TOWNNAME":"中西區","LI":"西湖里","LIN":"8鄰","STREET":"民權路","SECT":"四段","MAREA":" ","LANE":"１１２巷","ALLEY":" ","HOUSE_NO":"９７號","E_COORD97":166259.120524,"N_COORD97":2544720.9824799998,"ADDRESS":"民權路四段１１２巷９７號","OBJECTID":662729},"geometry":{"x":166259.12052400131,"y":2544720.9824839998}},{"attributes":{"ID":662757,"DIS_CODE":0,"TOWNNAME":"中西區","LI":"西湖里","LIN":"35鄰","STREET":"頂美一街","SECT":" ","MAREA":" ","LANE":"６５巷","ALLEY":" ","HOUSE_NO":"１７號","E_COORD97":166257.636764,"N_COORD97":2544733.68248,"ADDRESS":"頂美一街６５巷１７號","OBJECTID":662730},"geometry":{"x":166257.63676400017,"y":2544733.6824780013}},{"attributes":{"ID":662758,"DIS_CODE":0,"TOWNNAME":"中西區","LI":"藥王里","LIN":"14鄰","STREET":"協和街","SECT":" ","MAREA":" ","LANE":" ","ALLEY":" ","HOUSE_NO":"２８之２號","E_COORD97":166987.513932,"N_COORD97":2544441.5958599998,"ADDRESS":"協和街２８之２號","OBJECTID":662731},"geometry":{"x":166987.51393199991,"y":2544441.5958640017}},{"attributes":{"ID":662759,"DIS_CODE":0,"TOWNNAME":"中西區","LI":"建國里","LIN":"12鄰","STREET":"民生路","SECT":"一段","MAREA":" ","LANE":" ","ALLEY":" ","HOUSE_NO":"１６５號三樓","E_COORD97":168026.145544,"N_COORD97":2543832.20786,"ADDRESS":"民生路一段１６５號三樓","OBJECTID":662732},"geometry":{"x":168026.14554399997,"y":2543832.2078600023}},{"attributes":{"ID":662760,"DIS_CODE":0,"TOWNNAME":"中西區","LI":"建國里","LIN":"12鄰","STREET":"民生路","SECT":"一段","MAREA":" ","LANE":" ","ALLEY":" ","HOUSE_NO":"１６５號四樓","E_COORD97":168026.145544,"N_COORD97":2543832.20786,"ADDRESS":"民生路一段１６５號四樓","OBJECTID":662733},"geometry":{"x":168026.14554399997,"y":2543832.2078600023}},{"attributes":{"ID":662761,"DIS_CODE":0,"TOWNNAME":"中西區","LI":"建國里","LIN":"12鄰","STREET":"民生路","SECT":"一段","MAREA":" ","LANE":" ","ALLEY":" ","HOUSE_NO":"１６５號五樓","E_COORD97":168026.145544,"N_COORD97":2543832.20786,"ADDRESS":"民生路一段１６５號五樓","OBJECTID":662734},"geometry":{"x":168026.14554399997,"y":2543832.2078600023}},{"attributes":{"ID":662762,"DIS_CODE":0,"TOWNNAME":"中西區","LI":"建國里","LIN":"12鄰","STREET":"民生路","SECT":"一段","MAREA":" ","LANE":" ","ALLEY":" ","HOUSE_NO":"１６５號六樓","E_COORD97":168026.145544,"N_COORD97":2543832.20786,"ADDRESS":"民生路一段１６５號六樓","OBJECTID":662735},"geometry":{"x":168026.14554399997,"y":2543832.2078600023}},{"attributes":{"ID":662763,"DIS_CODE":0,"TOWNNAME":"中西區","LI":"建國里","LIN":"12鄰","STREET":"民生路","SECT":"一段","MAREA":" ","LANE":" ","ALLEY":" ","HOUSE_NO":"１６５號五樓之１","E_COORD97":168026.145544,"N_COORD97":2543832.20786,"ADDRESS":"民生路一段１６５號五樓之１","OBJECTID":662736},"geometry":{"x":168026.14554399997,"y":2543832.2078600023}},{"attributes":{"ID":662764,"DIS_CODE":0,"TOWNNAME":"永康區","LI":"\u25A0行里","LIN":"32鄰","STREET":"仁愛街","SECT":" ","MAREA":" ","LANE":"１０８巷","ALLEY":"３２弄","HOUSE_NO":"６號","E_COORD97":172235.02304199999,"N_COORD97":2549358.9504999998,"ADDRESS":"仁愛街１０８巷３２弄６號","OBJECTID":662737},"geometry":{"x":172235.02304200083,"y":2549358.9504990019}},{"attributes":{"ID":662765,"DIS_CODE":0,"TOWNNAME":"永康區","LI":"北灣里","LIN":"33鄰","STREET":"大灣路","SECT":" ","MAREA":" ","LANE":" ","ALLEY":" ","HOUSE_NO":"４９號","E_COORD97":175296.64282199999,"N_COORD97":2545827.8232399998,"ADDRESS":"大灣路４９號","OBJECTID":662738},"geometry":{"x":175296.6428220002,"y":2545827.8232390024}},{"attributes":{"ID":662766,"DIS_CODE":0,"TOWNNAME":"永康區","LI":"北灣里","LIN":"35鄰","STREET":"大灣路","SECT":" ","MAREA":" ","LANE":"４０巷","ALLEY":"７２弄","HOUSE_NO":"３號","E_COORD97":175050.407898,"N_COORD97":2546146.2755700001,"ADDRESS":"大灣路４０巷７２弄３號","OBJECTID":662739},"geometry":{"x":175050.40789800137,"y":2546146.2755670007}},{"attributes":{"ID":662767,"DIS_CODE":0,"TOWNNAME":"永康區","LI":"北灣里","LIN":"35鄰","STREET":"大灣路","SECT":" ","MAREA":" ","LANE":"４０巷","ALLEY":"７２弄","HOUSE_NO":"５號","E_COORD97":175053.374584,"N_COORD97":2546149.4505699999,"ADDRESS":"大灣路４０巷７２弄５號","OBJECTID":662740},"geometry":{"x":175053.37458400056,"y":2546149.4505649991}},{"attributes":{"ID":662768,"DIS_CODE":0,"TOWNNAME":"永康區","LI":"二王里","LIN":"12鄰","STREET":"永二街","SECT":" ","MAREA":" ","LANE":"４４７巷","ALLEY":" ","HOUSE_NO":"５號","E_COORD97":172728.12860900001,"N_COORD97":2546642.6336300001,"ADDRESS":"永二街４４７巷５號","OBJECTID":662741},"geometry":{"x":172728.12860900164,"y":2546642.6336320043}},{"attributes":{"ID":662769,"DIS_CODE":0,"TOWNNAME":"永康區","LI":"二王里","LIN":"12鄰","STREET":"永二街","SECT":" ","MAREA":" ","LANE":"４４７巷","ALLEY":" ","HOUSE_NO":"１５號","E_COORD97":172733.638168,"N_COORD97":2546603.8986499999,"ADDRESS":"永二街４４７巷１５號","OBJECTID":662742},"geometry":{"x":172733.63816799968,"y":2546603.8986530006}},{"attributes":{"ID":662770,"DIS_CODE":0,"TOWNNAME":"永康區","LI":"二王里","LIN":"12鄰","STREET":"永二街","SECT":" ","MAREA":" ","LANE":"４４７巷","ALLEY":" ","HOUSE_NO":"７號","E_COORD97":172728.552421,"N_COORD97":2546639.0353000001,"ADDRESS":"永二街４４７巷７號","OBJECTID":662743},"geometry":{"x":172728.55242100079,"y":2546639.0353010017}},{"attributes":{"ID":662771,"DIS_CODE":0,"TOWNNAME":"永康區","LI":"\u25A0行里","LIN":"47鄰","STREET":"新中街","SECT":" ","MAREA":" ","LANE":" ","ALLEY":" ","HOUSE_NO":"２８３號","E_COORD97":172485.707995,"N_COORD97":2548893.60158,"ADDRESS":"新中街２８３號","OBJECTID":662744},"geometry":{"x":172485.7079950003,"y":2548893.6015830021}},{"attributes":{"ID":662772,"DIS_CODE":0,"TOWNNAME":"永康區","LI":"\u25A0行里","LIN":"47鄰","STREET":"新中街","SECT":" ","MAREA":" ","LANE":" ","ALLEY":" ","HOUSE_NO":"２８５號","E_COORD97":172487.40324399999,"N_COORD97":2548897.19991,"ADDRESS":"新中街２８５號","OBJECTID":662745},"geometry":{"x":172487.40324399993,"y":2548897.1999149993}},{"attributes":{"ID":662773,"DIS_CODE":0,"TOWNNAME":"永康區","LI":"\u25A0行里","LIN":"47鄰","STREET":"新中街","SECT":" ","MAREA":" ","LANE":" ","ALLEY":" ","HOUSE_NO":"２８７號","E_COORD97":172488.674681,"N_COORD97":2548900.79825,"ADDRESS":"新中街２８７號","OBJECTID":662746},"geometry":{"x":172488.67468100134,"y":2548900.7982460018}},{"attributes":{"ID":662774,"DIS_CODE":0,"TOWNNAME":"永康區","LI":"\u25A0行里","LIN":"47鄰","STREET":"新中街","SECT":" ","MAREA":" ","LANE":" ","ALLEY":" ","HOUSE_NO":"２８９號","E_COORD97":172489.94611799999,"N_COORD97":2548906.3015800002,"ADDRESS":"新中街２８９號","OBJECTID":662747},"geometry":{"x":172489.94611800089,"y":2548906.3015769981}},{"attributes":{"ID":662775,"DIS_CODE":0,"TOWNNAME":"永康區","LI":"大灣里","LIN":"3鄰","STREET":"信義二街","SECT":" ","MAREA":" ","LANE":" ","ALLEY":" ","HOUSE_NO":"１１５號","E_COORD97":174855.45425800001,"N_COORD97":2545724.2124600001,"ADDRESS":"信義二街１１５號","OBJECTID":662748},"geometry":{"x":174855.45425800048,"y":2545724.2124620005}},{"attributes":{"ID":662776,"DIS_CODE":0,"TOWNNAME":"永康區","LI":"大灣里","LIN":"3鄰","STREET":"信義二街","SECT":" ","MAREA":" ","LANE":" ","ALLEY":" ","HOUSE_NO":"１１７號","E_COORD97":174851.42804100001,"N_COORD97":2545725.4824600001,"ADDRESS":"信義二街１１７號","OBJECTID":662749},"geometry":{"x":174851.42804099992,"y":2545725.4824610017}},{"attributes":{"ID":662777,"DIS_CODE":0,"TOWNNAME":"永康區","LI":"大灣里","LIN":"3鄰","STREET":"信義二街","SECT":" ","MAREA":" ","LANE":" ","ALLEY":" ","HOUSE_NO":"１１９號","E_COORD97":174846.766106,"N_COORD97":2545725.05913,"ADDRESS":"信義二街１１９號","OBJECTID":662750},"geometry":{"x":174846.76610599924,"y":2545725.0591280032}},{"attributes":{"ID":662778,"DIS_CODE":0,"TOWNNAME":"永康區","LI":"中興里","LIN":"11鄰","STREET":"中興街","SECT":" ","MAREA":" ","LANE":" ","ALLEY":" ","HOUSE_NO":"９號","E_COORD97":172089.23162400001,"N_COORD97":2545117.25862,"ADDRESS":"中興街９號","OBJECTID":662751},"geometry":{"x":172089.23162399977,"y":2545117.2586230021}},{"attributes":{"ID":662779,"DIS_CODE":0,"TOWNNAME":"永康區","LI":"中興里","LIN":"11鄰","STREET":"中興街","SECT":" ","MAREA":" ","LANE":" ","ALLEY":" ","HOUSE_NO":"７號","E_COORD97":172088.80781200001,"N_COORD97":2545114.0836200002,"ADDRESS":"中興街７號","OBJECTID":662752},"geometry":{"x":172088.80781199969,"y":2545114.0836240035}},{"attributes":{"ID":662780,"DIS_CODE":0,"TOWNNAME":"永康區","LI":"中興里","LIN":"11鄰","STREET":"中興街","SECT":" ","MAREA":" ","LANE":" ","ALLEY":" ","HOUSE_NO":"５號","E_COORD97":172087.74828100001,"N_COORD97":2545110.6969599999,"ADDRESS":"中興街５號","OBJECTID":662753},"geometry":{"x":172087.74828100204,"y":2545110.6969600022}},{"attributes":{"ID":662781,"DIS_CODE":0,"TOWNNAME":"永康區","LI":"二王里","LIN":"15鄰","STREET":"忠孝路","SECT":" ","MAREA":" ","LANE":" ","ALLEY":" ","HOUSE_NO":"４７８號","E_COORD97":172519.23186999999,"N_COORD97":2546696.4363500001,"ADDRESS":"忠孝路４７８號","OBJECTID":662754},"geometry":{"x":172519.23187000118,"y":2546696.4363480005}},{"attributes":{"ID":662782,"DIS_CODE":0,"TOWNNAME":"永康區","LI":"永康里","LIN":"26鄰","STREET":"永大路","SECT":"二段","MAREA":" ","LANE":" ","ALLEY":" ","HOUSE_NO":"１４７２號","E_COORD97":174276.569414,"N_COORD97":2547156.07027,"ADDRESS":"永大路二段１４７２號","OBJECTID":662755},"geometry":{"x":174276.56941400003,"y":2547156.070267003}},{"attributes":{"ID":662783,"DIS_CODE":0,"TOWNNAME":"永康區","LI":"大灣里","LIN":"26鄰","STREET":"中灣五街","SECT":" ","MAREA":" ","LANE":"１６巷","ALLEY":"３５弄","HOUSE_NO":"１０號","E_COORD97":175116.14150500001,"N_COORD97":2545182.1738300002,"ADDRESS":"中灣五街１６巷３５弄１０號","OBJECTID":662756},"geometry":{"x":175116.14150500111,"y":2545182.1738329995}},{"attributes":{"ID":662784,"DIS_CODE":0,"TOWNNAME":"永康區","LI":"大灣里","LIN":"26鄰","STREET":"中灣五街","SECT":" ","MAREA":" ","LANE":"１６巷","ALLEY":"３５弄","HOUSE_NO":"２號","E_COORD97":175106.81763500001,"N_COORD97":2545175.6121700001,"ADDRESS":"中灣五街１６巷３５弄２號","OBJECTID":662757},"geometry":{"x":175106.81763500068,"y":2545175.6121689994}},{"attributes":{"ID":662785,"DIS_CODE":0,"TOWNNAME":"永康區","LI":"大灣里","LIN":"26鄰","STREET":"中灣五街","SECT":" ","MAREA":" ","LANE":"１６巷","ALLEY":"３５弄","HOUSE_NO":"６號","E_COORD97":175110.20813300001,"N_COORD97":2545177.9405,"ADDRESS":"中灣五街１６巷３５弄６號","OBJECTID":662758},"geometry":{"x":175110.20813299995,"y":2545177.940502001}},{"attributes":{"ID":662786,"DIS_CODE":0,"TOWNNAME":"永康區","LI":"大灣里","LIN":"26鄰","STREET":"中灣五街","SECT":" ","MAREA":" ","LANE":"１６巷","ALLEY":"３５弄","HOUSE_NO":"８號","E_COORD97":175112.75100700001,"N_COORD97":2545180.26883,"ADDRESS":"中灣五街１６巷３５弄８號","OBJECTID":662759},"geometry":{"x":175112.75100699998,"y":2545180.2688340005}},{"attributes":{"ID":662787,"DIS_CODE":0,"TOWNNAME":"東區","LI":"富強里","LIN":"17鄰","STREET":"裕農路","SECT":" ","MAREA":" ","LANE":"２８８巷","ALLEY":"１２４弄","HOUSE_NO":"４４號","E_COORD97":171028.74134099999,"N_COORD97":2542870.6634800001,"ADDRESS":"裕農路２８８巷１２４弄４４號","OBJECTID":662760},"geometry":{"x":171028.74134100229,"y":2542870.6634810027}},{"attributes":{"ID":662788,"DIS_CODE":0,"TOWNNAME":"永康區","LI":"大灣里","LIN":"26鄰","STREET":"中灣五街","SECT":" ","MAREA":" ","LANE":"１６巷","ALLEY":"３５弄","HOUSE_NO":"１２號","E_COORD97":175117.412942,"N_COORD97":2545184.5021700002,"ADDRESS":"中灣五街１６巷３５弄１２號","OBJECTID":662761},"geometry":{"x":175117.41294200066,"y":2545184.5021650027}},{"attributes":{"ID":662789,"DIS_CODE":0,"TOWNNAME":"永康區","LI":"大灣里","LIN":"26鄰","STREET":"中灣五街","SECT":" ","MAREA":" ","LANE":"１６巷","ALLEY":"３５弄","HOUSE_NO":"１６號","E_COORD97":175118.68437900001,"N_COORD97":2545187.0421600002,"ADDRESS":"中灣五街１６巷３５弄１６號","OBJECTID":662762},"geometry":{"x":175118.68437900208,"y":2545187.0421630014}},{"attributes":{"ID":662790,"DIS_CODE":0,"TOWNNAME":"永康區","LI":"大灣里","LIN":"26鄰","STREET":"中灣五街","SECT":" ","MAREA":" ","LANE":"１６巷","ALLEY":"３５弄","HOUSE_NO":"１８號","E_COORD97":175120.16772200001,"N_COORD97":2545189.7938299999,"ADDRESS":"中灣五街１６巷３５弄１８號","OBJECTID":662763},"geometry":{"x":175120.16772199981,"y":2545189.7938279994}},{"attributes":{"ID":662791,"DIS_CODE":0,"TOWNNAME":"永康區","LI":"大灣里","LIN":"26鄰","STREET":"中灣五街","SECT":" ","MAREA":" ","LANE":"１６巷","ALLEY":"３５弄","HOUSE_NO":"２０號","E_COORD97":175123.13440700001,"N_COORD97":2545193.8154899999,"ADDRESS":"中灣五街１６巷３５弄２０號","OBJECTID":662764},"geometry":{"x":175123.13440699968,"y":2545193.8154930044}},{"attributes":{"ID":662792,"DIS_CODE":0,"TOWNNAME":"永康區","LI":"\u25A0行里","LIN":"28鄰","STREET":"中正三街","SECT":" ","MAREA":" ","LANE":"４８６巷","ALLEY":" ","HOUSE_NO":"２９號","E_COORD97":172888.37234999999,"N_COORD97":2548673.5077800001,"ADDRESS":"中正三街４８６巷２９號","OBJECTID":662765},"geometry":{"x":172888.37234999985,"y":2548673.5077809989}},{"attributes":{"ID":662793,"DIS_CODE":0,"TOWNNAME":"永康區","LI":"\u25A0行里","LIN":"8鄰","STREET":"中正路","SECT":" ","MAREA":" ","LANE":"５４２巷","ALLEY":" ","HOUSE_NO":"２之５號","E_COORD97":172671.592378,"N_COORD97":2548375.0579400002,"ADDRESS":"中正路５４２巷２之５號","OBJECTID":662766},"geometry":{"x":172671.5923779998,"y":2548375.0579419993}},{"attributes":{"ID":662794,"DIS_CODE":0,"TOWNNAME":"永康區","LI":"\u25A0行里","LIN":"43鄰","STREET":"正南三路","SECT":" ","MAREA":" ","LANE":" ","ALLEY":" ","HOUSE_NO":"８２號","E_COORD97":171647.45004699999,"N_COORD97":2547605.2266899999,"ADDRESS":"正南三路８２號","OBJECTID":662767},"geometry":{"x":171647.45004700124,"y":2547605.2266910002}},{"attributes":{"ID":662795,"DIS_CODE":0,"TOWNNAME":"東區","LI":"富強里","LIN":"17鄰","STREET":"中華東路","SECT":"二段","MAREA":" ","LANE":"２２６巷","ALLEY":"３０弄","HOUSE_NO":"７號","E_COORD97":171150.568719,"N_COORD97":2542696.8852400002,"ADDRESS":"中華東路二段２２６巷３０弄７號","OBJECTID":662768},"geometry":{"x":171150.56871899962,"y":2542696.8852420021}},{"attributes":{"ID":662796,"DIS_CODE":0,"TOWNNAME":"安定區","LI":"蘇林里","LIN":"1鄰","STREET":" ","SECT":" ","MAREA":"蘇厝","LANE":" ","ALLEY":" ","HOUSE_NO":"１之４６號","E_COORD97":174496.648047,"N_COORD97":2558681.7014799998,"ADDRESS":"蘇厝１之４６號","OBJECTID":662769},"geometry":{"x":174496.64804700017,"y":2558681.7014840022}},{"attributes":{"ID":662797,"DIS_CODE":0,"TOWNNAME":"善化區","LI":"西關里","LIN":"13鄰","STREET":"興農路","SECT":" ","MAREA":" ","LANE":" ","ALLEY":" ","HOUSE_NO":"２１號","E_COORD97":176652.561155,"N_COORD97":2559158.1770500001,"ADDRESS":"興農路２１號","OBJECTID":662770},"geometry":{"x":176652.5611550007,"y":2559158.1770539992}},{"attributes":{"ID":662798,"DIS_CODE":0,"TOWNNAME":"善化區","LI":"西關里","LIN":"13鄰","STREET":"興農路","SECT":" ","MAREA":" ","LANE":" ","ALLEY":" ","HOUSE_NO":"２３號","E_COORD97":176612.50956599999,"N_COORD97":2559164.31538,"ADDRESS":"興農路２３號","OBJECTID":662771},"geometry":{"x":176612.50956600066,"y":2559164.3153840005}},{"attributes":{"ID":662799,"DIS_CODE":0,"TOWNNAME":"仁德區","LI":"成功里","LIN":"20鄰","STREET":"保生路","SECT":" ","MAREA":" ","LANE":"８９巷","ALLEY":" ","HOUSE_NO":"２號","E_COORD97":170647.939732,"N_COORD97":2539787.35402,"ADDRESS":"保生路８９巷２號","OBJECTID":662772},"geometry":{"x":170647.93973200116,"y":2539787.354019003}},{"attributes":{"ID":662800,"DIS_CODE":0,"TOWNNAME":"下營區","LI":"開化里","LIN":"4鄰","STREET":" ","SECT":" ","MAREA":"中營","LANE":" ","ALLEY":" ","HOUSE_NO":"２８１之１號","E_COORD97":175849.815015,"N_COORD97":2567896.5910999998,"ADDRESS":"中營２８１之１號","OBJECTID":662773},"geometry":{"x":175849.81501500122,"y":2567896.5910969991}},{"attributes":{"ID":662801,"DIS_CODE":0,"TOWNNAME":"新市區","LI":"港墘里","LIN":"11鄰","STREET":" ","SECT":" ","MAREA":"崙頂","LANE":" ","ALLEY":" ","HOUSE_NO":"２９之２０號","E_COORD97":178819.032626,"N_COORD97":2552530.7024300001,"ADDRESS":"崙頂２９之２０號","OBJECTID":662774},"geometry":{"x":178819.03262600116,"y":2552530.7024330013}},{"attributes":{"ID":662802,"DIS_CODE":0,"TOWNNAME":"安定區","LI":"港口里","LIN":"16鄰","STREET":" ","SECT":" ","MAREA":"港口","LANE":" ","ALLEY":" ","HOUSE_NO":"３５６之１５號","E_COORD97":171108.25467299999,"N_COORD97":2554966.7597400001,"ADDRESS":"港口３５６之１５號","OBJECTID":662775},"geometry":{"x":171108.25467300043,"y":2554966.7597360015}},{"attributes":{"ID":662803,"DIS_CODE":0,"TOWNNAME":"安定區","LI":"港口里","LIN":"16鄰","STREET":" ","SECT":" ","MAREA":"港口","LANE":" ","ALLEY":" ","HOUSE_NO":"３５６之１１號","E_COORD97":171128.16478600001,"N_COORD97":2554943.6880800002,"ADDRESS":"港口３５６之１１號","OBJECTID":662776},"geometry":{"x":171128.1647859998,"y":2554943.6880820002}},{"attributes":{"ID":662804,"DIS_CODE":0,"TOWNNAME":"安定區","LI":"港口里","LIN":"16鄰","STREET":" ","SECT":" ","MAREA":"港口","LANE":" ","ALLEY":" ","HOUSE_NO":"３５６之１２號","E_COORD97":171139.390701,"N_COORD97":2554950.46141,"ADDRESS":"港口３５６之１２號","OBJECTID":662777},"geometry":{"x":171139.39070100058,"y":2554950.4614120014}},{"attributes":{"ID":662805,"DIS_CODE":0,"TOWNNAME":"安定區","LI":"港口里","LIN":"16鄰","STREET":" ","SECT":" ","MAREA":"港口","LANE":" ","ALLEY":" ","HOUSE_NO":"３５６之１３號","E_COORD97":171130.10939699999,"N_COORD97":2555010.80553,"ADDRESS":"港口３５６之１３號","OBJECTID":662778},"geometry":{"x":171130.10939700063,"y":2555010.805528}},{"attributes":{"ID":662806,"DIS_CODE":0,"TOWNNAME":"七股區","LI":"看坪里","LIN":"10鄰","STREET":" ","SECT":" ","MAREA":"看坪","LANE":" ","ALLEY":" ","HOUSE_NO":"７９號之２","E_COORD97":161681.72454600001,"N_COORD97":2558009.4125799998,"ADDRESS":"看坪７９號之２","OBJECTID":662779},"geometry":{"x":161681.72454600036,"y":2558009.4125820007}},{"attributes":{"ID":662807,"DIS_CODE":0,"TOWNNAME":"安定區","LI":"大同里","LIN":"14鄰","STREET":" ","SECT":" ","MAREA":"牛肉寮","LANE":" ","ALLEY":" ","HOUSE_NO":"６５之３８號","E_COORD97":170797.52982,"N_COORD97":2553226.01401,"ADDRESS":"牛肉寮６５之３８號","OBJECTID":662780},"geometry":{"x":170797.52982000075,"y":2553226.014010001}},{"attributes":{"ID":662808,"DIS_CODE":0,"TOWNNAME":"安定區","LI":"港南里","LIN":"1鄰","STREET":" ","SECT":" ","MAREA":"港口","LANE":" ","ALLEY":" ","HOUSE_NO":"１之８０號","E_COORD97":171381.330349,"N_COORD97":2554048.1269,"ADDRESS":"港口１之８０號","OBJECTID":662781},"geometry":{"x":171381.3303490011,"y":2554048.1268990021}},{"attributes":{"ID":662809,"DIS_CODE":0,"TOWNNAME":"安定區","LI":"大同里","LIN":"5鄰","STREET":" ","SECT":" ","MAREA":"大同","LANE":" ","ALLEY":" ","HOUSE_NO":"５２之５號","E_COORD97":170330.860063,"N_COORD97":2553891.5994799999,"ADDRESS":"大同５２之５號","OBJECTID":662782},"geometry":{"x":170330.86006299965,"y":2553891.5994840004}},{"attributes":{"ID":662810,"DIS_CODE":0,"TOWNNAME":"安定區","LI":"中沙里","LIN":"5鄰","STREET":" ","SECT":" ","MAREA":"沙崙","LANE":" ","ALLEY":" ","HOUSE_NO":"３２之３號","E_COORD97":168941.44128,"N_COORD97":2552468.2477500001,"ADDRESS":"沙崙３２之３號","OBJECTID":662783},"geometry":{"x":168941.44128000084,"y":2552468.2477520034}},{"attributes":{"ID":662811,"DIS_CODE":0,"TOWNNAME":"安定區","LI":"南安里","LIN":"4鄰","STREET":" ","SECT":" ","MAREA":"油車","LANE":" ","ALLEY":" ","HOUSE_NO":"４８之１號","E_COORD97":170632.63595600001,"N_COORD97":2555502.3819499998,"ADDRESS":"油車４８之１號","OBJECTID":662784},"geometry":{"x":170632.63595599961,"y":2555502.3819469977}},{"attributes":{"ID":662812,"DIS_CODE":0,"TOWNNAME":"佳里區","LI":"安西里","LIN":"41鄰","STREET":"佳西路","SECT":" ","MAREA":" ","LANE":" ","ALLEY":" ","HOUSE_NO":"１３６號","E_COORD97":164788.86862600001,"N_COORD97":2562461.96269,"ADDRESS":"佳西路１３６號","OBJECTID":662785},"geometry":{"x":164788.86862600036,"y":2562461.9626939986}},{"attributes":{"ID":662813,"DIS_CODE":0,"TOWNNAME":"新營區","LI":"三仙里","LIN":"32鄰","STREET":"育德北路","SECT":" ","MAREA":" ","LANE":" ","ALLEY":" ","HOUSE_NO":"５１號","E_COORD97":179443.77980300001,"N_COORD97":2579389.6382599999,"ADDRESS":"育德北路５１號","OBJECTID":662786},"geometry":{"x":179443.77980300039,"y":2579389.6382560022}},{"attributes":{"ID":662814,"DIS_CODE":0,"TOWNNAME":"新營區","LI":"三仙里","LIN":"32鄰","STREET":"育德北路","SECT":" ","MAREA":" ","LANE":" ","ALLEY":" ","HOUSE_NO":"５３號","E_COORD97":179436.368674,"N_COORD97":2579391.11992,"ADDRESS":"育德北路５３號","OBJECTID":662787},"geometry":{"x":179436.36867400073,"y":2579391.1199220028}},{"attributes":{"ID":662815,"DIS_CODE":0,"TOWNNAME":"新營區","LI":"三仙里","LIN":"32鄰","STREET":"三興街","SECT":" ","MAREA":" ","LANE":" ","ALLEY":" ","HOUSE_NO":"２２６號","E_COORD97":179434.03946199999,"N_COORD97":2579387.0982599999,"ADDRESS":"三興街２２６號","OBJECTID":662788},"geometry":{"x":179434.03946200106,"y":2579387.0982580017}},{"attributes":{"ID":662816,"DIS_CODE":0,"TOWNNAME":"永康區","LI":"王行里","LIN":"16鄰","STREET":"永科環路","SECT":" ","MAREA":" ","LANE":" ","ALLEY":" ","HOUSE_NO":"１０號","E_COORD97":176488.576978,"N_COORD97":2548639.7067399998,"ADDRESS":"永科環路１０號","OBJECTID":662789},"geometry":{"x":176488.57697799988,"y":2548639.7067419998}},{"attributes":{"ID":662817,"DIS_CODE":0,"TOWNNAME":"北門區","LI":"慈安里","LIN":"4鄰","STREET":" ","SECT":" ","MAREA":"三寮灣","LANE":" ","ALLEY":" ","HOUSE_NO":"３８１號之１８","E_COORD97":158815.1888,"N_COORD97":2571024.8128,"ADDRESS":"三寮灣３８１號之１８","OBJECTID":662790},"geometry":{"x":158815.18879999965,"y":2571024.8127999995}},{"attributes":{"ID":662818,"DIS_CODE":0,"TOWNNAME":"永康區","LI":"\u25A0行里","LIN":"1鄰","STREET":"中正北路","SECT":" ","MAREA":" ","LANE":" ","ALLEY":" ","HOUSE_NO":"５６之１號","E_COORD97":172018.41714500001,"N_COORD97":2549058.1715199999,"ADDRESS":"中正北路５６之１號","OBJECTID":662791},"geometry":{"x":172018.4171450017,"y":2549058.1715160012}},{"attributes":{"ID":662819,"DIS_CODE":0,"TOWNNAME":"永康區","LI":"\u25A0洲里","LIN":"31鄰","STREET":"洲尾街","SECT":" ","MAREA":" ","LANE":"３１９巷","ALLEY":" ","HOUSE_NO":"１之１號","E_COORD97":171082.63967,"N_COORD97":2549181.8906200002,"ADDRESS":"洲尾街３１９巷１之１號","OBJECTID":662792},"geometry":{"x":171082.63967000134,"y":2549181.8906160016}},{"attributes":{"ID":662820,"DIS_CODE":0,"TOWNNAME":"永康區","LI":"二王里","LIN":"12鄰","STREET":"永二街","SECT":" ","MAREA":" ","LANE":"４４７巷","ALLEY":" ","HOUSE_NO":"１１號","E_COORD97":172849.08917799999,"N_COORD97":2546526.8512200001,"ADDRESS":"永二街４４７巷１１號","OBJECTID":662793},"geometry":{"x":172849.08917799965,"y":2546526.8512169998}},{"attributes":{"ID":662821,"DIS_CODE":0,"TOWNNAME":"永康區","LI":"二王里","LIN":"12鄰","STREET":"永二街","SECT":" ","MAREA":" ","LANE":"４４７巷","ALLEY":" ","HOUSE_NO":"１３號","E_COORD97":172852.47967599999,"N_COORD97":2546529.17955,"ADDRESS":"永二街４４７巷１３號","OBJECTID":662794},"geometry":{"x":172852.47967600077,"y":2546529.1795490012}},{"attributes":{"ID":662822,"DIS_CODE":0,"TOWNNAME":"永康區","LI":"二王里","LIN":"12鄰","STREET":"永二街","SECT":" ","MAREA":" ","LANE":"４３１巷","ALLEY":" ","HOUSE_NO":"２號","E_COORD97":172753.307607,"N_COORD97":2546630.4619900002,"ADDRESS":"永二街４３１巷２號","OBJECTID":662795},"geometry":{"x":172753.30760699976,"y":2546630.4619939998}},{"attributes":{"ID":662823,"DIS_CODE":0,"TOWNNAME":"永康區","LI":"二王里","LIN":"12鄰","STREET":"永二街","SECT":" ","MAREA":" ","LANE":"４３１巷","ALLEY":" ","HOUSE_NO":"２之１號","E_COORD97":172753.51951300001,"N_COORD97":2546627.7103300001,"ADDRESS":"永二街４３１巷２之１號","OBJECTID":662796},"geometry":{"x":172753.5195129998,"y":2546627.7103289999}},{"attributes":{"ID":662824,"DIS_CODE":0,"TOWNNAME":"永康區","LI":"二王里","LIN":"12鄰","STREET":"永二街","SECT":" ","MAREA":" ","LANE":"４３１巷","ALLEY":" ","HOUSE_NO":"２之２號","E_COORD97":172753.94332600001,"N_COORD97":2546624.95866,"ADDRESS":"永二街４３１巷２之２號","OBJECTID":662797},"geometry":{"x":172753.94332600106,"y":2546624.9586640019}},{"attributes":{"ID":662825,"DIS_CODE":0,"TOWNNAME":"永康區","LI":"二王里","LIN":"12鄰","STREET":"永二街","SECT":" ","MAREA":" ","LANE":"４３１巷","ALLEY":" ","HOUSE_NO":"２之３號","E_COORD97":172752.45998300001,"N_COORD97":2546620.5136699998,"ADDRESS":"永二街４３１巷２之３號","OBJECTID":662798},"geometry":{"x":172752.45998300053,"y":2546620.5136660039}},{"attributes":{"ID":662826,"DIS_CODE":0,"TOWNNAME":"善化區","LI":"文正里","LIN":"14鄰","STREET":"興農路","SECT":" ","MAREA":" ","LANE":" ","ALLEY":" ","HOUSE_NO":"２號","E_COORD97":176642.15449799999,"N_COORD97":2559198.4654399999,"ADDRESS":"興農路２號","OBJECTID":662799},"geometry":{"x":176642.1544979997,"y":2559198.4654440023}},{"attributes":{"ID":662827,"DIS_CODE":0,"TOWNNAME":"安定區","LI":"新吉里","LIN":"7鄰","STREET":" ","SECT":" ","MAREA":"新吉","LANE":" ","ALLEY":" ","HOUSE_NO":"５６之１５８號","E_COORD97":168287.01241,"N_COORD97":2553641.9658599999,"ADDRESS":"新吉５６之１５８號","OBJECTID":662800},"geometry":{"x":168287.01240999997,"y":2553641.9658620022}}]}