{"displayFieldName":"TOWNNAME","fieldAliases":{"ID":"ID","DIS_CODE":"DIS_CODE","TOWNNAME":"TOWNNAME","LI":"LI","LIN":"LIN","STREET":"STREET","SECT":"SECT","MAREA":"MAREA","LANE":"LANE","ALLEY":"ALLEY","HOUSE_NO":"HOUSE_NO","E_COORD97":"E_COORD97","N_COORD97":"N_COORD97","ADDRESS":"ADDRESS","OBJECTID":"OBJECTID"},"geometryType":"esriGeometryPoint","spatialReference":{"wkid":102443,"latestWkid":3826},"fields":[{"name":"ID","type":"esriFieldTypeDouble","alias":"ID"},{"name":"DIS_CODE","type":"esriFieldTypeInteger","alias":"DIS_CODE"},{"name":"TOWNNAME","type":"esriFieldTypeString","alias":"TOWNNAME","length":8},{"name":"LI","type":"esriFieldTypeString","alias":"LI","length":8},{"name":"LIN","type":"esriFieldTypeString","alias":"LIN","length":12},{"name":"STREET","type":"esriFieldTypeString","alias":"STREET","length":20},{"name":"SECT","type":"esriFieldTypeString","alias":"SECT","length":8},{"name":"MAREA","type":"esriFieldTypeString","alias":"MAREA","length":12},{"name":"LANE","type":"esriFieldTypeString","alias":"LANE","length":10},{"name":"ALLEY","type":"esriFieldTypeString","alias":"ALLEY","length":10},{"name":"HOUSE_NO","type":"esriFieldTypeString","alias":"HOUSE_NO","length":20},{"name":"E_COORD97","type":"esriFieldTypeDouble","alias":"E_COORD97"},{"name":"N_COORD97","type":"esriFieldTypeDouble","alias":"N_COORD97"},{"name":"ADDRESS","type":"esriFieldTypeString","alias":"ADDRESS","length":50},{"name":"OBJECTID","type":"esriFieldTypeOID","alias":"OBJECTID"}],"features":[{"attributes":{"ID":283807,"DIS_CODE":0,"TOWNNAME":"南區","LI":"大忠里","LIN":"19鄰","STREET":"大同路","SECT":"二段","MAREA":" ","LANE":"６４０巷","ALLEY":" ","HOUSE_NO":"１０２號","E_COORD97":169208.73000000001,"N_COORD97":2541020.6600000001,"ADDRESS":"大同路二段６４０巷１０２號","OBJECTID":283801},"geometry":{"x":169208.73000000045,"y":2541020.660000002}},{"attributes":{"ID":283808,"DIS_CODE":0,"TOWNNAME":"南區","LI":"大忠里","LIN":"19鄰","STREET":"大同路","SECT":"二段","MAREA":" ","LANE":"６４０巷","ALLEY":" ","HOUSE_NO":"１０４號","E_COORD97":169199.69,"N_COORD97":2541015.3700000001,"ADDRESS":"大同路二段６４０巷１０４號","OBJECTID":283802},"geometry":{"x":169199.69000000134,"y":2541015.3699999992}},{"attributes":{"ID":283809,"DIS_CODE":0,"TOWNNAME":"南區","LI":"大忠里","LIN":"19鄰","STREET":"大同路","SECT":"二段","MAREA":" ","LANE":"６４０巷","ALLEY":" ","HOUSE_NO":"１０６號","E_COORD97":169191.04999999999,"N_COORD97":2541015.96,"ADDRESS":"大同路二段６４０巷１０６號","OBJECTID":283803},"geometry":{"x":169191.05000000075,"y":2541015.9600000028}},{"attributes":{"ID":283810,"DIS_CODE":0,"TOWNNAME":"南區","LI":"大忠里","LIN":"19鄰","STREET":"大同路","SECT":"二段","MAREA":" ","LANE":"６４０巷","ALLEY":" ","HOUSE_NO":"１１０號","E_COORD97":169170.60000000001,"N_COORD97":2541013.4100000001,"ADDRESS":"大同路二段６４０巷１１０號","OBJECTID":283804},"geometry":{"x":169170.60000000056,"y":2541013.4100000001}},{"attributes":{"ID":283811,"DIS_CODE":0,"TOWNNAME":"楠西區","LI":"楠西里","LIN":"19鄰","STREET":"中正路","SECT":" ","MAREA":" ","LANE":"９６巷","ALLEY":" ","HOUSE_NO":"３號","E_COORD97":197253.91,"N_COORD97":2563966.25,"ADDRESS":"中正路９６巷３號","OBJECTID":283805},"geometry":{"x":197253.91000000015,"y":2563966.2500000019}},{"attributes":{"ID":283812,"DIS_CODE":0,"TOWNNAME":"楠西區","LI":"楠西里","LIN":"19鄰","STREET":"中正路","SECT":" ","MAREA":" ","LANE":"９６巷","ALLEY":" ","HOUSE_NO":"５號","E_COORD97":197249.60999999999,"N_COORD97":2563964.25,"ADDRESS":"中正路９６巷５號","OBJECTID":283806},"geometry":{"x":197249.61000000034,"y":2563964.25}},{"attributes":{"ID":283813,"DIS_CODE":0,"TOWNNAME":"永康區","LI":"\u25A0洲里","LIN":"4鄰","STREET":"\u25A0洲二街","SECT":" ","MAREA":" ","LANE":" ","ALLEY":" ","HOUSE_NO":"１３９號","E_COORD97":171656.66,"N_COORD97":2549350.25,"ADDRESS":"\u25A0洲二街１３９號","OBJECTID":283807},"geometry":{"x":171656.66000000015,"y":2549350.2500000019}},{"attributes":{"ID":283814,"DIS_CODE":0,"TOWNNAME":"白河區","LI":"詔安里","LIN":"2鄰","STREET":" ","SECT":" ","MAREA":"詔安厝","LANE":" ","ALLEY":" ","HOUSE_NO":"２４之５５號","E_COORD97":189787.34,"N_COORD97":2588190.2400000002,"ADDRESS":"詔安厝２４之５５號","OBJECTID":283808},"geometry":{"x":189787.34000000171,"y":2588190.2400000021}},{"attributes":{"ID":283815,"DIS_CODE":0,"TOWNNAME":"白河區","LI":"庄內里","LIN":"2鄰","STREET":"新興路","SECT":" ","MAREA":" ","LANE":" ","ALLEY":" ","HOUSE_NO":"１９８號","E_COORD97":191157.91,"N_COORD97":2583407.1899999999,"ADDRESS":"新興路１９８號","OBJECTID":283809},"geometry":{"x":191157.91000000015,"y":2583407.1899999995}},{"attributes":{"ID":283816,"DIS_CODE":0,"TOWNNAME":"白河區","LI":"庄內里","LIN":"2鄰","STREET":"新興路","SECT":" ","MAREA":" ","LANE":" ","ALLEY":" ","HOUSE_NO":"２００號","E_COORD97":191151.10000000001,"N_COORD97":2583386.2200000002,"ADDRESS":"新興路２００號","OBJECTID":283810},"geometry":{"x":191151.09999999963,"y":2583386.2200000025}},{"attributes":{"ID":283817,"DIS_CODE":0,"TOWNNAME":"白河區","LI":"庄內里","LIN":"2鄰","STREET":"新興路","SECT":" ","MAREA":" ","LANE":" ","ALLEY":" ","HOUSE_NO":"２０２號","E_COORD97":191143.64000000001,"N_COORD97":2583387.2400000002,"ADDRESS":"新興路２０２號","OBJECTID":283811},"geometry":{"x":191143.6400000006,"y":2583387.2400000002}},{"attributes":{"ID":283818,"DIS_CODE":0,"TOWNNAME":"楠西區","LI":"楠西里","LIN":"19鄰","STREET":"中正路","SECT":" ","MAREA":" ","LANE":"１０２巷","ALLEY":" ","HOUSE_NO":"１７號","E_COORD97":197251.10999999999,"N_COORD97":2563942.25,"ADDRESS":"中正路１０２巷１７號","OBJECTID":283812},"geometry":{"x":197251.11000000034,"y":2563942.2500000019}},{"attributes":{"ID":283819,"DIS_CODE":0,"TOWNNAME":"南區","LI":"大恩里","LIN":"19鄰","STREET":"大同路","SECT":"二段","MAREA":" ","LANE":"７５０巷","ALLEY":" ","HOUSE_NO":"１６６號","E_COORD97":169042.69,"N_COORD97":2540713.3700000001,"ADDRESS":"大同路二段７５０巷１６６號","OBJECTID":283813},"geometry":{"x":169042.69000000041,"y":2540713.370000001}},{"attributes":{"ID":283820,"DIS_CODE":0,"TOWNNAME":"南區","LI":"建南里","LIN":"10鄰","STREET":"德興路","SECT":" ","MAREA":" ","LANE":"３１４巷","ALLEY":" ","HOUSE_NO":"７０號","E_COORD97":167026.69,"N_COORD97":2539919.8100000001,"ADDRESS":"德興路３１４巷７０號","OBJECTID":283814},"geometry":{"x":167026.69000000041,"y":2539919.8100000005}},{"attributes":{"ID":283821,"DIS_CODE":0,"TOWNNAME":"新營區","LI":"民生里","LIN":"19鄰","STREET":"進修街","SECT":" ","MAREA":" ","LANE":"２９巷","ALLEY":" ","HOUSE_NO":"１３號","E_COORD97":178954.94,"N_COORD97":2578455.8700000001,"ADDRESS":"進修街２９巷１３號","OBJECTID":283815},"geometry":{"x":178954.94000000227,"y":2578455.8700000029}},{"attributes":{"ID":283822,"DIS_CODE":0,"TOWNNAME":"新營區","LI":"忠政里","LIN":"19鄰","STREET":"長榮路","SECT":"二段","MAREA":" ","LANE":"４３巷","ALLEY":" ","HOUSE_NO":"３號","E_COORD97":179951.39999999999,"N_COORD97":2579822.1499999999,"ADDRESS":"長榮路二段４３巷３號","OBJECTID":283816},"geometry":{"x":179951.40000000037,"y":2579822.1500000004}},{"attributes":{"ID":283823,"DIS_CODE":0,"TOWNNAME":"新營區","LI":"民生里","LIN":"19鄰","STREET":"進修街","SECT":" ","MAREA":" ","LANE":"２９巷","ALLEY":" ","HOUSE_NO":"７號","E_COORD97":178963.92000000001,"N_COORD97":2578448.0699999998,"ADDRESS":"進修街２９巷７號","OBJECTID":283817},"geometry":{"x":178963.91999999993,"y":2578448.0700000022}},{"attributes":{"ID":283824,"DIS_CODE":0,"TOWNNAME":"白河區","LI":"河東里","LIN":"2鄰","STREET":" ","SECT":" ","MAREA":"糞箕湖","LANE":" ","ALLEY":" ","HOUSE_NO":"１４之１０號","E_COORD97":192210.76000000001,"N_COORD97":2582176.7000000002,"ADDRESS":"糞箕湖１４之１０號","OBJECTID":283818},"geometry":{"x":192210.76000000071,"y":2582176.6999999993}},{"attributes":{"ID":283825,"DIS_CODE":0,"TOWNNAME":"北區","LI":"文元里","LIN":"19鄰","STREET":"海安路","SECT":"三段","MAREA":" ","LANE":"７８１巷","ALLEY":" ","HOUSE_NO":"１９６號","E_COORD97":167598.32999999999,"N_COORD97":2545990.9700000002,"ADDRESS":"海安路三段７８１巷１９６號","OBJECTID":283819},"geometry":{"x":167598.33000000101,"y":2545990.9700000007}},{"attributes":{"ID":283826,"DIS_CODE":0,"TOWNNAME":"北區","LI":"文元里","LIN":"19鄰","STREET":"海安路","SECT":"三段","MAREA":" ","LANE":"７８１巷","ALLEY":" ","HOUSE_NO":"１９８號","E_COORD97":167593.57000000001,"N_COORD97":2545987.6400000001,"ADDRESS":"海安路三段７８１巷１９８號","OBJECTID":283820},"geometry":{"x":167593.5700000003,"y":2545987.6400000025}},{"attributes":{"ID":283827,"DIS_CODE":0,"TOWNNAME":"北區","LI":"文元里","LIN":"19鄰","STREET":"海安路","SECT":"三段","MAREA":" ","LANE":"７８１巷","ALLEY":" ","HOUSE_NO":"２００號","E_COORD97":167588.79999999999,"N_COORD97":2545991.21,"ADDRESS":"海安路三段７８１巷２００號","OBJECTID":283821},"geometry":{"x":167588.79999999981,"y":2545991.2100000028}},{"attributes":{"ID":283828,"DIS_CODE":0,"TOWNNAME":"白河區","LI":"河東里","LIN":"2鄰","STREET":" ","SECT":" ","MAREA":"糞箕湖","LANE":" ","ALLEY":" ","HOUSE_NO":"１４之２號","E_COORD97":192250.32000000001,"N_COORD97":2582165.8300000001,"ADDRESS":"糞箕湖１４之２號","OBJECTID":283822},"geometry":{"x":192250.3200000003,"y":2582165.8300000001}},{"attributes":{"ID":283829,"DIS_CODE":0,"TOWNNAME":"白河區","LI":"河東里","LIN":"2鄰","STREET":" ","SECT":" ","MAREA":"糞箕湖","LANE":" ","ALLEY":" ","HOUSE_NO":"１４之３號","E_COORD97":192246.73999999999,"N_COORD97":2582187.9700000002,"ADDRESS":"糞箕湖１４之３號","OBJECTID":283823},"geometry":{"x":192246.74000000115,"y":2582187.9700000025}},{"attributes":{"ID":283830,"DIS_CODE":0,"TOWNNAME":"白河區","LI":"河東里","LIN":"2鄰","STREET":" ","SECT":" ","MAREA":"糞箕湖","LANE":" ","ALLEY":" ","HOUSE_NO":"１４之４號","E_COORD97":192246.07000000001,"N_COORD97":2582191.48,"ADDRESS":"糞箕湖１４之４號","OBJECTID":283824},"geometry":{"x":192246.07000000123,"y":2582191.4800000023}},{"attributes":{"ID":283831,"DIS_CODE":0,"TOWNNAME":"北區","LI":"文元里","LIN":"19鄰","STREET":"海安路","SECT":"三段","MAREA":" ","LANE":"７８１巷","ALLEY":" ","HOUSE_NO":"２０２號","E_COORD97":167583.79999999999,"N_COORD97":2545988.1099999999,"ADDRESS":"海安路三段７８１巷２０２號","OBJECTID":283825},"geometry":{"x":167583.80000000168,"y":2545988.1099999994}},{"attributes":{"ID":283832,"DIS_CODE":0,"TOWNNAME":"白河區","LI":"庄內里","LIN":"2鄰","STREET":"裕農路","SECT":" ","MAREA":" ","LANE":" ","ALLEY":" ","HOUSE_NO":"１１號","E_COORD97":191146.20999999999,"N_COORD97":2583420.0499999998,"ADDRESS":"裕農路１１號","OBJECTID":283826},"geometry":{"x":191146.21000000089,"y":2583420.0500000007}},{"attributes":{"ID":283833,"DIS_CODE":0,"TOWNNAME":"白河區","LI":"河東里","LIN":"2鄰","STREET":" ","SECT":" ","MAREA":"糞箕湖","LANE":" ","ALLEY":" ","HOUSE_NO":"１４之５號","E_COORD97":192246.19,"N_COORD97":2582195.2799999998,"ADDRESS":"糞箕湖１４之５號","OBJECTID":283827},"geometry":{"x":192246.19000000041,"y":2582195.2800000012}},{"attributes":{"ID":283834,"DIS_CODE":0,"TOWNNAME":"白河區","LI":"河東里","LIN":"2鄰","STREET":" ","SECT":" ","MAREA":"糞箕湖","LANE":" ","ALLEY":" ","HOUSE_NO":"１４之６號","E_COORD97":192246.29999999999,"N_COORD97":2582199.0099999998,"ADDRESS":"糞箕湖１４之６號","OBJECTID":283828},"geometry":{"x":192246.30000000075,"y":2582199.0099999998}},{"attributes":{"ID":283835,"DIS_CODE":0,"TOWNNAME":"佳里區","LI":"鎮山里","LIN":"1鄰","STREET":"四安街","SECT":" ","MAREA":" ","LANE":" ","ALLEY":" ","HOUSE_NO":"２８號","E_COORD97":165855.37,"N_COORD97":2561857.1499999999,"ADDRESS":"四安街２８號","OBJECTID":283829},"geometry":{"x":165855.37000000104,"y":2561857.1500000041}},{"attributes":{"ID":283836,"DIS_CODE":0,"TOWNNAME":"東區","LI":"自強里","LIN":"19鄰","STREET":"中華東路","SECT":"二段","MAREA":" ","LANE":" ","ALLEY":" ","HOUSE_NO":"２３５號","E_COORD97":171232.42999999999,"N_COORD97":2542667.1499999999,"ADDRESS":"中華東路二段２３５號","OBJECTID":283830},"geometry":{"x":171232.4299999997,"y":2542667.1500000004}},{"attributes":{"ID":283837,"DIS_CODE":0,"TOWNNAME":"安南區","LI":"四草里","LIN":"2鄰","STREET":"大眾六街","SECT":" ","MAREA":" ","LANE":" ","ALLEY":" ","HOUSE_NO":"１７９號","E_COORD97":160295.79943499999,"N_COORD97":2546761.6481599999,"ADDRESS":"大眾六街１７９號","OBJECTID":283831},"geometry":{"x":160295.79943500087,"y":2546761.6481560022}},{"attributes":{"ID":283838,"DIS_CODE":0,"TOWNNAME":"北區","LI":"文成里","LIN":"19鄰","STREET":"文賢路","SECT":" ","MAREA":" ","LANE":"２１８巷","ALLEY":" ","HOUSE_NO":"４７號","E_COORD97":167503.44,"N_COORD97":2545005.1499999999,"ADDRESS":"文賢路２１８巷４７號","OBJECTID":283832},"geometry":{"x":167503.44000000041,"y":2545005.1500000004}},{"attributes":{"ID":283839,"DIS_CODE":0,"TOWNNAME":"北區","LI":"文成里","LIN":"19鄰","STREET":"文賢路","SECT":" ","MAREA":" ","LANE":"２１８巷","ALLEY":" ","HOUSE_NO":"４８號","E_COORD97":167488.89999999999,"N_COORD97":2544978.4199999999,"ADDRESS":"文賢路２１８巷４８號","OBJECTID":283833},"geometry":{"x":167488.90000000224,"y":2544978.4200000018}},{"attributes":{"ID":283840,"DIS_CODE":0,"TOWNNAME":"北區","LI":"文成里","LIN":"19鄰","STREET":"文賢路","SECT":" ","MAREA":" ","LANE":"２１８巷","ALLEY":" ","HOUSE_NO":"４９號","E_COORD97":167507.70999999999,"N_COORD97":2545007.1699999999,"ADDRESS":"文賢路２１８巷４９號","OBJECTID":283834},"geometry":{"x":167507.70999999996,"y":2545007.1700000018}},{"attributes":{"ID":283841,"DIS_CODE":0,"TOWNNAME":"北區","LI":"文成里","LIN":"19鄰","STREET":"文賢路","SECT":" ","MAREA":" ","LANE":"２１８巷","ALLEY":" ","HOUSE_NO":"５０號","E_COORD97":167493.32000000001,"N_COORD97":2544980.6299999999,"ADDRESS":"文賢路２１８巷５０號","OBJECTID":283835},"geometry":{"x":167493.32000000123,"y":2544980.629999999}},{"attributes":{"ID":283842,"DIS_CODE":0,"TOWNNAME":"東區","LI":"自強里","LIN":"20鄰","STREET":"中華東路","SECT":"二段","MAREA":" ","LANE":"２４３巷","ALLEY":" ","HOUSE_NO":"３９號之１","E_COORD97":171393.98000000001,"N_COORD97":2542605.1400000001,"ADDRESS":"中華東路二段２４３巷３９號之１","OBJECTID":283836},"geometry":{"x":171393.97999999952,"y":2542605.1400000006}},{"attributes":{"ID":283843,"DIS_CODE":0,"TOWNNAME":"七股區","LI":"三股里","LIN":"4鄰","STREET":" ","SECT":" ","MAREA":"三股","LANE":" ","ALLEY":" ","HOUSE_NO":"４３號","E_COORD97":159723.70999999999,"N_COORD97":2555587.3700000001,"ADDRESS":"三股４３號","OBJECTID":283837},"geometry":{"x":159723.70999999996,"y":2555587.3700000048}},{"attributes":{"ID":283844,"DIS_CODE":0,"TOWNNAME":"永康區","LI":"\u25A0洲里","LIN":"4鄰","STREET":"\u25A0洲二街","SECT":" ","MAREA":" ","LANE":" ","ALLEY":" ","HOUSE_NO":"１５９號","E_COORD97":171692.82000000001,"N_COORD97":2549382.7400000002,"ADDRESS":"\u25A0洲二街１５９號","OBJECTID":283838},"geometry":{"x":171692.8200000003,"y":2549382.7400000002}},{"attributes":{"ID":283845,"DIS_CODE":0,"TOWNNAME":"永康區","LI":"崑山里","LIN":" ","STREET":"國光五街","SECT":" ","MAREA":" ","LANE":" ","ALLEY":" ","HOUSE_NO":"６２號","E_COORD97":174077.32000000001,"N_COORD97":2545115.73,"ADDRESS":"國光五街６２號","OBJECTID":283839},"geometry":{"x":174077.32000000123,"y":2545115.7300000023}},{"attributes":{"ID":283846,"DIS_CODE":0,"TOWNNAME":"白河區","LI":"河東里","LIN":"2鄰","STREET":" ","SECT":" ","MAREA":"糞箕湖","LANE":" ","ALLEY":" ","HOUSE_NO":"１７之８號","E_COORD97":192198.07000000001,"N_COORD97":2582056.7599999998,"ADDRESS":"糞箕湖１７之８號","OBJECTID":283840},"geometry":{"x":192198.0700000003,"y":2582056.7600000016}},{"attributes":{"ID":283847,"DIS_CODE":0,"TOWNNAME":"西港區","LI":"金砂里","LIN":"2鄰","STREET":" ","SECT":" ","MAREA":"施寮","LANE":" ","ALLEY":" ","HOUSE_NO":"１０號","E_COORD97":168963.48999999999,"N_COORD97":2561063.0299999998,"ADDRESS":"施寮１０號","OBJECTID":283841},"geometry":{"x":168963.49000000115,"y":2561063.0299999993}},{"attributes":{"ID":283848,"DIS_CODE":0,"TOWNNAME":"北區","LI":"文成里","LIN":"19鄰","STREET":"文賢路","SECT":" ","MAREA":" ","LANE":"２１８巷","ALLEY":" ","HOUSE_NO":"５１號","E_COORD97":167511.76000000001,"N_COORD97":2545008.7400000002,"ADDRESS":"文賢路２１８巷５１號","OBJECTID":283842},"geometry":{"x":167511.76000000071,"y":2545008.7400000002}},{"attributes":{"ID":283849,"DIS_CODE":0,"TOWNNAME":"北區","LI":"文成里","LIN":"19鄰","STREET":"文賢路","SECT":" ","MAREA":" ","LANE":"２１８巷","ALLEY":" ","HOUSE_NO":"５２號","E_COORD97":167497.75,"N_COORD97":2544981.3700000001,"ADDRESS":"文賢路２１８巷５２號","OBJECTID":283843},"geometry":{"x":167497.75,"y":2544981.370000001}},{"attributes":{"ID":283850,"DIS_CODE":0,"TOWNNAME":"北區","LI":"文成里","LIN":"19鄰","STREET":"文賢路","SECT":" ","MAREA":" ","LANE":"２１８巷","ALLEY":" ","HOUSE_NO":"５３號","E_COORD97":167515.57999999999,"N_COORD97":2545010.3100000001,"ADDRESS":"文賢路２１８巷５３號","OBJECTID":283844},"geometry":{"x":167515.58000000007,"y":2545010.3100000024}},{"attributes":{"ID":283851,"DIS_CODE":0,"TOWNNAME":"北區","LI":"文成里","LIN":"19鄰","STREET":"文賢路","SECT":" ","MAREA":" ","LANE":"２１８巷","ALLEY":" ","HOUSE_NO":"５４號","E_COORD97":167501.92000000001,"N_COORD97":2544984.5299999998,"ADDRESS":"文賢路２１８巷５４號","OBJECTID":283845},"geometry":{"x":167501.92000000179,"y":2544984.5299999993}},{"attributes":{"ID":283852,"DIS_CODE":0,"TOWNNAME":"北區","LI":"文成里","LIN":"19鄰","STREET":"文賢路","SECT":" ","MAREA":" ","LANE":"２１８巷","ALLEY":" ","HOUSE_NO":"５５號","E_COORD97":167520.97,"N_COORD97":2545012.5600000001,"ADDRESS":"文賢路２１８巷５５號","OBJECTID":283846},"geometry":{"x":167520.96999999974,"y":2545012.5600000024}},{"attributes":{"ID":283853,"DIS_CODE":0,"TOWNNAME":"北區","LI":"文成里","LIN":"19鄰","STREET":"文賢路","SECT":" ","MAREA":" ","LANE":"２１８巷","ALLEY":" ","HOUSE_NO":"５６號","E_COORD97":167506.84,"N_COORD97":2544984.5299999998,"ADDRESS":"文賢路２１８巷５６號","OBJECTID":283847},"geometry":{"x":167506.83999999985,"y":2544984.5299999993}},{"attributes":{"ID":283854,"DIS_CODE":0,"TOWNNAME":"北區","LI":"文成里","LIN":"19鄰","STREET":"文賢路","SECT":" ","MAREA":" ","LANE":"２１８巷","ALLEY":" ","HOUSE_NO":"５７號","E_COORD97":167524.79999999999,"N_COORD97":2545014.3500000001,"ADDRESS":"文賢路２１８巷５７號","OBJECTID":283848},"geometry":{"x":167524.80000000075,"y":2545014.3499999996}},{"attributes":{"ID":283855,"DIS_CODE":0,"TOWNNAME":"永康區","LI":"南灣里","LIN":"2鄰","STREET":"大灣路","SECT":" ","MAREA":" ","LANE":" ","ALLEY":" ","HOUSE_NO":"４２９號","E_COORD97":174704.89000000001,"N_COORD97":2544796.8900000001,"ADDRESS":"大灣路４２９號","OBJECTID":283849},"geometry":{"x":174704.8900000006,"y":2544796.8900000025}},{"attributes":{"ID":283856,"DIS_CODE":0,"TOWNNAME":"永康區","LI":"西橋里","LIN":"2鄰","STREET":"中山南路","SECT":" ","MAREA":" ","LANE":" ","ALLEY":" ","HOUSE_NO":"５７號","E_COORD97":170793.59,"N_COORD97":2545850.9900000002,"ADDRESS":"中山南路５７號","OBJECTID":283850},"geometry":{"x":170793.58999999985,"y":2545850.9900000002}},{"attributes":{"ID":283857,"DIS_CODE":0,"TOWNNAME":"永康區","LI":"西勢里","LIN":"2鄰","STREET":"西勢路","SECT":" ","MAREA":" ","LANE":" ","ALLEY":" ","HOUSE_NO":"２８０號","E_COORD97":175567.38,"N_COORD97":2546801.1299999999,"ADDRESS":"西勢路２８０號","OBJECTID":283851},"geometry":{"x":175567.37999999989,"y":2546801.129999999}},{"attributes":{"ID":283858,"DIS_CODE":0,"TOWNNAME":"永康區","LI":"西勢里","LIN":"2鄰","STREET":"西勢路","SECT":" ","MAREA":" ","LANE":" ","ALLEY":" ","HOUSE_NO":"４５６號","E_COORD97":175194.63,"N_COORD97":2546810.7799999998,"ADDRESS":"西勢路４５６號","OBJECTID":283852},"geometry":{"x":175194.62999999989,"y":2546810.7799999993}},{"attributes":{"ID":283859,"DIS_CODE":0,"TOWNNAME":"北區","LI":"文成里","LIN":"19鄰","STREET":"文賢路","SECT":" ","MAREA":" ","LANE":"２１８巷","ALLEY":" ","HOUSE_NO":"５８號","E_COORD97":167511.01999999999,"N_COORD97":2544984.5299999998,"ADDRESS":"文賢路２１８巷５８號","OBJECTID":283853},"geometry":{"x":167511.02000000142,"y":2544984.5299999993}},{"attributes":{"ID":283860,"DIS_CODE":0,"TOWNNAME":"南區","LI":"明亮里","LIN":"2鄰","STREET":"新都路","SECT":" ","MAREA":" ","LANE":" ","ALLEY":" ","HOUSE_NO":"５３６號","E_COORD97":167116.22,"N_COORD97":2540888.3300000001,"ADDRESS":"新都路５３６號","OBJECTID":283854},"geometry":{"x":167116.21999999974,"y":2540888.3300000001}},{"attributes":{"ID":283861,"DIS_CODE":0,"TOWNNAME":"永康區","LI":"埔園里","LIN":" ","STREET":"自強路","SECT":" ","MAREA":" ","LANE":" ","ALLEY":" ","HOUSE_NO":"４８１號","E_COORD97":173909.29000000001,"N_COORD97":2548095.79,"ADDRESS":"自強路４８１號","OBJECTID":283855},"geometry":{"x":173909.29000000097,"y":2548095.7899999991}},{"attributes":{"ID":283862,"DIS_CODE":0,"TOWNNAME":"永康區","LI":"\u25A0洲里","LIN":"4鄰","STREET":"\u25A0洲二街","SECT":" ","MAREA":" ","LANE":" ","ALLEY":" ","HOUSE_NO":"１５５號","E_COORD97":171686.13,"N_COORD97":2549378.2400000002,"ADDRESS":"\u25A0洲二街１５５號","OBJECTID":283856},"geometry":{"x":171686.13000000082,"y":2549378.2400000002}},{"attributes":{"ID":283863,"DIS_CODE":0,"TOWNNAME":"北區","LI":"文成里","LIN":"19鄰","STREET":"文賢路","SECT":" ","MAREA":" ","LANE":"２１８巷","ALLEY":" ","HOUSE_NO":"６０號","E_COORD97":167514.70999999999,"N_COORD97":2544987.02,"ADDRESS":"文賢路２１８巷６０號","OBJECTID":283857},"geometry":{"x":167514.70999999996,"y":2544987.0200000014}},{"attributes":{"ID":283864,"DIS_CODE":0,"TOWNNAME":"永康區","LI":"北灣里","LIN":" ","STREET":"大安街","SECT":" ","MAREA":" ","LANE":" ","ALLEY":" ","HOUSE_NO":"４５２之３號","E_COORD97":174587.95999999999,"N_COORD97":2545928.5699999998,"ADDRESS":"大安街４５２之３號","OBJECTID":283858},"geometry":{"x":174587.96000000089,"y":2545928.5700000003}},{"attributes":{"ID":283865,"DIS_CODE":0,"TOWNNAME":"北區","LI":"文成里","LIN":"19鄰","STREET":"文賢路","SECT":" ","MAREA":" ","LANE":"２１８巷","ALLEY":" ","HOUSE_NO":"６２號","E_COORD97":167519.13,"N_COORD97":2544989.2200000002,"ADDRESS":"文賢路２１８巷６２號","OBJECTID":283859},"geometry":{"x":167519.13000000082,"y":2544989.2200000007}},{"attributes":{"ID":283866,"DIS_CODE":0,"TOWNNAME":"北區","LI":"文元里","LIN":"19鄰","STREET":"文成路","SECT":" ","MAREA":" ","LANE":"７５０巷","ALLEY":" ","HOUSE_NO":"１９號","E_COORD97":167607.59,"N_COORD97":2545972.3999999999,"ADDRESS":"文成路７５０巷１９號","OBJECTID":283860},"geometry":{"x":167607.59000000078,"y":2545972.4000000022}},{"attributes":{"ID":283867,"DIS_CODE":0,"TOWNNAME":"北區","LI":"文元里","LIN":"19鄰","STREET":"文成路","SECT":" ","MAREA":" ","LANE":"７５０巷","ALLEY":" ","HOUSE_NO":"１７號","E_COORD97":167607.72,"N_COORD97":2545968.0899999999,"ADDRESS":"文成路７５０巷１７號","OBJECTID":283861},"geometry":{"x":167607.71999999974,"y":2545968.0899999999}},{"attributes":{"ID":283868,"DIS_CODE":0,"TOWNNAME":"北區","LI":"文元里","LIN":"19鄰","STREET":"文成路","SECT":" ","MAREA":" ","LANE":"７５０巷","ALLEY":" ","HOUSE_NO":"１５號","E_COORD97":167607.59,"N_COORD97":2545964.02,"ADDRESS":"文成路７５０巷１５號","OBJECTID":283862},"geometry":{"x":167607.59000000078,"y":2545964.0200000014}},{"attributes":{"ID":283869,"DIS_CODE":0,"TOWNNAME":"北區","LI":"文元里","LIN":"19鄰","STREET":"文成路","SECT":" ","MAREA":" ","LANE":"７５０巷","ALLEY":" ","HOUSE_NO":"１３號","E_COORD97":167607.45999999999,"N_COORD97":2545960.21,"ADDRESS":"文成路７５０巷１３號","OBJECTID":283863},"geometry":{"x":167607.46000000089,"y":2545960.2100000028}},{"attributes":{"ID":283870,"DIS_CODE":0,"TOWNNAME":"北區","LI":"文元里","LIN":"19鄰","STREET":"文成路","SECT":" ","MAREA":" ","LANE":"７５０巷","ALLEY":" ","HOUSE_NO":"１１號","E_COORD97":167607.45999999999,"N_COORD97":2545956.3999999999,"ADDRESS":"文成路７５０巷１１號","OBJECTID":283864},"geometry":{"x":167607.46000000089,"y":2545956.4000000004}},{"attributes":{"ID":283871,"DIS_CODE":0,"TOWNNAME":"北區","LI":"文元里","LIN":"19鄰","STREET":"文成路","SECT":" ","MAREA":" ","LANE":"７５０巷","ALLEY":" ","HOUSE_NO":"９號","E_COORD97":167607.34,"N_COORD97":2545952.9700000002,"ADDRESS":"文成路７５０巷９號","OBJECTID":283865},"geometry":{"x":167607.34000000171,"y":2545952.9700000007}},{"attributes":{"ID":283872,"DIS_CODE":0,"TOWNNAME":"北區","LI":"文成里","LIN":"19鄰","STREET":"文賢一路","SECT":" ","MAREA":" ","LANE":"２１巷","ALLEY":" ","HOUSE_NO":"２號","E_COORD97":167571.57999999999,"N_COORD97":2544965.3199999998,"ADDRESS":"文賢一路２１巷２號","OBJECTID":283866},"geometry":{"x":167571.58000000007,"y":2544965.3200000022}},{"attributes":{"ID":283873,"DIS_CODE":0,"TOWNNAME":"永康區","LI":"\u25A0行里","LIN":"18鄰","STREET":"中正南路","SECT":" ","MAREA":" ","LANE":" ","ALLEY":" ","HOUSE_NO":"６７２號","E_COORD97":171592.57999999999,"N_COORD97":2548828.75,"ADDRESS":"中正南路６７２號","OBJECTID":283867},"geometry":{"x":171592.58000000007,"y":2548828.75}},{"attributes":{"ID":283874,"DIS_CODE":0,"TOWNNAME":"西港區","LI":"金砂里","LIN":"2鄰","STREET":" ","SECT":" ","MAREA":"施寮","LANE":" ","ALLEY":" ","HOUSE_NO":"１９之３號","E_COORD97":168951.26999999999,"N_COORD97":2561136.1499999999,"ADDRESS":"施寮１９之３號","OBJECTID":283868},"geometry":{"x":168951.26999999955,"y":2561136.1500000022}},{"attributes":{"ID":283875,"DIS_CODE":0,"TOWNNAME":"西港區","LI":"金砂里","LIN":"2鄰","STREET":" ","SECT":" ","MAREA":"施寮","LANE":" ","ALLEY":" ","HOUSE_NO":"１９之９號","E_COORD97":169199.57000000001,"N_COORD97":2561198.5600000001,"ADDRESS":"施寮１９之９號","OBJECTID":283869},"geometry":{"x":169199.5700000003,"y":2561198.5600000005}},{"attributes":{"ID":283876,"DIS_CODE":0,"TOWNNAME":"西港區","LI":"金砂里","LIN":"2鄰","STREET":" ","SECT":" ","MAREA":"施寮","LANE":" ","ALLEY":" ","HOUSE_NO":"１９號","E_COORD97":168954.03,"N_COORD97":2561105.5800000001,"ADDRESS":"施寮１９號","OBJECTID":283870},"geometry":{"x":168954.03000000026,"y":2561105.5800000019}},{"attributes":{"ID":283877,"DIS_CODE":0,"TOWNNAME":"西港區","LI":"金砂里","LIN":"2鄰","STREET":" ","SECT":" ","MAREA":"施寮","LANE":" ","ALLEY":" ","HOUSE_NO":"９號","E_COORD97":168964.54999999999,"N_COORD97":2561074.3399999999,"ADDRESS":"施寮９號","OBJECTID":283871},"geometry":{"x":168964.55000000075,"y":2561074.3399999999}},{"attributes":{"ID":283878,"DIS_CODE":0,"TOWNNAME":"麻豆區","LI":"北勢里","LIN":"2鄰","STREET":" ","SECT":" ","MAREA":"加輦邦","LANE":" ","ALLEY":" ","HOUSE_NO":"１９號","E_COORD97":173377.92999999999,"N_COORD97":2566383.8599999999,"ADDRESS":"加輦邦１９號","OBJECTID":283872},"geometry":{"x":173377.9299999997,"y":2566383.8599999975}},{"attributes":{"ID":283879,"DIS_CODE":0,"TOWNNAME":"北區","LI":"文成里","LIN":"19鄰","STREET":"文賢一路","SECT":" ","MAREA":" ","LANE":"２１巷","ALLEY":" ","HOUSE_NO":"６號","E_COORD97":167566.63,"N_COORD97":2544965.1899999999,"ADDRESS":"文賢一路２１巷６號","OBJECTID":283873},"geometry":{"x":167566.63000000082,"y":2544965.1900000032}},{"attributes":{"ID":283880,"DIS_CODE":0,"TOWNNAME":"永康區","LI":"西勢里","LIN":"2鄰","STREET":"西勢路","SECT":" ","MAREA":" ","LANE":" ","ALLEY":" ","HOUSE_NO":"２６６號","E_COORD97":175616.13,"N_COORD97":2546808.0299999998,"ADDRESS":"西勢路２６６號","OBJECTID":283874},"geometry":{"x":175616.12999999989,"y":2546808.0300000012}},{"attributes":{"ID":283881,"DIS_CODE":0,"TOWNNAME":"北區","LI":"文成里","LIN":"19鄰","STREET":"文賢一路","SECT":" ","MAREA":" ","LANE":"２１巷","ALLEY":" ","HOUSE_NO":"１６號","E_COORD97":167547.70000000001,"N_COORD97":2544965.3199999998,"ADDRESS":"文賢一路２１巷１６號","OBJECTID":283875},"geometry":{"x":167547.70000000205,"y":2544965.3200000022}},{"attributes":{"ID":283882,"DIS_CODE":0,"TOWNNAME":"北區","LI":"文成里","LIN":"19鄰","STREET":"文賢一路","SECT":" ","MAREA":" ","LANE":"２１巷","ALLEY":" ","HOUSE_NO":"１８號","E_COORD97":167543.13,"N_COORD97":2544965.3199999998,"ADDRESS":"文賢一路２１巷１８號","OBJECTID":283876},"geometry":{"x":167543.13000000082,"y":2544965.3200000022}},{"attributes":{"ID":283883,"DIS_CODE":0,"TOWNNAME":"北區","LI":"文成里","LIN":"19鄰","STREET":"文賢一路","SECT":" ","MAREA":" ","LANE":"２１巷","ALLEY":" ","HOUSE_NO":"２０號","E_COORD97":167538.81,"N_COORD97":2544965.3199999998,"ADDRESS":"文賢一路２１巷２０號","OBJECTID":283877},"geometry":{"x":167538.80999999959,"y":2544965.3200000022}},{"attributes":{"ID":283884,"DIS_CODE":0,"TOWNNAME":"北區","LI":"文成里","LIN":"19鄰","STREET":"文賢一路","SECT":" ","MAREA":" ","LANE":"２３巷","ALLEY":" ","HOUSE_NO":"９號","E_COORD97":167556.97,"N_COORD97":2544986.6600000001,"ADDRESS":"文賢一路２３巷９號","OBJECTID":283878},"geometry":{"x":167556.96999999974,"y":2544986.660000002}},{"attributes":{"ID":283885,"DIS_CODE":0,"TOWNNAME":"南區","LI":"明興里","LIN":"19鄰","STREET":"德興路","SECT":" ","MAREA":" ","LANE":"１３０巷","ALLEY":" ","HOUSE_NO":"８０號","E_COORD97":167103.04999999999,"N_COORD97":2540383.8700000001,"ADDRESS":"德興路１３０巷８０號","OBJECTID":283879},"geometry":{"x":167103.05000000075,"y":2540383.870000001}},{"attributes":{"ID":283886,"DIS_CODE":0,"TOWNNAME":"北區","LI":"文元里","LIN":"19鄰","STREET":"文賢路","SECT":" ","MAREA":" ","LANE":"１０３０巷","ALLEY":" ","HOUSE_NO":"５２號","E_COORD97":167523.10000000001,"N_COORD97":2546062.96,"ADDRESS":"文賢路１０３０巷５２號","OBJECTID":283880},"geometry":{"x":167523.10000000056,"y":2546062.9600000046}},{"attributes":{"ID":283887,"DIS_CODE":0,"TOWNNAME":"永康區","LI":"西勢里","LIN":"2鄰","STREET":"富強路","SECT":"二段","MAREA":" ","LANE":"１９巷","ALLEY":" ","HOUSE_NO":"２１號","E_COORD97":175611.89000000001,"N_COORD97":2546848.8399999999,"ADDRESS":"富強路二段１９巷２１號","OBJECTID":283881},"geometry":{"x":175611.8900000006,"y":2546848.8399999999}},{"attributes":{"ID":283888,"DIS_CODE":0,"TOWNNAME":"永康區","LI":"西勢里","LIN":"2鄰","STREET":"西勢路","SECT":" ","MAREA":" ","LANE":" ","ALLEY":" ","HOUSE_NO":"２７８號","E_COORD97":175572.92999999999,"N_COORD97":2546801.6299999999,"ADDRESS":"西勢路２７８號","OBJECTID":283882},"geometry":{"x":175572.93000000063,"y":2546801.629999999}},{"attributes":{"ID":283889,"DIS_CODE":0,"TOWNNAME":"西港區","LI":"劉厝里","LIN":"2鄰","STREET":" ","SECT":" ","MAREA":"劉厝","LANE":" ","ALLEY":" ","HOUSE_NO":"１１號","E_COORD97":165800.23000000001,"N_COORD97":2558556.3700000001,"ADDRESS":"劉厝１１號","OBJECTID":283883},"geometry":{"x":165800.23000000138,"y":2558556.370000001}},{"attributes":{"ID":283890,"DIS_CODE":0,"TOWNNAME":"西港區","LI":"劉厝里","LIN":"2鄰","STREET":" ","SECT":" ","MAREA":"劉厝","LANE":" ","ALLEY":" ","HOUSE_NO":"１２號之１","E_COORD97":165793.04000000001,"N_COORD97":2558616.48,"ADDRESS":"劉厝１２號之１","OBJECTID":283884},"geometry":{"x":165793.04000000097,"y":2558616.4800000004}},{"attributes":{"ID":283891,"DIS_CODE":0,"TOWNNAME":"西港區","LI":"劉厝里","LIN":"2鄰","STREET":" ","SECT":" ","MAREA":"劉厝","LANE":" ","ALLEY":" ","HOUSE_NO":"１２號之２","E_COORD97":165784.04999999999,"N_COORD97":2558624.6400000001,"ADDRESS":"劉厝１２號之２","OBJECTID":283885},"geometry":{"x":165784.05000000075,"y":2558624.6400000006}},{"attributes":{"ID":283892,"DIS_CODE":0,"TOWNNAME":"東區","LI":"裕聖里","LIN":"2鄰","STREET":"裕信路","SECT":" ","MAREA":" ","LANE":" ","ALLEY":" ","HOUSE_NO":"３２２之５號","E_COORD97":172567.17000000001,"N_COORD97":2542465.4300000002,"ADDRESS":"裕信路３２２之５號","OBJECTID":283886},"geometry":{"x":172567.17000000086,"y":2542465.4300000016}},{"attributes":{"ID":283893,"DIS_CODE":0,"TOWNNAME":"西港區","LI":"劉厝里","LIN":"2鄰","STREET":" ","SECT":" ","MAREA":"劉厝","LANE":" ","ALLEY":" ","HOUSE_NO":"１２號之３","E_COORD97":165778.81,"N_COORD97":2558624.0899999999,"ADDRESS":"劉厝１２號之３","OBJECTID":283887},"geometry":{"x":165778.81000000052,"y":2558624.0900000017}},{"attributes":{"ID":283894,"DIS_CODE":0,"TOWNNAME":"西港區","LI":"劉厝里","LIN":"2鄰","STREET":" ","SECT":" ","MAREA":"劉厝","LANE":" ","ALLEY":" ","HOUSE_NO":"１２號之４","E_COORD97":165807.35000000001,"N_COORD97":2558592.4300000002,"ADDRESS":"劉厝１２號之４","OBJECTID":283888},"geometry":{"x":165807.35000000056,"y":2558592.4299999997}},{"attributes":{"ID":283895,"DIS_CODE":0,"TOWNNAME":"西港區","LI":"劉厝里","LIN":"2鄰","STREET":" ","SECT":" ","MAREA":"劉厝","LANE":" ","ALLEY":" ","HOUSE_NO":"１２號","E_COORD97":165816.26999999999,"N_COORD97":2558606.4300000002,"ADDRESS":"劉厝１２號","OBJECTID":283889},"geometry":{"x":165816.27000000048,"y":2558606.4300000034}},{"attributes":{"ID":283896,"DIS_CODE":0,"TOWNNAME":"西港區","LI":"劉厝里","LIN":"2鄰","STREET":" ","SECT":" ","MAREA":"劉厝","LANE":" ","ALLEY":" ","HOUSE_NO":"８號之２","E_COORD97":165641.23999999999,"N_COORD97":2558589.8300000001,"ADDRESS":"劉厝８號之２","OBJECTID":283890},"geometry":{"x":165641.24000000022,"y":2558589.8300000001}},{"attributes":{"ID":283897,"DIS_CODE":0,"TOWNNAME":"西港區","LI":"劉厝里","LIN":"2鄰","STREET":" ","SECT":" ","MAREA":"劉厝","LANE":" ","ALLEY":" ","HOUSE_NO":"９號","E_COORD97":165752.23999999999,"N_COORD97":2558572.6699999999,"ADDRESS":"劉厝９號","OBJECTID":283891},"geometry":{"x":165752.24000000209,"y":2558572.6700000018}},{"attributes":{"ID":283898,"DIS_CODE":0,"TOWNNAME":"白河區","LI":"關嶺里","LIN":"2鄰","STREET":" ","SECT":" ","MAREA":"關子嶺","LANE":" ","ALLEY":" ","HOUSE_NO":"４２號","E_COORD97":199246.5,"N_COORD97":2581599.0499999998,"ADDRESS":"關子嶺４２號","OBJECTID":283892},"geometry":{"x":199246.5,"y":2581599.0500000007}},{"attributes":{"ID":283899,"DIS_CODE":0,"TOWNNAME":"白河區","LI":"關嶺里","LIN":"2鄰","STREET":" ","SECT":" ","MAREA":"關子嶺","LANE":" ","ALLEY":" ","HOUSE_NO":"２７號","E_COORD97":199412.32999999999,"N_COORD97":2581531.2799999998,"ADDRESS":"關子嶺２７號","OBJECTID":283893},"geometry":{"x":199412.33000000007,"y":2581531.2799999993}},{"attributes":{"ID":283900,"DIS_CODE":0,"TOWNNAME":"安南區","LI":"四草里","LIN":"2鄰","STREET":"大眾六街","SECT":" ","MAREA":" ","LANE":" ","ALLEY":" ","HOUSE_NO":"１８６號","E_COORD97":160283.515522,"N_COORD97":2546810.33146,"ADDRESS":"大眾六街１８６號","OBJECTID":283894},"geometry":{"x":160283.51552200038,"y":2546810.3314630017}},{"attributes":{"ID":283901,"DIS_CODE":0,"TOWNNAME":"永康區","LI":"中興里","LIN":"19鄰","STREET":"中山東路","SECT":" ","MAREA":" ","LANE":"３５０巷","ALLEY":" ","HOUSE_NO":"１１號二樓之１","E_COORD97":171861.41,"N_COORD97":2545345.29,"ADDRESS":"中山東路３５０巷１１號二樓之１","OBJECTID":283895},"geometry":{"x":171861.41000000015,"y":2545345.2899999991}},{"attributes":{"ID":283902,"DIS_CODE":0,"TOWNNAME":"白河區","LI":"關嶺里","LIN":"2鄰","STREET":" ","SECT":" ","MAREA":"關子嶺","LANE":" ","ALLEY":" ","HOUSE_NO":"２８之１７號","E_COORD97":199297.66,"N_COORD97":2581719.0299999998,"ADDRESS":"關子嶺２８之１７號","OBJECTID":283896},"geometry":{"x":199297.66000000108,"y":2581719.0300000012}},{"attributes":{"ID":283903,"DIS_CODE":0,"TOWNNAME":"白河區","LI":"關嶺里","LIN":"2鄰","STREET":" ","SECT":" ","MAREA":"關子嶺","LANE":" ","ALLEY":" ","HOUSE_NO":"２８之１９號","E_COORD97":199305.16,"N_COORD97":2581734.7999999998,"ADDRESS":"關子嶺２８之１９號","OBJECTID":283897},"geometry":{"x":199305.16000000015,"y":2581734.8000000026}},{"attributes":{"ID":283904,"DIS_CODE":0,"TOWNNAME":"白河區","LI":"關嶺里","LIN":"2鄰","STREET":" ","SECT":" ","MAREA":"關子嶺","LANE":" ","ALLEY":" ","HOUSE_NO":"２８之２１號","E_COORD97":199316.82000000001,"N_COORD97":2581768.6699999999,"ADDRESS":"關子嶺２８之２１號","OBJECTID":283898},"geometry":{"x":199316.82000000123,"y":2581768.6700000018}},{"attributes":{"ID":283905,"DIS_CODE":0,"TOWNNAME":"白河區","LI":"關嶺里","LIN":"2鄰","STREET":" ","SECT":" ","MAREA":"關子嶺","LANE":" ","ALLEY":" ","HOUSE_NO":"２８之２２號","E_COORD97":199314.64999999999,"N_COORD97":2581763.7000000002,"ADDRESS":"關子嶺２８之２２號","OBJECTID":283899},"geometry":{"x":199314.6500000013,"y":2581763.700000003}},{"attributes":{"ID":283906,"DIS_CODE":0,"TOWNNAME":"白河區","LI":"關嶺里","LIN":"2鄰","STREET":" ","SECT":" ","MAREA":"關子嶺","LANE":" ","ALLEY":" ","HOUSE_NO":"２８之２３號","E_COORD97":199313.20000000001,"N_COORD97":2581752.3100000001,"ADDRESS":"關子嶺２８之２３號","OBJECTID":283900},"geometry":{"x":199313.20000000019,"y":2581752.3100000024}},{"attributes":{"ID":283907,"DIS_CODE":0,"TOWNNAME":"白河區","LI":"關嶺里","LIN":"2鄰","STREET":" ","SECT":" ","MAREA":"關子嶺","LANE":" ","ALLEY":" ","HOUSE_NO":"２８之６號","E_COORD97":199206.51999999999,"N_COORD97":2581925.4199999999,"ADDRESS":"關子嶺２８之６號","OBJECTID":283901},"geometry":{"x":199206.52000000048,"y":2581925.4199999999}},{"attributes":{"ID":283908,"DIS_CODE":0,"TOWNNAME":"永康區","LI":"中興里","LIN":"19鄰","STREET":"中山東路","SECT":" ","MAREA":" ","LANE":"３５０巷","ALLEY":" ","HOUSE_NO":"７號五樓之１","E_COORD97":171860.16,"N_COORD97":2545345.29,"ADDRESS":"中山東路３５０巷７號五樓之１","OBJECTID":283902},"geometry":{"x":171860.16000000015,"y":2545345.2899999991}},{"attributes":{"ID":283909,"DIS_CODE":0,"TOWNNAME":"永康區","LI":"中興里","LIN":"19鄰","STREET":"中山東路","SECT":" ","MAREA":" ","LANE":"３５０巷","ALLEY":" ","HOUSE_NO":"１１號五樓之２","E_COORD97":171861.54000000001,"N_COORD97":2545345.29,"ADDRESS":"中山東路３５０巷１１號五樓之２","OBJECTID":283903},"geometry":{"x":171861.54000000097,"y":2545345.2899999991}},{"attributes":{"ID":283910,"DIS_CODE":0,"TOWNNAME":"永康區","LI":"中興里","LIN":"19鄰","STREET":"中山東路","SECT":" ","MAREA":" ","LANE":"３５０巷","ALLEY":" ","HOUSE_NO":"７號四樓之２","E_COORD97":171860.29000000001,"N_COORD97":2545345.29,"ADDRESS":"中山東路３５０巷７號四樓之２","OBJECTID":283904},"geometry":{"x":171860.29000000004,"y":2545345.2899999991}},{"attributes":{"ID":283911,"DIS_CODE":0,"TOWNNAME":"東區","LI":"東安里","LIN":"19鄰","STREET":"長榮路","SECT":"二段","MAREA":" ","LANE":"３２巷","ALLEY":" ","HOUSE_NO":"１５８號三樓","E_COORD97":170167.87,"N_COORD97":2543104.9900000002,"ADDRESS":"長榮路二段３２巷１５８號三樓","OBJECTID":283905},"geometry":{"x":170167.87000000104,"y":2543104.9900000002}},{"attributes":{"ID":283912,"DIS_CODE":0,"TOWNNAME":"東區","LI":"中西里","LIN":"19鄰","STREET":"長榮路","SECT":"二段","MAREA":" ","LANE":"３２巷","ALLEY":" ","HOUSE_NO":"７１號四樓","E_COORD97":170060.13,"N_COORD97":2543193.2999999998,"ADDRESS":"長榮路二段３２巷７１號四樓","OBJECTID":283906},"geometry":{"x":170060.13000000175,"y":2543193.3000000026}},{"attributes":{"ID":283913,"DIS_CODE":0,"TOWNNAME":"東區","LI":"中西里","LIN":"19鄰","STREET":"長榮路","SECT":"二段","MAREA":" ","LANE":"３２巷","ALLEY":" ","HOUSE_NO":"７１號四樓之１","E_COORD97":170060.13,"N_COORD97":2543193.2999999998,"ADDRESS":"長榮路二段３２巷７１號四樓之１","OBJECTID":283907},"geometry":{"x":170060.13000000175,"y":2543193.3000000026}},{"attributes":{"ID":283914,"DIS_CODE":0,"TOWNNAME":"佳里區","LI":"鎮山里","LIN":"1鄰","STREET":"四安街","SECT":" ","MAREA":" ","LANE":" ","ALLEY":" ","HOUSE_NO":"２９號","E_COORD97":165874.81,"N_COORD97":2561847.9500000002,"ADDRESS":"四安街２９號","OBJECTID":283908},"geometry":{"x":165874.81000000145,"y":2561847.9500000011}},{"attributes":{"ID":283915,"DIS_CODE":0,"TOWNNAME":"永康區","LI":"\u25A0行里","LIN":"25鄰","STREET":"\u25A0和街","SECT":" ","MAREA":" ","LANE":" ","ALLEY":" ","HOUSE_NO":"２８０號","E_COORD97":171523.94,"N_COORD97":2548456.9900000002,"ADDRESS":"\u25A0和街２８０號","OBJECTID":283909},"geometry":{"x":171523.94000000134,"y":2548456.9900000021}},{"attributes":{"ID":283916,"DIS_CODE":0,"TOWNNAME":"永康區","LI":"\u25A0洲里","LIN":"4鄰","STREET":"\u25A0洲二街","SECT":" ","MAREA":" ","LANE":" ","ALLEY":" ","HOUSE_NO":"１４１號","E_COORD97":171659.79000000001,"N_COORD97":2549353.5,"ADDRESS":"\u25A0洲二街１４１號","OBJECTID":283910},"geometry":{"x":171659.79000000097,"y":2549353.5}},{"attributes":{"ID":283917,"DIS_CODE":0,"TOWNNAME":"永康區","LI":"\u25A0行里","LIN":"25鄰","STREET":"\u25A0和街","SECT":" ","MAREA":" ","LANE":" ","ALLEY":" ","HOUSE_NO":"２７１號","E_COORD97":171456.14000000001,"N_COORD97":2548493.23,"ADDRESS":"\u25A0和街２７１號","OBJECTID":283911},"geometry":{"x":171456.13999999966,"y":2548493.2300000023}},{"attributes":{"ID":283918,"DIS_CODE":0,"TOWNNAME":"永康區","LI":"\u25A0洲里","LIN":"25鄰","STREET":"洲工街","SECT":" ","MAREA":" ","LANE":" ","ALLEY":" ","HOUSE_NO":"２０號","E_COORD97":170619.06,"N_COORD97":2548127.6299999999,"ADDRESS":"洲工街２０號","OBJECTID":283912},"geometry":{"x":170619.05999999959,"y":2548127.629999999}},{"attributes":{"ID":283919,"DIS_CODE":0,"TOWNNAME":"東區","LI":"中西里","LIN":"19鄰","STREET":"長榮路","SECT":"二段","MAREA":" ","LANE":"３２巷","ALLEY":" ","HOUSE_NO":"７１號五樓","E_COORD97":170060.13,"N_COORD97":2543193.2999999998,"ADDRESS":"長榮路二段３２巷７１號五樓","OBJECTID":283913},"geometry":{"x":170060.13000000175,"y":2543193.3000000026}},{"attributes":{"ID":283920,"DIS_CODE":0,"TOWNNAME":"永康區","LI":"龍潭里","LIN":"42鄰","STREET":"國民路","SECT":" ","MAREA":" ","LANE":" ","ALLEY":" ","HOUSE_NO":"２１７號","E_COORD97":174510.64000000001,"N_COORD97":2547050.2599999998,"ADDRESS":"國民路２１７號","OBJECTID":283914},"geometry":{"x":174510.63999999966,"y":2547050.2600000016}},{"attributes":{"ID":283921,"DIS_CODE":0,"TOWNNAME":"永康區","LI":"\u25A0行里","LIN":"42鄰","STREET":"永安二街","SECT":" ","MAREA":" ","LANE":" ","ALLEY":" ","HOUSE_NO":"１９號","E_COORD97":172446.98000000001,"N_COORD97":2549596.8300000001,"ADDRESS":"永安二街１９號","OBJECTID":283915},"geometry":{"x":172446.98000000138,"y":2549596.8300000019}},{"attributes":{"ID":283922,"DIS_CODE":0,"TOWNNAME":"佳里區","LI":"安西里","LIN":"56鄰","STREET":"佳安中街","SECT":" ","MAREA":" ","LANE":" ","ALLEY":" ","HOUSE_NO":"１７號","E_COORD97":163920.35999999999,"N_COORD97":2562280.5499999998,"ADDRESS":"佳安中街１７號","OBJECTID":283916},"geometry":{"x":163920.36000000034,"y":2562280.5500000007}},{"attributes":{"ID":283923,"DIS_CODE":0,"TOWNNAME":"白河區","LI":"白河里","LIN":"2鄰","STREET":"八德街","SECT":" ","MAREA":" ","LANE":" ","ALLEY":" ","HOUSE_NO":"７６號","E_COORD97":190179.87,"N_COORD97":2582900.5299999998,"ADDRESS":"八德街７６號","OBJECTID":283917},"geometry":{"x":190179.87000000011,"y":2582900.5299999993}},{"attributes":{"ID":283924,"DIS_CODE":0,"TOWNNAME":"南區","LI":"新興里","LIN":"2鄰","STREET":"國華街","SECT":"一段","MAREA":" ","LANE":" ","ALLEY":" ","HOUSE_NO":"３號","E_COORD97":167604.89000000001,"N_COORD97":2542487.5,"ADDRESS":"國華街一段３號","OBJECTID":283918},"geometry":{"x":167604.88999999966,"y":2542487.5}},{"attributes":{"ID":283925,"DIS_CODE":0,"TOWNNAME":"南區","LI":"白雪里","LIN":"2鄰","STREET":"金華路","SECT":"一段","MAREA":" ","LANE":" ","ALLEY":" ","HOUSE_NO":"２４５之２號","E_COORD97":166937.92999999999,"N_COORD97":2540918.2000000002,"ADDRESS":"金華路一段２４５之２號","OBJECTID":283919},"geometry":{"x":166937.9299999997,"y":2540918.2000000011}},{"attributes":{"ID":283926,"DIS_CODE":0,"TOWNNAME":"東區","LI":"中西里","LIN":"19鄰","STREET":"長榮路","SECT":"二段","MAREA":" ","LANE":"３２巷","ALLEY":" ","HOUSE_NO":"７１號五樓之１","E_COORD97":170060.13,"N_COORD97":2543193.2999999998,"ADDRESS":"長榮路二段３２巷７１號五樓之１","OBJECTID":283920},"geometry":{"x":170060.13000000175,"y":2543193.3000000026}},{"attributes":{"ID":283927,"DIS_CODE":0,"TOWNNAME":"永康區","LI":"中興里","LIN":"19鄰","STREET":"中山東路","SECT":" ","MAREA":" ","LANE":"３５０巷","ALLEY":" ","HOUSE_NO":"１１號六樓之１","E_COORD97":171861.41,"N_COORD97":2545345.29,"ADDRESS":"中山東路３５０巷１１號六樓之１","OBJECTID":283921},"geometry":{"x":171861.41000000015,"y":2545345.2899999991}},{"attributes":{"ID":283928,"DIS_CODE":0,"TOWNNAME":"永康區","LI":"中興里","LIN":"19鄰","STREET":"中山東路","SECT":" ","MAREA":" ","LANE":"３５０巷","ALLEY":" ","HOUSE_NO":"７號四樓之３","E_COORD97":171860.26000000001,"N_COORD97":2545345.29,"ADDRESS":"中山東路３５０巷７號四樓之３","OBJECTID":283922},"geometry":{"x":171860.25999999978,"y":2545345.2899999991}},{"attributes":{"ID":283929,"DIS_CODE":0,"TOWNNAME":"永康區","LI":"龍潭里","LIN":"42鄰","STREET":"國民路","SECT":" ","MAREA":" ","LANE":" ","ALLEY":" ","HOUSE_NO":"２１９號","E_COORD97":174515.73000000001,"N_COORD97":2547057.25,"ADDRESS":"國民路２１９號","OBJECTID":283923},"geometry":{"x":174515.73000000138,"y":2547057.2500000019}},{"attributes":{"ID":283930,"DIS_CODE":0,"TOWNNAME":"東區","LI":"崇德里","LIN":"19鄰","STREET":"崇明十三街","SECT":" ","MAREA":" ","LANE":"１１巷","ALLEY":" ","HOUSE_NO":"７３號五樓之１","E_COORD97":170514.22,"N_COORD97":2541739.5,"ADDRESS":"崇明十三街１１巷７３號五樓之１","OBJECTID":283924},"geometry":{"x":170514.22000000067,"y":2541739.5000000019}},{"attributes":{"ID":283931,"DIS_CODE":0,"TOWNNAME":"東區","LI":"崇德里","LIN":"19鄰","STREET":"崇明十三街","SECT":" ","MAREA":" ","LANE":"１１巷","ALLEY":" ","HOUSE_NO":"７３號五樓之２","E_COORD97":170514.22,"N_COORD97":2541739.5,"ADDRESS":"崇明十三街１１巷７３號五樓之２","OBJECTID":283925},"geometry":{"x":170514.22000000067,"y":2541739.5000000019}},{"attributes":{"ID":283932,"DIS_CODE":0,"TOWNNAME":"東區","LI":"崇德里","LIN":"19鄰","STREET":"崇明十三街","SECT":" ","MAREA":" ","LANE":"１１巷","ALLEY":" ","HOUSE_NO":"７３號六樓","E_COORD97":170514.22,"N_COORD97":2541739.5,"ADDRESS":"崇明十三街１１巷７３號六樓","OBJECTID":283926},"geometry":{"x":170514.22000000067,"y":2541739.5000000019}},{"attributes":{"ID":283933,"DIS_CODE":0,"TOWNNAME":"白河區","LI":"大林里","LIN":"2鄰","STREET":" ","SECT":" ","MAREA":"檨子林","LANE":" ","ALLEY":" ","HOUSE_NO":"１５之１號","E_COORD97":192949.81,"N_COORD97":2581763.1499999999,"ADDRESS":"檨子林１５之１號","OBJECTID":283927},"geometry":{"x":192949.80999999959,"y":2581763.1500000022}},{"attributes":{"ID":283934,"DIS_CODE":0,"TOWNNAME":"白河區","LI":"大林里","LIN":"2鄰","STREET":" ","SECT":" ","MAREA":"檨子林","LANE":" ","ALLEY":" ","HOUSE_NO":"１５號","E_COORD97":192949.26000000001,"N_COORD97":2581774.2599999998,"ADDRESS":"檨子林１５號","OBJECTID":283928},"geometry":{"x":192949.26000000164,"y":2581774.2600000035}},{"attributes":{"ID":283935,"DIS_CODE":0,"TOWNNAME":"白河區","LI":"大林里","LIN":"2鄰","STREET":" ","SECT":" ","MAREA":"檨子林","LANE":" ","ALLEY":" ","HOUSE_NO":"１７之１號","E_COORD97":192994.81,"N_COORD97":2581732.2000000002,"ADDRESS":"檨子林１７之１號","OBJECTID":283929},"geometry":{"x":192994.81000000052,"y":2581732.1999999993}},{"attributes":{"ID":283936,"DIS_CODE":0,"TOWNNAME":"東區","LI":"崇德里","LIN":"19鄰","STREET":"崇明十三街","SECT":" ","MAREA":" ","LANE":"１１巷","ALLEY":" ","HOUSE_NO":"７３號六樓之１","E_COORD97":170514.22,"N_COORD97":2541739.5,"ADDRESS":"崇明十三街１１巷７３號六樓之１","OBJECTID":283930},"geometry":{"x":170514.22000000067,"y":2541739.5000000019}},{"attributes":{"ID":283937,"DIS_CODE":0,"TOWNNAME":"東區","LI":"崇德里","LIN":"19鄰","STREET":"崇明十三街","SECT":" ","MAREA":" ","LANE":"１１巷","ALLEY":" ","HOUSE_NO":"７３號六樓之２","E_COORD97":170514.22,"N_COORD97":2541739.5,"ADDRESS":"崇明十三街１１巷７３號六樓之２","OBJECTID":283931},"geometry":{"x":170514.22000000067,"y":2541739.5000000019}},{"attributes":{"ID":283938,"DIS_CODE":0,"TOWNNAME":"東區","LI":"崇德里","LIN":"19鄰","STREET":"崇明十三街","SECT":" ","MAREA":" ","LANE":"１１巷","ALLEY":" ","HOUSE_NO":"７３號七樓","E_COORD97":170514.22,"N_COORD97":2541739.5,"ADDRESS":"崇明十三街１１巷７３號七樓","OBJECTID":283932},"geometry":{"x":170514.22000000067,"y":2541739.5000000019}},{"attributes":{"ID":283939,"DIS_CODE":0,"TOWNNAME":"東區","LI":"崇德里","LIN":"19鄰","STREET":"崇明十三街","SECT":" ","MAREA":" ","LANE":"１１巷","ALLEY":" ","HOUSE_NO":"７３號七樓之１","E_COORD97":170514.22,"N_COORD97":2541739.5,"ADDRESS":"崇明十三街１１巷７３號七樓之１","OBJECTID":283933},"geometry":{"x":170514.22000000067,"y":2541739.5000000019}},{"attributes":{"ID":283940,"DIS_CODE":0,"TOWNNAME":"中西區","LI":"青年里","LIN":"19鄰","STREET":"中山路","SECT":" ","MAREA":" ","LANE":"８巷","ALLEY":" ","HOUSE_NO":"１號一樓之２","E_COORD97":168601.67999999999,"N_COORD97":2543710.5600000001,"ADDRESS":"中山路８巷１號一樓之２","OBJECTID":283934},"geometry":{"x":168601.68000000156,"y":2543710.5600000024}},{"attributes":{"ID":283941,"DIS_CODE":0,"TOWNNAME":"東區","LI":"虎尾里","LIN":"19鄰","STREET":"東成街","SECT":" ","MAREA":" ","LANE":"２８巷","ALLEY":" ","HOUSE_NO":"１０號四樓之２","E_COORD97":171325.72,"N_COORD97":2542219.9399999999,"ADDRESS":"東成街２８巷１０號四樓之２","OBJECTID":283935},"geometry":{"x":171325.7200000016,"y":2542219.9399999995}},{"attributes":{"ID":283942,"DIS_CODE":0,"TOWNNAME":"東區","LI":"崇明里","LIN":"19鄰","STREET":"中華東路","SECT":"三段","MAREA":" ","LANE":"３５７巷","ALLEY":" ","HOUSE_NO":"６７號二樓","E_COORD97":170401.98999999999,"N_COORD97":2541528.6800000002,"ADDRESS":"中華東路三段３５７巷６７號二樓","OBJECTID":283936},"geometry":{"x":170401.98999999929,"y":2541528.6800000016}},{"attributes":{"ID":283943,"DIS_CODE":0,"TOWNNAME":"東區","LI":"崇明里","LIN":"19鄰","STREET":"中華東路","SECT":"三段","MAREA":" ","LANE":"３５７巷","ALLEY":" ","HOUSE_NO":"６７號三樓","E_COORD97":170401.98999999999,"N_COORD97":2541528.6800000002,"ADDRESS":"中華東路三段３５７巷６７號三樓","OBJECTID":283937},"geometry":{"x":170401.98999999929,"y":2541528.6800000016}},{"attributes":{"ID":283944,"DIS_CODE":0,"TOWNNAME":"南區","LI":"新興里","LIN":"2鄰","STREET":"國華街","SECT":"一段","MAREA":" ","LANE":" ","ALLEY":" ","HOUSE_NO":"１２之１號","E_COORD97":167620.32999999999,"N_COORD97":2542525.4399999999,"ADDRESS":"國華街一段１２之１號","OBJECTID":283938},"geometry":{"x":167620.33000000101,"y":2542525.4400000032}},{"attributes":{"ID":283945,"DIS_CODE":0,"TOWNNAME":"南區","LI":"明亮里","LIN":"2鄰","STREET":"新都路","SECT":" ","MAREA":" ","LANE":" ","ALLEY":" ","HOUSE_NO":"５３２號","E_COORD97":167118.28,"N_COORD97":2540888.3300000001,"ADDRESS":"新都路５３２號","OBJECTID":283939},"geometry":{"x":167118.28000000212,"y":2540888.3300000001}},{"attributes":{"ID":283946,"DIS_CODE":0,"TOWNNAME":"永康區","LI":"龍潭里","LIN":"39鄰","STREET":"永明街","SECT":" ","MAREA":" ","LANE":" ","ALLEY":" ","HOUSE_NO":"２６１之１２號","E_COORD97":174627.89000000001,"N_COORD97":2547230.27,"ADDRESS":"永明街２６１之１２號","OBJECTID":283940},"geometry":{"x":174627.88999999966,"y":2547230.2700000014}},{"attributes":{"ID":283947,"DIS_CODE":0,"TOWNNAME":"永康區","LI":"龍潭里","LIN":"42鄰","STREET":"永平街","SECT":" ","MAREA":" ","LANE":" ","ALLEY":" ","HOUSE_NO":"７６１之６號","E_COORD97":174632,"N_COORD97":2547074.2999999998,"ADDRESS":"永平街７６１之６號","OBJECTID":283941},"geometry":{"x":174632.00000000093,"y":2547074.3000000045}},{"attributes":{"ID":283948,"DIS_CODE":0,"TOWNNAME":"永康區","LI":"\u25A0行里","LIN":"43鄰","STREET":"中正二街","SECT":" ","MAREA":" ","LANE":" ","ALLEY":" ","HOUSE_NO":"２３１號","E_COORD97":171578.26000000001,"N_COORD97":2547854.5,"ADDRESS":"中正二街２３１號","OBJECTID":283942},"geometry":{"x":171578.26000000071,"y":2547854.5}},{"attributes":{"ID":283949,"DIS_CODE":0,"TOWNNAME":"永康區","LI":"\u25A0行里","LIN":"41鄰","STREET":"永安一街","SECT":" ","MAREA":" ","LANE":" ","ALLEY":" ","HOUSE_NO":"８２號","E_COORD97":172455.89999999999,"N_COORD97":2549397.0600000001,"ADDRESS":"永安一街８２號","OBJECTID":283943},"geometry":{"x":172455.9000000013,"y":2549397.0600000005}},{"attributes":{"ID":283950,"DIS_CODE":0,"TOWNNAME":"永康區","LI":"\u25A0洲里","LIN":"4鄰","STREET":"\u25A0洲二街","SECT":" ","MAREA":" ","LANE":" ","ALLEY":" ","HOUSE_NO":"１４３號","E_COORD97":171663.19,"N_COORD97":2549356.9900000002,"ADDRESS":"\u25A0洲二街１４３號","OBJECTID":283944},"geometry":{"x":171663.19000000041,"y":2549356.9900000002}},{"attributes":{"ID":283951,"DIS_CODE":0,"TOWNNAME":"東區","LI":"崇明里","LIN":"19鄰","STREET":"中華東路","SECT":"三段","MAREA":" ","LANE":"３５７巷","ALLEY":" ","HOUSE_NO":"６７號五樓","E_COORD97":170401.98999999999,"N_COORD97":2541528.6800000002,"ADDRESS":"中華東路三段３５７巷６７號五樓","OBJECTID":283945},"geometry":{"x":170401.98999999929,"y":2541528.6800000016}},{"attributes":{"ID":283952,"DIS_CODE":0,"TOWNNAME":"東區","LI":"崇明里","LIN":"19鄰","STREET":"中華東路","SECT":"三段","MAREA":" ","LANE":"３５７巷","ALLEY":" ","HOUSE_NO":"６７號六樓","E_COORD97":170401.98999999999,"N_COORD97":2541528.6800000002,"ADDRESS":"中華東路三段３５７巷６７號六樓","OBJECTID":283946},"geometry":{"x":170401.98999999929,"y":2541528.6800000016}},{"attributes":{"ID":283953,"DIS_CODE":0,"TOWNNAME":"東區","LI":"崇明里","LIN":"19鄰","STREET":"中華東路","SECT":"三段","MAREA":" ","LANE":"３５７巷","ALLEY":" ","HOUSE_NO":"６７號四樓","E_COORD97":170401.98999999999,"N_COORD97":2541528.6800000002,"ADDRESS":"中華東路三段３５７巷６７號四樓","OBJECTID":283947},"geometry":{"x":170401.98999999929,"y":2541528.6800000016}},{"attributes":{"ID":283954,"DIS_CODE":0,"TOWNNAME":"永康區","LI":"崑山里","LIN":"19鄰","STREET":"大灣路","SECT":" ","MAREA":" ","LANE":"７９８巷","ALLEY":" ","HOUSE_NO":"１２號四樓","E_COORD97":174024.95000000001,"N_COORD97":2544554.4700000002,"ADDRESS":"大灣路７９８巷１２號四樓","OBJECTID":283948},"geometry":{"x":174024.95000000205,"y":2544554.4700000025}},{"attributes":{"ID":283955,"DIS_CODE":0,"TOWNNAME":"永康區","LI":"中興里","LIN":"19鄰","STREET":"中山東路","SECT":" ","MAREA":" ","LANE":"３５０巷","ALLEY":" ","HOUSE_NO":"１１號六樓之３","E_COORD97":171861.51000000001,"N_COORD97":2545345.29,"ADDRESS":"中山東路３５０巷１１號六樓之３","OBJECTID":283949},"geometry":{"x":171861.51000000071,"y":2545345.2899999991}},{"attributes":{"ID":283956,"DIS_CODE":0,"TOWNNAME":"永康區","LI":"中興里","LIN":"19鄰","STREET":"中山東路","SECT":" ","MAREA":" ","LANE":"３５０巷","ALLEY":" ","HOUSE_NO":"７號五樓之３","E_COORD97":171860.26000000001,"N_COORD97":2545345.29,"ADDRESS":"中山東路３５０巷７號五樓之３","OBJECTID":283950},"geometry":{"x":171860.25999999978,"y":2545345.2899999991}},{"attributes":{"ID":283957,"DIS_CODE":0,"TOWNNAME":"永康區","LI":"中興里","LIN":"19鄰","STREET":"中山東路","SECT":" ","MAREA":" ","LANE":"３５０巷","ALLEY":" ","HOUSE_NO":"１１號三樓之１","E_COORD97":171861.41,"N_COORD97":2545345.29,"ADDRESS":"中山東路３５０巷１１號三樓之１","OBJECTID":283951},"geometry":{"x":171861.41000000015,"y":2545345.2899999991}},{"attributes":{"ID":283958,"DIS_CODE":0,"TOWNNAME":"安平區","LI":"文平里","LIN":"19鄰","STREET":"健康一街","SECT":" ","MAREA":" ","LANE":"５７巷","ALLEY":" ","HOUSE_NO":"３號二樓之１","E_COORD97":165902.63,"N_COORD97":2542783.96,"ADDRESS":"健康一街５７巷３號二樓之１","OBJECTID":283952},"geometry":{"x":165902.62999999989,"y":2542783.9600000009}},{"attributes":{"ID":283959,"DIS_CODE":0,"TOWNNAME":"安平區","LI":"文平里","LIN":"19鄰","STREET":"健康一街","SECT":" ","MAREA":" ","LANE":"５７巷","ALLEY":" ","HOUSE_NO":"３號二樓之２","E_COORD97":165902.63,"N_COORD97":2542783.96,"ADDRESS":"健康一街５７巷３號二樓之２","OBJECTID":283953},"geometry":{"x":165902.62999999989,"y":2542783.9600000009}},{"attributes":{"ID":283960,"DIS_CODE":0,"TOWNNAME":"安平區","LI":"華平里","LIN":"19鄰","STREET":"永華八街","SECT":" ","MAREA":" ","LANE":"１９３巷","ALLEY":" ","HOUSE_NO":"３號六樓之１４","E_COORD97":165120.62,"N_COORD97":2543717.21,"ADDRESS":"永華八街１９３巷３號六樓之１４","OBJECTID":283954},"geometry":{"x":165120.62000000197,"y":2543717.2100000009}},{"attributes":{"ID":283961,"DIS_CODE":0,"TOWNNAME":"安平區","LI":"華平里","LIN":"19鄰","STREET":"永華八街","SECT":" ","MAREA":" ","LANE":"１９３巷","ALLEY":" ","HOUSE_NO":"３號六樓之１５","E_COORD97":165120.62,"N_COORD97":2543717.21,"ADDRESS":"永華八街１９３巷３號六樓之１５","OBJECTID":283955},"geometry":{"x":165120.62000000197,"y":2543717.2100000009}},{"attributes":{"ID":283962,"DIS_CODE":0,"TOWNNAME":"安平區","LI":"華平里","LIN":"19鄰","STREET":"永華八街","SECT":" ","MAREA":" ","LANE":"１９３巷","ALLEY":" ","HOUSE_NO":"３號六樓之２","E_COORD97":165120.62,"N_COORD97":2543717.21,"ADDRESS":"永華八街１９３巷３號六樓之２","OBJECTID":283956},"geometry":{"x":165120.62000000197,"y":2543717.2100000009}},{"attributes":{"ID":283963,"DIS_CODE":0,"TOWNNAME":"安平區","LI":"華平里","LIN":"19鄰","STREET":"永華八街","SECT":" ","MAREA":" ","LANE":"１９３巷","ALLEY":" ","HOUSE_NO":"３號六樓之３","E_COORD97":165120.62,"N_COORD97":2543717.21,"ADDRESS":"永華八街１９３巷３號六樓之３","OBJECTID":283957},"geometry":{"x":165120.62000000197,"y":2543717.2100000009}},{"attributes":{"ID":283964,"DIS_CODE":0,"TOWNNAME":"安平區","LI":"華平里","LIN":"19鄰","STREET":"永華八街","SECT":" ","MAREA":" ","LANE":"１９３巷","ALLEY":" ","HOUSE_NO":"３號六樓之４","E_COORD97":165120.62,"N_COORD97":2543717.21,"ADDRESS":"永華八街１９３巷３號六樓之４","OBJECTID":283958},"geometry":{"x":165120.62000000197,"y":2543717.2100000009}},{"attributes":{"ID":283965,"DIS_CODE":0,"TOWNNAME":"南區","LI":"明亮里","LIN":"2鄰","STREET":"新都路","SECT":" ","MAREA":" ","LANE":" ","ALLEY":" ","HOUSE_NO":"５３８號","E_COORD97":167113.51999999999,"N_COORD97":2540888.4900000002,"ADDRESS":"新都路５３８號","OBJECTID":283959},"geometry":{"x":167113.51999999955,"y":2540888.4900000039}},{"attributes":{"ID":283966,"DIS_CODE":0,"TOWNNAME":"南區","LI":"文南里","LIN":"19鄰","STREET":"南功街","SECT":" ","MAREA":" ","LANE":"８５巷","ALLEY":" ","HOUSE_NO":"２號五樓之１","E_COORD97":166487.44,"N_COORD97":2542851.48,"ADDRESS":"南功街８５巷２號五樓之１","OBJECTID":283960},"geometry":{"x":166487.44000000134,"y":2542851.4800000004}},{"attributes":{"ID":283967,"DIS_CODE":0,"TOWNNAME":"南區","LI":"文南里","LIN":"19鄰","STREET":"南功街","SECT":" ","MAREA":" ","LANE":"８５巷","ALLEY":" ","HOUSE_NO":"２號五樓之２","E_COORD97":166487.44,"N_COORD97":2542851.48,"ADDRESS":"南功街８５巷２號五樓之２","OBJECTID":283961},"geometry":{"x":166487.44000000134,"y":2542851.4800000004}},{"attributes":{"ID":283968,"DIS_CODE":0,"TOWNNAME":"南區","LI":"文南里","LIN":"19鄰","STREET":"南功街","SECT":" ","MAREA":" ","LANE":"８５巷","ALLEY":" ","HOUSE_NO":"２號五樓之３","E_COORD97":166487.44,"N_COORD97":2542851.48,"ADDRESS":"南功街８５巷２號五樓之３","OBJECTID":283962},"geometry":{"x":166487.44000000134,"y":2542851.4800000004}},{"attributes":{"ID":283969,"DIS_CODE":0,"TOWNNAME":"南區","LI":"文南里","LIN":"19鄰","STREET":"南功街","SECT":" ","MAREA":" ","LANE":"８５巷","ALLEY":" ","HOUSE_NO":"２號六樓之１","E_COORD97":166487.44,"N_COORD97":2542851.48,"ADDRESS":"南功街８５巷２號六樓之１","OBJECTID":283963},"geometry":{"x":166487.44000000134,"y":2542851.4800000004}},{"attributes":{"ID":283970,"DIS_CODE":0,"TOWNNAME":"南區","LI":"文南里","LIN":"19鄰","STREET":"南功街","SECT":" ","MAREA":" ","LANE":"８５巷","ALLEY":" ","HOUSE_NO":"２號六樓之２","E_COORD97":166487.44,"N_COORD97":2542851.48,"ADDRESS":"南功街８５巷２號六樓之２","OBJECTID":283964},"geometry":{"x":166487.44000000134,"y":2542851.4800000004}},{"attributes":{"ID":283971,"DIS_CODE":0,"TOWNNAME":"南區","LI":"文南里","LIN":"19鄰","STREET":"南功街","SECT":" ","MAREA":" ","LANE":"８５巷","ALLEY":" ","HOUSE_NO":"２號六樓之３","E_COORD97":166487.44,"N_COORD97":2542851.48,"ADDRESS":"南功街８５巷２號六樓之３","OBJECTID":283965},"geometry":{"x":166487.44000000134,"y":2542851.4800000004}},{"attributes":{"ID":283972,"DIS_CODE":0,"TOWNNAME":"南區","LI":"文南里","LIN":"19鄰","STREET":"南功街","SECT":" ","MAREA":" ","LANE":"８５巷","ALLEY":" ","HOUSE_NO":"２號七樓之１","E_COORD97":166487.44,"N_COORD97":2542851.48,"ADDRESS":"南功街８５巷２號七樓之１","OBJECTID":283966},"geometry":{"x":166487.44000000134,"y":2542851.4800000004}},{"attributes":{"ID":283973,"DIS_CODE":0,"TOWNNAME":"南區","LI":"文南里","LIN":"19鄰","STREET":"南功街","SECT":" ","MAREA":" ","LANE":"８５巷","ALLEY":" ","HOUSE_NO":"２號七樓之２","E_COORD97":166487.44,"N_COORD97":2542851.48,"ADDRESS":"南功街８５巷２號七樓之２","OBJECTID":283967},"geometry":{"x":166487.44000000134,"y":2542851.4800000004}},{"attributes":{"ID":283974,"DIS_CODE":0,"TOWNNAME":"南區","LI":"文南里","LIN":"19鄰","STREET":"南功街","SECT":" ","MAREA":" ","LANE":"８５巷","ALLEY":" ","HOUSE_NO":"２號七樓之３","E_COORD97":166487.44,"N_COORD97":2542851.48,"ADDRESS":"南功街８５巷２號七樓之３","OBJECTID":283968},"geometry":{"x":166487.44000000134,"y":2542851.4800000004}},{"attributes":{"ID":283975,"DIS_CODE":0,"TOWNNAME":"南區","LI":"明亮里","LIN":"2鄰","STREET":"新都路","SECT":" ","MAREA":" ","LANE":" ","ALLEY":" ","HOUSE_NO":"５４０號","E_COORD97":167110.98000000001,"N_COORD97":2540888.8100000001,"ADDRESS":"新都路５４０號","OBJECTID":283969},"geometry":{"x":167110.98000000138,"y":2540888.8100000005}},{"attributes":{"ID":283976,"DIS_CODE":0,"TOWNNAME":"南區","LI":"文南里","LIN":"19鄰","STREET":"南功街","SECT":" ","MAREA":" ","LANE":"８５巷","ALLEY":" ","HOUSE_NO":"２號八樓之１","E_COORD97":166487.44,"N_COORD97":2542851.48,"ADDRESS":"南功街８５巷２號八樓之１","OBJECTID":283970},"geometry":{"x":166487.44000000134,"y":2542851.4800000004}},{"attributes":{"ID":283977,"DIS_CODE":0,"TOWNNAME":"南區","LI":"明亮里","LIN":"2鄰","STREET":"新都路","SECT":" ","MAREA":" ","LANE":" ","ALLEY":" ","HOUSE_NO":"５６２之１號","E_COORD97":167062.75,"N_COORD97":2540893.9700000002,"ADDRESS":"新都路５６２之１號","OBJECTID":283971},"geometry":{"x":167062.75000000093,"y":2540893.9700000025}},{"attributes":{"ID":283978,"DIS_CODE":0,"TOWNNAME":"南區","LI":"佛壇里","LIN":"2鄰","STREET":"興南街","SECT":" ","MAREA":" ","LANE":" ","ALLEY":" ","HOUSE_NO":"２３６號","E_COORD97":165973.79000000001,"N_COORD97":2535743.4100000001,"ADDRESS":"興南街２３６號","OBJECTID":283972},"geometry":{"x":165973.7900000019,"y":2535743.410000002}},{"attributes":{"ID":283979,"DIS_CODE":0,"TOWNNAME":"南區","LI":"明亮里","LIN":"2鄰","STREET":"新都路","SECT":" ","MAREA":" ","LANE":" ","ALLEY":" ","HOUSE_NO":"５６０之１號","E_COORD97":167055.67000000001,"N_COORD97":2540904.77,"ADDRESS":"新都路５６０之１號","OBJECTID":283973},"geometry":{"x":167055.66999999993,"y":2540904.7699999996}},{"attributes":{"ID":283980,"DIS_CODE":0,"TOWNNAME":"善化區","LI":"六分里","LIN":"2鄰","STREET":" ","SECT":" ","MAREA":"六分寮","LANE":" ","ALLEY":" ","HOUSE_NO":"７號","E_COORD97":178231.95999999999,"N_COORD97":2561236.5,"ADDRESS":"六分寮７號","OBJECTID":283974},"geometry":{"x":178231.95999999996,"y":2561236.5}},{"attributes":{"ID":283981,"DIS_CODE":0,"TOWNNAME":"安南區","LI":"海佃里","LIN":"2鄰","STREET":"國安街","SECT":" ","MAREA":" ","LANE":" ","ALLEY":" ","HOUSE_NO":"７２號","E_COORD97":166964.16,"N_COORD97":2547016.0499999998,"ADDRESS":"國安街７２號","OBJECTID":283975},"geometry":{"x":166964.16000000015,"y":2547016.0500000026}},{"attributes":{"ID":283982,"DIS_CODE":0,"TOWNNAME":"安南區","LI":"原佃里","LIN":"2鄰","STREET":"本原街","SECT":"一段","MAREA":" ","LANE":" ","ALLEY":" ","HOUSE_NO":"１６３號之５","E_COORD97":167867.07000000001,"N_COORD97":2550065.6699999999,"ADDRESS":"本原街一段１６３號之５","OBJECTID":283976},"geometry":{"x":167867.0700000003,"y":2550065.6700000018}},{"attributes":{"ID":283983,"DIS_CODE":0,"TOWNNAME":"安南區","LI":"海佃里","LIN":"2鄰","STREET":"國安街","SECT":" ","MAREA":" ","LANE":" ","ALLEY":" ","HOUSE_NO":"８４號","E_COORD97":166928.92000000001,"N_COORD97":2547009.4100000001,"ADDRESS":"國安街８４號","OBJECTID":283977},"geometry":{"x":166928.92000000179,"y":2547009.410000002}},{"attributes":{"ID":283984,"DIS_CODE":0,"TOWNNAME":"安南區","LI":"海佃里","LIN":"2鄰","STREET":"國安街","SECT":" ","MAREA":" ","LANE":" ","ALLEY":" ","HOUSE_NO":"８６號","E_COORD97":166924.26000000001,"N_COORD97":2547008.75,"ADDRESS":"國安街８６號","OBJECTID":283978},"geometry":{"x":166924.25999999978,"y":2547008.75}},{"attributes":{"ID":283985,"DIS_CODE":0,"TOWNNAME":"佳里區","LI":"六安里","LIN":"4鄰","STREET":"六安街","SECT":" ","MAREA":" ","LANE":" ","ALLEY":" ","HOUSE_NO":"８０號","E_COORD97":166160.73000000001,"N_COORD97":2563047.3700000001,"ADDRESS":"六安街８０號","OBJECTID":283979},"geometry":{"x":166160.73000000045,"y":2563047.3700000029}},{"attributes":{"ID":283986,"DIS_CODE":0,"TOWNNAME":"東區","LI":"自強里","LIN":"23鄰","STREET":"富農街","SECT":"一段","MAREA":" ","LANE":" ","ALLEY":" ","HOUSE_NO":"１９５號地下一層","E_COORD97":171553.01000000001,"N_COORD97":2542599.2200000002,"ADDRESS":"富農街一段１９５號地下一層","OBJECTID":283980},"geometry":{"x":171553.01000000071,"y":2542599.2200000007}},{"attributes":{"ID":283987,"DIS_CODE":0,"TOWNNAME":"東區","LI":"自強里","LIN":"23鄰","STREET":"富農街","SECT":"一段","MAREA":" ","LANE":" ","ALLEY":" ","HOUSE_NO":"１９５號地下二層","E_COORD97":171553.01000000001,"N_COORD97":2542599.2200000002,"ADDRESS":"富農街一段１９５號地下二層","OBJECTID":283981},"geometry":{"x":171553.01000000071,"y":2542599.2200000007}},{"attributes":{"ID":283988,"DIS_CODE":0,"TOWNNAME":"東區","LI":"自強里","LIN":"23鄰","STREET":"富農街","SECT":"一段","MAREA":" ","LANE":" ","ALLEY":" ","HOUSE_NO":"１９５號地下三層","E_COORD97":171553.01000000001,"N_COORD97":2542599.2200000002,"ADDRESS":"富農街一段１９５號地下三層","OBJECTID":283982},"geometry":{"x":171553.01000000071,"y":2542599.2200000007}},{"attributes":{"ID":283989,"DIS_CODE":0,"TOWNNAME":"東區","LI":"自強里","LIN":"23鄰","STREET":"富農街","SECT":"一段","MAREA":" ","LANE":" ","ALLEY":" ","HOUSE_NO":"１９７號","E_COORD97":171557.91,"N_COORD97":2542611.8300000001,"ADDRESS":"富農街一段１９７號","OBJECTID":283983},"geometry":{"x":171557.91000000015,"y":2542611.8300000038}},{"attributes":{"ID":283990,"DIS_CODE":0,"TOWNNAME":"安南區","LI":"海佃里","LIN":"2鄰","STREET":"國安街","SECT":" ","MAREA":" ","LANE":" ","ALLEY":" ","HOUSE_NO":"８２號","E_COORD97":166932.91,"N_COORD97":2547010.7400000002,"ADDRESS":"國安街８２號","OBJECTID":283984},"geometry":{"x":166932.91000000108,"y":2547010.7400000021}},{"attributes":{"ID":283991,"DIS_CODE":0,"TOWNNAME":"永康區","LI":"\u25A0洲里","LIN":"25鄰","STREET":"洲工街","SECT":" ","MAREA":" ","LANE":" ","ALLEY":" ","HOUSE_NO":"１２號","E_COORD97":170645.81,"N_COORD97":2548083.9100000001,"ADDRESS":"洲工街１２號","OBJECTID":283985},"geometry":{"x":170645.81000000052,"y":2548083.910000002}},{"attributes":{"ID":283992,"DIS_CODE":0,"TOWNNAME":"南區","LI":"文南里","LIN":"19鄰","STREET":"南功街","SECT":" ","MAREA":" ","LANE":"８５巷","ALLEY":" ","HOUSE_NO":"２號八樓之２","E_COORD97":166487.44,"N_COORD97":2542851.48,"ADDRESS":"南功街８５巷２號八樓之２","OBJECTID":283986},"geometry":{"x":166487.44000000134,"y":2542851.4800000004}},{"attributes":{"ID":283993,"DIS_CODE":0,"TOWNNAME":"南區","LI":"文南里","LIN":"19鄰","STREET":"南功街","SECT":" ","MAREA":" ","LANE":"８５巷","ALLEY":" ","HOUSE_NO":"２號二樓之３","E_COORD97":166487.44,"N_COORD97":2542851.48,"ADDRESS":"南功街８５巷２號二樓之３","OBJECTID":283987},"geometry":{"x":166487.44000000134,"y":2542851.4800000004}},{"attributes":{"ID":283994,"DIS_CODE":0,"TOWNNAME":"南區","LI":"文南里","LIN":"19鄰","STREET":"南功街","SECT":" ","MAREA":" ","LANE":"８５巷","ALLEY":" ","HOUSE_NO":"２號二樓之１","E_COORD97":166487.44,"N_COORD97":2542851.48,"ADDRESS":"南功街８５巷２號二樓之１","OBJECTID":283988},"geometry":{"x":166487.44000000134,"y":2542851.4800000004}},{"attributes":{"ID":283995,"DIS_CODE":0,"TOWNNAME":"北區","LI":"長榮里","LIN":"19鄰","STREET":"長榮路","SECT":"五段","MAREA":" ","LANE":"４１巷","ALLEY":" ","HOUSE_NO":"４８號六樓之５","E_COORD97":169972.22,"N_COORD97":2545526.4700000002,"ADDRESS":"長榮路五段４１巷４８號六樓之５","OBJECTID":283989},"geometry":{"x":169972.21999999974,"y":2545526.4700000007}},{"attributes":{"ID":283996,"DIS_CODE":0,"TOWNNAME":"北區","LI":"長榮里","LIN":"19鄰","STREET":"長榮路","SECT":"五段","MAREA":" ","LANE":"４１巷","ALLEY":" ","HOUSE_NO":"４８號十三樓之１","E_COORD97":169972.22,"N_COORD97":2545526.4700000002,"ADDRESS":"長榮路五段４１巷４８號十三樓之１","OBJECTID":283990},"geometry":{"x":169972.21999999974,"y":2545526.4700000007}},{"attributes":{"ID":283997,"DIS_CODE":0,"TOWNNAME":"北區","LI":"長榮里","LIN":"19鄰","STREET":"長榮路","SECT":"五段","MAREA":" ","LANE":"４１巷","ALLEY":" ","HOUSE_NO":"４８號十三樓之２","E_COORD97":169972.22,"N_COORD97":2545526.4700000002,"ADDRESS":"長榮路五段４１巷４８號十三樓之２","OBJECTID":283991},"geometry":{"x":169972.21999999974,"y":2545526.4700000007}},{"attributes":{"ID":283998,"DIS_CODE":0,"TOWNNAME":"北區","LI":"長榮里","LIN":"19鄰","STREET":"長榮路","SECT":"五段","MAREA":" ","LANE":"４１巷","ALLEY":" ","HOUSE_NO":"４８號十三樓之３","E_COORD97":169972.22,"N_COORD97":2545526.4700000002,"ADDRESS":"長榮路五段４１巷４８號十三樓之３","OBJECTID":283992},"geometry":{"x":169972.21999999974,"y":2545526.4700000007}},{"attributes":{"ID":283999,"DIS_CODE":0,"TOWNNAME":"北區","LI":"長榮里","LIN":"19鄰","STREET":"長榮路","SECT":"五段","MAREA":" ","LANE":"４１巷","ALLEY":" ","HOUSE_NO":"４８號十三樓之５","E_COORD97":169972.22,"N_COORD97":2545526.4700000002,"ADDRESS":"長榮路五段４１巷４８號十三樓之５","OBJECTID":283993},"geometry":{"x":169972.21999999974,"y":2545526.4700000007}},{"attributes":{"ID":284000,"DIS_CODE":0,"TOWNNAME":"北區","LI":"長榮里","LIN":"19鄰","STREET":"長榮路","SECT":"五段","MAREA":" ","LANE":"４１巷","ALLEY":" ","HOUSE_NO":"４８號十四樓之１","E_COORD97":169972.22,"N_COORD97":2545526.4700000002,"ADDRESS":"長榮路五段４１巷４８號十四樓之１","OBJECTID":283994},"geometry":{"x":169972.21999999974,"y":2545526.4700000007}},{"attributes":{"ID":284001,"DIS_CODE":0,"TOWNNAME":"北區","LI":"長榮里","LIN":"19鄰","STREET":"長榮路","SECT":"五段","MAREA":" ","LANE":"４１巷","ALLEY":" ","HOUSE_NO":"４８號十四樓之２","E_COORD97":169972.22,"N_COORD97":2545526.4700000002,"ADDRESS":"長榮路五段４１巷４８號十四樓之２","OBJECTID":283995},"geometry":{"x":169972.21999999974,"y":2545526.4700000007}},{"attributes":{"ID":284002,"DIS_CODE":0,"TOWNNAME":"北區","LI":"長榮里","LIN":"19鄰","STREET":"長榮路","SECT":"五段","MAREA":" ","LANE":"４１巷","ALLEY":" ","HOUSE_NO":"４８號十四樓之３","E_COORD97":169972.22,"N_COORD97":2545526.4700000002,"ADDRESS":"長榮路五段４１巷４８號十四樓之３","OBJECTID":283996},"geometry":{"x":169972.21999999974,"y":2545526.4700000007}},{"attributes":{"ID":284003,"DIS_CODE":0,"TOWNNAME":"北區","LI":"長榮里","LIN":"19鄰","STREET":"長榮路","SECT":"五段","MAREA":" ","LANE":"４１巷","ALLEY":" ","HOUSE_NO":"４８號十四樓之５","E_COORD97":169972.22,"N_COORD97":2545526.4700000002,"ADDRESS":"長榮路五段４１巷４８號十四樓之５","OBJECTID":283997},"geometry":{"x":169972.21999999974,"y":2545526.4700000007}},{"attributes":{"ID":284004,"DIS_CODE":0,"TOWNNAME":"永康區","LI":"永康里","LIN":"19鄰","STREET":"永中街","SECT":" ","MAREA":" ","LANE":"１５２巷","ALLEY":" ","HOUSE_NO":"５號","E_COORD97":174040.75,"N_COORD97":2547273.75,"ADDRESS":"永中街１５２巷５號","OBJECTID":283998},"geometry":{"x":174040.75,"y":2547273.7499999981}},{"attributes":{"ID":284005,"DIS_CODE":0,"TOWNNAME":"北區","LI":"成功里","LIN":"19鄰","STREET":"北成路","SECT":" ","MAREA":" ","LANE":"１２８巷","ALLEY":" ","HOUSE_NO":"４７號二樓","E_COORD97":168963.45999999999,"N_COORD97":2546812.5,"ADDRESS":"北成路１２８巷４７號二樓","OBJECTID":283999},"geometry":{"x":168963.46000000089,"y":2546812.5000000019}},{"attributes":{"ID":284006,"DIS_CODE":0,"TOWNNAME":"北區","LI":"成功里","LIN":"19鄰","STREET":"北成路","SECT":" ","MAREA":" ","LANE":"１２８巷","ALLEY":" ","HOUSE_NO":"４７號三樓","E_COORD97":168963.45999999999,"N_COORD97":2546812.5,"ADDRESS":"北成路１２８巷４７號三樓","OBJECTID":284000},"geometry":{"x":168963.46000000089,"y":2546812.5000000019}}]}