{"displayFieldName":"TOWNNAME","fieldAliases":{"ID":"ID","DIS_CODE":"DIS_CODE","TOWNNAME":"TOWNNAME","LI":"LI","LIN":"LIN","STREET":"STREET","SECT":"SECT","MAREA":"MAREA","LANE":"LANE","ALLEY":"ALLEY","HOUSE_NO":"HOUSE_NO","E_COORD97":"E_COORD97","N_COORD97":"N_COORD97","ADDRESS":"ADDRESS","OBJECTID":"OBJECTID"},"geometryType":"esriGeometryPoint","spatialReference":{"wkid":102443,"latestWkid":3826},"fields":[{"name":"ID","type":"esriFieldTypeDouble","alias":"ID"},{"name":"DIS_CODE","type":"esriFieldTypeInteger","alias":"DIS_CODE"},{"name":"TOWNNAME","type":"esriFieldTypeString","alias":"TOWNNAME","length":8},{"name":"LI","type":"esriFieldTypeString","alias":"LI","length":8},{"name":"LIN","type":"esriFieldTypeString","alias":"LIN","length":12},{"name":"STREET","type":"esriFieldTypeString","alias":"STREET","length":20},{"name":"SECT","type":"esriFieldTypeString","alias":"SECT","length":8},{"name":"MAREA","type":"esriFieldTypeString","alias":"MAREA","length":12},{"name":"LANE","type":"esriFieldTypeString","alias":"LANE","length":10},{"name":"ALLEY","type":"esriFieldTypeString","alias":"ALLEY","length":10},{"name":"HOUSE_NO","type":"esriFieldTypeString","alias":"HOUSE_NO","length":20},{"name":"E_COORD97","type":"esriFieldTypeDouble","alias":"E_COORD97"},{"name":"N_COORD97","type":"esriFieldTypeDouble","alias":"N_COORD97"},{"name":"ADDRESS","type":"esriFieldTypeString","alias":"ADDRESS","length":50},{"name":"OBJECTID","type":"esriFieldTypeOID","alias":"OBJECTID"}],"features":[{"attributes":{"ID":618428,"DIS_CODE":0,"TOWNNAME":"永康區","LI":"三合里","LIN":"2鄰","STREET":"南工街","SECT":" ","MAREA":" ","LANE":" ","ALLEY":" ","HOUSE_NO":"２３號","E_COORD97":172099.88,"N_COORD97":2545529.0899999999,"ADDRESS":"南工街２３號","OBJECTID":618401},"geometry":{"x":172099.88000000082,"y":2545529.0900000017}},{"attributes":{"ID":618429,"DIS_CODE":0,"TOWNNAME":"安南區","LI":"溪頂里","LIN":"2鄰","STREET":"府安路","SECT":"四段","MAREA":" ","LANE":" ","ALLEY":" ","HOUSE_NO":"９６號","E_COORD97":169094.57000000001,"N_COORD97":2547277.7400000002,"ADDRESS":"府安路四段９６號","OBJECTID":618402},"geometry":{"x":169094.56999999937,"y":2547277.7400000039}},{"attributes":{"ID":618430,"DIS_CODE":0,"TOWNNAME":"麻豆區","LI":"小埤里","LIN":"2鄰","STREET":"工業路","SECT":" ","MAREA":" ","LANE":" ","ALLEY":" ","HOUSE_NO":"２２２號","E_COORD97":171528.63,"N_COORD97":2565384.6600000001,"ADDRESS":"工業路２２２號","OBJECTID":618403},"geometry":{"x":171528.63000000082,"y":2565384.6600000001}},{"attributes":{"ID":618431,"DIS_CODE":0,"TOWNNAME":"麻豆區","LI":"小埤里","LIN":"2鄰","STREET":"工業路","SECT":" ","MAREA":" ","LANE":" ","ALLEY":" ","HOUSE_NO":"２２８號","E_COORD97":171301.34,"N_COORD97":2565494.4399999999,"ADDRESS":"工業路２２８號","OBJECTID":618404},"geometry":{"x":171301.34000000078,"y":2565494.4399999995}},{"attributes":{"ID":618432,"DIS_CODE":0,"TOWNNAME":"麻豆區","LI":"小埤里","LIN":"2鄰","STREET":"工業路","SECT":" ","MAREA":" ","LANE":" ","ALLEY":" ","HOUSE_NO":"３２號","E_COORD97":171227.14999999999,"N_COORD97":2564682.8100000001,"ADDRESS":"工業路３２號","OBJECTID":618405},"geometry":{"x":171227.1500000013,"y":2564682.8100000005}},{"attributes":{"ID":618433,"DIS_CODE":0,"TOWNNAME":"麻豆區","LI":"小埤里","LIN":"2鄰","STREET":"工業路","SECT":" ","MAREA":" ","LANE":" ","ALLEY":" ","HOUSE_NO":"８１號","E_COORD97":171156.85000000001,"N_COORD97":2564527.9100000001,"ADDRESS":"工業路８１號","OBJECTID":618406},"geometry":{"x":171156.85000000149,"y":2564527.910000002}},{"attributes":{"ID":618434,"DIS_CODE":0,"TOWNNAME":"麻豆區","LI":"新建里","LIN":"2鄰","STREET":"中山路","SECT":" ","MAREA":" ","LANE":" ","ALLEY":" ","HOUSE_NO":"１００號","E_COORD97":172733.82000000001,"N_COORD97":2564838.4500000002,"ADDRESS":"中山路１００號","OBJECTID":618407},"geometry":{"x":172733.8200000003,"y":2564838.4500000011}},{"attributes":{"ID":618435,"DIS_CODE":0,"TOWNNAME":"麻豆區","LI":"新建里","LIN":"2鄰","STREET":"中山路","SECT":" ","MAREA":" ","LANE":" ","ALLEY":" ","HOUSE_NO":"１０２號","E_COORD97":172729.22,"N_COORD97":2564838.4500000002,"ADDRESS":"中山路１０２號","OBJECTID":618408},"geometry":{"x":172729.2200000016,"y":2564838.4500000011}},{"attributes":{"ID":618436,"DIS_CODE":0,"TOWNNAME":"麻豆區","LI":"新建里","LIN":"2鄰","STREET":"中山路","SECT":" ","MAREA":" ","LANE":" ","ALLEY":" ","HOUSE_NO":"１０４號","E_COORD97":172724.62,"N_COORD97":2564838.4500000002,"ADDRESS":"中山路１０４號","OBJECTID":618409},"geometry":{"x":172724.62000000011,"y":2564838.4500000011}},{"attributes":{"ID":618437,"DIS_CODE":0,"TOWNNAME":"麻豆區","LI":"新建里","LIN":"2鄰","STREET":"中山路","SECT":" ","MAREA":" ","LANE":" ","ALLEY":" ","HOUSE_NO":"１０６號","E_COORD97":172730.51999999999,"N_COORD97":2564870.75,"ADDRESS":"中山路１０６號","OBJECTID":618410},"geometry":{"x":172730.52000000048,"y":2564870.7500000019}},{"attributes":{"ID":618438,"DIS_CODE":0,"TOWNNAME":"麻豆區","LI":"新建里","LIN":"2鄰","STREET":"中山路","SECT":" ","MAREA":" ","LANE":" ","ALLEY":" ","HOUSE_NO":"１０８號","E_COORD97":172720.01000000001,"N_COORD97":2564838.4500000002,"ADDRESS":"中山路１０８號","OBJECTID":618411},"geometry":{"x":172720.00999999978,"y":2564838.4500000011}},{"attributes":{"ID":618439,"DIS_CODE":0,"TOWNNAME":"麻豆區","LI":"新建里","LIN":"2鄰","STREET":"中山路","SECT":" ","MAREA":" ","LANE":" ","ALLEY":" ","HOUSE_NO":"１１０號","E_COORD97":172712.59,"N_COORD97":2564838,"ADDRESS":"中山路１１０號","OBJECTID":618412},"geometry":{"x":172712.58999999985,"y":2564838.0000000037}},{"attributes":{"ID":618440,"DIS_CODE":0,"TOWNNAME":"麻豆區","LI":"新建里","LIN":"2鄰","STREET":"中山路","SECT":" ","MAREA":" ","LANE":" ","ALLEY":" ","HOUSE_NO":"１１２號之１","E_COORD97":172676.53,"N_COORD97":2564840.5800000001,"ADDRESS":"中山路１１２號之１","OBJECTID":618413},"geometry":{"x":172676.53000000026,"y":2564840.5800000038}},{"attributes":{"ID":618441,"DIS_CODE":0,"TOWNNAME":"麻豆區","LI":"新建里","LIN":"2鄰","STREET":"中山路","SECT":" ","MAREA":" ","LANE":" ","ALLEY":" ","HOUSE_NO":"１１２號","E_COORD97":172694.67999999999,"N_COORD97":2564842.6299999999,"ADDRESS":"中山路１１２號","OBJECTID":618414},"geometry":{"x":172694.68000000063,"y":2564842.6300000027}},{"attributes":{"ID":618442,"DIS_CODE":0,"TOWNNAME":"麻豆區","LI":"新建里","LIN":"2鄰","STREET":"中山路","SECT":" ","MAREA":" ","LANE":" ","ALLEY":" ","HOUSE_NO":"１１４號之１","E_COORD97":172665.01000000001,"N_COORD97":2564839.4500000002,"ADDRESS":"中山路１１４號之１","OBJECTID":618415},"geometry":{"x":172665.01000000071,"y":2564839.4499999993}},{"attributes":{"ID":618443,"DIS_CODE":0,"TOWNNAME":"麻豆區","LI":"新建里","LIN":"2鄰","STREET":"中山路","SECT":" ","MAREA":" ","LANE":" ","ALLEY":" ","HOUSE_NO":"１１４號","E_COORD97":172660.62,"N_COORD97":2564838.9399999999,"ADDRESS":"中山路１１４號","OBJECTID":618416},"geometry":{"x":172660.62000000011,"y":2564838.9400000013}},{"attributes":{"ID":618444,"DIS_CODE":0,"TOWNNAME":"麻豆區","LI":"新建里","LIN":"2鄰","STREET":"中山路","SECT":" ","MAREA":" ","LANE":" ","ALLEY":" ","HOUSE_NO":"１１６號","E_COORD97":172655.94,"N_COORD97":2564838.48,"ADDRESS":"中山路１１６號","OBJECTID":618417},"geometry":{"x":172655.94000000134,"y":2564838.4800000042}},{"attributes":{"ID":618445,"DIS_CODE":0,"TOWNNAME":"麻豆區","LI":"新建里","LIN":"2鄰","STREET":"中山路","SECT":" ","MAREA":" ","LANE":" ","ALLEY":" ","HOUSE_NO":"１１８號","E_COORD97":172651.07999999999,"N_COORD97":2564840.8799999999,"ADDRESS":"中山路１１８號","OBJECTID":618418},"geometry":{"x":172651.08000000101,"y":2564840.8800000027}},{"attributes":{"ID":618446,"DIS_CODE":0,"TOWNNAME":"麻豆區","LI":"新建里","LIN":"2鄰","STREET":"中山路","SECT":" ","MAREA":" ","LANE":" ","ALLEY":" ","HOUSE_NO":"１２０號之１","E_COORD97":172644.04000000001,"N_COORD97":2564840.0099999998,"ADDRESS":"中山路１２０號之１","OBJECTID":618419},"geometry":{"x":172644.04000000004,"y":2564840.0099999998}},{"attributes":{"ID":618447,"DIS_CODE":0,"TOWNNAME":"麻豆區","LI":"新建里","LIN":"2鄰","STREET":"中山路","SECT":" ","MAREA":" ","LANE":" ","ALLEY":" ","HOUSE_NO":"１２０號之２","E_COORD97":172637.57999999999,"N_COORD97":2564839.5,"ADDRESS":"中山路１２０號之２","OBJECTID":618420},"geometry":{"x":172637.58000000101,"y":2564839.5}},{"attributes":{"ID":618448,"DIS_CODE":0,"TOWNNAME":"麻豆區","LI":"新建里","LIN":"2鄰","STREET":"中山路","SECT":" ","MAREA":" ","LANE":" ","ALLEY":" ","HOUSE_NO":"１２０號","E_COORD97":172647.63,"N_COORD97":2564840.4500000002,"ADDRESS":"中山路１２０號","OBJECTID":618421},"geometry":{"x":172647.63000000082,"y":2564840.4499999993}},{"attributes":{"ID":618449,"DIS_CODE":0,"TOWNNAME":"麻豆區","LI":"新建里","LIN":"2鄰","STREET":"中山路","SECT":" ","MAREA":" ","LANE":" ","ALLEY":" ","HOUSE_NO":"１２２號","E_COORD97":172640.82000000001,"N_COORD97":2564839.6299999999,"ADDRESS":"中山路１２２號","OBJECTID":618422},"geometry":{"x":172640.8200000003,"y":2564839.6300000008}},{"attributes":{"ID":618450,"DIS_CODE":0,"TOWNNAME":"麻豆區","LI":"新建里","LIN":"2鄰","STREET":"中山路","SECT":" ","MAREA":" ","LANE":" ","ALLEY":" ","HOUSE_NO":"８４號","E_COORD97":172768.17999999999,"N_COORD97":2564838.6200000001,"ADDRESS":"中山路８４號","OBJECTID":618423},"geometry":{"x":172768.1799999997,"y":2564838.6200000029}},{"attributes":{"ID":618451,"DIS_CODE":0,"TOWNNAME":"麻豆區","LI":"新建里","LIN":"2鄰","STREET":"中山路","SECT":" ","MAREA":" ","LANE":" ","ALLEY":" ","HOUSE_NO":"８８號","E_COORD97":172761.73999999999,"N_COORD97":2564838.7599999998,"ADDRESS":"中山路８８號","OBJECTID":618424},"geometry":{"x":172761.74000000209,"y":2564838.7599999998}},{"attributes":{"ID":618452,"DIS_CODE":0,"TOWNNAME":"麻豆區","LI":"新建里","LIN":"2鄰","STREET":"中山路","SECT":" ","MAREA":" ","LANE":" ","ALLEY":" ","HOUSE_NO":"９０號","E_COORD97":172756.23999999999,"N_COORD97":2564838.8199999998,"ADDRESS":"中山路９０號","OBJECTID":618425},"geometry":{"x":172756.24000000022,"y":2564838.8200000003}},{"attributes":{"ID":618453,"DIS_CODE":0,"TOWNNAME":"麻豆區","LI":"新建里","LIN":"2鄰","STREET":"中山路","SECT":" ","MAREA":" ","LANE":" ","ALLEY":" ","HOUSE_NO":"９２號","E_COORD97":172751.63,"N_COORD97":2564838.7599999998,"ADDRESS":"中山路９２號","OBJECTID":618426},"geometry":{"x":172751.62999999989,"y":2564838.7599999998}},{"attributes":{"ID":618454,"DIS_CODE":0,"TOWNNAME":"麻豆區","LI":"新建里","LIN":"2鄰","STREET":"中山路","SECT":" ","MAREA":" ","LANE":" ","ALLEY":" ","HOUSE_NO":"９４號","E_COORD97":172747.01000000001,"N_COORD97":2564838.6899999999,"ADDRESS":"中山路９４號","OBJECTID":618427},"geometry":{"x":172747.00999999978,"y":2564838.6899999995}},{"attributes":{"ID":618455,"DIS_CODE":0,"TOWNNAME":"麻豆區","LI":"新建里","LIN":"2鄰","STREET":"中山路","SECT":" ","MAREA":" ","LANE":" ","ALLEY":" ","HOUSE_NO":"９６號","E_COORD97":172742.47,"N_COORD97":2564838.5499999998,"ADDRESS":"中山路９６號","OBJECTID":618428},"geometry":{"x":172742.46999999974,"y":2564838.5500000026}},{"attributes":{"ID":618456,"DIS_CODE":0,"TOWNNAME":"麻豆區","LI":"新建里","LIN":"2鄰","STREET":"中山路","SECT":" ","MAREA":" ","LANE":" ","ALLEY":" ","HOUSE_NO":"９８號","E_COORD97":172737.84,"N_COORD97":2564838.46,"ADDRESS":"中山路９８號","OBJECTID":618429},"geometry":{"x":172737.84000000078,"y":2564838.4600000009}},{"attributes":{"ID":618457,"DIS_CODE":0,"TOWNNAME":"麻豆區","LI":"保安里","LIN":"2鄰","STREET":"中正路","SECT":" ","MAREA":" ","LANE":" ","ALLEY":" ","HOUSE_NO":"１０號","E_COORD97":173081.26000000001,"N_COORD97":2564858.77,"ADDRESS":"中正路１０號","OBJECTID":618430},"geometry":{"x":173081.25999999978,"y":2564858.7699999996}},{"attributes":{"ID":618458,"DIS_CODE":0,"TOWNNAME":"麻豆區","LI":"保安里","LIN":"2鄰","STREET":"中正路","SECT":" ","MAREA":" ","LANE":" ","ALLEY":" ","HOUSE_NO":"１４號","E_COORD97":173084.12,"N_COORD97":2564869.54,"ADDRESS":"中正路１４號","OBJECTID":618431},"geometry":{"x":173084.12000000011,"y":2564869.5399999991}},{"attributes":{"ID":618459,"DIS_CODE":0,"TOWNNAME":"麻豆區","LI":"保安里","LIN":"2鄰","STREET":"中正路","SECT":" ","MAREA":" ","LANE":" ","ALLEY":" ","HOUSE_NO":"１６號","E_COORD97":173085.89999999999,"N_COORD97":2564877,"ADDRESS":"中正路１６號","OBJECTID":618432},"geometry":{"x":173085.90000000037,"y":2564877}},{"attributes":{"ID":618460,"DIS_CODE":0,"TOWNNAME":"麻豆區","LI":"保安里","LIN":"2鄰","STREET":"中正路","SECT":" ","MAREA":" ","LANE":" ","ALLEY":" ","HOUSE_NO":"２６號","E_COORD97":173088.17000000001,"N_COORD97":2564882.1699999999,"ADDRESS":"中正路２６號","OBJECTID":618433},"geometry":{"x":173088.17000000086,"y":2564882.1700000018}},{"attributes":{"ID":618461,"DIS_CODE":0,"TOWNNAME":"麻豆區","LI":"保安里","LIN":"2鄰","STREET":"中正路","SECT":" ","MAREA":" ","LANE":" ","ALLEY":" ","HOUSE_NO":"２８號","E_COORD97":173089.26999999999,"N_COORD97":2564885.9300000002,"ADDRESS":"中正路２８號","OBJECTID":618434},"geometry":{"x":173089.26999999955,"y":2564885.9300000016}},{"attributes":{"ID":618462,"DIS_CODE":0,"TOWNNAME":"麻豆區","LI":"大埕里","LIN":"2鄰","STREET":"中正路","SECT":" ","MAREA":" ","LANE":" ","ALLEY":" ","HOUSE_NO":"２９號之１","E_COORD97":173076.45999999999,"N_COORD97":2564932.4500000002,"ADDRESS":"中正路２９號之１","OBJECTID":618435},"geometry":{"x":173076.45999999996,"y":2564932.450000003}},{"attributes":{"ID":618463,"DIS_CODE":0,"TOWNNAME":"麻豆區","LI":"保安里","LIN":"2鄰","STREET":"中正路","SECT":" ","MAREA":" ","LANE":" ","ALLEY":" ","HOUSE_NO":"３０號","E_COORD97":173089.91,"N_COORD97":2564889.6200000001,"ADDRESS":"中正路３０號","OBJECTID":618436},"geometry":{"x":173089.91000000108,"y":2564889.6200000029}},{"attributes":{"ID":618464,"DIS_CODE":0,"TOWNNAME":"麻豆區","LI":"大埕里","LIN":"2鄰","STREET":"中正路","SECT":" ","MAREA":" ","LANE":" ","ALLEY":" ","HOUSE_NO":"３１號","E_COORD97":173077.23999999999,"N_COORD97":2564936.4900000002,"ADDRESS":"中正路３１號","OBJECTID":618437},"geometry":{"x":173077.24000000209,"y":2564936.4900000039}},{"attributes":{"ID":618465,"DIS_CODE":0,"TOWNNAME":"麻豆區","LI":"保安里","LIN":"2鄰","STREET":"中正路","SECT":" ","MAREA":" ","LANE":" ","ALLEY":" ","HOUSE_NO":"３２號","E_COORD97":173091.23000000001,"N_COORD97":2564893.0299999998,"ADDRESS":"中正路３２號","OBJECTID":618438},"geometry":{"x":173091.23000000138,"y":2564893.0299999993}},{"attributes":{"ID":618466,"DIS_CODE":0,"TOWNNAME":"麻豆區","LI":"大埕里","LIN":"2鄰","STREET":"中正路","SECT":" ","MAREA":" ","LANE":" ","ALLEY":" ","HOUSE_NO":"３３號","E_COORD97":173078.29000000001,"N_COORD97":2564940.3900000001,"ADDRESS":"中正路３３號","OBJECTID":618439},"geometry":{"x":173078.2900000019,"y":2564940.3900000006}},{"attributes":{"ID":618467,"DIS_CODE":0,"TOWNNAME":"麻豆區","LI":"保安里","LIN":"2鄰","STREET":"中正路","SECT":" ","MAREA":" ","LANE":" ","ALLEY":" ","HOUSE_NO":"３４號","E_COORD97":173092.44,"N_COORD97":2564898.1099999999,"ADDRESS":"中正路３４號","OBJECTID":618440},"geometry":{"x":173092.44000000041,"y":2564898.1100000013}},{"attributes":{"ID":618468,"DIS_CODE":0,"TOWNNAME":"麻豆區","LI":"大埕里","LIN":"2鄰","STREET":"中正路","SECT":" ","MAREA":" ","LANE":" ","ALLEY":" ","HOUSE_NO":"３５號","E_COORD97":173079.39999999999,"N_COORD97":2564943.71,"ADDRESS":"中正路３５號","OBJECTID":618441},"geometry":{"x":173079.40000000037,"y":2564943.7100000028}},{"attributes":{"ID":618469,"DIS_CODE":0,"TOWNNAME":"麻豆區","LI":"大埕里","LIN":"2鄰","STREET":"中正路","SECT":" ","MAREA":" ","LANE":" ","ALLEY":" ","HOUSE_NO":"３７號","E_COORD97":173080.67000000001,"N_COORD97":2564947.9300000002,"ADDRESS":"中正路３７號","OBJECTID":618442},"geometry":{"x":173080.67000000179,"y":2564947.9300000016}},{"attributes":{"ID":618470,"DIS_CODE":0,"TOWNNAME":"麻豆區","LI":"大埕里","LIN":"2鄰","STREET":"中正路","SECT":" ","MAREA":" ","LANE":" ","ALLEY":" ","HOUSE_NO":"３９號","E_COORD97":173081.85999999999,"N_COORD97":2564951.4900000002,"ADDRESS":"中正路３９號","OBJECTID":618443},"geometry":{"x":173081.86000000127,"y":2564951.4900000021}},{"attributes":{"ID":618471,"DIS_CODE":0,"TOWNNAME":"麻豆區","LI":"大埕里","LIN":"2鄰","STREET":"中正路","SECT":" ","MAREA":" ","LANE":" ","ALLEY":" ","HOUSE_NO":"４１號","E_COORD97":173082.85000000001,"N_COORD97":2564955.3500000001,"ADDRESS":"中正路４１號","OBJECTID":618444},"geometry":{"x":173082.85000000056,"y":2564955.3500000015}},{"attributes":{"ID":618472,"DIS_CODE":0,"TOWNNAME":"麻豆區","LI":"大埕里","LIN":"2鄰","STREET":"中正路","SECT":" ","MAREA":" ","LANE":" ","ALLEY":" ","HOUSE_NO":"４３號","E_COORD97":173084.01999999999,"N_COORD97":2564959.3900000001,"ADDRESS":"中正路４３號","OBJECTID":618445},"geometry":{"x":173084.01999999955,"y":2564959.3900000025}},{"attributes":{"ID":618473,"DIS_CODE":0,"TOWNNAME":"麻豆區","LI":"大埕里","LIN":"2鄰","STREET":"中正路","SECT":" ","MAREA":" ","LANE":" ","ALLEY":" ","HOUSE_NO":"４５號","E_COORD97":173085.10000000001,"N_COORD97":2564963.5699999998,"ADDRESS":"中正路４５號","OBJECTID":618446},"geometry":{"x":173085.09999999963,"y":2564963.5700000022}},{"attributes":{"ID":618474,"DIS_CODE":0,"TOWNNAME":"麻豆區","LI":"大埕里","LIN":"2鄰","STREET":"中正路","SECT":" ","MAREA":" ","LANE":" ","ALLEY":" ","HOUSE_NO":"４６號","E_COORD97":173101.76000000001,"N_COORD97":2564930.4399999999,"ADDRESS":"中正路４６號","OBJECTID":618447},"geometry":{"x":173101.75999999978,"y":2564930.4400000013}},{"attributes":{"ID":618475,"DIS_CODE":0,"TOWNNAME":"麻豆區","LI":"大埕里","LIN":"2鄰","STREET":"中正路","SECT":" ","MAREA":" ","LANE":" ","ALLEY":" ","HOUSE_NO":"４７號","E_COORD97":173085.97,"N_COORD97":2564967.0699999998,"ADDRESS":"中正路４７號","OBJECTID":618448},"geometry":{"x":173085.97000000067,"y":2564967.0700000022}},{"attributes":{"ID":618476,"DIS_CODE":0,"TOWNNAME":"麻豆區","LI":"大埕里","LIN":"2鄰","STREET":"中正路","SECT":" ","MAREA":" ","LANE":" ","ALLEY":" ","HOUSE_NO":"４８號","E_COORD97":173102.72,"N_COORD97":2564934.3500000001,"ADDRESS":"中正路４８號","OBJECTID":618449},"geometry":{"x":173102.72000000067,"y":2564934.3500000015}},{"attributes":{"ID":618477,"DIS_CODE":0,"TOWNNAME":"麻豆區","LI":"大埕里","LIN":"2鄰","STREET":"中正路","SECT":" ","MAREA":" ","LANE":" ","ALLEY":" ","HOUSE_NO":"４９號","E_COORD97":173086.82999999999,"N_COORD97":2564971.3599999999,"ADDRESS":"中正路４９號","OBJECTID":618450},"geometry":{"x":173086.83000000101,"y":2564971.3600000013}},{"attributes":{"ID":618478,"DIS_CODE":0,"TOWNNAME":"麻豆區","LI":"保安里","LIN":"2鄰","STREET":"中正路","SECT":" ","MAREA":" ","LANE":" ","ALLEY":" ","HOUSE_NO":"４號","E_COORD97":173078.63,"N_COORD97":2564844.5499999998,"ADDRESS":"中正路４號","OBJECTID":618451},"geometry":{"x":173078.62999999989,"y":2564844.5500000007}},{"attributes":{"ID":618479,"DIS_CODE":0,"TOWNNAME":"官田區","LI":"隆田里","LIN":"2鄰","STREET":"裕民街","SECT":" ","MAREA":" ","LANE":" ","ALLEY":" ","HOUSE_NO":"７號","E_COORD97":180230.64000000001,"N_COORD97":2565706,"ADDRESS":"裕民街７號","OBJECTID":618452},"geometry":{"x":180230.63999999966,"y":2565706.0000000019}},{"attributes":{"ID":618480,"DIS_CODE":0,"TOWNNAME":"麻豆區","LI":"大埕里","LIN":"2鄰","STREET":"中正路","SECT":" ","MAREA":" ","LANE":" ","ALLEY":" ","HOUSE_NO":"５０號","E_COORD97":173104.14999999999,"N_COORD97":2564938.3300000001,"ADDRESS":"中正路５０號","OBJECTID":618453},"geometry":{"x":173104.15000000037,"y":2564938.3300000019}},{"attributes":{"ID":618481,"DIS_CODE":0,"TOWNNAME":"麻豆區","LI":"大埕里","LIN":"2鄰","STREET":"中正路","SECT":" ","MAREA":" ","LANE":" ","ALLEY":" ","HOUSE_NO":"５１號","E_COORD97":173087.66,"N_COORD97":2564975.21,"ADDRESS":"中正路５１號","OBJECTID":618454},"geometry":{"x":173087.65999999922,"y":2564975.2100000009}},{"attributes":{"ID":618482,"DIS_CODE":0,"TOWNNAME":"麻豆區","LI":"大埕里","LIN":"2鄰","STREET":"中正路","SECT":" ","MAREA":" ","LANE":" ","ALLEY":" ","HOUSE_NO":"５２號","E_COORD97":173105.37,"N_COORD97":2564942.25,"ADDRESS":"中正路５２號","OBJECTID":618455},"geometry":{"x":173105.37000000104,"y":2564942.2500000019}},{"attributes":{"ID":618483,"DIS_CODE":0,"TOWNNAME":"麻豆區","LI":"大埕里","LIN":"2鄰","STREET":"中正路","SECT":" ","MAREA":" ","LANE":" ","ALLEY":" ","HOUSE_NO":"５３號之１０","E_COORD97":173099.01000000001,"N_COORD97":2565018.8500000001,"ADDRESS":"中正路５３號之１０","OBJECTID":618456},"geometry":{"x":173099.01000000071,"y":2565018.8500000015}},{"attributes":{"ID":618484,"DIS_CODE":0,"TOWNNAME":"麻豆區","LI":"大埕里","LIN":"2鄰","STREET":"中正路","SECT":" ","MAREA":" ","LANE":" ","ALLEY":" ","HOUSE_NO":"５３號之１","E_COORD97":173089.89000000001,"N_COORD97":2564983.2799999998,"ADDRESS":"中正路５３號之１","OBJECTID":618457},"geometry":{"x":173089.8900000006,"y":2564983.2799999993}},{"attributes":{"ID":618485,"DIS_CODE":0,"TOWNNAME":"麻豆區","LI":"大埕里","LIN":"2鄰","STREET":"中正路","SECT":" ","MAREA":" ","LANE":" ","ALLEY":" ","HOUSE_NO":"５３號之２","E_COORD97":173091.07999999999,"N_COORD97":2564987.52,"ADDRESS":"中正路５３號之２","OBJECTID":618458},"geometry":{"x":173091.08000000007,"y":2564987.5200000014}},{"attributes":{"ID":618486,"DIS_CODE":0,"TOWNNAME":"麻豆區","LI":"大埕里","LIN":"2鄰","STREET":"中正路","SECT":" ","MAREA":" ","LANE":" ","ALLEY":" ","HOUSE_NO":"５６號之１","E_COORD97":173141.39000000001,"N_COORD97":2564937.4300000002,"ADDRESS":"中正路５６號之１","OBJECTID":618459},"geometry":{"x":173141.38999999966,"y":2564937.4300000016}},{"attributes":{"ID":618487,"DIS_CODE":0,"TOWNNAME":"麻豆區","LI":"大埕里","LIN":"2鄰","STREET":"中正路","SECT":" ","MAREA":" ","LANE":" ","ALLEY":" ","HOUSE_NO":"５６號","E_COORD97":173107.48000000001,"N_COORD97":2564950.04,"ADDRESS":"中正路５６號","OBJECTID":618460},"geometry":{"x":173107.48000000045,"y":2564950.040000001}},{"attributes":{"ID":618488,"DIS_CODE":0,"TOWNNAME":"麻豆區","LI":"大埕里","LIN":"2鄰","STREET":"中正路","SECT":" ","MAREA":" ","LANE":" ","ALLEY":" ","HOUSE_NO":"５８號","E_COORD97":173108.26000000001,"N_COORD97":2564953.8500000001,"ADDRESS":"中正路５８號","OBJECTID":618461},"geometry":{"x":173108.25999999978,"y":2564953.8500000034}},{"attributes":{"ID":618489,"DIS_CODE":0,"TOWNNAME":"麻豆區","LI":"大埕里","LIN":"2鄰","STREET":"中正路","SECT":" ","MAREA":" ","LANE":" ","ALLEY":" ","HOUSE_NO":"６０號","E_COORD97":173109.45000000001,"N_COORD97":2564957.5600000001,"ADDRESS":"中正路６０號","OBJECTID":618462},"geometry":{"x":173109.44999999925,"y":2564957.5600000024}},{"attributes":{"ID":618490,"DIS_CODE":0,"TOWNNAME":"麻豆區","LI":"大埕里","LIN":"2鄰","STREET":"中正路","SECT":" ","MAREA":" ","LANE":" ","ALLEY":" ","HOUSE_NO":"６２號","E_COORD97":173110.54999999999,"N_COORD97":2564961.6299999999,"ADDRESS":"中正路６２號","OBJECTID":618463},"geometry":{"x":173110.55000000075,"y":2564961.6300000008}},{"attributes":{"ID":618491,"DIS_CODE":0,"TOWNNAME":"麻豆區","LI":"大埕里","LIN":"2鄰","STREET":"中正路","SECT":" ","MAREA":" ","LANE":" ","ALLEY":" ","HOUSE_NO":"６４號","E_COORD97":173111.62,"N_COORD97":2564965.2000000002,"ADDRESS":"中正路６４號","OBJECTID":618464},"geometry":{"x":173111.61999999918,"y":2564965.2000000011}},{"attributes":{"ID":618492,"DIS_CODE":0,"TOWNNAME":"麻豆區","LI":"大埕里","LIN":"2鄰","STREET":"中正路","SECT":" ","MAREA":" ","LANE":" ","ALLEY":" ","HOUSE_NO":"６６號","E_COORD97":173112.38,"N_COORD97":2564969.0899999999,"ADDRESS":"中正路６６號","OBJECTID":618465},"geometry":{"x":173112.37999999989,"y":2564969.089999998}},{"attributes":{"ID":618493,"DIS_CODE":0,"TOWNNAME":"麻豆區","LI":"大埕里","LIN":"2鄰","STREET":"中正路","SECT":" ","MAREA":" ","LANE":" ","ALLEY":" ","HOUSE_NO":"６８號","E_COORD97":173113.42000000001,"N_COORD97":2564973.21,"ADDRESS":"中正路６８號","OBJECTID":618466},"geometry":{"x":173113.42000000086,"y":2564973.2100000028}},{"attributes":{"ID":618494,"DIS_CODE":0,"TOWNNAME":"麻豆區","LI":"保安里","LIN":"2鄰","STREET":"中正路","SECT":" ","MAREA":" ","LANE":" ","ALLEY":" ","HOUSE_NO":"６號","E_COORD97":173078.62,"N_COORD97":2564848.9500000002,"ADDRESS":"中正路６號","OBJECTID":618467},"geometry":{"x":173078.62000000104,"y":2564848.9500000011}},{"attributes":{"ID":618495,"DIS_CODE":0,"TOWNNAME":"麻豆區","LI":"大埕里","LIN":"2鄰","STREET":"中正路","SECT":" ","MAREA":" ","LANE":" ","ALLEY":" ","HOUSE_NO":"７０號","E_COORD97":173114.42000000001,"N_COORD97":2564977.1800000002,"ADDRESS":"中正路７０號","OBJECTID":618468},"geometry":{"x":173114.41999999993,"y":2564977.1799999997}},{"attributes":{"ID":618496,"DIS_CODE":0,"TOWNNAME":"麻豆區","LI":"保安里","LIN":"2鄰","STREET":"中正路","SECT":" ","MAREA":" ","LANE":" ","ALLEY":" ","HOUSE_NO":"８號","E_COORD97":173079.79000000001,"N_COORD97":2564853.1499999999,"ADDRESS":"中正路８號","OBJECTID":618469},"geometry":{"x":173079.79000000004,"y":2564853.1500000004}},{"attributes":{"ID":618497,"DIS_CODE":0,"TOWNNAME":"麻豆區","LI":"興農里","LIN":"2鄰","STREET":"中興街","SECT":" ","MAREA":" ","LANE":" ","ALLEY":" ","HOUSE_NO":"２３１號","E_COORD97":172528.25,"N_COORD97":2564534.77,"ADDRESS":"中興街２３１號","OBJECTID":618470},"geometry":{"x":172528.25000000093,"y":2564534.7700000014}},{"attributes":{"ID":618498,"DIS_CODE":0,"TOWNNAME":"麻豆區","LI":"興農里","LIN":"2鄰","STREET":"中興街","SECT":" ","MAREA":" ","LANE":" ","ALLEY":" ","HOUSE_NO":"２３６號","E_COORD97":172543.97,"N_COORD97":2564561.2599999998,"ADDRESS":"中興街２３６號","OBJECTID":618471},"geometry":{"x":172543.96999999974,"y":2564561.2600000035}},{"attributes":{"ID":618499,"DIS_CODE":0,"TOWNNAME":"麻豆區","LI":"興農里","LIN":"2鄰","STREET":"中興街","SECT":" ","MAREA":" ","LANE":" ","ALLEY":" ","HOUSE_NO":"２３８號","E_COORD97":172535.29999999999,"N_COORD97":2564558.48,"ADDRESS":"中興街２３８號","OBJECTID":618472},"geometry":{"x":172535.29999999981,"y":2564558.4800000023}},{"attributes":{"ID":618500,"DIS_CODE":0,"TOWNNAME":"永康區","LI":"南灣里","LIN":"8鄰","STREET":"南興路","SECT":" ","MAREA":" ","LANE":" ","ALLEY":" ","HOUSE_NO":"６０號","E_COORD97":174257.44,"N_COORD97":2544208.6499999999,"ADDRESS":"南興路６０號","OBJECTID":618473},"geometry":{"x":174257.44000000227,"y":2544208.6500000004}},{"attributes":{"ID":618501,"DIS_CODE":0,"TOWNNAME":"永康區","LI":"東橋里","LIN":"22鄰","STREET":"自強路","SECT":" ","MAREA":" ","LANE":" ","ALLEY":" ","HOUSE_NO":"１０５號","E_COORD97":172779.87,"N_COORD97":2547294.7400000002,"ADDRESS":"自強路１０５號","OBJECTID":618474},"geometry":{"x":172779.87000000104,"y":2547294.7400000039}},{"attributes":{"ID":618502,"DIS_CODE":0,"TOWNNAME":"麻豆區","LI":"興農里","LIN":"2鄰","STREET":"中興街","SECT":" ","MAREA":" ","LANE":" ","ALLEY":" ","HOUSE_NO":"２４０號之１３","E_COORD97":172462.41,"N_COORD97":2564557.75,"ADDRESS":"中興街２４０號之１３","OBJECTID":618475},"geometry":{"x":172462.41000000108,"y":2564557.75}},{"attributes":{"ID":618503,"DIS_CODE":0,"TOWNNAME":"麻豆區","LI":"中興里","LIN":"2鄰","STREET":"仁愛路","SECT":" ","MAREA":" ","LANE":" ","ALLEY":" ","HOUSE_NO":"１１號","E_COORD97":172888.32999999999,"N_COORD97":2564740.1200000001,"ADDRESS":"仁愛路１１號","OBJECTID":618476},"geometry":{"x":172888.33000000101,"y":2564740.1200000029}},{"attributes":{"ID":618504,"DIS_CODE":0,"TOWNNAME":"麻豆區","LI":"中興里","LIN":"2鄰","STREET":"仁愛路","SECT":" ","MAREA":" ","LANE":" ","ALLEY":" ","HOUSE_NO":"１３號","E_COORD97":172883.35000000001,"N_COORD97":2564739.52,"ADDRESS":"仁愛路１３號","OBJECTID":618477},"geometry":{"x":172883.34999999963,"y":2564739.5200000014}},{"attributes":{"ID":618505,"DIS_CODE":0,"TOWNNAME":"麻豆區","LI":"中興里","LIN":"2鄰","STREET":"仁愛路","SECT":" ","MAREA":" ","LANE":" ","ALLEY":" ","HOUSE_NO":"１５號","E_COORD97":172858.73000000001,"N_COORD97":2564735.8199999998,"ADDRESS":"仁愛路１５號","OBJECTID":618478},"geometry":{"x":172858.73000000231,"y":2564735.8200000022}},{"attributes":{"ID":618506,"DIS_CODE":0,"TOWNNAME":"麻豆區","LI":"中興里","LIN":"2鄰","STREET":"仁愛路","SECT":" ","MAREA":" ","LANE":" ","ALLEY":" ","HOUSE_NO":"１７號之１","E_COORD97":172847.29000000001,"N_COORD97":2564735.9500000002,"ADDRESS":"仁愛路１７號之１","OBJECTID":618479},"geometry":{"x":172847.29000000004,"y":2564735.9500000011}},{"attributes":{"ID":618507,"DIS_CODE":0,"TOWNNAME":"麻豆區","LI":"中興里","LIN":"2鄰","STREET":"仁愛路","SECT":" ","MAREA":" ","LANE":" ","ALLEY":" ","HOUSE_NO":"１７號之２","E_COORD97":172841.81,"N_COORD97":2564735.73,"ADDRESS":"仁愛路１７號之２","OBJECTID":618480},"geometry":{"x":172841.80999999959,"y":2564735.7300000023}},{"attributes":{"ID":618508,"DIS_CODE":0,"TOWNNAME":"麻豆區","LI":"中興里","LIN":"2鄰","STREET":"仁愛路","SECT":" ","MAREA":" ","LANE":" ","ALLEY":" ","HOUSE_NO":"１７號之３","E_COORD97":172836.75,"N_COORD97":2564735.25,"ADDRESS":"仁愛路１７號之３","OBJECTID":618481},"geometry":{"x":172836.75000000093,"y":2564735.2500000019}},{"attributes":{"ID":618509,"DIS_CODE":0,"TOWNNAME":"麻豆區","LI":"中興里","LIN":"2鄰","STREET":"仁愛路","SECT":" ","MAREA":" ","LANE":" ","ALLEY":" ","HOUSE_NO":"１７號","E_COORD97":172853.10999999999,"N_COORD97":2564737.6099999999,"ADDRESS":"仁愛路１７號","OBJECTID":618482},"geometry":{"x":172853.11000000127,"y":2564737.6099999994}},{"attributes":{"ID":618510,"DIS_CODE":0,"TOWNNAME":"麻豆區","LI":"中興里","LIN":"2鄰","STREET":"仁愛路","SECT":" ","MAREA":" ","LANE":" ","ALLEY":" ","HOUSE_NO":"１９號之１","E_COORD97":172829.07000000001,"N_COORD97":2564735.3999999999,"ADDRESS":"仁愛路１９號之１","OBJECTID":618483},"geometry":{"x":172829.06999999937,"y":2564735.4000000022}},{"attributes":{"ID":618511,"DIS_CODE":0,"TOWNNAME":"麻豆區","LI":"中興里","LIN":"2鄰","STREET":"仁愛路","SECT":" ","MAREA":" ","LANE":" ","ALLEY":" ","HOUSE_NO":"１９號之２","E_COORD97":172825.29999999999,"N_COORD97":2564735.1099999999,"ADDRESS":"仁愛路１９號之２","OBJECTID":618484},"geometry":{"x":172825.29999999888,"y":2564735.1100000013}},{"attributes":{"ID":618512,"DIS_CODE":0,"TOWNNAME":"麻豆區","LI":"中興里","LIN":"2鄰","STREET":"仁愛路","SECT":" ","MAREA":" ","LANE":" ","ALLEY":" ","HOUSE_NO":"１９號之３","E_COORD97":172821.73000000001,"N_COORD97":2564734.8599999999,"ADDRESS":"仁愛路１９號之３","OBJECTID":618485},"geometry":{"x":172821.73000000138,"y":2564734.8599999994}},{"attributes":{"ID":618513,"DIS_CODE":0,"TOWNNAME":"麻豆區","LI":"中興里","LIN":"2鄰","STREET":"仁愛路","SECT":" ","MAREA":" ","LANE":" ","ALLEY":" ","HOUSE_NO":"１９號之４","E_COORD97":172817.94,"N_COORD97":2564734.6099999999,"ADDRESS":"仁愛路１９號之４","OBJECTID":618486},"geometry":{"x":172817.94000000041,"y":2564734.6100000031}},{"attributes":{"ID":618514,"DIS_CODE":0,"TOWNNAME":"麻豆區","LI":"中興里","LIN":"2鄰","STREET":"仁愛路","SECT":" ","MAREA":" ","LANE":" ","ALLEY":" ","HOUSE_NO":"１９號之５","E_COORD97":172814.26000000001,"N_COORD97":2564734.3500000001,"ADDRESS":"仁愛路１９號之５","OBJECTID":618487},"geometry":{"x":172814.26000000071,"y":2564734.3500000015}},{"attributes":{"ID":618515,"DIS_CODE":0,"TOWNNAME":"麻豆區","LI":"中興里","LIN":"2鄰","STREET":"仁愛路","SECT":" ","MAREA":" ","LANE":" ","ALLEY":" ","HOUSE_NO":"１９號之６","E_COORD97":172810.29000000001,"N_COORD97":2564734.0699999998,"ADDRESS":"仁愛路１９號之６","OBJECTID":618488},"geometry":{"x":172810.28999999911,"y":2564734.0700000022}},{"attributes":{"ID":618516,"DIS_CODE":0,"TOWNNAME":"麻豆區","LI":"中興里","LIN":"2鄰","STREET":"仁愛路","SECT":" ","MAREA":" ","LANE":" ","ALLEY":" ","HOUSE_NO":"１９號之７","E_COORD97":172805.85999999999,"N_COORD97":2564733.79,"ADDRESS":"仁愛路１９號之７","OBJECTID":618489},"geometry":{"x":172805.86000000127,"y":2564733.790000001}},{"attributes":{"ID":618517,"DIS_CODE":0,"TOWNNAME":"麻豆區","LI":"中興里","LIN":"2鄰","STREET":"仁愛路","SECT":" ","MAREA":" ","LANE":" ","ALLEY":" ","HOUSE_NO":"１９號","E_COORD97":172837.34,"N_COORD97":2564716.48,"ADDRESS":"仁愛路１９號","OBJECTID":618490},"geometry":{"x":172837.34000000078,"y":2564716.4800000042}},{"attributes":{"ID":618518,"DIS_CODE":0,"TOWNNAME":"麻豆區","LI":"東角里","LIN":"2鄰","STREET":"文昌路","SECT":" ","MAREA":" ","LANE":" ","ALLEY":" ","HOUSE_NO":"１４號之１","E_COORD97":173462.85000000001,"N_COORD97":2564945.3599999999,"ADDRESS":"文昌路１４號之１","OBJECTID":618491},"geometry":{"x":173462.85000000056,"y":2564945.3599999994}},{"attributes":{"ID":618519,"DIS_CODE":0,"TOWNNAME":"麻豆區","LI":"中興里","LIN":"2鄰","STREET":"仁愛路","SECT":" ","MAREA":" ","LANE":" ","ALLEY":" ","HOUSE_NO":"７號之２","E_COORD97":172907.51999999999,"N_COORD97":2564741.52,"ADDRESS":"仁愛路７號之２","OBJECTID":618492},"geometry":{"x":172907.52000000048,"y":2564741.5199999996}},{"attributes":{"ID":618520,"DIS_CODE":0,"TOWNNAME":"麻豆區","LI":"中興里","LIN":"2鄰","STREET":"仁愛路","SECT":" ","MAREA":" ","LANE":" ","ALLEY":" ","HOUSE_NO":"７號之３","E_COORD97":172902.48000000001,"N_COORD97":2564741.1600000001,"ADDRESS":"仁愛路７號之３","OBJECTID":618493},"geometry":{"x":172902.48000000045,"y":2564741.1600000001}},{"attributes":{"ID":618521,"DIS_CODE":0,"TOWNNAME":"麻豆區","LI":"中興里","LIN":"2鄰","STREET":"仁愛路","SECT":" ","MAREA":" ","LANE":" ","ALLEY":" ","HOUSE_NO":"７號之４","E_COORD97":172897.5,"N_COORD97":2564740.8100000001,"ADDRESS":"仁愛路７號之４","OBJECTID":618494},"geometry":{"x":172897.50000000093,"y":2564740.8100000005}},{"attributes":{"ID":618522,"DIS_CODE":0,"TOWNNAME":"麻豆區","LI":"中興里","LIN":"2鄰","STREET":"仁愛路","SECT":" ","MAREA":" ","LANE":" ","ALLEY":" ","HOUSE_NO":"７號之５","E_COORD97":172893.5,"N_COORD97":2564740.6000000001,"ADDRESS":"仁愛路７號之５","OBJECTID":618495},"geometry":{"x":172893.5,"y":2564740.5999999996}},{"attributes":{"ID":618523,"DIS_CODE":0,"TOWNNAME":"麻豆區","LI":"中興里","LIN":"2鄰","STREET":"仁愛路","SECT":" ","MAREA":" ","LANE":" ","ALLEY":" ","HOUSE_NO":"７號","E_COORD97":172917.44,"N_COORD97":2564742.1400000001,"ADDRESS":"仁愛路７號","OBJECTID":618496},"geometry":{"x":172917.44000000134,"y":2564742.1400000006}},{"attributes":{"ID":618524,"DIS_CODE":0,"TOWNNAME":"麻豆區","LI":"中興里","LIN":"2鄰","STREET":"仁愛路","SECT":" ","MAREA":" ","LANE":" ","ALLEY":" ","HOUSE_NO":"９號之１","E_COORD97":172869.54000000001,"N_COORD97":2564738.5,"ADDRESS":"仁愛路９號之１","OBJECTID":618497},"geometry":{"x":172869.54000000004,"y":2564738.5}},{"attributes":{"ID":618525,"DIS_CODE":0,"TOWNNAME":"麻豆區","LI":"中興里","LIN":"2鄰","STREET":"仁愛路","SECT":" ","MAREA":" ","LANE":" ","ALLEY":" ","HOUSE_NO":"９號之２","E_COORD97":172874.31,"N_COORD97":2564739.0899999999,"ADDRESS":"仁愛路９號之２","OBJECTID":618498},"geometry":{"x":172874.31000000145,"y":2564739.0900000017}},{"attributes":{"ID":618526,"DIS_CODE":0,"TOWNNAME":"麻豆區","LI":"中興里","LIN":"2鄰","STREET":"仁愛路","SECT":" ","MAREA":" ","LANE":" ","ALLEY":" ","HOUSE_NO":"９號之３","E_COORD97":172879.04000000001,"N_COORD97":2564739.1499999999,"ADDRESS":"仁愛路９號之３","OBJECTID":618499},"geometry":{"x":172879.04000000097,"y":2564739.1500000022}},{"attributes":{"ID":618527,"DIS_CODE":0,"TOWNNAME":"麻豆區","LI":"中興里","LIN":"2鄰","STREET":"仁愛路","SECT":" ","MAREA":" ","LANE":" ","ALLEY":" ","HOUSE_NO":"９號","E_COORD97":172865.60000000001,"N_COORD97":2564738.3300000001,"ADDRESS":"仁愛路９號","OBJECTID":618500},"geometry":{"x":172865.60000000149,"y":2564738.3300000019}},{"attributes":{"ID":618528,"DIS_CODE":0,"TOWNNAME":"麻豆區","LI":"東角里","LIN":"2鄰","STREET":"文昌路","SECT":" ","MAREA":" ","LANE":" ","ALLEY":" ","HOUSE_NO":"２號之１","E_COORD97":173434.14000000001,"N_COORD97":2564859.1600000001,"ADDRESS":"文昌路２號之１","OBJECTID":618501},"geometry":{"x":173434.13999999966,"y":2564859.1600000001}},{"attributes":{"ID":618529,"DIS_CODE":0,"TOWNNAME":"麻豆區","LI":"東角里","LIN":"2鄰","STREET":"文昌路","SECT":" ","MAREA":" ","LANE":" ","ALLEY":" ","HOUSE_NO":"２號之２","E_COORD97":173432.64000000001,"N_COORD97":2564855.48,"ADDRESS":"文昌路２號之２","OBJECTID":618502},"geometry":{"x":173432.63999999966,"y":2564855.4800000042}},{"attributes":{"ID":618530,"DIS_CODE":0,"TOWNNAME":"麻豆區","LI":"東角里","LIN":"2鄰","STREET":"文昌路","SECT":" ","MAREA":" ","LANE":" ","ALLEY":" ","HOUSE_NO":"２號之３","E_COORD97":173431.29999999999,"N_COORD97":2564851.5800000001,"ADDRESS":"文昌路２號之３","OBJECTID":618503},"geometry":{"x":173431.30000000075,"y":2564851.5800000019}},{"attributes":{"ID":618531,"DIS_CODE":0,"TOWNNAME":"麻豆區","LI":"東角里","LIN":"2鄰","STREET":"文昌路","SECT":" ","MAREA":" ","LANE":" ","ALLEY":" ","HOUSE_NO":"２號","E_COORD97":173434.97,"N_COORD97":2564863.4100000001,"ADDRESS":"文昌路２號","OBJECTID":618504},"geometry":{"x":173434.97000000067,"y":2564863.410000002}},{"attributes":{"ID":618532,"DIS_CODE":0,"TOWNNAME":"麻豆區","LI":"東角里","LIN":"2鄰","STREET":"文昌路","SECT":" ","MAREA":" ","LANE":" ","ALLEY":" ","HOUSE_NO":"６號之２六\u25A0之３","E_COORD97":173453.85000000001,"N_COORD97":2564914.79,"ADDRESS":"文昌路６號之２六\u25A0之３","OBJECTID":618505},"geometry":{"x":173453.85000000149,"y":2564914.7899999991}},{"attributes":{"ID":618533,"DIS_CODE":0,"TOWNNAME":"新市區","LI":"港墘里","LIN":"2鄰","STREET":"中山路","SECT":" ","MAREA":" ","LANE":" ","ALLEY":" ","HOUSE_NO":"６８號","E_COORD97":178593.14999999999,"N_COORD97":2553371.75,"ADDRESS":"中山路６８號","OBJECTID":618506},"geometry":{"x":178593.1500000013,"y":2553371.75}},{"attributes":{"ID":618534,"DIS_CODE":0,"TOWNNAME":"新市區","LI":"新和里","LIN":"2鄰","STREET":"中山路","SECT":" ","MAREA":" ","LANE":" ","ALLEY":" ","HOUSE_NO":"２６４號","E_COORD97":177388.63,"N_COORD97":2552010.75,"ADDRESS":"中山路２６４號","OBJECTID":618507},"geometry":{"x":177388.63000000082,"y":2552010.7500000019}},{"attributes":{"ID":618535,"DIS_CODE":0,"TOWNNAME":"永康區","LI":"南灣里","LIN":"18鄰","STREET":"立興街","SECT":" ","MAREA":" ","LANE":" ","ALLEY":" ","HOUSE_NO":"１４６號","E_COORD97":174393.41,"N_COORD97":2544661.7200000002,"ADDRESS":"立興街１４６號","OBJECTID":618508},"geometry":{"x":174393.41000000108,"y":2544661.7200000025}},{"attributes":{"ID":618536,"DIS_CODE":0,"TOWNNAME":"永康區","LI":"東橋里","LIN":"14鄰","STREET":"中山南路","SECT":" ","MAREA":" ","LANE":" ","ALLEY":" ","HOUSE_NO":"３１３號","E_COORD97":171860.53,"N_COORD97":2546351.3100000001,"ADDRESS":"中山南路３１３號","OBJECTID":618509},"geometry":{"x":171860.53000000119,"y":2546351.3100000005}},{"attributes":{"ID":618537,"DIS_CODE":0,"TOWNNAME":"永康區","LI":"南灣里","LIN":"17鄰","STREET":"大灣路","SECT":" ","MAREA":" ","LANE":" ","ALLEY":" ","HOUSE_NO":"６８８號","E_COORD97":174378.85999999999,"N_COORD97":2544584.71,"ADDRESS":"大灣路６８８號","OBJECTID":618510},"geometry":{"x":174378.86000000127,"y":2544584.7100000028}},{"attributes":{"ID":618538,"DIS_CODE":0,"TOWNNAME":"永康區","LI":"南灣里","LIN":"7鄰","STREET":"大灣路","SECT":" ","MAREA":" ","LANE":" ","ALLEY":" ","HOUSE_NO":"５８５號","E_COORD97":174339.89999999999,"N_COORD97":2544544.0600000001,"ADDRESS":"大灣路５８５號","OBJECTID":618511},"geometry":{"x":174339.9000000013,"y":2544544.0600000024}},{"attributes":{"ID":618539,"DIS_CODE":0,"TOWNNAME":"永康區","LI":"東灣里","LIN":"27鄰","STREET":"大灣一街","SECT":" ","MAREA":" ","LANE":" ","ALLEY":" ","HOUSE_NO":"３０６號","E_COORD97":175027.32000000001,"N_COORD97":2544697.1800000002,"ADDRESS":"大灣一街３０６號","OBJECTID":618512},"geometry":{"x":175027.3200000003,"y":2544697.1799999978}},{"attributes":{"ID":618540,"DIS_CODE":0,"TOWNNAME":"新市區","LI":"新和里","LIN":"2鄰","STREET":"中山路","SECT":" ","MAREA":" ","LANE":" ","ALLEY":" ","HOUSE_NO":"２７４號","E_COORD97":177296.26999999999,"N_COORD97":2551943,"ADDRESS":"中山路２７４號","OBJECTID":618513},"geometry":{"x":177296.27000000048,"y":2551943}},{"attributes":{"ID":618541,"DIS_CODE":0,"TOWNNAME":"永康區","LI":"南灣里","LIN":"13鄰","STREET":"立興街","SECT":" ","MAREA":" ","LANE":" ","ALLEY":" ","HOUSE_NO":"８１號","E_COORD97":174557.79999999999,"N_COORD97":2544767.7599999998,"ADDRESS":"立興街８１號","OBJECTID":618514},"geometry":{"x":174557.80000000168,"y":2544767.7599999998}},{"attributes":{"ID":618542,"DIS_CODE":0,"TOWNNAME":"新市區","LI":"新市里","LIN":"2鄰","STREET":"光華街","SECT":" ","MAREA":" ","LANE":" ","ALLEY":" ","HOUSE_NO":"１８７號","E_COORD97":177784.53,"N_COORD97":2553157.5,"ADDRESS":"光華街１８７號","OBJECTID":618515},"geometry":{"x":177784.53000000212,"y":2553157.5}},{"attributes":{"ID":618543,"DIS_CODE":0,"TOWNNAME":"中西區","LI":"建國里","LIN":"2鄰","STREET":"永福路","SECT":"二段","MAREA":" ","LANE":" ","ALLEY":" ","HOUSE_NO":"７７號","E_COORD97":168060.85999999999,"N_COORD97":2543701.1899999999,"ADDRESS":"永福路二段７７號","OBJECTID":618516},"geometry":{"x":168060.86000000127,"y":2543701.1900000013}},{"attributes":{"ID":618544,"DIS_CODE":0,"TOWNNAME":"中西區","LI":"建國里","LIN":"2鄰","STREET":"永福路","SECT":"二段","MAREA":" ","LANE":" ","ALLEY":" ","HOUSE_NO":"７９號","E_COORD97":168065.64000000001,"N_COORD97":2543721.1200000001,"ADDRESS":"永福路二段７９號","OBJECTID":618517},"geometry":{"x":168065.63999999966,"y":2543721.120000001}},{"attributes":{"ID":618545,"DIS_CODE":0,"TOWNNAME":"中西區","LI":"青年里","LIN":"2鄰","STREET":"興華街","SECT":" ","MAREA":" ","LANE":" ","ALLEY":" ","HOUSE_NO":"２５號","E_COORD97":169089.20999999999,"N_COORD97":2543647.8500000001,"ADDRESS":"興華街２５號","OBJECTID":618518},"geometry":{"x":169089.20999999996,"y":2543647.8499999996}},{"attributes":{"ID":618546,"DIS_CODE":0,"TOWNNAME":"中西區","LI":"郡王里","LIN":"2鄰","STREET":"樹林街","SECT":"二段","MAREA":" ","LANE":" ","ALLEY":" ","HOUSE_NO":"１２８號","E_COORD97":168840.39000000001,"N_COORD97":2543023.1699999999,"ADDRESS":"樹林街二段１２８號","OBJECTID":618519},"geometry":{"x":168840.38999999966,"y":2543023.1700000018}},{"attributes":{"ID":618547,"DIS_CODE":0,"TOWNNAME":"中西區","LI":"郡王里","LIN":"2鄰","STREET":"樹林街","SECT":"二段","MAREA":" ","LANE":" ","ALLEY":" ","HOUSE_NO":"１３０號","E_COORD97":168835.48999999999,"N_COORD97":2543028.1600000001,"ADDRESS":"樹林街二段１３０號","OBJECTID":618520},"geometry":{"x":168835.49000000022,"y":2543028.160000002}},{"attributes":{"ID":618548,"DIS_CODE":0,"TOWNNAME":"中西區","LI":"郡王里","LIN":"2鄰","STREET":"樹林街","SECT":"二段","MAREA":" ","LANE":" ","ALLEY":" ","HOUSE_NO":"１３２號","E_COORD97":168834.95000000001,"N_COORD97":2542999.6899999999,"ADDRESS":"樹林街二段１３２號","OBJECTID":618521},"geometry":{"x":168834.95000000112,"y":2542999.6900000013}},{"attributes":{"ID":618549,"DIS_CODE":0,"TOWNNAME":"中西區","LI":"郡王里","LIN":"2鄰","STREET":"樹林街","SECT":"二段","MAREA":" ","LANE":" ","ALLEY":" ","HOUSE_NO":"９０號","E_COORD97":168899.84,"N_COORD97":2542985.8100000001,"ADDRESS":"樹林街二段９０號","OBJECTID":618522},"geometry":{"x":168899.84000000078,"y":2542985.8100000024}},{"attributes":{"ID":618550,"DIS_CODE":0,"TOWNNAME":"中西區","LI":"郡王里","LIN":"2鄰","STREET":"樹林街","SECT":"二段","MAREA":" ","LANE":" ","ALLEY":" ","HOUSE_NO":"９２號","E_COORD97":168892.28,"N_COORD97":2542986.9399999999,"ADDRESS":"樹林街二段９２號","OBJECTID":618523},"geometry":{"x":168892.28000000119,"y":2542986.9400000013}},{"attributes":{"ID":618551,"DIS_CODE":0,"TOWNNAME":"中西區","LI":"郡王里","LIN":"2鄰","STREET":"樹林街","SECT":"二段","MAREA":" ","LANE":" ","ALLEY":" ","HOUSE_NO":"９４號","E_COORD97":168883.57000000001,"N_COORD97":2542997.1699999999,"ADDRESS":"樹林街二段９４號","OBJECTID":618524},"geometry":{"x":168883.57000000123,"y":2542997.1700000018}},{"attributes":{"ID":618552,"DIS_CODE":0,"TOWNNAME":"中西區","LI":"青年里","LIN":"2鄰","STREET":"興華街","SECT":" ","MAREA":" ","LANE":" ","ALLEY":" ","HOUSE_NO":"４５號","E_COORD97":169158.70000000001,"N_COORD97":2543694.7599999998,"ADDRESS":"興華街４５號","OBJECTID":618525},"geometry":{"x":169158.70000000112,"y":2543694.7600000016}},{"attributes":{"ID":618553,"DIS_CODE":0,"TOWNNAME":"中西區","LI":"青年里","LIN":"2鄰","STREET":"衛民街","SECT":" ","MAREA":" ","LANE":" ","ALLEY":" ","HOUSE_NO":"５１號","E_COORD97":169108.95000000001,"N_COORD97":2543699.0899999999,"ADDRESS":"衛民街５１號","OBJECTID":618526},"geometry":{"x":169108.95000000205,"y":2543699.0900000017}},{"attributes":{"ID":618554,"DIS_CODE":0,"TOWNNAME":"中西區","LI":"青年里","LIN":"2鄰","STREET":"衛民街","SECT":" ","MAREA":" ","LANE":" ","ALLEY":" ","HOUSE_NO":"５３號","E_COORD97":169103.82000000001,"N_COORD97":2543699.0899999999,"ADDRESS":"衛民街５３號","OBJECTID":618527},"geometry":{"x":169103.82000000123,"y":2543699.0900000017}},{"attributes":{"ID":618555,"DIS_CODE":0,"TOWNNAME":"中西區","LI":"青年里","LIN":"2鄰","STREET":"衛民街","SECT":" ","MAREA":" ","LANE":" ","ALLEY":" ","HOUSE_NO":"５５號","E_COORD97":169099.07999999999,"N_COORD97":2543698.2999999998,"ADDRESS":"衛民街５５號","OBJECTID":618528},"geometry":{"x":169099.08000000007,"y":2543698.3000000026}},{"attributes":{"ID":618556,"DIS_CODE":0,"TOWNNAME":"中西區","LI":"青年里","LIN":"2鄰","STREET":"衛民街","SECT":" ","MAREA":" ","LANE":" ","ALLEY":" ","HOUSE_NO":"５７號","E_COORD97":169091.97,"N_COORD97":2543693.1800000002,"ADDRESS":"衛民街５７號","OBJECTID":618529},"geometry":{"x":169091.97000000067,"y":2543693.1799999997}},{"attributes":{"ID":618557,"DIS_CODE":0,"TOWNNAME":"中西區","LI":"青年里","LIN":"2鄰","STREET":"衛民街","SECT":" ","MAREA":" ","LANE":" ","ALLEY":" ","HOUSE_NO":"５９號","E_COORD97":169087.23999999999,"N_COORD97":2543696.73,"ADDRESS":"衛民街５９號","OBJECTID":618530},"geometry":{"x":169087.24000000115,"y":2543696.7300000004}},{"attributes":{"ID":618558,"DIS_CODE":0,"TOWNNAME":"中西區","LI":"青年里","LIN":"2鄰","STREET":"萬昌街","SECT":" ","MAREA":" ","LANE":" ","ALLEY":" ","HOUSE_NO":"９６號","E_COORD97":169084.47,"N_COORD97":2543664.3999999999,"ADDRESS":"萬昌街９６號","OBJECTID":618531},"geometry":{"x":169084.46999999881,"y":2543664.4000000004}},{"attributes":{"ID":618559,"DIS_CODE":0,"TOWNNAME":"中西區","LI":"青年里","LIN":"2鄰","STREET":"萬昌街","SECT":" ","MAREA":" ","LANE":" ","ALLEY":" ","HOUSE_NO":"９８號","E_COORD97":169079.34,"N_COORD97":2543669.1299999999,"ADDRESS":"萬昌街９８號","OBJECTID":618532},"geometry":{"x":169079.34000000078,"y":2543669.129999999}},{"attributes":{"ID":618560,"DIS_CODE":0,"TOWNNAME":"中西區","LI":"開山里","LIN":"2鄰","STREET":"開山路","SECT":" ","MAREA":" ","LANE":" ","ALLEY":" ","HOUSE_NO":"１２１號","E_COORD97":168799.01999999999,"N_COORD97":2543266.3199999998,"ADDRESS":"開山路１２１號","OBJECTID":618533},"geometry":{"x":168799.01999999955,"y":2543266.320000004}},{"attributes":{"ID":618561,"DIS_CODE":0,"TOWNNAME":"中西區","LI":"開山里","LIN":"2鄰","STREET":"開山路","SECT":" ","MAREA":" ","LANE":" ","ALLEY":" ","HOUSE_NO":"１２３號","E_COORD97":168803.20999999999,"N_COORD97":2543257.1400000001,"ADDRESS":"開山路１２３號","OBJECTID":618534},"geometry":{"x":168803.20999999996,"y":2543257.1400000006}},{"attributes":{"ID":618562,"DIS_CODE":0,"TOWNNAME":"中西區","LI":"開山里","LIN":"2鄰","STREET":"開山路","SECT":" ","MAREA":" ","LANE":" ","ALLEY":" ","HOUSE_NO":"１２５號","E_COORD97":168804.41,"N_COORD97":2543253.0099999998,"ADDRESS":"開山路１２５號","OBJECTID":618535},"geometry":{"x":168804.41000000108,"y":2543253.0099999998}},{"attributes":{"ID":618563,"DIS_CODE":0,"TOWNNAME":"仁德區","LI":"田厝里","LIN":"2鄰","STREET":"保安路","SECT":"二段","MAREA":" ","LANE":" ","ALLEY":" ","HOUSE_NO":"５２８號之１","E_COORD97":172550.54999999999,"N_COORD97":2537524.0699999998,"ADDRESS":"保安路二段５２８號之１","OBJECTID":618536},"geometry":{"x":172550.54999999981,"y":2537524.0700000003}},{"attributes":{"ID":618564,"DIS_CODE":0,"TOWNNAME":"仁德區","LI":"仁德里","LIN":"2鄰","STREET":"中正路","SECT":"二段","MAREA":" ","LANE":" ","ALLEY":" ","HOUSE_NO":"７２１號","E_COORD97":173458.09,"N_COORD97":2540163.27,"ADDRESS":"中正路二段７２１號","OBJECTID":618537},"geometry":{"x":173458.09000000078,"y":2540163.2699999996}},{"attributes":{"ID":618565,"DIS_CODE":0,"TOWNNAME":"仁德區","LI":"田厝里","LIN":"2鄰","STREET":"保安路","SECT":"二段","MAREA":" ","LANE":" ","ALLEY":" ","HOUSE_NO":"５３８號","E_COORD97":172567.5,"N_COORD97":2537552.5600000001,"ADDRESS":"保安路二段５３８號","OBJECTID":618538},"geometry":{"x":172567.5,"y":2537552.5600000024}},{"attributes":{"ID":618566,"DIS_CODE":0,"TOWNNAME":"仁德區","LI":"田厝里","LIN":"2鄰","STREET":"保安路","SECT":"二段","MAREA":" ","LANE":" ","ALLEY":" ","HOUSE_NO":"５６０號","E_COORD97":172610.51000000001,"N_COORD97":2537562.8100000001,"ADDRESS":"保安路二段５６０號","OBJECTID":618539},"geometry":{"x":172610.51000000071,"y":2537562.8100000005}},{"attributes":{"ID":618567,"DIS_CODE":0,"TOWNNAME":"仁德區","LI":"保安里","LIN":"2鄰","STREET":"文賢路","SECT":"一段","MAREA":" ","LANE":" ","ALLEY":" ","HOUSE_NO":"５０８之１８號","E_COORD97":170988.98999999999,"N_COORD97":2537066.8199999998,"ADDRESS":"文賢路一段５０８之１８號","OBJECTID":618540},"geometry":{"x":170988.99000000115,"y":2537066.8200000022}},{"attributes":{"ID":618568,"DIS_CODE":0,"TOWNNAME":"仁德區","LI":"保安里","LIN":"2鄰","STREET":"文賢路","SECT":"一段","MAREA":" ","LANE":" ","ALLEY":" ","HOUSE_NO":"５２２號","E_COORD97":171109.62,"N_COORD97":2537003.5800000001,"ADDRESS":"文賢路一段５２２號","OBJECTID":618541},"geometry":{"x":171109.62000000197,"y":2537003.5800000019}},{"attributes":{"ID":618569,"DIS_CODE":0,"TOWNNAME":"仁德區","LI":"保安里","LIN":"2鄰","STREET":"保安路","SECT":"一段","MAREA":" ","LANE":" ","ALLEY":" ","HOUSE_NO":"１１７號","E_COORD97":171103.84,"N_COORD97":2536843.3100000001,"ADDRESS":"保安路一段１１７號","OBJECTID":618542},"geometry":{"x":171103.83999999985,"y":2536843.3100000024}},{"attributes":{"ID":618570,"DIS_CODE":0,"TOWNNAME":"仁德區","LI":"田厝里","LIN":"2鄰","STREET":"保安路","SECT":"二段","MAREA":" ","LANE":" ","ALLEY":" ","HOUSE_NO":"５３４號","E_COORD97":172558.79999999999,"N_COORD97":2537550.0600000001,"ADDRESS":"保安路二段５３４號","OBJECTID":618543},"geometry":{"x":172558.79999999981,"y":2537550.0600000024}},{"attributes":{"ID":618571,"DIS_CODE":0,"TOWNNAME":"仁德區","LI":"保安里","LIN":"2鄰","STREET":"文賢路","SECT":"一段","MAREA":" ","LANE":" ","ALLEY":" ","HOUSE_NO":"５２０號","E_COORD97":171108.69,"N_COORD97":2537008.3300000001,"ADDRESS":"文賢路一段５２０號","OBJECTID":618544},"geometry":{"x":171108.69000000041,"y":2537008.3300000019}},{"attributes":{"ID":618572,"DIS_CODE":0,"TOWNNAME":"仁德區","LI":"仁德里","LIN":"2鄰","STREET":"仁德五街","SECT":" ","MAREA":" ","LANE":" ","ALLEY":" ","HOUSE_NO":"１３號","E_COORD97":173403.79999999999,"N_COORD97":2540206.02,"ADDRESS":"仁德五街１３號","OBJECTID":618545},"geometry":{"x":173403.80000000075,"y":2540206.0200000033}},{"attributes":{"ID":618573,"DIS_CODE":0,"TOWNNAME":"仁德區","LI":"田厝里","LIN":"2鄰","STREET":"保安路","SECT":"二段","MAREA":" ","LANE":" ","ALLEY":" ","HOUSE_NO":"５２４號","E_COORD97":172533.679286,"N_COORD97":2537548.08488,"ADDRESS":"保安路二段５２４號","OBJECTID":618546},"geometry":{"x":172533.67928600125,"y":2537548.0848810002}},{"attributes":{"ID":618574,"DIS_CODE":0,"TOWNNAME":"仁德區","LI":"仁德里","LIN":"2鄰","STREET":"中正路","SECT":"二段","MAREA":" ","LANE":" ","ALLEY":" ","HOUSE_NO":"７１５號","E_COORD97":173452.94,"N_COORD97":2540145.52,"ADDRESS":"中正路二段７１５號","OBJECTID":618547},"geometry":{"x":173452.94000000134,"y":2540145.5200000014}},{"attributes":{"ID":618575,"DIS_CODE":0,"TOWNNAME":"東區","LI":"莊敬里","LIN":"2鄰","STREET":"東和路","SECT":" ","MAREA":" ","LANE":" ","ALLEY":" ","HOUSE_NO":"３７號","E_COORD97":171038.79999999999,"N_COORD97":2544334.8399999999,"ADDRESS":"東和路３７號","OBJECTID":618548},"geometry":{"x":171038.80000000075,"y":2544334.8400000017}},{"attributes":{"ID":618576,"DIS_CODE":0,"TOWNNAME":"仁德區","LI":"保安里","LIN":"2鄰","STREET":"文賢路","SECT":"一段","MAREA":" ","LANE":" ","ALLEY":" ","HOUSE_NO":"５０８號","E_COORD97":171053.29000000001,"N_COORD97":2537036.3199999998,"ADDRESS":"文賢路一段５０８號","OBJECTID":618549},"geometry":{"x":171053.29000000097,"y":2537036.3200000022}},{"attributes":{"ID":618577,"DIS_CODE":0,"TOWNNAME":"仁德區","LI":"田厝里","LIN":"2鄰","STREET":"保安路","SECT":"二段","MAREA":" ","LANE":" ","ALLEY":" ","HOUSE_NO":"５５８號","E_COORD97":172606.01999999999,"N_COORD97":2537562.5600000001,"ADDRESS":"保安路二段５５８號","OBJECTID":618550},"geometry":{"x":172606.01999999955,"y":2537562.5600000042}},{"attributes":{"ID":618578,"DIS_CODE":0,"TOWNNAME":"東區","LI":"莊敬里","LIN":"2鄰","STREET":"東和路","SECT":" ","MAREA":" ","LANE":" ","ALLEY":" ","HOUSE_NO":"３９號","E_COORD97":171035.29000000001,"N_COORD97":2544332.04,"ADDRESS":"東和路３９號","OBJECTID":618551},"geometry":{"x":171035.29000000004,"y":2544332.040000001}},{"attributes":{"ID":618579,"DIS_CODE":0,"TOWNNAME":"中西區","LI":"西賢里","LIN":"2鄰","STREET":"湖美街","SECT":" ","MAREA":" ","LANE":" ","ALLEY":" ","HOUSE_NO":"７３號","E_COORD97":165899.07000000001,"N_COORD97":2544623.2999999998,"ADDRESS":"湖美街７３號","OBJECTID":618552},"geometry":{"x":165899.0700000003,"y":2544623.3000000045}},{"attributes":{"ID":618580,"DIS_CODE":0,"TOWNNAME":"仁德區","LI":"仁德里","LIN":"2鄰","STREET":"中正路","SECT":"二段","MAREA":" ","LANE":" ","ALLEY":" ","HOUSE_NO":"７２５號","E_COORD97":173459.42999999999,"N_COORD97":2540168.52,"ADDRESS":"中正路二段７２５號","OBJECTID":618553},"geometry":{"x":173459.4299999997,"y":2540168.5199999977}},{"attributes":{"ID":618581,"DIS_CODE":0,"TOWNNAME":"仁德區","LI":"新田里","LIN":"2鄰","STREET":"義林路","SECT":" ","MAREA":" ","LANE":" ","ALLEY":" ","HOUSE_NO":"９１號","E_COORD97":174327.73000000001,"N_COORD97":2540130.02,"ADDRESS":"義林路９１號","OBJECTID":618554},"geometry":{"x":174327.73000000045,"y":2540130.0199999996}},{"attributes":{"ID":618582,"DIS_CODE":0,"TOWNNAME":"仁德區","LI":"新田里","LIN":"2鄰","STREET":"義林路","SECT":" ","MAREA":" ","LANE":" ","ALLEY":" ","HOUSE_NO":"１０１號","E_COORD97":174336.03,"N_COORD97":2540172.0099999998,"ADDRESS":"義林路１０１號","OBJECTID":618555},"geometry":{"x":174336.03000000026,"y":2540172.0099999998}},{"attributes":{"ID":618583,"DIS_CODE":0,"TOWNNAME":"仁德區","LI":"新田里","LIN":"2鄰","STREET":"義林路","SECT":" ","MAREA":" ","LANE":" ","ALLEY":" ","HOUSE_NO":"１號","E_COORD97":174248.64000000001,"N_COORD97":2539661.7599999998,"ADDRESS":"義林路１號","OBJECTID":618556},"geometry":{"x":174248.64000000153,"y":2539661.7599999998}},{"attributes":{"ID":618584,"DIS_CODE":0,"TOWNNAME":"仁德區","LI":"仁義里","LIN":"2鄰","STREET":"仁義路","SECT":" ","MAREA":" ","LANE":" ","ALLEY":" ","HOUSE_NO":"２６７號","E_COORD97":174027,"N_COORD97":2541060.27,"ADDRESS":"仁義路２６７號","OBJECTID":618557},"geometry":{"x":174027,"y":2541060.2700000014}},{"attributes":{"ID":618585,"DIS_CODE":0,"TOWNNAME":"仁德區","LI":"新田里","LIN":"2鄰","STREET":"義林路","SECT":" ","MAREA":" ","LANE":" ","ALLEY":" ","HOUSE_NO":"１３２號","E_COORD97":174427.10999999999,"N_COORD97":2540469.0099999998,"ADDRESS":"義林路１３２號","OBJECTID":618558},"geometry":{"x":174427.11000000034,"y":2540469.0100000016}},{"attributes":{"ID":618586,"DIS_CODE":0,"TOWNNAME":"仁德區","LI":"新田里","LIN":"2鄰","STREET":"義林路","SECT":" ","MAREA":" ","LANE":" ","ALLEY":" ","HOUSE_NO":"１１２號","E_COORD97":174347.23000000001,"N_COORD97":2539990.27,"ADDRESS":"義林路１１２號","OBJECTID":618559},"geometry":{"x":174347.23000000231,"y":2539990.2699999996}},{"attributes":{"ID":618587,"DIS_CODE":0,"TOWNNAME":"仁德區","LI":"新田里","LIN":"2鄰","STREET":"新田二街","SECT":" ","MAREA":" ","LANE":" ","ALLEY":" ","HOUSE_NO":"２１６號","E_COORD97":174580.57000000001,"N_COORD97":2540197.75,"ADDRESS":"新田二街２１６號","OBJECTID":618560},"geometry":{"x":174580.57000000123,"y":2540197.75}},{"attributes":{"ID":618588,"DIS_CODE":0,"TOWNNAME":"仁德區","LI":"新田里","LIN":"2鄰","STREET":"新田二街","SECT":" ","MAREA":" ","LANE":" ","ALLEY":" ","HOUSE_NO":"１２２之２號","E_COORD97":174867.32000000001,"N_COORD97":2539925.5499999998,"ADDRESS":"新田二街１２２之２號","OBJECTID":618561},"geometry":{"x":174867.32000000123,"y":2539925.5499999989}},{"attributes":{"ID":618589,"DIS_CODE":0,"TOWNNAME":"新市區","LI":"新和里","LIN":"2鄰","STREET":"中山路","SECT":" ","MAREA":" ","LANE":" ","ALLEY":" ","HOUSE_NO":"２４８號","E_COORD97":177424.54000000001,"N_COORD97":2552036.25,"ADDRESS":"中山路２４８號","OBJECTID":618562},"geometry":{"x":177424.54000000004,"y":2552036.25}},{"attributes":{"ID":618590,"DIS_CODE":0,"TOWNNAME":"新市區","LI":"新和里","LIN":"2鄰","STREET":"中山路","SECT":" ","MAREA":" ","LANE":" ","ALLEY":" ","HOUSE_NO":"２５４號","E_COORD97":177414.59,"N_COORD97":2552029.75,"ADDRESS":"中山路２５４號","OBJECTID":618563},"geometry":{"x":177414.59000000078,"y":2552029.75}},{"attributes":{"ID":618591,"DIS_CODE":0,"TOWNNAME":"新市區","LI":"新和里","LIN":"2鄰","STREET":"中山路","SECT":" ","MAREA":" ","LANE":" ","ALLEY":" ","HOUSE_NO":"２５８號","E_COORD97":177407.42999999999,"N_COORD97":2552025,"ADDRESS":"中山路２５８號","OBJECTID":618564},"geometry":{"x":177407.4299999997,"y":2552025}},{"attributes":{"ID":618592,"DIS_CODE":0,"TOWNNAME":"新市區","LI":"新和里","LIN":"2鄰","STREET":"中山路","SECT":" ","MAREA":" ","LANE":" ","ALLEY":" ","HOUSE_NO":"２２４之４號","E_COORD97":177500.73999999999,"N_COORD97":2552081.5499999998,"ADDRESS":"中山路２２４之４號","OBJECTID":618565},"geometry":{"x":177500.74000000022,"y":2552081.5500000026}},{"attributes":{"ID":618593,"DIS_CODE":0,"TOWNNAME":"新市區","LI":"新和里","LIN":"2鄰","STREET":"中山路","SECT":" ","MAREA":" ","LANE":" ","ALLEY":" ","HOUSE_NO":"２２８號","E_COORD97":177463.13,"N_COORD97":2552071.5,"ADDRESS":"中山路２２８號","OBJECTID":618566},"geometry":{"x":177463.13000000082,"y":2552071.5}},{"attributes":{"ID":618594,"DIS_CODE":0,"TOWNNAME":"永康區","LI":"北灣里","LIN":"2鄰","STREET":"大同街","SECT":" ","MAREA":" ","LANE":" ","ALLEY":" ","HOUSE_NO":"２０號","E_COORD97":175300.01999999999,"N_COORD97":2545427.9399999999,"ADDRESS":"大同街２０號","OBJECTID":618567},"geometry":{"x":175300.01999999955,"y":2545427.9400000032}},{"attributes":{"ID":618595,"DIS_CODE":0,"TOWNNAME":"永康區","LI":"正強里","LIN":"2鄰","STREET":"中正路","SECT":" ","MAREA":" ","LANE":" ","ALLEY":" ","HOUSE_NO":"５號之１","E_COORD97":173718.35999999999,"N_COORD97":2547684.3799999999,"ADDRESS":"中正路５號之１","OBJECTID":618568},"geometry":{"x":173718.36000000034,"y":2547684.379999999}},{"attributes":{"ID":618596,"DIS_CODE":0,"TOWNNAME":"新市區","LI":"新和里","LIN":"2鄰","STREET":"中山路","SECT":" ","MAREA":" ","LANE":" ","ALLEY":" ","HOUSE_NO":"２３２號","E_COORD97":177461.23999999999,"N_COORD97":2552058,"ADDRESS":"中山路２３２號","OBJECTID":618569},"geometry":{"x":177461.24000000115,"y":2552058}},{"attributes":{"ID":618597,"DIS_CODE":0,"TOWNNAME":"新市區","LI":"港墘里","LIN":"2鄰","STREET":"中山路","SECT":" ","MAREA":" ","LANE":" ","ALLEY":" ","HOUSE_NO":"１８號","E_COORD97":178650.37,"N_COORD97":2553530.75,"ADDRESS":"中山路１８號","OBJECTID":618570},"geometry":{"x":178650.37000000104,"y":2553530.7500000019}},{"attributes":{"ID":618598,"DIS_CODE":0,"TOWNNAME":"新市區","LI":"新和里","LIN":"2鄰","STREET":"中山路","SECT":" ","MAREA":" ","LANE":" ","ALLEY":" ","HOUSE_NO":"２８０號","E_COORD97":177287.20999999999,"N_COORD97":2551935.75,"ADDRESS":"中山路２８０號","OBJECTID":618571},"geometry":{"x":177287.20999999996,"y":2551935.7500000037}},{"attributes":{"ID":618599,"DIS_CODE":0,"TOWNNAME":"新市區","LI":"港墘里","LIN":"2鄰","STREET":"中山路","SECT":" ","MAREA":" ","LANE":" ","ALLEY":" ","HOUSE_NO":"１９號","E_COORD97":178754.39000000001,"N_COORD97":2553526.2999999998,"ADDRESS":"中山路１９號","OBJECTID":618572},"geometry":{"x":178754.39000000153,"y":2553526.3000000045}},{"attributes":{"ID":618600,"DIS_CODE":0,"TOWNNAME":"新市區","LI":"新和里","LIN":"2鄰","STREET":"中山路","SECT":" ","MAREA":" ","LANE":" ","ALLEY":" ","HOUSE_NO":"２２４號","E_COORD97":177513.57999999999,"N_COORD97":2552089.7200000002,"ADDRESS":"中山路２２４號","OBJECTID":618573},"geometry":{"x":177513.58000000007,"y":2552089.7200000025}},{"attributes":{"ID":618601,"DIS_CODE":0,"TOWNNAME":"東區","LI":"南聖里","LIN":"2鄰","STREET":"裕農路","SECT":" ","MAREA":" ","LANE":" ","ALLEY":" ","HOUSE_NO":"６６０號","E_COORD97":171714.20999999999,"N_COORD97":2543215.3199999998,"ADDRESS":"裕農路６６０號","OBJECTID":618574},"geometry":{"x":171714.21000000183,"y":2543215.3199999984}},{"attributes":{"ID":618602,"DIS_CODE":0,"TOWNNAME":"東區","LI":"東門里","LIN":"2鄰","STREET":"北門路","SECT":"一段","MAREA":" ","LANE":" ","ALLEY":" ","HOUSE_NO":"１０號","E_COORD97":169172.82000000001,"N_COORD97":2543367.2999999998,"ADDRESS":"北門路一段１０號","OBJECTID":618575},"geometry":{"x":169172.82000000123,"y":2543367.3000000007}},{"attributes":{"ID":618603,"DIS_CODE":0,"TOWNNAME":"東區","LI":"東門里","LIN":"2鄰","STREET":"北門路","SECT":"一段","MAREA":" ","LANE":" ","ALLEY":" ","HOUSE_NO":"１２號","E_COORD97":169172.57999999999,"N_COORD97":2543372.1099999999,"ADDRESS":"北門路一段１２號","OBJECTID":618576},"geometry":{"x":169172.58000000101,"y":2543372.1100000031}},{"attributes":{"ID":618604,"DIS_CODE":0,"TOWNNAME":"東區","LI":"東門里","LIN":"2鄰","STREET":"北門路","SECT":"一段","MAREA":" ","LANE":" ","ALLEY":" ","HOUSE_NO":"１６號","E_COORD97":169173.48000000001,"N_COORD97":2543377.8799999999,"ADDRESS":"北門路一段１６號","OBJECTID":618577},"geometry":{"x":169173.48000000231,"y":2543377.8800000008}},{"attributes":{"ID":618605,"DIS_CODE":0,"TOWNNAME":"東區","LI":"東門里","LIN":"2鄰","STREET":"北門路","SECT":"一段","MAREA":" ","LANE":" ","ALLEY":" ","HOUSE_NO":"１８號","E_COORD97":169173.89000000001,"N_COORD97":2543382.4100000001,"ADDRESS":"北門路一段１８號","OBJECTID":618578},"geometry":{"x":169173.8900000006,"y":2543382.410000002}},{"attributes":{"ID":618606,"DIS_CODE":0,"TOWNNAME":"東區","LI":"東門里","LIN":"2鄰","STREET":"北門路","SECT":"一段","MAREA":" ","LANE":" ","ALLEY":" ","HOUSE_NO":"２０號","E_COORD97":169174.39000000001,"N_COORD97":2543387.2799999998,"ADDRESS":"北門路一段２０號","OBJECTID":618579},"geometry":{"x":169174.38999999966,"y":2543387.2799999993}},{"attributes":{"ID":618607,"DIS_CODE":0,"TOWNNAME":"東區","LI":"東門里","LIN":"2鄰","STREET":"北門路","SECT":"一段","MAREA":" ","LANE":" ","ALLEY":" ","HOUSE_NO":"２２號","E_COORD97":169174.14999999999,"N_COORD97":2543391.8300000001,"ADDRESS":"北門路一段２２號","OBJECTID":618580},"geometry":{"x":169174.1500000013,"y":2543391.8300000019}},{"attributes":{"ID":618608,"DIS_CODE":0,"TOWNNAME":"東區","LI":"東門里","LIN":"2鄰","STREET":"北門路","SECT":"一段","MAREA":" ","LANE":" ","ALLEY":" ","HOUSE_NO":"２６號","E_COORD97":169174.89000000001,"N_COORD97":2543398.1699999999,"ADDRESS":"北門路一段２６號","OBJECTID":618581},"geometry":{"x":169174.89000000153,"y":2543398.1699999999}},{"attributes":{"ID":618609,"DIS_CODE":0,"TOWNNAME":"東區","LI":"東門里","LIN":"2鄰","STREET":"北門路","SECT":"一段","MAREA":" ","LANE":" ","ALLEY":" ","HOUSE_NO":"２８號","E_COORD97":169175.47,"N_COORD97":2543405.0899999999,"ADDRESS":"北門路一段２８號","OBJECTID":618582},"geometry":{"x":169175.46999999974,"y":2543405.0899999999}},{"attributes":{"ID":618610,"DIS_CODE":0,"TOWNNAME":"東區","LI":"東門里","LIN":"2鄰","STREET":"北門路","SECT":"一段","MAREA":" ","LANE":" ","ALLEY":" ","HOUSE_NO":"２號","E_COORD97":169171.10000000001,"N_COORD97":2543342.04,"ADDRESS":"北門路一段２號","OBJECTID":618583},"geometry":{"x":169171.09999999963,"y":2543342.040000001}},{"attributes":{"ID":618611,"DIS_CODE":0,"TOWNNAME":"東區","LI":"東門里","LIN":"2鄰","STREET":"北門路","SECT":"一段","MAREA":" ","LANE":" ","ALLEY":" ","HOUSE_NO":"４號","E_COORD97":169170.85000000001,"N_COORD97":2543349.5699999998,"ADDRESS":"北門路一段４號","OBJECTID":618584},"geometry":{"x":169170.85000000056,"y":2543349.570000004}},{"attributes":{"ID":618612,"DIS_CODE":0,"TOWNNAME":"東區","LI":"成大里","LIN":"2鄰","STREET":"民族一街","SECT":" ","MAREA":" ","LANE":" ","ALLEY":" ","HOUSE_NO":"６６號","E_COORD97":169557.04999999999,"N_COORD97":2543728.2000000002,"ADDRESS":"民族一街６６號","OBJECTID":618585},"geometry":{"x":169557.05000000168,"y":2543728.2000000011}},{"attributes":{"ID":618613,"DIS_CODE":0,"TOWNNAME":"東區","LI":"大學里","LIN":"2鄰","STREET":"長榮路","SECT":"三段","MAREA":" ","LANE":" ","ALLEY":" ","HOUSE_NO":"７８號","E_COORD97":170230.70999999999,"N_COORD97":2543840.4100000001,"ADDRESS":"長榮路三段７８號","OBJECTID":618586},"geometry":{"x":170230.70999999903,"y":2543840.4100000001}},{"attributes":{"ID":618614,"DIS_CODE":0,"TOWNNAME":"東區","LI":"大學里","LIN":"2鄰","STREET":"長榮路","SECT":"三段","MAREA":" ","LANE":" ","ALLEY":" ","HOUSE_NO":"８０號","E_COORD97":170244.01000000001,"N_COORD97":2543839.3999999999,"ADDRESS":"長榮路三段８０號","OBJECTID":618587},"geometry":{"x":170244.01000000071,"y":2543839.4000000022}},{"attributes":{"ID":618615,"DIS_CODE":0,"TOWNNAME":"中西區","LI":"民權里","LIN":"2鄰","STREET":"忠明街","SECT":" ","MAREA":" ","LANE":" ","ALLEY":" ","HOUSE_NO":"５０號","E_COORD97":167564.42000000001,"N_COORD97":2544113.3199999998,"ADDRESS":"忠明街５０號","OBJECTID":618588},"geometry":{"x":167564.41999999899,"y":2544113.3200000003}},{"attributes":{"ID":618616,"DIS_CODE":0,"TOWNNAME":"中西區","LI":"民權里","LIN":"2鄰","STREET":"忠明街","SECT":" ","MAREA":" ","LANE":" ","ALLEY":" ","HOUSE_NO":"５０號之１","E_COORD97":167569,"N_COORD97":2544111.5600000001,"ADDRESS":"忠明街５０號之１","OBJECTID":618589},"geometry":{"x":167568.99999999907,"y":2544111.5600000005}},{"attributes":{"ID":618617,"DIS_CODE":0,"TOWNNAME":"中西區","LI":"民權里","LIN":"2鄰","STREET":"忠明街","SECT":" ","MAREA":" ","LANE":" ","ALLEY":" ","HOUSE_NO":"２１號","E_COORD97":167622.80321000001,"N_COORD97":2544086.5250200001,"ADDRESS":"忠明街２１號","OBJECTID":618590},"geometry":{"x":167622.80321000051,"y":2544086.5250189994}},{"attributes":{"ID":618618,"DIS_CODE":0,"TOWNNAME":"中西區","LI":"民權里","LIN":"2鄰","STREET":"忠明街","SECT":" ","MAREA":" ","LANE":" ","ALLEY":" ","HOUSE_NO":"２３號","E_COORD97":167616.87482600001,"N_COORD97":2544089.2766800001,"ADDRESS":"忠明街２３號","OBJECTID":618591},"geometry":{"x":167616.87482600007,"y":2544089.2766840011}},{"attributes":{"ID":618619,"DIS_CODE":0,"TOWNNAME":"中西區","LI":"民權里","LIN":"2鄰","STREET":"忠明街","SECT":" ","MAREA":" ","LANE":" ","ALLEY":" ","HOUSE_NO":"２５號","E_COORD97":167612.428537,"N_COORD97":2544090.5466800001,"ADDRESS":"忠明街２５號","OBJECTID":618592},"geometry":{"x":167612.4285370009,"y":2544090.5466830004}},{"attributes":{"ID":618620,"DIS_CODE":0,"TOWNNAME":"中西區","LI":"民權里","LIN":"2鄰","STREET":"忠明街","SECT":" ","MAREA":" ","LANE":" ","ALLEY":" ","HOUSE_NO":"２９號","E_COORD97":167603.32423200001,"N_COORD97":2544093.9333500001,"ADDRESS":"忠明街２９號","OBJECTID":618593},"geometry":{"x":167603.32423199993,"y":2544093.9333480019}},{"attributes":{"ID":618621,"DIS_CODE":0,"TOWNNAME":"中西區","LI":"民權里","LIN":"2鄰","STREET":"忠明街","SECT":" ","MAREA":" ","LANE":" ","ALLEY":" ","HOUSE_NO":"３１號","E_COORD97":167599.3014,"N_COORD97":2544095.2033500001,"ADDRESS":"忠明街３１號","OBJECTID":618594},"geometry":{"x":167599.30140000023,"y":2544095.2033470012}},{"attributes":{"ID":618622,"DIS_CODE":0,"TOWNNAME":"中西區","LI":"協進里","LIN":"2鄰","STREET":"西寧街","SECT":" ","MAREA":" ","LANE":" ","ALLEY":" ","HOUSE_NO":"１號","E_COORD97":167194.10000000001,"N_COORD97":2544191.52,"ADDRESS":"西寧街１號","OBJECTID":618595},"geometry":{"x":167194.10000000056,"y":2544191.5199999996}},{"attributes":{"ID":618623,"DIS_CODE":0,"TOWNNAME":"中西區","LI":"協進里","LIN":"2鄰","STREET":"民生路","SECT":"二段","MAREA":" ","LANE":" ","ALLEY":" ","HOUSE_NO":"２３８號","E_COORD97":167211.67999999999,"N_COORD97":2544155.96,"ADDRESS":"民生路二段２３８號","OBJECTID":618596},"geometry":{"x":167211.68000000156,"y":2544155.9600000028}},{"attributes":{"ID":618624,"DIS_CODE":0,"TOWNNAME":"中西區","LI":"協進里","LIN":"2鄰","STREET":"民生路","SECT":"二段","MAREA":" ","LANE":" ","ALLEY":" ","HOUSE_NO":"２４０號","E_COORD97":167206.32000000001,"N_COORD97":2544157.5899999999,"ADDRESS":"民生路二段２４０號","OBJECTID":618597},"geometry":{"x":167206.32000000216,"y":2544157.5899999999}},{"attributes":{"ID":618625,"DIS_CODE":0,"TOWNNAME":"中西區","LI":"協進里","LIN":"2鄰","STREET":"民生路","SECT":"二段","MAREA":" ","LANE":" ","ALLEY":" ","HOUSE_NO":"２４２號","E_COORD97":167201.85000000001,"N_COORD97":2544158.6299999999,"ADDRESS":"民生路二段２４２號","OBJECTID":618598},"geometry":{"x":167201.85000000149,"y":2544158.6300000008}},{"attributes":{"ID":618626,"DIS_CODE":0,"TOWNNAME":"中西區","LI":"協進里","LIN":"2鄰","STREET":"民生路","SECT":"二段","MAREA":" ","LANE":" ","ALLEY":" ","HOUSE_NO":"２４４號","E_COORD97":167196.98000000001,"N_COORD97":2544159.54,"ADDRESS":"民生路二段２４４號","OBJECTID":618599},"geometry":{"x":167196.98000000138,"y":2544159.540000001}},{"attributes":{"ID":618627,"DIS_CODE":0,"TOWNNAME":"中西區","LI":"協進里","LIN":"2鄰","STREET":"民生路","SECT":"二段","MAREA":" ","LANE":" ","ALLEY":" ","HOUSE_NO":"２４６號","E_COORD97":167192.76000000001,"N_COORD97":2544160.8700000001,"ADDRESS":"民生路二段２４６號","OBJECTID":618600},"geometry":{"x":167192.76000000071,"y":2544160.870000001}}]}