{"displayFieldName":"TOWNNAME","fieldAliases":{"ID":"ID","DIS_CODE":"DIS_CODE","TOWNNAME":"TOWNNAME","LI":"LI","LIN":"LIN","STREET":"STREET","SECT":"SECT","MAREA":"MAREA","LANE":"LANE","ALLEY":"ALLEY","HOUSE_NO":"HOUSE_NO","E_COORD97":"E_COORD97","N_COORD97":"N_COORD97","ADDRESS":"ADDRESS","OBJECTID":"OBJECTID"},"geometryType":"esriGeometryPoint","spatialReference":{"wkid":102443,"latestWkid":3826},"fields":[{"name":"ID","type":"esriFieldTypeDouble","alias":"ID"},{"name":"DIS_CODE","type":"esriFieldTypeInteger","alias":"DIS_CODE"},{"name":"TOWNNAME","type":"esriFieldTypeString","alias":"TOWNNAME","length":8},{"name":"LI","type":"esriFieldTypeString","alias":"LI","length":8},{"name":"LIN","type":"esriFieldTypeString","alias":"LIN","length":12},{"name":"STREET","type":"esriFieldTypeString","alias":"STREET","length":20},{"name":"SECT","type":"esriFieldTypeString","alias":"SECT","length":8},{"name":"MAREA","type":"esriFieldTypeString","alias":"MAREA","length":12},{"name":"LANE","type":"esriFieldTypeString","alias":"LANE","length":10},{"name":"ALLEY","type":"esriFieldTypeString","alias":"ALLEY","length":10},{"name":"HOUSE_NO","type":"esriFieldTypeString","alias":"HOUSE_NO","length":20},{"name":"E_COORD97","type":"esriFieldTypeDouble","alias":"E_COORD97"},{"name":"N_COORD97","type":"esriFieldTypeDouble","alias":"N_COORD97"},{"name":"ADDRESS","type":"esriFieldTypeString","alias":"ADDRESS","length":50},{"name":"OBJECTID","type":"esriFieldTypeOID","alias":"OBJECTID"}],"features":[{"attributes":{"ID":169602,"DIS_CODE":0,"TOWNNAME":"永康區","LI":"勝利里","LIN":"24鄰","STREET":"勝利街","SECT":" ","MAREA":" ","LANE":"１１６巷","ALLEY":"１２弄","HOUSE_NO":"２５號","E_COORD97":171420.98999999999,"N_COORD97":2544804.25,"ADDRESS":"勝利街１１６巷１２弄２５號","OBJECTID":169601},"geometry":{"x":171420.99000000209,"y":2544804.25}},{"attributes":{"ID":169603,"DIS_CODE":0,"TOWNNAME":"永康區","LI":"崑山里","LIN":"42鄰","STREET":"大灣路","SECT":" ","MAREA":" ","LANE":"９４２巷","ALLEY":"２８０弄","HOUSE_NO":"２２號","E_COORD97":173907.48999999999,"N_COORD97":2545157.3100000001,"ADDRESS":"大灣路９４２巷２８０弄２２號","OBJECTID":169602},"geometry":{"x":173907.49000000022,"y":2545157.3100000005}},{"attributes":{"ID":169604,"DIS_CODE":0,"TOWNNAME":"永康區","LI":"崑山里","LIN":"26鄰","STREET":"大灣路","SECT":" ","MAREA":" ","LANE":"９４２巷","ALLEY":"１６９弄","HOUSE_NO":"６５號","E_COORD97":173622.76999999999,"N_COORD97":2544790.5,"ADDRESS":"大灣路９４２巷１６９弄６５號","OBJECTID":169603},"geometry":{"x":173622.77000000048,"y":2544790.5000000037}},{"attributes":{"ID":169605,"DIS_CODE":0,"TOWNNAME":"永康區","LI":"勝利里","LIN":"25鄰","STREET":"中華路","SECT":" ","MAREA":" ","LANE":"１５５巷","ALLEY":"３４弄","HOUSE_NO":"３８號","E_COORD97":171441.32000000001,"N_COORD97":2544773.5,"ADDRESS":"中華路１５５巷３４弄３８號","OBJECTID":169604},"geometry":{"x":171441.32000000123,"y":2544773.5000000037}},{"attributes":{"ID":169606,"DIS_CODE":0,"TOWNNAME":"永康區","LI":"勝利里","LIN":"25鄰","STREET":"中華路","SECT":" ","MAREA":" ","LANE":"１５５巷","ALLEY":"３４弄","HOUSE_NO":"１６號","E_COORD97":171447.35000000001,"N_COORD97":2544817.9900000002,"ADDRESS":"中華路１５５巷３４弄１６號","OBJECTID":169605},"geometry":{"x":171447.35000000056,"y":2544817.9900000039}},{"attributes":{"ID":169607,"DIS_CODE":0,"TOWNNAME":"永康區","LI":"埔園里","LIN":"18鄰","STREET":"龍埔街","SECT":" ","MAREA":" ","LANE":"４６７巷","ALLEY":"２４弄","HOUSE_NO":"２號","E_COORD97":173551.66,"N_COORD97":2548274,"ADDRESS":"龍埔街４６７巷２４弄２號","OBJECTID":169606},"geometry":{"x":173551.66000000015,"y":2548274.0000000019}},{"attributes":{"ID":169608,"DIS_CODE":0,"TOWNNAME":"新營區","LI":"新東里","LIN":"12鄰","STREET":"東興路","SECT":" ","MAREA":" ","LANE":" ","ALLEY":" ","HOUSE_NO":"１０８號","E_COORD97":180782.45000000001,"N_COORD97":2579209.1499999999,"ADDRESS":"東興路１０８號","OBJECTID":169607},"geometry":{"x":180782.45000000112,"y":2579209.1500000041}},{"attributes":{"ID":169609,"DIS_CODE":0,"TOWNNAME":"永康區","LI":"勝利里","LIN":"25鄰","STREET":"中華路","SECT":" ","MAREA":" ","LANE":"１５５巷","ALLEY":"３４弄","HOUSE_NO":"１５號","E_COORD97":171459.01999999999,"N_COORD97":2544816.1499999999,"ADDRESS":"中華路１５５巷３４弄１５號","OBJECTID":169608},"geometry":{"x":171459.02000000142,"y":2544816.1500000004}},{"attributes":{"ID":169610,"DIS_CODE":0,"TOWNNAME":"永康區","LI":"勝利里","LIN":"26鄰","STREET":"中華路","SECT":" ","MAREA":" ","LANE":"１２１巷","ALLEY":"２１弄","HOUSE_NO":"２３號","E_COORD97":171481.16,"N_COORD97":2544677.73,"ADDRESS":"中華路１２１巷２１弄２３號","OBJECTID":169609},"geometry":{"x":171481.16000000108,"y":2544677.7300000042}},{"attributes":{"ID":169611,"DIS_CODE":0,"TOWNNAME":"永康區","LI":"勝利里","LIN":"18鄰","STREET":"中華一路","SECT":" ","MAREA":" ","LANE":"３５０巷","ALLEY":"２弄","HOUSE_NO":"６號","E_COORD97":171153.29000000001,"N_COORD97":2545025.4900000002,"ADDRESS":"中華一路３５０巷２弄６號","OBJECTID":169610},"geometry":{"x":171153.29000000097,"y":2545025.4900000021}},{"attributes":{"ID":169612,"DIS_CODE":0,"TOWNNAME":"北門區","LI":"三光里","LIN":"13鄰","STREET":" ","SECT":" ","MAREA":"蘆竹溝","LANE":" ","ALLEY":" ","HOUSE_NO":"２６３號","E_COORD97":157786.04999999999,"N_COORD97":2570415.98,"ADDRESS":"蘆竹溝２６３號","OBJECTID":169611},"geometry":{"x":157786.05000000075,"y":2570415.9800000023}},{"attributes":{"ID":169613,"DIS_CODE":0,"TOWNNAME":"永康區","LI":"勝利里","LIN":"25鄰","STREET":"中華路","SECT":" ","MAREA":" ","LANE":"１５５巷","ALLEY":"３４弄","HOUSE_NO":"２號之５","E_COORD97":171468.51999999999,"N_COORD97":2544860.2999999998,"ADDRESS":"中華路１５５巷３４弄２號之５","OBJECTID":169612},"geometry":{"x":171468.51999999955,"y":2544860.3000000045}},{"attributes":{"ID":169614,"DIS_CODE":0,"TOWNNAME":"永康區","LI":"勝利里","LIN":"25鄰","STREET":"中華路","SECT":" ","MAREA":" ","LANE":"１５５巷","ALLEY":"３４弄","HOUSE_NO":"３６號","E_COORD97":171442.17000000001,"N_COORD97":2544777.5,"ADDRESS":"中華路１５５巷３４弄３６號","OBJECTID":169613},"geometry":{"x":171442.17000000086,"y":2544777.5000000019}},{"attributes":{"ID":169615,"DIS_CODE":0,"TOWNNAME":"永康區","LI":"勝利里","LIN":"25鄰","STREET":"中華路","SECT":" ","MAREA":" ","LANE":"１５５巷","ALLEY":"３４弄","HOUSE_NO":"３號","E_COORD97":171476.17999999999,"N_COORD97":2544842.4900000002,"ADDRESS":"中華路１５５巷３４弄３號","OBJECTID":169614},"geometry":{"x":171476.1799999997,"y":2544842.4900000021}},{"attributes":{"ID":169616,"DIS_CODE":0,"TOWNNAME":"永康區","LI":"崑山里","LIN":"18鄰","STREET":"大灣路","SECT":" ","MAREA":" ","LANE":"９４２巷","ALLEY":"１６弄","HOUSE_NO":"７號","E_COORD97":173686.81,"N_COORD97":2544488.6600000001,"ADDRESS":"大灣路９４２巷１６弄７號","OBJECTID":169615},"geometry":{"x":173686.81000000052,"y":2544488.660000002}},{"attributes":{"ID":169617,"DIS_CODE":0,"TOWNNAME":"永康區","LI":"崑山里","LIN":"26鄰","STREET":"大灣路","SECT":" ","MAREA":" ","LANE":"９４２巷","ALLEY":"１６９弄","HOUSE_NO":"６７號","E_COORD97":173615.17000000001,"N_COORD97":2544812.1699999999,"ADDRESS":"大灣路９４２巷１６９弄６７號","OBJECTID":169616},"geometry":{"x":173615.17000000086,"y":2544812.1699999999}},{"attributes":{"ID":169618,"DIS_CODE":0,"TOWNNAME":"永康區","LI":"勝利里","LIN":"24鄰","STREET":"勝利街","SECT":" ","MAREA":" ","LANE":"１１６巷","ALLEY":"１２弄","HOUSE_NO":"１５號","E_COORD97":171419.26999999999,"N_COORD97":2544826.75,"ADDRESS":"勝利街１１６巷１２弄１５號","OBJECTID":169617},"geometry":{"x":171419.26999999955,"y":2544826.7500000019}},{"attributes":{"ID":169619,"DIS_CODE":0,"TOWNNAME":"北門區","LI":"永隆里","LIN":"16鄰","STREET":" ","SECT":" ","MAREA":"港北","LANE":" ","ALLEY":" ","HOUSE_NO":"３５號","E_COORD97":160369.57000000001,"N_COORD97":2574496.8799999999,"ADDRESS":"港北３５號","OBJECTID":169618},"geometry":{"x":160369.57000000216,"y":2574496.8800000027}},{"attributes":{"ID":169620,"DIS_CODE":0,"TOWNNAME":"永康區","LI":"勝利里","LIN":"26鄰","STREET":"中華路","SECT":" ","MAREA":" ","LANE":"１２１巷","ALLEY":"２１弄","HOUSE_NO":"２５號","E_COORD97":171480.45999999999,"N_COORD97":2544673.23,"ADDRESS":"中華路１２１巷２１弄２５號","OBJECTID":169619},"geometry":{"x":171480.46000000089,"y":2544673.2300000004}},{"attributes":{"ID":169621,"DIS_CODE":0,"TOWNNAME":"永康區","LI":"崑山里","LIN":"18鄰","STREET":"大灣路","SECT":" ","MAREA":" ","LANE":"９４２巷","ALLEY":"３４弄","HOUSE_NO":"２１號","E_COORD97":173710.5,"N_COORD97":2544526.2400000002,"ADDRESS":"大灣路９４２巷３４弄２１號","OBJECTID":169620},"geometry":{"x":173710.5,"y":2544526.2400000021}},{"attributes":{"ID":169622,"DIS_CODE":0,"TOWNNAME":"永康區","LI":"五王里","LIN":"25鄰","STREET":"成功路","SECT":" ","MAREA":" ","LANE":"２４４巷","ALLEY":"４９弄","HOUSE_NO":"１２號","E_COORD97":171416.85000000001,"N_COORD97":2545922.52,"ADDRESS":"成功路２４４巷４９弄１２號","OBJECTID":169621},"geometry":{"x":171416.85000000056,"y":2545922.5200000033}},{"attributes":{"ID":169623,"DIS_CODE":0,"TOWNNAME":"安南區","LI":"頂安里","LIN":"5鄰","STREET":"長溪路","SECT":"一段","MAREA":" ","LANE":"４０６巷","ALLEY":"５５弄","HOUSE_NO":"３之１號","E_COORD97":168647.09,"N_COORD97":2549126.77,"ADDRESS":"長溪路一段４０６巷５５弄３之１號","OBJECTID":169622},"geometry":{"x":168647.09000000078,"y":2549126.7699999996}},{"attributes":{"ID":169624,"DIS_CODE":0,"TOWNNAME":"北門區","LI":"三光里","LIN":"13鄰","STREET":" ","SECT":" ","MAREA":"蘆竹溝","LANE":" ","ALLEY":" ","HOUSE_NO":"２６４號","E_COORD97":157786.14000000001,"N_COORD97":2570420.2000000002,"ADDRESS":"蘆竹溝２６４號","OBJECTID":169623},"geometry":{"x":157786.13999999966,"y":2570420.2000000011}},{"attributes":{"ID":169625,"DIS_CODE":0,"TOWNNAME":"安南區","LI":"新順里","LIN":"14鄰","STREET":"安和路","SECT":"二段","MAREA":" ","LANE":"３１８巷","ALLEY":"１２５弄","HOUSE_NO":"２２號之１","E_COORD97":170155.5,"N_COORD97":2549395.8900000001,"ADDRESS":"安和路二段３１８巷１２５弄２２號之１","OBJECTID":169624},"geometry":{"x":170155.5,"y":2549395.8900000043}},{"attributes":{"ID":169626,"DIS_CODE":0,"TOWNNAME":"安南區","LI":"安順里","LIN":"22鄰","STREET":"總安街","SECT":"一段","MAREA":" ","LANE":"１４６巷","ALLEY":"６３弄","HOUSE_NO":"１６號","E_COORD97":169571.92000000001,"N_COORD97":2550402.75,"ADDRESS":"總安街一段１４６巷６３弄１６號","OBJECTID":169625},"geometry":{"x":169571.92000000086,"y":2550402.75}},{"attributes":{"ID":169627,"DIS_CODE":0,"TOWNNAME":"安南區","LI":"東和里","LIN":"4鄰","STREET":"長和路","SECT":"一段","MAREA":" ","LANE":"８４５巷","ALLEY":"５６弄","HOUSE_NO":"２２號","E_COORD97":170701.29999999999,"N_COORD97":2551231.1299999999,"ADDRESS":"長和路一段８４５巷５６弄２２號","OBJECTID":169626},"geometry":{"x":170701.30000000168,"y":2551231.1300000008}},{"attributes":{"ID":169628,"DIS_CODE":0,"TOWNNAME":"安南區","LI":"總頭里","LIN":"7鄰","STREET":"長溪路","SECT":"二段","MAREA":" ","LANE":"５７０巷","ALLEY":"８１弄","HOUSE_NO":"３７０號","E_COORD97":168868.01999999999,"N_COORD97":2550712.71,"ADDRESS":"長溪路二段５７０巷８１弄３７０號","OBJECTID":169627},"geometry":{"x":168868.01999999955,"y":2550712.7100000009}},{"attributes":{"ID":169629,"DIS_CODE":0,"TOWNNAME":"安南區","LI":"總頭里","LIN":"7鄰","STREET":"長溪路","SECT":"二段","MAREA":" ","LANE":"５７０巷","ALLEY":"８１弄","HOUSE_NO":"１５１號","E_COORD97":168806.10000000001,"N_COORD97":2550642.3300000001,"ADDRESS":"長溪路二段５７０巷８１弄１５１號","OBJECTID":169628},"geometry":{"x":168806.10000000056,"y":2550642.3300000001}},{"attributes":{"ID":169630,"DIS_CODE":0,"TOWNNAME":"安南區","LI":"鹿耳里","LIN":"8鄰","STREET":"北汕尾二路","SECT":" ","MAREA":" ","LANE":"５５０巷","ALLEY":"４７弄","HOUSE_NO":"１號","E_COORD97":160612.5,"N_COORD97":2548007.4900000002,"ADDRESS":"北汕尾二路５５０巷４７弄１號","OBJECTID":169629},"geometry":{"x":160612.50000000093,"y":2548007.4900000002}},{"attributes":{"ID":169631,"DIS_CODE":0,"TOWNNAME":"安南區","LI":"鹿耳里","LIN":"4鄰","STREET":"北汕尾二路","SECT":" ","MAREA":" ","LANE":"６６１巷","ALLEY":"２３弄","HOUSE_NO":"３８號","E_COORD97":160315.45999999999,"N_COORD97":2548565.4700000002,"ADDRESS":"北汕尾二路６６１巷２３弄３８號","OBJECTID":169630},"geometry":{"x":160315.45999999996,"y":2548565.4700000025}},{"attributes":{"ID":169632,"DIS_CODE":0,"TOWNNAME":"北門區","LI":"三光里","LIN":"13鄰","STREET":" ","SECT":" ","MAREA":"蘆竹溝","LANE":" ","ALLEY":" ","HOUSE_NO":"２６５號","E_COORD97":157786.17999999999,"N_COORD97":2570423.6200000001,"ADDRESS":"蘆竹溝２６５號","OBJECTID":169631},"geometry":{"x":157786.1799999997,"y":2570423.6200000029}},{"attributes":{"ID":169633,"DIS_CODE":0,"TOWNNAME":"北門區","LI":"三光里","LIN":"13鄰","STREET":" ","SECT":" ","MAREA":"蘆竹溝","LANE":" ","ALLEY":" ","HOUSE_NO":"２６６號","E_COORD97":157786.35000000001,"N_COORD97":2570426.6299999999,"ADDRESS":"蘆竹溝２６６號","OBJECTID":169632},"geometry":{"x":157786.34999999963,"y":2570426.6300000027}},{"attributes":{"ID":169634,"DIS_CODE":0,"TOWNNAME":"安南區","LI":"鹿耳里","LIN":"8鄰","STREET":"北汕尾二路","SECT":" ","MAREA":" ","LANE":"５５０巷","ALLEY":"４７弄","HOUSE_NO":"４號","E_COORD97":160621.78,"N_COORD97":2547998.98,"ADDRESS":"北汕尾二路５５０巷４７弄４號","OBJECTID":169633},"geometry":{"x":160621.78000000026,"y":2547998.9800000023}},{"attributes":{"ID":169635,"DIS_CODE":0,"TOWNNAME":"北門區","LI":"三光里","LIN":"13鄰","STREET":" ","SECT":" ","MAREA":"蘆竹溝","LANE":" ","ALLEY":" ","HOUSE_NO":"２６７號","E_COORD97":157734.35000000001,"N_COORD97":2570485.04,"ADDRESS":"蘆竹溝２６７號","OBJECTID":169634},"geometry":{"x":157734.35000000149,"y":2570485.0400000028}},{"attributes":{"ID":169636,"DIS_CODE":0,"TOWNNAME":"北門區","LI":"三光里","LIN":"13鄰","STREET":" ","SECT":" ","MAREA":"蘆竹溝","LANE":" ","ALLEY":" ","HOUSE_NO":"２６８號","E_COORD97":157768.34,"N_COORD97":2570430.9199999999,"ADDRESS":"蘆竹溝２６８號","OBJECTID":169635},"geometry":{"x":157768.33999999892,"y":2570430.9199999999}},{"attributes":{"ID":169637,"DIS_CODE":0,"TOWNNAME":"北門區","LI":"三光里","LIN":"13鄰","STREET":" ","SECT":" ","MAREA":"蘆竹溝","LANE":" ","ALLEY":" ","HOUSE_NO":"２６９號","E_COORD97":157768.39999999999,"N_COORD97":2570427.0299999998,"ADDRESS":"蘆竹溝２６９號","OBJECTID":169636},"geometry":{"x":157768.40000000037,"y":2570427.0299999993}},{"attributes":{"ID":169638,"DIS_CODE":0,"TOWNNAME":"北門區","LI":"三光里","LIN":"13鄰","STREET":" ","SECT":" ","MAREA":"蘆竹溝","LANE":" ","ALLEY":" ","HOUSE_NO":"２７０號","E_COORD97":157768.42000000001,"N_COORD97":2570422.8399999999,"ADDRESS":"蘆竹溝２７０號","OBJECTID":169637},"geometry":{"x":157768.42000000086,"y":2570422.8400000036}},{"attributes":{"ID":169639,"DIS_CODE":0,"TOWNNAME":"安南區","LI":"鹿耳里","LIN":"8鄰","STREET":"北汕尾二路","SECT":" ","MAREA":" ","LANE":"５５０巷","ALLEY":"４７弄","HOUSE_NO":"２號","E_COORD97":160618.73000000001,"N_COORD97":2548001.1400000001,"ADDRESS":"北汕尾二路５５０巷４７弄２號","OBJECTID":169638},"geometry":{"x":160618.73000000045,"y":2548001.1400000025}},{"attributes":{"ID":169640,"DIS_CODE":0,"TOWNNAME":"新營區","LI":"新南里","LIN":"12鄰","STREET":"新北七街","SECT":" ","MAREA":" ","LANE":" ","ALLEY":" ","HOUSE_NO":"５０號","E_COORD97":178487.85999999999,"N_COORD97":2579163.5699999998,"ADDRESS":"新北七街５０號","OBJECTID":169639},"geometry":{"x":178487.86000000127,"y":2579163.5700000022}},{"attributes":{"ID":169641,"DIS_CODE":0,"TOWNNAME":"新營區","LI":"新南里","LIN":"12鄰","STREET":"新北七街","SECT":" ","MAREA":" ","LANE":" ","ALLEY":" ","HOUSE_NO":"３６號","E_COORD97":178508.47,"N_COORD97":2579181.1899999999,"ADDRESS":"新北七街３６號","OBJECTID":169640},"geometry":{"x":178508.47000000067,"y":2579181.1900000013}},{"attributes":{"ID":169642,"DIS_CODE":0,"TOWNNAME":"安南區","LI":"鹿耳里","LIN":"4鄰","STREET":"北汕尾二路","SECT":" ","MAREA":" ","LANE":"６６１巷","ALLEY":"２３弄","HOUSE_NO":"４０號","E_COORD97":160310.13,"N_COORD97":2548565.98,"ADDRESS":"北汕尾二路６６１巷２３弄４０號","OBJECTID":169641},"geometry":{"x":160310.13000000082,"y":2548565.9800000023}},{"attributes":{"ID":169643,"DIS_CODE":0,"TOWNNAME":"安南區","LI":"鹿耳里","LIN":"4鄰","STREET":"北汕尾二路","SECT":" ","MAREA":" ","LANE":"６６１巷","ALLEY":"２３弄","HOUSE_NO":"４２號","E_COORD97":160304.16,"N_COORD97":2548565.8500000001,"ADDRESS":"北汕尾二路６６１巷２３弄４２號","OBJECTID":169642},"geometry":{"x":160304.16000000015,"y":2548565.8500000015}},{"attributes":{"ID":169644,"DIS_CODE":0,"TOWNNAME":"新營區","LI":"姑爺里","LIN":"12鄰","STREET":" ","SECT":" ","MAREA":"挖仔","LANE":" ","ALLEY":" ","HOUSE_NO":"５２號","E_COORD97":173910.67000000001,"N_COORD97":2575566.0800000001,"ADDRESS":"挖仔５２號","OBJECTID":169643},"geometry":{"x":173910.66999999993,"y":2575566.0800000019}},{"attributes":{"ID":169645,"DIS_CODE":0,"TOWNNAME":"安南區","LI":"鹿耳里","LIN":"4鄰","STREET":"北汕尾二路","SECT":" ","MAREA":" ","LANE":"６６１巷","ALLEY":"２３弄","HOUSE_NO":"４４號","E_COORD97":160298.57000000001,"N_COORD97":2548565.7200000002,"ADDRESS":"北汕尾二路６６１巷２３弄４４號","OBJECTID":169644},"geometry":{"x":160298.57000000123,"y":2548565.7200000007}},{"attributes":{"ID":169646,"DIS_CODE":0,"TOWNNAME":"新營區","LI":"五興里","LIN":"12鄰","STREET":" ","SECT":" ","MAREA":"五間厝","LANE":" ","ALLEY":" ","HOUSE_NO":"１３２號","E_COORD97":175463.07999999999,"N_COORD97":2574385.4100000001,"ADDRESS":"五間厝１３２號","OBJECTID":169645},"geometry":{"x":175463.07999999914,"y":2574385.4100000001}},{"attributes":{"ID":169647,"DIS_CODE":0,"TOWNNAME":"安南區","LI":"鹿耳里","LIN":"4鄰","STREET":"北汕尾二路","SECT":" ","MAREA":" ","LANE":"６６１巷","ALLEY":"２３弄","HOUSE_NO":"４８號","E_COORD97":160286.38,"N_COORD97":2548565.3399999999,"ADDRESS":"北汕尾二路６６１巷２３弄４８號","OBJECTID":169646},"geometry":{"x":160286.38000000082,"y":2548565.3400000017}},{"attributes":{"ID":169648,"DIS_CODE":0,"TOWNNAME":"新營區","LI":"五興里","LIN":"12鄰","STREET":" ","SECT":" ","MAREA":"五間厝","LANE":" ","ALLEY":" ","HOUSE_NO":"１２９號","E_COORD97":175451.38,"N_COORD97":2574295.7599999998,"ADDRESS":"五間厝１２９號","OBJECTID":169647},"geometry":{"x":175451.38000000082,"y":2574295.7600000016}},{"attributes":{"ID":169649,"DIS_CODE":0,"TOWNNAME":"安南區","LI":"鹿耳里","LIN":"4鄰","STREET":"北汕尾二路","SECT":" ","MAREA":" ","LANE":"６６１巷","ALLEY":"２３弄","HOUSE_NO":"５０號","E_COORD97":160280.79000000001,"N_COORD97":2548565.7200000002,"ADDRESS":"北汕尾二路６６１巷２３弄５０號","OBJECTID":169648},"geometry":{"x":160280.79000000004,"y":2548565.7200000007}},{"attributes":{"ID":169650,"DIS_CODE":0,"TOWNNAME":"北門區","LI":"三光里","LIN":"13鄰","STREET":" ","SECT":" ","MAREA":"蘆竹溝","LANE":" ","ALLEY":" ","HOUSE_NO":"２７１號","E_COORD97":157768.39000000001,"N_COORD97":2570418.9100000001,"ADDRESS":"蘆竹溝２７１號","OBJECTID":169649},"geometry":{"x":157768.3900000006,"y":2570418.9099999983}},{"attributes":{"ID":169651,"DIS_CODE":0,"TOWNNAME":"北門區","LI":"三光里","LIN":"13鄰","STREET":" ","SECT":" ","MAREA":"蘆竹溝","LANE":" ","ALLEY":" ","HOUSE_NO":"２７２號","E_COORD97":157768.38,"N_COORD97":2570414.8300000001,"ADDRESS":"蘆竹溝２７２號","OBJECTID":169650},"geometry":{"x":157768.38000000082,"y":2570414.8300000001}},{"attributes":{"ID":169652,"DIS_CODE":0,"TOWNNAME":"北門區","LI":"三光里","LIN":"13鄰","STREET":" ","SECT":" ","MAREA":"蘆竹溝","LANE":" ","ALLEY":" ","HOUSE_NO":"２７３號","E_COORD97":157768.35999999999,"N_COORD97":2570410.75,"ADDRESS":"蘆竹溝２７３號","OBJECTID":169651},"geometry":{"x":157768.36000000034,"y":2570410.7500000019}},{"attributes":{"ID":169653,"DIS_CODE":0,"TOWNNAME":"北門區","LI":"三光里","LIN":"13鄰","STREET":" ","SECT":" ","MAREA":"蘆竹溝","LANE":" ","ALLEY":" ","HOUSE_NO":"２７４號","E_COORD97":157767.38,"N_COORD97":2570396.6699999999,"ADDRESS":"蘆竹溝２７４號","OBJECTID":169652},"geometry":{"x":157767.38000000082,"y":2570396.6700000037}},{"attributes":{"ID":169654,"DIS_CODE":0,"TOWNNAME":"北門區","LI":"三光里","LIN":"13鄰","STREET":" ","SECT":" ","MAREA":"蘆竹溝","LANE":" ","ALLEY":" ","HOUSE_NO":"２７５號","E_COORD97":157767.23000000001,"N_COORD97":2570392.5800000001,"ADDRESS":"蘆竹溝２７５號","OBJECTID":169653},"geometry":{"x":157767.23000000138,"y":2570392.5800000001}},{"attributes":{"ID":169655,"DIS_CODE":0,"TOWNNAME":"北門區","LI":"三光里","LIN":"13鄰","STREET":" ","SECT":" ","MAREA":"蘆竹溝","LANE":" ","ALLEY":" ","HOUSE_NO":"２７６號","E_COORD97":157767.09,"N_COORD97":2570388.48,"ADDRESS":"蘆竹溝２７６號","OBJECTID":169654},"geometry":{"x":157767.09000000078,"y":2570388.4800000042}},{"attributes":{"ID":169656,"DIS_CODE":0,"TOWNNAME":"北門區","LI":"三光里","LIN":"13鄰","STREET":" ","SECT":" ","MAREA":"蘆竹溝","LANE":" ","ALLEY":" ","HOUSE_NO":"２７７號","E_COORD97":157766.94,"N_COORD97":2570384.3900000001,"ADDRESS":"蘆竹溝２７７號","OBJECTID":169655},"geometry":{"x":157766.94000000134,"y":2570384.3900000006}},{"attributes":{"ID":169657,"DIS_CODE":0,"TOWNNAME":"新營區","LI":"三仙里","LIN":"12鄰","STREET":"武昌街","SECT":" ","MAREA":" ","LANE":" ","ALLEY":" ","HOUSE_NO":"５３之１號","E_COORD97":179633.85999999999,"N_COORD97":2578298.75,"ADDRESS":"武昌街５３之１號","OBJECTID":169656},"geometry":{"x":179633.86000000127,"y":2578298.75}},{"attributes":{"ID":169658,"DIS_CODE":0,"TOWNNAME":"北門區","LI":"三光里","LIN":"13鄰","STREET":" ","SECT":" ","MAREA":"蘆竹溝","LANE":" ","ALLEY":" ","HOUSE_NO":"２７８號","E_COORD97":157766.79999999999,"N_COORD97":2570380.2999999998,"ADDRESS":"蘆竹溝２７８號","OBJECTID":169657},"geometry":{"x":157766.79999999981,"y":2570380.3000000026}},{"attributes":{"ID":169659,"DIS_CODE":0,"TOWNNAME":"北門區","LI":"三光里","LIN":"13鄰","STREET":" ","SECT":" ","MAREA":"蘆竹溝","LANE":" ","ALLEY":" ","HOUSE_NO":"２７９號","E_COORD97":157766.64999999999,"N_COORD97":2570376.2000000002,"ADDRESS":"蘆竹溝２７９號","OBJECTID":169658},"geometry":{"x":157766.65000000037,"y":2570376.2000000011}},{"attributes":{"ID":169660,"DIS_CODE":0,"TOWNNAME":"北門區","LI":"三光里","LIN":"13鄰","STREET":" ","SECT":" ","MAREA":"蘆竹溝","LANE":" ","ALLEY":" ","HOUSE_NO":"２８０號","E_COORD97":157741.56,"N_COORD97":2570401.3700000001,"ADDRESS":"蘆竹溝２８０號","OBJECTID":169659},"geometry":{"x":157741.56000000052,"y":2570401.3700000029}},{"attributes":{"ID":169661,"DIS_CODE":0,"TOWNNAME":"北門區","LI":"三光里","LIN":"13鄰","STREET":" ","SECT":" ","MAREA":"蘆竹溝","LANE":" ","ALLEY":" ","HOUSE_NO":"２８２號","E_COORD97":157744.72,"N_COORD97":2570426.3399999999,"ADDRESS":"蘆竹溝２８２號","OBJECTID":169660},"geometry":{"x":157744.71999999974,"y":2570426.3400000017}},{"attributes":{"ID":169662,"DIS_CODE":0,"TOWNNAME":"北門區","LI":"三光里","LIN":"13鄰","STREET":" ","SECT":" ","MAREA":"蘆竹溝","LANE":" ","ALLEY":" ","HOUSE_NO":"２８５號","E_COORD97":157723.25,"N_COORD97":2570431.5299999998,"ADDRESS":"蘆竹溝２８５號","OBJECTID":169661},"geometry":{"x":157723.25,"y":2570431.5300000012}},{"attributes":{"ID":169663,"DIS_CODE":0,"TOWNNAME":"安南區","LI":"鹿耳里","LIN":"4鄰","STREET":"北汕尾二路","SECT":" ","MAREA":" ","LANE":"６６１巷","ALLEY":"２３弄","HOUSE_NO":"５４號","E_COORD97":160269.48999999999,"N_COORD97":2548564.5800000001,"ADDRESS":"北汕尾二路６６１巷２３弄５４號","OBJECTID":169662},"geometry":{"x":160269.49000000022,"y":2548564.5800000019}},{"attributes":{"ID":169664,"DIS_CODE":0,"TOWNNAME":"安南區","LI":"海東里","LIN":"24鄰","STREET":"同安路","SECT":" ","MAREA":" ","LANE":"２２５巷","ALLEY":"５９弄","HOUSE_NO":"２號","E_COORD97":167071.25,"N_COORD97":2549229.6200000001,"ADDRESS":"同安路２２５巷５９弄２號","OBJECTID":169663},"geometry":{"x":167071.25000000093,"y":2549229.6200000029}},{"attributes":{"ID":169665,"DIS_CODE":0,"TOWNNAME":"北門區","LI":"三光里","LIN":"13鄰","STREET":" ","SECT":" ","MAREA":"蘆竹溝","LANE":" ","ALLEY":" ","HOUSE_NO":"２８６號","E_COORD97":157695.20999999999,"N_COORD97":2570437.52,"ADDRESS":"蘆竹溝２８６號","OBJECTID":169664},"geometry":{"x":157695.21000000089,"y":2570437.5199999996}},{"attributes":{"ID":169666,"DIS_CODE":0,"TOWNNAME":"安南區","LI":"海東里","LIN":"24鄰","STREET":"同安路","SECT":" ","MAREA":" ","LANE":"２２５巷","ALLEY":"５９弄","HOUSE_NO":"６號","E_COORD97":167068.79000000001,"N_COORD97":2549225.6299999999,"ADDRESS":"同安路２２５巷５９弄６號","OBJECTID":169665},"geometry":{"x":167068.7900000019,"y":2549225.629999999}},{"attributes":{"ID":169667,"DIS_CODE":0,"TOWNNAME":"北門區","LI":"三光里","LIN":"13鄰","STREET":" ","SECT":" ","MAREA":"蘆竹溝","LANE":" ","ALLEY":" ","HOUSE_NO":"２８７號","E_COORD97":157699.20999999999,"N_COORD97":2570427.02,"ADDRESS":"蘆竹溝２８７號","OBJECTID":169666},"geometry":{"x":157699.20999999996,"y":2570427.0199999996}},{"attributes":{"ID":169668,"DIS_CODE":0,"TOWNNAME":"北門區","LI":"慈安里","LIN":"13鄰","STREET":" ","SECT":" ","MAREA":"三寮灣","LANE":" ","ALLEY":" ","HOUSE_NO":"５５４號","E_COORD97":159176.82999999999,"N_COORD97":2571033.2400000002,"ADDRESS":"三寮灣５５４號","OBJECTID":169667},"geometry":{"x":159176.83000000007,"y":2571033.2400000002}},{"attributes":{"ID":169669,"DIS_CODE":0,"TOWNNAME":"北門區","LI":"慈安里","LIN":"13鄰","STREET":" ","SECT":" ","MAREA":"三寮灣","LANE":" ","ALLEY":" ","HOUSE_NO":"５５６號","E_COORD97":159167.38,"N_COORD97":2571074.6499999999,"ADDRESS":"三寮灣５５６號","OBJECTID":169668},"geometry":{"x":159167.38000000082,"y":2571074.6500000004}},{"attributes":{"ID":169670,"DIS_CODE":0,"TOWNNAME":"北門區","LI":"慈安里","LIN":"13鄰","STREET":" ","SECT":" ","MAREA":"三寮灣","LANE":" ","ALLEY":" ","HOUSE_NO":"５５８號","E_COORD97":159165.17999999999,"N_COORD97":2571097.9900000002,"ADDRESS":"三寮灣５５８號","OBJECTID":169669},"geometry":{"x":159165.18000000063,"y":2571097.9900000021}},{"attributes":{"ID":169671,"DIS_CODE":0,"TOWNNAME":"北門區","LI":"慈安里","LIN":"13鄰","STREET":" ","SECT":" ","MAREA":"三寮灣","LANE":" ","ALLEY":" ","HOUSE_NO":"５５９號","E_COORD97":159174.73000000001,"N_COORD97":2571113.5899999999,"ADDRESS":"三寮灣５５９號","OBJECTID":169670},"geometry":{"x":159174.73000000045,"y":2571113.5900000017}},{"attributes":{"ID":169672,"DIS_CODE":0,"TOWNNAME":"東山區","LI":"東原里","LIN":"12鄰","STREET":" ","SECT":" ","MAREA":"班芝花坑","LANE":" ","ALLEY":" ","HOUSE_NO":"８號之１","E_COORD97":192666.88,"N_COORD97":2575692.3100000001,"ADDRESS":"班芝花坑８號之１","OBJECTID":169671},"geometry":{"x":192666.87999999989,"y":2575692.3100000042}},{"attributes":{"ID":169673,"DIS_CODE":0,"TOWNNAME":"東山區","LI":"東原里","LIN":"12鄰","STREET":" ","SECT":" ","MAREA":"班芝花坑","LANE":" ","ALLEY":" ","HOUSE_NO":"８號之２","E_COORD97":192656.04000000001,"N_COORD97":2575723.5899999999,"ADDRESS":"班芝花坑８號之２","OBJECTID":169672},"geometry":{"x":192656.0400000019,"y":2575723.5900000036}},{"attributes":{"ID":169674,"DIS_CODE":0,"TOWNNAME":"東山區","LI":"東原里","LIN":"12鄰","STREET":" ","SECT":" ","MAREA":"班芝花坑","LANE":" ","ALLEY":" ","HOUSE_NO":"８號之３","E_COORD97":192651.76000000001,"N_COORD97":2575724.9399999999,"ADDRESS":"班芝花坑８號之３","OBJECTID":169673},"geometry":{"x":192651.75999999978,"y":2575724.9400000013}},{"attributes":{"ID":169675,"DIS_CODE":0,"TOWNNAME":"東山區","LI":"東原里","LIN":"12鄰","STREET":" ","SECT":" ","MAREA":"班芝花坑","LANE":" ","ALLEY":" ","HOUSE_NO":"８號之６","E_COORD97":192674.73000000001,"N_COORD97":2575724.8900000001,"ADDRESS":"班芝花坑８號之６","OBJECTID":169674},"geometry":{"x":192674.73000000045,"y":2575724.8900000006}},{"attributes":{"ID":169676,"DIS_CODE":0,"TOWNNAME":"東山區","LI":"東原里","LIN":"12鄰","STREET":" ","SECT":" ","MAREA":"班芝花坑","LANE":" ","ALLEY":" ","HOUSE_NO":"８號","E_COORD97":192682.82999999999,"N_COORD97":2575669.27,"ADDRESS":"班芝花坑８號","OBJECTID":169675},"geometry":{"x":192682.83000000194,"y":2575669.2700000014}},{"attributes":{"ID":169677,"DIS_CODE":0,"TOWNNAME":"東山區","LI":"東原里","LIN":"12鄰","STREET":" ","SECT":" ","MAREA":"班芝花坑","LANE":" ","ALLEY":" ","HOUSE_NO":"９號","E_COORD97":192591.04000000001,"N_COORD97":2575736.6299999999,"ADDRESS":"班芝花坑９號","OBJECTID":169676},"geometry":{"x":192591.04000000004,"y":2575736.6300000008}},{"attributes":{"ID":169678,"DIS_CODE":0,"TOWNNAME":"東山區","LI":"高原里","LIN":"12鄰","STREET":" ","SECT":" ","MAREA":"高原","LANE":" ","ALLEY":" ","HOUSE_NO":"１０１號","E_COORD97":199894.89999999999,"N_COORD97":2576047.7799999998,"ADDRESS":"高原１０１號","OBJECTID":169677},"geometry":{"x":199894.9000000013,"y":2576047.7800000012}},{"attributes":{"ID":169679,"DIS_CODE":0,"TOWNNAME":"東山區","LI":"高原里","LIN":"12鄰","STREET":" ","SECT":" ","MAREA":"高原","LANE":" ","ALLEY":" ","HOUSE_NO":"１０２號之１","E_COORD97":200057.98999999999,"N_COORD97":2576154.8700000001,"ADDRESS":"高原１０２號之１","OBJECTID":169678},"geometry":{"x":200057.99000000115,"y":2576154.8700000029}},{"attributes":{"ID":169680,"DIS_CODE":0,"TOWNNAME":"安南區","LI":"安順里","LIN":"14鄰","STREET":"總安街","SECT":"一段","MAREA":" ","LANE":"１４６巷","ALLEY":"１４２弄","HOUSE_NO":"７號","E_COORD97":169672.57000000001,"N_COORD97":2550482.9199999999,"ADDRESS":"總安街一段１４６巷１４２弄７號","OBJECTID":169679},"geometry":{"x":169672.56999999937,"y":2550482.9199999999}},{"attributes":{"ID":169681,"DIS_CODE":0,"TOWNNAME":"東山區","LI":"高原里","LIN":"12鄰","STREET":" ","SECT":" ","MAREA":"高原","LANE":" ","ALLEY":" ","HOUSE_NO":"１０２號","E_COORD97":200083.51999999999,"N_COORD97":2576135.5600000001,"ADDRESS":"高原１０２號","OBJECTID":169680},"geometry":{"x":200083.51999999955,"y":2576135.5600000024}},{"attributes":{"ID":169682,"DIS_CODE":0,"TOWNNAME":"東山區","LI":"高原里","LIN":"12鄰","STREET":" ","SECT":" ","MAREA":"高原","LANE":" ","ALLEY":" ","HOUSE_NO":"１０４之２號","E_COORD97":200127.16,"N_COORD97":2575765.5099999998,"ADDRESS":"高原１０４之２號","OBJECTID":169681},"geometry":{"x":200127.16000000015,"y":2575765.5100000016}},{"attributes":{"ID":169683,"DIS_CODE":0,"TOWNNAME":"安南區","LI":"安順里","LIN":"14鄰","STREET":"總安街","SECT":"一段","MAREA":" ","LANE":"１４６巷","ALLEY":"１４２弄","HOUSE_NO":"２號","E_COORD97":169658.76000000001,"N_COORD97":2550474.3500000001,"ADDRESS":"總安街一段１４６巷１４２弄２號","OBJECTID":169682},"geometry":{"x":169658.75999999978,"y":2550474.3500000015}},{"attributes":{"ID":169684,"DIS_CODE":0,"TOWNNAME":"東山區","LI":"高原里","LIN":"12鄰","STREET":" ","SECT":" ","MAREA":"高原","LANE":" ","ALLEY":" ","HOUSE_NO":"１０４號","E_COORD97":200184.01999999999,"N_COORD97":2576063.6699999999,"ADDRESS":"高原１０４號","OBJECTID":169683},"geometry":{"x":200184.02000000142,"y":2576063.6700000018}},{"attributes":{"ID":169685,"DIS_CODE":0,"TOWNNAME":"東區","LI":"富強里","LIN":"18鄰","STREET":"裕農路","SECT":" ","MAREA":" ","LANE":"２８８巷","ALLEY":"１９６弄","HOUSE_NO":"３號","E_COORD97":171062.76000000001,"N_COORD97":2542830.8999999999,"ADDRESS":"裕農路２８８巷１９６弄３號","OBJECTID":169684},"geometry":{"x":171062.76000000071,"y":2542830.9000000004}},{"attributes":{"ID":169686,"DIS_CODE":0,"TOWNNAME":"東區","LI":"忠孝里","LIN":"7鄰","STREET":"中華東路","SECT":"三段","MAREA":" ","LANE":"３８０巷","ALLEY":"５５弄","HOUSE_NO":"３０號","E_COORD97":169905.64999999999,"N_COORD97":2541676.4500000002,"ADDRESS":"中華東路三段３８０巷５５弄３０號","OBJECTID":169685},"geometry":{"x":169905.65000000037,"y":2541676.4499999993}},{"attributes":{"ID":169687,"DIS_CODE":0,"TOWNNAME":"東山區","LI":"高原里","LIN":"12鄰","STREET":" ","SECT":" ","MAREA":"高原","LANE":" ","ALLEY":" ","HOUSE_NO":"１０６號之１","E_COORD97":200587.63,"N_COORD97":2576214.1400000001,"ADDRESS":"高原１０６號之１","OBJECTID":169686},"geometry":{"x":200587.63000000082,"y":2576214.1400000006}},{"attributes":{"ID":169688,"DIS_CODE":0,"TOWNNAME":"關廟區","LI":"北花里","LIN":"12鄰","STREET":"園中街","SECT":" ","MAREA":" ","LANE":"５巷","ALLEY":" ","HOUSE_NO":"３６號","E_COORD97":181677.56,"N_COORD97":2540232.25,"ADDRESS":"園中街５巷３６號","OBJECTID":169687},"geometry":{"x":181677.56000000052,"y":2540232.2500000037}},{"attributes":{"ID":169689,"DIS_CODE":0,"TOWNNAME":"西港區","LI":"慶安里","LIN":"15鄰","STREET":"慶安路","SECT":" ","MAREA":" ","LANE":" ","ALLEY":" ","HOUSE_NO":"１５４號","E_COORD97":167994.35000000001,"N_COORD97":2557894.6099999999,"ADDRESS":"慶安路１５４號","OBJECTID":169688},"geometry":{"x":167994.35000000056,"y":2557894.6099999994}},{"attributes":{"ID":169690,"DIS_CODE":0,"TOWNNAME":"西港區","LI":"慶安里","LIN":"15鄰","STREET":"慶安路","SECT":" ","MAREA":" ","LANE":" ","ALLEY":" ","HOUSE_NO":"１５６號","E_COORD97":167989.73000000001,"N_COORD97":2557894.3199999998,"ADDRESS":"慶安路１５６號","OBJECTID":169689},"geometry":{"x":167989.73000000045,"y":2557894.3200000003}},{"attributes":{"ID":169691,"DIS_CODE":0,"TOWNNAME":"西港區","LI":"慶安里","LIN":"15鄰","STREET":"慶安路","SECT":" ","MAREA":" ","LANE":" ","ALLEY":" ","HOUSE_NO":"１６０號","E_COORD97":167981.31,"N_COORD97":2557893.1099999999,"ADDRESS":"慶安路１６０號","OBJECTID":169690},"geometry":{"x":167981.30999999959,"y":2557893.1100000031}},{"attributes":{"ID":169692,"DIS_CODE":0,"TOWNNAME":"關廟區","LI":"山西里","LIN":"12鄰","STREET":"崇尚街","SECT":" ","MAREA":" ","LANE":" ","ALLEY":" ","HOUSE_NO":"１號","E_COORD97":181072.37,"N_COORD97":2540495.25,"ADDRESS":"崇尚街１號","OBJECTID":169691},"geometry":{"x":181072.37000000197,"y":2540495.25}},{"attributes":{"ID":169693,"DIS_CODE":0,"TOWNNAME":"東區","LI":"忠孝里","LIN":"7鄰","STREET":"中華東路","SECT":"三段","MAREA":" ","LANE":"３８０巷","ALLEY":"５５弄","HOUSE_NO":"３２號","E_COORD97":169903.07999999999,"N_COORD97":2541674.9100000001,"ADDRESS":"中華東路三段３８０巷５５弄３２號","OBJECTID":169692},"geometry":{"x":169903.08000000101,"y":2541674.9100000001}},{"attributes":{"ID":169694,"DIS_CODE":0,"TOWNNAME":"東區","LI":"忠孝里","LIN":"31鄰","STREET":"中華東路","SECT":"三段","MAREA":" ","LANE":"４５２巷","ALLEY":"８弄","HOUSE_NO":"６號","E_COORD97":169925.07999999999,"N_COORD97":2541605.79,"ADDRESS":"中華東路三段４５２巷８弄６號","OBJECTID":169693},"geometry":{"x":169925.08000000194,"y":2541605.7899999991}},{"attributes":{"ID":169695,"DIS_CODE":0,"TOWNNAME":"東區","LI":"忠孝里","LIN":"28鄰","STREET":"中華東路","SECT":"三段","MAREA":" ","LANE":"３８０巷","ALLEY":"５５弄","HOUSE_NO":"２９號","E_COORD97":169919.75,"N_COORD97":2541663.8799999999,"ADDRESS":"中華東路三段３８０巷５５弄２９號","OBJECTID":169694},"geometry":{"x":169919.75,"y":2541663.879999999}},{"attributes":{"ID":169696,"DIS_CODE":0,"TOWNNAME":"東區","LI":"忠孝里","LIN":"28鄰","STREET":"中華東路","SECT":"三段","MAREA":" ","LANE":"３８０巷","ALLEY":"５５弄","HOUSE_NO":"３１號","E_COORD97":169915.79999999999,"N_COORD97":2541661.5499999998,"ADDRESS":"中華東路三段３８０巷５５弄３１號","OBJECTID":169695},"geometry":{"x":169915.79999999981,"y":2541661.5500000045}},{"attributes":{"ID":169697,"DIS_CODE":0,"TOWNNAME":"北門區","LI":"慈安里","LIN":"13鄰","STREET":" ","SECT":" ","MAREA":"三寮灣","LANE":" ","ALLEY":" ","HOUSE_NO":"５６０號","E_COORD97":159161.73000000001,"N_COORD97":2571130.4300000002,"ADDRESS":"三寮灣５６０號","OBJECTID":169696},"geometry":{"x":159161.73000000231,"y":2571130.4300000034}},{"attributes":{"ID":169698,"DIS_CODE":0,"TOWNNAME":"北門區","LI":"慈安里","LIN":"13鄰","STREET":" ","SECT":" ","MAREA":"三寮灣","LANE":" ","ALLEY":" ","HOUSE_NO":"５６１號","E_COORD97":159161.37,"N_COORD97":2571135.23,"ADDRESS":"三寮灣５６１號","OBJECTID":169697},"geometry":{"x":159161.37000000011,"y":2571135.2300000004}},{"attributes":{"ID":169699,"DIS_CODE":0,"TOWNNAME":"北門區","LI":"慈安里","LIN":"13鄰","STREET":" ","SECT":" ","MAREA":"三寮灣","LANE":" ","ALLEY":" ","HOUSE_NO":"５６５號","E_COORD97":159190.42000000001,"N_COORD97":2571139.6899999999,"ADDRESS":"三寮灣５６５號","OBJECTID":169698},"geometry":{"x":159190.42000000086,"y":2571139.6900000013}},{"attributes":{"ID":169700,"DIS_CODE":0,"TOWNNAME":"北門區","LI":"慈安里","LIN":"13鄰","STREET":" ","SECT":" ","MAREA":"三寮灣","LANE":" ","ALLEY":" ","HOUSE_NO":"５６７號","E_COORD97":159202.51000000001,"N_COORD97":2571110.2999999998,"ADDRESS":"三寮灣５６７號","OBJECTID":169699},"geometry":{"x":159202.50999999978,"y":2571110.3000000026}},{"attributes":{"ID":169701,"DIS_CODE":0,"TOWNNAME":"北門區","LI":"慈安里","LIN":"13鄰","STREET":" ","SECT":" ","MAREA":"三寮灣","LANE":" ","ALLEY":" ","HOUSE_NO":"５６８號","E_COORD97":159202.82000000001,"N_COORD97":2571091.1899999999,"ADDRESS":"三寮灣５６８號","OBJECTID":169700},"geometry":{"x":159202.8200000003,"y":2571091.1900000032}},{"attributes":{"ID":169702,"DIS_CODE":0,"TOWNNAME":"北門區","LI":"慈安里","LIN":"13鄰","STREET":" ","SECT":" ","MAREA":"三寮灣","LANE":" ","ALLEY":" ","HOUSE_NO":"５７０號","E_COORD97":159191.10999999999,"N_COORD97":2571064.7000000002,"ADDRESS":"三寮灣５７０號","OBJECTID":169701},"geometry":{"x":159191.1100000022,"y":2571064.7000000011}},{"attributes":{"ID":169703,"DIS_CODE":0,"TOWNNAME":"北門區","LI":"慈安里","LIN":"13鄰","STREET":" ","SECT":" ","MAREA":"三寮灣","LANE":" ","ALLEY":" ","HOUSE_NO":"５７１號","E_COORD97":159183.84,"N_COORD97":2571035.75,"ADDRESS":"三寮灣５７１號","OBJECTID":169702},"geometry":{"x":159183.83999999892,"y":2571035.75}},{"attributes":{"ID":169704,"DIS_CODE":0,"TOWNNAME":"關廟區","LI":"五甲里","LIN":"12鄰","STREET":"東興一街","SECT":" ","MAREA":" ","LANE":" ","ALLEY":" ","HOUSE_NO":"１５號","E_COORD97":181236.47,"N_COORD97":2539590.25,"ADDRESS":"東興一街１５號","OBJECTID":169703},"geometry":{"x":181236.47000000067,"y":2539590.25}},{"attributes":{"ID":169705,"DIS_CODE":0,"TOWNNAME":"北門區","LI":"保吉里","LIN":"13鄰","STREET":" ","SECT":" ","MAREA":"蚵寮","LANE":" ","ALLEY":" ","HOUSE_NO":"３１５號","E_COORD97":161573.82000000001,"N_COORD97":2576191.8300000001,"ADDRESS":"蚵寮３１５號","OBJECTID":169704},"geometry":{"x":161573.82000000123,"y":2576191.8300000001}},{"attributes":{"ID":169706,"DIS_CODE":0,"TOWNNAME":"北門區","LI":"保吉里","LIN":"13鄰","STREET":" ","SECT":" ","MAREA":"蚵寮","LANE":" ","ALLEY":" ","HOUSE_NO":"３１６號","E_COORD97":161578.97,"N_COORD97":2576193.6800000002,"ADDRESS":"蚵寮３１６號","OBJECTID":169705},"geometry":{"x":161578.97000000067,"y":2576193.6799999997}},{"attributes":{"ID":169707,"DIS_CODE":0,"TOWNNAME":"北門區","LI":"保吉里","LIN":"13鄰","STREET":" ","SECT":" ","MAREA":"蚵寮","LANE":" ","ALLEY":" ","HOUSE_NO":"３１７號","E_COORD97":161564.64999999999,"N_COORD97":2576186.8900000001,"ADDRESS":"蚵寮３１７號","OBJECTID":169706},"geometry":{"x":161564.6500000013,"y":2576186.8900000043}},{"attributes":{"ID":169708,"DIS_CODE":0,"TOWNNAME":"北門區","LI":"保吉里","LIN":"13鄰","STREET":" ","SECT":" ","MAREA":"蚵寮","LANE":" ","ALLEY":" ","HOUSE_NO":"３１９號","E_COORD97":161562.67000000001,"N_COORD97":2576199.5899999999,"ADDRESS":"蚵寮３１９號","OBJECTID":169707},"geometry":{"x":161562.67000000086,"y":2576199.5900000017}},{"attributes":{"ID":169709,"DIS_CODE":0,"TOWNNAME":"北門區","LI":"保吉里","LIN":"13鄰","STREET":" ","SECT":" ","MAREA":"蚵寮","LANE":" ","ALLEY":" ","HOUSE_NO":"３２０號","E_COORD97":161564.04000000001,"N_COORD97":2576214.1400000001,"ADDRESS":"蚵寮３２０號","OBJECTID":169708},"geometry":{"x":161564.04000000004,"y":2576214.1400000006}},{"attributes":{"ID":169710,"DIS_CODE":0,"TOWNNAME":"北門區","LI":"保吉里","LIN":"13鄰","STREET":" ","SECT":" ","MAREA":"蚵寮","LANE":" ","ALLEY":" ","HOUSE_NO":"３２１號","E_COORD97":161556.17000000001,"N_COORD97":2576223.1600000001,"ADDRESS":"蚵寮３２１號","OBJECTID":169709},"geometry":{"x":161556.16999999993,"y":2576223.160000002}},{"attributes":{"ID":169711,"DIS_CODE":0,"TOWNNAME":"北門區","LI":"保吉里","LIN":"13鄰","STREET":" ","SECT":" ","MAREA":"蚵寮","LANE":" ","ALLEY":" ","HOUSE_NO":"３２３號","E_COORD97":161541.59,"N_COORD97":2576205.9300000002,"ADDRESS":"蚵寮３２３號","OBJECTID":169710},"geometry":{"x":161541.58999999985,"y":2576205.9300000034}},{"attributes":{"ID":169712,"DIS_CODE":0,"TOWNNAME":"北門區","LI":"保吉里","LIN":"13鄰","STREET":" ","SECT":" ","MAREA":"蚵寮","LANE":" ","ALLEY":" ","HOUSE_NO":"３２４之１號","E_COORD97":161547.57999999999,"N_COORD97":2576189.3399999999,"ADDRESS":"蚵寮３２４之１號","OBJECTID":169711},"geometry":{"x":161547.58000000101,"y":2576189.3399999999}},{"attributes":{"ID":169713,"DIS_CODE":0,"TOWNNAME":"北門區","LI":"保吉里","LIN":"13鄰","STREET":" ","SECT":" ","MAREA":"蚵寮","LANE":" ","ALLEY":" ","HOUSE_NO":"３２４號","E_COORD97":161552.62,"N_COORD97":2576183.79,"ADDRESS":"蚵寮３２４號","OBJECTID":169712},"geometry":{"x":161552.62000000104,"y":2576183.790000001}},{"attributes":{"ID":169714,"DIS_CODE":0,"TOWNNAME":"關廟區","LI":"五甲里","LIN":"12鄰","STREET":"南雄路","SECT":"一段","MAREA":" ","LANE":" ","ALLEY":" ","HOUSE_NO":"９８６號","E_COORD97":181199.69,"N_COORD97":2539539.2799999998,"ADDRESS":"南雄路一段９８６號","OBJECTID":169713},"geometry":{"x":181199.69000000134,"y":2539539.2799999993}},{"attributes":{"ID":169715,"DIS_CODE":0,"TOWNNAME":"關廟區","LI":"五甲里","LIN":"12鄰","STREET":"東興一街","SECT":" ","MAREA":" ","LANE":" ","ALLEY":" ","HOUSE_NO":"７號","E_COORD97":181229.82000000001,"N_COORD97":2539606.25,"ADDRESS":"東興一街７號","OBJECTID":169714},"geometry":{"x":181229.8200000003,"y":2539606.2500000019}},{"attributes":{"ID":169716,"DIS_CODE":0,"TOWNNAME":"關廟區","LI":"五甲里","LIN":"12鄰","STREET":"東興一街","SECT":" ","MAREA":" ","LANE":" ","ALLEY":" ","HOUSE_NO":"１２號","E_COORD97":181219.57000000001,"N_COORD97":2539601.25,"ADDRESS":"東興一街１２號","OBJECTID":169715},"geometry":{"x":181219.5700000003,"y":2539601.2499999981}},{"attributes":{"ID":169717,"DIS_CODE":0,"TOWNNAME":"北門區","LI":"保吉里","LIN":"13鄰","STREET":" ","SECT":" ","MAREA":"蚵寮","LANE":" ","ALLEY":" ","HOUSE_NO":"３２６號","E_COORD97":161529.01000000001,"N_COORD97":2576161.3700000001,"ADDRESS":"蚵寮３２６號","OBJECTID":169716},"geometry":{"x":161529.01000000071,"y":2576161.3700000029}},{"attributes":{"ID":169718,"DIS_CODE":0,"TOWNNAME":"關廟區","LI":"北勢里","LIN":"12鄰","STREET":"成功路","SECT":" ","MAREA":" ","LANE":" ","ALLEY":" ","HOUSE_NO":"２７８號","E_COORD97":181449.47,"N_COORD97":2540491.27,"ADDRESS":"成功路２７８號","OBJECTID":169717},"geometry":{"x":181449.47000000067,"y":2540491.2699999996}},{"attributes":{"ID":169719,"DIS_CODE":0,"TOWNNAME":"關廟區","LI":"山西里","LIN":"12鄰","STREET":"崇尚街","SECT":" ","MAREA":" ","LANE":" ","ALLEY":" ","HOUSE_NO":"２７號","E_COORD97":181022.51999999999,"N_COORD97":2540520.25,"ADDRESS":"崇尚街２７號","OBJECTID":169718},"geometry":{"x":181022.51999999955,"y":2540520.2500000037}},{"attributes":{"ID":169720,"DIS_CODE":0,"TOWNNAME":"北門區","LI":"保吉里","LIN":"13鄰","STREET":" ","SECT":" ","MAREA":"蚵寮","LANE":" ","ALLEY":" ","HOUSE_NO":"３２７號","E_COORD97":161522.32000000001,"N_COORD97":2576179.2400000002,"ADDRESS":"蚵寮３２７號","OBJECTID":169719},"geometry":{"x":161522.32000000216,"y":2576179.2400000002}},{"attributes":{"ID":169721,"DIS_CODE":0,"TOWNNAME":"北門區","LI":"保吉里","LIN":"13鄰","STREET":" ","SECT":" ","MAREA":"蚵寮","LANE":" ","ALLEY":" ","HOUSE_NO":"３２９號","E_COORD97":161525,"N_COORD97":2576193.29,"ADDRESS":"蚵寮３２９號","OBJECTID":169720},"geometry":{"x":161525,"y":2576193.290000001}},{"attributes":{"ID":169722,"DIS_CODE":0,"TOWNNAME":"北門區","LI":"保吉里","LIN":"13鄰","STREET":" ","SECT":" ","MAREA":"蚵寮","LANE":" ","ALLEY":" ","HOUSE_NO":"３３０號","E_COORD97":161531.03,"N_COORD97":2576204.4100000001,"ADDRESS":"蚵寮３３０號","OBJECTID":169721},"geometry":{"x":161531.03000000212,"y":2576204.410000002}},{"attributes":{"ID":169723,"DIS_CODE":0,"TOWNNAME":"北門區","LI":"保吉里","LIN":"13鄰","STREET":" ","SECT":" ","MAREA":"蚵寮","LANE":" ","ALLEY":" ","HOUSE_NO":"３３１號","E_COORD97":161515.54000000001,"N_COORD97":2576186.6000000001,"ADDRESS":"蚵寮３３１號","OBJECTID":169722},"geometry":{"x":161515.54000000097,"y":2576186.5999999996}},{"attributes":{"ID":169724,"DIS_CODE":0,"TOWNNAME":"北門區","LI":"保吉里","LIN":"13鄰","STREET":" ","SECT":" ","MAREA":"蚵寮","LANE":" ","ALLEY":" ","HOUSE_NO":"３３２號","E_COORD97":161511.79999999999,"N_COORD97":2576195.6600000001,"ADDRESS":"蚵寮３３２號","OBJECTID":169723},"geometry":{"x":161511.80000000168,"y":2576195.660000002}},{"attributes":{"ID":169725,"DIS_CODE":0,"TOWNNAME":"北門區","LI":"保吉里","LIN":"13鄰","STREET":" ","SECT":" ","MAREA":"蚵寮","LANE":" ","ALLEY":" ","HOUSE_NO":"３３３號","E_COORD97":161513.53,"N_COORD97":2576172.0600000001,"ADDRESS":"蚵寮３３３號","OBJECTID":169724},"geometry":{"x":161513.53000000026,"y":2576172.0600000042}},{"attributes":{"ID":169726,"DIS_CODE":0,"TOWNNAME":"北門區","LI":"保吉里","LIN":"13鄰","STREET":" ","SECT":" ","MAREA":"蚵寮","LANE":" ","ALLEY":" ","HOUSE_NO":"３３６號","E_COORD97":161500.94,"N_COORD97":2576168.4900000002,"ADDRESS":"蚵寮３３６號","OBJECTID":169725},"geometry":{"x":161500.94000000041,"y":2576168.4899999984}},{"attributes":{"ID":169727,"DIS_CODE":0,"TOWNNAME":"北門區","LI":"保吉里","LIN":"13鄰","STREET":" ","SECT":" ","MAREA":"蚵寮","LANE":" ","ALLEY":" ","HOUSE_NO":"３３７號","E_COORD97":161486.51999999999,"N_COORD97":2576162.54,"ADDRESS":"蚵寮３３７號","OBJECTID":169726},"geometry":{"x":161486.52000000048,"y":2576162.5399999991}},{"attributes":{"ID":169728,"DIS_CODE":0,"TOWNNAME":"關廟區","LI":"關廟里","LIN":"12鄰","STREET":"民生街","SECT":" ","MAREA":" ","LANE":" ","ALLEY":" ","HOUSE_NO":"１８６號","E_COORD97":180884.79000000001,"N_COORD97":2539879.29,"ADDRESS":"民生街１８６號","OBJECTID":169727},"geometry":{"x":180884.79000000097,"y":2539879.290000001}},{"attributes":{"ID":169729,"DIS_CODE":0,"TOWNNAME":"東區","LI":"忠孝里","LIN":"28鄰","STREET":"中華東路","SECT":"三段","MAREA":" ","LANE":"３８０巷","ALLEY":"５５弄","HOUSE_NO":"３３號","E_COORD97":169912.56,"N_COORD97":2541659.75,"ADDRESS":"中華東路三段３８０巷５５弄３３號","OBJECTID":169728},"geometry":{"x":169912.55999999959,"y":2541659.7500000019}},{"attributes":{"ID":169730,"DIS_CODE":0,"TOWNNAME":"北門區","LI":"保吉里","LIN":"13鄰","STREET":" ","SECT":" ","MAREA":"蚵寮","LANE":" ","ALLEY":" ","HOUSE_NO":"３３８號","E_COORD97":161484.75,"N_COORD97":2576171.3300000001,"ADDRESS":"蚵寮３３８號","OBJECTID":169729},"geometry":{"x":161484.75,"y":2576171.3300000019}},{"attributes":{"ID":169731,"DIS_CODE":0,"TOWNNAME":"仁德區","LI":"後壁里","LIN":"39鄰","STREET":"德糖路","SECT":" ","MAREA":" ","LANE":"４０７巷","ALLEY":"１３弄","HOUSE_NO":"７號","E_COORD97":173454.32000000001,"N_COORD97":2539082.52,"ADDRESS":"德糖路４０７巷１３弄７號","OBJECTID":169730},"geometry":{"x":173454.3200000003,"y":2539082.5199999996}},{"attributes":{"ID":169732,"DIS_CODE":0,"TOWNNAME":"仁德區","LI":"新田里","LIN":"4鄰","STREET":"勝利路","SECT":" ","MAREA":" ","LANE":"１３２巷","ALLEY":"１０弄","HOUSE_NO":"４１號","E_COORD97":174407.73999999999,"N_COORD97":2539479.4100000001,"ADDRESS":"勝利路１３２巷１０弄４１號","OBJECTID":169731},"geometry":{"x":174407.73999999929,"y":2539479.410000002}},{"attributes":{"ID":169733,"DIS_CODE":0,"TOWNNAME":"北門區","LI":"保吉里","LIN":"13鄰","STREET":" ","SECT":" ","MAREA":"蚵寮","LANE":" ","ALLEY":" ","HOUSE_NO":"３３９之１號","E_COORD97":161477.13,"N_COORD97":2576189.27,"ADDRESS":"蚵寮３３９之１號","OBJECTID":169732},"geometry":{"x":161477.12999999989,"y":2576189.2699999996}},{"attributes":{"ID":169734,"DIS_CODE":0,"TOWNNAME":"北門區","LI":"保吉里","LIN":"13鄰","STREET":" ","SECT":" ","MAREA":"蚵寮","LANE":" ","ALLEY":" ","HOUSE_NO":"３３９號","E_COORD97":161483.22,"N_COORD97":2576179.6800000002,"ADDRESS":"蚵寮３３９號","OBJECTID":169733},"geometry":{"x":161483.21999999881,"y":2576179.6799999997}},{"attributes":{"ID":169735,"DIS_CODE":0,"TOWNNAME":"北門區","LI":"東壁里","LIN":"13鄰","STREET":" ","SECT":" ","MAREA":"蚵寮","LANE":" ","ALLEY":" ","HOUSE_NO":"７２８號","E_COORD97":161680.38,"N_COORD97":2576345.4399999999,"ADDRESS":"蚵寮７２８號","OBJECTID":169734},"geometry":{"x":161680.37999999989,"y":2576345.4400000013}},{"attributes":{"ID":169736,"DIS_CODE":0,"TOWNNAME":"仁德區","LI":"新田里","LIN":"4鄰","STREET":"勝利路","SECT":" ","MAREA":" ","LANE":"１５０巷","ALLEY":"２弄","HOUSE_NO":"５號","E_COORD97":174380.14000000001,"N_COORD97":2539517.2599999998,"ADDRESS":"勝利路１５０巷２弄５號","OBJECTID":169735},"geometry":{"x":174380.13999999966,"y":2539517.2600000016}},{"attributes":{"ID":169737,"DIS_CODE":0,"TOWNNAME":"仁德區","LI":"新田里","LIN":"4鄰","STREET":"勝利路","SECT":" ","MAREA":" ","LANE":"１５０巷","ALLEY":"３弄","HOUSE_NO":"８號","E_COORD97":174414.04999999999,"N_COORD97":2539509.52,"ADDRESS":"勝利路１５０巷３弄８號","OBJECTID":169736},"geometry":{"x":174414.05000000075,"y":2539509.5199999996}},{"attributes":{"ID":169738,"DIS_CODE":0,"TOWNNAME":"仁德區","LI":"仁德里","LIN":"5鄰","STREET":"仁德四街","SECT":" ","MAREA":" ","LANE":"１２巷","ALLEY":"１５弄","HOUSE_NO":"１７號","E_COORD97":173193.10999999999,"N_COORD97":2540873.79,"ADDRESS":"仁德四街１２巷１５弄１７號","OBJECTID":169737},"geometry":{"x":173193.11000000034,"y":2540873.7899999991}},{"attributes":{"ID":169739,"DIS_CODE":0,"TOWNNAME":"仁德區","LI":"成功里","LIN":"32鄰","STREET":"成功一街","SECT":" ","MAREA":" ","LANE":"３５巷","ALLEY":"７弄","HOUSE_NO":"２號","E_COORD97":170610.39999999999,"N_COORD97":2540139.5099999998,"ADDRESS":"成功一街３５巷７弄２號","OBJECTID":169738},"geometry":{"x":170610.4000000013,"y":2540139.5100000016}},{"attributes":{"ID":169740,"DIS_CODE":0,"TOWNNAME":"北門區","LI":"東壁里","LIN":"13鄰","STREET":" ","SECT":" ","MAREA":"蚵寮","LANE":" ","ALLEY":" ","HOUSE_NO":"７２９號","E_COORD97":161683.06,"N_COORD97":2576337.9700000002,"ADDRESS":"蚵寮７２９號","OBJECTID":169739},"geometry":{"x":161683.06000000052,"y":2576337.9700000007}},{"attributes":{"ID":169741,"DIS_CODE":0,"TOWNNAME":"仁德區","LI":"成功里","LIN":"38鄰","STREET":"保華路","SECT":" ","MAREA":" ","LANE":"２巷","ALLEY":"５弄","HOUSE_NO":"１６號","E_COORD97":170722.85999999999,"N_COORD97":2540042.7400000002,"ADDRESS":"保華路２巷５弄１６號","OBJECTID":169740},"geometry":{"x":170722.86000000034,"y":2540042.7400000039}},{"attributes":{"ID":169742,"DIS_CODE":0,"TOWNNAME":"仁德區","LI":"新田里","LIN":"5鄰","STREET":"勝利二街","SECT":" ","MAREA":" ","LANE":"１９巷","ALLEY":"１２弄","HOUSE_NO":"１１號","E_COORD97":174925.14999999999,"N_COORD97":2539285.0099999998,"ADDRESS":"勝利二街１９巷１２弄１１號","OBJECTID":169741},"geometry":{"x":174925.15000000037,"y":2539285.0100000016}},{"attributes":{"ID":169743,"DIS_CODE":0,"TOWNNAME":"北門區","LI":"東壁里","LIN":"13鄰","STREET":" ","SECT":" ","MAREA":"蚵寮","LANE":" ","ALLEY":" ","HOUSE_NO":"７３０號","E_COORD97":161684.94,"N_COORD97":2576331.7799999998,"ADDRESS":"蚵寮７３０號","OBJECTID":169742},"geometry":{"x":161684.94000000134,"y":2576331.7799999975}},{"attributes":{"ID":169744,"DIS_CODE":0,"TOWNNAME":"北門區","LI":"東壁里","LIN":"13鄰","STREET":" ","SECT":" ","MAREA":"蚵寮","LANE":" ","ALLEY":" ","HOUSE_NO":"７３１號","E_COORD97":161691.56,"N_COORD97":2576327.25,"ADDRESS":"蚵寮７３１號","OBJECTID":169743},"geometry":{"x":161691.56000000052,"y":2576327.2500000019}},{"attributes":{"ID":169745,"DIS_CODE":0,"TOWNNAME":"北門區","LI":"東壁里","LIN":"13鄰","STREET":" ","SECT":" ","MAREA":"蚵寮","LANE":" ","ALLEY":" ","HOUSE_NO":"７３４號","E_COORD97":161689.67999999999,"N_COORD97":2576303.2799999998,"ADDRESS":"蚵寮７３４號","OBJECTID":169744},"geometry":{"x":161689.6799999997,"y":2576303.2799999993}},{"attributes":{"ID":169746,"DIS_CODE":0,"TOWNNAME":"北門區","LI":"東壁里","LIN":"13鄰","STREET":" ","SECT":" ","MAREA":"蚵寮","LANE":" ","ALLEY":" ","HOUSE_NO":"７３５號","E_COORD97":161706.78,"N_COORD97":2576293.1600000001,"ADDRESS":"蚵寮７３５號","OBJECTID":169745},"geometry":{"x":161706.78000000026,"y":2576293.1600000039}},{"attributes":{"ID":169747,"DIS_CODE":0,"TOWNNAME":"北門區","LI":"東壁里","LIN":"13鄰","STREET":" ","SECT":" ","MAREA":"蚵寮","LANE":" ","ALLEY":" ","HOUSE_NO":"７３６號","E_COORD97":161694.92999999999,"N_COORD97":2576287.3999999999,"ADDRESS":"蚵寮７３６號","OBJECTID":169746},"geometry":{"x":161694.9299999997,"y":2576287.4000000004}},{"attributes":{"ID":169748,"DIS_CODE":0,"TOWNNAME":"仁德區","LI":"後壁里","LIN":"14鄰","STREET":"德善路","SECT":" ","MAREA":" ","LANE":"１９８巷","ALLEY":"１０弄","HOUSE_NO":"１２號","E_COORD97":173683.29999999999,"N_COORD97":2538699.73,"ADDRESS":"德善路１９８巷１０弄１２號","OBJECTID":169747},"geometry":{"x":173683.30000000075,"y":2538699.7300000004}},{"attributes":{"ID":169749,"DIS_CODE":0,"TOWNNAME":"北門區","LI":"東壁里","LIN":"13鄰","STREET":" ","SECT":" ","MAREA":"蚵寮","LANE":" ","ALLEY":" ","HOUSE_NO":"７３７號","E_COORD97":161680.29000000001,"N_COORD97":2576302.29,"ADDRESS":"蚵寮７３７號","OBJECTID":169748},"geometry":{"x":161680.29000000097,"y":2576302.290000001}},{"attributes":{"ID":169750,"DIS_CODE":0,"TOWNNAME":"北門區","LI":"東壁里","LIN":"13鄰","STREET":" ","SECT":" ","MAREA":"蚵寮","LANE":" ","ALLEY":" ","HOUSE_NO":"７４０號","E_COORD97":161656.92999999999,"N_COORD97":2576338.9500000002,"ADDRESS":"蚵寮７４０號","OBJECTID":169749},"geometry":{"x":161656.93000000063,"y":2576338.9500000011}},{"attributes":{"ID":169751,"DIS_CODE":0,"TOWNNAME":"北門區","LI":"錦湖里","LIN":"13鄰","STREET":" ","SECT":" ","MAREA":"渡子頭","LANE":" ","ALLEY":" ","HOUSE_NO":"１２７之１號","E_COORD97":163951.92999999999,"N_COORD97":2578246.9199999999,"ADDRESS":"渡子頭１２７之１號","OBJECTID":169750},"geometry":{"x":163951.93000000063,"y":2578246.9199999999}},{"attributes":{"ID":169752,"DIS_CODE":0,"TOWNNAME":"仁德區","LI":"後壁里","LIN":"20鄰","STREET":"中正路","SECT":"二段","MAREA":" ","LANE":"１０６巷","ALLEY":"１弄","HOUSE_NO":"６號","E_COORD97":173225.07000000001,"N_COORD97":2538521.8700000001,"ADDRESS":"中正路二段１０６巷１弄６號","OBJECTID":169751},"geometry":{"x":173225.0700000003,"y":2538521.8700000029}},{"attributes":{"ID":169753,"DIS_CODE":0,"TOWNNAME":"北門區","LI":"錦湖里","LIN":"13鄰","STREET":" ","SECT":" ","MAREA":"渡子頭","LANE":" ","ALLEY":" ","HOUSE_NO":"１２７之２號","E_COORD97":163953.92000000001,"N_COORD97":2578259.5299999998,"ADDRESS":"渡子頭１２７之２號","OBJECTID":169752},"geometry":{"x":163953.92000000086,"y":2578259.5300000031}},{"attributes":{"ID":169754,"DIS_CODE":0,"TOWNNAME":"北門區","LI":"錦湖里","LIN":"13鄰","STREET":" ","SECT":" ","MAREA":"渡子頭","LANE":" ","ALLEY":" ","HOUSE_NO":"１２７號","E_COORD97":163947.14999999999,"N_COORD97":2578253.25,"ADDRESS":"渡子頭１２７號","OBJECTID":169753},"geometry":{"x":163947.15000000037,"y":2578253.2500000019}},{"attributes":{"ID":169755,"DIS_CODE":0,"TOWNNAME":"北門區","LI":"錦湖里","LIN":"13鄰","STREET":" ","SECT":" ","MAREA":"渡子頭","LANE":" ","ALLEY":" ","HOUSE_NO":"１２８號","E_COORD97":163931.14999999999,"N_COORD97":2578252.75,"ADDRESS":"渡子頭１２８號","OBJECTID":169754},"geometry":{"x":163931.1500000013,"y":2578252.7500000019}},{"attributes":{"ID":169756,"DIS_CODE":0,"TOWNNAME":"北門區","LI":"錦湖里","LIN":"13鄰","STREET":" ","SECT":" ","MAREA":"渡子頭","LANE":" ","ALLEY":" ","HOUSE_NO":"１２９號","E_COORD97":163919.16,"N_COORD97":2578269.5699999998,"ADDRESS":"渡子頭１２９號","OBJECTID":169755},"geometry":{"x":163919.16000000108,"y":2578269.5700000003}},{"attributes":{"ID":169757,"DIS_CODE":0,"TOWNNAME":"北門區","LI":"錦湖里","LIN":"13鄰","STREET":" ","SECT":" ","MAREA":"渡子頭","LANE":" ","ALLEY":" ","HOUSE_NO":"１３０號","E_COORD97":163902.85000000001,"N_COORD97":2578276.6200000001,"ADDRESS":"渡子頭１３０號","OBJECTID":169756},"geometry":{"x":163902.84999999963,"y":2578276.620000001}},{"attributes":{"ID":169758,"DIS_CODE":0,"TOWNNAME":"北門區","LI":"錦湖里","LIN":"13鄰","STREET":" ","SECT":" ","MAREA":"渡子頭","LANE":" ","ALLEY":" ","HOUSE_NO":"１３２號","E_COORD97":163868.85999999999,"N_COORD97":2578295.3100000001,"ADDRESS":"渡子頭１３２號","OBJECTID":169757},"geometry":{"x":163868.86000000127,"y":2578295.3100000005}},{"attributes":{"ID":169759,"DIS_CODE":0,"TOWNNAME":"北門區","LI":"錦湖里","LIN":"13鄰","STREET":" ","SECT":" ","MAREA":"渡子頭","LANE":" ","ALLEY":" ","HOUSE_NO":"１３３號","E_COORD97":163854.45999999999,"N_COORD97":2578302.4399999999,"ADDRESS":"渡子頭１３３號","OBJECTID":169758},"geometry":{"x":163854.45999999996,"y":2578302.4400000013}},{"attributes":{"ID":169760,"DIS_CODE":0,"TOWNNAME":"新化區","LI":"全興里","LIN":"12鄰","STREET":" ","SECT":" ","MAREA":"竹子\u25A0","LANE":" ","ALLEY":" ","HOUSE_NO":"２４７號之１１７","E_COORD97":178235.48000000001,"N_COORD97":2546830.2599999998,"ADDRESS":"竹子\u25A0２４７號之１１７","OBJECTID":169759},"geometry":{"x":178235.48000000045,"y":2546830.2600000016}},{"attributes":{"ID":169761,"DIS_CODE":0,"TOWNNAME":"新化區","LI":"全興里","LIN":"12鄰","STREET":" ","SECT":" ","MAREA":"竹子\u25A0","LANE":" ","ALLEY":" ","HOUSE_NO":"２４７號之１１３","E_COORD97":178244.78,"N_COORD97":2546831.2599999998,"ADDRESS":"竹子\u25A0２４７號之１１３","OBJECTID":169760},"geometry":{"x":178244.78000000026,"y":2546831.2599999998}},{"attributes":{"ID":169762,"DIS_CODE":0,"TOWNNAME":"新化區","LI":"全興里","LIN":"12鄰","STREET":" ","SECT":" ","MAREA":"竹子\u25A0","LANE":" ","ALLEY":" ","HOUSE_NO":"２４７號之１１９","E_COORD97":178231.28,"N_COORD97":2546830.2599999998,"ADDRESS":"竹子\u25A0２４７號之１１９","OBJECTID":169761},"geometry":{"x":178231.28000000026,"y":2546830.2600000016}},{"attributes":{"ID":169763,"DIS_CODE":0,"TOWNNAME":"新化區","LI":"全興里","LIN":"12鄰","STREET":" ","SECT":" ","MAREA":"竹子\u25A0","LANE":" ","ALLEY":" ","HOUSE_NO":"２４７號之１２３","E_COORD97":178269.28,"N_COORD97":2546791.2599999998,"ADDRESS":"竹子\u25A0２４７號之１２３","OBJECTID":169762},"geometry":{"x":178269.28000000212,"y":2546791.2599999998}},{"attributes":{"ID":169764,"DIS_CODE":0,"TOWNNAME":"北門區","LI":"錦湖里","LIN":"13鄰","STREET":" ","SECT":" ","MAREA":"渡子頭","LANE":" ","ALLEY":" ","HOUSE_NO":"１３４號","E_COORD97":163837.98999999999,"N_COORD97":2578306.98,"ADDRESS":"渡子頭１３４號","OBJECTID":169763},"geometry":{"x":163837.99000000022,"y":2578306.9800000004}},{"attributes":{"ID":169765,"DIS_CODE":0,"TOWNNAME":"仁德區","LI":"保安里","LIN":"4鄰","STREET":"文賢路","SECT":"一段","MAREA":" ","LANE":"８６２巷","ALLEY":"７弄","HOUSE_NO":"３號","E_COORD97":171528.29999999999,"N_COORD97":2536038.8199999998,"ADDRESS":"文賢路一段８６２巷７弄３號","OBJECTID":169764},"geometry":{"x":171528.29999999981,"y":2536038.8200000022}},{"attributes":{"ID":169766,"DIS_CODE":0,"TOWNNAME":"關廟區","LI":"香洋里","LIN":"12鄰","STREET":"中央路","SECT":" ","MAREA":" ","LANE":" ","ALLEY":" ","HOUSE_NO":"１９９號","E_COORD97":181181.45999999999,"N_COORD97":2540076.3199999998,"ADDRESS":"中央路１９９號","OBJECTID":169765},"geometry":{"x":181181.45999999996,"y":2540076.3200000022}},{"attributes":{"ID":169767,"DIS_CODE":0,"TOWNNAME":"北門區","LI":"錦湖里","LIN":"13鄰","STREET":" ","SECT":" ","MAREA":"渡子頭","LANE":" ","ALLEY":" ","HOUSE_NO":"１３５號之１","E_COORD97":163831.10000000001,"N_COORD97":2578352.3700000001,"ADDRESS":"渡子頭１３５號之１","OBJECTID":169766},"geometry":{"x":163831.09999999963,"y":2578352.370000001}},{"attributes":{"ID":169768,"DIS_CODE":0,"TOWNNAME":"北門區","LI":"錦湖里","LIN":"13鄰","STREET":" ","SECT":" ","MAREA":"渡子頭","LANE":" ","ALLEY":" ","HOUSE_NO":"１３５號之２","E_COORD97":163825.89000000001,"N_COORD97":2578353.46,"ADDRESS":"渡子頭１３５號之２","OBJECTID":169767},"geometry":{"x":163825.88999999966,"y":2578353.4600000028}},{"attributes":{"ID":169769,"DIS_CODE":0,"TOWNNAME":"仁德區","LI":"成功里","LIN":"18鄰","STREET":"全福路","SECT":" ","MAREA":" ","LANE":"７５巷","ALLEY":"１４弄","HOUSE_NO":"１２號","E_COORD97":171078.95999999999,"N_COORD97":2539338.2400000002,"ADDRESS":"全福路７５巷１４弄１２號","OBJECTID":169768},"geometry":{"x":171078.96000000089,"y":2539338.2400000021}},{"attributes":{"ID":169770,"DIS_CODE":0,"TOWNNAME":"北門區","LI":"錦湖里","LIN":"13鄰","STREET":" ","SECT":" ","MAREA":"渡子頭","LANE":" ","ALLEY":" ","HOUSE_NO":"１３５號","E_COORD97":163818.14000000001,"N_COORD97":2578309.3999999999,"ADDRESS":"渡子頭１３５號","OBJECTID":169769},"geometry":{"x":163818.14000000153,"y":2578309.4000000022}},{"attributes":{"ID":169771,"DIS_CODE":0,"TOWNNAME":"北門區","LI":"錦湖里","LIN":"13鄰","STREET":" ","SECT":" ","MAREA":"渡子頭","LANE":" ","ALLEY":" ","HOUSE_NO":"１３６號","E_COORD97":163805.04999999999,"N_COORD97":2578316.4500000002,"ADDRESS":"渡子頭１３６號","OBJECTID":169770},"geometry":{"x":163805.04999999981,"y":2578316.4499999993}},{"attributes":{"ID":169772,"DIS_CODE":0,"TOWNNAME":"北門區","LI":"錦湖里","LIN":"13鄰","STREET":" ","SECT":" ","MAREA":"渡子頭","LANE":" ","ALLEY":" ","HOUSE_NO":"１３７號之１","E_COORD97":163791.29000000001,"N_COORD97":2578313.98,"ADDRESS":"渡子頭１３７號之１","OBJECTID":169771},"geometry":{"x":163791.29000000004,"y":2578313.9800000004}},{"attributes":{"ID":169773,"DIS_CODE":0,"TOWNNAME":"仁德區","LI":"後壁里","LIN":"32鄰","STREET":"德洋路","SECT":" ","MAREA":" ","LANE":"２０５巷","ALLEY":"３０弄","HOUSE_NO":"６號","E_COORD97":172424.76000000001,"N_COORD97":2539537.2599999998,"ADDRESS":"德洋路２０５巷３０弄６號","OBJECTID":169772},"geometry":{"x":172424.75999999978,"y":2539537.2600000016}},{"attributes":{"ID":169774,"DIS_CODE":0,"TOWNNAME":"北門區","LI":"錦湖里","LIN":"13鄰","STREET":" ","SECT":" ","MAREA":"渡子頭","LANE":" ","ALLEY":" ","HOUSE_NO":"１３７號之２","E_COORD97":163781.39000000001,"N_COORD97":2578329.4700000002,"ADDRESS":"渡子頭１３７號之２","OBJECTID":169773},"geometry":{"x":163781.3900000006,"y":2578329.4700000025}},{"attributes":{"ID":169775,"DIS_CODE":0,"TOWNNAME":"新市區","LI":"潭頂里","LIN":"13鄰","STREET":" ","SECT":" ","MAREA":"潭頂","LANE":" ","ALLEY":" ","HOUSE_NO":"４６０號","E_COORD97":180484.23000000001,"N_COORD97":2552896,"ADDRESS":"潭頂４６０號","OBJECTID":169774},"geometry":{"x":180484.23000000138,"y":2552896}},{"attributes":{"ID":169776,"DIS_CODE":0,"TOWNNAME":"白河區","LI":"大竹里","LIN":"13鄰","STREET":" ","SECT":" ","MAREA":"大排竹","LANE":" ","ALLEY":" ","HOUSE_NO":"１９４之１２號","E_COORD97":189258.09,"N_COORD97":2584901.52,"ADDRESS":"大排竹１９４之１２號","OBJECTID":169775},"geometry":{"x":189258.08999999985,"y":2584901.5200000033}},{"attributes":{"ID":169777,"DIS_CODE":0,"TOWNNAME":"白河區","LI":"大竹里","LIN":"13鄰","STREET":" ","SECT":" ","MAREA":"大排竹","LANE":" ","ALLEY":" ","HOUSE_NO":"１９４之１３號","E_COORD97":189048.60000000001,"N_COORD97":2585028.5699999998,"ADDRESS":"大排竹１９４之１３號","OBJECTID":169776},"geometry":{"x":189048.60000000056,"y":2585028.5700000022}},{"attributes":{"ID":169778,"DIS_CODE":0,"TOWNNAME":"仁德區","LI":"成功里","LIN":"13鄰","STREET":"全福路","SECT":" ","MAREA":" ","LANE":"３巷","ALLEY":"２弄","HOUSE_NO":"８號","E_COORD97":170847.62,"N_COORD97":2539349.7400000002,"ADDRESS":"全福路３巷２弄８號","OBJECTID":169777},"geometry":{"x":170847.62000000104,"y":2539349.7400000002}},{"attributes":{"ID":169779,"DIS_CODE":0,"TOWNNAME":"白河區","LI":"大竹里","LIN":"13鄰","STREET":" ","SECT":" ","MAREA":"大排竹","LANE":" ","ALLEY":" ","HOUSE_NO":"１９４之１５號","E_COORD97":189211.60000000001,"N_COORD97":2584947.8999999999,"ADDRESS":"大排竹１９４之１５號","OBJECTID":169778},"geometry":{"x":189211.59999999963,"y":2584947.9000000022}},{"attributes":{"ID":169780,"DIS_CODE":0,"TOWNNAME":"仁德區","LI":"後壁里","LIN":"32鄰","STREET":"德洋路","SECT":" ","MAREA":" ","LANE":"２２７巷","ALLEY":"２弄","HOUSE_NO":"１１號","E_COORD97":172503.31,"N_COORD97":2539573.77,"ADDRESS":"德洋路２２７巷２弄１１號","OBJECTID":169779},"geometry":{"x":172503.31000000052,"y":2539573.7700000033}},{"attributes":{"ID":169781,"DIS_CODE":0,"TOWNNAME":"仁德區","LI":"新田里","LIN":"4鄰","STREET":"勝利路","SECT":" ","MAREA":" ","LANE":"１３２巷","ALLEY":"１０弄","HOUSE_NO":"１３號","E_COORD97":174310.98000000001,"N_COORD97":2539495.9100000001,"ADDRESS":"勝利路１３２巷１０弄１３號","OBJECTID":169780},"geometry":{"x":174310.98000000045,"y":2539495.910000002}},{"attributes":{"ID":169782,"DIS_CODE":0,"TOWNNAME":"白河區","LI":"大竹里","LIN":"13鄰","STREET":" ","SECT":" ","MAREA":"大排竹","LANE":" ","ALLEY":" ","HOUSE_NO":"１９４之２０號","E_COORD97":189023.81,"N_COORD97":2585032.79,"ADDRESS":"大排竹１９４之２０號","OBJECTID":169781},"geometry":{"x":189023.80999999959,"y":2585032.790000001}},{"attributes":{"ID":169783,"DIS_CODE":0,"TOWNNAME":"仁德區","LI":"成功里","LIN":"32鄰","STREET":"成功一街","SECT":" ","MAREA":" ","LANE":"３５巷","ALLEY":"１弄","HOUSE_NO":"５號","E_COORD97":170570.17000000001,"N_COORD97":2540142.04,"ADDRESS":"成功一街３５巷１弄５號","OBJECTID":169782},"geometry":{"x":170570.17000000179,"y":2540142.040000001}},{"attributes":{"ID":169784,"DIS_CODE":0,"TOWNNAME":"仁德區","LI":"保安里","LIN":"4鄰","STREET":"文賢路","SECT":"一段","MAREA":" ","LANE":"８６２巷","ALLEY":"６弄","HOUSE_NO":"１２號","E_COORD97":171458.92999999999,"N_COORD97":2536117.3199999998,"ADDRESS":"文賢路一段８６２巷６弄１２號","OBJECTID":169783},"geometry":{"x":171458.9299999997,"y":2536117.3200000022}},{"attributes":{"ID":169785,"DIS_CODE":0,"TOWNNAME":"仁德區","LI":"成功里","LIN":"20鄰","STREET":"保生路","SECT":" ","MAREA":" ","LANE":"１２３巷","ALLEY":"６弄","HOUSE_NO":"８號","E_COORD97":170598.70000000001,"N_COORD97":2539800.5,"ADDRESS":"保生路１２３巷６弄８號","OBJECTID":169784},"geometry":{"x":170598.70000000019,"y":2539800.5000000019}},{"attributes":{"ID":169786,"DIS_CODE":0,"TOWNNAME":"永康區","LI":"埔園里","LIN":"25鄰","STREET":"埔東街","SECT":" ","MAREA":" ","LANE":" ","ALLEY":" ","HOUSE_NO":"１７號","E_COORD97":173778.26999999999,"N_COORD97":2548053.9900000002,"ADDRESS":"埔東街１７號","OBJECTID":169785},"geometry":{"x":173778.27000000048,"y":2548053.9900000021}},{"attributes":{"ID":169787,"DIS_CODE":0,"TOWNNAME":"仁德區","LI":"新田里","LIN":"18鄰","STREET":"德糖路","SECT":" ","MAREA":" ","LANE":"２０６巷","ALLEY":" ","HOUSE_NO":"１０２號","E_COORD97":173696.06,"N_COORD97":2539353.0600000001,"ADDRESS":"德糖路２０６巷１０２號","OBJECTID":169786},"geometry":{"x":173696.05999999959,"y":2539353.0600000024}},{"attributes":{"ID":169788,"DIS_CODE":0,"TOWNNAME":"北區","LI":"裕民里","LIN":"12鄰","STREET":"臨安路","SECT":"二段","MAREA":" ","LANE":" ","ALLEY":" ","HOUSE_NO":"１２９號","E_COORD97":167732.10999999999,"N_COORD97":2544864.77,"ADDRESS":"臨安路二段１２９號","OBJECTID":169787},"geometry":{"x":167732.11000000127,"y":2544864.7699999996}},{"attributes":{"ID":169789,"DIS_CODE":0,"TOWNNAME":"仁德區","LI":"成功里","LIN":"13鄰","STREET":"全福路","SECT":" ","MAREA":" ","LANE":"３巷","ALLEY":"２弄","HOUSE_NO":"１１號","E_COORD97":170862.76999999999,"N_COORD97":2539368.75,"ADDRESS":"全福路３巷２弄１１號","OBJECTID":169788},"geometry":{"x":170862.77000000048,"y":2539368.7500000019}},{"attributes":{"ID":169790,"DIS_CODE":0,"TOWNNAME":"仁德區","LI":"後壁里","LIN":"32鄰","STREET":"德洋路","SECT":" ","MAREA":" ","LANE":"２０５巷","ALLEY":"１０弄","HOUSE_NO":"８號","E_COORD97":172491.56,"N_COORD97":2539538.5099999998,"ADDRESS":"德洋路２０５巷１０弄８號","OBJECTID":169789},"geometry":{"x":172491.56000000052,"y":2539538.5100000035}},{"attributes":{"ID":169791,"DIS_CODE":0,"TOWNNAME":"仁德區","LI":"新田里","LIN":"4鄰","STREET":"勝利路","SECT":" ","MAREA":" ","LANE":"１３２巷","ALLEY":"１０弄","HOUSE_NO":"１９號","E_COORD97":174331.37,"N_COORD97":2539492.4100000001,"ADDRESS":"勝利路１３２巷１０弄１９號","OBJECTID":169790},"geometry":{"x":174331.37000000104,"y":2539492.410000002}},{"attributes":{"ID":169792,"DIS_CODE":0,"TOWNNAME":"仁德區","LI":"成功里","LIN":"38鄰","STREET":"保華路","SECT":" ","MAREA":" ","LANE":"２巷","ALLEY":"５弄","HOUSE_NO":"１０號","E_COORD97":170734.23000000001,"N_COORD97":2540041.7400000002,"ADDRESS":"保華路２巷５弄１０號","OBJECTID":169791},"geometry":{"x":170734.23000000045,"y":2540041.7400000002}},{"attributes":{"ID":169793,"DIS_CODE":0,"TOWNNAME":"仁德區","LI":"成功里","LIN":"38鄰","STREET":"保華路","SECT":" ","MAREA":" ","LANE":"２巷","ALLEY":"５弄","HOUSE_NO":"２４號","E_COORD97":170706.89000000001,"N_COORD97":2540044.9900000002,"ADDRESS":"保華路２巷５弄２４號","OBJECTID":169792},"geometry":{"x":170706.88999999966,"y":2540044.9900000021}},{"attributes":{"ID":169794,"DIS_CODE":0,"TOWNNAME":"仁德區","LI":"新田里","LIN":"5鄰","STREET":"勝利二街","SECT":" ","MAREA":" ","LANE":"１９巷","ALLEY":"１２弄","HOUSE_NO":"９號","E_COORD97":174926.85000000001,"N_COORD97":2539292.7599999998,"ADDRESS":"勝利二街１９巷１２弄９號","OBJECTID":169793},"geometry":{"x":174926.85000000149,"y":2539292.7600000035}},{"attributes":{"ID":169795,"DIS_CODE":0,"TOWNNAME":"仁德區","LI":"保安里","LIN":"4鄰","STREET":"文賢路","SECT":"一段","MAREA":" ","LANE":"８６４巷","ALLEY":"１３弄","HOUSE_NO":"４號","E_COORD97":171519.33149099999,"N_COORD97":2536003.0847200002,"ADDRESS":"文賢路一段８６４巷１３弄４號","OBJECTID":169794},"geometry":{"x":171519.33149100095,"y":2536003.0847240016}},{"attributes":{"ID":169796,"DIS_CODE":0,"TOWNNAME":"仁德區","LI":"保安里","LIN":"4鄰","STREET":"文賢路","SECT":"一段","MAREA":" ","LANE":"８６２巷","ALLEY":"６弄","HOUSE_NO":"１４號","E_COORD97":171452.66,"N_COORD97":2536115.5699999998,"ADDRESS":"文賢路一段８６２巷６弄１４號","OBJECTID":169795},"geometry":{"x":171452.66000000108,"y":2536115.5700000022}},{"attributes":{"ID":169797,"DIS_CODE":0,"TOWNNAME":"仁德區","LI":"成功里","LIN":"13鄰","STREET":"全福路","SECT":" ","MAREA":" ","LANE":"３巷","ALLEY":"９弄","HOUSE_NO":"２號","E_COORD97":170808.53,"N_COORD97":2539385.2400000002,"ADDRESS":"全福路３巷９弄２號","OBJECTID":169796},"geometry":{"x":170808.53000000026,"y":2539385.2400000021}},{"attributes":{"ID":169798,"DIS_CODE":0,"TOWNNAME":"仁德區","LI":"仁德里","LIN":"26鄰","STREET":"淨修街","SECT":" ","MAREA":" ","LANE":"１７５巷","ALLEY":"３０弄","HOUSE_NO":"２５號","E_COORD97":171994.37,"N_COORD97":2541176.9300000002,"ADDRESS":"淨修街１７５巷３０弄２５號","OBJECTID":169797},"geometry":{"x":171994.37000000011,"y":2541176.9300000016}},{"attributes":{"ID":169799,"DIS_CODE":0,"TOWNNAME":"仁德區","LI":"成功里","LIN":"38鄰","STREET":"保華路","SECT":" ","MAREA":" ","LANE":"２巷","ALLEY":"５弄","HOUSE_NO":"１４號","E_COORD97":170726.91,"N_COORD97":2540042.2400000002,"ADDRESS":"保華路２巷５弄１４號","OBJECTID":169798},"geometry":{"x":170726.91000000108,"y":2540042.2400000002}},{"attributes":{"ID":169800,"DIS_CODE":0,"TOWNNAME":"仁德區","LI":"新田里","LIN":"5鄰","STREET":"勝利二街","SECT":" ","MAREA":" ","LANE":"１９巷","ALLEY":"１２弄","HOUSE_NO":"１號","E_COORD97":174937.75,"N_COORD97":2539322.75,"ADDRESS":"勝利二街１９巷１２弄１號","OBJECTID":169799},"geometry":{"x":174937.75,"y":2539322.75}},{"attributes":{"ID":169801,"DIS_CODE":0,"TOWNNAME":"仁德區","LI":"後壁里","LIN":"41鄰","STREET":"德善路","SECT":" ","MAREA":" ","LANE":"２５１巷","ALLEY":"７弄","HOUSE_NO":"５號","E_COORD97":173857.64999999999,"N_COORD97":2538725.9900000002,"ADDRESS":"德善路２５１巷７弄５號","OBJECTID":169800},"geometry":{"x":173857.65000000224,"y":2538725.9900000021}}]}