{"displayFieldName":"TOWNNAME","fieldAliases":{"ID":"ID","DIS_CODE":"DIS_CODE","TOWNNAME":"TOWNNAME","LI":"LI","LIN":"LIN","STREET":"STREET","SECT":"SECT","MAREA":"MAREA","LANE":"LANE","ALLEY":"ALLEY","HOUSE_NO":"HOUSE_NO","E_COORD97":"E_COORD97","N_COORD97":"N_COORD97","ADDRESS":"ADDRESS","OBJECTID":"OBJECTID"},"geometryType":"esriGeometryPoint","spatialReference":{"wkid":102443,"latestWkid":3826},"fields":[{"name":"ID","type":"esriFieldTypeDouble","alias":"ID"},{"name":"DIS_CODE","type":"esriFieldTypeInteger","alias":"DIS_CODE"},{"name":"TOWNNAME","type":"esriFieldTypeString","alias":"TOWNNAME","length":8},{"name":"LI","type":"esriFieldTypeString","alias":"LI","length":8},{"name":"LIN","type":"esriFieldTypeString","alias":"LIN","length":12},{"name":"STREET","type":"esriFieldTypeString","alias":"STREET","length":20},{"name":"SECT","type":"esriFieldTypeString","alias":"SECT","length":8},{"name":"MAREA","type":"esriFieldTypeString","alias":"MAREA","length":12},{"name":"LANE","type":"esriFieldTypeString","alias":"LANE","length":10},{"name":"ALLEY","type":"esriFieldTypeString","alias":"ALLEY","length":10},{"name":"HOUSE_NO","type":"esriFieldTypeString","alias":"HOUSE_NO","length":20},{"name":"E_COORD97","type":"esriFieldTypeDouble","alias":"E_COORD97"},{"name":"N_COORD97","type":"esriFieldTypeDouble","alias":"N_COORD97"},{"name":"ADDRESS","type":"esriFieldTypeString","alias":"ADDRESS","length":50},{"name":"OBJECTID","type":"esriFieldTypeOID","alias":"OBJECTID"}],"features":[{"attributes":{"ID":393025,"DIS_CODE":0,"TOWNNAME":"中西區","LI":"西湖里","LIN":"23鄰","STREET":"湖美街","SECT":" ","MAREA":" ","LANE":"６０巷","ALLEY":" ","HOUSE_NO":"２６號","E_COORD97":166016.14000000001,"N_COORD97":2544647.0800000001,"ADDRESS":"湖美街６０巷２６號","OBJECTID":393001},"geometry":{"x":166016.13999999966,"y":2544647.0800000001}},{"attributes":{"ID":393026,"DIS_CODE":0,"TOWNNAME":"中西區","LI":"西湖里","LIN":"23鄰","STREET":"湖美街","SECT":" ","MAREA":" ","LANE":"６０巷","ALLEY":" ","HOUSE_NO":"２８號","E_COORD97":166019.35000000001,"N_COORD97":2544646.5499999998,"ADDRESS":"湖美街６０巷２８號","OBJECTID":393002},"geometry":{"x":166019.35000000056,"y":2544646.5500000026}},{"attributes":{"ID":393027,"DIS_CODE":0,"TOWNNAME":"中西區","LI":"西湖里","LIN":"23鄰","STREET":"湖美街","SECT":" ","MAREA":" ","LANE":"６０巷","ALLEY":" ","HOUSE_NO":"２號","E_COORD97":165963.98999999999,"N_COORD97":2544646.0099999998,"ADDRESS":"湖美街６０巷２號","OBJECTID":393003},"geometry":{"x":165963.98999999929,"y":2544646.0100000016}},{"attributes":{"ID":393028,"DIS_CODE":0,"TOWNNAME":"中西區","LI":"西湖里","LIN":"23鄰","STREET":"湖美街","SECT":" ","MAREA":" ","LANE":"６０巷","ALLEY":" ","HOUSE_NO":"３０號","E_COORD97":166023.35999999999,"N_COORD97":2544647.6099999999,"ADDRESS":"湖美街６０巷３０號","OBJECTID":393004},"geometry":{"x":166023.36000000127,"y":2544647.6100000013}},{"attributes":{"ID":393029,"DIS_CODE":0,"TOWNNAME":"中西區","LI":"西湖里","LIN":"23鄰","STREET":"湖美街","SECT":" ","MAREA":" ","LANE":"６０巷","ALLEY":" ","HOUSE_NO":"４號","E_COORD97":165968.26999999999,"N_COORD97":2544645.75,"ADDRESS":"湖美街６０巷４號","OBJECTID":393005},"geometry":{"x":165968.27000000142,"y":2544645.75}},{"attributes":{"ID":393030,"DIS_CODE":0,"TOWNNAME":"中西區","LI":"西湖里","LIN":"23鄰","STREET":"湖美街","SECT":" ","MAREA":" ","LANE":"６０巷","ALLEY":" ","HOUSE_NO":"６號","E_COORD97":165972.81,"N_COORD97":2544645.48,"ADDRESS":"湖美街６０巷６號","OBJECTID":393006},"geometry":{"x":165972.80999999959,"y":2544645.4800000042}},{"attributes":{"ID":393031,"DIS_CODE":0,"TOWNNAME":"中西區","LI":"西湖里","LIN":"23鄰","STREET":"湖美街","SECT":" ","MAREA":" ","LANE":"６０巷","ALLEY":" ","HOUSE_NO":"８號","E_COORD97":165976.82999999999,"N_COORD97":2544644.9399999999,"ADDRESS":"湖美街６０巷８號","OBJECTID":393007},"geometry":{"x":165976.83000000194,"y":2544644.9400000013}},{"attributes":{"ID":393032,"DIS_CODE":0,"TOWNNAME":"中西區","LI":"西湖里","LIN":"23鄰","STREET":"湖美街","SECT":" ","MAREA":" ","LANE":"６０巷","ALLEY":" ","HOUSE_NO":"１８號","E_COORD97":165998.75,"N_COORD97":2544646.2799999998,"ADDRESS":"湖美街６０巷１８號","OBJECTID":393008},"geometry":{"x":165998.75,"y":2544646.2800000012}},{"attributes":{"ID":393033,"DIS_CODE":0,"TOWNNAME":"永康區","LI":"二王里","LIN":"34鄰","STREET":"中山南路","SECT":" ","MAREA":" ","LANE":"４９０巷","ALLEY":" ","HOUSE_NO":"１０號之２０","E_COORD97":172174.91,"N_COORD97":2546344.2400000002,"ADDRESS":"中山南路４９０巷１０號之２０","OBJECTID":393009},"geometry":{"x":172174.91000000015,"y":2546344.2400000002}},{"attributes":{"ID":393034,"DIS_CODE":0,"TOWNNAME":"永康區","LI":"三合里","LIN":"23鄰","STREET":"南工街","SECT":" ","MAREA":" ","LANE":"３２３巷","ALLEY":" ","HOUSE_NO":"２３號","E_COORD97":171788.64000000001,"N_COORD97":2545978.98,"ADDRESS":"南工街３２３巷２３號","OBJECTID":393010},"geometry":{"x":171788.63999999966,"y":2545978.9800000023}},{"attributes":{"ID":393035,"DIS_CODE":0,"TOWNNAME":"永康區","LI":"二王里","LIN":"14鄰","STREET":"永二街","SECT":" ","MAREA":" ","LANE":"４６１巷","ALLEY":" ","HOUSE_NO":"５號","E_COORD97":172575.20999999999,"N_COORD97":2546653.73,"ADDRESS":"永二街４６１巷５號","OBJECTID":393011},"geometry":{"x":172575.21000000183,"y":2546653.7300000004}},{"attributes":{"ID":393036,"DIS_CODE":0,"TOWNNAME":"永康區","LI":"三合里","LIN":"8鄰","STREET":"南工街","SECT":" ","MAREA":" ","LANE":"１３５巷","ALLEY":" ","HOUSE_NO":"９號","E_COORD97":172050.07000000001,"N_COORD97":2545769.9900000002,"ADDRESS":"南工街１３５巷９號","OBJECTID":393012},"geometry":{"x":172050.07000000123,"y":2545769.9900000002}},{"attributes":{"ID":393037,"DIS_CODE":0,"TOWNNAME":"永康區","LI":"大灣里","LIN":"28鄰","STREET":"民族路","SECT":" ","MAREA":" ","LANE":"１９０巷","ALLEY":" ","HOUSE_NO":"２２號之４","E_COORD97":175302.98999999999,"N_COORD97":2545091.8199999998,"ADDRESS":"民族路１９０巷２２號之４","OBJECTID":393013},"geometry":{"x":175302.99000000209,"y":2545091.8200000022}},{"attributes":{"ID":393038,"DIS_CODE":0,"TOWNNAME":"永康區","LI":"三合里","LIN":"23鄰","STREET":"南工街","SECT":" ","MAREA":" ","LANE":"３２３巷","ALLEY":" ","HOUSE_NO":"１０號","E_COORD97":171779.87,"N_COORD97":2546004.5,"ADDRESS":"南工街３２３巷１０號","OBJECTID":393014},"geometry":{"x":171779.87000000104,"y":2546004.5000000037}},{"attributes":{"ID":393039,"DIS_CODE":0,"TOWNNAME":"永康區","LI":"大橋里","LIN":"23鄰","STREET":"大橋一街","SECT":" ","MAREA":" ","LANE":"１８１巷","ALLEY":" ","HOUSE_NO":"２２號","E_COORD97":171127.70000000001,"N_COORD97":2546601.2400000002,"ADDRESS":"大橋一街１８１巷２２號","OBJECTID":393015},"geometry":{"x":171127.70000000019,"y":2546601.2400000002}},{"attributes":{"ID":393040,"DIS_CODE":0,"TOWNNAME":"永康區","LI":"三合里","LIN":"23鄰","STREET":"南工街","SECT":" ","MAREA":" ","LANE":"３２３巷","ALLEY":" ","HOUSE_NO":"４號","E_COORD97":171780.14000000001,"N_COORD97":2546018.25,"ADDRESS":"南工街３２３巷４號","OBJECTID":393016},"geometry":{"x":171780.13999999966,"y":2546018.25}},{"attributes":{"ID":393041,"DIS_CODE":0,"TOWNNAME":"永康區","LI":"大橋里","LIN":"23鄰","STREET":"大橋一街","SECT":" ","MAREA":" ","LANE":"１９７巷","ALLEY":" ","HOUSE_NO":"３號","E_COORD97":171165.48999999999,"N_COORD97":2546603.7400000002,"ADDRESS":"大橋一街１９７巷３號","OBJECTID":393017},"geometry":{"x":171165.49000000115,"y":2546603.7400000021}},{"attributes":{"ID":393042,"DIS_CODE":0,"TOWNNAME":"永康區","LI":"大灣里","LIN":"23鄰","STREET":"大灣路","SECT":" ","MAREA":" ","LANE":"２４１巷","ALLEY":" ","HOUSE_NO":"７號","E_COORD97":174957.13,"N_COORD97":2545193.5,"ADDRESS":"大灣路２４１巷７號","OBJECTID":393018},"geometry":{"x":174957.12999999989,"y":2545193.5}},{"attributes":{"ID":393043,"DIS_CODE":0,"TOWNNAME":"永康區","LI":"五王里","LIN":"23鄰","STREET":"成功路","SECT":" ","MAREA":" ","LANE":"２４４巷","ALLEY":" ","HOUSE_NO":"４１號","E_COORD97":171411.88,"N_COORD97":2545876.7599999998,"ADDRESS":"成功路２４４巷４１號","OBJECTID":393019},"geometry":{"x":171411.88000000082,"y":2545876.7600000035}},{"attributes":{"ID":393044,"DIS_CODE":0,"TOWNNAME":"永康區","LI":"五王里","LIN":"23鄰","STREET":"成功路","SECT":" ","MAREA":" ","LANE":"２４４巷","ALLEY":" ","HOUSE_NO":"２６號","E_COORD97":171390.62,"N_COORD97":2545841.2599999998,"ADDRESS":"成功路２４４巷２６號","OBJECTID":393020},"geometry":{"x":171390.62000000011,"y":2545841.2599999998}},{"attributes":{"ID":393045,"DIS_CODE":0,"TOWNNAME":"永康區","LI":"五王里","LIN":"23鄰","STREET":"成功路","SECT":" ","MAREA":" ","LANE":"２４４巷","ALLEY":" ","HOUSE_NO":"５３號","E_COORD97":171440.23999999999,"N_COORD97":2545890.27,"ADDRESS":"成功路２４４巷５３號","OBJECTID":393021},"geometry":{"x":171440.24000000115,"y":2545890.2700000033}},{"attributes":{"ID":393046,"DIS_CODE":0,"TOWNNAME":"永康區","LI":"五王里","LIN":"23鄰","STREET":"成功路","SECT":" ","MAREA":" ","LANE":"２４４巷","ALLEY":" ","HOUSE_NO":"７２號","E_COORD97":171464,"N_COORD97":2545912.27,"ADDRESS":"成功路２４４巷７２號","OBJECTID":393022},"geometry":{"x":171464,"y":2545912.2699999996}},{"attributes":{"ID":393047,"DIS_CODE":0,"TOWNNAME":"永康區","LI":"五王里","LIN":"23鄰","STREET":"成功路","SECT":" ","MAREA":" ","LANE":"２４４巷","ALLEY":" ","HOUSE_NO":"３１號","E_COORD97":171395.85999999999,"N_COORD97":2545860.2599999998,"ADDRESS":"成功路２４４巷３１號","OBJECTID":393023},"geometry":{"x":171395.86000000034,"y":2545860.2600000016}},{"attributes":{"ID":393048,"DIS_CODE":0,"TOWNNAME":"永康區","LI":"復華里","LIN":"23鄰","STREET":"國華街","SECT":" ","MAREA":" ","LANE":"１３４巷","ALLEY":" ","HOUSE_NO":"８號","E_COORD97":172724.54999999999,"N_COORD97":2546147.4900000002,"ADDRESS":"國華街１３４巷８號","OBJECTID":393024},"geometry":{"x":172724.54999999981,"y":2546147.4900000021}},{"attributes":{"ID":393049,"DIS_CODE":0,"TOWNNAME":"永康區","LI":"復華里","LIN":"23鄰","STREET":"國華街","SECT":" ","MAREA":" ","LANE":"１３４巷","ALLEY":" ","HOUSE_NO":"７號","E_COORD97":172715.59,"N_COORD97":2546159.2400000002,"ADDRESS":"國華街１３４巷７號","OBJECTID":393025},"geometry":{"x":172715.59000000078,"y":2546159.2400000021}},{"attributes":{"ID":393050,"DIS_CODE":0,"TOWNNAME":"永康區","LI":"網寮里","LIN":"23鄰","STREET":"永春街","SECT":" ","MAREA":" ","LANE":"２０巷","ALLEY":" ","HOUSE_NO":"３號","E_COORD97":173778.84,"N_COORD97":2546300.3900000001,"ADDRESS":"永春街２０巷３號","OBJECTID":393026},"geometry":{"x":173778.83999999985,"y":2546300.3899999987}},{"attributes":{"ID":393051,"DIS_CODE":0,"TOWNNAME":"永康區","LI":"網寮里","LIN":"23鄰","STREET":"永春街","SECT":" ","MAREA":" ","LANE":"２０巷","ALLEY":" ","HOUSE_NO":"６號","E_COORD97":173792.53,"N_COORD97":2546285.9900000002,"ADDRESS":"永春街２０巷６號","OBJECTID":393027},"geometry":{"x":173792.53000000119,"y":2546285.9900000039}},{"attributes":{"ID":393052,"DIS_CODE":0,"TOWNNAME":"永康區","LI":"復國里","LIN":"23鄰","STREET":"復華三街","SECT":" ","MAREA":" ","LANE":"９０巷","ALLEY":" ","HOUSE_NO":"３７號","E_COORD97":172587.62,"N_COORD97":2545655.02,"ADDRESS":"復華三街９０巷３７號","OBJECTID":393028},"geometry":{"x":172587.62000000011,"y":2545655.0200000014}},{"attributes":{"ID":393053,"DIS_CODE":0,"TOWNNAME":"永康區","LI":"復國里","LIN":"23鄰","STREET":"復華三街","SECT":" ","MAREA":" ","LANE":"９０巷","ALLEY":" ","HOUSE_NO":"６３號","E_COORD97":172593.84,"N_COORD97":2545693.7799999998,"ADDRESS":"復華三街９０巷６３號","OBJECTID":393029},"geometry":{"x":172593.83999999985,"y":2545693.7800000012}},{"attributes":{"ID":393054,"DIS_CODE":0,"TOWNNAME":"永康區","LI":"復國里","LIN":"23鄰","STREET":"復華三街","SECT":" ","MAREA":" ","LANE":"９０巷","ALLEY":" ","HOUSE_NO":"６１號","E_COORD97":172588.42999999999,"N_COORD97":2545694.0299999998,"ADDRESS":"復華三街９０巷６１號","OBJECTID":393030},"geometry":{"x":172588.4299999997,"y":2545694.0299999993}},{"attributes":{"ID":393055,"DIS_CODE":0,"TOWNNAME":"永康區","LI":"復國里","LIN":"23鄰","STREET":"復華三街","SECT":" ","MAREA":" ","LANE":"９０巷","ALLEY":" ","HOUSE_NO":"６５號","E_COORD97":172598.64000000001,"N_COORD97":2545693.5299999998,"ADDRESS":"復華三街９０巷６５號","OBJECTID":393031},"geometry":{"x":172598.63999999966,"y":2545693.5299999993}},{"attributes":{"ID":393056,"DIS_CODE":0,"TOWNNAME":"永康區","LI":"復國里","LIN":"23鄰","STREET":"復國一路","SECT":" ","MAREA":" ","LANE":"３１５巷","ALLEY":" ","HOUSE_NO":"２６號","E_COORD97":172657.79999999999,"N_COORD97":2545637.3199999998,"ADDRESS":"復國一路３１５巷２６號","OBJECTID":393032},"geometry":{"x":172657.80000000075,"y":2545637.3200000022}},{"attributes":{"ID":393057,"DIS_CODE":0,"TOWNNAME":"永康區","LI":"復國里","LIN":"23鄰","STREET":"復國一路","SECT":" ","MAREA":" ","LANE":"３１５巷","ALLEY":" ","HOUSE_NO":"６號","E_COORD97":172720.45000000001,"N_COORD97":2545633.77,"ADDRESS":"復國一路３１５巷６號","OBJECTID":393033},"geometry":{"x":172720.45000000112,"y":2545633.7700000014}},{"attributes":{"ID":393058,"DIS_CODE":0,"TOWNNAME":"永康區","LI":"復國里","LIN":"23鄰","STREET":"復華三街","SECT":" ","MAREA":" ","LANE":"９０巷","ALLEY":" ","HOUSE_NO":"２３號","E_COORD97":172596.85999999999,"N_COORD97":2545638.27,"ADDRESS":"復華三街９０巷２３號","OBJECTID":393034},"geometry":{"x":172596.86000000127,"y":2545638.2699999996}},{"attributes":{"ID":393059,"DIS_CODE":0,"TOWNNAME":"永康區","LI":"復國里","LIN":"23鄰","STREET":"復華三街","SECT":" ","MAREA":" ","LANE":"９０巷","ALLEY":" ","HOUSE_NO":"２９號","E_COORD97":172582.76000000001,"N_COORD97":2545639.02,"ADDRESS":"復華三街９０巷２９號","OBJECTID":393035},"geometry":{"x":172582.75999999978,"y":2545639.0200000014}},{"attributes":{"ID":393060,"DIS_CODE":0,"TOWNNAME":"永康區","LI":"復國里","LIN":"23鄰","STREET":"復國一路","SECT":" ","MAREA":" ","LANE":"３１５巷","ALLEY":" ","HOUSE_NO":"２８號","E_COORD97":172652.35000000001,"N_COORD97":2545637.4900000002,"ADDRESS":"復國一路３１５巷２８號","OBJECTID":393036},"geometry":{"x":172652.35000000056,"y":2545637.4900000002}},{"attributes":{"ID":393061,"DIS_CODE":0,"TOWNNAME":"永康區","LI":"復國里","LIN":"23鄰","STREET":"復華三街","SECT":" ","MAREA":" ","LANE":"９０巷","ALLEY":" ","HOUSE_NO":"４７號","E_COORD97":172597.62,"N_COORD97":2545679.27,"ADDRESS":"復華三街９０巷４７號","OBJECTID":393037},"geometry":{"x":172597.62000000011,"y":2545679.2699999996}},{"attributes":{"ID":393062,"DIS_CODE":0,"TOWNNAME":"永康區","LI":"復國里","LIN":"23鄰","STREET":"復國一路","SECT":" ","MAREA":" ","LANE":"３２９巷","ALLEY":" ","HOUSE_NO":"３號","E_COORD97":172728,"N_COORD97":2545658.77,"ADDRESS":"復國一路３２９巷３號","OBJECTID":393038},"geometry":{"x":172728.00000000093,"y":2545658.7699999996}},{"attributes":{"ID":393063,"DIS_CODE":0,"TOWNNAME":"永康區","LI":"復國里","LIN":"23鄰","STREET":"復華三街","SECT":" ","MAREA":" ","LANE":"９０巷","ALLEY":" ","HOUSE_NO":"４１號","E_COORD97":172597.79999999999,"N_COORD97":2545654.52,"ADDRESS":"復華三街９０巷４１號","OBJECTID":393039},"geometry":{"x":172597.79999999981,"y":2545654.5200000033}},{"attributes":{"ID":393064,"DIS_CODE":0,"TOWNNAME":"永康區","LI":"復國里","LIN":"23鄰","STREET":"復華三街","SECT":" ","MAREA":" ","LANE":"９０巷","ALLEY":" ","HOUSE_NO":"４３號","E_COORD97":172602.57000000001,"N_COORD97":2545654.52,"ADDRESS":"復華三街９０巷４３號","OBJECTID":393040},"geometry":{"x":172602.57000000123,"y":2545654.5200000033}},{"attributes":{"ID":393065,"DIS_CODE":0,"TOWNNAME":"永康區","LI":"復國里","LIN":"23鄰","STREET":"復華三街","SECT":" ","MAREA":" ","LANE":"９０巷","ALLEY":" ","HOUSE_NO":"５１號","E_COORD97":172588.01000000001,"N_COORD97":2545680.0299999998,"ADDRESS":"復華三街９０巷５１號","OBJECTID":393041},"geometry":{"x":172588.00999999978,"y":2545680.0299999993}},{"attributes":{"ID":393066,"DIS_CODE":0,"TOWNNAME":"永康區","LI":"復國里","LIN":"23鄰","STREET":"復國一路","SECT":" ","MAREA":" ","LANE":"３１５巷","ALLEY":" ","HOUSE_NO":"４號","E_COORD97":172725.70999999999,"N_COORD97":2545633.52,"ADDRESS":"復國一路３１５巷４號","OBJECTID":393042},"geometry":{"x":172725.70999999996,"y":2545633.5199999996}},{"attributes":{"ID":393067,"DIS_CODE":0,"TOWNNAME":"永康區","LI":"復國里","LIN":"23鄰","STREET":"復華三街","SECT":" ","MAREA":" ","LANE":"９０巷","ALLEY":" ","HOUSE_NO":"３９號","E_COORD97":172592.91,"N_COORD97":2545654.77,"ADDRESS":"復華三街９０巷３９號","OBJECTID":393043},"geometry":{"x":172592.91000000108,"y":2545654.7699999996}},{"attributes":{"ID":393068,"DIS_CODE":0,"TOWNNAME":"永康區","LI":"復國里","LIN":"23鄰","STREET":"復國一路","SECT":" ","MAREA":" ","LANE":"３１５巷","ALLEY":" ","HOUSE_NO":"２號","E_COORD97":172731.81,"N_COORD97":2545633.27,"ADDRESS":"復國一路３１５巷２號","OBJECTID":393044},"geometry":{"x":172731.81000000145,"y":2545633.2700000014}},{"attributes":{"ID":393069,"DIS_CODE":0,"TOWNNAME":"永康區","LI":"復國里","LIN":"23鄰","STREET":"復國一路","SECT":" ","MAREA":" ","LANE":"３２９巷","ALLEY":" ","HOUSE_NO":"８號","E_COORD97":172717.85999999999,"N_COORD97":2545677.02,"ADDRESS":"復國一路３２９巷８號","OBJECTID":393045},"geometry":{"x":172717.86000000127,"y":2545677.0199999996}},{"attributes":{"ID":393070,"DIS_CODE":0,"TOWNNAME":"永康區","LI":"復國里","LIN":"23鄰","STREET":"復華三街","SECT":" ","MAREA":" ","LANE":"９０巷","ALLEY":" ","HOUSE_NO":"２７號","E_COORD97":172587.42000000001,"N_COORD97":2545638.77,"ADDRESS":"復華三街９０巷２７號","OBJECTID":393046},"geometry":{"x":172587.42000000179,"y":2545638.7699999996}},{"attributes":{"ID":393071,"DIS_CODE":0,"TOWNNAME":"永康區","LI":"復國里","LIN":"23鄰","STREET":"復華三街","SECT":" ","MAREA":" ","LANE":"９０巷","ALLEY":" ","HOUSE_NO":"２１號","E_COORD97":172602.17000000001,"N_COORD97":2545638.02,"ADDRESS":"復華三街９０巷２１號","OBJECTID":393047},"geometry":{"x":172602.16999999993,"y":2545638.0200000014}},{"attributes":{"ID":393072,"DIS_CODE":0,"TOWNNAME":"永康區","LI":"復國里","LIN":"23鄰","STREET":"復華三街","SECT":" ","MAREA":" ","LANE":"９０巷","ALLEY":" ","HOUSE_NO":"４５號","E_COORD97":172603.34,"N_COORD97":2545678.77,"ADDRESS":"復華三街９０巷４５號","OBJECTID":393048},"geometry":{"x":172603.34000000078,"y":2545678.7699999996}},{"attributes":{"ID":393073,"DIS_CODE":0,"TOWNNAME":"永康區","LI":"復國里","LIN":"23鄰","STREET":"復華三街","SECT":" ","MAREA":" ","LANE":"９０巷","ALLEY":" ","HOUSE_NO":"３５號","E_COORD97":172582.45999999999,"N_COORD97":2545655.52,"ADDRESS":"復華三街９０巷３５號","OBJECTID":393049},"geometry":{"x":172582.46000000089,"y":2545655.5200000014}},{"attributes":{"ID":393074,"DIS_CODE":0,"TOWNNAME":"永康區","LI":"復國里","LIN":"23鄰","STREET":"復華三街","SECT":" ","MAREA":" ","LANE":"９０巷","ALLEY":" ","HOUSE_NO":"５９號","E_COORD97":172583.79000000001,"N_COORD97":2545694.5299999998,"ADDRESS":"復華三街９０巷５９號","OBJECTID":393050},"geometry":{"x":172583.79000000097,"y":2545694.5299999975}},{"attributes":{"ID":393075,"DIS_CODE":0,"TOWNNAME":"永康區","LI":"復國里","LIN":"23鄰","STREET":"復國一路","SECT":" ","MAREA":" ","LANE":"３２９巷","ALLEY":" ","HOUSE_NO":"７號","E_COORD97":172717.89999999999,"N_COORD97":2545659.02,"ADDRESS":"復國一路３２９巷７號","OBJECTID":393051},"geometry":{"x":172717.90000000037,"y":2545659.0200000014}},{"attributes":{"ID":393076,"DIS_CODE":0,"TOWNNAME":"永康區","LI":"復國里","LIN":"23鄰","STREET":"復國一路","SECT":" ","MAREA":" ","LANE":"３１５巷","ALLEY":" ","HOUSE_NO":"２４號","E_COORD97":172662.89000000001,"N_COORD97":2545637.0699999998,"ADDRESS":"復國一路３１５巷２４號","OBJECTID":393052},"geometry":{"x":172662.88999999966,"y":2545637.0700000003}},{"attributes":{"ID":393077,"DIS_CODE":0,"TOWNNAME":"永康區","LI":"復國里","LIN":"23鄰","STREET":"復國一路","SECT":" ","MAREA":" ","LANE":"３１５巷","ALLEY":" ","HOUSE_NO":"３６號","E_COORD97":172632.67000000001,"N_COORD97":2545638.4900000002,"ADDRESS":"復國一路３１５巷３６號","OBJECTID":393053},"geometry":{"x":172632.66999999993,"y":2545638.4900000039}},{"attributes":{"ID":393078,"DIS_CODE":0,"TOWNNAME":"永康區","LI":"復國里","LIN":"23鄰","STREET":"復華三街","SECT":" ","MAREA":" ","LANE":"９０巷","ALLEY":" ","HOUSE_NO":"５號","E_COORD97":172588.39000000001,"N_COORD97":2545596.7799999998,"ADDRESS":"復華三街９０巷５號","OBJECTID":393054},"geometry":{"x":172588.38999999966,"y":2545596.7799999993}},{"attributes":{"ID":393079,"DIS_CODE":0,"TOWNNAME":"永康區","LI":"復國里","LIN":"23鄰","STREET":"復華三街","SECT":" ","MAREA":" ","LANE":"９０巷","ALLEY":" ","HOUSE_NO":"５７號","E_COORD97":172577.60000000001,"N_COORD97":2545694.5299999998,"ADDRESS":"復華三街９０巷５７號","OBJECTID":393055},"geometry":{"x":172577.60000000056,"y":2545694.5299999975}},{"attributes":{"ID":393080,"DIS_CODE":0,"TOWNNAME":"永康區","LI":"復華里","LIN":"23鄰","STREET":"國華街","SECT":" ","MAREA":" ","LANE":"１３４巷","ALLEY":" ","HOUSE_NO":"１６號","E_COORD97":172736.73999999999,"N_COORD97":2546164.2400000002,"ADDRESS":"國華街１３４巷１６號","OBJECTID":393056},"geometry":{"x":172736.74000000115,"y":2546164.2400000002}},{"attributes":{"ID":393081,"DIS_CODE":0,"TOWNNAME":"永康區","LI":"勝利里","LIN":"23鄰","STREET":"中華一路","SECT":" ","MAREA":" ","LANE":"２０３巷","ALLEY":" ","HOUSE_NO":"１０號之２","E_COORD97":171426.54000000001,"N_COORD97":2544905.54,"ADDRESS":"中華一路２０３巷１０號之２","OBJECTID":393057},"geometry":{"x":171426.54000000004,"y":2544905.540000001}},{"attributes":{"ID":393082,"DIS_CODE":0,"TOWNNAME":"永康區","LI":"勝利里","LIN":"23鄰","STREET":"中華一路","SECT":" ","MAREA":" ","LANE":"１８１巷","ALLEY":" ","HOUSE_NO":"２０號","E_COORD97":171491.19,"N_COORD97":2544896.5,"ADDRESS":"中華一路１８１巷２０號","OBJECTID":393058},"geometry":{"x":171491.19000000134,"y":2544896.5000000019}},{"attributes":{"ID":393083,"DIS_CODE":0,"TOWNNAME":"永康區","LI":"勝利里","LIN":"23鄰","STREET":"中華一路","SECT":" ","MAREA":" ","LANE":"１８１巷","ALLEY":" ","HOUSE_NO":"２８號","E_COORD97":171488.57000000001,"N_COORD97":2544879.25,"ADDRESS":"中華一路１８１巷２８號","OBJECTID":393059},"geometry":{"x":171488.57000000123,"y":2544879.25}},{"attributes":{"ID":393084,"DIS_CODE":0,"TOWNNAME":"永康區","LI":"勝利里","LIN":"23鄰","STREET":"中華一路","SECT":" ","MAREA":" ","LANE":"２０３巷","ALLEY":" ","HOUSE_NO":"２５號","E_COORD97":171451.51000000001,"N_COORD97":2544884,"ADDRESS":"中華一路２０３巷２５號","OBJECTID":393060},"geometry":{"x":171451.51000000071,"y":2544884}},{"attributes":{"ID":393085,"DIS_CODE":0,"TOWNNAME":"永康區","LI":"勝利里","LIN":"23鄰","STREET":"中華一路","SECT":" ","MAREA":" ","LANE":"２０３巷","ALLEY":" ","HOUSE_NO":"１０號之１","E_COORD97":171426.41,"N_COORD97":2544905.54,"ADDRESS":"中華一路２０３巷１０號之１","OBJECTID":393061},"geometry":{"x":171426.41000000201,"y":2544905.540000001}},{"attributes":{"ID":393086,"DIS_CODE":0,"TOWNNAME":"永康區","LI":"復華里","LIN":"23鄰","STREET":"國華街","SECT":" ","MAREA":" ","LANE":"１３４巷","ALLEY":" ","HOUSE_NO":"３４號","E_COORD97":172759.79999999999,"N_COORD97":2546202.25,"ADDRESS":"國華街１３４巷３４號","OBJECTID":393062},"geometry":{"x":172759.80000000075,"y":2546202.25}},{"attributes":{"ID":393087,"DIS_CODE":0,"TOWNNAME":"永康區","LI":"崑山里","LIN":"23鄰","STREET":"崑山街","SECT":" ","MAREA":" ","LANE":"６３巷","ALLEY":" ","HOUSE_NO":"２０號","E_COORD97":173884.81,"N_COORD97":2544681.7000000002,"ADDRESS":"崑山街６３巷２０號","OBJECTID":393063},"geometry":{"x":173884.81000000052,"y":2544681.6999999993}},{"attributes":{"ID":393088,"DIS_CODE":0,"TOWNNAME":"永康區","LI":"勝利里","LIN":"23鄰","STREET":"中華一路","SECT":" ","MAREA":" ","LANE":"２０３巷","ALLEY":" ","HOUSE_NO":"１７號","E_COORD97":171454.13,"N_COORD97":2544907.9900000002,"ADDRESS":"中華一路２０３巷１７號","OBJECTID":393064},"geometry":{"x":171454.13000000082,"y":2544907.9900000002}},{"attributes":{"ID":393089,"DIS_CODE":0,"TOWNNAME":"永康區","LI":"勝利里","LIN":"23鄰","STREET":"中華一路","SECT":" ","MAREA":" ","LANE":"２０３巷","ALLEY":" ","HOUSE_NO":"７號","E_COORD97":171454.87,"N_COORD97":2544928.2400000002,"ADDRESS":"中華一路２０３巷７號","OBJECTID":393065},"geometry":{"x":171454.87000000011,"y":2544928.2400000039}},{"attributes":{"ID":393090,"DIS_CODE":0,"TOWNNAME":"東區","LI":"崇誨里","LIN":"23鄰","STREET":"東寧路","SECT":" ","MAREA":" ","LANE":"２４８巷","ALLEY":" ","HOUSE_NO":"３２號","E_COORD97":170591.78,"N_COORD97":2543365.7000000002,"ADDRESS":"東寧路２４８巷３２號","OBJECTID":393066},"geometry":{"x":170591.78000000212,"y":2543365.7000000011}},{"attributes":{"ID":393091,"DIS_CODE":0,"TOWNNAME":"永康區","LI":"龍潭里","LIN":"44鄰","STREET":"永平街","SECT":" ","MAREA":" ","LANE":"２９８巷","ALLEY":" ","HOUSE_NO":"１１之８號","E_COORD97":174653.62,"N_COORD97":2547150.1899999999,"ADDRESS":"永平街２９８巷１１之８號","OBJECTID":393067},"geometry":{"x":174653.62000000011,"y":2547150.1899999995}},{"attributes":{"ID":393092,"DIS_CODE":0,"TOWNNAME":"仁德區","LI":"仁德里","LIN":"23鄰","STREET":"文心路","SECT":" ","MAREA":" ","LANE":"５８巷","ALLEY":" ","HOUSE_NO":"７０號","E_COORD97":172262.70000000001,"N_COORD97":2541356.0800000001,"ADDRESS":"文心路５８巷７０號","OBJECTID":393068},"geometry":{"x":172262.70000000112,"y":2541356.0800000019}},{"attributes":{"ID":393093,"DIS_CODE":0,"TOWNNAME":"仁德區","LI":"太子里","LIN":"23鄰","STREET":"長興四街","SECT":" ","MAREA":" ","LANE":"９０巷","ALLEY":" ","HOUSE_NO":"３號","E_COORD97":173829.95999999999,"N_COORD97":2543591.25,"ADDRESS":"長興四街９０巷３號","OBJECTID":393069},"geometry":{"x":173829.96000000089,"y":2543591.25}},{"attributes":{"ID":393094,"DIS_CODE":0,"TOWNNAME":"仁德區","LI":"太子里","LIN":"23鄰","STREET":"中正路","SECT":"三段","MAREA":" ","LANE":"７０４巷","ALLEY":" ","HOUSE_NO":"９號","E_COORD97":173806.28,"N_COORD97":2543628.2799999998,"ADDRESS":"中正路三段７０４巷９號","OBJECTID":393070},"geometry":{"x":173806.28000000119,"y":2543628.2800000031}},{"attributes":{"ID":393095,"DIS_CODE":0,"TOWNNAME":"東區","LI":"崇德里","LIN":"23鄰","STREET":"崇德路","SECT":" ","MAREA":" ","LANE":"５３０巷","ALLEY":" ","HOUSE_NO":"６０號","E_COORD97":170618.03,"N_COORD97":2541523.3999999999,"ADDRESS":"崇德路５３０巷６０號","OBJECTID":393071},"geometry":{"x":170618.03000000026,"y":2541523.4000000041}},{"attributes":{"ID":393096,"DIS_CODE":0,"TOWNNAME":"安南區","LI":"\u25A0南里","LIN":"23鄰","STREET":"環福街","SECT":" ","MAREA":" ","LANE":"２１６巷","ALLEY":" ","HOUSE_NO":"３５號","E_COORD97":170357.06,"N_COORD97":2552686.5499999998,"ADDRESS":"環福街２１６巷３５號","OBJECTID":393072},"geometry":{"x":170357.06000000052,"y":2552686.5500000007}},{"attributes":{"ID":393097,"DIS_CODE":0,"TOWNNAME":"永康區","LI":"勝利里","LIN":"23鄰","STREET":"中華一路","SECT":" ","MAREA":" ","LANE":"２０３巷","ALLEY":" ","HOUSE_NO":"８號之３","E_COORD97":171424.60000000001,"N_COORD97":2544914.54,"ADDRESS":"中華一路２０３巷８號之３","OBJECTID":393073},"geometry":{"x":171424.60000000149,"y":2544914.5399999972}},{"attributes":{"ID":393098,"DIS_CODE":0,"TOWNNAME":"永康區","LI":"勝利里","LIN":"23鄰","STREET":"中華一路","SECT":" ","MAREA":" ","LANE":"２０３巷","ALLEY":" ","HOUSE_NO":"１２號之５","E_COORD97":171427.12,"N_COORD97":2544895.5499999998,"ADDRESS":"中華一路２０３巷１２號之５","OBJECTID":393074},"geometry":{"x":171427.12000000104,"y":2544895.5500000007}},{"attributes":{"ID":393099,"DIS_CODE":0,"TOWNNAME":"永康區","LI":"復華里","LIN":"23鄰","STREET":"國華街","SECT":" ","MAREA":" ","LANE":"１３４巷","ALLEY":" ","HOUSE_NO":"６號","E_COORD97":172722.20000000001,"N_COORD97":2546141.75,"ADDRESS":"國華街１３４巷６號","OBJECTID":393075},"geometry":{"x":172722.20000000019,"y":2546141.7500000037}},{"attributes":{"ID":393100,"DIS_CODE":0,"TOWNNAME":"永康區","LI":"復華里","LIN":"23鄰","STREET":"國華街","SECT":" ","MAREA":" ","LANE":"１３４巷","ALLEY":" ","HOUSE_NO":"２０號","E_COORD97":172741.64999999999,"N_COORD97":2546172.4900000002,"ADDRESS":"國華街１３４巷２０號","OBJECTID":393076},"geometry":{"x":172741.65000000037,"y":2546172.4900000002}},{"attributes":{"ID":393101,"DIS_CODE":0,"TOWNNAME":"永康區","LI":"勝利里","LIN":"23鄰","STREET":"中華一路","SECT":" ","MAREA":" ","LANE":"１８１巷","ALLEY":" ","HOUSE_NO":"２２號","E_COORD97":171489.37,"N_COORD97":2544891.5,"ADDRESS":"中華一路１８１巷２２號","OBJECTID":393077},"geometry":{"x":171489.37000000197,"y":2544891.5}},{"attributes":{"ID":393102,"DIS_CODE":0,"TOWNNAME":"永康區","LI":"勝利里","LIN":"23鄰","STREET":"中華一路","SECT":" ","MAREA":" ","LANE":"２０３巷","ALLEY":" ","HOUSE_NO":"５號","E_COORD97":171455.38,"N_COORD97":2544932.2400000002,"ADDRESS":"中華一路２０３巷５號","OBJECTID":393078},"geometry":{"x":171455.38000000082,"y":2544932.2400000021}},{"attributes":{"ID":393103,"DIS_CODE":0,"TOWNNAME":"永康區","LI":"勝利里","LIN":"23鄰","STREET":"中華一路","SECT":" ","MAREA":" ","LANE":"２０３巷","ALLEY":" ","HOUSE_NO":"１２號之２","E_COORD97":171427.10000000001,"N_COORD97":2544895.5499999998,"ADDRESS":"中華一路２０３巷１２號之２","OBJECTID":393079},"geometry":{"x":171427.10000000056,"y":2544895.5500000007}},{"attributes":{"ID":393104,"DIS_CODE":0,"TOWNNAME":"永康區","LI":"大灣里","LIN":"13鄰","STREET":"民族路","SECT":" ","MAREA":" ","LANE":"１９０巷","ALLEY":" ","HOUSE_NO":"２０號","E_COORD97":175268.39999999999,"N_COORD97":2545092.5099999998,"ADDRESS":"民族路１９０巷２０號","OBJECTID":393080},"geometry":{"x":175268.4000000013,"y":2545092.5100000016}},{"attributes":{"ID":393105,"DIS_CODE":0,"TOWNNAME":"永康區","LI":"三合里","LIN":"24鄰","STREET":"南工街","SECT":" ","MAREA":" ","LANE":"２６７巷","ALLEY":" ","HOUSE_NO":"４０號","E_COORD97":171867.95999999999,"N_COORD97":2545847.7400000002,"ADDRESS":"南工街２６７巷４０號","OBJECTID":393081},"geometry":{"x":171867.95999999996,"y":2545847.7400000021}},{"attributes":{"ID":393106,"DIS_CODE":0,"TOWNNAME":"永康區","LI":"二王里","LIN":"34鄰","STREET":"中山南路","SECT":" ","MAREA":" ","LANE":"４９０巷","ALLEY":" ","HOUSE_NO":"１０號","E_COORD97":172100.64000000001,"N_COORD97":2546386,"ADDRESS":"中山南路４９０巷１０號","OBJECTID":393082},"geometry":{"x":172100.63999999873,"y":2546386}},{"attributes":{"ID":393107,"DIS_CODE":0,"TOWNNAME":"永康區","LI":"二王里","LIN":"31鄰","STREET":"中山南路","SECT":" ","MAREA":" ","LANE":"５１０巷","ALLEY":" ","HOUSE_NO":"３２號","E_COORD97":172169.48999999999,"N_COORD97":2546424.1299999999,"ADDRESS":"中山南路５１０巷３２號","OBJECTID":393083},"geometry":{"x":172169.49000000022,"y":2546424.1300000008}},{"attributes":{"ID":393108,"DIS_CODE":0,"TOWNNAME":"東區","LI":"崇誨里","LIN":"23鄰","STREET":"東寧路","SECT":" ","MAREA":" ","LANE":"２４８巷","ALLEY":" ","HOUSE_NO":"５號","E_COORD97":170591.70999999999,"N_COORD97":2543433.27,"ADDRESS":"東寧路２４８巷５號","OBJECTID":393084},"geometry":{"x":170591.70999999996,"y":2543433.2700000014}},{"attributes":{"ID":393109,"DIS_CODE":0,"TOWNNAME":"東區","LI":"崇誨里","LIN":"23鄰","STREET":"東寧路","SECT":" ","MAREA":" ","LANE":"２４８巷","ALLEY":" ","HOUSE_NO":"１９號","E_COORD97":170600.32000000001,"N_COORD97":2543400.3599999999,"ADDRESS":"東寧路２４８巷１９號","OBJECTID":393085},"geometry":{"x":170600.32000000123,"y":2543400.3599999994}},{"attributes":{"ID":393110,"DIS_CODE":0,"TOWNNAME":"東區","LI":"崇誨里","LIN":"23鄰","STREET":"東寧路","SECT":" ","MAREA":" ","LANE":"２４８巷","ALLEY":" ","HOUSE_NO":"１０號","E_COORD97":170571.47,"N_COORD97":2543427.5600000001,"ADDRESS":"東寧路２４８巷１０號","OBJECTID":393086},"geometry":{"x":170571.47000000067,"y":2543427.5600000042}},{"attributes":{"ID":393111,"DIS_CODE":0,"TOWNNAME":"東區","LI":"崇誨里","LIN":"23鄰","STREET":"東寧路","SECT":" ","MAREA":" ","LANE":"２４８巷","ALLEY":" ","HOUSE_NO":"１１號","E_COORD97":170598.63,"N_COORD97":2543421.8500000001,"ADDRESS":"東寧路２４８巷１１號","OBJECTID":393087},"geometry":{"x":170598.62999999989,"y":2543421.8500000015}},{"attributes":{"ID":393112,"DIS_CODE":0,"TOWNNAME":"東區","LI":"崇誨里","LIN":"23鄰","STREET":"東寧路","SECT":" ","MAREA":" ","LANE":"２４８巷","ALLEY":" ","HOUSE_NO":"１２號","E_COORD97":170572.45999999999,"N_COORD97":2543423.54,"ADDRESS":"東寧路２４８巷１２號","OBJECTID":393088},"geometry":{"x":170572.45999999996,"y":2543423.540000001}},{"attributes":{"ID":393113,"DIS_CODE":0,"TOWNNAME":"東區","LI":"崇誨里","LIN":"23鄰","STREET":"東寧路","SECT":" ","MAREA":" ","LANE":"２４８巷","ALLEY":" ","HOUSE_NO":"１３號","E_COORD97":170599.60999999999,"N_COORD97":2543417.9100000001,"ADDRESS":"東寧路２４８巷１３號","OBJECTID":393089},"geometry":{"x":170599.6099999994,"y":2543417.9099999983}},{"attributes":{"ID":393114,"DIS_CODE":0,"TOWNNAME":"東區","LI":"崇誨里","LIN":"23鄰","STREET":"東寧路","SECT":" ","MAREA":" ","LANE":"２４８巷","ALLEY":" ","HOUSE_NO":"１４號","E_COORD97":170574.29000000001,"N_COORD97":2543419.7400000002,"ADDRESS":"東寧路２４８巷１４號","OBJECTID":393090},"geometry":{"x":170574.29000000004,"y":2543419.7400000021}},{"attributes":{"ID":393115,"DIS_CODE":0,"TOWNNAME":"東區","LI":"崇誨里","LIN":"23鄰","STREET":"東寧路","SECT":" ","MAREA":" ","LANE":"２４８巷","ALLEY":" ","HOUSE_NO":"１５號","E_COORD97":170600.60000000001,"N_COORD97":2543414.3799999999,"ADDRESS":"東寧路２４８巷１５號","OBJECTID":393091},"geometry":{"x":170600.59999999963,"y":2543414.3800000008}},{"attributes":{"ID":393116,"DIS_CODE":0,"TOWNNAME":"東區","LI":"崇誨里","LIN":"23鄰","STREET":"東寧路","SECT":" ","MAREA":" ","LANE":"２４８巷","ALLEY":" ","HOUSE_NO":"１６號","E_COORD97":170575.28,"N_COORD97":2543415.9300000002,"ADDRESS":"東寧路２４８巷１６號","OBJECTID":393092},"geometry":{"x":170575.28000000119,"y":2543415.9299999997}},{"attributes":{"ID":393117,"DIS_CODE":0,"TOWNNAME":"東區","LI":"崇誨里","LIN":"23鄰","STREET":"東寧路","SECT":" ","MAREA":" ","LANE":"２４８巷","ALLEY":" ","HOUSE_NO":"１７號","E_COORD97":170598.34,"N_COORD97":2543407.5499999998,"ADDRESS":"東寧路２４８巷１７號","OBJECTID":393093},"geometry":{"x":170598.34000000078,"y":2543407.5500000045}},{"attributes":{"ID":393118,"DIS_CODE":0,"TOWNNAME":"東區","LI":"崇誨里","LIN":"23鄰","STREET":"東寧路","SECT":" ","MAREA":" ","LANE":"２４８巷","ALLEY":" ","HOUSE_NO":"１８號","E_COORD97":170576.26999999999,"N_COORD97":2543411.9900000002,"ADDRESS":"東寧路２４８巷１８號","OBJECTID":393094},"geometry":{"x":170576.27000000048,"y":2543411.9900000021}},{"attributes":{"ID":393119,"DIS_CODE":0,"TOWNNAME":"東區","LI":"崇誨里","LIN":"23鄰","STREET":"東寧路","SECT":" ","MAREA":" ","LANE":"２４８巷","ALLEY":" ","HOUSE_NO":"１號","E_COORD97":170597.07000000001,"N_COORD97":2543440.5899999999,"ADDRESS":"東寧路２４８巷１號","OBJECTID":393095},"geometry":{"x":170597.07000000123,"y":2543440.5900000036}},{"attributes":{"ID":393120,"DIS_CODE":0,"TOWNNAME":"東區","LI":"崇誨里","LIN":"23鄰","STREET":"東寧路","SECT":" ","MAREA":" ","LANE":"２４８巷","ALLEY":" ","HOUSE_NO":"２０號","E_COORD97":170577.54000000001,"N_COORD97":2543408.1800000002,"ADDRESS":"東寧路２４８巷２０號","OBJECTID":393096},"geometry":{"x":170577.54000000004,"y":2543408.1799999997}},{"attributes":{"ID":393121,"DIS_CODE":0,"TOWNNAME":"東區","LI":"崇誨里","LIN":"23鄰","STREET":"東寧路","SECT":" ","MAREA":" ","LANE":"２４８巷","ALLEY":" ","HOUSE_NO":"２１號","E_COORD97":170602.42999999999,"N_COORD97":2543392.0499999998,"ADDRESS":"東寧路２４８巷２１號","OBJECTID":393097},"geometry":{"x":170602.43000000063,"y":2543392.0500000026}},{"attributes":{"ID":393122,"DIS_CODE":0,"TOWNNAME":"東區","LI":"崇誨里","LIN":"23鄰","STREET":"東寧路","SECT":" ","MAREA":" ","LANE":"２４８巷","ALLEY":" ","HOUSE_NO":"２號","E_COORD97":170576.54999999999,"N_COORD97":2543447.4300000002,"ADDRESS":"東寧路２４８巷２號","OBJECTID":393098},"geometry":{"x":170576.55000000075,"y":2543447.4299999997}},{"attributes":{"ID":393123,"DIS_CODE":0,"TOWNNAME":"東區","LI":"崇誨里","LIN":"23鄰","STREET":"東寧路","SECT":" ","MAREA":" ","LANE":"２４８巷","ALLEY":" ","HOUSE_NO":"３０號","E_COORD97":170589.81,"N_COORD97":2543372.8900000001,"ADDRESS":"東寧路２４８巷３０號","OBJECTID":393099},"geometry":{"x":170589.81000000052,"y":2543372.8900000025}},{"attributes":{"ID":393124,"DIS_CODE":0,"TOWNNAME":"永康區","LI":"二王里","LIN":"14鄰","STREET":"永二街","SECT":" ","MAREA":" ","LANE":"４５９巷","ALLEY":" ","HOUSE_NO":"１４號","E_COORD97":172576.64000000001,"N_COORD97":2546631.3700000001,"ADDRESS":"永二街４５９巷１４號","OBJECTID":393100},"geometry":{"x":172576.63999999966,"y":2546631.3700000029}},{"attributes":{"ID":393125,"DIS_CODE":0,"TOWNNAME":"永康區","LI":"三民里","LIN":"6鄰","STREET":"三民街","SECT":" ","MAREA":" ","LANE":"１８巷","ALLEY":" ","HOUSE_NO":"２８號","E_COORD97":173369.23000000001,"N_COORD97":2550174.54,"ADDRESS":"三民街１８巷２８號","OBJECTID":393101},"geometry":{"x":173369.23000000138,"y":2550174.540000001}},{"attributes":{"ID":393126,"DIS_CODE":0,"TOWNNAME":"東區","LI":"崇誨里","LIN":"23鄰","STREET":"東寧路","SECT":" ","MAREA":" ","LANE":"２４８巷","ALLEY":" ","HOUSE_NO":"６號","E_COORD97":170573.73000000001,"N_COORD97":2543437.2799999998,"ADDRESS":"東寧路２４８巷６號","OBJECTID":393102},"geometry":{"x":170573.73000000231,"y":2543437.2799999993}},{"attributes":{"ID":393127,"DIS_CODE":0,"TOWNNAME":"東區","LI":"崇誨里","LIN":"23鄰","STREET":"東寧路","SECT":" ","MAREA":" ","LANE":"２４８巷","ALLEY":" ","HOUSE_NO":"７號","E_COORD97":170596.64999999999,"N_COORD97":2543429.8799999999,"ADDRESS":"東寧路２４８巷７號","OBJECTID":393103},"geometry":{"x":170596.6500000013,"y":2543429.879999999}},{"attributes":{"ID":393128,"DIS_CODE":0,"TOWNNAME":"東區","LI":"崇誨里","LIN":"23鄰","STREET":"東寧路","SECT":" ","MAREA":" ","LANE":"２４８巷","ALLEY":" ","HOUSE_NO":"８號","E_COORD97":170570.63,"N_COORD97":2543432.0699999998,"ADDRESS":"東寧路２４８巷８號","OBJECTID":393104},"geometry":{"x":170570.63000000082,"y":2543432.0700000022}},{"attributes":{"ID":393129,"DIS_CODE":0,"TOWNNAME":"東區","LI":"崇誨里","LIN":"23鄰","STREET":"東寧路","SECT":" ","MAREA":" ","LANE":"２４８巷","ALLEY":" ","HOUSE_NO":"９號","E_COORD97":170597.5,"N_COORD97":2543425.9399999999,"ADDRESS":"東寧路２４８巷９號","OBJECTID":393105},"geometry":{"x":170597.50000000093,"y":2543425.9399999995}},{"attributes":{"ID":393130,"DIS_CODE":0,"TOWNNAME":"東區","LI":"崇誨里","LIN":"23鄰","STREET":"東寧路","SECT":" ","MAREA":" ","LANE":"２４８巷","ALLEY":" ","HOUSE_NO":"４號","E_COORD97":170575.56,"N_COORD97":2543442.21,"ADDRESS":"東寧路２４８巷４號","OBJECTID":393106},"geometry":{"x":170575.56000000145,"y":2543442.2100000028}},{"attributes":{"ID":393131,"DIS_CODE":0,"TOWNNAME":"永康區","LI":"二王里","LIN":"22鄰","STREET":"中山南路","SECT":" ","MAREA":" ","LANE":"６１６巷","ALLEY":" ","HOUSE_NO":"１６號","E_COORD97":172321.98000000001,"N_COORD97":2546548.4399999999,"ADDRESS":"中山南路６１６巷１６號","OBJECTID":393107},"geometry":{"x":172321.98000000138,"y":2546548.4399999995}},{"attributes":{"ID":393132,"DIS_CODE":0,"TOWNNAME":"永康區","LI":"二王里","LIN":"34鄰","STREET":"中山南路","SECT":" ","MAREA":" ","LANE":"４９０巷","ALLEY":" ","HOUSE_NO":"１０號之４","E_COORD97":172115.85999999999,"N_COORD97":2546376.04,"ADDRESS":"中山南路４９０巷１０號之４","OBJECTID":393108},"geometry":{"x":172115.86000000127,"y":2546376.0400000028}},{"attributes":{"ID":393133,"DIS_CODE":0,"TOWNNAME":"永康區","LI":"二王里","LIN":"14鄰","STREET":"永二街","SECT":" ","MAREA":" ","LANE":"４５９巷","ALLEY":" ","HOUSE_NO":"２０號之８","E_COORD97":172596.57000000001,"N_COORD97":2546597.29,"ADDRESS":"永二街４５９巷２０號之８","OBJECTID":393109},"geometry":{"x":172596.5700000003,"y":2546597.2899999991}},{"attributes":{"ID":393134,"DIS_CODE":0,"TOWNNAME":"中西區","LI":"萬昌里","LIN":"23鄰","STREET":"青年路","SECT":" ","MAREA":" ","LANE":"２２６巷","ALLEY":" ","HOUSE_NO":"１５號","E_COORD97":169147.57999999999,"N_COORD97":2543506.52,"ADDRESS":"青年路２２６巷１５號","OBJECTID":393110},"geometry":{"x":169147.58000000101,"y":2543506.5200000014}},{"attributes":{"ID":393135,"DIS_CODE":0,"TOWNNAME":"中西區","LI":"萬昌里","LIN":"23鄰","STREET":"青年路","SECT":" ","MAREA":" ","LANE":"２２６巷","ALLEY":" ","HOUSE_NO":"１７號","E_COORD97":169143.66,"N_COORD97":2543502.6000000001,"ADDRESS":"青年路２２６巷１７號","OBJECTID":393111},"geometry":{"x":169143.66000000108,"y":2543502.6000000015}},{"attributes":{"ID":393136,"DIS_CODE":0,"TOWNNAME":"中西區","LI":"萬昌里","LIN":"23鄰","STREET":"青年路","SECT":" ","MAREA":" ","LANE":"２２６巷","ALLEY":" ","HOUSE_NO":"１９號","E_COORD97":169140.06,"N_COORD97":2543502.1200000001,"ADDRESS":"青年路２２６巷１９號","OBJECTID":393112},"geometry":{"x":169140.06000000052,"y":2543502.120000001}},{"attributes":{"ID":393137,"DIS_CODE":0,"TOWNNAME":"中西區","LI":"萬昌里","LIN":"23鄰","STREET":"青年路","SECT":" ","MAREA":" ","LANE":"２２６巷","ALLEY":" ","HOUSE_NO":"１號","E_COORD97":169134.01999999999,"N_COORD97":2543544.7000000002,"ADDRESS":"青年路２２６巷１號","OBJECTID":393113},"geometry":{"x":169134.02000000048,"y":2543544.7000000011}},{"attributes":{"ID":393138,"DIS_CODE":0,"TOWNNAME":"中西區","LI":"萬昌里","LIN":"23鄰","STREET":"青年路","SECT":" ","MAREA":" ","LANE":"２２６巷","ALLEY":" ","HOUSE_NO":"２１號","E_COORD97":169135,"N_COORD97":2543499.9900000002,"ADDRESS":"青年路２２６巷２１號","OBJECTID":393114},"geometry":{"x":169135,"y":2543499.9900000021}},{"attributes":{"ID":393139,"DIS_CODE":0,"TOWNNAME":"中西區","LI":"萬昌里","LIN":"23鄰","STREET":"青年路","SECT":" ","MAREA":" ","LANE":"２２６巷","ALLEY":" ","HOUSE_NO":"２３號","E_COORD97":169132.39000000001,"N_COORD97":2543501.1400000001,"ADDRESS":"青年路２２６巷２３號","OBJECTID":393115},"geometry":{"x":169132.38999999873,"y":2543501.1400000006}},{"attributes":{"ID":393140,"DIS_CODE":0,"TOWNNAME":"中西區","LI":"萬昌里","LIN":"23鄰","STREET":"青年路","SECT":" ","MAREA":" ","LANE":"２２６巷","ALLEY":" ","HOUSE_NO":"２５號","E_COORD97":169126.82999999999,"N_COORD97":2543502.4399999999,"ADDRESS":"青年路２２６巷２５號","OBJECTID":393116},"geometry":{"x":169126.83000000101,"y":2543502.4400000013}},{"attributes":{"ID":393141,"DIS_CODE":0,"TOWNNAME":"中西區","LI":"萬昌里","LIN":"23鄰","STREET":"青年路","SECT":" ","MAREA":" ","LANE":"２２６巷","ALLEY":" ","HOUSE_NO":"２７號","E_COORD97":169123.39999999999,"N_COORD97":2543496.7599999998,"ADDRESS":"青年路２２６巷２７號","OBJECTID":393117},"geometry":{"x":169123.4000000013,"y":2543496.7600000035}},{"attributes":{"ID":393142,"DIS_CODE":0,"TOWNNAME":"中西區","LI":"萬昌里","LIN":"23鄰","STREET":"青年路","SECT":" ","MAREA":" ","LANE":"２２６巷","ALLEY":" ","HOUSE_NO":"２９號","E_COORD97":169121.76999999999,"N_COORD97":2543491.7000000002,"ADDRESS":"青年路２２６巷２９號","OBJECTID":393118},"geometry":{"x":169121.77000000048,"y":2543491.6999999993}},{"attributes":{"ID":393143,"DIS_CODE":0,"TOWNNAME":"中西區","LI":"萬昌里","LIN":"23鄰","STREET":"青年路","SECT":" ","MAREA":" ","LANE":"２２６巷","ALLEY":" ","HOUSE_NO":"３１號","E_COORD97":169119.97,"N_COORD97":2543488.4399999999,"ADDRESS":"青年路２２６巷３１號","OBJECTID":393119},"geometry":{"x":169119.96999999974,"y":2543488.4400000032}},{"attributes":{"ID":393144,"DIS_CODE":0,"TOWNNAME":"中西區","LI":"萬昌里","LIN":"23鄰","STREET":"青年路","SECT":" ","MAREA":" ","LANE":"２２６巷","ALLEY":" ","HOUSE_NO":"３３號","E_COORD97":169130.75,"N_COORD97":2543492.8399999999,"ADDRESS":"青年路２２６巷３３號","OBJECTID":393120},"geometry":{"x":169130.75000000093,"y":2543492.8400000036}},{"attributes":{"ID":393145,"DIS_CODE":0,"TOWNNAME":"永康區","LI":"二王里","LIN":"20鄰","STREET":"中山南路","SECT":" ","MAREA":" ","LANE":"６４４巷","ALLEY":" ","HOUSE_NO":"１２號","E_COORD97":172393.39999999999,"N_COORD97":2546621.9700000002,"ADDRESS":"中山南路６４４巷１２號","OBJECTID":393121},"geometry":{"x":172393.4000000013,"y":2546621.9699999988}},{"attributes":{"ID":393146,"DIS_CODE":0,"TOWNNAME":"永康區","LI":"二王里","LIN":"46鄰","STREET":"南工街","SECT":" ","MAREA":" ","LANE":"２１４巷","ALLEY":" ","HOUSE_NO":"１０號","E_COORD97":172045.37,"N_COORD97":2545984.98,"ADDRESS":"南工街２１４巷１０號","OBJECTID":393122},"geometry":{"x":172045.37000000197,"y":2545984.9800000023}},{"attributes":{"ID":393147,"DIS_CODE":0,"TOWNNAME":"永康區","LI":"三合里","LIN":"6鄰","STREET":"南工街","SECT":" ","MAREA":" ","LANE":"１４６巷","ALLEY":" ","HOUSE_NO":"４號","E_COORD97":172123.51999999999,"N_COORD97":2545815.8700000001,"ADDRESS":"南工街１４６巷４號","OBJECTID":393123},"geometry":{"x":172123.52000000142,"y":2545815.870000001}},{"attributes":{"ID":393148,"DIS_CODE":0,"TOWNNAME":"中西區","LI":"萬昌里","LIN":"23鄰","STREET":"青年路","SECT":" ","MAREA":" ","LANE":"２２６巷","ALLEY":" ","HOUSE_NO":"３５號","E_COORD97":169135.98000000001,"N_COORD97":2543490.23,"ADDRESS":"青年路２２６巷３５號","OBJECTID":393124},"geometry":{"x":169135.97999999952,"y":2543490.2300000004}},{"attributes":{"ID":393149,"DIS_CODE":0,"TOWNNAME":"中西區","LI":"萬昌里","LIN":"23鄰","STREET":"青年路","SECT":" ","MAREA":" ","LANE":"２２６巷","ALLEY":" ","HOUSE_NO":"３號","E_COORD97":169133.69,"N_COORD97":2543539.9700000002,"ADDRESS":"青年路２２６巷３號","OBJECTID":393125},"geometry":{"x":169133.69000000134,"y":2543539.9700000007}},{"attributes":{"ID":393150,"DIS_CODE":0,"TOWNNAME":"中西區","LI":"萬昌里","LIN":"23鄰","STREET":"青年路","SECT":" ","MAREA":" ","LANE":"２２６巷","ALLEY":" ","HOUSE_NO":"５號","E_COORD97":169131.57000000001,"N_COORD97":2543532.2999999998,"ADDRESS":"青年路２２６巷５號","OBJECTID":393126},"geometry":{"x":169131.5700000003,"y":2543532.3000000026}},{"attributes":{"ID":393151,"DIS_CODE":0,"TOWNNAME":"中西區","LI":"萬昌里","LIN":"23鄰","STREET":"青年路","SECT":" ","MAREA":" ","LANE":"２２６巷","ALLEY":" ","HOUSE_NO":"７號","E_COORD97":169135.98000000001,"N_COORD97":2543518.1000000001,"ADDRESS":"青年路２２６巷７號","OBJECTID":393127},"geometry":{"x":169135.97999999952,"y":2543518.1000000034}},{"attributes":{"ID":393152,"DIS_CODE":0,"TOWNNAME":"中西區","LI":"萬昌里","LIN":"23鄰","STREET":"青年路","SECT":" ","MAREA":" ","LANE":"２２６巷","ALLEY":" ","HOUSE_NO":"９號","E_COORD97":169139.89999999999,"N_COORD97":2543517.4500000002,"ADDRESS":"青年路２２６巷９號","OBJECTID":393128},"geometry":{"x":169139.90000000224,"y":2543517.4499999993}},{"attributes":{"ID":393153,"DIS_CODE":0,"TOWNNAME":"中西區","LI":"萬昌里","LIN":"23鄰","STREET":"青年路","SECT":" ","MAREA":" ","LANE":"２２６巷","ALLEY":" ","HOUSE_NO":"４１號","E_COORD97":169141.70000000001,"N_COORD97":2543482.7200000002,"ADDRESS":"青年路２２６巷４１號","OBJECTID":393129},"geometry":{"x":169141.70000000112,"y":2543482.7200000007}},{"attributes":{"ID":393154,"DIS_CODE":0,"TOWNNAME":"中西區","LI":"萬昌里","LIN":"23鄰","STREET":"青年路","SECT":" ","MAREA":" ","LANE":"２２６巷","ALLEY":" ","HOUSE_NO":"４３號","E_COORD97":169135.34,"N_COORD97":2543476.8799999999,"ADDRESS":"青年路２２６巷４３號","OBJECTID":393130},"geometry":{"x":169135.34000000078,"y":2543476.879999999}},{"attributes":{"ID":393155,"DIS_CODE":0,"TOWNNAME":"中西區","LI":"萬昌里","LIN":"23鄰","STREET":"青年路","SECT":" ","MAREA":" ","LANE":"２２６巷","ALLEY":" ","HOUSE_NO":"４５號","E_COORD97":169128.23000000001,"N_COORD97":2543480.1600000001,"ADDRESS":"青年路２２６巷４５號","OBJECTID":393131},"geometry":{"x":169128.23000000138,"y":2543480.1600000001}},{"attributes":{"ID":393156,"DIS_CODE":0,"TOWNNAME":"中西區","LI":"萬昌里","LIN":"23鄰","STREET":"青年路","SECT":" ","MAREA":" ","LANE":"２２６巷","ALLEY":" ","HOUSE_NO":"４７號","E_COORD97":169119.84,"N_COORD97":2543481.6200000001,"ADDRESS":"青年路２２６巷４７號","OBJECTID":393132},"geometry":{"x":169119.84000000078,"y":2543481.620000001}},{"attributes":{"ID":393157,"DIS_CODE":0,"TOWNNAME":"善化區","LI":"文昌里","LIN":"7鄰","STREET":"中華路","SECT":" ","MAREA":" ","LANE":"９巷","ALLEY":" ","HOUSE_NO":"６號","E_COORD97":177278.89000000001,"N_COORD97":2558654,"ADDRESS":"中華路９巷６號","OBJECTID":393133},"geometry":{"x":177278.88999999966,"y":2558654.0000000037}},{"attributes":{"ID":393158,"DIS_CODE":0,"TOWNNAME":"中西區","LI":"萬昌里","LIN":"23鄰","STREET":"青年路","SECT":" ","MAREA":" ","LANE":"２２６巷","ALLEY":" ","HOUSE_NO":"４９號","E_COORD97":169118.19,"N_COORD97":2543473.7200000002,"ADDRESS":"青年路２２６巷４９號","OBJECTID":393134},"geometry":{"x":169118.19000000134,"y":2543473.7200000007}},{"attributes":{"ID":393159,"DIS_CODE":0,"TOWNNAME":"永康區","LI":"三民里","LIN":"6鄰","STREET":"三民街","SECT":" ","MAREA":" ","LANE":"１８巷","ALLEY":" ","HOUSE_NO":"９號","E_COORD97":173311.95999999999,"N_COORD97":2550181.04,"ADDRESS":"三民街１８巷９號","OBJECTID":393135},"geometry":{"x":173311.95999999996,"y":2550181.040000001}},{"attributes":{"ID":393160,"DIS_CODE":0,"TOWNNAME":"中西區","LI":"萬昌里","LIN":"23鄰","STREET":"青年路","SECT":" ","MAREA":" ","LANE":"２２６巷","ALLEY":" ","HOUSE_NO":"５１號","E_COORD97":169115.98000000001,"N_COORD97":2543470.27,"ADDRESS":"青年路２２６巷５１號","OBJECTID":393136},"geometry":{"x":169115.98000000138,"y":2543470.2700000014}},{"attributes":{"ID":393161,"DIS_CODE":0,"TOWNNAME":"永康區","LI":"三民里","LIN":"6鄰","STREET":"三民街","SECT":" ","MAREA":" ","LANE":"１８巷","ALLEY":" ","HOUSE_NO":"２３號","E_COORD97":173382.25,"N_COORD97":2550193.7799999998,"ADDRESS":"三民街１８巷２３號","OBJECTID":393137},"geometry":{"x":173382.25000000093,"y":2550193.7800000012}},{"attributes":{"ID":393162,"DIS_CODE":0,"TOWNNAME":"仁德區","LI":"成功里","LIN":"23鄰","STREET":"成功一街","SECT":" ","MAREA":" ","LANE":"１３１巷","ALLEY":" ","HOUSE_NO":"３２號","E_COORD97":170640.01000000001,"N_COORD97":2539871.5099999998,"ADDRESS":"成功一街１３１巷３２號","OBJECTID":393138},"geometry":{"x":170640.00999999978,"y":2539871.5100000016}},{"attributes":{"ID":393163,"DIS_CODE":0,"TOWNNAME":"下營區","LI":"營前里","LIN":"23鄰","STREET":"新進東街","SECT":" ","MAREA":" ","LANE":"８６巷","ALLEY":" ","HOUSE_NO":"２７號之３","E_COORD97":174893.95999999999,"N_COORD97":2569938.3399999999,"ADDRESS":"新進東街８６巷２７號之３","OBJECTID":393139},"geometry":{"x":174893.95999999996,"y":2569938.3400000017}},{"attributes":{"ID":393164,"DIS_CODE":0,"TOWNNAME":"下營區","LI":"營前里","LIN":"23鄰","STREET":"新進東街","SECT":" ","MAREA":" ","LANE":"８６巷","ALLEY":" ","HOUSE_NO":"２７號","E_COORD97":174885.29999999999,"N_COORD97":2569934.1899999999,"ADDRESS":"新進東街８６巷２７號","OBJECTID":393140},"geometry":{"x":174885.30000000075,"y":2569934.1899999995}},{"attributes":{"ID":393165,"DIS_CODE":0,"TOWNNAME":"下營區","LI":"營前里","LIN":"23鄰","STREET":"新進東街","SECT":" ","MAREA":" ","LANE":"８６巷","ALLEY":" ","HOUSE_NO":"３２號","E_COORD97":174868,"N_COORD97":2569870.73,"ADDRESS":"新進東街８６巷３２號","OBJECTID":393141},"geometry":{"x":174868,"y":2569870.7300000004}},{"attributes":{"ID":393166,"DIS_CODE":0,"TOWNNAME":"下營區","LI":"營前里","LIN":"23鄰","STREET":"新進東街","SECT":" ","MAREA":" ","LANE":"８６巷","ALLEY":" ","HOUSE_NO":"３號","E_COORD97":174784.01000000001,"N_COORD97":2569891.25,"ADDRESS":"新進東街８６巷３號","OBJECTID":393142},"geometry":{"x":174784.01000000071,"y":2569891.2500000037}},{"attributes":{"ID":393167,"DIS_CODE":0,"TOWNNAME":"新化區","LI":"東榮里","LIN":"23鄰","STREET":"復興路","SECT":" ","MAREA":" ","LANE":"２０３巷","ALLEY":" ","HOUSE_NO":"２８號","E_COORD97":179328.87,"N_COORD97":2548022.25,"ADDRESS":"復興路２０３巷２８號","OBJECTID":393143},"geometry":{"x":179328.87000000011,"y":2548022.25}},{"attributes":{"ID":393168,"DIS_CODE":0,"TOWNNAME":"中西區","LI":"大涼里","LIN":"23鄰","STREET":"永華一街","SECT":" ","MAREA":" ","LANE":"１２２巷","ALLEY":" ","HOUSE_NO":"１１號","E_COORD97":166950.39000000001,"N_COORD97":2543528.6899999999,"ADDRESS":"永華一街１２２巷１１號","OBJECTID":393144},"geometry":{"x":166950.38999999966,"y":2543528.6900000013}},{"attributes":{"ID":393169,"DIS_CODE":0,"TOWNNAME":"中西區","LI":"大涼里","LIN":"23鄰","STREET":"永華一街","SECT":" ","MAREA":" ","LANE":"１２２巷","ALLEY":" ","HOUSE_NO":"１３號","E_COORD97":166955.42999999999,"N_COORD97":2543527.4100000001,"ADDRESS":"永華一街１２２巷１３號","OBJECTID":393145},"geometry":{"x":166955.4299999997,"y":2543527.410000002}},{"attributes":{"ID":393170,"DIS_CODE":0,"TOWNNAME":"中西區","LI":"大涼里","LIN":"23鄰","STREET":"永華一街","SECT":" ","MAREA":" ","LANE":"１２２巷","ALLEY":" ","HOUSE_NO":"１５號","E_COORD97":166959.35999999999,"N_COORD97":2543525.2799999998,"ADDRESS":"永華一街１２２巷１５號","OBJECTID":393146},"geometry":{"x":166959.36000000034,"y":2543525.2799999993}},{"attributes":{"ID":393171,"DIS_CODE":0,"TOWNNAME":"中西區","LI":"大涼里","LIN":"23鄰","STREET":"永華一街","SECT":" ","MAREA":" ","LANE":"１２２巷","ALLEY":" ","HOUSE_NO":"３１號","E_COORD97":166979,"N_COORD97":2543522.46,"ADDRESS":"永華一街１２２巷３１號","OBJECTID":393147},"geometry":{"x":166979,"y":2543522.4600000009}},{"attributes":{"ID":393172,"DIS_CODE":0,"TOWNNAME":"中西區","LI":"大涼里","LIN":"23鄰","STREET":"永華一街","SECT":" ","MAREA":" ","LANE":"１２２巷","ALLEY":" ","HOUSE_NO":"３３號","E_COORD97":166984.13,"N_COORD97":2543521.7000000002,"ADDRESS":"永華一街１２２巷３３號","OBJECTID":393148},"geometry":{"x":166984.13000000082,"y":2543521.7000000011}},{"attributes":{"ID":393173,"DIS_CODE":0,"TOWNNAME":"中西區","LI":"大涼里","LIN":"23鄰","STREET":"永華一街","SECT":" ","MAREA":" ","LANE":"１２２巷","ALLEY":" ","HOUSE_NO":"３５號","E_COORD97":166988.66,"N_COORD97":2543520.25,"ADDRESS":"永華一街１２２巷３５號","OBJECTID":393149},"geometry":{"x":166988.66000000108,"y":2543520.25}},{"attributes":{"ID":393174,"DIS_CODE":0,"TOWNNAME":"中西區","LI":"大涼里","LIN":"23鄰","STREET":"永華一街","SECT":" ","MAREA":" ","LANE":"１２２巷","ALLEY":" ","HOUSE_NO":"３７號","E_COORD97":166992.76000000001,"N_COORD97":2543518.9700000002,"ADDRESS":"永華一街１２２巷３７號","OBJECTID":393150},"geometry":{"x":166992.76000000071,"y":2543518.9700000007}},{"attributes":{"ID":393175,"DIS_CODE":0,"TOWNNAME":"中西區","LI":"大涼里","LIN":"23鄰","STREET":"永華一街","SECT":" ","MAREA":" ","LANE":"１４８巷","ALLEY":" ","HOUSE_NO":"１２號","E_COORD97":166952.17999999999,"N_COORD97":2543561.5299999998,"ADDRESS":"永華一街１４８巷１２號","OBJECTID":393151},"geometry":{"x":166952.18000000156,"y":2543561.5299999993}},{"attributes":{"ID":393176,"DIS_CODE":0,"TOWNNAME":"中西區","LI":"大涼里","LIN":"23鄰","STREET":"永華一街","SECT":" ","MAREA":" ","LANE":"１４８巷","ALLEY":" ","HOUSE_NO":"１４號","E_COORD97":166959.44,"N_COORD97":2543559.23,"ADDRESS":"永華一街１４８巷１４號","OBJECTID":393152},"geometry":{"x":166959.44000000041,"y":2543559.2300000023}},{"attributes":{"ID":393177,"DIS_CODE":0,"TOWNNAME":"中西區","LI":"大涼里","LIN":"23鄰","STREET":"永華一街","SECT":" ","MAREA":" ","LANE":"１４８巷","ALLEY":" ","HOUSE_NO":"１６號","E_COORD97":166966.70000000001,"N_COORD97":2543559.3199999998,"ADDRESS":"永華一街１４８巷１６號","OBJECTID":393153},"geometry":{"x":166966.70000000112,"y":2543559.3200000022}},{"attributes":{"ID":393178,"DIS_CODE":0,"TOWNNAME":"中西區","LI":"大涼里","LIN":"23鄰","STREET":"永華一街","SECT":" ","MAREA":" ","LANE":"１４８巷","ALLEY":" ","HOUSE_NO":"１８號","E_COORD97":166970.89000000001,"N_COORD97":2543558.98,"ADDRESS":"永華一街１４８巷１８號","OBJECTID":393154},"geometry":{"x":166970.88999999966,"y":2543558.9800000004}},{"attributes":{"ID":393179,"DIS_CODE":0,"TOWNNAME":"中西區","LI":"大涼里","LIN":"23鄰","STREET":"永華一街","SECT":" ","MAREA":" ","LANE":"１４８巷","ALLEY":" ","HOUSE_NO":"２０號","E_COORD97":166975.42000000001,"N_COORD97":2543557.9500000002,"ADDRESS":"永華一街１４８巷２０號","OBJECTID":393155},"geometry":{"x":166975.42000000086,"y":2543557.9499999993}},{"attributes":{"ID":393180,"DIS_CODE":0,"TOWNNAME":"中西區","LI":"大涼里","LIN":"23鄰","STREET":"永華一街","SECT":" ","MAREA":" ","LANE":"１４８巷","ALLEY":" ","HOUSE_NO":"３０號","E_COORD97":166979.85999999999,"N_COORD97":2543555.7200000002,"ADDRESS":"永華一街１４８巷３０號","OBJECTID":393156},"geometry":{"x":166979.86000000034,"y":2543555.7200000044}},{"attributes":{"ID":393181,"DIS_CODE":0,"TOWNNAME":"中西區","LI":"大涼里","LIN":"23鄰","STREET":"永華一街","SECT":" ","MAREA":" ","LANE":"１４８巷","ALLEY":" ","HOUSE_NO":"３２號","E_COORD97":166984.73000000001,"N_COORD97":2543555.8999999999,"ADDRESS":"永華一街１４８巷３２號","OBJECTID":393157},"geometry":{"x":166984.73000000045,"y":2543555.9000000004}},{"attributes":{"ID":393182,"DIS_CODE":0,"TOWNNAME":"中西區","LI":"大涼里","LIN":"23鄰","STREET":"永華一街","SECT":" ","MAREA":" ","LANE":"１４８巷","ALLEY":" ","HOUSE_NO":"３４號","E_COORD97":166988.91,"N_COORD97":2543554.0299999998,"ADDRESS":"永華一街１４８巷３４號","OBJECTID":393158},"geometry":{"x":166988.91000000108,"y":2543554.0299999993}},{"attributes":{"ID":393183,"DIS_CODE":0,"TOWNNAME":"中西區","LI":"大涼里","LIN":"23鄰","STREET":"永華一街","SECT":" ","MAREA":" ","LANE":"１４８巷","ALLEY":" ","HOUSE_NO":"３６號","E_COORD97":166993.10000000001,"N_COORD97":2543553.0899999999,"ADDRESS":"永華一街１４８巷３６號","OBJECTID":393159},"geometry":{"x":166993.09999999963,"y":2543553.0900000017}},{"attributes":{"ID":393184,"DIS_CODE":0,"TOWNNAME":"中西區","LI":"大涼里","LIN":"23鄰","STREET":"永華一街","SECT":" ","MAREA":" ","LANE":"１４８巷","ALLEY":" ","HOUSE_NO":"５０號","E_COORD97":167003.95000000001,"N_COORD97":2543551.8100000001,"ADDRESS":"永華一街１４８巷５０號","OBJECTID":393160},"geometry":{"x":167003.95000000112,"y":2543551.8100000024}},{"attributes":{"ID":393185,"DIS_CODE":0,"TOWNNAME":"中西區","LI":"大涼里","LIN":"23鄰","STREET":"永華一街","SECT":" ","MAREA":" ","LANE":"１４８巷","ALLEY":" ","HOUSE_NO":"５２號","E_COORD97":167015.22,"N_COORD97":2543548.7400000002,"ADDRESS":"永華一街１４８巷５２號","OBJECTID":393161},"geometry":{"x":167015.22000000067,"y":2543548.7400000021}},{"attributes":{"ID":393186,"DIS_CODE":0,"TOWNNAME":"中西區","LI":"大涼里","LIN":"23鄰","STREET":"府前路","SECT":"二段","MAREA":" ","LANE":"２３７巷","ALLEY":" ","HOUSE_NO":"６號","E_COORD97":167021.03,"N_COORD97":2543544.4700000002,"ADDRESS":"府前路二段２３７巷６號","OBJECTID":393162},"geometry":{"x":167021.03000000026,"y":2543544.4700000025}},{"attributes":{"ID":393187,"DIS_CODE":0,"TOWNNAME":"永康區","LI":"三民里","LIN":"12鄰","STREET":"正北一路","SECT":" ","MAREA":" ","LANE":"１６０巷","ALLEY":" ","HOUSE_NO":"９號","E_COORD97":174161.63,"N_COORD97":2550147.5099999998,"ADDRESS":"正北一路１６０巷９號","OBJECTID":393163},"geometry":{"x":174161.62999999989,"y":2550147.5100000016}},{"attributes":{"ID":393188,"DIS_CODE":0,"TOWNNAME":"永康區","LI":"三民里","LIN":"12鄰","STREET":"和平路","SECT":" ","MAREA":" ","LANE":"２５１巷","ALLEY":" ","HOUSE_NO":"１０號","E_COORD97":174668.95000000001,"N_COORD97":2550772.75,"ADDRESS":"和平路２５１巷１０號","OBJECTID":393164},"geometry":{"x":174668.95000000019,"y":2550772.7500000037}},{"attributes":{"ID":393189,"DIS_CODE":0,"TOWNNAME":"永康區","LI":"大灣里","LIN":"28鄰","STREET":"民族路","SECT":" ","MAREA":" ","LANE":"１９０巷","ALLEY":" ","HOUSE_NO":"３５號","E_COORD97":175286.81,"N_COORD97":2545106.8100000001,"ADDRESS":"民族路１９０巷３５號","OBJECTID":393165},"geometry":{"x":175286.81000000052,"y":2545106.8100000005}},{"attributes":{"ID":393190,"DIS_CODE":0,"TOWNNAME":"東區","LI":"崇文里","LIN":"13鄰","STREET":"崇德十九街","SECT":" ","MAREA":" ","LANE":" ","ALLEY":" ","HOUSE_NO":"３９號","E_COORD97":170948.76000000001,"N_COORD97":2540989.7799999998,"ADDRESS":"崇德十九街３９號","OBJECTID":393166},"geometry":{"x":170948.75999999978,"y":2540989.7799999993}},{"attributes":{"ID":393191,"DIS_CODE":0,"TOWNNAME":"永康區","LI":"二王里","LIN":"26鄰","STREET":"中山南路","SECT":" ","MAREA":" ","LANE":"５４４巷","ALLEY":" ","HOUSE_NO":"１１９號","E_COORD97":172329.76000000001,"N_COORD97":2546202.5,"ADDRESS":"中山南路５４４巷１１９號","OBJECTID":393167},"geometry":{"x":172329.76000000071,"y":2546202.5000000019}},{"attributes":{"ID":393192,"DIS_CODE":0,"TOWNNAME":"永康區","LI":"三民里","LIN":"12鄰","STREET":"和平路","SECT":" ","MAREA":" ","LANE":"２４１巷","ALLEY":" ","HOUSE_NO":"１２號","E_COORD97":174645.85000000001,"N_COORD97":2550749.3900000001,"ADDRESS":"和平路２４１巷１２號","OBJECTID":393168},"geometry":{"x":174645.85000000056,"y":2550749.3900000025}},{"attributes":{"ID":393193,"DIS_CODE":0,"TOWNNAME":"佳里區","LI":"建南里","LIN":"23鄰","STREET":"祥和三街","SECT":" ","MAREA":" ","LANE":"２３１巷","ALLEY":" ","HOUSE_NO":"１２號","E_COORD97":165435.98999999999,"N_COORD97":2561213.7000000002,"ADDRESS":"祥和三街２３１巷１２號","OBJECTID":393169},"geometry":{"x":165435.99000000115,"y":2561213.6999999993}},{"attributes":{"ID":393194,"DIS_CODE":0,"TOWNNAME":"佳里區","LI":"建南里","LIN":"23鄰","STREET":"祥和三街","SECT":" ","MAREA":" ","LANE":"２３１巷","ALLEY":" ","HOUSE_NO":"１４號","E_COORD97":165435.16,"N_COORD97":2561209.6899999999,"ADDRESS":"祥和三街２３１巷１４號","OBJECTID":393170},"geometry":{"x":165435.16000000015,"y":2561209.6900000013}},{"attributes":{"ID":393195,"DIS_CODE":0,"TOWNNAME":"佳里區","LI":"建南里","LIN":"23鄰","STREET":"祥和三街","SECT":" ","MAREA":" ","LANE":"２３１巷","ALLEY":" ","HOUSE_NO":"１６號","E_COORD97":165434.32999999999,"N_COORD97":2561205.6800000002,"ADDRESS":"祥和三街２３１巷１６號","OBJECTID":393171},"geometry":{"x":165434.32999999914,"y":2561205.6800000016}},{"attributes":{"ID":393196,"DIS_CODE":0,"TOWNNAME":"佳里區","LI":"建南里","LIN":"23鄰","STREET":"祥和三街","SECT":" ","MAREA":" ","LANE":"２３１巷","ALLEY":" ","HOUSE_NO":"１８號","E_COORD97":165433.5,"N_COORD97":2561201.6699999999,"ADDRESS":"祥和三街２３１巷１８號","OBJECTID":393172},"geometry":{"x":165433.50000000093,"y":2561201.6699999999}},{"attributes":{"ID":393197,"DIS_CODE":0,"TOWNNAME":"佳里區","LI":"建南里","LIN":"23鄰","STREET":"祥和三街","SECT":" ","MAREA":" ","LANE":"２３１巷","ALLEY":" ","HOUSE_NO":"１號","E_COORD97":165450.29999999999,"N_COORD97":2561195.4500000002,"ADDRESS":"祥和三街２３１巷１號","OBJECTID":393173},"geometry":{"x":165450.30000000075,"y":2561195.4499999993}},{"attributes":{"ID":393198,"DIS_CODE":0,"TOWNNAME":"佳里區","LI":"建南里","LIN":"23鄰","STREET":"祥和三街","SECT":" ","MAREA":" ","LANE":"２３１巷","ALLEY":" ","HOUSE_NO":"２０號","E_COORD97":165432.67000000001,"N_COORD97":2561197.6600000001,"ADDRESS":"祥和三街２３１巷２０號","OBJECTID":393174},"geometry":{"x":165432.67000000086,"y":2561197.6600000001}},{"attributes":{"ID":393199,"DIS_CODE":0,"TOWNNAME":"佳里區","LI":"建南里","LIN":"23鄰","STREET":"祥和三街","SECT":" ","MAREA":" ","LANE":"２３１巷","ALLEY":" ","HOUSE_NO":"２２號","E_COORD97":165431.84,"N_COORD97":2561193.6499999999,"ADDRESS":"祥和三街２３１巷２２號","OBJECTID":393175},"geometry":{"x":165431.83999999985,"y":2561193.6500000022}},{"attributes":{"ID":393200,"DIS_CODE":0,"TOWNNAME":"佳里區","LI":"建南里","LIN":"23鄰","STREET":"祥和三街","SECT":" ","MAREA":" ","LANE":"２３１巷","ALLEY":" ","HOUSE_NO":"２４號","E_COORD97":165431.01000000001,"N_COORD97":2561189.6400000001,"ADDRESS":"祥和三街２３１巷２４號","OBJECTID":393176},"geometry":{"x":165431.00999999978,"y":2561189.6400000043}},{"attributes":{"ID":393201,"DIS_CODE":0,"TOWNNAME":"佳里區","LI":"建南里","LIN":"23鄰","STREET":"祥和三街","SECT":" ","MAREA":" ","LANE":"２３１巷","ALLEY":" ","HOUSE_NO":"２６號","E_COORD97":165430.17999999999,"N_COORD97":2561185.6299999999,"ADDRESS":"祥和三街２３１巷２６號","OBJECTID":393177},"geometry":{"x":165430.18000000063,"y":2561185.6300000008}},{"attributes":{"ID":393202,"DIS_CODE":0,"TOWNNAME":"佳里區","LI":"建南里","LIN":"23鄰","STREET":"祥和三街","SECT":" ","MAREA":" ","LANE":"２３１巷","ALLEY":" ","HOUSE_NO":"２８號","E_COORD97":165429.35999999999,"N_COORD97":2561181.6200000001,"ADDRESS":"祥和三街２３１巷２８號","OBJECTID":393178},"geometry":{"x":165429.3600000022,"y":2561181.620000001}},{"attributes":{"ID":393203,"DIS_CODE":0,"TOWNNAME":"佳里區","LI":"建南里","LIN":"23鄰","STREET":"祥和三街","SECT":" ","MAREA":" ","LANE":"２３１巷","ALLEY":" ","HOUSE_NO":"２號","E_COORD97":165439.31,"N_COORD97":2561229.73,"ADDRESS":"祥和三街２３１巷２號","OBJECTID":393179},"geometry":{"x":165439.31000000052,"y":2561229.7300000023}},{"attributes":{"ID":393204,"DIS_CODE":0,"TOWNNAME":"永康區","LI":"中興里","LIN":"26鄰","STREET":"中山東路","SECT":" ","MAREA":" ","LANE":"３８６巷","ALLEY":" ","HOUSE_NO":"１２號","E_COORD97":171849.35000000001,"N_COORD97":2545257.2400000002,"ADDRESS":"中山東路３８６巷１２號","OBJECTID":393180},"geometry":{"x":171849.34999999963,"y":2545257.2400000021}},{"attributes":{"ID":393205,"DIS_CODE":0,"TOWNNAME":"永康區","LI":"二王里","LIN":"14鄰","STREET":"永二街","SECT":" ","MAREA":" ","LANE":"４５９巷","ALLEY":" ","HOUSE_NO":"２０號之３","E_COORD97":172591.98000000001,"N_COORD97":2546619.3599999999,"ADDRESS":"永二街４５９巷２０號之３","OBJECTID":393181},"geometry":{"x":172591.98000000045,"y":2546619.3600000013}},{"attributes":{"ID":393206,"DIS_CODE":0,"TOWNNAME":"永康區","LI":"三合里","LIN":"8鄰","STREET":"南工街","SECT":" ","MAREA":" ","LANE":"１４５巷","ALLEY":" ","HOUSE_NO":"１號","E_COORD97":172057.69,"N_COORD97":2545798.52,"ADDRESS":"南工街１４５巷１號","OBJECTID":393182},"geometry":{"x":172057.69000000134,"y":2545798.5199999996}},{"attributes":{"ID":393207,"DIS_CODE":0,"TOWNNAME":"永康區","LI":"二王里","LIN":"37鄰","STREET":"中山南路","SECT":" ","MAREA":" ","LANE":"４９０巷","ALLEY":" ","HOUSE_NO":"２２號","E_COORD97":172219.41,"N_COORD97":2546342.3399999999,"ADDRESS":"中山南路４９０巷２２號","OBJECTID":393183},"geometry":{"x":172219.41000000015,"y":2546342.3400000017}},{"attributes":{"ID":393208,"DIS_CODE":0,"TOWNNAME":"佳里區","LI":"建南里","LIN":"23鄰","STREET":"祥和三街","SECT":" ","MAREA":" ","LANE":"２３１巷","ALLEY":" ","HOUSE_NO":"３０號","E_COORD97":165428.53,"N_COORD97":2561177.6099999999,"ADDRESS":"祥和三街２３１巷３０號","OBJECTID":393184},"geometry":{"x":165428.53000000119,"y":2561177.6099999994}},{"attributes":{"ID":393209,"DIS_CODE":0,"TOWNNAME":"佳里區","LI":"建南里","LIN":"23鄰","STREET":"祥和三街","SECT":" ","MAREA":" ","LANE":"２３１巷","ALLEY":" ","HOUSE_NO":"３２號","E_COORD97":165427.70000000001,"N_COORD97":2561173.6000000001,"ADDRESS":"祥和三街２３１巷３２號","OBJECTID":393185},"geometry":{"x":165427.70000000112,"y":2561173.5999999996}},{"attributes":{"ID":393210,"DIS_CODE":0,"TOWNNAME":"佳里區","LI":"建南里","LIN":"23鄰","STREET":"祥和三街","SECT":" ","MAREA":" ","LANE":"２３１巷","ALLEY":" ","HOUSE_NO":"３４號","E_COORD97":165426.87,"N_COORD97":2561169.5899999999,"ADDRESS":"祥和三街２３１巷３４號","OBJECTID":393186},"geometry":{"x":165426.87000000011,"y":2561169.5900000017}},{"attributes":{"ID":393211,"DIS_CODE":0,"TOWNNAME":"佳里區","LI":"建南里","LIN":"23鄰","STREET":"祥和三街","SECT":" ","MAREA":" ","LANE":"２３１巷","ALLEY":" ","HOUSE_NO":"６號","E_COORD97":165438.48000000001,"N_COORD97":2561225.7200000002,"ADDRESS":"祥和三街２３１巷６號","OBJECTID":393187},"geometry":{"x":165438.48000000045,"y":2561225.7200000007}},{"attributes":{"ID":393212,"DIS_CODE":0,"TOWNNAME":"佳里區","LI":"建南里","LIN":"23鄰","STREET":"祥和三街","SECT":" ","MAREA":" ","LANE":"２３１巷","ALLEY":" ","HOUSE_NO":"８號","E_COORD97":165437.64999999999,"N_COORD97":2561221.71,"ADDRESS":"祥和三街２３１巷８號","OBJECTID":393188},"geometry":{"x":165437.65000000224,"y":2561221.7100000009}},{"attributes":{"ID":393213,"DIS_CODE":0,"TOWNNAME":"學甲區","LI":"秀昌里","LIN":"23鄰","STREET":"中正路","SECT":" ","MAREA":" ","LANE":"４７１巷","ALLEY":" ","HOUSE_NO":"２５號","E_COORD97":166384.23999999999,"N_COORD97":2570930.5800000001,"ADDRESS":"中正路４７１巷２５號","OBJECTID":393189},"geometry":{"x":166384.24000000022,"y":2570930.5800000019}},{"attributes":{"ID":393214,"DIS_CODE":0,"TOWNNAME":"學甲區","LI":"秀昌里","LIN":"23鄰","STREET":"中正路","SECT":" ","MAREA":" ","LANE":"４７１巷","ALLEY":" ","HOUSE_NO":"２７號","E_COORD97":166378.89000000001,"N_COORD97":2570934.3900000001,"ADDRESS":"中正路４７１巷２７號","OBJECTID":393190},"geometry":{"x":166378.88999999966,"y":2570934.3900000006}},{"attributes":{"ID":393215,"DIS_CODE":0,"TOWNNAME":"學甲區","LI":"秀昌里","LIN":"23鄰","STREET":"中正路","SECT":" ","MAREA":" ","LANE":"４７１巷","ALLEY":" ","HOUSE_NO":"２９號","E_COORD97":166367.60999999999,"N_COORD97":2570924.9300000002,"ADDRESS":"中正路４７１巷２９號","OBJECTID":393191},"geometry":{"x":166367.61000000127,"y":2570924.9300000016}},{"attributes":{"ID":393216,"DIS_CODE":0,"TOWNNAME":"學甲區","LI":"秀昌里","LIN":"23鄰","STREET":"中正路","SECT":" ","MAREA":" ","LANE":"４７１巷","ALLEY":" ","HOUSE_NO":"３１號","E_COORD97":166364.14000000001,"N_COORD97":2570921.77,"ADDRESS":"中正路４７１巷３１號","OBJECTID":393192},"geometry":{"x":166364.13999999873,"y":2570921.7700000014}},{"attributes":{"ID":393217,"DIS_CODE":0,"TOWNNAME":"學甲區","LI":"秀昌里","LIN":"23鄰","STREET":"中正路","SECT":" ","MAREA":" ","LANE":"４７１巷","ALLEY":" ","HOUSE_NO":"３３號","E_COORD97":166361.09,"N_COORD97":2570918.5499999998,"ADDRESS":"中正路４７１巷３３號","OBJECTID":393193},"geometry":{"x":166361.08999999985,"y":2570918.5500000026}},{"attributes":{"ID":393218,"DIS_CODE":0,"TOWNNAME":"學甲區","LI":"秀昌里","LIN":"23鄰","STREET":"中正路","SECT":" ","MAREA":" ","LANE":"４７１巷","ALLEY":" ","HOUSE_NO":"３５號","E_COORD97":166357.95000000001,"N_COORD97":2570915.6299999999,"ADDRESS":"中正路４７１巷３５號","OBJECTID":393194},"geometry":{"x":166357.95000000112,"y":2570915.6300000008}},{"attributes":{"ID":393219,"DIS_CODE":0,"TOWNNAME":"學甲區","LI":"秀昌里","LIN":"23鄰","STREET":"中正路","SECT":" ","MAREA":" ","LANE":"４７１巷","ALLEY":" ","HOUSE_NO":"３號","E_COORD97":166408.41,"N_COORD97":2570911.9199999999,"ADDRESS":"中正路４７１巷３號","OBJECTID":393195},"geometry":{"x":166408.41000000015,"y":2570911.9200000018}},{"attributes":{"ID":393220,"DIS_CODE":0,"TOWNNAME":"學甲區","LI":"秀昌里","LIN":"23鄰","STREET":"中正路","SECT":" ","MAREA":" ","LANE":"４７１巷","ALLEY":" ","HOUSE_NO":"５號","E_COORD97":166403.87,"N_COORD97":2570914.6699999999,"ADDRESS":"中正路４７１巷５號","OBJECTID":393196},"geometry":{"x":166403.87000000197,"y":2570914.6699999999}},{"attributes":{"ID":393221,"DIS_CODE":0,"TOWNNAME":"永康區","LI":"大橋里","LIN":"16鄰","STREET":"大橋一街","SECT":" ","MAREA":" ","LANE":"１３９巷","ALLEY":" ","HOUSE_NO":"６３號","E_COORD97":170945.54000000001,"N_COORD97":2546655.25,"ADDRESS":"大橋一街１３９巷６３號","OBJECTID":393197},"geometry":{"x":170945.54000000004,"y":2546655.25}},{"attributes":{"ID":393222,"DIS_CODE":0,"TOWNNAME":"學甲區","LI":"秀昌里","LIN":"23鄰","STREET":"中正路","SECT":" ","MAREA":" ","LANE":"４７１巷","ALLEY":" ","HOUSE_NO":"７號","E_COORD97":166399.37,"N_COORD97":2570903.6699999999,"ADDRESS":"中正路４７１巷７號","OBJECTID":393198},"geometry":{"x":166399.37000000104,"y":2570903.6699999999}},{"attributes":{"ID":393223,"DIS_CODE":0,"TOWNNAME":"永康區","LI":"二王里","LIN":"7鄰","STREET":"永二街","SECT":" ","MAREA":" ","LANE":"４０４巷","ALLEY":" ","HOUSE_NO":"７號","E_COORD97":172743.70000000001,"N_COORD97":2546733.9900000002,"ADDRESS":"永二街４０４巷７號","OBJECTID":393199},"geometry":{"x":172743.70000000112,"y":2546733.9900000021}},{"attributes":{"ID":393224,"DIS_CODE":0,"TOWNNAME":"新化區","LI":"太平里","LIN":"15鄰","STREET":"太平街","SECT":" ","MAREA":" ","LANE":"６３巷","ALLEY":" ","HOUSE_NO":"１號","E_COORD97":178825.37,"N_COORD97":2548774.25,"ADDRESS":"太平街６３巷１號","OBJECTID":393200},"geometry":{"x":178825.37000000011,"y":2548774.25}}]}