{"displayFieldName":"TOWNNAME","fieldAliases":{"ID":"ID","DIS_CODE":"DIS_CODE","TOWNNAME":"TOWNNAME","LI":"LI","LIN":"LIN","STREET":"STREET","SECT":"SECT","MAREA":"MAREA","LANE":"LANE","ALLEY":"ALLEY","HOUSE_NO":"HOUSE_NO","E_COORD97":"E_COORD97","N_COORD97":"N_COORD97","ADDRESS":"ADDRESS","OBJECTID":"OBJECTID"},"geometryType":"esriGeometryPoint","spatialReference":{"wkid":102443,"latestWkid":3826},"fields":[{"name":"ID","type":"esriFieldTypeDouble","alias":"ID"},{"name":"DIS_CODE","type":"esriFieldTypeInteger","alias":"DIS_CODE"},{"name":"TOWNNAME","type":"esriFieldTypeString","alias":"TOWNNAME","length":8},{"name":"LI","type":"esriFieldTypeString","alias":"LI","length":8},{"name":"LIN","type":"esriFieldTypeString","alias":"LIN","length":12},{"name":"STREET","type":"esriFieldTypeString","alias":"STREET","length":20},{"name":"SECT","type":"esriFieldTypeString","alias":"SECT","length":8},{"name":"MAREA","type":"esriFieldTypeString","alias":"MAREA","length":12},{"name":"LANE","type":"esriFieldTypeString","alias":"LANE","length":10},{"name":"ALLEY","type":"esriFieldTypeString","alias":"ALLEY","length":10},{"name":"HOUSE_NO","type":"esriFieldTypeString","alias":"HOUSE_NO","length":20},{"name":"E_COORD97","type":"esriFieldTypeDouble","alias":"E_COORD97"},{"name":"N_COORD97","type":"esriFieldTypeDouble","alias":"N_COORD97"},{"name":"ADDRESS","type":"esriFieldTypeString","alias":"ADDRESS","length":50},{"name":"OBJECTID","type":"esriFieldTypeOID","alias":"OBJECTID"}],"features":[{"attributes":{"ID":361411,"DIS_CODE":0,"TOWNNAME":"南區","LI":"金華里","LIN":"32鄰","STREET":"新孝路","SECT":" ","MAREA":" ","LANE":"１４８巷","ALLEY":" ","HOUSE_NO":"８１號","E_COORD97":166575.32999999999,"N_COORD97":2542282.23,"ADDRESS":"新孝路１４８巷８１號","OBJECTID":361401},"geometry":{"x":166575.33000000194,"y":2542282.2300000004}},{"attributes":{"ID":361412,"DIS_CODE":0,"TOWNNAME":"南區","LI":"金華里","LIN":"32鄰","STREET":"新孝路","SECT":" ","MAREA":" ","LANE":"１４８巷","ALLEY":" ","HOUSE_NO":"８３號","E_COORD97":166576.60999999999,"N_COORD97":2542286.3799999999,"ADDRESS":"新孝路１４８巷８３號","OBJECTID":361402},"geometry":{"x":166576.61000000034,"y":2542286.3800000008}},{"attributes":{"ID":361413,"DIS_CODE":0,"TOWNNAME":"南區","LI":"金華里","LIN":"32鄰","STREET":"新孝路","SECT":" ","MAREA":" ","LANE":"１４８巷","ALLEY":" ","HOUSE_NO":"８５號","E_COORD97":166578.20999999999,"N_COORD97":2542290.5299999998,"ADDRESS":"新孝路１４８巷８５號","OBJECTID":361403},"geometry":{"x":166578.21000000089,"y":2542290.5299999993}},{"attributes":{"ID":361414,"DIS_CODE":0,"TOWNNAME":"南區","LI":"金華里","LIN":"32鄰","STREET":"新孝路","SECT":" ","MAREA":" ","LANE":"１４８巷","ALLEY":" ","HOUSE_NO":"８７號","E_COORD97":166578.20999999999,"N_COORD97":2542295,"ADDRESS":"新孝路１４８巷８７號","OBJECTID":361404},"geometry":{"x":166578.21000000089,"y":2542294.9999999981}},{"attributes":{"ID":361415,"DIS_CODE":0,"TOWNNAME":"南區","LI":"金華里","LIN":"32鄰","STREET":"新孝路","SECT":" ","MAREA":" ","LANE":"１４８巷","ALLEY":" ","HOUSE_NO":"８９號","E_COORD97":166579.79999999999,"N_COORD97":2542298.5099999998,"ADDRESS":"新孝路１４８巷８９號","OBJECTID":361405},"geometry":{"x":166579.79999999981,"y":2542298.5100000035}},{"attributes":{"ID":361416,"DIS_CODE":0,"TOWNNAME":"南區","LI":"金華里","LIN":"32鄰","STREET":"新孝路","SECT":" ","MAREA":" ","LANE":"１４８巷","ALLEY":" ","HOUSE_NO":"９１號","E_COORD97":166581.07999999999,"N_COORD97":2542303.6200000001,"ADDRESS":"新孝路１４８巷９１號","OBJECTID":361406},"geometry":{"x":166581.08000000101,"y":2542303.6200000029}},{"attributes":{"ID":361417,"DIS_CODE":0,"TOWNNAME":"南區","LI":"金華里","LIN":"32鄰","STREET":"新孝路","SECT":" ","MAREA":" ","LANE":"１４８巷","ALLEY":" ","HOUSE_NO":"９３號","E_COORD97":166582.04000000001,"N_COORD97":2542308.3999999999,"ADDRESS":"新孝路１４８巷９３號","OBJECTID":361407},"geometry":{"x":166582.04000000004,"y":2542308.4000000004}},{"attributes":{"ID":361418,"DIS_CODE":0,"TOWNNAME":"南區","LI":"金華里","LIN":"32鄰","STREET":"新孝路","SECT":" ","MAREA":" ","LANE":"１４８巷","ALLEY":" ","HOUSE_NO":"９７號","E_COORD97":166587.14999999999,"N_COORD97":2542319.5699999998,"ADDRESS":"新孝路１４８巷９７號","OBJECTID":361408},"geometry":{"x":166587.1500000013,"y":2542319.5700000022}},{"attributes":{"ID":361419,"DIS_CODE":0,"TOWNNAME":"南區","LI":"金華里","LIN":"32鄰","STREET":"新孝路","SECT":" ","MAREA":" ","LANE":"１４８巷","ALLEY":" ","HOUSE_NO":"９９號","E_COORD97":166588.75,"N_COORD97":2542322.77,"ADDRESS":"新孝路１４８巷９９號","OBJECTID":361409},"geometry":{"x":166588.75,"y":2542322.7699999996}},{"attributes":{"ID":361420,"DIS_CODE":0,"TOWNNAME":"南區","LI":"金華里","LIN":"32鄰","STREET":"新孝路","SECT":" ","MAREA":" ","LANE":"１７２巷","ALLEY":" ","HOUSE_NO":"７０號","E_COORD97":166559.03,"N_COORD97":2542350.21,"ADDRESS":"新孝路１７２巷７０號","OBJECTID":361410},"geometry":{"x":166559.03000000119,"y":2542350.2100000028}},{"attributes":{"ID":361421,"DIS_CODE":0,"TOWNNAME":"南區","LI":"金華里","LIN":"32鄰","STREET":"新孝路","SECT":" ","MAREA":" ","LANE":"１７２巷","ALLEY":" ","HOUSE_NO":"７２號","E_COORD97":166560.63,"N_COORD97":2542353.7200000002,"ADDRESS":"新孝路１７２巷７２號","OBJECTID":361411},"geometry":{"x":166560.62999999989,"y":2542353.7200000007}},{"attributes":{"ID":361422,"DIS_CODE":0,"TOWNNAME":"柳營區","LI":"八翁里","LIN":"19鄰","STREET":"仁愛路","SECT":" ","MAREA":" ","LANE":"６９巷","ALLEY":" ","HOUSE_NO":"１３號","E_COORD97":179058.60999999999,"N_COORD97":2575116.5499999998,"ADDRESS":"仁愛路６９巷１３號","OBJECTID":361412},"geometry":{"x":179058.6099999994,"y":2575116.5500000007}},{"attributes":{"ID":361423,"DIS_CODE":0,"TOWNNAME":"柳營區","LI":"八翁里","LIN":"19鄰","STREET":"仁愛路","SECT":" ","MAREA":" ","LANE":"６９巷","ALLEY":" ","HOUSE_NO":"１號","E_COORD97":179083.48000000001,"N_COORD97":2575121.1600000001,"ADDRESS":"仁愛路６９巷１號","OBJECTID":361413},"geometry":{"x":179083.48000000231,"y":2575121.160000002}},{"attributes":{"ID":361424,"DIS_CODE":0,"TOWNNAME":"柳營區","LI":"八翁里","LIN":"19鄰","STREET":"仁愛路","SECT":" ","MAREA":" ","LANE":"６９巷","ALLEY":" ","HOUSE_NO":"２號","E_COORD97":179061.70000000001,"N_COORD97":2575136.8300000001,"ADDRESS":"仁愛路６９巷２號","OBJECTID":361414},"geometry":{"x":179061.70000000112,"y":2575136.8300000019}},{"attributes":{"ID":361425,"DIS_CODE":0,"TOWNNAME":"柳營區","LI":"八翁里","LIN":"19鄰","STREET":"仁愛路","SECT":" ","MAREA":" ","LANE":"６９巷","ALLEY":" ","HOUSE_NO":"３號","E_COORD97":179079.32999999999,"N_COORD97":2575120.3900000001,"ADDRESS":"仁愛路６９巷３號","OBJECTID":361415},"geometry":{"x":179079.33000000101,"y":2575120.3900000025}},{"attributes":{"ID":361426,"DIS_CODE":0,"TOWNNAME":"柳營區","LI":"八翁里","LIN":"19鄰","STREET":"仁愛路","SECT":" ","MAREA":" ","LANE":"６９巷","ALLEY":" ","HOUSE_NO":"５號","E_COORD97":179075.19,"N_COORD97":2575119.6200000001,"ADDRESS":"仁愛路６９巷５號","OBJECTID":361416},"geometry":{"x":179075.19000000227,"y":2575119.620000001}},{"attributes":{"ID":361427,"DIS_CODE":0,"TOWNNAME":"柳營區","LI":"八翁里","LIN":"19鄰","STREET":"仁愛路","SECT":" ","MAREA":" ","LANE":"６９巷","ALLEY":" ","HOUSE_NO":"６號","E_COORD97":179056.07999999999,"N_COORD97":2575136.52,"ADDRESS":"仁愛路６９巷６號","OBJECTID":361417},"geometry":{"x":179056.08000000101,"y":2575136.5199999996}},{"attributes":{"ID":361428,"DIS_CODE":0,"TOWNNAME":"柳營區","LI":"八翁里","LIN":"19鄰","STREET":"仁愛路","SECT":" ","MAREA":" ","LANE":"６９巷","ALLEY":" ","HOUSE_NO":"７號","E_COORD97":179071.04999999999,"N_COORD97":2575118.8599999999,"ADDRESS":"仁愛路６９巷７號","OBJECTID":361418},"geometry":{"x":179071.05000000075,"y":2575118.8600000013}},{"attributes":{"ID":361429,"DIS_CODE":0,"TOWNNAME":"柳營區","LI":"八翁里","LIN":"19鄰","STREET":"仁愛路","SECT":" ","MAREA":" ","LANE":"６９巷","ALLEY":" ","HOUSE_NO":"９號","E_COORD97":179066.89999999999,"N_COORD97":2575118.0899999999,"ADDRESS":"仁愛路６９巷９號","OBJECTID":361419},"geometry":{"x":179066.89999999944,"y":2575118.0900000017}},{"attributes":{"ID":361430,"DIS_CODE":0,"TOWNNAME":"柳營區","LI":"士林里","LIN":"19鄰","STREET":"育英街","SECT":" ","MAREA":" ","LANE":"１０５巷","ALLEY":" ","HOUSE_NO":"７０號","E_COORD97":179360.35999999999,"N_COORD97":2574831.25,"ADDRESS":"育英街１０５巷７０號","OBJECTID":361420},"geometry":{"x":179360.3599999994,"y":2574831.2500000019}},{"attributes":{"ID":361431,"DIS_CODE":0,"TOWNNAME":"柳營區","LI":"士林里","LIN":"19鄰","STREET":"育英街","SECT":" ","MAREA":" ","LANE":"１０５巷","ALLEY":" ","HOUSE_NO":"７２號","E_COORD97":179355.98000000001,"N_COORD97":2574831.0899999999,"ADDRESS":"育英街１０５巷７２號","OBJECTID":361421},"geometry":{"x":179355.98000000045,"y":2574831.0899999999}},{"attributes":{"ID":361432,"DIS_CODE":0,"TOWNNAME":"六甲區","LI":"七甲里","LIN":"5鄰","STREET":"七甲街","SECT":" ","MAREA":" ","LANE":" ","ALLEY":" ","HOUSE_NO":"１５２號","E_COORD97":183003.28,"N_COORD97":2569115.6299999999,"ADDRESS":"七甲街１５２號","OBJECTID":361422},"geometry":{"x":183003.28000000026,"y":2569115.6300000008}},{"attributes":{"ID":361433,"DIS_CODE":0,"TOWNNAME":"六甲區","LI":"七甲里","LIN":"5鄰","STREET":"七甲街","SECT":" ","MAREA":" ","LANE":" ","ALLEY":" ","HOUSE_NO":"１５４號","E_COORD97":183004.32999999999,"N_COORD97":2569122.1899999999,"ADDRESS":"七甲街１５４號","OBJECTID":361423},"geometry":{"x":183004.33000000007,"y":2569122.1900000013}},{"attributes":{"ID":361434,"DIS_CODE":0,"TOWNNAME":"關廟區","LI":"北勢里","LIN":"13鄰","STREET":"仁愛路","SECT":" ","MAREA":" ","LANE":" ","ALLEY":" ","HOUSE_NO":"２１９號","E_COORD97":181433.79000000001,"N_COORD97":2540560.2799999998,"ADDRESS":"仁愛路２１９號","OBJECTID":361424},"geometry":{"x":181433.7900000019,"y":2540560.2800000031}},{"attributes":{"ID":361435,"DIS_CODE":0,"TOWNNAME":"關廟區","LI":"五甲里","LIN":"13鄰","STREET":"光復街","SECT":" ","MAREA":" ","LANE":" ","ALLEY":" ","HOUSE_NO":"５３號","E_COORD97":181434.79000000001,"N_COORD97":2539272.2799999998,"ADDRESS":"光復街５３號","OBJECTID":361425},"geometry":{"x":181434.79000000004,"y":2539272.2800000012}},{"attributes":{"ID":361436,"DIS_CODE":0,"TOWNNAME":"關廟區","LI":"五甲里","LIN":"13鄰","STREET":"光復街","SECT":" ","MAREA":" ","LANE":" ","ALLEY":" ","HOUSE_NO":"５５號","E_COORD97":181434.79000000001,"N_COORD97":2539277.2799999998,"ADDRESS":"光復街５５號","OBJECTID":361426},"geometry":{"x":181434.79000000004,"y":2539277.2799999993}},{"attributes":{"ID":361437,"DIS_CODE":0,"TOWNNAME":"關廟區","LI":"北勢里","LIN":"13鄰","STREET":"成功路","SECT":" ","MAREA":" ","LANE":" ","ALLEY":" ","HOUSE_NO":"２８８號","E_COORD97":181416.87,"N_COORD97":2540494.27,"ADDRESS":"成功路２８８號","OBJECTID":361427},"geometry":{"x":181416.87000000104,"y":2540494.2699999996}},{"attributes":{"ID":361438,"DIS_CODE":0,"TOWNNAME":"關廟區","LI":"南花里","LIN":"13鄰","STREET":"和平路","SECT":" ","MAREA":" ","LANE":" ","ALLEY":" ","HOUSE_NO":"３６２號","E_COORD97":181621.44,"N_COORD97":2540204.25,"ADDRESS":"和平路３６２號","OBJECTID":361428},"geometry":{"x":181621.44000000227,"y":2540204.25}},{"attributes":{"ID":361439,"DIS_CODE":0,"TOWNNAME":"關廟區","LI":"香洋里","LIN":"13鄰","STREET":"南雄路","SECT":"二段","MAREA":" ","LANE":" ","ALLEY":" ","HOUSE_NO":"１０號","E_COORD97":181097.54000000001,"N_COORD97":2540032.2799999998,"ADDRESS":"南雄路二段１０號","OBJECTID":361429},"geometry":{"x":181097.54000000004,"y":2540032.2800000012}},{"attributes":{"ID":361440,"DIS_CODE":0,"TOWNNAME":"關廟區","LI":"深坑里","LIN":"13鄰","STREET":"南雄路","SECT":"一段","MAREA":" ","LANE":" ","ALLEY":" ","HOUSE_NO":"１３９號","E_COORD97":182106.51999999999,"N_COORD97":2537030.29,"ADDRESS":"南雄路一段１３９號","OBJECTID":361430},"geometry":{"x":182106.52000000142,"y":2537030.2900000028}},{"attributes":{"ID":361441,"DIS_CODE":0,"TOWNNAME":"關廟區","LI":"關廟里","LIN":"13鄰","STREET":"大仁街","SECT":" ","MAREA":" ","LANE":" ","ALLEY":" ","HOUSE_NO":"１２２號","E_COORD97":181014.57000000001,"N_COORD97":2539404.25,"ADDRESS":"大仁街１２２號","OBJECTID":361431},"geometry":{"x":181014.5700000003,"y":2539404.25}},{"attributes":{"ID":361442,"DIS_CODE":0,"TOWNNAME":"關廟區","LI":"關廟里","LIN":"13鄰","STREET":"大仁街","SECT":" ","MAREA":" ","LANE":" ","ALLEY":" ","HOUSE_NO":"１０６號","E_COORD97":181046.07000000001,"N_COORD97":2539415.25,"ADDRESS":"大仁街１０６號","OBJECTID":361432},"geometry":{"x":181046.07000000123,"y":2539415.2500000037}},{"attributes":{"ID":361443,"DIS_CODE":0,"TOWNNAME":"關廟區","LI":"香洋里","LIN":"13鄰","STREET":"南雄路","SECT":"二段","MAREA":" ","LANE":" ","ALLEY":" ","HOUSE_NO":"１６號","E_COORD97":181100.14000000001,"N_COORD97":2540041.2799999998,"ADDRESS":"南雄路二段１６號","OBJECTID":361433},"geometry":{"x":181100.13999999966,"y":2540041.2800000031}},{"attributes":{"ID":361444,"DIS_CODE":0,"TOWNNAME":"關廟區","LI":"北花里","LIN":"13鄰","STREET":"中正路","SECT":" ","MAREA":" ","LANE":" ","ALLEY":" ","HOUSE_NO":"３４５號","E_COORD97":183007.76000000001,"N_COORD97":2540815.25,"ADDRESS":"中正路３４５號","OBJECTID":361434},"geometry":{"x":183007.76000000071,"y":2540815.2500000037}},{"attributes":{"ID":361445,"DIS_CODE":0,"TOWNNAME":"柳營區","LI":"士林里","LIN":"19鄰","STREET":"育英街","SECT":" ","MAREA":" ","LANE":"１０５巷","ALLEY":" ","HOUSE_NO":"７６號","E_COORD97":179351.34,"N_COORD97":2574833,"ADDRESS":"育英街１０５巷７６號","OBJECTID":361435},"geometry":{"x":179351.33999999985,"y":2574833.0000000019}},{"attributes":{"ID":361446,"DIS_CODE":0,"TOWNNAME":"柳營區","LI":"士林里","LIN":"19鄰","STREET":"育英街","SECT":" ","MAREA":" ","LANE":"１０５巷","ALLEY":" ","HOUSE_NO":"７８號","E_COORD97":179338.60999999999,"N_COORD97":2574832.3900000001,"ADDRESS":"育英街１０５巷７８號","OBJECTID":361436},"geometry":{"x":179338.61000000127,"y":2574832.3900000006}},{"attributes":{"ID":361447,"DIS_CODE":0,"TOWNNAME":"柳營區","LI":"士林里","LIN":"19鄰","STREET":"育英街","SECT":" ","MAREA":" ","LANE":"１０５巷","ALLEY":" ","HOUSE_NO":"８號","E_COORD97":179372.85999999999,"N_COORD97":2574865.6899999999,"ADDRESS":"育英街１０５巷８號","OBJECTID":361437},"geometry":{"x":179372.86000000127,"y":2574865.6900000013}},{"attributes":{"ID":361448,"DIS_CODE":0,"TOWNNAME":"南區","LI":"郡南里","LIN":"19鄰","STREET":"德興路","SECT":" ","MAREA":" ","LANE":"１７７巷","ALLEY":" ","HOUSE_NO":"６８號","E_COORD97":167294.14000000001,"N_COORD97":2540341.2200000002,"ADDRESS":"德興路１７７巷６８號","OBJECTID":361438},"geometry":{"x":167294.13999999966,"y":2540341.2200000007}},{"attributes":{"ID":361449,"DIS_CODE":0,"TOWNNAME":"南區","LI":"郡南里","LIN":"19鄰","STREET":"德興路","SECT":" ","MAREA":" ","LANE":"１７７巷","ALLEY":" ","HOUSE_NO":"７９號","E_COORD97":167330.51999999999,"N_COORD97":2540343.7400000002,"ADDRESS":"德興路１７７巷７９號","OBJECTID":361439},"geometry":{"x":167330.51999999955,"y":2540343.7400000002}},{"attributes":{"ID":361450,"DIS_CODE":0,"TOWNNAME":"南區","LI":"國宅里","LIN":"19鄰","STREET":"新興路","SECT":" ","MAREA":" ","LANE":"４１８巷","ALLEY":" ","HOUSE_NO":"２９號","E_COORD97":166692.72,"N_COORD97":2541891.6200000001,"ADDRESS":"新興路４１８巷２９號","OBJECTID":361440},"geometry":{"x":166692.7200000016,"y":2541891.620000001}},{"attributes":{"ID":361451,"DIS_CODE":0,"TOWNNAME":"南區","LI":"彰南里","LIN":"19鄰","STREET":"新港路","SECT":" ","MAREA":" ","LANE":"２３巷","ALLEY":" ","HOUSE_NO":"２號","E_COORD97":165537.70000000001,"N_COORD97":2542142.6299999999,"ADDRESS":"新港路２３巷２號","OBJECTID":361441},"geometry":{"x":165537.70000000112,"y":2542142.629999999}},{"attributes":{"ID":361452,"DIS_CODE":0,"TOWNNAME":"南區","LI":"建南里","LIN":"19鄰","STREET":"明興路","SECT":" ","MAREA":" ","LANE":"３２１巷","ALLEY":" ","HOUSE_NO":"２５號","E_COORD97":166622.84,"N_COORD97":2539124.9100000001,"ADDRESS":"明興路３２１巷２５號","OBJECTID":361442},"geometry":{"x":166622.84000000078,"y":2539124.9100000001}},{"attributes":{"ID":361453,"DIS_CODE":0,"TOWNNAME":"南區","LI":"明興里","LIN":"19鄰","STREET":"德興路","SECT":" ","MAREA":" ","LANE":"１６４巷","ALLEY":" ","HOUSE_NO":"１０號","E_COORD97":167139.32000000001,"N_COORD97":2540351.8599999999,"ADDRESS":"德興路１６４巷１０號","OBJECTID":361443},"geometry":{"x":167139.3200000003,"y":2540351.8599999994}},{"attributes":{"ID":361454,"DIS_CODE":0,"TOWNNAME":"南區","LI":"明興里","LIN":"19鄰","STREET":"德興路","SECT":" ","MAREA":" ","LANE":"１６４巷","ALLEY":" ","HOUSE_NO":"１２號","E_COORD97":167135.10999999999,"N_COORD97":2540351.04,"ADDRESS":"德興路１６４巷１２號","OBJECTID":361444},"geometry":{"x":167135.11000000127,"y":2540351.0399999972}},{"attributes":{"ID":361455,"DIS_CODE":0,"TOWNNAME":"南區","LI":"明興里","LIN":"19鄰","STREET":"德興路","SECT":" ","MAREA":" ","LANE":"１６４巷","ALLEY":" ","HOUSE_NO":"１４號","E_COORD97":167131.47,"N_COORD97":2540349.8799999999,"ADDRESS":"德興路１６４巷１４號","OBJECTID":361445},"geometry":{"x":167131.46999999974,"y":2540349.8800000008}},{"attributes":{"ID":361456,"DIS_CODE":0,"TOWNNAME":"南區","LI":"明興里","LIN":"19鄰","STREET":"德興路","SECT":" ","MAREA":" ","LANE":"１６４巷","ALLEY":" ","HOUSE_NO":"２號","E_COORD97":167153.62,"N_COORD97":2540354.5899999999,"ADDRESS":"德興路１６４巷２號","OBJECTID":361446},"geometry":{"x":167153.62000000104,"y":2540354.5899999999}},{"attributes":{"ID":361457,"DIS_CODE":0,"TOWNNAME":"南區","LI":"明興里","LIN":"19鄰","STREET":"德興路","SECT":" ","MAREA":" ","LANE":"１６４巷","ALLEY":" ","HOUSE_NO":"６號","E_COORD97":167148.57999999999,"N_COORD97":2540353.7599999998,"ADDRESS":"德興路１６４巷６號","OBJECTID":361447},"geometry":{"x":167148.58000000101,"y":2540353.7600000035}},{"attributes":{"ID":361458,"DIS_CODE":0,"TOWNNAME":"南區","LI":"明興里","LIN":"19鄰","STREET":"德興路","SECT":" ","MAREA":" ","LANE":"１６４巷","ALLEY":" ","HOUSE_NO":"８號","E_COORD97":167144.20000000001,"N_COORD97":2540352.8500000001,"ADDRESS":"德興路１６４巷８號","OBJECTID":361448},"geometry":{"x":167144.20000000205,"y":2540352.8499999978}},{"attributes":{"ID":361459,"DIS_CODE":0,"TOWNNAME":"南區","LI":"建南里","LIN":"19鄰","STREET":"明興路","SECT":" ","MAREA":" ","LANE":"３２１巷","ALLEY":" ","HOUSE_NO":"５７號","E_COORD97":166768.31,"N_COORD97":2539162.4700000002,"ADDRESS":"明興路３２１巷５７號","OBJECTID":361449},"geometry":{"x":166768.31000000052,"y":2539162.4700000007}},{"attributes":{"ID":361460,"DIS_CODE":0,"TOWNNAME":"南區","LI":"建南里","LIN":"19鄰","STREET":"明興路","SECT":" ","MAREA":" ","LANE":"９９巷","ALLEY":" ","HOUSE_NO":"１０號","E_COORD97":166696.51999999999,"N_COORD97":2539899.4500000002,"ADDRESS":"明興路９９巷１０號","OBJECTID":361450},"geometry":{"x":166696.51999999955,"y":2539899.4499999993}},{"attributes":{"ID":361461,"DIS_CODE":0,"TOWNNAME":"南區","LI":"建南里","LIN":"19鄰","STREET":"明興路","SECT":" ","MAREA":" ","LANE":"９９巷","ALLEY":" ","HOUSE_NO":"１２號","E_COORD97":166704.26000000001,"N_COORD97":2539899.4500000002,"ADDRESS":"明興路９９巷１２號","OBJECTID":361451},"geometry":{"x":166704.26000000164,"y":2539899.4499999993}},{"attributes":{"ID":361462,"DIS_CODE":0,"TOWNNAME":"南區","LI":"建南里","LIN":"19鄰","STREET":"明興路","SECT":" ","MAREA":" ","LANE":"９９巷","ALLEY":" ","HOUSE_NO":"２號","E_COORD97":166662.60000000001,"N_COORD97":2539901.0299999998,"ADDRESS":"明興路９９巷２號","OBJECTID":361452},"geometry":{"x":166662.59999999963,"y":2539901.0300000012}},{"attributes":{"ID":361463,"DIS_CODE":0,"TOWNNAME":"南區","LI":"建南里","LIN":"19鄰","STREET":"明興路","SECT":" ","MAREA":" ","LANE":"９９巷","ALLEY":" ","HOUSE_NO":"２號之１","E_COORD97":166672.32000000001,"N_COORD97":2539899.8399999999,"ADDRESS":"明興路９９巷２號之１","OBJECTID":361453},"geometry":{"x":166672.32000000216,"y":2539899.8400000017}},{"attributes":{"ID":361464,"DIS_CODE":0,"TOWNNAME":"南區","LI":"建南里","LIN":"19鄰","STREET":"明興路","SECT":" ","MAREA":" ","LANE":"９９巷","ALLEY":" ","HOUSE_NO":"３號","E_COORD97":166671.32999999999,"N_COORD97":2539917.0800000001,"ADDRESS":"明興路９９巷３號","OBJECTID":361454},"geometry":{"x":166671.33000000007,"y":2539917.0800000001}},{"attributes":{"ID":361465,"DIS_CODE":0,"TOWNNAME":"南區","LI":"建南里","LIN":"19鄰","STREET":"明興路","SECT":" ","MAREA":" ","LANE":"９９巷","ALLEY":" ","HOUSE_NO":"５號","E_COORD97":166666.39000000001,"N_COORD97":2539927.4399999999,"ADDRESS":"明興路９９巷５號","OBJECTID":361455},"geometry":{"x":166666.3900000006,"y":2539927.4399999995}},{"attributes":{"ID":361466,"DIS_CODE":0,"TOWNNAME":"南區","LI":"建南里","LIN":"19鄰","STREET":"明興路","SECT":" ","MAREA":" ","LANE":"９９巷","ALLEY":" ","HOUSE_NO":"６號","E_COORD97":166680.26000000001,"N_COORD97":2539900.04,"ADDRESS":"明興路９９巷６號","OBJECTID":361456},"geometry":{"x":166680.25999999978,"y":2539900.0399999991}},{"attributes":{"ID":361467,"DIS_CODE":0,"TOWNNAME":"南區","LI":"建南里","LIN":"19鄰","STREET":"明興路","SECT":" ","MAREA":" ","LANE":"９９巷","ALLEY":" ","HOUSE_NO":"７號","E_COORD97":166667.38,"N_COORD97":2539933.7799999998,"ADDRESS":"明興路９９巷７號","OBJECTID":361457},"geometry":{"x":166667.37999999989,"y":2539933.7800000012}},{"attributes":{"ID":361468,"DIS_CODE":0,"TOWNNAME":"南區","LI":"建南里","LIN":"19鄰","STREET":"明興路","SECT":" ","MAREA":" ","LANE":"９９巷","ALLEY":" ","HOUSE_NO":"８號","E_COORD97":166690.76999999999,"N_COORD97":2539899.6400000001,"ADDRESS":"明興路９９巷８號","OBJECTID":361458},"geometry":{"x":166690.77000000048,"y":2539899.6400000006}},{"attributes":{"ID":361469,"DIS_CODE":0,"TOWNNAME":"歸仁區","LI":"看西里","LIN":"19鄰","STREET":"成功路","SECT":"二段","MAREA":" ","LANE":"１０巷","ALLEY":" ","HOUSE_NO":"１９號","E_COORD97":178134.23000000001,"N_COORD97":2539906.25,"ADDRESS":"成功路二段１０巷１９號","OBJECTID":361459},"geometry":{"x":178134.23000000231,"y":2539906.25}},{"attributes":{"ID":361470,"DIS_CODE":0,"TOWNNAME":"歸仁區","LI":"崙頂里","LIN":"19鄰","STREET":"大成路","SECT":" ","MAREA":" ","LANE":"１６１巷","ALLEY":" ","HOUSE_NO":"３６號","E_COORD97":177850.23000000001,"N_COORD97":2540246.98,"ADDRESS":"大成路１６１巷３６號","OBJECTID":361460},"geometry":{"x":177850.23000000045,"y":2540246.9800000004}},{"attributes":{"ID":361471,"DIS_CODE":0,"TOWNNAME":"歸仁區","LI":"崙頂里","LIN":"19鄰","STREET":"大成路","SECT":" ","MAREA":" ","LANE":"１６１巷","ALLEY":" ","HOUSE_NO":"４０號","E_COORD97":177858.42999999999,"N_COORD97":2540251.98,"ADDRESS":"大成路１６１巷４０號","OBJECTID":361461},"geometry":{"x":177858.4299999997,"y":2540251.9800000023}},{"attributes":{"ID":361472,"DIS_CODE":0,"TOWNNAME":"歸仁區","LI":"崙頂里","LIN":"19鄰","STREET":"大成路","SECT":" ","MAREA":" ","LANE":"１６１巷","ALLEY":" ","HOUSE_NO":"３０號","E_COORD97":177836.82999999999,"N_COORD97":2540241.98,"ADDRESS":"大成路１６１巷３０號","OBJECTID":361462},"geometry":{"x":177836.83000000101,"y":2540241.9800000023}},{"attributes":{"ID":361473,"DIS_CODE":0,"TOWNNAME":"歸仁區","LI":"看西里","LIN":"19鄰","STREET":"成功路","SECT":"二段","MAREA":" ","LANE":"１０巷","ALLEY":" ","HOUSE_NO":"１１號","E_COORD97":178157.57000000001,"N_COORD97":2539898.5699999998,"ADDRESS":"成功路二段１０巷１１號","OBJECTID":361463},"geometry":{"x":178157.57000000123,"y":2539898.5700000022}},{"attributes":{"ID":361474,"DIS_CODE":0,"TOWNNAME":"歸仁區","LI":"崙頂里","LIN":"19鄰","STREET":"大成路","SECT":" ","MAREA":" ","LANE":"１６１巷","ALLEY":" ","HOUSE_NO":"１８號","E_COORD97":177808.03,"N_COORD97":2540229.98,"ADDRESS":"大成路１６１巷１８號","OBJECTID":361464},"geometry":{"x":177808.02999999933,"y":2540229.9800000004}},{"attributes":{"ID":361475,"DIS_CODE":0,"TOWNNAME":"歸仁區","LI":"崙頂里","LIN":"19鄰","STREET":"大成路","SECT":" ","MAREA":" ","LANE":"１６１巷","ALLEY":" ","HOUSE_NO":"２４號","E_COORD97":177822.42999999999,"N_COORD97":2540235.98,"ADDRESS":"大成路１６１巷２４號","OBJECTID":361465},"geometry":{"x":177822.43000000063,"y":2540235.9800000023}},{"attributes":{"ID":361476,"DIS_CODE":0,"TOWNNAME":"歸仁區","LI":"南保里","LIN":"19鄰","STREET":"文化街","SECT":"三段","MAREA":" ","LANE":"６１巷","ALLEY":" ","HOUSE_NO":"１號","E_COORD97":176894.37,"N_COORD97":2541215.2599999998,"ADDRESS":"文化街三段６１巷１號","OBJECTID":361466},"geometry":{"x":176894.37000000104,"y":2541215.2600000035}},{"attributes":{"ID":361477,"DIS_CODE":0,"TOWNNAME":"歸仁區","LI":"南保里","LIN":"19鄰","STREET":"文化街","SECT":"三段","MAREA":" ","LANE":"６１巷","ALLEY":" ","HOUSE_NO":"３號","E_COORD97":176894.37,"N_COORD97":2541211.2599999998,"ADDRESS":"文化街三段６１巷３號","OBJECTID":361467},"geometry":{"x":176894.37000000104,"y":2541211.2599999998}},{"attributes":{"ID":361478,"DIS_CODE":0,"TOWNNAME":"歸仁區","LI":"後市里","LIN":"19鄰","STREET":"中正北路","SECT":"一段","MAREA":" ","LANE":"３巷","ALLEY":" ","HOUSE_NO":"２４號","E_COORD97":177543.37,"N_COORD97":2540869.25,"ADDRESS":"中正北路一段３巷２４號","OBJECTID":361468},"geometry":{"x":177543.37000000104,"y":2540869.2499999981}},{"attributes":{"ID":361479,"DIS_CODE":0,"TOWNNAME":"歸仁區","LI":"歸仁里","LIN":"19鄰","STREET":"大仁二街","SECT":" ","MAREA":" ","LANE":"１２巷","ALLEY":" ","HOUSE_NO":"７號","E_COORD97":178179.04000000001,"N_COORD97":2541075.1099999999,"ADDRESS":"大仁二街１２巷７號","OBJECTID":361469},"geometry":{"x":178179.0400000019,"y":2541075.1099999994}},{"attributes":{"ID":361480,"DIS_CODE":0,"TOWNNAME":"南區","LI":"田寮里","LIN":"19鄰","STREET":"西門路","SECT":"一段","MAREA":" ","LANE":"２２３巷","ALLEY":" ","HOUSE_NO":"２１號","E_COORD97":167663.47,"N_COORD97":2541777.4500000002,"ADDRESS":"西門路一段２２３巷２１號","OBJECTID":361470},"geometry":{"x":167663.46999999974,"y":2541777.4500000011}},{"attributes":{"ID":361481,"DIS_CODE":0,"TOWNNAME":"南區","LI":"田寮里","LIN":"19鄰","STREET":"西門路","SECT":"一段","MAREA":" ","LANE":"２２３巷","ALLEY":" ","HOUSE_NO":"２３號","E_COORD97":167663.47,"N_COORD97":2541771,"ADDRESS":"西門路一段２２３巷２３號","OBJECTID":361471},"geometry":{"x":167663.46999999974,"y":2541771.0000000019}},{"attributes":{"ID":361482,"DIS_CODE":0,"TOWNNAME":"南區","LI":"田寮里","LIN":"19鄰","STREET":"西門路","SECT":"一段","MAREA":" ","LANE":"２２３巷","ALLEY":" ","HOUSE_NO":"２５號","E_COORD97":167642.04999999999,"N_COORD97":2541770.4399999999,"ADDRESS":"西門路一段２２３巷２５號","OBJECTID":361472},"geometry":{"x":167642.05000000075,"y":2541770.4400000013}},{"attributes":{"ID":361483,"DIS_CODE":0,"TOWNNAME":"南區","LI":"田寮里","LIN":"19鄰","STREET":"西門路","SECT":"一段","MAREA":" ","LANE":"２２３巷","ALLEY":" ","HOUSE_NO":"２７號","E_COORD97":167642.04999999999,"N_COORD97":2541777.4500000002,"ADDRESS":"西門路一段２２３巷２７號","OBJECTID":361473},"geometry":{"x":167642.05000000075,"y":2541777.4500000011}},{"attributes":{"ID":361484,"DIS_CODE":0,"TOWNNAME":"南區","LI":"田寮里","LIN":"19鄰","STREET":"西門路","SECT":"一段","MAREA":" ","LANE":"２２３巷","ALLEY":" ","HOUSE_NO":"２９號","E_COORD97":167642.23000000001,"N_COORD97":2541784.46,"ADDRESS":"西門路一段２２３巷２９號","OBJECTID":361474},"geometry":{"x":167642.23000000045,"y":2541784.4600000046}},{"attributes":{"ID":361485,"DIS_CODE":0,"TOWNNAME":"南區","LI":"田寮里","LIN":"19鄰","STREET":"西門路","SECT":"一段","MAREA":" ","LANE":"２２３巷","ALLEY":" ","HOUSE_NO":"２號","E_COORD97":167700.69,"N_COORD97":2541813.5600000001,"ADDRESS":"西門路一段２２３巷２號","OBJECTID":361475},"geometry":{"x":167700.69000000134,"y":2541813.5600000005}},{"attributes":{"ID":361486,"DIS_CODE":0,"TOWNNAME":"南區","LI":"田寮里","LIN":"19鄰","STREET":"西門路","SECT":"一段","MAREA":" ","LANE":"２２３巷","ALLEY":" ","HOUSE_NO":"３１號","E_COORD97":167641.85999999999,"N_COORD97":2541790.73,"ADDRESS":"西門路一段２２３巷３１號","OBJECTID":361476},"geometry":{"x":167641.86000000127,"y":2541790.7300000004}},{"attributes":{"ID":361487,"DIS_CODE":0,"TOWNNAME":"南區","LI":"田寮里","LIN":"19鄰","STREET":"西門路","SECT":"一段","MAREA":" ","LANE":"２２３巷","ALLEY":" ","HOUSE_NO":"３號","E_COORD97":167697.84,"N_COORD97":2541785.75,"ADDRESS":"西門路一段２２３巷３號","OBJECTID":361477},"geometry":{"x":167697.84000000078,"y":2541785.7500000019}},{"attributes":{"ID":361488,"DIS_CODE":0,"TOWNNAME":"玉井區","LI":"玉田里","LIN":"19鄰","STREET":"民主街","SECT":" ","MAREA":" ","LANE":"６６巷","ALLEY":" ","HOUSE_NO":"３號","E_COORD97":195051.23999999999,"N_COORD97":2558028.29,"ADDRESS":"民主街６６巷３號","OBJECTID":361478},"geometry":{"x":195051.24000000022,"y":2558028.290000001}},{"attributes":{"ID":361489,"DIS_CODE":0,"TOWNNAME":"玉井區","LI":"玉田里","LIN":"19鄰","STREET":"民主街","SECT":" ","MAREA":" ","LANE":"６６巷","ALLEY":" ","HOUSE_NO":"５號","E_COORD97":195051.04000000001,"N_COORD97":2558024.29,"ADDRESS":"民主街６６巷５號","OBJECTID":361479},"geometry":{"x":195051.04000000004,"y":2558024.290000001}},{"attributes":{"ID":361490,"DIS_CODE":0,"TOWNNAME":"玉井區","LI":"玉田里","LIN":"19鄰","STREET":"民主街","SECT":" ","MAREA":" ","LANE":"６６巷","ALLEY":" ","HOUSE_NO":"１８號","E_COORD97":195058.88,"N_COORD97":2558079.2799999998,"ADDRESS":"民主街６６巷１８號","OBJECTID":361480},"geometry":{"x":195058.87999999989,"y":2558079.2800000012}},{"attributes":{"ID":361491,"DIS_CODE":0,"TOWNNAME":"玉井區","LI":"玉田里","LIN":"19鄰","STREET":"民主街","SECT":" ","MAREA":" ","LANE":"６６巷","ALLEY":" ","HOUSE_NO":"１２號","E_COORD97":195055.38,"N_COORD97":2558045.29,"ADDRESS":"民主街６６巷１２號","OBJECTID":361481},"geometry":{"x":195055.37999999989,"y":2558045.290000001}},{"attributes":{"ID":361492,"DIS_CODE":0,"TOWNNAME":"玉井區","LI":"玉田里","LIN":"19鄰","STREET":"民主街","SECT":" ","MAREA":" ","LANE":"６６巷","ALLEY":" ","HOUSE_NO":"１１號","E_COORD97":195054.98999999999,"N_COORD97":2558042.29,"ADDRESS":"民主街６６巷１１號","OBJECTID":361482},"geometry":{"x":195054.99000000022,"y":2558042.2899999991}},{"attributes":{"ID":361493,"DIS_CODE":0,"TOWNNAME":"玉井區","LI":"玉田里","LIN":"19鄰","STREET":"民主街","SECT":" ","MAREA":" ","LANE":"６６巷","ALLEY":" ","HOUSE_NO":"９號","E_COORD97":195052.92999999999,"N_COORD97":2558035.29,"ADDRESS":"民主街６６巷９號","OBJECTID":361483},"geometry":{"x":195052.9299999997,"y":2558035.290000001}},{"attributes":{"ID":361494,"DIS_CODE":0,"TOWNNAME":"玉井區","LI":"玉田里","LIN":"19鄰","STREET":"民族路","SECT":" ","MAREA":" ","LANE":"５６巷","ALLEY":" ","HOUSE_NO":"８號","E_COORD97":195097.14000000001,"N_COORD97":2558073.2799999998,"ADDRESS":"民族路５６巷８號","OBJECTID":361484},"geometry":{"x":195097.13999999966,"y":2558073.2799999993}},{"attributes":{"ID":361495,"DIS_CODE":0,"TOWNNAME":"玉井區","LI":"玉田里","LIN":"19鄰","STREET":"民族路","SECT":" ","MAREA":" ","LANE":"５６巷","ALLEY":" ","HOUSE_NO":"１１號","E_COORD97":195099.28,"N_COORD97":2558080.2799999998,"ADDRESS":"民族路５６巷１１號","OBJECTID":361485},"geometry":{"x":195099.28000000119,"y":2558080.2799999993}},{"attributes":{"ID":361496,"DIS_CODE":0,"TOWNNAME":"玉井區","LI":"玉田里","LIN":"19鄰","STREET":"民族路","SECT":" ","MAREA":" ","LANE":"５６巷","ALLEY":" ","HOUSE_NO":"１號","E_COORD97":195109.04000000001,"N_COORD97":2558094.2799999998,"ADDRESS":"民族路５６巷１號","OBJECTID":361486},"geometry":{"x":195109.0400000019,"y":2558094.2799999993}},{"attributes":{"ID":361497,"DIS_CODE":0,"TOWNNAME":"玉井區","LI":"玉田里","LIN":"19鄰","STREET":"民族路","SECT":" ","MAREA":" ","LANE":"５６巷","ALLEY":" ","HOUSE_NO":"５號","E_COORD97":195100.25,"N_COORD97":2558094.2799999998,"ADDRESS":"民族路５６巷５號","OBJECTID":361487},"geometry":{"x":195100.25,"y":2558094.2799999993}},{"attributes":{"ID":361498,"DIS_CODE":0,"TOWNNAME":"玉井區","LI":"玉田里","LIN":"19鄰","STREET":"民族路","SECT":" ","MAREA":" ","LANE":"５６巷","ALLEY":" ","HOUSE_NO":"６號","E_COORD97":195096.63,"N_COORD97":2558069.2799999998,"ADDRESS":"民族路５６巷６號","OBJECTID":361488},"geometry":{"x":195096.63000000082,"y":2558069.2800000012}},{"attributes":{"ID":361499,"DIS_CODE":0,"TOWNNAME":"玉井區","LI":"玉田里","LIN":"19鄰","STREET":"民族路","SECT":" ","MAREA":" ","LANE":"５６巷","ALLEY":" ","HOUSE_NO":"７號","E_COORD97":195095.34,"N_COORD97":2558094.2799999998,"ADDRESS":"民族路５６巷７號","OBJECTID":361489},"geometry":{"x":195095.34000000078,"y":2558094.2799999993}},{"attributes":{"ID":361500,"DIS_CODE":0,"TOWNNAME":"玉井區","LI":"玉田里","LIN":"19鄰","STREET":"民族路","SECT":" ","MAREA":" ","LANE":"５６巷","ALLEY":" ","HOUSE_NO":"３號","E_COORD97":195105.73999999999,"N_COORD97":2558094.2799999998,"ADDRESS":"民族路５６巷３號","OBJECTID":361490},"geometry":{"x":195105.74000000022,"y":2558094.2799999993}},{"attributes":{"ID":361501,"DIS_CODE":0,"TOWNNAME":"玉井區","LI":"玉田里","LIN":"19鄰","STREET":"民主街","SECT":" ","MAREA":" ","LANE":"６６巷","ALLEY":" ","HOUSE_NO":"１７號","E_COORD97":195056.67999999999,"N_COORD97":2558074.2799999998,"ADDRESS":"民主街６６巷１７號","OBJECTID":361491},"geometry":{"x":195056.67999999877,"y":2558074.2799999993}},{"attributes":{"ID":361502,"DIS_CODE":0,"TOWNNAME":"玉井區","LI":"玉田里","LIN":"19鄰","STREET":"民族路","SECT":" ","MAREA":" ","LANE":"５６巷","ALLEY":" ","HOUSE_NO":"９號","E_COORD97":195090.13,"N_COORD97":2558094.2799999998,"ADDRESS":"民族路５６巷９號","OBJECTID":361492},"geometry":{"x":195090.13000000082,"y":2558094.2799999993}},{"attributes":{"ID":361503,"DIS_CODE":0,"TOWNNAME":"玉井區","LI":"玉田里","LIN":"19鄰","STREET":"民族路","SECT":" ","MAREA":" ","LANE":"５６巷","ALLEY":" ","HOUSE_NO":"４號","E_COORD97":195096.54000000001,"N_COORD97":2558065.2799999998,"ADDRESS":"民族路５６巷４號","OBJECTID":361493},"geometry":{"x":195096.54000000004,"y":2558065.2800000012}},{"attributes":{"ID":361504,"DIS_CODE":0,"TOWNNAME":"玉井區","LI":"玉田里","LIN":"19鄰","STREET":"民主街","SECT":" ","MAREA":" ","LANE":"６６巷","ALLEY":" ","HOUSE_NO":"１５號","E_COORD97":195048.17999999999,"N_COORD97":2558064.2799999998,"ADDRESS":"民主街６６巷１５號","OBJECTID":361494},"geometry":{"x":195048.17999999877,"y":2558064.2799999993}},{"attributes":{"ID":361505,"DIS_CODE":0,"TOWNNAME":"玉井區","LI":"玉井里","LIN":"19鄰","STREET":"太子街","SECT":" ","MAREA":" ","LANE":"４４巷","ALLEY":" ","HOUSE_NO":"１３號","E_COORD97":194821.42999999999,"N_COORD97":2558068.25,"ADDRESS":"太子街４４巷１３號","OBJECTID":361495},"geometry":{"x":194821.43000000063,"y":2558068.25}},{"attributes":{"ID":361506,"DIS_CODE":0,"TOWNNAME":"玉井區","LI":"玉井里","LIN":"19鄰","STREET":"太子街","SECT":" ","MAREA":" ","LANE":"４４巷","ALLEY":" ","HOUSE_NO":"５號","E_COORD97":194797.29000000001,"N_COORD97":2558070.25,"ADDRESS":"太子街４４巷５號","OBJECTID":361496},"geometry":{"x":194797.29000000097,"y":2558070.2500000019}},{"attributes":{"ID":361507,"DIS_CODE":0,"TOWNNAME":"玉井區","LI":"玉井里","LIN":"19鄰","STREET":"太子街","SECT":" ","MAREA":" ","LANE":"４４巷","ALLEY":" ","HOUSE_NO":"９號","E_COORD97":194809.59,"N_COORD97":2558083.25,"ADDRESS":"太子街４４巷９號","OBJECTID":361497},"geometry":{"x":194809.58999999985,"y":2558083.2500000019}},{"attributes":{"ID":361508,"DIS_CODE":0,"TOWNNAME":"玉井區","LI":"玉井里","LIN":"19鄰","STREET":"太子街","SECT":" ","MAREA":" ","LANE":"４４巷","ALLEY":" ","HOUSE_NO":"６號","E_COORD97":194813.67999999999,"N_COORD97":2558060.25,"ADDRESS":"太子街４４巷６號","OBJECTID":361498},"geometry":{"x":194813.6799999997,"y":2558060.2500000019}},{"attributes":{"ID":361509,"DIS_CODE":0,"TOWNNAME":"玉井區","LI":"玉井里","LIN":"19鄰","STREET":"太子街","SECT":" ","MAREA":" ","LANE":"４４巷","ALLEY":" ","HOUSE_NO":"７號","E_COORD97":194803.17999999999,"N_COORD97":2558069.25,"ADDRESS":"太子街４４巷７號","OBJECTID":361499},"geometry":{"x":194803.18000000063,"y":2558069.2500000019}},{"attributes":{"ID":361510,"DIS_CODE":0,"TOWNNAME":"玉井區","LI":"玉井里","LIN":"19鄰","STREET":"太子街","SECT":" ","MAREA":" ","LANE":"４４巷","ALLEY":" ","HOUSE_NO":"３號","E_COORD97":194793.38,"N_COORD97":2558072.25,"ADDRESS":"太子街４４巷３號","OBJECTID":361500},"geometry":{"x":194793.38000000082,"y":2558072.2500000037}},{"attributes":{"ID":361511,"DIS_CODE":0,"TOWNNAME":"歸仁區","LI":"歸仁里","LIN":"19鄰","STREET":"大仁二街","SECT":" ","MAREA":" ","LANE":"１２巷","ALLEY":" ","HOUSE_NO":"２號","E_COORD97":178175.94,"N_COORD97":2541058.1099999999,"ADDRESS":"大仁二街１２巷２號","OBJECTID":361501},"geometry":{"x":178175.94000000041,"y":2541058.1099999994}},{"attributes":{"ID":361512,"DIS_CODE":0,"TOWNNAME":"玉井區","LI":"玉井里","LIN":"19鄰","STREET":"太子街","SECT":" ","MAREA":" ","LANE":"４４巷","ALLEY":" ","HOUSE_NO":"２號","E_COORD97":194796.09,"N_COORD97":2558062.25,"ADDRESS":"太子街４４巷２號","OBJECTID":361502},"geometry":{"x":194796.08999999985,"y":2558062.2500000037}},{"attributes":{"ID":361513,"DIS_CODE":0,"TOWNNAME":"東區","LI":"泉南里","LIN":"24鄰","STREET":"林森路","SECT":"一段","MAREA":" ","LANE":"１５３巷","ALLEY":" ","HOUSE_NO":"３６號","E_COORD97":169549.85999999999,"N_COORD97":2542607.0499999998,"ADDRESS":"林森路一段１５３巷３６號","OBJECTID":361503},"geometry":{"x":169549.86000000034,"y":2542607.0500000007}},{"attributes":{"ID":361514,"DIS_CODE":0,"TOWNNAME":"東區","LI":"泉南里","LIN":"24鄰","STREET":"林森路","SECT":"一段","MAREA":" ","LANE":"１５３巷","ALLEY":" ","HOUSE_NO":"３８號","E_COORD97":169549.20999999999,"N_COORD97":2542615.5699999998,"ADDRESS":"林森路一段１５３巷３８號","OBJECTID":361504},"geometry":{"x":169549.20999999903,"y":2542615.5700000003}},{"attributes":{"ID":361515,"DIS_CODE":0,"TOWNNAME":"歸仁區","LI":"媽廟里","LIN":"19鄰","STREET":"媽廟二街","SECT":" ","MAREA":" ","LANE":"４５巷","ALLEY":" ","HOUSE_NO":"４５號","E_COORD97":177774.07999999999,"N_COORD97":2543858.7200000002,"ADDRESS":"媽廟二街４５巷４５號","OBJECTID":361505},"geometry":{"x":177774.08000000101,"y":2543858.7200000025}},{"attributes":{"ID":361516,"DIS_CODE":0,"TOWNNAME":"歸仁區","LI":"歸仁里","LIN":"19鄰","STREET":"大仁二街","SECT":" ","MAREA":" ","LANE":"１２巷","ALLEY":" ","HOUSE_NO":"１號","E_COORD97":178168.73999999999,"N_COORD97":2541068.1099999999,"ADDRESS":"大仁二街１２巷１號","OBJECTID":361506},"geometry":{"x":178168.74000000022,"y":2541068.1100000013}},{"attributes":{"ID":361517,"DIS_CODE":0,"TOWNNAME":"歸仁區","LI":"新厝里","LIN":"19鄰","STREET":"大成六街","SECT":" ","MAREA":" ","LANE":"１６巷","ALLEY":" ","HOUSE_NO":"５號","E_COORD97":177605.44,"N_COORD97":2540336.1800000002,"ADDRESS":"大成六街１６巷５號","OBJECTID":361507},"geometry":{"x":177605.44000000227,"y":2540336.1799999997}},{"attributes":{"ID":361518,"DIS_CODE":0,"TOWNNAME":"歸仁區","LI":"新厝里","LIN":"19鄰","STREET":"大成六街","SECT":" ","MAREA":" ","LANE":"１６巷","ALLEY":" ","HOUSE_NO":"６號","E_COORD97":177616.64000000001,"N_COORD97":2540337.1800000002,"ADDRESS":"大成六街１６巷６號","OBJECTID":361508},"geometry":{"x":177616.63999999966,"y":2540337.1799999978}},{"attributes":{"ID":361519,"DIS_CODE":0,"TOWNNAME":"北區","LI":"中樓里","LIN":"19鄰","STREET":"勝利路","SECT":" ","MAREA":" ","LANE":"４０１巷","ALLEY":" ","HOUSE_NO":"１０號","E_COORD97":169880.51037599999,"N_COORD97":2544957.6952900002,"ADDRESS":"勝利路４０１巷１０號","OBJECTID":361509},"geometry":{"x":169880.51037600078,"y":2544957.6952890027}},{"attributes":{"ID":361520,"DIS_CODE":0,"TOWNNAME":"北區","LI":"華興里","LIN":"19鄰","STREET":"開南街","SECT":" ","MAREA":" ","LANE":"１４３巷","ALLEY":" ","HOUSE_NO":"３號","E_COORD97":170638.76999999999,"N_COORD97":2545140.6200000001,"ADDRESS":"開南街１４３巷３號","OBJECTID":361510},"geometry":{"x":170638.77000000048,"y":2545140.6200000029}},{"attributes":{"ID":361521,"DIS_CODE":0,"TOWNNAME":"北區","LI":"中樓里","LIN":"19鄰","STREET":"勝利路","SECT":" ","MAREA":" ","LANE":"４０１巷","ALLEY":" ","HOUSE_NO":"１１號","E_COORD97":169884.11086399999,"N_COORD97":2544951.1336300001,"ADDRESS":"勝利路４０１巷１１號","OBJECTID":361511},"geometry":{"x":169884.11086400133,"y":2544951.1336259991}},{"attributes":{"ID":361522,"DIS_CODE":0,"TOWNNAME":"北區","LI":"中樓里","LIN":"19鄰","STREET":"勝利路","SECT":" ","MAREA":" ","LANE":"４０１巷","ALLEY":" ","HOUSE_NO":"１２號","E_COORD97":169892.79439200001,"N_COORD97":2544954.94362,"ADDRESS":"勝利路４０１巷１２號","OBJECTID":361512},"geometry":{"x":169892.79439200088,"y":2544954.9436229989}},{"attributes":{"ID":361523,"DIS_CODE":0,"TOWNNAME":"北區","LI":"中樓里","LIN":"19鄰","STREET":"勝利路","SECT":" ","MAREA":" ","LANE":"４０１巷","ALLEY":" ","HOUSE_NO":"１３號","E_COORD97":169901.901507,"N_COORD97":2544961.7169499998,"ADDRESS":"勝利路４０１巷１３號","OBJECTID":361513},"geometry":{"x":169901.90150700137,"y":2544961.7169530001}},{"attributes":{"ID":361524,"DIS_CODE":0,"TOWNNAME":"北區","LI":"中樓里","LIN":"19鄰","STREET":"勝利路","SECT":" ","MAREA":" ","LANE":"４０１巷","ALLEY":" ","HOUSE_NO":"１號","E_COORD97":169895.10000000001,"N_COORD97":2544977.73,"ADDRESS":"勝利路４０１巷１號","OBJECTID":361514},"geometry":{"x":169895.09999999963,"y":2544977.7300000004}},{"attributes":{"ID":361525,"DIS_CODE":0,"TOWNNAME":"北區","LI":"中樓里","LIN":"19鄰","STREET":"勝利路","SECT":" ","MAREA":" ","LANE":"４０１巷","ALLEY":" ","HOUSE_NO":"３號","E_COORD97":169892.98999999999,"N_COORD97":2544988.6800000002,"ADDRESS":"勝利路４０１巷３號","OBJECTID":361515},"geometry":{"x":169892.99000000022,"y":2544988.6799999997}},{"attributes":{"ID":361526,"DIS_CODE":0,"TOWNNAME":"北區","LI":"中樓里","LIN":"19鄰","STREET":"勝利路","SECT":" ","MAREA":" ","LANE":"４０１巷","ALLEY":" ","HOUSE_NO":"４號","E_COORD97":169887.82999999999,"N_COORD97":2544987.73,"ADDRESS":"勝利路４０１巷４號","OBJECTID":361516},"geometry":{"x":169887.83000000101,"y":2544987.7300000004}},{"attributes":{"ID":361527,"DIS_CODE":0,"TOWNNAME":"北區","LI":"中樓里","LIN":"19鄰","STREET":"勝利路","SECT":" ","MAREA":" ","LANE":"４０１巷","ALLEY":" ","HOUSE_NO":"５號","E_COORD97":169882.98000000001,"N_COORD97":2544986.5800000001,"ADDRESS":"勝利路４０１巷５號","OBJECTID":361517},"geometry":{"x":169882.98000000045,"y":2544986.5800000038}},{"attributes":{"ID":361528,"DIS_CODE":0,"TOWNNAME":"北區","LI":"中樓里","LIN":"19鄰","STREET":"勝利路","SECT":" ","MAREA":" ","LANE":"４０１巷","ALLEY":" ","HOUSE_NO":"６號","E_COORD97":169883.19,"N_COORD97":2544974.46,"ADDRESS":"勝利路４０１巷６號","OBJECTID":361518},"geometry":{"x":169883.19000000041,"y":2544974.4600000009}},{"attributes":{"ID":361529,"DIS_CODE":0,"TOWNNAME":"新營區","LI":"忠政里","LIN":"32鄰","STREET":"府西路","SECT":" ","MAREA":" ","LANE":" ","ALLEY":" ","HOUSE_NO":"５１號","E_COORD97":179807.75,"N_COORD97":2579045.3999999999,"ADDRESS":"府西路５１號","OBJECTID":361519},"geometry":{"x":179807.75,"y":2579045.4000000022}},{"attributes":{"ID":361530,"DIS_CODE":0,"TOWNNAME":"北區","LI":"中樓里","LIN":"19鄰","STREET":"勝利路","SECT":" ","MAREA":" ","LANE":"４０１巷","ALLEY":" ","HOUSE_NO":"７號","E_COORD97":169879.92000000001,"N_COORD97":2544973.6200000001,"ADDRESS":"勝利路４０１巷７號","OBJECTID":361520},"geometry":{"x":169879.91999999993,"y":2544973.6199999992}},{"attributes":{"ID":361531,"DIS_CODE":0,"TOWNNAME":"北區","LI":"中樓里","LIN":"19鄰","STREET":"勝利路","SECT":" ","MAREA":" ","LANE":"４０１巷","ALLEY":" ","HOUSE_NO":"８號","E_COORD97":169880.76000000001,"N_COORD97":2544965.9300000002,"ADDRESS":"勝利路４０１巷８號","OBJECTID":361521},"geometry":{"x":169880.75999999978,"y":2544965.9299999997}},{"attributes":{"ID":361532,"DIS_CODE":0,"TOWNNAME":"北區","LI":"中樓里","LIN":"19鄰","STREET":"勝利路","SECT":" ","MAREA":" ","LANE":"４０１巷","ALLEY":" ","HOUSE_NO":"９號","E_COORD97":169881.29000000001,"N_COORD97":2544960.2400000002,"ADDRESS":"勝利路４０１巷９號","OBJECTID":361522},"geometry":{"x":169881.29000000097,"y":2544960.2400000021}},{"attributes":{"ID":361533,"DIS_CODE":0,"TOWNNAME":"六甲區","LI":"二甲里","LIN":"19鄰","STREET":"光復街","SECT":" ","MAREA":" ","LANE":"４２巷","ALLEY":" ","HOUSE_NO":"１２號","E_COORD97":183241.44,"N_COORD97":2569886.8199999998,"ADDRESS":"光復街４２巷１２號","OBJECTID":361523},"geometry":{"x":183241.44000000041,"y":2569886.8200000003}},{"attributes":{"ID":361534,"DIS_CODE":0,"TOWNNAME":"六甲區","LI":"二甲里","LIN":"19鄰","STREET":"光復街","SECT":" ","MAREA":" ","LANE":"４２巷","ALLEY":" ","HOUSE_NO":"１６號","E_COORD97":183267.07000000001,"N_COORD97":2569889.1400000001,"ADDRESS":"光復街４２巷１６號","OBJECTID":361524},"geometry":{"x":183267.07000000123,"y":2569889.1400000043}},{"attributes":{"ID":361535,"DIS_CODE":0,"TOWNNAME":"六甲區","LI":"二甲里","LIN":"19鄰","STREET":"光復街","SECT":" ","MAREA":" ","LANE":"４２巷","ALLEY":" ","HOUSE_NO":"１８號","E_COORD97":183259.70000000001,"N_COORD97":2569890.48,"ADDRESS":"光復街４２巷１８號","OBJECTID":361525},"geometry":{"x":183259.70000000019,"y":2569890.4800000023}},{"attributes":{"ID":361536,"DIS_CODE":0,"TOWNNAME":"六甲區","LI":"二甲里","LIN":"19鄰","STREET":"光復街","SECT":" ","MAREA":" ","LANE":"４２巷","ALLEY":" ","HOUSE_NO":"２０號","E_COORD97":183259.23999999999,"N_COORD97":2569908.52,"ADDRESS":"光復街４２巷２０號","OBJECTID":361526},"geometry":{"x":183259.24000000115,"y":2569908.5199999996}},{"attributes":{"ID":361537,"DIS_CODE":0,"TOWNNAME":"六甲區","LI":"二甲里","LIN":"19鄰","STREET":"光復街","SECT":" ","MAREA":" ","LANE":"４２巷","ALLEY":" ","HOUSE_NO":"２２號","E_COORD97":183258.10999999999,"N_COORD97":2569918.6299999999,"ADDRESS":"光復街４２巷２２號","OBJECTID":361527},"geometry":{"x":183258.11000000127,"y":2569918.6300000008}},{"attributes":{"ID":361538,"DIS_CODE":0,"TOWNNAME":"六甲區","LI":"二甲里","LIN":"19鄰","STREET":"光復街","SECT":" ","MAREA":" ","LANE":"４２巷","ALLEY":" ","HOUSE_NO":"３０號","E_COORD97":183263.09,"N_COORD97":2569937.1899999999,"ADDRESS":"光復街４２巷３０號","OBJECTID":361528},"geometry":{"x":183263.09000000078,"y":2569937.1899999995}},{"attributes":{"ID":361539,"DIS_CODE":0,"TOWNNAME":"六甲區","LI":"二甲里","LIN":"19鄰","STREET":"光復街","SECT":" ","MAREA":" ","LANE":"４２巷","ALLEY":" ","HOUSE_NO":"３８號","E_COORD97":183276.82000000001,"N_COORD97":2569949.4900000002,"ADDRESS":"光復街４２巷３８號","OBJECTID":361529},"geometry":{"x":183276.82000000123,"y":2569949.4900000002}},{"attributes":{"ID":361540,"DIS_CODE":0,"TOWNNAME":"六甲區","LI":"二甲里","LIN":"19鄰","STREET":"光復街","SECT":" ","MAREA":" ","LANE":"４２巷","ALLEY":" ","HOUSE_NO":"４２號","E_COORD97":183284.48999999999,"N_COORD97":2569960.8300000001,"ADDRESS":"光復街４２巷４２號","OBJECTID":361530},"geometry":{"x":183284.49000000115,"y":2569960.8300000001}},{"attributes":{"ID":361541,"DIS_CODE":0,"TOWNNAME":"六甲區","LI":"甲東里","LIN":"19鄰","STREET":"忠孝街","SECT":" ","MAREA":" ","LANE":"１４６巷","ALLEY":" ","HOUSE_NO":"８號","E_COORD97":184091.54000000001,"N_COORD97":2569818.6499999999,"ADDRESS":"忠孝街１４６巷８號","OBJECTID":361531},"geometry":{"x":184091.54000000004,"y":2569818.6500000022}},{"attributes":{"ID":361542,"DIS_CODE":0,"TOWNNAME":"東區","LI":"崇善里","LIN":"18鄰","STREET":"崇善十一街","SECT":" ","MAREA":" ","LANE":"５４巷","ALLEY":" ","HOUSE_NO":"３１號","E_COORD97":171326.28,"N_COORD97":2541210.4199999999,"ADDRESS":"崇善十一街５４巷３１號","OBJECTID":361532},"geometry":{"x":171326.28000000119,"y":2541210.4199999999}},{"attributes":{"ID":361543,"DIS_CODE":0,"TOWNNAME":"東區","LI":"崇善里","LIN":"18鄰","STREET":"崇善十一街","SECT":" ","MAREA":" ","LANE":"５４巷","ALLEY":" ","HOUSE_NO":"３１號之１","E_COORD97":171330.89000000001,"N_COORD97":2541212.6200000001,"ADDRESS":"崇善十一街５４巷３１號之１","OBJECTID":361533},"geometry":{"x":171330.88999999966,"y":2541212.620000001}},{"attributes":{"ID":361544,"DIS_CODE":0,"TOWNNAME":"東區","LI":"崇善里","LIN":"18鄰","STREET":"崇善十一街","SECT":" ","MAREA":" ","LANE":"５４巷","ALLEY":" ","HOUSE_NO":"３１號之２","E_COORD97":171333.82000000001,"N_COORD97":2541214.2000000002,"ADDRESS":"崇善十一街５４巷３１號之２","OBJECTID":361534},"geometry":{"x":171333.8200000003,"y":2541214.1999999993}},{"attributes":{"ID":361545,"DIS_CODE":0,"TOWNNAME":"東區","LI":"崇善里","LIN":"18鄰","STREET":"崇善十一街","SECT":" ","MAREA":" ","LANE":"５４巷","ALLEY":" ","HOUSE_NO":"３１號之３","E_COORD97":171337.48999999999,"N_COORD97":2541216.5,"ADDRESS":"崇善十一街５４巷３１號之３","OBJECTID":361535},"geometry":{"x":171337.49000000022,"y":2541216.5}},{"attributes":{"ID":361546,"DIS_CODE":0,"TOWNNAME":"東區","LI":"崇善里","LIN":"18鄰","STREET":"崇善十一街","SECT":" ","MAREA":" ","LANE":"５４巷","ALLEY":" ","HOUSE_NO":"３１號之５","E_COORD97":171341.16,"N_COORD97":2541218.4900000002,"ADDRESS":"崇善十一街５４巷３１號之５","OBJECTID":361536},"geometry":{"x":171341.16000000015,"y":2541218.4900000021}},{"attributes":{"ID":361547,"DIS_CODE":0,"TOWNNAME":"東區","LI":"崇善里","LIN":"18鄰","STREET":"崇善十一街","SECT":" ","MAREA":" ","LANE":"５４巷","ALLEY":" ","HOUSE_NO":"３１號之６","E_COORD97":171345.56,"N_COORD97":2541220.7999999998,"ADDRESS":"崇善十一街５４巷３１號之６","OBJECTID":361537},"geometry":{"x":171345.56000000052,"y":2541220.8000000026}},{"attributes":{"ID":361548,"DIS_CODE":0,"TOWNNAME":"東區","LI":"崇善里","LIN":"18鄰","STREET":"崇善十一街","SECT":" ","MAREA":" ","LANE":"５４巷","ALLEY":" ","HOUSE_NO":"３３號","E_COORD97":171330.16,"N_COORD97":2541200.0499999998,"ADDRESS":"崇善十一街５４巷３３號","OBJECTID":361538},"geometry":{"x":171330.16000000108,"y":2541200.0500000007}},{"attributes":{"ID":361549,"DIS_CODE":0,"TOWNNAME":"東區","LI":"崇善里","LIN":"18鄰","STREET":"崇善十一街","SECT":" ","MAREA":" ","LANE":"５４巷","ALLEY":" ","HOUSE_NO":"３３號之１","E_COORD97":171334.56,"N_COORD97":2541201.9399999999,"ADDRESS":"崇善十一街５４巷３３號之１","OBJECTID":361539},"geometry":{"x":171334.55999999959,"y":2541201.9399999995}},{"attributes":{"ID":361550,"DIS_CODE":0,"TOWNNAME":"東區","LI":"崇善里","LIN":"18鄰","STREET":"崇善十一街","SECT":" ","MAREA":" ","LANE":"５４巷","ALLEY":" ","HOUSE_NO":"３３號之２","E_COORD97":171337.17999999999,"N_COORD97":2541203.9300000002,"ADDRESS":"崇善十一街５４巷３３號之２","OBJECTID":361540},"geometry":{"x":171337.1799999997,"y":2541203.9300000016}},{"attributes":{"ID":361551,"DIS_CODE":0,"TOWNNAME":"東區","LI":"崇善里","LIN":"18鄰","STREET":"崇善十一街","SECT":" ","MAREA":" ","LANE":"５４巷","ALLEY":" ","HOUSE_NO":"３３號之３","E_COORD97":171341.26000000001,"N_COORD97":2541205.71,"ADDRESS":"崇善十一街５４巷３３號之３","OBJECTID":361541},"geometry":{"x":171341.26000000071,"y":2541205.7100000009}},{"attributes":{"ID":361552,"DIS_CODE":0,"TOWNNAME":"東區","LI":"崇善里","LIN":"18鄰","STREET":"崇善十一街","SECT":" ","MAREA":" ","LANE":"５４巷","ALLEY":" ","HOUSE_NO":"３３號之５","E_COORD97":171345.14000000001,"N_COORD97":2541207.7999999998,"ADDRESS":"崇善十一街５４巷３３號之５","OBJECTID":361542},"geometry":{"x":171345.1400000006,"y":2541207.8000000007}},{"attributes":{"ID":361553,"DIS_CODE":0,"TOWNNAME":"東區","LI":"崇善里","LIN":"18鄰","STREET":"崇善十一街","SECT":" ","MAREA":" ","LANE":"５４巷","ALLEY":" ","HOUSE_NO":"３３號之６","E_COORD97":171349.54000000001,"N_COORD97":2541210.1099999999,"ADDRESS":"崇善十一街５４巷３３號之６","OBJECTID":361543},"geometry":{"x":171349.54000000097,"y":2541210.1100000013}},{"attributes":{"ID":361554,"DIS_CODE":0,"TOWNNAME":"新營區","LI":"民生里","LIN":"19鄰","STREET":"進修街","SECT":" ","MAREA":" ","LANE":"２９巷","ALLEY":" ","HOUSE_NO":"４７號","E_COORD97":178875.28,"N_COORD97":2578465.1099999999,"ADDRESS":"進修街２９巷４７號","OBJECTID":361544},"geometry":{"x":178875.28000000026,"y":2578465.1099999994}},{"attributes":{"ID":361555,"DIS_CODE":0,"TOWNNAME":"新營區","LI":"新北里","LIN":"19鄰","STREET":"民生路","SECT":" ","MAREA":" ","LANE":"２０８巷","ALLEY":" ","HOUSE_NO":"３３號","E_COORD97":179138.01000000001,"N_COORD97":2579072.96,"ADDRESS":"民生路２０８巷３３號","OBJECTID":361545},"geometry":{"x":179138.00999999978,"y":2579072.9600000028}},{"attributes":{"ID":361556,"DIS_CODE":0,"TOWNNAME":"新營區","LI":"民生里","LIN":"19鄰","STREET":"進修街","SECT":" ","MAREA":" ","LANE":"２９巷","ALLEY":" ","HOUSE_NO":"９號","E_COORD97":178960.79999999999,"N_COORD97":2578451.4100000001,"ADDRESS":"進修街２９巷９號","OBJECTID":361546},"geometry":{"x":178960.80000000075,"y":2578451.410000002}},{"attributes":{"ID":361557,"DIS_CODE":0,"TOWNNAME":"新營區","LI":"民生里","LIN":"19鄰","STREET":"進修街","SECT":" ","MAREA":" ","LANE":"２９巷","ALLEY":" ","HOUSE_NO":"５３號","E_COORD97":178857.91,"N_COORD97":2578480.7000000002,"ADDRESS":"進修街２９巷５３號","OBJECTID":361547},"geometry":{"x":178857.91000000015,"y":2578480.6999999993}},{"attributes":{"ID":361558,"DIS_CODE":0,"TOWNNAME":"新營區","LI":"新北里","LIN":"19鄰","STREET":"民生路","SECT":" ","MAREA":" ","LANE":"２０８巷","ALLEY":" ","HOUSE_NO":"６號","E_COORD97":179108.85999999999,"N_COORD97":2579029.8900000001,"ADDRESS":"民生路２０８巷６號","OBJECTID":361548},"geometry":{"x":179108.86000000034,"y":2579029.8900000006}},{"attributes":{"ID":361559,"DIS_CODE":0,"TOWNNAME":"新營區","LI":"新東里","LIN":"19鄰","STREET":"東學路","SECT":" ","MAREA":" ","LANE":"８０巷","ALLEY":" ","HOUSE_NO":"３７號","E_COORD97":180906.60000000001,"N_COORD97":2579320.4100000001,"ADDRESS":"東學路８０巷３７號","OBJECTID":361549},"geometry":{"x":180906.60000000056,"y":2579320.410000002}},{"attributes":{"ID":361560,"DIS_CODE":0,"TOWNNAME":"歸仁區","LI":"大廟里","LIN":"19鄰","STREET":"大廟一街","SECT":" ","MAREA":" ","LANE":"２８巷","ALLEY":" ","HOUSE_NO":"２６號","E_COORD97":175780.62,"N_COORD97":2544170.25,"ADDRESS":"大廟一街２８巷２６號","OBJECTID":361550},"geometry":{"x":175780.62000000104,"y":2544170.25}},{"attributes":{"ID":361561,"DIS_CODE":0,"TOWNNAME":"歸仁區","LI":"大廟里","LIN":"19鄰","STREET":"大廟一街","SECT":" ","MAREA":" ","LANE":"２８巷","ALLEY":" ","HOUSE_NO":"６號","E_COORD97":175802.76999999999,"N_COORD97":2544128.25,"ADDRESS":"大廟一街２８巷６號","OBJECTID":361551},"geometry":{"x":175802.77000000048,"y":2544128.2500000019}},{"attributes":{"ID":361562,"DIS_CODE":0,"TOWNNAME":"歸仁區","LI":"大廟里","LIN":"19鄰","STREET":"大廟一街","SECT":" ","MAREA":" ","LANE":"２８巷","ALLEY":" ","HOUSE_NO":"１３號","E_COORD97":175781.84,"N_COORD97":2544111.1200000001,"ADDRESS":"大廟一街２８巷１３號","OBJECTID":361552},"geometry":{"x":175781.84000000078,"y":2544111.120000001}},{"attributes":{"ID":361563,"DIS_CODE":0,"TOWNNAME":"歸仁區","LI":"大廟里","LIN":"19鄰","STREET":"大廟一街","SECT":" ","MAREA":" ","LANE":"２８巷","ALLEY":" ","HOUSE_NO":"３０號","E_COORD97":175767.51999999999,"N_COORD97":2544204.25,"ADDRESS":"大廟一街２８巷３０號","OBJECTID":361553},"geometry":{"x":175767.51999999955,"y":2544204.25}},{"attributes":{"ID":361564,"DIS_CODE":0,"TOWNNAME":"歸仁區","LI":"大廟里","LIN":"19鄰","STREET":"大廟一街","SECT":" ","MAREA":" ","LANE":"３８巷","ALLEY":" ","HOUSE_NO":"１２之２號","E_COORD97":175801.12,"N_COORD97":2544072.2999999998,"ADDRESS":"大廟一街３８巷１２之２號","OBJECTID":361554},"geometry":{"x":175801.12000000104,"y":2544072.3000000007}},{"attributes":{"ID":361565,"DIS_CODE":0,"TOWNNAME":"歸仁區","LI":"大廟里","LIN":"19鄰","STREET":"大廟一街","SECT":" ","MAREA":" ","LANE":"２８巷","ALLEY":" ","HOUSE_NO":"２６之１號","E_COORD97":175799.62,"N_COORD97":2544176.2999999998,"ADDRESS":"大廟一街２８巷２６之１號","OBJECTID":361555},"geometry":{"x":175799.62000000011,"y":2544176.3000000026}},{"attributes":{"ID":361566,"DIS_CODE":0,"TOWNNAME":"歸仁區","LI":"大潭里","LIN":"19鄰","STREET":"中正南路","SECT":"三段","MAREA":" ","LANE":"９６巷","ALLEY":" ","HOUSE_NO":"１０號","E_COORD97":175235.20999999999,"N_COORD97":2535005.2799999998,"ADDRESS":"中正南路三段９６巷１０號","OBJECTID":361556},"geometry":{"x":175235.21000000089,"y":2535005.2799999993}},{"attributes":{"ID":361567,"DIS_CODE":0,"TOWNNAME":"歸仁區","LI":"大廟里","LIN":"19鄰","STREET":"大廟一街","SECT":" ","MAREA":" ","LANE":"３８巷","ALLEY":" ","HOUSE_NO":"１２號","E_COORD97":175809.92000000001,"N_COORD97":2544068.25,"ADDRESS":"大廟一街３８巷１２號","OBJECTID":361557},"geometry":{"x":175809.92000000179,"y":2544068.2500000019}},{"attributes":{"ID":361568,"DIS_CODE":0,"TOWNNAME":"關廟區","LI":"北花里","LIN":"19鄰","STREET":"花園三街","SECT":" ","MAREA":" ","LANE":"５２巷","ALLEY":" ","HOUSE_NO":"２號","E_COORD97":181942.54000000001,"N_COORD97":2540484.2400000002,"ADDRESS":"花園三街５２巷２號","OBJECTID":361558},"geometry":{"x":181942.5400000019,"y":2540484.2400000021}},{"attributes":{"ID":361569,"DIS_CODE":0,"TOWNNAME":"柳營區","LI":"光福里","LIN":"19鄰","STREET":"柳營路","SECT":"二段","MAREA":" ","LANE":"２５２巷","ALLEY":" ","HOUSE_NO":"１３號","E_COORD97":179660.01000000001,"N_COORD97":2575620.6899999999,"ADDRESS":"柳營路二段２５２巷１３號","OBJECTID":361559},"geometry":{"x":179660.00999999978,"y":2575620.6900000032}},{"attributes":{"ID":361570,"DIS_CODE":0,"TOWNNAME":"安平區","LI":"育平里","LIN":"32鄰","STREET":"府平路","SECT":" ","MAREA":" ","LANE":"２４５巷","ALLEY":" ","HOUSE_NO":"２號","E_COORD97":164650.95000000001,"N_COORD97":2543064.8100000001,"ADDRESS":"府平路２４５巷２號","OBJECTID":361560},"geometry":{"x":164650.95000000112,"y":2543064.8100000024}},{"attributes":{"ID":361571,"DIS_CODE":0,"TOWNNAME":"柳營區","LI":"光福里","LIN":"19鄰","STREET":"柳營路","SECT":"二段","MAREA":" ","LANE":"２５２巷","ALLEY":" ","HOUSE_NO":"１５號","E_COORD97":179664.35000000001,"N_COORD97":2575620.6600000001,"ADDRESS":"柳營路二段２５２巷１５號","OBJECTID":361561},"geometry":{"x":179664.34999999963,"y":2575620.6600000001}},{"attributes":{"ID":361572,"DIS_CODE":0,"TOWNNAME":"柳營區","LI":"光福里","LIN":"19鄰","STREET":"柳營路","SECT":"二段","MAREA":" ","LANE":"２５２巷","ALLEY":" ","HOUSE_NO":"１７號","E_COORD97":179668.67999999999,"N_COORD97":2575620.6299999999,"ADDRESS":"柳營路二段２５２巷１７號","OBJECTID":361562},"geometry":{"x":179668.68000000063,"y":2575620.6300000027}},{"attributes":{"ID":361573,"DIS_CODE":0,"TOWNNAME":"柳營區","LI":"光福里","LIN":"19鄰","STREET":"柳營路","SECT":"二段","MAREA":" ","LANE":"２５２巷","ALLEY":" ","HOUSE_NO":"１９號","E_COORD97":179674.5,"N_COORD97":2575620.77,"ADDRESS":"柳營路二段２５２巷１９號","OBJECTID":361563},"geometry":{"x":179674.50000000186,"y":2575620.7700000014}},{"attributes":{"ID":361574,"DIS_CODE":0,"TOWNNAME":"柳營區","LI":"光福里","LIN":"19鄰","STREET":"柳營路","SECT":"二段","MAREA":" ","LANE":"２５２巷","ALLEY":" ","HOUSE_NO":"１號","E_COORD97":179634.01000000001,"N_COORD97":2575620.8700000001,"ADDRESS":"柳營路二段２５２巷１號","OBJECTID":361564},"geometry":{"x":179634.01000000071,"y":2575620.870000001}},{"attributes":{"ID":361575,"DIS_CODE":0,"TOWNNAME":"柳營區","LI":"光福里","LIN":"19鄰","STREET":"柳營路","SECT":"二段","MAREA":" ","LANE":"２５２巷","ALLEY":" ","HOUSE_NO":"２１號","E_COORD97":179681.26999999999,"N_COORD97":2575620.9900000002,"ADDRESS":"柳營路二段２５２巷２１號","OBJECTID":361565},"geometry":{"x":179681.27000000048,"y":2575620.9900000021}},{"attributes":{"ID":361576,"DIS_CODE":0,"TOWNNAME":"柳營區","LI":"光福里","LIN":"19鄰","STREET":"柳營路","SECT":"二段","MAREA":" ","LANE":"２５２巷","ALLEY":" ","HOUSE_NO":"３號","E_COORD97":179638.70999999999,"N_COORD97":2575620.9399999999,"ADDRESS":"柳營路二段２５２巷３號","OBJECTID":361566},"geometry":{"x":179638.70999999996,"y":2575620.9399999995}},{"attributes":{"ID":361577,"DIS_CODE":0,"TOWNNAME":"柳營區","LI":"光福里","LIN":"19鄰","STREET":"柳營路","SECT":"二段","MAREA":" ","LANE":"２５２巷","ALLEY":" ","HOUSE_NO":"５號","E_COORD97":179643.41,"N_COORD97":2575621.02,"ADDRESS":"柳營路二段２５２巷５號","OBJECTID":361567},"geometry":{"x":179643.41000000108,"y":2575621.0199999996}},{"attributes":{"ID":361578,"DIS_CODE":0,"TOWNNAME":"柳營區","LI":"光福里","LIN":"19鄰","STREET":"柳營路","SECT":"二段","MAREA":" ","LANE":"２５２巷","ALLEY":" ","HOUSE_NO":"７號","E_COORD97":179648.10999999999,"N_COORD97":2575621.0899999999,"ADDRESS":"柳營路二段２５２巷７號","OBJECTID":361568},"geometry":{"x":179648.11000000034,"y":2575621.0899999999}},{"attributes":{"ID":361579,"DIS_CODE":0,"TOWNNAME":"柳營區","LI":"光福里","LIN":"19鄰","STREET":"柳營路","SECT":"二段","MAREA":" ","LANE":"２５２巷","ALLEY":" ","HOUSE_NO":"９號","E_COORD97":179652.82000000001,"N_COORD97":2575621.1600000001,"ADDRESS":"柳營路二段２５２巷９號","OBJECTID":361569},"geometry":{"x":179652.82000000123,"y":2575621.1600000001}},{"attributes":{"ID":361580,"DIS_CODE":0,"TOWNNAME":"東區","LI":"關聖里","LIN":"4鄰","STREET":"裕農路","SECT":" ","MAREA":" ","LANE":"６６８巷","ALLEY":" ","HOUSE_NO":"６９號之１","E_COORD97":171761.97,"N_COORD97":2542915.3700000001,"ADDRESS":"裕農路６６８巷６９號之１","OBJECTID":361570},"geometry":{"x":171761.97000000067,"y":2542915.3700000029}},{"attributes":{"ID":361581,"DIS_CODE":0,"TOWNNAME":"東區","LI":"關聖里","LIN":"7鄰","STREET":"裕農路","SECT":" ","MAREA":" ","LANE":"６６８巷","ALLEY":" ","HOUSE_NO":"４９號","E_COORD97":171776.73000000001,"N_COORD97":2543013.5899999999,"ADDRESS":"裕農路６６８巷４９號","OBJECTID":361571},"geometry":{"x":171776.73000000045,"y":2543013.5900000017}},{"attributes":{"ID":361582,"DIS_CODE":0,"TOWNNAME":"東區","LI":"關聖里","LIN":"7鄰","STREET":"裕農路","SECT":" ","MAREA":" ","LANE":"６６８巷","ALLEY":" ","HOUSE_NO":"４９號之１","E_COORD97":171788.03,"N_COORD97":2543009.79,"ADDRESS":"裕農路６６８巷４９號之１","OBJECTID":361572},"geometry":{"x":171788.03000000026,"y":2543009.7899999991}},{"attributes":{"ID":361583,"DIS_CODE":0,"TOWNNAME":"東區","LI":"關聖里","LIN":"7鄰","STREET":"裕農路","SECT":" ","MAREA":" ","LANE":"６６８巷","ALLEY":" ","HOUSE_NO":"４９號之２","E_COORD97":171787.44,"N_COORD97":2543012.7599999998,"ADDRESS":"裕農路６６８巷４９號之２","OBJECTID":361573},"geometry":{"x":171787.44000000041,"y":2543012.7600000016}},{"attributes":{"ID":361584,"DIS_CODE":0,"TOWNNAME":"東區","LI":"關聖里","LIN":"7鄰","STREET":"裕農路","SECT":" ","MAREA":" ","LANE":"６６８巷","ALLEY":" ","HOUSE_NO":"４９號之３","E_COORD97":171786.84,"N_COORD97":2543015.9700000002,"ADDRESS":"裕農路６６８巷４９號之３","OBJECTID":361574},"geometry":{"x":171786.84000000078,"y":2543015.9700000025}},{"attributes":{"ID":361585,"DIS_CODE":0,"TOWNNAME":"東區","LI":"關聖里","LIN":"7鄰","STREET":"裕農路","SECT":" ","MAREA":" ","LANE":"６６８巷","ALLEY":" ","HOUSE_NO":"４９號之４","E_COORD97":171785.89000000001,"N_COORD97":2543019.5299999998,"ADDRESS":"裕農路６６８巷４９號之４","OBJECTID":361575},"geometry":{"x":171785.8900000006,"y":2543019.5299999975}},{"attributes":{"ID":361586,"DIS_CODE":0,"TOWNNAME":"東區","LI":"關聖里","LIN":"7鄰","STREET":"裕農路","SECT":" ","MAREA":" ","LANE":"６６８巷","ALLEY":" ","HOUSE_NO":"４９號之５","E_COORD97":171781.23999999999,"N_COORD97":2543032.23,"ADDRESS":"裕農路６６８巷４９號之５","OBJECTID":361576},"geometry":{"x":171781.24000000022,"y":2543032.2300000004}},{"attributes":{"ID":361587,"DIS_CODE":0,"TOWNNAME":"東區","LI":"關聖里","LIN":"7鄰","STREET":"裕農路","SECT":" ","MAREA":" ","LANE":"６６８巷","ALLEY":" ","HOUSE_NO":"４９號之６","E_COORD97":171778.20000000001,"N_COORD97":2543030.71,"ADDRESS":"裕農路６６８巷４９號之６","OBJECTID":361577},"geometry":{"x":171778.20000000019,"y":2543030.7100000028}},{"attributes":{"ID":361588,"DIS_CODE":0,"TOWNNAME":"東區","LI":"關聖里","LIN":"7鄰","STREET":"裕農路","SECT":" ","MAREA":" ","LANE":"６６８巷","ALLEY":" ","HOUSE_NO":"４９號之７","E_COORD97":171774.66,"N_COORD97":2543032.1299999999,"ADDRESS":"裕農路６６８巷４９號之７","OBJECTID":361578},"geometry":{"x":171774.66000000108,"y":2543032.1299999971}},{"attributes":{"ID":361589,"DIS_CODE":0,"TOWNNAME":"東區","LI":"關聖里","LIN":"7鄰","STREET":"裕農路","SECT":" ","MAREA":" ","LANE":"６６８巷","ALLEY":" ","HOUSE_NO":"４９號之８","E_COORD97":171771.92000000001,"N_COORD97":2543029.7000000002,"ADDRESS":"裕農路６６８巷４９號之８","OBJECTID":361579},"geometry":{"x":171771.92000000179,"y":2543029.7000000011}},{"attributes":{"ID":361590,"DIS_CODE":0,"TOWNNAME":"東區","LI":"關聖里","LIN":"7鄰","STREET":"裕農路","SECT":" ","MAREA":" ","LANE":"６６８巷","ALLEY":" ","HOUSE_NO":"３７號","E_COORD97":171757.25,"N_COORD97":2543093.5099999998,"ADDRESS":"裕農路６６８巷３７號","OBJECTID":361580},"geometry":{"x":171757.25,"y":2543093.5099999998}},{"attributes":{"ID":361591,"DIS_CODE":0,"TOWNNAME":"關廟區","LI":"松腳里","LIN":"13鄰","STREET":"和平路","SECT":" ","MAREA":" ","LANE":" ","ALLEY":" ","HOUSE_NO":"１６６號","E_COORD97":181692.44,"N_COORD97":2539622.25,"ADDRESS":"和平路１６６號","OBJECTID":361581},"geometry":{"x":181692.44000000041,"y":2539622.2500000019}},{"attributes":{"ID":361592,"DIS_CODE":0,"TOWNNAME":"關廟區","LI":"東勢里","LIN":"13鄰","STREET":"東榮街","SECT":" ","MAREA":" ","LANE":" ","ALLEY":" ","HOUSE_NO":"９８號","E_COORD97":182093.82000000001,"N_COORD97":2539327.25,"ADDRESS":"東榮街９８號","OBJECTID":361582},"geometry":{"x":182093.82000000123,"y":2539327.2500000019}},{"attributes":{"ID":361593,"DIS_CODE":0,"TOWNNAME":"東區","LI":"關聖里","LIN":"7鄰","STREET":"裕農路","SECT":" ","MAREA":" ","LANE":"６６８巷","ALLEY":" ","HOUSE_NO":"３７號之２","E_COORD97":171757.25,"N_COORD97":2543087.9900000002,"ADDRESS":"裕農路６６８巷３７號之２","OBJECTID":361583},"geometry":{"x":171757.25,"y":2543087.9900000002}},{"attributes":{"ID":361594,"DIS_CODE":0,"TOWNNAME":"柳營區","LI":"篤農里","LIN":"19鄰","STREET":"義士路","SECT":"一段","MAREA":" ","LANE":"６３１巷","ALLEY":" ","HOUSE_NO":"３號","E_COORD97":185519.89000000001,"N_COORD97":2575865.1099999999,"ADDRESS":"義士路一段６３１巷３號","OBJECTID":361584},"geometry":{"x":185519.89000000153,"y":2575865.1099999975}},{"attributes":{"ID":361595,"DIS_CODE":0,"TOWNNAME":"柳營區","LI":"篤農里","LIN":"19鄰","STREET":"義士路","SECT":"一段","MAREA":" ","LANE":"６３１巷","ALLEY":" ","HOUSE_NO":"５號","E_COORD97":185519.88,"N_COORD97":2575860.6800000002,"ADDRESS":"義士路一段６３１巷５號","OBJECTID":361585},"geometry":{"x":185519.87999999989,"y":2575860.6799999997}},{"attributes":{"ID":361596,"DIS_CODE":0,"TOWNNAME":"柳營區","LI":"篤農里","LIN":"19鄰","STREET":"義士路","SECT":"一段","MAREA":" ","LANE":"６３１巷","ALLEY":" ","HOUSE_NO":"７號","E_COORD97":185519.39999999999,"N_COORD97":2575855.52,"ADDRESS":"義士路一段６３１巷７號","OBJECTID":361586},"geometry":{"x":185519.4000000013,"y":2575855.5199999996}},{"attributes":{"ID":361597,"DIS_CODE":0,"TOWNNAME":"柳營區","LI":"篤農里","LIN":"19鄰","STREET":"義士路","SECT":"一段","MAREA":" ","LANE":"６４１巷","ALLEY":" ","HOUSE_NO":"５號","E_COORD97":185503.35000000001,"N_COORD97":2575856.3900000001,"ADDRESS":"義士路一段６４１巷５號","OBJECTID":361587},"geometry":{"x":185503.35000000056,"y":2575856.3900000006}},{"attributes":{"ID":361598,"DIS_CODE":0,"TOWNNAME":"柳營區","LI":"篤農里","LIN":"19鄰","STREET":"義士路","SECT":"一段","MAREA":" ","LANE":"６４１巷","ALLEY":" ","HOUSE_NO":"８號","E_COORD97":185485.57000000001,"N_COORD97":2575852.3799999999,"ADDRESS":"義士路一段６４１巷８號","OBJECTID":361588},"geometry":{"x":185485.57000000123,"y":2575852.379999999}},{"attributes":{"ID":361599,"DIS_CODE":0,"TOWNNAME":"柳營區","LI":"篤農里","LIN":"19鄰","STREET":"義士路","SECT":"一段","MAREA":" ","LANE":"６７３巷","ALLEY":" ","HOUSE_NO":"１０號","E_COORD97":185393.32000000001,"N_COORD97":2575900.8199999998,"ADDRESS":"義士路一段６７３巷１０號","OBJECTID":361589},"geometry":{"x":185393.3200000003,"y":2575900.8200000003}},{"attributes":{"ID":361600,"DIS_CODE":0,"TOWNNAME":"柳營區","LI":"篤農里","LIN":"19鄰","STREET":"義士路","SECT":"一段","MAREA":" ","LANE":"６７３巷","ALLEY":" ","HOUSE_NO":"１２號","E_COORD97":185396.51999999999,"N_COORD97":2575891.3700000001,"ADDRESS":"義士路一段６７３巷１２號","OBJECTID":361590},"geometry":{"x":185396.51999999955,"y":2575891.370000001}},{"attributes":{"ID":361601,"DIS_CODE":0,"TOWNNAME":"柳營區","LI":"篤農里","LIN":"19鄰","STREET":"義士路","SECT":"一段","MAREA":" ","LANE":"６７３巷","ALLEY":" ","HOUSE_NO":"２號","E_COORD97":185394.20999999999,"N_COORD97":2575914.2799999998,"ADDRESS":"義士路一段６７３巷２號","OBJECTID":361591},"geometry":{"x":185394.20999999903,"y":2575914.2799999993}},{"attributes":{"ID":361602,"DIS_CODE":0,"TOWNNAME":"柳營區","LI":"篤農里","LIN":"19鄰","STREET":"義士路","SECT":"一段","MAREA":" ","LANE":"６７３巷","ALLEY":" ","HOUSE_NO":"６號","E_COORD97":185393.94,"N_COORD97":2575909.7999999998,"ADDRESS":"義士路一段６７３巷６號","OBJECTID":361592},"geometry":{"x":185393.94000000134,"y":2575909.8000000026}},{"attributes":{"ID":361603,"DIS_CODE":0,"TOWNNAME":"柳營區","LI":"篤農里","LIN":"19鄰","STREET":"義士路","SECT":"一段","MAREA":" ","LANE":"６７３巷","ALLEY":" ","HOUSE_NO":"８號","E_COORD97":185393.67000000001,"N_COORD97":2575905.3300000001,"ADDRESS":"義士路一段６７３巷８號","OBJECTID":361593},"geometry":{"x":185393.66999999993,"y":2575905.3300000038}},{"attributes":{"ID":361604,"DIS_CODE":0,"TOWNNAME":"柳營區","LI":"篤農里","LIN":"19鄰","STREET":"義士路","SECT":"一段","MAREA":" ","LANE":"８０２巷","ALLEY":" ","HOUSE_NO":"２０號","E_COORD97":185411.85000000001,"N_COORD97":2576026.8700000001,"ADDRESS":"義士路一段８０２巷２０號","OBJECTID":361594},"geometry":{"x":185411.85000000056,"y":2576026.870000001}},{"attributes":{"ID":361605,"DIS_CODE":0,"TOWNNAME":"柳營區","LI":"篤農里","LIN":"19鄰","STREET":"義士路","SECT":"一段","MAREA":" ","LANE":"８３２巷","ALLEY":" ","HOUSE_NO":"２號","E_COORD97":185349.53,"N_COORD97":2576016.8199999998,"ADDRESS":"義士路一段８３２巷２號","OBJECTID":361595},"geometry":{"x":185349.53000000026,"y":2576016.8200000003}},{"attributes":{"ID":361606,"DIS_CODE":0,"TOWNNAME":"學甲區","LI":"豐和里","LIN":"11鄰","STREET":" ","SECT":" ","MAREA":"美豐","LANE":" ","ALLEY":" ","HOUSE_NO":"８７號之１","E_COORD97":168015.17999999999,"N_COORD97":2568649.27,"ADDRESS":"美豐８７號之１","OBJECTID":361596},"geometry":{"x":168015.18000000156,"y":2568649.2699999996}},{"attributes":{"ID":361607,"DIS_CODE":0,"TOWNNAME":"北區","LI":"華興里","LIN":"19鄰","STREET":"南園街","SECT":" ","MAREA":" ","LANE":"１５３巷","ALLEY":" ","HOUSE_NO":"１２號","E_COORD97":170650.07999999999,"N_COORD97":2545189.8500000001,"ADDRESS":"南園街１５３巷１２號","OBJECTID":361597},"geometry":{"x":170650.08000000007,"y":2545189.8499999996}},{"attributes":{"ID":361608,"DIS_CODE":0,"TOWNNAME":"北區","LI":"華興里","LIN":"19鄰","STREET":"南園街","SECT":" ","MAREA":" ","LANE":"１５３巷","ALLEY":" ","HOUSE_NO":"１４號","E_COORD97":170653.79000000001,"N_COORD97":2545187.7200000002,"ADDRESS":"南園街１５３巷１４號","OBJECTID":361598},"geometry":{"x":170653.79000000004,"y":2545187.7200000025}},{"attributes":{"ID":361609,"DIS_CODE":0,"TOWNNAME":"東區","LI":"後甲里","LIN":"32鄰","STREET":" ","SECT":" ","MAREA":"精忠三村","LANE":" ","ALLEY":" ","HOUSE_NO":"１５２號","E_COORD97":171859.84,"N_COORD97":2543524.5499999998,"ADDRESS":"精忠三村１５２號","OBJECTID":361599},"geometry":{"x":171859.83999999985,"y":2543524.5500000026}},{"attributes":{"ID":361610,"DIS_CODE":0,"TOWNNAME":"北區","LI":"華興里","LIN":"19鄰","STREET":"南園街","SECT":" ","MAREA":" ","LANE":"１５３巷","ALLEY":" ","HOUSE_NO":"１６號","E_COORD97":170658.07000000001,"N_COORD97":2545188.5800000001,"ADDRESS":"南園街１５３巷１６號","OBJECTID":361600},"geometry":{"x":170658.07000000123,"y":2545188.5800000001}}]}