{"displayFieldName":"TOWNNAME","fieldAliases":{"ID":"ID","DIS_CODE":"DIS_CODE","TOWNNAME":"TOWNNAME","LI":"LI","LIN":"LIN","STREET":"STREET","SECT":"SECT","MAREA":"MAREA","LANE":"LANE","ALLEY":"ALLEY","HOUSE_NO":"HOUSE_NO","E_COORD97":"E_COORD97","N_COORD97":"N_COORD97","ADDRESS":"ADDRESS","OBJECTID":"OBJECTID"},"geometryType":"esriGeometryPoint","spatialReference":{"wkid":102443,"latestWkid":3826},"fields":[{"name":"ID","type":"esriFieldTypeDouble","alias":"ID"},{"name":"DIS_CODE","type":"esriFieldTypeInteger","alias":"DIS_CODE"},{"name":"TOWNNAME","type":"esriFieldTypeString","alias":"TOWNNAME","length":8},{"name":"LI","type":"esriFieldTypeString","alias":"LI","length":8},{"name":"LIN","type":"esriFieldTypeString","alias":"LIN","length":12},{"name":"STREET","type":"esriFieldTypeString","alias":"STREET","length":20},{"name":"SECT","type":"esriFieldTypeString","alias":"SECT","length":8},{"name":"MAREA","type":"esriFieldTypeString","alias":"MAREA","length":12},{"name":"LANE","type":"esriFieldTypeString","alias":"LANE","length":10},{"name":"ALLEY","type":"esriFieldTypeString","alias":"ALLEY","length":10},{"name":"HOUSE_NO","type":"esriFieldTypeString","alias":"HOUSE_NO","length":20},{"name":"E_COORD97","type":"esriFieldTypeDouble","alias":"E_COORD97"},{"name":"N_COORD97","type":"esriFieldTypeDouble","alias":"N_COORD97"},{"name":"ADDRESS","type":"esriFieldTypeString","alias":"ADDRESS","length":50},{"name":"OBJECTID","type":"esriFieldTypeOID","alias":"OBJECTID"}],"features":[{"attributes":{"ID":501628,"DIS_CODE":0,"TOWNNAME":"北區","LI":"長德里","LIN":"8鄰","STREET":"自強街","SECT":" ","MAREA":" ","LANE":" ","ALLEY":" ","HOUSE_NO":"１９８號","E_COORD97":168457.79000000001,"N_COORD97":2544817.7799999998,"ADDRESS":"自強街１９８號","OBJECTID":501601},"geometry":{"x":168457.79000000097,"y":2544817.7799999993}},{"attributes":{"ID":501629,"DIS_CODE":0,"TOWNNAME":"北區","LI":"長德里","LIN":"8鄰","STREET":"自強街","SECT":" ","MAREA":" ","LANE":" ","ALLEY":" ","HOUSE_NO":"２０２號","E_COORD97":168451.32999999999,"N_COORD97":2544832.2799999998,"ADDRESS":"自強街２０２號","OBJECTID":501602},"geometry":{"x":168451.33000000007,"y":2544832.2800000012}},{"attributes":{"ID":501630,"DIS_CODE":0,"TOWNNAME":"北區","LI":"長德里","LIN":"8鄰","STREET":"自強街","SECT":" ","MAREA":" ","LANE":" ","ALLEY":" ","HOUSE_NO":"２１１號","E_COORD97":168447.39999999999,"N_COORD97":2544856.4399999999,"ADDRESS":"自強街２１１號","OBJECTID":501603},"geometry":{"x":168447.4000000013,"y":2544856.4400000013}},{"attributes":{"ID":501631,"DIS_CODE":0,"TOWNNAME":"北區","LI":"長德里","LIN":"8鄰","STREET":"自強街","SECT":" ","MAREA":" ","LANE":" ","ALLEY":" ","HOUSE_NO":"２１３號","E_COORD97":168454.97,"N_COORD97":2544862.5299999998,"ADDRESS":"自強街２１３號","OBJECTID":501604},"geometry":{"x":168454.96999999974,"y":2544862.5299999993}},{"attributes":{"ID":501632,"DIS_CODE":0,"TOWNNAME":"北區","LI":"長德里","LIN":"8鄰","STREET":"自強街","SECT":" ","MAREA":" ","LANE":" ","ALLEY":" ","HOUSE_NO":"２１５號","E_COORD97":168459.62,"N_COORD97":2544865.3700000001,"ADDRESS":"自強街２１５號","OBJECTID":501605},"geometry":{"x":168459.62000000011,"y":2544865.370000001}},{"attributes":{"ID":501633,"DIS_CODE":0,"TOWNNAME":"歸仁區","LI":"後市里","LIN":"8鄰","STREET":"中山五街","SECT":" ","MAREA":" ","LANE":" ","ALLEY":" ","HOUSE_NO":"２５號","E_COORD97":177102.89000000001,"N_COORD97":2540740.25,"ADDRESS":"中山五街２５號","OBJECTID":501606},"geometry":{"x":177102.88999999966,"y":2540740.25}},{"attributes":{"ID":501634,"DIS_CODE":0,"TOWNNAME":"北區","LI":"振興里","LIN":"8鄰","STREET":"長榮路","SECT":"四段","MAREA":" ","LANE":" ","ALLEY":" ","HOUSE_NO":"１５１號","E_COORD97":170191.13,"N_COORD97":2545156.3199999998,"ADDRESS":"長榮路四段１５１號","OBJECTID":501607},"geometry":{"x":170191.13000000082,"y":2545156.3200000022}},{"attributes":{"ID":501635,"DIS_CODE":0,"TOWNNAME":"安平區","LI":"文平里","LIN":"8鄰","STREET":"建平六街","SECT":" ","MAREA":" ","LANE":" ","ALLEY":" ","HOUSE_NO":"１１４號","E_COORD97":166198.32000000001,"N_COORD97":2543142.2000000002,"ADDRESS":"建平六街１１４號","OBJECTID":501608},"geometry":{"x":166198.32000000123,"y":2543142.2000000011}},{"attributes":{"ID":501636,"DIS_CODE":0,"TOWNNAME":"安平區","LI":"建平里","LIN":"8鄰","STREET":"中華西路","SECT":"二段","MAREA":" ","LANE":" ","ALLEY":" ","HOUSE_NO":"３１５號","E_COORD97":166577.42999999999,"N_COORD97":2543614.4199999999,"ADDRESS":"中華西路二段３１５號","OBJECTID":501609},"geometry":{"x":166577.4299999997,"y":2543614.4200000037}},{"attributes":{"ID":501637,"DIS_CODE":0,"TOWNNAME":"安平區","LI":"建平里","LIN":"8鄰","STREET":"中華西路","SECT":"二段","MAREA":" ","LANE":" ","ALLEY":" ","HOUSE_NO":"３１７號","E_COORD97":166613.22,"N_COORD97":2543730.5299999998,"ADDRESS":"中華西路二段３１７號","OBJECTID":501610},"geometry":{"x":166613.22000000067,"y":2543730.5299999993}},{"attributes":{"ID":501638,"DIS_CODE":0,"TOWNNAME":"安平區","LI":"建平里","LIN":"8鄰","STREET":"中華西路","SECT":"二段","MAREA":" ","LANE":" ","ALLEY":" ","HOUSE_NO":"３１９號","E_COORD97":166613.22,"N_COORD97":2543736.27,"ADDRESS":"中華西路二段３１９號","OBJECTID":501611},"geometry":{"x":166613.22000000067,"y":2543736.2699999996}},{"attributes":{"ID":501639,"DIS_CODE":0,"TOWNNAME":"安平區","LI":"建平里","LIN":"8鄰","STREET":"中華西路","SECT":"二段","MAREA":" ","LANE":" ","ALLEY":" ","HOUSE_NO":"３２１號","E_COORD97":166611.98000000001,"N_COORD97":2543744.8900000001,"ADDRESS":"中華西路二段３２１號","OBJECTID":501612},"geometry":{"x":166611.98000000231,"y":2543744.8900000025}},{"attributes":{"ID":501640,"DIS_CODE":0,"TOWNNAME":"安平區","LI":"建平里","LIN":"8鄰","STREET":"中華西路","SECT":"二段","MAREA":" ","LANE":" ","ALLEY":" ","HOUSE_NO":"４７７號","E_COORD97":166559.13,"N_COORD97":2544011.54,"ADDRESS":"中華西路二段４７７號","OBJECTID":501613},"geometry":{"x":166559.12999999989,"y":2544011.5399999991}},{"attributes":{"ID":501641,"DIS_CODE":0,"TOWNNAME":"安平區","LI":"億載里","LIN":"8鄰","STREET":"光州六街","SECT":" ","MAREA":" ","LANE":" ","ALLEY":" ","HOUSE_NO":"９０號","E_COORD97":164171.51000000001,"N_COORD97":2543550.2999999998,"ADDRESS":"光州六街９０號","OBJECTID":501614},"geometry":{"x":164171.50999999978,"y":2543550.3000000007}},{"attributes":{"ID":501642,"DIS_CODE":0,"TOWNNAME":"新營區","LI":"新東里","LIN":"8鄰","STREET":"東學路","SECT":" ","MAREA":" ","LANE":" ","ALLEY":" ","HOUSE_NO":"１２５號","E_COORD97":181253.82000000001,"N_COORD97":2579397.4399999999,"ADDRESS":"東學路１２５號","OBJECTID":501615},"geometry":{"x":181253.8200000003,"y":2579397.4400000013}},{"attributes":{"ID":501643,"DIS_CODE":0,"TOWNNAME":"新營區","LI":"中營里","LIN":"8鄰","STREET":"新進路","SECT":" ","MAREA":" ","LANE":" ","ALLEY":" ","HOUSE_NO":"４０號","E_COORD97":180591.78,"N_COORD97":2578275.3500000001,"ADDRESS":"新進路４０號","OBJECTID":501616},"geometry":{"x":180591.78000000212,"y":2578275.3500000015}},{"attributes":{"ID":501644,"DIS_CODE":0,"TOWNNAME":"北區","LI":"國姓里","LIN":"8鄰","STREET":"小北路","SECT":" ","MAREA":" ","LANE":" ","ALLEY":" ","HOUSE_NO":"５１號","E_COORD97":168832.01999999999,"N_COORD97":2545282.7200000002,"ADDRESS":"小北路５１號","OBJECTID":501617},"geometry":{"x":168832.02000000048,"y":2545282.7200000025}},{"attributes":{"ID":501645,"DIS_CODE":0,"TOWNNAME":"北區","LI":"國姓里","LIN":"8鄰","STREET":"小北路","SECT":" ","MAREA":" ","LANE":" ","ALLEY":" ","HOUSE_NO":"５３號之１","E_COORD97":168835.31,"N_COORD97":2545288.52,"ADDRESS":"小北路５３號之１","OBJECTID":501618},"geometry":{"x":168835.31000000052,"y":2545288.5200000033}},{"attributes":{"ID":501646,"DIS_CODE":0,"TOWNNAME":"南區","LI":"明亮里","LIN":"8鄰","STREET":"新都路","SECT":" ","MAREA":" ","LANE":" ","ALLEY":" ","HOUSE_NO":"４７６號","E_COORD97":167230.64000000001,"N_COORD97":2540881.5299999998,"ADDRESS":"新都路４７６號","OBJECTID":501619},"geometry":{"x":167230.6400000006,"y":2540881.5300000012}},{"attributes":{"ID":501647,"DIS_CODE":0,"TOWNNAME":"南區","LI":"明亮里","LIN":"8鄰","STREET":"新都路","SECT":" ","MAREA":" ","LANE":" ","ALLEY":" ","HOUSE_NO":"４７８號","E_COORD97":167225.89999999999,"N_COORD97":2540880.8900000001,"ADDRESS":"新都路４７８號","OBJECTID":501620},"geometry":{"x":167225.90000000037,"y":2540880.8900000025}},{"attributes":{"ID":501648,"DIS_CODE":0,"TOWNNAME":"南區","LI":"明亮里","LIN":"8鄰","STREET":"新都路","SECT":" ","MAREA":" ","LANE":" ","ALLEY":" ","HOUSE_NO":"４７８號之１","E_COORD97":167222.14000000001,"N_COORD97":2540882.0099999998,"ADDRESS":"新都路４７８號之１","OBJECTID":501621},"geometry":{"x":167222.14000000153,"y":2540882.0100000016}},{"attributes":{"ID":501649,"DIS_CODE":0,"TOWNNAME":"歸仁區","LI":"辜厝里","LIN":"8鄰","STREET":"中正南路","SECT":"一段","MAREA":" ","LANE":" ","ALLEY":" ","HOUSE_NO":"３８號","E_COORD97":177600.76000000001,"N_COORD97":2540640.1200000001,"ADDRESS":"中正南路一段３８號","OBJECTID":501622},"geometry":{"x":177600.75999999978,"y":2540640.120000001}},{"attributes":{"ID":501650,"DIS_CODE":0,"TOWNNAME":"歸仁區","LI":"西埔里","LIN":"8鄰","STREET":"保大路","SECT":"二段","MAREA":" ","LANE":" ","ALLEY":" ","HOUSE_NO":"３２４號","E_COORD97":176575.87,"N_COORD97":2544145.2799999998,"ADDRESS":"保大路二段３２４號","OBJECTID":501623},"geometry":{"x":176575.87000000011,"y":2544145.2800000012}},{"attributes":{"ID":501651,"DIS_CODE":0,"TOWNNAME":"歸仁區","LI":"西埔里","LIN":"8鄰","STREET":"保大路","SECT":"二段","MAREA":" ","LANE":" ","ALLEY":" ","HOUSE_NO":"３１０號","E_COORD97":176557.57000000001,"N_COORD97":2544173.2799999998,"ADDRESS":"保大路二段３１０號","OBJECTID":501624},"geometry":{"x":176557.57000000123,"y":2544173.2799999993}},{"attributes":{"ID":501652,"DIS_CODE":0,"TOWNNAME":"歸仁區","LI":"六甲里","LIN":"8鄰","STREET":"中正十五街","SECT":" ","MAREA":" ","LANE":" ","ALLEY":" ","HOUSE_NO":"１１６號","E_COORD97":176495.76000000001,"N_COORD97":2539524.25,"ADDRESS":"中正十五街１１６號","OBJECTID":501625},"geometry":{"x":176495.76000000164,"y":2539524.2500000019}},{"attributes":{"ID":501653,"DIS_CODE":0,"TOWNNAME":"歸仁區","LI":"六甲里","LIN":"8鄰","STREET":"中正十五街","SECT":" ","MAREA":" ","LANE":" ","ALLEY":" ","HOUSE_NO":"１１８號","E_COORD97":176495.85999999999,"N_COORD97":2539529.25,"ADDRESS":"中正十五街１１８號","OBJECTID":501626},"geometry":{"x":176495.86000000127,"y":2539529.25}},{"attributes":{"ID":501654,"DIS_CODE":0,"TOWNNAME":"歸仁區","LI":"六甲里","LIN":"8鄰","STREET":"中正十五街","SECT":" ","MAREA":" ","LANE":" ","ALLEY":" ","HOUSE_NO":"１１２號","E_COORD97":176493.66,"N_COORD97":2539512.25,"ADDRESS":"中正十五街１１２號","OBJECTID":501627},"geometry":{"x":176493.66000000108,"y":2539512.25}},{"attributes":{"ID":501655,"DIS_CODE":0,"TOWNNAME":"歸仁區","LI":"武東里","LIN":"8鄰","STREET":"武東一街","SECT":" ","MAREA":" ","LANE":" ","ALLEY":" ","HOUSE_NO":"７２號","E_COORD97":175777.04000000001,"N_COORD97":2535453.25,"ADDRESS":"武東一街７２號","OBJECTID":501628},"geometry":{"x":175777.0400000019,"y":2535453.2500000019}},{"attributes":{"ID":501656,"DIS_CODE":0,"TOWNNAME":"玉井區","LI":"中正里","LIN":"8鄰","STREET":"健康街","SECT":" ","MAREA":" ","LANE":" ","ALLEY":" ","HOUSE_NO":"３１號","E_COORD97":195635.14000000001,"N_COORD97":2558820.29,"ADDRESS":"健康街３１號","OBJECTID":501629},"geometry":{"x":195635.14000000153,"y":2558820.2900000028}},{"attributes":{"ID":501657,"DIS_CODE":0,"TOWNNAME":"北區","LI":"公園里","LIN":"8鄰","STREET":"富北街","SECT":" ","MAREA":" ","LANE":" ","ALLEY":" ","HOUSE_NO":"７５號","E_COORD97":169174.19,"N_COORD97":2544461.71,"ADDRESS":"富北街７５號","OBJECTID":501630},"geometry":{"x":169174.19000000134,"y":2544461.7100000028}},{"attributes":{"ID":501658,"DIS_CODE":0,"TOWNNAME":"北區","LI":"公園里","LIN":"8鄰","STREET":"富北街","SECT":" ","MAREA":" ","LANE":" ","ALLEY":" ","HOUSE_NO":"８５號","E_COORD97":169178.28,"N_COORD97":2544484.6400000001,"ADDRESS":"富北街８５號","OBJECTID":501631},"geometry":{"x":169178.28000000119,"y":2544484.6400000006}},{"attributes":{"ID":501659,"DIS_CODE":0,"TOWNNAME":"北區","LI":"公園里","LIN":"8鄰","STREET":"富北街","SECT":" ","MAREA":" ","LANE":" ","ALLEY":" ","HOUSE_NO":"８５號之１","E_COORD97":169176.97,"N_COORD97":2544477.9500000002,"ADDRESS":"富北街８５號之１","OBJECTID":501632},"geometry":{"x":169176.96999999974,"y":2544477.9499999974}},{"attributes":{"ID":501660,"DIS_CODE":0,"TOWNNAME":"北區","LI":"公園里","LIN":"8鄰","STREET":"富北街","SECT":" ","MAREA":" ","LANE":" ","ALLEY":" ","HOUSE_NO":"８７號","E_COORD97":169179.10000000001,"N_COORD97":2544488.2200000002,"ADDRESS":"富北街８７號","OBJECTID":501633},"geometry":{"x":169179.10000000056,"y":2544488.2200000025}},{"attributes":{"ID":501661,"DIS_CODE":0,"TOWNNAME":"北區","LI":"公園里","LIN":"8鄰","STREET":"富北街","SECT":" ","MAREA":" ","LANE":" ","ALLEY":" ","HOUSE_NO":"８９號","E_COORD97":169175.51000000001,"N_COORD97":2544493.4399999999,"ADDRESS":"富北街８９號","OBJECTID":501634},"geometry":{"x":169175.50999999978,"y":2544493.4400000013}},{"attributes":{"ID":501662,"DIS_CODE":0,"TOWNNAME":"北區","LI":"公園里","LIN":"8鄰","STREET":"富北街","SECT":" ","MAREA":" ","LANE":" ","ALLEY":" ","HOUSE_NO":"９１號","E_COORD97":169176.81,"N_COORD97":2544497.6800000002,"ADDRESS":"富北街９１號","OBJECTID":501635},"geometry":{"x":169176.80999999959,"y":2544497.6800000016}},{"attributes":{"ID":501663,"DIS_CODE":0,"TOWNNAME":"北區","LI":"公園里","LIN":"8鄰","STREET":"西華街","SECT":" ","MAREA":" ","LANE":" ","ALLEY":" ","HOUSE_NO":"３８號之１","E_COORD97":169092.73999999999,"N_COORD97":2544465.6200000001,"ADDRESS":"西華街３８號之１","OBJECTID":501636},"geometry":{"x":169092.74000000022,"y":2544465.6200000029}},{"attributes":{"ID":501664,"DIS_CODE":0,"TOWNNAME":"北區","LI":"公園里","LIN":"8鄰","STREET":"西華街","SECT":" ","MAREA":" ","LANE":" ","ALLEY":" ","HOUSE_NO":"３８號之２","E_COORD97":169093.57999999999,"N_COORD97":2544469.6400000001,"ADDRESS":"西華街３８號之２","OBJECTID":501637},"geometry":{"x":169093.58000000007,"y":2544469.6400000025}},{"attributes":{"ID":501665,"DIS_CODE":0,"TOWNNAME":"北區","LI":"公園里","LIN":"8鄰","STREET":"西華街","SECT":" ","MAREA":" ","LANE":" ","ALLEY":" ","HOUSE_NO":"３８號之３","E_COORD97":169094.42000000001,"N_COORD97":2544475.02,"ADDRESS":"西華街３８號之３","OBJECTID":501638},"geometry":{"x":169094.41999999993,"y":2544475.0200000014}},{"attributes":{"ID":501666,"DIS_CODE":0,"TOWNNAME":"北區","LI":"公園里","LIN":"8鄰","STREET":"西華街","SECT":" ","MAREA":" ","LANE":" ","ALLEY":" ","HOUSE_NO":"４２號","E_COORD97":169097.10999999999,"N_COORD97":2544484.25,"ADDRESS":"西華街４２號","OBJECTID":501639},"geometry":{"x":169097.11000000034,"y":2544484.2500000019}},{"attributes":{"ID":501667,"DIS_CODE":0,"TOWNNAME":"北區","LI":"公園里","LIN":"8鄰","STREET":"西華街","SECT":" ","MAREA":" ","LANE":" ","ALLEY":" ","HOUSE_NO":"４６號","E_COORD97":169099.79999999999,"N_COORD97":2544496,"ADDRESS":"西華街４６號","OBJECTID":501640},"geometry":{"x":169099.80000000075,"y":2544496.0000000019}},{"attributes":{"ID":501668,"DIS_CODE":0,"TOWNNAME":"北區","LI":"正風里","LIN":"8鄰","STREET":"公園路","SECT":" ","MAREA":" ","LANE":" ","ALLEY":" ","HOUSE_NO":"１０００號","E_COORD97":169542.64999999999,"N_COORD97":2546373.9900000002,"ADDRESS":"公園路１０００號","OBJECTID":501641},"geometry":{"x":169542.65000000037,"y":2546373.9900000039}},{"attributes":{"ID":501669,"DIS_CODE":0,"TOWNNAME":"北區","LI":"正風里","LIN":"8鄰","STREET":"公園路","SECT":" ","MAREA":" ","LANE":" ","ALLEY":" ","HOUSE_NO":"１００２號","E_COORD97":169546.87,"N_COORD97":2546377.4700000002,"ADDRESS":"公園路１００２號","OBJECTID":501642},"geometry":{"x":169546.87000000104,"y":2546377.4700000007}},{"attributes":{"ID":501670,"DIS_CODE":0,"TOWNNAME":"北區","LI":"正風里","LIN":"8鄰","STREET":"公園路","SECT":" ","MAREA":" ","LANE":" ","ALLEY":" ","HOUSE_NO":"９９６號","E_COORD97":169526.10000000001,"N_COORD97":2546351.5,"ADDRESS":"公園路９９６號","OBJECTID":501643},"geometry":{"x":169526.10000000149,"y":2546351.5000000019}},{"attributes":{"ID":501671,"DIS_CODE":0,"TOWNNAME":"北區","LI":"正風里","LIN":"8鄰","STREET":"公園路","SECT":" ","MAREA":" ","LANE":" ","ALLEY":" ","HOUSE_NO":"９９６號之２","E_COORD97":169530.64000000001,"N_COORD97":2546358.25,"ADDRESS":"公園路９９６號之２","OBJECTID":501644},"geometry":{"x":169530.63999999966,"y":2546358.2499999981}},{"attributes":{"ID":501672,"DIS_CODE":0,"TOWNNAME":"新營區","LI":"興安里","LIN":"8鄰","STREET":"新進路","SECT":" ","MAREA":" ","LANE":" ","ALLEY":" ","HOUSE_NO":"２７１號","E_COORD97":179984.26000000001,"N_COORD97":2577809.7599999998,"ADDRESS":"新進路２７１號","OBJECTID":501645},"geometry":{"x":179984.25999999885,"y":2577809.7599999998}},{"attributes":{"ID":501673,"DIS_CODE":0,"TOWNNAME":"新營區","LI":"大宏里","LIN":"8鄰","STREET":"文昌街","SECT":" ","MAREA":" ","LANE":" ","ALLEY":" ","HOUSE_NO":"３０號","E_COORD97":180368.29000000001,"N_COORD97":2578383.8199999998,"ADDRESS":"文昌街３０號","OBJECTID":501646},"geometry":{"x":180368.29000000097,"y":2578383.820000004}},{"attributes":{"ID":501674,"DIS_CODE":0,"TOWNNAME":"新營區","LI":"新南里","LIN":"8鄰","STREET":"新北五街","SECT":" ","MAREA":" ","LANE":" ","ALLEY":" ","HOUSE_NO":"１１４號","E_COORD97":178603.29000000001,"N_COORD97":2579089.9300000002,"ADDRESS":"新北五街１１４號","OBJECTID":501647},"geometry":{"x":178603.29000000097,"y":2579089.9299999997}},{"attributes":{"ID":501675,"DIS_CODE":0,"TOWNNAME":"歸仁區","LI":"六甲里","LIN":"8鄰","STREET":"中正十五街","SECT":" ","MAREA":" ","LANE":" ","ALLEY":" ","HOUSE_NO":"７８號","E_COORD97":176477.60999999999,"N_COORD97":2539412.2400000002,"ADDRESS":"中正十五街７８號","OBJECTID":501648},"geometry":{"x":176477.61000000127,"y":2539412.2400000021}},{"attributes":{"ID":501676,"DIS_CODE":0,"TOWNNAME":"北區","LI":"興南里","LIN":"8鄰","STREET":"公園北路","SECT":" ","MAREA":" ","LANE":" ","ALLEY":" ","HOUSE_NO":"１３０號之１","E_COORD97":168920.19,"N_COORD97":2545062.6099999999,"ADDRESS":"公園北路１３０號之１","OBJECTID":501649},"geometry":{"x":168920.19000000041,"y":2545062.6099999994}},{"attributes":{"ID":501677,"DIS_CODE":0,"TOWNNAME":"北區","LI":"興南里","LIN":"8鄰","STREET":"公園北路","SECT":" ","MAREA":" ","LANE":" ","ALLEY":" ","HOUSE_NO":"１３２號","E_COORD97":168915.70999999999,"N_COORD97":2545062.6000000001,"ADDRESS":"公園北路１３２號","OBJECTID":501650},"geometry":{"x":168915.71000000089,"y":2545062.5999999996}},{"attributes":{"ID":501678,"DIS_CODE":0,"TOWNNAME":"北區","LI":"興南里","LIN":"8鄰","STREET":"公園北路","SECT":" ","MAREA":" ","LANE":" ","ALLEY":" ","HOUSE_NO":"１３４號","E_COORD97":168911.94,"N_COORD97":2545063.2999999998,"ADDRESS":"公園北路１３４號","OBJECTID":501651},"geometry":{"x":168911.94000000041,"y":2545063.3000000007}},{"attributes":{"ID":501679,"DIS_CODE":0,"TOWNNAME":"歸仁區","LI":"西埔里","LIN":"8鄰","STREET":"保大路","SECT":"二段","MAREA":" ","LANE":" ","ALLEY":" ","HOUSE_NO":"２８６號","E_COORD97":176573.97,"N_COORD97":2544172.2799999998,"ADDRESS":"保大路二段２８６號","OBJECTID":501652},"geometry":{"x":176573.9700000016,"y":2544172.2800000012}},{"attributes":{"ID":501680,"DIS_CODE":0,"TOWNNAME":"南區","LI":"金華里","LIN":"8鄰","STREET":"尊南街","SECT":" ","MAREA":" ","LANE":" ","ALLEY":" ","HOUSE_NO":"１７８號","E_COORD97":166848.76000000001,"N_COORD97":2542133.4500000002,"ADDRESS":"尊南街１７８號","OBJECTID":501653},"geometry":{"x":166848.76000000071,"y":2542133.4500000011}},{"attributes":{"ID":501681,"DIS_CODE":0,"TOWNNAME":"南區","LI":"金華里","LIN":"8鄰","STREET":"尊南街","SECT":" ","MAREA":" ","LANE":" ","ALLEY":" ","HOUSE_NO":"１８０號","E_COORD97":166848.76000000001,"N_COORD97":2542137.8399999999,"ADDRESS":"尊南街１８０號","OBJECTID":501654},"geometry":{"x":166848.76000000071,"y":2542137.8400000017}},{"attributes":{"ID":501682,"DIS_CODE":0,"TOWNNAME":"南區","LI":"金華里","LIN":"8鄰","STREET":"尊南街","SECT":" ","MAREA":" ","LANE":" ","ALLEY":" ","HOUSE_NO":"１８２號","E_COORD97":166849.29000000001,"N_COORD97":2542142.2200000002,"ADDRESS":"尊南街１８２號","OBJECTID":501655},"geometry":{"x":166849.29000000097,"y":2542142.2200000025}},{"attributes":{"ID":501683,"DIS_CODE":0,"TOWNNAME":"安南區","LI":"溪東里","LIN":"7鄰","STREET":"府安路","SECT":"五段","MAREA":" ","LANE":" ","ALLEY":" ","HOUSE_NO":"４５號","E_COORD97":168326.22,"N_COORD97":2547202.0899999999,"ADDRESS":"府安路五段４５號","OBJECTID":501656},"geometry":{"x":168326.21999999974,"y":2547202.0899999999}},{"attributes":{"ID":501684,"DIS_CODE":0,"TOWNNAME":"中西區","LI":"文賢里","LIN":"7鄰","STREET":"文和街","SECT":" ","MAREA":" ","LANE":" ","ALLEY":" ","HOUSE_NO":"１２８號","E_COORD97":167089,"N_COORD97":2544796.1099999999,"ADDRESS":"文和街１２８號","OBJECTID":501657},"geometry":{"x":167089,"y":2544796.1100000031}},{"attributes":{"ID":501685,"DIS_CODE":0,"TOWNNAME":"中西區","LI":"文賢里","LIN":"7鄰","STREET":"文和街","SECT":" ","MAREA":" ","LANE":" ","ALLEY":" ","HOUSE_NO":"１３０號","E_COORD97":167086.23999999999,"N_COORD97":2544793.3599999999,"ADDRESS":"文和街１３０號","OBJECTID":501658},"geometry":{"x":167086.24000000209,"y":2544793.3599999994}},{"attributes":{"ID":501686,"DIS_CODE":0,"TOWNNAME":"中西區","LI":"文賢里","LIN":"7鄰","STREET":"文和街","SECT":" ","MAREA":" ","LANE":" ","ALLEY":" ","HOUSE_NO":"１３２號","E_COORD97":167083.67000000001,"N_COORD97":2544790.6099999999,"ADDRESS":"文和街１３２號","OBJECTID":501659},"geometry":{"x":167083.67000000086,"y":2544790.6100000013}},{"attributes":{"ID":501687,"DIS_CODE":0,"TOWNNAME":"中西區","LI":"文賢里","LIN":"7鄰","STREET":"文和街","SECT":" ","MAREA":" ","LANE":" ","ALLEY":" ","HOUSE_NO":"１３４號","E_COORD97":167079.87,"N_COORD97":2544788.1400000001,"ADDRESS":"文和街１３４號","OBJECTID":501660},"geometry":{"x":167079.87000000011,"y":2544788.1400000025}},{"attributes":{"ID":501688,"DIS_CODE":0,"TOWNNAME":"中西區","LI":"文賢里","LIN":"7鄰","STREET":"文和街","SECT":" ","MAREA":" ","LANE":" ","ALLEY":" ","HOUSE_NO":"１３６號","E_COORD97":167076.45000000001,"N_COORD97":2544784.7200000002,"ADDRESS":"文和街１３６號","OBJECTID":501661},"geometry":{"x":167076.45000000205,"y":2544784.7200000007}},{"attributes":{"ID":501689,"DIS_CODE":0,"TOWNNAME":"中西區","LI":"文賢里","LIN":"7鄰","STREET":"文和街","SECT":" ","MAREA":" ","LANE":" ","ALLEY":" ","HOUSE_NO":"１３８號","E_COORD97":167074.28,"N_COORD97":2544781.2799999998,"ADDRESS":"文和街１３８號","OBJECTID":501662},"geometry":{"x":167074.28000000212,"y":2544781.2800000031}},{"attributes":{"ID":501690,"DIS_CODE":0,"TOWNNAME":"中西區","LI":"文賢里","LIN":"7鄰","STREET":"文和街","SECT":" ","MAREA":" ","LANE":" ","ALLEY":" ","HOUSE_NO":"１４０號","E_COORD97":167071.17000000001,"N_COORD97":2544778.8599999999,"ADDRESS":"文和街１４０號","OBJECTID":501663},"geometry":{"x":167071.17000000179,"y":2544778.8600000013}},{"attributes":{"ID":501691,"DIS_CODE":0,"TOWNNAME":"中西區","LI":"文賢里","LIN":"7鄰","STREET":"文和街","SECT":" ","MAREA":" ","LANE":" ","ALLEY":" ","HOUSE_NO":"１４６號","E_COORD97":167058.64999999999,"N_COORD97":2544770.7400000002,"ADDRESS":"文和街１４６號","OBJECTID":501664},"geometry":{"x":167058.6500000013,"y":2544770.7400000002}},{"attributes":{"ID":501692,"DIS_CODE":0,"TOWNNAME":"中西區","LI":"文賢里","LIN":"7鄰","STREET":"文和街","SECT":" ","MAREA":" ","LANE":" ","ALLEY":" ","HOUSE_NO":"１４８號","E_COORD97":167055.69,"N_COORD97":2544768.8599999999,"ADDRESS":"文和街１４８號","OBJECTID":501665},"geometry":{"x":167055.69000000041,"y":2544768.8599999994}},{"attributes":{"ID":501693,"DIS_CODE":0,"TOWNNAME":"中西區","LI":"文賢里","LIN":"7鄰","STREET":"文和街","SECT":" ","MAREA":" ","LANE":" ","ALLEY":" ","HOUSE_NO":"１５０號","E_COORD97":167052.31,"N_COORD97":2544766.0299999998,"ADDRESS":"文和街１５０號","OBJECTID":501666},"geometry":{"x":167052.30999999959,"y":2544766.0300000031}},{"attributes":{"ID":501694,"DIS_CODE":0,"TOWNNAME":"中西區","LI":"文賢里","LIN":"7鄰","STREET":"文和街","SECT":" ","MAREA":" ","LANE":" ","ALLEY":" ","HOUSE_NO":"１５２號","E_COORD97":167048.79999999999,"N_COORD97":2544763.7400000002,"ADDRESS":"文和街１５２號","OBJECTID":501667},"geometry":{"x":167048.80000000075,"y":2544763.7400000002}},{"attributes":{"ID":501695,"DIS_CODE":0,"TOWNNAME":"中西區","LI":"文賢里","LIN":"7鄰","STREET":"文和街","SECT":" ","MAREA":" ","LANE":" ","ALLEY":" ","HOUSE_NO":"１５２號之１","E_COORD97":167039.81,"N_COORD97":2544776.1400000001,"ADDRESS":"文和街１５２號之１","OBJECTID":501668},"geometry":{"x":167039.81000000052,"y":2544776.1400000006}},{"attributes":{"ID":501696,"DIS_CODE":0,"TOWNNAME":"中西區","LI":"文賢里","LIN":"7鄰","STREET":"文和街","SECT":" ","MAREA":" ","LANE":" ","ALLEY":" ","HOUSE_NO":"１５２號之３","E_COORD97":167037.32999999999,"N_COORD97":2544780.1000000001,"ADDRESS":"文和街１５２號之３","OBJECTID":501669},"geometry":{"x":167037.33000000007,"y":2544780.1000000015}},{"attributes":{"ID":501697,"DIS_CODE":0,"TOWNNAME":"中西區","LI":"文賢里","LIN":"7鄰","STREET":"文和街","SECT":" ","MAREA":" ","LANE":" ","ALLEY":" ","HOUSE_NO":"１５２號之４","E_COORD97":167035.17999999999,"N_COORD97":2544783.0699999998,"ADDRESS":"文和街１５２號之４","OBJECTID":501670},"geometry":{"x":167035.17999999877,"y":2544783.0700000003}},{"attributes":{"ID":501698,"DIS_CODE":0,"TOWNNAME":"中西區","LI":"文賢里","LIN":"7鄰","STREET":"文和街","SECT":" ","MAREA":" ","LANE":" ","ALLEY":" ","HOUSE_NO":"１５２號之５","E_COORD97":167033.04000000001,"N_COORD97":2544787.8500000001,"ADDRESS":"文和街１５２號之５","OBJECTID":501671},"geometry":{"x":167033.04000000004,"y":2544787.8500000034}},{"attributes":{"ID":501699,"DIS_CODE":0,"TOWNNAME":"中西區","LI":"文賢里","LIN":"7鄰","STREET":"文和街","SECT":" ","MAREA":" ","LANE":" ","ALLEY":" ","HOUSE_NO":"１５４號","E_COORD97":167041.23000000001,"N_COORD97":2544756.9300000002,"ADDRESS":"文和街１５４號","OBJECTID":501672},"geometry":{"x":167041.23000000138,"y":2544756.9300000034}},{"attributes":{"ID":501700,"DIS_CODE":0,"TOWNNAME":"中西區","LI":"文賢里","LIN":"7鄰","STREET":"文和街","SECT":" ","MAREA":" ","LANE":" ","ALLEY":" ","HOUSE_NO":"１５６號","E_COORD97":167037.54000000001,"N_COORD97":2544755.2999999998,"ADDRESS":"文和街１５６號","OBJECTID":501673},"geometry":{"x":167037.54000000004,"y":2544755.3000000045}},{"attributes":{"ID":501701,"DIS_CODE":0,"TOWNNAME":"中西區","LI":"文賢里","LIN":"7鄰","STREET":"文和街","SECT":" ","MAREA":" ","LANE":" ","ALLEY":" ","HOUSE_NO":"１５８號","E_COORD97":167033.85000000001,"N_COORD97":2544751.8799999999,"ADDRESS":"文和街１５８號","OBJECTID":501674},"geometry":{"x":167033.84999999963,"y":2544751.879999999}},{"attributes":{"ID":501702,"DIS_CODE":0,"TOWNNAME":"中西區","LI":"文賢里","LIN":"7鄰","STREET":"文和街","SECT":" ","MAREA":" ","LANE":" ","ALLEY":" ","HOUSE_NO":"１６０號","E_COORD97":167030.70000000001,"N_COORD97":2544749.8300000001,"ADDRESS":"文和街１６０號","OBJECTID":501675},"geometry":{"x":167030.70000000205,"y":2544749.8300000001}},{"attributes":{"ID":501703,"DIS_CODE":0,"TOWNNAME":"中西區","LI":"文賢里","LIN":"7鄰","STREET":"文和街","SECT":" ","MAREA":" ","LANE":" ","ALLEY":" ","HOUSE_NO":"１６２號","E_COORD97":167026.60000000001,"N_COORD97":2544747.2400000002,"ADDRESS":"文和街１６２號","OBJECTID":501676},"geometry":{"x":167026.59999999963,"y":2544747.2400000002}},{"attributes":{"ID":501704,"DIS_CODE":0,"TOWNNAME":"東區","LI":"仁和里","LIN":"7鄰","STREET":"仁和路","SECT":" ","MAREA":" ","LANE":" ","ALLEY":" ","HOUSE_NO":"１１７號之２","E_COORD97":171433.92999999999,"N_COORD97":2541212.0499999998,"ADDRESS":"仁和路１１７號之２","OBJECTID":501677},"geometry":{"x":171433.9299999997,"y":2541212.0500000026}},{"attributes":{"ID":501705,"DIS_CODE":0,"TOWNNAME":"東區","LI":"仁和里","LIN":"7鄰","STREET":"仁和路","SECT":" ","MAREA":" ","LANE":" ","ALLEY":" ","HOUSE_NO":"１１７號之３","E_COORD97":171436.48000000001,"N_COORD97":2541207.96,"ADDRESS":"仁和路１１７號之３","OBJECTID":501678},"geometry":{"x":171436.48000000231,"y":2541207.9600000046}},{"attributes":{"ID":501706,"DIS_CODE":0,"TOWNNAME":"東區","LI":"仁和里","LIN":"7鄰","STREET":"仁和路","SECT":" ","MAREA":" ","LANE":" ","ALLEY":" ","HOUSE_NO":"１１７號之４","E_COORD97":171439.57000000001,"N_COORD97":2541204.8500000001,"ADDRESS":"仁和路１１７號之４","OBJECTID":501679},"geometry":{"x":171439.57000000123,"y":2541204.8500000015}},{"attributes":{"ID":501707,"DIS_CODE":0,"TOWNNAME":"東區","LI":"仁和里","LIN":"7鄰","STREET":"仁和路","SECT":" ","MAREA":" ","LANE":" ","ALLEY":" ","HOUSE_NO":"１１７號之５","E_COORD97":171441.57999999999,"N_COORD97":2541200.6699999999,"ADDRESS":"仁和路１１７號之５","OBJECTID":501680},"geometry":{"x":171441.58000000007,"y":2541200.6699999999}},{"attributes":{"ID":501708,"DIS_CODE":0,"TOWNNAME":"東區","LI":"仁和里","LIN":"7鄰","STREET":"仁和路","SECT":" ","MAREA":" ","LANE":" ","ALLEY":" ","HOUSE_NO":"１１７號之６","E_COORD97":171457.48000000001,"N_COORD97":2541214.71,"ADDRESS":"仁和路１１７號之６","OBJECTID":501681},"geometry":{"x":171457.48000000138,"y":2541214.7100000028}},{"attributes":{"ID":501709,"DIS_CODE":0,"TOWNNAME":"東區","LI":"仁和里","LIN":"7鄰","STREET":"仁和路","SECT":" ","MAREA":" ","LANE":" ","ALLEY":" ","HOUSE_NO":"１１７號之７","E_COORD97":171460.79999999999,"N_COORD97":2541217.2400000002,"ADDRESS":"仁和路１１７號之７","OBJECTID":501682},"geometry":{"x":171460.80000000168,"y":2541217.2400000021}},{"attributes":{"ID":501710,"DIS_CODE":0,"TOWNNAME":"東區","LI":"崇德里","LIN":"7鄰","STREET":"崇德七街","SECT":" ","MAREA":" ","LANE":" ","ALLEY":" ","HOUSE_NO":"７３號","E_COORD97":170850.5,"N_COORD97":2541827.0800000001,"ADDRESS":"崇德七街７３號","OBJECTID":501683},"geometry":{"x":170850.5,"y":2541827.0800000038}},{"attributes":{"ID":501711,"DIS_CODE":0,"TOWNNAME":"東區","LI":"崇德里","LIN":"7鄰","STREET":"崇德七街","SECT":" ","MAREA":" ","LANE":" ","ALLEY":" ","HOUSE_NO":"７５號","E_COORD97":170855.79000000001,"N_COORD97":2541833.9199999999,"ADDRESS":"崇德七街７５號","OBJECTID":501684},"geometry":{"x":170855.78999999911,"y":2541833.9199999999}},{"attributes":{"ID":501712,"DIS_CODE":0,"TOWNNAME":"麻豆區","LI":"中興里","LIN":"7鄰","STREET":"三民路","SECT":" ","MAREA":" ","LANE":" ","ALLEY":" ","HOUSE_NO":"４３號之５","E_COORD97":172834.38,"N_COORD97":2564449.5499999998,"ADDRESS":"三民路４３號之５","OBJECTID":501685},"geometry":{"x":172834.37999999989,"y":2564449.5500000026}},{"attributes":{"ID":501713,"DIS_CODE":0,"TOWNNAME":"麻豆區","LI":"中興里","LIN":"7鄰","STREET":"三民路","SECT":" ","MAREA":" ","LANE":" ","ALLEY":" ","HOUSE_NO":"４３號之７","E_COORD97":172842.47,"N_COORD97":2564451.1099999999,"ADDRESS":"三民路４３號之７","OBJECTID":501686},"geometry":{"x":172842.46999999974,"y":2564451.1100000013}},{"attributes":{"ID":501714,"DIS_CODE":0,"TOWNNAME":"新市區","LI":"新和里","LIN":"7鄰","STREET":"信義街","SECT":" ","MAREA":" ","LANE":" ","ALLEY":" ","HOUSE_NO":"９之８號","E_COORD97":177233.14000000001,"N_COORD97":2552547.0099999998,"ADDRESS":"信義街９之８號","OBJECTID":501687},"geometry":{"x":177233.13999999966,"y":2552547.0099999998}},{"attributes":{"ID":501715,"DIS_CODE":0,"TOWNNAME":"新市區","LI":"新和里","LIN":"7鄰","STREET":"信義街","SECT":" ","MAREA":" ","LANE":" ","ALLEY":" ","HOUSE_NO":"９號","E_COORD97":177241.14000000001,"N_COORD97":2552517,"ADDRESS":"信義街９號","OBJECTID":501688},"geometry":{"x":177241.1400000006,"y":2552516.9999999981}},{"attributes":{"ID":501716,"DIS_CODE":0,"TOWNNAME":"新市區","LI":"新和里","LIN":"7鄰","STREET":"信義街","SECT":" ","MAREA":" ","LANE":" ","ALLEY":" ","HOUSE_NO":"９之１號","E_COORD97":177239.94,"N_COORD97":2552521.6499999999,"ADDRESS":"信義街９之１號","OBJECTID":501689},"geometry":{"x":177239.94000000134,"y":2552521.6500000004}},{"attributes":{"ID":501717,"DIS_CODE":0,"TOWNNAME":"新市區","LI":"新和里","LIN":"7鄰","STREET":"信義街","SECT":" ","MAREA":" ","LANE":" ","ALLEY":" ","HOUSE_NO":"９之２號","E_COORD97":177238.82000000001,"N_COORD97":2552526.0099999998,"ADDRESS":"信義街９之２號","OBJECTID":501690},"geometry":{"x":177238.82000000123,"y":2552526.0099999998}},{"attributes":{"ID":501718,"DIS_CODE":0,"TOWNNAME":"新市區","LI":"新和里","LIN":"7鄰","STREET":"信義街","SECT":" ","MAREA":" ","LANE":" ","ALLEY":" ","HOUSE_NO":"９之３號","E_COORD97":177238.91,"N_COORD97":2552531.0899999999,"ADDRESS":"信義街９之３號","OBJECTID":501691},"geometry":{"x":177238.91000000015,"y":2552531.0900000017}},{"attributes":{"ID":501719,"DIS_CODE":0,"TOWNNAME":"新市區","LI":"新和里","LIN":"7鄰","STREET":"信義街","SECT":" ","MAREA":" ","LANE":" ","ALLEY":" ","HOUSE_NO":"５之１號","E_COORD97":177246.51999999999,"N_COORD97":2552492.8300000001,"ADDRESS":"信義街５之１號","OBJECTID":501692},"geometry":{"x":177246.52000000048,"y":2552492.8300000019}},{"attributes":{"ID":501720,"DIS_CODE":0,"TOWNNAME":"新市區","LI":"新和里","LIN":"7鄰","STREET":"信義街","SECT":" ","MAREA":" ","LANE":" ","ALLEY":" ","HOUSE_NO":"５之２號","E_COORD97":177245.79999999999,"N_COORD97":2552497.1899999999,"ADDRESS":"信義街５之２號","OBJECTID":501693},"geometry":{"x":177245.79999999981,"y":2552497.1899999995}},{"attributes":{"ID":501721,"DIS_CODE":0,"TOWNNAME":"新市區","LI":"新和里","LIN":"7鄰","STREET":"信義街","SECT":" ","MAREA":" ","LANE":" ","ALLEY":" ","HOUSE_NO":"５之３號","E_COORD97":177246.26000000001,"N_COORD97":2552502.2400000002,"ADDRESS":"信義街５之３號","OBJECTID":501694},"geometry":{"x":177246.25999999978,"y":2552502.2400000039}},{"attributes":{"ID":501722,"DIS_CODE":0,"TOWNNAME":"新市區","LI":"新和里","LIN":"7鄰","STREET":"信義街","SECT":" ","MAREA":" ","LANE":" ","ALLEY":" ","HOUSE_NO":"５之５號","E_COORD97":177243.95999999999,"N_COORD97":2552506.0600000001,"ADDRESS":"信義街５之５號","OBJECTID":501695},"geometry":{"x":177243.96000000089,"y":2552506.0600000005}},{"attributes":{"ID":501723,"DIS_CODE":0,"TOWNNAME":"新市區","LI":"新和里","LIN":"7鄰","STREET":"信義街","SECT":" ","MAREA":" ","LANE":" ","ALLEY":" ","HOUSE_NO":"９之５號","E_COORD97":177236.54000000001,"N_COORD97":2552534.6099999999,"ADDRESS":"信義街９之５號","OBJECTID":501696},"geometry":{"x":177236.5400000019,"y":2552534.6099999994}},{"attributes":{"ID":501724,"DIS_CODE":0,"TOWNNAME":"新市區","LI":"新和里","LIN":"7鄰","STREET":"信義街","SECT":" ","MAREA":" ","LANE":" ","ALLEY":" ","HOUSE_NO":"９之６號","E_COORD97":177235.42000000001,"N_COORD97":2552538.71,"ADDRESS":"信義街９之６號","OBJECTID":501697},"geometry":{"x":177235.41999999993,"y":2552538.7100000009}},{"attributes":{"ID":501725,"DIS_CODE":0,"TOWNNAME":"新市區","LI":"新和里","LIN":"7鄰","STREET":"信義街","SECT":" ","MAREA":" ","LANE":" ","ALLEY":" ","HOUSE_NO":"１３之１號","E_COORD97":177229.12,"N_COORD97":2552561.7200000002,"ADDRESS":"信義街１３之１號","OBJECTID":501698},"geometry":{"x":177229.12000000011,"y":2552561.7200000025}},{"attributes":{"ID":501726,"DIS_CODE":0,"TOWNNAME":"新市區","LI":"新和里","LIN":"7鄰","STREET":"信義街","SECT":" ","MAREA":" ","LANE":" ","ALLEY":" ","HOUSE_NO":"１３之２號","E_COORD97":177227.95000000001,"N_COORD97":2552565.9700000002,"ADDRESS":"信義街１３之２號","OBJECTID":501699},"geometry":{"x":177227.95000000112,"y":2552565.9700000025}},{"attributes":{"ID":501727,"DIS_CODE":0,"TOWNNAME":"新市區","LI":"新和里","LIN":"7鄰","STREET":"信義街","SECT":" ","MAREA":" ","LANE":" ","ALLEY":" ","HOUSE_NO":"１３之３號","E_COORD97":177226.78,"N_COORD97":2552570.25,"ADDRESS":"信義街１３之３號","OBJECTID":501700},"geometry":{"x":177226.78000000212,"y":2552570.2500000019}},{"attributes":{"ID":501728,"DIS_CODE":0,"TOWNNAME":"麻豆區","LI":"中興里","LIN":"7鄰","STREET":"三民路","SECT":" ","MAREA":" ","LANE":" ","ALLEY":" ","HOUSE_NO":"３５號","E_COORD97":172889.28,"N_COORD97":2564482.4399999999,"ADDRESS":"三民路３５號","OBJECTID":501701},"geometry":{"x":172889.28000000119,"y":2564482.4400000013}},{"attributes":{"ID":501729,"DIS_CODE":0,"TOWNNAME":"麻豆區","LI":"中興里","LIN":"7鄰","STREET":"三民路","SECT":" ","MAREA":" ","LANE":" ","ALLEY":" ","HOUSE_NO":"３９號","E_COORD97":172854.38878099999,"N_COORD97":2564472.3016300001,"ADDRESS":"三民路３９號","OBJECTID":501702},"geometry":{"x":172854.38878100086,"y":2564472.3016269989}},{"attributes":{"ID":501730,"DIS_CODE":0,"TOWNNAME":"麻豆區","LI":"中興里","LIN":"7鄰","STREET":"三民路","SECT":" ","MAREA":" ","LANE":" ","ALLEY":" ","HOUSE_NO":"４３號之１０","E_COORD97":172870.64000000001,"N_COORD97":2564463.1200000001,"ADDRESS":"三民路４３號之１０","OBJECTID":501703},"geometry":{"x":172870.6400000006,"y":2564463.1200000029}},{"attributes":{"ID":501731,"DIS_CODE":0,"TOWNNAME":"麻豆區","LI":"中興里","LIN":"7鄰","STREET":"三民路","SECT":" ","MAREA":" ","LANE":" ","ALLEY":" ","HOUSE_NO":"４３號之１１","E_COORD97":172885.10999999999,"N_COORD97":2564464.4300000002,"ADDRESS":"三民路４３號之１１","OBJECTID":501704},"geometry":{"x":172885.11000000127,"y":2564464.4299999997}},{"attributes":{"ID":501732,"DIS_CODE":0,"TOWNNAME":"麻豆區","LI":"中興里","LIN":"7鄰","STREET":"三民路","SECT":" ","MAREA":" ","LANE":" ","ALLEY":" ","HOUSE_NO":"４３號之１","E_COORD97":172808.72,"N_COORD97":2564444.4199999999,"ADDRESS":"三民路４３號之１","OBJECTID":501705},"geometry":{"x":172808.71999999974,"y":2564444.4199999999}},{"attributes":{"ID":501733,"DIS_CODE":0,"TOWNNAME":"麻豆區","LI":"中興里","LIN":"7鄰","STREET":"三民路","SECT":" ","MAREA":" ","LANE":" ","ALLEY":" ","HOUSE_NO":"４３號之２","E_COORD97":172809.20999999999,"N_COORD97":2564440.4399999999,"ADDRESS":"三民路４３號之２","OBJECTID":501706},"geometry":{"x":172809.21000000183,"y":2564440.4399999995}},{"attributes":{"ID":501734,"DIS_CODE":0,"TOWNNAME":"麻豆區","LI":"中興里","LIN":"7鄰","STREET":"三民路","SECT":" ","MAREA":" ","LANE":" ","ALLEY":" ","HOUSE_NO":"４３號之３","E_COORD97":172810.01999999999,"N_COORD97":2564436.0499999998,"ADDRESS":"三民路４３號之３","OBJECTID":501707},"geometry":{"x":172810.02000000142,"y":2564436.0500000026}},{"attributes":{"ID":501735,"DIS_CODE":0,"TOWNNAME":"麻豆區","LI":"中興里","LIN":"7鄰","STREET":"三民路","SECT":" ","MAREA":" ","LANE":" ","ALLEY":" ","HOUSE_NO":"４３號之６","E_COORD97":172838.26000000001,"N_COORD97":2564450.4100000001,"ADDRESS":"三民路４３號之６","OBJECTID":501708},"geometry":{"x":172838.26000000071,"y":2564450.4100000001}},{"attributes":{"ID":501736,"DIS_CODE":0,"TOWNNAME":"麻豆區","LI":"中興里","LIN":"7鄰","STREET":"三民路","SECT":" ","MAREA":" ","LANE":" ","ALLEY":" ","HOUSE_NO":"４３號之９","E_COORD97":172859.97,"N_COORD97":2564455.6400000001,"ADDRESS":"三民路４３號之９","OBJECTID":501709},"geometry":{"x":172859.97000000067,"y":2564455.6400000025}},{"attributes":{"ID":501737,"DIS_CODE":0,"TOWNNAME":"麻豆區","LI":"中興里","LIN":"7鄰","STREET":"三民路","SECT":" ","MAREA":" ","LANE":" ","ALLEY":" ","HOUSE_NO":"４３號","E_COORD97":172808.31,"N_COORD97":2564448.8500000001,"ADDRESS":"三民路４３號","OBJECTID":501710},"geometry":{"x":172808.31000000052,"y":2564448.8500000015}},{"attributes":{"ID":501738,"DIS_CODE":0,"TOWNNAME":"麻豆區","LI":"中興里","LIN":"7鄰","STREET":"三民路","SECT":" ","MAREA":" ","LANE":" ","ALLEY":" ","HOUSE_NO":"４７號之２","E_COORD97":172900.45999999999,"N_COORD97":2564436.6699999999,"ADDRESS":"三民路４７號之２","OBJECTID":501711},"geometry":{"x":172900.45999999996,"y":2564436.6700000037}},{"attributes":{"ID":501739,"DIS_CODE":0,"TOWNNAME":"麻豆區","LI":"中興里","LIN":"7鄰","STREET":"三民路","SECT":" ","MAREA":" ","LANE":" ","ALLEY":" ","HOUSE_NO":"４７號之３","E_COORD97":172902.14999999999,"N_COORD97":2564432.2200000002,"ADDRESS":"三民路４７號之３","OBJECTID":501712},"geometry":{"x":172902.1500000013,"y":2564432.2200000007}},{"attributes":{"ID":501740,"DIS_CODE":0,"TOWNNAME":"麻豆區","LI":"大埕里","LIN":"7鄰","STREET":"中正路","SECT":" ","MAREA":" ","LANE":" ","ALLEY":" ","HOUSE_NO":"８０號之３７","E_COORD97":173290.44,"N_COORD97":2565067.4500000002,"ADDRESS":"中正路８０號之３７","OBJECTID":501713},"geometry":{"x":173290.44000000041,"y":2565067.4499999993}},{"attributes":{"ID":501741,"DIS_CODE":0,"TOWNNAME":"麻豆區","LI":"大埕里","LIN":"7鄰","STREET":"中正路","SECT":" ","MAREA":" ","LANE":" ","ALLEY":" ","HOUSE_NO":"８０號之３８","E_COORD97":173286.13,"N_COORD97":2565068.8900000001,"ADDRESS":"中正路８０號之３８","OBJECTID":501714},"geometry":{"x":173286.13000000175,"y":2565068.8900000006}},{"attributes":{"ID":501742,"DIS_CODE":0,"TOWNNAME":"麻豆區","LI":"大埕里","LIN":"7鄰","STREET":"中正路","SECT":" ","MAREA":" ","LANE":" ","ALLEY":" ","HOUSE_NO":"８０號之３９","E_COORD97":173281.88,"N_COORD97":2565070.1800000002,"ADDRESS":"中正路８０號之３９","OBJECTID":501715},"geometry":{"x":173281.87999999989,"y":2565070.1800000034}},{"attributes":{"ID":501743,"DIS_CODE":0,"TOWNNAME":"麻豆區","LI":"大埕里","LIN":"7鄰","STREET":"中正路","SECT":" ","MAREA":" ","LANE":" ","ALLEY":" ","HOUSE_NO":"８０號之３","E_COORD97":173177.92999999999,"N_COORD97":2565078.3300000001,"ADDRESS":"中正路８０號之３","OBJECTID":501716},"geometry":{"x":173177.9299999997,"y":2565078.3300000001}},{"attributes":{"ID":501744,"DIS_CODE":0,"TOWNNAME":"麻豆區","LI":"大埕里","LIN":"7鄰","STREET":"中正路","SECT":" ","MAREA":" ","LANE":" ","ALLEY":" ","HOUSE_NO":"８０號之４０","E_COORD97":173278.35999999999,"N_COORD97":2565071.3599999999,"ADDRESS":"中正路８０號之４０","OBJECTID":501717},"geometry":{"x":173278.36000000127,"y":2565071.3599999994}},{"attributes":{"ID":501745,"DIS_CODE":0,"TOWNNAME":"麻豆區","LI":"大埕里","LIN":"7鄰","STREET":"中正路","SECT":" ","MAREA":" ","LANE":" ","ALLEY":" ","HOUSE_NO":"８０號之４１","E_COORD97":173274.88,"N_COORD97":2565072.3700000001,"ADDRESS":"中正路８０號之４１","OBJECTID":501718},"geometry":{"x":173274.88000000082,"y":2565072.370000001}},{"attributes":{"ID":501746,"DIS_CODE":0,"TOWNNAME":"麻豆區","LI":"大埕里","LIN":"7鄰","STREET":"中正路","SECT":" ","MAREA":" ","LANE":" ","ALLEY":" ","HOUSE_NO":"８０號之４２","E_COORD97":173271.28,"N_COORD97":2565073.5099999998,"ADDRESS":"中正路８０號之４２","OBJECTID":501719},"geometry":{"x":173271.28000000026,"y":2565073.5099999998}},{"attributes":{"ID":501747,"DIS_CODE":0,"TOWNNAME":"麻豆區","LI":"大埕里","LIN":"7鄰","STREET":"中正路","SECT":" ","MAREA":" ","LANE":" ","ALLEY":" ","HOUSE_NO":"８０號之４３","E_COORD97":173267.04000000001,"N_COORD97":2565075.02,"ADDRESS":"中正路８０號之４３","OBJECTID":501720},"geometry":{"x":173267.04000000097,"y":2565075.0200000014}},{"attributes":{"ID":501748,"DIS_CODE":0,"TOWNNAME":"麻豆區","LI":"大埕里","LIN":"7鄰","STREET":"中正路","SECT":" ","MAREA":" ","LANE":" ","ALLEY":" ","HOUSE_NO":"８０號之４５","E_COORD97":173258.19,"N_COORD97":2565077.9199999999,"ADDRESS":"中正路８０號之４５","OBJECTID":501721},"geometry":{"x":173258.19000000041,"y":2565077.9199999999}},{"attributes":{"ID":501749,"DIS_CODE":0,"TOWNNAME":"麻豆區","LI":"大埕里","LIN":"7鄰","STREET":"中正路","SECT":" ","MAREA":" ","LANE":" ","ALLEY":" ","HOUSE_NO":"８０號之４６","E_COORD97":173254,"N_COORD97":2565079.1699999999,"ADDRESS":"中正路８０號之４６","OBJECTID":501722},"geometry":{"x":173254,"y":2565079.1699999999}},{"attributes":{"ID":501750,"DIS_CODE":0,"TOWNNAME":"麻豆區","LI":"大埕里","LIN":"7鄰","STREET":"中正路","SECT":" ","MAREA":" ","LANE":" ","ALLEY":" ","HOUSE_NO":"８０號之４７","E_COORD97":173247.85000000001,"N_COORD97":2565081.5,"ADDRESS":"中正路８０號之４７","OBJECTID":501723},"geometry":{"x":173247.84999999963,"y":2565081.5}},{"attributes":{"ID":501751,"DIS_CODE":0,"TOWNNAME":"麻豆區","LI":"大埕里","LIN":"7鄰","STREET":"中正路","SECT":" ","MAREA":" ","LANE":" ","ALLEY":" ","HOUSE_NO":"８０號之４８","E_COORD97":173240.20000000001,"N_COORD97":2565083.8799999999,"ADDRESS":"中正路８０號之４８","OBJECTID":501724},"geometry":{"x":173240.20000000205,"y":2565083.879999999}},{"attributes":{"ID":501752,"DIS_CODE":0,"TOWNNAME":"麻豆區","LI":"大埕里","LIN":"7鄰","STREET":"中正路","SECT":" ","MAREA":" ","LANE":" ","ALLEY":" ","HOUSE_NO":"８０號之４９","E_COORD97":173234.82999999999,"N_COORD97":2565085.46,"ADDRESS":"中正路８０號之４９","OBJECTID":501725},"geometry":{"x":173234.83000000101,"y":2565085.4600000009}},{"attributes":{"ID":501753,"DIS_CODE":0,"TOWNNAME":"麻豆區","LI":"大埕里","LIN":"7鄰","STREET":"中正路","SECT":" ","MAREA":" ","LANE":" ","ALLEY":" ","HOUSE_NO":"８０號之４","E_COORD97":173175.16,"N_COORD97":2565074.98,"ADDRESS":"中正路８０號之４","OBJECTID":501726},"geometry":{"x":173175.16000000015,"y":2565074.9800000004}},{"attributes":{"ID":501754,"DIS_CODE":0,"TOWNNAME":"麻豆區","LI":"大埕里","LIN":"7鄰","STREET":"中正路","SECT":" ","MAREA":" ","LANE":" ","ALLEY":" ","HOUSE_NO":"８０號之５０","E_COORD97":173230.63,"N_COORD97":2565086.6499999999,"ADDRESS":"中正路８０號之５０","OBJECTID":501727},"geometry":{"x":173230.63000000082,"y":2565086.6500000004}},{"attributes":{"ID":501755,"DIS_CODE":0,"TOWNNAME":"麻豆區","LI":"大埕里","LIN":"7鄰","STREET":"中正路","SECT":" ","MAREA":" ","LANE":" ","ALLEY":" ","HOUSE_NO":"８０號之５１","E_COORD97":173226.79999999999,"N_COORD97":2565088.0299999998,"ADDRESS":"中正路８０號之５１","OBJECTID":501728},"geometry":{"x":173226.79999999981,"y":2565088.0300000031}},{"attributes":{"ID":501756,"DIS_CODE":0,"TOWNNAME":"麻豆區","LI":"大埕里","LIN":"7鄰","STREET":"中正路","SECT":" ","MAREA":" ","LANE":" ","ALLEY":" ","HOUSE_NO":"８０號之５２","E_COORD97":173222.64999999999,"N_COORD97":2565089.5899999999,"ADDRESS":"中正路８０號之５２","OBJECTID":501729},"geometry":{"x":173222.6500000013,"y":2565089.5900000017}},{"attributes":{"ID":501757,"DIS_CODE":0,"TOWNNAME":"麻豆區","LI":"大埕里","LIN":"7鄰","STREET":"中正路","SECT":" ","MAREA":" ","LANE":" ","ALLEY":" ","HOUSE_NO":"８０號之５３","E_COORD97":173218.54000000001,"N_COORD97":2565090.9500000002,"ADDRESS":"中正路８０號之５３","OBJECTID":501730},"geometry":{"x":173218.54000000004,"y":2565090.9499999993}},{"attributes":{"ID":501758,"DIS_CODE":0,"TOWNNAME":"麻豆區","LI":"大埕里","LIN":"7鄰","STREET":"中正路","SECT":" ","MAREA":" ","LANE":" ","ALLEY":" ","HOUSE_NO":"８０號之５４","E_COORD97":173214.10000000001,"N_COORD97":2565092.2400000002,"ADDRESS":"中正路８０號之５４","OBJECTID":501731},"geometry":{"x":173214.09999999963,"y":2565092.2400000021}},{"attributes":{"ID":501759,"DIS_CODE":0,"TOWNNAME":"麻豆區","LI":"大埕里","LIN":"7鄰","STREET":"中正路","SECT":" ","MAREA":" ","LANE":" ","ALLEY":" ","HOUSE_NO":"８０號之５５","E_COORD97":173203.64999999999,"N_COORD97":2565104.0800000001,"ADDRESS":"中正路８０號之５５","OBJECTID":501732},"geometry":{"x":173203.6500000013,"y":2565104.0800000001}},{"attributes":{"ID":501760,"DIS_CODE":0,"TOWNNAME":"麻豆區","LI":"大埕里","LIN":"7鄰","STREET":"中正路","SECT":" ","MAREA":" ","LANE":" ","ALLEY":" ","HOUSE_NO":"８０號之５６","E_COORD97":173199.79000000001,"N_COORD97":2565101.6299999999,"ADDRESS":"中正路８０號之５６","OBJECTID":501733},"geometry":{"x":173199.79000000004,"y":2565101.6300000008}},{"attributes":{"ID":501761,"DIS_CODE":0,"TOWNNAME":"麻豆區","LI":"大埕里","LIN":"7鄰","STREET":"中正路","SECT":" ","MAREA":" ","LANE":" ","ALLEY":" ","HOUSE_NO":"８０號之５７","E_COORD97":173196.82000000001,"N_COORD97":2565098.1400000001,"ADDRESS":"中正路８０號之５７","OBJECTID":501734},"geometry":{"x":173196.8200000003,"y":2565098.1400000006}},{"attributes":{"ID":501762,"DIS_CODE":0,"TOWNNAME":"麻豆區","LI":"大埕里","LIN":"7鄰","STREET":"中正路","SECT":" ","MAREA":" ","LANE":" ","ALLEY":" ","HOUSE_NO":"８０號之５８","E_COORD97":173194,"N_COORD97":2565094.7000000002,"ADDRESS":"中正路８０號之５８","OBJECTID":501735},"geometry":{"x":173194.00000000093,"y":2565094.7000000011}},{"attributes":{"ID":501763,"DIS_CODE":0,"TOWNNAME":"麻豆區","LI":"大埕里","LIN":"7鄰","STREET":"中正路","SECT":" ","MAREA":" ","LANE":" ","ALLEY":" ","HOUSE_NO":"８０號之５９","E_COORD97":173190.54000000001,"N_COORD97":2565091.7400000002,"ADDRESS":"中正路８０號之５９","OBJECTID":501736},"geometry":{"x":173190.54000000097,"y":2565091.7400000021}},{"attributes":{"ID":501764,"DIS_CODE":0,"TOWNNAME":"麻豆區","LI":"大埕里","LIN":"7鄰","STREET":"中正路","SECT":" ","MAREA":" ","LANE":" ","ALLEY":" ","HOUSE_NO":"８０號之５","E_COORD97":173172.17000000001,"N_COORD97":2565071.6000000001,"ADDRESS":"中正路８０號之５","OBJECTID":501737},"geometry":{"x":173172.17000000179,"y":2565071.6000000015}},{"attributes":{"ID":501765,"DIS_CODE":0,"TOWNNAME":"麻豆區","LI":"大埕里","LIN":"7鄰","STREET":"中正路","SECT":" ","MAREA":" ","LANE":" ","ALLEY":" ","HOUSE_NO":"８０號之６０","E_COORD97":173300.01999999999,"N_COORD97":2565057.3900000001,"ADDRESS":"中正路８０號之６０","OBJECTID":501738},"geometry":{"x":173300.02000000142,"y":2565057.3900000025}},{"attributes":{"ID":501766,"DIS_CODE":0,"TOWNNAME":"麻豆區","LI":"大埕里","LIN":"7鄰","STREET":"中正路","SECT":" ","MAREA":" ","LANE":" ","ALLEY":" ","HOUSE_NO":"８０號之６","E_COORD97":173169.20000000001,"N_COORD97":2565068.48,"ADDRESS":"中正路８０號之６","OBJECTID":501739},"geometry":{"x":173169.20000000112,"y":2565068.4800000004}},{"attributes":{"ID":501767,"DIS_CODE":0,"TOWNNAME":"麻豆區","LI":"大埕里","LIN":"7鄰","STREET":"中正路","SECT":" ","MAREA":" ","LANE":" ","ALLEY":" ","HOUSE_NO":"８０號之７","E_COORD97":173165.95000000001,"N_COORD97":2565061.0299999998,"ADDRESS":"中正路８０號之７","OBJECTID":501740},"geometry":{"x":173165.95000000112,"y":2565061.0300000012}},{"attributes":{"ID":501768,"DIS_CODE":0,"TOWNNAME":"麻豆區","LI":"大埕里","LIN":"7鄰","STREET":"中正路","SECT":" ","MAREA":" ","LANE":" ","ALLEY":" ","HOUSE_NO":"８０號之８","E_COORD97":173166,"N_COORD97":2565042.29,"ADDRESS":"中正路８０號之８","OBJECTID":501741},"geometry":{"x":173166,"y":2565042.290000001}},{"attributes":{"ID":501769,"DIS_CODE":0,"TOWNNAME":"麻豆區","LI":"大埕里","LIN":"7鄰","STREET":"中正路","SECT":" ","MAREA":" ","LANE":" ","ALLEY":" ","HOUSE_NO":"８０號之９","E_COORD97":173170.01000000001,"N_COORD97":2565042.54,"ADDRESS":"中正路８０號之９","OBJECTID":501742},"geometry":{"x":173170.01000000071,"y":2565042.5399999991}},{"attributes":{"ID":501770,"DIS_CODE":0,"TOWNNAME":"麻豆區","LI":"大埕里","LIN":"7鄰","STREET":"中正路","SECT":" ","MAREA":" ","LANE":" ","ALLEY":" ","HOUSE_NO":"８６號","E_COORD97":173215.35999999999,"N_COORD97":2565116.5,"ADDRESS":"中正路８６號","OBJECTID":501743},"geometry":{"x":173215.3600000022,"y":2565116.5000000019}},{"attributes":{"ID":501771,"DIS_CODE":0,"TOWNNAME":"麻豆區","LI":"大埕里","LIN":"7鄰","STREET":"中正路","SECT":" ","MAREA":" ","LANE":" ","ALLEY":" ","HOUSE_NO":"９０號","E_COORD97":173217.35000000001,"N_COORD97":2565122.3700000001,"ADDRESS":"中正路９０號","OBJECTID":501744},"geometry":{"x":173217.34999999963,"y":2565122.3700000029}},{"attributes":{"ID":501772,"DIS_CODE":0,"TOWNNAME":"關廟區","LI":"香洋里","LIN":"20鄰","STREET":"中山路","SECT":"一段","MAREA":" ","LANE":" ","ALLEY":" ","HOUSE_NO":"３９８號","E_COORD97":181541.26000000001,"N_COORD97":2539878.2799999998,"ADDRESS":"中山路一段３９８號","OBJECTID":501745},"geometry":{"x":181541.26000000071,"y":2539878.2799999993}},{"attributes":{"ID":501773,"DIS_CODE":0,"TOWNNAME":"關廟區","LI":"香洋里","LIN":"20鄰","STREET":"中山路","SECT":"一段","MAREA":" ","LANE":" ","ALLEY":" ","HOUSE_NO":"５１０號","E_COORD97":181308.26000000001,"N_COORD97":2539964.2799999998,"ADDRESS":"中山路一段５１０號","OBJECTID":501746},"geometry":{"x":181308.25999999885,"y":2539964.2800000012}},{"attributes":{"ID":501774,"DIS_CODE":0,"TOWNNAME":"關廟區","LI":"新光里","LIN":"6鄰","STREET":"北寮街","SECT":" ","MAREA":" ","LANE":" ","ALLEY":" ","HOUSE_NO":"６８號","E_COORD97":184192.97,"N_COORD97":2541836.25,"ADDRESS":"北寮街６８號","OBJECTID":501747},"geometry":{"x":184192.96999999974,"y":2541836.2500000019}},{"attributes":{"ID":501775,"DIS_CODE":0,"TOWNNAME":"中西區","LI":"協和里","LIN":"7鄰","STREET":"臨安路","SECT":"一段","MAREA":" ","LANE":" ","ALLEY":" ","HOUSE_NO":"１６３號","E_COORD97":167176.73999999999,"N_COORD97":2544571.4100000001,"ADDRESS":"臨安路一段１６３號","OBJECTID":501748},"geometry":{"x":167176.74000000115,"y":2544571.410000002}},{"attributes":{"ID":501776,"DIS_CODE":0,"TOWNNAME":"中西區","LI":"協和里","LIN":"7鄰","STREET":"臨安路","SECT":"一段","MAREA":" ","LANE":" ","ALLEY":" ","HOUSE_NO":"１６５號","E_COORD97":167179.78,"N_COORD97":2544574.4500000002,"ADDRESS":"臨安路一段１６５號","OBJECTID":501749},"geometry":{"x":167179.78000000119,"y":2544574.4500000011}},{"attributes":{"ID":501777,"DIS_CODE":0,"TOWNNAME":"中西區","LI":"協進里","LIN":"7鄰","STREET":"臨安路","SECT":"一段","MAREA":" ","LANE":" ","ALLEY":" ","HOUSE_NO":"６號","E_COORD97":166908.12,"N_COORD97":2544253.02,"ADDRESS":"臨安路一段６號","OBJECTID":501750},"geometry":{"x":166908.12000000104,"y":2544253.0199999996}},{"attributes":{"ID":501778,"DIS_CODE":0,"TOWNNAME":"中西區","LI":"協和里","LIN":"7鄰","STREET":"臨安路","SECT":"一段","MAREA":" ","LANE":" ","ALLEY":" ","HOUSE_NO":"１６７號","E_COORD97":167183.91,"N_COORD97":2544577,"ADDRESS":"臨安路一段１６７號","OBJECTID":501751},"geometry":{"x":167183.91000000108,"y":2544577.0000000037}},{"attributes":{"ID":501779,"DIS_CODE":0,"TOWNNAME":"中西區","LI":"協和里","LIN":"7鄰","STREET":"臨安路","SECT":"一段","MAREA":" ","LANE":" ","ALLEY":" ","HOUSE_NO":"１６９號","E_COORD97":167186.82999999999,"N_COORD97":2544580.2799999998,"ADDRESS":"臨安路一段１６９號","OBJECTID":501752},"geometry":{"x":167186.83000000007,"y":2544580.2799999993}},{"attributes":{"ID":501780,"DIS_CODE":0,"TOWNNAME":"中西區","LI":"協和里","LIN":"7鄰","STREET":"臨安路","SECT":"一段","MAREA":" ","LANE":" ","ALLEY":" ","HOUSE_NO":"１７１號","E_COORD97":167190.73000000001,"N_COORD97":2544583.3199999998,"ADDRESS":"臨安路一段１７１號","OBJECTID":501753},"geometry":{"x":167190.73000000138,"y":2544583.3200000022}},{"attributes":{"ID":501781,"DIS_CODE":0,"TOWNNAME":"中西區","LI":"協和里","LIN":"7鄰","STREET":"協和街","SECT":" ","MAREA":" ","LANE":" ","ALLEY":" ","HOUSE_NO":"１１４號","E_COORD97":167184.45999999999,"N_COORD97":2544615.27,"ADDRESS":"協和街１１４號","OBJECTID":501754},"geometry":{"x":167184.45999999903,"y":2544615.2700000033}},{"attributes":{"ID":501782,"DIS_CODE":0,"TOWNNAME":"中西區","LI":"協和里","LIN":"7鄰","STREET":"協和街","SECT":" ","MAREA":" ","LANE":" ","ALLEY":" ","HOUSE_NO":"１１６號","E_COORD97":167188.26000000001,"N_COORD97":2544618.0699999998,"ADDRESS":"協和街１１６號","OBJECTID":501755},"geometry":{"x":167188.25999999978,"y":2544618.0700000022}},{"attributes":{"ID":501783,"DIS_CODE":0,"TOWNNAME":"中西區","LI":"協和里","LIN":"7鄰","STREET":"協和街","SECT":" ","MAREA":" ","LANE":" ","ALLEY":" ","HOUSE_NO":"１１８號","E_COORD97":167191.66,"N_COORD97":2544621.6600000001,"ADDRESS":"協和街１１８號","OBJECTID":501756},"geometry":{"x":167191.66000000015,"y":2544621.660000002}},{"attributes":{"ID":501784,"DIS_CODE":0,"TOWNNAME":"中西區","LI":"協和里","LIN":"7鄰","STREET":"協和街","SECT":" ","MAREA":" ","LANE":" ","ALLEY":" ","HOUSE_NO":"１２２號","E_COORD97":167199.17000000001,"N_COORD97":2544630.1899999999,"ADDRESS":"協和街１２２號","OBJECTID":501757},"geometry":{"x":167199.17000000086,"y":2544630.1900000013}},{"attributes":{"ID":501785,"DIS_CODE":0,"TOWNNAME":"中西區","LI":"協和里","LIN":"7鄰","STREET":"協和街","SECT":" ","MAREA":" ","LANE":" ","ALLEY":" ","HOUSE_NO":"１３２號","E_COORD97":167219.29000000001,"N_COORD97":2544645.6000000001,"ADDRESS":"協和街１３２號","OBJECTID":501758},"geometry":{"x":167219.29000000004,"y":2544645.5999999996}},{"attributes":{"ID":501786,"DIS_CODE":0,"TOWNNAME":"中西區","LI":"協進里","LIN":"7鄰","STREET":"西寧街","SECT":" ","MAREA":" ","LANE":" ","ALLEY":" ","HOUSE_NO":"６５號","E_COORD97":167034.32000000001,"N_COORD97":2544229.6600000001,"ADDRESS":"西寧街６５號","OBJECTID":501759},"geometry":{"x":167034.3200000003,"y":2544229.6600000001}},{"attributes":{"ID":501787,"DIS_CODE":0,"TOWNNAME":"中西區","LI":"協和里","LIN":"7鄰","STREET":"協和街","SECT":" ","MAREA":" ","LANE":" ","ALLEY":" ","HOUSE_NO":"１３４號","E_COORD97":167222.56,"N_COORD97":2544648.1099999999,"ADDRESS":"協和街１３４號","OBJECTID":501760},"geometry":{"x":167222.56000000145,"y":2544648.1100000013}},{"attributes":{"ID":501788,"DIS_CODE":0,"TOWNNAME":"中西區","LI":"協和里","LIN":"7鄰","STREET":"協和街","SECT":" ","MAREA":" ","LANE":" ","ALLEY":" ","HOUSE_NO":"１３６號","E_COORD97":167223.28,"N_COORD97":2544655.8700000001,"ADDRESS":"協和街１３６號","OBJECTID":501761},"geometry":{"x":167223.27999999933,"y":2544655.870000001}},{"attributes":{"ID":501789,"DIS_CODE":0,"TOWNNAME":"中西區","LI":"協和里","LIN":"7鄰","STREET":"和美街","SECT":" ","MAREA":" ","LANE":" ","ALLEY":" ","HOUSE_NO":"１號","E_COORD97":167234.32999999999,"N_COORD97":2544643.1600000001,"ADDRESS":"和美街１號","OBJECTID":501762},"geometry":{"x":167234.33000000007,"y":2544643.1600000001}},{"attributes":{"ID":501790,"DIS_CODE":0,"TOWNNAME":"中西區","LI":"協和里","LIN":"7鄰","STREET":"和美街","SECT":" ","MAREA":" ","LANE":" ","ALLEY":" ","HOUSE_NO":"３號","E_COORD97":167231.89000000001,"N_COORD97":2544647.2000000002,"ADDRESS":"和美街３號","OBJECTID":501763},"geometry":{"x":167231.88999999966,"y":2544647.2000000011}},{"attributes":{"ID":501791,"DIS_CODE":0,"TOWNNAME":"中西區","LI":"協和里","LIN":"7鄰","STREET":"和美街","SECT":" ","MAREA":" ","LANE":" ","ALLEY":" ","HOUSE_NO":"５號","E_COORD97":167228.85000000001,"N_COORD97":2544650.2400000002,"ADDRESS":"和美街５號","OBJECTID":501764},"geometry":{"x":167228.84999999963,"y":2544650.2400000039}},{"attributes":{"ID":501792,"DIS_CODE":0,"TOWNNAME":"中西區","LI":"協和里","LIN":"7鄰","STREET":"和美街","SECT":" ","MAREA":" ","LANE":" ","ALLEY":" ","HOUSE_NO":"７號","E_COORD97":167225.60999999999,"N_COORD97":2544653.6800000002,"ADDRESS":"和美街７號","OBJECTID":501765},"geometry":{"x":167225.61000000034,"y":2544653.6800000016}},{"attributes":{"ID":501793,"DIS_CODE":0,"TOWNNAME":"中西區","LI":"協和里","LIN":"7鄰","STREET":"臨安路","SECT":"一段","MAREA":" ","LANE":" ","ALLEY":" ","HOUSE_NO":"１７５號","E_COORD97":167198.91,"N_COORD97":2544592.6099999999,"ADDRESS":"臨安路一段１７５號","OBJECTID":501766},"geometry":{"x":167198.91000000108,"y":2544592.6100000031}},{"attributes":{"ID":501794,"DIS_CODE":0,"TOWNNAME":"中西區","LI":"協和里","LIN":"7鄰","STREET":"臨安路","SECT":"一段","MAREA":" ","LANE":" ","ALLEY":" ","HOUSE_NO":"１７７號","E_COORD97":167202.92000000001,"N_COORD97":2544595.04,"ADDRESS":"臨安路一段１７７號","OBJECTID":501767},"geometry":{"x":167202.91999999993,"y":2544595.0399999991}},{"attributes":{"ID":501795,"DIS_CODE":0,"TOWNNAME":"中西區","LI":"協和里","LIN":"7鄰","STREET":"臨安路","SECT":"一段","MAREA":" ","LANE":" ","ALLEY":" ","HOUSE_NO":"１７９號","E_COORD97":167206.07999999999,"N_COORD97":2544597.9500000002,"ADDRESS":"臨安路一段１７９號","OBJECTID":501768},"geometry":{"x":167206.08000000101,"y":2544597.9500000011}},{"attributes":{"ID":501796,"DIS_CODE":0,"TOWNNAME":"中西區","LI":"協和里","LIN":"7鄰","STREET":"臨安路","SECT":"一段","MAREA":" ","LANE":" ","ALLEY":" ","HOUSE_NO":"１８１號","E_COORD97":167209.48999999999,"N_COORD97":2544600.8700000001,"ADDRESS":"臨安路一段１８１號","OBJECTID":501769},"geometry":{"x":167209.49000000022,"y":2544600.8700000029}},{"attributes":{"ID":501797,"DIS_CODE":0,"TOWNNAME":"中西區","LI":"協和里","LIN":"7鄰","STREET":"臨安路","SECT":"一段","MAREA":" ","LANE":" ","ALLEY":" ","HOUSE_NO":"１８５號","E_COORD97":167218.51000000001,"N_COORD97":2544608.0800000001,"ADDRESS":"臨安路一段１８５號","OBJECTID":501770},"geometry":{"x":167218.51000000071,"y":2544608.0800000019}},{"attributes":{"ID":501798,"DIS_CODE":0,"TOWNNAME":"中西區","LI":"協和里","LIN":"7鄰","STREET":"臨安路","SECT":"一段","MAREA":" ","LANE":" ","ALLEY":" ","HOUSE_NO":"１９３號","E_COORD97":167232.60000000001,"N_COORD97":2544622.54,"ADDRESS":"臨安路一段１９３號","OBJECTID":501771},"geometry":{"x":167232.60000000056,"y":2544622.5399999991}},{"attributes":{"ID":501799,"DIS_CODE":0,"TOWNNAME":"中西區","LI":"協和里","LIN":"7鄰","STREET":"臨安路","SECT":"一段","MAREA":" ","LANE":" ","ALLEY":" ","HOUSE_NO":"１９７號","E_COORD97":167235.75,"N_COORD97":2544626.1400000001,"ADDRESS":"臨安路一段１９７號","OBJECTID":501772},"geometry":{"x":167235.75000000093,"y":2544626.1400000006}},{"attributes":{"ID":501800,"DIS_CODE":0,"TOWNNAME":"中西區","LI":"協和里","LIN":"7鄰","STREET":"臨安路","SECT":"一段","MAREA":" ","LANE":" ","ALLEY":" ","HOUSE_NO":"１９９號","E_COORD97":167239.39999999999,"N_COORD97":2544628.5699999998,"ADDRESS":"臨安路一段１９９號","OBJECTID":501773},"geometry":{"x":167239.40000000037,"y":2544628.5700000022}},{"attributes":{"ID":501801,"DIS_CODE":0,"TOWNNAME":"中西區","LI":"協和里","LIN":"7鄰","STREET":"臨安路","SECT":"一段","MAREA":" ","LANE":" ","ALLEY":" ","HOUSE_NO":"２０１號","E_COORD97":167245.07999999999,"N_COORD97":2544632.8199999998,"ADDRESS":"臨安路一段２０１號","OBJECTID":501774},"geometry":{"x":167245.08000000101,"y":2544632.820000004}},{"attributes":{"ID":501802,"DIS_CODE":0,"TOWNNAME":"中西區","LI":"協進里","LIN":"7鄰","STREET":"民生路","SECT":"二段","MAREA":" ","LANE":" ","ALLEY":" ","HOUSE_NO":"３３０號","E_COORD97":166981.78,"N_COORD97":2544230.71,"ADDRESS":"民生路二段３３０號","OBJECTID":501775},"geometry":{"x":166981.78000000119,"y":2544230.7100000046}},{"attributes":{"ID":501803,"DIS_CODE":0,"TOWNNAME":"中西區","LI":"協進里","LIN":"7鄰","STREET":"民生路","SECT":"二段","MAREA":" ","LANE":" ","ALLEY":" ","HOUSE_NO":"３３２號","E_COORD97":166977.23999999999,"N_COORD97":2544231.9900000002,"ADDRESS":"民生路二段３３２號","OBJECTID":501776},"geometry":{"x":166977.24000000022,"y":2544231.9900000021}},{"attributes":{"ID":501804,"DIS_CODE":0,"TOWNNAME":"中西區","LI":"協進里","LIN":"7鄰","STREET":"民生路","SECT":"二段","MAREA":" ","LANE":" ","ALLEY":" ","HOUSE_NO":"３３４號","E_COORD97":166972.81,"N_COORD97":2544235.71,"ADDRESS":"民生路二段３３４號","OBJECTID":501777},"geometry":{"x":166972.80999999959,"y":2544235.7100000009}},{"attributes":{"ID":501805,"DIS_CODE":0,"TOWNNAME":"中西區","LI":"協進里","LIN":"7鄰","STREET":"民生路","SECT":"二段","MAREA":" ","LANE":" ","ALLEY":" ","HOUSE_NO":"３３６號","E_COORD97":166968.03,"N_COORD97":2544237.9300000002,"ADDRESS":"民生路二段３３６號","OBJECTID":501778},"geometry":{"x":166968.03000000119,"y":2544237.9300000034}},{"attributes":{"ID":501806,"DIS_CODE":0,"TOWNNAME":"中西區","LI":"協進里","LIN":"7鄰","STREET":"民生路","SECT":"二段","MAREA":" ","LANE":" ","ALLEY":" ","HOUSE_NO":"３３８號","E_COORD97":166962.62,"N_COORD97":2544238.1000000001,"ADDRESS":"民生路二段３３８號","OBJECTID":501779},"geometry":{"x":166962.62000000011,"y":2544238.1000000015}},{"attributes":{"ID":501807,"DIS_CODE":0,"TOWNNAME":"中西區","LI":"協進里","LIN":"7鄰","STREET":"民生路","SECT":"二段","MAREA":" ","LANE":" ","ALLEY":" ","HOUSE_NO":"３４０號","E_COORD97":166958.14000000001,"N_COORD97":2544240.0499999998,"ADDRESS":"民生路二段３４０號","OBJECTID":501780},"geometry":{"x":166958.1400000006,"y":2544240.0500000007}},{"attributes":{"ID":501808,"DIS_CODE":0,"TOWNNAME":"中西區","LI":"協進里","LIN":"7鄰","STREET":"民生路","SECT":"二段","MAREA":" ","LANE":" ","ALLEY":" ","HOUSE_NO":"３４２號","E_COORD97":166953.95999999999,"N_COORD97":2544241.0099999998,"ADDRESS":"民生路二段３４２號","OBJECTID":501781},"geometry":{"x":166953.96000000183,"y":2544241.0100000035}},{"attributes":{"ID":501809,"DIS_CODE":0,"TOWNNAME":"中西區","LI":"協進里","LIN":"7鄰","STREET":"民生路","SECT":"二段","MAREA":" ","LANE":" ","ALLEY":" ","HOUSE_NO":"３４４號","E_COORD97":166949.34,"N_COORD97":2544238.9700000002,"ADDRESS":"民生路二段３４４號","OBJECTID":501782},"geometry":{"x":166949.33999999985,"y":2544238.9700000044}},{"attributes":{"ID":501810,"DIS_CODE":0,"TOWNNAME":"中西區","LI":"協進里","LIN":"7鄰","STREET":"民生路","SECT":"二段","MAREA":" ","LANE":" ","ALLEY":" ","HOUSE_NO":"３４６號","E_COORD97":166945.14999999999,"N_COORD97":2544239.8300000001,"ADDRESS":"民生路二段３４６號","OBJECTID":501783},"geometry":{"x":166945.1500000013,"y":2544239.8300000019}},{"attributes":{"ID":501811,"DIS_CODE":0,"TOWNNAME":"中西區","LI":"協進里","LIN":"7鄰","STREET":"民生路","SECT":"二段","MAREA":" ","LANE":" ","ALLEY":" ","HOUSE_NO":"３４８號","E_COORD97":166941.72,"N_COORD97":2544241.8700000001,"ADDRESS":"民生路二段３４８號","OBJECTID":501784},"geometry":{"x":166941.71999999881,"y":2544241.870000001}},{"attributes":{"ID":501812,"DIS_CODE":0,"TOWNNAME":"中西區","LI":"協進里","LIN":"7鄰","STREET":"民生路","SECT":"二段","MAREA":" ","LANE":" ","ALLEY":" ","HOUSE_NO":"３５０號","E_COORD97":166937.64000000001,"N_COORD97":2544241.4399999999,"ADDRESS":"民生路二段３５０號","OBJECTID":501785},"geometry":{"x":166937.6400000006,"y":2544241.4400000013}},{"attributes":{"ID":501813,"DIS_CODE":0,"TOWNNAME":"中西區","LI":"協進里","LIN":"7鄰","STREET":"民生路","SECT":"二段","MAREA":" ","LANE":" ","ALLEY":" ","HOUSE_NO":"３５２號","E_COORD97":166932.59,"N_COORD97":2544242.0800000001,"ADDRESS":"民生路二段３５２號","OBJECTID":501786},"geometry":{"x":166932.58999999892,"y":2544242.0800000019}},{"attributes":{"ID":501814,"DIS_CODE":0,"TOWNNAME":"中西區","LI":"協進里","LIN":"7鄰","STREET":"民生路","SECT":"二段","MAREA":" ","LANE":" ","ALLEY":" ","HOUSE_NO":"３５６號","E_COORD97":166922.07000000001,"N_COORD97":2544244.0099999998,"ADDRESS":"民生路二段３５６號","OBJECTID":501787},"geometry":{"x":166922.07000000123,"y":2544244.0099999998}},{"attributes":{"ID":501815,"DIS_CODE":0,"TOWNNAME":"中西區","LI":"協進里","LIN":"7鄰","STREET":"民生路","SECT":"二段","MAREA":" ","LANE":" ","ALLEY":" ","HOUSE_NO":"３６２號","E_COORD97":166916.81,"N_COORD97":2544245.2999999998,"ADDRESS":"民生路二段３６２號","OBJECTID":501788},"geometry":{"x":166916.80999999959,"y":2544245.3000000007}},{"attributes":{"ID":501816,"DIS_CODE":0,"TOWNNAME":"中西區","LI":"協進里","LIN":"7鄰","STREET":"臨安路","SECT":"一段","MAREA":" ","LANE":" ","ALLEY":" ","HOUSE_NO":"１０號","E_COORD97":166910.04999999999,"N_COORD97":2544259.8799999999,"ADDRESS":"臨安路一段１０號","OBJECTID":501789},"geometry":{"x":166910.04999999981,"y":2544259.879999999}},{"attributes":{"ID":501817,"DIS_CODE":0,"TOWNNAME":"中西區","LI":"協進里","LIN":"7鄰","STREET":"民生路","SECT":"二段","MAREA":" ","LANE":" ","ALLEY":" ","HOUSE_NO":"３１６號","E_COORD97":167018.92999999999,"N_COORD97":2544216.73,"ADDRESS":"民生路二段３１６號","OBJECTID":501790},"geometry":{"x":167018.93000000063,"y":2544216.7300000023}},{"attributes":{"ID":501818,"DIS_CODE":0,"TOWNNAME":"中西區","LI":"協進里","LIN":"7鄰","STREET":"民生路","SECT":"二段","MAREA":" ","LANE":" ","ALLEY":" ","HOUSE_NO":"３１８號","E_COORD97":167015.20000000001,"N_COORD97":2544218.48,"ADDRESS":"民生路二段３１８號","OBJECTID":501791},"geometry":{"x":167015.20000000019,"y":2544218.4800000023}},{"attributes":{"ID":501819,"DIS_CODE":0,"TOWNNAME":"中西區","LI":"協進里","LIN":"7鄰","STREET":"民生路","SECT":"二段","MAREA":" ","LANE":" ","ALLEY":" ","HOUSE_NO":"３２０號","E_COORD97":167010.54000000001,"N_COORD97":2544222.5600000001,"ADDRESS":"民生路二段３２０號","OBJECTID":501792},"geometry":{"x":167010.54000000004,"y":2544222.5600000024}},{"attributes":{"ID":501820,"DIS_CODE":0,"TOWNNAME":"中西區","LI":"協進里","LIN":"7鄰","STREET":"民生路","SECT":"二段","MAREA":" ","LANE":" ","ALLEY":" ","HOUSE_NO":"３２２號","E_COORD97":167005.51999999999,"N_COORD97":2544222.21,"ADDRESS":"民生路二段３２２號","OBJECTID":501793},"geometry":{"x":167005.51999999955,"y":2544222.2100000009}},{"attributes":{"ID":501821,"DIS_CODE":0,"TOWNNAME":"中西區","LI":"協進里","LIN":"7鄰","STREET":"民生路","SECT":"二段","MAREA":" ","LANE":" ","ALLEY":" ","HOUSE_NO":"３２４號","E_COORD97":167001.07000000001,"N_COORD97":2544223.5899999999,"ADDRESS":"民生路二段３２４號","OBJECTID":501794},"geometry":{"x":167001.07000000216,"y":2544223.5900000036}},{"attributes":{"ID":501822,"DIS_CODE":0,"TOWNNAME":"中西區","LI":"協進里","LIN":"7鄰","STREET":"民生路","SECT":"二段","MAREA":" ","LANE":" ","ALLEY":" ","HOUSE_NO":"３２６號","E_COORD97":166995.78,"N_COORD97":2544225.4700000002,"ADDRESS":"民生路二段３２６號","OBJECTID":501795},"geometry":{"x":166995.78000000026,"y":2544225.4700000025}},{"attributes":{"ID":501823,"DIS_CODE":0,"TOWNNAME":"中西區","LI":"協進里","LIN":"7鄰","STREET":"民生路","SECT":"二段","MAREA":" ","LANE":" ","ALLEY":" ","HOUSE_NO":"３２８號","E_COORD97":166991,"N_COORD97":2544226.75,"ADDRESS":"民生路二段３２８號","OBJECTID":501796},"geometry":{"x":166990.99999999907,"y":2544226.7500000019}},{"attributes":{"ID":501824,"DIS_CODE":0,"TOWNNAME":"中西區","LI":"協進里","LIN":"7鄰","STREET":"西寧街","SECT":" ","MAREA":" ","LANE":" ","ALLEY":" ","HOUSE_NO":"６３號","E_COORD97":167038.64000000001,"N_COORD97":2544228.2599999998,"ADDRESS":"西寧街６３號","OBJECTID":501797},"geometry":{"x":167038.63999999966,"y":2544228.2599999998}},{"attributes":{"ID":501825,"DIS_CODE":0,"TOWNNAME":"中西區","LI":"協進里","LIN":"7鄰","STREET":"西寧街","SECT":" ","MAREA":" ","LANE":" ","ALLEY":" ","HOUSE_NO":"６７號","E_COORD97":167028.84,"N_COORD97":2544229.77,"ADDRESS":"西寧街６７號","OBJECTID":501798},"geometry":{"x":167028.83999999985,"y":2544229.7700000014}},{"attributes":{"ID":501826,"DIS_CODE":0,"TOWNNAME":"佳里區","LI":"安西里","LIN":"7鄰","STREET":"中山路","SECT":" ","MAREA":" ","LANE":" ","ALLEY":" ","HOUSE_NO":"３４７號","E_COORD97":165686.20000000001,"N_COORD97":2562514.8199999998,"ADDRESS":"中山路３４７號","OBJECTID":501799},"geometry":{"x":165686.19999999925,"y":2562514.8200000022}},{"attributes":{"ID":501827,"DIS_CODE":0,"TOWNNAME":"佳里區","LI":"安西里","LIN":"7鄰","STREET":"中山路","SECT":" ","MAREA":" ","LANE":" ","ALLEY":" ","HOUSE_NO":"３４９號","E_COORD97":165686.14000000001,"N_COORD97":2562520.04,"ADDRESS":"中山路３４９號","OBJECTID":501800},"geometry":{"x":165686.14000000153,"y":2562520.0399999991}}]}