{"displayFieldName":"TOWNNAME","fieldAliases":{"ID":"ID","DIS_CODE":"DIS_CODE","TOWNNAME":"TOWNNAME","LI":"LI","LIN":"LIN","STREET":"STREET","SECT":"SECT","MAREA":"MAREA","LANE":"LANE","ALLEY":"ALLEY","HOUSE_NO":"HOUSE_NO","E_COORD97":"E_COORD97","N_COORD97":"N_COORD97","ADDRESS":"ADDRESS","OBJECTID":"OBJECTID"},"geometryType":"esriGeometryPoint","spatialReference":{"wkid":102443,"latestWkid":3826},"fields":[{"name":"ID","type":"esriFieldTypeDouble","alias":"ID"},{"name":"DIS_CODE","type":"esriFieldTypeInteger","alias":"DIS_CODE"},{"name":"TOWNNAME","type":"esriFieldTypeString","alias":"TOWNNAME","length":8},{"name":"LI","type":"esriFieldTypeString","alias":"LI","length":8},{"name":"LIN","type":"esriFieldTypeString","alias":"LIN","length":12},{"name":"STREET","type":"esriFieldTypeString","alias":"STREET","length":20},{"name":"SECT","type":"esriFieldTypeString","alias":"SECT","length":8},{"name":"MAREA","type":"esriFieldTypeString","alias":"MAREA","length":12},{"name":"LANE","type":"esriFieldTypeString","alias":"LANE","length":10},{"name":"ALLEY","type":"esriFieldTypeString","alias":"ALLEY","length":10},{"name":"HOUSE_NO","type":"esriFieldTypeString","alias":"HOUSE_NO","length":20},{"name":"E_COORD97","type":"esriFieldTypeDouble","alias":"E_COORD97"},{"name":"N_COORD97","type":"esriFieldTypeDouble","alias":"N_COORD97"},{"name":"ADDRESS","type":"esriFieldTypeString","alias":"ADDRESS","length":50},{"name":"OBJECTID","type":"esriFieldTypeOID","alias":"OBJECTID"}],"features":[{"attributes":{"ID":221002,"DIS_CODE":0,"TOWNNAME":"下營區","LI":"大屯里","LIN":"3鄰","STREET":" ","SECT":" ","MAREA":"大屯寮","LANE":" ","ALLEY":" ","HOUSE_NO":"２３之２號","E_COORD97":172099.94,"N_COORD97":2570463.7599999998,"ADDRESS":"大屯寮２３之２號","OBJECTID":221001},"geometry":{"x":172099.94000000134,"y":2570463.7600000035}},{"attributes":{"ID":221003,"DIS_CODE":0,"TOWNNAME":"下營區","LI":"大屯里","LIN":"3鄰","STREET":" ","SECT":" ","MAREA":"大屯寮","LANE":" ","ALLEY":" ","HOUSE_NO":"２４號之１","E_COORD97":172068.75,"N_COORD97":2570467.1699999999,"ADDRESS":"大屯寮２４號之１","OBJECTID":221002},"geometry":{"x":172068.75000000093,"y":2570467.1699999999}},{"attributes":{"ID":221004,"DIS_CODE":0,"TOWNNAME":"下營區","LI":"大屯里","LIN":"3鄰","STREET":" ","SECT":" ","MAREA":"大屯寮","LANE":" ","ALLEY":" ","HOUSE_NO":"２６號之１０","E_COORD97":172001.31,"N_COORD97":2570293.1099999999,"ADDRESS":"大屯寮２６號之１０","OBJECTID":221003},"geometry":{"x":172001.31000000145,"y":2570293.1100000013}},{"attributes":{"ID":221005,"DIS_CODE":0,"TOWNNAME":"中西區","LI":"仙草里","LIN":"9鄰","STREET":"南寧街","SECT":" ","MAREA":" ","LANE":"７１巷","ALLEY":" ","HOUSE_NO":"２７號五樓","E_COORD97":167832.57999999999,"N_COORD97":2542764.6600000001,"ADDRESS":"南寧街７１巷２７號五樓","OBJECTID":221004},"geometry":{"x":167832.58000000007,"y":2542764.6600000001}},{"attributes":{"ID":221006,"DIS_CODE":0,"TOWNNAME":"新市區","LI":"新市里","LIN":"28鄰","STREET":"復興路","SECT":" ","MAREA":" ","LANE":" ","ALLEY":" ","HOUSE_NO":"３２號","E_COORD97":177846.07000000001,"N_COORD97":2553375.0299999998,"ADDRESS":"復興路３２號","OBJECTID":221005},"geometry":{"x":177846.0700000003,"y":2553375.0300000012}},{"attributes":{"ID":221007,"DIS_CODE":0,"TOWNNAME":"中西區","LI":"仙草里","LIN":"9鄰","STREET":"南寧街","SECT":" ","MAREA":" ","LANE":"７１巷","ALLEY":" ","HOUSE_NO":"２７號四樓","E_COORD97":167832.57999999999,"N_COORD97":2542764.6600000001,"ADDRESS":"南寧街７１巷２７號四樓","OBJECTID":221006},"geometry":{"x":167832.58000000007,"y":2542764.6600000001}},{"attributes":{"ID":221008,"DIS_CODE":0,"TOWNNAME":"中西區","LI":"天后里","LIN":"1鄰","STREET":"永福路","SECT":"二段","MAREA":" ","LANE":" ","ALLEY":" ","HOUSE_NO":"２１１號","E_COORD97":168174.48000000001,"N_COORD97":2544058.0699999998,"ADDRESS":"永福路二段２１１號","OBJECTID":221007},"geometry":{"x":168174.48000000045,"y":2544058.070000004}},{"attributes":{"ID":221009,"DIS_CODE":0,"TOWNNAME":"中西區","LI":"法華里","LIN":"1鄰","STREET":"府連路","SECT":" ","MAREA":" ","LANE":" ","ALLEY":" ","HOUSE_NO":"１２３號","E_COORD97":169055.19,"N_COORD97":2542732.6099999999,"ADDRESS":"府連路１２３號","OBJECTID":221008},"geometry":{"x":169055.19000000134,"y":2542732.6100000013}},{"attributes":{"ID":221010,"DIS_CODE":0,"TOWNNAME":"新市區","LI":"新市里","LIN":"28鄰","STREET":"復興路","SECT":" ","MAREA":" ","LANE":" ","ALLEY":" ","HOUSE_NO":"４２號","E_COORD97":177828.26000000001,"N_COORD97":2553427.0299999998,"ADDRESS":"復興路４２號","OBJECTID":221009},"geometry":{"x":177828.26000000071,"y":2553427.0299999993}},{"attributes":{"ID":221011,"DIS_CODE":0,"TOWNNAME":"新市區","LI":"大社里","LIN":"28鄰","STREET":" ","SECT":" ","MAREA":"大社","LANE":" ","ALLEY":" ","HOUSE_NO":"９２５之３號","E_COORD97":179999.37,"N_COORD97":2554096.7999999998,"ADDRESS":"大社９２５之３號","OBJECTID":221010},"geometry":{"x":179999.37000000197,"y":2554096.8000000026}},{"attributes":{"ID":221012,"DIS_CODE":0,"TOWNNAME":"新市區","LI":"大社里","LIN":"28鄰","STREET":" ","SECT":" ","MAREA":"大社","LANE":" ","ALLEY":" ","HOUSE_NO":"９２９號之５","E_COORD97":180049.79999999999,"N_COORD97":2554064.2999999998,"ADDRESS":"大社９２９號之５","OBJECTID":221011},"geometry":{"x":180049.79999999981,"y":2554064.3000000007}},{"attributes":{"ID":221013,"DIS_CODE":0,"TOWNNAME":"新市區","LI":"大社里","LIN":"28鄰","STREET":" ","SECT":" ","MAREA":"大社","LANE":" ","ALLEY":" ","HOUSE_NO":"９２１號之１","E_COORD97":180042.70000000001,"N_COORD97":2553950.0499999998,"ADDRESS":"大社９２１號之１","OBJECTID":221012},"geometry":{"x":180042.70000000019,"y":2553950.0500000007}},{"attributes":{"ID":221014,"DIS_CODE":0,"TOWNNAME":"新市區","LI":"大社里","LIN":"28鄰","STREET":" ","SECT":" ","MAREA":"大社","LANE":" ","ALLEY":" ","HOUSE_NO":"９２１號之５","E_COORD97":180034.14000000001,"N_COORD97":2553973.0499999998,"ADDRESS":"大社９２１號之５","OBJECTID":221013},"geometry":{"x":180034.13999999873,"y":2553973.0500000026}},{"attributes":{"ID":221015,"DIS_CODE":0,"TOWNNAME":"新市區","LI":"大社里","LIN":"28鄰","STREET":" ","SECT":" ","MAREA":"大社","LANE":" ","ALLEY":" ","HOUSE_NO":"９２１號之３","E_COORD97":180038.29000000001,"N_COORD97":2553961.7999999998,"ADDRESS":"大社９２１號之３","OBJECTID":221014},"geometry":{"x":180038.29000000004,"y":2553961.8000000026}},{"attributes":{"ID":221016,"DIS_CODE":0,"TOWNNAME":"永康區","LI":"復華里","LIN":"9鄰","STREET":"復國二路","SECT":" ","MAREA":" ","LANE":"２１５巷","ALLEY":" ","HOUSE_NO":"３６號八樓之１","E_COORD97":172910.41,"N_COORD97":2546067.8500000001,"ADDRESS":"復國二路２１５巷３６號八樓之１","OBJECTID":221015},"geometry":{"x":172910.41000000108,"y":2546067.8499999996}},{"attributes":{"ID":221017,"DIS_CODE":0,"TOWNNAME":"永康區","LI":"復華里","LIN":"9鄰","STREET":"復國二路","SECT":" ","MAREA":" ","LANE":"２１５巷","ALLEY":" ","HOUSE_NO":"３０號七樓之２","E_COORD97":172918.38,"N_COORD97":2546062.6000000001,"ADDRESS":"復國二路２１５巷３０號七樓之２","OBJECTID":221016},"geometry":{"x":172918.38000000082,"y":2546062.5999999996}},{"attributes":{"ID":221018,"DIS_CODE":0,"TOWNNAME":"永康區","LI":"復華里","LIN":"9鄰","STREET":"復國二路","SECT":" ","MAREA":" ","LANE":"２１５巷","ALLEY":" ","HOUSE_NO":"３２號六樓之１","E_COORD97":172914,"N_COORD97":2546065.1000000001,"ADDRESS":"復國二路２１５巷３２號六樓之１","OBJECTID":221017},"geometry":{"x":172914.00000000186,"y":2546065.1000000015}},{"attributes":{"ID":221019,"DIS_CODE":0,"TOWNNAME":"中西區","LI":"建國里","LIN":"9鄰","STREET":"民生路","SECT":"一段","MAREA":" ","LANE":"２０５巷","ALLEY":" ","HOUSE_NO":"７號二樓之１","E_COORD97":167935.51999999999,"N_COORD97":2543829.8300000001,"ADDRESS":"民生路一段２０５巷７號二樓之１","OBJECTID":221018},"geometry":{"x":167935.52000000048,"y":2543829.8300000019}},{"attributes":{"ID":221020,"DIS_CODE":0,"TOWNNAME":"中西區","LI":"建國里","LIN":"9鄰","STREET":"民生路","SECT":"一段","MAREA":" ","LANE":"２０５巷","ALLEY":" ","HOUSE_NO":"７號二樓之２","E_COORD97":167938.67000000001,"N_COORD97":2543828.5499999998,"ADDRESS":"民生路一段２０５巷７號二樓之２","OBJECTID":221019},"geometry":{"x":167938.66999999993,"y":2543828.5500000026}},{"attributes":{"ID":221021,"DIS_CODE":0,"TOWNNAME":"東區","LI":"大智里","LIN":"28鄰","STREET":"德東街","SECT":" ","MAREA":" ","LANE":" ","ALLEY":" ","HOUSE_NO":"２６７號","E_COORD97":171463.20000000001,"N_COORD97":2540262.6200000001,"ADDRESS":"德東街２６７號","OBJECTID":221020},"geometry":{"x":171463.20000000019,"y":2540262.6200000029}},{"attributes":{"ID":221022,"DIS_CODE":0,"TOWNNAME":"東區","LI":"大智里","LIN":"28鄰","STREET":"德東街","SECT":" ","MAREA":" ","LANE":" ","ALLEY":" ","HOUSE_NO":"２６９號","E_COORD97":171467.48999999999,"N_COORD97":2540265.1800000002,"ADDRESS":"德東街２６９號","OBJECTID":221021},"geometry":{"x":171467.49000000115,"y":2540265.1799999997}},{"attributes":{"ID":221023,"DIS_CODE":0,"TOWNNAME":"東區","LI":"大智里","LIN":"28鄰","STREET":"德東街","SECT":" ","MAREA":" ","LANE":" ","ALLEY":" ","HOUSE_NO":"２７１號","E_COORD97":171471.94,"N_COORD97":2540262.4500000002,"ADDRESS":"德東街２７１號","OBJECTID":221022},"geometry":{"x":171471.94000000041,"y":2540262.4499999993}},{"attributes":{"ID":221024,"DIS_CODE":0,"TOWNNAME":"東區","LI":"大智里","LIN":"28鄰","STREET":"德東街","SECT":" ","MAREA":" ","LANE":" ","ALLEY":" ","HOUSE_NO":"２７２號","E_COORD97":171486.64000000001,"N_COORD97":2540245.7000000002,"ADDRESS":"德東街２７２號","OBJECTID":221023},"geometry":{"x":171486.63999999966,"y":2540245.7000000011}},{"attributes":{"ID":221025,"DIS_CODE":0,"TOWNNAME":"中西區","LI":"建國里","LIN":"9鄰","STREET":"民生路","SECT":"一段","MAREA":" ","LANE":"２０５巷","ALLEY":" ","HOUSE_NO":"７號二樓之３","E_COORD97":167942.25,"N_COORD97":2543826.9700000002,"ADDRESS":"民生路一段２０５巷７號二樓之３","OBJECTID":221024},"geometry":{"x":167942.25000000093,"y":2543826.9700000007}},{"attributes":{"ID":221026,"DIS_CODE":0,"TOWNNAME":"中西區","LI":"建國里","LIN":"9鄰","STREET":"民生路","SECT":"一段","MAREA":" ","LANE":"２０５巷","ALLEY":" ","HOUSE_NO":"７號二樓之４","E_COORD97":167946.82000000001,"N_COORD97":2543824.1200000001,"ADDRESS":"民生路一段２０５巷７號二樓之４","OBJECTID":221025},"geometry":{"x":167946.8200000003,"y":2543824.120000001}},{"attributes":{"ID":221027,"DIS_CODE":0,"TOWNNAME":"中西區","LI":"建國里","LIN":"9鄰","STREET":"民生路","SECT":"一段","MAREA":" ","LANE":"２０５巷","ALLEY":" ","HOUSE_NO":"７號二樓之５","E_COORD97":167951.69,"N_COORD97":2543822.1200000001,"ADDRESS":"民生路一段２０５巷７號二樓之５","OBJECTID":221026},"geometry":{"x":167951.69000000134,"y":2543822.1200000029}},{"attributes":{"ID":221028,"DIS_CODE":0,"TOWNNAME":"中西區","LI":"建國里","LIN":"9鄰","STREET":"民生路","SECT":"一段","MAREA":" ","LANE":"２０５巷","ALLEY":" ","HOUSE_NO":"７號二樓之６","E_COORD97":167955.12,"N_COORD97":2543820.3999999999,"ADDRESS":"民生路一段２０５巷７號二樓之６","OBJECTID":221027},"geometry":{"x":167955.12000000104,"y":2543820.4000000004}},{"attributes":{"ID":221029,"DIS_CODE":0,"TOWNNAME":"中西區","LI":"建國里","LIN":"9鄰","STREET":"民生路","SECT":"一段","MAREA":" ","LANE":"２０５巷","ALLEY":" ","HOUSE_NO":"７號二樓之７","E_COORD97":167955.12,"N_COORD97":2543820.3999999999,"ADDRESS":"民生路一段２０５巷７號二樓之７","OBJECTID":221028},"geometry":{"x":167955.12000000104,"y":2543820.4000000004}},{"attributes":{"ID":221030,"DIS_CODE":0,"TOWNNAME":"中西區","LI":"建國里","LIN":"9鄰","STREET":"民生路","SECT":"一段","MAREA":" ","LANE":"２０５巷","ALLEY":" ","HOUSE_NO":"７號四樓之４","E_COORD97":167946.82000000001,"N_COORD97":2543824.1200000001,"ADDRESS":"民生路一段２０５巷７號四樓之４","OBJECTID":221029},"geometry":{"x":167946.8200000003,"y":2543824.120000001}},{"attributes":{"ID":221031,"DIS_CODE":0,"TOWNNAME":"中西區","LI":"建國里","LIN":"9鄰","STREET":"民生路","SECT":"一段","MAREA":" ","LANE":"２０５巷","ALLEY":" ","HOUSE_NO":"７號四樓之５","E_COORD97":167951.69,"N_COORD97":2543822.1200000001,"ADDRESS":"民生路一段２０５巷７號四樓之５","OBJECTID":221030},"geometry":{"x":167951.69000000134,"y":2543822.1200000029}},{"attributes":{"ID":221032,"DIS_CODE":0,"TOWNNAME":"中西區","LI":"建國里","LIN":"9鄰","STREET":"民生路","SECT":"一段","MAREA":" ","LANE":"２０５巷","ALLEY":" ","HOUSE_NO":"７號四樓之６","E_COORD97":167955.12,"N_COORD97":2543820.3999999999,"ADDRESS":"民生路一段２０５巷７號四樓之６","OBJECTID":221031},"geometry":{"x":167955.12000000104,"y":2543820.4000000004}},{"attributes":{"ID":221033,"DIS_CODE":0,"TOWNNAME":"仁德區","LI":"太子里","LIN":"9鄰","STREET":"太子路","SECT":" ","MAREA":" ","LANE":"１５０巷","ALLEY":" ","HOUSE_NO":"２２號","E_COORD97":174439.39000000001,"N_COORD97":2543587,"ADDRESS":"太子路１５０巷２２號","OBJECTID":221032},"geometry":{"x":174439.38999999966,"y":2543587.0000000037}},{"attributes":{"ID":221034,"DIS_CODE":0,"TOWNNAME":"永康區","LI":"新樹里","LIN":"9鄰","STREET":"富強路","SECT":"二段","MAREA":" ","LANE":"５６巷","ALLEY":" ","HOUSE_NO":"９０號","E_COORD97":175784.63,"N_COORD97":2547111.5499999998,"ADDRESS":"富強路二段５６巷９０號","OBJECTID":221033},"geometry":{"x":175784.62999999896,"y":2547111.5500000026}},{"attributes":{"ID":221035,"DIS_CODE":0,"TOWNNAME":"永康區","LI":"復國里","LIN":"9鄰","STREET":"復國一路","SECT":" ","MAREA":" ","LANE":"２１０巷","ALLEY":" ","HOUSE_NO":"６１號","E_COORD97":172834.72,"N_COORD97":2545210.4300000002,"ADDRESS":"復國一路２１０巷６１號","OBJECTID":221034},"geometry":{"x":172834.72000000067,"y":2545210.4299999997}},{"attributes":{"ID":221036,"DIS_CODE":0,"TOWNNAME":"永康區","LI":"復國里","LIN":"9鄰","STREET":"復國一路","SECT":" ","MAREA":" ","LANE":"２１０巷","ALLEY":" ","HOUSE_NO":"５９號","E_COORD97":172830.47,"N_COORD97":2545210.4300000002,"ADDRESS":"復國一路２１０巷５９號","OBJECTID":221035},"geometry":{"x":172830.46999999974,"y":2545210.4299999997}},{"attributes":{"ID":221037,"DIS_CODE":0,"TOWNNAME":"永康區","LI":"復國里","LIN":"9鄰","STREET":"復國一路","SECT":" ","MAREA":" ","LANE":"２１０巷","ALLEY":" ","HOUSE_NO":"６３號","E_COORD97":172838.81,"N_COORD97":2545209.9300000002,"ADDRESS":"復國一路２１０巷６３號","OBJECTID":221036},"geometry":{"x":172838.81000000052,"y":2545209.9299999997}},{"attributes":{"ID":221038,"DIS_CODE":0,"TOWNNAME":"永康區","LI":"大橋里","LIN":"28鄰","STREET":"中華路","SECT":" ","MAREA":" ","LANE":" ","ALLEY":" ","HOUSE_NO":"６１０號","E_COORD97":171137.10000000001,"N_COORD97":2546045.9900000002,"ADDRESS":"中華路６１０號","OBJECTID":221037},"geometry":{"x":171137.10000000056,"y":2546045.9900000021}},{"attributes":{"ID":221039,"DIS_CODE":0,"TOWNNAME":"永康區","LI":"復國里","LIN":"9鄰","STREET":"復國一路","SECT":" ","MAREA":" ","LANE":"２１０巷","ALLEY":" ","HOUSE_NO":"３９號","E_COORD97":172789.92000000001,"N_COORD97":2545213.1699999999,"ADDRESS":"復國一路２１０巷３９號","OBJECTID":221038},"geometry":{"x":172789.92000000086,"y":2545213.1700000037}},{"attributes":{"ID":221040,"DIS_CODE":0,"TOWNNAME":"永康區","LI":"復國里","LIN":"9鄰","STREET":"復國一路","SECT":" ","MAREA":" ","LANE":"２１０巷","ALLEY":" ","HOUSE_NO":"１號","E_COORD97":172751.54000000001,"N_COORD97":2545216.8599999999,"ADDRESS":"復國一路２１０巷１號","OBJECTID":221039},"geometry":{"x":172751.54000000097,"y":2545216.8599999994}},{"attributes":{"ID":221041,"DIS_CODE":0,"TOWNNAME":"楠西區","LI":"照興里","LIN":"16鄰","STREET":" ","SECT":" ","MAREA":"興南","LANE":" ","ALLEY":" ","HOUSE_NO":"７９號","E_COORD97":196041.07000000001,"N_COORD97":2565216.25,"ADDRESS":"興南７９號","OBJECTID":221040},"geometry":{"x":196041.0700000003,"y":2565216.2500000019}},{"attributes":{"ID":221042,"DIS_CODE":0,"TOWNNAME":"永康區","LI":"復國里","LIN":"9鄰","STREET":"復國一路","SECT":" ","MAREA":" ","LANE":"２１０巷","ALLEY":" ","HOUSE_NO":"９號","E_COORD97":172769.82000000001,"N_COORD97":2545216.5600000001,"ADDRESS":"復國一路２１０巷９號","OBJECTID":221041},"geometry":{"x":172769.82000000216,"y":2545216.5600000005}},{"attributes":{"ID":221043,"DIS_CODE":0,"TOWNNAME":"永康區","LI":"復國里","LIN":"9鄰","STREET":"復國一路","SECT":" ","MAREA":" ","LANE":"２１０巷","ALLEY":" ","HOUSE_NO":"２６號","E_COORD97":172831.63,"N_COORD97":2545194.3799999999,"ADDRESS":"復國一路２１０巷２６號","OBJECTID":221042},"geometry":{"x":172831.63000000175,"y":2545194.3800000008}},{"attributes":{"ID":221044,"DIS_CODE":0,"TOWNNAME":"永康區","LI":"復國里","LIN":"9鄰","STREET":"復國一路","SECT":" ","MAREA":" ","LANE":"２１０巷","ALLEY":" ","HOUSE_NO":"２５號","E_COORD97":172793.75,"N_COORD97":2545250.77,"ADDRESS":"復國一路２１０巷２５號","OBJECTID":221043},"geometry":{"x":172793.75000000186,"y":2545250.7700000014}},{"attributes":{"ID":221045,"DIS_CODE":0,"TOWNNAME":"永康區","LI":"大灣里","LIN":"9鄰","STREET":"大灣路","SECT":" ","MAREA":" ","LANE":"２１８巷","ALLEY":" ","HOUSE_NO":"４９號","E_COORD97":174839.62,"N_COORD97":2545505.6899999999,"ADDRESS":"大灣路２１８巷４９號","OBJECTID":221044},"geometry":{"x":174839.62000000104,"y":2545505.6900000013}},{"attributes":{"ID":221046,"DIS_CODE":0,"TOWNNAME":"永康區","LI":"大橋里","LIN":"9鄰","STREET":"大橋一街","SECT":" ","MAREA":" ","LANE":"２４７巷","ALLEY":" ","HOUSE_NO":"１３８號","E_COORD97":171063.26000000001,"N_COORD97":2547024.4900000002,"ADDRESS":"大橋一街２４７巷１３８號","OBJECTID":221045},"geometry":{"x":171063.26000000071,"y":2547024.4900000002}},{"attributes":{"ID":221047,"DIS_CODE":0,"TOWNNAME":"永康區","LI":"大橋里","LIN":"9鄰","STREET":"大橋一街","SECT":" ","MAREA":" ","LANE":"２４７巷","ALLEY":" ","HOUSE_NO":"９４號","E_COORD97":171118.54999999999,"N_COORD97":2546946,"ADDRESS":"大橋一街２４７巷９４號","OBJECTID":221046},"geometry":{"x":171118.55000000075,"y":2546946}},{"attributes":{"ID":221048,"DIS_CODE":0,"TOWNNAME":"永康區","LI":"復國里","LIN":"28鄰","STREET":"復華二街","SECT":" ","MAREA":" ","LANE":" ","ALLEY":" ","HOUSE_NO":"３４號","E_COORD97":172583.45999999999,"N_COORD97":2545364.27,"ADDRESS":"復華二街３４號","OBJECTID":221047},"geometry":{"x":172583.45999999996,"y":2545364.2699999977}},{"attributes":{"ID":221049,"DIS_CODE":0,"TOWNNAME":"永康區","LI":"復國里","LIN":"28鄰","STREET":"復華二街","SECT":" ","MAREA":" ","LANE":" ","ALLEY":" ","HOUSE_NO":"１０號","E_COORD97":172686.34,"N_COORD97":2545360.77,"ADDRESS":"復華二街１０號","OBJECTID":221048},"geometry":{"x":172686.34000000078,"y":2545360.7699999996}},{"attributes":{"ID":221050,"DIS_CODE":0,"TOWNNAME":"永康區","LI":"復國里","LIN":"28鄰","STREET":"復華二街","SECT":" ","MAREA":" ","LANE":" ","ALLEY":" ","HOUSE_NO":"２６號","E_COORD97":172615.48000000001,"N_COORD97":2545362.52,"ADDRESS":"復華二街２６號","OBJECTID":221049},"geometry":{"x":172615.48000000045,"y":2545362.5199999996}},{"attributes":{"ID":221051,"DIS_CODE":0,"TOWNNAME":"永康區","LI":"\u25A0行里","LIN":"28鄰","STREET":"中正三街","SECT":" ","MAREA":" ","LANE":" ","ALLEY":" ","HOUSE_NO":"４９２號","E_COORD97":173007.10000000001,"N_COORD97":2548611.25,"ADDRESS":"中正三街４９２號","OBJECTID":221050},"geometry":{"x":173007.09999999963,"y":2548611.2500000019}},{"attributes":{"ID":221052,"DIS_CODE":0,"TOWNNAME":"安南區","LI":"安慶里","LIN":"28鄰","STREET":"怡安路","SECT":"一段","MAREA":" ","LANE":" ","ALLEY":" ","HOUSE_NO":"１６３號","E_COORD97":169232.54999999999,"N_COORD97":2549008.6499999999,"ADDRESS":"怡安路一段１６３號","OBJECTID":221051},"geometry":{"x":169232.54999999981,"y":2549008.6500000022}},{"attributes":{"ID":221053,"DIS_CODE":0,"TOWNNAME":"安南區","LI":"安慶里","LIN":"28鄰","STREET":"怡安路","SECT":"一段","MAREA":" ","LANE":" ","ALLEY":" ","HOUSE_NO":"１６５號","E_COORD97":169228.29999999999,"N_COORD97":2549010.4100000001,"ADDRESS":"怡安路一段１６５號","OBJECTID":221052},"geometry":{"x":169228.30000000168,"y":2549010.410000002}},{"attributes":{"ID":221054,"DIS_CODE":0,"TOWNNAME":"安南區","LI":"安慶里","LIN":"28鄰","STREET":"怡安路","SECT":"一段","MAREA":" ","LANE":" ","ALLEY":" ","HOUSE_NO":"１６７號","E_COORD97":169224.35999999999,"N_COORD97":2549011.1800000002,"ADDRESS":"怡安路一段１６７號","OBJECTID":221053},"geometry":{"x":169224.36000000034,"y":2549011.1800000016}},{"attributes":{"ID":221055,"DIS_CODE":0,"TOWNNAME":"永康區","LI":"大橋里","LIN":"9鄰","STREET":"大橋一街","SECT":" ","MAREA":" ","LANE":"２４７巷","ALLEY":" ","HOUSE_NO":"１３６號","E_COORD97":171065.06,"N_COORD97":2547020.9900000002,"ADDRESS":"大橋一街２４７巷１３６號","OBJECTID":221054},"geometry":{"x":171065.05999999959,"y":2547020.9900000002}},{"attributes":{"ID":221056,"DIS_CODE":0,"TOWNNAME":"永康區","LI":"大橋里","LIN":"9鄰","STREET":"大橋一街","SECT":" ","MAREA":" ","LANE":"２４７巷","ALLEY":" ","HOUSE_NO":"９６號","E_COORD97":171112.60999999999,"N_COORD97":2546947.5,"ADDRESS":"大橋一街２４７巷９６號","OBJECTID":221055},"geometry":{"x":171112.61000000034,"y":2546947.5000000019}},{"attributes":{"ID":221057,"DIS_CODE":0,"TOWNNAME":"永康區","LI":"大橋里","LIN":"9鄰","STREET":"大橋三街","SECT":" ","MAREA":" ","LANE":"２６１巷","ALLEY":" ","HOUSE_NO":"３０號","E_COORD97":171024.06,"N_COORD97":2546963,"ADDRESS":"大橋三街２６１巷３０號","OBJECTID":221056},"geometry":{"x":171024.05999999959,"y":2546963}},{"attributes":{"ID":221058,"DIS_CODE":0,"TOWNNAME":"永康區","LI":"大橋里","LIN":"9鄰","STREET":"大橋一街","SECT":" ","MAREA":" ","LANE":"２４７巷","ALLEY":" ","HOUSE_NO":"１３２號","E_COORD97":171070.25,"N_COORD97":2547013.2400000002,"ADDRESS":"大橋一街２４７巷１３２號","OBJECTID":221057},"geometry":{"x":171070.25000000093,"y":2547013.2400000039}},{"attributes":{"ID":221059,"DIS_CODE":0,"TOWNNAME":"永康區","LI":"大橋里","LIN":"9鄰","STREET":"大橋一街","SECT":" ","MAREA":" ","LANE":"２４７巷","ALLEY":" ","HOUSE_NO":"１５９號","E_COORD97":171044.87,"N_COORD97":2547003.75,"ADDRESS":"大橋一街２４７巷１５９號","OBJECTID":221058},"geometry":{"x":171044.87000000011,"y":2547003.7500000019}},{"attributes":{"ID":221060,"DIS_CODE":0,"TOWNNAME":"永康區","LI":"大橋里","LIN":"9鄰","STREET":"大橋一街","SECT":" ","MAREA":" ","LANE":"２４７巷","ALLEY":" ","HOUSE_NO":"１０２號","E_COORD97":171105,"N_COORD97":2546958,"ADDRESS":"大橋一街２４７巷１０２號","OBJECTID":221059},"geometry":{"x":171105,"y":2546958.0000000019}},{"attributes":{"ID":221061,"DIS_CODE":0,"TOWNNAME":"永康區","LI":"大橋里","LIN":"9鄰","STREET":"大橋一街","SECT":" ","MAREA":" ","LANE":"２４７巷","ALLEY":" ","HOUSE_NO":"１２９號","E_COORD97":171086.47,"N_COORD97":2546956.77,"ADDRESS":"大橋一街２４７巷１２９號","OBJECTID":221060},"geometry":{"x":171086.46999999881,"y":2546956.7699999996}},{"attributes":{"ID":221062,"DIS_CODE":0,"TOWNNAME":"永康區","LI":"大橋里","LIN":"9鄰","STREET":"大橋三街","SECT":" ","MAREA":" ","LANE":"２６１巷","ALLEY":" ","HOUSE_NO":"３６號","E_COORD97":171016.98999999999,"N_COORD97":2546974.2400000002,"ADDRESS":"大橋三街２６１巷３６號","OBJECTID":221061},"geometry":{"x":171016.99000000022,"y":2546974.2400000002}},{"attributes":{"ID":221063,"DIS_CODE":0,"TOWNNAME":"永康區","LI":"大橋里","LIN":"9鄰","STREET":"大橋三街","SECT":" ","MAREA":" ","LANE":"２６１巷","ALLEY":" ","HOUSE_NO":"２８號","E_COORD97":171026.04999999999,"N_COORD97":2546959.3900000001,"ADDRESS":"大橋三街２６１巷２８號","OBJECTID":221062},"geometry":{"x":171026.04999999981,"y":2546959.3900000025}},{"attributes":{"ID":221064,"DIS_CODE":0,"TOWNNAME":"永康區","LI":"大橋里","LIN":"9鄰","STREET":"大橋一街","SECT":" ","MAREA":" ","LANE":"２４７巷","ALLEY":" ","HOUSE_NO":"１４１號","E_COORD97":171069.25,"N_COORD97":2546973.77,"ADDRESS":"大橋一街２４７巷１４１號","OBJECTID":221063},"geometry":{"x":171069.25,"y":2546973.7699999996}},{"attributes":{"ID":221065,"DIS_CODE":0,"TOWNNAME":"永康區","LI":"大橋里","LIN":"9鄰","STREET":"大橋一街","SECT":" ","MAREA":" ","LANE":"２４７巷","ALLEY":" ","HOUSE_NO":"１４９號","E_COORD97":171059.04000000001,"N_COORD97":2546986.98,"ADDRESS":"大橋一街２４７巷１４９號","OBJECTID":221064},"geometry":{"x":171059.04000000004,"y":2546986.9800000004}},{"attributes":{"ID":221066,"DIS_CODE":0,"TOWNNAME":"永康區","LI":"大橋里","LIN":"9鄰","STREET":"大橋一街","SECT":" ","MAREA":" ","LANE":"２４７巷","ALLEY":" ","HOUSE_NO":"１４７號","E_COORD97":171060.92999999999,"N_COORD97":2546984.48,"ADDRESS":"大橋一街２４７巷１４７號","OBJECTID":221065},"geometry":{"x":171060.9299999997,"y":2546984.4799999986}},{"attributes":{"ID":221067,"DIS_CODE":0,"TOWNNAME":"永康區","LI":"大橋里","LIN":"9鄰","STREET":"大橋一街","SECT":" ","MAREA":" ","LANE":"２４７巷","ALLEY":" ","HOUSE_NO":"１４０號","E_COORD97":171060.10000000001,"N_COORD97":2547028.75,"ADDRESS":"大橋一街２４７巷１４０號","OBJECTID":221066},"geometry":{"x":171060.10000000149,"y":2547028.75}},{"attributes":{"ID":221068,"DIS_CODE":0,"TOWNNAME":"永康區","LI":"中興里","LIN":"9鄰","STREET":"忠孝路","SECT":" ","MAREA":" ","LANE":"２３９巷","ALLEY":" ","HOUSE_NO":"２４號","E_COORD97":172022.75,"N_COORD97":2545048.4900000002,"ADDRESS":"忠孝路２３９巷２４號","OBJECTID":221067},"geometry":{"x":172022.75000000093,"y":2545048.4900000039}},{"attributes":{"ID":221069,"DIS_CODE":0,"TOWNNAME":"永康區","LI":"大灣里","LIN":"9鄰","STREET":"大灣路","SECT":" ","MAREA":" ","LANE":"２１８巷","ALLEY":" ","HOUSE_NO":"５１號","E_COORD97":174819.45000000001,"N_COORD97":2545520.1800000002,"ADDRESS":"大灣路２１８巷５１號","OBJECTID":221068},"geometry":{"x":174819.45000000019,"y":2545520.1799999997}},{"attributes":{"ID":221070,"DIS_CODE":0,"TOWNNAME":"永康區","LI":"大灣里","LIN":"9鄰","STREET":"大灣路","SECT":" ","MAREA":" ","LANE":"２１８巷","ALLEY":" ","HOUSE_NO":"２７號","E_COORD97":174864.51000000001,"N_COORD97":2545512,"ADDRESS":"大灣路２１８巷２７號","OBJECTID":221069},"geometry":{"x":174864.50999999978,"y":2545512}},{"attributes":{"ID":221071,"DIS_CODE":0,"TOWNNAME":"永康區","LI":"大灣里","LIN":"9鄰","STREET":"大灣路","SECT":" ","MAREA":" ","LANE":"２１８巷","ALLEY":" ","HOUSE_NO":"４１號","E_COORD97":174860.79999999999,"N_COORD97":2545477.6800000002,"ADDRESS":"大灣路２１８巷４１號","OBJECTID":221070},"geometry":{"x":174860.79999999981,"y":2545477.6800000016}},{"attributes":{"ID":221072,"DIS_CODE":0,"TOWNNAME":"永康區","LI":"大灣里","LIN":"9鄰","STREET":"大灣路","SECT":" ","MAREA":" ","LANE":"２１８巷","ALLEY":" ","HOUSE_NO":"４３號","E_COORD97":174824.81,"N_COORD97":2545477.25,"ADDRESS":"大灣路２１８巷４３號","OBJECTID":221071},"geometry":{"x":174824.80999999959,"y":2545477.2500000037}},{"attributes":{"ID":221073,"DIS_CODE":0,"TOWNNAME":"安南區","LI":"安慶里","LIN":"28鄰","STREET":"怡安路","SECT":"一段","MAREA":" ","LANE":" ","ALLEY":" ","HOUSE_NO":"１６９號","E_COORD97":169219.54999999999,"N_COORD97":2549012.3100000001,"ADDRESS":"怡安路一段１６９號","OBJECTID":221072},"geometry":{"x":169219.54999999981,"y":2549012.3100000005}},{"attributes":{"ID":221074,"DIS_CODE":0,"TOWNNAME":"永康區","LI":"復國里","LIN":"9鄰","STREET":"復國一路","SECT":" ","MAREA":" ","LANE":"２１０巷","ALLEY":" ","HOUSE_NO":"２２號","E_COORD97":172816.20999999999,"N_COORD97":2545195.0600000001,"ADDRESS":"復國一路２１０巷２２號","OBJECTID":221073},"geometry":{"x":172816.21000000089,"y":2545195.0600000024}},{"attributes":{"ID":221075,"DIS_CODE":0,"TOWNNAME":"東區","LI":"中西里","LIN":"28鄰","STREET":"東寧路","SECT":" ","MAREA":" ","LANE":" ","ALLEY":" ","HOUSE_NO":"１４０號","E_COORD97":170310.03,"N_COORD97":2543538.6600000001,"ADDRESS":"東寧路１４０號","OBJECTID":221074},"geometry":{"x":170310.03000000026,"y":2543538.6600000039}},{"attributes":{"ID":221076,"DIS_CODE":0,"TOWNNAME":"東區","LI":"仁和里","LIN":"9鄰","STREET":"仁和路","SECT":" ","MAREA":" ","LANE":"１１１巷","ALLEY":" ","HOUSE_NO":"１２８號","E_COORD97":171737.07000000001,"N_COORD97":2541288.1600000001,"ADDRESS":"仁和路１１１巷１２８號","OBJECTID":221075},"geometry":{"x":171737.0700000003,"y":2541288.160000002}},{"attributes":{"ID":221077,"DIS_CODE":0,"TOWNNAME":"安南區","LI":"安慶里","LIN":"28鄰","STREET":"怡安路","SECT":"一段","MAREA":" ","LANE":" ","ALLEY":" ","HOUSE_NO":"１７３號","E_COORD97":169209.48999999999,"N_COORD97":2549014.6400000001,"ADDRESS":"怡安路一段１７３號","OBJECTID":221076},"geometry":{"x":169209.49000000115,"y":2549014.6400000043}},{"attributes":{"ID":221078,"DIS_CODE":0,"TOWNNAME":"安南區","LI":"安慶里","LIN":"28鄰","STREET":"怡安路","SECT":"一段","MAREA":" ","LANE":" ","ALLEY":" ","HOUSE_NO":"１７５號","E_COORD97":169205.66,"N_COORD97":2549015.6600000001,"ADDRESS":"怡安路一段１７５號","OBJECTID":221077},"geometry":{"x":169205.65999999922,"y":2549015.6600000001}},{"attributes":{"ID":221079,"DIS_CODE":0,"TOWNNAME":"安南區","LI":"安慶里","LIN":"28鄰","STREET":"怡安路","SECT":"一段","MAREA":" ","LANE":" ","ALLEY":" ","HOUSE_NO":"１７７號","E_COORD97":169201.51999999999,"N_COORD97":2549016.8999999999,"ADDRESS":"怡安路一段１７７號","OBJECTID":221078},"geometry":{"x":169201.52000000048,"y":2549016.9000000022}},{"attributes":{"ID":221080,"DIS_CODE":0,"TOWNNAME":"安南區","LI":"安慶里","LIN":"28鄰","STREET":"怡安路","SECT":"一段","MAREA":" ","LANE":" ","ALLEY":" ","HOUSE_NO":"１７９號","E_COORD97":169197.14000000001,"N_COORD97":2549018.0800000001,"ADDRESS":"怡安路一段１７９號","OBJECTID":221079},"geometry":{"x":169197.1400000006,"y":2549018.0800000038}},{"attributes":{"ID":221081,"DIS_CODE":0,"TOWNNAME":"東區","LI":"仁和里","LIN":"9鄰","STREET":"仁和路","SECT":" ","MAREA":" ","LANE":"１１１巷","ALLEY":" ","HOUSE_NO":"１３０號","E_COORD97":171744.41,"N_COORD97":2541286.0299999998,"ADDRESS":"仁和路１１１巷１３０號","OBJECTID":221080},"geometry":{"x":171744.41000000015,"y":2541286.0299999993}},{"attributes":{"ID":221082,"DIS_CODE":0,"TOWNNAME":"東區","LI":"仁和里","LIN":"9鄰","STREET":"仁和路","SECT":" ","MAREA":" ","LANE":"１１１巷","ALLEY":" ","HOUSE_NO":"１３２號","E_COORD97":171747.95999999999,"N_COORD97":2541285.0899999999,"ADDRESS":"仁和路１１１巷１３２號","OBJECTID":221081},"geometry":{"x":171747.96000000183,"y":2541285.0900000017}},{"attributes":{"ID":221083,"DIS_CODE":0,"TOWNNAME":"東區","LI":"仁和里","LIN":"9鄰","STREET":"仁和路","SECT":" ","MAREA":" ","LANE":"１１１巷","ALLEY":" ","HOUSE_NO":"１３４號","E_COORD97":171752.22,"N_COORD97":2541284.8500000001,"ADDRESS":"仁和路１１１巷１３４號","OBJECTID":221082},"geometry":{"x":171752.21999999974,"y":2541284.8499999996}},{"attributes":{"ID":221084,"DIS_CODE":0,"TOWNNAME":"永康區","LI":"大橋里","LIN":"9鄰","STREET":"大橋一街","SECT":" ","MAREA":" ","LANE":"２４７巷","ALLEY":" ","HOUSE_NO":"１００號","E_COORD97":171107.5,"N_COORD97":2546954.75,"ADDRESS":"大橋一街２４７巷１００號","OBJECTID":221083},"geometry":{"x":171107.50000000093,"y":2546954.75}},{"attributes":{"ID":221085,"DIS_CODE":0,"TOWNNAME":"永康區","LI":"大橋里","LIN":"9鄰","STREET":"大橋一街","SECT":" ","MAREA":" ","LANE":"２４７巷","ALLEY":" ","HOUSE_NO":"９８號","E_COORD97":171108.79999999999,"N_COORD97":2546951.25,"ADDRESS":"大橋一街２４７巷９８號","OBJECTID":221084},"geometry":{"x":171108.80000000075,"y":2546951.25}},{"attributes":{"ID":221086,"DIS_CODE":0,"TOWNNAME":"永康區","LI":"大橋里","LIN":"9鄰","STREET":"大橋三街","SECT":" ","MAREA":" ","LANE":"２６１巷","ALLEY":" ","HOUSE_NO":"２０號","E_COORD97":171032.51999999999,"N_COORD97":2546943.6899999999,"ADDRESS":"大橋三街２６１巷２０號","OBJECTID":221085},"geometry":{"x":171032.52000000048,"y":2546943.6899999995}},{"attributes":{"ID":221087,"DIS_CODE":0,"TOWNNAME":"永康區","LI":"大灣里","LIN":"9鄰","STREET":"大灣路","SECT":" ","MAREA":" ","LANE":"２１８巷","ALLEY":" ","HOUSE_NO":"４３號之３","E_COORD97":174864.42000000001,"N_COORD97":2545452.29,"ADDRESS":"大灣路２１８巷４３號之３","OBJECTID":221086},"geometry":{"x":174864.42000000086,"y":2545452.2900000028}},{"attributes":{"ID":221088,"DIS_CODE":0,"TOWNNAME":"永康區","LI":"大灣里","LIN":"9鄰","STREET":"大灣路","SECT":" ","MAREA":" ","LANE":"２１８巷","ALLEY":" ","HOUSE_NO":"４３號之２","E_COORD97":174859.51000000001,"N_COORD97":2545453.54,"ADDRESS":"大灣路２１８巷４３號之２","OBJECTID":221087},"geometry":{"x":174859.50999999978,"y":2545453.5399999972}},{"attributes":{"ID":221089,"DIS_CODE":0,"TOWNNAME":"中西區","LI":"天后里","LIN":"7鄰","STREET":"新美街","SECT":" ","MAREA":" ","LANE":" ","ALLEY":" ","HOUSE_NO":"９７號","E_COORD97":168050.12,"N_COORD97":2544108.1400000001,"ADDRESS":"新美街９７號","OBJECTID":221088},"geometry":{"x":168050.12000000104,"y":2544108.1400000006}},{"attributes":{"ID":221090,"DIS_CODE":0,"TOWNNAME":"永康區","LI":"五王里","LIN":"28鄰","STREET":"五福街","SECT":" ","MAREA":" ","LANE":" ","ALLEY":" ","HOUSE_NO":"１８２號","E_COORD97":171654.29999999999,"N_COORD97":2546039.25,"ADDRESS":"五福街１８２號","OBJECTID":221089},"geometry":{"x":171654.30000000075,"y":2546039.25}},{"attributes":{"ID":221091,"DIS_CODE":0,"TOWNNAME":"永康區","LI":"大灣里","LIN":"9鄰","STREET":"大灣路","SECT":" ","MAREA":" ","LANE":"２１８巷","ALLEY":" ","HOUSE_NO":"３９號","E_COORD97":174872.82999999999,"N_COORD97":2545475.2599999998,"ADDRESS":"大灣路２１８巷３９號","OBJECTID":221090},"geometry":{"x":174872.83000000007,"y":2545475.2599999998}},{"attributes":{"ID":221092,"DIS_CODE":0,"TOWNNAME":"永康區","LI":"大橋里","LIN":"9鄰","STREET":"大橋三街","SECT":" ","MAREA":" ","LANE":"２６１巷","ALLEY":" ","HOUSE_NO":"３２號","E_COORD97":171021.89999999999,"N_COORD97":2546966.75,"ADDRESS":"大橋三街２６１巷３２號","OBJECTID":221091},"geometry":{"x":171021.9000000013,"y":2546966.7500000019}},{"attributes":{"ID":221093,"DIS_CODE":0,"TOWNNAME":"永康區","LI":"大灣里","LIN":"9鄰","STREET":"大灣路","SECT":" ","MAREA":" ","LANE":"２１８巷","ALLEY":" ","HOUSE_NO":"５７號","E_COORD97":174850.06,"N_COORD97":2545527.8199999998,"ADDRESS":"大灣路２１８巷５７號","OBJECTID":221092},"geometry":{"x":174850.05999999959,"y":2545527.820000004}},{"attributes":{"ID":221094,"DIS_CODE":0,"TOWNNAME":"永康區","LI":"大灣里","LIN":"9鄰","STREET":"大灣路","SECT":" ","MAREA":" ","LANE":"２１８巷","ALLEY":" ","HOUSE_NO":"４７號","E_COORD97":174821.38,"N_COORD97":2545505.6899999999,"ADDRESS":"大灣路２１８巷４７號","OBJECTID":221093},"geometry":{"x":174821.37999999989,"y":2545505.6900000013}},{"attributes":{"ID":221095,"DIS_CODE":0,"TOWNNAME":"永康區","LI":"大橋里","LIN":"9鄰","STREET":"大橋三街","SECT":" ","MAREA":" ","LANE":"２６１巷","ALLEY":" ","HOUSE_NO":"２４號","E_COORD97":171027.79000000001,"N_COORD97":2546950.2799999998,"ADDRESS":"大橋三街２６１巷２４號","OBJECTID":221094},"geometry":{"x":171027.79000000097,"y":2546950.2799999993}},{"attributes":{"ID":221096,"DIS_CODE":0,"TOWNNAME":"永康區","LI":"大橋里","LIN":"9鄰","STREET":"大橋一街","SECT":" ","MAREA":" ","LANE":"２４７巷","ALLEY":" ","HOUSE_NO":"１２８號","E_COORD97":171085.32000000001,"N_COORD97":2547028.3900000001,"ADDRESS":"大橋一街２４７巷１２８號","OBJECTID":221095},"geometry":{"x":171085.32000000123,"y":2547028.3900000006}},{"attributes":{"ID":221097,"DIS_CODE":0,"TOWNNAME":"永康區","LI":"大灣里","LIN":"9鄰","STREET":"大灣路","SECT":" ","MAREA":" ","LANE":"２１８巷","ALLEY":" ","HOUSE_NO":"４３號之１","E_COORD97":174854.26999999999,"N_COORD97":2545454.79,"ADDRESS":"大灣路２１８巷４３號之１","OBJECTID":221096},"geometry":{"x":174854.26999999955,"y":2545454.7899999991}},{"attributes":{"ID":221098,"DIS_CODE":0,"TOWNNAME":"永康區","LI":"大灣里","LIN":"9鄰","STREET":"大灣路","SECT":" ","MAREA":" ","LANE":"２１８巷","ALLEY":" ","HOUSE_NO":"５３號","E_COORD97":174832.70000000001,"N_COORD97":2545518.5499999998,"ADDRESS":"大灣路２１８巷５３號","OBJECTID":221097},"geometry":{"x":174832.70000000112,"y":2545518.5500000007}},{"attributes":{"ID":221099,"DIS_CODE":0,"TOWNNAME":"永康區","LI":"王行里","LIN":"9鄰","STREET":"王行路","SECT":" ","MAREA":" ","LANE":"３８８巷","ALLEY":" ","HOUSE_NO":"２２號","E_COORD97":175492.16,"N_COORD97":2548600.75,"ADDRESS":"王行路３８８巷２２號","OBJECTID":221098},"geometry":{"x":175492.16000000108,"y":2548600.7500000019}},{"attributes":{"ID":221100,"DIS_CODE":0,"TOWNNAME":"安南區","LI":"安富里","LIN":"9鄰","STREET":"郡安路","SECT":"五段","MAREA":" ","LANE":"１８４巷","ALLEY":" ","HOUSE_NO":"１０１號","E_COORD97":167532.20000000001,"N_COORD97":2547501.7000000002,"ADDRESS":"郡安路五段１８４巷１０１號","OBJECTID":221099},"geometry":{"x":167532.20000000019,"y":2547501.7000000011}},{"attributes":{"ID":221101,"DIS_CODE":0,"TOWNNAME":"安南區","LI":"安富里","LIN":"9鄰","STREET":"郡安路","SECT":"五段","MAREA":" ","LANE":"１８４巷","ALLEY":" ","HOUSE_NO":"１０３號","E_COORD97":167532.20000000001,"N_COORD97":2547496.71,"ADDRESS":"郡安路五段１８４巷１０３號","OBJECTID":221100},"geometry":{"x":167532.20000000019,"y":2547496.7100000028}},{"attributes":{"ID":221102,"DIS_CODE":0,"TOWNNAME":"安南區","LI":"安富里","LIN":"9鄰","STREET":"郡安路","SECT":"五段","MAREA":" ","LANE":"１８４巷","ALLEY":" ","HOUSE_NO":"１０５號","E_COORD97":167533.85999999999,"N_COORD97":2547492.0499999998,"ADDRESS":"郡安路五段１８４巷１０５號","OBJECTID":221101},"geometry":{"x":167533.86000000127,"y":2547492.0500000007}},{"attributes":{"ID":221103,"DIS_CODE":0,"TOWNNAME":"永康區","LI":"五王里","LIN":"28鄰","STREET":"五福街","SECT":" ","MAREA":" ","LANE":" ","ALLEY":" ","HOUSE_NO":"１５８號","E_COORD97":171618.67999999999,"N_COORD97":2546021,"ADDRESS":"五福街１５８號","OBJECTID":221102},"geometry":{"x":171618.6799999997,"y":2546020.9999999981}},{"attributes":{"ID":221104,"DIS_CODE":0,"TOWNNAME":"安南區","LI":"安富里","LIN":"9鄰","STREET":"郡安路","SECT":"五段","MAREA":" ","LANE":"１８４巷","ALLEY":" ","HOUSE_NO":"１１１號","E_COORD97":167536.53,"N_COORD97":2547474.9100000001,"ADDRESS":"郡安路五段１８４巷１１１號","OBJECTID":221103},"geometry":{"x":167536.53000000026,"y":2547474.9100000001}},{"attributes":{"ID":221105,"DIS_CODE":0,"TOWNNAME":"安南區","LI":"安富里","LIN":"9鄰","STREET":"郡安路","SECT":"五段","MAREA":" ","LANE":"１８４巷","ALLEY":" ","HOUSE_NO":"１１５號","E_COORD97":167538.20000000001,"N_COORD97":2547465.9199999999,"ADDRESS":"郡安路五段１８４巷１１５號","OBJECTID":221104},"geometry":{"x":167538.20000000112,"y":2547465.9200000037}},{"attributes":{"ID":221106,"DIS_CODE":0,"TOWNNAME":"仁德區","LI":"太子里","LIN":"9鄰","STREET":"長興二街","SECT":" ","MAREA":" ","LANE":"５巷","ALLEY":" ","HOUSE_NO":"５號","E_COORD97":174583.73000000001,"N_COORD97":2543689.5,"ADDRESS":"長興二街５巷５號","OBJECTID":221105},"geometry":{"x":174583.73000000045,"y":2543689.5000000019}},{"attributes":{"ID":221107,"DIS_CODE":0,"TOWNNAME":"仁德區","LI":"田厝里","LIN":"9鄰","STREET":"田厝一街","SECT":" ","MAREA":" ","LANE":"７３巷","ALLEY":" ","HOUSE_NO":"２２號","E_COORD97":172538.95999999999,"N_COORD97":2537718.5,"ADDRESS":"田厝一街７３巷２２號","OBJECTID":221106},"geometry":{"x":172538.95999999996,"y":2537718.5000000019}},{"attributes":{"ID":221108,"DIS_CODE":0,"TOWNNAME":"永康區","LI":"\u25A0行里","LIN":"18鄰","STREET":"中正路","SECT":" ","MAREA":" ","LANE":"６３５巷","ALLEY":" ","HOUSE_NO":"４６號","E_COORD97":171628.60000000001,"N_COORD97":2548822.5,"ADDRESS":"中正路６３５巷４６號","OBJECTID":221107},"geometry":{"x":171628.60000000056,"y":2548822.5000000019}},{"attributes":{"ID":221109,"DIS_CODE":0,"TOWNNAME":"永康區","LI":"\u25A0行里","LIN":"20鄰","STREET":"正南五街","SECT":" ","MAREA":" ","LANE":"４１０巷","ALLEY":" ","HOUSE_NO":"１之５號","E_COORD97":171785.73000000001,"N_COORD97":2548608.2999999998,"ADDRESS":"正南五街４１０巷１之５號","OBJECTID":221108},"geometry":{"x":171785.73000000231,"y":2548608.3000000026}},{"attributes":{"ID":221110,"DIS_CODE":0,"TOWNNAME":"永康區","LI":"龍潭里","LIN":"42鄰","STREET":"永明街","SECT":" ","MAREA":" ","LANE":"３０２巷","ALLEY":" ","HOUSE_NO":"３８號","E_COORD97":174532.70999999999,"N_COORD97":2547084.6899999999,"ADDRESS":"永明街３０２巷３８號","OBJECTID":221109},"geometry":{"x":174532.70999999996,"y":2547084.6900000013}},{"attributes":{"ID":221111,"DIS_CODE":0,"TOWNNAME":"善化區","LI":"坐駕里","LIN":"1鄰","STREET":"中山路","SECT":" ","MAREA":" ","LANE":" ","ALLEY":" ","HOUSE_NO":"２８３號之２","E_COORD97":177880.34,"N_COORD97":2559065.02,"ADDRESS":"中山路２８３號之２","OBJECTID":221110},"geometry":{"x":177880.34000000078,"y":2559065.0200000014}},{"attributes":{"ID":221112,"DIS_CODE":0,"TOWNNAME":"永康區","LI":"龍潭里","LIN":"43鄰","STREET":"國民路","SECT":" ","MAREA":" ","LANE":"２３１巷","ALLEY":" ","HOUSE_NO":"３５號","E_COORD97":174595.92999999999,"N_COORD97":2547031.6299999999,"ADDRESS":"國民路２３１巷３５號","OBJECTID":221111},"geometry":{"x":174595.93000000156,"y":2547031.629999999}},{"attributes":{"ID":221113,"DIS_CODE":0,"TOWNNAME":"仁德區","LI":"太子里","LIN":"9鄰","STREET":"太子路","SECT":" ","MAREA":" ","LANE":"１５０巷","ALLEY":" ","HOUSE_NO":"３號","E_COORD97":174427.26000000001,"N_COORD97":2543549.5099999998,"ADDRESS":"太子路１５０巷３號","OBJECTID":221112},"geometry":{"x":174427.25999999978,"y":2543549.5100000035}},{"attributes":{"ID":221114,"DIS_CODE":0,"TOWNNAME":"仁德區","LI":"保安里","LIN":"9鄰","STREET":"文賢路","SECT":"一段","MAREA":" ","LANE":"８０５巷","ALLEY":" ","HOUSE_NO":"９號之１","E_COORD97":171600.57000000001,"N_COORD97":2536088.3199999998,"ADDRESS":"文賢路一段８０５巷９號之１","OBJECTID":221113},"geometry":{"x":171600.57000000123,"y":2536088.3200000003}},{"attributes":{"ID":221115,"DIS_CODE":0,"TOWNNAME":"仁德區","LI":"保安里","LIN":"9鄰","STREET":"文賢路","SECT":"一段","MAREA":" ","LANE":"８０５巷","ALLEY":" ","HOUSE_NO":"３號","E_COORD97":171569.09,"N_COORD97":2536082.3300000001,"ADDRESS":"文賢路一段８０５巷３號","OBJECTID":221114},"geometry":{"x":171569.09000000171,"y":2536082.3300000019}},{"attributes":{"ID":221116,"DIS_CODE":0,"TOWNNAME":"仁德區","LI":"成功里","LIN":"9鄰","STREET":"成功二街","SECT":" ","MAREA":" ","LANE":"７巷","ALLEY":" ","HOUSE_NO":"１２號","E_COORD97":170953.20999999999,"N_COORD97":2539982.52,"ADDRESS":"成功二街７巷１２號","OBJECTID":221115},"geometry":{"x":170953.21000000089,"y":2539982.5200000033}},{"attributes":{"ID":221117,"DIS_CODE":0,"TOWNNAME":"仁德區","LI":"成功里","LIN":"9鄰","STREET":"成功二街","SECT":" ","MAREA":" ","LANE":"７巷","ALLEY":" ","HOUSE_NO":"１０號","E_COORD97":170947.10999999999,"N_COORD97":2539982.52,"ADDRESS":"成功二街７巷１０號","OBJECTID":221116},"geometry":{"x":170947.11000000034,"y":2539982.5200000033}},{"attributes":{"ID":221118,"DIS_CODE":0,"TOWNNAME":"永康區","LI":"大灣里","LIN":"9鄰","STREET":"大灣路","SECT":" ","MAREA":" ","LANE":"２１８巷","ALLEY":" ","HOUSE_NO":"４３號之４","E_COORD97":174869.70999999999,"N_COORD97":2545451.04,"ADDRESS":"大灣路２１８巷４３號之４","OBJECTID":221117},"geometry":{"x":174869.70999999996,"y":2545451.040000001}},{"attributes":{"ID":221119,"DIS_CODE":0,"TOWNNAME":"永康區","LI":"二王里","LIN":"9鄰","STREET":"中山南路","SECT":" ","MAREA":" ","LANE":"７６２巷","ALLEY":" ","HOUSE_NO":"８號","E_COORD97":172726.85999999999,"N_COORD97":2546703.25,"ADDRESS":"中山南路７６２巷８號","OBJECTID":221118},"geometry":{"x":172726.86000000034,"y":2546703.25}},{"attributes":{"ID":221120,"DIS_CODE":0,"TOWNNAME":"永康區","LI":"大橋里","LIN":"9鄰","STREET":"大橋三街","SECT":" ","MAREA":" ","LANE":"２６１巷","ALLEY":" ","HOUSE_NO":"３４號","E_COORD97":171019.70000000001,"N_COORD97":2546970.25,"ADDRESS":"大橋三街２６１巷３４號","OBJECTID":221119},"geometry":{"x":171019.70000000112,"y":2546970.2500000019}},{"attributes":{"ID":221121,"DIS_CODE":0,"TOWNNAME":"永康區","LI":"大灣里","LIN":"9鄰","STREET":"大灣路","SECT":" ","MAREA":" ","LANE":"２１８巷","ALLEY":" ","HOUSE_NO":"５５號","E_COORD97":174845.20999999999,"N_COORD97":2545520.02,"ADDRESS":"大灣路２１８巷５５號","OBJECTID":221120},"geometry":{"x":174845.21000000183,"y":2545520.0200000014}},{"attributes":{"ID":221122,"DIS_CODE":0,"TOWNNAME":"永康區","LI":"二王里","LIN":"9鄰","STREET":"中山南路","SECT":" ","MAREA":" ","LANE":"７６２巷","ALLEY":" ","HOUSE_NO":"３號","E_COORD97":172723.63,"N_COORD97":2546728.6299999999,"ADDRESS":"中山南路７６２巷３號","OBJECTID":221121},"geometry":{"x":172723.63000000082,"y":2546728.6300000008}},{"attributes":{"ID":221123,"DIS_CODE":0,"TOWNNAME":"安南區","LI":"溪東里","LIN":"9鄰","STREET":"府安路","SECT":"五段","MAREA":" ","LANE":"１１巷","ALLEY":" ","HOUSE_NO":"１０號","E_COORD97":168479.22,"N_COORD97":2547257.3399999999,"ADDRESS":"府安路五段１１巷１０號","OBJECTID":221122},"geometry":{"x":168479.21999999974,"y":2547257.3400000017}},{"attributes":{"ID":221124,"DIS_CODE":0,"TOWNNAME":"安南區","LI":"溪東里","LIN":"9鄰","STREET":"府安路","SECT":"五段","MAREA":" ","LANE":"１１巷","ALLEY":" ","HOUSE_NO":"１１號","E_COORD97":168456.04000000001,"N_COORD97":2547259.25,"ADDRESS":"府安路五段１１巷１１號","OBJECTID":221123},"geometry":{"x":168456.04000000097,"y":2547259.25}},{"attributes":{"ID":221125,"DIS_CODE":0,"TOWNNAME":"安南區","LI":"溪東里","LIN":"9鄰","STREET":"府安路","SECT":"五段","MAREA":" ","LANE":"１１巷","ALLEY":" ","HOUSE_NO":"１２號","E_COORD97":168478.64000000001,"N_COORD97":2547263.1099999999,"ADDRESS":"府安路五段１１巷１２號","OBJECTID":221124},"geometry":{"x":168478.6400000006,"y":2547263.1099999994}},{"attributes":{"ID":221126,"DIS_CODE":0,"TOWNNAME":"永康區","LI":"王行里","LIN":"9鄰","STREET":"王行路","SECT":" ","MAREA":" ","LANE":"５１３巷","ALLEY":" ","HOUSE_NO":"６號","E_COORD97":175404.09,"N_COORD97":2549040.4100000001,"ADDRESS":"王行路５１３巷６號","OBJECTID":221125},"geometry":{"x":175404.09000000078,"y":2549040.410000002}},{"attributes":{"ID":221127,"DIS_CODE":0,"TOWNNAME":"東區","LI":"德高里","LIN":"9鄰","STREET":"崇善東路","SECT":" ","MAREA":" ","LANE":"１００巷","ALLEY":" ","HOUSE_NO":"２４號","E_COORD97":171433.04999999999,"N_COORD97":2540994.6899999999,"ADDRESS":"崇善東路１００巷２４號","OBJECTID":221126},"geometry":{"x":171433.04999999981,"y":2540994.6900000032}},{"attributes":{"ID":221128,"DIS_CODE":0,"TOWNNAME":"安南區","LI":"海佃里","LIN":"9鄰","STREET":"國安街","SECT":" ","MAREA":" ","LANE":"５６巷","ALLEY":" ","HOUSE_NO":"７９號","E_COORD97":166941.54999999999,"N_COORD97":2547240.98,"ADDRESS":"國安街５６巷７９號","OBJECTID":221127},"geometry":{"x":166941.55000000075,"y":2547240.9800000004}},{"attributes":{"ID":221129,"DIS_CODE":0,"TOWNNAME":"安南區","LI":"海東里","LIN":"9鄰","STREET":"海佃路","SECT":"二段","MAREA":" ","LANE":"４８３巷","ALLEY":" ","HOUSE_NO":"１號","E_COORD97":166659.39000000001,"N_COORD97":2549123,"ADDRESS":"海佃路二段４８３巷１號","OBJECTID":221128},"geometry":{"x":166659.3900000006,"y":2549123}},{"attributes":{"ID":221130,"DIS_CODE":0,"TOWNNAME":"安南區","LI":"海東里","LIN":"9鄰","STREET":"海佃路","SECT":"二段","MAREA":" ","LANE":"４８３巷","ALLEY":" ","HOUSE_NO":"６號","E_COORD97":166660.38,"N_COORD97":2549148.1299999999,"ADDRESS":"海佃路二段４８３巷６號","OBJECTID":221129},"geometry":{"x":166660.37999999989,"y":2549148.129999999}},{"attributes":{"ID":221131,"DIS_CODE":0,"TOWNNAME":"安南區","LI":"國安里","LIN":"9鄰","STREET":"國安街","SECT":" ","MAREA":" ","LANE":"２３６巷","ALLEY":" ","HOUSE_NO":"１７號","E_COORD97":166500.57999999999,"N_COORD97":2546990.52,"ADDRESS":"國安街２３６巷１７號","OBJECTID":221130},"geometry":{"x":166500.57999999914,"y":2546990.5200000014}},{"attributes":{"ID":221132,"DIS_CODE":0,"TOWNNAME":"安南區","LI":"淵西里","LIN":"9鄰","STREET":"安中路","SECT":"四段","MAREA":" ","LANE":"２９０巷","ALLEY":" ","HOUSE_NO":"６１號之１","E_COORD97":164663.70000000001,"N_COORD97":2550271.79,"ADDRESS":"安中路四段２９０巷６１號之１","OBJECTID":221131},"geometry":{"x":164663.70000000019,"y":2550271.7899999991}},{"attributes":{"ID":221133,"DIS_CODE":0,"TOWNNAME":"安南區","LI":"淵西里","LIN":"9鄰","STREET":"安中路","SECT":"四段","MAREA":" ","LANE":"２９０巷","ALLEY":" ","HOUSE_NO":"６３號","E_COORD97":164667.32999999999,"N_COORD97":2550255.6699999999,"ADDRESS":"安中路四段２９０巷６３號","OBJECTID":221132},"geometry":{"x":164667.33000000101,"y":2550255.6700000018}},{"attributes":{"ID":221134,"DIS_CODE":0,"TOWNNAME":"安南區","LI":"淵西里","LIN":"9鄰","STREET":"安中路","SECT":"四段","MAREA":" ","LANE":"２９０巷","ALLEY":" ","HOUSE_NO":"６５號","E_COORD97":164672.32999999999,"N_COORD97":2550256.5800000001,"ADDRESS":"安中路四段２９０巷６５號","OBJECTID":221133},"geometry":{"x":164672.33000000101,"y":2550256.5800000019}},{"attributes":{"ID":221135,"DIS_CODE":0,"TOWNNAME":"安南區","LI":"淵西里","LIN":"9鄰","STREET":"安中路","SECT":"四段","MAREA":" ","LANE":"２９０巷","ALLEY":" ","HOUSE_NO":"６７號","E_COORD97":164676.64999999999,"N_COORD97":2550258.3999999999,"ADDRESS":"安中路四段２９０巷６７號","OBJECTID":221134},"geometry":{"x":164676.65000000224,"y":2550258.4000000022}},{"attributes":{"ID":221136,"DIS_CODE":0,"TOWNNAME":"永康區","LI":"埔園里","LIN":"28鄰","STREET":"中山路","SECT":" ","MAREA":" ","LANE":" ","ALLEY":" ","HOUSE_NO":"３３２號","E_COORD97":173672.70000000001,"N_COORD97":2548204.9399999999,"ADDRESS":"中山路３３２號","OBJECTID":221135},"geometry":{"x":173672.70000000112,"y":2548204.9400000013}},{"attributes":{"ID":221137,"DIS_CODE":0,"TOWNNAME":"永康區","LI":"大灣里","LIN":"28鄰","STREET":"文賢街","SECT":" ","MAREA":" ","LANE":" ","ALLEY":" ","HOUSE_NO":"６９號","E_COORD97":175311,"N_COORD97":2545127.2799999998,"ADDRESS":"文賢街６９號","OBJECTID":221136},"geometry":{"x":175311.00000000186,"y":2545127.2800000012}},{"attributes":{"ID":221138,"DIS_CODE":0,"TOWNNAME":"東區","LI":"中西里","LIN":"28鄰","STREET":"東寧路","SECT":" ","MAREA":" ","LANE":" ","ALLEY":" ","HOUSE_NO":"１３６號","E_COORD97":170325.92999999999,"N_COORD97":2543543.7200000002,"ADDRESS":"東寧路１３６號","OBJECTID":221137},"geometry":{"x":170325.93000000063,"y":2543543.7200000025}},{"attributes":{"ID":221139,"DIS_CODE":0,"TOWNNAME":"東區","LI":"中西里","LIN":"28鄰","STREET":"東寧路","SECT":" ","MAREA":" ","LANE":" ","ALLEY":" ","HOUSE_NO":"１３８號","E_COORD97":170317.76999999999,"N_COORD97":2543541.8900000001,"ADDRESS":"東寧路１３８號","OBJECTID":221138},"geometry":{"x":170317.76999999955,"y":2543541.8900000025}},{"attributes":{"ID":221140,"DIS_CODE":0,"TOWNNAME":"安南區","LI":"淵東里","LIN":"9鄰","STREET":"本原街","SECT":"三段","MAREA":" ","LANE":"３２１巷","ALLEY":" ","HOUSE_NO":"４３號","E_COORD97":165397.01999999999,"N_COORD97":2550189.6800000002,"ADDRESS":"本原街三段３２１巷４３號","OBJECTID":221139},"geometry":{"x":165397.02000000142,"y":2550189.6800000034}},{"attributes":{"ID":221141,"DIS_CODE":0,"TOWNNAME":"永康區","LI":"\u25A0行里","LIN":"30鄰","STREET":"新行街","SECT":" ","MAREA":" ","LANE":"１２２巷","ALLEY":" ","HOUSE_NO":"１７號","E_COORD97":172413.10999999999,"N_COORD97":2549048.4900000002,"ADDRESS":"新行街１２２巷１７號","OBJECTID":221140},"geometry":{"x":172413.11000000034,"y":2549048.4900000002}},{"attributes":{"ID":221142,"DIS_CODE":0,"TOWNNAME":"安南區","LI":"理想里","LIN":"9鄰","STREET":"海佃路","SECT":"二段","MAREA":" ","LANE":"１５０巷","ALLEY":" ","HOUSE_NO":"６４號","E_COORD97":167078.84,"N_COORD97":2548226.1299999999,"ADDRESS":"海佃路二段１５０巷６４號","OBJECTID":221141},"geometry":{"x":167078.84000000078,"y":2548226.1299999971}},{"attributes":{"ID":221143,"DIS_CODE":0,"TOWNNAME":"永康區","LI":"\u25A0行里","LIN":"36鄰","STREET":"三村一街","SECT":" ","MAREA":" ","LANE":"３０巷","ALLEY":" ","HOUSE_NO":"９號","E_COORD97":172251.29999999999,"N_COORD97":2549290.48,"ADDRESS":"三村一街３０巷９號","OBJECTID":221142},"geometry":{"x":172251.30000000075,"y":2549290.4800000023}},{"attributes":{"ID":221144,"DIS_CODE":0,"TOWNNAME":"永康區","LI":"\u25A0行里","LIN":"32鄰","STREET":"三村一街","SECT":" ","MAREA":" ","LANE":"１３８巷","ALLEY":" ","HOUSE_NO":"７８號","E_COORD97":172103.04000000001,"N_COORD97":2549396.7400000002,"ADDRESS":"三村一街１３８巷７８號","OBJECTID":221143},"geometry":{"x":172103.04000000004,"y":2549396.7400000039}},{"attributes":{"ID":221145,"DIS_CODE":0,"TOWNNAME":"永康區","LI":"\u25A0行里","LIN":"42鄰","STREET":"永安二街","SECT":" ","MAREA":" ","LANE":"２５巷","ALLEY":" ","HOUSE_NO":"８號","E_COORD97":172422.51000000001,"N_COORD97":2549564.23,"ADDRESS":"永安二街２５巷８號","OBJECTID":221144},"geometry":{"x":172422.51000000071,"y":2549564.2300000023}},{"attributes":{"ID":221146,"DIS_CODE":0,"TOWNNAME":"永康區","LI":"龍潭里","LIN":"43鄰","STREET":"國民路","SECT":" ","MAREA":" ","LANE":"２３１巷","ALLEY":" ","HOUSE_NO":"３９號","E_COORD97":174606.70000000001,"N_COORD97":2547032.6299999999,"ADDRESS":"國民路２３１巷３９號","OBJECTID":221145},"geometry":{"x":174606.70000000112,"y":2547032.629999999}},{"attributes":{"ID":221147,"DIS_CODE":0,"TOWNNAME":"安南區","LI":"頂安里","LIN":"9鄰","STREET":"頂安街","SECT":" ","MAREA":" ","LANE":"２６０巷","ALLEY":" ","HOUSE_NO":"１號","E_COORD97":169131.07000000001,"N_COORD97":2549390.96,"ADDRESS":"頂安街２６０巷１號","OBJECTID":221146},"geometry":{"x":169131.07000000123,"y":2549390.9600000009}},{"attributes":{"ID":221148,"DIS_CODE":0,"TOWNNAME":"安南區","LI":"頂安里","LIN":"9鄰","STREET":"頂安街","SECT":" ","MAREA":" ","LANE":"２６０巷","ALLEY":" ","HOUSE_NO":"１１號","E_COORD97":169137.10999999999,"N_COORD97":2549413.3999999999,"ADDRESS":"頂安街２６０巷１１號","OBJECTID":221147},"geometry":{"x":169137.11000000127,"y":2549413.4000000022}},{"attributes":{"ID":221149,"DIS_CODE":0,"TOWNNAME":"安南區","LI":"頂安里","LIN":"9鄰","STREET":"頂安街","SECT":" ","MAREA":" ","LANE":"２６０巷","ALLEY":" ","HOUSE_NO":"２９號","E_COORD97":169150.64999999999,"N_COORD97":2549457.4199999999,"ADDRESS":"頂安街２６０巷２９號","OBJECTID":221148},"geometry":{"x":169150.6500000013,"y":2549457.4200000018}},{"attributes":{"ID":221150,"DIS_CODE":0,"TOWNNAME":"安南區","LI":"頂安里","LIN":"9鄰","STREET":"頂安街","SECT":" ","MAREA":" ","LANE":"２６０巷","ALLEY":" ","HOUSE_NO":"３１號","E_COORD97":169154.39000000001,"N_COORD97":2549461.7400000002,"ADDRESS":"頂安街２６０巷３１號","OBJECTID":221149},"geometry":{"x":169154.38999999873,"y":2549461.7400000021}},{"attributes":{"ID":221151,"DIS_CODE":0,"TOWNNAME":"安南區","LI":"頂安里","LIN":"9鄰","STREET":"頂安街","SECT":" ","MAREA":" ","LANE":"２６０巷","ALLEY":" ","HOUSE_NO":"３７號","E_COORD97":169157.26999999999,"N_COORD97":2549475.5499999998,"ADDRESS":"頂安街２６０巷３７號","OBJECTID":221150},"geometry":{"x":169157.27000000048,"y":2549475.5500000007}},{"attributes":{"ID":221152,"DIS_CODE":0,"TOWNNAME":"安南區","LI":"溪北里","LIN":"9鄰","STREET":"府安路","SECT":"四段","MAREA":" ","LANE":"２４巷","ALLEY":" ","HOUSE_NO":"１３號","E_COORD97":169400.48999999999,"N_COORD97":2547357.3799999999,"ADDRESS":"府安路四段２４巷１３號","OBJECTID":221151},"geometry":{"x":169400.49000000115,"y":2547357.3800000008}},{"attributes":{"ID":221153,"DIS_CODE":0,"TOWNNAME":"永康區","LI":"\u25A0行里","LIN":"44鄰","STREET":"\u25A0平街","SECT":" ","MAREA":" ","LANE":"１５８巷","ALLEY":" ","HOUSE_NO":"７１號","E_COORD97":172020.10999999999,"N_COORD97":2548120.7400000002,"ADDRESS":"\u25A0平街１５８巷７１號","OBJECTID":221152},"geometry":{"x":172020.11000000034,"y":2548120.7400000002}},{"attributes":{"ID":221154,"DIS_CODE":0,"TOWNNAME":"永康區","LI":"龍潭里","LIN":"9鄰","STREET":"龍埔街","SECT":" ","MAREA":" ","LANE":"７８巷","ALLEY":" ","HOUSE_NO":"２號之１","E_COORD97":174631.66,"N_COORD97":2548271.3399999999,"ADDRESS":"龍埔街７８巷２號之１","OBJECTID":221153},"geometry":{"x":174631.66000000015,"y":2548271.3400000017}},{"attributes":{"ID":221155,"DIS_CODE":0,"TOWNNAME":"安南區","LI":"學東里","LIN":"9鄰","STREET":"公學路","SECT":"六段","MAREA":" ","LANE":"６４２巷","ALLEY":" ","HOUSE_NO":"５８號","E_COORD97":162306.06,"N_COORD97":2553376.6899999999,"ADDRESS":"公學路六段６４２巷５８號","OBJECTID":221154},"geometry":{"x":162306.05999999959,"y":2553376.6900000032}},{"attributes":{"ID":221156,"DIS_CODE":0,"TOWNNAME":"安南區","LI":"溪墘里","LIN":"9鄰","STREET":"海佃路","SECT":"一段","MAREA":" ","LANE":"２７０巷","ALLEY":" ","HOUSE_NO":"１８號","E_COORD97":167204.25,"N_COORD97":2547400.9399999999,"ADDRESS":"海佃路一段２７０巷１８號","OBJECTID":221155},"geometry":{"x":167204.25,"y":2547400.9400000032}},{"attributes":{"ID":221157,"DIS_CODE":0,"TOWNNAME":"安南區","LI":"溪墘里","LIN":"9鄰","STREET":"海佃路","SECT":"一段","MAREA":" ","LANE":"２７０巷","ALLEY":" ","HOUSE_NO":"４０號","E_COORD97":167268.56,"N_COORD97":2547416.4700000002,"ADDRESS":"海佃路一段２７０巷４０號","OBJECTID":221156},"geometry":{"x":167268.56000000052,"y":2547416.4700000025}},{"attributes":{"ID":221158,"DIS_CODE":0,"TOWNNAME":"永康區","LI":"大橋里","LIN":"9鄰","STREET":"大橋三街","SECT":" ","MAREA":" ","LANE":"２６１巷","ALLEY":" ","HOUSE_NO":"２６號","E_COORD97":171027.98000000001,"N_COORD97":2546955.4399999999,"ADDRESS":"大橋三街２６１巷２６號","OBJECTID":221157},"geometry":{"x":171027.98000000231,"y":2546955.4399999995}},{"attributes":{"ID":221159,"DIS_CODE":0,"TOWNNAME":"永康區","LI":"復國里","LIN":"9鄰","STREET":"復國一路","SECT":" ","MAREA":" ","LANE":"２１０巷","ALLEY":" ","HOUSE_NO":"５５號","E_COORD97":172821.47,"N_COORD97":2545211.1800000002,"ADDRESS":"復國一路２１０巷５５號","OBJECTID":221158},"geometry":{"x":172821.47000000067,"y":2545211.1799999997}},{"attributes":{"ID":221160,"DIS_CODE":0,"TOWNNAME":"永康區","LI":"正強里","LIN":"9鄰","STREET":"正義街","SECT":" ","MAREA":" ","LANE":"１２６巷","ALLEY":" ","HOUSE_NO":"２２號","E_COORD97":173394.25,"N_COORD97":2547609.5099999998,"ADDRESS":"正義街１２６巷２２號","OBJECTID":221159},"geometry":{"x":173394.25000000093,"y":2547609.5099999998}},{"attributes":{"ID":221161,"DIS_CODE":0,"TOWNNAME":"永康區","LI":"西橋里","LIN":"9鄰","STREET":"中華西街","SECT":" ","MAREA":" ","LANE":"８５巷","ALLEY":" ","HOUSE_NO":"１６號","E_COORD97":170655.45999999999,"N_COORD97":2546069.9900000002,"ADDRESS":"中華西街８５巷１６號","OBJECTID":221160},"geometry":{"x":170655.45999999996,"y":2546069.9900000021}},{"attributes":{"ID":221162,"DIS_CODE":0,"TOWNNAME":"永康區","LI":"復國里","LIN":"9鄰","STREET":"復國一路","SECT":" ","MAREA":" ","LANE":"２１０巷","ALLEY":" ","HOUSE_NO":"１５號","E_COORD97":172775.56,"N_COORD97":2545237.52,"ADDRESS":"復國一路２１０巷１５號","OBJECTID":221161},"geometry":{"x":172775.55999999959,"y":2545237.5200000033}},{"attributes":{"ID":221163,"DIS_CODE":0,"TOWNNAME":"永康區","LI":"龍潭里","LIN":"28鄰","STREET":"中山北路","SECT":" ","MAREA":" ","LANE":"３８５巷","ALLEY":" ","HOUSE_NO":"２４號之３","E_COORD97":174903.73999999999,"N_COORD97":2547781.4500000002,"ADDRESS":"中山北路３８５巷２４號之３","OBJECTID":221162},"geometry":{"x":174903.74000000022,"y":2547781.4500000011}},{"attributes":{"ID":221164,"DIS_CODE":0,"TOWNNAME":"永康區","LI":"龍潭里","LIN":"27鄰","STREET":"中山北路","SECT":" ","MAREA":" ","LANE":"４６１巷","ALLEY":" ","HOUSE_NO":"２０號","E_COORD97":175114.03,"N_COORD97":2547823.8500000001,"ADDRESS":"中山北路４６１巷２０號","OBJECTID":221163},"geometry":{"x":175114.03000000026,"y":2547823.8499999996}},{"attributes":{"ID":221165,"DIS_CODE":0,"TOWNNAME":"永康區","LI":"烏竹里","LIN":"9鄰","STREET":"龍橋街","SECT":" ","MAREA":" ","LANE":"３５０巷","ALLEY":" ","HOUSE_NO":"１１號","E_COORD97":174528.42000000001,"N_COORD97":2549118.8700000001,"ADDRESS":"龍橋街３５０巷１１號","OBJECTID":221164},"geometry":{"x":174528.42000000179,"y":2549118.8700000029}},{"attributes":{"ID":221166,"DIS_CODE":0,"TOWNNAME":"永康區","LI":"崑山里","LIN":"9鄰","STREET":"崑大路","SECT":" ","MAREA":" ","LANE":"２０１巷","ALLEY":" ","HOUSE_NO":"５０號","E_COORD97":173289.41,"N_COORD97":2544192.4900000002,"ADDRESS":"崑大路２０１巷５０號","OBJECTID":221165},"geometry":{"x":173289.41000000201,"y":2544192.4900000002}},{"attributes":{"ID":221167,"DIS_CODE":0,"TOWNNAME":"永康區","LI":"崑山里","LIN":"9鄰","STREET":"崑大路","SECT":" ","MAREA":" ","LANE":"２０１巷","ALLEY":" ","HOUSE_NO":"１００號","E_COORD97":173279.76999999999,"N_COORD97":2544076.4900000002,"ADDRESS":"崑大路２０１巷１００號","OBJECTID":221166},"geometry":{"x":173279.77000000048,"y":2544076.4900000021}},{"attributes":{"ID":221168,"DIS_CODE":0,"TOWNNAME":"永康區","LI":"\u25A0行里","LIN":"18鄰","STREET":"中正路","SECT":" ","MAREA":" ","LANE":"６３５巷","ALLEY":" ","HOUSE_NO":"４２號","E_COORD97":171640.31,"N_COORD97":2548809.5,"ADDRESS":"中正路６３５巷４２號","OBJECTID":221167},"geometry":{"x":171640.31000000052,"y":2548809.5000000019}},{"attributes":{"ID":221169,"DIS_CODE":0,"TOWNNAME":"永康區","LI":"龍潭里","LIN":"39鄰","STREET":"永明街","SECT":" ","MAREA":" ","LANE":"１７９巷","ALLEY":" ","HOUSE_NO":"１０號","E_COORD97":174448.73999999999,"N_COORD97":2547247.0800000001,"ADDRESS":"永明街１７９巷１０號","OBJECTID":221168},"geometry":{"x":174448.74000000115,"y":2547247.0800000001}},{"attributes":{"ID":221170,"DIS_CODE":0,"TOWNNAME":"永康區","LI":"網寮里","LIN":"14鄰","STREET":"永勝街","SECT":" ","MAREA":" ","LANE":"２４６巷","ALLEY":" ","HOUSE_NO":"１號","E_COORD97":173379.13,"N_COORD97":2546619.46,"ADDRESS":"永勝街２４６巷１號","OBJECTID":221169},"geometry":{"x":173379.12999999896,"y":2546619.4600000028}},{"attributes":{"ID":221171,"DIS_CODE":0,"TOWNNAME":"永康區","LI":"龍潭里","LIN":"43鄰","STREET":"國民路","SECT":" ","MAREA":" ","LANE":"２３１巷","ALLEY":" ","HOUSE_NO":"４７號","E_COORD97":174609.51999999999,"N_COORD97":2547023.3199999998,"ADDRESS":"國民路２３１巷４７號","OBJECTID":221170},"geometry":{"x":174609.51999999955,"y":2547023.3200000022}},{"attributes":{"ID":221172,"DIS_CODE":0,"TOWNNAME":"永康區","LI":"龍潭里","LIN":"34鄰","STREET":"龍埔街","SECT":" ","MAREA":" ","LANE":"１８１巷","ALLEY":" ","HOUSE_NO":"３２號","E_COORD97":174445.45000000001,"N_COORD97":2548158.1800000002,"ADDRESS":"龍埔街１８１巷３２號","OBJECTID":221171},"geometry":{"x":174445.45000000205,"y":2548158.1799999997}},{"attributes":{"ID":221173,"DIS_CODE":0,"TOWNNAME":"永康區","LI":"龍潭里","LIN":"13鄰","STREET":"龍橋街","SECT":" ","MAREA":" ","LANE":"５３巷","ALLEY":" ","HOUSE_NO":"１２號","E_COORD97":174764.85000000001,"N_COORD97":2548372.75,"ADDRESS":"龍橋街５３巷１２號","OBJECTID":221172},"geometry":{"x":174764.85000000056,"y":2548372.7500000019}},{"attributes":{"ID":221174,"DIS_CODE":0,"TOWNNAME":"永康區","LI":"\u25A0行里","LIN":"5鄰","STREET":"新行街","SECT":" ","MAREA":" ","LANE":"２１巷","ALLEY":" ","HOUSE_NO":"７號","E_COORD97":172192.34,"N_COORD97":2548794.8199999998,"ADDRESS":"新行街２１巷７號","OBJECTID":221173},"geometry":{"x":172192.33999999985,"y":2548794.8200000003}},{"attributes":{"ID":221175,"DIS_CODE":0,"TOWNNAME":"永康區","LI":"龍潭里","LIN":"28鄰","STREET":"中山北路","SECT":" ","MAREA":" ","LANE":"３８５巷","ALLEY":" ","HOUSE_NO":"１０號","E_COORD97":174876.34,"N_COORD97":2547750.4100000001,"ADDRESS":"中山北路３８５巷１０號","OBJECTID":221174},"geometry":{"x":174876.34000000171,"y":2547750.4100000001}},{"attributes":{"ID":221176,"DIS_CODE":0,"TOWNNAME":"中西區","LI":"法華里","LIN":"1鄰","STREET":"法華街","SECT":" ","MAREA":" ","LANE":" ","ALLEY":" ","HOUSE_NO":"２１號","E_COORD97":169044.26999999999,"N_COORD97":2542757.48,"ADDRESS":"法華街２１號","OBJECTID":221175},"geometry":{"x":169044.26999999955,"y":2542757.4800000023}},{"attributes":{"ID":221177,"DIS_CODE":0,"TOWNNAME":"大內區","LI":"內江里","LIN":"13鄰","STREET":" ","SECT":" ","MAREA":"蒙正","LANE":" ","ALLEY":" ","HOUSE_NO":"９號","E_COORD97":185617.89000000001,"N_COORD97":2556197.25,"ADDRESS":"蒙正９號","OBJECTID":221176},"geometry":{"x":185617.88999999966,"y":2556197.2499999981}},{"attributes":{"ID":221178,"DIS_CODE":0,"TOWNNAME":"中西區","LI":"法華里","LIN":"1鄰","STREET":"法華街","SECT":" ","MAREA":" ","LANE":" ","ALLEY":" ","HOUSE_NO":"２７號之１","E_COORD97":169042.59,"N_COORD97":2542742.1099999999,"ADDRESS":"法華街２７號之１","OBJECTID":221177},"geometry":{"x":169042.58999999985,"y":2542742.1100000013}},{"attributes":{"ID":221179,"DIS_CODE":0,"TOWNNAME":"中西區","LI":"法華里","LIN":"1鄰","STREET":"法華街","SECT":" ","MAREA":" ","LANE":" ","ALLEY":" ","HOUSE_NO":"２７號之２","E_COORD97":169037.26999999999,"N_COORD97":2542736.7999999998,"ADDRESS":"法華街２７號之２","OBJECTID":221178},"geometry":{"x":169037.27000000048,"y":2542736.8000000007}},{"attributes":{"ID":221180,"DIS_CODE":0,"TOWNNAME":"中西區","LI":"法華里","LIN":"1鄰","STREET":"法華街","SECT":" ","MAREA":" ","LANE":" ","ALLEY":" ","HOUSE_NO":"２７號之３","E_COORD97":169033.35999999999,"N_COORD97":2542734.0099999998,"ADDRESS":"法華街２７號之３","OBJECTID":221179},"geometry":{"x":169033.3600000022,"y":2542734.0099999998}},{"attributes":{"ID":221181,"DIS_CODE":0,"TOWNNAME":"安南區","LI":"溪墘里","LIN":"28鄰","STREET":"海佃路","SECT":"一段","MAREA":" ","LANE":" ","ALLEY":" ","HOUSE_NO":"３０號","E_COORD97":167231.26000000001,"N_COORD97":2546822.5,"ADDRESS":"海佃路一段３０號","OBJECTID":221180},"geometry":{"x":167231.25999999978,"y":2546822.5000000019}},{"attributes":{"ID":221182,"DIS_CODE":0,"TOWNNAME":"安南區","LI":"溪墘里","LIN":"28鄰","STREET":"海佃路","SECT":"一段","MAREA":" ","LANE":" ","ALLEY":" ","HOUSE_NO":"３２號","E_COORD97":167230.57999999999,"N_COORD97":2546825.0499999998,"ADDRESS":"海佃路一段３２號","OBJECTID":221181},"geometry":{"x":167230.58000000007,"y":2546825.0500000045}},{"attributes":{"ID":221183,"DIS_CODE":0,"TOWNNAME":"安南區","LI":"溪墘里","LIN":"28鄰","STREET":"海佃路","SECT":"一段","MAREA":" ","LANE":" ","ALLEY":" ","HOUSE_NO":"３４號","E_COORD97":167231.26000000001,"N_COORD97":2546829.7999999998,"ADDRESS":"海佃路一段３４號","OBJECTID":221182},"geometry":{"x":167231.25999999978,"y":2546829.8000000007}},{"attributes":{"ID":221184,"DIS_CODE":0,"TOWNNAME":"永康區","LI":"龍潭里","LIN":"40鄰","STREET":"永明街","SECT":" ","MAREA":" ","LANE":"３０２巷","ALLEY":" ","HOUSE_NO":"１２號","E_COORD97":174523.91,"N_COORD97":2547122.2400000002,"ADDRESS":"永明街３０２巷１２號","OBJECTID":221183},"geometry":{"x":174523.91000000108,"y":2547122.2400000021}},{"attributes":{"ID":221185,"DIS_CODE":0,"TOWNNAME":"永康區","LI":"龍潭里","LIN":"44鄰","STREET":"永平街","SECT":" ","MAREA":" ","LANE":"２３２巷","ALLEY":" ","HOUSE_NO":"１號","E_COORD97":174661.57000000001,"N_COORD97":2546959,"ADDRESS":"永平街２３２巷１號","OBJECTID":221184},"geometry":{"x":174661.56999999937,"y":2546959}},{"attributes":{"ID":221186,"DIS_CODE":0,"TOWNNAME":"安南區","LI":"頂安里","LIN":"9鄰","STREET":"頂安街","SECT":" ","MAREA":" ","LANE":"４２０巷","ALLEY":" ","HOUSE_NO":"１０號","E_COORD97":168898.45999999999,"N_COORD97":2549374.1600000001,"ADDRESS":"頂安街４２０巷１０號","OBJECTID":221185},"geometry":{"x":168898.46000000183,"y":2549374.160000002}},{"attributes":{"ID":221187,"DIS_CODE":0,"TOWNNAME":"安南區","LI":"溪墘里","LIN":"28鄰","STREET":"海佃路","SECT":"一段","MAREA":" ","LANE":" ","ALLEY":" ","HOUSE_NO":"５４號","E_COORD97":167221.95000000001,"N_COORD97":2546868.4700000002,"ADDRESS":"海佃路一段５４號","OBJECTID":221186},"geometry":{"x":167221.95000000019,"y":2546868.4700000007}},{"attributes":{"ID":221188,"DIS_CODE":0,"TOWNNAME":"安南區","LI":"頂安里","LIN":"9鄰","STREET":"頂安街","SECT":" ","MAREA":" ","LANE":"４２０巷","ALLEY":" ","HOUSE_NO":"１２號","E_COORD97":168894.26999999999,"N_COORD97":2549379.5,"ADDRESS":"頂安街４２０巷１２號","OBJECTID":221187},"geometry":{"x":168894.27000000142,"y":2549379.5}},{"attributes":{"ID":221189,"DIS_CODE":0,"TOWNNAME":"安南區","LI":"頂安里","LIN":"9鄰","STREET":"頂安街","SECT":" ","MAREA":" ","LANE":"４２０巷","ALLEY":" ","HOUSE_NO":"１６號","E_COORD97":168889.70000000001,"N_COORD97":2549385.21,"ADDRESS":"頂安街４２０巷１６號","OBJECTID":221188},"geometry":{"x":168889.70000000019,"y":2549385.2100000028}},{"attributes":{"ID":221190,"DIS_CODE":0,"TOWNNAME":"安南區","LI":"頂安里","LIN":"9鄰","STREET":"頂安街","SECT":" ","MAREA":" ","LANE":"４２０巷","ALLEY":" ","HOUSE_NO":"１８號","E_COORD97":168885.76000000001,"N_COORD97":2549389.9100000001,"ADDRESS":"頂安街４２０巷１８號","OBJECTID":221189},"geometry":{"x":168885.75999999978,"y":2549389.910000002}},{"attributes":{"ID":221191,"DIS_CODE":0,"TOWNNAME":"安南區","LI":"頂安里","LIN":"9鄰","STREET":"頂安街","SECT":" ","MAREA":" ","LANE":"４２０巷","ALLEY":" ","HOUSE_NO":"２０號","E_COORD97":168881.95000000001,"N_COORD97":2549394.8700000001,"ADDRESS":"頂安街４２０巷２０號","OBJECTID":221190},"geometry":{"x":168881.95000000112,"y":2549394.8700000029}},{"attributes":{"ID":221192,"DIS_CODE":0,"TOWNNAME":"安南區","LI":"溪墘里","LIN":"28鄰","STREET":"海佃路","SECT":"一段","MAREA":" ","LANE":" ","ALLEY":" ","HOUSE_NO":"６０號","E_COORD97":167220.29000000001,"N_COORD97":2546881.4700000002,"ADDRESS":"海佃路一段６０號","OBJECTID":221191},"geometry":{"x":167220.29000000097,"y":2546881.4700000025}},{"attributes":{"ID":221193,"DIS_CODE":0,"TOWNNAME":"永康區","LI":"大灣里","LIN":"28鄰","STREET":"民族路","SECT":" ","MAREA":" ","LANE":" ","ALLEY":" ","HOUSE_NO":"１４６號","E_COORD97":175232.23000000001,"N_COORD97":2544954.9199999999,"ADDRESS":"民族路１４６號","OBJECTID":221192},"geometry":{"x":175232.23000000138,"y":2544954.9200000018}},{"attributes":{"ID":221194,"DIS_CODE":0,"TOWNNAME":"中西區","LI":"法華里","LIN":"8鄰","STREET":"五妃街","SECT":" ","MAREA":" ","LANE":" ","ALLEY":" ","HOUSE_NO":"１１之６號","E_COORD97":169066.92999999999,"N_COORD97":2542539.6099999999,"ADDRESS":"五妃街１１之６號","OBJECTID":221193},"geometry":{"x":169066.93000000063,"y":2542539.6099999994}},{"attributes":{"ID":221195,"DIS_CODE":0,"TOWNNAME":"安南區","LI":"頂安里","LIN":"9鄰","STREET":"頂安街","SECT":" ","MAREA":" ","LANE":"４２０巷","ALLEY":" ","HOUSE_NO":"２２號","E_COORD97":168877.25,"N_COORD97":2549400.71,"ADDRESS":"頂安街４２０巷２２號","OBJECTID":221194},"geometry":{"x":168877.25,"y":2549400.709999999}},{"attributes":{"ID":221196,"DIS_CODE":0,"TOWNNAME":"中西區","LI":"法華里","LIN":"8鄰","STREET":"五妃街","SECT":" ","MAREA":" ","LANE":" ","ALLEY":" ","HOUSE_NO":"１１號","E_COORD97":169072.97,"N_COORD97":2542554.4300000002,"ADDRESS":"五妃街１１號","OBJECTID":221195},"geometry":{"x":169072.97000000067,"y":2542554.4300000016}},{"attributes":{"ID":221197,"DIS_CODE":0,"TOWNNAME":"安南區","LI":"頂安里","LIN":"9鄰","STREET":"頂安街","SECT":" ","MAREA":" ","LANE":"４２０巷","ALLEY":" ","HOUSE_NO":"２６號","E_COORD97":168873.95000000001,"N_COORD97":2549406.2999999998,"ADDRESS":"頂安街４２０巷２６號","OBJECTID":221196},"geometry":{"x":168873.95000000112,"y":2549406.3000000007}},{"attributes":{"ID":221198,"DIS_CODE":0,"TOWNNAME":"中西區","LI":"法華里","LIN":"9鄰","STREET":"五妃街","SECT":" ","MAREA":" ","LANE":" ","ALLEY":" ","HOUSE_NO":"１５號","E_COORD97":169057.64999999999,"N_COORD97":2542555.8199999998,"ADDRESS":"五妃街１５號","OBJECTID":221197},"geometry":{"x":169057.6500000013,"y":2542555.8200000022}},{"attributes":{"ID":221199,"DIS_CODE":0,"TOWNNAME":"安南區","LI":"頂安里","LIN":"9鄰","STREET":"頂安街","SECT":" ","MAREA":" ","LANE":"４２０巷","ALLEY":" ","HOUSE_NO":"２８號","E_COORD97":168880.17000000001,"N_COORD97":2549415.6899999999,"ADDRESS":"頂安街４２０巷２８號","OBJECTID":221198},"geometry":{"x":168880.17000000086,"y":2549415.6899999995}},{"attributes":{"ID":221200,"DIS_CODE":0,"TOWNNAME":"安南區","LI":"頂安里","LIN":"9鄰","STREET":"頂安街","SECT":" ","MAREA":" ","LANE":"４２０巷","ALLEY":" ","HOUSE_NO":"３０號","E_COORD97":168885.13,"N_COORD97":2549419.6299999999,"ADDRESS":"頂安街４２０巷３０號","OBJECTID":221199},"geometry":{"x":168885.12999999989,"y":2549419.6300000027}},{"attributes":{"ID":221201,"DIS_CODE":0,"TOWNNAME":"安南區","LI":"鹿耳里","LIN":"9鄰","STREET":"北汕尾二路","SECT":" ","MAREA":" ","LANE":"５５０巷","ALLEY":" ","HOUSE_NO":"４４號","E_COORD97":160593.32999999999,"N_COORD97":2547983.1099999999,"ADDRESS":"北汕尾二路５５０巷４４號","OBJECTID":221200},"geometry":{"x":160593.33000000101,"y":2547983.1100000013}}]}