{"displayFieldName":"TOWNNAME","fieldAliases":{"ID":"ID","DIS_CODE":"DIS_CODE","TOWNNAME":"TOWNNAME","LI":"LI","LIN":"LIN","STREET":"STREET","SECT":"SECT","MAREA":"MAREA","LANE":"LANE","ALLEY":"ALLEY","HOUSE_NO":"HOUSE_NO","E_COORD97":"E_COORD97","N_COORD97":"N_COORD97","ADDRESS":"ADDRESS","OBJECTID":"OBJECTID"},"geometryType":"esriGeometryPoint","spatialReference":{"wkid":102443,"latestWkid":3826},"fields":[{"name":"ID","type":"esriFieldTypeDouble","alias":"ID"},{"name":"DIS_CODE","type":"esriFieldTypeInteger","alias":"DIS_CODE"},{"name":"TOWNNAME","type":"esriFieldTypeString","alias":"TOWNNAME","length":8},{"name":"LI","type":"esriFieldTypeString","alias":"LI","length":8},{"name":"LIN","type":"esriFieldTypeString","alias":"LIN","length":12},{"name":"STREET","type":"esriFieldTypeString","alias":"STREET","length":20},{"name":"SECT","type":"esriFieldTypeString","alias":"SECT","length":8},{"name":"MAREA","type":"esriFieldTypeString","alias":"MAREA","length":12},{"name":"LANE","type":"esriFieldTypeString","alias":"LANE","length":10},{"name":"ALLEY","type":"esriFieldTypeString","alias":"ALLEY","length":10},{"name":"HOUSE_NO","type":"esriFieldTypeString","alias":"HOUSE_NO","length":20},{"name":"E_COORD97","type":"esriFieldTypeDouble","alias":"E_COORD97"},{"name":"N_COORD97","type":"esriFieldTypeDouble","alias":"N_COORD97"},{"name":"ADDRESS","type":"esriFieldTypeString","alias":"ADDRESS","length":50},{"name":"OBJECTID","type":"esriFieldTypeOID","alias":"OBJECTID"}],"features":[{"attributes":{"ID":81401,"DIS_CODE":0,"TOWNNAME":"安南區","LI":"海佃里","LIN":"12鄰","STREET":"國安街","SECT":" ","MAREA":" ","LANE":"５６巷","ALLEY":"１２１弄","HOUSE_NO":"２３號","E_COORD97":166883.25,"N_COORD97":2547345.1699999999,"ADDRESS":"國安街５６巷１２１弄２３號","OBJECTID":81401},"geometry":{"x":166883.25000000093,"y":2547345.1699999999}},{"attributes":{"ID":81402,"DIS_CODE":0,"TOWNNAME":"安南區","LI":"海佃里","LIN":"12鄰","STREET":"國安街","SECT":" ","MAREA":" ","LANE":"５６巷","ALLEY":"１２１弄","HOUSE_NO":"２４號","E_COORD97":166878.59,"N_COORD97":2547370.4199999999,"ADDRESS":"國安街５６巷１２１弄２４號","OBJECTID":81402},"geometry":{"x":166878.59000000078,"y":2547370.4199999999}},{"attributes":{"ID":81403,"DIS_CODE":0,"TOWNNAME":"安南區","LI":"海佃里","LIN":"12鄰","STREET":"國安街","SECT":" ","MAREA":" ","LANE":"５６巷","ALLEY":"１２１弄","HOUSE_NO":"２５號","E_COORD97":166877.92999999999,"N_COORD97":2547344.5099999998,"ADDRESS":"國安街５６巷１２１弄２５號","OBJECTID":81403},"geometry":{"x":166877.93000000063,"y":2547344.5100000016}},{"attributes":{"ID":81404,"DIS_CODE":0,"TOWNNAME":"安南區","LI":"海佃里","LIN":"12鄰","STREET":"國安街","SECT":" ","MAREA":" ","LANE":"５６巷","ALLEY":"１２１弄","HOUSE_NO":"２６號","E_COORD97":166874.60000000001,"N_COORD97":2547369.75,"ADDRESS":"國安街５６巷１２１弄２６號","OBJECTID":81404},"geometry":{"x":166874.5999999987,"y":2547369.7500000019}},{"attributes":{"ID":81405,"DIS_CODE":0,"TOWNNAME":"安南區","LI":"海佃里","LIN":"12鄰","STREET":"國安街","SECT":" ","MAREA":" ","LANE":"５６巷","ALLEY":"１２１弄","HOUSE_NO":"２７號","E_COORD97":166873.94,"N_COORD97":2547343.1800000002,"ADDRESS":"國安街５６巷１２１弄２７號","OBJECTID":81405},"geometry":{"x":166873.94000000134,"y":2547343.1800000016}},{"attributes":{"ID":81406,"DIS_CODE":0,"TOWNNAME":"安南區","LI":"海佃里","LIN":"12鄰","STREET":"國安街","SECT":" ","MAREA":" ","LANE":"５６巷","ALLEY":"１２１弄","HOUSE_NO":"２８號","E_COORD97":166869.95000000001,"N_COORD97":2547369.0899999999,"ADDRESS":"國安街５６巷１２１弄２８號","OBJECTID":81406},"geometry":{"x":166869.95000000112,"y":2547369.0899999999}},{"attributes":{"ID":81407,"DIS_CODE":0,"TOWNNAME":"安南區","LI":"海佃里","LIN":"12鄰","STREET":"國安街","SECT":" ","MAREA":" ","LANE":"５６巷","ALLEY":"１２１弄","HOUSE_NO":"２９號","E_COORD97":166869.28,"N_COORD97":2547343.8500000001,"ADDRESS":"國安街５６巷１２１弄２９號","OBJECTID":81407},"geometry":{"x":166869.28000000119,"y":2547343.8499999978}},{"attributes":{"ID":81408,"DIS_CODE":0,"TOWNNAME":"安南區","LI":"海佃里","LIN":"12鄰","STREET":"國安街","SECT":" ","MAREA":" ","LANE":"５６巷","ALLEY":"１２１弄","HOUSE_NO":"２號","E_COORD97":166926.47,"N_COORD97":2547381.0499999998,"ADDRESS":"國安街５６巷１２１弄２號","OBJECTID":81408},"geometry":{"x":166926.46999999881,"y":2547381.0500000045}},{"attributes":{"ID":81409,"DIS_CODE":0,"TOWNNAME":"安南區","LI":"海佃里","LIN":"12鄰","STREET":"國安街","SECT":" ","MAREA":" ","LANE":"５６巷","ALLEY":"１２１弄","HOUSE_NO":"３０號","E_COORD97":166864.63,"N_COORD97":2547367.7599999998,"ADDRESS":"國安街５６巷１２１弄３０號","OBJECTID":81409},"geometry":{"x":166864.63000000175,"y":2547367.7599999998}},{"attributes":{"ID":81410,"DIS_CODE":0,"TOWNNAME":"柳營區","LI":"重溪里","LIN":"1鄰","STREET":" ","SECT":" ","MAREA":"小腳腿","LANE":" ","ALLEY":" ","HOUSE_NO":"４號之２０","E_COORD97":185139.17000000001,"N_COORD97":2576112.4399999999,"ADDRESS":"小腳腿４號之２０","OBJECTID":81410},"geometry":{"x":185139.17000000086,"y":2576112.4399999995}},{"attributes":{"ID":81411,"DIS_CODE":0,"TOWNNAME":"安南區","LI":"海佃里","LIN":"12鄰","STREET":"國安街","SECT":" ","MAREA":" ","LANE":"５６巷","ALLEY":"１２１弄","HOUSE_NO":"３１號","E_COORD97":166864.63,"N_COORD97":2547343.1800000002,"ADDRESS":"國安街５６巷１２１弄３１號","OBJECTID":81411},"geometry":{"x":166864.63000000175,"y":2547343.1800000016}},{"attributes":{"ID":81412,"DIS_CODE":0,"TOWNNAME":"安南區","LI":"海佃里","LIN":"12鄰","STREET":"國安街","SECT":" ","MAREA":" ","LANE":"５６巷","ALLEY":"１２１弄","HOUSE_NO":"３２號","E_COORD97":166860.64000000001,"N_COORD97":2547367.1000000001,"ADDRESS":"國安街５６巷１２１弄３２號","OBJECTID":81412},"geometry":{"x":166860.63999999966,"y":2547367.1000000015}},{"attributes":{"ID":81413,"DIS_CODE":0,"TOWNNAME":"安南區","LI":"海佃里","LIN":"12鄰","STREET":"國安街","SECT":" ","MAREA":" ","LANE":"５６巷","ALLEY":"１２１弄","HOUSE_NO":"３３號","E_COORD97":166860.64000000001,"N_COORD97":2547341.8500000001,"ADDRESS":"國安街５６巷１２１弄３３號","OBJECTID":81413},"geometry":{"x":166860.63999999966,"y":2547341.8500000015}},{"attributes":{"ID":81414,"DIS_CODE":0,"TOWNNAME":"安南區","LI":"海佃里","LIN":"12鄰","STREET":"國安街","SECT":" ","MAREA":" ","LANE":"５６巷","ALLEY":"１２１弄","HOUSE_NO":"３４號","E_COORD97":166856.64999999999,"N_COORD97":2547366.4300000002,"ADDRESS":"國安街５６巷１２１弄３４號","OBJECTID":81414},"geometry":{"x":166856.65000000224,"y":2547366.4299999997}},{"attributes":{"ID":81415,"DIS_CODE":0,"TOWNNAME":"善化區","LI":"東隆里","LIN":"7鄰","STREET":" ","SECT":" ","MAREA":"東勢寮","LANE":" ","ALLEY":" ","HOUSE_NO":"１９５號之１","E_COORD97":179859.48999999999,"N_COORD97":2561827.52,"ADDRESS":"東勢寮１９５號之１","OBJECTID":81415},"geometry":{"x":179859.49000000209,"y":2561827.5200000014}},{"attributes":{"ID":81416,"DIS_CODE":0,"TOWNNAME":"善化區","LI":"南關里","LIN":"7鄰","STREET":"三民路","SECT":" ","MAREA":" ","LANE":" ","ALLEY":" ","HOUSE_NO":"１之１６號","E_COORD97":176705.62,"N_COORD97":2558128.27,"ADDRESS":"三民路１之１６號","OBJECTID":81416},"geometry":{"x":176705.62000000197,"y":2558128.2699999996}},{"attributes":{"ID":81417,"DIS_CODE":0,"TOWNNAME":"善化區","LI":"東昌里","LIN":"7鄰","STREET":" ","SECT":" ","MAREA":"東勢寮","LANE":" ","ALLEY":" ","HOUSE_NO":"７１號","E_COORD97":180420.59,"N_COORD97":2561837.2599999998,"ADDRESS":"東勢寮７１號","OBJECTID":81417},"geometry":{"x":180420.58999999985,"y":2561837.2599999998}},{"attributes":{"ID":81418,"DIS_CODE":0,"TOWNNAME":"善化區","LI":"嘉北里","LIN":"7鄰","STREET":" ","SECT":" ","MAREA":"茄拔","LANE":" ","ALLEY":" ","HOUSE_NO":"１７４之４號","E_COORD97":181076.53,"N_COORD97":2559939.27,"ADDRESS":"茄拔１７４之４號","OBJECTID":81418},"geometry":{"x":181076.53000000212,"y":2559939.2699999996}},{"attributes":{"ID":81419,"DIS_CODE":0,"TOWNNAME":"善化區","LI":"東隆里","LIN":"7鄰","STREET":" ","SECT":" ","MAREA":"東勢寮","LANE":" ","ALLEY":" ","HOUSE_NO":"２００號之２","E_COORD97":179858.95999999999,"N_COORD97":2561746.27,"ADDRESS":"東勢寮２００號之２","OBJECTID":81419},"geometry":{"x":179858.95999999996,"y":2561746.2699999996}},{"attributes":{"ID":81420,"DIS_CODE":0,"TOWNNAME":"善化區","LI":"嘉北里","LIN":"7鄰","STREET":" ","SECT":" ","MAREA":"茄拔","LANE":" ","ALLEY":" ","HOUSE_NO":"１７４號","E_COORD97":181049.57999999999,"N_COORD97":2559924.5099999998,"ADDRESS":"茄拔１７４號","OBJECTID":81420},"geometry":{"x":181049.58000000101,"y":2559924.5099999998}},{"attributes":{"ID":81421,"DIS_CODE":0,"TOWNNAME":"善化區","LI":"東昌里","LIN":"7鄰","STREET":" ","SECT":" ","MAREA":"東勢寮","LANE":" ","ALLEY":" ","HOUSE_NO":"７７號","E_COORD97":180457.04999999999,"N_COORD97":2561891.5099999998,"ADDRESS":"東勢寮７７號","OBJECTID":81421},"geometry":{"x":180457.04999999888,"y":2561891.5100000035}},{"attributes":{"ID":81422,"DIS_CODE":0,"TOWNNAME":"善化區","LI":"溪美里","LIN":"7鄰","STREET":" ","SECT":" ","MAREA":"溪尾","LANE":" ","ALLEY":" ","HOUSE_NO":"６２號之２","E_COORD97":176855.01999999999,"N_COORD97":2561307.52,"ADDRESS":"溪尾６２號之２","OBJECTID":81422},"geometry":{"x":176855.02000000048,"y":2561307.5199999977}},{"attributes":{"ID":81423,"DIS_CODE":0,"TOWNNAME":"善化區","LI":"嘉北里","LIN":"7鄰","STREET":" ","SECT":" ","MAREA":"茄拔","LANE":" ","ALLEY":" ","HOUSE_NO":"１７６號之２","E_COORD97":181102.64000000001,"N_COORD97":2559974.77,"ADDRESS":"茄拔１７６號之２","OBJECTID":81423},"geometry":{"x":181102.6400000006,"y":2559974.7700000014}},{"attributes":{"ID":81424,"DIS_CODE":0,"TOWNNAME":"安南區","LI":"海佃里","LIN":"12鄰","STREET":"國安街","SECT":" ","MAREA":" ","LANE":"５６巷","ALLEY":"１２１弄","HOUSE_NO":"３５號","E_COORD97":166856.64999999999,"N_COORD97":2547341.1899999999,"ADDRESS":"國安街５６巷１２１弄３５號","OBJECTID":81424},"geometry":{"x":166856.65000000224,"y":2547341.1899999995}},{"attributes":{"ID":81425,"DIS_CODE":0,"TOWNNAME":"安南區","LI":"海佃里","LIN":"12鄰","STREET":"國安街","SECT":" ","MAREA":" ","LANE":"５６巷","ALLEY":"１２１弄","HOUSE_NO":"３６號","E_COORD97":166851.32999999999,"N_COORD97":2547365.77,"ADDRESS":"國安街５６巷１２１弄３６號","OBJECTID":81425},"geometry":{"x":166851.33000000007,"y":2547365.7700000014}},{"attributes":{"ID":81426,"DIS_CODE":0,"TOWNNAME":"安南區","LI":"海佃里","LIN":"12鄰","STREET":"國安街","SECT":" ","MAREA":" ","LANE":"５６巷","ALLEY":"１２１弄","HOUSE_NO":"３７號","E_COORD97":166849.32999999999,"N_COORD97":2547339.8599999999,"ADDRESS":"國安街５６巷１２１弄３７號","OBJECTID":81426},"geometry":{"x":166849.33000000007,"y":2547339.8599999994}},{"attributes":{"ID":81427,"DIS_CODE":0,"TOWNNAME":"安南區","LI":"海佃里","LIN":"12鄰","STREET":"國安街","SECT":" ","MAREA":" ","LANE":"５６巷","ALLEY":"１２１弄","HOUSE_NO":"３９號","E_COORD97":166845.34,"N_COORD97":2547339.8599999999,"ADDRESS":"國安街５６巷１２１弄３９號","OBJECTID":81427},"geometry":{"x":166845.34000000078,"y":2547339.8599999994}},{"attributes":{"ID":81428,"DIS_CODE":0,"TOWNNAME":"安南區","LI":"海佃里","LIN":"12鄰","STREET":"國安街","SECT":" ","MAREA":" ","LANE":"５６巷","ALLEY":"１２１弄","HOUSE_NO":"３號","E_COORD97":166925.81,"N_COORD97":2547351.8199999998,"ADDRESS":"國安街５６巷１２１弄３號","OBJECTID":81428},"geometry":{"x":166925.81000000145,"y":2547351.820000004}},{"attributes":{"ID":81429,"DIS_CODE":0,"TOWNNAME":"安南區","LI":"海佃里","LIN":"12鄰","STREET":"國安街","SECT":" ","MAREA":" ","LANE":"５６巷","ALLEY":"１２１弄","HOUSE_NO":"４０號","E_COORD97":166840.69,"N_COORD97":2547365.1000000001,"ADDRESS":"國安街５６巷１２１弄４０號","OBJECTID":81429},"geometry":{"x":166840.69000000041,"y":2547365.0999999996}},{"attributes":{"ID":81430,"DIS_CODE":0,"TOWNNAME":"善化區","LI":"溪美里","LIN":"7鄰","STREET":" ","SECT":" ","MAREA":"溪尾","LANE":" ","ALLEY":" ","HOUSE_NO":"６９號","E_COORD97":176742.92999999999,"N_COORD97":2561255.27,"ADDRESS":"溪尾６９號","OBJECTID":81430},"geometry":{"x":176742.9299999997,"y":2561255.2700000033}},{"attributes":{"ID":81431,"DIS_CODE":0,"TOWNNAME":"善化區","LI":"嘉北里","LIN":"7鄰","STREET":" ","SECT":" ","MAREA":"茄拔","LANE":" ","ALLEY":" ","HOUSE_NO":"１７５號之１","E_COORD97":181046.07000000001,"N_COORD97":2559975.77,"ADDRESS":"茄拔１７５號之１","OBJECTID":81431},"geometry":{"x":181046.07000000123,"y":2559975.7699999996}},{"attributes":{"ID":81432,"DIS_CODE":0,"TOWNNAME":"安南區","LI":"海佃里","LIN":"12鄰","STREET":"國安街","SECT":" ","MAREA":" ","LANE":"５６巷","ALLEY":"１２１弄","HOUSE_NO":"４１號","E_COORD97":166840.69,"N_COORD97":2547339.8599999999,"ADDRESS":"國安街５６巷１２１弄４１號","OBJECTID":81432},"geometry":{"x":166840.69000000041,"y":2547339.8599999994}},{"attributes":{"ID":81433,"DIS_CODE":0,"TOWNNAME":"善化區","LI":"東隆里","LIN":"7鄰","STREET":" ","SECT":" ","MAREA":"東勢寮","LANE":" ","ALLEY":" ","HOUSE_NO":"１９３號之９","E_COORD97":179822.20999999999,"N_COORD97":2561789.27,"ADDRESS":"東勢寮１９３號之９","OBJECTID":81433},"geometry":{"x":179822.21000000183,"y":2561789.2699999996}},{"attributes":{"ID":81434,"DIS_CODE":0,"TOWNNAME":"善化區","LI":"溪美里","LIN":"7鄰","STREET":" ","SECT":" ","MAREA":"溪尾","LANE":" ","ALLEY":" ","HOUSE_NO":"６７號","E_COORD97":176746.89999999999,"N_COORD97":2561293.77,"ADDRESS":"溪尾６７號","OBJECTID":81434},"geometry":{"x":176746.9000000013,"y":2561293.7700000014}},{"attributes":{"ID":81435,"DIS_CODE":0,"TOWNNAME":"善化區","LI":"嘉北里","LIN":"7鄰","STREET":" ","SECT":" ","MAREA":"茄拔","LANE":" ","ALLEY":" ","HOUSE_NO":"１７５號","E_COORD97":181075.67999999999,"N_COORD97":2559978.0099999998,"ADDRESS":"茄拔１７５號","OBJECTID":81435},"geometry":{"x":181075.68000000063,"y":2559978.0099999998}},{"attributes":{"ID":81436,"DIS_CODE":0,"TOWNNAME":"善化區","LI":"嘉北里","LIN":"7鄰","STREET":" ","SECT":" ","MAREA":"茄拔","LANE":" ","ALLEY":" ","HOUSE_NO":"１７４之１０號","E_COORD97":181051.26999999999,"N_COORD97":2559956.02,"ADDRESS":"茄拔１７４之１０號","OBJECTID":81436},"geometry":{"x":181051.26999999955,"y":2559956.0200000014}},{"attributes":{"ID":81437,"DIS_CODE":0,"TOWNNAME":"善化區","LI":"胡家里","LIN":"7鄰","STREET":" ","SECT":" ","MAREA":"胡厝寮","LANE":" ","ALLEY":" ","HOUSE_NO":"５５號","E_COORD97":175451.41,"N_COORD97":2560683.5,"ADDRESS":"胡厝寮５５號","OBJECTID":81437},"geometry":{"x":175451.41000000108,"y":2560683.5}},{"attributes":{"ID":81438,"DIS_CODE":0,"TOWNNAME":"善化區","LI":"田寮里","LIN":"7鄰","STREET":" ","SECT":" ","MAREA":"六分寮","LANE":" ","ALLEY":" ","HOUSE_NO":"７５號之３","E_COORD97":178446.41,"N_COORD97":2561404.77,"ADDRESS":"六分寮７５號之３","OBJECTID":81438},"geometry":{"x":178446.41000000108,"y":2561404.7700000014}},{"attributes":{"ID":81439,"DIS_CODE":0,"TOWNNAME":"安南區","LI":"海佃里","LIN":"12鄰","STREET":"國安街","SECT":" ","MAREA":" ","LANE":"５６巷","ALLEY":"１２１弄","HOUSE_NO":"４２號","E_COORD97":166836.70000000001,"N_COORD97":2547363.77,"ADDRESS":"國安街５６巷１２１弄４２號","OBJECTID":81439},"geometry":{"x":166836.70000000019,"y":2547363.7699999996}},{"attributes":{"ID":81440,"DIS_CODE":0,"TOWNNAME":"善化區","LI":"胡家里","LIN":"7鄰","STREET":" ","SECT":" ","MAREA":"胡厝寮","LANE":" ","ALLEY":" ","HOUSE_NO":"５５號之５","E_COORD97":175468.23999999999,"N_COORD97":2560703.27,"ADDRESS":"胡厝寮５５號之５","OBJECTID":81440},"geometry":{"x":175468.24000000022,"y":2560703.2700000014}},{"attributes":{"ID":81441,"DIS_CODE":0,"TOWNNAME":"善化區","LI":"田寮里","LIN":"7鄰","STREET":" ","SECT":" ","MAREA":"六分寮","LANE":" ","ALLEY":" ","HOUSE_NO":"７３號","E_COORD97":178431.64000000001,"N_COORD97":2561354.75,"ADDRESS":"六分寮７３號","OBJECTID":81441},"geometry":{"x":178431.63999999966,"y":2561354.7500000019}},{"attributes":{"ID":81442,"DIS_CODE":0,"TOWNNAME":"安南區","LI":"海佃里","LIN":"12鄰","STREET":"國安街","SECT":" ","MAREA":" ","LANE":"５６巷","ALLEY":"１２１弄","HOUSE_NO":"４３號","E_COORD97":166837.35999999999,"N_COORD97":2547337.8700000001,"ADDRESS":"國安街５６巷１２１弄４３號","OBJECTID":81442},"geometry":{"x":166837.36000000034,"y":2547337.870000001}},{"attributes":{"ID":81443,"DIS_CODE":0,"TOWNNAME":"善化區","LI":"田寮里","LIN":"7鄰","STREET":" ","SECT":" ","MAREA":"六分寮","LANE":" ","ALLEY":" ","HOUSE_NO":"７５號之４","E_COORD97":178441.26000000001,"N_COORD97":2561402.02,"ADDRESS":"六分寮７５號之４","OBJECTID":81443},"geometry":{"x":178441.25999999978,"y":2561402.0199999996}},{"attributes":{"ID":81444,"DIS_CODE":0,"TOWNNAME":"安南區","LI":"海佃里","LIN":"12鄰","STREET":"國安街","SECT":" ","MAREA":" ","LANE":"５６巷","ALLEY":"１２１弄","HOUSE_NO":"４５號","E_COORD97":166831.38,"N_COORD97":2547337.8700000001,"ADDRESS":"國安街５６巷１２１弄４５號","OBJECTID":81444},"geometry":{"x":166831.38000000082,"y":2547337.870000001}},{"attributes":{"ID":81445,"DIS_CODE":0,"TOWNNAME":"善化區","LI":"小新里","LIN":"7鄰","STREET":" ","SECT":" ","MAREA":"小新營","LANE":" ","ALLEY":" ","HOUSE_NO":"５６號之２１","E_COORD97":179614.91,"N_COORD97":2558506.77,"ADDRESS":"小新營５６號之２１","OBJECTID":81445},"geometry":{"x":179614.91000000108,"y":2558506.7700000014}},{"attributes":{"ID":81446,"DIS_CODE":0,"TOWNNAME":"柳營區","LI":"重溪里","LIN":"1鄰","STREET":" ","SECT":" ","MAREA":"小腳腿","LANE":" ","ALLEY":" ","HOUSE_NO":"４號之２２","E_COORD97":185175.42000000001,"N_COORD97":2576135.7200000002,"ADDRESS":"小腳腿４號之２２","OBJECTID":81446},"geometry":{"x":185175.41999999993,"y":2576135.7200000007}},{"attributes":{"ID":81447,"DIS_CODE":0,"TOWNNAME":"安南區","LI":"海佃里","LIN":"12鄰","STREET":"國安街","SECT":" ","MAREA":" ","LANE":"５６巷","ALLEY":"１２１弄","HOUSE_NO":"４６號","E_COORD97":166828.04999999999,"N_COORD97":2547362.4500000002,"ADDRESS":"國安街５６巷１２１弄４６號","OBJECTID":81447},"geometry":{"x":166828.05000000075,"y":2547362.4499999993}},{"attributes":{"ID":81448,"DIS_CODE":0,"TOWNNAME":"善化區","LI":"胡家里","LIN":"7鄰","STREET":" ","SECT":" ","MAREA":"胡厝寮","LANE":" ","ALLEY":" ","HOUSE_NO":"５３號之３","E_COORD97":175471.31,"N_COORD97":2560663.27,"ADDRESS":"胡厝寮５３號之３","OBJECTID":81448},"geometry":{"x":175471.31000000145,"y":2560663.2700000014}},{"attributes":{"ID":81449,"DIS_CODE":0,"TOWNNAME":"安南區","LI":"海佃里","LIN":"12鄰","STREET":"國安街","SECT":" ","MAREA":" ","LANE":"５６巷","ALLEY":"１２１弄","HOUSE_NO":"４７號","E_COORD97":166827.39000000001,"N_COORD97":2547336.54,"ADDRESS":"國安街５６巷１２１弄４７號","OBJECTID":81449},"geometry":{"x":166827.3900000006,"y":2547336.540000001}},{"attributes":{"ID":81450,"DIS_CODE":0,"TOWNNAME":"善化區","LI":"田寮里","LIN":"7鄰","STREET":" ","SECT":" ","MAREA":"六分寮","LANE":" ","ALLEY":" ","HOUSE_NO":"７５號之２","E_COORD97":178449.87,"N_COORD97":2561407.02,"ADDRESS":"六分寮７５號之２","OBJECTID":81450},"geometry":{"x":178449.87000000197,"y":2561407.0200000014}},{"attributes":{"ID":81451,"DIS_CODE":0,"TOWNNAME":"安南區","LI":"海佃里","LIN":"12鄰","STREET":"國安街","SECT":" ","MAREA":" ","LANE":"５６巷","ALLEY":"１２１弄","HOUSE_NO":"４８號","E_COORD97":166823.39999999999,"N_COORD97":2547361.1200000001,"ADDRESS":"國安街５６巷１２１弄４８號","OBJECTID":81451},"geometry":{"x":166823.4000000013,"y":2547361.1200000029}},{"attributes":{"ID":81452,"DIS_CODE":0,"TOWNNAME":"善化區","LI":"胡家里","LIN":"7鄰","STREET":" ","SECT":" ","MAREA":"胡厝寮","LANE":" ","ALLEY":" ","HOUSE_NO":"５７號","E_COORD97":175402.28,"N_COORD97":2560701.9100000001,"ADDRESS":"胡厝寮５７號","OBJECTID":81452},"geometry":{"x":175402.28000000026,"y":2560701.9100000001}},{"attributes":{"ID":81453,"DIS_CODE":0,"TOWNNAME":"安南區","LI":"海佃里","LIN":"12鄰","STREET":"國安街","SECT":" ","MAREA":" ","LANE":"５６巷","ALLEY":"１２１弄","HOUSE_NO":"４９號","E_COORD97":166822.73000000001,"N_COORD97":2547335.8700000001,"ADDRESS":"國安街５６巷１２１弄４９號","OBJECTID":81453},"geometry":{"x":166822.73000000138,"y":2547335.8700000029}},{"attributes":{"ID":81454,"DIS_CODE":0,"TOWNNAME":"安南區","LI":"海佃里","LIN":"12鄰","STREET":"國安街","SECT":" ","MAREA":" ","LANE":"５６巷","ALLEY":"１２１弄","HOUSE_NO":"４號","E_COORD97":166921.82000000001,"N_COORD97":2547380.3799999999,"ADDRESS":"國安街５６巷１２１弄４號","OBJECTID":81454},"geometry":{"x":166921.82000000123,"y":2547380.3800000027}},{"attributes":{"ID":81455,"DIS_CODE":0,"TOWNNAME":"安南區","LI":"海佃里","LIN":"12鄰","STREET":"國安街","SECT":" ","MAREA":" ","LANE":"５６巷","ALLEY":"１２１弄","HOUSE_NO":"５０號","E_COORD97":166818.07999999999,"N_COORD97":2547359.79,"ADDRESS":"國安街５６巷１２１弄５０號","OBJECTID":81455},"geometry":{"x":166818.08000000101,"y":2547359.7899999991}},{"attributes":{"ID":81456,"DIS_CODE":0,"TOWNNAME":"安南區","LI":"海佃里","LIN":"12鄰","STREET":"國安街","SECT":" ","MAREA":" ","LANE":"５６巷","ALLEY":"１２１弄","HOUSE_NO":"５１號","E_COORD97":166818.07999999999,"N_COORD97":2547335.21,"ADDRESS":"國安街５６巷１２１弄５１號","OBJECTID":81456},"geometry":{"x":166818.08000000101,"y":2547335.2100000009}},{"attributes":{"ID":81457,"DIS_CODE":0,"TOWNNAME":"安南區","LI":"海佃里","LIN":"12鄰","STREET":"國安街","SECT":" ","MAREA":" ","LANE":"５６巷","ALLEY":"１２１弄","HOUSE_NO":"５２號","E_COORD97":166814.09,"N_COORD97":2547359.79,"ADDRESS":"國安街５６巷１２１弄５２號","OBJECTID":81457},"geometry":{"x":166814.09000000171,"y":2547359.7899999991}},{"attributes":{"ID":81458,"DIS_CODE":0,"TOWNNAME":"安南區","LI":"海佃里","LIN":"12鄰","STREET":"國安街","SECT":" ","MAREA":" ","LANE":"５６巷","ALLEY":"１２１弄","HOUSE_NO":"５３號","E_COORD97":166814.75,"N_COORD97":2547334.5499999998,"ADDRESS":"國安街５６巷１２１弄５３號","OBJECTID":81458},"geometry":{"x":166814.75000000186,"y":2547334.5500000026}},{"attributes":{"ID":81459,"DIS_CODE":0,"TOWNNAME":"安南區","LI":"海佃里","LIN":"12鄰","STREET":"國安街","SECT":" ","MAREA":" ","LANE":"５６巷","ALLEY":"１２１弄","HOUSE_NO":"５４號","E_COORD97":166809.42999999999,"N_COORD97":2547358.46,"ADDRESS":"國安街５６巷１２１弄５４號","OBJECTID":81459},"geometry":{"x":166809.4299999997,"y":2547358.4600000046}},{"attributes":{"ID":81460,"DIS_CODE":0,"TOWNNAME":"安南區","LI":"海佃里","LIN":"12鄰","STREET":"國安街","SECT":" ","MAREA":" ","LANE":"５６巷","ALLEY":"１２１弄","HOUSE_NO":"５５號","E_COORD97":166809.42999999999,"N_COORD97":2547334.5499999998,"ADDRESS":"國安街５６巷１２１弄５５號","OBJECTID":81460},"geometry":{"x":166809.4299999997,"y":2547334.5500000026}},{"attributes":{"ID":81461,"DIS_CODE":0,"TOWNNAME":"柳營區","LI":"重溪里","LIN":"1鄰","STREET":" ","SECT":" ","MAREA":"小腳腿","LANE":" ","ALLEY":" ","HOUSE_NO":"４號之１０","E_COORD97":185178.32999999999,"N_COORD97":2576156.3399999999,"ADDRESS":"小腳腿４號之１０","OBJECTID":81461},"geometry":{"x":185178.33000000194,"y":2576156.3400000017}},{"attributes":{"ID":81462,"DIS_CODE":0,"TOWNNAME":"柳營區","LI":"重溪里","LIN":"1鄰","STREET":" ","SECT":" ","MAREA":"小腳腿","LANE":" ","ALLEY":" ","HOUSE_NO":"４號之１１","E_COORD97":185182.54999999999,"N_COORD97":2576155.23,"ADDRESS":"小腳腿４號之１１","OBJECTID":81462},"geometry":{"x":185182.54999999981,"y":2576155.2300000023}},{"attributes":{"ID":81463,"DIS_CODE":0,"TOWNNAME":"柳營區","LI":"重溪里","LIN":"1鄰","STREET":" ","SECT":" ","MAREA":"小腳腿","LANE":" ","ALLEY":" ","HOUSE_NO":"４號之１２","E_COORD97":185186.60000000001,"N_COORD97":2576154.3799999999,"ADDRESS":"小腳腿４號之１２","OBJECTID":81463},"geometry":{"x":185186.60000000056,"y":2576154.3799999971}},{"attributes":{"ID":81464,"DIS_CODE":0,"TOWNNAME":"柳營區","LI":"重溪里","LIN":"1鄰","STREET":" ","SECT":" ","MAREA":"小腳腿","LANE":" ","ALLEY":" ","HOUSE_NO":"４號之１３","E_COORD97":185190.76000000001,"N_COORD97":2576153.4100000001,"ADDRESS":"小腳腿４號之１３","OBJECTID":81464},"geometry":{"x":185190.76000000071,"y":2576153.410000002}},{"attributes":{"ID":81465,"DIS_CODE":0,"TOWNNAME":"柳營區","LI":"重溪里","LIN":"1鄰","STREET":" ","SECT":" ","MAREA":"小腳腿","LANE":" ","ALLEY":" ","HOUSE_NO":"４號之１４","E_COORD97":185195.07000000001,"N_COORD97":2576152.2000000002,"ADDRESS":"小腳腿４號之１４","OBJECTID":81465},"geometry":{"x":185195.0700000003,"y":2576152.1999999993}},{"attributes":{"ID":81466,"DIS_CODE":0,"TOWNNAME":"柳營區","LI":"重溪里","LIN":"1鄰","STREET":" ","SECT":" ","MAREA":"小腳腿","LANE":" ","ALLEY":" ","HOUSE_NO":"４號之１５","E_COORD97":185199.60999999999,"N_COORD97":2576153.0299999998,"ADDRESS":"小腳腿４號之１５","OBJECTID":81466},"geometry":{"x":185199.61000000034,"y":2576153.0299999993}},{"attributes":{"ID":81467,"DIS_CODE":0,"TOWNNAME":"安南區","LI":"海佃里","LIN":"12鄰","STREET":"國安街","SECT":" ","MAREA":" ","LANE":"５６巷","ALLEY":"１２１弄","HOUSE_NO":"５６號","E_COORD97":166805.44,"N_COORD97":2547357.7999999998,"ADDRESS":"國安街５６巷１２１弄５６號","OBJECTID":81467},"geometry":{"x":166805.44000000227,"y":2547357.8000000007}},{"attributes":{"ID":81468,"DIS_CODE":0,"TOWNNAME":"安南區","LI":"海佃里","LIN":"12鄰","STREET":"國安街","SECT":" ","MAREA":" ","LANE":"５６巷","ALLEY":"１２１弄","HOUSE_NO":"５７號","E_COORD97":166805.44,"N_COORD97":2547333.8799999999,"ADDRESS":"國安街５６巷１２１弄５７號","OBJECTID":81468},"geometry":{"x":166805.44000000227,"y":2547333.8800000008}},{"attributes":{"ID":81469,"DIS_CODE":0,"TOWNNAME":"安南區","LI":"海佃里","LIN":"12鄰","STREET":"國安街","SECT":" ","MAREA":" ","LANE":"５６巷","ALLEY":"１２１弄","HOUSE_NO":"５８號","E_COORD97":166800.79000000001,"N_COORD97":2547356.4700000002,"ADDRESS":"國安街５６巷１２１弄５８號","OBJECTID":81469},"geometry":{"x":166800.79000000004,"y":2547356.4700000007}},{"attributes":{"ID":81470,"DIS_CODE":0,"TOWNNAME":"安南區","LI":"海佃里","LIN":"12鄰","STREET":"國安街","SECT":" ","MAREA":" ","LANE":"５６巷","ALLEY":"１２１弄","HOUSE_NO":"５９號","E_COORD97":166800.79000000001,"N_COORD97":2547332.5499999998,"ADDRESS":"國安街５６巷１２１弄５９號","OBJECTID":81470},"geometry":{"x":166800.79000000004,"y":2547332.5500000007}},{"attributes":{"ID":81471,"DIS_CODE":0,"TOWNNAME":"安南區","LI":"海佃里","LIN":"12鄰","STREET":"國安街","SECT":" ","MAREA":" ","LANE":"５６巷","ALLEY":"１２１弄","HOUSE_NO":"５號","E_COORD97":166922.48000000001,"N_COORD97":2547351.1499999999,"ADDRESS":"國安街５６巷１２１弄５號","OBJECTID":81471},"geometry":{"x":166922.48000000138,"y":2547351.1500000022}},{"attributes":{"ID":81472,"DIS_CODE":0,"TOWNNAME":"柳營區","LI":"重溪里","LIN":"1鄰","STREET":" ","SECT":" ","MAREA":"小腳腿","LANE":" ","ALLEY":" ","HOUSE_NO":"４號之１６","E_COORD97":185203.45000000001,"N_COORD97":2576152,"ADDRESS":"小腳腿４號之１６","OBJECTID":81472},"geometry":{"x":185203.45000000112,"y":2576152.0000000019}},{"attributes":{"ID":81473,"DIS_CODE":0,"TOWNNAME":"柳營區","LI":"重溪里","LIN":"1鄰","STREET":" ","SECT":" ","MAREA":"小腳腿","LANE":" ","ALLEY":" ","HOUSE_NO":"４號之１８","E_COORD97":185154.94,"N_COORD97":2576148.79,"ADDRESS":"小腳腿４號之１８","OBJECTID":81473},"geometry":{"x":185154.94000000134,"y":2576148.7900000028}},{"attributes":{"ID":81474,"DIS_CODE":0,"TOWNNAME":"安南區","LI":"海佃里","LIN":"12鄰","STREET":"國安街","SECT":" ","MAREA":" ","LANE":"５６巷","ALLEY":"１２１弄","HOUSE_NO":"６０號","E_COORD97":166796.79999999999,"N_COORD97":2547355.7999999998,"ADDRESS":"國安街５６巷１２１弄６０號","OBJECTID":81474},"geometry":{"x":166796.79999999981,"y":2547355.8000000045}},{"attributes":{"ID":81475,"DIS_CODE":0,"TOWNNAME":"安南區","LI":"海佃里","LIN":"12鄰","STREET":"國安街","SECT":" ","MAREA":" ","LANE":"５６巷","ALLEY":"１２１弄","HOUSE_NO":"６１號","E_COORD97":166796.79999999999,"N_COORD97":2547331.8900000001,"ADDRESS":"國安街５６巷１２１弄６１號","OBJECTID":81475},"geometry":{"x":166796.79999999981,"y":2547331.8900000025}},{"attributes":{"ID":81476,"DIS_CODE":0,"TOWNNAME":"柳營區","LI":"重溪里","LIN":"1鄰","STREET":" ","SECT":" ","MAREA":"小腳腿","LANE":" ","ALLEY":" ","HOUSE_NO":"４號之２１","E_COORD97":185152.60000000001,"N_COORD97":2576141.8700000001,"ADDRESS":"小腳腿４號之２１","OBJECTID":81476},"geometry":{"x":185152.60000000056,"y":2576141.870000001}},{"attributes":{"ID":81477,"DIS_CODE":0,"TOWNNAME":"安南區","LI":"海佃里","LIN":"12鄰","STREET":"國安街","SECT":" ","MAREA":" ","LANE":"５６巷","ALLEY":"１２１弄","HOUSE_NO":"６２號","E_COORD97":166792.81,"N_COORD97":2547355.7999999998,"ADDRESS":"國安街５６巷１２１弄６２號","OBJECTID":81477},"geometry":{"x":166792.80999999959,"y":2547355.8000000045}},{"attributes":{"ID":81478,"DIS_CODE":0,"TOWNNAME":"永康區","LI":"新樹里","LIN":"7鄰","STREET":"富強路","SECT":"二段","MAREA":" ","LANE":" ","ALLEY":" ","HOUSE_NO":"４８號","E_COORD97":175702.34,"N_COORD97":2546912.6299999999,"ADDRESS":"富強路二段４８號","OBJECTID":81478},"geometry":{"x":175702.34000000078,"y":2546912.629999999}},{"attributes":{"ID":81479,"DIS_CODE":0,"TOWNNAME":"中西區","LI":"永福里","LIN":"7鄰","STREET":"中正路","SECT":" ","MAREA":" ","LANE":" ","ALLEY":" ","HOUSE_NO":"６７號","E_COORD97":168145.25,"N_COORD97":2543622.77,"ADDRESS":"中正路６７號","OBJECTID":81479},"geometry":{"x":168145.25,"y":2543622.7700000014}},{"attributes":{"ID":81480,"DIS_CODE":0,"TOWNNAME":"柳營區","LI":"重溪里","LIN":"1鄰","STREET":" ","SECT":" ","MAREA":"小腳腿","LANE":" ","ALLEY":" ","HOUSE_NO":"４號之２３","E_COORD97":185145.5,"N_COORD97":2576131.3900000001,"ADDRESS":"小腳腿４號之２３","OBJECTID":81480},"geometry":{"x":185145.50000000093,"y":2576131.3900000006}},{"attributes":{"ID":81481,"DIS_CODE":0,"TOWNNAME":"柳營區","LI":"重溪里","LIN":"1鄰","STREET":" ","SECT":" ","MAREA":"小腳腿","LANE":" ","ALLEY":" ","HOUSE_NO":"４號之５","E_COORD97":185160.60999999999,"N_COORD97":2576174.1200000001,"ADDRESS":"小腳腿４號之５","OBJECTID":81481},"geometry":{"x":185160.61000000034,"y":2576174.120000001}},{"attributes":{"ID":81482,"DIS_CODE":0,"TOWNNAME":"柳營區","LI":"重溪里","LIN":"1鄰","STREET":" ","SECT":" ","MAREA":"小腳腿","LANE":" ","ALLEY":" ","HOUSE_NO":"４號之６","E_COORD97":185159.35000000001,"N_COORD97":2576169.6499999999,"ADDRESS":"小腳腿４號之６","OBJECTID":81482},"geometry":{"x":185159.35000000056,"y":2576169.6500000004}},{"attributes":{"ID":81483,"DIS_CODE":0,"TOWNNAME":"柳營區","LI":"重溪里","LIN":"1鄰","STREET":" ","SECT":" ","MAREA":"小腳腿","LANE":" ","ALLEY":" ","HOUSE_NO":"４號之７","E_COORD97":185158.28,"N_COORD97":2576165.4199999999,"ADDRESS":"小腳腿４號之７","OBJECTID":81483},"geometry":{"x":185158.28000000026,"y":2576165.4200000037}},{"attributes":{"ID":81484,"DIS_CODE":0,"TOWNNAME":"柳營區","LI":"重溪里","LIN":"1鄰","STREET":" ","SECT":" ","MAREA":"小腳腿","LANE":" ","ALLEY":" ","HOUSE_NO":"４號之８","E_COORD97":185157.60999999999,"N_COORD97":2576161.27,"ADDRESS":"小腳腿４號之８","OBJECTID":81484},"geometry":{"x":185157.61000000034,"y":2576161.2699999996}},{"attributes":{"ID":81485,"DIS_CODE":0,"TOWNNAME":"永康區","LI":"蔦松里","LIN":"7鄰","STREET":"中正北路","SECT":" ","MAREA":" ","LANE":" ","ALLEY":" ","HOUSE_NO":"５８４號","E_COORD97":174333.92000000001,"N_COORD97":2549519.23,"ADDRESS":"中正北路５８４號","OBJECTID":81485},"geometry":{"x":174333.92000000086,"y":2549519.2300000042}},{"attributes":{"ID":81486,"DIS_CODE":0,"TOWNNAME":"永康區","LI":"蔦松里","LIN":"7鄰","STREET":"蔦松一街","SECT":" ","MAREA":" ","LANE":" ","ALLEY":" ","HOUSE_NO":"４０號","E_COORD97":173987.92000000001,"N_COORD97":2549421.9300000002,"ADDRESS":"蔦松一街４０號","OBJECTID":81486},"geometry":{"x":173987.92000000086,"y":2549421.9300000034}},{"attributes":{"ID":81487,"DIS_CODE":0,"TOWNNAME":"柳營區","LI":"重溪里","LIN":"1鄰","STREET":" ","SECT":" ","MAREA":"小腳腿","LANE":" ","ALLEY":" ","HOUSE_NO":"４號之９","E_COORD97":185173.98999999999,"N_COORD97":2576157.6200000001,"ADDRESS":"小腳腿４號之９","OBJECTID":81487},"geometry":{"x":185173.99000000209,"y":2576157.620000001}},{"attributes":{"ID":81488,"DIS_CODE":0,"TOWNNAME":"永康區","LI":"龍潭里","LIN":"7鄰","STREET":"龍埔街","SECT":" ","MAREA":" ","LANE":" ","ALLEY":" ","HOUSE_NO":"３８號","E_COORD97":174770.70999999999,"N_COORD97":2548215.4700000002,"ADDRESS":"龍埔街３８號","OBJECTID":81488},"geometry":{"x":174770.71000000089,"y":2548215.4699999988}},{"attributes":{"ID":81489,"DIS_CODE":0,"TOWNNAME":"永康區","LI":"龍潭里","LIN":"7鄰","STREET":"龍埔街","SECT":" ","MAREA":" ","LANE":" ","ALLEY":" ","HOUSE_NO":"３０號","E_COORD97":174783.25,"N_COORD97":2548219.9500000002,"ADDRESS":"龍埔街３０號","OBJECTID":81489},"geometry":{"x":174783.25,"y":2548219.9499999993}},{"attributes":{"ID":81490,"DIS_CODE":0,"TOWNNAME":"永康區","LI":"龍潭里","LIN":"7鄰","STREET":"龍埔街","SECT":" ","MAREA":" ","LANE":" ","ALLEY":" ","HOUSE_NO":"２６號","E_COORD97":174795.07999999999,"N_COORD97":2548207.9900000002,"ADDRESS":"龍埔街２６號","OBJECTID":81490},"geometry":{"x":174795.08000000007,"y":2548207.9900000002}},{"attributes":{"ID":81491,"DIS_CODE":0,"TOWNNAME":"南區","LI":"文華里","LIN":"17鄰","STREET":"德南街","SECT":" ","MAREA":" ","LANE":" ","ALLEY":" ","HOUSE_NO":"３２號","E_COORD97":166821.10999999999,"N_COORD97":2543098.0499999998,"ADDRESS":"德南街３２號","OBJECTID":81491},"geometry":{"x":166821.1100000022,"y":2543098.0500000007}},{"attributes":{"ID":81492,"DIS_CODE":0,"TOWNNAME":"永康區","LI":"\u25A0行里","LIN":"7鄰","STREET":"新中街","SECT":" ","MAREA":" ","LANE":" ","ALLEY":" ","HOUSE_NO":"２００號","E_COORD97":172442.89999999999,"N_COORD97":2548768.2400000002,"ADDRESS":"新中街２００號","OBJECTID":81492},"geometry":{"x":172442.9000000013,"y":2548768.2400000002}},{"attributes":{"ID":81493,"DIS_CODE":0,"TOWNNAME":"永康區","LI":"龍潭里","LIN":"7鄰","STREET":"龍埔街","SECT":" ","MAREA":" ","LANE":" ","ALLEY":" ","HOUSE_NO":"２２號","E_COORD97":174802.5,"N_COORD97":2548206.79,"ADDRESS":"龍埔街２２號","OBJECTID":81493},"geometry":{"x":174802.50000000186,"y":2548206.7899999991}},{"attributes":{"ID":81494,"DIS_CODE":0,"TOWNNAME":"安南區","LI":"海佃里","LIN":"12鄰","STREET":"國安街","SECT":" ","MAREA":" ","LANE":"５６巷","ALLEY":"１２１弄","HOUSE_NO":"６３號","E_COORD97":166792.14000000001,"N_COORD97":2547331.2200000002,"ADDRESS":"國安街５６巷１２１弄６３號","OBJECTID":81494},"geometry":{"x":166792.1400000006,"y":2547331.2200000007}},{"attributes":{"ID":81495,"DIS_CODE":0,"TOWNNAME":"安南區","LI":"海佃里","LIN":"12鄰","STREET":"國安街","SECT":" ","MAREA":" ","LANE":"５６巷","ALLEY":"１２１弄","HOUSE_NO":"６４號","E_COORD97":166788.14999999999,"N_COORD97":2547353.8100000001,"ADDRESS":"國安街５６巷１２１弄６４號","OBJECTID":81495},"geometry":{"x":166788.15000000037,"y":2547353.8100000005}},{"attributes":{"ID":81496,"DIS_CODE":0,"TOWNNAME":"安南區","LI":"海佃里","LIN":"12鄰","STREET":"國安街","SECT":" ","MAREA":" ","LANE":"５６巷","ALLEY":"１２１弄","HOUSE_NO":"６５號","E_COORD97":166786.82000000001,"N_COORD97":2547330.5600000001,"ADDRESS":"國安街５６巷１２１弄６５號","OBJECTID":81496},"geometry":{"x":166786.8200000003,"y":2547330.5600000024}},{"attributes":{"ID":81497,"DIS_CODE":0,"TOWNNAME":"安南區","LI":"海佃里","LIN":"12鄰","STREET":"國安街","SECT":" ","MAREA":" ","LANE":"５６巷","ALLEY":"１２１弄","HOUSE_NO":"６６號","E_COORD97":166784.16,"N_COORD97":2547353.8100000001,"ADDRESS":"國安街５６巷１２１弄６６號","OBJECTID":81497},"geometry":{"x":166784.16000000108,"y":2547353.8100000005}},{"attributes":{"ID":81498,"DIS_CODE":0,"TOWNNAME":"安南區","LI":"海佃里","LIN":"12鄰","STREET":"國安街","SECT":" ","MAREA":" ","LANE":"５６巷","ALLEY":"１２１弄","HOUSE_NO":"６７號","E_COORD97":166782.82999999999,"N_COORD97":2547327.8999999999,"ADDRESS":"國安街５６巷１２１弄６７號","OBJECTID":81498},"geometry":{"x":166782.83000000101,"y":2547327.9000000022}},{"attributes":{"ID":81499,"DIS_CODE":0,"TOWNNAME":"安南區","LI":"海佃里","LIN":"12鄰","STREET":"國安街","SECT":" ","MAREA":" ","LANE":"５６巷","ALLEY":"１２１弄","HOUSE_NO":"６號","E_COORD97":166917.82999999999,"N_COORD97":2547379.7200000002,"ADDRESS":"國安街５６巷１２１弄６號","OBJECTID":81499},"geometry":{"x":166917.83000000194,"y":2547379.7199999988}},{"attributes":{"ID":81500,"DIS_CODE":0,"TOWNNAME":"安南區","LI":"海佃里","LIN":"12鄰","STREET":"國安街","SECT":" ","MAREA":" ","LANE":"５６巷","ALLEY":"１２１弄","HOUSE_NO":"７號","E_COORD97":166917.82999999999,"N_COORD97":2547351.1499999999,"ADDRESS":"國安街５６巷１２１弄７號","OBJECTID":81500},"geometry":{"x":166917.83000000194,"y":2547351.1500000022}},{"attributes":{"ID":81501,"DIS_CODE":0,"TOWNNAME":"安南區","LI":"海佃里","LIN":"12鄰","STREET":"國安街","SECT":" ","MAREA":" ","LANE":"５６巷","ALLEY":"１２１弄","HOUSE_NO":"８號","E_COORD97":166913.17000000001,"N_COORD97":2547378.3900000001,"ADDRESS":"國安街５６巷１２１弄８號","OBJECTID":81501},"geometry":{"x":166913.16999999993,"y":2547378.3900000006}},{"attributes":{"ID":81502,"DIS_CODE":0,"TOWNNAME":"安南區","LI":"海佃里","LIN":"12鄰","STREET":"國安街","SECT":" ","MAREA":" ","LANE":"５６巷","ALLEY":"１２１弄","HOUSE_NO":"９號","E_COORD97":166913.84,"N_COORD97":2547350.4900000002,"ADDRESS":"國安街５６巷１２１弄９號","OBJECTID":81502},"geometry":{"x":166913.83999999985,"y":2547350.4900000039}},{"attributes":{"ID":81503,"DIS_CODE":0,"TOWNNAME":"永康區","LI":"三合里","LIN":"12鄰","STREET":"南工街","SECT":" ","MAREA":" ","LANE":"２４７巷","ALLEY":"３３弄","HOUSE_NO":"２２號","E_COORD97":172008.87,"N_COORD97":2545798.5899999999,"ADDRESS":"南工街２４７巷３３弄２２號","OBJECTID":81503},"geometry":{"x":172008.87000000104,"y":2545798.5899999999}},{"attributes":{"ID":81504,"DIS_CODE":0,"TOWNNAME":"永康區","LI":"三合里","LIN":"12鄰","STREET":"南工街","SECT":" ","MAREA":" ","LANE":"２４７巷","ALLEY":"３３弄","HOUSE_NO":"２７號","E_COORD97":172021.51000000001,"N_COORD97":2545806.02,"ADDRESS":"南工街２４７巷３３弄２７號","OBJECTID":81504},"geometry":{"x":172021.50999999978,"y":2545806.0199999996}},{"attributes":{"ID":81505,"DIS_CODE":0,"TOWNNAME":"永康區","LI":"三合里","LIN":"12鄰","STREET":"南工街","SECT":" ","MAREA":" ","LANE":"２４７巷","ALLEY":"３３弄","HOUSE_NO":"２６號","E_COORD97":172016.67000000001,"N_COORD97":2545797.5899999999,"ADDRESS":"南工街２４７巷３３弄２６號","OBJECTID":81505},"geometry":{"x":172016.67000000086,"y":2545797.5900000017}},{"attributes":{"ID":81506,"DIS_CODE":0,"TOWNNAME":"永康區","LI":"三合里","LIN":"12鄰","STREET":"南工街","SECT":" ","MAREA":" ","LANE":"２４７巷","ALLEY":"３３弄","HOUSE_NO":"１８號","E_COORD97":172000.87,"N_COORD97":2545799.8399999999,"ADDRESS":"南工街２４７巷３３弄１８號","OBJECTID":81506},"geometry":{"x":172000.87000000011,"y":2545799.8400000017}},{"attributes":{"ID":81507,"DIS_CODE":0,"TOWNNAME":"柳營區","LI":"重溪里","LIN":"1鄰","STREET":" ","SECT":" ","MAREA":"小腳腿","LANE":" ","ALLEY":" ","HOUSE_NO":"７號之２","E_COORD97":185185.26000000001,"N_COORD97":2576244.1400000001,"ADDRESS":"小腳腿７號之２","OBJECTID":81507},"geometry":{"x":185185.26000000164,"y":2576244.1400000025}},{"attributes":{"ID":81508,"DIS_CODE":0,"TOWNNAME":"永康區","LI":"埔園里","LIN":"12鄰","STREET":"四維街","SECT":" ","MAREA":" ","LANE":"５８巷","ALLEY":"２６弄","HOUSE_NO":"４號","E_COORD97":173516.48999999999,"N_COORD97":2548052.4900000002,"ADDRESS":"四維街５８巷２６弄４號","OBJECTID":81508},"geometry":{"x":173516.49000000115,"y":2548052.4900000039}},{"attributes":{"ID":81509,"DIS_CODE":0,"TOWNNAME":"南區","LI":"郡南里","LIN":"15鄰","STREET":"德興路","SECT":" ","MAREA":" ","LANE":"１３９巷","ALLEY":"４４弄","HOUSE_NO":"２６號","E_COORD97":167358.79000000001,"N_COORD97":2540390.5800000001,"ADDRESS":"德興路１３９巷４４弄２６號","OBJECTID":81509},"geometry":{"x":167358.7900000019,"y":2540390.5800000019}},{"attributes":{"ID":81510,"DIS_CODE":0,"TOWNNAME":"南區","LI":"郡南里","LIN":"15鄰","STREET":"德興路","SECT":" ","MAREA":" ","LANE":"１３９巷","ALLEY":"４５弄","HOUSE_NO":"２號","E_COORD97":167368.66,"N_COORD97":2540470.3599999999,"ADDRESS":"德興路１３９巷４５弄２號","OBJECTID":81510},"geometry":{"x":167368.66000000108,"y":2540470.3599999994}},{"attributes":{"ID":81511,"DIS_CODE":0,"TOWNNAME":"南區","LI":"郡南里","LIN":"15鄰","STREET":"德興路","SECT":" ","MAREA":" ","LANE":"１３９巷","ALLEY":"４５弄","HOUSE_NO":"３號","E_COORD97":167390.98000000001,"N_COORD97":2540473.8199999998,"ADDRESS":"德興路１３９巷４５弄３號","OBJECTID":81511},"geometry":{"x":167390.98000000045,"y":2540473.8200000022}},{"attributes":{"ID":81512,"DIS_CODE":0,"TOWNNAME":"南區","LI":"郡南里","LIN":"15鄰","STREET":"德興路","SECT":" ","MAREA":" ","LANE":"１３９巷","ALLEY":"４５弄","HOUSE_NO":"４號","E_COORD97":167368.04999999999,"N_COORD97":2540474.2200000002,"ADDRESS":"德興路１３９巷４５弄４號","OBJECTID":81512},"geometry":{"x":167368.04999999981,"y":2540474.2200000025}},{"attributes":{"ID":81513,"DIS_CODE":0,"TOWNNAME":"南區","LI":"郡南里","LIN":"15鄰","STREET":"德興路","SECT":" ","MAREA":" ","LANE":"１３９巷","ALLEY":"４５弄","HOUSE_NO":"５號","E_COORD97":167392.16,"N_COORD97":2540477.6400000001,"ADDRESS":"德興路１３９巷４５弄５號","OBJECTID":81513},"geometry":{"x":167392.16000000108,"y":2540477.6400000043}},{"attributes":{"ID":81514,"DIS_CODE":0,"TOWNNAME":"南區","LI":"郡南里","LIN":"15鄰","STREET":"德興路","SECT":" ","MAREA":" ","LANE":"１３９巷","ALLEY":"４５弄","HOUSE_NO":"６號","E_COORD97":167368.85999999999,"N_COORD97":2540478.6800000002,"ADDRESS":"德興路１３９巷４５弄６號","OBJECTID":81514},"geometry":{"x":167368.86000000127,"y":2540478.6799999997}},{"attributes":{"ID":81515,"DIS_CODE":0,"TOWNNAME":"南區","LI":"郡南里","LIN":"15鄰","STREET":"德興路","SECT":" ","MAREA":" ","LANE":"１３９巷","ALLEY":"４５弄","HOUSE_NO":"７號","E_COORD97":167392.45000000001,"N_COORD97":2540482.3300000001,"ADDRESS":"德興路１３９巷４５弄７號","OBJECTID":81515},"geometry":{"x":167392.45000000112,"y":2540482.3299999982}},{"attributes":{"ID":81516,"DIS_CODE":0,"TOWNNAME":"南區","LI":"郡南里","LIN":"15鄰","STREET":"德興路","SECT":" ","MAREA":" ","LANE":"１３９巷","ALLEY":"４５弄","HOUSE_NO":"８號","E_COORD97":167369.67000000001,"N_COORD97":2540482.7400000002,"ADDRESS":"德興路１３９巷４５弄８號","OBJECTID":81516},"geometry":{"x":167369.67000000179,"y":2540482.7400000002}},{"attributes":{"ID":81517,"DIS_CODE":0,"TOWNNAME":"南區","LI":"郡南里","LIN":"15鄰","STREET":"德興路","SECT":" ","MAREA":" ","LANE":"１３９巷","ALLEY":"４５弄","HOUSE_NO":"９號","E_COORD97":167392.16,"N_COORD97":2540486.4399999999,"ADDRESS":"德興路１３９巷４５弄９號","OBJECTID":81517},"geometry":{"x":167392.16000000108,"y":2540486.4399999995}},{"attributes":{"ID":81518,"DIS_CODE":0,"TOWNNAME":"南區","LI":"郡南里","LIN":"15鄰","STREET":"德興路","SECT":" ","MAREA":" ","LANE":"１３９巷","ALLEY":"４５弄","HOUSE_NO":"１０號","E_COORD97":167369.87,"N_COORD97":2540487.2000000002,"ADDRESS":"德興路１３９巷４５弄１０號","OBJECTID":81518},"geometry":{"x":167369.87000000011,"y":2540487.2000000011}},{"attributes":{"ID":81519,"DIS_CODE":0,"TOWNNAME":"南區","LI":"郡南里","LIN":"15鄰","STREET":"德興路","SECT":" ","MAREA":" ","LANE":"１３９巷","ALLEY":"４５弄","HOUSE_NO":"１１號","E_COORD97":167390.98000000001,"N_COORD97":2540490.8399999999,"ADDRESS":"德興路１３９巷４５弄１１號","OBJECTID":81519},"geometry":{"x":167390.98000000045,"y":2540490.8399999999}},{"attributes":{"ID":81520,"DIS_CODE":0,"TOWNNAME":"南區","LI":"郡南里","LIN":"15鄰","STREET":"德興路","SECT":" ","MAREA":" ","LANE":"１３９巷","ALLEY":"４５弄","HOUSE_NO":"１２號","E_COORD97":167369.67000000001,"N_COORD97":2540491.25,"ADDRESS":"德興路１３９巷４５弄１２號","OBJECTID":81520},"geometry":{"x":167369.67000000179,"y":2540491.2500000019}},{"attributes":{"ID":81521,"DIS_CODE":0,"TOWNNAME":"歸仁區","LI":"大廟里","LIN":"15鄰","STREET":"大廟五街","SECT":" ","MAREA":" ","LANE":" ","ALLEY":" ","HOUSE_NO":"１２２號","E_COORD97":176071.48000000001,"N_COORD97":2544436.5299999998,"ADDRESS":"大廟五街１２２號","OBJECTID":81521},"geometry":{"x":176071.48000000138,"y":2544436.5299999993}},{"attributes":{"ID":81522,"DIS_CODE":0,"TOWNNAME":"歸仁區","LI":"新厝里","LIN":"15鄰","STREET":"中正南路","SECT":"一段","MAREA":" ","LANE":" ","ALLEY":" ","HOUSE_NO":"１２３號","E_COORD97":177504.25,"N_COORD97":2540459.5899999999,"ADDRESS":"中正南路一段１２３號","OBJECTID":81522},"geometry":{"x":177504.25,"y":2540459.5899999999}},{"attributes":{"ID":81523,"DIS_CODE":0,"TOWNNAME":"玉井區","LI":"玉田里","LIN":"15鄰","STREET":"民權路","SECT":" ","MAREA":" ","LANE":" ","ALLEY":" ","HOUSE_NO":"１６３號","E_COORD97":194405.17999999999,"N_COORD97":2557845.29,"ADDRESS":"民權路１６３號","OBJECTID":81523},"geometry":{"x":194405.1799999997,"y":2557845.290000001}},{"attributes":{"ID":81524,"DIS_CODE":0,"TOWNNAME":"玉井區","LI":"竹圍里","LIN":"15鄰","STREET":"仁愛街","SECT":" ","MAREA":" ","LANE":" ","ALLEY":" ","HOUSE_NO":"２５５號","E_COORD97":195366,"N_COORD97":2558347.1699999999,"ADDRESS":"仁愛街２５５號","OBJECTID":81524},"geometry":{"x":195366,"y":2558347.1699999981}},{"attributes":{"ID":81525,"DIS_CODE":0,"TOWNNAME":"玉井區","LI":"玉田里","LIN":"15鄰","STREET":"民權路","SECT":" ","MAREA":" ","LANE":" ","ALLEY":" ","HOUSE_NO":"１５６號","E_COORD97":194515.29000000001,"N_COORD97":2557897.2799999998,"ADDRESS":"民權路１５６號","OBJECTID":81525},"geometry":{"x":194515.29000000004,"y":2557897.2799999993}},{"attributes":{"ID":81526,"DIS_CODE":0,"TOWNNAME":"永康區","LI":"正強里","LIN":"12鄰","STREET":"正強街","SECT":" ","MAREA":" ","LANE":"１２２巷","ALLEY":"１３弄","HOUSE_NO":"８號","E_COORD97":173400.70999999999,"N_COORD97":2547452.8300000001,"ADDRESS":"正強街１２２巷１３弄８號","OBJECTID":81526},"geometry":{"x":173400.70999999903,"y":2547452.8300000001}},{"attributes":{"ID":81527,"DIS_CODE":0,"TOWNNAME":"永康區","LI":"三合里","LIN":"12鄰","STREET":"南工街","SECT":" ","MAREA":" ","LANE":"２４７巷","ALLEY":"３３弄","HOUSE_NO":"３２號","E_COORD97":172028.67000000001,"N_COORD97":2545795.8399999999,"ADDRESS":"南工街２４７巷３３弄３２號","OBJECTID":81527},"geometry":{"x":172028.67000000086,"y":2545795.8400000017}},{"attributes":{"ID":81528,"DIS_CODE":0,"TOWNNAME":"永康區","LI":"三合里","LIN":"12鄰","STREET":"南工街","SECT":" ","MAREA":" ","LANE":"２４７巷","ALLEY":"３３弄","HOUSE_NO":"１１號","E_COORD97":171989.75,"N_COORD97":2545810.52,"ADDRESS":"南工街２４７巷３３弄１１號","OBJECTID":81528},"geometry":{"x":171989.75,"y":2545810.5200000033}},{"attributes":{"ID":81529,"DIS_CODE":0,"TOWNNAME":"永康區","LI":"二王里","LIN":"12鄰","STREET":"永二街","SECT":" ","MAREA":" ","LANE":"４４７巷","ALLEY":"６８弄","HOUSE_NO":"１１號","E_COORD97":172832.42999999999,"N_COORD97":2546500.3599999999,"ADDRESS":"永二街４４７巷６８弄１１號","OBJECTID":81529},"geometry":{"x":172832.4299999997,"y":2546500.3600000013}},{"attributes":{"ID":81530,"DIS_CODE":0,"TOWNNAME":"永康區","LI":"二王里","LIN":"12鄰","STREET":"永二街","SECT":" ","MAREA":" ","LANE":"４４７巷","ALLEY":"６８弄","HOUSE_NO":"３２號","E_COORD97":172794.26000000001,"N_COORD97":2546530.3799999999,"ADDRESS":"永二街４４７巷６８弄３２號","OBJECTID":81530},"geometry":{"x":172794.25999999978,"y":2546530.3800000008}},{"attributes":{"ID":81531,"DIS_CODE":0,"TOWNNAME":"永康區","LI":"三合里","LIN":"12鄰","STREET":"南工街","SECT":" ","MAREA":" ","LANE":"２４７巷","ALLEY":"３３弄","HOUSE_NO":"１７號","E_COORD97":172001.85000000001,"N_COORD97":2545808.77,"ADDRESS":"南工街２４７巷３３弄１７號","OBJECTID":81531},"geometry":{"x":172001.84999999963,"y":2545808.7700000033}},{"attributes":{"ID":81532,"DIS_CODE":0,"TOWNNAME":"南區","LI":"日新里","LIN":" ","STREET":"鹽埕路","SECT":" ","MAREA":" ","LANE":" ","ALLEY":" ","HOUSE_NO":"２２５號","E_COORD97":166898.79000000001,"N_COORD97":2541183.8900000001,"ADDRESS":"鹽埕路２２５號","OBJECTID":81532},"geometry":{"x":166898.79000000004,"y":2541183.8900000006}},{"attributes":{"ID":81533,"DIS_CODE":0,"TOWNNAME":"南區","LI":"日新里","LIN":" ","STREET":"鹽埕路","SECT":" ","MAREA":" ","LANE":" ","ALLEY":" ","HOUSE_NO":"２２６號","E_COORD97":166926.73999999999,"N_COORD97":2541128.4199999999,"ADDRESS":"鹽埕路２２６號","OBJECTID":81533},"geometry":{"x":166926.74000000022,"y":2541128.4199999999}},{"attributes":{"ID":81534,"DIS_CODE":0,"TOWNNAME":"南區","LI":"日新里","LIN":" ","STREET":"鹽埕路","SECT":" ","MAREA":" ","LANE":" ","ALLEY":" ","HOUSE_NO":"２２８號","E_COORD97":166926.44,"N_COORD97":2541144.8799999999,"ADDRESS":"鹽埕路２２８號","OBJECTID":81534},"geometry":{"x":166926.44000000134,"y":2541144.879999999}},{"attributes":{"ID":81535,"DIS_CODE":0,"TOWNNAME":"麻豆區","LI":"油車里","LIN":"7鄰","STREET":" ","SECT":" ","MAREA":"油車","LANE":" ","ALLEY":" ","HOUSE_NO":"２１號之１","E_COORD97":172728.0901,"N_COORD97":2565467.9289500001,"ADDRESS":"油車２１號之１","OBJECTID":81535},"geometry":{"x":172728.09009999968,"y":2565467.9289500043}},{"attributes":{"ID":81536,"DIS_CODE":0,"TOWNNAME":"永康區","LI":"三合里","LIN":"12鄰","STREET":"南工街","SECT":" ","MAREA":" ","LANE":"２４７巷","ALLEY":"３３弄","HOUSE_NO":"３３號","E_COORD97":172035.26000000001,"N_COORD97":2545803.77,"ADDRESS":"南工街２４７巷３３弄３３號","OBJECTID":81536},"geometry":{"x":172035.25999999978,"y":2545803.7699999996}},{"attributes":{"ID":81537,"DIS_CODE":0,"TOWNNAME":"永康區","LI":"三合里","LIN":"12鄰","STREET":"南工街","SECT":" ","MAREA":" ","LANE":"２４７巷","ALLEY":"３３弄","HOUSE_NO":"２８號","E_COORD97":172020.87,"N_COORD97":2545796.8399999999,"ADDRESS":"南工街２４７巷３３弄２８號","OBJECTID":81537},"geometry":{"x":172020.87000000011,"y":2545796.8399999999}},{"attributes":{"ID":81538,"DIS_CODE":0,"TOWNNAME":"永康區","LI":"三合里","LIN":"12鄰","STREET":"南工街","SECT":" ","MAREA":" ","LANE":"２４７巷","ALLEY":"３３弄","HOUSE_NO":"７號","E_COORD97":171980.70999999999,"N_COORD97":2545811.77,"ADDRESS":"南工街２４７巷３３弄７號","OBJECTID":81538},"geometry":{"x":171980.71000000089,"y":2545811.7699999996}},{"attributes":{"ID":81539,"DIS_CODE":0,"TOWNNAME":"永康區","LI":"三合里","LIN":"12鄰","STREET":"南工街","SECT":" ","MAREA":" ","LANE":"２４７巷","ALLEY":"３３弄","HOUSE_NO":"２５號","E_COORD97":172017.70000000001,"N_COORD97":2545806.52,"ADDRESS":"南工街２４７巷３３弄２５號","OBJECTID":81539},"geometry":{"x":172017.70000000019,"y":2545806.5199999996}},{"attributes":{"ID":81540,"DIS_CODE":0,"TOWNNAME":"永康區","LI":"三合里","LIN":"12鄰","STREET":"南工街","SECT":" ","MAREA":" ","LANE":"２４７巷","ALLEY":"３３弄","HOUSE_NO":"１４號","E_COORD97":171993.26999999999,"N_COORD97":2545802.0899999999,"ADDRESS":"南工街２４７巷３３弄１４號","OBJECTID":81540},"geometry":{"x":171993.27000000048,"y":2545802.0899999999}},{"attributes":{"ID":81541,"DIS_CODE":0,"TOWNNAME":"永康區","LI":"二王里","LIN":"12鄰","STREET":"永二街","SECT":" ","MAREA":" ","LANE":"４４７巷","ALLEY":"６８弄","HOUSE_NO":"１３號","E_COORD97":172839.59,"N_COORD97":2546498.8599999999,"ADDRESS":"永二街４４７巷６８弄１３號","OBJECTID":81541},"geometry":{"x":172839.58999999985,"y":2546498.8599999994}},{"attributes":{"ID":81542,"DIS_CODE":0,"TOWNNAME":"永康區","LI":"二王里","LIN":"12鄰","STREET":"永二街","SECT":" ","MAREA":" ","LANE":"４４７巷","ALLEY":"６８弄","HOUSE_NO":"２８號","E_COORD97":172784.81,"N_COORD97":2546529.8799999999,"ADDRESS":"永二街４４７巷６８弄２８號","OBJECTID":81542},"geometry":{"x":172784.81000000052,"y":2546529.8800000008}},{"attributes":{"ID":81543,"DIS_CODE":0,"TOWNNAME":"永康區","LI":"三合里","LIN":"12鄰","STREET":"南工街","SECT":" ","MAREA":" ","LANE":"２４７巷","ALLEY":"３３弄","HOUSE_NO":"２３號","E_COORD97":172013.25,"N_COORD97":2545807.02,"ADDRESS":"南工街２４７巷３３弄２３號","OBJECTID":81543},"geometry":{"x":172013.25,"y":2545807.0200000033}},{"attributes":{"ID":81544,"DIS_CODE":0,"TOWNNAME":"永康區","LI":"二王里","LIN":"12鄰","STREET":"永二街","SECT":" ","MAREA":" ","LANE":"４４７巷","ALLEY":"６８弄","HOUSE_NO":"２６號","E_COORD97":172780.28,"N_COORD97":2546529.6299999999,"ADDRESS":"永二街４４７巷６８弄２６號","OBJECTID":81544},"geometry":{"x":172780.28000000212,"y":2546529.629999999}},{"attributes":{"ID":81545,"DIS_CODE":0,"TOWNNAME":"永康區","LI":"二王里","LIN":"12鄰","STREET":"永二街","SECT":" ","MAREA":" ","LANE":"４４７巷","ALLEY":"６８弄","HOUSE_NO":"２２號","E_COORD97":172775.76999999999,"N_COORD97":2546529.3799999999,"ADDRESS":"永二街４４７巷６８弄２２號","OBJECTID":81545},"geometry":{"x":172775.76999999955,"y":2546529.3800000027}},{"attributes":{"ID":81546,"DIS_CODE":0,"TOWNNAME":"永康區","LI":"三合里","LIN":"12鄰","STREET":"南工街","SECT":" ","MAREA":" ","LANE":"２４７巷","ALLEY":"３３弄","HOUSE_NO":"５號","E_COORD97":171976.70999999999,"N_COORD97":2545812.52,"ADDRESS":"南工街２４７巷３３弄５號","OBJECTID":81546},"geometry":{"x":171976.70999999996,"y":2545812.5199999996}},{"attributes":{"ID":81547,"DIS_CODE":0,"TOWNNAME":"永康區","LI":"二王里","LIN":"12鄰","STREET":"永二街","SECT":" ","MAREA":" ","LANE":"４４７巷","ALLEY":"６８弄","HOUSE_NO":"３６號","E_COORD97":172798.70999999999,"N_COORD97":2546530.6299999999,"ADDRESS":"永二街４４７巷６８弄３６號","OBJECTID":81547},"geometry":{"x":172798.70999999996,"y":2546530.629999999}},{"attributes":{"ID":81548,"DIS_CODE":0,"TOWNNAME":"永康區","LI":"二王里","LIN":"12鄰","STREET":"永二街","SECT":" ","MAREA":" ","LANE":"４４７巷","ALLEY":"６８弄","HOUSE_NO":"８號","E_COORD97":172793.16,"N_COORD97":2546536.1899999999,"ADDRESS":"永二街４４７巷６８弄８號","OBJECTID":81548},"geometry":{"x":172793.16000000108,"y":2546536.1900000013}},{"attributes":{"ID":81549,"DIS_CODE":0,"TOWNNAME":"柳營區","LI":"重溪里","LIN":"1鄰","STREET":" ","SECT":" ","MAREA":"小腳腿","LANE":" ","ALLEY":" ","HOUSE_NO":"５號之１６","E_COORD97":185015.07000000001,"N_COORD97":2575773.6800000002,"ADDRESS":"小腳腿５號之１６","OBJECTID":81549},"geometry":{"x":185015.0700000003,"y":2575773.6800000034}},{"attributes":{"ID":81550,"DIS_CODE":0,"TOWNNAME":"東區","LI":"富強里","LIN":"7鄰","STREET":"裕農路","SECT":" ","MAREA":" ","LANE":"４４６巷","ALLEY":" ","HOUSE_NO":"１２１號","E_COORD97":171264.67000000001,"N_COORD97":2542886.21,"ADDRESS":"裕農路４４６巷１２１號","OBJECTID":81550},"geometry":{"x":171264.66999999993,"y":2542886.2100000028}},{"attributes":{"ID":81551,"DIS_CODE":0,"TOWNNAME":"中西區","LI":"永福里","LIN":"7鄰","STREET":"中正路","SECT":" ","MAREA":" ","LANE":" ","ALLEY":" ","HOUSE_NO":"８５號","E_COORD97":168090.75,"N_COORD97":2543635.8599999999,"ADDRESS":"中正路８５號","OBJECTID":81551},"geometry":{"x":168090.75,"y":2543635.8600000013}},{"attributes":{"ID":81552,"DIS_CODE":0,"TOWNNAME":"中西區","LI":"永福里","LIN":"7鄰","STREET":"中正路","SECT":" ","MAREA":" ","LANE":" ","ALLEY":" ","HOUSE_NO":"８７號","E_COORD97":168085.92000000001,"N_COORD97":2543637.3199999998,"ADDRESS":"中正路８７號","OBJECTID":81552},"geometry":{"x":168085.91999999993,"y":2543637.3200000022}},{"attributes":{"ID":81553,"DIS_CODE":0,"TOWNNAME":"中西區","LI":"永福里","LIN":"7鄰","STREET":"中正路","SECT":" ","MAREA":" ","LANE":" ","ALLEY":" ","HOUSE_NO":"８９號","E_COORD97":168079.92999999999,"N_COORD97":2543639.4199999999,"ADDRESS":"中正路８９號","OBJECTID":81553},"geometry":{"x":168079.93000000063,"y":2543639.4200000018}},{"attributes":{"ID":81554,"DIS_CODE":0,"TOWNNAME":"東區","LI":"虎尾里","LIN":"7鄰","STREET":"東成街","SECT":" ","MAREA":" ","LANE":" ","ALLEY":" ","HOUSE_NO":"１００號","E_COORD97":171558.89999999999,"N_COORD97":2542282.8900000001,"ADDRESS":"東成街１００號","OBJECTID":81554},"geometry":{"x":171558.89999999944,"y":2542282.8900000043}},{"attributes":{"ID":81555,"DIS_CODE":0,"TOWNNAME":"柳營區","LI":"重溪里","LIN":"1鄰","STREET":" ","SECT":" ","MAREA":"小腳腿","LANE":" ","ALLEY":" ","HOUSE_NO":"５號之２２","E_COORD97":184990.51999999999,"N_COORD97":2575673.8900000001,"ADDRESS":"小腳腿５號之２２","OBJECTID":81555},"geometry":{"x":184990.52000000048,"y":2575673.8900000006}},{"attributes":{"ID":81556,"DIS_CODE":0,"TOWNNAME":"東區","LI":"虎尾里","LIN":"7鄰","STREET":"東成街","SECT":" ","MAREA":" ","LANE":" ","ALLEY":" ","HOUSE_NO":"９４號","E_COORD97":171536.26999999999,"N_COORD97":2542280.9900000002,"ADDRESS":"東成街９４號","OBJECTID":81556},"geometry":{"x":171536.26999999955,"y":2542280.9900000002}},{"attributes":{"ID":81557,"DIS_CODE":0,"TOWNNAME":"柳營區","LI":"重溪里","LIN":"1鄰","STREET":" ","SECT":" ","MAREA":"小腳腿","LANE":" ","ALLEY":" ","HOUSE_NO":"５號之２６","E_COORD97":185026.97,"N_COORD97":2575661.96,"ADDRESS":"小腳腿５號之２６","OBJECTID":81557},"geometry":{"x":185026.96999999974,"y":2575661.9600000028}},{"attributes":{"ID":81558,"DIS_CODE":0,"TOWNNAME":"柳營區","LI":"重溪里","LIN":"1鄰","STREET":" ","SECT":" ","MAREA":"小腳腿","LANE":" ","ALLEY":" ","HOUSE_NO":"５號之３６","E_COORD97":185208.48000000001,"N_COORD97":2575655.5499999998,"ADDRESS":"小腳腿５號之３６","OBJECTID":81558},"geometry":{"x":185208.48000000138,"y":2575655.5500000007}},{"attributes":{"ID":81559,"DIS_CODE":0,"TOWNNAME":"官田區","LI":"嘉南里","LIN":"7鄰","STREET":" ","SECT":" ","MAREA":"嘉南","LANE":" ","ALLEY":" ","HOUSE_NO":"７９號","E_COORD97":185378.79999999999,"N_COORD97":2568081.5299999998,"ADDRESS":"嘉南７９號","OBJECTID":81559},"geometry":{"x":185378.80000000075,"y":2568081.5300000031}},{"attributes":{"ID":81560,"DIS_CODE":0,"TOWNNAME":"永康區","LI":"二王里","LIN":"12鄰","STREET":"永二街","SECT":" ","MAREA":" ","LANE":"４４７巷","ALLEY":"６８弄","HOUSE_NO":"６號","E_COORD97":172797.70000000001,"N_COORD97":2546536.4399999999,"ADDRESS":"永二街４４７巷６８弄６號","OBJECTID":81560},"geometry":{"x":172797.70000000205,"y":2546536.4400000032}},{"attributes":{"ID":81561,"DIS_CODE":0,"TOWNNAME":"永康區","LI":"二王里","LIN":"12鄰","STREET":"永二街","SECT":" ","MAREA":" ","LANE":"４４７巷","ALLEY":"６８弄","HOUSE_NO":"４６號","E_COORD97":172807.91,"N_COORD97":2546508.6899999999,"ADDRESS":"永二街４４７巷６８弄４６號","OBJECTID":81561},"geometry":{"x":172807.90999999922,"y":2546508.6900000013}},{"attributes":{"ID":81562,"DIS_CODE":0,"TOWNNAME":"永康區","LI":"勝利里","LIN":"12鄰","STREET":"勝利街","SECT":" ","MAREA":" ","LANE":"２２巷","ALLEY":"４５弄","HOUSE_NO":"３５號","E_COORD97":171225.92999999999,"N_COORD97":2544736,"ADDRESS":"勝利街２２巷４５弄３５號","OBJECTID":81562},"geometry":{"x":171225.93000000156,"y":2544735.9999999981}},{"attributes":{"ID":81563,"DIS_CODE":0,"TOWNNAME":"永康區","LI":"二王里","LIN":"12鄰","STREET":"永二街","SECT":" ","MAREA":" ","LANE":"４４７巷","ALLEY":"６８弄","HOUSE_NO":"１０號","E_COORD97":172789.76000000001,"N_COORD97":2546535.6899999999,"ADDRESS":"永二街４４７巷６８弄１０號","OBJECTID":81563},"geometry":{"x":172789.75999999978,"y":2546535.6900000013}},{"attributes":{"ID":81564,"DIS_CODE":0,"TOWNNAME":"永康區","LI":"三合里","LIN":"12鄰","STREET":"南工街","SECT":" ","MAREA":" ","LANE":"２４７巷","ALLEY":"３３弄","HOUSE_NO":"３５號","E_COORD97":172039.91,"N_COORD97":2545803.02,"ADDRESS":"南工街２４７巷３３弄３５號","OBJECTID":81564},"geometry":{"x":172039.91000000015,"y":2545803.0199999996}},{"attributes":{"ID":81565,"DIS_CODE":0,"TOWNNAME":"安南區","LI":"淵中里","LIN":"12鄰","STREET":"安中路","SECT":"四段","MAREA":" ","LANE":"４巷","ALLEY":"４８弄","HOUSE_NO":"４９號","E_COORD97":165219.20999999999,"N_COORD97":2550280.25,"ADDRESS":"安中路四段４巷４８弄４９號","OBJECTID":81565},"geometry":{"x":165219.20999999996,"y":2550280.25}},{"attributes":{"ID":81566,"DIS_CODE":0,"TOWNNAME":"安南區","LI":"淵中里","LIN":"12鄰","STREET":"安中路","SECT":"四段","MAREA":" ","LANE":"４巷","ALLEY":"４８弄","HOUSE_NO":"５１號","E_COORD97":165223.45000000001,"N_COORD97":2550281.0600000001,"ADDRESS":"安中路四段４巷４８弄５１號","OBJECTID":81566},"geometry":{"x":165223.44999999925,"y":2550281.0600000024}},{"attributes":{"ID":81567,"DIS_CODE":0,"TOWNNAME":"安南區","LI":"淵中里","LIN":"12鄰","STREET":"安中路","SECT":"四段","MAREA":" ","LANE":"４巷","ALLEY":"４８弄","HOUSE_NO":"５３號","E_COORD97":165227.76999999999,"N_COORD97":2550285.1099999999,"ADDRESS":"安中路四段４巷４８弄５３號","OBJECTID":81567},"geometry":{"x":165227.77000000048,"y":2550285.1100000031}},{"attributes":{"ID":81568,"DIS_CODE":0,"TOWNNAME":"安南區","LI":"淵中里","LIN":"12鄰","STREET":"安中路","SECT":"四段","MAREA":" ","LANE":"４巷","ALLEY":"４８弄","HOUSE_NO":"５５號","E_COORD97":165216.04000000001,"N_COORD97":2550302.0800000001,"ADDRESS":"安中路四段４巷４８弄５５號","OBJECTID":81568},"geometry":{"x":165216.0400000019,"y":2550302.0800000001}},{"attributes":{"ID":81569,"DIS_CODE":0,"TOWNNAME":"鹽水區","LI":"孫厝里","LIN":"17鄰","STREET":" ","SECT":" ","MAREA":"羊稠厝","LANE":" ","ALLEY":" ","HOUSE_NO":"４５號","E_COORD97":169468.07999999999,"N_COORD97":2575786.3500000001,"ADDRESS":"羊稠厝４５號","OBJECTID":81569},"geometry":{"x":169468.08000000101,"y":2575786.3500000015}},{"attributes":{"ID":81570,"DIS_CODE":0,"TOWNNAME":"柳營區","LI":"重溪里","LIN":"1鄰","STREET":" ","SECT":" ","MAREA":"小腳腿","LANE":" ","ALLEY":" ","HOUSE_NO":"５號之３７","E_COORD97":185091.87,"N_COORD97":2575837.8700000001,"ADDRESS":"小腳腿５號之３７","OBJECTID":81570},"geometry":{"x":185091.87000000104,"y":2575837.870000001}},{"attributes":{"ID":81571,"DIS_CODE":0,"TOWNNAME":"柳營區","LI":"重溪里","LIN":"1鄰","STREET":" ","SECT":" ","MAREA":"小腳腿","LANE":" ","ALLEY":" ","HOUSE_NO":"５號之３","E_COORD97":185191.19,"N_COORD97":2576179.77,"ADDRESS":"小腳腿５號之３","OBJECTID":81571},"geometry":{"x":185191.19000000041,"y":2576179.7700000033}},{"attributes":{"ID":81572,"DIS_CODE":0,"TOWNNAME":"安南區","LI":"淵中里","LIN":"12鄰","STREET":"安中路","SECT":"四段","MAREA":" ","LANE":"４巷","ALLEY":"４８弄","HOUSE_NO":"５７號","E_COORD97":165212.79999999999,"N_COORD97":2550307.04,"ADDRESS":"安中路四段４巷４８弄５７號","OBJECTID":81572},"geometry":{"x":165212.80000000075,"y":2550307.040000001}},{"attributes":{"ID":81573,"DIS_CODE":0,"TOWNNAME":"安南區","LI":"州北里","LIN":"12鄰","STREET":"安和路","SECT":"五段","MAREA":" ","LANE":"１７１巷","ALLEY":"７２弄","HOUSE_NO":"２０號","E_COORD97":169670.42999999999,"N_COORD97":2551862.2999999998,"ADDRESS":"安和路五段１７１巷７２弄２０號","OBJECTID":81573},"geometry":{"x":169670.43000000063,"y":2551862.3000000026}},{"attributes":{"ID":81574,"DIS_CODE":0,"TOWNNAME":"安南區","LI":"州北里","LIN":"12鄰","STREET":"安和路","SECT":"五段","MAREA":" ","LANE":"１７１巷","ALLEY":"７２弄","HOUSE_NO":"２２號","E_COORD97":169668.70000000001,"N_COORD97":2551866.1200000001,"ADDRESS":"安和路五段１７１巷７２弄２２號","OBJECTID":81574},"geometry":{"x":169668.70000000112,"y":2551866.120000001}},{"attributes":{"ID":81575,"DIS_CODE":0,"TOWNNAME":"新營區","LI":"延平里","LIN":"7鄰","STREET":"復興路","SECT":" ","MAREA":" ","LANE":" ","ALLEY":" ","HOUSE_NO":"１之２０號","E_COORD97":179703.81,"N_COORD97":2577956.2200000002,"ADDRESS":"復興路１之２０號","OBJECTID":81575},"geometry":{"x":179703.80999999959,"y":2577956.2200000007}},{"attributes":{"ID":81576,"DIS_CODE":0,"TOWNNAME":"歸仁區","LI":"崙頂里","LIN":"7鄰","STREET":"成功八街","SECT":" ","MAREA":" ","LANE":" ","ALLEY":" ","HOUSE_NO":"５５號","E_COORD97":178103.20645200001,"N_COORD97":2539936.6318199998,"ADDRESS":"成功八街５５號","OBJECTID":81576},"geometry":{"x":178103.20645199995,"y":2539936.6318180021}},{"attributes":{"ID":81577,"DIS_CODE":0,"TOWNNAME":"關廟區","LI":"田中里","LIN":"7鄰","STREET":"南雄南路","SECT":" ","MAREA":" ","LANE":" ","ALLEY":" ","HOUSE_NO":"７０２號","E_COORD97":183420.04000000001,"N_COORD97":2533506.2999999998,"ADDRESS":"南雄南路７０２號","OBJECTID":81577},"geometry":{"x":183420.04000000004,"y":2533506.3000000045}},{"attributes":{"ID":81578,"DIS_CODE":0,"TOWNNAME":"柳營區","LI":"重溪里","LIN":"1鄰","STREET":" ","SECT":" ","MAREA":"小腳腿","LANE":" ","ALLEY":" ","HOUSE_NO":"５號之４１","E_COORD97":185162.60999999999,"N_COORD97":2575856.7799999998,"ADDRESS":"小腳腿５號之４１","OBJECTID":81578},"geometry":{"x":185162.61000000034,"y":2575856.7799999993}},{"attributes":{"ID":81579,"DIS_CODE":0,"TOWNNAME":"柳營區","LI":"重溪里","LIN":"1鄰","STREET":" ","SECT":" ","MAREA":"小腳腿","LANE":" ","ALLEY":" ","HOUSE_NO":"５號之４２","E_COORD97":185008.98000000001,"N_COORD97":2575747.77,"ADDRESS":"小腳腿５號之４２","OBJECTID":81579},"geometry":{"x":185008.98000000138,"y":2575747.7699999996}},{"attributes":{"ID":81580,"DIS_CODE":0,"TOWNNAME":"新營區","LI":"民權里","LIN":"7鄰","STREET":"文化街","SECT":" ","MAREA":" ","LANE":" ","ALLEY":" ","HOUSE_NO":"３２號","E_COORD97":179805.90430299999,"N_COORD97":2578100.7506300001,"ADDRESS":"文化街３２號","OBJECTID":81580},"geometry":{"x":179805.90430300031,"y":2578100.7506269999}},{"attributes":{"ID":81581,"DIS_CODE":0,"TOWNNAME":"新營區","LI":"民權里","LIN":"7鄰","STREET":"文化街","SECT":" ","MAREA":" ","LANE":" ","ALLEY":" ","HOUSE_NO":"３４號","E_COORD97":179800.288463,"N_COORD97":2578119.48312,"ADDRESS":"文化街３４號","OBJECTID":81581},"geometry":{"x":179800.28846300114,"y":2578119.4831169993}},{"attributes":{"ID":81582,"DIS_CODE":0,"TOWNNAME":"中西區","LI":"保安里","LIN":"7鄰","STREET":"府前路","SECT":"二段","MAREA":" ","LANE":"４０巷","ALLEY":" ","HOUSE_NO":"９號","E_COORD97":167627.14999999999,"N_COORD97":2543526.0299999998,"ADDRESS":"府前路二段４０巷９號","OBJECTID":81582},"geometry":{"x":167627.15000000037,"y":2543526.0300000012}},{"attributes":{"ID":81583,"DIS_CODE":0,"TOWNNAME":"永康區","LI":"\u25A0洲里","LIN":"7鄰","STREET":"三村二街","SECT":" ","MAREA":" ","LANE":" ","ALLEY":" ","HOUSE_NO":"８１號","E_COORD97":171751.59,"N_COORD97":2549508.9900000002,"ADDRESS":"三村二街８１號","OBJECTID":81583},"geometry":{"x":171751.58999999985,"y":2549508.9900000002}},{"attributes":{"ID":81584,"DIS_CODE":0,"TOWNNAME":"玉井區","LI":"竹圍里","LIN":"15鄰","STREET":"仁愛街","SECT":" ","MAREA":" ","LANE":" ","ALLEY":" ","HOUSE_NO":"２６１號","E_COORD97":195366.14000000001,"N_COORD97":2558356.9199999999,"ADDRESS":"仁愛街２６１號","OBJECTID":81584},"geometry":{"x":195366.1400000006,"y":2558356.9200000018}},{"attributes":{"ID":81585,"DIS_CODE":0,"TOWNNAME":"玉井區","LI":"竹圍里","LIN":"15鄰","STREET":"仁愛街","SECT":" ","MAREA":" ","LANE":" ","ALLEY":" ","HOUSE_NO":"３９６號","E_COORD97":195381.35999999999,"N_COORD97":2558344.8999999999,"ADDRESS":"仁愛街３９６號","OBJECTID":81585},"geometry":{"x":195381.36000000034,"y":2558344.9000000004}},{"attributes":{"ID":81586,"DIS_CODE":0,"TOWNNAME":"玉井區","LI":"玉田里","LIN":"15鄰","STREET":"民權路","SECT":" ","MAREA":" ","LANE":" ","ALLEY":" ","HOUSE_NO":"１５１號","E_COORD97":194434.67999999999,"N_COORD97":2557855.2799999998,"ADDRESS":"民權路１５１號","OBJECTID":81586},"geometry":{"x":194434.68000000156,"y":2557855.2800000012}},{"attributes":{"ID":81587,"DIS_CODE":0,"TOWNNAME":"玉井區","LI":"玉田里","LIN":"15鄰","STREET":"民權路","SECT":" ","MAREA":" ","LANE":" ","ALLEY":" ","HOUSE_NO":"１６１號","E_COORD97":194409.38,"N_COORD97":2557847.29,"ADDRESS":"民權路１６１號","OBJECTID":81587},"geometry":{"x":194409.37999999989,"y":2557847.2900000028}},{"attributes":{"ID":81588,"DIS_CODE":0,"TOWNNAME":"玉井區","LI":"玉井里","LIN":"15鄰","STREET":"中華路","SECT":" ","MAREA":" ","LANE":" ","ALLEY":" ","HOUSE_NO":"１０號","E_COORD97":194918.22,"N_COORD97":2558165.2400000002,"ADDRESS":"中華路１０號","OBJECTID":81588},"geometry":{"x":194918.22000000067,"y":2558165.2400000021}},{"attributes":{"ID":81589,"DIS_CODE":0,"TOWNNAME":"柳營區","LI":"重溪里","LIN":"1鄰","STREET":" ","SECT":" ","MAREA":"小腳腿","LANE":" ","ALLEY":" ","HOUSE_NO":"５號之４８","E_COORD97":185012.81,"N_COORD97":2575383.0600000001,"ADDRESS":"小腳腿５號之４８","OBJECTID":81589},"geometry":{"x":185012.80999999959,"y":2575383.0600000024}},{"attributes":{"ID":81590,"DIS_CODE":0,"TOWNNAME":"柳營區","LI":"重溪里","LIN":"1鄰","STREET":" ","SECT":" ","MAREA":"小腳腿","LANE":" ","ALLEY":" ","HOUSE_NO":"５號之４","E_COORD97":185166.20999999999,"N_COORD97":2576125.3500000001,"ADDRESS":"小腳腿５號之４","OBJECTID":81590},"geometry":{"x":185166.21000000089,"y":2576125.3500000015}},{"attributes":{"ID":81591,"DIS_CODE":0,"TOWNNAME":"安南區","LI":"州北里","LIN":"12鄰","STREET":"安和路","SECT":"五段","MAREA":" ","LANE":"１７１巷","ALLEY":"７２弄","HOUSE_NO":"２４號","E_COORD97":169666.75,"N_COORD97":2551869.9500000002,"ADDRESS":"安和路五段１７１巷７２弄２４號","OBJECTID":81591},"geometry":{"x":169666.75000000093,"y":2551869.9500000011}},{"attributes":{"ID":81592,"DIS_CODE":0,"TOWNNAME":"安南區","LI":"州北里","LIN":"12鄰","STREET":"安和路","SECT":"五段","MAREA":" ","LANE":"１７１巷","ALLEY":"７２弄","HOUSE_NO":"２６號","E_COORD97":169664.87,"N_COORD97":2551873.6499999999,"ADDRESS":"安和路五段１７１巷７２弄２６號","OBJECTID":81592},"geometry":{"x":169664.87000000011,"y":2551873.6500000022}},{"attributes":{"ID":81593,"DIS_CODE":0,"TOWNNAME":"安南區","LI":"佃東里","LIN":"12鄰","STREET":"海佃路","SECT":"四段","MAREA":" ","LANE":"３８８巷","ALLEY":"１３４弄","HOUSE_NO":"２６號","E_COORD97":165708.84,"N_COORD97":2551818.0600000001,"ADDRESS":"海佃路四段３８８巷１３４弄２６號","OBJECTID":81593},"geometry":{"x":165708.84000000171,"y":2551818.0600000005}},{"attributes":{"ID":81594,"DIS_CODE":0,"TOWNNAME":"柳營區","LI":"重溪里","LIN":"1鄰","STREET":" ","SECT":" ","MAREA":"小腳腿","LANE":" ","ALLEY":" ","HOUSE_NO":"５號之５０","E_COORD97":185026.01999999999,"N_COORD97":2575348.3900000001,"ADDRESS":"小腳腿５號之５０","OBJECTID":81594},"geometry":{"x":185026.02000000048,"y":2575348.3900000006}},{"attributes":{"ID":81595,"DIS_CODE":0,"TOWNNAME":"柳營區","LI":"重溪里","LIN":"1鄰","STREET":" ","SECT":" ","MAREA":"小腳腿","LANE":" ","ALLEY":" ","HOUSE_NO":"５號之５５","E_COORD97":184963.72,"N_COORD97":2575339.8300000001,"ADDRESS":"小腳腿５號之５５","OBJECTID":81595},"geometry":{"x":184963.72000000067,"y":2575339.8300000019}},{"attributes":{"ID":81596,"DIS_CODE":0,"TOWNNAME":"柳營區","LI":"重溪里","LIN":"1鄰","STREET":" ","SECT":" ","MAREA":"小腳腿","LANE":" ","ALLEY":" ","HOUSE_NO":"６號之３","E_COORD97":185182.23999999999,"N_COORD97":2576228.3199999998,"ADDRESS":"小腳腿６號之３","OBJECTID":81596},"geometry":{"x":185182.24000000022,"y":2576228.3200000022}},{"attributes":{"ID":81597,"DIS_CODE":0,"TOWNNAME":"柳營區","LI":"重溪里","LIN":"1鄰","STREET":" ","SECT":" ","MAREA":"小腳腿","LANE":" ","ALLEY":" ","HOUSE_NO":"６號之５","E_COORD97":185178.92999999999,"N_COORD97":2576218.75,"ADDRESS":"小腳腿６號之５","OBJECTID":81597},"geometry":{"x":185178.93000000156,"y":2576218.7500000019}},{"attributes":{"ID":81598,"DIS_CODE":0,"TOWNNAME":"柳營區","LI":"重溪里","LIN":"1鄰","STREET":" ","SECT":" ","MAREA":"小腳腿","LANE":" ","ALLEY":" ","HOUSE_NO":"６號之６","E_COORD97":185178.26000000001,"N_COORD97":2576214.5600000001,"ADDRESS":"小腳腿６號之６","OBJECTID":81598},"geometry":{"x":185178.25999999978,"y":2576214.5600000005}},{"attributes":{"ID":81599,"DIS_CODE":0,"TOWNNAME":"柳營區","LI":"重溪里","LIN":"1鄰","STREET":" ","SECT":" ","MAREA":"小腳腿","LANE":" ","ALLEY":" ","HOUSE_NO":"６號之７","E_COORD97":185180.44,"N_COORD97":2576223.75,"ADDRESS":"小腳腿６號之７","OBJECTID":81599},"geometry":{"x":185180.44000000134,"y":2576223.75}},{"attributes":{"ID":81600,"DIS_CODE":0,"TOWNNAME":"安南區","LI":"安東里","LIN":"12鄰","STREET":"安和路","SECT":"一段","MAREA":" ","LANE":"２２０巷","ALLEY":"９３弄","HOUSE_NO":"６號","E_COORD97":169521.87,"N_COORD97":2548089.6000000001,"ADDRESS":"安和路一段２２０巷９３弄６號","OBJECTID":81600},"geometry":{"x":169521.87000000104,"y":2548089.6000000015}}]}