{"displayFieldName":"TOWNNAME","fieldAliases":{"ID":"ID","DIS_CODE":"DIS_CODE","TOWNNAME":"TOWNNAME","LI":"LI","LIN":"LIN","STREET":"STREET","SECT":"SECT","MAREA":"MAREA","LANE":"LANE","ALLEY":"ALLEY","HOUSE_NO":"HOUSE_NO","E_COORD97":"E_COORD97","N_COORD97":"N_COORD97","ADDRESS":"ADDRESS","OBJECTID":"OBJECTID"},"geometryType":"esriGeometryPoint","spatialReference":{"wkid":102443,"latestWkid":3826},"fields":[{"name":"ID","type":"esriFieldTypeDouble","alias":"ID"},{"name":"DIS_CODE","type":"esriFieldTypeInteger","alias":"DIS_CODE"},{"name":"TOWNNAME","type":"esriFieldTypeString","alias":"TOWNNAME","length":8},{"name":"LI","type":"esriFieldTypeString","alias":"LI","length":8},{"name":"LIN","type":"esriFieldTypeString","alias":"LIN","length":12},{"name":"STREET","type":"esriFieldTypeString","alias":"STREET","length":20},{"name":"SECT","type":"esriFieldTypeString","alias":"SECT","length":8},{"name":"MAREA","type":"esriFieldTypeString","alias":"MAREA","length":12},{"name":"LANE","type":"esriFieldTypeString","alias":"LANE","length":10},{"name":"ALLEY","type":"esriFieldTypeString","alias":"ALLEY","length":10},{"name":"HOUSE_NO","type":"esriFieldTypeString","alias":"HOUSE_NO","length":20},{"name":"E_COORD97","type":"esriFieldTypeDouble","alias":"E_COORD97"},{"name":"N_COORD97","type":"esriFieldTypeDouble","alias":"N_COORD97"},{"name":"ADDRESS","type":"esriFieldTypeString","alias":"ADDRESS","length":50},{"name":"OBJECTID","type":"esriFieldTypeOID","alias":"OBJECTID"}],"features":[{"attributes":{"ID":435426,"DIS_CODE":0,"TOWNNAME":"北區","LI":"大和里","LIN":"4鄰","STREET":"大興街","SECT":" ","MAREA":" ","LANE":"９６巷","ALLEY":" ","HOUSE_NO":"５１號","E_COORD97":167105.60999999999,"N_COORD97":2545910.75,"ADDRESS":"大興街９６巷５１號","OBJECTID":435401},"geometry":{"x":167105.61000000034,"y":2545910.7499999981}},{"attributes":{"ID":435427,"DIS_CODE":0,"TOWNNAME":"北區","LI":"大和里","LIN":"4鄰","STREET":"大興街","SECT":" ","MAREA":" ","LANE":"９６巷","ALLEY":" ","HOUSE_NO":"５３號","E_COORD97":167104.98999999999,"N_COORD97":2545914.98,"ADDRESS":"大興街９６巷５３號","OBJECTID":435402},"geometry":{"x":167104.99000000209,"y":2545914.9800000023}},{"attributes":{"ID":435428,"DIS_CODE":0,"TOWNNAME":"北區","LI":"大和里","LIN":"4鄰","STREET":"大興街","SECT":" ","MAREA":" ","LANE":"９６巷","ALLEY":" ","HOUSE_NO":"５９號","E_COORD97":167104.44,"N_COORD97":2545928.6800000002,"ADDRESS":"大興街９６巷５９號","OBJECTID":435403},"geometry":{"x":167104.44000000134,"y":2545928.6800000016}},{"attributes":{"ID":435429,"DIS_CODE":0,"TOWNNAME":"北區","LI":"大和里","LIN":"4鄰","STREET":"大興街","SECT":" ","MAREA":" ","LANE":"９６巷","ALLEY":" ","HOUSE_NO":"５號","E_COORD97":167115.89999999999,"N_COORD97":2545803.1899999999,"ADDRESS":"大興街９６巷５號","OBJECTID":435404},"geometry":{"x":167115.90000000224,"y":2545803.1900000013}},{"attributes":{"ID":435430,"DIS_CODE":0,"TOWNNAME":"北區","LI":"大和里","LIN":"4鄰","STREET":"大興街","SECT":" ","MAREA":" ","LANE":"９６巷","ALLEY":" ","HOUSE_NO":"６１號","E_COORD97":167104.07000000001,"N_COORD97":2545932.9700000002,"ADDRESS":"大興街９６巷６１號","OBJECTID":435405},"geometry":{"x":167104.0700000003,"y":2545932.9700000007}},{"attributes":{"ID":435431,"DIS_CODE":0,"TOWNNAME":"北區","LI":"大和里","LIN":"4鄰","STREET":"大興街","SECT":" ","MAREA":" ","LANE":"９６巷","ALLEY":" ","HOUSE_NO":"６３號","E_COORD97":167104.47,"N_COORD97":2545938.21,"ADDRESS":"大興街９６巷６３號","OBJECTID":435406},"geometry":{"x":167104.46999999881,"y":2545938.2100000009}},{"attributes":{"ID":435432,"DIS_CODE":0,"TOWNNAME":"北區","LI":"大和里","LIN":"4鄰","STREET":"大興街","SECT":" ","MAREA":" ","LANE":"９６巷","ALLEY":" ","HOUSE_NO":"６５號","E_COORD97":167103.76999999999,"N_COORD97":2545942.1800000002,"ADDRESS":"大興街９６巷６５號","OBJECTID":435407},"geometry":{"x":167103.76999999955,"y":2545942.1800000016}},{"attributes":{"ID":435433,"DIS_CODE":0,"TOWNNAME":"北區","LI":"大和里","LIN":"4鄰","STREET":"大興街","SECT":" ","MAREA":" ","LANE":"９６巷","ALLEY":" ","HOUSE_NO":"６９號","E_COORD97":167099.78,"N_COORD97":2545963.9300000002,"ADDRESS":"大興街９６巷６９號","OBJECTID":435408},"geometry":{"x":167099.78000000119,"y":2545963.9300000034}},{"attributes":{"ID":435434,"DIS_CODE":0,"TOWNNAME":"北區","LI":"大和里","LIN":"4鄰","STREET":"大興街","SECT":" ","MAREA":" ","LANE":"９６巷","ALLEY":" ","HOUSE_NO":"７１號","E_COORD97":167088.48000000001,"N_COORD97":2545988.5600000001,"ADDRESS":"大興街９６巷７１號","OBJECTID":435409},"geometry":{"x":167088.48000000138,"y":2545988.5600000024}},{"attributes":{"ID":435435,"DIS_CODE":0,"TOWNNAME":"北區","LI":"大和里","LIN":"4鄰","STREET":"大興街","SECT":" ","MAREA":" ","LANE":"９６巷","ALLEY":" ","HOUSE_NO":"７５號","E_COORD97":167096.53,"N_COORD97":2546021.8399999999,"ADDRESS":"大興街９６巷７５號","OBJECTID":435410},"geometry":{"x":167096.53000000119,"y":2546021.839999998}},{"attributes":{"ID":435436,"DIS_CODE":0,"TOWNNAME":"麻豆區","LI":"大埕里","LIN":"8鄰","STREET":" ","SECT":" ","MAREA":"大埕","LANE":" ","ALLEY":" ","HOUSE_NO":"１５號之１１","E_COORD97":173181.58661999999,"N_COORD97":2565317.9696800001,"ADDRESS":"大埕１５號之１１","OBJECTID":435411},"geometry":{"x":173181.58662000112,"y":2565317.9696800001}},{"attributes":{"ID":435437,"DIS_CODE":0,"TOWNNAME":"北區","LI":"大和里","LIN":"4鄰","STREET":"大興街","SECT":" ","MAREA":" ","LANE":"９６巷","ALLEY":" ","HOUSE_NO":"７７號","E_COORD97":167096.39999999999,"N_COORD97":2546025.9500000002,"ADDRESS":"大興街９６巷７７號","OBJECTID":435412},"geometry":{"x":167096.40000000037,"y":2546025.9499999993}},{"attributes":{"ID":435438,"DIS_CODE":0,"TOWNNAME":"北區","LI":"大和里","LIN":"6鄰","STREET":"大興街","SECT":" ","MAREA":" ","LANE":"１３２巷","ALLEY":" ","HOUSE_NO":"１０號","E_COORD97":167042.39999999999,"N_COORD97":2545788.02,"ADDRESS":"大興街１３２巷１０號","OBJECTID":435413},"geometry":{"x":167042.40000000037,"y":2545788.0200000014}},{"attributes":{"ID":435439,"DIS_CODE":0,"TOWNNAME":"北區","LI":"大和里","LIN":"6鄰","STREET":"大興街","SECT":" ","MAREA":" ","LANE":"１３２巷","ALLEY":" ","HOUSE_NO":"１４號","E_COORD97":167040.92999999999,"N_COORD97":2545796.6000000001,"ADDRESS":"大興街１３２巷１４號","OBJECTID":435414},"geometry":{"x":167040.93000000063,"y":2545796.6000000034}},{"attributes":{"ID":435440,"DIS_CODE":0,"TOWNNAME":"北區","LI":"大和里","LIN":"6鄰","STREET":"大興街","SECT":" ","MAREA":" ","LANE":"１３２巷","ALLEY":" ","HOUSE_NO":"１６號","E_COORD97":167040.39000000001,"N_COORD97":2545801.8300000001,"ADDRESS":"大興街１３２巷１６號","OBJECTID":435415},"geometry":{"x":167040.38999999966,"y":2545801.8299999982}},{"attributes":{"ID":435441,"DIS_CODE":0,"TOWNNAME":"北區","LI":"大和里","LIN":"6鄰","STREET":"大興街","SECT":" ","MAREA":" ","LANE":"１３２巷","ALLEY":" ","HOUSE_NO":"１８號","E_COORD97":167040.19,"N_COORD97":2545805.79,"ADDRESS":"大興街１３２巷１８號","OBJECTID":435416},"geometry":{"x":167040.19000000134,"y":2545805.790000001}},{"attributes":{"ID":435442,"DIS_CODE":0,"TOWNNAME":"北區","LI":"大和里","LIN":"6鄰","STREET":"大興街","SECT":" ","MAREA":" ","LANE":"１３２巷","ALLEY":" ","HOUSE_NO":"２０號","E_COORD97":167039.19,"N_COORD97":2545810.48,"ADDRESS":"大興街１３２巷２０號","OBJECTID":435417},"geometry":{"x":167039.19000000041,"y":2545810.4800000004}},{"attributes":{"ID":435443,"DIS_CODE":0,"TOWNNAME":"北區","LI":"大和里","LIN":"6鄰","STREET":"大興街","SECT":" ","MAREA":" ","LANE":"１３２巷","ALLEY":" ","HOUSE_NO":"２２號","E_COORD97":167038.85000000001,"N_COORD97":2545814.6899999999,"ADDRESS":"大興街１３２巷２２號","OBJECTID":435418},"geometry":{"x":167038.84999999963,"y":2545814.6899999995}},{"attributes":{"ID":435444,"DIS_CODE":0,"TOWNNAME":"北區","LI":"大和里","LIN":"6鄰","STREET":"大興街","SECT":" ","MAREA":" ","LANE":"１３２巷","ALLEY":" ","HOUSE_NO":"２號","E_COORD97":167042.13,"N_COORD97":2545769.75,"ADDRESS":"大興街１３２巷２號","OBJECTID":435419},"geometry":{"x":167042.12999999989,"y":2545769.7500000019}},{"attributes":{"ID":435445,"DIS_CODE":0,"TOWNNAME":"北區","LI":"大和里","LIN":"6鄰","STREET":"大興街","SECT":" ","MAREA":" ","LANE":"１３２巷","ALLEY":" ","HOUSE_NO":"３４號","E_COORD97":167037.78,"N_COORD97":2545841.9700000002,"ADDRESS":"大興街１３２巷３４號","OBJECTID":435420},"geometry":{"x":167037.78000000026,"y":2545841.9700000007}},{"attributes":{"ID":435446,"DIS_CODE":0,"TOWNNAME":"麻豆區","LI":"新建里","LIN":"8鄰","STREET":"新生南路","SECT":" ","MAREA":" ","LANE":"１１４巷","ALLEY":" ","HOUSE_NO":"１６號","E_COORD97":172255.59,"N_COORD97":2564693.4399999999,"ADDRESS":"新生南路１１４巷１６號","OBJECTID":435421},"geometry":{"x":172255.59000000171,"y":2564693.4400000013}},{"attributes":{"ID":435447,"DIS_CODE":0,"TOWNNAME":"麻豆區","LI":"新建里","LIN":"8鄰","STREET":"新生南路","SECT":" ","MAREA":" ","LANE":"１１４巷","ALLEY":" ","HOUSE_NO":"１８號","E_COORD97":172249.91,"N_COORD97":2564692.7400000002,"ADDRESS":"新生南路１１４巷１８號","OBJECTID":435422},"geometry":{"x":172249.91000000015,"y":2564692.7400000002}},{"attributes":{"ID":435448,"DIS_CODE":0,"TOWNNAME":"麻豆區","LI":"新建里","LIN":"8鄰","STREET":"新生南路","SECT":" ","MAREA":" ","LANE":"１１４巷","ALLEY":" ","HOUSE_NO":"２０號","E_COORD97":172244.88,"N_COORD97":2564692.1400000001,"ADDRESS":"新生南路１１４巷２０號","OBJECTID":435423},"geometry":{"x":172244.87999999989,"y":2564692.1400000025}},{"attributes":{"ID":435449,"DIS_CODE":0,"TOWNNAME":"麻豆區","LI":"新建里","LIN":"8鄰","STREET":"新生南路","SECT":" ","MAREA":" ","LANE":"１１４巷","ALLEY":" ","HOUSE_NO":"２２號","E_COORD97":172238.29999999999,"N_COORD97":2564691.5600000001,"ADDRESS":"新生南路１１４巷２２號","OBJECTID":435424},"geometry":{"x":172238.29999999981,"y":2564691.5600000005}},{"attributes":{"ID":435450,"DIS_CODE":0,"TOWNNAME":"麻豆區","LI":"油車里","LIN":"19鄰","STREET":"新生北路","SECT":" ","MAREA":" ","LANE":"１０１巷","ALLEY":" ","HOUSE_NO":"１號","E_COORD97":172218.98000000001,"N_COORD97":2565304.3399999999,"ADDRESS":"新生北路１０１巷１號","OBJECTID":435425},"geometry":{"x":172218.98000000045,"y":2565304.3400000017}},{"attributes":{"ID":435451,"DIS_CODE":0,"TOWNNAME":"麻豆區","LI":"油車里","LIN":"19鄰","STREET":"新生北路","SECT":" ","MAREA":" ","LANE":"１０１巷","ALLEY":" ","HOUSE_NO":"２９號","E_COORD97":172148.95000000001,"N_COORD97":2565293.1699999999,"ADDRESS":"新生北路１０１巷２９號","OBJECTID":435426},"geometry":{"x":172148.95000000112,"y":2565293.1699999999}},{"attributes":{"ID":435452,"DIS_CODE":0,"TOWNNAME":"麻豆區","LI":"油車里","LIN":"19鄰","STREET":"新生北路","SECT":" ","MAREA":" ","LANE":"１０１巷","ALLEY":" ","HOUSE_NO":"３號","E_COORD97":172199.70000000001,"N_COORD97":2565283.02,"ADDRESS":"新生北路１０１巷３號","OBJECTID":435427},"geometry":{"x":172199.70000000112,"y":2565283.0199999996}},{"attributes":{"ID":435453,"DIS_CODE":0,"TOWNNAME":"麻豆區","LI":"興農里","LIN":"8鄰","STREET":"新生南路","SECT":" ","MAREA":" ","LANE":"２１８巷","ALLEY":" ","HOUSE_NO":"１０７號","E_COORD97":171890.14000000001,"N_COORD97":2564403.5699999998,"ADDRESS":"新生南路２１８巷１０７號","OBJECTID":435428},"geometry":{"x":171890.13999999966,"y":2564403.570000004}},{"attributes":{"ID":435454,"DIS_CODE":0,"TOWNNAME":"麻豆區","LI":"興農里","LIN":"8鄰","STREET":"新生南路","SECT":" ","MAREA":" ","LANE":"２１８巷","ALLEY":" ","HOUSE_NO":"１０９號","E_COORD97":171871.04999999999,"N_COORD97":2564405.5,"ADDRESS":"新生南路２１８巷１０９號","OBJECTID":435429},"geometry":{"x":171871.05000000168,"y":2564405.5000000019}},{"attributes":{"ID":435455,"DIS_CODE":0,"TOWNNAME":"麻豆區","LI":"興農里","LIN":"8鄰","STREET":"新生南路","SECT":" ","MAREA":" ","LANE":"２１８巷","ALLEY":" ","HOUSE_NO":"１７號","E_COORD97":172267.94,"N_COORD97":2564415.0800000001,"ADDRESS":"新生南路２１８巷１７號","OBJECTID":435430},"geometry":{"x":172267.94000000134,"y":2564415.0800000019}},{"attributes":{"ID":435456,"DIS_CODE":0,"TOWNNAME":"麻豆區","LI":"興農里","LIN":"8鄰","STREET":"新生南路","SECT":" ","MAREA":" ","LANE":"２１８巷","ALLEY":" ","HOUSE_NO":"１９號","E_COORD97":172268.79999999999,"N_COORD97":2564411.3799999999,"ADDRESS":"新生南路２１８巷１９號","OBJECTID":435431},"geometry":{"x":172268.79999999981,"y":2564411.3800000008}},{"attributes":{"ID":435457,"DIS_CODE":0,"TOWNNAME":"麻豆區","LI":"興農里","LIN":"8鄰","STREET":"新生南路","SECT":" ","MAREA":" ","LANE":"２１８巷","ALLEY":" ","HOUSE_NO":"２１號","E_COORD97":172270.10000000001,"N_COORD97":2564407.5899999999,"ADDRESS":"新生南路２１８巷２１號","OBJECTID":435432},"geometry":{"x":172270.09999999963,"y":2564407.5900000017}},{"attributes":{"ID":435458,"DIS_CODE":0,"TOWNNAME":"麻豆區","LI":"興農里","LIN":"8鄰","STREET":"新生南路","SECT":" ","MAREA":" ","LANE":"２１８巷","ALLEY":" ","HOUSE_NO":"２３號","E_COORD97":172271.54000000001,"N_COORD97":2564403.8300000001,"ADDRESS":"新生南路２１８巷２３號","OBJECTID":435433},"geometry":{"x":172271.54000000097,"y":2564403.8300000001}},{"attributes":{"ID":435459,"DIS_CODE":0,"TOWNNAME":"麻豆區","LI":"興農里","LIN":"8鄰","STREET":"新生南路","SECT":" ","MAREA":" ","LANE":"２１８巷","ALLEY":" ","HOUSE_NO":"２５號","E_COORD97":172272.70999999999,"N_COORD97":2564399.8799999999,"ADDRESS":"新生南路２１８巷２５號","OBJECTID":435434},"geometry":{"x":172272.70999999996,"y":2564399.8799999971}},{"attributes":{"ID":435460,"DIS_CODE":0,"TOWNNAME":"麻豆區","LI":"興農里","LIN":"8鄰","STREET":"新生南路","SECT":" ","MAREA":" ","LANE":"２１８巷","ALLEY":" ","HOUSE_NO":"９１號","E_COORD97":172249.39999999999,"N_COORD97":2564416.6400000001,"ADDRESS":"新生南路２１８巷９１號","OBJECTID":435435},"geometry":{"x":172249.4000000013,"y":2564416.6400000006}},{"attributes":{"ID":435461,"DIS_CODE":0,"TOWNNAME":"麻豆區","LI":"興農里","LIN":"8鄰","STREET":"新生南路","SECT":" ","MAREA":" ","LANE":"２１８巷","ALLEY":" ","HOUSE_NO":"９３號","E_COORD97":172245.85000000001,"N_COORD97":2564420.3599999999,"ADDRESS":"新生南路２１８巷９３號","OBJECTID":435436},"geometry":{"x":172245.85000000056,"y":2564420.3599999994}},{"attributes":{"ID":435462,"DIS_CODE":0,"TOWNNAME":"麻豆區","LI":"興農里","LIN":"7鄰","STREET":"新生南路","SECT":" ","MAREA":" ","LANE":"２６２巷","ALLEY":" ","HOUSE_NO":"１５號","E_COORD97":172300.64999999999,"N_COORD97":2564323.0899999999,"ADDRESS":"新生南路２６２巷１５號","OBJECTID":435437},"geometry":{"x":172300.65000000037,"y":2564323.0900000017}},{"attributes":{"ID":435463,"DIS_CODE":0,"TOWNNAME":"麻豆區","LI":"興農里","LIN":"7鄰","STREET":"新生南路","SECT":" ","MAREA":" ","LANE":"２６２巷","ALLEY":" ","HOUSE_NO":"１６號","E_COORD97":172272.29999999999,"N_COORD97":2564332.75,"ADDRESS":"新生南路２６２巷１６號","OBJECTID":435438},"geometry":{"x":172272.29999999981,"y":2564332.75}},{"attributes":{"ID":435464,"DIS_CODE":0,"TOWNNAME":"麻豆區","LI":"興農里","LIN":"7鄰","STREET":"新生南路","SECT":" ","MAREA":" ","LANE":"２６２巷","ALLEY":" ","HOUSE_NO":"１７號","E_COORD97":172288.23999999999,"N_COORD97":2564319.5,"ADDRESS":"新生南路２６２巷１７號","OBJECTID":435439},"geometry":{"x":172288.24000000022,"y":2564319.5000000019}},{"attributes":{"ID":435465,"DIS_CODE":0,"TOWNNAME":"麻豆區","LI":"興農里","LIN":"7鄰","STREET":"新生南路","SECT":" ","MAREA":" ","LANE":"２６２巷","ALLEY":" ","HOUSE_NO":"１８號","E_COORD97":172266.57999999999,"N_COORD97":2564330.8300000001,"ADDRESS":"新生南路２６２巷１８號","OBJECTID":435440},"geometry":{"x":172266.58000000101,"y":2564330.8300000019}},{"attributes":{"ID":435466,"DIS_CODE":0,"TOWNNAME":"麻豆區","LI":"興農里","LIN":"7鄰","STREET":"新生南路","SECT":" ","MAREA":" ","LANE":"２６２巷","ALLEY":" ","HOUSE_NO":"１９號","E_COORD97":172281.42000000001,"N_COORD97":2564317.0099999998,"ADDRESS":"新生南路２６２巷１９號","OBJECTID":435441},"geometry":{"x":172281.41999999993,"y":2564317.0100000016}},{"attributes":{"ID":435467,"DIS_CODE":0,"TOWNNAME":"麻豆區","LI":"興農里","LIN":"7鄰","STREET":"新生南路","SECT":" ","MAREA":" ","LANE":"２６２巷","ALLEY":" ","HOUSE_NO":"１號","E_COORD97":172306.48000000001,"N_COORD97":2564279.3799999999,"ADDRESS":"新生南路２６２巷１號","OBJECTID":435442},"geometry":{"x":172306.48000000138,"y":2564279.3800000008}},{"attributes":{"ID":435468,"DIS_CODE":0,"TOWNNAME":"麻豆區","LI":"興農里","LIN":"7鄰","STREET":"新生南路","SECT":" ","MAREA":" ","LANE":"２６２巷","ALLEY":" ","HOUSE_NO":"２號","E_COORD97":172306.38,"N_COORD97":2564345.5899999999,"ADDRESS":"新生南路２６２巷２號","OBJECTID":435443},"geometry":{"x":172306.38000000082,"y":2564345.5900000036}},{"attributes":{"ID":435469,"DIS_CODE":0,"TOWNNAME":"麻豆區","LI":"興農里","LIN":"7鄰","STREET":"新生南路","SECT":" ","MAREA":" ","LANE":"２６２巷","ALLEY":" ","HOUSE_NO":"３號","E_COORD97":172302.12,"N_COORD97":2564287.1600000001,"ADDRESS":"新生南路２６２巷３號","OBJECTID":435444},"geometry":{"x":172302.12000000104,"y":2564287.1600000001}},{"attributes":{"ID":435470,"DIS_CODE":0,"TOWNNAME":"麻豆區","LI":"興農里","LIN":"7鄰","STREET":"新生南路","SECT":" ","MAREA":" ","LANE":"２６２巷","ALLEY":" ","HOUSE_NO":"５號","E_COORD97":172301.95999999999,"N_COORD97":2564293.4300000002,"ADDRESS":"新生南路２６２巷５號","OBJECTID":435445},"geometry":{"x":172301.95999999996,"y":2564293.4300000016}},{"attributes":{"ID":435471,"DIS_CODE":0,"TOWNNAME":"麻豆區","LI":"新建里","LIN":"7鄰","STREET":"新生南路","SECT":" ","MAREA":" ","LANE":"３３巷","ALLEY":" ","HOUSE_NO":"１１號","E_COORD97":172354.59,"N_COORD97":2564850.7400000002,"ADDRESS":"新生南路３３巷１１號","OBJECTID":435446},"geometry":{"x":172354.59000000078,"y":2564850.7400000021}},{"attributes":{"ID":435472,"DIS_CODE":0,"TOWNNAME":"麻豆區","LI":"新建里","LIN":"7鄰","STREET":"新生南路","SECT":" ","MAREA":" ","LANE":"３３巷","ALLEY":" ","HOUSE_NO":"１３號","E_COORD97":172358.59,"N_COORD97":2564850.8199999998,"ADDRESS":"新生南路３３巷１３號","OBJECTID":435447},"geometry":{"x":172358.58999999985,"y":2564850.8200000022}},{"attributes":{"ID":435473,"DIS_CODE":0,"TOWNNAME":"麻豆區","LI":"新建里","LIN":"7鄰","STREET":"新生南路","SECT":" ","MAREA":" ","LANE":"３３巷","ALLEY":" ","HOUSE_NO":"１５號","E_COORD97":172362.59,"N_COORD97":2564850.8999999999,"ADDRESS":"新生南路３３巷１５號","OBJECTID":435448},"geometry":{"x":172362.59000000078,"y":2564850.9000000004}},{"attributes":{"ID":435474,"DIS_CODE":0,"TOWNNAME":"麻豆區","LI":"新建里","LIN":"7鄰","STREET":"新生南路","SECT":" ","MAREA":" ","LANE":"３３巷","ALLEY":" ","HOUSE_NO":"１７號","E_COORD97":172370.91,"N_COORD97":2564876.6099999999,"ADDRESS":"新生南路３３巷１７號","OBJECTID":435449},"geometry":{"x":172370.91000000108,"y":2564876.6099999994}},{"attributes":{"ID":435475,"DIS_CODE":0,"TOWNNAME":"麻豆區","LI":"新建里","LIN":"7鄰","STREET":"新生南路","SECT":" ","MAREA":" ","LANE":"３３巷","ALLEY":" ","HOUSE_NO":"１９號","E_COORD97":172374.89999999999,"N_COORD97":2564876.5499999998,"ADDRESS":"新生南路３３巷１９號","OBJECTID":435450},"geometry":{"x":172374.9000000013,"y":2564876.5500000026}},{"attributes":{"ID":435476,"DIS_CODE":0,"TOWNNAME":"麻豆區","LI":"新建里","LIN":"7鄰","STREET":"新生南路","SECT":" ","MAREA":" ","LANE":"３３巷","ALLEY":" ","HOUSE_NO":"１號","E_COORD97":172337.34,"N_COORD97":2564855.5600000001,"ADDRESS":"新生南路３３巷１號","OBJECTID":435451},"geometry":{"x":172337.34000000078,"y":2564855.5600000024}},{"attributes":{"ID":435477,"DIS_CODE":0,"TOWNNAME":"麻豆區","LI":"新建里","LIN":"7鄰","STREET":"新生南路","SECT":" ","MAREA":" ","LANE":"３３巷","ALLEY":" ","HOUSE_NO":"２１號","E_COORD97":172378.89000000001,"N_COORD97":2564876.48,"ADDRESS":"新生南路３３巷２１號","OBJECTID":435452},"geometry":{"x":172378.89000000153,"y":2564876.4800000023}},{"attributes":{"ID":435478,"DIS_CODE":0,"TOWNNAME":"麻豆區","LI":"興農里","LIN":"4鄰","STREET":"新生南路","SECT":" ","MAREA":" ","LANE":"３７３巷","ALLEY":" ","HOUSE_NO":"１１號","E_COORD97":172457.73999999999,"N_COORD97":2564065.8100000001,"ADDRESS":"新生南路３７３巷１１號","OBJECTID":435453},"geometry":{"x":172457.74000000022,"y":2564065.8100000005}},{"attributes":{"ID":435479,"DIS_CODE":0,"TOWNNAME":"麻豆區","LI":"興農里","LIN":"4鄰","STREET":"新生南路","SECT":" ","MAREA":" ","LANE":"３７３巷","ALLEY":" ","HOUSE_NO":"１３號","E_COORD97":172457.29999999999,"N_COORD97":2564070.6000000001,"ADDRESS":"新生南路３７３巷１３號","OBJECTID":435454},"geometry":{"x":172457.29999999981,"y":2564070.6000000034}},{"attributes":{"ID":435480,"DIS_CODE":0,"TOWNNAME":"麻豆區","LI":"興農里","LIN":"4鄰","STREET":"新生南路","SECT":" ","MAREA":" ","LANE":"３７３巷","ALLEY":" ","HOUSE_NO":"１５號","E_COORD97":172457.37,"N_COORD97":2564076.8700000001,"ADDRESS":"新生南路３７３巷１５號","OBJECTID":435455},"geometry":{"x":172457.37000000197,"y":2564076.8700000048}},{"attributes":{"ID":435481,"DIS_CODE":0,"TOWNNAME":"麻豆區","LI":"興農里","LIN":"4鄰","STREET":"新生南路","SECT":" ","MAREA":" ","LANE":"３７３巷","ALLEY":" ","HOUSE_NO":"１７號","E_COORD97":172463.39999999999,"N_COORD97":2564087.48,"ADDRESS":"新生南路３７３巷１７號","OBJECTID":435456},"geometry":{"x":172463.40000000037,"y":2564087.4800000004}},{"attributes":{"ID":435482,"DIS_CODE":0,"TOWNNAME":"麻豆區","LI":"興農里","LIN":"4鄰","STREET":"新生南路","SECT":" ","MAREA":" ","LANE":"３７３巷","ALLEY":" ","HOUSE_NO":"１９號","E_COORD97":172463.06,"N_COORD97":2564091.9500000002,"ADDRESS":"新生南路３７３巷１９號","OBJECTID":435457},"geometry":{"x":172463.06000000052,"y":2564091.9500000011}},{"attributes":{"ID":435483,"DIS_CODE":0,"TOWNNAME":"麻豆區","LI":"興農里","LIN":"4鄰","STREET":"新生南路","SECT":" ","MAREA":" ","LANE":"３７３巷","ALLEY":" ","HOUSE_NO":"２３號","E_COORD97":172463.48999999999,"N_COORD97":2564101.9399999999,"ADDRESS":"新生南路３７３巷２３號","OBJECTID":435458},"geometry":{"x":172463.49000000209,"y":2564101.9400000032}},{"attributes":{"ID":435484,"DIS_CODE":0,"TOWNNAME":"麻豆區","LI":"興農里","LIN":"4鄰","STREET":"新生南路","SECT":" ","MAREA":" ","LANE":"３７３巷","ALLEY":" ","HOUSE_NO":"２５號","E_COORD97":172453.13,"N_COORD97":2564096.1099999999,"ADDRESS":"新生南路３７３巷２５號","OBJECTID":435459},"geometry":{"x":172453.12999999989,"y":2564096.1099999994}},{"attributes":{"ID":435485,"DIS_CODE":0,"TOWNNAME":"麻豆區","LI":"興農里","LIN":"4鄰","STREET":"新生南路","SECT":" ","MAREA":" ","LANE":"３７３巷","ALLEY":" ","HOUSE_NO":"２７號","E_COORD97":172448.95999999999,"N_COORD97":2564095.2200000002,"ADDRESS":"新生南路３７３巷２７號","OBJECTID":435460},"geometry":{"x":172448.96000000089,"y":2564095.2200000025}},{"attributes":{"ID":435486,"DIS_CODE":0,"TOWNNAME":"麻豆區","LI":"興農里","LIN":"4鄰","STREET":"新生南路","SECT":" ","MAREA":" ","LANE":"３７３巷","ALLEY":" ","HOUSE_NO":"２９號","E_COORD97":172444.39000000001,"N_COORD97":2564094.6299999999,"ADDRESS":"新生南路３７３巷２９號","OBJECTID":435461},"geometry":{"x":172444.38999999966,"y":2564094.6300000008}},{"attributes":{"ID":435487,"DIS_CODE":0,"TOWNNAME":"麻豆區","LI":"興農里","LIN":"4鄰","STREET":"新生南路","SECT":" ","MAREA":" ","LANE":"３７３巷","ALLEY":" ","HOUSE_NO":"３１號","E_COORD97":172440.01000000001,"N_COORD97":2564093.7400000002,"ADDRESS":"新生南路３７３巷３１號","OBJECTID":435462},"geometry":{"x":172440.00999999978,"y":2564093.7399999984}},{"attributes":{"ID":435488,"DIS_CODE":0,"TOWNNAME":"麻豆區","LI":"興農里","LIN":"4鄰","STREET":"新生南路","SECT":" ","MAREA":" ","LANE":"３７３巷","ALLEY":" ","HOUSE_NO":"３３號","E_COORD97":172435.32000000001,"N_COORD97":2564092.9399999999,"ADDRESS":"新生南路３７３巷３３號","OBJECTID":435463},"geometry":{"x":172435.3200000003,"y":2564092.9400000013}},{"attributes":{"ID":435489,"DIS_CODE":0,"TOWNNAME":"麻豆區","LI":"興農里","LIN":"4鄰","STREET":"新生南路","SECT":" ","MAREA":" ","LANE":"３７３巷","ALLEY":" ","HOUSE_NO":"３５號","E_COORD97":172431.67000000001,"N_COORD97":2564092.52,"ADDRESS":"新生南路３７３巷３５號","OBJECTID":435464},"geometry":{"x":172431.67000000086,"y":2564092.5200000014}},{"attributes":{"ID":435490,"DIS_CODE":0,"TOWNNAME":"麻豆區","LI":"興農里","LIN":"4鄰","STREET":"新生南路","SECT":" ","MAREA":" ","LANE":"３７３巷","ALLEY":" ","HOUSE_NO":"３７號","E_COORD97":172427.70000000001,"N_COORD97":2564092.0899999999,"ADDRESS":"新生南路３７３巷３７號","OBJECTID":435465},"geometry":{"x":172427.70000000019,"y":2564092.0900000017}},{"attributes":{"ID":435491,"DIS_CODE":0,"TOWNNAME":"麻豆區","LI":"興農里","LIN":"4鄰","STREET":"新生南路","SECT":" ","MAREA":" ","LANE":"３７３巷","ALLEY":" ","HOUSE_NO":"３９號","E_COORD97":172423.72,"N_COORD97":2564091.5,"ADDRESS":"新生南路３７３巷３９號","OBJECTID":435466},"geometry":{"x":172423.71999999974,"y":2564091.5}},{"attributes":{"ID":435492,"DIS_CODE":0,"TOWNNAME":"麻豆區","LI":"興農里","LIN":"4鄰","STREET":"新生南路","SECT":" ","MAREA":" ","LANE":"３７３巷","ALLEY":" ","HOUSE_NO":"４１號","E_COORD97":172419.19,"N_COORD97":2564090.96,"ADDRESS":"新生南路３７３巷４１號","OBJECTID":435467},"geometry":{"x":172419.19000000041,"y":2564090.9600000028}},{"attributes":{"ID":435493,"DIS_CODE":0,"TOWNNAME":"麻豆區","LI":"興農里","LIN":"4鄰","STREET":"新生南路","SECT":" ","MAREA":" ","LANE":"３７３巷","ALLEY":" ","HOUSE_NO":"４３號","E_COORD97":172414.98000000001,"N_COORD97":2564090.4700000002,"ADDRESS":"新生南路３７３巷４３號","OBJECTID":435468},"geometry":{"x":172414.98000000138,"y":2564090.4700000025}},{"attributes":{"ID":435494,"DIS_CODE":0,"TOWNNAME":"麻豆區","LI":"興農里","LIN":"4鄰","STREET":"新生南路","SECT":" ","MAREA":" ","LANE":"３７３巷","ALLEY":" ","HOUSE_NO":"４７號","E_COORD97":172418.14999999999,"N_COORD97":2564114.3100000001,"ADDRESS":"新生南路３７３巷４７號","OBJECTID":435469},"geometry":{"x":172418.15000000037,"y":2564114.3100000042}},{"attributes":{"ID":435495,"DIS_CODE":0,"TOWNNAME":"麻豆區","LI":"興農里","LIN":"4鄰","STREET":"新生南路","SECT":" ","MAREA":" ","LANE":"３７３巷","ALLEY":" ","HOUSE_NO":"４９號","E_COORD97":172422.32999999999,"N_COORD97":2564114.6699999999,"ADDRESS":"新生南路３７３巷４９號","OBJECTID":435470},"geometry":{"x":172422.33000000101,"y":2564114.6700000037}},{"attributes":{"ID":435496,"DIS_CODE":0,"TOWNNAME":"麻豆區","LI":"興農里","LIN":"4鄰","STREET":"新生南路","SECT":" ","MAREA":" ","LANE":"３７３巷","ALLEY":" ","HOUSE_NO":"５１號","E_COORD97":172426.47,"N_COORD97":2564115.3500000001,"ADDRESS":"新生南路３７３巷５１號","OBJECTID":435471},"geometry":{"x":172426.47000000067,"y":2564115.3499999996}},{"attributes":{"ID":435497,"DIS_CODE":0,"TOWNNAME":"麻豆區","LI":"興農里","LIN":"4鄰","STREET":"新生南路","SECT":" ","MAREA":" ","LANE":"３７３巷","ALLEY":" ","HOUSE_NO":"５３號","E_COORD97":172430.56,"N_COORD97":2564115.9100000001,"ADDRESS":"新生南路３７３巷５３號","OBJECTID":435472},"geometry":{"x":172430.56000000052,"y":2564115.9100000001}},{"attributes":{"ID":435498,"DIS_CODE":0,"TOWNNAME":"麻豆區","LI":"興農里","LIN":"4鄰","STREET":"新生南路","SECT":" ","MAREA":" ","LANE":"３７３巷","ALLEY":" ","HOUSE_NO":"５５號","E_COORD97":172435.03,"N_COORD97":2564116.5499999998,"ADDRESS":"新生南路３７３巷５５號","OBJECTID":435473},"geometry":{"x":172435.03000000119,"y":2564116.5500000026}},{"attributes":{"ID":435499,"DIS_CODE":0,"TOWNNAME":"麻豆區","LI":"興農里","LIN":"4鄰","STREET":"新生南路","SECT":" ","MAREA":" ","LANE":"３７３巷","ALLEY":" ","HOUSE_NO":"５７號","E_COORD97":172438.92000000001,"N_COORD97":2564117.1600000001,"ADDRESS":"新生南路３７３巷５７號","OBJECTID":435474},"geometry":{"x":172438.92000000086,"y":2564117.1600000001}},{"attributes":{"ID":435500,"DIS_CODE":0,"TOWNNAME":"麻豆區","LI":"興農里","LIN":"4鄰","STREET":"新生南路","SECT":" ","MAREA":" ","LANE":"３７３巷","ALLEY":" ","HOUSE_NO":"５９號","E_COORD97":172443.26000000001,"N_COORD97":2564117.7599999998,"ADDRESS":"新生南路３７３巷５９號","OBJECTID":435475},"geometry":{"x":172443.26000000071,"y":2564117.7600000016}},{"attributes":{"ID":435501,"DIS_CODE":0,"TOWNNAME":"麻豆區","LI":"興農里","LIN":"4鄰","STREET":"新生南路","SECT":" ","MAREA":" ","LANE":"３７３巷","ALLEY":" ","HOUSE_NO":"６１號","E_COORD97":172447.47,"N_COORD97":2564118.2999999998,"ADDRESS":"新生南路３７３巷６１號","OBJECTID":435476},"geometry":{"x":172447.46999999974,"y":2564118.3000000026}},{"attributes":{"ID":435502,"DIS_CODE":0,"TOWNNAME":"麻豆區","LI":"興農里","LIN":"4鄰","STREET":"新生南路","SECT":" ","MAREA":" ","LANE":"３７３巷","ALLEY":" ","HOUSE_NO":"６３號","E_COORD97":172451.67999999999,"N_COORD97":2564118.9100000001,"ADDRESS":"新生南路３７３巷６３號","OBJECTID":435477},"geometry":{"x":172451.68000000063,"y":2564118.9100000001}},{"attributes":{"ID":435503,"DIS_CODE":0,"TOWNNAME":"麻豆區","LI":"興農里","LIN":"4鄰","STREET":"新生南路","SECT":" ","MAREA":" ","LANE":"３７３巷","ALLEY":" ","HOUSE_NO":"６５號","E_COORD97":172460.85999999999,"N_COORD97":2564112.2799999998,"ADDRESS":"新生南路３７３巷６５號","OBJECTID":435478},"geometry":{"x":172460.86000000034,"y":2564112.2799999993}},{"attributes":{"ID":435504,"DIS_CODE":0,"TOWNNAME":"麻豆區","LI":"興農里","LIN":"4鄰","STREET":"新生南路","SECT":" ","MAREA":" ","LANE":"３７３巷","ALLEY":" ","HOUSE_NO":"６７號","E_COORD97":172460.76000000001,"N_COORD97":2564117.3900000001,"ADDRESS":"新生南路３７３巷６７號","OBJECTID":435479},"geometry":{"x":172460.75999999978,"y":2564117.3900000025}},{"attributes":{"ID":435505,"DIS_CODE":0,"TOWNNAME":"麻豆區","LI":"興農里","LIN":"4鄰","STREET":"新生南路","SECT":" ","MAREA":" ","LANE":"３７３巷","ALLEY":" ","HOUSE_NO":"６９號","E_COORD97":172460.57000000001,"N_COORD97":2564122.2799999998,"ADDRESS":"新生南路３７３巷６９號","OBJECTID":435480},"geometry":{"x":172460.5700000003,"y":2564122.2799999993}},{"attributes":{"ID":435506,"DIS_CODE":0,"TOWNNAME":"麻豆區","LI":"興農里","LIN":"4鄰","STREET":"新生南路","SECT":" ","MAREA":" ","LANE":"３７３巷","ALLEY":" ","HOUSE_NO":"７１號","E_COORD97":172460.63,"N_COORD97":2564127.48,"ADDRESS":"新生南路３７３巷７１號","OBJECTID":435481},"geometry":{"x":172460.63000000082,"y":2564127.4800000023}},{"attributes":{"ID":435507,"DIS_CODE":0,"TOWNNAME":"麻豆區","LI":"興農里","LIN":"4鄰","STREET":"新生南路","SECT":" ","MAREA":" ","LANE":"３７３巷","ALLEY":" ","HOUSE_NO":"９號","E_COORD97":172458.20999999999,"N_COORD97":2564061.46,"ADDRESS":"新生南路３７３巷９號","OBJECTID":435482},"geometry":{"x":172458.20999999903,"y":2564061.4600000009}},{"attributes":{"ID":435508,"DIS_CODE":0,"TOWNNAME":"歸仁區","LI":"後市里","LIN":"5鄰","STREET":"大吉一街","SECT":" ","MAREA":" ","LANE":"３巷","ALLEY":" ","HOUSE_NO":"１４號","E_COORD97":177189.31,"N_COORD97":2540693.25,"ADDRESS":"大吉一街３巷１４號","OBJECTID":435483},"geometry":{"x":177189.31000000052,"y":2540693.2500000037}},{"attributes":{"ID":435509,"DIS_CODE":0,"TOWNNAME":"歸仁區","LI":"南保里","LIN":"26鄰","STREET":"民權六街","SECT":" ","MAREA":" ","LANE":"１８１巷","ALLEY":" ","HOUSE_NO":"７號","E_COORD97":176635.94,"N_COORD97":2541084.29,"ADDRESS":"民權六街１８１巷７號","OBJECTID":435484},"geometry":{"x":176635.94000000227,"y":2541084.2899999991}},{"attributes":{"ID":435510,"DIS_CODE":0,"TOWNNAME":"歸仁區","LI":"南保里","LIN":"32鄰","STREET":"民權八街","SECT":" ","MAREA":" ","LANE":"３０巷","ALLEY":" ","HOUSE_NO":"５號","E_COORD97":176887.59,"N_COORD97":2541002.29,"ADDRESS":"民權八街３０巷５號","OBJECTID":435485},"geometry":{"x":176887.59000000078,"y":2541002.2899999991}},{"attributes":{"ID":435511,"DIS_CODE":0,"TOWNNAME":"歸仁區","LI":"南興里","LIN":"32鄰","STREET":"民生北街","SECT":" ","MAREA":" ","LANE":"５０巷","ALLEY":" ","HOUSE_NO":"４９號","E_COORD97":176401.04000000001,"N_COORD97":2541075.29,"ADDRESS":"民生北街５０巷４９號","OBJECTID":435486},"geometry":{"x":176401.04000000097,"y":2541075.2900000028}},{"attributes":{"ID":435512,"DIS_CODE":0,"TOWNNAME":"歸仁區","LI":"南保里","LIN":"26鄰","STREET":"民權六街","SECT":" ","MAREA":" ","LANE":"１８１巷","ALLEY":" ","HOUSE_NO":"２１號","E_COORD97":176646.39000000001,"N_COORD97":2541071.29,"ADDRESS":"民權六街１８１巷２１號","OBJECTID":435487},"geometry":{"x":176646.3900000006,"y":2541071.2899999991}},{"attributes":{"ID":435513,"DIS_CODE":0,"TOWNNAME":"歸仁區","LI":"後市里","LIN":"32鄰","STREET":"民族北街","SECT":" ","MAREA":" ","LANE":"３１巷","ALLEY":" ","HOUSE_NO":"１２號","E_COORD97":177364.17999999999,"N_COORD97":2540928.75,"ADDRESS":"民族北街３１巷１２號","OBJECTID":435488},"geometry":{"x":177364.18000000156,"y":2540928.7500000019}},{"attributes":{"ID":435514,"DIS_CODE":0,"TOWNNAME":"歸仁區","LI":"大潭里","LIN":"20鄰","STREET":"長榮路","SECT":"二段","MAREA":" ","LANE":"７５巷","ALLEY":" ","HOUSE_NO":"３２號","E_COORD97":176929.67000000001,"N_COORD97":2534564.2799999998,"ADDRESS":"長榮路二段７５巷３２號","OBJECTID":435489},"geometry":{"x":176929.66999999993,"y":2534564.2799999993}},{"attributes":{"ID":435515,"DIS_CODE":0,"TOWNNAME":"歸仁區","LI":"後市里","LIN":"39鄰","STREET":"文化街","SECT":"二段","MAREA":" ","LANE":"６３巷","ALLEY":" ","HOUSE_NO":"１８號","E_COORD97":177307.84,"N_COORD97":2541092.7599999998,"ADDRESS":"文化街二段６３巷１８號","OBJECTID":435490},"geometry":{"x":177307.84000000078,"y":2541092.7599999979}},{"attributes":{"ID":435516,"DIS_CODE":0,"TOWNNAME":"歸仁區","LI":"南保里","LIN":"26鄰","STREET":"民權六街","SECT":" ","MAREA":" ","LANE":"１８１巷","ALLEY":" ","HOUSE_NO":"３１號","E_COORD97":176624.79000000001,"N_COORD97":2541073.29,"ADDRESS":"民權六街１８１巷３１號","OBJECTID":435491},"geometry":{"x":176624.79000000097,"y":2541073.290000001}},{"attributes":{"ID":435517,"DIS_CODE":0,"TOWNNAME":"歸仁區","LI":"南保里","LIN":"26鄰","STREET":"民權六街","SECT":" ","MAREA":" ","LANE":"１８１巷","ALLEY":" ","HOUSE_NO":"１５號","E_COORD97":176655.59,"N_COORD97":2541081.29,"ADDRESS":"民權六街１８１巷１５號","OBJECTID":435492},"geometry":{"x":176655.58999999985,"y":2541081.2899999991}},{"attributes":{"ID":435518,"DIS_CODE":0,"TOWNNAME":"歸仁區","LI":"南興里","LIN":"25鄰","STREET":"文化二十街","SECT":" ","MAREA":" ","LANE":"１１２巷","ALLEY":" ","HOUSE_NO":"１號","E_COORD97":175490.14000000001,"N_COORD97":2541364.3300000001,"ADDRESS":"文化二十街１１２巷１號","OBJECTID":435493},"geometry":{"x":175490.1400000006,"y":2541364.3300000019}},{"attributes":{"ID":435519,"DIS_CODE":0,"TOWNNAME":"歸仁區","LI":"南興里","LIN":"13鄰","STREET":"文化十八街","SECT":" ","MAREA":" ","LANE":"１８巷","ALLEY":" ","HOUSE_NO":"５號","E_COORD97":175875.09,"N_COORD97":2541278.3300000001,"ADDRESS":"文化十八街１８巷５號","OBJECTID":435494},"geometry":{"x":175875.09000000078,"y":2541278.3300000001}},{"attributes":{"ID":435520,"DIS_CODE":0,"TOWNNAME":"歸仁區","LI":"辜厝里","LIN":"32鄰","STREET":"中正南路","SECT":"一段","MAREA":" ","LANE":"２１６巷","ALLEY":" ","HOUSE_NO":"６號","E_COORD97":177338.67000000001,"N_COORD97":2540385.6800000002,"ADDRESS":"中正南路一段２１６巷６號","OBJECTID":435495},"geometry":{"x":177338.66999999993,"y":2540385.6800000016}},{"attributes":{"ID":435521,"DIS_CODE":0,"TOWNNAME":"歸仁區","LI":"南興里","LIN":"41鄰","STREET":"中山路","SECT":"三段","MAREA":" ","LANE":"４２９巷","ALLEY":" ","HOUSE_NO":"５號","E_COORD97":175777.26000000001,"N_COORD97":2540970.2799999998,"ADDRESS":"中山路三段４２９巷５號","OBJECTID":435496},"geometry":{"x":175777.26000000071,"y":2540970.2800000031}},{"attributes":{"ID":435522,"DIS_CODE":0,"TOWNNAME":"歸仁區","LI":"後市里","LIN":"39鄰","STREET":"文化街","SECT":"二段","MAREA":" ","LANE":"６３巷","ALLEY":" ","HOUSE_NO":"１２之１號","E_COORD97":177309.44,"N_COORD97":2541101.7599999998,"ADDRESS":"文化街二段６３巷１２之１號","OBJECTID":435497},"geometry":{"x":177309.44000000134,"y":2541101.7599999998}},{"attributes":{"ID":435523,"DIS_CODE":0,"TOWNNAME":"歸仁區","LI":"南保里","LIN":"25鄰","STREET":"文化街","SECT":"三段","MAREA":" ","LANE":"１８５巷","ALLEY":" ","HOUSE_NO":"８號","E_COORD97":176560.64000000001,"N_COORD97":2541147.3300000001,"ADDRESS":"文化街三段１８５巷８號","OBJECTID":435498},"geometry":{"x":176560.63999999966,"y":2541147.3300000019}},{"attributes":{"ID":435524,"DIS_CODE":0,"TOWNNAME":"歸仁區","LI":"媽廟里","LIN":"4鄰","STREET":"和順路","SECT":"一段","MAREA":" ","LANE":"６３巷","ALLEY":" ","HOUSE_NO":"１號","E_COORD97":177342.67000000001,"N_COORD97":2543690.7200000002,"ADDRESS":"和順路一段６３巷１號","OBJECTID":435499},"geometry":{"x":177342.67000000086,"y":2543690.7200000007}},{"attributes":{"ID":435525,"DIS_CODE":0,"TOWNNAME":"歸仁區","LI":"媽廟里","LIN":"18鄰","STREET":"媽廟二街","SECT":" ","MAREA":" ","LANE":"３１巷","ALLEY":" ","HOUSE_NO":"３７號","E_COORD97":177712.57999999999,"N_COORD97":2543851.7200000002,"ADDRESS":"媽廟二街３１巷３７號","OBJECTID":435500},"geometry":{"x":177712.57999999914,"y":2543851.7200000025}},{"attributes":{"ID":435526,"DIS_CODE":0,"TOWNNAME":"歸仁區","LI":"歸南里","LIN":"18鄰","STREET":"民生八街","SECT":" ","MAREA":" ","LANE":"２８巷","ALLEY":" ","HOUSE_NO":"３２號","E_COORD97":176125.56,"N_COORD97":2540441.25,"ADDRESS":"民生八街２８巷３２號","OBJECTID":435501},"geometry":{"x":176125.56000000145,"y":2540441.25}},{"attributes":{"ID":435527,"DIS_CODE":0,"TOWNNAME":"歸仁區","LI":"媽廟里","LIN":"20鄰","STREET":"中正北路","SECT":"三段","MAREA":" ","LANE":"１６０巷","ALLEY":" ","HOUSE_NO":"９號","E_COORD97":177686.56,"N_COORD97":2543887.7200000002,"ADDRESS":"中正北路三段１６０巷９號","OBJECTID":435502},"geometry":{"x":177686.55999999959,"y":2543887.7200000044}},{"attributes":{"ID":435528,"DIS_CODE":0,"TOWNNAME":"歸仁區","LI":"歸南里","LIN":"26鄰","STREET":"民生十街","SECT":" ","MAREA":" ","LANE":"５０巷","ALLEY":" ","HOUSE_NO":"６００號","E_COORD97":175776.10999999999,"N_COORD97":2540640.25,"ADDRESS":"民生十街５０巷６００號","OBJECTID":435503},"geometry":{"x":175776.11000000034,"y":2540640.2500000019}},{"attributes":{"ID":435529,"DIS_CODE":0,"TOWNNAME":"歸仁區","LI":"新厝里","LIN":"26鄰","STREET":"中正南路","SECT":"一段","MAREA":" ","LANE":"１８３巷","ALLEY":" ","HOUSE_NO":"２號","E_COORD97":177376.70000000001,"N_COORD97":2540321.21,"ADDRESS":"中正南路一段１８３巷２號","OBJECTID":435504},"geometry":{"x":177376.70000000112,"y":2540321.209999999}},{"attributes":{"ID":435530,"DIS_CODE":0,"TOWNNAME":"歸仁區","LI":"歸南里","LIN":"13鄰","STREET":"民生南街","SECT":"二段","MAREA":" ","LANE":"２７７巷","ALLEY":" ","HOUSE_NO":"５號","E_COORD97":176115.66,"N_COORD97":2539987.25,"ADDRESS":"民生南街二段２７７巷５號","OBJECTID":435505},"geometry":{"x":176115.66000000108,"y":2539987.25}},{"attributes":{"ID":435531,"DIS_CODE":0,"TOWNNAME":"歸仁區","LI":"媽廟里","LIN":"4鄰","STREET":"和順路","SECT":"一段","MAREA":" ","LANE":"１１巷","ALLEY":" ","HOUSE_NO":"８號","E_COORD97":177513.76999999999,"N_COORD97":2543666.7200000002,"ADDRESS":"和順路一段１１巷８號","OBJECTID":435506},"geometry":{"x":177513.76999999955,"y":2543666.7200000007}},{"attributes":{"ID":435532,"DIS_CODE":0,"TOWNNAME":"歸仁區","LI":"媽廟里","LIN":"4鄰","STREET":"和順路","SECT":"一段","MAREA":" ","LANE":"１１巷","ALLEY":" ","HOUSE_NO":"８６號","E_COORD97":177481.92000000001,"N_COORD97":2543606.7200000002,"ADDRESS":"和順路一段１１巷８６號","OBJECTID":435507},"geometry":{"x":177481.92000000086,"y":2543606.7200000044}},{"attributes":{"ID":435533,"DIS_CODE":0,"TOWNNAME":"歸仁區","LI":"媽廟里","LIN":"18鄰","STREET":"媽廟二街","SECT":" ","MAREA":" ","LANE":"３１巷","ALLEY":" ","HOUSE_NO":"３９號","E_COORD97":177713.57999999999,"N_COORD97":2543856.7200000002,"ADDRESS":"媽廟二街３１巷３９號","OBJECTID":435508},"geometry":{"x":177713.58000000007,"y":2543856.7200000007}},{"attributes":{"ID":435534,"DIS_CODE":0,"TOWNNAME":"歸仁區","LI":"歸南里","LIN":"26鄰","STREET":"民生十街","SECT":" ","MAREA":" ","LANE":"１８巷","ALLEY":" ","HOUSE_NO":"１０號","E_COORD97":176068.16,"N_COORD97":2540238.25,"ADDRESS":"民生十街１８巷１０號","OBJECTID":435509},"geometry":{"x":176068.16000000108,"y":2540238.25}},{"attributes":{"ID":435535,"DIS_CODE":0,"TOWNNAME":"歸仁區","LI":"辜厝里","LIN":"42鄰","STREET":"民權南路","SECT":" ","MAREA":" ","LANE":"１９１巷","ALLEY":" ","HOUSE_NO":"１７號","E_COORD97":177022.67999999999,"N_COORD97":2540382.9900000002,"ADDRESS":"民權南路１９１巷１７號","OBJECTID":435510},"geometry":{"x":177022.6799999997,"y":2540382.9900000002}},{"attributes":{"ID":435536,"DIS_CODE":0,"TOWNNAME":"歸仁區","LI":"新厝里","LIN":"4鄰","STREET":"復興路","SECT":" ","MAREA":" ","LANE":"１１６巷","ALLEY":" ","HOUSE_NO":"１０號","E_COORD97":177744.01999999999,"N_COORD97":2540664.25,"ADDRESS":"復興路１１６巷１０號","OBJECTID":435511},"geometry":{"x":177744.01999999955,"y":2540664.2500000019}},{"attributes":{"ID":435537,"DIS_CODE":0,"TOWNNAME":"歸仁區","LI":"媽廟里","LIN":"4鄰","STREET":"和順路","SECT":"一段","MAREA":" ","LANE":"１１巷","ALLEY":" ","HOUSE_NO":"７６號","E_COORD97":177504.62,"N_COORD97":2543627.7200000002,"ADDRESS":"和順路一段１１巷７６號","OBJECTID":435512},"geometry":{"x":177504.62000000104,"y":2543627.7200000025}},{"attributes":{"ID":435538,"DIS_CODE":0,"TOWNNAME":"歸仁區","LI":"新厝里","LIN":"18鄰","STREET":"中正南路","SECT":"一段","MAREA":" ","LANE":"１５３巷","ALLEY":" ","HOUSE_NO":"１２號","E_COORD97":177470.41,"N_COORD97":2540382.25,"ADDRESS":"中正南路一段１５３巷１２號","OBJECTID":435513},"geometry":{"x":177470.41000000108,"y":2540382.2500000019}},{"attributes":{"ID":435539,"DIS_CODE":0,"TOWNNAME":"歸仁區","LI":"歸仁里","LIN":"5鄰","STREET":"和平三街","SECT":" ","MAREA":" ","LANE":"１１巷","ALLEY":" ","HOUSE_NO":"１１號","E_COORD97":177802.73999999999,"N_COORD97":2540968.04,"ADDRESS":"和平三街１１巷１１號","OBJECTID":435514},"geometry":{"x":177802.74000000022,"y":2540968.0399999972}},{"attributes":{"ID":435540,"DIS_CODE":0,"TOWNNAME":"歸仁區","LI":"歸仁里","LIN":"18鄰","STREET":"大仁街","SECT":" ","MAREA":" ","LANE":"１１３巷","ALLEY":" ","HOUSE_NO":"２號","E_COORD97":178124.91,"N_COORD97":2540992.6800000002,"ADDRESS":"大仁街１１３巷２號","OBJECTID":435515},"geometry":{"x":178124.91000000108,"y":2540992.6800000016}},{"attributes":{"ID":435541,"DIS_CODE":0,"TOWNNAME":"歸仁區","LI":"辜厝里","LIN":"42鄰","STREET":"民權南路","SECT":" ","MAREA":" ","LANE":"１９１巷","ALLEY":" ","HOUSE_NO":"５３號","E_COORD97":177157.13,"N_COORD97":2540394.1200000001,"ADDRESS":"民權南路１９１巷５３號","OBJECTID":435516},"geometry":{"x":177157.12999999989,"y":2540394.1200000029}},{"attributes":{"ID":435542,"DIS_CODE":0,"TOWNNAME":"歸仁區","LI":"辜厝里","LIN":"42鄰","STREET":"民權南路","SECT":" ","MAREA":" ","LANE":"１９１巷","ALLEY":" ","HOUSE_NO":"５號","E_COORD97":177008.70000000001,"N_COORD97":2540386.0299999998,"ADDRESS":"民權南路１９１巷５號","OBJECTID":435517},"geometry":{"x":177008.70000000112,"y":2540386.0300000012}},{"attributes":{"ID":435543,"DIS_CODE":0,"TOWNNAME":"歸仁區","LI":"媽廟里","LIN":"4鄰","STREET":"和順路","SECT":"一段","MAREA":" ","LANE":"１１巷","ALLEY":" ","HOUSE_NO":"４２號","E_COORD97":177446.32000000001,"N_COORD97":2543654.7200000002,"ADDRESS":"和順路一段１１巷４２號","OBJECTID":435518},"geometry":{"x":177446.3200000003,"y":2543654.7200000025}},{"attributes":{"ID":435544,"DIS_CODE":0,"TOWNNAME":"關廟區","LI":"松腳里","LIN":"4鄰","STREET":"松平街","SECT":" ","MAREA":" ","LANE":"５６巷","ALLEY":" ","HOUSE_NO":"６號","E_COORD97":182024.92000000001,"N_COORD97":2539751.25,"ADDRESS":"松平街５６巷６號","OBJECTID":435519},"geometry":{"x":182024.92000000086,"y":2539751.2500000019}},{"attributes":{"ID":435545,"DIS_CODE":0,"TOWNNAME":"歸仁區","LI":"新厝里","LIN":"18鄰","STREET":"中正南路","SECT":"一段","MAREA":" ","LANE":"１５３巷","ALLEY":" ","HOUSE_NO":"２６號","E_COORD97":177486.70999999999,"N_COORD97":2540362.25,"ADDRESS":"中正南路一段１５３巷２６號","OBJECTID":435520},"geometry":{"x":177486.71000000089,"y":2540362.2500000019}},{"attributes":{"ID":435546,"DIS_CODE":0,"TOWNNAME":"歸仁區","LI":"歸南里","LIN":"25鄰","STREET":"民生十街","SECT":" ","MAREA":" ","LANE":"８巷","ALLEY":" ","HOUSE_NO":"５號","E_COORD97":176076.85999999999,"N_COORD97":2540224.25,"ADDRESS":"民生十街８巷５號","OBJECTID":435521},"geometry":{"x":176076.8600000022,"y":2540224.25}},{"attributes":{"ID":435547,"DIS_CODE":0,"TOWNNAME":"歸仁區","LI":"媽廟里","LIN":"4鄰","STREET":"和順路","SECT":"一段","MAREA":" ","LANE":"１１巷","ALLEY":" ","HOUSE_NO":"９０號","E_COORD97":177472.72,"N_COORD97":2543608.7200000002,"ADDRESS":"和順路一段１１巷９０號","OBJECTID":435522},"geometry":{"x":177472.72000000067,"y":2543608.7200000007}},{"attributes":{"ID":435548,"DIS_CODE":0,"TOWNNAME":"歸仁區","LI":"媽廟里","LIN":"4鄰","STREET":"和順路","SECT":"一段","MAREA":" ","LANE":"１１巷","ALLEY":" ","HOUSE_NO":"８８號","E_COORD97":177476.82000000001,"N_COORD97":2543607.7200000002,"ADDRESS":"和順路一段１１巷８８號","OBJECTID":435523},"geometry":{"x":177476.8200000003,"y":2543607.7200000025}},{"attributes":{"ID":435549,"DIS_CODE":0,"TOWNNAME":"歸仁區","LI":"新厝里","LIN":"26鄰","STREET":"中正南路","SECT":"一段","MAREA":" ","LANE":"１８３巷","ALLEY":" ","HOUSE_NO":"１４５號","E_COORD97":177372.26000000001,"N_COORD97":2540173.25,"ADDRESS":"中正南路一段１８３巷１４５號","OBJECTID":435524},"geometry":{"x":177372.26000000071,"y":2540173.25}},{"attributes":{"ID":435550,"DIS_CODE":0,"TOWNNAME":"歸仁區","LI":"辜厝里","LIN":"42鄰","STREET":"民權南路","SECT":" ","MAREA":" ","LANE":"１９１巷","ALLEY":" ","HOUSE_NO":"１號","E_COORD97":176988.53,"N_COORD97":2540384.9900000002,"ADDRESS":"民權南路１９１巷１號","OBJECTID":435525},"geometry":{"x":176988.53000000026,"y":2540384.9900000002}},{"attributes":{"ID":435551,"DIS_CODE":0,"TOWNNAME":"歸仁區","LI":"媽廟里","LIN":"4鄰","STREET":"和順路","SECT":"一段","MAREA":" ","LANE":"１１巷","ALLEY":" ","HOUSE_NO":"１００號","E_COORD97":177451.47,"N_COORD97":2543612.7200000002,"ADDRESS":"和順路一段１１巷１００號","OBJECTID":435526},"geometry":{"x":177451.46999999974,"y":2543612.7200000007}},{"attributes":{"ID":435552,"DIS_CODE":0,"TOWNNAME":"歸仁區","LI":"媽廟里","LIN":"4鄰","STREET":"和順路","SECT":"一段","MAREA":" ","LANE":"６３巷","ALLEY":" ","HOUSE_NO":"３５號","E_COORD97":177381.72,"N_COORD97":2543649.7200000002,"ADDRESS":"和順路一段６３巷３５號","OBJECTID":435527},"geometry":{"x":177381.71999999974,"y":2543649.7200000007}},{"attributes":{"ID":435553,"DIS_CODE":0,"TOWNNAME":"歸仁區","LI":"辜厝里","LIN":"42鄰","STREET":"民權南路","SECT":" ","MAREA":" ","LANE":"１９１巷","ALLEY":" ","HOUSE_NO":"３號","E_COORD97":176992.73000000001,"N_COORD97":2540384.9900000002,"ADDRESS":"民權南路１９１巷３號","OBJECTID":435528},"geometry":{"x":176992.73000000045,"y":2540384.9900000002}},{"attributes":{"ID":435554,"DIS_CODE":0,"TOWNNAME":"歸仁區","LI":"新厝里","LIN":"14鄰","STREET":"公園十街","SECT":" ","MAREA":" ","LANE":"１１巷","ALLEY":" ","HOUSE_NO":"１４號","E_COORD97":177629.26999999999,"N_COORD97":2540434.5899999999,"ADDRESS":"公園十街１１巷１４號","OBJECTID":435529},"geometry":{"x":177629.26999999955,"y":2540434.5900000017}},{"attributes":{"ID":435555,"DIS_CODE":0,"TOWNNAME":"歸仁區","LI":"媽廟里","LIN":"4鄰","STREET":"和順路","SECT":"一段","MAREA":" ","LANE":"６３巷","ALLEY":" ","HOUSE_NO":"３７號","E_COORD97":177384.72,"N_COORD97":2543648.7200000002,"ADDRESS":"和順路一段６３巷３７號","OBJECTID":435530},"geometry":{"x":177384.72000000067,"y":2543648.7200000025}},{"attributes":{"ID":435556,"DIS_CODE":0,"TOWNNAME":"歸仁區","LI":"媽廟里","LIN":"4鄰","STREET":"和順路","SECT":"一段","MAREA":" ","LANE":"１１巷","ALLEY":" ","HOUSE_NO":"７８號","E_COORD97":177500.42000000001,"N_COORD97":2543602.7200000002,"ADDRESS":"和順路一段１１巷７８號","OBJECTID":435531},"geometry":{"x":177500.42000000086,"y":2543602.7200000007}},{"attributes":{"ID":435557,"DIS_CODE":0,"TOWNNAME":"歸仁區","LI":"新厝里","LIN":"18鄰","STREET":"中正南路","SECT":"一段","MAREA":" ","LANE":"１５３巷","ALLEY":" ","HOUSE_NO":"８號","E_COORD97":177465.06,"N_COORD97":2540389.25,"ADDRESS":"中正南路一段１５３巷８號","OBJECTID":435532},"geometry":{"x":177465.06000000052,"y":2540389.2500000019}},{"attributes":{"ID":435558,"DIS_CODE":0,"TOWNNAME":"歸仁區","LI":"歸南里","LIN":"26鄰","STREET":"民生十街","SECT":" ","MAREA":" ","LANE":"５０巷","ALLEY":" ","HOUSE_NO":"１２５號","E_COORD97":175917.20999999999,"N_COORD97":2540343.25,"ADDRESS":"民生十街５０巷１２５號","OBJECTID":435533},"geometry":{"x":175917.21000000089,"y":2540343.25}},{"attributes":{"ID":435559,"DIS_CODE":0,"TOWNNAME":"歸仁區","LI":"歸南里","LIN":"26鄰","STREET":"中山路","SECT":"三段","MAREA":" ","LANE":"５５１巷","ALLEY":" ","HOUSE_NO":"８５號","E_COORD97":175273.85999999999,"N_COORD97":2540439.25,"ADDRESS":"中山路三段５５１巷８５號","OBJECTID":435534},"geometry":{"x":175273.86000000127,"y":2540439.2500000019}},{"attributes":{"ID":435560,"DIS_CODE":0,"TOWNNAME":"歸仁區","LI":"崙頂里","LIN":"25鄰","STREET":"崙頂街","SECT":" ","MAREA":" ","LANE":"１５０巷","ALLEY":" ","HOUSE_NO":"１８號","E_COORD97":177821.88,"N_COORD97":2539830.25,"ADDRESS":"崙頂街１５０巷１８號","OBJECTID":435535},"geometry":{"x":177821.87999999989,"y":2539830.2500000019}},{"attributes":{"ID":435561,"DIS_CODE":0,"TOWNNAME":"歸仁區","LI":"歸仁里","LIN":"18鄰","STREET":"大仁街","SECT":" ","MAREA":" ","LANE":"１１３巷","ALLEY":" ","HOUSE_NO":"１０號","E_COORD97":178111.72,"N_COORD97":2541007.1099999999,"ADDRESS":"大仁街１１３巷１０號","OBJECTID":435536},"geometry":{"x":178111.72000000067,"y":2541007.1100000013}},{"attributes":{"ID":435562,"DIS_CODE":0,"TOWNNAME":"歸仁區","LI":"媽廟里","LIN":"4鄰","STREET":"和順路","SECT":"一段","MAREA":" ","LANE":"１１巷","ALLEY":" ","HOUSE_NO":"６６號","E_COORD97":177482.01999999999,"N_COORD97":2543631.7200000002,"ADDRESS":"和順路一段１１巷６６號","OBJECTID":435537},"geometry":{"x":177482.02000000142,"y":2543631.7200000025}},{"attributes":{"ID":435563,"DIS_CODE":0,"TOWNNAME":"歸仁區","LI":"七甲里","LIN":"13鄰","STREET":"南丁路","SECT":" ","MAREA":" ","LANE":"３５９巷","ALLEY":" ","HOUSE_NO":"３６號","E_COORD97":176006.69,"N_COORD97":2542589.25,"ADDRESS":"南丁路３５９巷３６號","OBJECTID":435538},"geometry":{"x":176006.69000000041,"y":2542589.2500000019}},{"attributes":{"ID":435564,"DIS_CODE":0,"TOWNNAME":"歸仁區","LI":"新厝里","LIN":"18鄰","STREET":"中正南路","SECT":"一段","MAREA":" ","LANE":"１５３巷","ALLEY":" ","HOUSE_NO":"２號","E_COORD97":177461.06,"N_COORD97":2540395.25,"ADDRESS":"中正南路一段１５３巷２號","OBJECTID":435539},"geometry":{"x":177461.05999999959,"y":2540395.2500000019}},{"attributes":{"ID":435565,"DIS_CODE":0,"TOWNNAME":"歸仁區","LI":"歸南里","LIN":"26鄰","STREET":"民生南街","SECT":"二段","MAREA":" ","LANE":"２００巷","ALLEY":" ","HOUSE_NO":"６號","E_COORD97":176043.76000000001,"N_COORD97":2540172.25,"ADDRESS":"民生南街二段２００巷６號","OBJECTID":435540},"geometry":{"x":176043.76000000071,"y":2540172.2500000019}},{"attributes":{"ID":435566,"DIS_CODE":0,"TOWNNAME":"歸仁區","LI":"歸南里","LIN":"26鄰","STREET":"民生十街","SECT":" ","MAREA":" ","LANE":"５０巷","ALLEY":" ","HOUSE_NO":"１８０號","E_COORD97":175826.20999999999,"N_COORD97":2540400.25,"ADDRESS":"民生十街５０巷１８０號","OBJECTID":435541},"geometry":{"x":175826.20999999996,"y":2540400.25}},{"attributes":{"ID":435567,"DIS_CODE":0,"TOWNNAME":"歸仁區","LI":"辜厝里","LIN":"4鄰","STREET":"民族南街","SECT":" ","MAREA":" ","LANE":"１８巷","ALLEY":" ","HOUSE_NO":"４５號","E_COORD97":177312.73999999999,"N_COORD97":2540735.5499999998,"ADDRESS":"民族南街１８巷４５號","OBJECTID":435542},"geometry":{"x":177312.74000000022,"y":2540735.5500000007}},{"attributes":{"ID":435568,"DIS_CODE":0,"TOWNNAME":"歸仁區","LI":"媽廟里","LIN":"4鄰","STREET":"和順路","SECT":"一段","MAREA":" ","LANE":"１１巷","ALLEY":" ","HOUSE_NO":"１６號","E_COORD97":177503.62,"N_COORD97":2543638.7200000002,"ADDRESS":"和順路一段１１巷１６號","OBJECTID":435543},"geometry":{"x":177503.62000000011,"y":2543638.7200000007}},{"attributes":{"ID":435569,"DIS_CODE":0,"TOWNNAME":"歸仁區","LI":"媽廟里","LIN":"4鄰","STREET":"和順路","SECT":"一段","MAREA":" ","LANE":"１１巷","ALLEY":" ","HOUSE_NO":"６８號","E_COORD97":177487.22,"N_COORD97":2543630.7200000002,"ADDRESS":"和順路一段１１巷６８號","OBJECTID":435544},"geometry":{"x":177487.21999999974,"y":2543630.7200000025}},{"attributes":{"ID":435570,"DIS_CODE":0,"TOWNNAME":"歸仁區","LI":"新厝里","LIN":"18鄰","STREET":"中正南路","SECT":"一段","MAREA":" ","LANE":"１５３巷","ALLEY":" ","HOUSE_NO":"１０號","E_COORD97":177468.41,"N_COORD97":2540385.25,"ADDRESS":"中正南路一段１５３巷１０號","OBJECTID":435545},"geometry":{"x":177468.41000000108,"y":2540385.2500000019}},{"attributes":{"ID":435571,"DIS_CODE":0,"TOWNNAME":"歸仁區","LI":"媽廟里","LIN":"4鄰","STREET":"和順路","SECT":"一段","MAREA":" ","LANE":"１１巷","ALLEY":" ","HOUSE_NO":"２８號","E_COORD97":177477.01999999999,"N_COORD97":2543643.7200000002,"ADDRESS":"和順路一段１１巷２８號","OBJECTID":435546},"geometry":{"x":177477.02000000142,"y":2543643.7200000044}},{"attributes":{"ID":435572,"DIS_CODE":0,"TOWNNAME":"歸仁區","LI":"歸南里","LIN":"4鄰","STREET":"民權十六街","SECT":" ","MAREA":" ","LANE":"３０巷","ALLEY":" ","HOUSE_NO":"１號","E_COORD97":176875.14000000001,"N_COORD97":2540150.25,"ADDRESS":"民權十六街３０巷１號","OBJECTID":435547},"geometry":{"x":176875.1400000006,"y":2540150.25}},{"attributes":{"ID":435573,"DIS_CODE":0,"TOWNNAME":"歸仁區","LI":"歸南里","LIN":"5鄰","STREET":"中正南路","SECT":"一段","MAREA":" ","LANE":"４９２巷","ALLEY":" ","HOUSE_NO":"１７號","E_COORD97":176873.69,"N_COORD97":2540119.25,"ADDRESS":"中正南路一段４９２巷１７號","OBJECTID":435548},"geometry":{"x":176873.69000000134,"y":2540119.25}},{"attributes":{"ID":435574,"DIS_CODE":0,"TOWNNAME":"歸仁區","LI":"歸南里","LIN":"13鄰","STREET":"民生南街","SECT":"二段","MAREA":" ","LANE":"２７７巷","ALLEY":" ","HOUSE_NO":"１５號","E_COORD97":176140.51000000001,"N_COORD97":2539991.25,"ADDRESS":"民生南街二段２７７巷１５號","OBJECTID":435549},"geometry":{"x":176140.51000000071,"y":2539991.2499999981}},{"attributes":{"ID":435575,"DIS_CODE":0,"TOWNNAME":"歸仁區","LI":"歸南里","LIN":"25鄰","STREET":"民生十街","SECT":" ","MAREA":" ","LANE":"８巷","ALLEY":" ","HOUSE_NO":"１１號","E_COORD97":176087.41,"N_COORD97":2540239.25,"ADDRESS":"民生十街８巷１１號","OBJECTID":435550},"geometry":{"x":176087.41000000015,"y":2540239.2500000019}},{"attributes":{"ID":435576,"DIS_CODE":0,"TOWNNAME":"歸仁區","LI":"媽廟里","LIN":"4鄰","STREET":"和順路","SECT":"一段","MAREA":" ","LANE":"１１巷","ALLEY":" ","HOUSE_NO":"７０號","E_COORD97":177490.22,"N_COORD97":2543629.7200000002,"ADDRESS":"和順路一段１１巷７０號","OBJECTID":435551},"geometry":{"x":177490.21999999974,"y":2543629.7200000007}},{"attributes":{"ID":435577,"DIS_CODE":0,"TOWNNAME":"歸仁區","LI":"新厝里","LIN":"26鄰","STREET":"中正南路","SECT":"一段","MAREA":" ","LANE":"１８３巷","ALLEY":" ","HOUSE_NO":"１０號","E_COORD97":177390.25,"N_COORD97":2540309.21,"ADDRESS":"中正南路一段１８３巷１０號","OBJECTID":435552},"geometry":{"x":177390.25,"y":2540309.2100000028}},{"attributes":{"ID":435578,"DIS_CODE":0,"TOWNNAME":"歸仁區","LI":"歸仁里","LIN":"13鄰","STREET":"文化街","SECT":"一段","MAREA":" ","LANE":"１２５巷","ALLEY":" ","HOUSE_NO":"６號","E_COORD97":177890.69,"N_COORD97":2541095.0499999998,"ADDRESS":"文化街一段１２５巷６號","OBJECTID":435553},"geometry":{"x":177890.69000000134,"y":2541095.0500000007}},{"attributes":{"ID":435579,"DIS_CODE":0,"TOWNNAME":"歸仁區","LI":"新厝里","LIN":"14鄰","STREET":"大成路","SECT":" ","MAREA":" ","LANE":"３１巷","ALLEY":" ","HOUSE_NO":"６號","E_COORD97":177610.37,"N_COORD97":2540458.5899999999,"ADDRESS":"大成路３１巷６號","OBJECTID":435554},"geometry":{"x":177610.37000000011,"y":2540458.5899999999}},{"attributes":{"ID":435580,"DIS_CODE":0,"TOWNNAME":"歸仁區","LI":"歸南里","LIN":"18鄰","STREET":"民生八街","SECT":" ","MAREA":" ","LANE":"２８巷","ALLEY":" ","HOUSE_NO":"１２號","E_COORD97":176125.35999999999,"N_COORD97":2540400.25,"ADDRESS":"民生八街２８巷１２號","OBJECTID":435555},"geometry":{"x":176125.36000000034,"y":2540400.25}},{"attributes":{"ID":435581,"DIS_CODE":0,"TOWNNAME":"歸仁區","LI":"媽廟里","LIN":"20鄰","STREET":"中正北路","SECT":"三段","MAREA":" ","LANE":"１６０巷","ALLEY":" ","HOUSE_NO":"７號","E_COORD97":177677.26000000001,"N_COORD97":2543887.7200000002,"ADDRESS":"中正北路三段１６０巷７號","OBJECTID":435556},"geometry":{"x":177677.26000000164,"y":2543887.7200000044}},{"attributes":{"ID":435582,"DIS_CODE":0,"TOWNNAME":"歸仁區","LI":"歸仁里","LIN":"5鄰","STREET":"文化街","SECT":"一段","MAREA":" ","LANE":"１７５巷","ALLEY":" ","HOUSE_NO":"６２號","E_COORD97":177742.54000000001,"N_COORD97":2540933.0499999998,"ADDRESS":"文化街一段１７５巷６２號","OBJECTID":435557},"geometry":{"x":177742.54000000097,"y":2540933.0500000026}},{"attributes":{"ID":435583,"DIS_CODE":0,"TOWNNAME":"歸仁區","LI":"新厝里","LIN":"20鄰","STREET":"大成六街","SECT":" ","MAREA":" ","LANE":"１１巷","ALLEY":" ","HOUSE_NO":"３號","E_COORD97":177645.14000000001,"N_COORD97":2540290.1800000002,"ADDRESS":"大成六街１１巷３號","OBJECTID":435558},"geometry":{"x":177645.13999999966,"y":2540290.1800000016}},{"attributes":{"ID":435584,"DIS_CODE":0,"TOWNNAME":"歸仁區","LI":"媽廟里","LIN":"13鄰","STREET":"中正北路","SECT":"三段","MAREA":" ","LANE":"５０巷","ALLEY":" ","HOUSE_NO":"１１５號","E_COORD97":177915.81,"N_COORD97":2543540.7200000002,"ADDRESS":"中正北路三段５０巷１１１號","OBJECTID":435559},"geometry":{"x":177915.81000000145,"y":2543540.7200000007}},{"attributes":{"ID":435585,"DIS_CODE":0,"TOWNNAME":"歸仁區","LI":"歸南里","LIN":"13鄰","STREET":"民生南街","SECT":"二段","MAREA":" ","LANE":"２７７巷","ALLEY":" ","HOUSE_NO":"２９號","E_COORD97":176178.51000000001,"N_COORD97":2539998.25,"ADDRESS":"民生南街二段２７７巷２９號","OBJECTID":435560},"geometry":{"x":176178.50999999978,"y":2539998.2500000037}},{"attributes":{"ID":435586,"DIS_CODE":0,"TOWNNAME":"歸仁區","LI":"媽廟里","LIN":"4鄰","STREET":"和順路","SECT":"一段","MAREA":" ","LANE":"１１巷","ALLEY":" ","HOUSE_NO":"１８號","E_COORD97":177498.51999999999,"N_COORD97":2543639.7200000002,"ADDRESS":"和順路一段１１巷１８號","OBJECTID":435561},"geometry":{"x":177498.51999999955,"y":2543639.7200000007}},{"attributes":{"ID":435587,"DIS_CODE":0,"TOWNNAME":"歸仁區","LI":"許厝里","LIN":"38鄰","STREET":"公園路","SECT":" ","MAREA":" ","LANE":"６６巷","ALLEY":" ","HOUSE_NO":"１４號","E_COORD97":178046.79000000001,"N_COORD97":2540568.2799999998,"ADDRESS":"公園路６６巷１４號","OBJECTID":435562},"geometry":{"x":178046.78999999911,"y":2540568.2800000012}},{"attributes":{"ID":435588,"DIS_CODE":0,"TOWNNAME":"歸仁區","LI":"崙頂里","LIN":"25鄰","STREET":"崙頂街","SECT":" ","MAREA":" ","LANE":"１５０巷","ALLEY":" ","HOUSE_NO":"５０號","E_COORD97":177802.48000000001,"N_COORD97":2539848.25,"ADDRESS":"崙頂街１５０巷５０號","OBJECTID":435563},"geometry":{"x":177802.48000000138,"y":2539848.25}},{"attributes":{"ID":435589,"DIS_CODE":0,"TOWNNAME":"歸仁區","LI":"看東里","LIN":"4鄰","STREET":"成功六街","SECT":" ","MAREA":" ","LANE":"３８巷","ALLEY":" ","HOUSE_NO":"１８號","E_COORD97":178433.26000000001,"N_COORD97":2540182.1099999999,"ADDRESS":"成功六街３８巷１８號","OBJECTID":435564},"geometry":{"x":178433.26000000164,"y":2540182.1100000013}},{"attributes":{"ID":435590,"DIS_CODE":0,"TOWNNAME":"歸仁區","LI":"媽廟里","LIN":"4鄰","STREET":"和順路","SECT":"一段","MAREA":" ","LANE":"１１巷","ALLEY":" ","HOUSE_NO":"５４號","E_COORD97":177455.42000000001,"N_COORD97":2543638.7200000002,"ADDRESS":"和順路一段１１巷５４號","OBJECTID":435565},"geometry":{"x":177455.41999999993,"y":2543638.7200000007}},{"attributes":{"ID":435591,"DIS_CODE":0,"TOWNNAME":"歸仁區","LI":"許厝里","LIN":"4鄰","STREET":"仁愛一街","SECT":" ","MAREA":" ","LANE":"３８巷","ALLEY":" ","HOUSE_NO":"１２號","E_COORD97":178380.56,"N_COORD97":2540568.1499999999,"ADDRESS":"仁愛一街３８巷１２號","OBJECTID":435566},"geometry":{"x":178380.56000000052,"y":2540568.1500000004}},{"attributes":{"ID":435592,"DIS_CODE":0,"TOWNNAME":"歸仁區","LI":"許厝里","LIN":"5鄰","STREET":"仁愛一街","SECT":" ","MAREA":" ","LANE":"３８巷","ALLEY":" ","HOUSE_NO":"１７號","E_COORD97":178403.23000000001,"N_COORD97":2540566.8799999999,"ADDRESS":"仁愛一街３８巷１７號","OBJECTID":435567},"geometry":{"x":178403.23000000045,"y":2540566.8800000008}},{"attributes":{"ID":435593,"DIS_CODE":0,"TOWNNAME":"歸仁區","LI":"許厝里","LIN":"5鄰","STREET":"仁愛一街","SECT":" ","MAREA":" ","LANE":"３８巷","ALLEY":" ","HOUSE_NO":"１９號","E_COORD97":178399.13,"N_COORD97":2540559.8799999999,"ADDRESS":"仁愛一街３８巷１９號","OBJECTID":435568},"geometry":{"x":178399.13000000082,"y":2540559.8800000008}},{"attributes":{"ID":435594,"DIS_CODE":0,"TOWNNAME":"歸仁區","LI":"看西里","LIN":"4鄰","STREET":"仁愛南街","SECT":" ","MAREA":" ","LANE":"１０２巷","ALLEY":" ","HOUSE_NO":"１７號","E_COORD97":178219,"N_COORD97":2540367.29,"ADDRESS":"仁愛南街１０２巷１７號","OBJECTID":435569},"geometry":{"x":178219.00000000093,"y":2540367.290000001}},{"attributes":{"ID":435595,"DIS_CODE":0,"TOWNNAME":"歸仁區","LI":"崙頂里","LIN":"4鄰","STREET":"信義南路","SECT":" ","MAREA":" ","LANE":"１７０巷","ALLEY":" ","HOUSE_NO":"２１號","E_COORD97":178038.03,"N_COORD97":2540159.25,"ADDRESS":"信義南路１７０巷２１號","OBJECTID":435570},"geometry":{"x":178038.03000000026,"y":2540159.25}},{"attributes":{"ID":435596,"DIS_CODE":0,"TOWNNAME":"歸仁區","LI":"許厝里","LIN":"25鄰","STREET":"中山路","SECT":"一段","MAREA":" ","LANE":"４３４巷","ALLEY":" ","HOUSE_NO":"２８號","E_COORD97":178096,"N_COORD97":2540806.9300000002,"ADDRESS":"中山路一段４３４巷２８號","OBJECTID":435571},"geometry":{"x":178096,"y":2540806.9300000034}},{"attributes":{"ID":435597,"DIS_CODE":0,"TOWNNAME":"歸仁區","LI":"崙頂里","LIN":"5鄰","STREET":"信義南路","SECT":" ","MAREA":" ","LANE":"２０２巷","ALLEY":" ","HOUSE_NO":"３０號","E_COORD97":178055.54999999999,"N_COORD97":2540070.6800000002,"ADDRESS":"信義南路２０２巷３０號","OBJECTID":435572},"geometry":{"x":178055.55000000075,"y":2540070.6800000016}},{"attributes":{"ID":435598,"DIS_CODE":0,"TOWNNAME":"歸仁區","LI":"看西里","LIN":"18鄰","STREET":"成功五街","SECT":" ","MAREA":" ","LANE":"８５巷","ALLEY":" ","HOUSE_NO":"８號","E_COORD97":178395.35999999999,"N_COORD97":2539943.3599999999,"ADDRESS":"成功五街８５巷８號","OBJECTID":435573},"geometry":{"x":178395.36000000034,"y":2539943.3600000013}},{"attributes":{"ID":435599,"DIS_CODE":0,"TOWNNAME":"歸仁區","LI":"辜厝里","LIN":"41鄰","STREET":"大吉街","SECT":" ","MAREA":" ","LANE":"１３０巷","ALLEY":" ","HOUSE_NO":"１０號","E_COORD97":177168.59,"N_COORD97":2540506.6800000002,"ADDRESS":"大吉街１３０巷１０號","OBJECTID":435574},"geometry":{"x":177168.59000000078,"y":2540506.6799999978}},{"attributes":{"ID":435600,"DIS_CODE":0,"TOWNNAME":"歸仁區","LI":"崙頂里","LIN":"26鄰","STREET":"成功十街","SECT":" ","MAREA":" ","LANE":"１３３巷","ALLEY":" ","HOUSE_NO":"５１號","E_COORD97":177743.13,"N_COORD97":2539816.25,"ADDRESS":"成功十街１３３巷５１號","OBJECTID":435575},"geometry":{"x":177743.13000000082,"y":2539816.2500000019}},{"attributes":{"ID":435601,"DIS_CODE":0,"TOWNNAME":"歸仁區","LI":"崙頂里","LIN":"5鄰","STREET":"信義南路","SECT":" ","MAREA":" ","LANE":"２０２巷","ALLEY":" ","HOUSE_NO":"２６號","E_COORD97":178063.75,"N_COORD97":2540071.6800000002,"ADDRESS":"信義南路２０２巷２６號","OBJECTID":435576},"geometry":{"x":178063.75,"y":2540071.6799999997}},{"attributes":{"ID":435602,"DIS_CODE":0,"TOWNNAME":"歸仁區","LI":"許厝里","LIN":"25鄰","STREET":"中山路","SECT":"一段","MAREA":" ","LANE":"４４６巷","ALLEY":" ","HOUSE_NO":"１０號","E_COORD97":178063,"N_COORD97":2540763.9300000002,"ADDRESS":"中山路一段４４６巷１０號","OBJECTID":435577},"geometry":{"x":178063.00000000093,"y":2540763.9300000016}},{"attributes":{"ID":435603,"DIS_CODE":0,"TOWNNAME":"歸仁區","LI":"崙頂里","LIN":"26鄰","STREET":"成功十街","SECT":" ","MAREA":" ","LANE":"１３３巷","ALLEY":" ","HOUSE_NO":"１８號","E_COORD97":177722.73000000001,"N_COORD97":2539834.25,"ADDRESS":"成功十街１３３巷１８號","OBJECTID":435578},"geometry":{"x":177722.73000000138,"y":2539834.25}},{"attributes":{"ID":435604,"DIS_CODE":0,"TOWNNAME":"歸仁區","LI":"崙頂里","LIN":"13鄰","STREET":"成功路","SECT":"二段","MAREA":" ","LANE":"１６８巷","ALLEY":" ","HOUSE_NO":"２１號","E_COORD97":177942.89000000001,"N_COORD97":2539787.25,"ADDRESS":"成功路二段１６８巷２１號","OBJECTID":435579},"geometry":{"x":177942.8900000006,"y":2539787.25}},{"attributes":{"ID":435605,"DIS_CODE":0,"TOWNNAME":"歸仁區","LI":"許厝里","LIN":"25鄰","STREET":"中山路","SECT":"一段","MAREA":" ","LANE":"４３４巷","ALLEY":" ","HOUSE_NO":"１２號","E_COORD97":178092.79999999999,"N_COORD97":2540777.9300000002,"ADDRESS":"中山路一段４３４巷１２號","OBJECTID":435580},"geometry":{"x":178092.80000000075,"y":2540777.9300000016}},{"attributes":{"ID":435606,"DIS_CODE":0,"TOWNNAME":"歸仁區","LI":"許厝里","LIN":"26鄰","STREET":"中山路","SECT":"一段","MAREA":" ","LANE":"４４６巷","ALLEY":" ","HOUSE_NO":"９號","E_COORD97":178030.98000000001,"N_COORD97":2540771.9300000002,"ADDRESS":"中山路一段４４６巷９號","OBJECTID":435581},"geometry":{"x":178030.98000000138,"y":2540771.9299999997}},{"attributes":{"ID":435607,"DIS_CODE":0,"TOWNNAME":"歸仁區","LI":"南保里","LIN":"32鄰","STREET":"民權八街","SECT":" ","MAREA":" ","LANE":"６０巷","ALLEY":" ","HOUSE_NO":"１０號","E_COORD97":176829.44,"N_COORD97":2541023.29,"ADDRESS":"民權八街６０巷１０號","OBJECTID":435582},"geometry":{"x":176829.44000000134,"y":2541023.2899999991}},{"attributes":{"ID":435608,"DIS_CODE":0,"TOWNNAME":"歸仁區","LI":"南興里","LIN":"41鄰","STREET":"中山路","SECT":"三段","MAREA":" ","LANE":"４２９巷","ALLEY":" ","HOUSE_NO":"１０號","E_COORD97":175773.41,"N_COORD97":2540973.2799999998,"ADDRESS":"中山路三段４２９巷１０號","OBJECTID":435583},"geometry":{"x":175773.41000000108,"y":2540973.2799999993}},{"attributes":{"ID":435609,"DIS_CODE":0,"TOWNNAME":"關廟區","LI":"北花里","LIN":"13鄰","STREET":"中正路","SECT":" ","MAREA":" ","LANE":"２４５巷","ALLEY":" ","HOUSE_NO":"３號","E_COORD97":183323.85999999999,"N_COORD97":2540843.25,"ADDRESS":"中正路２４５巷３號","OBJECTID":435584},"geometry":{"x":183323.8600000022,"y":2540843.2500000019}},{"attributes":{"ID":435610,"DIS_CODE":0,"TOWNNAME":"歸仁區","LI":"後市里","LIN":"46鄰","STREET":"文化街","SECT":"二段","MAREA":" ","LANE":"１２１巷","ALLEY":" ","HOUSE_NO":"１６號","E_COORD97":177177.89000000001,"N_COORD97":2541108.7599999998,"ADDRESS":"文化街二段１２１巷１６號","OBJECTID":435585},"geometry":{"x":177177.89000000153,"y":2541108.7599999998}},{"attributes":{"ID":435611,"DIS_CODE":0,"TOWNNAME":"歸仁區","LI":"南保里","LIN":"26鄰","STREET":"民權六街","SECT":" ","MAREA":" ","LANE":"１８１巷","ALLEY":" ","HOUSE_NO":"２３號","E_COORD97":176641.19,"N_COORD97":2541071.29,"ADDRESS":"民權六街１８１巷２３號","OBJECTID":435586},"geometry":{"x":176641.19000000134,"y":2541071.2899999991}},{"attributes":{"ID":435612,"DIS_CODE":0,"TOWNNAME":"歸仁區","LI":"南保里","LIN":"32鄰","STREET":"民權八街","SECT":" ","MAREA":" ","LANE":"４０巷","ALLEY":" ","HOUSE_NO":"５號","E_COORD97":176855.89000000001,"N_COORD97":2541015.29,"ADDRESS":"民權八街４０巷５號","OBJECTID":435587},"geometry":{"x":176855.89000000153,"y":2541015.290000001}},{"attributes":{"ID":435613,"DIS_CODE":0,"TOWNNAME":"歸仁區","LI":"辜厝里","LIN":"32鄰","STREET":"中正南路","SECT":"一段","MAREA":" ","LANE":"２１６巷","ALLEY":" ","HOUSE_NO":"４０號","E_COORD97":177366.81,"N_COORD97":2540428.9500000002,"ADDRESS":"中正南路一段２１６巷４０號","OBJECTID":435588},"geometry":{"x":177366.81000000052,"y":2540428.9499999993}},{"attributes":{"ID":435614,"DIS_CODE":0,"TOWNNAME":"歸仁區","LI":"南興里","LIN":"41鄰","STREET":"中山路","SECT":"三段","MAREA":" ","LANE":"５５１巷","ALLEY":" ","HOUSE_NO":"３１號","E_COORD97":175310.81,"N_COORD97":2540956.2799999998,"ADDRESS":"中山路三段５５１巷３１號","OBJECTID":435589},"geometry":{"x":175310.81000000052,"y":2540956.2799999993}},{"attributes":{"ID":435615,"DIS_CODE":0,"TOWNNAME":"歸仁區","LI":"看東里","LIN":"14鄰","STREET":"中山一街","SECT":" ","MAREA":" ","LANE":"１２巷","ALLEY":" ","HOUSE_NO":"１８號","E_COORD97":178557.48999999999,"N_COORD97":2540593.6400000001,"ADDRESS":"中山一街１２巷１８號","OBJECTID":435590},"geometry":{"x":178557.49000000022,"y":2540593.6400000025}},{"attributes":{"ID":435616,"DIS_CODE":0,"TOWNNAME":"歸仁區","LI":"南保里","LIN":"38鄰","STREET":"中山路","SECT":"三段","MAREA":" ","LANE":"１３８巷","ALLEY":" ","HOUSE_NO":"１３號","E_COORD97":176655.60999999999,"N_COORD97":2541024.2799999998,"ADDRESS":"中山路三段１３８巷１３號","OBJECTID":435591},"geometry":{"x":176655.61000000127,"y":2541024.2799999975}},{"attributes":{"ID":435617,"DIS_CODE":0,"TOWNNAME":"歸仁區","LI":"大潭里","LIN":"20鄰","STREET":"長榮路","SECT":"二段","MAREA":" ","LANE":"１４５巷","ALLEY":" ","HOUSE_NO":"１００號","E_COORD97":177084.92999999999,"N_COORD97":2534670.25,"ADDRESS":"長榮路二段１４５巷１００號","OBJECTID":435592},"geometry":{"x":177084.93000000063,"y":2534670.25}},{"attributes":{"ID":435618,"DIS_CODE":0,"TOWNNAME":"歸仁區","LI":"南保里","LIN":"26鄰","STREET":"民權六街","SECT":" ","MAREA":" ","LANE":"１８１巷","ALLEY":" ","HOUSE_NO":"２５號","E_COORD97":176637.09,"N_COORD97":2541071.29,"ADDRESS":"民權六街１８１巷２５號","OBJECTID":435593},"geometry":{"x":176637.08999999985,"y":2541071.2899999991}},{"attributes":{"ID":435619,"DIS_CODE":0,"TOWNNAME":"歸仁區","LI":"南保里","LIN":"4鄰","STREET":"文化六街","SECT":" ","MAREA":" ","LANE":"１０巷","ALLEY":" ","HOUSE_NO":"１號","E_COORD97":176824.44,"N_COORD97":2541297.3300000001,"ADDRESS":"文化六街１０巷１號","OBJECTID":435594},"geometry":{"x":176824.44000000134,"y":2541297.3300000019}},{"attributes":{"ID":435620,"DIS_CODE":0,"TOWNNAME":"歸仁區","LI":"南保里","LIN":"5鄰","STREET":"文化街","SECT":"三段","MAREA":" ","LANE":"１８巷","ALLEY":" ","HOUSE_NO":"２８之１８號","E_COORD97":176910.89000000001,"N_COORD97":2541328.3300000001,"ADDRESS":"文化街三段１８巷２８之１８號","OBJECTID":435595},"geometry":{"x":176910.88999999966,"y":2541328.3300000019}},{"attributes":{"ID":435621,"DIS_CODE":0,"TOWNNAME":"歸仁區","LI":"南保里","LIN":"20鄰","STREET":"文化街","SECT":"三段","MAREA":" ","LANE":"６１巷","ALLEY":" ","HOUSE_NO":"１２號","E_COORD97":176892.14000000001,"N_COORD97":2541199.3300000001,"ADDRESS":"文化街三段６１巷１２號","OBJECTID":435596},"geometry":{"x":176892.1400000006,"y":2541199.3300000019}},{"attributes":{"ID":435622,"DIS_CODE":0,"TOWNNAME":"歸仁區","LI":"後市里","LIN":"42鄰","STREET":"中山路","SECT":"二段","MAREA":" ","LANE":"１９８巷","ALLEY":" ","HOUSE_NO":"７號","E_COORD97":177098.73000000001,"N_COORD97":2540895.7400000002,"ADDRESS":"中山路二段１９８巷７號","OBJECTID":435597},"geometry":{"x":177098.73000000138,"y":2540895.7400000002}},{"attributes":{"ID":435623,"DIS_CODE":0,"TOWNNAME":"歸仁區","LI":"南保里","LIN":"42鄰","STREET":"中山路","SECT":"三段","MAREA":" ","LANE":"１７０巷","ALLEY":" ","HOUSE_NO":"１１號","E_COORD97":176582.41,"N_COORD97":2540961.2799999998,"ADDRESS":"中山路三段１７０巷１１號","OBJECTID":435598},"geometry":{"x":176582.41000000015,"y":2540961.2800000012}},{"attributes":{"ID":435624,"DIS_CODE":0,"TOWNNAME":"歸仁區","LI":"南興里","LIN":"25鄰","STREET":"文化二十街","SECT":" ","MAREA":" ","LANE":"１１２巷","ALLEY":" ","HOUSE_NO":"３３號","E_COORD97":175528.39000000001,"N_COORD97":2541385.3300000001,"ADDRESS":"文化二十街１１２巷３３號","OBJECTID":435599},"geometry":{"x":175528.39000000153,"y":2541385.3300000019}},{"attributes":{"ID":435625,"DIS_CODE":0,"TOWNNAME":"歸仁區","LI":"南興里","LIN":"25鄰","STREET":"文化二十街","SECT":" ","MAREA":" ","LANE":"１１２巷","ALLEY":" ","HOUSE_NO":"１１號","E_COORD97":175501.79000000001,"N_COORD97":2541391.3300000001,"ADDRESS":"文化二十街１１２巷１１號","OBJECTID":435600},"geometry":{"x":175501.79000000004,"y":2541391.3300000038}}]}