{"displayFieldName":"TOWNNAME","fieldAliases":{"ID":"ID","DIS_CODE":"DIS_CODE","TOWNNAME":"TOWNNAME","LI":"LI","LIN":"LIN","STREET":"STREET","SECT":"SECT","MAREA":"MAREA","LANE":"LANE","ALLEY":"ALLEY","HOUSE_NO":"HOUSE_NO","E_COORD97":"E_COORD97","N_COORD97":"N_COORD97","ADDRESS":"ADDRESS","OBJECTID":"OBJECTID"},"geometryType":"esriGeometryPoint","spatialReference":{"wkid":102443,"latestWkid":3826},"fields":[{"name":"ID","type":"esriFieldTypeDouble","alias":"ID"},{"name":"DIS_CODE","type":"esriFieldTypeInteger","alias":"DIS_CODE"},{"name":"TOWNNAME","type":"esriFieldTypeString","alias":"TOWNNAME","length":8},{"name":"LI","type":"esriFieldTypeString","alias":"LI","length":8},{"name":"LIN","type":"esriFieldTypeString","alias":"LIN","length":12},{"name":"STREET","type":"esriFieldTypeString","alias":"STREET","length":20},{"name":"SECT","type":"esriFieldTypeString","alias":"SECT","length":8},{"name":"MAREA","type":"esriFieldTypeString","alias":"MAREA","length":12},{"name":"LANE","type":"esriFieldTypeString","alias":"LANE","length":10},{"name":"ALLEY","type":"esriFieldTypeString","alias":"ALLEY","length":10},{"name":"HOUSE_NO","type":"esriFieldTypeString","alias":"HOUSE_NO","length":20},{"name":"E_COORD97","type":"esriFieldTypeDouble","alias":"E_COORD97"},{"name":"N_COORD97","type":"esriFieldTypeDouble","alias":"N_COORD97"},{"name":"ADDRESS","type":"esriFieldTypeString","alias":"ADDRESS","length":50},{"name":"OBJECTID","type":"esriFieldTypeOID","alias":"OBJECTID"}],"features":[{"attributes":{"ID":510628,"DIS_CODE":0,"TOWNNAME":"北區","LI":"華興里","LIN":"1鄰","STREET":"開南街","SECT":" ","MAREA":" ","LANE":" ","ALLEY":" ","HOUSE_NO":"１３號二樓","E_COORD97":170314.57000000001,"N_COORD97":2545394.7799999998,"ADDRESS":"開南街１３號二樓","OBJECTID":510601},"geometry":{"x":170314.5700000003,"y":2545394.7800000031}},{"attributes":{"ID":510629,"DIS_CODE":0,"TOWNNAME":"北區","LI":"華興里","LIN":"1鄰","STREET":"開南街","SECT":" ","MAREA":" ","LANE":" ","ALLEY":" ","HOUSE_NO":"１３號四樓","E_COORD97":170314.57000000001,"N_COORD97":2545394.7799999998,"ADDRESS":"開南街１３號四樓","OBJECTID":510602},"geometry":{"x":170314.5700000003,"y":2545394.7800000031}},{"attributes":{"ID":510630,"DIS_CODE":0,"TOWNNAME":"南區","LI":"明亮里","LIN":"1鄰","STREET":"金華路","SECT":"一段","MAREA":" ","LANE":" ","ALLEY":" ","HOUSE_NO":"２５８號三樓","E_COORD97":166977.42999999999,"N_COORD97":2540943.4199999999,"ADDRESS":"金華路一段２５８號三樓","OBJECTID":510603},"geometry":{"x":166977.4299999997,"y":2540943.4200000018}},{"attributes":{"ID":510631,"DIS_CODE":0,"TOWNNAME":"南區","LI":"日新里","LIN":"1鄰","STREET":"金華路","SECT":"一段","MAREA":" ","LANE":" ","ALLEY":" ","HOUSE_NO":"３８１號二樓","E_COORD97":166972.12,"N_COORD97":2541167.21,"ADDRESS":"金華路一段３８１號二樓","OBJECTID":510604},"geometry":{"x":166972.12000000104,"y":2541167.2100000028}},{"attributes":{"ID":510632,"DIS_CODE":0,"TOWNNAME":"南區","LI":"日新里","LIN":"1鄰","STREET":"金華路","SECT":"一段","MAREA":" ","LANE":" ","ALLEY":" ","HOUSE_NO":"３８１號三樓","E_COORD97":166972.12,"N_COORD97":2541167.21,"ADDRESS":"金華路一段３８１號三樓","OBJECTID":510605},"geometry":{"x":166972.12000000104,"y":2541167.2100000028}},{"attributes":{"ID":510633,"DIS_CODE":0,"TOWNNAME":"南區","LI":"日新里","LIN":"1鄰","STREET":"金華路","SECT":"一段","MAREA":" ","LANE":" ","ALLEY":" ","HOUSE_NO":"３８１號五樓","E_COORD97":166972.12,"N_COORD97":2541167.21,"ADDRESS":"金華路一段３８１號五樓","OBJECTID":510606},"geometry":{"x":166972.12000000104,"y":2541167.2100000028}},{"attributes":{"ID":510634,"DIS_CODE":0,"TOWNNAME":"南區","LI":"日新里","LIN":"1鄰","STREET":"金華路","SECT":"一段","MAREA":" ","LANE":" ","ALLEY":" ","HOUSE_NO":"３８１號四樓","E_COORD97":166972.12,"N_COORD97":2541167.21,"ADDRESS":"金華路一段３８１號四樓","OBJECTID":510607},"geometry":{"x":166972.12000000104,"y":2541167.2100000028}},{"attributes":{"ID":510635,"DIS_CODE":0,"TOWNNAME":"北區","LI":"華興里","LIN":"1鄰","STREET":"開南街","SECT":" ","MAREA":" ","LANE":" ","ALLEY":" ","HOUSE_NO":"１３號五樓","E_COORD97":170314.57000000001,"N_COORD97":2545394.7799999998,"ADDRESS":"開南街１３號五樓","OBJECTID":510608},"geometry":{"x":170314.5700000003,"y":2545394.7800000031}},{"attributes":{"ID":510636,"DIS_CODE":0,"TOWNNAME":"安平區","LI":"平通里","LIN":"1鄰","STREET":"國平路","SECT":" ","MAREA":" ","LANE":" ","ALLEY":" ","HOUSE_NO":"５８７號八樓之３","E_COORD97":165064.60999999999,"N_COORD97":2544106.4700000002,"ADDRESS":"國平路５８７號八樓之３","OBJECTID":510609},"geometry":{"x":165064.61000000034,"y":2544106.4700000044}},{"attributes":{"ID":510637,"DIS_CODE":0,"TOWNNAME":"安平區","LI":"平通里","LIN":"1鄰","STREET":"國平路","SECT":" ","MAREA":" ","LANE":" ","ALLEY":" ","HOUSE_NO":"５８７號九樓之１２","E_COORD97":165064.60999999999,"N_COORD97":2544106.4700000002,"ADDRESS":"國平路５８７號九樓之１２","OBJECTID":510610},"geometry":{"x":165064.61000000034,"y":2544106.4700000044}},{"attributes":{"ID":510638,"DIS_CODE":0,"TOWNNAME":"安平區","LI":"平通里","LIN":"1鄰","STREET":"國平路","SECT":" ","MAREA":" ","LANE":" ","ALLEY":" ","HOUSE_NO":"５８７號十樓之１７","E_COORD97":165064.60999999999,"N_COORD97":2544106.4700000002,"ADDRESS":"國平路５８７號十樓之１７","OBJECTID":510611},"geometry":{"x":165064.61000000034,"y":2544106.4700000044}},{"attributes":{"ID":510639,"DIS_CODE":0,"TOWNNAME":"安平區","LI":"平通里","LIN":"1鄰","STREET":"國平路","SECT":" ","MAREA":" ","LANE":" ","ALLEY":" ","HOUSE_NO":"５８７號十一樓之８","E_COORD97":165064.60999999999,"N_COORD97":2544106.4700000002,"ADDRESS":"國平路５８７號十一樓之８","OBJECTID":510612},"geometry":{"x":165064.61000000034,"y":2544106.4700000044}},{"attributes":{"ID":510640,"DIS_CODE":0,"TOWNNAME":"安平區","LI":"平通里","LIN":"1鄰","STREET":"國平路","SECT":" ","MAREA":" ","LANE":" ","ALLEY":" ","HOUSE_NO":"５８７號十三樓之２","E_COORD97":165064.60999999999,"N_COORD97":2544106.4700000002,"ADDRESS":"國平路５８７號十三樓之２","OBJECTID":510613},"geometry":{"x":165064.61000000034,"y":2544106.4700000044}},{"attributes":{"ID":510641,"DIS_CODE":0,"TOWNNAME":"安平區","LI":"平通里","LIN":"1鄰","STREET":"國平路","SECT":" ","MAREA":" ","LANE":" ","ALLEY":" ","HOUSE_NO":"５８７號五樓之１","E_COORD97":165064.60999999999,"N_COORD97":2544106.4700000002,"ADDRESS":"國平路５８７號五樓之１","OBJECTID":510614},"geometry":{"x":165064.61000000034,"y":2544106.4700000044}},{"attributes":{"ID":510642,"DIS_CODE":0,"TOWNNAME":"安平區","LI":"平通里","LIN":"1鄰","STREET":"國平路","SECT":" ","MAREA":" ","LANE":" ","ALLEY":" ","HOUSE_NO":"５８７號五樓之１０","E_COORD97":165064.60999999999,"N_COORD97":2544106.4700000002,"ADDRESS":"國平路５８７號五樓之１０","OBJECTID":510615},"geometry":{"x":165064.61000000034,"y":2544106.4700000044}},{"attributes":{"ID":510643,"DIS_CODE":0,"TOWNNAME":"安平區","LI":"平通里","LIN":"1鄰","STREET":"國平路","SECT":" ","MAREA":" ","LANE":" ","ALLEY":" ","HOUSE_NO":"５８７號六樓之１","E_COORD97":165064.60999999999,"N_COORD97":2544106.4700000002,"ADDRESS":"國平路５８７號六樓之１","OBJECTID":510616},"geometry":{"x":165064.61000000034,"y":2544106.4700000044}},{"attributes":{"ID":510644,"DIS_CODE":0,"TOWNNAME":"安平區","LI":"平通里","LIN":"1鄰","STREET":"國平路","SECT":" ","MAREA":" ","LANE":" ","ALLEY":" ","HOUSE_NO":"５８７號六樓之１７","E_COORD97":165064.60999999999,"N_COORD97":2544106.4700000002,"ADDRESS":"國平路５８７號六樓之１７","OBJECTID":510617},"geometry":{"x":165064.61000000034,"y":2544106.4700000044}},{"attributes":{"ID":510645,"DIS_CODE":0,"TOWNNAME":"安平區","LI":"平通里","LIN":"1鄰","STREET":"國平路","SECT":" ","MAREA":" ","LANE":" ","ALLEY":" ","HOUSE_NO":"５８７號七樓之３","E_COORD97":165064.60999999999,"N_COORD97":2544106.4700000002,"ADDRESS":"國平路５８７號七樓之３","OBJECTID":510618},"geometry":{"x":165064.61000000034,"y":2544106.4700000044}},{"attributes":{"ID":510646,"DIS_CODE":0,"TOWNNAME":"安平區","LI":"平通里","LIN":"1鄰","STREET":"國平路","SECT":" ","MAREA":" ","LANE":" ","ALLEY":" ","HOUSE_NO":"５８７號九樓之１１","E_COORD97":165064.60999999999,"N_COORD97":2544106.4700000002,"ADDRESS":"國平路５８７號九樓之１１","OBJECTID":510619},"geometry":{"x":165064.61000000034,"y":2544106.4700000044}},{"attributes":{"ID":510647,"DIS_CODE":0,"TOWNNAME":"安平區","LI":"平通里","LIN":"1鄰","STREET":"國平路","SECT":" ","MAREA":" ","LANE":" ","ALLEY":" ","HOUSE_NO":"５８７號八樓之２","E_COORD97":165064.60999999999,"N_COORD97":2544106.4700000002,"ADDRESS":"國平路５８７號八樓之２","OBJECTID":510620},"geometry":{"x":165064.61000000034,"y":2544106.4700000044}},{"attributes":{"ID":510648,"DIS_CODE":0,"TOWNNAME":"安平區","LI":"平通里","LIN":"1鄰","STREET":"國平路","SECT":" ","MAREA":" ","LANE":" ","ALLEY":" ","HOUSE_NO":"５８７號十樓之２","E_COORD97":165064.60999999999,"N_COORD97":2544106.4700000002,"ADDRESS":"國平路５８７號十樓之２","OBJECTID":510621},"geometry":{"x":165064.61000000034,"y":2544106.4700000044}},{"attributes":{"ID":510649,"DIS_CODE":0,"TOWNNAME":"安平區","LI":"平通里","LIN":"1鄰","STREET":"國平路","SECT":" ","MAREA":" ","LANE":" ","ALLEY":" ","HOUSE_NO":"５８７號十一樓之１６","E_COORD97":165064.60999999999,"N_COORD97":2544106.4700000002,"ADDRESS":"國平路５８７號十一樓之１６","OBJECTID":510622},"geometry":{"x":165064.61000000034,"y":2544106.4700000044}},{"attributes":{"ID":510650,"DIS_CODE":0,"TOWNNAME":"安平區","LI":"平通里","LIN":"1鄰","STREET":"國平路","SECT":" ","MAREA":" ","LANE":" ","ALLEY":" ","HOUSE_NO":"５８７號十二樓之１３","E_COORD97":165064.60999999999,"N_COORD97":2544106.4700000002,"ADDRESS":"國平路５８７號十二樓之１３","OBJECTID":510623},"geometry":{"x":165064.61000000034,"y":2544106.4700000044}},{"attributes":{"ID":510651,"DIS_CODE":0,"TOWNNAME":"安平區","LI":"平通里","LIN":"1鄰","STREET":"國平路","SECT":" ","MAREA":" ","LANE":" ","ALLEY":" ","HOUSE_NO":"５８７號十三樓之１１","E_COORD97":165064.60999999999,"N_COORD97":2544106.4700000002,"ADDRESS":"國平路５８７號十三樓之１１","OBJECTID":510624},"geometry":{"x":165064.61000000034,"y":2544106.4700000044}},{"attributes":{"ID":510652,"DIS_CODE":0,"TOWNNAME":"安平區","LI":"平通里","LIN":"1鄰","STREET":"國平路","SECT":" ","MAREA":" ","LANE":" ","ALLEY":" ","HOUSE_NO":"５８７號十四樓之６","E_COORD97":165064.60999999999,"N_COORD97":2544106.4700000002,"ADDRESS":"國平路５８７號十四樓之６","OBJECTID":510625},"geometry":{"x":165064.61000000034,"y":2544106.4700000044}},{"attributes":{"ID":510653,"DIS_CODE":0,"TOWNNAME":"安平區","LI":"平通里","LIN":"1鄰","STREET":"國平路","SECT":" ","MAREA":" ","LANE":" ","ALLEY":" ","HOUSE_NO":"５８７號十四樓之１６","E_COORD97":165064.60999999999,"N_COORD97":2544106.4700000002,"ADDRESS":"國平路５８７號十四樓之１６","OBJECTID":510626},"geometry":{"x":165064.61000000034,"y":2544106.4700000044}},{"attributes":{"ID":510654,"DIS_CODE":0,"TOWNNAME":"安平區","LI":"平通里","LIN":"1鄰","STREET":"國平路","SECT":" ","MAREA":" ","LANE":" ","ALLEY":" ","HOUSE_NO":"５８７號二樓之１６","E_COORD97":165064.60999999999,"N_COORD97":2544106.4700000002,"ADDRESS":"國平路５８７號二樓之１６","OBJECTID":510627},"geometry":{"x":165064.61000000034,"y":2544106.4700000044}},{"attributes":{"ID":510655,"DIS_CODE":0,"TOWNNAME":"安平區","LI":"平通里","LIN":"1鄰","STREET":"國平路","SECT":" ","MAREA":" ","LANE":" ","ALLEY":" ","HOUSE_NO":"５８７號二樓之８","E_COORD97":165064.60999999999,"N_COORD97":2544106.4700000002,"ADDRESS":"國平路５８７號二樓之８","OBJECTID":510628},"geometry":{"x":165064.61000000034,"y":2544106.4700000044}},{"attributes":{"ID":510656,"DIS_CODE":0,"TOWNNAME":"安平區","LI":"平通里","LIN":"1鄰","STREET":"國平路","SECT":" ","MAREA":" ","LANE":" ","ALLEY":" ","HOUSE_NO":"５８７號五樓之２","E_COORD97":165064.60999999999,"N_COORD97":2544106.4700000002,"ADDRESS":"國平路５８７號五樓之２","OBJECTID":510629},"geometry":{"x":165064.61000000034,"y":2544106.4700000044}},{"attributes":{"ID":510657,"DIS_CODE":0,"TOWNNAME":"安平區","LI":"平通里","LIN":"1鄰","STREET":"國平路","SECT":" ","MAREA":" ","LANE":" ","ALLEY":" ","HOUSE_NO":"５８７號五樓之１２","E_COORD97":165064.60999999999,"N_COORD97":2544106.4700000002,"ADDRESS":"國平路５８７號五樓之１２","OBJECTID":510630},"geometry":{"x":165064.61000000034,"y":2544106.4700000044}},{"attributes":{"ID":510658,"DIS_CODE":0,"TOWNNAME":"安平區","LI":"平通里","LIN":"1鄰","STREET":"國平路","SECT":" ","MAREA":" ","LANE":" ","ALLEY":" ","HOUSE_NO":"５８７號八樓之１１","E_COORD97":165064.60999999999,"N_COORD97":2544106.4700000002,"ADDRESS":"國平路５８７號八樓之１１","OBJECTID":510631},"geometry":{"x":165064.61000000034,"y":2544106.4700000044}},{"attributes":{"ID":510659,"DIS_CODE":0,"TOWNNAME":"安平區","LI":"平通里","LIN":"1鄰","STREET":"國平路","SECT":" ","MAREA":" ","LANE":" ","ALLEY":" ","HOUSE_NO":"５８７號八樓之１５","E_COORD97":165064.60999999999,"N_COORD97":2544106.4700000002,"ADDRESS":"國平路５８７號八樓之１５","OBJECTID":510632},"geometry":{"x":165064.61000000034,"y":2544106.4700000044}},{"attributes":{"ID":510660,"DIS_CODE":0,"TOWNNAME":"安平區","LI":"平通里","LIN":"1鄰","STREET":"國平路","SECT":" ","MAREA":" ","LANE":" ","ALLEY":" ","HOUSE_NO":"５８７號九樓之１","E_COORD97":165064.60999999999,"N_COORD97":2544106.4700000002,"ADDRESS":"國平路５８７號九樓之１","OBJECTID":510633},"geometry":{"x":165064.61000000034,"y":2544106.4700000044}},{"attributes":{"ID":510661,"DIS_CODE":0,"TOWNNAME":"安平區","LI":"平通里","LIN":"1鄰","STREET":"國平路","SECT":" ","MAREA":" ","LANE":" ","ALLEY":" ","HOUSE_NO":"５８７號九樓之７","E_COORD97":165064.60999999999,"N_COORD97":2544106.4700000002,"ADDRESS":"國平路５８７號九樓之７","OBJECTID":510634},"geometry":{"x":165064.61000000034,"y":2544106.4700000044}},{"attributes":{"ID":510662,"DIS_CODE":0,"TOWNNAME":"安平區","LI":"平通里","LIN":"1鄰","STREET":"國平路","SECT":" ","MAREA":" ","LANE":" ","ALLEY":" ","HOUSE_NO":"５８７號九樓之１６","E_COORD97":165064.60999999999,"N_COORD97":2544106.4700000002,"ADDRESS":"國平路５８７號九樓之１６","OBJECTID":510635},"geometry":{"x":165064.61000000034,"y":2544106.4700000044}},{"attributes":{"ID":510663,"DIS_CODE":0,"TOWNNAME":"安平區","LI":"平通里","LIN":"1鄰","STREET":"國平路","SECT":" ","MAREA":" ","LANE":" ","ALLEY":" ","HOUSE_NO":"５８７號十樓之１","E_COORD97":165064.60999999999,"N_COORD97":2544106.4700000002,"ADDRESS":"國平路５８７號十樓之１","OBJECTID":510636},"geometry":{"x":165064.61000000034,"y":2544106.4700000044}},{"attributes":{"ID":510664,"DIS_CODE":0,"TOWNNAME":"安平區","LI":"平通里","LIN":"1鄰","STREET":"國平路","SECT":" ","MAREA":" ","LANE":" ","ALLEY":" ","HOUSE_NO":"５８７號十樓之３","E_COORD97":165064.60999999999,"N_COORD97":2544106.4700000002,"ADDRESS":"國平路５８７號十樓之３","OBJECTID":510637},"geometry":{"x":165064.61000000034,"y":2544106.4700000044}},{"attributes":{"ID":510665,"DIS_CODE":0,"TOWNNAME":"安平區","LI":"平通里","LIN":"1鄰","STREET":"國平路","SECT":" ","MAREA":" ","LANE":" ","ALLEY":" ","HOUSE_NO":"５８７號十樓之６","E_COORD97":165064.60999999999,"N_COORD97":2544106.4700000002,"ADDRESS":"國平路５８７號十樓之６","OBJECTID":510638},"geometry":{"x":165064.61000000034,"y":2544106.4700000044}},{"attributes":{"ID":510666,"DIS_CODE":0,"TOWNNAME":"安平區","LI":"平通里","LIN":"1鄰","STREET":"國平路","SECT":" ","MAREA":" ","LANE":" ","ALLEY":" ","HOUSE_NO":"５８７號十樓之１３","E_COORD97":165064.60999999999,"N_COORD97":2544106.4700000002,"ADDRESS":"國平路５８７號十樓之１３","OBJECTID":510639},"geometry":{"x":165064.61000000034,"y":2544106.4700000044}},{"attributes":{"ID":510667,"DIS_CODE":0,"TOWNNAME":"東區","LI":"和平里","LIN":"1鄰","STREET":"仁和路","SECT":" ","MAREA":" ","LANE":" ","ALLEY":" ","HOUSE_NO":"３５號十樓","E_COORD97":171099.45000000001,"N_COORD97":2542097.2200000002,"ADDRESS":"仁和路３５號十樓","OBJECTID":510640},"geometry":{"x":171099.45000000112,"y":2542097.2200000007}},{"attributes":{"ID":510668,"DIS_CODE":0,"TOWNNAME":"安平區","LI":"平通里","LIN":"1鄰","STREET":"國平路","SECT":" ","MAREA":" ","LANE":" ","ALLEY":" ","HOUSE_NO":"５８７號十樓之１５","E_COORD97":165064.60999999999,"N_COORD97":2544106.4700000002,"ADDRESS":"國平路５８７號十樓之１５","OBJECTID":510641},"geometry":{"x":165064.61000000034,"y":2544106.4700000044}},{"attributes":{"ID":510669,"DIS_CODE":0,"TOWNNAME":"南區","LI":"竹溪里","LIN":"1鄰","STREET":"竹溪街","SECT":" ","MAREA":" ","LANE":" ","ALLEY":" ","HOUSE_NO":"６８號六樓","E_COORD97":169011.01000000001,"N_COORD97":2542262.8999999999,"ADDRESS":"竹溪街６８號六樓","OBJECTID":510642},"geometry":{"x":169011.00999999978,"y":2542262.9000000022}},{"attributes":{"ID":510670,"DIS_CODE":0,"TOWNNAME":"安平區","LI":"平通里","LIN":"1鄰","STREET":"國平路","SECT":" ","MAREA":" ","LANE":" ","ALLEY":" ","HOUSE_NO":"５８７號十一樓之６","E_COORD97":165064.60999999999,"N_COORD97":2544106.4700000002,"ADDRESS":"國平路５８７號十一樓之６","OBJECTID":510643},"geometry":{"x":165064.61000000034,"y":2544106.4700000044}},{"attributes":{"ID":510671,"DIS_CODE":0,"TOWNNAME":"安平區","LI":"平通里","LIN":"1鄰","STREET":"國平路","SECT":" ","MAREA":" ","LANE":" ","ALLEY":" ","HOUSE_NO":"５８７號十一樓之９","E_COORD97":165064.60999999999,"N_COORD97":2544106.4700000002,"ADDRESS":"國平路５８７號十一樓之９","OBJECTID":510644},"geometry":{"x":165064.61000000034,"y":2544106.4700000044}},{"attributes":{"ID":510672,"DIS_CODE":0,"TOWNNAME":"北區","LI":"華興里","LIN":"1鄰","STREET":"開南街","SECT":" ","MAREA":" ","LANE":" ","ALLEY":" ","HOUSE_NO":"３號二樓","E_COORD97":170291.95000000001,"N_COORD97":2545389.8399999999,"ADDRESS":"開南街３號二樓","OBJECTID":510645},"geometry":{"x":170291.95000000019,"y":2545389.8399999999}},{"attributes":{"ID":510673,"DIS_CODE":0,"TOWNNAME":"安平區","LI":"平通里","LIN":"1鄰","STREET":"國平路","SECT":" ","MAREA":" ","LANE":" ","ALLEY":" ","HOUSE_NO":"５８７號十一樓之１５","E_COORD97":165064.60999999999,"N_COORD97":2544106.4700000002,"ADDRESS":"國平路５８７號十一樓之１５","OBJECTID":510646},"geometry":{"x":165064.61000000034,"y":2544106.4700000044}},{"attributes":{"ID":510674,"DIS_CODE":0,"TOWNNAME":"安平區","LI":"平通里","LIN":"1鄰","STREET":"國平路","SECT":" ","MAREA":" ","LANE":" ","ALLEY":" ","HOUSE_NO":"５８７號十二樓之３","E_COORD97":165064.60999999999,"N_COORD97":2544106.4700000002,"ADDRESS":"國平路５８７號十二樓之３","OBJECTID":510647},"geometry":{"x":165064.61000000034,"y":2544106.4700000044}},{"attributes":{"ID":510675,"DIS_CODE":0,"TOWNNAME":"安平區","LI":"平通里","LIN":"1鄰","STREET":"國平路","SECT":" ","MAREA":" ","LANE":" ","ALLEY":" ","HOUSE_NO":"５８７號十二樓之５","E_COORD97":165064.60999999999,"N_COORD97":2544106.4700000002,"ADDRESS":"國平路５８７號十二樓之５","OBJECTID":510648},"geometry":{"x":165064.61000000034,"y":2544106.4700000044}},{"attributes":{"ID":510676,"DIS_CODE":0,"TOWNNAME":"安平區","LI":"平通里","LIN":"1鄰","STREET":"國平路","SECT":" ","MAREA":" ","LANE":" ","ALLEY":" ","HOUSE_NO":"５８７號十二樓之１０","E_COORD97":165064.60999999999,"N_COORD97":2544106.4700000002,"ADDRESS":"國平路５８７號十二樓之１０","OBJECTID":510649},"geometry":{"x":165064.61000000034,"y":2544106.4700000044}},{"attributes":{"ID":510677,"DIS_CODE":0,"TOWNNAME":"安平區","LI":"平通里","LIN":"1鄰","STREET":"國平路","SECT":" ","MAREA":" ","LANE":" ","ALLEY":" ","HOUSE_NO":"５８７號十二樓之１５","E_COORD97":165064.60999999999,"N_COORD97":2544106.4700000002,"ADDRESS":"國平路５８７號十二樓之１５","OBJECTID":510650},"geometry":{"x":165064.61000000034,"y":2544106.4700000044}},{"attributes":{"ID":510678,"DIS_CODE":0,"TOWNNAME":"安平區","LI":"平通里","LIN":"1鄰","STREET":"國平路","SECT":" ","MAREA":" ","LANE":" ","ALLEY":" ","HOUSE_NO":"５８７號十三樓之３","E_COORD97":165064.60999999999,"N_COORD97":2544106.4700000002,"ADDRESS":"國平路５８７號十三樓之３","OBJECTID":510651},"geometry":{"x":165064.61000000034,"y":2544106.4700000044}},{"attributes":{"ID":510679,"DIS_CODE":0,"TOWNNAME":"安平區","LI":"平通里","LIN":"1鄰","STREET":"國平路","SECT":" ","MAREA":" ","LANE":" ","ALLEY":" ","HOUSE_NO":"５８７號十三樓之１２","E_COORD97":165064.60999999999,"N_COORD97":2544106.4700000002,"ADDRESS":"國平路５８７號十三樓之１２","OBJECTID":510652},"geometry":{"x":165064.61000000034,"y":2544106.4700000044}},{"attributes":{"ID":510680,"DIS_CODE":0,"TOWNNAME":"安平區","LI":"平通里","LIN":"1鄰","STREET":"國平路","SECT":" ","MAREA":" ","LANE":" ","ALLEY":" ","HOUSE_NO":"５８７號八樓之１２","E_COORD97":165064.60999999999,"N_COORD97":2544106.4700000002,"ADDRESS":"國平路５８７號八樓之１２","OBJECTID":510653},"geometry":{"x":165064.61000000034,"y":2544106.4700000044}},{"attributes":{"ID":510681,"DIS_CODE":0,"TOWNNAME":"安平區","LI":"平通里","LIN":"1鄰","STREET":"國平路","SECT":" ","MAREA":" ","LANE":" ","ALLEY":" ","HOUSE_NO":"５８７號八樓之１３","E_COORD97":165064.60999999999,"N_COORD97":2544106.4700000002,"ADDRESS":"國平路５８７號八樓之１３","OBJECTID":510654},"geometry":{"x":165064.61000000034,"y":2544106.4700000044}},{"attributes":{"ID":510682,"DIS_CODE":0,"TOWNNAME":"安平區","LI":"平通里","LIN":"1鄰","STREET":"國平路","SECT":" ","MAREA":" ","LANE":" ","ALLEY":" ","HOUSE_NO":"５８７號十樓之１０","E_COORD97":165064.60999999999,"N_COORD97":2544106.4700000002,"ADDRESS":"國平路５８７號十樓之１０","OBJECTID":510655},"geometry":{"x":165064.61000000034,"y":2544106.4700000044}},{"attributes":{"ID":510683,"DIS_CODE":0,"TOWNNAME":"安平區","LI":"平通里","LIN":"1鄰","STREET":"國平路","SECT":" ","MAREA":" ","LANE":" ","ALLEY":" ","HOUSE_NO":"５８７號十一樓之１７","E_COORD97":165064.60999999999,"N_COORD97":2544106.4700000002,"ADDRESS":"國平路５８７號十一樓之１７","OBJECTID":510656},"geometry":{"x":165064.61000000034,"y":2544106.4700000044}},{"attributes":{"ID":510684,"DIS_CODE":0,"TOWNNAME":"安平區","LI":"平通里","LIN":"1鄰","STREET":"國平路","SECT":" ","MAREA":" ","LANE":" ","ALLEY":" ","HOUSE_NO":"５８７號十四樓之１２","E_COORD97":165064.60999999999,"N_COORD97":2544106.4700000002,"ADDRESS":"國平路５８７號十四樓之１２","OBJECTID":510657},"geometry":{"x":165064.61000000034,"y":2544106.4700000044}},{"attributes":{"ID":510685,"DIS_CODE":0,"TOWNNAME":"安平區","LI":"平通里","LIN":"1鄰","STREET":"國平路","SECT":" ","MAREA":" ","LANE":" ","ALLEY":" ","HOUSE_NO":"５８７號十四樓之１５","E_COORD97":165064.60999999999,"N_COORD97":2544106.4700000002,"ADDRESS":"國平路５８７號十四樓之１５","OBJECTID":510658},"geometry":{"x":165064.61000000034,"y":2544106.4700000044}},{"attributes":{"ID":510686,"DIS_CODE":0,"TOWNNAME":"安平區","LI":"平通里","LIN":"1鄰","STREET":"國平路","SECT":" ","MAREA":" ","LANE":" ","ALLEY":" ","HOUSE_NO":"５８７號二樓之７","E_COORD97":165064.60999999999,"N_COORD97":2544106.4700000002,"ADDRESS":"國平路５８７號二樓之７","OBJECTID":510659},"geometry":{"x":165064.61000000034,"y":2544106.4700000044}},{"attributes":{"ID":510687,"DIS_CODE":0,"TOWNNAME":"安平區","LI":"平通里","LIN":"1鄰","STREET":"國平路","SECT":" ","MAREA":" ","LANE":" ","ALLEY":" ","HOUSE_NO":"５８７號二樓之１２","E_COORD97":165064.60999999999,"N_COORD97":2544106.4700000002,"ADDRESS":"國平路５８７號二樓之１２","OBJECTID":510660},"geometry":{"x":165064.61000000034,"y":2544106.4700000044}},{"attributes":{"ID":510688,"DIS_CODE":0,"TOWNNAME":"安平區","LI":"平通里","LIN":"1鄰","STREET":"國平路","SECT":" ","MAREA":" ","LANE":" ","ALLEY":" ","HOUSE_NO":"５８７號六樓之６","E_COORD97":165064.60999999999,"N_COORD97":2544106.4700000002,"ADDRESS":"國平路５８７號六樓之６","OBJECTID":510661},"geometry":{"x":165064.61000000034,"y":2544106.4700000044}},{"attributes":{"ID":510689,"DIS_CODE":0,"TOWNNAME":"安平區","LI":"平通里","LIN":"1鄰","STREET":"國平路","SECT":" ","MAREA":" ","LANE":" ","ALLEY":" ","HOUSE_NO":"５８７號六樓之１０","E_COORD97":165064.60999999999,"N_COORD97":2544106.4700000002,"ADDRESS":"國平路５８７號六樓之１０","OBJECTID":510662},"geometry":{"x":165064.61000000034,"y":2544106.4700000044}},{"attributes":{"ID":510690,"DIS_CODE":0,"TOWNNAME":"安平區","LI":"平通里","LIN":"1鄰","STREET":"國平路","SECT":" ","MAREA":" ","LANE":" ","ALLEY":" ","HOUSE_NO":"５８７號七樓之５","E_COORD97":165064.60999999999,"N_COORD97":2544106.4700000002,"ADDRESS":"國平路５８７號七樓之５","OBJECTID":510663},"geometry":{"x":165064.61000000034,"y":2544106.4700000044}},{"attributes":{"ID":510691,"DIS_CODE":0,"TOWNNAME":"安平區","LI":"平通里","LIN":"1鄰","STREET":"國平路","SECT":" ","MAREA":" ","LANE":" ","ALLEY":" ","HOUSE_NO":"５８７號七樓之１３","E_COORD97":165064.60999999999,"N_COORD97":2544106.4700000002,"ADDRESS":"國平路５８７號七樓之１３","OBJECTID":510664},"geometry":{"x":165064.61000000034,"y":2544106.4700000044}},{"attributes":{"ID":510692,"DIS_CODE":0,"TOWNNAME":"安平區","LI":"平通里","LIN":"1鄰","STREET":"國平路","SECT":" ","MAREA":" ","LANE":" ","ALLEY":" ","HOUSE_NO":"５８７號八樓之６","E_COORD97":165064.60999999999,"N_COORD97":2544106.4700000002,"ADDRESS":"國平路５８７號八樓之６","OBJECTID":510665},"geometry":{"x":165064.61000000034,"y":2544106.4700000044}},{"attributes":{"ID":510693,"DIS_CODE":0,"TOWNNAME":"安平區","LI":"平通里","LIN":"1鄰","STREET":"國平路","SECT":" ","MAREA":" ","LANE":" ","ALLEY":" ","HOUSE_NO":"５８７號八樓之９","E_COORD97":165064.60999999999,"N_COORD97":2544106.4700000002,"ADDRESS":"國平路５８７號八樓之９","OBJECTID":510666},"geometry":{"x":165064.61000000034,"y":2544106.4700000044}},{"attributes":{"ID":510694,"DIS_CODE":0,"TOWNNAME":"安平區","LI":"平通里","LIN":"1鄰","STREET":"國平路","SECT":" ","MAREA":" ","LANE":" ","ALLEY":" ","HOUSE_NO":"５８７號九樓之１３","E_COORD97":165064.60999999999,"N_COORD97":2544106.4700000002,"ADDRESS":"國平路５８７號九樓之１３","OBJECTID":510667},"geometry":{"x":165064.61000000034,"y":2544106.4700000044}},{"attributes":{"ID":510695,"DIS_CODE":0,"TOWNNAME":"安平區","LI":"平通里","LIN":"1鄰","STREET":"國平路","SECT":" ","MAREA":" ","LANE":" ","ALLEY":" ","HOUSE_NO":"５８７號九樓之１５","E_COORD97":165064.60999999999,"N_COORD97":2544106.4700000002,"ADDRESS":"國平路５８７號九樓之１５","OBJECTID":510668},"geometry":{"x":165064.61000000034,"y":2544106.4700000044}},{"attributes":{"ID":510696,"DIS_CODE":0,"TOWNNAME":"南區","LI":"竹溪里","LIN":"1鄰","STREET":"竹溪街","SECT":" ","MAREA":" ","LANE":" ","ALLEY":" ","HOUSE_NO":"７０號三樓","E_COORD97":169011.85000000001,"N_COORD97":2542256.3399999999,"ADDRESS":"竹溪街７０號三樓","OBJECTID":510669},"geometry":{"x":169011.84999999963,"y":2542256.3400000017}},{"attributes":{"ID":510697,"DIS_CODE":0,"TOWNNAME":"安平區","LI":"平通里","LIN":"1鄰","STREET":"國平路","SECT":" ","MAREA":" ","LANE":" ","ALLEY":" ","HOUSE_NO":"５８７號十一樓之１","E_COORD97":165064.60999999999,"N_COORD97":2544106.4700000002,"ADDRESS":"國平路５８７號十一樓之１","OBJECTID":510670},"geometry":{"x":165064.61000000034,"y":2544106.4700000044}},{"attributes":{"ID":510698,"DIS_CODE":0,"TOWNNAME":"安平區","LI":"平通里","LIN":"1鄰","STREET":"國平路","SECT":" ","MAREA":" ","LANE":" ","ALLEY":" ","HOUSE_NO":"５８７號十一樓之１１","E_COORD97":165064.60999999999,"N_COORD97":2544106.4700000002,"ADDRESS":"國平路５８７號十一樓之１１","OBJECTID":510671},"geometry":{"x":165064.61000000034,"y":2544106.4700000044}},{"attributes":{"ID":510699,"DIS_CODE":0,"TOWNNAME":"新化區","LI":"豐榮里","LIN":"1鄰","STREET":"中山路","SECT":" ","MAREA":" ","LANE":" ","ALLEY":" ","HOUSE_NO":"５９５號十樓之３","E_COORD97":178293.26000000001,"N_COORD97":2548440.2599999998,"ADDRESS":"中山路５９５號十樓之３","OBJECTID":510672},"geometry":{"x":178293.26000000071,"y":2548440.2600000016}},{"attributes":{"ID":510700,"DIS_CODE":0,"TOWNNAME":"安平區","LI":"平通里","LIN":"1鄰","STREET":"國平路","SECT":" ","MAREA":" ","LANE":" ","ALLEY":" ","HOUSE_NO":"５８７號八樓之１７","E_COORD97":165064.60999999999,"N_COORD97":2544106.4700000002,"ADDRESS":"國平路５８７號八樓之１７","OBJECTID":510673},"geometry":{"x":165064.61000000034,"y":2544106.4700000044}},{"attributes":{"ID":510701,"DIS_CODE":0,"TOWNNAME":"安平區","LI":"平通里","LIN":"1鄰","STREET":"國平路","SECT":" ","MAREA":" ","LANE":" ","ALLEY":" ","HOUSE_NO":"５８７號八樓之７","E_COORD97":165064.60999999999,"N_COORD97":2544106.4700000002,"ADDRESS":"國平路５８７號八樓之７","OBJECTID":510674},"geometry":{"x":165064.61000000034,"y":2544106.4700000044}},{"attributes":{"ID":510702,"DIS_CODE":0,"TOWNNAME":"安平區","LI":"平通里","LIN":"1鄰","STREET":"國平路","SECT":" ","MAREA":" ","LANE":" ","ALLEY":" ","HOUSE_NO":"５８７號八樓之１０","E_COORD97":165064.60999999999,"N_COORD97":2544106.4700000002,"ADDRESS":"國平路５８７號八樓之１０","OBJECTID":510675},"geometry":{"x":165064.61000000034,"y":2544106.4700000044}},{"attributes":{"ID":510703,"DIS_CODE":0,"TOWNNAME":"安平區","LI":"平通里","LIN":"1鄰","STREET":"國平路","SECT":" ","MAREA":" ","LANE":" ","ALLEY":" ","HOUSE_NO":"５８７號九樓之３","E_COORD97":165064.60999999999,"N_COORD97":2544106.4700000002,"ADDRESS":"國平路５８７號九樓之３","OBJECTID":510676},"geometry":{"x":165064.61000000034,"y":2544106.4700000044}},{"attributes":{"ID":510704,"DIS_CODE":0,"TOWNNAME":"安平區","LI":"平通里","LIN":"1鄰","STREET":"國平路","SECT":" ","MAREA":" ","LANE":" ","ALLEY":" ","HOUSE_NO":"５８７號八樓之５","E_COORD97":165064.60999999999,"N_COORD97":2544106.4700000002,"ADDRESS":"國平路５８７號八樓之５","OBJECTID":510677},"geometry":{"x":165064.61000000034,"y":2544106.4700000044}},{"attributes":{"ID":510705,"DIS_CODE":0,"TOWNNAME":"安平區","LI":"平通里","LIN":"1鄰","STREET":"國平路","SECT":" ","MAREA":" ","LANE":" ","ALLEY":" ","HOUSE_NO":"５８７號十二樓之１６","E_COORD97":165064.60999999999,"N_COORD97":2544106.4700000002,"ADDRESS":"國平路５８７號十二樓之１６","OBJECTID":510678},"geometry":{"x":165064.61000000034,"y":2544106.4700000044}},{"attributes":{"ID":510706,"DIS_CODE":0,"TOWNNAME":"安平區","LI":"平通里","LIN":"1鄰","STREET":"國平路","SECT":" ","MAREA":" ","LANE":" ","ALLEY":" ","HOUSE_NO":"５８７號十三樓之１５","E_COORD97":165064.60999999999,"N_COORD97":2544106.4700000002,"ADDRESS":"國平路５８７號十三樓之１５","OBJECTID":510679},"geometry":{"x":165064.61000000034,"y":2544106.4700000044}},{"attributes":{"ID":510707,"DIS_CODE":0,"TOWNNAME":"北區","LI":"華興里","LIN":"1鄰","STREET":"開南街","SECT":" ","MAREA":" ","LANE":" ","ALLEY":" ","HOUSE_NO":"３號三樓","E_COORD97":170291.95000000001,"N_COORD97":2545389.8399999999,"ADDRESS":"開南街３號三樓","OBJECTID":510680},"geometry":{"x":170291.95000000019,"y":2545389.8399999999}},{"attributes":{"ID":510708,"DIS_CODE":0,"TOWNNAME":"安平區","LI":"平通里","LIN":"1鄰","STREET":"國平路","SECT":" ","MAREA":" ","LANE":" ","ALLEY":" ","HOUSE_NO":"５８７號九樓之９","E_COORD97":165064.60999999999,"N_COORD97":2544106.4700000002,"ADDRESS":"國平路５８７號九樓之９","OBJECTID":510681},"geometry":{"x":165064.61000000034,"y":2544106.4700000044}},{"attributes":{"ID":510709,"DIS_CODE":0,"TOWNNAME":"安平區","LI":"平通里","LIN":"1鄰","STREET":"國平路","SECT":" ","MAREA":" ","LANE":" ","ALLEY":" ","HOUSE_NO":"５８７號十樓之８","E_COORD97":165064.60999999999,"N_COORD97":2544106.4700000002,"ADDRESS":"國平路５８７號十樓之８","OBJECTID":510682},"geometry":{"x":165064.61000000034,"y":2544106.4700000044}},{"attributes":{"ID":510710,"DIS_CODE":0,"TOWNNAME":"安平區","LI":"平通里","LIN":"1鄰","STREET":"國平路","SECT":" ","MAREA":" ","LANE":" ","ALLEY":" ","HOUSE_NO":"５８７號十一樓之５","E_COORD97":165064.60999999999,"N_COORD97":2544106.4700000002,"ADDRESS":"國平路５８７號十一樓之５","OBJECTID":510683},"geometry":{"x":165064.61000000034,"y":2544106.4700000044}},{"attributes":{"ID":510711,"DIS_CODE":0,"TOWNNAME":"安平區","LI":"平通里","LIN":"1鄰","STREET":"國平路","SECT":" ","MAREA":" ","LANE":" ","ALLEY":" ","HOUSE_NO":"５８７號十二樓之９","E_COORD97":165064.60999999999,"N_COORD97":2544106.4700000002,"ADDRESS":"國平路５８７號十二樓之９","OBJECTID":510684},"geometry":{"x":165064.61000000034,"y":2544106.4700000044}},{"attributes":{"ID":510712,"DIS_CODE":0,"TOWNNAME":"安平區","LI":"平通里","LIN":"1鄰","STREET":"國平路","SECT":" ","MAREA":" ","LANE":" ","ALLEY":" ","HOUSE_NO":"５８７號十二樓之１７","E_COORD97":165064.60999999999,"N_COORD97":2544106.4700000002,"ADDRESS":"國平路５８７號十二樓之１７","OBJECTID":510685},"geometry":{"x":165064.61000000034,"y":2544106.4700000044}},{"attributes":{"ID":510713,"DIS_CODE":0,"TOWNNAME":"安平區","LI":"平通里","LIN":"1鄰","STREET":"國平路","SECT":" ","MAREA":" ","LANE":" ","ALLEY":" ","HOUSE_NO":"５８７號十三樓之１６","E_COORD97":165064.60999999999,"N_COORD97":2544106.4700000002,"ADDRESS":"國平路５８７號十三樓之１６","OBJECTID":510686},"geometry":{"x":165064.61000000034,"y":2544106.4700000044}},{"attributes":{"ID":510714,"DIS_CODE":0,"TOWNNAME":"安平區","LI":"平通里","LIN":"1鄰","STREET":"國平路","SECT":" ","MAREA":" ","LANE":" ","ALLEY":" ","HOUSE_NO":"５８７號十四樓之５","E_COORD97":165064.60999999999,"N_COORD97":2544106.4700000002,"ADDRESS":"國平路５８７號十四樓之５","OBJECTID":510687},"geometry":{"x":165064.61000000034,"y":2544106.4700000044}},{"attributes":{"ID":510715,"DIS_CODE":0,"TOWNNAME":"安平區","LI":"平通里","LIN":"1鄰","STREET":"國平路","SECT":" ","MAREA":" ","LANE":" ","ALLEY":" ","HOUSE_NO":"５８７號八樓之１","E_COORD97":165064.60999999999,"N_COORD97":2544106.4700000002,"ADDRESS":"國平路５８７號八樓之１","OBJECTID":510688},"geometry":{"x":165064.61000000034,"y":2544106.4700000044}},{"attributes":{"ID":510716,"DIS_CODE":0,"TOWNNAME":"安平區","LI":"平通里","LIN":"1鄰","STREET":"國平路","SECT":" ","MAREA":" ","LANE":" ","ALLEY":" ","HOUSE_NO":"５８７號十樓之１１","E_COORD97":165064.60999999999,"N_COORD97":2544106.4700000002,"ADDRESS":"國平路５８７號十樓之１１","OBJECTID":510689},"geometry":{"x":165064.61000000034,"y":2544106.4700000044}},{"attributes":{"ID":510717,"DIS_CODE":0,"TOWNNAME":"安平區","LI":"平通里","LIN":"1鄰","STREET":"國平路","SECT":" ","MAREA":" ","LANE":" ","ALLEY":" ","HOUSE_NO":"５８７號十二樓之１","E_COORD97":165064.60999999999,"N_COORD97":2544106.4700000002,"ADDRESS":"國平路５８７號十二樓之１","OBJECTID":510690},"geometry":{"x":165064.61000000034,"y":2544106.4700000044}},{"attributes":{"ID":510718,"DIS_CODE":0,"TOWNNAME":"安平區","LI":"平通里","LIN":"1鄰","STREET":"國平路","SECT":" ","MAREA":" ","LANE":" ","ALLEY":" ","HOUSE_NO":"５８７號十三樓之１","E_COORD97":165064.60999999999,"N_COORD97":2544106.4700000002,"ADDRESS":"國平路５８７號十三樓之１","OBJECTID":510691},"geometry":{"x":165064.61000000034,"y":2544106.4700000044}},{"attributes":{"ID":510719,"DIS_CODE":0,"TOWNNAME":"安平區","LI":"平通里","LIN":"1鄰","STREET":"國平路","SECT":" ","MAREA":" ","LANE":" ","ALLEY":" ","HOUSE_NO":"５８７號十三樓之１７","E_COORD97":165064.60999999999,"N_COORD97":2544106.4700000002,"ADDRESS":"國平路５８７號十三樓之１７","OBJECTID":510692},"geometry":{"x":165064.61000000034,"y":2544106.4700000044}},{"attributes":{"ID":510720,"DIS_CODE":0,"TOWNNAME":"安平區","LI":"平通里","LIN":"1鄰","STREET":"國平路","SECT":" ","MAREA":" ","LANE":" ","ALLEY":" ","HOUSE_NO":"５８７號十四樓之７","E_COORD97":165064.60999999999,"N_COORD97":2544106.4700000002,"ADDRESS":"國平路５８７號十四樓之７","OBJECTID":510693},"geometry":{"x":165064.61000000034,"y":2544106.4700000044}},{"attributes":{"ID":510721,"DIS_CODE":0,"TOWNNAME":"安平區","LI":"平通里","LIN":"1鄰","STREET":"國平路","SECT":" ","MAREA":" ","LANE":" ","ALLEY":" ","HOUSE_NO":"５８７號十四樓之８","E_COORD97":165064.60999999999,"N_COORD97":2544106.4700000002,"ADDRESS":"國平路５８７號十四樓之８","OBJECTID":510694},"geometry":{"x":165064.61000000034,"y":2544106.4700000044}},{"attributes":{"ID":510722,"DIS_CODE":0,"TOWNNAME":"安平區","LI":"平通里","LIN":"1鄰","STREET":"國平路","SECT":" ","MAREA":" ","LANE":" ","ALLEY":" ","HOUSE_NO":"５８７號九樓之２","E_COORD97":165064.60999999999,"N_COORD97":2544106.4700000002,"ADDRESS":"國平路５８７號九樓之２","OBJECTID":510695},"geometry":{"x":165064.61000000034,"y":2544106.4700000044}},{"attributes":{"ID":510723,"DIS_CODE":0,"TOWNNAME":"安平區","LI":"平通里","LIN":"1鄰","STREET":"國平路","SECT":" ","MAREA":" ","LANE":" ","ALLEY":" ","HOUSE_NO":"５８７號九樓之１０","E_COORD97":165064.60999999999,"N_COORD97":2544106.4700000002,"ADDRESS":"國平路５８７號九樓之１０","OBJECTID":510696},"geometry":{"x":165064.61000000034,"y":2544106.4700000044}},{"attributes":{"ID":510724,"DIS_CODE":0,"TOWNNAME":"安平區","LI":"平通里","LIN":"1鄰","STREET":"國平路","SECT":" ","MAREA":" ","LANE":" ","ALLEY":" ","HOUSE_NO":"５８７號九樓之１７","E_COORD97":165064.60999999999,"N_COORD97":2544106.4700000002,"ADDRESS":"國平路５８７號九樓之１７","OBJECTID":510697},"geometry":{"x":165064.61000000034,"y":2544106.4700000044}},{"attributes":{"ID":510725,"DIS_CODE":0,"TOWNNAME":"安平區","LI":"平通里","LIN":"1鄰","STREET":"國平路","SECT":" ","MAREA":" ","LANE":" ","ALLEY":" ","HOUSE_NO":"５８７號十樓之５","E_COORD97":165064.60999999999,"N_COORD97":2544106.4700000002,"ADDRESS":"國平路５８７號十樓之５","OBJECTID":510698},"geometry":{"x":165064.61000000034,"y":2544106.4700000044}},{"attributes":{"ID":510726,"DIS_CODE":0,"TOWNNAME":"安平區","LI":"平通里","LIN":"1鄰","STREET":"國平路","SECT":" ","MAREA":" ","LANE":" ","ALLEY":" ","HOUSE_NO":"５８７號十樓之９","E_COORD97":165064.60999999999,"N_COORD97":2544106.4700000002,"ADDRESS":"國平路５８７號十樓之９","OBJECTID":510699},"geometry":{"x":165064.61000000034,"y":2544106.4700000044}},{"attributes":{"ID":510727,"DIS_CODE":0,"TOWNNAME":"安平區","LI":"平通里","LIN":"1鄰","STREET":"國平路","SECT":" ","MAREA":" ","LANE":" ","ALLEY":" ","HOUSE_NO":"５８７號八樓之１６","E_COORD97":165064.60999999999,"N_COORD97":2544106.4700000002,"ADDRESS":"國平路５８７號八樓之１６","OBJECTID":510700},"geometry":{"x":165064.61000000034,"y":2544106.4700000044}},{"attributes":{"ID":510728,"DIS_CODE":0,"TOWNNAME":"安平區","LI":"平通里","LIN":"1鄰","STREET":"國平路","SECT":" ","MAREA":" ","LANE":" ","ALLEY":" ","HOUSE_NO":"５８７號九樓之５","E_COORD97":165064.60999999999,"N_COORD97":2544106.4700000002,"ADDRESS":"國平路５８７號九樓之５","OBJECTID":510701},"geometry":{"x":165064.61000000034,"y":2544106.4700000044}},{"attributes":{"ID":510729,"DIS_CODE":0,"TOWNNAME":"安平區","LI":"平通里","LIN":"1鄰","STREET":"國平路","SECT":" ","MAREA":" ","LANE":" ","ALLEY":" ","HOUSE_NO":"５８７號九樓之６","E_COORD97":165064.60999999999,"N_COORD97":2544106.4700000002,"ADDRESS":"國平路５８７號九樓之６","OBJECTID":510702},"geometry":{"x":165064.61000000034,"y":2544106.4700000044}},{"attributes":{"ID":510730,"DIS_CODE":0,"TOWNNAME":"安平區","LI":"平通里","LIN":"1鄰","STREET":"國平路","SECT":" ","MAREA":" ","LANE":" ","ALLEY":" ","HOUSE_NO":"５８７號十一樓之７","E_COORD97":165064.60999999999,"N_COORD97":2544106.4700000002,"ADDRESS":"國平路５８７號十一樓之７","OBJECTID":510703},"geometry":{"x":165064.61000000034,"y":2544106.4700000044}},{"attributes":{"ID":510731,"DIS_CODE":0,"TOWNNAME":"安平區","LI":"平通里","LIN":"1鄰","STREET":"國平路","SECT":" ","MAREA":" ","LANE":" ","ALLEY":" ","HOUSE_NO":"５８７號十二樓之１１","E_COORD97":165064.60999999999,"N_COORD97":2544106.4700000002,"ADDRESS":"國平路５８７號十二樓之１１","OBJECTID":510704},"geometry":{"x":165064.61000000034,"y":2544106.4700000044}},{"attributes":{"ID":510732,"DIS_CODE":0,"TOWNNAME":"南區","LI":"竹溪里","LIN":"1鄰","STREET":"竹溪街","SECT":" ","MAREA":" ","LANE":" ","ALLEY":" ","HOUSE_NO":"７０號四樓","E_COORD97":169011.85000000001,"N_COORD97":2542256.3399999999,"ADDRESS":"竹溪街７０號四樓","OBJECTID":510705},"geometry":{"x":169011.84999999963,"y":2542256.3400000017}},{"attributes":{"ID":510733,"DIS_CODE":0,"TOWNNAME":"安平區","LI":"平通里","LIN":"1鄰","STREET":"國平路","SECT":" ","MAREA":" ","LANE":" ","ALLEY":" ","HOUSE_NO":"５８７號十三樓之６","E_COORD97":165064.60999999999,"N_COORD97":2544106.4700000002,"ADDRESS":"國平路５８７號十三樓之６","OBJECTID":510706},"geometry":{"x":165064.61000000034,"y":2544106.4700000044}},{"attributes":{"ID":510734,"DIS_CODE":0,"TOWNNAME":"安平區","LI":"平通里","LIN":"1鄰","STREET":"國平路","SECT":" ","MAREA":" ","LANE":" ","ALLEY":" ","HOUSE_NO":"５８７號十三樓之７","E_COORD97":165064.60999999999,"N_COORD97":2544106.4700000002,"ADDRESS":"國平路５８７號十三樓之７","OBJECTID":510707},"geometry":{"x":165064.61000000034,"y":2544106.4700000044}},{"attributes":{"ID":510735,"DIS_CODE":0,"TOWNNAME":"安平區","LI":"平通里","LIN":"1鄰","STREET":"國平路","SECT":" ","MAREA":" ","LANE":" ","ALLEY":" ","HOUSE_NO":"５８７號十四樓之１","E_COORD97":165064.60999999999,"N_COORD97":2544106.4700000002,"ADDRESS":"國平路５８７號十四樓之１","OBJECTID":510708},"geometry":{"x":165064.61000000034,"y":2544106.4700000044}},{"attributes":{"ID":510736,"DIS_CODE":0,"TOWNNAME":"安平區","LI":"平通里","LIN":"1鄰","STREET":"國平路","SECT":" ","MAREA":" ","LANE":" ","ALLEY":" ","HOUSE_NO":"５８７號十四樓之２","E_COORD97":165064.60999999999,"N_COORD97":2544106.4700000002,"ADDRESS":"國平路５８７號十四樓之２","OBJECTID":510709},"geometry":{"x":165064.61000000034,"y":2544106.4700000044}},{"attributes":{"ID":510737,"DIS_CODE":0,"TOWNNAME":"安平區","LI":"平通里","LIN":"1鄰","STREET":"國平路","SECT":" ","MAREA":" ","LANE":" ","ALLEY":" ","HOUSE_NO":"５８７號十四樓之１０","E_COORD97":165064.60999999999,"N_COORD97":2544106.4700000002,"ADDRESS":"國平路５８７號十四樓之１０","OBJECTID":510710},"geometry":{"x":165064.61000000034,"y":2544106.4700000044}},{"attributes":{"ID":510738,"DIS_CODE":0,"TOWNNAME":"安平區","LI":"平通里","LIN":"1鄰","STREET":"國平路","SECT":" ","MAREA":" ","LANE":" ","ALLEY":" ","HOUSE_NO":"５８７號二樓之３","E_COORD97":165064.60999999999,"N_COORD97":2544106.4700000002,"ADDRESS":"國平路５８７號二樓之３","OBJECTID":510711},"geometry":{"x":165064.61000000034,"y":2544106.4700000044}},{"attributes":{"ID":510739,"DIS_CODE":0,"TOWNNAME":"安平區","LI":"平通里","LIN":"1鄰","STREET":"國平路","SECT":" ","MAREA":" ","LANE":" ","ALLEY":" ","HOUSE_NO":"５８７號二樓之９","E_COORD97":165064.60999999999,"N_COORD97":2544106.4700000002,"ADDRESS":"國平路５８７號二樓之９","OBJECTID":510712},"geometry":{"x":165064.61000000034,"y":2544106.4700000044}},{"attributes":{"ID":510740,"DIS_CODE":0,"TOWNNAME":"安平區","LI":"平通里","LIN":"1鄰","STREET":"國平路","SECT":" ","MAREA":" ","LANE":" ","ALLEY":" ","HOUSE_NO":"５８７號三樓之２","E_COORD97":165064.60999999999,"N_COORD97":2544106.4700000002,"ADDRESS":"國平路５８７號三樓之２","OBJECTID":510713},"geometry":{"x":165064.61000000034,"y":2544106.4700000044}},{"attributes":{"ID":510741,"DIS_CODE":0,"TOWNNAME":"東區","LI":"和平里","LIN":"1鄰","STREET":"仁和路","SECT":" ","MAREA":" ","LANE":" ","ALLEY":" ","HOUSE_NO":"３１號七樓","E_COORD97":171099.45000000001,"N_COORD97":2542097.2200000002,"ADDRESS":"仁和路３１號七樓","OBJECTID":510714},"geometry":{"x":171099.45000000112,"y":2542097.2200000007}},{"attributes":{"ID":510742,"DIS_CODE":0,"TOWNNAME":"安平區","LI":"平通里","LIN":"1鄰","STREET":"國平路","SECT":" ","MAREA":" ","LANE":" ","ALLEY":" ","HOUSE_NO":"５８７號四樓之５","E_COORD97":165064.60999999999,"N_COORD97":2544106.4700000002,"ADDRESS":"國平路５８７號四樓之５","OBJECTID":510715},"geometry":{"x":165064.61000000034,"y":2544106.4700000044}},{"attributes":{"ID":510743,"DIS_CODE":0,"TOWNNAME":"安平區","LI":"平通里","LIN":"1鄰","STREET":"國平路","SECT":" ","MAREA":" ","LANE":" ","ALLEY":" ","HOUSE_NO":"５８７號七樓之１１","E_COORD97":165064.60999999999,"N_COORD97":2544106.4700000002,"ADDRESS":"國平路５８７號七樓之１１","OBJECTID":510716},"geometry":{"x":165064.61000000034,"y":2544106.4700000044}},{"attributes":{"ID":510744,"DIS_CODE":0,"TOWNNAME":"安平區","LI":"平通里","LIN":"1鄰","STREET":"國平路","SECT":" ","MAREA":" ","LANE":" ","ALLEY":" ","HOUSE_NO":"５８７號八樓之８","E_COORD97":165064.60999999999,"N_COORD97":2544106.4700000002,"ADDRESS":"國平路５８７號八樓之８","OBJECTID":510717},"geometry":{"x":165064.61000000034,"y":2544106.4700000044}},{"attributes":{"ID":510745,"DIS_CODE":0,"TOWNNAME":"安平區","LI":"平通里","LIN":"1鄰","STREET":"國平路","SECT":" ","MAREA":" ","LANE":" ","ALLEY":" ","HOUSE_NO":"５８７號九樓之８","E_COORD97":165064.60999999999,"N_COORD97":2544106.4700000002,"ADDRESS":"國平路５８７號九樓之８","OBJECTID":510718},"geometry":{"x":165064.61000000034,"y":2544106.4700000044}},{"attributes":{"ID":510746,"DIS_CODE":0,"TOWNNAME":"安平區","LI":"平通里","LIN":"1鄰","STREET":"國平路","SECT":" ","MAREA":" ","LANE":" ","ALLEY":" ","HOUSE_NO":"５８７號十樓之７","E_COORD97":165064.60999999999,"N_COORD97":2544106.4700000002,"ADDRESS":"國平路５８７號十樓之７","OBJECTID":510719},"geometry":{"x":165064.61000000034,"y":2544106.4700000044}},{"attributes":{"ID":510747,"DIS_CODE":0,"TOWNNAME":"安平區","LI":"平通里","LIN":"1鄰","STREET":"國平路","SECT":" ","MAREA":" ","LANE":" ","ALLEY":" ","HOUSE_NO":"５８７號十樓之１２","E_COORD97":165064.60999999999,"N_COORD97":2544106.4700000002,"ADDRESS":"國平路５８７號十樓之１２","OBJECTID":510720},"geometry":{"x":165064.61000000034,"y":2544106.4700000044}},{"attributes":{"ID":510748,"DIS_CODE":0,"TOWNNAME":"安平區","LI":"平通里","LIN":"1鄰","STREET":"國平路","SECT":" ","MAREA":" ","LANE":" ","ALLEY":" ","HOUSE_NO":"５８７號十一樓之２","E_COORD97":165064.60999999999,"N_COORD97":2544106.4700000002,"ADDRESS":"國平路５８７號十一樓之２","OBJECTID":510721},"geometry":{"x":165064.61000000034,"y":2544106.4700000044}},{"attributes":{"ID":510749,"DIS_CODE":0,"TOWNNAME":"安平區","LI":"平通里","LIN":"1鄰","STREET":"國平路","SECT":" ","MAREA":" ","LANE":" ","ALLEY":" ","HOUSE_NO":"５８７號十一樓之１０","E_COORD97":165064.60999999999,"N_COORD97":2544106.4700000002,"ADDRESS":"國平路５８７號十一樓之１０","OBJECTID":510722},"geometry":{"x":165064.61000000034,"y":2544106.4700000044}},{"attributes":{"ID":510750,"DIS_CODE":0,"TOWNNAME":"安平區","LI":"平通里","LIN":"1鄰","STREET":"國平路","SECT":" ","MAREA":" ","LANE":" ","ALLEY":" ","HOUSE_NO":"５８７號十一樓之１３","E_COORD97":165064.60999999999,"N_COORD97":2544106.4700000002,"ADDRESS":"國平路５８７號十一樓之１３","OBJECTID":510723},"geometry":{"x":165064.61000000034,"y":2544106.4700000044}},{"attributes":{"ID":510751,"DIS_CODE":0,"TOWNNAME":"安平區","LI":"平通里","LIN":"1鄰","STREET":"國平路","SECT":" ","MAREA":" ","LANE":" ","ALLEY":" ","HOUSE_NO":"５８７號十二樓之２","E_COORD97":165064.60999999999,"N_COORD97":2544106.4700000002,"ADDRESS":"國平路５８７號十二樓之２","OBJECTID":510724},"geometry":{"x":165064.61000000034,"y":2544106.4700000044}},{"attributes":{"ID":510752,"DIS_CODE":0,"TOWNNAME":"安平區","LI":"平通里","LIN":"1鄰","STREET":"國平路","SECT":" ","MAREA":" ","LANE":" ","ALLEY":" ","HOUSE_NO":"５８７號十二樓之６","E_COORD97":165064.60999999999,"N_COORD97":2544106.4700000002,"ADDRESS":"國平路５８７號十二樓之６","OBJECTID":510725},"geometry":{"x":165064.61000000034,"y":2544106.4700000044}},{"attributes":{"ID":510753,"DIS_CODE":0,"TOWNNAME":"安平區","LI":"平通里","LIN":"1鄰","STREET":"國平路","SECT":" ","MAREA":" ","LANE":" ","ALLEY":" ","HOUSE_NO":"５８７號十三樓之５","E_COORD97":165064.60999999999,"N_COORD97":2544106.4700000002,"ADDRESS":"國平路５８７號十三樓之５","OBJECTID":510726},"geometry":{"x":165064.61000000034,"y":2544106.4700000044}},{"attributes":{"ID":510754,"DIS_CODE":0,"TOWNNAME":"安平區","LI":"平通里","LIN":"1鄰","STREET":"國平路","SECT":" ","MAREA":" ","LANE":" ","ALLEY":" ","HOUSE_NO":"５８７號十三樓之１３","E_COORD97":165064.60999999999,"N_COORD97":2544106.4700000002,"ADDRESS":"國平路５８７號十三樓之１３","OBJECTID":510727},"geometry":{"x":165064.61000000034,"y":2544106.4700000044}},{"attributes":{"ID":510755,"DIS_CODE":0,"TOWNNAME":"安平區","LI":"平通里","LIN":"1鄰","STREET":"國平路","SECT":" ","MAREA":" ","LANE":" ","ALLEY":" ","HOUSE_NO":"５８７號十四樓之３","E_COORD97":165064.60999999999,"N_COORD97":2544106.4700000002,"ADDRESS":"國平路５８７號十四樓之３","OBJECTID":510728},"geometry":{"x":165064.61000000034,"y":2544106.4700000044}},{"attributes":{"ID":510756,"DIS_CODE":0,"TOWNNAME":"安平區","LI":"平通里","LIN":"1鄰","STREET":"國平路","SECT":" ","MAREA":" ","LANE":" ","ALLEY":" ","HOUSE_NO":"５８７號十四樓之１３","E_COORD97":165064.60999999999,"N_COORD97":2544106.4700000002,"ADDRESS":"國平路５８７號十四樓之１３","OBJECTID":510729},"geometry":{"x":165064.61000000034,"y":2544106.4700000044}},{"attributes":{"ID":510757,"DIS_CODE":0,"TOWNNAME":"安平區","LI":"平通里","LIN":"1鄰","STREET":"國平路","SECT":" ","MAREA":" ","LANE":" ","ALLEY":" ","HOUSE_NO":"５８７號十一樓之１２","E_COORD97":165064.60999999999,"N_COORD97":2544106.4700000002,"ADDRESS":"國平路５８７號十一樓之１２","OBJECTID":510730},"geometry":{"x":165064.61000000034,"y":2544106.4700000044}},{"attributes":{"ID":510758,"DIS_CODE":0,"TOWNNAME":"安平區","LI":"平通里","LIN":"1鄰","STREET":"國平路","SECT":" ","MAREA":" ","LANE":" ","ALLEY":" ","HOUSE_NO":"５８７號十三樓之８","E_COORD97":165064.60999999999,"N_COORD97":2544106.4700000002,"ADDRESS":"國平路５８７號十三樓之８","OBJECTID":510731},"geometry":{"x":165064.61000000034,"y":2544106.4700000044}},{"attributes":{"ID":510759,"DIS_CODE":0,"TOWNNAME":"新化區","LI":"豐榮里","LIN":"1鄰","STREET":"中山路","SECT":" ","MAREA":" ","LANE":" ","ALLEY":" ","HOUSE_NO":"５９５號六樓之５","E_COORD97":178293.26999999999,"N_COORD97":2548440.2599999998,"ADDRESS":"中山路５９５號六樓之５","OBJECTID":510732},"geometry":{"x":178293.26999999955,"y":2548440.2600000016}},{"attributes":{"ID":510760,"DIS_CODE":0,"TOWNNAME":"安平區","LI":"平通里","LIN":"1鄰","STREET":"國平路","SECT":" ","MAREA":" ","LANE":" ","ALLEY":" ","HOUSE_NO":"５８７號十一樓之３","E_COORD97":165064.60999999999,"N_COORD97":2544106.4700000002,"ADDRESS":"國平路５８７號十一樓之３","OBJECTID":510733},"geometry":{"x":165064.61000000034,"y":2544106.4700000044}},{"attributes":{"ID":510761,"DIS_CODE":0,"TOWNNAME":"安平區","LI":"平通里","LIN":"1鄰","STREET":"國平路","SECT":" ","MAREA":" ","LANE":" ","ALLEY":" ","HOUSE_NO":"５８７號十二樓之８","E_COORD97":165064.60999999999,"N_COORD97":2544106.4700000002,"ADDRESS":"國平路５８７號十二樓之８","OBJECTID":510734},"geometry":{"x":165064.61000000034,"y":2544106.4700000044}},{"attributes":{"ID":510762,"DIS_CODE":0,"TOWNNAME":"安平區","LI":"平通里","LIN":"1鄰","STREET":"國平路","SECT":" ","MAREA":" ","LANE":" ","ALLEY":" ","HOUSE_NO":"５８７號十二樓之７","E_COORD97":165064.60999999999,"N_COORD97":2544106.4700000002,"ADDRESS":"國平路５８７號十二樓之７","OBJECTID":510735},"geometry":{"x":165064.61000000034,"y":2544106.4700000044}},{"attributes":{"ID":510763,"DIS_CODE":0,"TOWNNAME":"安平區","LI":"平通里","LIN":"1鄰","STREET":"國平路","SECT":" ","MAREA":" ","LANE":" ","ALLEY":" ","HOUSE_NO":"５８７號十三樓之９","E_COORD97":165064.60999999999,"N_COORD97":2544106.4700000002,"ADDRESS":"國平路５８７號十三樓之９","OBJECTID":510736},"geometry":{"x":165064.61000000034,"y":2544106.4700000044}},{"attributes":{"ID":510764,"DIS_CODE":0,"TOWNNAME":"安平區","LI":"平通里","LIN":"1鄰","STREET":"國平路","SECT":" ","MAREA":" ","LANE":" ","ALLEY":" ","HOUSE_NO":"５８７號十四樓之９","E_COORD97":165064.60999999999,"N_COORD97":2544106.4700000002,"ADDRESS":"國平路５８７號十四樓之９","OBJECTID":510737},"geometry":{"x":165064.61000000034,"y":2544106.4700000044}},{"attributes":{"ID":510765,"DIS_CODE":0,"TOWNNAME":"安平區","LI":"平通里","LIN":"1鄰","STREET":"國平路","SECT":" ","MAREA":" ","LANE":" ","ALLEY":" ","HOUSE_NO":"５８７號十樓之１６","E_COORD97":165064.60999999999,"N_COORD97":2544106.4700000002,"ADDRESS":"國平路５８７號十樓之１６","OBJECTID":510738},"geometry":{"x":165064.61000000034,"y":2544106.4700000044}},{"attributes":{"ID":510766,"DIS_CODE":0,"TOWNNAME":"安平區","LI":"平通里","LIN":"1鄰","STREET":"國平路","SECT":" ","MAREA":" ","LANE":" ","ALLEY":" ","HOUSE_NO":"５８７號十四樓之１１","E_COORD97":165064.60999999999,"N_COORD97":2544106.4700000002,"ADDRESS":"國平路５８７號十四樓之１１","OBJECTID":510739},"geometry":{"x":165064.61000000034,"y":2544106.4700000044}},{"attributes":{"ID":510767,"DIS_CODE":0,"TOWNNAME":"南區","LI":"竹溪里","LIN":"1鄰","STREET":"竹溪街","SECT":" ","MAREA":" ","LANE":" ","ALLEY":" ","HOUSE_NO":"７０號五樓","E_COORD97":169011.85000000001,"N_COORD97":2542256.3399999999,"ADDRESS":"竹溪街７０號五樓","OBJECTID":510740},"geometry":{"x":169011.84999999963,"y":2542256.3400000017}},{"attributes":{"ID":510768,"DIS_CODE":0,"TOWNNAME":"安平區","LI":"平通里","LIN":"1鄰","STREET":"國平路","SECT":" ","MAREA":" ","LANE":" ","ALLEY":" ","HOUSE_NO":"５８７號十四樓之１７","E_COORD97":165064.60999999999,"N_COORD97":2544106.4700000002,"ADDRESS":"國平路５８７號十四樓之１７","OBJECTID":510741},"geometry":{"x":165064.61000000034,"y":2544106.4700000044}},{"attributes":{"ID":510769,"DIS_CODE":0,"TOWNNAME":"安平區","LI":"平通里","LIN":"1鄰","STREET":"國平路","SECT":" ","MAREA":" ","LANE":" ","ALLEY":" ","HOUSE_NO":"５８７號十二樓之１２","E_COORD97":165064.60999999999,"N_COORD97":2544106.4700000002,"ADDRESS":"國平路５８７號十二樓之１２","OBJECTID":510742},"geometry":{"x":165064.61000000034,"y":2544106.4700000044}},{"attributes":{"ID":510770,"DIS_CODE":0,"TOWNNAME":"安平區","LI":"平通里","LIN":"1鄰","STREET":"國平路","SECT":" ","MAREA":" ","LANE":" ","ALLEY":" ","HOUSE_NO":"５８７號十三樓之１０","E_COORD97":165064.60999999999,"N_COORD97":2544106.4700000002,"ADDRESS":"國平路５８７號十三樓之１０","OBJECTID":510743},"geometry":{"x":165064.61000000034,"y":2544106.4700000044}},{"attributes":{"ID":510771,"DIS_CODE":0,"TOWNNAME":"安平區","LI":"平通里","LIN":"1鄰","STREET":"國平路","SECT":" ","MAREA":" ","LANE":" ","ALLEY":" ","HOUSE_NO":"５８７號三樓之１","E_COORD97":165064.60999999999,"N_COORD97":2544106.4700000002,"ADDRESS":"國平路５８７號三樓之１","OBJECTID":510744},"geometry":{"x":165064.61000000034,"y":2544106.4700000044}},{"attributes":{"ID":510772,"DIS_CODE":0,"TOWNNAME":"安平區","LI":"平通里","LIN":"1鄰","STREET":"國平路","SECT":" ","MAREA":" ","LANE":" ","ALLEY":" ","HOUSE_NO":"５８７號三樓之６","E_COORD97":165064.60999999999,"N_COORD97":2544106.4700000002,"ADDRESS":"國平路５８７號三樓之６","OBJECTID":510745},"geometry":{"x":165064.61000000034,"y":2544106.4700000044}},{"attributes":{"ID":510773,"DIS_CODE":0,"TOWNNAME":"安平區","LI":"平通里","LIN":"1鄰","STREET":"國平路","SECT":" ","MAREA":" ","LANE":" ","ALLEY":" ","HOUSE_NO":"５８７號四樓之１０","E_COORD97":165064.60999999999,"N_COORD97":2544106.4700000002,"ADDRESS":"國平路５８７號四樓之１０","OBJECTID":510746},"geometry":{"x":165064.61000000034,"y":2544106.4700000044}},{"attributes":{"ID":510774,"DIS_CODE":0,"TOWNNAME":"安平區","LI":"平通里","LIN":"1鄰","STREET":"國平路","SECT":" ","MAREA":" ","LANE":" ","ALLEY":" ","HOUSE_NO":"５８７號四樓之１５","E_COORD97":165064.60999999999,"N_COORD97":2544106.4700000002,"ADDRESS":"國平路５８７號四樓之１５","OBJECTID":510747},"geometry":{"x":165064.61000000034,"y":2544106.4700000044}},{"attributes":{"ID":510775,"DIS_CODE":0,"TOWNNAME":"安平區","LI":"平通里","LIN":"1鄰","STREET":"國平路","SECT":" ","MAREA":" ","LANE":" ","ALLEY":" ","HOUSE_NO":"５８７號五樓之８","E_COORD97":165064.60999999999,"N_COORD97":2544106.4700000002,"ADDRESS":"國平路５８７號五樓之８","OBJECTID":510748},"geometry":{"x":165064.61000000034,"y":2544106.4700000044}},{"attributes":{"ID":510776,"DIS_CODE":0,"TOWNNAME":"東區","LI":"和平里","LIN":"1鄰","STREET":"仁和路","SECT":" ","MAREA":" ","LANE":" ","ALLEY":" ","HOUSE_NO":"３５號四樓","E_COORD97":171099.45000000001,"N_COORD97":2542097.2200000002,"ADDRESS":"仁和路３５號四樓","OBJECTID":510749},"geometry":{"x":171099.45000000112,"y":2542097.2200000007}},{"attributes":{"ID":510777,"DIS_CODE":0,"TOWNNAME":"安平區","LI":"平通里","LIN":"1鄰","STREET":"國平路","SECT":" ","MAREA":" ","LANE":" ","ALLEY":" ","HOUSE_NO":"５８７號七樓之９","E_COORD97":165064.60999999999,"N_COORD97":2544106.4700000002,"ADDRESS":"國平路５８７號七樓之９","OBJECTID":510750},"geometry":{"x":165064.61000000034,"y":2544106.4700000044}},{"attributes":{"ID":510778,"DIS_CODE":0,"TOWNNAME":"安平區","LI":"平通里","LIN":"1鄰","STREET":"國平路","SECT":" ","MAREA":" ","LANE":" ","ALLEY":" ","HOUSE_NO":"５８７號二樓之１","E_COORD97":165064.60999999999,"N_COORD97":2544106.4700000002,"ADDRESS":"國平路５８７號二樓之１","OBJECTID":510751},"geometry":{"x":165064.61000000034,"y":2544106.4700000044}},{"attributes":{"ID":510779,"DIS_CODE":0,"TOWNNAME":"安平區","LI":"平通里","LIN":"1鄰","STREET":"國平路","SECT":" ","MAREA":" ","LANE":" ","ALLEY":" ","HOUSE_NO":"５８７號三樓之８","E_COORD97":165064.60999999999,"N_COORD97":2544106.4700000002,"ADDRESS":"國平路５８７號三樓之８","OBJECTID":510752},"geometry":{"x":165064.61000000034,"y":2544106.4700000044}},{"attributes":{"ID":510780,"DIS_CODE":0,"TOWNNAME":"安平區","LI":"平通里","LIN":"1鄰","STREET":"國平路","SECT":" ","MAREA":" ","LANE":" ","ALLEY":" ","HOUSE_NO":"５８７號四樓之８","E_COORD97":165064.60999999999,"N_COORD97":2544106.4700000002,"ADDRESS":"國平路５８７號四樓之８","OBJECTID":510753},"geometry":{"x":165064.61000000034,"y":2544106.4700000044}},{"attributes":{"ID":510781,"DIS_CODE":0,"TOWNNAME":"安平區","LI":"平通里","LIN":"1鄰","STREET":"國平路","SECT":" ","MAREA":" ","LANE":" ","ALLEY":" ","HOUSE_NO":"５８７號五樓之９","E_COORD97":165064.60999999999,"N_COORD97":2544106.4700000002,"ADDRESS":"國平路５８７號五樓之９","OBJECTID":510754},"geometry":{"x":165064.61000000034,"y":2544106.4700000044}},{"attributes":{"ID":510782,"DIS_CODE":0,"TOWNNAME":"安平區","LI":"平通里","LIN":"1鄰","STREET":"國平路","SECT":" ","MAREA":" ","LANE":" ","ALLEY":" ","HOUSE_NO":"５８７號五樓之１３","E_COORD97":165064.60999999999,"N_COORD97":2544106.4700000002,"ADDRESS":"國平路５８７號五樓之１３","OBJECTID":510755},"geometry":{"x":165064.61000000034,"y":2544106.4700000044}},{"attributes":{"ID":510783,"DIS_CODE":0,"TOWNNAME":"安平區","LI":"平通里","LIN":"1鄰","STREET":"國平路","SECT":" ","MAREA":" ","LANE":" ","ALLEY":" ","HOUSE_NO":"５８７號六樓之５","E_COORD97":165064.60999999999,"N_COORD97":2544106.4700000002,"ADDRESS":"國平路５８７號六樓之５","OBJECTID":510756},"geometry":{"x":165064.61000000034,"y":2544106.4700000044}},{"attributes":{"ID":510784,"DIS_CODE":0,"TOWNNAME":"安平區","LI":"平通里","LIN":"1鄰","STREET":"國平路","SECT":" ","MAREA":" ","LANE":" ","ALLEY":" ","HOUSE_NO":"５８７號七樓之１","E_COORD97":165064.60999999999,"N_COORD97":2544106.4700000002,"ADDRESS":"國平路５８７號七樓之１","OBJECTID":510757},"geometry":{"x":165064.61000000034,"y":2544106.4700000044}},{"attributes":{"ID":510785,"DIS_CODE":0,"TOWNNAME":"安平區","LI":"平通里","LIN":"1鄰","STREET":"國平路","SECT":" ","MAREA":" ","LANE":" ","ALLEY":" ","HOUSE_NO":"５８７號七樓之６","E_COORD97":165064.60999999999,"N_COORD97":2544106.4700000002,"ADDRESS":"國平路５８７號七樓之６","OBJECTID":510758},"geometry":{"x":165064.61000000034,"y":2544106.4700000044}},{"attributes":{"ID":510786,"DIS_CODE":0,"TOWNNAME":"安平區","LI":"平通里","LIN":"1鄰","STREET":"國平路","SECT":" ","MAREA":" ","LANE":" ","ALLEY":" ","HOUSE_NO":"５８７號七樓之１７","E_COORD97":165064.60999999999,"N_COORD97":2544106.4700000002,"ADDRESS":"國平路５８７號七樓之１７","OBJECTID":510759},"geometry":{"x":165064.61000000034,"y":2544106.4700000044}},{"attributes":{"ID":510787,"DIS_CODE":0,"TOWNNAME":"安平區","LI":"平通里","LIN":"1鄰","STREET":"國平路","SECT":" ","MAREA":" ","LANE":" ","ALLEY":" ","HOUSE_NO":"５８７號五樓之５","E_COORD97":165064.60999999999,"N_COORD97":2544106.4700000002,"ADDRESS":"國平路５８７號五樓之５","OBJECTID":510760},"geometry":{"x":165064.61000000034,"y":2544106.4700000044}},{"attributes":{"ID":510788,"DIS_CODE":0,"TOWNNAME":"安平區","LI":"平通里","LIN":"1鄰","STREET":"國平路","SECT":" ","MAREA":" ","LANE":" ","ALLEY":" ","HOUSE_NO":"５８７號五樓之１６","E_COORD97":165064.60999999999,"N_COORD97":2544106.4700000002,"ADDRESS":"國平路５８７號五樓之１６","OBJECTID":510761},"geometry":{"x":165064.61000000034,"y":2544106.4700000044}},{"attributes":{"ID":510789,"DIS_CODE":0,"TOWNNAME":"安平區","LI":"平通里","LIN":"1鄰","STREET":"國平路","SECT":" ","MAREA":" ","LANE":" ","ALLEY":" ","HOUSE_NO":"５８７號六樓之７","E_COORD97":165064.60999999999,"N_COORD97":2544106.4700000002,"ADDRESS":"國平路５８７號六樓之７","OBJECTID":510762},"geometry":{"x":165064.61000000034,"y":2544106.4700000044}},{"attributes":{"ID":510790,"DIS_CODE":0,"TOWNNAME":"安平區","LI":"平通里","LIN":"1鄰","STREET":"國平路","SECT":" ","MAREA":" ","LANE":" ","ALLEY":" ","HOUSE_NO":"５８７號七樓之１２","E_COORD97":165064.60999999999,"N_COORD97":2544106.4700000002,"ADDRESS":"國平路５８７號七樓之１２","OBJECTID":510763},"geometry":{"x":165064.61000000034,"y":2544106.4700000044}},{"attributes":{"ID":510791,"DIS_CODE":0,"TOWNNAME":"安平區","LI":"平通里","LIN":"1鄰","STREET":"國平路","SECT":" ","MAREA":" ","LANE":" ","ALLEY":" ","HOUSE_NO":"５８７號二樓之１５","E_COORD97":165064.60999999999,"N_COORD97":2544106.4700000002,"ADDRESS":"國平路５８７號二樓之１５","OBJECTID":510764},"geometry":{"x":165064.61000000034,"y":2544106.4700000044}},{"attributes":{"ID":510792,"DIS_CODE":0,"TOWNNAME":"安平區","LI":"平通里","LIN":"1鄰","STREET":"國平路","SECT":" ","MAREA":" ","LANE":" ","ALLEY":" ","HOUSE_NO":"５８７號三樓之７","E_COORD97":165064.60999999999,"N_COORD97":2544106.4700000002,"ADDRESS":"國平路５８７號三樓之７","OBJECTID":510765},"geometry":{"x":165064.61000000034,"y":2544106.4700000044}},{"attributes":{"ID":510793,"DIS_CODE":0,"TOWNNAME":"安平區","LI":"平通里","LIN":"1鄰","STREET":"國平路","SECT":" ","MAREA":" ","LANE":" ","ALLEY":" ","HOUSE_NO":"５８７號三樓之１５","E_COORD97":165064.60999999999,"N_COORD97":2544106.4700000002,"ADDRESS":"國平路５８７號三樓之１５","OBJECTID":510766},"geometry":{"x":165064.61000000034,"y":2544106.4700000044}},{"attributes":{"ID":510794,"DIS_CODE":0,"TOWNNAME":"安平區","LI":"平通里","LIN":"1鄰","STREET":"國平路","SECT":" ","MAREA":" ","LANE":" ","ALLEY":" ","HOUSE_NO":"５８７號四樓之１３","E_COORD97":165064.60999999999,"N_COORD97":2544106.4700000002,"ADDRESS":"國平路５８７號四樓之１３","OBJECTID":510767},"geometry":{"x":165064.61000000034,"y":2544106.4700000044}},{"attributes":{"ID":510795,"DIS_CODE":0,"TOWNNAME":"安平區","LI":"平通里","LIN":"1鄰","STREET":"國平路","SECT":" ","MAREA":" ","LANE":" ","ALLEY":" ","HOUSE_NO":"５８７號五樓之６","E_COORD97":165064.60999999999,"N_COORD97":2544106.4700000002,"ADDRESS":"國平路５８７號五樓之６","OBJECTID":510768},"geometry":{"x":165064.61000000034,"y":2544106.4700000044}},{"attributes":{"ID":510796,"DIS_CODE":0,"TOWNNAME":"安平區","LI":"平通里","LIN":"1鄰","STREET":"國平路","SECT":" ","MAREA":" ","LANE":" ","ALLEY":" ","HOUSE_NO":"５８７號七樓之８","E_COORD97":165064.60999999999,"N_COORD97":2544106.4700000002,"ADDRESS":"國平路５８７號七樓之８","OBJECTID":510769},"geometry":{"x":165064.61000000034,"y":2544106.4700000044}},{"attributes":{"ID":510797,"DIS_CODE":0,"TOWNNAME":"安平區","LI":"平通里","LIN":"1鄰","STREET":"國平路","SECT":" ","MAREA":" ","LANE":" ","ALLEY":" ","HOUSE_NO":"５８７號四樓之１６","E_COORD97":165064.60999999999,"N_COORD97":2544106.4700000002,"ADDRESS":"國平路５８７號四樓之１６","OBJECTID":510770},"geometry":{"x":165064.61000000034,"y":2544106.4700000044}},{"attributes":{"ID":510798,"DIS_CODE":0,"TOWNNAME":"安平區","LI":"平通里","LIN":"1鄰","STREET":"國平路","SECT":" ","MAREA":" ","LANE":" ","ALLEY":" ","HOUSE_NO":"５８７號五樓之７","E_COORD97":165064.60999999999,"N_COORD97":2544106.4700000002,"ADDRESS":"國平路５８７號五樓之７","OBJECTID":510771},"geometry":{"x":165064.61000000034,"y":2544106.4700000044}},{"attributes":{"ID":510799,"DIS_CODE":0,"TOWNNAME":"安平區","LI":"平通里","LIN":"1鄰","STREET":"國平路","SECT":" ","MAREA":" ","LANE":" ","ALLEY":" ","HOUSE_NO":"５８７號四樓之３","E_COORD97":165064.60999999999,"N_COORD97":2544106.4700000002,"ADDRESS":"國平路５８７號四樓之３","OBJECTID":510772},"geometry":{"x":165064.61000000034,"y":2544106.4700000044}},{"attributes":{"ID":510800,"DIS_CODE":0,"TOWNNAME":"安平區","LI":"平通里","LIN":"1鄰","STREET":"國平路","SECT":" ","MAREA":" ","LANE":" ","ALLEY":" ","HOUSE_NO":"５８７號四樓之１１","E_COORD97":165064.60999999999,"N_COORD97":2544106.4700000002,"ADDRESS":"國平路５８７號四樓之１１","OBJECTID":510773},"geometry":{"x":165064.61000000034,"y":2544106.4700000044}},{"attributes":{"ID":510801,"DIS_CODE":0,"TOWNNAME":"安平區","LI":"平通里","LIN":"1鄰","STREET":"國平路","SECT":" ","MAREA":" ","LANE":" ","ALLEY":" ","HOUSE_NO":"５８７號七樓之１５","E_COORD97":165064.60999999999,"N_COORD97":2544106.4700000002,"ADDRESS":"國平路５８７號七樓之１５","OBJECTID":510774},"geometry":{"x":165064.61000000034,"y":2544106.4700000044}},{"attributes":{"ID":510802,"DIS_CODE":0,"TOWNNAME":"安平區","LI":"平通里","LIN":"1鄰","STREET":"國平路","SECT":" ","MAREA":" ","LANE":" ","ALLEY":" ","HOUSE_NO":"５８７號二樓之２","E_COORD97":165064.60999999999,"N_COORD97":2544106.4700000002,"ADDRESS":"國平路５８７號二樓之２","OBJECTID":510775},"geometry":{"x":165064.61000000034,"y":2544106.4700000044}},{"attributes":{"ID":510803,"DIS_CODE":0,"TOWNNAME":"安平區","LI":"平通里","LIN":"1鄰","STREET":"國平路","SECT":" ","MAREA":" ","LANE":" ","ALLEY":" ","HOUSE_NO":"５８７號三樓之９","E_COORD97":165064.60999999999,"N_COORD97":2544106.4700000002,"ADDRESS":"國平路５８７號三樓之９","OBJECTID":510776},"geometry":{"x":165064.61000000034,"y":2544106.4700000044}},{"attributes":{"ID":510804,"DIS_CODE":0,"TOWNNAME":"安平區","LI":"平通里","LIN":"1鄰","STREET":"國平路","SECT":" ","MAREA":" ","LANE":" ","ALLEY":" ","HOUSE_NO":"５８７號三樓之１３","E_COORD97":165064.60999999999,"N_COORD97":2544106.4700000002,"ADDRESS":"國平路５８７號三樓之１３","OBJECTID":510777},"geometry":{"x":165064.61000000034,"y":2544106.4700000044}},{"attributes":{"ID":510805,"DIS_CODE":0,"TOWNNAME":"安平區","LI":"平通里","LIN":"1鄰","STREET":"國平路","SECT":" ","MAREA":" ","LANE":" ","ALLEY":" ","HOUSE_NO":"５８７號四樓之６","E_COORD97":165064.60999999999,"N_COORD97":2544106.4700000002,"ADDRESS":"國平路５８７號四樓之６","OBJECTID":510778},"geometry":{"x":165064.61000000034,"y":2544106.4700000044}},{"attributes":{"ID":510806,"DIS_CODE":0,"TOWNNAME":"安平區","LI":"平通里","LIN":"1鄰","STREET":"國平路","SECT":" ","MAREA":" ","LANE":" ","ALLEY":" ","HOUSE_NO":"５８７號五樓之１１","E_COORD97":165064.60999999999,"N_COORD97":2544106.4700000002,"ADDRESS":"國平路５８７號五樓之１１","OBJECTID":510779},"geometry":{"x":165064.61000000034,"y":2544106.4700000044}},{"attributes":{"ID":510807,"DIS_CODE":0,"TOWNNAME":"安平區","LI":"平通里","LIN":"1鄰","STREET":"國平路","SECT":" ","MAREA":" ","LANE":" ","ALLEY":" ","HOUSE_NO":"５８７號六樓之３","E_COORD97":165064.60999999999,"N_COORD97":2544106.4700000002,"ADDRESS":"國平路５８７號六樓之３","OBJECTID":510780},"geometry":{"x":165064.61000000034,"y":2544106.4700000044}},{"attributes":{"ID":510808,"DIS_CODE":0,"TOWNNAME":"安平區","LI":"平通里","LIN":"1鄰","STREET":"國平路","SECT":" ","MAREA":" ","LANE":" ","ALLEY":" ","HOUSE_NO":"５８７號二樓之５","E_COORD97":165064.60999999999,"N_COORD97":2544106.4700000002,"ADDRESS":"國平路５８７號二樓之５","OBJECTID":510781},"geometry":{"x":165064.61000000034,"y":2544106.4700000044}},{"attributes":{"ID":510809,"DIS_CODE":0,"TOWNNAME":"安平區","LI":"平通里","LIN":"1鄰","STREET":"國平路","SECT":" ","MAREA":" ","LANE":" ","ALLEY":" ","HOUSE_NO":"５８７號二樓之１３","E_COORD97":165064.60999999999,"N_COORD97":2544106.4700000002,"ADDRESS":"國平路５８７號二樓之１３","OBJECTID":510782},"geometry":{"x":165064.61000000034,"y":2544106.4700000044}},{"attributes":{"ID":510810,"DIS_CODE":0,"TOWNNAME":"安平區","LI":"平通里","LIN":"1鄰","STREET":"國平路","SECT":" ","MAREA":" ","LANE":" ","ALLEY":" ","HOUSE_NO":"５８７號三樓之１２","E_COORD97":165064.60999999999,"N_COORD97":2544106.4700000002,"ADDRESS":"國平路５８７號三樓之１２","OBJECTID":510783},"geometry":{"x":165064.61000000034,"y":2544106.4700000044}},{"attributes":{"ID":510811,"DIS_CODE":0,"TOWNNAME":"安平區","LI":"平通里","LIN":"1鄰","STREET":"國平路","SECT":" ","MAREA":" ","LANE":" ","ALLEY":" ","HOUSE_NO":"５８７號四樓之２","E_COORD97":165064.60999999999,"N_COORD97":2544106.4700000002,"ADDRESS":"國平路５８７號四樓之２","OBJECTID":510784},"geometry":{"x":165064.61000000034,"y":2544106.4700000044}},{"attributes":{"ID":510812,"DIS_CODE":0,"TOWNNAME":"安平區","LI":"平通里","LIN":"1鄰","STREET":"國平路","SECT":" ","MAREA":" ","LANE":" ","ALLEY":" ","HOUSE_NO":"５８７號四樓之９","E_COORD97":165064.60999999999,"N_COORD97":2544106.4700000002,"ADDRESS":"國平路５８７號四樓之９","OBJECTID":510785},"geometry":{"x":165064.61000000034,"y":2544106.4700000044}},{"attributes":{"ID":510813,"DIS_CODE":0,"TOWNNAME":"安平區","LI":"平通里","LIN":"1鄰","STREET":"國平路","SECT":" ","MAREA":" ","LANE":" ","ALLEY":" ","HOUSE_NO":"５８７號六樓之２","E_COORD97":165064.60999999999,"N_COORD97":2544106.4700000002,"ADDRESS":"國平路５８７號六樓之２","OBJECTID":510786},"geometry":{"x":165064.61000000034,"y":2544106.4700000044}},{"attributes":{"ID":510814,"DIS_CODE":0,"TOWNNAME":"安平區","LI":"平通里","LIN":"1鄰","STREET":"國平路","SECT":" ","MAREA":" ","LANE":" ","ALLEY":" ","HOUSE_NO":"５８７號六樓之９","E_COORD97":165064.60999999999,"N_COORD97":2544106.4700000002,"ADDRESS":"國平路５８７號六樓之９","OBJECTID":510787},"geometry":{"x":165064.61000000034,"y":2544106.4700000044}},{"attributes":{"ID":510815,"DIS_CODE":0,"TOWNNAME":"安平區","LI":"平通里","LIN":"1鄰","STREET":"國平路","SECT":" ","MAREA":" ","LANE":" ","ALLEY":" ","HOUSE_NO":"５８７號六樓之１２","E_COORD97":165064.60999999999,"N_COORD97":2544106.4700000002,"ADDRESS":"國平路５８７號六樓之１２","OBJECTID":510788},"geometry":{"x":165064.61000000034,"y":2544106.4700000044}},{"attributes":{"ID":510816,"DIS_CODE":0,"TOWNNAME":"安平區","LI":"平通里","LIN":"1鄰","STREET":"國平路","SECT":" ","MAREA":" ","LANE":" ","ALLEY":" ","HOUSE_NO":"５８７號六樓之１６","E_COORD97":165064.60999999999,"N_COORD97":2544106.4700000002,"ADDRESS":"國平路５８７號六樓之１６","OBJECTID":510789},"geometry":{"x":165064.61000000034,"y":2544106.4700000044}},{"attributes":{"ID":510817,"DIS_CODE":0,"TOWNNAME":"安平區","LI":"平通里","LIN":"1鄰","STREET":"國平路","SECT":" ","MAREA":" ","LANE":" ","ALLEY":" ","HOUSE_NO":"５８７號二樓之１０","E_COORD97":165064.60999999999,"N_COORD97":2544106.4700000002,"ADDRESS":"國平路５８７號二樓之１０","OBJECTID":510790},"geometry":{"x":165064.61000000034,"y":2544106.4700000044}},{"attributes":{"ID":510818,"DIS_CODE":0,"TOWNNAME":"安平區","LI":"平通里","LIN":"1鄰","STREET":"國平路","SECT":" ","MAREA":" ","LANE":" ","ALLEY":" ","HOUSE_NO":"５８７號六樓之８","E_COORD97":165064.60999999999,"N_COORD97":2544106.4700000002,"ADDRESS":"國平路５８７號六樓之８","OBJECTID":510791},"geometry":{"x":165064.61000000034,"y":2544106.4700000044}},{"attributes":{"ID":510819,"DIS_CODE":0,"TOWNNAME":"安平區","LI":"平通里","LIN":"1鄰","STREET":"國平路","SECT":" ","MAREA":" ","LANE":" ","ALLEY":" ","HOUSE_NO":"５８７號六樓之１３","E_COORD97":165064.60999999999,"N_COORD97":2544106.4700000002,"ADDRESS":"國平路５８７號六樓之１３","OBJECTID":510792},"geometry":{"x":165064.61000000034,"y":2544106.4700000044}},{"attributes":{"ID":510820,"DIS_CODE":0,"TOWNNAME":"安平區","LI":"平通里","LIN":"1鄰","STREET":"國平路","SECT":" ","MAREA":" ","LANE":" ","ALLEY":" ","HOUSE_NO":"５８７號七樓之２","E_COORD97":165064.60999999999,"N_COORD97":2544106.4700000002,"ADDRESS":"國平路５８７號七樓之２","OBJECTID":510793},"geometry":{"x":165064.61000000034,"y":2544106.4700000044}},{"attributes":{"ID":510821,"DIS_CODE":0,"TOWNNAME":"安平區","LI":"平通里","LIN":"1鄰","STREET":"國平路","SECT":" ","MAREA":" ","LANE":" ","ALLEY":" ","HOUSE_NO":"５８７號二樓之１１","E_COORD97":165064.60999999999,"N_COORD97":2544106.4700000002,"ADDRESS":"國平路５８７號二樓之１１","OBJECTID":510794},"geometry":{"x":165064.61000000034,"y":2544106.4700000044}},{"attributes":{"ID":510822,"DIS_CODE":0,"TOWNNAME":"安平區","LI":"平通里","LIN":"1鄰","STREET":"國平路","SECT":" ","MAREA":" ","LANE":" ","ALLEY":" ","HOUSE_NO":"５８７號三樓之５","E_COORD97":165064.60999999999,"N_COORD97":2544106.4700000002,"ADDRESS":"國平路５８７號三樓之５","OBJECTID":510795},"geometry":{"x":165064.61000000034,"y":2544106.4700000044}},{"attributes":{"ID":510823,"DIS_CODE":0,"TOWNNAME":"安平區","LI":"平通里","LIN":"1鄰","STREET":"國平路","SECT":" ","MAREA":" ","LANE":" ","ALLEY":" ","HOUSE_NO":"５８７號四樓之１２","E_COORD97":165064.60999999999,"N_COORD97":2544106.4700000002,"ADDRESS":"國平路５８７號四樓之１２","OBJECTID":510796},"geometry":{"x":165064.61000000034,"y":2544106.4700000044}},{"attributes":{"ID":510824,"DIS_CODE":0,"TOWNNAME":"安平區","LI":"平通里","LIN":"1鄰","STREET":"國平路","SECT":" ","MAREA":" ","LANE":" ","ALLEY":" ","HOUSE_NO":"５８７號四樓之１７","E_COORD97":165064.60999999999,"N_COORD97":2544106.4700000002,"ADDRESS":"國平路５８７號四樓之１７","OBJECTID":510797},"geometry":{"x":165064.61000000034,"y":2544106.4700000044}},{"attributes":{"ID":510825,"DIS_CODE":0,"TOWNNAME":"安平區","LI":"平通里","LIN":"1鄰","STREET":"國平路","SECT":" ","MAREA":" ","LANE":" ","ALLEY":" ","HOUSE_NO":"５８７號五樓之１７","E_COORD97":165064.60999999999,"N_COORD97":2544106.4700000002,"ADDRESS":"國平路５８７號五樓之１７","OBJECTID":510798},"geometry":{"x":165064.61000000034,"y":2544106.4700000044}},{"attributes":{"ID":510826,"DIS_CODE":0,"TOWNNAME":"安平區","LI":"平通里","LIN":"1鄰","STREET":"國平路","SECT":" ","MAREA":" ","LANE":" ","ALLEY":" ","HOUSE_NO":"５８７號二樓之６","E_COORD97":165064.60999999999,"N_COORD97":2544106.4700000002,"ADDRESS":"國平路５８７號二樓之６","OBJECTID":510799},"geometry":{"x":165064.61000000034,"y":2544106.4700000044}},{"attributes":{"ID":510827,"DIS_CODE":0,"TOWNNAME":"安平區","LI":"平通里","LIN":"1鄰","STREET":"國平路","SECT":" ","MAREA":" ","LANE":" ","ALLEY":" ","HOUSE_NO":"５８７號三樓之１１","E_COORD97":165064.60999999999,"N_COORD97":2544106.4700000002,"ADDRESS":"國平路５８７號三樓之１１","OBJECTID":510800},"geometry":{"x":165064.61000000034,"y":2544106.4700000044}}]}