{"displayFieldName":"TOWNNAME","fieldAliases":{"ID":"ID","DIS_CODE":"DIS_CODE","TOWNNAME":"TOWNNAME","LI":"LI","LIN":"LIN","STREET":"STREET","SECT":"SECT","MAREA":"MAREA","LANE":"LANE","ALLEY":"ALLEY","HOUSE_NO":"HOUSE_NO","E_COORD97":"E_COORD97","N_COORD97":"N_COORD97","ADDRESS":"ADDRESS","OBJECTID":"OBJECTID"},"geometryType":"esriGeometryPoint","spatialReference":{"wkid":102443,"latestWkid":3826},"fields":[{"name":"ID","type":"esriFieldTypeDouble","alias":"ID"},{"name":"DIS_CODE","type":"esriFieldTypeInteger","alias":"DIS_CODE"},{"name":"TOWNNAME","type":"esriFieldTypeString","alias":"TOWNNAME","length":8},{"name":"LI","type":"esriFieldTypeString","alias":"LI","length":8},{"name":"LIN","type":"esriFieldTypeString","alias":"LIN","length":12},{"name":"STREET","type":"esriFieldTypeString","alias":"STREET","length":20},{"name":"SECT","type":"esriFieldTypeString","alias":"SECT","length":8},{"name":"MAREA","type":"esriFieldTypeString","alias":"MAREA","length":12},{"name":"LANE","type":"esriFieldTypeString","alias":"LANE","length":10},{"name":"ALLEY","type":"esriFieldTypeString","alias":"ALLEY","length":10},{"name":"HOUSE_NO","type":"esriFieldTypeString","alias":"HOUSE_NO","length":20},{"name":"E_COORD97","type":"esriFieldTypeDouble","alias":"E_COORD97"},{"name":"N_COORD97","type":"esriFieldTypeDouble","alias":"N_COORD97"},{"name":"ADDRESS","type":"esriFieldTypeString","alias":"ADDRESS","length":50},{"name":"OBJECTID","type":"esriFieldTypeOID","alias":"OBJECTID"}],"features":[{"attributes":{"ID":68401,"DIS_CODE":0,"TOWNNAME":"安平區","LI":"石門里","LIN":"6鄰","STREET":"安北路","SECT":" ","MAREA":" ","LANE":"４０巷","ALLEY":"１７弄","HOUSE_NO":"５５號","E_COORD97":164511.63,"N_COORD97":2544714.6699999999,"ADDRESS":"安北路４０巷１７弄５５號","OBJECTID":68401},"geometry":{"x":164511.62999999896,"y":2544714.6700000037}},{"attributes":{"ID":68402,"DIS_CODE":0,"TOWNNAME":"安平區","LI":"石門里","LIN":"6鄰","STREET":"安北路","SECT":" ","MAREA":" ","LANE":"４０巷","ALLEY":"１７弄","HOUSE_NO":"５７號","E_COORD97":164509.85999999999,"N_COORD97":2544716.7999999998,"ADDRESS":"安北路４０巷１７弄５７號","OBJECTID":68402},"geometry":{"x":164509.86000000034,"y":2544716.8000000007}},{"attributes":{"ID":68403,"DIS_CODE":0,"TOWNNAME":"安平區","LI":"海頭里","LIN":"6鄰","STREET":"安北路","SECT":" ","MAREA":" ","LANE":"１２１巷","ALLEY":"１５弄","HOUSE_NO":"１１號之１","E_COORD97":164293.64999999999,"N_COORD97":2544750.8999999999,"ADDRESS":"安北路１２１巷１５弄１１號之１","OBJECTID":68403},"geometry":{"x":164293.6500000013,"y":2544750.9000000041}},{"attributes":{"ID":68404,"DIS_CODE":0,"TOWNNAME":"安平區","LI":"海頭里","LIN":"6鄰","STREET":"安北路","SECT":" ","MAREA":" ","LANE":"１２１巷","ALLEY":"１５弄","HOUSE_NO":"１１號之２","E_COORD97":164297.07999999999,"N_COORD97":2544748.6000000001,"ADDRESS":"安北路１２１巷１５弄１１號之２","OBJECTID":68404},"geometry":{"x":164297.08000000194,"y":2544748.6000000034}},{"attributes":{"ID":68405,"DIS_CODE":0,"TOWNNAME":"柳營區","LI":"篤農里","LIN":"6鄰","STREET":" ","SECT":" ","MAREA":"小腳腿","LANE":" ","ALLEY":" ","HOUSE_NO":"２２４號之２","E_COORD97":185328.60000000001,"N_COORD97":2576591.8500000001,"ADDRESS":"小腳腿２２４號之２","OBJECTID":68405},"geometry":{"x":185328.60000000149,"y":2576591.8499999996}},{"attributes":{"ID":68406,"DIS_CODE":0,"TOWNNAME":"柳營區","LI":"篤農里","LIN":"6鄰","STREET":" ","SECT":" ","MAREA":"小腳腿","LANE":" ","ALLEY":" ","HOUSE_NO":"２２４號之３","E_COORD97":185332.85000000001,"N_COORD97":2576592.5600000001,"ADDRESS":"小腳腿２２４號之３","OBJECTID":68406},"geometry":{"x":185332.84999999963,"y":2576592.5600000042}},{"attributes":{"ID":68407,"DIS_CODE":0,"TOWNNAME":"永康區","LI":"東橋里","LIN":"7鄰","STREET":"大橋一街","SECT":" ","MAREA":" ","LANE":"３２４巷","ALLEY":" ","HOUSE_NO":"８９號","E_COORD97":171491.32999999999,"N_COORD97":2546439.7400000002,"ADDRESS":"大橋一街３２４巷８９號","OBJECTID":68407},"geometry":{"x":171491.33000000194,"y":2546439.7400000002}},{"attributes":{"ID":68408,"DIS_CODE":0,"TOWNNAME":"北區","LI":"正風里","LIN":"8鄰","STREET":"公園路","SECT":" ","MAREA":" ","LANE":" ","ALLEY":" ","HOUSE_NO":"１０２４號","E_COORD97":169574.17000000001,"N_COORD97":2546416.75,"ADDRESS":"公園路１０２４號","OBJECTID":68408},"geometry":{"x":169574.16999999993,"y":2546416.7500000019}},{"attributes":{"ID":68409,"DIS_CODE":0,"TOWNNAME":"北區","LI":"正風里","LIN":"8鄰","STREET":"公園路","SECT":" ","MAREA":" ","LANE":" ","ALLEY":" ","HOUSE_NO":"１０２６號","E_COORD97":169576.04000000001,"N_COORD97":2546418.9300000002,"ADDRESS":"公園路１０２６號","OBJECTID":68409},"geometry":{"x":169576.0400000019,"y":2546418.9300000016}},{"attributes":{"ID":68410,"DIS_CODE":0,"TOWNNAME":"柳營區","LI":"篤農里","LIN":"6鄰","STREET":" ","SECT":" ","MAREA":"小腳腿","LANE":" ","ALLEY":" ","HOUSE_NO":"２２４號","E_COORD97":185316.39999999999,"N_COORD97":2576589.8799999999,"ADDRESS":"小腳腿２２４號","OBJECTID":68410},"geometry":{"x":185316.40000000037,"y":2576589.8800000008}},{"attributes":{"ID":68411,"DIS_CODE":0,"TOWNNAME":"北區","LI":"正風里","LIN":"8鄰","STREET":"公園路","SECT":" ","MAREA":" ","LANE":" ","ALLEY":" ","HOUSE_NO":"１０２８號","E_COORD97":169579.28,"N_COORD97":2546422.4300000002,"ADDRESS":"公園路１０２８號","OBJECTID":68411},"geometry":{"x":169579.28000000026,"y":2546422.4300000016}},{"attributes":{"ID":68412,"DIS_CODE":0,"TOWNNAME":"北區","LI":"正風里","LIN":"8鄰","STREET":"公園路","SECT":" ","MAREA":" ","LANE":" ","ALLEY":" ","HOUSE_NO":"１０３０號","E_COORD97":169581.48999999999,"N_COORD97":2546427.04,"ADDRESS":"公園路１０３０號","OBJECTID":68412},"geometry":{"x":169581.48999999929,"y":2546427.0400000028}},{"attributes":{"ID":68413,"DIS_CODE":0,"TOWNNAME":"柳營區","LI":"篤農里","LIN":"6鄰","STREET":" ","SECT":" ","MAREA":"小腳腿","LANE":" ","ALLEY":" ","HOUSE_NO":"２２５號","E_COORD97":185296.81,"N_COORD97":2576607.29,"ADDRESS":"小腳腿２２５號","OBJECTID":68413},"geometry":{"x":185296.81000000052,"y":2576607.290000001}},{"attributes":{"ID":68414,"DIS_CODE":0,"TOWNNAME":"柳營區","LI":"篤農里","LIN":"6鄰","STREET":" ","SECT":" ","MAREA":"小腳腿","LANE":" ","ALLEY":" ","HOUSE_NO":"２２６號之１","E_COORD97":185343.22,"N_COORD97":2576590.9900000002,"ADDRESS":"小腳腿２２６號之１","OBJECTID":68414},"geometry":{"x":185343.2200000016,"y":2576590.9900000002}},{"attributes":{"ID":68415,"DIS_CODE":0,"TOWNNAME":"柳營區","LI":"篤農里","LIN":"6鄰","STREET":" ","SECT":" ","MAREA":"小腳腿","LANE":" ","ALLEY":" ","HOUSE_NO":"２２６號","E_COORD97":185339.07999999999,"N_COORD97":2576589.0800000001,"ADDRESS":"小腳腿２２６號","OBJECTID":68415},"geometry":{"x":185339.08000000007,"y":2576589.0800000019}},{"attributes":{"ID":68416,"DIS_CODE":0,"TOWNNAME":"七股區","LI":"三股里","LIN":"7鄰","STREET":" ","SECT":" ","MAREA":"三股","LANE":" ","ALLEY":" ","HOUSE_NO":"６９號之１","E_COORD97":159886.67999999999,"N_COORD97":2555837.6499999999,"ADDRESS":"三股６９號之１","OBJECTID":68416},"geometry":{"x":159886.68000000156,"y":2555837.6500000004}},{"attributes":{"ID":68417,"DIS_CODE":0,"TOWNNAME":"七股區","LI":"三股里","LIN":"7鄰","STREET":" ","SECT":" ","MAREA":"三股","LANE":" ","ALLEY":" ","HOUSE_NO":"６９號之２","E_COORD97":159886.54999999999,"N_COORD97":2555833.0899999999,"ADDRESS":"三股６９號之２","OBJECTID":68417},"geometry":{"x":159886.55000000075,"y":2555833.0900000017}},{"attributes":{"ID":68418,"DIS_CODE":0,"TOWNNAME":"七股區","LI":"三股里","LIN":"7鄰","STREET":" ","SECT":" ","MAREA":"三股","LANE":" ","ALLEY":" ","HOUSE_NO":"６９號之３","E_COORD97":159886.42000000001,"N_COORD97":2555828.5299999998,"ADDRESS":"三股６９號之３","OBJECTID":68418},"geometry":{"x":159886.41999999993,"y":2555828.5300000031}},{"attributes":{"ID":68419,"DIS_CODE":0,"TOWNNAME":"七股區","LI":"三股里","LIN":"7鄰","STREET":" ","SECT":" ","MAREA":"三股","LANE":" ","ALLEY":" ","HOUSE_NO":"６９號","E_COORD97":159888.19,"N_COORD97":2555856.7200000002,"ADDRESS":"三股６９號","OBJECTID":68419},"geometry":{"x":159888.19000000134,"y":2555856.7200000025}},{"attributes":{"ID":68420,"DIS_CODE":0,"TOWNNAME":"安平區","LI":"海頭里","LIN":"6鄰","STREET":"安北路","SECT":" ","MAREA":" ","LANE":"１２１巷","ALLEY":"１５弄","HOUSE_NO":"１１號之３","E_COORD97":164300.51000000001,"N_COORD97":2544751.04,"ADDRESS":"安北路１２１巷１５弄１１號之３","OBJECTID":68420},"geometry":{"x":164300.51000000164,"y":2544751.0399999991}},{"attributes":{"ID":68421,"DIS_CODE":0,"TOWNNAME":"七股區","LI":"三股里","LIN":"7鄰","STREET":" ","SECT":" ","MAREA":"三股","LANE":" ","ALLEY":" ","HOUSE_NO":"７０號","E_COORD97":159830.60000000001,"N_COORD97":2555866.9700000002,"ADDRESS":"三股７０號","OBJECTID":68421},"geometry":{"x":159830.59999999963,"y":2555866.9700000007}},{"attributes":{"ID":68422,"DIS_CODE":0,"TOWNNAME":"七股區","LI":"三股里","LIN":"7鄰","STREET":" ","SECT":" ","MAREA":"三股","LANE":" ","ALLEY":" ","HOUSE_NO":"７１號之１","E_COORD97":159846.42999999999,"N_COORD97":2555867.48,"ADDRESS":"三股７１號之１","OBJECTID":68422},"geometry":{"x":159846.43000000063,"y":2555867.4800000042}},{"attributes":{"ID":68423,"DIS_CODE":0,"TOWNNAME":"七股區","LI":"三股里","LIN":"7鄰","STREET":" ","SECT":" ","MAREA":"三股","LANE":" ","ALLEY":" ","HOUSE_NO":"７１號","E_COORD97":159861.38,"N_COORD97":2555867.3500000001,"ADDRESS":"三股７１號","OBJECTID":68423},"geometry":{"x":159861.37999999989,"y":2555867.3500000034}},{"attributes":{"ID":68424,"DIS_CODE":0,"TOWNNAME":"安平區","LI":"海頭里","LIN":"6鄰","STREET":"安北路","SECT":" ","MAREA":" ","LANE":"１２１巷","ALLEY":"１５弄","HOUSE_NO":"１１號之４","E_COORD97":164302.82000000001,"N_COORD97":2544747.6200000001,"ADDRESS":"安北路１２１巷１５弄１１號之４","OBJECTID":68424},"geometry":{"x":164302.82000000123,"y":2544747.6200000029}},{"attributes":{"ID":68425,"DIS_CODE":0,"TOWNNAME":"安平區","LI":"海頭里","LIN":"6鄰","STREET":"安北路","SECT":" ","MAREA":" ","LANE":"１２１巷","ALLEY":"１５弄","HOUSE_NO":"１３號","E_COORD97":164313.45999999999,"N_COORD97":2544748.1800000002,"ADDRESS":"安北路１２１巷１５弄１３號","OBJECTID":68425},"geometry":{"x":164313.46000000089,"y":2544748.1800000034}},{"attributes":{"ID":68426,"DIS_CODE":0,"TOWNNAME":"安平區","LI":"海頭里","LIN":"6鄰","STREET":"安北路","SECT":" ","MAREA":" ","LANE":"１２１巷","ALLEY":"１５弄","HOUSE_NO":"１６號","E_COORD97":164319.82999999999,"N_COORD97":2544738.8700000001,"ADDRESS":"安北路１２１巷１５弄１６號","OBJECTID":68426},"geometry":{"x":164319.83000000101,"y":2544738.8700000029}},{"attributes":{"ID":68427,"DIS_CODE":0,"TOWNNAME":"七股區","LI":"三股里","LIN":"7鄰","STREET":" ","SECT":" ","MAREA":"三股","LANE":" ","ALLEY":" ","HOUSE_NO":"７２號","E_COORD97":159853.57999999999,"N_COORD97":2555846.5699999998,"ADDRESS":"三股７２號","OBJECTID":68427},"geometry":{"x":159853.58000000007,"y":2555846.570000004}},{"attributes":{"ID":68428,"DIS_CODE":0,"TOWNNAME":"歸仁區","LI":"媽廟里","LIN":"6鄰","STREET":"中正北路","SECT":"三段","MAREA":" ","LANE":"２０５巷","ALLEY":"１１弄","HOUSE_NO":"２１號","E_COORD97":177548.85999999999,"N_COORD97":2543823.7200000002,"ADDRESS":"中正北路三段２０５巷１１弄２１號","OBJECTID":68428},"geometry":{"x":177548.86000000127,"y":2543823.7200000025}},{"attributes":{"ID":68429,"DIS_CODE":0,"TOWNNAME":"北區","LI":"正風里","LIN":"8鄰","STREET":"公園路","SECT":" ","MAREA":" ","LANE":" ","ALLEY":" ","HOUSE_NO":"９９６號之３","E_COORD97":169532.67000000001,"N_COORD97":2546361.25,"ADDRESS":"公園路９９６號之３","OBJECTID":68429},"geometry":{"x":169532.67000000179,"y":2546361.25}},{"attributes":{"ID":68430,"DIS_CODE":0,"TOWNNAME":"七股區","LI":"三股里","LIN":"7鄰","STREET":" ","SECT":" ","MAREA":"三股","LANE":" ","ALLEY":" ","HOUSE_NO":"７３號","E_COORD97":159865.87,"N_COORD97":2555867.3500000001,"ADDRESS":"三股７３號","OBJECTID":68430},"geometry":{"x":159865.87000000104,"y":2555867.3500000034}},{"attributes":{"ID":68431,"DIS_CODE":0,"TOWNNAME":"七股區","LI":"三股里","LIN":"7鄰","STREET":" ","SECT":" ","MAREA":"三股","LANE":" ","ALLEY":" ","HOUSE_NO":"７８號之１","E_COORD97":159817.35999999999,"N_COORD97":2555866.9500000002,"ADDRESS":"三股７８號之１","OBJECTID":68431},"geometry":{"x":159817.36000000127,"y":2555866.9500000011}},{"attributes":{"ID":68432,"DIS_CODE":0,"TOWNNAME":"七股區","LI":"三股里","LIN":"7鄰","STREET":" ","SECT":" ","MAREA":"三股","LANE":" ","ALLEY":" ","HOUSE_NO":"７９號","E_COORD97":159824.51999999999,"N_COORD97":2555844.7799999998,"ADDRESS":"三股７９號","OBJECTID":68432},"geometry":{"x":159824.51999999955,"y":2555844.7800000012}},{"attributes":{"ID":68433,"DIS_CODE":0,"TOWNNAME":"柳營區","LI":"篤農里","LIN":"6鄰","STREET":" ","SECT":" ","MAREA":"小腳腿","LANE":" ","ALLEY":" ","HOUSE_NO":"２２７號之１","E_COORD97":185296.04000000001,"N_COORD97":2576596.6499999999,"ADDRESS":"小腳腿２２７號之１","OBJECTID":68433},"geometry":{"x":185296.04000000097,"y":2576596.6500000022}},{"attributes":{"ID":68434,"DIS_CODE":0,"TOWNNAME":"柳營區","LI":"篤農里","LIN":"6鄰","STREET":" ","SECT":" ","MAREA":"小腳腿","LANE":" ","ALLEY":" ","HOUSE_NO":"２２８號之１","E_COORD97":185320.19,"N_COORD97":2576565.9700000002,"ADDRESS":"小腳腿２２８號之１","OBJECTID":68434},"geometry":{"x":185320.18999999948,"y":2576565.9700000044}},{"attributes":{"ID":68435,"DIS_CODE":0,"TOWNNAME":"柳營區","LI":"篤農里","LIN":"6鄰","STREET":" ","SECT":" ","MAREA":"小腳腿","LANE":" ","ALLEY":" ","HOUSE_NO":"２２８號之２","E_COORD97":185290.82999999999,"N_COORD97":2576569.54,"ADDRESS":"小腳腿２２８號之２","OBJECTID":68435},"geometry":{"x":185290.83000000101,"y":2576569.5399999991}},{"attributes":{"ID":68436,"DIS_CODE":0,"TOWNNAME":"柳營區","LI":"篤農里","LIN":"6鄰","STREET":" ","SECT":" ","MAREA":"小腳腿","LANE":" ","ALLEY":" ","HOUSE_NO":"２２８號","E_COORD97":185310.54000000001,"N_COORD97":2576565.7599999998,"ADDRESS":"小腳腿２２８號","OBJECTID":68436},"geometry":{"x":185310.54000000004,"y":2576565.7599999998}},{"attributes":{"ID":68437,"DIS_CODE":0,"TOWNNAME":"柳營區","LI":"篤農里","LIN":"6鄰","STREET":" ","SECT":" ","MAREA":"小腳腿","LANE":" ","ALLEY":" ","HOUSE_NO":"２２９號之２","E_COORD97":185281.17999999999,"N_COORD97":2576564.5800000001,"ADDRESS":"小腳腿２２９號之２","OBJECTID":68437},"geometry":{"x":185281.18000000063,"y":2576564.5800000038}},{"attributes":{"ID":68438,"DIS_CODE":0,"TOWNNAME":"柳營區","LI":"篤農里","LIN":"6鄰","STREET":" ","SECT":" ","MAREA":"小腳腿","LANE":" ","ALLEY":" ","HOUSE_NO":"２３１號之１","E_COORD97":185246.81,"N_COORD97":2576511.29,"ADDRESS":"小腳腿２３１號之１","OBJECTID":68438},"geometry":{"x":185246.80999999959,"y":2576511.2900000028}},{"attributes":{"ID":68439,"DIS_CODE":0,"TOWNNAME":"柳營區","LI":"篤農里","LIN":"6鄰","STREET":" ","SECT":" ","MAREA":"小腳腿","LANE":" ","ALLEY":" ","HOUSE_NO":"２３１號之２","E_COORD97":185252,"N_COORD97":2576532.5699999998,"ADDRESS":"小腳腿２３１號之２","OBJECTID":68439},"geometry":{"x":185252.00000000093,"y":2576532.5700000022}},{"attributes":{"ID":68440,"DIS_CODE":0,"TOWNNAME":"柳營區","LI":"篤農里","LIN":"6鄰","STREET":" ","SECT":" ","MAREA":"小腳腿","LANE":" ","ALLEY":" ","HOUSE_NO":"２３１號","E_COORD97":185247.59,"N_COORD97":2576519.5299999998,"ADDRESS":"小腳腿２３１號","OBJECTID":68440},"geometry":{"x":185247.59000000171,"y":2576519.5299999993}},{"attributes":{"ID":68441,"DIS_CODE":0,"TOWNNAME":"歸仁區","LI":"媽廟里","LIN":"6鄰","STREET":"中正北路","SECT":"三段","MAREA":" ","LANE":"２０５巷","ALLEY":"１１弄","HOUSE_NO":"１９號","E_COORD97":177572.35999999999,"N_COORD97":2543818.7200000002,"ADDRESS":"中正北路三段２０５巷１１弄１９號","OBJECTID":68441},"geometry":{"x":177572.36000000127,"y":2543818.7200000007}},{"attributes":{"ID":68442,"DIS_CODE":0,"TOWNNAME":"七股區","LI":"竹港里","LIN":"7鄰","STREET":" ","SECT":" ","MAREA":"竹港","LANE":" ","ALLEY":" ","HOUSE_NO":"６７號之８","E_COORD97":164964.54999999999,"N_COORD97":2556696.2400000002,"ADDRESS":"竹港６７號之８","OBJECTID":68442},"geometry":{"x":164964.54999999981,"y":2556696.2400000039}},{"attributes":{"ID":68443,"DIS_CODE":0,"TOWNNAME":"七股區","LI":"竹港里","LIN":"7鄰","STREET":" ","SECT":" ","MAREA":"竹港","LANE":" ","ALLEY":" ","HOUSE_NO":"６７號之９","E_COORD97":164968.85000000001,"N_COORD97":2556696.4700000002,"ADDRESS":"竹港６７號之９","OBJECTID":68443},"geometry":{"x":164968.84999999963,"y":2556696.4700000025}},{"attributes":{"ID":68444,"DIS_CODE":0,"TOWNNAME":"七股區","LI":"竹港里","LIN":"7鄰","STREET":" ","SECT":" ","MAREA":"竹港","LANE":" ","ALLEY":" ","HOUSE_NO":"６７號","E_COORD97":164924.78,"N_COORD97":2556710.1699999999,"ADDRESS":"竹港６７號","OBJECTID":68444},"geometry":{"x":164924.78000000212,"y":2556710.1700000018}},{"attributes":{"ID":68445,"DIS_CODE":0,"TOWNNAME":"七股區","LI":"竹港里","LIN":"7鄰","STREET":" ","SECT":" ","MAREA":"竹港","LANE":" ","ALLEY":" ","HOUSE_NO":"６９號","E_COORD97":164931.60999999999,"N_COORD97":2556737.3199999998,"ADDRESS":"竹港６９號","OBJECTID":68445},"geometry":{"x":164931.61000000127,"y":2556737.3200000022}},{"attributes":{"ID":68446,"DIS_CODE":0,"TOWNNAME":"歸仁區","LI":"媽廟里","LIN":"6鄰","STREET":"中正北路","SECT":"三段","MAREA":" ","LANE":"２０５巷","ALLEY":"１１弄","HOUSE_NO":"２７號","E_COORD97":177545.66,"N_COORD97":2543805.7200000002,"ADDRESS":"中正北路三段２０５巷１１弄２７號","OBJECTID":68446},"geometry":{"x":177545.66000000015,"y":2543805.7200000007}},{"attributes":{"ID":68447,"DIS_CODE":0,"TOWNNAME":"歸仁區","LI":"看東里","LIN":"6鄰","STREET":"成功路","SECT":"一段","MAREA":" ","LANE":"１８７巷","ALLEY":"１３弄","HOUSE_NO":"５號","E_COORD97":178494,"N_COORD97":2540089.4500000002,"ADDRESS":"成功路一段１８７巷１３弄５號","OBJECTID":68447},"geometry":{"x":178494,"y":2540089.4499999993}},{"attributes":{"ID":68448,"DIS_CODE":0,"TOWNNAME":"歸仁區","LI":"媽廟里","LIN":"6鄰","STREET":"中正北路","SECT":"三段","MAREA":" ","LANE":"２０５巷","ALLEY":"１１弄","HOUSE_NO":"２３號","E_COORD97":177547.76000000001,"N_COORD97":2543818.7200000002,"ADDRESS":"中正北路三段２０５巷１１弄２３號","OBJECTID":68448},"geometry":{"x":177547.75999999978,"y":2543818.7200000007}},{"attributes":{"ID":68449,"DIS_CODE":0,"TOWNNAME":"歸仁區","LI":"看東里","LIN":"6鄰","STREET":"成功路","SECT":"一段","MAREA":" ","LANE":"１８７巷","ALLEY":"１３弄","HOUSE_NO":"１６號","E_COORD97":178494.25,"N_COORD97":2540073.4500000002,"ADDRESS":"成功路一段１８７巷１３弄１６號","OBJECTID":68449},"geometry":{"x":178494.25,"y":2540073.4499999993}},{"attributes":{"ID":68450,"DIS_CODE":0,"TOWNNAME":"歸仁區","LI":"媽廟里","LIN":"6鄰","STREET":"中正北路","SECT":"三段","MAREA":" ","LANE":"２０５巷","ALLEY":"１１弄","HOUSE_NO":"１７號","E_COORD97":177567.26000000001,"N_COORD97":2543827.7200000002,"ADDRESS":"中正北路三段２０５巷１１弄１７號","OBJECTID":68450},"geometry":{"x":177567.26000000071,"y":2543827.7200000025}},{"attributes":{"ID":68451,"DIS_CODE":0,"TOWNNAME":"歸仁區","LI":"媽廟里","LIN":"6鄰","STREET":"中正北路","SECT":"三段","MAREA":" ","LANE":"２０５巷","ALLEY":"１１弄","HOUSE_NO":"２９號","E_COORD97":177563.06,"N_COORD97":2543806.7200000002,"ADDRESS":"中正北路三段２０５巷１１弄２９號","OBJECTID":68451},"geometry":{"x":177563.06000000145,"y":2543806.7200000044}},{"attributes":{"ID":68452,"DIS_CODE":0,"TOWNNAME":"關廟區","LI":"五甲里","LIN":"6鄰","STREET":"五甲路","SECT":" ","MAREA":" ","LANE":"３６巷","ALLEY":"１１弄","HOUSE_NO":"２０號","E_COORD97":181195.42000000001,"N_COORD97":2539164.25,"ADDRESS":"五甲路３６巷１１弄２０號","OBJECTID":68452},"geometry":{"x":181195.41999999899,"y":2539164.2500000037}},{"attributes":{"ID":68453,"DIS_CODE":0,"TOWNNAME":"新市區","LI":"港墘里","LIN":"7鄰","STREET":" ","SECT":" ","MAREA":"店頂","LANE":" ","ALLEY":" ","HOUSE_NO":"１２號","E_COORD97":179119.51999999999,"N_COORD97":2553173.25,"ADDRESS":"店頂１２號","OBJECTID":68453},"geometry":{"x":179119.52000000142,"y":2553173.2500000037}},{"attributes":{"ID":68454,"DIS_CODE":0,"TOWNNAME":"新市區","LI":"永就里","LIN":"7鄰","STREET":" ","SECT":" ","MAREA":"永就","LANE":" ","ALLEY":" ","HOUSE_NO":"８０號","E_COORD97":177617.01000000001,"N_COORD97":2551538,"ADDRESS":"永就８０號","OBJECTID":68454},"geometry":{"x":177617.01000000071,"y":2551538.0000000019}},{"attributes":{"ID":68455,"DIS_CODE":0,"TOWNNAME":"關廟區","LI":"布袋里","LIN":"6鄰","STREET":"南雄南路","SECT":" ","MAREA":" ","LANE":"３１８巷","ALLEY":"８弄","HOUSE_NO":"６號","E_COORD97":183443.14000000001,"N_COORD97":2535037.2999999998,"ADDRESS":"南雄南路３１８巷８弄６號","OBJECTID":68455},"geometry":{"x":183443.13999999873,"y":2535037.3000000007}},{"attributes":{"ID":68456,"DIS_CODE":0,"TOWNNAME":"關廟區","LI":"北勢里","LIN":"6鄰","STREET":"中正路","SECT":" ","MAREA":" ","LANE":"７３８巷","ALLEY":"１５弄","HOUSE_NO":"１２號","E_COORD97":181571.66,"N_COORD97":2540353.25,"ADDRESS":"中正路７３８巷１５弄１２號","OBJECTID":68456},"geometry":{"x":181571.66000000015,"y":2540353.25}},{"attributes":{"ID":68457,"DIS_CODE":0,"TOWNNAME":"新市區","LI":"永就里","LIN":"7鄰","STREET":" ","SECT":" ","MAREA":"永就","LANE":" ","ALLEY":" ","HOUSE_NO":"７５之５號","E_COORD97":177630.89999999999,"N_COORD97":2551501.7999999998,"ADDRESS":"永就７５之５號","OBJECTID":68457},"geometry":{"x":177630.90000000037,"y":2551501.8000000007}},{"attributes":{"ID":68458,"DIS_CODE":0,"TOWNNAME":"柳營區","LI":"篤農里","LIN":"6鄰","STREET":" ","SECT":" ","MAREA":"小腳腿","LANE":" ","ALLEY":" ","HOUSE_NO":"２３３號之１","E_COORD97":185237.75,"N_COORD97":2576495.0899999999,"ADDRESS":"小腳腿２３３號之１","OBJECTID":68458},"geometry":{"x":185237.75,"y":2576495.0899999999}},{"attributes":{"ID":68459,"DIS_CODE":0,"TOWNNAME":"柳營區","LI":"篤農里","LIN":"6鄰","STREET":" ","SECT":" ","MAREA":"小腳腿","LANE":" ","ALLEY":" ","HOUSE_NO":"２３３號","E_COORD97":185246.04999999999,"N_COORD97":2576502.25,"ADDRESS":"小腳腿２３３號","OBJECTID":68459},"geometry":{"x":185246.05000000168,"y":2576502.2500000037}},{"attributes":{"ID":68460,"DIS_CODE":0,"TOWNNAME":"安南區","LI":"\u25A0田里","LIN":"7鄰","STREET":"工業二路","SECT":" ","MAREA":" ","LANE":" ","ALLEY":" ","HOUSE_NO":"２８號","E_COORD97":163700.44,"N_COORD97":2548522.3300000001,"ADDRESS":"工業二路２８號","OBJECTID":68460},"geometry":{"x":163700.44000000134,"y":2548522.3300000019}},{"attributes":{"ID":68461,"DIS_CODE":0,"TOWNNAME":"柳營區","LI":"篤農里","LIN":"6鄰","STREET":" ","SECT":" ","MAREA":"小腳腿","LANE":" ","ALLEY":" ","HOUSE_NO":"２３４號","E_COORD97":185286,"N_COORD97":2576488.0299999998,"ADDRESS":"小腳腿２３４號","OBJECTID":68461},"geometry":{"x":185286.00000000093,"y":2576488.0299999993}},{"attributes":{"ID":68462,"DIS_CODE":0,"TOWNNAME":"安南區","LI":"\u25A0田里","LIN":"7鄰","STREET":"工環路","SECT":" ","MAREA":" ","LANE":" ","ALLEY":" ","HOUSE_NO":"１１號","E_COORD97":163778.64999999999,"N_COORD97":2548653.1400000001,"ADDRESS":"工環路１１號","OBJECTID":68462},"geometry":{"x":163778.6500000013,"y":2548653.1400000025}},{"attributes":{"ID":68463,"DIS_CODE":0,"TOWNNAME":"柳營區","LI":"重溪里","LIN":"6鄰","STREET":" ","SECT":" ","MAREA":"小腳腿","LANE":" ","ALLEY":" ","HOUSE_NO":"５２號之１","E_COORD97":185145.19,"N_COORD97":2576582.1299999999,"ADDRESS":"小腳腿５２號之１","OBJECTID":68463},"geometry":{"x":185145.19000000041,"y":2576582.129999999}},{"attributes":{"ID":68464,"DIS_CODE":0,"TOWNNAME":"柳營區","LI":"重溪里","LIN":"6鄰","STREET":" ","SECT":" ","MAREA":"小腳腿","LANE":" ","ALLEY":" ","HOUSE_NO":"５２號","E_COORD97":185127.34,"N_COORD97":2576590.04,"ADDRESS":"小腳腿５２號","OBJECTID":68464},"geometry":{"x":185127.34000000078,"y":2576590.0399999991}},{"attributes":{"ID":68465,"DIS_CODE":0,"TOWNNAME":"柳營區","LI":"重溪里","LIN":"6鄰","STREET":" ","SECT":" ","MAREA":"小腳腿","LANE":" ","ALLEY":" ","HOUSE_NO":"５３號","E_COORD97":185180.84,"N_COORD97":2576615.0600000001,"ADDRESS":"小腳腿５３號","OBJECTID":68465},"geometry":{"x":185180.83999999985,"y":2576615.0600000005}},{"attributes":{"ID":68466,"DIS_CODE":0,"TOWNNAME":"安南區","LI":"\u25A0田里","LIN":"7鄰","STREET":"工業二路","SECT":" ","MAREA":" ","LANE":" ","ALLEY":" ","HOUSE_NO":"１８號","E_COORD97":163770.67999999999,"N_COORD97":2548410.0600000001,"ADDRESS":"工業二路１８號","OBJECTID":68466},"geometry":{"x":163770.68000000063,"y":2548410.0600000005}},{"attributes":{"ID":68467,"DIS_CODE":0,"TOWNNAME":"安南區","LI":"城北里","LIN":"7鄰","STREET":"安中路","SECT":"六段","MAREA":" ","LANE":" ","ALLEY":" ","HOUSE_NO":"２１８之２號","E_COORD97":161567.75,"N_COORD97":2551320.5600000001,"ADDRESS":"安中路六段２１８之２號","OBJECTID":68467},"geometry":{"x":161567.75,"y":2551320.5600000042}},{"attributes":{"ID":68468,"DIS_CODE":0,"TOWNNAME":"新市區","LI":"豐華里","LIN":"7鄰","STREET":" ","SECT":" ","MAREA":"豐華","LANE":" ","ALLEY":" ","HOUSE_NO":"６０之２號","E_COORD97":175071.20000000001,"N_COORD97":2553862.5499999998,"ADDRESS":"豐華６０之２號","OBJECTID":68468},"geometry":{"x":175071.20000000112,"y":2553862.5500000007}},{"attributes":{"ID":68469,"DIS_CODE":0,"TOWNNAME":"關廟區","LI":"北勢里","LIN":"6鄰","STREET":"中正路","SECT":" ","MAREA":" ","LANE":"７０６巷","ALLEY":"７弄","HOUSE_NO":"６號","E_COORD97":181672.35999999999,"N_COORD97":2540369.25,"ADDRESS":"中正路７０６巷７弄６號","OBJECTID":68469},"geometry":{"x":181672.36000000034,"y":2540369.2500000019}},{"attributes":{"ID":68470,"DIS_CODE":0,"TOWNNAME":"新市區","LI":"豐華里","LIN":"7鄰","STREET":" ","SECT":" ","MAREA":"豐華","LANE":" ","ALLEY":" ","HOUSE_NO":"６５之２２號","E_COORD97":175593.59,"N_COORD97":2554204.5499999998,"ADDRESS":"豐華６５之２２號","OBJECTID":68470},"geometry":{"x":175593.59000000078,"y":2554204.5500000007}},{"attributes":{"ID":68471,"DIS_CODE":0,"TOWNNAME":"新市區","LI":"豐華里","LIN":"7鄰","STREET":" ","SECT":" ","MAREA":"豐華","LANE":" ","ALLEY":" ","HOUSE_NO":"６０之１號","E_COORD97":175055.04000000001,"N_COORD97":2553859.0499999998,"ADDRESS":"豐華６０之１號","OBJECTID":68471},"geometry":{"x":175055.04000000097,"y":2553859.0500000007}},{"attributes":{"ID":68472,"DIS_CODE":0,"TOWNNAME":"麻豆區","LI":"寮\u25A0里","LIN":"7鄰","STREET":" ","SECT":" ","MAREA":"寮子\u25A0","LANE":" ","ALLEY":" ","HOUSE_NO":"５４號之１０","E_COORD97":176973.85000000001,"N_COORD97":2565228.9399999999,"ADDRESS":"寮子\u25A0５４號之１０","OBJECTID":68472},"geometry":{"x":176973.84999999963,"y":2565228.9400000013}},{"attributes":{"ID":68473,"DIS_CODE":0,"TOWNNAME":"麻豆區","LI":"寮\u25A0里","LIN":"7鄰","STREET":" ","SECT":" ","MAREA":"寮子\u25A0","LANE":" ","ALLEY":" ","HOUSE_NO":"５４號之２","E_COORD97":176977.07000000001,"N_COORD97":2565271.6400000001,"ADDRESS":"寮子\u25A0５４號之２","OBJECTID":68473},"geometry":{"x":176977.0700000003,"y":2565271.6400000043}},{"attributes":{"ID":68474,"DIS_CODE":0,"TOWNNAME":"麻豆區","LI":"寮\u25A0里","LIN":"7鄰","STREET":" ","SECT":" ","MAREA":"寮子\u25A0","LANE":" ","ALLEY":" ","HOUSE_NO":"５４號之３","E_COORD97":176975.53,"N_COORD97":2565267.1200000001,"ADDRESS":"寮子\u25A0５４號之３","OBJECTID":68474},"geometry":{"x":176975.53000000026,"y":2565267.120000001}},{"attributes":{"ID":68475,"DIS_CODE":0,"TOWNNAME":"麻豆區","LI":"寮\u25A0里","LIN":"7鄰","STREET":" ","SECT":" ","MAREA":"寮子\u25A0","LANE":" ","ALLEY":" ","HOUSE_NO":"５４號之６","E_COORD97":176967.38,"N_COORD97":2565247.6299999999,"ADDRESS":"寮子\u25A0５４號之６","OBJECTID":68475},"geometry":{"x":176967.37999999989,"y":2565247.6300000008}},{"attributes":{"ID":68476,"DIS_CODE":0,"TOWNNAME":"麻豆區","LI":"寮\u25A0里","LIN":"7鄰","STREET":" ","SECT":" ","MAREA":"寮子\u25A0","LANE":" ","ALLEY":" ","HOUSE_NO":"５４號之９","E_COORD97":176975.16,"N_COORD97":2565233.1499999999,"ADDRESS":"寮子\u25A0５４號之９","OBJECTID":68476},"geometry":{"x":176975.16000000108,"y":2565233.1500000004}},{"attributes":{"ID":68477,"DIS_CODE":0,"TOWNNAME":"麻豆區","LI":"寮\u25A0里","LIN":"7鄰","STREET":" ","SECT":" ","MAREA":"寮子\u25A0","LANE":" ","ALLEY":" ","HOUSE_NO":"５５號之１","E_COORD97":176938.51000000001,"N_COORD97":2565235.77,"ADDRESS":"寮子\u25A0５５號之１","OBJECTID":68477},"geometry":{"x":176938.51000000071,"y":2565235.7700000033}},{"attributes":{"ID":68478,"DIS_CODE":0,"TOWNNAME":"麻豆區","LI":"寮\u25A0里","LIN":"7鄰","STREET":" ","SECT":" ","MAREA":"寮子\u25A0","LANE":" ","ALLEY":" ","HOUSE_NO":"５５號之２","E_COORD97":176929.23000000001,"N_COORD97":2565251.7599999998,"ADDRESS":"寮子\u25A0５５號之２","OBJECTID":68478},"geometry":{"x":176929.23000000138,"y":2565251.7599999998}},{"attributes":{"ID":68479,"DIS_CODE":0,"TOWNNAME":"麻豆區","LI":"寮\u25A0里","LIN":"7鄰","STREET":" ","SECT":" ","MAREA":"寮子\u25A0","LANE":" ","ALLEY":" ","HOUSE_NO":"５５號之３","E_COORD97":176930.87,"N_COORD97":2565255.3599999999,"ADDRESS":"寮子\u25A0５５號之３","OBJECTID":68479},"geometry":{"x":176930.86999999918,"y":2565255.3600000031}},{"attributes":{"ID":68480,"DIS_CODE":0,"TOWNNAME":"麻豆區","LI":"寮\u25A0里","LIN":"7鄰","STREET":" ","SECT":" ","MAREA":"寮子\u25A0","LANE":" ","ALLEY":" ","HOUSE_NO":"５５號之４","E_COORD97":176931.78,"N_COORD97":2565266.8799999999,"ADDRESS":"寮子\u25A0５５號之４","OBJECTID":68480},"geometry":{"x":176931.78000000212,"y":2565266.879999999}},{"attributes":{"ID":68481,"DIS_CODE":0,"TOWNNAME":"麻豆區","LI":"寮\u25A0里","LIN":"7鄰","STREET":" ","SECT":" ","MAREA":"寮子\u25A0","LANE":" ","ALLEY":" ","HOUSE_NO":"５８號","E_COORD97":176858.80375399999,"N_COORD97":2565274.1857400001,"ADDRESS":"寮子\u25A0５８號","OBJECTID":68481},"geometry":{"x":176858.80375399999,"y":2565274.1857400015}},{"attributes":{"ID":68482,"DIS_CODE":0,"TOWNNAME":"麻豆區","LI":"寮\u25A0里","LIN":"7鄰","STREET":" ","SECT":" ","MAREA":"寮子\u25A0","LANE":" ","ALLEY":" ","HOUSE_NO":"５９號之１","E_COORD97":176875.57000000001,"N_COORD97":2565199.29,"ADDRESS":"寮子\u25A0５９號之１","OBJECTID":68482},"geometry":{"x":176875.57000000216,"y":2565199.290000001}},{"attributes":{"ID":68483,"DIS_CODE":0,"TOWNNAME":"鹽水區","LI":"大豐里","LIN":"6鄰","STREET":" ","SECT":" ","MAREA":"大豐","LANE":" ","ALLEY":" ","HOUSE_NO":"３７號","E_COORD97":170448.48000000001,"N_COORD97":2573735.0800000001,"ADDRESS":"大豐３７號","OBJECTID":68483},"geometry":{"x":170448.48000000138,"y":2573735.0800000019}},{"attributes":{"ID":68484,"DIS_CODE":0,"TOWNNAME":"麻豆區","LI":"寮\u25A0里","LIN":"7鄰","STREET":" ","SECT":" ","MAREA":"寮子\u25A0","LANE":" ","ALLEY":" ","HOUSE_NO":"５９號之２","E_COORD97":176871.85999999999,"N_COORD97":2565200.5899999999,"ADDRESS":"寮子\u25A0５９號之２","OBJECTID":68484},"geometry":{"x":176871.8599999994,"y":2565200.5900000017}},{"attributes":{"ID":68485,"DIS_CODE":0,"TOWNNAME":"新市區","LI":"新和里","LIN":"7鄰","STREET":"富強路","SECT":" ","MAREA":" ","LANE":" ","ALLEY":" ","HOUSE_NO":"４９號","E_COORD97":177281.12,"N_COORD97":2552419,"ADDRESS":"富強路４９號","OBJECTID":68485},"geometry":{"x":177281.12000000011,"y":2552419.0000000037}},{"attributes":{"ID":68486,"DIS_CODE":0,"TOWNNAME":"後壁區","LI":"侯伯里","LIN":"15鄰","STREET":" ","SECT":" ","MAREA":"後壁寮","LANE":" ","ALLEY":" ","HOUSE_NO":"１２４號","E_COORD97":185203.64999999999,"N_COORD97":2585470.2400000002,"ADDRESS":"後壁寮１２４號","OBJECTID":68486},"geometry":{"x":185203.65000000224,"y":2585470.2400000039}},{"attributes":{"ID":68487,"DIS_CODE":0,"TOWNNAME":"柳營區","LI":"重溪里","LIN":"6鄰","STREET":" ","SECT":" ","MAREA":"小腳腿","LANE":" ","ALLEY":" ","HOUSE_NO":"５４號","E_COORD97":185170.5,"N_COORD97":2576592.4199999999,"ADDRESS":"小腳腿５４號","OBJECTID":68487},"geometry":{"x":185170.50000000093,"y":2576592.4199999981}},{"attributes":{"ID":68488,"DIS_CODE":0,"TOWNNAME":"柳營區","LI":"重溪里","LIN":"6鄰","STREET":" ","SECT":" ","MAREA":"小腳腿","LANE":" ","ALLEY":" ","HOUSE_NO":"５５號之１","E_COORD97":185214.54000000001,"N_COORD97":2576568.96,"ADDRESS":"小腳腿５５號之１","OBJECTID":68488},"geometry":{"x":185214.54000000097,"y":2576568.9600000009}},{"attributes":{"ID":68489,"DIS_CODE":0,"TOWNNAME":"柳營區","LI":"重溪里","LIN":"6鄰","STREET":" ","SECT":" ","MAREA":"小腳腿","LANE":" ","ALLEY":" ","HOUSE_NO":"５５號之２","E_COORD97":185207.10000000001,"N_COORD97":2576569.6000000001,"ADDRESS":"小腳腿５５號之２","OBJECTID":68489},"geometry":{"x":185207.10000000056,"y":2576569.5999999996}},{"attributes":{"ID":68490,"DIS_CODE":0,"TOWNNAME":"柳營區","LI":"重溪里","LIN":"6鄰","STREET":" ","SECT":" ","MAREA":"小腳腿","LANE":" ","ALLEY":" ","HOUSE_NO":"５５號之３","E_COORD97":185198.23000000001,"N_COORD97":2576569.6699999999,"ADDRESS":"小腳腿５５號之３","OBJECTID":68490},"geometry":{"x":185198.23000000138,"y":2576569.6699999999}},{"attributes":{"ID":68491,"DIS_CODE":0,"TOWNNAME":"柳營區","LI":"重溪里","LIN":"6鄰","STREET":" ","SECT":" ","MAREA":"小腳腿","LANE":" ","ALLEY":" ","HOUSE_NO":"５５號之６","E_COORD97":185183.17000000001,"N_COORD97":2576573.1000000001,"ADDRESS":"小腳腿５５號之６","OBJECTID":68491},"geometry":{"x":185183.17000000086,"y":2576573.0999999996}},{"attributes":{"ID":68492,"DIS_CODE":0,"TOWNNAME":"柳營區","LI":"重溪里","LIN":"6鄰","STREET":" ","SECT":" ","MAREA":"小腳腿","LANE":" ","ALLEY":" ","HOUSE_NO":"５５號","E_COORD97":185193.53,"N_COORD97":2576569.98,"ADDRESS":"小腳腿５５號","OBJECTID":68492},"geometry":{"x":185193.53000000026,"y":2576569.9800000023}},{"attributes":{"ID":68493,"DIS_CODE":0,"TOWNNAME":"柳營區","LI":"重溪里","LIN":"6鄰","STREET":" ","SECT":" ","MAREA":"小腳腿","LANE":" ","ALLEY":" ","HOUSE_NO":"５６號之１","E_COORD97":185231.17000000001,"N_COORD97":2576570.1200000001,"ADDRESS":"小腳腿５６號之１","OBJECTID":68493},"geometry":{"x":185231.16999999993,"y":2576570.1200000029}},{"attributes":{"ID":68494,"DIS_CODE":0,"TOWNNAME":"柳營區","LI":"重溪里","LIN":"6鄰","STREET":" ","SECT":" ","MAREA":"小腳腿","LANE":" ","ALLEY":" ","HOUSE_NO":"５６號之２","E_COORD97":185231.89000000001,"N_COORD97":2576574.8300000001,"ADDRESS":"小腳腿５６號之２","OBJECTID":68494},"geometry":{"x":185231.8900000006,"y":2576574.8300000001}},{"attributes":{"ID":68495,"DIS_CODE":0,"TOWNNAME":"柳營區","LI":"重溪里","LIN":"6鄰","STREET":" ","SECT":" ","MAREA":"小腳腿","LANE":" ","ALLEY":" ","HOUSE_NO":"５６號之３","E_COORD97":185232.54000000001,"N_COORD97":2576580.02,"ADDRESS":"小腳腿５６號之３","OBJECTID":68495},"geometry":{"x":185232.54000000004,"y":2576580.0199999996}},{"attributes":{"ID":68496,"DIS_CODE":0,"TOWNNAME":"柳營區","LI":"重溪里","LIN":"6鄰","STREET":" ","SECT":" ","MAREA":"小腳腿","LANE":" ","ALLEY":" ","HOUSE_NO":"５６號之５","E_COORD97":185236.35000000001,"N_COORD97":2576587.29,"ADDRESS":"小腳腿５６號之５","OBJECTID":68496},"geometry":{"x":185236.34999999963,"y":2576587.290000001}},{"attributes":{"ID":68497,"DIS_CODE":0,"TOWNNAME":"柳營區","LI":"重溪里","LIN":"6鄰","STREET":" ","SECT":" ","MAREA":"小腳腿","LANE":" ","ALLEY":" ","HOUSE_NO":"５６號之６","E_COORD97":185239.76000000001,"N_COORD97":2576591.1600000001,"ADDRESS":"小腳腿５６號之６","OBJECTID":68497},"geometry":{"x":185239.76000000071,"y":2576591.1599999983}},{"attributes":{"ID":68498,"DIS_CODE":0,"TOWNNAME":"柳營區","LI":"重溪里","LIN":"6鄰","STREET":" ","SECT":" ","MAREA":"小腳腿","LANE":" ","ALLEY":" ","HOUSE_NO":"５６號之７","E_COORD97":185243.26999999999,"N_COORD97":2576595,"ADDRESS":"小腳腿５６號之７","OBJECTID":68498},"geometry":{"x":185243.27000000048,"y":2576595}},{"attributes":{"ID":68499,"DIS_CODE":0,"TOWNNAME":"柳營區","LI":"重溪里","LIN":"6鄰","STREET":" ","SECT":" ","MAREA":"小腳腿","LANE":" ","ALLEY":" ","HOUSE_NO":"５６號之８","E_COORD97":185246.42999999999,"N_COORD97":2576598.1899999999,"ADDRESS":"小腳腿５６號之８","OBJECTID":68499},"geometry":{"x":185246.4299999997,"y":2576598.1900000013}},{"attributes":{"ID":68500,"DIS_CODE":0,"TOWNNAME":"柳營區","LI":"重溪里","LIN":"6鄰","STREET":" ","SECT":" ","MAREA":"小腳腿","LANE":" ","ALLEY":" ","HOUSE_NO":"５６號","E_COORD97":185230.76000000001,"N_COORD97":2576564.7400000002,"ADDRESS":"小腳腿５６號","OBJECTID":68500},"geometry":{"x":185230.75999999978,"y":2576564.7400000021}},{"attributes":{"ID":68501,"DIS_CODE":0,"TOWNNAME":"柳營區","LI":"重溪里","LIN":"6鄰","STREET":" ","SECT":" ","MAREA":"小腳腿","LANE":" ","ALLEY":" ","HOUSE_NO":"５７號","E_COORD97":185217.35999999999,"N_COORD97":2576603.3100000001,"ADDRESS":"小腳腿５７號","OBJECTID":68501},"geometry":{"x":185217.3600000022,"y":2576603.3100000005}},{"attributes":{"ID":68502,"DIS_CODE":0,"TOWNNAME":"柳營區","LI":"重溪里","LIN":"6鄰","STREET":" ","SECT":" ","MAREA":"小腳腿","LANE":" ","ALLEY":" ","HOUSE_NO":"５８號","E_COORD97":185210.20999999999,"N_COORD97":2576633.1400000001,"ADDRESS":"小腳腿５８號","OBJECTID":68502},"geometry":{"x":185210.21000000089,"y":2576633.1400000025}},{"attributes":{"ID":68503,"DIS_CODE":0,"TOWNNAME":"柳營區","LI":"重溪里","LIN":"6鄰","STREET":" ","SECT":" ","MAREA":"小腳腿","LANE":" ","ALLEY":" ","HOUSE_NO":"６０號之１","E_COORD97":185201.89999999999,"N_COORD97":2576649.2999999998,"ADDRESS":"小腳腿６０號之１","OBJECTID":68503},"geometry":{"x":185201.90000000224,"y":2576649.3000000026}},{"attributes":{"ID":68504,"DIS_CODE":0,"TOWNNAME":"柳營區","LI":"重溪里","LIN":"6鄰","STREET":" ","SECT":" ","MAREA":"小腳腿","LANE":" ","ALLEY":" ","HOUSE_NO":"６０號之２","E_COORD97":185202.31,"N_COORD97":2576660.2400000002,"ADDRESS":"小腳腿６０號之２","OBJECTID":68504},"geometry":{"x":185202.31000000052,"y":2576660.2400000021}},{"attributes":{"ID":68505,"DIS_CODE":0,"TOWNNAME":"柳營區","LI":"重溪里","LIN":"6鄰","STREET":" ","SECT":" ","MAREA":"小腳腿","LANE":" ","ALLEY":" ","HOUSE_NO":"６０號之３","E_COORD97":185202.37,"N_COORD97":2576666.6899999999,"ADDRESS":"小腳腿６０號之３","OBJECTID":68505},"geometry":{"x":185202.37000000104,"y":2576666.6899999995}},{"attributes":{"ID":68506,"DIS_CODE":0,"TOWNNAME":"柳營區","LI":"重溪里","LIN":"6鄰","STREET":" ","SECT":" ","MAREA":"小腳腿","LANE":" ","ALLEY":" ","HOUSE_NO":"６０號之４","E_COORD97":185220.01000000001,"N_COORD97":2576666.3599999999,"ADDRESS":"小腳腿６０號之４","OBJECTID":68506},"geometry":{"x":185220.00999999978,"y":2576666.3599999994}},{"attributes":{"ID":68507,"DIS_CODE":0,"TOWNNAME":"柳營區","LI":"重溪里","LIN":"6鄰","STREET":" ","SECT":" ","MAREA":"小腳腿","LANE":" ","ALLEY":" ","HOUSE_NO":"６０號之５","E_COORD97":185218.38,"N_COORD97":2576659.6899999999,"ADDRESS":"小腳腿６０號之５","OBJECTID":68507},"geometry":{"x":185218.38000000175,"y":2576659.6900000013}},{"attributes":{"ID":68508,"DIS_CODE":0,"TOWNNAME":"柳營區","LI":"重溪里","LIN":"6鄰","STREET":" ","SECT":" ","MAREA":"小腳腿","LANE":" ","ALLEY":" ","HOUSE_NO":"６０號","E_COORD97":185200.79999999999,"N_COORD97":2576645.4199999999,"ADDRESS":"小腳腿６０號","OBJECTID":68508},"geometry":{"x":185200.80000000075,"y":2576645.4199999999}},{"attributes":{"ID":68509,"DIS_CODE":0,"TOWNNAME":"柳營區","LI":"重溪里","LIN":"6鄰","STREET":" ","SECT":" ","MAREA":"小腳腿","LANE":" ","ALLEY":" ","HOUSE_NO":"６１號","E_COORD97":185183.48000000001,"N_COORD97":2576655.27,"ADDRESS":"小腳腿６１號","OBJECTID":68509},"geometry":{"x":185183.48000000138,"y":2576655.2700000014}},{"attributes":{"ID":68510,"DIS_CODE":0,"TOWNNAME":"柳營區","LI":"重溪里","LIN":"6鄰","STREET":" ","SECT":" ","MAREA":"小腳腿","LANE":" ","ALLEY":" ","HOUSE_NO":"６３號之１","E_COORD97":185198.75,"N_COORD97":2576690.8999999999,"ADDRESS":"小腳腿６３號之１","OBJECTID":68510},"geometry":{"x":185198.75,"y":2576690.9000000004}},{"attributes":{"ID":68511,"DIS_CODE":0,"TOWNNAME":"柳營區","LI":"重溪里","LIN":"6鄰","STREET":" ","SECT":" ","MAREA":"小腳腿","LANE":" ","ALLEY":" ","HOUSE_NO":"６３號之２","E_COORD97":185203.26000000001,"N_COORD97":2576690.6099999999,"ADDRESS":"小腳腿６３號之２","OBJECTID":68511},"geometry":{"x":185203.25999999978,"y":2576690.6100000013}},{"attributes":{"ID":68512,"DIS_CODE":0,"TOWNNAME":"柳營區","LI":"重溪里","LIN":"6鄰","STREET":" ","SECT":" ","MAREA":"小腳腿","LANE":" ","ALLEY":" ","HOUSE_NO":"６３號之３","E_COORD97":185207.04999999999,"N_COORD97":2576689.96,"ADDRESS":"小腳腿６３號之３","OBJECTID":68512},"geometry":{"x":185207.05000000168,"y":2576689.9600000028}},{"attributes":{"ID":68513,"DIS_CODE":0,"TOWNNAME":"柳營區","LI":"重溪里","LIN":"6鄰","STREET":" ","SECT":" ","MAREA":"小腳腿","LANE":" ","ALLEY":" ","HOUSE_NO":"６３號之４","E_COORD97":185211.20000000001,"N_COORD97":2576689.79,"ADDRESS":"小腳腿６３號之４","OBJECTID":68513},"geometry":{"x":185211.20000000019,"y":2576689.7899999991}},{"attributes":{"ID":68514,"DIS_CODE":0,"TOWNNAME":"關廟區","LI":"布袋里","LIN":"6鄰","STREET":"長富街","SECT":" ","MAREA":" ","LANE":"５６巷","ALLEY":"１８弄","HOUSE_NO":"８號","E_COORD97":183527.23999999999,"N_COORD97":2534727.2999999998,"ADDRESS":"長富街５６巷１８弄８號","OBJECTID":68514},"geometry":{"x":183527.24000000022,"y":2534727.3000000026}},{"attributes":{"ID":68515,"DIS_CODE":0,"TOWNNAME":"關廟區","LI":"五甲里","LIN":"6鄰","STREET":"五甲路","SECT":" ","MAREA":" ","LANE":"３６巷","ALLEY":"１１弄","HOUSE_NO":"２６號","E_COORD97":181188.51999999999,"N_COORD97":2539161.25,"ADDRESS":"五甲路３６巷１１弄２６號","OBJECTID":68515},"geometry":{"x":181188.52000000048,"y":2539161.2500000019}},{"attributes":{"ID":68516,"DIS_CODE":0,"TOWNNAME":"關廟區","LI":"北花里","LIN":"6鄰","STREET":"四維街","SECT":" ","MAREA":" ","LANE":"３５０巷","ALLEY":"１６弄","HOUSE_NO":"１號","E_COORD97":181934.31,"N_COORD97":2540232.25,"ADDRESS":"四維街３５０巷１６弄１號","OBJECTID":68516},"geometry":{"x":181934.30999999959,"y":2540232.2500000037}},{"attributes":{"ID":68517,"DIS_CODE":0,"TOWNNAME":"中西區","LI":"民生里","LIN":"7鄰","STREET":"大勇街","SECT":" ","MAREA":" ","LANE":" ","ALLEY":" ","HOUSE_NO":"９９號","E_COORD97":167260.39999999999,"N_COORD97":2543379.3700000001,"ADDRESS":"大勇街９９號","OBJECTID":68517},"geometry":{"x":167260.4000000013,"y":2543379.3700000029}},{"attributes":{"ID":68518,"DIS_CODE":0,"TOWNNAME":"柳營區","LI":"重溪里","LIN":"6鄰","STREET":" ","SECT":" ","MAREA":"小腳腿","LANE":" ","ALLEY":" ","HOUSE_NO":"６３號","E_COORD97":185184,"N_COORD97":2576674.2200000002,"ADDRESS":"小腳腿６３號","OBJECTID":68518},"geometry":{"x":185184.00000000093,"y":2576674.2200000025}},{"attributes":{"ID":68519,"DIS_CODE":0,"TOWNNAME":"六甲區","LI":"王爺里","LIN":"6鄰","STREET":" ","SECT":" ","MAREA":"番子坑","LANE":" ","ALLEY":" ","HOUSE_NO":"１７之１號","E_COORD97":188641.63,"N_COORD97":2569483.9900000002,"ADDRESS":"番子坑１７之１號","OBJECTID":68519},"geometry":{"x":188641.63000000082,"y":2569483.9900000021}},{"attributes":{"ID":68520,"DIS_CODE":0,"TOWNNAME":"西港區","LI":"檨林里","LIN":"6鄰","STREET":" ","SECT":" ","MAREA":"檨子林","LANE":" ","ALLEY":" ","HOUSE_NO":"４３號之１","E_COORD97":171323.98000000001,"N_COORD97":2559474.3799999999,"ADDRESS":"檨子林４３號之１","OBJECTID":68520},"geometry":{"x":171323.98000000045,"y":2559474.3800000008}},{"attributes":{"ID":68521,"DIS_CODE":0,"TOWNNAME":"西港區","LI":"檨林里","LIN":"6鄰","STREET":" ","SECT":" ","MAREA":"檨子林","LANE":" ","ALLEY":" ","HOUSE_NO":"４３之２號","E_COORD97":171315.45000000001,"N_COORD97":2559469.73,"ADDRESS":"檨子林４３之２號","OBJECTID":68521},"geometry":{"x":171315.45000000019,"y":2559469.7300000042}},{"attributes":{"ID":68522,"DIS_CODE":0,"TOWNNAME":"西港區","LI":"檨林里","LIN":"6鄰","STREET":" ","SECT":" ","MAREA":"檨子林","LANE":" ","ALLEY":" ","HOUSE_NO":"４３之３號","E_COORD97":171314.42000000001,"N_COORD97":2559466.2200000002,"ADDRESS":"檨子林４３之３號","OBJECTID":68522},"geometry":{"x":171314.42000000086,"y":2559466.2200000007}},{"attributes":{"ID":68523,"DIS_CODE":0,"TOWNNAME":"西港區","LI":"檨林里","LIN":"6鄰","STREET":" ","SECT":" ","MAREA":"檨子林","LANE":" ","ALLEY":" ","HOUSE_NO":"４３號","E_COORD97":171308.62,"N_COORD97":2559455.77,"ADDRESS":"檨子林４３號","OBJECTID":68523},"geometry":{"x":171308.62000000104,"y":2559455.7700000014}},{"attributes":{"ID":68524,"DIS_CODE":0,"TOWNNAME":"西港區","LI":"檨林里","LIN":"6鄰","STREET":" ","SECT":" ","MAREA":"檨子林","LANE":" ","ALLEY":" ","HOUSE_NO":"４５號之１","E_COORD97":171265.94,"N_COORD97":2559471.96,"ADDRESS":"檨子林４５號之１","OBJECTID":68524},"geometry":{"x":171265.94000000134,"y":2559471.9600000046}},{"attributes":{"ID":68525,"DIS_CODE":0,"TOWNNAME":"西港區","LI":"檨林里","LIN":"6鄰","STREET":" ","SECT":" ","MAREA":"檨子林","LANE":" ","ALLEY":" ","HOUSE_NO":"４５號之３","E_COORD97":171287.23000000001,"N_COORD97":2559480.0699999998,"ADDRESS":"檨子林４５號之３","OBJECTID":68525},"geometry":{"x":171287.23000000231,"y":2559480.0700000003}},{"attributes":{"ID":68526,"DIS_CODE":0,"TOWNNAME":"西港區","LI":"檨林里","LIN":"6鄰","STREET":" ","SECT":" ","MAREA":"檨子林","LANE":" ","ALLEY":" ","HOUSE_NO":"４５號","E_COORD97":171261.70999999999,"N_COORD97":2559455.5800000001,"ADDRESS":"檨子林４５號","OBJECTID":68526},"geometry":{"x":171261.71000000089,"y":2559455.5800000001}},{"attributes":{"ID":68527,"DIS_CODE":0,"TOWNNAME":"西港區","LI":"檨林里","LIN":"6鄰","STREET":" ","SECT":" ","MAREA":"檨子林","LANE":" ","ALLEY":" ","HOUSE_NO":"４６號","E_COORD97":171246.31,"N_COORD97":2559494.1699999999,"ADDRESS":"檨子林４６號","OBJECTID":68527},"geometry":{"x":171246.30999999959,"y":2559494.1700000018}},{"attributes":{"ID":68528,"DIS_CODE":0,"TOWNNAME":"西港區","LI":"檨林里","LIN":"6鄰","STREET":" ","SECT":" ","MAREA":"檨子林","LANE":" ","ALLEY":" ","HOUSE_NO":"４７號","E_COORD97":171216.03,"N_COORD97":2559444.5299999998,"ADDRESS":"檨子林４７號","OBJECTID":68528},"geometry":{"x":171216.03000000119,"y":2559444.5299999993}},{"attributes":{"ID":68529,"DIS_CODE":0,"TOWNNAME":"西港區","LI":"檨林里","LIN":"6鄰","STREET":" ","SECT":" ","MAREA":"檨子林","LANE":" ","ALLEY":" ","HOUSE_NO":"４８號之１","E_COORD97":171226.07000000001,"N_COORD97":2559471.1099999999,"ADDRESS":"檨子林４８號之１","OBJECTID":68529},"geometry":{"x":171226.07000000123,"y":2559471.1100000013}},{"attributes":{"ID":68530,"DIS_CODE":0,"TOWNNAME":"西港區","LI":"檨林里","LIN":"6鄰","STREET":" ","SECT":" ","MAREA":"檨子林","LANE":" ","ALLEY":" ","HOUSE_NO":"４８號之５","E_COORD97":171201.01000000001,"N_COORD97":2559485.25,"ADDRESS":"檨子林４８號之５","OBJECTID":68530},"geometry":{"x":171201.00999999978,"y":2559485.25}},{"attributes":{"ID":68531,"DIS_CODE":0,"TOWNNAME":"關廟區","LI":"北花里","LIN":"6鄰","STREET":"四維街","SECT":" ","MAREA":" ","LANE":"３５０巷","ALLEY":"１６弄","HOUSE_NO":"５號","E_COORD97":181932.01000000001,"N_COORD97":2540223.25,"ADDRESS":"四維街３５０巷１６弄５號","OBJECTID":68531},"geometry":{"x":181932.00999999978,"y":2540223.2500000019}},{"attributes":{"ID":68532,"DIS_CODE":0,"TOWNNAME":"關廟區","LI":"北花里","LIN":"6鄰","STREET":"四維街","SECT":" ","MAREA":" ","LANE":"３５０巷","ALLEY":"１６弄","HOUSE_NO":"７號","E_COORD97":181932.01000000001,"N_COORD97":2540218.25,"ADDRESS":"四維街３５０巷１６弄７號","OBJECTID":68532},"geometry":{"x":181932.00999999978,"y":2540218.25}},{"attributes":{"ID":68533,"DIS_CODE":0,"TOWNNAME":"關廟區","LI":"北勢里","LIN":"6鄰","STREET":"中正路","SECT":" ","MAREA":" ","LANE":"７３８巷","ALLEY":"５０弄","HOUSE_NO":"１號","E_COORD97":181649.10999999999,"N_COORD97":2540391.25,"ADDRESS":"中正路７３８巷５０弄１號","OBJECTID":68533},"geometry":{"x":181649.1100000022,"y":2540391.2499999981}},{"attributes":{"ID":68534,"DIS_CODE":0,"TOWNNAME":"關廟區","LI":"新埔里","LIN":"6鄰","STREET":"新埔三街","SECT":" ","MAREA":" ","LANE":"２９巷","ALLEY":"１１弄","HOUSE_NO":"１６號","E_COORD97":181090.76999999999,"N_COORD97":2540969.25,"ADDRESS":"新埔三街２９巷１１弄１６號","OBJECTID":68534},"geometry":{"x":181090.76999999955,"y":2540969.2500000019}},{"attributes":{"ID":68535,"DIS_CODE":0,"TOWNNAME":"關廟區","LI":"新埔里","LIN":"6鄰","STREET":"新埔三街","SECT":" ","MAREA":" ","LANE":"２９巷","ALLEY":"１１弄","HOUSE_NO":"１號","E_COORD97":181121.72,"N_COORD97":2540983.25,"ADDRESS":"新埔三街２９巷１１弄１號","OBJECTID":68535},"geometry":{"x":181121.71999999974,"y":2540983.25}},{"attributes":{"ID":68536,"DIS_CODE":0,"TOWNNAME":"關廟區","LI":"新埔里","LIN":"6鄰","STREET":"新埔三街","SECT":" ","MAREA":" ","LANE":"２９巷","ALLEY":"１１弄","HOUSE_NO":"３號","E_COORD97":181126.01999999999,"N_COORD97":2540972.25,"ADDRESS":"新埔三街２９巷１１弄３號","OBJECTID":68536},"geometry":{"x":181126.01999999955,"y":2540972.2500000019}},{"attributes":{"ID":68537,"DIS_CODE":0,"TOWNNAME":"關廟區","LI":"東勢里","LIN":"6鄰","STREET":"旺萊路","SECT":" ","MAREA":" ","LANE":"２１５巷","ALLEY":"３弄","HOUSE_NO":"１８號","E_COORD97":181905.59,"N_COORD97":2539449.25,"ADDRESS":"旺萊路２１５巷３弄１８號","OBJECTID":68537},"geometry":{"x":181905.58999999985,"y":2539449.2500000019}},{"attributes":{"ID":68538,"DIS_CODE":0,"TOWNNAME":"北區","LI":"元寶里","LIN":"6鄰","STREET":"北園街","SECT":" ","MAREA":" ","LANE":"８巷","ALLEY":"９弄","HOUSE_NO":"５號","E_COORD97":170404.51999999999,"N_COORD97":2545692.98,"ADDRESS":"北園街８巷９弄５號","OBJECTID":68538},"geometry":{"x":170404.52000000142,"y":2545692.9800000042}},{"attributes":{"ID":68539,"DIS_CODE":0,"TOWNNAME":"西港區","LI":"檨林里","LIN":"6鄰","STREET":" ","SECT":" ","MAREA":"檨子林","LANE":" ","ALLEY":" ","HOUSE_NO":"４８號之６","E_COORD97":171201.85000000001,"N_COORD97":2559498.5899999999,"ADDRESS":"檨子林４８號之６","OBJECTID":68539},"geometry":{"x":171201.84999999963,"y":2559498.5900000017}},{"attributes":{"ID":68540,"DIS_CODE":0,"TOWNNAME":"西港區","LI":"檨林里","LIN":"6鄰","STREET":" ","SECT":" ","MAREA":"檨子林","LANE":" ","ALLEY":" ","HOUSE_NO":"４８之７號","E_COORD97":171208.17000000001,"N_COORD97":2559511.1299999999,"ADDRESS":"檨子林４８之７號","OBJECTID":68540},"geometry":{"x":171208.17000000086,"y":2559511.1300000008}},{"attributes":{"ID":68541,"DIS_CODE":0,"TOWNNAME":"西港區","LI":"檨林里","LIN":"6鄰","STREET":" ","SECT":" ","MAREA":"檨子林","LANE":" ","ALLEY":" ","HOUSE_NO":"４８號","E_COORD97":171230.85000000001,"N_COORD97":2559507.0600000001,"ADDRESS":"檨子林４８號","OBJECTID":68541},"geometry":{"x":171230.84999999963,"y":2559507.0600000005}},{"attributes":{"ID":68542,"DIS_CODE":0,"TOWNNAME":"西港區","LI":"檨林里","LIN":"6鄰","STREET":" ","SECT":" ","MAREA":"檨子林","LANE":" ","ALLEY":" ","HOUSE_NO":"４９號之１","E_COORD97":171224.5,"N_COORD97":2559565.9199999999,"ADDRESS":"檨子林４９號之１","OBJECTID":68542},"geometry":{"x":171224.50000000093,"y":2559565.9199999999}},{"attributes":{"ID":68543,"DIS_CODE":0,"TOWNNAME":"西港區","LI":"檨林里","LIN":"6鄰","STREET":" ","SECT":" ","MAREA":"檨子林","LANE":" ","ALLEY":" ","HOUSE_NO":"４９號之３","E_COORD97":171209.69,"N_COORD97":2559540.6299999999,"ADDRESS":"檨子林４９號之３","OBJECTID":68543},"geometry":{"x":171209.69000000134,"y":2559540.6300000008}},{"attributes":{"ID":68544,"DIS_CODE":0,"TOWNNAME":"西港區","LI":"檨林里","LIN":"6鄰","STREET":" ","SECT":" ","MAREA":"檨子林","LANE":" ","ALLEY":" ","HOUSE_NO":"４９之５號","E_COORD97":171112.81,"N_COORD97":2559612.1200000001,"ADDRESS":"檨子林４９之５號","OBJECTID":68544},"geometry":{"x":171112.80999999866,"y":2559612.120000001}},{"attributes":{"ID":68545,"DIS_CODE":0,"TOWNNAME":"西港區","LI":"檨林里","LIN":"6鄰","STREET":" ","SECT":" ","MAREA":"檨子林","LANE":" ","ALLEY":" ","HOUSE_NO":"４９號之５","E_COORD97":171112.81,"N_COORD97":2559612.1200000001,"ADDRESS":"檨子林４９號之５","OBJECTID":68545},"geometry":{"x":171112.80999999866,"y":2559612.120000001}},{"attributes":{"ID":68546,"DIS_CODE":0,"TOWNNAME":"北區","LI":"元寶里","LIN":"6鄰","STREET":"北園街","SECT":" ","MAREA":" ","LANE":"８巷","ALLEY":"９弄","HOUSE_NO":"６號","E_COORD97":170403.17000000001,"N_COORD97":2545701.52,"ADDRESS":"北園街８巷９弄６號","OBJECTID":68546},"geometry":{"x":170403.16999999993,"y":2545701.5199999996}},{"attributes":{"ID":68547,"DIS_CODE":0,"TOWNNAME":"北區","LI":"元寶里","LIN":"6鄰","STREET":"北園街","SECT":" ","MAREA":" ","LANE":"８巷","ALLEY":"９弄","HOUSE_NO":"７號","E_COORD97":170402.26999999999,"N_COORD97":2545708.4900000002,"ADDRESS":"北園街８巷９弄７號","OBJECTID":68547},"geometry":{"x":170402.26999999955,"y":2545708.4900000002}},{"attributes":{"ID":68548,"DIS_CODE":0,"TOWNNAME":"北區","LI":"新勝里","LIN":"6鄰","STREET":"北園街","SECT":" ","MAREA":" ","LANE":"５３巷","ALLEY":"４弄","HOUSE_NO":"１７號","E_COORD97":170306.59,"N_COORD97":2545600.8700000001,"ADDRESS":"北園街５３巷４弄１７號","OBJECTID":68548},"geometry":{"x":170306.59000000078,"y":2545600.8700000029}},{"attributes":{"ID":68549,"DIS_CODE":0,"TOWNNAME":"北區","LI":"新勝里","LIN":"6鄰","STREET":"北園街","SECT":" ","MAREA":" ","LANE":"５３巷","ALLEY":"４弄","HOUSE_NO":"２１號","E_COORD97":170295.76000000001,"N_COORD97":2545621.9500000002,"ADDRESS":"北園街５３巷４弄２１號","OBJECTID":68549},"geometry":{"x":170295.75999999978,"y":2545621.9500000011}},{"attributes":{"ID":68550,"DIS_CODE":0,"TOWNNAME":"中西區","LI":"民生里","LIN":"7鄰","STREET":"大智街","SECT":" ","MAREA":" ","LANE":" ","ALLEY":" ","HOUSE_NO":"１１６號","E_COORD97":167249.29000000001,"N_COORD97":2543344.0600000001,"ADDRESS":"大智街１１６號","OBJECTID":68550},"geometry":{"x":167249.29000000097,"y":2543344.0600000024}},{"attributes":{"ID":68551,"DIS_CODE":0,"TOWNNAME":"西港區","LI":"檨林里","LIN":"6鄰","STREET":" ","SECT":" ","MAREA":"檨子林","LANE":" ","ALLEY":" ","HOUSE_NO":"４９號之６","E_COORD97":171166.37,"N_COORD97":2559658.8500000001,"ADDRESS":"檨子林４９號之６","OBJECTID":68551},"geometry":{"x":171166.37000000104,"y":2559658.8500000015}},{"attributes":{"ID":68552,"DIS_CODE":0,"TOWNNAME":"北門區","LI":"永華里","LIN":"6鄰","STREET":" ","SECT":" ","MAREA":"井子\u25A0","LANE":" ","ALLEY":" ","HOUSE_NO":"５６號","E_COORD97":159020.88,"N_COORD97":2573431.3900000001,"ADDRESS":"井子\u25A0５６號","OBJECTID":68552},"geometry":{"x":159020.87999999896,"y":2573431.3900000025}},{"attributes":{"ID":68553,"DIS_CODE":0,"TOWNNAME":"北門區","LI":"永華里","LIN":"6鄰","STREET":" ","SECT":" ","MAREA":"井子\u25A0","LANE":" ","ALLEY":" ","HOUSE_NO":"５７號","E_COORD97":158978.38,"N_COORD97":2573416.9900000002,"ADDRESS":"井子\u25A0５７號","OBJECTID":68553},"geometry":{"x":158978.37999999989,"y":2573416.9900000021}},{"attributes":{"ID":68554,"DIS_CODE":0,"TOWNNAME":"鹽水區","LI":"大豐里","LIN":"6鄰","STREET":" ","SECT":" ","MAREA":"大豐","LANE":" ","ALLEY":" ","HOUSE_NO":"３８號","E_COORD97":170465.14000000001,"N_COORD97":2573735.4700000002,"ADDRESS":"大豐３８號","OBJECTID":68554},"geometry":{"x":170465.1400000006,"y":2573735.4700000025}},{"attributes":{"ID":68555,"DIS_CODE":0,"TOWNNAME":"北門區","LI":"永華里","LIN":"6鄰","STREET":" ","SECT":" ","MAREA":"井子\u25A0","LANE":" ","ALLEY":" ","HOUSE_NO":"５８號","E_COORD97":158988.04000000001,"N_COORD97":2573416.46,"ADDRESS":"井子\u25A0５８號","OBJECTID":68555},"geometry":{"x":158988.04000000097,"y":2573416.459999999}},{"attributes":{"ID":68556,"DIS_CODE":0,"TOWNNAME":"北門區","LI":"玉港里","LIN":"6鄰","STREET":" ","SECT":" ","MAREA":"灰\u25A0港","LANE":" ","ALLEY":" ","HOUSE_NO":"５４號","E_COORD97":161796.66,"N_COORD97":2573707.79,"ADDRESS":"灰\u25A0港５４號","OBJECTID":68556},"geometry":{"x":161796.66000000108,"y":2573707.790000001}},{"attributes":{"ID":68557,"DIS_CODE":0,"TOWNNAME":"北門區","LI":"玉港里","LIN":"6鄰","STREET":" ","SECT":" ","MAREA":"灰\u25A0港","LANE":" ","ALLEY":" ","HOUSE_NO":"５５號","E_COORD97":161801.14999999999,"N_COORD97":2573687.1800000002,"ADDRESS":"灰\u25A0港５５號","OBJECTID":68557},"geometry":{"x":161801.15000000037,"y":2573687.1799999997}},{"attributes":{"ID":68558,"DIS_CODE":0,"TOWNNAME":"北門區","LI":"玉港里","LIN":"6鄰","STREET":" ","SECT":" ","MAREA":"灰\u25A0港","LANE":" ","ALLEY":" ","HOUSE_NO":"５６號","E_COORD97":161783.07999999999,"N_COORD97":2573692.8399999999,"ADDRESS":"灰\u25A0港５６號","OBJECTID":68558},"geometry":{"x":161783.08000000194,"y":2573692.8399999999}},{"attributes":{"ID":68559,"DIS_CODE":0,"TOWNNAME":"北門區","LI":"玉港里","LIN":"6鄰","STREET":" ","SECT":" ","MAREA":"灰\u25A0港","LANE":" ","ALLEY":" ","HOUSE_NO":"５７號","E_COORD97":161779.72,"N_COORD97":2573669.8199999998,"ADDRESS":"灰\u25A0港５７號","OBJECTID":68559},"geometry":{"x":161779.71999999974,"y":2573669.8200000003}},{"attributes":{"ID":68560,"DIS_CODE":0,"TOWNNAME":"北門區","LI":"玉港里","LIN":"6鄰","STREET":" ","SECT":" ","MAREA":"灰\u25A0港","LANE":" ","ALLEY":" ","HOUSE_NO":"５９號","E_COORD97":161794.97,"N_COORD97":2573647.1299999999,"ADDRESS":"灰\u25A0港５９號","OBJECTID":68560},"geometry":{"x":161794.96999999974,"y":2573647.1299999971}},{"attributes":{"ID":68561,"DIS_CODE":0,"TOWNNAME":"北門區","LI":"玉港里","LIN":"6鄰","STREET":" ","SECT":" ","MAREA":"灰\u25A0港","LANE":" ","ALLEY":" ","HOUSE_NO":"６０號之１","E_COORD97":161788.53,"N_COORD97":2573667.23,"ADDRESS":"灰\u25A0港６０號之１","OBJECTID":68561},"geometry":{"x":161788.52999999933,"y":2573667.2300000004}},{"attributes":{"ID":68562,"DIS_CODE":0,"TOWNNAME":"北區","LI":"新勝里","LIN":"6鄰","STREET":"北園街","SECT":" ","MAREA":" ","LANE":"５３巷","ALLEY":"４弄","HOUSE_NO":"２３號","E_COORD97":170295.82000000001,"N_COORD97":2545626.8300000001,"ADDRESS":"北園街５３巷４弄２３號","OBJECTID":68562},"geometry":{"x":170295.8200000003,"y":2545626.8300000019}},{"attributes":{"ID":68563,"DIS_CODE":0,"TOWNNAME":"北區","LI":"新勝里","LIN":"6鄰","STREET":"北園街","SECT":" ","MAREA":" ","LANE":"５３巷","ALLEY":"４弄","HOUSE_NO":"２７號","E_COORD97":170305.98000000001,"N_COORD97":2545631.9700000002,"ADDRESS":"北園街５３巷４弄２７號","OBJECTID":68563},"geometry":{"x":170305.98000000138,"y":2545631.9699999988}},{"attributes":{"ID":68564,"DIS_CODE":0,"TOWNNAME":"北區","LI":"新勝里","LIN":"6鄰","STREET":"北園街","SECT":" ","MAREA":" ","LANE":"５３巷","ALLEY":"４弄","HOUSE_NO":"２９號","E_COORD97":170306.29999999999,"N_COORD97":2545624.1600000001,"ADDRESS":"北園街５３巷４弄２９號","OBJECTID":68564},"geometry":{"x":170306.30000000168,"y":2545624.160000002}},{"attributes":{"ID":68565,"DIS_CODE":0,"TOWNNAME":"南區","LI":"大林里","LIN":"6鄰","STREET":"大同路","SECT":"二段","MAREA":" ","LANE":"４８２巷","ALLEY":"７２弄","HOUSE_NO":"１７號","E_COORD97":169338.98999999999,"N_COORD97":2541525.48,"ADDRESS":"大同路二段４８２巷７２弄１７號","OBJECTID":68565},"geometry":{"x":169338.99000000022,"y":2541525.4800000004}},{"attributes":{"ID":68566,"DIS_CODE":0,"TOWNNAME":"南區","LI":"大林里","LIN":"6鄰","STREET":"大同路","SECT":"二段","MAREA":" ","LANE":"４８２巷","ALLEY":"７２弄","HOUSE_NO":"１９號","E_COORD97":169342.79000000001,"N_COORD97":2541526.96,"ADDRESS":"大同路二段４８２巷７２弄１９號","OBJECTID":68566},"geometry":{"x":169342.79000000097,"y":2541526.9600000046}},{"attributes":{"ID":68567,"DIS_CODE":0,"TOWNNAME":"中西區","LI":"三合里","LIN":"7鄰","STREET":"信義街","SECT":" ","MAREA":" ","LANE":"４６巷","ALLEY":" ","HOUSE_NO":"６號","E_COORD97":167592.89999999999,"N_COORD97":2544502.8900000001,"ADDRESS":"信義街４６巷６號","OBJECTID":68567},"geometry":{"x":167592.9000000013,"y":2544502.8900000006}},{"attributes":{"ID":68568,"DIS_CODE":0,"TOWNNAME":"北門區","LI":"玉港里","LIN":"6鄰","STREET":" ","SECT":" ","MAREA":"灰\u25A0港","LANE":" ","ALLEY":" ","HOUSE_NO":"６０號","E_COORD97":161778.87,"N_COORD97":2573649.5499999998,"ADDRESS":"灰\u25A0港６０號","OBJECTID":68568},"geometry":{"x":161778.87000000011,"y":2573649.5500000007}},{"attributes":{"ID":68569,"DIS_CODE":0,"TOWNNAME":"後壁區","LI":"後部里","LIN":"6鄰","STREET":" ","SECT":" ","MAREA":"後部","LANE":" ","ALLEY":" ","HOUSE_NO":"５３號之５","E_COORD97":182127.48999999999,"N_COORD97":2586934.02,"ADDRESS":"後部５３號之５","OBJECTID":68569},"geometry":{"x":182127.49000000022,"y":2586934.0199999996}},{"attributes":{"ID":68570,"DIS_CODE":0,"TOWNNAME":"後壁區","LI":"後部里","LIN":"6鄰","STREET":" ","SECT":" ","MAREA":"後部","LANE":" ","ALLEY":" ","HOUSE_NO":"５３號","E_COORD97":182113.22,"N_COORD97":2586944.54,"ADDRESS":"後部５３號","OBJECTID":68570},"geometry":{"x":182113.21999999974,"y":2586944.5399999991}},{"attributes":{"ID":68571,"DIS_CODE":0,"TOWNNAME":"後壁區","LI":"後部里","LIN":"6鄰","STREET":" ","SECT":" ","MAREA":"後部","LANE":" ","ALLEY":" ","HOUSE_NO":"５４號之２","E_COORD97":182139.57000000001,"N_COORD97":2586934.4100000001,"ADDRESS":"後部５４號之２","OBJECTID":68571},"geometry":{"x":182139.57000000123,"y":2586934.410000002}},{"attributes":{"ID":68572,"DIS_CODE":0,"TOWNNAME":"後壁區","LI":"後部里","LIN":"6鄰","STREET":" ","SECT":" ","MAREA":"後部","LANE":" ","ALLEY":" ","HOUSE_NO":"５４號","E_COORD97":182145.98000000001,"N_COORD97":2586929.77,"ADDRESS":"後部５４號","OBJECTID":68572},"geometry":{"x":182145.98000000045,"y":2586929.7699999996}},{"attributes":{"ID":68573,"DIS_CODE":0,"TOWNNAME":"後壁區","LI":"後部里","LIN":"6鄰","STREET":" ","SECT":" ","MAREA":"後部","LANE":" ","ALLEY":" ","HOUSE_NO":"５６號","E_COORD97":182141.60000000001,"N_COORD97":2586981.02,"ADDRESS":"後部５６號","OBJECTID":68573},"geometry":{"x":182141.60000000149,"y":2586981.0200000014}},{"attributes":{"ID":68574,"DIS_CODE":0,"TOWNNAME":"後壁區","LI":"後部里","LIN":"6鄰","STREET":" ","SECT":" ","MAREA":"後部","LANE":" ","ALLEY":" ","HOUSE_NO":"５８號之６","E_COORD97":182112.35000000001,"N_COORD97":2587007.3599999999,"ADDRESS":"後部５８號之６","OBJECTID":68574},"geometry":{"x":182112.34999999963,"y":2587007.3599999994}},{"attributes":{"ID":68575,"DIS_CODE":0,"TOWNNAME":"後壁區","LI":"後部里","LIN":"6鄰","STREET":" ","SECT":" ","MAREA":"後部","LANE":" ","ALLEY":" ","HOUSE_NO":"５８號","E_COORD97":182119.51999999999,"N_COORD97":2586999.4900000002,"ADDRESS":"後部５８號","OBJECTID":68575},"geometry":{"x":182119.51999999955,"y":2586999.4900000002}},{"attributes":{"ID":68576,"DIS_CODE":0,"TOWNNAME":"後壁區","LI":"後部里","LIN":"6鄰","STREET":" ","SECT":" ","MAREA":"後部","LANE":" ","ALLEY":" ","HOUSE_NO":"６１號","E_COORD97":182158.64999999999,"N_COORD97":2586942.5800000001,"ADDRESS":"後部６１號","OBJECTID":68576},"geometry":{"x":182158.65000000037,"y":2586942.5800000038}},{"attributes":{"ID":68577,"DIS_CODE":0,"TOWNNAME":"後壁區","LI":"後部里","LIN":"6鄰","STREET":" ","SECT":" ","MAREA":"後部","LANE":" ","ALLEY":" ","HOUSE_NO":"６２號之１","E_COORD97":182170.35000000001,"N_COORD97":2586934.3900000001,"ADDRESS":"後部６２號之１","OBJECTID":68577},"geometry":{"x":182170.3499999987,"y":2586934.3900000043}},{"attributes":{"ID":68578,"DIS_CODE":0,"TOWNNAME":"後壁區","LI":"後部里","LIN":"6鄰","STREET":" ","SECT":" ","MAREA":"後部","LANE":" ","ALLEY":" ","HOUSE_NO":"６２號之２","E_COORD97":182174.44,"N_COORD97":2586934.6699999999,"ADDRESS":"後部６２號之２","OBJECTID":68578},"geometry":{"x":182174.44000000134,"y":2586934.6699999999}},{"attributes":{"ID":68579,"DIS_CODE":0,"TOWNNAME":"後壁區","LI":"後部里","LIN":"6鄰","STREET":" ","SECT":" ","MAREA":"後部","LANE":" ","ALLEY":" ","HOUSE_NO":"６２號","E_COORD97":182173.94,"N_COORD97":2586960.27,"ADDRESS":"後部６２號","OBJECTID":68579},"geometry":{"x":182173.93999999948,"y":2586960.2699999996}},{"attributes":{"ID":68580,"DIS_CODE":0,"TOWNNAME":"後壁區","LI":"後部里","LIN":"6鄰","STREET":" ","SECT":" ","MAREA":"後部","LANE":" ","ALLEY":" ","HOUSE_NO":"６３號之１","E_COORD97":182182.67000000001,"N_COORD97":2586935.9399999999,"ADDRESS":"後部６３號之１","OBJECTID":68580},"geometry":{"x":182182.67000000086,"y":2586935.9399999976}},{"attributes":{"ID":68581,"DIS_CODE":0,"TOWNNAME":"後壁區","LI":"後部里","LIN":"6鄰","STREET":" ","SECT":" ","MAREA":"後部","LANE":" ","ALLEY":" ","HOUSE_NO":"６３號","E_COORD97":182193.89999999999,"N_COORD97":2586944.6099999999,"ADDRESS":"後部６３號","OBJECTID":68581},"geometry":{"x":182193.90000000037,"y":2586944.6099999994}},{"attributes":{"ID":68582,"DIS_CODE":0,"TOWNNAME":"東山區","LI":"聖賢里","LIN":" ","STREET":" ","SECT":" ","MAREA":"北勢寮","LANE":" ","ALLEY":" ","HOUSE_NO":"９號","E_COORD97":184881.98999999999,"N_COORD97":2579520.9900000002,"ADDRESS":"北勢寮９號","OBJECTID":68582},"geometry":{"x":184881.99000000022,"y":2579520.9900000002}},{"attributes":{"ID":68583,"DIS_CODE":0,"TOWNNAME":"鹽水區","LI":"水秀里","LIN":"6鄰","STREET":" ","SECT":" ","MAREA":"土庫","LANE":" ","ALLEY":" ","HOUSE_NO":"９１號","E_COORD97":175976.06,"N_COORD97":2580157.1600000001,"ADDRESS":"土庫９１號","OBJECTID":68583},"geometry":{"x":175976.05999999959,"y":2580157.1600000001}},{"attributes":{"ID":68584,"DIS_CODE":0,"TOWNNAME":"鹽水區","LI":"水秀里","LIN":"6鄰","STREET":" ","SECT":" ","MAREA":"土庫","LANE":" ","ALLEY":" ","HOUSE_NO":"９２號","E_COORD97":175980.01999999999,"N_COORD97":2580158.6800000002,"ADDRESS":"土庫９２號","OBJECTID":68584},"geometry":{"x":175980.02000000142,"y":2580158.6800000016}},{"attributes":{"ID":68585,"DIS_CODE":0,"TOWNNAME":"鹽水區","LI":"水秀里","LIN":"6鄰","STREET":" ","SECT":" ","MAREA":"土庫","LANE":" ","ALLEY":" ","HOUSE_NO":"９３號","E_COORD97":175983.98000000001,"N_COORD97":2580160.21,"ADDRESS":"土庫９３號","OBJECTID":68585},"geometry":{"x":175983.98000000045,"y":2580160.2100000009}},{"attributes":{"ID":68586,"DIS_CODE":0,"TOWNNAME":"鹽水區","LI":"水秀里","LIN":"6鄰","STREET":" ","SECT":" ","MAREA":"土庫","LANE":" ","ALLEY":" ","HOUSE_NO":"９４號","E_COORD97":175987.95000000001,"N_COORD97":2580161.73,"ADDRESS":"土庫９４號","OBJECTID":68586},"geometry":{"x":175987.95000000205,"y":2580161.7300000023}},{"attributes":{"ID":68587,"DIS_CODE":0,"TOWNNAME":"鹽水區","LI":"水秀里","LIN":"6鄰","STREET":" ","SECT":" ","MAREA":"土庫","LANE":" ","ALLEY":" ","HOUSE_NO":"９５號","E_COORD97":175991.91,"N_COORD97":2580163.25,"ADDRESS":"土庫９５號","OBJECTID":68587},"geometry":{"x":175991.91000000108,"y":2580163.25}},{"attributes":{"ID":68588,"DIS_CODE":0,"TOWNNAME":"鹽水區","LI":"水秀里","LIN":"6鄰","STREET":" ","SECT":" ","MAREA":"土庫","LANE":" ","ALLEY":" ","HOUSE_NO":"９６號","E_COORD97":175995.88,"N_COORD97":2580164.7799999998,"ADDRESS":"土庫９６號","OBJECTID":68588},"geometry":{"x":175995.87999999989,"y":2580164.7799999993}},{"attributes":{"ID":68589,"DIS_CODE":0,"TOWNNAME":"大內區","LI":"內郭里","LIN":"6鄰","STREET":" ","SECT":" ","MAREA":"內庄","LANE":" ","ALLEY":" ","HOUSE_NO":"２０２號","E_COORD97":184811.38,"N_COORD97":2557282.25,"ADDRESS":"內庄２０２號","OBJECTID":68589},"geometry":{"x":184811.37999999989,"y":2557282.2500000037}},{"attributes":{"ID":68590,"DIS_CODE":0,"TOWNNAME":"大內區","LI":"二溪里","LIN":"6鄰","STREET":" ","SECT":" ","MAREA":"二重溪","LANE":" ","ALLEY":" ","HOUSE_NO":"１９７號之１","E_COORD97":187792.38,"N_COORD97":2558019.3100000001,"ADDRESS":"二重溪１９７號之１","OBJECTID":68590},"geometry":{"x":187792.38000000082,"y":2558019.3100000024}},{"attributes":{"ID":68591,"DIS_CODE":0,"TOWNNAME":"大內區","LI":"內江里","LIN":"6鄰","STREET":" ","SECT":" ","MAREA":"內庄","LANE":" ","ALLEY":" ","HOUSE_NO":"２８４號之１","E_COORD97":184485.60999999999,"N_COORD97":2557484.2999999998,"ADDRESS":"內庄２８４號之１","OBJECTID":68591},"geometry":{"x":184485.61000000127,"y":2557484.3000000026}},{"attributes":{"ID":68592,"DIS_CODE":0,"TOWNNAME":"北區","LI":"正風里","LIN":"8鄰","STREET":"公園路","SECT":" ","MAREA":" ","LANE":" ","ALLEY":" ","HOUSE_NO":"９９８號","E_COORD97":169534.29999999999,"N_COORD97":2546364.4300000002,"ADDRESS":"公園路９９８號","OBJECTID":68592},"geometry":{"x":169534.29999999981,"y":2546364.4300000016}},{"attributes":{"ID":68593,"DIS_CODE":0,"TOWNNAME":"中西區","LI":"三合里","LIN":"7鄰","STREET":"信義街","SECT":" ","MAREA":" ","LANE":" ","ALLEY":" ","HOUSE_NO":"１０號","E_COORD97":167618.82999999999,"N_COORD97":2544465.8300000001,"ADDRESS":"信義街１０號","OBJECTID":68593},"geometry":{"x":167618.83000000007,"y":2544465.8300000001}},{"attributes":{"ID":68594,"DIS_CODE":0,"TOWNNAME":"麻豆區","LI":"磚井里","LIN":"7鄰","STREET":" ","SECT":" ","MAREA":"磚子井","LANE":" ","ALLEY":" ","HOUSE_NO":"６７號","E_COORD97":173714.28,"N_COORD97":2563483.9500000002,"ADDRESS":"磚子井６７號","OBJECTID":68594},"geometry":{"x":173714.28000000212,"y":2563483.9499999993}},{"attributes":{"ID":68595,"DIS_CODE":0,"TOWNNAME":"南區","LI":"大林里","LIN":"6鄰","STREET":"大同路","SECT":"二段","MAREA":" ","LANE":"４８２巷","ALLEY":"７２弄","HOUSE_NO":"２１號","E_COORD97":169346.28,"N_COORD97":2541529.1800000002,"ADDRESS":"大同路二段４８２巷７２弄２１號","OBJECTID":68595},"geometry":{"x":169346.28000000119,"y":2541529.1799999997}},{"attributes":{"ID":68596,"DIS_CODE":0,"TOWNNAME":"南區","LI":"大林里","LIN":"6鄰","STREET":"大同路","SECT":"二段","MAREA":" ","LANE":"４８２巷","ALLEY":"７２弄","HOUSE_NO":"２３號","E_COORD97":169350.82000000001,"N_COORD97":2541530.4399999999,"ADDRESS":"大同路二段４８２巷７２弄２３號","OBJECTID":68596},"geometry":{"x":169350.82000000123,"y":2541530.4400000013}},{"attributes":{"ID":68597,"DIS_CODE":0,"TOWNNAME":"安平區","LI":"石門里","LIN":"6鄰","STREET":"安北路","SECT":" ","MAREA":" ","LANE":"４０巷","ALLEY":"１７弄","HOUSE_NO":"２２號之１","E_COORD97":164583.12,"N_COORD97":2544684.0499999998,"ADDRESS":"安北路４０巷１７弄２２號之１","OBJECTID":68597},"geometry":{"x":164583.11999999918,"y":2544684.0500000026}},{"attributes":{"ID":68598,"DIS_CODE":0,"TOWNNAME":"安平區","LI":"石門里","LIN":"6鄰","STREET":"安北路","SECT":" ","MAREA":" ","LANE":"４０巷","ALLEY":"１７弄","HOUSE_NO":"２２號之３","E_COORD97":164600.07000000001,"N_COORD97":2544677.0699999998,"ADDRESS":"安北路４０巷１７弄２２號之３","OBJECTID":68598},"geometry":{"x":164600.0700000003,"y":2544677.0700000003}},{"attributes":{"ID":68599,"DIS_CODE":0,"TOWNNAME":"安平區","LI":"國平里","LIN":"6鄰","STREET":"文平路","SECT":" ","MAREA":" ","LANE":"１８７巷","ALLEY":"８８弄","HOUSE_NO":"１之１０號","E_COORD97":165471.92999999999,"N_COORD97":2543098.3900000001,"ADDRESS":"文平路１８７巷８８弄１之１０號","OBJECTID":68599},"geometry":{"x":165471.9299999997,"y":2543098.3900000006}},{"attributes":{"ID":68600,"DIS_CODE":0,"TOWNNAME":"安平區","LI":"國平里","LIN":"6鄰","STREET":"文平路","SECT":" ","MAREA":" ","LANE":"１８７巷","ALLEY":"８８弄","HOUSE_NO":"１之１１號","E_COORD97":165471.92999999999,"N_COORD97":2543099.7400000002,"ADDRESS":"文平路１８７巷８８弄１之１１號","OBJECTID":68600},"geometry":{"x":165471.9299999997,"y":2543099.7400000002}}]}