{"displayFieldName":"TOWNNAME","fieldAliases":{"ID":"ID","DIS_CODE":"DIS_CODE","TOWNNAME":"TOWNNAME","LI":"LI","LIN":"LIN","STREET":"STREET","SECT":"SECT","MAREA":"MAREA","LANE":"LANE","ALLEY":"ALLEY","HOUSE_NO":"HOUSE_NO","E_COORD97":"E_COORD97","N_COORD97":"N_COORD97","ADDRESS":"ADDRESS","OBJECTID":"OBJECTID"},"geometryType":"esriGeometryPoint","spatialReference":{"wkid":102443,"latestWkid":3826},"fields":[{"name":"ID","type":"esriFieldTypeDouble","alias":"ID"},{"name":"DIS_CODE","type":"esriFieldTypeInteger","alias":"DIS_CODE"},{"name":"TOWNNAME","type":"esriFieldTypeString","alias":"TOWNNAME","length":8},{"name":"LI","type":"esriFieldTypeString","alias":"LI","length":8},{"name":"LIN","type":"esriFieldTypeString","alias":"LIN","length":12},{"name":"STREET","type":"esriFieldTypeString","alias":"STREET","length":20},{"name":"SECT","type":"esriFieldTypeString","alias":"SECT","length":8},{"name":"MAREA","type":"esriFieldTypeString","alias":"MAREA","length":12},{"name":"LANE","type":"esriFieldTypeString","alias":"LANE","length":10},{"name":"ALLEY","type":"esriFieldTypeString","alias":"ALLEY","length":10},{"name":"HOUSE_NO","type":"esriFieldTypeString","alias":"HOUSE_NO","length":20},{"name":"E_COORD97","type":"esriFieldTypeDouble","alias":"E_COORD97"},{"name":"N_COORD97","type":"esriFieldTypeDouble","alias":"N_COORD97"},{"name":"ADDRESS","type":"esriFieldTypeString","alias":"ADDRESS","length":50},{"name":"OBJECTID","type":"esriFieldTypeOID","alias":"OBJECTID"}],"features":[{"attributes":{"ID":540228,"DIS_CODE":0,"TOWNNAME":"永康區","LI":"二王里","LIN":"12鄰","STREET":"永二街","SECT":" ","MAREA":" ","LANE":" ","ALLEY":" ","HOUSE_NO":"４２１號二樓之１","E_COORD97":172802.37,"N_COORD97":2546573.79,"ADDRESS":"永二街４２１號二樓之１","OBJECTID":540201},"geometry":{"x":172802.37000000011,"y":2546573.7899999991}},{"attributes":{"ID":540229,"DIS_CODE":0,"TOWNNAME":"永康區","LI":"二王里","LIN":"12鄰","STREET":"永二街","SECT":" ","MAREA":" ","LANE":" ","ALLEY":" ","HOUSE_NO":"４２５號十一樓之３","E_COORD97":172782.07999999999,"N_COORD97":2546590.2000000002,"ADDRESS":"永二街４２５號十一樓之３","OBJECTID":540202},"geometry":{"x":172782.08000000101,"y":2546590.2000000011}},{"attributes":{"ID":540230,"DIS_CODE":0,"TOWNNAME":"永康區","LI":"二王里","LIN":"12鄰","STREET":"永二街","SECT":" ","MAREA":" ","LANE":" ","ALLEY":" ","HOUSE_NO":"４２３號十一樓之２","E_COORD97":172784.72,"N_COORD97":2546569.98,"ADDRESS":"永二街４２３號十一樓之２","OBJECTID":540203},"geometry":{"x":172784.71999999974,"y":2546569.9800000004}},{"attributes":{"ID":540231,"DIS_CODE":0,"TOWNNAME":"永康區","LI":"二王里","LIN":"12鄰","STREET":"永二街","SECT":" ","MAREA":" ","LANE":" ","ALLEY":" ","HOUSE_NO":"４２３號十三樓之１","E_COORD97":172784.59,"N_COORD97":2546569.98,"ADDRESS":"永二街４２３號十三樓之１","OBJECTID":540204},"geometry":{"x":172784.59000000171,"y":2546569.9800000004}},{"attributes":{"ID":540232,"DIS_CODE":0,"TOWNNAME":"永康區","LI":"二王里","LIN":"12鄰","STREET":"永二街","SECT":" ","MAREA":" ","LANE":" ","ALLEY":" ","HOUSE_NO":"４２５號十樓之２","E_COORD97":172780.85999999999,"N_COORD97":2546590.2000000002,"ADDRESS":"永二街４２５號十樓之２","OBJECTID":540205},"geometry":{"x":172780.86000000034,"y":2546590.2000000011}},{"attributes":{"ID":540233,"DIS_CODE":0,"TOWNNAME":"永康區","LI":"二王里","LIN":"12鄰","STREET":"永二街","SECT":" ","MAREA":" ","LANE":" ","ALLEY":" ","HOUSE_NO":"４２１號五樓之３","E_COORD97":172802.47,"N_COORD97":2546573.79,"ADDRESS":"永二街４２１號五樓之３","OBJECTID":540206},"geometry":{"x":172802.47000000067,"y":2546573.7899999991}},{"attributes":{"ID":540234,"DIS_CODE":0,"TOWNNAME":"永康區","LI":"二王里","LIN":"12鄰","STREET":"永二街","SECT":" ","MAREA":" ","LANE":" ","ALLEY":" ","HOUSE_NO":"４２３號九樓之３","E_COORD97":172783.44,"N_COORD97":2546569.98,"ADDRESS":"永二街４２３號九樓之３","OBJECTID":540207},"geometry":{"x":172783.44000000134,"y":2546569.9800000004}},{"attributes":{"ID":540235,"DIS_CODE":0,"TOWNNAME":"永康區","LI":"二王里","LIN":"12鄰","STREET":"永二街","SECT":" ","MAREA":" ","LANE":" ","ALLEY":" ","HOUSE_NO":"４２３號九樓之１","E_COORD97":172783.34,"N_COORD97":2546569.98,"ADDRESS":"永二街４２３號九樓之１","OBJECTID":540208},"geometry":{"x":172783.34000000078,"y":2546569.9800000004}},{"attributes":{"ID":540236,"DIS_CODE":0,"TOWNNAME":"永康區","LI":"二王里","LIN":"12鄰","STREET":"永二街","SECT":" ","MAREA":" ","LANE":" ","ALLEY":" ","HOUSE_NO":"４１９號十二樓之３","E_COORD97":172828.92000000001,"N_COORD97":2546575.54,"ADDRESS":"永二街４１９號十二樓之３","OBJECTID":540209},"geometry":{"x":172828.91999999993,"y":2546575.5399999991}},{"attributes":{"ID":540237,"DIS_CODE":0,"TOWNNAME":"永康區","LI":"二王里","LIN":"12鄰","STREET":"永二街","SECT":" ","MAREA":" ","LANE":" ","ALLEY":" ","HOUSE_NO":"４２１號十五樓之２","E_COORD97":172803.75,"N_COORD97":2546573.79,"ADDRESS":"永二街４２１號十五樓之２","OBJECTID":540210},"geometry":{"x":172803.74999999907,"y":2546573.7899999991}},{"attributes":{"ID":540238,"DIS_CODE":0,"TOWNNAME":"永康區","LI":"二王里","LIN":"12鄰","STREET":"永二街","SECT":" ","MAREA":" ","LANE":" ","ALLEY":" ","HOUSE_NO":"４２５號十樓之１","E_COORD97":172780.73000000001,"N_COORD97":2546590.2000000002,"ADDRESS":"永二街４２５號十樓之１","OBJECTID":540211},"geometry":{"x":172780.73000000231,"y":2546590.2000000011}},{"attributes":{"ID":540239,"DIS_CODE":0,"TOWNNAME":"永康區","LI":"二王里","LIN":"12鄰","STREET":"永二街","SECT":" ","MAREA":" ","LANE":" ","ALLEY":" ","HOUSE_NO":"４２５號十三樓之１","E_COORD97":172781.98000000001,"N_COORD97":2546590.2000000002,"ADDRESS":"永二街４２５號十三樓之１","OBJECTID":540212},"geometry":{"x":172781.98000000045,"y":2546590.2000000011}},{"attributes":{"ID":540240,"DIS_CODE":0,"TOWNNAME":"永康區","LI":"南灣里","LIN":"13鄰","STREET":"立興街","SECT":" ","MAREA":" ","LANE":" ","ALLEY":" ","HOUSE_NO":"６３號","E_COORD97":174577.51999999999,"N_COORD97":2544795.7000000002,"ADDRESS":"立興街６３號","OBJECTID":540213},"geometry":{"x":174577.51999999955,"y":2544795.7000000011}},{"attributes":{"ID":540241,"DIS_CODE":0,"TOWNNAME":"永康區","LI":"二王里","LIN":"12鄰","STREET":"永二街","SECT":" ","MAREA":" ","LANE":" ","ALLEY":" ","HOUSE_NO":"４１９號六樓之３","E_COORD97":172827.67000000001,"N_COORD97":2546575.54,"ADDRESS":"永二街４１９號六樓之３","OBJECTID":540214},"geometry":{"x":172827.66999999993,"y":2546575.5399999991}},{"attributes":{"ID":540242,"DIS_CODE":0,"TOWNNAME":"永康區","LI":"二王里","LIN":"12鄰","STREET":"永二街","SECT":" ","MAREA":" ","LANE":" ","ALLEY":" ","HOUSE_NO":"４２１號六樓之３","E_COORD97":172802.47,"N_COORD97":2546573.79,"ADDRESS":"永二街４２１號六樓之３","OBJECTID":540215},"geometry":{"x":172802.47000000067,"y":2546573.7899999991}},{"attributes":{"ID":540243,"DIS_CODE":0,"TOWNNAME":"永康區","LI":"二王里","LIN":"12鄰","STREET":"永二街","SECT":" ","MAREA":" ","LANE":" ","ALLEY":" ","HOUSE_NO":"４１３號十五樓","E_COORD97":172804.14000000001,"N_COORD97":2546613.0099999998,"ADDRESS":"永二街４１３號十五樓","OBJECTID":540216},"geometry":{"x":172804.13999999873,"y":2546613.0099999998}},{"attributes":{"ID":540244,"DIS_CODE":0,"TOWNNAME":"永康區","LI":"東灣里","LIN":"23鄰","STREET":"大灣二街","SECT":" ","MAREA":" ","LANE":" ","ALLEY":" ","HOUSE_NO":"６０號","E_COORD97":174861.62,"N_COORD97":2544748.0099999998,"ADDRESS":"大灣二街６０號","OBJECTID":540217},"geometry":{"x":174861.62000000104,"y":2544748.0099999998}},{"attributes":{"ID":540245,"DIS_CODE":0,"TOWNNAME":"永康區","LI":"二王里","LIN":"12鄰","STREET":"永二街","SECT":" ","MAREA":" ","LANE":" ","ALLEY":" ","HOUSE_NO":"４２１號十四樓之２","E_COORD97":172803.75,"N_COORD97":2546573.79,"ADDRESS":"永二街４２１號十四樓之２","OBJECTID":540218},"geometry":{"x":172803.74999999907,"y":2546573.7899999991}},{"attributes":{"ID":540246,"DIS_CODE":0,"TOWNNAME":"永康區","LI":"二王里","LIN":"12鄰","STREET":"永二街","SECT":" ","MAREA":" ","LANE":" ","ALLEY":" ","HOUSE_NO":"４１７號三樓之１","E_COORD97":172845.98000000001,"N_COORD97":2546603.04,"ADDRESS":"永二街４１７號三樓之１","OBJECTID":540219},"geometry":{"x":172845.98000000138,"y":2546603.0400000028}},{"attributes":{"ID":540247,"DIS_CODE":0,"TOWNNAME":"永康區","LI":"二王里","LIN":"12鄰","STREET":"永二街","SECT":" ","MAREA":" ","LANE":" ","ALLEY":" ","HOUSE_NO":"４２１號九樓之３","E_COORD97":172802.47,"N_COORD97":2546573.79,"ADDRESS":"永二街４２１號九樓之３","OBJECTID":540220},"geometry":{"x":172802.47000000067,"y":2546573.7899999991}},{"attributes":{"ID":540248,"DIS_CODE":0,"TOWNNAME":"永康區","LI":"二王里","LIN":"12鄰","STREET":"永二街","SECT":" ","MAREA":" ","LANE":" ","ALLEY":" ","HOUSE_NO":"４２３號七樓之２","E_COORD97":172783.47,"N_COORD97":2546569.98,"ADDRESS":"永二街４２３號七樓之２","OBJECTID":540221},"geometry":{"x":172783.4700000016,"y":2546569.9800000004}},{"attributes":{"ID":540249,"DIS_CODE":0,"TOWNNAME":"永康區","LI":"二王里","LIN":"12鄰","STREET":"永二街","SECT":" ","MAREA":" ","LANE":" ","ALLEY":" ","HOUSE_NO":"４２５號十三樓之２","E_COORD97":172782.10999999999,"N_COORD97":2546590.2000000002,"ADDRESS":"永二街４２５號十三樓之２","OBJECTID":540222},"geometry":{"x":172782.11000000127,"y":2546590.2000000011}},{"attributes":{"ID":540250,"DIS_CODE":0,"TOWNNAME":"仁德區","LI":"後壁里","LIN":"12鄰","STREET":"德南路","SECT":" ","MAREA":" ","LANE":" ","ALLEY":" ","HOUSE_NO":"１８３號","E_COORD97":173654.84,"N_COORD97":2538545.02,"ADDRESS":"德南路１８３號","OBJECTID":540223},"geometry":{"x":173654.84000000078,"y":2538545.0200000033}},{"attributes":{"ID":540251,"DIS_CODE":0,"TOWNNAME":"永康區","LI":"二王里","LIN":"12鄰","STREET":"永二街","SECT":" ","MAREA":" ","LANE":" ","ALLEY":" ","HOUSE_NO":"４２５號十一樓之１","E_COORD97":172781.98000000001,"N_COORD97":2546590.2000000002,"ADDRESS":"永二街４２５號十一樓之１","OBJECTID":540224},"geometry":{"x":172781.98000000045,"y":2546590.2000000011}},{"attributes":{"ID":540252,"DIS_CODE":0,"TOWNNAME":"永康區","LI":"二王里","LIN":"12鄰","STREET":"永二街","SECT":" ","MAREA":" ","LANE":" ","ALLEY":" ","HOUSE_NO":"４２１號十樓之３","E_COORD97":172802.47,"N_COORD97":2546573.79,"ADDRESS":"永二街４２１號十樓之３","OBJECTID":540225},"geometry":{"x":172802.47000000067,"y":2546573.7899999991}},{"attributes":{"ID":540253,"DIS_CODE":0,"TOWNNAME":"永康區","LI":"二王里","LIN":"12鄰","STREET":"永二街","SECT":" ","MAREA":" ","LANE":" ","ALLEY":" ","HOUSE_NO":"４２３號八樓之２","E_COORD97":172783.47,"N_COORD97":2546569.98,"ADDRESS":"永二街４２３號八樓之２","OBJECTID":540226},"geometry":{"x":172783.4700000016,"y":2546569.9800000004}},{"attributes":{"ID":540254,"DIS_CODE":0,"TOWNNAME":"永康區","LI":"二王里","LIN":"12鄰","STREET":"永二街","SECT":" ","MAREA":" ","LANE":" ","ALLEY":" ","HOUSE_NO":"４２１號十二樓之１","E_COORD97":172803.62,"N_COORD97":2546573.79,"ADDRESS":"永二街４２１號十二樓之１","OBJECTID":540227},"geometry":{"x":172803.62000000104,"y":2546573.7899999991}},{"attributes":{"ID":540255,"DIS_CODE":0,"TOWNNAME":"永康區","LI":"二王里","LIN":"12鄰","STREET":"永二街","SECT":" ","MAREA":" ","LANE":" ","ALLEY":" ","HOUSE_NO":"４２５號二樓之２","E_COORD97":172780.85999999999,"N_COORD97":2546590.2000000002,"ADDRESS":"永二街４２５號二樓之２","OBJECTID":540228},"geometry":{"x":172780.86000000034,"y":2546590.2000000011}},{"attributes":{"ID":540256,"DIS_CODE":0,"TOWNNAME":"永康區","LI":"二王里","LIN":"12鄰","STREET":"永二街","SECT":" ","MAREA":" ","LANE":" ","ALLEY":" ","HOUSE_NO":"４２３號十樓之１","E_COORD97":172783.34,"N_COORD97":2546569.98,"ADDRESS":"永二街４２３號十樓之１","OBJECTID":540229},"geometry":{"x":172783.34000000078,"y":2546569.9800000004}},{"attributes":{"ID":540257,"DIS_CODE":0,"TOWNNAME":"永康區","LI":"二王里","LIN":"12鄰","STREET":"永二街","SECT":" ","MAREA":" ","LANE":" ","ALLEY":" ","HOUSE_NO":"４１３號十二樓","E_COORD97":172804.14000000001,"N_COORD97":2546613.0099999998,"ADDRESS":"永二街４１３號十二樓","OBJECTID":540230},"geometry":{"x":172804.13999999873,"y":2546613.0099999998}},{"attributes":{"ID":540258,"DIS_CODE":0,"TOWNNAME":"永康區","LI":"二王里","LIN":"12鄰","STREET":"永二街","SECT":" ","MAREA":" ","LANE":" ","ALLEY":" ","HOUSE_NO":"４２３號十樓之２","E_COORD97":172783.47,"N_COORD97":2546569.98,"ADDRESS":"永二街４２３號十樓之２","OBJECTID":540231},"geometry":{"x":172783.4700000016,"y":2546569.9800000004}},{"attributes":{"ID":540259,"DIS_CODE":0,"TOWNNAME":"永康區","LI":"二王里","LIN":"12鄰","STREET":"永二街","SECT":" ","MAREA":" ","LANE":" ","ALLEY":" ","HOUSE_NO":"４１１號十二樓","E_COORD97":172802.10000000001,"N_COORD97":2546626.8500000001,"ADDRESS":"永二街４１１號十二樓","OBJECTID":540232},"geometry":{"x":172802.09999999963,"y":2546626.8500000015}},{"attributes":{"ID":540260,"DIS_CODE":0,"TOWNNAME":"永康區","LI":"二王里","LIN":"12鄰","STREET":"永二街","SECT":" ","MAREA":" ","LANE":" ","ALLEY":" ","HOUSE_NO":"４１９號十二樓之２","E_COORD97":172828.95000000001,"N_COORD97":2546575.54,"ADDRESS":"永二街４１９號十二樓之２","OBJECTID":540233},"geometry":{"x":172828.95000000112,"y":2546575.5399999991}},{"attributes":{"ID":540261,"DIS_CODE":0,"TOWNNAME":"永康區","LI":"二王里","LIN":"12鄰","STREET":"永二街","SECT":" ","MAREA":" ","LANE":" ","ALLEY":" ","HOUSE_NO":"４２１號四樓之３","E_COORD97":172802.47,"N_COORD97":2546573.79,"ADDRESS":"永二街４２１號四樓之３","OBJECTID":540234},"geometry":{"x":172802.47000000067,"y":2546573.7899999991}},{"attributes":{"ID":540262,"DIS_CODE":0,"TOWNNAME":"永康區","LI":"二王里","LIN":"12鄰","STREET":"永二街","SECT":" ","MAREA":" ","LANE":" ","ALLEY":" ","HOUSE_NO":"４２３號十四樓之２","E_COORD97":172784.72,"N_COORD97":2546569.98,"ADDRESS":"永二街４２３號十四樓之２","OBJECTID":540235},"geometry":{"x":172784.71999999974,"y":2546569.9800000004}},{"attributes":{"ID":540263,"DIS_CODE":0,"TOWNNAME":"永康區","LI":"二王里","LIN":"12鄰","STREET":"永二街","SECT":" ","MAREA":" ","LANE":" ","ALLEY":" ","HOUSE_NO":"４１９號十三樓之２","E_COORD97":172828.95000000001,"N_COORD97":2546575.54,"ADDRESS":"永二街４１９號十三樓之２","OBJECTID":540236},"geometry":{"x":172828.95000000112,"y":2546575.5399999991}},{"attributes":{"ID":540264,"DIS_CODE":0,"TOWNNAME":"永康區","LI":"二王里","LIN":"12鄰","STREET":"永二街","SECT":" ","MAREA":" ","LANE":" ","ALLEY":" ","HOUSE_NO":"４２１號七樓之１","E_COORD97":172802.37,"N_COORD97":2546573.79,"ADDRESS":"永二街４２１號七樓之１","OBJECTID":540237},"geometry":{"x":172802.37000000011,"y":2546573.7899999991}},{"attributes":{"ID":540265,"DIS_CODE":0,"TOWNNAME":"永康區","LI":"二王里","LIN":"12鄰","STREET":"永二街","SECT":" ","MAREA":" ","LANE":" ","ALLEY":" ","HOUSE_NO":"４２１號三樓之２","E_COORD97":172802.5,"N_COORD97":2546573.79,"ADDRESS":"永二街４２１號三樓之２","OBJECTID":540238},"geometry":{"x":172802.50000000093,"y":2546573.7899999991}},{"attributes":{"ID":540266,"DIS_CODE":0,"TOWNNAME":"永康區","LI":"二王里","LIN":"12鄰","STREET":"永二街","SECT":" ","MAREA":" ","LANE":" ","ALLEY":" ","HOUSE_NO":"４１５號九樓之１","E_COORD97":172845.17000000001,"N_COORD97":2546612.0499999998,"ADDRESS":"永二街４１５號九樓之１","OBJECTID":540239},"geometry":{"x":172845.17000000086,"y":2546612.0500000026}},{"attributes":{"ID":540267,"DIS_CODE":0,"TOWNNAME":"永康區","LI":"二王里","LIN":"12鄰","STREET":"永二街","SECT":" ","MAREA":" ","LANE":" ","ALLEY":" ","HOUSE_NO":"４２１號十三樓之１","E_COORD97":172803.62,"N_COORD97":2546573.79,"ADDRESS":"永二街４２１號十三樓之１","OBJECTID":540240},"geometry":{"x":172803.62000000104,"y":2546573.7899999991}},{"attributes":{"ID":540268,"DIS_CODE":0,"TOWNNAME":"永康區","LI":"二王里","LIN":"12鄰","STREET":"永二街","SECT":" ","MAREA":" ","LANE":" ","ALLEY":" ","HOUSE_NO":"４２５號十二樓之３","E_COORD97":172782.07999999999,"N_COORD97":2546590.2000000002,"ADDRESS":"永二街４２５號十二樓之３","OBJECTID":540241},"geometry":{"x":172782.08000000101,"y":2546590.2000000011}},{"attributes":{"ID":540269,"DIS_CODE":0,"TOWNNAME":"永康區","LI":"二王里","LIN":"12鄰","STREET":"永二街","SECT":" ","MAREA":" ","LANE":" ","ALLEY":" ","HOUSE_NO":"４２１號十一樓之３","E_COORD97":172803.72,"N_COORD97":2546573.79,"ADDRESS":"永二街４２１號十一樓之３","OBJECTID":540242},"geometry":{"x":172803.71999999881,"y":2546573.7899999991}},{"attributes":{"ID":540270,"DIS_CODE":0,"TOWNNAME":"永康區","LI":"二王里","LIN":"12鄰","STREET":"永二街","SECT":" ","MAREA":" ","LANE":" ","ALLEY":" ","HOUSE_NO":"４１７號十二樓之３","E_COORD97":172847.32999999999,"N_COORD97":2546603.04,"ADDRESS":"永二街４１７號十二樓之３","OBJECTID":540243},"geometry":{"x":172847.33000000007,"y":2546603.0400000028}},{"attributes":{"ID":540271,"DIS_CODE":0,"TOWNNAME":"永康區","LI":"二王里","LIN":"12鄰","STREET":"永二街","SECT":" ","MAREA":" ","LANE":" ","ALLEY":" ","HOUSE_NO":"４１７號十四樓之２","E_COORD97":172847.35999999999,"N_COORD97":2546603.04,"ADDRESS":"永二街４１７號十四樓之２","OBJECTID":540244},"geometry":{"x":172847.36000000034,"y":2546603.0400000028}},{"attributes":{"ID":540272,"DIS_CODE":0,"TOWNNAME":"永康區","LI":"二王里","LIN":"12鄰","STREET":"永二街","SECT":" ","MAREA":" ","LANE":" ","ALLEY":" ","HOUSE_NO":"４１７號六樓之１","E_COORD97":172845.98000000001,"N_COORD97":2546603.04,"ADDRESS":"永二街４１７號六樓之１","OBJECTID":540245},"geometry":{"x":172845.98000000138,"y":2546603.0400000028}},{"attributes":{"ID":540273,"DIS_CODE":0,"TOWNNAME":"永康區","LI":"二王里","LIN":"12鄰","STREET":"永二街","SECT":" ","MAREA":" ","LANE":" ","ALLEY":" ","HOUSE_NO":"４１７號五樓之１","E_COORD97":172845.98000000001,"N_COORD97":2546603.04,"ADDRESS":"永二街４１７號五樓之１","OBJECTID":540246},"geometry":{"x":172845.98000000138,"y":2546603.0400000028}},{"attributes":{"ID":540274,"DIS_CODE":0,"TOWNNAME":"永康區","LI":"二王里","LIN":"12鄰","STREET":"永二街","SECT":" ","MAREA":" ","LANE":" ","ALLEY":" ","HOUSE_NO":"４１５號八樓之３","E_COORD97":172845.26999999999,"N_COORD97":2546612.0499999998,"ADDRESS":"永二街４１５號八樓之３","OBJECTID":540247},"geometry":{"x":172845.26999999955,"y":2546612.0500000026}},{"attributes":{"ID":540275,"DIS_CODE":0,"TOWNNAME":"永康區","LI":"二王里","LIN":"12鄰","STREET":"永二街","SECT":" ","MAREA":" ","LANE":" ","ALLEY":" ","HOUSE_NO":"４１９號十五樓之１","E_COORD97":172828.82000000001,"N_COORD97":2546575.54,"ADDRESS":"永二街４１９號十五樓之１","OBJECTID":540248},"geometry":{"x":172828.8200000003,"y":2546575.5399999991}},{"attributes":{"ID":540276,"DIS_CODE":0,"TOWNNAME":"永康區","LI":"二王里","LIN":"12鄰","STREET":"永二街","SECT":" ","MAREA":" ","LANE":" ","ALLEY":" ","HOUSE_NO":"４１７號十樓之３","E_COORD97":172846.07999999999,"N_COORD97":2546603.04,"ADDRESS":"永二街４１７號十樓之３","OBJECTID":540249},"geometry":{"x":172846.08000000101,"y":2546603.0400000028}},{"attributes":{"ID":540277,"DIS_CODE":0,"TOWNNAME":"永康區","LI":"二王里","LIN":"12鄰","STREET":"永二街","SECT":" ","MAREA":" ","LANE":" ","ALLEY":" ","HOUSE_NO":"４２５號九樓之１","E_COORD97":172780.73000000001,"N_COORD97":2546590.2000000002,"ADDRESS":"永二街４２５號九樓之１","OBJECTID":540250},"geometry":{"x":172780.73000000231,"y":2546590.2000000011}},{"attributes":{"ID":540278,"DIS_CODE":0,"TOWNNAME":"永康區","LI":"二王里","LIN":"12鄰","STREET":"永二街","SECT":" ","MAREA":" ","LANE":" ","ALLEY":" ","HOUSE_NO":"４１３號五樓","E_COORD97":172802.89000000001,"N_COORD97":2546613.0099999998,"ADDRESS":"永二街４１３號五樓","OBJECTID":540251},"geometry":{"x":172802.8900000006,"y":2546613.0099999998}},{"attributes":{"ID":540279,"DIS_CODE":0,"TOWNNAME":"永康區","LI":"二王里","LIN":"12鄰","STREET":"永二街","SECT":" ","MAREA":" ","LANE":" ","ALLEY":" ","HOUSE_NO":"４２１號九樓之２","E_COORD97":172802.5,"N_COORD97":2546573.79,"ADDRESS":"永二街４２１號九樓之２","OBJECTID":540252},"geometry":{"x":172802.50000000093,"y":2546573.7899999991}},{"attributes":{"ID":540280,"DIS_CODE":0,"TOWNNAME":"永康區","LI":"二王里","LIN":"12鄰","STREET":"永二街","SECT":" ","MAREA":" ","LANE":" ","ALLEY":" ","HOUSE_NO":"４１７號十三樓之１","E_COORD97":172847.23000000001,"N_COORD97":2546603.04,"ADDRESS":"永二街４１７號十三樓之１","OBJECTID":540253},"geometry":{"x":172847.23000000138,"y":2546603.0400000028}},{"attributes":{"ID":540281,"DIS_CODE":0,"TOWNNAME":"永康區","LI":"二王里","LIN":"12鄰","STREET":"永二街","SECT":" ","MAREA":" ","LANE":" ","ALLEY":" ","HOUSE_NO":"４１７號五樓之２","E_COORD97":172846.10999999999,"N_COORD97":2546603.04,"ADDRESS":"永二街４１７號五樓之２","OBJECTID":540254},"geometry":{"x":172846.11000000127,"y":2546603.0400000028}},{"attributes":{"ID":540282,"DIS_CODE":0,"TOWNNAME":"永康區","LI":"二王里","LIN":"12鄰","STREET":"永二街","SECT":" ","MAREA":" ","LANE":" ","ALLEY":" ","HOUSE_NO":"４１９號三樓之１","E_COORD97":172827.57000000001,"N_COORD97":2546575.54,"ADDRESS":"永二街４１９號三樓之１","OBJECTID":540255},"geometry":{"x":172827.57000000216,"y":2546575.5399999991}},{"attributes":{"ID":540283,"DIS_CODE":0,"TOWNNAME":"永康區","LI":"二王里","LIN":"12鄰","STREET":"永二街","SECT":" ","MAREA":" ","LANE":" ","ALLEY":" ","HOUSE_NO":"４１９號十一樓之１","E_COORD97":172828.82000000001,"N_COORD97":2546575.54,"ADDRESS":"永二街４１９號十一樓之１","OBJECTID":540256},"geometry":{"x":172828.8200000003,"y":2546575.5399999991}},{"attributes":{"ID":540284,"DIS_CODE":0,"TOWNNAME":"永康區","LI":"二王里","LIN":"12鄰","STREET":"永二街","SECT":" ","MAREA":" ","LANE":" ","ALLEY":" ","HOUSE_NO":"４２３號四樓之３","E_COORD97":172783.44,"N_COORD97":2546569.98,"ADDRESS":"永二街４２３號四樓之３","OBJECTID":540257},"geometry":{"x":172783.44000000134,"y":2546569.9800000004}},{"attributes":{"ID":540285,"DIS_CODE":0,"TOWNNAME":"永康區","LI":"二王里","LIN":"12鄰","STREET":"永二街","SECT":" ","MAREA":" ","LANE":" ","ALLEY":" ","HOUSE_NO":"４１９號十一樓之３","E_COORD97":172828.92000000001,"N_COORD97":2546575.54,"ADDRESS":"永二街４１９號十一樓之３","OBJECTID":540258},"geometry":{"x":172828.91999999993,"y":2546575.5399999991}},{"attributes":{"ID":540286,"DIS_CODE":0,"TOWNNAME":"永康區","LI":"二王里","LIN":"12鄰","STREET":"永二街","SECT":" ","MAREA":" ","LANE":" ","ALLEY":" ","HOUSE_NO":"４２５號十一樓之２","E_COORD97":172782.10999999999,"N_COORD97":2546590.2000000002,"ADDRESS":"永二街４２５號十一樓之２","OBJECTID":540259},"geometry":{"x":172782.11000000127,"y":2546590.2000000011}},{"attributes":{"ID":540287,"DIS_CODE":0,"TOWNNAME":"永康區","LI":"二王里","LIN":"12鄰","STREET":"永二街","SECT":" ","MAREA":" ","LANE":" ","ALLEY":" ","HOUSE_NO":"４１７號十一樓之１","E_COORD97":172847.23000000001,"N_COORD97":2546603.04,"ADDRESS":"永二街４１７號十一樓之１","OBJECTID":540260},"geometry":{"x":172847.23000000138,"y":2546603.0400000028}},{"attributes":{"ID":540288,"DIS_CODE":0,"TOWNNAME":"永康區","LI":"二王里","LIN":"12鄰","STREET":"永二街","SECT":" ","MAREA":" ","LANE":" ","ALLEY":" ","HOUSE_NO":"４２１號十一樓之１","E_COORD97":172803.62,"N_COORD97":2546573.79,"ADDRESS":"永二街４２１號十一樓之１","OBJECTID":540261},"geometry":{"x":172803.62000000104,"y":2546573.7899999991}},{"attributes":{"ID":540289,"DIS_CODE":0,"TOWNNAME":"永康區","LI":"二王里","LIN":"12鄰","STREET":"永二街","SECT":" ","MAREA":" ","LANE":" ","ALLEY":" ","HOUSE_NO":"４２１號二樓之２","E_COORD97":172802.5,"N_COORD97":2546573.79,"ADDRESS":"永二街４２１號二樓之２","OBJECTID":540262},"geometry":{"x":172802.50000000093,"y":2546573.7899999991}},{"attributes":{"ID":540290,"DIS_CODE":0,"TOWNNAME":"永康區","LI":"二王里","LIN":"12鄰","STREET":"永二街","SECT":" ","MAREA":" ","LANE":" ","ALLEY":" ","HOUSE_NO":"４１５號八樓之１","E_COORD97":172845.17000000001,"N_COORD97":2546612.0499999998,"ADDRESS":"永二街４１５號八樓之１","OBJECTID":540263},"geometry":{"x":172845.17000000086,"y":2546612.0500000026}},{"attributes":{"ID":540291,"DIS_CODE":0,"TOWNNAME":"永康區","LI":"二王里","LIN":"12鄰","STREET":"永二街","SECT":" ","MAREA":" ","LANE":" ","ALLEY":" ","HOUSE_NO":"４１７號六樓之３","E_COORD97":172846.07999999999,"N_COORD97":2546603.04,"ADDRESS":"永二街４１７號六樓之３","OBJECTID":540264},"geometry":{"x":172846.08000000101,"y":2546603.0400000028}},{"attributes":{"ID":540292,"DIS_CODE":0,"TOWNNAME":"永康區","LI":"二王里","LIN":"12鄰","STREET":"永二街","SECT":" ","MAREA":" ","LANE":" ","ALLEY":" ","HOUSE_NO":"４１９號二樓之１","E_COORD97":172827.57000000001,"N_COORD97":2546575.54,"ADDRESS":"永二街４１９號二樓之１","OBJECTID":540265},"geometry":{"x":172827.57000000216,"y":2546575.5399999991}},{"attributes":{"ID":540293,"DIS_CODE":0,"TOWNNAME":"永康區","LI":"二王里","LIN":"12鄰","STREET":"永二街","SECT":" ","MAREA":" ","LANE":" ","ALLEY":" ","HOUSE_NO":"４１９號五樓之１","E_COORD97":172827.57000000001,"N_COORD97":2546575.54,"ADDRESS":"永二街４１９號五樓之１","OBJECTID":540266},"geometry":{"x":172827.57000000216,"y":2546575.5399999991}},{"attributes":{"ID":540294,"DIS_CODE":0,"TOWNNAME":"永康區","LI":"二王里","LIN":"12鄰","STREET":"永二街","SECT":" ","MAREA":" ","LANE":" ","ALLEY":" ","HOUSE_NO":"４１７號四樓之１","E_COORD97":172845.98000000001,"N_COORD97":2546603.04,"ADDRESS":"永二街４１７號四樓之１","OBJECTID":540267},"geometry":{"x":172845.98000000138,"y":2546603.0400000028}},{"attributes":{"ID":540295,"DIS_CODE":0,"TOWNNAME":"永康區","LI":"南灣里","LIN":"27鄰","STREET":"立興街","SECT":" ","MAREA":" ","LANE":" ","ALLEY":" ","HOUSE_NO":"５２號","E_COORD97":174591.14999999999,"N_COORD97":2544860.25,"ADDRESS":"立興街５２號","OBJECTID":540268},"geometry":{"x":174591.15000000037,"y":2544860.2500000019}},{"attributes":{"ID":540296,"DIS_CODE":0,"TOWNNAME":"永康區","LI":"二王里","LIN":"12鄰","STREET":"永二街","SECT":" ","MAREA":" ","LANE":" ","ALLEY":" ","HOUSE_NO":"４１９號十一樓之２","E_COORD97":172828.95000000001,"N_COORD97":2546575.54,"ADDRESS":"永二街４１９號十一樓之２","OBJECTID":540269},"geometry":{"x":172828.95000000112,"y":2546575.5399999991}},{"attributes":{"ID":540297,"DIS_CODE":0,"TOWNNAME":"永康區","LI":"二王里","LIN":"12鄰","STREET":"永二街","SECT":" ","MAREA":" ","LANE":" ","ALLEY":" ","HOUSE_NO":"４２１號八樓之３","E_COORD97":172802.47,"N_COORD97":2546573.79,"ADDRESS":"永二街４２１號八樓之３","OBJECTID":540270},"geometry":{"x":172802.47000000067,"y":2546573.7899999991}},{"attributes":{"ID":540298,"DIS_CODE":0,"TOWNNAME":"永康區","LI":"二王里","LIN":"12鄰","STREET":"永二街","SECT":" ","MAREA":" ","LANE":" ","ALLEY":" ","HOUSE_NO":"４２１號五樓之２","E_COORD97":172802.5,"N_COORD97":2546573.79,"ADDRESS":"永二街４２１號五樓之２","OBJECTID":540271},"geometry":{"x":172802.50000000093,"y":2546573.7899999991}},{"attributes":{"ID":540299,"DIS_CODE":0,"TOWNNAME":"永康區","LI":"二王里","LIN":"12鄰","STREET":"永二街","SECT":" ","MAREA":" ","LANE":" ","ALLEY":" ","HOUSE_NO":"４１９號十六樓","E_COORD97":172826.67999999999,"N_COORD97":2546575.5,"ADDRESS":"永二街４１９號十六樓","OBJECTID":540272},"geometry":{"x":172826.68000000063,"y":2546575.5000000019}},{"attributes":{"ID":540300,"DIS_CODE":0,"TOWNNAME":"永康區","LI":"二王里","LIN":"12鄰","STREET":"永二街","SECT":" ","MAREA":" ","LANE":" ","ALLEY":" ","HOUSE_NO":"４１７號九樓之３","E_COORD97":172846.07999999999,"N_COORD97":2546603.04,"ADDRESS":"永二街４１７號九樓之３","OBJECTID":540273},"geometry":{"x":172846.08000000101,"y":2546603.0400000028}},{"attributes":{"ID":540301,"DIS_CODE":0,"TOWNNAME":"永康區","LI":"二王里","LIN":"12鄰","STREET":"永二街","SECT":" ","MAREA":" ","LANE":" ","ALLEY":" ","HOUSE_NO":"４２１號十樓之１","E_COORD97":172802.37,"N_COORD97":2546573.79,"ADDRESS":"永二街４２１號十樓之１","OBJECTID":540274},"geometry":{"x":172802.37000000011,"y":2546573.7899999991}},{"attributes":{"ID":540302,"DIS_CODE":0,"TOWNNAME":"永康區","LI":"二王里","LIN":"12鄰","STREET":"永二街","SECT":" ","MAREA":" ","LANE":" ","ALLEY":" ","HOUSE_NO":"４１７號七樓之１","E_COORD97":172845.98000000001,"N_COORD97":2546603.04,"ADDRESS":"永二街４１７號七樓之１","OBJECTID":540275},"geometry":{"x":172845.98000000138,"y":2546603.0400000028}},{"attributes":{"ID":540303,"DIS_CODE":0,"TOWNNAME":"永康區","LI":"二王里","LIN":"12鄰","STREET":"永二街","SECT":" ","MAREA":" ","LANE":" ","ALLEY":" ","HOUSE_NO":"４１１號十三樓","E_COORD97":172802.10000000001,"N_COORD97":2546626.8500000001,"ADDRESS":"永二街４１１號十三樓","OBJECTID":540276},"geometry":{"x":172802.09999999963,"y":2546626.8500000015}},{"attributes":{"ID":540304,"DIS_CODE":0,"TOWNNAME":"永康區","LI":"二王里","LIN":"12鄰","STREET":"永二街","SECT":" ","MAREA":" ","LANE":" ","ALLEY":" ","HOUSE_NO":"４２１號三樓之１","E_COORD97":172802.37,"N_COORD97":2546573.79,"ADDRESS":"永二街４２１號三樓之１","OBJECTID":540277},"geometry":{"x":172802.37000000011,"y":2546573.7899999991}},{"attributes":{"ID":540305,"DIS_CODE":0,"TOWNNAME":"永康區","LI":"二王里","LIN":"12鄰","STREET":"永二街","SECT":" ","MAREA":" ","LANE":" ","ALLEY":" ","HOUSE_NO":"４２５號五樓之３","E_COORD97":172780.82999999999,"N_COORD97":2546590.2000000002,"ADDRESS":"永二街４２５號五樓之３","OBJECTID":540278},"geometry":{"x":172780.83000000007,"y":2546590.2000000011}},{"attributes":{"ID":540306,"DIS_CODE":0,"TOWNNAME":"永康區","LI":"二王里","LIN":"12鄰","STREET":"永二街","SECT":" ","MAREA":" ","LANE":" ","ALLEY":" ","HOUSE_NO":"４２５號七樓之３","E_COORD97":172780.82999999999,"N_COORD97":2546590.2000000002,"ADDRESS":"永二街４２５號七樓之３","OBJECTID":540279},"geometry":{"x":172780.83000000007,"y":2546590.2000000011}},{"attributes":{"ID":540307,"DIS_CODE":0,"TOWNNAME":"永康區","LI":"二王里","LIN":"12鄰","STREET":"永二街","SECT":" ","MAREA":" ","LANE":" ","ALLEY":" ","HOUSE_NO":"４１９號九樓之２","E_COORD97":172827.70000000001,"N_COORD97":2546575.54,"ADDRESS":"永二街４１９號九樓之２","OBJECTID":540280},"geometry":{"x":172827.70000000019,"y":2546575.5399999991}},{"attributes":{"ID":540308,"DIS_CODE":0,"TOWNNAME":"永康區","LI":"二王里","LIN":"12鄰","STREET":"永二街","SECT":" ","MAREA":" ","LANE":" ","ALLEY":" ","HOUSE_NO":"４２３號十二樓之１","E_COORD97":172784.59,"N_COORD97":2546569.98,"ADDRESS":"永二街４２３號十二樓之１","OBJECTID":540281},"geometry":{"x":172784.59000000171,"y":2546569.9800000004}},{"attributes":{"ID":540309,"DIS_CODE":0,"TOWNNAME":"永康區","LI":"二王里","LIN":"12鄰","STREET":"永二街","SECT":" ","MAREA":" ","LANE":" ","ALLEY":" ","HOUSE_NO":"４１７號四樓之２","E_COORD97":172846.10999999999,"N_COORD97":2546603.04,"ADDRESS":"永二街４１７號四樓之２","OBJECTID":540282},"geometry":{"x":172846.11000000127,"y":2546603.0400000028}},{"attributes":{"ID":540310,"DIS_CODE":0,"TOWNNAME":"永康區","LI":"二王里","LIN":"12鄰","STREET":"永二街","SECT":" ","MAREA":" ","LANE":" ","ALLEY":" ","HOUSE_NO":"４２１號五樓之１","E_COORD97":172802.37,"N_COORD97":2546573.79,"ADDRESS":"永二街４２１號五樓之１","OBJECTID":540283},"geometry":{"x":172802.37000000011,"y":2546573.7899999991}},{"attributes":{"ID":540311,"DIS_CODE":0,"TOWNNAME":"永康區","LI":"二王里","LIN":"12鄰","STREET":"永二街","SECT":" ","MAREA":" ","LANE":" ","ALLEY":" ","HOUSE_NO":"４１７號二樓之２","E_COORD97":172846.10999999999,"N_COORD97":2546603.04,"ADDRESS":"永二街４１７號二樓之２","OBJECTID":540284},"geometry":{"x":172846.11000000127,"y":2546603.0400000028}},{"attributes":{"ID":540312,"DIS_CODE":0,"TOWNNAME":"永康區","LI":"二王里","LIN":"12鄰","STREET":"永二街","SECT":" ","MAREA":" ","LANE":" ","ALLEY":" ","HOUSE_NO":"４１９號二樓之２","E_COORD97":172827.70000000001,"N_COORD97":2546575.54,"ADDRESS":"永二街４１９號二樓之２","OBJECTID":540285},"geometry":{"x":172827.70000000019,"y":2546575.5399999991}},{"attributes":{"ID":540313,"DIS_CODE":0,"TOWNNAME":"永康區","LI":"二王里","LIN":"12鄰","STREET":"永二街","SECT":" ","MAREA":" ","LANE":" ","ALLEY":" ","HOUSE_NO":"４１９號四樓之３","E_COORD97":172827.67000000001,"N_COORD97":2546575.54,"ADDRESS":"永二街４１９號四樓之３","OBJECTID":540286},"geometry":{"x":172827.66999999993,"y":2546575.5399999991}},{"attributes":{"ID":540314,"DIS_CODE":0,"TOWNNAME":"永康區","LI":"二王里","LIN":"12鄰","STREET":"永二街","SECT":" ","MAREA":" ","LANE":" ","ALLEY":" ","HOUSE_NO":"４１９號十樓之１","E_COORD97":172827.57000000001,"N_COORD97":2546575.54,"ADDRESS":"永二街４１９號十樓之１","OBJECTID":540287},"geometry":{"x":172827.57000000216,"y":2546575.5399999991}},{"attributes":{"ID":540315,"DIS_CODE":0,"TOWNNAME":"永康區","LI":"二王里","LIN":"12鄰","STREET":"永二街","SECT":" ","MAREA":" ","LANE":" ","ALLEY":" ","HOUSE_NO":"４１７號十三樓","E_COORD97":172845.09,"N_COORD97":2546603,"ADDRESS":"永二街４１７號十三樓","OBJECTID":540288},"geometry":{"x":172845.08999999985,"y":2546603}},{"attributes":{"ID":540316,"DIS_CODE":0,"TOWNNAME":"永康區","LI":"二王里","LIN":"12鄰","STREET":"永二街","SECT":" ","MAREA":" ","LANE":" ","ALLEY":" ","HOUSE_NO":"４１９號八樓之２","E_COORD97":172827.70000000001,"N_COORD97":2546575.54,"ADDRESS":"永二街４１９號八樓之２","OBJECTID":540289},"geometry":{"x":172827.70000000019,"y":2546575.5399999991}},{"attributes":{"ID":540317,"DIS_CODE":0,"TOWNNAME":"永康區","LI":"二王里","LIN":"12鄰","STREET":"永二街","SECT":" ","MAREA":" ","LANE":" ","ALLEY":" ","HOUSE_NO":"４１９號五樓之２","E_COORD97":172827.70000000001,"N_COORD97":2546575.54,"ADDRESS":"永二街４１９號五樓之２","OBJECTID":540290},"geometry":{"x":172827.70000000019,"y":2546575.5399999991}},{"attributes":{"ID":540318,"DIS_CODE":0,"TOWNNAME":"永康區","LI":"二王里","LIN":"12鄰","STREET":"永二街","SECT":" ","MAREA":" ","LANE":" ","ALLEY":" ","HOUSE_NO":"４２１號九樓之１","E_COORD97":172802.37,"N_COORD97":2546573.79,"ADDRESS":"永二街４２１號九樓之１","OBJECTID":540291},"geometry":{"x":172802.37000000011,"y":2546573.7899999991}},{"attributes":{"ID":540319,"DIS_CODE":0,"TOWNNAME":"永康區","LI":"二王里","LIN":"12鄰","STREET":"永二街","SECT":" ","MAREA":" ","LANE":" ","ALLEY":" ","HOUSE_NO":"４１７號二樓之３","E_COORD97":172846.07999999999,"N_COORD97":2546603.04,"ADDRESS":"永二街４１７號二樓之３","OBJECTID":540292},"geometry":{"x":172846.08000000101,"y":2546603.0400000028}},{"attributes":{"ID":540320,"DIS_CODE":0,"TOWNNAME":"永康區","LI":"二王里","LIN":"12鄰","STREET":"永二街","SECT":" ","MAREA":" ","LANE":" ","ALLEY":" ","HOUSE_NO":"４１７號八樓之３","E_COORD97":172846.07999999999,"N_COORD97":2546603.04,"ADDRESS":"永二街４１７號八樓之３","OBJECTID":540293},"geometry":{"x":172846.08000000101,"y":2546603.0400000028}},{"attributes":{"ID":540321,"DIS_CODE":0,"TOWNNAME":"永康區","LI":"二王里","LIN":"12鄰","STREET":"永二街","SECT":" ","MAREA":" ","LANE":" ","ALLEY":" ","HOUSE_NO":"４１７號七樓之２","E_COORD97":172846.10999999999,"N_COORD97":2546603.04,"ADDRESS":"永二街４１７號七樓之２","OBJECTID":540294},"geometry":{"x":172846.11000000127,"y":2546603.0400000028}},{"attributes":{"ID":540322,"DIS_CODE":0,"TOWNNAME":"永康區","LI":"二王里","LIN":"12鄰","STREET":"永二街","SECT":" ","MAREA":" ","LANE":" ","ALLEY":" ","HOUSE_NO":"４１７號四樓之３","E_COORD97":172846.07999999999,"N_COORD97":2546603.04,"ADDRESS":"永二街４１７號四樓之３","OBJECTID":540295},"geometry":{"x":172846.08000000101,"y":2546603.0400000028}},{"attributes":{"ID":540323,"DIS_CODE":0,"TOWNNAME":"永康區","LI":"二王里","LIN":"12鄰","STREET":"永二街","SECT":" ","MAREA":" ","LANE":" ","ALLEY":" ","HOUSE_NO":"４１７號七樓之３","E_COORD97":172846.07999999999,"N_COORD97":2546603.04,"ADDRESS":"永二街４１７號七樓之３","OBJECTID":540296},"geometry":{"x":172846.08000000101,"y":2546603.0400000028}},{"attributes":{"ID":540324,"DIS_CODE":0,"TOWNNAME":"永康區","LI":"二王里","LIN":"12鄰","STREET":"永二街","SECT":" ","MAREA":" ","LANE":" ","ALLEY":" ","HOUSE_NO":"４１７號十二樓之２","E_COORD97":172847.35999999999,"N_COORD97":2546603.04,"ADDRESS":"永二街４１７號十二樓之２","OBJECTID":540297},"geometry":{"x":172847.36000000034,"y":2546603.0400000028}},{"attributes":{"ID":540325,"DIS_CODE":0,"TOWNNAME":"永康區","LI":"埔園里","LIN":"24鄰","STREET":"中正路","SECT":" ","MAREA":" ","LANE":" ","ALLEY":" ","HOUSE_NO":"１２８號","E_COORD97":173528.48000000001,"N_COORD97":2547882,"ADDRESS":"中正路１２８號","OBJECTID":540298},"geometry":{"x":173528.48000000138,"y":2547882}},{"attributes":{"ID":540326,"DIS_CODE":0,"TOWNNAME":"永康區","LI":"烏竹里","LIN":"6鄰","STREET":"龍橋街","SECT":" ","MAREA":" ","LANE":" ","ALLEY":" ","HOUSE_NO":"４３７號","E_COORD97":174387.26999999999,"N_COORD97":2549272.3500000001,"ADDRESS":"龍橋街４３７號","OBJECTID":540299},"geometry":{"x":174387.27000000048,"y":2549272.3499999996}},{"attributes":{"ID":540327,"DIS_CODE":0,"TOWNNAME":"永康區","LI":"二王里","LIN":"12鄰","STREET":"永二街","SECT":" ","MAREA":" ","LANE":" ","ALLEY":" ","HOUSE_NO":"４１９號九樓之１","E_COORD97":172827.57000000001,"N_COORD97":2546575.54,"ADDRESS":"永二街４１９號九樓之１","OBJECTID":540300},"geometry":{"x":172827.57000000216,"y":2546575.5399999991}},{"attributes":{"ID":540328,"DIS_CODE":0,"TOWNNAME":"永康區","LI":"二王里","LIN":"12鄰","STREET":"永二街","SECT":" ","MAREA":" ","LANE":" ","ALLEY":" ","HOUSE_NO":"４１７號六樓之２","E_COORD97":172846.10999999999,"N_COORD97":2546603.04,"ADDRESS":"永二街４１７號六樓之２","OBJECTID":540301},"geometry":{"x":172846.11000000127,"y":2546603.0400000028}},{"attributes":{"ID":540329,"DIS_CODE":0,"TOWNNAME":"永康區","LI":"二王里","LIN":"12鄰","STREET":"永二街","SECT":" ","MAREA":" ","LANE":" ","ALLEY":" ","HOUSE_NO":"４１９號二樓之３","E_COORD97":172827.67000000001,"N_COORD97":2546575.54,"ADDRESS":"永二街４１９號二樓之３","OBJECTID":540302},"geometry":{"x":172827.66999999993,"y":2546575.5399999991}},{"attributes":{"ID":540330,"DIS_CODE":0,"TOWNNAME":"永康區","LI":"二王里","LIN":"12鄰","STREET":"永二街","SECT":" ","MAREA":" ","LANE":" ","ALLEY":" ","HOUSE_NO":"４２１號六樓之２","E_COORD97":172802.5,"N_COORD97":2546573.79,"ADDRESS":"永二街４２１號六樓之２","OBJECTID":540303},"geometry":{"x":172802.50000000093,"y":2546573.7899999991}},{"attributes":{"ID":540331,"DIS_CODE":0,"TOWNNAME":"永康區","LI":"二王里","LIN":"12鄰","STREET":"永二街","SECT":" ","MAREA":" ","LANE":" ","ALLEY":" ","HOUSE_NO":"４２１號十六樓","E_COORD97":172801.48000000001,"N_COORD97":2546573.75,"ADDRESS":"永二街４２１號十六樓","OBJECTID":540304},"geometry":{"x":172801.48000000138,"y":2546573.7500000019}},{"attributes":{"ID":540332,"DIS_CODE":0,"TOWNNAME":"永康區","LI":"二王里","LIN":"12鄰","STREET":"永二街","SECT":" ","MAREA":" ","LANE":" ","ALLEY":" ","HOUSE_NO":"４２１號十五樓之１","E_COORD97":172803.62,"N_COORD97":2546573.79,"ADDRESS":"永二街４２１號十五樓之１","OBJECTID":540305},"geometry":{"x":172803.62000000104,"y":2546573.7899999991}},{"attributes":{"ID":540333,"DIS_CODE":0,"TOWNNAME":"永康區","LI":"二王里","LIN":"12鄰","STREET":"永二街","SECT":" ","MAREA":" ","LANE":" ","ALLEY":" ","HOUSE_NO":"４２３號六樓之１","E_COORD97":172783.34,"N_COORD97":2546569.98,"ADDRESS":"永二街４２３號六樓之１","OBJECTID":540306},"geometry":{"x":172783.34000000078,"y":2546569.9800000004}},{"attributes":{"ID":540334,"DIS_CODE":0,"TOWNNAME":"永康區","LI":"二王里","LIN":"12鄰","STREET":"永二街","SECT":" ","MAREA":" ","LANE":" ","ALLEY":" ","HOUSE_NO":"４２５號九樓之３","E_COORD97":172780.82999999999,"N_COORD97":2546590.2000000002,"ADDRESS":"永二街４２５號九樓之３","OBJECTID":540307},"geometry":{"x":172780.83000000007,"y":2546590.2000000011}},{"attributes":{"ID":540335,"DIS_CODE":0,"TOWNNAME":"永康區","LI":"二王里","LIN":"12鄰","STREET":"永二街","SECT":" ","MAREA":" ","LANE":" ","ALLEY":" ","HOUSE_NO":"４２１號四樓之１","E_COORD97":172802.37,"N_COORD97":2546573.79,"ADDRESS":"永二街４２１號四樓之１","OBJECTID":540308},"geometry":{"x":172802.37000000011,"y":2546573.7899999991}},{"attributes":{"ID":540336,"DIS_CODE":0,"TOWNNAME":"永康區","LI":"二王里","LIN":"12鄰","STREET":"永二街","SECT":" ","MAREA":" ","LANE":" ","ALLEY":" ","HOUSE_NO":"４１７號三樓之２","E_COORD97":172846.10999999999,"N_COORD97":2546603.04,"ADDRESS":"永二街４１７號三樓之２","OBJECTID":540309},"geometry":{"x":172846.11000000127,"y":2546603.0400000028}},{"attributes":{"ID":540337,"DIS_CODE":0,"TOWNNAME":"永康區","LI":"二王里","LIN":"12鄰","STREET":"永二街","SECT":" ","MAREA":" ","LANE":" ","ALLEY":" ","HOUSE_NO":"４１９號六樓之１","E_COORD97":172827.57000000001,"N_COORD97":2546575.54,"ADDRESS":"永二街４１９號六樓之１","OBJECTID":540310},"geometry":{"x":172827.57000000216,"y":2546575.5399999991}},{"attributes":{"ID":540338,"DIS_CODE":0,"TOWNNAME":"永康區","LI":"二王里","LIN":"12鄰","STREET":"永二街","SECT":" ","MAREA":" ","LANE":" ","ALLEY":" ","HOUSE_NO":"４１７號十一樓之３","E_COORD97":172847.32999999999,"N_COORD97":2546603.04,"ADDRESS":"永二街４１７號十一樓之３","OBJECTID":540311},"geometry":{"x":172847.33000000007,"y":2546603.0400000028}},{"attributes":{"ID":540339,"DIS_CODE":0,"TOWNNAME":"永康區","LI":"二王里","LIN":"12鄰","STREET":"永二街","SECT":" ","MAREA":" ","LANE":" ","ALLEY":" ","HOUSE_NO":"４１７號十五樓","E_COORD97":172845.09,"N_COORD97":2546603,"ADDRESS":"永二街４１７號十五樓","OBJECTID":540312},"geometry":{"x":172845.08999999985,"y":2546603}},{"attributes":{"ID":540340,"DIS_CODE":0,"TOWNNAME":"永康區","LI":"二王里","LIN":"12鄰","STREET":"永二街","SECT":" ","MAREA":" ","LANE":" ","ALLEY":" ","HOUSE_NO":"４１７號二樓之１","E_COORD97":172845.98000000001,"N_COORD97":2546603.04,"ADDRESS":"永二街４１７號二樓之１","OBJECTID":540313},"geometry":{"x":172845.98000000138,"y":2546603.0400000028}},{"attributes":{"ID":540341,"DIS_CODE":0,"TOWNNAME":"永康區","LI":"二王里","LIN":"12鄰","STREET":"永二街","SECT":" ","MAREA":" ","LANE":" ","ALLEY":" ","HOUSE_NO":"４２１號十二樓之２","E_COORD97":172803.75,"N_COORD97":2546573.79,"ADDRESS":"永二街４２１號十二樓之２","OBJECTID":540314},"geometry":{"x":172803.74999999907,"y":2546573.7899999991}},{"attributes":{"ID":540342,"DIS_CODE":0,"TOWNNAME":"永康區","LI":"二王里","LIN":"12鄰","STREET":"永二街","SECT":" ","MAREA":" ","LANE":" ","ALLEY":" ","HOUSE_NO":"４２１號四樓之２","E_COORD97":172802.5,"N_COORD97":2546573.79,"ADDRESS":"永二街４２１號四樓之２","OBJECTID":540315},"geometry":{"x":172802.50000000093,"y":2546573.7899999991}},{"attributes":{"ID":540343,"DIS_CODE":0,"TOWNNAME":"永康區","LI":"二王里","LIN":"12鄰","STREET":"永二街","SECT":" ","MAREA":" ","LANE":" ","ALLEY":" ","HOUSE_NO":"４１７號十一樓之２","E_COORD97":172847.35999999999,"N_COORD97":2546603.04,"ADDRESS":"永二街４１７號十一樓之２","OBJECTID":540316},"geometry":{"x":172847.36000000034,"y":2546603.0400000028}},{"attributes":{"ID":540344,"DIS_CODE":0,"TOWNNAME":"永康區","LI":"二王里","LIN":"12鄰","STREET":"永二街","SECT":" ","MAREA":" ","LANE":" ","ALLEY":" ","HOUSE_NO":"４１７號十三樓之２","E_COORD97":172847.35999999999,"N_COORD97":2546603.04,"ADDRESS":"永二街４１７號十三樓之２","OBJECTID":540317},"geometry":{"x":172847.36000000034,"y":2546603.0400000028}},{"attributes":{"ID":540345,"DIS_CODE":0,"TOWNNAME":"永康區","LI":"二王里","LIN":"12鄰","STREET":"永二街","SECT":" ","MAREA":" ","LANE":" ","ALLEY":" ","HOUSE_NO":"４２５號十二樓之２","E_COORD97":172782.10999999999,"N_COORD97":2546590.2000000002,"ADDRESS":"永二街４２５號十二樓之２","OBJECTID":540318},"geometry":{"x":172782.11000000127,"y":2546590.2000000011}},{"attributes":{"ID":540346,"DIS_CODE":0,"TOWNNAME":"永康區","LI":"二王里","LIN":"12鄰","STREET":"永二街","SECT":" ","MAREA":" ","LANE":" ","ALLEY":" ","HOUSE_NO":"４１９號九樓之３","E_COORD97":172827.67000000001,"N_COORD97":2546575.54,"ADDRESS":"永二街４１９號九樓之３","OBJECTID":540319},"geometry":{"x":172827.66999999993,"y":2546575.5399999991}},{"attributes":{"ID":540347,"DIS_CODE":0,"TOWNNAME":"永康區","LI":"二王里","LIN":"12鄰","STREET":"永二街","SECT":" ","MAREA":" ","LANE":" ","ALLEY":" ","HOUSE_NO":"４１７號八樓之１","E_COORD97":172845.98000000001,"N_COORD97":2546603.04,"ADDRESS":"永二街４１７號八樓之１","OBJECTID":540320},"geometry":{"x":172845.98000000138,"y":2546603.0400000028}},{"attributes":{"ID":540348,"DIS_CODE":0,"TOWNNAME":"永康區","LI":"二王里","LIN":"12鄰","STREET":"永二街","SECT":" ","MAREA":" ","LANE":" ","ALLEY":" ","HOUSE_NO":"４１９號七樓之２","E_COORD97":172827.70000000001,"N_COORD97":2546575.54,"ADDRESS":"永二街４１９號七樓之２","OBJECTID":540321},"geometry":{"x":172827.70000000019,"y":2546575.5399999991}},{"attributes":{"ID":540349,"DIS_CODE":0,"TOWNNAME":"永康區","LI":"二王里","LIN":"12鄰","STREET":"永二街","SECT":" ","MAREA":" ","LANE":" ","ALLEY":" ","HOUSE_NO":"４１９號十樓之２","E_COORD97":172827.70000000001,"N_COORD97":2546575.54,"ADDRESS":"永二街４１９號十樓之２","OBJECTID":540322},"geometry":{"x":172827.70000000019,"y":2546575.5399999991}},{"attributes":{"ID":540350,"DIS_CODE":0,"TOWNNAME":"永康區","LI":"二王里","LIN":"12鄰","STREET":"永二街","SECT":" ","MAREA":" ","LANE":" ","ALLEY":" ","HOUSE_NO":"４２３號十一樓之１","E_COORD97":172784.59,"N_COORD97":2546569.98,"ADDRESS":"永二街４２３號十一樓之１","OBJECTID":540323},"geometry":{"x":172784.59000000171,"y":2546569.9800000004}},{"attributes":{"ID":540351,"DIS_CODE":0,"TOWNNAME":"永康區","LI":"二王里","LIN":"12鄰","STREET":"永二街","SECT":" ","MAREA":" ","LANE":" ","ALLEY":" ","HOUSE_NO":"４２１號七樓之３","E_COORD97":172802.47,"N_COORD97":2546573.79,"ADDRESS":"永二街４２１號七樓之３","OBJECTID":540324},"geometry":{"x":172802.47000000067,"y":2546573.7899999991}},{"attributes":{"ID":540352,"DIS_CODE":0,"TOWNNAME":"永康區","LI":"二王里","LIN":"12鄰","STREET":"永二街","SECT":" ","MAREA":" ","LANE":" ","ALLEY":" ","HOUSE_NO":"４１９號四樓之１","E_COORD97":172827.57000000001,"N_COORD97":2546575.54,"ADDRESS":"永二街４１９號四樓之１","OBJECTID":540325},"geometry":{"x":172827.57000000216,"y":2546575.5399999991}},{"attributes":{"ID":540353,"DIS_CODE":0,"TOWNNAME":"永康區","LI":"二王里","LIN":"12鄰","STREET":"永二街","SECT":" ","MAREA":" ","LANE":" ","ALLEY":" ","HOUSE_NO":"４１７號五樓之３","E_COORD97":172846.07999999999,"N_COORD97":2546603.04,"ADDRESS":"永二街４１７號五樓之３","OBJECTID":540326},"geometry":{"x":172846.08000000101,"y":2546603.0400000028}},{"attributes":{"ID":540354,"DIS_CODE":0,"TOWNNAME":"永康區","LI":"二王里","LIN":"12鄰","STREET":"永二街","SECT":" ","MAREA":" ","LANE":" ","ALLEY":" ","HOUSE_NO":"４１７號九樓之２","E_COORD97":172846.10999999999,"N_COORD97":2546603.04,"ADDRESS":"永二街４１７號九樓之２","OBJECTID":540327},"geometry":{"x":172846.11000000127,"y":2546603.0400000028}},{"attributes":{"ID":540355,"DIS_CODE":0,"TOWNNAME":"永康區","LI":"二王里","LIN":"12鄰","STREET":"永二街","SECT":" ","MAREA":" ","LANE":" ","ALLEY":" ","HOUSE_NO":"４１９號十四樓之１","E_COORD97":172828.82000000001,"N_COORD97":2546575.54,"ADDRESS":"永二街４１９號十四樓之１","OBJECTID":540328},"geometry":{"x":172828.8200000003,"y":2546575.5399999991}},{"attributes":{"ID":540356,"DIS_CODE":0,"TOWNNAME":"永康區","LI":"二王里","LIN":"12鄰","STREET":"永二街","SECT":" ","MAREA":" ","LANE":" ","ALLEY":" ","HOUSE_NO":"４１９號十五樓之２","E_COORD97":172828.95000000001,"N_COORD97":2546575.54,"ADDRESS":"永二街４１９號十五樓之２","OBJECTID":540329},"geometry":{"x":172828.95000000112,"y":2546575.5399999991}},{"attributes":{"ID":540357,"DIS_CODE":0,"TOWNNAME":"永康區","LI":"二王里","LIN":"12鄰","STREET":"永二街","SECT":" ","MAREA":" ","LANE":" ","ALLEY":" ","HOUSE_NO":"４１７號十樓之２","E_COORD97":172846.10999999999,"N_COORD97":2546603.04,"ADDRESS":"永二街４１７號十樓之２","OBJECTID":540330},"geometry":{"x":172846.11000000127,"y":2546603.0400000028}},{"attributes":{"ID":540358,"DIS_CODE":0,"TOWNNAME":"永康區","LI":"二王里","LIN":"12鄰","STREET":"永二街","SECT":" ","MAREA":" ","LANE":" ","ALLEY":" ","HOUSE_NO":"４１９號十四樓之２","E_COORD97":172828.95000000001,"N_COORD97":2546575.54,"ADDRESS":"永二街４１９號十四樓之２","OBJECTID":540331},"geometry":{"x":172828.95000000112,"y":2546575.5399999991}},{"attributes":{"ID":540359,"DIS_CODE":0,"TOWNNAME":"永康區","LI":"二王里","LIN":"12鄰","STREET":"永二街","SECT":" ","MAREA":" ","LANE":" ","ALLEY":" ","HOUSE_NO":"４１９號十二樓之１","E_COORD97":172828.82000000001,"N_COORD97":2546575.54,"ADDRESS":"永二街４１９號十二樓之１","OBJECTID":540332},"geometry":{"x":172828.8200000003,"y":2546575.5399999991}},{"attributes":{"ID":540360,"DIS_CODE":0,"TOWNNAME":"永康區","LI":"二王里","LIN":"12鄰","STREET":"永二街","SECT":" ","MAREA":" ","LANE":" ","ALLEY":" ","HOUSE_NO":"４２３號九樓之２","E_COORD97":172783.47,"N_COORD97":2546569.98,"ADDRESS":"永二街４２３號九樓之２","OBJECTID":540333},"geometry":{"x":172783.4700000016,"y":2546569.9800000004}},{"attributes":{"ID":540361,"DIS_CODE":0,"TOWNNAME":"仁德區","LI":"保安里","LIN":"12鄰","STREET":"開發二路","SECT":" ","MAREA":" ","LANE":" ","ALLEY":" ","HOUSE_NO":"１５號","E_COORD97":172605.53,"N_COORD97":2535986.27,"ADDRESS":"開發二路１５號","OBJECTID":540334},"geometry":{"x":172605.52999999933,"y":2535986.2699999996}},{"attributes":{"ID":540362,"DIS_CODE":0,"TOWNNAME":"永康區","LI":"南灣里","LIN":"21鄰","STREET":"大灣路","SECT":" ","MAREA":" ","LANE":" ","ALLEY":" ","HOUSE_NO":"７１８號","E_COORD97":174299.10000000001,"N_COORD97":2544568.96,"ADDRESS":"大灣路７１８號","OBJECTID":540335},"geometry":{"x":174299.09999999963,"y":2544568.9600000028}},{"attributes":{"ID":540363,"DIS_CODE":0,"TOWNNAME":"永康區","LI":"東橋里","LIN":"20鄰","STREET":"自強路","SECT":" ","MAREA":" ","LANE":" ","ALLEY":" ","HOUSE_NO":"２８號","E_COORD97":172763.14000000001,"N_COORD97":2547199.9900000002,"ADDRESS":"自強路２８號","OBJECTID":540336},"geometry":{"x":172763.13999999966,"y":2547199.9900000002}},{"attributes":{"ID":540364,"DIS_CODE":0,"TOWNNAME":"永康區","LI":"南灣里","LIN":"15鄰","STREET":"立興街","SECT":" ","MAREA":" ","LANE":" ","ALLEY":" ","HOUSE_NO":"１１９號","E_COORD97":174455.39999999999,"N_COORD97":2544686.7000000002,"ADDRESS":"立興街１１９號","OBJECTID":540337},"geometry":{"x":174455.40000000037,"y":2544686.700000003}},{"attributes":{"ID":540365,"DIS_CODE":0,"TOWNNAME":"東區","LI":"龍山里","LIN":"12鄰","STREET":"東門路","SECT":"一段","MAREA":" ","LANE":" ","ALLEY":" ","HOUSE_NO":"３５４號二樓","E_COORD97":169834.17999999999,"N_COORD97":2543017.0899999999,"ADDRESS":"東門路一段３５４號二樓","OBJECTID":540338},"geometry":{"x":169834.18000000156,"y":2543017.0900000017}},{"attributes":{"ID":540366,"DIS_CODE":0,"TOWNNAME":"東區","LI":"龍山里","LIN":"12鄰","STREET":"東門路","SECT":"一段","MAREA":" ","LANE":" ","ALLEY":" ","HOUSE_NO":"３５４號三樓","E_COORD97":169834.17999999999,"N_COORD97":2543017.0899999999,"ADDRESS":"東門路一段３５４號三樓","OBJECTID":540339},"geometry":{"x":169834.18000000156,"y":2543017.0900000017}},{"attributes":{"ID":540367,"DIS_CODE":0,"TOWNNAME":"東區","LI":"龍山里","LIN":"12鄰","STREET":"東門路","SECT":"一段","MAREA":" ","LANE":" ","ALLEY":" ","HOUSE_NO":"３５４號四樓","E_COORD97":169834.17999999999,"N_COORD97":2543017.0899999999,"ADDRESS":"東門路一段３５４號四樓","OBJECTID":540340},"geometry":{"x":169834.18000000156,"y":2543017.0900000017}},{"attributes":{"ID":540368,"DIS_CODE":0,"TOWNNAME":"東區","LI":"龍山里","LIN":"12鄰","STREET":"東門路","SECT":"一段","MAREA":" ","LANE":" ","ALLEY":" ","HOUSE_NO":"３５４號五樓","E_COORD97":169834.17999999999,"N_COORD97":2543017.0899999999,"ADDRESS":"東門路一段３５４號五樓","OBJECTID":540341},"geometry":{"x":169834.18000000156,"y":2543017.0900000017}},{"attributes":{"ID":540369,"DIS_CODE":0,"TOWNNAME":"東區","LI":"龍山里","LIN":"12鄰","STREET":"東門路","SECT":"一段","MAREA":" ","LANE":" ","ALLEY":" ","HOUSE_NO":"３５４號五樓之１","E_COORD97":169834.17999999999,"N_COORD97":2543017.0899999999,"ADDRESS":"東門路一段３５４號五樓之１","OBJECTID":540342},"geometry":{"x":169834.18000000156,"y":2543017.0900000017}},{"attributes":{"ID":540370,"DIS_CODE":0,"TOWNNAME":"東區","LI":"龍山里","LIN":"12鄰","STREET":"東門路","SECT":"一段","MAREA":" ","LANE":" ","ALLEY":" ","HOUSE_NO":"３５４號六樓","E_COORD97":169834.17999999999,"N_COORD97":2543017.0899999999,"ADDRESS":"東門路一段３５４號六樓","OBJECTID":540343},"geometry":{"x":169834.18000000156,"y":2543017.0900000017}},{"attributes":{"ID":540371,"DIS_CODE":0,"TOWNNAME":"東區","LI":"龍山里","LIN":"12鄰","STREET":"東門路","SECT":"一段","MAREA":" ","LANE":" ","ALLEY":" ","HOUSE_NO":"３５４號八樓","E_COORD97":169834.17999999999,"N_COORD97":2543017.0899999999,"ADDRESS":"東門路一段３５４號八樓","OBJECTID":540344},"geometry":{"x":169834.18000000156,"y":2543017.0900000017}},{"attributes":{"ID":540372,"DIS_CODE":0,"TOWNNAME":"東區","LI":"龍山里","LIN":"12鄰","STREET":"東門路","SECT":"一段","MAREA":" ","LANE":" ","ALLEY":" ","HOUSE_NO":"３５４號九樓","E_COORD97":169834.17999999999,"N_COORD97":2543017.0899999999,"ADDRESS":"東門路一段３５４號九樓","OBJECTID":540345},"geometry":{"x":169834.18000000156,"y":2543017.0900000017}},{"attributes":{"ID":540373,"DIS_CODE":0,"TOWNNAME":"永康區","LI":"烏竹里","LIN":"17鄰","STREET":"龍橋街","SECT":" ","MAREA":" ","LANE":" ","ALLEY":" ","HOUSE_NO":"２６１號","E_COORD97":174561.57000000001,"N_COORD97":2548854.4900000002,"ADDRESS":"龍橋街２６１號","OBJECTID":540346},"geometry":{"x":174561.57000000216,"y":2548854.4900000002}},{"attributes":{"ID":540374,"DIS_CODE":0,"TOWNNAME":"東區","LI":"龍山里","LIN":"12鄰","STREET":"東門路","SECT":"一段","MAREA":" ","LANE":" ","ALLEY":" ","HOUSE_NO":"３５４號十樓","E_COORD97":169834.17999999999,"N_COORD97":2543017.0899999999,"ADDRESS":"東門路一段３５４號十樓","OBJECTID":540347},"geometry":{"x":169834.18000000156,"y":2543017.0900000017}},{"attributes":{"ID":540375,"DIS_CODE":0,"TOWNNAME":"東區","LI":"龍山里","LIN":"12鄰","STREET":"東門路","SECT":"一段","MAREA":" ","LANE":" ","ALLEY":" ","HOUSE_NO":"３５４號十一樓","E_COORD97":169834.17999999999,"N_COORD97":2543017.0899999999,"ADDRESS":"東門路一段３５４號十一樓","OBJECTID":540348},"geometry":{"x":169834.18000000156,"y":2543017.0900000017}},{"attributes":{"ID":540376,"DIS_CODE":0,"TOWNNAME":"東區","LI":"龍山里","LIN":"12鄰","STREET":"東門路","SECT":"一段","MAREA":" ","LANE":" ","ALLEY":" ","HOUSE_NO":"３５８號三樓之２","E_COORD97":169853.26000000001,"N_COORD97":2543007.4700000002,"ADDRESS":"東門路一段３５８號三樓之２","OBJECTID":540349},"geometry":{"x":169853.25999999978,"y":2543007.4700000007}},{"attributes":{"ID":540377,"DIS_CODE":0,"TOWNNAME":"東區","LI":"龍山里","LIN":"12鄰","STREET":"東門路","SECT":"一段","MAREA":" ","LANE":" ","ALLEY":" ","HOUSE_NO":"３５８號四樓","E_COORD97":169853.26000000001,"N_COORD97":2543007.4700000002,"ADDRESS":"東門路一段３５８號四樓","OBJECTID":540350},"geometry":{"x":169853.25999999978,"y":2543007.4700000007}},{"attributes":{"ID":540378,"DIS_CODE":0,"TOWNNAME":"東區","LI":"龍山里","LIN":"12鄰","STREET":"東門路","SECT":"一段","MAREA":" ","LANE":" ","ALLEY":" ","HOUSE_NO":"３５８號四樓之１","E_COORD97":169853.26000000001,"N_COORD97":2543007.4700000002,"ADDRESS":"東門路一段３５８號四樓之１","OBJECTID":540351},"geometry":{"x":169853.25999999978,"y":2543007.4700000007}},{"attributes":{"ID":540379,"DIS_CODE":0,"TOWNNAME":"東區","LI":"龍山里","LIN":"12鄰","STREET":"東門路","SECT":"一段","MAREA":" ","LANE":" ","ALLEY":" ","HOUSE_NO":"３５８號四樓之２","E_COORD97":169853.26000000001,"N_COORD97":2543007.4700000002,"ADDRESS":"東門路一段３５８號四樓之２","OBJECTID":540352},"geometry":{"x":169853.25999999978,"y":2543007.4700000007}},{"attributes":{"ID":540380,"DIS_CODE":0,"TOWNNAME":"東區","LI":"龍山里","LIN":"12鄰","STREET":"東門路","SECT":"一段","MAREA":" ","LANE":" ","ALLEY":" ","HOUSE_NO":"３５８號四樓之３","E_COORD97":169853.26000000001,"N_COORD97":2543007.4700000002,"ADDRESS":"東門路一段３５８號四樓之３","OBJECTID":540353},"geometry":{"x":169853.25999999978,"y":2543007.4700000007}},{"attributes":{"ID":540381,"DIS_CODE":0,"TOWNNAME":"東區","LI":"龍山里","LIN":"12鄰","STREET":"東門路","SECT":"一段","MAREA":" ","LANE":" ","ALLEY":" ","HOUSE_NO":"３５８號四樓之４","E_COORD97":169853.26000000001,"N_COORD97":2543007.4700000002,"ADDRESS":"東門路一段３５８號四樓之４","OBJECTID":540354},"geometry":{"x":169853.25999999978,"y":2543007.4700000007}},{"attributes":{"ID":540382,"DIS_CODE":0,"TOWNNAME":"東區","LI":"龍山里","LIN":"12鄰","STREET":"東門路","SECT":"一段","MAREA":" ","LANE":" ","ALLEY":" ","HOUSE_NO":"３５８號五樓","E_COORD97":169853.26000000001,"N_COORD97":2543007.4700000002,"ADDRESS":"東門路一段３５８號五樓","OBJECTID":540355},"geometry":{"x":169853.25999999978,"y":2543007.4700000007}},{"attributes":{"ID":540383,"DIS_CODE":0,"TOWNNAME":"東區","LI":"龍山里","LIN":"12鄰","STREET":"東門路","SECT":"一段","MAREA":" ","LANE":" ","ALLEY":" ","HOUSE_NO":"３５８號五樓之１","E_COORD97":169853.26000000001,"N_COORD97":2543007.4700000002,"ADDRESS":"東門路一段３５８號五樓之１","OBJECTID":540356},"geometry":{"x":169853.25999999978,"y":2543007.4700000007}},{"attributes":{"ID":540384,"DIS_CODE":0,"TOWNNAME":"東區","LI":"龍山里","LIN":"12鄰","STREET":"東門路","SECT":"一段","MAREA":" ","LANE":" ","ALLEY":" ","HOUSE_NO":"３５８號五樓之２","E_COORD97":169853.26000000001,"N_COORD97":2543007.4700000002,"ADDRESS":"東門路一段３５８號五樓之２","OBJECTID":540357},"geometry":{"x":169853.25999999978,"y":2543007.4700000007}},{"attributes":{"ID":540385,"DIS_CODE":0,"TOWNNAME":"東區","LI":"龍山里","LIN":"12鄰","STREET":"東門路","SECT":"一段","MAREA":" ","LANE":" ","ALLEY":" ","HOUSE_NO":"３５８號五樓之３","E_COORD97":169853.26000000001,"N_COORD97":2543007.4700000002,"ADDRESS":"東門路一段３５８號五樓之３","OBJECTID":540358},"geometry":{"x":169853.25999999978,"y":2543007.4700000007}},{"attributes":{"ID":540386,"DIS_CODE":0,"TOWNNAME":"東區","LI":"龍山里","LIN":"12鄰","STREET":"東門路","SECT":"一段","MAREA":" ","LANE":" ","ALLEY":" ","HOUSE_NO":"３５８號五樓之４","E_COORD97":169853.26000000001,"N_COORD97":2543007.4700000002,"ADDRESS":"東門路一段３５８號五樓之４","OBJECTID":540359},"geometry":{"x":169853.25999999978,"y":2543007.4700000007}},{"attributes":{"ID":540387,"DIS_CODE":0,"TOWNNAME":"東區","LI":"龍山里","LIN":"12鄰","STREET":"東門路","SECT":"一段","MAREA":" ","LANE":" ","ALLEY":" ","HOUSE_NO":"３５８號六樓","E_COORD97":169853.26000000001,"N_COORD97":2543007.4700000002,"ADDRESS":"東門路一段３５８號六樓","OBJECTID":540360},"geometry":{"x":169853.25999999978,"y":2543007.4700000007}},{"attributes":{"ID":540388,"DIS_CODE":0,"TOWNNAME":"東區","LI":"龍山里","LIN":"12鄰","STREET":"東門路","SECT":"一段","MAREA":" ","LANE":" ","ALLEY":" ","HOUSE_NO":"３５８號六樓之１","E_COORD97":169853.26000000001,"N_COORD97":2543007.4700000002,"ADDRESS":"東門路一段３５８號六樓之１","OBJECTID":540361},"geometry":{"x":169853.25999999978,"y":2543007.4700000007}},{"attributes":{"ID":540389,"DIS_CODE":0,"TOWNNAME":"東區","LI":"龍山里","LIN":"12鄰","STREET":"東門路","SECT":"一段","MAREA":" ","LANE":" ","ALLEY":" ","HOUSE_NO":"３５８號六樓之２","E_COORD97":169853.26000000001,"N_COORD97":2543007.4700000002,"ADDRESS":"東門路一段３５８號六樓之２","OBJECTID":540362},"geometry":{"x":169853.25999999978,"y":2543007.4700000007}},{"attributes":{"ID":540390,"DIS_CODE":0,"TOWNNAME":"東區","LI":"龍山里","LIN":"12鄰","STREET":"東門路","SECT":"一段","MAREA":" ","LANE":" ","ALLEY":" ","HOUSE_NO":"３５８號六樓之３","E_COORD97":169853.26000000001,"N_COORD97":2543007.4700000002,"ADDRESS":"東門路一段３５８號六樓之３","OBJECTID":540363},"geometry":{"x":169853.25999999978,"y":2543007.4700000007}},{"attributes":{"ID":540391,"DIS_CODE":0,"TOWNNAME":"東區","LI":"龍山里","LIN":"12鄰","STREET":"東門路","SECT":"一段","MAREA":" ","LANE":" ","ALLEY":" ","HOUSE_NO":"３５８號六樓之４","E_COORD97":169853.26000000001,"N_COORD97":2543007.4700000002,"ADDRESS":"東門路一段３５８號六樓之４","OBJECTID":540364},"geometry":{"x":169853.25999999978,"y":2543007.4700000007}},{"attributes":{"ID":540392,"DIS_CODE":0,"TOWNNAME":"東區","LI":"龍山里","LIN":"12鄰","STREET":"東門路","SECT":"一段","MAREA":" ","LANE":" ","ALLEY":" ","HOUSE_NO":"３５８號七樓","E_COORD97":169853.26000000001,"N_COORD97":2543007.4700000002,"ADDRESS":"東門路一段３５８號七樓","OBJECTID":540365},"geometry":{"x":169853.25999999978,"y":2543007.4700000007}},{"attributes":{"ID":540393,"DIS_CODE":0,"TOWNNAME":"東區","LI":"龍山里","LIN":"12鄰","STREET":"東門路","SECT":"一段","MAREA":" ","LANE":" ","ALLEY":" ","HOUSE_NO":"３５８號七樓之１","E_COORD97":169853.26000000001,"N_COORD97":2543007.4700000002,"ADDRESS":"東門路一段３５８號七樓之１","OBJECTID":540366},"geometry":{"x":169853.25999999978,"y":2543007.4700000007}},{"attributes":{"ID":540394,"DIS_CODE":0,"TOWNNAME":"東區","LI":"龍山里","LIN":"12鄰","STREET":"東門路","SECT":"一段","MAREA":" ","LANE":" ","ALLEY":" ","HOUSE_NO":"３５８號七樓之２","E_COORD97":169853.26000000001,"N_COORD97":2543007.4700000002,"ADDRESS":"東門路一段３５８號七樓之２","OBJECTID":540367},"geometry":{"x":169853.25999999978,"y":2543007.4700000007}},{"attributes":{"ID":540395,"DIS_CODE":0,"TOWNNAME":"東區","LI":"龍山里","LIN":"12鄰","STREET":"東門路","SECT":"一段","MAREA":" ","LANE":" ","ALLEY":" ","HOUSE_NO":"３５８號七樓之３","E_COORD97":169853.26000000001,"N_COORD97":2543007.4700000002,"ADDRESS":"東門路一段３５８號七樓之３","OBJECTID":540368},"geometry":{"x":169853.25999999978,"y":2543007.4700000007}},{"attributes":{"ID":540396,"DIS_CODE":0,"TOWNNAME":"東區","LI":"龍山里","LIN":"12鄰","STREET":"東門路","SECT":"一段","MAREA":" ","LANE":" ","ALLEY":" ","HOUSE_NO":"３５８號七樓之４","E_COORD97":169853.26000000001,"N_COORD97":2543007.4700000002,"ADDRESS":"東門路一段３５８號七樓之４","OBJECTID":540369},"geometry":{"x":169853.25999999978,"y":2543007.4700000007}},{"attributes":{"ID":540397,"DIS_CODE":0,"TOWNNAME":"東區","LI":"龍山里","LIN":"12鄰","STREET":"東門路","SECT":"一段","MAREA":" ","LANE":" ","ALLEY":" ","HOUSE_NO":"３５８號八樓","E_COORD97":169853.26000000001,"N_COORD97":2543007.4700000002,"ADDRESS":"東門路一段３５８號八樓","OBJECTID":540370},"geometry":{"x":169853.25999999978,"y":2543007.4700000007}},{"attributes":{"ID":540398,"DIS_CODE":0,"TOWNNAME":"東區","LI":"龍山里","LIN":"12鄰","STREET":"東門路","SECT":"一段","MAREA":" ","LANE":" ","ALLEY":" ","HOUSE_NO":"３５８號八樓之１","E_COORD97":169853.26000000001,"N_COORD97":2543007.4700000002,"ADDRESS":"東門路一段３５８號八樓之１","OBJECTID":540371},"geometry":{"x":169853.25999999978,"y":2543007.4700000007}},{"attributes":{"ID":540399,"DIS_CODE":0,"TOWNNAME":"東區","LI":"龍山里","LIN":"12鄰","STREET":"東門路","SECT":"一段","MAREA":" ","LANE":" ","ALLEY":" ","HOUSE_NO":"３５８號八樓之２","E_COORD97":169853.26000000001,"N_COORD97":2543007.4700000002,"ADDRESS":"東門路一段３５８號八樓之２","OBJECTID":540372},"geometry":{"x":169853.25999999978,"y":2543007.4700000007}},{"attributes":{"ID":540400,"DIS_CODE":0,"TOWNNAME":"東區","LI":"龍山里","LIN":"12鄰","STREET":"東門路","SECT":"一段","MAREA":" ","LANE":" ","ALLEY":" ","HOUSE_NO":"３５８號八樓之３","E_COORD97":169853.26000000001,"N_COORD97":2543007.4700000002,"ADDRESS":"東門路一段３５８號八樓之３","OBJECTID":540373},"geometry":{"x":169853.25999999978,"y":2543007.4700000007}},{"attributes":{"ID":540401,"DIS_CODE":0,"TOWNNAME":"永康區","LI":"南灣里","LIN":"13鄰","STREET":"立興街","SECT":" ","MAREA":" ","LANE":" ","ALLEY":" ","HOUSE_NO":"７９號","E_COORD97":174561.20000000001,"N_COORD97":2544770.5099999998,"ADDRESS":"立興街７９號","OBJECTID":540374},"geometry":{"x":174561.20000000112,"y":2544770.5100000016}},{"attributes":{"ID":540402,"DIS_CODE":0,"TOWNNAME":"永康區","LI":"烏竹里","LIN":"1鄰","STREET":"龍橋街","SECT":" ","MAREA":" ","LANE":" ","ALLEY":" ","HOUSE_NO":"５０８號","E_COORD97":174390.87,"N_COORD97":2549438.25,"ADDRESS":"龍橋街５０８號","OBJECTID":540375},"geometry":{"x":174390.87000000011,"y":2549438.2500000019}},{"attributes":{"ID":540403,"DIS_CODE":0,"TOWNNAME":"東區","LI":"龍山里","LIN":"12鄰","STREET":"東門路","SECT":"一段","MAREA":" ","LANE":" ","ALLEY":" ","HOUSE_NO":"３５８號八樓之４","E_COORD97":169853.26000000001,"N_COORD97":2543007.4700000002,"ADDRESS":"東門路一段３５８號八樓之４","OBJECTID":540376},"geometry":{"x":169853.25999999978,"y":2543007.4700000007}},{"attributes":{"ID":540404,"DIS_CODE":0,"TOWNNAME":"東區","LI":"龍山里","LIN":"12鄰","STREET":"東門路","SECT":"一段","MAREA":" ","LANE":" ","ALLEY":" ","HOUSE_NO":"３５８號九樓","E_COORD97":169853.26000000001,"N_COORD97":2543007.4700000002,"ADDRESS":"東門路一段３５８號九樓","OBJECTID":540377},"geometry":{"x":169853.25999999978,"y":2543007.4700000007}},{"attributes":{"ID":540405,"DIS_CODE":0,"TOWNNAME":"東區","LI":"龍山里","LIN":"12鄰","STREET":"東門路","SECT":"一段","MAREA":" ","LANE":" ","ALLEY":" ","HOUSE_NO":"３５８號九樓之１","E_COORD97":169853.26000000001,"N_COORD97":2543007.4700000002,"ADDRESS":"東門路一段３５８號九樓之１","OBJECTID":540378},"geometry":{"x":169853.25999999978,"y":2543007.4700000007}},{"attributes":{"ID":540406,"DIS_CODE":0,"TOWNNAME":"東區","LI":"龍山里","LIN":"12鄰","STREET":"東門路","SECT":"一段","MAREA":" ","LANE":" ","ALLEY":" ","HOUSE_NO":"３５８號九樓之２","E_COORD97":169853.26000000001,"N_COORD97":2543007.4700000002,"ADDRESS":"東門路一段３５８號九樓之２","OBJECTID":540379},"geometry":{"x":169853.25999999978,"y":2543007.4700000007}},{"attributes":{"ID":540407,"DIS_CODE":0,"TOWNNAME":"東區","LI":"龍山里","LIN":"12鄰","STREET":"東門路","SECT":"一段","MAREA":" ","LANE":" ","ALLEY":" ","HOUSE_NO":"３５８號九樓之３","E_COORD97":169853.26000000001,"N_COORD97":2543007.4700000002,"ADDRESS":"東門路一段３５８號九樓之３","OBJECTID":540380},"geometry":{"x":169853.25999999978,"y":2543007.4700000007}},{"attributes":{"ID":540408,"DIS_CODE":0,"TOWNNAME":"東區","LI":"龍山里","LIN":"12鄰","STREET":"東門路","SECT":"一段","MAREA":" ","LANE":" ","ALLEY":" ","HOUSE_NO":"３５８號九樓之４","E_COORD97":169853.26000000001,"N_COORD97":2543007.4700000002,"ADDRESS":"東門路一段３５８號九樓之４","OBJECTID":540381},"geometry":{"x":169853.25999999978,"y":2543007.4700000007}},{"attributes":{"ID":540409,"DIS_CODE":0,"TOWNNAME":"東區","LI":"龍山里","LIN":"12鄰","STREET":"東門路","SECT":"一段","MAREA":" ","LANE":" ","ALLEY":" ","HOUSE_NO":"３５８號十樓","E_COORD97":169853.26000000001,"N_COORD97":2543007.4700000002,"ADDRESS":"東門路一段３５８號十樓","OBJECTID":540382},"geometry":{"x":169853.25999999978,"y":2543007.4700000007}},{"attributes":{"ID":540410,"DIS_CODE":0,"TOWNNAME":"東區","LI":"龍山里","LIN":"12鄰","STREET":"東門路","SECT":"一段","MAREA":" ","LANE":" ","ALLEY":" ","HOUSE_NO":"３５８號十一樓","E_COORD97":169853.26000000001,"N_COORD97":2543007.4700000002,"ADDRESS":"東門路一段３５８號十一樓","OBJECTID":540383},"geometry":{"x":169853.25999999978,"y":2543007.4700000007}},{"attributes":{"ID":540411,"DIS_CODE":0,"TOWNNAME":"麻豆區","LI":"大埕里","LIN":"12鄰","STREET":"平等路","SECT":" ","MAREA":" ","LANE":" ","ALLEY":" ","HOUSE_NO":"１０號之７二樓","E_COORD97":173068.73000000001,"N_COORD97":2565144.6499999999,"ADDRESS":"平等路１０號之７二樓","OBJECTID":540384},"geometry":{"x":173068.73000000045,"y":2565144.6500000004}},{"attributes":{"ID":540412,"DIS_CODE":0,"TOWNNAME":"麻豆區","LI":"大埕里","LIN":"12鄰","STREET":"平等路","SECT":" ","MAREA":" ","LANE":" ","ALLEY":" ","HOUSE_NO":"１０號之７三樓","E_COORD97":173068.73000000001,"N_COORD97":2565144.6499999999,"ADDRESS":"平等路１０號之７三樓","OBJECTID":540385},"geometry":{"x":173068.73000000045,"y":2565144.6500000004}},{"attributes":{"ID":540413,"DIS_CODE":0,"TOWNNAME":"麻豆區","LI":"大埕里","LIN":"12鄰","STREET":"平等路","SECT":" ","MAREA":" ","LANE":" ","ALLEY":" ","HOUSE_NO":"１０號之７五樓","E_COORD97":173068.73000000001,"N_COORD97":2565144.6499999999,"ADDRESS":"平等路１０號之７五樓","OBJECTID":540386},"geometry":{"x":173068.73000000045,"y":2565144.6500000004}},{"attributes":{"ID":540414,"DIS_CODE":0,"TOWNNAME":"麻豆區","LI":"大埕里","LIN":"12鄰","STREET":"平等路","SECT":" ","MAREA":" ","LANE":" ","ALLEY":" ","HOUSE_NO":"１０號之７四樓","E_COORD97":173068.73000000001,"N_COORD97":2565144.6499999999,"ADDRESS":"平等路１０號之７四樓","OBJECTID":540387},"geometry":{"x":173068.73000000045,"y":2565144.6500000004}},{"attributes":{"ID":540415,"DIS_CODE":0,"TOWNNAME":"永康區","LI":"埔園里","LIN":"33鄰","STREET":"自強路","SECT":" ","MAREA":" ","LANE":" ","ALLEY":" ","HOUSE_NO":"４９１號","E_COORD97":173953.54000000001,"N_COORD97":2548150.4900000002,"ADDRESS":"自強路４９１號","OBJECTID":540388},"geometry":{"x":173953.54000000097,"y":2548150.4899999984}},{"attributes":{"ID":540416,"DIS_CODE":0,"TOWNNAME":"中西區","LI":"建國里","LIN":"12鄰","STREET":"民生路","SECT":"一段","MAREA":" ","LANE":" ","ALLEY":" ","HOUSE_NO":"１６７號一樓","E_COORD97":168013.16,"N_COORD97":2543834.3199999998,"ADDRESS":"民生路一段１６７號一樓","OBJECTID":540389},"geometry":{"x":168013.16000000108,"y":2543834.3200000003}},{"attributes":{"ID":540417,"DIS_CODE":0,"TOWNNAME":"中西區","LI":"建國里","LIN":"12鄰","STREET":"民生路","SECT":"一段","MAREA":" ","LANE":" ","ALLEY":" ","HOUSE_NO":"１６７號七樓之１","E_COORD97":168013.16,"N_COORD97":2543834.3199999998,"ADDRESS":"民生路一段１６７號七樓之１","OBJECTID":540390},"geometry":{"x":168013.16000000108,"y":2543834.3200000003}},{"attributes":{"ID":540418,"DIS_CODE":0,"TOWNNAME":"中西區","LI":"建國里","LIN":"12鄰","STREET":"民生路","SECT":"一段","MAREA":" ","LANE":" ","ALLEY":" ","HOUSE_NO":"１６７號七樓之２","E_COORD97":168013.16,"N_COORD97":2543834.3199999998,"ADDRESS":"民生路一段１６７號七樓之２","OBJECTID":540391},"geometry":{"x":168013.16000000108,"y":2543834.3200000003}},{"attributes":{"ID":540419,"DIS_CODE":0,"TOWNNAME":"中西區","LI":"建國里","LIN":"12鄰","STREET":"民生路","SECT":"一段","MAREA":" ","LANE":" ","ALLEY":" ","HOUSE_NO":"１６７號七樓之３","E_COORD97":168013.16,"N_COORD97":2543834.3199999998,"ADDRESS":"民生路一段１６７號七樓之３","OBJECTID":540392},"geometry":{"x":168013.16000000108,"y":2543834.3200000003}},{"attributes":{"ID":540420,"DIS_CODE":0,"TOWNNAME":"中西區","LI":"建國里","LIN":"12鄰","STREET":"民生路","SECT":"一段","MAREA":" ","LANE":" ","ALLEY":" ","HOUSE_NO":"１６７號七樓之４","E_COORD97":168013.16,"N_COORD97":2543834.3199999998,"ADDRESS":"民生路一段１６７號七樓之４","OBJECTID":540393},"geometry":{"x":168013.16000000108,"y":2543834.3200000003}},{"attributes":{"ID":540421,"DIS_CODE":0,"TOWNNAME":"中西區","LI":"建國里","LIN":"12鄰","STREET":"民生路","SECT":"一段","MAREA":" ","LANE":" ","ALLEY":" ","HOUSE_NO":"１６７號七樓之５","E_COORD97":168013.16,"N_COORD97":2543834.3199999998,"ADDRESS":"民生路一段１６７號七樓之５","OBJECTID":540394},"geometry":{"x":168013.16000000108,"y":2543834.3200000003}},{"attributes":{"ID":540422,"DIS_CODE":0,"TOWNNAME":"中西區","LI":"建國里","LIN":"12鄰","STREET":"民生路","SECT":"一段","MAREA":" ","LANE":" ","ALLEY":" ","HOUSE_NO":"１６７號九樓之１","E_COORD97":168013.16,"N_COORD97":2543834.3199999998,"ADDRESS":"民生路一段１６７號九樓之１","OBJECTID":540395},"geometry":{"x":168013.16000000108,"y":2543834.3200000003}},{"attributes":{"ID":540423,"DIS_CODE":0,"TOWNNAME":"仁德區","LI":"保安里","LIN":"12鄰","STREET":"開發二路","SECT":" ","MAREA":" ","LANE":" ","ALLEY":" ","HOUSE_NO":"２０號","E_COORD97":172764.78,"N_COORD97":2536066.77,"ADDRESS":"開發二路２０號","OBJECTID":540396},"geometry":{"x":172764.78000000026,"y":2536066.7699999996}},{"attributes":{"ID":540424,"DIS_CODE":0,"TOWNNAME":"中西區","LI":"建國里","LIN":"12鄰","STREET":"民生路","SECT":"一段","MAREA":" ","LANE":" ","ALLEY":" ","HOUSE_NO":"１６７號九樓之２","E_COORD97":168013.16,"N_COORD97":2543834.3199999998,"ADDRESS":"民生路一段１６７號九樓之２","OBJECTID":540397},"geometry":{"x":168013.16000000108,"y":2543834.3200000003}},{"attributes":{"ID":540425,"DIS_CODE":0,"TOWNNAME":"中西區","LI":"建國里","LIN":"12鄰","STREET":"民生路","SECT":"一段","MAREA":" ","LANE":" ","ALLEY":" ","HOUSE_NO":"１６７號九樓之３","E_COORD97":168013.16,"N_COORD97":2543834.3199999998,"ADDRESS":"民生路一段１６７號九樓之３","OBJECTID":540398},"geometry":{"x":168013.16000000108,"y":2543834.3200000003}},{"attributes":{"ID":540426,"DIS_CODE":0,"TOWNNAME":"中西區","LI":"建國里","LIN":"12鄰","STREET":"民生路","SECT":"一段","MAREA":" ","LANE":" ","ALLEY":" ","HOUSE_NO":"１６７號九樓之４","E_COORD97":168013.16,"N_COORD97":2543834.3199999998,"ADDRESS":"民生路一段１６７號九樓之４","OBJECTID":540399},"geometry":{"x":168013.16000000108,"y":2543834.3200000003}},{"attributes":{"ID":540427,"DIS_CODE":0,"TOWNNAME":"中西區","LI":"建國里","LIN":"12鄰","STREET":"民生路","SECT":"一段","MAREA":" ","LANE":" ","ALLEY":" ","HOUSE_NO":"１６７號二樓","E_COORD97":168013.16,"N_COORD97":2543834.3199999998,"ADDRESS":"民生路一段１６７號二樓","OBJECTID":540400},"geometry":{"x":168013.16000000108,"y":2543834.3200000003}}]}