{"displayFieldName":"TOWNNAME","fieldAliases":{"ID":"ID","DIS_CODE":"DIS_CODE","TOWNNAME":"TOWNNAME","LI":"LI","LIN":"LIN","STREET":"STREET","SECT":"SECT","MAREA":"MAREA","LANE":"LANE","ALLEY":"ALLEY","HOUSE_NO":"HOUSE_NO","E_COORD97":"E_COORD97","N_COORD97":"N_COORD97","ADDRESS":"ADDRESS","OBJECTID":"OBJECTID"},"geometryType":"esriGeometryPoint","spatialReference":{"wkid":102443,"latestWkid":3826},"fields":[{"name":"ID","type":"esriFieldTypeDouble","alias":"ID"},{"name":"DIS_CODE","type":"esriFieldTypeInteger","alias":"DIS_CODE"},{"name":"TOWNNAME","type":"esriFieldTypeString","alias":"TOWNNAME","length":8},{"name":"LI","type":"esriFieldTypeString","alias":"LI","length":8},{"name":"LIN","type":"esriFieldTypeString","alias":"LIN","length":12},{"name":"STREET","type":"esriFieldTypeString","alias":"STREET","length":20},{"name":"SECT","type":"esriFieldTypeString","alias":"SECT","length":8},{"name":"MAREA","type":"esriFieldTypeString","alias":"MAREA","length":12},{"name":"LANE","type":"esriFieldTypeString","alias":"LANE","length":10},{"name":"ALLEY","type":"esriFieldTypeString","alias":"ALLEY","length":10},{"name":"HOUSE_NO","type":"esriFieldTypeString","alias":"HOUSE_NO","length":20},{"name":"E_COORD97","type":"esriFieldTypeDouble","alias":"E_COORD97"},{"name":"N_COORD97","type":"esriFieldTypeDouble","alias":"N_COORD97"},{"name":"ADDRESS","type":"esriFieldTypeString","alias":"ADDRESS","length":50},{"name":"OBJECTID","type":"esriFieldTypeOID","alias":"OBJECTID"}],"features":[{"attributes":{"ID":650028,"DIS_CODE":0,"TOWNNAME":"北門區","LI":"鯤江里","LIN":"12鄰","STREET":" ","SECT":" ","MAREA":"新圍","LANE":" ","ALLEY":" ","HOUSE_NO":"３９之５號","E_COORD97":163150.79956399999,"N_COORD97":2576926.9674999998,"ADDRESS":"新圍３９之５號","OBJECTID":650001},"geometry":{"x":163150.79956400022,"y":2576926.967504004}},{"attributes":{"ID":650029,"DIS_CODE":0,"TOWNNAME":"安南區","LI":"安和里","LIN":"7鄰","STREET":"郡安路","SECT":"三段","MAREA":" ","LANE":"２３６巷","ALLEY":" ","HOUSE_NO":"３０號","E_COORD97":169767.08386300001,"N_COORD97":2547815.38062,"ADDRESS":"郡安路三段２３６巷３０號","OBJECTID":650002},"geometry":{"x":169767.08386300132,"y":2547815.3806230016}},{"attributes":{"ID":650030,"DIS_CODE":0,"TOWNNAME":"東區","LI":"崇文里","LIN":"19鄰","STREET":"崇德二十街","SECT":" ","MAREA":" ","LANE":" ","ALLEY":" ","HOUSE_NO":"８號","E_COORD97":170835.89001800001,"N_COORD97":2540907.8134599999,"ADDRESS":"崇德二十街８號","OBJECTID":650003},"geometry":{"x":170835.89001800027,"y":2540907.8134569991}},{"attributes":{"ID":650031,"DIS_CODE":0,"TOWNNAME":"安南區","LI":"安和里","LIN":"7鄰","STREET":"郡安路","SECT":"三段","MAREA":" ","LANE":"２３６巷","ALLEY":"２８弄","HOUSE_NO":"１號","E_COORD97":169763.06093599999,"N_COORD97":2547805.64396,"ADDRESS":"郡安路三段２３６巷２８弄１號","OBJECTID":650004},"geometry":{"x":169763.0609360002,"y":2547805.6439609975}},{"attributes":{"ID":650032,"DIS_CODE":0,"TOWNNAME":"安南區","LI":"安和里","LIN":"7鄰","STREET":"郡安路","SECT":"三段","MAREA":" ","LANE":"２３６巷","ALLEY":"２８弄","HOUSE_NO":"３號","E_COORD97":169760.520139,"N_COORD97":2547797.8122999999,"ADDRESS":"郡安路三段２３６巷２８弄３號","OBJECTID":650005},"geometry":{"x":169760.52013900038,"y":2547797.812299002}},{"attributes":{"ID":650033,"DIS_CODE":0,"TOWNNAME":"安南區","LI":"安和里","LIN":"7鄰","STREET":"郡安路","SECT":"三段","MAREA":" ","LANE":"２３６巷","ALLEY":"２８弄","HOUSE_NO":"５號","E_COORD97":169757.76761000001,"N_COORD97":2547789.34564,"ADDRESS":"郡安路三段２３６巷２８弄５號","OBJECTID":650006},"geometry":{"x":169757.76760999952,"y":2547789.345637003}},{"attributes":{"ID":650034,"DIS_CODE":0,"TOWNNAME":"北門區","LI":"鯤江里","LIN":"12鄰","STREET":" ","SECT":" ","MAREA":"新圍","LANE":" ","ALLEY":" ","HOUSE_NO":"８之２號","E_COORD97":163191.69963799999,"N_COORD97":2576923.58084,"ADDRESS":"新圍８之２號","OBJECTID":650007},"geometry":{"x":163191.69963799976,"y":2576923.5808390025}},{"attributes":{"ID":650035,"DIS_CODE":0,"TOWNNAME":"安南區","LI":"安和里","LIN":"7鄰","STREET":"郡安路","SECT":"三段","MAREA":" ","LANE":"２３６巷","ALLEY":"２８弄","HOUSE_NO":"７號","E_COORD97":169756.073745,"N_COORD97":2547781.7256399998,"ADDRESS":"郡安路三段２３６巷２８弄７號","OBJECTID":650008},"geometry":{"x":169756.07374500018,"y":2547781.7256410029}},{"attributes":{"ID":650036,"DIS_CODE":0,"TOWNNAME":"東區","LI":"德光里","LIN":"3鄰","STREET":"崇明路","SECT":" ","MAREA":" ","LANE":" ","ALLEY":" ","HOUSE_NO":"５７號","E_COORD97":169708.72192899999,"N_COORD97":2542393.6068199999,"ADDRESS":"崇明路５７號","OBJECTID":650009},"geometry":{"x":169708.72192900162,"y":2542393.6068210024}},{"attributes":{"ID":650037,"DIS_CODE":0,"TOWNNAME":"安南區","LI":"安和里","LIN":"7鄰","STREET":"郡安路","SECT":"三段","MAREA":" ","LANE":"２３６巷","ALLEY":"２８弄","HOUSE_NO":"９號","E_COORD97":169752.897749,"N_COORD97":2547773.6823100001,"ADDRESS":"郡安路三段２３６巷２８弄９號","OBJECTID":650010},"geometry":{"x":169752.89774900023,"y":2547773.6823120024}},{"attributes":{"ID":650038,"DIS_CODE":0,"TOWNNAME":"安南區","LI":"安和里","LIN":"7鄰","STREET":"郡安路","SECT":"三段","MAREA":" ","LANE":"２３６巷","ALLEY":"２８弄","HOUSE_NO":"１１號","E_COORD97":169750.78041899999,"N_COORD97":2547766.06232,"ADDRESS":"郡安路三段２３６巷２８弄１１號","OBJECTID":650011},"geometry":{"x":169750.78041900229,"y":2547766.0623160042}},{"attributes":{"ID":650039,"DIS_CODE":0,"TOWNNAME":"東區","LI":"德高里","LIN":"12鄰","STREET":"崇善路","SECT":" ","MAREA":" ","LANE":" ","ALLEY":" ","HOUSE_NO":"８６５號","E_COORD97":171357.734944,"N_COORD97":2540771.0768599999,"ADDRESS":"崇善路８６５號","OBJECTID":650012},"geometry":{"x":171357.73494400177,"y":2540771.0768639985}},{"attributes":{"ID":650040,"DIS_CODE":0,"TOWNNAME":"安南區","LI":"安和里","LIN":"7鄰","STREET":"郡安路","SECT":"三段","MAREA":" ","LANE":"２３６巷","ALLEY":" ","HOUSE_NO":"２３號","E_COORD97":169771.106791,"N_COORD97":2547830.4089500001,"ADDRESS":"郡安路三段２３６巷２３號","OBJECTID":650013},"geometry":{"x":169771.10679099988,"y":2547830.4089480024}},{"attributes":{"ID":650041,"DIS_CODE":0,"TOWNNAME":"北門區","LI":"鯤江里","LIN":"9鄰","STREET":" ","SECT":" ","MAREA":"新圍","LANE":" ","ALLEY":" ","HOUSE_NO":"１號之１","E_COORD97":163248.49352300001,"N_COORD97":2577026.5566199999,"ADDRESS":"新圍１號之１","OBJECTID":650014},"geometry":{"x":163248.49352299981,"y":2577026.5566169992}},{"attributes":{"ID":650042,"DIS_CODE":0,"TOWNNAME":"安南區","LI":"安和里","LIN":"7鄰","STREET":"郡安路","SECT":"三段","MAREA":" ","LANE":"２３６巷","ALLEY":"２１弄","HOUSE_NO":"２號","E_COORD97":169772.80065600001,"N_COORD97":2547839.2989400001,"ADDRESS":"郡安路三段２３６巷２１弄２號","OBJECTID":650015},"geometry":{"x":169772.80065600201,"y":2547839.2989430018}},{"attributes":{"ID":650043,"DIS_CODE":0,"TOWNNAME":"安南區","LI":"安和里","LIN":"7鄰","STREET":"郡安路","SECT":"三段","MAREA":" ","LANE":"２３６巷","ALLEY":"２１弄","HOUSE_NO":"６號","E_COORD97":169775.553185,"N_COORD97":2547847.55394,"ADDRESS":"郡安路三段２３６巷２１弄６號","OBJECTID":650016},"geometry":{"x":169775.55318500008,"y":2547847.5539389998}},{"attributes":{"ID":650044,"DIS_CODE":0,"TOWNNAME":"安南區","LI":"安和里","LIN":"7鄰","STREET":"郡安路","SECT":"三段","MAREA":" ","LANE":"２３６巷","ALLEY":"２１弄","HOUSE_NO":"８號","E_COORD97":169777.88224899999,"N_COORD97":2547855.5972699998,"ADDRESS":"郡安路三段２３６巷２１弄８號","OBJECTID":650017},"geometry":{"x":169777.88224899955,"y":2547855.5972680021}},{"attributes":{"ID":650045,"DIS_CODE":0,"TOWNNAME":"安南區","LI":"安和里","LIN":"7鄰","STREET":"郡安路","SECT":"三段","MAREA":" ","LANE":"２３６巷","ALLEY":"２１弄","HOUSE_NO":"１０號","E_COORD97":169780.211312,"N_COORD97":2547864.9106000001,"ADDRESS":"郡安路三段２３６巷２１弄１０號","OBJECTID":650018},"geometry":{"x":169780.21131200064,"y":2547864.9105960038}},{"attributes":{"ID":650046,"DIS_CODE":0,"TOWNNAME":"安南區","LI":"安和里","LIN":"7鄰","STREET":"郡安路","SECT":"三段","MAREA":" ","LANE":"２３６巷","ALLEY":"２１弄","HOUSE_NO":"１２號","E_COORD97":169783.387308,"N_COORD97":2547871.8955899999,"ADDRESS":"郡安路三段２３６巷２１弄１２號","OBJECTID":650019},"geometry":{"x":169783.38730800059,"y":2547871.8955920022}},{"attributes":{"ID":650047,"DIS_CODE":0,"TOWNNAME":"北門區","LI":"鯤江里","LIN":"9鄰","STREET":" ","SECT":" ","MAREA":"新圍","LANE":" ","ALLEY":" ","HOUSE_NO":"１之１６號","E_COORD97":163402.55753200001,"N_COORD97":2577075.6632599998,"ADDRESS":"新圍１之１６號","OBJECTID":650020},"geometry":{"x":163402.55753200036,"y":2577075.663257001}},{"attributes":{"ID":650048,"DIS_CODE":0,"TOWNNAME":"關廟區","LI":"布袋里","LIN":"9鄰","STREET":"長文街","SECT":" ","MAREA":" ","LANE":"３７２巷","ALLEY":" ","HOUSE_NO":"１０號","E_COORD97":182127.16225200001,"N_COORD97":2534857.9780000001,"ADDRESS":"長文街３７２巷１０號","OBJECTID":650021},"geometry":{"x":182127.16225200053,"y":2534857.9780050013}},{"attributes":{"ID":650049,"DIS_CODE":0,"TOWNNAME":"安南區","LI":"安和里","LIN":"7鄰","STREET":"郡安路","SECT":"三段","MAREA":" ","LANE":"２３６巷","ALLEY":"２１弄","HOUSE_NO":"１６號","E_COORD97":169785.50463800001,"N_COORD97":2547879.0922599998,"ADDRESS":"郡安路三段２３６巷２１弄１６號","OBJECTID":650022},"geometry":{"x":169785.50463800132,"y":2547879.0922550019}},{"attributes":{"ID":650050,"DIS_CODE":0,"TOWNNAME":"安南區","LI":"安和里","LIN":"7鄰","STREET":"郡安路","SECT":"三段","MAREA":" ","LANE":"２３６巷","ALLEY":"２１弄","HOUSE_NO":"１８號","E_COORD97":169787.833702,"N_COORD97":2547887.13558,"ADDRESS":"郡安路三段２３６巷２１弄１８號","OBJECTID":650023},"geometry":{"x":169787.83370200079,"y":2547887.1355840042}},{"attributes":{"ID":650051,"DIS_CODE":0,"TOWNNAME":"安南區","LI":"安和里","LIN":"7鄰","STREET":"郡安路","SECT":"三段","MAREA":" ","LANE":"２３６巷","ALLEY":"２１弄","HOUSE_NO":"２０號","E_COORD97":169789.95103200001,"N_COORD97":2547894.54391,"ADDRESS":"郡安路三段２３６巷２１弄２０號","OBJECTID":650024},"geometry":{"x":169789.95103199966,"y":2547894.5439130012}},{"attributes":{"ID":650052,"DIS_CODE":0,"TOWNNAME":"安南區","LI":"安和里","LIN":"7鄰","STREET":"郡安路","SECT":"三段","MAREA":" ","LANE":"２３６巷","ALLEY":"２１弄","HOUSE_NO":"２２號","E_COORD97":169793.550494,"N_COORD97":2547902.5872399998,"ADDRESS":"郡安路三段２３６巷２１弄２２號","OBJECTID":650025},"geometry":{"x":169793.55049400125,"y":2547902.5872420035}},{"attributes":{"ID":650053,"DIS_CODE":0,"TOWNNAME":"安南區","LI":"安和里","LIN":"7鄰","STREET":"郡安路","SECT":"三段","MAREA":" ","LANE":"２３６巷","ALLEY":"２１弄","HOUSE_NO":"２６號","E_COORD97":169794.18569300001,"N_COORD97":2547910.63057,"ADDRESS":"郡安路三段２３６巷２１弄２６號","OBJECTID":650026},"geometry":{"x":169794.18569300231,"y":2547910.6305710003}},{"attributes":{"ID":650054,"DIS_CODE":0,"TOWNNAME":"安南區","LI":"安和里","LIN":"7鄰","STREET":"郡安路","SECT":"三段","MAREA":" ","LANE":" ","ALLEY":" ","HOUSE_NO":"２２３號","E_COORD97":169796.72649,"N_COORD97":2547922.0605600001,"ADDRESS":"郡安路三段２２３號","OBJECTID":650027},"geometry":{"x":169796.72649000213,"y":2547922.0605650023}},{"attributes":{"ID":650055,"DIS_CODE":0,"TOWNNAME":"安南區","LI":"安和里","LIN":"7鄰","STREET":"郡安路","SECT":"三段","MAREA":" ","LANE":" ","ALLEY":" ","HOUSE_NO":"２２２號","E_COORD97":169798.63208700001,"N_COORD97":2547931.58556,"ADDRESS":"郡安路三段２２２號","OBJECTID":650028},"geometry":{"x":169798.63208699971,"y":2547931.5855600014}},{"attributes":{"ID":650056,"DIS_CODE":0,"TOWNNAME":"北門區","LI":"鯤江里","LIN":"14鄰","STREET":" ","SECT":" ","MAREA":"新圍","LANE":" ","ALLEY":" ","HOUSE_NO":"５０之２號","E_COORD97":163081.92638300001,"N_COORD97":2576662.8076499999,"ADDRESS":"新圍５０之２號","OBJECTID":650029},"geometry":{"x":163081.9263830008,"y":2576662.8076470029}},{"attributes":{"ID":650057,"DIS_CODE":0,"TOWNNAME":"安南區","LI":"安和里","LIN":"7鄰","STREET":"郡安路","SECT":"三段","MAREA":" ","LANE":" ","ALLEY":" ","HOUSE_NO":"２２１號","E_COORD97":169803.92541299999,"N_COORD97":2547945.7672199998,"ADDRESS":"郡安路三段２２１號","OBJECTID":650030},"geometry":{"x":169803.9254130004,"y":2547945.7672189996}},{"attributes":{"ID":650058,"DIS_CODE":0,"TOWNNAME":"安南區","LI":"安和里","LIN":"7鄰","STREET":"郡安路","SECT":"三段","MAREA":" ","LANE":"２３６巷","ALLEY":" ","HOUSE_NO":"２６號","E_COORD97":169751.627351,"N_COORD97":2547819.6139500001,"ADDRESS":"郡安路三段２３６巷２６號","OBJECTID":650031},"geometry":{"x":169751.62735099997,"y":2547819.6139540002}},{"attributes":{"ID":650059,"DIS_CODE":0,"TOWNNAME":"安南區","LI":"安和里","LIN":"7鄰","STREET":"郡安路","SECT":"三段","MAREA":" ","LANE":"２３６巷","ALLEY":"２８弄","HOUSE_NO":"２號","E_COORD97":169749.933487,"N_COORD97":2547810.30063,"ADDRESS":"郡安路三段２３６巷２８弄２號","OBJECTID":650032},"geometry":{"x":169749.93348699901,"y":2547810.3006260023}},{"attributes":{"ID":650060,"DIS_CODE":0,"TOWNNAME":"東區","LI":"和平里","LIN":"24鄰","STREET":"仁和路","SECT":" ","MAREA":" ","LANE":"１０９巷","ALLEY":"１３５弄","HOUSE_NO":"６３號","E_COORD97":171709.929741,"N_COORD97":2541385.6619099998,"ADDRESS":"仁和路１０９巷１３５弄６３號","OBJECTID":650033},"geometry":{"x":171709.92974100076,"y":2541385.6619070023}},{"attributes":{"ID":650061,"DIS_CODE":0,"TOWNNAME":"安南區","LI":"安和里","LIN":"7鄰","STREET":"郡安路","SECT":"三段","MAREA":" ","LANE":"２３６巷","ALLEY":"２８弄","HOUSE_NO":"６號","E_COORD97":169748.02788899999,"N_COORD97":2547801.6222999999,"ADDRESS":"郡安路三段２３６巷２８弄６號","OBJECTID":650034},"geometry":{"x":169748.02788900211,"y":2547801.622297002}},{"attributes":{"ID":650062,"DIS_CODE":0,"TOWNNAME":"安南區","LI":"安和里","LIN":"7鄰","STREET":"郡安路","SECT":"三段","MAREA":" ","LANE":"２３６巷","ALLEY":"２８弄","HOUSE_NO":"８號","E_COORD97":169745.69882600001,"N_COORD97":2547793.5789700001,"ADDRESS":"郡安路三段２３６巷２８弄８號","OBJECTID":650035},"geometry":{"x":169745.69882600103,"y":2547793.5789679997}},{"attributes":{"ID":650063,"DIS_CODE":0,"TOWNNAME":"東區","LI":"和平里","LIN":"24鄰","STREET":"仁和路","SECT":" ","MAREA":" ","LANE":"１０９巷","ALLEY":"１３５弄","HOUSE_NO":"６５號","E_COORD97":171705.60918999999,"N_COORD97":2541385.55663,"ADDRESS":"仁和路１０９巷１３５弄６５號","OBJECTID":650036},"geometry":{"x":171705.60919000022,"y":2541385.5566300005}},{"attributes":{"ID":650064,"DIS_CODE":0,"TOWNNAME":"安南區","LI":"安和里","LIN":"7鄰","STREET":"郡安路","SECT":"三段","MAREA":" ","LANE":"２３６巷","ALLEY":"２８弄","HOUSE_NO":"１０號","E_COORD97":169743.36976199999,"N_COORD97":2547785.5356399999,"ADDRESS":"郡安路三段２３６巷２８弄１０號","OBJECTID":650037},"geometry":{"x":169743.36976199877,"y":2547785.5356389992}},{"attributes":{"ID":650065,"DIS_CODE":0,"TOWNNAME":"安南區","LI":"安和里","LIN":"7鄰","STREET":"郡安路","SECT":"三段","MAREA":" ","LANE":"２３６巷","ALLEY":"２８弄","HOUSE_NO":"１２號","E_COORD97":169740.617233,"N_COORD97":2547777.7039800002,"ADDRESS":"郡安路三段２３６巷２８弄１２號","OBJECTID":650038},"geometry":{"x":169740.6172330007,"y":2547777.7039760035}},{"attributes":{"ID":650066,"DIS_CODE":0,"TOWNNAME":"東區","LI":"和平里","LIN":"24鄰","STREET":"仁和路","SECT":" ","MAREA":" ","LANE":"１０９巷","ALLEY":"１３５弄","HOUSE_NO":"６７號","E_COORD97":171700.867123,"N_COORD97":2541385.8724600002,"ADDRESS":"仁和路１０９巷１３５弄６７號","OBJECTID":650039},"geometry":{"x":171700.86712300032,"y":2541385.872459}},{"attributes":{"ID":650067,"DIS_CODE":0,"TOWNNAME":"安南區","LI":"安和里","LIN":"7鄰","STREET":"郡安路","SECT":"三段","MAREA":" ","LANE":"２３６巷","ALLEY":"２８弄","HOUSE_NO":"１６號","E_COORD97":169739.135102,"N_COORD97":2547770.0839800001,"ADDRESS":"郡安路三段２３６巷２８弄１６號","OBJECTID":650040},"geometry":{"x":169739.13510200009,"y":2547770.0839809999}},{"attributes":{"ID":650068,"DIS_CODE":0,"TOWNNAME":"安南區","LI":"安和里","LIN":"7鄰","STREET":"郡安路","SECT":"三段","MAREA":" ","LANE":"２３６巷","ALLEY":" ","HOUSE_NO":"１９號","E_COORD97":169756.28547800001,"N_COORD97":2547833.5839499999,"ADDRESS":"郡安路三段２３６巷１９號","OBJECTID":650041},"geometry":{"x":169756.28547800053,"y":2547833.5839460026}},{"attributes":{"ID":650069,"DIS_CODE":0,"TOWNNAME":"仁德區","LI":"二行里","LIN":"6鄰","STREET":"二行一路","SECT":" ","MAREA":" ","LANE":" ","ALLEY":" ","HOUSE_NO":"１３４之１號","E_COORD97":170532.41873199999,"N_COORD97":2535592.46686,"ADDRESS":"二行一路１３４之１號","OBJECTID":650042},"geometry":{"x":170532.41873200145,"y":2535592.4668600019}},{"attributes":{"ID":650070,"DIS_CODE":0,"TOWNNAME":"安南區","LI":"安和里","LIN":"7鄰","STREET":"郡安路","SECT":"三段","MAREA":" ","LANE":"２３６巷","ALLEY":"２１弄","HOUSE_NO":"１號","E_COORD97":169758.17119299999,"N_COORD97":2547842.0307300002,"ADDRESS":"郡安路三段２３６巷２１弄１號","OBJECTID":650043},"geometry":{"x":169758.17119300086,"y":2547842.0307320021}},{"attributes":{"ID":650071,"DIS_CODE":0,"TOWNNAME":"安南區","LI":"安和里","LIN":"7鄰","STREET":"郡安路","SECT":"三段","MAREA":" ","LANE":"２３６巷","ALLEY":"２１弄","HOUSE_NO":"３號","E_COORD97":169760.50025700001,"N_COORD97":2547850.9207299999,"ADDRESS":"郡安路三段２３６巷２１弄３號","OBJECTID":650044},"geometry":{"x":169760.50025700033,"y":2547850.9207279999}},{"attributes":{"ID":650072,"DIS_CODE":0,"TOWNNAME":"安南區","LI":"安和里","LIN":"7鄰","STREET":"郡安路","SECT":"三段","MAREA":" ","LANE":"２３６巷","ALLEY":"２１弄","HOUSE_NO":"５號","E_COORD97":169762.61758699999,"N_COORD97":2547859.1757200002,"ADDRESS":"郡安路三段２３６巷２１弄５號","OBJECTID":650045},"geometry":{"x":169762.61758700106,"y":2547859.1757229995}},{"attributes":{"ID":650073,"DIS_CODE":0,"TOWNNAME":"安南區","LI":"安和里","LIN":"7鄰","STREET":"郡安路","SECT":"三段","MAREA":" ","LANE":"２３６巷","ALLEY":"２１弄","HOUSE_NO":"７號","E_COORD97":169766.005316,"N_COORD97":2547867.6423800001,"ADDRESS":"郡安路三段２３６巷２１弄７號","OBJECTID":650046},"geometry":{"x":169766.00531600136,"y":2547867.6423850004}},{"attributes":{"ID":650074,"DIS_CODE":0,"TOWNNAME":"安南區","LI":"安和里","LIN":"7鄰","STREET":"郡安路","SECT":"三段","MAREA":" ","LANE":"２３６巷","ALLEY":"２１弄","HOUSE_NO":"９號","E_COORD97":169767.48744699999,"N_COORD97":2547875.4740499998,"ADDRESS":"郡安路三段２３６巷２１弄９號","OBJECTID":650047},"geometry":{"x":169767.48744700197,"y":2547875.4740479998}},{"attributes":{"ID":650075,"DIS_CODE":0,"TOWNNAME":"安南區","LI":"安和里","LIN":"7鄰","STREET":"郡安路","SECT":"三段","MAREA":" ","LANE":"２３６巷","ALLEY":"２１弄","HOUSE_NO":"１１號","E_COORD97":169769.393045,"N_COORD97":2547883.9407100002,"ADDRESS":"郡安路三段２３６巷２１弄１１號","OBJECTID":650048},"geometry":{"x":169769.39304500166,"y":2547883.9407099988}},{"attributes":{"ID":650076,"DIS_CODE":0,"TOWNNAME":"東區","LI":"和平里","LIN":"24鄰","STREET":"仁和路","SECT":" ","MAREA":" ","LANE":"１０９巷","ALLEY":"１３５弄","HOUSE_NO":"６９號","E_COORD97":171695.665163,"N_COORD97":2541386.0009099999,"ADDRESS":"仁和路１０９巷１３５弄６９號","OBJECTID":650049},"geometry":{"x":171695.66516300011,"y":2541386.0009080004}},{"attributes":{"ID":650077,"DIS_CODE":0,"TOWNNAME":"安南區","LI":"安和里","LIN":"7鄰","STREET":"郡安路","SECT":"三段","MAREA":" ","LANE":"２３６巷","ALLEY":"２１弄","HOUSE_NO":"１３號","E_COORD97":169772.357307,"N_COORD97":2547893.6773700002,"ADDRESS":"郡安路三段２３６巷２１弄１３號","OBJECTID":650050},"geometry":{"x":169772.35730700009,"y":2547893.677370999}},{"attributes":{"ID":650078,"DIS_CODE":0,"TOWNNAME":"安南區","LI":"安和里","LIN":"7鄰","STREET":"郡安路","SECT":"三段","MAREA":" ","LANE":"２３６巷","ALLEY":"２１弄","HOUSE_NO":"１５號","E_COORD97":169775.109837,"N_COORD97":2547900.8740300001,"ADDRESS":"郡安路三段２３６巷２１弄１５號","OBJECTID":650051},"geometry":{"x":169775.10983700026,"y":2547900.8740340006}},{"attributes":{"ID":650079,"DIS_CODE":0,"TOWNNAME":"東區","LI":"和平里","LIN":"24鄰","STREET":"仁和路","SECT":" ","MAREA":" ","LANE":"１０９巷","ALLEY":"１３５弄","HOUSE_NO":"７１號","E_COORD97":171690.55785099999,"N_COORD97":2541386.06428,"ADDRESS":"仁和路１０９巷１３５弄７１號","OBJECTID":650052},"geometry":{"x":171690.55785099976,"y":2541386.0642799977}},{"attributes":{"ID":650080,"DIS_CODE":0,"TOWNNAME":"仁德區","LI":"二行里","LIN":"6鄰","STREET":"二行一路","SECT":" ","MAREA":" ","LANE":" ","ALLEY":" ","HOUSE_NO":"９０號","E_COORD97":170496.226758,"N_COORD97":2535432.2352800001,"ADDRESS":"二行一路９０號","OBJECTID":650053},"geometry":{"x":170496.22675799951,"y":2535432.2352800015}},{"attributes":{"ID":650081,"DIS_CODE":0,"TOWNNAME":"安南區","LI":"安和里","LIN":"7鄰","STREET":"郡安路","SECT":"三段","MAREA":" ","LANE":"２３６巷","ALLEY":"２１弄","HOUSE_NO":"１７號","E_COORD97":169777.43890000001,"N_COORD97":2547909.3407000001,"ADDRESS":"郡安路三段２３６巷２１弄１７號","OBJECTID":650054},"geometry":{"x":169777.43890000042,"y":2547909.3406959996}},{"attributes":{"ID":650082,"DIS_CODE":0,"TOWNNAME":"東區","LI":"和平里","LIN":"24鄰","STREET":"仁和路","SECT":" ","MAREA":" ","LANE":"１０９巷","ALLEY":"１３５弄","HOUSE_NO":"７３號","E_COORD97":171686.65965700001,"N_COORD97":2541387.6430799998,"ADDRESS":"仁和路１０９巷１３５弄７３號","OBJECTID":650055},"geometry":{"x":171686.65965699963,"y":2541387.6430840027}},{"attributes":{"ID":650083,"DIS_CODE":0,"TOWNNAME":"東區","LI":"和平里","LIN":"24鄰","STREET":"仁和路","SECT":" ","MAREA":" ","LANE":"１０９巷","ALLEY":"１３５弄","HOUSE_NO":"７５號","E_COORD97":171681.28647200001,"N_COORD97":2541387.7483399999,"ADDRESS":"仁和路１０９巷１３５弄７５號","OBJECTID":650056},"geometry":{"x":171681.28647200018,"y":2541387.748337999}},{"attributes":{"ID":650084,"DIS_CODE":0,"TOWNNAME":"東區","LI":"和平里","LIN":"24鄰","STREET":"仁和路","SECT":" ","MAREA":" ","LANE":"１０９巷","ALLEY":"１３５弄","HOUSE_NO":"７７號","E_COORD97":171675.70257299999,"N_COORD97":2541387.85359,"ADDRESS":"仁和路１０９巷１３５弄７７號","OBJECTID":650057},"geometry":{"x":171675.70257299952,"y":2541387.8535910007}},{"attributes":{"ID":650085,"DIS_CODE":0,"TOWNNAME":"東區","LI":"和平里","LIN":"24鄰","STREET":"仁和路","SECT":" ","MAREA":" ","LANE":"１０９巷","ALLEY":"１３５弄","HOUSE_NO":"７９號","E_COORD97":171668.64368199999,"N_COORD97":2541388.1693500001,"ADDRESS":"仁和路１０９巷１３５弄７９號","OBJECTID":650058},"geometry":{"x":171668.64368200116,"y":2541388.1693520024}},{"attributes":{"ID":650086,"DIS_CODE":0,"TOWNNAME":"東區","LI":"和平里","LIN":"24鄰","STREET":"仁和路","SECT":" ","MAREA":" ","LANE":"１０９巷","ALLEY":"１３５弄","HOUSE_NO":"８１號","E_COORD97":171662.638358,"N_COORD97":2541389.5376499998,"ADDRESS":"仁和路１０９巷１３５弄８１號","OBJECTID":650059},"geometry":{"x":171662.63835799973,"y":2541389.5376480017}},{"attributes":{"ID":650087,"DIS_CODE":0,"TOWNNAME":"安南區","LI":"淵西里","LIN":"9鄰","STREET":"安中路","SECT":"四段","MAREA":" ","LANE":"２９０巷","ALLEY":" ","HOUSE_NO":"１號","E_COORD97":164494.81139399999,"N_COORD97":2550262.02214,"ADDRESS":"安中路四段２９０巷１號","OBJECTID":650060},"geometry":{"x":164494.81139400229,"y":2550262.0221360009}},{"attributes":{"ID":650088,"DIS_CODE":0,"TOWNNAME":"東區","LI":"和平里","LIN":"24鄰","STREET":"仁和路","SECT":" ","MAREA":" ","LANE":"１０９巷","ALLEY":"１３５弄","HOUSE_NO":"８３號","E_COORD97":171656.63303299999,"N_COORD97":2541390.6954399999,"ADDRESS":"仁和路１０９巷１３５弄８３號","OBJECTID":650061},"geometry":{"x":171656.63303300086,"y":2541390.6954379994}},{"attributes":{"ID":650089,"DIS_CODE":0,"TOWNNAME":"安南區","LI":"安和里","LIN":"7鄰","STREET":"郡安路","SECT":"三段","MAREA":" ","LANE":" ","ALLEY":" ","HOUSE_NO":"６６號","E_COORD97":169891.77474399999,"N_COORD97":2548070.2072800002,"ADDRESS":"郡安路三段６６號","OBJECTID":650062},"geometry":{"x":169891.77474400122,"y":2548070.2072760016}},{"attributes":{"ID":650090,"DIS_CODE":0,"TOWNNAME":"東區","LI":"和平里","LIN":"24鄰","STREET":"仁和路","SECT":" ","MAREA":" ","LANE":"１０９巷","ALLEY":"１３５弄","HOUSE_NO":"８５號","E_COORD97":171655.895537,"N_COORD97":2541414.3248600001,"ADDRESS":"仁和路１０９巷１３５弄８５號","OBJECTID":650063},"geometry":{"x":171655.89553700015,"y":2541414.3248640001}},{"attributes":{"ID":650091,"DIS_CODE":0,"TOWNNAME":"新化區","LI":"山\u25A0里","LIN":"8鄰","STREET":" ","SECT":" ","MAREA":"頂山\u25A0","LANE":" ","ALLEY":" ","HOUSE_NO":"１７９號","E_COORD97":179846.29605999999,"N_COORD97":2546938.6401300002,"ADDRESS":"頂山\u25A0１７９號","OBJECTID":650064},"geometry":{"x":179846.29606000055,"y":2546938.6401310042}},{"attributes":{"ID":650092,"DIS_CODE":0,"TOWNNAME":"仁德區","LI":"二行里","LIN":"6鄰","STREET":"中正西路","SECT":" ","MAREA":" ","LANE":"１巷","ALLEY":" ","HOUSE_NO":"６號","E_COORD97":170533.87594900001,"N_COORD97":2535422.0752900001,"ADDRESS":"中正西路１巷６號","OBJECTID":650065},"geometry":{"x":170533.87594900187,"y":2535422.0752860028}},{"attributes":{"ID":650093,"DIS_CODE":0,"TOWNNAME":"仁德區","LI":"二行里","LIN":"6鄰","STREET":"中正西路","SECT":" ","MAREA":" ","LANE":"１巷","ALLEY":" ","HOUSE_NO":"８號","E_COORD97":170534.511826,"N_COORD97":2535410.0102900001,"ADDRESS":"中正西路１巷８號","OBJECTID":650066},"geometry":{"x":170534.51182600111,"y":2535410.0102920011}},{"attributes":{"ID":650094,"DIS_CODE":0,"TOWNNAME":"安南區","LI":"安和里","LIN":"7鄰","STREET":"郡安路","SECT":"三段","MAREA":" ","LANE":" ","ALLEY":" ","HOUSE_NO":"１３０號","E_COORD97":169860.86171999999,"N_COORD97":2548011.3639699998,"ADDRESS":"郡安路三段１３０號","OBJECTID":650067},"geometry":{"x":169860.86172000133,"y":2548011.3639739994}},{"attributes":{"ID":650095,"DIS_CODE":0,"TOWNNAME":"東區","LI":"和平里","LIN":"24鄰","STREET":"仁和路","SECT":" ","MAREA":" ","LANE":"１０９巷","ALLEY":"１３５弄","HOUSE_NO":"８７號","E_COORD97":171663.37585400001,"N_COORD97":2541414.6406299998,"ADDRESS":"仁和路１０９巷１３５弄８７號","OBJECTID":650068},"geometry":{"x":171663.37585400231,"y":2541414.6406250019}},{"attributes":{"ID":650096,"DIS_CODE":0,"TOWNNAME":"東區","LI":"和平里","LIN":"24鄰","STREET":"仁和路","SECT":" ","MAREA":" ","LANE":"１０９巷","ALLEY":"１３５弄","HOUSE_NO":"８９號","E_COORD97":171670.01331800001,"N_COORD97":2541414.3248600001,"ADDRESS":"仁和路１０９巷１３５弄８９號","OBJECTID":650069},"geometry":{"x":171670.01331800036,"y":2541414.3248640001}},{"attributes":{"ID":650097,"DIS_CODE":0,"TOWNNAME":"新營區","LI":"埤寮里","LIN":"13鄰","STREET":"中正路","SECT":" ","MAREA":" ","LANE":" ","ALLEY":" ","HOUSE_NO":"２７７號","E_COORD97":180025.84461,"N_COORD97":2579988.8168899999,"ADDRESS":"中正路２７７號","OBJECTID":650070},"geometry":{"x":180025.84461000003,"y":2579988.8168890011}},{"attributes":{"ID":650098,"DIS_CODE":0,"TOWNNAME":"東區","LI":"和平里","LIN":"24鄰","STREET":"仁和路","SECT":" ","MAREA":" ","LANE":"１０９巷","ALLEY":"１３５弄","HOUSE_NO":"９１號","E_COORD97":171674.75436399999,"N_COORD97":2541415.06164,"ADDRESS":"仁和路１０９巷１３５弄９１號","OBJECTID":650071},"geometry":{"x":171674.75436400063,"y":2541415.0616389997}},{"attributes":{"ID":650099,"DIS_CODE":0,"TOWNNAME":"東區","LI":"和平里","LIN":"24鄰","STREET":"仁和路","SECT":" ","MAREA":" ","LANE":"１０９巷","ALLEY":"１３５弄","HOUSE_NO":"９３號","E_COORD97":171678.86327100001,"N_COORD97":2541413.9038499999,"ADDRESS":"仁和路１０９巷１３５弄９３號","OBJECTID":650072},"geometry":{"x":171678.86327099986,"y":2541413.9038500022}},{"attributes":{"ID":650100,"DIS_CODE":0,"TOWNNAME":"安南區","LI":"安和里","LIN":"8鄰","STREET":"郡安路","SECT":"三段","MAREA":" ","LANE":"２３６巷","ALLEY":" ","HOUSE_NO":"２０號","E_COORD97":169738.903486,"N_COORD97":2547824.6740799998,"ADDRESS":"郡安路三段２３６巷２０號","OBJECTID":650073},"geometry":{"x":169738.90348600131,"y":2547824.674075}},{"attributes":{"ID":650101,"DIS_CODE":0,"TOWNNAME":"仁德區","LI":"二行里","LIN":"6鄰","STREET":"行大一街","SECT":" ","MAREA":" ","LANE":" ","ALLEY":" ","HOUSE_NO":"２０號","E_COORD97":170171.79723500001,"N_COORD97":2535111.1371200001,"ADDRESS":"行大一街２０號","OBJECTID":650074},"geometry":{"x":170171.79723500088,"y":2535111.1371200029}},{"attributes":{"ID":650102,"DIS_CODE":0,"TOWNNAME":"安南區","LI":"安和里","LIN":"8鄰","STREET":"郡安路","SECT":"三段","MAREA":" ","LANE":"２３６巷","ALLEY":"２２弄","HOUSE_NO":"２號","E_COORD97":169734.457092,"N_COORD97":2547811.76241,"ADDRESS":"郡安路三段２３６巷２２弄２號","OBJECTID":650075},"geometry":{"x":169734.45709200017,"y":2547811.7624150012}},{"attributes":{"ID":650103,"DIS_CODE":0,"TOWNNAME":"安南區","LI":"安和里","LIN":"8鄰","STREET":"郡安路","SECT":"三段","MAREA":" ","LANE":"２３６巷","ALLEY":"２２弄","HOUSE_NO":"６號","E_COORD97":169731.91629600001,"N_COORD97":2547806.2590899998,"ADDRESS":"郡安路三段２３６巷２２弄６號","OBJECTID":650076},"geometry":{"x":169731.91629599966,"y":2547806.2590850033}},{"attributes":{"ID":650104,"DIS_CODE":0,"TOWNNAME":"安南區","LI":"安和里","LIN":"8鄰","STREET":"郡安路","SECT":"三段","MAREA":" ","LANE":"２３６巷","ALLEY":"２２弄","HOUSE_NO":"８號","E_COORD97":169729.37549899999,"N_COORD97":2547799.9090900002,"ADDRESS":"郡安路三段２３６巷２２弄８號","OBJECTID":650077},"geometry":{"x":169729.37549899984,"y":2547799.909088999}},{"attributes":{"ID":650105,"DIS_CODE":0,"TOWNNAME":"安南區","LI":"安和里","LIN":"8鄰","STREET":"郡安路","SECT":"三段","MAREA":" ","LANE":"２３６巷","ALLEY":"２２弄","HOUSE_NO":"１０號","E_COORD97":169728.10510099999,"N_COORD97":2547795.67576,"ADDRESS":"郡安路三段２３６巷２２弄１０號","OBJECTID":650078},"geometry":{"x":169728.10510099959,"y":2547795.6757570021}},{"attributes":{"ID":650106,"DIS_CODE":0,"TOWNNAME":"安南區","LI":"安和里","LIN":"8鄰","STREET":"郡安路","SECT":"三段","MAREA":" ","LANE":"２３６巷","ALLEY":"２２弄","HOUSE_NO":"１２號","E_COORD97":169727.046436,"N_COORD97":2547788.0557599999,"ADDRESS":"郡安路三段２３６巷２２弄１２號","OBJECTID":650079},"geometry":{"x":169727.04643599968,"y":2547788.0557620022}},{"attributes":{"ID":650107,"DIS_CODE":0,"TOWNNAME":"七股區","LI":"大埕里","LIN":"1鄰","STREET":" ","SECT":" ","MAREA":"大埕","LANE":" ","ALLEY":" ","HOUSE_NO":"１２６號之１","E_COORD97":162778.03461199999,"N_COORD97":2561286.9903899999,"ADDRESS":"大埕１２６號之１","OBJECTID":650080},"geometry":{"x":162778.03461200092,"y":2561286.9903890043}},{"attributes":{"ID":650108,"DIS_CODE":0,"TOWNNAME":"安南區","LI":"安和里","LIN":"8鄰","STREET":"郡安路","SECT":"三段","MAREA":" ","LANE":"２３６巷","ALLEY":" ","HOUSE_NO":"１５號","E_COORD97":169742.92641399999,"N_COORD97":2547840.9723999999,"ADDRESS":"郡安路三段２３６巷１５號","OBJECTID":650081},"geometry":{"x":169742.9264140008,"y":2547840.9724000003}},{"attributes":{"ID":650109,"DIS_CODE":0,"TOWNNAME":"安南區","LI":"安和里","LIN":"8鄰","STREET":"郡安路","SECT":"三段","MAREA":" ","LANE":"２３６巷","ALLEY":" ","HOUSE_NO":"１３號","E_COORD97":169736.57442300001,"N_COORD97":2547842.66573,"ADDRESS":"郡安路三段２３６巷１３號","OBJECTID":650082},"geometry":{"x":169736.57442300022,"y":2547842.6657320019}},{"attributes":{"ID":650110,"DIS_CODE":0,"TOWNNAME":"安南區","LI":"安和里","LIN":"8鄰","STREET":"郡安路","SECT":"三段","MAREA":" ","LANE":"２３６巷","ALLEY":" ","HOUSE_NO":"１１號","E_COORD97":169731.70456300001,"N_COORD97":2547844.7823999999,"ADDRESS":"郡安路三段２３６巷１１號","OBJECTID":650083},"geometry":{"x":169731.70456300024,"y":2547844.7823980041}},{"attributes":{"ID":650111,"DIS_CODE":0,"TOWNNAME":"安南區","LI":"安和里","LIN":"8鄰","STREET":"郡安路","SECT":"三段","MAREA":" ","LANE":"２３６巷","ALLEY":" ","HOUSE_NO":"９號","E_COORD97":169725.98777099999,"N_COORD97":2547846.26406,"ADDRESS":"郡安路三段２３６巷９號","OBJECTID":650084},"geometry":{"x":169725.98777100164,"y":2547846.2640630007}},{"attributes":{"ID":650112,"DIS_CODE":0,"TOWNNAME":"仁德區","LI":"二行里","LIN":"6鄰","STREET":"行大街","SECT":" ","MAREA":" ","LANE":" ","ALLEY":" ","HOUSE_NO":"６９號","E_COORD97":170188.80693300001,"N_COORD97":2535171.0387599999,"ADDRESS":"行大街６９號","OBJECTID":650085},"geometry":{"x":170188.80693299975,"y":2535171.0387550034}},{"attributes":{"ID":650113,"DIS_CODE":0,"TOWNNAME":"安南區","LI":"安和里","LIN":"8鄰","STREET":"郡安路","SECT":"三段","MAREA":" ","LANE":"２３６巷","ALLEY":" ","HOUSE_NO":"９號","E_COORD97":169725.98777099999,"N_COORD97":2547846.26406,"ADDRESS":"郡安路三段２３６巷９號","OBJECTID":650086},"geometry":{"x":169725.98777100164,"y":2547846.2640630007}},{"attributes":{"ID":650114,"DIS_CODE":0,"TOWNNAME":"安南區","LI":"安和里","LIN":"8鄰","STREET":"郡安路","SECT":"三段","MAREA":" ","LANE":"２３６巷","ALLEY":" ","HOUSE_NO":"７號","E_COORD97":169720.482712,"N_COORD97":2547848.3807299999,"ADDRESS":"郡安路三段２３６巷７號","OBJECTID":650087},"geometry":{"x":169720.48271200061,"y":2547848.380729001}},{"attributes":{"ID":650115,"DIS_CODE":0,"TOWNNAME":"安南區","LI":"安和里","LIN":"8鄰","STREET":"郡安路","SECT":"三段","MAREA":" ","LANE":"２３６巷","ALLEY":" ","HOUSE_NO":"５號","E_COORD97":169715.18938500001,"N_COORD97":2547848.80406,"ADDRESS":"郡安路三段２３６巷５號","OBJECTID":650088},"geometry":{"x":169715.18938500062,"y":2547848.8040619995}},{"attributes":{"ID":650116,"DIS_CODE":0,"TOWNNAME":"安南區","LI":"安和里","LIN":"8鄰","STREET":"郡安路","SECT":"三段","MAREA":" ","LANE":"２３６巷","ALLEY":" ","HOUSE_NO":"１８號","E_COORD97":169732.55149499999,"N_COORD97":2547827.0024100002,"ADDRESS":"郡安路三段２３６巷１８號","OBJECTID":650089},"geometry":{"x":169732.55149499979,"y":2547827.0024070013}},{"attributes":{"ID":650117,"DIS_CODE":0,"TOWNNAME":"仁德區","LI":"二行里","LIN":"6鄰","STREET":"行大街","SECT":" ","MAREA":" ","LANE":" ","ALLEY":" ","HOUSE_NO":"８５號","E_COORD97":170160.35145700001,"N_COORD97":2535139.9237700002,"ADDRESS":"行大街８５號","OBJECTID":650090},"geometry":{"x":170160.35145699978,"y":2535139.9237709995}},{"attributes":{"ID":650118,"DIS_CODE":0,"TOWNNAME":"七股區","LI":"大埕里","LIN":"1鄰","STREET":" ","SECT":" ","MAREA":"大埕","LANE":" ","ALLEY":" ","HOUSE_NO":"１３０號之１５","E_COORD97":162747.29730899999,"N_COORD97":2561093.5271600001,"ADDRESS":"大埕１３０號之１５","OBJECTID":650091},"geometry":{"x":162747.29730900005,"y":2561093.5271600019}},{"attributes":{"ID":650119,"DIS_CODE":0,"TOWNNAME":"安南區","LI":"安和里","LIN":"8鄰","STREET":"郡安路","SECT":"三段","MAREA":" ","LANE":"２３６巷","ALLEY":" ","HOUSE_NO":"１６號","E_COORD97":169726.62297,"N_COORD97":2547827.63741,"ADDRESS":"郡安路三段２３６巷１６號","OBJECTID":650092},"geometry":{"x":169726.62297000177,"y":2547827.6374070011}},{"attributes":{"ID":650120,"DIS_CODE":0,"TOWNNAME":"安南區","LI":"安和里","LIN":"8鄰","STREET":"郡安路","SECT":"三段","MAREA":" ","LANE":"２３６巷","ALLEY":" ","HOUSE_NO":"１２號","E_COORD97":169721.11791100001,"N_COORD97":2547828.6957399999,"ADDRESS":"郡安路三段２３６巷１２號","OBJECTID":650093},"geometry":{"x":169721.11791100074,"y":2547828.6957399994}},{"attributes":{"ID":650121,"DIS_CODE":0,"TOWNNAME":"東區","LI":"和平里","LIN":"24鄰","STREET":"仁和路","SECT":" ","MAREA":" ","LANE":"１０９巷","ALLEY":"１３５弄","HOUSE_NO":"９５號","E_COORD97":171684.86859599999,"N_COORD97":2541414.0090999999,"ADDRESS":"仁和路１０９巷１３５弄９５號","OBJECTID":650094},"geometry":{"x":171684.8685960006,"y":2541414.0091040023}},{"attributes":{"ID":650122,"DIS_CODE":0,"TOWNNAME":"安南區","LI":"安和里","LIN":"8鄰","STREET":"郡安路","SECT":"三段","MAREA":" ","LANE":"２３６巷","ALLEY":" ","HOUSE_NO":"１０號","E_COORD97":169716.67151700001,"N_COORD97":2547830.17741,"ADDRESS":"郡安路三段２３６巷１０號","OBJECTID":650095},"geometry":{"x":169716.67151700053,"y":2547830.1774060018}},{"attributes":{"ID":650123,"DIS_CODE":0,"TOWNNAME":"安南區","LI":"安和里","LIN":"8鄰","STREET":"郡安路","SECT":"三段","MAREA":" ","LANE":"２３６巷","ALLEY":" ","HOUSE_NO":"８號","E_COORD97":169709.68432599999,"N_COORD97":2547832.0824000002,"ADDRESS":"郡安路三段２３６巷８號","OBJECTID":650096},"geometry":{"x":169709.68432600051,"y":2547832.0824040007}},{"attributes":{"ID":650124,"DIS_CODE":0,"TOWNNAME":"東區","LI":"和平里","LIN":"24鄰","STREET":"仁和路","SECT":" ","MAREA":" ","LANE":"１０９巷","ALLEY":"１３５弄","HOUSE_NO":"９７號","E_COORD97":171690.03106800001,"N_COORD97":2541414.3248600001,"ADDRESS":"仁和路１０９巷１３５弄９７號","OBJECTID":650097},"geometry":{"x":171690.03106800094,"y":2541414.3248640001}},{"attributes":{"ID":650125,"DIS_CODE":0,"TOWNNAME":"東區","LI":"和平里","LIN":"24鄰","STREET":"仁和路","SECT":" ","MAREA":" ","LANE":"１０９巷","ALLEY":"１３５弄","HOUSE_NO":"９９號","E_COORD97":171695.40425299999,"N_COORD97":2541414.4301200002,"ADDRESS":"仁和路１０９巷１３５弄９９號","OBJECTID":650098},"geometry":{"x":171695.40425300039,"y":2541414.4301180001}},{"attributes":{"ID":650126,"DIS_CODE":0,"TOWNNAME":"安南區","LI":"安和里","LIN":"8鄰","STREET":"郡安路","SECT":"三段","MAREA":" ","LANE":"２３６巷","ALLEY":"１７弄","HOUSE_NO":"１號","E_COORD97":169747.16107500001,"N_COORD97":2547855.5773900002,"ADDRESS":"郡安路三段２３６巷１７弄１號","OBJECTID":650099},"geometry":{"x":169747.16107499972,"y":2547855.5773920007}},{"attributes":{"ID":650127,"DIS_CODE":0,"TOWNNAME":"安南區","LI":"安和里","LIN":"8鄰","STREET":"郡安路","SECT":"三段","MAREA":" ","LANE":"２３６巷","ALLEY":"１７弄","HOUSE_NO":"３號","E_COORD97":169747.58454099999,"N_COORD97":2547861.5040500001,"ADDRESS":"郡安路三段２３６巷１７弄３號","OBJECTID":650100},"geometry":{"x":169747.58454100136,"y":2547861.5040550027}},{"attributes":{"ID":650128,"DIS_CODE":0,"TOWNNAME":"安南區","LI":"安和里","LIN":"8鄰","STREET":"郡安路","SECT":"三段","MAREA":" ","LANE":"２３６巷","ALLEY":"１７弄","HOUSE_NO":"５號","E_COORD97":169749.91360500001,"N_COORD97":2547867.4307200001,"ADDRESS":"郡安路三段２３６巷１７弄５號","OBJECTID":650101},"geometry":{"x":169749.91360500176,"y":2547867.4307190031}},{"attributes":{"ID":650129,"DIS_CODE":0,"TOWNNAME":"安南區","LI":"安和里","LIN":"8鄰","STREET":"郡安路","SECT":"三段","MAREA":" ","LANE":"２３６巷","ALLEY":"１７弄","HOUSE_NO":"７號","E_COORD97":169750.54880399999,"N_COORD97":2547872.0873799999,"ADDRESS":"郡安路三段２３６巷１７弄７號","OBJECTID":650102},"geometry":{"x":169750.54880400188,"y":2547872.0873830039}},{"attributes":{"ID":650130,"DIS_CODE":0,"TOWNNAME":"安南區","LI":"安和里","LIN":"8鄰","STREET":"郡安路","SECT":"三段","MAREA":" ","LANE":"２３６巷","ALLEY":"１７弄","HOUSE_NO":"９號","E_COORD97":169752.666134,"N_COORD97":2547878.43738,"ADDRESS":"郡安路三段２３６巷１７弄９號","OBJECTID":650103},"geometry":{"x":169752.66613399982,"y":2547878.4373789988}},{"attributes":{"ID":650131,"DIS_CODE":0,"TOWNNAME":"東區","LI":"東明里","LIN":"1鄰","STREET":"東興路","SECT":" ","MAREA":" ","LANE":"１１巷","ALLEY":" ","HOUSE_NO":"１１號","E_COORD97":170863.24532099999,"N_COORD97":2543428.9045299999,"ADDRESS":"東興路１１巷１１號","OBJECTID":650104},"geometry":{"x":170863.24532099999,"y":2543428.9045289997}},{"attributes":{"ID":650132,"DIS_CODE":0,"TOWNNAME":"安南區","LI":"安和里","LIN":"8鄰","STREET":"郡安路","SECT":"三段","MAREA":" ","LANE":"２３６巷","ALLEY":"１７弄","HOUSE_NO":"１１號","E_COORD97":169754.78346499999,"N_COORD97":2547883.9407100002,"ADDRESS":"郡安路三段２３６巷１７弄１１號","OBJECTID":650105},"geometry":{"x":169754.78346499987,"y":2547883.9407099988}},{"attributes":{"ID":650133,"DIS_CODE":0,"TOWNNAME":"安南區","LI":"安和里","LIN":"8鄰","STREET":"郡安路","SECT":"三段","MAREA":" ","LANE":" ","ALLEY":" ","HOUSE_NO":"２２７號","E_COORD97":169755.20693099999,"N_COORD97":2547893.25404,"ADDRESS":"郡安路三段２２７號","OBJECTID":650106},"geometry":{"x":169755.20693099964,"y":2547893.2540380005}},{"attributes":{"ID":650134,"DIS_CODE":0,"TOWNNAME":"東區","LI":"崇文里","LIN":"8鄰","STREET":"崇善路","SECT":" ","MAREA":" ","LANE":" ","ALLEY":" ","HOUSE_NO":"６４２號","E_COORD97":171144.44202799999,"N_COORD97":2541027.7548099998,"ADDRESS":"崇善路６４２號","OBJECTID":650107},"geometry":{"x":171144.44202800188,"y":2541027.7548110019}},{"attributes":{"ID":650135,"DIS_CODE":0,"TOWNNAME":"安南區","LI":"安和里","LIN":"8鄰","STREET":"郡安路","SECT":"三段","MAREA":" ","LANE":"２３６巷","ALLEY":"６弄","HOUSE_NO":"１號","E_COORD97":169708.625661,"N_COORD97":2547819.3824100001,"ADDRESS":"郡安路三段２３６巷６弄１號","OBJECTID":650108},"geometry":{"x":169708.62566099968,"y":2547819.3824109994}},{"attributes":{"ID":650136,"DIS_CODE":0,"TOWNNAME":"仁德區","LI":"中洲里","LIN":"10鄰","STREET":" ","SECT":" ","MAREA":"中洲","LANE":" ","ALLEY":" ","HOUSE_NO":"３０９之２０號","E_COORD97":173883.53661800001,"N_COORD97":2533689.2011099998,"ADDRESS":"中洲３０９之２０號","OBJECTID":650109},"geometry":{"x":173883.53661800083,"y":2533689.2011099998}},{"attributes":{"ID":650137,"DIS_CODE":0,"TOWNNAME":"安南區","LI":"安和里","LIN":"8鄰","STREET":"郡安路","SECT":"三段","MAREA":" ","LANE":"２３６巷","ALLEY":"６弄","HOUSE_NO":"３號","E_COORD97":169705.02619900001,"N_COORD97":2547813.6674100002,"ADDRESS":"郡安路三段２３６巷６弄３號","OBJECTID":650110},"geometry":{"x":169705.02619899996,"y":2547813.6674140003}},{"attributes":{"ID":650138,"DIS_CODE":0,"TOWNNAME":"仁德區","LI":"二行里","LIN":"9鄰","STREET":"中正西路","SECT":" ","MAREA":" ","LANE":"２１１巷","ALLEY":"２９弄","HOUSE_NO":"３號","E_COORD97":170098.565451,"N_COORD97":2535280.9995300001,"ADDRESS":"中正西路２１１巷２９弄３號","OBJECTID":650111},"geometry":{"x":170098.56545099989,"y":2535280.9995290022}},{"attributes":{"ID":650139,"DIS_CODE":0,"TOWNNAME":"安南區","LI":"安和里","LIN":"8鄰","STREET":"郡安路","SECT":"三段","MAREA":" ","LANE":"２３６巷","ALLEY":"６弄","HOUSE_NO":"５號","E_COORD97":169703.967534,"N_COORD97":2547808.16408,"ADDRESS":"郡安路三段２３６巷６弄５號","OBJECTID":650112},"geometry":{"x":169703.96753400192,"y":2547808.1640840024}},{"attributes":{"ID":650140,"DIS_CODE":0,"TOWNNAME":"仁德區","LI":"二行里","LIN":"9鄰","STREET":"中正西路","SECT":" ","MAREA":" ","LANE":"２１１巷","ALLEY":"２９弄","HOUSE_NO":"５號","E_COORD97":170100.10215200001,"N_COORD97":2535284.7036899999,"ADDRESS":"中正西路２１１巷２９弄５號","OBJECTID":650113},"geometry":{"x":170100.10215199925,"y":2535284.7036930025}},{"attributes":{"ID":650141,"DIS_CODE":0,"TOWNNAME":"安南區","LI":"安和里","LIN":"8鄰","STREET":"郡安路","SECT":"三段","MAREA":" ","LANE":"２３６巷","ALLEY":"６弄","HOUSE_NO":"７號","E_COORD97":169701.426737,"N_COORD97":2547803.7190899998,"ADDRESS":"郡安路三段２３６巷６弄７號","OBJECTID":650114},"geometry":{"x":169701.4267370021,"y":2547803.7190860026}},{"attributes":{"ID":650142,"DIS_CODE":0,"TOWNNAME":"新營區","LI":"埤寮里","LIN":"13鄰","STREET":"中正路","SECT":" ","MAREA":" ","LANE":" ","ALLEY":" ","HOUSE_NO":"４７７號","E_COORD97":180046.18868799999,"N_COORD97":2580487.2916199998,"ADDRESS":"中正路４７７號","OBJECTID":650115},"geometry":{"x":180046.18868800066,"y":2580487.2916200012}},{"attributes":{"ID":650143,"DIS_CODE":0,"TOWNNAME":"安南區","LI":"安和里","LIN":"8鄰","STREET":"郡安路","SECT":"三段","MAREA":" ","LANE":"２３６巷","ALLEY":"６弄","HOUSE_NO":"２號","E_COORD97":169699.30940699999,"N_COORD97":2547836.9507399998,"ADDRESS":"郡安路三段２３６巷６弄２號","OBJECTID":650116},"geometry":{"x":169699.30940700136,"y":2547836.950734999}},{"attributes":{"ID":650144,"DIS_CODE":0,"TOWNNAME":"仁德區","LI":"二行里","LIN":"9鄰","STREET":"中正西路","SECT":" ","MAREA":" ","LANE":"２１１巷","ALLEY":"２９弄","HOUSE_NO":"７號","E_COORD97":170102.27473100001,"N_COORD97":2535289.0428599999,"ADDRESS":"中正西路２１１巷２９弄７號","OBJECTID":650117},"geometry":{"x":170102.27473100089,"y":2535289.0428580008}},{"attributes":{"ID":650145,"DIS_CODE":0,"TOWNNAME":"白河區","LI":"汴頭里","LIN":"9鄰","STREET":" ","SECT":" ","MAREA":"內枋林","LANE":" ","ALLEY":" ","HOUSE_NO":"１７之１號","E_COORD97":193963.588682,"N_COORD97":2585051.59235,"ADDRESS":"內枋林１７之１號","OBJECTID":650118},"geometry":{"x":193963.58868200053,"y":2585051.592349004}},{"attributes":{"ID":650146,"DIS_CODE":0,"TOWNNAME":"安南區","LI":"安和里","LIN":"8鄰","STREET":"郡安路","SECT":"三段","MAREA":" ","LANE":"２３６巷","ALLEY":"６弄","HOUSE_NO":"６號","E_COORD97":169695.70994500001,"N_COORD97":2547830.17741,"ADDRESS":"郡安路三段２３６巷６弄６號","OBJECTID":650119},"geometry":{"x":169695.70994500071,"y":2547830.1774060018}},{"attributes":{"ID":650147,"DIS_CODE":0,"TOWNNAME":"仁德區","LI":"二行里","LIN":"9鄰","STREET":"中正西路","SECT":" ","MAREA":" ","LANE":"２１１巷","ALLEY":"２９弄","HOUSE_NO":"９號","E_COORD97":170104.44730900001,"N_COORD97":2535292.85286,"ADDRESS":"中正西路２１１巷２９弄９號","OBJECTID":650120},"geometry":{"x":170104.44730900228,"y":2535292.8528550006}},{"attributes":{"ID":650148,"DIS_CODE":0,"TOWNNAME":"安南區","LI":"安和里","LIN":"8鄰","STREET":"郡安路","SECT":"三段","MAREA":" ","LANE":"２３６巷","ALLEY":"６弄","HOUSE_NO":"８號","E_COORD97":169694.43954699999,"N_COORD97":2547824.8857399998,"ADDRESS":"郡安路三段２３６巷６弄８號","OBJECTID":650121},"geometry":{"x":169694.43954700045,"y":2547824.8857420012}},{"attributes":{"ID":650149,"DIS_CODE":0,"TOWNNAME":"安南區","LI":"安和里","LIN":"8鄰","STREET":"郡安路","SECT":"三段","MAREA":" ","LANE":"２３６巷","ALLEY":"６弄","HOUSE_NO":"１０號","E_COORD97":169692.74568299999,"N_COORD97":2547819.5940800002,"ADDRESS":"郡安路三段２３６巷６弄１０號","OBJECTID":650122},"geometry":{"x":169692.74568300042,"y":2547819.5940780006}},{"attributes":{"ID":650150,"DIS_CODE":0,"TOWNNAME":"安南區","LI":"安和里","LIN":"8鄰","STREET":"郡安路","SECT":"三段","MAREA":" ","LANE":"２３６巷","ALLEY":"６弄","HOUSE_NO":"１２號","E_COORD97":169691.89874999999,"N_COORD97":2547814.9374099998,"ADDRESS":"郡安路三段２３６巷６弄１２號","OBJECTID":650123},"geometry":{"x":169691.89875000063,"y":2547814.9374139998}},{"attributes":{"ID":650151,"DIS_CODE":0,"TOWNNAME":"安南區","LI":"安和里","LIN":"8鄰","STREET":"郡安路","SECT":"三段","MAREA":" ","LANE":"２３６巷","ALLEY":"６弄","HOUSE_NO":"１６號","E_COORD97":169690.628352,"N_COORD97":2547809.0107499999,"ADDRESS":"郡安路三段２３６巷６弄１６號","OBJECTID":650124},"geometry":{"x":169690.62835200038,"y":2547809.0107499994}},{"attributes":{"ID":650152,"DIS_CODE":0,"TOWNNAME":"安南區","LI":"安和里","LIN":"8鄰","STREET":"郡安路","SECT":"三段","MAREA":" ","LANE":" ","ALLEY":" ","HOUSE_NO":"２４２號","E_COORD97":169668.81984899999,"N_COORD97":2547821.2874099999,"ADDRESS":"郡安路三段２４２號","OBJECTID":650125},"geometry":{"x":169668.81984900031,"y":2547821.2874100041}},{"attributes":{"ID":650153,"DIS_CODE":0,"TOWNNAME":"安南區","LI":"安和里","LIN":"8鄰","STREET":"郡安路","SECT":"三段","MAREA":" ","LANE":" ","ALLEY":" ","HOUSE_NO":"２４３號","E_COORD97":169665.22038700001,"N_COORD97":2547817.90075,"ADDRESS":"郡安路三段２４３號","OBJECTID":650126},"geometry":{"x":169665.22038699966,"y":2547817.9007450026}},{"attributes":{"ID":650154,"DIS_CODE":0,"TOWNNAME":"東區","LI":"崇善里","LIN":"12鄰","STREET":"崇善九街","SECT":" ","MAREA":" ","LANE":" ","ALLEY":" ","HOUSE_NO":"６０號","E_COORD97":171249.06111000001,"N_COORD97":2541390.14286,"ADDRESS":"崇善九街６０號","OBJECTID":650127},"geometry":{"x":171249.06111000106,"y":2541390.1428560019}},{"attributes":{"ID":650155,"DIS_CODE":0,"TOWNNAME":"東區","LI":"崇善里","LIN":"13鄰","STREET":"崇善十街","SECT":" ","MAREA":" ","LANE":" ","ALLEY":" ","HOUSE_NO":"６１號","E_COORD97":171252.85764999999,"N_COORD97":2541357.54403,"ADDRESS":"崇善十街６１號","OBJECTID":650128},"geometry":{"x":171252.8576500006,"y":2541357.5440300014}},{"attributes":{"ID":650156,"DIS_CODE":0,"TOWNNAME":"仁德區","LI":"二行里","LIN":"9鄰","STREET":"中正西路","SECT":" ","MAREA":" ","LANE":"２１１巷","ALLEY":"２９弄","HOUSE_NO":"１１號","E_COORD97":170106.407928,"N_COORD97":2535296.5570200002,"ADDRESS":"中正西路２１１巷２９弄１１號","OBJECTID":650129},"geometry":{"x":170106.40792800114,"y":2535296.557020003}},{"attributes":{"ID":650157,"DIS_CODE":0,"TOWNNAME":"東區","LI":"崇善里","LIN":"12鄰","STREET":"崇善九街","SECT":" ","MAREA":" ","LANE":" ","ALLEY":" ","HOUSE_NO":"６２號","E_COORD97":171254.11822599999,"N_COORD97":2541392.4584300001,"ADDRESS":"崇善九街６２號","OBJECTID":650130},"geometry":{"x":171254.11822600011,"y":2541392.4584350027}},{"attributes":{"ID":650158,"DIS_CODE":0,"TOWNNAME":"仁德區","LI":"二行里","LIN":"9鄰","STREET":"中正西路","SECT":" ","MAREA":" ","LANE":"２１１巷","ALLEY":"２９弄","HOUSE_NO":"１３號","E_COORD97":170107.73267100001,"N_COORD97":2535300.8961800002,"ADDRESS":"中正西路２１１巷２９弄１３號","OBJECTID":650131},"geometry":{"x":170107.73267100099,"y":2535300.8961840011}},{"attributes":{"ID":650159,"DIS_CODE":0,"TOWNNAME":"七股區","LI":"大埕里","LIN":"3鄰","STREET":" ","SECT":" ","MAREA":"大埕","LANE":" ","ALLEY":" ","HOUSE_NO":"１０６號","E_COORD97":162931.93311000001,"N_COORD97":2561061.5655100001,"ADDRESS":"大埕１０６號","OBJECTID":650132},"geometry":{"x":162931.93310999963,"y":2561061.5655100029}},{"attributes":{"ID":650160,"DIS_CODE":0,"TOWNNAME":"東區","LI":"崇善里","LIN":"13鄰","STREET":"崇善十街","SECT":" ","MAREA":" ","LANE":" ","ALLEY":" ","HOUSE_NO":"６３號","E_COORD97":171259.42663599999,"N_COORD97":2541359.2373600001,"ADDRESS":"崇善十街６３號","OBJECTID":650133},"geometry":{"x":171259.42663600016,"y":2541359.237362003}},{"attributes":{"ID":650161,"DIS_CODE":0,"TOWNNAME":"仁德區","LI":"二行里","LIN":"9鄰","STREET":"中正西路","SECT":" ","MAREA":" ","LANE":"２１１巷","ALLEY":"２９弄","HOUSE_NO":"１５號","E_COORD97":170110.223188,"N_COORD97":2535304.60035,"ADDRESS":"中正西路２１１巷２９弄１５號","OBJECTID":650134},"geometry":{"x":170110.2231879998,"y":2535304.6003489997}},{"attributes":{"ID":650162,"DIS_CODE":0,"TOWNNAME":"東區","LI":"崇善里","LIN":"13鄰","STREET":"崇善十街","SECT":" ","MAREA":" ","LANE":" ","ALLEY":" ","HOUSE_NO":"６５號","E_COORD97":171263.876594,"N_COORD97":2541361.7773600002,"ADDRESS":"崇善十街６５號","OBJECTID":650135},"geometry":{"x":171263.87659399956,"y":2541361.7773610037}},{"attributes":{"ID":650163,"DIS_CODE":0,"TOWNNAME":"仁德區","LI":"二行里","LIN":"9鄰","STREET":"中正西路","SECT":" ","MAREA":" ","LANE":"２１１巷","ALLEY":"２９弄","HOUSE_NO":"１７號","E_COORD97":170112.18380699999,"N_COORD97":2535308.5161799998,"ADDRESS":"中正西路２１１巷２９弄１７號","OBJECTID":650136},"geometry":{"x":170112.18380699959,"y":2535308.5161800012}},{"attributes":{"ID":650164,"DIS_CODE":0,"TOWNNAME":"仁德區","LI":"二行里","LIN":"9鄰","STREET":"中正西路","SECT":" ","MAREA":" ","LANE":"２１１巷","ALLEY":"２９弄","HOUSE_NO":"１９號","E_COORD97":170113.40257100001,"N_COORD97":2535312.53785,"ADDRESS":"中正西路２１１巷２９弄１９號","OBJECTID":650137},"geometry":{"x":170113.40257100109,"y":2535312.5378450006}},{"attributes":{"ID":650165,"DIS_CODE":0,"TOWNNAME":"東區","LI":"崇善里","LIN":"12鄰","STREET":"崇善九街","SECT":" ","MAREA":" ","LANE":" ","ALLEY":" ","HOUSE_NO":"６６號","E_COORD97":171259.491411,"N_COORD97":2541394.8792699999,"ADDRESS":"崇善九街６６號","OBJECTID":650138},"geometry":{"x":171259.49141100049,"y":2541394.8792669978}},{"attributes":{"ID":650166,"DIS_CODE":0,"TOWNNAME":"仁德區","LI":"二行里","LIN":"9鄰","STREET":"中正西路","SECT":" ","MAREA":" ","LANE":"２１１巷","ALLEY":"２９弄","HOUSE_NO":"２１號","E_COORD97":170116.63494300001,"N_COORD97":2535316.6653399998,"ADDRESS":"中正西路２１１巷２９弄２１號","OBJECTID":650139},"geometry":{"x":170116.63494300004,"y":2535316.6653430015}},{"attributes":{"ID":650167,"DIS_CODE":0,"TOWNNAME":"東區","LI":"崇善里","LIN":"13鄰","STREET":"崇善十街","SECT":" ","MAREA":" ","LANE":" ","ALLEY":" ","HOUSE_NO":"６７號","E_COORD97":171270.44558,"N_COORD97":2541366.22236,"ADDRESS":"崇善十街６７號","OBJECTID":650140},"geometry":{"x":171270.44557999913,"y":2541366.2223580033}},{"attributes":{"ID":650168,"DIS_CODE":0,"TOWNNAME":"仁德區","LI":"二行里","LIN":"9鄰","STREET":"中正西路","SECT":" ","MAREA":" ","LANE":"２１１巷","ALLEY":"２９弄","HOUSE_NO":"３７號","E_COORD97":170115.60164400001,"N_COORD97":2535281.1582800001,"ADDRESS":"中正西路２１１巷２９弄３７號","OBJECTID":650141},"geometry":{"x":170115.60164400097,"y":2535281.1582780033}},{"attributes":{"ID":650169,"DIS_CODE":0,"TOWNNAME":"東區","LI":"崇善里","LIN":"12鄰","STREET":"崇善九街","SECT":" ","MAREA":" ","LANE":" ","ALLEY":" ","HOUSE_NO":"６８號","E_COORD97":171263.49496099999,"N_COORD97":2541396.7738299998,"ADDRESS":"崇善九街６８號","OBJECTID":650142},"geometry":{"x":171263.49496100098,"y":2541396.7738310006}},{"attributes":{"ID":650170,"DIS_CODE":0,"TOWNNAME":"仁德區","LI":"二行里","LIN":"9鄰","STREET":"中正西路","SECT":" ","MAREA":" ","LANE":"２１１巷","ALLEY":"２９弄","HOUSE_NO":"３５號","E_COORD97":170116.66143800001,"N_COORD97":2535284.8095300002,"ADDRESS":"中正西路２１１巷２９弄３５號","OBJECTID":650143},"geometry":{"x":170116.66143800039,"y":2535284.809526002}},{"attributes":{"ID":650171,"DIS_CODE":0,"TOWNNAME":"北門區","LI":"鯤江里","LIN":"14鄰","STREET":" ","SECT":" ","MAREA":"新","LANE":" ","ALLEY":" ","HOUSE_NO":"５６號","E_COORD97":163220.95620099999,"N_COORD97":2576549.1995999999,"ADDRESS":"新５６號","OBJECTID":650144},"geometry":{"x":163220.95620100014,"y":2576549.1996040009}},{"attributes":{"ID":650172,"DIS_CODE":0,"TOWNNAME":"東區","LI":"崇善里","LIN":"13鄰","STREET":"崇善十街","SECT":" ","MAREA":" ","LANE":" ","ALLEY":" ","HOUSE_NO":"６９號","E_COORD97":171275.74314899999,"N_COORD97":2541368.1273599998,"ADDRESS":"崇善十街６９號","OBJECTID":650145},"geometry":{"x":171275.74314900022,"y":2541368.1273570023}},{"attributes":{"ID":650173,"DIS_CODE":0,"TOWNNAME":"仁德區","LI":"二行里","LIN":"9鄰","STREET":"中正西路","SECT":" ","MAREA":" ","LANE":"２１１巷","ALLEY":"２９弄","HOUSE_NO":"３３號","E_COORD97":170118.51607799999,"N_COORD97":2535289.78369,"ADDRESS":"中正西路２１１巷２９弄３３號","OBJECTID":650146},"geometry":{"x":170118.51607799903,"y":2535289.7836900018}},{"attributes":{"ID":650174,"DIS_CODE":0,"TOWNNAME":"仁德區","LI":"二行里","LIN":"9鄰","STREET":"中正西路","SECT":" ","MAREA":" ","LANE":"２１１巷","ALLEY":"２９弄","HOUSE_NO":"３１號","E_COORD97":170120.582677,"N_COORD97":2535294.12286,"ADDRESS":"中正西路２１１巷２９弄３１號","OBJECTID":650147},"geometry":{"x":170120.58267700113,"y":2535294.1228550002}},{"attributes":{"ID":650175,"DIS_CODE":0,"TOWNNAME":"東區","LI":"崇善里","LIN":"12鄰","STREET":"崇善九街","SECT":" ","MAREA":" ","LANE":" ","ALLEY":" ","HOUSE_NO":"７０號","E_COORD97":171268.552077,"N_COORD97":2541398.8788999999,"ADDRESS":"崇善九街７０號","OBJECTID":650148},"geometry":{"x":171268.55207700096,"y":2541398.8789029997}},{"attributes":{"ID":650176,"DIS_CODE":0,"TOWNNAME":"仁德區","LI":"二行里","LIN":"9鄰","STREET":"中正西路","SECT":" ","MAREA":" ","LANE":"２１１巷","ALLEY":"２９弄","HOUSE_NO":"２９號","E_COORD97":170122.33133700001,"N_COORD97":2535297.72119,"ADDRESS":"中正西路２１１巷２９弄２９號","OBJECTID":650149},"geometry":{"x":170122.33133700024,"y":2535297.7211860027}},{"attributes":{"ID":650177,"DIS_CODE":0,"TOWNNAME":"東區","LI":"崇善里","LIN":"13鄰","STREET":"崇善十街","SECT":" ","MAREA":" ","LANE":" ","ALLEY":" ","HOUSE_NO":"７１號","E_COORD97":171280.29905900001,"N_COORD97":2541371.1965200002,"ADDRESS":"崇善十街７１號","OBJECTID":650150},"geometry":{"x":171280.2990590008,"y":2541371.1965220012}},{"attributes":{"ID":650178,"DIS_CODE":0,"TOWNNAME":"仁德區","LI":"二行里","LIN":"9鄰","STREET":"中正西路","SECT":" ","MAREA":" ","LANE":"２１１巷","ALLEY":"２９弄","HOUSE_NO":"２７號","E_COORD97":170123.97401800001,"N_COORD97":2535302.1661800002,"ADDRESS":"中正西路２１１巷２９弄２７號","OBJECTID":650151},"geometry":{"x":170123.97401800007,"y":2535302.1661840007}},{"attributes":{"ID":650179,"DIS_CODE":0,"TOWNNAME":"東區","LI":"崇善里","LIN":"12鄰","STREET":"崇善九街","SECT":" ","MAREA":" ","LANE":" ","ALLEY":" ","HOUSE_NO":"７２號","E_COORD97":171272.76634,"N_COORD97":2541402.03651,"ADDRESS":"崇善九街７２號","OBJECTID":650152},"geometry":{"x":171272.76634000149,"y":2541402.0365100019}},{"attributes":{"ID":650180,"DIS_CODE":0,"TOWNNAME":"仁德區","LI":"二行里","LIN":"9鄰","STREET":"中正西路","SECT":" ","MAREA":" ","LANE":"２１１巷","ALLEY":"２９弄","HOUSE_NO":"２５號","E_COORD97":170126.252576,"N_COORD97":2535305.87035,"ADDRESS":"中正西路２１１巷２９弄２５號","OBJECTID":650153},"geometry":{"x":170126.25257600099,"y":2535305.8703480009}},{"attributes":{"ID":650181,"DIS_CODE":0,"TOWNNAME":"東區","LI":"崇善里","LIN":"13鄰","STREET":"崇善十街","SECT":" ","MAREA":" ","LANE":" ","ALLEY":" ","HOUSE_NO":"７３號","E_COORD97":171284.53711400001,"N_COORD97":2541374.6890199999,"ADDRESS":"崇善十街７３號","OBJECTID":650154},"geometry":{"x":171284.53711399902,"y":2541374.6890200023}},{"attributes":{"ID":650182,"DIS_CODE":0,"TOWNNAME":"仁德區","LI":"二行里","LIN":"9鄰","STREET":"中正西路","SECT":" ","MAREA":" ","LANE":"２１１巷","ALLEY":"２９弄","HOUSE_NO":"２３號","E_COORD97":170128.00123699999,"N_COORD97":2535309.5745100002,"ADDRESS":"中正西路２１１巷２９弄２３號","OBJECTID":650155},"geometry":{"x":170128.00123700034,"y":2535309.5745129976}},{"attributes":{"ID":650183,"DIS_CODE":0,"TOWNNAME":"安南區","LI":"安和里","LIN":"15鄰","STREET":"郡安路","SECT":"三段","MAREA":" ","LANE":"２５０巷","ALLEY":"１弄","HOUSE_NO":"２號","E_COORD97":169640.447621,"N_COORD97":2547777.4724300001,"ADDRESS":"郡安路三段２５０巷１弄２號","OBJECTID":650156},"geometry":{"x":169640.44762100186,"y":2547777.472434001}},{"attributes":{"ID":650184,"DIS_CODE":0,"TOWNNAME":"東區","LI":"崇善里","LIN":"13鄰","STREET":"崇善十街","SECT":" ","MAREA":" ","LANE":" ","ALLEY":" ","HOUSE_NO":"７５號","E_COORD97":171289.83468299999,"N_COORD97":2541376.1706900001,"ADDRESS":"崇善十街７５號","OBJECTID":650157},"geometry":{"x":171289.83468300011,"y":2541376.1706859991}},{"attributes":{"ID":650185,"DIS_CODE":0,"TOWNNAME":"安南區","LI":"安和里","LIN":"15鄰","STREET":"郡安路","SECT":"三段","MAREA":" ","LANE":"２５０巷","ALLEY":"１弄","HOUSE_NO":"６號","E_COORD97":169647.22307800001,"N_COORD97":2547781.9174299999,"ADDRESS":"郡安路三段２５０巷１弄６號","OBJECTID":650158},"geometry":{"x":169647.22307800036,"y":2547781.9174320009}},{"attributes":{"ID":650186,"DIS_CODE":0,"TOWNNAME":"東區","LI":"崇善里","LIN":"12鄰","STREET":"崇善九街","SECT":" ","MAREA":" ","LANE":" ","ALLEY":" ","HOUSE_NO":"７６號","E_COORD97":171278.560952,"N_COORD97":2541404.03633,"ADDRESS":"崇善九街７６號","OBJECTID":650159},"geometry":{"x":171278.56095200032,"y":2541404.0363279991}},{"attributes":{"ID":650187,"DIS_CODE":0,"TOWNNAME":"安南區","LI":"安和里","LIN":"15鄰","STREET":"郡安路","SECT":"三段","MAREA":" ","LANE":"２５０巷","ALLEY":"１弄","HOUSE_NO":"８號","E_COORD97":169653.998536,"N_COORD97":2547784.2457599998,"ADDRESS":"郡安路三段２５０巷１弄８號","OBJECTID":650160},"geometry":{"x":169653.99853600096,"y":2547784.2457640022}},{"attributes":{"ID":650188,"DIS_CODE":0,"TOWNNAME":"安南區","LI":"安和里","LIN":"15鄰","STREET":"郡安路","SECT":"三段","MAREA":" ","LANE":"２５０巷","ALLEY":"１弄","HOUSE_NO":"１０號","E_COORD97":169659.29186200001,"N_COORD97":2547787.20909,"ADDRESS":"郡安路三段２５０巷１弄１０號","OBJECTID":650161},"geometry":{"x":169659.29186200164,"y":2547787.2090950012}},{"attributes":{"ID":650189,"DIS_CODE":0,"TOWNNAME":"東區","LI":"崇善里","LIN":"12鄰","STREET":"崇善九街","SECT":" ","MAREA":" ","LANE":" ","ALLEY":" ","HOUSE_NO":"７８號","E_COORD97":171284.98770299999,"N_COORD97":2541408.98325,"ADDRESS":"崇善九街７８號","OBJECTID":650162},"geometry":{"x":171284.9877030002,"y":2541408.9832460023}},{"attributes":{"ID":650190,"DIS_CODE":0,"TOWNNAME":"安南區","LI":"安和里","LIN":"15鄰","STREET":"郡安路","SECT":"三段","MAREA":" ","LANE":"２５０巷","ALLEY":"１弄","HOUSE_NO":"１２號","E_COORD97":169664.796921,"N_COORD97":2547790.3840899998,"ADDRESS":"郡安路三段２５０巷１弄１２號","OBJECTID":650163},"geometry":{"x":169664.79692099988,"y":2547790.3840939999}},{"attributes":{"ID":650191,"DIS_CODE":0,"TOWNNAME":"安南區","LI":"安和里","LIN":"15鄰","STREET":"郡安路","SECT":"三段","MAREA":" ","LANE":"２５０巷","ALLEY":"１弄","HOUSE_NO":"１號","E_COORD97":169632.825231,"N_COORD97":2547793.9824299999,"ADDRESS":"郡安路三段２５０巷１弄１號","OBJECTID":650164},"geometry":{"x":169632.82523100078,"y":2547793.9824250024}},{"attributes":{"ID":650192,"DIS_CODE":0,"TOWNNAME":"安南區","LI":"安和里","LIN":"15鄰","STREET":"郡安路","SECT":"三段","MAREA":" ","LANE":"２５０巷","ALLEY":"１弄","HOUSE_NO":"３號","E_COORD97":169639.388955,"N_COORD97":2547794.1940899999,"ADDRESS":"郡安路三段２５０巷１弄３號","OBJECTID":650165},"geometry":{"x":169639.38895499986,"y":2547794.1940919999}},{"attributes":{"ID":650193,"DIS_CODE":0,"TOWNNAME":"東區","LI":"裕聖里","LIN":"19鄰","STREET":"裕華三街","SECT":" ","MAREA":" ","LANE":" ","ALLEY":" ","HOUSE_NO":"１０６號","E_COORD97":172762.508355,"N_COORD97":2541821.8930100002,"ADDRESS":"裕華三街１０６號","OBJECTID":650166},"geometry":{"x":172762.50835500099,"y":2541821.8930050023}},{"attributes":{"ID":650194,"DIS_CODE":0,"TOWNNAME":"安南區","LI":"安和里","LIN":"15鄰","STREET":"郡安路","SECT":"三段","MAREA":" ","LANE":"２５０巷","ALLEY":"１弄","HOUSE_NO":"５號","E_COORD97":169645.74094700001,"N_COORD97":2547796.3107599998,"ADDRESS":"郡安路三段２５０巷１弄５號","OBJECTID":650167},"geometry":{"x":169645.74094699975,"y":2547796.3107570019}},{"attributes":{"ID":650195,"DIS_CODE":0,"TOWNNAME":"安南區","LI":"安和里","LIN":"15鄰","STREET":"郡安路","SECT":"三段","MAREA":" ","LANE":"２５０巷","ALLEY":"１弄","HOUSE_NO":"７號","E_COORD97":169652.30467099999,"N_COORD97":2547799.0624199999,"ADDRESS":"郡安路三段２５０巷１弄７號","OBJECTID":650168},"geometry":{"x":169652.30467100069,"y":2547799.0624220017}},{"attributes":{"ID":650196,"DIS_CODE":0,"TOWNNAME":"安南區","LI":"安和里","LIN":"15鄰","STREET":"郡安路","SECT":"三段","MAREA":" ","LANE":"２５０巷","ALLEY":"１弄","HOUSE_NO":"９號","E_COORD97":169657.386264,"N_COORD97":2547801.6024199999,"ADDRESS":"郡安路三段２５０巷１弄９號","OBJECTID":650169},"geometry":{"x":169657.38626400195,"y":2547801.6024210025}},{"attributes":{"ID":650197,"DIS_CODE":0,"TOWNNAME":"東區","LI":"裕聖里","LIN":"19鄰","STREET":"裕華三街","SECT":" ","MAREA":" ","LANE":" ","ALLEY":" ","HOUSE_NO":"１０８號","E_COORD97":172763.03513800001,"N_COORD97":2541814.4199999999,"ADDRESS":"裕華三街１０８號","OBJECTID":650170},"geometry":{"x":172763.0351379998,"y":2541814.4200020023}},{"attributes":{"ID":650198,"DIS_CODE":0,"TOWNNAME":"安南區","LI":"安和里","LIN":"15鄰","STREET":"郡安路","SECT":"三段","MAREA":" ","LANE":"２５０巷","ALLEY":"１弄","HOUSE_NO":"１１號","E_COORD97":169663.314789,"N_COORD97":2547804.9890899998,"ADDRESS":"郡安路三段２５０巷１弄１１號","OBJECTID":650171},"geometry":{"x":169663.31478899997,"y":2547804.9890860021}},{"attributes":{"ID":650199,"DIS_CODE":0,"TOWNNAME":"東區","LI":"裕聖里","LIN":"19鄰","STREET":"裕華三街","SECT":" ","MAREA":" ","LANE":" ","ALLEY":" ","HOUSE_NO":"９６號","E_COORD97":172759.34765700001,"N_COORD97":2541871.7831999999,"ADDRESS":"裕華三街９６號","OBJECTID":650172},"geometry":{"x":172759.34765700158,"y":2541871.7831980009}},{"attributes":{"ID":650200,"DIS_CODE":0,"TOWNNAME":"安南區","LI":"安和里","LIN":"15鄰","STREET":"郡安路","SECT":"三段","MAREA":" ","LANE":"２５０巷","ALLEY":"２弄","HOUSE_NO":"１號","E_COORD97":169628.16710399999,"N_COORD97":2547773.6624400001,"ADDRESS":"郡安路三段２５０巷２弄１號","OBJECTID":650173},"geometry":{"x":169628.16710400116,"y":2547773.6624360029}},{"attributes":{"ID":650201,"DIS_CODE":0,"TOWNNAME":"東區","LI":"裕聖里","LIN":"19鄰","STREET":"裕華三街","SECT":" ","MAREA":" ","LANE":" ","ALLEY":" ","HOUSE_NO":"９８號","E_COORD97":172760.50657999999,"N_COORD97":2541855.6793999998,"ADDRESS":"裕華三街９８號","OBJECTID":650174},"geometry":{"x":172760.50657999888,"y":2541855.6794009991}},{"attributes":{"ID":650202,"DIS_CODE":0,"TOWNNAME":"安南區","LI":"安和里","LIN":"15鄰","STREET":"郡安路","SECT":"三段","MAREA":" ","LANE":"２５０巷","ALLEY":"２弄","HOUSE_NO":"３號","E_COORD97":169622.238579,"N_COORD97":2547770.91077,"ADDRESS":"郡安路三段２５０巷２弄３號","OBJECTID":650175},"geometry":{"x":169622.23857900035,"y":2547770.9107710011}},{"attributes":{"ID":650203,"DIS_CODE":0,"TOWNNAME":"安南區","LI":"安和里","LIN":"15鄰","STREET":"郡安路","SECT":"三段","MAREA":" ","LANE":"２５０巷","ALLEY":"２弄","HOUSE_NO":"５號","E_COORD97":169617.36871899999,"N_COORD97":2547768.1591099999,"ADDRESS":"郡安路三段２５０巷２弄５號","OBJECTID":650176},"geometry":{"x":169617.3687190013,"y":2547768.1591059994}},{"attributes":{"ID":650204,"DIS_CODE":0,"TOWNNAME":"安南區","LI":"安和里","LIN":"15鄰","STREET":"郡安路","SECT":"三段","MAREA":" ","LANE":"２５０巷","ALLEY":"２弄","HOUSE_NO":"７號","E_COORD97":169611.22846099999,"N_COORD97":2547764.9841100001,"ADDRESS":"郡安路三段２５０巷２弄７號","OBJECTID":650177},"geometry":{"x":169611.22846100107,"y":2547764.9841070008}},{"attributes":{"ID":650205,"DIS_CODE":0,"TOWNNAME":"下營區","LI":"茅港里","LIN":"5鄰","STREET":" ","SECT":" ","MAREA":"茅港尾","LANE":" ","ALLEY":" ","HOUSE_NO":"８１之１號","E_COORD97":176722.40031999999,"N_COORD97":2568754.0699999998,"ADDRESS":"茅港尾８１之１號","OBJECTID":650178},"geometry":{"x":176722.40032000095,"y":2568754.0699989982}},{"attributes":{"ID":650206,"DIS_CODE":0,"TOWNNAME":"東區","LI":"裕聖里","LIN":"19鄰","STREET":"裕信六街","SECT":" ","MAREA":" ","LANE":" ","ALLEY":" ","HOUSE_NO":"３８號","E_COORD97":172741.05079899999,"N_COORD97":2541872.9101800001,"ADDRESS":"裕信六街３８號","OBJECTID":650179},"geometry":{"x":172741.05079900101,"y":2541872.9101780001}},{"attributes":{"ID":650207,"DIS_CODE":0,"TOWNNAME":"東區","LI":"裕聖里","LIN":"19鄰","STREET":"裕信六街","SECT":" ","MAREA":" ","LANE":" ","ALLEY":" ","HOUSE_NO":"４０號","E_COORD97":172749.52690999999,"N_COORD97":2541872.69851,"ADDRESS":"裕信六街４０號","OBJECTID":650180},"geometry":{"x":172749.52691000048,"y":2541872.6985120028}},{"attributes":{"ID":650208,"DIS_CODE":0,"TOWNNAME":"東區","LI":"關聖里","LIN":"13鄰","STREET":"裕和一街","SECT":" ","MAREA":" ","LANE":" ","ALLEY":" ","HOUSE_NO":"２７號","E_COORD97":172149.33306999999,"N_COORD97":2543033.1510999999,"ADDRESS":"裕和一街２７號","OBJECTID":650181},"geometry":{"x":172149.33307000156,"y":2543033.151101999}},{"attributes":{"ID":650209,"DIS_CODE":0,"TOWNNAME":"安南區","LI":"安和里","LIN":"15鄰","STREET":"郡安路","SECT":"三段","MAREA":" ","LANE":"２５０巷","ALLEY":"２弄","HOUSE_NO":"２號","E_COORD97":169622.238579,"N_COORD97":2547784.0340999998,"ADDRESS":"郡安路三段２５０巷２弄２號","OBJECTID":650182},"geometry":{"x":169622.23857900035,"y":2547784.034097001}},{"attributes":{"ID":650210,"DIS_CODE":0,"TOWNNAME":"安南區","LI":"安和里","LIN":"15鄰","STREET":"郡安路","SECT":"三段","MAREA":" ","LANE":"２５０巷","ALLEY":"２弄","HOUSE_NO":"６號","E_COORD97":169617.58045199999,"N_COORD97":2547781.4940999998,"ADDRESS":"郡安路三段２５０巷２弄６號","OBJECTID":650183},"geometry":{"x":169617.58045199979,"y":2547781.4940980021}},{"attributes":{"ID":650211,"DIS_CODE":0,"TOWNNAME":"安南區","LI":"安和里","LIN":"15鄰","STREET":"郡安路","SECT":"三段","MAREA":" ","LANE":"２５０巷","ALLEY":"２弄","HOUSE_NO":"８號","E_COORD97":169611.01672799999,"N_COORD97":2547778.7424300001,"ADDRESS":"郡安路三段２５０巷２弄８號","OBJECTID":650184},"geometry":{"x":169611.01672800072,"y":2547778.7424330022}},{"attributes":{"ID":650212,"DIS_CODE":0,"TOWNNAME":"安南區","LI":"安和里","LIN":"15鄰","STREET":"郡安路","SECT":"三段","MAREA":" ","LANE":"２５０巷","ALLEY":"２弄","HOUSE_NO":"１０號","E_COORD97":169604.87646900001,"N_COORD97":2547776.4141000002,"ADDRESS":"郡安路三段２５０巷２弄１０號","OBJECTID":650185},"geometry":{"x":169604.87646900024,"y":2547776.4141010027}},{"attributes":{"ID":650213,"DIS_CODE":0,"TOWNNAME":"安南區","LI":"安和里","LIN":"15鄰","STREET":"郡安路","SECT":"三段","MAREA":" ","LANE":"２５０巷","ALLEY":"２弄","HOUSE_NO":"１２號","E_COORD97":169599.37140999999,"N_COORD97":2547773.45077,"ADDRESS":"郡安路三段２５０巷２弄１２號","OBJECTID":650186},"geometry":{"x":169599.37141000014,"y":2547773.4507690016}},{"attributes":{"ID":650214,"DIS_CODE":0,"TOWNNAME":"安南區","LI":"安和里","LIN":"15鄰","STREET":"郡安路","SECT":"三段","MAREA":" ","LANE":"２５０巷","ALLEY":"２弄","HOUSE_NO":"１６號","E_COORD97":169593.01941899999,"N_COORD97":2547769.6407699999,"ADDRESS":"郡安路三段２５０巷２弄１６號","OBJECTID":650187},"geometry":{"x":169593.01941899955,"y":2547769.6407720018}},{"attributes":{"ID":650215,"DIS_CODE":0,"TOWNNAME":"安南區","LI":"安和里","LIN":"15鄰","STREET":"郡安路","SECT":"三段","MAREA":" ","LANE":"２５０巷","ALLEY":"２弄","HOUSE_NO":"１８號","E_COORD97":169587.51436,"N_COORD97":2547767.7357700001,"ADDRESS":"郡安路三段２５０巷２弄１８號","OBJECTID":650188},"geometry":{"x":169587.51436000038,"y":2547767.7357730009}},{"attributes":{"ID":650216,"DIS_CODE":0,"TOWNNAME":"安南區","LI":"安和里","LIN":"15鄰","STREET":"郡安路","SECT":"三段","MAREA":" ","LANE":"２５０巷","ALLEY":"２弄","HOUSE_NO":"２０號","E_COORD97":169582.43276699999,"N_COORD97":2547765.4074400002,"ADDRESS":"郡安路三段２５０巷２弄２０號","OBJECTID":650189},"geometry":{"x":169582.43276700005,"y":2547765.4074399993}},{"attributes":{"ID":650217,"DIS_CODE":0,"TOWNNAME":"安南區","LI":"安和里","LIN":"15鄰","STREET":"郡安路","SECT":"三段","MAREA":" ","LANE":"２５０巷","ALLEY":"２弄","HOUSE_NO":"９號","E_COORD97":169604.43312100001,"N_COORD97":2547761.8091099998,"ADDRESS":"郡安路三段２５０巷２弄９號","OBJECTID":650190},"geometry":{"x":169604.43312100042,"y":2547761.8091090005}},{"attributes":{"ID":650218,"DIS_CODE":0,"TOWNNAME":"安南區","LI":"安和里","LIN":"15鄰","STREET":"郡安路","SECT":"三段","MAREA":" ","LANE":"２５０巷","ALLEY":"２弄","HOUSE_NO":"１１號","E_COORD97":169599.351528,"N_COORD97":2547759.0574400001,"ADDRESS":"郡安路三段２５０巷２弄１１號","OBJECTID":650191},"geometry":{"x":169599.35152800009,"y":2547759.0574440006}},{"attributes":{"ID":650219,"DIS_CODE":0,"TOWNNAME":"安南區","LI":"安和里","LIN":"15鄰","STREET":"郡安路","SECT":"三段","MAREA":" ","LANE":"２５０巷","ALLEY":"２弄","HOUSE_NO":"１３號","E_COORD97":169594.05820199999,"N_COORD97":2547756.5174400001,"ADDRESS":"郡安路三段２５０巷２弄１３號","OBJECTID":650192},"geometry":{"x":169594.05820200127,"y":2547756.5174449999}},{"attributes":{"ID":650220,"DIS_CODE":0,"TOWNNAME":"安南區","LI":"安和里","LIN":"15鄰","STREET":"郡安路","SECT":"三段","MAREA":" ","LANE":"２５０巷","ALLEY":"２弄","HOUSE_NO":"１５號","E_COORD97":169588.976609,"N_COORD97":2547752.7074500001,"ADDRESS":"郡安路三段２５０巷２弄１５號","OBJECTID":650193},"geometry":{"x":169588.97660900094,"y":2547752.7074470017}},{"attributes":{"ID":650221,"DIS_CODE":0,"TOWNNAME":"仁德區","LI":"土庫里","LIN":"8鄰","STREET":"土庫六街","SECT":" ","MAREA":" ","LANE":" ","ALLEY":" ","HOUSE_NO":"８７號","E_COORD97":174099.85485,"N_COORD97":2543251.5147099998,"ADDRESS":"土庫六 街８７號","OBJECTID":650194},"geometry":{"x":174099.85484999977,"y":2543251.5147100016}},{"attributes":{"ID":650222,"DIS_CODE":0,"TOWNNAME":"仁德區","LI":"土庫里","LIN":"8鄰","STREET":"土庫六街","SECT":" ","MAREA":" ","LANE":" ","ALLEY":" ","HOUSE_NO":"８５號","E_COORD97":174104.51683000001,"N_COORD97":2543252.3613800001,"ADDRESS":"土庫六 街８５號","OBJECTID":650195},"geometry":{"x":174104.5168300001,"y":2543252.3613800015}},{"attributes":{"ID":650223,"DIS_CODE":0,"TOWNNAME":"仁德區","LI":"土庫里","LIN":"8鄰","STREET":"土庫六街","SECT":" ","MAREA":" ","LANE":" ","ALLEY":" ","HOUSE_NO":"８３號","E_COORD97":174108.96690999999,"N_COORD97":2543252.9963799999,"ADDRESS":"土庫六 街８３號","OBJECTID":650196},"geometry":{"x":174108.96690999996,"y":2543252.9963799994}},{"attributes":{"ID":650224,"DIS_CODE":0,"TOWNNAME":"仁德區","LI":"土庫里","LIN":"8鄰","STREET":"土庫六街","SECT":" ","MAREA":" ","LANE":" ","ALLEY":" ","HOUSE_NO":"８１號","E_COORD97":174112.99316000001,"N_COORD97":2543252.5730400002,"ADDRESS":"土庫六 街８１號","OBJECTID":650197},"geometry":{"x":174112.99315999914,"y":2543252.573040003}},{"attributes":{"ID":650225,"DIS_CODE":0,"TOWNNAME":"仁德區","LI":"土庫里","LIN":"13鄰","STREET":"土庫路","SECT":" ","MAREA":" ","LANE":" ","ALLEY":" ","HOUSE_NO":"２１５號","E_COORD97":174269.80520999999,"N_COORD97":2542876.0182500002,"ADDRESS":"土庫路２１５號","OBJECTID":650198},"geometry":{"x":174269.80521000084,"y":2542876.0182520021}},{"attributes":{"ID":650226,"DIS_CODE":0,"TOWNNAME":"仁德區","LI":"土庫里","LIN":"13鄰","STREET":"土庫路","SECT":" ","MAREA":" ","LANE":" ","ALLEY":" ","HOUSE_NO":"２１５之１號","E_COORD97":174266.62658000001,"N_COORD97":2542873.05492,"ADDRESS":"土庫路２１５之１號","OBJECTID":650199},"geometry":{"x":174266.62657999992,"y":2542873.0549199991}},{"attributes":{"ID":650227,"DIS_CODE":0,"TOWNNAME":"仁德區","LI":"土庫里","LIN":"13鄰","STREET":"土庫路","SECT":" ","MAREA":" ","LANE":" ","ALLEY":" ","HOUSE_NO":"２１５之２號","E_COORD97":174262.38842,"N_COORD97":2542869.6682500001,"ADDRESS":"土庫路２１５之２號","OBJECTID":650200},"geometry":{"x":174262.38841999974,"y":2542869.668250002}}]}