{"displayFieldName":"TOWNNAME","fieldAliases":{"ID":"ID","DIS_CODE":"DIS_CODE","TOWNNAME":"TOWNNAME","LI":"LI","LIN":"LIN","STREET":"STREET","SECT":"SECT","MAREA":"MAREA","LANE":"LANE","ALLEY":"ALLEY","HOUSE_NO":"HOUSE_NO","E_COORD97":"E_COORD97","N_COORD97":"N_COORD97","ADDRESS":"ADDRESS","OBJECTID":"OBJECTID"},"geometryType":"esriGeometryPoint","spatialReference":{"wkid":102443,"latestWkid":3826},"fields":[{"name":"ID","type":"esriFieldTypeDouble","alias":"ID"},{"name":"DIS_CODE","type":"esriFieldTypeInteger","alias":"DIS_CODE"},{"name":"TOWNNAME","type":"esriFieldTypeString","alias":"TOWNNAME","length":8},{"name":"LI","type":"esriFieldTypeString","alias":"LI","length":8},{"name":"LIN","type":"esriFieldTypeString","alias":"LIN","length":12},{"name":"STREET","type":"esriFieldTypeString","alias":"STREET","length":20},{"name":"SECT","type":"esriFieldTypeString","alias":"SECT","length":8},{"name":"MAREA","type":"esriFieldTypeString","alias":"MAREA","length":12},{"name":"LANE","type":"esriFieldTypeString","alias":"LANE","length":10},{"name":"ALLEY","type":"esriFieldTypeString","alias":"ALLEY","length":10},{"name":"HOUSE_NO","type":"esriFieldTypeString","alias":"HOUSE_NO","length":20},{"name":"E_COORD97","type":"esriFieldTypeDouble","alias":"E_COORD97"},{"name":"N_COORD97","type":"esriFieldTypeDouble","alias":"N_COORD97"},{"name":"ADDRESS","type":"esriFieldTypeString","alias":"ADDRESS","length":50},{"name":"OBJECTID","type":"esriFieldTypeOID","alias":"OBJECTID"}],"features":[{"attributes":{"ID":303009,"DIS_CODE":0,"TOWNNAME":"南區","LI":"新昌里","LIN":"14鄰","STREET":"府緯街","SECT":" ","MAREA":" ","LANE":" ","ALLEY":" ","HOUSE_NO":"１２６號","E_COORD97":167564.70999999999,"N_COORD97":2542736.3700000001,"ADDRESS":"府緯街１２６號","OBJECTID":303001},"geometry":{"x":167564.71000000089,"y":2542736.370000001}},{"attributes":{"ID":303010,"DIS_CODE":0,"TOWNNAME":"南區","LI":"新昌里","LIN":"14鄰","STREET":"府緯街","SECT":" ","MAREA":" ","LANE":" ","ALLEY":" ","HOUSE_NO":"１２８號","E_COORD97":167560,"N_COORD97":2542736.21,"ADDRESS":"府緯街１２８號","OBJECTID":303002},"geometry":{"x":167560,"y":2542736.2100000028}},{"attributes":{"ID":303011,"DIS_CODE":0,"TOWNNAME":"仁德區","LI":"後壁里","LIN":"41鄰","STREET":"德善路","SECT":" ","MAREA":" ","LANE":"２５１巷","ALLEY":" ","HOUSE_NO":"１之６號","E_COORD97":173876.04999999999,"N_COORD97":2538720.7599999998,"ADDRESS":"德善路２５１巷１之６號","OBJECTID":303003},"geometry":{"x":173876.04999999981,"y":2538720.7600000016}},{"attributes":{"ID":303012,"DIS_CODE":0,"TOWNNAME":"仁德區","LI":"後壁里","LIN":"4鄰","STREET":"德善一街","SECT":" ","MAREA":" ","LANE":"５巷","ALLEY":" ","HOUSE_NO":"２４號","E_COORD97":173324.45999999999,"N_COORD97":2538992.52,"ADDRESS":"德善一街５巷２４號","OBJECTID":303004},"geometry":{"x":173324.45999999903,"y":2538992.5200000033}},{"attributes":{"ID":303013,"DIS_CODE":0,"TOWNNAME":"仁德區","LI":"後壁里","LIN":"25鄰","STREET":"德洋一街","SECT":" ","MAREA":" ","LANE":"６巷","ALLEY":" ","HOUSE_NO":"１７號","E_COORD97":173104.54999999999,"N_COORD97":2539063.52,"ADDRESS":"德洋一街６巷１７號","OBJECTID":303005},"geometry":{"x":173104.54999999981,"y":2539063.5200000033}},{"attributes":{"ID":303014,"DIS_CODE":0,"TOWNNAME":"仁德區","LI":"後壁里","LIN":"39鄰","STREET":"德糖路","SECT":" ","MAREA":" ","LANE":"４０７巷","ALLEY":" ","HOUSE_NO":"４０號","E_COORD97":173429.87,"N_COORD97":2539027.2599999998,"ADDRESS":"德糖路４０７巷４０號","OBJECTID":303006},"geometry":{"x":173429.87000000011,"y":2539027.2599999998}},{"attributes":{"ID":303015,"DIS_CODE":0,"TOWNNAME":"仁德區","LI":"後壁里","LIN":"4鄰","STREET":"德善一街","SECT":" ","MAREA":" ","LANE":"２７巷","ALLEY":" ","HOUSE_NO":"２０號","E_COORD97":173396.92999999999,"N_COORD97":2539004.5099999998,"ADDRESS":"德善一街２７巷２０號","OBJECTID":303007},"geometry":{"x":173396.9299999997,"y":2539004.5099999998}},{"attributes":{"ID":303016,"DIS_CODE":0,"TOWNNAME":"仁德區","LI":"後壁里","LIN":"39鄰","STREET":"德糖路","SECT":" ","MAREA":" ","LANE":"４０７巷","ALLEY":" ","HOUSE_NO":"４６號","E_COORD97":173435.62,"N_COORD97":2539021.2599999998,"ADDRESS":"德糖路４０７巷４６號","OBJECTID":303008},"geometry":{"x":173435.62000000197,"y":2539021.2599999979}},{"attributes":{"ID":303017,"DIS_CODE":0,"TOWNNAME":"仁德區","LI":"後壁里","LIN":"4鄰","STREET":"德善一街","SECT":" ","MAREA":" ","LANE":"５巷","ALLEY":" ","HOUSE_NO":"７號","E_COORD97":173350.13,"N_COORD97":2538938.2599999998,"ADDRESS":"德善一街５巷７號","OBJECTID":303009},"geometry":{"x":173350.12999999989,"y":2538938.2600000016}},{"attributes":{"ID":303018,"DIS_CODE":0,"TOWNNAME":"仁德區","LI":"後壁里","LIN":"14鄰","STREET":"德善路","SECT":" ","MAREA":" ","LANE":"１９８巷","ALLEY":" ","HOUSE_NO":"２之１０號","E_COORD97":173683.10999999999,"N_COORD97":2538723.25,"ADDRESS":"德善路１９８巷２之１０號","OBJECTID":303010},"geometry":{"x":173683.11000000034,"y":2538723.2499999981}},{"attributes":{"ID":303019,"DIS_CODE":0,"TOWNNAME":"仁德區","LI":"後壁里","LIN":"4鄰","STREET":"德善一街","SECT":" ","MAREA":" ","LANE":"５巷","ALLEY":" ","HOUSE_NO":"２號","E_COORD97":173369.26000000001,"N_COORD97":2538943.2599999998,"ADDRESS":"德善一街５巷２號","OBJECTID":303011},"geometry":{"x":173369.25999999978,"y":2538943.2599999979}},{"attributes":{"ID":303020,"DIS_CODE":0,"TOWNNAME":"仁德區","LI":"後壁里","LIN":"5鄰","STREET":"德善路","SECT":" ","MAREA":" ","LANE":"１３９巷","ALLEY":" ","HOUSE_NO":"４號","E_COORD97":173485.44,"N_COORD97":2538883.02,"ADDRESS":"德善路１３９巷４號","OBJECTID":303012},"geometry":{"x":173485.44000000041,"y":2538883.0199999996}},{"attributes":{"ID":303021,"DIS_CODE":0,"TOWNNAME":"仁德區","LI":"新田里","LIN":"18鄰","STREET":"民安路","SECT":"二段","MAREA":" ","LANE":"２１３巷","ALLEY":" ","HOUSE_NO":"３號","E_COORD97":173794.35999999999,"N_COORD97":2539000.5600000001,"ADDRESS":"民安路二段２１３巷３號","OBJECTID":303013},"geometry":{"x":173794.36000000034,"y":2539000.5600000024}},{"attributes":{"ID":303022,"DIS_CODE":0,"TOWNNAME":"南區","LI":"新昌里","LIN":"14鄰","STREET":"府緯街","SECT":" ","MAREA":" ","LANE":" ","ALLEY":" ","HOUSE_NO":"１３０號","E_COORD97":167554.97,"N_COORD97":2542736.3700000001,"ADDRESS":"府緯街１３０號","OBJECTID":303014},"geometry":{"x":167554.96999999974,"y":2542736.370000001}},{"attributes":{"ID":303023,"DIS_CODE":0,"TOWNNAME":"南區","LI":"新昌里","LIN":"14鄰","STREET":"府緯街","SECT":" ","MAREA":" ","LANE":" ","ALLEY":" ","HOUSE_NO":"１３２號之１","E_COORD97":167547.5,"N_COORD97":2542734.75,"ADDRESS":"府緯街１３２號之１","OBJECTID":303015},"geometry":{"x":167547.50000000093,"y":2542734.7500000019}},{"attributes":{"ID":303024,"DIS_CODE":0,"TOWNNAME":"南區","LI":"新興里","LIN":"14鄰","STREET":"夏林路","SECT":" ","MAREA":" ","LANE":" ","ALLEY":" ","HOUSE_NO":"２２０號之２","E_COORD97":167449.73000000001,"N_COORD97":2542233.3399999999,"ADDRESS":"夏林路２２０號之２","OBJECTID":303016},"geometry":{"x":167449.73000000138,"y":2542233.3400000017}},{"attributes":{"ID":303025,"DIS_CODE":0,"TOWNNAME":"安平區","LI":"華平里","LIN":"14鄰","STREET":"永華路","SECT":"二段","MAREA":" ","LANE":" ","ALLEY":" ","HOUSE_NO":"６９８號","E_COORD97":165182.73000000001,"N_COORD97":2543537.3100000001,"ADDRESS":"永華路二段６９８號","OBJECTID":303017},"geometry":{"x":165182.73000000045,"y":2543537.3100000005}},{"attributes":{"ID":303026,"DIS_CODE":0,"TOWNNAME":"安平區","LI":"華平里","LIN":"14鄰","STREET":"永華路","SECT":"二段","MAREA":" ","LANE":" ","ALLEY":" ","HOUSE_NO":"７０２號","E_COORD97":165177.72,"N_COORD97":2543538,"ADDRESS":"永華路二段７０２號","OBJECTID":303018},"geometry":{"x":165177.72000000067,"y":2543538}},{"attributes":{"ID":303027,"DIS_CODE":0,"TOWNNAME":"歸仁區","LI":"看東里","LIN":"14鄰","STREET":"中山路","SECT":"一段","MAREA":" ","LANE":" ","ALLEY":" ","HOUSE_NO":"２７７號","E_COORD97":178582.94,"N_COORD97":2540619.6499999999,"ADDRESS":"中山路一段２７７號","OBJECTID":303019},"geometry":{"x":178582.94000000041,"y":2540619.6500000041}},{"attributes":{"ID":303028,"DIS_CODE":0,"TOWNNAME":"歸仁區","LI":"八甲里","LIN":"14鄰","STREET":"大仁七街","SECT":" ","MAREA":" ","LANE":" ","ALLEY":" ","HOUSE_NO":"４２號","E_COORD97":178191.92000000001,"N_COORD97":2541646.6099999999,"ADDRESS":"大仁七街４２號","OBJECTID":303020},"geometry":{"x":178191.92000000086,"y":2541646.6100000013}},{"attributes":{"ID":303029,"DIS_CODE":0,"TOWNNAME":"北區","LI":"文元里","LIN":"14鄰","STREET":"文賢路","SECT":" ","MAREA":" ","LANE":" ","ALLEY":" ","HOUSE_NO":"１０５６號","E_COORD97":167370.09,"N_COORD97":2546131.3399999999,"ADDRESS":"文賢路１０５６號","OBJECTID":303021},"geometry":{"x":167370.09000000171,"y":2546131.3400000017}},{"attributes":{"ID":303030,"DIS_CODE":0,"TOWNNAME":"楠西區","LI":"東勢里","LIN":"14鄰","STREET":"仁愛路","SECT":" ","MAREA":" ","LANE":" ","ALLEY":" ","HOUSE_NO":"３３號","E_COORD97":197545.64000000001,"N_COORD97":2563823.2799999998,"ADDRESS":"仁愛路３３號","OBJECTID":303022},"geometry":{"x":197545.64000000153,"y":2563823.2799999993}},{"attributes":{"ID":303031,"DIS_CODE":0,"TOWNNAME":"歸仁區","LI":"大廟里","LIN":"14鄰","STREET":"大廟六街","SECT":" ","MAREA":" ","LANE":" ","ALLEY":" ","HOUSE_NO":"１１４號","E_COORD97":176186.72,"N_COORD97":2544274.25,"ADDRESS":"大廟六街１１４號","OBJECTID":303023},"geometry":{"x":176186.71999999974,"y":2544274.2500000019}},{"attributes":{"ID":303032,"DIS_CODE":0,"TOWNNAME":"歸仁區","LI":"八甲里","LIN":"14鄰","STREET":"大仁七街","SECT":" ","MAREA":" ","LANE":" ","ALLEY":" ","HOUSE_NO":"２２號","E_COORD97":178137.62,"N_COORD97":2541657.6099999999,"ADDRESS":"大仁七街２２號","OBJECTID":303024},"geometry":{"x":178137.62000000011,"y":2541657.6100000013}},{"attributes":{"ID":303033,"DIS_CODE":0,"TOWNNAME":"歸仁區","LI":"八甲里","LIN":"14鄰","STREET":"大仁七街","SECT":" ","MAREA":" ","LANE":" ","ALLEY":" ","HOUSE_NO":"２４號","E_COORD97":178143.82000000001,"N_COORD97":2541656.6099999999,"ADDRESS":"大仁七街２４號","OBJECTID":303025},"geometry":{"x":178143.82000000123,"y":2541656.6100000031}},{"attributes":{"ID":303034,"DIS_CODE":0,"TOWNNAME":"新營區","LI":"中營里","LIN":" ","STREET":"三民路","SECT":" ","MAREA":" ","LANE":" ","ALLEY":" ","HOUSE_NO":"２號","E_COORD97":180671.23999999999,"N_COORD97":2578475.4199999999,"ADDRESS":"三民路２號","OBJECTID":303026},"geometry":{"x":180671.24000000022,"y":2578475.4200000018}},{"attributes":{"ID":303035,"DIS_CODE":0,"TOWNNAME":"仁德區","LI":"後壁里","LIN":"39鄰","STREET":"德糖路","SECT":" ","MAREA":" ","LANE":"４０７巷","ALLEY":" ","HOUSE_NO":"３２號","E_COORD97":173422.34,"N_COORD97":2539036.7599999998,"ADDRESS":"德糖路４０７巷３２號","OBJECTID":303027},"geometry":{"x":173422.34000000078,"y":2539036.7599999998}},{"attributes":{"ID":303036,"DIS_CODE":0,"TOWNNAME":"仁德區","LI":"後壁里","LIN":"32鄰","STREET":"德洋路","SECT":" ","MAREA":" ","LANE":"２０５巷","ALLEY":" ","HOUSE_NO":"１４號","E_COORD97":172459.89999999999,"N_COORD97":2539516.0099999998,"ADDRESS":"德洋路２０５巷１４號","OBJECTID":303028},"geometry":{"x":172459.9000000013,"y":2539516.0100000016}},{"attributes":{"ID":303037,"DIS_CODE":0,"TOWNNAME":"仁德區","LI":"保安里","LIN":"5鄰","STREET":"中正路","SECT":"一段","MAREA":" ","LANE":"１８２巷","ALLEY":" ","HOUSE_NO":"９號","E_COORD97":171587.62,"N_COORD97":2535726.77,"ADDRESS":"中正路一段１８２巷９號","OBJECTID":303029},"geometry":{"x":171587.61999999918,"y":2535726.7700000014}},{"attributes":{"ID":303038,"DIS_CODE":0,"TOWNNAME":"仁德區","LI":"成功里","LIN":"20鄰","STREET":"保生路","SECT":" ","MAREA":" ","LANE":"１２３巷","ALLEY":" ","HOUSE_NO":"１３號","E_COORD97":170615.37,"N_COORD97":2539773.2400000002,"ADDRESS":"保生路１２３巷１３號","OBJECTID":303030},"geometry":{"x":170615.37000000104,"y":2539773.2400000002}},{"attributes":{"ID":303039,"DIS_CODE":0,"TOWNNAME":"仁德區","LI":"成功里","LIN":"20鄰","STREET":"保生路","SECT":" ","MAREA":" ","LANE":"１２３巷","ALLEY":" ","HOUSE_NO":"１２號","E_COORD97":170603.53,"N_COORD97":2539771.9900000002,"ADDRESS":"保生路１２３巷１２號","OBJECTID":303031},"geometry":{"x":170603.53000000212,"y":2539771.9900000002}},{"attributes":{"ID":303040,"DIS_CODE":0,"TOWNNAME":"仁德區","LI":"後壁里","LIN":"25鄰","STREET":"德洋一街","SECT":" ","MAREA":" ","LANE":"６巷","ALLEY":" ","HOUSE_NO":"９號","E_COORD97":173086.95999999999,"N_COORD97":2539083.77,"ADDRESS":"德洋一街６巷９號","OBJECTID":303032},"geometry":{"x":173086.95999999996,"y":2539083.7700000014}},{"attributes":{"ID":303041,"DIS_CODE":0,"TOWNNAME":"仁德區","LI":"後壁里","LIN":"4鄰","STREET":"德善一街","SECT":" ","MAREA":" ","LANE":"５巷","ALLEY":" ","HOUSE_NO":"２３號","E_COORD97":173309.07000000001,"N_COORD97":2538986.77,"ADDRESS":"德善一街５巷２３號","OBJECTID":303033},"geometry":{"x":173309.07000000123,"y":2538986.7699999996}},{"attributes":{"ID":303042,"DIS_CODE":0,"TOWNNAME":"仁德區","LI":"太子里","LIN":"18鄰","STREET":"長興四街","SECT":" ","MAREA":" ","LANE":"４７巷","ALLEY":" ","HOUSE_NO":"２４號","E_COORD97":174095.67999999999,"N_COORD97":2543554.2599999998,"ADDRESS":"長興四街４７巷２４號","OBJECTID":303034},"geometry":{"x":174095.67999999877,"y":2543554.2600000035}},{"attributes":{"ID":303043,"DIS_CODE":0,"TOWNNAME":"佳里區","LI":"鎮山里","LIN":"8鄰","STREET":"信義一街","SECT":" ","MAREA":" ","LANE":"２７巷","ALLEY":" ","HOUSE_NO":"１０號","E_COORD97":166313.32000000001,"N_COORD97":2561616.9300000002,"ADDRESS":"信義一街２７巷１０號","OBJECTID":303035},"geometry":{"x":166313.32000000123,"y":2561616.9299999978}},{"attributes":{"ID":303044,"DIS_CODE":0,"TOWNNAME":"佳里區","LI":"鎮山里","LIN":"8鄰","STREET":"信義一街","SECT":" ","MAREA":" ","LANE":"２７巷","ALLEY":" ","HOUSE_NO":"２號","E_COORD97":166325.32999999999,"N_COORD97":2561618.23,"ADDRESS":"信義一街２７巷２號","OBJECTID":303036},"geometry":{"x":166325.33000000007,"y":2561618.2300000004}},{"attributes":{"ID":303045,"DIS_CODE":0,"TOWNNAME":"佳里區","LI":"鎮山里","LIN":"8鄰","STREET":"信義一街","SECT":" ","MAREA":" ","LANE":"２７巷","ALLEY":" ","HOUSE_NO":"６號","E_COORD97":166321.13,"N_COORD97":2561617.8900000001,"ADDRESS":"信義一街２７巷６號","OBJECTID":303037},"geometry":{"x":166321.13000000082,"y":2561617.8900000006}},{"attributes":{"ID":303046,"DIS_CODE":0,"TOWNNAME":"佳里區","LI":"鎮山里","LIN":"8鄰","STREET":"信義一街","SECT":" ","MAREA":" ","LANE":"２７巷","ALLEY":" ","HOUSE_NO":"８號","E_COORD97":166317.37,"N_COORD97":2561617.5600000001,"ADDRESS":"信義一街２７巷８號","OBJECTID":303038},"geometry":{"x":166317.37000000197,"y":2561617.5600000024}},{"attributes":{"ID":303047,"DIS_CODE":0,"TOWNNAME":"佳里區","LI":"忠仁里","LIN":"8鄰","STREET":"建中街","SECT":" ","MAREA":" ","LANE":"４１巷","ALLEY":" ","HOUSE_NO":"１號","E_COORD97":165927.51000000001,"N_COORD97":2562076.6099999999,"ADDRESS":"建中街４１巷１號","OBJECTID":303039},"geometry":{"x":165927.50999999978,"y":2562076.6100000031}},{"attributes":{"ID":303048,"DIS_CODE":0,"TOWNNAME":"佳里區","LI":"忠仁里","LIN":"8鄰","STREET":"建中街","SECT":" ","MAREA":" ","LANE":"４１巷","ALLEY":" ","HOUSE_NO":"２號","E_COORD97":165927.64999999999,"N_COORD97":2562072.0800000001,"ADDRESS":"建中街４１巷２號","OBJECTID":303040},"geometry":{"x":165927.65000000224,"y":2562072.0800000019}},{"attributes":{"ID":303049,"DIS_CODE":0,"TOWNNAME":"佳里區","LI":"忠仁里","LIN":"8鄰","STREET":"建中街","SECT":" ","MAREA":" ","LANE":"８巷","ALLEY":" ","HOUSE_NO":"１號","E_COORD97":166001.42999999999,"N_COORD97":2562128.6699999999,"ADDRESS":"建中街８巷１號","OBJECTID":303041},"geometry":{"x":166001.43000000063,"y":2562128.6700000018}},{"attributes":{"ID":303050,"DIS_CODE":0,"TOWNNAME":"楠西區","LI":"東勢里","LIN":"14鄰","STREET":"茄拔路","SECT":" ","MAREA":" ","LANE":" ","ALLEY":" ","HOUSE_NO":"１６７號","E_COORD97":197402.32000000001,"N_COORD97":2563789.2000000002,"ADDRESS":"茄拔路１６７號","OBJECTID":303042},"geometry":{"x":197402.3200000003,"y":2563789.2000000011}},{"attributes":{"ID":303051,"DIS_CODE":0,"TOWNNAME":"安平區","LI":"建平里","LIN":"14鄰","STREET":"永華三街","SECT":" ","MAREA":" ","LANE":" ","ALLEY":" ","HOUSE_NO":"２５９號","E_COORD97":166130.20000000001,"N_COORD97":2543981.1099999999,"ADDRESS":"永華三街２５９號","OBJECTID":303043},"geometry":{"x":166130.20000000019,"y":2543981.1099999994}},{"attributes":{"ID":303052,"DIS_CODE":0,"TOWNNAME":"安平區","LI":"建平里","LIN":"14鄰","STREET":"永華三街","SECT":" ","MAREA":" ","LANE":" ","ALLEY":" ","HOUSE_NO":"２６０號","E_COORD97":166156.78,"N_COORD97":2543982.5099999998,"ADDRESS":"永華三街２６０號","OBJECTID":303044},"geometry":{"x":166156.78000000026,"y":2543982.5099999998}},{"attributes":{"ID":303053,"DIS_CODE":0,"TOWNNAME":"安平區","LI":"建平里","LIN":"14鄰","STREET":"永華三街","SECT":" ","MAREA":" ","LANE":" ","ALLEY":" ","HOUSE_NO":"２６１號","E_COORD97":166130.51000000001,"N_COORD97":2543985.9399999999,"ADDRESS":"永華三街２６１號","OBJECTID":303045},"geometry":{"x":166130.50999999978,"y":2543985.9399999995}},{"attributes":{"ID":303054,"DIS_CODE":0,"TOWNNAME":"安平區","LI":"建平里","LIN":"14鄰","STREET":"永華三街","SECT":" ","MAREA":" ","LANE":" ","ALLEY":" ","HOUSE_NO":"２６２號","E_COORD97":166157.62,"N_COORD97":2543986.9199999999,"ADDRESS":"永華三街２６２號","OBJECTID":303046},"geometry":{"x":166157.62000000011,"y":2543986.9199999999}},{"attributes":{"ID":303055,"DIS_CODE":0,"TOWNNAME":"安平區","LI":"建平里","LIN":"14鄰","STREET":"永華三街","SECT":" ","MAREA":" ","LANE":" ","ALLEY":" ","HOUSE_NO":"２６３號","E_COORD97":166130.82999999999,"N_COORD97":2543990.4199999999,"ADDRESS":"永華三街２６３號","OBJECTID":303047},"geometry":{"x":166130.83000000007,"y":2543990.4199999999}},{"attributes":{"ID":303056,"DIS_CODE":0,"TOWNNAME":"安平區","LI":"建平里","LIN":"14鄰","STREET":"永華三街","SECT":" ","MAREA":" ","LANE":" ","ALLEY":" ","HOUSE_NO":"２６４號","E_COORD97":166157.73999999999,"N_COORD97":2543991.1000000001,"ADDRESS":"永華三街２６４號","OBJECTID":303048},"geometry":{"x":166157.74000000115,"y":2543991.0999999996}},{"attributes":{"ID":303057,"DIS_CODE":0,"TOWNNAME":"安平區","LI":"建平里","LIN":"14鄰","STREET":"永華三街","SECT":" ","MAREA":" ","LANE":" ","ALLEY":" ","HOUSE_NO":"２６５號","E_COORD97":166131.04000000001,"N_COORD97":2543994.6200000001,"ADDRESS":"永華三街２６５號","OBJECTID":303049},"geometry":{"x":166131.04000000004,"y":2543994.6200000029}},{"attributes":{"ID":303058,"DIS_CODE":0,"TOWNNAME":"安平區","LI":"建平里","LIN":"14鄰","STREET":"永華三街","SECT":" ","MAREA":" ","LANE":" ","ALLEY":" ","HOUSE_NO":"２７０號","E_COORD97":166157.98000000001,"N_COORD97":2544004.71,"ADDRESS":"永華三街２７０號","OBJECTID":303050},"geometry":{"x":166157.98000000138,"y":2544004.7100000028}},{"attributes":{"ID":303059,"DIS_CODE":0,"TOWNNAME":"仁德區","LI":"後壁里","LIN":"4鄰","STREET":"德善一街","SECT":" ","MAREA":" ","LANE":"５巷","ALLEY":" ","HOUSE_NO":"２２號","E_COORD97":173326.57000000001,"N_COORD97":2538986.52,"ADDRESS":"德善一街５巷２２號","OBJECTID":303051},"geometry":{"x":173326.57000000123,"y":2538986.5200000014}},{"attributes":{"ID":303060,"DIS_CODE":0,"TOWNNAME":"仁德區","LI":"後壁里","LIN":"4鄰","STREET":"德善一街","SECT":" ","MAREA":" ","LANE":"２７巷","ALLEY":" ","HOUSE_NO":"１４號","E_COORD97":173405.23999999999,"N_COORD97":2538995.77,"ADDRESS":"德善一街２７巷１４號","OBJECTID":303052},"geometry":{"x":173405.24000000022,"y":2538995.7699999996}},{"attributes":{"ID":303061,"DIS_CODE":0,"TOWNNAME":"仁德區","LI":"新田里","LIN":"5鄰","STREET":"勝利二街","SECT":" ","MAREA":" ","LANE":"３９巷","ALLEY":" ","HOUSE_NO":"２號","E_COORD97":174857.01000000001,"N_COORD97":2539284.0099999998,"ADDRESS":"勝利二街３９巷２號","OBJECTID":303053},"geometry":{"x":174857.01000000071,"y":2539284.0099999979}},{"attributes":{"ID":303062,"DIS_CODE":0,"TOWNNAME":"仁德區","LI":"後壁里","LIN":"25鄰","STREET":"德洋一街","SECT":" ","MAREA":" ","LANE":"６巷","ALLEY":" ","HOUSE_NO":"２３號","E_COORD97":173114.70000000001,"N_COORD97":2539054.27,"ADDRESS":"德洋一街６巷２３號","OBJECTID":303054},"geometry":{"x":173114.70000000205,"y":2539054.2699999996}},{"attributes":{"ID":303063,"DIS_CODE":0,"TOWNNAME":"仁德區","LI":"後壁里","LIN":"32鄰","STREET":"德洋路","SECT":" ","MAREA":" ","LANE":"２０５巷","ALLEY":" ","HOUSE_NO":"２６號","E_COORD97":172436.17999999999,"N_COORD97":2539526.2599999998,"ADDRESS":"德洋路２０５巷２６號","OBJECTID":303055},"geometry":{"x":172436.18000000156,"y":2539526.2599999998}},{"attributes":{"ID":303064,"DIS_CODE":0,"TOWNNAME":"仁德區","LI":"後壁里","LIN":"42鄰","STREET":"德崙路","SECT":" ","MAREA":" ","LANE":"１４巷","ALLEY":" ","HOUSE_NO":"４號","E_COORD97":173236.29000000001,"N_COORD97":2538584.7599999998,"ADDRESS":"德崙路１４巷４號","OBJECTID":303056},"geometry":{"x":173236.29000000097,"y":2538584.7600000016}},{"attributes":{"ID":303065,"DIS_CODE":0,"TOWNNAME":"佳里區","LI":"忠仁里","LIN":"8鄰","STREET":"建中街","SECT":" ","MAREA":" ","LANE":"８巷","ALLEY":" ","HOUSE_NO":"３號","E_COORD97":166001.04999999999,"N_COORD97":2562132.6800000002,"ADDRESS":"建中街８巷３號","OBJECTID":303057},"geometry":{"x":166001.05000000075,"y":2562132.6799999997}},{"attributes":{"ID":303066,"DIS_CODE":0,"TOWNNAME":"佳里區","LI":"忠仁里","LIN":"8鄰","STREET":"建中街","SECT":" ","MAREA":" ","LANE":"８巷","ALLEY":" ","HOUSE_NO":"５號","E_COORD97":166000.41,"N_COORD97":2562137.2000000002,"ADDRESS":"建中街８巷５號","OBJECTID":303058},"geometry":{"x":166000.41000000108,"y":2562137.2000000011}},{"attributes":{"ID":303067,"DIS_CODE":0,"TOWNNAME":"佳里區","LI":"忠仁里","LIN":"8鄰","STREET":"建中街","SECT":" ","MAREA":" ","LANE":"８巷","ALLEY":" ","HOUSE_NO":"７號","E_COORD97":166000.23000000001,"N_COORD97":2562141.4100000001,"ADDRESS":"建中街８巷７號","OBJECTID":303059},"geometry":{"x":166000.23000000138,"y":2562141.410000002}},{"attributes":{"ID":303068,"DIS_CODE":0,"TOWNNAME":"永康區","LI":"西橋里","LIN":"8鄰","STREET":"中華西街","SECT":" ","MAREA":" ","LANE":"８５巷","ALLEY":" ","HOUSE_NO":"１３號","E_COORD97":170659.35000000001,"N_COORD97":2546053.2400000002,"ADDRESS":"中華西街８５巷１３號","OBJECTID":303060},"geometry":{"x":170659.34999999963,"y":2546053.2400000002}},{"attributes":{"ID":303069,"DIS_CODE":0,"TOWNNAME":"永康區","LI":"安康里","LIN":"8鄰","STREET":"中山南路","SECT":" ","MAREA":" ","LANE":"１１９巷","ALLEY":" ","HOUSE_NO":"３號","E_COORD97":170958.39999999999,"N_COORD97":2545963.2400000002,"ADDRESS":"中山南路１１９巷３號","OBJECTID":303061},"geometry":{"x":170958.40000000037,"y":2545963.2400000021}},{"attributes":{"ID":303070,"DIS_CODE":0,"TOWNNAME":"永康區","LI":"安康里","LIN":"8鄰","STREET":"中山南路","SECT":" ","MAREA":" ","LANE":"１１９巷","ALLEY":" ","HOUSE_NO":"１２號","E_COORD97":171042.28,"N_COORD97":2545993,"ADDRESS":"中山南路１１９巷１２號","OBJECTID":303062},"geometry":{"x":171042.28000000026,"y":2545993}},{"attributes":{"ID":303071,"DIS_CODE":0,"TOWNNAME":"安南區","LI":"州北里","LIN":"8鄰","STREET":"安和路","SECT":"五段","MAREA":" ","LANE":"８１巷","ALLEY":" ","HOUSE_NO":"１１０號","E_COORD97":169655.73999999999,"N_COORD97":2551567.3700000001,"ADDRESS":"安和路五段８１巷１１０號","OBJECTID":303063},"geometry":{"x":169655.74000000022,"y":2551567.3700000029}},{"attributes":{"ID":303072,"DIS_CODE":0,"TOWNNAME":"安南區","LI":"安東里","LIN":"8鄰","STREET":"安和路","SECT":"一段","MAREA":" ","LANE":"２５８巷","ALLEY":" ","HOUSE_NO":"１１號","E_COORD97":169333.54999999999,"N_COORD97":2548036.2799999998,"ADDRESS":"安和路一段２５８巷１１號","OBJECTID":303064},"geometry":{"x":169333.55000000075,"y":2548036.2800000012}},{"attributes":{"ID":303073,"DIS_CODE":0,"TOWNNAME":"安南區","LI":"安東里","LIN":"8鄰","STREET":"安和路","SECT":"一段","MAREA":" ","LANE":"２５８巷","ALLEY":" ","HOUSE_NO":"１７號","E_COORD97":169356.14000000001,"N_COORD97":2548035.8300000001,"ADDRESS":"安和路一段２５８巷１７號","OBJECTID":303065},"geometry":{"x":169356.13999999873,"y":2548035.8300000001}},{"attributes":{"ID":303074,"DIS_CODE":0,"TOWNNAME":"安南區","LI":"安東里","LIN":"8鄰","STREET":"安和路","SECT":"一段","MAREA":" ","LANE":"２５８巷","ALLEY":" ","HOUSE_NO":"１號","E_COORD97":169324.14999999999,"N_COORD97":2548014.0099999998,"ADDRESS":"安和路一段２５８巷１號","OBJECTID":303066},"geometry":{"x":169324.15000000037,"y":2548014.0099999998}},{"attributes":{"ID":303075,"DIS_CODE":0,"TOWNNAME":"安南區","LI":"安東里","LIN":"8鄰","STREET":"安和路","SECT":"一段","MAREA":" ","LANE":"２５８巷","ALLEY":" ","HOUSE_NO":"３號","E_COORD97":169329.31,"N_COORD97":2548015.2200000002,"ADDRESS":"安和路一段２５８巷３號","OBJECTID":303067},"geometry":{"x":169329.30999999959,"y":2548015.2200000025}},{"attributes":{"ID":303076,"DIS_CODE":0,"TOWNNAME":"安南區","LI":"安東里","LIN":"8鄰","STREET":"安和路","SECT":"一段","MAREA":" ","LANE":"２５８巷","ALLEY":" ","HOUSE_NO":"５號","E_COORD97":169335.82999999999,"N_COORD97":2548024.1600000001,"ADDRESS":"安和路一段２５８巷５號","OBJECTID":303068},"geometry":{"x":169335.83000000101,"y":2548024.1600000039}},{"attributes":{"ID":303077,"DIS_CODE":0,"TOWNNAME":"安南區","LI":"安東里","LIN":"8鄰","STREET":"安和路","SECT":"一段","MAREA":" ","LANE":"２５８巷","ALLEY":" ","HOUSE_NO":"９號","E_COORD97":169335.53,"N_COORD97":2548032.4900000002,"ADDRESS":"安和路一段２５８巷９號","OBJECTID":303069},"geometry":{"x":169335.53000000212,"y":2548032.4900000021}},{"attributes":{"ID":303078,"DIS_CODE":0,"TOWNNAME":"安平區","LI":"建平里","LIN":"14鄰","STREET":"永華三街","SECT":" ","MAREA":" ","LANE":" ","ALLEY":" ","HOUSE_NO":"２７１號","E_COORD97":166132.72,"N_COORD97":2544008.1699999999,"ADDRESS":"永華三街２７１號","OBJECTID":303070},"geometry":{"x":166132.71999999974,"y":2544008.1699999999}},{"attributes":{"ID":303079,"DIS_CODE":0,"TOWNNAME":"安平區","LI":"建平里","LIN":"14鄰","STREET":"永華三街","SECT":" ","MAREA":" ","LANE":" ","ALLEY":" ","HOUSE_NO":"２７２號","E_COORD97":166158.45999999999,"N_COORD97":2544009.3599999999,"ADDRESS":"永華三街２７２號","OBJECTID":303071},"geometry":{"x":166158.45999999996,"y":2544009.3599999994}},{"attributes":{"ID":303080,"DIS_CODE":0,"TOWNNAME":"安平區","LI":"建平里","LIN":"14鄰","STREET":"永華三街","SECT":" ","MAREA":" ","LANE":" ","ALLEY":" ","HOUSE_NO":"２７３號","E_COORD97":166132.92999999999,"N_COORD97":2544012.6899999999,"ADDRESS":"永華三街２７３號","OBJECTID":303072},"geometry":{"x":166132.9299999997,"y":2544012.6900000013}},{"attributes":{"ID":303081,"DIS_CODE":0,"TOWNNAME":"安平區","LI":"怡平里","LIN":"14鄰","STREET":"永華六街","SECT":" ","MAREA":" ","LANE":" ","ALLEY":" ","HOUSE_NO":"２３５號","E_COORD97":165637.17000000001,"N_COORD97":2544011.4700000002,"ADDRESS":"永華六街２３５號","OBJECTID":303073},"geometry":{"x":165637.17000000179,"y":2544011.4700000044}},{"attributes":{"ID":303082,"DIS_CODE":0,"TOWNNAME":"安平區","LI":"怡平里","LIN":"14鄰","STREET":"建平十一街","SECT":" ","MAREA":" ","LANE":" ","ALLEY":" ","HOUSE_NO":"２９０號","E_COORD97":165641.48999999999,"N_COORD97":2543996.27,"ADDRESS":"建平十一街２９０號","OBJECTID":303074},"geometry":{"x":165641.49000000022,"y":2543996.2700000014}},{"attributes":{"ID":303083,"DIS_CODE":0,"TOWNNAME":"歸仁區","LI":"崙頂里","LIN":"14鄰","STREET":"崙頂五街","SECT":" ","MAREA":" ","LANE":" ","ALLEY":" ","HOUSE_NO":"７號","E_COORD97":177895.78,"N_COORD97":2539826.25,"ADDRESS":"崙頂五街７號","OBJECTID":303075},"geometry":{"x":177895.78000000026,"y":2539826.2500000019}},{"attributes":{"ID":303084,"DIS_CODE":0,"TOWNNAME":"歸仁區","LI":"新厝里","LIN":"3鄰","STREET":"中正一街","SECT":" ","MAREA":" ","LANE":" ","ALLEY":" ","HOUSE_NO":"７２之１號","E_COORD97":177785.58069800001,"N_COORD97":2540685.0933599998,"ADDRESS":"中正一街７２之１號","OBJECTID":303076},"geometry":{"x":177785.58069800027,"y":2540685.0933609977}},{"attributes":{"ID":303085,"DIS_CODE":0,"TOWNNAME":"仁德區","LI":"後壁里","LIN":"25鄰","STREET":"德洋一街","SECT":" ","MAREA":" ","LANE":"６巷","ALLEY":" ","HOUSE_NO":"２１號","E_COORD97":173111.73000000001,"N_COORD97":2539057.27,"ADDRESS":"德洋一街６巷２１號","OBJECTID":303077},"geometry":{"x":173111.73000000138,"y":2539057.2699999996}},{"attributes":{"ID":303086,"DIS_CODE":0,"TOWNNAME":"仁德區","LI":"成功里","LIN":"20鄰","STREET":"保生路","SECT":" ","MAREA":" ","LANE":"１２３巷","ALLEY":" ","HOUSE_NO":"１７號","E_COORD97":170612.09,"N_COORD97":2539765.2400000002,"ADDRESS":"保生路１２３巷１７號","OBJECTID":303078},"geometry":{"x":170612.08999999985,"y":2539765.2400000021}},{"attributes":{"ID":303087,"DIS_CODE":0,"TOWNNAME":"仁德區","LI":"後壁里","LIN":"41鄰","STREET":"德善路","SECT":" ","MAREA":" ","LANE":"２７３巷","ALLEY":" ","HOUSE_NO":"１１號","E_COORD97":173950.64999999999,"N_COORD97":2538717.7599999998,"ADDRESS":"德善路２７３巷１１號","OBJECTID":303079},"geometry":{"x":173950.65000000037,"y":2538717.7600000016}},{"attributes":{"ID":303088,"DIS_CODE":0,"TOWNNAME":"仁德區","LI":"後壁里","LIN":"40鄰","STREET":"德善二街","SECT":" ","MAREA":" ","LANE":"１７巷","ALLEY":" ","HOUSE_NO":"２８號","E_COORD97":173509.39999999999,"N_COORD97":2538962.52,"ADDRESS":"德善二街１７巷２８號","OBJECTID":303080},"geometry":{"x":173509.40000000037,"y":2538962.5200000014}},{"attributes":{"ID":303089,"DIS_CODE":0,"TOWNNAME":"仁德區","LI":"後壁里","LIN":"25鄰","STREET":"德洋一街","SECT":" ","MAREA":" ","LANE":"６巷","ALLEY":" ","HOUSE_NO":"３號","E_COORD97":173086.92999999999,"N_COORD97":2539094.77,"ADDRESS":"德洋一街６巷３號","OBJECTID":303081},"geometry":{"x":173086.9299999997,"y":2539094.7699999996}},{"attributes":{"ID":303090,"DIS_CODE":0,"TOWNNAME":"仁德區","LI":"後壁里","LIN":"39鄰","STREET":"德糖路","SECT":" ","MAREA":" ","LANE":"４０７巷","ALLEY":" ","HOUSE_NO":"７號","E_COORD97":173421.95999999999,"N_COORD97":2539063.52,"ADDRESS":"德糖路４０７巷７號","OBJECTID":303082},"geometry":{"x":173421.96000000089,"y":2539063.5200000033}},{"attributes":{"ID":303091,"DIS_CODE":0,"TOWNNAME":"安南區","LI":"安東里","LIN":"8鄰","STREET":"安和路","SECT":"一段","MAREA":" ","LANE":"２８８巷","ALLEY":" ","HOUSE_NO":"１４號","E_COORD97":169353.41,"N_COORD97":2548053.1000000001,"ADDRESS":"安和路一段２８８巷１４號","OBJECTID":303083},"geometry":{"x":169353.41000000108,"y":2548053.0999999996}},{"attributes":{"ID":303092,"DIS_CODE":0,"TOWNNAME":"安南區","LI":"安東里","LIN":"8鄰","STREET":"安和路","SECT":"一段","MAREA":" ","LANE":"２８８巷","ALLEY":" ","HOUSE_NO":"１６號","E_COORD97":169356.75,"N_COORD97":2548055.2200000002,"ADDRESS":"安和路一段２８８巷１６號","OBJECTID":303084},"geometry":{"x":169356.75,"y":2548055.2200000025}},{"attributes":{"ID":303093,"DIS_CODE":0,"TOWNNAME":"安南區","LI":"安東里","LIN":"8鄰","STREET":"安和路","SECT":"一段","MAREA":" ","LANE":"２８８巷","ALLEY":" ","HOUSE_NO":"６號","E_COORD97":169330.51999999999,"N_COORD97":2548046.4300000002,"ADDRESS":"安和路一段２８８巷６號","OBJECTID":303085},"geometry":{"x":169330.52000000048,"y":2548046.4300000016}},{"attributes":{"ID":303094,"DIS_CODE":0,"TOWNNAME":"安南區","LI":"安西里","LIN":"8鄰","STREET":"安和路","SECT":"一段","MAREA":" ","LANE":"２８５巷","ALLEY":" ","HOUSE_NO":"１４號","E_COORD97":169234.26000000001,"N_COORD97":2548106.6200000001,"ADDRESS":"安和路一段２８５巷１４號","OBJECTID":303086},"geometry":{"x":169234.26000000071,"y":2548106.6200000048}},{"attributes":{"ID":303095,"DIS_CODE":0,"TOWNNAME":"佳里區","LI":"安西里","LIN":"55鄰","STREET":"佳安東路","SECT":" ","MAREA":" ","LANE":" ","ALLEY":" ","HOUSE_NO":"１０號九樓之１","E_COORD97":163826.04000000001,"N_COORD97":2562358.8599999999,"ADDRESS":"佳安東路１０號九樓之１","OBJECTID":303087},"geometry":{"x":163826.0400000019,"y":2562358.8599999994}},{"attributes":{"ID":303096,"DIS_CODE":0,"TOWNNAME":"安南區","LI":"安西里","LIN":"8鄰","STREET":"安和路","SECT":"一段","MAREA":" ","LANE":"２８５巷","ALLEY":" ","HOUSE_NO":"１６號","E_COORD97":169228.78964100001,"N_COORD97":2548085.1333300001,"ADDRESS":"安和路一段２８５巷１６號","OBJECTID":303088},"geometry":{"x":169228.78964100033,"y":2548085.1333329994}},{"attributes":{"ID":303097,"DIS_CODE":0,"TOWNNAME":"安南區","LI":"安西里","LIN":"8鄰","STREET":"安和路","SECT":"一段","MAREA":" ","LANE":"２８５巷","ALLEY":" ","HOUSE_NO":"２２號","E_COORD97":169213.95137200001,"N_COORD97":2548085.1333300001,"ADDRESS":"安和路一段２８５巷２２號","OBJECTID":303089},"geometry":{"x":169213.95137200225,"y":2548085.1333329994}},{"attributes":{"ID":303098,"DIS_CODE":0,"TOWNNAME":"安南區","LI":"安西里","LIN":"8鄰","STREET":"安和路","SECT":"一段","MAREA":" ","LANE":"３２１巷","ALLEY":" ","HOUSE_NO":"１７號","E_COORD97":169203.94,"N_COORD97":2548130.25,"ADDRESS":"安和路一段３２１巷１７號","OBJECTID":303090},"geometry":{"x":169203.94000000041,"y":2548130.25}},{"attributes":{"ID":303099,"DIS_CODE":0,"TOWNNAME":"安南區","LI":"安西里","LIN":"8鄰","STREET":"安和路","SECT":"一段","MAREA":" ","LANE":"３２１巷","ALLEY":" ","HOUSE_NO":"１９號","E_COORD97":169198.85999999999,"N_COORD97":2548145.8799999999,"ADDRESS":"安和路一段３２１巷１９號","OBJECTID":303091},"geometry":{"x":169198.86000000034,"y":2548145.879999999}},{"attributes":{"ID":303100,"DIS_CODE":0,"TOWNNAME":"歸仁區","LI":"西埔里","LIN":"14鄰","STREET":"西埔二街","SECT":" ","MAREA":" ","LANE":" ","ALLEY":" ","HOUSE_NO":"７９號","E_COORD97":176747.44,"N_COORD97":2544728.25,"ADDRESS":"西埔二街７９號","OBJECTID":303092},"geometry":{"x":176747.44000000041,"y":2544728.2500000019}},{"attributes":{"ID":303101,"DIS_CODE":0,"TOWNNAME":"歸仁區","LI":"後市里","LIN":"14鄰","STREET":"大吉一街","SECT":" ","MAREA":" ","LANE":" ","ALLEY":" ","HOUSE_NO":"２號","E_COORD97":177189.85999999999,"N_COORD97":2540759.25,"ADDRESS":"大吉一街２號","OBJECTID":303093},"geometry":{"x":177189.86000000034,"y":2540759.2500000019}},{"attributes":{"ID":303102,"DIS_CODE":0,"TOWNNAME":"歸仁區","LI":"新厝里","LIN":"14鄰","STREET":"大成路","SECT":" ","MAREA":" ","LANE":" ","ALLEY":" ","HOUSE_NO":"６１號","E_COORD97":177635.78,"N_COORD97":2540403,"ADDRESS":"大成路６１號","OBJECTID":303094},"geometry":{"x":177635.78000000119,"y":2540403}},{"attributes":{"ID":303103,"DIS_CODE":0,"TOWNNAME":"六甲區","LI":"甲南里","LIN":"25鄰","STREET":"珊瑚路","SECT":" ","MAREA":" ","LANE":" ","ALLEY":" ","HOUSE_NO":"２號","E_COORD97":183646.20000000001,"N_COORD97":2569526.9300000002,"ADDRESS":"珊瑚路２號","OBJECTID":303095},"geometry":{"x":183646.20000000019,"y":2569526.9300000034}},{"attributes":{"ID":303104,"DIS_CODE":0,"TOWNNAME":"安平區","LI":"港仔里","LIN":"14鄰","STREET":"運河路","SECT":" ","MAREA":" ","LANE":" ","ALLEY":" ","HOUSE_NO":"２６號","E_COORD97":164078.29999999999,"N_COORD97":2544416.6200000001,"ADDRESS":"運河路２６號","OBJECTID":303096},"geometry":{"x":164078.30000000168,"y":2544416.620000001}},{"attributes":{"ID":303105,"DIS_CODE":0,"TOWNNAME":"安平區","LI":"港仔里","LIN":"14鄰","STREET":"運河路","SECT":" ","MAREA":" ","LANE":" ","ALLEY":" ","HOUSE_NO":"２７號","E_COORD97":164066.10000000001,"N_COORD97":2544417.02,"ADDRESS":"運河路２７號","OBJECTID":303097},"geometry":{"x":164066.10000000056,"y":2544417.0200000033}},{"attributes":{"ID":303106,"DIS_CODE":0,"TOWNNAME":"安平區","LI":"怡平里","LIN":"14鄰","STREET":"建平十一街","SECT":" ","MAREA":" ","LANE":" ","ALLEY":" ","HOUSE_NO":"３３２號","E_COORD97":165537.44,"N_COORD97":2544013.75,"ADDRESS":"建平十一街３３２號","OBJECTID":303098},"geometry":{"x":165537.44000000227,"y":2544013.7500000019}},{"attributes":{"ID":303107,"DIS_CODE":0,"TOWNNAME":"仁德區","LI":"仁義里","LIN":"55鄰","STREET":"中正路","SECT":"二段","MAREA":" ","LANE":" ","ALLEY":" ","HOUSE_NO":"１１７６號","E_COORD97":173285.79000000001,"N_COORD97":2541276.5299999998,"ADDRESS":"中正路二段１１７６號","OBJECTID":303099},"geometry":{"x":173285.79000000097,"y":2541276.5299999993}},{"attributes":{"ID":303108,"DIS_CODE":0,"TOWNNAME":"仁德區","LI":"仁義里","LIN":"55鄰","STREET":"中正路","SECT":"二段","MAREA":" ","LANE":" ","ALLEY":" ","HOUSE_NO":"１１６２號","E_COORD97":173290.82000000001,"N_COORD97":2541251.2799999998,"ADDRESS":"中正路二段１１６２號","OBJECTID":303100},"geometry":{"x":173290.82000000123,"y":2541251.2799999993}},{"attributes":{"ID":303109,"DIS_CODE":0,"TOWNNAME":"歸仁區","LI":"新厝里","LIN":"3鄰","STREET":"中正一街","SECT":" ","MAREA":" ","LANE":" ","ALLEY":" ","HOUSE_NO":"７２之２號","E_COORD97":177789.394333,"N_COORD97":2540685.0933599998,"ADDRESS":"中正一街７２之２號","OBJECTID":303101},"geometry":{"x":177789.39433300123,"y":2540685.0933609977}},{"attributes":{"ID":303110,"DIS_CODE":0,"TOWNNAME":"安南區","LI":"州南里","LIN":"27鄰","STREET":"長和路","SECT":"二段","MAREA":" ","LANE":" ","ALLEY":" ","HOUSE_NO":"７７號","E_COORD97":170321.289563,"N_COORD97":2551532.0874600001,"ADDRESS":"長和路二段７７號","OBJECTID":303102},"geometry":{"x":170321.28956300206,"y":2551532.0874629989}},{"attributes":{"ID":303111,"DIS_CODE":0,"TOWNNAME":"安南區","LI":"理想里","LIN":"4鄰","STREET":"海佃路","SECT":"二段","MAREA":" ","LANE":"３４２巷","ALLEY":" ","HOUSE_NO":"１３號","E_COORD97":166908.35999999999,"N_COORD97":2548589.9700000002,"ADDRESS":"海佃路二段３４２巷１３號","OBJECTID":303103},"geometry":{"x":166908.36000000127,"y":2548589.9700000025}},{"attributes":{"ID":303112,"DIS_CODE":0,"TOWNNAME":"安南區","LI":"理想里","LIN":"4鄰","STREET":"海佃路","SECT":"二段","MAREA":" ","LANE":"３４２巷","ALLEY":" ","HOUSE_NO":"１９號","E_COORD97":166919.06,"N_COORD97":2548580.8300000001,"ADDRESS":"海佃路二段３４２巷１９號","OBJECTID":303104},"geometry":{"x":166919.06000000145,"y":2548580.8300000001}},{"attributes":{"ID":303113,"DIS_CODE":0,"TOWNNAME":"安南區","LI":"理想里","LIN":"4鄰","STREET":"海佃路","SECT":"二段","MAREA":" ","LANE":"３４２巷","ALLEY":" ","HOUSE_NO":"２７號","E_COORD97":166936.64000000001,"N_COORD97":2548568.02,"ADDRESS":"海佃路二段３４２巷２７號","OBJECTID":303105},"geometry":{"x":166936.63999999966,"y":2548568.0200000014}},{"attributes":{"ID":303114,"DIS_CODE":0,"TOWNNAME":"安南區","LI":"理想里","LIN":"4鄰","STREET":"海佃路","SECT":"二段","MAREA":" ","LANE":"３４２巷","ALLEY":" ","HOUSE_NO":"２９號","E_COORD97":166940.25,"N_COORD97":2548564.3199999998,"ADDRESS":"海佃路二段３４２巷２９號","OBJECTID":303106},"geometry":{"x":166940.25000000186,"y":2548564.3200000003}},{"attributes":{"ID":303115,"DIS_CODE":0,"TOWNNAME":"安南區","LI":"理想里","LIN":"7鄰","STREET":"海佃路","SECT":"二段","MAREA":" ","LANE":"１７６巷","ALLEY":" ","HOUSE_NO":"１０號","E_COORD97":167030.67999999999,"N_COORD97":2548201.0600000001,"ADDRESS":"海佃路二段１７６巷１０號","OBJECTID":303107},"geometry":{"x":167030.68000000063,"y":2548201.0600000005}},{"attributes":{"ID":303116,"DIS_CODE":0,"TOWNNAME":"安南區","LI":"理想里","LIN":"7鄰","STREET":"海佃路","SECT":"二段","MAREA":" ","LANE":"１７６巷","ALLEY":" ","HOUSE_NO":"１１號","E_COORD97":167016.19,"N_COORD97":2548215.9399999999,"ADDRESS":"海佃路二段１７６巷１１號","OBJECTID":303108},"geometry":{"x":167016.19000000134,"y":2548215.9400000013}},{"attributes":{"ID":303117,"DIS_CODE":0,"TOWNNAME":"安南區","LI":"理想里","LIN":"7鄰","STREET":"海佃路","SECT":"二段","MAREA":" ","LANE":"１７６巷","ALLEY":" ","HOUSE_NO":"１３號","E_COORD97":167017.20999999999,"N_COORD97":2548220.2200000002,"ADDRESS":"海佃路二段１７６巷１３號","OBJECTID":303109},"geometry":{"x":167017.21000000089,"y":2548220.2200000007}},{"attributes":{"ID":303118,"DIS_CODE":0,"TOWNNAME":"安南區","LI":"理想里","LIN":"6鄰","STREET":"海佃路","SECT":"二段","MAREA":" ","LANE":"２８８巷","ALLEY":" ","HOUSE_NO":"１３號","E_COORD97":166950.26999999999,"N_COORD97":2548469.71,"ADDRESS":"海佃路二段２８８巷１３號","OBJECTID":303110},"geometry":{"x":166950.27000000048,"y":2548469.7100000028}},{"attributes":{"ID":303119,"DIS_CODE":0,"TOWNNAME":"安南區","LI":"理想里","LIN":"6鄰","STREET":"海佃路","SECT":"二段","MAREA":" ","LANE":"２８８巷","ALLEY":" ","HOUSE_NO":"１１號","E_COORD97":166944.34,"N_COORD97":2548472.7599999998,"ADDRESS":"海佃路二段２８８巷１１號","OBJECTID":303111},"geometry":{"x":166944.33999999985,"y":2548472.7599999998}},{"attributes":{"ID":303120,"DIS_CODE":0,"TOWNNAME":"安南區","LI":"安西里","LIN":"8鄰","STREET":"安和路","SECT":"一段","MAREA":" ","LANE":"３２１巷","ALLEY":" ","HOUSE_NO":"２３號","E_COORD97":169180.07000000001,"N_COORD97":2548158.3900000001,"ADDRESS":"安和路一段３２１巷２３號","OBJECTID":303112},"geometry":{"x":169180.07000000123,"y":2548158.3900000043}},{"attributes":{"ID":303121,"DIS_CODE":0,"TOWNNAME":"安南區","LI":"安西里","LIN":"8鄰","STREET":"安和路","SECT":"一段","MAREA":" ","LANE":"３２１巷","ALLEY":" ","HOUSE_NO":"２５號","E_COORD97":169184.76999999999,"N_COORD97":2548141.1899999999,"ADDRESS":"安和路一段３２１巷２５號","OBJECTID":303113},"geometry":{"x":169184.77000000048,"y":2548141.1899999995}},{"attributes":{"ID":303122,"DIS_CODE":0,"TOWNNAME":"安南區","LI":"安西里","LIN":"8鄰","STREET":"安和路","SECT":"一段","MAREA":" ","LANE":"３２１巷","ALLEY":" ","HOUSE_NO":"９號","E_COORD97":169209.03,"N_COORD97":2548130.6400000001,"ADDRESS":"安和路一段３２１巷９號","OBJECTID":303114},"geometry":{"x":169209.03000000119,"y":2548130.6400000025}},{"attributes":{"ID":303123,"DIS_CODE":0,"TOWNNAME":"安南區","LI":"安東里","LIN":"8鄰","STREET":"安和路","SECT":"一段","MAREA":" ","LANE":"２８８巷","ALLEY":" ","HOUSE_NO":"２０號","E_COORD97":169363.26999999999,"N_COORD97":2548057.9399999999,"ADDRESS":"安和路一段２８８巷２０號","OBJECTID":303115},"geometry":{"x":169363.26999999955,"y":2548057.9399999995}},{"attributes":{"ID":303124,"DIS_CODE":0,"TOWNNAME":"仁德區","LI":"仁義里","LIN":"55鄰","STREET":"中正路","SECT":"二段","MAREA":" ","LANE":" ","ALLEY":" ","HOUSE_NO":"１１８８號","E_COORD97":173282.73999999999,"N_COORD97":2541306.27,"ADDRESS":"中正路二段１１８８號","OBJECTID":303116},"geometry":{"x":173282.74000000115,"y":2541306.2700000033}},{"attributes":{"ID":303125,"DIS_CODE":0,"TOWNNAME":"歸仁區","LI":"南保里","LIN":"55鄰","STREET":"民權南路","SECT":" ","MAREA":" ","LANE":" ","ALLEY":" ","HOUSE_NO":"１８６號","E_COORD97":176950.94,"N_COORD97":2540379.29,"ADDRESS":"民權南路１８６號","OBJECTID":303117},"geometry":{"x":176950.94000000041,"y":2540379.2899999991}},{"attributes":{"ID":303126,"DIS_CODE":0,"TOWNNAME":"佳里區","LI":"安西里","LIN":"55鄰","STREET":"佳安東路","SECT":" ","MAREA":" ","LANE":" ","ALLEY":" ","HOUSE_NO":"１０號","E_COORD97":163826.04000000001,"N_COORD97":2562358.8599999999,"ADDRESS":"佳安東路１０號","OBJECTID":303118},"geometry":{"x":163826.0400000019,"y":2562358.8599999994}},{"attributes":{"ID":303127,"DIS_CODE":0,"TOWNNAME":"佳里區","LI":"安西里","LIN":"55鄰","STREET":"佳安東路","SECT":" ","MAREA":" ","LANE":" ","ALLEY":" ","HOUSE_NO":"１０號七樓之１","E_COORD97":163826.04000000001,"N_COORD97":2562358.8599999999,"ADDRESS":"佳安東路１０號七樓之１","OBJECTID":303119},"geometry":{"x":163826.0400000019,"y":2562358.8599999994}},{"attributes":{"ID":303128,"DIS_CODE":0,"TOWNNAME":"佳里區","LI":"安西里","LIN":"55鄰","STREET":"佳安東路","SECT":" ","MAREA":" ","LANE":" ","ALLEY":" ","HOUSE_NO":"１０號七樓之２","E_COORD97":163826.04000000001,"N_COORD97":2562358.8599999999,"ADDRESS":"佳安東路１０號七樓之２","OBJECTID":303120},"geometry":{"x":163826.0400000019,"y":2562358.8599999994}},{"attributes":{"ID":303129,"DIS_CODE":0,"TOWNNAME":"佳里區","LI":"安西里","LIN":"55鄰","STREET":"佳安東路","SECT":" ","MAREA":" ","LANE":" ","ALLEY":" ","HOUSE_NO":"１０號九樓之２","E_COORD97":163826.04000000001,"N_COORD97":2562358.8599999999,"ADDRESS":"佳安東路１０號九樓之２","OBJECTID":303121},"geometry":{"x":163826.0400000019,"y":2562358.8599999994}},{"attributes":{"ID":303130,"DIS_CODE":0,"TOWNNAME":"佳里區","LI":"安西里","LIN":"55鄰","STREET":"佳安東路","SECT":" ","MAREA":" ","LANE":" ","ALLEY":" ","HOUSE_NO":"１０號二樓之１","E_COORD97":163826.04000000001,"N_COORD97":2562358.8599999999,"ADDRESS":"佳安東路１０號二樓之１","OBJECTID":303122},"geometry":{"x":163826.0400000019,"y":2562358.8599999994}},{"attributes":{"ID":303131,"DIS_CODE":0,"TOWNNAME":"佳里區","LI":"安西里","LIN":"55鄰","STREET":"佳安東路","SECT":" ","MAREA":" ","LANE":" ","ALLEY":" ","HOUSE_NO":"１０號二樓之２","E_COORD97":163826.04000000001,"N_COORD97":2562358.8599999999,"ADDRESS":"佳安東路１０號二樓之２","OBJECTID":303123},"geometry":{"x":163826.0400000019,"y":2562358.8599999994}},{"attributes":{"ID":303132,"DIS_CODE":0,"TOWNNAME":"佳里區","LI":"安西里","LIN":"55鄰","STREET":"佳安東路","SECT":" ","MAREA":" ","LANE":" ","ALLEY":" ","HOUSE_NO":"１０號八樓之１","E_COORD97":163826.04000000001,"N_COORD97":2562358.8599999999,"ADDRESS":"佳安東路１０號八樓之１","OBJECTID":303124},"geometry":{"x":163826.0400000019,"y":2562358.8599999994}},{"attributes":{"ID":303133,"DIS_CODE":0,"TOWNNAME":"佳里區","LI":"安西里","LIN":"55鄰","STREET":"佳安東路","SECT":" ","MAREA":" ","LANE":" ","ALLEY":" ","HOUSE_NO":"１０號八樓之２","E_COORD97":163826.04000000001,"N_COORD97":2562358.8599999999,"ADDRESS":"佳安東路１０號八樓之２","OBJECTID":303125},"geometry":{"x":163826.0400000019,"y":2562358.8599999994}},{"attributes":{"ID":303134,"DIS_CODE":0,"TOWNNAME":"安南區","LI":"理想里","LIN":"17鄰","STREET":"大安街","SECT":" ","MAREA":" ","LANE":" ","ALLEY":" ","HOUSE_NO":"２４５號","E_COORD97":167452.16,"N_COORD97":2548427.3900000001,"ADDRESS":"大安街２４５號","OBJECTID":303126},"geometry":{"x":167452.16000000015,"y":2548427.3900000025}},{"attributes":{"ID":303135,"DIS_CODE":0,"TOWNNAME":"歸仁區","LI":"看東里","LIN":"6鄰","STREET":"成功三街","SECT":" ","MAREA":" ","LANE":" ","ALLEY":" ","HOUSE_NO":"３１號","E_COORD97":178479.950408,"N_COORD97":2540032.3527099998,"ADDRESS":"成功三街３１號","OBJECTID":303127},"geometry":{"x":178479.9504080005,"y":2540032.3527099974}},{"attributes":{"ID":303136,"DIS_CODE":0,"TOWNNAME":"安南區","LI":"海南里","LIN":"17鄰","STREET":"府安路","SECT":"六段","MAREA":" ","LANE":"１０３巷","ALLEY":" ","HOUSE_NO":"１５５號","E_COORD97":166642.13,"N_COORD97":2546885.1099999999,"ADDRESS":"府安路六段１０３巷１５５號","OBJECTID":303128},"geometry":{"x":166642.12999999989,"y":2546885.1100000013}},{"attributes":{"ID":303137,"DIS_CODE":0,"TOWNNAME":"安南區","LI":"海南里","LIN":"17鄰","STREET":"府安路","SECT":"六段","MAREA":" ","LANE":"１０３巷","ALLEY":" ","HOUSE_NO":"１５９號","E_COORD97":166640.69,"N_COORD97":2546893.6099999999,"ADDRESS":"府安路六段１０３巷１５９號","OBJECTID":303129},"geometry":{"x":166640.69000000041,"y":2546893.6099999994}},{"attributes":{"ID":303138,"DIS_CODE":0,"TOWNNAME":"安南區","LI":"理想里","LIN":"17鄰","STREET":"大安街","SECT":" ","MAREA":" ","LANE":"２４３巷","ALLEY":" ","HOUSE_NO":"１７號","E_COORD97":167400.89000000001,"N_COORD97":2548431.6600000001,"ADDRESS":"大安街２４３巷１７號","OBJECTID":303130},"geometry":{"x":167400.88999999966,"y":2548431.660000002}},{"attributes":{"ID":303139,"DIS_CODE":0,"TOWNNAME":"安南區","LI":"理想里","LIN":"17鄰","STREET":"大安街","SECT":" ","MAREA":" ","LANE":"２２９巷","ALLEY":" ","HOUSE_NO":"１０號","E_COORD97":167392.82000000001,"N_COORD97":2548412.5099999998,"ADDRESS":"大安街２２９巷１０號","OBJECTID":303131},"geometry":{"x":167392.82000000123,"y":2548412.5100000016}},{"attributes":{"ID":303140,"DIS_CODE":0,"TOWNNAME":"安南區","LI":"梅花里","LIN":"8鄰","STREET":"安中路","SECT":"一段","MAREA":" ","LANE":"７０１巷","ALLEY":" ","HOUSE_NO":"８號","E_COORD97":167577.26999999999,"N_COORD97":2549215.3199999998,"ADDRESS":"安中路一段７０１巷８號","OBJECTID":303132},"geometry":{"x":167577.27000000048,"y":2549215.3200000003}},{"attributes":{"ID":303141,"DIS_CODE":0,"TOWNNAME":"安南區","LI":"理想里","LIN":"18鄰","STREET":"大安街","SECT":" ","MAREA":" ","LANE":"２７１巷","ALLEY":" ","HOUSE_NO":"１２號","E_COORD97":167459.89999999999,"N_COORD97":2548507.25,"ADDRESS":"大安街２７１巷１２號","OBJECTID":303133},"geometry":{"x":167459.89999999944,"y":2548507.25}},{"attributes":{"ID":303142,"DIS_CODE":0,"TOWNNAME":"安南區","LI":"海東里","LIN":"13鄰","STREET":"海環街","SECT":" ","MAREA":" ","LANE":"６巷","ALLEY":" ","HOUSE_NO":"１６號","E_COORD97":166696.89999999999,"N_COORD97":2548949.7599999998,"ADDRESS":"海環街６巷１６號","OBJECTID":303134},"geometry":{"x":166696.90000000037,"y":2548949.7600000016}},{"attributes":{"ID":303143,"DIS_CODE":0,"TOWNNAME":"安南區","LI":"溪心里","LIN":"14鄰","STREET":"本原街","SECT":"二段","MAREA":" ","LANE":"５３２巷","ALLEY":" ","HOUSE_NO":"５號","E_COORD97":165818.87,"N_COORD97":2550517.9399999999,"ADDRESS":"本原街二段５３２巷５號","OBJECTID":303135},"geometry":{"x":165818.86999999918,"y":2550517.9400000013}},{"attributes":{"ID":303144,"DIS_CODE":0,"TOWNNAME":"安南區","LI":"理想里","LIN":"17鄰","STREET":"大安街","SECT":" ","MAREA":" ","LANE":"２０１巷","ALLEY":" ","HOUSE_NO":"１６號","E_COORD97":167354.39000000001,"N_COORD97":2548362.0099999998,"ADDRESS":"大安街２０１巷１６號","OBJECTID":303136},"geometry":{"x":167354.3900000006,"y":2548362.0099999998}},{"attributes":{"ID":303145,"DIS_CODE":0,"TOWNNAME":"安南區","LI":"城東里","LIN":"12鄰","STREET":"城北路","SECT":" ","MAREA":" ","LANE":"１３８巷","ALLEY":" ","HOUSE_NO":"５５號","E_COORD97":161130.29999999999,"N_COORD97":2551715.0499999998,"ADDRESS":"城北路１３８巷５５號","OBJECTID":303137},"geometry":{"x":161130.30000000168,"y":2551715.0500000026}},{"attributes":{"ID":303146,"DIS_CODE":0,"TOWNNAME":"安南區","LI":"理想里","LIN":"3鄰","STREET":"大安街","SECT":" ","MAREA":" ","LANE":"６８０巷","ALLEY":" ","HOUSE_NO":"３號","E_COORD97":167157.32000000001,"N_COORD97":2548992.1200000001,"ADDRESS":"大安街６８０巷３號","OBJECTID":303138},"geometry":{"x":167157.32000000123,"y":2548992.1200000029}},{"attributes":{"ID":303147,"DIS_CODE":0,"TOWNNAME":"安南區","LI":"溪心里","LIN":"8鄰","STREET":"安中路","SECT":"二段","MAREA":" ","LANE":" ","ALLEY":" ","HOUSE_NO":"２９７號","E_COORD97":166474.37,"N_COORD97":2549695.48,"ADDRESS":"安中路二段２９７號","OBJECTID":303139},"geometry":{"x":166474.37000000011,"y":2549695.4800000004}},{"attributes":{"ID":303148,"DIS_CODE":0,"TOWNNAME":"安南區","LI":"海東里","LIN":"13鄰","STREET":"海佃路","SECT":"二段","MAREA":" ","LANE":" ","ALLEY":" ","HOUSE_NO":"４１３號","E_COORD97":166721.72,"N_COORD97":2548989.4100000001,"ADDRESS":"海佃路二段４１３號","OBJECTID":303140},"geometry":{"x":166721.72000000067,"y":2548989.410000002}},{"attributes":{"ID":303149,"DIS_CODE":0,"TOWNNAME":"安南區","LI":"理想里","LIN":"13鄰","STREET":"海佃路","SECT":"二段","MAREA":" ","LANE":" ","ALLEY":" ","HOUSE_NO":"１１０號","E_COORD97":167015.25,"N_COORD97":2548057.4900000002,"ADDRESS":"海佃路二段１１０號","OBJECTID":303141},"geometry":{"x":167015.25000000093,"y":2548057.4900000002}},{"attributes":{"ID":303150,"DIS_CODE":0,"TOWNNAME":"安南區","LI":"溪心里","LIN":"12鄰","STREET":"海佃路","SECT":"二段","MAREA":" ","LANE":" ","ALLEY":" ","HOUSE_NO":"７０８號","E_COORD97":166569.73000000001,"N_COORD97":2549514.3900000001,"ADDRESS":"海佃路二段７０８號","OBJECTID":303142},"geometry":{"x":166569.73000000138,"y":2549514.3899999987}},{"attributes":{"ID":303151,"DIS_CODE":0,"TOWNNAME":"永康區","LI":"大灣里","LIN":"25鄰","STREET":"民族路","SECT":" ","MAREA":" ","LANE":" ","ALLEY":" ","HOUSE_NO":"２１４號","E_COORD97":175098.87,"N_COORD97":2545105.7400000002,"ADDRESS":"民族路２１４號","OBJECTID":303143},"geometry":{"x":175098.87000000104,"y":2545105.7400000021}},{"attributes":{"ID":303152,"DIS_CODE":0,"TOWNNAME":"安南區","LI":"理想里","LIN":"13鄰","STREET":"大安街","SECT":" ","MAREA":" ","LANE":" ","ALLEY":" ","HOUSE_NO":"１５號","E_COORD97":167084.13,"N_COORD97":2547976.5499999998,"ADDRESS":"大安街１５號","OBJECTID":303144},"geometry":{"x":167084.13000000082,"y":2547976.5500000007}},{"attributes":{"ID":303153,"DIS_CODE":0,"TOWNNAME":"安南區","LI":"鳳凰里","LIN":"20鄰","STREET":"怡安路","SECT":"二段","MAREA":" ","LANE":" ","ALLEY":" ","HOUSE_NO":"５２１號","E_COORD97":167607.53,"N_COORD97":2549429.1800000002,"ADDRESS":"怡安路二段５２１號","OBJECTID":303145},"geometry":{"x":167607.53000000026,"y":2549429.1799999997}},{"attributes":{"ID":303154,"DIS_CODE":0,"TOWNNAME":"佳里區","LI":"鎮山里","LIN":"20鄰","STREET":"鎮山街","SECT":" ","MAREA":" ","LANE":" ","ALLEY":" ","HOUSE_NO":"２０２號","E_COORD97":166256.04000000001,"N_COORD97":2560903.3399999999,"ADDRESS":"鎮山街２０２號","OBJECTID":303146},"geometry":{"x":166256.04000000004,"y":2560903.3400000017}},{"attributes":{"ID":303155,"DIS_CODE":0,"TOWNNAME":"佳里區","LI":"鎮山里","LIN":"20鄰","STREET":"鎮山街","SECT":" ","MAREA":" ","LANE":" ","ALLEY":" ","HOUSE_NO":"２０６號","E_COORD97":166254.95000000001,"N_COORD97":2560898.7999999998,"ADDRESS":"鎮山街２０６號","OBJECTID":303147},"geometry":{"x":166254.95000000112,"y":2560898.8000000007}},{"attributes":{"ID":303156,"DIS_CODE":0,"TOWNNAME":"仁德區","LI":"大甲里","LIN":"20鄰","STREET":"行大街","SECT":" ","MAREA":" ","LANE":" ","ALLEY":" ","HOUSE_NO":"４３２號","E_COORD97":169406.29999999999,"N_COORD97":2535298.4900000002,"ADDRESS":"行大街４３２號","OBJECTID":303148},"geometry":{"x":169406.30000000168,"y":2535298.4900000021}},{"attributes":{"ID":303157,"DIS_CODE":0,"TOWNNAME":"仁德區","LI":"一甲里","LIN":"13鄰","STREET":"忠義三街","SECT":" ","MAREA":" ","LANE":" ","ALLEY":" ","HOUSE_NO":"５４號","E_COORD97":173630.48999999999,"N_COORD97":2541812.7599999998,"ADDRESS":"忠義三街５４號","OBJECTID":303149},"geometry":{"x":173630.49000000115,"y":2541812.7600000016}},{"attributes":{"ID":303158,"DIS_CODE":0,"TOWNNAME":"仁德區","LI":"一甲里","LIN":"13鄰","STREET":"忠義三街","SECT":" ","MAREA":" ","LANE":" ","ALLEY":" ","HOUSE_NO":"６２號","E_COORD97":173633.20000000001,"N_COORD97":2541831.5099999998,"ADDRESS":"忠義三街６２號","OBJECTID":303150},"geometry":{"x":173633.20000000019,"y":2541831.5100000016}},{"attributes":{"ID":303159,"DIS_CODE":0,"TOWNNAME":"仁德區","LI":"上崙里","LIN":"18鄰","STREET":"德崙路","SECT":" ","MAREA":" ","LANE":" ","ALLEY":" ","HOUSE_NO":"３４４號","E_COORD97":173951.56,"N_COORD97":2538111.0099999998,"ADDRESS":"德崙路３４４號","OBJECTID":303151},"geometry":{"x":173951.55999999959,"y":2538111.0100000035}},{"attributes":{"ID":303160,"DIS_CODE":0,"TOWNNAME":"仁德區","LI":"上崙里","LIN":"17鄰","STREET":"德崙路","SECT":" ","MAREA":" ","LANE":" ","ALLEY":" ","HOUSE_NO":"３４８號","E_COORD97":173957.67000000001,"N_COORD97":2538111.2599999998,"ADDRESS":"德崙路３４８號","OBJECTID":303152},"geometry":{"x":173957.67000000086,"y":2538111.2599999998}},{"attributes":{"ID":303161,"DIS_CODE":0,"TOWNNAME":"歸仁區","LI":"看東里","LIN":"9鄰","STREET":"成功路","SECT":"一段","MAREA":" ","LANE":"１０１巷","ALLEY":" ","HOUSE_NO":"１９號","E_COORD97":178705.31056799999,"N_COORD97":2540195.6079899999,"ADDRESS":"成功路一段１０１巷１９號","OBJECTID":303153},"geometry":{"x":178705.31056800112,"y":2540195.6079859994}},{"attributes":{"ID":303162,"DIS_CODE":0,"TOWNNAME":"安南區","LI":"原佃里","LIN":"4鄰","STREET":"本原街","SECT":"一段","MAREA":" ","LANE":"７６巷","ALLEY":" ","HOUSE_NO":"１號","E_COORD97":168034.04000000001,"N_COORD97":2550187.21,"ADDRESS":"本原街一段７６巷１號","OBJECTID":303154},"geometry":{"x":168034.04000000097,"y":2550187.209999999}},{"attributes":{"ID":303163,"DIS_CODE":0,"TOWNNAME":"安南區","LI":"原佃里","LIN":"4鄰","STREET":"本原街","SECT":"一段","MAREA":" ","LANE":"７６巷","ALLEY":" ","HOUSE_NO":"３號","E_COORD97":168033.28,"N_COORD97":2550192.0600000001,"ADDRESS":"本原街一段７６巷３號","OBJECTID":303155},"geometry":{"x":168033.28000000026,"y":2550192.0600000024}},{"attributes":{"ID":303164,"DIS_CODE":0,"TOWNNAME":"安南區","LI":"原佃里","LIN":"4鄰","STREET":"本原街","SECT":"一段","MAREA":" ","LANE":"７６巷","ALLEY":" ","HOUSE_NO":"５號","E_COORD97":168032.59,"N_COORD97":2550196.3199999998,"ADDRESS":"本原街一段７６巷５號","OBJECTID":303156},"geometry":{"x":168032.58999999985,"y":2550196.320000004}},{"attributes":{"ID":303165,"DIS_CODE":0,"TOWNNAME":"安南區","LI":"原佃里","LIN":"4鄰","STREET":"本原街","SECT":"一段","MAREA":" ","LANE":"７６巷","ALLEY":" ","HOUSE_NO":"７號","E_COORD97":168031.82999999999,"N_COORD97":2550200.5800000001,"ADDRESS":"本原街一段７６巷７號","OBJECTID":303157},"geometry":{"x":168031.83000000101,"y":2550200.5800000001}},{"attributes":{"ID":303166,"DIS_CODE":0,"TOWNNAME":"安南區","LI":"原佃里","LIN":"4鄰","STREET":"本原街","SECT":"一段","MAREA":" ","LANE":"９４巷","ALLEY":" ","HOUSE_NO":"１２號","E_COORD97":168009.89999999999,"N_COORD97":2550207.5600000001,"ADDRESS":"本原街一段９４巷１２號","OBJECTID":303158},"geometry":{"x":168009.9000000013,"y":2550207.5600000005}},{"attributes":{"ID":303167,"DIS_CODE":0,"TOWNNAME":"安南區","LI":"原佃里","LIN":"4鄰","STREET":"本原街","SECT":"一段","MAREA":" ","LANE":"９４巷","ALLEY":" ","HOUSE_NO":"１４號","E_COORD97":168009.35999999999,"N_COORD97":2550212.3599999999,"ADDRESS":"本原街一段９４巷１４號","OBJECTID":303159},"geometry":{"x":168009.3599999994,"y":2550212.3600000013}},{"attributes":{"ID":303168,"DIS_CODE":0,"TOWNNAME":"安南區","LI":"原佃里","LIN":"4鄰","STREET":"本原街","SECT":"一段","MAREA":" ","LANE":"９４巷","ALLEY":" ","HOUSE_NO":"１６號","E_COORD97":168008.60999999999,"N_COORD97":2550217.1699999999,"ADDRESS":"本原街一段９４巷１６號","OBJECTID":303160},"geometry":{"x":168008.61000000127,"y":2550217.1700000037}},{"attributes":{"ID":303169,"DIS_CODE":0,"TOWNNAME":"安南區","LI":"原佃里","LIN":"4鄰","STREET":"本原街","SECT":"一段","MAREA":" ","LANE":"９４巷","ALLEY":" ","HOUSE_NO":"１９號","E_COORD97":167976.10999999999,"N_COORD97":2550228.4700000002,"ADDRESS":"本原街一段９４巷１９號","OBJECTID":303161},"geometry":{"x":167976.11000000127,"y":2550228.4700000007}},{"attributes":{"ID":303170,"DIS_CODE":0,"TOWNNAME":"安南區","LI":"原佃里","LIN":"4鄰","STREET":"本原街","SECT":"一段","MAREA":" ","LANE":"９４巷","ALLEY":" ","HOUSE_NO":"２１號","E_COORD97":167975.67999999999,"N_COORD97":2550233.3799999999,"ADDRESS":"本原街一段９４巷２１號","OBJECTID":303162},"geometry":{"x":167975.6799999997,"y":2550233.3800000008}},{"attributes":{"ID":303171,"DIS_CODE":0,"TOWNNAME":"安南區","LI":"安東里","LIN":"4鄰","STREET":"安和路","SECT":"一段","MAREA":" ","LANE":"２８８巷","ALLEY":" ","HOUSE_NO":"１３９號","E_COORD97":169680.92000000001,"N_COORD97":2548268.8599999999,"ADDRESS":"安和路一段２８８巷１３９號","OBJECTID":303163},"geometry":{"x":169680.92000000086,"y":2548268.8599999994}},{"attributes":{"ID":303172,"DIS_CODE":0,"TOWNNAME":"永康區","LI":"大橋里","LIN":"4鄰","STREET":"大橋一街","SECT":" ","MAREA":" ","LANE":"１０３巷","ALLEY":" ","HOUSE_NO":"２２８號","E_COORD97":170752.79999999999,"N_COORD97":2546856.5099999998,"ADDRESS":"大橋一街１０３巷２２８號","OBJECTID":303164},"geometry":{"x":170752.80000000075,"y":2546856.5100000016}},{"attributes":{"ID":303173,"DIS_CODE":0,"TOWNNAME":"新營區","LI":"民榮里","LIN":"14鄰","STREET":"復興路","SECT":" ","MAREA":" ","LANE":"１６１巷","ALLEY":" ","HOUSE_NO":"２６號","E_COORD97":179007.82999999999,"N_COORD97":2577951.73,"ADDRESS":"復興路１６１巷２６號","OBJECTID":303165},"geometry":{"x":179007.83000000194,"y":2577951.7300000023}},{"attributes":{"ID":303174,"DIS_CODE":0,"TOWNNAME":"北區","LI":"振興里","LIN":"8鄰","STREET":"長榮路","SECT":"四段","MAREA":" ","LANE":"１３５巷","ALLEY":" ","HOUSE_NO":"１０號","E_COORD97":170190.69,"N_COORD97":2545122.52,"ADDRESS":"長榮路四段１３５巷１０號","OBJECTID":303166},"geometry":{"x":170190.69000000227,"y":2545122.5200000014}},{"attributes":{"ID":303175,"DIS_CODE":0,"TOWNNAME":"新營區","LI":"新北里","LIN":"8鄰","STREET":"三興街","SECT":" ","MAREA":" ","LANE":"３０１巷","ALLEY":" ","HOUSE_NO":"６１號","E_COORD97":179172.67000000001,"N_COORD97":2579707.3599999999,"ADDRESS":"三興街３０１巷６１號","OBJECTID":303167},"geometry":{"x":179172.66999999993,"y":2579707.3599999994}},{"attributes":{"ID":303176,"DIS_CODE":0,"TOWNNAME":"佳里區","LI":"安西里","LIN":"55鄰","STREET":"佳安東路","SECT":" ","MAREA":" ","LANE":" ","ALLEY":" ","HOUSE_NO":"１０號十樓之１","E_COORD97":163826.04000000001,"N_COORD97":2562358.8599999999,"ADDRESS":"佳安東路１０號十樓之１","OBJECTID":303168},"geometry":{"x":163826.0400000019,"y":2562358.8599999994}},{"attributes":{"ID":303177,"DIS_CODE":0,"TOWNNAME":"佳里區","LI":"安西里","LIN":"55鄰","STREET":"佳安東路","SECT":" ","MAREA":" ","LANE":" ","ALLEY":" ","HOUSE_NO":"１０號十樓之２","E_COORD97":163826.04000000001,"N_COORD97":2562358.8599999999,"ADDRESS":"佳安東路１０號十樓之２","OBJECTID":303169},"geometry":{"x":163826.0400000019,"y":2562358.8599999994}},{"attributes":{"ID":303178,"DIS_CODE":0,"TOWNNAME":"佳里區","LI":"安西里","LIN":"55鄰","STREET":"佳安東路","SECT":" ","MAREA":" ","LANE":" ","ALLEY":" ","HOUSE_NO":"１０號三樓之１","E_COORD97":163826.04000000001,"N_COORD97":2562358.8599999999,"ADDRESS":"佳安東路１０號三樓之１","OBJECTID":303170},"geometry":{"x":163826.0400000019,"y":2562358.8599999994}},{"attributes":{"ID":303179,"DIS_CODE":0,"TOWNNAME":"佳里區","LI":"安西里","LIN":"55鄰","STREET":"佳安東路","SECT":" ","MAREA":" ","LANE":" ","ALLEY":" ","HOUSE_NO":"１０號五樓之１","E_COORD97":163826.04000000001,"N_COORD97":2562358.8599999999,"ADDRESS":"佳安東路１０號五樓之１","OBJECTID":303171},"geometry":{"x":163826.0400000019,"y":2562358.8599999994}},{"attributes":{"ID":303180,"DIS_CODE":0,"TOWNNAME":"佳里區","LI":"安西里","LIN":"55鄰","STREET":"佳安東路","SECT":" ","MAREA":" ","LANE":" ","ALLEY":" ","HOUSE_NO":"１０號五樓之２","E_COORD97":163826.04000000001,"N_COORD97":2562358.8599999999,"ADDRESS":"佳安東路１０號五樓之２","OBJECTID":303172},"geometry":{"x":163826.0400000019,"y":2562358.8599999994}},{"attributes":{"ID":303181,"DIS_CODE":0,"TOWNNAME":"佳里區","LI":"安西里","LIN":"55鄰","STREET":"佳安東路","SECT":" ","MAREA":" ","LANE":" ","ALLEY":" ","HOUSE_NO":"１０號六樓之１","E_COORD97":163826.04000000001,"N_COORD97":2562358.8599999999,"ADDRESS":"佳安東路１０號六樓之１","OBJECTID":303173},"geometry":{"x":163826.0400000019,"y":2562358.8599999994}},{"attributes":{"ID":303182,"DIS_CODE":0,"TOWNNAME":"佳里區","LI":"安西里","LIN":"55鄰","STREET":"佳安東路","SECT":" ","MAREA":" ","LANE":" ","ALLEY":" ","HOUSE_NO":"１０號六樓之２","E_COORD97":163826.04000000001,"N_COORD97":2562358.8599999999,"ADDRESS":"佳安東路１０號六樓之２","OBJECTID":303174},"geometry":{"x":163826.0400000019,"y":2562358.8599999994}},{"attributes":{"ID":303183,"DIS_CODE":0,"TOWNNAME":"佳里區","LI":"安西里","LIN":"55鄰","STREET":"佳安東路","SECT":" ","MAREA":" ","LANE":" ","ALLEY":" ","HOUSE_NO":"１０號四樓之１","E_COORD97":163826.04000000001,"N_COORD97":2562358.8599999999,"ADDRESS":"佳安東路１０號四樓之１","OBJECTID":303175},"geometry":{"x":163826.0400000019,"y":2562358.8599999994}},{"attributes":{"ID":303184,"DIS_CODE":0,"TOWNNAME":"佳里區","LI":"安西里","LIN":"55鄰","STREET":"佳安東路","SECT":" ","MAREA":" ","LANE":" ","ALLEY":" ","HOUSE_NO":"１０號四樓之２","E_COORD97":163826.04000000001,"N_COORD97":2562358.8599999999,"ADDRESS":"佳安東路１０號四樓之２","OBJECTID":303176},"geometry":{"x":163826.0400000019,"y":2562358.8599999994}},{"attributes":{"ID":303185,"DIS_CODE":0,"TOWNNAME":"佳里區","LI":"安西里","LIN":"55鄰","STREET":"佳安東路","SECT":" ","MAREA":" ","LANE":" ","ALLEY":" ","HOUSE_NO":"１２號七樓之１","E_COORD97":163841.10000000001,"N_COORD97":2562358.9300000002,"ADDRESS":"佳安東路１２號七樓之１","OBJECTID":303177},"geometry":{"x":163841.10000000056,"y":2562358.9299999997}},{"attributes":{"ID":303186,"DIS_CODE":0,"TOWNNAME":"佳里區","LI":"安西里","LIN":"55鄰","STREET":"佳安東路","SECT":" ","MAREA":" ","LANE":" ","ALLEY":" ","HOUSE_NO":"１２號七樓之２","E_COORD97":163841.10000000001,"N_COORD97":2562358.9300000002,"ADDRESS":"佳安東路１２號七樓之２","OBJECTID":303178},"geometry":{"x":163841.10000000056,"y":2562358.9299999997}},{"attributes":{"ID":303187,"DIS_CODE":0,"TOWNNAME":"佳里區","LI":"安西里","LIN":"55鄰","STREET":"佳安東路","SECT":" ","MAREA":" ","LANE":" ","ALLEY":" ","HOUSE_NO":"１２號九樓之１","E_COORD97":163841.10000000001,"N_COORD97":2562358.9300000002,"ADDRESS":"佳安東路１２號九樓之１","OBJECTID":303179},"geometry":{"x":163841.10000000056,"y":2562358.9299999997}},{"attributes":{"ID":303188,"DIS_CODE":0,"TOWNNAME":"佳里區","LI":"安西里","LIN":"55鄰","STREET":"佳安東路","SECT":" ","MAREA":" ","LANE":" ","ALLEY":" ","HOUSE_NO":"１２號九樓之２","E_COORD97":163841.10000000001,"N_COORD97":2562358.9300000002,"ADDRESS":"佳安東路１２號九樓之２","OBJECTID":303180},"geometry":{"x":163841.10000000056,"y":2562358.9299999997}},{"attributes":{"ID":303189,"DIS_CODE":0,"TOWNNAME":"新市區","LI":"港墘里","LIN":"12鄰","STREET":"中山路","SECT":" ","MAREA":" ","LANE":" ","ALLEY":" ","HOUSE_NO":"１３９號","E_COORD97":178285.550162,"N_COORD97":2552548.48288,"ADDRESS":"中山路１３９號","OBJECTID":303181},"geometry":{"x":178285.55016200058,"y":2552548.4828750025}},{"attributes":{"ID":303190,"DIS_CODE":0,"TOWNNAME":"永康區","LI":"大灣里","LIN":"13鄰","STREET":"大灣路","SECT":" ","MAREA":" ","LANE":"２１５巷","ALLEY":" ","HOUSE_NO":"２２號","E_COORD97":175029.84,"N_COORD97":2545306.1600000001,"ADDRESS":"大灣路２１５巷２２號","OBJECTID":303182},"geometry":{"x":175029.83999999985,"y":2545306.160000002}},{"attributes":{"ID":303191,"DIS_CODE":0,"TOWNNAME":"永康區","LI":"大灣里","LIN":"24鄰","STREET":"大灣路","SECT":" ","MAREA":" ","LANE":"２７９巷","ALLEY":" ","HOUSE_NO":"１號","E_COORD97":174922.88,"N_COORD97":2545177.25,"ADDRESS":"大灣路２７９巷１號","OBJECTID":303183},"geometry":{"x":174922.87999999989,"y":2545177.25}},{"attributes":{"ID":303192,"DIS_CODE":0,"TOWNNAME":"永康區","LI":"五王里","LIN":"18鄰","STREET":"成功路","SECT":" ","MAREA":" ","LANE":"１８８巷","ALLEY":" ","HOUSE_NO":"３號","E_COORD97":171432.82000000001,"N_COORD97":2545680.52,"ADDRESS":"成功路１８８巷３號","OBJECTID":303184},"geometry":{"x":171432.82000000123,"y":2545680.5199999996}},{"attributes":{"ID":303193,"DIS_CODE":0,"TOWNNAME":"永康區","LI":"五王里","LIN":"41鄰","STREET":"中華路","SECT":" ","MAREA":" ","LANE":"５７８巷","ALLEY":" ","HOUSE_NO":"３６號","E_COORD97":171395.48999999999,"N_COORD97":2545992.75,"ADDRESS":"中華路５７８巷３６號","OBJECTID":303185},"geometry":{"x":171395.49000000209,"y":2545992.7500000019}},{"attributes":{"ID":303194,"DIS_CODE":0,"TOWNNAME":"永康區","LI":"中興里","LIN":"4鄰","STREET":"中華一路","SECT":" ","MAREA":" ","LANE":"５８巷","ALLEY":" ","HOUSE_NO":"７號","E_COORD97":171849.03,"N_COORD97":2545009.6299999999,"ADDRESS":"中華一路５８巷７號","OBJECTID":303186},"geometry":{"x":171849.03000000026,"y":2545009.6300000008}},{"attributes":{"ID":303195,"DIS_CODE":0,"TOWNNAME":"永康區","LI":"大灣里","LIN":"18鄰","STREET":"大灣路","SECT":" ","MAREA":" ","LANE":"３５６巷","ALLEY":" ","HOUSE_NO":"５０號","E_COORD97":174793.87,"N_COORD97":2545195.7799999998,"ADDRESS":"大灣路３５６巷５０號","OBJECTID":303187},"geometry":{"x":174793.87000000104,"y":2545195.7800000012}},{"attributes":{"ID":303196,"DIS_CODE":0,"TOWNNAME":"永康區","LI":"五王里","LIN":"18鄰","STREET":"成功路","SECT":" ","MAREA":" ","LANE":"１８８巷","ALLEY":" ","HOUSE_NO":"１３號","E_COORD97":171451.92999999999,"N_COORD97":2545693.77,"ADDRESS":"成功路１８８巷１３號","OBJECTID":303188},"geometry":{"x":171451.93000000063,"y":2545693.7700000014}},{"attributes":{"ID":303197,"DIS_CODE":0,"TOWNNAME":"永康區","LI":"三合里","LIN":"20鄰","STREET":"南工街","SECT":" ","MAREA":" ","LANE":"２７９巷","ALLEY":" ","HOUSE_NO":"１號","E_COORD97":171868.01999999999,"N_COORD97":2545996.5,"ADDRESS":"南工街２７９巷１號","OBJECTID":303189},"geometry":{"x":171868.02000000048,"y":2545996.5}},{"attributes":{"ID":303198,"DIS_CODE":0,"TOWNNAME":"永康區","LI":"中興里","LIN":"20鄰","STREET":"中華路","SECT":" ","MAREA":" ","LANE":"２１６巷","ALLEY":" ","HOUSE_NO":"４５號","E_COORD97":171865.54999999999,"N_COORD97":2545164,"ADDRESS":"中華路２１６巷４５號","OBJECTID":303190},"geometry":{"x":171865.54999999981,"y":2545164.0000000019}},{"attributes":{"ID":303199,"DIS_CODE":0,"TOWNNAME":"永康區","LI":"中興里","LIN":"20鄰","STREET":"中華路","SECT":" ","MAREA":" ","LANE":"２１６巷","ALLEY":" ","HOUSE_NO":"１７號","E_COORD97":171811.01999999999,"N_COORD97":2545158.4900000002,"ADDRESS":"中華路２１６巷１７號","OBJECTID":303191},"geometry":{"x":171811.01999999955,"y":2545158.4900000021}},{"attributes":{"ID":303200,"DIS_CODE":0,"TOWNNAME":"永康區","LI":"中興里","LIN":"13鄰","STREET":"中興街","SECT":" ","MAREA":" ","LANE":"６４巷","ALLEY":" ","HOUSE_NO":"２０號","E_COORD97":172125.13,"N_COORD97":2545310.75,"ADDRESS":"中興街６４巷２０號","OBJECTID":303192},"geometry":{"x":172125.13000000082,"y":2545310.7499999981}},{"attributes":{"ID":303201,"DIS_CODE":0,"TOWNNAME":"永康區","LI":"中興里","LIN":"13鄰","STREET":"中興街","SECT":" ","MAREA":" ","LANE":"５７巷","ALLEY":" ","HOUSE_NO":"２號","E_COORD97":172055.17000000001,"N_COORD97":2545262.2400000002,"ADDRESS":"中興街５７巷２號","OBJECTID":303193},"geometry":{"x":172055.17000000179,"y":2545262.2400000002}},{"attributes":{"ID":303202,"DIS_CODE":0,"TOWNNAME":"永康區","LI":"五王里","LIN":"38鄰","STREET":"中華路","SECT":" ","MAREA":" ","LANE":"５７８巷","ALLEY":" ","HOUSE_NO":"１７號之１２","E_COORD97":171333.70000000001,"N_COORD97":2545989.54,"ADDRESS":"中華路５７８巷１７號之１２","OBJECTID":303194},"geometry":{"x":171333.70000000112,"y":2545989.5400000028}},{"attributes":{"ID":303203,"DIS_CODE":0,"TOWNNAME":"永康區","LI":"五王里","LIN":"24鄰","STREET":"成功路","SECT":" ","MAREA":" ","LANE":" ","ALLEY":" ","HOUSE_NO":"２５０號","E_COORD97":171317.39999999999,"N_COORD97":2545832.52,"ADDRESS":"成功路２５０號","OBJECTID":303195},"geometry":{"x":171317.4000000013,"y":2545832.5199999996}},{"attributes":{"ID":303204,"DIS_CODE":0,"TOWNNAME":"永康區","LI":"五王里","LIN":"20鄰","STREET":"中華路","SECT":" ","MAREA":" ","LANE":" ","ALLEY":" ","HOUSE_NO":"４２２號","E_COORD97":171373.35999999999,"N_COORD97":2545635.2400000002,"ADDRESS":"中華路４２２號","OBJECTID":303196},"geometry":{"x":171373.36000000127,"y":2545635.2400000002}},{"attributes":{"ID":303205,"DIS_CODE":0,"TOWNNAME":"永康區","LI":"五王里","LIN":"41鄰","STREET":"中山南路","SECT":" ","MAREA":" ","LANE":" ","ALLEY":" ","HOUSE_NO":"２６０號之３６","E_COORD97":173880.81,"N_COORD97":2547322.04,"ADDRESS":"中山南路２６０號之３６","OBJECTID":303197},"geometry":{"x":173880.80999999959,"y":2547322.0400000028}},{"attributes":{"ID":303206,"DIS_CODE":0,"TOWNNAME":"永康區","LI":"中興里","LIN":"13鄰","STREET":"中興街","SECT":" ","MAREA":" ","LANE":" ","ALLEY":" ","HOUSE_NO":"５４號","E_COORD97":172091.60000000001,"N_COORD97":2545247.7400000002,"ADDRESS":"中興街５４號","OBJECTID":303198},"geometry":{"x":172091.60000000056,"y":2545247.7400000021}},{"attributes":{"ID":303207,"DIS_CODE":0,"TOWNNAME":"永康區","LI":"五王里","LIN":"20鄰","STREET":"成功路","SECT":" ","MAREA":" ","LANE":" ","ALLEY":" ","HOUSE_NO":"１３９號","E_COORD97":171380.53,"N_COORD97":2545687.27,"ADDRESS":"成功路１３９號","OBJECTID":303199},"geometry":{"x":171380.53000000119,"y":2545687.2700000014}},{"attributes":{"ID":303208,"DIS_CODE":0,"TOWNNAME":"仁德區","LI":"仁義里","LIN":"50鄰","STREET":"中清路","SECT":" ","MAREA":" ","LANE":" ","ALLEY":" ","HOUSE_NO":"２７號","E_COORD97":173685.94,"N_COORD97":2541057.2999999998,"ADDRESS":"中清路２７號","OBJECTID":303200},"geometry":{"x":173685.94000000041,"y":2541057.3000000026}}]}