{"displayFieldName":"TOWNNAME","fieldAliases":{"ID":"ID","DIS_CODE":"DIS_CODE","TOWNNAME":"TOWNNAME","LI":"LI","LIN":"LIN","STREET":"STREET","SECT":"SECT","MAREA":"MAREA","LANE":"LANE","ALLEY":"ALLEY","HOUSE_NO":"HOUSE_NO","E_COORD97":"E_COORD97","N_COORD97":"N_COORD97","ADDRESS":"ADDRESS","OBJECTID":"OBJECTID"},"geometryType":"esriGeometryPoint","spatialReference":{"wkid":102443,"latestWkid":3826},"fields":[{"name":"ID","type":"esriFieldTypeDouble","alias":"ID"},{"name":"DIS_CODE","type":"esriFieldTypeInteger","alias":"DIS_CODE"},{"name":"TOWNNAME","type":"esriFieldTypeString","alias":"TOWNNAME","length":8},{"name":"LI","type":"esriFieldTypeString","alias":"LI","length":8},{"name":"LIN","type":"esriFieldTypeString","alias":"LIN","length":12},{"name":"STREET","type":"esriFieldTypeString","alias":"STREET","length":20},{"name":"SECT","type":"esriFieldTypeString","alias":"SECT","length":8},{"name":"MAREA","type":"esriFieldTypeString","alias":"MAREA","length":12},{"name":"LANE","type":"esriFieldTypeString","alias":"LANE","length":10},{"name":"ALLEY","type":"esriFieldTypeString","alias":"ALLEY","length":10},{"name":"HOUSE_NO","type":"esriFieldTypeString","alias":"HOUSE_NO","length":20},{"name":"E_COORD97","type":"esriFieldTypeDouble","alias":"E_COORD97"},{"name":"N_COORD97","type":"esriFieldTypeDouble","alias":"N_COORD97"},{"name":"ADDRESS","type":"esriFieldTypeString","alias":"ADDRESS","length":50},{"name":"OBJECTID","type":"esriFieldTypeOID","alias":"OBJECTID"}],"features":[{"attributes":{"ID":40601,"DIS_CODE":0,"TOWNNAME":"南區","LI":"大成里","LIN":"7鄰","STREET":"健康路","SECT":"一段","MAREA":" ","LANE":"３９１巷","ALLEY":"２３弄","HOUSE_NO":"４號三樓","E_COORD97":167931.14000000001,"N_COORD97":2542326.0699999998,"ADDRESS":"健康路一段３９１巷２３弄４號三樓","OBJECTID":40601},"geometry":{"x":167931.1400000006,"y":2542326.0700000022}},{"attributes":{"ID":40602,"DIS_CODE":0,"TOWNNAME":"南區","LI":"大成里","LIN":"7鄰","STREET":"健康路","SECT":"一段","MAREA":" ","LANE":"３９１巷","ALLEY":"２３弄","HOUSE_NO":"４號四樓","E_COORD97":167931.14000000001,"N_COORD97":2542326.0699999998,"ADDRESS":"健康路一段３９１巷２３弄４號四樓","OBJECTID":40602},"geometry":{"x":167931.1400000006,"y":2542326.0700000022}},{"attributes":{"ID":40603,"DIS_CODE":0,"TOWNNAME":"南區","LI":"大成里","LIN":"7鄰","STREET":"健康路","SECT":"一段","MAREA":" ","LANE":"３９１巷","ALLEY":"２３弄","HOUSE_NO":"５號二樓","E_COORD97":167947.06,"N_COORD97":2542338.6800000002,"ADDRESS":"健康路一段３９１巷２３弄５號二樓","OBJECTID":40603},"geometry":{"x":167947.06000000052,"y":2542338.6800000016}},{"attributes":{"ID":40604,"DIS_CODE":0,"TOWNNAME":"東區","LI":"泉南里","LIN":"14鄰","STREET":"府連路","SECT":" ","MAREA":" ","LANE":"２４１巷","ALLEY":" ","HOUSE_NO":"６號","E_COORD97":169396.64999999999,"N_COORD97":2542915.52,"ADDRESS":"府連路２４１巷６號","OBJECTID":40604},"geometry":{"x":169396.6500000013,"y":2542915.5200000014}},{"attributes":{"ID":40605,"DIS_CODE":0,"TOWNNAME":"東區","LI":"泉南里","LIN":"14鄰","STREET":"府連路","SECT":" ","MAREA":" ","LANE":" ","ALLEY":" ","HOUSE_NO":"２４５號","E_COORD97":169411.35000000001,"N_COORD97":2542892.2599999998,"ADDRESS":"府連路２４５號","OBJECTID":40605},"geometry":{"x":169411.35000000056,"y":2542892.2599999998}},{"attributes":{"ID":40606,"DIS_CODE":0,"TOWNNAME":"南區","LI":"大成里","LIN":"7鄰","STREET":"健康路","SECT":"一段","MAREA":" ","LANE":"３９１巷","ALLEY":"２３弄","HOUSE_NO":"５號三樓","E_COORD97":167947.06,"N_COORD97":2542338.6800000002,"ADDRESS":"健康路一段３９１巷２３弄５號三樓","OBJECTID":40606},"geometry":{"x":167947.06000000052,"y":2542338.6800000016}},{"attributes":{"ID":40607,"DIS_CODE":0,"TOWNNAME":"南區","LI":"大成里","LIN":"7鄰","STREET":"健康路","SECT":"一段","MAREA":" ","LANE":"３９１巷","ALLEY":"２３弄","HOUSE_NO":"５號四樓","E_COORD97":167947.06,"N_COORD97":2542338.6800000002,"ADDRESS":"健康路一段３９１巷２３弄５號四樓","OBJECTID":40607},"geometry":{"x":167947.06000000052,"y":2542338.6800000016}},{"attributes":{"ID":40608,"DIS_CODE":0,"TOWNNAME":"南區","LI":"大成里","LIN":"7鄰","STREET":"健康路","SECT":"一段","MAREA":" ","LANE":"３９１巷","ALLEY":"２３弄","HOUSE_NO":"６號二樓","E_COORD97":167939.87,"N_COORD97":2542322.1600000001,"ADDRESS":"健康路一段３９１巷２３弄６號二樓","OBJECTID":40608},"geometry":{"x":167939.87000000104,"y":2542322.160000002}},{"attributes":{"ID":40609,"DIS_CODE":0,"TOWNNAME":"南區","LI":"大成里","LIN":"7鄰","STREET":"健康路","SECT":"一段","MAREA":" ","LANE":"３９１巷","ALLEY":"２３弄","HOUSE_NO":"６號三樓","E_COORD97":167939.87,"N_COORD97":2542322.1600000001,"ADDRESS":"健康路一段３９１巷２３弄６號三樓","OBJECTID":40609},"geometry":{"x":167939.87000000104,"y":2542322.160000002}},{"attributes":{"ID":40610,"DIS_CODE":0,"TOWNNAME":"南區","LI":"大成里","LIN":"7鄰","STREET":"健康路","SECT":"一段","MAREA":" ","LANE":"３９１巷","ALLEY":"２３弄","HOUSE_NO":"６號四樓","E_COORD97":167939.87,"N_COORD97":2542322.1600000001,"ADDRESS":"健康路一段３９１巷２３弄６號四樓","OBJECTID":40610},"geometry":{"x":167939.87000000104,"y":2542322.160000002}},{"attributes":{"ID":40611,"DIS_CODE":0,"TOWNNAME":"南區","LI":"大成里","LIN":"7鄰","STREET":"健康路","SECT":"一段","MAREA":" ","LANE":"３９１巷","ALLEY":"２３弄","HOUSE_NO":"７號二樓","E_COORD97":167956.01000000001,"N_COORD97":2542334.5499999998,"ADDRESS":"健康路一段３９１巷２３弄７號二樓","OBJECTID":40611},"geometry":{"x":167956.01000000071,"y":2542334.5500000026}},{"attributes":{"ID":40612,"DIS_CODE":0,"TOWNNAME":"南區","LI":"大成里","LIN":"7鄰","STREET":"健康路","SECT":"一段","MAREA":" ","LANE":"３９１巷","ALLEY":"２３弄","HOUSE_NO":"７號三樓","E_COORD97":167956.01000000001,"N_COORD97":2542334.5499999998,"ADDRESS":"健康路一段３９１巷２３弄７號三樓","OBJECTID":40612},"geometry":{"x":167956.01000000071,"y":2542334.5500000026}},{"attributes":{"ID":40613,"DIS_CODE":0,"TOWNNAME":"南區","LI":"大成里","LIN":"7鄰","STREET":"健康路","SECT":"一段","MAREA":" ","LANE":"３９１巷","ALLEY":"２３弄","HOUSE_NO":"７號四樓","E_COORD97":167956.01000000001,"N_COORD97":2542334.5499999998,"ADDRESS":"健康路一段３９１巷２３弄７號四樓","OBJECTID":40613},"geometry":{"x":167956.01000000071,"y":2542334.5500000026}},{"attributes":{"ID":40614,"DIS_CODE":0,"TOWNNAME":"南區","LI":"大成里","LIN":"7鄰","STREET":"健康路","SECT":"一段","MAREA":" ","LANE":"３９１巷","ALLEY":"２３弄","HOUSE_NO":"８號二樓","E_COORD97":167949.03,"N_COORD97":2542318.8900000001,"ADDRESS":"健康路一段３９１巷２３弄８號二樓","OBJECTID":40614},"geometry":{"x":167949.03000000212,"y":2542318.8900000006}},{"attributes":{"ID":40615,"DIS_CODE":0,"TOWNNAME":"南區","LI":"大成里","LIN":"7鄰","STREET":"健康路","SECT":"一段","MAREA":" ","LANE":"３９１巷","ALLEY":"２３弄","HOUSE_NO":"８號三樓","E_COORD97":167949.03,"N_COORD97":2542318.8900000001,"ADDRESS":"健康路一段３９１巷２３弄８號三樓","OBJECTID":40615},"geometry":{"x":167949.03000000212,"y":2542318.8900000006}},{"attributes":{"ID":40616,"DIS_CODE":0,"TOWNNAME":"新市區","LI":"新和里","LIN":"51鄰","STREET":"中正路","SECT":" ","MAREA":" ","LANE":"９２巷","ALLEY":"５弄","HOUSE_NO":"５號","E_COORD97":177506.51000000001,"N_COORD97":2552523.75,"ADDRESS":"中正路９２巷５弄５號","OBJECTID":40616},"geometry":{"x":177506.51000000071,"y":2552523.7500000019}},{"attributes":{"ID":40617,"DIS_CODE":0,"TOWNNAME":"南區","LI":"大成里","LIN":"7鄰","STREET":"健康路","SECT":"一段","MAREA":" ","LANE":"３９１巷","ALLEY":"２３弄","HOUSE_NO":"８號四樓","E_COORD97":167949.03,"N_COORD97":2542318.8900000001,"ADDRESS":"健康路一段３９１巷２３弄８號四樓","OBJECTID":40617},"geometry":{"x":167949.03000000212,"y":2542318.8900000006}},{"attributes":{"ID":40618,"DIS_CODE":0,"TOWNNAME":"東區","LI":"和平里","LIN":"7鄰","STREET":"東門路","SECT":"三段","MAREA":" ","LANE":"２２６巷","ALLEY":"７５弄","HOUSE_NO":"３號","E_COORD97":171543.57999999999,"N_COORD97":2541833.48,"ADDRESS":"東門路三段２２６巷７５弄３號","OBJECTID":40618},"geometry":{"x":171543.58000000007,"y":2541833.4800000004}},{"attributes":{"ID":40619,"DIS_CODE":0,"TOWNNAME":"北區","LI":"振興里","LIN":"7鄰","STREET":"開元路","SECT":" ","MAREA":" ","LANE":"１４８巷","ALLEY":"３３弄","HOUSE_NO":"２２號二樓之３","E_COORD97":170149.35999999999,"N_COORD97":2545132.6400000001,"ADDRESS":"開元路１４８巷３３弄２２號二樓之３","OBJECTID":40619},"geometry":{"x":170149.36000000127,"y":2545132.6400000043}},{"attributes":{"ID":40620,"DIS_CODE":0,"TOWNNAME":"後壁區","LI":"菁寮里","LIN":"1鄰","STREET":" ","SECT":" ","MAREA":"菁寮","LANE":" ","ALLEY":" ","HOUSE_NO":"６號之６","E_COORD97":181828.37,"N_COORD97":2586348.96,"ADDRESS":"菁寮６號之６","OBJECTID":40620},"geometry":{"x":181828.37000000197,"y":2586348.9600000028}},{"attributes":{"ID":40621,"DIS_CODE":0,"TOWNNAME":"北區","LI":"振興里","LIN":"7鄰","STREET":"開元路","SECT":" ","MAREA":" ","LANE":"１４８巷","ALLEY":"３３弄","HOUSE_NO":"２２號三樓之３","E_COORD97":170149.35999999999,"N_COORD97":2545132.6400000001,"ADDRESS":"開元路１４８巷３３弄２２號三樓之３","OBJECTID":40621},"geometry":{"x":170149.36000000127,"y":2545132.6400000043}},{"attributes":{"ID":40622,"DIS_CODE":0,"TOWNNAME":"北區","LI":"興南里","LIN":"7鄰","STREET":"公園北路","SECT":" ","MAREA":" ","LANE":"１１６巷","ALLEY":"２弄","HOUSE_NO":"１號二樓","E_COORD97":168978.09,"N_COORD97":2545096.1000000001,"ADDRESS":"公園北路１１６巷２弄１號二樓","OBJECTID":40622},"geometry":{"x":168978.08999999985,"y":2545096.1000000015}},{"attributes":{"ID":40623,"DIS_CODE":0,"TOWNNAME":"北區","LI":"興南里","LIN":"7鄰","STREET":"公園北路","SECT":" ","MAREA":" ","LANE":"１１６巷","ALLEY":"２弄","HOUSE_NO":"１號三樓","E_COORD97":168978.09,"N_COORD97":2545096.1000000001,"ADDRESS":"公園北路１１６巷２弄１號三樓","OBJECTID":40623},"geometry":{"x":168978.08999999985,"y":2545096.1000000015}},{"attributes":{"ID":40624,"DIS_CODE":0,"TOWNNAME":"北區","LI":"興南里","LIN":"7鄰","STREET":"公園北路","SECT":" ","MAREA":" ","LANE":"１１６巷","ALLEY":"２弄","HOUSE_NO":"１號之１二樓","E_COORD97":168975.56,"N_COORD97":2545089.9100000001,"ADDRESS":"公園北路１１６巷２弄１號之１二樓","OBJECTID":40624},"geometry":{"x":168975.56000000052,"y":2545089.910000002}},{"attributes":{"ID":40625,"DIS_CODE":0,"TOWNNAME":"北區","LI":"興南里","LIN":"7鄰","STREET":"公園北路","SECT":" ","MAREA":" ","LANE":"１１６巷","ALLEY":"２弄","HOUSE_NO":"１號之１三樓","E_COORD97":168975.56,"N_COORD97":2545089.9100000001,"ADDRESS":"公園北路１１６巷２弄１號之１三樓","OBJECTID":40625},"geometry":{"x":168975.56000000052,"y":2545089.910000002}},{"attributes":{"ID":40626,"DIS_CODE":0,"TOWNNAME":"北區","LI":"興南里","LIN":"7鄰","STREET":"公園北路","SECT":" ","MAREA":" ","LANE":"１１６巷","ALLEY":"２弄","HOUSE_NO":"１號之１五樓","E_COORD97":168975.56,"N_COORD97":2545089.9100000001,"ADDRESS":"公園北路１１６巷２弄１號之１五樓","OBJECTID":40626},"geometry":{"x":168975.56000000052,"y":2545089.910000002}},{"attributes":{"ID":40627,"DIS_CODE":0,"TOWNNAME":"北區","LI":"興南里","LIN":"7鄰","STREET":"公園北路","SECT":" ","MAREA":" ","LANE":"１１６巷","ALLEY":"２弄","HOUSE_NO":"１號之１四樓","E_COORD97":168975.56,"N_COORD97":2545089.9100000001,"ADDRESS":"公園北路１１６巷２弄１號之１四樓","OBJECTID":40627},"geometry":{"x":168975.56000000052,"y":2545089.910000002}},{"attributes":{"ID":40628,"DIS_CODE":0,"TOWNNAME":"北區","LI":"興南里","LIN":"7鄰","STREET":"公園北路","SECT":" ","MAREA":" ","LANE":"１１６巷","ALLEY":"２弄","HOUSE_NO":"１號五樓","E_COORD97":168978.09,"N_COORD97":2545096.1000000001,"ADDRESS":"公園北路１１６巷２弄１號五樓","OBJECTID":40628},"geometry":{"x":168978.08999999985,"y":2545096.1000000015}},{"attributes":{"ID":40629,"DIS_CODE":0,"TOWNNAME":"安南區","LI":"溪心里","LIN":"14鄰","STREET":"本原街","SECT":"二段","MAREA":" ","LANE":" ","ALLEY":" ","HOUSE_NO":"３８５號","E_COORD97":166208.09,"N_COORD97":2550582.9700000002,"ADDRESS":"本原街二段３８５號","OBJECTID":40629},"geometry":{"x":166208.08999999985,"y":2550582.9700000025}},{"attributes":{"ID":40630,"DIS_CODE":0,"TOWNNAME":"永康區","LI":"王行里","LIN":"14鄰","STREET":"興工路","SECT":" ","MAREA":" ","LANE":" ","ALLEY":" ","HOUSE_NO":"１７號","E_COORD97":175310.09,"N_COORD97":2549717.29,"ADDRESS":"興工路１７號","OBJECTID":40630},"geometry":{"x":175310.08999999985,"y":2549717.2900000028}},{"attributes":{"ID":40631,"DIS_CODE":0,"TOWNNAME":"永康區","LI":"王行里","LIN":"14鄰","STREET":"經中路","SECT":" ","MAREA":" ","LANE":" ","ALLEY":" ","HOUSE_NO":"１５號","E_COORD97":175183.01999999999,"N_COORD97":2549700.7400000002,"ADDRESS":"經中路１５號","OBJECTID":40631},"geometry":{"x":175183.01999999955,"y":2549700.7400000002}},{"attributes":{"ID":40632,"DIS_CODE":0,"TOWNNAME":"新化區","LI":"豐榮里","LIN":"4鄰","STREET":"中山路","SECT":" ","MAREA":" ","LANE":" ","ALLEY":" ","HOUSE_NO":"６７３號之１","E_COORD97":178073.94,"N_COORD97":2548486.2599999998,"ADDRESS":"中山路６７３號之１","OBJECTID":40632},"geometry":{"x":178073.94000000134,"y":2548486.2599999998}},{"attributes":{"ID":40633,"DIS_CODE":0,"TOWNNAME":"新化區","LI":"太平里","LIN":"13鄰","STREET":"太平街","SECT":" ","MAREA":" ","LANE":" ","ALLEY":" ","HOUSE_NO":"３０號","E_COORD97":178901.76999999999,"N_COORD97":2548810.25,"ADDRESS":"太平街３０號","OBJECTID":40633},"geometry":{"x":178901.76999999955,"y":2548810.2500000019}},{"attributes":{"ID":40634,"DIS_CODE":0,"TOWNNAME":"新化區","LI":"羊林里","LIN":"7鄰","STREET":" ","SECT":" ","MAREA":"洋子寮","LANE":" ","ALLEY":" ","HOUSE_NO":"１７號之１","E_COORD97":183848.60999999999,"N_COORD97":2550145.2599999998,"ADDRESS":"洋子寮１７號之１","OBJECTID":40634},"geometry":{"x":183848.61000000034,"y":2550145.2600000035}},{"attributes":{"ID":40635,"DIS_CODE":0,"TOWNNAME":"新化區","LI":"山\u25A0里","LIN":"7鄰","STREET":" ","SECT":" ","MAREA":"頂山\u25A0","LANE":" ","ALLEY":" ","HOUSE_NO":"６號之３","E_COORD97":179619.38,"N_COORD97":2546847.2599999998,"ADDRESS":"頂山\u25A0６號之３","OBJECTID":40635},"geometry":{"x":179619.38000000082,"y":2546847.2600000016}},{"attributes":{"ID":40636,"DIS_CODE":0,"TOWNNAME":"安定區","LI":"新吉里","LIN":"7鄰","STREET":" ","SECT":" ","MAREA":"新吉","LANE":" ","ALLEY":" ","HOUSE_NO":"５６之１６２號","E_COORD97":168659.12,"N_COORD97":2553699.6499999999,"ADDRESS":"新吉５６之１６２號","OBJECTID":40636},"geometry":{"x":168659.12000000104,"y":2553699.6500000041}},{"attributes":{"ID":40637,"DIS_CODE":0,"TOWNNAME":"北區","LI":"興南里","LIN":"7鄰","STREET":"公園北路","SECT":" ","MAREA":" ","LANE":"１１６巷","ALLEY":"２弄","HOUSE_NO":"１號四樓","E_COORD97":168978.09,"N_COORD97":2545096.1000000001,"ADDRESS":"公園北路１１６巷２弄１號四樓","OBJECTID":40637},"geometry":{"x":168978.08999999985,"y":2545096.1000000015}},{"attributes":{"ID":40638,"DIS_CODE":0,"TOWNNAME":"歸仁區","LI":"南保里","LIN":"60鄰","STREET":"中山路","SECT":"三段","MAREA":" ","LANE":"８１巷","ALLEY":"２弄","HOUSE_NO":"２２號","E_COORD97":176720.10000000001,"N_COORD97":2540839.7200000002,"ADDRESS":"中山路三段８１巷２弄２２號","OBJECTID":40638},"geometry":{"x":176720.09999999963,"y":2540839.7199999988}},{"attributes":{"ID":40639,"DIS_CODE":0,"TOWNNAME":"安定區","LI":"港尾里","LIN":"7鄰","STREET":" ","SECT":" ","MAREA":"港子尾","LANE":" ","ALLEY":" ","HOUSE_NO":"３７之１８號","E_COORD97":172047.28,"N_COORD97":2555836.2999999998,"ADDRESS":"港子尾３７之１８號","OBJECTID":40639},"geometry":{"x":172047.28000000026,"y":2555836.3000000026}},{"attributes":{"ID":40640,"DIS_CODE":0,"TOWNNAME":"新市區","LI":"三舍里","LIN":"7鄰","STREET":" ","SECT":" ","MAREA":"三舍","LANE":" ","ALLEY":" ","HOUSE_NO":"１７９之１７號","E_COORD97":177459.14000000001,"N_COORD97":2554805.2999999998,"ADDRESS":"三舍１７９之１７號","OBJECTID":40640},"geometry":{"x":177459.13999999873,"y":2554805.3000000026}},{"attributes":{"ID":40641,"DIS_CODE":0,"TOWNNAME":"龍崎區","LI":"石嘈里","LIN":"7鄰","STREET":" ","SECT":" ","MAREA":"石嘈","LANE":" ","ALLEY":" ","HOUSE_NO":"２８之１號","E_COORD97":189368.26999999999,"N_COORD97":2540394.2999999998,"ADDRESS":"石嘈２８之１號","OBJECTID":40641},"geometry":{"x":189368.26999999955,"y":2540394.3000000007}},{"attributes":{"ID":40642,"DIS_CODE":0,"TOWNNAME":"南區","LI":"南華里","LIN":"7鄰","STREET":"中華南路","SECT":"二段","MAREA":" ","LANE":"４００巷","ALLEY":"４弄","HOUSE_NO":"１０號二樓","E_COORD97":166451.72,"N_COORD97":2540353.4199999999,"ADDRESS":"中華南路二段４００巷４弄１０號二樓","OBJECTID":40642},"geometry":{"x":166451.71999999974,"y":2540353.4200000018}},{"attributes":{"ID":40643,"DIS_CODE":0,"TOWNNAME":"歸仁區","LI":"辜厝里","LIN":"4鄰","STREET":"民族南街","SECT":" ","MAREA":" ","LANE":"１８巷","ALLEY":"２７弄","HOUSE_NO":"１９號","E_COORD97":177360.34101800001,"N_COORD97":2540698.9889699998,"ADDRESS":"民族南街１８巷２７弄１９號","OBJECTID":40643},"geometry":{"x":177360.34101800062,"y":2540698.9889660012}},{"attributes":{"ID":40644,"DIS_CODE":0,"TOWNNAME":"楠西區","LI":"灣丘里","LIN":"7鄰","STREET":" ","SECT":" ","MAREA":"灣丘","LANE":" ","ALLEY":" ","HOUSE_NO":"５９號","E_COORD97":200595.57000000001,"N_COORD97":2564293.25,"ADDRESS":"灣丘５９號","OBJECTID":40644},"geometry":{"x":200595.5700000003,"y":2564293.25}},{"attributes":{"ID":40645,"DIS_CODE":0,"TOWNNAME":"南區","LI":"南華里","LIN":"7鄰","STREET":"中華南路","SECT":"二段","MAREA":" ","LANE":"４００巷","ALLEY":"４弄","HOUSE_NO":"１０號三樓","E_COORD97":166451.72,"N_COORD97":2540353.4199999999,"ADDRESS":"中華南路二段４００巷４弄１０號三樓","OBJECTID":40645},"geometry":{"x":166451.71999999974,"y":2540353.4200000018}},{"attributes":{"ID":40646,"DIS_CODE":0,"TOWNNAME":"楠西區","LI":"鹿田里","LIN":"7鄰","STREET":" ","SECT":" ","MAREA":"油車","LANE":" ","ALLEY":" ","HOUSE_NO":"１６號之９","E_COORD97":197744.16,"N_COORD97":2561993.2999999998,"ADDRESS":"油車１６號之９","OBJECTID":40646},"geometry":{"x":197744.15999999922,"y":2561993.3000000026}},{"attributes":{"ID":40647,"DIS_CODE":0,"TOWNNAME":"楠西區","LI":"龜丹里","LIN":"7鄰","STREET":" ","SECT":" ","MAREA":"龜丹","LANE":" ","ALLEY":" ","HOUSE_NO":"８５號之２","E_COORD97":199991.04000000001,"N_COORD97":2560221.2999999998,"ADDRESS":"龜丹８５號之２","OBJECTID":40647},"geometry":{"x":199991.0400000019,"y":2560221.3000000007}},{"attributes":{"ID":40648,"DIS_CODE":0,"TOWNNAME":"楠西區","LI":"龜丹里","LIN":"7鄰","STREET":" ","SECT":" ","MAREA":"龜丹","LANE":" ","ALLEY":" ","HOUSE_NO":"８５號之１","E_COORD97":199944.54000000001,"N_COORD97":2560203.2999999998,"ADDRESS":"龜丹８５號之１","OBJECTID":40648},"geometry":{"x":199944.54000000004,"y":2560203.3000000026}},{"attributes":{"ID":40649,"DIS_CODE":0,"TOWNNAME":"關廟區","LI":"布袋里","LIN":"7鄰","STREET":" ","SECT":" ","MAREA":"布袋","LANE":" ","ALLEY":" ","HOUSE_NO":"７０之１號","E_COORD97":183286.94,"N_COORD97":2534527.2999999998,"ADDRESS":"布袋７０之１號","OBJECTID":40649},"geometry":{"x":183286.94000000041,"y":2534527.3000000026}},{"attributes":{"ID":40650,"DIS_CODE":0,"TOWNNAME":"南區","LI":"南華里","LIN":"7鄰","STREET":"中華南路","SECT":"二段","MAREA":" ","LANE":"４００巷","ALLEY":"４弄","HOUSE_NO":"１０號五樓","E_COORD97":166451.72,"N_COORD97":2540353.4199999999,"ADDRESS":"中華南路二段４００巷４弄１０號五樓","OBJECTID":40650},"geometry":{"x":166451.71999999974,"y":2540353.4200000018}},{"attributes":{"ID":40651,"DIS_CODE":0,"TOWNNAME":"關廟區","LI":"深坑里","LIN":"7鄰","STREET":"南雄路","SECT":"一段","MAREA":" ","LANE":" ","ALLEY":" ","HOUSE_NO":"４４２號","E_COORD97":181708.97,"N_COORD97":2537716.2999999998,"ADDRESS":"南雄路一段４４２號","OBJECTID":40651},"geometry":{"x":181708.97000000067,"y":2537716.3000000007}},{"attributes":{"ID":40652,"DIS_CODE":0,"TOWNNAME":"南區","LI":"南華里","LIN":"7鄰","STREET":"中華南路","SECT":"二段","MAREA":" ","LANE":"４００巷","ALLEY":"４弄","HOUSE_NO":"１０號四樓","E_COORD97":166451.72,"N_COORD97":2540353.4199999999,"ADDRESS":"中華南路二段４００巷４弄１０號四樓","OBJECTID":40652},"geometry":{"x":166451.71999999974,"y":2540353.4200000018}},{"attributes":{"ID":40653,"DIS_CODE":0,"TOWNNAME":"南區","LI":"南華里","LIN":"7鄰","STREET":"中華南路","SECT":"二段","MAREA":" ","LANE":"４００巷","ALLEY":"４弄","HOUSE_NO":"１２號二樓","E_COORD97":166460.85999999999,"N_COORD97":2540353.1899999999,"ADDRESS":"中華南路二段４００巷４弄１２號二樓","OBJECTID":40653},"geometry":{"x":166460.86000000127,"y":2540353.1899999995}},{"attributes":{"ID":40654,"DIS_CODE":0,"TOWNNAME":"南區","LI":"南華里","LIN":"7鄰","STREET":"中華南路","SECT":"二段","MAREA":" ","LANE":"４００巷","ALLEY":"４弄","HOUSE_NO":"１２號三樓","E_COORD97":166460.85999999999,"N_COORD97":2540353.1899999999,"ADDRESS":"中華南路二段４００巷４弄１２號三樓","OBJECTID":40654},"geometry":{"x":166460.86000000127,"y":2540353.1899999995}},{"attributes":{"ID":40655,"DIS_CODE":0,"TOWNNAME":"南區","LI":"府南里","LIN":"14鄰","STREET":"永成路","SECT":"三段","MAREA":" ","LANE":" ","ALLEY":" ","HOUSE_NO":"３２６號","E_COORD97":167506.071287,"N_COORD97":2540929.3767200001,"ADDRESS":"永成路三段３２６號","OBJECTID":40655},"geometry":{"x":167506.07128700055,"y":2540929.3767240029}},{"attributes":{"ID":40656,"DIS_CODE":0,"TOWNNAME":"永康區","LI":"王行里","LIN":"14鄰","STREET":"經華路","SECT":" ","MAREA":" ","LANE":" ","ALLEY":" ","HOUSE_NO":"１１號","E_COORD97":175183.25,"N_COORD97":2549487.7400000002,"ADDRESS":"經華路１１號","OBJECTID":40656},"geometry":{"x":175183.25,"y":2549487.7400000002}},{"attributes":{"ID":40657,"DIS_CODE":0,"TOWNNAME":"永康區","LI":"三民里","LIN":"14鄰","STREET":"中正北路","SECT":" ","MAREA":" ","LANE":" ","ALLEY":" ","HOUSE_NO":"９９９號","E_COORD97":175372.42000000001,"N_COORD97":2550483.75,"ADDRESS":"中正北路９９９號","OBJECTID":40657},"geometry":{"x":175372.41999999899,"y":2550483.75}},{"attributes":{"ID":40658,"DIS_CODE":0,"TOWNNAME":"關廟區","LI":"龜洞里","LIN":"7鄰","STREET":"南雄南路","SECT":" ","MAREA":" ","LANE":"７８１巷","ALLEY":"１６弄","HOUSE_NO":"１５號","E_COORD97":183067.73999999999,"N_COORD97":2533097.2999999998,"ADDRESS":"南雄南路７８１巷１６弄１５號","OBJECTID":40658},"geometry":{"x":183067.74000000022,"y":2533097.3000000026}},{"attributes":{"ID":40659,"DIS_CODE":0,"TOWNNAME":"關廟區","LI":"埤頭里","LIN":"7鄰","STREET":"關新路","SECT":"二段","MAREA":" ","LANE":"２３巷","ALLEY":"１弄","HOUSE_NO":"９號","E_COORD97":179010.87,"N_COORD97":2544066.2999999998,"ADDRESS":"關新路二段２３巷１弄９號","OBJECTID":40659},"geometry":{"x":179010.86999999918,"y":2544066.3000000007}},{"attributes":{"ID":40660,"DIS_CODE":0,"TOWNNAME":"關廟區","LI":"埤頭里","LIN":"7鄰","STREET":"關新路","SECT":"二段","MAREA":" ","LANE":"５１巷","ALLEY":"５１弄","HOUSE_NO":"１６號","E_COORD97":178914.57000000001,"N_COORD97":2544080.2999999998,"ADDRESS":"關新路二段５１巷５１弄１６號","OBJECTID":40660},"geometry":{"x":178914.5700000003,"y":2544080.3000000007}},{"attributes":{"ID":40661,"DIS_CODE":0,"TOWNNAME":"關廟區","LI":"深坑里","LIN":"7鄰","STREET":"南雄路","SECT":"一段","MAREA":" ","LANE":" ","ALLEY":" ","HOUSE_NO":"４５６號","E_COORD97":181705.47,"N_COORD97":2537735.2999999998,"ADDRESS":"南雄路一段４５６號","OBJECTID":40661},"geometry":{"x":181705.47000000067,"y":2537735.3000000026}},{"attributes":{"ID":40662,"DIS_CODE":0,"TOWNNAME":"關廟區","LI":"深坑里","LIN":"7鄰","STREET":"南雄路","SECT":"一段","MAREA":" ","LANE":" ","ALLEY":" ","HOUSE_NO":"４７５號","E_COORD97":181672.47,"N_COORD97":2537734.2999999998,"ADDRESS":"南雄路一段４７５號","OBJECTID":40662},"geometry":{"x":181672.46999999974,"y":2537734.3000000026}},{"attributes":{"ID":40663,"DIS_CODE":0,"TOWNNAME":"關廟區","LI":"布袋里","LIN":"7鄰","STREET":"南雄南路","SECT":" ","MAREA":" ","LANE":" ","ALLEY":" ","HOUSE_NO":"４３５號","E_COORD97":183801.89000000001,"N_COORD97":2534529.2999999998,"ADDRESS":"南雄南路４３５號","OBJECTID":40663},"geometry":{"x":183801.88999999966,"y":2534529.3000000007}},{"attributes":{"ID":40664,"DIS_CODE":0,"TOWNNAME":"永康區","LI":"王行里","LIN":"14鄰","STREET":"環工路","SECT":" ","MAREA":" ","LANE":" ","ALLEY":" ","HOUSE_NO":"１５之２號","E_COORD97":175651.97,"N_COORD97":2549826.3900000001,"ADDRESS":"環工路１５之２號","OBJECTID":40664},"geometry":{"x":175651.97000000067,"y":2549826.3899999987}},{"attributes":{"ID":40665,"DIS_CODE":0,"TOWNNAME":"永康區","LI":"\u25A0洲里","LIN":"14鄰","STREET":"\u25A0洲一街","SECT":" ","MAREA":" ","LANE":" ","ALLEY":" ","HOUSE_NO":"５０號","E_COORD97":171572.97,"N_COORD97":2549032.0600000001,"ADDRESS":"\u25A0洲一街５０號","OBJECTID":40665},"geometry":{"x":171572.96999999881,"y":2549032.0600000042}},{"attributes":{"ID":40666,"DIS_CODE":0,"TOWNNAME":"永康區","LI":"復國里","LIN":"14鄰","STREET":"復國二路","SECT":" ","MAREA":" ","LANE":" ","ALLEY":" ","HOUSE_NO":"１３６號","E_COORD97":172904.45999999999,"N_COORD97":2545584.0299999998,"ADDRESS":"復國二路１３６號","OBJECTID":40666},"geometry":{"x":172904.46000000089,"y":2545584.0300000012}},{"attributes":{"ID":40667,"DIS_CODE":0,"TOWNNAME":"永康區","LI":"復國里","LIN":"14鄰","STREET":"復國二路","SECT":" ","MAREA":" ","LANE":" ","ALLEY":" ","HOUSE_NO":"１８０號","E_COORD97":172931.06,"N_COORD97":2545707.5299999998,"ADDRESS":"復國二路１８０號","OBJECTID":40667},"geometry":{"x":172931.05999999959,"y":2545707.5299999993}},{"attributes":{"ID":40668,"DIS_CODE":0,"TOWNNAME":"善化區","LI":"胡厝里","LIN":"14鄰","STREET":" ","SECT":" ","MAREA":"胡厝寮","LANE":" ","ALLEY":" ","HOUSE_NO":"２３２之１號","E_COORD97":174943.95000000001,"N_COORD97":2560267.02,"ADDRESS":"胡厝寮２３２之１號","OBJECTID":40668},"geometry":{"x":174943.95000000112,"y":2560267.0200000033}},{"attributes":{"ID":40669,"DIS_CODE":0,"TOWNNAME":"善化區","LI":"胡家里","LIN":"14鄰","STREET":" ","SECT":" ","MAREA":"胡厝寮","LANE":" ","ALLEY":" ","HOUSE_NO":"１３４號","E_COORD97":175391.29999999999,"N_COORD97":2560831.75,"ADDRESS":"胡厝寮１３４號","OBJECTID":40669},"geometry":{"x":175391.29999999981,"y":2560831.75}},{"attributes":{"ID":40670,"DIS_CODE":0,"TOWNNAME":"南區","LI":"南華里","LIN":"7鄰","STREET":"中華南路","SECT":"二段","MAREA":" ","LANE":"４００巷","ALLEY":"４弄","HOUSE_NO":"１２號五樓","E_COORD97":166460.85999999999,"N_COORD97":2540353.1899999999,"ADDRESS":"中華南路二段４００巷４弄１２號五樓","OBJECTID":40670},"geometry":{"x":166460.86000000127,"y":2540353.1899999995}},{"attributes":{"ID":40671,"DIS_CODE":0,"TOWNNAME":"善化區","LI":"胡厝里","LIN":"14鄰","STREET":" ","SECT":" ","MAREA":"胡厝寮","LANE":" ","ALLEY":" ","HOUSE_NO":"２３２號","E_COORD97":174949.70999999999,"N_COORD97":2560274.25,"ADDRESS":"胡厝寮２３２號","OBJECTID":40671},"geometry":{"x":174949.70999999996,"y":2560274.2500000019}},{"attributes":{"ID":40672,"DIS_CODE":0,"TOWNNAME":"關廟區","LI":"龜洞里","LIN":"7鄰","STREET":"南雄南路","SECT":" ","MAREA":" ","LANE":" ","ALLEY":" ","HOUSE_NO":"７０３號","E_COORD97":183368.23999999999,"N_COORD97":2533464.2999999998,"ADDRESS":"南雄南路７０３號","OBJECTID":40672},"geometry":{"x":183368.24000000022,"y":2533464.3000000007}},{"attributes":{"ID":40673,"DIS_CODE":0,"TOWNNAME":"善化區","LI":"胡家里","LIN":"14鄰","STREET":" ","SECT":" ","MAREA":"胡厝寮","LANE":" ","ALLEY":" ","HOUSE_NO":"１２７之１號","E_COORD97":175474.54999999999,"N_COORD97":2560869.52,"ADDRESS":"胡厝寮１２７之１號","OBJECTID":40673},"geometry":{"x":175474.54999999981,"y":2560869.5199999996}},{"attributes":{"ID":40674,"DIS_CODE":0,"TOWNNAME":"南區","LI":"南華里","LIN":"7鄰","STREET":"中華南路","SECT":"二段","MAREA":" ","LANE":"４００巷","ALLEY":"４弄","HOUSE_NO":"１２號四樓","E_COORD97":166460.85999999999,"N_COORD97":2540353.1899999999,"ADDRESS":"中華南路二段４００巷４弄１２號四樓","OBJECTID":40674},"geometry":{"x":166460.86000000127,"y":2540353.1899999995}},{"attributes":{"ID":40675,"DIS_CODE":0,"TOWNNAME":"南區","LI":"南華里","LIN":"7鄰","STREET":"中華南路","SECT":"二段","MAREA":" ","LANE":"４００巷","ALLEY":"４弄","HOUSE_NO":"１４號二樓","E_COORD97":166470.57999999999,"N_COORD97":2540353.1899999999,"ADDRESS":"中華南路二段４００巷４弄１４號二樓","OBJECTID":40675},"geometry":{"x":166470.58000000101,"y":2540353.1899999995}},{"attributes":{"ID":40676,"DIS_CODE":0,"TOWNNAME":"南區","LI":"南華里","LIN":"7鄰","STREET":"中華南路","SECT":"二段","MAREA":" ","LANE":"４００巷","ALLEY":"４弄","HOUSE_NO":"１４號三樓","E_COORD97":166470.57999999999,"N_COORD97":2540353.1899999999,"ADDRESS":"中華南路二段４００巷４弄１４號三樓","OBJECTID":40676},"geometry":{"x":166470.58000000101,"y":2540353.1899999995}},{"attributes":{"ID":40677,"DIS_CODE":0,"TOWNNAME":"南區","LI":"南華里","LIN":"7鄰","STREET":"中華南路","SECT":"二段","MAREA":" ","LANE":"４００巷","ALLEY":"４弄","HOUSE_NO":"１４號五樓","E_COORD97":166470.57999999999,"N_COORD97":2540353.1899999999,"ADDRESS":"中華南路二段４００巷４弄１４號五樓","OBJECTID":40677},"geometry":{"x":166470.58000000101,"y":2540353.1899999995}},{"attributes":{"ID":40678,"DIS_CODE":0,"TOWNNAME":"南區","LI":"南華里","LIN":"7鄰","STREET":"中華南路","SECT":"二段","MAREA":" ","LANE":"４００巷","ALLEY":"４弄","HOUSE_NO":"１４號四樓","E_COORD97":166470.57999999999,"N_COORD97":2540353.1899999999,"ADDRESS":"中華南路二段４００巷４弄１４號四樓","OBJECTID":40678},"geometry":{"x":166470.58000000101,"y":2540353.1899999995}},{"attributes":{"ID":40679,"DIS_CODE":0,"TOWNNAME":"南區","LI":"南華里","LIN":"7鄰","STREET":"中華南路","SECT":"二段","MAREA":" ","LANE":"４００巷","ALLEY":"４弄","HOUSE_NO":"１６號二樓","E_COORD97":166478.78,"N_COORD97":2540353.6499999999,"ADDRESS":"中華南路二段４００巷４弄１６號二樓","OBJECTID":40679},"geometry":{"x":166478.78000000026,"y":2540353.6500000004}},{"attributes":{"ID":40680,"DIS_CODE":0,"TOWNNAME":"南區","LI":"南華里","LIN":"7鄰","STREET":"中華南路","SECT":"二段","MAREA":" ","LANE":"４００巷","ALLEY":"４弄","HOUSE_NO":"１６號三樓","E_COORD97":166478.78,"N_COORD97":2540353.6499999999,"ADDRESS":"中華南路二段４００巷４弄１６號三樓","OBJECTID":40680},"geometry":{"x":166478.78000000026,"y":2540353.6500000004}},{"attributes":{"ID":40681,"DIS_CODE":0,"TOWNNAME":"南區","LI":"南華里","LIN":"7鄰","STREET":"中華南路","SECT":"二段","MAREA":" ","LANE":"４００巷","ALLEY":"４弄","HOUSE_NO":"１６號五樓","E_COORD97":166478.78,"N_COORD97":2540353.6499999999,"ADDRESS":"中華南路二段４００巷４弄１６號五樓","OBJECTID":40681},"geometry":{"x":166478.78000000026,"y":2540353.6500000004}},{"attributes":{"ID":40682,"DIS_CODE":0,"TOWNNAME":"安南區","LI":"大安里","LIN":"14鄰","STREET":"義安街","SECT":" ","MAREA":" ","LANE":"８６巷","ALLEY":" ","HOUSE_NO":"２０號","E_COORD97":167483.81,"N_COORD97":2548016.7999999998,"ADDRESS":"義安街８６巷２０號","OBJECTID":40682},"geometry":{"x":167483.81000000052,"y":2548016.8000000045}},{"attributes":{"ID":40683,"DIS_CODE":0,"TOWNNAME":"安南區","LI":"大安里","LIN":"14鄰","STREET":"義安街","SECT":" ","MAREA":" ","LANE":" ","ALLEY":" ","HOUSE_NO":"９９號","E_COORD97":167437.70000000001,"N_COORD97":2548085.5699999998,"ADDRESS":"義安街９９號","OBJECTID":40683},"geometry":{"x":167437.70000000112,"y":2548085.5699999984}},{"attributes":{"ID":40684,"DIS_CODE":0,"TOWNNAME":"善化區","LI":"胡家里","LIN":"14鄰","STREET":" ","SECT":" ","MAREA":"胡厝寮","LANE":" ","ALLEY":" ","HOUSE_NO":"１３２號之２","E_COORD97":175397.76999999999,"N_COORD97":2560756.02,"ADDRESS":"胡厝寮１３２號之２","OBJECTID":40684},"geometry":{"x":175397.76999999955,"y":2560756.0200000014}},{"attributes":{"ID":40685,"DIS_CODE":0,"TOWNNAME":"安南區","LI":"大安里","LIN":"14鄰","STREET":"義安街","SECT":" ","MAREA":" ","LANE":" ","ALLEY":" ","HOUSE_NO":"１０９號","E_COORD97":167448.73999999999,"N_COORD97":2548105.5,"ADDRESS":"義安街１０９號","OBJECTID":40685},"geometry":{"x":167448.74000000022,"y":2548105.5}},{"attributes":{"ID":40686,"DIS_CODE":0,"TOWNNAME":"東區","LI":"崇文里","LIN":"14鄰","STREET":"崇德十九街","SECT":" ","MAREA":" ","LANE":" ","ALLEY":" ","HOUSE_NO":"６３號","E_COORD97":171020.12,"N_COORD97":2540997.3999999999,"ADDRESS":"崇德十九街６３號","OBJECTID":40686},"geometry":{"x":171020.12000000104,"y":2540997.4000000004}},{"attributes":{"ID":40687,"DIS_CODE":0,"TOWNNAME":"善化區","LI":"東關里","LIN":"14鄰","STREET":"自由路","SECT":" ","MAREA":" ","LANE":" ","ALLEY":" ","HOUSE_NO":"１８號","E_COORD97":177384.38,"N_COORD97":2558965.5,"ADDRESS":"自由路１８號","OBJECTID":40687},"geometry":{"x":177384.37999999989,"y":2558965.4999999981}},{"attributes":{"ID":40688,"DIS_CODE":0,"TOWNNAME":"善化區","LI":"東關里","LIN":"14鄰","STREET":"自由路","SECT":" ","MAREA":" ","LANE":" ","ALLEY":" ","HOUSE_NO":"１０號","E_COORD97":177406.82999999999,"N_COORD97":2558964.5,"ADDRESS":"自由路１０號","OBJECTID":40688},"geometry":{"x":177406.83000000007,"y":2558964.5}},{"attributes":{"ID":40689,"DIS_CODE":0,"TOWNNAME":"歸仁區","LI":"崙頂里","LIN":"8鄰","STREET":"崙頂三街","SECT":" ","MAREA":" ","LANE":" ","ALLEY":" ","HOUSE_NO":"１２２號","E_COORD97":178095.82000000001,"N_COORD97":2539917.6800000002,"ADDRESS":"崙頂三街１２２號","OBJECTID":40689},"geometry":{"x":178095.8200000003,"y":2539917.6800000016}},{"attributes":{"ID":40690,"DIS_CODE":0,"TOWNNAME":"歸仁區","LI":"許厝里","LIN":"8鄰","STREET":"公園路","SECT":" ","MAREA":" ","LANE":" ","ALLEY":" ","HOUSE_NO":"２２號","E_COORD97":178210.32999999999,"N_COORD97":2540580.7999999998,"ADDRESS":"公園路２２號","OBJECTID":40690},"geometry":{"x":178210.33000000007,"y":2540580.8000000007}},{"attributes":{"ID":40691,"DIS_CODE":0,"TOWNNAME":"善化區","LI":"胡家里","LIN":"14鄰","STREET":" ","SECT":" ","MAREA":"胡厝寮","LANE":" ","ALLEY":" ","HOUSE_NO":"１２７號","E_COORD97":175462.04999999999,"N_COORD97":2560841.25,"ADDRESS":"胡厝寮１２７號","OBJECTID":40691},"geometry":{"x":175462.05000000075,"y":2560841.25}},{"attributes":{"ID":40692,"DIS_CODE":0,"TOWNNAME":"善化區","LI":"溪美里","LIN":"14鄰","STREET":" ","SECT":" ","MAREA":"溪尾","LANE":" ","ALLEY":" ","HOUSE_NO":"１３１號之１","E_COORD97":176934.39999999999,"N_COORD97":2561400.52,"ADDRESS":"溪尾１３１號之１","OBJECTID":40692},"geometry":{"x":176934.40000000224,"y":2561400.5200000014}},{"attributes":{"ID":40693,"DIS_CODE":0,"TOWNNAME":"善化區","LI":"胡家里","LIN":"14鄰","STREET":" ","SECT":" ","MAREA":"胡厝寮","LANE":" ","ALLEY":" ","HOUSE_NO":"１２５之３號","E_COORD97":175461.14000000001,"N_COORD97":2560795.77,"ADDRESS":"胡厝寮１２５之３號","OBJECTID":40693},"geometry":{"x":175461.1400000006,"y":2560795.7700000014}},{"attributes":{"ID":40694,"DIS_CODE":0,"TOWNNAME":"善化區","LI":"溪美里","LIN":"14鄰","STREET":" ","SECT":" ","MAREA":"溪尾","LANE":" ","ALLEY":" ","HOUSE_NO":"１２９號","E_COORD97":176905.20999999999,"N_COORD97":2561431.27,"ADDRESS":"溪尾１２９號","OBJECTID":40694},"geometry":{"x":176905.21000000089,"y":2561431.2699999977}},{"attributes":{"ID":40695,"DIS_CODE":0,"TOWNNAME":"善化區","LI":"胡家里","LIN":"14鄰","STREET":" ","SECT":" ","MAREA":"胡厝寮","LANE":" ","ALLEY":" ","HOUSE_NO":"１２７號之３","E_COORD97":175446.28,"N_COORD97":2560835.52,"ADDRESS":"胡厝寮１２７號之３","OBJECTID":40695},"geometry":{"x":175446.28000000026,"y":2560835.5199999996}},{"attributes":{"ID":40696,"DIS_CODE":0,"TOWNNAME":"善化區","LI":"胡家里","LIN":"14鄰","STREET":" ","SECT":" ","MAREA":"胡厝寮","LANE":" ","ALLEY":" ","HOUSE_NO":"１２５之４號","E_COORD97":175461.75,"N_COORD97":2560791.77,"ADDRESS":"胡厝寮１２５之４號","OBJECTID":40696},"geometry":{"x":175461.75,"y":2560791.7700000014}},{"attributes":{"ID":40697,"DIS_CODE":0,"TOWNNAME":"善化區","LI":"溪美里","LIN":"14鄰","STREET":" ","SECT":" ","MAREA":"溪尾","LANE":" ","ALLEY":" ","HOUSE_NO":"１２６號","E_COORD97":176875.57999999999,"N_COORD97":2561340.52,"ADDRESS":"溪尾１２６號","OBJECTID":40697},"geometry":{"x":176875.58000000101,"y":2561340.5199999996}},{"attributes":{"ID":40698,"DIS_CODE":0,"TOWNNAME":"善化區","LI":"胡厝里","LIN":"14鄰","STREET":" ","SECT":" ","MAREA":"胡厝寮","LANE":" ","ALLEY":" ","HOUSE_NO":"２２８號之２","E_COORD97":175021.48999999999,"N_COORD97":2560150.27,"ADDRESS":"胡厝寮２２８號之２","OBJECTID":40698},"geometry":{"x":175021.49000000209,"y":2560150.2700000014}},{"attributes":{"ID":40699,"DIS_CODE":0,"TOWNNAME":"善化區","LI":"牛庄里","LIN":"14鄰","STREET":" ","SECT":" ","MAREA":"牛庄","LANE":" ","ALLEY":" ","HOUSE_NO":"１４６號之１","E_COORD97":180009.32000000001,"N_COORD97":2559724.02,"ADDRESS":"牛庄１４６號之１","OBJECTID":40699},"geometry":{"x":180009.3200000003,"y":2559724.0199999996}},{"attributes":{"ID":40700,"DIS_CODE":0,"TOWNNAME":"善化區","LI":"牛庄里","LIN":"14鄰","STREET":" ","SECT":" ","MAREA":"牛庄","LANE":" ","ALLEY":" ","HOUSE_NO":"１４７之２２號","E_COORD97":179972.04999999999,"N_COORD97":2559772.77,"ADDRESS":"牛庄１４７之２２號","OBJECTID":40700},"geometry":{"x":179972.04999999981,"y":2559772.7699999996}},{"attributes":{"ID":40701,"DIS_CODE":0,"TOWNNAME":"善化區","LI":"牛庄里","LIN":"14鄰","STREET":" ","SECT":" ","MAREA":"牛庄","LANE":" ","ALLEY":" ","HOUSE_NO":"１４７之２０號","E_COORD97":179972.70000000001,"N_COORD97":2559763.77,"ADDRESS":"牛庄１４７之２０號","OBJECTID":40701},"geometry":{"x":179972.70000000019,"y":2559763.7700000014}},{"attributes":{"ID":40702,"DIS_CODE":0,"TOWNNAME":"東區","LI":"崇誨里","LIN":"28鄰","STREET":"裕豐街","SECT":" ","MAREA":" ","LANE":"１８５巷","ALLEY":"１２弄","HOUSE_NO":"１９號五樓","E_COORD97":170723.67000000001,"N_COORD97":2543256.0299999998,"ADDRESS":"裕豐街１８５巷１２弄１９號五樓","OBJECTID":40702},"geometry":{"x":170723.66999999993,"y":2543256.0299999993}},{"attributes":{"ID":40703,"DIS_CODE":0,"TOWNNAME":"善化區","LI":"小新里","LIN":"14鄰","STREET":" ","SECT":" ","MAREA":"小新營","LANE":" ","ALLEY":" ","HOUSE_NO":"１１９號之４","E_COORD97":179751.48999999999,"N_COORD97":2558192.02,"ADDRESS":"小新營１１９號之４","OBJECTID":40703},"geometry":{"x":179751.49000000115,"y":2558192.0200000033}},{"attributes":{"ID":40704,"DIS_CODE":0,"TOWNNAME":"善化區","LI":"牛庄里","LIN":"14鄰","STREET":" ","SECT":" ","MAREA":"牛庄","LANE":" ","ALLEY":" ","HOUSE_NO":"１４７號之３","E_COORD97":179943.17999999999,"N_COORD97":2559722.52,"ADDRESS":"牛庄１４７號之３","OBJECTID":40704},"geometry":{"x":179943.18000000063,"y":2559722.5200000014}},{"attributes":{"ID":40705,"DIS_CODE":0,"TOWNNAME":"新化區","LI":"武安里","LIN":"8鄰","STREET":"和平街","SECT":" ","MAREA":" ","LANE":" ","ALLEY":" ","HOUSE_NO":"１５６號","E_COORD97":178911.12,"N_COORD97":2548242.25,"ADDRESS":"和平街１５６號","OBJECTID":40705},"geometry":{"x":178911.12000000104,"y":2548242.25}},{"attributes":{"ID":40706,"DIS_CODE":0,"TOWNNAME":"新營區","LI":"角帶里","LIN":"8鄰","STREET":" ","SECT":" ","MAREA":"角帶圍","LANE":" ","ALLEY":" ","HOUSE_NO":"９１號","E_COORD97":174867.39000000001,"N_COORD97":2575604.3900000001,"ADDRESS":"角帶圍９１號","OBJECTID":40706},"geometry":{"x":174867.39000000153,"y":2575604.3900000025}},{"attributes":{"ID":40707,"DIS_CODE":0,"TOWNNAME":"南區","LI":"南華里","LIN":"7鄰","STREET":"中華南路","SECT":"二段","MAREA":" ","LANE":"４００巷","ALLEY":"４弄","HOUSE_NO":"１６號四樓","E_COORD97":166478.78,"N_COORD97":2540353.6499999999,"ADDRESS":"中華南路二段４００巷４弄１６號四樓","OBJECTID":40707},"geometry":{"x":166478.78000000026,"y":2540353.6500000004}},{"attributes":{"ID":40708,"DIS_CODE":0,"TOWNNAME":"南區","LI":"南華里","LIN":"7鄰","STREET":"中華南路","SECT":"二段","MAREA":" ","LANE":"４００巷","ALLEY":"４弄","HOUSE_NO":"２號二樓","E_COORD97":166418.69,"N_COORD97":2540353.54,"ADDRESS":"中華南路二段４００巷４弄２號二樓","OBJECTID":40708},"geometry":{"x":166418.69000000041,"y":2540353.5399999991}},{"attributes":{"ID":40709,"DIS_CODE":0,"TOWNNAME":"南區","LI":"南華里","LIN":"7鄰","STREET":"中華南路","SECT":"二段","MAREA":" ","LANE":"４００巷","ALLEY":"４弄","HOUSE_NO":"２號三樓","E_COORD97":166418.69,"N_COORD97":2540353.54,"ADDRESS":"中華南路二段４００巷４弄２號三樓","OBJECTID":40709},"geometry":{"x":166418.69000000041,"y":2540353.5399999991}},{"attributes":{"ID":40710,"DIS_CODE":0,"TOWNNAME":"南化區","LI":"北寮里","LIN":"7鄰","STREET":" ","SECT":" ","MAREA":"北寮","LANE":" ","ALLEY":" ","HOUSE_NO":"１１０之２７號","E_COORD97":198237.69,"N_COORD97":2552819.7999999998,"ADDRESS":"北寮１１０之２７號","OBJECTID":40710},"geometry":{"x":198237.69000000227,"y":2552819.8000000007}},{"attributes":{"ID":40711,"DIS_CODE":0,"TOWNNAME":"南化區","LI":"北寮里","LIN":"7鄰","STREET":" ","SECT":" ","MAREA":"北寮","LANE":" ","ALLEY":" ","HOUSE_NO":"１１０之１８號","E_COORD97":198032.79000000001,"N_COORD97":2552913.7999999998,"ADDRESS":"北寮１１０之１８號","OBJECTID":40711},"geometry":{"x":198032.79000000004,"y":2552913.8000000026}},{"attributes":{"ID":40712,"DIS_CODE":0,"TOWNNAME":"南化區","LI":"北寮里","LIN":"7鄰","STREET":" ","SECT":" ","MAREA":"北寮","LANE":" ","ALLEY":" ","HOUSE_NO":"１１０之２２號","E_COORD97":198052.48999999999,"N_COORD97":2552903.7999999998,"ADDRESS":"北寮１１０之２２號","OBJECTID":40712},"geometry":{"x":198052.49000000115,"y":2552903.8000000026}},{"attributes":{"ID":40713,"DIS_CODE":0,"TOWNNAME":"南區","LI":"南華里","LIN":"7鄰","STREET":"中華南路","SECT":"二段","MAREA":" ","LANE":"４００巷","ALLEY":"４弄","HOUSE_NO":"２號五樓","E_COORD97":166418.69,"N_COORD97":2540353.54,"ADDRESS":"中華南路二段４００巷４弄２號五樓","OBJECTID":40713},"geometry":{"x":166418.69000000041,"y":2540353.5399999991}},{"attributes":{"ID":40714,"DIS_CODE":0,"TOWNNAME":"南化區","LI":"北寮里","LIN":"7鄰","STREET":" ","SECT":" ","MAREA":"北寮","LANE":" ","ALLEY":" ","HOUSE_NO":"１１０之１５號","E_COORD97":198018.29000000001,"N_COORD97":2552925.7999999998,"ADDRESS":"北寮１１０之１５號","OBJECTID":40714},"geometry":{"x":198018.29000000097,"y":2552925.8000000007}},{"attributes":{"ID":40715,"DIS_CODE":0,"TOWNNAME":"南區","LI":"南華里","LIN":"7鄰","STREET":"中華南路","SECT":"二段","MAREA":" ","LANE":"４００巷","ALLEY":"４弄","HOUSE_NO":"２號四樓","E_COORD97":166418.69,"N_COORD97":2540353.54,"ADDRESS":"中華南路二段４００巷４弄２號四樓","OBJECTID":40715},"geometry":{"x":166418.69000000041,"y":2540353.5399999991}},{"attributes":{"ID":40716,"DIS_CODE":0,"TOWNNAME":"南區","LI":"南華里","LIN":"7鄰","STREET":"中華南路","SECT":"二段","MAREA":" ","LANE":"４００巷","ALLEY":"４弄","HOUSE_NO":"４號二樓","E_COORD97":166426.42000000001,"N_COORD97":2540353.6499999999,"ADDRESS":"中華南路二段４００巷４弄４號二樓","OBJECTID":40716},"geometry":{"x":166426.41999999993,"y":2540353.6500000004}},{"attributes":{"ID":40717,"DIS_CODE":0,"TOWNNAME":"南區","LI":"南華里","LIN":"7鄰","STREET":"中華南路","SECT":"二段","MAREA":" ","LANE":"４００巷","ALLEY":"４弄","HOUSE_NO":"４號三樓","E_COORD97":166426.42000000001,"N_COORD97":2540353.6499999999,"ADDRESS":"中華南路二段４００巷４弄４號三樓","OBJECTID":40717},"geometry":{"x":166426.41999999993,"y":2540353.6500000004}},{"attributes":{"ID":40718,"DIS_CODE":0,"TOWNNAME":"南區","LI":"南華里","LIN":"7鄰","STREET":"中華南路","SECT":"二段","MAREA":" ","LANE":"４００巷","ALLEY":"４弄","HOUSE_NO":"４號五樓","E_COORD97":166426.42000000001,"N_COORD97":2540353.6499999999,"ADDRESS":"中華南路二段４００巷４弄４號五樓","OBJECTID":40718},"geometry":{"x":166426.41999999993,"y":2540353.6500000004}},{"attributes":{"ID":40719,"DIS_CODE":0,"TOWNNAME":"南區","LI":"南華里","LIN":"7鄰","STREET":"中華南路","SECT":"二段","MAREA":" ","LANE":"４００巷","ALLEY":"４弄","HOUSE_NO":"４號四樓","E_COORD97":166426.42000000001,"N_COORD97":2540353.6499999999,"ADDRESS":"中華南路二段４００巷４弄４號四樓","OBJECTID":40719},"geometry":{"x":166426.41999999993,"y":2540353.6500000004}},{"attributes":{"ID":40720,"DIS_CODE":0,"TOWNNAME":"南化區","LI":"北寮里","LIN":"7鄰","STREET":" ","SECT":" ","MAREA":"北寮","LANE":" ","ALLEY":" ","HOUSE_NO":"１０９之８號","E_COORD97":197924.73999999999,"N_COORD97":2553005.7999999998,"ADDRESS":"北寮１０９之８號","OBJECTID":40720},"geometry":{"x":197924.74000000022,"y":2553005.8000000026}},{"attributes":{"ID":40721,"DIS_CODE":0,"TOWNNAME":"南化區","LI":"北寮里","LIN":"7鄰","STREET":" ","SECT":" ","MAREA":"北寮","LANE":" ","ALLEY":" ","HOUSE_NO":"１０９之１號","E_COORD97":197903.84,"N_COORD97":2553023.7999999998,"ADDRESS":"北寮１０９之１號","OBJECTID":40721},"geometry":{"x":197903.84000000171,"y":2553023.8000000007}},{"attributes":{"ID":40722,"DIS_CODE":0,"TOWNNAME":"南化區","LI":"北寮里","LIN":"7鄰","STREET":" ","SECT":" ","MAREA":"北寮","LANE":" ","ALLEY":" ","HOUSE_NO":"１１０之２號","E_COORD97":197949.64000000001,"N_COORD97":2552970.7999999998,"ADDRESS":"北寮１１０之２號","OBJECTID":40722},"geometry":{"x":197949.6400000006,"y":2552970.8000000026}},{"attributes":{"ID":40723,"DIS_CODE":0,"TOWNNAME":"南區","LI":"南華里","LIN":"7鄰","STREET":"中華南路","SECT":"二段","MAREA":" ","LANE":"４００巷","ALLEY":"４弄","HOUSE_NO":"６號二樓","E_COORD97":166434.26999999999,"N_COORD97":2540352.8399999999,"ADDRESS":"中華南路二段４００巷４弄６號二樓","OBJECTID":40723},"geometry":{"x":166434.26999999955,"y":2540352.8399999999}},{"attributes":{"ID":40724,"DIS_CODE":0,"TOWNNAME":"南區","LI":"南華里","LIN":"7鄰","STREET":"中華南路","SECT":"二段","MAREA":" ","LANE":"４００巷","ALLEY":"４弄","HOUSE_NO":"６號三樓","E_COORD97":166434.26999999999,"N_COORD97":2540352.8399999999,"ADDRESS":"中華南路二段４００巷４弄６號三樓","OBJECTID":40724},"geometry":{"x":166434.26999999955,"y":2540352.8399999999}},{"attributes":{"ID":40725,"DIS_CODE":0,"TOWNNAME":"永康區","LI":"龍潭里","LIN":"14鄰","STREET":"龍安街","SECT":" ","MAREA":" ","LANE":" ","ALLEY":" ","HOUSE_NO":"８１號","E_COORD97":174587.66,"N_COORD97":2548284.4300000002,"ADDRESS":"龍安街８１號","OBJECTID":40725},"geometry":{"x":174587.66000000015,"y":2548284.4299999997}},{"attributes":{"ID":40726,"DIS_CODE":0,"TOWNNAME":"永康區","LI":"龍潭里","LIN":"14鄰","STREET":"龍安街","SECT":" ","MAREA":" ","LANE":" ","ALLEY":" ","HOUSE_NO":"８５號","E_COORD97":174590.12,"N_COORD97":2548292.8100000001,"ADDRESS":"龍安街８５號","OBJECTID":40726},"geometry":{"x":174590.12000000104,"y":2548292.8100000024}},{"attributes":{"ID":40727,"DIS_CODE":0,"TOWNNAME":"永康區","LI":"龍潭里","LIN":"14鄰","STREET":"龍橋街","SECT":" ","MAREA":" ","LANE":" ","ALLEY":" ","HOUSE_NO":"１０１號","E_COORD97":174680.64999999999,"N_COORD97":2548507.29,"ADDRESS":"龍橋街１０１號","OBJECTID":40727},"geometry":{"x":174680.6500000013,"y":2548507.290000001}},{"attributes":{"ID":40728,"DIS_CODE":0,"TOWNNAME":"永康區","LI":"龍潭里","LIN":"14鄰","STREET":"龍埔街","SECT":" ","MAREA":" ","LANE":" ","ALLEY":" ","HOUSE_NO":"８０號","E_COORD97":174610.38,"N_COORD97":2548250.54,"ADDRESS":"龍埔街８０號","OBJECTID":40728},"geometry":{"x":174610.38000000082,"y":2548250.5399999991}},{"attributes":{"ID":40729,"DIS_CODE":0,"TOWNNAME":"永康區","LI":"龍潭里","LIN":"14鄰","STREET":"龍橋街","SECT":" ","MAREA":" ","LANE":" ","ALLEY":" ","HOUSE_NO":"１０５號","E_COORD97":174667.31,"N_COORD97":2548523.4199999999,"ADDRESS":"龍橋街１０５號","OBJECTID":40729},"geometry":{"x":174667.30999999959,"y":2548523.4199999999}},{"attributes":{"ID":40730,"DIS_CODE":0,"TOWNNAME":"永康區","LI":"龍潭里","LIN":"14鄰","STREET":"龍埔街","SECT":" ","MAREA":" ","LANE":" ","ALLEY":" ","HOUSE_NO":"１０２號","E_COORD97":174549.26999999999,"N_COORD97":2548263.7799999998,"ADDRESS":"龍埔街１０２號","OBJECTID":40730},"geometry":{"x":174549.27000000142,"y":2548263.7800000012}},{"attributes":{"ID":40731,"DIS_CODE":0,"TOWNNAME":"永康區","LI":"龍潭里","LIN":"14鄰","STREET":"龍埔街","SECT":" ","MAREA":" ","LANE":" ","ALLEY":" ","HOUSE_NO":"９０號","E_COORD97":174578.07999999999,"N_COORD97":2548259.0099999998,"ADDRESS":"龍埔街９０號","OBJECTID":40731},"geometry":{"x":174578.08000000007,"y":2548259.0100000016}},{"attributes":{"ID":40732,"DIS_CODE":0,"TOWNNAME":"永康區","LI":"龍潭里","LIN":"14鄰","STREET":"龍埔街","SECT":" ","MAREA":" ","LANE":" ","ALLEY":" ","HOUSE_NO":"１４８號","E_COORD97":174445.76000000001,"N_COORD97":2547336.75,"ADDRESS":"龍埔街１４８號","OBJECTID":40732},"geometry":{"x":174445.75999999978,"y":2547336.75}},{"attributes":{"ID":40733,"DIS_CODE":0,"TOWNNAME":"永康區","LI":"\u25A0行里","LIN":"14鄰","STREET":"中正六街","SECT":" ","MAREA":" ","LANE":" ","ALLEY":" ","HOUSE_NO":"１６３號","E_COORD97":171843.03,"N_COORD97":2548832,"ADDRESS":"中正六街１６３號","OBJECTID":40733},"geometry":{"x":171843.03000000119,"y":2548832.0000000037}},{"attributes":{"ID":40734,"DIS_CODE":0,"TOWNNAME":"永康區","LI":"\u25A0行里","LIN":"14鄰","STREET":"中正六街","SECT":" ","MAREA":" ","LANE":" ","ALLEY":" ","HOUSE_NO":"１７１號","E_COORD97":171859.20000000001,"N_COORD97":2548852.25,"ADDRESS":"中正六街１７１號","OBJECTID":40734},"geometry":{"x":171859.20000000112,"y":2548852.25}},{"attributes":{"ID":40735,"DIS_CODE":0,"TOWNNAME":"永康區","LI":"龍潭里","LIN":"14鄰","STREET":"龍埔街","SECT":" ","MAREA":" ","LANE":" ","ALLEY":" ","HOUSE_NO":"９６號","E_COORD97":174564.98000000001,"N_COORD97":2548261.0099999998,"ADDRESS":"龍埔街９６號","OBJECTID":40735},"geometry":{"x":174564.98000000045,"y":2548261.0099999998}},{"attributes":{"ID":40736,"DIS_CODE":0,"TOWNNAME":"南區","LI":"南華里","LIN":"7鄰","STREET":"中華南路","SECT":"二段","MAREA":" ","LANE":"４００巷","ALLEY":"４弄","HOUSE_NO":"６號五樓","E_COORD97":166434.26999999999,"N_COORD97":2540352.8399999999,"ADDRESS":"中華南路二段４００巷４弄６號五樓","OBJECTID":40736},"geometry":{"x":166434.26999999955,"y":2540352.8399999999}},{"attributes":{"ID":40737,"DIS_CODE":0,"TOWNNAME":"新化區","LI":"東榮里","LIN":"4鄰","STREET":"信義路","SECT":" ","MAREA":" ","LANE":" ","ALLEY":" ","HOUSE_NO":"８１號","E_COORD97":179857.28,"N_COORD97":2548685.25,"ADDRESS":"信義路８１號","OBJECTID":40737},"geometry":{"x":179857.28000000026,"y":2548685.2500000019}},{"attributes":{"ID":40738,"DIS_CODE":0,"TOWNNAME":"南區","LI":"南華里","LIN":"7鄰","STREET":"中華南路","SECT":"二段","MAREA":" ","LANE":"４００巷","ALLEY":"４弄","HOUSE_NO":"６號四樓","E_COORD97":166434.26999999999,"N_COORD97":2540352.8399999999,"ADDRESS":"中華南路二段４００巷４弄６號四樓","OBJECTID":40738},"geometry":{"x":166434.26999999955,"y":2540352.8399999999}},{"attributes":{"ID":40739,"DIS_CODE":0,"TOWNNAME":"南區","LI":"南華里","LIN":"7鄰","STREET":"中華南路","SECT":"二段","MAREA":" ","LANE":"４００巷","ALLEY":"４弄","HOUSE_NO":"８號二樓","E_COORD97":166442.82000000001,"N_COORD97":2540353.1899999999,"ADDRESS":"中華南路二段４００巷４弄８號二樓","OBJECTID":40739},"geometry":{"x":166442.8200000003,"y":2540353.1899999995}},{"attributes":{"ID":40740,"DIS_CODE":0,"TOWNNAME":"南區","LI":"南華里","LIN":"7鄰","STREET":"中華南路","SECT":"二段","MAREA":" ","LANE":"４００巷","ALLEY":"４弄","HOUSE_NO":"８號三樓","E_COORD97":166442.82000000001,"N_COORD97":2540353.1899999999,"ADDRESS":"中華南路二段４００巷４弄８號三樓","OBJECTID":40740},"geometry":{"x":166442.8200000003,"y":2540353.1899999995}},{"attributes":{"ID":40741,"DIS_CODE":0,"TOWNNAME":"南區","LI":"南華里","LIN":"7鄰","STREET":"中華南路","SECT":"二段","MAREA":" ","LANE":"４００巷","ALLEY":"４弄","HOUSE_NO":"８號五樓","E_COORD97":166442.82000000001,"N_COORD97":2540353.1899999999,"ADDRESS":"中華南路二段４００巷４弄８號五樓","OBJECTID":40741},"geometry":{"x":166442.8200000003,"y":2540353.1899999995}},{"attributes":{"ID":40742,"DIS_CODE":0,"TOWNNAME":"南區","LI":"南華里","LIN":"7鄰","STREET":"中華南路","SECT":"二段","MAREA":" ","LANE":"４００巷","ALLEY":"４弄","HOUSE_NO":"８號四樓","E_COORD97":166442.82000000001,"N_COORD97":2540353.1899999999,"ADDRESS":"中華南路二段４００巷４弄８號四樓","OBJECTID":40742},"geometry":{"x":166442.8200000003,"y":2540353.1899999995}},{"attributes":{"ID":40743,"DIS_CODE":0,"TOWNNAME":"歸仁區","LI":"南保里","LIN":"9鄰","STREET":"文化十街","SECT":" ","MAREA":" ","LANE":"２８巷","ALLEY":"９５弄","HOUSE_NO":"８號","E_COORD97":176788.29000000001,"N_COORD97":2541308.3300000001,"ADDRESS":"文化十街２８巷９５弄８號","OBJECTID":40743},"geometry":{"x":176788.29000000004,"y":2541308.3300000001}},{"attributes":{"ID":40744,"DIS_CODE":0,"TOWNNAME":"安平區","LI":"平安里","LIN":"7鄰","STREET":"安平路","SECT":" ","MAREA":" ","LANE":"３７０巷","ALLEY":"３弄","HOUSE_NO":"１３號二樓","E_COORD97":165475.70999999999,"N_COORD97":2544368.5099999998,"ADDRESS":"安平路３７０巷３弄１３號二樓","OBJECTID":40744},"geometry":{"x":165475.70999999903,"y":2544368.5099999998}},{"attributes":{"ID":40745,"DIS_CODE":0,"TOWNNAME":"安平區","LI":"平安里","LIN":"7鄰","STREET":"安平路","SECT":" ","MAREA":" ","LANE":"３７０巷","ALLEY":"３弄","HOUSE_NO":"１３號三樓","E_COORD97":165475.70999999999,"N_COORD97":2544368.5099999998,"ADDRESS":"安平路３７０巷３弄１３號三樓","OBJECTID":40745},"geometry":{"x":165475.70999999903,"y":2544368.5099999998}},{"attributes":{"ID":40746,"DIS_CODE":0,"TOWNNAME":"安平區","LI":"平安里","LIN":"7鄰","STREET":"安平路","SECT":" ","MAREA":" ","LANE":"３７０巷","ALLEY":"３弄","HOUSE_NO":"１３號四樓","E_COORD97":165475.70999999999,"N_COORD97":2544368.5099999998,"ADDRESS":"安平路３７０巷３弄１３號四樓","OBJECTID":40746},"geometry":{"x":165475.70999999903,"y":2544368.5099999998}},{"attributes":{"ID":40747,"DIS_CODE":0,"TOWNNAME":"安平區","LI":"平安里","LIN":"7鄰","STREET":"安平路","SECT":" ","MAREA":" ","LANE":"３７０巷","ALLEY":"３弄","HOUSE_NO":"１４號二樓","E_COORD97":165474.60000000001,"N_COORD97":2544387.7599999998,"ADDRESS":"安平路３７０巷３弄１４號二樓","OBJECTID":40747},"geometry":{"x":165474.60000000149,"y":2544387.7599999998}},{"attributes":{"ID":40748,"DIS_CODE":0,"TOWNNAME":"安平區","LI":"平安里","LIN":"7鄰","STREET":"安平路","SECT":" ","MAREA":" ","LANE":"３７０巷","ALLEY":"３弄","HOUSE_NO":"１４號三樓","E_COORD97":165474.60000000001,"N_COORD97":2544387.7599999998,"ADDRESS":"安平路３７０巷３弄１４號三樓","OBJECTID":40748},"geometry":{"x":165474.60000000149,"y":2544387.7599999998}},{"attributes":{"ID":40749,"DIS_CODE":0,"TOWNNAME":"安平區","LI":"平安里","LIN":"7鄰","STREET":"安平路","SECT":" ","MAREA":" ","LANE":"３７０巷","ALLEY":"３弄","HOUSE_NO":"１４號四樓","E_COORD97":165474.60000000001,"N_COORD97":2544387.7599999998,"ADDRESS":"安平路３７０巷３弄１４號四樓","OBJECTID":40749},"geometry":{"x":165474.60000000149,"y":2544387.7599999998}},{"attributes":{"ID":40750,"DIS_CODE":0,"TOWNNAME":"安平區","LI":"平安里","LIN":"7鄰","STREET":"安平路","SECT":" ","MAREA":" ","LANE":"３７０巷","ALLEY":"３弄","HOUSE_NO":"１５號二樓","E_COORD97":165465.35000000001,"N_COORD97":2544368.0299999998,"ADDRESS":"安平路３７０巷３弄１５號二樓","OBJECTID":40750},"geometry":{"x":165465.34999999963,"y":2544368.0299999993}},{"attributes":{"ID":40751,"DIS_CODE":0,"TOWNNAME":"安平區","LI":"平安里","LIN":"7鄰","STREET":"安平路","SECT":" ","MAREA":" ","LANE":"３７０巷","ALLEY":"３弄","HOUSE_NO":"１５號三樓","E_COORD97":165465.35000000001,"N_COORD97":2544368.0299999998,"ADDRESS":"安平路３７０巷３弄１５號三樓","OBJECTID":40751},"geometry":{"x":165465.34999999963,"y":2544368.0299999993}},{"attributes":{"ID":40752,"DIS_CODE":0,"TOWNNAME":"安平區","LI":"平安里","LIN":"7鄰","STREET":"安平路","SECT":" ","MAREA":" ","LANE":"３７０巷","ALLEY":"３弄","HOUSE_NO":"１５號四樓","E_COORD97":165465.35000000001,"N_COORD97":2544368.0299999998,"ADDRESS":"安平路３７０巷３弄１５號四樓","OBJECTID":40752},"geometry":{"x":165465.34999999963,"y":2544368.0299999993}},{"attributes":{"ID":40753,"DIS_CODE":0,"TOWNNAME":"安平區","LI":"平安里","LIN":"7鄰","STREET":"安平路","SECT":" ","MAREA":" ","LANE":"３７０巷","ALLEY":"３弄","HOUSE_NO":"１６號二樓","E_COORD97":165463.54999999999,"N_COORD97":2544386.8599999999,"ADDRESS":"安平路３７０巷３弄１６號二樓","OBJECTID":40753},"geometry":{"x":165463.55000000075,"y":2544386.8599999994}},{"attributes":{"ID":40754,"DIS_CODE":0,"TOWNNAME":"安平區","LI":"平安里","LIN":"7鄰","STREET":"安平路","SECT":" ","MAREA":" ","LANE":"３７０巷","ALLEY":"３弄","HOUSE_NO":"１６號三樓","E_COORD97":165463.54999999999,"N_COORD97":2544386.8599999999,"ADDRESS":"安平路３７０巷３弄１６號三樓","OBJECTID":40754},"geometry":{"x":165463.55000000075,"y":2544386.8599999994}},{"attributes":{"ID":40755,"DIS_CODE":0,"TOWNNAME":"安平區","LI":"平安里","LIN":"7鄰","STREET":"安平路","SECT":" ","MAREA":" ","LANE":"３７０巷","ALLEY":"３弄","HOUSE_NO":"１６號四樓","E_COORD97":165463.54999999999,"N_COORD97":2544386.8599999999,"ADDRESS":"安平路３７０巷３弄１６號四樓","OBJECTID":40755},"geometry":{"x":165463.55000000075,"y":2544386.8599999994}},{"attributes":{"ID":40756,"DIS_CODE":0,"TOWNNAME":"安平區","LI":"平安里","LIN":"7鄰","STREET":"安平路","SECT":" ","MAREA":" ","LANE":"３７０巷","ALLEY":"３弄","HOUSE_NO":"１７號二樓","E_COORD97":165453.75,"N_COORD97":2544368.1000000001,"ADDRESS":"安平路３７０巷３弄１７號二樓","OBJECTID":40756},"geometry":{"x":165453.75000000093,"y":2544368.0999999996}},{"attributes":{"ID":40757,"DIS_CODE":0,"TOWNNAME":"新化區","LI":"唪口里","LIN":"4鄰","STREET":"大德路","SECT":" ","MAREA":" ","LANE":" ","ALLEY":" ","HOUSE_NO":"９２號之１９","E_COORD97":178087.57000000001,"N_COORD97":2549512.2599999998,"ADDRESS":"大德路９２號之１９","OBJECTID":40757},"geometry":{"x":178087.57000000216,"y":2549512.2600000016}},{"attributes":{"ID":40758,"DIS_CODE":0,"TOWNNAME":"大內區","LI":"石城里","LIN":"14鄰","STREET":" ","SECT":" ","MAREA":"石子瀨","LANE":" ","ALLEY":" ","HOUSE_NO":"１１２號之３０","E_COORD97":184029.79000000001,"N_COORD97":2557842.2999999998,"ADDRESS":"石子瀨１１２號之３０","OBJECTID":40758},"geometry":{"x":184029.79000000097,"y":2557842.3000000045}},{"attributes":{"ID":40759,"DIS_CODE":0,"TOWNNAME":"大內區","LI":"石城里","LIN":"14鄰","STREET":" ","SECT":" ","MAREA":"石子瀨","LANE":" ","ALLEY":" ","HOUSE_NO":"１１２號之６６","E_COORD97":184053.04000000001,"N_COORD97":2557872.2999999998,"ADDRESS":"石子瀨１１２號之６６","OBJECTID":40759},"geometry":{"x":184053.0400000019,"y":2557872.3000000007}},{"attributes":{"ID":40760,"DIS_CODE":0,"TOWNNAME":"永康區","LI":"龍潭里","LIN":"14鄰","STREET":"龍安街","SECT":" ","MAREA":" ","LANE":" ","ALLEY":" ","HOUSE_NO":"１８２號","E_COORD97":174622.72,"N_COORD97":2548387.5699999998,"ADDRESS":"龍安街１８２號","OBJECTID":40760},"geometry":{"x":174622.7200000016,"y":2548387.570000004}},{"attributes":{"ID":40761,"DIS_CODE":0,"TOWNNAME":"永康區","LI":"王行里","LIN":"14鄰","STREET":"環工路","SECT":" ","MAREA":" ","LANE":" ","ALLEY":" ","HOUSE_NO":"２５號","E_COORD97":175633.84,"N_COORD97":2549696.71,"ADDRESS":"環工路２５號","OBJECTID":40761},"geometry":{"x":175633.83999999985,"y":2549696.7100000028}},{"attributes":{"ID":40762,"DIS_CODE":0,"TOWNNAME":"永康區","LI":"王行里","LIN":"14鄰","STREET":"環工路","SECT":" ","MAREA":" ","LANE":" ","ALLEY":" ","HOUSE_NO":"７號","E_COORD97":175709.53,"N_COORD97":2550001.6099999999,"ADDRESS":"環工路７號","OBJECTID":40762},"geometry":{"x":175709.53000000212,"y":2550001.6100000013}},{"attributes":{"ID":40763,"DIS_CODE":0,"TOWNNAME":"永康區","LI":"正強里","LIN":"14鄰","STREET":"正強街","SECT":" ","MAREA":" ","LANE":" ","ALLEY":" ","HOUSE_NO":"１０７號","E_COORD97":173328.84,"N_COORD97":2547399.4900000002,"ADDRESS":"正強街１０７號","OBJECTID":40763},"geometry":{"x":173328.84000000078,"y":2547399.4900000021}},{"attributes":{"ID":40764,"DIS_CODE":0,"TOWNNAME":"南化區","LI":"北寮里","LIN":"7鄰","STREET":" ","SECT":" ","MAREA":"北寮","LANE":" ","ALLEY":" ","HOUSE_NO":"１１０之１４號","E_COORD97":198015.19,"N_COORD97":2552927.7999999998,"ADDRESS":"北寮１１０之１４號","OBJECTID":40764},"geometry":{"x":198015.19000000041,"y":2552927.8000000026}},{"attributes":{"ID":40765,"DIS_CODE":0,"TOWNNAME":"南化區","LI":"北寮里","LIN":"7鄰","STREET":" ","SECT":" ","MAREA":"北寮","LANE":" ","ALLEY":" ","HOUSE_NO":"１１０之１６號","E_COORD97":198023.59,"N_COORD97":2552921.7999999998,"ADDRESS":"北寮１１０之１６號","OBJECTID":40765},"geometry":{"x":198023.58999999985,"y":2552921.8000000007}},{"attributes":{"ID":40766,"DIS_CODE":0,"TOWNNAME":"安平區","LI":"平安里","LIN":"7鄰","STREET":"安平路","SECT":" ","MAREA":" ","LANE":"３７０巷","ALLEY":"３弄","HOUSE_NO":"１７號三樓","E_COORD97":165453.75,"N_COORD97":2544368.1000000001,"ADDRESS":"安平路３７０巷３弄１７號三樓","OBJECTID":40766},"geometry":{"x":165453.75000000093,"y":2544368.0999999996}},{"attributes":{"ID":40767,"DIS_CODE":0,"TOWNNAME":"安平區","LI":"平安里","LIN":"7鄰","STREET":"安平路","SECT":" ","MAREA":" ","LANE":"３７０巷","ALLEY":"３弄","HOUSE_NO":"１７號四樓","E_COORD97":165453.75,"N_COORD97":2544368.1000000001,"ADDRESS":"安平路３７０巷３弄１７號四樓","OBJECTID":40767},"geometry":{"x":165453.75000000093,"y":2544368.0999999996}},{"attributes":{"ID":40768,"DIS_CODE":0,"TOWNNAME":"安平區","LI":"平安里","LIN":"7鄰","STREET":"安平路","SECT":" ","MAREA":" ","LANE":"３７０巷","ALLEY":"３弄","HOUSE_NO":"１８號二樓","E_COORD97":165452.64000000001,"N_COORD97":2544386.2400000002,"ADDRESS":"安平路３７０巷３弄１８號二樓","OBJECTID":40768},"geometry":{"x":165452.6400000006,"y":2544386.2400000021}},{"attributes":{"ID":40769,"DIS_CODE":0,"TOWNNAME":"安平區","LI":"平安里","LIN":"7鄰","STREET":"安平路","SECT":" ","MAREA":" ","LANE":"３７０巷","ALLEY":"３弄","HOUSE_NO":"１８號三樓","E_COORD97":165452.64000000001,"N_COORD97":2544386.2400000002,"ADDRESS":"安平路３７０巷３弄１８號三樓","OBJECTID":40769},"geometry":{"x":165452.6400000006,"y":2544386.2400000021}},{"attributes":{"ID":40770,"DIS_CODE":0,"TOWNNAME":"安平區","LI":"平安里","LIN":"7鄰","STREET":"安平路","SECT":" ","MAREA":" ","LANE":"３７０巷","ALLEY":"３弄","HOUSE_NO":"１８號四樓","E_COORD97":165452.64000000001,"N_COORD97":2544386.2400000002,"ADDRESS":"安平路３７０巷３弄１８號四樓","OBJECTID":40770},"geometry":{"x":165452.6400000006,"y":2544386.2400000021}},{"attributes":{"ID":40771,"DIS_CODE":0,"TOWNNAME":"南區","LI":"府南里","LIN":"14鄰","STREET":"永成路","SECT":"三段","MAREA":" ","LANE":" ","ALLEY":" ","HOUSE_NO":"３５０號","E_COORD97":167507.553934,"N_COORD97":2540968.90545,"ADDRESS":"永成路三段３５０號","OBJECTID":40771},"geometry":{"x":167507.55393400136,"y":2540968.905452}},{"attributes":{"ID":40772,"DIS_CODE":0,"TOWNNAME":"中西區","LI":"三合里","LIN":"14鄰","STREET":"信義街","SECT":" ","MAREA":" ","LANE":"６０巷","ALLEY":" ","HOUSE_NO":"４２號","E_COORD97":167501.76999999999,"N_COORD97":2544593,"ADDRESS":"信義街６０巷４２號","OBJECTID":40772},"geometry":{"x":167501.76999999955,"y":2544593}},{"attributes":{"ID":40773,"DIS_CODE":0,"TOWNNAME":"中西區","LI":"三合里","LIN":"14鄰","STREET":"忠孝街","SECT":" ","MAREA":" ","LANE":"９３巷","ALLEY":" ","HOUSE_NO":"６３號","E_COORD97":167544.89000000001,"N_COORD97":2544615.8399999999,"ADDRESS":"忠孝街９３巷６３號","OBJECTID":40773},"geometry":{"x":167544.8900000006,"y":2544615.8400000017}},{"attributes":{"ID":40774,"DIS_CODE":0,"TOWNNAME":"永康區","LI":"正強里","LIN":"14鄰","STREET":"正強街","SECT":" ","MAREA":" ","LANE":" ","ALLEY":" ","HOUSE_NO":"８１號","E_COORD97":173333.54000000001,"N_COORD97":2547343.5,"ADDRESS":"正強街８１號","OBJECTID":40774},"geometry":{"x":173333.54000000004,"y":2547343.5000000037}},{"attributes":{"ID":40775,"DIS_CODE":0,"TOWNNAME":"南化區","LI":"北寮里","LIN":"7鄰","STREET":" ","SECT":" ","MAREA":"北寮","LANE":" ","ALLEY":" ","HOUSE_NO":"１１０之２６號","E_COORD97":198147.29000000001,"N_COORD97":2552932.7999999998,"ADDRESS":"北寮１１０之２６號","OBJECTID":40775},"geometry":{"x":198147.29000000097,"y":2552932.8000000045}},{"attributes":{"ID":40776,"DIS_CODE":0,"TOWNNAME":"南化區","LI":"北寮里","LIN":"7鄰","STREET":" ","SECT":" ","MAREA":"北寮","LANE":" ","ALLEY":" ","HOUSE_NO":"１０７之３號","E_COORD97":197875.94,"N_COORD97":2553028.7999999998,"ADDRESS":"北寮１０７之３號","OBJECTID":40776},"geometry":{"x":197875.94000000041,"y":2553028.8000000026}},{"attributes":{"ID":40777,"DIS_CODE":0,"TOWNNAME":"南化區","LI":"北寮里","LIN":"7鄰","STREET":" ","SECT":" ","MAREA":"北寮","LANE":" ","ALLEY":" ","HOUSE_NO":"１１０之１７號","E_COORD97":198027.29000000001,"N_COORD97":2552918.7999999998,"ADDRESS":"北寮１１０之１７號","OBJECTID":40777},"geometry":{"x":198027.29000000004,"y":2552918.8000000007}},{"attributes":{"ID":40778,"DIS_CODE":0,"TOWNNAME":"南化區","LI":"北寮里","LIN":"7鄰","STREET":" ","SECT":" ","MAREA":"北寮","LANE":" ","ALLEY":" ","HOUSE_NO":"１１０之５號","E_COORD97":197961.64000000001,"N_COORD97":2552962.7999999998,"ADDRESS":"北寮１１０之５號","OBJECTID":40778},"geometry":{"x":197961.6400000006,"y":2552962.8000000007}},{"attributes":{"ID":40779,"DIS_CODE":0,"TOWNNAME":"南化區","LI":"北寮里","LIN":"7鄰","STREET":" ","SECT":" ","MAREA":"北寮","LANE":" ","ALLEY":" ","HOUSE_NO":"９９之１號","E_COORD97":197851.59,"N_COORD97":2553087.7999999998,"ADDRESS":"北寮９９之１號","OBJECTID":40779},"geometry":{"x":197851.59000000078,"y":2553087.8000000007}},{"attributes":{"ID":40780,"DIS_CODE":0,"TOWNNAME":"南化區","LI":"北寮里","LIN":"7鄰","STREET":" ","SECT":" ","MAREA":"北寮","LANE":" ","ALLEY":" ","HOUSE_NO":"１０９之６號","E_COORD97":197914.44,"N_COORD97":2553016.7999999998,"ADDRESS":"北寮１０９之６號","OBJECTID":40780},"geometry":{"x":197914.44000000134,"y":2553016.8000000007}},{"attributes":{"ID":40781,"DIS_CODE":0,"TOWNNAME":"南化區","LI":"北寮里","LIN":"7鄰","STREET":" ","SECT":" ","MAREA":"北寮","LANE":" ","ALLEY":" ","HOUSE_NO":"１０９之７號","E_COORD97":197921.54000000001,"N_COORD97":2553007.7999999998,"ADDRESS":"北寮１０９之７號","OBJECTID":40781},"geometry":{"x":197921.54000000097,"y":2553007.8000000026}},{"attributes":{"ID":40782,"DIS_CODE":0,"TOWNNAME":"南化區","LI":"北寮里","LIN":"7鄰","STREET":" ","SECT":" ","MAREA":"北寮","LANE":" ","ALLEY":" ","HOUSE_NO":"１１０之１號","E_COORD97":197947.04000000001,"N_COORD97":2552972.7999999998,"ADDRESS":"北寮１１０之１號","OBJECTID":40782},"geometry":{"x":197947.04000000097,"y":2552972.8000000007}},{"attributes":{"ID":40783,"DIS_CODE":0,"TOWNNAME":"南化區","LI":"北寮里","LIN":"7鄰","STREET":" ","SECT":" ","MAREA":"北寮","LANE":" ","ALLEY":" ","HOUSE_NO":"１０９之２號","E_COORD97":197906.54000000001,"N_COORD97":2553021.7999999998,"ADDRESS":"北寮１０９之２號","OBJECTID":40783},"geometry":{"x":197906.54000000097,"y":2553021.8000000026}},{"attributes":{"ID":40784,"DIS_CODE":0,"TOWNNAME":"南化區","LI":"北寮里","LIN":"7鄰","STREET":" ","SECT":" ","MAREA":"北寮","LANE":" ","ALLEY":" ","HOUSE_NO":"１１０之２９號","E_COORD97":197976.09,"N_COORD97":2552954.7999999998,"ADDRESS":"北寮１１０之２９號","OBJECTID":40784},"geometry":{"x":197976.08999999985,"y":2552954.8000000026}},{"attributes":{"ID":40785,"DIS_CODE":0,"TOWNNAME":"南化區","LI":"北寮里","LIN":"7鄰","STREET":" ","SECT":" ","MAREA":"北寮","LANE":" ","ALLEY":" ","HOUSE_NO":"１０７之１號","E_COORD97":197873.34,"N_COORD97":2553031.7999999998,"ADDRESS":"北寮１０７之１號","OBJECTID":40785},"geometry":{"x":197873.34000000171,"y":2553031.8000000026}},{"attributes":{"ID":40786,"DIS_CODE":0,"TOWNNAME":"南化區","LI":"北寮里","LIN":"7鄰","STREET":" ","SECT":" ","MAREA":"北寮","LANE":" ","ALLEY":" ","HOUSE_NO":"１１０之２３號","E_COORD97":198056.29000000001,"N_COORD97":2552900.7999999998,"ADDRESS":"北寮１１０之２３號","OBJECTID":40786},"geometry":{"x":198056.29000000004,"y":2552900.8000000007}},{"attributes":{"ID":40787,"DIS_CODE":0,"TOWNNAME":"南化區","LI":"北寮里","LIN":"7鄰","STREET":" ","SECT":" ","MAREA":"北寮","LANE":" ","ALLEY":" ","HOUSE_NO":"１１０之１３號","E_COORD97":198052.69,"N_COORD97":2552974.7999999998,"ADDRESS":"北寮１１０之１３號","OBJECTID":40787},"geometry":{"x":198052.69000000041,"y":2552974.8000000026}},{"attributes":{"ID":40788,"DIS_CODE":0,"TOWNNAME":"南化區","LI":"北寮里","LIN":"7鄰","STREET":" ","SECT":" ","MAREA":"北寮","LANE":" ","ALLEY":" ","HOUSE_NO":"１０９之１１號","E_COORD97":197935.69,"N_COORD97":2552997.7999999998,"ADDRESS":"北寮１０９之１１號","OBJECTID":40788},"geometry":{"x":197935.69000000041,"y":2552997.8000000026}},{"attributes":{"ID":40789,"DIS_CODE":0,"TOWNNAME":"南化區","LI":"北寮里","LIN":"7鄰","STREET":" ","SECT":" ","MAREA":"北寮","LANE":" ","ALLEY":" ","HOUSE_NO":"１１０之１２號","E_COORD97":198002.09,"N_COORD97":2552936.7999999998,"ADDRESS":"北寮１１０之１２號","OBJECTID":40789},"geometry":{"x":198002.09000000171,"y":2552936.8000000026}},{"attributes":{"ID":40790,"DIS_CODE":0,"TOWNNAME":"南化區","LI":"北寮里","LIN":"7鄰","STREET":" ","SECT":" ","MAREA":"北寮","LANE":" ","ALLEY":" ","HOUSE_NO":"１１０之９號","E_COORD97":197978.04000000001,"N_COORD97":2552951.7999999998,"ADDRESS":"北寮１１０之９號","OBJECTID":40790},"geometry":{"x":197978.04000000097,"y":2552951.8000000007}},{"attributes":{"ID":40791,"DIS_CODE":0,"TOWNNAME":"新營區","LI":"角帶里","LIN":"7鄰","STREET":" ","SECT":" ","MAREA":"角帶圍","LANE":" ","ALLEY":" ","HOUSE_NO":"８７號","E_COORD97":174771.29999999999,"N_COORD97":2575600.4500000002,"ADDRESS":"角帶圍８７號","OBJECTID":40791},"geometry":{"x":174771.29999999981,"y":2575600.4499999993}},{"attributes":{"ID":40792,"DIS_CODE":0,"TOWNNAME":"新營區","LI":"角帶里","LIN":"7鄰","STREET":" ","SECT":" ","MAREA":"角帶圍","LANE":" ","ALLEY":" ","HOUSE_NO":"８７號之２","E_COORD97":174803.39000000001,"N_COORD97":2575585.9500000002,"ADDRESS":"角帶圍８７號之２","OBJECTID":40792},"geometry":{"x":174803.3900000006,"y":2575585.9500000011}},{"attributes":{"ID":40793,"DIS_CODE":0,"TOWNNAME":"南化區","LI":"北寮里","LIN":"7鄰","STREET":" ","SECT":" ","MAREA":"北寮","LANE":" ","ALLEY":" ","HOUSE_NO":"１０８之２號","E_COORD97":197887.14000000001,"N_COORD97":2553017.7999999998,"ADDRESS":"北寮１０８之２號","OBJECTID":40793},"geometry":{"x":197887.13999999966,"y":2553017.8000000045}},{"attributes":{"ID":40794,"DIS_CODE":0,"TOWNNAME":"南化區","LI":"北寮里","LIN":"7鄰","STREET":" ","SECT":" ","MAREA":"北寮","LANE":" ","ALLEY":" ","HOUSE_NO":"１１０之２４號","E_COORD97":198063.09,"N_COORD97":2552891.7999999998,"ADDRESS":"北寮１１０之２４號","OBJECTID":40794},"geometry":{"x":198063.09000000171,"y":2552891.8000000007}},{"attributes":{"ID":40795,"DIS_CODE":0,"TOWNNAME":"新市區","LI":"三舍里","LIN":"7鄰","STREET":" ","SECT":" ","MAREA":"三舍","LANE":" ","ALLEY":" ","HOUSE_NO":"１７２號","E_COORD97":177515.70000000001,"N_COORD97":2554800.5,"ADDRESS":"三舍１７２號","OBJECTID":40795},"geometry":{"x":177515.70000000112,"y":2554800.5000000019}},{"attributes":{"ID":40796,"DIS_CODE":0,"TOWNNAME":"南化區","LI":"北寮里","LIN":"7鄰","STREET":" ","SECT":" ","MAREA":"北寮","LANE":" ","ALLEY":" ","HOUSE_NO":"１１０之２１號","E_COORD97":198049.39000000001,"N_COORD97":2552906.7999999998,"ADDRESS":"北寮１１０之２１號","OBJECTID":40796},"geometry":{"x":198049.3900000006,"y":2552906.8000000026}},{"attributes":{"ID":40797,"DIS_CODE":0,"TOWNNAME":"新市區","LI":"大營里","LIN":"7鄰","STREET":" ","SECT":" ","MAREA":"大營","LANE":" ","ALLEY":" ","HOUSE_NO":"１５６之２６號","E_COORD97":179491.38,"N_COORD97":2555458.5499999998,"ADDRESS":"大營１５６之２６號","OBJECTID":40797},"geometry":{"x":179491.37999999989,"y":2555458.5500000026}},{"attributes":{"ID":40798,"DIS_CODE":0,"TOWNNAME":"東區","LI":"崇文里","LIN":"14鄰","STREET":"崇德十九街","SECT":" ","MAREA":" ","LANE":" ","ALLEY":" ","HOUSE_NO":"５５號","E_COORD97":170993.45000000001,"N_COORD97":2540986.0800000001,"ADDRESS":"崇德十九街５５號","OBJECTID":40798},"geometry":{"x":170993.45000000019,"y":2540986.0800000038}},{"attributes":{"ID":40799,"DIS_CODE":0,"TOWNNAME":"白河區","LI":"關嶺里","LIN":"14鄰","STREET":" ","SECT":" ","MAREA":"關子嶺","LANE":" ","ALLEY":" ","HOUSE_NO":"１之１６號","E_COORD97":200656.56889,"N_COORD97":2583898.7283700001,"ADDRESS":"關子嶺１之１６號","OBJECTID":40799},"geometry":{"x":200656.56888999976,"y":2583898.7283700015}},{"attributes":{"ID":40800,"DIS_CODE":0,"TOWNNAME":"白河區","LI":"關嶺里","LIN":"14鄰","STREET":" ","SECT":" ","MAREA":"關子嶺","LANE":" ","ALLEY":" ","HOUSE_NO":"１號","E_COORD97":201549.001525,"N_COORD97":2581791.7660099999,"ADDRESS":"關子嶺１號","OBJECTID":40800},"geometry":{"x":201549.00152500067,"y":2581791.7660120018}}]}